{"displayFieldName":"TOWNNAME","fieldAliases":{"ID":"ID","DIS_CODE":"DIS_CODE","TOWNNAME":"TOWNNAME","LI":"LI","LIN":"LIN","STREET":"STREET","SECT":"SECT","MAREA":"MAREA","LANE":"LANE","ALLEY":"ALLEY","HOUSE_NO":"HOUSE_NO","E_COORD97":"E_COORD97","N_COORD97":"N_COORD97","ADDRESS":"ADDRESS","OBJECTID":"OBJECTID"},"geometryType":"esriGeometryPoint","spatialReference":{"wkid":102443,"latestWkid":3826},"fields":[{"name":"ID","type":"esriFieldTypeDouble","alias":"ID"},{"name":"DIS_CODE","type":"esriFieldTypeInteger","alias":"DIS_CODE"},{"name":"TOWNNAME","type":"esriFieldTypeString","alias":"TOWNNAME","length":8},{"name":"LI","type":"esriFieldTypeString","alias":"LI","length":8},{"name":"LIN","type":"esriFieldTypeString","alias":"LIN","length":12},{"name":"STREET","type":"esriFieldTypeString","alias":"STREET","length":20},{"name":"SECT","type":"esriFieldTypeString","alias":"SECT","length":8},{"name":"MAREA","type":"esriFieldTypeString","alias":"MAREA","length":12},{"name":"LANE","type":"esriFieldTypeString","alias":"LANE","length":10},{"name":"ALLEY","type":"esriFieldTypeString","alias":"ALLEY","length":10},{"name":"HOUSE_NO","type":"esriFieldTypeString","alias":"HOUSE_NO","length":20},{"name":"E_COORD97","type":"esriFieldTypeDouble","alias":"E_COORD97"},{"name":"N_COORD97","type":"esriFieldTypeDouble","alias":"N_COORD97"},{"name":"ADDRESS","type":"esriFieldTypeString","alias":"ADDRESS","length":50},{"name":"OBJECTID","type":"esriFieldTypeOID","alias":"OBJECTID"}],"features":[{"attributes":{"ID":349410,"DIS_CODE":0,"TOWNNAME":"仁德區","LI":"後壁里","LIN":"8鄰","STREET":"民安路","SECT":"二段","MAREA":" ","LANE":" ","ALLEY":" ","HOUSE_NO":"１５０號","E_COORD97":173703.57000000001,"N_COORD97":2539026.5600000001,"ADDRESS":"民安路二段１５０號","OBJECTID":349401},"geometry":{"x":173703.5700000003,"y":2539026.5600000005}},{"attributes":{"ID":349411,"DIS_CODE":0,"TOWNNAME":"仁德區","LI":"後壁里","LIN":"8鄰","STREET":"德善二街","SECT":" ","MAREA":" ","LANE":" ","ALLEY":" ","HOUSE_NO":"６１號","E_COORD97":173664.87,"N_COORD97":2538991.02,"ADDRESS":"德善二街６１號","OBJECTID":349402},"geometry":{"x":173664.87000000104,"y":2538991.0199999996}},{"attributes":{"ID":349412,"DIS_CODE":0,"TOWNNAME":"永康區","LI":"六合里","LIN":"8鄰","STREET":"六合路","SECT":" ","MAREA":" ","LANE":" ","ALLEY":" ","HOUSE_NO":"５３號","E_COORD97":171156.45000000001,"N_COORD97":2545606,"ADDRESS":"六合路５３號","OBJECTID":349403},"geometry":{"x":171156.45000000019,"y":2545606}},{"attributes":{"ID":349413,"DIS_CODE":0,"TOWNNAME":"永康區","LI":"六合里","LIN":"8鄰","STREET":"六合路","SECT":" ","MAREA":" ","LANE":" ","ALLEY":" ","HOUSE_NO":"５５號","E_COORD97":171156.5,"N_COORD97":2545609.5,"ADDRESS":"六合路５５號","OBJECTID":349404},"geometry":{"x":171156.50000000093,"y":2545609.5}},{"attributes":{"ID":349414,"DIS_CODE":0,"TOWNNAME":"永康區","LI":"正強里","LIN":"8鄰","STREET":"永正路","SECT":" ","MAREA":" ","LANE":" ","ALLEY":" ","HOUSE_NO":"８９號","E_COORD97":173508.04999999999,"N_COORD97":2547509.7799999998,"ADDRESS":"永正路８９號","OBJECTID":349405},"geometry":{"x":173508.04999999981,"y":2547509.7799999993}},{"attributes":{"ID":349415,"DIS_CODE":0,"TOWNNAME":"永康區","LI":"正強里","LIN":"8鄰","STREET":"永正路","SECT":" ","MAREA":" ","LANE":" ","ALLEY":" ","HOUSE_NO":"９１號","E_COORD97":173509.62,"N_COORD97":2547517.23,"ADDRESS":"永正路９１號","OBJECTID":349406},"geometry":{"x":173509.62000000011,"y":2547517.2300000004}},{"attributes":{"ID":349416,"DIS_CODE":0,"TOWNNAME":"永康區","LI":"正強里","LIN":"8鄰","STREET":"永正路","SECT":" ","MAREA":" ","LANE":" ","ALLEY":" ","HOUSE_NO":"９３號","E_COORD97":173505.57000000001,"N_COORD97":2547528.3399999999,"ADDRESS":"永正路９３號","OBJECTID":349407},"geometry":{"x":173505.57000000216,"y":2547528.3400000017}},{"attributes":{"ID":349417,"DIS_CODE":0,"TOWNNAME":"永康區","LI":"正強里","LIN":"8鄰","STREET":"永正路","SECT":" ","MAREA":" ","LANE":" ","ALLEY":" ","HOUSE_NO":"８７號","E_COORD97":173508.26999999999,"N_COORD97":2547504.1400000001,"ADDRESS":"永正路８７號","OBJECTID":349408},"geometry":{"x":173508.26999999955,"y":2547504.1400000025}},{"attributes":{"ID":349418,"DIS_CODE":0,"TOWNNAME":"永康區","LI":"東橋里","LIN":"8鄰","STREET":"東橋一路","SECT":" ","MAREA":" ","LANE":" ","ALLEY":" ","HOUSE_NO":"８９號","E_COORD97":171524.32000000001,"N_COORD97":2546415.5600000001,"ADDRESS":"東橋一路８９號","OBJECTID":349409},"geometry":{"x":171524.32000000123,"y":2546415.5600000024}},{"attributes":{"ID":349419,"DIS_CODE":0,"TOWNNAME":"仁德區","LI":"二行里","LIN":"8鄰","STREET":"行大一街","SECT":" ","MAREA":" ","LANE":" ","ALLEY":" ","HOUSE_NO":"８３號","E_COORD97":170162.82000000001,"N_COORD97":2535083.7400000002,"ADDRESS":"行大一街８３號","OBJECTID":349410},"geometry":{"x":170162.82000000123,"y":2535083.7400000021}},{"attributes":{"ID":349420,"DIS_CODE":0,"TOWNNAME":"仁德區","LI":"土庫里","LIN":"8鄰","STREET":"土庫路","SECT":" ","MAREA":" ","LANE":" ","ALLEY":" ","HOUSE_NO":"１６號","E_COORD97":174203.73000000001,"N_COORD97":2543360.4900000002,"ADDRESS":"土庫路１６號","OBJECTID":349411},"geometry":{"x":174203.73000000138,"y":2543360.4900000021}},{"attributes":{"ID":349421,"DIS_CODE":0,"TOWNNAME":"仁德區","LI":"仁義里","LIN":"8鄰","STREET":"中山路","SECT":" ","MAREA":" ","LANE":" ","ALLEY":" ","HOUSE_NO":"５０１號","E_COORD97":173593.39000000001,"N_COORD97":2541280.2400000002,"ADDRESS":"中山路５０１號","OBJECTID":349412},"geometry":{"x":173593.38999999966,"y":2541280.2400000039}},{"attributes":{"ID":349422,"DIS_CODE":0,"TOWNNAME":"仁德區","LI":"土庫里","LIN":"8鄰","STREET":"土庫六街","SECT":" ","MAREA":" ","LANE":" ","ALLEY":" ","HOUSE_NO":"３６號","E_COORD97":174210.32000000001,"N_COORD97":2543273.4900000002,"ADDRESS":"土庫六街３６號","OBJECTID":349413},"geometry":{"x":174210.3200000003,"y":2543273.4900000021}},{"attributes":{"ID":349423,"DIS_CODE":0,"TOWNNAME":"仁德區","LI":"仁義里","LIN":"8鄰","STREET":"中山路","SECT":" ","MAREA":" ","LANE":" ","ALLEY":" ","HOUSE_NO":"４７３號","E_COORD97":173656.10000000001,"N_COORD97":2541272.5,"ADDRESS":"中山路４７３號","OBJECTID":349414},"geometry":{"x":173656.10000000056,"y":2541272.5000000019}},{"attributes":{"ID":349424,"DIS_CODE":0,"TOWNNAME":"仁德區","LI":"仁義里","LIN":"8鄰","STREET":"仁義一街","SECT":" ","MAREA":" ","LANE":" ","ALLEY":" ","HOUSE_NO":"１２１號","E_COORD97":173600.04000000001,"N_COORD97":2541195.7599999998,"ADDRESS":"仁義一街１２１號","OBJECTID":349415},"geometry":{"x":173600.04000000004,"y":2541195.7600000016}},{"attributes":{"ID":349425,"DIS_CODE":0,"TOWNNAME":"仁德區","LI":"二行里","LIN":"8鄰","STREET":"行大街","SECT":" ","MAREA":" ","LANE":" ","ALLEY":" ","HOUSE_NO":"１０１號","E_COORD97":170129.59,"N_COORD97":2535092.2400000002,"ADDRESS":"行大街１０１號","OBJECTID":349416},"geometry":{"x":170129.58999999985,"y":2535092.2400000002}},{"attributes":{"ID":349426,"DIS_CODE":0,"TOWNNAME":"北區","LI":"小康里","LIN":"18鄰","STREET":"公園路","SECT":" ","MAREA":" ","LANE":"１０９２巷","ALLEY":" ","HOUSE_NO":"２１號","E_COORD97":169772.64999999999,"N_COORD97":2546621.48,"ADDRESS":"公園路１０９２巷２１號","OBJECTID":349417},"geometry":{"x":169772.6500000013,"y":2546621.4800000004}},{"attributes":{"ID":349427,"DIS_CODE":0,"TOWNNAME":"北區","LI":"小康里","LIN":"18鄰","STREET":"公園路","SECT":" ","MAREA":" ","LANE":"１０９２巷","ALLEY":" ","HOUSE_NO":"２２號","E_COORD97":169771.32000000001,"N_COORD97":2546601.5099999998,"ADDRESS":"公園路１０９２巷２２號","OBJECTID":349418},"geometry":{"x":169771.32000000123,"y":2546601.5100000016}},{"attributes":{"ID":349428,"DIS_CODE":0,"TOWNNAME":"北區","LI":"小康里","LIN":"18鄰","STREET":"公園路","SECT":" ","MAREA":" ","LANE":"１０９２巷","ALLEY":" ","HOUSE_NO":"２３號","E_COORD97":169776.32000000001,"N_COORD97":2546623.2000000002,"ADDRESS":"公園路１０９２巷２３號","OBJECTID":349419},"geometry":{"x":169776.32000000123,"y":2546623.2000000011}},{"attributes":{"ID":349429,"DIS_CODE":0,"TOWNNAME":"北區","LI":"小康里","LIN":"18鄰","STREET":"公園路","SECT":" ","MAREA":" ","LANE":"１０９２巷","ALLEY":" ","HOUSE_NO":"２４號","E_COORD97":169774.03,"N_COORD97":2546599.3999999999,"ADDRESS":"公園路１０９２巷２４號","OBJECTID":349420},"geometry":{"x":169774.03000000026,"y":2546599.4000000022}},{"attributes":{"ID":349430,"DIS_CODE":0,"TOWNNAME":"北區","LI":"小康里","LIN":"18鄰","STREET":"公園路","SECT":" ","MAREA":" ","LANE":"１０９２巷","ALLEY":" ","HOUSE_NO":"２５號","E_COORD97":169779.88,"N_COORD97":2546621.8199999998,"ADDRESS":"公園路１０９２巷２５號","OBJECTID":349421},"geometry":{"x":169779.87999999989,"y":2546621.8200000003}},{"attributes":{"ID":349431,"DIS_CODE":0,"TOWNNAME":"北區","LI":"小康里","LIN":"18鄰","STREET":"公園路","SECT":" ","MAREA":" ","LANE":"１０９２巷","ALLEY":" ","HOUSE_NO":"２６號","E_COORD97":169776.67000000001,"N_COORD97":2546602.2599999998,"ADDRESS":"公園路１０９２巷２６號","OBJECTID":349422},"geometry":{"x":169776.67000000179,"y":2546602.2600000035}},{"attributes":{"ID":349432,"DIS_CODE":0,"TOWNNAME":"永康區","LI":"復華里","LIN":"6鄰","STREET":"國華街","SECT":" ","MAREA":" ","LANE":"１０２巷","ALLEY":" ","HOUSE_NO":"９８號十樓之１","E_COORD97":173001.94,"N_COORD97":2546180.0800000001,"ADDRESS":"國華街１０２巷９８號十樓之１","OBJECTID":349423},"geometry":{"x":173001.94000000134,"y":2546180.0800000038}},{"attributes":{"ID":349433,"DIS_CODE":0,"TOWNNAME":"永康區","LI":"復華里","LIN":"6鄰","STREET":"國華街","SECT":" ","MAREA":" ","LANE":"１０２巷","ALLEY":" ","HOUSE_NO":"９８號五樓之２","E_COORD97":173002.07000000001,"N_COORD97":2546180.0800000001,"ADDRESS":"國華街１０２巷９８號五樓之２","OBJECTID":349424},"geometry":{"x":173002.07000000216,"y":2546180.0800000038}},{"attributes":{"ID":349434,"DIS_CODE":0,"TOWNNAME":"永康區","LI":"復華里","LIN":"6鄰","STREET":"國華街","SECT":" ","MAREA":" ","LANE":"１０２巷","ALLEY":" ","HOUSE_NO":"１００號十一樓之１","E_COORD97":172986.94,"N_COORD97":2546184.3300000001,"ADDRESS":"國華街１０２巷１００號十一樓之１","OBJECTID":349425},"geometry":{"x":172986.94000000134,"y":2546184.3300000001}},{"attributes":{"ID":349435,"DIS_CODE":0,"TOWNNAME":"永康區","LI":"復華里","LIN":"6鄰","STREET":"國華街","SECT":" ","MAREA":" ","LANE":"１０２巷","ALLEY":" ","HOUSE_NO":"９８號八樓之２","E_COORD97":173002.07000000001,"N_COORD97":2546180.0800000001,"ADDRESS":"國華街１０２巷９８號八樓之２","OBJECTID":349426},"geometry":{"x":173002.07000000216,"y":2546180.0800000038}},{"attributes":{"ID":349436,"DIS_CODE":0,"TOWNNAME":"永康區","LI":"復華里","LIN":"6鄰","STREET":"國華街","SECT":" ","MAREA":" ","LANE":"１０２巷","ALLEY":" ","HOUSE_NO":"１００號六樓之２","E_COORD97":172985.82000000001,"N_COORD97":2546184.3300000001,"ADDRESS":"國華街１０２巷１００號六樓之２","OBJECTID":349427},"geometry":{"x":172985.82000000123,"y":2546184.3300000001}},{"attributes":{"ID":349437,"DIS_CODE":0,"TOWNNAME":"安平區","LI":"怡平里","LIN":"18鄰","STREET":"文平路","SECT":" ","MAREA":" ","LANE":"４６１巷","ALLEY":" ","HOUSE_NO":"４８號","E_COORD97":165692.53,"N_COORD97":2543894.9300000002,"ADDRESS":"文平路４６１巷４８號","OBJECTID":349428},"geometry":{"x":165692.52999999933,"y":2543894.9299999997}},{"attributes":{"ID":349438,"DIS_CODE":0,"TOWNNAME":"永康區","LI":"復華里","LIN":"6鄰","STREET":"國華街","SECT":" ","MAREA":" ","LANE":"１０２巷","ALLEY":" ","HOUSE_NO":"１００號八樓之２","E_COORD97":172985.82000000001,"N_COORD97":2546184.3300000001,"ADDRESS":"國華街１０２巷１００號八樓之２","OBJECTID":349429},"geometry":{"x":172985.82000000123,"y":2546184.3300000001}},{"attributes":{"ID":349439,"DIS_CODE":0,"TOWNNAME":"永康區","LI":"復華里","LIN":"6鄰","STREET":"國華街","SECT":" ","MAREA":" ","LANE":"１０２巷","ALLEY":" ","HOUSE_NO":"１００號四樓之２","E_COORD97":172985.82000000001,"N_COORD97":2546184.3300000001,"ADDRESS":"國華街１０２巷１００號四樓之２","OBJECTID":349430},"geometry":{"x":172985.82000000123,"y":2546184.3300000001}},{"attributes":{"ID":349440,"DIS_CODE":0,"TOWNNAME":"永康區","LI":"復華里","LIN":"6鄰","STREET":"國華街","SECT":" ","MAREA":" ","LANE":"１０２巷","ALLEY":" ","HOUSE_NO":"９８號十樓之２","E_COORD97":173002.07000000001,"N_COORD97":2546180.0800000001,"ADDRESS":"國華街１０２巷９８號十樓之２","OBJECTID":349431},"geometry":{"x":173002.07000000216,"y":2546180.0800000038}},{"attributes":{"ID":349441,"DIS_CODE":0,"TOWNNAME":"永康區","LI":"復華里","LIN":"6鄰","STREET":"國華街","SECT":" ","MAREA":" ","LANE":"１０２巷","ALLEY":" ","HOUSE_NO":"１００號十樓之２","E_COORD97":172985.82000000001,"N_COORD97":2546184.3300000001,"ADDRESS":"國華街１０２巷１００號十樓之２","OBJECTID":349432},"geometry":{"x":172985.82000000123,"y":2546184.3300000001}},{"attributes":{"ID":349442,"DIS_CODE":0,"TOWNNAME":"永康區","LI":"復華里","LIN":"6鄰","STREET":"國華街","SECT":" ","MAREA":" ","LANE":"１０２巷","ALLEY":" ","HOUSE_NO":"９８號四樓之２","E_COORD97":173002.07000000001,"N_COORD97":2546180.0800000001,"ADDRESS":"國華街１０２巷９８號四樓之２","OBJECTID":349433},"geometry":{"x":173002.07000000216,"y":2546180.0800000038}},{"attributes":{"ID":349443,"DIS_CODE":0,"TOWNNAME":"永康區","LI":"復華里","LIN":"6鄰","STREET":"國華街","SECT":" ","MAREA":" ","LANE":"１０２巷","ALLEY":" ","HOUSE_NO":"１００號七樓之２","E_COORD97":172985.82000000001,"N_COORD97":2546184.3300000001,"ADDRESS":"國華街１０２巷１００號七樓之２","OBJECTID":349434},"geometry":{"x":172985.82000000123,"y":2546184.3300000001}},{"attributes":{"ID":349444,"DIS_CODE":0,"TOWNNAME":"永康區","LI":"復華里","LIN":"6鄰","STREET":"國華街","SECT":" ","MAREA":" ","LANE":"１０２巷","ALLEY":" ","HOUSE_NO":"１００號十樓之１","E_COORD97":172985.69,"N_COORD97":2546184.3300000001,"ADDRESS":"國華街１０２巷１００號十樓之１","OBJECTID":349435},"geometry":{"x":172985.69000000041,"y":2546184.3300000001}},{"attributes":{"ID":349445,"DIS_CODE":0,"TOWNNAME":"永康區","LI":"復華里","LIN":"6鄰","STREET":"國華街","SECT":" ","MAREA":" ","LANE":"１０２巷","ALLEY":" ","HOUSE_NO":"１００號五樓之１","E_COORD97":172985.69,"N_COORD97":2546184.3300000001,"ADDRESS":"國華街１０２巷１００號五樓之１","OBJECTID":349436},"geometry":{"x":172985.69000000041,"y":2546184.3300000001}},{"attributes":{"ID":349446,"DIS_CODE":0,"TOWNNAME":"永康區","LI":"復華里","LIN":"6鄰","STREET":"國華街","SECT":" ","MAREA":" ","LANE":"１０２巷","ALLEY":" ","HOUSE_NO":"１００號六樓之１","E_COORD97":172985.69,"N_COORD97":2546184.3300000001,"ADDRESS":"國華街１０２巷１００號六樓之１","OBJECTID":349437},"geometry":{"x":172985.69000000041,"y":2546184.3300000001}},{"attributes":{"ID":349447,"DIS_CODE":0,"TOWNNAME":"永康區","LI":"復華里","LIN":"6鄰","STREET":"國華街","SECT":" ","MAREA":" ","LANE":"１０２巷","ALLEY":" ","HOUSE_NO":"９８號七樓之１","E_COORD97":173001.94,"N_COORD97":2546180.0800000001,"ADDRESS":"國華街１０２巷９８號七樓之１","OBJECTID":349438},"geometry":{"x":173001.94000000134,"y":2546180.0800000038}},{"attributes":{"ID":349448,"DIS_CODE":0,"TOWNNAME":"永康區","LI":"復華里","LIN":"6鄰","STREET":"國華街","SECT":" ","MAREA":" ","LANE":"１０２巷","ALLEY":" ","HOUSE_NO":"１００號九樓之２","E_COORD97":172985.82000000001,"N_COORD97":2546184.3300000001,"ADDRESS":"國華街１０２巷１００號九樓之２","OBJECTID":349439},"geometry":{"x":172985.82000000123,"y":2546184.3300000001}},{"attributes":{"ID":349449,"DIS_CODE":0,"TOWNNAME":"永康區","LI":"復華里","LIN":"6鄰","STREET":"國華街","SECT":" ","MAREA":" ","LANE":"１０２巷","ALLEY":" ","HOUSE_NO":"９８號三樓之１","E_COORD97":173001.94,"N_COORD97":2546180.0800000001,"ADDRESS":"國華街１０２巷９８號三樓之１","OBJECTID":349440},"geometry":{"x":173001.94000000134,"y":2546180.0800000038}},{"attributes":{"ID":349450,"DIS_CODE":0,"TOWNNAME":"新化區","LI":"清水里","LIN":"8鄰","STREET":"忠孝路","SECT":" ","MAREA":" ","LANE":" ","ALLEY":" ","HOUSE_NO":"１２９號","E_COORD97":178709.12,"N_COORD97":2548636.25,"ADDRESS":"忠孝路１２９號","OBJECTID":349441},"geometry":{"x":178709.11999999918,"y":2548636.25}},{"attributes":{"ID":349451,"DIS_CODE":0,"TOWNNAME":"新化區","LI":"清水里","LIN":"8鄰","STREET":"忠孝路","SECT":" ","MAREA":" ","LANE":" ","ALLEY":" ","HOUSE_NO":"１２３號","E_COORD97":178692.22,"N_COORD97":2548610.25,"ADDRESS":"忠孝路１２３號","OBJECTID":349442},"geometry":{"x":178692.21999999974,"y":2548610.2500000019}},{"attributes":{"ID":349452,"DIS_CODE":0,"TOWNNAME":"新化區","LI":"清水里","LIN":"8鄰","STREET":"民權街","SECT":" ","MAREA":" ","LANE":" ","ALLEY":" ","HOUSE_NO":"７５號","E_COORD97":178737.85999999999,"N_COORD97":2548602.25,"ADDRESS":"民權街７５號","OBJECTID":349443},"geometry":{"x":178737.86000000034,"y":2548602.25}},{"attributes":{"ID":349453,"DIS_CODE":0,"TOWNNAME":"新化區","LI":"太平里","LIN":"8鄰","STREET":"中正路","SECT":" ","MAREA":" ","LANE":" ","ALLEY":" ","HOUSE_NO":"６１２號","E_COORD97":178741.91,"N_COORD97":2549267.25,"ADDRESS":"中正路６１２號","OBJECTID":349444},"geometry":{"x":178741.91000000108,"y":2549267.2499999981}},{"attributes":{"ID":349454,"DIS_CODE":0,"TOWNNAME":"新化區","LI":"太平里","LIN":"8鄰","STREET":"中正路","SECT":" ","MAREA":" ","LANE":" ","ALLEY":" ","HOUSE_NO":"６３８號","E_COORD97":178704.01000000001,"N_COORD97":2549344.25,"ADDRESS":"中正路６３８號","OBJECTID":349445},"geometry":{"x":178704.00999999978,"y":2549344.25}},{"attributes":{"ID":349455,"DIS_CODE":0,"TOWNNAME":"東區","LI":"路東里","LIN":"8鄰","STREET":"大同路","SECT":"二段","MAREA":" ","LANE":" ","ALLEY":" ","HOUSE_NO":"５５號","E_COORD97":169307.57000000001,"N_COORD97":2542256.5699999998,"ADDRESS":"大同路二段５５號","OBJECTID":349446},"geometry":{"x":169307.5700000003,"y":2542256.5700000003}},{"attributes":{"ID":349456,"DIS_CODE":0,"TOWNNAME":"東區","LI":"路東里","LIN":"8鄰","STREET":"大同路","SECT":"二段","MAREA":" ","LANE":" ","ALLEY":" ","HOUSE_NO":"５９號","E_COORD97":169310.39999999999,"N_COORD97":2542248.9100000001,"ADDRESS":"大同路二段５９號","OBJECTID":349447},"geometry":{"x":169310.40000000037,"y":2542248.910000002}},{"attributes":{"ID":349457,"DIS_CODE":0,"TOWNNAME":"北區","LI":"小康里","LIN":"18鄰","STREET":"公園路","SECT":" ","MAREA":" ","LANE":"１０９２巷","ALLEY":" ","HOUSE_NO":"２８號","E_COORD97":169781.60000000001,"N_COORD97":2546599.5099999998,"ADDRESS":"公園路１０９２巷２８號","OBJECTID":349448},"geometry":{"x":169781.59999999963,"y":2546599.5099999998}},{"attributes":{"ID":349458,"DIS_CODE":0,"TOWNNAME":"北區","LI":"小康里","LIN":"18鄰","STREET":"公園路","SECT":" ","MAREA":" ","LANE":"１０９２巷","ALLEY":" ","HOUSE_NO":"２９號","E_COORD97":169792.16,"N_COORD97":2546622.2799999998,"ADDRESS":"公園路１０９２巷２９號","OBJECTID":349449},"geometry":{"x":169792.15999999922,"y":2546622.2800000031}},{"attributes":{"ID":349459,"DIS_CODE":0,"TOWNNAME":"北區","LI":"小康里","LIN":"18鄰","STREET":"公園路","SECT":" ","MAREA":" ","LANE":"１０９２巷","ALLEY":" ","HOUSE_NO":"３１號","E_COORD97":169796.87,"N_COORD97":2546622.3999999999,"ADDRESS":"公園路１０９２巷３１號","OBJECTID":349450},"geometry":{"x":169796.87000000011,"y":2546622.4000000041}},{"attributes":{"ID":349460,"DIS_CODE":0,"TOWNNAME":"北區","LI":"小康里","LIN":"18鄰","STREET":"公園路","SECT":" ","MAREA":" ","LANE":"１０９２巷","ALLEY":" ","HOUSE_NO":"３２號","E_COORD97":169793.42999999999,"N_COORD97":2546599.9700000002,"ADDRESS":"公園路１０９２巷３２號","OBJECTID":349451},"geometry":{"x":169793.43000000156,"y":2546599.9700000025}},{"attributes":{"ID":349461,"DIS_CODE":0,"TOWNNAME":"北區","LI":"小康里","LIN":"18鄰","STREET":"公園路","SECT":" ","MAREA":" ","LANE":"１０９２巷","ALLEY":" ","HOUSE_NO":"３３號","E_COORD97":169800.76999999999,"N_COORD97":2546623.6600000001,"ADDRESS":"公園路１０９２巷３３號","OBJECTID":349452},"geometry":{"x":169800.76999999955,"y":2546623.6600000039}},{"attributes":{"ID":349462,"DIS_CODE":0,"TOWNNAME":"北區","LI":"小康里","LIN":"18鄰","STREET":"公園路","SECT":" ","MAREA":" ","LANE":"１０９２巷","ALLEY":" ","HOUSE_NO":"３４號","E_COORD97":169797.79000000001,"N_COORD97":2546598.1299999999,"ADDRESS":"公園路１０９２巷３４號","OBJECTID":349453},"geometry":{"x":169797.79000000004,"y":2546598.129999999}},{"attributes":{"ID":349463,"DIS_CODE":0,"TOWNNAME":"北區","LI":"小康里","LIN":"18鄰","STREET":"公園路","SECT":" ","MAREA":" ","LANE":"１０９２巷","ALLEY":" ","HOUSE_NO":"３５號","E_COORD97":169805.60000000001,"N_COORD97":2546621.9399999999,"ADDRESS":"公園路１０９２巷３５號","OBJECTID":349454},"geometry":{"x":169805.5999999987,"y":2546621.9400000013}},{"attributes":{"ID":349464,"DIS_CODE":0,"TOWNNAME":"北區","LI":"小康里","LIN":"18鄰","STREET":"公園路","SECT":" ","MAREA":" ","LANE":"１０９２巷","ALLEY":" ","HOUSE_NO":"３６號","E_COORD97":169801.23000000001,"N_COORD97":2546599.5099999998,"ADDRESS":"公園路１０９２巷３６號","OBJECTID":349455},"geometry":{"x":169801.23000000138,"y":2546599.5099999998}},{"attributes":{"ID":349465,"DIS_CODE":0,"TOWNNAME":"北區","LI":"小康里","LIN":"18鄰","STREET":"公園路","SECT":" ","MAREA":" ","LANE":"１０９２巷","ALLEY":" ","HOUSE_NO":"３７號","E_COORD97":169808.92000000001,"N_COORD97":2546624.23,"ADDRESS":"公園路１０９２巷３７號","OBJECTID":349456},"geometry":{"x":169808.92000000179,"y":2546624.2300000023}},{"attributes":{"ID":349466,"DIS_CODE":0,"TOWNNAME":"北區","LI":"小康里","LIN":"18鄰","STREET":"公園路","SECT":" ","MAREA":" ","LANE":"１０９２巷","ALLEY":" ","HOUSE_NO":"３８號","E_COORD97":169806.04999999999,"N_COORD97":2546600.54,"ADDRESS":"公園路１０９２巷３８號","OBJECTID":349457},"geometry":{"x":169806.04999999981,"y":2546600.540000001}},{"attributes":{"ID":349467,"DIS_CODE":0,"TOWNNAME":"北區","LI":"小康里","LIN":"18鄰","STREET":"公園路","SECT":" ","MAREA":" ","LANE":"１０９２巷","ALLEY":" ","HOUSE_NO":"３９號","E_COORD97":169813.39999999999,"N_COORD97":2546622.7400000002,"ADDRESS":"公園路１０９２巷３９號","OBJECTID":349458},"geometry":{"x":169813.4000000013,"y":2546622.7400000002}},{"attributes":{"ID":349468,"DIS_CODE":0,"TOWNNAME":"北區","LI":"小康里","LIN":"18鄰","STREET":"公園路","SECT":" ","MAREA":" ","LANE":"１０９２巷","ALLEY":" ","HOUSE_NO":"４０號","E_COORD97":169810.19,"N_COORD97":2546599.6299999999,"ADDRESS":"公園路１０９２巷４０號","OBJECTID":349459},"geometry":{"x":169810.19000000041,"y":2546599.6300000008}},{"attributes":{"ID":349469,"DIS_CODE":0,"TOWNNAME":"永康區","LI":"復華里","LIN":"6鄰","STREET":"國華街","SECT":" ","MAREA":" ","LANE":"１０２巷","ALLEY":" ","HOUSE_NO":"１００號八樓之１","E_COORD97":172985.69,"N_COORD97":2546184.3300000001,"ADDRESS":"國華街１０２巷１００號八樓之１","OBJECTID":349460},"geometry":{"x":172985.69000000041,"y":2546184.3300000001}},{"attributes":{"ID":349470,"DIS_CODE":0,"TOWNNAME":"永康區","LI":"復華里","LIN":"6鄰","STREET":"國華街","SECT":" ","MAREA":" ","LANE":"１０２巷","ALLEY":" ","HOUSE_NO":"１００號十二樓之１","E_COORD97":172986.94,"N_COORD97":2546184.3300000001,"ADDRESS":"國華街１０２巷１００號十二樓之１","OBJECTID":349461},"geometry":{"x":172986.94000000134,"y":2546184.3300000001}},{"attributes":{"ID":349471,"DIS_CODE":0,"TOWNNAME":"中西區","LI":"民生里","LIN":"18鄰","STREET":"保安路","SECT":" ","MAREA":" ","LANE":"１８５巷","ALLEY":" ","HOUSE_NO":"１０號","E_COORD97":167164.09,"N_COORD97":2543506.4199999999,"ADDRESS":"保安路１８５巷１０號","OBJECTID":349462},"geometry":{"x":167164.08999999985,"y":2543506.4200000018}},{"attributes":{"ID":349472,"DIS_CODE":0,"TOWNNAME":"東區","LI":"路東里","LIN":"8鄰","STREET":"大同路","SECT":"二段","MAREA":" ","LANE":" ","ALLEY":" ","HOUSE_NO":"２９號","E_COORD97":169276.62,"N_COORD97":2542320.2000000002,"ADDRESS":"大同路二段２９號","OBJECTID":349463},"geometry":{"x":169276.62000000011,"y":2542320.200000003}},{"attributes":{"ID":349473,"DIS_CODE":0,"TOWNNAME":"東區","LI":"路東里","LIN":"8鄰","STREET":"大同路","SECT":"二段","MAREA":" ","LANE":" ","ALLEY":" ","HOUSE_NO":"３１號","E_COORD97":169279.88,"N_COORD97":2542317.75,"ADDRESS":"大同路二段３１號","OBJECTID":349464},"geometry":{"x":169279.87999999989,"y":2542317.7500000019}},{"attributes":{"ID":349474,"DIS_CODE":0,"TOWNNAME":"東區","LI":"路東里","LIN":"8鄰","STREET":"大同路","SECT":"二段","MAREA":" ","LANE":" ","ALLEY":" ","HOUSE_NO":"３３號","E_COORD97":169280.70000000001,"N_COORD97":2542313.9500000002,"ADDRESS":"大同路二段３３號","OBJECTID":349465},"geometry":{"x":169280.70000000112,"y":2542313.9499999993}},{"attributes":{"ID":349475,"DIS_CODE":0,"TOWNNAME":"東區","LI":"路東里","LIN":"8鄰","STREET":"大同路","SECT":"二段","MAREA":" ","LANE":" ","ALLEY":" ","HOUSE_NO":"３５號","E_COORD97":169284.5,"N_COORD97":2542309.8799999999,"ADDRESS":"大同路二段３５號","OBJECTID":349466},"geometry":{"x":169284.5,"y":2542309.8800000008}},{"attributes":{"ID":349476,"DIS_CODE":0,"TOWNNAME":"東區","LI":"路東里","LIN":"8鄰","STREET":"大同路","SECT":"二段","MAREA":" ","LANE":" ","ALLEY":" ","HOUSE_NO":"３７號","E_COORD97":169285.85999999999,"N_COORD97":2542305.8100000001,"ADDRESS":"大同路二段３７號","OBJECTID":349467},"geometry":{"x":169285.8599999994,"y":2542305.8100000005}},{"attributes":{"ID":349477,"DIS_CODE":0,"TOWNNAME":"東區","LI":"路東里","LIN":"8鄰","STREET":"大同路","SECT":"二段","MAREA":" ","LANE":" ","ALLEY":" ","HOUSE_NO":"４１號","E_COORD97":169285.85999999999,"N_COORD97":2542297.9399999999,"ADDRESS":"大同路二段４１號","OBJECTID":349468},"geometry":{"x":169285.8599999994,"y":2542297.9399999995}},{"attributes":{"ID":349478,"DIS_CODE":0,"TOWNNAME":"東區","LI":"路東里","LIN":"8鄰","STREET":"大同路","SECT":"二段","MAREA":" ","LANE":" ","ALLEY":" ","HOUSE_NO":"４３號","E_COORD97":169287.22,"N_COORD97":2542294.4100000001,"ADDRESS":"大同路二段４３號","OBJECTID":349469},"geometry":{"x":169287.21999999974,"y":2542294.4100000001}},{"attributes":{"ID":349479,"DIS_CODE":0,"TOWNNAME":"東區","LI":"路東里","LIN":"8鄰","STREET":"大同路","SECT":"二段","MAREA":" ","LANE":" ","ALLEY":" ","HOUSE_NO":"１１號","E_COORD97":169263.31,"N_COORD97":2542354.79,"ADDRESS":"大同路二段１１號","OBJECTID":349470},"geometry":{"x":169263.30999999959,"y":2542354.790000001}},{"attributes":{"ID":349480,"DIS_CODE":0,"TOWNNAME":"東區","LI":"路東里","LIN":"8鄰","STREET":"大同路","SECT":"二段","MAREA":" ","LANE":" ","ALLEY":" ","HOUSE_NO":"１３號","E_COORD97":169263.04000000001,"N_COORD97":2542350.4500000002,"ADDRESS":"大同路二段１３號","OBJECTID":349471},"geometry":{"x":169263.04000000097,"y":2542350.4500000011}},{"attributes":{"ID":349481,"DIS_CODE":0,"TOWNNAME":"東區","LI":"路東里","LIN":"8鄰","STREET":"大同路","SECT":"二段","MAREA":" ","LANE":" ","ALLEY":" ","HOUSE_NO":"１５號","E_COORD97":169264.12,"N_COORD97":2542347.73,"ADDRESS":"大同路二段１５號","OBJECTID":349472},"geometry":{"x":169264.12000000104,"y":2542347.7300000004}},{"attributes":{"ID":349482,"DIS_CODE":0,"TOWNNAME":"東區","LI":"路東里","LIN":"8鄰","STREET":"大同路","SECT":"二段","MAREA":" ","LANE":" ","ALLEY":" ","HOUSE_NO":"１７號","E_COORD97":169264.12,"N_COORD97":2542344.48,"ADDRESS":"大同路二段１７號","OBJECTID":349473},"geometry":{"x":169264.12000000104,"y":2542344.4800000023}},{"attributes":{"ID":349483,"DIS_CODE":0,"TOWNNAME":"東區","LI":"路東里","LIN":"8鄰","STREET":"大同路","SECT":"二段","MAREA":" ","LANE":" ","ALLEY":" ","HOUSE_NO":"２１號","E_COORD97":169269.29000000001,"N_COORD97":2542337.4100000001,"ADDRESS":"大同路二段２１號","OBJECTID":349474},"geometry":{"x":169269.2900000019,"y":2542337.410000002}},{"attributes":{"ID":349484,"DIS_CODE":0,"TOWNNAME":"東區","LI":"路東里","LIN":"8鄰","STREET":"大同路","SECT":"二段","MAREA":" ","LANE":" ","ALLEY":" ","HOUSE_NO":"２３號","E_COORD97":169271.19,"N_COORD97":2542333.0600000001,"ADDRESS":"大同路二段２３號","OBJECTID":349475},"geometry":{"x":169271.19000000041,"y":2542333.0600000024}},{"attributes":{"ID":349485,"DIS_CODE":0,"TOWNNAME":"東區","LI":"路東里","LIN":"8鄰","STREET":"大同路","SECT":"二段","MAREA":" ","LANE":" ","ALLEY":" ","HOUSE_NO":"５號","E_COORD97":169257.06,"N_COORD97":2542368.5600000001,"ADDRESS":"大同路二段５號","OBJECTID":349476},"geometry":{"x":169257.06000000052,"y":2542368.5600000005}},{"attributes":{"ID":349486,"DIS_CODE":0,"TOWNNAME":"東區","LI":"龍山里","LIN":"8鄰","STREET":"長榮路","SECT":"一段","MAREA":" ","LANE":" ","ALLEY":" ","HOUSE_NO":"１９０號","E_COORD97":169857.44,"N_COORD97":2542809.1800000002,"ADDRESS":"長榮路一段１９０號","OBJECTID":349477},"geometry":{"x":169857.44000000134,"y":2542809.1800000034}},{"attributes":{"ID":349487,"DIS_CODE":0,"TOWNNAME":"新營區","LI":"太南里","LIN":"18鄰","STREET":" ","SECT":" ","MAREA":"太子宮","LANE":" ","ALLEY":" ","HOUSE_NO":"３０８之３號","E_COORD97":176016.44,"N_COORD97":2576701.71,"ADDRESS":"太子宮３０８之３號","OBJECTID":349478},"geometry":{"x":176016.44000000041,"y":2576701.7100000028}},{"attributes":{"ID":349488,"DIS_CODE":0,"TOWNNAME":"新營區","LI":"太南里","LIN":"18鄰","STREET":" ","SECT":" ","MAREA":"太子宮","LANE":" ","ALLEY":" ","HOUSE_NO":"３１２之１５號","E_COORD97":176012.85999999999,"N_COORD97":2576555.5600000001,"ADDRESS":"太子宮３１２之１５號","OBJECTID":349479},"geometry":{"x":176012.86000000127,"y":2576555.5600000024}},{"attributes":{"ID":349489,"DIS_CODE":0,"TOWNNAME":"新營區","LI":"太南里","LIN":"18鄰","STREET":" ","SECT":" ","MAREA":"太子宮","LANE":" ","ALLEY":" ","HOUSE_NO":"３０９之１０號","E_COORD97":175968.29000000001,"N_COORD97":2576643.2599999998,"ADDRESS":"太子宮３０９之１０號","OBJECTID":349480},"geometry":{"x":175968.29000000004,"y":2576643.2599999998}},{"attributes":{"ID":349490,"DIS_CODE":0,"TOWNNAME":"新營區","LI":"太南里","LIN":"18鄰","STREET":" ","SECT":" ","MAREA":"太子宮","LANE":" ","ALLEY":" ","HOUSE_NO":"３０９之６號","E_COORD97":175978.35999999999,"N_COORD97":2576655.3999999999,"ADDRESS":"太子宮３０９之６號","OBJECTID":349481},"geometry":{"x":175978.36000000034,"y":2576655.4000000022}},{"attributes":{"ID":349491,"DIS_CODE":0,"TOWNNAME":"中西區","LI":"民生里","LIN":"18鄰","STREET":"保安路","SECT":" ","MAREA":" ","LANE":"１８５巷","ALLEY":" ","HOUSE_NO":"１２號","E_COORD97":167163.17999999999,"N_COORD97":2543502.5499999998,"ADDRESS":"保安路１８５巷１２號","OBJECTID":349482},"geometry":{"x":167163.18000000063,"y":2543502.5500000045}},{"attributes":{"ID":349492,"DIS_CODE":0,"TOWNNAME":"中西區","LI":"民生里","LIN":"18鄰","STREET":"保安路","SECT":" ","MAREA":" ","LANE":"１８５巷","ALLEY":" ","HOUSE_NO":"１４號","E_COORD97":167162.26999999999,"N_COORD97":2543499.5899999999,"ADDRESS":"保安路１８５巷１４號","OBJECTID":349483},"geometry":{"x":167162.27000000048,"y":2543499.5900000017}},{"attributes":{"ID":349493,"DIS_CODE":0,"TOWNNAME":"學甲區","LI":"豐和里","LIN":"18鄰","STREET":" ","SECT":" ","MAREA":"美和","LANE":" ","ALLEY":" ","HOUSE_NO":"２４號","E_COORD97":167957.22,"N_COORD97":2569283.4300000002,"ADDRESS":"美和２４號","OBJECTID":349484},"geometry":{"x":167957.2200000016,"y":2569283.4300000016}},{"attributes":{"ID":349494,"DIS_CODE":0,"TOWNNAME":"中西區","LI":"民生里","LIN":"18鄰","STREET":"保安路","SECT":" ","MAREA":" ","LANE":"１８５巷","ALLEY":" ","HOUSE_NO":"２號","E_COORD97":167166.60000000001,"N_COORD97":2543520.9900000002,"ADDRESS":"保安路１８５巷２號","OBJECTID":349485},"geometry":{"x":167166.60000000056,"y":2543520.9900000021}},{"attributes":{"ID":349495,"DIS_CODE":0,"TOWNNAME":"中西區","LI":"民生里","LIN":"18鄰","STREET":"保安路","SECT":" ","MAREA":" ","LANE":"１８５巷","ALLEY":" ","HOUSE_NO":"４號","E_COORD97":167165.91,"N_COORD97":2543517.1200000001,"ADDRESS":"保安路１８５巷４號","OBJECTID":349486},"geometry":{"x":167165.91000000015,"y":2543517.1200000029}},{"attributes":{"ID":349496,"DIS_CODE":0,"TOWNNAME":"中西區","LI":"民生里","LIN":"18鄰","STREET":"保安路","SECT":" ","MAREA":" ","LANE":"１８５巷","ALLEY":" ","HOUSE_NO":"６號","E_COORD97":167165.45999999999,"N_COORD97":2543513.7000000002,"ADDRESS":"保安路１８５巷６號","OBJECTID":349487},"geometry":{"x":167165.45999999996,"y":2543513.700000003}},{"attributes":{"ID":349497,"DIS_CODE":0,"TOWNNAME":"中西區","LI":"民生里","LIN":"18鄰","STREET":"保安路","SECT":" ","MAREA":" ","LANE":"１８５巷","ALLEY":" ","HOUSE_NO":"８號","E_COORD97":167164.54999999999,"N_COORD97":2543510.29,"ADDRESS":"保安路１８５巷８號","OBJECTID":349488},"geometry":{"x":167164.54999999981,"y":2543510.290000001}},{"attributes":{"ID":349498,"DIS_CODE":0,"TOWNNAME":"永康區","LI":"復華里","LIN":"6鄰","STREET":"國華街","SECT":" ","MAREA":" ","LANE":"１０２巷","ALLEY":" ","HOUSE_NO":"１００號七樓之１","E_COORD97":172985.69,"N_COORD97":2546184.3300000001,"ADDRESS":"國華街１０２巷１００號七樓之１","OBJECTID":349489},"geometry":{"x":172985.69000000041,"y":2546184.3300000001}},{"attributes":{"ID":349499,"DIS_CODE":0,"TOWNNAME":"永康區","LI":"復華里","LIN":"6鄰","STREET":"國華街","SECT":" ","MAREA":" ","LANE":"１０２巷","ALLEY":" ","HOUSE_NO":"９８號九樓之１","E_COORD97":173001.94,"N_COORD97":2546180.0800000001,"ADDRESS":"國華街１０２巷９８號九樓之１","OBJECTID":349490},"geometry":{"x":173001.94000000134,"y":2546180.0800000038}},{"attributes":{"ID":349500,"DIS_CODE":0,"TOWNNAME":"永康區","LI":"復華里","LIN":"6鄰","STREET":"國華街","SECT":" ","MAREA":" ","LANE":"１０２巷","ALLEY":" ","HOUSE_NO":"１００號十一樓之２","E_COORD97":172987.07000000001,"N_COORD97":2546184.3300000001,"ADDRESS":"國華街１０２巷１００號十一樓之２","OBJECTID":349491},"geometry":{"x":172987.07000000123,"y":2546184.3300000001}},{"attributes":{"ID":349501,"DIS_CODE":0,"TOWNNAME":"永康區","LI":"復華里","LIN":"6鄰","STREET":"國華街","SECT":" ","MAREA":" ","LANE":"１０２巷","ALLEY":" ","HOUSE_NO":"９８號九樓之２","E_COORD97":173002.07000000001,"N_COORD97":2546180.0800000001,"ADDRESS":"國華街１０２巷９８號九樓之２","OBJECTID":349492},"geometry":{"x":173002.07000000216,"y":2546180.0800000038}},{"attributes":{"ID":349502,"DIS_CODE":0,"TOWNNAME":"永康區","LI":"復華里","LIN":"6鄰","STREET":"國華街","SECT":" ","MAREA":" ","LANE":"１０２巷","ALLEY":" ","HOUSE_NO":"１００號三樓之２","E_COORD97":172985.82000000001,"N_COORD97":2546184.3300000001,"ADDRESS":"國華街１０２巷１００號三樓之２","OBJECTID":349493},"geometry":{"x":172985.82000000123,"y":2546184.3300000001}},{"attributes":{"ID":349503,"DIS_CODE":0,"TOWNNAME":"永康區","LI":"復華里","LIN":"6鄰","STREET":"國華街","SECT":" ","MAREA":" ","LANE":"１０２巷","ALLEY":" ","HOUSE_NO":"９８號八樓之１","E_COORD97":173001.94,"N_COORD97":2546180.0800000001,"ADDRESS":"國華街１０２巷９８號八樓之１","OBJECTID":349494},"geometry":{"x":173001.94000000134,"y":2546180.0800000038}},{"attributes":{"ID":349504,"DIS_CODE":0,"TOWNNAME":"永康區","LI":"復華里","LIN":"6鄰","STREET":"國華街","SECT":" ","MAREA":" ","LANE":"１０２巷","ALLEY":" ","HOUSE_NO":"９８號六樓之１","E_COORD97":173001.94,"N_COORD97":2546180.0800000001,"ADDRESS":"國華街１０２巷９８號六樓之１","OBJECTID":349495},"geometry":{"x":173001.94000000134,"y":2546180.0800000038}},{"attributes":{"ID":349505,"DIS_CODE":0,"TOWNNAME":"永康區","LI":"復華里","LIN":"6鄰","STREET":"國華街","SECT":" ","MAREA":" ","LANE":"１０２巷","ALLEY":" ","HOUSE_NO":"９８號十一樓之２","E_COORD97":173003.32000000001,"N_COORD97":2546180.0800000001,"ADDRESS":"國華街１０２巷９８號十一樓之２","OBJECTID":349496},"geometry":{"x":173003.3200000003,"y":2546180.0800000038}},{"attributes":{"ID":349506,"DIS_CODE":0,"TOWNNAME":"永康區","LI":"復華里","LIN":"6鄰","STREET":"國華街","SECT":" ","MAREA":" ","LANE":"１０２巷","ALLEY":" ","HOUSE_NO":"９８號十一樓之１","E_COORD97":173003.19,"N_COORD97":2546180.0800000001,"ADDRESS":"國華街１０２巷９８號十一樓之１","OBJECTID":349497},"geometry":{"x":173003.19000000134,"y":2546180.0800000038}},{"attributes":{"ID":349507,"DIS_CODE":0,"TOWNNAME":"仁德區","LI":"太子里","LIN":"6鄰","STREET":"太子路","SECT":" ","MAREA":" ","LANE":"１９０巷","ALLEY":" ","HOUSE_NO":"３９號三樓","E_COORD97":174307.51999999999,"N_COORD97":2543672.7200000002,"ADDRESS":"太子路１９０巷３９號三樓","OBJECTID":349498},"geometry":{"x":174307.52000000048,"y":2543672.7200000007}},{"attributes":{"ID":349508,"DIS_CODE":0,"TOWNNAME":"仁德區","LI":"太子里","LIN":"6鄰","STREET":"太子路","SECT":" ","MAREA":" ","LANE":"１９０巷","ALLEY":" ","HOUSE_NO":"３９號二樓","E_COORD97":174307.51999999999,"N_COORD97":2543672.7200000002,"ADDRESS":"太子路１９０巷３９號二樓","OBJECTID":349499},"geometry":{"x":174307.52000000048,"y":2543672.7200000007}},{"attributes":{"ID":349509,"DIS_CODE":0,"TOWNNAME":"仁德區","LI":"太子里","LIN":"6鄰","STREET":"太子路","SECT":" ","MAREA":" ","LANE":"１９０巷","ALLEY":" ","HOUSE_NO":"４１號三樓","E_COORD97":174307.29999999999,"N_COORD97":2543684.9700000002,"ADDRESS":"太子路１９０巷４１號三樓","OBJECTID":349500},"geometry":{"x":174307.30000000075,"y":2543684.9700000007}},{"attributes":{"ID":349510,"DIS_CODE":0,"TOWNNAME":"永康區","LI":"復華里","LIN":"6鄰","STREET":"國華街","SECT":" ","MAREA":" ","LANE":"１０２巷","ALLEY":" ","HOUSE_NO":"９６號五樓之１","E_COORD97":173016.94,"N_COORD97":2546176.0800000001,"ADDRESS":"國華街１０２巷９６號五樓之１","OBJECTID":349501},"geometry":{"x":173016.94000000134,"y":2546176.0800000001}},{"attributes":{"ID":349511,"DIS_CODE":0,"TOWNNAME":"永康區","LI":"復華里","LIN":"6鄰","STREET":"國華街","SECT":" ","MAREA":" ","LANE":"１０２巷","ALLEY":" ","HOUSE_NO":"９０號七樓之２","E_COORD97":173008.87,"N_COORD97":2546144.3799999999,"ADDRESS":"國華街１０２巷９０號七樓之２","OBJECTID":349502},"geometry":{"x":173008.87000000104,"y":2546144.3800000008}},{"attributes":{"ID":349512,"DIS_CODE":0,"TOWNNAME":"永康區","LI":"復華里","LIN":"6鄰","STREET":"國華街","SECT":" ","MAREA":" ","LANE":"１０２巷","ALLEY":" ","HOUSE_NO":"９０號十二樓之２","E_COORD97":173010.12,"N_COORD97":2546144.3799999999,"ADDRESS":"國華街１０２巷９０號十二樓之２","OBJECTID":349503},"geometry":{"x":173010.12000000197,"y":2546144.3800000008}},{"attributes":{"ID":349513,"DIS_CODE":0,"TOWNNAME":"永康區","LI":"復華里","LIN":"6鄰","STREET":"國華街","SECT":" ","MAREA":" ","LANE":"１０２巷","ALLEY":" ","HOUSE_NO":"９０號七樓之１","E_COORD97":173008.73999999999,"N_COORD97":2546144.3799999999,"ADDRESS":"國華街１０２巷９０號七樓之１","OBJECTID":349504},"geometry":{"x":173008.74000000022,"y":2546144.3800000008}},{"attributes":{"ID":349514,"DIS_CODE":0,"TOWNNAME":"永康區","LI":"復華里","LIN":"6鄰","STREET":"國華街","SECT":" ","MAREA":" ","LANE":"１０２巷","ALLEY":" ","HOUSE_NO":"９２號七樓之２","E_COORD97":173003.76999999999,"N_COORD97":2546148.5499999998,"ADDRESS":"國華街１０２巷９２號七樓之２","OBJECTID":349505},"geometry":{"x":173003.77000000048,"y":2546148.5500000026}},{"attributes":{"ID":349515,"DIS_CODE":0,"TOWNNAME":"永康區","LI":"復華里","LIN":"6鄰","STREET":"國華街","SECT":" ","MAREA":" ","LANE":"１０２巷","ALLEY":" ","HOUSE_NO":"９６號六樓之２","E_COORD97":173017.07000000001,"N_COORD97":2546176.0800000001,"ADDRESS":"國華街１０２巷９６號六樓之２","OBJECTID":349506},"geometry":{"x":173017.0700000003,"y":2546176.0800000001}},{"attributes":{"ID":349516,"DIS_CODE":0,"TOWNNAME":"永康區","LI":"復華里","LIN":"6鄰","STREET":"國華街","SECT":" ","MAREA":" ","LANE":"１０２巷","ALLEY":" ","HOUSE_NO":"９６號十一樓之２","E_COORD97":173018.32000000001,"N_COORD97":2546176.0800000001,"ADDRESS":"國華街１０２巷９６號十一樓之２","OBJECTID":349507},"geometry":{"x":173018.3200000003,"y":2546176.0800000001}},{"attributes":{"ID":349517,"DIS_CODE":0,"TOWNNAME":"永康區","LI":"復華里","LIN":"6鄰","STREET":"國華街","SECT":" ","MAREA":" ","LANE":"１０２巷","ALLEY":" ","HOUSE_NO":"９２號十樓之２","E_COORD97":173003.76999999999,"N_COORD97":2546148.5499999998,"ADDRESS":"國華街１０２巷９２號十樓之２","OBJECTID":349508},"geometry":{"x":173003.77000000048,"y":2546148.5500000026}},{"attributes":{"ID":349518,"DIS_CODE":0,"TOWNNAME":"永康區","LI":"復華里","LIN":"6鄰","STREET":"國華街","SECT":" ","MAREA":" ","LANE":"１０２巷","ALLEY":" ","HOUSE_NO":"９４號五樓之２","E_COORD97":173023.81,"N_COORD97":2546167.79,"ADDRESS":"國華街１０２巷９４號五樓之２","OBJECTID":349509},"geometry":{"x":173023.81000000052,"y":2546167.790000001}},{"attributes":{"ID":349519,"DIS_CODE":0,"TOWNNAME":"下營區","LI":"營前里","LIN":"6鄰","STREET":"民權二街","SECT":" ","MAREA":" ","LANE":"６７巷","ALLEY":" ","HOUSE_NO":"６號","E_COORD97":174534.79000000001,"N_COORD97":2570261.2200000002,"ADDRESS":"民權二街６７巷６號","OBJECTID":349510},"geometry":{"x":174534.79000000097,"y":2570261.2200000007}},{"attributes":{"ID":349520,"DIS_CODE":0,"TOWNNAME":"永康區","LI":"復華里","LIN":"6鄰","STREET":"國華街","SECT":" ","MAREA":" ","LANE":"１０２巷","ALLEY":" ","HOUSE_NO":"９０號十一樓之２","E_COORD97":173010.12,"N_COORD97":2546144.3799999999,"ADDRESS":"國華街１０２巷９０號十一樓之２","OBJECTID":349511},"geometry":{"x":173010.12000000197,"y":2546144.3800000008}},{"attributes":{"ID":349521,"DIS_CODE":0,"TOWNNAME":"永康區","LI":"復華里","LIN":"6鄰","STREET":"國華街","SECT":" ","MAREA":" ","LANE":"１０２巷","ALLEY":" ","HOUSE_NO":"９６號五樓之２","E_COORD97":173017.07000000001,"N_COORD97":2546176.0800000001,"ADDRESS":"國華街１０２巷９６號五樓之２","OBJECTID":349512},"geometry":{"x":173017.0700000003,"y":2546176.0800000001}},{"attributes":{"ID":349522,"DIS_CODE":0,"TOWNNAME":"永康區","LI":"復華里","LIN":"6鄰","STREET":"國華街","SECT":" ","MAREA":" ","LANE":"１０２巷","ALLEY":" ","HOUSE_NO":"９６號十樓之１","E_COORD97":173016.94,"N_COORD97":2546176.0800000001,"ADDRESS":"國華街１０２巷９６號十樓之１","OBJECTID":349513},"geometry":{"x":173016.94000000134,"y":2546176.0800000001}},{"attributes":{"ID":349523,"DIS_CODE":0,"TOWNNAME":"永康區","LI":"復華里","LIN":"6鄰","STREET":"國華街","SECT":" ","MAREA":" ","LANE":"１０２巷","ALLEY":" ","HOUSE_NO":"９４號三樓之２","E_COORD97":173023.81,"N_COORD97":2546167.79,"ADDRESS":"國華街１０２巷９４號三樓之２","OBJECTID":349514},"geometry":{"x":173023.81000000052,"y":2546167.790000001}},{"attributes":{"ID":349524,"DIS_CODE":0,"TOWNNAME":"永康區","LI":"復華里","LIN":"6鄰","STREET":"國華街","SECT":" ","MAREA":" ","LANE":"１０２巷","ALLEY":" ","HOUSE_NO":"９０號四樓之２","E_COORD97":173008.87,"N_COORD97":2546144.3799999999,"ADDRESS":"國華街１０２巷９０號四樓之２","OBJECTID":349515},"geometry":{"x":173008.87000000104,"y":2546144.3800000008}},{"attributes":{"ID":349525,"DIS_CODE":0,"TOWNNAME":"永康區","LI":"復華里","LIN":"6鄰","STREET":"國華街","SECT":" ","MAREA":" ","LANE":"１０２巷","ALLEY":" ","HOUSE_NO":"９０號六樓之１","E_COORD97":173008.73999999999,"N_COORD97":2546144.3799999999,"ADDRESS":"國華街１０２巷９０號六樓之１","OBJECTID":349516},"geometry":{"x":173008.74000000022,"y":2546144.3800000008}},{"attributes":{"ID":349526,"DIS_CODE":0,"TOWNNAME":"永康區","LI":"復華里","LIN":"6鄰","STREET":"國華街","SECT":" ","MAREA":" ","LANE":"１０２巷","ALLEY":" ","HOUSE_NO":"９２號十一樓之２","E_COORD97":173005.01999999999,"N_COORD97":2546148.5499999998,"ADDRESS":"國華街１０２巷９２號十一樓之２","OBJECTID":349517},"geometry":{"x":173005.02000000142,"y":2546148.5500000026}},{"attributes":{"ID":349527,"DIS_CODE":0,"TOWNNAME":"永康區","LI":"復華里","LIN":"6鄰","STREET":"國華街","SECT":" ","MAREA":" ","LANE":"１０２巷","ALLEY":" ","HOUSE_NO":"９６號十二樓之１","E_COORD97":173018.19,"N_COORD97":2546176.0800000001,"ADDRESS":"國華街１０２巷９６號十二樓之１","OBJECTID":349518},"geometry":{"x":173018.18999999948,"y":2546176.0800000001}},{"attributes":{"ID":349528,"DIS_CODE":0,"TOWNNAME":"永康區","LI":"復華里","LIN":"6鄰","STREET":"國華街","SECT":" ","MAREA":" ","LANE":"１０２巷","ALLEY":" ","HOUSE_NO":"９２號八樓之１","E_COORD97":173003.64000000001,"N_COORD97":2546148.5499999998,"ADDRESS":"國華街１０２巷９２號八樓之１","OBJECTID":349519},"geometry":{"x":173003.63999999966,"y":2546148.5500000026}},{"attributes":{"ID":349529,"DIS_CODE":0,"TOWNNAME":"永康區","LI":"復華里","LIN":"6鄰","STREET":"國華街","SECT":" ","MAREA":" ","LANE":"１０２巷","ALLEY":" ","HOUSE_NO":"９４號五樓之１","E_COORD97":173023.67999999999,"N_COORD97":2546167.79,"ADDRESS":"國華街１０２巷９４號五樓之１","OBJECTID":349520},"geometry":{"x":173023.6799999997,"y":2546167.790000001}},{"attributes":{"ID":349530,"DIS_CODE":0,"TOWNNAME":"永康區","LI":"復華里","LIN":"6鄰","STREET":"國華街","SECT":" ","MAREA":" ","LANE":"１０２巷","ALLEY":" ","HOUSE_NO":"９０號三樓之３","E_COORD97":173008.84,"N_COORD97":2546144.3799999999,"ADDRESS":"國華街１０２巷９０號三樓之３","OBJECTID":349521},"geometry":{"x":173008.84000000078,"y":2546144.3800000008}},{"attributes":{"ID":349531,"DIS_CODE":0,"TOWNNAME":"永康區","LI":"復華里","LIN":"6鄰","STREET":"國華街","SECT":" ","MAREA":" ","LANE":"１０２巷","ALLEY":" ","HOUSE_NO":"９２號十二樓之１","E_COORD97":173004.89000000001,"N_COORD97":2546148.5499999998,"ADDRESS":"國華街１０２巷９２號十二樓之１","OBJECTID":349522},"geometry":{"x":173004.8900000006,"y":2546148.5500000026}},{"attributes":{"ID":349532,"DIS_CODE":0,"TOWNNAME":"東區","LI":"德高里","LIN":"6鄰","STREET":"仁和路","SECT":" ","MAREA":" ","LANE":"２５２巷","ALLEY":" ","HOUSE_NO":"２２號二樓","E_COORD97":171531.04000000001,"N_COORD97":2540845.2599999998,"ADDRESS":"仁和路２５２巷２２號二樓","OBJECTID":349523},"geometry":{"x":171531.04000000097,"y":2540845.2599999979}},{"attributes":{"ID":349533,"DIS_CODE":0,"TOWNNAME":"東區","LI":"德高里","LIN":"6鄰","STREET":"仁和路","SECT":" ","MAREA":" ","LANE":"２５２巷","ALLEY":" ","HOUSE_NO":"２２號三樓","E_COORD97":171531.04000000001,"N_COORD97":2540845.2599999998,"ADDRESS":"仁和路２５２巷２２號三樓","OBJECTID":349524},"geometry":{"x":171531.04000000097,"y":2540845.2599999979}},{"attributes":{"ID":349534,"DIS_CODE":0,"TOWNNAME":"北區","LI":"東興里","LIN":"18鄰","STREET":"小東路","SECT":" ","MAREA":" ","LANE":"３０７巷","ALLEY":" ","HOUSE_NO":"８９號","E_COORD97":171089.88,"N_COORD97":2544556.2200000002,"ADDRESS":"小東路３０７巷８９號","OBJECTID":349525},"geometry":{"x":171089.88000000082,"y":2544556.2200000025}},{"attributes":{"ID":349535,"DIS_CODE":0,"TOWNNAME":"歸仁區","LI":"歸南里","LIN":"18鄰","STREET":"民生八街","SECT":" ","MAREA":" ","LANE":"２８巷","ALLEY":" ","HOUSE_NO":"２８號","E_COORD97":176135.44,"N_COORD97":2540433.29,"ADDRESS":"民生八街２８巷２８號","OBJECTID":349526},"geometry":{"x":176135.44000000041,"y":2540433.2899999991}},{"attributes":{"ID":349536,"DIS_CODE":0,"TOWNNAME":"玉井區","LI":"玉井里","LIN":"18鄰","STREET":"中正路","SECT":" ","MAREA":" ","LANE":"１００巷","ALLEY":" ","HOUSE_NO":"４號","E_COORD97":194846.95999999999,"N_COORD97":2558119.25,"ADDRESS":"中正路１００巷４號","OBJECTID":349527},"geometry":{"x":194846.96000000089,"y":2558119.25}},{"attributes":{"ID":349537,"DIS_CODE":0,"TOWNNAME":"北區","LI":"實踐里","LIN":"18鄰","STREET":"大武街","SECT":" ","MAREA":" ","LANE":"２０５巷","ALLEY":" ","HOUSE_NO":"１０號之２","E_COORD97":169596.64999999999,"N_COORD97":2546093.8900000001,"ADDRESS":"大武街２０５巷１０號之２","OBJECTID":349528},"geometry":{"x":169596.6500000013,"y":2546093.8900000043}},{"attributes":{"ID":349538,"DIS_CODE":0,"TOWNNAME":"北區","LI":"實踐里","LIN":"18鄰","STREET":"大武街","SECT":" ","MAREA":" ","LANE":"２０５巷","ALLEY":" ","HOUSE_NO":"１０號之３","E_COORD97":169591.73000000001,"N_COORD97":2546095.6600000001,"ADDRESS":"大武街２０５巷１０號之３","OBJECTID":349529},"geometry":{"x":169591.73000000045,"y":2546095.660000002}},{"attributes":{"ID":349539,"DIS_CODE":0,"TOWNNAME":"東區","LI":"德高里","LIN":"6鄰","STREET":"仁和路","SECT":" ","MAREA":" ","LANE":"２５２巷","ALLEY":" ","HOUSE_NO":"２２號四樓","E_COORD97":171531.04000000001,"N_COORD97":2540845.2599999998,"ADDRESS":"仁和路２５２巷２２號四樓","OBJECTID":349530},"geometry":{"x":171531.04000000097,"y":2540845.2599999979}},{"attributes":{"ID":349540,"DIS_CODE":0,"TOWNNAME":"中西區","LI":"福安里","LIN":"6鄰","STREET":"府前路","SECT":"一段","MAREA":" ","LANE":"３４２巷","ALLEY":" ","HOUSE_NO":"２２號二樓之１","E_COORD97":167847.12,"N_COORD97":2543539.3500000001,"ADDRESS":"府前路一段３４２巷２２號二樓之１","OBJECTID":349531},"geometry":{"x":167847.12000000104,"y":2543539.3499999996}},{"attributes":{"ID":349541,"DIS_CODE":0,"TOWNNAME":"中西區","LI":"福安里","LIN":"6鄰","STREET":"府前路","SECT":"一段","MAREA":" ","LANE":"３４２巷","ALLEY":" ","HOUSE_NO":"２２號二樓之２","E_COORD97":167847.12,"N_COORD97":2543539.3500000001,"ADDRESS":"府前路一段３４２巷２２號二樓之２","OBJECTID":349532},"geometry":{"x":167847.12000000104,"y":2543539.3499999996}},{"attributes":{"ID":349542,"DIS_CODE":0,"TOWNNAME":"鹽水區","LI":"歡雅里","LIN":"18鄰","STREET":" ","SECT":" ","MAREA":"洪厝寮","LANE":" ","ALLEY":" ","HOUSE_NO":"２之１號","E_COORD97":172724.20999999999,"N_COORD97":2575695.5099999998,"ADDRESS":"洪厝寮２之１號","OBJECTID":349533},"geometry":{"x":172724.20999999996,"y":2575695.5099999998}},{"attributes":{"ID":349543,"DIS_CODE":0,"TOWNNAME":"學甲區","LI":"三慶里","LIN":"18鄰","STREET":" ","SECT":" ","MAREA":"紅茄","LANE":" ","ALLEY":" ","HOUSE_NO":"３４號之１","E_COORD97":167536.69,"N_COORD97":2575710.1000000001,"ADDRESS":"紅茄３４號之１","OBJECTID":349534},"geometry":{"x":167536.69000000134,"y":2575710.1000000015}},{"attributes":{"ID":349544,"DIS_CODE":0,"TOWNNAME":"學甲區","LI":"三慶里","LIN":"18鄰","STREET":" ","SECT":" ","MAREA":"紅茄","LANE":" ","ALLEY":" ","HOUSE_NO":"３４號之２","E_COORD97":167547.26000000001,"N_COORD97":2575698.1000000001,"ADDRESS":"紅茄３４號之２","OBJECTID":349535},"geometry":{"x":167547.26000000071,"y":2575698.0999999996}},{"attributes":{"ID":349545,"DIS_CODE":0,"TOWNNAME":"東區","LI":"路東里","LIN":"8鄰","STREET":"大同路","SECT":"二段","MAREA":" ","LANE":" ","ALLEY":" ","HOUSE_NO":"１號","E_COORD97":169255.70000000001,"N_COORD97":2542378.0600000001,"ADDRESS":"大同路二段１號","OBJECTID":349536},"geometry":{"x":169255.70000000019,"y":2542378.0600000024}},{"attributes":{"ID":349546,"DIS_CODE":0,"TOWNNAME":"學甲區","LI":"明宜里","LIN":"8鄰","STREET":"中山路","SECT":" ","MAREA":" ","LANE":" ","ALLEY":" ","HOUSE_NO":"１７９號","E_COORD97":165785.14000000001,"N_COORD97":2570556.0800000001,"ADDRESS":"中山路１７９號","OBJECTID":349537},"geometry":{"x":165785.1400000006,"y":2570556.0800000001}},{"attributes":{"ID":349547,"DIS_CODE":0,"TOWNNAME":"學甲區","LI":"三慶里","LIN":"18鄰","STREET":" ","SECT":" ","MAREA":"紅茄","LANE":" ","ALLEY":" ","HOUSE_NO":"３４號之３","E_COORD97":167547.95999999999,"N_COORD97":2575712.9300000002,"ADDRESS":"紅茄３４號之３","OBJECTID":349538},"geometry":{"x":167547.96000000089,"y":2575712.9299999997}},{"attributes":{"ID":349548,"DIS_CODE":0,"TOWNNAME":"學甲區","LI":"三慶里","LIN":"18鄰","STREET":" ","SECT":" ","MAREA":"紅茄","LANE":" ","ALLEY":" ","HOUSE_NO":"３４號","E_COORD97":167537.19,"N_COORD97":2575730.6499999999,"ADDRESS":"紅茄３４號","OBJECTID":349539},"geometry":{"x":167537.19000000041,"y":2575730.6500000041}},{"attributes":{"ID":349549,"DIS_CODE":0,"TOWNNAME":"學甲區","LI":"明宜里","LIN":"8鄰","STREET":"中山路","SECT":" ","MAREA":" ","LANE":" ","ALLEY":" ","HOUSE_NO":"１８１號之１","E_COORD97":165756.89999999999,"N_COORD97":2570558.6600000001,"ADDRESS":"中山路１８１號之１","OBJECTID":349540},"geometry":{"x":165756.9000000013,"y":2570558.6600000001}},{"attributes":{"ID":349550,"DIS_CODE":0,"TOWNNAME":"學甲區","LI":"三慶里","LIN":"18鄰","STREET":" ","SECT":" ","MAREA":"紅茄","LANE":" ","ALLEY":" ","HOUSE_NO":"３７號","E_COORD97":167511.06,"N_COORD97":2575752.1600000001,"ADDRESS":"紅茄３７號","OBJECTID":349541},"geometry":{"x":167511.06000000052,"y":2575752.160000002}},{"attributes":{"ID":349551,"DIS_CODE":0,"TOWNNAME":"學甲區","LI":"三慶里","LIN":"18鄰","STREET":" ","SECT":" ","MAREA":"紅茄","LANE":" ","ALLEY":" ","HOUSE_NO":"３８號","E_COORD97":167494.41,"N_COORD97":2575786.8599999999,"ADDRESS":"紅茄３８號","OBJECTID":349542},"geometry":{"x":167494.41000000108,"y":2575786.8600000013}},{"attributes":{"ID":349552,"DIS_CODE":0,"TOWNNAME":"學甲區","LI":"三慶里","LIN":"18鄰","STREET":" ","SECT":" ","MAREA":"紅茄","LANE":" ","ALLEY":" ","HOUSE_NO":"３９號之１","E_COORD97":167469.85999999999,"N_COORD97":2575769.02,"ADDRESS":"紅茄３９號之１","OBJECTID":349543},"geometry":{"x":167469.86000000034,"y":2575769.0200000014}},{"attributes":{"ID":349553,"DIS_CODE":0,"TOWNNAME":"學甲區","LI":"明宜里","LIN":"8鄰","STREET":"中山路","SECT":" ","MAREA":" ","LANE":" ","ALLEY":" ","HOUSE_NO":"１８１號之２","E_COORD97":165752.53,"N_COORD97":2570559.7200000002,"ADDRESS":"中山路１８１號之２","OBJECTID":349544},"geometry":{"x":165752.53000000119,"y":2570559.7199999988}},{"attributes":{"ID":349554,"DIS_CODE":0,"TOWNNAME":"安平區","LI":"海頭里","LIN":"11鄰","STREET":"\u25A0忠街","SECT":" ","MAREA":" ","LANE":" ","ALLEY":" ","HOUSE_NO":"７２號","E_COORD97":164097.76000000001,"N_COORD97":2544681.5099999998,"ADDRESS":"\u25A0忠街７２號","OBJECTID":349545},"geometry":{"x":164097.76000000071,"y":2544681.5099999979}},{"attributes":{"ID":349555,"DIS_CODE":0,"TOWNNAME":"安平區","LI":"海頭里","LIN":"11鄰","STREET":"\u25A0忠街","SECT":" ","MAREA":" ","LANE":" ","ALLEY":" ","HOUSE_NO":"７２號之１","E_COORD97":164095.57000000001,"N_COORD97":2544694.1299999999,"ADDRESS":"\u25A0忠街７２號之１","OBJECTID":349546},"geometry":{"x":164095.57000000216,"y":2544694.1300000008}},{"attributes":{"ID":349556,"DIS_CODE":0,"TOWNNAME":"學甲區","LI":"豐和里","LIN":"18鄰","STREET":" ","SECT":" ","MAREA":"美和","LANE":" ","ALLEY":" ","HOUSE_NO":"２５號","E_COORD97":167945.97,"N_COORD97":2569273.1299999999,"ADDRESS":"美和２５號","OBJECTID":349547},"geometry":{"x":167945.97000000067,"y":2569273.129999999}},{"attributes":{"ID":349557,"DIS_CODE":0,"TOWNNAME":"學甲區","LI":"豐和里","LIN":"18鄰","STREET":" ","SECT":" ","MAREA":"美和","LANE":" ","ALLEY":" ","HOUSE_NO":"２７號","E_COORD97":167917.67000000001,"N_COORD97":2569246.5600000001,"ADDRESS":"美和２７號","OBJECTID":349548},"geometry":{"x":167917.67000000086,"y":2569246.5600000024}},{"attributes":{"ID":349558,"DIS_CODE":0,"TOWNNAME":"中西區","LI":"福安里","LIN":"6鄰","STREET":"府前路","SECT":"一段","MAREA":" ","LANE":"３４２巷","ALLEY":" ","HOUSE_NO":"２２號三樓之１","E_COORD97":167847.12,"N_COORD97":2543539.3500000001,"ADDRESS":"府前路一段３４２巷２２號三樓之１","OBJECTID":349549},"geometry":{"x":167847.12000000104,"y":2543539.3499999996}},{"attributes":{"ID":349559,"DIS_CODE":0,"TOWNNAME":"中西區","LI":"福安里","LIN":"6鄰","STREET":"府前路","SECT":"一段","MAREA":" ","LANE":"３４２巷","ALLEY":" ","HOUSE_NO":"２２號三樓之２","E_COORD97":167847.12,"N_COORD97":2543539.3500000001,"ADDRESS":"府前路一段３４２巷２２號三樓之２","OBJECTID":349550},"geometry":{"x":167847.12000000104,"y":2543539.3499999996}},{"attributes":{"ID":349560,"DIS_CODE":0,"TOWNNAME":"中西區","LI":"福安里","LIN":"6鄰","STREET":"府前路","SECT":"一段","MAREA":" ","LANE":"３４２巷","ALLEY":" ","HOUSE_NO":"２２號五樓之１","E_COORD97":167847.12,"N_COORD97":2543539.3500000001,"ADDRESS":"府前路一段３４２巷２２號五樓之１","OBJECTID":349551},"geometry":{"x":167847.12000000104,"y":2543539.3499999996}},{"attributes":{"ID":349561,"DIS_CODE":0,"TOWNNAME":"中西區","LI":"福安里","LIN":"6鄰","STREET":"府前路","SECT":"一段","MAREA":" ","LANE":"３４２巷","ALLEY":" ","HOUSE_NO":"２２號五樓之２","E_COORD97":167847.12,"N_COORD97":2543539.3500000001,"ADDRESS":"府前路一段３４２巷２２號五樓之２","OBJECTID":349552},"geometry":{"x":167847.12000000104,"y":2543539.3499999996}},{"attributes":{"ID":349562,"DIS_CODE":0,"TOWNNAME":"中西區","LI":"福安里","LIN":"6鄰","STREET":"府前路","SECT":"一段","MAREA":" ","LANE":"３４２巷","ALLEY":" ","HOUSE_NO":"２２號四樓之１","E_COORD97":167847.12,"N_COORD97":2543539.3500000001,"ADDRESS":"府前路一段３４２巷２２號四樓之１","OBJECTID":349553},"geometry":{"x":167847.12000000104,"y":2543539.3499999996}},{"attributes":{"ID":349563,"DIS_CODE":0,"TOWNNAME":"中西區","LI":"福安里","LIN":"6鄰","STREET":"府前路","SECT":"一段","MAREA":" ","LANE":"３４２巷","ALLEY":" ","HOUSE_NO":"２２號四樓之２","E_COORD97":167847.12,"N_COORD97":2543539.3500000001,"ADDRESS":"府前路一段３４２巷２２號四樓之２","OBJECTID":349554},"geometry":{"x":167847.12000000104,"y":2543539.3499999996}},{"attributes":{"ID":349564,"DIS_CODE":0,"TOWNNAME":"永康區","LI":"復華里","LIN":"6鄰","STREET":"國華街","SECT":" ","MAREA":" ","LANE":"１０２巷","ALLEY":" ","HOUSE_NO":"９０號十二樓之３","E_COORD97":173010.09,"N_COORD97":2546144.3799999999,"ADDRESS":"國華街１０２巷９０號十二樓之３","OBJECTID":349555},"geometry":{"x":173010.09000000078,"y":2546144.3800000008}},{"attributes":{"ID":349565,"DIS_CODE":0,"TOWNNAME":"永康區","LI":"復華里","LIN":"6鄰","STREET":"國華街","SECT":" ","MAREA":" ","LANE":"１０２巷","ALLEY":" ","HOUSE_NO":"９０號九樓之２","E_COORD97":173008.87,"N_COORD97":2546144.3799999999,"ADDRESS":"國華街１０２巷９０號九樓之２","OBJECTID":349556},"geometry":{"x":173008.87000000104,"y":2546144.3800000008}},{"attributes":{"ID":349566,"DIS_CODE":0,"TOWNNAME":"永康區","LI":"復華里","LIN":"6鄰","STREET":"國華街","SECT":" ","MAREA":" ","LANE":"１０２巷","ALLEY":" ","HOUSE_NO":"９０號四樓之１","E_COORD97":173008.73999999999,"N_COORD97":2546144.3799999999,"ADDRESS":"國華街１０２巷９０號四樓之１","OBJECTID":349557},"geometry":{"x":173008.74000000022,"y":2546144.3800000008}},{"attributes":{"ID":349567,"DIS_CODE":0,"TOWNNAME":"永康區","LI":"復華里","LIN":"6鄰","STREET":"國華街","SECT":" ","MAREA":" ","LANE":"１０２巷","ALLEY":" ","HOUSE_NO":"９０號九樓之３","E_COORD97":173008.84,"N_COORD97":2546144.3799999999,"ADDRESS":"國華街１０２巷９０號九樓之３","OBJECTID":349558},"geometry":{"x":173008.84000000078,"y":2546144.3800000008}},{"attributes":{"ID":349568,"DIS_CODE":0,"TOWNNAME":"永康區","LI":"復華里","LIN":"6鄰","STREET":"國華街","SECT":" ","MAREA":" ","LANE":"１０２巷","ALLEY":" ","HOUSE_NO":"９０號八樓之１","E_COORD97":173008.73999999999,"N_COORD97":2546144.3799999999,"ADDRESS":"國華街１０２巷９０號八樓之１","OBJECTID":349559},"geometry":{"x":173008.74000000022,"y":2546144.3800000008}},{"attributes":{"ID":349569,"DIS_CODE":0,"TOWNNAME":"永康區","LI":"甲頂里","LIN":"4鄰","STREET":"中正南路","SECT":" ","MAREA":" ","LANE":"１６８巷","ALLEY":" ","HOUSE_NO":"８號","E_COORD97":169879.20999999999,"N_COORD97":2546968.2200000002,"ADDRESS":"中正南路１６８巷８號","OBJECTID":349560},"geometry":{"x":169879.20999999996,"y":2546968.2200000007}},{"attributes":{"ID":349570,"DIS_CODE":0,"TOWNNAME":"永康區","LI":"五王里","LIN":"6鄰","STREET":"中華二路","SECT":" ","MAREA":" ","LANE":"２０６巷","ALLEY":" ","HOUSE_NO":"６６號五樓之２","E_COORD97":171606.14999999999,"N_COORD97":2545642.54,"ADDRESS":"中華二路２０６巷６６號五樓之２","OBJECTID":349561},"geometry":{"x":171606.15000000037,"y":2545642.5399999991}},{"attributes":{"ID":349571,"DIS_CODE":0,"TOWNNAME":"永康區","LI":"五王里","LIN":"6鄰","STREET":"中華二路","SECT":" ","MAREA":" ","LANE":"２０６巷","ALLEY":" ","HOUSE_NO":"６６號五樓之３","E_COORD97":171606.12,"N_COORD97":2545642.54,"ADDRESS":"中華二路２０６巷６６號五樓之３","OBJECTID":349562},"geometry":{"x":171606.12000000011,"y":2545642.5399999991}},{"attributes":{"ID":349572,"DIS_CODE":0,"TOWNNAME":"永康區","LI":"五王里","LIN":"6鄰","STREET":"中華二路","SECT":" ","MAREA":" ","LANE":"２０６巷","ALLEY":" ","HOUSE_NO":"６６號三樓之２","E_COORD97":171606.14999999999,"N_COORD97":2545642.54,"ADDRESS":"中華二路２０６巷６６號三樓之２","OBJECTID":349563},"geometry":{"x":171606.15000000037,"y":2545642.5399999991}},{"attributes":{"ID":349573,"DIS_CODE":0,"TOWNNAME":"永康區","LI":"五王里","LIN":"6鄰","STREET":"中華二路","SECT":" ","MAREA":" ","LANE":"２０６巷","ALLEY":" ","HOUSE_NO":"６６號四樓之２","E_COORD97":171606.14999999999,"N_COORD97":2545642.54,"ADDRESS":"中華二路２０６巷６６號四樓之２","OBJECTID":349564},"geometry":{"x":171606.15000000037,"y":2545642.5399999991}},{"attributes":{"ID":349574,"DIS_CODE":0,"TOWNNAME":"永康區","LI":"西橋里","LIN":"18鄰","STREET":"中華西街","SECT":" ","MAREA":" ","LANE":"２６９巷","ALLEY":" ","HOUSE_NO":"２５號","E_COORD97":170610.29999999999,"N_COORD97":2546507.2400000002,"ADDRESS":"中華西街２６９巷２５號","OBJECTID":349565},"geometry":{"x":170610.30000000075,"y":2546507.2400000002}},{"attributes":{"ID":349575,"DIS_CODE":0,"TOWNNAME":"永康區","LI":"成功里","LIN":"32鄰","STREET":"中華一路","SECT":" ","MAREA":" ","LANE":"３９巷","ALLEY":" ","HOUSE_NO":"４１號","E_COORD97":171887.28,"N_COORD97":2544870.25,"ADDRESS":"中華一路３９巷４１號","OBJECTID":349566},"geometry":{"x":171887.28000000119,"y":2544870.2500000037}},{"attributes":{"ID":349576,"DIS_CODE":0,"TOWNNAME":"永康區","LI":"西灣里","LIN":"47鄰","STREET":"大灣路","SECT":" ","MAREA":" ","LANE":"９４２巷","ALLEY":" ","HOUSE_NO":"５７１號","E_COORD97":173945.10000000001,"N_COORD97":2545630.7400000002,"ADDRESS":"大灣路９４２巷５７１號","OBJECTID":349567},"geometry":{"x":173945.09999999963,"y":2545630.7400000021}},{"attributes":{"ID":349577,"DIS_CODE":0,"TOWNNAME":"永康區","LI":"成功里","LIN":"35鄰","STREET":"中華路","SECT":" ","MAREA":" ","LANE":"１５４巷","ALLEY":" ","HOUSE_NO":"１０４號","E_COORD97":171862.64999999999,"N_COORD97":2544891.7200000002,"ADDRESS":"中華路１５４巷１０４號","OBJECTID":349568},"geometry":{"x":171862.6500000013,"y":2544891.7200000025}},{"attributes":{"ID":349578,"DIS_CODE":0,"TOWNNAME":"永康區","LI":"甲頂里","LIN":"4鄰","STREET":"中正南路","SECT":" ","MAREA":" ","LANE":"１６８巷","ALLEY":" ","HOUSE_NO":"１２號","E_COORD97":169884.62,"N_COORD97":2546962.9700000002,"ADDRESS":"中正南路１６８巷１２號","OBJECTID":349569},"geometry":{"x":169884.62000000104,"y":2546962.9700000007}},{"attributes":{"ID":349579,"DIS_CODE":0,"TOWNNAME":"永康區","LI":"甲頂里","LIN":"20鄰","STREET":"中正南路","SECT":" ","MAREA":" ","LANE":"５２巷","ALLEY":" ","HOUSE_NO":"５０號","E_COORD97":169857.76999999999,"N_COORD97":2546771.8300000001,"ADDRESS":"中正南路５２巷５０號","OBJECTID":349570},"geometry":{"x":169857.77000000048,"y":2546771.8300000038}},{"attributes":{"ID":349580,"DIS_CODE":0,"TOWNNAME":"永康區","LI":"永康里","LIN":"30鄰","STREET":"永華路","SECT":" ","MAREA":" ","LANE":"７７６巷","ALLEY":" ","HOUSE_NO":"３６號","E_COORD97":174174.62,"N_COORD97":2547150.2400000002,"ADDRESS":"永華路７７６巷３６號","OBJECTID":349571},"geometry":{"x":174174.62000000197,"y":2547150.2400000021}},{"attributes":{"ID":349581,"DIS_CODE":0,"TOWNNAME":"北區","LI":"實踐里","LIN":"18鄰","STREET":"大武街","SECT":" ","MAREA":" ","LANE":"２０５巷","ALLEY":" ","HOUSE_NO":"４號之１","E_COORD97":169600.88,"N_COORD97":2546092.5099999998,"ADDRESS":"大武街２０５巷４號之１","OBJECTID":349572},"geometry":{"x":169600.88000000082,"y":2546092.5100000016}},{"attributes":{"ID":349582,"DIS_CODE":0,"TOWNNAME":"永康區","LI":"西灣里","LIN":"44鄰","STREET":"大灣路","SECT":" ","MAREA":" ","LANE":"９４２巷","ALLEY":" ","HOUSE_NO":"５４１號","E_COORD97":173962.79999999999,"N_COORD97":2545569.98,"ADDRESS":"大灣路９４２巷５４１號","OBJECTID":349573},"geometry":{"x":173962.80000000168,"y":2545569.9800000004}},{"attributes":{"ID":349583,"DIS_CODE":0,"TOWNNAME":"永康區","LI":"永康里","LIN":"18鄰","STREET":"永中街","SECT":" ","MAREA":" ","LANE":"１３８巷","ALLEY":" ","HOUSE_NO":"２６號","E_COORD97":174066.25,"N_COORD97":2547211.3300000001,"ADDRESS":"永中街１３８巷２６號","OBJECTID":349574},"geometry":{"x":174066.25,"y":2547211.3300000001}},{"attributes":{"ID":349584,"DIS_CODE":0,"TOWNNAME":"安平區","LI":"海頭里","LIN":"11鄰","STREET":"\u25A0忠街","SECT":" ","MAREA":" ","LANE":" ","ALLEY":" ","HOUSE_NO":"７４號","E_COORD97":164086.89000000001,"N_COORD97":2544704.1299999999,"ADDRESS":"\u25A0忠街７４號","OBJECTID":349575},"geometry":{"x":164086.88999999966,"y":2544704.1300000008}},{"attributes":{"ID":349585,"DIS_CODE":0,"TOWNNAME":"南區","LI":"鯤鯓里","LIN":"18鄰","STREET":"鯤鯓路","SECT":" ","MAREA":" ","LANE":"１０２巷","ALLEY":" ","HOUSE_NO":"１１２號","E_COORD97":165092.04000000001,"N_COORD97":2540192.8999999999,"ADDRESS":"鯤鯓路１０２巷１１２號","OBJECTID":349576},"geometry":{"x":165092.04000000004,"y":2540192.9000000004}},{"attributes":{"ID":349586,"DIS_CODE":0,"TOWNNAME":"南區","LI":"鯤鯓里","LIN":"18鄰","STREET":"鯤鯓路","SECT":" ","MAREA":" ","LANE":"１０２巷","ALLEY":" ","HOUSE_NO":"１１４號","E_COORD97":165103.75,"N_COORD97":2540197,"ADDRESS":"鯤鯓路１０２巷１１４號","OBJECTID":349577},"geometry":{"x":165103.75,"y":2540197.0000000019}},{"attributes":{"ID":349587,"DIS_CODE":0,"TOWNNAME":"南區","LI":"鯤鯓里","LIN":"18鄰","STREET":"鯤鯓路","SECT":" ","MAREA":" ","LANE":"１０２巷","ALLEY":" ","HOUSE_NO":"１２０號","E_COORD97":165114.73999999999,"N_COORD97":2540211.1200000001,"ADDRESS":"鯤鯓路１０２巷１２０號","OBJECTID":349578},"geometry":{"x":165114.74000000209,"y":2540211.1200000029}},{"attributes":{"ID":349588,"DIS_CODE":0,"TOWNNAME":"南區","LI":"鯤鯓里","LIN":"18鄰","STREET":"鯤鯓路","SECT":" ","MAREA":" ","LANE":"１０２巷","ALLEY":" ","HOUSE_NO":"１２０號之２１","E_COORD97":165133.57999999999,"N_COORD97":2540217.27,"ADDRESS":"鯤鯓路１０２巷１２０號之２１","OBJECTID":349579},"geometry":{"x":165133.58000000007,"y":2540217.2699999996}},{"attributes":{"ID":349589,"DIS_CODE":0,"TOWNNAME":"南區","LI":"鯤鯓里","LIN":"18鄰","STREET":"鯤鯓路","SECT":" ","MAREA":" ","LANE":"１０２巷","ALLEY":" ","HOUSE_NO":"１５０號","E_COORD97":165146.42000000001,"N_COORD97":2540332.0899999999,"ADDRESS":"鯤鯓路１０２巷１５０號","OBJECTID":349580},"geometry":{"x":165146.41999999993,"y":2540332.0900000017}},{"attributes":{"ID":349590,"DIS_CODE":0,"TOWNNAME":"南區","LI":"鯤鯓里","LIN":"18鄰","STREET":"鯤鯓路","SECT":" ","MAREA":" ","LANE":"１０２巷","ALLEY":" ","HOUSE_NO":"４５號","E_COORD97":165093.95999999999,"N_COORD97":2540219.4199999999,"ADDRESS":"鯤鯓路１０２巷４５號","OBJECTID":349581},"geometry":{"x":165093.95999999996,"y":2540219.4199999999}},{"attributes":{"ID":349591,"DIS_CODE":0,"TOWNNAME":"南區","LI":"鯤鯓里","LIN":"18鄰","STREET":"鯤鯓路","SECT":" ","MAREA":" ","LANE":"１０２巷","ALLEY":" ","HOUSE_NO":"４７號","E_COORD97":165093.48000000001,"N_COORD97":2540232.8199999998,"ADDRESS":"鯤鯓路１０２巷４７號","OBJECTID":349582},"geometry":{"x":165093.48000000138,"y":2540232.8200000022}},{"attributes":{"ID":349592,"DIS_CODE":0,"TOWNNAME":"南區","LI":"鯤鯓里","LIN":"18鄰","STREET":"鯤鯓路","SECT":" ","MAREA":" ","LANE":"１０２巷","ALLEY":" ","HOUSE_NO":"４９號","E_COORD97":165085.28,"N_COORD97":2540246.3700000001,"ADDRESS":"鯤鯓路１０２巷４９號","OBJECTID":349583},"geometry":{"x":165085.28000000026,"y":2540246.3700000029}},{"attributes":{"ID":349593,"DIS_CODE":0,"TOWNNAME":"南區","LI":"鯤鯓里","LIN":"18鄰","STREET":"鯤鯓路","SECT":" ","MAREA":" ","LANE":"１０２巷","ALLEY":" ","HOUSE_NO":"５１號","E_COORD97":165101.81,"N_COORD97":2540243.0699999998,"ADDRESS":"鯤鯓路１０２巷５１號","OBJECTID":349584},"geometry":{"x":165101.81000000145,"y":2540243.0700000003}},{"attributes":{"ID":349594,"DIS_CODE":0,"TOWNNAME":"南區","LI":"鯤鯓里","LIN":"18鄰","STREET":"鯤鯓路","SECT":" ","MAREA":" ","LANE":"１０２巷","ALLEY":" ","HOUSE_NO":"５３號","E_COORD97":165092.75,"N_COORD97":2540253.2799999998,"ADDRESS":"鯤鯓路１０２巷５３號","OBJECTID":349585},"geometry":{"x":165092.75000000093,"y":2540253.2799999993}},{"attributes":{"ID":349595,"DIS_CODE":0,"TOWNNAME":"南區","LI":"鯤鯓里","LIN":"18鄰","STREET":"鯤鯓路","SECT":" ","MAREA":" ","LANE":"１０２巷","ALLEY":" ","HOUSE_NO":"５５號","E_COORD97":165081.97,"N_COORD97":2540264.54,"ADDRESS":"鯤鯓路１０２巷５５號","OBJECTID":349586},"geometry":{"x":165081.96999999974,"y":2540264.540000001}},{"attributes":{"ID":349596,"DIS_CODE":0,"TOWNNAME":"安平區","LI":"海頭里","LIN":"11鄰","STREET":"\u25A0忠街","SECT":" ","MAREA":" ","LANE":" ","ALLEY":" ","HOUSE_NO":"７４號之１","E_COORD97":164090.60000000001,"N_COORD97":2544702.1800000002,"ADDRESS":"\u25A0忠街７４號之１","OBJECTID":349587},"geometry":{"x":164090.59999999963,"y":2544702.1800000016}},{"attributes":{"ID":349597,"DIS_CODE":0,"TOWNNAME":"安平區","LI":"海頭里","LIN":"11鄰","STREET":"\u25A0忠街","SECT":" ","MAREA":" ","LANE":" ","ALLEY":" ","HOUSE_NO":"７４號之２","E_COORD97":164093.39999999999,"N_COORD97":2544704.8300000001,"ADDRESS":"\u25A0忠街７４號之２","OBJECTID":349588},"geometry":{"x":164093.40000000224,"y":2544704.8300000019}},{"attributes":{"ID":349598,"DIS_CODE":0,"TOWNNAME":"安平區","LI":"海頭里","LIN":"11鄰","STREET":"\u25A0忠街","SECT":" ","MAREA":" ","LANE":" ","ALLEY":" ","HOUSE_NO":"７６號","E_COORD97":164081.5,"N_COORD97":2544717.8399999999,"ADDRESS":"\u25A0忠街７６號","OBJECTID":349589},"geometry":{"x":164081.5,"y":2544717.8400000017}},{"attributes":{"ID":349599,"DIS_CODE":0,"TOWNNAME":"學甲區","LI":"明宜里","LIN":"8鄰","STREET":"中山路","SECT":" ","MAREA":" ","LANE":" ","ALLEY":" ","HOUSE_NO":"１８１號之３","E_COORD97":165748.39999999999,"N_COORD97":2570560.3700000001,"ADDRESS":"中山路１８１號之３","OBJECTID":349590},"geometry":{"x":165748.4000000013,"y":2570560.3700000029}},{"attributes":{"ID":349600,"DIS_CODE":0,"TOWNNAME":"學甲區","LI":"明宜里","LIN":"8鄰","STREET":"中山路","SECT":" ","MAREA":" ","LANE":" ","ALLEY":" ","HOUSE_NO":"１８１號之６","E_COORD97":165734.01000000001,"N_COORD97":2570562.5099999998,"ADDRESS":"中山路１８１號之６","OBJECTID":349591},"geometry":{"x":165734.00999999978,"y":2570562.5099999998}},{"attributes":{"ID":349601,"DIS_CODE":0,"TOWNNAME":"學甲區","LI":"明宜里","LIN":"8鄰","STREET":"中山路","SECT":" ","MAREA":" ","LANE":" ","ALLEY":" ","HOUSE_NO":"１８１號之７","E_COORD97":165727.69,"N_COORD97":2570551.1299999999,"ADDRESS":"中山路１８１號之７","OBJECTID":349592},"geometry":{"x":165727.69000000134,"y":2570551.129999999}},{"attributes":{"ID":349602,"DIS_CODE":0,"TOWNNAME":"學甲區","LI":"明宜里","LIN":"8鄰","STREET":"中山路","SECT":" ","MAREA":" ","LANE":" ","ALLEY":" ","HOUSE_NO":"１８１號之８","E_COORD97":165726.01000000001,"N_COORD97":2570539.9300000002,"ADDRESS":"中山路１８１號之８","OBJECTID":349593},"geometry":{"x":165726.00999999978,"y":2570539.9299999997}},{"attributes":{"ID":349603,"DIS_CODE":0,"TOWNNAME":"學甲區","LI":"明宜里","LIN":"8鄰","STREET":"中山路","SECT":" ","MAREA":" ","LANE":" ","ALLEY":" ","HOUSE_NO":"１８１號之９","E_COORD97":165723.54000000001,"N_COORD97":2570530.5800000001,"ADDRESS":"中山路１８１號之９","OBJECTID":349594},"geometry":{"x":165723.54000000097,"y":2570530.5800000019}},{"attributes":{"ID":349604,"DIS_CODE":0,"TOWNNAME":"學甲區","LI":"明宜里","LIN":"8鄰","STREET":"中山路","SECT":" ","MAREA":" ","LANE":" ","ALLEY":" ","HOUSE_NO":"１８１號","E_COORD97":165760.97,"N_COORD97":2570557.5299999998,"ADDRESS":"中山路１８１號","OBJECTID":349595},"geometry":{"x":165760.97000000067,"y":2570557.5300000012}},{"attributes":{"ID":349605,"DIS_CODE":0,"TOWNNAME":"學甲區","LI":"明宜里","LIN":"8鄰","STREET":"中山路","SECT":" ","MAREA":" ","LANE":" ","ALLEY":" ","HOUSE_NO":"１８３號之１０","E_COORD97":165710.28,"N_COORD97":2570541.4900000002,"ADDRESS":"中山路１８３號之１０","OBJECTID":349596},"geometry":{"x":165710.28000000119,"y":2570541.4900000021}},{"attributes":{"ID":349606,"DIS_CODE":0,"TOWNNAME":"學甲區","LI":"明宜里","LIN":"8鄰","STREET":"中山路","SECT":" ","MAREA":" ","LANE":" ","ALLEY":" ","HOUSE_NO":"１８３號之１１","E_COORD97":165709.34,"N_COORD97":2570536.3100000001,"ADDRESS":"中山路１８３號之１１","OBJECTID":349597},"geometry":{"x":165709.34000000078,"y":2570536.3100000024}},{"attributes":{"ID":349607,"DIS_CODE":0,"TOWNNAME":"學甲區","LI":"明宜里","LIN":"8鄰","STREET":"中山路","SECT":" ","MAREA":" ","LANE":" ","ALLEY":" ","HOUSE_NO":"１８３號之１２","E_COORD97":165708.13,"N_COORD97":2570531.79,"ADDRESS":"中山路１８３號之１２","OBJECTID":349598},"geometry":{"x":165708.12999999989,"y":2570531.790000001}},{"attributes":{"ID":349608,"DIS_CODE":0,"TOWNNAME":"學甲區","LI":"明宜里","LIN":"8鄰","STREET":"中山路","SECT":" ","MAREA":" ","LANE":" ","ALLEY":" ","HOUSE_NO":"１８３號之１３","E_COORD97":165707.37,"N_COORD97":2570526.7000000002,"ADDRESS":"中山路１８３號之１３","OBJECTID":349599},"geometry":{"x":165707.37000000104,"y":2570526.6999999993}},{"attributes":{"ID":349609,"DIS_CODE":0,"TOWNNAME":"學甲區","LI":"明宜里","LIN":"8鄰","STREET":"中山路","SECT":" ","MAREA":" ","LANE":" ","ALLEY":" ","HOUSE_NO":"１８３號之１４","E_COORD97":165706.26000000001,"N_COORD97":2570521.8500000001,"ADDRESS":"中山路１８３號之１４","OBJECTID":349600},"geometry":{"x":165706.26000000071,"y":2570521.8500000015}}]}