{"displayFieldName":"TOWNNAME","fieldAliases":{"ID":"ID","DIS_CODE":"DIS_CODE","TOWNNAME":"TOWNNAME","LI":"LI","LIN":"LIN","STREET":"STREET","SECT":"SECT","MAREA":"MAREA","LANE":"LANE","ALLEY":"ALLEY","HOUSE_NO":"HOUSE_NO","E_COORD97":"E_COORD97","N_COORD97":"N_COORD97","ADDRESS":"ADDRESS","OBJECTID":"OBJECTID"},"geometryType":"esriGeometryPoint","spatialReference":{"wkid":102443,"latestWkid":3826},"fields":[{"name":"ID","type":"esriFieldTypeDouble","alias":"ID"},{"name":"DIS_CODE","type":"esriFieldTypeInteger","alias":"DIS_CODE"},{"name":"TOWNNAME","type":"esriFieldTypeString","alias":"TOWNNAME","length":8},{"name":"LI","type":"esriFieldTypeString","alias":"LI","length":8},{"name":"LIN","type":"esriFieldTypeString","alias":"LIN","length":12},{"name":"STREET","type":"esriFieldTypeString","alias":"STREET","length":20},{"name":"SECT","type":"esriFieldTypeString","alias":"SECT","length":8},{"name":"MAREA","type":"esriFieldTypeString","alias":"MAREA","length":12},{"name":"LANE","type":"esriFieldTypeString","alias":"LANE","length":10},{"name":"ALLEY","type":"esriFieldTypeString","alias":"ALLEY","length":10},{"name":"HOUSE_NO","type":"esriFieldTypeString","alias":"HOUSE_NO","length":20},{"name":"E_COORD97","type":"esriFieldTypeDouble","alias":"E_COORD97"},{"name":"N_COORD97","type":"esriFieldTypeDouble","alias":"N_COORD97"},{"name":"ADDRESS","type":"esriFieldTypeString","alias":"ADDRESS","length":50},{"name":"OBJECTID","type":"esriFieldTypeOID","alias":"OBJECTID"}],"features":[{"attributes":{"ID":64401,"DIS_CODE":0,"TOWNNAME":"安南區","LI":"鹿耳里","LIN":"2鄰","STREET":"北汕尾二路","SECT":" ","MAREA":" ","LANE":"８００巷","ALLEY":"９弄","HOUSE_NO":"７２號","E_COORD97":160848.64999999999,"N_COORD97":2548708.1699999999,"ADDRESS":"北汕尾二路８００巷９弄７２號","OBJECTID":64401},"geometry":{"x":160848.64999999944,"y":2548708.1699999999}},{"attributes":{"ID":64402,"DIS_CODE":0,"TOWNNAME":"安南區","LI":"鹿耳里","LIN":"2鄰","STREET":"北汕尾二路","SECT":" ","MAREA":" ","LANE":"８００巷","ALLEY":"９弄","HOUSE_NO":"８號","E_COORD97":160718.17000000001,"N_COORD97":2548549.9399999999,"ADDRESS":"北汕尾二路８００巷９弄８號","OBJECTID":64402},"geometry":{"x":160718.17000000086,"y":2548549.9399999995}},{"attributes":{"ID":64403,"DIS_CODE":0,"TOWNNAME":"仁德區","LI":"新田里","LIN":"8鄰","STREET":"北保路","SECT":" ","MAREA":" ","LANE":" ","ALLEY":" ","HOUSE_NO":"２２１號","E_COORD97":173568.42999999999,"N_COORD97":2539399.75,"ADDRESS":"北保路２２１號","OBJECTID":64403},"geometry":{"x":173568.42999999877,"y":2539399.7500000019}},{"attributes":{"ID":64404,"DIS_CODE":0,"TOWNNAME":"佳里區","LI":"溪州里","LIN":"8鄰","STREET":" ","SECT":" ","MAREA":"溪州","LANE":" ","ALLEY":" ","HOUSE_NO":"６８號","E_COORD97":166441.67999999999,"N_COORD97":2567474.1600000001,"ADDRESS":"溪州６８號","OBJECTID":64404},"geometry":{"x":166441.6799999997,"y":2567474.1600000001}},{"attributes":{"ID":64405,"DIS_CODE":0,"TOWNNAME":"永康區","LI":"永康里","LIN":"8鄰","STREET":"永康街","SECT":" ","MAREA":" ","LANE":" ","ALLEY":" ","HOUSE_NO":"４７號","E_COORD97":173801.47,"N_COORD97":2547233.7000000002,"ADDRESS":"永康街４７號","OBJECTID":64405},"geometry":{"x":173801.46999999974,"y":2547233.7000000011}},{"attributes":{"ID":64406,"DIS_CODE":0,"TOWNNAME":"佳里區","LI":"溪州里","LIN":"8鄰","STREET":" ","SECT":" ","MAREA":"溪州","LANE":" ","ALLEY":" ","HOUSE_NO":"６９號","E_COORD97":166419.45999999999,"N_COORD97":2567432.3500000001,"ADDRESS":"溪州６９號","OBJECTID":64406},"geometry":{"x":166419.45999999996,"y":2567432.3500000015}},{"attributes":{"ID":64407,"DIS_CODE":0,"TOWNNAME":"佳里區","LI":"溪州里","LIN":"8鄰","STREET":" ","SECT":" ","MAREA":"溪州","LANE":" ","ALLEY":" ","HOUSE_NO":"７０號","E_COORD97":166443.42000000001,"N_COORD97":2567447.1099999999,"ADDRESS":"溪州７０號","OBJECTID":64407},"geometry":{"x":166443.41999999993,"y":2567447.1100000031}},{"attributes":{"ID":64408,"DIS_CODE":0,"TOWNNAME":"東區","LI":"東聖里","LIN":"2鄰","STREET":"中華東路","SECT":"二段","MAREA":" ","LANE":"７巷","ALLEY":"１３弄","HOUSE_NO":"３號","E_COORD97":171496.94,"N_COORD97":2543157.5600000001,"ADDRESS":"中華東路二段７巷１３弄３號","OBJECTID":64408},"geometry":{"x":171496.94000000041,"y":2543157.5600000024}},{"attributes":{"ID":64409,"DIS_CODE":0,"TOWNNAME":"善化區","LI":"嘉北里","LIN":"1鄰","STREET":" ","SECT":" ","MAREA":"茄拔","LANE":" ","ALLEY":" ","HOUSE_NO":"３之２４號","E_COORD97":181210.73000000001,"N_COORD97":2560136.02,"ADDRESS":"茄拔３之２４號","OBJECTID":64409},"geometry":{"x":181210.73000000045,"y":2560136.0200000014}},{"attributes":{"ID":64410,"DIS_CODE":0,"TOWNNAME":"善化區","LI":"什乃里","LIN":"1鄰","STREET":" ","SECT":" ","MAREA":"什乃","LANE":" ","ALLEY":" ","HOUSE_NO":"１５之１０號","E_COORD97":176221.37,"N_COORD97":2560558.52,"ADDRESS":"什乃１５之１０號","OBJECTID":64410},"geometry":{"x":176221.37000000104,"y":2560558.5200000033}},{"attributes":{"ID":64411,"DIS_CODE":0,"TOWNNAME":"善化區","LI":"田寮里","LIN":"1鄰","STREET":" ","SECT":" ","MAREA":"六分寮","LANE":" ","ALLEY":" ","HOUSE_NO":"２７號","E_COORD97":178413.91,"N_COORD97":2561328.75,"ADDRESS":"六分寮２７號","OBJECTID":64411},"geometry":{"x":178413.90999999922,"y":2561328.75}},{"attributes":{"ID":64412,"DIS_CODE":0,"TOWNNAME":"善化區","LI":"什乃里","LIN":"1鄰","STREET":" ","SECT":" ","MAREA":"什乃","LANE":" ","ALLEY":" ","HOUSE_NO":"１號之４２","E_COORD97":176266.70000000001,"N_COORD97":2560331.02,"ADDRESS":"什乃１號之４２","OBJECTID":64412},"geometry":{"x":176266.70000000112,"y":2560331.0199999996}},{"attributes":{"ID":64413,"DIS_CODE":0,"TOWNNAME":"善化區","LI":"嘉南里","LIN":"1鄰","STREET":" ","SECT":" ","MAREA":"茄拔","LANE":" ","ALLEY":" ","HOUSE_NO":"５３號","E_COORD97":181110.10999999999,"N_COORD97":2559590.5099999998,"ADDRESS":"茄拔５３號","OBJECTID":64413},"geometry":{"x":181110.11000000127,"y":2559590.5100000016}},{"attributes":{"ID":64414,"DIS_CODE":0,"TOWNNAME":"善化區","LI":"嘉南里","LIN":"1鄰","STREET":" ","SECT":" ","MAREA":"茄拔","LANE":" ","ALLEY":" ","HOUSE_NO":"５９號之１０","E_COORD97":181223.70000000001,"N_COORD97":2559528.77,"ADDRESS":"茄拔５９號之１０","OBJECTID":64414},"geometry":{"x":181223.70000000019,"y":2559528.7699999996}},{"attributes":{"ID":64415,"DIS_CODE":0,"TOWNNAME":"善化區","LI":"什乃里","LIN":"1鄰","STREET":" ","SECT":" ","MAREA":"什乃","LANE":" ","ALLEY":" ","HOUSE_NO":"１５之４２號","E_COORD97":176256.63,"N_COORD97":2560505.52,"ADDRESS":"什乃１５之４２號","OBJECTID":64415},"geometry":{"x":176256.63000000082,"y":2560505.5200000014}},{"attributes":{"ID":64416,"DIS_CODE":0,"TOWNNAME":"善化區","LI":"什乃里","LIN":"1鄰","STREET":" ","SECT":" ","MAREA":"什乃","LANE":" ","ALLEY":" ","HOUSE_NO":"１號之３７","E_COORD97":176273.51000000001,"N_COORD97":2560318.27,"ADDRESS":"什乃１號之３７","OBJECTID":64416},"geometry":{"x":176273.50999999885,"y":2560318.2699999996}},{"attributes":{"ID":64417,"DIS_CODE":0,"TOWNNAME":"永康區","LI":"正強里","LIN":"6鄰","STREET":"自強路","SECT":" ","MAREA":" ","LANE":"３３０巷","ALLEY":"２１弄","HOUSE_NO":"５號","E_COORD97":173463.01999999999,"N_COORD97":2547652.04,"ADDRESS":"自強路３３０巷２１弄５號","OBJECTID":64417},"geometry":{"x":173463.02000000048,"y":2547652.040000001}},{"attributes":{"ID":64418,"DIS_CODE":0,"TOWNNAME":"善化區","LI":"什乃里","LIN":"1鄰","STREET":" ","SECT":" ","MAREA":"什乃","LANE":" ","ALLEY":" ","HOUSE_NO":"１號之２７","E_COORD97":176286.60000000001,"N_COORD97":2560279.52,"ADDRESS":"什乃１號之２７","OBJECTID":64418},"geometry":{"x":176286.60000000056,"y":2560279.5199999996}},{"attributes":{"ID":64419,"DIS_CODE":0,"TOWNNAME":"永康區","LI":"安康里","LIN":"6鄰","STREET":"中華路","SECT":" ","MAREA":" ","LANE":"７２７巷","ALLEY":"６６弄","HOUSE_NO":"７號","E_COORD97":170687.07000000001,"N_COORD97":2546363.4100000001,"ADDRESS":"中華路７２７巷６６弄７號","OBJECTID":64419},"geometry":{"x":170687.07000000123,"y":2546363.4100000001}},{"attributes":{"ID":64420,"DIS_CODE":0,"TOWNNAME":"永康區","LI":"安康里","LIN":"6鄰","STREET":"中華路","SECT":" ","MAREA":" ","LANE":"７２７巷","ALLEY":"６６弄","HOUSE_NO":"１０號","E_COORD97":170694.98000000001,"N_COORD97":2546372.25,"ADDRESS":"中華路７２７巷６６弄１０號","OBJECTID":64420},"geometry":{"x":170694.98000000045,"y":2546372.2500000037}},{"attributes":{"ID":64421,"DIS_CODE":0,"TOWNNAME":"南區","LI":"新興里","LIN":"6鄰","STREET":"西門路","SECT":"一段","MAREA":" ","LANE":"４４１巷","ALLEY":"９弄","HOUSE_NO":"３０號","E_COORD97":167666.32999999999,"N_COORD97":2542327.52,"ADDRESS":"西門路一段４４１巷９弄３０號","OBJECTID":64421},"geometry":{"x":167666.33000000007,"y":2542327.5199999996}},{"attributes":{"ID":64422,"DIS_CODE":0,"TOWNNAME":"南區","LI":"新興里","LIN":"6鄰","STREET":"西門路","SECT":"一段","MAREA":" ","LANE":"４４１巷","ALLEY":"９弄","HOUSE_NO":"３２號","E_COORD97":167672.79000000001,"N_COORD97":2542328.23,"ADDRESS":"西門路一段４４１巷９弄３２號","OBJECTID":64422},"geometry":{"x":167672.79000000097,"y":2542328.2300000042}},{"attributes":{"ID":64423,"DIS_CODE":0,"TOWNNAME":"南區","LI":"新興里","LIN":"6鄰","STREET":"西門路","SECT":"一段","MAREA":" ","LANE":"４４１巷","ALLEY":"９弄","HOUSE_NO":"３２號之１","E_COORD97":167678.17000000001,"N_COORD97":2542328.5899999999,"ADDRESS":"西門路一段４４１巷９弄３２號之１","OBJECTID":64423},"geometry":{"x":167678.17000000179,"y":2542328.5900000017}},{"attributes":{"ID":64424,"DIS_CODE":0,"TOWNNAME":"南區","LI":"大成里","LIN":"6鄰","STREET":"健康路","SECT":"一段","MAREA":" ","LANE":"３９１巷","ALLEY":"１６弄","HOUSE_NO":"１號","E_COORD97":167932.23999999999,"N_COORD97":2542378.7000000002,"ADDRESS":"健康路一段３９１巷１６弄１號","OBJECTID":64424},"geometry":{"x":167932.24000000209,"y":2542378.7000000011}},{"attributes":{"ID":64425,"DIS_CODE":0,"TOWNNAME":"南區","LI":"大成里","LIN":"6鄰","STREET":"健康路","SECT":"一段","MAREA":" ","LANE":"３９１巷","ALLEY":"１６弄","HOUSE_NO":"２號","E_COORD97":167927.87,"N_COORD97":2542379.7799999998,"ADDRESS":"健康路一段３９１巷１６弄２號","OBJECTID":64425},"geometry":{"x":167927.87000000197,"y":2542379.7799999993}},{"attributes":{"ID":64426,"DIS_CODE":0,"TOWNNAME":"永康區","LI":"永康里","LIN":"8鄰","STREET":"永康街","SECT":" ","MAREA":" ","LANE":" ","ALLEY":" ","HOUSE_NO":"１５號","E_COORD97":173791.97,"N_COORD97":2547289.1899999999,"ADDRESS":"永康街１５號","OBJECTID":64426},"geometry":{"x":173791.96999999881,"y":2547289.1899999995}},{"attributes":{"ID":64427,"DIS_CODE":0,"TOWNNAME":"永康區","LI":"永康里","LIN":"8鄰","STREET":"永康街","SECT":" ","MAREA":" ","LANE":" ","ALLEY":" ","HOUSE_NO":"５１號","E_COORD97":173801.98000000001,"N_COORD97":2547223.6899999999,"ADDRESS":"永康街５１號","OBJECTID":64427},"geometry":{"x":173801.98000000138,"y":2547223.6900000013}},{"attributes":{"ID":64428,"DIS_CODE":0,"TOWNNAME":"永康區","LI":"尚頂里","LIN":"8鄰","STREET":"中正二街","SECT":" ","MAREA":" ","LANE":" ","ALLEY":" ","HOUSE_NO":"６１號","E_COORD97":170927.76000000001,"N_COORD97":2547424.6299999999,"ADDRESS":"中正二街６１號","OBJECTID":64428},"geometry":{"x":170927.76000000071,"y":2547424.629999999}},{"attributes":{"ID":64429,"DIS_CODE":0,"TOWNNAME":"永康區","LI":"西灣里","LIN":"8鄰","STREET":"大安街","SECT":" ","MAREA":" ","LANE":" ","ALLEY":" ","HOUSE_NO":"１０１號","E_COORD97":174520.70000000001,"N_COORD97":2545045.21,"ADDRESS":"大安街１０１號","OBJECTID":64429},"geometry":{"x":174520.70000000112,"y":2545045.2100000028}},{"attributes":{"ID":64430,"DIS_CODE":0,"TOWNNAME":"永康區","LI":"三合里","LIN":"8鄰","STREET":"南工街","SECT":" ","MAREA":" ","LANE":" ","ALLEY":" ","HOUSE_NO":"１２９號","E_COORD97":172089.73999999999,"N_COORD97":2545776.4900000002,"ADDRESS":"南工街１２９號","OBJECTID":64430},"geometry":{"x":172089.74000000022,"y":2545776.4900000002}},{"attributes":{"ID":64431,"DIS_CODE":0,"TOWNNAME":"永康區","LI":"烏竹里","LIN":"8鄰","STREET":"龍橋街","SECT":" ","MAREA":" ","LANE":" ","ALLEY":" ","HOUSE_NO":"３８９號","E_COORD97":174439.12,"N_COORD97":2549157.4500000002,"ADDRESS":"龍橋街３８９號","OBJECTID":64431},"geometry":{"x":174439.12000000197,"y":2549157.4500000011}},{"attributes":{"ID":64432,"DIS_CODE":0,"TOWNNAME":"安南區","LI":"安和里","LIN":"2鄰","STREET":"府安路","SECT":"三段","MAREA":" ","LANE":"２９２巷","ALLEY":" ","HOUSE_NO":"２５號","E_COORD97":169832.54999999999,"N_COORD97":2547766.8700000001,"ADDRESS":"府安路三段２９２巷２５號","OBJECTID":64432},"geometry":{"x":169832.54999999981,"y":2547766.8700000029}},{"attributes":{"ID":64433,"DIS_CODE":0,"TOWNNAME":"永康區","LI":"蔦松里","LIN":"8鄰","STREET":"中正北路","SECT":" ","MAREA":" ","LANE":" ","ALLEY":" ","HOUSE_NO":"４０３號之２","E_COORD97":173523.28,"N_COORD97":2549152.54,"ADDRESS":"中正北路４０３號之２","OBJECTID":64433},"geometry":{"x":173523.28000000119,"y":2549152.5400000028}},{"attributes":{"ID":64434,"DIS_CODE":0,"TOWNNAME":"永康區","LI":"東灣里","LIN":"8鄰","STREET":"大灣路","SECT":" ","MAREA":" ","LANE":" ","ALLEY":" ","HOUSE_NO":"４５４號","E_COORD97":174749.25,"N_COORD97":2544942.7400000002,"ADDRESS":"大灣路４５４號","OBJECTID":64434},"geometry":{"x":174749.25,"y":2544942.7400000021}},{"attributes":{"ID":64435,"DIS_CODE":0,"TOWNNAME":"永康區","LI":"南灣里","LIN":"8鄰","STREET":"大灣東路","SECT":" ","MAREA":" ","LANE":" ","ALLEY":" ","HOUSE_NO":"１１０號","E_COORD97":174428.76000000001,"N_COORD97":2544362.25,"ADDRESS":"大灣東路１１０號","OBJECTID":64435},"geometry":{"x":174428.75999999978,"y":2544362.2500000019}},{"attributes":{"ID":64436,"DIS_CODE":0,"TOWNNAME":"佳里區","LI":"營頂里","LIN":"8鄰","STREET":" ","SECT":" ","MAREA":"營頂","LANE":" ","ALLEY":" ","HOUSE_NO":"８９號之３","E_COORD97":167145.42000000001,"N_COORD97":2566575.8999999999,"ADDRESS":"營頂８９號之３","OBJECTID":64436},"geometry":{"x":167145.41999999993,"y":2566575.9000000022}},{"attributes":{"ID":64437,"DIS_CODE":0,"TOWNNAME":"南區","LI":"大成里","LIN":"6鄰","STREET":"健康路","SECT":"一段","MAREA":" ","LANE":"３９１巷","ALLEY":"１６弄","HOUSE_NO":"３號","E_COORD97":167923.51000000001,"N_COORD97":2542381.52,"ADDRESS":"健康路一段３９１巷１６弄３號","OBJECTID":64437},"geometry":{"x":167923.51000000071,"y":2542381.5199999996}},{"attributes":{"ID":64438,"DIS_CODE":0,"TOWNNAME":"南區","LI":"大成里","LIN":"6鄰","STREET":"健康路","SECT":"一段","MAREA":" ","LANE":"３９１巷","ALLEY":"１６弄","HOUSE_NO":"４號","E_COORD97":167918.92999999999,"N_COORD97":2542383.7000000002,"ADDRESS":"健康路一段３９１巷１６弄４號","OBJECTID":64438},"geometry":{"x":167918.93000000063,"y":2542383.6999999993}},{"attributes":{"ID":64439,"DIS_CODE":0,"TOWNNAME":"南區","LI":"大成里","LIN":"6鄰","STREET":"健康路","SECT":"一段","MAREA":" ","LANE":"３９１巷","ALLEY":"１６弄","HOUSE_NO":"５號","E_COORD97":167912.39000000001,"N_COORD97":2542368.2599999998,"ADDRESS":"健康路一段３９１巷１６弄５號","OBJECTID":64439},"geometry":{"x":167912.3900000006,"y":2542368.2600000016}},{"attributes":{"ID":64440,"DIS_CODE":0,"TOWNNAME":"佳里區","LI":"營頂里","LIN":"8鄰","STREET":" ","SECT":" ","MAREA":"營頂","LANE":" ","ALLEY":" ","HOUSE_NO":"８９號之５","E_COORD97":167088.81,"N_COORD97":2566575.6899999999,"ADDRESS":"營頂８９號之５","OBJECTID":64440},"geometry":{"x":167088.81000000052,"y":2566575.6900000013}},{"attributes":{"ID":64441,"DIS_CODE":0,"TOWNNAME":"南區","LI":"大成里","LIN":"6鄰","STREET":"健康路","SECT":"一段","MAREA":" ","LANE":"３９１巷","ALLEY":"１６弄","HOUSE_NO":"６號","E_COORD97":167917.41,"N_COORD97":2542366.7400000002,"ADDRESS":"健康路一段３９１巷１６弄６號","OBJECTID":64441},"geometry":{"x":167917.41000000201,"y":2542366.7400000002}},{"attributes":{"ID":64442,"DIS_CODE":0,"TOWNNAME":"南區","LI":"大成里","LIN":"6鄰","STREET":"健康路","SECT":"一段","MAREA":" ","LANE":"３９１巷","ALLEY":"１６弄","HOUSE_NO":"７號","E_COORD97":167923.73000000001,"N_COORD97":2542364.3399999999,"ADDRESS":"健康路一段３９１巷１６弄７號","OBJECTID":64442},"geometry":{"x":167923.73000000045,"y":2542364.3400000017}},{"attributes":{"ID":64443,"DIS_CODE":0,"TOWNNAME":"南區","LI":"南都里","LIN":"6鄰","STREET":"中華南路","SECT":"二段","MAREA":" ","LANE":"３１５巷","ALLEY":"１２弄","HOUSE_NO":"１４號","E_COORD97":166409.10000000001,"N_COORD97":2540089.02,"ADDRESS":"中華南路二段３１５巷１２弄１４號","OBJECTID":64443},"geometry":{"x":166409.10000000056,"y":2540089.0200000014}},{"attributes":{"ID":64444,"DIS_CODE":0,"TOWNNAME":"南區","LI":"南都里","LIN":"6鄰","STREET":"中華南路","SECT":"二段","MAREA":" ","LANE":"３１５巷","ALLEY":"１２弄","HOUSE_NO":"１６號","E_COORD97":166401.10999999999,"N_COORD97":2540089.02,"ADDRESS":"中華南路二段３１５巷１２弄１６號","OBJECTID":64444},"geometry":{"x":166401.11000000127,"y":2540089.0200000014}},{"attributes":{"ID":64445,"DIS_CODE":0,"TOWNNAME":"南區","LI":"南都里","LIN":"6鄰","STREET":"中華南路","SECT":"二段","MAREA":" ","LANE":"３１５巷","ALLEY":"１２弄","HOUSE_NO":"１８號","E_COORD97":166392.82000000001,"N_COORD97":2540089.02,"ADDRESS":"中華南路二段３１５巷１２弄１８號","OBJECTID":64445},"geometry":{"x":166392.82000000123,"y":2540089.0200000014}},{"attributes":{"ID":64446,"DIS_CODE":0,"TOWNNAME":"永康區","LI":"大橋里","LIN":"8鄰","STREET":"大橋三街","SECT":" ","MAREA":" ","LANE":" ","ALLEY":" ","HOUSE_NO":"２２３號","E_COORD97":170921.98000000001,"N_COORD97":2546820.5299999998,"ADDRESS":"大橋三街２２３號","OBJECTID":64446},"geometry":{"x":170921.98000000045,"y":2546820.5300000031}},{"attributes":{"ID":64447,"DIS_CODE":0,"TOWNNAME":"佳里區","LI":"鎮山里","LIN":"8鄰","STREET":" ","SECT":" ","MAREA":"鎮山","LANE":" ","ALLEY":" ","HOUSE_NO":"８６號之２１","E_COORD97":166346.10999999999,"N_COORD97":2561489.0800000001,"ADDRESS":"鎮山８６號之２１","OBJECTID":64447},"geometry":{"x":166346.11000000034,"y":2561489.0800000019}},{"attributes":{"ID":64448,"DIS_CODE":0,"TOWNNAME":"南區","LI":"南都里","LIN":"6鄰","STREET":"中華南路","SECT":"二段","MAREA":" ","LANE":"３１５巷","ALLEY":"１２弄","HOUSE_NO":"２０號","E_COORD97":166385.44,"N_COORD97":2540089.02,"ADDRESS":"中華南路二段３１５巷１２弄２０號","OBJECTID":64448},"geometry":{"x":166385.44000000134,"y":2540089.0200000014}},{"attributes":{"ID":64449,"DIS_CODE":0,"TOWNNAME":"佳里區","LI":"鎮山里","LIN":"8鄰","STREET":" ","SECT":" ","MAREA":"鎮山","LANE":" ","ALLEY":" ","HOUSE_NO":"８６號之２２","E_COORD97":166319.67000000001,"N_COORD97":2561460.9100000001,"ADDRESS":"鎮山８６號之２２","OBJECTID":64449},"geometry":{"x":166319.66999999993,"y":2561460.9100000001}},{"attributes":{"ID":64450,"DIS_CODE":0,"TOWNNAME":"南區","LI":"南都里","LIN":"6鄰","STREET":"中華南路","SECT":"二段","MAREA":" ","LANE":"３１５巷","ALLEY":"１２弄","HOUSE_NO":"２０號之１","E_COORD97":166373.45999999999,"N_COORD97":2540085.3399999999,"ADDRESS":"中華南路二段３１５巷１２弄２０號之１","OBJECTID":64450},"geometry":{"x":166373.45999999996,"y":2540085.339999998}},{"attributes":{"ID":64451,"DIS_CODE":0,"TOWNNAME":"南區","LI":"南都里","LIN":"6鄰","STREET":"中華南路","SECT":"二段","MAREA":" ","LANE":"３１５巷","ALLEY":"１２弄","HOUSE_NO":"２０號之２","E_COORD97":166369.47,"N_COORD97":2540121.54,"ADDRESS":"中華南路二段３１５巷１２弄２０號之２","OBJECTID":64451},"geometry":{"x":166369.47000000067,"y":2540121.540000001}},{"attributes":{"ID":64452,"DIS_CODE":0,"TOWNNAME":"佳里區","LI":"鎮山里","LIN":"8鄰","STREET":" ","SECT":" ","MAREA":"鎮山","LANE":" ","ALLEY":" ","HOUSE_NO":"８６號之２３","E_COORD97":166319.69,"N_COORD97":2561465.2999999998,"ADDRESS":"鎮山８６號之２３","OBJECTID":64452},"geometry":{"x":166319.69000000134,"y":2561465.3000000007}},{"attributes":{"ID":64453,"DIS_CODE":0,"TOWNNAME":"佳里區","LI":"鎮山里","LIN":"8鄰","STREET":" ","SECT":" ","MAREA":"鎮山","LANE":" ","ALLEY":" ","HOUSE_NO":"８６號之２４","E_COORD97":166320.20000000001,"N_COORD97":2561469.5600000001,"ADDRESS":"鎮山８６號之２４","OBJECTID":64453},"geometry":{"x":166320.19999999925,"y":2561469.5600000024}},{"attributes":{"ID":64454,"DIS_CODE":0,"TOWNNAME":"佳里區","LI":"鎮山里","LIN":"8鄰","STREET":" ","SECT":" ","MAREA":"鎮山","LANE":" ","ALLEY":" ","HOUSE_NO":"８６號之２５","E_COORD97":166321,"N_COORD97":2561474.1600000001,"ADDRESS":"鎮山８６號之２５","OBJECTID":64454},"geometry":{"x":166321,"y":2561474.160000002}},{"attributes":{"ID":64455,"DIS_CODE":0,"TOWNNAME":"佳里區","LI":"鎮山里","LIN":"8鄰","STREET":" ","SECT":" ","MAREA":"鎮山","LANE":" ","ALLEY":" ","HOUSE_NO":"８６號之２６","E_COORD97":166321.63,"N_COORD97":2561478.21,"ADDRESS":"鎮山８６號之２６","OBJECTID":64455},"geometry":{"x":166321.62999999989,"y":2561478.2100000028}},{"attributes":{"ID":64456,"DIS_CODE":0,"TOWNNAME":"佳里區","LI":"鎮山里","LIN":"8鄰","STREET":" ","SECT":" ","MAREA":"鎮山","LANE":" ","ALLEY":" ","HOUSE_NO":"８６號之３１","E_COORD97":166312.01000000001,"N_COORD97":2561484.8999999999,"ADDRESS":"鎮山８６號之３１","OBJECTID":64456},"geometry":{"x":166312.00999999978,"y":2561484.9000000004}},{"attributes":{"ID":64457,"DIS_CODE":0,"TOWNNAME":"南區","LI":"南都里","LIN":"6鄰","STREET":"中華南路","SECT":"二段","MAREA":" ","LANE":"３１５巷","ALLEY":"１２弄","HOUSE_NO":"２號","E_COORD97":166464.64000000001,"N_COORD97":2540088.3799999999,"ADDRESS":"中華南路二段３１５巷１２弄２號","OBJECTID":64457},"geometry":{"x":166464.6400000006,"y":2540088.3800000008}},{"attributes":{"ID":64458,"DIS_CODE":0,"TOWNNAME":"南區","LI":"南都里","LIN":"6鄰","STREET":"中華南路","SECT":"二段","MAREA":" ","LANE":"３１５巷","ALLEY":"１２弄","HOUSE_NO":"４號","E_COORD97":166455.92999999999,"N_COORD97":2540088.73,"ADDRESS":"中華南路二段３１５巷１２弄４號","OBJECTID":64458},"geometry":{"x":166455.93000000063,"y":2540088.7300000004}},{"attributes":{"ID":64459,"DIS_CODE":0,"TOWNNAME":"南區","LI":"南都里","LIN":"6鄰","STREET":"中華南路","SECT":"二段","MAREA":" ","LANE":"３１５巷","ALLEY":"１２弄","HOUSE_NO":"６號","E_COORD97":166447.56,"N_COORD97":2540088.73,"ADDRESS":"中華南路二段３１５巷１２弄６號","OBJECTID":64459},"geometry":{"x":166447.55999999959,"y":2540088.7300000004}},{"attributes":{"ID":64460,"DIS_CODE":0,"TOWNNAME":"南區","LI":"南都里","LIN":"6鄰","STREET":"中華南路","SECT":"二段","MAREA":" ","LANE":"３１５巷","ALLEY":"１２弄","HOUSE_NO":"８號","E_COORD97":166440.23999999999,"N_COORD97":2540089.0800000001,"ADDRESS":"中華南路二段３１５巷１２弄８號","OBJECTID":64460},"geometry":{"x":166440.24000000022,"y":2540089.0800000019}},{"attributes":{"ID":64461,"DIS_CODE":0,"TOWNNAME":"南區","LI":"新生里","LIN":"6鄰","STREET":"大同路","SECT":"二段","MAREA":" ","LANE":"１６４巷","ALLEY":"５弄","HOUSE_NO":"１號","E_COORD97":169297.38,"N_COORD97":2542008.6600000001,"ADDRESS":"大同路二段１６４巷５弄１號","OBJECTID":64461},"geometry":{"x":169297.38000000082,"y":2542008.6600000001}},{"attributes":{"ID":64462,"DIS_CODE":0,"TOWNNAME":"南區","LI":"新生里","LIN":"6鄰","STREET":"大同路","SECT":"二段","MAREA":" ","LANE":"１６４巷","ALLEY":"５弄","HOUSE_NO":"３號","E_COORD97":169298.98000000001,"N_COORD97":2542003.77,"ADDRESS":"大同路二段１６４巷５弄３號","OBJECTID":64462},"geometry":{"x":169298.98000000138,"y":2542003.7699999996}},{"attributes":{"ID":64463,"DIS_CODE":0,"TOWNNAME":"南區","LI":"新生里","LIN":"6鄰","STREET":"大同路","SECT":"二段","MAREA":" ","LANE":"１６４巷","ALLEY":"５弄","HOUSE_NO":"５號","E_COORD97":169300.76999999999,"N_COORD97":2541999.3500000001,"ADDRESS":"大同路二段１６４巷５弄５號","OBJECTID":64463},"geometry":{"x":169300.76999999955,"y":2541999.3499999996}},{"attributes":{"ID":64464,"DIS_CODE":0,"TOWNNAME":"北區","LI":"光武里","LIN":"6鄰","STREET":"北門路","SECT":"二段","MAREA":" ","LANE":"５４７巷","ALLEY":"７８弄","HOUSE_NO":"１８號","E_COORD97":169513.60999999999,"N_COORD97":2545773.8399999999,"ADDRESS":"北門路二段５４７巷７８弄１８號","OBJECTID":64464},"geometry":{"x":169513.61000000127,"y":2545773.8399999999}},{"attributes":{"ID":64465,"DIS_CODE":0,"TOWNNAME":"麻豆區","LI":"巷口里","LIN":"8鄰","STREET":"民族路","SECT":" ","MAREA":" ","LANE":" ","ALLEY":" ","HOUSE_NO":"６５號","E_COORD97":173203.03,"N_COORD97":2564291.1099999999,"ADDRESS":"民族路６５號","OBJECTID":64465},"geometry":{"x":173203.03000000119,"y":2564291.1100000013}},{"attributes":{"ID":64466,"DIS_CODE":0,"TOWNNAME":"麻豆區","LI":"\u25A0江里","LIN":"8鄰","STREET":"民權路","SECT":" ","MAREA":" ","LANE":" ","ALLEY":" ","HOUSE_NO":"７０號之２９","E_COORD97":173480.82000000001,"N_COORD97":2564240.5800000001,"ADDRESS":"民權路７０號之２９","OBJECTID":64466},"geometry":{"x":173480.82000000123,"y":2564240.5800000038}},{"attributes":{"ID":64467,"DIS_CODE":0,"TOWNNAME":"北區","LI":"光武里","LIN":"6鄰","STREET":"北門路","SECT":"二段","MAREA":" ","LANE":"５４７巷","ALLEY":"７８弄","HOUSE_NO":"３２號","E_COORD97":169520.60000000001,"N_COORD97":2545803.77,"ADDRESS":"北門路二段５４７巷７８弄３２號","OBJECTID":64467},"geometry":{"x":169520.59999999963,"y":2545803.7699999996}},{"attributes":{"ID":64468,"DIS_CODE":0,"TOWNNAME":"北區","LI":"重興里","LIN":"6鄰","STREET":"林森路","SECT":"三段","MAREA":" ","LANE":"８４巷","ALLEY":"１弄","HOUSE_NO":"９號","E_COORD97":170617.16,"N_COORD97":2544837.5299999998,"ADDRESS":"林森路三段８４巷１弄９號","OBJECTID":64468},"geometry":{"x":170617.16000000015,"y":2544837.5300000012}},{"attributes":{"ID":64469,"DIS_CODE":0,"TOWNNAME":"歸仁區","LI":"媽廟里","LIN":"6鄰","STREET":"中正北路","SECT":"三段","MAREA":" ","LANE":"２０５巷","ALLEY":"１１弄","HOUSE_NO":"２５號","E_COORD97":177548.76000000001,"N_COORD97":2543810.7200000002,"ADDRESS":"中正北路三段２０５巷１１弄２５號","OBJECTID":64469},"geometry":{"x":177548.76000000071,"y":2543810.7200000025}},{"attributes":{"ID":64470,"DIS_CODE":0,"TOWNNAME":"仁德區","LI":"田厝里","LIN":" ","STREET":"田厝二街","SECT":" ","MAREA":" ","LANE":"６４巷","ALLEY":"２７弄","HOUSE_NO":"８號","E_COORD97":172422.54999999999,"N_COORD97":2537744.5,"ADDRESS":"田厝二街６４巷２７弄８號","OBJECTID":64470},"geometry":{"x":172422.55000000075,"y":2537744.5}},{"attributes":{"ID":64471,"DIS_CODE":0,"TOWNNAME":"北區","LI":"勝安里","LIN":"6鄰","STREET":"開元路","SECT":" ","MAREA":" ","LANE":"７３巷","ALLEY":"６８弄","HOUSE_NO":"１０號","E_COORD97":169884.88,"N_COORD97":2545356.29,"ADDRESS":"開元路７３巷６８弄１０號","OBJECTID":64471},"geometry":{"x":169884.87999999989,"y":2545356.2899999991}},{"attributes":{"ID":64472,"DIS_CODE":0,"TOWNNAME":"北區","LI":"勝安里","LIN":"6鄰","STREET":"開元路","SECT":" ","MAREA":" ","LANE":"７３巷","ALLEY":"６８弄","HOUSE_NO":"１１號","E_COORD97":169903.01999999999,"N_COORD97":2545376.5499999998,"ADDRESS":"開元路７３巷６８弄１１號","OBJECTID":64472},"geometry":{"x":169903.02000000048,"y":2545376.5500000007}},{"attributes":{"ID":64473,"DIS_CODE":0,"TOWNNAME":"北區","LI":"勝安里","LIN":"6鄰","STREET":"開元路","SECT":" ","MAREA":" ","LANE":"７３巷","ALLEY":"６８弄","HOUSE_NO":"１２號","E_COORD97":169867.84,"N_COORD97":2545352.98,"ADDRESS":"開元路７３巷６８弄１２號","OBJECTID":64473},"geometry":{"x":169867.84000000078,"y":2545352.9800000004}},{"attributes":{"ID":64474,"DIS_CODE":0,"TOWNNAME":"北區","LI":"勝安里","LIN":"6鄰","STREET":"開元路","SECT":" ","MAREA":" ","LANE":"７３巷","ALLEY":"６８弄","HOUSE_NO":"１３號","E_COORD97":169904.44,"N_COORD97":2545370.5600000001,"ADDRESS":"開元路７３巷６８弄１３號","OBJECTID":64474},"geometry":{"x":169904.44000000134,"y":2545370.5600000042}},{"attributes":{"ID":64475,"DIS_CODE":0,"TOWNNAME":"安平區","LI":"港仔里","LIN":"6鄰","STREET":"安平路","SECT":" ","MAREA":" ","LANE":"７５巷","ALLEY":"３弄","HOUSE_NO":"４號","E_COORD97":164483.82000000001,"N_COORD97":2544427.9199999999,"ADDRESS":"安平路７５巷３弄４號","OBJECTID":64475},"geometry":{"x":164483.82000000216,"y":2544427.9199999981}},{"attributes":{"ID":64476,"DIS_CODE":0,"TOWNNAME":"安平區","LI":"港仔里","LIN":"6鄰","STREET":"安平路","SECT":" ","MAREA":" ","LANE":"７５巷","ALLEY":"３弄","HOUSE_NO":"５號","E_COORD97":164491.48000000001,"N_COORD97":2544438.7000000002,"ADDRESS":"安平路７５巷３弄５號","OBJECTID":64476},"geometry":{"x":164491.48000000138,"y":2544438.6999999993}},{"attributes":{"ID":64477,"DIS_CODE":0,"TOWNNAME":"安平區","LI":"港仔里","LIN":"6鄰","STREET":"安平路","SECT":" ","MAREA":" ","LANE":"７５巷","ALLEY":"３弄","HOUSE_NO":"６號","E_COORD97":164484.53,"N_COORD97":2544416.9100000001,"ADDRESS":"安平路７５巷３弄６號","OBJECTID":64477},"geometry":{"x":164484.53000000119,"y":2544416.9100000001}},{"attributes":{"ID":64478,"DIS_CODE":0,"TOWNNAME":"安平區","LI":"港仔里","LIN":"6鄰","STREET":"安平路","SECT":" ","MAREA":" ","LANE":"７５巷","ALLEY":"３弄","HOUSE_NO":"７號","E_COORD97":164496.48999999999,"N_COORD97":2544434.48,"ADDRESS":"安平路７５巷３弄７號","OBJECTID":64478},"geometry":{"x":164496.49000000115,"y":2544434.4800000004}},{"attributes":{"ID":64479,"DIS_CODE":0,"TOWNNAME":"安平區","LI":"港仔里","LIN":"6鄰","STREET":"安平路","SECT":" ","MAREA":" ","LANE":"７５巷","ALLEY":"３弄","HOUSE_NO":"９號","E_COORD97":164492.31,"N_COORD97":2544411.0299999998,"ADDRESS":"安平路７５巷３弄９號","OBJECTID":64479},"geometry":{"x":164492.31000000052,"y":2544411.0300000012}},{"attributes":{"ID":64480,"DIS_CODE":0,"TOWNNAME":"善化區","LI":"什乃里","LIN":"1鄰","STREET":" ","SECT":" ","MAREA":"什乃","LANE":" ","ALLEY":" ","HOUSE_NO":"１號之５１","E_COORD97":176234.29000000001,"N_COORD97":2560314.02,"ADDRESS":"什乃１號之５１","OBJECTID":64480},"geometry":{"x":176234.29000000004,"y":2560314.0199999996}},{"attributes":{"ID":64481,"DIS_CODE":0,"TOWNNAME":"善化區","LI":"什乃里","LIN":"1鄰","STREET":" ","SECT":" ","MAREA":"什乃","LANE":" ","ALLEY":" ","HOUSE_NO":"１號之４７","E_COORD97":176251.17999999999,"N_COORD97":2560305.27,"ADDRESS":"什乃１號之４７","OBJECTID":64481},"geometry":{"x":176251.18000000063,"y":2560305.2699999996}},{"attributes":{"ID":64482,"DIS_CODE":0,"TOWNNAME":"善化區","LI":"溪美里","LIN":"1鄰","STREET":" ","SECT":" ","MAREA":"溪尾","LANE":" ","ALLEY":" ","HOUSE_NO":"８４２號","E_COORD97":177076.57000000001,"N_COORD97":2560429.02,"ADDRESS":"溪尾８４２號","OBJECTID":64482},"geometry":{"x":177076.5700000003,"y":2560429.0199999996}},{"attributes":{"ID":64483,"DIS_CODE":0,"TOWNNAME":"善化區","LI":"牛庄里","LIN":"1鄰","STREET":" ","SECT":" ","MAREA":"牛庄","LANE":" ","ALLEY":" ","HOUSE_NO":"１１號之５","E_COORD97":180258.67999999999,"N_COORD97":2559733.52,"ADDRESS":"牛庄１１號之５","OBJECTID":64483},"geometry":{"x":180258.6799999997,"y":2559733.5199999996}},{"attributes":{"ID":64484,"DIS_CODE":0,"TOWNNAME":"大內區","LI":"頭社里","LIN":"1鄰","STREET":" ","SECT":" ","MAREA":"頭社","LANE":" ","ALLEY":" ","HOUSE_NO":"１４號","E_COORD97":186970.94,"N_COORD97":2560230.25,"ADDRESS":"頭社１４號","OBJECTID":64484},"geometry":{"x":186970.94000000041,"y":2560230.2500000019}},{"attributes":{"ID":64485,"DIS_CODE":0,"TOWNNAME":"善化區","LI":"嘉南里","LIN":"1鄰","STREET":" ","SECT":" ","MAREA":"茄拔","LANE":" ","ALLEY":" ","HOUSE_NO":"５７之２號","E_COORD97":181078.14999999999,"N_COORD97":2559506.7599999998,"ADDRESS":"茄拔５７之２號","OBJECTID":64485},"geometry":{"x":181078.1500000013,"y":2559506.7600000016}},{"attributes":{"ID":64486,"DIS_CODE":0,"TOWNNAME":"善化區","LI":"什乃里","LIN":"1鄰","STREET":" ","SECT":" ","MAREA":"什乃","LANE":" ","ALLEY":" ","HOUSE_NO":"１號之３２","E_COORD97":176265.14999999999,"N_COORD97":2560289.52,"ADDRESS":"什乃１號之３２","OBJECTID":64486},"geometry":{"x":176265.1500000013,"y":2560289.5199999996}},{"attributes":{"ID":64487,"DIS_CODE":0,"TOWNNAME":"安平區","LI":"港仔里","LIN":"6鄰","STREET":"安平路","SECT":" ","MAREA":" ","LANE":"７５巷","ALLEY":"４弄","HOUSE_NO":"２號","E_COORD97":164461.60000000001,"N_COORD97":2544439.0800000001,"ADDRESS":"安平路７５巷４弄２號","OBJECTID":64487},"geometry":{"x":164461.60000000056,"y":2544439.0800000019}},{"attributes":{"ID":64488,"DIS_CODE":0,"TOWNNAME":"南區","LI":"南華里","LIN":"6鄰","STREET":"中華南路","SECT":"二段","MAREA":" ","LANE":"４００巷","ALLEY":"２弄","HOUSE_NO":"１１號","E_COORD97":166460.97,"N_COORD97":2540333.6400000001,"ADDRESS":"中華南路二段４００巷２弄１１號","OBJECTID":64488},"geometry":{"x":166460.97000000067,"y":2540333.6400000006}},{"attributes":{"ID":64489,"DIS_CODE":0,"TOWNNAME":"南區","LI":"南華里","LIN":"6鄰","STREET":"中華南路","SECT":"二段","MAREA":" ","LANE":"４００巷","ALLEY":"２弄","HOUSE_NO":"１３號","E_COORD97":166469.29000000001,"N_COORD97":2540334.3399999999,"ADDRESS":"中華南路二段４００巷２弄１３號","OBJECTID":64489},"geometry":{"x":166469.29000000097,"y":2540334.3400000017}},{"attributes":{"ID":64490,"DIS_CODE":0,"TOWNNAME":"南區","LI":"南華里","LIN":"6鄰","STREET":"中華南路","SECT":"二段","MAREA":" ","LANE":"４００巷","ALLEY":"２弄","HOUSE_NO":"１５號","E_COORD97":166478.31,"N_COORD97":2540333.7599999998,"ADDRESS":"中華南路二段４００巷２弄１５號","OBJECTID":64490},"geometry":{"x":166478.31000000145,"y":2540333.7600000035}},{"attributes":{"ID":64491,"DIS_CODE":0,"TOWNNAME":"南區","LI":"南華里","LIN":"6鄰","STREET":"中華南路","SECT":"二段","MAREA":" ","LANE":"４００巷","ALLEY":"２弄","HOUSE_NO":"１號","E_COORD97":166418.32999999999,"N_COORD97":2540333.9900000002,"ADDRESS":"中華南路二段４００巷２弄１號","OBJECTID":64491},"geometry":{"x":166418.33000000101,"y":2540333.9900000021}},{"attributes":{"ID":64492,"DIS_CODE":0,"TOWNNAME":"南區","LI":"南華里","LIN":"6鄰","STREET":"中華南路","SECT":"二段","MAREA":" ","LANE":"４００巷","ALLEY":"２弄","HOUSE_NO":"３號","E_COORD97":166426.42000000001,"N_COORD97":2540333.9900000002,"ADDRESS":"中華南路二段４００巷２弄３號","OBJECTID":64492},"geometry":{"x":166426.41999999993,"y":2540333.9900000021}},{"attributes":{"ID":64493,"DIS_CODE":0,"TOWNNAME":"南區","LI":"南華里","LIN":"6鄰","STREET":"中華南路","SECT":"二段","MAREA":" ","LANE":"４００巷","ALLEY":"２弄","HOUSE_NO":"５號","E_COORD97":166434.14999999999,"N_COORD97":2540333.8799999999,"ADDRESS":"中華南路二段４００巷２弄５號","OBJECTID":64493},"geometry":{"x":166434.15000000037,"y":2540333.879999999}},{"attributes":{"ID":64494,"DIS_CODE":0,"TOWNNAME":"南區","LI":"南華里","LIN":"6鄰","STREET":"中華南路","SECT":"二段","MAREA":" ","LANE":"４００巷","ALLEY":"２弄","HOUSE_NO":"７號","E_COORD97":166443.39999999999,"N_COORD97":2540333.6400000001,"ADDRESS":"中華南路二段４００巷２弄７號","OBJECTID":64494},"geometry":{"x":166443.4000000013,"y":2540333.6400000006}},{"attributes":{"ID":64495,"DIS_CODE":0,"TOWNNAME":"南區","LI":"南華里","LIN":"6鄰","STREET":"中華南路","SECT":"二段","MAREA":" ","LANE":"４００巷","ALLEY":"２弄","HOUSE_NO":"９號","E_COORD97":166451.84,"N_COORD97":2540333.9900000002,"ADDRESS":"中華南路二段４００巷２弄９號","OBJECTID":64495},"geometry":{"x":166451.84000000078,"y":2540333.9900000021}},{"attributes":{"ID":64496,"DIS_CODE":0,"TOWNNAME":"北區","LI":"成德里","LIN":"6鄰","STREET":"西門路","SECT":"四段","MAREA":" ","LANE":"７巷","ALLEY":"８４弄","HOUSE_NO":"４８號","E_COORD97":168442.78,"N_COORD97":2545433.71,"ADDRESS":"西門路四段７巷８４弄４８號","OBJECTID":64496},"geometry":{"x":168442.78000000119,"y":2545433.7100000009}},{"attributes":{"ID":64497,"DIS_CODE":0,"TOWNNAME":"北區","LI":"成德里","LIN":"6鄰","STREET":"西門路","SECT":"四段","MAREA":" ","LANE":"７巷","ALLEY":"８４弄","HOUSE_NO":"５號","E_COORD97":168369.10000000001,"N_COORD97":2545378.54,"ADDRESS":"西門路四段７巷８４弄５號","OBJECTID":64497},"geometry":{"x":168369.09999999963,"y":2545378.5399999991}},{"attributes":{"ID":64498,"DIS_CODE":0,"TOWNNAME":"北區","LI":"成德里","LIN":"6鄰","STREET":"西門路","SECT":"四段","MAREA":" ","LANE":"７巷","ALLEY":"８４弄","HOUSE_NO":"７號","E_COORD97":168371.54999999999,"N_COORD97":2545382.6699999999,"ADDRESS":"西門路四段７巷８４弄７號","OBJECTID":64498},"geometry":{"x":168371.54999999981,"y":2545382.6700000037}},{"attributes":{"ID":64499,"DIS_CODE":0,"TOWNNAME":"南區","LI":"明亮里","LIN":"8鄰","STREET":"新都路","SECT":" ","MAREA":" ","LANE":" ","ALLEY":" ","HOUSE_NO":"４９０號","E_COORD97":167196.57000000001,"N_COORD97":2540886.1400000001,"ADDRESS":"新都路４９０號","OBJECTID":64499},"geometry":{"x":167196.57000000123,"y":2540886.1400000006}},{"attributes":{"ID":64500,"DIS_CODE":0,"TOWNNAME":"北區","LI":"成德里","LIN":"6鄰","STREET":"西門路","SECT":"四段","MAREA":" ","LANE":"７巷","ALLEY":"８４弄","HOUSE_NO":"８號","E_COORD97":168392.07999999999,"N_COORD97":2545362.9500000002,"ADDRESS":"西門路四段７巷８４弄８號","OBJECTID":64500},"geometry":{"x":168392.08000000007,"y":2545362.950000003}},{"attributes":{"ID":64501,"DIS_CODE":0,"TOWNNAME":"北區","LI":"成德里","LIN":"6鄰","STREET":"西門路","SECT":"四段","MAREA":" ","LANE":"７巷","ALLEY":"８４弄","HOUSE_NO":"９號","E_COORD97":168373.78,"N_COORD97":2545386.46,"ADDRESS":"西門路四段７巷８４弄９號","OBJECTID":64501},"geometry":{"x":168373.78000000026,"y":2545386.4600000028}},{"attributes":{"ID":64502,"DIS_CODE":0,"TOWNNAME":"北區","LI":"成功里","LIN":"6鄰","STREET":"北安路","SECT":"一段","MAREA":" ","LANE":"１７６巷","ALLEY":"２１弄","HOUSE_NO":"２２號","E_COORD97":168877.98000000001,"N_COORD97":2546562.96,"ADDRESS":"北安路一段１７６巷２１弄２２號","OBJECTID":64502},"geometry":{"x":168877.98000000045,"y":2546562.9600000028}},{"attributes":{"ID":64503,"DIS_CODE":0,"TOWNNAME":"安平區","LI":"平安里","LIN":"6鄰","STREET":"安平路","SECT":" ","MAREA":" ","LANE":"３７０巷","ALLEY":"１弄","HOUSE_NO":"１０之１號","E_COORD97":165443.07999999999,"N_COORD97":2544353.5299999998,"ADDRESS":"安平路３７０巷１弄１０之１號","OBJECTID":64503},"geometry":{"x":165443.08000000101,"y":2544353.5300000012}},{"attributes":{"ID":64504,"DIS_CODE":0,"TOWNNAME":"安平區","LI":"平安里","LIN":"6鄰","STREET":"安平路","SECT":" ","MAREA":" ","LANE":"３７０巷","ALLEY":"１弄","HOUSE_NO":"１１號","E_COORD97":165431.54999999999,"N_COORD97":2544352.0800000001,"ADDRESS":"安平路３７０巷１弄１１號","OBJECTID":64504},"geometry":{"x":165431.55000000075,"y":2544352.0800000001}},{"attributes":{"ID":64505,"DIS_CODE":0,"TOWNNAME":"安平區","LI":"平安里","LIN":"6鄰","STREET":"安平路","SECT":" ","MAREA":" ","LANE":"３７０巷","ALLEY":"１弄","HOUSE_NO":"１２號","E_COORD97":165422.09,"N_COORD97":2544352.1299999999,"ADDRESS":"安平路３７０巷１弄１２號","OBJECTID":64505},"geometry":{"x":165422.08999999985,"y":2544352.1300000008}},{"attributes":{"ID":64506,"DIS_CODE":0,"TOWNNAME":"安平區","LI":"平安里","LIN":"6鄰","STREET":"安平路","SECT":" ","MAREA":" ","LANE":"３７０巷","ALLEY":"１弄","HOUSE_NO":"７號","E_COORD97":165476.88,"N_COORD97":2544355.5299999998,"ADDRESS":"安平路３７０巷１弄７號","OBJECTID":64506},"geometry":{"x":165476.88000000082,"y":2544355.5300000031}},{"attributes":{"ID":64507,"DIS_CODE":0,"TOWNNAME":"安平區","LI":"平安里","LIN":"6鄰","STREET":"安平路","SECT":" ","MAREA":" ","LANE":"３７０巷","ALLEY":"１弄","HOUSE_NO":"８號","E_COORD97":165465.56,"N_COORD97":2544353.6600000001,"ADDRESS":"安平路３７０巷１弄８號","OBJECTID":64507},"geometry":{"x":165465.55999999959,"y":2544353.660000002}},{"attributes":{"ID":64508,"DIS_CODE":0,"TOWNNAME":"安平區","LI":"平安里","LIN":"6鄰","STREET":"安平路","SECT":" ","MAREA":" ","LANE":"３７０巷","ALLEY":"１弄","HOUSE_NO":"９號","E_COORD97":165454.89000000001,"N_COORD97":2544353.46,"ADDRESS":"安平路３７０巷１弄９號","OBJECTID":64508},"geometry":{"x":165454.88999999966,"y":2544353.4600000009}},{"attributes":{"ID":64509,"DIS_CODE":0,"TOWNNAME":"安平區","LI":"石門里","LIN":"6鄰","STREET":"安北路","SECT":" ","MAREA":" ","LANE":"４０巷","ALLEY":"１７弄","HOUSE_NO":"１２號","E_COORD97":164613.98000000001,"N_COORD97":2544650.3700000001,"ADDRESS":"安北路４０巷１７弄１２號","OBJECTID":64509},"geometry":{"x":164613.98000000138,"y":2544650.3700000029}},{"attributes":{"ID":64510,"DIS_CODE":0,"TOWNNAME":"安平區","LI":"石門里","LIN":"6鄰","STREET":"安北路","SECT":" ","MAREA":" ","LANE":"４０巷","ALLEY":"１７弄","HOUSE_NO":"１３號","E_COORD97":164569.09,"N_COORD97":2544657.8399999999,"ADDRESS":"安北路４０巷１７弄１３號","OBJECTID":64510},"geometry":{"x":164569.08999999985,"y":2544657.8399999999}},{"attributes":{"ID":64511,"DIS_CODE":0,"TOWNNAME":"安平區","LI":"石門里","LIN":"6鄰","STREET":"安北路","SECT":" ","MAREA":" ","LANE":"４０巷","ALLEY":"１７弄","HOUSE_NO":"１３號之２","E_COORD97":164574.76999999999,"N_COORD97":2544652.1800000002,"ADDRESS":"安北路４０巷１７弄１３號之２","OBJECTID":64511},"geometry":{"x":164574.77000000142,"y":2544652.1799999997}},{"attributes":{"ID":64512,"DIS_CODE":0,"TOWNNAME":"安平區","LI":"石門里","LIN":"6鄰","STREET":"安北路","SECT":" ","MAREA":" ","LANE":"４０巷","ALLEY":"１７弄","HOUSE_NO":"１４號","E_COORD97":164612.95999999999,"N_COORD97":2544652.1600000001,"ADDRESS":"安北路４０巷１７弄１４號","OBJECTID":64512},"geometry":{"x":164612.96000000183,"y":2544652.160000002}},{"attributes":{"ID":64513,"DIS_CODE":0,"TOWNNAME":"安平區","LI":"石門里","LIN":"6鄰","STREET":"安北路","SECT":" ","MAREA":" ","LANE":"４０巷","ALLEY":"１７弄","HOUSE_NO":"１５號","E_COORD97":164565.22,"N_COORD97":2544659.8999999999,"ADDRESS":"安北路４０巷１７弄１５號","OBJECTID":64513},"geometry":{"x":164565.2200000016,"y":2544659.9000000022}},{"attributes":{"ID":64514,"DIS_CODE":0,"TOWNNAME":"善化區","LI":"嘉北里","LIN":"1鄰","STREET":" ","SECT":" ","MAREA":"茄拔","LANE":" ","ALLEY":" ","HOUSE_NO":"６號之９","E_COORD97":181236.79999999999,"N_COORD97":2560009.27,"ADDRESS":"茄拔６號之９","OBJECTID":64514},"geometry":{"x":181236.79999999888,"y":2560009.2700000014}},{"attributes":{"ID":64515,"DIS_CODE":0,"TOWNNAME":"安平區","LI":"石門里","LIN":"6鄰","STREET":"安北路","SECT":" ","MAREA":" ","LANE":"４０巷","ALLEY":"１７弄","HOUSE_NO":"１６號","E_COORD97":164608.56,"N_COORD97":2544654.2400000002,"ADDRESS":"安北路４０巷１７弄１６號","OBJECTID":64515},"geometry":{"x":164608.56000000145,"y":2544654.2400000021}},{"attributes":{"ID":64516,"DIS_CODE":0,"TOWNNAME":"安平區","LI":"石門里","LIN":"6鄰","STREET":"安北路","SECT":" ","MAREA":" ","LANE":"４０巷","ALLEY":"１７弄","HOUSE_NO":"１７號","E_COORD97":164562.64000000001,"N_COORD97":2544663.5099999998,"ADDRESS":"安北路４０巷１７弄１７號","OBJECTID":64516},"geometry":{"x":164562.6400000006,"y":2544663.5099999998}},{"attributes":{"ID":64517,"DIS_CODE":0,"TOWNNAME":"安平區","LI":"石門里","LIN":"6鄰","STREET":"安北路","SECT":" ","MAREA":" ","LANE":"４０巷","ALLEY":"１７弄","HOUSE_NO":"１８號","E_COORD97":164605.20999999999,"N_COORD97":2544656.8100000001,"ADDRESS":"安北路４０巷１７弄１８號","OBJECTID":64517},"geometry":{"x":164605.21000000089,"y":2544656.8100000042}},{"attributes":{"ID":64518,"DIS_CODE":0,"TOWNNAME":"安平區","LI":"石門里","LIN":"6鄰","STREET":"安北路","SECT":" ","MAREA":" ","LANE":"４０巷","ALLEY":"１７弄","HOUSE_NO":"１９號","E_COORD97":164558.76999999999,"N_COORD97":2544667.8900000001,"ADDRESS":"安北路４０巷１７弄１９號","OBJECTID":64518},"geometry":{"x":164558.76999999955,"y":2544667.8900000025}},{"attributes":{"ID":64519,"DIS_CODE":0,"TOWNNAME":"安平區","LI":"石門里","LIN":"6鄰","STREET":"安北路","SECT":" ","MAREA":" ","LANE":"４０巷","ALLEY":"１７弄","HOUSE_NO":"２０號","E_COORD97":164602.10999999999,"N_COORD97":2544659.6499999999,"ADDRESS":"安北路４０巷１７弄２０號","OBJECTID":64519},"geometry":{"x":164602.1100000022,"y":2544659.6500000004}},{"attributes":{"ID":64520,"DIS_CODE":0,"TOWNNAME":"安平區","LI":"石門里","LIN":"6鄰","STREET":"安北路","SECT":" ","MAREA":" ","LANE":"４０巷","ALLEY":"１７弄","HOUSE_NO":"２１號","E_COORD97":164554.89999999999,"N_COORD97":2544669.6899999999,"ADDRESS":"安北路４０巷１７弄２１號","OBJECTID":64520},"geometry":{"x":164554.9000000013,"y":2544669.6899999995}},{"attributes":{"ID":64521,"DIS_CODE":0,"TOWNNAME":"安平區","LI":"石門里","LIN":"6鄰","STREET":"安北路","SECT":" ","MAREA":" ","LANE":"４０巷","ALLEY":"１７弄","HOUSE_NO":"２２號之２","E_COORD97":164587.94,"N_COORD97":2544671.0299999998,"ADDRESS":"安北路４０巷１７弄２２號之２","OBJECTID":64521},"geometry":{"x":164587.94000000041,"y":2544671.0300000031}},{"attributes":{"ID":64522,"DIS_CODE":0,"TOWNNAME":"安平區","LI":"石門里","LIN":"6鄰","STREET":"安北路","SECT":" ","MAREA":" ","LANE":"４０巷","ALLEY":"１７弄","HOUSE_NO":"２２號之４","E_COORD97":164603.88,"N_COORD97":2544681.1899999999,"ADDRESS":"安北路４０巷１７弄２２號之４","OBJECTID":64522},"geometry":{"x":164603.88000000082,"y":2544681.1900000013}},{"attributes":{"ID":64523,"DIS_CODE":0,"TOWNNAME":"安平區","LI":"石門里","LIN":"6鄰","STREET":"安北路","SECT":" ","MAREA":" ","LANE":"４０巷","ALLEY":"１７弄","HOUSE_NO":"２２號之５","E_COORD97":164607.70000000001,"N_COORD97":2544696.5,"ADDRESS":"安北路４０巷１７弄２２號之５","OBJECTID":64523},"geometry":{"x":164607.70000000019,"y":2544696.5000000019}},{"attributes":{"ID":64524,"DIS_CODE":0,"TOWNNAME":"安平區","LI":"石門里","LIN":"6鄰","STREET":"安北路","SECT":" ","MAREA":" ","LANE":"４０巷","ALLEY":"１７弄","HOUSE_NO":"２２號之６","E_COORD97":164596.98999999999,"N_COORD97":2544700.6499999999,"ADDRESS":"安北路４０巷１７弄２２號之６","OBJECTID":64524},"geometry":{"x":164596.99000000022,"y":2544700.6500000004}},{"attributes":{"ID":64525,"DIS_CODE":0,"TOWNNAME":"安平區","LI":"石門里","LIN":"6鄰","STREET":"安北路","SECT":" ","MAREA":" ","LANE":"４０巷","ALLEY":"１７弄","HOUSE_NO":"２２號之７","E_COORD97":164616.09,"N_COORD97":2544686.04,"ADDRESS":"安北路４０巷１７弄２２號之７","OBJECTID":64525},"geometry":{"x":164616.09000000078,"y":2544686.0399999991}},{"attributes":{"ID":64526,"DIS_CODE":0,"TOWNNAME":"安平區","LI":"石門里","LIN":"6鄰","STREET":"安北路","SECT":" ","MAREA":" ","LANE":"４０巷","ALLEY":"１７弄","HOUSE_NO":"２３號","E_COORD97":164552.32000000001,"N_COORD97":2544673.04,"ADDRESS":"安北路４０巷１７弄２３號","OBJECTID":64526},"geometry":{"x":164552.32000000123,"y":2544673.0399999991}},{"attributes":{"ID":64527,"DIS_CODE":0,"TOWNNAME":"安平區","LI":"石門里","LIN":"6鄰","STREET":"安北路","SECT":" ","MAREA":" ","LANE":"４０巷","ALLEY":"１７弄","HOUSE_NO":"２５號","E_COORD97":164549.23000000001,"N_COORD97":2544675.3599999999,"ADDRESS":"安北路４０巷１７弄２５號","OBJECTID":64527},"geometry":{"x":164549.23000000138,"y":2544675.3599999975}},{"attributes":{"ID":64528,"DIS_CODE":0,"TOWNNAME":"安平區","LI":"石門里","LIN":"6鄰","STREET":"安北路","SECT":" ","MAREA":" ","LANE":"４０巷","ALLEY":"１７弄","HOUSE_NO":"２９號","E_COORD97":164546.10999999999,"N_COORD97":2544683.4399999999,"ADDRESS":"安北路４０巷１７弄２９號","OBJECTID":64528},"geometry":{"x":164546.1099999994,"y":2544683.4400000013}},{"attributes":{"ID":64529,"DIS_CODE":0,"TOWNNAME":"善化區","LI":"溪美里","LIN":"1鄰","STREET":" ","SECT":" ","MAREA":"溪尾","LANE":" ","ALLEY":" ","HOUSE_NO":"６８１號之１０","E_COORD97":177116.32000000001,"N_COORD97":2560822.77,"ADDRESS":"溪尾６８１號之１０","OBJECTID":64529},"geometry":{"x":177116.32000000216,"y":2560822.7700000014}},{"attributes":{"ID":64530,"DIS_CODE":0,"TOWNNAME":"安平區","LI":"石門里","LIN":"6鄰","STREET":"安北路","SECT":" ","MAREA":" ","LANE":"４０巷","ALLEY":"１７弄","HOUSE_NO":"３０號","E_COORD97":164567.81,"N_COORD97":2544687.7799999998,"ADDRESS":"安北路４０巷１７弄３０號","OBJECTID":64530},"geometry":{"x":164567.81000000145,"y":2544687.7800000012}},{"attributes":{"ID":64531,"DIS_CODE":0,"TOWNNAME":"安平區","LI":"石門里","LIN":"6鄰","STREET":"安北路","SECT":" ","MAREA":" ","LANE":"４０巷","ALLEY":"１７弄","HOUSE_NO":"３０號之１","E_COORD97":164576.5,"N_COORD97":2544695.1499999999,"ADDRESS":"安北路４０巷１７弄３０號之１","OBJECTID":64531},"geometry":{"x":164576.5,"y":2544695.1500000041}},{"attributes":{"ID":64532,"DIS_CODE":0,"TOWNNAME":"安平區","LI":"石門里","LIN":"6鄰","STREET":"安北路","SECT":" ","MAREA":" ","LANE":"４０巷","ALLEY":"１７弄","HOUSE_NO":"３０號之３","E_COORD97":164579.12,"N_COORD97":2544698.52,"ADDRESS":"安北路４０巷１７弄３０號之３","OBJECTID":64532},"geometry":{"x":164579.12000000011,"y":2544698.5200000033}},{"attributes":{"ID":64533,"DIS_CODE":0,"TOWNNAME":"安平區","LI":"石門里","LIN":"6鄰","STREET":"安北路","SECT":" ","MAREA":" ","LANE":"４０巷","ALLEY":"１７弄","HOUSE_NO":"３０號之５","E_COORD97":164580.98999999999,"N_COORD97":2544701.1299999999,"ADDRESS":"安北路４０巷１７弄３０號之５","OBJECTID":64533},"geometry":{"x":164580.99000000115,"y":2544701.1300000008}},{"attributes":{"ID":64534,"DIS_CODE":0,"TOWNNAME":"安平區","LI":"石門里","LIN":"6鄰","STREET":"安北路","SECT":" ","MAREA":" ","LANE":"４０巷","ALLEY":"１７弄","HOUSE_NO":"３２號","E_COORD97":164564.53,"N_COORD97":2544689.9199999999,"ADDRESS":"安北路４０巷１７弄３２號","OBJECTID":64534},"geometry":{"x":164564.53000000026,"y":2544689.9200000018}},{"attributes":{"ID":64535,"DIS_CODE":0,"TOWNNAME":"安平區","LI":"石門里","LIN":"6鄰","STREET":"安北路","SECT":" ","MAREA":" ","LANE":"４０巷","ALLEY":"１７弄","HOUSE_NO":"３４號","E_COORD97":164563.39999999999,"N_COORD97":2544691.79,"ADDRESS":"安北路４０巷１７弄３４號","OBJECTID":64535},"geometry":{"x":164563.4000000013,"y":2544691.7899999991}},{"attributes":{"ID":64536,"DIS_CODE":0,"TOWNNAME":"安平區","LI":"石門里","LIN":"6鄰","STREET":"安北路","SECT":" ","MAREA":" ","LANE":"４０巷","ALLEY":"１７弄","HOUSE_NO":"４８號","E_COORD97":164538.64999999999,"N_COORD97":2544713.6099999999,"ADDRESS":"安北路４０巷１７弄４８號","OBJECTID":64536},"geometry":{"x":164538.65000000037,"y":2544713.6099999994}},{"attributes":{"ID":64537,"DIS_CODE":0,"TOWNNAME":"安平區","LI":"石門里","LIN":"6鄰","STREET":"安北路","SECT":" ","MAREA":" ","LANE":"４０巷","ALLEY":"１７弄","HOUSE_NO":"４８號之１","E_COORD97":164534.38,"N_COORD97":2544716.7999999998,"ADDRESS":"安北路４０巷１７弄４８號之１","OBJECTID":64537},"geometry":{"x":164534.38000000082,"y":2544716.8000000007}},{"attributes":{"ID":64538,"DIS_CODE":0,"TOWNNAME":"安平區","LI":"石門里","LIN":"6鄰","STREET":"安北路","SECT":" ","MAREA":" ","LANE":"４０巷","ALLEY":"１７弄","HOUSE_NO":"４８號之２","E_COORD97":164531.17999999999,"N_COORD97":2544719.29,"ADDRESS":"安北路４０巷１７弄４８號之２","OBJECTID":64538},"geometry":{"x":164531.1799999997,"y":2544719.2899999991}},{"attributes":{"ID":64539,"DIS_CODE":0,"TOWNNAME":"安平區","LI":"石門里","LIN":"6鄰","STREET":"安北路","SECT":" ","MAREA":" ","LANE":"４０巷","ALLEY":"１７弄","HOUSE_NO":"４９號","E_COORD97":164523.35999999999,"N_COORD97":2544704.3799999999,"ADDRESS":"安北路４０巷１７弄４９號","OBJECTID":64539},"geometry":{"x":164523.36000000034,"y":2544704.379999999}},{"attributes":{"ID":64540,"DIS_CODE":0,"TOWNNAME":"安平區","LI":"石門里","LIN":"6鄰","STREET":"安北路","SECT":" ","MAREA":" ","LANE":"４０巷","ALLEY":"１７弄","HOUSE_NO":"５０號","E_COORD97":164525.5,"N_COORD97":2544726.7400000002,"ADDRESS":"安北路４０巷１７弄５０號","OBJECTID":64540},"geometry":{"x":164525.5,"y":2544726.7400000002}},{"attributes":{"ID":64541,"DIS_CODE":0,"TOWNNAME":"安平區","LI":"石門里","LIN":"6鄰","STREET":"安北路","SECT":" ","MAREA":" ","LANE":"４０巷","ALLEY":"１７弄","HOUSE_NO":"５１號","E_COORD97":164520.16,"N_COORD97":2544708.2799999998,"ADDRESS":"安北路４０巷１７弄５１號","OBJECTID":64541},"geometry":{"x":164520.15999999922,"y":2544708.2799999993}},{"attributes":{"ID":64542,"DIS_CODE":0,"TOWNNAME":"安平區","LI":"石門里","LIN":"6鄰","STREET":"安北路","SECT":" ","MAREA":" ","LANE":"４０巷","ALLEY":"１７弄","HOUSE_NO":"５３號","E_COORD97":164515.54000000001,"N_COORD97":2544712.1899999999,"ADDRESS":"安北路４０巷１７弄５３號","OBJECTID":64542},"geometry":{"x":164515.54000000004,"y":2544712.1900000013}},{"attributes":{"ID":64543,"DIS_CODE":0,"TOWNNAME":"歸仁區","LI":"七甲里","LIN":"6鄰","STREET":"七甲三街","SECT":" ","MAREA":" ","LANE":"１５巷","ALLEY":"３２弄","HOUSE_NO":"５號","E_COORD97":177535.34,"N_COORD97":2542950.2599999998,"ADDRESS":"七甲三街１５巷３２弄５號","OBJECTID":64543},"geometry":{"x":177535.33999999985,"y":2542950.2599999998}},{"attributes":{"ID":64544,"DIS_CODE":0,"TOWNNAME":"安平區","LI":"國平里","LIN":"6鄰","STREET":"文平路","SECT":" ","MAREA":" ","LANE":"１８７巷","ALLEY":"８８弄","HOUSE_NO":"１之１７號","E_COORD97":165473.28,"N_COORD97":2543108.9399999999,"ADDRESS":"文平路１８７巷８８弄１之１７號","OBJECTID":64544},"geometry":{"x":165473.28000000026,"y":2543108.9400000032}},{"attributes":{"ID":64545,"DIS_CODE":0,"TOWNNAME":"麻豆區","LI":"安西里","LIN":"1鄰","STREET":" ","SECT":" ","MAREA":"東溪洲","LANE":" ","ALLEY":" ","HOUSE_NO":"５號","E_COORD97":172445.26000000001,"N_COORD97":2561447.9199999999,"ADDRESS":"東溪洲５號","OBJECTID":64545},"geometry":{"x":172445.25999999978,"y":2561447.9200000037}},{"attributes":{"ID":64546,"DIS_CODE":0,"TOWNNAME":"北區","LI":"成功里","LIN":"6鄰","STREET":"北安路","SECT":"一段","MAREA":" ","LANE":"１７６巷","ALLEY":"１１弄","HOUSE_NO":"２號","E_COORD97":168914.66,"N_COORD97":2546514.6800000002,"ADDRESS":"北安路一段１７６巷１１弄２號","OBJECTID":64546},"geometry":{"x":168914.66000000108,"y":2546514.6800000034}},{"attributes":{"ID":64547,"DIS_CODE":0,"TOWNNAME":"北區","LI":"成功里","LIN":"6鄰","STREET":"北安路","SECT":"一段","MAREA":" ","LANE":"１７６巷","ALLEY":"１１弄","HOUSE_NO":"１號","E_COORD97":168907.04000000001,"N_COORD97":2546502.6099999999,"ADDRESS":"北安路一段１７６巷１１弄１號","OBJECTID":64547},"geometry":{"x":168907.04000000097,"y":2546502.6100000013}},{"attributes":{"ID":64548,"DIS_CODE":0,"TOWNNAME":"新化區","LI":"大坑里","LIN":"8鄰","STREET":" ","SECT":" ","MAREA":"大坑尾","LANE":" ","ALLEY":" ","HOUSE_NO":"１９７號","E_COORD97":186710.03,"N_COORD97":2545384.25,"ADDRESS":"大坑尾１９７號","OBJECTID":64548},"geometry":{"x":186710.03000000119,"y":2545384.25}},{"attributes":{"ID":64549,"DIS_CODE":0,"TOWNNAME":"北區","LI":"成功里","LIN":"6鄰","STREET":"北安路","SECT":"一段","MAREA":" ","LANE":"１７６巷","ALLEY":"１１弄","HOUSE_NO":"３號","E_COORD97":168902.76000000001,"N_COORD97":2546505.3100000001,"ADDRESS":"北安路一段１７６巷１１弄３號","OBJECTID":64549},"geometry":{"x":168902.75999999978,"y":2546505.3100000024}},{"attributes":{"ID":64550,"DIS_CODE":0,"TOWNNAME":"新化區","LI":"大坑里","LIN":"8鄰","STREET":" ","SECT":" ","MAREA":"大坑尾","LANE":" ","ALLEY":" ","HOUSE_NO":"２１０號","E_COORD97":185862.73000000001,"N_COORD97":2545396.25,"ADDRESS":"大坑尾２１０號","OBJECTID":64550},"geometry":{"x":185862.73000000138,"y":2545396.2500000019}},{"attributes":{"ID":64551,"DIS_CODE":0,"TOWNNAME":"北區","LI":"成功里","LIN":"6鄰","STREET":"北安路","SECT":"一段","MAREA":" ","LANE":"１７６巷","ALLEY":"１１弄","HOUSE_NO":"５號","E_COORD97":168898.14999999999,"N_COORD97":2546508.48,"ADDRESS":"北安路一段１７６巷１１弄５號","OBJECTID":64551},"geometry":{"x":168898.1500000013,"y":2546508.4800000004}},{"attributes":{"ID":64552,"DIS_CODE":0,"TOWNNAME":"北區","LI":"成功里","LIN":"6鄰","STREET":"北安路","SECT":"一段","MAREA":" ","LANE":"１７６巷","ALLEY":"１１弄","HOUSE_NO":"６號","E_COORD97":168910.70000000001,"N_COORD97":2546517.3700000001,"ADDRESS":"北安路一段１７６巷１１弄６號","OBJECTID":64552},"geometry":{"x":168910.70000000112,"y":2546517.370000001}},{"attributes":{"ID":64553,"DIS_CODE":0,"TOWNNAME":"善化區","LI":"六分里","LIN":"1鄰","STREET":" ","SECT":" ","MAREA":"六分寮","LANE":" ","ALLEY":" ","HOUSE_NO":"１３號","E_COORD97":178322.63,"N_COORD97":2561291,"ADDRESS":"六分寮１３號","OBJECTID":64553},"geometry":{"x":178322.63000000082,"y":2561291}},{"attributes":{"ID":64554,"DIS_CODE":0,"TOWNNAME":"善化區","LI":"六分里","LIN":"1鄰","STREET":" ","SECT":" ","MAREA":"六分寮","LANE":" ","ALLEY":" ","HOUSE_NO":"１２之８號","E_COORD97":178287.14000000001,"N_COORD97":2561315.52,"ADDRESS":"六分寮１２之８號","OBJECTID":64554},"geometry":{"x":178287.1400000006,"y":2561315.5200000014}},{"attributes":{"ID":64555,"DIS_CODE":0,"TOWNNAME":"新營區","LI":"新南里","LIN":"6鄰","STREET":"秦漢街","SECT":" ","MAREA":" ","LANE":"１２０巷","ALLEY":"３６弄","HOUSE_NO":"２１號","E_COORD97":178288.54000000001,"N_COORD97":2578968.5099999998,"ADDRESS":"秦漢街１２０巷３６弄２１號","OBJECTID":64555},"geometry":{"x":178288.54000000004,"y":2578968.5100000035}},{"attributes":{"ID":64556,"DIS_CODE":0,"TOWNNAME":"善化區","LI":"什乃里","LIN":"1鄰","STREET":" ","SECT":" ","MAREA":"什乃","LANE":" ","ALLEY":" ","HOUSE_NO":"１號之４３","E_COORD97":176261.16,"N_COORD97":2560327.77,"ADDRESS":"什乃１號之４３","OBJECTID":64556},"geometry":{"x":176261.16000000201,"y":2560327.7700000014}},{"attributes":{"ID":64557,"DIS_CODE":0,"TOWNNAME":"新營區","LI":"新南里","LIN":"6鄰","STREET":"秦漢街","SECT":" ","MAREA":" ","LANE":"１２０巷","ALLEY":"３６弄","HOUSE_NO":"３１號","E_COORD97":178290.73999999999,"N_COORD97":2578995.0800000001,"ADDRESS":"秦漢街１２０巷３６弄３１號","OBJECTID":64557},"geometry":{"x":178290.74000000022,"y":2578995.0800000001}},{"attributes":{"ID":64558,"DIS_CODE":0,"TOWNNAME":"永康區","LI":"埔園里","LIN":"6鄰","STREET":"自強路","SECT":" ","MAREA":" ","LANE":"４６８巷","ALLEY":"２２弄","HOUSE_NO":"６號","E_COORD97":173799.75,"N_COORD97":2547917.5600000001,"ADDRESS":"自強路４６８巷２２弄６號","OBJECTID":64558},"geometry":{"x":173799.75000000093,"y":2547917.5600000024}},{"attributes":{"ID":64559,"DIS_CODE":0,"TOWNNAME":"永康區","LI":"新樹里","LIN":"6鄰","STREET":"西勢路","SECT":" ","MAREA":" ","LANE":"１７４巷","ALLEY":"５弄","HOUSE_NO":"２號","E_COORD97":175874.98000000001,"N_COORD97":2546805.8199999998,"ADDRESS":"西勢路１７４巷５弄２號","OBJECTID":64559},"geometry":{"x":175874.98000000138,"y":2546805.820000004}},{"attributes":{"ID":64560,"DIS_CODE":0,"TOWNNAME":"麻豆區","LI":"\u25A0江里","LIN":"8鄰","STREET":"民權路","SECT":" ","MAREA":" ","LANE":" ","ALLEY":" ","HOUSE_NO":"７０號之３０","E_COORD97":173463.60000000001,"N_COORD97":2564272.3500000001,"ADDRESS":"民權路７０號之３０","OBJECTID":64560},"geometry":{"x":173463.59999999963,"y":2564272.3500000034}},{"attributes":{"ID":64561,"DIS_CODE":0,"TOWNNAME":"東區","LI":"自強里","LIN":"6鄰","STREET":"東門路","SECT":"三段","MAREA":" ","LANE":"３７巷","ALLEY":"６３弄","HOUSE_NO":"２１號","E_COORD97":171173.34,"N_COORD97":2542364.98,"ADDRESS":"東門路三段３７巷６３弄２１號","OBJECTID":64561},"geometry":{"x":171173.33999999985,"y":2542364.9800000023}},{"attributes":{"ID":64562,"DIS_CODE":0,"TOWNNAME":"東區","LI":"自強里","LIN":"6鄰","STREET":"東門路","SECT":"三段","MAREA":" ","LANE":"３７巷","ALLEY":"６３弄","HOUSE_NO":"５號","E_COORD97":171216.19,"N_COORD97":2542364.9700000002,"ADDRESS":"東門路三段３７巷６３弄５號","OBJECTID":64562},"geometry":{"x":171216.18999999948,"y":2542364.9700000025}},{"attributes":{"ID":64563,"DIS_CODE":0,"TOWNNAME":"西港區","LI":"西港里","LIN":"8鄰","STREET":" ","SECT":" ","MAREA":"西港","LANE":" ","ALLEY":" ","HOUSE_NO":"２６號之１０","E_COORD97":168575.76000000001,"N_COORD97":2558083.4100000001,"ADDRESS":"西港２６號之１０","OBJECTID":64563},"geometry":{"x":168575.76000000164,"y":2558083.4100000001}},{"attributes":{"ID":64564,"DIS_CODE":0,"TOWNNAME":"西港區","LI":"西港里","LIN":"8鄰","STREET":" ","SECT":" ","MAREA":"西港","LANE":" ","ALLEY":" ","HOUSE_NO":"２６號之１１","E_COORD97":168573.78,"N_COORD97":2558087.1299999999,"ADDRESS":"西港２６號之１１","OBJECTID":64564},"geometry":{"x":168573.78000000026,"y":2558087.1300000008}},{"attributes":{"ID":64565,"DIS_CODE":0,"TOWNNAME":"西港區","LI":"西港里","LIN":"8鄰","STREET":" ","SECT":" ","MAREA":"西港","LANE":" ","ALLEY":" ","HOUSE_NO":"２６號之１２","E_COORD97":168568.57999999999,"N_COORD97":2558098.3999999999,"ADDRESS":"西港２６號之１２","OBJECTID":64565},"geometry":{"x":168568.58000000007,"y":2558098.4000000004}},{"attributes":{"ID":64566,"DIS_CODE":0,"TOWNNAME":"西港區","LI":"西港里","LIN":"8鄰","STREET":" ","SECT":" ","MAREA":"西港","LANE":" ","ALLEY":" ","HOUSE_NO":"２６號之１３","E_COORD97":168573.32999999999,"N_COORD97":2558101.3900000001,"ADDRESS":"西港２６號之１３","OBJECTID":64566},"geometry":{"x":168573.33000000007,"y":2558101.3900000006}},{"attributes":{"ID":64567,"DIS_CODE":0,"TOWNNAME":"西港區","LI":"西港里","LIN":"8鄰","STREET":" ","SECT":" ","MAREA":"西港","LANE":" ","ALLEY":" ","HOUSE_NO":"２６號之１４","E_COORD97":168577.66,"N_COORD97":2558104.1600000001,"ADDRESS":"西港２６號之１４","OBJECTID":64567},"geometry":{"x":168577.66000000108,"y":2558104.160000002}},{"attributes":{"ID":64568,"DIS_CODE":0,"TOWNNAME":"西港區","LI":"西港里","LIN":"8鄰","STREET":" ","SECT":" ","MAREA":"西港","LANE":" ","ALLEY":" ","HOUSE_NO":"２６號之１５","E_COORD97":168582.64000000001,"N_COORD97":2558106.3700000001,"ADDRESS":"西港２６號之１５","OBJECTID":64568},"geometry":{"x":168582.63999999966,"y":2558106.3700000048}},{"attributes":{"ID":64569,"DIS_CODE":0,"TOWNNAME":"西港區","LI":"西港里","LIN":"8鄰","STREET":" ","SECT":" ","MAREA":"西港","LANE":" ","ALLEY":" ","HOUSE_NO":"２６號之１６","E_COORD97":168586.82999999999,"N_COORD97":2558109.2599999998,"ADDRESS":"西港２６號之１６","OBJECTID":64569},"geometry":{"x":168586.83000000007,"y":2558109.2600000035}},{"attributes":{"ID":64570,"DIS_CODE":0,"TOWNNAME":"西港區","LI":"西港里","LIN":"8鄰","STREET":" ","SECT":" ","MAREA":"西港","LANE":" ","ALLEY":" ","HOUSE_NO":"２６號之１７","E_COORD97":168593.92999999999,"N_COORD97":2558112.0099999998,"ADDRESS":"西港２６號之１７","OBJECTID":64570},"geometry":{"x":168593.93000000063,"y":2558112.0100000016}},{"attributes":{"ID":64571,"DIS_CODE":0,"TOWNNAME":"西港區","LI":"西港里","LIN":"8鄰","STREET":" ","SECT":" ","MAREA":"西港","LANE":" ","ALLEY":" ","HOUSE_NO":"２６號之１８","E_COORD97":168599.10000000001,"N_COORD97":2558114.3500000001,"ADDRESS":"西港２６號之１８","OBJECTID":64571},"geometry":{"x":168599.10000000056,"y":2558114.3499999996}},{"attributes":{"ID":64572,"DIS_CODE":0,"TOWNNAME":"東區","LI":"自強里","LIN":"6鄰","STREET":"東門路","SECT":"三段","MAREA":" ","LANE":"３７巷","ALLEY":"６３弄","HOUSE_NO":"１號","E_COORD97":171227.57999999999,"N_COORD97":2542365.7599999998,"ADDRESS":"東門路三段３７巷６３弄１號","OBJECTID":64572},"geometry":{"x":171227.58000000101,"y":2542365.7600000016}},{"attributes":{"ID":64573,"DIS_CODE":0,"TOWNNAME":"西港區","LI":"西港里","LIN":"8鄰","STREET":" ","SECT":" ","MAREA":"西港","LANE":" ","ALLEY":" ","HOUSE_NO":"２６號之１９","E_COORD97":168593.79999999999,"N_COORD97":2558095.1600000001,"ADDRESS":"西港２６號之１９","OBJECTID":64573},"geometry":{"x":168593.79999999981,"y":2558095.1600000001}},{"attributes":{"ID":64574,"DIS_CODE":0,"TOWNNAME":"西港區","LI":"西港里","LIN":"8鄰","STREET":" ","SECT":" ","MAREA":"西港","LANE":" ","ALLEY":" ","HOUSE_NO":"２６號之１","E_COORD97":168525.20999999999,"N_COORD97":2558064.3900000001,"ADDRESS":"西港２６號之１","OBJECTID":64574},"geometry":{"x":168525.20999999996,"y":2558064.3900000006}},{"attributes":{"ID":64575,"DIS_CODE":0,"TOWNNAME":"西港區","LI":"西港里","LIN":"8鄰","STREET":" ","SECT":" ","MAREA":"西港","LANE":" ","ALLEY":" ","HOUSE_NO":"２６號之２０","E_COORD97":168594.60000000001,"N_COORD97":2558091.1600000001,"ADDRESS":"西港２６號之２０","OBJECTID":64575},"geometry":{"x":168594.59999999963,"y":2558091.160000002}},{"attributes":{"ID":64576,"DIS_CODE":0,"TOWNNAME":"西港區","LI":"西港里","LIN":"8鄰","STREET":" ","SECT":" ","MAREA":"西港","LANE":" ","ALLEY":" ","HOUSE_NO":"２６號之２１","E_COORD97":168595.22,"N_COORD97":2558087.1099999999,"ADDRESS":"西港２６號之２１","OBJECTID":64576},"geometry":{"x":168595.22000000067,"y":2558087.1100000013}},{"attributes":{"ID":64577,"DIS_CODE":0,"TOWNNAME":"西港區","LI":"西港里","LIN":"8鄰","STREET":" ","SECT":" ","MAREA":"西港","LANE":" ","ALLEY":" ","HOUSE_NO":"２６號之２２","E_COORD97":168596.10000000001,"N_COORD97":2558083.1000000001,"ADDRESS":"西港２６號之２２","OBJECTID":64577},"geometry":{"x":168596.10000000056,"y":2558083.1000000034}},{"attributes":{"ID":64578,"DIS_CODE":0,"TOWNNAME":"西港區","LI":"西港里","LIN":"8鄰","STREET":" ","SECT":" ","MAREA":"西港","LANE":" ","ALLEY":" ","HOUSE_NO":"２６號之２","E_COORD97":168538.76999999999,"N_COORD97":2558084.2000000002,"ADDRESS":"西港２６號之２","OBJECTID":64578},"geometry":{"x":168538.77000000048,"y":2558084.1999999993}},{"attributes":{"ID":64579,"DIS_CODE":0,"TOWNNAME":"西港區","LI":"西港里","LIN":"8鄰","STREET":" ","SECT":" ","MAREA":"西港","LANE":" ","ALLEY":" ","HOUSE_NO":"２６號之９","E_COORD97":168577.76000000001,"N_COORD97":2558079.9399999999,"ADDRESS":"西港２６號之９","OBJECTID":64579},"geometry":{"x":168577.76000000071,"y":2558079.9399999995}},{"attributes":{"ID":64580,"DIS_CODE":0,"TOWNNAME":"西港區","LI":"西港里","LIN":"8鄰","STREET":" ","SECT":" ","MAREA":"西港","LANE":" ","ALLEY":" ","HOUSE_NO":"２６號","E_COORD97":168531.45000000001,"N_COORD97":2558050.23,"ADDRESS":"西港２６號","OBJECTID":64580},"geometry":{"x":168531.45000000112,"y":2558050.2300000023}},{"attributes":{"ID":64581,"DIS_CODE":0,"TOWNNAME":"西港區","LI":"南海里","LIN":"8鄰","STREET":" ","SECT":" ","MAREA":"南海埔","LANE":" ","ALLEY":" ","HOUSE_NO":"６５號","E_COORD97":167548.25,"N_COORD97":2557434.1800000002,"ADDRESS":"南海埔６５號","OBJECTID":64581},"geometry":{"x":167548.25,"y":2557434.1799999997}},{"attributes":{"ID":64582,"DIS_CODE":0,"TOWNNAME":"西港區","LI":"南海里","LIN":"8鄰","STREET":" ","SECT":" ","MAREA":"南海埔","LANE":" ","ALLEY":" ","HOUSE_NO":"６９號","E_COORD97":167584.75,"N_COORD97":2557438.4199999999,"ADDRESS":"南海埔６９號","OBJECTID":64582},"geometry":{"x":167584.75000000093,"y":2557438.4200000018}},{"attributes":{"ID":64583,"DIS_CODE":0,"TOWNNAME":"西港區","LI":"南海里","LIN":"8鄰","STREET":" ","SECT":" ","MAREA":"南海埔","LANE":" ","ALLEY":" ","HOUSE_NO":"７０號之１","E_COORD97":167632.51000000001,"N_COORD97":2557447.8799999999,"ADDRESS":"南海埔７０號之１","OBJECTID":64583},"geometry":{"x":167632.50999999978,"y":2557447.8800000008}},{"attributes":{"ID":64584,"DIS_CODE":0,"TOWNNAME":"西港區","LI":"南海里","LIN":"8鄰","STREET":" ","SECT":" ","MAREA":"南海埔","LANE":" ","ALLEY":" ","HOUSE_NO":"７０號","E_COORD97":167612.20000000001,"N_COORD97":2557448.4900000002,"ADDRESS":"南海埔７０號","OBJECTID":64584},"geometry":{"x":167612.20000000112,"y":2557448.4900000021}},{"attributes":{"ID":64585,"DIS_CODE":0,"TOWNNAME":"西港區","LI":"南海里","LIN":"8鄰","STREET":" ","SECT":" ","MAREA":"南海埔","LANE":" ","ALLEY":" ","HOUSE_NO":"７１號","E_COORD97":167627.14000000001,"N_COORD97":2557483.8700000001,"ADDRESS":"南海埔７１號","OBJECTID":64585},"geometry":{"x":167627.14000000153,"y":2557483.8700000029}},{"attributes":{"ID":64586,"DIS_CODE":0,"TOWNNAME":"善化區","LI":"牛庄里","LIN":"1鄰","STREET":" ","SECT":" ","MAREA":"牛庄","LANE":" ","ALLEY":" ","HOUSE_NO":"１６之７號","E_COORD97":180252.81,"N_COORD97":2559689.02,"ADDRESS":"牛庄１６之７號","OBJECTID":64586},"geometry":{"x":180252.80999999959,"y":2559689.0199999996}},{"attributes":{"ID":64587,"DIS_CODE":0,"TOWNNAME":"善化區","LI":"什乃里","LIN":"1鄰","STREET":" ","SECT":" ","MAREA":"什乃","LANE":" ","ALLEY":" ","HOUSE_NO":"１３號","E_COORD97":176211.17999999999,"N_COORD97":2560487.25,"ADDRESS":"什乃１３號","OBJECTID":64587},"geometry":{"x":176211.1799999997,"y":2560487.2500000019}},{"attributes":{"ID":64588,"DIS_CODE":0,"TOWNNAME":"善化區","LI":"六分里","LIN":"1鄰","STREET":" ","SECT":" ","MAREA":"六分寮","LANE":" ","ALLEY":" ","HOUSE_NO":"１號之１","E_COORD97":178310.26000000001,"N_COORD97":2561219.02,"ADDRESS":"六分寮１號之１","OBJECTID":64588},"geometry":{"x":178310.26000000071,"y":2561219.0199999996}},{"attributes":{"ID":64589,"DIS_CODE":0,"TOWNNAME":"善化區","LI":"牛庄里","LIN":"1鄰","STREET":" ","SECT":" ","MAREA":"牛庄","LANE":" ","ALLEY":" ","HOUSE_NO":"５號之５","E_COORD97":180206.60999999999,"N_COORD97":2559726.52,"ADDRESS":"牛庄５號之５","OBJECTID":64589},"geometry":{"x":180206.61000000127,"y":2559726.5199999996}},{"attributes":{"ID":64590,"DIS_CODE":0,"TOWNNAME":"善化區","LI":"什乃里","LIN":"1鄰","STREET":" ","SECT":" ","MAREA":"什乃","LANE":" ","ALLEY":" ","HOUSE_NO":"１４之１號","E_COORD97":176195.85000000001,"N_COORD97":2560506.77,"ADDRESS":"什乃１４之１號","OBJECTID":64590},"geometry":{"x":176195.84999999963,"y":2560506.7700000014}},{"attributes":{"ID":64591,"DIS_CODE":0,"TOWNNAME":"善化區","LI":"牛庄里","LIN":"1鄰","STREET":" ","SECT":" ","MAREA":"牛庄","LANE":" ","ALLEY":" ","HOUSE_NO":"１１之１號","E_COORD97":180229.16,"N_COORD97":2559734.52,"ADDRESS":"牛庄１１之１號","OBJECTID":64591},"geometry":{"x":180229.16000000015,"y":2559734.5200000033}},{"attributes":{"ID":64592,"DIS_CODE":0,"TOWNNAME":"東區","LI":"自強里","LIN":"6鄰","STREET":"東門路","SECT":"三段","MAREA":" ","LANE":"３７巷","ALLEY":"６３弄","HOUSE_NO":"２號","E_COORD97":171226.63,"N_COORD97":2542374.29,"ADDRESS":"東門路三段３７巷６３弄２號","OBJECTID":64592},"geometry":{"x":171226.63000000082,"y":2542374.290000001}},{"attributes":{"ID":64593,"DIS_CODE":0,"TOWNNAME":"東區","LI":"自強里","LIN":"6鄰","STREET":"東門路","SECT":"三段","MAREA":" ","LANE":"３７巷","ALLEY":"６３弄","HOUSE_NO":"４號","E_COORD97":171221.57000000001,"N_COORD97":2542373.98,"ADDRESS":"東門路三段３７巷６３弄４號","OBJECTID":64593},"geometry":{"x":171221.5700000003,"y":2542373.9800000042}},{"attributes":{"ID":64594,"DIS_CODE":0,"TOWNNAME":"東區","LI":"自強里","LIN":"6鄰","STREET":"東門路","SECT":"三段","MAREA":" ","LANE":"３７巷","ALLEY":"６３弄","HOUSE_NO":"１９號","E_COORD97":171178.56,"N_COORD97":2542364.98,"ADDRESS":"東門路三段３７巷６３弄１９號","OBJECTID":64594},"geometry":{"x":171178.55999999959,"y":2542364.9800000023}},{"attributes":{"ID":64595,"DIS_CODE":0,"TOWNNAME":"東區","LI":"自強里","LIN":"6鄰","STREET":"東門路","SECT":"三段","MAREA":" ","LANE":"３７巷","ALLEY":"６３弄","HOUSE_NO":"３０號","E_COORD97":171151.35999999999,"N_COORD97":2542373.98,"ADDRESS":"東門路三段３７巷６３弄３０號","OBJECTID":64595},"geometry":{"x":171151.36000000127,"y":2542373.9800000042}},{"attributes":{"ID":64596,"DIS_CODE":0,"TOWNNAME":"永康區","LI":"\u25A0行里","LIN":"6鄰","STREET":"新行街","SECT":" ","MAREA":" ","LANE":"７９巷","ALLEY":"３弄","HOUSE_NO":"１５號","E_COORD97":172242.85999999999,"N_COORD97":2548858.4900000002,"ADDRESS":"新行街７９巷３弄１５號","OBJECTID":64596},"geometry":{"x":172242.86000000127,"y":2548858.4900000002}},{"attributes":{"ID":64597,"DIS_CODE":0,"TOWNNAME":"永康區","LI":"\u25A0行里","LIN":"6鄰","STREET":"新行街","SECT":" ","MAREA":" ","LANE":"７９巷","ALLEY":"３弄","HOUSE_NO":"１６號","E_COORD97":172238.01999999999,"N_COORD97":2548867.8799999999,"ADDRESS":"新行街７９巷３弄１６號","OBJECTID":64597},"geometry":{"x":172238.01999999955,"y":2548867.879999999}},{"attributes":{"ID":64598,"DIS_CODE":0,"TOWNNAME":"永康區","LI":"新樹里","LIN":"6鄰","STREET":"西勢路","SECT":" ","MAREA":" ","LANE":"１７４巷","ALLEY":"５弄","HOUSE_NO":"４號","E_COORD97":175869.82999999999,"N_COORD97":2546806.3900000001,"ADDRESS":"西勢路１７４巷５弄４號","OBJECTID":64598},"geometry":{"x":175869.83000000007,"y":2546806.3900000025}},{"attributes":{"ID":64599,"DIS_CODE":0,"TOWNNAME":"永康區","LI":"新樹里","LIN":"6鄰","STREET":"西勢路","SECT":" ","MAREA":" ","LANE":"１７４巷","ALLEY":"７弄","HOUSE_NO":"１２號","E_COORD97":175872.87,"N_COORD97":2546845.9500000002,"ADDRESS":"西勢路１７４巷７弄１２號","OBJECTID":64599},"geometry":{"x":175872.87000000011,"y":2546845.9500000011}},{"attributes":{"ID":64600,"DIS_CODE":0,"TOWNNAME":"永康區","LI":"新樹里","LIN":"6鄰","STREET":"西勢路","SECT":" ","MAREA":" ","LANE":"１７４巷","ALLEY":"７弄","HOUSE_NO":"２號","E_COORD97":175893.73999999999,"N_COORD97":2546846.4500000002,"ADDRESS":"西勢路１７４巷７弄２號","OBJECTID":64600},"geometry":{"x":175893.74000000022,"y":2546846.4499999993}}]}