{"displayFieldName":"TOWNNAME","fieldAliases":{"ID":"ID","DIS_CODE":"DIS_CODE","TOWNNAME":"TOWNNAME","LI":"LI","LIN":"LIN","STREET":"STREET","SECT":"SECT","MAREA":"MAREA","LANE":"LANE","ALLEY":"ALLEY","HOUSE_NO":"HOUSE_NO","E_COORD97":"E_COORD97","N_COORD97":"N_COORD97","ADDRESS":"ADDRESS","OBJECTID":"OBJECTID"},"geometryType":"esriGeometryPoint","spatialReference":{"wkid":102443,"latestWkid":3826},"fields":[{"name":"ID","type":"esriFieldTypeDouble","alias":"ID"},{"name":"DIS_CODE","type":"esriFieldTypeInteger","alias":"DIS_CODE"},{"name":"TOWNNAME","type":"esriFieldTypeString","alias":"TOWNNAME","length":8},{"name":"LI","type":"esriFieldTypeString","alias":"LI","length":8},{"name":"LIN","type":"esriFieldTypeString","alias":"LIN","length":12},{"name":"STREET","type":"esriFieldTypeString","alias":"STREET","length":20},{"name":"SECT","type":"esriFieldTypeString","alias":"SECT","length":8},{"name":"MAREA","type":"esriFieldTypeString","alias":"MAREA","length":12},{"name":"LANE","type":"esriFieldTypeString","alias":"LANE","length":10},{"name":"ALLEY","type":"esriFieldTypeString","alias":"ALLEY","length":10},{"name":"HOUSE_NO","type":"esriFieldTypeString","alias":"HOUSE_NO","length":20},{"name":"E_COORD97","type":"esriFieldTypeDouble","alias":"E_COORD97"},{"name":"N_COORD97","type":"esriFieldTypeDouble","alias":"N_COORD97"},{"name":"ADDRESS","type":"esriFieldTypeString","alias":"ADDRESS","length":50},{"name":"OBJECTID","type":"esriFieldTypeOID","alias":"OBJECTID"}],"features":[{"attributes":{"ID":607228,"DIS_CODE":0,"TOWNNAME":"柳營區","LI":"人和里","LIN":"3鄰","STREET":"界和路","SECT":" ","MAREA":" ","LANE":" ","ALLEY":" ","HOUSE_NO":"３７２號","E_COORD97":178465.89999999999,"N_COORD97":2575985.96,"ADDRESS":"界和路３７２號","OBJECTID":607201},"geometry":{"x":178465.9000000013,"y":2575985.9600000009}},{"attributes":{"ID":607229,"DIS_CODE":0,"TOWNNAME":"柳營區","LI":"人和里","LIN":"3鄰","STREET":"界和路","SECT":" ","MAREA":" ","LANE":" ","ALLEY":" ","HOUSE_NO":"３８０號","E_COORD97":178474.63,"N_COORD97":2575966.98,"ADDRESS":"界和路３８０號","OBJECTID":607202},"geometry":{"x":178474.62999999989,"y":2575966.9800000023}},{"attributes":{"ID":607230,"DIS_CODE":0,"TOWNNAME":"柳營區","LI":"人和里","LIN":"3鄰","STREET":"界和路","SECT":" ","MAREA":" ","LANE":" ","ALLEY":" ","HOUSE_NO":"３８２號","E_COORD97":178470.17000000001,"N_COORD97":2575967.3700000001,"ADDRESS":"界和路３８２號","OBJECTID":607203},"geometry":{"x":178470.17000000086,"y":2575967.3700000029}},{"attributes":{"ID":607231,"DIS_CODE":0,"TOWNNAME":"柳營區","LI":"人和里","LIN":"3鄰","STREET":"界和路","SECT":" ","MAREA":" ","LANE":" ","ALLEY":" ","HOUSE_NO":"３８６號","E_COORD97":178464.25,"N_COORD97":2575968.0800000001,"ADDRESS":"界和路３８６號","OBJECTID":607204},"geometry":{"x":178464.25000000093,"y":2575968.0800000038}},{"attributes":{"ID":607232,"DIS_CODE":0,"TOWNNAME":"柳營區","LI":"人和里","LIN":"3鄰","STREET":"界和路","SECT":" ","MAREA":" ","LANE":" ","ALLEY":" ","HOUSE_NO":"３８８號","E_COORD97":178459.97,"N_COORD97":2575968.29,"ADDRESS":"界和路３８８號","OBJECTID":607205},"geometry":{"x":178459.96999999974,"y":2575968.2899999991}},{"attributes":{"ID":607233,"DIS_CODE":0,"TOWNNAME":"柳營區","LI":"人和里","LIN":"3鄰","STREET":"界和路","SECT":" ","MAREA":" ","LANE":" ","ALLEY":" ","HOUSE_NO":"３９８號","E_COORD97":178486.82000000001,"N_COORD97":2575927.23,"ADDRESS":"界和路３９８號","OBJECTID":607206},"geometry":{"x":178486.82000000123,"y":2575927.2300000023}},{"attributes":{"ID":607234,"DIS_CODE":0,"TOWNNAME":"柳營區","LI":"人和里","LIN":"3鄰","STREET":"界和路","SECT":" ","MAREA":" ","LANE":" ","ALLEY":" ","HOUSE_NO":"４０８號","E_COORD97":178503.09,"N_COORD97":2575905.6499999999,"ADDRESS":"界和路４０８號","OBJECTID":607207},"geometry":{"x":178503.09000000078,"y":2575905.6500000004}},{"attributes":{"ID":607235,"DIS_CODE":0,"TOWNNAME":"柳營區","LI":"人和里","LIN":"3鄰","STREET":"界和路","SECT":" ","MAREA":" ","LANE":" ","ALLEY":" ","HOUSE_NO":"４１０號","E_COORD97":178506.03,"N_COORD97":2575898.79,"ADDRESS":"界和路４１０號","OBJECTID":607208},"geometry":{"x":178506.03000000026,"y":2575898.790000001}},{"attributes":{"ID":607236,"DIS_CODE":0,"TOWNNAME":"柳營區","LI":"人和里","LIN":"3鄰","STREET":"界和路","SECT":" ","MAREA":" ","LANE":" ","ALLEY":" ","HOUSE_NO":"４１８號","E_COORD97":178495.12,"N_COORD97":2575899.6200000001,"ADDRESS":"界和路４１８號","OBJECTID":607209},"geometry":{"x":178495.12000000011,"y":2575899.620000001}},{"attributes":{"ID":607237,"DIS_CODE":0,"TOWNNAME":"柳營區","LI":"人和里","LIN":"3鄰","STREET":"界和路","SECT":" ","MAREA":" ","LANE":" ","ALLEY":" ","HOUSE_NO":"４６０號","E_COORD97":178570.06,"N_COORD97":2575879.8300000001,"ADDRESS":"界和路４６０號","OBJECTID":607210},"geometry":{"x":178570.06000000145,"y":2575879.8300000001}},{"attributes":{"ID":607238,"DIS_CODE":0,"TOWNNAME":"仁德區","LI":"仁德里","LIN":"4鄰","STREET":"仁中三街","SECT":" ","MAREA":" ","LANE":" ","ALLEY":" ","HOUSE_NO":"６０號","E_COORD97":173310.73000000001,"N_COORD97":2540429.75,"ADDRESS":"仁中三街６０號","OBJECTID":607211},"geometry":{"x":173310.73000000045,"y":2540429.7500000019}},{"attributes":{"ID":607239,"DIS_CODE":0,"TOWNNAME":"柳營區","LI":"大農里","LIN":"3鄰","STREET":"義士路","SECT":"一段","MAREA":" ","LANE":" ","ALLEY":" ","HOUSE_NO":"４０８號","E_COORD97":186116.12,"N_COORD97":2575737.1299999999,"ADDRESS":"義士路一段４０８號","OBJECTID":607212},"geometry":{"x":186116.12000000104,"y":2575737.1300000008}},{"attributes":{"ID":607240,"DIS_CODE":0,"TOWNNAME":"柳營區","LI":"大農里","LIN":"3鄰","STREET":"義士路","SECT":"一段","MAREA":" ","LANE":" ","ALLEY":" ","HOUSE_NO":"４２０號","E_COORD97":186099.67000000001,"N_COORD97":2575731.29,"ADDRESS":"義士路一段４２０號","OBJECTID":607213},"geometry":{"x":186099.67000000179,"y":2575731.2899999972}},{"attributes":{"ID":607241,"DIS_CODE":0,"TOWNNAME":"柳營區","LI":"大農里","LIN":"3鄰","STREET":"義士路","SECT":"一段","MAREA":" ","LANE":" ","ALLEY":" ","HOUSE_NO":"４３０號","E_COORD97":186079.17999999999,"N_COORD97":2575719.1400000001,"ADDRESS":"義士路一段４３０號","OBJECTID":607214},"geometry":{"x":186079.18000000156,"y":2575719.1400000006}},{"attributes":{"ID":607242,"DIS_CODE":0,"TOWNNAME":"北區","LI":"光武里","LIN":"3鄰","STREET":"長榮路","SECT":"五段","MAREA":" ","LANE":" ","ALLEY":" ","HOUSE_NO":"３４７號","E_COORD97":169644.72,"N_COORD97":2545912.1499999999,"ADDRESS":"長榮路五段３４７號","OBJECTID":607215},"geometry":{"x":169644.72000000067,"y":2545912.1500000041}},{"attributes":{"ID":607243,"DIS_CODE":0,"TOWNNAME":"北區","LI":"光武里","LIN":"3鄰","STREET":"長榮路","SECT":"五段","MAREA":" ","LANE":" ","ALLEY":" ","HOUSE_NO":"３４９號","E_COORD97":169640.92000000001,"N_COORD97":2545913.0899999999,"ADDRESS":"長榮路五段３４９號","OBJECTID":607216},"geometry":{"x":169640.91999999993,"y":2545913.0900000017}},{"attributes":{"ID":607244,"DIS_CODE":0,"TOWNNAME":"歸仁區","LI":"六甲里","LIN":"3鄰","STREET":"中正南路","SECT":"一段","MAREA":" ","LANE":" ","ALLEY":" ","HOUSE_NO":"６５１號","E_COORD97":176623.934871,"N_COORD97":2539834.0926600001,"ADDRESS":"中正南路一段６５１號","OBJECTID":607217},"geometry":{"x":176623.93487100024,"y":2539834.0926639996}},{"attributes":{"ID":607245,"DIS_CODE":0,"TOWNNAME":"歸仁區","LI":"大潭里","LIN":"3鄰","STREET":"長榮路","SECT":"一段","MAREA":" ","LANE":" ","ALLEY":" ","HOUSE_NO":"３１５號","E_COORD97":175352.26999999999,"N_COORD97":2534511.2799999998,"ADDRESS":"長榮路一段３１５號","OBJECTID":607218},"geometry":{"x":175352.26999999955,"y":2534511.2799999993}},{"attributes":{"ID":607246,"DIS_CODE":0,"TOWNNAME":"歸仁區","LI":"大潭里","LIN":"3鄰","STREET":"大潭一街","SECT":" ","MAREA":" ","LANE":" ","ALLEY":" ","HOUSE_NO":"９３號","E_COORD97":175303.76999999999,"N_COORD97":2534556.25,"ADDRESS":"大潭一街９３號","OBJECTID":607219},"geometry":{"x":175303.77000000142,"y":2534556.25}},{"attributes":{"ID":607247,"DIS_CODE":0,"TOWNNAME":"仁德區","LI":"保安里","LIN":"10鄰","STREET":"中正路","SECT":"一段","MAREA":" ","LANE":" ","ALLEY":" ","HOUSE_NO":"２８９號","E_COORD97":171963.16,"N_COORD97":2536089.0299999998,"ADDRESS":"中正路一段２８９號","OBJECTID":607220},"geometry":{"x":171963.16000000015,"y":2536089.0299999993}},{"attributes":{"ID":607248,"DIS_CODE":0,"TOWNNAME":"歸仁區","LI":"大潭里","LIN":"3鄰","STREET":"長榮路","SECT":"一段","MAREA":" ","LANE":" ","ALLEY":" ","HOUSE_NO":"３０９號","E_COORD97":175338.97,"N_COORD97":2534515.2799999998,"ADDRESS":"長榮路一段３０９號","OBJECTID":607221},"geometry":{"x":175338.96999999974,"y":2534515.2800000031}},{"attributes":{"ID":607249,"DIS_CODE":0,"TOWNNAME":"歸仁區","LI":"大潭里","LIN":"3鄰","STREET":"長榮路","SECT":"一段","MAREA":" ","LANE":" ","ALLEY":" ","HOUSE_NO":"３０３號","E_COORD97":175328.67000000001,"N_COORD97":2534522.2799999998,"ADDRESS":"長榮路一段３０３號","OBJECTID":607222},"geometry":{"x":175328.67000000086,"y":2534522.2800000012}},{"attributes":{"ID":607250,"DIS_CODE":0,"TOWNNAME":"歸仁區","LI":"大廟里","LIN":"3鄰","STREET":"大廟三街","SECT":" ","MAREA":" ","LANE":" ","ALLEY":" ","HOUSE_NO":"１０９號","E_COORD97":176307.51999999999,"N_COORD97":2543817.25,"ADDRESS":"大廟三街１０９號","OBJECTID":607223},"geometry":{"x":176307.52000000048,"y":2543817.2500000019}},{"attributes":{"ID":607251,"DIS_CODE":0,"TOWNNAME":"歸仁區","LI":"大廟里","LIN":"3鄰","STREET":"大廟三街","SECT":" ","MAREA":" ","LANE":" ","ALLEY":" ","HOUSE_NO":"１１１號","E_COORD97":176302.22,"N_COORD97":2543793.25,"ADDRESS":"大廟三街１１１號","OBJECTID":607224},"geometry":{"x":176302.21999999974,"y":2543793.2500000019}},{"attributes":{"ID":607252,"DIS_CODE":0,"TOWNNAME":"歸仁區","LI":"大潭里","LIN":"3鄰","STREET":"長榮路","SECT":"一段","MAREA":" ","LANE":" ","ALLEY":" ","HOUSE_NO":"２９７之１號","E_COORD97":175320.87,"N_COORD97":2534509.2999999998,"ADDRESS":"長榮路一段２９７之１號","OBJECTID":607225},"geometry":{"x":175320.87000000104,"y":2534509.3000000007}},{"attributes":{"ID":607253,"DIS_CODE":0,"TOWNNAME":"歸仁區","LI":"大潭里","LIN":"3鄰","STREET":"大潭一街","SECT":" ","MAREA":" ","LANE":" ","ALLEY":" ","HOUSE_NO":"６９號","E_COORD97":175293.76999999999,"N_COORD97":2534597.25,"ADDRESS":"大潭一街６９號","OBJECTID":607226},"geometry":{"x":175293.77000000048,"y":2534597.2500000037}},{"attributes":{"ID":607254,"DIS_CODE":0,"TOWNNAME":"歸仁區","LI":"大廟里","LIN":"3鄰","STREET":"大廟二街","SECT":" ","MAREA":" ","LANE":" ","ALLEY":" ","HOUSE_NO":"８９號","E_COORD97":176032.97,"N_COORD97":2543910.25,"ADDRESS":"大廟二街８９號","OBJECTID":607227},"geometry":{"x":176032.96999999974,"y":2543910.25}},{"attributes":{"ID":607255,"DIS_CODE":0,"TOWNNAME":"仁德區","LI":"後壁里","LIN":"24鄰","STREET":"德洋路","SECT":" ","MAREA":" ","LANE":" ","ALLEY":" ","HOUSE_NO":"５號","E_COORD97":173198.79999999999,"N_COORD97":2538978.0299999998,"ADDRESS":"德洋路５號","OBJECTID":607228},"geometry":{"x":173198.80000000075,"y":2538978.0299999993}},{"attributes":{"ID":607256,"DIS_CODE":0,"TOWNNAME":"仁德區","LI":"新田里","LIN":"9鄰","STREET":"中正路","SECT":"二段","MAREA":" ","LANE":" ","ALLEY":" ","HOUSE_NO":"５０８號","E_COORD97":173368.97347999999,"N_COORD97":2539501.4301499999,"ADDRESS":"中正路二段５０８號","OBJECTID":607229},"geometry":{"x":173368.97348000016,"y":2539501.4301500022}},{"attributes":{"ID":607257,"DIS_CODE":0,"TOWNNAME":"仁德區","LI":"後壁里","LIN":"37鄰","STREET":"德洋一街","SECT":" ","MAREA":" ","LANE":" ","ALLEY":" ","HOUSE_NO":"７９號","E_COORD97":173168.81,"N_COORD97":2539250.2599999998,"ADDRESS":"德洋一街７９號","OBJECTID":607230},"geometry":{"x":173168.80999999959,"y":2539250.2600000016}},{"attributes":{"ID":607258,"DIS_CODE":0,"TOWNNAME":"仁德區","LI":"後壁里","LIN":"16鄰","STREET":"德善路","SECT":" ","MAREA":" ","LANE":" ","ALLEY":" ","HOUSE_NO":"６０號","E_COORD97":173368.67999999999,"N_COORD97":2538877.02,"ADDRESS":"德善路６０號","OBJECTID":607231},"geometry":{"x":173368.68000000063,"y":2538877.0200000033}},{"attributes":{"ID":607259,"DIS_CODE":0,"TOWNNAME":"歸仁區","LI":"大廟里","LIN":"3鄰","STREET":"大廟二街","SECT":" ","MAREA":" ","LANE":" ","ALLEY":" ","HOUSE_NO":"８７號","E_COORD97":176032.97,"N_COORD97":2543915.25,"ADDRESS":"大廟二街８７號","OBJECTID":607232},"geometry":{"x":176032.96999999974,"y":2543915.2500000019}},{"attributes":{"ID":607260,"DIS_CODE":0,"TOWNNAME":"歸仁區","LI":"八甲里","LIN":"3鄰","STREET":"大光街","SECT":" ","MAREA":" ","LANE":" ","ALLEY":" ","HOUSE_NO":"７４號","E_COORD97":177987.07000000001,"N_COORD97":2541742.6099999999,"ADDRESS":"大光街７４號","OBJECTID":607233},"geometry":{"x":177987.0700000003,"y":2541742.6100000013}},{"attributes":{"ID":607261,"DIS_CODE":0,"TOWNNAME":"歸仁區","LI":"大廟里","LIN":"3鄰","STREET":"大廟三街","SECT":" ","MAREA":" ","LANE":" ","ALLEY":" ","HOUSE_NO":"１０３號","E_COORD97":176297.42000000001,"N_COORD97":2543846.25,"ADDRESS":"大廟三街１０３號","OBJECTID":607234},"geometry":{"x":176297.41999999993,"y":2543846.2500000037}},{"attributes":{"ID":607262,"DIS_CODE":0,"TOWNNAME":"歸仁區","LI":"西埔里","LIN":"3鄰","STREET":"保大路","SECT":"二段","MAREA":" ","LANE":" ","ALLEY":" ","HOUSE_NO":"１２５號","E_COORD97":176977.67000000001,"N_COORD97":2544125.2799999998,"ADDRESS":"保大路二段１２５號","OBJECTID":607235},"geometry":{"x":176977.66999999993,"y":2544125.2799999993}},{"attributes":{"ID":607263,"DIS_CODE":0,"TOWNNAME":"歸仁區","LI":"大潭里","LIN":"3鄰","STREET":"大潭一街","SECT":" ","MAREA":" ","LANE":" ","ALLEY":" ","HOUSE_NO":"５３號","E_COORD97":175279.67000000001,"N_COORD97":2534648.25,"ADDRESS":"大潭一街５３號","OBJECTID":607236},"geometry":{"x":175279.67000000086,"y":2534648.2500000037}},{"attributes":{"ID":607264,"DIS_CODE":0,"TOWNNAME":"歸仁區","LI":"文化里","LIN":"3鄰","STREET":"文化街","SECT":"二段","MAREA":" ","LANE":" ","ALLEY":" ","HOUSE_NO":"８０號","E_COORD97":177329.01000000001,"N_COORD97":2541155.3399999999,"ADDRESS":"文化街二段８０號","OBJECTID":607237},"geometry":{"x":177329.00999999978,"y":2541155.3399999999}},{"attributes":{"ID":607265,"DIS_CODE":0,"TOWNNAME":"歸仁區","LI":"大廟里","LIN":"3鄰","STREET":"大廟二街","SECT":" ","MAREA":" ","LANE":" ","ALLEY":" ","HOUSE_NO":"１２１號","E_COORD97":176050.32000000001,"N_COORD97":2543843.25,"ADDRESS":"大廟二街１２１號","OBJECTID":607238},"geometry":{"x":176050.32000000123,"y":2543843.2500000019}},{"attributes":{"ID":607266,"DIS_CODE":0,"TOWNNAME":"歸仁區","LI":"六甲里","LIN":"3鄰","STREET":"中正南路","SECT":"一段","MAREA":" ","LANE":" ","ALLEY":" ","HOUSE_NO":"６５７號","E_COORD97":176613.977102,"N_COORD97":2539827.6897499999,"ADDRESS":"中正南路一段６５７號","OBJECTID":607239},"geometry":{"x":176613.97710200027,"y":2539827.6897500027}},{"attributes":{"ID":607267,"DIS_CODE":0,"TOWNNAME":"歸仁區","LI":"西埔里","LIN":"3鄰","STREET":"保大路","SECT":"二段","MAREA":" ","LANE":" ","ALLEY":" ","HOUSE_NO":"１３９號","E_COORD97":176946.97,"N_COORD97":2544124.2799999998,"ADDRESS":"保大路二段１３９號","OBJECTID":607240},"geometry":{"x":176946.9700000016,"y":2544124.2800000012}},{"attributes":{"ID":607268,"DIS_CODE":0,"TOWNNAME":"歸仁區","LI":"大潭里","LIN":"3鄰","STREET":"長榮路","SECT":"一段","MAREA":" ","LANE":" ","ALLEY":" ","HOUSE_NO":"２９９號","E_COORD97":175320.47,"N_COORD97":2534526.2799999998,"ADDRESS":"長榮路一段２９９號","OBJECTID":607241},"geometry":{"x":175320.46999999974,"y":2534526.2800000012}},{"attributes":{"ID":607269,"DIS_CODE":0,"TOWNNAME":"歸仁區","LI":"西埔里","LIN":"3鄰","STREET":"保大路","SECT":"二段","MAREA":" ","LANE":" ","ALLEY":" ","HOUSE_NO":"１２７號","E_COORD97":176973.57000000001,"N_COORD97":2544124.2799999998,"ADDRESS":"保大路二段１２７號","OBJECTID":607242},"geometry":{"x":176973.5700000003,"y":2544124.2800000012}},{"attributes":{"ID":607270,"DIS_CODE":0,"TOWNNAME":"歸仁區","LI":"大廟里","LIN":"3鄰","STREET":"大廟二街","SECT":" ","MAREA":" ","LANE":" ","ALLEY":" ","HOUSE_NO":"８１號","E_COORD97":176034.07000000001,"N_COORD97":2543927.25,"ADDRESS":"大廟二街８１號","OBJECTID":607243},"geometry":{"x":176034.0700000003,"y":2543927.25}},{"attributes":{"ID":607271,"DIS_CODE":0,"TOWNNAME":"仁德區","LI":"後壁里","LIN":"37鄰","STREET":"德洋一街","SECT":" ","MAREA":" ","LANE":" ","ALLEY":" ","HOUSE_NO":"６９號","E_COORD97":173159.29000000001,"N_COORD97":2539226.0099999998,"ADDRESS":"德洋一街６９號","OBJECTID":607244},"geometry":{"x":173159.29000000004,"y":2539226.0099999998}},{"attributes":{"ID":607272,"DIS_CODE":0,"TOWNNAME":"仁德區","LI":"後壁里","LIN":"37鄰","STREET":"德洋一街","SECT":" ","MAREA":" ","LANE":" ","ALLEY":" ","HOUSE_NO":"５５號","E_COORD97":173141.54000000001,"N_COORD97":2539201.52,"ADDRESS":"德洋一街５５號","OBJECTID":607245},"geometry":{"x":173141.54000000097,"y":2539201.5199999996}},{"attributes":{"ID":607273,"DIS_CODE":0,"TOWNNAME":"仁德區","LI":"新田里","LIN":"11鄰","STREET":"北保路","SECT":" ","MAREA":" ","LANE":" ","ALLEY":" ","HOUSE_NO":"７９號","E_COORD97":173221.92000000001,"N_COORD97":2539574.5,"ADDRESS":"北保路７９號","OBJECTID":607246},"geometry":{"x":173221.92000000086,"y":2539574.5}},{"attributes":{"ID":607274,"DIS_CODE":0,"TOWNNAME":"歸仁區","LI":"大潭里","LIN":"3鄰","STREET":"長榮路","SECT":"一段","MAREA":" ","LANE":" ","ALLEY":" ","HOUSE_NO":"３２１號","E_COORD97":175362.47,"N_COORD97":2534508.2799999998,"ADDRESS":"長榮路一段３２１號","OBJECTID":607247},"geometry":{"x":175362.47000000067,"y":2534508.2800000031}},{"attributes":{"ID":607275,"DIS_CODE":0,"TOWNNAME":"歸仁區","LI":"六甲里","LIN":"3鄰","STREET":"中正南路","SECT":"一段","MAREA":" ","LANE":" ","ALLEY":" ","HOUSE_NO":"６４３號","E_COORD97":176637.07065099999,"N_COORD97":2539843.1943299999,"ADDRESS":"中正南路一段６４３號","OBJECTID":607248},"geometry":{"x":176637.0706510013,"y":2539843.194325}},{"attributes":{"ID":607276,"DIS_CODE":0,"TOWNNAME":"歸仁區","LI":"大廟里","LIN":"3鄰","STREET":"大廟三街","SECT":" ","MAREA":" ","LANE":" ","ALLEY":" ","HOUSE_NO":"１０７號","E_COORD97":176301.42000000001,"N_COORD97":2543826.25,"ADDRESS":"大廟三街１０７號","OBJECTID":607249},"geometry":{"x":176301.41999999899,"y":2543826.2500000019}},{"attributes":{"ID":607277,"DIS_CODE":0,"TOWNNAME":"麻豆區","LI":"興農里","LIN":"3鄰","STREET":"和平路","SECT":" ","MAREA":" ","LANE":" ","ALLEY":" ","HOUSE_NO":"２２號之４","E_COORD97":172487.72,"N_COORD97":2564362.7400000002,"ADDRESS":"和平路２２號之４","OBJECTID":607250},"geometry":{"x":172487.71999999974,"y":2564362.7400000021}},{"attributes":{"ID":607278,"DIS_CODE":0,"TOWNNAME":"麻豆區","LI":"興農里","LIN":"3鄰","STREET":"和平路","SECT":" ","MAREA":" ","LANE":" ","ALLEY":" ","HOUSE_NO":"２２號之５","E_COORD97":172482.79000000001,"N_COORD97":2564361.6000000001,"ADDRESS":"和平路２２號之５","OBJECTID":607251},"geometry":{"x":172482.79000000004,"y":2564361.5999999996}},{"attributes":{"ID":607279,"DIS_CODE":0,"TOWNNAME":"麻豆區","LI":"興農里","LIN":"3鄰","STREET":"和平路","SECT":" ","MAREA":" ","LANE":" ","ALLEY":" ","HOUSE_NO":"２２號之６","E_COORD97":172477.60000000001,"N_COORD97":2564360.73,"ADDRESS":"和平路２２號之６","OBJECTID":607252},"geometry":{"x":172477.60000000056,"y":2564360.7300000004}},{"attributes":{"ID":607280,"DIS_CODE":0,"TOWNNAME":"麻豆區","LI":"興農里","LIN":"3鄰","STREET":"和平路","SECT":" ","MAREA":" ","LANE":" ","ALLEY":" ","HOUSE_NO":"２２號","E_COORD97":172495.85000000001,"N_COORD97":2564337.5499999998,"ADDRESS":"和平路２２號","OBJECTID":607253},"geometry":{"x":172495.8499999987,"y":2564337.5500000026}},{"attributes":{"ID":607281,"DIS_CODE":0,"TOWNNAME":"北區","LI":"元寶里","LIN":"3鄰","STREET":"北園街","SECT":" ","MAREA":" ","LANE":" ","ALLEY":" ","HOUSE_NO":"７２號之１","E_COORD97":170359.95999999999,"N_COORD97":2545824.9399999999,"ADDRESS":"北園街７２號之１","OBJECTID":607254},"geometry":{"x":170359.96000000089,"y":2545824.9400000013}},{"attributes":{"ID":607282,"DIS_CODE":0,"TOWNNAME":"仁德區","LI":"新田里","LIN":"10鄰","STREET":"中正路","SECT":"二段","MAREA":" ","LANE":" ","ALLEY":" ","HOUSE_NO":"４４９號","E_COORD97":173325.32999999999,"N_COORD97":2539456.27,"ADDRESS":"中正路二段４４９號","OBJECTID":607255},"geometry":{"x":173325.33000000007,"y":2539456.2700000014}},{"attributes":{"ID":607283,"DIS_CODE":0,"TOWNNAME":"北區","LI":"國興里","LIN":"3鄰","STREET":"南園街","SECT":" ","MAREA":" ","LANE":" ","ALLEY":" ","HOUSE_NO":"２５號","E_COORD97":170479.64000000001,"N_COORD97":2545463.21,"ADDRESS":"南園街２５號","OBJECTID":607256},"geometry":{"x":170479.63999999966,"y":2545463.2100000009}},{"attributes":{"ID":607284,"DIS_CODE":0,"TOWNNAME":"北區","LI":"國興里","LIN":"3鄰","STREET":"南園街","SECT":" ","MAREA":" ","LANE":" ","ALLEY":" ","HOUSE_NO":"１５號","E_COORD97":170457.35000000001,"N_COORD97":2545474.1600000001,"ADDRESS":"南園街１５號","OBJECTID":607257},"geometry":{"x":170457.35000000056,"y":2545474.1599999983}},{"attributes":{"ID":607285,"DIS_CODE":0,"TOWNNAME":"北區","LI":"國興里","LIN":"3鄰","STREET":"南園街","SECT":" ","MAREA":" ","LANE":" ","ALLEY":" ","HOUSE_NO":"１７號","E_COORD97":170464.04000000001,"N_COORD97":2545471.5600000001,"ADDRESS":"南園街１７號","OBJECTID":607258},"geometry":{"x":170464.04000000004,"y":2545471.5600000005}},{"attributes":{"ID":607286,"DIS_CODE":0,"TOWNNAME":"北區","LI":"國興里","LIN":"3鄰","STREET":"南園街","SECT":" ","MAREA":" ","LANE":" ","ALLEY":" ","HOUSE_NO":"２７號","E_COORD97":170482.23999999999,"N_COORD97":2545459.6899999999,"ADDRESS":"南園街２７號","OBJECTID":607259},"geometry":{"x":170482.24000000115,"y":2545459.6899999976}},{"attributes":{"ID":607287,"DIS_CODE":0,"TOWNNAME":"北區","LI":"國興里","LIN":"3鄰","STREET":"南園街","SECT":" ","MAREA":" ","LANE":" ","ALLEY":" ","HOUSE_NO":"１９號","E_COORD97":170468.13,"N_COORD97":2545469.3399999999,"ADDRESS":"南園街１９號","OBJECTID":607260},"geometry":{"x":170468.12999999989,"y":2545469.3400000036}},{"attributes":{"ID":607288,"DIS_CODE":0,"TOWNNAME":"北區","LI":"國興里","LIN":"3鄰","STREET":"南園街","SECT":" ","MAREA":" ","LANE":" ","ALLEY":" ","HOUSE_NO":"２１號","E_COORD97":170471.84,"N_COORD97":2545467.48,"ADDRESS":"南園街２１號","OBJECTID":607261},"geometry":{"x":170471.83999999985,"y":2545467.4800000004}},{"attributes":{"ID":607289,"DIS_CODE":0,"TOWNNAME":"北區","LI":"國興里","LIN":"3鄰","STREET":"南園街","SECT":" ","MAREA":" ","LANE":" ","ALLEY":" ","HOUSE_NO":"３７號","E_COORD97":170498.76999999999,"N_COORD97":2545447.8100000001,"ADDRESS":"南園街３７號","OBJECTID":607262},"geometry":{"x":170498.76999999955,"y":2545447.8100000024}},{"attributes":{"ID":607290,"DIS_CODE":0,"TOWNNAME":"北區","LI":"國興里","LIN":"3鄰","STREET":"南園街","SECT":" ","MAREA":" ","LANE":" ","ALLEY":" ","HOUSE_NO":"３９號","E_COORD97":170503.22,"N_COORD97":2545445.9500000002,"ADDRESS":"南園街３９號","OBJECTID":607263},"geometry":{"x":170503.21999999974,"y":2545445.9500000011}},{"attributes":{"ID":607291,"DIS_CODE":0,"TOWNNAME":"北區","LI":"國興里","LIN":"3鄰","STREET":"南園街","SECT":" ","MAREA":" ","LANE":" ","ALLEY":" ","HOUSE_NO":"４１號","E_COORD97":170507.87,"N_COORD97":2545446.5099999998,"ADDRESS":"南園街４１號","OBJECTID":607264},"geometry":{"x":170507.87000000197,"y":2545446.5099999998}},{"attributes":{"ID":607292,"DIS_CODE":0,"TOWNNAME":"北區","LI":"國興里","LIN":"3鄰","STREET":"南園街","SECT":" ","MAREA":" ","LANE":" ","ALLEY":" ","HOUSE_NO":"４３號","E_COORD97":170511.01999999999,"N_COORD97":2545444.2799999998,"ADDRESS":"南園街４３號","OBJECTID":607265},"geometry":{"x":170511.01999999955,"y":2545444.2799999993}},{"attributes":{"ID":607293,"DIS_CODE":0,"TOWNNAME":"仁德區","LI":"新田里","LIN":"2鄰","STREET":"義林路","SECT":" ","MAREA":" ","LANE":" ","ALLEY":" ","HOUSE_NO":"１０５號","E_COORD97":174337.73000000001,"N_COORD97":2540191.27,"ADDRESS":"義林路１０５號","OBJECTID":607266},"geometry":{"x":174337.73000000138,"y":2540191.2700000014}},{"attributes":{"ID":607294,"DIS_CODE":0,"TOWNNAME":"仁德區","LI":"新田里","LIN":"2鄰","STREET":"義林路","SECT":" ","MAREA":" ","LANE":" ","ALLEY":" ","HOUSE_NO":"１之１號","E_COORD97":174253.62,"N_COORD97":2539677.5499999998,"ADDRESS":"義林路１之１號","OBJECTID":607267},"geometry":{"x":174253.62000000011,"y":2539677.5500000007}},{"attributes":{"ID":607295,"DIS_CODE":0,"TOWNNAME":"北區","LI":"國興里","LIN":"3鄰","STREET":"南園街","SECT":" ","MAREA":" ","LANE":" ","ALLEY":" ","HOUSE_NO":"４５號","E_COORD97":170514.73999999999,"N_COORD97":2545442.4300000002,"ADDRESS":"南園街４５號","OBJECTID":607268},"geometry":{"x":170514.74000000115,"y":2545442.4300000016}},{"attributes":{"ID":607296,"DIS_CODE":0,"TOWNNAME":"北區","LI":"國興里","LIN":"3鄰","STREET":"南園街","SECT":" ","MAREA":" ","LANE":" ","ALLEY":" ","HOUSE_NO":"４７號","E_COORD97":170518.26999999999,"N_COORD97":2545440.2000000002,"ADDRESS":"南園街４７號","OBJECTID":607269},"geometry":{"x":170518.27000000142,"y":2545440.2000000011}},{"attributes":{"ID":607297,"DIS_CODE":0,"TOWNNAME":"仁德區","LI":"後壁里","LIN":"31鄰","STREET":"德洋路","SECT":" ","MAREA":" ","LANE":" ","ALLEY":" ","HOUSE_NO":"１０５號","E_COORD97":172753.07000000001,"N_COORD97":2539241.7599999998,"ADDRESS":"德洋路１０５號","OBJECTID":607270},"geometry":{"x":172753.07000000123,"y":2539241.7600000035}},{"attributes":{"ID":607298,"DIS_CODE":0,"TOWNNAME":"仁德區","LI":"後壁里","LIN":"37鄰","STREET":"民安路","SECT":"一段","MAREA":" ","LANE":" ","ALLEY":" ","HOUSE_NO":"３９４號","E_COORD97":173152.82000000001,"N_COORD97":2539351.3100000001,"ADDRESS":"民安路一段３９４號","OBJECTID":607271},"geometry":{"x":173152.81999999937,"y":2539351.3100000024}},{"attributes":{"ID":607299,"DIS_CODE":0,"TOWNNAME":"仁德區","LI":"後壁里","LIN":"37鄰","STREET":"民安路","SECT":"一段","MAREA":" ","LANE":" ","ALLEY":" ","HOUSE_NO":"３５２號","E_COORD97":173069.16,"N_COORD97":2539415.8100000001,"ADDRESS":"民安路一段３５２號","OBJECTID":607272},"geometry":{"x":173069.16000000201,"y":2539415.8100000024}},{"attributes":{"ID":607300,"DIS_CODE":0,"TOWNNAME":"仁德區","LI":"後壁里","LIN":"11鄰","STREET":"德善路","SECT":" ","MAREA":" ","LANE":" ","ALLEY":" ","HOUSE_NO":"２１３號之７","E_COORD97":173777.14000000001,"N_COORD97":2538795.04,"ADDRESS":"德善路２１３號之７","OBJECTID":607273},"geometry":{"x":173777.13999999966,"y":2538795.0400000028}},{"attributes":{"ID":607301,"DIS_CODE":0,"TOWNNAME":"北區","LI":"國興里","LIN":"3鄰","STREET":"南園街","SECT":" ","MAREA":" ","LANE":" ","ALLEY":" ","HOUSE_NO":"７號","E_COORD97":170438.04000000001,"N_COORD97":2545484.6699999999,"ADDRESS":"南園街７號","OBJECTID":607274},"geometry":{"x":170438.04000000004,"y":2545484.6700000018}},{"attributes":{"ID":607302,"DIS_CODE":0,"TOWNNAME":"北區","LI":"國興里","LIN":"3鄰","STREET":"南園街","SECT":" ","MAREA":" ","LANE":" ","ALLEY":" ","HOUSE_NO":"９號","E_COORD97":170440.07999999999,"N_COORD97":2545483.25,"ADDRESS":"南園街９號","OBJECTID":607275},"geometry":{"x":170440.08000000007,"y":2545483.25}},{"attributes":{"ID":607303,"DIS_CODE":0,"TOWNNAME":"北區","LI":"華興里","LIN":"3鄰","STREET":"林森路","SECT":"三段","MAREA":" ","LANE":" ","ALLEY":" ","HOUSE_NO":"３３２號","E_COORD97":170394.82000000001,"N_COORD97":2545456.1499999999,"ADDRESS":"林森路三段３３２號","OBJECTID":607276},"geometry":{"x":170394.82000000216,"y":2545456.1500000004}},{"attributes":{"ID":607304,"DIS_CODE":0,"TOWNNAME":"北區","LI":"華興里","LIN":"3鄰","STREET":"林森路","SECT":"三段","MAREA":" ","LANE":" ","ALLEY":" ","HOUSE_NO":"３３４號","E_COORD97":170392.42999999999,"N_COORD97":2545460.9300000002,"ADDRESS":"林森路三段３３４號","OBJECTID":607277},"geometry":{"x":170392.43000000063,"y":2545460.9299999997}},{"attributes":{"ID":607305,"DIS_CODE":0,"TOWNNAME":"北區","LI":"華興里","LIN":"3鄰","STREET":"林森路","SECT":"三段","MAREA":" ","LANE":" ","ALLEY":" ","HOUSE_NO":"３３８號","E_COORD97":170386.20000000001,"N_COORD97":2545467.3599999999,"ADDRESS":"林森路三段３３８號","OBJECTID":607278},"geometry":{"x":170386.20000000112,"y":2545467.3599999994}},{"attributes":{"ID":607306,"DIS_CODE":0,"TOWNNAME":"北區","LI":"華興里","LIN":"3鄰","STREET":"南園街","SECT":" ","MAREA":" ","LANE":" ","ALLEY":" ","HOUSE_NO":"１０號","E_COORD97":170409,"N_COORD97":2545475.5,"ADDRESS":"南園街１０號","OBJECTID":607279},"geometry":{"x":170409.00000000093,"y":2545475.5000000037}},{"attributes":{"ID":607307,"DIS_CODE":0,"TOWNNAME":"北區","LI":"華興里","LIN":"3鄰","STREET":"南園街","SECT":" ","MAREA":" ","LANE":" ","ALLEY":" ","HOUSE_NO":"１２號","E_COORD97":170423.57000000001,"N_COORD97":2545475.8900000001,"ADDRESS":"南園街１２號","OBJECTID":607280},"geometry":{"x":170423.56999999937,"y":2545475.8900000006}},{"attributes":{"ID":607308,"DIS_CODE":0,"TOWNNAME":"仁德區","LI":"仁愛里","LIN":"4鄰","STREET":"二空路","SECT":" ","MAREA":" ","LANE":" ","ALLEY":" ","HOUSE_NO":"６５號","E_COORD97":170341.98000000001,"N_COORD97":2539910.0299999998,"ADDRESS":"二空路６５號","OBJECTID":607281},"geometry":{"x":170341.98000000138,"y":2539910.0299999993}},{"attributes":{"ID":607309,"DIS_CODE":0,"TOWNNAME":"仁德區","LI":"新田里","LIN":"4鄰","STREET":"新田路","SECT":" ","MAREA":" ","LANE":" ","ALLEY":" ","HOUSE_NO":"９９號","E_COORD97":174488.12,"N_COORD97":2539125.9900000002,"ADDRESS":"新田路９９號","OBJECTID":607282},"geometry":{"x":174488.11999999918,"y":2539125.9900000021}},{"attributes":{"ID":607310,"DIS_CODE":0,"TOWNNAME":"北區","LI":"華興里","LIN":"3鄰","STREET":"南園街","SECT":" ","MAREA":" ","LANE":" ","ALLEY":" ","HOUSE_NO":"２號","E_COORD97":170402.67999999999,"N_COORD97":2545486.5699999998,"ADDRESS":"南園街２號","OBJECTID":607283},"geometry":{"x":170402.68000000063,"y":2545486.5700000022}},{"attributes":{"ID":607311,"DIS_CODE":0,"TOWNNAME":"北區","LI":"華興里","LIN":"3鄰","STREET":"南園街","SECT":" ","MAREA":" ","LANE":" ","ALLEY":" ","HOUSE_NO":"６號","E_COORD97":170403.95999999999,"N_COORD97":2545483.1899999999,"ADDRESS":"南園街６號","OBJECTID":607284},"geometry":{"x":170403.96000000089,"y":2545483.1899999995}},{"attributes":{"ID":607312,"DIS_CODE":0,"TOWNNAME":"北區","LI":"華興里","LIN":"3鄰","STREET":"南園街","SECT":" ","MAREA":" ","LANE":" ","ALLEY":" ","HOUSE_NO":"８號","E_COORD97":170407.26000000001,"N_COORD97":2545479.7999999998,"ADDRESS":"南園街８號","OBJECTID":607285},"geometry":{"x":170407.26000000071,"y":2545479.8000000007}},{"attributes":{"ID":607313,"DIS_CODE":0,"TOWNNAME":"北區","LI":"華興里","LIN":"3鄰","STREET":"開元路","SECT":" ","MAREA":" ","LANE":" ","ALLEY":" ","HOUSE_NO":"３０２號","E_COORD97":170376.39000000001,"N_COORD97":2545481.9199999999,"ADDRESS":"開元路３０２號","OBJECTID":607286},"geometry":{"x":170376.38999999966,"y":2545481.9199999999}},{"attributes":{"ID":607314,"DIS_CODE":0,"TOWNNAME":"北區","LI":"華興里","LIN":"3鄰","STREET":"開元路","SECT":" ","MAREA":" ","LANE":" ","ALLEY":" ","HOUSE_NO":"３０４號","E_COORD97":170379.95999999999,"N_COORD97":2545485.5800000001,"ADDRESS":"開元路３０４號","OBJECTID":607287},"geometry":{"x":170379.96000000183,"y":2545485.5800000019}},{"attributes":{"ID":607315,"DIS_CODE":0,"TOWNNAME":"北區","LI":"華興里","LIN":"3鄰","STREET":"開元路","SECT":" ","MAREA":" ","LANE":" ","ALLEY":" ","HOUSE_NO":"３０６號","E_COORD97":170383.16,"N_COORD97":2545487.5899999999,"ADDRESS":"開元路３０６號","OBJECTID":607288},"geometry":{"x":170383.16000000015,"y":2545487.5899999999}},{"attributes":{"ID":607316,"DIS_CODE":0,"TOWNNAME":"北區","LI":"華興里","LIN":"3鄰","STREET":"開元路","SECT":" ","MAREA":" ","LANE":" ","ALLEY":" ","HOUSE_NO":"３０８號","E_COORD97":170389.20999999999,"N_COORD97":2545492.3799999999,"ADDRESS":"開元路３０８號","OBJECTID":607289},"geometry":{"x":170389.21000000089,"y":2545492.3800000008}},{"attributes":{"ID":607317,"DIS_CODE":0,"TOWNNAME":"北區","LI":"華興里","LIN":"3鄰","STREET":"開元路","SECT":" ","MAREA":" ","LANE":" ","ALLEY":" ","HOUSE_NO":"３１０號","E_COORD97":170393.04999999999,"N_COORD97":2545495.2999999998,"ADDRESS":"開元路３１０號","OBJECTID":607290},"geometry":{"x":170393.05000000075,"y":2545495.3000000026}},{"attributes":{"ID":607318,"DIS_CODE":0,"TOWNNAME":"北區","LI":"華興里","LIN":"3鄰","STREET":"林森路","SECT":"三段","MAREA":" ","LANE":" ","ALLEY":" ","HOUSE_NO":"３１０號","E_COORD97":170420.09,"N_COORD97":2545414.9100000001,"ADDRESS":"林森路三段３１０號","OBJECTID":607291},"geometry":{"x":170420.09000000078,"y":2545414.9099999983}},{"attributes":{"ID":607319,"DIS_CODE":0,"TOWNNAME":"北區","LI":"華興里","LIN":"3鄰","STREET":"林森路","SECT":"三段","MAREA":" ","LANE":" ","ALLEY":" ","HOUSE_NO":"３１２號","E_COORD97":170417.62,"N_COORD97":2545417.9300000002,"ADDRESS":"林森路三段３１２號","OBJECTID":607292},"geometry":{"x":170417.62000000011,"y":2545417.9300000034}},{"attributes":{"ID":607320,"DIS_CODE":0,"TOWNNAME":"北區","LI":"華興里","LIN":"3鄰","STREET":"林森路","SECT":"三段","MAREA":" ","LANE":" ","ALLEY":" ","HOUSE_NO":"３１４號","E_COORD97":170415.32999999999,"N_COORD97":2545421.5,"ADDRESS":"林森路三段３１４號","OBJECTID":607293},"geometry":{"x":170415.33000000101,"y":2545421.5000000019}},{"attributes":{"ID":607321,"DIS_CODE":0,"TOWNNAME":"北區","LI":"華興里","LIN":"3鄰","STREET":"林森路","SECT":"三段","MAREA":" ","LANE":" ","ALLEY":" ","HOUSE_NO":"３１６號","E_COORD97":170414.23000000001,"N_COORD97":2545425.0699999998,"ADDRESS":"林森路三段３１６號","OBJECTID":607294},"geometry":{"x":170414.23000000231,"y":2545425.0700000022}},{"attributes":{"ID":607322,"DIS_CODE":0,"TOWNNAME":"北區","LI":"華興里","LIN":"3鄰","STREET":"林森路","SECT":"三段","MAREA":" ","LANE":" ","ALLEY":" ","HOUSE_NO":"３１８號","E_COORD97":170411.20000000001,"N_COORD97":2545427.4700000002,"ADDRESS":"林森路三段３１８號","OBJECTID":607295},"geometry":{"x":170411.20000000112,"y":2545427.4700000007}},{"attributes":{"ID":607323,"DIS_CODE":0,"TOWNNAME":"北區","LI":"華興里","LIN":"3鄰","STREET":"林森路","SECT":"三段","MAREA":" ","LANE":" ","ALLEY":" ","HOUSE_NO":"３２０號","E_COORD97":170409.19,"N_COORD97":2545431.2200000002,"ADDRESS":"林森路三段３２０號","OBJECTID":607296},"geometry":{"x":170409.19000000041,"y":2545431.2200000025}},{"attributes":{"ID":607324,"DIS_CODE":0,"TOWNNAME":"北區","LI":"華興里","LIN":"3鄰","STREET":"林森路","SECT":"三段","MAREA":" ","LANE":" ","ALLEY":" ","HOUSE_NO":"３２２號","E_COORD97":170407.17000000001,"N_COORD97":2545434.8799999999,"ADDRESS":"林森路三段３２２號","OBJECTID":607297},"geometry":{"x":170407.16999999993,"y":2545434.8800000008}},{"attributes":{"ID":607325,"DIS_CODE":0,"TOWNNAME":"北區","LI":"華興里","LIN":"3鄰","STREET":"南園街","SECT":" ","MAREA":" ","LANE":" ","ALLEY":" ","HOUSE_NO":"１６號","E_COORD97":170432.17000000001,"N_COORD97":2545469.3300000001,"ADDRESS":"南園街１６號","OBJECTID":607298},"geometry":{"x":170432.16999999993,"y":2545469.3300000001}},{"attributes":{"ID":607326,"DIS_CODE":0,"TOWNNAME":"北區","LI":"華興里","LIN":"3鄰","STREET":"南園街","SECT":" ","MAREA":" ","LANE":" ","ALLEY":" ","HOUSE_NO":"１８號","E_COORD97":170436.13,"N_COORD97":2545467.1499999999,"ADDRESS":"南園街１８號","OBJECTID":607299},"geometry":{"x":170436.12999999989,"y":2545467.1500000004}},{"attributes":{"ID":607327,"DIS_CODE":0,"TOWNNAME":"北區","LI":"華興里","LIN":"3鄰","STREET":"南園街","SECT":" ","MAREA":" ","LANE":" ","ALLEY":" ","HOUSE_NO":"２０號","E_COORD97":170439.51999999999,"N_COORD97":2545464.3300000001,"ADDRESS":"南園街２０號","OBJECTID":607300},"geometry":{"x":170439.51999999955,"y":2545464.3300000019}},{"attributes":{"ID":607328,"DIS_CODE":0,"TOWNNAME":"北區","LI":"華興里","LIN":"3鄰","STREET":"南園街","SECT":" ","MAREA":" ","LANE":" ","ALLEY":" ","HOUSE_NO":"２２號","E_COORD97":170443.39999999999,"N_COORD97":2545461.6600000001,"ADDRESS":"南園街２２號","OBJECTID":607301},"geometry":{"x":170443.40000000037,"y":2545461.660000002}},{"attributes":{"ID":607329,"DIS_CODE":0,"TOWNNAME":"北區","LI":"華興里","LIN":"3鄰","STREET":"南園街","SECT":" ","MAREA":" ","LANE":" ","ALLEY":" ","HOUSE_NO":"２４號","E_COORD97":170446.70999999999,"N_COORD97":2545459.1600000001,"ADDRESS":"南園街２４號","OBJECTID":607302},"geometry":{"x":170446.71000000089,"y":2545459.1600000001}},{"attributes":{"ID":607330,"DIS_CODE":0,"TOWNNAME":"北區","LI":"華興里","LIN":"3鄰","STREET":"南園街","SECT":" ","MAREA":" ","LANE":" ","ALLEY":" ","HOUSE_NO":"２６號","E_COORD97":170449.62,"N_COORD97":2545457.2999999998,"ADDRESS":"南園街２６號","OBJECTID":607303},"geometry":{"x":170449.62000000011,"y":2545457.3000000045}},{"attributes":{"ID":607331,"DIS_CODE":0,"TOWNNAME":"仁德區","LI":"後壁里","LIN":"33鄰","STREET":"民安路","SECT":"一段","MAREA":" ","LANE":" ","ALLEY":" ","HOUSE_NO":"２６號","E_COORD97":171867.37,"N_COORD97":2540072.5600000001,"ADDRESS":"民安路一段２６號","OBJECTID":607304},"geometry":{"x":171867.37000000197,"y":2540072.5600000024}},{"attributes":{"ID":607332,"DIS_CODE":0,"TOWNNAME":"仁德區","LI":"後壁里","LIN":"30鄰","STREET":"德洋一街","SECT":" ","MAREA":" ","LANE":" ","ALLEY":" ","HOUSE_NO":"４１號","E_COORD97":173124.03,"N_COORD97":2539177.27,"ADDRESS":"德洋一街４１號","OBJECTID":607305},"geometry":{"x":173124.03000000026,"y":2539177.2700000033}},{"attributes":{"ID":607333,"DIS_CODE":0,"TOWNNAME":"仁德區","LI":"新田里","LIN":"16鄰","STREET":"民安路","SECT":"二段","MAREA":" ","LANE":" ","ALLEY":" ","HOUSE_NO":"３３號","E_COORD97":173371.95999999999,"N_COORD97":2539274.8199999998,"ADDRESS":"民安路二段３３號","OBJECTID":607306},"geometry":{"x":173371.96000000183,"y":2539274.8200000003}},{"attributes":{"ID":607334,"DIS_CODE":0,"TOWNNAME":"仁德區","LI":"後壁里","LIN":"31鄰","STREET":"德洋路","SECT":" ","MAREA":" ","LANE":" ","ALLEY":" ","HOUSE_NO":"８８號","E_COORD97":172890.53,"N_COORD97":2539229.5099999998,"ADDRESS":"德洋路８８號","OBJECTID":607307},"geometry":{"x":172890.53000000212,"y":2539229.5099999998}},{"attributes":{"ID":607335,"DIS_CODE":0,"TOWNNAME":"仁德區","LI":"後壁里","LIN":"37鄰","STREET":"民安路","SECT":"一段","MAREA":" ","LANE":" ","ALLEY":" ","HOUSE_NO":"４０８號","E_COORD97":173186.63,"N_COORD97":2539332.5600000001,"ADDRESS":"民安路一段４０８號","OBJECTID":607308},"geometry":{"x":173186.63000000082,"y":2539332.5600000024}},{"attributes":{"ID":607336,"DIS_CODE":0,"TOWNNAME":"關廟區","LI":"關廟里","LIN":"3鄰","STREET":"文衡路","SECT":" ","MAREA":" ","LANE":" ","ALLEY":" ","HOUSE_NO":"５０號","E_COORD97":180905.79000000001,"N_COORD97":2540165.3300000001,"ADDRESS":"文衡路５０號","OBJECTID":607309},"geometry":{"x":180905.79000000097,"y":2540165.3300000019}},{"attributes":{"ID":607337,"DIS_CODE":0,"TOWNNAME":"關廟區","LI":"布袋里","LIN":"3鄰","STREET":"南雄南路","SECT":" ","MAREA":" ","LANE":" ","ALLEY":" ","HOUSE_NO":"１２９號","E_COORD97":183062.48999999999,"N_COORD97":2535696.2999999998,"ADDRESS":"南雄南路１２９號","OBJECTID":607310},"geometry":{"x":183062.49000000115,"y":2535696.3000000045}},{"attributes":{"ID":607338,"DIS_CODE":0,"TOWNNAME":"關廟區","LI":"北勢里","LIN":"3鄰","STREET":"仁愛路","SECT":" ","MAREA":" ","LANE":" ","ALLEY":" ","HOUSE_NO":"１２２號","E_COORD97":181359.69,"N_COORD97":2540315.2799999998,"ADDRESS":"仁愛路１２２號","OBJECTID":607311},"geometry":{"x":181359.69000000041,"y":2540315.2799999993}},{"attributes":{"ID":607339,"DIS_CODE":0,"TOWNNAME":"關廟區","LI":"山西里","LIN":"3鄰","STREET":"文衡路","SECT":" ","MAREA":" ","LANE":" ","ALLEY":" ","HOUSE_NO":"９０號","E_COORD97":180912.39000000001,"N_COORD97":2540251.3300000001,"ADDRESS":"文衡路９０號","OBJECTID":607312},"geometry":{"x":180912.39000000153,"y":2540251.3300000001}},{"attributes":{"ID":607340,"DIS_CODE":0,"TOWNNAME":"關廟區","LI":"布袋里","LIN":"3鄰","STREET":"長文街","SECT":" ","MAREA":" ","LANE":" ","ALLEY":" ","HOUSE_NO":"１０８號","E_COORD97":182910.94,"N_COORD97":2535466.25,"ADDRESS":"長文街１０８號","OBJECTID":607313},"geometry":{"x":182910.94000000041,"y":2535466.2500000019}},{"attributes":{"ID":607341,"DIS_CODE":0,"TOWNNAME":"關廟區","LI":"新光里","LIN":"3鄰","STREET":"新湖街","SECT":" ","MAREA":" ","LANE":" ","ALLEY":" ","HOUSE_NO":"１５２號","E_COORD97":183611.42000000001,"N_COORD97":2541927.25,"ADDRESS":"新湖街１５２號","OBJECTID":607314},"geometry":{"x":183611.42000000086,"y":2541927.2500000037}},{"attributes":{"ID":607342,"DIS_CODE":0,"TOWNNAME":"仁德區","LI":"新田里","LIN":"9鄰","STREET":"北保路","SECT":" ","MAREA":" ","LANE":" ","ALLEY":" ","HOUSE_NO":"１７１號","E_COORD97":173466.82000000001,"N_COORD97":2539456.9900000002,"ADDRESS":"北保路１７１號","OBJECTID":607315},"geometry":{"x":173466.82000000123,"y":2539456.9900000002}},{"attributes":{"ID":607343,"DIS_CODE":0,"TOWNNAME":"關廟區","LI":"山西里","LIN":"3鄰","STREET":"興中街","SECT":" ","MAREA":" ","LANE":" ","ALLEY":" ","HOUSE_NO":"１號","E_COORD97":180967.97,"N_COORD97":2540253.25,"ADDRESS":"興中街１號","OBJECTID":607316},"geometry":{"x":180967.9700000016,"y":2540253.2500000019}},{"attributes":{"ID":607344,"DIS_CODE":0,"TOWNNAME":"關廟區","LI":"新埔里","LIN":"3鄰","STREET":"忠孝街","SECT":" ","MAREA":" ","LANE":" ","ALLEY":" ","HOUSE_NO":"２７３號","E_COORD97":181170.04000000001,"N_COORD97":2540797.25,"ADDRESS":"忠孝街２７３號","OBJECTID":607317},"geometry":{"x":181170.04000000097,"y":2540797.25}},{"attributes":{"ID":607345,"DIS_CODE":0,"TOWNNAME":"關廟區","LI":"山西里","LIN":"3鄰","STREET":"文衡路","SECT":" ","MAREA":" ","LANE":" ","ALLEY":" ","HOUSE_NO":"９６號","E_COORD97":180914.29000000001,"N_COORD97":2540259.3300000001,"ADDRESS":"文衡路９６號","OBJECTID":607318},"geometry":{"x":180914.29000000004,"y":2540259.3300000019}},{"attributes":{"ID":607346,"DIS_CODE":0,"TOWNNAME":"關廟區","LI":"深坑里","LIN":"3鄰","STREET":"南雄路","SECT":"一段","MAREA":" ","LANE":" ","ALLEY":" ","HOUSE_NO":"３８２號","E_COORD97":181762.67000000001,"N_COORD97":2537606.2999999998,"ADDRESS":"南雄路一段３８２號","OBJECTID":607319},"geometry":{"x":181762.66999999993,"y":2537606.3000000026}},{"attributes":{"ID":607347,"DIS_CODE":0,"TOWNNAME":"關廟區","LI":"山西里","LIN":"3鄰","STREET":"文衡路","SECT":" ","MAREA":" ","LANE":" ","ALLEY":" ","HOUSE_NO":"１１８號","E_COORD97":180936.23999999999,"N_COORD97":2540312.3300000001,"ADDRESS":"文衡路１１８號","OBJECTID":607320},"geometry":{"x":180936.24000000115,"y":2540312.3300000001}},{"attributes":{"ID":607348,"DIS_CODE":0,"TOWNNAME":"關廟區","LI":"深坑里","LIN":"3鄰","STREET":"南雄路","SECT":"一段","MAREA":" ","LANE":" ","ALLEY":" ","HOUSE_NO":"４１９號","E_COORD97":181717.17000000001,"N_COORD97":2537582.2999999998,"ADDRESS":"南雄路一段４１９號","OBJECTID":607321},"geometry":{"x":181717.16999999993,"y":2537582.3000000026}},{"attributes":{"ID":607349,"DIS_CODE":0,"TOWNNAME":"關廟區","LI":"關廟里","LIN":"3鄰","STREET":"文衡路","SECT":" ","MAREA":" ","LANE":" ","ALLEY":" ","HOUSE_NO":"５８號","E_COORD97":180906.59,"N_COORD97":2540180.3300000001,"ADDRESS":"文衡路５８號","OBJECTID":607322},"geometry":{"x":180906.59000000078,"y":2540180.3300000001}},{"attributes":{"ID":607350,"DIS_CODE":0,"TOWNNAME":"關廟區","LI":"新埔里","LIN":"3鄰","STREET":"忠孝街","SECT":" ","MAREA":" ","LANE":" ","ALLEY":" ","HOUSE_NO":"２８９號","E_COORD97":181178.84,"N_COORD97":2540839.25,"ADDRESS":"忠孝街２８９號","OBJECTID":607323},"geometry":{"x":181178.83999999985,"y":2540839.2500000037}},{"attributes":{"ID":607351,"DIS_CODE":0,"TOWNNAME":"關廟區","LI":"新光里","LIN":"3鄰","STREET":"新湖街","SECT":" ","MAREA":" ","LANE":" ","ALLEY":" ","HOUSE_NO":"１７６號","E_COORD97":183554.67000000001,"N_COORD97":2541942.25,"ADDRESS":"新湖街１７６號","OBJECTID":607324},"geometry":{"x":183554.66999999993,"y":2541942.2500000019}},{"attributes":{"ID":607352,"DIS_CODE":0,"TOWNNAME":"關廟區","LI":"新光里","LIN":"3鄰","STREET":"新湖街","SECT":" ","MAREA":" ","LANE":" ","ALLEY":" ","HOUSE_NO":"１６６號","E_COORD97":183570.07000000001,"N_COORD97":2541945.25,"ADDRESS":"新湖街１６６號","OBJECTID":607325},"geometry":{"x":183570.07000000123,"y":2541945.2500000019}},{"attributes":{"ID":607353,"DIS_CODE":0,"TOWNNAME":"關廟區","LI":"山西里","LIN":"3鄰","STREET":"文衡路","SECT":" ","MAREA":" ","LANE":" ","ALLEY":" ","HOUSE_NO":"１０６號","E_COORD97":180917.04000000001,"N_COORD97":2540292.3300000001,"ADDRESS":"文衡路１０６號","OBJECTID":607326},"geometry":{"x":180917.04000000097,"y":2540292.3300000001}},{"attributes":{"ID":607354,"DIS_CODE":0,"TOWNNAME":"仁德區","LI":"新田里","LIN":"13鄰","STREET":"北保二街","SECT":" ","MAREA":" ","LANE":" ","ALLEY":" ","HOUSE_NO":"１８號","E_COORD97":173224.23000000001,"N_COORD97":2539419.2400000002,"ADDRESS":"北保二街１８號","OBJECTID":607327},"geometry":{"x":173224.23000000045,"y":2539419.2400000021}},{"attributes":{"ID":607355,"DIS_CODE":0,"TOWNNAME":"仁德區","LI":"後壁里","LIN":"37鄰","STREET":"民安路","SECT":"一段","MAREA":" ","LANE":" ","ALLEY":" ","HOUSE_NO":"３７２號","E_COORD97":173108.89000000001,"N_COORD97":2539384.8199999998,"ADDRESS":"民安路一段３７２號","OBJECTID":607328},"geometry":{"x":173108.88999999966,"y":2539384.8200000022}},{"attributes":{"ID":607356,"DIS_CODE":0,"TOWNNAME":"關廟區","LI":"山西里","LIN":"3鄰","STREET":"興中街","SECT":" ","MAREA":" ","LANE":" ","ALLEY":" ","HOUSE_NO":"１６號","E_COORD97":180946.12,"N_COORD97":2540268.25,"ADDRESS":"興中街１６號","OBJECTID":607329},"geometry":{"x":180946.12000000011,"y":2540268.25}},{"attributes":{"ID":607357,"DIS_CODE":0,"TOWNNAME":"關廟區","LI":"深坑里","LIN":"3鄰","STREET":"南雄路","SECT":"一段","MAREA":" ","LANE":" ","ALLEY":" ","HOUSE_NO":"４２９號","E_COORD97":181693.72,"N_COORD97":2537589.2999999998,"ADDRESS":"南雄路一段４２９號","OBJECTID":607330},"geometry":{"x":181693.72000000067,"y":2537589.3000000026}},{"attributes":{"ID":607358,"DIS_CODE":0,"TOWNNAME":"關廟區","LI":"五甲里","LIN":"3鄰","STREET":"旺萊路","SECT":" ","MAREA":" ","LANE":" ","ALLEY":" ","HOUSE_NO":"３３號","E_COORD97":181493.09,"N_COORD97":2539154.25,"ADDRESS":"旺萊路３３號","OBJECTID":607331},"geometry":{"x":181493.09000000078,"y":2539154.2500000019}},{"attributes":{"ID":607359,"DIS_CODE":0,"TOWNNAME":"關廟區","LI":"五甲里","LIN":"3鄰","STREET":"光復街","SECT":" ","MAREA":" ","LANE":" ","ALLEY":" ","HOUSE_NO":"３６號","E_COORD97":181472.79000000001,"N_COORD97":2539195.2799999998,"ADDRESS":"光復街３６號","OBJECTID":607332},"geometry":{"x":181472.7900000019,"y":2539195.2800000012}},{"attributes":{"ID":607360,"DIS_CODE":0,"TOWNNAME":"關廟區","LI":"下湖里","LIN":"3鄰","STREET":"關新路","SECT":"一段","MAREA":" ","LANE":" ","ALLEY":" ","HOUSE_NO":"４２８號","E_COORD97":179318.94,"N_COORD97":2542969.25,"ADDRESS":"關新路一段４２８號","OBJECTID":607333},"geometry":{"x":179318.94000000041,"y":2542969.2500000019}},{"attributes":{"ID":607361,"DIS_CODE":0,"TOWNNAME":"關廟區","LI":"五甲里","LIN":"3鄰","STREET":"光復街","SECT":" ","MAREA":" ","LANE":" ","ALLEY":" ","HOUSE_NO":"６２號","E_COORD97":181496.19,"N_COORD97":2539243.2799999998,"ADDRESS":"光復街６２號","OBJECTID":607334},"geometry":{"x":181496.19000000134,"y":2539243.2799999993}},{"attributes":{"ID":607362,"DIS_CODE":0,"TOWNNAME":"關廟區","LI":"五甲里","LIN":"3鄰","STREET":"光復街","SECT":" ","MAREA":" ","LANE":" ","ALLEY":" ","HOUSE_NO":"８０號","E_COORD97":181519.59,"N_COORD97":2539305.2799999998,"ADDRESS":"光復街８０號","OBJECTID":607335},"geometry":{"x":181519.58999999985,"y":2539305.2799999993}},{"attributes":{"ID":607363,"DIS_CODE":0,"TOWNNAME":"關廟區","LI":"五甲里","LIN":"3鄰","STREET":"光復街","SECT":" ","MAREA":" ","LANE":" ","ALLEY":" ","HOUSE_NO":"５６號","E_COORD97":181488.89000000001,"N_COORD97":2539226.2799999998,"ADDRESS":"光復街５６號","OBJECTID":607336},"geometry":{"x":181488.8900000006,"y":2539226.2799999993}},{"attributes":{"ID":607364,"DIS_CODE":0,"TOWNNAME":"關廟區","LI":"山西里","LIN":"3鄰","STREET":"興中街","SECT":" ","MAREA":" ","LANE":" ","ALLEY":" ","HOUSE_NO":"１３號","E_COORD97":180945.42000000001,"N_COORD97":2540254.25,"ADDRESS":"興中街１３號","OBJECTID":607337},"geometry":{"x":180945.42000000086,"y":2540254.25}},{"attributes":{"ID":607365,"DIS_CODE":0,"TOWNNAME":"關廟區","LI":"山西里","LIN":"3鄰","STREET":"興中街","SECT":" ","MAREA":" ","LANE":" ","ALLEY":" ","HOUSE_NO":"８號","E_COORD97":180957.97,"N_COORD97":2540264.25,"ADDRESS":"興中街８號","OBJECTID":607338},"geometry":{"x":180957.97000000067,"y":2540264.2500000019}},{"attributes":{"ID":607366,"DIS_CODE":0,"TOWNNAME":"關廟區","LI":"下湖里","LIN":"3鄰","STREET":"關新路","SECT":"一段","MAREA":" ","LANE":" ","ALLEY":" ","HOUSE_NO":"４３２號","E_COORD97":179301.64000000001,"N_COORD97":2542966.25,"ADDRESS":"關新路一段４３２號","OBJECTID":607339},"geometry":{"x":179301.63999999966,"y":2542966.2500000019}},{"attributes":{"ID":607367,"DIS_CODE":0,"TOWNNAME":"關廟區","LI":"下湖里","LIN":"3鄰","STREET":"關新路","SECT":"一段","MAREA":" ","LANE":" ","ALLEY":" ","HOUSE_NO":"４２６號","E_COORD97":179312.34,"N_COORD97":2542948.25,"ADDRESS":"關新路一段４２６號","OBJECTID":607340},"geometry":{"x":179312.33999999985,"y":2542948.2500000019}},{"attributes":{"ID":607368,"DIS_CODE":0,"TOWNNAME":"關廟區","LI":"北花里","LIN":"3鄰","STREET":"花園二街","SECT":" ","MAREA":" ","LANE":" ","ALLEY":" ","HOUSE_NO":"９２號","E_COORD97":182009.14000000001,"N_COORD97":2540339.25,"ADDRESS":"花園二街９２號","OBJECTID":607341},"geometry":{"x":182009.14000000153,"y":2540339.25}},{"attributes":{"ID":607369,"DIS_CODE":0,"TOWNNAME":"關廟區","LI":"五甲里","LIN":"3鄰","STREET":"南雄路","SECT":"一段","MAREA":" ","LANE":" ","ALLEY":" ","HOUSE_NO":"７６０號","E_COORD97":181486.09,"N_COORD97":2538877.2799999998,"ADDRESS":"南雄路一段７６０號","OBJECTID":607342},"geometry":{"x":181486.09000000078,"y":2538877.2799999993}},{"attributes":{"ID":607370,"DIS_CODE":0,"TOWNNAME":"關廟區","LI":"五甲里","LIN":"3鄰","STREET":"南雄路","SECT":"一段","MAREA":" ","LANE":" ","ALLEY":" ","HOUSE_NO":"７８６號","E_COORD97":181477.98999999999,"N_COORD97":2538936.2799999998,"ADDRESS":"南雄路一段７８６號","OBJECTID":607343},"geometry":{"x":181477.99000000022,"y":2538936.2800000031}},{"attributes":{"ID":607371,"DIS_CODE":0,"TOWNNAME":"關廟區","LI":"北花里","LIN":"3鄰","STREET":"花園二街","SECT":" ","MAREA":" ","LANE":" ","ALLEY":" ","HOUSE_NO":"５８號","E_COORD97":182078.94,"N_COORD97":2540307.25,"ADDRESS":"花園二街５８號","OBJECTID":607344},"geometry":{"x":182078.94000000041,"y":2540307.2500000019}},{"attributes":{"ID":607372,"DIS_CODE":0,"TOWNNAME":"關廟區","LI":"北花里","LIN":"3鄰","STREET":"花園二街","SECT":" ","MAREA":" ","LANE":" ","ALLEY":" ","HOUSE_NO":"６０號","E_COORD97":182074.34,"N_COORD97":2540307.25,"ADDRESS":"花園二街６０號","OBJECTID":607345},"geometry":{"x":182074.34000000078,"y":2540307.2500000019}},{"attributes":{"ID":607373,"DIS_CODE":0,"TOWNNAME":"北區","LI":"開元里","LIN":"3鄰","STREET":"北園街","SECT":" ","MAREA":" ","LANE":" ","ALLEY":" ","HOUSE_NO":"１０３號","E_COORD97":170336.37,"N_COORD97":2545876.7400000002,"ADDRESS":"北園街１０３號","OBJECTID":607346},"geometry":{"x":170336.37000000011,"y":2545876.7400000002}},{"attributes":{"ID":607374,"DIS_CODE":0,"TOWNNAME":"北區","LI":"開元里","LIN":"3鄰","STREET":"北園街","SECT":" ","MAREA":" ","LANE":" ","ALLEY":" ","HOUSE_NO":"１０５號","E_COORD97":170336.91,"N_COORD97":2545880.8799999999,"ADDRESS":"北園街１０５號","OBJECTID":607347},"geometry":{"x":170336.91000000108,"y":2545880.879999999}},{"attributes":{"ID":607375,"DIS_CODE":0,"TOWNNAME":"北區","LI":"開元里","LIN":"3鄰","STREET":"北園街","SECT":" ","MAREA":" ","LANE":" ","ALLEY":" ","HOUSE_NO":"１０７號","E_COORD97":170337.23999999999,"N_COORD97":2545885.6699999999,"ADDRESS":"北園街１０７號","OBJECTID":607348},"geometry":{"x":170337.24000000022,"y":2545885.6700000018}},{"attributes":{"ID":607376,"DIS_CODE":0,"TOWNNAME":"北區","LI":"開元里","LIN":"3鄰","STREET":"北園街","SECT":" ","MAREA":" ","LANE":" ","ALLEY":" ","HOUSE_NO":"１０７號之１","E_COORD97":170337.23999999999,"N_COORD97":2545890.1299999999,"ADDRESS":"北園街１０７號之１","OBJECTID":607349},"geometry":{"x":170337.24000000022,"y":2545890.1299999971}},{"attributes":{"ID":607377,"DIS_CODE":0,"TOWNNAME":"北區","LI":"開元里","LIN":"3鄰","STREET":"北園街","SECT":" ","MAREA":" ","LANE":" ","ALLEY":" ","HOUSE_NO":"１０７號之２","E_COORD97":170335.54000000001,"N_COORD97":2545894.9199999999,"ADDRESS":"北園街１０７號之２","OBJECTID":607350},"geometry":{"x":170335.5400000019,"y":2545894.9199999999}},{"attributes":{"ID":607378,"DIS_CODE":0,"TOWNNAME":"北區","LI":"開元里","LIN":"3鄰","STREET":"北園街","SECT":" ","MAREA":" ","LANE":" ","ALLEY":" ","HOUSE_NO":"１０７號之３","E_COORD97":170333.42999999999,"N_COORD97":2545900.1899999999,"ADDRESS":"北園街１０７號之３","OBJECTID":607351},"geometry":{"x":170333.4299999997,"y":2545900.1899999995}},{"attributes":{"ID":607379,"DIS_CODE":0,"TOWNNAME":"仁德區","LI":"後壁里","LIN":"24鄰","STREET":"德洋路","SECT":" ","MAREA":" ","LANE":" ","ALLEY":" ","HOUSE_NO":"１０號","E_COORD97":173187.56,"N_COORD97":2538999.5099999998,"ADDRESS":"德洋路１０號","OBJECTID":607352},"geometry":{"x":173187.55999999959,"y":2538999.5100000035}},{"attributes":{"ID":607380,"DIS_CODE":0,"TOWNNAME":"仁德區","LI":"後壁里","LIN":"37鄰","STREET":"民安路","SECT":"一段","MAREA":" ","LANE":" ","ALLEY":" ","HOUSE_NO":"３９６號","E_COORD97":173155.92999999999,"N_COORD97":2539349.5600000001,"ADDRESS":"民安路一段３９６號","OBJECTID":607353},"geometry":{"x":173155.9299999997,"y":2539349.5600000024}},{"attributes":{"ID":607381,"DIS_CODE":0,"TOWNNAME":"仁德區","LI":"後壁里","LIN":"11鄰","STREET":"德善路","SECT":" ","MAREA":" ","LANE":" ","ALLEY":" ","HOUSE_NO":"２１３號","E_COORD97":173749.89999999999,"N_COORD97":2538760.02,"ADDRESS":"德善路２１３號","OBJECTID":607354},"geometry":{"x":173749.9000000013,"y":2538760.0200000014}},{"attributes":{"ID":607382,"DIS_CODE":0,"TOWNNAME":"北區","LI":"元寶里","LIN":"3鄰","STREET":"北園街","SECT":" ","MAREA":" ","LANE":" ","ALLEY":" ","HOUSE_NO":"５６號","E_COORD97":170366.94,"N_COORD97":2545793.2400000002,"ADDRESS":"北園街５６號","OBJECTID":607355},"geometry":{"x":170366.93999999948,"y":2545793.2400000021}},{"attributes":{"ID":607383,"DIS_CODE":0,"TOWNNAME":"北區","LI":"元寶里","LIN":"3鄰","STREET":"北園街","SECT":" ","MAREA":" ","LANE":" ","ALLEY":" ","HOUSE_NO":"５８號","E_COORD97":170365.81,"N_COORD97":2545797.96,"ADDRESS":"北園街５８號","OBJECTID":607356},"geometry":{"x":170365.81000000052,"y":2545797.9600000009}},{"attributes":{"ID":607384,"DIS_CODE":0,"TOWNNAME":"北區","LI":"元寶里","LIN":"3鄰","STREET":"北園街","SECT":" ","MAREA":" ","LANE":" ","ALLEY":" ","HOUSE_NO":"６０號","E_COORD97":170365.81,"N_COORD97":2545801.1000000001,"ADDRESS":"北園街６０號","OBJECTID":607357},"geometry":{"x":170365.81000000052,"y":2545801.1000000015}},{"attributes":{"ID":607385,"DIS_CODE":0,"TOWNNAME":"北區","LI":"元寶里","LIN":"3鄰","STREET":"北園街","SECT":" ","MAREA":" ","LANE":" ","ALLEY":" ","HOUSE_NO":"６２號","E_COORD97":170364.91,"N_COORD97":2545805.8300000001,"ADDRESS":"北園街６２號","OBJECTID":607358},"geometry":{"x":170364.91000000015,"y":2545805.8300000019}},{"attributes":{"ID":607386,"DIS_CODE":0,"TOWNNAME":"北區","LI":"元寶里","LIN":"3鄰","STREET":"北園街","SECT":" ","MAREA":" ","LANE":" ","ALLEY":" ","HOUSE_NO":"６４號","E_COORD97":170364.45999999999,"N_COORD97":2545811,"ADDRESS":"北園街６４號","OBJECTID":607359},"geometry":{"x":170364.45999999996,"y":2545811.0000000037}},{"attributes":{"ID":607387,"DIS_CODE":0,"TOWNNAME":"北區","LI":"元寶里","LIN":"3鄰","STREET":"北園街","SECT":" ","MAREA":" ","LANE":" ","ALLEY":" ","HOUSE_NO":"６６號","E_COORD97":170364.45999999999,"N_COORD97":2545814.5899999999,"ADDRESS":"北園街６６號","OBJECTID":607360},"geometry":{"x":170364.45999999996,"y":2545814.5900000017}},{"attributes":{"ID":607388,"DIS_CODE":0,"TOWNNAME":"北區","LI":"元寶里","LIN":"3鄰","STREET":"北園街","SECT":" ","MAREA":" ","LANE":" ","ALLEY":" ","HOUSE_NO":"６８號","E_COORD97":170362.69,"N_COORD97":2545817.73,"ADDRESS":"北園街６８號","OBJECTID":607361},"geometry":{"x":170362.69000000134,"y":2545817.7300000023}},{"attributes":{"ID":607389,"DIS_CODE":0,"TOWNNAME":"北區","LI":"元寶里","LIN":"3鄰","STREET":"北園街","SECT":" ","MAREA":" ","LANE":" ","ALLEY":" ","HOUSE_NO":"７０號","E_COORD97":170359.95999999999,"N_COORD97":2545820.8900000001,"ADDRESS":"北園街７０號","OBJECTID":607362},"geometry":{"x":170359.96000000089,"y":2545820.8900000006}},{"attributes":{"ID":607390,"DIS_CODE":0,"TOWNNAME":"北區","LI":"元寶里","LIN":"3鄰","STREET":"北園街","SECT":" ","MAREA":" ","LANE":" ","ALLEY":" ","HOUSE_NO":"７２號","E_COORD97":170359.95999999999,"N_COORD97":2545828.98,"ADDRESS":"北園街７２號","OBJECTID":607363},"geometry":{"x":170359.96000000089,"y":2545828.9800000023}},{"attributes":{"ID":607391,"DIS_CODE":0,"TOWNNAME":"新營區","LI":"埤寮里","LIN":"3鄰","STREET":"建國路","SECT":" ","MAREA":" ","LANE":" ","ALLEY":" ","HOUSE_NO":"４４號","E_COORD97":179942.41,"N_COORD97":2581117.9199999999,"ADDRESS":"建國路４４號","OBJECTID":607364},"geometry":{"x":179942.41000000015,"y":2581117.9199999999}},{"attributes":{"ID":607392,"DIS_CODE":0,"TOWNNAME":"新營區","LI":"延平里","LIN":"3鄰","STREET":"長春街","SECT":" ","MAREA":" ","LANE":" ","ALLEY":" ","HOUSE_NO":"１９號","E_COORD97":179753.713403,"N_COORD97":2577907.6927499999,"ADDRESS":"長春街１９號","OBJECTID":607365},"geometry":{"x":179753.71340299957,"y":2577907.6927479971}},{"attributes":{"ID":607393,"DIS_CODE":0,"TOWNNAME":"新營區","LI":"新東里","LIN":"3鄰","STREET":"東大街","SECT":" ","MAREA":" ","LANE":" ","ALLEY":" ","HOUSE_NO":"３３號","E_COORD97":180996.70999999999,"N_COORD97":2579125.0800000001,"ADDRESS":"東大街３３號","OBJECTID":607366},"geometry":{"x":180996.70999999996,"y":2579125.0800000019}},{"attributes":{"ID":607394,"DIS_CODE":0,"TOWNNAME":"新營區","LI":"好平里","LIN":"3鄰","STREET":"新進路","SECT":"二段","MAREA":" ","LANE":" ","ALLEY":" ","HOUSE_NO":"７２之１號","E_COORD97":179568.85000000001,"N_COORD97":2577748.6600000001,"ADDRESS":"新進路二段７２之１號","OBJECTID":607367},"geometry":{"x":179568.85000000056,"y":2577748.660000002}},{"attributes":{"ID":607395,"DIS_CODE":0,"TOWNNAME":"新營區","LI":"埤寮里","LIN":"3鄰","STREET":"建國路","SECT":" ","MAREA":" ","LANE":" ","ALLEY":" ","HOUSE_NO":"３２號","E_COORD97":180008.82999999999,"N_COORD97":2581104.3199999998,"ADDRESS":"建國路３２號","OBJECTID":607368},"geometry":{"x":180008.83000000007,"y":2581104.3200000022}},{"attributes":{"ID":607396,"DIS_CODE":0,"TOWNNAME":"新營區","LI":"民榮里","LIN":"3鄰","STREET":"新進路","SECT":"二段","MAREA":" ","LANE":" ","ALLEY":" ","HOUSE_NO":"５００之２號","E_COORD97":178673.37,"N_COORD97":2578038.6800000002,"ADDRESS":"新進路二段５００之２號","OBJECTID":607369},"geometry":{"x":178673.37000000011,"y":2578038.6800000016}},{"attributes":{"ID":607397,"DIS_CODE":0,"TOWNNAME":"新營區","LI":"新南里","LIN":"3鄰","STREET":"新北街","SECT":" ","MAREA":" ","LANE":" ","ALLEY":" ","HOUSE_NO":"９９之１號","E_COORD97":178717.66,"N_COORD97":2578798.1699999999,"ADDRESS":"新北街９９之１號","OBJECTID":607370},"geometry":{"x":178717.66000000108,"y":2578798.1700000037}},{"attributes":{"ID":607398,"DIS_CODE":0,"TOWNNAME":"新營區","LI":"埤寮里","LIN":"3鄰","STREET":"建國路","SECT":" ","MAREA":" ","LANE":" ","ALLEY":" ","HOUSE_NO":"３５之２２號","E_COORD97":179900.85000000001,"N_COORD97":2581049.52,"ADDRESS":"建國路３５之２２號","OBJECTID":607371},"geometry":{"x":179900.85000000056,"y":2581049.5199999996}},{"attributes":{"ID":607399,"DIS_CODE":0,"TOWNNAME":"新營區","LI":"大宏里","LIN":"3鄰","STREET":"綠川北街","SECT":" ","MAREA":" ","LANE":" ","ALLEY":" ","HOUSE_NO":"１０６號","E_COORD97":180342.39000000001,"N_COORD97":2578720.6099999999,"ADDRESS":"綠川北街１０６號","OBJECTID":607372},"geometry":{"x":180342.38999999966,"y":2578720.6100000013}},{"attributes":{"ID":607400,"DIS_CODE":0,"TOWNNAME":"新營區","LI":"新南里","LIN":"3鄰","STREET":"新北街","SECT":" ","MAREA":" ","LANE":" ","ALLEY":" ","HOUSE_NO":"９９之４號","E_COORD97":178718.59,"N_COORD97":2578778.23,"ADDRESS":"新北街９９之４號","OBJECTID":607373},"geometry":{"x":178718.58999999985,"y":2578778.2300000023}},{"attributes":{"ID":607401,"DIS_CODE":0,"TOWNNAME":"新營區","LI":"埤寮里","LIN":"3鄰","STREET":"建國路","SECT":" ","MAREA":" ","LANE":" ","ALLEY":" ","HOUSE_NO":"３５號","E_COORD97":180002.51999999999,"N_COORD97":2581066.6899999999,"ADDRESS":"建國路３５號","OBJECTID":607374},"geometry":{"x":180002.51999999955,"y":2581066.6900000013}},{"attributes":{"ID":607402,"DIS_CODE":0,"TOWNNAME":"新營區","LI":"新東里","LIN":"3鄰","STREET":"東大街","SECT":" ","MAREA":" ","LANE":" ","ALLEY":" ","HOUSE_NO":"３５號","E_COORD97":180997.76000000001,"N_COORD97":2579129.5099999998,"ADDRESS":"東大街３５號","OBJECTID":607375},"geometry":{"x":180997.75999999978,"y":2579129.5100000016}},{"attributes":{"ID":607403,"DIS_CODE":0,"TOWNNAME":"新營區","LI":"新東里","LIN":"3鄰","STREET":"東大街","SECT":" ","MAREA":" ","LANE":" ","ALLEY":" ","HOUSE_NO":"４２號","E_COORD97":181012.04000000001,"N_COORD97":2579121.6899999999,"ADDRESS":"東大街４２號","OBJECTID":607376},"geometry":{"x":181012.04000000097,"y":2579121.6899999995}},{"attributes":{"ID":607404,"DIS_CODE":0,"TOWNNAME":"新營區","LI":"新南里","LIN":"3鄰","STREET":"新北街","SECT":" ","MAREA":" ","LANE":" ","ALLEY":" ","HOUSE_NO":"９３號","E_COORD97":178752.95999999999,"N_COORD97":2578787.9700000002,"ADDRESS":"新北街９３號","OBJECTID":607377},"geometry":{"x":178752.96000000089,"y":2578787.9700000025}},{"attributes":{"ID":607405,"DIS_CODE":0,"TOWNNAME":"新營區","LI":"新南里","LIN":"3鄰","STREET":"新北街","SECT":" ","MAREA":" ","LANE":" ","ALLEY":" ","HOUSE_NO":"６５號","E_COORD97":178799.81,"N_COORD97":2578736.8100000001,"ADDRESS":"新北街６５號","OBJECTID":607378},"geometry":{"x":178799.80999999959,"y":2578736.8100000042}},{"attributes":{"ID":607406,"DIS_CODE":0,"TOWNNAME":"新營區","LI":"新南里","LIN":"3鄰","STREET":"新北街","SECT":" ","MAREA":" ","LANE":" ","ALLEY":" ","HOUSE_NO":"８７號","E_COORD97":178762.22,"N_COORD97":2578779.0699999998,"ADDRESS":"新北街８７號","OBJECTID":607379},"geometry":{"x":178762.21999999974,"y":2578779.070000004}},{"attributes":{"ID":607407,"DIS_CODE":0,"TOWNNAME":"新營區","LI":"新北里","LIN":"3鄰","STREET":"三興街","SECT":" ","MAREA":" ","LANE":" ","ALLEY":" ","HOUSE_NO":"７９號之７","E_COORD97":179413.01000000001,"N_COORD97":2579021.8599999999,"ADDRESS":"三興街７９號之７","OBJECTID":607380},"geometry":{"x":179413.00999999885,"y":2579021.8599999994}},{"attributes":{"ID":607408,"DIS_CODE":0,"TOWNNAME":"新營區","LI":"新東里","LIN":"3鄰","STREET":"東大街","SECT":" ","MAREA":" ","LANE":" ","ALLEY":" ","HOUSE_NO":"２號","E_COORD97":180993,"N_COORD97":2579038.7200000002,"ADDRESS":"東大街２號","OBJECTID":607381},"geometry":{"x":180993,"y":2579038.7200000007}},{"attributes":{"ID":607409,"DIS_CODE":0,"TOWNNAME":"新營區","LI":"新北里","LIN":"3鄰","STREET":"三興街","SECT":" ","MAREA":" ","LANE":" ","ALLEY":" ","HOUSE_NO":"７９號","E_COORD97":179444.53,"N_COORD97":2579018.3300000001,"ADDRESS":"三興街７９號","OBJECTID":607382},"geometry":{"x":179444.53000000119,"y":2579018.3300000019}},{"attributes":{"ID":607410,"DIS_CODE":0,"TOWNNAME":"鹽水區","LI":"中境里","LIN":"3鄰","STREET":"三福路","SECT":" ","MAREA":" ","LANE":" ","ALLEY":" ","HOUSE_NO":"１３號","E_COORD97":175035.42000000001,"N_COORD97":2579991.77,"ADDRESS":"三福路１３號","OBJECTID":607383},"geometry":{"x":175035.42000000086,"y":2579991.7700000014}},{"attributes":{"ID":607411,"DIS_CODE":0,"TOWNNAME":"鹽水區","LI":"中境里","LIN":"3鄰","STREET":"三福路","SECT":" ","MAREA":" ","LANE":" ","ALLEY":" ","HOUSE_NO":"１５號","E_COORD97":175030.60999999999,"N_COORD97":2579992.02,"ADDRESS":"三福路１５號","OBJECTID":607384},"geometry":{"x":175030.61000000034,"y":2579992.0199999977}},{"attributes":{"ID":607412,"DIS_CODE":0,"TOWNNAME":"鹽水區","LI":"中境里","LIN":"3鄰","STREET":"三福路","SECT":" ","MAREA":" ","LANE":" ","ALLEY":" ","HOUSE_NO":"１７號","E_COORD97":175025.79000000001,"N_COORD97":2579992.2799999998,"ADDRESS":"三福路１７號","OBJECTID":607385},"geometry":{"x":175025.79000000004,"y":2579992.2799999993}},{"attributes":{"ID":607413,"DIS_CODE":0,"TOWNNAME":"鹽水區","LI":"中境里","LIN":"3鄰","STREET":"三福路","SECT":" ","MAREA":" ","LANE":" ","ALLEY":" ","HOUSE_NO":"１號","E_COORD97":175068.51999999999,"N_COORD97":2579989.4700000002,"ADDRESS":"三福路１號","OBJECTID":607386},"geometry":{"x":175068.52000000048,"y":2579989.4700000007}},{"attributes":{"ID":607414,"DIS_CODE":0,"TOWNNAME":"鹽水區","LI":"中境里","LIN":"3鄰","STREET":"三福路","SECT":" ","MAREA":" ","LANE":" ","ALLEY":" ","HOUSE_NO":"３號","E_COORD97":175064.14000000001,"N_COORD97":2579989.6200000001,"ADDRESS":"三福路３號","OBJECTID":607387},"geometry":{"x":175064.1400000006,"y":2579989.6200000048}},{"attributes":{"ID":607415,"DIS_CODE":0,"TOWNNAME":"鹽水區","LI":"武廟里","LIN":"3鄰","STREET":"三福路","SECT":" ","MAREA":" ","LANE":" ","ALLEY":" ","HOUSE_NO":"５８號","E_COORD97":174982.16,"N_COORD97":2580025.3300000001,"ADDRESS":"三福路５８號","OBJECTID":607388},"geometry":{"x":174982.16000000015,"y":2580025.3300000019}},{"attributes":{"ID":607416,"DIS_CODE":0,"TOWNNAME":"鹽水區","LI":"中境里","LIN":"3鄰","STREET":"三福路","SECT":" ","MAREA":" ","LANE":" ","ALLEY":" ","HOUSE_NO":"５號","E_COORD97":175059.64999999999,"N_COORD97":2579989.7999999998,"ADDRESS":"三福路５號","OBJECTID":607389},"geometry":{"x":175059.65000000224,"y":2579989.8000000026}},{"attributes":{"ID":607417,"DIS_CODE":0,"TOWNNAME":"鹽水區","LI":"武廟里","LIN":"3鄰","STREET":"三福路","SECT":" ","MAREA":" ","LANE":" ","ALLEY":" ","HOUSE_NO":"６０號","E_COORD97":174977.54999999999,"N_COORD97":2580025.8900000001,"ADDRESS":"三福路６０號","OBJECTID":607390},"geometry":{"x":174977.54999999981,"y":2580025.8900000025}},{"attributes":{"ID":607418,"DIS_CODE":0,"TOWNNAME":"鹽水區","LI":"武廟里","LIN":"3鄰","STREET":"三福路","SECT":" ","MAREA":" ","LANE":" ","ALLEY":" ","HOUSE_NO":"６２號","E_COORD97":174972.29999999999,"N_COORD97":2580026.3599999999,"ADDRESS":"三福路６２號","OBJECTID":607391},"geometry":{"x":174972.30000000075,"y":2580026.3599999994}},{"attributes":{"ID":607419,"DIS_CODE":0,"TOWNNAME":"鹽水區","LI":"武廟里","LIN":"3鄰","STREET":"三福路","SECT":" ","MAREA":" ","LANE":" ","ALLEY":" ","HOUSE_NO":"６４號","E_COORD97":174967.06,"N_COORD97":2580026.7599999998,"ADDRESS":"三福路６４號","OBJECTID":607392},"geometry":{"x":174967.05999999959,"y":2580026.7599999998}},{"attributes":{"ID":607420,"DIS_CODE":0,"TOWNNAME":"鹽水區","LI":"武廟里","LIN":"3鄰","STREET":"三福路","SECT":" ","MAREA":" ","LANE":" ","ALLEY":" ","HOUSE_NO":"６６號","E_COORD97":174962.53,"N_COORD97":2580027.2799999998,"ADDRESS":"三福路６６號","OBJECTID":607393},"geometry":{"x":174962.53000000119,"y":2580027.2799999975}},{"attributes":{"ID":607421,"DIS_CODE":0,"TOWNNAME":"鹽水區","LI":"武廟里","LIN":"3鄰","STREET":"三福路","SECT":" ","MAREA":" ","LANE":" ","ALLEY":" ","HOUSE_NO":"６８號","E_COORD97":174957.22,"N_COORD97":2580027.5699999998,"ADDRESS":"三福路６８號","OBJECTID":607394},"geometry":{"x":174957.22000000067,"y":2580027.5700000022}},{"attributes":{"ID":607422,"DIS_CODE":0,"TOWNNAME":"鹽水區","LI":"中境里","LIN":"3鄰","STREET":"三福路","SECT":" ","MAREA":" ","LANE":" ","ALLEY":" ","HOUSE_NO":"７號","E_COORD97":175052.07999999999,"N_COORD97":2579990.2200000002,"ADDRESS":"三福路７號","OBJECTID":607395},"geometry":{"x":175052.08000000101,"y":2579990.2200000025}},{"attributes":{"ID":607423,"DIS_CODE":0,"TOWNNAME":"鹽水區","LI":"中境里","LIN":"3鄰","STREET":"三福路","SECT":" ","MAREA":" ","LANE":" ","ALLEY":" ","HOUSE_NO":"９號","E_COORD97":175045.13,"N_COORD97":2579990.7400000002,"ADDRESS":"三福路９號","OBJECTID":607396},"geometry":{"x":175045.12999999989,"y":2579990.7400000002}},{"attributes":{"ID":607424,"DIS_CODE":0,"TOWNNAME":"鹽水區","LI":"水正里","LIN":"3鄰","STREET":"中正路","SECT":" ","MAREA":" ","LANE":" ","ALLEY":" ","HOUSE_NO":"３號","E_COORD97":175154.20999999999,"N_COORD97":2579971.48,"ADDRESS":"中正路３號","OBJECTID":607397},"geometry":{"x":175154.21000000089,"y":2579971.4800000004}},{"attributes":{"ID":607425,"DIS_CODE":0,"TOWNNAME":"鹽水區","LI":"水正里","LIN":"3鄰","STREET":"中正路","SECT":" ","MAREA":" ","LANE":" ","ALLEY":" ","HOUSE_NO":"５號之１","E_COORD97":175150.5,"N_COORD97":2579968.5099999998,"ADDRESS":"中正路５號之１","OBJECTID":607398},"geometry":{"x":175150.50000000093,"y":2579968.5099999979}},{"attributes":{"ID":607426,"DIS_CODE":0,"TOWNNAME":"鹽水區","LI":"水正里","LIN":"3鄰","STREET":"中正路","SECT":" ","MAREA":" ","LANE":" ","ALLEY":" ","HOUSE_NO":"５號","E_COORD97":175146.28,"N_COORD97":2579965.3500000001,"ADDRESS":"中正路５號","OBJECTID":607399},"geometry":{"x":175146.28000000026,"y":2579965.3499999996}},{"attributes":{"ID":607427,"DIS_CODE":0,"TOWNNAME":"鹽水區","LI":"水正里","LIN":"3鄰","STREET":"中正路","SECT":" ","MAREA":" ","LANE":" ","ALLEY":" ","HOUSE_NO":"７號","E_COORD97":175144.35000000001,"N_COORD97":2579961.5699999998,"ADDRESS":"中正路７號","OBJECTID":607400},"geometry":{"x":175144.35000000056,"y":2579961.5700000003}}]}