{"displayFieldName":"TOWNNAME","fieldAliases":{"ID":"ID","DIS_CODE":"DIS_CODE","TOWNNAME":"TOWNNAME","LI":"LI","LIN":"LIN","STREET":"STREET","SECT":"SECT","MAREA":"MAREA","LANE":"LANE","ALLEY":"ALLEY","HOUSE_NO":"HOUSE_NO","E_COORD97":"E_COORD97","N_COORD97":"N_COORD97","ADDRESS":"ADDRESS","OBJECTID":"OBJECTID"},"geometryType":"esriGeometryPoint","spatialReference":{"wkid":102443,"latestWkid":3826},"fields":[{"name":"ID","type":"esriFieldTypeDouble","alias":"ID"},{"name":"DIS_CODE","type":"esriFieldTypeInteger","alias":"DIS_CODE"},{"name":"TOWNNAME","type":"esriFieldTypeString","alias":"TOWNNAME","length":8},{"name":"LI","type":"esriFieldTypeString","alias":"LI","length":8},{"name":"LIN","type":"esriFieldTypeString","alias":"LIN","length":12},{"name":"STREET","type":"esriFieldTypeString","alias":"STREET","length":20},{"name":"SECT","type":"esriFieldTypeString","alias":"SECT","length":8},{"name":"MAREA","type":"esriFieldTypeString","alias":"MAREA","length":12},{"name":"LANE","type":"esriFieldTypeString","alias":"LANE","length":10},{"name":"ALLEY","type":"esriFieldTypeString","alias":"ALLEY","length":10},{"name":"HOUSE_NO","type":"esriFieldTypeString","alias":"HOUSE_NO","length":20},{"name":"E_COORD97","type":"esriFieldTypeDouble","alias":"E_COORD97"},{"name":"N_COORD97","type":"esriFieldTypeDouble","alias":"N_COORD97"},{"name":"ADDRESS","type":"esriFieldTypeString","alias":"ADDRESS","length":50},{"name":"OBJECTID","type":"esriFieldTypeOID","alias":"OBJECTID"}],"features":[{"attributes":{"ID":579828,"DIS_CODE":0,"TOWNNAME":"善化區","LI":"光文里","LIN":"16鄰","STREET":"民權路","SECT":" ","MAREA":" ","LANE":" ","ALLEY":" ","HOUSE_NO":"１９２號","E_COORD97":178207.07000000001,"N_COORD97":2559016.0099999998,"ADDRESS":"民權路１９２號","OBJECTID":579801},"geometry":{"x":178207.07000000123,"y":2559016.0099999979}},{"attributes":{"ID":579829,"DIS_CODE":0,"TOWNNAME":"善化區","LI":"文昌里","LIN":"16鄰","STREET":"中正路","SECT":" ","MAREA":" ","LANE":" ","ALLEY":" ","HOUSE_NO":"４８５號","E_COORD97":177678.73999999999,"N_COORD97":2558965.25,"ADDRESS":"中正路４８５號","OBJECTID":579802},"geometry":{"x":177678.74000000022,"y":2558965.2500000019}},{"attributes":{"ID":579830,"DIS_CODE":0,"TOWNNAME":"善化區","LI":"文昌里","LIN":"16鄰","STREET":"中正路","SECT":" ","MAREA":" ","LANE":" ","ALLEY":" ","HOUSE_NO":"３４６號","E_COORD97":177708.62,"N_COORD97":2558594.5,"ADDRESS":"中正路３４６號","OBJECTID":579803},"geometry":{"x":177708.62000000011,"y":2558594.5}},{"attributes":{"ID":579831,"DIS_CODE":0,"TOWNNAME":"善化區","LI":"光文里","LIN":"16鄰","STREET":"中山路","SECT":" ","MAREA":" ","LANE":" ","ALLEY":" ","HOUSE_NO":"２１５之２號","E_COORD97":178241.85999999999,"N_COORD97":2559116.52,"ADDRESS":"中山路２１５之２號","OBJECTID":579804},"geometry":{"x":178241.86000000127,"y":2559116.5199999996}},{"attributes":{"ID":579832,"DIS_CODE":0,"TOWNNAME":"善化區","LI":"東關里","LIN":"16鄰","STREET":"中興路","SECT":" ","MAREA":" ","LANE":" ","ALLEY":" ","HOUSE_NO":"１０３號","E_COORD97":177470.85000000001,"N_COORD97":2559002.75,"ADDRESS":"中興路１０３號","OBJECTID":579805},"geometry":{"x":177470.84999999963,"y":2559002.7500000019}},{"attributes":{"ID":579833,"DIS_CODE":0,"TOWNNAME":"善化區","LI":"文昌里","LIN":"16鄰","STREET":"中正路","SECT":" ","MAREA":" ","LANE":" ","ALLEY":" ","HOUSE_NO":"４４１號","E_COORD97":177681.20000000001,"N_COORD97":2558776.75,"ADDRESS":"中正路４４１號","OBJECTID":579806},"geometry":{"x":177681.20000000019,"y":2558776.75}},{"attributes":{"ID":579834,"DIS_CODE":0,"TOWNNAME":"善化區","LI":"文昌里","LIN":"16鄰","STREET":"中正路","SECT":" ","MAREA":" ","LANE":" ","ALLEY":" ","HOUSE_NO":"４５１號","E_COORD97":177657.16,"N_COORD97":2558816,"ADDRESS":"中正路４５１號","OBJECTID":579807},"geometry":{"x":177657.16000000015,"y":2558816}},{"attributes":{"ID":579835,"DIS_CODE":0,"TOWNNAME":"善化區","LI":"光文里","LIN":"16鄰","STREET":"民族路","SECT":" ","MAREA":" ","LANE":" ","ALLEY":" ","HOUSE_NO":"１５７號","E_COORD97":178152.95999999999,"N_COORD97":2559072.5099999998,"ADDRESS":"民族路１５７號","OBJECTID":579808},"geometry":{"x":178152.96000000089,"y":2559072.5099999998}},{"attributes":{"ID":579836,"DIS_CODE":0,"TOWNNAME":"善化區","LI":"文昌里","LIN":"16鄰","STREET":"中正路","SECT":" ","MAREA":" ","LANE":" ","ALLEY":" ","HOUSE_NO":"４９３號","E_COORD97":177678.32000000001,"N_COORD97":2558982.5,"ADDRESS":"中正路４９３號","OBJECTID":579809},"geometry":{"x":177678.3200000003,"y":2558982.5000000037}},{"attributes":{"ID":579837,"DIS_CODE":0,"TOWNNAME":"善化區","LI":"光文里","LIN":"16鄰","STREET":"民權路","SECT":" ","MAREA":" ","LANE":" ","ALLEY":" ","HOUSE_NO":"２１２號","E_COORD97":178157.95000000001,"N_COORD97":2559008.0800000001,"ADDRESS":"民權路２１２號","OBJECTID":579810},"geometry":{"x":178157.95000000205,"y":2559008.0800000001}},{"attributes":{"ID":579838,"DIS_CODE":0,"TOWNNAME":"善化區","LI":"東關里","LIN":"16鄰","STREET":"中興路","SECT":" ","MAREA":" ","LANE":" ","ALLEY":" ","HOUSE_NO":"９９號","E_COORD97":177478.47,"N_COORD97":2559005.25,"ADDRESS":"中興路９９號","OBJECTID":579811},"geometry":{"x":177478.46999999974,"y":2559005.2500000019}},{"attributes":{"ID":579839,"DIS_CODE":0,"TOWNNAME":"善化區","LI":"文昌里","LIN":"16鄰","STREET":"中正路","SECT":" ","MAREA":" ","LANE":" ","ALLEY":" ","HOUSE_NO":"４１７號","E_COORD97":177684.07000000001,"N_COORD97":2558708.25,"ADDRESS":"中正路４１７號","OBJECTID":579812},"geometry":{"x":177684.06999999937,"y":2558708.25}},{"attributes":{"ID":579840,"DIS_CODE":0,"TOWNNAME":"善化區","LI":"坐駕里","LIN":"16鄰","STREET":"成功路","SECT":" ","MAREA":" ","LANE":" ","ALLEY":" ","HOUSE_NO":"４０７號","E_COORD97":179220.23999999999,"N_COORD97":2558803.5,"ADDRESS":"成功路４０７號","OBJECTID":579813},"geometry":{"x":179220.24000000022,"y":2558803.5000000019}},{"attributes":{"ID":579841,"DIS_CODE":0,"TOWNNAME":"善化區","LI":"坐駕里","LIN":"16鄰","STREET":"大成路","SECT":" ","MAREA":" ","LANE":" ","ALLEY":" ","HOUSE_NO":"１１７號之１１","E_COORD97":178625.72,"N_COORD97":2558826.77,"ADDRESS":"大成路１１７號之１１","OBJECTID":579814},"geometry":{"x":178625.72000000067,"y":2558826.7699999996}},{"attributes":{"ID":579842,"DIS_CODE":0,"TOWNNAME":"善化區","LI":"坐駕里","LIN":"16鄰","STREET":"大成路","SECT":" ","MAREA":" ","LANE":" ","ALLEY":" ","HOUSE_NO":"１１７號之１６","E_COORD97":178622.01999999999,"N_COORD97":2558803.27,"ADDRESS":"大成路１１７號之１６","OBJECTID":579815},"geometry":{"x":178622.01999999955,"y":2558803.2699999996}},{"attributes":{"ID":579843,"DIS_CODE":0,"TOWNNAME":"善化區","LI":"文昌里","LIN":"16鄰","STREET":"光復路","SECT":" ","MAREA":" ","LANE":" ","ALLEY":" ","HOUSE_NO":"６號","E_COORD97":177660.95999999999,"N_COORD97":2558754.7599999998,"ADDRESS":"光復路６號","OBJECTID":579816},"geometry":{"x":177660.96000000183,"y":2558754.7600000016}},{"attributes":{"ID":579844,"DIS_CODE":0,"TOWNNAME":"善化區","LI":"光文里","LIN":"16鄰","STREET":"和平路","SECT":" ","MAREA":" ","LANE":" ","ALLEY":" ","HOUSE_NO":"１７０號","E_COORD97":178115.64999999999,"N_COORD97":2559027.25,"ADDRESS":"和平路１７０號","OBJECTID":579817},"geometry":{"x":178115.65000000037,"y":2559027.25}},{"attributes":{"ID":579845,"DIS_CODE":0,"TOWNNAME":"仁德區","LI":"後壁里","LIN":"16鄰","STREET":"德南路","SECT":" ","MAREA":" ","LANE":" ","ALLEY":" ","HOUSE_NO":"２３號","E_COORD97":173323.09,"N_COORD97":2538794.7599999998,"ADDRESS":"德南路２３號","OBJECTID":579818},"geometry":{"x":173323.08999999985,"y":2538794.7600000016}},{"attributes":{"ID":579846,"DIS_CODE":0,"TOWNNAME":"仁德區","LI":"一甲里","LIN":"16鄰","STREET":"中清路","SECT":" ","MAREA":" ","LANE":" ","ALLEY":" ","HOUSE_NO":"２６１號","E_COORD97":173735.38,"N_COORD97":2541790.0499999998,"ADDRESS":"中清路２６１號","OBJECTID":579819},"geometry":{"x":173735.38000000082,"y":2541790.0500000007}},{"attributes":{"ID":579847,"DIS_CODE":0,"TOWNNAME":"仁德區","LI":"太子里","LIN":"16鄰","STREET":"太興路","SECT":" ","MAREA":" ","LANE":" ","ALLEY":" ","HOUSE_NO":"１４１號","E_COORD97":174106.39000000001,"N_COORD97":2543637.2599999998,"ADDRESS":"太興路１４１號","OBJECTID":579820},"geometry":{"x":174106.3900000006,"y":2543637.2600000016}},{"attributes":{"ID":579848,"DIS_CODE":0,"TOWNNAME":"仁德區","LI":"太子里","LIN":"16鄰","STREET":"太子北路","SECT":" ","MAREA":" ","LANE":" ","ALLEY":" ","HOUSE_NO":"９５號","E_COORD97":174067.01000000001,"N_COORD97":2543661.5,"ADDRESS":"太子北路９５號","OBJECTID":579821},"geometry":{"x":174067.01000000071,"y":2543661.5000000037}},{"attributes":{"ID":579849,"DIS_CODE":0,"TOWNNAME":"仁德區","LI":"土庫里","LIN":"16鄰","STREET":"土庫二街","SECT":" ","MAREA":" ","LANE":" ","ALLEY":" ","HOUSE_NO":"１０３號","E_COORD97":174607,"N_COORD97":2542911.5,"ADDRESS":"土庫二街１０３號","OBJECTID":579822},"geometry":{"x":174607,"y":2542911.5}},{"attributes":{"ID":579850,"DIS_CODE":0,"TOWNNAME":"仁德區","LI":"一甲里","LIN":"16鄰","STREET":"中清路","SECT":" ","MAREA":" ","LANE":" ","ALLEY":" ","HOUSE_NO":"２７５號","E_COORD97":173738.60999999999,"N_COORD97":2541823.54,"ADDRESS":"中清路２７５號","OBJECTID":579823},"geometry":{"x":173738.61000000034,"y":2541823.540000001}},{"attributes":{"ID":579851,"DIS_CODE":0,"TOWNNAME":"仁德區","LI":"二行里","LIN":"16鄰","STREET":"行大二街","SECT":" ","MAREA":" ","LANE":" ","ALLEY":" ","HOUSE_NO":"５５號","E_COORD97":169670.73999999999,"N_COORD97":2535228.5,"ADDRESS":"行大二街５５號","OBJECTID":579824},"geometry":{"x":169670.74000000022,"y":2535228.5}},{"attributes":{"ID":579852,"DIS_CODE":0,"TOWNNAME":"仁德區","LI":"仁義里","LIN":"16鄰","STREET":"義林路","SECT":" ","MAREA":" ","LANE":" ","ALLEY":" ","HOUSE_NO":"２９９號","E_COORD97":174567.14999999999,"N_COORD97":2541428.5099999998,"ADDRESS":"義林路２９９號","OBJECTID":579825},"geometry":{"x":174567.15000000037,"y":2541428.5100000016}},{"attributes":{"ID":579853,"DIS_CODE":0,"TOWNNAME":"仁德區","LI":"一甲里","LIN":"16鄰","STREET":"中清路","SECT":" ","MAREA":" ","LANE":" ","ALLEY":" ","HOUSE_NO":"２７９號","E_COORD97":173733.29999999999,"N_COORD97":2541834.29,"ADDRESS":"中清路２７９號","OBJECTID":579826},"geometry":{"x":173733.29999999981,"y":2541834.2899999972}},{"attributes":{"ID":579854,"DIS_CODE":0,"TOWNNAME":"仁德區","LI":"二行里","LIN":"16鄰","STREET":"行大二街","SECT":" ","MAREA":" ","LANE":" ","ALLEY":" ","HOUSE_NO":"５３號","E_COORD97":169673.23000000001,"N_COORD97":2535233,"ADDRESS":"行大二街５３號","OBJECTID":579827},"geometry":{"x":169673.23000000045,"y":2535233.0000000037}},{"attributes":{"ID":579855,"DIS_CODE":0,"TOWNNAME":"仁德區","LI":"一甲里","LIN":"16鄰","STREET":"中清路","SECT":" ","MAREA":" ","LANE":" ","ALLEY":" ","HOUSE_NO":"２７７號","E_COORD97":173738.17999999999,"N_COORD97":2541827.79,"ADDRESS":"中清路２７７號","OBJECTID":579828},"geometry":{"x":173738.18000000156,"y":2541827.7900000028}},{"attributes":{"ID":579856,"DIS_CODE":0,"TOWNNAME":"仁德區","LI":"二行里","LIN":"16鄰","STREET":"行大二街","SECT":" ","MAREA":" ","LANE":" ","ALLEY":" ","HOUSE_NO":"４３號","E_COORD97":169684.44,"N_COORD97":2535253,"ADDRESS":"行大二街４３號","OBJECTID":579829},"geometry":{"x":169684.44000000134,"y":2535253}},{"attributes":{"ID":579857,"DIS_CODE":0,"TOWNNAME":"仁德區","LI":"一甲里","LIN":"16鄰","STREET":"中清路","SECT":" ","MAREA":" ","LANE":" ","ALLEY":" ","HOUSE_NO":"２５９號","E_COORD97":173734.17000000001,"N_COORD97":2541785.7999999998,"ADDRESS":"中清路２５９號","OBJECTID":579830},"geometry":{"x":173734.16999999993,"y":2541785.8000000026}},{"attributes":{"ID":579858,"DIS_CODE":0,"TOWNNAME":"仁德區","LI":"一甲里","LIN":"16鄰","STREET":"中清路","SECT":" ","MAREA":" ","LANE":" ","ALLEY":" ","HOUSE_NO":"２５３號","E_COORD97":173729.73000000001,"N_COORD97":2541767.2999999998,"ADDRESS":"中清路２５３號","OBJECTID":579831},"geometry":{"x":173729.73000000045,"y":2541767.3000000007}},{"attributes":{"ID":579859,"DIS_CODE":0,"TOWNNAME":"仁德區","LI":"二行里","LIN":"16鄰","STREET":"行大街","SECT":" ","MAREA":" ","LANE":" ","ALLEY":" ","HOUSE_NO":"３２０號","E_COORD97":169704.17999999999,"N_COORD97":2535227,"ADDRESS":"行大街３２０號","OBJECTID":579832},"geometry":{"x":169704.18000000063,"y":2535227.0000000019}},{"attributes":{"ID":579860,"DIS_CODE":0,"TOWNNAME":"仁德區","LI":"一甲里","LIN":"16鄰","STREET":"中清路","SECT":" ","MAREA":" ","LANE":" ","ALLEY":" ","HOUSE_NO":"２６３號","E_COORD97":173733.51999999999,"N_COORD97":2541795.04,"ADDRESS":"中清路２６３號","OBJECTID":579833},"geometry":{"x":173733.51999999955,"y":2541795.0399999991}},{"attributes":{"ID":579861,"DIS_CODE":0,"TOWNNAME":"仁德區","LI":"二行里","LIN":"16鄰","STREET":"行大二街","SECT":" ","MAREA":" ","LANE":" ","ALLEY":" ","HOUSE_NO":"４１號","E_COORD97":169687.31,"N_COORD97":2535258.25,"ADDRESS":"行大二街４１號","OBJECTID":579834},"geometry":{"x":169687.31000000145,"y":2535258.2499999981}},{"attributes":{"ID":579862,"DIS_CODE":0,"TOWNNAME":"仁德區","LI":"二行里","LIN":"16鄰","STREET":"行大二街","SECT":" ","MAREA":" ","LANE":" ","ALLEY":" ","HOUSE_NO":"４５號","E_COORD97":169682.76000000001,"N_COORD97":2535249.75,"ADDRESS":"行大二街４５號","OBJECTID":579835},"geometry":{"x":169682.76000000164,"y":2535249.7500000019}},{"attributes":{"ID":579863,"DIS_CODE":0,"TOWNNAME":"新化區","LI":"太平里","LIN":"16鄰","STREET":"忠孝路","SECT":" ","MAREA":" ","LANE":" ","ALLEY":" ","HOUSE_NO":"７６號","E_COORD97":178887.47,"N_COORD97":2548694.25,"ADDRESS":"忠孝路７６號","OBJECTID":579836},"geometry":{"x":178887.46999999974,"y":2548694.2499999981}},{"attributes":{"ID":579864,"DIS_CODE":0,"TOWNNAME":"新化區","LI":"太平里","LIN":"16鄰","STREET":"忠孝路","SECT":" ","MAREA":" ","LANE":" ","ALLEY":" ","HOUSE_NO":"６０號之３","E_COORD97":178954.22,"N_COORD97":2548708.2599999998,"ADDRESS":"忠孝路６０號之３","OBJECTID":579837},"geometry":{"x":178954.22000000067,"y":2548708.2600000016}},{"attributes":{"ID":579865,"DIS_CODE":0,"TOWNNAME":"安南區","LI":"理想里","LIN":"16鄰","STREET":"大安街","SECT":" ","MAREA":" ","LANE":" ","ALLEY":" ","HOUSE_NO":"１８９號","E_COORD97":167366.75,"N_COORD97":2548302.4399999999,"ADDRESS":"大安街１８９號","OBJECTID":579838},"geometry":{"x":167366.75,"y":2548302.4399999995}},{"attributes":{"ID":579866,"DIS_CODE":0,"TOWNNAME":"安南區","LI":"理想里","LIN":"16鄰","STREET":"大安街","SECT":" ","MAREA":" ","LANE":" ","ALLEY":" ","HOUSE_NO":"１９１號","E_COORD97":167372.04999999999,"N_COORD97":2548307.7400000002,"ADDRESS":"大安街１９１號","OBJECTID":579839},"geometry":{"x":167372.05000000168,"y":2548307.7400000002}},{"attributes":{"ID":579867,"DIS_CODE":0,"TOWNNAME":"安南區","LI":"理想里","LIN":"16鄰","STREET":"大安街","SECT":" ","MAREA":" ","LANE":" ","ALLEY":" ","HOUSE_NO":"１９３號","E_COORD97":167376.20000000001,"N_COORD97":2548310.2999999998,"ADDRESS":"大安街１９３號","OBJECTID":579840},"geometry":{"x":167376.20000000019,"y":2548310.3000000007}},{"attributes":{"ID":579868,"DIS_CODE":0,"TOWNNAME":"安南區","LI":"理想里","LIN":"16鄰","STREET":"大安街","SECT":" ","MAREA":" ","LANE":" ","ALLEY":" ","HOUSE_NO":"１９７號","E_COORD97":167382.41,"N_COORD97":2548317.8300000001,"ADDRESS":"大安街１９７號","OBJECTID":579841},"geometry":{"x":167382.41000000108,"y":2548317.8300000038}},{"attributes":{"ID":579869,"DIS_CODE":0,"TOWNNAME":"安南區","LI":"理想里","LIN":"16鄰","STREET":"大安街","SECT":" ","MAREA":" ","LANE":" ","ALLEY":" ","HOUSE_NO":"１９９號","E_COORD97":167382.54000000001,"N_COORD97":2548322.9100000001,"ADDRESS":"大安街１９９號","OBJECTID":579842},"geometry":{"x":167382.5400000019,"y":2548322.9100000001}},{"attributes":{"ID":579870,"DIS_CODE":0,"TOWNNAME":"南區","LI":"新昌里","LIN":"16鄰","STREET":"國華街","SECT":"一段","MAREA":" ","LANE":" ","ALLEY":" ","HOUSE_NO":"１１０號","E_COORD97":167617.07000000001,"N_COORD97":2542935.4700000002,"ADDRESS":"國華街一段１１０號","OBJECTID":579843},"geometry":{"x":167617.07000000123,"y":2542935.4700000007}},{"attributes":{"ID":579871,"DIS_CODE":0,"TOWNNAME":"南區","LI":"新昌里","LIN":"16鄰","STREET":"國華街","SECT":"一段","MAREA":" ","LANE":" ","ALLEY":" ","HOUSE_NO":"１１２號","E_COORD97":167616.42999999999,"N_COORD97":2542938.9500000002,"ADDRESS":"國華街一段１１２號","OBJECTID":579844},"geometry":{"x":167616.4299999997,"y":2542938.950000003}},{"attributes":{"ID":579872,"DIS_CODE":0,"TOWNNAME":"南區","LI":"新昌里","LIN":"16鄰","STREET":"國華街","SECT":"一段","MAREA":" ","LANE":" ","ALLEY":" ","HOUSE_NO":"１１４號","E_COORD97":167615.48000000001,"N_COORD97":2542943.71,"ADDRESS":"國華街一段１１４號","OBJECTID":579845},"geometry":{"x":167615.48000000231,"y":2542943.7100000028}},{"attributes":{"ID":579873,"DIS_CODE":0,"TOWNNAME":"南區","LI":"彰南里","LIN":"16鄰","STREET":"新義南路","SECT":" ","MAREA":" ","LANE":" ","ALLEY":" ","HOUSE_NO":"４號之１","E_COORD97":166081.20000000001,"N_COORD97":2541105.27,"ADDRESS":"新義南路４號之１","OBJECTID":579846},"geometry":{"x":166081.19999999925,"y":2541105.2699999996}},{"attributes":{"ID":579874,"DIS_CODE":0,"TOWNNAME":"南區","LI":"彰南里","LIN":"16鄰","STREET":"新義南路","SECT":" ","MAREA":" ","LANE":" ","ALLEY":" ","HOUSE_NO":"６號","E_COORD97":166058.5,"N_COORD97":2541105.1000000001,"ADDRESS":"新義南路６號","OBJECTID":579847},"geometry":{"x":166058.5,"y":2541105.1000000015}},{"attributes":{"ID":579875,"DIS_CODE":0,"TOWNNAME":"南區","LI":"彰南里","LIN":"16鄰","STREET":"新義路","SECT":" ","MAREA":" ","LANE":" ","ALLEY":" ","HOUSE_NO":"１９號之１","E_COORD97":165890.88,"N_COORD97":2541177.52,"ADDRESS":"新義路１９號之１","OBJECTID":579848},"geometry":{"x":165890.87999999989,"y":2541177.5199999996}},{"attributes":{"ID":579876,"DIS_CODE":0,"TOWNNAME":"南區","LI":"彰南里","LIN":"16鄰","STREET":"新義路","SECT":" ","MAREA":" ","LANE":" ","ALLEY":" ","HOUSE_NO":"１９號之２","E_COORD97":165907.70999999999,"N_COORD97":2541170.0099999998,"ADDRESS":"新義路１９號之２","OBJECTID":579849},"geometry":{"x":165907.70999999996,"y":2541170.0100000016}},{"attributes":{"ID":579877,"DIS_CODE":0,"TOWNNAME":"南區","LI":"彰南里","LIN":"16鄰","STREET":"新義路","SECT":" ","MAREA":" ","LANE":" ","ALLEY":" ","HOUSE_NO":"２３號","E_COORD97":165848.94,"N_COORD97":2541170.6000000001,"ADDRESS":"新義路２３號","OBJECTID":579850},"geometry":{"x":165848.94000000041,"y":2541170.5999999996}},{"attributes":{"ID":579878,"DIS_CODE":0,"TOWNNAME":"南區","LI":"彰南里","LIN":"16鄰","STREET":"新義路","SECT":" ","MAREA":" ","LANE":" ","ALLEY":" ","HOUSE_NO":"３１號","E_COORD97":165730.45999999999,"N_COORD97":2541168.1600000001,"ADDRESS":"新義路３１號","OBJECTID":579851},"geometry":{"x":165730.46000000089,"y":2541168.1600000001}},{"attributes":{"ID":579879,"DIS_CODE":0,"TOWNNAME":"南區","LI":"彰南里","LIN":"16鄰","STREET":"新義路","SECT":" ","MAREA":" ","LANE":" ","ALLEY":" ","HOUSE_NO":"３７號","E_COORD97":165640.48000000001,"N_COORD97":2541164.5,"ADDRESS":"新義路３７號","OBJECTID":579852},"geometry":{"x":165640.47999999952,"y":2541164.5}},{"attributes":{"ID":579880,"DIS_CODE":0,"TOWNNAME":"南區","LI":"彰南里","LIN":"16鄰","STREET":"新義路","SECT":" ","MAREA":" ","LANE":" ","ALLEY":" ","HOUSE_NO":"３９號","E_COORD97":165614.07000000001,"N_COORD97":2541169.8399999999,"ADDRESS":"新義路３９號","OBJECTID":579853},"geometry":{"x":165614.0700000003,"y":2541169.8399999999}},{"attributes":{"ID":579881,"DIS_CODE":0,"TOWNNAME":"南區","LI":"彰南里","LIN":"16鄰","STREET":"新義路","SECT":" ","MAREA":" ","LANE":" ","ALLEY":" ","HOUSE_NO":"４１號","E_COORD97":165588.14999999999,"N_COORD97":2541172.1400000001,"ADDRESS":"新義路４１號","OBJECTID":579854},"geometry":{"x":165588.15000000037,"y":2541172.1400000006}},{"attributes":{"ID":579882,"DIS_CODE":0,"TOWNNAME":"南區","LI":"彰南里","LIN":"16鄰","STREET":"新樂路","SECT":" ","MAREA":" ","LANE":" ","ALLEY":" ","HOUSE_NO":"５３號","E_COORD97":165515.59,"N_COORD97":2541130.9199999999,"ADDRESS":"新樂路５３號","OBJECTID":579855},"geometry":{"x":165515.59000000171,"y":2541130.9200000018}},{"attributes":{"ID":579883,"DIS_CODE":0,"TOWNNAME":"南區","LI":"彰南里","LIN":"16鄰","STREET":"新樂路","SECT":" ","MAREA":" ","LANE":" ","ALLEY":" ","HOUSE_NO":"５９號","E_COORD97":165423.44,"N_COORD97":2541092.3700000001,"ADDRESS":"新樂路５９號","OBJECTID":579856},"geometry":{"x":165423.44000000041,"y":2541092.370000001}},{"attributes":{"ID":579884,"DIS_CODE":0,"TOWNNAME":"南區","LI":"廣州里","LIN":"16鄰","STREET":"福吉路","SECT":" ","MAREA":" ","LANE":" ","ALLEY":" ","HOUSE_NO":"２０號","E_COORD97":167365.32000000001,"N_COORD97":2542637.1800000002,"ADDRESS":"福吉路２０號","OBJECTID":579857},"geometry":{"x":167365.3200000003,"y":2542637.1800000016}},{"attributes":{"ID":579885,"DIS_CODE":0,"TOWNNAME":"南區","LI":"廣州里","LIN":"16鄰","STREET":"福吉三街","SECT":" ","MAREA":" ","LANE":" ","ALLEY":" ","HOUSE_NO":"８號","E_COORD97":167343.79000000001,"N_COORD97":2542647.2999999998,"ADDRESS":"福吉三街８號","OBJECTID":579858},"geometry":{"x":167343.79000000097,"y":2542647.3000000026}},{"attributes":{"ID":579886,"DIS_CODE":0,"TOWNNAME":"南區","LI":"廣州里","LIN":"16鄰","STREET":"福吉三街","SECT":" ","MAREA":" ","LANE":" ","ALLEY":" ","HOUSE_NO":"１０號","E_COORD97":167341.26000000001,"N_COORD97":2542650.6699999999,"ADDRESS":"福吉三街１０號","OBJECTID":579859},"geometry":{"x":167341.25999999978,"y":2542650.6700000018}},{"attributes":{"ID":579887,"DIS_CODE":0,"TOWNNAME":"南區","LI":"廣州里","LIN":"16鄰","STREET":"福吉三街","SECT":" ","MAREA":" ","LANE":" ","ALLEY":" ","HOUSE_NO":"１２號","E_COORD97":167338.29999999999,"N_COORD97":2542653.2000000002,"ADDRESS":"福吉三街１２號","OBJECTID":579860},"geometry":{"x":167338.30000000075,"y":2542653.2000000011}},{"attributes":{"ID":579888,"DIS_CODE":0,"TOWNNAME":"南區","LI":"廣州里","LIN":"16鄰","STREET":"福吉三街","SECT":" ","MAREA":" ","LANE":" ","ALLEY":" ","HOUSE_NO":"１４號","E_COORD97":167335.76999999999,"N_COORD97":2542657.4199999999,"ADDRESS":"福吉三街１４號","OBJECTID":579861},"geometry":{"x":167335.76999999955,"y":2542657.4199999999}},{"attributes":{"ID":579889,"DIS_CODE":0,"TOWNNAME":"南區","LI":"廣州里","LIN":"16鄰","STREET":"福吉三街","SECT":" ","MAREA":" ","LANE":" ","ALLEY":" ","HOUSE_NO":"１６號","E_COORD97":167334.07999999999,"N_COORD97":2542661.6400000001,"ADDRESS":"福吉三街１６號","OBJECTID":579862},"geometry":{"x":167334.08000000007,"y":2542661.6400000025}},{"attributes":{"ID":579890,"DIS_CODE":0,"TOWNNAME":"南區","LI":"廣州里","LIN":"16鄰","STREET":"福吉三街","SECT":" ","MAREA":" ","LANE":" ","ALLEY":" ","HOUSE_NO":"１８號","E_COORD97":167330.28,"N_COORD97":2542664.5899999999,"ADDRESS":"福吉三街１８號","OBJECTID":579863},"geometry":{"x":167330.28000000212,"y":2542664.5900000017}},{"attributes":{"ID":579891,"DIS_CODE":0,"TOWNNAME":"南區","LI":"廣州里","LIN":"16鄰","STREET":"福吉三街","SECT":" ","MAREA":" ","LANE":" ","ALLEY":" ","HOUSE_NO":"２０號","E_COORD97":167327.32000000001,"N_COORD97":2542667.54,"ADDRESS":"福吉三街２０號","OBJECTID":579864},"geometry":{"x":167327.32000000123,"y":2542667.540000001}},{"attributes":{"ID":579892,"DIS_CODE":0,"TOWNNAME":"南區","LI":"廣州里","LIN":"16鄰","STREET":"福吉三街","SECT":" ","MAREA":" ","LANE":" ","ALLEY":" ","HOUSE_NO":"２８號","E_COORD97":167310.01000000001,"N_COORD97":2542683.1400000001,"ADDRESS":"福吉三街２８號","OBJECTID":579865},"geometry":{"x":167310.01000000071,"y":2542683.1400000006}},{"attributes":{"ID":579893,"DIS_CODE":0,"TOWNNAME":"南區","LI":"廣州里","LIN":"16鄰","STREET":"福吉三街","SECT":" ","MAREA":" ","LANE":" ","ALLEY":" ","HOUSE_NO":"３２號","E_COORD97":167303.26000000001,"N_COORD97":2542689.8900000001,"ADDRESS":"福吉三街３２號","OBJECTID":579866},"geometry":{"x":167303.26000000071,"y":2542689.8900000043}},{"attributes":{"ID":579894,"DIS_CODE":0,"TOWNNAME":"南區","LI":"廣州里","LIN":"16鄰","STREET":"福吉三街","SECT":" ","MAREA":" ","LANE":" ","ALLEY":" ","HOUSE_NO":"３４號","E_COORD97":167300.72,"N_COORD97":2542692.8399999999,"ADDRESS":"福吉三街３４號","OBJECTID":579867},"geometry":{"x":167300.71999999974,"y":2542692.8400000036}},{"attributes":{"ID":579895,"DIS_CODE":0,"TOWNNAME":"南區","LI":"廣州里","LIN":"16鄰","STREET":"福吉三街","SECT":" ","MAREA":" ","LANE":" ","ALLEY":" ","HOUSE_NO":"３８號","E_COORD97":167294.39000000001,"N_COORD97":2542700.8500000001,"ADDRESS":"福吉三街３８號","OBJECTID":579868},"geometry":{"x":167294.38999999966,"y":2542700.8500000015}},{"attributes":{"ID":579896,"DIS_CODE":0,"TOWNNAME":"南區","LI":"廣州里","LIN":"16鄰","STREET":"福吉三街","SECT":" ","MAREA":" ","LANE":" ","ALLEY":" ","HOUSE_NO":"４０號","E_COORD97":167292.28,"N_COORD97":2542703.3799999999,"ADDRESS":"福吉三街４０號","OBJECTID":579869},"geometry":{"x":167292.28000000026,"y":2542703.3800000008}},{"attributes":{"ID":579897,"DIS_CODE":0,"TOWNNAME":"南區","LI":"廣州里","LIN":"16鄰","STREET":"福吉三街","SECT":" ","MAREA":" ","LANE":" ","ALLEY":" ","HOUSE_NO":"４２號","E_COORD97":167288.89999999999,"N_COORD97":2542706.75,"ADDRESS":"福吉三街４２號","OBJECTID":579870},"geometry":{"x":167288.90000000224,"y":2542706.75}},{"attributes":{"ID":579898,"DIS_CODE":0,"TOWNNAME":"南區","LI":"廣州里","LIN":"16鄰","STREET":"福吉三街","SECT":" ","MAREA":" ","LANE":" ","ALLEY":" ","HOUSE_NO":"４２號之１","E_COORD97":167284.67999999999,"N_COORD97":2542709.2799999998,"ADDRESS":"福吉三街４２號之１","OBJECTID":579871},"geometry":{"x":167284.68000000063,"y":2542709.2799999993}},{"attributes":{"ID":579899,"DIS_CODE":0,"TOWNNAME":"南區","LI":"廣州里","LIN":"16鄰","STREET":"福吉三街","SECT":" ","MAREA":" ","LANE":" ","ALLEY":" ","HOUSE_NO":"４６號","E_COORD97":167281.29999999999,"N_COORD97":2542713.9199999999,"ADDRESS":"福吉三街４６號","OBJECTID":579872},"geometry":{"x":167281.29999999981,"y":2542713.9200000018}},{"attributes":{"ID":579900,"DIS_CODE":0,"TOWNNAME":"南區","LI":"廣州里","LIN":"16鄰","STREET":"福吉路","SECT":" ","MAREA":" ","LANE":" ","ALLEY":" ","HOUSE_NO":"１２號","E_COORD97":167374.60999999999,"N_COORD97":2542655.73,"ADDRESS":"福吉路１２號","OBJECTID":579873},"geometry":{"x":167374.61000000127,"y":2542655.7300000004}},{"attributes":{"ID":579901,"DIS_CODE":0,"TOWNNAME":"南區","LI":"廣州里","LIN":"16鄰","STREET":"福吉路","SECT":" ","MAREA":" ","LANE":" ","ALLEY":" ","HOUSE_NO":"１４號","E_COORD97":167374.19,"N_COORD97":2542648.9900000002,"ADDRESS":"福吉路１４號","OBJECTID":579874},"geometry":{"x":167374.19000000041,"y":2542648.9900000021}},{"attributes":{"ID":579902,"DIS_CODE":0,"TOWNNAME":"南區","LI":"廣州里","LIN":"16鄰","STREET":"福吉路","SECT":" ","MAREA":" ","LANE":" ","ALLEY":" ","HOUSE_NO":"１６號","E_COORD97":167369.12,"N_COORD97":2542646.0299999998,"ADDRESS":"福吉路１６號","OBJECTID":579875},"geometry":{"x":167369.12000000104,"y":2542646.0299999993}},{"attributes":{"ID":579903,"DIS_CODE":0,"TOWNNAME":"南區","LI":"廣州里","LIN":"16鄰","STREET":"福吉路","SECT":" ","MAREA":" ","LANE":" ","ALLEY":" ","HOUSE_NO":"１８號","E_COORD97":167366.17000000001,"N_COORD97":2542641.8199999998,"ADDRESS":"福吉路１８號","OBJECTID":579876},"geometry":{"x":167366.17000000179,"y":2542641.8200000003}},{"attributes":{"ID":579904,"DIS_CODE":0,"TOWNNAME":"南區","LI":"廣州里","LIN":"16鄰","STREET":"福吉路","SECT":" ","MAREA":" ","LANE":" ","ALLEY":" ","HOUSE_NO":"２２號","E_COORD97":167361.94,"N_COORD97":2542632.54,"ADDRESS":"福吉路２２號","OBJECTID":579877},"geometry":{"x":167361.94000000134,"y":2542632.5399999991}},{"attributes":{"ID":579905,"DIS_CODE":0,"TOWNNAME":"南區","LI":"鯤鯓里","LIN":"16鄰","STREET":"鯤鯓路","SECT":" ","MAREA":" ","LANE":" ","ALLEY":" ","HOUSE_NO":"２０１之１號","E_COORD97":164737.45999999999,"N_COORD97":2540392.2799999998,"ADDRESS":"鯤鯓路２０１之１號","OBJECTID":579878},"geometry":{"x":164737.46000000089,"y":2540392.2799999993}},{"attributes":{"ID":579906,"DIS_CODE":0,"TOWNNAME":"安南區","LI":"大安里","LIN":"16鄰","STREET":"義安街","SECT":" ","MAREA":" ","LANE":" ","ALLEY":" ","HOUSE_NO":"１１６號","E_COORD97":167494.19,"N_COORD97":2548126.6299999999,"ADDRESS":"義安街１１６號","OBJECTID":579879},"geometry":{"x":167494.19000000134,"y":2548126.629999999}},{"attributes":{"ID":579907,"DIS_CODE":0,"TOWNNAME":"安南區","LI":"大安里","LIN":"16鄰","STREET":"義安街","SECT":" ","MAREA":" ","LANE":" ","ALLEY":" ","HOUSE_NO":"１１８號","E_COORD97":167496.95999999999,"N_COORD97":2548130.21,"ADDRESS":"義安街１１８號","OBJECTID":579880},"geometry":{"x":167496.96000000089,"y":2548130.2100000028}},{"attributes":{"ID":579908,"DIS_CODE":0,"TOWNNAME":"安南區","LI":"大安里","LIN":"16鄰","STREET":"義安街","SECT":" ","MAREA":" ","LANE":" ","ALLEY":" ","HOUSE_NO":"１２０號","E_COORD97":167498.70000000001,"N_COORD97":2548134.3700000001,"ADDRESS":"義安街１２０號","OBJECTID":579881},"geometry":{"x":167498.70000000112,"y":2548134.370000001}},{"attributes":{"ID":579909,"DIS_CODE":0,"TOWNNAME":"安南區","LI":"大安里","LIN":"16鄰","STREET":"義安街","SECT":" ","MAREA":" ","LANE":" ","ALLEY":" ","HOUSE_NO":"１２２號","E_COORD97":167501.82000000001,"N_COORD97":2548137.8399999999,"ADDRESS":"義安街１２２號","OBJECTID":579882},"geometry":{"x":167501.82000000123,"y":2548137.8400000036}},{"attributes":{"ID":579910,"DIS_CODE":0,"TOWNNAME":"安南區","LI":"大安里","LIN":"16鄰","STREET":"義安街","SECT":" ","MAREA":" ","LANE":" ","ALLEY":" ","HOUSE_NO":"１２４號","E_COORD97":167502.85999999999,"N_COORD97":2548142.6899999999,"ADDRESS":"義安街１２４號","OBJECTID":579883},"geometry":{"x":167502.86000000127,"y":2548142.6900000013}},{"attributes":{"ID":579911,"DIS_CODE":0,"TOWNNAME":"安南區","LI":"大安里","LIN":"16鄰","STREET":"義安街","SECT":" ","MAREA":" ","LANE":" ","ALLEY":" ","HOUSE_NO":"１２６號","E_COORD97":167506.45000000001,"N_COORD97":2548145.7799999998,"ADDRESS":"義安街１２６號","OBJECTID":579884},"geometry":{"x":167506.45000000019,"y":2548145.7800000012}},{"attributes":{"ID":579912,"DIS_CODE":0,"TOWNNAME":"安南區","LI":"大安里","LIN":"16鄰","STREET":"義安街","SECT":" ","MAREA":" ","LANE":" ","ALLEY":" ","HOUSE_NO":"１２７號","E_COORD97":167487.28,"N_COORD97":2548158.7400000002,"ADDRESS":"義安街１２７號","OBJECTID":579885},"geometry":{"x":167487.28000000026,"y":2548158.7400000002}},{"attributes":{"ID":579913,"DIS_CODE":0,"TOWNNAME":"安南區","LI":"大安里","LIN":"16鄰","STREET":"義安街","SECT":" ","MAREA":" ","LANE":" ","ALLEY":" ","HOUSE_NO":"１３０號","E_COORD97":167512.01000000001,"N_COORD97":2548155.6899999999,"ADDRESS":"義安街１３０號","OBJECTID":579886},"geometry":{"x":167512.01000000071,"y":2548155.6900000013}},{"attributes":{"ID":579914,"DIS_CODE":0,"TOWNNAME":"安南區","LI":"大安里","LIN":"16鄰","STREET":"義安街","SECT":" ","MAREA":" ","LANE":" ","ALLEY":" ","HOUSE_NO":"１３１號","E_COORD97":167492.07999999999,"N_COORD97":2548167.5600000001,"ADDRESS":"義安街１３１號","OBJECTID":579887},"geometry":{"x":167492.08000000007,"y":2548167.5600000042}},{"attributes":{"ID":579915,"DIS_CODE":0,"TOWNNAME":"安南區","LI":"大安里","LIN":"16鄰","STREET":"義安街","SECT":" ","MAREA":" ","LANE":" ","ALLEY":" ","HOUSE_NO":"１３２號","E_COORD97":167514.17999999999,"N_COORD97":2548159.3700000001,"ADDRESS":"義安街１３２號","OBJECTID":579888},"geometry":{"x":167514.18000000063,"y":2548159.3700000048}},{"attributes":{"ID":579916,"DIS_CODE":0,"TOWNNAME":"安南區","LI":"大安里","LIN":"16鄰","STREET":"義安街","SECT":" ","MAREA":" ","LANE":" ","ALLEY":" ","HOUSE_NO":"１３４號","E_COORD97":167516.5,"N_COORD97":2548163.6899999999,"ADDRESS":"義安街１３４號","OBJECTID":579889},"geometry":{"x":167516.49999999907,"y":2548163.6900000013}},{"attributes":{"ID":579917,"DIS_CODE":0,"TOWNNAME":"安南區","LI":"大安里","LIN":"16鄰","STREET":"義安街","SECT":" ","MAREA":" ","LANE":" ","ALLEY":" ","HOUSE_NO":"１３６號","E_COORD97":167519.78,"N_COORD97":2548166.8900000001,"ADDRESS":"義安街１３６號","OBJECTID":579890},"geometry":{"x":167519.78000000026,"y":2548166.8900000025}},{"attributes":{"ID":579918,"DIS_CODE":0,"TOWNNAME":"安南區","LI":"大安里","LIN":"16鄰","STREET":"義安街","SECT":" ","MAREA":" ","LANE":" ","ALLEY":" ","HOUSE_NO":"１３７號","E_COORD97":167500.72,"N_COORD97":2548180.02,"ADDRESS":"義安街１３７號","OBJECTID":579891},"geometry":{"x":167500.71999999974,"y":2548180.0199999977}},{"attributes":{"ID":579919,"DIS_CODE":0,"TOWNNAME":"安南區","LI":"大安里","LIN":"16鄰","STREET":"義安街","SECT":" ","MAREA":" ","LANE":" ","ALLEY":" ","HOUSE_NO":"１４０號","E_COORD97":167523.95000000001,"N_COORD97":2548174.8100000001,"ADDRESS":"義安街１４０號","OBJECTID":579892},"geometry":{"x":167523.95000000205,"y":2548174.8100000005}},{"attributes":{"ID":579920,"DIS_CODE":0,"TOWNNAME":"安南區","LI":"大安里","LIN":"16鄰","STREET":"義安街","SECT":" ","MAREA":" ","LANE":" ","ALLEY":" ","HOUSE_NO":"１４１號","E_COORD97":167505.51999999999,"N_COORD97":2548188.46,"ADDRESS":"義安街１４１號","OBJECTID":579893},"geometry":{"x":167505.51999999955,"y":2548188.4600000009}},{"attributes":{"ID":579921,"DIS_CODE":0,"TOWNNAME":"安南區","LI":"大安里","LIN":"16鄰","STREET":"義安街","SECT":" ","MAREA":" ","LANE":" ","ALLEY":" ","HOUSE_NO":"１４３號","E_COORD97":167508.59,"N_COORD97":2548192.29,"ADDRESS":"義安街１４３號","OBJECTID":579894},"geometry":{"x":167508.58999999985,"y":2548192.290000001}},{"attributes":{"ID":579922,"DIS_CODE":0,"TOWNNAME":"安南區","LI":"大安里","LIN":"16鄰","STREET":"義安街","SECT":" ","MAREA":" ","LANE":" ","ALLEY":" ","HOUSE_NO":"１４７號","E_COORD97":167514.34,"N_COORD97":2548200.73,"ADDRESS":"義安街１４７號","OBJECTID":579895},"geometry":{"x":167514.34000000078,"y":2548200.7300000023}},{"attributes":{"ID":579923,"DIS_CODE":0,"TOWNNAME":"安南區","LI":"大安里","LIN":"16鄰","STREET":"義安街","SECT":" ","MAREA":" ","LANE":" ","ALLEY":" ","HOUSE_NO":"１５１號","E_COORD97":167520.10000000001,"N_COORD97":2548208.3999999999,"ADDRESS":"義安街１５１號","OBJECTID":579896},"geometry":{"x":167520.09999999963,"y":2548208.4000000004}},{"attributes":{"ID":579924,"DIS_CODE":0,"TOWNNAME":"安南區","LI":"大安里","LIN":"16鄰","STREET":"義安街","SECT":" ","MAREA":" ","LANE":" ","ALLEY":" ","HOUSE_NO":"８８號","E_COORD97":167454.48000000001,"N_COORD97":2548071.9500000002,"ADDRESS":"義安街８８號","OBJECTID":579897},"geometry":{"x":167454.48000000231,"y":2548071.950000003}},{"attributes":{"ID":579925,"DIS_CODE":0,"TOWNNAME":"白河區","LI":"白河里","LIN":"16鄰","STREET":"開明街","SECT":" ","MAREA":" ","LANE":" ","ALLEY":" ","HOUSE_NO":"１９６號","E_COORD97":190435.45000000001,"N_COORD97":2583199.8999999999,"ADDRESS":"開明街１９６號","OBJECTID":579898},"geometry":{"x":190435.45000000019,"y":2583199.9000000004}},{"attributes":{"ID":579926,"DIS_CODE":0,"TOWNNAME":"白河區","LI":"白河里","LIN":"16鄰","STREET":"開明街","SECT":" ","MAREA":" ","LANE":" ","ALLEY":" ","HOUSE_NO":"２０６號","E_COORD97":190424.92000000001,"N_COORD97":2583189.98,"ADDRESS":"開明街２０６號","OBJECTID":579899},"geometry":{"x":190424.92000000086,"y":2583189.9800000004}},{"attributes":{"ID":579927,"DIS_CODE":0,"TOWNNAME":"白河區","LI":"白河里","LIN":"16鄰","STREET":"開明街","SECT":" ","MAREA":" ","LANE":" ","ALLEY":" ","HOUSE_NO":"２１０號","E_COORD97":190417.01000000001,"N_COORD97":2583192.6699999999,"ADDRESS":"開明街２１０號","OBJECTID":579900},"geometry":{"x":190417.01000000071,"y":2583192.6700000018}},{"attributes":{"ID":579928,"DIS_CODE":0,"TOWNNAME":"白河區","LI":"白河里","LIN":"16鄰","STREET":"開明街","SECT":" ","MAREA":" ","LANE":" ","ALLEY":" ","HOUSE_NO":"２１６號","E_COORD97":190404.23000000001,"N_COORD97":2583193.77,"ADDRESS":"開明街２１６號","OBJECTID":579901},"geometry":{"x":190404.23000000138,"y":2583193.7699999996}},{"attributes":{"ID":579929,"DIS_CODE":0,"TOWNNAME":"白河區","LI":"白河里","LIN":"16鄰","STREET":"開明街","SECT":" ","MAREA":" ","LANE":" ","ALLEY":" ","HOUSE_NO":"２２０號","E_COORD97":190395.5,"N_COORD97":2583195.8700000001,"ADDRESS":"開明街２２０號","OBJECTID":579902},"geometry":{"x":190395.50000000093,"y":2583195.8700000029}},{"attributes":{"ID":579930,"DIS_CODE":0,"TOWNNAME":"白河區","LI":"永安里","LIN":"16鄰","STREET":"新生路","SECT":" ","MAREA":" ","LANE":" ","ALLEY":" ","HOUSE_NO":"１１號","E_COORD97":190088.38,"N_COORD97":2583191.3700000001,"ADDRESS":"新生路１１號","OBJECTID":579903},"geometry":{"x":190088.37999999989,"y":2583191.370000001}},{"attributes":{"ID":579931,"DIS_CODE":0,"TOWNNAME":"白河區","LI":"永安里","LIN":"16鄰","STREET":"新生路","SECT":" ","MAREA":" ","LANE":" ","ALLEY":" ","HOUSE_NO":"１３號","E_COORD97":190090.29000000001,"N_COORD97":2583195.5099999998,"ADDRESS":"新生路１３號","OBJECTID":579904},"geometry":{"x":190090.29000000097,"y":2583195.5099999998}},{"attributes":{"ID":579932,"DIS_CODE":0,"TOWNNAME":"白河區","LI":"永安里","LIN":"16鄰","STREET":"新生路","SECT":" ","MAREA":" ","LANE":" ","ALLEY":" ","HOUSE_NO":"１９號","E_COORD97":190094.31,"N_COORD97":2583209.6499999999,"ADDRESS":"新生路１９號","OBJECTID":579905},"geometry":{"x":190094.31000000052,"y":2583209.6500000041}},{"attributes":{"ID":579933,"DIS_CODE":0,"TOWNNAME":"白河區","LI":"永安里","LIN":"16鄰","STREET":"新生路","SECT":" ","MAREA":" ","LANE":" ","ALLEY":" ","HOUSE_NO":"２１號","E_COORD97":190096.20000000001,"N_COORD97":2583214.0099999998,"ADDRESS":"新生路２１號","OBJECTID":579906},"geometry":{"x":190096.20000000019,"y":2583214.0100000016}},{"attributes":{"ID":579934,"DIS_CODE":0,"TOWNNAME":"白河區","LI":"永安里","LIN":"16鄰","STREET":"新生路","SECT":" ","MAREA":" ","LANE":" ","ALLEY":" ","HOUSE_NO":"２３號","E_COORD97":190097.81,"N_COORD97":2583219.02,"ADDRESS":"新生路２３號","OBJECTID":579907},"geometry":{"x":190097.81000000052,"y":2583219.0199999996}},{"attributes":{"ID":579935,"DIS_CODE":0,"TOWNNAME":"白河區","LI":"永安里","LIN":"16鄰","STREET":"新生路","SECT":" ","MAREA":" ","LANE":" ","ALLEY":" ","HOUSE_NO":"２９號","E_COORD97":190109.95000000001,"N_COORD97":2583240.48,"ADDRESS":"新生路２９號","OBJECTID":579908},"geometry":{"x":190109.95000000019,"y":2583240.4800000004}},{"attributes":{"ID":579936,"DIS_CODE":0,"TOWNNAME":"白河區","LI":"永安里","LIN":"16鄰","STREET":"新生路","SECT":" ","MAREA":" ","LANE":" ","ALLEY":" ","HOUSE_NO":"３１號","E_COORD97":190117.95999999999,"N_COORD97":2583278.6200000001,"ADDRESS":"新生路３１號","OBJECTID":579909},"geometry":{"x":190117.95999999996,"y":2583278.6200000029}},{"attributes":{"ID":579937,"DIS_CODE":0,"TOWNNAME":"白河區","LI":"永安里","LIN":"16鄰","STREET":"新生路","SECT":" ","MAREA":" ","LANE":" ","ALLEY":" ","HOUSE_NO":"３３之１號","E_COORD97":190120.84,"N_COORD97":2583286.3900000001,"ADDRESS":"新生路３３之１號","OBJECTID":579910},"geometry":{"x":190120.83999999985,"y":2583286.3900000043}},{"attributes":{"ID":579938,"DIS_CODE":0,"TOWNNAME":"白河區","LI":"永安里","LIN":"16鄰","STREET":"新生路","SECT":" ","MAREA":" ","LANE":" ","ALLEY":" ","HOUSE_NO":"３３之２號","E_COORD97":190122.67000000001,"N_COORD97":2583290.71,"ADDRESS":"新生路３３之２號","OBJECTID":579911},"geometry":{"x":190122.67000000086,"y":2583290.7100000009}},{"attributes":{"ID":579939,"DIS_CODE":0,"TOWNNAME":"白河區","LI":"永安里","LIN":"16鄰","STREET":"新生路","SECT":" ","MAREA":" ","LANE":" ","ALLEY":" ","HOUSE_NO":"３３之３號","E_COORD97":190123.67999999999,"N_COORD97":2583294.6899999999,"ADDRESS":"新生路３３之３號","OBJECTID":579912},"geometry":{"x":190123.67999999877,"y":2583294.6900000013}},{"attributes":{"ID":579940,"DIS_CODE":0,"TOWNNAME":"白河區","LI":"永安里","LIN":"16鄰","STREET":"新生路","SECT":" ","MAREA":" ","LANE":" ","ALLEY":" ","HOUSE_NO":"３３之５號","E_COORD97":190124.88,"N_COORD97":2583299.1400000001,"ADDRESS":"新生路３３之５號","OBJECTID":579913},"geometry":{"x":190124.88000000082,"y":2583299.1400000025}},{"attributes":{"ID":579941,"DIS_CODE":0,"TOWNNAME":"白河區","LI":"永安里","LIN":"16鄰","STREET":"新生路","SECT":" ","MAREA":" ","LANE":" ","ALLEY":" ","HOUSE_NO":"３３之６號","E_COORD97":190125.07999999999,"N_COORD97":2583302.9700000002,"ADDRESS":"新生路３３之６號","OBJECTID":579914},"geometry":{"x":190125.08000000101,"y":2583302.9700000025}},{"attributes":{"ID":579942,"DIS_CODE":0,"TOWNNAME":"白河區","LI":"永安里","LIN":"16鄰","STREET":"新生路","SECT":" ","MAREA":" ","LANE":" ","ALLEY":" ","HOUSE_NO":"３３之７號","E_COORD97":190128.82000000001,"N_COORD97":2583306.9500000002,"ADDRESS":"新生路３３之７號","OBJECTID":579915},"geometry":{"x":190128.82000000123,"y":2583306.9499999993}},{"attributes":{"ID":579943,"DIS_CODE":0,"TOWNNAME":"白河區","LI":"永安里","LIN":"16鄰","STREET":"新生路","SECT":" ","MAREA":" ","LANE":" ","ALLEY":" ","HOUSE_NO":"３３號","E_COORD97":190119.69,"N_COORD97":2583283.1299999999,"ADDRESS":"新生路３３號","OBJECTID":579916},"geometry":{"x":190119.69000000134,"y":2583283.1300000008}},{"attributes":{"ID":579944,"DIS_CODE":0,"TOWNNAME":"白河區","LI":"永安里","LIN":"16鄰","STREET":"新生路","SECT":" ","MAREA":" ","LANE":" ","ALLEY":" ","HOUSE_NO":"３５號","E_COORD97":190124.45999999999,"N_COORD97":2583314.8799999999,"ADDRESS":"新生路３５號","OBJECTID":579917},"geometry":{"x":190124.46000000089,"y":2583314.8799999971}},{"attributes":{"ID":579945,"DIS_CODE":0,"TOWNNAME":"白河區","LI":"永安里","LIN":"16鄰","STREET":"新生路","SECT":" ","MAREA":" ","LANE":" ","ALLEY":" ","HOUSE_NO":"６５號","E_COORD97":190130.72,"N_COORD97":2583322.0899999999,"ADDRESS":"新生路６５號","OBJECTID":579918},"geometry":{"x":190130.72000000067,"y":2583322.0900000017}},{"attributes":{"ID":579946,"DIS_CODE":0,"TOWNNAME":"白河區","LI":"永安里","LIN":"16鄰","STREET":"新生路","SECT":" ","MAREA":" ","LANE":" ","ALLEY":" ","HOUSE_NO":"６７號","E_COORD97":190131.79000000001,"N_COORD97":2583326.02,"ADDRESS":"新生路６７號","OBJECTID":579919},"geometry":{"x":190131.78999999911,"y":2583326.0200000014}},{"attributes":{"ID":579947,"DIS_CODE":0,"TOWNNAME":"白河區","LI":"永安里","LIN":"16鄰","STREET":"新生路","SECT":" ","MAREA":" ","LANE":" ","ALLEY":" ","HOUSE_NO":"７號","E_COORD97":190085.17000000001,"N_COORD97":2583182.7999999998,"ADDRESS":"新生路７號","OBJECTID":579920},"geometry":{"x":190085.17000000179,"y":2583182.8000000026}},{"attributes":{"ID":579948,"DIS_CODE":0,"TOWNNAME":"白河區","LI":"白河里","LIN":"16鄰","STREET":"新起街","SECT":" ","MAREA":" ","LANE":" ","ALLEY":" ","HOUSE_NO":"７８之１號","E_COORD97":190413.51999999999,"N_COORD97":2583290.3500000001,"ADDRESS":"新起街７８之１號","OBJECTID":579921},"geometry":{"x":190413.52000000048,"y":2583290.3500000015}},{"attributes":{"ID":579949,"DIS_CODE":0,"TOWNNAME":"白河區","LI":"白河里","LIN":"16鄰","STREET":"新起街","SECT":" ","MAREA":" ","LANE":" ","ALLEY":" ","HOUSE_NO":"７８號","E_COORD97":190411.17000000001,"N_COORD97":2583249.6000000001,"ADDRESS":"新起街７８號","OBJECTID":579922},"geometry":{"x":190411.17000000086,"y":2583249.5999999978}},{"attributes":{"ID":579950,"DIS_CODE":0,"TOWNNAME":"白河區","LI":"白河里","LIN":"16鄰","STREET":"新起街","SECT":" ","MAREA":" ","LANE":" ","ALLEY":" ","HOUSE_NO":"８０號","E_COORD97":190415.5,"N_COORD97":2583311.02,"ADDRESS":"新起街８０號","OBJECTID":579923},"geometry":{"x":190415.50000000093,"y":2583311.0199999996}},{"attributes":{"ID":579951,"DIS_CODE":0,"TOWNNAME":"白河區","LI":"白河里","LIN":"16鄰","STREET":"新起街","SECT":" ","MAREA":" ","LANE":" ","ALLEY":" ","HOUSE_NO":"８２號","E_COORD97":190415.64000000001,"N_COORD97":2583315.5899999999,"ADDRESS":"新起街８２號","OBJECTID":579924},"geometry":{"x":190415.64000000153,"y":2583315.5900000017}},{"attributes":{"ID":579952,"DIS_CODE":0,"TOWNNAME":"白河區","LI":"白河里","LIN":"16鄰","STREET":"新起街","SECT":" ","MAREA":" ","LANE":" ","ALLEY":" ","HOUSE_NO":"８６之１號","E_COORD97":190418.07999999999,"N_COORD97":2583325.1699999999,"ADDRESS":"新起街８６之１號","OBJECTID":579925},"geometry":{"x":190418.08000000194,"y":2583325.1700000018}},{"attributes":{"ID":579953,"DIS_CODE":0,"TOWNNAME":"白河區","LI":"白河里","LIN":"16鄰","STREET":"新起街","SECT":" ","MAREA":" ","LANE":" ","ALLEY":" ","HOUSE_NO":"８６之２號","E_COORD97":190419.82000000001,"N_COORD97":2583329.3599999999,"ADDRESS":"新起街８６之２號","OBJECTID":579926},"geometry":{"x":190419.8200000003,"y":2583329.3600000031}},{"attributes":{"ID":579954,"DIS_CODE":0,"TOWNNAME":"白河區","LI":"白河里","LIN":"16鄰","STREET":"新起街","SECT":" ","MAREA":" ","LANE":" ","ALLEY":" ","HOUSE_NO":"８６號","E_COORD97":190416.92999999999,"N_COORD97":2583321.02,"ADDRESS":"新起街８６號","OBJECTID":579927},"geometry":{"x":190416.92999999877,"y":2583321.0199999996}},{"attributes":{"ID":579955,"DIS_CODE":0,"TOWNNAME":"白河區","LI":"白河里","LIN":"16鄰","STREET":"新起街","SECT":" ","MAREA":" ","LANE":" ","ALLEY":" ","HOUSE_NO":"８８號","E_COORD97":190421.35000000001,"N_COORD97":2583334.8300000001,"ADDRESS":"新起街８８號","OBJECTID":579928},"geometry":{"x":190421.35000000056,"y":2583334.8300000019}},{"attributes":{"ID":579956,"DIS_CODE":0,"TOWNNAME":"永康區","LI":"烏竹里","LIN":"16鄰","STREET":"龍橋街","SECT":" ","MAREA":" ","LANE":" ","ALLEY":" ","HOUSE_NO":"１９２號","E_COORD97":174627.12,"N_COORD97":2548748.5099999998,"ADDRESS":"龍橋街１９２號","OBJECTID":579929},"geometry":{"x":174627.11999999918,"y":2548748.5099999998}},{"attributes":{"ID":579957,"DIS_CODE":0,"TOWNNAME":"永康區","LI":"埔園里","LIN":"16鄰","STREET":"中山路","SECT":" ","MAREA":" ","LANE":" ","ALLEY":" ","HOUSE_NO":"４４７號","E_COORD97":173501.67000000001,"N_COORD97":2548689.3700000001,"ADDRESS":"中山路４４７號","OBJECTID":579930},"geometry":{"x":173501.67000000086,"y":2548689.3700000029}},{"attributes":{"ID":579958,"DIS_CODE":0,"TOWNNAME":"永康區","LI":"埔園里","LIN":"16鄰","STREET":"中山路","SECT":" ","MAREA":" ","LANE":" ","ALLEY":" ","HOUSE_NO":"４５９號","E_COORD97":173490.42999999999,"N_COORD97":2548722,"ADDRESS":"中山路４５９號","OBJECTID":579931},"geometry":{"x":173490.4299999997,"y":2548722}},{"attributes":{"ID":579959,"DIS_CODE":0,"TOWNNAME":"永康區","LI":"埔園里","LIN":"16鄰","STREET":"中山路","SECT":" ","MAREA":" ","LANE":" ","ALLEY":" ","HOUSE_NO":"４１１號","E_COORD97":173540.38,"N_COORD97":2548610.46,"ADDRESS":"中山路４１１號","OBJECTID":579932},"geometry":{"x":173540.38000000175,"y":2548610.4600000028}},{"attributes":{"ID":579960,"DIS_CODE":0,"TOWNNAME":"永康區","LI":"埔園里","LIN":"16鄰","STREET":"八德街","SECT":" ","MAREA":" ","LANE":" ","ALLEY":" ","HOUSE_NO":"２４５號","E_COORD97":173465.32000000001,"N_COORD97":2548545.6099999999,"ADDRESS":"八德街２４５號","OBJECTID":579933},"geometry":{"x":173465.32000000123,"y":2548545.6100000031}},{"attributes":{"ID":579961,"DIS_CODE":0,"TOWNNAME":"永康區","LI":"埔園里","LIN":"16鄰","STREET":"八德街","SECT":" ","MAREA":" ","LANE":" ","ALLEY":" ","HOUSE_NO":"２３９號","E_COORD97":173480.95999999999,"N_COORD97":2548549.1099999999,"ADDRESS":"八德街２３９號","OBJECTID":579934},"geometry":{"x":173480.96000000089,"y":2548549.1100000031}},{"attributes":{"ID":579962,"DIS_CODE":0,"TOWNNAME":"永康區","LI":"烏竹里","LIN":"16鄰","STREET":"自強路","SECT":" ","MAREA":" ","LANE":" ","ALLEY":" ","HOUSE_NO":"９２７號","E_COORD97":174803.66,"N_COORD97":2548844.4900000002,"ADDRESS":"自強路９２７號","OBJECTID":579935},"geometry":{"x":174803.66000000108,"y":2548844.4900000002}},{"attributes":{"ID":579963,"DIS_CODE":0,"TOWNNAME":"永康區","LI":"埔園里","LIN":"16鄰","STREET":"八德街","SECT":" ","MAREA":" ","LANE":" ","ALLEY":" ","HOUSE_NO":"４１６號","E_COORD97":173401.82000000001,"N_COORD97":2548552.4399999999,"ADDRESS":"八德街４１６號","OBJECTID":579936},"geometry":{"x":173401.8200000003,"y":2548552.4399999995}},{"attributes":{"ID":579964,"DIS_CODE":0,"TOWNNAME":"永康區","LI":"南灣里","LIN":"16鄰","STREET":"立興街","SECT":" ","MAREA":" ","LANE":" ","ALLEY":" ","HOUSE_NO":"１０１號","E_COORD97":174498.70999999999,"N_COORD97":2544715.5,"ADDRESS":"立興街１０１號","OBJECTID":579937},"geometry":{"x":174498.70999999996,"y":2544715.5}},{"attributes":{"ID":579965,"DIS_CODE":0,"TOWNNAME":"永康區","LI":"埔園里","LIN":"16鄰","STREET":"中山路","SECT":" ","MAREA":" ","LANE":" ","ALLEY":" ","HOUSE_NO":"４４５號","E_COORD97":173509.25,"N_COORD97":2548678.25,"ADDRESS":"中山路４４５號","OBJECTID":579938},"geometry":{"x":173509.25000000093,"y":2548678.2500000019}},{"attributes":{"ID":579966,"DIS_CODE":0,"TOWNNAME":"永康區","LI":"烏竹里","LIN":"16鄰","STREET":"龍橋街","SECT":" ","MAREA":" ","LANE":" ","ALLEY":" ","HOUSE_NO":"２５０號","E_COORD97":174603.03,"N_COORD97":2548881.1000000001,"ADDRESS":"龍橋街２５０號","OBJECTID":579939},"geometry":{"x":174603.03000000119,"y":2548881.0999999996}},{"attributes":{"ID":579967,"DIS_CODE":0,"TOWNNAME":"永康區","LI":"埔園里","LIN":"16鄰","STREET":"八德街","SECT":" ","MAREA":" ","LANE":" ","ALLEY":" ","HOUSE_NO":"２２７號","E_COORD97":173507.79999999999,"N_COORD97":2548554.23,"ADDRESS":"八德街２２７號","OBJECTID":579940},"geometry":{"x":173507.79999999981,"y":2548554.2300000023}},{"attributes":{"ID":579968,"DIS_CODE":0,"TOWNNAME":"永康區","LI":"埔園里","LIN":"16鄰","STREET":"中山路","SECT":" ","MAREA":" ","LANE":" ","ALLEY":" ","HOUSE_NO":"４０９號","E_COORD97":173541.48000000001,"N_COORD97":2548605.96,"ADDRESS":"中山路４０９號","OBJECTID":579941},"geometry":{"x":173541.48000000045,"y":2548605.9600000046}},{"attributes":{"ID":579969,"DIS_CODE":0,"TOWNNAME":"永康區","LI":"西橋里","LIN":"16鄰","STREET":"大橋三街","SECT":" ","MAREA":" ","LANE":" ","ALLEY":" ","HOUSE_NO":"２２號之３","E_COORD97":170554.81,"N_COORD97":2546403.29,"ADDRESS":"大橋三街２２號之３","OBJECTID":579942},"geometry":{"x":170554.80999999959,"y":2546403.2899999991}},{"attributes":{"ID":579970,"DIS_CODE":0,"TOWNNAME":"永康區","LI":"西橋里","LIN":"16鄰","STREET":"大橋三街","SECT":" ","MAREA":" ","LANE":" ","ALLEY":" ","HOUSE_NO":"２２號之２","E_COORD97":170549.59,"N_COORD97":2546406.7999999998,"ADDRESS":"大橋三街２２號之２","OBJECTID":579943},"geometry":{"x":170549.58999999985,"y":2546406.8000000026}},{"attributes":{"ID":579971,"DIS_CODE":0,"TOWNNAME":"永康區","LI":"西勢里","LIN":"16鄰","STREET":"西勢路","SECT":" ","MAREA":" ","LANE":" ","ALLEY":" ","HOUSE_NO":"６０號","E_COORD97":176160.42999999999,"N_COORD97":2546767.1200000001,"ADDRESS":"西勢路６０號","OBJECTID":579944},"geometry":{"x":176160.42999999877,"y":2546767.1199999992}},{"attributes":{"ID":579972,"DIS_CODE":0,"TOWNNAME":"東區","LI":"裕聖里","LIN":"16鄰","STREET":"裕敬路","SECT":" ","MAREA":" ","LANE":" ","ALLEY":" ","HOUSE_NO":"６８號","E_COORD97":172333.51999999999,"N_COORD97":2542233.8900000001,"ADDRESS":"裕敬路６８號","OBJECTID":579945},"geometry":{"x":172333.51999999955,"y":2542233.8900000006}},{"attributes":{"ID":579973,"DIS_CODE":0,"TOWNNAME":"永康區","LI":"西勢里","LIN":"16鄰","STREET":"西勢路","SECT":" ","MAREA":" ","LANE":" ","ALLEY":" ","HOUSE_NO":"７４號","E_COORD97":176119.37,"N_COORD97":2546768.25,"ADDRESS":"西勢路７４號","OBJECTID":579946},"geometry":{"x":176119.37000000104,"y":2546768.25}},{"attributes":{"ID":579974,"DIS_CODE":0,"TOWNNAME":"永康區","LI":"西橋里","LIN":"16鄰","STREET":"大橋三街","SECT":" ","MAREA":" ","LANE":" ","ALLEY":" ","HOUSE_NO":"２２號之１","E_COORD97":170544.35000000001,"N_COORD97":2546410.2999999998,"ADDRESS":"大橋三街２２號之１","OBJECTID":579947},"geometry":{"x":170544.34999999963,"y":2546410.3000000026}},{"attributes":{"ID":579975,"DIS_CODE":0,"TOWNNAME":"永康區","LI":"西灣里","LIN":"16鄰","STREET":"大灣五街","SECT":" ","MAREA":" ","LANE":" ","ALLEY":" ","HOUSE_NO":"１０６號","E_COORD97":174676.89000000001,"N_COORD97":2545279.1099999999,"ADDRESS":"大灣五街１０６號","OBJECTID":579948},"geometry":{"x":174676.88999999966,"y":2545279.1099999994}},{"attributes":{"ID":579976,"DIS_CODE":0,"TOWNNAME":"東區","LI":"裕聖里","LIN":"16鄰","STREET":"裕敬路","SECT":" ","MAREA":" ","LANE":" ","ALLEY":" ","HOUSE_NO":"７０號","E_COORD97":172333.20999999999,"N_COORD97":2542228.48,"ADDRESS":"裕敬路７０號","OBJECTID":579949},"geometry":{"x":172333.21000000089,"y":2542228.4800000023}},{"attributes":{"ID":579977,"DIS_CODE":0,"TOWNNAME":"永康區","LI":"西勢里","LIN":"16鄰","STREET":"西勢路","SECT":" ","MAREA":" ","LANE":" ","ALLEY":" ","HOUSE_NO":"７２號","E_COORD97":176132.84,"N_COORD97":2546768.3199999998,"ADDRESS":"西勢路７２號","OBJECTID":579950},"geometry":{"x":176132.84000000078,"y":2546768.3200000003}},{"attributes":{"ID":579978,"DIS_CODE":0,"TOWNNAME":"永康區","LI":"西灣里","LIN":"16鄰","STREET":"大安街","SECT":" ","MAREA":" ","LANE":" ","ALLEY":" ","HOUSE_NO":"２１９號","E_COORD97":174679.92999999999,"N_COORD97":2545354.3700000001,"ADDRESS":"大安街２１９號","OBJECTID":579951},"geometry":{"x":174679.9299999997,"y":2545354.370000001}},{"attributes":{"ID":579979,"DIS_CODE":0,"TOWNNAME":"永康區","LI":"西灣里","LIN":"16鄰","STREET":"大灣五街","SECT":" ","MAREA":" ","LANE":" ","ALLEY":" ","HOUSE_NO":"１２２號","E_COORD97":174611.26000000001,"N_COORD97":2545301.8700000001,"ADDRESS":"大灣五街１２２號","OBJECTID":579952},"geometry":{"x":174611.26000000071,"y":2545301.8700000029}},{"attributes":{"ID":579980,"DIS_CODE":0,"TOWNNAME":"永康區","LI":"西灣里","LIN":"16鄰","STREET":"大安街","SECT":" ","MAREA":" ","LANE":" ","ALLEY":" ","HOUSE_NO":"２０７號","E_COORD97":174666.42999999999,"N_COORD97":2545331.1800000002,"ADDRESS":"大安街２０７號","OBJECTID":579953},"geometry":{"x":174666.4299999997,"y":2545331.1799999978}},{"attributes":{"ID":579981,"DIS_CODE":0,"TOWNNAME":"永康區","LI":"西勢里","LIN":"16鄰","STREET":"西勢路","SECT":" ","MAREA":" ","LANE":" ","ALLEY":" ","HOUSE_NO":"９８號","E_COORD97":176068.56,"N_COORD97":2546773.4900000002,"ADDRESS":"西勢路９８號","OBJECTID":579954},"geometry":{"x":176068.56000000052,"y":2546773.4900000002}},{"attributes":{"ID":579982,"DIS_CODE":0,"TOWNNAME":"永康區","LI":"西勢里","LIN":"16鄰","STREET":"西勢路","SECT":" ","MAREA":" ","LANE":" ","ALLEY":" ","HOUSE_NO":"１００號","E_COORD97":176065.14999999999,"N_COORD97":2546773.9900000002,"ADDRESS":"西勢路１００號","OBJECTID":579955},"geometry":{"x":176065.1500000013,"y":2546773.9899999984}},{"attributes":{"ID":579983,"DIS_CODE":0,"TOWNNAME":"永康區","LI":"西勢里","LIN":"16鄰","STREET":"西勢路","SECT":" ","MAREA":" ","LANE":" ","ALLEY":" ","HOUSE_NO":"１１６號","E_COORD97":176031.64999999999,"N_COORD97":2546779.1299999999,"ADDRESS":"西勢路１１６號","OBJECTID":579956},"geometry":{"x":176031.6500000013,"y":2546779.1300000008}},{"attributes":{"ID":579984,"DIS_CODE":0,"TOWNNAME":"永康區","LI":"西勢里","LIN":"16鄰","STREET":"西勢路","SECT":" ","MAREA":" ","LANE":" ","ALLEY":" ","HOUSE_NO":"１１８號","E_COORD97":176027.32999999999,"N_COORD97":2546779.8799999999,"ADDRESS":"西勢路１１８號","OBJECTID":579957},"geometry":{"x":176027.33000000007,"y":2546779.879999999}},{"attributes":{"ID":579985,"DIS_CODE":0,"TOWNNAME":"永康區","LI":"西橋里","LIN":"16鄰","STREET":"大橋三街","SECT":" ","MAREA":" ","LANE":" ","ALLEY":" ","HOUSE_NO":"１６號之３","E_COORD97":170534.66,"N_COORD97":2546374.29,"ADDRESS":"大橋三街１６號之３","OBJECTID":579958},"geometry":{"x":170534.65999999922,"y":2546374.2900000028}},{"attributes":{"ID":579986,"DIS_CODE":0,"TOWNNAME":"東區","LI":"關聖里","LIN":"16鄰","STREET":"裕英街","SECT":" ","MAREA":" ","LANE":" ","ALLEY":" ","HOUSE_NO":"９０號","E_COORD97":172295.87,"N_COORD97":2543004.3300000001,"ADDRESS":"裕英街９０號","OBJECTID":579959},"geometry":{"x":172295.87000000011,"y":2543004.3300000001}},{"attributes":{"ID":579987,"DIS_CODE":0,"TOWNNAME":"東區","LI":"關聖里","LIN":"16鄰","STREET":"裕英街","SECT":" ","MAREA":" ","LANE":" ","ALLEY":" ","HOUSE_NO":"９２號","E_COORD97":172300.91,"N_COORD97":2543004.5800000001,"ADDRESS":"裕英街９２號","OBJECTID":579960},"geometry":{"x":172300.91000000015,"y":2543004.5800000019}},{"attributes":{"ID":579988,"DIS_CODE":0,"TOWNNAME":"東區","LI":"關聖里","LIN":"16鄰","STREET":"裕英街","SECT":" ","MAREA":" ","LANE":" ","ALLEY":" ","HOUSE_NO":"９６號","E_COORD97":172305.94,"N_COORD97":2543004.3300000001,"ADDRESS":"裕英街９６號","OBJECTID":579961},"geometry":{"x":172305.94000000041,"y":2543004.3300000001}},{"attributes":{"ID":579989,"DIS_CODE":0,"TOWNNAME":"東區","LI":"關聖里","LIN":"16鄰","STREET":"裕英街","SECT":" ","MAREA":" ","LANE":" ","ALLEY":" ","HOUSE_NO":"９８號","E_COORD97":172310.73000000001,"N_COORD97":2543003.9500000002,"ADDRESS":"裕英街９８號","OBJECTID":579962},"geometry":{"x":172310.73000000045,"y":2543003.9500000011}},{"attributes":{"ID":579990,"DIS_CODE":0,"TOWNNAME":"東區","LI":"裕聖里","LIN":"16鄰","STREET":"裕敬路","SECT":" ","MAREA":" ","LANE":" ","ALLEY":" ","HOUSE_NO":"１０號","E_COORD97":172277.59,"N_COORD97":2542229.25,"ADDRESS":"裕敬路１０號","OBJECTID":579963},"geometry":{"x":172277.59000000171,"y":2542229.2500000037}},{"attributes":{"ID":579991,"DIS_CODE":0,"TOWNNAME":"東區","LI":"裕聖里","LIN":"16鄰","STREET":"裕敬路","SECT":" ","MAREA":" ","LANE":" ","ALLEY":" ","HOUSE_NO":"１６號","E_COORD97":172276.97,"N_COORD97":2542217.8199999998,"ADDRESS":"裕敬路１６號","OBJECTID":579964},"geometry":{"x":172276.97000000067,"y":2542217.8200000003}},{"attributes":{"ID":579992,"DIS_CODE":0,"TOWNNAME":"東區","LI":"裕聖里","LIN":"16鄰","STREET":"裕敬路","SECT":" ","MAREA":" ","LANE":" ","ALLEY":" ","HOUSE_NO":"１００號","E_COORD97":172332.75,"N_COORD97":2542194.7999999998,"ADDRESS":"裕敬路１００號","OBJECTID":579965},"geometry":{"x":172332.75000000093,"y":2542194.8000000007}},{"attributes":{"ID":579993,"DIS_CODE":0,"TOWNNAME":"東區","LI":"裕聖里","LIN":"16鄰","STREET":"裕敬路","SECT":" ","MAREA":" ","LANE":" ","ALLEY":" ","HOUSE_NO":"１０２號","E_COORD97":172338.16,"N_COORD97":2542194.4900000002,"ADDRESS":"裕敬路１０２號","OBJECTID":579966},"geometry":{"x":172338.16000000015,"y":2542194.4900000021}},{"attributes":{"ID":579994,"DIS_CODE":0,"TOWNNAME":"東區","LI":"裕聖里","LIN":"16鄰","STREET":"裕敬路","SECT":" ","MAREA":" ","LANE":" ","ALLEY":" ","HOUSE_NO":"１０６號","E_COORD97":172345.73000000001,"N_COORD97":2542194.1800000002,"ADDRESS":"裕敬路１０６號","OBJECTID":579967},"geometry":{"x":172345.73000000138,"y":2542194.1799999997}},{"attributes":{"ID":579995,"DIS_CODE":0,"TOWNNAME":"東區","LI":"裕聖里","LIN":"16鄰","STREET":"裕敬路","SECT":" ","MAREA":" ","LANE":" ","ALLEY":" ","HOUSE_NO":"１０８號","E_COORD97":172351.60000000001,"N_COORD97":2542194.1800000002,"ADDRESS":"裕敬路１０８號","OBJECTID":579968},"geometry":{"x":172351.59999999963,"y":2542194.1799999997}},{"attributes":{"ID":579996,"DIS_CODE":0,"TOWNNAME":"東區","LI":"裕聖里","LIN":"16鄰","STREET":"裕敬路","SECT":" ","MAREA":" ","LANE":" ","ALLEY":" ","HOUSE_NO":"１１０號","E_COORD97":172352.06,"N_COORD97":2542203.7599999998,"ADDRESS":"裕敬路１１０號","OBJECTID":579969},"geometry":{"x":172352.06000000145,"y":2542203.7599999998}},{"attributes":{"ID":579997,"DIS_CODE":0,"TOWNNAME":"東區","LI":"裕聖里","LIN":"16鄰","STREET":"裕敬路","SECT":" ","MAREA":" ","LANE":" ","ALLEY":" ","HOUSE_NO":"１１２號","E_COORD97":172346.5,"N_COORD97":2542203.6000000001,"ADDRESS":"裕敬路１１２號","OBJECTID":579970},"geometry":{"x":172346.50000000093,"y":2542203.6000000015}},{"attributes":{"ID":579998,"DIS_CODE":0,"TOWNNAME":"東區","LI":"裕聖里","LIN":"16鄰","STREET":"裕敬路","SECT":" ","MAREA":" ","LANE":" ","ALLEY":" ","HOUSE_NO":"１１６號","E_COORD97":172346.19,"N_COORD97":2542215.1899999999,"ADDRESS":"裕敬路１１６號","OBJECTID":579971},"geometry":{"x":172346.19000000041,"y":2542215.1899999976}},{"attributes":{"ID":579999,"DIS_CODE":0,"TOWNNAME":"東區","LI":"裕聖里","LIN":"16鄰","STREET":"裕敬路","SECT":" ","MAREA":" ","LANE":" ","ALLEY":" ","HOUSE_NO":"１２６號","E_COORD97":172346.5,"N_COORD97":2542239.4500000002,"ADDRESS":"裕敬路１２６號","OBJECTID":579972},"geometry":{"x":172346.50000000093,"y":2542239.4499999993}},{"attributes":{"ID":580000,"DIS_CODE":0,"TOWNNAME":"東區","LI":"裕聖里","LIN":"16鄰","STREET":"裕敬路","SECT":" ","MAREA":" ","LANE":" ","ALLEY":" ","HOUSE_NO":"１１８號","E_COORD97":172346.35000000001,"N_COORD97":2542222.6099999999,"ADDRESS":"裕敬路１１８號","OBJECTID":579973},"geometry":{"x":172346.34999999963,"y":2542222.6100000031}},{"attributes":{"ID":580001,"DIS_CODE":0,"TOWNNAME":"東區","LI":"裕聖里","LIN":"16鄰","STREET":"裕敬路","SECT":" ","MAREA":" ","LANE":" ","ALLEY":" ","HOUSE_NO":"１２０號","E_COORD97":172346.5,"N_COORD97":2542228.79,"ADDRESS":"裕敬路１２０號","OBJECTID":579974},"geometry":{"x":172346.50000000093,"y":2542228.790000001}},{"attributes":{"ID":580002,"DIS_CODE":0,"TOWNNAME":"東區","LI":"裕聖里","LIN":"16鄰","STREET":"裕敬路","SECT":" ","MAREA":" ","LANE":" ","ALLEY":" ","HOUSE_NO":"１２２號","E_COORD97":172346.04000000001,"N_COORD97":2542234.2000000002,"ADDRESS":"裕敬路１２２號","OBJECTID":579975},"geometry":{"x":172346.0400000019,"y":2542234.1999999993}},{"attributes":{"ID":580003,"DIS_CODE":0,"TOWNNAME":"東區","LI":"裕聖里","LIN":"16鄰","STREET":"裕敬路","SECT":" ","MAREA":" ","LANE":" ","ALLEY":" ","HOUSE_NO":"１２８號","E_COORD97":172351.75,"N_COORD97":2542239.6099999999,"ADDRESS":"裕敬路１２８號","OBJECTID":579976},"geometry":{"x":172351.75000000093,"y":2542239.6100000031}},{"attributes":{"ID":580004,"DIS_CODE":0,"TOWNNAME":"東區","LI":"裕聖里","LIN":"16鄰","STREET":"裕敬路","SECT":" ","MAREA":" ","LANE":" ","ALLEY":" ","HOUSE_NO":"１２號","E_COORD97":172277.28,"N_COORD97":2542223.54,"ADDRESS":"裕敬路１２號","OBJECTID":579977},"geometry":{"x":172277.28000000119,"y":2542223.540000001}},{"attributes":{"ID":580005,"DIS_CODE":0,"TOWNNAME":"東區","LI":"裕聖里","LIN":"16鄰","STREET":"裕敬路","SECT":" ","MAREA":" ","LANE":" ","ALLEY":" ","HOUSE_NO":"１８號","E_COORD97":172286.23999999999,"N_COORD97":2542217.9700000002,"ADDRESS":"裕敬路１８號","OBJECTID":579978},"geometry":{"x":172286.24000000115,"y":2542217.9700000044}},{"attributes":{"ID":580006,"DIS_CODE":0,"TOWNNAME":"東區","LI":"裕聖里","LIN":"16鄰","STREET":"裕敬路","SECT":" ","MAREA":" ","LANE":" ","ALLEY":" ","HOUSE_NO":"２０號","E_COORD97":172285.92999999999,"N_COORD97":2542223.3799999999,"ADDRESS":"裕敬路２０號","OBJECTID":579979},"geometry":{"x":172285.93000000063,"y":2542223.379999999}},{"attributes":{"ID":580007,"DIS_CODE":0,"TOWNNAME":"東區","LI":"裕聖里","LIN":"16鄰","STREET":"裕敬路","SECT":" ","MAREA":" ","LANE":" ","ALLEY":" ","HOUSE_NO":"２２號","E_COORD97":172285.92999999999,"N_COORD97":2542228.79,"ADDRESS":"裕敬路２２號","OBJECTID":579980},"geometry":{"x":172285.93000000063,"y":2542228.790000001}},{"attributes":{"ID":580008,"DIS_CODE":0,"TOWNNAME":"東區","LI":"裕聖里","LIN":"16鄰","STREET":"裕敬路","SECT":" ","MAREA":" ","LANE":" ","ALLEY":" ","HOUSE_NO":"２６號","E_COORD97":172285.92999999999,"N_COORD97":2542234.5099999998,"ADDRESS":"裕敬路２６號","OBJECTID":579981},"geometry":{"x":172285.93000000063,"y":2542234.5100000016}},{"attributes":{"ID":580009,"DIS_CODE":0,"TOWNNAME":"東區","LI":"裕聖里","LIN":"16鄰","STREET":"裕敬路","SECT":" ","MAREA":" ","LANE":" ","ALLEY":" ","HOUSE_NO":"２８號","E_COORD97":172285.78,"N_COORD97":2542241.1499999999,"ADDRESS":"裕敬路２８號","OBJECTID":579982},"geometry":{"x":172285.78000000119,"y":2542241.1500000022}},{"attributes":{"ID":580010,"DIS_CODE":0,"TOWNNAME":"東區","LI":"裕聖里","LIN":"16鄰","STREET":"裕敬路","SECT":" ","MAREA":" ","LANE":" ","ALLEY":" ","HOUSE_NO":"２號","E_COORD97":172272.64000000001,"N_COORD97":2542241.6099999999,"ADDRESS":"裕敬路２號","OBJECTID":579983},"geometry":{"x":172272.6400000006,"y":2542241.6099999994}},{"attributes":{"ID":580011,"DIS_CODE":0,"TOWNNAME":"東區","LI":"裕聖里","LIN":"16鄰","STREET":"裕敬路","SECT":" ","MAREA":" ","LANE":" ","ALLEY":" ","HOUSE_NO":"３０號","E_COORD97":172292.88,"N_COORD97":2542241,"ADDRESS":"裕敬路３０號","OBJECTID":579984},"geometry":{"x":172292.88000000082,"y":2542241.0000000037}},{"attributes":{"ID":580012,"DIS_CODE":0,"TOWNNAME":"東區","LI":"裕聖里","LIN":"16鄰","STREET":"裕敬路","SECT":" ","MAREA":" ","LANE":" ","ALLEY":" ","HOUSE_NO":"３２號","E_COORD97":172299.98999999999,"N_COORD97":2542240.8399999999,"ADDRESS":"裕敬路３２號","OBJECTID":579985},"geometry":{"x":172299.99000000022,"y":2542240.8399999999}},{"attributes":{"ID":580013,"DIS_CODE":0,"TOWNNAME":"東區","LI":"裕聖里","LIN":"16鄰","STREET":"裕敬路","SECT":" ","MAREA":" ","LANE":" ","ALLEY":" ","HOUSE_NO":"３６號","E_COORD97":172307.72,"N_COORD97":2542240.5299999998,"ADDRESS":"裕敬路３６號","OBJECTID":579986},"geometry":{"x":172307.72000000067,"y":2542240.5300000012}},{"attributes":{"ID":580014,"DIS_CODE":0,"TOWNNAME":"東區","LI":"裕聖里","LIN":"16鄰","STREET":"裕敬路","SECT":" ","MAREA":" ","LANE":" ","ALLEY":" ","HOUSE_NO":"４０號","E_COORD97":172307.41,"N_COORD97":2542229.1000000001,"ADDRESS":"裕敬路４０號","OBJECTID":579987},"geometry":{"x":172307.41000000015,"y":2542229.0999999996}},{"attributes":{"ID":580015,"DIS_CODE":0,"TOWNNAME":"東區","LI":"裕聖里","LIN":"16鄰","STREET":"裕敬路","SECT":" ","MAREA":" ","LANE":" ","ALLEY":" ","HOUSE_NO":"４２號","E_COORD97":172307.56,"N_COORD97":2542223.23,"ADDRESS":"裕敬路４２號","OBJECTID":579988},"geometry":{"x":172307.55999999959,"y":2542223.2300000023}},{"attributes":{"ID":580016,"DIS_CODE":0,"TOWNNAME":"東區","LI":"裕聖里","LIN":"16鄰","STREET":"裕敬路","SECT":" ","MAREA":" ","LANE":" ","ALLEY":" ","HOUSE_NO":"４６號","E_COORD97":172307.72,"N_COORD97":2542217.5099999998,"ADDRESS":"裕敬路４６號","OBJECTID":579989},"geometry":{"x":172307.72000000067,"y":2542217.5100000016}},{"attributes":{"ID":580017,"DIS_CODE":0,"TOWNNAME":"東區","LI":"裕聖里","LIN":"16鄰","STREET":"裕敬路","SECT":" ","MAREA":" ","LANE":" ","ALLEY":" ","HOUSE_NO":"４８號","E_COORD97":172317.60999999999,"N_COORD97":2542216.4300000002,"ADDRESS":"裕敬路４８號","OBJECTID":579990},"geometry":{"x":172317.61000000127,"y":2542216.4299999997}},{"attributes":{"ID":580018,"DIS_CODE":0,"TOWNNAME":"東區","LI":"裕聖里","LIN":"16鄰","STREET":"裕敬路","SECT":" ","MAREA":" ","LANE":" ","ALLEY":" ","HOUSE_NO":"５０號","E_COORD97":172317.76000000001,"N_COORD97":2542222.1499999999,"ADDRESS":"裕敬路５０號","OBJECTID":579991},"geometry":{"x":172317.76000000071,"y":2542222.1500000004}},{"attributes":{"ID":580019,"DIS_CODE":0,"TOWNNAME":"東區","LI":"裕聖里","LIN":"16鄰","STREET":"裕敬路","SECT":" ","MAREA":" ","LANE":" ","ALLEY":" ","HOUSE_NO":"５２號","E_COORD97":172317.60999999999,"N_COORD97":2542228.3300000001,"ADDRESS":"裕敬路５２號","OBJECTID":579992},"geometry":{"x":172317.61000000127,"y":2542228.3299999982}},{"attributes":{"ID":580020,"DIS_CODE":0,"TOWNNAME":"東區","LI":"裕聖里","LIN":"16鄰","STREET":"裕敬路","SECT":" ","MAREA":" ","LANE":" ","ALLEY":" ","HOUSE_NO":"５６號","E_COORD97":172317.60999999999,"N_COORD97":2542234.04,"ADDRESS":"裕敬路５６號","OBJECTID":579993},"geometry":{"x":172317.61000000127,"y":2542234.040000001}},{"attributes":{"ID":580021,"DIS_CODE":0,"TOWNNAME":"東區","LI":"裕聖里","LIN":"16鄰","STREET":"裕敬路","SECT":" ","MAREA":" ","LANE":" ","ALLEY":" ","HOUSE_NO":"５８號","E_COORD97":172317.60999999999,"N_COORD97":2542240.3799999999,"ADDRESS":"裕敬路５８號","OBJECTID":579994},"geometry":{"x":172317.61000000127,"y":2542240.3799999971}},{"attributes":{"ID":580022,"DIS_CODE":0,"TOWNNAME":"東區","LI":"裕聖里","LIN":"16鄰","STREET":"裕敬路","SECT":" ","MAREA":" ","LANE":" ","ALLEY":" ","HOUSE_NO":"６０號","E_COORD97":172323.01000000001,"N_COORD97":2542240.5299999998,"ADDRESS":"裕敬路６０號","OBJECTID":579995},"geometry":{"x":172323.00999999978,"y":2542240.5300000012}},{"attributes":{"ID":580023,"DIS_CODE":0,"TOWNNAME":"東區","LI":"裕聖里","LIN":"16鄰","STREET":"裕敬路","SECT":" ","MAREA":" ","LANE":" ","ALLEY":" ","HOUSE_NO":"６２號","E_COORD97":172328.10999999999,"N_COORD97":2542240.3799999999,"ADDRESS":"裕敬路６２號","OBJECTID":579996},"geometry":{"x":172328.11000000034,"y":2542240.3799999971}},{"attributes":{"ID":580024,"DIS_CODE":0,"TOWNNAME":"東區","LI":"裕聖里","LIN":"16鄰","STREET":"裕敬路","SECT":" ","MAREA":" ","LANE":" ","ALLEY":" ","HOUSE_NO":"６６號","E_COORD97":172333.98999999999,"N_COORD97":2542240.5299999998,"ADDRESS":"裕敬路６６號","OBJECTID":579997},"geometry":{"x":172333.99000000022,"y":2542240.5300000012}},{"attributes":{"ID":580025,"DIS_CODE":0,"TOWNNAME":"東區","LI":"裕聖里","LIN":"16鄰","STREET":"裕敬路","SECT":" ","MAREA":" ","LANE":" ","ALLEY":" ","HOUSE_NO":"７２號","E_COORD97":172332.89999999999,"N_COORD97":2542222.9199999999,"ADDRESS":"裕敬路７２號","OBJECTID":579998},"geometry":{"x":172332.90000000037,"y":2542222.9199999999}},{"attributes":{"ID":580026,"DIS_CODE":0,"TOWNNAME":"東區","LI":"裕聖里","LIN":"16鄰","STREET":"裕敬路","SECT":" ","MAREA":" ","LANE":" ","ALLEY":" ","HOUSE_NO":"７６號","E_COORD97":172332.29000000001,"N_COORD97":2542215.8100000001,"ADDRESS":"裕敬路７６號","OBJECTID":579999},"geometry":{"x":172332.28999999911,"y":2542215.8100000042}},{"attributes":{"ID":580027,"DIS_CODE":0,"TOWNNAME":"東區","LI":"裕聖里","LIN":"16鄰","STREET":"裕敬路","SECT":" ","MAREA":" ","LANE":" ","ALLEY":" ","HOUSE_NO":"７８號","E_COORD97":172333.06,"N_COORD97":2542204.0699999998,"ADDRESS":"裕敬路７８號","OBJECTID":580000},"geometry":{"x":172333.05999999959,"y":2542204.0700000022}}]}