{"displayFieldName":"TOWNNAME","fieldAliases":{"ID":"ID","DIS_CODE":"DIS_CODE","TOWNNAME":"TOWNNAME","LI":"LI","LIN":"LIN","STREET":"STREET","SECT":"SECT","MAREA":"MAREA","LANE":"LANE","ALLEY":"ALLEY","HOUSE_NO":"HOUSE_NO","E_COORD97":"E_COORD97","N_COORD97":"N_COORD97","ADDRESS":"ADDRESS","OBJECTID":"OBJECTID"},"geometryType":"esriGeometryPoint","spatialReference":{"wkid":102443,"latestWkid":3826},"fields":[{"name":"ID","type":"esriFieldTypeDouble","alias":"ID"},{"name":"DIS_CODE","type":"esriFieldTypeInteger","alias":"DIS_CODE"},{"name":"TOWNNAME","type":"esriFieldTypeString","alias":"TOWNNAME","length":8},{"name":"LI","type":"esriFieldTypeString","alias":"LI","length":8},{"name":"LIN","type":"esriFieldTypeString","alias":"LIN","length":12},{"name":"STREET","type":"esriFieldTypeString","alias":"STREET","length":20},{"name":"SECT","type":"esriFieldTypeString","alias":"SECT","length":8},{"name":"MAREA","type":"esriFieldTypeString","alias":"MAREA","length":12},{"name":"LANE","type":"esriFieldTypeString","alias":"LANE","length":10},{"name":"ALLEY","type":"esriFieldTypeString","alias":"ALLEY","length":10},{"name":"HOUSE_NO","type":"esriFieldTypeString","alias":"HOUSE_NO","length":20},{"name":"E_COORD97","type":"esriFieldTypeDouble","alias":"E_COORD97"},{"name":"N_COORD97","type":"esriFieldTypeDouble","alias":"N_COORD97"},{"name":"ADDRESS","type":"esriFieldTypeString","alias":"ADDRESS","length":50},{"name":"OBJECTID","type":"esriFieldTypeOID","alias":"OBJECTID"}],"features":[{"attributes":{"ID":544228,"DIS_CODE":0,"TOWNNAME":"佳里區","LI":"安西里","LIN":"12鄰","STREET":"新生路","SECT":" ","MAREA":" ","LANE":" ","ALLEY":" ","HOUSE_NO":"３７４號","E_COORD97":165379.82999999999,"N_COORD97":2562230.48,"ADDRESS":"新生路３７４號","OBJECTID":544201},"geometry":{"x":165379.83000000007,"y":2562230.4800000004}},{"attributes":{"ID":544229,"DIS_CODE":0,"TOWNNAME":"佳里區","LI":"安西里","LIN":"12鄰","STREET":"新生路","SECT":" ","MAREA":" ","LANE":" ","ALLEY":" ","HOUSE_NO":"３７６號","E_COORD97":165375.48000000001,"N_COORD97":2562229.6499999999,"ADDRESS":"新生路３７６號","OBJECTID":544202},"geometry":{"x":165375.48000000045,"y":2562229.6500000004}},{"attributes":{"ID":544230,"DIS_CODE":0,"TOWNNAME":"佳里區","LI":"建南里","LIN":"12鄰","STREET":"新生路","SECT":" ","MAREA":" ","LANE":" ","ALLEY":" ","HOUSE_NO":"３７７號","E_COORD97":165363.04999999999,"N_COORD97":2562194.0699999998,"ADDRESS":"新生路３７７號","OBJECTID":544203},"geometry":{"x":165363.04999999888,"y":2562194.0700000022}},{"attributes":{"ID":544231,"DIS_CODE":0,"TOWNNAME":"佳里區","LI":"安西里","LIN":"12鄰","STREET":"新生路","SECT":" ","MAREA":" ","LANE":" ","ALLEY":" ","HOUSE_NO":"３７８號","E_COORD97":165371.01000000001,"N_COORD97":2562228.8599999999,"ADDRESS":"新生路３７８號","OBJECTID":544204},"geometry":{"x":165371.01000000071,"y":2562228.8600000013}},{"attributes":{"ID":544232,"DIS_CODE":0,"TOWNNAME":"佳里區","LI":"建南里","LIN":"12鄰","STREET":"新生路","SECT":" ","MAREA":" ","LANE":" ","ALLEY":" ","HOUSE_NO":"３７９號","E_COORD97":165358.92000000001,"N_COORD97":2562193.2200000002,"ADDRESS":"新生路３７９號","OBJECTID":544205},"geometry":{"x":165358.91999999993,"y":2562193.2200000025}},{"attributes":{"ID":544233,"DIS_CODE":0,"TOWNNAME":"佳里區","LI":"忠仁里","LIN":"12鄰","STREET":"新生路","SECT":" ","MAREA":" ","LANE":" ","ALLEY":" ","HOUSE_NO":"３７號","E_COORD97":166104.16,"N_COORD97":2562366.6299999999,"ADDRESS":"新生路３７號","OBJECTID":544206},"geometry":{"x":166104.16000000108,"y":2562366.629999999}},{"attributes":{"ID":544234,"DIS_CODE":0,"TOWNNAME":"佳里區","LI":"安西里","LIN":"12鄰","STREET":"新生路","SECT":" ","MAREA":" ","LANE":" ","ALLEY":" ","HOUSE_NO":"３９２號","E_COORD97":165344.81,"N_COORD97":2562223.3300000001,"ADDRESS":"新生路３９２號","OBJECTID":544207},"geometry":{"x":165344.81000000052,"y":2562223.3300000019}},{"attributes":{"ID":544235,"DIS_CODE":0,"TOWNNAME":"佳里區","LI":"建南里","LIN":"12鄰","STREET":"新生路","SECT":" ","MAREA":" ","LANE":" ","ALLEY":" ","HOUSE_NO":"３９３號","E_COORD97":165327.57999999999,"N_COORD97":2562186.4900000002,"ADDRESS":"新生路３９３號","OBJECTID":544208},"geometry":{"x":165327.58000000194,"y":2562186.4900000002}},{"attributes":{"ID":544236,"DIS_CODE":0,"TOWNNAME":"佳里區","LI":"安西里","LIN":"12鄰","STREET":"新生路","SECT":" ","MAREA":" ","LANE":" ","ALLEY":" ","HOUSE_NO":"３９６號","E_COORD97":165339.64000000001,"N_COORD97":2562222.29,"ADDRESS":"新生路３９６號","OBJECTID":544209},"geometry":{"x":165339.63999999966,"y":2562222.290000001}},{"attributes":{"ID":544237,"DIS_CODE":0,"TOWNNAME":"佳里區","LI":"建南里","LIN":"12鄰","STREET":"新生路","SECT":" ","MAREA":" ","LANE":" ","ALLEY":" ","HOUSE_NO":"３９７號","E_COORD97":165320.67999999999,"N_COORD97":2562185.1299999999,"ADDRESS":"新生路３９７號","OBJECTID":544210},"geometry":{"x":165320.6799999997,"y":2562185.1300000008}},{"attributes":{"ID":544238,"DIS_CODE":0,"TOWNNAME":"佳里區","LI":"安西里","LIN":"12鄰","STREET":"新生路","SECT":" ","MAREA":" ","LANE":" ","ALLEY":" ","HOUSE_NO":"３９８號","E_COORD97":165334.66,"N_COORD97":2562221.0600000001,"ADDRESS":"新生路３９８號","OBJECTID":544211},"geometry":{"x":165334.66000000108,"y":2562221.0600000024}},{"attributes":{"ID":544239,"DIS_CODE":0,"TOWNNAME":"佳里區","LI":"建南里","LIN":"12鄰","STREET":"新生路","SECT":" ","MAREA":" ","LANE":" ","ALLEY":" ","HOUSE_NO":"３９９號","E_COORD97":165316.23999999999,"N_COORD97":2562184.25,"ADDRESS":"新生路３９９號","OBJECTID":544212},"geometry":{"x":165316.24000000022,"y":2562184.25}},{"attributes":{"ID":544240,"DIS_CODE":0,"TOWNNAME":"佳里區","LI":"忠仁里","LIN":"12鄰","STREET":"新生路","SECT":" ","MAREA":" ","LANE":" ","ALLEY":" ","HOUSE_NO":"３９號之１","E_COORD97":166095.20999999999,"N_COORD97":2562363.98,"ADDRESS":"新生路３９號之１","OBJECTID":544213},"geometry":{"x":166095.21000000089,"y":2562363.9800000023}},{"attributes":{"ID":544241,"DIS_CODE":0,"TOWNNAME":"佳里區","LI":"忠仁里","LIN":"12鄰","STREET":"新生路","SECT":" ","MAREA":" ","LANE":" ","ALLEY":" ","HOUSE_NO":"３９號","E_COORD97":166099.84,"N_COORD97":2562365.77,"ADDRESS":"新生路３９號","OBJECTID":544214},"geometry":{"x":166099.83999999985,"y":2562365.7699999996}},{"attributes":{"ID":544242,"DIS_CODE":0,"TOWNNAME":"佳里區","LI":"安西里","LIN":"12鄰","STREET":"新生路","SECT":" ","MAREA":" ","LANE":" ","ALLEY":" ","HOUSE_NO":"４００號","E_COORD97":165329.38,"N_COORD97":2562220.0299999998,"ADDRESS":"新生路４００號","OBJECTID":544215},"geometry":{"x":165329.38000000082,"y":2562220.0300000012}},{"attributes":{"ID":544243,"DIS_CODE":0,"TOWNNAME":"佳里區","LI":"忠仁里","LIN":"12鄰","STREET":"新生路","SECT":" ","MAREA":" ","LANE":" ","ALLEY":" ","HOUSE_NO":"４５號","E_COORD97":166075.95000000001,"N_COORD97":2562358.5600000001,"ADDRESS":"新生路４５號","OBJECTID":544216},"geometry":{"x":166075.95000000019,"y":2562358.5600000005}},{"attributes":{"ID":544244,"DIS_CODE":0,"TOWNNAME":"佳里區","LI":"忠仁里","LIN":"12鄰","STREET":"新生路","SECT":" ","MAREA":" ","LANE":" ","ALLEY":" ","HOUSE_NO":"４７號","E_COORD97":166071.82999999999,"N_COORD97":2562357.0899999999,"ADDRESS":"新生路４７號","OBJECTID":544217},"geometry":{"x":166071.83000000194,"y":2562357.0899999999}},{"attributes":{"ID":544245,"DIS_CODE":0,"TOWNNAME":"佳里區","LI":"忠仁里","LIN":"12鄰","STREET":"新生路","SECT":" ","MAREA":" ","LANE":" ","ALLEY":" ","HOUSE_NO":"４９號","E_COORD97":166067.57999999999,"N_COORD97":2562355.5600000001,"ADDRESS":"新生路４９號","OBJECTID":544218},"geometry":{"x":166067.58000000007,"y":2562355.5600000005}},{"attributes":{"ID":544246,"DIS_CODE":0,"TOWNNAME":"佳里區","LI":"忠仁里","LIN":"12鄰","STREET":"新生路","SECT":" ","MAREA":" ","LANE":" ","ALLEY":" ","HOUSE_NO":"６９號","E_COORD97":166017.39999999999,"N_COORD97":2562337.0099999998,"ADDRESS":"新生路６９號","OBJECTID":544219},"geometry":{"x":166017.40000000224,"y":2562337.0100000016}},{"attributes":{"ID":544247,"DIS_CODE":0,"TOWNNAME":"佳里區","LI":"忠仁里","LIN":"12鄰","STREET":"新生路","SECT":" ","MAREA":" ","LANE":" ","ALLEY":" ","HOUSE_NO":"９號","E_COORD97":166156.73999999999,"N_COORD97":2562399.5,"ADDRESS":"新生路９號","OBJECTID":544220},"geometry":{"x":166156.74000000022,"y":2562399.5}},{"attributes":{"ID":544248,"DIS_CODE":0,"TOWNNAME":"南區","LI":"郡南里","LIN":"20鄰","STREET":"中華南路","SECT":"二段","MAREA":" ","LANE":" ","ALLEY":" ","HOUSE_NO":"１０６號","E_COORD97":167260.35000000001,"N_COORD97":2540310.1600000001,"ADDRESS":"中華南路二段１０６號","OBJECTID":544221},"geometry":{"x":167260.35000000056,"y":2540310.1600000001}},{"attributes":{"ID":544249,"DIS_CODE":0,"TOWNNAME":"南區","LI":"郡南里","LIN":"20鄰","STREET":"中華南路","SECT":"二段","MAREA":" ","LANE":" ","ALLEY":" ","HOUSE_NO":"１０６之１號","E_COORD97":167256.70000000001,"N_COORD97":2540309.52,"ADDRESS":"中華南路二段１０６之１號","OBJECTID":544222},"geometry":{"x":167256.70000000112,"y":2540309.5199999996}},{"attributes":{"ID":544250,"DIS_CODE":0,"TOWNNAME":"永康區","LI":"西灣里","LIN":"12鄰","STREET":"大灣五街","SECT":" ","MAREA":" ","LANE":" ","ALLEY":" ","HOUSE_NO":"１６８號","E_COORD97":174491.45999999999,"N_COORD97":2545322.5600000001,"ADDRESS":"大灣五街１６８號","OBJECTID":544223},"geometry":{"x":174491.46000000089,"y":2545322.5600000005}},{"attributes":{"ID":544251,"DIS_CODE":0,"TOWNNAME":"永康區","LI":"埔園里","LIN":"12鄰","STREET":"中山路","SECT":" ","MAREA":" ","LANE":" ","ALLEY":" ","HOUSE_NO":"１８１號","E_COORD97":173686.67999999999,"N_COORD97":2548015.7400000002,"ADDRESS":"中山路１８１號","OBJECTID":544224},"geometry":{"x":173686.6799999997,"y":2548015.7400000002}},{"attributes":{"ID":544252,"DIS_CODE":0,"TOWNNAME":"永康區","LI":"東橋里","LIN":"12鄰","STREET":"中山南路","SECT":" ","MAREA":" ","LANE":" ","ALLEY":" ","HOUSE_NO":"２１１號","E_COORD97":171618.59,"N_COORD97":2546183.1000000001,"ADDRESS":"中山南路２１１號","OBJECTID":544225},"geometry":{"x":171618.59000000078,"y":2546183.1000000034}},{"attributes":{"ID":544253,"DIS_CODE":0,"TOWNNAME":"永康區","LI":"東橋里","LIN":"12鄰","STREET":"中山南路","SECT":" ","MAREA":" ","LANE":" ","ALLEY":" ","HOUSE_NO":"２０９號","E_COORD97":171615.17999999999,"N_COORD97":2546180.3500000001,"ADDRESS":"中山南路２０９號","OBJECTID":544226},"geometry":{"x":171615.1799999997,"y":2546180.3499999996}},{"attributes":{"ID":544254,"DIS_CODE":0,"TOWNNAME":"永康區","LI":"東灣里","LIN":"12鄰","STREET":"大灣二街","SECT":" ","MAREA":" ","LANE":" ","ALLEY":" ","HOUSE_NO":"１０８號","E_COORD97":174755.67999999999,"N_COORD97":2544798,"ADDRESS":"大灣二街１０８號","OBJECTID":544227},"geometry":{"x":174755.68000000063,"y":2544798.0000000019}},{"attributes":{"ID":544255,"DIS_CODE":0,"TOWNNAME":"永康區","LI":"埔園里","LIN":"12鄰","STREET":"中山路","SECT":" ","MAREA":" ","LANE":" ","ALLEY":" ","HOUSE_NO":"１７７號","E_COORD97":173692.63,"N_COORD97":2548008.5,"ADDRESS":"中山路１７７號","OBJECTID":544228},"geometry":{"x":173692.62999999989,"y":2548008.5000000019}},{"attributes":{"ID":544256,"DIS_CODE":0,"TOWNNAME":"永康區","LI":"東橋里","LIN":"12鄰","STREET":"中山南路","SECT":" ","MAREA":" ","LANE":" ","ALLEY":" ","HOUSE_NO":"２２９號","E_COORD97":171648.60999999999,"N_COORD97":2546206.0800000001,"ADDRESS":"中山南路２２９號","OBJECTID":544229},"geometry":{"x":171648.61000000034,"y":2546206.0800000001}},{"attributes":{"ID":544257,"DIS_CODE":0,"TOWNNAME":"永康區","LI":"埔園里","LIN":"12鄰","STREET":"中山路","SECT":" ","MAREA":" ","LANE":" ","ALLEY":" ","HOUSE_NO":"１７９號","E_COORD97":173690.17999999999,"N_COORD97":2548011.7400000002,"ADDRESS":"中山路１７９號","OBJECTID":544230},"geometry":{"x":173690.1799999997,"y":2548011.7400000002}},{"attributes":{"ID":544258,"DIS_CODE":0,"TOWNNAME":"安南區","LI":"溪北里","LIN":"12鄰","STREET":"文安街","SECT":" ","MAREA":" ","LANE":" ","ALLEY":" ","HOUSE_NO":"７１號","E_COORD97":169329.89000000001,"N_COORD97":2547464.8599999999,"ADDRESS":"文安街７１號","OBJECTID":544231},"geometry":{"x":169329.8900000006,"y":2547464.8599999994}},{"attributes":{"ID":544259,"DIS_CODE":0,"TOWNNAME":"安南區","LI":"州南里","LIN":"12鄰","STREET":"長和路","SECT":"二段","MAREA":" ","LANE":" ","ALLEY":" ","HOUSE_NO":"３６之３號","E_COORD97":170569.88,"N_COORD97":2551622.6099999999,"ADDRESS":"長和路二段３６之３號","OBJECTID":544232},"geometry":{"x":170569.87999999989,"y":2551622.6099999994}},{"attributes":{"ID":544260,"DIS_CODE":0,"TOWNNAME":"安南區","LI":"佃東里","LIN":"12鄰","STREET":"公學路","SECT":"四段","MAREA":" ","LANE":" ","ALLEY":" ","HOUSE_NO":"１８９之２號","E_COORD97":165601.06,"N_COORD97":2551939.0299999998,"ADDRESS":"公學路四段１８９之２號","OBJECTID":544233},"geometry":{"x":165601.05999999959,"y":2551939.0299999993}},{"attributes":{"ID":544261,"DIS_CODE":0,"TOWNNAME":"南區","LI":"明興里","LIN":"12鄰","STREET":"金華路","SECT":"一段","MAREA":" ","LANE":" ","ALLEY":" ","HOUSE_NO":"８６號","E_COORD97":166905.41,"N_COORD97":2540436.1600000001,"ADDRESS":"金華路一段８６號","OBJECTID":544234},"geometry":{"x":166905.41000000201,"y":2540436.1599999983}},{"attributes":{"ID":544262,"DIS_CODE":0,"TOWNNAME":"新化區","LI":"武安里","LIN":"12鄰","STREET":"正新南路","SECT":" ","MAREA":" ","LANE":" ","ALLEY":" ","HOUSE_NO":"１２５號","E_COORD97":178846.07000000001,"N_COORD97":2547956.25,"ADDRESS":"正新南路１２５號","OBJECTID":544235},"geometry":{"x":178846.07000000123,"y":2547956.2500000019}},{"attributes":{"ID":544263,"DIS_CODE":0,"TOWNNAME":"南區","LI":"文南里","LIN":"20鄰","STREET":"仁南四街","SECT":" ","MAREA":" ","LANE":" ","ALLEY":" ","HOUSE_NO":"２７號","E_COORD97":166465.10000000001,"N_COORD97":2542763.9199999999,"ADDRESS":"仁南四街２７號","OBJECTID":544236},"geometry":{"x":166465.10000000056,"y":2542763.9200000018}},{"attributes":{"ID":544264,"DIS_CODE":0,"TOWNNAME":"南區","LI":"文南里","LIN":"20鄰","STREET":"仁南四街","SECT":" ","MAREA":" ","LANE":" ","ALLEY":" ","HOUSE_NO":"２９號","E_COORD97":166464.94,"N_COORD97":2542757.4100000001,"ADDRESS":"仁南四街２９號","OBJECTID":544237},"geometry":{"x":166464.94000000134,"y":2542757.410000002}},{"attributes":{"ID":544265,"DIS_CODE":0,"TOWNNAME":"南區","LI":"文南里","LIN":"20鄰","STREET":"仁南四街","SECT":" ","MAREA":" ","LANE":" ","ALLEY":" ","HOUSE_NO":"３１號","E_COORD97":166462.87,"N_COORD97":2542752.0099999998,"ADDRESS":"仁南四街３１號","OBJECTID":544238},"geometry":{"x":166462.87000000011,"y":2542752.0099999998}},{"attributes":{"ID":544266,"DIS_CODE":0,"TOWNNAME":"南區","LI":"文南里","LIN":"20鄰","STREET":"仁南四街","SECT":" ","MAREA":" ","LANE":" ","ALLEY":" ","HOUSE_NO":"３３號","E_COORD97":166463.98999999999,"N_COORD97":2542746.46,"ADDRESS":"仁南四街３３號","OBJECTID":544239},"geometry":{"x":166463.99000000022,"y":2542746.4600000009}},{"attributes":{"ID":544267,"DIS_CODE":0,"TOWNNAME":"南區","LI":"文南里","LIN":"20鄰","STREET":"仁南四街","SECT":" ","MAREA":" ","LANE":" ","ALLEY":" ","HOUSE_NO":"３５號","E_COORD97":166452.70999999999,"N_COORD97":2542747.25,"ADDRESS":"仁南四街３５號","OBJECTID":544240},"geometry":{"x":166452.71000000089,"y":2542747.25}},{"attributes":{"ID":544268,"DIS_CODE":0,"TOWNNAME":"南區","LI":"文南里","LIN":"20鄰","STREET":"仁南四街","SECT":" ","MAREA":" ","LANE":" ","ALLEY":" ","HOUSE_NO":"３７號","E_COORD97":166453.51000000001,"N_COORD97":2542752.1699999999,"ADDRESS":"仁南四街３７號","OBJECTID":544241},"geometry":{"x":166453.51000000164,"y":2542752.1700000018}},{"attributes":{"ID":544269,"DIS_CODE":0,"TOWNNAME":"東區","LI":"崇善里","LIN":"12鄰","STREET":"崇善九街","SECT":" ","MAREA":" ","LANE":" ","ALLEY":" ","HOUSE_NO":"４３號","E_COORD97":171176.85000000001,"N_COORD97":2541368.1400000001,"ADDRESS":"崇善九街４３號","OBJECTID":544242},"geometry":{"x":171176.84999999963,"y":2541368.1400000006}},{"attributes":{"ID":544270,"DIS_CODE":0,"TOWNNAME":"新化區","LI":"太平里","LIN":"12鄰","STREET":"中正路","SECT":" ","MAREA":" ","LANE":" ","ALLEY":" ","HOUSE_NO":"６７３號之１","E_COORD97":178830.73999999999,"N_COORD97":2549070.2599999998,"ADDRESS":"中正路６７３號之１","OBJECTID":544243},"geometry":{"x":178830.74000000115,"y":2549070.2599999979}},{"attributes":{"ID":544271,"DIS_CODE":0,"TOWNNAME":"新化區","LI":"武安里","LIN":"12鄰","STREET":"正新南路","SECT":" ","MAREA":" ","LANE":" ","ALLEY":" ","HOUSE_NO":"１１９號","E_COORD97":178866.67000000001,"N_COORD97":2547959.25,"ADDRESS":"正新南路１１９號","OBJECTID":544244},"geometry":{"x":178866.67000000086,"y":2547959.2500000019}},{"attributes":{"ID":544272,"DIS_CODE":0,"TOWNNAME":"新化區","LI":"武安里","LIN":"12鄰","STREET":"正新南路","SECT":" ","MAREA":" ","LANE":" ","ALLEY":" ","HOUSE_NO":"１２７號","E_COORD97":178837.47,"N_COORD97":2547954.25,"ADDRESS":"正新南路１２７號","OBJECTID":544245},"geometry":{"x":178837.47000000067,"y":2547954.25}},{"attributes":{"ID":544273,"DIS_CODE":0,"TOWNNAME":"麻豆區","LI":"穀興里","LIN":"12鄰","STREET":"中華街","SECT":" ","MAREA":" ","LANE":" ","ALLEY":" ","HOUSE_NO":"１６號","E_COORD97":172925.39000000001,"N_COORD97":2564836.54,"ADDRESS":"中華街１６號","OBJECTID":544246},"geometry":{"x":172925.3900000006,"y":2564836.5400000028}},{"attributes":{"ID":544274,"DIS_CODE":0,"TOWNNAME":"南區","LI":"文南里","LIN":"20鄰","STREET":"仁南二街","SECT":" ","MAREA":" ","LANE":" ","ALLEY":" ","HOUSE_NO":"１８號","E_COORD97":166442.87,"N_COORD97":2542661.21,"ADDRESS":"仁南二街１８號","OBJECTID":544247},"geometry":{"x":166442.87000000197,"y":2542661.2100000028}},{"attributes":{"ID":544275,"DIS_CODE":0,"TOWNNAME":"南區","LI":"文南里","LIN":"20鄰","STREET":"仁南二街","SECT":" ","MAREA":" ","LANE":" ","ALLEY":" ","HOUSE_NO":"２０號","E_COORD97":166453.19,"N_COORD97":2542660.2599999998,"ADDRESS":"仁南二街２０號","OBJECTID":544248},"geometry":{"x":166453.19000000134,"y":2542660.2600000016}},{"attributes":{"ID":544276,"DIS_CODE":0,"TOWNNAME":"南區","LI":"文南里","LIN":"20鄰","STREET":"仁南二街","SECT":" ","MAREA":" ","LANE":" ","ALLEY":" ","HOUSE_NO":"２２號","E_COORD97":166463.35000000001,"N_COORD97":2542658.3500000001,"ADDRESS":"仁南二街２２號","OBJECTID":544249},"geometry":{"x":166463.35000000056,"y":2542658.3499999978}},{"attributes":{"ID":544277,"DIS_CODE":0,"TOWNNAME":"南區","LI":"文南里","LIN":"20鄰","STREET":"仁南二街","SECT":" ","MAREA":" ","LANE":" ","ALLEY":" ","HOUSE_NO":"２６號","E_COORD97":166474.62,"N_COORD97":2542657.0800000001,"ADDRESS":"仁南二街２６號","OBJECTID":544250},"geometry":{"x":166474.62000000011,"y":2542657.0800000001}},{"attributes":{"ID":544278,"DIS_CODE":0,"TOWNNAME":"南區","LI":"文南里","LIN":"20鄰","STREET":"仁南二街","SECT":" ","MAREA":" ","LANE":" ","ALLEY":" ","HOUSE_NO":"２８號","E_COORD97":166483.35000000001,"N_COORD97":2542656.7599999998,"ADDRESS":"仁南二街２８號","OBJECTID":544251},"geometry":{"x":166483.35000000056,"y":2542656.7600000016}},{"attributes":{"ID":544279,"DIS_CODE":0,"TOWNNAME":"安南區","LI":"大安里","LIN":"6鄰","STREET":"理安街","SECT":" ","MAREA":" ","LANE":" ","ALLEY":" ","HOUSE_NO":"８６號","E_COORD97":167386.14999999999,"N_COORD97":2548041.75,"ADDRESS":"理安街８６號","OBJECTID":544252},"geometry":{"x":167386.1500000013,"y":2548041.7500000019}},{"attributes":{"ID":544280,"DIS_CODE":0,"TOWNNAME":"安南區","LI":"大安里","LIN":"6鄰","STREET":"理安街","SECT":" ","MAREA":" ","LANE":" ","ALLEY":" ","HOUSE_NO":"８７號","E_COORD97":167366.35999999999,"N_COORD97":2548058.1499999999,"ADDRESS":"理安街８７號","OBJECTID":544253},"geometry":{"x":167366.36000000034,"y":2548058.1500000041}},{"attributes":{"ID":544281,"DIS_CODE":0,"TOWNNAME":"東區","LI":"大福里","LIN":"12鄰","STREET":"立德四路","SECT":" ","MAREA":" ","LANE":" ","ALLEY":" ","HOUSE_NO":"２９號","E_COORD97":169601.23000000001,"N_COORD97":2541824.7999999998,"ADDRESS":"立德四路２９號","OBJECTID":544254},"geometry":{"x":169601.23000000138,"y":2541824.8000000007}},{"attributes":{"ID":544282,"DIS_CODE":0,"TOWNNAME":"南區","LI":"文南里","LIN":"20鄰","STREET":"仁南二街","SECT":" ","MAREA":" ","LANE":" ","ALLEY":" ","HOUSE_NO":"２號","E_COORD97":166403.17999999999,"N_COORD97":2542665.9700000002,"ADDRESS":"仁南二街２號","OBJECTID":544255},"geometry":{"x":166403.18000000063,"y":2542665.9700000025}},{"attributes":{"ID":544283,"DIS_CODE":0,"TOWNNAME":"南區","LI":"文南里","LIN":"20鄰","STREET":"仁南二街","SECT":" ","MAREA":" ","LANE":" ","ALLEY":" ","HOUSE_NO":"６號","E_COORD97":166409.37,"N_COORD97":2542664.46,"ADDRESS":"仁南二街６號","OBJECTID":544256},"geometry":{"x":166409.37000000104,"y":2542664.4600000009}},{"attributes":{"ID":544284,"DIS_CODE":0,"TOWNNAME":"南區","LI":"文南里","LIN":"20鄰","STREET":"仁南二街","SECT":" ","MAREA":" ","LANE":" ","ALLEY":" ","HOUSE_NO":"８號","E_COORD97":166415.88,"N_COORD97":2542663.8300000001,"ADDRESS":"仁南二街８號","OBJECTID":544257},"geometry":{"x":166415.88000000082,"y":2542663.8300000019}},{"attributes":{"ID":544285,"DIS_CODE":0,"TOWNNAME":"東區","LI":"大福里","LIN":"12鄰","STREET":"立德四路","SECT":" ","MAREA":" ","LANE":" ","ALLEY":" ","HOUSE_NO":"３１號","E_COORD97":169605.07000000001,"N_COORD97":2541824.1099999999,"ADDRESS":"立德四路３１號","OBJECTID":544258},"geometry":{"x":169605.07000000123,"y":2541824.1100000013}},{"attributes":{"ID":544286,"DIS_CODE":0,"TOWNNAME":"東區","LI":"大福里","LIN":"12鄰","STREET":"立德四路","SECT":" ","MAREA":" ","LANE":" ","ALLEY":" ","HOUSE_NO":"３９號","E_COORD97":169622.16,"N_COORD97":2541827.5899999999,"ADDRESS":"立德四路３９號","OBJECTID":544259},"geometry":{"x":169622.16000000015,"y":2541827.5900000017}},{"attributes":{"ID":544287,"DIS_CODE":0,"TOWNNAME":"東區","LI":"大福里","LIN":"12鄰","STREET":"立德四路","SECT":" ","MAREA":" ","LANE":" ","ALLEY":" ","HOUSE_NO":"４１號","E_COORD97":169627.04000000001,"N_COORD97":2541828.98,"ADDRESS":"立德四路４１號","OBJECTID":544260},"geometry":{"x":169627.04000000097,"y":2541828.9800000023}},{"attributes":{"ID":544288,"DIS_CODE":0,"TOWNNAME":"東區","LI":"大福里","LIN":"12鄰","STREET":"立德四路","SECT":" ","MAREA":" ","LANE":" ","ALLEY":" ","HOUSE_NO":"４３號","E_COORD97":169630.87,"N_COORD97":2541828.8700000001,"ADDRESS":"立德四路４３號","OBJECTID":544261},"geometry":{"x":169630.87000000011,"y":2541828.870000001}},{"attributes":{"ID":544289,"DIS_CODE":0,"TOWNNAME":"東區","LI":"大福里","LIN":"12鄰","STREET":"立德四路","SECT":" ","MAREA":" ","LANE":" ","ALLEY":" ","HOUSE_NO":"４５號","E_COORD97":169634.84,"N_COORD97":2541830.7200000002,"ADDRESS":"立德四路４５號","OBJECTID":544262},"geometry":{"x":169634.84000000171,"y":2541830.7200000025}},{"attributes":{"ID":544290,"DIS_CODE":0,"TOWNNAME":"東區","LI":"大福里","LIN":"12鄰","STREET":"立德四路","SECT":" ","MAREA":" ","LANE":" ","ALLEY":" ","HOUSE_NO":"４７號","E_COORD97":169639.85999999999,"N_COORD97":2541831.25,"ADDRESS":"立德四路４７號","OBJECTID":544263},"geometry":{"x":169639.86000000034,"y":2541831.25}},{"attributes":{"ID":544291,"DIS_CODE":0,"TOWNNAME":"東區","LI":"大福里","LIN":"12鄰","STREET":"立德四路","SECT":" ","MAREA":" ","LANE":" ","ALLEY":" ","HOUSE_NO":"４９號","E_COORD97":169644.10000000001,"N_COORD97":2541832.5699999998,"ADDRESS":"立德四路４９號","OBJECTID":544264},"geometry":{"x":169644.09999999963,"y":2541832.5700000003}},{"attributes":{"ID":544292,"DIS_CODE":0,"TOWNNAME":"東區","LI":"大福里","LIN":"12鄰","STREET":"立德五路","SECT":" ","MAREA":" ","LANE":" ","ALLEY":" ","HOUSE_NO":"２６號","E_COORD97":169590.07000000001,"N_COORD97":2541834.9100000001,"ADDRESS":"立德五路２６號","OBJECTID":544265},"geometry":{"x":169590.07000000123,"y":2541834.9100000039}},{"attributes":{"ID":544293,"DIS_CODE":0,"TOWNNAME":"東區","LI":"大福里","LIN":"12鄰","STREET":"立德五路","SECT":" ","MAREA":" ","LANE":" ","ALLEY":" ","HOUSE_NO":"２８號","E_COORD97":169595.29999999999,"N_COORD97":2541835.9500000002,"ADDRESS":"立德五路２８號","OBJECTID":544266},"geometry":{"x":169595.29999999981,"y":2541835.9499999993}},{"attributes":{"ID":544294,"DIS_CODE":0,"TOWNNAME":"東區","LI":"大福里","LIN":"12鄰","STREET":"立德五路","SECT":" ","MAREA":" ","LANE":" ","ALLEY":" ","HOUSE_NO":"３０號","E_COORD97":169598.79000000001,"N_COORD97":2541835.9500000002,"ADDRESS":"立德五路３０號","OBJECTID":544267},"geometry":{"x":169598.79000000097,"y":2541835.9499999993}},{"attributes":{"ID":544295,"DIS_CODE":0,"TOWNNAME":"東區","LI":"大福里","LIN":"12鄰","STREET":"立德五路","SECT":" ","MAREA":" ","LANE":" ","ALLEY":" ","HOUSE_NO":"３２號","E_COORD97":169602.98000000001,"N_COORD97":2541837.3399999999,"ADDRESS":"立德五路３２號","OBJECTID":544268},"geometry":{"x":169602.98000000138,"y":2541837.3399999999}},{"attributes":{"ID":544296,"DIS_CODE":0,"TOWNNAME":"東區","LI":"大福里","LIN":"12鄰","STREET":"立德五路","SECT":" ","MAREA":" ","LANE":" ","ALLEY":" ","HOUSE_NO":"３４號","E_COORD97":169607.16,"N_COORD97":2541837.6899999999,"ADDRESS":"立德五路３４號","OBJECTID":544269},"geometry":{"x":169607.16000000015,"y":2541837.6899999995}},{"attributes":{"ID":544297,"DIS_CODE":0,"TOWNNAME":"東區","LI":"大福里","LIN":"12鄰","STREET":"立德五路","SECT":" ","MAREA":" ","LANE":" ","ALLEY":" ","HOUSE_NO":"３６號","E_COORD97":169611.70000000001,"N_COORD97":2541838.3900000001,"ADDRESS":"立德五路３６號","OBJECTID":544270},"geometry":{"x":169611.70000000019,"y":2541838.3900000006}},{"attributes":{"ID":544298,"DIS_CODE":0,"TOWNNAME":"東區","LI":"大福里","LIN":"12鄰","STREET":"立德五路","SECT":" ","MAREA":" ","LANE":" ","ALLEY":" ","HOUSE_NO":"３８號","E_COORD97":169616.23000000001,"N_COORD97":2541839.0899999999,"ADDRESS":"立德五路３８號","OBJECTID":544271},"geometry":{"x":169616.23000000138,"y":2541839.0899999999}},{"attributes":{"ID":544299,"DIS_CODE":0,"TOWNNAME":"東區","LI":"大福里","LIN":"12鄰","STREET":"立德五路","SECT":" ","MAREA":" ","LANE":" ","ALLEY":" ","HOUSE_NO":"４０號","E_COORD97":169620.07000000001,"N_COORD97":2541840.1299999999,"ADDRESS":"立德五路４０號","OBJECTID":544272},"geometry":{"x":169620.06999999937,"y":2541840.1300000008}},{"attributes":{"ID":544300,"DIS_CODE":0,"TOWNNAME":"東區","LI":"大福里","LIN":"12鄰","STREET":"立德五路","SECT":" ","MAREA":" ","LANE":" ","ALLEY":" ","HOUSE_NO":"４２號","E_COORD97":169624.25,"N_COORD97":2541840.8300000001,"ADDRESS":"立德五路４２號","OBJECTID":544273},"geometry":{"x":169624.25000000093,"y":2541840.8300000001}},{"attributes":{"ID":544301,"DIS_CODE":0,"TOWNNAME":"東區","LI":"大福里","LIN":"12鄰","STREET":"立德五路","SECT":" ","MAREA":" ","LANE":" ","ALLEY":" ","HOUSE_NO":"４６號","E_COORD97":169632.72,"N_COORD97":2541842.8900000001,"ADDRESS":"立德五路４６號","OBJECTID":544274},"geometry":{"x":169632.72000000067,"y":2541842.8900000025}},{"attributes":{"ID":544302,"DIS_CODE":0,"TOWNNAME":"東區","LI":"大福里","LIN":"12鄰","STREET":"立德五路","SECT":" ","MAREA":" ","LANE":" ","ALLEY":" ","HOUSE_NO":"４８號","E_COORD97":169637.22,"N_COORD97":2541843.4199999999,"ADDRESS":"立德五路４８號","OBJECTID":544275},"geometry":{"x":169637.2200000016,"y":2541843.4199999999}},{"attributes":{"ID":544303,"DIS_CODE":0,"TOWNNAME":"東區","LI":"大福里","LIN":"12鄰","STREET":"立德五路","SECT":" ","MAREA":" ","LANE":" ","ALLEY":" ","HOUSE_NO":"５０號","E_COORD97":169641.45000000001,"N_COORD97":2541844.4700000002,"ADDRESS":"立德五路５０號","OBJECTID":544276},"geometry":{"x":169641.45000000112,"y":2541844.4700000007}},{"attributes":{"ID":544304,"DIS_CODE":0,"TOWNNAME":"東區","LI":"文聖里","LIN":"12鄰","STREET":"裕忠路","SECT":" ","MAREA":" ","LANE":" ","ALLEY":" ","HOUSE_NO":"２１２號","E_COORD97":172243.56,"N_COORD97":2542752.7599999998,"ADDRESS":"裕忠路２１２號","OBJECTID":544277},"geometry":{"x":172243.56000000145,"y":2542752.7599999998}},{"attributes":{"ID":544305,"DIS_CODE":0,"TOWNNAME":"東區","LI":"崇成里","LIN":"12鄰","STREET":"崇明十五街","SECT":" ","MAREA":" ","LANE":" ","ALLEY":" ","HOUSE_NO":"２號","E_COORD97":170637.54999999999,"N_COORD97":2541339.6699999999,"ADDRESS":"崇明十五街２號","OBJECTID":544278},"geometry":{"x":170637.55000000075,"y":2541339.6699999999}},{"attributes":{"ID":544306,"DIS_CODE":0,"TOWNNAME":"東區","LI":"崇成里","LIN":"12鄰","STREET":"崇明十五街","SECT":" ","MAREA":" ","LANE":" ","ALLEY":" ","HOUSE_NO":"２號地下層","E_COORD97":170645.04999999999,"N_COORD97":2541339.4199999999,"ADDRESS":"崇明十五街２號地下層","OBJECTID":544279},"geometry":{"x":170645.04999999981,"y":2541339.4200000037}},{"attributes":{"ID":544307,"DIS_CODE":0,"TOWNNAME":"東區","LI":"裕聖里","LIN":"12鄰","STREET":"裕孝路","SECT":" ","MAREA":" ","LANE":" ","ALLEY":" ","HOUSE_NO":"２３９號","E_COORD97":172447.98000000001,"N_COORD97":2542490.6099999999,"ADDRESS":"裕孝路２３９號","OBJECTID":544280},"geometry":{"x":172447.98000000045,"y":2542490.6100000031}},{"attributes":{"ID":544308,"DIS_CODE":0,"TOWNNAME":"東區","LI":"裕聖里","LIN":"12鄰","STREET":"裕孝路","SECT":" ","MAREA":" ","LANE":" ","ALLEY":" ","HOUSE_NO":"２４１號","E_COORD97":172453.38,"N_COORD97":2542489.0699999998,"ADDRESS":"裕孝路２４１號","OBJECTID":544281},"geometry":{"x":172453.37999999989,"y":2542489.0700000022}},{"attributes":{"ID":544309,"DIS_CODE":0,"TOWNNAME":"東區","LI":"裕聖里","LIN":"12鄰","STREET":"裕孝路","SECT":" ","MAREA":" ","LANE":" ","ALLEY":" ","HOUSE_NO":"２４３號","E_COORD97":172458.20999999999,"N_COORD97":2542487.3300000001,"ADDRESS":"裕孝路２４３號","OBJECTID":544282},"geometry":{"x":172458.20999999903,"y":2542487.3300000019}},{"attributes":{"ID":544310,"DIS_CODE":0,"TOWNNAME":"東區","LI":"裕聖里","LIN":"12鄰","STREET":"裕孝路","SECT":" ","MAREA":" ","LANE":" ","ALLEY":" ","HOUSE_NO":"２４５號","E_COORD97":172463.04000000001,"N_COORD97":2542489.6499999999,"ADDRESS":"裕孝路２４５號","OBJECTID":544283},"geometry":{"x":172463.0400000019,"y":2542489.6500000004}},{"attributes":{"ID":544311,"DIS_CODE":0,"TOWNNAME":"東區","LI":"裕聖里","LIN":"12鄰","STREET":"裕孝路","SECT":" ","MAREA":" ","LANE":" ","ALLEY":" ","HOUSE_NO":"２４７號","E_COORD97":172468.25,"N_COORD97":2542487.7200000002,"ADDRESS":"裕孝路２４７號","OBJECTID":544284},"geometry":{"x":172468.25000000186,"y":2542487.7200000044}},{"attributes":{"ID":544312,"DIS_CODE":0,"TOWNNAME":"東區","LI":"裕聖里","LIN":"12鄰","STREET":"裕孝路","SECT":" ","MAREA":" ","LANE":" ","ALLEY":" ","HOUSE_NO":"２４９號","E_COORD97":172473.07999999999,"N_COORD97":2542491,"ADDRESS":"裕孝路２４９號","OBJECTID":544285},"geometry":{"x":172473.08000000101,"y":2542491}},{"attributes":{"ID":544313,"DIS_CODE":0,"TOWNNAME":"東區","LI":"裕聖里","LIN":"12鄰","STREET":"裕孝路","SECT":" ","MAREA":" ","LANE":" ","ALLEY":" ","HOUSE_NO":"２５１號","E_COORD97":172478.88,"N_COORD97":2542487.1400000001,"ADDRESS":"裕孝路２５１號","OBJECTID":544286},"geometry":{"x":172478.87999999989,"y":2542487.1400000006}},{"attributes":{"ID":544314,"DIS_CODE":0,"TOWNNAME":"東區","LI":"裕聖里","LIN":"12鄰","STREET":"裕孝路","SECT":" ","MAREA":" ","LANE":" ","ALLEY":" ","HOUSE_NO":"２５３號","E_COORD97":172482.73999999999,"N_COORD97":2542490.04,"ADDRESS":"裕孝路２５３號","OBJECTID":544287},"geometry":{"x":172482.74000000115,"y":2542490.0399999991}},{"attributes":{"ID":544315,"DIS_CODE":0,"TOWNNAME":"東區","LI":"裕聖里","LIN":"12鄰","STREET":"裕孝路","SECT":" ","MAREA":" ","LANE":" ","ALLEY":" ","HOUSE_NO":"２５５號","E_COORD97":172487.95000000001,"N_COORD97":2542487.1400000001,"ADDRESS":"裕孝路２５５號","OBJECTID":544288},"geometry":{"x":172487.95000000112,"y":2542487.1400000006}},{"attributes":{"ID":544316,"DIS_CODE":0,"TOWNNAME":"東區","LI":"裕聖里","LIN":"12鄰","STREET":"裕孝路","SECT":" ","MAREA":" ","LANE":" ","ALLEY":" ","HOUSE_NO":"２５７號","E_COORD97":172493.75,"N_COORD97":2542490.6099999999,"ADDRESS":"裕孝路２５７號","OBJECTID":544289},"geometry":{"x":172493.75000000186,"y":2542490.6100000031}},{"attributes":{"ID":544317,"DIS_CODE":0,"TOWNNAME":"東區","LI":"裕聖里","LIN":"12鄰","STREET":"裕孝路","SECT":" ","MAREA":" ","LANE":" ","ALLEY":" ","HOUSE_NO":"２５９號","E_COORD97":172497.60999999999,"N_COORD97":2542487.1400000001,"ADDRESS":"裕孝路２５９號","OBJECTID":544290},"geometry":{"x":172497.61000000034,"y":2542487.1400000006}},{"attributes":{"ID":544318,"DIS_CODE":0,"TOWNNAME":"東區","LI":"裕聖里","LIN":"12鄰","STREET":"裕孝路","SECT":" ","MAREA":" ","LANE":" ","ALLEY":" ","HOUSE_NO":"２６１號","E_COORD97":172502.63,"N_COORD97":2542490.04,"ADDRESS":"裕孝路２６１號","OBJECTID":544291},"geometry":{"x":172502.62999999989,"y":2542490.0399999991}},{"attributes":{"ID":544319,"DIS_CODE":0,"TOWNNAME":"東區","LI":"裕聖里","LIN":"12鄰","STREET":"裕孝路","SECT":" ","MAREA":" ","LANE":" ","ALLEY":" ","HOUSE_NO":"２６３號","E_COORD97":172507.84,"N_COORD97":2542487.7200000002,"ADDRESS":"裕孝路２６３號","OBJECTID":544292},"geometry":{"x":172507.83999999985,"y":2542487.7200000044}},{"attributes":{"ID":544320,"DIS_CODE":0,"TOWNNAME":"東區","LI":"裕聖里","LIN":"12鄰","STREET":"裕孝路","SECT":" ","MAREA":" ","LANE":" ","ALLEY":" ","HOUSE_NO":"２６５號","E_COORD97":172512.09,"N_COORD97":2542489.6499999999,"ADDRESS":"裕孝路２６５號","OBJECTID":544293},"geometry":{"x":172512.09000000078,"y":2542489.6500000004}},{"attributes":{"ID":544321,"DIS_CODE":0,"TOWNNAME":"東區","LI":"裕聖里","LIN":"12鄰","STREET":"裕孝路","SECT":" ","MAREA":" ","LANE":" ","ALLEY":" ","HOUSE_NO":"２６７號","E_COORD97":172512.09,"N_COORD97":2542471.3199999998,"ADDRESS":"裕孝路２６７號","OBJECTID":544294},"geometry":{"x":172512.09000000078,"y":2542471.3200000003}},{"attributes":{"ID":544322,"DIS_CODE":0,"TOWNNAME":"東區","LI":"裕聖里","LIN":"12鄰","STREET":"裕孝路","SECT":" ","MAREA":" ","LANE":" ","ALLEY":" ","HOUSE_NO":"２６９號","E_COORD97":172507.45999999999,"N_COORD97":2542468.4199999999,"ADDRESS":"裕孝路２６９號","OBJECTID":544295},"geometry":{"x":172507.46000000183,"y":2542468.4200000037}},{"attributes":{"ID":544323,"DIS_CODE":0,"TOWNNAME":"東區","LI":"裕聖里","LIN":"12鄰","STREET":"裕孝路","SECT":" ","MAREA":" ","LANE":" ","ALLEY":" ","HOUSE_NO":"２７１號","E_COORD97":172503.39999999999,"N_COORD97":2542471.7000000002,"ADDRESS":"裕孝路２７１號","OBJECTID":544296},"geometry":{"x":172503.4000000013,"y":2542471.6999999993}},{"attributes":{"ID":544324,"DIS_CODE":0,"TOWNNAME":"東區","LI":"裕聖里","LIN":"12鄰","STREET":"裕孝路","SECT":" ","MAREA":" ","LANE":" ","ALLEY":" ","HOUSE_NO":"２７３號","E_COORD97":172498.19,"N_COORD97":2542467.8399999999,"ADDRESS":"裕孝路２７３號","OBJECTID":544297},"geometry":{"x":172498.19000000134,"y":2542467.8399999999}},{"attributes":{"ID":544325,"DIS_CODE":0,"TOWNNAME":"東區","LI":"裕聖里","LIN":"12鄰","STREET":"裕孝路","SECT":" ","MAREA":" ","LANE":" ","ALLEY":" ","HOUSE_NO":"２７５號","E_COORD97":172492.39000000001,"N_COORD97":2542471.8999999999,"ADDRESS":"裕孝路２７５號","OBJECTID":544298},"geometry":{"x":172492.39000000153,"y":2542471.9000000004}},{"attributes":{"ID":544326,"DIS_CODE":0,"TOWNNAME":"東區","LI":"裕聖里","LIN":"12鄰","STREET":"裕孝路","SECT":" ","MAREA":" ","LANE":" ","ALLEY":" ","HOUSE_NO":"２７７號","E_COORD97":172487.17999999999,"N_COORD97":2542467.0699999998,"ADDRESS":"裕孝路２７７號","OBJECTID":544299},"geometry":{"x":172487.18000000063,"y":2542467.0700000003}},{"attributes":{"ID":544327,"DIS_CODE":0,"TOWNNAME":"東區","LI":"裕聖里","LIN":"12鄰","STREET":"裕孝路","SECT":" ","MAREA":" ","LANE":" ","ALLEY":" ","HOUSE_NO":"２７９號","E_COORD97":172482.73999999999,"N_COORD97":2542470.7400000002,"ADDRESS":"裕孝路２７９號","OBJECTID":544300},"geometry":{"x":172482.74000000115,"y":2542470.7400000021}},{"attributes":{"ID":544328,"DIS_CODE":0,"TOWNNAME":"東區","LI":"裕聖里","LIN":"12鄰","STREET":"裕孝路","SECT":" ","MAREA":" ","LANE":" ","ALLEY":" ","HOUSE_NO":"２８１號","E_COORD97":172477.91,"N_COORD97":2542468.04,"ADDRESS":"裕孝路２８１號","OBJECTID":544301},"geometry":{"x":172477.91000000108,"y":2542468.040000001}},{"attributes":{"ID":544329,"DIS_CODE":0,"TOWNNAME":"東區","LI":"裕聖里","LIN":"12鄰","STREET":"裕孝路","SECT":" ","MAREA":" ","LANE":" ","ALLEY":" ","HOUSE_NO":"２８３號","E_COORD97":172474.04999999999,"N_COORD97":2542471.7000000002,"ADDRESS":"裕孝路２８３號","OBJECTID":544302},"geometry":{"x":172474.04999999981,"y":2542471.6999999993}},{"attributes":{"ID":544330,"DIS_CODE":0,"TOWNNAME":"東區","LI":"裕聖里","LIN":"12鄰","STREET":"裕孝路","SECT":" ","MAREA":" ","LANE":" ","ALLEY":" ","HOUSE_NO":"２８５號","E_COORD97":172468.25,"N_COORD97":2542466.1099999999,"ADDRESS":"裕孝路２８５號","OBJECTID":544303},"geometry":{"x":172468.25000000186,"y":2542466.1099999994}},{"attributes":{"ID":544331,"DIS_CODE":0,"TOWNNAME":"東區","LI":"裕聖里","LIN":"12鄰","STREET":"裕孝路","SECT":" ","MAREA":" ","LANE":" ","ALLEY":" ","HOUSE_NO":"２８７號","E_COORD97":172463.42999999999,"N_COORD97":2542471.3199999998,"ADDRESS":"裕孝路２８７號","OBJECTID":544304},"geometry":{"x":172463.43000000156,"y":2542471.3200000003}},{"attributes":{"ID":544332,"DIS_CODE":0,"TOWNNAME":"東區","LI":"裕聖里","LIN":"12鄰","STREET":"裕孝路","SECT":" ","MAREA":" ","LANE":" ","ALLEY":" ","HOUSE_NO":"２８９號","E_COORD97":172458.60000000001,"N_COORD97":2542467.46,"ADDRESS":"裕孝路２８９號","OBJECTID":544305},"geometry":{"x":172458.5999999987,"y":2542467.4600000028}},{"attributes":{"ID":544333,"DIS_CODE":0,"TOWNNAME":"東區","LI":"裕聖里","LIN":"12鄰","STREET":"裕孝路","SECT":" ","MAREA":" ","LANE":" ","ALLEY":" ","HOUSE_NO":"２９１號","E_COORD97":172452.79999999999,"N_COORD97":2542471.3199999998,"ADDRESS":"裕孝路２９１號","OBJECTID":544306},"geometry":{"x":172452.80000000075,"y":2542471.3200000003}},{"attributes":{"ID":544334,"DIS_CODE":0,"TOWNNAME":"東區","LI":"裕聖里","LIN":"12鄰","STREET":"裕孝路","SECT":" ","MAREA":" ","LANE":" ","ALLEY":" ","HOUSE_NO":"２９３號","E_COORD97":172448.54999999999,"N_COORD97":2542466.8799999999,"ADDRESS":"裕孝路２９３號","OBJECTID":544307},"geometry":{"x":172448.54999999981,"y":2542466.879999999}},{"attributes":{"ID":544335,"DIS_CODE":0,"TOWNNAME":"東區","LI":"裕聖里","LIN":"12鄰","STREET":"裕孝路","SECT":" ","MAREA":" ","LANE":" ","ALLEY":" ","HOUSE_NO":"２９５號","E_COORD97":172447.98000000001,"N_COORD97":2542455.4900000002,"ADDRESS":"裕孝路２９５號","OBJECTID":544308},"geometry":{"x":172447.98000000045,"y":2542455.4900000021}},{"attributes":{"ID":544336,"DIS_CODE":0,"TOWNNAME":"東區","LI":"裕聖里","LIN":"12鄰","STREET":"裕孝路","SECT":" ","MAREA":" ","LANE":" ","ALLEY":" ","HOUSE_NO":"２９５之１號","E_COORD97":172453.95000000001,"N_COORD97":2542451.6699999999,"ADDRESS":"裕孝路２９５之１號","OBJECTID":544309},"geometry":{"x":172453.95000000112,"y":2542451.6699999999}},{"attributes":{"ID":544337,"DIS_CODE":0,"TOWNNAME":"東區","LI":"裕聖里","LIN":"12鄰","STREET":"裕孝路","SECT":" ","MAREA":" ","LANE":" ","ALLEY":" ","HOUSE_NO":"２９５之６號","E_COORD97":172472.94,"N_COORD97":2542451.3399999999,"ADDRESS":"裕孝路２９５之６號","OBJECTID":544310},"geometry":{"x":172472.94000000134,"y":2542451.3399999999}},{"attributes":{"ID":544338,"DIS_CODE":0,"TOWNNAME":"東區","LI":"裕聖里","LIN":"12鄰","STREET":"裕孝路","SECT":" ","MAREA":" ","LANE":" ","ALLEY":" ","HOUSE_NO":"２９５之７號","E_COORD97":172478.5,"N_COORD97":2542451.3399999999,"ADDRESS":"裕孝路２９５之７號","OBJECTID":544311},"geometry":{"x":172478.50000000186,"y":2542451.3399999999}},{"attributes":{"ID":544339,"DIS_CODE":0,"TOWNNAME":"東區","LI":"裕聖里","LIN":"12鄰","STREET":"裕孝路","SECT":" ","MAREA":" ","LANE":" ","ALLEY":" ","HOUSE_NO":"２９７之１１號","E_COORD97":172497.82000000001,"N_COORD97":2542441.1899999999,"ADDRESS":"裕孝路２９７之１１號","OBJECTID":544312},"geometry":{"x":172497.8200000003,"y":2542441.1899999995}},{"attributes":{"ID":544340,"DIS_CODE":0,"TOWNNAME":"東區","LI":"裕聖里","LIN":"12鄰","STREET":"裕孝路","SECT":" ","MAREA":" ","LANE":" ","ALLEY":" ","HOUSE_NO":"２９７之１２號","E_COORD97":172502.41,"N_COORD97":2542441.1899999999,"ADDRESS":"裕孝路２９７之１２號","OBJECTID":544313},"geometry":{"x":172502.41000000015,"y":2542441.1899999995}},{"attributes":{"ID":544341,"DIS_CODE":0,"TOWNNAME":"東區","LI":"裕聖里","LIN":"12鄰","STREET":"裕孝路","SECT":" ","MAREA":" ","LANE":" ","ALLEY":" ","HOUSE_NO":"２９７之１５號","E_COORD97":172512.89000000001,"N_COORD97":2542441.52,"ADDRESS":"裕孝路２９７之１５號","OBJECTID":544314},"geometry":{"x":172512.8900000006,"y":2542441.5200000014}},{"attributes":{"ID":544342,"DIS_CODE":0,"TOWNNAME":"東區","LI":"裕聖里","LIN":"12鄰","STREET":"裕孝路","SECT":" ","MAREA":" ","LANE":" ","ALLEY":" ","HOUSE_NO":"２９７之５號","E_COORD97":172468.03,"N_COORD97":2542437.5899999999,"ADDRESS":"裕孝路２９７之５號","OBJECTID":544315},"geometry":{"x":172468.03000000026,"y":2542437.5900000017}},{"attributes":{"ID":544343,"DIS_CODE":0,"TOWNNAME":"東區","LI":"裕聖里","LIN":"12鄰","STREET":"裕孝路","SECT":" ","MAREA":" ","LANE":" ","ALLEY":" ","HOUSE_NO":"２９７之８號","E_COORD97":172483.42000000001,"N_COORD97":2542437.9199999999,"ADDRESS":"裕孝路２９７之８號","OBJECTID":544316},"geometry":{"x":172483.41999999993,"y":2542437.9200000037}},{"attributes":{"ID":544344,"DIS_CODE":0,"TOWNNAME":"東區","LI":"裕聖里","LIN":"12鄰","STREET":"裕孝路","SECT":" ","MAREA":" ","LANE":" ","ALLEY":" ","HOUSE_NO":"２９５之１０號","E_COORD97":172492.91,"N_COORD97":2542450.0299999998,"ADDRESS":"裕孝路２９５之１０號","OBJECTID":544317},"geometry":{"x":172492.91000000108,"y":2542450.0299999975}},{"attributes":{"ID":544345,"DIS_CODE":0,"TOWNNAME":"東區","LI":"裕聖里","LIN":"12鄰","STREET":"裕忠一街","SECT":" ","MAREA":" ","LANE":" ","ALLEY":" ","HOUSE_NO":"１０３號","E_COORD97":172512.82999999999,"N_COORD97":2542418.8500000001,"ADDRESS":"裕忠一街１０３號","OBJECTID":544318},"geometry":{"x":172512.83000000007,"y":2542418.8500000015}},{"attributes":{"ID":544346,"DIS_CODE":0,"TOWNNAME":"東區","LI":"裕聖里","LIN":"12鄰","STREET":"裕忠一街","SECT":" ","MAREA":" ","LANE":" ","ALLEY":" ","HOUSE_NO":"１０１號","E_COORD97":172507.98999999999,"N_COORD97":2542418.75,"ADDRESS":"裕忠一街１０１號","OBJECTID":544319},"geometry":{"x":172507.99000000115,"y":2542418.7499999981}},{"attributes":{"ID":544347,"DIS_CODE":0,"TOWNNAME":"東區","LI":"裕聖里","LIN":"12鄰","STREET":"裕忠一街","SECT":" ","MAREA":" ","LANE":" ","ALLEY":" ","HOUSE_NO":"９３號","E_COORD97":172487.82999999999,"N_COORD97":2542418.3500000001,"ADDRESS":"裕忠一街９３號","OBJECTID":544320},"geometry":{"x":172487.83000000007,"y":2542418.3500000015}},{"attributes":{"ID":544348,"DIS_CODE":0,"TOWNNAME":"東區","LI":"裕聖里","LIN":"12鄰","STREET":"裕孝路","SECT":" ","MAREA":" ","LANE":" ","ALLEY":" ","HOUSE_NO":"２９７號","E_COORD97":172448.04999999999,"N_COORD97":2542437.9900000002,"ADDRESS":"裕孝路２９７號","OBJECTID":544321},"geometry":{"x":172448.05000000075,"y":2542437.9900000039}},{"attributes":{"ID":544349,"DIS_CODE":0,"TOWNNAME":"東區","LI":"裕聖里","LIN":"12鄰","STREET":"裕忠一街","SECT":" ","MAREA":" ","LANE":" ","ALLEY":" ","HOUSE_NO":"９５號","E_COORD97":172492.87,"N_COORD97":2542418.4500000002,"ADDRESS":"裕忠一街９５號","OBJECTID":544322},"geometry":{"x":172492.86999999918,"y":2542418.4500000011}},{"attributes":{"ID":544350,"DIS_CODE":0,"TOWNNAME":"東區","LI":"裕聖里","LIN":"12鄰","STREET":"裕忠一街","SECT":" ","MAREA":" ","LANE":" ","ALLEY":" ","HOUSE_NO":"９７號","E_COORD97":172498.10999999999,"N_COORD97":2542418.25,"ADDRESS":"裕忠一街９７號","OBJECTID":544323},"geometry":{"x":172498.11000000034,"y":2542418.25}},{"attributes":{"ID":544351,"DIS_CODE":0,"TOWNNAME":"東區","LI":"裕聖里","LIN":"12鄰","STREET":"裕忠一街","SECT":" ","MAREA":" ","LANE":" ","ALLEY":" ","HOUSE_NO":"９９號","E_COORD97":172502.95000000001,"N_COORD97":2542418.25,"ADDRESS":"裕忠一街９９號","OBJECTID":544324},"geometry":{"x":172502.95000000112,"y":2542418.25}},{"attributes":{"ID":544352,"DIS_CODE":0,"TOWNNAME":"東區","LI":"裕聖里","LIN":"12鄰","STREET":"裕忠一街","SECT":" ","MAREA":" ","LANE":" ","ALLEY":" ","HOUSE_NO":"７９號","E_COORD97":172453.06,"N_COORD97":2542419.1600000001,"ADDRESS":"裕忠一街７９號","OBJECTID":544325},"geometry":{"x":172453.05999999959,"y":2542419.1600000001}},{"attributes":{"ID":544353,"DIS_CODE":0,"TOWNNAME":"東區","LI":"裕聖里","LIN":"12鄰","STREET":"裕忠一街","SECT":" ","MAREA":" ","LANE":" ","ALLEY":" ","HOUSE_NO":"８１號","E_COORD97":172458.10000000001,"N_COORD97":2542418.8500000001,"ADDRESS":"裕忠一街８１號","OBJECTID":544326},"geometry":{"x":172458.09999999963,"y":2542418.8500000015}},{"attributes":{"ID":544354,"DIS_CODE":0,"TOWNNAME":"東區","LI":"裕聖里","LIN":"12鄰","STREET":"裕忠一街","SECT":" ","MAREA":" ","LANE":" ","ALLEY":" ","HOUSE_NO":"８３號","E_COORD97":172463.14000000001,"N_COORD97":2542418.5499999998,"ADDRESS":"裕忠一街８３號","OBJECTID":544327},"geometry":{"x":172463.13999999966,"y":2542418.5500000026}},{"attributes":{"ID":544355,"DIS_CODE":0,"TOWNNAME":"新市區","LI":"新和里","LIN":"12鄰","STREET":"可口街","SECT":" ","MAREA":" ","LANE":" ","ALLEY":" ","HOUSE_NO":"１０號","E_COORD97":177576.28,"N_COORD97":2552386.5,"ADDRESS":"可口街１０號","OBJECTID":544328},"geometry":{"x":177576.28000000119,"y":2552386.5000000019}},{"attributes":{"ID":544356,"DIS_CODE":0,"TOWNNAME":"新市區","LI":"港墘里","LIN":"12鄰","STREET":"中山路","SECT":" ","MAREA":" ","LANE":" ","ALLEY":" ","HOUSE_NO":"１３３號","E_COORD97":178332.76000000001,"N_COORD97":2552582.75,"ADDRESS":"中山路１３３號","OBJECTID":544329},"geometry":{"x":178332.75999999978,"y":2552582.75}},{"attributes":{"ID":544357,"DIS_CODE":0,"TOWNNAME":"南區","LI":"郡南里","LIN":"12鄰","STREET":"永吉街","SECT":" ","MAREA":" ","LANE":" ","ALLEY":" ","HOUSE_NO":"４６號","E_COORD97":167321.51999999999,"N_COORD97":2540673.1099999999,"ADDRESS":"永吉街４６號","OBJECTID":544330},"geometry":{"x":167321.52000000048,"y":2540673.1100000031}},{"attributes":{"ID":544358,"DIS_CODE":0,"TOWNNAME":"安南區","LI":"海東里","LIN":"12鄰","STREET":"海中街","SECT":" ","MAREA":" ","LANE":" ","ALLEY":" ","HOUSE_NO":"３８號","E_COORD97":166485.95999999999,"N_COORD97":2548876.73,"ADDRESS":"海中街３８號","OBJECTID":544331},"geometry":{"x":166485.95999999996,"y":2548876.7300000004}},{"attributes":{"ID":544359,"DIS_CODE":0,"TOWNNAME":"安南區","LI":"海東里","LIN":"12鄰","STREET":"海中街","SECT":" ","MAREA":" ","LANE":" ","ALLEY":" ","HOUSE_NO":"４６號","E_COORD97":166478.48000000001,"N_COORD97":2548904.4300000002,"ADDRESS":"海中街４６號","OBJECTID":544332},"geometry":{"x":166478.48000000138,"y":2548904.4300000016}},{"attributes":{"ID":544360,"DIS_CODE":0,"TOWNNAME":"中西區","LI":"郡西里","LIN":"12鄰","STREET":"保安路","SECT":" ","MAREA":" ","LANE":" ","ALLEY":" ","HOUSE_NO":"１６３號","E_COORD97":167323.07999999999,"N_COORD97":2543487.4700000002,"ADDRESS":"保安路１６３號","OBJECTID":544333},"geometry":{"x":167323.08000000101,"y":2543487.4700000025}},{"attributes":{"ID":544361,"DIS_CODE":0,"TOWNNAME":"南區","LI":"郡南里","LIN":"12鄰","STREET":"永吉街","SECT":" ","MAREA":" ","LANE":" ","ALLEY":" ","HOUSE_NO":"５０號","E_COORD97":167322.20999999999,"N_COORD97":2540681.2999999998,"ADDRESS":"永吉街５０號","OBJECTID":544334},"geometry":{"x":167322.21000000089,"y":2540681.3000000026}},{"attributes":{"ID":544362,"DIS_CODE":0,"TOWNNAME":"南區","LI":"郡南里","LIN":"12鄰","STREET":"永吉街","SECT":" ","MAREA":" ","LANE":" ","ALLEY":" ","HOUSE_NO":"２４號","E_COORD97":167320.39000000001,"N_COORD97":2540611.3199999998,"ADDRESS":"永吉街２４號","OBJECTID":544335},"geometry":{"x":167320.39000000153,"y":2540611.3200000003}},{"attributes":{"ID":544363,"DIS_CODE":0,"TOWNNAME":"南區","LI":"郡南里","LIN":"12鄰","STREET":"永吉街","SECT":" ","MAREA":" ","LANE":" ","ALLEY":" ","HOUSE_NO":"２６號","E_COORD97":167321.29999999999,"N_COORD97":2540616.0899999999,"ADDRESS":"永吉街２６號","OBJECTID":544336},"geometry":{"x":167321.30000000075,"y":2540616.0900000036}},{"attributes":{"ID":544364,"DIS_CODE":0,"TOWNNAME":"南區","LI":"郡南里","LIN":"12鄰","STREET":"永吉街","SECT":" ","MAREA":" ","LANE":" ","ALLEY":" ","HOUSE_NO":"２８號","E_COORD97":167319.94,"N_COORD97":2540620.6499999999,"ADDRESS":"永吉街２８號","OBJECTID":544337},"geometry":{"x":167319.94000000041,"y":2540620.6500000022}},{"attributes":{"ID":544365,"DIS_CODE":0,"TOWNNAME":"南區","LI":"郡南里","LIN":"12鄰","STREET":"永吉街","SECT":" ","MAREA":" ","LANE":" ","ALLEY":" ","HOUSE_NO":"７２號","E_COORD97":167325.85999999999,"N_COORD97":2540741.1000000001,"ADDRESS":"永吉街７２號","OBJECTID":544338},"geometry":{"x":167325.86000000034,"y":2540741.0999999978}},{"attributes":{"ID":544366,"DIS_CODE":0,"TOWNNAME":"南區","LI":"郡南里","LIN":"12鄰","STREET":"永吉街","SECT":" ","MAREA":" ","LANE":" ","ALLEY":" ","HOUSE_NO":"７８號","E_COORD97":167327.45999999999,"N_COORD97":2540745.6499999999,"ADDRESS":"永吉街７８號","OBJECTID":544339},"geometry":{"x":167327.46000000089,"y":2540745.6500000022}},{"attributes":{"ID":544367,"DIS_CODE":0,"TOWNNAME":"南區","LI":"郡南里","LIN":"12鄰","STREET":"永吉街","SECT":" ","MAREA":" ","LANE":" ","ALLEY":" ","HOUSE_NO":"８０號","E_COORD97":167325.17999999999,"N_COORD97":2540751.1099999999,"ADDRESS":"永吉街８０號","OBJECTID":544340},"geometry":{"x":167325.18000000156,"y":2540751.1100000031}},{"attributes":{"ID":544368,"DIS_CODE":0,"TOWNNAME":"南區","LI":"郡南里","LIN":"12鄰","STREET":"永吉街","SECT":" ","MAREA":" ","LANE":" ","ALLEY":" ","HOUSE_NO":"８２號","E_COORD97":167325.85999999999,"N_COORD97":2540754.98,"ADDRESS":"永吉街８２號","OBJECTID":544341},"geometry":{"x":167325.86000000034,"y":2540754.9800000004}},{"attributes":{"ID":544369,"DIS_CODE":0,"TOWNNAME":"南區","LI":"郡南里","LIN":"12鄰","STREET":"永吉街","SECT":" ","MAREA":" ","LANE":" ","ALLEY":" ","HOUSE_NO":"８４號","E_COORD97":167325.41,"N_COORD97":2540759.2999999998,"ADDRESS":"永吉街８４號","OBJECTID":544342},"geometry":{"x":167325.41000000015,"y":2540759.3000000026}},{"attributes":{"ID":544370,"DIS_CODE":0,"TOWNNAME":"南區","LI":"郡南里","LIN":"12鄰","STREET":"永吉街","SECT":" ","MAREA":" ","LANE":" ","ALLEY":" ","HOUSE_NO":"８６號","E_COORD97":167324.04000000001,"N_COORD97":2540764.0800000001,"ADDRESS":"永吉街８６號","OBJECTID":544343},"geometry":{"x":167324.04000000004,"y":2540764.0800000001}},{"attributes":{"ID":544371,"DIS_CODE":0,"TOWNNAME":"南區","LI":"郡南里","LIN":"12鄰","STREET":"永吉街","SECT":" ","MAREA":" ","LANE":" ","ALLEY":" ","HOUSE_NO":"８６號之１","E_COORD97":167326.09,"N_COORD97":2540769.77,"ADDRESS":"永吉街８６號之１","OBJECTID":544344},"geometry":{"x":167326.09000000078,"y":2540769.7699999996}},{"attributes":{"ID":544372,"DIS_CODE":0,"TOWNNAME":"南區","LI":"郡南里","LIN":"12鄰","STREET":"永吉街","SECT":" ","MAREA":" ","LANE":" ","ALLEY":" ","HOUSE_NO":"８６號之２","E_COORD97":167343.34,"N_COORD97":2540758.0699999998,"ADDRESS":"永吉街８６號之２","OBJECTID":544345},"geometry":{"x":167343.34000000078,"y":2540758.0700000003}},{"attributes":{"ID":544373,"DIS_CODE":0,"TOWNNAME":"南區","LI":"郡南里","LIN":"12鄰","STREET":"永吉街","SECT":" ","MAREA":" ","LANE":" ","ALLEY":" ","HOUSE_NO":"９０號之１","E_COORD97":167350.79000000001,"N_COORD97":2540757.8100000001,"ADDRESS":"永吉街９０號之１","OBJECTID":544346},"geometry":{"x":167350.79000000097,"y":2540757.8100000042}},{"attributes":{"ID":544374,"DIS_CODE":0,"TOWNNAME":"南區","LI":"郡南里","LIN":"12鄰","STREET":"永吉街","SECT":" ","MAREA":" ","LANE":" ","ALLEY":" ","HOUSE_NO":"９０號之２","E_COORD97":167354.64000000001,"N_COORD97":2540757.5600000001,"ADDRESS":"永吉街９０號之２","OBJECTID":544347},"geometry":{"x":167354.6400000006,"y":2540757.5600000024}},{"attributes":{"ID":544375,"DIS_CODE":0,"TOWNNAME":"南區","LI":"郡南里","LIN":"12鄰","STREET":"永吉街","SECT":" ","MAREA":" ","LANE":" ","ALLEY":" ","HOUSE_NO":"９０號之３","E_COORD97":167357.45999999999,"N_COORD97":2540757.5600000001,"ADDRESS":"永吉街９０號之３","OBJECTID":544348},"geometry":{"x":167357.46000000183,"y":2540757.5600000024}},{"attributes":{"ID":544376,"DIS_CODE":0,"TOWNNAME":"南區","LI":"郡南里","LIN":"12鄰","STREET":"永吉街","SECT":" ","MAREA":" ","LANE":" ","ALLEY":" ","HOUSE_NO":"９０號之４","E_COORD97":167361.57000000001,"N_COORD97":2540759.0899999999,"ADDRESS":"永吉街９０號之４","OBJECTID":544349},"geometry":{"x":167361.5700000003,"y":2540759.0900000017}},{"attributes":{"ID":544377,"DIS_CODE":0,"TOWNNAME":"南區","LI":"郡南里","LIN":"12鄰","STREET":"永吉街","SECT":" ","MAREA":" ","LANE":" ","ALLEY":" ","HOUSE_NO":"９０號之５","E_COORD97":167367.48000000001,"N_COORD97":2540759.3500000001,"ADDRESS":"永吉街９０號之５","OBJECTID":544350},"geometry":{"x":167367.48000000045,"y":2540759.3499999996}},{"attributes":{"ID":544378,"DIS_CODE":0,"TOWNNAME":"南區","LI":"郡南里","LIN":"12鄰","STREET":"永吉街","SECT":" ","MAREA":" ","LANE":" ","ALLEY":" ","HOUSE_NO":"９０號之６","E_COORD97":167369.54000000001,"N_COORD97":2540759.8700000001,"ADDRESS":"永吉街９０號之６","OBJECTID":544351},"geometry":{"x":167369.54000000097,"y":2540759.870000001}},{"attributes":{"ID":544379,"DIS_CODE":0,"TOWNNAME":"南區","LI":"郡南里","LIN":"12鄰","STREET":"永吉街","SECT":" ","MAREA":" ","LANE":" ","ALLEY":" ","HOUSE_NO":"９０號之７","E_COORD97":167374.42000000001,"N_COORD97":2540758.0699999998,"ADDRESS":"永吉街９０號之７","OBJECTID":544352},"geometry":{"x":167374.41999999993,"y":2540758.0700000003}},{"attributes":{"ID":544380,"DIS_CODE":0,"TOWNNAME":"南區","LI":"郡南里","LIN":"12鄰","STREET":"永吉街","SECT":" ","MAREA":" ","LANE":" ","ALLEY":" ","HOUSE_NO":"９４號","E_COORD97":167382.12,"N_COORD97":2540763.2000000002,"ADDRESS":"永吉街９４號","OBJECTID":544353},"geometry":{"x":167382.12000000104,"y":2540763.1999999993}},{"attributes":{"ID":544381,"DIS_CODE":0,"TOWNNAME":"永康區","LI":"東橋里","LIN":"12鄰","STREET":"中山南路","SECT":" ","MAREA":" ","LANE":" ","ALLEY":" ","HOUSE_NO":"２０３號","E_COORD97":171603.37,"N_COORD97":2546170.9199999999,"ADDRESS":"中山南路２０３號","OBJECTID":544354},"geometry":{"x":171603.37000000104,"y":2546170.9200000037}},{"attributes":{"ID":544382,"DIS_CODE":0,"TOWNNAME":"永康區","LI":"東灣里","LIN":"12鄰","STREET":"大灣二街","SECT":" ","MAREA":" ","LANE":" ","ALLEY":" ","HOUSE_NO":"１１８號","E_COORD97":174733.17999999999,"N_COORD97":2544810.0699999998,"ADDRESS":"大灣二街１１８號","OBJECTID":544355},"geometry":{"x":174733.18000000156,"y":2544810.0700000003}},{"attributes":{"ID":544383,"DIS_CODE":0,"TOWNNAME":"永康區","LI":"南灣里","LIN":"12鄰","STREET":"立興街","SECT":" ","MAREA":" ","LANE":" ","ALLEY":" ","HOUSE_NO":"２１號","E_COORD97":174645.19,"N_COORD97":2544858.2000000002,"ADDRESS":"立興街２１號","OBJECTID":544356},"geometry":{"x":174645.19000000041,"y":2544858.1999999993}},{"attributes":{"ID":544384,"DIS_CODE":0,"TOWNNAME":"東區","LI":"崇德里","LIN":"12鄰","STREET":"崇道路","SECT":" ","MAREA":" ","LANE":" ","ALLEY":" ","HOUSE_NO":"１６１號","E_COORD97":170997.25,"N_COORD97":2541433.21,"ADDRESS":"崇道路１６１號","OBJECTID":544357},"geometry":{"x":170997.25000000093,"y":2541433.2100000009}},{"attributes":{"ID":544385,"DIS_CODE":0,"TOWNNAME":"東區","LI":"關聖里","LIN":"12鄰","STREET":"裕農二街","SECT":" ","MAREA":" ","LANE":" ","ALLEY":" ","HOUSE_NO":"１３９號","E_COORD97":171989.79000000001,"N_COORD97":2542868.3199999998,"ADDRESS":"裕農二街１３９號","OBJECTID":544358},"geometry":{"x":171989.79000000004,"y":2542868.3200000003}},{"attributes":{"ID":544386,"DIS_CODE":0,"TOWNNAME":"東區","LI":"關聖里","LIN":"12鄰","STREET":"裕農二街","SECT":" ","MAREA":" ","LANE":" ","ALLEY":" ","HOUSE_NO":"１１３號","E_COORD97":171989.70000000001,"N_COORD97":2542907.5499999998,"ADDRESS":"裕農二街１１３號","OBJECTID":544359},"geometry":{"x":171989.70000000112,"y":2542907.5500000026}},{"attributes":{"ID":544387,"DIS_CODE":0,"TOWNNAME":"東區","LI":"關聖里","LIN":"12鄰","STREET":"裕農二街","SECT":" ","MAREA":" ","LANE":" ","ALLEY":" ","HOUSE_NO":"１１５號","E_COORD97":171989.70000000001,"N_COORD97":2542902.46,"ADDRESS":"裕農二街１１５號","OBJECTID":544360},"geometry":{"x":171989.70000000112,"y":2542902.4600000009}},{"attributes":{"ID":544388,"DIS_CODE":0,"TOWNNAME":"東區","LI":"崇善里","LIN":"12鄰","STREET":"崇善九街","SECT":" ","MAREA":" ","LANE":" ","ALLEY":" ","HOUSE_NO":"６號","E_COORD97":171106,"N_COORD97":2541313.9399999999,"ADDRESS":"崇善九街６號","OBJECTID":544361},"geometry":{"x":171106.00000000093,"y":2541313.9399999995}},{"attributes":{"ID":544389,"DIS_CODE":0,"TOWNNAME":"東區","LI":"崇善里","LIN":"12鄰","STREET":"崇善九街","SECT":" ","MAREA":" ","LANE":" ","ALLEY":" ","HOUSE_NO":"７號","E_COORD97":171091.34,"N_COORD97":2541343.9500000002,"ADDRESS":"崇善九街７號","OBJECTID":544362},"geometry":{"x":171091.34000000078,"y":2541343.9499999993}},{"attributes":{"ID":544390,"DIS_CODE":0,"TOWNNAME":"東區","LI":"崇德里","LIN":"12鄰","STREET":"崇道路","SECT":" ","MAREA":" ","LANE":" ","ALLEY":" ","HOUSE_NO":"１５５號","E_COORD97":170984.17000000001,"N_COORD97":2541429.21,"ADDRESS":"崇道路１５５號","OBJECTID":544363},"geometry":{"x":170984.17000000086,"y":2541429.2100000009}},{"attributes":{"ID":544391,"DIS_CODE":0,"TOWNNAME":"東區","LI":"崇善里","LIN":"12鄰","STREET":"崇善九街","SECT":" ","MAREA":" ","LANE":" ","ALLEY":" ","HOUSE_NO":"２號","E_COORD97":171102.79000000001,"N_COORD97":2541312.54,"ADDRESS":"崇善九街２號","OBJECTID":544364},"geometry":{"x":171102.79000000004,"y":2541312.5399999991}},{"attributes":{"ID":544392,"DIS_CODE":0,"TOWNNAME":"東區","LI":"崇善里","LIN":"12鄰","STREET":"崇善九街","SECT":" ","MAREA":" ","LANE":" ","ALLEY":" ","HOUSE_NO":"２２號","E_COORD97":171150.25,"N_COORD97":2541331.6000000001,"ADDRESS":"崇善九街２２號","OBJECTID":544365},"geometry":{"x":171150.25,"y":2541331.6000000015}},{"attributes":{"ID":544393,"DIS_CODE":0,"TOWNNAME":"東區","LI":"崇善里","LIN":"12鄰","STREET":"崇善九街","SECT":" ","MAREA":" ","LANE":" ","ALLEY":" ","HOUSE_NO":"１０號","E_COORD97":171122.62,"N_COORD97":2541319.5499999998,"ADDRESS":"崇善九街１０號","OBJECTID":544366},"geometry":{"x":171122.62000000011,"y":2541319.5500000026}},{"attributes":{"ID":544394,"DIS_CODE":0,"TOWNNAME":"東區","LI":"崇善里","LIN":"12鄰","STREET":"崇善九街","SECT":" ","MAREA":" ","LANE":" ","ALLEY":" ","HOUSE_NO":"１８號","E_COORD97":171139.23999999999,"N_COORD97":2541324.1600000001,"ADDRESS":"崇善九街１８號","OBJECTID":544367},"geometry":{"x":171139.24000000022,"y":2541324.1600000001}},{"attributes":{"ID":544395,"DIS_CODE":0,"TOWNNAME":"東區","LI":"崇善里","LIN":"12鄰","STREET":"崇善九街","SECT":" ","MAREA":" ","LANE":" ","ALLEY":" ","HOUSE_NO":"１１號","E_COORD97":171110.45999999999,"N_COORD97":2541346.96,"ADDRESS":"崇善九街１１號","OBJECTID":544368},"geometry":{"x":171110.45999999996,"y":2541346.9600000046}},{"attributes":{"ID":544396,"DIS_CODE":0,"TOWNNAME":"東區","LI":"崇善里","LIN":"12鄰","STREET":"崇善九街","SECT":" ","MAREA":" ","LANE":" ","ALLEY":" ","HOUSE_NO":"１２號","E_COORD97":171126.89000000001,"N_COORD97":2541325.2599999998,"ADDRESS":"崇善九街１２號","OBJECTID":544369},"geometry":{"x":171126.88999999966,"y":2541325.2599999998}},{"attributes":{"ID":544397,"DIS_CODE":0,"TOWNNAME":"東區","LI":"崇善里","LIN":"12鄰","STREET":"崇善九街","SECT":" ","MAREA":" ","LANE":" ","ALLEY":" ","HOUSE_NO":"１３號","E_COORD97":171112.13,"N_COORD97":2541341.9500000002,"ADDRESS":"崇善九街１３號","OBJECTID":544370},"geometry":{"x":171112.12999999989,"y":2541341.950000003}},{"attributes":{"ID":544398,"DIS_CODE":0,"TOWNNAME":"東區","LI":"崇善里","LIN":"12鄰","STREET":"崇善九街","SECT":" ","MAREA":" ","LANE":" ","ALLEY":" ","HOUSE_NO":"１５號","E_COORD97":171113.79999999999,"N_COORD97":2541336.27,"ADDRESS":"崇善九街１５號","OBJECTID":544371},"geometry":{"x":171113.80000000075,"y":2541336.2699999996}},{"attributes":{"ID":544399,"DIS_CODE":0,"TOWNNAME":"東區","LI":"崇善里","LIN":"12鄰","STREET":"崇善九街","SECT":" ","MAREA":" ","LANE":" ","ALLEY":" ","HOUSE_NO":"１６號","E_COORD97":171132.06,"N_COORD97":2541326.5899999999,"ADDRESS":"崇善九街１６號","OBJECTID":544372},"geometry":{"x":171132.06000000052,"y":2541326.5899999999}},{"attributes":{"ID":544400,"DIS_CODE":0,"TOWNNAME":"東區","LI":"崇善里","LIN":"12鄰","STREET":"崇善九街","SECT":" ","MAREA":" ","LANE":" ","ALLEY":" ","HOUSE_NO":"１號","E_COORD97":171096.01999999999,"N_COORD97":2541329.7599999998,"ADDRESS":"崇善九街１號","OBJECTID":544373},"geometry":{"x":171096.01999999955,"y":2541329.7599999998}},{"attributes":{"ID":544401,"DIS_CODE":0,"TOWNNAME":"東區","LI":"崇善里","LIN":"12鄰","STREET":"崇善九街","SECT":" ","MAREA":" ","LANE":" ","ALLEY":" ","HOUSE_NO":"３號","E_COORD97":171094.67999999999,"N_COORD97":2541334.4399999999,"ADDRESS":"崇善九街３號","OBJECTID":544374},"geometry":{"x":171094.6799999997,"y":2541334.4399999995}},{"attributes":{"ID":544402,"DIS_CODE":0,"TOWNNAME":"東區","LI":"崇善里","LIN":"12鄰","STREET":"崇善九街","SECT":" ","MAREA":" ","LANE":" ","ALLEY":" ","HOUSE_NO":"５號","E_COORD97":171093.01000000001,"N_COORD97":2541339.4399999999,"ADDRESS":"崇善九街５號","OBJECTID":544375},"geometry":{"x":171093.00999999885,"y":2541339.4400000013}},{"attributes":{"ID":544403,"DIS_CODE":0,"TOWNNAME":"東區","LI":"崇善里","LIN":"12鄰","STREET":"崇善九街","SECT":" ","MAREA":" ","LANE":" ","ALLEY":" ","HOUSE_NO":"６之１號","E_COORD97":171110.20000000001,"N_COORD97":2541315.5499999998,"ADDRESS":"崇善九街６之１號","OBJECTID":544376},"geometry":{"x":171110.20000000019,"y":2541315.5499999989}},{"attributes":{"ID":544404,"DIS_CODE":0,"TOWNNAME":"東區","LI":"崇善里","LIN":"12鄰","STREET":"崇善九街","SECT":" ","MAREA":" ","LANE":" ","ALLEY":" ","HOUSE_NO":"９號","E_COORD97":171108.63,"N_COORD97":2541351.7999999998,"ADDRESS":"崇善九街９號","OBJECTID":544377},"geometry":{"x":171108.62999999989,"y":2541351.8000000026}},{"attributes":{"ID":544405,"DIS_CODE":0,"TOWNNAME":"東區","LI":"崇善里","LIN":"12鄰","STREET":"崇善九街","SECT":" ","MAREA":" ","LANE":" ","ALLEY":" ","HOUSE_NO":"８號","E_COORD97":171114.20999999999,"N_COORD97":2541316.9500000002,"ADDRESS":"崇善九街８號","OBJECTID":544378},"geometry":{"x":171114.21000000089,"y":2541316.9499999993}},{"attributes":{"ID":544406,"DIS_CODE":0,"TOWNNAME":"東區","LI":"崇善里","LIN":"12鄰","STREET":"崇善九街","SECT":" ","MAREA":" ","LANE":" ","ALLEY":" ","HOUSE_NO":"８之１號","E_COORD97":171118.41,"N_COORD97":2541317.75,"ADDRESS":"崇善九街８之１號","OBJECTID":544379},"geometry":{"x":171118.41000000108,"y":2541317.7500000019}},{"attributes":{"ID":544407,"DIS_CODE":0,"TOWNNAME":"東區","LI":"德光里","LIN":"12鄰","STREET":"崇善路","SECT":" ","MAREA":" ","LANE":" ","ALLEY":" ","HOUSE_NO":"１６８號","E_COORD97":170353.07000000001,"N_COORD97":2542335.2999999998,"ADDRESS":"崇善路１６８號","OBJECTID":544380},"geometry":{"x":170353.07000000123,"y":2542335.3000000026}},{"attributes":{"ID":544408,"DIS_CODE":0,"TOWNNAME":"東區","LI":"關聖里","LIN":"12鄰","STREET":"裕平路","SECT":" ","MAREA":" ","LANE":" ","ALLEY":" ","HOUSE_NO":"２１號","E_COORD97":171991.26000000001,"N_COORD97":2542844.7799999998,"ADDRESS":"裕平路２１號","OBJECTID":544381},"geometry":{"x":171991.25999999978,"y":2542844.7799999993}},{"attributes":{"ID":544409,"DIS_CODE":0,"TOWNNAME":"東區","LI":"關聖里","LIN":"12鄰","STREET":"裕平路","SECT":" ","MAREA":" ","LANE":" ","ALLEY":" ","HOUSE_NO":"３７號","E_COORD97":172032.51999999999,"N_COORD97":2542846.4100000001,"ADDRESS":"裕平路３７號","OBJECTID":544382},"geometry":{"x":172032.52000000048,"y":2542846.410000002}},{"attributes":{"ID":544410,"DIS_CODE":0,"TOWNNAME":"東區","LI":"文聖里","LIN":"12鄰","STREET":"裕和二街","SECT":" ","MAREA":" ","LANE":" ","ALLEY":" ","HOUSE_NO":"１５７號","E_COORD97":172210.72,"N_COORD97":2542783.8500000001,"ADDRESS":"裕和二街１５７號","OBJECTID":544383},"geometry":{"x":172210.72000000067,"y":2542783.8499999978}},{"attributes":{"ID":544411,"DIS_CODE":0,"TOWNNAME":"東區","LI":"文聖里","LIN":"12鄰","STREET":"裕和二街","SECT":" ","MAREA":" ","LANE":" ","ALLEY":" ","HOUSE_NO":"３１０號","E_COORD97":172188.54000000001,"N_COORD97":2542697.9100000001,"ADDRESS":"裕和二街３１０號","OBJECTID":544384},"geometry":{"x":172188.54000000097,"y":2542697.9100000001}},{"attributes":{"ID":544412,"DIS_CODE":0,"TOWNNAME":"東區","LI":"文聖里","LIN":"12鄰","STREET":"裕和二街","SECT":" ","MAREA":" ","LANE":" ","ALLEY":" ","HOUSE_NO":"３１２號","E_COORD97":172189.20000000001,"N_COORD97":2542691.6899999999,"ADDRESS":"裕和二街３１２號","OBJECTID":544385},"geometry":{"x":172189.20000000112,"y":2542691.6899999995}},{"attributes":{"ID":544413,"DIS_CODE":0,"TOWNNAME":"東區","LI":"文聖里","LIN":"12鄰","STREET":"裕和二街","SECT":" ","MAREA":" ","LANE":" ","ALLEY":" ","HOUSE_NO":"３１６號","E_COORD97":172188.87,"N_COORD97":2542684.3300000001,"ADDRESS":"裕和二街３１６號","OBJECTID":544386},"geometry":{"x":172188.87000000011,"y":2542684.3300000019}},{"attributes":{"ID":544414,"DIS_CODE":0,"TOWNNAME":"東區","LI":"文聖里","LIN":"12鄰","STREET":"裕和二街","SECT":" ","MAREA":" ","LANE":" ","ALLEY":" ","HOUSE_NO":"３２２號","E_COORD97":172188.22,"N_COORD97":2542662.8799999999,"ADDRESS":"裕和二街３２２號","OBJECTID":544387},"geometry":{"x":172188.21999999974,"y":2542662.879999999}},{"attributes":{"ID":544415,"DIS_CODE":0,"TOWNNAME":"東區","LI":"文聖里","LIN":"12鄰","STREET":"裕和二街","SECT":" ","MAREA":" ","LANE":" ","ALLEY":" ","HOUSE_NO":"３２０號","E_COORD97":172188.38,"N_COORD97":2542670.2400000002,"ADDRESS":"裕和二街３２０號","OBJECTID":544388},"geometry":{"x":172188.37999999989,"y":2542670.2400000039}},{"attributes":{"ID":544416,"DIS_CODE":0,"TOWNNAME":"東區","LI":"文聖里","LIN":"12鄰","STREET":"裕和二街","SECT":" ","MAREA":" ","LANE":" ","ALLEY":" ","HOUSE_NO":"３１８號","E_COORD97":172188.70999999999,"N_COORD97":2542676.96,"ADDRESS":"裕和二街３１８號","OBJECTID":544389},"geometry":{"x":172188.71000000183,"y":2542676.9600000028}},{"attributes":{"ID":544417,"DIS_CODE":0,"TOWNNAME":"東區","LI":"文聖里","LIN":"12鄰","STREET":"裕忠路","SECT":" ","MAREA":" ","LANE":" ","ALLEY":" ","HOUSE_NO":"２１６號","E_COORD97":172243.45000000001,"N_COORD97":2542748.3399999999,"ADDRESS":"裕忠路２１６號","OBJECTID":544390},"geometry":{"x":172243.45000000112,"y":2542748.3400000017}},{"attributes":{"ID":544418,"DIS_CODE":0,"TOWNNAME":"東區","LI":"文聖里","LIN":"12鄰","STREET":"裕忠路","SECT":" ","MAREA":" ","LANE":" ","ALLEY":" ","HOUSE_NO":"２１８號","E_COORD97":172243.89000000001,"N_COORD97":2542741.8799999999,"ADDRESS":"裕忠路２１８號","OBJECTID":544391},"geometry":{"x":172243.8900000006,"y":2542741.879999999}},{"attributes":{"ID":544419,"DIS_CODE":0,"TOWNNAME":"善化區","LI":"文昌里","LIN":"12鄰","STREET":"中和街","SECT":" ","MAREA":" ","LANE":" ","ALLEY":" ","HOUSE_NO":"２１之１號","E_COORD97":177482.67000000001,"N_COORD97":2558916.77,"ADDRESS":"中和街２１之１號","OBJECTID":544392},"geometry":{"x":177482.66999999993,"y":2558916.7700000014}},{"attributes":{"ID":544420,"DIS_CODE":0,"TOWNNAME":"善化區","LI":"文昌里","LIN":"12鄰","STREET":"中和街","SECT":" ","MAREA":" ","LANE":" ","ALLEY":" ","HOUSE_NO":"５６號","E_COORD97":177463.85000000001,"N_COORD97":2558887.5,"ADDRESS":"中和街５６號","OBJECTID":544393},"geometry":{"x":177463.84999999963,"y":2558887.4999999981}},{"attributes":{"ID":544421,"DIS_CODE":0,"TOWNNAME":"善化區","LI":"坐駕里","LIN":"12鄰","STREET":"大成路","SECT":" ","MAREA":" ","LANE":" ","ALLEY":" ","HOUSE_NO":"３５９號","E_COORD97":177961.20999999999,"N_COORD97":2558782.4900000002,"ADDRESS":"大成路３５９號","OBJECTID":544394},"geometry":{"x":177961.21000000089,"y":2558782.4900000002}},{"attributes":{"ID":544422,"DIS_CODE":0,"TOWNNAME":"善化區","LI":"光文里","LIN":"12鄰","STREET":"民生路","SECT":" ","MAREA":" ","LANE":" ","ALLEY":" ","HOUSE_NO":"８０號","E_COORD97":178731.64999999999,"N_COORD97":2559015.2599999998,"ADDRESS":"民生路８０號","OBJECTID":544395},"geometry":{"x":178731.6500000013,"y":2559015.2600000016}},{"attributes":{"ID":544423,"DIS_CODE":0,"TOWNNAME":"善化區","LI":"文昌里","LIN":"12鄰","STREET":"永福路","SECT":" ","MAREA":" ","LANE":" ","ALLEY":" ","HOUSE_NO":"６６號","E_COORD97":177466.07999999999,"N_COORD97":2558862.25,"ADDRESS":"永福路６６號","OBJECTID":544396},"geometry":{"x":177466.08000000007,"y":2558862.2500000037}},{"attributes":{"ID":544424,"DIS_CODE":0,"TOWNNAME":"善化區","LI":"光文里","LIN":"12鄰","STREET":"民生路","SECT":" ","MAREA":" ","LANE":" ","ALLEY":" ","HOUSE_NO":"１６１號","E_COORD97":178491.67000000001,"N_COORD97":2558957.0099999998,"ADDRESS":"民生路１６１號","OBJECTID":544397},"geometry":{"x":178491.67000000179,"y":2558957.0099999998}},{"attributes":{"ID":544425,"DIS_CODE":0,"TOWNNAME":"善化區","LI":"文昌里","LIN":"12鄰","STREET":"永福路","SECT":" ","MAREA":" ","LANE":" ","ALLEY":" ","HOUSE_NO":"７１號","E_COORD97":177462.79999999999,"N_COORD97":2558847.5,"ADDRESS":"永福路７１號","OBJECTID":544398},"geometry":{"x":177462.79999999981,"y":2558847.5000000019}},{"attributes":{"ID":544426,"DIS_CODE":0,"TOWNNAME":"善化區","LI":"文昌里","LIN":"12鄰","STREET":"永福路","SECT":" ","MAREA":" ","LANE":" ","ALLEY":" ","HOUSE_NO":"８２號之１","E_COORD97":177429.28,"N_COORD97":2558850.27,"ADDRESS":"永福路８２號之１","OBJECTID":544399},"geometry":{"x":177429.28000000026,"y":2558850.2699999996}},{"attributes":{"ID":544427,"DIS_CODE":0,"TOWNNAME":"善化區","LI":"文昌里","LIN":"12鄰","STREET":"永福路","SECT":" ","MAREA":" ","LANE":" ","ALLEY":" ","HOUSE_NO":"７２之１號","E_COORD97":177452.04999999999,"N_COORD97":2558857.77,"ADDRESS":"永福路７２之１號","OBJECTID":544400},"geometry":{"x":177452.05000000075,"y":2558857.7699999996}}]}