{"displayFieldName":"TOWNNAME","fieldAliases":{"ID":"ID","DIS_CODE":"DIS_CODE","TOWNNAME":"TOWNNAME","LI":"LI","LIN":"LIN","STREET":"STREET","SECT":"SECT","MAREA":"MAREA","LANE":"LANE","ALLEY":"ALLEY","HOUSE_NO":"HOUSE_NO","E_COORD97":"E_COORD97","N_COORD97":"N_COORD97","ADDRESS":"ADDRESS","OBJECTID":"OBJECTID"},"geometryType":"esriGeometryPoint","spatialReference":{"wkid":102443,"latestWkid":3826},"fields":[{"name":"ID","type":"esriFieldTypeDouble","alias":"ID"},{"name":"DIS_CODE","type":"esriFieldTypeInteger","alias":"DIS_CODE"},{"name":"TOWNNAME","type":"esriFieldTypeString","alias":"TOWNNAME","length":8},{"name":"LI","type":"esriFieldTypeString","alias":"LI","length":8},{"name":"LIN","type":"esriFieldTypeString","alias":"LIN","length":12},{"name":"STREET","type":"esriFieldTypeString","alias":"STREET","length":20},{"name":"SECT","type":"esriFieldTypeString","alias":"SECT","length":8},{"name":"MAREA","type":"esriFieldTypeString","alias":"MAREA","length":12},{"name":"LANE","type":"esriFieldTypeString","alias":"LANE","length":10},{"name":"ALLEY","type":"esriFieldTypeString","alias":"ALLEY","length":10},{"name":"HOUSE_NO","type":"esriFieldTypeString","alias":"HOUSE_NO","length":20},{"name":"E_COORD97","type":"esriFieldTypeDouble","alias":"E_COORD97"},{"name":"N_COORD97","type":"esriFieldTypeDouble","alias":"N_COORD97"},{"name":"ADDRESS","type":"esriFieldTypeString","alias":"ADDRESS","length":50},{"name":"OBJECTID","type":"esriFieldTypeOID","alias":"OBJECTID"}],"features":[{"attributes":{"ID":439426,"DIS_CODE":0,"TOWNNAME":"新化區","LI":"太平里","LIN":"4鄰","STREET":"中正路","SECT":" ","MAREA":" ","LANE":"５８０巷","ALLEY":" ","HOUSE_NO":"２號之１０１","E_COORD97":178975.73999999999,"N_COORD97":2549008.2599999998,"ADDRESS":"中正路５８０巷２號之１０１","OBJECTID":439401},"geometry":{"x":178975.74000000022,"y":2549008.2599999998}},{"attributes":{"ID":439427,"DIS_CODE":0,"TOWNNAME":"新化區","LI":"護國里","LIN":"4鄰","STREET":"建國街","SECT":" ","MAREA":" ","LANE":"９巷","ALLEY":" ","HOUSE_NO":"１７號","E_COORD97":179140.48000000001,"N_COORD97":2548511.2599999998,"ADDRESS":"建國街９巷１７號","OBJECTID":439402},"geometry":{"x":179140.48000000045,"y":2548511.2600000035}},{"attributes":{"ID":439428,"DIS_CODE":0,"TOWNNAME":"新化區","LI":"東榮里","LIN":"14鄰","STREET":"中興路","SECT":" ","MAREA":" ","LANE":"５９５巷","ALLEY":" ","HOUSE_NO":"１５號","E_COORD97":179840.76000000001,"N_COORD97":2547886.25,"ADDRESS":"中興路５９５巷１５號","OBJECTID":439403},"geometry":{"x":179840.76000000071,"y":2547886.25}},{"attributes":{"ID":439429,"DIS_CODE":0,"TOWNNAME":"新化區","LI":"護國里","LIN":"8鄰","STREET":"信義路","SECT":" ","MAREA":" ","LANE":"８６巷","ALLEY":" ","HOUSE_NO":"２號","E_COORD97":179838.98000000001,"N_COORD97":2548749.25,"ADDRESS":"信義路８６巷２號","OBJECTID":439404},"geometry":{"x":179838.98000000045,"y":2548749.2500000019}},{"attributes":{"ID":439430,"DIS_CODE":0,"TOWNNAME":"新化區","LI":"太平里","LIN":"4鄰","STREET":"中正路","SECT":" ","MAREA":" ","LANE":"５８０巷","ALLEY":" ","HOUSE_NO":"２號之１０２","E_COORD97":178980.95999999999,"N_COORD97":2549010.2599999998,"ADDRESS":"中正路５８０巷２號之１０２","OBJECTID":439405},"geometry":{"x":178980.95999999996,"y":2549010.2600000016}},{"attributes":{"ID":439431,"DIS_CODE":0,"TOWNNAME":"新化區","LI":"太平里","LIN":"14鄰","STREET":"太平街","SECT":" ","MAREA":" ","LANE":"４８巷","ALLEY":" ","HOUSE_NO":"７號之３","E_COORD97":178787.72,"N_COORD97":2548809.2599999998,"ADDRESS":"太平街４８巷７號之３","OBJECTID":439406},"geometry":{"x":178787.71999999881,"y":2548809.2599999979}},{"attributes":{"ID":439432,"DIS_CODE":0,"TOWNNAME":"新化區","LI":"東榮里","LIN":"14鄰","STREET":"中興路","SECT":" ","MAREA":" ","LANE":"５９５巷","ALLEY":" ","HOUSE_NO":"２１號","E_COORD97":179840.95999999999,"N_COORD97":2547872.25,"ADDRESS":"中興路５９５巷２１號","OBJECTID":439407},"geometry":{"x":179840.96000000183,"y":2547872.2500000019}},{"attributes":{"ID":439433,"DIS_CODE":0,"TOWNNAME":"新化區","LI":"東榮里","LIN":"14鄰","STREET":"中興路","SECT":" ","MAREA":" ","LANE":"５８０巷","ALLEY":" ","HOUSE_NO":"３９號","E_COORD97":179845.56,"N_COORD97":2548061.25,"ADDRESS":"中興路５８０巷３９號","OBJECTID":439408},"geometry":{"x":179845.56000000052,"y":2548061.2500000019}},{"attributes":{"ID":439434,"DIS_CODE":0,"TOWNNAME":"新化區","LI":"觀音里","LIN":"4鄰","STREET":"仁愛街","SECT":" ","MAREA":" ","LANE":"６５巷","ALLEY":" ","HOUSE_NO":"１５號","E_COORD97":178995.42999999999,"N_COORD97":2548544.25,"ADDRESS":"仁愛街６５巷１５號","OBJECTID":439409},"geometry":{"x":178995.43000000063,"y":2548544.25}},{"attributes":{"ID":439435,"DIS_CODE":0,"TOWNNAME":"新化區","LI":"太平里","LIN":"4鄰","STREET":"中正路","SECT":" ","MAREA":" ","LANE":"５８４巷","ALLEY":" ","HOUSE_NO":"７號","E_COORD97":178937.41,"N_COORD97":2549122.25,"ADDRESS":"中正路５８４巷７號","OBJECTID":439410},"geometry":{"x":178937.41000000015,"y":2549122.2500000019}},{"attributes":{"ID":439436,"DIS_CODE":0,"TOWNNAME":"新化區","LI":"太平里","LIN":"4鄰","STREET":"中正路","SECT":" ","MAREA":" ","LANE":"５８０巷","ALLEY":" ","HOUSE_NO":"２號之１１５","E_COORD97":178983.67000000001,"N_COORD97":2549024.2599999998,"ADDRESS":"中正路５８０巷２號之１１５","OBJECTID":439411},"geometry":{"x":178983.67000000086,"y":2549024.2600000016}},{"attributes":{"ID":439437,"DIS_CODE":0,"TOWNNAME":"新化區","LI":"竹林里","LIN":"4鄰","STREET":"中山路","SECT":" ","MAREA":" ","LANE":"３６２巷","ALLEY":" ","HOUSE_NO":"２號","E_COORD97":178887.60999999999,"N_COORD97":2548441.25,"ADDRESS":"中山路３６２巷２號","OBJECTID":439412},"geometry":{"x":178887.6100000022,"y":2548441.2500000019}},{"attributes":{"ID":439438,"DIS_CODE":0,"TOWNNAME":"新化區","LI":"東榮里","LIN":"4鄰","STREET":"信義路","SECT":" ","MAREA":" ","LANE":"２９巷","ALLEY":" ","HOUSE_NO":"３０號","E_COORD97":180797.03,"N_COORD97":2548608.25,"ADDRESS":"信義路２９巷３０號","OBJECTID":439413},"geometry":{"x":180797.03000000119,"y":2548608.25}},{"attributes":{"ID":439439,"DIS_CODE":0,"TOWNNAME":"新化區","LI":"東榮里","LIN":"4鄰","STREET":"信義路","SECT":" ","MAREA":" ","LANE":"９３巷","ALLEY":" ","HOUSE_NO":"７號之１","E_COORD97":179850.70999999999,"N_COORD97":2548662.2599999998,"ADDRESS":"信義路９３巷７號之１","OBJECTID":439414},"geometry":{"x":179850.70999999996,"y":2548662.2599999998}},{"attributes":{"ID":439440,"DIS_CODE":0,"TOWNNAME":"新化區","LI":"太平里","LIN":"4鄰","STREET":"中正路","SECT":" ","MAREA":" ","LANE":"５８０巷","ALLEY":" ","HOUSE_NO":"２號之１１２","E_COORD97":178992.26000000001,"N_COORD97":2549028.2599999998,"ADDRESS":"中正路５８０巷２號之１１２","OBJECTID":439415},"geometry":{"x":178992.25999999978,"y":2549028.2599999998}},{"attributes":{"ID":439441,"DIS_CODE":0,"TOWNNAME":"新化區","LI":"東榮里","LIN":"4鄰","STREET":"信義路","SECT":" ","MAREA":" ","LANE":"２９巷","ALLEY":" ","HOUSE_NO":"３５號","E_COORD97":180807.73000000001,"N_COORD97":2548578.25,"ADDRESS":"信義路２９巷３５號","OBJECTID":439416},"geometry":{"x":180807.73000000138,"y":2548578.25}},{"attributes":{"ID":439442,"DIS_CODE":0,"TOWNNAME":"新化區","LI":"太平里","LIN":"4鄰","STREET":"中正路","SECT":" ","MAREA":" ","LANE":"５８４巷","ALLEY":" ","HOUSE_NO":"１號","E_COORD97":178909.076279,"N_COORD97":2549107.0998999998,"ADDRESS":"中正路５８４巷１號","OBJECTID":439417},"geometry":{"x":178909.07627900038,"y":2549107.0998979993}},{"attributes":{"ID":439443,"DIS_CODE":0,"TOWNNAME":"新化區","LI":"豐榮里","LIN":"13鄰","STREET":"民治路","SECT":" ","MAREA":" ","LANE":"１３巷","ALLEY":" ","HOUSE_NO":"２０號","E_COORD97":178678.31,"N_COORD97":2547993.25,"ADDRESS":"民治路１３巷２０號","OBJECTID":439418},"geometry":{"x":178678.30999999959,"y":2547993.2500000019}},{"attributes":{"ID":439444,"DIS_CODE":0,"TOWNNAME":"新化區","LI":"東榮里","LIN":"13鄰","STREET":"中興路","SECT":" ","MAREA":" ","LANE":"５８０巷","ALLEY":" ","HOUSE_NO":"２０號","E_COORD97":179858.26000000001,"N_COORD97":2548021.25,"ADDRESS":"中興路５８０巷２０號","OBJECTID":439419},"geometry":{"x":179858.25999999978,"y":2548021.2500000019}},{"attributes":{"ID":439445,"DIS_CODE":0,"TOWNNAME":"新化區","LI":"太平里","LIN":"4鄰","STREET":"中正路","SECT":" ","MAREA":" ","LANE":"５８０巷","ALLEY":" ","HOUSE_NO":"２號之１０","E_COORD97":178950.79999999999,"N_COORD97":2548998.2599999998,"ADDRESS":"中正路５８０巷２號之１０","OBJECTID":439420},"geometry":{"x":178950.80000000075,"y":2548998.2599999998}},{"attributes":{"ID":439446,"DIS_CODE":0,"TOWNNAME":"新化區","LI":"竹林里","LIN":"4鄰","STREET":"中山路","SECT":" ","MAREA":" ","LANE":"３６２巷","ALLEY":" ","HOUSE_NO":"１號","E_COORD97":178874.31,"N_COORD97":2548449.25,"ADDRESS":"中山路３６２巷１號","OBJECTID":439421},"geometry":{"x":178874.31000000052,"y":2548449.25}},{"attributes":{"ID":439447,"DIS_CODE":0,"TOWNNAME":"新化區","LI":"東榮里","LIN":"14鄰","STREET":"中興路","SECT":" ","MAREA":" ","LANE":"５９５巷","ALLEY":" ","HOUSE_NO":"４５號","E_COORD97":179842.95999999999,"N_COORD97":2547804.25,"ADDRESS":"中興路５９５巷４５號","OBJECTID":439422},"geometry":{"x":179842.96000000089,"y":2547804.2500000019}},{"attributes":{"ID":439448,"DIS_CODE":0,"TOWNNAME":"新化區","LI":"太平里","LIN":"4鄰","STREET":"民生路","SECT":" ","MAREA":" ","LANE":"１８６巷","ALLEY":" ","HOUSE_NO":"３７號","E_COORD97":179168.85999999999,"N_COORD97":2549034.25,"ADDRESS":"民生路１８６巷３７號","OBJECTID":439423},"geometry":{"x":179168.8600000022,"y":2549034.2500000019}},{"attributes":{"ID":439449,"DIS_CODE":0,"TOWNNAME":"新化區","LI":"東榮里","LIN":"14鄰","STREET":"中興路","SECT":" ","MAREA":" ","LANE":"５８７巷","ALLEY":" ","HOUSE_NO":"１號","E_COORD97":179790.31,"N_COORD97":2547947.25,"ADDRESS":"中興路５８７巷１號","OBJECTID":439424},"geometry":{"x":179790.30999999959,"y":2547947.25}},{"attributes":{"ID":439450,"DIS_CODE":0,"TOWNNAME":"安南區","LI":"淵西里","LIN":"11鄰","STREET":"安中路","SECT":"四段","MAREA":" ","LANE":"２９０巷","ALLEY":" ","HOUSE_NO":"１４６號","E_COORD97":164862.87,"N_COORD97":2550233.5800000001,"ADDRESS":"安中路四段２９０巷１４６號","OBJECTID":439425},"geometry":{"x":164862.87000000197,"y":2550233.5800000001}},{"attributes":{"ID":439451,"DIS_CODE":0,"TOWNNAME":"安南區","LI":"淵西里","LIN":"11鄰","STREET":"安中路","SECT":"四段","MAREA":" ","LANE":"２９０巷","ALLEY":" ","HOUSE_NO":"１５０號","E_COORD97":164869.25,"N_COORD97":2550245.5699999998,"ADDRESS":"安中路四段２９０巷１５０號","OBJECTID":439426},"geometry":{"x":164869.25000000093,"y":2550245.570000004}},{"attributes":{"ID":439452,"DIS_CODE":0,"TOWNNAME":"安南區","LI":"淵西里","LIN":"11鄰","STREET":"安中路","SECT":"四段","MAREA":" ","LANE":"２９０巷","ALLEY":" ","HOUSE_NO":"１５２之３號","E_COORD97":164885.76000000001,"N_COORD97":2550235.8300000001,"ADDRESS":"安中路四段２９０巷１５２之３號","OBJECTID":439427},"geometry":{"x":164885.76000000071,"y":2550235.8300000001}},{"attributes":{"ID":439453,"DIS_CODE":0,"TOWNNAME":"安南區","LI":"淵東里","LIN":"4鄰","STREET":"仁安一街","SECT":" ","MAREA":" ","LANE":"６８巷","ALLEY":" ","HOUSE_NO":"１０號","E_COORD97":165742.70999999999,"N_COORD97":2550273.9199999999,"ADDRESS":"仁安一街６８巷１０號","OBJECTID":439428},"geometry":{"x":165742.71000000089,"y":2550273.9200000018}},{"attributes":{"ID":439454,"DIS_CODE":0,"TOWNNAME":"安南區","LI":"淵東里","LIN":"4鄰","STREET":"仁安一街","SECT":" ","MAREA":" ","LANE":"６８巷","ALLEY":" ","HOUSE_NO":"１１號","E_COORD97":165763.23999999999,"N_COORD97":2550273.1200000001,"ADDRESS":"仁安一街６８巷１１號","OBJECTID":439429},"geometry":{"x":165763.24000000022,"y":2550273.1200000048}},{"attributes":{"ID":439455,"DIS_CODE":0,"TOWNNAME":"安南區","LI":"淵東里","LIN":"4鄰","STREET":"仁安一街","SECT":" ","MAREA":" ","LANE":"６８巷","ALLEY":" ","HOUSE_NO":"１２號","E_COORD97":165744.98999999999,"N_COORD97":2550270.04,"ADDRESS":"仁安一街６８巷１２號","OBJECTID":439430},"geometry":{"x":165744.99000000022,"y":2550270.0399999991}},{"attributes":{"ID":439456,"DIS_CODE":0,"TOWNNAME":"安南區","LI":"淵東里","LIN":"4鄰","STREET":"仁安一街","SECT":" ","MAREA":" ","LANE":"６８巷","ALLEY":" ","HOUSE_NO":"１４號","E_COORD97":165745.92999999999,"N_COORD97":2550266.5499999998,"ADDRESS":"仁安一街６８巷１４號","OBJECTID":439431},"geometry":{"x":165745.93000000063,"y":2550266.5500000045}},{"attributes":{"ID":439457,"DIS_CODE":0,"TOWNNAME":"安南區","LI":"淵東里","LIN":"4鄰","STREET":"仁安一街","SECT":" ","MAREA":" ","LANE":"６８巷","ALLEY":" ","HOUSE_NO":"１號","E_COORD97":165756.26000000001,"N_COORD97":2550291.8700000001,"ADDRESS":"仁安一街６８巷１號","OBJECTID":439432},"geometry":{"x":165756.25999999978,"y":2550291.8700000048}},{"attributes":{"ID":439458,"DIS_CODE":0,"TOWNNAME":"安南區","LI":"淵東里","LIN":"4鄰","STREET":"仁安一街","SECT":" ","MAREA":" ","LANE":"７０巷","ALLEY":" ","HOUSE_NO":"３號","E_COORD97":165789.41,"N_COORD97":2550298.7200000002,"ADDRESS":"仁安一街７０巷３號","OBJECTID":439433},"geometry":{"x":165789.41000000015,"y":2550298.7200000007}},{"attributes":{"ID":439459,"DIS_CODE":0,"TOWNNAME":"安南區","LI":"淵東里","LIN":"4鄰","STREET":"仁安一街","SECT":" ","MAREA":" ","LANE":"７０巷","ALLEY":" ","HOUSE_NO":"５號","E_COORD97":165790.85000000001,"N_COORD97":2550294.5099999998,"ADDRESS":"仁安一街７０巷５號","OBJECTID":439434},"geometry":{"x":165790.84999999963,"y":2550294.5099999998}},{"attributes":{"ID":439460,"DIS_CODE":0,"TOWNNAME":"安南區","LI":"淵東里","LIN":"4鄰","STREET":"仁安一街","SECT":" ","MAREA":" ","LANE":"７０巷","ALLEY":" ","HOUSE_NO":"６號","E_COORD97":165773.17000000001,"N_COORD97":2550291.8700000001,"ADDRESS":"仁安一街７０巷６號","OBJECTID":439435},"geometry":{"x":165773.17000000086,"y":2550291.8700000048}},{"attributes":{"ID":439461,"DIS_CODE":0,"TOWNNAME":"安南區","LI":"淵東里","LIN":"4鄰","STREET":"仁安一街","SECT":" ","MAREA":" ","LANE":"７０巷","ALLEY":" ","HOUSE_NO":"７號","E_COORD97":165792.42000000001,"N_COORD97":2550289.9500000002,"ADDRESS":"仁安一街７０巷７號","OBJECTID":439436},"geometry":{"x":165792.41999999993,"y":2550289.9500000011}},{"attributes":{"ID":439462,"DIS_CODE":0,"TOWNNAME":"安南區","LI":"淵東里","LIN":"4鄰","STREET":"仁安一街","SECT":" ","MAREA":" ","LANE":"７０巷","ALLEY":" ","HOUSE_NO":"８號","E_COORD97":165774.13,"N_COORD97":2550287.9100000001,"ADDRESS":"仁安一街７０巷８號","OBJECTID":439437},"geometry":{"x":165774.12999999989,"y":2550287.910000002}},{"attributes":{"ID":439463,"DIS_CODE":0,"TOWNNAME":"安南區","LI":"淵東里","LIN":"4鄰","STREET":"仁安一街","SECT":" ","MAREA":" ","LANE":"７０巷","ALLEY":" ","HOUSE_NO":"９號","E_COORD97":165794.10000000001,"N_COORD97":2550285.5,"ADDRESS":"仁安一街７０巷９號","OBJECTID":439438},"geometry":{"x":165794.09999999963,"y":2550285.5}},{"attributes":{"ID":439464,"DIS_CODE":0,"TOWNNAME":"安南區","LI":"淵東里","LIN":"4鄰","STREET":"智安二街","SECT":" ","MAREA":" ","LANE":"５０巷","ALLEY":" ","HOUSE_NO":"１０號","E_COORD97":165743.64000000001,"N_COORD97":2550223.3199999998,"ADDRESS":"智安二街５０巷１０號","OBJECTID":439439},"geometry":{"x":165743.63999999966,"y":2550223.320000004}},{"attributes":{"ID":439465,"DIS_CODE":0,"TOWNNAME":"安南區","LI":"淵東里","LIN":"4鄰","STREET":"智安二街","SECT":" ","MAREA":" ","LANE":"５０巷","ALLEY":" ","HOUSE_NO":"１１號","E_COORD97":165751.34,"N_COORD97":2550251.3599999999,"ADDRESS":"智安二街５０巷１１號","OBJECTID":439440},"geometry":{"x":165751.34000000078,"y":2550251.3599999994}},{"attributes":{"ID":439466,"DIS_CODE":0,"TOWNNAME":"安南區","LI":"淵東里","LIN":"4鄰","STREET":"智安二街","SECT":" ","MAREA":" ","LANE":"５０巷","ALLEY":" ","HOUSE_NO":"１２號","E_COORD97":165746.97,"N_COORD97":2550224.7999999998,"ADDRESS":"智安二街５０巷１２號","OBJECTID":439441},"geometry":{"x":165746.97000000067,"y":2550224.8000000026}},{"attributes":{"ID":439467,"DIS_CODE":0,"TOWNNAME":"安南區","LI":"淵東里","LIN":"4鄰","STREET":"智安二街","SECT":" ","MAREA":" ","LANE":"５０巷","ALLEY":" ","HOUSE_NO":"６號","E_COORD97":165734.76999999999,"N_COORD97":2550220,"ADDRESS":"智安二街５０巷６號","OBJECTID":439442},"geometry":{"x":165734.77000000048,"y":2550220.0000000019}},{"attributes":{"ID":439468,"DIS_CODE":0,"TOWNNAME":"安南區","LI":"淵東里","LIN":"4鄰","STREET":"智安二街","SECT":" ","MAREA":" ","LANE":"５０巷","ALLEY":" ","HOUSE_NO":"８號","E_COORD97":165739.39000000001,"N_COORD97":2550221.6600000001,"ADDRESS":"智安二街５０巷８號","OBJECTID":439443},"geometry":{"x":165739.3900000006,"y":2550221.660000002}},{"attributes":{"ID":439469,"DIS_CODE":0,"TOWNNAME":"安南區","LI":"淵東里","LIN":"17鄰","STREET":"智安三街","SECT":" ","MAREA":" ","LANE":"５３巷","ALLEY":" ","HOUSE_NO":"６號","E_COORD97":165849.42000000001,"N_COORD97":2550172.3599999999,"ADDRESS":"智安三街５３巷６號","OBJECTID":439444},"geometry":{"x":165849.42000000086,"y":2550172.3600000013}},{"attributes":{"ID":439470,"DIS_CODE":0,"TOWNNAME":"安南區","LI":"理想里","LIN":"20鄰","STREET":"同安路","SECT":" ","MAREA":" ","LANE":"６８巷","ALLEY":" ","HOUSE_NO":"８８號","E_COORD97":166992.38,"N_COORD97":2548744.8700000001,"ADDRESS":"同安路６８巷８８號","OBJECTID":439445},"geometry":{"x":166992.38000000082,"y":2548744.870000001}},{"attributes":{"ID":439471,"DIS_CODE":0,"TOWNNAME":"安南區","LI":"理想里","LIN":"20鄰","STREET":"同安路","SECT":" ","MAREA":" ","LANE":"６８巷","ALLEY":" ","HOUSE_NO":"９０號","E_COORD97":166995.28,"N_COORD97":2548741.1200000001,"ADDRESS":"同安路６８巷９０號","OBJECTID":439446},"geometry":{"x":166995.28000000119,"y":2548741.1200000029}},{"attributes":{"ID":439472,"DIS_CODE":0,"TOWNNAME":"將軍區","LI":"廣山里","LIN":"9鄰","STREET":" ","SECT":" ","MAREA":"廣山","LANE":" ","ALLEY":" ","HOUSE_NO":"８１號","E_COORD97":159409.90111899999,"N_COORD97":2568832.75306,"ADDRESS":"廣山８１號","OBJECTID":439447},"geometry":{"x":159409.90111900028,"y":2568832.7530620024}},{"attributes":{"ID":439473,"DIS_CODE":0,"TOWNNAME":"安南區","LI":"理想里","LIN":"21鄰","STREET":"海佃路","SECT":"二段","MAREA":" ","LANE":"１５０巷","ALLEY":" ","HOUSE_NO":"１２２號之２４","E_COORD97":167242.03,"N_COORD97":2548539.6000000001,"ADDRESS":"海佃路二段１５０巷１２２號之２４","OBJECTID":439448},"geometry":{"x":167242.03000000212,"y":2548539.6000000015}},{"attributes":{"ID":439474,"DIS_CODE":0,"TOWNNAME":"安南區","LI":"理想里","LIN":"21鄰","STREET":"海佃路","SECT":"二段","MAREA":" ","LANE":"１５０巷","ALLEY":" ","HOUSE_NO":"１２２號之２５","E_COORD97":167247.20999999999,"N_COORD97":2548546.7799999998,"ADDRESS":"海佃路二段１５０巷１２２號之２５","OBJECTID":439449},"geometry":{"x":167247.21000000183,"y":2548546.7799999993}},{"attributes":{"ID":439475,"DIS_CODE":0,"TOWNNAME":"安南區","LI":"大安里","LIN":"10鄰","STREET":"大安街","SECT":" ","MAREA":" ","LANE":"２３６巷","ALLEY":" ","HOUSE_NO":"１２號","E_COORD97":167474.28,"N_COORD97":2548335.9100000001,"ADDRESS":"大安街２３６巷１２號","OBJECTID":439450},"geometry":{"x":167474.28000000212,"y":2548335.9100000001}},{"attributes":{"ID":439476,"DIS_CODE":0,"TOWNNAME":"安南區","LI":"大安里","LIN":"9鄰","STREET":"大安街","SECT":" ","MAREA":" ","LANE":"２０８巷","ALLEY":" ","HOUSE_NO":"２６號","E_COORD97":167473.57000000001,"N_COORD97":2548255.3199999998,"ADDRESS":"大安街２０８巷２６號","OBJECTID":439451},"geometry":{"x":167473.5700000003,"y":2548255.3200000003}},{"attributes":{"ID":439477,"DIS_CODE":0,"TOWNNAME":"南區","LI":"開南里","LIN":"18鄰","STREET":"\u25A0埕路","SECT":" ","MAREA":" ","LANE":"１５９巷","ALLEY":" ","HOUSE_NO":"５號","E_COORD97":166587.26000000001,"N_COORD97":2541160.96,"ADDRESS":"\u25A0埕路１５９巷５號","OBJECTID":439452},"geometry":{"x":166587.26000000164,"y":2541160.9600000028}},{"attributes":{"ID":439478,"DIS_CODE":0,"TOWNNAME":"南區","LI":"新昌里","LIN":"1鄰","STREET":"大德街","SECT":" ","MAREA":" ","LANE":"１４１巷","ALLEY":" ","HOUSE_NO":"１５號","E_COORD97":167582.78,"N_COORD97":2542983.8300000001,"ADDRESS":"大德街１４１巷１５號","OBJECTID":439453},"geometry":{"x":167582.78000000212,"y":2542983.8300000001}},{"attributes":{"ID":439479,"DIS_CODE":0,"TOWNNAME":"南區","LI":"新昌里","LIN":"1鄰","STREET":"大德街","SECT":" ","MAREA":" ","LANE":"１４１巷","ALLEY":" ","HOUSE_NO":"１７號","E_COORD97":167580.23999999999,"N_COORD97":2542976.8500000001,"ADDRESS":"大德街１４１巷１７號","OBJECTID":439454},"geometry":{"x":167580.24000000115,"y":2542976.8499999996}},{"attributes":{"ID":439480,"DIS_CODE":0,"TOWNNAME":"南區","LI":"新昌里","LIN":"1鄰","STREET":"大德街","SECT":" ","MAREA":" ","LANE":"１４１巷","ALLEY":" ","HOUSE_NO":"１９號","E_COORD97":167580.88,"N_COORD97":2542968.29,"ADDRESS":"大德街１４１巷１９號","OBJECTID":439455},"geometry":{"x":167580.87999999989,"y":2542968.290000001}},{"attributes":{"ID":439481,"DIS_CODE":0,"TOWNNAME":"南區","LI":"新昌里","LIN":"1鄰","STREET":"大德街","SECT":" ","MAREA":" ","LANE":"１４１巷","ALLEY":" ","HOUSE_NO":"２３號","E_COORD97":167574.84,"N_COORD97":2542960.6800000002,"ADDRESS":"大德街１４１巷２３號","OBJECTID":439456},"geometry":{"x":167574.83999999985,"y":2542960.6799999997}},{"attributes":{"ID":439482,"DIS_CODE":0,"TOWNNAME":"南區","LI":"新昌里","LIN":"1鄰","STREET":"大德街","SECT":" ","MAREA":" ","LANE":"１４１巷","ALLEY":" ","HOUSE_NO":"２５號","E_COORD97":167575.16,"N_COORD97":2542955.6000000001,"ADDRESS":"大德街１４１巷２５號","OBJECTID":439457},"geometry":{"x":167575.16000000108,"y":2542955.6000000015}},{"attributes":{"ID":439483,"DIS_CODE":0,"TOWNNAME":"南區","LI":"新昌里","LIN":"1鄰","STREET":"大德街","SECT":" ","MAREA":" ","LANE":"１４１巷","ALLEY":" ","HOUSE_NO":"２９號","E_COORD97":167579.51000000001,"N_COORD97":2542945.7000000002,"ADDRESS":"大德街１４１巷２９號","OBJECTID":439458},"geometry":{"x":167579.51000000071,"y":2542945.6999999993}},{"attributes":{"ID":439484,"DIS_CODE":0,"TOWNNAME":"南區","LI":"新昌里","LIN":"4鄰","STREET":"大德街","SECT":" ","MAREA":" ","LANE":"１４１巷","ALLEY":" ","HOUSE_NO":"３８號","E_COORD97":167535.17000000001,"N_COORD97":2542861.4300000002,"ADDRESS":"大德街１４１巷３８號","OBJECTID":439459},"geometry":{"x":167535.16999999993,"y":2542861.4300000034}},{"attributes":{"ID":439485,"DIS_CODE":0,"TOWNNAME":"南區","LI":"新昌里","LIN":"4鄰","STREET":"大德街","SECT":" ","MAREA":" ","LANE":"１４１巷","ALLEY":" ","HOUSE_NO":"３８號之１","E_COORD97":167534.03,"N_COORD97":2542855.1099999999,"ADDRESS":"大德街１４１巷３８號之１","OBJECTID":439460},"geometry":{"x":167534.03000000119,"y":2542855.1099999994}},{"attributes":{"ID":439486,"DIS_CODE":0,"TOWNNAME":"南區","LI":"新昌里","LIN":"4鄰","STREET":"大德街","SECT":" ","MAREA":" ","LANE":"１４１巷","ALLEY":" ","HOUSE_NO":"３８號之２","E_COORD97":167533.06,"N_COORD97":2542850.5699999998,"ADDRESS":"大德街１４１巷３８號之２","OBJECTID":439461},"geometry":{"x":167533.06000000052,"y":2542850.5700000003}},{"attributes":{"ID":439487,"DIS_CODE":0,"TOWNNAME":"南區","LI":"新昌里","LIN":"4鄰","STREET":"大德街","SECT":" ","MAREA":" ","LANE":"１４１巷","ALLEY":" ","HOUSE_NO":"４０號","E_COORD97":167530.45999999999,"N_COORD97":2542843.6000000001,"ADDRESS":"大德街１４１巷４０號","OBJECTID":439462},"geometry":{"x":167530.46000000183,"y":2542843.6000000015}},{"attributes":{"ID":439488,"DIS_CODE":0,"TOWNNAME":"南區","LI":"新昌里","LIN":"4鄰","STREET":"大德街","SECT":" ","MAREA":" ","LANE":"１４１巷","ALLEY":" ","HOUSE_NO":"４８號","E_COORD97":167491.59,"N_COORD97":2542839.0899999999,"ADDRESS":"大德街１４１巷４８號","OBJECTID":439463},"geometry":{"x":167491.58999999985,"y":2542839.0899999999}},{"attributes":{"ID":439489,"DIS_CODE":0,"TOWNNAME":"南區","LI":"新昌里","LIN":"4鄰","STREET":"大德街","SECT":" ","MAREA":" ","LANE":"１４１巷","ALLEY":" ","HOUSE_NO":"５６號之１","E_COORD97":167517.81,"N_COORD97":2542812.3999999999,"ADDRESS":"大德街１４１巷５６號之１","OBJECTID":439464},"geometry":{"x":167517.81000000052,"y":2542812.4000000022}},{"attributes":{"ID":439490,"DIS_CODE":0,"TOWNNAME":"南區","LI":"新昌里","LIN":"4鄰","STREET":"大德街","SECT":" ","MAREA":" ","LANE":"１７７巷","ALLEY":" ","HOUSE_NO":"６號","E_COORD97":167500.28,"N_COORD97":2542868.8900000001,"ADDRESS":"大德街１７７巷６號","OBJECTID":439465},"geometry":{"x":167500.28000000119,"y":2542868.8900000006}},{"attributes":{"ID":439491,"DIS_CODE":0,"TOWNNAME":"南區","LI":"新昌里","LIN":"4鄰","STREET":"大德街","SECT":" ","MAREA":" ","LANE":"１７７巷","ALLEY":" ","HOUSE_NO":"８號","E_COORD97":167504.17999999999,"N_COORD97":2542867.4300000002,"ADDRESS":"大德街１７７巷８號","OBJECTID":439466},"geometry":{"x":167504.1799999997,"y":2542867.4299999997}},{"attributes":{"ID":439492,"DIS_CODE":0,"TOWNNAME":"南區","LI":"新昌里","LIN":"4鄰","STREET":"大德街","SECT":" ","MAREA":" ","LANE":"１７７巷","ALLEY":" ","HOUSE_NO":"１０號","E_COORD97":167508.23000000001,"N_COORD97":2542866.6200000001,"ADDRESS":"大德街１７７巷１０號","OBJECTID":439467},"geometry":{"x":167508.23000000045,"y":2542866.6200000029}},{"attributes":{"ID":439493,"DIS_CODE":0,"TOWNNAME":"南區","LI":"新昌里","LIN":"4鄰","STREET":"大德街","SECT":" ","MAREA":" ","LANE":"１７７巷","ALLEY":" ","HOUSE_NO":"１２號","E_COORD97":167513.10000000001,"N_COORD97":2542866.6200000001,"ADDRESS":"大德街１７７巷１２號","OBJECTID":439468},"geometry":{"x":167513.09999999963,"y":2542866.6200000029}},{"attributes":{"ID":439494,"DIS_CODE":0,"TOWNNAME":"南區","LI":"新昌里","LIN":"4鄰","STREET":"大德街","SECT":" ","MAREA":" ","LANE":"１７７巷","ALLEY":" ","HOUSE_NO":"１６號","E_COORD97":167520.23999999999,"N_COORD97":2542862.5699999998,"ADDRESS":"大德街１７７巷１６號","OBJECTID":439469},"geometry":{"x":167520.24000000209,"y":2542862.5700000022}},{"attributes":{"ID":439495,"DIS_CODE":0,"TOWNNAME":"南區","LI":"新昌里","LIN":"4鄰","STREET":"大德街","SECT":" ","MAREA":" ","LANE":"１７７巷","ALLEY":" ","HOUSE_NO":"１８號","E_COORD97":167523.97,"N_COORD97":2542861.9199999999,"ADDRESS":"大德街１７７巷１８號","OBJECTID":439470},"geometry":{"x":167523.97000000067,"y":2542861.9200000037}},{"attributes":{"ID":439496,"DIS_CODE":0,"TOWNNAME":"南區","LI":"新昌里","LIN":"4鄰","STREET":"大德街","SECT":" ","MAREA":" ","LANE":"１７７巷","ALLEY":" ","HOUSE_NO":"２０號","E_COORD97":167527.87,"N_COORD97":2542860.46,"ADDRESS":"大德街１７７巷２０號","OBJECTID":439471},"geometry":{"x":167527.87000000197,"y":2542860.4600000028}},{"attributes":{"ID":439497,"DIS_CODE":0,"TOWNNAME":"南區","LI":"新昌里","LIN":"8鄰","STREET":"西門路","SECT":"一段","MAREA":" ","LANE":"５４５巷","ALLEY":" ","HOUSE_NO":"８號","E_COORD97":167677.60999999999,"N_COORD97":2542697.23,"ADDRESS":"西門路一段５４５巷８號","OBJECTID":439472},"geometry":{"x":167677.61000000127,"y":2542697.2300000004}},{"attributes":{"ID":439498,"DIS_CODE":0,"TOWNNAME":"南區","LI":"新昌里","LIN":"8鄰","STREET":"西門路","SECT":"一段","MAREA":" ","LANE":"５４５巷","ALLEY":" ","HOUSE_NO":"１４號","E_COORD97":167661.85000000001,"N_COORD97":2542700.1200000001,"ADDRESS":"西門路一段５４５巷１４號","OBJECTID":439473},"geometry":{"x":167661.85000000056,"y":2542700.1200000029}},{"attributes":{"ID":439499,"DIS_CODE":0,"TOWNNAME":"南區","LI":"新昌里","LIN":"8鄰","STREET":"西門路","SECT":"一段","MAREA":" ","LANE":"５４５巷","ALLEY":" ","HOUSE_NO":"２０號","E_COORD97":167648.98000000001,"N_COORD97":2542702.0499999998,"ADDRESS":"西門路一段５４５巷２０號","OBJECTID":439474},"geometry":{"x":167648.98000000045,"y":2542702.0500000007}},{"attributes":{"ID":439500,"DIS_CODE":0,"TOWNNAME":"南區","LI":"新昌里","LIN":"19鄰","STREET":"西門路","SECT":"一段","MAREA":" ","LANE":"６８９巷","ALLEY":" ","HOUSE_NO":"１號","E_COORD97":167706.23999999999,"N_COORD97":2543060.4100000001,"ADDRESS":"西門路一段６８９巷１號","OBJECTID":439475},"geometry":{"x":167706.24000000022,"y":2543060.410000002}},{"attributes":{"ID":439501,"DIS_CODE":0,"TOWNNAME":"南區","LI":"新昌里","LIN":"19鄰","STREET":"西門路","SECT":"一段","MAREA":" ","LANE":"６８９巷","ALLEY":" ","HOUSE_NO":"３號","E_COORD97":167702.70000000001,"N_COORD97":2543059.1200000001,"ADDRESS":"西門路一段６８９巷３號","OBJECTID":439476},"geometry":{"x":167702.70000000112,"y":2543059.1200000029}},{"attributes":{"ID":439502,"DIS_CODE":0,"TOWNNAME":"南區","LI":"新昌里","LIN":"19鄰","STREET":"西門路","SECT":"一段","MAREA":" ","LANE":"６８９巷","ALLEY":" ","HOUSE_NO":"５號","E_COORD97":167697.88,"N_COORD97":2543058.7999999998,"ADDRESS":"西門路一段６８９巷５號","OBJECTID":439477},"geometry":{"x":167697.87999999989,"y":2543058.8000000007}},{"attributes":{"ID":439503,"DIS_CODE":0,"TOWNNAME":"南區","LI":"新昌里","LIN":"19鄰","STREET":"西門路","SECT":"一段","MAREA":" ","LANE":"６８９巷","ALLEY":" ","HOUSE_NO":"７號","E_COORD97":167693.69,"N_COORD97":2543058.7999999998,"ADDRESS":"西門路一段６８９巷７號","OBJECTID":439478},"geometry":{"x":167693.69000000227,"y":2543058.8000000007}},{"attributes":{"ID":439504,"DIS_CODE":0,"TOWNNAME":"南區","LI":"新昌里","LIN":"19鄰","STREET":"西門路","SECT":"一段","MAREA":" ","LANE":"６８９巷","ALLEY":" ","HOUSE_NO":"９號","E_COORD97":167689.51000000001,"N_COORD97":2543058.7999999998,"ADDRESS":"西門路一段６８９巷９號","OBJECTID":439479},"geometry":{"x":167689.51000000071,"y":2543058.8000000007}},{"attributes":{"ID":439505,"DIS_CODE":0,"TOWNNAME":"將軍區","LI":"廣山里","LIN":"9鄰","STREET":" ","SECT":" ","MAREA":"廣山","LANE":" ","ALLEY":" ","HOUSE_NO":"８１之２號","E_COORD97":159405.027879,"N_COORD97":2568781.95309,"ADDRESS":"廣山８１之２號","OBJECTID":439480},"geometry":{"x":159405.02787900064,"y":2568781.9530900028}},{"attributes":{"ID":439506,"DIS_CODE":0,"TOWNNAME":"南區","LI":"新昌里","LIN":"19鄰","STREET":"西門路","SECT":"一段","MAREA":" ","LANE":"６８９巷","ALLEY":" ","HOUSE_NO":"１１號","E_COORD97":167685.32999999999,"N_COORD97":2543058.7999999998,"ADDRESS":"西門路一段６８９巷１１號","OBJECTID":439481},"geometry":{"x":167685.33000000007,"y":2543058.8000000007}},{"attributes":{"ID":439507,"DIS_CODE":0,"TOWNNAME":"南區","LI":"新昌里","LIN":"19鄰","STREET":"西門路","SECT":"一段","MAREA":" ","LANE":"６８９巷","ALLEY":" ","HOUSE_NO":"１３號","E_COORD97":167672.14000000001,"N_COORD97":2543048.2000000002,"ADDRESS":"西門路一段６８９巷１３號","OBJECTID":439482},"geometry":{"x":167672.13999999966,"y":2543048.1999999993}},{"attributes":{"ID":439508,"DIS_CODE":0,"TOWNNAME":"南區","LI":"新昌里","LIN":"19鄰","STREET":"西門路","SECT":"一段","MAREA":" ","LANE":"６８９巷","ALLEY":" ","HOUSE_NO":"１５號","E_COORD97":167673.10999999999,"N_COORD97":2543060.0899999999,"ADDRESS":"西門路一段６８９巷１５號","OBJECTID":439483},"geometry":{"x":167673.11000000034,"y":2543060.0899999999}},{"attributes":{"ID":439509,"DIS_CODE":0,"TOWNNAME":"南區","LI":"新昌里","LIN":"19鄰","STREET":"西門路","SECT":"一段","MAREA":" ","LANE":"６８９巷","ALLEY":" ","HOUSE_NO":"１７號","E_COORD97":167672.79000000001,"N_COORD97":2543035.9900000002,"ADDRESS":"西門路一段６８９巷１７號","OBJECTID":439484},"geometry":{"x":167672.79000000097,"y":2543035.9900000021}},{"attributes":{"ID":439510,"DIS_CODE":0,"TOWNNAME":"南區","LI":"新昌里","LIN":"19鄰","STREET":"西門路","SECT":"一段","MAREA":" ","LANE":"６８９巷","ALLEY":" ","HOUSE_NO":"１９號","E_COORD97":167669.89000000001,"N_COORD97":2543025.3199999998,"ADDRESS":"西門路一段６８９巷１９號","OBJECTID":439485},"geometry":{"x":167669.8900000006,"y":2543025.3200000003}},{"attributes":{"ID":439511,"DIS_CODE":0,"TOWNNAME":"南區","LI":"新昌里","LIN":"19鄰","STREET":"西門路","SECT":"一段","MAREA":" ","LANE":"６８９巷","ALLEY":" ","HOUSE_NO":"２１號","E_COORD97":167672.54999999999,"N_COORD97":2543031.3599999999,"ADDRESS":"西門路一段６８９巷２１號","OBJECTID":439486},"geometry":{"x":167672.55000000075,"y":2543031.3600000031}},{"attributes":{"ID":439512,"DIS_CODE":0,"TOWNNAME":"下營區","LI":"大埤里","LIN":"10鄰","STREET":" ","SECT":" ","MAREA":"大埤寮","LANE":" ","ALLEY":" ","HOUSE_NO":"８５號之５","E_COORD97":173036.521699,"N_COORD97":2568914.8107099999,"ADDRESS":"大埤寮８５號之５","OBJECTID":439487},"geometry":{"x":173036.52169900108,"y":2568914.8107089996}},{"attributes":{"ID":439513,"DIS_CODE":0,"TOWNNAME":"南區","LI":"新昌里","LIN":"19鄰","STREET":"西門路","SECT":"一段","MAREA":" ","LANE":"６８９巷","ALLEY":" ","HOUSE_NO":"２３號","E_COORD97":167658.31,"N_COORD97":2543064.27,"ADDRESS":"西門路一段６８９巷２３號","OBJECTID":439488},"geometry":{"x":167658.31000000052,"y":2543064.2699999996}},{"attributes":{"ID":439514,"DIS_CODE":0,"TOWNNAME":"南區","LI":"新昌里","LIN":"19鄰","STREET":"西門路","SECT":"一段","MAREA":" ","LANE":"６８９巷","ALLEY":" ","HOUSE_NO":"２５號","E_COORD97":167651.88,"N_COORD97":2543063.9399999999,"ADDRESS":"西門路一段６８９巷２５號","OBJECTID":439489},"geometry":{"x":167651.88000000082,"y":2543063.9399999995}},{"attributes":{"ID":439515,"DIS_CODE":0,"TOWNNAME":"南區","LI":"新昌里","LIN":"19鄰","STREET":"西門路","SECT":"一段","MAREA":" ","LANE":"６８９巷","ALLEY":" ","HOUSE_NO":"２７號","E_COORD97":167645.76999999999,"N_COORD97":2543064.27,"ADDRESS":"西門路一段６８９巷２７號","OBJECTID":439490},"geometry":{"x":167645.76999999955,"y":2543064.2699999996}},{"attributes":{"ID":439516,"DIS_CODE":0,"TOWNNAME":"南區","LI":"新昌里","LIN":"19鄰","STREET":"西門路","SECT":"一段","MAREA":" ","LANE":"６８９巷","ALLEY":" ","HOUSE_NO":"２９號","E_COORD97":167640.94,"N_COORD97":2543064.27,"ADDRESS":"西門路一段６８９巷２９號","OBJECTID":439491},"geometry":{"x":167640.94000000041,"y":2543064.2699999996}},{"attributes":{"ID":439517,"DIS_CODE":0,"TOWNNAME":"南區","LI":"新昌里","LIN":"19鄰","STREET":"西門路","SECT":"一段","MAREA":" ","LANE":"６８９巷","ALLEY":" ","HOUSE_NO":"３１號","E_COORD97":167636.76000000001,"N_COORD97":2543065.23,"ADDRESS":"西門路一段６８９巷３１號","OBJECTID":439492},"geometry":{"x":167636.76000000164,"y":2543065.2300000023}},{"attributes":{"ID":439518,"DIS_CODE":0,"TOWNNAME":"南區","LI":"新昌里","LIN":" ","STREET":"五妃街","SECT":" ","MAREA":" ","LANE":"３８６巷","ALLEY":" ","HOUSE_NO":"１６號","E_COORD97":167601.79999999999,"N_COORD97":2542646.9100000001,"ADDRESS":"五妃街３８６巷１６號","OBJECTID":439493},"geometry":{"x":167601.79999999981,"y":2542646.9100000001}},{"attributes":{"ID":439519,"DIS_CODE":0,"TOWNNAME":"南區","LI":"新興里","LIN":" ","STREET":"三官路","SECT":" ","MAREA":" ","LANE":"７巷","ALLEY":" ","HOUSE_NO":"６５號","E_COORD97":167379.37,"N_COORD97":2542277.8599999999,"ADDRESS":"三官路７巷６５號","OBJECTID":439494},"geometry":{"x":167379.37000000104,"y":2542277.8599999994}},{"attributes":{"ID":439520,"DIS_CODE":0,"TOWNNAME":"南區","LI":"新興里","LIN":"13鄰","STREET":"夏林路","SECT":" ","MAREA":" ","LANE":"２２２巷","ALLEY":" ","HOUSE_NO":"１０號","E_COORD97":167406.06,"N_COORD97":2542249.1099999999,"ADDRESS":"夏林路２２２巷１０號","OBJECTID":439495},"geometry":{"x":167406.06000000052,"y":2542249.1099999994}},{"attributes":{"ID":439521,"DIS_CODE":0,"TOWNNAME":"南區","LI":"新興里","LIN":"1鄰","STREET":"國華街","SECT":"一段","MAREA":" ","LANE":"２２巷","ALLEY":" ","HOUSE_NO":"１０號","E_COORD97":167666.57000000001,"N_COORD97":2542548.9100000001,"ADDRESS":"國華街一段２２巷１０號","OBJECTID":439496},"geometry":{"x":167666.5700000003,"y":2542548.9100000001}},{"attributes":{"ID":439522,"DIS_CODE":0,"TOWNNAME":"南區","LI":"新興里","LIN":"1鄰","STREET":"國華街","SECT":"一段","MAREA":" ","LANE":"２２巷","ALLEY":" ","HOUSE_NO":"１１號","E_COORD97":167671.03,"N_COORD97":2542549.5499999998,"ADDRESS":"國華街一段２２巷１１號","OBJECTID":439497},"geometry":{"x":167671.03000000212,"y":2542549.5500000007}},{"attributes":{"ID":439523,"DIS_CODE":0,"TOWNNAME":"南區","LI":"彰南里","LIN":"4鄰","STREET":"中華西路","SECT":"一段","MAREA":" ","LANE":"５２巷","ALLEY":" ","HOUSE_NO":"１號","E_COORD97":166349.51999999999,"N_COORD97":2541214.48,"ADDRESS":"中華西路一段５２巷１號","OBJECTID":439498},"geometry":{"x":166349.51999999955,"y":2541214.4800000042}},{"attributes":{"ID":439524,"DIS_CODE":0,"TOWNNAME":"南區","LI":"廣州里","LIN":"4鄰","STREET":"大德街","SECT":" ","MAREA":" ","LANE":"１５４巷","ALLEY":" ","HOUSE_NO":"１號","E_COORD97":167517.28,"N_COORD97":2543065.4700000002,"ADDRESS":"大德街１５４巷１號","OBJECTID":439499},"geometry":{"x":167517.28000000119,"y":2543065.4699999988}},{"attributes":{"ID":439525,"DIS_CODE":0,"TOWNNAME":"南區","LI":"廣州里","LIN":"4鄰","STREET":"大德街","SECT":" ","MAREA":" ","LANE":"１５４巷","ALLEY":" ","HOUSE_NO":"２號","E_COORD97":167508.76999999999,"N_COORD97":2543070.5600000001,"ADDRESS":"大德街１５４巷２號","OBJECTID":439500},"geometry":{"x":167508.76999999955,"y":2543070.5600000005}},{"attributes":{"ID":439526,"DIS_CODE":0,"TOWNNAME":"南區","LI":"廣州里","LIN":"4鄰","STREET":"大德街","SECT":" ","MAREA":" ","LANE":"１５４巷","ALLEY":" ","HOUSE_NO":"３號","E_COORD97":167498.98999999999,"N_COORD97":2543075.02,"ADDRESS":"大德街１５４巷３號","OBJECTID":439501},"geometry":{"x":167498.99000000115,"y":2543075.0200000014}},{"attributes":{"ID":439527,"DIS_CODE":0,"TOWNNAME":"南區","LI":"廣州里","LIN":"4鄰","STREET":"大德街","SECT":" ","MAREA":" ","LANE":"１５４巷","ALLEY":" ","HOUSE_NO":"４號","E_COORD97":167487.07999999999,"N_COORD97":2543076.0800000001,"ADDRESS":"大德街１５４巷４號","OBJECTID":439502},"geometry":{"x":167487.08000000007,"y":2543076.0800000019}},{"attributes":{"ID":439528,"DIS_CODE":0,"TOWNNAME":"南區","LI":"廣州里","LIN":"4鄰","STREET":"大德街","SECT":" ","MAREA":" ","LANE":"１５４巷","ALLEY":" ","HOUSE_NO":"５號","E_COORD97":167484.73999999999,"N_COORD97":2543076.5099999998,"ADDRESS":"大德街１５４巷５號","OBJECTID":439503},"geometry":{"x":167484.74000000209,"y":2543076.5099999998}},{"attributes":{"ID":439529,"DIS_CODE":0,"TOWNNAME":"安南區","LI":"布袋里","LIN":"1鄰","STREET":"工明南一路","SECT":" ","MAREA":" ","LANE":" ","ALLEY":" ","HOUSE_NO":"５０號","E_COORD97":168869.32000000001,"N_COORD97":2551102.9300000002,"ADDRESS":"工明南一路５０號","OBJECTID":439504},"geometry":{"x":168869.32000000123,"y":2551102.9299999997}},{"attributes":{"ID":439530,"DIS_CODE":0,"TOWNNAME":"南區","LI":"廣州里","LIN":"4鄰","STREET":"永華路","SECT":"一段","MAREA":" ","LANE":"７９巷","ALLEY":" ","HOUSE_NO":"１７號","E_COORD97":167503,"N_COORD97":2543087.25,"ADDRESS":"永華路一段７９巷１７號","OBJECTID":439505},"geometry":{"x":167503.00000000186,"y":2543087.2500000019}},{"attributes":{"ID":439531,"DIS_CODE":0,"TOWNNAME":"南區","LI":"廣州里","LIN":"4鄰","STREET":"永華路","SECT":"一段","MAREA":" ","LANE":"７９巷","ALLEY":" ","HOUSE_NO":"１９號","E_COORD97":167507,"N_COORD97":2543089.4700000002,"ADDRESS":"永華路一段７９巷１９號","OBJECTID":439506},"geometry":{"x":167507.00000000093,"y":2543089.4700000044}},{"attributes":{"ID":439532,"DIS_CODE":0,"TOWNNAME":"南區","LI":"廣州里","LIN":"4鄰","STREET":"永華路","SECT":"一段","MAREA":" ","LANE":"７９巷","ALLEY":" ","HOUSE_NO":"２１號","E_COORD97":167511.22,"N_COORD97":2543087.7000000002,"ADDRESS":"永華路一段７９巷２１號","OBJECTID":439507},"geometry":{"x":167511.21999999974,"y":2543087.7000000011}},{"attributes":{"ID":439533,"DIS_CODE":0,"TOWNNAME":"南區","LI":"廣州里","LIN":"4鄰","STREET":"永華路","SECT":"一段","MAREA":" ","LANE":"７９巷","ALLEY":" ","HOUSE_NO":"２５號","E_COORD97":167491.34,"N_COORD97":2543075.8700000001,"ADDRESS":"永華路一段７９巷２５號","OBJECTID":439508},"geometry":{"x":167491.33999999985,"y":2543075.870000001}},{"attributes":{"ID":439534,"DIS_CODE":0,"TOWNNAME":"南區","LI":"廣州里","LIN":"7鄰","STREET":"大德街","SECT":" ","MAREA":" ","LANE":"１７０巷","ALLEY":" ","HOUSE_NO":"３號","E_COORD97":167503.03,"N_COORD97":2543026.96,"ADDRESS":"大德街１７０巷３號","OBJECTID":439509},"geometry":{"x":167503.03000000212,"y":2543026.9600000028}},{"attributes":{"ID":439535,"DIS_CODE":0,"TOWNNAME":"南區","LI":"廣州里","LIN":"7鄰","STREET":"大德街","SECT":" ","MAREA":" ","LANE":"１７０巷","ALLEY":" ","HOUSE_NO":"５號","E_COORD97":167502.82000000001,"N_COORD97":2543023.3500000001,"ADDRESS":"大德街１７０巷５號","OBJECTID":439510},"geometry":{"x":167502.82000000216,"y":2543023.3499999996}},{"attributes":{"ID":439536,"DIS_CODE":0,"TOWNNAME":"南區","LI":"廣州里","LIN":"6鄰","STREET":"大德街","SECT":" ","MAREA":" ","LANE":"１７０巷","ALLEY":" ","HOUSE_NO":"４號","E_COORD97":167514.73000000001,"N_COORD97":2543030.3900000001,"ADDRESS":"大德街１７０巷４號","OBJECTID":439511},"geometry":{"x":167514.73000000045,"y":2543030.3900000025}},{"attributes":{"ID":439537,"DIS_CODE":0,"TOWNNAME":"南區","LI":"廣州里","LIN":"6鄰","STREET":"大德街","SECT":" ","MAREA":" ","LANE":"１７０巷","ALLEY":" ","HOUSE_NO":"６號","E_COORD97":167508.13,"N_COORD97":2543033.1499999999,"ADDRESS":"大德街１７０巷６號","OBJECTID":439512},"geometry":{"x":167508.12999999989,"y":2543033.1500000004}},{"attributes":{"ID":439538,"DIS_CODE":0,"TOWNNAME":"南區","LI":"廣州里","LIN":"6鄰","STREET":"大德街","SECT":" ","MAREA":" ","LANE":"１７０巷","ALLEY":" ","HOUSE_NO":"８號","E_COORD97":167503.23999999999,"N_COORD97":2543035.27,"ADDRESS":"大德街１７０巷８號","OBJECTID":439513},"geometry":{"x":167503.23999999929,"y":2543035.2700000033}},{"attributes":{"ID":439539,"DIS_CODE":0,"TOWNNAME":"南區","LI":"廣州里","LIN":"6鄰","STREET":"大德街","SECT":" ","MAREA":" ","LANE":"１７０巷","ALLEY":" ","HOUSE_NO":"１０號","E_COORD97":167497.07999999999,"N_COORD97":2543039.1000000001,"ADDRESS":"大德街１７０巷１０號","OBJECTID":439514},"geometry":{"x":167497.08000000007,"y":2543039.0999999996}},{"attributes":{"ID":439540,"DIS_CODE":0,"TOWNNAME":"南區","LI":"廣州里","LIN":"6鄰","STREET":"大德街","SECT":" ","MAREA":" ","LANE":"１７０巷","ALLEY":" ","HOUSE_NO":"１４號","E_COORD97":167491.12,"N_COORD97":2543044.6200000001,"ADDRESS":"大德街１７０巷１４號","OBJECTID":439515},"geometry":{"x":167491.12000000104,"y":2543044.6200000048}},{"attributes":{"ID":439541,"DIS_CODE":0,"TOWNNAME":"南區","LI":"廣州里","LIN":"6鄰","STREET":"大德街","SECT":" ","MAREA":" ","LANE":"１７０巷","ALLEY":" ","HOUSE_NO":"１８號","E_COORD97":167483.47,"N_COORD97":2543044.6200000001,"ADDRESS":"大德街１７０巷１８號","OBJECTID":439516},"geometry":{"x":167483.46999999974,"y":2543044.6200000048}},{"attributes":{"ID":439542,"DIS_CODE":0,"TOWNNAME":"南區","LI":"廣州里","LIN":"6鄰","STREET":"大德街","SECT":" ","MAREA":" ","LANE":"１７０巷","ALLEY":" ","HOUSE_NO":"２０號","E_COORD97":167478.79000000001,"N_COORD97":2543047.5899999999,"ADDRESS":"大德街１７０巷２０號","OBJECTID":439517},"geometry":{"x":167478.79000000004,"y":2543047.5900000017}},{"attributes":{"ID":439543,"DIS_CODE":0,"TOWNNAME":"南區","LI":"興中里","LIN":" ","STREET":"興中街","SECT":" ","MAREA":" ","LANE":"３３巷","ALLEY":" ","HOUSE_NO":"１９號","E_COORD97":168225.75,"N_COORD97":2542090.9300000002,"ADDRESS":"興中街３３巷１９號","OBJECTID":439518},"geometry":{"x":168225.75000000093,"y":2542090.9299999997}},{"attributes":{"ID":439544,"DIS_CODE":0,"TOWNNAME":"南區","LI":"興中里","LIN":" ","STREET":"南門路","SECT":" ","MAREA":" ","LANE":"１０２巷","ALLEY":" ","HOUSE_NO":"２４號","E_COORD97":168293.14000000001,"N_COORD97":2542304.8999999999,"ADDRESS":"南門路１０２巷２４號","OBJECTID":439519},"geometry":{"x":168293.13999999966,"y":2542304.9000000004}},{"attributes":{"ID":439545,"DIS_CODE":0,"TOWNNAME":"南區","LI":"鯤鯓里","LIN":" ","STREET":"鯤鯓路","SECT":" ","MAREA":" ","LANE":"１６２巷","ALLEY":" ","HOUSE_NO":"９之１號","E_COORD97":164932.87,"N_COORD97":2540194.54,"ADDRESS":"鯤鯓路１６２巷９之１號","OBJECTID":439520},"geometry":{"x":164932.87000000104,"y":2540194.5399999991}},{"attributes":{"ID":439546,"DIS_CODE":0,"TOWNNAME":"南區","LI":"鯤鯓里","LIN":" ","STREET":"鯤鯓路","SECT":" ","MAREA":" ","LANE":"１９４巷","ALLEY":" ","HOUSE_NO":"３７號","E_COORD97":164990.35999999999,"N_COORD97":2540332.48,"ADDRESS":"鯤鯓路１９４巷３７號","OBJECTID":439521},"geometry":{"x":164990.3600000022,"y":2540332.4799999986}},{"attributes":{"ID":439547,"DIS_CODE":0,"TOWNNAME":"南區","LI":"喜北里","LIN":"10鄰","STREET":"喜樹路","SECT":" ","MAREA":" ","LANE":"１４６巷","ALLEY":" ","HOUSE_NO":"１號","E_COORD97":165855.70999999999,"N_COORD97":2538268.6699999999,"ADDRESS":"喜樹路１４６巷１號","OBJECTID":439522},"geometry":{"x":165855.71000000089,"y":2538268.6699999999}},{"attributes":{"ID":439548,"DIS_CODE":0,"TOWNNAME":"南區","LI":"喜北里","LIN":"9鄰","STREET":"喜樹路","SECT":" ","MAREA":" ","LANE":"１４６巷","ALLEY":" ","HOUSE_NO":"８號","E_COORD97":165832.06,"N_COORD97":2538282.0099999998,"ADDRESS":"喜樹路１４６巷８號","OBJECTID":439523},"geometry":{"x":165832.05999999959,"y":2538282.0100000016}},{"attributes":{"ID":439549,"DIS_CODE":0,"TOWNNAME":"南區","LI":"國宅里","LIN":"16鄰","STREET":"金華路","SECT":"二段","MAREA":" ","LANE":"３３巷","ALLEY":" ","HOUSE_NO":"１１０號","E_COORD97":166712.45000000001,"N_COORD97":2542017.8300000001,"ADDRESS":"金華路二段３３巷１１０號","OBJECTID":439524},"geometry":{"x":166712.45000000112,"y":2542017.8300000001}},{"attributes":{"ID":439550,"DIS_CODE":0,"TOWNNAME":"南區","LI":"喜北里","LIN":"13鄰","STREET":"喜樹路","SECT":" ","MAREA":" ","LANE":"２０６巷","ALLEY":" ","HOUSE_NO":"５號","E_COORD97":165737.84,"N_COORD97":2538118.2999999998,"ADDRESS":"喜樹路２０６巷５號","OBJECTID":439525},"geometry":{"x":165737.84000000078,"y":2538118.3000000026}},{"attributes":{"ID":439551,"DIS_CODE":0,"TOWNNAME":"南區","LI":"文南里","LIN":"28鄰","STREET":"中華西路","SECT":"一段","MAREA":" ","LANE":"１３７巷","ALLEY":" ","HOUSE_NO":"８５號","E_COORD97":166242.82999999999,"N_COORD97":2542492.0099999998,"ADDRESS":"中華西路一段１３７巷８５號","OBJECTID":439526},"geometry":{"x":166242.83000000007,"y":2542492.0100000016}},{"attributes":{"ID":439552,"DIS_CODE":0,"TOWNNAME":"南區","LI":"大忠里","LIN":"8鄰","STREET":"中華南路","SECT":"一段","MAREA":" ","LANE":"７７巷","ALLEY":" ","HOUSE_NO":"１０號","E_COORD97":169295.85000000001,"N_COORD97":2541301.0600000001,"ADDRESS":"中華南路一段７７巷１０號","OBJECTID":439527},"geometry":{"x":169295.85000000056,"y":2541301.0600000005}},{"attributes":{"ID":439553,"DIS_CODE":0,"TOWNNAME":"南區","LI":"建南里","LIN":"15鄰","STREET":"中華南路","SECT":"二段","MAREA":" ","LANE":"２３３巷","ALLEY":" ","HOUSE_NO":"２１號","E_COORD97":166909.53,"N_COORD97":2540145.4399999999,"ADDRESS":"中華南路二段２３３巷２１號","OBJECTID":439528},"geometry":{"x":166909.53000000026,"y":2540145.4400000032}},{"attributes":{"ID":439554,"DIS_CODE":0,"TOWNNAME":"南區","LI":"建南里","LIN":"16鄰","STREET":"中華南路","SECT":"二段","MAREA":" ","LANE":"２３３巷","ALLEY":" ","HOUSE_NO":"６２之１號","E_COORD97":166947.23999999999,"N_COORD97":2539994.1800000002,"ADDRESS":"中華南路二段２３３巷６２之１號","OBJECTID":439529},"geometry":{"x":166947.24000000209,"y":2539994.1799999997}},{"attributes":{"ID":439555,"DIS_CODE":0,"TOWNNAME":"安南區","LI":"大安里","LIN":"7鄰","STREET":"大安街","SECT":" ","MAREA":" ","LANE":"１６６巷","ALLEY":" ","HOUSE_NO":"１０號","E_COORD97":167370.89999999999,"N_COORD97":2548183.8500000001,"ADDRESS":"大安街１６６巷１０號","OBJECTID":439530},"geometry":{"x":167370.9000000013,"y":2548183.8499999996}},{"attributes":{"ID":439556,"DIS_CODE":0,"TOWNNAME":"安南區","LI":"大安里","LIN":"7鄰","STREET":"大安街","SECT":" ","MAREA":" ","LANE":"１６６巷","ALLEY":" ","HOUSE_NO":"１２號","E_COORD97":167374.54000000001,"N_COORD97":2548180.9700000002,"ADDRESS":"大安街１６６巷１２號","OBJECTID":439531},"geometry":{"x":167374.54000000097,"y":2548180.9700000007}},{"attributes":{"ID":439557,"DIS_CODE":0,"TOWNNAME":"安南區","LI":"大安里","LIN":"7鄰","STREET":"大安街","SECT":" ","MAREA":" ","LANE":"１６６巷","ALLEY":" ","HOUSE_NO":"１４號","E_COORD97":167384.91,"N_COORD97":2548175.79,"ADDRESS":"大安街１６６巷１４號","OBJECTID":439532},"geometry":{"x":167384.91000000015,"y":2548175.790000001}},{"attributes":{"ID":439558,"DIS_CODE":0,"TOWNNAME":"安南區","LI":"大安里","LIN":"7鄰","STREET":"大安街","SECT":" ","MAREA":" ","LANE":"１６６巷","ALLEY":" ","HOUSE_NO":"１５號","E_COORD97":167401.03,"N_COORD97":2548189.79,"ADDRESS":"大安街１６６巷１５號","OBJECTID":439533},"geometry":{"x":167401.03000000026,"y":2548189.790000001}},{"attributes":{"ID":439559,"DIS_CODE":0,"TOWNNAME":"安南區","LI":"大安里","LIN":"6鄰","STREET":"大安街","SECT":" ","MAREA":" ","LANE":"１３８巷","ALLEY":" ","HOUSE_NO":"３１號","E_COORD97":167383.32999999999,"N_COORD97":2548115.3100000001,"ADDRESS":"大安街１３８巷３１號","OBJECTID":439534},"geometry":{"x":167383.33000000007,"y":2548115.3100000024}},{"attributes":{"ID":439560,"DIS_CODE":0,"TOWNNAME":"安南區","LI":"大安里","LIN":"6鄰","STREET":"大安街","SECT":" ","MAREA":" ","LANE":"１３８巷","ALLEY":" ","HOUSE_NO":"３２號","E_COORD97":167368.51000000001,"N_COORD97":2548092.5800000001,"ADDRESS":"大安街１３８巷３２號","OBJECTID":439535},"geometry":{"x":167368.50999999978,"y":2548092.5800000019}},{"attributes":{"ID":439561,"DIS_CODE":0,"TOWNNAME":"安南區","LI":"大安里","LIN":"6鄰","STREET":"大安街","SECT":" ","MAREA":" ","LANE":"１３８巷","ALLEY":" ","HOUSE_NO":"３３號","E_COORD97":167387.17000000001,"N_COORD97":2548112.4399999999,"ADDRESS":"大安街１３８巷３３號","OBJECTID":439536},"geometry":{"x":167387.17000000086,"y":2548112.4399999995}},{"attributes":{"ID":439562,"DIS_CODE":0,"TOWNNAME":"安南區","LI":"大安里","LIN":"6鄰","STREET":"大安街","SECT":" ","MAREA":" ","LANE":"１３８巷","ALLEY":" ","HOUSE_NO":"３４號","E_COORD97":167372.73000000001,"N_COORD97":2548089.8999999999,"ADDRESS":"大安街１３８巷３４號","OBJECTID":439537},"geometry":{"x":167372.73000000045,"y":2548089.9000000004}},{"attributes":{"ID":439563,"DIS_CODE":0,"TOWNNAME":"安南區","LI":"大安里","LIN":"6鄰","STREET":"大安街","SECT":" ","MAREA":" ","LANE":"１３８巷","ALLEY":" ","HOUSE_NO":"３號","E_COORD97":167327.67999999999,"N_COORD97":2548149.6299999999,"ADDRESS":"大安街１３８巷３號","OBJECTID":439538},"geometry":{"x":167327.68000000063,"y":2548149.6300000008}},{"attributes":{"ID":439564,"DIS_CODE":0,"TOWNNAME":"安南區","LI":"大安里","LIN":"6鄰","STREET":"大安街","SECT":" ","MAREA":" ","LANE":"１３８巷","ALLEY":" ","HOUSE_NO":"５號","E_COORD97":167331.32999999999,"N_COORD97":2548147.1400000001,"ADDRESS":"大安街１３８巷５號","OBJECTID":439539},"geometry":{"x":167331.33000000194,"y":2548147.1400000025}},{"attributes":{"ID":439565,"DIS_CODE":0,"TOWNNAME":"安南區","LI":"大安里","LIN":"6鄰","STREET":"大安街","SECT":" ","MAREA":" ","LANE":"１３８巷","ALLEY":" ","HOUSE_NO":"６號","E_COORD97":167317.07999999999,"N_COORD97":2548125.5600000001,"ADDRESS":"大安街１３８巷６號","OBJECTID":439540},"geometry":{"x":167317.08000000007,"y":2548125.5600000005}},{"attributes":{"ID":439566,"DIS_CODE":0,"TOWNNAME":"安南區","LI":"大安里","LIN":"6鄰","STREET":"大安街","SECT":" ","MAREA":" ","LANE":"１３８巷","ALLEY":" ","HOUSE_NO":"７號","E_COORD97":167335.54999999999,"N_COORD97":2548144.8399999999,"ADDRESS":"大安街１３８巷７號","OBJECTID":439541},"geometry":{"x":167335.54999999981,"y":2548144.8400000017}},{"attributes":{"ID":439567,"DIS_CODE":0,"TOWNNAME":"安南區","LI":"大安里","LIN":"6鄰","STREET":"大安街","SECT":" ","MAREA":" ","LANE":"１３８巷","ALLEY":" ","HOUSE_NO":"８號","E_COORD97":167321.88,"N_COORD97":2548124.02,"ADDRESS":"大安街１３８巷８號","OBJECTID":439542},"geometry":{"x":167321.87999999989,"y":2548124.0200000014}},{"attributes":{"ID":439568,"DIS_CODE":0,"TOWNNAME":"安南區","LI":"大安里","LIN":"6鄰","STREET":"大安街","SECT":" ","MAREA":" ","LANE":"１３８巷","ALLEY":" ","HOUSE_NO":"９號","E_COORD97":167339.95999999999,"N_COORD97":2548142.73,"ADDRESS":"大安街１３８巷９號","OBJECTID":439543},"geometry":{"x":167339.95999999996,"y":2548142.7300000042}},{"attributes":{"ID":439569,"DIS_CODE":0,"TOWNNAME":"安南區","LI":"大安里","LIN":"4鄰","STREET":"大安街","SECT":" ","MAREA":" ","LANE":"６８巷","ALLEY":" ","HOUSE_NO":"１１號","E_COORD97":167241.85999999999,"N_COORD97":2547984.4500000002,"ADDRESS":"大安街６８巷１１號","OBJECTID":439544},"geometry":{"x":167241.86000000127,"y":2547984.4500000011}},{"attributes":{"ID":439570,"DIS_CODE":0,"TOWNNAME":"安南區","LI":"大安里","LIN":"4鄰","STREET":"大安街","SECT":" ","MAREA":" ","LANE":"６８巷","ALLEY":" ","HOUSE_NO":"１３號","E_COORD97":167245.19,"N_COORD97":2547981.9199999999,"ADDRESS":"大安街６８巷１３號","OBJECTID":439545},"geometry":{"x":167245.19000000134,"y":2547981.9200000018}},{"attributes":{"ID":439571,"DIS_CODE":0,"TOWNNAME":"安南區","LI":"大安里","LIN":"4鄰","STREET":"大安街","SECT":" ","MAREA":" ","LANE":"６８巷","ALLEY":" ","HOUSE_NO":"１５號","E_COORD97":167248.41,"N_COORD97":2547978.7799999998,"ADDRESS":"大安街６８巷１５號","OBJECTID":439546},"geometry":{"x":167248.41000000108,"y":2547978.7800000012}},{"attributes":{"ID":439572,"DIS_CODE":0,"TOWNNAME":"安南區","LI":"大安里","LIN":"4鄰","STREET":"大安街","SECT":" ","MAREA":" ","LANE":"６８巷","ALLEY":" ","HOUSE_NO":"１７號","E_COORD97":167252.12,"N_COORD97":2547977.3599999999,"ADDRESS":"大安街６８巷１７號","OBJECTID":439547},"geometry":{"x":167252.12000000104,"y":2547977.3599999994}},{"attributes":{"ID":439573,"DIS_CODE":0,"TOWNNAME":"安南區","LI":"大安里","LIN":"4鄰","STREET":"大安街","SECT":" ","MAREA":" ","LANE":"６８巷","ALLEY":" ","HOUSE_NO":"１９號","E_COORD97":167255.70999999999,"N_COORD97":2547975.3199999998,"ADDRESS":"大安街６８巷１９號","OBJECTID":439548},"geometry":{"x":167255.71000000183,"y":2547975.3199999984}},{"attributes":{"ID":439574,"DIS_CODE":0,"TOWNNAME":"安南區","LI":"大安里","LIN":"4鄰","STREET":"大安街","SECT":" ","MAREA":" ","LANE":"８２巷","ALLEY":" ","HOUSE_NO":"２３號","E_COORD97":167304.56,"N_COORD97":2547995.2599999998,"ADDRESS":"大安街８２巷２３號","OBJECTID":439549},"geometry":{"x":167304.56000000052,"y":2547995.2599999998}},{"attributes":{"ID":439575,"DIS_CODE":0,"TOWNNAME":"安南區","LI":"大安里","LIN":"4鄰","STREET":"大安街","SECT":" ","MAREA":" ","LANE":"８２巷","ALLEY":" ","HOUSE_NO":"２４號","E_COORD97":167288.95000000001,"N_COORD97":2547978.4399999999,"ADDRESS":"大安街８２巷２４號","OBJECTID":439550},"geometry":{"x":167288.95000000112,"y":2547978.4400000013}},{"attributes":{"ID":439576,"DIS_CODE":0,"TOWNNAME":"安南區","LI":"大安里","LIN":"4鄰","STREET":"大安街","SECT":" ","MAREA":" ","LANE":"８２巷","ALLEY":" ","HOUSE_NO":"２５號","E_COORD97":167310.70999999999,"N_COORD97":2547993.3500000001,"ADDRESS":"大安街８２巷２５號","OBJECTID":439551},"geometry":{"x":167310.71000000089,"y":2547993.3499999996}},{"attributes":{"ID":439577,"DIS_CODE":0,"TOWNNAME":"安南區","LI":"大安里","LIN":"4鄰","STREET":"大安街","SECT":" ","MAREA":" ","LANE":"８２巷","ALLEY":" ","HOUSE_NO":"２６號","E_COORD97":167293.03,"N_COORD97":2547975.73,"ADDRESS":"大安街８２巷２６號","OBJECTID":439552},"geometry":{"x":167293.03000000119,"y":2547975.7300000004}},{"attributes":{"ID":439578,"DIS_CODE":0,"TOWNNAME":"安南區","LI":"大安里","LIN":"4鄰","STREET":"大安街","SECT":" ","MAREA":" ","LANE":"８２巷","ALLEY":" ","HOUSE_NO":"２８號","E_COORD97":167297.72,"N_COORD97":2547972.7000000002,"ADDRESS":"大安街８２巷２８號","OBJECTID":439553},"geometry":{"x":167297.71999999881,"y":2547972.7000000011}},{"attributes":{"ID":439579,"DIS_CODE":0,"TOWNNAME":"安南區","LI":"大安里","LIN":"4鄰","STREET":"大安街","SECT":" ","MAREA":" ","LANE":"８２巷","ALLEY":" ","HOUSE_NO":"２之１號","E_COORD97":167240.07999999999,"N_COORD97":2548010.6000000001,"ADDRESS":"大安街８２巷２之１號","OBJECTID":439554},"geometry":{"x":167240.08000000101,"y":2548010.6000000015}},{"attributes":{"ID":439580,"DIS_CODE":0,"TOWNNAME":"安南區","LI":"大安里","LIN":"4鄰","STREET":"大安街","SECT":" ","MAREA":" ","LANE":"８２巷","ALLEY":" ","HOUSE_NO":"２號","E_COORD97":167235.48000000001,"N_COORD97":2548012.8999999999,"ADDRESS":"大安街８２巷２號","OBJECTID":439555},"geometry":{"x":167235.48000000045,"y":2548012.9000000022}},{"attributes":{"ID":439581,"DIS_CODE":0,"TOWNNAME":"安南區","LI":"大安里","LIN":"4鄰","STREET":"大安街","SECT":" ","MAREA":" ","LANE":"８２巷","ALLEY":" ","HOUSE_NO":"３號","E_COORD97":167251.01999999999,"N_COORD97":2548026.1299999999,"ADDRESS":"大安街８２巷３號","OBJECTID":439556},"geometry":{"x":167251.01999999955,"y":2548026.1299999971}},{"attributes":{"ID":439582,"DIS_CODE":0,"TOWNNAME":"安南區","LI":"大安里","LIN":"4鄰","STREET":"大安街","SECT":" ","MAREA":" ","LANE":"８２巷","ALLEY":" ","HOUSE_NO":"５號","E_COORD97":167255.63,"N_COORD97":2548023.8300000001,"ADDRESS":"大安街８２巷５號","OBJECTID":439557},"geometry":{"x":167255.62999999989,"y":2548023.8300000019}},{"attributes":{"ID":439583,"DIS_CODE":0,"TOWNNAME":"安南區","LI":"大安里","LIN":"4鄰","STREET":"大安街","SECT":" ","MAREA":" ","LANE":"８２巷","ALLEY":" ","HOUSE_NO":"６號","E_COORD97":167244.5,"N_COORD97":2548008.1099999999,"ADDRESS":"大安街８２巷６號","OBJECTID":439558},"geometry":{"x":167244.50000000093,"y":2548008.1100000013}},{"attributes":{"ID":439584,"DIS_CODE":0,"TOWNNAME":"安南區","LI":"大安里","LIN":"4鄰","STREET":"大安街","SECT":" ","MAREA":" ","LANE":"８２巷","ALLEY":" ","HOUSE_NO":"７號","E_COORD97":167260.42999999999,"N_COORD97":2548021.7200000002,"ADDRESS":"大安街８２巷７號","OBJECTID":439559},"geometry":{"x":167260.4299999997,"y":2548021.7200000025}},{"attributes":{"ID":439585,"DIS_CODE":0,"TOWNNAME":"安南區","LI":"大安里","LIN":"4鄰","STREET":"大安街","SECT":" ","MAREA":" ","LANE":"８２巷","ALLEY":" ","HOUSE_NO":"８號","E_COORD97":167248.91,"N_COORD97":2548006.1899999999,"ADDRESS":"大安街８２巷８號","OBJECTID":439560},"geometry":{"x":167248.91000000015,"y":2548006.1900000032}},{"attributes":{"ID":439586,"DIS_CODE":0,"TOWNNAME":"安南區","LI":"大安里","LIN":"4鄰","STREET":"大安街","SECT":" ","MAREA":" ","LANE":"８２巷","ALLEY":" ","HOUSE_NO":"９號","E_COORD97":167264.64999999999,"N_COORD97":2548019.4199999999,"ADDRESS":"大安街８２巷９號","OBJECTID":439561},"geometry":{"x":167264.65000000037,"y":2548019.4200000018}},{"attributes":{"ID":439587,"DIS_CODE":0,"TOWNNAME":"安南區","LI":"大安里","LIN":"17鄰","STREET":"義安街","SECT":" ","MAREA":" ","LANE":"１４２巷","ALLEY":" ","HOUSE_NO":"６號","E_COORD97":167543.34,"N_COORD97":2548159.9700000002,"ADDRESS":"義安街１４２巷６號","OBJECTID":439562},"geometry":{"x":167543.34000000078,"y":2548159.9700000007}},{"attributes":{"ID":439588,"DIS_CODE":0,"TOWNNAME":"安南區","LI":"大安里","LIN":"17鄰","STREET":"義安街","SECT":" ","MAREA":" ","LANE":"１７０巷","ALLEY":" ","HOUSE_NO":"１６號","E_COORD97":167614.04999999999,"N_COORD97":2548205.8199999998,"ADDRESS":"義安街１７０巷１６號","OBJECTID":439563},"geometry":{"x":167614.04999999981,"y":2548205.8200000003}},{"attributes":{"ID":439589,"DIS_CODE":0,"TOWNNAME":"安南區","LI":"大安里","LIN":"19鄰","STREET":"義安街","SECT":" ","MAREA":" ","LANE":"２１２巷","ALLEY":" ","HOUSE_NO":"１０號","E_COORD97":167659.39000000001,"N_COORD97":2548314.8300000001,"ADDRESS":"義安街２１２巷１０號","OBJECTID":439564},"geometry":{"x":167659.39000000153,"y":2548314.8300000019}},{"attributes":{"ID":439590,"DIS_CODE":0,"TOWNNAME":"安南區","LI":"大安里","LIN":"19鄰","STREET":"義安街","SECT":" ","MAREA":" ","LANE":"２１２巷","ALLEY":" ","HOUSE_NO":"１１號","E_COORD97":167674.45999999999,"N_COORD97":2548329.6400000001,"ADDRESS":"義安街２１２巷１１號","OBJECTID":439565},"geometry":{"x":167674.46000000183,"y":2548329.6400000043}},{"attributes":{"ID":439591,"DIS_CODE":0,"TOWNNAME":"安南區","LI":"大安里","LIN":"19鄰","STREET":"義安街","SECT":" ","MAREA":" ","LANE":"２１２巷","ALLEY":" ","HOUSE_NO":"１２號","E_COORD97":167663.79999999999,"N_COORD97":2548312.23,"ADDRESS":"義安街２１２巷１２號","OBJECTID":439566},"geometry":{"x":167663.80000000075,"y":2548312.2300000042}},{"attributes":{"ID":439592,"DIS_CODE":0,"TOWNNAME":"安南區","LI":"大安里","LIN":"19鄰","STREET":"義安街","SECT":" ","MAREA":" ","LANE":"２１２巷","ALLEY":" ","HOUSE_NO":"１３號","E_COORD97":167678.88,"N_COORD97":2548326.7799999998,"ADDRESS":"義安街２１２巷１３號","OBJECTID":439567},"geometry":{"x":167678.88000000082,"y":2548326.7799999993}},{"attributes":{"ID":439593,"DIS_CODE":0,"TOWNNAME":"安南區","LI":"大安里","LIN":"19鄰","STREET":"義安街","SECT":" ","MAREA":" ","LANE":"２１２巷","ALLEY":" ","HOUSE_NO":"１４號","E_COORD97":167667.44,"N_COORD97":2548309.6400000001,"ADDRESS":"義安街２１２巷１４號","OBJECTID":439568},"geometry":{"x":167667.44000000134,"y":2548309.6400000025}},{"attributes":{"ID":439594,"DIS_CODE":0,"TOWNNAME":"安南區","LI":"大安里","LIN":"19鄰","STREET":"義安街","SECT":" ","MAREA":" ","LANE":"２１２巷","ALLEY":" ","HOUSE_NO":"１５號","E_COORD97":167683.29999999999,"N_COORD97":2548323.1400000001,"ADDRESS":"義安街２１２巷１５號","OBJECTID":439569},"geometry":{"x":167683.29999999981,"y":2548323.1400000043}},{"attributes":{"ID":439595,"DIS_CODE":0,"TOWNNAME":"安南區","LI":"大安里","LIN":"19鄰","STREET":"義安街","SECT":" ","MAREA":" ","LANE":"２１２巷","ALLEY":" ","HOUSE_NO":"１６號","E_COORD97":167672.89999999999,"N_COORD97":2548305.48,"ADDRESS":"義安街２１２巷１６號","OBJECTID":439570},"geometry":{"x":167672.90000000037,"y":2548305.4800000004}},{"attributes":{"ID":439596,"DIS_CODE":0,"TOWNNAME":"安南區","LI":"理想里","LIN":"12鄰","STREET":"同安路","SECT":" ","MAREA":" ","LANE":"８０巷","ALLEY":" ","HOUSE_NO":"５２號","E_COORD97":167005.82000000001,"N_COORD97":2548834.02,"ADDRESS":"同安路８０巷５２號","OBJECTID":439571},"geometry":{"x":167005.8200000003,"y":2548834.0199999996}},{"attributes":{"ID":439597,"DIS_CODE":0,"TOWNNAME":"安南區","LI":"理想里","LIN":"12鄰","STREET":"同安路","SECT":" ","MAREA":" ","LANE":"８０巷","ALLEY":" ","HOUSE_NO":"５６號","E_COORD97":167009.16,"N_COORD97":2548831.4500000002,"ADDRESS":"同安路８０巷５６號","OBJECTID":439572},"geometry":{"x":167009.16000000108,"y":2548831.450000003}},{"attributes":{"ID":439598,"DIS_CODE":0,"TOWNNAME":"安南區","LI":"理想里","LIN":"22鄰","STREET":"大安街","SECT":" ","MAREA":" ","LANE":"７０４巷","ALLEY":" ","HOUSE_NO":"１０號","E_COORD97":167120.14999999999,"N_COORD97":2548989.1000000001,"ADDRESS":"大安街７０４巷１０號","OBJECTID":439573},"geometry":{"x":167120.15000000037,"y":2548989.0999999996}},{"attributes":{"ID":439599,"DIS_CODE":0,"TOWNNAME":"安南區","LI":"溪心里","LIN":"19鄰","STREET":"安中路","SECT":"三段","MAREA":" ","LANE":"１３８巷","ALLEY":" ","HOUSE_NO":"１０號","E_COORD97":166018.85000000001,"N_COORD97":2549859.6499999999,"ADDRESS":"安中路三段１３８巷１０號","OBJECTID":439574},"geometry":{"x":166018.85000000056,"y":2549859.6500000022}},{"attributes":{"ID":439600,"DIS_CODE":0,"TOWNNAME":"安南區","LI":"溪心里","LIN":"19鄰","STREET":"安中路","SECT":"三段","MAREA":" ","LANE":"１３８巷","ALLEY":" ","HOUSE_NO":"１２號","E_COORD97":166023.32000000001,"N_COORD97":2549864.1099999999,"ADDRESS":"安中路三段１３８巷１２號","OBJECTID":439575},"geometry":{"x":166023.32000000123,"y":2549864.1099999994}},{"attributes":{"ID":439601,"DIS_CODE":0,"TOWNNAME":"將軍區","LI":"廣山里","LIN":"9鄰","STREET":" ","SECT":" ","MAREA":"廣山","LANE":" ","ALLEY":" ","HOUSE_NO":"８１之３號","E_COORD97":159403.12096,"N_COORD97":2568766.9247699999,"ADDRESS":"廣山８１之３號","OBJECTID":439576},"geometry":{"x":159403.1209600009,"y":2568766.924765002}},{"attributes":{"ID":439602,"DIS_CODE":0,"TOWNNAME":"安南區","LI":"溪心里","LIN":"19鄰","STREET":"安中路","SECT":"三段","MAREA":" ","LANE":"１３８巷","ALLEY":" ","HOUSE_NO":"１４號","E_COORD97":166025.20000000001,"N_COORD97":2549868.7400000002,"ADDRESS":"安中路三段１３８巷１４號","OBJECTID":439577},"geometry":{"x":166025.20000000019,"y":2549868.7400000021}},{"attributes":{"ID":439603,"DIS_CODE":0,"TOWNNAME":"安南區","LI":"溪心里","LIN":"19鄰","STREET":"安中路","SECT":"三段","MAREA":" ","LANE":"１３８巷","ALLEY":" ","HOUSE_NO":"１６號","E_COORD97":166026.23000000001,"N_COORD97":2549873.5499999998,"ADDRESS":"安中路三段１３８巷１６號","OBJECTID":439578},"geometry":{"x":166026.23000000138,"y":2549873.5500000026}},{"attributes":{"ID":439604,"DIS_CODE":0,"TOWNNAME":"安南區","LI":"溪心里","LIN":"19鄰","STREET":"安中路","SECT":"三段","MAREA":" ","LANE":"１３８巷","ALLEY":" ","HOUSE_NO":"１８號","E_COORD97":166027.98999999999,"N_COORD97":2549877.6800000002,"ADDRESS":"安中路三段１３８巷１８號","OBJECTID":439579},"geometry":{"x":166027.99000000022,"y":2549877.6799999978}},{"attributes":{"ID":439605,"DIS_CODE":0,"TOWNNAME":"安南區","LI":"溪心里","LIN":"19鄰","STREET":"海中街","SECT":" ","MAREA":" ","LANE":"７９８巷","ALLEY":" ","HOUSE_NO":"６號","E_COORD97":165968.25,"N_COORD97":2549951.27,"ADDRESS":"海中街７９８巷６號","OBJECTID":439580},"geometry":{"x":165968.25,"y":2549951.2699999996}},{"attributes":{"ID":439606,"DIS_CODE":0,"TOWNNAME":"安南區","LI":"溪心里","LIN":"19鄰","STREET":"海中街","SECT":" ","MAREA":" ","LANE":"７９８巷","ALLEY":" ","HOUSE_NO":"８號","E_COORD97":165967.41,"N_COORD97":2549946.5299999998,"ADDRESS":"海中街７９８巷８號","OBJECTID":439581},"geometry":{"x":165967.41000000015,"y":2549946.5300000031}},{"attributes":{"ID":439607,"DIS_CODE":0,"TOWNNAME":"安南區","LI":"鹿耳里","LIN":"9鄰","STREET":"北汕尾二路","SECT":" ","MAREA":" ","LANE":"５５０巷","ALLEY":" ","HOUSE_NO":"８２號","E_COORD97":160648.70999999999,"N_COORD97":2547936.9399999999,"ADDRESS":"北汕尾二路５５０巷８２號","OBJECTID":439582},"geometry":{"x":160648.71000000089,"y":2547936.9400000013}},{"attributes":{"ID":439608,"DIS_CODE":0,"TOWNNAME":"安南區","LI":"鹿耳里","LIN":"9鄰","STREET":"北汕尾二路","SECT":" ","MAREA":" ","LANE":"５５０巷","ALLEY":" ","HOUSE_NO":"８０號","E_COORD97":160645.29999999999,"N_COORD97":2547937.96,"ADDRESS":"北汕尾二路５５０巷８０號","OBJECTID":439583},"geometry":{"x":160645.29999999981,"y":2547937.9600000046}},{"attributes":{"ID":439609,"DIS_CODE":0,"TOWNNAME":"安南區","LI":"鹿耳里","LIN":"9鄰","STREET":"北汕尾二路","SECT":" ","MAREA":" ","LANE":"５５０巷","ALLEY":" ","HOUSE_NO":"８４號","E_COORD97":160652.10999999999,"N_COORD97":2547934.5600000001,"ADDRESS":"北汕尾二路５５０巷８４號","OBJECTID":439584},"geometry":{"x":160652.11000000034,"y":2547934.5600000024}},{"attributes":{"ID":439610,"DIS_CODE":0,"TOWNNAME":"安南區","LI":"溪心里","LIN":"19鄰","STREET":"海中街","SECT":" ","MAREA":" ","LANE":"７９８巷","ALLEY":" ","HOUSE_NO":"９號","E_COORD97":165971.84,"N_COORD97":2549968.5600000001,"ADDRESS":"海中街７９８巷９號","OBJECTID":439585},"geometry":{"x":165971.84000000078,"y":2549968.5600000024}},{"attributes":{"ID":439611,"DIS_CODE":0,"TOWNNAME":"安南區","LI":"溪頂里","LIN":"28鄰","STREET":"郡安路","SECT":"四段","MAREA":" ","LANE":"２７８巷","ALLEY":" ","HOUSE_NO":"３９號","E_COORD97":168596.42000000001,"N_COORD97":2547528.0099999998,"ADDRESS":"郡安路四段２７８巷３９號","OBJECTID":439586},"geometry":{"x":168596.41999999993,"y":2547528.0099999998}},{"attributes":{"ID":439612,"DIS_CODE":0,"TOWNNAME":"安南區","LI":"溪頂里","LIN":"29鄰","STREET":"北安路","SECT":"二段","MAREA":" ","LANE":"６０巷","ALLEY":" ","HOUSE_NO":"６２號","E_COORD97":168693.81,"N_COORD97":2547517.8199999998,"ADDRESS":"北安路二段６０巷６２號","OBJECTID":439587},"geometry":{"x":168693.80999999866,"y":2547517.820000004}},{"attributes":{"ID":439613,"DIS_CODE":0,"TOWNNAME":"安南區","LI":"溪頂里","LIN":"27鄰","STREET":"郡安路","SECT":"四段","MAREA":" ","LANE":"２７８巷","ALLEY":" ","HOUSE_NO":"１１號","E_COORD97":168588.42000000001,"N_COORD97":2547599.5899999999,"ADDRESS":"郡安路四段２７８巷１１號","OBJECTID":439588},"geometry":{"x":168588.42000000179,"y":2547599.5899999999}},{"attributes":{"ID":439614,"DIS_CODE":0,"TOWNNAME":"新化區","LI":"太平里","LIN":"4鄰","STREET":"民生路","SECT":" ","MAREA":" ","LANE":"１８６巷","ALLEY":" ","HOUSE_NO":"７號","E_COORD97":179116.91,"N_COORD97":2548963.25,"ADDRESS":"民生路１８６巷７號","OBJECTID":439589},"geometry":{"x":179116.91000000015,"y":2548963.2500000019}},{"attributes":{"ID":439615,"DIS_CODE":0,"TOWNNAME":"新化區","LI":"東榮里","LIN":"14鄰","STREET":"中興路","SECT":" ","MAREA":" ","LANE":"５９５巷","ALLEY":" ","HOUSE_NO":"１１號","E_COORD97":179840.95999999999,"N_COORD97":2547895.25,"ADDRESS":"中興路５９５巷１１號","OBJECTID":439590},"geometry":{"x":179840.96000000183,"y":2547895.2500000019}},{"attributes":{"ID":439616,"DIS_CODE":0,"TOWNNAME":"新化區","LI":"太平里","LIN":"4鄰","STREET":"中正路","SECT":" ","MAREA":" ","LANE":"５８０巷","ALLEY":" ","HOUSE_NO":"２號之１１７","E_COORD97":178975.04999999999,"N_COORD97":2549019.2599999998,"ADDRESS":"中正路５８０巷２號之１１７","OBJECTID":439591},"geometry":{"x":178975.04999999981,"y":2549019.2599999998}},{"attributes":{"ID":439617,"DIS_CODE":0,"TOWNNAME":"新化區","LI":"太平里","LIN":"4鄰","STREET":"中正路","SECT":" ","MAREA":" ","LANE":"５４２巷","ALLEY":" ","HOUSE_NO":"７號","E_COORD97":178967.41,"N_COORD97":2548925.25,"ADDRESS":"中正路５４２巷７號","OBJECTID":439592},"geometry":{"x":178967.41000000108,"y":2548925.2500000037}},{"attributes":{"ID":439618,"DIS_CODE":0,"TOWNNAME":"新化區","LI":"太平里","LIN":"4鄰","STREET":"中正路","SECT":" ","MAREA":" ","LANE":"５８４巷","ALLEY":" ","HOUSE_NO":"２３號","E_COORD97":178963.76000000001,"N_COORD97":2549084.25,"ADDRESS":"中正路５８４巷２３號","OBJECTID":439593},"geometry":{"x":178963.75999999885,"y":2549084.2499999981}},{"attributes":{"ID":439619,"DIS_CODE":0,"TOWNNAME":"新化區","LI":"護國里","LIN":"7鄰","STREET":"復興路","SECT":" ","MAREA":" ","LANE":"２９０巷","ALLEY":" ","HOUSE_NO":"４號","E_COORD97":179347.51999999999,"N_COORD97":2548450.25,"ADDRESS":"復興路２９０巷４號","OBJECTID":439594},"geometry":{"x":179347.52000000048,"y":2548450.2499999981}},{"attributes":{"ID":439620,"DIS_CODE":0,"TOWNNAME":"新化區","LI":"太平里","LIN":"4鄰","STREET":"中正路","SECT":" ","MAREA":" ","LANE":"５８０巷","ALLEY":" ","HOUSE_NO":"２號之１７","E_COORD97":178951.20000000001,"N_COORD97":2548982.2599999998,"ADDRESS":"中正路５８０巷２號之１７","OBJECTID":439595},"geometry":{"x":178951.20000000205,"y":2548982.2600000035}},{"attributes":{"ID":439621,"DIS_CODE":0,"TOWNNAME":"新化區","LI":"太平里","LIN":"4鄰","STREET":"民生路","SECT":" ","MAREA":" ","LANE":"１８６巷","ALLEY":" ","HOUSE_NO":"３１號","E_COORD97":179161.06,"N_COORD97":2549018.25,"ADDRESS":"民生路１８６巷３１號","OBJECTID":439596},"geometry":{"x":179161.05999999959,"y":2549018.2500000019}},{"attributes":{"ID":439622,"DIS_CODE":0,"TOWNNAME":"新化區","LI":"協興里","LIN":"4鄰","STREET":"正新路","SECT":" ","MAREA":" ","LANE":"２５１巷","ALLEY":" ","HOUSE_NO":"９號","E_COORD97":178528.92000000001,"N_COORD97":2548507.25,"ADDRESS":"正新路２５１巷９號","OBJECTID":439597},"geometry":{"x":178528.91999999899,"y":2548507.25}},{"attributes":{"ID":439623,"DIS_CODE":0,"TOWNNAME":"新化區","LI":"東榮里","LIN":"13鄰","STREET":"中興路","SECT":" ","MAREA":" ","LANE":"５８０巷","ALLEY":" ","HOUSE_NO":"１６號","E_COORD97":179859.16,"N_COORD97":2548012.25,"ADDRESS":"中興路５８０巷１６號","OBJECTID":439598},"geometry":{"x":179859.16000000108,"y":2548012.25}},{"attributes":{"ID":439624,"DIS_CODE":0,"TOWNNAME":"官田區","LI":"隆田里","LIN":"25鄰","STREET":"中山路","SECT":"二段","MAREA":" ","LANE":"５３巷","ALLEY":" ","HOUSE_NO":"９號","E_COORD97":179027.09,"N_COORD97":2565938.2000000002,"ADDRESS":"中山路二段５３巷９號","OBJECTID":439599},"geometry":{"x":179027.08999999985,"y":2565938.2000000011}},{"attributes":{"ID":439625,"DIS_CODE":0,"TOWNNAME":"新化區","LI":"豐榮里","LIN":"13鄰","STREET":"民治路","SECT":" ","MAREA":" ","LANE":"３３巷","ALLEY":" ","HOUSE_NO":"２０號","E_COORD97":178674.31,"N_COORD97":2548051.25,"ADDRESS":"民治路３３巷２０號","OBJECTID":439600},"geometry":{"x":178674.31000000052,"y":2548051.2500000019}}]}