{"displayFieldName":"TOWNNAME","fieldAliases":{"ID":"ID","DIS_CODE":"DIS_CODE","TOWNNAME":"TOWNNAME","LI":"LI","LIN":"LIN","STREET":"STREET","SECT":"SECT","MAREA":"MAREA","LANE":"LANE","ALLEY":"ALLEY","HOUSE_NO":"HOUSE_NO","E_COORD97":"E_COORD97","N_COORD97":"N_COORD97","ADDRESS":"ADDRESS","OBJECTID":"OBJECTID"},"geometryType":"esriGeometryPoint","spatialReference":{"wkid":102443,"latestWkid":3826},"fields":[{"name":"ID","type":"esriFieldTypeDouble","alias":"ID"},{"name":"DIS_CODE","type":"esriFieldTypeInteger","alias":"DIS_CODE"},{"name":"TOWNNAME","type":"esriFieldTypeString","alias":"TOWNNAME","length":8},{"name":"LI","type":"esriFieldTypeString","alias":"LI","length":8},{"name":"LIN","type":"esriFieldTypeString","alias":"LIN","length":12},{"name":"STREET","type":"esriFieldTypeString","alias":"STREET","length":20},{"name":"SECT","type":"esriFieldTypeString","alias":"SECT","length":8},{"name":"MAREA","type":"esriFieldTypeString","alias":"MAREA","length":12},{"name":"LANE","type":"esriFieldTypeString","alias":"LANE","length":10},{"name":"ALLEY","type":"esriFieldTypeString","alias":"ALLEY","length":10},{"name":"HOUSE_NO","type":"esriFieldTypeString","alias":"HOUSE_NO","length":20},{"name":"E_COORD97","type":"esriFieldTypeDouble","alias":"E_COORD97"},{"name":"N_COORD97","type":"esriFieldTypeDouble","alias":"N_COORD97"},{"name":"ADDRESS","type":"esriFieldTypeString","alias":"ADDRESS","length":50},{"name":"OBJECTID","type":"esriFieldTypeOID","alias":"OBJECTID"}],"features":[{"attributes":{"ID":527228,"DIS_CODE":0,"TOWNNAME":"永康區","LI":"勝利里","LIN":"6鄰","STREET":"勝學路","SECT":" ","MAREA":" ","LANE":" ","ALLEY":" ","HOUSE_NO":"５２號","E_COORD97":171153.98000000001,"N_COORD97":2544676.5099999998,"ADDRESS":"勝學路５２號","OBJECTID":527201},"geometry":{"x":171153.98000000138,"y":2544676.5100000016}},{"attributes":{"ID":527229,"DIS_CODE":0,"TOWNNAME":"永康區","LI":"復國里","LIN":"6鄰","STREET":"復國一路","SECT":" ","MAREA":" ","LANE":" ","ALLEY":" ","HOUSE_NO":"９２號","E_COORD97":172718.88,"N_COORD97":2544934.96,"ADDRESS":"復國一路９２號","OBJECTID":527202},"geometry":{"x":172718.88000000082,"y":2544934.9600000028}},{"attributes":{"ID":527230,"DIS_CODE":0,"TOWNNAME":"永康區","LI":"網寮里","LIN":"6鄰","STREET":"永二街","SECT":" ","MAREA":" ","LANE":" ","ALLEY":" ","HOUSE_NO":"１６０號","E_COORD97":173421.69,"N_COORD97":2546355.3700000001,"ADDRESS":"永二街１６０號","OBJECTID":527203},"geometry":{"x":173421.68999999948,"y":2546355.3700000048}},{"attributes":{"ID":527231,"DIS_CODE":0,"TOWNNAME":"永康區","LI":"龍潭里","LIN":"6鄰","STREET":"龍埔街","SECT":" ","MAREA":" ","LANE":" ","ALLEY":" ","HOUSE_NO":"６號","E_COORD97":174854.04000000001,"N_COORD97":2548193.75,"ADDRESS":"龍埔街６號","OBJECTID":527204},"geometry":{"x":174854.04000000004,"y":2548193.7500000019}},{"attributes":{"ID":527232,"DIS_CODE":0,"TOWNNAME":"永康區","LI":"復國里","LIN":"6鄰","STREET":"復國一路","SECT":" ","MAREA":" ","LANE":" ","ALLEY":" ","HOUSE_NO":"１０８號","E_COORD97":172721.17999999999,"N_COORD97":2544971.4700000002,"ADDRESS":"復國一路１０８號","OBJECTID":527205},"geometry":{"x":172721.18000000063,"y":2544971.4700000025}},{"attributes":{"ID":527233,"DIS_CODE":0,"TOWNNAME":"永康區","LI":"崑山里","LIN":"6鄰","STREET":"永大路","SECT":"一段","MAREA":" ","LANE":" ","ALLEY":" ","HOUSE_NO":"７號","E_COORD97":173760.48000000001,"N_COORD97":2543819.0299999998,"ADDRESS":"永大路一段７號","OBJECTID":527206},"geometry":{"x":173760.47999999952,"y":2543819.0299999993}},{"attributes":{"ID":527234,"DIS_CODE":0,"TOWNNAME":"東區","LI":"崇信里","LIN":"6鄰","STREET":"崇信街","SECT":" ","MAREA":" ","LANE":" ","ALLEY":" ","HOUSE_NO":"４２號","E_COORD97":170693.97,"N_COORD97":2542492.6200000001,"ADDRESS":"崇信街４２號","OBJECTID":527207},"geometry":{"x":170693.97000000067,"y":2542492.6200000029}},{"attributes":{"ID":527235,"DIS_CODE":0,"TOWNNAME":"東區","LI":"崇信里","LIN":"6鄰","STREET":"崇信街","SECT":" ","MAREA":" ","LANE":" ","ALLEY":" ","HOUSE_NO":"３３號","E_COORD97":170708.79999999999,"N_COORD97":2542506.9900000002,"ADDRESS":"崇信街３３號","OBJECTID":527208},"geometry":{"x":170708.80000000075,"y":2542506.9900000021}},{"attributes":{"ID":527236,"DIS_CODE":0,"TOWNNAME":"東區","LI":"崇信里","LIN":"6鄰","STREET":"崇信街","SECT":" ","MAREA":" ","LANE":" ","ALLEY":" ","HOUSE_NO":"２７號","E_COORD97":170704.51999999999,"N_COORD97":2542531.3599999999,"ADDRESS":"崇信街２７號","OBJECTID":527209},"geometry":{"x":170704.51999999862,"y":2542531.3599999994}},{"attributes":{"ID":527237,"DIS_CODE":0,"TOWNNAME":"東區","LI":"崇信里","LIN":"6鄰","STREET":"崇信街","SECT":" ","MAREA":" ","LANE":" ","ALLEY":" ","HOUSE_NO":"３５號","E_COORD97":170712.76999999999,"N_COORD97":2542493.6499999999,"ADDRESS":"崇信街３５號","OBJECTID":527210},"geometry":{"x":170712.76999999955,"y":2542493.6500000004}},{"attributes":{"ID":527238,"DIS_CODE":0,"TOWNNAME":"東區","LI":"崇信里","LIN":"6鄰","STREET":"崇信街","SECT":" ","MAREA":" ","LANE":" ","ALLEY":" ","HOUSE_NO":"２３號","E_COORD97":170702.81,"N_COORD97":2542542.2599999998,"ADDRESS":"崇信街２３號","OBJECTID":527211},"geometry":{"x":170702.81000000145,"y":2542542.2600000016}},{"attributes":{"ID":527239,"DIS_CODE":0,"TOWNNAME":"東區","LI":"崇信里","LIN":"6鄰","STREET":"崇信街","SECT":" ","MAREA":" ","LANE":" ","ALLEY":" ","HOUSE_NO":"４１號","E_COORD97":170721.53,"N_COORD97":2542464.4700000002,"ADDRESS":"崇信街４１號","OBJECTID":527212},"geometry":{"x":170721.53000000026,"y":2542464.4700000007}},{"attributes":{"ID":527240,"DIS_CODE":0,"TOWNNAME":"白河區","LI":"庄內里","LIN":"6鄰","STREET":"長安路","SECT":" ","MAREA":" ","LANE":" ","ALLEY":" ","HOUSE_NO":"４９號","E_COORD97":190717.82000000001,"N_COORD97":2583525.9900000002,"ADDRESS":"長安路４９號","OBJECTID":527213},"geometry":{"x":190717.8200000003,"y":2583525.9900000039}},{"attributes":{"ID":527241,"DIS_CODE":0,"TOWNNAME":"白河區","LI":"庄內里","LIN":"6鄰","STREET":"長安路","SECT":" ","MAREA":" ","LANE":" ","ALLEY":" ","HOUSE_NO":"５１號","E_COORD97":190713.20999999999,"N_COORD97":2583526.7599999998,"ADDRESS":"長安路５１號","OBJECTID":527214},"geometry":{"x":190713.20999999996,"y":2583526.7599999979}},{"attributes":{"ID":527242,"DIS_CODE":0,"TOWNNAME":"白河區","LI":"外角里","LIN":"6鄰","STREET":"建國街","SECT":" ","MAREA":" ","LANE":" ","ALLEY":" ","HOUSE_NO":"１０號","E_COORD97":190508.45999999999,"N_COORD97":2583314.1499999999,"ADDRESS":"建國街１０號","OBJECTID":527215},"geometry":{"x":190508.45999999996,"y":2583314.1500000004}},{"attributes":{"ID":527243,"DIS_CODE":0,"TOWNNAME":"白河區","LI":"外角里","LIN":"6鄰","STREET":"建國街","SECT":" ","MAREA":" ","LANE":" ","ALLEY":" ","HOUSE_NO":"１２號","E_COORD97":190504.10000000001,"N_COORD97":2583313.96,"ADDRESS":"建國街１２號","OBJECTID":527216},"geometry":{"x":190504.10000000149,"y":2583313.9600000028}},{"attributes":{"ID":527244,"DIS_CODE":0,"TOWNNAME":"白河區","LI":"外角里","LIN":"6鄰","STREET":"建國街","SECT":" ","MAREA":" ","LANE":" ","ALLEY":" ","HOUSE_NO":"１４號","E_COORD97":190500.25,"N_COORD97":2583313.8199999998,"ADDRESS":"建國街１４號","OBJECTID":527217},"geometry":{"x":190500.25000000093,"y":2583313.8200000022}},{"attributes":{"ID":527245,"DIS_CODE":0,"TOWNNAME":"白河區","LI":"外角里","LIN":"6鄰","STREET":"建國街","SECT":" ","MAREA":" ","LANE":" ","ALLEY":" ","HOUSE_NO":"１６號","E_COORD97":190494.98000000001,"N_COORD97":2583313.6099999999,"ADDRESS":"建國街１６號","OBJECTID":527218},"geometry":{"x":190494.98000000045,"y":2583313.6099999994}},{"attributes":{"ID":527246,"DIS_CODE":0,"TOWNNAME":"東區","LI":"忠孝里","LIN":"33鄰","STREET":"崇明二街","SECT":" ","MAREA":" ","LANE":" ","ALLEY":" ","HOUSE_NO":"４號","E_COORD97":169538.17999999999,"N_COORD97":2542367.1200000001,"ADDRESS":"崇明二街４號","OBJECTID":527219},"geometry":{"x":169538.18000000063,"y":2542367.1200000029}},{"attributes":{"ID":527247,"DIS_CODE":0,"TOWNNAME":"白河區","LI":"外角里","LIN":"6鄰","STREET":"建國街","SECT":" ","MAREA":" ","LANE":" ","ALLEY":" ","HOUSE_NO":"１８號","E_COORD97":190490.66,"N_COORD97":2583313.46,"ADDRESS":"建國街１８號","OBJECTID":527220},"geometry":{"x":190490.66000000201,"y":2583313.4600000028}},{"attributes":{"ID":527248,"DIS_CODE":0,"TOWNNAME":"白河區","LI":"外角里","LIN":"6鄰","STREET":"建國街","SECT":" ","MAREA":" ","LANE":" ","ALLEY":" ","HOUSE_NO":"２０號","E_COORD97":190487.56,"N_COORD97":2583313.5800000001,"ADDRESS":"建國街２０號","OBJECTID":527221},"geometry":{"x":190487.56000000052,"y":2583313.5800000001}},{"attributes":{"ID":527249,"DIS_CODE":0,"TOWNNAME":"白河區","LI":"外角里","LIN":"6鄰","STREET":"建國街","SECT":" ","MAREA":" ","LANE":" ","ALLEY":" ","HOUSE_NO":"２２號","E_COORD97":190482.48000000001,"N_COORD97":2583313.2799999998,"ADDRESS":"建國街２２號","OBJECTID":527222},"geometry":{"x":190482.48000000138,"y":2583313.2800000012}},{"attributes":{"ID":527250,"DIS_CODE":0,"TOWNNAME":"白河區","LI":"外角里","LIN":"6鄰","STREET":"建國街","SECT":" ","MAREA":" ","LANE":" ","ALLEY":" ","HOUSE_NO":"２６號","E_COORD97":190474.38,"N_COORD97":2583313.1600000001,"ADDRESS":"建國街２６號","OBJECTID":527223},"geometry":{"x":190474.37999999989,"y":2583313.1600000001}},{"attributes":{"ID":527251,"DIS_CODE":0,"TOWNNAME":"白河區","LI":"外角里","LIN":"6鄰","STREET":"建國街","SECT":" ","MAREA":" ","LANE":" ","ALLEY":" ","HOUSE_NO":"２８號","E_COORD97":190470.16,"N_COORD97":2583313.3700000001,"ADDRESS":"建國街２８號","OBJECTID":527224},"geometry":{"x":190470.16000000201,"y":2583313.370000001}},{"attributes":{"ID":527252,"DIS_CODE":0,"TOWNNAME":"白河區","LI":"外角里","LIN":"6鄰","STREET":"建國街","SECT":" ","MAREA":" ","LANE":" ","ALLEY":" ","HOUSE_NO":"２９號","E_COORD97":190444.39999999999,"N_COORD97":2583296.4199999999,"ADDRESS":"建國街２９號","OBJECTID":527225},"geometry":{"x":190444.40000000037,"y":2583296.4200000018}},{"attributes":{"ID":527253,"DIS_CODE":0,"TOWNNAME":"白河區","LI":"外角里","LIN":"6鄰","STREET":"建國街","SECT":" ","MAREA":" ","LANE":" ","ALLEY":" ","HOUSE_NO":"２號","E_COORD97":190533.95000000001,"N_COORD97":2583313.1699999999,"ADDRESS":"建國街２號","OBJECTID":527226},"geometry":{"x":190533.95000000019,"y":2583313.1699999999}},{"attributes":{"ID":527254,"DIS_CODE":0,"TOWNNAME":"白河區","LI":"外角里","LIN":"6鄰","STREET":"建國街","SECT":" ","MAREA":" ","LANE":" ","ALLEY":" ","HOUSE_NO":"３０號","E_COORD97":190466.07999999999,"N_COORD97":2583312.8999999999,"ADDRESS":"建國街３０號","OBJECTID":527227},"geometry":{"x":190466.08000000101,"y":2583312.9000000041}},{"attributes":{"ID":527255,"DIS_CODE":0,"TOWNNAME":"白河區","LI":"外角里","LIN":"6鄰","STREET":"建國街","SECT":" ","MAREA":" ","LANE":" ","ALLEY":" ","HOUSE_NO":"３１號","E_COORD97":190437.82999999999,"N_COORD97":2583296.6000000001,"ADDRESS":"建國街３１號","OBJECTID":527228},"geometry":{"x":190437.83000000007,"y":2583296.5999999996}},{"attributes":{"ID":527256,"DIS_CODE":0,"TOWNNAME":"白河區","LI":"外角里","LIN":"6鄰","STREET":"建國街","SECT":" ","MAREA":" ","LANE":" ","ALLEY":" ","HOUSE_NO":"３２號","E_COORD97":190461.97,"N_COORD97":2583313.2000000002,"ADDRESS":"建國街３２號","OBJECTID":527229},"geometry":{"x":190461.96999999974,"y":2583313.200000003}},{"attributes":{"ID":527257,"DIS_CODE":0,"TOWNNAME":"白河區","LI":"外角里","LIN":"6鄰","STREET":"建國街","SECT":" ","MAREA":" ","LANE":" ","ALLEY":" ","HOUSE_NO":"３３號","E_COORD97":190431.26999999999,"N_COORD97":2583296.1499999999,"ADDRESS":"建國街３３號","OBJECTID":527230},"geometry":{"x":190431.26999999955,"y":2583296.1500000004}},{"attributes":{"ID":527258,"DIS_CODE":0,"TOWNNAME":"白河區","LI":"外角里","LIN":"6鄰","STREET":"建國街","SECT":" ","MAREA":" ","LANE":" ","ALLEY":" ","HOUSE_NO":"３４號","E_COORD97":190458.07999999999,"N_COORD97":2583312.73,"ADDRESS":"建國街３４號","OBJECTID":527231},"geometry":{"x":190458.08000000007,"y":2583312.7300000004}},{"attributes":{"ID":527259,"DIS_CODE":0,"TOWNNAME":"白河區","LI":"外角里","LIN":"6鄰","STREET":"建國街","SECT":" ","MAREA":" ","LANE":" ","ALLEY":" ","HOUSE_NO":"３６號","E_COORD97":190454.26000000001,"N_COORD97":2583312.4700000002,"ADDRESS":"建國街３６號","OBJECTID":527232},"geometry":{"x":190454.26000000071,"y":2583312.4700000007}},{"attributes":{"ID":527260,"DIS_CODE":0,"TOWNNAME":"白河區","LI":"外角里","LIN":"6鄰","STREET":"建國街","SECT":" ","MAREA":" ","LANE":" ","ALLEY":" ","HOUSE_NO":"３８號","E_COORD97":190433.09,"N_COORD97":2583312.4399999999,"ADDRESS":"建國街３８號","OBJECTID":527233},"geometry":{"x":190433.09000000171,"y":2583312.4400000013}},{"attributes":{"ID":527261,"DIS_CODE":0,"TOWNNAME":"白河區","LI":"外角里","LIN":"6鄰","STREET":"建國街","SECT":" ","MAREA":" ","LANE":" ","ALLEY":" ","HOUSE_NO":"４０號","E_COORD97":190436.98999999999,"N_COORD97":2583311.4300000002,"ADDRESS":"建國街４０號","OBJECTID":527234},"geometry":{"x":190436.99000000022,"y":2583311.4299999997}},{"attributes":{"ID":527262,"DIS_CODE":0,"TOWNNAME":"白河區","LI":"外角里","LIN":"6鄰","STREET":"建國街","SECT":" ","MAREA":" ","LANE":" ","ALLEY":" ","HOUSE_NO":"４２號","E_COORD97":190441.89999999999,"N_COORD97":2583311.9399999999,"ADDRESS":"建國街４２號","OBJECTID":527235},"geometry":{"x":190441.9000000013,"y":2583311.9400000032}},{"attributes":{"ID":527263,"DIS_CODE":0,"TOWNNAME":"白河區","LI":"外角里","LIN":"6鄰","STREET":"建國街","SECT":" ","MAREA":" ","LANE":" ","ALLEY":" ","HOUSE_NO":"４４號","E_COORD97":190445.79999999999,"N_COORD97":2583312.1099999999,"ADDRESS":"建國街４４號","OBJECTID":527236},"geometry":{"x":190445.80000000075,"y":2583312.1100000013}},{"attributes":{"ID":527264,"DIS_CODE":0,"TOWNNAME":"白河區","LI":"外角里","LIN":"6鄰","STREET":"建國街","SECT":" ","MAREA":" ","LANE":" ","ALLEY":" ","HOUSE_NO":"４６號","E_COORD97":190449.78,"N_COORD97":2583312.29,"ADDRESS":"建國街４６號","OBJECTID":527237},"geometry":{"x":190449.78000000119,"y":2583312.2899999972}},{"attributes":{"ID":527265,"DIS_CODE":0,"TOWNNAME":"白河區","LI":"外角里","LIN":"6鄰","STREET":"建國街","SECT":" ","MAREA":" ","LANE":" ","ALLEY":" ","HOUSE_NO":"５號","E_COORD97":190514.03,"N_COORD97":2583302.0899999999,"ADDRESS":"建國街５號","OBJECTID":527238},"geometry":{"x":190514.03000000119,"y":2583302.0900000017}},{"attributes":{"ID":527266,"DIS_CODE":0,"TOWNNAME":"白河區","LI":"外角里","LIN":"6鄰","STREET":"建國街","SECT":" ","MAREA":" ","LANE":" ","ALLEY":" ","HOUSE_NO":"６號","E_COORD97":190516.42999999999,"N_COORD97":2583314.2599999998,"ADDRESS":"建國街６號","OBJECTID":527239},"geometry":{"x":190516.4299999997,"y":2583314.2600000016}},{"attributes":{"ID":527267,"DIS_CODE":0,"TOWNNAME":"白河區","LI":"外角里","LIN":"6鄰","STREET":"建國街","SECT":" ","MAREA":" ","LANE":" ","ALLEY":" ","HOUSE_NO":"７號","E_COORD97":190506.17999999999,"N_COORD97":2583301.4300000002,"ADDRESS":"建國街７號","OBJECTID":527240},"geometry":{"x":190506.1799999997,"y":2583301.4299999997}},{"attributes":{"ID":527268,"DIS_CODE":0,"TOWNNAME":"白河區","LI":"外角里","LIN":"6鄰","STREET":"建國街","SECT":" ","MAREA":" ","LANE":" ","ALLEY":" ","HOUSE_NO":"８號","E_COORD97":190512.37,"N_COORD97":2583314.4399999999,"ADDRESS":"建國街８號","OBJECTID":527241},"geometry":{"x":190512.37000000011,"y":2583314.4399999995}},{"attributes":{"ID":527269,"DIS_CODE":0,"TOWNNAME":"白河區","LI":"永安里","LIN":"6鄰","STREET":"國泰路","SECT":" ","MAREA":" ","LANE":" ","ALLEY":" ","HOUSE_NO":"１３０號","E_COORD97":189974.28,"N_COORD97":2582979.8799999999,"ADDRESS":"國泰路１３０號","OBJECTID":527242},"geometry":{"x":189974.28000000026,"y":2582979.8800000008}},{"attributes":{"ID":527270,"DIS_CODE":0,"TOWNNAME":"白河區","LI":"永安里","LIN":"6鄰","STREET":"國泰路","SECT":" ","MAREA":" ","LANE":" ","ALLEY":" ","HOUSE_NO":"１４７號","E_COORD97":189931.57999999999,"N_COORD97":2583020.6800000002,"ADDRESS":"國泰路１４７號","OBJECTID":527243},"geometry":{"x":189931.58000000194,"y":2583020.6799999997}},{"attributes":{"ID":527271,"DIS_CODE":0,"TOWNNAME":"白河區","LI":"永安里","LIN":"6鄰","STREET":"國泰路","SECT":" ","MAREA":" ","LANE":" ","ALLEY":" ","HOUSE_NO":"１４９號","E_COORD97":189930.26999999999,"N_COORD97":2583027.9900000002,"ADDRESS":"國泰路１４９號","OBJECTID":527244},"geometry":{"x":189930.27000000048,"y":2583027.9900000021}},{"attributes":{"ID":527272,"DIS_CODE":0,"TOWNNAME":"白河區","LI":"永安里","LIN":"6鄰","STREET":"國泰路","SECT":" ","MAREA":" ","LANE":" ","ALLEY":" ","HOUSE_NO":"１５７號","E_COORD97":189928.62,"N_COORD97":2583039.29,"ADDRESS":"國泰路１５７號","OBJECTID":527245},"geometry":{"x":189928.62000000104,"y":2583039.290000001}},{"attributes":{"ID":527273,"DIS_CODE":0,"TOWNNAME":"白河區","LI":"永安里","LIN":"6鄰","STREET":"國泰路","SECT":" ","MAREA":" ","LANE":" ","ALLEY":" ","HOUSE_NO":"１５９號","E_COORD97":189927.07000000001,"N_COORD97":2583044.9199999999,"ADDRESS":"國泰路１５９號","OBJECTID":527246},"geometry":{"x":189927.07000000123,"y":2583044.9200000018}},{"attributes":{"ID":527274,"DIS_CODE":0,"TOWNNAME":"白河區","LI":"外角里","LIN":"6鄰","STREET":"復興街","SECT":" ","MAREA":" ","LANE":" ","ALLEY":" ","HOUSE_NO":"２９號","E_COORD97":190450.48000000001,"N_COORD97":2583358.1200000001,"ADDRESS":"復興街２９號","OBJECTID":527247},"geometry":{"x":190450.48000000138,"y":2583358.120000001}},{"attributes":{"ID":527275,"DIS_CODE":0,"TOWNNAME":"白河區","LI":"外角里","LIN":"6鄰","STREET":"復興街","SECT":" ","MAREA":" ","LANE":" ","ALLEY":" ","HOUSE_NO":"７號","E_COORD97":190478.45999999999,"N_COORD97":2583347.1699999999,"ADDRESS":"復興街７號","OBJECTID":527248},"geometry":{"x":190478.46000000089,"y":2583347.1699999999}},{"attributes":{"ID":527276,"DIS_CODE":0,"TOWNNAME":"麻豆區","LI":"巷口里","LIN":"6鄰","STREET":"興國路","SECT":" ","MAREA":" ","LANE":" ","ALLEY":" ","HOUSE_NO":"６３號之１","E_COORD97":172941.35999999999,"N_COORD97":2563930.8500000001,"ADDRESS":"興國路６３號之１","OBJECTID":527249},"geometry":{"x":172941.36000000127,"y":2563930.8500000015}},{"attributes":{"ID":527277,"DIS_CODE":0,"TOWNNAME":"麻豆區","LI":"巷口里","LIN":"6鄰","STREET":"興國路","SECT":" ","MAREA":" ","LANE":" ","ALLEY":" ","HOUSE_NO":"６３號之２","E_COORD97":172924.94,"N_COORD97":2563911.4399999999,"ADDRESS":"興國路６３號之２","OBJECTID":527250},"geometry":{"x":172924.93999999948,"y":2563911.4399999995}},{"attributes":{"ID":527278,"DIS_CODE":0,"TOWNNAME":"麻豆區","LI":"巷口里","LIN":"6鄰","STREET":"興國路","SECT":" ","MAREA":" ","LANE":" ","ALLEY":" ","HOUSE_NO":"６３號","E_COORD97":172905.22,"N_COORD97":2563902.8199999998,"ADDRESS":"興國路６３號","OBJECTID":527251},"geometry":{"x":172905.21999999974,"y":2563902.8200000003}},{"attributes":{"ID":527279,"DIS_CODE":0,"TOWNNAME":"佳里區","LI":"東寧里","LIN":"6鄰","STREET":"延平路","SECT":" ","MAREA":" ","LANE":" ","ALLEY":" ","HOUSE_NO":"３２９號","E_COORD97":165844.98999999999,"N_COORD97":2562480.3500000001,"ADDRESS":"延平路３２９號","OBJECTID":527252},"geometry":{"x":165844.99000000022,"y":2562480.3500000015}},{"attributes":{"ID":527280,"DIS_CODE":0,"TOWNNAME":"佳里區","LI":"東寧里","LIN":"6鄰","STREET":"延平路","SECT":" ","MAREA":" ","LANE":" ","ALLEY":" ","HOUSE_NO":"３３１號","E_COORD97":165844.69,"N_COORD97":2562484.5499999998,"ADDRESS":"延平路３３１號","OBJECTID":527253},"geometry":{"x":165844.69000000134,"y":2562484.5500000007}},{"attributes":{"ID":527281,"DIS_CODE":0,"TOWNNAME":"佳里區","LI":"東寧里","LIN":"6鄰","STREET":"延平路","SECT":" ","MAREA":" ","LANE":" ","ALLEY":" ","HOUSE_NO":"３３３號","E_COORD97":165844.32999999999,"N_COORD97":2562488.8700000001,"ADDRESS":"延平路３３３號","OBJECTID":527254},"geometry":{"x":165844.33000000007,"y":2562488.870000001}},{"attributes":{"ID":527282,"DIS_CODE":0,"TOWNNAME":"佳里區","LI":"東寧里","LIN":"6鄰","STREET":"延平路","SECT":" ","MAREA":" ","LANE":" ","ALLEY":" ","HOUSE_NO":"３３５號","E_COORD97":165844.04000000001,"N_COORD97":2562493.3599999999,"ADDRESS":"延平路３３５號","OBJECTID":527255},"geometry":{"x":165844.04000000097,"y":2562493.3600000013}},{"attributes":{"ID":527283,"DIS_CODE":0,"TOWNNAME":"佳里區","LI":"東寧里","LIN":"6鄰","STREET":"延平路","SECT":" ","MAREA":" ","LANE":" ","ALLEY":" ","HOUSE_NO":"３３７號","E_COORD97":165843.81,"N_COORD97":2562497.52,"ADDRESS":"延平路３３７號","OBJECTID":527256},"geometry":{"x":165843.80999999959,"y":2562497.5199999996}},{"attributes":{"ID":527284,"DIS_CODE":0,"TOWNNAME":"佳里區","LI":"鎮山里","LIN":"6鄰","STREET":"信義一街","SECT":" ","MAREA":" ","LANE":" ","ALLEY":" ","HOUSE_NO":"７１號","E_COORD97":166223.97,"N_COORD97":2561738.29,"ADDRESS":"信義一街７１號","OBJECTID":527257},"geometry":{"x":166223.96999999974,"y":2561738.2899999991}},{"attributes":{"ID":527285,"DIS_CODE":0,"TOWNNAME":"佳里區","LI":"鎮山里","LIN":"6鄰","STREET":"信義一街","SECT":" ","MAREA":" ","LANE":" ","ALLEY":" ","HOUSE_NO":"７３號","E_COORD97":166187.63,"N_COORD97":2561740.9399999999,"ADDRESS":"信義一街７３號","OBJECTID":527258},"geometry":{"x":166187.62999999989,"y":2561740.9399999995}},{"attributes":{"ID":527286,"DIS_CODE":0,"TOWNNAME":"佳里區","LI":"鎮山里","LIN":"6鄰","STREET":"信義一街","SECT":" ","MAREA":" ","LANE":" ","ALLEY":" ","HOUSE_NO":"７５號","E_COORD97":166223.79000000001,"N_COORD97":2561753.8500000001,"ADDRESS":"信義一街７５號","OBJECTID":527259},"geometry":{"x":166223.79000000004,"y":2561753.8500000015}},{"attributes":{"ID":527287,"DIS_CODE":0,"TOWNNAME":"佳里區","LI":"鎮山里","LIN":"6鄰","STREET":"信義一街","SECT":" ","MAREA":" ","LANE":" ","ALLEY":" ","HOUSE_NO":"７７號","E_COORD97":166188.57999999999,"N_COORD97":2561755.6699999999,"ADDRESS":"信義一街７７號","OBJECTID":527260},"geometry":{"x":166188.58000000007,"y":2561755.6700000018}},{"attributes":{"ID":527288,"DIS_CODE":0,"TOWNNAME":"佳里區","LI":"六安里","LIN":"6鄰","STREET":"青年街","SECT":" ","MAREA":" ","LANE":" ","ALLEY":" ","HOUSE_NO":"４７號","E_COORD97":166106.28,"N_COORD97":2562983.4399999999,"ADDRESS":"青年街４７號","OBJECTID":527261},"geometry":{"x":166106.28000000212,"y":2562983.4400000013}},{"attributes":{"ID":527289,"DIS_CODE":0,"TOWNNAME":"佳里區","LI":"六安里","LIN":"6鄰","STREET":"青年街","SECT":" ","MAREA":" ","LANE":" ","ALLEY":" ","HOUSE_NO":"４９號","E_COORD97":166101.92000000001,"N_COORD97":2562983.8500000001,"ADDRESS":"青年街４９號","OBJECTID":527262},"geometry":{"x":166101.92000000086,"y":2562983.8500000034}},{"attributes":{"ID":527290,"DIS_CODE":0,"TOWNNAME":"佳里區","LI":"六安里","LIN":"6鄰","STREET":"青年街","SECT":" ","MAREA":" ","LANE":" ","ALLEY":" ","HOUSE_NO":"５１號","E_COORD97":166097.72,"N_COORD97":2562983.5299999998,"ADDRESS":"青年街５１號","OBJECTID":527263},"geometry":{"x":166097.7200000016,"y":2562983.5300000012}},{"attributes":{"ID":527291,"DIS_CODE":0,"TOWNNAME":"佳里區","LI":"六安里","LIN":"6鄰","STREET":"青年街","SECT":" ","MAREA":" ","LANE":" ","ALLEY":" ","HOUSE_NO":"５３號","E_COORD97":166093.59,"N_COORD97":2562984.0600000001,"ADDRESS":"青年街５３號","OBJECTID":527264},"geometry":{"x":166093.59000000171,"y":2562984.0600000024}},{"attributes":{"ID":527292,"DIS_CODE":0,"TOWNNAME":"佳里區","LI":"鎮山里","LIN":"6鄰","STREET":"信義一街","SECT":" ","MAREA":" ","LANE":" ","ALLEY":" ","HOUSE_NO":"１１９號","E_COORD97":166205.64000000001,"N_COORD97":2561782.9900000002,"ADDRESS":"信義一街１１９號","OBJECTID":527265},"geometry":{"x":166205.6400000006,"y":2561782.9900000002}},{"attributes":{"ID":527293,"DIS_CODE":0,"TOWNNAME":"佳里區","LI":"鎮山里","LIN":"6鄰","STREET":"信義一街","SECT":" ","MAREA":" ","LANE":" ","ALLEY":" ","HOUSE_NO":"１４３號","E_COORD97":166174.10999999999,"N_COORD97":2561860.3700000001,"ADDRESS":"信義一街１４３號","OBJECTID":527266},"geometry":{"x":166174.11000000127,"y":2561860.3700000029}},{"attributes":{"ID":527294,"DIS_CODE":0,"TOWNNAME":"佳里區","LI":"鎮山里","LIN":"6鄰","STREET":"信義一街","SECT":" ","MAREA":" ","LANE":" ","ALLEY":" ","HOUSE_NO":"１４９號","E_COORD97":166166.87,"N_COORD97":2561904.7000000002,"ADDRESS":"信義一街１４９號","OBJECTID":527267},"geometry":{"x":166166.87000000104,"y":2561904.6999999993}},{"attributes":{"ID":527295,"DIS_CODE":0,"TOWNNAME":"佳里區","LI":"鎮山里","LIN":"6鄰","STREET":"信義一街","SECT":" ","MAREA":" ","LANE":" ","ALLEY":" ","HOUSE_NO":"２１８號","E_COORD97":166214.09,"N_COORD97":2561891.4900000002,"ADDRESS":"信義一街２１８號","OBJECTID":527268},"geometry":{"x":166214.09000000078,"y":2561891.4900000002}},{"attributes":{"ID":527296,"DIS_CODE":0,"TOWNNAME":"佳里區","LI":"六安里","LIN":"6鄰","STREET":"信義二街","SECT":" ","MAREA":" ","LANE":" ","ALLEY":" ","HOUSE_NO":"１１２號","E_COORD97":166072.85999999999,"N_COORD97":2562879.2400000002,"ADDRESS":"信義二街１１２號","OBJECTID":527269},"geometry":{"x":166072.86000000034,"y":2562879.2400000002}},{"attributes":{"ID":527297,"DIS_CODE":0,"TOWNNAME":"佳里區","LI":"六安里","LIN":"6鄰","STREET":"信義二街","SECT":" ","MAREA":" ","LANE":" ","ALLEY":" ","HOUSE_NO":"１２０號","E_COORD97":166083.06,"N_COORD97":2562889.0800000001,"ADDRESS":"信義二街１２０號","OBJECTID":527270},"geometry":{"x":166083.05999999959,"y":2562889.0800000019}},{"attributes":{"ID":527298,"DIS_CODE":0,"TOWNNAME":"佳里區","LI":"六安里","LIN":"6鄰","STREET":"信義二街","SECT":" ","MAREA":" ","LANE":" ","ALLEY":" ","HOUSE_NO":"１３４號","E_COORD97":166070.88,"N_COORD97":2562925.4399999999,"ADDRESS":"信義二街１３４號","OBJECTID":527271},"geometry":{"x":166070.87999999989,"y":2562925.4400000032}},{"attributes":{"ID":527299,"DIS_CODE":0,"TOWNNAME":"佳里區","LI":"六安里","LIN":"6鄰","STREET":"信義二街","SECT":" ","MAREA":" ","LANE":" ","ALLEY":" ","HOUSE_NO":"１４２號","E_COORD97":166098.85999999999,"N_COORD97":2562920.3900000001,"ADDRESS":"信義二街１４２號","OBJECTID":527272},"geometry":{"x":166098.86000000034,"y":2562920.3900000043}},{"attributes":{"ID":527300,"DIS_CODE":0,"TOWNNAME":"佳里區","LI":"六安里","LIN":"6鄰","STREET":"信義二街","SECT":" ","MAREA":" ","LANE":" ","ALLEY":" ","HOUSE_NO":"１４６號","E_COORD97":166103.19,"N_COORD97":2562920.8900000001,"ADDRESS":"信義二街１４６號","OBJECTID":527273},"geometry":{"x":166103.19000000041,"y":2562920.8900000025}},{"attributes":{"ID":527301,"DIS_CODE":0,"TOWNNAME":"佳里區","LI":"六安里","LIN":"6鄰","STREET":"信義二街","SECT":" ","MAREA":" ","LANE":" ","ALLEY":" ","HOUSE_NO":"１４８號","E_COORD97":166107.20999999999,"N_COORD97":2562920.8900000001,"ADDRESS":"信義二街１４８號","OBJECTID":527274},"geometry":{"x":166107.21000000089,"y":2562920.8900000025}},{"attributes":{"ID":527302,"DIS_CODE":0,"TOWNNAME":"佳里區","LI":"六安里","LIN":"6鄰","STREET":"信義二街","SECT":" ","MAREA":" ","LANE":" ","ALLEY":" ","HOUSE_NO":"１５０號","E_COORD97":166106.38,"N_COORD97":2562933.52,"ADDRESS":"信義二街１５０號","OBJECTID":527275},"geometry":{"x":166106.37999999989,"y":2562933.5199999996}},{"attributes":{"ID":527303,"DIS_CODE":0,"TOWNNAME":"佳里區","LI":"六安里","LIN":"6鄰","STREET":"信義二街","SECT":" ","MAREA":" ","LANE":" ","ALLEY":" ","HOUSE_NO":"１５２號","E_COORD97":166102.06,"N_COORD97":2562933.5899999999,"ADDRESS":"信義二街１５２號","OBJECTID":527276},"geometry":{"x":166102.06000000145,"y":2562933.5899999999}},{"attributes":{"ID":527304,"DIS_CODE":0,"TOWNNAME":"佳里區","LI":"六安里","LIN":"6鄰","STREET":"信義二街","SECT":" ","MAREA":" ","LANE":" ","ALLEY":" ","HOUSE_NO":"１５４號","E_COORD97":166097.89999999999,"N_COORD97":2562933.54,"ADDRESS":"信義二街１５４號","OBJECTID":527277},"geometry":{"x":166097.9000000013,"y":2562933.5399999991}},{"attributes":{"ID":527305,"DIS_CODE":0,"TOWNNAME":"佳里區","LI":"六安里","LIN":"6鄰","STREET":"信義二街","SECT":" ","MAREA":" ","LANE":" ","ALLEY":" ","HOUSE_NO":"１５６號","E_COORD97":166093.94,"N_COORD97":2562933.96,"ADDRESS":"信義二街１５６號","OBJECTID":527278},"geometry":{"x":166093.94000000134,"y":2562933.9600000028}},{"attributes":{"ID":527306,"DIS_CODE":0,"TOWNNAME":"佳里區","LI":"六安里","LIN":"6鄰","STREET":"信義二街","SECT":" ","MAREA":" ","LANE":" ","ALLEY":" ","HOUSE_NO":"１５８號","E_COORD97":166089.60999999999,"N_COORD97":2562933.6600000001,"ADDRESS":"信義二街１５８號","OBJECTID":527279},"geometry":{"x":166089.61000000127,"y":2562933.6600000001}},{"attributes":{"ID":527307,"DIS_CODE":0,"TOWNNAME":"佳里區","LI":"六安里","LIN":"6鄰","STREET":"信義二街","SECT":" ","MAREA":" ","LANE":" ","ALLEY":" ","HOUSE_NO":"１６０號","E_COORD97":166085.23999999999,"N_COORD97":2562933.46,"ADDRESS":"信義二街１６０號","OBJECTID":527280},"geometry":{"x":166085.24000000115,"y":2562933.459999999}},{"attributes":{"ID":527308,"DIS_CODE":0,"TOWNNAME":"佳里區","LI":"六安里","LIN":"6鄰","STREET":"信義二街","SECT":" ","MAREA":" ","LANE":" ","ALLEY":" ","HOUSE_NO":"１６２號","E_COORD97":166069.70000000001,"N_COORD97":2562932.5699999998,"ADDRESS":"信義二街１６２號","OBJECTID":527281},"geometry":{"x":166069.70000000112,"y":2562932.5700000022}},{"attributes":{"ID":527309,"DIS_CODE":0,"TOWNNAME":"佳里區","LI":"六安里","LIN":"6鄰","STREET":"信義二街","SECT":" ","MAREA":" ","LANE":" ","ALLEY":" ","HOUSE_NO":"１６４號","E_COORD97":166069.76000000001,"N_COORD97":2562936.3500000001,"ADDRESS":"信義二街１６４號","OBJECTID":527282},"geometry":{"x":166069.75999999978,"y":2562936.3500000034}},{"attributes":{"ID":527310,"DIS_CODE":0,"TOWNNAME":"佳里區","LI":"六安里","LIN":"6鄰","STREET":"信義二街","SECT":" ","MAREA":" ","LANE":" ","ALLEY":" ","HOUSE_NO":"１６６號","E_COORD97":166069.79999999999,"N_COORD97":2562940.6899999999,"ADDRESS":"信義二街１６６號","OBJECTID":527283},"geometry":{"x":166069.79999999981,"y":2562940.6900000032}},{"attributes":{"ID":527311,"DIS_CODE":0,"TOWNNAME":"佳里區","LI":"六安里","LIN":"6鄰","STREET":"信義二街","SECT":" ","MAREA":" ","LANE":" ","ALLEY":" ","HOUSE_NO":"１６８號","E_COORD97":166069.19,"N_COORD97":2562945.0299999998,"ADDRESS":"信義二街１６８號","OBJECTID":527284},"geometry":{"x":166069.19000000041,"y":2562945.0300000031}},{"attributes":{"ID":527312,"DIS_CODE":0,"TOWNNAME":"佳里區","LI":"六安里","LIN":"6鄰","STREET":"信義二街","SECT":" ","MAREA":" ","LANE":" ","ALLEY":" ","HOUSE_NO":"１７０號","E_COORD97":166068.87,"N_COORD97":2562949.8599999999,"ADDRESS":"信義二街１７０號","OBJECTID":527285},"geometry":{"x":166068.87000000104,"y":2562949.8600000031}},{"attributes":{"ID":527313,"DIS_CODE":0,"TOWNNAME":"佳里區","LI":"六安里","LIN":"6鄰","STREET":"信義二街","SECT":" ","MAREA":" ","LANE":" ","ALLEY":" ","HOUSE_NO":"１７２號","E_COORD97":166069.17000000001,"N_COORD97":2562953.7999999998,"ADDRESS":"信義二街１７２號","OBJECTID":527286},"geometry":{"x":166069.16999999993,"y":2562953.8000000007}},{"attributes":{"ID":527314,"DIS_CODE":0,"TOWNNAME":"安南區","LI":"公\u25A0里","LIN":"6鄰","STREET":"公學路","SECT":"五段","MAREA":" ","LANE":" ","ALLEY":" ","HOUSE_NO":"３８７號","E_COORD97":164300.14000000001,"N_COORD97":2552434.8199999998,"ADDRESS":"公學路五段３８７號","OBJECTID":527287},"geometry":{"x":164300.1400000006,"y":2552434.8200000022}},{"attributes":{"ID":527315,"DIS_CODE":0,"TOWNNAME":"安南區","LI":"公\u25A0里","LIN":"6鄰","STREET":"公學路","SECT":"五段","MAREA":" ","LANE":" ","ALLEY":" ","HOUSE_NO":"５１３號","E_COORD97":164143.09,"N_COORD97":2552573.8399999999,"ADDRESS":"公學路五段５１３號","OBJECTID":527288},"geometry":{"x":164143.09000000078,"y":2552573.8400000017}},{"attributes":{"ID":527316,"DIS_CODE":0,"TOWNNAME":"安南區","LI":"公\u25A0里","LIN":"6鄰","STREET":"安中路","SECT":"五段","MAREA":" ","LANE":" ","ALLEY":" ","HOUSE_NO":"１８８號","E_COORD97":163803.56,"N_COORD97":2550710.1600000001,"ADDRESS":"安中路五段１８８號","OBJECTID":527289},"geometry":{"x":163803.56000000052,"y":2550710.160000002}},{"attributes":{"ID":527317,"DIS_CODE":0,"TOWNNAME":"安南區","LI":"公\u25A0里","LIN":"6鄰","STREET":"安中路","SECT":"五段","MAREA":" ","LANE":" ","ALLEY":" ","HOUSE_NO":"２８０號","E_COORD97":163976.51999999999,"N_COORD97":2550491.52,"ADDRESS":"安中路五段２８０號","OBJECTID":527290},"geometry":{"x":163976.52000000142,"y":2550491.5199999996}},{"attributes":{"ID":527318,"DIS_CODE":0,"TOWNNAME":"安南區","LI":"公親里","LIN":"6鄰","STREET":"公學路","SECT":"一段","MAREA":" ","LANE":" ","ALLEY":" ","HOUSE_NO":"１４號","E_COORD97":168720.28,"N_COORD97":2553134.46,"ADDRESS":"公學路一段１４號","OBJECTID":527291},"geometry":{"x":168720.28000000212,"y":2553134.4600000009}},{"attributes":{"ID":527319,"DIS_CODE":0,"TOWNNAME":"安南區","LI":"公親里","LIN":"6鄰","STREET":"公學路","SECT":"一段","MAREA":" ","LANE":" ","ALLEY":" ","HOUSE_NO":"１４號之１","E_COORD97":168717.67999999999,"N_COORD97":2553131.2200000002,"ADDRESS":"公學路一段１４號之１","OBJECTID":527292},"geometry":{"x":168717.68000000063,"y":2553131.2200000025}},{"attributes":{"ID":527320,"DIS_CODE":0,"TOWNNAME":"東區","LI":"忠孝里","LIN":"33鄰","STREET":"崇明二街","SECT":" ","MAREA":" ","LANE":" ","ALLEY":" ","HOUSE_NO":"５號","E_COORD97":169538.98999999999,"N_COORD97":2542394.9199999999,"ADDRESS":"崇明二街５號","OBJECTID":527293},"geometry":{"x":169538.99000000022,"y":2542394.9200000018}},{"attributes":{"ID":527321,"DIS_CODE":0,"TOWNNAME":"安南區","LI":"公親里","LIN":"6鄰","STREET":"公學路","SECT":"一段","MAREA":" ","LANE":" ","ALLEY":" ","HOUSE_NO":"１４號之２","E_COORD97":168715.09,"N_COORD97":2553126.6899999999,"ADDRESS":"公學路一段１４號之２","OBJECTID":527294},"geometry":{"x":168715.09000000078,"y":2553126.6900000013}},{"attributes":{"ID":527322,"DIS_CODE":0,"TOWNNAME":"安南區","LI":"公親里","LIN":"6鄰","STREET":"公學路","SECT":"一段","MAREA":" ","LANE":" ","ALLEY":" ","HOUSE_NO":"１６號","E_COORD97":168711.85000000001,"N_COORD97":2553124.75,"ADDRESS":"公學路一段１６號","OBJECTID":527295},"geometry":{"x":168711.84999999963,"y":2553124.75}},{"attributes":{"ID":527323,"DIS_CODE":0,"TOWNNAME":"安南區","LI":"公親里","LIN":"6鄰","STREET":"公學路","SECT":"一段","MAREA":" ","LANE":" ","ALLEY":" ","HOUSE_NO":"１６號之１","E_COORD97":168707.95999999999,"N_COORD97":2553120.8599999999,"ADDRESS":"公學路一段１６號之１","OBJECTID":527296},"geometry":{"x":168707.95999999996,"y":2553120.8600000031}},{"attributes":{"ID":527324,"DIS_CODE":0,"TOWNNAME":"安南區","LI":"公親里","LIN":"6鄰","STREET":"公學路","SECT":"一段","MAREA":" ","LANE":" ","ALLEY":" ","HOUSE_NO":"１６號之２","E_COORD97":168706.01000000001,"N_COORD97":2553117.6200000001,"ADDRESS":"公學路一段１６號之２","OBJECTID":527297},"geometry":{"x":168706.00999999978,"y":2553117.6200000048}},{"attributes":{"ID":527325,"DIS_CODE":0,"TOWNNAME":"安南區","LI":"公親里","LIN":"6鄰","STREET":"公學路","SECT":"一段","MAREA":" ","LANE":" ","ALLEY":" ","HOUSE_NO":"１８號","E_COORD97":168702.76999999999,"N_COORD97":2553115.6800000002,"ADDRESS":"公學路一段１８號","OBJECTID":527298},"geometry":{"x":168702.77000000048,"y":2553115.6800000034}},{"attributes":{"ID":527326,"DIS_CODE":0,"TOWNNAME":"安南區","LI":"公親里","LIN":"6鄰","STREET":"公學路","SECT":"一段","MAREA":" ","LANE":" ","ALLEY":" ","HOUSE_NO":"１８號之１","E_COORD97":168700.17000000001,"N_COORD97":2553111.79,"ADDRESS":"公學路一段１８號之１","OBJECTID":527299},"geometry":{"x":168700.16999999899,"y":2553111.790000001}},{"attributes":{"ID":527327,"DIS_CODE":0,"TOWNNAME":"安南區","LI":"公親里","LIN":"6鄰","STREET":"公學路","SECT":"一段","MAREA":" ","LANE":" ","ALLEY":" ","HOUSE_NO":"１８號之２","E_COORD97":168695.63,"N_COORD97":2553109.8500000001,"ADDRESS":"公學路一段１８號之２","OBJECTID":527300},"geometry":{"x":168695.63000000082,"y":2553109.8499999996}},{"attributes":{"ID":527328,"DIS_CODE":0,"TOWNNAME":"安南區","LI":"公親里","LIN":"6鄰","STREET":"公學路","SECT":"一段","MAREA":" ","LANE":" ","ALLEY":" ","HOUSE_NO":"１８號之３","E_COORD97":168693.04000000001,"N_COORD97":2553107.2599999998,"ADDRESS":"公學路一段１８號之３","OBJECTID":527301},"geometry":{"x":168693.04000000097,"y":2553107.2599999998}},{"attributes":{"ID":527329,"DIS_CODE":0,"TOWNNAME":"安南區","LI":"公親里","LIN":"6鄰","STREET":"公學路","SECT":"一段","MAREA":" ","LANE":" ","ALLEY":" ","HOUSE_NO":"２２號","E_COORD97":168685.26000000001,"N_COORD97":2553100.7799999998,"ADDRESS":"公學路一段２２號","OBJECTID":527302},"geometry":{"x":168685.25999999978,"y":2553100.7799999993}},{"attributes":{"ID":527330,"DIS_CODE":0,"TOWNNAME":"安南區","LI":"公親里","LIN":"6鄰","STREET":"公學路","SECT":"一段","MAREA":" ","LANE":" ","ALLEY":" ","HOUSE_NO":"２２號之１","E_COORD97":168682.01999999999,"N_COORD97":2553098.1899999999,"ADDRESS":"公學路一段２２號之１","OBJECTID":527303},"geometry":{"x":168682.01999999955,"y":2553098.1899999976}},{"attributes":{"ID":527331,"DIS_CODE":0,"TOWNNAME":"安南區","LI":"公親里","LIN":"6鄰","STREET":"公學路","SECT":"一段","MAREA":" ","LANE":" ","ALLEY":" ","HOUSE_NO":"２２號之２","E_COORD97":168679.42000000001,"N_COORD97":2553093.6600000001,"ADDRESS":"公學路一段２２號之２","OBJECTID":527304},"geometry":{"x":168679.41999999993,"y":2553093.660000002}},{"attributes":{"ID":527332,"DIS_CODE":0,"TOWNNAME":"安南區","LI":"公親里","LIN":"6鄰","STREET":"公學路","SECT":"一段","MAREA":" ","LANE":" ","ALLEY":" ","HOUSE_NO":"２４號","E_COORD97":168677.48000000001,"N_COORD97":2553091.71,"ADDRESS":"公學路一段２４號","OBJECTID":527305},"geometry":{"x":168677.48000000138,"y":2553091.7100000009}},{"attributes":{"ID":527333,"DIS_CODE":0,"TOWNNAME":"安南區","LI":"公親里","LIN":"6鄰","STREET":"公學路","SECT":"一段","MAREA":" ","LANE":" ","ALLEY":" ","HOUSE_NO":"２４號之１","E_COORD97":168673.57999999999,"N_COORD97":2553089.1200000001,"ADDRESS":"公學路一段２４號之１","OBJECTID":527306},"geometry":{"x":168673.58000000007,"y":2553089.120000001}},{"attributes":{"ID":527334,"DIS_CODE":0,"TOWNNAME":"安南區","LI":"公親里","LIN":"6鄰","STREET":"公學路","SECT":"一段","MAREA":" ","LANE":" ","ALLEY":" ","HOUSE_NO":"２４號之２","E_COORD97":168669.04000000001,"N_COORD97":2553085.8900000001,"ADDRESS":"公學路一段２４號之２","OBJECTID":527307},"geometry":{"x":168669.0400000019,"y":2553085.8900000025}},{"attributes":{"ID":527335,"DIS_CODE":0,"TOWNNAME":"安南區","LI":"公親里","LIN":"6鄰","STREET":"公學路","SECT":"一段","MAREA":" ","LANE":" ","ALLEY":" ","HOUSE_NO":"２６號","E_COORD97":168666.45000000001,"N_COORD97":2553079.4100000001,"ADDRESS":"公學路一段２６號","OBJECTID":527308},"geometry":{"x":168666.45000000205,"y":2553079.4100000001}},{"attributes":{"ID":527336,"DIS_CODE":0,"TOWNNAME":"安南區","LI":"公親里","LIN":"6鄰","STREET":"公學路","SECT":"一段","MAREA":" ","LANE":" ","ALLEY":" ","HOUSE_NO":"２６號之１","E_COORD97":168660.60999999999,"N_COORD97":2553080.7000000002,"ADDRESS":"公學路一段２６號之１","OBJECTID":527309},"geometry":{"x":168660.61000000127,"y":2553080.6999999993}},{"attributes":{"ID":527337,"DIS_CODE":0,"TOWNNAME":"安南區","LI":"公親里","LIN":"6鄰","STREET":"公學路","SECT":"一段","MAREA":" ","LANE":" ","ALLEY":" ","HOUSE_NO":"２８號","E_COORD97":168650.89000000001,"N_COORD97":2553079.4100000001,"ADDRESS":"公學路一段２８號","OBJECTID":527310},"geometry":{"x":168650.88999999966,"y":2553079.4100000001}},{"attributes":{"ID":527338,"DIS_CODE":0,"TOWNNAME":"安南區","LI":"公親里","LIN":"6鄰","STREET":"公學路","SECT":"一段","MAREA":" ","LANE":" ","ALLEY":" ","HOUSE_NO":"２８號之１","E_COORD97":168646.35000000001,"N_COORD97":2553079.4100000001,"ADDRESS":"公學路一段２８號之１","OBJECTID":527311},"geometry":{"x":168646.35000000056,"y":2553079.4100000001}},{"attributes":{"ID":527339,"DIS_CODE":0,"TOWNNAME":"安南區","LI":"公親里","LIN":"6鄰","STREET":"公學路","SECT":"一段","MAREA":" ","LANE":" ","ALLEY":" ","HOUSE_NO":"２８號之２","E_COORD97":168642.45000000001,"N_COORD97":2553078.7599999998,"ADDRESS":"公學路一段２８號之２","OBJECTID":527312},"geometry":{"x":168642.45000000019,"y":2553078.7600000016}},{"attributes":{"ID":527340,"DIS_CODE":0,"TOWNNAME":"安南區","LI":"公親里","LIN":"6鄰","STREET":"公學路","SECT":"一段","MAREA":" ","LANE":" ","ALLEY":" ","HOUSE_NO":"２８號之３","E_COORD97":168635.97,"N_COORD97":2553075.52,"ADDRESS":"公學路一段２８號之３","OBJECTID":527313},"geometry":{"x":168635.97000000067,"y":2553075.5199999996}},{"attributes":{"ID":527341,"DIS_CODE":0,"TOWNNAME":"安南區","LI":"公親里","LIN":"6鄰","STREET":"公學路","SECT":"一段","MAREA":" ","LANE":" ","ALLEY":" ","HOUSE_NO":"８號","E_COORD97":168767.62,"N_COORD97":2553165.5499999998,"ADDRESS":"公學路一段８號","OBJECTID":527314},"geometry":{"x":168767.62000000104,"y":2553165.5500000026}},{"attributes":{"ID":527342,"DIS_CODE":0,"TOWNNAME":"安南區","LI":"公親里","LIN":"6鄰","STREET":"公學路","SECT":"一段","MAREA":" ","LANE":" ","ALLEY":" ","HOUSE_NO":"８號之１","E_COORD97":168760.48999999999,"N_COORD97":2553166.2000000002,"ADDRESS":"公學路一段８號之１","OBJECTID":527315},"geometry":{"x":168760.49000000022,"y":2553166.200000003}},{"attributes":{"ID":527343,"DIS_CODE":0,"TOWNNAME":"安南區","LI":"公親里","LIN":"6鄰","STREET":"公學路","SECT":"一段","MAREA":" ","LANE":" ","ALLEY":" ","HOUSE_NO":"８號之２","E_COORD97":168757.25,"N_COORD97":2553162.96,"ADDRESS":"公學路一段８號之２","OBJECTID":527316},"geometry":{"x":168757.25,"y":2553162.9600000028}},{"attributes":{"ID":527344,"DIS_CODE":0,"TOWNNAME":"安南區","LI":"公親里","LIN":"6鄰","STREET":"公學路","SECT":"一段","MAREA":" ","LANE":" ","ALLEY":" ","HOUSE_NO":"８號之３","E_COORD97":168754.64999999999,"N_COORD97":2553159.0699999998,"ADDRESS":"公學路一段８號之３","OBJECTID":527317},"geometry":{"x":168754.65000000037,"y":2553159.0700000022}},{"attributes":{"ID":527345,"DIS_CODE":0,"TOWNNAME":"新市區","LI":"港墘里","LIN":"6鄰","STREET":"國際路","SECT":" ","MAREA":" ","LANE":" ","ALLEY":" ","HOUSE_NO":"１１之１號","E_COORD97":178082.23000000001,"N_COORD97":2553148.2999999998,"ADDRESS":"國際路１１之１號","OBJECTID":527318},"geometry":{"x":178082.23000000138,"y":2553148.3000000007}},{"attributes":{"ID":527346,"DIS_CODE":0,"TOWNNAME":"新市區","LI":"新市里","LIN":"6鄰","STREET":"中興街","SECT":" ","MAREA":" ","LANE":" ","ALLEY":" ","HOUSE_NO":"１０１號","E_COORD97":177566.31,"N_COORD97":2553097.25,"ADDRESS":"中興街１０１號","OBJECTID":527319},"geometry":{"x":177566.30999999959,"y":2553097.25}},{"attributes":{"ID":527347,"DIS_CODE":0,"TOWNNAME":"新市區","LI":"港墘里","LIN":"6鄰","STREET":"興業路","SECT":" ","MAREA":" ","LANE":" ","ALLEY":" ","HOUSE_NO":"１２之２號","E_COORD97":178301.51999999999,"N_COORD97":2553456.5499999998,"ADDRESS":"興業路１２之２號","OBJECTID":527320},"geometry":{"x":178301.52000000048,"y":2553456.5499999989}},{"attributes":{"ID":527348,"DIS_CODE":0,"TOWNNAME":"新市區","LI":"港墘里","LIN":"6鄰","STREET":"民族路","SECT":" ","MAREA":" ","LANE":" ","ALLEY":" ","HOUSE_NO":"１２８號","E_COORD97":178188.45999999999,"N_COORD97":2553522.29,"ADDRESS":"民族路１２８號","OBJECTID":527321},"geometry":{"x":178188.46000000089,"y":2553522.290000001}},{"attributes":{"ID":527349,"DIS_CODE":0,"TOWNNAME":"新市區","LI":"港墘里","LIN":"6鄰","STREET":"興業路","SECT":" ","MAREA":" ","LANE":" ","ALLEY":" ","HOUSE_NO":"１７號","E_COORD97":178131.39999999999,"N_COORD97":2553403.5,"ADDRESS":"興業路１７號","OBJECTID":527322},"geometry":{"x":178131.4000000013,"y":2553403.5000000019}},{"attributes":{"ID":527350,"DIS_CODE":0,"TOWNNAME":"東區","LI":"成大里","LIN":"6鄰","STREET":"民族路","SECT":"一段","MAREA":" ","LANE":" ","ALLEY":" ","HOUSE_NO":"１３號","E_COORD97":169560.32999999999,"N_COORD97":2543854.5099999998,"ADDRESS":"民族路一段１３號","OBJECTID":527323},"geometry":{"x":169560.33000000007,"y":2543854.5100000035}},{"attributes":{"ID":527351,"DIS_CODE":0,"TOWNNAME":"東區","LI":"成大里","LIN":"6鄰","STREET":"民族路","SECT":"一段","MAREA":" ","LANE":" ","ALLEY":" ","HOUSE_NO":"１５號","E_COORD97":169556.64999999999,"N_COORD97":2543854.7200000002,"ADDRESS":"民族路一段１５號","OBJECTID":527324},"geometry":{"x":169556.65000000037,"y":2543854.7200000025}},{"attributes":{"ID":527352,"DIS_CODE":0,"TOWNNAME":"東區","LI":"成大里","LIN":"6鄰","STREET":"民族路","SECT":"一段","MAREA":" ","LANE":" ","ALLEY":" ","HOUSE_NO":"１９號","E_COORD97":169530.10000000001,"N_COORD97":2543859.2000000002,"ADDRESS":"民族路一段１９號","OBJECTID":527325},"geometry":{"x":169530.10000000056,"y":2543859.1999999974}},{"attributes":{"ID":527353,"DIS_CODE":0,"TOWNNAME":"東區","LI":"成大里","LIN":"6鄰","STREET":"民族路","SECT":"一段","MAREA":" ","LANE":" ","ALLEY":" ","HOUSE_NO":"１號","E_COORD97":169587.5,"N_COORD97":2543852.8799999999,"ADDRESS":"民族路一段１號","OBJECTID":527326},"geometry":{"x":169587.5,"y":2543852.879999999}},{"attributes":{"ID":527354,"DIS_CODE":0,"TOWNNAME":"東區","LI":"成大里","LIN":"6鄰","STREET":"民族路","SECT":"一段","MAREA":" ","LANE":" ","ALLEY":" ","HOUSE_NO":"２１號","E_COORD97":169525.39999999999,"N_COORD97":2543860.4300000002,"ADDRESS":"民族路一段２１號","OBJECTID":527327},"geometry":{"x":169525.4000000013,"y":2543860.4299999997}},{"attributes":{"ID":527355,"DIS_CODE":0,"TOWNNAME":"東區","LI":"成大里","LIN":"6鄰","STREET":"民族路","SECT":"一段","MAREA":" ","LANE":" ","ALLEY":" ","HOUSE_NO":"２３號","E_COORD97":169517.64000000001,"N_COORD97":2543860.8399999999,"ADDRESS":"民族路一段２３號","OBJECTID":527328},"geometry":{"x":169517.6400000006,"y":2543860.8399999999}},{"attributes":{"ID":527356,"DIS_CODE":0,"TOWNNAME":"東區","LI":"成大里","LIN":"6鄰","STREET":"育樂街","SECT":" ","MAREA":" ","LANE":" ","ALLEY":" ","HOUSE_NO":"１８６號","E_COORD97":169481.92000000001,"N_COORD97":2543837.8500000001,"ADDRESS":"育樂街１８６號","OBJECTID":527329},"geometry":{"x":169481.92000000086,"y":2543837.8499999996}},{"attributes":{"ID":527357,"DIS_CODE":0,"TOWNNAME":"東區","LI":"成大里","LIN":"6鄰","STREET":"育樂街","SECT":" ","MAREA":" ","LANE":" ","ALLEY":" ","HOUSE_NO":"１８８號","E_COORD97":169482.37,"N_COORD97":2543831.0499999998,"ADDRESS":"育樂街１８８號","OBJECTID":527330},"geometry":{"x":169482.37000000197,"y":2543831.0500000007}},{"attributes":{"ID":527358,"DIS_CODE":0,"TOWNNAME":"東區","LI":"成大里","LIN":"6鄰","STREET":"育樂街","SECT":" ","MAREA":" ","LANE":" ","ALLEY":" ","HOUSE_NO":"１９０號","E_COORD97":169481.01000000001,"N_COORD97":2543825.6099999999,"ADDRESS":"育樂街１９０號","OBJECTID":527331},"geometry":{"x":169481.01000000164,"y":2543825.6099999994}},{"attributes":{"ID":527359,"DIS_CODE":0,"TOWNNAME":"東區","LI":"成大里","LIN":"6鄰","STREET":"育樂街","SECT":" ","MAREA":" ","LANE":" ","ALLEY":" ","HOUSE_NO":"１９１號","E_COORD97":169504.75,"N_COORD97":2543790.6600000001,"ADDRESS":"育樂街１９１號","OBJECTID":527332},"geometry":{"x":169504.75,"y":2543790.660000002}},{"attributes":{"ID":527360,"DIS_CODE":0,"TOWNNAME":"東區","LI":"成大里","LIN":"6鄰","STREET":"育樂街","SECT":" ","MAREA":" ","LANE":" ","ALLEY":" ","HOUSE_NO":"１９３之１號","E_COORD97":169492.04999999999,"N_COORD97":2543796.2200000002,"ADDRESS":"育樂街１９３之１號","OBJECTID":527333},"geometry":{"x":169492.04999999981,"y":2543796.2200000044}},{"attributes":{"ID":527361,"DIS_CODE":0,"TOWNNAME":"東區","LI":"成大里","LIN":"6鄰","STREET":"育樂街","SECT":" ","MAREA":" ","LANE":" ","ALLEY":" ","HOUSE_NO":"１９３之２號","E_COORD97":169491.73999999999,"N_COORD97":2543800.5299999998,"ADDRESS":"育樂街１９３之２號","OBJECTID":527334},"geometry":{"x":169491.74000000209,"y":2543800.5300000012}},{"attributes":{"ID":527362,"DIS_CODE":0,"TOWNNAME":"東區","LI":"成大里","LIN":"6鄰","STREET":"育樂街","SECT":" ","MAREA":" ","LANE":" ","ALLEY":" ","HOUSE_NO":"１９３號","E_COORD97":169491.26000000001,"N_COORD97":2543790.46,"ADDRESS":"育樂街１９３號","OBJECTID":527335},"geometry":{"x":169491.26000000164,"y":2543790.4600000009}},{"attributes":{"ID":527363,"DIS_CODE":0,"TOWNNAME":"東區","LI":"成大里","LIN":"6鄰","STREET":"育樂街","SECT":" ","MAREA":" ","LANE":" ","ALLEY":" ","HOUSE_NO":"１９６號","E_COORD97":169479.06,"N_COORD97":2543815.0899999999,"ADDRESS":"育樂街１９６號","OBJECTID":527336},"geometry":{"x":169479.06000000052,"y":2543815.0899999999}},{"attributes":{"ID":527364,"DIS_CODE":0,"TOWNNAME":"東區","LI":"成大里","LIN":"6鄰","STREET":"育樂街","SECT":" ","MAREA":" ","LANE":" ","ALLEY":" ","HOUSE_NO":"１９８號","E_COORD97":169478.91,"N_COORD97":2543810.5600000001,"ADDRESS":"育樂街１９８號","OBJECTID":527337},"geometry":{"x":169478.91000000108,"y":2543810.5599999987}},{"attributes":{"ID":527365,"DIS_CODE":0,"TOWNNAME":"東區","LI":"成大里","LIN":"6鄰","STREET":"育樂街","SECT":" ","MAREA":" ","LANE":" ","ALLEY":" ","HOUSE_NO":"２００號","E_COORD97":169478.91,"N_COORD97":2543805.7400000002,"ADDRESS":"育樂街２００號","OBJECTID":527338},"geometry":{"x":169478.91000000108,"y":2543805.7400000039}},{"attributes":{"ID":527366,"DIS_CODE":0,"TOWNNAME":"東區","LI":"成大里","LIN":"6鄰","STREET":"育樂街","SECT":" ","MAREA":" ","LANE":" ","ALLEY":" ","HOUSE_NO":"２０２號","E_COORD97":169478.91,"N_COORD97":2543801.3500000001,"ADDRESS":"育樂街２０２號","OBJECTID":527339},"geometry":{"x":169478.91000000108,"y":2543801.3500000034}},{"attributes":{"ID":527367,"DIS_CODE":0,"TOWNNAME":"東區","LI":"成大里","LIN":"6鄰","STREET":"育樂街","SECT":" ","MAREA":" ","LANE":" ","ALLEY":" ","HOUSE_NO":"２０４號","E_COORD97":169478.91,"N_COORD97":2543797.7000000002,"ADDRESS":"育樂街２０４號","OBJECTID":527340},"geometry":{"x":169478.91000000108,"y":2543797.6999999993}},{"attributes":{"ID":527368,"DIS_CODE":0,"TOWNNAME":"東區","LI":"成大里","LIN":"6鄰","STREET":"育樂街","SECT":" ","MAREA":" ","LANE":" ","ALLEY":" ","HOUSE_NO":"２０６號","E_COORD97":169478.62,"N_COORD97":2543794.48,"ADDRESS":"育樂街２０６號","OBJECTID":527341},"geometry":{"x":169478.62000000011,"y":2543794.4800000042}},{"attributes":{"ID":527369,"DIS_CODE":0,"TOWNNAME":"東區","LI":"成大里","LIN":"6鄰","STREET":"育樂街","SECT":" ","MAREA":" ","LANE":" ","ALLEY":" ","HOUSE_NO":"２０８號","E_COORD97":169478.35999999999,"N_COORD97":2543790.8599999999,"ADDRESS":"育樂街２０８號","OBJECTID":527342},"geometry":{"x":169478.36000000127,"y":2543790.8600000031}},{"attributes":{"ID":527370,"DIS_CODE":0,"TOWNNAME":"東區","LI":"成大里","LIN":"6鄰","STREET":"育樂街","SECT":" ","MAREA":" ","LANE":" ","ALLEY":" ","HOUSE_NO":"２１０號","E_COORD97":169478.35999999999,"N_COORD97":2543785.9100000001,"ADDRESS":"育樂街２１０號","OBJECTID":527343},"geometry":{"x":169478.36000000127,"y":2543785.910000002}},{"attributes":{"ID":527371,"DIS_CODE":0,"TOWNNAME":"東區","LI":"成大里","LIN":"6鄰","STREET":"育樂街","SECT":" ","MAREA":" ","LANE":" ","ALLEY":" ","HOUSE_NO":"２１２號","E_COORD97":169477.76999999999,"N_COORD97":2543779.96,"ADDRESS":"育樂街２１２號","OBJECTID":527344},"geometry":{"x":169477.77000000048,"y":2543779.9600000009}},{"attributes":{"ID":527372,"DIS_CODE":0,"TOWNNAME":"東區","LI":"成大里","LIN":"6鄰","STREET":"東寧路","SECT":"西段","MAREA":" ","LANE":" ","ALLEY":" ","HOUSE_NO":"１００號","E_COORD97":169444.03,"N_COORD97":2543811.5899999999,"ADDRESS":"東寧路西段１００號","OBJECTID":527345},"geometry":{"x":169444.03000000212,"y":2543811.5899999999}},{"attributes":{"ID":527373,"DIS_CODE":0,"TOWNNAME":"東區","LI":"成大里","LIN":"6鄰","STREET":"東寧路","SECT":"西段","MAREA":" ","LANE":" ","ALLEY":" ","HOUSE_NO":"１０４號","E_COORD97":169383.37,"N_COORD97":2543818.0600000001,"ADDRESS":"東寧路西段１０４號","OBJECTID":527346},"geometry":{"x":169383.37000000011,"y":2543818.0600000024}},{"attributes":{"ID":527374,"DIS_CODE":0,"TOWNNAME":"東區","LI":"成大里","LIN":"6鄰","STREET":"東寧路","SECT":"西段","MAREA":" ","LANE":" ","ALLEY":" ","HOUSE_NO":"１０６號","E_COORD97":169401.82999999999,"N_COORD97":2543813.9900000002,"ADDRESS":"東寧路西段１０６號","OBJECTID":527347},"geometry":{"x":169401.83000000101,"y":2543813.9900000002}},{"attributes":{"ID":527375,"DIS_CODE":0,"TOWNNAME":"下營區","LI":"下營里","LIN":"6鄰","STREET":"復興街","SECT":" ","MAREA":" ","LANE":" ","ALLEY":" ","HOUSE_NO":"１１８號","E_COORD97":174471.01000000001,"N_COORD97":2570379.8799999999,"ADDRESS":"復興街１１８號","OBJECTID":527348},"geometry":{"x":174471.00999999978,"y":2570379.879999999}},{"attributes":{"ID":527376,"DIS_CODE":0,"TOWNNAME":"下營區","LI":"下營里","LIN":"6鄰","STREET":"復興街","SECT":" ","MAREA":" ","LANE":" ","ALLEY":" ","HOUSE_NO":"９２號","E_COORD97":174512.14000000001,"N_COORD97":2570382.7000000002,"ADDRESS":"復興街９２號","OBJECTID":527349},"geometry":{"x":174512.1400000006,"y":2570382.7000000011}},{"attributes":{"ID":527377,"DIS_CODE":0,"TOWNNAME":"下營區","LI":"下營里","LIN":"6鄰","STREET":"復興街","SECT":" ","MAREA":" ","LANE":" ","ALLEY":" ","HOUSE_NO":"９６號","E_COORD97":174508.03,"N_COORD97":2570382.4900000002,"ADDRESS":"復興街９６號","OBJECTID":527350},"geometry":{"x":174508.03000000119,"y":2570382.4900000021}},{"attributes":{"ID":527378,"DIS_CODE":0,"TOWNNAME":"下營區","LI":"下營里","LIN":"6鄰","STREET":"復興街","SECT":" ","MAREA":" ","LANE":" ","ALLEY":" ","HOUSE_NO":"９８號","E_COORD97":174504.14999999999,"N_COORD97":2570382.25,"ADDRESS":"復興街９８號","OBJECTID":527351},"geometry":{"x":174504.1500000013,"y":2570382.25}},{"attributes":{"ID":527379,"DIS_CODE":0,"TOWNNAME":"下營區","LI":"新興里","LIN":"6鄰","STREET":"慈惠街","SECT":" ","MAREA":" ","LANE":" ","ALLEY":" ","HOUSE_NO":"２８號","E_COORD97":175147.04000000001,"N_COORD97":2570599.4300000002,"ADDRESS":"慈惠街２８號","OBJECTID":527352},"geometry":{"x":175147.04000000097,"y":2570599.4300000016}},{"attributes":{"ID":527380,"DIS_CODE":0,"TOWNNAME":"下營區","LI":"新興里","LIN":"6鄰","STREET":"慈惠街","SECT":" ","MAREA":" ","LANE":" ","ALLEY":" ","HOUSE_NO":"３０號","E_COORD97":175140.67000000001,"N_COORD97":2570600.0299999998,"ADDRESS":"慈惠街３０號","OBJECTID":527353},"geometry":{"x":175140.67000000086,"y":2570600.0299999993}},{"attributes":{"ID":527381,"DIS_CODE":0,"TOWNNAME":"下營區","LI":"新興里","LIN":"6鄰","STREET":"慈惠街","SECT":" ","MAREA":" ","LANE":" ","ALLEY":" ","HOUSE_NO":"３２號","E_COORD97":175136.32999999999,"N_COORD97":2570600.27,"ADDRESS":"慈惠街３２號","OBJECTID":527354},"geometry":{"x":175136.33000000101,"y":2570600.2700000014}},{"attributes":{"ID":527382,"DIS_CODE":0,"TOWNNAME":"下營區","LI":"新興里","LIN":"6鄰","STREET":"慈惠街","SECT":" ","MAREA":" ","LANE":" ","ALLEY":" ","HOUSE_NO":"３６號","E_COORD97":175131.89999999999,"N_COORD97":2570600.7200000002,"ADDRESS":"慈惠街３６號","OBJECTID":527355},"geometry":{"x":175131.90000000037,"y":2570600.7200000044}},{"attributes":{"ID":527383,"DIS_CODE":0,"TOWNNAME":"下營區","LI":"新興里","LIN":"6鄰","STREET":"慈惠街","SECT":" ","MAREA":" ","LANE":" ","ALLEY":" ","HOUSE_NO":"３８號","E_COORD97":175127.66,"N_COORD97":2570601.1499999999,"ADDRESS":"慈惠街３８號","OBJECTID":527356},"geometry":{"x":175127.66000000108,"y":2570601.1500000022}},{"attributes":{"ID":527384,"DIS_CODE":0,"TOWNNAME":"下營區","LI":"新興里","LIN":"6鄰","STREET":"慈惠街","SECT":" ","MAREA":" ","LANE":" ","ALLEY":" ","HOUSE_NO":"４０號","E_COORD97":175123.51999999999,"N_COORD97":2570601.5899999999,"ADDRESS":"慈惠街４０號","OBJECTID":527357},"geometry":{"x":175123.51999999955,"y":2570601.5900000017}},{"attributes":{"ID":527385,"DIS_CODE":0,"TOWNNAME":"新營區","LI":"民權里","LIN":"6鄰","STREET":"中山路","SECT":" ","MAREA":" ","LANE":" ","ALLEY":" ","HOUSE_NO":"２１２號","E_COORD97":179955.78,"N_COORD97":2578060.1800000002,"ADDRESS":"中山路２１２號","OBJECTID":527358},"geometry":{"x":179955.78000000026,"y":2578060.1800000016}},{"attributes":{"ID":527386,"DIS_CODE":0,"TOWNNAME":"新營區","LI":"延平里","LIN":"6鄰","STREET":"復興路","SECT":" ","MAREA":" ","LANE":" ","ALLEY":" ","HOUSE_NO":"１之１１９號","E_COORD97":179715.17999999999,"N_COORD97":2577935.1299999999,"ADDRESS":"復興路１之１１９號","OBJECTID":527359},"geometry":{"x":179715.1799999997,"y":2577935.129999999}},{"attributes":{"ID":527387,"DIS_CODE":0,"TOWNNAME":"新營區","LI":"延平里","LIN":"6鄰","STREET":"復興路","SECT":" ","MAREA":" ","LANE":" ","ALLEY":" ","HOUSE_NO":"１之４１號","E_COORD97":179675.04999999999,"N_COORD97":2577932,"ADDRESS":"復興路１之４１號","OBJECTID":527360},"geometry":{"x":179675.04999999981,"y":2577932.0000000019}},{"attributes":{"ID":527388,"DIS_CODE":0,"TOWNNAME":"新營區","LI":"中營里","LIN":"6鄰","STREET":"新進路","SECT":" ","MAREA":" ","LANE":" ","ALLEY":" ","HOUSE_NO":"６９之１０號","E_COORD97":180528.34,"N_COORD97":2578140.6099999999,"ADDRESS":"新進路６９之１０號","OBJECTID":527361},"geometry":{"x":180528.34000000078,"y":2578140.6100000013}},{"attributes":{"ID":527389,"DIS_CODE":0,"TOWNNAME":"新營區","LI":"王公里","LIN":"6鄰","STREET":"民治路","SECT":" ","MAREA":" ","LANE":" ","ALLEY":" ","HOUSE_NO":"６之１４號","E_COORD97":180587.16,"N_COORD97":2578954.2999999998,"ADDRESS":"民治路６之１４號","OBJECTID":527362},"geometry":{"x":180587.15999999922,"y":2578954.3000000045}},{"attributes":{"ID":527390,"DIS_CODE":0,"TOWNNAME":"新營區","LI":"中營里","LIN":"6鄰","STREET":"新進路","SECT":" ","MAREA":" ","LANE":" ","ALLEY":" ","HOUSE_NO":"６９之７號","E_COORD97":180538.47,"N_COORD97":2578168.2400000002,"ADDRESS":"新進路６９之７號","OBJECTID":527363},"geometry":{"x":180538.46999999974,"y":2578168.2400000021}},{"attributes":{"ID":527391,"DIS_CODE":0,"TOWNNAME":"新營區","LI":"新南里","LIN":"6鄰","STREET":"秦漢街","SECT":" ","MAREA":" ","LANE":" ","ALLEY":" ","HOUSE_NO":"７８號","E_COORD97":178462.54999999999,"N_COORD97":2578790.48,"ADDRESS":"秦漢街７８號","OBJECTID":527364},"geometry":{"x":178462.55000000075,"y":2578790.4800000023}},{"attributes":{"ID":527392,"DIS_CODE":0,"TOWNNAME":"新營區","LI":"中營里","LIN":"6鄰","STREET":"新進路","SECT":" ","MAREA":" ","LANE":" ","ALLEY":" ","HOUSE_NO":"２７號","E_COORD97":180654.35000000001,"N_COORD97":2578316.04,"ADDRESS":"新進路２７號","OBJECTID":527365},"geometry":{"x":180654.34999999963,"y":2578316.0399999991}},{"attributes":{"ID":527393,"DIS_CODE":0,"TOWNNAME":"新營區","LI":"新北里","LIN":"6鄰","STREET":"三興街","SECT":" ","MAREA":" ","LANE":" ","ALLEY":" ","HOUSE_NO":"１９７號","E_COORD97":179356.45999999999,"N_COORD97":2579597.96,"ADDRESS":"三興街１９７號","OBJECTID":527366},"geometry":{"x":179356.46000000089,"y":2579597.9600000028}},{"attributes":{"ID":527394,"DIS_CODE":0,"TOWNNAME":"安平區","LI":"文平里","LIN":"6鄰","STREET":"永華二街","SECT":" ","MAREA":" ","LANE":" ","ALLEY":" ","HOUSE_NO":"１３０號","E_COORD97":166381.25667599999,"N_COORD97":2543080.8494500001,"ADDRESS":"永華二街１３０號","OBJECTID":527367},"geometry":{"x":166381.25667599961,"y":2543080.8494500015}},{"attributes":{"ID":527395,"DIS_CODE":0,"TOWNNAME":"安平區","LI":"文平里","LIN":"6鄰","STREET":"永華二街","SECT":" ","MAREA":" ","LANE":" ","ALLEY":" ","HOUSE_NO":"１４０號","E_COORD97":166393.14000000001,"N_COORD97":2543119.8199999998,"ADDRESS":"永華二街１４０號","OBJECTID":527368},"geometry":{"x":166393.14000000153,"y":2543119.8200000003}},{"attributes":{"ID":527396,"DIS_CODE":0,"TOWNNAME":"安平區","LI":"文平里","LIN":"6鄰","STREET":"永華二街","SECT":" ","MAREA":" ","LANE":" ","ALLEY":" ","HOUSE_NO":"１５２號","E_COORD97":166395.73000000001,"N_COORD97":2543153,"ADDRESS":"永華二街１５２號","OBJECTID":527369},"geometry":{"x":166395.73000000138,"y":2543153.0000000037}},{"attributes":{"ID":527397,"DIS_CODE":0,"TOWNNAME":"安平區","LI":"文平里","LIN":"6鄰","STREET":"永華二街","SECT":" ","MAREA":" ","LANE":" ","ALLEY":" ","HOUSE_NO":"１５４號","E_COORD97":166397.94,"N_COORD97":2543159.2200000002,"ADDRESS":"永華二街１５４號","OBJECTID":527370},"geometry":{"x":166397.94000000041,"y":2543159.2200000025}},{"attributes":{"ID":527398,"DIS_CODE":0,"TOWNNAME":"安平區","LI":"文平里","LIN":"6鄰","STREET":"永華二街","SECT":" ","MAREA":" ","LANE":" ","ALLEY":" ","HOUSE_NO":"１７７號","E_COORD97":166363.37,"N_COORD97":2543190.3599999999,"ADDRESS":"永華二街１７７號","OBJECTID":527371},"geometry":{"x":166363.37000000104,"y":2543190.3599999975}},{"attributes":{"ID":527399,"DIS_CODE":0,"TOWNNAME":"安平區","LI":"文平里","LIN":"6鄰","STREET":"永華二街","SECT":" ","MAREA":" ","LANE":" ","ALLEY":" ","HOUSE_NO":"１７９號","E_COORD97":166363.95000000001,"N_COORD97":2543195.77,"ADDRESS":"永華二街１７９號","OBJECTID":527372},"geometry":{"x":166363.95000000019,"y":2543195.7700000014}},{"attributes":{"ID":527400,"DIS_CODE":0,"TOWNNAME":"安平區","LI":"文平里","LIN":"6鄰","STREET":"永華二街","SECT":" ","MAREA":" ","LANE":" ","ALLEY":" ","HOUSE_NO":"１８１號","E_COORD97":166364.89000000001,"N_COORD97":2543200.3300000001,"ADDRESS":"永華二街１８１號","OBJECTID":527373},"geometry":{"x":166364.8900000006,"y":2543200.3300000001}},{"attributes":{"ID":527401,"DIS_CODE":0,"TOWNNAME":"安平區","LI":"文平里","LIN":"6鄰","STREET":"永華二街","SECT":" ","MAREA":" ","LANE":" ","ALLEY":" ","HOUSE_NO":"１８３號","E_COORD97":166365.82000000001,"N_COORD97":2543205.2400000002,"ADDRESS":"永華二街１８３號","OBJECTID":527374},"geometry":{"x":166365.82000000123,"y":2543205.2400000002}},{"attributes":{"ID":527402,"DIS_CODE":0,"TOWNNAME":"安平區","LI":"文平里","LIN":"6鄰","STREET":"永華二街","SECT":" ","MAREA":" ","LANE":" ","ALLEY":" ","HOUSE_NO":"１８５號","E_COORD97":166366.17000000001,"N_COORD97":2543210.73,"ADDRESS":"永華二街１８５號","OBJECTID":527375},"geometry":{"x":166366.17000000086,"y":2543210.7300000023}},{"attributes":{"ID":527403,"DIS_CODE":0,"TOWNNAME":"安平區","LI":"文平里","LIN":"6鄰","STREET":"建平七街","SECT":" ","MAREA":" ","LANE":" ","ALLEY":" ","HOUSE_NO":"４７號","E_COORD97":166325.23000000001,"N_COORD97":2543212.3700000001,"ADDRESS":"建平七街４７號","OBJECTID":527376},"geometry":{"x":166325.23000000045,"y":2543212.3699999992}},{"attributes":{"ID":527404,"DIS_CODE":0,"TOWNNAME":"安平區","LI":"文平里","LIN":"6鄰","STREET":"建平七街","SECT":" ","MAREA":" ","LANE":" ","ALLEY":" ","HOUSE_NO":"４９號","E_COORD97":166320.79000000001,"N_COORD97":2543213.0699999998,"ADDRESS":"建平七街４９號","OBJECTID":527377},"geometry":{"x":166320.79000000004,"y":2543213.0700000003}},{"attributes":{"ID":527405,"DIS_CODE":0,"TOWNNAME":"安平區","LI":"文平里","LIN":"6鄰","STREET":"建平七街","SECT":" ","MAREA":" ","LANE":" ","ALLEY":" ","HOUSE_NO":"５１號","E_COORD97":166315.64000000001,"N_COORD97":2543213.54,"ADDRESS":"建平七街５１號","OBJECTID":527378},"geometry":{"x":166315.6400000006,"y":2543213.540000001}},{"attributes":{"ID":527406,"DIS_CODE":0,"TOWNNAME":"安平區","LI":"文平里","LIN":"6鄰","STREET":"建平七街","SECT":" ","MAREA":" ","LANE":" ","ALLEY":" ","HOUSE_NO":"５３號","E_COORD97":166311.07999999999,"N_COORD97":2543214.7000000002,"ADDRESS":"建平七街５３號","OBJECTID":527379},"geometry":{"x":166311.08000000101,"y":2543214.6999999993}},{"attributes":{"ID":527407,"DIS_CODE":0,"TOWNNAME":"安平區","LI":"文平里","LIN":"6鄰","STREET":"建平七街","SECT":" ","MAREA":" ","LANE":" ","ALLEY":" ","HOUSE_NO":"５５號","E_COORD97":166305.70000000001,"N_COORD97":2543215.52,"ADDRESS":"建平七街５５號","OBJECTID":527380},"geometry":{"x":166305.70000000112,"y":2543215.5199999996}},{"attributes":{"ID":527408,"DIS_CODE":0,"TOWNNAME":"安平區","LI":"文平里","LIN":"6鄰","STREET":"建平七街","SECT":" ","MAREA":" ","LANE":" ","ALLEY":" ","HOUSE_NO":"５７號","E_COORD97":166300.78,"N_COORD97":2543215.7599999998,"ADDRESS":"建平七街５７號","OBJECTID":527381},"geometry":{"x":166300.78000000026,"y":2543215.7600000016}},{"attributes":{"ID":527409,"DIS_CODE":0,"TOWNNAME":"安平區","LI":"文平里","LIN":"6鄰","STREET":"建平七街","SECT":" ","MAREA":" ","LANE":" ","ALLEY":" ","HOUSE_NO":"５９號","E_COORD97":166295.98999999999,"N_COORD97":2543216.3399999999,"ADDRESS":"建平七街５９號","OBJECTID":527382},"geometry":{"x":166295.99000000022,"y":2543216.3400000017}},{"attributes":{"ID":527410,"DIS_CODE":0,"TOWNNAME":"安平區","LI":"億載里","LIN":"6鄰","STREET":"永華十一街","SECT":" ","MAREA":" ","LANE":" ","ALLEY":" ","HOUSE_NO":"１２６號","E_COORD97":164088.17999999999,"N_COORD97":2543721.1400000001,"ADDRESS":"永華十一街１２６號","OBJECTID":527383},"geometry":{"x":164088.18000000063,"y":2543721.1400000006}},{"attributes":{"ID":527411,"DIS_CODE":0,"TOWNNAME":"安平區","LI":"建平里","LIN":"6鄰","STREET":"慶平路","SECT":" ","MAREA":" ","LANE":" ","ALLEY":" ","HOUSE_NO":"１６０之３號","E_COORD97":165988.95000000001,"N_COORD97":2544214.5099999998,"ADDRESS":"慶平路１６０之３號","OBJECTID":527384},"geometry":{"x":165988.95000000019,"y":2544214.5100000016}},{"attributes":{"ID":527412,"DIS_CODE":0,"TOWNNAME":"安平區","LI":"文平里","LIN":"6鄰","STREET":"永華二街","SECT":" ","MAREA":" ","LANE":" ","ALLEY":" ","HOUSE_NO":"１４１號","E_COORD97":166356.56,"N_COORD97":2543137.4900000002,"ADDRESS":"永華二街１４１號","OBJECTID":527385},"geometry":{"x":166356.56000000052,"y":2543137.4900000021}},{"attributes":{"ID":527413,"DIS_CODE":0,"TOWNNAME":"安平區","LI":"文平里","LIN":"6鄰","STREET":"永華二街","SECT":" ","MAREA":" ","LANE":" ","ALLEY":" ","HOUSE_NO":"１５０號","E_COORD97":166396.01999999999,"N_COORD97":2543146.1000000001,"ADDRESS":"永華二街１５０號","OBJECTID":527386},"geometry":{"x":166396.02000000048,"y":2543146.1000000015}},{"attributes":{"ID":527414,"DIS_CODE":0,"TOWNNAME":"安平區","LI":"漁光里","LIN":"6鄰","STREET":"漁光路","SECT":" ","MAREA":" ","LANE":" ","ALLEY":" ","HOUSE_NO":"１４３之３號","E_COORD97":163803.45999999999,"N_COORD97":2542000.4100000001,"ADDRESS":"漁光路１４３之３號","OBJECTID":527387},"geometry":{"x":163803.46000000089,"y":2542000.4100000001}},{"attributes":{"ID":527415,"DIS_CODE":0,"TOWNNAME":"安平區","LI":"金城里","LIN":"6鄰","STREET":"同平路","SECT":" ","MAREA":" ","LANE":" ","ALLEY":" ","HOUSE_NO":"１５１之１號","E_COORD97":163156.92000000001,"N_COORD97":2543969.3500000001,"ADDRESS":"同平路１５１之１號","OBJECTID":527388},"geometry":{"x":163156.91999999899,"y":2543969.3499999996}},{"attributes":{"ID":527416,"DIS_CODE":0,"TOWNNAME":"安平區","LI":"漁光里","LIN":"6鄰","STREET":"漁光路","SECT":" ","MAREA":" ","LANE":" ","ALLEY":" ","HOUSE_NO":"５６號之１","E_COORD97":163886.28,"N_COORD97":2542029.9500000002,"ADDRESS":"漁光路５６號之１","OBJECTID":527389},"geometry":{"x":163886.28000000119,"y":2542029.9499999993}},{"attributes":{"ID":527417,"DIS_CODE":0,"TOWNNAME":"新營區","LI":"護鎮里","LIN":"6鄰","STREET":"建國路","SECT":" ","MAREA":" ","LANE":" ","ALLEY":" ","HOUSE_NO":"３４２號","E_COORD97":179056.67000000001,"N_COORD97":2581046.8399999999,"ADDRESS":"建國路３４２號","OBJECTID":527390},"geometry":{"x":179056.67000000086,"y":2581046.8399999999}},{"attributes":{"ID":527418,"DIS_CODE":0,"TOWNNAME":"新營區","LI":"三仙里","LIN":"6鄰","STREET":"復興路","SECT":" ","MAREA":" ","LANE":" ","ALLEY":" ","HOUSE_NO":"９４號","E_COORD97":179521.70000000001,"N_COORD97":2578052.27,"ADDRESS":"復興路９４號","OBJECTID":527391},"geometry":{"x":179521.70000000019,"y":2578052.2700000014}},{"attributes":{"ID":527419,"DIS_CODE":0,"TOWNNAME":"新營區","LI":"民榮里","LIN":"6鄰","STREET":"濟安街","SECT":" ","MAREA":" ","LANE":" ","ALLEY":" ","HOUSE_NO":"４１號","E_COORD97":179352.45999999999,"N_COORD97":2577930.1499999999,"ADDRESS":"濟安街４１號","OBJECTID":527392},"geometry":{"x":179352.45999999996,"y":2577930.1500000004}},{"attributes":{"ID":527420,"DIS_CODE":0,"TOWNNAME":"新營區","LI":"護鎮里","LIN":"6鄰","STREET":"建國路","SECT":" ","MAREA":" ","LANE":" ","ALLEY":" ","HOUSE_NO":"３５０號","E_COORD97":179030.12,"N_COORD97":2581054.7200000002,"ADDRESS":"建國路３５０號","OBJECTID":527393},"geometry":{"x":179030.12000000104,"y":2581054.7200000025}},{"attributes":{"ID":527421,"DIS_CODE":0,"TOWNNAME":"新營區","LI":"三仙里","LIN":"6鄰","STREET":"復興路","SECT":" ","MAREA":" ","LANE":" ","ALLEY":" ","HOUSE_NO":"９４號之１","E_COORD97":179520.76999999999,"N_COORD97":2578052.3300000001,"ADDRESS":"復興路９４號之１","OBJECTID":527394},"geometry":{"x":179520.76999999955,"y":2578052.3300000019}},{"attributes":{"ID":527422,"DIS_CODE":0,"TOWNNAME":"新營區","LI":"好平里","LIN":"6鄰","STREET":"長春街","SECT":" ","MAREA":" ","LANE":" ","ALLEY":" ","HOUSE_NO":"１４１號","E_COORD97":179447.13,"N_COORD97":2577804.5600000001,"ADDRESS":"長春街１４１號","OBJECTID":527395},"geometry":{"x":179447.13000000082,"y":2577804.5600000005}},{"attributes":{"ID":527423,"DIS_CODE":0,"TOWNNAME":"新營區","LI":"中營里","LIN":"6鄰","STREET":"新進路","SECT":" ","MAREA":" ","LANE":" ","ALLEY":" ","HOUSE_NO":"２５號","E_COORD97":180658.47,"N_COORD97":2578320.4500000002,"ADDRESS":"新進路２５號","OBJECTID":527396},"geometry":{"x":180658.46999999974,"y":2578320.4499999993}},{"attributes":{"ID":527424,"DIS_CODE":0,"TOWNNAME":"新營區","LI":"民權里","LIN":"6鄰","STREET":"中山路","SECT":" ","MAREA":" ","LANE":" ","ALLEY":" ","HOUSE_NO":"２６４號","E_COORD97":179867.48999999999,"N_COORD97":2577993.04,"ADDRESS":"中山路２６４號","OBJECTID":527397},"geometry":{"x":179867.49000000022,"y":2577993.0399999991}},{"attributes":{"ID":527425,"DIS_CODE":0,"TOWNNAME":"新營區","LI":"民生里","LIN":"6鄰","STREET":"民生路","SECT":" ","MAREA":" ","LANE":" ","ALLEY":" ","HOUSE_NO":"４０號","E_COORD97":179351.09,"N_COORD97":2578287.8599999999,"ADDRESS":"民生路４０號","OBJECTID":527398},"geometry":{"x":179351.08999999985,"y":2578287.8600000031}},{"attributes":{"ID":527426,"DIS_CODE":0,"TOWNNAME":"六甲區","LI":"水林里","LIN":"6鄰","STREET":"中山路","SECT":" ","MAREA":" ","LANE":" ","ALLEY":" ","HOUSE_NO":"２９０號","E_COORD97":182992.73000000001,"N_COORD97":2570159.3199999998,"ADDRESS":"中山路２９０號","OBJECTID":527399},"geometry":{"x":182992.73000000138,"y":2570159.3200000022}},{"attributes":{"ID":527427,"DIS_CODE":0,"TOWNNAME":"六甲區","LI":"水林里","LIN":"6鄰","STREET":"中山路","SECT":" ","MAREA":" ","LANE":" ","ALLEY":" ","HOUSE_NO":"２９２號","E_COORD97":182988.19,"N_COORD97":2570160.7000000002,"ADDRESS":"中山路２９２號","OBJECTID":527400},"geometry":{"x":182988.19000000134,"y":2570160.6999999993}}]}