{"displayFieldName":"TOWNNAME","fieldAliases":{"ID":"ID","DIS_CODE":"DIS_CODE","TOWNNAME":"TOWNNAME","LI":"LI","LIN":"LIN","STREET":"STREET","SECT":"SECT","MAREA":"MAREA","LANE":"LANE","ALLEY":"ALLEY","HOUSE_NO":"HOUSE_NO","E_COORD97":"E_COORD97","N_COORD97":"N_COORD97","ADDRESS":"ADDRESS","OBJECTID":"OBJECTID"},"geometryType":"esriGeometryPoint","spatialReference":{"wkid":102443,"latestWkid":3826},"fields":[{"name":"ID","type":"esriFieldTypeDouble","alias":"ID"},{"name":"DIS_CODE","type":"esriFieldTypeInteger","alias":"DIS_CODE"},{"name":"TOWNNAME","type":"esriFieldTypeString","alias":"TOWNNAME","length":8},{"name":"LI","type":"esriFieldTypeString","alias":"LI","length":8},{"name":"LIN","type":"esriFieldTypeString","alias":"LIN","length":12},{"name":"STREET","type":"esriFieldTypeString","alias":"STREET","length":20},{"name":"SECT","type":"esriFieldTypeString","alias":"SECT","length":8},{"name":"MAREA","type":"esriFieldTypeString","alias":"MAREA","length":12},{"name":"LANE","type":"esriFieldTypeString","alias":"LANE","length":10},{"name":"ALLEY","type":"esriFieldTypeString","alias":"ALLEY","length":10},{"name":"HOUSE_NO","type":"esriFieldTypeString","alias":"HOUSE_NO","length":20},{"name":"E_COORD97","type":"esriFieldTypeDouble","alias":"E_COORD97"},{"name":"N_COORD97","type":"esriFieldTypeDouble","alias":"N_COORD97"},{"name":"ADDRESS","type":"esriFieldTypeString","alias":"ADDRESS","length":50},{"name":"OBJECTID","type":"esriFieldTypeOID","alias":"OBJECTID"}],"features":[{"attributes":{"ID":98001,"DIS_CODE":0,"TOWNNAME":"南區","LI":"大忠里","LIN":"21鄰","STREET":"中華南路","SECT":"一段","MAREA":" ","LANE":"１２５巷","ALLEY":"２２弄","HOUSE_NO":"１４號","E_COORD97":169174.79000000001,"N_COORD97":2541172.29,"ADDRESS":"中華南路一段１２５巷２２弄１４號","OBJECTID":98001},"geometry":{"x":169174.79000000097,"y":2541172.2899999991}},{"attributes":{"ID":98002,"DIS_CODE":0,"TOWNNAME":"安平區","LI":"國平里","LIN":"1鄰","STREET":"華平路","SECT":" ","MAREA":" ","LANE":" ","ALLEY":" ","HOUSE_NO":"２０４號","E_COORD97":165413.92999999999,"N_COORD97":2543372.48,"ADDRESS":"華平路２０４號","OBJECTID":98002},"geometry":{"x":165413.9299999997,"y":2543372.4800000004}},{"attributes":{"ID":98003,"DIS_CODE":0,"TOWNNAME":"南區","LI":"大忠里","LIN":"21鄰","STREET":"中華南路","SECT":"一段","MAREA":" ","LANE":"１２５巷","ALLEY":"２２弄","HOUSE_NO":"１號","E_COORD97":169205.17999999999,"N_COORD97":2541156.9900000002,"ADDRESS":"中華南路一段１２５巷２２弄１號","OBJECTID":98003},"geometry":{"x":169205.18000000156,"y":2541156.9900000021}},{"attributes":{"ID":98004,"DIS_CODE":0,"TOWNNAME":"南區","LI":"大忠里","LIN":"21鄰","STREET":"中華南路","SECT":"一段","MAREA":" ","LANE":"１２５巷","ALLEY":"２２弄","HOUSE_NO":"２號","E_COORD97":169202.67000000001,"N_COORD97":2541176.04,"ADDRESS":"中華南路一段１２５巷２２弄２號","OBJECTID":98004},"geometry":{"x":169202.67000000086,"y":2541176.040000001}},{"attributes":{"ID":98005,"DIS_CODE":0,"TOWNNAME":"南區","LI":"大忠里","LIN":"21鄰","STREET":"中華南路","SECT":"一段","MAREA":" ","LANE":"１２５巷","ALLEY":"２２弄","HOUSE_NO":"３號","E_COORD97":169200.48000000001,"N_COORD97":2541156.3599999999,"ADDRESS":"中華南路一段１２５巷２２弄３號","OBJECTID":98005},"geometry":{"x":169200.48000000231,"y":2541156.3600000031}},{"attributes":{"ID":98006,"DIS_CODE":0,"TOWNNAME":"南區","LI":"大忠里","LIN":"21鄰","STREET":"中華南路","SECT":"一段","MAREA":" ","LANE":"１２５巷","ALLEY":"２２弄","HOUSE_NO":"４號","E_COORD97":169198.29000000001,"N_COORD97":2541175.73,"ADDRESS":"中華南路一段１２５巷２２弄４號","OBJECTID":98006},"geometry":{"x":169198.29000000097,"y":2541175.7300000023}},{"attributes":{"ID":98007,"DIS_CODE":0,"TOWNNAME":"南區","LI":"大忠里","LIN":"21鄰","STREET":"中華南路","SECT":"一段","MAREA":" ","LANE":"１２５巷","ALLEY":"２２弄","HOUSE_NO":"５號","E_COORD97":169195.78,"N_COORD97":2541155.7400000002,"ADDRESS":"中華南路一段１２５巷２２弄５號","OBJECTID":98007},"geometry":{"x":169195.78000000026,"y":2541155.7400000021}},{"attributes":{"ID":98008,"DIS_CODE":0,"TOWNNAME":"南區","LI":"大忠里","LIN":"21鄰","STREET":"中華南路","SECT":"一段","MAREA":" ","LANE":"１２５巷","ALLEY":"２２弄","HOUSE_NO":"６號","E_COORD97":169193.26999999999,"N_COORD97":2541175.4199999999,"ADDRESS":"中華南路一段１２５巷２２弄６號","OBJECTID":98008},"geometry":{"x":169193.27000000048,"y":2541175.4199999999}},{"attributes":{"ID":98009,"DIS_CODE":0,"TOWNNAME":"南區","LI":"大忠里","LIN":"21鄰","STREET":"中華南路","SECT":"一段","MAREA":" ","LANE":"１２５巷","ALLEY":"２２弄","HOUSE_NO":"７號","E_COORD97":169191.39000000001,"N_COORD97":2541155.4300000002,"ADDRESS":"中華南路一段１２５巷２２弄７號","OBJECTID":98009},"geometry":{"x":169191.38999999966,"y":2541155.4299999997}},{"attributes":{"ID":98010,"DIS_CODE":0,"TOWNNAME":"新化區","LI":"全興里","LIN":"14鄰","STREET":" ","SECT":" ","MAREA":"竹子\u25A0","LANE":" ","ALLEY":" ","HOUSE_NO":"２４７號之３０２","E_COORD97":178116.69,"N_COORD97":2546725.2599999998,"ADDRESS":"竹子\u25A0２４７號之３０２","OBJECTID":98010},"geometry":{"x":178116.69000000041,"y":2546725.2600000016}},{"attributes":{"ID":98011,"DIS_CODE":0,"TOWNNAME":"南區","LI":"大忠里","LIN":"21鄰","STREET":"中華南路","SECT":"一段","MAREA":" ","LANE":"１２５巷","ALLEY":"２２弄","HOUSE_NO":"８號","E_COORD97":169188.89000000001,"N_COORD97":2541174.48,"ADDRESS":"中華南路一段１２５巷２２弄８號","OBJECTID":98011},"geometry":{"x":169188.8900000006,"y":2541174.4800000023}},{"attributes":{"ID":98012,"DIS_CODE":0,"TOWNNAME":"南區","LI":"大忠里","LIN":"21鄰","STREET":"中華南路","SECT":"一段","MAREA":" ","LANE":"１２５巷","ALLEY":"２５弄","HOUSE_NO":"４號","E_COORD97":169220.85000000001,"N_COORD97":2541160.7400000002,"ADDRESS":"中華南路一段１２５巷２５弄４號","OBJECTID":98012},"geometry":{"x":169220.85000000149,"y":2541160.7400000002}},{"attributes":{"ID":98013,"DIS_CODE":0,"TOWNNAME":"新化區","LI":"豐榮里","LIN":"8鄰","STREET":" ","SECT":" ","MAREA":"洋子","LANE":" ","ALLEY":" ","HOUSE_NO":"１１號","E_COORD97":178214.23000000001,"N_COORD97":2548316.25,"ADDRESS":"洋子１１號","OBJECTID":98013},"geometry":{"x":178214.23000000138,"y":2548316.2500000019}},{"attributes":{"ID":98014,"DIS_CODE":0,"TOWNNAME":"南區","LI":"大忠里","LIN":"21鄰","STREET":"中華南路","SECT":"一段","MAREA":" ","LANE":"１２５巷","ALLEY":"２５弄","HOUSE_NO":"５號","E_COORD97":169223.35000000001,"N_COORD97":2541180.4199999999,"ADDRESS":"中華南路一段１２５巷２５弄５號","OBJECTID":98014},"geometry":{"x":169223.35000000056,"y":2541180.4200000037}},{"attributes":{"ID":98015,"DIS_CODE":0,"TOWNNAME":"將軍區","LI":"將富里","LIN":"10鄰","STREET":" ","SECT":" ","MAREA":"將榮","LANE":" ","ALLEY":" ","HOUSE_NO":"５３之５號","E_COORD97":162055.69,"N_COORD97":2568606.23,"ADDRESS":"將榮５３之５號","OBJECTID":98015},"geometry":{"x":162055.69000000134,"y":2568606.2300000004}},{"attributes":{"ID":98016,"DIS_CODE":0,"TOWNNAME":"將軍區","LI":"將富里","LIN":"10鄰","STREET":" ","SECT":" ","MAREA":"將榮","LANE":" ","ALLEY":" ","HOUSE_NO":"５３之６號","E_COORD97":162051.92999999999,"N_COORD97":2568603.0600000001,"ADDRESS":"將榮５３之６號","OBJECTID":98016},"geometry":{"x":162051.93000000063,"y":2568603.0600000005}},{"attributes":{"ID":98017,"DIS_CODE":0,"TOWNNAME":"新化區","LI":"知義里","LIN":"4鄰","STREET":" ","SECT":" ","MAREA":"知母義","LANE":" ","ALLEY":" ","HOUSE_NO":"１１０號之１","E_COORD97":179865.95000000001,"N_COORD97":2547060.2599999998,"ADDRESS":"知母義１１０號之１","OBJECTID":98017},"geometry":{"x":179865.95000000019,"y":2547060.2600000035}},{"attributes":{"ID":98018,"DIS_CODE":0,"TOWNNAME":"新化區","LI":"知義里","LIN":"1鄰","STREET":" ","SECT":" ","MAREA":"知母義","LANE":" ","ALLEY":" ","HOUSE_NO":"２７號之１","E_COORD97":179629.70000000001,"N_COORD97":2547068.2599999998,"ADDRESS":"知母義２７號之１","OBJECTID":98018},"geometry":{"x":179629.70000000112,"y":2547068.2600000016}},{"attributes":{"ID":98019,"DIS_CODE":0,"TOWNNAME":"新化區","LI":"知義里","LIN":" ","STREET":" ","SECT":" ","MAREA":"新和庄","LANE":" ","ALLEY":" ","HOUSE_NO":"１９號之８","E_COORD97":181352.39000000001,"N_COORD97":2546809.2599999998,"ADDRESS":"新和庄１９號之８","OBJECTID":98019},"geometry":{"x":181352.38999999966,"y":2546809.2600000035}},{"attributes":{"ID":98020,"DIS_CODE":0,"TOWNNAME":"將軍區","LI":"將富里","LIN":"10鄰","STREET":" ","SECT":" ","MAREA":"將榮","LANE":" ","ALLEY":" ","HOUSE_NO":"５３之７號","E_COORD97":162048.16,"N_COORD97":2568602.3100000001,"ADDRESS":"將榮５３之７號","OBJECTID":98020},"geometry":{"x":162048.16000000015,"y":2568602.3100000005}},{"attributes":{"ID":98021,"DIS_CODE":0,"TOWNNAME":"南區","LI":"大忠里","LIN":"21鄰","STREET":"中華南路","SECT":"一段","MAREA":" ","LANE":"１２５巷","ALLEY":"２５弄","HOUSE_NO":"６號","E_COORD97":169225.85999999999,"N_COORD97":2541161.0499999998,"ADDRESS":"中華南路一段１２５巷２５弄６號","OBJECTID":98021},"geometry":{"x":169225.86000000034,"y":2541161.0500000026}},{"attributes":{"ID":98022,"DIS_CODE":0,"TOWNNAME":"南區","LI":"大忠里","LIN":"21鄰","STREET":"中華南路","SECT":"一段","MAREA":" ","LANE":"１２５巷","ALLEY":"２５弄","HOUSE_NO":"７號","E_COORD97":169228.20999999999,"N_COORD97":2541181.0800000001,"ADDRESS":"中華南路一段１２５巷２５弄７號","OBJECTID":98022},"geometry":{"x":169228.20999999996,"y":2541181.0800000001}},{"attributes":{"ID":98023,"DIS_CODE":0,"TOWNNAME":"南區","LI":"大忠里","LIN":"21鄰","STREET":"中華南路","SECT":"一段","MAREA":" ","LANE":"１２５巷","ALLEY":"２５弄","HOUSE_NO":"８號","E_COORD97":169231.04000000001,"N_COORD97":2541161.4900000002,"ADDRESS":"中華南路一段１２５巷２５弄８號","OBJECTID":98023},"geometry":{"x":169231.04000000004,"y":2541161.4900000002}},{"attributes":{"ID":98024,"DIS_CODE":0,"TOWNNAME":"南區","LI":"大忠里","LIN":"21鄰","STREET":"中華南路","SECT":"一段","MAREA":" ","LANE":"１２５巷","ALLEY":"２５弄","HOUSE_NO":"９號","E_COORD97":169233.48999999999,"N_COORD97":2541181.8700000001,"ADDRESS":"中華南路一段１２５巷２５弄９號","OBJECTID":98024},"geometry":{"x":169233.49000000022,"y":2541181.8700000048}},{"attributes":{"ID":98025,"DIS_CODE":0,"TOWNNAME":"歸仁區","LI":"看西里","LIN":"21鄰","STREET":"成功七街","SECT":" ","MAREA":" ","LANE":"７９巷","ALLEY":"２６弄","HOUSE_NO":"２２號","E_COORD97":178191.35999999999,"N_COORD97":2539742.3599999999,"ADDRESS":"成功七街７９巷２６弄２２號","OBJECTID":98025},"geometry":{"x":178191.36000000127,"y":2539742.3599999975}},{"attributes":{"ID":98026,"DIS_CODE":0,"TOWNNAME":"歸仁區","LI":"看西里","LIN":"21鄰","STREET":"成功七街","SECT":" ","MAREA":" ","LANE":"７９巷","ALLEY":"２６弄","HOUSE_NO":"２０號","E_COORD97":178206.76000000001,"N_COORD97":2539745.3599999999,"ADDRESS":"成功七街７９巷２６弄２０號","OBJECTID":98026},"geometry":{"x":178206.76000000071,"y":2539745.3599999994}},{"attributes":{"ID":98027,"DIS_CODE":0,"TOWNNAME":"北區","LI":"大豐里","LIN":"21鄰","STREET":"大興街","SECT":" ","MAREA":" ","LANE":"２８５巷","ALLEY":"２６弄","HOUSE_NO":"５號","E_COORD97":166675.92000000001,"N_COORD97":2545587.3799999999,"ADDRESS":"大興街２８５巷２６弄５號","OBJECTID":98027},"geometry":{"x":166675.91999999993,"y":2545587.3800000008}},{"attributes":{"ID":98028,"DIS_CODE":0,"TOWNNAME":"安平區","LI":"平安里","LIN":"21鄰","STREET":"民權路","SECT":"四段","MAREA":" ","LANE":"４４１巷","ALLEY":"２弄","HOUSE_NO":"２號","E_COORD97":165292.38,"N_COORD97":2544454.4100000001,"ADDRESS":"民權路四段４４１巷２弄２號","OBJECTID":98028},"geometry":{"x":165292.37999999989,"y":2544454.4100000001}},{"attributes":{"ID":98029,"DIS_CODE":0,"TOWNNAME":"安平區","LI":"國平里","LIN":"1鄰","STREET":"華平路","SECT":" ","MAREA":" ","LANE":" ","ALLEY":" ","HOUSE_NO":"２００號","E_COORD97":165412.69,"N_COORD97":2543363.1800000002,"ADDRESS":"華平路２００號","OBJECTID":98029},"geometry":{"x":165412.69000000134,"y":2543363.1800000016}},{"attributes":{"ID":98030,"DIS_CODE":0,"TOWNNAME":"將軍區","LI":"將富里","LIN":"10鄰","STREET":" ","SECT":" ","MAREA":"將榮","LANE":" ","ALLEY":" ","HOUSE_NO":"５３之８號","E_COORD97":162043.85999999999,"N_COORD97":2568598.73,"ADDRESS":"將榮５３之８號","OBJECTID":98030},"geometry":{"x":162043.86000000034,"y":2568598.7300000004}},{"attributes":{"ID":98031,"DIS_CODE":0,"TOWNNAME":"安平區","LI":"國平里","LIN":"1鄰","STREET":"華平路","SECT":" ","MAREA":" ","LANE":" ","ALLEY":" ","HOUSE_NO":"２０２號","E_COORD97":165413.31,"N_COORD97":2543368.4500000002,"ADDRESS":"華平路２０２號","OBJECTID":98031},"geometry":{"x":165413.30999999959,"y":2543368.4499999993}},{"attributes":{"ID":98032,"DIS_CODE":0,"TOWNNAME":"將軍區","LI":"將富里","LIN":"10鄰","STREET":" ","SECT":" ","MAREA":"將榮","LANE":" ","ALLEY":" ","HOUSE_NO":"５４之１號","E_COORD97":162025.09,"N_COORD97":2568593.7599999998,"ADDRESS":"將榮５４之１號","OBJECTID":98032},"geometry":{"x":162025.09000000171,"y":2568593.7600000016}},{"attributes":{"ID":98033,"DIS_CODE":0,"TOWNNAME":"將軍區","LI":"將富里","LIN":"10鄰","STREET":" ","SECT":" ","MAREA":"將榮","LANE":" ","ALLEY":" ","HOUSE_NO":"５４號","E_COORD97":162029.39999999999,"N_COORD97":2568595.21,"ADDRESS":"將榮５４號","OBJECTID":98033},"geometry":{"x":162029.4000000013,"y":2568595.2100000028}},{"attributes":{"ID":98034,"DIS_CODE":0,"TOWNNAME":"將軍區","LI":"將富里","LIN":"10鄰","STREET":" ","SECT":" ","MAREA":"將榮","LANE":" ","ALLEY":" ","HOUSE_NO":"５６號","E_COORD97":162020.75,"N_COORD97":2568621.4399999999,"ADDRESS":"將榮５６號","OBJECTID":98034},"geometry":{"x":162020.75000000186,"y":2568621.4400000032}},{"attributes":{"ID":98035,"DIS_CODE":0,"TOWNNAME":"將軍區","LI":"將富里","LIN":"10鄰","STREET":" ","SECT":" ","MAREA":"將榮","LANE":" ","ALLEY":" ","HOUSE_NO":"５８之１號","E_COORD97":161949.76000000001,"N_COORD97":2568617.2999999998,"ADDRESS":"將榮５８之１號","OBJECTID":98035},"geometry":{"x":161949.76000000071,"y":2568617.3000000026}},{"attributes":{"ID":98036,"DIS_CODE":0,"TOWNNAME":"將軍區","LI":"將富里","LIN":"10鄰","STREET":" ","SECT":" ","MAREA":"將榮","LANE":" ","ALLEY":" ","HOUSE_NO":"５８號","E_COORD97":161975.72,"N_COORD97":2568581.04,"ADDRESS":"將榮５８號","OBJECTID":98036},"geometry":{"x":161975.72000000067,"y":2568581.040000001}},{"attributes":{"ID":98037,"DIS_CODE":0,"TOWNNAME":"將軍區","LI":"將富里","LIN":"10鄰","STREET":" ","SECT":" ","MAREA":"將榮","LANE":" ","ALLEY":" ","HOUSE_NO":"５９號","E_COORD97":161980.14000000001,"N_COORD97":2568582.0699999998,"ADDRESS":"將榮５９號","OBJECTID":98037},"geometry":{"x":161980.13999999966,"y":2568582.0700000022}},{"attributes":{"ID":98038,"DIS_CODE":0,"TOWNNAME":"將軍區","LI":"將富里","LIN":"10鄰","STREET":" ","SECT":" ","MAREA":"將榮","LANE":" ","ALLEY":" ","HOUSE_NO":"６０號","E_COORD97":161947.89999999999,"N_COORD97":2568600.4500000002,"ADDRESS":"將榮６０號","OBJECTID":98038},"geometry":{"x":161947.9000000013,"y":2568600.4499999974}},{"attributes":{"ID":98039,"DIS_CODE":0,"TOWNNAME":"將軍區","LI":"將富里","LIN":"10鄰","STREET":" ","SECT":" ","MAREA":"將榮","LANE":" ","ALLEY":" ","HOUSE_NO":"６１之１號","E_COORD97":161937.69,"N_COORD97":2568565.5600000001,"ADDRESS":"將榮６１之１號","OBJECTID":98039},"geometry":{"x":161937.69000000134,"y":2568565.5600000024}},{"attributes":{"ID":98040,"DIS_CODE":0,"TOWNNAME":"將軍區","LI":"將富里","LIN":"10鄰","STREET":" ","SECT":" ","MAREA":"將榮","LANE":" ","ALLEY":" ","HOUSE_NO":"６１之３號","E_COORD97":161928.92000000001,"N_COORD97":2568562.8900000001,"ADDRESS":"將榮６１之３號","OBJECTID":98040},"geometry":{"x":161928.91999999993,"y":2568562.8900000025}},{"attributes":{"ID":98041,"DIS_CODE":0,"TOWNNAME":"將軍區","LI":"將富里","LIN":"10鄰","STREET":" ","SECT":" ","MAREA":"將榮","LANE":" ","ALLEY":" ","HOUSE_NO":"６１之４號","E_COORD97":161923.87,"N_COORD97":2568564.4900000002,"ADDRESS":"將榮６１之４號","OBJECTID":98041},"geometry":{"x":161923.87000000104,"y":2568564.4900000021}},{"attributes":{"ID":98042,"DIS_CODE":0,"TOWNNAME":"安平區","LI":"國平里","LIN":"1鄰","STREET":"華平路","SECT":" ","MAREA":" ","LANE":" ","ALLEY":" ","HOUSE_NO":"２０６號","E_COORD97":165414.56,"N_COORD97":2543377.29,"ADDRESS":"華平路２０６號","OBJECTID":98042},"geometry":{"x":165414.55999999959,"y":2543377.2900000028}},{"attributes":{"ID":98043,"DIS_CODE":0,"TOWNNAME":"安平區","LI":"國平里","LIN":"1鄰","STREET":"華平路","SECT":" ","MAREA":" ","LANE":" ","ALLEY":" ","HOUSE_NO":"２０８號","E_COORD97":165415.48999999999,"N_COORD97":2543381.7799999998,"ADDRESS":"華平路２０８號","OBJECTID":98043},"geometry":{"x":165415.49000000115,"y":2543381.7800000012}},{"attributes":{"ID":98044,"DIS_CODE":0,"TOWNNAME":"安平區","LI":"國平里","LIN":"1鄰","STREET":"華平路","SECT":" ","MAREA":" ","LANE":" ","ALLEY":" ","HOUSE_NO":"２１０號","E_COORD97":165416.10999999999,"N_COORD97":2543385.6600000001,"ADDRESS":"華平路２１０號","OBJECTID":98044},"geometry":{"x":165416.11000000127,"y":2543385.6599999983}},{"attributes":{"ID":98045,"DIS_CODE":0,"TOWNNAME":"安平區","LI":"國平里","LIN":"1鄰","STREET":"華平路","SECT":" ","MAREA":" ","LANE":" ","ALLEY":" ","HOUSE_NO":"２１２號","E_COORD97":165416.26000000001,"N_COORD97":2543389.3799999999,"ADDRESS":"華平路２１２號","OBJECTID":98045},"geometry":{"x":165416.26000000071,"y":2543389.379999999}},{"attributes":{"ID":98046,"DIS_CODE":0,"TOWNNAME":"安平區","LI":"怡平里","LIN":"1鄰","STREET":"慶平路","SECT":" ","MAREA":" ","LANE":" ","ALLEY":" ","HOUSE_NO":"２０４號","E_COORD97":165790.04000000001,"N_COORD97":2544196.4900000002,"ADDRESS":"慶平路２０４號","OBJECTID":98046},"geometry":{"x":165790.04000000004,"y":2544196.4900000002}},{"attributes":{"ID":98047,"DIS_CODE":0,"TOWNNAME":"玉井區","LI":"三和里","LIN":"1鄰","STREET":" ","SECT":" ","MAREA":"三和","LANE":" ","ALLEY":" ","HOUSE_NO":"７號","E_COORD97":194469.09,"N_COORD97":2557065.2400000002,"ADDRESS":"三和７號","OBJECTID":98047},"geometry":{"x":194469.08999999985,"y":2557065.2400000002}},{"attributes":{"ID":98048,"DIS_CODE":0,"TOWNNAME":"安平區","LI":"平安里","LIN":"21鄰","STREET":"民權路","SECT":"四段","MAREA":" ","LANE":"４４１巷","ALLEY":"２弄","HOUSE_NO":"６號","E_COORD97":165283.10999999999,"N_COORD97":2544458.3300000001,"ADDRESS":"民權路四段４４１巷２弄６號","OBJECTID":98048},"geometry":{"x":165283.11000000034,"y":2544458.3300000001}},{"attributes":{"ID":98049,"DIS_CODE":0,"TOWNNAME":"安平區","LI":"平安里","LIN":"21鄰","STREET":"民權路","SECT":"四段","MAREA":" ","LANE":"４４１巷","ALLEY":"２弄","HOUSE_NO":"８號","E_COORD97":165271.59,"N_COORD97":2544464.77,"ADDRESS":"民權路四段４４１巷２弄８號","OBJECTID":98049},"geometry":{"x":165271.59000000078,"y":2544464.7699999996}},{"attributes":{"ID":98050,"DIS_CODE":0,"TOWNNAME":"安平區","LI":"平安里","LIN":"21鄰","STREET":"民權路","SECT":"四段","MAREA":" ","LANE":"４４１巷","ALLEY":"２弄","HOUSE_NO":"１０號","E_COORD97":165260.32000000001,"N_COORD97":2544469.29,"ADDRESS":"民權路四段４４１巷２弄１０號","OBJECTID":98050},"geometry":{"x":165260.32000000123,"y":2544469.290000001}},{"attributes":{"ID":98051,"DIS_CODE":0,"TOWNNAME":"安平區","LI":"平安里","LIN":"21鄰","STREET":"民權路","SECT":"四段","MAREA":" ","LANE":"４４１巷","ALLEY":"２弄","HOUSE_NO":"１２號","E_COORD97":165245.38,"N_COORD97":2544474.4300000002,"ADDRESS":"民權路四段４４１巷２弄１２號","OBJECTID":98051},"geometry":{"x":165245.37999999989,"y":2544474.4299999997}},{"attributes":{"ID":98052,"DIS_CODE":0,"TOWNNAME":"永康區","LI":"\u25A0行里","LIN":"21鄰","STREET":"正南五街","SECT":" ","MAREA":" ","LANE":"３２７巷","ALLEY":"１１弄","HOUSE_NO":"１１號","E_COORD97":171770.57999999999,"N_COORD97":2548529.29,"ADDRESS":"正南五街３２７巷１１弄１１號","OBJECTID":98052},"geometry":{"x":171770.58000000007,"y":2548529.2899999991}},{"attributes":{"ID":98053,"DIS_CODE":0,"TOWNNAME":"永康區","LI":"\u25A0行里","LIN":"21鄰","STREET":"正南五街","SECT":" ","MAREA":" ","LANE":"３２７巷","ALLEY":"１１弄","HOUSE_NO":"１０號","E_COORD97":171744.32000000001,"N_COORD97":2548518.7799999998,"ADDRESS":"正南五街３２７巷１１弄１０號","OBJECTID":98053},"geometry":{"x":171744.32000000216,"y":2548518.7800000012}},{"attributes":{"ID":98054,"DIS_CODE":0,"TOWNNAME":"玉井區","LI":"沙田里","LIN":"1鄰","STREET":" ","SECT":" ","MAREA":"沙田","LANE":" ","ALLEY":" ","HOUSE_NO":"７號","E_COORD97":195692.32000000001,"N_COORD97":2556694.29,"ADDRESS":"沙田７號","OBJECTID":98054},"geometry":{"x":195692.32000000123,"y":2556694.2899999991}},{"attributes":{"ID":98055,"DIS_CODE":0,"TOWNNAME":"玉井區","LI":"望明里","LIN":"1鄰","STREET":" ","SECT":" ","MAREA":"望明","LANE":" ","ALLEY":" ","HOUSE_NO":"９號","E_COORD97":194411.39000000001,"N_COORD97":2556167.25,"ADDRESS":"望明９號","OBJECTID":98055},"geometry":{"x":194411.3900000006,"y":2556167.2500000019}},{"attributes":{"ID":98056,"DIS_CODE":0,"TOWNNAME":"學甲區","LI":"豐和里","LIN":"1鄰","STREET":" ","SECT":" ","MAREA":"美豐","LANE":" ","ALLEY":" ","HOUSE_NO":"１號","E_COORD97":168123.14999999999,"N_COORD97":2569012.1200000001,"ADDRESS":"美豐１號","OBJECTID":98056},"geometry":{"x":168123.1500000013,"y":2569012.1200000029}},{"attributes":{"ID":98057,"DIS_CODE":0,"TOWNNAME":"學甲區","LI":"新榮里","LIN":"1鄰","STREET":" ","SECT":" ","MAREA":"東寮","LANE":" ","ALLEY":" ","HOUSE_NO":"３號之１","E_COORD97":166615.70000000001,"N_COORD97":2569589.0499999998,"ADDRESS":"東寮３號之１","OBJECTID":98057},"geometry":{"x":166615.70000000112,"y":2569589.0500000026}},{"attributes":{"ID":98058,"DIS_CODE":0,"TOWNNAME":"將軍區","LI":"將富里","LIN":"10鄰","STREET":" ","SECT":" ","MAREA":"將榮","LANE":" ","ALLEY":" ","HOUSE_NO":"６１之５號","E_COORD97":161919.35999999999,"N_COORD97":2568563.5600000001,"ADDRESS":"將榮６１之５號","OBJECTID":98058},"geometry":{"x":161919.36000000127,"y":2568563.5600000005}},{"attributes":{"ID":98059,"DIS_CODE":0,"TOWNNAME":"將軍區","LI":"將富里","LIN":"10鄰","STREET":" ","SECT":" ","MAREA":"將榮","LANE":" ","ALLEY":" ","HOUSE_NO":"６１號","E_COORD97":161942.23999999999,"N_COORD97":2568566.9700000002,"ADDRESS":"將榮６１號","OBJECTID":98059},"geometry":{"x":161942.24000000115,"y":2568566.9700000007}},{"attributes":{"ID":98060,"DIS_CODE":0,"TOWNNAME":"將軍區","LI":"將富里","LIN":"10鄰","STREET":" ","SECT":" ","MAREA":"將榮","LANE":" ","ALLEY":" ","HOUSE_NO":"６２之１號","E_COORD97":161908.67000000001,"N_COORD97":2568573.98,"ADDRESS":"將榮６２之１號","OBJECTID":98060},"geometry":{"x":161908.66999999993,"y":2568573.9800000004}},{"attributes":{"ID":98061,"DIS_CODE":0,"TOWNNAME":"將軍區","LI":"廣山里","LIN":"10鄰","STREET":" ","SECT":" ","MAREA":"廣山","LANE":" ","ALLEY":" ","HOUSE_NO":"８７之１號","E_COORD97":159534.14000000001,"N_COORD97":2568866.0099999998,"ADDRESS":"廣山８７之１號","OBJECTID":98061},"geometry":{"x":159534.13999999966,"y":2568866.0100000016}},{"attributes":{"ID":98062,"DIS_CODE":0,"TOWNNAME":"永康區","LI":"大橋里","LIN":"21鄰","STREET":"大橋一街","SECT":" ","MAREA":" ","LANE":"２２３巷","ALLEY":"３弄","HOUSE_NO":"２８之３號","E_COORD97":171145,"N_COORD97":2546670.0499999998,"ADDRESS":"大橋一街２２３巷３弄２８之３號","OBJECTID":98062},"geometry":{"x":171145.00000000093,"y":2546670.0500000026}},{"attributes":{"ID":98063,"DIS_CODE":0,"TOWNNAME":"永康區","LI":"大橋里","LIN":"21鄰","STREET":"大橋一街","SECT":" ","MAREA":" ","LANE":"２２３巷","ALLEY":"３弄","HOUSE_NO":"３０之２號","E_COORD97":171136.81,"N_COORD97":2546658.4900000002,"ADDRESS":"大橋一街２２３巷３弄３０之２號","OBJECTID":98063},"geometry":{"x":171136.81000000052,"y":2546658.4900000002}},{"attributes":{"ID":98064,"DIS_CODE":0,"TOWNNAME":"將軍區","LI":"廣山里","LIN":"10鄰","STREET":" ","SECT":" ","MAREA":"廣山","LANE":" ","ALLEY":" ","HOUSE_NO":"８７號","E_COORD97":159523.62,"N_COORD97":2568892.79,"ADDRESS":"廣山８７號","OBJECTID":98064},"geometry":{"x":159523.62000000104,"y":2568892.7899999991}},{"attributes":{"ID":98065,"DIS_CODE":0,"TOWNNAME":"將軍區","LI":"廣山里","LIN":"10鄰","STREET":" ","SECT":" ","MAREA":"廣山","LANE":" ","ALLEY":" ","HOUSE_NO":"８８之１號","E_COORD97":159489.20000000001,"N_COORD97":2568904.2999999998,"ADDRESS":"廣山８８之１號","OBJECTID":98065},"geometry":{"x":159489.20000000112,"y":2568904.3000000007}},{"attributes":{"ID":98066,"DIS_CODE":0,"TOWNNAME":"永康區","LI":"大橋里","LIN":"21鄰","STREET":"大橋一街","SECT":" ","MAREA":" ","LANE":"２２３巷","ALLEY":"３弄","HOUSE_NO":"２８之２號","E_COORD97":171151.42999999999,"N_COORD97":2546668.2200000002,"ADDRESS":"大橋一街２２３巷３弄２８之２號","OBJECTID":98066},"geometry":{"x":171151.43000000063,"y":2546668.2200000044}},{"attributes":{"ID":98067,"DIS_CODE":0,"TOWNNAME":"永康區","LI":"大橋里","LIN":"21鄰","STREET":"大橋一街","SECT":" ","MAREA":" ","LANE":"２２３巷","ALLEY":"３弄","HOUSE_NO":"３０之３號","E_COORD97":171133.95000000001,"N_COORD97":2546662.8700000001,"ADDRESS":"大橋一街２２３巷３弄３０之３號","OBJECTID":98067},"geometry":{"x":171133.95000000019,"y":2546662.870000001}},{"attributes":{"ID":98068,"DIS_CODE":0,"TOWNNAME":"楠西區","LI":"東勢里","LIN":"1鄰","STREET":"水庫路","SECT":" ","MAREA":" ","LANE":" ","ALLEY":" ","HOUSE_NO":"９９號","E_COORD97":197780.32000000001,"N_COORD97":2564479.25,"ADDRESS":"水庫路９９號","OBJECTID":98068},"geometry":{"x":197780.3200000003,"y":2564479.25}},{"attributes":{"ID":98069,"DIS_CODE":0,"TOWNNAME":"將軍區","LI":"廣山里","LIN":"10鄰","STREET":" ","SECT":" ","MAREA":"廣山","LANE":" ","ALLEY":" ","HOUSE_NO":"８８號","E_COORD97":159503.87,"N_COORD97":2568907.5800000001,"ADDRESS":"廣山８８號","OBJECTID":98069},"geometry":{"x":159503.87000000011,"y":2568907.5800000001}},{"attributes":{"ID":98070,"DIS_CODE":0,"TOWNNAME":"將軍區","LI":"廣山里","LIN":"10鄰","STREET":" ","SECT":" ","MAREA":"廣山","LANE":" ","ALLEY":" ","HOUSE_NO":"９７之１號","E_COORD97":159550.14999999999,"N_COORD97":2568966.8900000001,"ADDRESS":"廣山９７之１號","OBJECTID":98070},"geometry":{"x":159550.14999999944,"y":2568966.8900000025}},{"attributes":{"ID":98071,"DIS_CODE":0,"TOWNNAME":"歸仁區","LI":"沙崙里","LIN":"1鄰","STREET":" ","SECT":" ","MAREA":"二甲","LANE":" ","ALLEY":" ","HOUSE_NO":"１５６號","E_COORD97":178752.76999999999,"N_COORD97":2539561.25,"ADDRESS":"二甲１５６號","OBJECTID":98071},"geometry":{"x":178752.76999999955,"y":2539561.2500000019}},{"attributes":{"ID":98072,"DIS_CODE":0,"TOWNNAME":"將軍區","LI":"廣山里","LIN":"10鄰","STREET":" ","SECT":" ","MAREA":"廣山","LANE":" ","ALLEY":" ","HOUSE_NO":"９７號","E_COORD97":159556.44,"N_COORD97":2568993.8500000001,"ADDRESS":"廣山９７號","OBJECTID":98072},"geometry":{"x":159556.44000000041,"y":2568993.8499999996}},{"attributes":{"ID":98073,"DIS_CODE":0,"TOWNNAME":"將軍區","LI":"廣山里","LIN":"10鄰","STREET":" ","SECT":" ","MAREA":"廣山","LANE":" ","ALLEY":" ","HOUSE_NO":"９８號","E_COORD97":159564.59,"N_COORD97":2568995.0800000001,"ADDRESS":"廣山９８號","OBJECTID":98073},"geometry":{"x":159564.58999999985,"y":2568995.0800000019}},{"attributes":{"ID":98074,"DIS_CODE":0,"TOWNNAME":"永康區","LI":"\u25A0行里","LIN":"21鄰","STREET":"正南五街","SECT":" ","MAREA":" ","LANE":"３２７巷","ALLEY":"１１弄","HOUSE_NO":"１８號","E_COORD97":171755.45000000001,"N_COORD97":2548507.6499999999,"ADDRESS":"正南五街３２７巷１１弄１８號","OBJECTID":98074},"geometry":{"x":171755.45000000112,"y":2548507.6500000004}},{"attributes":{"ID":98075,"DIS_CODE":0,"TOWNNAME":"永康區","LI":"\u25A0行里","LIN":"21鄰","STREET":"正南五街","SECT":" ","MAREA":" ","LANE":"３２７巷","ALLEY":"１１弄","HOUSE_NO":"６號","E_COORD97":171737.07999999999,"N_COORD97":2548526.02,"ADDRESS":"正南五街３２７巷１１弄６號","OBJECTID":98075},"geometry":{"x":171737.08000000194,"y":2548526.0200000033}},{"attributes":{"ID":98076,"DIS_CODE":0,"TOWNNAME":"將軍區","LI":"廣山里","LIN":"10鄰","STREET":" ","SECT":" ","MAREA":"廣山","LANE":" ","ALLEY":" ","HOUSE_NO":"９９號","E_COORD97":159464.64999999999,"N_COORD97":2568979.7000000002,"ADDRESS":"廣山９９號","OBJECTID":98076},"geometry":{"x":159464.6500000013,"y":2568979.7000000011}},{"attributes":{"ID":98077,"DIS_CODE":0,"TOWNNAME":"將軍區","LI":"鯤溟里","LIN":"10鄰","STREET":" ","SECT":" ","MAREA":"鯤溟","LANE":" ","ALLEY":" ","HOUSE_NO":"７５號","E_COORD97":156553.31,"N_COORD97":2565462.5899999999,"ADDRESS":"鯤溟７５號","OBJECTID":98077},"geometry":{"x":156553.31000000052,"y":2565462.5899999999}},{"attributes":{"ID":98078,"DIS_CODE":0,"TOWNNAME":"永康區","LI":"大橋里","LIN":"21鄰","STREET":"大橋一街","SECT":" ","MAREA":" ","LANE":"２２３巷","ALLEY":"３弄","HOUSE_NO":"２８號","E_COORD97":171157.82999999999,"N_COORD97":2546656.8599999999,"ADDRESS":"大橋一街２２３巷３弄２８號","OBJECTID":98078},"geometry":{"x":171157.83000000101,"y":2546656.8600000013}},{"attributes":{"ID":98079,"DIS_CODE":0,"TOWNNAME":"永康區","LI":"\u25A0行里","LIN":"21鄰","STREET":"正南五街","SECT":" ","MAREA":" ","LANE":"３２７巷","ALLEY":"１１弄","HOUSE_NO":"１９號","E_COORD97":171783.29999999999,"N_COORD97":2548517.4700000002,"ADDRESS":"正南五街３２７巷１１弄１９號","OBJECTID":98079},"geometry":{"x":171783.30000000075,"y":2548517.4700000044}},{"attributes":{"ID":98080,"DIS_CODE":0,"TOWNNAME":"永康區","LI":"\u25A0行里","LIN":"21鄰","STREET":"正南五街","SECT":" ","MAREA":" ","LANE":"３２７巷","ALLEY":"１１弄","HOUSE_NO":"１５號","E_COORD97":171776.48999999999,"N_COORD97":2548523.04,"ADDRESS":"正南五街３２７巷１１弄１５號","OBJECTID":98080},"geometry":{"x":171776.49000000022,"y":2548523.040000001}},{"attributes":{"ID":98081,"DIS_CODE":0,"TOWNNAME":"永康區","LI":"\u25A0行里","LIN":"21鄰","STREET":"正南五街","SECT":" ","MAREA":" ","LANE":"３２７巷","ALLEY":"１１弄","HOUSE_NO":"３號","E_COORD97":171758.76000000001,"N_COORD97":2548541.79,"ADDRESS":"正南五街３２７巷１１弄３號","OBJECTID":98081},"geometry":{"x":171758.75999999978,"y":2548541.790000001}},{"attributes":{"ID":98082,"DIS_CODE":0,"TOWNNAME":"永康區","LI":"\u25A0行里","LIN":"21鄰","STREET":"正南五街","SECT":" ","MAREA":" ","LANE":"３２７巷","ALLEY":"１１弄","HOUSE_NO":"７號","E_COORD97":171765.06,"N_COORD97":2548536.8399999999,"ADDRESS":"正南五街３２７巷１１弄７號","OBJECTID":98082},"geometry":{"x":171765.05999999959,"y":2548536.8399999999}},{"attributes":{"ID":98083,"DIS_CODE":0,"TOWNNAME":"永康區","LI":"\u25A0行里","LIN":"21鄰","STREET":"正南五街","SECT":" ","MAREA":" ","LANE":"３２７巷","ALLEY":"１１弄","HOUSE_NO":"５號","E_COORD97":171761.91,"N_COORD97":2548540.1800000002,"ADDRESS":"正南五街３２７巷１１弄５號","OBJECTID":98083},"geometry":{"x":171761.91000000015,"y":2548540.1800000016}},{"attributes":{"ID":98084,"DIS_CODE":0,"TOWNNAME":"永康區","LI":"\u25A0行里","LIN":"21鄰","STREET":"正南五街","SECT":" ","MAREA":" ","LANE":"３２７巷","ALLEY":"１１弄","HOUSE_NO":"２號","E_COORD97":171733.48000000001,"N_COORD97":2548529.6299999999,"ADDRESS":"正南五街３２７巷１１弄２號","OBJECTID":98084},"geometry":{"x":171733.48000000138,"y":2548529.6300000008}},{"attributes":{"ID":98085,"DIS_CODE":0,"TOWNNAME":"永康區","LI":"大橋里","LIN":"21鄰","STREET":"大橋一街","SECT":" ","MAREA":" ","LANE":"２２３巷","ALLEY":"３弄","HOUSE_NO":"３０號","E_COORD97":171140.79999999999,"N_COORD97":2546646,"ADDRESS":"大橋一街２２３巷３弄３０號","OBJECTID":98085},"geometry":{"x":171140.80000000075,"y":2546646.0000000019}},{"attributes":{"ID":98086,"DIS_CODE":0,"TOWNNAME":"龍崎區","LI":"龍船里","LIN":"10鄰","STREET":" ","SECT":" ","MAREA":"埤子","LANE":" ","ALLEY":" ","HOUSE_NO":"１６號","E_COORD97":190596.87,"N_COORD97":2538750.25,"ADDRESS":"埤子１６號","OBJECTID":98086},"geometry":{"x":190596.87000000011,"y":2538750.2499999981}},{"attributes":{"ID":98087,"DIS_CODE":0,"TOWNNAME":"永康區","LI":"大橋里","LIN":"21鄰","STREET":"大橋一街","SECT":" ","MAREA":" ","LANE":"２２３巷","ALLEY":"３弄","HOUSE_NO":"２８之６號","E_COORD97":171140.48000000001,"N_COORD97":2546679.3799999999,"ADDRESS":"大橋一街２２３巷３弄２８之６號","OBJECTID":98087},"geometry":{"x":171140.48000000138,"y":2546679.3800000008}},{"attributes":{"ID":98088,"DIS_CODE":0,"TOWNNAME":"永康區","LI":"\u25A0行里","LIN":"21鄰","STREET":"正南五街","SECT":" ","MAREA":" ","LANE":"３２７巷","ALLEY":"１１弄","HOUSE_NO":"９號","E_COORD97":171767.62,"N_COORD97":2548532.4100000001,"ADDRESS":"正南五街３２７巷１１弄９號","OBJECTID":98088},"geometry":{"x":171767.62000000104,"y":2548532.410000002}},{"attributes":{"ID":98089,"DIS_CODE":0,"TOWNNAME":"永康區","LI":"\u25A0行里","LIN":"21鄰","STREET":"正南五街","SECT":" ","MAREA":" ","LANE":"３２７巷","ALLEY":"１１弄","HOUSE_NO":"８號","E_COORD97":171740.69,"N_COORD97":2548522.4199999999,"ADDRESS":"正南五街３２７巷１１弄８號","OBJECTID":98089},"geometry":{"x":171740.69000000134,"y":2548522.4199999999}},{"attributes":{"ID":98090,"DIS_CODE":0,"TOWNNAME":"永康區","LI":"\u25A0行里","LIN":"21鄰","STREET":"正南五街","SECT":" ","MAREA":" ","LANE":"３２７巷","ALLEY":"１１弄","HOUSE_NO":"２０號","E_COORD97":171763.13,"N_COORD97":2548503.4399999999,"ADDRESS":"正南五街３２７巷１１弄２０號","OBJECTID":98090},"geometry":{"x":171763.12999999989,"y":2548503.4400000013}},{"attributes":{"ID":98091,"DIS_CODE":0,"TOWNNAME":"永康區","LI":"大橋里","LIN":"21鄰","STREET":"大橋一街","SECT":" ","MAREA":" ","LANE":"２２３巷","ALLEY":"３弄","HOUSE_NO":"３０之１號","E_COORD97":171139.69,"N_COORD97":2546654.0800000001,"ADDRESS":"大橋一街２２３巷３弄３０之１號","OBJECTID":98091},"geometry":{"x":171139.69000000041,"y":2546654.0800000001}},{"attributes":{"ID":98092,"DIS_CODE":0,"TOWNNAME":"將軍區","LI":"鯤溟里","LIN":"10鄰","STREET":" ","SECT":" ","MAREA":"鯤溟","LANE":" ","ALLEY":" ","HOUSE_NO":"７６號","E_COORD97":156556.25,"N_COORD97":2565445.1000000001,"ADDRESS":"鯤溟７６號","OBJECTID":98092},"geometry":{"x":156556.25000000093,"y":2565445.1000000015}},{"attributes":{"ID":98093,"DIS_CODE":0,"TOWNNAME":"將軍區","LI":"鯤溟里","LIN":"10鄰","STREET":" ","SECT":" ","MAREA":"鯤溟","LANE":" ","ALLEY":" ","HOUSE_NO":"７７號","E_COORD97":156506.45000000001,"N_COORD97":2565436.1400000001,"ADDRESS":"鯤溟７７號","OBJECTID":98093},"geometry":{"x":156506.45000000019,"y":2565436.1400000006}},{"attributes":{"ID":98094,"DIS_CODE":0,"TOWNNAME":"將軍區","LI":"鯤溟里","LIN":"10鄰","STREET":" ","SECT":" ","MAREA":"鯤溟","LANE":" ","ALLEY":" ","HOUSE_NO":"７８號","E_COORD97":156541.73000000001,"N_COORD97":2565420.2200000002,"ADDRESS":"鯤溟７８號","OBJECTID":98094},"geometry":{"x":156541.73000000045,"y":2565420.2200000044}},{"attributes":{"ID":98095,"DIS_CODE":0,"TOWNNAME":"永康區","LI":"\u25A0行里","LIN":"21鄰","STREET":"正南五街","SECT":" ","MAREA":" ","LANE":"３２７巷","ALLEY":"１１弄","HOUSE_NO":"１２號","E_COORD97":171748,"N_COORD97":2548515.1000000001,"ADDRESS":"正南五街３２７巷１１弄１２號","OBJECTID":98095},"geometry":{"x":171748.00000000093,"y":2548515.0999999996}},{"attributes":{"ID":98096,"DIS_CODE":0,"TOWNNAME":"永康區","LI":"大橋里","LIN":"21鄰","STREET":"大橋一街","SECT":" ","MAREA":" ","LANE":"２２３巷","ALLEY":"３弄","HOUSE_NO":"３０之５號","E_COORD97":171124.32999999999,"N_COORD97":2546669.6000000001,"ADDRESS":"大橋一街２２３巷３弄３０之５號","OBJECTID":98096},"geometry":{"x":171124.33000000007,"y":2546669.5999999996}},{"attributes":{"ID":98097,"DIS_CODE":0,"TOWNNAME":"永康區","LI":"\u25A0行里","LIN":"21鄰","STREET":"正南五街","SECT":" ","MAREA":" ","LANE":"３２７巷","ALLEY":"１１弄","HOUSE_NO":"２３號","E_COORD97":171785.87,"N_COORD97":2548507.3999999999,"ADDRESS":"正南五街３２７巷１１弄２３號","OBJECTID":98097},"geometry":{"x":171785.87000000011,"y":2548507.4000000041}},{"attributes":{"ID":98098,"DIS_CODE":0,"TOWNNAME":"北區","LI":"正風里","LIN":"1鄰","STREET":"公園路","SECT":" ","MAREA":" ","LANE":" ","ALLEY":" ","HOUSE_NO":"８７２號","E_COORD97":169301.53,"N_COORD97":2546059.4100000001,"ADDRESS":"公園路８７２號","OBJECTID":98098},"geometry":{"x":169301.53000000026,"y":2546059.4100000039}},{"attributes":{"ID":98099,"DIS_CODE":0,"TOWNNAME":"北區","LI":"正風里","LIN":"1鄰","STREET":"公園路","SECT":" ","MAREA":" ","LANE":" ","ALLEY":" ","HOUSE_NO":"８７６號","E_COORD97":169304.64000000001,"N_COORD97":2546063.4300000002,"ADDRESS":"公園路８７６號","OBJECTID":98099},"geometry":{"x":169304.63999999966,"y":2546063.4300000016}},{"attributes":{"ID":98100,"DIS_CODE":0,"TOWNNAME":"將軍區","LI":"鯤溟里","LIN":"10鄰","STREET":" ","SECT":" ","MAREA":"鯤溟","LANE":" ","ALLEY":" ","HOUSE_NO":"７９號","E_COORD97":156541.54999999999,"N_COORD97":2565444.7599999998,"ADDRESS":"鯤溟７９號","OBJECTID":98100},"geometry":{"x":156541.55000000075,"y":2565444.7599999998}},{"attributes":{"ID":98101,"DIS_CODE":0,"TOWNNAME":"將軍區","LI":"鯤溟里","LIN":"10鄰","STREET":" ","SECT":" ","MAREA":"鯤溟","LANE":" ","ALLEY":" ","HOUSE_NO":"８０號","E_COORD97":156537.12,"N_COORD97":2565455.1499999999,"ADDRESS":"鯤溟８０號","OBJECTID":98101},"geometry":{"x":156537.12000000011,"y":2565455.1500000022}},{"attributes":{"ID":98102,"DIS_CODE":0,"TOWNNAME":"將軍區","LI":"鯤鯓里","LIN":"10鄰","STREET":" ","SECT":" ","MAREA":"鯤鯓","LANE":" ","ALLEY":" ","HOUSE_NO":"８５之１號","E_COORD97":156593.88,"N_COORD97":2565553.3500000001,"ADDRESS":"鯤鯓８５之１號","OBJECTID":98102},"geometry":{"x":156593.88000000082,"y":2565553.3499999996}},{"attributes":{"ID":98103,"DIS_CODE":0,"TOWNNAME":"將軍區","LI":"鯤鯓里","LIN":"10鄰","STREET":" ","SECT":" ","MAREA":"鯤鯓","LANE":" ","ALLEY":" ","HOUSE_NO":"８５號","E_COORD97":156599,"N_COORD97":2565552.3999999999,"ADDRESS":"鯤鯓８５號","OBJECTID":98103},"geometry":{"x":156599,"y":2565552.4000000022}},{"attributes":{"ID":98104,"DIS_CODE":0,"TOWNNAME":"楠西區","LI":"鹿田里","LIN":"1鄰","STREET":" ","SECT":" ","MAREA":"鹿陶洋","LANE":" ","ALLEY":" ","HOUSE_NO":"３號之６","E_COORD97":197336.51000000001,"N_COORD97":2561025.2999999998,"ADDRESS":"鹿陶洋３號之６","OBJECTID":98104},"geometry":{"x":197336.51000000071,"y":2561025.3000000007}},{"attributes":{"ID":98105,"DIS_CODE":0,"TOWNNAME":"楠西區","LI":"鹿田里","LIN":"1鄰","STREET":" ","SECT":" ","MAREA":"鹿陶洋","LANE":" ","ALLEY":" ","HOUSE_NO":"３號","E_COORD97":197331.37,"N_COORD97":2560997.25,"ADDRESS":"鹿陶洋３號","OBJECTID":98105},"geometry":{"x":197331.37000000104,"y":2560997.25}},{"attributes":{"ID":98106,"DIS_CODE":0,"TOWNNAME":"楠西區","LI":"鹿田里","LIN":"1鄰","STREET":" ","SECT":" ","MAREA":"鹿陶洋","LANE":" ","ALLEY":" ","HOUSE_NO":"１號之１","E_COORD97":197047.5,"N_COORD97":2560163.2999999998,"ADDRESS":"鹿陶洋１號之１","OBJECTID":98106},"geometry":{"x":197047.50000000093,"y":2560163.3000000007}},{"attributes":{"ID":98107,"DIS_CODE":0,"TOWNNAME":"新營區","LI":"埤寮里","LIN":"1鄰","STREET":" ","SECT":" ","MAREA":"許丑","LANE":" ","ALLEY":" ","HOUSE_NO":"３號","E_COORD97":180063.26000000001,"N_COORD97":2580984.4399999999,"ADDRESS":"許丑３號","OBJECTID":98107},"geometry":{"x":180063.25999999978,"y":2580984.4399999995}},{"attributes":{"ID":98108,"DIS_CODE":0,"TOWNNAME":"新營區","LI":"五興里","LIN":"1鄰","STREET":" ","SECT":" ","MAREA":"五間厝","LANE":" ","ALLEY":" ","HOUSE_NO":"１４號","E_COORD97":175834.69,"N_COORD97":2574880.7799999998,"ADDRESS":"五間厝１４號","OBJECTID":98108},"geometry":{"x":175834.69000000134,"y":2574880.7800000031}},{"attributes":{"ID":98109,"DIS_CODE":0,"TOWNNAME":"將軍區","LI":"鯤鯓里","LIN":"10鄰","STREET":" ","SECT":" ","MAREA":"鯤鯓","LANE":" ","ALLEY":" ","HOUSE_NO":"８６號","E_COORD97":156602.83339000001,"N_COORD97":2565564.1722900001,"ADDRESS":"鯤鯓８６號","OBJECTID":98109},"geometry":{"x":156602.83339000028,"y":2565564.1722920015}},{"attributes":{"ID":98110,"DIS_CODE":0,"TOWNNAME":"將軍區","LI":"鯤鯓里","LIN":"10鄰","STREET":" ","SECT":" ","MAREA":"鯤鯓","LANE":" ","ALLEY":" ","HOUSE_NO":"８７號","E_COORD97":156604.21013799999,"N_COORD97":2565579.30645,"ADDRESS":"鯤鯓８７號","OBJECTID":98110},"geometry":{"x":156604.21013800055,"y":2565579.3064510021}},{"attributes":{"ID":98111,"DIS_CODE":0,"TOWNNAME":"將軍區","LI":"鯤鯓里","LIN":"10鄰","STREET":" ","SECT":" ","MAREA":"鯤鯓","LANE":" ","ALLEY":" ","HOUSE_NO":"８８號","E_COORD97":156615.44,"N_COORD97":2565584.48,"ADDRESS":"鯤鯓８８號","OBJECTID":98111},"geometry":{"x":156615.44000000041,"y":2565584.4800000042}},{"attributes":{"ID":98112,"DIS_CODE":0,"TOWNNAME":"將軍區","LI":"鯤鯓里","LIN":"10鄰","STREET":" ","SECT":" ","MAREA":"鯤鯓","LANE":" ","ALLEY":" ","HOUSE_NO":"８９號","E_COORD97":156622.07000000001,"N_COORD97":2565583.71,"ADDRESS":"鯤鯓８９號","OBJECTID":98112},"geometry":{"x":156622.07000000123,"y":2565583.7100000028}},{"attributes":{"ID":98113,"DIS_CODE":0,"TOWNNAME":"永康區","LI":"\u25A0行里","LIN":"21鄰","STREET":"正南五街","SECT":" ","MAREA":" ","LANE":"３２７巷","ALLEY":"１１弄","HOUSE_NO":"２１號","E_COORD97":171782.01999999999,"N_COORD97":2548510.7400000002,"ADDRESS":"正南五街３２７巷１１弄２１號","OBJECTID":98113},"geometry":{"x":171782.01999999955,"y":2548510.7400000002}},{"attributes":{"ID":98114,"DIS_CODE":0,"TOWNNAME":"將軍區","LI":"鯤鯓里","LIN":"10鄰","STREET":" ","SECT":" ","MAREA":"鯤鯓","LANE":" ","ALLEY":" ","HOUSE_NO":"９０號","E_COORD97":156616.56,"N_COORD97":2565571.75,"ADDRESS":"鯤鯓９０號","OBJECTID":98114},"geometry":{"x":156616.55999999959,"y":2565571.7500000037}},{"attributes":{"ID":98115,"DIS_CODE":0,"TOWNNAME":"仁德區","LI":"中洲里","LIN":"10鄰","STREET":" ","SECT":" ","MAREA":"中洲","LANE":" ","ALLEY":" ","HOUSE_NO":"３０７號之６","E_COORD97":173396.62,"N_COORD97":2533947.04,"ADDRESS":"中洲３０７號之６","OBJECTID":98115},"geometry":{"x":173396.62000000197,"y":2533947.0400000028}},{"attributes":{"ID":98116,"DIS_CODE":0,"TOWNNAME":"龍崎區","LI":"崎頂里","LIN":"10鄰","STREET":" ","SECT":" ","MAREA":"新市子","LANE":" ","ALLEY":" ","HOUSE_NO":"３２２號","E_COORD97":184345.76999999999,"N_COORD97":2540688.25,"ADDRESS":"新市子３２２號","OBJECTID":98116},"geometry":{"x":184345.77000000142,"y":2540688.25}},{"attributes":{"ID":98117,"DIS_CODE":0,"TOWNNAME":"龍崎區","LI":"土崎里","LIN":"10鄰","STREET":" ","SECT":" ","MAREA":"烏樹林","LANE":" ","ALLEY":" ","HOUSE_NO":"１之１號","E_COORD97":188329.59,"N_COORD97":2544047.2999999998,"ADDRESS":"烏樹林１之１號","OBJECTID":98117},"geometry":{"x":188329.59000000078,"y":2544047.3000000026}},{"attributes":{"ID":98118,"DIS_CODE":0,"TOWNNAME":"南區","LI":"大成里","LIN":"1鄰","STREET":"健康路","SECT":"一段","MAREA":" ","LANE":" ","ALLEY":" ","HOUSE_NO":"４１５號","E_COORD97":167851.48000000001,"N_COORD97":2542433,"ADDRESS":"健康路一段４１５號","OBJECTID":98118},"geometry":{"x":167851.48000000138,"y":2542433}},{"attributes":{"ID":98119,"DIS_CODE":0,"TOWNNAME":"龍崎區","LI":"龍船里","LIN":"10鄰","STREET":" ","SECT":" ","MAREA":"後壁溪","LANE":" ","ALLEY":" ","HOUSE_NO":"３４之６號","E_COORD97":190171.22,"N_COORD97":2539340.3199999998,"ADDRESS":"後壁溪３４之６號","OBJECTID":98119},"geometry":{"x":190171.22000000067,"y":2539340.320000004}},{"attributes":{"ID":98120,"DIS_CODE":0,"TOWNNAME":"龍崎區","LI":"大坪里","LIN":"10鄰","STREET":" ","SECT":" ","MAREA":"大坪","LANE":" ","ALLEY":" ","HOUSE_NO":"４４號之１","E_COORD97":186740,"N_COORD97":2536274.2999999998,"ADDRESS":"大坪４４號之１","OBJECTID":98120},"geometry":{"x":186740.00000000186,"y":2536274.3000000007}},{"attributes":{"ID":98121,"DIS_CODE":0,"TOWNNAME":"龍崎區","LI":"龍船里","LIN":"10鄰","STREET":" ","SECT":" ","MAREA":"後壁溪","LANE":" ","ALLEY":" ","HOUSE_NO":"３４號","E_COORD97":190425.32000000001,"N_COORD97":2539137.3199999998,"ADDRESS":"後壁溪３４號","OBJECTID":98121},"geometry":{"x":190425.32000000216,"y":2539137.3200000022}},{"attributes":{"ID":98122,"DIS_CODE":0,"TOWNNAME":"龍崎區","LI":"崎頂里","LIN":"10鄰","STREET":" ","SECT":" ","MAREA":"新市子","LANE":" ","ALLEY":" ","HOUSE_NO":"３２５號","E_COORD97":184346.37,"N_COORD97":2540701.25,"ADDRESS":"新市子３２５號","OBJECTID":98122},"geometry":{"x":184346.37000000104,"y":2540701.2500000019}},{"attributes":{"ID":98123,"DIS_CODE":0,"TOWNNAME":"龍崎區","LI":"龍船里","LIN":"10鄰","STREET":" ","SECT":" ","MAREA":"後壁溪","LANE":" ","ALLEY":" ","HOUSE_NO":"３３號","E_COORD97":190399.72,"N_COORD97":2538862.3199999998,"ADDRESS":"後壁溪３３號","OBJECTID":98123},"geometry":{"x":190399.71999999974,"y":2538862.320000004}},{"attributes":{"ID":98124,"DIS_CODE":0,"TOWNNAME":"龍崎區","LI":"龍船里","LIN":"10鄰","STREET":" ","SECT":" ","MAREA":"埤子","LANE":" ","ALLEY":" ","HOUSE_NO":"１４號","E_COORD97":190577.07000000001,"N_COORD97":2538966.25,"ADDRESS":"埤子１４號","OBJECTID":98124},"geometry":{"x":190577.0700000003,"y":2538966.25}},{"attributes":{"ID":98125,"DIS_CODE":0,"TOWNNAME":"龍崎區","LI":"龍船里","LIN":"10鄰","STREET":" ","SECT":" ","MAREA":"後壁溪","LANE":" ","ALLEY":" ","HOUSE_NO":"３４號之１","E_COORD97":190388.14999999999,"N_COORD97":2539272.3199999998,"ADDRESS":"後壁溪３４號之１","OBJECTID":98125},"geometry":{"x":190388.1500000013,"y":2539272.3199999984}},{"attributes":{"ID":98126,"DIS_CODE":0,"TOWNNAME":"龍崎區","LI":"崎頂里","LIN":"10鄰","STREET":" ","SECT":" ","MAREA":"新市子","LANE":" ","ALLEY":" ","HOUSE_NO":"３１５號","E_COORD97":184350.67000000001,"N_COORD97":2540656.25,"ADDRESS":"新市子３１５號","OBJECTID":98126},"geometry":{"x":184350.67000000086,"y":2540656.2500000019}},{"attributes":{"ID":98127,"DIS_CODE":0,"TOWNNAME":"龍崎區","LI":"崎頂里","LIN":"10鄰","STREET":" ","SECT":" ","MAREA":"新市子","LANE":" ","ALLEY":" ","HOUSE_NO":"３２３號","E_COORD97":184345.17000000001,"N_COORD97":2540692.25,"ADDRESS":"新市子３２３號","OBJECTID":98127},"geometry":{"x":184345.17000000179,"y":2540692.25}},{"attributes":{"ID":98128,"DIS_CODE":0,"TOWNNAME":"龍崎區","LI":"崎頂里","LIN":"10鄰","STREET":" ","SECT":" ","MAREA":"新市子","LANE":" ","ALLEY":" ","HOUSE_NO":"３１４號","E_COORD97":184350.67000000001,"N_COORD97":2540652.25,"ADDRESS":"新市子３１４號","OBJECTID":98128},"geometry":{"x":184350.67000000086,"y":2540652.2499999981}},{"attributes":{"ID":98129,"DIS_CODE":0,"TOWNNAME":"龍崎區","LI":"崎頂里","LIN":"10鄰","STREET":" ","SECT":" ","MAREA":"新市子","LANE":" ","ALLEY":" ","HOUSE_NO":"３１８號","E_COORD97":184350.67000000001,"N_COORD97":2540669.25,"ADDRESS":"新市子３１８號","OBJECTID":98129},"geometry":{"x":184350.67000000086,"y":2540669.2499999981}},{"attributes":{"ID":98130,"DIS_CODE":0,"TOWNNAME":"龍崎區","LI":"崎頂里","LIN":"10鄰","STREET":" ","SECT":" ","MAREA":"新市子","LANE":" ","ALLEY":" ","HOUSE_NO":"３２０號","E_COORD97":184348.87,"N_COORD97":2540679.25,"ADDRESS":"新市子３２０號","OBJECTID":98130},"geometry":{"x":184348.87000000011,"y":2540679.25}},{"attributes":{"ID":98131,"DIS_CODE":0,"TOWNNAME":"龍崎區","LI":"楠坑里","LIN":"10鄰","STREET":" ","SECT":" ","MAREA":"草埔坪","LANE":" ","ALLEY":" ","HOUSE_NO":"９之１號","E_COORD97":184898.73999999999,"N_COORD97":2534267.2999999998,"ADDRESS":"草埔坪９之１號","OBJECTID":98131},"geometry":{"x":184898.74000000022,"y":2534267.3000000007}},{"attributes":{"ID":98132,"DIS_CODE":0,"TOWNNAME":"龍崎區","LI":"楠坑里","LIN":"10鄰","STREET":" ","SECT":" ","MAREA":"草埔坪","LANE":" ","ALLEY":" ","HOUSE_NO":"９號","E_COORD97":184904.14000000001,"N_COORD97":2534363.25,"ADDRESS":"草埔坪９號","OBJECTID":98132},"geometry":{"x":184904.13999999966,"y":2534363.2500000037}},{"attributes":{"ID":98133,"DIS_CODE":0,"TOWNNAME":"龍崎區","LI":"楠坑里","LIN":"10鄰","STREET":" ","SECT":" ","MAREA":"草埔坪","LANE":" ","ALLEY":" ","HOUSE_NO":"１之１號","E_COORD97":185426.94,"N_COORD97":2535012.2999999998,"ADDRESS":"草埔坪１之１號","OBJECTID":98133},"geometry":{"x":185426.94000000041,"y":2535012.3000000026}},{"attributes":{"ID":98134,"DIS_CODE":0,"TOWNNAME":"龍崎區","LI":"楠坑里","LIN":"10鄰","STREET":" ","SECT":" ","MAREA":"草埔坪","LANE":" ","ALLEY":" ","HOUSE_NO":"８號","E_COORD97":184921.44,"N_COORD97":2534349.25,"ADDRESS":"草埔坪８號","OBJECTID":98134},"geometry":{"x":184921.44000000041,"y":2534349.25}},{"attributes":{"ID":98135,"DIS_CODE":0,"TOWNNAME":"龍崎區","LI":"崎頂里","LIN":"10鄰","STREET":" ","SECT":" ","MAREA":"新市子","LANE":" ","ALLEY":" ","HOUSE_NO":"３１６號","E_COORD97":184350.67000000001,"N_COORD97":2540661.25,"ADDRESS":"新市子３１６號","OBJECTID":98135},"geometry":{"x":184350.67000000086,"y":2540661.25}},{"attributes":{"ID":98136,"DIS_CODE":0,"TOWNNAME":"龍崎區","LI":"崎頂里","LIN":"10鄰","STREET":" ","SECT":" ","MAREA":"新市子","LANE":" ","ALLEY":" ","HOUSE_NO":"３１９號","E_COORD97":184353.26999999999,"N_COORD97":2540676.25,"ADDRESS":"新市子３１９號","OBJECTID":98136},"geometry":{"x":184353.27000000048,"y":2540676.2500000037}},{"attributes":{"ID":98137,"DIS_CODE":0,"TOWNNAME":"龍崎區","LI":"崎頂里","LIN":"10鄰","STREET":" ","SECT":" ","MAREA":"新市子","LANE":" ","ALLEY":" ","HOUSE_NO":"３２４號","E_COORD97":184347.97,"N_COORD97":2540697.25,"ADDRESS":"新市子３２４號","OBJECTID":98137},"geometry":{"x":184347.96999999881,"y":2540697.2500000019}},{"attributes":{"ID":98138,"DIS_CODE":0,"TOWNNAME":"龍崎區","LI":"崎頂里","LIN":"10鄰","STREET":" ","SECT":" ","MAREA":"新市子","LANE":" ","ALLEY":" ","HOUSE_NO":"３１７號","E_COORD97":184350.67000000001,"N_COORD97":2540664.25,"ADDRESS":"新市子３１７號","OBJECTID":98138},"geometry":{"x":184350.67000000086,"y":2540664.2500000019}},{"attributes":{"ID":98139,"DIS_CODE":0,"TOWNNAME":"龍崎區","LI":"崎頂里","LIN":"10鄰","STREET":" ","SECT":" ","MAREA":"新市子","LANE":" ","ALLEY":" ","HOUSE_NO":"３２１號","E_COORD97":184347.26999999999,"N_COORD97":2540684.25,"ADDRESS":"新市子３２１號","OBJECTID":98139},"geometry":{"x":184347.26999999955,"y":2540684.2500000019}},{"attributes":{"ID":98140,"DIS_CODE":0,"TOWNNAME":"龍崎區","LI":"崎頂里","LIN":"10鄰","STREET":" ","SECT":" ","MAREA":"新市子","LANE":" ","ALLEY":" ","HOUSE_NO":"３２６號","E_COORD97":184345.07000000001,"N_COORD97":2540704.25,"ADDRESS":"新市子３２６號","OBJECTID":98140},"geometry":{"x":184345.07000000123,"y":2540704.2500000019}},{"attributes":{"ID":98141,"DIS_CODE":0,"TOWNNAME":"永康區","LI":"\u25A0行里","LIN":"21鄰","STREET":"正南五街","SECT":" ","MAREA":" ","LANE":"３２７巷","ALLEY":"１１弄","HOUSE_NO":"１６號","E_COORD97":171751.70000000001,"N_COORD97":2548511.3999999999,"ADDRESS":"正南五街３２７巷１１弄１６號","OBJECTID":98141},"geometry":{"x":171751.70000000205,"y":2548511.4000000022}},{"attributes":{"ID":98142,"DIS_CODE":0,"TOWNNAME":"永康區","LI":"\u25A0行里","LIN":"21鄰","STREET":"正南五街","SECT":" ","MAREA":" ","LANE":"３２７巷","ALLEY":"１１弄","HOUSE_NO":"１號","E_COORD97":171751.13,"N_COORD97":2548543.0099999998,"ADDRESS":"正南五街３２７巷１１弄１號","OBJECTID":98142},"geometry":{"x":171751.12999999989,"y":2548543.0099999998}},{"attributes":{"ID":98143,"DIS_CODE":0,"TOWNNAME":"龍崎區","LI":"土崎里","LIN":"10鄰","STREET":" ","SECT":" ","MAREA":"烏樹林","LANE":" ","ALLEY":" ","HOUSE_NO":"２號","E_COORD97":188228.59,"N_COORD97":2544040.25,"ADDRESS":"烏樹林２號","OBJECTID":98143},"geometry":{"x":188228.58999999985,"y":2544040.2500000019}},{"attributes":{"ID":98144,"DIS_CODE":0,"TOWNNAME":"龍崎區","LI":"土崎里","LIN":"10鄰","STREET":" ","SECT":" ","MAREA":"烏樹林","LANE":" ","ALLEY":" ","HOUSE_NO":"５號","E_COORD97":188169.48999999999,"N_COORD97":2544077.25,"ADDRESS":"烏樹林５號","OBJECTID":98144},"geometry":{"x":188169.49000000209,"y":2544077.2500000019}},{"attributes":{"ID":98145,"DIS_CODE":0,"TOWNNAME":"龍崎區","LI":"大坪里","LIN":"10鄰","STREET":" ","SECT":" ","MAREA":"大坪","LANE":" ","ALLEY":" ","HOUSE_NO":"４５號","E_COORD97":187150.26999999999,"N_COORD97":2536181.25,"ADDRESS":"大坪４５號","OBJECTID":98145},"geometry":{"x":187150.27000000048,"y":2536181.2500000019}},{"attributes":{"ID":98146,"DIS_CODE":0,"TOWNNAME":"龍崎區","LI":"土崎里","LIN":"10鄰","STREET":" ","SECT":" ","MAREA":"烏樹林","LANE":" ","ALLEY":" ","HOUSE_NO":"４號","E_COORD97":188155.59,"N_COORD97":2544036.25,"ADDRESS":"烏樹林４號","OBJECTID":98146},"geometry":{"x":188155.59000000078,"y":2544036.2500000037}},{"attributes":{"ID":98147,"DIS_CODE":0,"TOWNNAME":"龍崎區","LI":"大坪里","LIN":"10鄰","STREET":" ","SECT":" ","MAREA":"大坪","LANE":" ","ALLEY":" ","HOUSE_NO":"４４號","E_COORD97":187030.47,"N_COORD97":2536387.25,"ADDRESS":"大坪４４號","OBJECTID":98147},"geometry":{"x":187030.47000000067,"y":2536387.2499999981}},{"attributes":{"ID":98148,"DIS_CODE":0,"TOWNNAME":"龍崎區","LI":"楠坑里","LIN":"10鄰","STREET":" ","SECT":" ","MAREA":"草埔坪","LANE":" ","ALLEY":" ","HOUSE_NO":"１號","E_COORD97":184866.54000000001,"N_COORD97":2535051.25,"ADDRESS":"草埔坪１號","OBJECTID":98148},"geometry":{"x":184866.53999999911,"y":2535051.25}},{"attributes":{"ID":98149,"DIS_CODE":0,"TOWNNAME":"歸仁區","LI":"大廟里","LIN":"21鄰","STREET":"大廟一街","SECT":" ","MAREA":" ","LANE":"２８巷","ALLEY":"５５弄","HOUSE_NO":"４３號","E_COORD97":175667.60000000001,"N_COORD97":2544134.7200000002,"ADDRESS":"大廟一街２８巷５５弄４３號","OBJECTID":98149},"geometry":{"x":175667.5999999987,"y":2544134.7200000007}},{"attributes":{"ID":98150,"DIS_CODE":0,"TOWNNAME":"南區","LI":"文南里","LIN":"21鄰","STREET":"中華西路","SECT":"一段","MAREA":" ","LANE":"１３７巷","ALLEY":"２０弄","HOUSE_NO":"１號","E_COORD97":166443.89999999999,"N_COORD97":2542497.8199999998,"ADDRESS":"中華西路一段１３７巷２０弄１號","OBJECTID":98150},"geometry":{"x":166443.90000000037,"y":2542497.8200000022}},{"attributes":{"ID":98151,"DIS_CODE":0,"TOWNNAME":"南區","LI":"文南里","LIN":"21鄰","STREET":"中華西路","SECT":"一段","MAREA":" ","LANE":"１３７巷","ALLEY":"２０弄","HOUSE_NO":"２號","E_COORD97":166460.82000000001,"N_COORD97":2542504.6600000001,"ADDRESS":"中華西路一段１３７巷２０弄２號","OBJECTID":98151},"geometry":{"x":166460.82000000123,"y":2542504.6600000039}},{"attributes":{"ID":98152,"DIS_CODE":0,"TOWNNAME":"南區","LI":"文南里","LIN":"21鄰","STREET":"中華西路","SECT":"一段","MAREA":" ","LANE":"１３７巷","ALLEY":"２０弄","HOUSE_NO":"３號","E_COORD97":166439.09,"N_COORD97":2542498.71,"ADDRESS":"中華西路一段１３７巷２０弄３號","OBJECTID":98152},"geometry":{"x":166439.08999999985,"y":2542498.7100000028}},{"attributes":{"ID":98153,"DIS_CODE":0,"TOWNNAME":"南區","LI":"文南里","LIN":"21鄰","STREET":"中華西路","SECT":"一段","MAREA":" ","LANE":"１３７巷","ALLEY":"２０弄","HOUSE_NO":"５號","E_COORD97":166434.28,"N_COORD97":2542499.1499999999,"ADDRESS":"中華西路一段１３７巷２０弄５號","OBJECTID":98153},"geometry":{"x":166434.28000000026,"y":2542499.1500000022}},{"attributes":{"ID":98154,"DIS_CODE":0,"TOWNNAME":"南區","LI":"文南里","LIN":"21鄰","STREET":"中華西路","SECT":"一段","MAREA":" ","LANE":"１３７巷","ALLEY":"２０弄","HOUSE_NO":"６號","E_COORD97":166471.14999999999,"N_COORD97":2542503.23,"ADDRESS":"中華西路一段１３７巷２０弄６號","OBJECTID":98154},"geometry":{"x":166471.15000000037,"y":2542503.2300000004}},{"attributes":{"ID":98155,"DIS_CODE":0,"TOWNNAME":"南區","LI":"文南里","LIN":"21鄰","STREET":"中華西路","SECT":"一段","MAREA":" ","LANE":"１３７巷","ALLEY":"２０弄","HOUSE_NO":"７號","E_COORD97":166429.92000000001,"N_COORD97":2542499.5099999998,"ADDRESS":"中華西路一段１３７巷２０弄７號","OBJECTID":98155},"geometry":{"x":166429.91999999993,"y":2542499.5100000016}},{"attributes":{"ID":98156,"DIS_CODE":0,"TOWNNAME":"龍崎區","LI":"大坪里","LIN":"10鄰","STREET":" ","SECT":" ","MAREA":"大坪","LANE":" ","ALLEY":" ","HOUSE_NO":"４９號","E_COORD97":187095.37,"N_COORD97":2535931.25,"ADDRESS":"大坪４９號","OBJECTID":98156},"geometry":{"x":187095.37000000197,"y":2535931.2500000019}},{"attributes":{"ID":98157,"DIS_CODE":0,"TOWNNAME":"龍崎區","LI":"大坪里","LIN":"10鄰","STREET":" ","SECT":" ","MAREA":"大坪","LANE":" ","ALLEY":" ","HOUSE_NO":"５２號","E_COORD97":186733.37,"N_COORD97":2535685.25,"ADDRESS":"大坪５２號","OBJECTID":98157},"geometry":{"x":186733.37000000104,"y":2535685.25}},{"attributes":{"ID":98158,"DIS_CODE":0,"TOWNNAME":"龍崎區","LI":"大坪里","LIN":"10鄰","STREET":" ","SECT":" ","MAREA":"大坪","LANE":" ","ALLEY":" ","HOUSE_NO":"４４之３號","E_COORD97":186685.07000000001,"N_COORD97":2536248.2999999998,"ADDRESS":"大坪４４之３號","OBJECTID":98158},"geometry":{"x":186685.0700000003,"y":2536248.3000000007}},{"attributes":{"ID":98159,"DIS_CODE":0,"TOWNNAME":"龍崎區","LI":"大坪里","LIN":"10鄰","STREET":" ","SECT":" ","MAREA":"大坪","LANE":" ","ALLEY":" ","HOUSE_NO":"４４之２號","E_COORD97":186804.97,"N_COORD97":2538143.2999999998,"ADDRESS":"大坪４４之２號","OBJECTID":98159},"geometry":{"x":186804.97000000067,"y":2538143.3000000007}},{"attributes":{"ID":98160,"DIS_CODE":0,"TOWNNAME":"龍崎區","LI":"大坪里","LIN":"10鄰","STREET":" ","SECT":" ","MAREA":"大坪","LANE":" ","ALLEY":" ","HOUSE_NO":"４６號","E_COORD97":187110.87,"N_COORD97":2536193.25,"ADDRESS":"大坪４６號","OBJECTID":98160},"geometry":{"x":187110.87000000104,"y":2536193.25}},{"attributes":{"ID":98161,"DIS_CODE":0,"TOWNNAME":"龍崎區","LI":"大坪里","LIN":"10鄰","STREET":" ","SECT":" ","MAREA":"大坪","LANE":" ","ALLEY":" ","HOUSE_NO":"５３號","E_COORD97":186710.07000000001,"N_COORD97":2535674.25,"ADDRESS":"大坪５３號","OBJECTID":98161},"geometry":{"x":186710.07000000123,"y":2535674.25}},{"attributes":{"ID":98162,"DIS_CODE":0,"TOWNNAME":"龍崎區","LI":"大坪里","LIN":"10鄰","STREET":" ","SECT":" ","MAREA":"大坪","LANE":" ","ALLEY":" ","HOUSE_NO":"４３號","E_COORD97":187083.57000000001,"N_COORD97":2536361.25,"ADDRESS":"大坪４３號","OBJECTID":98162},"geometry":{"x":187083.5700000003,"y":2536361.2500000019}},{"attributes":{"ID":98163,"DIS_CODE":0,"TOWNNAME":"西港區","LI":"竹林里","LIN":"10鄰","STREET":" ","SECT":" ","MAREA":"大竹林","LANE":" ","ALLEY":" ","HOUSE_NO":"８０號之１","E_COORD97":166610.64999999999,"N_COORD97":2558123.7400000002,"ADDRESS":"大竹林８０號之１","OBJECTID":98163},"geometry":{"x":166610.64999999944,"y":2558123.7400000021}},{"attributes":{"ID":98164,"DIS_CODE":0,"TOWNNAME":"西港區","LI":"竹林里","LIN":"10鄰","STREET":" ","SECT":" ","MAREA":"大竹林","LANE":" ","ALLEY":" ","HOUSE_NO":"８０號","E_COORD97":166611.73000000001,"N_COORD97":2558132.25,"ADDRESS":"大竹林８０號","OBJECTID":98164},"geometry":{"x":166611.73000000045,"y":2558132.25}},{"attributes":{"ID":98165,"DIS_CODE":0,"TOWNNAME":"西港區","LI":"竹林里","LIN":"10鄰","STREET":" ","SECT":" ","MAREA":"大竹林","LANE":" ","ALLEY":" ","HOUSE_NO":"８２號之１","E_COORD97":166621.23999999999,"N_COORD97":2558102.8700000001,"ADDRESS":"大竹林８２號之１","OBJECTID":98165},"geometry":{"x":166621.24000000022,"y":2558102.8699999992}},{"attributes":{"ID":98166,"DIS_CODE":0,"TOWNNAME":"西港區","LI":"竹林里","LIN":"10鄰","STREET":" ","SECT":" ","MAREA":"大竹林","LANE":" ","ALLEY":" ","HOUSE_NO":"８２號","E_COORD97":166638.70000000001,"N_COORD97":2558107.8799999999,"ADDRESS":"大竹林８２號","OBJECTID":98166},"geometry":{"x":166638.70000000019,"y":2558107.8800000008}},{"attributes":{"ID":98167,"DIS_CODE":0,"TOWNNAME":"西港區","LI":"竹林里","LIN":"10鄰","STREET":" ","SECT":" ","MAREA":"大竹林","LANE":" ","ALLEY":" ","HOUSE_NO":"８３號之１","E_COORD97":166627.32000000001,"N_COORD97":2558070.4300000002,"ADDRESS":"大竹林８３號之１","OBJECTID":98167},"geometry":{"x":166627.3200000003,"y":2558070.4299999997}},{"attributes":{"ID":98168,"DIS_CODE":0,"TOWNNAME":"西港區","LI":"竹林里","LIN":"10鄰","STREET":" ","SECT":" ","MAREA":"大竹林","LANE":" ","ALLEY":" ","HOUSE_NO":"８３號之２","E_COORD97":166615.42000000001,"N_COORD97":2558085.5,"ADDRESS":"大竹林８３號之２","OBJECTID":98168},"geometry":{"x":166615.42000000086,"y":2558085.5000000019}},{"attributes":{"ID":98169,"DIS_CODE":0,"TOWNNAME":"西港區","LI":"竹林里","LIN":"10鄰","STREET":" ","SECT":" ","MAREA":"大竹林","LANE":" ","ALLEY":" ","HOUSE_NO":"８３號之３","E_COORD97":166616.79000000001,"N_COORD97":2558080.3799999999,"ADDRESS":"大竹林８３號之３","OBJECTID":98169},"geometry":{"x":166616.79000000097,"y":2558080.3800000027}},{"attributes":{"ID":98170,"DIS_CODE":0,"TOWNNAME":"南區","LI":"文南里","LIN":"21鄰","STREET":"中華西路","SECT":"一段","MAREA":" ","LANE":"１３７巷","ALLEY":"２０弄","HOUSE_NO":"８號","E_COORD97":166475.41,"N_COORD97":2542502.8799999999,"ADDRESS":"中華西路一段１３７巷２０弄８號","OBJECTID":98170},"geometry":{"x":166475.41000000108,"y":2542502.8800000008}},{"attributes":{"ID":98171,"DIS_CODE":0,"TOWNNAME":"南區","LI":"文南里","LIN":"21鄰","STREET":"中華西路","SECT":"一段","MAREA":" ","LANE":"１３７巷","ALLEY":"２０弄","HOUSE_NO":"９號","E_COORD97":166425.25,"N_COORD97":2542500.4700000002,"ADDRESS":"中華西路一段１３７巷２０弄９號","OBJECTID":98171},"geometry":{"x":166425.25000000093,"y":2542500.4700000025}},{"attributes":{"ID":98172,"DIS_CODE":0,"TOWNNAME":"新化區","LI":"\u25A0拔里","LIN":"4鄰","STREET":" ","SECT":" ","MAREA":"\u25A0拔林","LANE":" ","ALLEY":" ","HOUSE_NO":"２１８號之１０","E_COORD97":183795.31,"N_COORD97":2552078.2599999998,"ADDRESS":"\u25A0拔林２１８號之１０","OBJECTID":98172},"geometry":{"x":183795.31000000052,"y":2552078.2600000016}},{"attributes":{"ID":98173,"DIS_CODE":0,"TOWNNAME":"新化區","LI":"知義里","LIN":" ","STREET":" ","SECT":" ","MAREA":"新和庄","LANE":" ","ALLEY":" ","HOUSE_NO":"２１７號之４","E_COORD97":181494.22,"N_COORD97":2546967.2599999998,"ADDRESS":"新和庄２１７號之４","OBJECTID":98173},"geometry":{"x":181494.21999999974,"y":2546967.2599999998}},{"attributes":{"ID":98174,"DIS_CODE":0,"TOWNNAME":"西港區","LI":"竹林里","LIN":"10鄰","STREET":" ","SECT":" ","MAREA":"大竹林","LANE":" ","ALLEY":" ","HOUSE_NO":"８３號","E_COORD97":166640.78,"N_COORD97":2558052.75,"ADDRESS":"大竹林８３號","OBJECTID":98174},"geometry":{"x":166640.78000000119,"y":2558052.7500000019}},{"attributes":{"ID":98175,"DIS_CODE":0,"TOWNNAME":"西港區","LI":"竹林里","LIN":"10鄰","STREET":" ","SECT":" ","MAREA":"大竹林","LANE":" ","ALLEY":" ","HOUSE_NO":"８５號","E_COORD97":166683.29999999999,"N_COORD97":2558079.3399999999,"ADDRESS":"大竹林８５號","OBJECTID":98175},"geometry":{"x":166683.29999999981,"y":2558079.3400000017}},{"attributes":{"ID":98176,"DIS_CODE":0,"TOWNNAME":"西港區","LI":"竹林里","LIN":"10鄰","STREET":" ","SECT":" ","MAREA":"大竹林","LANE":" ","ALLEY":" ","HOUSE_NO":"８６號","E_COORD97":166679.51999999999,"N_COORD97":2558064.2599999998,"ADDRESS":"大竹林８６號","OBJECTID":98176},"geometry":{"x":166679.51999999955,"y":2558064.2599999998}},{"attributes":{"ID":98177,"DIS_CODE":0,"TOWNNAME":"西港區","LI":"竹林里","LIN":"10鄰","STREET":" ","SECT":" ","MAREA":"大竹林","LANE":" ","ALLEY":" ","HOUSE_NO":"８７號之２","E_COORD97":166659.82000000001,"N_COORD97":2558036.6699999999,"ADDRESS":"大竹林８７號之２","OBJECTID":98177},"geometry":{"x":166659.8200000003,"y":2558036.6700000018}},{"attributes":{"ID":98178,"DIS_CODE":0,"TOWNNAME":"西港區","LI":"竹林里","LIN":"10鄰","STREET":" ","SECT":" ","MAREA":"大竹林","LANE":" ","ALLEY":" ","HOUSE_NO":"８７號之３","E_COORD97":166663.88,"N_COORD97":2558033.9300000002,"ADDRESS":"大竹林８７號之３","OBJECTID":98178},"geometry":{"x":166663.87999999989,"y":2558033.9300000016}},{"attributes":{"ID":98179,"DIS_CODE":0,"TOWNNAME":"新化區","LI":"唪口里","LIN":"10鄰","STREET":" ","SECT":" ","MAREA":"唪口","LANE":" ","ALLEY":" ","HOUSE_NO":"１５６號","E_COORD97":177554.14999999999,"N_COORD97":2548942.25,"ADDRESS":"唪口１５６號","OBJECTID":98179},"geometry":{"x":177554.15000000037,"y":2548942.2500000037}},{"attributes":{"ID":98180,"DIS_CODE":0,"TOWNNAME":"安定區","LI":"安加里","LIN":"10鄰","STREET":" ","SECT":" ","MAREA":"安定","LANE":" ","ALLEY":" ","HOUSE_NO":"２６２號之２","E_COORD97":171453.69,"N_COORD97":2557033.3199999998,"ADDRESS":"安定２６２號之２","OBJECTID":98180},"geometry":{"x":171453.69000000227,"y":2557033.3200000003}},{"attributes":{"ID":98181,"DIS_CODE":0,"TOWNNAME":"安定區","LI":"安加里","LIN":"10鄰","STREET":" ","SECT":" ","MAREA":"安定","LANE":" ","ALLEY":" ","HOUSE_NO":"２６０之１號","E_COORD97":171710.62,"N_COORD97":2557367.3199999998,"ADDRESS":"安定２６０之１號","OBJECTID":98181},"geometry":{"x":171710.62000000104,"y":2557367.3200000022}},{"attributes":{"ID":98182,"DIS_CODE":0,"TOWNNAME":"安定區","LI":"安定里","LIN":"10鄰","STREET":" ","SECT":" ","MAREA":"安定","LANE":" ","ALLEY":" ","HOUSE_NO":"９４之３號","E_COORD97":172063.30416599999,"N_COORD97":2557776.56342,"ADDRESS":"安定９４之３號","OBJECTID":98182},"geometry":{"x":172063.30416599941,"y":2557776.5634189993}},{"attributes":{"ID":98183,"DIS_CODE":0,"TOWNNAME":"安定區","LI":"安加里","LIN":"10鄰","STREET":" ","SECT":" ","MAREA":"安定","LANE":" ","ALLEY":" ","HOUSE_NO":"２６３號","E_COORD97":171634.72,"N_COORD97":2557295.3199999998,"ADDRESS":"安定２６３號","OBJECTID":98183},"geometry":{"x":171634.72000000067,"y":2557295.3200000003}},{"attributes":{"ID":98184,"DIS_CODE":0,"TOWNNAME":"安定區","LI":"海寮里","LIN":"10鄰","STREET":" ","SECT":" ","MAREA":"海寮","LANE":" ","ALLEY":" ","HOUSE_NO":"１０２號","E_COORD97":169210.23999999999,"N_COORD97":2555339.25,"ADDRESS":"海寮１０２號","OBJECTID":98184},"geometry":{"x":169210.24000000022,"y":2555339.25}},{"attributes":{"ID":98185,"DIS_CODE":0,"TOWNNAME":"安定區","LI":"安定里","LIN":"10鄰","STREET":" ","SECT":" ","MAREA":"安定","LANE":" ","ALLEY":" ","HOUSE_NO":"９６號之２","E_COORD97":172120.94,"N_COORD97":2557689.3199999998,"ADDRESS":"安定９６號之２","OBJECTID":98185},"geometry":{"x":172120.94000000041,"y":2557689.3200000022}},{"attributes":{"ID":98186,"DIS_CODE":0,"TOWNNAME":"安定區","LI":"港尾里","LIN":"10鄰","STREET":" ","SECT":" ","MAREA":"港子尾","LANE":" ","ALLEY":" ","HOUSE_NO":"５６之２３號","E_COORD97":171627.14000000001,"N_COORD97":2555737.2999999998,"ADDRESS":"港子尾５６之２３號","OBJECTID":98186},"geometry":{"x":171627.13999999966,"y":2555737.3000000026}},{"attributes":{"ID":98187,"DIS_CODE":0,"TOWNNAME":"安定區","LI":"安加里","LIN":"10鄰","STREET":" ","SECT":" ","MAREA":"安定","LANE":" ","ALLEY":" ","HOUSE_NO":"２６４號","E_COORD97":171662.92000000001,"N_COORD97":2557361.3199999998,"ADDRESS":"安定２６４號","OBJECTID":98187},"geometry":{"x":171662.91999999993,"y":2557361.3200000022}},{"attributes":{"ID":98188,"DIS_CODE":0,"TOWNNAME":"安定區","LI":"港尾里","LIN":"10鄰","STREET":" ","SECT":" ","MAREA":"港子尾","LANE":" ","ALLEY":" ","HOUSE_NO":"５７號","E_COORD97":171578.39000000001,"N_COORD97":2555768.2599999998,"ADDRESS":"港子尾５７號","OBJECTID":98188},"geometry":{"x":171578.38999999966,"y":2555768.2599999998}},{"attributes":{"ID":98189,"DIS_CODE":0,"TOWNNAME":"佳里區","LI":"三協里","LIN":"10鄰","STREET":" ","SECT":" ","MAREA":"後庄","LANE":" ","ALLEY":" ","HOUSE_NO":"１７號之１","E_COORD97":168516.06,"N_COORD97":2564659.9300000002,"ADDRESS":"後庄１７號之１","OBJECTID":98189},"geometry":{"x":168516.06000000052,"y":2564659.9300000016}},{"attributes":{"ID":98190,"DIS_CODE":0,"TOWNNAME":"佳里區","LI":"三協里","LIN":"10鄰","STREET":" ","SECT":" ","MAREA":"後庄","LANE":" ","ALLEY":" ","HOUSE_NO":"１７號之２","E_COORD97":168534.35999999999,"N_COORD97":2564670.7599999998,"ADDRESS":"後庄１７號之２","OBJECTID":98190},"geometry":{"x":168534.36000000034,"y":2564670.7600000016}},{"attributes":{"ID":98191,"DIS_CODE":0,"TOWNNAME":"佳里區","LI":"三協里","LIN":"10鄰","STREET":" ","SECT":" ","MAREA":"後庄","LANE":" ","ALLEY":" ","HOUSE_NO":"１７號之３","E_COORD97":168528.07999999999,"N_COORD97":2564646.46,"ADDRESS":"後庄１７號之３","OBJECTID":98191},"geometry":{"x":168528.08000000194,"y":2564646.4600000028}},{"attributes":{"ID":98192,"DIS_CODE":0,"TOWNNAME":"佳里區","LI":"三協里","LIN":"10鄰","STREET":" ","SECT":" ","MAREA":"後庄","LANE":" ","ALLEY":" ","HOUSE_NO":"１７號之４","E_COORD97":168499.01000000001,"N_COORD97":2564625.6400000001,"ADDRESS":"後庄１７號之４","OBJECTID":98192},"geometry":{"x":168499.00999999978,"y":2564625.6400000006}},{"attributes":{"ID":98193,"DIS_CODE":0,"TOWNNAME":"佳里區","LI":"三協里","LIN":"10鄰","STREET":" ","SECT":" ","MAREA":"後庄","LANE":" ","ALLEY":" ","HOUSE_NO":"１８號之１","E_COORD97":168376.38,"N_COORD97":2564684.54,"ADDRESS":"後庄１８號之１","OBJECTID":98193},"geometry":{"x":168376.37999999989,"y":2564684.540000001}},{"attributes":{"ID":98194,"DIS_CODE":0,"TOWNNAME":"佳里區","LI":"三協里","LIN":"10鄰","STREET":" ","SECT":" ","MAREA":"後庄","LANE":" ","ALLEY":" ","HOUSE_NO":"１８號之２","E_COORD97":168417.87,"N_COORD97":2564700.8399999999,"ADDRESS":"後庄１８號之２","OBJECTID":98194},"geometry":{"x":168417.87000000104,"y":2564700.8400000017}},{"attributes":{"ID":98195,"DIS_CODE":0,"TOWNNAME":"佳里區","LI":"三協里","LIN":"10鄰","STREET":" ","SECT":" ","MAREA":"後庄","LANE":" ","ALLEY":" ","HOUSE_NO":"１８號之３","E_COORD97":168428.48999999999,"N_COORD97":2564723.04,"ADDRESS":"後庄１８號之３","OBJECTID":98195},"geometry":{"x":168428.49000000022,"y":2564723.0399999991}},{"attributes":{"ID":98196,"DIS_CODE":0,"TOWNNAME":"佳里區","LI":"三協里","LIN":"10鄰","STREET":" ","SECT":" ","MAREA":"後庄","LANE":" ","ALLEY":" ","HOUSE_NO":"１８號","E_COORD97":168463.54999999999,"N_COORD97":2564669.2599999998,"ADDRESS":"後庄１８號","OBJECTID":98196},"geometry":{"x":168463.54999999888,"y":2564669.2599999998}},{"attributes":{"ID":98197,"DIS_CODE":0,"TOWNNAME":"佳里區","LI":"三協里","LIN":"10鄰","STREET":" ","SECT":" ","MAREA":"後庄","LANE":" ","ALLEY":" ","HOUSE_NO":"１９號","E_COORD97":168485.35999999999,"N_COORD97":2564659.9100000001,"ADDRESS":"後庄１９號","OBJECTID":98197},"geometry":{"x":168485.36000000034,"y":2564659.910000002}},{"attributes":{"ID":98198,"DIS_CODE":0,"TOWNNAME":"南區","LI":"文南里","LIN":"21鄰","STREET":"中華西路","SECT":"一段","MAREA":" ","LANE":"１３７巷","ALLEY":"２０弄","HOUSE_NO":"１０號","E_COORD97":166479.95999999999,"N_COORD97":2542502.7000000002,"ADDRESS":"中華西路一段１３７巷２０弄１０號","OBJECTID":98198},"geometry":{"x":166479.96000000089,"y":2542502.6999999993}},{"attributes":{"ID":98199,"DIS_CODE":0,"TOWNNAME":"南區","LI":"大林里","LIN":"1鄰","STREET":"大林路","SECT":" ","MAREA":" ","LANE":" ","ALLEY":" ","HOUSE_NO":"５３號","E_COORD97":169270.29000000001,"N_COORD97":2541806.4500000002,"ADDRESS":"大林路５３號","OBJECTID":98199},"geometry":{"x":169270.29000000004,"y":2541806.450000003}},{"attributes":{"ID":98200,"DIS_CODE":0,"TOWNNAME":"新化區","LI":"東榮里","LIN":"24鄰","STREET":"中正路","SECT":" ","MAREA":" ","LANE":" ","ALLEY":" ","HOUSE_NO":"２５０號","E_COORD97":179146.10999999999,"N_COORD97":2547773.25,"ADDRESS":"中正路２５０號","OBJECTID":98200},"geometry":{"x":179146.11000000034,"y":2547773.2500000019}}]}