{"displayFieldName":"TOWNNAME","fieldAliases":{"ID":"ID","DIS_CODE":"DIS_CODE","TOWNNAME":"TOWNNAME","LI":"LI","LIN":"LIN","STREET":"STREET","SECT":"SECT","MAREA":"MAREA","LANE":"LANE","ALLEY":"ALLEY","HOUSE_NO":"HOUSE_NO","E_COORD97":"E_COORD97","N_COORD97":"N_COORD97","ADDRESS":"ADDRESS","OBJECTID":"OBJECTID"},"geometryType":"esriGeometryPoint","spatialReference":{"wkid":102443,"latestWkid":3826},"fields":[{"name":"ID","type":"esriFieldTypeDouble","alias":"ID"},{"name":"DIS_CODE","type":"esriFieldTypeInteger","alias":"DIS_CODE"},{"name":"TOWNNAME","type":"esriFieldTypeString","alias":"TOWNNAME","length":8},{"name":"LI","type":"esriFieldTypeString","alias":"LI","length":8},{"name":"LIN","type":"esriFieldTypeString","alias":"LIN","length":12},{"name":"STREET","type":"esriFieldTypeString","alias":"STREET","length":20},{"name":"SECT","type":"esriFieldTypeString","alias":"SECT","length":8},{"name":"MAREA","type":"esriFieldTypeString","alias":"MAREA","length":12},{"name":"LANE","type":"esriFieldTypeString","alias":"LANE","length":10},{"name":"ALLEY","type":"esriFieldTypeString","alias":"ALLEY","length":10},{"name":"HOUSE_NO","type":"esriFieldTypeString","alias":"HOUSE_NO","length":20},{"name":"E_COORD97","type":"esriFieldTypeDouble","alias":"E_COORD97"},{"name":"N_COORD97","type":"esriFieldTypeDouble","alias":"N_COORD97"},{"name":"ADDRESS","type":"esriFieldTypeString","alias":"ADDRESS","length":50},{"name":"OBJECTID","type":"esriFieldTypeOID","alias":"OBJECTID"}],"features":[{"attributes":{"ID":170002,"DIS_CODE":0,"TOWNNAME":"北區","LI":"賢北里","LIN":"19鄰","STREET":"和緯路","SECT":"五段","MAREA":" ","LANE":"２３４巷","ALLEY":"５弄","HOUSE_NO":"５號","E_COORD97":166046.64000000001,"N_COORD97":2545175.8900000001,"ADDRESS":"和緯路五段２３４巷５弄５號","OBJECTID":170001},"geometry":{"x":166046.63999999966,"y":2545175.8900000025}},{"attributes":{"ID":170003,"DIS_CODE":0,"TOWNNAME":"北區","LI":"賢北里","LIN":"19鄰","STREET":"和緯路","SECT":"五段","MAREA":" ","LANE":"２３４巷","ALLEY":"５弄","HOUSE_NO":"６號","E_COORD97":166017.67000000001,"N_COORD97":2545200.48,"ADDRESS":"和緯路五段２３４巷５弄６號","OBJECTID":170002},"geometry":{"x":166017.66999999993,"y":2545200.4800000004}},{"attributes":{"ID":170004,"DIS_CODE":0,"TOWNNAME":"北區","LI":"賢北里","LIN":"19鄰","STREET":"和緯路","SECT":"五段","MAREA":" ","LANE":"２３４巷","ALLEY":"５弄","HOUSE_NO":"７號","E_COORD97":166043.35000000001,"N_COORD97":2545176.4300000002,"ADDRESS":"和緯路五段２３４巷５弄７號","OBJECTID":170003},"geometry":{"x":166043.34999999963,"y":2545176.4299999997}},{"attributes":{"ID":170005,"DIS_CODE":0,"TOWNNAME":"北區","LI":"賢北里","LIN":"19鄰","STREET":"和緯路","SECT":"五段","MAREA":" ","LANE":"２３４巷","ALLEY":"５弄","HOUSE_NO":"８號","E_COORD97":166013.42000000001,"N_COORD97":2545200.7200000002,"ADDRESS":"和緯路五段２３４巷５弄８號","OBJECTID":170004},"geometry":{"x":166013.42000000179,"y":2545200.7200000025}},{"attributes":{"ID":170006,"DIS_CODE":0,"TOWNNAME":"北區","LI":"賢北里","LIN":"19鄰","STREET":"和緯路","SECT":"五段","MAREA":" ","LANE":"２３４巷","ALLEY":"５弄","HOUSE_NO":"９號","E_COORD97":166038.23000000001,"N_COORD97":2545177.5299999998,"ADDRESS":"和緯路五段２３４巷５弄９號","OBJECTID":170005},"geometry":{"x":166038.23000000045,"y":2545177.5300000012}},{"attributes":{"ID":170007,"DIS_CODE":0,"TOWNNAME":"北區","LI":"永祥里","LIN":"12鄰","STREET":"實踐街","SECT":" ","MAREA":" ","LANE":"１０３巷","ALLEY":"１３弄","HOUSE_NO":"１０號","E_COORD97":170067.84,"N_COORD97":2546082.7999999998,"ADDRESS":"實踐街１０３巷１３弄１０號","OBJECTID":170006},"geometry":{"x":170067.84000000078,"y":2546082.8000000007}},{"attributes":{"ID":170008,"DIS_CODE":0,"TOWNNAME":"北區","LI":"永祥里","LIN":"12鄰","STREET":"實踐街","SECT":" ","MAREA":" ","LANE":"１０３巷","ALLEY":"１３弄","HOUSE_NO":"１１號","E_COORD97":170052.51999999999,"N_COORD97":2546065.9199999999,"ADDRESS":"實踐街１０３巷１３弄１１號","OBJECTID":170007},"geometry":{"x":170052.52000000048,"y":2546065.9200000037}},{"attributes":{"ID":170009,"DIS_CODE":0,"TOWNNAME":"北區","LI":"永祥里","LIN":"12鄰","STREET":"實踐街","SECT":" ","MAREA":" ","LANE":"１０３巷","ALLEY":"１３弄","HOUSE_NO":"１２號","E_COORD97":170063.07000000001,"N_COORD97":2546080.6699999999,"ADDRESS":"實踐街１０３巷１３弄１２號","OBJECTID":170008},"geometry":{"x":170063.07000000123,"y":2546080.6699999999}},{"attributes":{"ID":170010,"DIS_CODE":0,"TOWNNAME":"北區","LI":"永祥里","LIN":"12鄰","STREET":"實踐街","SECT":" ","MAREA":" ","LANE":"１０３巷","ALLEY":"１３弄","HOUSE_NO":"２號","E_COORD97":170090.10999999999,"N_COORD97":2546081.73,"ADDRESS":"實踐街１０３巷１３弄２號","OBJECTID":170009},"geometry":{"x":170090.11000000127,"y":2546081.7300000023}},{"attributes":{"ID":170011,"DIS_CODE":0,"TOWNNAME":"北區","LI":"永祥里","LIN":"12鄰","STREET":"實踐街","SECT":" ","MAREA":" ","LANE":"１０３巷","ALLEY":"１３弄","HOUSE_NO":"４號","E_COORD97":170085.42000000001,"N_COORD97":2546080.9500000002,"ADDRESS":"實踐街１０３巷１３弄４號","OBJECTID":170010},"geometry":{"x":170085.42000000086,"y":2546080.9499999993}},{"attributes":{"ID":170012,"DIS_CODE":0,"TOWNNAME":"北區","LI":"永祥里","LIN":"12鄰","STREET":"實踐街","SECT":" ","MAREA":" ","LANE":"１０３巷","ALLEY":"１３弄","HOUSE_NO":"４號之１","E_COORD97":170081.01000000001,"N_COORD97":2546080.9500000002,"ADDRESS":"實踐街１０３巷１３弄４號之１","OBJECTID":170011},"geometry":{"x":170081.00999999885,"y":2546080.9499999993}},{"attributes":{"ID":170013,"DIS_CODE":0,"TOWNNAME":"南區","LI":"大林里","LIN":"12鄰","STREET":"國民路","SECT":" ","MAREA":" ","LANE":"５８３巷","ALLEY":" ","HOUSE_NO":"２號","E_COORD97":168483.84,"N_COORD97":2541607.9399999999,"ADDRESS":"國民路５８３巷２號","OBJECTID":170012},"geometry":{"x":168483.84000000171,"y":2541607.9400000013}},{"attributes":{"ID":170014,"DIS_CODE":0,"TOWNNAME":"西港區","LI":"慶安里","LIN":"15鄰","STREET":"慶安路","SECT":" ","MAREA":" ","LANE":" ","ALLEY":" ","HOUSE_NO":"１６２號","E_COORD97":167976.76000000001,"N_COORD97":2557892.6299999999,"ADDRESS":"慶安路１６２號","OBJECTID":170013},"geometry":{"x":167976.75999999978,"y":2557892.6300000008}},{"attributes":{"ID":170015,"DIS_CODE":0,"TOWNNAME":"西港區","LI":"慶安里","LIN":"15鄰","STREET":"慶安路","SECT":" ","MAREA":" ","LANE":" ","ALLEY":" ","HOUSE_NO":"１６４號","E_COORD97":167972.47,"N_COORD97":2557891.6600000001,"ADDRESS":"慶安路１６４號","OBJECTID":170014},"geometry":{"x":167972.4700000016,"y":2557891.660000002}},{"attributes":{"ID":170016,"DIS_CODE":0,"TOWNNAME":"安南區","LI":"海東里","LIN":"15鄰","STREET":"海中街","SECT":" ","MAREA":" ","LANE":" ","ALLEY":" ","HOUSE_NO":"２６號","E_COORD97":166515.31,"N_COORD97":2548849.0800000001,"ADDRESS":"海中街２６號","OBJECTID":170015},"geometry":{"x":166515.30999999959,"y":2548849.0800000019}},{"attributes":{"ID":170017,"DIS_CODE":0,"TOWNNAME":"後壁區","LI":"土溝里","LIN":"13鄰","STREET":" ","SECT":" ","MAREA":"土溝","LANE":" ","ALLEY":" ","HOUSE_NO":"１２９號","E_COORD97":188640.63,"N_COORD97":2587244.8599999999,"ADDRESS":"土溝１２９號","OBJECTID":170016},"geometry":{"x":188640.62999999989,"y":2587244.8599999975}},{"attributes":{"ID":170018,"DIS_CODE":0,"TOWNNAME":"後壁區","LI":"土溝里","LIN":"13鄰","STREET":" ","SECT":" ","MAREA":"土溝","LANE":" ","ALLEY":" ","HOUSE_NO":"１３０號","E_COORD97":188636.34,"N_COORD97":2587239.29,"ADDRESS":"土溝１３０號","OBJECTID":170017},"geometry":{"x":188636.34000000078,"y":2587239.290000001}},{"attributes":{"ID":170019,"DIS_CODE":0,"TOWNNAME":"後壁區","LI":"土溝里","LIN":"13鄰","STREET":" ","SECT":" ","MAREA":"土溝","LANE":" ","ALLEY":" ","HOUSE_NO":"１３１號","E_COORD97":188615.26999999999,"N_COORD97":2587228,"ADDRESS":"土溝１３１號","OBJECTID":170018},"geometry":{"x":188615.26999999955,"y":2587228.0000000037}},{"attributes":{"ID":170020,"DIS_CODE":0,"TOWNNAME":"後壁區","LI":"土溝里","LIN":"13鄰","STREET":" ","SECT":" ","MAREA":"土溝","LANE":" ","ALLEY":" ","HOUSE_NO":"１３２號","E_COORD97":188584.16,"N_COORD97":2585763.54,"ADDRESS":"土溝１３２號","OBJECTID":170019},"geometry":{"x":188584.16000000108,"y":2585763.540000001}},{"attributes":{"ID":170021,"DIS_CODE":0,"TOWNNAME":"南區","LI":"省躬里","LIN":"15鄰","STREET":"明興路","SECT":" ","MAREA":" ","LANE":" ","ALLEY":" ","HOUSE_NO":"１００２號","E_COORD97":166198.03,"N_COORD97":2536893.5699999998,"ADDRESS":"明興路１００２號","OBJECTID":170020},"geometry":{"x":166198.03000000119,"y":2536893.5700000003}},{"attributes":{"ID":170022,"DIS_CODE":0,"TOWNNAME":"南區","LI":"省躬里","LIN":"15鄰","STREET":"明興路","SECT":" ","MAREA":" ","LANE":" ","ALLEY":" ","HOUSE_NO":"９７９之１號","E_COORD97":166196.73999999999,"N_COORD97":2536976.71,"ADDRESS":"明興路９７９之１號","OBJECTID":170021},"geometry":{"x":166196.74000000115,"y":2536976.7100000028}},{"attributes":{"ID":170023,"DIS_CODE":0,"TOWNNAME":"南區","LI":"省躬里","LIN":"15鄰","STREET":"明興路","SECT":" ","MAREA":" ","LANE":" ","ALLEY":" ","HOUSE_NO":"９７９號","E_COORD97":166193.88,"N_COORD97":2536983.54,"ADDRESS":"明興路９７９號","OBJECTID":170022},"geometry":{"x":166193.88000000082,"y":2536983.5399999991}},{"attributes":{"ID":170024,"DIS_CODE":0,"TOWNNAME":"南區","LI":"佛壇里","LIN":"15鄰","STREET":"灣裡路","SECT":" ","MAREA":" ","LANE":" ","ALLEY":" ","HOUSE_NO":"６０８號","E_COORD97":166112.35000000001,"N_COORD97":2535609.1299999999,"ADDRESS":"灣裡路６０８號","OBJECTID":170023},"geometry":{"x":166112.35000000056,"y":2535609.129999999}},{"attributes":{"ID":170025,"DIS_CODE":0,"TOWNNAME":"南區","LI":"佛壇里","LIN":"15鄰","STREET":"灣裡路","SECT":" ","MAREA":" ","LANE":" ","ALLEY":" ","HOUSE_NO":"６１０號","E_COORD97":166108.06,"N_COORD97":2535607.3799999999,"ADDRESS":"灣裡路６１０號","OBJECTID":170024},"geometry":{"x":166108.05999999959,"y":2535607.379999999}},{"attributes":{"ID":170026,"DIS_CODE":0,"TOWNNAME":"南區","LI":"佛壇里","LIN":"15鄰","STREET":"灣裡路","SECT":" ","MAREA":" ","LANE":" ","ALLEY":" ","HOUSE_NO":"６１２號","E_COORD97":166103.78,"N_COORD97":2535605.79,"ADDRESS":"灣裡路６１２號","OBJECTID":170025},"geometry":{"x":166103.78000000026,"y":2535605.7899999991}},{"attributes":{"ID":170027,"DIS_CODE":0,"TOWNNAME":"南區","LI":"佛壇里","LIN":"15鄰","STREET":"灣裡路","SECT":" ","MAREA":" ","LANE":" ","ALLEY":" ","HOUSE_NO":"６１８號","E_COORD97":166094.57000000001,"N_COORD97":2535601.1899999999,"ADDRESS":"灣裡路６１８號","OBJECTID":170026},"geometry":{"x":166094.57000000123,"y":2535601.1900000013}},{"attributes":{"ID":170028,"DIS_CODE":0,"TOWNNAME":"南區","LI":"府南里","LIN":"15鄰","STREET":"金華路","SECT":"一段","MAREA":" ","LANE":" ","ALLEY":" ","HOUSE_NO":"５０２號","E_COORD97":167043.91,"N_COORD97":2541585.2200000002,"ADDRESS":"金華路一段５０２號","OBJECTID":170027},"geometry":{"x":167043.91000000015,"y":2541585.2200000007}},{"attributes":{"ID":170029,"DIS_CODE":0,"TOWNNAME":"新營區","LI":"南興里","LIN":" ","STREET":"延平路","SECT":" ","MAREA":" ","LANE":" ","ALLEY":" ","HOUSE_NO":"１４２之５０號","E_COORD97":179729.32999999999,"N_COORD97":2577417.8900000001,"ADDRESS":"延平路１４２之５０號","OBJECTID":170028},"geometry":{"x":179729.33000000007,"y":2577417.8900000025}},{"attributes":{"ID":170030,"DIS_CODE":0,"TOWNNAME":"南區","LI":"省躬里","LIN":"15鄰","STREET":"萬年路","SECT":" ","MAREA":" ","LANE":" ","ALLEY":" ","HOUSE_NO":"３８號","E_COORD97":166217.25,"N_COORD97":2537144.5499999998,"ADDRESS":"萬年路３８號","OBJECTID":170029},"geometry":{"x":166217.25,"y":2537144.5500000007}},{"attributes":{"ID":170031,"DIS_CODE":0,"TOWNNAME":"南區","LI":"省躬里","LIN":"15鄰","STREET":"萬年路","SECT":" ","MAREA":" ","LANE":" ","ALLEY":" ","HOUSE_NO":"４８號","E_COORD97":166248.07999999999,"N_COORD97":2537167.8599999999,"ADDRESS":"萬年路４８號","OBJECTID":170030},"geometry":{"x":166248.08000000194,"y":2537167.8599999994}},{"attributes":{"ID":170032,"DIS_CODE":0,"TOWNNAME":"東區","LI":"大福里","LIN":"15鄰","STREET":"立德五路","SECT":" ","MAREA":" ","LANE":" ","ALLEY":" ","HOUSE_NO":"３號","E_COORD97":169506.10999999999,"N_COORD97":2541836.8799999999,"ADDRESS":"立德五路３號","OBJECTID":170031},"geometry":{"x":169506.11000000034,"y":2541836.879999999}},{"attributes":{"ID":170033,"DIS_CODE":0,"TOWNNAME":"北區","LI":"永祥里","LIN":"12鄰","STREET":"實踐街","SECT":" ","MAREA":" ","LANE":"１０３巷","ALLEY":"１３弄","HOUSE_NO":"６號","E_COORD97":170076.73999999999,"N_COORD97":2546082.5800000001,"ADDRESS":"實踐街１０３巷１３弄６號","OBJECTID":170032},"geometry":{"x":170076.74000000209,"y":2546082.5800000019}},{"attributes":{"ID":170034,"DIS_CODE":0,"TOWNNAME":"北區","LI":"永祥里","LIN":"12鄰","STREET":"實踐街","SECT":" ","MAREA":" ","LANE":"１０３巷","ALLEY":"１３弄","HOUSE_NO":"８號","E_COORD97":170072.10999999999,"N_COORD97":2546082.5899999999,"ADDRESS":"實踐街１０３巷１３弄８號","OBJECTID":170033},"geometry":{"x":170072.11000000034,"y":2546082.5900000017}},{"attributes":{"ID":170035,"DIS_CODE":0,"TOWNNAME":"北區","LI":"永祥里","LIN":"12鄰","STREET":"實踐街","SECT":" ","MAREA":" ","LANE":"１０３巷","ALLEY":"１３弄","HOUSE_NO":"９號","E_COORD97":170072.04000000001,"N_COORD97":2546071.0800000001,"ADDRESS":"實踐街１０３巷１３弄９號","OBJECTID":170034},"geometry":{"x":170072.04000000004,"y":2546071.0800000001}},{"attributes":{"ID":170036,"DIS_CODE":0,"TOWNNAME":"後壁區","LI":"嘉苳里","LIN":"13鄰","STREET":" ","SECT":" ","MAREA":"本協","LANE":" ","ALLEY":" ","HOUSE_NO":"３０號","E_COORD97":187058.47,"N_COORD97":2583523.3100000001,"ADDRESS":"本協３０號","OBJECTID":170035},"geometry":{"x":187058.46999999974,"y":2583523.3100000005}},{"attributes":{"ID":170037,"DIS_CODE":0,"TOWNNAME":"北區","LI":"永祥里","LIN":"12鄰","STREET":"實踐街","SECT":" ","MAREA":" ","LANE":"１０３巷","ALLEY":"１３弄","HOUSE_NO":"９號之１","E_COORD97":170066.76999999999,"N_COORD97":2546071.29,"ADDRESS":"實踐街１０３巷１３弄９號之１","OBJECTID":170036},"geometry":{"x":170066.76999999955,"y":2546071.2899999991}},{"attributes":{"ID":170038,"DIS_CODE":0,"TOWNNAME":"北區","LI":"永祥里","LIN":"12鄰","STREET":"實踐街","SECT":" ","MAREA":" ","LANE":"１０３巷","ALLEY":"１３弄","HOUSE_NO":"９號之２","E_COORD97":170062.29000000001,"N_COORD97":2546071.1499999999,"ADDRESS":"實踐街１０３巷１３弄９號之２","OBJECTID":170037},"geometry":{"x":170062.29000000004,"y":2546071.1499999985}},{"attributes":{"ID":170039,"DIS_CODE":0,"TOWNNAME":"北區","LI":"永祥里","LIN":"12鄰","STREET":"實踐街","SECT":" ","MAREA":" ","LANE":"１０３巷","ALLEY":"１３弄","HOUSE_NO":"９號之３","E_COORD97":170057.07999999999,"N_COORD97":2546071.3199999998,"ADDRESS":"實踐街１０３巷１３弄９號之３","OBJECTID":170038},"geometry":{"x":170057.07999999914,"y":2546071.3200000022}},{"attributes":{"ID":170040,"DIS_CODE":0,"TOWNNAME":"北區","LI":"小康里","LIN":"4鄰","STREET":"實踐街","SECT":" ","MAREA":" ","LANE":"３９巷","ALLEY":"９９弄","HOUSE_NO":"１２號之１","E_COORD97":169858.60999999999,"N_COORD97":2546311.3300000001,"ADDRESS":"實踐街３９巷９９弄１２號之１","OBJECTID":170039},"geometry":{"x":169858.61000000034,"y":2546311.3300000019}},{"attributes":{"ID":170041,"DIS_CODE":0,"TOWNNAME":"北區","LI":"小康里","LIN":"4鄰","STREET":"實踐街","SECT":" ","MAREA":" ","LANE":"３９巷","ALLEY":"９９弄","HOUSE_NO":"１３號","E_COORD97":169887.32000000001,"N_COORD97":2546304.5699999998,"ADDRESS":"實踐街３９巷９９弄１３號","OBJECTID":170040},"geometry":{"x":169887.3200000003,"y":2546304.5700000003}},{"attributes":{"ID":170042,"DIS_CODE":0,"TOWNNAME":"北區","LI":"小康里","LIN":"4鄰","STREET":"實踐街","SECT":" ","MAREA":" ","LANE":"３９巷","ALLEY":"９９弄","HOUSE_NO":"１３號之１","E_COORD97":169882.01000000001,"N_COORD97":2546303.8300000001,"ADDRESS":"實踐街３９巷９９弄１３號之１","OBJECTID":170041},"geometry":{"x":169882.00999999978,"y":2546303.8300000038}},{"attributes":{"ID":170043,"DIS_CODE":0,"TOWNNAME":"北區","LI":"小康里","LIN":"4鄰","STREET":"實踐街","SECT":" ","MAREA":" ","LANE":"３９巷","ALLEY":"９９弄","HOUSE_NO":"１３號之２","E_COORD97":169876.42999999999,"N_COORD97":2546304.02,"ADDRESS":"實踐街３９巷９９弄１３號之２","OBJECTID":170042},"geometry":{"x":169876.43000000156,"y":2546304.0199999996}},{"attributes":{"ID":170044,"DIS_CODE":0,"TOWNNAME":"北區","LI":"小康里","LIN":"4鄰","STREET":"實踐街","SECT":" ","MAREA":" ","LANE":"３９巷","ALLEY":"９９弄","HOUSE_NO":"１３號之３","E_COORD97":169870.57000000001,"N_COORD97":2546303.5600000001,"ADDRESS":"實踐街３９巷９９弄１３號之３","OBJECTID":170043},"geometry":{"x":169870.5700000003,"y":2546303.5600000024}},{"attributes":{"ID":170045,"DIS_CODE":0,"TOWNNAME":"北區","LI":"小康里","LIN":"4鄰","STREET":"實踐街","SECT":" ","MAREA":" ","LANE":"３９巷","ALLEY":"９９弄","HOUSE_NO":"１３號之４","E_COORD97":169867.09,"N_COORD97":2546303.3799999999,"ADDRESS":"實踐街３９巷９９弄１３號之４","OBJECTID":170044},"geometry":{"x":169867.09000000171,"y":2546303.3800000008}},{"attributes":{"ID":170046,"DIS_CODE":0,"TOWNNAME":"北區","LI":"小康里","LIN":"4鄰","STREET":"實踐街","SECT":" ","MAREA":" ","LANE":"３９巷","ALLEY":"９９弄","HOUSE_NO":"１３號之５","E_COORD97":169861.87,"N_COORD97":2546303.1000000001,"ADDRESS":"實踐街３９巷９９弄１３號之５","OBJECTID":170045},"geometry":{"x":169861.87000000011,"y":2546303.1000000015}},{"attributes":{"ID":170047,"DIS_CODE":0,"TOWNNAME":"北區","LI":"小康里","LIN":"4鄰","STREET":"實踐街","SECT":" ","MAREA":" ","LANE":"３９巷","ALLEY":"９９弄","HOUSE_NO":"１３號之６","E_COORD97":169856.64999999999,"N_COORD97":2546301.73,"ADDRESS":"實踐街３９巷９９弄１３號之６","OBJECTID":170046},"geometry":{"x":169856.65000000037,"y":2546301.7300000042}},{"attributes":{"ID":170048,"DIS_CODE":0,"TOWNNAME":"北區","LI":"小康里","LIN":"4鄰","STREET":"實踐街","SECT":" ","MAREA":" ","LANE":"３９巷","ALLEY":"９９弄","HOUSE_NO":"１號","E_COORD97":169908.82999999999,"N_COORD97":2546305.48,"ADDRESS":"實踐街３９巷９９弄１號","OBJECTID":170047},"geometry":{"x":169908.83000000101,"y":2546305.4800000004}},{"attributes":{"ID":170049,"DIS_CODE":0,"TOWNNAME":"北區","LI":"小康里","LIN":"4鄰","STREET":"實踐街","SECT":" ","MAREA":" ","LANE":"３９巷","ALLEY":"９９弄","HOUSE_NO":"２號","E_COORD97":169880.03,"N_COORD97":2546315.7200000002,"ADDRESS":"實踐街３９巷９９弄２號","OBJECTID":170048},"geometry":{"x":169880.03000000119,"y":2546315.7200000025}},{"attributes":{"ID":170050,"DIS_CODE":0,"TOWNNAME":"北區","LI":"小康里","LIN":"4鄰","STREET":"實踐街","SECT":" ","MAREA":" ","LANE":"３９巷","ALLEY":"９９弄","HOUSE_NO":"３號","E_COORD97":169905.62,"N_COORD97":2546305.1099999999,"ADDRESS":"實踐街３９巷９９弄３號","OBJECTID":170049},"geometry":{"x":169905.62000000011,"y":2546305.1100000013}},{"attributes":{"ID":170051,"DIS_CODE":0,"TOWNNAME":"北區","LI":"小康里","LIN":"4鄰","STREET":"實踐街","SECT":" ","MAREA":" ","LANE":"３９巷","ALLEY":"９９弄","HOUSE_NO":"４號","E_COORD97":169875.26999999999,"N_COORD97":2546314.8100000001,"ADDRESS":"實踐街３９巷９９弄４號","OBJECTID":170050},"geometry":{"x":169875.26999999955,"y":2546314.8100000042}},{"attributes":{"ID":170052,"DIS_CODE":0,"TOWNNAME":"北區","LI":"小康里","LIN":"4鄰","STREET":"實踐街","SECT":" ","MAREA":" ","LANE":"３９巷","ALLEY":"９９弄","HOUSE_NO":"５號","E_COORD97":169901.87,"N_COORD97":2546304.4700000002,"ADDRESS":"實踐街３９巷９９弄５號","OBJECTID":170051},"geometry":{"x":169901.87000000011,"y":2546304.4700000025}},{"attributes":{"ID":170053,"DIS_CODE":0,"TOWNNAME":"北區","LI":"小康里","LIN":"4鄰","STREET":"實踐街","SECT":" ","MAREA":" ","LANE":"３９巷","ALLEY":"９９弄","HOUSE_NO":"６號","E_COORD97":169871.70000000001,"N_COORD97":2546314.54,"ADDRESS":"實踐街３９巷９９弄６號","OBJECTID":170052},"geometry":{"x":169871.70000000205,"y":2546314.5399999991}},{"attributes":{"ID":170054,"DIS_CODE":0,"TOWNNAME":"北區","LI":"小康里","LIN":"4鄰","STREET":"實踐街","SECT":" ","MAREA":" ","LANE":"３９巷","ALLEY":"９９弄","HOUSE_NO":"７號","E_COORD97":169897.57000000001,"N_COORD97":2546304.4700000002,"ADDRESS":"實踐街３９巷９９弄７號","OBJECTID":170053},"geometry":{"x":169897.5700000003,"y":2546304.4700000025}},{"attributes":{"ID":170055,"DIS_CODE":0,"TOWNNAME":"北區","LI":"小康里","LIN":"4鄰","STREET":"實踐街","SECT":" ","MAREA":" ","LANE":"３９巷","ALLEY":"９９弄","HOUSE_NO":"８號","E_COORD97":169866.85000000001,"N_COORD97":2546314.2599999998,"ADDRESS":"實踐街３９巷９９弄８號","OBJECTID":170054},"geometry":{"x":169866.85000000149,"y":2546314.2600000035}},{"attributes":{"ID":170056,"DIS_CODE":0,"TOWNNAME":"北區","LI":"小康里","LIN":"4鄰","STREET":"實踐街","SECT":" ","MAREA":" ","LANE":"３９巷","ALLEY":"９９弄","HOUSE_NO":"９號","E_COORD97":169893.45000000001,"N_COORD97":2546304.75,"ADDRESS":"實踐街３９巷９９弄９號","OBJECTID":170055},"geometry":{"x":169893.45000000019,"y":2546304.7500000019}},{"attributes":{"ID":170057,"DIS_CODE":0,"TOWNNAME":"北區","LI":"永祥里","LIN":"16鄰","STREET":"大武街","SECT":" ","MAREA":" ","LANE":"５０２巷","ALLEY":"２弄","HOUSE_NO":"２號","E_COORD97":170136.64999999999,"N_COORD97":2546377.73,"ADDRESS":"大武街５０２巷２弄２號","OBJECTID":170056},"geometry":{"x":170136.64999999944,"y":2546377.7300000023}},{"attributes":{"ID":170058,"DIS_CODE":0,"TOWNNAME":"北區","LI":"永祥里","LIN":"16鄰","STREET":"大武街","SECT":" ","MAREA":" ","LANE":"５０２巷","ALLEY":"２弄","HOUSE_NO":"２號之１","E_COORD97":170142.04999999999,"N_COORD97":2546377.5699999998,"ADDRESS":"大武街５０２巷２弄２號之１","OBJECTID":170057},"geometry":{"x":170142.05000000075,"y":2546377.5700000022}},{"attributes":{"ID":170059,"DIS_CODE":0,"TOWNNAME":"北區","LI":"永祥里","LIN":"16鄰","STREET":"大武街","SECT":" ","MAREA":" ","LANE":"５０２巷","ALLEY":"２弄","HOUSE_NO":"３號","E_COORD97":170141.75,"N_COORD97":2546389.4900000002,"ADDRESS":"大武街５０２巷２弄３號","OBJECTID":170058},"geometry":{"x":170141.75,"y":2546389.4900000002}},{"attributes":{"ID":170060,"DIS_CODE":0,"TOWNNAME":"北區","LI":"永祥里","LIN":"16鄰","STREET":"大武街","SECT":" ","MAREA":" ","LANE":"５０２巷","ALLEY":"２弄","HOUSE_NO":"５號","E_COORD97":170148.10000000001,"N_COORD97":2546389.4900000002,"ADDRESS":"大武街５０２巷２弄５號","OBJECTID":170059},"geometry":{"x":170148.10000000149,"y":2546389.4900000002}},{"attributes":{"ID":170061,"DIS_CODE":0,"TOWNNAME":"北區","LI":"永祥里","LIN":"4鄰","STREET":"大武街","SECT":" ","MAREA":" ","LANE":"４５６巷","ALLEY":"１弄","HOUSE_NO":"１號","E_COORD97":170003.37,"N_COORD97":2546398.0099999998,"ADDRESS":"大武街４５６巷１弄１號","OBJECTID":170060},"geometry":{"x":170003.37000000104,"y":2546398.0100000016}},{"attributes":{"ID":170062,"DIS_CODE":0,"TOWNNAME":"北區","LI":"永祥里","LIN":"4鄰","STREET":"大武街","SECT":" ","MAREA":" ","LANE":"４５６巷","ALLEY":"１弄","HOUSE_NO":"２號","E_COORD97":170008.29000000001,"N_COORD97":2546397.4700000002,"ADDRESS":"大武街４５６巷１弄２號","OBJECTID":170061},"geometry":{"x":170008.2900000019,"y":2546397.4700000007}},{"attributes":{"ID":170063,"DIS_CODE":0,"TOWNNAME":"北區","LI":"永祥里","LIN":"4鄰","STREET":"大武街","SECT":" ","MAREA":" ","LANE":"４５６巷","ALLEY":"１弄","HOUSE_NO":"３號","E_COORD97":170012.41,"N_COORD97":2546397.1099999999,"ADDRESS":"大武街４５６巷１弄３號","OBJECTID":170062},"geometry":{"x":170012.41000000015,"y":2546397.1100000013}},{"attributes":{"ID":170064,"DIS_CODE":0,"TOWNNAME":"後壁區","LI":"土溝里","LIN":"13鄰","STREET":" ","SECT":" ","MAREA":"土溝","LANE":" ","ALLEY":" ","HOUSE_NO":"１３３號之１６","E_COORD97":188496.98000000001,"N_COORD97":2585666.8599999999,"ADDRESS":"土溝１３３號之１６","OBJECTID":170063},"geometry":{"x":188496.98000000231,"y":2585666.8600000013}},{"attributes":{"ID":170065,"DIS_CODE":0,"TOWNNAME":"北區","LI":"永祥里","LIN":"4鄰","STREET":"大武街","SECT":" ","MAREA":" ","LANE":"４５６巷","ALLEY":"１弄","HOUSE_NO":"４號","E_COORD97":170015.45000000001,"N_COORD97":2546397.1099999999,"ADDRESS":"大武街４５６巷１弄４號","OBJECTID":170064},"geometry":{"x":170015.45000000019,"y":2546397.1100000013}},{"attributes":{"ID":170066,"DIS_CODE":0,"TOWNNAME":"北區","LI":"永祥里","LIN":"4鄰","STREET":"大武街","SECT":" ","MAREA":" ","LANE":"４５６巷","ALLEY":"１弄","HOUSE_NO":"５號","E_COORD97":170018.85000000001,"N_COORD97":2546397.29,"ADDRESS":"大武街４５６巷１弄５號","OBJECTID":170065},"geometry":{"x":170018.84999999963,"y":2546397.2899999991}},{"attributes":{"ID":170067,"DIS_CODE":0,"TOWNNAME":"北區","LI":"永祥里","LIN":"4鄰","STREET":"大武街","SECT":" ","MAREA":" ","LANE":"４５６巷","ALLEY":"１弄","HOUSE_NO":"６號","E_COORD97":170022.07000000001,"N_COORD97":2546396.4900000002,"ADDRESS":"大武街４５６巷１弄６號","OBJECTID":170066},"geometry":{"x":170022.07000000123,"y":2546396.4900000002}},{"attributes":{"ID":170068,"DIS_CODE":0,"TOWNNAME":"北區","LI":"永祥里","LIN":"4鄰","STREET":"大武街","SECT":" ","MAREA":" ","LANE":"４５６巷","ALLEY":"１弄","HOUSE_NO":"７號","E_COORD97":170025.47,"N_COORD97":2546395.0600000001,"ADDRESS":"大武街４５６巷１弄７號","OBJECTID":170067},"geometry":{"x":170025.4700000016,"y":2546395.0600000024}},{"attributes":{"ID":170069,"DIS_CODE":0,"TOWNNAME":"北區","LI":"永祥里","LIN":"4鄰","STREET":"大武街","SECT":" ","MAREA":" ","LANE":"４５６巷","ALLEY":"１弄","HOUSE_NO":"８號","E_COORD97":170029.76999999999,"N_COORD97":2546395.5,"ADDRESS":"大武街４５６巷１弄８號","OBJECTID":170068},"geometry":{"x":170029.76999999955,"y":2546395.5000000019}},{"attributes":{"ID":170070,"DIS_CODE":0,"TOWNNAME":"北區","LI":"永祥里","LIN":"4鄰","STREET":"大武街","SECT":" ","MAREA":" ","LANE":"４５６巷","ALLEY":"６弄","HOUSE_NO":"１０號","E_COORD97":169965.41,"N_COORD97":2546420.3100000001,"ADDRESS":"大武街４５６巷６弄１０號","OBJECTID":170069},"geometry":{"x":169965.41000000108,"y":2546420.3100000024}},{"attributes":{"ID":170071,"DIS_CODE":0,"TOWNNAME":"北區","LI":"永祥里","LIN":"4鄰","STREET":"大武街","SECT":" ","MAREA":" ","LANE":"４５６巷","ALLEY":"６弄","HOUSE_NO":"１１號","E_COORD97":169970.39999999999,"N_COORD97":2546405.5299999998,"ADDRESS":"大武街４５６巷６弄１１號","OBJECTID":170070},"geometry":{"x":169970.40000000037,"y":2546405.5299999993}},{"attributes":{"ID":170072,"DIS_CODE":0,"TOWNNAME":"北區","LI":"永祥里","LIN":"4鄰","STREET":"大武街","SECT":" ","MAREA":" ","LANE":"４５６巷","ALLEY":"６弄","HOUSE_NO":"１３號","E_COORD97":169963.31,"N_COORD97":2546408.04,"ADDRESS":"大武街４５６巷６弄１３號","OBJECTID":170071},"geometry":{"x":169963.30999999959,"y":2546408.040000001}},{"attributes":{"ID":170073,"DIS_CODE":0,"TOWNNAME":"北區","LI":"永祥里","LIN":"4鄰","STREET":"大武街","SECT":" ","MAREA":" ","LANE":"４５６巷","ALLEY":"６弄","HOUSE_NO":"１６號","E_COORD97":169946.59,"N_COORD97":2546427.3900000001,"ADDRESS":"大武街４５６巷６弄１６號","OBJECTID":170072},"geometry":{"x":169946.58999999892,"y":2546427.3900000025}},{"attributes":{"ID":170074,"DIS_CODE":0,"TOWNNAME":"南區","LI":"同安里","LIN":"12鄰","STREET":"明興路","SECT":" ","MAREA":" ","LANE":" ","ALLEY":" ","HOUSE_NO":"１２０３號","E_COORD97":166457.45000000001,"N_COORD97":2536229.98,"ADDRESS":"明興路１２０３號","OBJECTID":170073},"geometry":{"x":166457.45000000019,"y":2536229.9800000004}},{"attributes":{"ID":170075,"DIS_CODE":0,"TOWNNAME":"南區","LI":"同安里","LIN":"12鄰","STREET":"明興路","SECT":" ","MAREA":" ","LANE":" ","ALLEY":" ","HOUSE_NO":"１２０５號","E_COORD97":166457.79000000001,"N_COORD97":2536226.0499999998,"ADDRESS":"明興路１２０５號","OBJECTID":170074},"geometry":{"x":166457.79000000004,"y":2536226.0500000007}},{"attributes":{"ID":170076,"DIS_CODE":0,"TOWNNAME":"北區","LI":"永祥里","LIN":"4鄰","STREET":"大武街","SECT":" ","MAREA":" ","LANE":"４５６巷","ALLEY":"６弄","HOUSE_NO":"１７號","E_COORD97":169952.20999999999,"N_COORD97":2546409.6499999999,"ADDRESS":"大武街４５６巷６弄１７號","OBJECTID":170075},"geometry":{"x":169952.20999999996,"y":2546409.6500000004}},{"attributes":{"ID":170077,"DIS_CODE":0,"TOWNNAME":"北區","LI":"永祥里","LIN":"4鄰","STREET":"大武街","SECT":" ","MAREA":" ","LANE":"４５６巷","ALLEY":"６弄","HOUSE_NO":"１８號","E_COORD97":169941.84,"N_COORD97":2546427.75,"ADDRESS":"大武街４５６巷６弄１８號","OBJECTID":170076},"geometry":{"x":169941.84000000078,"y":2546427.7500000019}},{"attributes":{"ID":170078,"DIS_CODE":0,"TOWNNAME":"北區","LI":"永祥里","LIN":"4鄰","STREET":"大武街","SECT":" ","MAREA":" ","LANE":"４５６巷","ALLEY":"６弄","HOUSE_NO":"１９號","E_COORD97":169948.45000000001,"N_COORD97":2546410.8100000001,"ADDRESS":"大武街４５６巷６弄１９號","OBJECTID":170077},"geometry":{"x":169948.45000000112,"y":2546410.8100000024}},{"attributes":{"ID":170079,"DIS_CODE":0,"TOWNNAME":"北區","LI":"永祥里","LIN":"4鄰","STREET":"大武街","SECT":" ","MAREA":" ","LANE":"４５６巷","ALLEY":"６弄","HOUSE_NO":"１號","E_COORD97":169998.59,"N_COORD97":2546400.52,"ADDRESS":"大武街４５６巷６弄１號","OBJECTID":170078},"geometry":{"x":169998.58999999985,"y":2546400.5200000033}},{"attributes":{"ID":170080,"DIS_CODE":0,"TOWNNAME":"南區","LI":"同安里","LIN":"12鄰","STREET":"明興路","SECT":" ","MAREA":" ","LANE":" ","ALLEY":" ","HOUSE_NO":"１２０７號","E_COORD97":166458.64999999999,"N_COORD97":2536234.5899999999,"ADDRESS":"明興路１２０７號","OBJECTID":170079},"geometry":{"x":166458.6500000013,"y":2536234.5899999999}},{"attributes":{"ID":170081,"DIS_CODE":0,"TOWNNAME":"南區","LI":"同安里","LIN":"12鄰","STREET":"明興路","SECT":" ","MAREA":" ","LANE":" ","ALLEY":" ","HOUSE_NO":"１２１１號","E_COORD97":166450.60999999999,"N_COORD97":2536211.77,"ADDRESS":"明興路１２１１號","OBJECTID":170080},"geometry":{"x":166450.61000000127,"y":2536211.7700000014}},{"attributes":{"ID":170082,"DIS_CODE":0,"TOWNNAME":"南區","LI":"大林里","LIN":"12鄰","STREET":"國民路","SECT":" ","MAREA":" ","LANE":" ","ALLEY":" ","HOUSE_NO":"５９５號","E_COORD97":168459.38,"N_COORD97":2541634.6000000001,"ADDRESS":"國民路５９５號","OBJECTID":170081},"geometry":{"x":168459.37999999989,"y":2541634.6000000015}},{"attributes":{"ID":170083,"DIS_CODE":0,"TOWNNAME":"永康區","LI":"埔園里","LIN":"18鄰","STREET":"四維街","SECT":" ","MAREA":" ","LANE":" ","ALLEY":" ","HOUSE_NO":"１３０號","E_COORD97":173332.01000000001,"N_COORD97":2548308.5,"ADDRESS":"四維街１３０號","OBJECTID":170082},"geometry":{"x":173332.00999999978,"y":2548308.5}},{"attributes":{"ID":170084,"DIS_CODE":0,"TOWNNAME":"永康區","LI":"勝利里","LIN":"41鄰","STREET":"中華路","SECT":" ","MAREA":" ","LANE":" ","ALLEY":" ","HOUSE_NO":"２３９號","E_COORD97":171596.73000000001,"N_COORD97":2545105.5,"ADDRESS":"中華路２３９號","OBJECTID":170083},"geometry":{"x":171596.73000000045,"y":2545105.5}},{"attributes":{"ID":170085,"DIS_CODE":0,"TOWNNAME":"永康區","LI":"勝利里","LIN":"41鄰","STREET":"中華路","SECT":" ","MAREA":" ","LANE":" ","ALLEY":" ","HOUSE_NO":"２４５號","E_COORD97":171595.54000000001,"N_COORD97":2545119.4900000002,"ADDRESS":"中華路２４５號","OBJECTID":170084},"geometry":{"x":171595.54000000097,"y":2545119.4899999984}},{"attributes":{"ID":170086,"DIS_CODE":0,"TOWNNAME":"永康區","LI":"崑山里","LIN":"13鄰","STREET":"大灣路","SECT":" ","MAREA":" ","LANE":" ","ALLEY":" ","HOUSE_NO":"１０１２號","E_COORD97":173454.62,"N_COORD97":2544390.7400000002,"ADDRESS":"大灣路１０１２號","OBJECTID":170085},"geometry":{"x":173454.62000000104,"y":2544390.7400000002}},{"attributes":{"ID":170087,"DIS_CODE":0,"TOWNNAME":"永康區","LI":"崑山里","LIN":"18鄰","STREET":"大灣路","SECT":" ","MAREA":" ","LANE":" ","ALLEY":" ","HOUSE_NO":"９１８號","E_COORD97":173671.60999999999,"N_COORD97":2544437.1899999999,"ADDRESS":"大灣路９１８號","OBJECTID":170086},"geometry":{"x":173671.61000000127,"y":2544437.1900000013}},{"attributes":{"ID":170088,"DIS_CODE":0,"TOWNNAME":"永康區","LI":"崑山里","LIN":"13鄰","STREET":"大灣路","SECT":" ","MAREA":" ","LANE":" ","ALLEY":" ","HOUSE_NO":"１０１４號之１","E_COORD97":173506.19,"N_COORD97":2544434.6099999999,"ADDRESS":"大灣路１０１４號之１","OBJECTID":170087},"geometry":{"x":173506.19000000041,"y":2544434.6100000013}},{"attributes":{"ID":170089,"DIS_CODE":0,"TOWNNAME":"永康區","LI":"埔園里","LIN":"25鄰","STREET":"埔東街","SECT":" ","MAREA":" ","LANE":" ","ALLEY":" ","HOUSE_NO":"４３號","E_COORD97":173767.25,"N_COORD97":2548138.7400000002,"ADDRESS":"埔東街４３號","OBJECTID":170088},"geometry":{"x":173767.25000000093,"y":2548138.7400000039}},{"attributes":{"ID":170090,"DIS_CODE":0,"TOWNNAME":"永康區","LI":"埔園里","LIN":"25鄰","STREET":"埔東街","SECT":" ","MAREA":" ","LANE":" ","ALLEY":" ","HOUSE_NO":"１１號","E_COORD97":173787.98000000001,"N_COORD97":2548030.27,"ADDRESS":"埔東街１１號","OBJECTID":170089},"geometry":{"x":173787.98000000138,"y":2548030.2700000014}},{"attributes":{"ID":170091,"DIS_CODE":0,"TOWNNAME":"永康區","LI":"埔園里","LIN":"25鄰","STREET":"埔東街","SECT":" ","MAREA":" ","LANE":" ","ALLEY":" ","HOUSE_NO":"１９號","E_COORD97":173804.14999999999,"N_COORD97":2548334.7400000002,"ADDRESS":"埔東街１９號","OBJECTID":170090},"geometry":{"x":173804.1500000013,"y":2548334.7400000002}},{"attributes":{"ID":170092,"DIS_CODE":0,"TOWNNAME":"永康區","LI":"埔園里","LIN":"18鄰","STREET":"四維街","SECT":" ","MAREA":" ","LANE":" ","ALLEY":" ","HOUSE_NO":"１３２號","E_COORD97":173330.66,"N_COORD97":2548312.75,"ADDRESS":"四維街１３２號","OBJECTID":170091},"geometry":{"x":173330.66000000108,"y":2548312.7500000019}},{"attributes":{"ID":170093,"DIS_CODE":0,"TOWNNAME":"永康區","LI":"埔園里","LIN":"18鄰","STREET":"四維街","SECT":" ","MAREA":" ","LANE":" ","ALLEY":" ","HOUSE_NO":"１５６號","E_COORD97":173312.82999999999,"N_COORD97":2548369.25,"ADDRESS":"四維街１５６號","OBJECTID":170092},"geometry":{"x":173312.83000000007,"y":2548369.2500000037}},{"attributes":{"ID":170094,"DIS_CODE":0,"TOWNNAME":"後壁區","LI":"土溝里","LIN":"13鄰","STREET":" ","SECT":" ","MAREA":"土溝","LANE":" ","ALLEY":" ","HOUSE_NO":"１３３號之１９","E_COORD97":188404.92999999999,"N_COORD97":2585761.2599999998,"ADDRESS":"土溝１３３號之１９","OBJECTID":170093},"geometry":{"x":188404.93000000156,"y":2585761.2600000035}},{"attributes":{"ID":170095,"DIS_CODE":0,"TOWNNAME":"後壁區","LI":"土溝里","LIN":"13鄰","STREET":" ","SECT":" ","MAREA":"土溝","LANE":" ","ALLEY":" ","HOUSE_NO":"１３３號之２０","E_COORD97":188437.51000000001,"N_COORD97":2585676.4300000002,"ADDRESS":"土溝１３３號之２０","OBJECTID":170094},"geometry":{"x":188437.50999999978,"y":2585676.4300000016}},{"attributes":{"ID":170096,"DIS_CODE":0,"TOWNNAME":"後壁區","LI":"土溝里","LIN":"13鄰","STREET":" ","SECT":" ","MAREA":"土溝","LANE":" ","ALLEY":" ","HOUSE_NO":"１３３號之２２","E_COORD97":188241.82000000001,"N_COORD97":2585775.3399999999,"ADDRESS":"土溝１３３號之２２","OBJECTID":170095},"geometry":{"x":188241.82000000216,"y":2585775.3400000017}},{"attributes":{"ID":170097,"DIS_CODE":0,"TOWNNAME":"後壁區","LI":"土溝里","LIN":"13鄰","STREET":" ","SECT":" ","MAREA":"土溝","LANE":" ","ALLEY":" ","HOUSE_NO":"１３３號之３","E_COORD97":188579.98999999999,"N_COORD97":2585704.3199999998,"ADDRESS":"土溝１３３號之３","OBJECTID":170096},"geometry":{"x":188579.99000000115,"y":2585704.3200000022}},{"attributes":{"ID":170098,"DIS_CODE":0,"TOWNNAME":"南區","LI":"喜東里","LIN":"12鄰","STREET":"明興路","SECT":" ","MAREA":" ","LANE":" ","ALLEY":" ","HOUSE_NO":"６７９號之２０","E_COORD97":166015.56,"N_COORD97":2537534.7000000002,"ADDRESS":"明興路６７９號之２０","OBJECTID":170097},"geometry":{"x":166015.56000000145,"y":2537534.6999999993}},{"attributes":{"ID":170099,"DIS_CODE":0,"TOWNNAME":"新化區","LI":"東榮里","LIN":"12鄰","STREET":"中興路","SECT":" ","MAREA":" ","LANE":" ","ALLEY":" ","HOUSE_NO":"５３０號","E_COORD97":179973.70999999999,"N_COORD97":2547907.25,"ADDRESS":"中興路５３０號","OBJECTID":170098},"geometry":{"x":179973.71000000089,"y":2547907.25}},{"attributes":{"ID":170100,"DIS_CODE":0,"TOWNNAME":"北區","LI":"大港里","LIN":"12鄰","STREET":"大興街","SECT":" ","MAREA":" ","LANE":" ","ALLEY":" ","HOUSE_NO":"２９８號","E_COORD97":166529.35000000001,"N_COORD97":2545662.1699999999,"ADDRESS":"大興街２９８號","OBJECTID":170099},"geometry":{"x":166529.35000000056,"y":2545662.1700000018}},{"attributes":{"ID":170101,"DIS_CODE":0,"TOWNNAME":"永康區","LI":"東灣里","LIN":"26鄰","STREET":"大灣一街","SECT":" ","MAREA":" ","LANE":" ","ALLEY":" ","HOUSE_NO":"２３２號","E_COORD97":174915.39999999999,"N_COORD97":2544608.6699999999,"ADDRESS":"大灣一街２３２號","OBJECTID":170100},"geometry":{"x":174915.40000000224,"y":2544608.6699999999}},{"attributes":{"ID":170102,"DIS_CODE":0,"TOWNNAME":"永康區","LI":"埔園里","LIN":"26鄰","STREET":"中山路","SECT":" ","MAREA":" ","LANE":" ","ALLEY":" ","HOUSE_NO":"２６８號","E_COORD97":173721.70999999999,"N_COORD97":2548032.3599999999,"ADDRESS":"中山路２６８號","OBJECTID":170101},"geometry":{"x":173721.71000000089,"y":2548032.3600000013}},{"attributes":{"ID":170103,"DIS_CODE":0,"TOWNNAME":"永康區","LI":"南灣里","LIN":"25鄰","STREET":"立興街","SECT":" ","MAREA":" ","LANE":" ","ALLEY":" ","HOUSE_NO":"８６號","E_COORD97":174543.51999999999,"N_COORD97":2544781.79,"ADDRESS":"立興街８６號","OBJECTID":170102},"geometry":{"x":174543.51999999955,"y":2544781.790000001}},{"attributes":{"ID":170104,"DIS_CODE":0,"TOWNNAME":"永康區","LI":"埔園里","LIN":"39鄰","STREET":"自強路","SECT":" ","MAREA":" ","LANE":" ","ALLEY":" ","HOUSE_NO":"５５８號","E_COORD97":173989.12,"N_COORD97":2548123.5499999998,"ADDRESS":"自強路５５８號","OBJECTID":170103},"geometry":{"x":173989.12000000011,"y":2548123.5500000045}},{"attributes":{"ID":170105,"DIS_CODE":0,"TOWNNAME":"永康區","LI":"南灣里","LIN":"18鄰","STREET":"立興街","SECT":" ","MAREA":" ","LANE":" ","ALLEY":" ","HOUSE_NO":"１６０號","E_COORD97":174355.03,"N_COORD97":2544632.0899999999,"ADDRESS":"立興街１６０號","OBJECTID":170104},"geometry":{"x":174355.03000000212,"y":2544632.0899999999}},{"attributes":{"ID":170106,"DIS_CODE":0,"TOWNNAME":"永康區","LI":"東橋里","LIN":"18鄰","STREET":"中山南路","SECT":" ","MAREA":" ","LANE":" ","ALLEY":" ","HOUSE_NO":"３７３號","E_COORD97":172722.53,"N_COORD97":2546792.8900000001,"ADDRESS":"中山南路３７３號","OBJECTID":170105},"geometry":{"x":172722.53000000212,"y":2546792.8900000025}},{"attributes":{"ID":170107,"DIS_CODE":0,"TOWNNAME":"北區","LI":"永祥里","LIN":"17鄰","STREET":"大武街","SECT":" ","MAREA":" ","LANE":"５０２巷","ALLEY":"６弄","HOUSE_NO":"１０號","E_COORD97":170163.25,"N_COORD97":2546308.0800000001,"ADDRESS":"大武街５０２巷６弄１０號","OBJECTID":170106},"geometry":{"x":170163.25000000093,"y":2546308.0800000001}},{"attributes":{"ID":170108,"DIS_CODE":0,"TOWNNAME":"北區","LI":"永祥里","LIN":"17鄰","STREET":"大武街","SECT":" ","MAREA":" ","LANE":"５０２巷","ALLEY":"６弄","HOUSE_NO":"１１號","E_COORD97":170169.67999999999,"N_COORD97":2546319.79,"ADDRESS":"大武街５０２巷６弄１１號","OBJECTID":170107},"geometry":{"x":170169.68000000156,"y":2546319.7899999972}},{"attributes":{"ID":170109,"DIS_CODE":0,"TOWNNAME":"後壁區","LI":"長安里","LIN":"13鄰","STREET":" ","SECT":" ","MAREA":"中寮","LANE":" ","ALLEY":" ","HOUSE_NO":"１７８號之２","E_COORD97":184129.95000000001,"N_COORD97":2581560.2000000002,"ADDRESS":"中寮１７８號之２","OBJECTID":170108},"geometry":{"x":184129.95000000205,"y":2581560.1999999974}},{"attributes":{"ID":170110,"DIS_CODE":0,"TOWNNAME":"北區","LI":"永祥里","LIN":"17鄰","STREET":"大武街","SECT":" ","MAREA":" ","LANE":"５０２巷","ALLEY":"６弄","HOUSE_NO":"１２號","E_COORD97":170169.82999999999,"N_COORD97":2546308,"ADDRESS":"大武街５０２巷６弄１２號","OBJECTID":170109},"geometry":{"x":170169.83000000101,"y":2546308}},{"attributes":{"ID":170111,"DIS_CODE":0,"TOWNNAME":"北區","LI":"永祥里","LIN":"17鄰","STREET":"大武街","SECT":" ","MAREA":" ","LANE":"５０２巷","ALLEY":"６弄","HOUSE_NO":"１３號","E_COORD97":170175.17999999999,"N_COORD97":2546319.6299999999,"ADDRESS":"大武街５０２巷６弄１３號","OBJECTID":170110},"geometry":{"x":170175.18000000063,"y":2546319.629999999}},{"attributes":{"ID":170112,"DIS_CODE":0,"TOWNNAME":"北區","LI":"永祥里","LIN":"17鄰","STREET":"大武街","SECT":" ","MAREA":" ","LANE":"５０２巷","ALLEY":"６弄","HOUSE_NO":"１４號","E_COORD97":170175.73999999999,"N_COORD97":2546308.0800000001,"ADDRESS":"大武街５０２巷６弄１４號","OBJECTID":170111},"geometry":{"x":170175.74000000115,"y":2546308.0800000001}},{"attributes":{"ID":170113,"DIS_CODE":0,"TOWNNAME":"北區","LI":"永祥里","LIN":"6鄰","STREET":"實踐街","SECT":" ","MAREA":" ","LANE":"３９巷","ALLEY":"１２２弄","HOUSE_NO":"６號","E_COORD97":169995.38,"N_COORD97":2546355.9199999999,"ADDRESS":"實踐街３９巷１２２弄６號","OBJECTID":170112},"geometry":{"x":169995.37999999989,"y":2546355.9199999999}},{"attributes":{"ID":170114,"DIS_CODE":0,"TOWNNAME":"北區","LI":"永祥里","LIN":"6鄰","STREET":"實踐街","SECT":" ","MAREA":" ","LANE":"３９巷","ALLEY":"３６弄","HOUSE_NO":"１００號","E_COORD97":169967.45000000001,"N_COORD97":2546351.1699999999,"ADDRESS":"實踐街３９巷３６弄１００號","OBJECTID":170113},"geometry":{"x":169967.45000000112,"y":2546351.1699999999}},{"attributes":{"ID":170115,"DIS_CODE":0,"TOWNNAME":"北區","LI":"永祥里","LIN":"6鄰","STREET":"實踐街","SECT":" ","MAREA":" ","LANE":"３９巷","ALLEY":"３６弄","HOUSE_NO":"１０２號","E_COORD97":169968.17000000001,"N_COORD97":2546356.3599999999,"ADDRESS":"實踐街３９巷３６弄１０２號","OBJECTID":170114},"geometry":{"x":169968.16999999899,"y":2546356.3599999994}},{"attributes":{"ID":170116,"DIS_CODE":0,"TOWNNAME":"北區","LI":"永祥里","LIN":"6鄰","STREET":"實踐街","SECT":" ","MAREA":" ","LANE":"３９巷","ALLEY":"３６弄","HOUSE_NO":"１０４號","E_COORD97":169968.44,"N_COORD97":2546361,"ADDRESS":"實踐街３９巷３６弄１０４號","OBJECTID":170115},"geometry":{"x":169968.44000000041,"y":2546361.0000000019}},{"attributes":{"ID":170117,"DIS_CODE":0,"TOWNNAME":"北區","LI":"永祥里","LIN":"6鄰","STREET":"實踐街","SECT":" ","MAREA":" ","LANE":"３９巷","ALLEY":"３６弄","HOUSE_NO":"５３號","E_COORD97":169947.39999999999,"N_COORD97":2546288.5899999999,"ADDRESS":"實踐街３９巷３６弄５３號","OBJECTID":170116},"geometry":{"x":169947.4000000013,"y":2546288.5900000017}},{"attributes":{"ID":170118,"DIS_CODE":0,"TOWNNAME":"北區","LI":"永祥里","LIN":"6鄰","STREET":"實踐街","SECT":" ","MAREA":" ","LANE":"３９巷","ALLEY":"３６弄","HOUSE_NO":"５５號","E_COORD97":169948.29999999999,"N_COORD97":2546295.9199999999,"ADDRESS":"實踐街３９巷３６弄５５號","OBJECTID":170117},"geometry":{"x":169948.29999999981,"y":2546295.9199999999}},{"attributes":{"ID":170119,"DIS_CODE":0,"TOWNNAME":"北區","LI":"永祥里","LIN":"6鄰","STREET":"實踐街","SECT":" ","MAREA":" ","LANE":"３９巷","ALLEY":"３６弄","HOUSE_NO":"５７號","E_COORD97":169949.10999999999,"N_COORD97":2546299.7599999998,"ADDRESS":"實踐街３９巷３６弄５７號","OBJECTID":170118},"geometry":{"x":169949.11000000127,"y":2546299.7599999998}},{"attributes":{"ID":170120,"DIS_CODE":0,"TOWNNAME":"北區","LI":"永祥里","LIN":"6鄰","STREET":"實踐街","SECT":" ","MAREA":" ","LANE":"３９巷","ALLEY":"３６弄","HOUSE_NO":"５９號","E_COORD97":169949.91,"N_COORD97":2546307.4500000002,"ADDRESS":"實踐街３９巷３６弄５９號","OBJECTID":170119},"geometry":{"x":169949.91000000201,"y":2546307.4499999993}},{"attributes":{"ID":170121,"DIS_CODE":0,"TOWNNAME":"北區","LI":"大和里","LIN":" ","STREET":"文賢路","SECT":" ","MAREA":" ","LANE":"７９９巷","ALLEY":"５７弄","HOUSE_NO":"４２號之１","E_COORD97":167198.95000000001,"N_COORD97":2546193.2999999998,"ADDRESS":"文賢路７９９巷５７弄４２號之１","OBJECTID":170120},"geometry":{"x":167198.95000000112,"y":2546193.3000000026}},{"attributes":{"ID":170122,"DIS_CODE":0,"TOWNNAME":"安平區","LI":"平通里","LIN":"30鄰","STREET":"育平九街","SECT":" ","MAREA":" ","LANE":"３７２巷","ALLEY":"２３弄","HOUSE_NO":"１８號","E_COORD97":164546.29000000001,"N_COORD97":2543826.0800000001,"ADDRESS":"育平九街３７２巷２３弄１８號","OBJECTID":170121},"geometry":{"x":164546.28999999911,"y":2543826.0800000001}},{"attributes":{"ID":170123,"DIS_CODE":0,"TOWNNAME":"安平區","LI":"文平里","LIN":"4鄰","STREET":"中華西路","SECT":"二段","MAREA":" ","LANE":"１巷","ALLEY":"１７弄","HOUSE_NO":"１２號","E_COORD97":166421.89000000001,"N_COORD97":2543063.8300000001,"ADDRESS":"中華西路二段１巷１７弄１２號","OBJECTID":170122},"geometry":{"x":166421.89000000153,"y":2543063.8300000019}},{"attributes":{"ID":170124,"DIS_CODE":0,"TOWNNAME":"永康區","LI":"東橋里","LIN":"18鄰","STREET":"中山南路","SECT":" ","MAREA":" ","LANE":" ","ALLEY":" ","HOUSE_NO":"３９３號","E_COORD97":172761.78,"N_COORD97":2546809.6400000001,"ADDRESS":"中山南路３９３號","OBJECTID":170123},"geometry":{"x":172761.78000000119,"y":2546809.6400000006}},{"attributes":{"ID":170125,"DIS_CODE":0,"TOWNNAME":"新化區","LI":"全興里","LIN":"12鄰","STREET":" ","SECT":" ","MAREA":"竹子\u25A0","LANE":" ","ALLEY":" ","HOUSE_NO":"２４７號之１０２","E_COORD97":178266.09,"N_COORD97":2546847.2599999998,"ADDRESS":"竹子\u25A0２４７號之１０２","OBJECTID":170124},"geometry":{"x":178266.08999999985,"y":2546847.2600000016}},{"attributes":{"ID":170126,"DIS_CODE":0,"TOWNNAME":"新化區","LI":"全興里","LIN":"12鄰","STREET":" ","SECT":" ","MAREA":"竹子\u25A0","LANE":" ","ALLEY":" ","HOUSE_NO":"２４７號之１０８","E_COORD97":178273.19,"N_COORD97":2546802.2599999998,"ADDRESS":"竹子\u25A0２４７號之１０８","OBJECTID":170125},"geometry":{"x":178273.19000000041,"y":2546802.2600000035}},{"attributes":{"ID":170127,"DIS_CODE":0,"TOWNNAME":"南化區","LI":"西埔里","LIN":"12鄰","STREET":" ","SECT":" ","MAREA":"西埔","LANE":" ","ALLEY":" ","HOUSE_NO":"１３６號","E_COORD97":193240.79000000001,"N_COORD97":2549606.75,"ADDRESS":"西埔１３６號","OBJECTID":170126},"geometry":{"x":193240.7900000019,"y":2549606.7500000037}},{"attributes":{"ID":170128,"DIS_CODE":0,"TOWNNAME":"關廟區","LI":"深坑里","LIN":"12鄰","STREET":"南雄路","SECT":"一段","MAREA":" ","LANE":"４９５巷","ALLEY":" ","HOUSE_NO":"２６號","E_COORD97":181558.22,"N_COORD97":2537834.2999999998,"ADDRESS":"南雄路一段４９５巷２６號","OBJECTID":170127},"geometry":{"x":181558.22000000067,"y":2537834.3000000007}},{"attributes":{"ID":170129,"DIS_CODE":0,"TOWNNAME":"安平區","LI":"國平里","LIN":"32鄰","STREET":"健康三街","SECT":" ","MAREA":" ","LANE":"１２巷","ALLEY":"６０弄","HOUSE_NO":"１號","E_COORD97":164802.79999999999,"N_COORD97":2542872.1800000002,"ADDRESS":"健康三街１２巷６０弄１號","OBJECTID":170128},"geometry":{"x":164802.80000000075,"y":2542872.1799999997}},{"attributes":{"ID":170130,"DIS_CODE":0,"TOWNNAME":"後壁區","LI":"土溝里","LIN":"13鄰","STREET":" ","SECT":" ","MAREA":"土溝","LANE":" ","ALLEY":" ","HOUSE_NO":"１３３號之４","E_COORD97":188481.48000000001,"N_COORD97":2585715.46,"ADDRESS":"土溝１３３號之４","OBJECTID":170129},"geometry":{"x":188481.47999999952,"y":2585715.4600000009}},{"attributes":{"ID":170131,"DIS_CODE":0,"TOWNNAME":"後壁區","LI":"土溝里","LIN":"13鄰","STREET":" ","SECT":" ","MAREA":"土溝","LANE":" ","ALLEY":" ","HOUSE_NO":"１３３號之５","E_COORD97":188574.45000000001,"N_COORD97":2585846.4700000002,"ADDRESS":"土溝１３３號之５","OBJECTID":170130},"geometry":{"x":188574.45000000019,"y":2585846.4700000025}},{"attributes":{"ID":170132,"DIS_CODE":0,"TOWNNAME":"安平區","LI":"建平里","LIN":"24鄰","STREET":"育平九街","SECT":" ","MAREA":" ","LANE":"３７２巷","ALLEY":"１８９弄","HOUSE_NO":"１１號","E_COORD97":164556.42999999999,"N_COORD97":2544202.48,"ADDRESS":"育平九街３７２巷１８９弄１１號","OBJECTID":170131},"geometry":{"x":164556.4299999997,"y":2544202.4800000023}},{"attributes":{"ID":170133,"DIS_CODE":0,"TOWNNAME":"後壁區","LI":"土溝里","LIN":"13鄰","STREET":" ","SECT":" ","MAREA":"土溝","LANE":" ","ALLEY":" ","HOUSE_NO":"１３３號","E_COORD97":188602.25,"N_COORD97":2585754.2200000002,"ADDRESS":"土溝１３３號","OBJECTID":170132},"geometry":{"x":188602.25,"y":2585754.2200000007}},{"attributes":{"ID":170134,"DIS_CODE":0,"TOWNNAME":"後壁區","LI":"土溝里","LIN":"13鄰","STREET":" ","SECT":" ","MAREA":"土溝","LANE":" ","ALLEY":" ","HOUSE_NO":"１３４號","E_COORD97":188624.41,"N_COORD97":2585760.0699999998,"ADDRESS":"土溝１３４號","OBJECTID":170133},"geometry":{"x":188624.41000000108,"y":2585760.0700000022}},{"attributes":{"ID":170135,"DIS_CODE":0,"TOWNNAME":"安平區","LI":"億載里","LIN":"14鄰","STREET":"平豐路","SECT":" ","MAREA":" ","LANE":"１０１巷","ALLEY":"１３弄","HOUSE_NO":"５號","E_COORD97":164271.78,"N_COORD97":2543239.71,"ADDRESS":"平豐路１０１巷１３弄５號","OBJECTID":170134},"geometry":{"x":164271.78000000026,"y":2543239.7100000009}},{"attributes":{"ID":170136,"DIS_CODE":0,"TOWNNAME":"後壁區","LI":"土溝里","LIN":"13鄰","STREET":" ","SECT":" ","MAREA":"土溝","LANE":" ","ALLEY":" ","HOUSE_NO":"１３５號","E_COORD97":188627.73000000001,"N_COORD97":2585781.52,"ADDRESS":"土溝１３５號","OBJECTID":170135},"geometry":{"x":188627.73000000138,"y":2585781.5199999996}},{"attributes":{"ID":170137,"DIS_CODE":0,"TOWNNAME":"後壁區","LI":"土溝里","LIN":"13鄰","STREET":" ","SECT":" ","MAREA":"土溝","LANE":" ","ALLEY":" ","HOUSE_NO":"１３６號之１","E_COORD97":188653.13,"N_COORD97":2585781.29,"ADDRESS":"土溝１３６號之１","OBJECTID":170136},"geometry":{"x":188653.13000000082,"y":2585781.290000001}},{"attributes":{"ID":170138,"DIS_CODE":0,"TOWNNAME":"後壁區","LI":"土溝里","LIN":"13鄰","STREET":" ","SECT":" ","MAREA":"土溝","LANE":" ","ALLEY":" ","HOUSE_NO":"１３６號之２","E_COORD97":188683.76000000001,"N_COORD97":2585771.9300000002,"ADDRESS":"土溝１３６號之２","OBJECTID":170137},"geometry":{"x":188683.75999999978,"y":2585771.9299999997}},{"attributes":{"ID":170139,"DIS_CODE":0,"TOWNNAME":"後壁區","LI":"土溝里","LIN":"13鄰","STREET":" ","SECT":" ","MAREA":"土溝","LANE":" ","ALLEY":" ","HOUSE_NO":"１３６號","E_COORD97":188655.64000000001,"N_COORD97":2585758.0699999998,"ADDRESS":"土溝１３６號","OBJECTID":170138},"geometry":{"x":188655.63999999966,"y":2585758.0700000003}},{"attributes":{"ID":170140,"DIS_CODE":0,"TOWNNAME":"安平區","LI":"億載里","LIN":"14鄰","STREET":"平豐路","SECT":" ","MAREA":" ","LANE":"１０１巷","ALLEY":"１３弄","HOUSE_NO":"７號","E_COORD97":164272.04000000001,"N_COORD97":2543235.8700000001,"ADDRESS":"平豐路１０１巷１３弄７號","OBJECTID":170139},"geometry":{"x":164272.04000000097,"y":2543235.870000001}},{"attributes":{"ID":170141,"DIS_CODE":0,"TOWNNAME":"安平區","LI":"文平里","LIN":"14鄰","STREET":"建平五街","SECT":" ","MAREA":" ","LANE":"２２巷","ALLEY":"１５弄","HOUSE_NO":"８號","E_COORD97":166074.89000000001,"N_COORD97":2543172.54,"ADDRESS":"建平五街２２巷１５弄８號","OBJECTID":170140},"geometry":{"x":166074.8900000006,"y":2543172.540000001}},{"attributes":{"ID":170142,"DIS_CODE":0,"TOWNNAME":"安平區","LI":"國平里","LIN":"5鄰","STREET":"建平五街","SECT":" ","MAREA":" ","LANE":"１３１巷","ALLEY":"１８弄","HOUSE_NO":"４２號","E_COORD97":165563.20000000001,"N_COORD97":2543136.23,"ADDRESS":"建平五街１３１巷１８弄４２號","OBJECTID":170141},"geometry":{"x":165563.20000000112,"y":2543136.2300000023}},{"attributes":{"ID":170143,"DIS_CODE":0,"TOWNNAME":"後壁區","LI":"土溝里","LIN":"13鄰","STREET":" ","SECT":" ","MAREA":"土溝","LANE":" ","ALLEY":" ","HOUSE_NO":"１３７號之１","E_COORD97":188669.07000000001,"N_COORD97":2585810.54,"ADDRESS":"土溝１３７號之１","OBJECTID":170142},"geometry":{"x":188669.07000000216,"y":2585810.540000001}},{"attributes":{"ID":170144,"DIS_CODE":0,"TOWNNAME":"後壁區","LI":"土溝里","LIN":"13鄰","STREET":" ","SECT":" ","MAREA":"土溝","LANE":" ","ALLEY":" ","HOUSE_NO":"１３７號之３","E_COORD97":188649.92999999999,"N_COORD97":2585807.23,"ADDRESS":"土溝１３７號之３","OBJECTID":170143},"geometry":{"x":188649.9299999997,"y":2585807.2300000023}},{"attributes":{"ID":170145,"DIS_CODE":0,"TOWNNAME":"後壁區","LI":"土溝里","LIN":"13鄰","STREET":" ","SECT":" ","MAREA":"土溝","LANE":" ","ALLEY":" ","HOUSE_NO":"１３７號","E_COORD97":188659.63,"N_COORD97":2585804.1899999999,"ADDRESS":"土溝１３７號","OBJECTID":170144},"geometry":{"x":188659.63000000175,"y":2585804.1899999995}},{"attributes":{"ID":170146,"DIS_CODE":0,"TOWNNAME":"後壁區","LI":"土溝里","LIN":"13鄰","STREET":" ","SECT":" ","MAREA":"土溝","LANE":" ","ALLEY":" ","HOUSE_NO":"１３８號","E_COORD97":188683.28,"N_COORD97":2585797.04,"ADDRESS":"土溝１３８號","OBJECTID":170145},"geometry":{"x":188683.28000000119,"y":2585797.040000001}},{"attributes":{"ID":170147,"DIS_CODE":0,"TOWNNAME":"安平區","LI":"國平里","LIN":"5鄰","STREET":"建平五街","SECT":" ","MAREA":" ","LANE":"１３１巷","ALLEY":"１８弄","HOUSE_NO":"４６號","E_COORD97":165559.23000000001,"N_COORD97":2543136.54,"ADDRESS":"建平五街１３１巷１８弄４６號","OBJECTID":170146},"geometry":{"x":165559.23000000231,"y":2543136.5399999991}},{"attributes":{"ID":170148,"DIS_CODE":0,"TOWNNAME":"後壁區","LI":"長安里","LIN":"13鄰","STREET":" ","SECT":" ","MAREA":"中寮","LANE":" ","ALLEY":" ","HOUSE_NO":"１７４號之５","E_COORD97":184244.67000000001,"N_COORD97":2581539.75,"ADDRESS":"中寮１７４號之５","OBJECTID":170147},"geometry":{"x":184244.66999999993,"y":2581539.75}},{"attributes":{"ID":170149,"DIS_CODE":0,"TOWNNAME":"後壁區","LI":"長安里","LIN":"13鄰","STREET":" ","SECT":" ","MAREA":"中寮","LANE":" ","ALLEY":" ","HOUSE_NO":"１７４號之７","E_COORD97":184227.17000000001,"N_COORD97":2581524.3999999999,"ADDRESS":"中寮１７４號之７","OBJECTID":170148},"geometry":{"x":184227.17000000086,"y":2581524.4000000022}},{"attributes":{"ID":170150,"DIS_CODE":0,"TOWNNAME":"後壁區","LI":"長安里","LIN":"13鄰","STREET":" ","SECT":" ","MAREA":"中寮","LANE":" ","ALLEY":" ","HOUSE_NO":"１７４號之８","E_COORD97":184226.01999999999,"N_COORD97":2581509.3100000001,"ADDRESS":"中寮１７４號之８","OBJECTID":170149},"geometry":{"x":184226.02000000048,"y":2581509.3100000005}},{"attributes":{"ID":170151,"DIS_CODE":0,"TOWNNAME":"安平區","LI":"國平里","LIN":"5鄰","STREET":"建平五街","SECT":" ","MAREA":" ","LANE":"１３１巷","ALLEY":"１８弄","HOUSE_NO":"４０號","E_COORD97":165569.23000000001,"N_COORD97":2543135.75,"ADDRESS":"建平五街１３１巷１８弄４０號","OBJECTID":170150},"geometry":{"x":165569.23000000045,"y":2543135.7500000019}},{"attributes":{"ID":170152,"DIS_CODE":0,"TOWNNAME":"新營區","LI":"忠政里","LIN":"14鄰","STREET":"中正路","SECT":" ","MAREA":" ","LANE":"５９巷","ALLEY":"１９弄","HOUSE_NO":"６號","E_COORD97":179988.01999999999,"N_COORD97":2579581.6600000001,"ADDRESS":"中正路５９巷１９弄６號","OBJECTID":170151},"geometry":{"x":179988.02000000048,"y":2579581.6600000039}},{"attributes":{"ID":170153,"DIS_CODE":0,"TOWNNAME":"新營區","LI":"南紙里","LIN":"25鄰","STREET":"建業路","SECT":" ","MAREA":" ","LANE":"２２７巷","ALLEY":"２弄","HOUSE_NO":"４號","E_COORD97":178103.10999999999,"N_COORD97":2577477.6600000001,"ADDRESS":"建業路２２７巷２弄４號","OBJECTID":170152},"geometry":{"x":178103.11000000127,"y":2577477.660000002}},{"attributes":{"ID":170154,"DIS_CODE":0,"TOWNNAME":"後壁區","LI":"長安里","LIN":"13鄰","STREET":" ","SECT":" ","MAREA":"中寮","LANE":" ","ALLEY":" ","HOUSE_NO":"１７４號","E_COORD97":184197.51000000001,"N_COORD97":2581495.0499999998,"ADDRESS":"中寮１７４號","OBJECTID":170153},"geometry":{"x":184197.51000000071,"y":2581495.0500000045}},{"attributes":{"ID":170155,"DIS_CODE":0,"TOWNNAME":"新營區","LI":"民生里","LIN":"24鄰","STREET":"民生路","SECT":" ","MAREA":" ","LANE":"１３９巷","ALLEY":"７弄","HOUSE_NO":"５號","E_COORD97":179190.60999999999,"N_COORD97":2578584.3100000001,"ADDRESS":"民生路１３９巷７弄５號","OBJECTID":170154},"geometry":{"x":179190.61000000034,"y":2578584.3100000042}},{"attributes":{"ID":170156,"DIS_CODE":0,"TOWNNAME":"新營區","LI":"忠政里","LIN":"14鄰","STREET":"府西路","SECT":" ","MAREA":" ","LANE":"２３０巷","ALLEY":"１１弄","HOUSE_NO":"９號","E_COORD97":179844.09,"N_COORD97":2579648.7799999998,"ADDRESS":"府西路２３０巷１１弄９號","OBJECTID":170155},"geometry":{"x":179844.08999999985,"y":2579648.7800000012}},{"attributes":{"ID":170157,"DIS_CODE":0,"TOWNNAME":"後壁區","LI":"長安里","LIN":"13鄰","STREET":" ","SECT":" ","MAREA":"中寮","LANE":" ","ALLEY":" ","HOUSE_NO":"１７５號之２","E_COORD97":184152.41,"N_COORD97":2581502.4199999999,"ADDRESS":"中寮１７５號之２","OBJECTID":170156},"geometry":{"x":184152.41000000108,"y":2581502.4200000018}},{"attributes":{"ID":170158,"DIS_CODE":0,"TOWNNAME":"後壁區","LI":"長安里","LIN":"13鄰","STREET":" ","SECT":" ","MAREA":"中寮","LANE":" ","ALLEY":" ","HOUSE_NO":"１７５號之３","E_COORD97":184150.94,"N_COORD97":2581507.3599999999,"ADDRESS":"中寮１７５號之３","OBJECTID":170157},"geometry":{"x":184150.94000000134,"y":2581507.3599999994}},{"attributes":{"ID":170159,"DIS_CODE":0,"TOWNNAME":"新營區","LI":"延平里","LIN":"17鄰","STREET":"長春街","SECT":" ","MAREA":" ","LANE":"１３４巷","ALLEY":"１６弄","HOUSE_NO":"１１號","E_COORD97":179548.912816,"N_COORD97":2577884.40943,"ADDRESS":"長春街１３４巷１６弄１１號","OBJECTID":170158},"geometry":{"x":179548.91281600017,"y":2577884.4094270039}},{"attributes":{"ID":170160,"DIS_CODE":0,"TOWNNAME":"南化區","LI":"東和里","LIN":"12鄰","STREET":" ","SECT":" ","MAREA":"東和","LANE":" ","ALLEY":" ","HOUSE_NO":"１１１號","E_COORD97":197876.92000000001,"N_COORD97":2547609.75,"ADDRESS":"東和１１１號","OBJECTID":170159},"geometry":{"x":197876.92000000086,"y":2547609.7500000037}},{"attributes":{"ID":170161,"DIS_CODE":0,"TOWNNAME":"南化區","LI":"東和里","LIN":"12鄰","STREET":" ","SECT":" ","MAREA":"東和","LANE":" ","ALLEY":" ","HOUSE_NO":"１１２號之１","E_COORD97":197700.35000000001,"N_COORD97":2547775.7999999998,"ADDRESS":"東和１１２號之１","OBJECTID":170160},"geometry":{"x":197700.35000000056,"y":2547775.8000000007}},{"attributes":{"ID":170162,"DIS_CODE":0,"TOWNNAME":"南化區","LI":"玉山里","LIN":"12鄰","STREET":" ","SECT":" ","MAREA":"玉山","LANE":" ","ALLEY":" ","HOUSE_NO":"１３７號","E_COORD97":201417.72,"N_COORD97":2553699.75,"ADDRESS":"玉山１３７號","OBJECTID":170161},"geometry":{"x":201417.72000000067,"y":2553699.7500000019}},{"attributes":{"ID":170163,"DIS_CODE":0,"TOWNNAME":"南化區","LI":"南化里","LIN":"12鄰","STREET":" ","SECT":" ","MAREA":"南化","LANE":" ","ALLEY":" ","HOUSE_NO":"２６１之１號","E_COORD97":196844.54000000001,"N_COORD97":2548688.7999999998,"ADDRESS":"南化２６１之１號","OBJECTID":170162},"geometry":{"x":196844.54000000004,"y":2548688.8000000026}},{"attributes":{"ID":170164,"DIS_CODE":0,"TOWNNAME":"南化區","LI":"北寮里","LIN":"12鄰","STREET":" ","SECT":" ","MAREA":"北寮","LANE":" ","ALLEY":" ","HOUSE_NO":"１６６之４號","E_COORD97":198611.73999999999,"N_COORD97":2552765.7999999998,"ADDRESS":"北寮１６６之４號","OBJECTID":170163},"geometry":{"x":198611.74000000209,"y":2552765.8000000007}},{"attributes":{"ID":170165,"DIS_CODE":0,"TOWNNAME":"南化區","LI":"北寮里","LIN":"12鄰","STREET":" ","SECT":" ","MAREA":"北寮","LANE":" ","ALLEY":" ","HOUSE_NO":"１７４號","E_COORD97":198728.14000000001,"N_COORD97":2552668.75,"ADDRESS":"北寮１７４號","OBJECTID":170164},"geometry":{"x":198728.13999999966,"y":2552668.7500000019}},{"attributes":{"ID":170166,"DIS_CODE":0,"TOWNNAME":"南化區","LI":"西埔里","LIN":"12鄰","STREET":" ","SECT":" ","MAREA":"西埔","LANE":" ","ALLEY":" ","HOUSE_NO":"１２１號","E_COORD97":193326.39000000001,"N_COORD97":2549581.75,"ADDRESS":"西埔１２１號","OBJECTID":170165},"geometry":{"x":193326.3900000006,"y":2549581.75}},{"attributes":{"ID":170167,"DIS_CODE":0,"TOWNNAME":"後壁區","LI":"嘉苳里","LIN":"13鄰","STREET":" ","SECT":" ","MAREA":"本協","LANE":" ","ALLEY":" ","HOUSE_NO":"３１號","E_COORD97":187020.89999999999,"N_COORD97":2583530.3500000001,"ADDRESS":"本協３１號","OBJECTID":170166},"geometry":{"x":187020.90000000224,"y":2583530.3500000015}},{"attributes":{"ID":170168,"DIS_CODE":0,"TOWNNAME":"南化區","LI":"西埔里","LIN":"12鄰","STREET":" ","SECT":" ","MAREA":"西埔","LANE":" ","ALLEY":" ","HOUSE_NO":"１４８號","E_COORD97":193180.69,"N_COORD97":2549591.75,"ADDRESS":"西埔１４８號","OBJECTID":170167},"geometry":{"x":193180.69000000041,"y":2549591.75}},{"attributes":{"ID":170169,"DIS_CODE":0,"TOWNNAME":"南化區","LI":"南化里","LIN":"12鄰","STREET":" ","SECT":" ","MAREA":"南化","LANE":" ","ALLEY":" ","HOUSE_NO":"２５７號","E_COORD97":196848.94,"N_COORD97":2549079.75,"ADDRESS":"南化２５７號","OBJECTID":170168},"geometry":{"x":196848.94000000041,"y":2549079.75}},{"attributes":{"ID":170170,"DIS_CODE":0,"TOWNNAME":"南化區","LI":"南化里","LIN":"12鄰","STREET":" ","SECT":" ","MAREA":"南化","LANE":" ","ALLEY":" ","HOUSE_NO":"２５７之６號","E_COORD97":196826.54000000001,"N_COORD97":2549136.7999999998,"ADDRESS":"南化２５７之６號","OBJECTID":170169},"geometry":{"x":196826.54000000097,"y":2549136.8000000026}},{"attributes":{"ID":170171,"DIS_CODE":0,"TOWNNAME":"新營區","LI":"民榮里","LIN":"38鄰","STREET":"太子路","SECT":" ","MAREA":" ","LANE":"５３巷","ALLEY":"６弄","HOUSE_NO":"２１號之６","E_COORD97":178275.56,"N_COORD97":2577937.6000000001,"ADDRESS":"太子路５３巷６弄２１號之６","OBJECTID":170170},"geometry":{"x":178275.56000000052,"y":2577937.6000000015}},{"attributes":{"ID":170172,"DIS_CODE":0,"TOWNNAME":"新營區","LI":"南紙里","LIN":"26鄰","STREET":"建業路","SECT":" ","MAREA":" ","LANE":"２２７巷","ALLEY":"２２弄","HOUSE_NO":"１６號","E_COORD97":178070.04000000001,"N_COORD97":2577377.0600000001,"ADDRESS":"建業路２２７巷２２弄１６號","OBJECTID":170171},"geometry":{"x":178070.04000000004,"y":2577377.0600000024}},{"attributes":{"ID":170173,"DIS_CODE":0,"TOWNNAME":"新營區","LI":"南紙里","LIN":"26鄰","STREET":"建業路","SECT":" ","MAREA":" ","LANE":"２２７巷","ALLEY":"２４弄","HOUSE_NO":"６號","E_COORD97":178053.26999999999,"N_COORD97":2577339.4700000002,"ADDRESS":"建業路２２７巷２４弄６號","OBJECTID":170172},"geometry":{"x":178053.27000000142,"y":2577339.4700000025}},{"attributes":{"ID":170174,"DIS_CODE":0,"TOWNNAME":"新營區","LI":"民榮里","LIN":"36鄰","STREET":"新進路","SECT":"二段","MAREA":" ","LANE":"４４５巷","ALLEY":"２５弄","HOUSE_NO":"３７號","E_COORD97":178510.45000000001,"N_COORD97":2577895.4300000002,"ADDRESS":"新進路二段４４５巷２５弄３７號","OBJECTID":170173},"geometry":{"x":178510.45000000205,"y":2577895.4300000016}},{"attributes":{"ID":170175,"DIS_CODE":0,"TOWNNAME":"新營區","LI":"南紙里","LIN":"5鄰","STREET":"南紙街","SECT":" ","MAREA":" ","LANE":"２９巷","ALLEY":"６弄","HOUSE_NO":"１２號","E_COORD97":177873.01999999999,"N_COORD97":2577670.3700000001,"ADDRESS":"南紙街２９巷６弄１２號","OBJECTID":170174},"geometry":{"x":177873.01999999955,"y":2577670.3700000029}},{"attributes":{"ID":170176,"DIS_CODE":0,"TOWNNAME":"學甲區","LI":"三慶里","LIN":"16鄰","STREET":" ","SECT":" ","MAREA":"紅茄","LANE":" ","ALLEY":" ","HOUSE_NO":"２１號","E_COORD97":167581.32000000001,"N_COORD97":2575782.1299999999,"ADDRESS":"紅茄２１號","OBJECTID":170175},"geometry":{"x":167581.32000000123,"y":2575782.129999999}},{"attributes":{"ID":170177,"DIS_CODE":0,"TOWNNAME":"新營區","LI":"新北里","LIN":"25鄰","STREET":"民治路","SECT":" ","MAREA":" ","LANE":"１５６巷","ALLEY":"１５弄","HOUSE_NO":"３６號","E_COORD97":179010.66,"N_COORD97":2578751.2999999998,"ADDRESS":"民治路１５６巷１５弄３６號","OBJECTID":170176},"geometry":{"x":179010.65999999922,"y":2578751.3000000026}},{"attributes":{"ID":170178,"DIS_CODE":0,"TOWNNAME":"新營區","LI":"新南里","LIN":"24鄰","STREET":"隋唐街","SECT":" ","MAREA":" ","LANE":"２９５巷","ALLEY":"２７弄","HOUSE_NO":"１２號","E_COORD97":178205.32000000001,"N_COORD97":2578486.0600000001,"ADDRESS":"隋唐街２９５巷２７弄１２號","OBJECTID":170177},"geometry":{"x":178205.32000000123,"y":2578486.0600000005}},{"attributes":{"ID":170179,"DIS_CODE":0,"TOWNNAME":"新營區","LI":"南紙里","LIN":"25鄰","STREET":"建業路","SECT":" ","MAREA":" ","LANE":"２２７巷","ALLEY":"２弄","HOUSE_NO":"３２號","E_COORD97":178033.82000000001,"N_COORD97":2577482.4399999999,"ADDRESS":"建業路２２７巷２弄３２號","OBJECTID":170178},"geometry":{"x":178033.82000000123,"y":2577482.4399999995}},{"attributes":{"ID":170180,"DIS_CODE":0,"TOWNNAME":"新營區","LI":"民榮里","LIN":"39鄰","STREET":"太子路","SECT":" ","MAREA":" ","LANE":"５３巷","ALLEY":"８弄","HOUSE_NO":"１０號","E_COORD97":178348.67999999999,"N_COORD97":2577882.9100000001,"ADDRESS":"太子路５３巷８弄１０號","OBJECTID":170179},"geometry":{"x":178348.6799999997,"y":2577882.910000002}},{"attributes":{"ID":170181,"DIS_CODE":0,"TOWNNAME":"新營區","LI":"新北里","LIN":"25鄰","STREET":"民治路","SECT":" ","MAREA":" ","LANE":"１５６巷","ALLEY":"１５弄","HOUSE_NO":"２７號","E_COORD97":179040.20000000001,"N_COORD97":2578729.0099999998,"ADDRESS":"民治路１５６巷１５弄２７號","OBJECTID":170180},"geometry":{"x":179040.20000000019,"y":2578729.0100000016}},{"attributes":{"ID":170182,"DIS_CODE":0,"TOWNNAME":"新營區","LI":"民榮里","LIN":"38鄰","STREET":"太子路","SECT":" ","MAREA":" ","LANE":"５３巷","ALLEY":"６弄","HOUSE_NO":"２９號","E_COORD97":178241.57999999999,"N_COORD97":2577931.0600000001,"ADDRESS":"太子路５３巷６弄２９號","OBJECTID":170181},"geometry":{"x":178241.58000000194,"y":2577931.0600000005}},{"attributes":{"ID":170183,"DIS_CODE":0,"TOWNNAME":"南化區","LI":"東和里","LIN":"12鄰","STREET":" ","SECT":" ","MAREA":"東和","LANE":" ","ALLEY":" ","HOUSE_NO":"１１１號之５","E_COORD97":197567.41,"N_COORD97":2547698.79,"ADDRESS":"東和１１１號之５","OBJECTID":170182},"geometry":{"x":197567.41000000015,"y":2547698.7899999991}},{"attributes":{"ID":170184,"DIS_CODE":0,"TOWNNAME":"南化區","LI":"西埔里","LIN":"12鄰","STREET":" ","SECT":" ","MAREA":"西埔","LANE":" ","ALLEY":" ","HOUSE_NO":"１５５號","E_COORD97":193146.79000000001,"N_COORD97":2549587.75,"ADDRESS":"西埔１５５號","OBJECTID":170183},"geometry":{"x":193146.79000000004,"y":2549587.7500000019}},{"attributes":{"ID":170185,"DIS_CODE":0,"TOWNNAME":"新營區","LI":"新北里","LIN":"13鄰","STREET":"周武街","SECT":" ","MAREA":" ","LANE":"７９巷","ALLEY":"２２弄","HOUSE_NO":"３號","E_COORD97":179331.76999999999,"N_COORD97":2579000.04,"ADDRESS":"周武街７９巷２２弄３號","OBJECTID":170184},"geometry":{"x":179331.77000000048,"y":2579000.0399999991}},{"attributes":{"ID":170186,"DIS_CODE":0,"TOWNNAME":"南化區","LI":"東和里","LIN":"12鄰","STREET":" ","SECT":" ","MAREA":"東和","LANE":" ","ALLEY":" ","HOUSE_NO":"１１３之３號","E_COORD97":197280.75,"N_COORD97":2547997.7999999998,"ADDRESS":"東和１１３之３號","OBJECTID":170185},"geometry":{"x":197280.75000000186,"y":2547997.8000000026}},{"attributes":{"ID":170187,"DIS_CODE":0,"TOWNNAME":"南化區","LI":"西埔里","LIN":"12鄰","STREET":" ","SECT":" ","MAREA":"西埔","LANE":" ","ALLEY":" ","HOUSE_NO":"１３１號","E_COORD97":193266.48999999999,"N_COORD97":2549605.75,"ADDRESS":"西埔１３１號","OBJECTID":170186},"geometry":{"x":193266.49000000022,"y":2549605.75}},{"attributes":{"ID":170188,"DIS_CODE":0,"TOWNNAME":"南化區","LI":"西埔里","LIN":"12鄰","STREET":" ","SECT":" ","MAREA":"西埔","LANE":" ","ALLEY":" ","HOUSE_NO":"１２５號","E_COORD97":193307.39000000001,"N_COORD97":2549594.75,"ADDRESS":"西埔１２５號","OBJECTID":170187},"geometry":{"x":193307.38999999966,"y":2549594.75}},{"attributes":{"ID":170189,"DIS_CODE":0,"TOWNNAME":"新營區","LI":"新南里","LIN":"18鄰","STREET":"隋唐街","SECT":" ","MAREA":" ","LANE":"３１巷","ALLEY":"２８弄","HOUSE_NO":"２２號","E_COORD97":178629.45999999999,"N_COORD97":2578396.52,"ADDRESS":"隋唐街３１巷２８弄２２號","OBJECTID":170188},"geometry":{"x":178629.46000000089,"y":2578396.5200000014}},{"attributes":{"ID":170190,"DIS_CODE":0,"TOWNNAME":"新營區","LI":"民權里","LIN":"12鄰","STREET":"武昌街","SECT":" ","MAREA":" ","LANE":" ","ALLEY":" ","HOUSE_NO":"７號之１","E_COORD97":179898.34,"N_COORD97":2578331.8300000001,"ADDRESS":"武昌街７號之１","OBJECTID":170189},"geometry":{"x":179898.33999999985,"y":2578331.8300000001}},{"attributes":{"ID":170191,"DIS_CODE":0,"TOWNNAME":"新營區","LI":"南紙里","LIN":"26鄰","STREET":"建業路","SECT":" ","MAREA":" ","LANE":"２２７巷","ALLEY":"２２弄","HOUSE_NO":"２８號","E_COORD97":178040.45000000001,"N_COORD97":2577379.4100000001,"ADDRESS":"建業路２２７巷２２弄２８號","OBJECTID":170190},"geometry":{"x":178040.45000000019,"y":2577379.4099999983}},{"attributes":{"ID":170192,"DIS_CODE":0,"TOWNNAME":"新營區","LI":"民榮里","LIN":"32鄰","STREET":"太子路","SECT":" ","MAREA":" ","LANE":"５３巷","ALLEY":"１弄","HOUSE_NO":"４號","E_COORD97":178305.31,"N_COORD97":2578040.3799999999,"ADDRESS":"太子路５３巷１弄４號","OBJECTID":170191},"geometry":{"x":178305.30999999959,"y":2578040.3800000008}},{"attributes":{"ID":170193,"DIS_CODE":0,"TOWNNAME":"新營區","LI":"鐵線里","LIN":"12鄰","STREET":" ","SECT":" ","MAREA":"鐵線橋","LANE":" ","ALLEY":" ","HOUSE_NO":"１３０之１０號","E_COORD97":175738.98999999999,"N_COORD97":2573770.5600000001,"ADDRESS":"鐵線橋１３０之１０號","OBJECTID":170192},"geometry":{"x":175738.99000000115,"y":2573770.5600000005}},{"attributes":{"ID":170194,"DIS_CODE":0,"TOWNNAME":"新營區","LI":"太北里","LIN":"12鄰","STREET":" ","SECT":" ","MAREA":"太子宮","LANE":" ","ALLEY":" ","HOUSE_NO":"１０１號","E_COORD97":176001.79999999999,"N_COORD97":2576953.1099999999,"ADDRESS":"太子宮１０１號","OBJECTID":170193},"geometry":{"x":176001.79999999981,"y":2576953.1099999994}},{"attributes":{"ID":170195,"DIS_CODE":0,"TOWNNAME":"新營區","LI":"太北里","LIN":"12鄰","STREET":" ","SECT":" ","MAREA":"太子宮","LANE":" ","ALLEY":" ","HOUSE_NO":"１０５號","E_COORD97":175993.70000000001,"N_COORD97":2576968.6699999999,"ADDRESS":"太子宮１０５號","OBJECTID":170194},"geometry":{"x":175993.70000000112,"y":2576968.6700000018}},{"attributes":{"ID":170196,"DIS_CODE":0,"TOWNNAME":"新營區","LI":"太北里","LIN":"12鄰","STREET":" ","SECT":" ","MAREA":"太子宮","LANE":" ","ALLEY":" ","HOUSE_NO":"１０２號","E_COORD97":176029.64999999999,"N_COORD97":2576998.3900000001,"ADDRESS":"太子宮１０２號","OBJECTID":170195},"geometry":{"x":176029.6500000013,"y":2576998.3900000025}},{"attributes":{"ID":170197,"DIS_CODE":0,"TOWNNAME":"新營區","LI":"土庫里","LIN":"12鄰","STREET":" ","SECT":" ","MAREA":"土庫","LANE":" ","ALLEY":" ","HOUSE_NO":"９５號","E_COORD97":183292.76999999999,"N_COORD97":2579796.75,"ADDRESS":"土庫９５號","OBJECTID":170196},"geometry":{"x":183292.76999999955,"y":2579796.75}},{"attributes":{"ID":170198,"DIS_CODE":0,"TOWNNAME":"新營區","LI":"新北里","LIN":" ","STREET":"民生路","SECT":" ","MAREA":" ","LANE":"３８５巷","ALLEY":"１３弄","HOUSE_NO":"１９之３號","E_COORD97":178869.57999999999,"N_COORD97":2579116.3799999999,"ADDRESS":"民生路３８５巷１３弄１９之３號","OBJECTID":170197},"geometry":{"x":178869.58000000101,"y":2579116.379999999}},{"attributes":{"ID":170199,"DIS_CODE":0,"TOWNNAME":"新營區","LI":"鐵線里","LIN":"12鄰","STREET":" ","SECT":" ","MAREA":"鐵線橋","LANE":" ","ALLEY":" ","HOUSE_NO":"１３５之１號","E_COORD97":175715.95000000001,"N_COORD97":2573709.7599999998,"ADDRESS":"鐵線橋１３５之１號","OBJECTID":170198},"geometry":{"x":175715.95000000019,"y":2573709.7600000016}},{"attributes":{"ID":170200,"DIS_CODE":0,"TOWNNAME":"新營區","LI":"民榮里","LIN":"38鄰","STREET":"太子路","SECT":" ","MAREA":" ","LANE":"５３巷","ALLEY":"６弄","HOUSE_NO":"１之６號","E_COORD97":178339.09,"N_COORD97":2577969.3999999999,"ADDRESS":"太子路５３巷６弄１之６號","OBJECTID":170199},"geometry":{"x":178339.08999999985,"y":2577969.4000000004}},{"attributes":{"ID":170201,"DIS_CODE":0,"TOWNNAME":"新營區","LI":"新南里","LIN":"26鄰","STREET":"復興路","SECT":" ","MAREA":" ","LANE":"６２０巷","ALLEY":"６１弄","HOUSE_NO":"３７號","E_COORD97":177914.07000000001,"N_COORD97":2578519.6000000001,"ADDRESS":"復興路６２０巷６１弄３７號","OBJECTID":170200},"geometry":{"x":177914.0700000003,"y":2578519.5999999996}}]}