{"displayFieldName":"TOWNNAME","fieldAliases":{"ID":"ID","DIS_CODE":"DIS_CODE","TOWNNAME":"TOWNNAME","LI":"LI","LIN":"LIN","STREET":"STREET","SECT":"SECT","MAREA":"MAREA","LANE":"LANE","ALLEY":"ALLEY","HOUSE_NO":"HOUSE_NO","E_COORD97":"E_COORD97","N_COORD97":"N_COORD97","ADDRESS":"ADDRESS","OBJECTID":"OBJECTID"},"geometryType":"esriGeometryPoint","spatialReference":{"wkid":102443,"latestWkid":3826},"fields":[{"name":"ID","type":"esriFieldTypeDouble","alias":"ID"},{"name":"DIS_CODE","type":"esriFieldTypeInteger","alias":"DIS_CODE"},{"name":"TOWNNAME","type":"esriFieldTypeString","alias":"TOWNNAME","length":8},{"name":"LI","type":"esriFieldTypeString","alias":"LI","length":8},{"name":"LIN","type":"esriFieldTypeString","alias":"LIN","length":12},{"name":"STREET","type":"esriFieldTypeString","alias":"STREET","length":20},{"name":"SECT","type":"esriFieldTypeString","alias":"SECT","length":8},{"name":"MAREA","type":"esriFieldTypeString","alias":"MAREA","length":12},{"name":"LANE","type":"esriFieldTypeString","alias":"LANE","length":10},{"name":"ALLEY","type":"esriFieldTypeString","alias":"ALLEY","length":10},{"name":"HOUSE_NO","type":"esriFieldTypeString","alias":"HOUSE_NO","length":20},{"name":"E_COORD97","type":"esriFieldTypeDouble","alias":"E_COORD97"},{"name":"N_COORD97","type":"esriFieldTypeDouble","alias":"N_COORD97"},{"name":"ADDRESS","type":"esriFieldTypeString","alias":"ADDRESS","length":50},{"name":"OBJECTID","type":"esriFieldTypeOID","alias":"OBJECTID"}],"features":[{"attributes":{"ID":244605,"DIS_CODE":0,"TOWNNAME":"永康區","LI":"\u25A0行里","LIN":"24鄰","STREET":"中正南路","SECT":" ","MAREA":" ","LANE":"５９２巷","ALLEY":" ","HOUSE_NO":"２５號","E_COORD97":171557.92999999999,"N_COORD97":2548609.8799999999,"ADDRESS":"中正南路５９２巷２５號","OBJECTID":244601},"geometry":{"x":171557.9299999997,"y":2548609.879999999}},{"attributes":{"ID":244606,"DIS_CODE":0,"TOWNNAME":"永康區","LI":"\u25A0行里","LIN":"24鄰","STREET":"中正南路","SECT":" ","MAREA":" ","LANE":"５９２巷","ALLEY":" ","HOUSE_NO":"１６號","E_COORD97":171521.20000000001,"N_COORD97":2548656.2000000002,"ADDRESS":"中正南路５９２巷１６號","OBJECTID":244602},"geometry":{"x":171521.20000000205,"y":2548656.1999999993}},{"attributes":{"ID":244607,"DIS_CODE":0,"TOWNNAME":"永康區","LI":"\u25A0行里","LIN":"24鄰","STREET":"中正南路","SECT":" ","MAREA":" ","LANE":"５９２巷","ALLEY":" ","HOUSE_NO":"２３號","E_COORD97":171551.42999999999,"N_COORD97":2548616.1299999999,"ADDRESS":"中正南路５９２巷２３號","OBJECTID":244603},"geometry":{"x":171551.43000000063,"y":2548616.1300000027}},{"attributes":{"ID":244608,"DIS_CODE":0,"TOWNNAME":"永康區","LI":"\u25A0行里","LIN":"24鄰","STREET":"中正南路","SECT":" ","MAREA":" ","LANE":"５９２巷","ALLEY":" ","HOUSE_NO":"２６號","E_COORD97":171561.29999999999,"N_COORD97":2548606.6299999999,"ADDRESS":"中正南路５９２巷２６號","OBJECTID":244604},"geometry":{"x":171561.30000000075,"y":2548606.6300000008}},{"attributes":{"ID":244609,"DIS_CODE":0,"TOWNNAME":"永康區","LI":"\u25A0行里","LIN":"24鄰","STREET":"中正南路","SECT":" ","MAREA":" ","LANE":"５９２巷","ALLEY":" ","HOUSE_NO":"２０號","E_COORD97":171535.94,"N_COORD97":2548640.9500000002,"ADDRESS":"中正南路５９２巷２０號","OBJECTID":244605},"geometry":{"x":171535.94000000041,"y":2548640.9499999993}},{"attributes":{"ID":244610,"DIS_CODE":0,"TOWNNAME":"永康區","LI":"\u25A0洲里","LIN":"24鄰","STREET":"正南二街","SECT":" ","MAREA":" ","LANE":"４６巷","ALLEY":" ","HOUSE_NO":"７號","E_COORD97":170832.37,"N_COORD97":2548330.7400000002,"ADDRESS":"正南二街４６巷７號","OBJECTID":244606},"geometry":{"x":170832.37000000104,"y":2548330.7400000002}},{"attributes":{"ID":244611,"DIS_CODE":0,"TOWNNAME":"永康區","LI":"龍潭里","LIN":"24鄰","STREET":"中山北路","SECT":" ","MAREA":" ","LANE":"２６４巷","ALLEY":" ","HOUSE_NO":"１６７號","E_COORD97":174731.29999999999,"N_COORD97":2547174,"ADDRESS":"中山北路２６４巷１６７號","OBJECTID":244607},"geometry":{"x":174731.30000000075,"y":2547174.0000000037}},{"attributes":{"ID":244612,"DIS_CODE":0,"TOWNNAME":"永康區","LI":"龍潭里","LIN":"24鄰","STREET":"中山北路","SECT":" ","MAREA":" ","LANE":"２６４巷","ALLEY":" ","HOUSE_NO":"６７號","E_COORD97":174722.88,"N_COORD97":2547366.1899999999,"ADDRESS":"中山北路２６４巷６７號","OBJECTID":244608},"geometry":{"x":174722.87999999989,"y":2547366.1900000013}},{"attributes":{"ID":244613,"DIS_CODE":0,"TOWNNAME":"永康區","LI":"網寮里","LIN":"24鄰","STREET":"永春街","SECT":" ","MAREA":" ","LANE":"３８巷","ALLEY":" ","HOUSE_NO":"９號","E_COORD97":173758.98000000001,"N_COORD97":2546443.1099999999,"ADDRESS":"永春街３８巷９號","OBJECTID":244609},"geometry":{"x":173758.98000000231,"y":2546443.1099999994}},{"attributes":{"ID":244614,"DIS_CODE":0,"TOWNNAME":"新營區","LI":"民生里","LIN":"9鄰","STREET":"復興路","SECT":" ","MAREA":" ","LANE":"１４８巷","ALLEY":" ","HOUSE_NO":"７號之１","E_COORD97":179261.39999999999,"N_COORD97":2578104.5099999998,"ADDRESS":"復興路１４８巷７號之１","OBJECTID":244610},"geometry":{"x":179261.40000000037,"y":2578104.5100000016}},{"attributes":{"ID":244615,"DIS_CODE":0,"TOWNNAME":"仁德區","LI":"大甲里","LIN":"24鄰","STREET":"行大街","SECT":" ","MAREA":" ","LANE":"４０２巷","ALLEY":" ","HOUSE_NO":"５５號","E_COORD97":169573.70000000001,"N_COORD97":2535271.9900000002,"ADDRESS":"行大街４０２巷５５號","OBJECTID":244611},"geometry":{"x":169573.70000000112,"y":2535271.9900000021}},{"attributes":{"ID":244616,"DIS_CODE":0,"TOWNNAME":"新營區","LI":"民權里","LIN":"14鄰","STREET":"三民路","SECT":" ","MAREA":" ","LANE":" ","ALLEY":" ","HOUSE_NO":"８９號","E_COORD97":179817.17000000001,"N_COORD97":2578431.8300000001,"ADDRESS":"三民路８９號","OBJECTID":244612},"geometry":{"x":179817.16999999993,"y":2578431.8300000019}},{"attributes":{"ID":244617,"DIS_CODE":0,"TOWNNAME":"中西區","LI":"西賢里","LIN":"10鄰","STREET":"西賢一街","SECT":" ","MAREA":" ","LANE":"１１８巷","ALLEY":" ","HOUSE_NO":"３號","E_COORD97":165740.89000000001,"N_COORD97":2544697.6699999999,"ADDRESS":"西賢一街１１８巷３號","OBJECTID":244613},"geometry":{"x":165740.8900000006,"y":2544697.6700000037}},{"attributes":{"ID":244618,"DIS_CODE":0,"TOWNNAME":"中西區","LI":"西賢里","LIN":"9鄰","STREET":"西賢一街","SECT":" ","MAREA":" ","LANE":"１１８巷","ALLEY":" ","HOUSE_NO":"６號","E_COORD97":165733.62,"N_COORD97":2544670.6200000001,"ADDRESS":"西賢一街１１８巷６號","OBJECTID":244614},"geometry":{"x":165733.62000000011,"y":2544670.620000001}},{"attributes":{"ID":244619,"DIS_CODE":0,"TOWNNAME":"北區","LI":"裕民里","LIN":"11鄰","STREET":"成功路","SECT":" ","MAREA":" ","LANE":"６１４巷","ALLEY":" ","HOUSE_NO":"１５號","E_COORD97":167474.87,"N_COORD97":2544876.1000000001,"ADDRESS":"成功路６１４巷１５號","OBJECTID":244615},"geometry":{"x":167474.87000000011,"y":2544876.0999999996}},{"attributes":{"ID":244620,"DIS_CODE":0,"TOWNNAME":"北區","LI":"裕民里","LIN":"11鄰","STREET":"成功路","SECT":" ","MAREA":" ","LANE":"６１４巷","ALLEY":" ","HOUSE_NO":"１７號","E_COORD97":167473.44,"N_COORD97":2544866.2799999998,"ADDRESS":"成功路６１４巷１７號","OBJECTID":244616},"geometry":{"x":167473.44000000227,"y":2544866.2800000012}},{"attributes":{"ID":244621,"DIS_CODE":0,"TOWNNAME":"北區","LI":"裕民里","LIN":"11鄰","STREET":"成功路","SECT":" ","MAREA":" ","LANE":"６１４巷","ALLEY":" ","HOUSE_NO":"１９號","E_COORD97":167479.16,"N_COORD97":2544870.3199999998,"ADDRESS":"成功路６１４巷１９號","OBJECTID":244617},"geometry":{"x":167479.16000000108,"y":2544870.3200000022}},{"attributes":{"ID":244622,"DIS_CODE":0,"TOWNNAME":"北區","LI":"裕民里","LIN":"11鄰","STREET":"成功路","SECT":" ","MAREA":" ","LANE":"６１４巷","ALLEY":" ","HOUSE_NO":"２１號","E_COORD97":167489.37,"N_COORD97":2544874.0299999998,"ADDRESS":"成功路６１４巷２１號","OBJECTID":244618},"geometry":{"x":167489.37000000104,"y":2544874.0299999993}},{"attributes":{"ID":244623,"DIS_CODE":0,"TOWNNAME":"北區","LI":"裕民里","LIN":"11鄰","STREET":"成功路","SECT":" ","MAREA":" ","LANE":"６１４巷","ALLEY":" ","HOUSE_NO":"２３號","E_COORD97":167495.92999999999,"N_COORD97":2544875.8199999998,"ADDRESS":"成功路６１４巷２３號","OBJECTID":244619},"geometry":{"x":167495.9299999997,"y":2544875.8200000003}},{"attributes":{"ID":244624,"DIS_CODE":0,"TOWNNAME":"北區","LI":"裕民里","LIN":"11鄰","STREET":"成功路","SECT":" ","MAREA":" ","LANE":"６１４巷","ALLEY":" ","HOUSE_NO":"２５號","E_COORD97":167500.92999999999,"N_COORD97":2544877.7200000002,"ADDRESS":"成功路６１４巷２５號","OBJECTID":244620},"geometry":{"x":167500.9299999997,"y":2544877.7200000044}},{"attributes":{"ID":244625,"DIS_CODE":0,"TOWNNAME":"北區","LI":"裕民里","LIN":"11鄰","STREET":"成功路","SECT":" ","MAREA":" ","LANE":"６１４巷","ALLEY":" ","HOUSE_NO":"２７號","E_COORD97":167505.94,"N_COORD97":2544880.3399999999,"ADDRESS":"成功路６１４巷２７號","OBJECTID":244621},"geometry":{"x":167505.94000000134,"y":2544880.3400000017}},{"attributes":{"ID":244626,"DIS_CODE":0,"TOWNNAME":"北區","LI":"裕民里","LIN":"11鄰","STREET":"成功路","SECT":" ","MAREA":" ","LANE":"６１４巷","ALLEY":" ","HOUSE_NO":"３１號","E_COORD97":167514.39999999999,"N_COORD97":2544882.96,"ADDRESS":"成功路６１４巷３１號","OBJECTID":244622},"geometry":{"x":167514.4000000013,"y":2544882.959999999}},{"attributes":{"ID":244627,"DIS_CODE":0,"TOWNNAME":"北區","LI":"裕民里","LIN":"11鄰","STREET":"成功路","SECT":" ","MAREA":" ","LANE":"６１４巷","ALLEY":" ","HOUSE_NO":"３３號","E_COORD97":167518.09,"N_COORD97":2544884.6299999999,"ADDRESS":"成功路６１４巷３３號","OBJECTID":244623},"geometry":{"x":167518.09000000078,"y":2544884.6300000008}},{"attributes":{"ID":244628,"DIS_CODE":0,"TOWNNAME":"北區","LI":"裕民里","LIN":"11鄰","STREET":"成功路","SECT":" ","MAREA":" ","LANE":"６１４巷","ALLEY":" ","HOUSE_NO":"３５號","E_COORD97":167522.85999999999,"N_COORD97":2544887.0099999998,"ADDRESS":"成功路６１４巷３５號","OBJECTID":244624},"geometry":{"x":167522.8599999994,"y":2544887.0099999998}},{"attributes":{"ID":244629,"DIS_CODE":0,"TOWNNAME":"北區","LI":"裕民里","LIN":"11鄰","STREET":"成功路","SECT":" ","MAREA":" ","LANE":"６１４巷","ALLEY":" ","HOUSE_NO":"３７號","E_COORD97":167529.69,"N_COORD97":2544889.9100000001,"ADDRESS":"成功路６１４巷３７號","OBJECTID":244625},"geometry":{"x":167529.69000000134,"y":2544889.910000002}},{"attributes":{"ID":244630,"DIS_CODE":0,"TOWNNAME":"北區","LI":"裕民里","LIN":"11鄰","STREET":"成功路","SECT":" ","MAREA":" ","LANE":"６１４巷","ALLEY":" ","HOUSE_NO":"３９號","E_COORD97":167535.04999999999,"N_COORD97":2544891.6899999999,"ADDRESS":"成功路６１４巷３９號","OBJECTID":244626},"geometry":{"x":167535.05000000075,"y":2544891.6900000013}},{"attributes":{"ID":244631,"DIS_CODE":0,"TOWNNAME":"北區","LI":"裕民里","LIN":"11鄰","STREET":"成功路","SECT":" ","MAREA":" ","LANE":" ","ALLEY":" ","HOUSE_NO":"６１６號","E_COORD97":167431.76999999999,"N_COORD97":2544842.0699999998,"ADDRESS":"成功路６１６號","OBJECTID":244627},"geometry":{"x":167431.77000000048,"y":2544842.0700000022}},{"attributes":{"ID":244632,"DIS_CODE":0,"TOWNNAME":"北區","LI":"裕民里","LIN":"11鄰","STREET":"成功路","SECT":" ","MAREA":" ","LANE":" ","ALLEY":" ","HOUSE_NO":"６１８號","E_COORD97":167427.22,"N_COORD97":2544847.8799999999,"ADDRESS":"成功路６１８號","OBJECTID":244628},"geometry":{"x":167427.22000000067,"y":2544847.8800000027}},{"attributes":{"ID":244633,"DIS_CODE":0,"TOWNNAME":"北區","LI":"裕民里","LIN":"11鄰","STREET":"成功路","SECT":" ","MAREA":" ","LANE":" ","ALLEY":" ","HOUSE_NO":"６２０號","E_COORD97":167418.63,"N_COORD97":2544852.5499999998,"ADDRESS":"成功路６２０號","OBJECTID":244629},"geometry":{"x":167418.62999999989,"y":2544852.5500000026}},{"attributes":{"ID":244634,"DIS_CODE":0,"TOWNNAME":"麻豆區","LI":"\u25A0江里","LIN":"17鄰","STREET":"信義路","SECT":" ","MAREA":" ","LANE":" ","ALLEY":" ","HOUSE_NO":"１３號之６","E_COORD97":173426,"N_COORD97":2564633.2799999998,"ADDRESS":"信義路１３號之６","OBJECTID":244630},"geometry":{"x":173426.00000000186,"y":2564633.2800000012}},{"attributes":{"ID":244635,"DIS_CODE":0,"TOWNNAME":"麻豆區","LI":"\u25A0江里","LIN":"16鄰","STREET":"信義路","SECT":" ","MAREA":" ","LANE":" ","ALLEY":" ","HOUSE_NO":"１８號之１９","E_COORD97":173447.38,"N_COORD97":2564534.1499999999,"ADDRESS":"信義路１８號之１９","OBJECTID":244631},"geometry":{"x":173447.38000000082,"y":2564534.1500000004}},{"attributes":{"ID":244636,"DIS_CODE":0,"TOWNNAME":"永康區","LI":"\u25A0行里","LIN":"18鄰","STREET":"中正南路","SECT":" ","MAREA":" ","LANE":" ","ALLEY":" ","HOUSE_NO":"６６２號","E_COORD97":171572.95999999999,"N_COORD97":2548810.75,"ADDRESS":"中正南路６６２號","OBJECTID":244632},"geometry":{"x":171572.95999999996,"y":2548810.7500000019}},{"attributes":{"ID":244637,"DIS_CODE":0,"TOWNNAME":"永康區","LI":"\u25A0行里","LIN":"20鄰","STREET":"中正六街","SECT":" ","MAREA":" ","LANE":" ","ALLEY":" ","HOUSE_NO":"１１９號","E_COORD97":171835.23999999999,"N_COORD97":2548709.8100000001,"ADDRESS":"中正六街１１９號","OBJECTID":244633},"geometry":{"x":171835.24000000115,"y":2548709.8100000024}},{"attributes":{"ID":244638,"DIS_CODE":0,"TOWNNAME":"永康區","LI":"\u25A0洲里","LIN":"4鄰","STREET":"\u25A0洲二街","SECT":" ","MAREA":" ","LANE":" ","ALLEY":" ","HOUSE_NO":"１６３號","E_COORD97":171699.09,"N_COORD97":2549388.2400000002,"ADDRESS":"\u25A0洲二街１６３號","OBJECTID":244634},"geometry":{"x":171699.08999999985,"y":2549388.2400000002}},{"attributes":{"ID":244639,"DIS_CODE":0,"TOWNNAME":"永康區","LI":"\u25A0行里","LIN":"42鄰","STREET":"永安二街","SECT":" ","MAREA":" ","LANE":" ","ALLEY":" ","HOUSE_NO":"２３號","E_COORD97":172436.89000000001,"N_COORD97":2549596.0800000001,"ADDRESS":"永安二街２３號","OBJECTID":244635},"geometry":{"x":172436.8900000006,"y":2549596.0800000001}},{"attributes":{"ID":244640,"DIS_CODE":0,"TOWNNAME":"永康區","LI":"\u25A0洲里","LIN":"4鄰","STREET":"\u25A0洲二街","SECT":" ","MAREA":" ","LANE":" ","ALLEY":" ","HOUSE_NO":"１３７號","E_COORD97":171653.57000000001,"N_COORD97":2549347.25,"ADDRESS":"\u25A0洲二街１３７號","OBJECTID":244636},"geometry":{"x":171653.5700000003,"y":2549347.25}},{"attributes":{"ID":244641,"DIS_CODE":0,"TOWNNAME":"永康區","LI":"龍潭里","LIN":"42鄰","STREET":"永平街","SECT":" ","MAREA":" ","LANE":" ","ALLEY":" ","HOUSE_NO":"７８３號","E_COORD97":174623.03,"N_COORD97":2547134.5,"ADDRESS":"永平街７８３號","OBJECTID":244637},"geometry":{"x":174623.03000000119,"y":2547134.5000000019}},{"attributes":{"ID":244642,"DIS_CODE":0,"TOWNNAME":"永康區","LI":"\u25A0行里","LIN":"40鄰","STREET":"永安一街","SECT":" ","MAREA":" ","LANE":" ","ALLEY":" ","HOUSE_NO":"３號","E_COORD97":172658.57000000001,"N_COORD97":2549386.5600000001,"ADDRESS":"永安一街３號","OBJECTID":244638},"geometry":{"x":172658.57000000123,"y":2549386.5600000005}},{"attributes":{"ID":244643,"DIS_CODE":0,"TOWNNAME":"永康區","LI":"龍潭里","LIN":"42鄰","STREET":"國民路","SECT":" ","MAREA":" ","LANE":" ","ALLEY":" ","HOUSE_NO":"２１５號","E_COORD97":174509.67999999999,"N_COORD97":2547055.3700000001,"ADDRESS":"國民路２１５號","OBJECTID":244639},"geometry":{"x":174509.68000000063,"y":2547055.3700000029}},{"attributes":{"ID":244644,"DIS_CODE":0,"TOWNNAME":"南區","LI":"興農里","LIN":"11鄰","STREET":"明興路","SECT":" ","MAREA":" ","LANE":"１１５１巷","ALLEY":" ","HOUSE_NO":"１０號","E_COORD97":166569.57999999999,"N_COORD97":2536424.3500000001,"ADDRESS":"明興路１１５１巷１０號","OBJECTID":244640},"geometry":{"x":166569.58000000007,"y":2536424.3500000015}},{"attributes":{"ID":244645,"DIS_CODE":0,"TOWNNAME":"仁德區","LI":"上崙里","LIN":"24鄰","STREET":"中正路","SECT":"一段","MAREA":" ","LANE":"７７４巷","ALLEY":" ","HOUSE_NO":"８之１號","E_COORD97":173038.64999999999,"N_COORD97":2537887.29,"ADDRESS":"中正路一段７７４巷８之１號","OBJECTID":244641},"geometry":{"x":173038.65000000037,"y":2537887.2899999991}},{"attributes":{"ID":244646,"DIS_CODE":0,"TOWNNAME":"仁德區","LI":"大甲里","LIN":"24鄰","STREET":"二仁路","SECT":"一段","MAREA":" ","LANE":"３１５巷","ALLEY":" ","HOUSE_NO":"３３５號","E_COORD97":169614.26000000001,"N_COORD97":2535940.52,"ADDRESS":"二仁路一段３１５巷３３５號","OBJECTID":244642},"geometry":{"x":169614.25999999978,"y":2535940.5199999996}},{"attributes":{"ID":244647,"DIS_CODE":0,"TOWNNAME":"仁德區","LI":"上崙里","LIN":"24鄰","STREET":"中正路","SECT":"一段","MAREA":" ","LANE":"７７４巷","ALLEY":" ","HOUSE_NO":"１３號","E_COORD97":173036.23999999999,"N_COORD97":2537914.2799999998,"ADDRESS":"中正路一段７７４巷１３號","OBJECTID":244643},"geometry":{"x":173036.24000000022,"y":2537914.2799999993}},{"attributes":{"ID":244648,"DIS_CODE":0,"TOWNNAME":"東區","LI":"崇學里","LIN":"14鄰","STREET":"崇德路","SECT":" ","MAREA":" ","LANE":" ","ALLEY":" ","HOUSE_NO":"２６０號十樓之１","E_COORD97":170226.48999999999,"N_COORD97":2542024.9399999999,"ADDRESS":"崇德路２６０號十樓之１","OBJECTID":244644},"geometry":{"x":170226.49000000115,"y":2542024.9400000013}},{"attributes":{"ID":244649,"DIS_CODE":0,"TOWNNAME":"南區","LI":"興農里","LIN":"11鄰","STREET":"明興路","SECT":" ","MAREA":" ","LANE":"１１５１巷","ALLEY":" ","HOUSE_NO":"１０號之４","E_COORD97":166586,"N_COORD97":2536424.5899999999,"ADDRESS":"明興路１１５１巷１０號之４","OBJECTID":244645},"geometry":{"x":166586.00000000186,"y":2536424.5899999999}},{"attributes":{"ID":244650,"DIS_CODE":0,"TOWNNAME":"南區","LI":"興農里","LIN":"11鄰","STREET":"明興路","SECT":" ","MAREA":" ","LANE":"１１５１巷","ALLEY":" ","HOUSE_NO":"１０號之５","E_COORD97":166590.73000000001,"N_COORD97":2536427.0800000001,"ADDRESS":"明興路１１５１巷１０號之５","OBJECTID":244646},"geometry":{"x":166590.73000000138,"y":2536427.0800000019}},{"attributes":{"ID":244651,"DIS_CODE":0,"TOWNNAME":"南區","LI":"興農里","LIN":"11鄰","STREET":"明興路","SECT":" ","MAREA":" ","LANE":"１１５１巷","ALLEY":" ","HOUSE_NO":"１０號之６","E_COORD97":166594.70999999999,"N_COORD97":2536424.3500000001,"ADDRESS":"明興路１１５１巷１０號之６","OBJECTID":244647},"geometry":{"x":166594.71000000183,"y":2536424.3500000015}},{"attributes":{"ID":244652,"DIS_CODE":0,"TOWNNAME":"南區","LI":"興農里","LIN":"11鄰","STREET":"明興路","SECT":" ","MAREA":" ","LANE":"１１５１巷","ALLEY":" ","HOUSE_NO":"１０號之７","E_COORD97":166598.94,"N_COORD97":2536427.3300000001,"ADDRESS":"明興路１１５１巷１０號之７","OBJECTID":244648},"geometry":{"x":166598.94000000134,"y":2536427.3300000001}},{"attributes":{"ID":244653,"DIS_CODE":0,"TOWNNAME":"仁德區","LI":"大甲里","LIN":"24鄰","STREET":"行大街","SECT":" ","MAREA":" ","LANE":"４０２巷","ALLEY":" ","HOUSE_NO":"６３號","E_COORD97":169590.16,"N_COORD97":2535266,"ADDRESS":"行大街４０２巷６３號","OBJECTID":244649},"geometry":{"x":169590.16000000015,"y":2535266}},{"attributes":{"ID":244654,"DIS_CODE":0,"TOWNNAME":"仁德區","LI":"大甲里","LIN":"24鄰","STREET":"行大二街","SECT":" ","MAREA":" ","LANE":"２６巷","ALLEY":" ","HOUSE_NO":"３１號","E_COORD97":169624.57999999999,"N_COORD97":2535335.25,"ADDRESS":"行大二街２６巷３１號","OBJECTID":244650},"geometry":{"x":169624.58000000007,"y":2535335.25}},{"attributes":{"ID":244655,"DIS_CODE":0,"TOWNNAME":"仁德區","LI":"大甲里","LIN":"24鄰","STREET":"行大二街","SECT":" ","MAREA":" ","LANE":"２６巷","ALLEY":" ","HOUSE_NO":"２５號","E_COORD97":169637.84,"N_COORD97":2535332.5,"ADDRESS":"行大二街２６巷２５號","OBJECTID":244651},"geometry":{"x":169637.83999999985,"y":2535332.5000000019}},{"attributes":{"ID":244656,"DIS_CODE":0,"TOWNNAME":"仁德區","LI":"大甲里","LIN":"24鄰","STREET":"行大二街","SECT":" ","MAREA":" ","LANE":"１６巷","ALLEY":" ","HOUSE_NO":"２６號","E_COORD97":169659.29000000001,"N_COORD97":2535370.75,"ADDRESS":"行大二街１６巷２６號","OBJECTID":244652},"geometry":{"x":169659.29000000097,"y":2535370.7500000019}},{"attributes":{"ID":244657,"DIS_CODE":0,"TOWNNAME":"仁德區","LI":"大甲里","LIN":"24鄰","STREET":"行大二街","SECT":" ","MAREA":" ","LANE":"４６巷","ALLEY":" ","HOUSE_NO":"３８號","E_COORD97":169596.51999999999,"N_COORD97":2535318.4900000002,"ADDRESS":"行大二街４６巷３８號","OBJECTID":244653},"geometry":{"x":169596.52000000048,"y":2535318.4900000021}},{"attributes":{"ID":244658,"DIS_CODE":0,"TOWNNAME":"鹽水區","LI":"歡雅里","LIN":"11鄰","STREET":" ","SECT":" ","MAREA":"尾寮","LANE":" ","ALLEY":" ","HOUSE_NO":"１７號","E_COORD97":171985.76000000001,"N_COORD97":2576547.27,"ADDRESS":"尾寮１７號","OBJECTID":244654},"geometry":{"x":171985.75999999978,"y":2576547.2700000014}},{"attributes":{"ID":244659,"DIS_CODE":0,"TOWNNAME":"東區","LI":"崇學里","LIN":"14鄰","STREET":"崇德路","SECT":" ","MAREA":" ","LANE":" ","ALLEY":" ","HOUSE_NO":"２６０號十樓之１０","E_COORD97":170226.48999999999,"N_COORD97":2542024.9399999999,"ADDRESS":"崇德路２６０號十樓之１０","OBJECTID":244655},"geometry":{"x":170226.49000000115,"y":2542024.9400000013}},{"attributes":{"ID":244660,"DIS_CODE":0,"TOWNNAME":"東區","LI":"崇學里","LIN":"14鄰","STREET":"崇德路","SECT":" ","MAREA":" ","LANE":" ","ALLEY":" ","HOUSE_NO":"２６０號十樓之２","E_COORD97":170226.48999999999,"N_COORD97":2542024.9399999999,"ADDRESS":"崇德路２６０號十樓之２","OBJECTID":244656},"geometry":{"x":170226.49000000115,"y":2542024.9400000013}},{"attributes":{"ID":244661,"DIS_CODE":0,"TOWNNAME":"東區","LI":"崇學里","LIN":"14鄰","STREET":"崇德路","SECT":" ","MAREA":" ","LANE":" ","ALLEY":" ","HOUSE_NO":"２６０號十樓之３","E_COORD97":170226.48999999999,"N_COORD97":2542024.9399999999,"ADDRESS":"崇德路２６０號十樓之３","OBJECTID":244657},"geometry":{"x":170226.49000000115,"y":2542024.9400000013}},{"attributes":{"ID":244662,"DIS_CODE":0,"TOWNNAME":"東區","LI":"崇學里","LIN":"14鄰","STREET":"崇德路","SECT":" ","MAREA":" ","LANE":" ","ALLEY":" ","HOUSE_NO":"２６０號十樓之４","E_COORD97":170226.48999999999,"N_COORD97":2542024.9399999999,"ADDRESS":"崇德路２６０號十樓之４","OBJECTID":244658},"geometry":{"x":170226.49000000115,"y":2542024.9400000013}},{"attributes":{"ID":244663,"DIS_CODE":0,"TOWNNAME":"鹽水區","LI":"歡雅里","LIN":"11鄰","STREET":" ","SECT":" ","MAREA":"尾寮","LANE":" ","ALLEY":" ","HOUSE_NO":"１９號","E_COORD97":171953.20999999999,"N_COORD97":2576526.1299999999,"ADDRESS":"尾寮１９號","OBJECTID":244659},"geometry":{"x":171953.21000000183,"y":2576526.1300000008}},{"attributes":{"ID":244664,"DIS_CODE":0,"TOWNNAME":"鹽水區","LI":"歡雅里","LIN":"11鄰","STREET":" ","SECT":" ","MAREA":"尾寮","LANE":" ","ALLEY":" ","HOUSE_NO":"２０號","E_COORD97":171957.73999999999,"N_COORD97":2576543.04,"ADDRESS":"尾寮２０號","OBJECTID":244660},"geometry":{"x":171957.74000000022,"y":2576543.0399999991}},{"attributes":{"ID":244665,"DIS_CODE":0,"TOWNNAME":"鹽水區","LI":"歡雅里","LIN":"11鄰","STREET":" ","SECT":" ","MAREA":"尾寮","LANE":" ","ALLEY":" ","HOUSE_NO":"５號之１","E_COORD97":172035.54999999999,"N_COORD97":2576538.1699999999,"ADDRESS":"尾寮５號之１","OBJECTID":244661},"geometry":{"x":172035.55000000168,"y":2576538.1700000018}},{"attributes":{"ID":244666,"DIS_CODE":0,"TOWNNAME":"鹽水區","LI":"歡雅里","LIN":"11鄰","STREET":" ","SECT":" ","MAREA":"尾寮","LANE":" ","ALLEY":" ","HOUSE_NO":"５號","E_COORD97":172007.35000000001,"N_COORD97":2576535.5299999998,"ADDRESS":"尾寮５號","OBJECTID":244662},"geometry":{"x":172007.34999999963,"y":2576535.5299999993}},{"attributes":{"ID":244667,"DIS_CODE":0,"TOWNNAME":"鹽水區","LI":"歡雅里","LIN":"11鄰","STREET":" ","SECT":" ","MAREA":"尾寮","LANE":" ","ALLEY":" ","HOUSE_NO":"６號","E_COORD97":172017.07000000001,"N_COORD97":2576557.1200000001,"ADDRESS":"尾寮６號","OBJECTID":244663},"geometry":{"x":172017.06999999937,"y":2576557.120000001}},{"attributes":{"ID":244668,"DIS_CODE":0,"TOWNNAME":"鹽水區","LI":"歡雅里","LIN":"11鄰","STREET":" ","SECT":" ","MAREA":"尾寮","LANE":" ","ALLEY":" ","HOUSE_NO":"７之１號","E_COORD97":171994.35999999999,"N_COORD97":2576591.7799999998,"ADDRESS":"尾寮７之１號","OBJECTID":244664},"geometry":{"x":171994.36000000034,"y":2576591.7799999993}},{"attributes":{"ID":244669,"DIS_CODE":0,"TOWNNAME":"仁德區","LI":"大甲里","LIN":"24鄰","STREET":"行大二街","SECT":" ","MAREA":" ","LANE":"２６巷","ALLEY":" ","HOUSE_NO":"９號","E_COORD97":169671.82999999999,"N_COORD97":2535325,"ADDRESS":"行大二街２６巷９號","OBJECTID":244665},"geometry":{"x":169671.83000000007,"y":2535325.0000000019}},{"attributes":{"ID":244670,"DIS_CODE":0,"TOWNNAME":"仁德區","LI":"大甲里","LIN":"24鄰","STREET":"行大二街","SECT":" ","MAREA":" ","LANE":"４６巷","ALLEY":" ","HOUSE_NO":"２８號","E_COORD97":169615.89999999999,"N_COORD97":2535306.9900000002,"ADDRESS":"行大二街４６巷２８號","OBJECTID":244666},"geometry":{"x":169615.90000000037,"y":2535306.9900000002}},{"attributes":{"ID":244671,"DIS_CODE":0,"TOWNNAME":"仁德區","LI":"大甲里","LIN":"24鄰","STREET":"行大二街","SECT":" ","MAREA":" ","LANE":"４６巷","ALLEY":" ","HOUSE_NO":"３５號","E_COORD97":169597.04000000001,"N_COORD97":2535296.2400000002,"ADDRESS":"行大二街４６巷３５號","OBJECTID":244667},"geometry":{"x":169597.04000000097,"y":2535296.2400000039}},{"attributes":{"ID":244672,"DIS_CODE":0,"TOWNNAME":"仁德區","LI":"仁德里","LIN":"24鄰","STREET":"文心路","SECT":" ","MAREA":" ","LANE":"１１巷","ALLEY":" ","HOUSE_NO":"２３號","E_COORD97":172083.38,"N_COORD97":2541354.8300000001,"ADDRESS":"文心路１１巷２３號","OBJECTID":244668},"geometry":{"x":172083.37999999989,"y":2541354.8300000019}},{"attributes":{"ID":244673,"DIS_CODE":0,"TOWNNAME":"仁德區","LI":"大甲里","LIN":"24鄰","STREET":"行大二街","SECT":" ","MAREA":" ","LANE":"４６巷","ALLEY":" ","HOUSE_NO":"２２號","E_COORD97":169628.48000000001,"N_COORD97":2535301.9900000002,"ADDRESS":"行大二街４６巷２２號","OBJECTID":244669},"geometry":{"x":169628.48000000138,"y":2535301.9900000021}},{"attributes":{"ID":244674,"DIS_CODE":0,"TOWNNAME":"仁德區","LI":"大甲里","LIN":"24鄰","STREET":"行大二街","SECT":" ","MAREA":" ","LANE":"４６巷","ALLEY":" ","HOUSE_NO":"４５號","E_COORD97":169576.82999999999,"N_COORD97":2535304.4900000002,"ADDRESS":"行大二街４６巷４５號","OBJECTID":244670},"geometry":{"x":169576.83000000007,"y":2535304.4900000039}},{"attributes":{"ID":244675,"DIS_CODE":0,"TOWNNAME":"仁德區","LI":"大甲里","LIN":"24鄰","STREET":"行大二街","SECT":" ","MAREA":" ","LANE":"１６巷","ALLEY":" ","HOUSE_NO":"２４號","E_COORD97":169663.29000000001,"N_COORD97":2535370.25,"ADDRESS":"行大二街１６巷２４號","OBJECTID":244671},"geometry":{"x":169663.29000000097,"y":2535370.2500000037}},{"attributes":{"ID":244676,"DIS_CODE":0,"TOWNNAME":"仁德區","LI":"大甲里","LIN":"24鄰","STREET":"行大二街","SECT":" ","MAREA":" ","LANE":"１６巷","ALLEY":" ","HOUSE_NO":"１４號","E_COORD97":169685.82000000001,"N_COORD97":2535366.75,"ADDRESS":"行大二街１６巷１４號","OBJECTID":244672},"geometry":{"x":169685.8200000003,"y":2535366.7499999981}},{"attributes":{"ID":244677,"DIS_CODE":0,"TOWNNAME":"仁德區","LI":"大甲里","LIN":"24鄰","STREET":"行大二街","SECT":" ","MAREA":" ","LANE":"４６巷","ALLEY":" ","HOUSE_NO":"１６號","E_COORD97":169648.38,"N_COORD97":2535298.2400000002,"ADDRESS":"行大二街４６巷１６號","OBJECTID":244673},"geometry":{"x":169648.38000000082,"y":2535298.2400000002}},{"attributes":{"ID":244678,"DIS_CODE":0,"TOWNNAME":"仁德區","LI":"大甲里","LIN":"24鄰","STREET":"行大二街","SECT":" ","MAREA":" ","LANE":"２６巷","ALLEY":" ","HOUSE_NO":"２９號","E_COORD97":169628.72,"N_COORD97":2535333.75,"ADDRESS":"行大二街２６巷２９號","OBJECTID":244674},"geometry":{"x":169628.7200000016,"y":2535333.7500000019}},{"attributes":{"ID":244679,"DIS_CODE":0,"TOWNNAME":"鹽水區","LI":"中境里","LIN":"11鄰","STREET":"金和路","SECT":" ","MAREA":" ","LANE":" ","ALLEY":" ","HOUSE_NO":"１號","E_COORD97":174621.75,"N_COORD97":2580365.4900000002,"ADDRESS":"金和路１號","OBJECTID":244675},"geometry":{"x":174621.75000000093,"y":2580365.4900000002}},{"attributes":{"ID":244680,"DIS_CODE":0,"TOWNNAME":"仁德區","LI":"大甲里","LIN":"24鄰","STREET":"行大二街","SECT":" ","MAREA":" ","LANE":"４６巷","ALLEY":" ","HOUSE_NO":"２７號","E_COORD97":169614.07000000001,"N_COORD97":2535290.2400000002,"ADDRESS":"行大二街４６巷２７號","OBJECTID":244676},"geometry":{"x":169614.07000000123,"y":2535290.2400000021}},{"attributes":{"ID":244681,"DIS_CODE":0,"TOWNNAME":"仁德區","LI":"大甲里","LIN":"24鄰","STREET":"行大二街","SECT":" ","MAREA":" ","LANE":"２６巷","ALLEY":" ","HOUSE_NO":"２１號","E_COORD97":169645.92999999999,"N_COORD97":2535330.25,"ADDRESS":"行大二街２６巷２１號","OBJECTID":244677},"geometry":{"x":169645.93000000156,"y":2535330.2500000019}},{"attributes":{"ID":244682,"DIS_CODE":0,"TOWNNAME":"仁德區","LI":"仁德里","LIN":"24鄰","STREET":"文心路","SECT":" ","MAREA":" ","LANE":"１１巷","ALLEY":" ","HOUSE_NO":"５號","E_COORD97":172119.17999999999,"N_COORD97":2541335.3300000001,"ADDRESS":"文心路１１巷５號","OBJECTID":244678},"geometry":{"x":172119.18000000156,"y":2541335.3300000001}},{"attributes":{"ID":244683,"DIS_CODE":0,"TOWNNAME":"仁德區","LI":"仁德里","LIN":"24鄰","STREET":"文心路","SECT":" ","MAREA":" ","LANE":"１１巷","ALLEY":" ","HOUSE_NO":"２號","E_COORD97":172131.06,"N_COORD97":2541347.5800000001,"ADDRESS":"文心路１１巷２號","OBJECTID":244679},"geometry":{"x":172131.05999999959,"y":2541347.5800000001}},{"attributes":{"ID":244684,"DIS_CODE":0,"TOWNNAME":"仁德區","LI":"仁德里","LIN":"24鄰","STREET":"文心路","SECT":" ","MAREA":" ","LANE":"１１巷","ALLEY":" ","HOUSE_NO":"１９號","E_COORD97":172091.17000000001,"N_COORD97":2541350.3300000001,"ADDRESS":"文心路１１巷１９號","OBJECTID":244680},"geometry":{"x":172091.17000000086,"y":2541350.3299999982}},{"attributes":{"ID":244685,"DIS_CODE":0,"TOWNNAME":"仁德區","LI":"大甲里","LIN":"24鄰","STREET":"行大二街","SECT":" ","MAREA":" ","LANE":"４６巷","ALLEY":" ","HOUSE_NO":"４０號","E_COORD97":169592.57000000001,"N_COORD97":2535319.9900000002,"ADDRESS":"行大二街４６巷４０號","OBJECTID":244681},"geometry":{"x":169592.5700000003,"y":2535319.9900000002}},{"attributes":{"ID":244686,"DIS_CODE":0,"TOWNNAME":"鹽水區","LI":"歡雅里","LIN":"11鄰","STREET":" ","SECT":" ","MAREA":"尾寮","LANE":" ","ALLEY":" ","HOUSE_NO":"７號","E_COORD97":172009.29999999999,"N_COORD97":2576585.77,"ADDRESS":"尾寮７號","OBJECTID":244682},"geometry":{"x":172009.29999999981,"y":2576585.7699999996}},{"attributes":{"ID":244687,"DIS_CODE":0,"TOWNNAME":"安平區","LI":"西門里","LIN":"11鄰","STREET":"古堡街","SECT":" ","MAREA":" ","LANE":"８１巷","ALLEY":" ","HOUSE_NO":"３號","E_COORD97":163974.28,"N_COORD97":2544812.98,"ADDRESS":"古堡街８１巷３號","OBJECTID":244683},"geometry":{"x":163974.28000000119,"y":2544812.9800000023}},{"attributes":{"ID":244688,"DIS_CODE":0,"TOWNNAME":"安平區","LI":"西門里","LIN":"11鄰","STREET":"古堡街","SECT":" ","MAREA":" ","LANE":"８１巷","ALLEY":" ","HOUSE_NO":"５號","E_COORD97":163965.09,"N_COORD97":2544812.04,"ADDRESS":"古堡街８１巷５號","OBJECTID":244684},"geometry":{"x":163965.09000000078,"y":2544812.0399999991}},{"attributes":{"ID":244689,"DIS_CODE":0,"TOWNNAME":"安平區","LI":"西門里","LIN":"11鄰","STREET":"古堡街","SECT":" ","MAREA":" ","LANE":"８１巷","ALLEY":" ","HOUSE_NO":"７號","E_COORD97":163955.54999999999,"N_COORD97":2544810.7000000002,"ADDRESS":"古堡街８１巷７號","OBJECTID":244685},"geometry":{"x":163955.54999999981,"y":2544810.6999999993}},{"attributes":{"ID":244690,"DIS_CODE":0,"TOWNNAME":"安平區","LI":"怡平里","LIN":"11鄰","STREET":"建平十二街","SECT":" ","MAREA":" ","LANE":"１４８巷","ALLEY":" ","HOUSE_NO":"１３號","E_COORD97":165774.79000000001,"N_COORD97":2544047.8399999999,"ADDRESS":"建平十二街１４８巷１３號","OBJECTID":244686},"geometry":{"x":165774.79000000004,"y":2544047.8399999999}},{"attributes":{"ID":244691,"DIS_CODE":0,"TOWNNAME":"仁德區","LI":"大甲里","LIN":"24鄰","STREET":"行大二街","SECT":" ","MAREA":" ","LANE":"２６巷","ALLEY":" ","HOUSE_NO":"１５號","E_COORD97":169659.23999999999,"N_COORD97":2535328,"ADDRESS":"行大二街２６巷１５號","OBJECTID":244687},"geometry":{"x":169659.24000000022,"y":2535328.0000000037}},{"attributes":{"ID":244692,"DIS_CODE":0,"TOWNNAME":"仁德區","LI":"仁德里","LIN":"24鄰","STREET":"文心路","SECT":" ","MAREA":" ","LANE":"１１巷","ALLEY":" ","HOUSE_NO":"２１號","E_COORD97":172087.12,"N_COORD97":2541352.0800000001,"ADDRESS":"文心路１１巷２１號","OBJECTID":244688},"geometry":{"x":172087.12000000011,"y":2541352.0800000038}},{"attributes":{"ID":244693,"DIS_CODE":0,"TOWNNAME":"仁德區","LI":"大甲里","LIN":"24鄰","STREET":"行大二街","SECT":" ","MAREA":" ","LANE":"２６巷","ALLEY":" ","HOUSE_NO":"２７號","E_COORD97":169633.17999999999,"N_COORD97":2535333.5,"ADDRESS":"行大二街２６巷２７號","OBJECTID":244689},"geometry":{"x":169633.18000000063,"y":2535333.5}},{"attributes":{"ID":244694,"DIS_CODE":0,"TOWNNAME":"仁德區","LI":"仁德里","LIN":"24鄰","STREET":"文心路","SECT":" ","MAREA":" ","LANE":"１１巷","ALLEY":" ","HOUSE_NO":"１７號","E_COORD97":172095.13,"N_COORD97":2541348.3300000001,"ADDRESS":"文心路１１巷１７號","OBJECTID":244690},"geometry":{"x":172095.13000000082,"y":2541348.3300000019}},{"attributes":{"ID":244695,"DIS_CODE":0,"TOWNNAME":"仁德區","LI":"仁德里","LIN":"24鄰","STREET":"文心路","SECT":" ","MAREA":" ","LANE":"１１巷","ALLEY":" ","HOUSE_NO":"１３號","E_COORD97":172103.37,"N_COORD97":2541343.8300000001,"ADDRESS":"文心路１１巷１３號","OBJECTID":244691},"geometry":{"x":172103.37000000104,"y":2541343.8300000038}},{"attributes":{"ID":244696,"DIS_CODE":0,"TOWNNAME":"仁德區","LI":"大甲里","LIN":"24鄰","STREET":"行大二街","SECT":" ","MAREA":" ","LANE":"１６巷","ALLEY":" ","HOUSE_NO":"２０號","E_COORD97":169672.48000000001,"N_COORD97":2535369,"ADDRESS":"行大二街１６巷２０號","OBJECTID":244692},"geometry":{"x":169672.48000000138,"y":2535369.0000000019}},{"attributes":{"ID":244697,"DIS_CODE":0,"TOWNNAME":"仁德區","LI":"大甲里","LIN":"24鄰","STREET":"行大二街","SECT":" ","MAREA":" ","LANE":"４６巷","ALLEY":" ","HOUSE_NO":"２９號","E_COORD97":169610.04000000001,"N_COORD97":2535291.2400000002,"ADDRESS":"行大二街４６巷２９號","OBJECTID":244693},"geometry":{"x":169610.0400000019,"y":2535291.2400000002}},{"attributes":{"ID":244698,"DIS_CODE":0,"TOWNNAME":"東區","LI":"崇學里","LIN":"14鄰","STREET":"崇德路","SECT":" ","MAREA":" ","LANE":" ","ALLEY":" ","HOUSE_NO":"２６０號十樓之５","E_COORD97":170226.48999999999,"N_COORD97":2542024.9399999999,"ADDRESS":"崇德路２６０號十樓之５","OBJECTID":244694},"geometry":{"x":170226.49000000115,"y":2542024.9400000013}},{"attributes":{"ID":244699,"DIS_CODE":0,"TOWNNAME":"東區","LI":"崇學里","LIN":"14鄰","STREET":"崇德路","SECT":" ","MAREA":" ","LANE":" ","ALLEY":" ","HOUSE_NO":"２６０號十樓之６","E_COORD97":170226.48999999999,"N_COORD97":2542024.9399999999,"ADDRESS":"崇德路２６０號十樓之６","OBJECTID":244695},"geometry":{"x":170226.49000000115,"y":2542024.9400000013}},{"attributes":{"ID":244700,"DIS_CODE":0,"TOWNNAME":"東區","LI":"崇學里","LIN":"14鄰","STREET":"崇德路","SECT":" ","MAREA":" ","LANE":" ","ALLEY":" ","HOUSE_NO":"２６０號十樓之７","E_COORD97":170226.48999999999,"N_COORD97":2542024.9399999999,"ADDRESS":"崇德路２６０號十樓之７","OBJECTID":244696},"geometry":{"x":170226.49000000115,"y":2542024.9400000013}},{"attributes":{"ID":244701,"DIS_CODE":0,"TOWNNAME":"中西區","LI":"開山里","LIN":"7鄰","STREET":"開山路","SECT":" ","MAREA":" ","LANE":"１２７巷","ALLEY":" ","HOUSE_NO":"１００號","E_COORD97":169038.29000000001,"N_COORD97":2543076.04,"ADDRESS":"開山路１２７巷１００號","OBJECTID":244697},"geometry":{"x":169038.29000000004,"y":2543076.0399999991}},{"attributes":{"ID":244702,"DIS_CODE":0,"TOWNNAME":"仁德區","LI":"大甲里","LIN":"24鄰","STREET":"行大二街","SECT":" ","MAREA":" ","LANE":"４６巷","ALLEY":" ","HOUSE_NO":"２４號","E_COORD97":169624.29999999999,"N_COORD97":2535303.7400000002,"ADDRESS":"行大二街４６巷２４號","OBJECTID":244698},"geometry":{"x":169624.29999999981,"y":2535303.7400000021}},{"attributes":{"ID":244703,"DIS_CODE":0,"TOWNNAME":"仁德區","LI":"仁德里","LIN":"24鄰","STREET":"文心路","SECT":" ","MAREA":" ","LANE":"１１巷","ALLEY":" ","HOUSE_NO":"２２號","E_COORD97":172098.76999999999,"N_COORD97":2541365.0800000001,"ADDRESS":"文心路１１巷２２號","OBJECTID":244699},"geometry":{"x":172098.77000000048,"y":2541365.0800000001}},{"attributes":{"ID":244704,"DIS_CODE":0,"TOWNNAME":"仁德區","LI":"仁德里","LIN":"24鄰","STREET":"文心路","SECT":" ","MAREA":" ","LANE":"１１巷","ALLEY":" ","HOUSE_NO":"１２號","E_COORD97":172115.51999999999,"N_COORD97":2541356.3300000001,"ADDRESS":"文心路１１巷１２號","OBJECTID":244700},"geometry":{"x":172115.52000000048,"y":2541356.3300000001}},{"attributes":{"ID":244705,"DIS_CODE":0,"TOWNNAME":"仁德區","LI":"仁德里","LIN":"24鄰","STREET":"文心路","SECT":" ","MAREA":" ","LANE":"１１巷","ALLEY":" ","HOUSE_NO":"８號","E_COORD97":172121.95999999999,"N_COORD97":2541352.3300000001,"ADDRESS":"文心路１１巷８號","OBJECTID":244701},"geometry":{"x":172121.95999999996,"y":2541352.3300000001}},{"attributes":{"ID":244706,"DIS_CODE":0,"TOWNNAME":"東區","LI":"泉南里","LIN":"24鄰","STREET":"府連路","SECT":" ","MAREA":" ","LANE":"３４４巷","ALLEY":" ","HOUSE_NO":"１８號","E_COORD97":169596.64999999999,"N_COORD97":2542730.1499999999,"ADDRESS":"府連路３４４巷１８號","OBJECTID":244702},"geometry":{"x":169596.6500000013,"y":2542730.1500000022}},{"attributes":{"ID":244707,"DIS_CODE":0,"TOWNNAME":"東區","LI":"崇學里","LIN":"14鄰","STREET":"崇德路","SECT":" ","MAREA":" ","LANE":" ","ALLEY":" ","HOUSE_NO":"２６０號十樓之８","E_COORD97":170226.48999999999,"N_COORD97":2542024.9399999999,"ADDRESS":"崇德路２６０號十樓之８","OBJECTID":244703},"geometry":{"x":170226.49000000115,"y":2542024.9400000013}},{"attributes":{"ID":244708,"DIS_CODE":0,"TOWNNAME":"安平區","LI":"港仔里","LIN":"11鄰","STREET":"延平街","SECT":" ","MAREA":" ","LANE":" ","ALLEY":" ","HOUSE_NO":"４１號","E_COORD97":164241,"N_COORD97":2544574.4399999999,"ADDRESS":"延平街４１號","OBJECTID":244704},"geometry":{"x":164241,"y":2544574.4400000013}},{"attributes":{"ID":244709,"DIS_CODE":0,"TOWNNAME":"東區","LI":"泉南里","LIN":"24鄰","STREET":"府連路","SECT":" ","MAREA":" ","LANE":"３４４巷","ALLEY":" ","HOUSE_NO":"２１號","E_COORD97":169611.59,"N_COORD97":2542696.1200000001,"ADDRESS":"府連路３４４巷２１號","OBJECTID":244705},"geometry":{"x":169611.59000000078,"y":2542696.1200000029}},{"attributes":{"ID":244710,"DIS_CODE":0,"TOWNNAME":"東區","LI":"泉南里","LIN":"24鄰","STREET":"府連路","SECT":" ","MAREA":" ","LANE":"３４４巷","ALLEY":" ","HOUSE_NO":"２２號","E_COORD97":169595.76999999999,"N_COORD97":2542717.3900000001,"ADDRESS":"府連路３４４巷２２號","OBJECTID":244706},"geometry":{"x":169595.76999999955,"y":2542717.3900000025}},{"attributes":{"ID":244711,"DIS_CODE":0,"TOWNNAME":"東區","LI":"泉南里","LIN":"24鄰","STREET":"府連路","SECT":" ","MAREA":" ","LANE":"３４４巷","ALLEY":" ","HOUSE_NO":"２３號","E_COORD97":169612.01999999999,"N_COORD97":2542692.0899999999,"ADDRESS":"府連路３４４巷２３號","OBJECTID":244707},"geometry":{"x":169612.02000000048,"y":2542692.0900000017}},{"attributes":{"ID":244712,"DIS_CODE":0,"TOWNNAME":"東區","LI":"泉南里","LIN":"24鄰","STREET":"府連路","SECT":" ","MAREA":" ","LANE":"３４４巷","ALLEY":" ","HOUSE_NO":"２４號","E_COORD97":169594.01000000001,"N_COORD97":2542711.8999999999,"ADDRESS":"府連路３４４巷２４號","OBJECTID":244708},"geometry":{"x":169594.00999999978,"y":2542711.9000000004}},{"attributes":{"ID":244713,"DIS_CODE":0,"TOWNNAME":"東區","LI":"泉南里","LIN":"24鄰","STREET":"府連路","SECT":" ","MAREA":" ","LANE":"３４４巷","ALLEY":" ","HOUSE_NO":"２６號","E_COORD97":169594.45000000001,"N_COORD97":2542705.2999999998,"ADDRESS":"府連路３４４巷２６號","OBJECTID":244709},"geometry":{"x":169594.45000000112,"y":2542705.3000000026}},{"attributes":{"ID":244714,"DIS_CODE":0,"TOWNNAME":"鹽水區","LI":"孫厝里","LIN":"11鄰","STREET":" ","SECT":" ","MAREA":"孫厝寮","LANE":" ","ALLEY":" ","HOUSE_NO":"８０之１號","E_COORD97":170516.48999999999,"N_COORD97":2577030.3700000001,"ADDRESS":"孫厝寮８０之１號","OBJECTID":244710},"geometry":{"x":170516.49000000115,"y":2577030.370000001}},{"attributes":{"ID":244715,"DIS_CODE":0,"TOWNNAME":"鹽水區","LI":"孫厝里","LIN":"11鄰","STREET":" ","SECT":" ","MAREA":"孫厝寮","LANE":" ","ALLEY":" ","HOUSE_NO":"８０號","E_COORD97":170534.37,"N_COORD97":2577029.27,"ADDRESS":"孫厝寮８０號","OBJECTID":244711},"geometry":{"x":170534.37000000011,"y":2577029.2699999996}},{"attributes":{"ID":244716,"DIS_CODE":0,"TOWNNAME":"鹽水區","LI":"孫厝里","LIN":"11鄰","STREET":" ","SECT":" ","MAREA":"孫厝寮","LANE":" ","ALLEY":" ","HOUSE_NO":"８１號","E_COORD97":170552.09,"N_COORD97":2577036.4700000002,"ADDRESS":"孫厝寮８１號","OBJECTID":244712},"geometry":{"x":170552.09000000078,"y":2577036.4700000007}},{"attributes":{"ID":244717,"DIS_CODE":0,"TOWNNAME":"鹽水區","LI":"孫厝里","LIN":"11鄰","STREET":" ","SECT":" ","MAREA":"孫厝寮","LANE":" ","ALLEY":" ","HOUSE_NO":"８２之２號","E_COORD97":170525.32999999999,"N_COORD97":2577061.1000000001,"ADDRESS":"孫厝寮８２之２號","OBJECTID":244713},"geometry":{"x":170525.33000000101,"y":2577061.0999999996}},{"attributes":{"ID":244718,"DIS_CODE":0,"TOWNNAME":"鹽水區","LI":"孫厝里","LIN":"11鄰","STREET":" ","SECT":" ","MAREA":"孫厝寮","LANE":" ","ALLEY":" ","HOUSE_NO":"８２之３號","E_COORD97":170524.82000000001,"N_COORD97":2577064.75,"ADDRESS":"孫厝寮８２之３號","OBJECTID":244714},"geometry":{"x":170524.8200000003,"y":2577064.75}},{"attributes":{"ID":244719,"DIS_CODE":0,"TOWNNAME":"鹽水區","LI":"孫厝里","LIN":"11鄰","STREET":" ","SECT":" ","MAREA":"孫厝寮","LANE":" ","ALLEY":" ","HOUSE_NO":"８２號","E_COORD97":170534.10999999999,"N_COORD97":2577054.6000000001,"ADDRESS":"孫厝寮８２號","OBJECTID":244715},"geometry":{"x":170534.11000000127,"y":2577054.5999999996}},{"attributes":{"ID":244720,"DIS_CODE":0,"TOWNNAME":"鹽水區","LI":"孫厝里","LIN":"11鄰","STREET":" ","SECT":" ","MAREA":"孫厝寮","LANE":" ","ALLEY":" ","HOUSE_NO":"８３號","E_COORD97":170549.54000000001,"N_COORD97":2577053.1200000001,"ADDRESS":"孫厝寮８３號","OBJECTID":244716},"geometry":{"x":170549.54000000097,"y":2577053.120000001}},{"attributes":{"ID":244721,"DIS_CODE":0,"TOWNNAME":"鹽水區","LI":"孫厝里","LIN":"11鄰","STREET":" ","SECT":" ","MAREA":"孫厝寮","LANE":" ","ALLEY":" ","HOUSE_NO":"８４號","E_COORD97":170520.60000000001,"N_COORD97":2577079.8700000001,"ADDRESS":"孫厝寮８４號","OBJECTID":244717},"geometry":{"x":170520.59999999963,"y":2577079.8700000029}},{"attributes":{"ID":244722,"DIS_CODE":0,"TOWNNAME":"鹽水區","LI":"孫厝里","LIN":"11鄰","STREET":" ","SECT":" ","MAREA":"孫厝寮","LANE":" ","ALLEY":" ","HOUSE_NO":"８５號之１","E_COORD97":170550.04999999999,"N_COORD97":2577083.6699999999,"ADDRESS":"孫厝寮８５號之１","OBJECTID":244718},"geometry":{"x":170550.04999999981,"y":2577083.6700000018}},{"attributes":{"ID":244723,"DIS_CODE":0,"TOWNNAME":"東區","LI":"泉南里","LIN":"24鄰","STREET":"府連路","SECT":" ","MAREA":" ","LANE":"３４４巷","ALLEY":" ","HOUSE_NO":"２８號","E_COORD97":169593.57000000001,"N_COORD97":2542698.71,"ADDRESS":"府連路３４４巷２８號","OBJECTID":244719},"geometry":{"x":169593.57000000123,"y":2542698.7100000028}},{"attributes":{"ID":244724,"DIS_CODE":0,"TOWNNAME":"東區","LI":"泉南里","LIN":"24鄰","STREET":"府連路","SECT":" ","MAREA":" ","LANE":"３４４巷","ALLEY":" ","HOUSE_NO":"２號","E_COORD97":169598.41,"N_COORD97":2542776.7599999998,"ADDRESS":"府連路３４４巷２號","OBJECTID":244720},"geometry":{"x":169598.41000000015,"y":2542776.7599999998}},{"attributes":{"ID":244725,"DIS_CODE":0,"TOWNNAME":"東區","LI":"泉南里","LIN":"24鄰","STREET":"府連路","SECT":" ","MAREA":" ","LANE":"３４４巷","ALLEY":" ","HOUSE_NO":"３０號","E_COORD97":169592.91,"N_COORD97":2542691.0099999998,"ADDRESS":"府連路３４４巷３０號","OBJECTID":244721},"geometry":{"x":169592.91000000108,"y":2542691.0099999998}},{"attributes":{"ID":244726,"DIS_CODE":0,"TOWNNAME":"東區","LI":"泉南里","LIN":"24鄰","STREET":"府連路","SECT":" ","MAREA":" ","LANE":"３４４巷","ALLEY":" ","HOUSE_NO":"３號","E_COORD97":169615.84,"N_COORD97":2542769.3599999999,"ADDRESS":"府連路３４４巷３號","OBJECTID":244722},"geometry":{"x":169615.83999999985,"y":2542769.3599999994}},{"attributes":{"ID":244727,"DIS_CODE":0,"TOWNNAME":"東區","LI":"泉南里","LIN":"24鄰","STREET":"府連路","SECT":" ","MAREA":" ","LANE":"３４４巷","ALLEY":" ","HOUSE_NO":"４８號","E_COORD97":169593.04000000001,"N_COORD97":2542651.2599999998,"ADDRESS":"府連路３４４巷４８號","OBJECTID":244723},"geometry":{"x":169593.0400000019,"y":2542651.2599999998}},{"attributes":{"ID":244728,"DIS_CODE":0,"TOWNNAME":"東區","LI":"泉南里","LIN":"24鄰","STREET":"府連路","SECT":" ","MAREA":" ","LANE":"３４４巷","ALLEY":" ","HOUSE_NO":"５０號","E_COORD97":169594.59,"N_COORD97":2542646.3799999999,"ADDRESS":"府連路３４４巷５０號","OBJECTID":244724},"geometry":{"x":169594.59000000078,"y":2542646.379999999}},{"attributes":{"ID":244729,"DIS_CODE":0,"TOWNNAME":"東區","LI":"泉南里","LIN":"24鄰","STREET":"府連路","SECT":" ","MAREA":" ","LANE":"３４４巷","ALLEY":" ","HOUSE_NO":"５２號","E_COORD97":169594.88,"N_COORD97":2542642.52,"ADDRESS":"府連路３４４巷５２號","OBJECTID":244725},"geometry":{"x":169594.87999999989,"y":2542642.5199999996}},{"attributes":{"ID":244730,"DIS_CODE":0,"TOWNNAME":"安南區","LI":"海東里","LIN":"24鄰","STREET":"同安路","SECT":" ","MAREA":" ","LANE":"２２５巷","ALLEY":" ","HOUSE_NO":"１６２號","E_COORD97":167004.29999999999,"N_COORD97":2549331.3900000001,"ADDRESS":"同安路２２５巷１６２號","OBJECTID":244726},"geometry":{"x":167004.30000000075,"y":2549331.3899999987}},{"attributes":{"ID":244731,"DIS_CODE":0,"TOWNNAME":"安南區","LI":"海東里","LIN":"24鄰","STREET":"同安路","SECT":" ","MAREA":" ","LANE":"２２５巷","ALLEY":" ","HOUSE_NO":"１６６號","E_COORD97":167000.48000000001,"N_COORD97":2549333.8599999999,"ADDRESS":"同安路２２５巷１６６號","OBJECTID":244727},"geometry":{"x":167000.48000000138,"y":2549333.8600000031}},{"attributes":{"ID":244732,"DIS_CODE":0,"TOWNNAME":"安南區","LI":"海東里","LIN":"24鄰","STREET":"同安路","SECT":" ","MAREA":" ","LANE":"２２５巷","ALLEY":" ","HOUSE_NO":"１６８號","E_COORD97":166997.23999999999,"N_COORD97":2549336.3300000001,"ADDRESS":"同安路２２５巷１６８號","OBJECTID":244728},"geometry":{"x":166997.24000000115,"y":2549336.3300000019}},{"attributes":{"ID":244733,"DIS_CODE":0,"TOWNNAME":"安南區","LI":"海東里","LIN":"24鄰","STREET":"同安路","SECT":" ","MAREA":" ","LANE":"２２５巷","ALLEY":" ","HOUSE_NO":"１７０號","E_COORD97":166994.01000000001,"N_COORD97":2549338.7999999998,"ADDRESS":"同安路２２５巷１７０號","OBJECTID":244729},"geometry":{"x":166994.00999999978,"y":2549338.8000000007}},{"attributes":{"ID":244734,"DIS_CODE":0,"TOWNNAME":"安南區","LI":"海東里","LIN":"24鄰","STREET":"同安路","SECT":" ","MAREA":" ","LANE":"２２５巷","ALLEY":" ","HOUSE_NO":"１７２號","E_COORD97":166990.76999999999,"N_COORD97":2549341.2599999998,"ADDRESS":"同安路２２５巷１７２號","OBJECTID":244730},"geometry":{"x":166990.77000000048,"y":2549341.2599999998}},{"attributes":{"ID":244735,"DIS_CODE":0,"TOWNNAME":"安南區","LI":"海東里","LIN":"24鄰","STREET":"同安路","SECT":" ","MAREA":" ","LANE":"２２５巷","ALLEY":" ","HOUSE_NO":"１７６號","E_COORD97":166989.06,"N_COORD97":2549345.23,"ADDRESS":"同安路２２５巷１７６號","OBJECTID":244731},"geometry":{"x":166989.06000000052,"y":2549345.2300000004}},{"attributes":{"ID":244736,"DIS_CODE":0,"TOWNNAME":"安南區","LI":"海東里","LIN":"24鄰","STREET":"同安路","SECT":" ","MAREA":" ","LANE":"２２５巷","ALLEY":" ","HOUSE_NO":"１７８號","E_COORD97":166984.29000000001,"N_COORD97":2549346.2000000002,"ADDRESS":"同安路２２５巷１７８號","OBJECTID":244732},"geometry":{"x":166984.29000000097,"y":2549346.2000000011}},{"attributes":{"ID":244737,"DIS_CODE":0,"TOWNNAME":"安南區","LI":"海東里","LIN":"24鄰","STREET":"同安路","SECT":" ","MAREA":" ","LANE":"２２５巷","ALLEY":" ","HOUSE_NO":"１８０號","E_COORD97":166981.06,"N_COORD97":2549348.6600000001,"ADDRESS":"同安路２２５巷１８０號","OBJECTID":244733},"geometry":{"x":166981.05999999959,"y":2549348.6600000001}},{"attributes":{"ID":244738,"DIS_CODE":0,"TOWNNAME":"安南區","LI":"海東里","LIN":"24鄰","STREET":"同安路","SECT":" ","MAREA":" ","LANE":"２２５巷","ALLEY":" ","HOUSE_NO":"１８２號","E_COORD97":166977.82000000001,"N_COORD97":2549351.1299999999,"ADDRESS":"同安路２２５巷１８２號","OBJECTID":244734},"geometry":{"x":166977.82000000123,"y":2549351.129999999}},{"attributes":{"ID":244739,"DIS_CODE":0,"TOWNNAME":"安南區","LI":"海東里","LIN":"24鄰","STREET":"同安路","SECT":" ","MAREA":" ","LANE":"２２５巷","ALLEY":" ","HOUSE_NO":"１８６號","E_COORD97":166977.09,"N_COORD97":2549357.02,"ADDRESS":"同安路２２５巷１８６號","OBJECTID":244735},"geometry":{"x":166977.09000000078,"y":2549357.0200000014}},{"attributes":{"ID":244740,"DIS_CODE":0,"TOWNNAME":"安南區","LI":"海東里","LIN":"24鄰","STREET":"同安路","SECT":" ","MAREA":" ","LANE":"２２５巷","ALLEY":" ","HOUSE_NO":"１８８號","E_COORD97":166988.88,"N_COORD97":2549360.4300000002,"ADDRESS":"同安路２２５巷１８８號","OBJECTID":244736},"geometry":{"x":166988.88000000082,"y":2549360.4299999997}},{"attributes":{"ID":244741,"DIS_CODE":0,"TOWNNAME":"安南區","LI":"海東里","LIN":"24鄰","STREET":"同安路","SECT":" ","MAREA":" ","LANE":"２２５巷","ALLEY":" ","HOUSE_NO":"１９０號","E_COORD97":166994.01000000001,"N_COORD97":2549364.0800000001,"ADDRESS":"同安路２２５巷１９０號","OBJECTID":244737},"geometry":{"x":166994.00999999978,"y":2549364.0800000019}},{"attributes":{"ID":244742,"DIS_CODE":0,"TOWNNAME":"安南區","LI":"海東里","LIN":"24鄰","STREET":"同安路","SECT":" ","MAREA":" ","LANE":"２２５巷","ALLEY":" ","HOUSE_NO":"１９２號","E_COORD97":166972.26999999999,"N_COORD97":2549380.6499999999,"ADDRESS":"同安路２２５巷１９２號","OBJECTID":244738},"geometry":{"x":166972.27000000048,"y":2549380.6500000041}},{"attributes":{"ID":244743,"DIS_CODE":0,"TOWNNAME":"安南區","LI":"海東里","LIN":"24鄰","STREET":"同安路","SECT":" ","MAREA":" ","LANE":"２２５巷","ALLEY":" ","HOUSE_NO":"１９６號","E_COORD97":166968.59,"N_COORD97":2549375.8999999999,"ADDRESS":"同安路２２５巷１９６號","OBJECTID":244739},"geometry":{"x":166968.59000000078,"y":2549375.9000000022}},{"attributes":{"ID":244744,"DIS_CODE":0,"TOWNNAME":"安南區","LI":"海東里","LIN":"24鄰","STREET":"同安路","SECT":" ","MAREA":" ","LANE":"２３７巷","ALLEY":" ","HOUSE_NO":"１０３號","E_COORD97":167022.34,"N_COORD97":2549356.23,"ADDRESS":"同安路２３７巷１０３號","OBJECTID":244740},"geometry":{"x":167022.33999999985,"y":2549356.2300000042}},{"attributes":{"ID":244745,"DIS_CODE":0,"TOWNNAME":"新市區","LI":"大社里","LIN":"4鄰","STREET":" ","SECT":" ","MAREA":"大社","LANE":" ","ALLEY":" ","HOUSE_NO":"２０１號","E_COORD97":180081.34,"N_COORD97":2554395.5,"ADDRESS":"大社２０１號","OBJECTID":244741},"geometry":{"x":180081.34000000078,"y":2554395.5000000037}},{"attributes":{"ID":244746,"DIS_CODE":0,"TOWNNAME":"仁德區","LI":"保安里","LIN":"24鄰","STREET":"保學一街","SECT":" ","MAREA":" ","LANE":"４５巷","ALLEY":" ","HOUSE_NO":"２號","E_COORD97":171697.32999999999,"N_COORD97":2535482.8399999999,"ADDRESS":"保學一街４５巷２號","OBJECTID":244742},"geometry":{"x":171697.33000000007,"y":2535482.8400000017}},{"attributes":{"ID":244747,"DIS_CODE":0,"TOWNNAME":"安南區","LI":"海東里","LIN":"24鄰","STREET":"同安路","SECT":" ","MAREA":" ","LANE":"２３７巷","ALLEY":" ","HOUSE_NO":"１０５號","E_COORD97":167018.07000000001,"N_COORD97":2549357.5600000001,"ADDRESS":"同安路２３７巷１０５號","OBJECTID":244743},"geometry":{"x":167018.07000000216,"y":2549357.5600000042}},{"attributes":{"ID":244748,"DIS_CODE":0,"TOWNNAME":"安南區","LI":"海東里","LIN":"24鄰","STREET":"同安路","SECT":" ","MAREA":" ","LANE":"２３７巷","ALLEY":" ","HOUSE_NO":"１０７號","E_COORD97":167014.78,"N_COORD97":2549360.0699999998,"ADDRESS":"同安路２３７巷１０７號","OBJECTID":244744},"geometry":{"x":167014.77999999933,"y":2549360.0700000003}},{"attributes":{"ID":244749,"DIS_CODE":0,"TOWNNAME":"安南區","LI":"海東里","LIN":"24鄰","STREET":"同安路","SECT":" ","MAREA":" ","LANE":"２３７巷","ALLEY":" ","HOUSE_NO":"１０９號","E_COORD97":167011.48000000001,"N_COORD97":2549362.5800000001,"ADDRESS":"同安路２３７巷１０９號","OBJECTID":244745},"geometry":{"x":167011.48000000045,"y":2549362.5800000001}},{"attributes":{"ID":244750,"DIS_CODE":0,"TOWNNAME":"安南區","LI":"海東里","LIN":"24鄰","STREET":"同安路","SECT":" ","MAREA":" ","LANE":"２３７巷","ALLEY":" ","HOUSE_NO":"１１１號","E_COORD97":167008.19,"N_COORD97":2549365.0899999999,"ADDRESS":"同安路２３７巷１１１號","OBJECTID":244746},"geometry":{"x":167008.19000000041,"y":2549365.0899999999}},{"attributes":{"ID":244751,"DIS_CODE":0,"TOWNNAME":"安南區","LI":"海東里","LIN":"24鄰","STREET":"同安路","SECT":" ","MAREA":" ","LANE":"２３７巷","ALLEY":" ","HOUSE_NO":"１１３號","E_COORD97":167004.89000000001,"N_COORD97":2549367.5899999999,"ADDRESS":"同安路２３７巷１１３號","OBJECTID":244747},"geometry":{"x":167004.88999999873,"y":2549367.5900000017}},{"attributes":{"ID":244752,"DIS_CODE":0,"TOWNNAME":"安南區","LI":"海東里","LIN":"24鄰","STREET":"同安路","SECT":" ","MAREA":" ","LANE":"２３７巷","ALLEY":" ","HOUSE_NO":"１１５號","E_COORD97":167001.60000000001,"N_COORD97":2549370.1000000001,"ADDRESS":"同安路２３７巷１１５號","OBJECTID":244748},"geometry":{"x":167001.59999999963,"y":2549370.1000000015}},{"attributes":{"ID":244753,"DIS_CODE":0,"TOWNNAME":"安南區","LI":"海東里","LIN":"24鄰","STREET":"同安路","SECT":" ","MAREA":" ","LANE":"２３７巷","ALLEY":" ","HOUSE_NO":"１１７號","E_COORD97":166998.31,"N_COORD97":2549372.6099999999,"ADDRESS":"同安路２３７巷１１７號","OBJECTID":244749},"geometry":{"x":166998.30999999959,"y":2549372.6099999994}},{"attributes":{"ID":244754,"DIS_CODE":0,"TOWNNAME":"安南區","LI":"海東里","LIN":"24鄰","STREET":"同安路","SECT":" ","MAREA":" ","LANE":"２３７巷","ALLEY":" ","HOUSE_NO":"１５１號","E_COORD97":166942.57999999999,"N_COORD97":2549415.3599999999,"ADDRESS":"同安路２３７巷１５１號","OBJECTID":244750},"geometry":{"x":166942.58000000007,"y":2549415.3600000031}},{"attributes":{"ID":244755,"DIS_CODE":0,"TOWNNAME":"永康區","LI":"網寮里","LIN":"24鄰","STREET":"永春街","SECT":" ","MAREA":" ","LANE":"３６巷","ALLEY":" ","HOUSE_NO":"１４號","E_COORD97":173782.07000000001,"N_COORD97":2546383.9199999999,"ADDRESS":"永春街３６巷１４號","OBJECTID":244751},"geometry":{"x":173782.07000000123,"y":2546383.9199999999}},{"attributes":{"ID":244756,"DIS_CODE":0,"TOWNNAME":"永康區","LI":"網寮里","LIN":"24鄰","STREET":"永春街","SECT":" ","MAREA":" ","LANE":"３８巷","ALLEY":" ","HOUSE_NO":"２８號","E_COORD97":173806.31,"N_COORD97":2546438.71,"ADDRESS":"永春街３８巷２８號","OBJECTID":244752},"geometry":{"x":173806.30999999959,"y":2546438.7100000028}},{"attributes":{"ID":244757,"DIS_CODE":0,"TOWNNAME":"永康區","LI":"網寮里","LIN":"24鄰","STREET":"永春街","SECT":" ","MAREA":" ","LANE":"３６巷","ALLEY":" ","HOUSE_NO":"１７號","E_COORD97":173786.72,"N_COORD97":2546406.9199999999,"ADDRESS":"永春街３６巷１７號","OBJECTID":244753},"geometry":{"x":173786.71999999974,"y":2546406.9199999999}},{"attributes":{"ID":244758,"DIS_CODE":0,"TOWNNAME":"永康區","LI":"網寮里","LIN":"24鄰","STREET":"永春街","SECT":" ","MAREA":" ","LANE":"３８巷","ALLEY":" ","HOUSE_NO":"３０號","E_COORD97":173810.26000000001,"N_COORD97":2546439.71,"ADDRESS":"永春街３８巷３０號","OBJECTID":244754},"geometry":{"x":173810.25999999978,"y":2546439.7100000009}},{"attributes":{"ID":244759,"DIS_CODE":0,"TOWNNAME":"安平區","LI":"文平里","LIN":"5鄰","STREET":"建平六街","SECT":" ","MAREA":" ","LANE":"８０巷","ALLEY":" ","HOUSE_NO":"１１５號","E_COORD97":166417.20999999999,"N_COORD97":2543138.25,"ADDRESS":"建平六街８０巷１１５號","OBJECTID":244755},"geometry":{"x":166417.21000000089,"y":2543138.2500000019}},{"attributes":{"ID":244760,"DIS_CODE":0,"TOWNNAME":"東區","LI":"莊敬里","LIN":"24鄰","STREET":"東光路","SECT":"二段","MAREA":" ","LANE":"１１巷","ALLEY":" ","HOUSE_NO":"５號","E_COORD97":171173.54999999999,"N_COORD97":2543999.9399999999,"ADDRESS":"東光路二段１１巷５號","OBJECTID":244756},"geometry":{"x":171173.54999999981,"y":2543999.9399999995}},{"attributes":{"ID":244761,"DIS_CODE":0,"TOWNNAME":"東區","LI":"莊敬里","LIN":"24鄰","STREET":"東光路","SECT":"二段","MAREA":" ","LANE":"２５巷","ALLEY":" ","HOUSE_NO":"９號","E_COORD97":171156.53,"N_COORD97":2544029.7999999998,"ADDRESS":"東光路二段２５巷９號","OBJECTID":244757},"geometry":{"x":171156.53000000119,"y":2544029.8000000045}},{"attributes":{"ID":244762,"DIS_CODE":0,"TOWNNAME":"東區","LI":"後甲里","LIN":"24鄰","STREET":"中華東路","SECT":"一段","MAREA":" ","LANE":"２０７巷","ALLEY":" ","HOUSE_NO":"４６號","E_COORD97":171575.10000000001,"N_COORD97":2543404.4500000002,"ADDRESS":"中華東路一段２０７巷４６號","OBJECTID":244758},"geometry":{"x":171575.09999999963,"y":2543404.4500000011}},{"attributes":{"ID":244763,"DIS_CODE":0,"TOWNNAME":"東區","LI":"富強里","LIN":"24鄰","STREET":"中華東路","SECT":"二段","MAREA":" ","LANE":"９６巷","ALLEY":" ","HOUSE_NO":"２４號","E_COORD97":171291.66,"N_COORD97":2542877.7000000002,"ADDRESS":"中華東路二段９６巷２４號","OBJECTID":244759},"geometry":{"x":171291.66000000108,"y":2542877.7000000011}},{"attributes":{"ID":244764,"DIS_CODE":0,"TOWNNAME":"東區","LI":"富強里","LIN":"24鄰","STREET":"中華東路","SECT":"二段","MAREA":" ","LANE":"９６巷","ALLEY":" ","HOUSE_NO":"１４號","E_COORD97":171314.45999999999,"N_COORD97":2542881.7000000002,"ADDRESS":"中華東路二段９６巷１４號","OBJECTID":244760},"geometry":{"x":171314.46000000089,"y":2542881.6999999993}},{"attributes":{"ID":244765,"DIS_CODE":0,"TOWNNAME":"東區","LI":"富強里","LIN":"24鄰","STREET":"中華東路","SECT":"二段","MAREA":" ","LANE":"９６巷","ALLEY":" ","HOUSE_NO":"１６號","E_COORD97":171309.60999999999,"N_COORD97":2542881.3300000001,"ADDRESS":"中華東路二段９６巷１６號","OBJECTID":244761},"geometry":{"x":171309.61000000034,"y":2542881.3300000001}},{"attributes":{"ID":244766,"DIS_CODE":0,"TOWNNAME":"東區","LI":"富強里","LIN":"24鄰","STREET":"中華東路","SECT":"二段","MAREA":" ","LANE":"９６巷","ALLEY":" ","HOUSE_NO":"１８號","E_COORD97":171305.12,"N_COORD97":2542880.8500000001,"ADDRESS":"中華東路二段９６巷１８號","OBJECTID":244762},"geometry":{"x":171305.12000000104,"y":2542880.8499999996}},{"attributes":{"ID":244767,"DIS_CODE":0,"TOWNNAME":"東區","LI":"富強里","LIN":"24鄰","STREET":"中華東路","SECT":"二段","MAREA":" ","LANE":"９６巷","ALLEY":" ","HOUSE_NO":"２０號","E_COORD97":171300.26999999999,"N_COORD97":2542879.1499999999,"ADDRESS":"中華東路二段９６巷２０號","OBJECTID":244763},"geometry":{"x":171300.27000000048,"y":2542879.1500000022}},{"attributes":{"ID":244768,"DIS_CODE":0,"TOWNNAME":"安平區","LI":"文平里","LIN":"26鄰","STREET":"永華二街","SECT":" ","MAREA":" ","LANE":"４１巷","ALLEY":" ","HOUSE_NO":"３２號","E_COORD97":166258.89000000001,"N_COORD97":2542972.8399999999,"ADDRESS":"永華二街４１巷３２號","OBJECTID":244764},"geometry":{"x":166258.88999999966,"y":2542972.8399999999}},{"attributes":{"ID":244769,"DIS_CODE":0,"TOWNNAME":"安平區","LI":"文平里","LIN":"26鄰","STREET":"永華二街","SECT":" ","MAREA":" ","LANE":"４１巷","ALLEY":" ","HOUSE_NO":"３４號","E_COORD97":166254.29000000001,"N_COORD97":2542973.0299999998,"ADDRESS":"永華二街４１巷３４號","OBJECTID":244765},"geometry":{"x":166254.29000000004,"y":2542973.0300000012}},{"attributes":{"ID":244770,"DIS_CODE":0,"TOWNNAME":"安平區","LI":"文平里","LIN":"26鄰","STREET":"永華二街","SECT":" ","MAREA":" ","LANE":"４１巷","ALLEY":" ","HOUSE_NO":"３６號","E_COORD97":166250.35000000001,"N_COORD97":2542973.9900000002,"ADDRESS":"永華二街４１巷３６號","OBJECTID":244766},"geometry":{"x":166250.34999999963,"y":2542973.9900000021}},{"attributes":{"ID":244771,"DIS_CODE":0,"TOWNNAME":"安平區","LI":"文平里","LIN":"26鄰","STREET":"永華二街","SECT":" ","MAREA":" ","LANE":"４１巷","ALLEY":" ","HOUSE_NO":"３８號","E_COORD97":166246.32999999999,"N_COORD97":2542974.7599999998,"ADDRESS":"永華二街４１巷３８號","OBJECTID":244767},"geometry":{"x":166246.32999999914,"y":2542974.7600000035}},{"attributes":{"ID":244772,"DIS_CODE":0,"TOWNNAME":"安平區","LI":"文平里","LIN":"26鄰","STREET":"永華二街","SECT":" ","MAREA":" ","LANE":"４１巷","ALLEY":" ","HOUSE_NO":"４０號","E_COORD97":166242.10999999999,"N_COORD97":2542975.1400000001,"ADDRESS":"永華二街４１巷４０號","OBJECTID":244768},"geometry":{"x":166242.11000000127,"y":2542975.1400000006}},{"attributes":{"ID":244773,"DIS_CODE":0,"TOWNNAME":"安平區","LI":"文平里","LIN":"26鄰","STREET":"永華二街","SECT":" ","MAREA":" ","LANE":"４１巷","ALLEY":" ","HOUSE_NO":"４２號","E_COORD97":166237.70000000001,"N_COORD97":2542976,"ADDRESS":"永華二街４１巷４２號","OBJECTID":244769},"geometry":{"x":166237.70000000112,"y":2542976}},{"attributes":{"ID":244774,"DIS_CODE":0,"TOWNNAME":"安平區","LI":"文平里","LIN":"26鄰","STREET":"永華二街","SECT":" ","MAREA":" ","LANE":"４１巷","ALLEY":" ","HOUSE_NO":"４６號","E_COORD97":166229.26000000001,"N_COORD97":2542976,"ADDRESS":"永華二街４１巷４６號","OBJECTID":244770},"geometry":{"x":166229.25999999978,"y":2542976}},{"attributes":{"ID":244775,"DIS_CODE":0,"TOWNNAME":"安平區","LI":"文平里","LIN":"26鄰","STREET":"永華二街","SECT":" ","MAREA":" ","LANE":"４１巷","ALLEY":" ","HOUSE_NO":"４８號","E_COORD97":166224.75,"N_COORD97":2542976.8599999999,"ADDRESS":"永華二街４１巷４８號","OBJECTID":244771},"geometry":{"x":166224.74999999907,"y":2542976.8600000031}},{"attributes":{"ID":244776,"DIS_CODE":0,"TOWNNAME":"安平區","LI":"文平里","LIN":"25鄰","STREET":"永華二街","SECT":" ","MAREA":" ","LANE":"４１巷","ALLEY":" ","HOUSE_NO":"３７號","E_COORD97":166238.38,"N_COORD97":2542952.6800000002,"ADDRESS":"永華二街４１巷３７號","OBJECTID":244772},"geometry":{"x":166238.37999999989,"y":2542952.6800000016}},{"attributes":{"ID":244777,"DIS_CODE":0,"TOWNNAME":"安平區","LI":"文平里","LIN":"25鄰","STREET":"永華二街","SECT":" ","MAREA":" ","LANE":"４１巷","ALLEY":" ","HOUSE_NO":"３９號","E_COORD97":166232.73000000001,"N_COORD97":2542952.9700000002,"ADDRESS":"永華二街４１巷３９號","OBJECTID":244773},"geometry":{"x":166232.73000000138,"y":2542952.9700000007}},{"attributes":{"ID":244778,"DIS_CODE":0,"TOWNNAME":"安平區","LI":"文平里","LIN":"25鄰","STREET":"永華二街","SECT":" ","MAREA":" ","LANE":"４１巷","ALLEY":" ","HOUSE_NO":"４１號","E_COORD97":166228.03,"N_COORD97":2542953.6400000001,"ADDRESS":"永華二街４１巷４１號","OBJECTID":244774},"geometry":{"x":166228.03000000026,"y":2542953.6400000025}},{"attributes":{"ID":244779,"DIS_CODE":0,"TOWNNAME":"安平區","LI":"文平里","LIN":"25鄰","STREET":"永華二街","SECT":" ","MAREA":" ","LANE":"４１巷","ALLEY":" ","HOUSE_NO":"４３號","E_COORD97":166223.70999999999,"N_COORD97":2542953.9300000002,"ADDRESS":"永華二街４１巷４３號","OBJECTID":244775},"geometry":{"x":166223.71000000089,"y":2542953.9300000016}},{"attributes":{"ID":244780,"DIS_CODE":0,"TOWNNAME":"佳里區","LI":"安西里","LIN":"24鄰","STREET":"忠孝路","SECT":" ","MAREA":" ","LANE":"１６２巷","ALLEY":" ","HOUSE_NO":"４３號","E_COORD97":165226.26000000001,"N_COORD97":2563301.6499999999,"ADDRESS":"忠孝路１６２巷４３號","OBJECTID":244776},"geometry":{"x":165226.26000000071,"y":2563301.6500000022}},{"attributes":{"ID":244781,"DIS_CODE":0,"TOWNNAME":"佳里區","LI":"安西里","LIN":"24鄰","STREET":"忠孝路","SECT":" ","MAREA":" ","LANE":"１６２巷","ALLEY":" ","HOUSE_NO":"４５號","E_COORD97":165230.44,"N_COORD97":2563304.5,"ADDRESS":"忠孝路１６２巷４５號","OBJECTID":244777},"geometry":{"x":165230.44000000041,"y":2563304.5}},{"attributes":{"ID":244782,"DIS_CODE":0,"TOWNNAME":"佳里區","LI":"安西里","LIN":"24鄰","STREET":"忠孝路","SECT":" ","MAREA":" ","LANE":"１６２巷","ALLEY":" ","HOUSE_NO":"４７號","E_COORD97":165233.82999999999,"N_COORD97":2563306.4900000002,"ADDRESS":"忠孝路１６２巷４７號","OBJECTID":244778},"geometry":{"x":165233.83000000007,"y":2563306.4900000021}},{"attributes":{"ID":244783,"DIS_CODE":0,"TOWNNAME":"永康區","LI":"復華里","LIN":"24鄰","STREET":"復華八街","SECT":" ","MAREA":" ","LANE":"５６巷","ALLEY":" ","HOUSE_NO":"９號","E_COORD97":172776.23999999999,"N_COORD97":2546278.52,"ADDRESS":"復華八街５６巷９號","OBJECTID":244779},"geometry":{"x":172776.24000000022,"y":2546278.5200000014}},{"attributes":{"ID":244784,"DIS_CODE":0,"TOWNNAME":"安平區","LI":"文平里","LIN":"26鄰","STREET":"永華二街","SECT":" ","MAREA":" ","LANE":"４１巷","ALLEY":" ","HOUSE_NO":"５２號","E_COORD97":166216.85000000001,"N_COORD97":2542972.8100000001,"ADDRESS":"永華二街４１巷５２號","OBJECTID":244780},"geometry":{"x":166216.84999999963,"y":2542972.8100000024}},{"attributes":{"ID":244785,"DIS_CODE":0,"TOWNNAME":"安平區","LI":"文平里","LIN":"26鄰","STREET":"永華二街","SECT":" ","MAREA":" ","LANE":"４１巷","ALLEY":" ","HOUSE_NO":"５４號","E_COORD97":166213.29999999999,"N_COORD97":2542973.1000000001,"ADDRESS":"永華二街４１巷５４號","OBJECTID":244781},"geometry":{"x":166213.29999999981,"y":2542973.1000000015}},{"attributes":{"ID":244786,"DIS_CODE":0,"TOWNNAME":"安平區","LI":"文平里","LIN":"26鄰","STREET":"永華二街","SECT":" ","MAREA":" ","LANE":"４１巷","ALLEY":" ","HOUSE_NO":"５６號","E_COORD97":166208.51000000001,"N_COORD97":2542973.1899999999,"ADDRESS":"永華二街４１巷５６號","OBJECTID":244782},"geometry":{"x":166208.50999999978,"y":2542973.1899999995}},{"attributes":{"ID":244787,"DIS_CODE":0,"TOWNNAME":"安平區","LI":"文平里","LIN":"26鄰","STREET":"永華二街","SECT":" ","MAREA":" ","LANE":"４１巷","ALLEY":" ","HOUSE_NO":"５８號","E_COORD97":166203.14000000001,"N_COORD97":2542973.5800000001,"ADDRESS":"永華二街４１巷５８號","OBJECTID":244783},"geometry":{"x":166203.14000000153,"y":2542973.5800000019}},{"attributes":{"ID":244788,"DIS_CODE":0,"TOWNNAME":"新化區","LI":"唪口里","LIN":"11鄰","STREET":" ","SECT":" ","MAREA":"唪口","LANE":" ","ALLEY":" ","HOUSE_NO":"１６５號","E_COORD97":177577.04999999999,"N_COORD97":2548918.25,"ADDRESS":"唪口１６５號","OBJECTID":244784},"geometry":{"x":177577.05000000168,"y":2548918.2500000037}},{"attributes":{"ID":244789,"DIS_CODE":0,"TOWNNAME":"安平區","LI":"文平里","LIN":"26鄰","STREET":"永華二街","SECT":" ","MAREA":" ","LANE":"４１巷","ALLEY":" ","HOUSE_NO":"６０號","E_COORD97":166198.92000000001,"N_COORD97":2542974.3399999999,"ADDRESS":"永華二街４１巷６０號","OBJECTID":244785},"geometry":{"x":166198.92000000086,"y":2542974.3400000036}},{"attributes":{"ID":244790,"DIS_CODE":0,"TOWNNAME":"安平區","LI":"文平里","LIN":"26鄰","STREET":"永華二街","SECT":" ","MAREA":" ","LANE":"４１巷","ALLEY":" ","HOUSE_NO":"６２號","E_COORD97":166194.12,"N_COORD97":2542974.1499999999,"ADDRESS":"永華二街４１巷６２號","OBJECTID":244786},"geometry":{"x":166194.12000000104,"y":2542974.1500000022}},{"attributes":{"ID":244791,"DIS_CODE":0,"TOWNNAME":"安平區","LI":"文平里","LIN":"26鄰","STREET":"永華二街","SECT":" ","MAREA":" ","LANE":"４１巷","ALLEY":" ","HOUSE_NO":"６號","E_COORD97":166314.25,"N_COORD97":2542966.23,"ADDRESS":"永華二街４１巷６號","OBJECTID":244787},"geometry":{"x":166314.25,"y":2542966.2300000023}},{"attributes":{"ID":244792,"DIS_CODE":0,"TOWNNAME":"安平區","LI":"文平里","LIN":"26鄰","STREET":"永華二街","SECT":" ","MAREA":" ","LANE":"４１巷","ALLEY":" ","HOUSE_NO":"８號","E_COORD97":166309.84,"N_COORD97":2542966.6099999999,"ADDRESS":"永華二街４１巷８號","OBJECTID":244788},"geometry":{"x":166309.83999999985,"y":2542966.6100000013}},{"attributes":{"ID":244793,"DIS_CODE":0,"TOWNNAME":"安平區","LI":"文平里","LIN":"25鄰","STREET":"永華二街","SECT":" ","MAREA":" ","LANE":"４１巷","ALLEY":" ","HOUSE_NO":"５１號","E_COORD97":166207.03,"N_COORD97":2542955.1699999999,"ADDRESS":"永華二街４１巷５１號","OBJECTID":244789},"geometry":{"x":166207.03000000119,"y":2542955.1700000037}},{"attributes":{"ID":244794,"DIS_CODE":0,"TOWNNAME":"安平區","LI":"文平里","LIN":"25鄰","STREET":"永華二街","SECT":" ","MAREA":" ","LANE":"４１巷","ALLEY":" ","HOUSE_NO":"５７號","E_COORD97":166192.84,"N_COORD97":2542956.0299999998,"ADDRESS":"永華二街４１巷５７號","OBJECTID":244790},"geometry":{"x":166192.83999999985,"y":2542956.0300000012}},{"attributes":{"ID":244795,"DIS_CODE":0,"TOWNNAME":"永康區","LI":"\u25A0行里","LIN":"24鄰","STREET":"中正南路","SECT":" ","MAREA":" ","LANE":"５９２巷","ALLEY":" ","HOUSE_NO":"１４號","E_COORD97":171513.48999999999,"N_COORD97":2548664.2000000002,"ADDRESS":"中正南路５９２巷１４號","OBJECTID":244791},"geometry":{"x":171513.49000000022,"y":2548664.2000000011}},{"attributes":{"ID":244796,"DIS_CODE":0,"TOWNNAME":"永康區","LI":"\u25A0洲里","LIN":"24鄰","STREET":"正南二街","SECT":" ","MAREA":" ","LANE":"８６巷","ALLEY":" ","HOUSE_NO":"１９號","E_COORD97":170763.17000000001,"N_COORD97":2548471.4900000002,"ADDRESS":"正南二街８６巷１９號","OBJECTID":244792},"geometry":{"x":170763.16999999993,"y":2548471.4900000002}},{"attributes":{"ID":244797,"DIS_CODE":0,"TOWNNAME":"新營區","LI":"民榮里","LIN":"24鄰","STREET":"裕民路","SECT":" ","MAREA":" ","LANE":"１２巷","ALLEY":" ","HOUSE_NO":"１２號","E_COORD97":179092.70999999999,"N_COORD97":2577962.3900000001,"ADDRESS":"裕民路１２巷１２號","OBJECTID":244793},"geometry":{"x":179092.70999999996,"y":2577962.3900000006}},{"attributes":{"ID":244798,"DIS_CODE":0,"TOWNNAME":"南區","LI":"開南里","LIN":"24鄰","STREET":"新建路","SECT":" ","MAREA":" ","LANE":"４９巷","ALLEY":" ","HOUSE_NO":"１２號","E_COORD97":166520.89999999999,"N_COORD97":2540812.1299999999,"ADDRESS":"新建路４９巷１２號","OBJECTID":244794},"geometry":{"x":166520.90000000224,"y":2540812.1300000008}},{"attributes":{"ID":244799,"DIS_CODE":0,"TOWNNAME":"南區","LI":"開南里","LIN":"24鄰","STREET":"新建路","SECT":" ","MAREA":" ","LANE":"４９巷","ALLEY":" ","HOUSE_NO":"１４號","E_COORD97":166538.84,"N_COORD97":2540812.77,"ADDRESS":"新建路４９巷１４號","OBJECTID":244795},"geometry":{"x":166538.83999999985,"y":2540812.7700000014}},{"attributes":{"ID":244800,"DIS_CODE":0,"TOWNNAME":"南區","LI":"開南里","LIN":"24鄰","STREET":"新建路","SECT":" ","MAREA":" ","LANE":"４９巷","ALLEY":" ","HOUSE_NO":"１６號","E_COORD97":166544.32000000001,"N_COORD97":2540812.6099999999,"ADDRESS":"新建路４９巷１６號","OBJECTID":244796},"geometry":{"x":166544.3200000003,"y":2540812.6100000013}},{"attributes":{"ID":244801,"DIS_CODE":0,"TOWNNAME":"南區","LI":"開南里","LIN":"24鄰","STREET":"新建路","SECT":" ","MAREA":" ","LANE":"４９巷","ALLEY":" ","HOUSE_NO":"１８號","E_COORD97":166557.04999999999,"N_COORD97":2540813.0899999999,"ADDRESS":"新建路４９巷１８號","OBJECTID":244797},"geometry":{"x":166557.05000000075,"y":2540813.0900000017}},{"attributes":{"ID":244802,"DIS_CODE":0,"TOWNNAME":"南區","LI":"開南里","LIN":"24鄰","STREET":"新建路","SECT":" ","MAREA":" ","LANE":"４９巷","ALLEY":" ","HOUSE_NO":"２０號","E_COORD97":166562.35999999999,"N_COORD97":2540812.9300000002,"ADDRESS":"新建路４９巷２０號","OBJECTID":244798},"geometry":{"x":166562.36000000127,"y":2540812.9299999997}},{"attributes":{"ID":244803,"DIS_CODE":0,"TOWNNAME":"南區","LI":"開南里","LIN":"24鄰","STREET":"新建路","SECT":" ","MAREA":" ","LANE":"４９巷","ALLEY":" ","HOUSE_NO":"２號","E_COORD97":166480.94,"N_COORD97":2540812.6099999999,"ADDRESS":"新建路４９巷２號","OBJECTID":244799},"geometry":{"x":166480.94000000041,"y":2540812.6100000013}},{"attributes":{"ID":244804,"DIS_CODE":0,"TOWNNAME":"楠西區","LI":"楠西里","LIN":"24鄰","STREET":"中興路","SECT":" ","MAREA":" ","LANE":"６３巷","ALLEY":" ","HOUSE_NO":"２５號","E_COORD97":197121.07000000001,"N_COORD97":2564369.8900000001,"ADDRESS":"中興路６３巷２５號","OBJECTID":244800},"geometry":{"x":197121.0700000003,"y":2564369.8900000006}}]}