{"displayFieldName":"TOWNNAME","fieldAliases":{"ID":"ID","DIS_CODE":"DIS_CODE","TOWNNAME":"TOWNNAME","LI":"LI","LIN":"LIN","STREET":"STREET","SECT":"SECT","MAREA":"MAREA","LANE":"LANE","ALLEY":"ALLEY","HOUSE_NO":"HOUSE_NO","E_COORD97":"E_COORD97","N_COORD97":"N_COORD97","ADDRESS":"ADDRESS","OBJECTID":"OBJECTID"},"geometryType":"esriGeometryPoint","spatialReference":{"wkid":102443,"latestWkid":3826},"fields":[{"name":"ID","type":"esriFieldTypeDouble","alias":"ID"},{"name":"DIS_CODE","type":"esriFieldTypeInteger","alias":"DIS_CODE"},{"name":"TOWNNAME","type":"esriFieldTypeString","alias":"TOWNNAME","length":8},{"name":"LI","type":"esriFieldTypeString","alias":"LI","length":8},{"name":"LIN","type":"esriFieldTypeString","alias":"LIN","length":12},{"name":"STREET","type":"esriFieldTypeString","alias":"STREET","length":20},{"name":"SECT","type":"esriFieldTypeString","alias":"SECT","length":8},{"name":"MAREA","type":"esriFieldTypeString","alias":"MAREA","length":12},{"name":"LANE","type":"esriFieldTypeString","alias":"LANE","length":10},{"name":"ALLEY","type":"esriFieldTypeString","alias":"ALLEY","length":10},{"name":"HOUSE_NO","type":"esriFieldTypeString","alias":"HOUSE_NO","length":20},{"name":"E_COORD97","type":"esriFieldTypeDouble","alias":"E_COORD97"},{"name":"N_COORD97","type":"esriFieldTypeDouble","alias":"N_COORD97"},{"name":"ADDRESS","type":"esriFieldTypeString","alias":"ADDRESS","length":50},{"name":"OBJECTID","type":"esriFieldTypeOID","alias":"OBJECTID"}],"features":[{"attributes":{"ID":462826,"DIS_CODE":0,"TOWNNAME":"永康區","LI":"埔園里","LIN":"36鄰","STREET":"自強路","SECT":" ","MAREA":" ","LANE":" ","ALLEY":" ","HOUSE_NO":"６８８號","E_COORD97":174296.29999999999,"N_COORD97":2548380.8700000001,"ADDRESS":"自強路６８８號","OBJECTID":462801},"geometry":{"x":174296.29999999981,"y":2548380.8700000029}},{"attributes":{"ID":462827,"DIS_CODE":0,"TOWNNAME":"永康區","LI":"埔園里","LIN":"36鄰","STREET":"自強路","SECT":" ","MAREA":" ","LANE":" ","ALLEY":" ","HOUSE_NO":"６９０號","E_COORD97":174300.39999999999,"N_COORD97":2548382.79,"ADDRESS":"自強路６９０號","OBJECTID":462802},"geometry":{"x":174300.4000000013,"y":2548382.790000001}},{"attributes":{"ID":462828,"DIS_CODE":0,"TOWNNAME":"永康區","LI":"埔園里","LIN":"36鄰","STREET":"自強路","SECT":" ","MAREA":" ","LANE":" ","ALLEY":" ","HOUSE_NO":"６９２號","E_COORD97":174301.82999999999,"N_COORD97":2548387.96,"ADDRESS":"自強路６９２號","OBJECTID":462803},"geometry":{"x":174301.82999999914,"y":2548387.9600000009}},{"attributes":{"ID":462829,"DIS_CODE":0,"TOWNNAME":"永康區","LI":"埔園里","LIN":"36鄰","STREET":"自強路","SECT":" ","MAREA":" ","LANE":" ","ALLEY":" ","HOUSE_NO":"６９６號","E_COORD97":174304.98000000001,"N_COORD97":2548392.4100000001,"ADDRESS":"自強路６９６號","OBJECTID":462804},"geometry":{"x":174304.98000000138,"y":2548392.410000002}},{"attributes":{"ID":462830,"DIS_CODE":0,"TOWNNAME":"永康區","LI":"埔園里","LIN":"36鄰","STREET":"自強路","SECT":" ","MAREA":" ","LANE":" ","ALLEY":" ","HOUSE_NO":"６９８號","E_COORD97":174308.57999999999,"N_COORD97":2548396.6000000001,"ADDRESS":"自強路６９８號","OBJECTID":462805},"geometry":{"x":174308.58000000007,"y":2548396.5999999978}},{"attributes":{"ID":462831,"DIS_CODE":0,"TOWNNAME":"永康區","LI":"埔園里","LIN":"36鄰","STREET":"自強路","SECT":" ","MAREA":" ","LANE":" ","ALLEY":" ","HOUSE_NO":"７００號","E_COORD97":174313.16,"N_COORD97":2548398.1800000002,"ADDRESS":"自強路７００號","OBJECTID":462806},"geometry":{"x":174313.16000000015,"y":2548398.1799999997}},{"attributes":{"ID":462832,"DIS_CODE":0,"TOWNNAME":"永康區","LI":"埔園里","LIN":"36鄰","STREET":"自強路","SECT":" ","MAREA":" ","LANE":" ","ALLEY":" ","HOUSE_NO":"７０２號","E_COORD97":174318.19,"N_COORD97":2548399.04,"ADDRESS":"自強路７０２號","OBJECTID":462807},"geometry":{"x":174318.19000000041,"y":2548399.0399999991}},{"attributes":{"ID":462833,"DIS_CODE":0,"TOWNNAME":"永康區","LI":"埔園里","LIN":"36鄰","STREET":"自強路","SECT":" ","MAREA":" ","LANE":" ","ALLEY":" ","HOUSE_NO":"７０６號","E_COORD97":174320.22,"N_COORD97":2548403.0699999998,"ADDRESS":"自強路７０６號","OBJECTID":462808},"geometry":{"x":174320.21999999974,"y":2548403.0700000003}},{"attributes":{"ID":462834,"DIS_CODE":0,"TOWNNAME":"永康區","LI":"埔園里","LIN":"36鄰","STREET":"自強路","SECT":" ","MAREA":" ","LANE":" ","ALLEY":" ","HOUSE_NO":"７０８號","E_COORD97":174323.69,"N_COORD97":2548405.48,"ADDRESS":"自強路７０８號","OBJECTID":462809},"geometry":{"x":174323.69000000227,"y":2548405.4800000042}},{"attributes":{"ID":462835,"DIS_CODE":0,"TOWNNAME":"永康區","LI":"埔園里","LIN":"36鄰","STREET":"自強路","SECT":" ","MAREA":" ","LANE":" ","ALLEY":" ","HOUSE_NO":"７１０號","E_COORD97":174330.12,"N_COORD97":2548404.1699999999,"ADDRESS":"自強路７１０號","OBJECTID":462810},"geometry":{"x":174330.12000000011,"y":2548404.1700000018}},{"attributes":{"ID":462836,"DIS_CODE":0,"TOWNNAME":"永康區","LI":"埔園里","LIN":"36鄰","STREET":"自強路","SECT":" ","MAREA":" ","LANE":" ","ALLEY":" ","HOUSE_NO":"７１２號","E_COORD97":174333.67999999999,"N_COORD97":2548406.3999999999,"ADDRESS":"自強路７１２號","OBJECTID":462811},"geometry":{"x":174333.68000000063,"y":2548406.4000000022}},{"attributes":{"ID":462837,"DIS_CODE":0,"TOWNNAME":"永康區","LI":"埔園里","LIN":"36鄰","STREET":"自強路","SECT":" ","MAREA":" ","LANE":" ","ALLEY":" ","HOUSE_NO":"７１６號","E_COORD97":174336.5,"N_COORD97":2548408.2400000002,"ADDRESS":"自強路７１６號","OBJECTID":462812},"geometry":{"x":174336.50000000093,"y":2548408.2400000021}},{"attributes":{"ID":462838,"DIS_CODE":0,"TOWNNAME":"永康區","LI":"埔園里","LIN":"36鄰","STREET":"自強路","SECT":" ","MAREA":" ","LANE":" ","ALLEY":" ","HOUSE_NO":"７１８號","E_COORD97":174340.17000000001,"N_COORD97":2548410.0499999998,"ADDRESS":"自強路７１８號","OBJECTID":462813},"geometry":{"x":174340.17000000179,"y":2548410.0500000026}},{"attributes":{"ID":462839,"DIS_CODE":0,"TOWNNAME":"永康區","LI":"埔園里","LIN":"36鄰","STREET":"自強路","SECT":" ","MAREA":" ","LANE":" ","ALLEY":" ","HOUSE_NO":"７２０號","E_COORD97":174341.57999999999,"N_COORD97":2548415.6499999999,"ADDRESS":"自強路７２０號","OBJECTID":462814},"geometry":{"x":174341.58000000101,"y":2548415.6500000022}},{"attributes":{"ID":462840,"DIS_CODE":0,"TOWNNAME":"永康區","LI":"東灣里","LIN":"36鄰","STREET":"大灣三街","SECT":" ","MAREA":" ","LANE":" ","ALLEY":" ","HOUSE_NO":"２６號","E_COORD97":175072.01000000001,"N_COORD97":2544894.6600000001,"ADDRESS":"大灣三街２６號","OBJECTID":462815},"geometry":{"x":175072.01000000071,"y":2544894.6600000039}},{"attributes":{"ID":462841,"DIS_CODE":0,"TOWNNAME":"永康區","LI":"東灣里","LIN":"36鄰","STREET":"大灣三街","SECT":" ","MAREA":" ","LANE":" ","ALLEY":" ","HOUSE_NO":"２０號","E_COORD97":175078.20000000001,"N_COORD97":2544889.9100000001,"ADDRESS":"大灣三街２０號","OBJECTID":462816},"geometry":{"x":175078.20000000112,"y":2544889.910000002}},{"attributes":{"ID":462842,"DIS_CODE":0,"TOWNNAME":"永康區","LI":"東灣里","LIN":"36鄰","STREET":"大灣三街","SECT":" ","MAREA":" ","LANE":" ","ALLEY":" ","HOUSE_NO":"３８號","E_COORD97":175055.70000000001,"N_COORD97":2544906.6499999999,"ADDRESS":"大灣三街３８號","OBJECTID":462817},"geometry":{"x":175055.70000000205,"y":2544906.6500000022}},{"attributes":{"ID":462843,"DIS_CODE":0,"TOWNNAME":"永康區","LI":"西灣里","LIN":"36鄰","STREET":"國光八街","SECT":" ","MAREA":" ","LANE":" ","ALLEY":" ","HOUSE_NO":"９５號","E_COORD97":174217.82000000001,"N_COORD97":2545751.7000000002,"ADDRESS":"國光八街９５號","OBJECTID":462818},"geometry":{"x":174217.82000000123,"y":2545751.7000000011}},{"attributes":{"ID":462844,"DIS_CODE":0,"TOWNNAME":"永康區","LI":"永康里","LIN":"36鄰","STREET":"永平街","SECT":" ","MAREA":" ","LANE":" ","ALLEY":" ","HOUSE_NO":"７６號","E_COORD97":174393.91,"N_COORD97":2546866.1800000002,"ADDRESS":"永平街７６號","OBJECTID":462819},"geometry":{"x":174393.91000000015,"y":2546866.1799999997}},{"attributes":{"ID":462845,"DIS_CODE":0,"TOWNNAME":"新市區","LI":"新和里","LIN":"36鄰","STREET":"華興街","SECT":" ","MAREA":" ","LANE":" ","ALLEY":" ","HOUSE_NO":"１０１號","E_COORD97":177524.79000000001,"N_COORD97":2552962.75,"ADDRESS":"華興街１０１號","OBJECTID":462820},"geometry":{"x":177524.7900000019,"y":2552962.7499999981}},{"attributes":{"ID":462846,"DIS_CODE":0,"TOWNNAME":"新市區","LI":"新和里","LIN":"36鄰","STREET":"華興街","SECT":" ","MAREA":" ","LANE":" ","ALLEY":" ","HOUSE_NO":"８６號","E_COORD97":177565.78,"N_COORD97":2552982.25,"ADDRESS":"華興街８６號","OBJECTID":462821},"geometry":{"x":177565.78000000212,"y":2552982.25}},{"attributes":{"ID":462847,"DIS_CODE":0,"TOWNNAME":"安南區","LI":"安富里","LIN":"36鄰","STREET":"府安路","SECT":"五段","MAREA":" ","LANE":" ","ALLEY":" ","HOUSE_NO":"１４５號","E_COORD97":167867.64999999999,"N_COORD97":2547068.7000000002,"ADDRESS":"府安路五段１４５號","OBJECTID":462822},"geometry":{"x":167867.6500000013,"y":2547068.6999999993}},{"attributes":{"ID":462848,"DIS_CODE":0,"TOWNNAME":"安南區","LI":"安富里","LIN":"36鄰","STREET":"府安路","SECT":"五段","MAREA":" ","LANE":" ","ALLEY":" ","HOUSE_NO":"１４６號","E_COORD97":167856.63,"N_COORD97":2547067.23,"ADDRESS":"府安路五段１４６號","OBJECTID":462823},"geometry":{"x":167856.63000000082,"y":2547067.2300000004}},{"attributes":{"ID":462849,"DIS_CODE":0,"TOWNNAME":"安南區","LI":"安富里","LIN":"36鄰","STREET":"府安路","SECT":"五段","MAREA":" ","LANE":" ","ALLEY":" ","HOUSE_NO":"１４７號","E_COORD97":167852.5,"N_COORD97":2547063.79,"ADDRESS":"府安路五段１４７號","OBJECTID":462824},"geometry":{"x":167852.50000000093,"y":2547063.790000001}},{"attributes":{"ID":462850,"DIS_CODE":0,"TOWNNAME":"安南區","LI":"安富里","LIN":"36鄰","STREET":"府安路","SECT":"五段","MAREA":" ","LANE":" ","ALLEY":" ","HOUSE_NO":"１４８號","E_COORD97":167849.04999999999,"N_COORD97":2547061.04,"ADDRESS":"府安路五段１４８號","OBJECTID":462825},"geometry":{"x":167849.05000000075,"y":2547061.0400000028}},{"attributes":{"ID":462851,"DIS_CODE":0,"TOWNNAME":"安南區","LI":"安富里","LIN":"36鄰","STREET":"府安路","SECT":"五段","MAREA":" ","LANE":" ","ALLEY":" ","HOUSE_NO":"１４９號","E_COORD97":167843.89000000001,"N_COORD97":2547063.79,"ADDRESS":"府安路五段１４９號","OBJECTID":462826},"geometry":{"x":167843.88999999966,"y":2547063.790000001}},{"attributes":{"ID":462852,"DIS_CODE":0,"TOWNNAME":"安南區","LI":"安富里","LIN":"36鄰","STREET":"府安路","SECT":"五段","MAREA":" ","LANE":" ","ALLEY":" ","HOUSE_NO":"１５０號","E_COORD97":167840.44,"N_COORD97":2547060.3500000001,"ADDRESS":"府安路五段１５０號","OBJECTID":462827},"geometry":{"x":167840.44000000041,"y":2547060.3500000015}},{"attributes":{"ID":462853,"DIS_CODE":0,"TOWNNAME":"安南區","LI":"安富里","LIN":"36鄰","STREET":"府安路","SECT":"五段","MAREA":" ","LANE":" ","ALLEY":" ","HOUSE_NO":"１５１號","E_COORD97":167835.28,"N_COORD97":2547062.0699999998,"ADDRESS":"府安路五段１５１號","OBJECTID":462828},"geometry":{"x":167835.28000000212,"y":2547062.070000004}},{"attributes":{"ID":462854,"DIS_CODE":0,"TOWNNAME":"安南區","LI":"安富里","LIN":"36鄰","STREET":"府安路","SECT":"五段","MAREA":" ","LANE":" ","ALLEY":" ","HOUSE_NO":"１５２號","E_COORD97":167829.76999999999,"N_COORD97":2547060.0099999998,"ADDRESS":"府安路五段１５２號","OBJECTID":462829},"geometry":{"x":167829.77000000048,"y":2547060.0100000016}},{"attributes":{"ID":462855,"DIS_CODE":0,"TOWNNAME":"永康區","LI":"永康里","LIN":"36鄰","STREET":"永平街","SECT":" ","MAREA":" ","LANE":" ","ALLEY":" ","HOUSE_NO":"７０號","E_COORD97":174384.92000000001,"N_COORD97":2546863.6800000002,"ADDRESS":"永平街７０號","OBJECTID":462830},"geometry":{"x":174384.92000000086,"y":2546863.6799999978}},{"attributes":{"ID":462856,"DIS_CODE":0,"TOWNNAME":"永康區","LI":"崑山里","LIN":"36鄰","STREET":"大仁街","SECT":" ","MAREA":" ","LANE":" ","ALLEY":" ","HOUSE_NO":"１９７號","E_COORD97":173907.79000000001,"N_COORD97":2545042.2400000002,"ADDRESS":"大仁街１９７號","OBJECTID":462831},"geometry":{"x":173907.79000000097,"y":2545042.2400000002}},{"attributes":{"ID":462857,"DIS_CODE":0,"TOWNNAME":"永康區","LI":"南灣里","LIN":"36鄰","STREET":"大安街","SECT":" ","MAREA":" ","LANE":" ","ALLEY":" ","HOUSE_NO":"９６號","E_COORD97":174528.48000000001,"N_COORD97":2545006.5600000001,"ADDRESS":"大安街９６號","OBJECTID":462832},"geometry":{"x":174528.48000000231,"y":2545006.5600000005}},{"attributes":{"ID":462858,"DIS_CODE":0,"TOWNNAME":"永康區","LI":"南灣里","LIN":"36鄰","STREET":"大安街","SECT":" ","MAREA":" ","LANE":" ","ALLEY":" ","HOUSE_NO":"８８號","E_COORD97":174516.81,"N_COORD97":2544992.98,"ADDRESS":"大安街８８號","OBJECTID":462833},"geometry":{"x":174516.81000000145,"y":2544992.9800000004}},{"attributes":{"ID":462859,"DIS_CODE":0,"TOWNNAME":"永康區","LI":"南灣里","LIN":"36鄰","STREET":"大安街","SECT":" ","MAREA":" ","LANE":" ","ALLEY":" ","HOUSE_NO":"９３號","E_COORD97":174511.51000000001,"N_COORD97":2545018.1099999999,"ADDRESS":"大安街９３號","OBJECTID":462834},"geometry":{"x":174511.50999999978,"y":2545018.1099999994}},{"attributes":{"ID":462860,"DIS_CODE":0,"TOWNNAME":"永康區","LI":"東灣里","LIN":"36鄰","STREET":"大灣三街","SECT":" ","MAREA":" ","LANE":" ","ALLEY":" ","HOUSE_NO":"３６號","E_COORD97":175059.26000000001,"N_COORD97":2544903.8999999999,"ADDRESS":"大灣三街３６號","OBJECTID":462835},"geometry":{"x":175059.25999999978,"y":2544903.9000000022}},{"attributes":{"ID":462861,"DIS_CODE":0,"TOWNNAME":"永康區","LI":"南灣里","LIN":"36鄰","STREET":"大安街","SECT":" ","MAREA":" ","LANE":" ","ALLEY":" ","HOUSE_NO":"８９號","E_COORD97":174497.35000000001,"N_COORD97":2545008.4300000002,"ADDRESS":"大安街８９號","OBJECTID":462836},"geometry":{"x":174497.34999999963,"y":2545008.4300000016}},{"attributes":{"ID":462862,"DIS_CODE":0,"TOWNNAME":"永康區","LI":"東灣里","LIN":"36鄰","STREET":"大灣三街","SECT":" ","MAREA":" ","LANE":" ","ALLEY":" ","HOUSE_NO":"４０號","E_COORD97":175052.20000000001,"N_COORD97":2544909.1499999999,"ADDRESS":"大灣三街４０號","OBJECTID":462837},"geometry":{"x":175052.20000000205,"y":2544909.1500000022}},{"attributes":{"ID":462863,"DIS_CODE":0,"TOWNNAME":"佳里區","LI":"鎮山里","LIN":"20鄰","STREET":"鎮山街","SECT":" ","MAREA":" ","LANE":" ","ALLEY":" ","HOUSE_NO":"１４６號","E_COORD97":166270.5,"N_COORD97":2561007.1000000001,"ADDRESS":"鎮山街１４６號","OBJECTID":462838},"geometry":{"x":166270.49999999907,"y":2561007.1000000015}},{"attributes":{"ID":462864,"DIS_CODE":0,"TOWNNAME":"新市區","LI":"新和里","LIN":"36鄰","STREET":"華興街","SECT":" ","MAREA":" ","LANE":" ","ALLEY":" ","HOUSE_NO":"６７號","E_COORD97":177606.48999999999,"N_COORD97":2552964.75,"ADDRESS":"華興街６７號","OBJECTID":462839},"geometry":{"x":177606.49000000022,"y":2552964.75}},{"attributes":{"ID":462865,"DIS_CODE":0,"TOWNNAME":"新市區","LI":"新和里","LIN":"36鄰","STREET":"華興街","SECT":" ","MAREA":" ","LANE":" ","ALLEY":" ","HOUSE_NO":"１０８號","E_COORD97":177521.37,"N_COORD97":2552976.5,"ADDRESS":"華興街１０８號","OBJECTID":462840},"geometry":{"x":177521.37000000104,"y":2552976.5000000019}},{"attributes":{"ID":462866,"DIS_CODE":0,"TOWNNAME":"新市區","LI":"新和里","LIN":"36鄰","STREET":"華興街","SECT":" ","MAREA":" ","LANE":" ","ALLEY":" ","HOUSE_NO":"８０號","E_COORD97":177577.84,"N_COORD97":2552983.75,"ADDRESS":"華興街８０號","OBJECTID":462841},"geometry":{"x":177577.83999999985,"y":2552983.7500000019}},{"attributes":{"ID":462867,"DIS_CODE":0,"TOWNNAME":"永康區","LI":"西灣里","LIN":"36鄰","STREET":"國光八街","SECT":" ","MAREA":" ","LANE":" ","ALLEY":" ","HOUSE_NO":"９３號","E_COORD97":174221.89999999999,"N_COORD97":2545752.2000000002,"ADDRESS":"國光八街９３號","OBJECTID":462842},"geometry":{"x":174221.90000000037,"y":2545752.2000000011}},{"attributes":{"ID":462868,"DIS_CODE":0,"TOWNNAME":"永康區","LI":"西灣里","LIN":"36鄰","STREET":"國光八街","SECT":" ","MAREA":" ","LANE":" ","ALLEY":" ","HOUSE_NO":"１０５號","E_COORD97":174193.44,"N_COORD97":2545746.1600000001,"ADDRESS":"國光八街１０５號","OBJECTID":462843},"geometry":{"x":174193.44000000134,"y":2545746.160000002}},{"attributes":{"ID":462869,"DIS_CODE":0,"TOWNNAME":"佳里區","LI":"安西里","LIN":"36鄰","STREET":"育善街","SECT":" ","MAREA":" ","LANE":" ","ALLEY":" ","HOUSE_NO":"２９９號","E_COORD97":164910.5,"N_COORD97":2562870,"ADDRESS":"育善街２９９號","OBJECTID":462844},"geometry":{"x":164910.5,"y":2562870}},{"attributes":{"ID":462870,"DIS_CODE":0,"TOWNNAME":"永康區","LI":"西灣里","LIN":"36鄰","STREET":"國光八街","SECT":" ","MAREA":" ","LANE":" ","ALLEY":" ","HOUSE_NO":"１２７號","E_COORD97":174147.87,"N_COORD97":2545737.1899999999,"ADDRESS":"國光八街１２７號","OBJECTID":462845},"geometry":{"x":174147.87000000104,"y":2545737.1899999995}},{"attributes":{"ID":462871,"DIS_CODE":0,"TOWNNAME":"永康區","LI":"西灣里","LIN":"36鄰","STREET":"國光八街","SECT":" ","MAREA":" ","LANE":" ","ALLEY":" ","HOUSE_NO":"９１號","E_COORD97":174226.14999999999,"N_COORD97":2545752.9500000002,"ADDRESS":"國光八街９１號","OBJECTID":462846},"geometry":{"x":174226.1500000013,"y":2545752.950000003}},{"attributes":{"ID":462872,"DIS_CODE":0,"TOWNNAME":"永康區","LI":"西灣里","LIN":"36鄰","STREET":"國光八街","SECT":" ","MAREA":" ","LANE":" ","ALLEY":" ","HOUSE_NO":"１０９號","E_COORD97":174185.59,"N_COORD97":2545744.4100000001,"ADDRESS":"國光八街１０９號","OBJECTID":462847},"geometry":{"x":174185.58999999985,"y":2545744.410000002}},{"attributes":{"ID":462873,"DIS_CODE":0,"TOWNNAME":"永康區","LI":"南灣里","LIN":"36鄰","STREET":"大安街","SECT":" ","MAREA":" ","LANE":" ","ALLEY":" ","HOUSE_NO":"９１號","E_COORD97":174509.92000000001,"N_COORD97":2545013.8599999999,"ADDRESS":"大安街９１號","OBJECTID":462848},"geometry":{"x":174509.92000000086,"y":2545013.8599999994}},{"attributes":{"ID":462874,"DIS_CODE":0,"TOWNNAME":"永康區","LI":"西灣里","LIN":"36鄰","STREET":"國光八街","SECT":" ","MAREA":" ","LANE":" ","ALLEY":" ","HOUSE_NO":"１０７號","E_COORD97":174189.53,"N_COORD97":2545744.9100000001,"ADDRESS":"國光八街１０７號","OBJECTID":462849},"geometry":{"x":174189.53000000119,"y":2545744.910000002}},{"attributes":{"ID":462875,"DIS_CODE":0,"TOWNNAME":"永康區","LI":"南灣里","LIN":"36鄰","STREET":"大安街","SECT":" ","MAREA":" ","LANE":" ","ALLEY":" ","HOUSE_NO":"９５號","E_COORD97":174516,"N_COORD97":2545029.7000000002,"ADDRESS":"大安街９５號","OBJECTID":462850},"geometry":{"x":174516.00000000186,"y":2545029.7000000011}},{"attributes":{"ID":462876,"DIS_CODE":0,"TOWNNAME":"永康區","LI":"永康里","LIN":"36鄰","STREET":"永平街","SECT":" ","MAREA":" ","LANE":" ","ALLEY":" ","HOUSE_NO":"６２５號","E_COORD97":174444.25,"N_COORD97":2546901.02,"ADDRESS":"永平街６２５號","OBJECTID":462851},"geometry":{"x":174444.25,"y":2546901.0199999996}},{"attributes":{"ID":462877,"DIS_CODE":0,"TOWNNAME":"佳里區","LI":"安西里","LIN":"36鄰","STREET":"光華街","SECT":" ","MAREA":" ","LANE":" ","ALLEY":" ","HOUSE_NO":"１８０號","E_COORD97":164913.13,"N_COORD97":2562828.7000000002,"ADDRESS":"光華街１８０號","OBJECTID":462852},"geometry":{"x":164913.12999999989,"y":2562828.700000003}},{"attributes":{"ID":462878,"DIS_CODE":0,"TOWNNAME":"佳里區","LI":"安西里","LIN":"36鄰","STREET":"光華街","SECT":" ","MAREA":" ","LANE":" ","ALLEY":" ","HOUSE_NO":"１８２號","E_COORD97":164908.13,"N_COORD97":2562828.1600000001,"ADDRESS":"光華街１８２號","OBJECTID":462853},"geometry":{"x":164908.12999999989,"y":2562828.1600000001}},{"attributes":{"ID":462879,"DIS_CODE":0,"TOWNNAME":"佳里區","LI":"安西里","LIN":"36鄰","STREET":"光華街","SECT":" ","MAREA":" ","LANE":" ","ALLEY":" ","HOUSE_NO":"１８４號","E_COORD97":164902.5,"N_COORD97":2562828.4500000002,"ADDRESS":"光華街１８４號","OBJECTID":462854},"geometry":{"x":164902.49999999907,"y":2562828.4500000011}},{"attributes":{"ID":462880,"DIS_CODE":0,"TOWNNAME":"佳里區","LI":"安西里","LIN":"36鄰","STREET":"光華街","SECT":" ","MAREA":" ","LANE":" ","ALLEY":" ","HOUSE_NO":"１８６號","E_COORD97":164898.60000000001,"N_COORD97":2562828.0499999998,"ADDRESS":"光華街１８６號","OBJECTID":462855},"geometry":{"x":164898.60000000056,"y":2562828.0500000026}},{"attributes":{"ID":462881,"DIS_CODE":0,"TOWNNAME":"佳里區","LI":"安西里","LIN":"36鄰","STREET":"光華街","SECT":" ","MAREA":" ","LANE":" ","ALLEY":" ","HOUSE_NO":"１８８號","E_COORD97":164894.5,"N_COORD97":2562828.7400000002,"ADDRESS":"光華街１８８號","OBJECTID":462856},"geometry":{"x":164894.50000000093,"y":2562828.7400000002}},{"attributes":{"ID":462882,"DIS_CODE":0,"TOWNNAME":"佳里區","LI":"安西里","LIN":"36鄰","STREET":"光華街","SECT":" ","MAREA":" ","LANE":" ","ALLEY":" ","HOUSE_NO":"１９０號","E_COORD97":164890.29999999999,"N_COORD97":2562828.8100000001,"ADDRESS":"光華街１９０號","OBJECTID":462857},"geometry":{"x":164890.30000000168,"y":2562828.8100000005}},{"attributes":{"ID":462883,"DIS_CODE":0,"TOWNNAME":"佳里區","LI":"安西里","LIN":"36鄰","STREET":"光華街","SECT":" ","MAREA":" ","LANE":" ","ALLEY":" ","HOUSE_NO":"１９２號","E_COORD97":164886.26999999999,"N_COORD97":2562828.5600000001,"ADDRESS":"光華街１９２號","OBJECTID":462858},"geometry":{"x":164886.26999999955,"y":2562828.5600000024}},{"attributes":{"ID":462884,"DIS_CODE":0,"TOWNNAME":"佳里區","LI":"安西里","LIN":"36鄰","STREET":"光華街","SECT":" ","MAREA":" ","LANE":" ","ALLEY":" ","HOUSE_NO":"１９４號","E_COORD97":164882.51999999999,"N_COORD97":2562828.8399999999,"ADDRESS":"光華街１９４號","OBJECTID":462859},"geometry":{"x":164882.51999999955,"y":2562828.8400000017}},{"attributes":{"ID":462885,"DIS_CODE":0,"TOWNNAME":"佳里區","LI":"安西里","LIN":"36鄰","STREET":"育善街","SECT":" ","MAREA":" ","LANE":" ","ALLEY":" ","HOUSE_NO":"２８７號","E_COORD97":164908.57000000001,"N_COORD97":2562843.9700000002,"ADDRESS":"育善街２８７號","OBJECTID":462860},"geometry":{"x":164908.5700000003,"y":2562843.9700000007}},{"attributes":{"ID":462886,"DIS_CODE":0,"TOWNNAME":"佳里區","LI":"安西里","LIN":"36鄰","STREET":"育善街","SECT":" ","MAREA":" ","LANE":" ","ALLEY":" ","HOUSE_NO":"２８９號","E_COORD97":164908.89000000001,"N_COORD97":2562847.5600000001,"ADDRESS":"育善街２８９號","OBJECTID":462861},"geometry":{"x":164908.8900000006,"y":2562847.5599999987}},{"attributes":{"ID":462887,"DIS_CODE":0,"TOWNNAME":"佳里區","LI":"安西里","LIN":"36鄰","STREET":"育善街","SECT":" ","MAREA":" ","LANE":" ","ALLEY":" ","HOUSE_NO":"２９１號","E_COORD97":164909.35999999999,"N_COORD97":2562851.6400000001,"ADDRESS":"育善街２９１號","OBJECTID":462862},"geometry":{"x":164909.36000000127,"y":2562851.6400000025}},{"attributes":{"ID":462888,"DIS_CODE":0,"TOWNNAME":"佳里區","LI":"安西里","LIN":"36鄰","STREET":"育善街","SECT":" ","MAREA":" ","LANE":" ","ALLEY":" ","HOUSE_NO":"２９３號","E_COORD97":164909.63,"N_COORD97":2562856.6899999999,"ADDRESS":"育善街２９３號","OBJECTID":462863},"geometry":{"x":164909.62999999989,"y":2562856.6900000013}},{"attributes":{"ID":462889,"DIS_CODE":0,"TOWNNAME":"佳里區","LI":"安西里","LIN":"36鄰","STREET":"育善街","SECT":" ","MAREA":" ","LANE":" ","ALLEY":" ","HOUSE_NO":"２９５號","E_COORD97":164909.94,"N_COORD97":2562861.0800000001,"ADDRESS":"育善街２９５號","OBJECTID":462864},"geometry":{"x":164909.94000000041,"y":2562861.0800000019}},{"attributes":{"ID":462890,"DIS_CODE":0,"TOWNNAME":"佳里區","LI":"安西里","LIN":"36鄰","STREET":"育善街","SECT":" ","MAREA":" ","LANE":" ","ALLEY":" ","HOUSE_NO":"２９７號","E_COORD97":164909.69,"N_COORD97":2562865.3700000001,"ADDRESS":"育善街２９７號","OBJECTID":462865},"geometry":{"x":164909.69000000041,"y":2562865.370000001}},{"attributes":{"ID":462891,"DIS_CODE":0,"TOWNNAME":"佳里區","LI":"安西里","LIN":"36鄰","STREET":"育善街","SECT":" ","MAREA":" ","LANE":" ","ALLEY":" ","HOUSE_NO":"３０１號","E_COORD97":164910.41,"N_COORD97":2562873.9399999999,"ADDRESS":"育善街３０１號","OBJECTID":462866},"geometry":{"x":164910.41000000108,"y":2562873.9399999995}},{"attributes":{"ID":462892,"DIS_CODE":0,"TOWNNAME":"佳里區","LI":"安西里","LIN":"36鄰","STREET":"育善街","SECT":" ","MAREA":" ","LANE":" ","ALLEY":" ","HOUSE_NO":"３０３號","E_COORD97":164910.63,"N_COORD97":2562878.4500000002,"ADDRESS":"育善街３０３號","OBJECTID":462867},"geometry":{"x":164910.63000000082,"y":2562878.4500000011}},{"attributes":{"ID":462893,"DIS_CODE":0,"TOWNNAME":"佳里區","LI":"安西里","LIN":"36鄰","STREET":"育善街","SECT":" ","MAREA":" ","LANE":" ","ALLEY":" ","HOUSE_NO":"３０５號","E_COORD97":164910.78,"N_COORD97":2562882.5899999999,"ADDRESS":"育善街３０５號","OBJECTID":462868},"geometry":{"x":164910.78000000026,"y":2562882.5899999999}},{"attributes":{"ID":462894,"DIS_CODE":0,"TOWNNAME":"佳里區","LI":"安西里","LIN":"36鄰","STREET":"育善街","SECT":" ","MAREA":" ","LANE":" ","ALLEY":" ","HOUSE_NO":"３０７號","E_COORD97":164910.95999999999,"N_COORD97":2562886.8500000001,"ADDRESS":"育善街３０７號","OBJECTID":462869},"geometry":{"x":164910.95999999996,"y":2562886.8500000015}},{"attributes":{"ID":462895,"DIS_CODE":0,"TOWNNAME":"佳里區","LI":"安西里","LIN":"36鄰","STREET":"育善街","SECT":" ","MAREA":" ","LANE":" ","ALLEY":" ","HOUSE_NO":"３０９號","E_COORD97":164911.16,"N_COORD97":2562891.0099999998,"ADDRESS":"育善街３０９號","OBJECTID":462870},"geometry":{"x":164911.16000000015,"y":2562891.0099999998}},{"attributes":{"ID":462896,"DIS_CODE":0,"TOWNNAME":"佳里區","LI":"安西里","LIN":"36鄰","STREET":"育善街","SECT":" ","MAREA":" ","LANE":" ","ALLEY":" ","HOUSE_NO":"３１０號","E_COORD97":164933.98000000001,"N_COORD97":2562833.5600000001,"ADDRESS":"育善街３１０號","OBJECTID":462871},"geometry":{"x":164933.98000000138,"y":2562833.5600000005}},{"attributes":{"ID":462897,"DIS_CODE":0,"TOWNNAME":"佳里區","LI":"安西里","LIN":"36鄰","STREET":"育善街","SECT":" ","MAREA":" ","LANE":" ","ALLEY":" ","HOUSE_NO":"３１１號","E_COORD97":164911.59,"N_COORD97":2562895.0800000001,"ADDRESS":"育善街３１１號","OBJECTID":462872},"geometry":{"x":164911.58999999985,"y":2562895.0800000019}},{"attributes":{"ID":462898,"DIS_CODE":0,"TOWNNAME":"佳里區","LI":"安西里","LIN":"36鄰","STREET":"育善街","SECT":" ","MAREA":" ","LANE":" ","ALLEY":" ","HOUSE_NO":"３１２號","E_COORD97":164931.22,"N_COORD97":2562907.4199999999,"ADDRESS":"育善街３１２號","OBJECTID":462873},"geometry":{"x":164931.21999999881,"y":2562907.4200000018}},{"attributes":{"ID":462899,"DIS_CODE":0,"TOWNNAME":"佳里區","LI":"安西里","LIN":"36鄰","STREET":"育善街","SECT":" ","MAREA":" ","LANE":" ","ALLEY":" ","HOUSE_NO":"３１３號","E_COORD97":164912,"N_COORD97":2562898.9900000002,"ADDRESS":"育善街３１３號","OBJECTID":462874},"geometry":{"x":164912,"y":2562898.9900000039}},{"attributes":{"ID":462900,"DIS_CODE":0,"TOWNNAME":"佳里區","LI":"安西里","LIN":"36鄰","STREET":"育善街","SECT":" ","MAREA":" ","LANE":" ","ALLEY":" ","HOUSE_NO":"３１４號","E_COORD97":164930.91,"N_COORD97":2562911.3900000001,"ADDRESS":"育善街３１４號","OBJECTID":462875},"geometry":{"x":164930.91000000108,"y":2562911.3900000025}},{"attributes":{"ID":462901,"DIS_CODE":0,"TOWNNAME":"佳里區","LI":"安西里","LIN":"36鄰","STREET":"育善街","SECT":" ","MAREA":" ","LANE":" ","ALLEY":" ","HOUSE_NO":"３１５號","E_COORD97":164913.07999999999,"N_COORD97":2562904.1000000001,"ADDRESS":"育善街３１５號","OBJECTID":462876},"geometry":{"x":164913.08000000101,"y":2562904.1000000034}},{"attributes":{"ID":462902,"DIS_CODE":0,"TOWNNAME":"佳里區","LI":"安西里","LIN":"36鄰","STREET":"育善街","SECT":" ","MAREA":" ","LANE":" ","ALLEY":" ","HOUSE_NO":"３１６號","E_COORD97":164931.03,"N_COORD97":2562915.1600000001,"ADDRESS":"育善街３１６號","OBJECTID":462877},"geometry":{"x":164931.03000000026,"y":2562915.160000002}},{"attributes":{"ID":462903,"DIS_CODE":0,"TOWNNAME":"佳里區","LI":"安西里","LIN":"36鄰","STREET":"育善街","SECT":" ","MAREA":" ","LANE":" ","ALLEY":" ","HOUSE_NO":"３１７號","E_COORD97":164913.13,"N_COORD97":2562908.3100000001,"ADDRESS":"育善街３１７號","OBJECTID":462878},"geometry":{"x":164913.12999999989,"y":2562908.3100000024}},{"attributes":{"ID":462904,"DIS_CODE":0,"TOWNNAME":"佳里區","LI":"安西里","LIN":"36鄰","STREET":"育善街","SECT":" ","MAREA":" ","LANE":" ","ALLEY":" ","HOUSE_NO":"３１８號","E_COORD97":164931.35999999999,"N_COORD97":2562919.4900000002,"ADDRESS":"育善街３１８號","OBJECTID":462879},"geometry":{"x":164931.36000000127,"y":2562919.4900000021}},{"attributes":{"ID":462905,"DIS_CODE":0,"TOWNNAME":"佳里區","LI":"安西里","LIN":"36鄰","STREET":"育善街","SECT":" ","MAREA":" ","LANE":" ","ALLEY":" ","HOUSE_NO":"３１９號","E_COORD97":164913.48000000001,"N_COORD97":2562912.4500000002,"ADDRESS":"育善街３１９號","OBJECTID":462880},"geometry":{"x":164913.48000000231,"y":2562912.4500000011}},{"attributes":{"ID":462906,"DIS_CODE":0,"TOWNNAME":"佳里區","LI":"安西里","LIN":"36鄰","STREET":"育善街","SECT":" ","MAREA":" ","LANE":" ","ALLEY":" ","HOUSE_NO":"３２０號","E_COORD97":164931.76000000001,"N_COORD97":2562923.6600000001,"ADDRESS":"育善街３２０號","OBJECTID":462881},"geometry":{"x":164931.76000000071,"y":2562923.6600000001}},{"attributes":{"ID":462907,"DIS_CODE":0,"TOWNNAME":"佳里區","LI":"安西里","LIN":"36鄰","STREET":"育善街","SECT":" ","MAREA":" ","LANE":" ","ALLEY":" ","HOUSE_NO":"３２１號","E_COORD97":164913.76999999999,"N_COORD97":2562916.5600000001,"ADDRESS":"育善街３２１號","OBJECTID":462882},"geometry":{"x":164913.76999999862,"y":2562916.5600000024}},{"attributes":{"ID":462908,"DIS_CODE":0,"TOWNNAME":"佳里區","LI":"安西里","LIN":"36鄰","STREET":"育善街","SECT":" ","MAREA":" ","LANE":" ","ALLEY":" ","HOUSE_NO":"３２２號","E_COORD97":164931.32999999999,"N_COORD97":2562927.29,"ADDRESS":"育善街３２２號","OBJECTID":462883},"geometry":{"x":164931.33000000101,"y":2562927.290000001}},{"attributes":{"ID":462909,"DIS_CODE":0,"TOWNNAME":"佳里區","LI":"安西里","LIN":"36鄰","STREET":"育善街","SECT":" ","MAREA":" ","LANE":" ","ALLEY":" ","HOUSE_NO":"３２３號","E_COORD97":164913.82000000001,"N_COORD97":2562920.0699999998,"ADDRESS":"育善街３２３號","OBJECTID":462884},"geometry":{"x":164913.8200000003,"y":2562920.0700000022}},{"attributes":{"ID":462910,"DIS_CODE":0,"TOWNNAME":"佳里區","LI":"安西里","LIN":"36鄰","STREET":"育善街","SECT":" ","MAREA":" ","LANE":" ","ALLEY":" ","HOUSE_NO":"３２４號","E_COORD97":164931.47,"N_COORD97":2562931.9300000002,"ADDRESS":"育善街３２４號","OBJECTID":462885},"geometry":{"x":164931.4700000016,"y":2562931.9299999997}},{"attributes":{"ID":462911,"DIS_CODE":0,"TOWNNAME":"佳里區","LI":"安西里","LIN":"36鄰","STREET":"育善街","SECT":" ","MAREA":" ","LANE":" ","ALLEY":" ","HOUSE_NO":"３２５號","E_COORD97":164913.42000000001,"N_COORD97":2562925.0499999998,"ADDRESS":"育善街３２５號","OBJECTID":462886},"geometry":{"x":164913.42000000086,"y":2562925.0500000007}},{"attributes":{"ID":462912,"DIS_CODE":0,"TOWNNAME":"佳里區","LI":"安西里","LIN":"36鄰","STREET":"育善街","SECT":" ","MAREA":" ","LANE":" ","ALLEY":" ","HOUSE_NO":"３２７號","E_COORD97":164914.03,"N_COORD97":2562929.0099999998,"ADDRESS":"育善街３２７號","OBJECTID":462887},"geometry":{"x":164914.03000000026,"y":2562929.0100000016}},{"attributes":{"ID":462913,"DIS_CODE":0,"TOWNNAME":"仁德區","LI":"成功里","LIN":"36鄰","STREET":"保華路","SECT":" ","MAREA":" ","LANE":" ","ALLEY":" ","HOUSE_NO":"５６號","E_COORD97":170622.06,"N_COORD97":2540002,"ADDRESS":"保華路５６號","OBJECTID":462888},"geometry":{"x":170622.06000000052,"y":2540002}},{"attributes":{"ID":462914,"DIS_CODE":0,"TOWNNAME":"佳里區","LI":"鎮山里","LIN":"20鄰","STREET":"鎮山街","SECT":" ","MAREA":" ","LANE":" ","ALLEY":" ","HOUSE_NO":"１４８號","E_COORD97":166269.76000000001,"N_COORD97":2561002.6699999999,"ADDRESS":"鎮山街１４８號","OBJECTID":462889},"geometry":{"x":166269.75999999978,"y":2561002.6700000018}},{"attributes":{"ID":462915,"DIS_CODE":0,"TOWNNAME":"仁德區","LI":"太子里","LIN":"36鄰","STREET":"長興一街","SECT":" ","MAREA":" ","LANE":" ","ALLEY":" ","HOUSE_NO":"７６號","E_COORD97":174477.01999999999,"N_COORD97":2543839.7599999998,"ADDRESS":"長興一街７６號","OBJECTID":462890},"geometry":{"x":174477.02000000048,"y":2543839.7600000016}},{"attributes":{"ID":462916,"DIS_CODE":0,"TOWNNAME":"永康區","LI":"永康里","LIN":"36鄰","STREET":"永平街","SECT":" ","MAREA":" ","LANE":" ","ALLEY":" ","HOUSE_NO":"７２號","E_COORD97":174389.56,"N_COORD97":2546864.9300000002,"ADDRESS":"永平街７２號","OBJECTID":462891},"geometry":{"x":174389.55999999959,"y":2546864.9299999997}},{"attributes":{"ID":462917,"DIS_CODE":0,"TOWNNAME":"永康區","LI":"永康里","LIN":"36鄰","STREET":"永平街","SECT":" ","MAREA":" ","LANE":" ","ALLEY":" ","HOUSE_NO":"６２１號","E_COORD97":174436.03,"N_COORD97":2546898.27,"ADDRESS":"永平街６２１號","OBJECTID":462892},"geometry":{"x":174436.03000000026,"y":2546898.2700000014}},{"attributes":{"ID":462918,"DIS_CODE":0,"TOWNNAME":"永康區","LI":"永康里","LIN":"36鄰","STREET":"永平街","SECT":" ","MAREA":" ","LANE":" ","ALLEY":" ","HOUSE_NO":"６１９號","E_COORD97":174432.01000000001,"N_COORD97":2546897.02,"ADDRESS":"永平街６１９號","OBJECTID":462893},"geometry":{"x":174432.00999999978,"y":2546897.0199999996}},{"attributes":{"ID":462919,"DIS_CODE":0,"TOWNNAME":"永康區","LI":"永康里","LIN":"36鄰","STREET":"永平街","SECT":" ","MAREA":" ","LANE":" ","ALLEY":" ","HOUSE_NO":"８０號","E_COORD97":174403.16,"N_COORD97":2546868.6800000002,"ADDRESS":"永平街８０號","OBJECTID":462894},"geometry":{"x":174403.16000000201,"y":2546868.6800000016}},{"attributes":{"ID":462920,"DIS_CODE":0,"TOWNNAME":"永康區","LI":"永康里","LIN":"36鄰","STREET":"永平街","SECT":" ","MAREA":" ","LANE":" ","ALLEY":" ","HOUSE_NO":"６４７號","E_COORD97":174493.62,"N_COORD97":2546920.7799999998,"ADDRESS":"永平街６４７號","OBJECTID":462895},"geometry":{"x":174493.62000000104,"y":2546920.7800000012}},{"attributes":{"ID":462921,"DIS_CODE":0,"TOWNNAME":"永康區","LI":"永康里","LIN":"36鄰","STREET":"永平街","SECT":" ","MAREA":" ","LANE":" ","ALLEY":" ","HOUSE_NO":"６２７號","E_COORD97":174448.28,"N_COORD97":2546902.27,"ADDRESS":"永平街６２７號","OBJECTID":462896},"geometry":{"x":174448.28000000212,"y":2546902.2699999996}},{"attributes":{"ID":462922,"DIS_CODE":0,"TOWNNAME":"永康區","LI":"永康里","LIN":"36鄰","STREET":"永平街","SECT":" ","MAREA":" ","LANE":" ","ALLEY":" ","HOUSE_NO":"７８號","E_COORD97":174398.60999999999,"N_COORD97":2546867.4300000002,"ADDRESS":"永平街７８號","OBJECTID":462897},"geometry":{"x":174398.6100000022,"y":2546867.4299999997}},{"attributes":{"ID":462923,"DIS_CODE":0,"TOWNNAME":"永康區","LI":"永康里","LIN":"36鄰","STREET":"永大路","SECT":"二段","MAREA":" ","LANE":" ","ALLEY":" ","HOUSE_NO":"１２６０號","E_COORD97":174324.59,"N_COORD97":2546827.2799999998,"ADDRESS":"永大路二段１２６０號","OBJECTID":462898},"geometry":{"x":174324.58999999985,"y":2546827.2799999993}},{"attributes":{"ID":462924,"DIS_CODE":0,"TOWNNAME":"永康區","LI":"永康里","LIN":"36鄰","STREET":"永大路","SECT":"二段","MAREA":" ","LANE":" ","ALLEY":" ","HOUSE_NO":"１２５６號","E_COORD97":174327.41,"N_COORD97":2546818.7799999998,"ADDRESS":"永大路二段１２５６號","OBJECTID":462899},"geometry":{"x":174327.41000000108,"y":2546818.7800000031}},{"attributes":{"ID":462925,"DIS_CODE":0,"TOWNNAME":"歸仁區","LI":"後市里","LIN":"36鄰","STREET":"民族一街","SECT":" ","MAREA":" ","LANE":" ","ALLEY":" ","HOUSE_NO":"２１號三樓之６","E_COORD97":177300.17999999999,"N_COORD97":2541005.75,"ADDRESS":"民族一街２１號三樓之６","OBJECTID":462900},"geometry":{"x":177300.18000000063,"y":2541005.7500000019}},{"attributes":{"ID":462926,"DIS_CODE":0,"TOWNNAME":"佳里區","LI":"鎮山里","LIN":"20鄰","STREET":"鎮山街","SECT":" ","MAREA":" ","LANE":" ","ALLEY":" ","HOUSE_NO":"１５０號","E_COORD97":166269.03,"N_COORD97":2560998.25,"ADDRESS":"鎮山街１５０號","OBJECTID":462901},"geometry":{"x":166269.03000000212,"y":2560998.2500000037}},{"attributes":{"ID":462927,"DIS_CODE":0,"TOWNNAME":"歸仁區","LI":"後市里","LIN":"36鄰","STREET":"民族一街","SECT":" ","MAREA":" ","LANE":" ","ALLEY":" ","HOUSE_NO":"２１號六樓之２","E_COORD97":177300.19,"N_COORD97":2541005.75,"ADDRESS":"民族一街２１號六樓之２","OBJECTID":462902},"geometry":{"x":177300.19000000041,"y":2541005.7500000019}},{"attributes":{"ID":462928,"DIS_CODE":0,"TOWNNAME":"歸仁區","LI":"後市里","LIN":"36鄰","STREET":"民族一街","SECT":" ","MAREA":" ","LANE":" ","ALLEY":" ","HOUSE_NO":"２１號三樓之７","E_COORD97":177300.17999999999,"N_COORD97":2541005.75,"ADDRESS":"民族一街２１號三樓之７","OBJECTID":462903},"geometry":{"x":177300.18000000063,"y":2541005.7500000019}},{"attributes":{"ID":462929,"DIS_CODE":0,"TOWNNAME":"永康區","LI":"永康里","LIN":"36鄰","STREET":"大同街","SECT":" ","MAREA":" ","LANE":" ","ALLEY":" ","HOUSE_NO":"７７５號六樓之１","E_COORD97":174428.64999999999,"N_COORD97":2546914.0699999998,"ADDRESS":"大同街７７５號六樓之１","OBJECTID":462904},"geometry":{"x":174428.65000000037,"y":2546914.0700000022}},{"attributes":{"ID":462930,"DIS_CODE":0,"TOWNNAME":"永康區","LI":"永康里","LIN":"36鄰","STREET":"大同街","SECT":" ","MAREA":" ","LANE":" ","ALLEY":" ","HOUSE_NO":"７７５號三樓之１","E_COORD97":174428.64999999999,"N_COORD97":2546914.0699999998,"ADDRESS":"大同街７７５號三樓之１","OBJECTID":462905},"geometry":{"x":174428.65000000037,"y":2546914.0700000022}},{"attributes":{"ID":462931,"DIS_CODE":0,"TOWNNAME":"永康區","LI":"永康里","LIN":"36鄰","STREET":"大同街","SECT":" ","MAREA":" ","LANE":" ","ALLEY":" ","HOUSE_NO":"７７７號四樓之２","E_COORD97":174413.23999999999,"N_COORD97":2546909.8199999998,"ADDRESS":"大同街７７７號四樓之２","OBJECTID":462906},"geometry":{"x":174413.24000000115,"y":2546909.8200000003}},{"attributes":{"ID":462932,"DIS_CODE":0,"TOWNNAME":"永康區","LI":"永康里","LIN":"36鄰","STREET":"大同街","SECT":" ","MAREA":" ","LANE":" ","ALLEY":" ","HOUSE_NO":"７７５號六樓之３","E_COORD97":174428.75,"N_COORD97":2546914.0699999998,"ADDRESS":"大同街７７５號六樓之３","OBJECTID":462907},"geometry":{"x":174428.75,"y":2546914.0700000022}},{"attributes":{"ID":462933,"DIS_CODE":0,"TOWNNAME":"永康區","LI":"永康里","LIN":"36鄰","STREET":"大同街","SECT":" ","MAREA":" ","LANE":" ","ALLEY":" ","HOUSE_NO":"７７７號十一樓之２","E_COORD97":174414.48999999999,"N_COORD97":2546909.8199999998,"ADDRESS":"大同街７７７號十一樓之２","OBJECTID":462908},"geometry":{"x":174414.48999999929,"y":2546909.8200000003}},{"attributes":{"ID":462934,"DIS_CODE":0,"TOWNNAME":"永康區","LI":"永康里","LIN":"36鄰","STREET":"大同街","SECT":" ","MAREA":" ","LANE":" ","ALLEY":" ","HOUSE_NO":"７７５號三樓之２","E_COORD97":174428.79000000001,"N_COORD97":2546914.0699999998,"ADDRESS":"大同街７７５號三樓之２","OBJECTID":462909},"geometry":{"x":174428.79000000004,"y":2546914.0700000022}},{"attributes":{"ID":462935,"DIS_CODE":0,"TOWNNAME":"永康區","LI":"永康里","LIN":"36鄰","STREET":"大同街","SECT":" ","MAREA":" ","LANE":" ","ALLEY":" ","HOUSE_NO":"７７７號十樓之２","E_COORD97":174413.23999999999,"N_COORD97":2546909.8199999998,"ADDRESS":"大同街７７７號十樓之２","OBJECTID":462910},"geometry":{"x":174413.24000000115,"y":2546909.8200000003}},{"attributes":{"ID":462936,"DIS_CODE":0,"TOWNNAME":"永康區","LI":"永康里","LIN":"36鄰","STREET":"大同街","SECT":" ","MAREA":" ","LANE":" ","ALLEY":" ","HOUSE_NO":"７７７號四樓之３","E_COORD97":174413.20000000001,"N_COORD97":2546909.8199999998,"ADDRESS":"大同街７７７號四樓之３","OBJECTID":462911},"geometry":{"x":174413.20000000205,"y":2546909.8200000003}},{"attributes":{"ID":462937,"DIS_CODE":0,"TOWNNAME":"永康區","LI":"永康里","LIN":"36鄰","STREET":"大同街","SECT":" ","MAREA":" ","LANE":" ","ALLEY":" ","HOUSE_NO":"７７７號九樓之１","E_COORD97":174413.10000000001,"N_COORD97":2546909.8199999998,"ADDRESS":"大同街７７７號九樓之１","OBJECTID":462912},"geometry":{"x":174413.0999999987,"y":2546909.8200000003}},{"attributes":{"ID":462938,"DIS_CODE":0,"TOWNNAME":"永康區","LI":"永康里","LIN":"36鄰","STREET":"大同街","SECT":" ","MAREA":" ","LANE":" ","ALLEY":" ","HOUSE_NO":"７７５號九樓之３","E_COORD97":174428.75,"N_COORD97":2546914.0699999998,"ADDRESS":"大同街７７５號九樓之３","OBJECTID":462913},"geometry":{"x":174428.75,"y":2546914.0700000022}},{"attributes":{"ID":462939,"DIS_CODE":0,"TOWNNAME":"永康區","LI":"永康里","LIN":"36鄰","STREET":"大同街","SECT":" ","MAREA":" ","LANE":" ","ALLEY":" ","HOUSE_NO":"７７５號十樓之３","E_COORD97":174428.75,"N_COORD97":2546914.0699999998,"ADDRESS":"大同街７７５號十樓之３","OBJECTID":462914},"geometry":{"x":174428.75,"y":2546914.0700000022}},{"attributes":{"ID":462940,"DIS_CODE":0,"TOWNNAME":"永康區","LI":"永康里","LIN":"36鄰","STREET":"大同街","SECT":" ","MAREA":" ","LANE":" ","ALLEY":" ","HOUSE_NO":"７７５號十樓之１","E_COORD97":174428.64999999999,"N_COORD97":2546914.0699999998,"ADDRESS":"大同街７７５號十樓之１","OBJECTID":462915},"geometry":{"x":174428.65000000037,"y":2546914.0700000022}},{"attributes":{"ID":462941,"DIS_CODE":0,"TOWNNAME":"永康區","LI":"永康里","LIN":"36鄰","STREET":"大同街","SECT":" ","MAREA":" ","LANE":" ","ALLEY":" ","HOUSE_NO":"７７５號十樓之５","E_COORD97":174428.81,"N_COORD97":2546914.0699999998,"ADDRESS":"大同街７７５號十樓之５","OBJECTID":462916},"geometry":{"x":174428.81000000145,"y":2546914.0700000022}},{"attributes":{"ID":462942,"DIS_CODE":0,"TOWNNAME":"永康區","LI":"永康里","LIN":"36鄰","STREET":"大同街","SECT":" ","MAREA":" ","LANE":" ","ALLEY":" ","HOUSE_NO":"７７７號五樓之２","E_COORD97":174413.23999999999,"N_COORD97":2546909.8199999998,"ADDRESS":"大同街７７７號五樓之２","OBJECTID":462917},"geometry":{"x":174413.24000000115,"y":2546909.8200000003}},{"attributes":{"ID":462943,"DIS_CODE":0,"TOWNNAME":"永康區","LI":"永康里","LIN":"36鄰","STREET":"大同街","SECT":" ","MAREA":" ","LANE":" ","ALLEY":" ","HOUSE_NO":"７７７號十一樓之３","E_COORD97":174414.45000000001,"N_COORD97":2546909.8199999998,"ADDRESS":"大同街７７７號十一樓之３","OBJECTID":462918},"geometry":{"x":174414.45000000019,"y":2546909.8200000003}},{"attributes":{"ID":462944,"DIS_CODE":0,"TOWNNAME":"永康區","LI":"永康里","LIN":"36鄰","STREET":"大同街","SECT":" ","MAREA":" ","LANE":" ","ALLEY":" ","HOUSE_NO":"７７７號十一樓之１","E_COORD97":174414.35000000001,"N_COORD97":2546909.8199999998,"ADDRESS":"大同街７７７號十一樓之１","OBJECTID":462919},"geometry":{"x":174414.34999999963,"y":2546909.8200000003}},{"attributes":{"ID":462945,"DIS_CODE":0,"TOWNNAME":"中西區","LI":"安海里","LIN":"19鄰","STREET":"民生路","SECT":"二段","MAREA":" ","LANE":" ","ALLEY":" ","HOUSE_NO":"３６９號","E_COORD97":166919.92999999999,"N_COORD97":2544209.6000000001,"ADDRESS":"民生路二段３６９號","OBJECTID":462920},"geometry":{"x":166919.92999999877,"y":2544209.6000000034}},{"attributes":{"ID":462946,"DIS_CODE":0,"TOWNNAME":"中西區","LI":"安海里","LIN":"19鄰","STREET":"民生路","SECT":"二段","MAREA":" ","LANE":" ","ALLEY":" ","HOUSE_NO":"３７１號","E_COORD97":166915.98999999999,"N_COORD97":2544210.9100000001,"ADDRESS":"民生路二段３７１號","OBJECTID":462921},"geometry":{"x":166915.99000000022,"y":2544210.9100000001}},{"attributes":{"ID":462947,"DIS_CODE":0,"TOWNNAME":"永康區","LI":"永康里","LIN":"36鄰","STREET":"大同街","SECT":" ","MAREA":" ","LANE":" ","ALLEY":" ","HOUSE_NO":"７７７號四樓之１","E_COORD97":174413.10000000001,"N_COORD97":2546909.8199999998,"ADDRESS":"大同街７７７號四樓之１","OBJECTID":462922},"geometry":{"x":174413.0999999987,"y":2546909.8200000003}},{"attributes":{"ID":462948,"DIS_CODE":0,"TOWNNAME":"永康區","LI":"永康里","LIN":"36鄰","STREET":"大同街","SECT":" ","MAREA":" ","LANE":" ","ALLEY":" ","HOUSE_NO":"７７７號六樓之２","E_COORD97":174413.23999999999,"N_COORD97":2546909.8199999998,"ADDRESS":"大同街７７７號六樓之２","OBJECTID":462923},"geometry":{"x":174413.24000000115,"y":2546909.8200000003}},{"attributes":{"ID":462949,"DIS_CODE":0,"TOWNNAME":"永康區","LI":"永康里","LIN":"36鄰","STREET":"大同街","SECT":" ","MAREA":" ","LANE":" ","ALLEY":" ","HOUSE_NO":"７７５號四樓之２","E_COORD97":174428.79000000001,"N_COORD97":2546914.0699999998,"ADDRESS":"大同街７７５號四樓之２","OBJECTID":462924},"geometry":{"x":174428.79000000004,"y":2546914.0700000022}},{"attributes":{"ID":462950,"DIS_CODE":0,"TOWNNAME":"永康區","LI":"永康里","LIN":"36鄰","STREET":"大同街","SECT":" ","MAREA":" ","LANE":" ","ALLEY":" ","HOUSE_NO":"７７７號八樓之３","E_COORD97":174413.20000000001,"N_COORD97":2546909.8199999998,"ADDRESS":"大同街７７７號八樓之３","OBJECTID":462925},"geometry":{"x":174413.20000000205,"y":2546909.8200000003}},{"attributes":{"ID":462951,"DIS_CODE":0,"TOWNNAME":"永康區","LI":"永康里","LIN":"36鄰","STREET":"大同街","SECT":" ","MAREA":" ","LANE":" ","ALLEY":" ","HOUSE_NO":"７７５號四樓之３","E_COORD97":174428.75,"N_COORD97":2546914.0699999998,"ADDRESS":"大同街７７５號四樓之３","OBJECTID":462926},"geometry":{"x":174428.75,"y":2546914.0700000022}},{"attributes":{"ID":462952,"DIS_CODE":0,"TOWNNAME":"永康區","LI":"永康里","LIN":"36鄰","STREET":"大同街","SECT":" ","MAREA":" ","LANE":" ","ALLEY":" ","HOUSE_NO":"７７７號七樓之３","E_COORD97":174413.20000000001,"N_COORD97":2546909.8199999998,"ADDRESS":"大同街７７７號七樓之３","OBJECTID":462927},"geometry":{"x":174413.20000000205,"y":2546909.8200000003}},{"attributes":{"ID":462953,"DIS_CODE":0,"TOWNNAME":"永康區","LI":"永康里","LIN":"36鄰","STREET":"大同街","SECT":" ","MAREA":" ","LANE":" ","ALLEY":" ","HOUSE_NO":"７７７號五樓之３","E_COORD97":174413.20000000001,"N_COORD97":2546909.8199999998,"ADDRESS":"大同街７７７號五樓之３","OBJECTID":462928},"geometry":{"x":174413.20000000205,"y":2546909.8200000003}},{"attributes":{"ID":462954,"DIS_CODE":0,"TOWNNAME":"永康區","LI":"永康里","LIN":"36鄰","STREET":"大同街","SECT":" ","MAREA":" ","LANE":" ","ALLEY":" ","HOUSE_NO":"７７５號四樓之５","E_COORD97":174428.81,"N_COORD97":2546914.0699999998,"ADDRESS":"大同街７７５號四樓之５","OBJECTID":462929},"geometry":{"x":174428.81000000145,"y":2546914.0700000022}},{"attributes":{"ID":462955,"DIS_CODE":0,"TOWNNAME":"永康區","LI":"永康里","LIN":"36鄰","STREET":"大同街","SECT":" ","MAREA":" ","LANE":" ","ALLEY":" ","HOUSE_NO":"７７７號十二樓之１","E_COORD97":174414.35000000001,"N_COORD97":2546909.8199999998,"ADDRESS":"大同街７７７號十二樓之１","OBJECTID":462930},"geometry":{"x":174414.34999999963,"y":2546909.8200000003}},{"attributes":{"ID":462956,"DIS_CODE":0,"TOWNNAME":"永康區","LI":"永康里","LIN":"36鄰","STREET":"大同街","SECT":" ","MAREA":" ","LANE":" ","ALLEY":" ","HOUSE_NO":"７７５號五樓之２","E_COORD97":174428.79000000001,"N_COORD97":2546914.0699999998,"ADDRESS":"大同街７７５號五樓之２","OBJECTID":462931},"geometry":{"x":174428.79000000004,"y":2546914.0700000022}},{"attributes":{"ID":462957,"DIS_CODE":0,"TOWNNAME":"永康區","LI":"永康里","LIN":"36鄰","STREET":"大同街","SECT":" ","MAREA":" ","LANE":" ","ALLEY":" ","HOUSE_NO":"７７７號五樓之１","E_COORD97":174413.10000000001,"N_COORD97":2546909.8199999998,"ADDRESS":"大同街７７７號五樓之１","OBJECTID":462932},"geometry":{"x":174413.0999999987,"y":2546909.8200000003}},{"attributes":{"ID":462958,"DIS_CODE":0,"TOWNNAME":"永康區","LI":"永康里","LIN":"36鄰","STREET":"大同街","SECT":" ","MAREA":" ","LANE":" ","ALLEY":" ","HOUSE_NO":"７７７號八樓之２","E_COORD97":174413.23999999999,"N_COORD97":2546909.8199999998,"ADDRESS":"大同街７７７號八樓之２","OBJECTID":462933},"geometry":{"x":174413.24000000115,"y":2546909.8200000003}},{"attributes":{"ID":462959,"DIS_CODE":0,"TOWNNAME":"永康區","LI":"永康里","LIN":"36鄰","STREET":"大同街","SECT":" ","MAREA":" ","LANE":" ","ALLEY":" ","HOUSE_NO":"７７５號五樓之３","E_COORD97":174428.75,"N_COORD97":2546914.0699999998,"ADDRESS":"大同街７７５號五樓之３","OBJECTID":462934},"geometry":{"x":174428.75,"y":2546914.0700000022}},{"attributes":{"ID":462960,"DIS_CODE":0,"TOWNNAME":"永康區","LI":"永康里","LIN":"36鄰","STREET":"大同街","SECT":" ","MAREA":" ","LANE":" ","ALLEY":" ","HOUSE_NO":"７７７號十二樓之２","E_COORD97":174414.48999999999,"N_COORD97":2546909.8199999998,"ADDRESS":"大同街７７７號十二樓之２","OBJECTID":462935},"geometry":{"x":174414.48999999929,"y":2546909.8200000003}},{"attributes":{"ID":462961,"DIS_CODE":0,"TOWNNAME":"東區","LI":"中西里","LIN":"36鄰","STREET":"林森路","SECT":"二段","MAREA":" ","LANE":" ","ALLEY":" ","HOUSE_NO":"８３號二樓","E_COORD97":170388.94,"N_COORD97":2543282.96,"ADDRESS":"林森路二段８３號二樓","OBJECTID":462936},"geometry":{"x":170388.93999999948,"y":2543282.9600000046}},{"attributes":{"ID":462962,"DIS_CODE":0,"TOWNNAME":"東區","LI":"中西里","LIN":"36鄰","STREET":"林森路","SECT":"二段","MAREA":" ","LANE":" ","ALLEY":" ","HOUSE_NO":"８３號三樓","E_COORD97":170388.94,"N_COORD97":2543282.96,"ADDRESS":"林森路二段８３號三樓","OBJECTID":462937},"geometry":{"x":170388.93999999948,"y":2543282.9600000046}},{"attributes":{"ID":462963,"DIS_CODE":0,"TOWNNAME":"仁德區","LI":"太子里","LIN":"36鄰","STREET":"長興一街","SECT":" ","MAREA":" ","LANE":" ","ALLEY":" ","HOUSE_NO":"７４號","E_COORD97":174476.17000000001,"N_COORD97":2543826.0099999998,"ADDRESS":"長興一街７４號","OBJECTID":462938},"geometry":{"x":174476.17000000086,"y":2543826.0099999998}},{"attributes":{"ID":462964,"DIS_CODE":0,"TOWNNAME":"永康區","LI":"復國里","LIN":"36鄰","STREET":"復國一路","SECT":" ","MAREA":" ","LANE":" ","ALLEY":" ","HOUSE_NO":"４３號","E_COORD97":172692.17999999999,"N_COORD97":2544864.1699999999,"ADDRESS":"復國一路４３號","OBJECTID":462939},"geometry":{"x":172692.18000000156,"y":2544864.1700000018}},{"attributes":{"ID":462965,"DIS_CODE":0,"TOWNNAME":"永康區","LI":"復國里","LIN":"36鄰","STREET":"復國一路","SECT":" ","MAREA":" ","LANE":" ","ALLEY":" ","HOUSE_NO":"５３號","E_COORD97":172691.70000000001,"N_COORD97":2544886.1699999999,"ADDRESS":"復國一路５３號","OBJECTID":462940},"geometry":{"x":172691.70000000019,"y":2544886.1699999999}},{"attributes":{"ID":462966,"DIS_CODE":0,"TOWNNAME":"永康區","LI":"復國里","LIN":"36鄰","STREET":"復國一路","SECT":" ","MAREA":" ","LANE":" ","ALLEY":" ","HOUSE_NO":"４１號","E_COORD97":172692.48000000001,"N_COORD97":2544859.6699999999,"ADDRESS":"復國一路４１號","OBJECTID":462941},"geometry":{"x":172692.47999999952,"y":2544859.6699999999}},{"attributes":{"ID":462967,"DIS_CODE":0,"TOWNNAME":"永康區","LI":"復國里","LIN":"36鄰","STREET":"復國一路","SECT":" ","MAREA":" ","LANE":" ","ALLEY":" ","HOUSE_NO":"５５號","E_COORD97":172691.70000000001,"N_COORD97":2544890.4199999999,"ADDRESS":"復國一路５５號","OBJECTID":462942},"geometry":{"x":172691.70000000019,"y":2544890.4200000018}},{"attributes":{"ID":462968,"DIS_CODE":0,"TOWNNAME":"永康區","LI":"復華里","LIN":"36鄰","STREET":"復華七街","SECT":" ","MAREA":" ","LANE":" ","ALLEY":" ","HOUSE_NO":"１３號","E_COORD97":172583.39999999999,"N_COORD97":2545983.27,"ADDRESS":"復華七街１３號","OBJECTID":462943},"geometry":{"x":172583.4000000013,"y":2545983.2700000014}},{"attributes":{"ID":462969,"DIS_CODE":0,"TOWNNAME":"永康區","LI":"復華里","LIN":"36鄰","STREET":"復華七街","SECT":" ","MAREA":" ","LANE":" ","ALLEY":" ","HOUSE_NO":"２５號","E_COORD97":172611.44,"N_COORD97":2545983.6800000002,"ADDRESS":"復華七街２５號","OBJECTID":462944},"geometry":{"x":172611.44000000227,"y":2545983.6800000016}},{"attributes":{"ID":462970,"DIS_CODE":0,"TOWNNAME":"永康區","LI":"復華里","LIN":"36鄰","STREET":"復華七街","SECT":" ","MAREA":" ","LANE":" ","ALLEY":" ","HOUSE_NO":"２９號","E_COORD97":172619.10999999999,"N_COORD97":2545985.4300000002,"ADDRESS":"復華七街２９號","OBJECTID":462945},"geometry":{"x":172619.11000000127,"y":2545985.4300000016}},{"attributes":{"ID":462971,"DIS_CODE":0,"TOWNNAME":"永康區","LI":"復華里","LIN":"36鄰","STREET":"復華七街","SECT":" ","MAREA":" ","LANE":" ","ALLEY":" ","HOUSE_NO":"１５號","E_COORD97":172587.62,"N_COORD97":2545983.02,"ADDRESS":"復華七街１５號","OBJECTID":462946},"geometry":{"x":172587.62000000011,"y":2545983.0199999977}},{"attributes":{"ID":462972,"DIS_CODE":0,"TOWNNAME":"永康區","LI":"復國里","LIN":"36鄰","STREET":"復國一路","SECT":" ","MAREA":" ","LANE":" ","ALLEY":" ","HOUSE_NO":"３１號","E_COORD97":172692.04000000001,"N_COORD97":2544836.52,"ADDRESS":"復國一路３１號","OBJECTID":462947},"geometry":{"x":172692.04000000097,"y":2544836.5199999996}},{"attributes":{"ID":462973,"DIS_CODE":0,"TOWNNAME":"永康區","LI":"勝利里","LIN":"36鄰","STREET":"勝學路","SECT":" ","MAREA":" ","LANE":" ","ALLEY":" ","HOUSE_NO":"７２號","E_COORD97":171162.76000000001,"N_COORD97":2544769.5099999998,"ADDRESS":"勝學路７２號","OBJECTID":462948},"geometry":{"x":171162.76000000164,"y":2544769.5099999998}},{"attributes":{"ID":462974,"DIS_CODE":0,"TOWNNAME":"永康區","LI":"五王里","LIN":"36鄰","STREET":"中華路","SECT":" ","MAREA":" ","LANE":" ","ALLEY":" ","HOUSE_NO":"５９８號之２","E_COORD97":171218.72,"N_COORD97":2545963.79,"ADDRESS":"中華路５９８號之２","OBJECTID":462949},"geometry":{"x":171218.71999999881,"y":2545963.7899999972}},{"attributes":{"ID":462975,"DIS_CODE":0,"TOWNNAME":"永康區","LI":"五王里","LIN":"36鄰","STREET":"中華路","SECT":" ","MAREA":" ","LANE":" ","ALLEY":" ","HOUSE_NO":"５９８號之１４","E_COORD97":171215.35000000001,"N_COORD97":2545954.29,"ADDRESS":"中華路５９８號之１４","OBJECTID":462950},"geometry":{"x":171215.34999999963,"y":2545954.290000001}},{"attributes":{"ID":462976,"DIS_CODE":0,"TOWNNAME":"永康區","LI":"五王里","LIN":"36鄰","STREET":"中華路","SECT":" ","MAREA":" ","LANE":" ","ALLEY":" ","HOUSE_NO":"５９８號之５","E_COORD97":171221.62,"N_COORD97":2545953.79,"ADDRESS":"中華路５９８號之５","OBJECTID":462951},"geometry":{"x":171221.62000000197,"y":2545953.7900000028}},{"attributes":{"ID":462977,"DIS_CODE":0,"TOWNNAME":"永康區","LI":"五王里","LIN":"36鄰","STREET":"中華路","SECT":" ","MAREA":" ","LANE":" ","ALLEY":" ","HOUSE_NO":"５９８號","E_COORD97":171186.70000000001,"N_COORD97":2545951.4900000002,"ADDRESS":"中華路５９８號","OBJECTID":462952},"geometry":{"x":171186.70000000019,"y":2545951.4900000021}},{"attributes":{"ID":462978,"DIS_CODE":0,"TOWNNAME":"永康區","LI":"崑山里","LIN":"36鄰","STREET":"大仁街","SECT":" ","MAREA":" ","LANE":" ","ALLEY":" ","HOUSE_NO":"１７７號","E_COORD97":173894.79000000001,"N_COORD97":2544985.7000000002,"ADDRESS":"大仁街１７７號","OBJECTID":462953},"geometry":{"x":173894.79000000004,"y":2544985.7000000011}},{"attributes":{"ID":462979,"DIS_CODE":0,"TOWNNAME":"永康區","LI":"勝利里","LIN":"36鄰","STREET":"勝學路","SECT":" ","MAREA":" ","LANE":" ","ALLEY":" ","HOUSE_NO":"６２號","E_COORD97":171161.59,"N_COORD97":2544753.5099999998,"ADDRESS":"勝學路６２號","OBJECTID":462954},"geometry":{"x":171161.58999999985,"y":2544753.5100000016}},{"attributes":{"ID":462980,"DIS_CODE":0,"TOWNNAME":"仁德區","LI":"太子里","LIN":"36鄰","STREET":"長興一街","SECT":" ","MAREA":" ","LANE":" ","ALLEY":" ","HOUSE_NO":"９６號","E_COORD97":174363.70000000001,"N_COORD97":2543871,"ADDRESS":"長興一街９６號","OBJECTID":462955},"geometry":{"x":174363.70000000019,"y":2543871}},{"attributes":{"ID":462981,"DIS_CODE":0,"TOWNNAME":"仁德區","LI":"仁義里","LIN":"36鄰","STREET":"勝利路","SECT":" ","MAREA":" ","LANE":" ","ALLEY":" ","HOUSE_NO":"１０３號","E_COORD97":173774.54000000001,"N_COORD97":2539846.75,"ADDRESS":"勝利路１０３號","OBJECTID":462956},"geometry":{"x":173774.54000000004,"y":2539846.7500000019}},{"attributes":{"ID":462982,"DIS_CODE":0,"TOWNNAME":"仁德區","LI":"仁義里","LIN":"36鄰","STREET":"勝利路","SECT":" ","MAREA":" ","LANE":" ","ALLEY":" ","HOUSE_NO":"５１之８號","E_COORD97":173553.32000000001,"N_COORD97":2540007.2999999998,"ADDRESS":"勝利路５１之８號","OBJECTID":462957},"geometry":{"x":173553.32000000123,"y":2540007.3000000007}},{"attributes":{"ID":462983,"DIS_CODE":0,"TOWNNAME":"仁德區","LI":"仁義里","LIN":"36鄰","STREET":"勝利路","SECT":" ","MAREA":" ","LANE":" ","ALLEY":" ","HOUSE_NO":"５９號","E_COORD97":173548.79999999999,"N_COORD97":2539941.75,"ADDRESS":"勝利路５９號","OBJECTID":462958},"geometry":{"x":173548.79999999981,"y":2539941.7500000019}},{"attributes":{"ID":462984,"DIS_CODE":0,"TOWNNAME":"新市區","LI":"新和里","LIN":"36鄰","STREET":"華興街","SECT":" ","MAREA":" ","LANE":" ","ALLEY":" ","HOUSE_NO":"９８號","E_COORD97":177540.82000000001,"N_COORD97":2552979,"ADDRESS":"華興街９８號","OBJECTID":462959},"geometry":{"x":177540.82000000123,"y":2552979.0000000019}},{"attributes":{"ID":462985,"DIS_CODE":0,"TOWNNAME":"新市區","LI":"新和里","LIN":"36鄰","STREET":"華興街","SECT":" ","MAREA":" ","LANE":" ","ALLEY":" ","HOUSE_NO":"７６號","E_COORD97":177586.64000000001,"N_COORD97":2552984.75,"ADDRESS":"華興街７６號","OBJECTID":462960},"geometry":{"x":177586.6400000006,"y":2552984.7500000019}},{"attributes":{"ID":462986,"DIS_CODE":0,"TOWNNAME":"新市區","LI":"新和里","LIN":"36鄰","STREET":"華興街","SECT":" ","MAREA":" ","LANE":" ","ALLEY":" ","HOUSE_NO":"１１４號","E_COORD97":177508.17999999999,"N_COORD97":2552974.75,"ADDRESS":"華興街１１４號","OBJECTID":462961},"geometry":{"x":177508.18000000156,"y":2552974.7500000019}},{"attributes":{"ID":462987,"DIS_CODE":0,"TOWNNAME":"新市區","LI":"新和里","LIN":"36鄰","STREET":"華興街","SECT":" ","MAREA":" ","LANE":" ","ALLEY":" ","HOUSE_NO":"９２號","E_COORD97":177553.23000000001,"N_COORD97":2552980.75,"ADDRESS":"華興街９２號","OBJECTID":462962},"geometry":{"x":177553.23000000138,"y":2552980.7500000019}},{"attributes":{"ID":462988,"DIS_CODE":0,"TOWNNAME":"永康區","LI":"崑山里","LIN":"36鄰","STREET":"大仁街","SECT":" ","MAREA":" ","LANE":" ","ALLEY":" ","HOUSE_NO":"１７１號","E_COORD97":173890.48999999999,"N_COORD97":2544973.4500000002,"ADDRESS":"大仁街１７１號","OBJECTID":462963},"geometry":{"x":173890.49000000022,"y":2544973.4500000011}},{"attributes":{"ID":462989,"DIS_CODE":0,"TOWNNAME":"永康區","LI":"崑山里","LIN":"36鄰","STREET":"大仁街","SECT":" ","MAREA":" ","LANE":" ","ALLEY":" ","HOUSE_NO":"１８７號","E_COORD97":173904.53,"N_COORD97":2545015.1400000001,"ADDRESS":"大仁街１８７號","OBJECTID":462964},"geometry":{"x":173904.53000000119,"y":2545015.1400000025}},{"attributes":{"ID":462990,"DIS_CODE":0,"TOWNNAME":"永康區","LI":"崑山里","LIN":"36鄰","STREET":"大仁街","SECT":" ","MAREA":" ","LANE":" ","ALLEY":" ","HOUSE_NO":"１９３號","E_COORD97":173907.79000000001,"N_COORD97":2545042.2400000002,"ADDRESS":"大仁街１９３號","OBJECTID":462965},"geometry":{"x":173907.79000000097,"y":2545042.2400000002}},{"attributes":{"ID":462991,"DIS_CODE":0,"TOWNNAME":"仁德區","LI":"成功里","LIN":"36鄰","STREET":"保華路","SECT":" ","MAREA":" ","LANE":" ","ALLEY":" ","HOUSE_NO":"６６號","E_COORD97":170603.76000000001,"N_COORD97":2540008.5,"ADDRESS":"保華路６６號","OBJECTID":462966},"geometry":{"x":170603.76000000071,"y":2540008.5}},{"attributes":{"ID":462992,"DIS_CODE":0,"TOWNNAME":"仁德區","LI":"仁義里","LIN":"36鄰","STREET":"中正路","SECT":"二段","MAREA":" ","LANE":" ","ALLEY":" ","HOUSE_NO":"７２４號","E_COORD97":173438.12,"N_COORD97":2540037.52,"ADDRESS":"中正路二段７２４號","OBJECTID":462967},"geometry":{"x":173438.12000000011,"y":2540037.5200000014}},{"attributes":{"ID":462993,"DIS_CODE":0,"TOWNNAME":"仁德區","LI":"成功里","LIN":"36鄰","STREET":"保華路","SECT":" ","MAREA":" ","LANE":" ","ALLEY":" ","HOUSE_NO":"５６之１號","E_COORD97":170634.70999999999,"N_COORD97":2539992.7999999998,"ADDRESS":"保華路５６之１號","OBJECTID":462968},"geometry":{"x":170634.71000000089,"y":2539992.8000000026}},{"attributes":{"ID":462994,"DIS_CODE":0,"TOWNNAME":"永康區","LI":"五王里","LIN":"36鄰","STREET":"中華路","SECT":" ","MAREA":" ","LANE":" ","ALLEY":" ","HOUSE_NO":"５９８號之１","E_COORD97":171217.17999999999,"N_COORD97":2545968.04,"ADDRESS":"中華路５９８號之１","OBJECTID":462969},"geometry":{"x":171217.1799999997,"y":2545968.0399999991}},{"attributes":{"ID":462995,"DIS_CODE":0,"TOWNNAME":"永康區","LI":"五王里","LIN":"36鄰","STREET":"中華路","SECT":" ","MAREA":" ","LANE":" ","ALLEY":" ","HOUSE_NO":"５９８號之６","E_COORD97":171226.98999999999,"N_COORD97":2545952.79,"ADDRESS":"中華路５９８號之６","OBJECTID":462970},"geometry":{"x":171226.99000000022,"y":2545952.7899999991}},{"attributes":{"ID":462996,"DIS_CODE":0,"TOWNNAME":"永康區","LI":"崑山里","LIN":"36鄰","STREET":"大仁街","SECT":" ","MAREA":" ","LANE":" ","ALLEY":" ","HOUSE_NO":"１７５號","E_COORD97":173893.32999999999,"N_COORD97":2544981.9500000002,"ADDRESS":"大仁街１７５號","OBJECTID":462971},"geometry":{"x":173893.32999999914,"y":2544981.9499999993}},{"attributes":{"ID":462997,"DIS_CODE":0,"TOWNNAME":"永康區","LI":"崑山里","LIN":"36鄰","STREET":"大仁街","SECT":" ","MAREA":" ","LANE":" ","ALLEY":" ","HOUSE_NO":"１９１號","E_COORD97":173907.79000000001,"N_COORD97":2545042.2400000002,"ADDRESS":"大仁街１９１號","OBJECTID":462972},"geometry":{"x":173907.79000000097,"y":2545042.2400000002}},{"attributes":{"ID":462998,"DIS_CODE":0,"TOWNNAME":"永康區","LI":"復國里","LIN":"36鄰","STREET":"復國一路","SECT":" ","MAREA":" ","LANE":" ","ALLEY":" ","HOUSE_NO":"１９號","E_COORD97":172658.14000000001,"N_COORD97":2544762.7799999998,"ADDRESS":"復國一路１９號","OBJECTID":462973},"geometry":{"x":172658.13999999966,"y":2544762.7799999993}},{"attributes":{"ID":462999,"DIS_CODE":0,"TOWNNAME":"永康區","LI":"永康里","LIN":"36鄰","STREET":"永大路","SECT":"二段","MAREA":" ","LANE":" ","ALLEY":" ","HOUSE_NO":"１２３６號","E_COORD97":174359.07999999999,"N_COORD97":2546804.3199999998,"ADDRESS":"永大路二段１２３６號","OBJECTID":462974},"geometry":{"x":174359.08000000007,"y":2546804.3200000003}},{"attributes":{"ID":463000,"DIS_CODE":0,"TOWNNAME":"永康區","LI":"\u25A0行里","LIN":"36鄰","STREET":"三村一街","SECT":" ","MAREA":" ","LANE":" ","ALLEY":" ","HOUSE_NO":"１２８號","E_COORD97":172056.54999999999,"N_COORD97":2549251.9500000002,"ADDRESS":"三村一街１２８號","OBJECTID":462975},"geometry":{"x":172056.55000000075,"y":2549251.950000003}},{"attributes":{"ID":463001,"DIS_CODE":0,"TOWNNAME":"永康區","LI":"\u25A0洲里","LIN":"36鄰","STREET":"\u25A0洲二街","SECT":" ","MAREA":" ","LANE":" ","ALLEY":" ","HOUSE_NO":"１７７號","E_COORD97":171723.82999999999,"N_COORD97":2549413.25,"ADDRESS":"\u25A0洲二街１７７號","OBJECTID":462976},"geometry":{"x":171723.83000000101,"y":2549413.2500000037}},{"attributes":{"ID":463002,"DIS_CODE":0,"TOWNNAME":"永康區","LI":"埔園里","LIN":"36鄰","STREET":"龍埔街","SECT":" ","MAREA":" ","LANE":" ","ALLEY":" ","HOUSE_NO":"２５９號","E_COORD97":174193.48000000001,"N_COORD97":2548286.2400000002,"ADDRESS":"龍埔街２５９號","OBJECTID":462977},"geometry":{"x":174193.48000000138,"y":2548286.2400000021}},{"attributes":{"ID":463003,"DIS_CODE":0,"TOWNNAME":"永康區","LI":"崑山里","LIN":"36鄰","STREET":"大仁街","SECT":" ","MAREA":" ","LANE":" ","ALLEY":" ","HOUSE_NO":"１９７之１號","E_COORD97":173910.29000000001,"N_COORD97":2545042.29,"ADDRESS":"大仁街１９７之１號","OBJECTID":462978},"geometry":{"x":173910.29000000004,"y":2545042.290000001}},{"attributes":{"ID":463004,"DIS_CODE":0,"TOWNNAME":"仁德區","LI":"太子里","LIN":"36鄰","STREET":"長興一街","SECT":" ","MAREA":" ","LANE":" ","ALLEY":" ","HOUSE_NO":"６９號","E_COORD97":174442.67999999999,"N_COORD97":2543830.7599999998,"ADDRESS":"長興一街６９號","OBJECTID":462979},"geometry":{"x":174442.6799999997,"y":2543830.7599999998}},{"attributes":{"ID":463005,"DIS_CODE":0,"TOWNNAME":"永康區","LI":"復國里","LIN":"36鄰","STREET":"復國一路","SECT":" ","MAREA":" ","LANE":" ","ALLEY":" ","HOUSE_NO":"９號","E_COORD97":172690.01000000001,"N_COORD97":2544742.52,"ADDRESS":"復國一路９號","OBJECTID":462980},"geometry":{"x":172690.01000000164,"y":2544742.5200000033}},{"attributes":{"ID":463006,"DIS_CODE":0,"TOWNNAME":"永康區","LI":"復國里","LIN":"36鄰","STREET":"復國一路","SECT":" ","MAREA":" ","LANE":" ","ALLEY":" ","HOUSE_NO":"１１號","E_COORD97":172688.06,"N_COORD97":2544747.7799999998,"ADDRESS":"復國一路１１號","OBJECTID":462981},"geometry":{"x":172688.06000000052,"y":2544747.7800000012}},{"attributes":{"ID":463007,"DIS_CODE":0,"TOWNNAME":"永康區","LI":"復國里","LIN":"36鄰","STREET":"復國一路","SECT":" ","MAREA":" ","LANE":" ","ALLEY":" ","HOUSE_NO":"１３號","E_COORD97":172683.76000000001,"N_COORD97":2544752.2799999998,"ADDRESS":"復國一路１３號","OBJECTID":462982},"geometry":{"x":172683.76000000071,"y":2544752.2799999993}},{"attributes":{"ID":463008,"DIS_CODE":0,"TOWNNAME":"永康區","LI":"復國里","LIN":"36鄰","STREET":"復國一路","SECT":" ","MAREA":" ","LANE":" ","ALLEY":" ","HOUSE_NO":"１５號","E_COORD97":172698.20999999999,"N_COORD97":2544793.7799999998,"ADDRESS":"復國一路１５號","OBJECTID":462983},"geometry":{"x":172698.20999999996,"y":2544793.7799999993}},{"attributes":{"ID":463009,"DIS_CODE":0,"TOWNNAME":"永康區","LI":"復國里","LIN":"36鄰","STREET":"復國一路","SECT":" ","MAREA":" ","LANE":" ","ALLEY":" ","HOUSE_NO":"１７號","E_COORD97":172697.62,"N_COORD97":2544804.27,"ADDRESS":"復國一路１７號","OBJECTID":462984},"geometry":{"x":172697.62000000011,"y":2544804.2699999996}},{"attributes":{"ID":463010,"DIS_CODE":0,"TOWNNAME":"永康區","LI":"復國里","LIN":"36鄰","STREET":"復國一路","SECT":" ","MAREA":" ","LANE":" ","ALLEY":" ","HOUSE_NO":"１號","E_COORD97":172697.45999999999,"N_COORD97":2544719.27,"ADDRESS":"復國一路１號","OBJECTID":462985},"geometry":{"x":172697.46000000089,"y":2544719.2699999996}},{"attributes":{"ID":463011,"DIS_CODE":0,"TOWNNAME":"歸仁區","LI":"南興里","LIN":"36鄰","STREET":"中山路","SECT":"三段","MAREA":" ","LANE":" ","ALLEY":" ","HOUSE_NO":"４０８號","E_COORD97":175992.70999999999,"N_COORD97":2541000.25,"ADDRESS":"中山路三段４０８號","OBJECTID":462986},"geometry":{"x":175992.71000000183,"y":2541000.25}},{"attributes":{"ID":463012,"DIS_CODE":0,"TOWNNAME":"歸仁區","LI":"南興里","LIN":"36鄰","STREET":"中山路","SECT":"三段","MAREA":" ","LANE":" ","ALLEY":" ","HOUSE_NO":"４１０號","E_COORD97":175987.60999999999,"N_COORD97":2541000.25,"ADDRESS":"中山路三段４１０號","OBJECTID":462987},"geometry":{"x":175987.61000000127,"y":2541000.25}},{"attributes":{"ID":463013,"DIS_CODE":0,"TOWNNAME":"歸仁區","LI":"後市里","LIN":"36鄰","STREET":"民族一街","SECT":" ","MAREA":" ","LANE":" ","ALLEY":" ","HOUSE_NO":"２７號","E_COORD97":177299.23000000001,"N_COORD97":2541005.75,"ADDRESS":"民族一街２７號","OBJECTID":462988},"geometry":{"x":177299.23000000138,"y":2541005.7500000019}},{"attributes":{"ID":463014,"DIS_CODE":0,"TOWNNAME":"歸仁區","LI":"後市里","LIN":"36鄰","STREET":"國光街","SECT":" ","MAREA":" ","LANE":" ","ALLEY":" ","HOUSE_NO":"１０９號","E_COORD97":177314.64000000001,"N_COORD97":2541006.7400000002,"ADDRESS":"國光街１０９號","OBJECTID":462989},"geometry":{"x":177314.63999999966,"y":2541006.7400000021}},{"attributes":{"ID":463015,"DIS_CODE":0,"TOWNNAME":"安平區","LI":"育平里","LIN":"36鄰","STREET":"平豐路","SECT":" ","MAREA":" ","LANE":" ","ALLEY":" ","HOUSE_NO":"１９２號","E_COORD97":164334.35000000001,"N_COORD97":2543295.0899999999,"ADDRESS":"平豐路１９２號","OBJECTID":462990},"geometry":{"x":164334.35000000056,"y":2543295.0900000017}},{"attributes":{"ID":463016,"DIS_CODE":0,"TOWNNAME":"安平區","LI":"育平里","LIN":"36鄰","STREET":"平豐路","SECT":" ","MAREA":" ","LANE":" ","ALLEY":" ","HOUSE_NO":"１９６號","E_COORD97":164335.31,"N_COORD97":2543300.3300000001,"ADDRESS":"平豐路１９６號","OBJECTID":462991},"geometry":{"x":164335.30999999959,"y":2543300.3300000019}},{"attributes":{"ID":463017,"DIS_CODE":0,"TOWNNAME":"歸仁區","LI":"南興里","LIN":"36鄰","STREET":"中山路","SECT":"三段","MAREA":" ","LANE":" ","ALLEY":" ","HOUSE_NO":"３６２號","E_COORD97":176123.56,"N_COORD97":2540997.2799999998,"ADDRESS":"中山路三段３６２號","OBJECTID":462992},"geometry":{"x":176123.55999999959,"y":2540997.2799999975}},{"attributes":{"ID":463018,"DIS_CODE":0,"TOWNNAME":"歸仁區","LI":"南興里","LIN":"36鄰","STREET":"中山路","SECT":"三段","MAREA":" ","LANE":" ","ALLEY":" ","HOUSE_NO":"３９０號","E_COORD97":176041.56,"N_COORD97":2540993.2799999998,"ADDRESS":"中山路三段３９０號","OBJECTID":462993},"geometry":{"x":176041.56000000052,"y":2540993.2799999993}},{"attributes":{"ID":463019,"DIS_CODE":0,"TOWNNAME":"歸仁區","LI":"南興里","LIN":"36鄰","STREET":"中山路","SECT":"三段","MAREA":" ","LANE":" ","ALLEY":" ","HOUSE_NO":"３７０號","E_COORD97":176093.76000000001,"N_COORD97":2540990.2799999998,"ADDRESS":"中山路三段３７０號","OBJECTID":462994},"geometry":{"x":176093.75999999978,"y":2540990.2799999993}},{"attributes":{"ID":463020,"DIS_CODE":0,"TOWNNAME":"北區","LI":"成德里","LIN":"36鄰","STREET":"育德路","SECT":" ","MAREA":" ","LANE":" ","ALLEY":" ","HOUSE_NO":"６１３號","E_COORD97":168724.60999999999,"N_COORD97":2546366.2599999998,"ADDRESS":"育德路６１３號","OBJECTID":462995},"geometry":{"x":168724.61000000034,"y":2546366.2600000016}},{"attributes":{"ID":463021,"DIS_CODE":0,"TOWNNAME":"歸仁區","LI":"南保里","LIN":"36鄰","STREET":"民權六街","SECT":" ","MAREA":" ","LANE":" ","ALLEY":" ","HOUSE_NO":"１０７號","E_COORD97":176707.23999999999,"N_COORD97":2541080.29,"ADDRESS":"民權六街１０７號","OBJECTID":462996},"geometry":{"x":176707.24000000115,"y":2541080.2899999991}},{"attributes":{"ID":463022,"DIS_CODE":0,"TOWNNAME":"歸仁區","LI":"南興里","LIN":"36鄰","STREET":"中山路","SECT":"三段","MAREA":" ","LANE":" ","ALLEY":" ","HOUSE_NO":"３００號","E_COORD97":176258.76000000001,"N_COORD97":2540966.27,"ADDRESS":"中山路三段３００號","OBJECTID":462997},"geometry":{"x":176258.76000000071,"y":2540966.2699999996}},{"attributes":{"ID":463023,"DIS_CODE":0,"TOWNNAME":"歸仁區","LI":"南保里","LIN":"36鄰","STREET":"民權六街","SECT":" ","MAREA":" ","LANE":" ","ALLEY":" ","HOUSE_NO":"１３３號","E_COORD97":176696.94,"N_COORD97":2541071.29,"ADDRESS":"民權六街１３３號","OBJECTID":462998},"geometry":{"x":176696.94000000227,"y":2541071.2899999991}},{"attributes":{"ID":463024,"DIS_CODE":0,"TOWNNAME":"歸仁區","LI":"許厝里","LIN":"36鄰","STREET":"和平南街","SECT":" ","MAREA":" ","LANE":" ","ALLEY":" ","HOUSE_NO":"７９號","E_COORD97":177819.53,"N_COORD97":2540518.8199999998,"ADDRESS":"和平南街７９號","OBJECTID":462999},"geometry":{"x":177819.53000000026,"y":2540518.8200000003}},{"attributes":{"ID":463025,"DIS_CODE":0,"TOWNNAME":"玉井區","LI":"玉田里","LIN":"36鄰","STREET":"中正路","SECT":" ","MAREA":" ","LANE":" ","ALLEY":" ","HOUSE_NO":"２７３號","E_COORD97":195187.54999999999,"N_COORD97":2558340.25,"ADDRESS":"中正路２７３號","OBJECTID":463000},"geometry":{"x":195187.54999999981,"y":2558340.2500000037}}]}