{"displayFieldName":"TOWNNAME","fieldAliases":{"ID":"ID","DIS_CODE":"DIS_CODE","TOWNNAME":"TOWNNAME","LI":"LI","LIN":"LIN","STREET":"STREET","SECT":"SECT","MAREA":"MAREA","LANE":"LANE","ALLEY":"ALLEY","HOUSE_NO":"HOUSE_NO","E_COORD97":"E_COORD97","N_COORD97":"N_COORD97","ADDRESS":"ADDRESS","OBJECTID":"OBJECTID"},"geometryType":"esriGeometryPoint","spatialReference":{"wkid":102443,"latestWkid":3826},"fields":[{"name":"ID","type":"esriFieldTypeDouble","alias":"ID"},{"name":"DIS_CODE","type":"esriFieldTypeInteger","alias":"DIS_CODE"},{"name":"TOWNNAME","type":"esriFieldTypeString","alias":"TOWNNAME","length":8},{"name":"LI","type":"esriFieldTypeString","alias":"LI","length":8},{"name":"LIN","type":"esriFieldTypeString","alias":"LIN","length":12},{"name":"STREET","type":"esriFieldTypeString","alias":"STREET","length":20},{"name":"SECT","type":"esriFieldTypeString","alias":"SECT","length":8},{"name":"MAREA","type":"esriFieldTypeString","alias":"MAREA","length":12},{"name":"LANE","type":"esriFieldTypeString","alias":"LANE","length":10},{"name":"ALLEY","type":"esriFieldTypeString","alias":"ALLEY","length":10},{"name":"HOUSE_NO","type":"esriFieldTypeString","alias":"HOUSE_NO","length":20},{"name":"E_COORD97","type":"esriFieldTypeDouble","alias":"E_COORD97"},{"name":"N_COORD97","type":"esriFieldTypeDouble","alias":"N_COORD97"},{"name":"ADDRESS","type":"esriFieldTypeString","alias":"ADDRESS","length":50},{"name":"OBJECTID","type":"esriFieldTypeOID","alias":"OBJECTID"}],"features":[{"attributes":{"ID":436026,"DIS_CODE":0,"TOWNNAME":"安平區","LI":"平安里","LIN":"9鄰","STREET":"安平路","SECT":" ","MAREA":" ","LANE":"４２６巷","ALLEY":" ","HOUSE_NO":"１２號","E_COORD97":165345.57999999999,"N_COORD97":2544362.6499999999,"ADDRESS":"安平路４２６巷１２號","OBJECTID":436001},"geometry":{"x":165345.58000000007,"y":2544362.6500000041}},{"attributes":{"ID":436027,"DIS_CODE":0,"TOWNNAME":"永康區","LI":"正強里","LIN":"32鄰","STREET":"四維街","SECT":" ","MAREA":" ","LANE":"５１巷","ALLEY":" ","HOUSE_NO":"５號七樓之２","E_COORD97":173382.59,"N_COORD97":2548047.1899999999,"ADDRESS":"四維街５１巷５號七樓之２","OBJECTID":436002},"geometry":{"x":173382.58999999985,"y":2548047.1900000013}},{"attributes":{"ID":436028,"DIS_CODE":0,"TOWNNAME":"關廟區","LI":"布袋里","LIN":"11鄰","STREET":"南雄南路","SECT":" ","MAREA":" ","LANE":"８５２巷","ALLEY":"１３８弄","HOUSE_NO":"３２號","E_COORD97":182348.365968,"N_COORD97":2533745.1190399998,"ADDRESS":"南雄南路８５２巷１３８弄３２號","OBJECTID":436003},"geometry":{"x":182348.36596800108,"y":2533745.1190420017}},{"attributes":{"ID":436029,"DIS_CODE":0,"TOWNNAME":"鹽水區","LI":"橋南里","LIN":"17鄰","STREET":"治水路","SECT":" ","MAREA":" ","LANE":"１０５巷","ALLEY":" ","HOUSE_NO":"３號","E_COORD97":174580.32999999999,"N_COORD97":2579451.6299999999,"ADDRESS":"治水路１０５巷３號","OBJECTID":436004},"geometry":{"x":174580.33000000101,"y":2579451.6300000027}},{"attributes":{"ID":436030,"DIS_CODE":0,"TOWNNAME":"鹽水區","LI":"橋南里","LIN":"17鄰","STREET":"治水路","SECT":" ","MAREA":" ","LANE":"１７１巷","ALLEY":" ","HOUSE_NO":"１２號","E_COORD97":174520.34,"N_COORD97":2579799.2799999998,"ADDRESS":"治水路１７１巷１２號","OBJECTID":436005},"geometry":{"x":174520.34000000171,"y":2579799.2799999993}},{"attributes":{"ID":436031,"DIS_CODE":0,"TOWNNAME":"鹽水區","LI":"橋南里","LIN":"17鄰","STREET":"治水路","SECT":" ","MAREA":" ","LANE":"１７１巷","ALLEY":" ","HOUSE_NO":"２２號","E_COORD97":174460.42000000001,"N_COORD97":2579682.04,"ADDRESS":"治水路１７１巷２２號","OBJECTID":436006},"geometry":{"x":174460.41999999899,"y":2579682.0399999991}},{"attributes":{"ID":436032,"DIS_CODE":0,"TOWNNAME":"鹽水區","LI":"橋南里","LIN":"17鄰","STREET":"治水路","SECT":" ","MAREA":" ","LANE":"１７１巷","ALLEY":" ","HOUSE_NO":"５號","E_COORD97":174557.29000000001,"N_COORD97":2579705.7200000002,"ADDRESS":"治水路１７１巷５號","OBJECTID":436007},"geometry":{"x":174557.29000000097,"y":2579705.7200000007}},{"attributes":{"ID":436033,"DIS_CODE":0,"TOWNNAME":"鹽水區","LI":"橋南里","LIN":"17鄰","STREET":"治水路","SECT":" ","MAREA":" ","LANE":"１７１巷","ALLEY":" ","HOUSE_NO":"９號","E_COORD97":174512.39999999999,"N_COORD97":2579675.4300000002,"ADDRESS":"治水路１７１巷９號","OBJECTID":436008},"geometry":{"x":174512.4000000013,"y":2579675.4300000016}},{"attributes":{"ID":436034,"DIS_CODE":0,"TOWNNAME":"鹽水區","LI":"橋南里","LIN":"17鄰","STREET":"治水路","SECT":" ","MAREA":" ","LANE":"１８７巷","ALLEY":" ","HOUSE_NO":"２號","E_COORD97":174562.89000000001,"N_COORD97":2579793.7799999998,"ADDRESS":"治水路１８７巷２號","OBJECTID":436009},"geometry":{"x":174562.8900000006,"y":2579793.7800000031}},{"attributes":{"ID":436035,"DIS_CODE":0,"TOWNNAME":"鹽水區","LI":"橋南里","LIN":"17鄰","STREET":"治水路","SECT":" ","MAREA":" ","LANE":"１８７巷","ALLEY":" ","HOUSE_NO":"６號","E_COORD97":174556.91,"N_COORD97":2579842.1699999999,"ADDRESS":"治水路１８７巷６號","OBJECTID":436010},"geometry":{"x":174556.91000000015,"y":2579842.1699999981}},{"attributes":{"ID":436036,"DIS_CODE":0,"TOWNNAME":"鹽水區","LI":"橋南里","LIN":"18鄰","STREET":"治水路","SECT":" ","MAREA":" ","LANE":"２６８巷","ALLEY":" ","HOUSE_NO":"３號","E_COORD97":174639.07999999999,"N_COORD97":2579861.5899999999,"ADDRESS":"治水路２６８巷３號","OBJECTID":436011},"geometry":{"x":174639.08000000007,"y":2579861.5899999999}},{"attributes":{"ID":436037,"DIS_CODE":0,"TOWNNAME":"鹽水區","LI":"橋南里","LIN":"18鄰","STREET":"治水路","SECT":" ","MAREA":" ","LANE":"２６８巷","ALLEY":" ","HOUSE_NO":"４０號","E_COORD97":174728.81,"N_COORD97":2579840.96,"ADDRESS":"治水路２６８巷４０號","OBJECTID":436012},"geometry":{"x":174728.81000000145,"y":2579840.9600000009}},{"attributes":{"ID":436038,"DIS_CODE":0,"TOWNNAME":"鹽水區","LI":"橋南里","LIN":"18鄰","STREET":"治水路","SECT":" ","MAREA":" ","LANE":"２６８巷","ALLEY":" ","HOUSE_NO":"４１號","E_COORD97":174698.19,"N_COORD97":2579861.6600000001,"ADDRESS":"治水路２６８巷４１號","OBJECTID":436013},"geometry":{"x":174698.19000000227,"y":2579861.6600000001}},{"attributes":{"ID":436039,"DIS_CODE":0,"TOWNNAME":"鹽水區","LI":"橋南里","LIN":"18鄰","STREET":"治水路","SECT":" ","MAREA":" ","LANE":"２６８巷","ALLEY":" ","HOUSE_NO":"４５號","E_COORD97":174723.23999999999,"N_COORD97":2579861.2200000002,"ADDRESS":"治水路２６８巷４５號","OBJECTID":436014},"geometry":{"x":174723.24000000209,"y":2579861.2200000025}},{"attributes":{"ID":436040,"DIS_CODE":0,"TOWNNAME":"鹽水區","LI":"橋南里","LIN":"18鄰","STREET":"治水路","SECT":" ","MAREA":" ","LANE":"２６８巷","ALLEY":" ","HOUSE_NO":"４６號","E_COORD97":174737.84,"N_COORD97":2579841.0600000001,"ADDRESS":"治水路２６８巷４６號","OBJECTID":436015},"geometry":{"x":174737.84000000078,"y":2579841.0600000024}},{"attributes":{"ID":436041,"DIS_CODE":0,"TOWNNAME":"鹽水區","LI":"橋南里","LIN":"18鄰","STREET":"治水路","SECT":" ","MAREA":" ","LANE":"２６８巷","ALLEY":" ","HOUSE_NO":"４８號","E_COORD97":174742.98999999999,"N_COORD97":2579841.02,"ADDRESS":"治水路２６８巷４８號","OBJECTID":436016},"geometry":{"x":174742.99000000022,"y":2579841.0200000014}},{"attributes":{"ID":436042,"DIS_CODE":0,"TOWNNAME":"鹽水區","LI":"橋南里","LIN":"18鄰","STREET":"治水路","SECT":" ","MAREA":" ","LANE":"２６８巷","ALLEY":" ","HOUSE_NO":"５０號","E_COORD97":174748.64000000001,"N_COORD97":2579841.2999999998,"ADDRESS":"治水路２６８巷５０號","OBJECTID":436017},"geometry":{"x":174748.64000000153,"y":2579841.3000000007}},{"attributes":{"ID":436043,"DIS_CODE":0,"TOWNNAME":"鹽水區","LI":"橋南里","LIN":"18鄰","STREET":"治水路","SECT":" ","MAREA":" ","LANE":"２６８巷","ALLEY":" ","HOUSE_NO":"５９號","E_COORD97":174767.29000000001,"N_COORD97":2579874.1899999999,"ADDRESS":"治水路２６８巷５９號","OBJECTID":436018},"geometry":{"x":174767.29000000097,"y":2579874.1899999995}},{"attributes":{"ID":436044,"DIS_CODE":0,"TOWNNAME":"鹽水區","LI":"義稠里","LIN":"8鄰","STREET":"金和路","SECT":" ","MAREA":" ","LANE":"３１１巷","ALLEY":" ","HOUSE_NO":"２９號","E_COORD97":173921.98999999999,"N_COORD97":2580472.4300000002,"ADDRESS":"金和路３１１巷２９號","OBJECTID":436019},"geometry":{"x":173921.99000000115,"y":2580472.4300000016}},{"attributes":{"ID":436045,"DIS_CODE":0,"TOWNNAME":"鹽水區","LI":"義稠里","LIN":"8鄰","STREET":"金和路","SECT":" ","MAREA":" ","LANE":"３１１巷","ALLEY":" ","HOUSE_NO":"４３之１號","E_COORD97":173858.41,"N_COORD97":2580457.9500000002,"ADDRESS":"金和路３１１巷４３之１號","OBJECTID":436020},"geometry":{"x":173858.41000000015,"y":2580457.9500000011}},{"attributes":{"ID":436046,"DIS_CODE":0,"TOWNNAME":"鹽水區","LI":"義稠里","LIN":"8鄰","STREET":"金和路","SECT":" ","MAREA":" ","LANE":"３１１巷","ALLEY":" ","HOUSE_NO":"４３之２０號","E_COORD97":173885.76999999999,"N_COORD97":2580387.8300000001,"ADDRESS":"金和路３１１巷４３之２０號","OBJECTID":436021},"geometry":{"x":173885.76999999955,"y":2580387.8300000019}},{"attributes":{"ID":436047,"DIS_CODE":0,"TOWNNAME":"鹽水區","LI":"義稠里","LIN":"8鄰","STREET":"金和路","SECT":" ","MAREA":" ","LANE":"３１１巷","ALLEY":" ","HOUSE_NO":"４３之２１號","E_COORD97":173887.32999999999,"N_COORD97":2580383.6600000001,"ADDRESS":"金和路３１１巷４３之２１號","OBJECTID":436022},"geometry":{"x":173887.33000000101,"y":2580383.6600000001}},{"attributes":{"ID":436048,"DIS_CODE":0,"TOWNNAME":"鹽水區","LI":"義稠里","LIN":"8鄰","STREET":"金和路","SECT":" ","MAREA":" ","LANE":"３１１巷","ALLEY":" ","HOUSE_NO":"４３之２２號","E_COORD97":173888.89000000001,"N_COORD97":2580379.5,"ADDRESS":"金和路３１１巷４３之２２號","OBJECTID":436023},"geometry":{"x":173888.88999999966,"y":2580379.5000000037}},{"attributes":{"ID":436049,"DIS_CODE":0,"TOWNNAME":"鹽水區","LI":"義稠里","LIN":"8鄰","STREET":"金和路","SECT":" ","MAREA":" ","LANE":"３１１巷","ALLEY":" ","HOUSE_NO":"４３之２號","E_COORD97":173860.14000000001,"N_COORD97":2580453.7999999998,"ADDRESS":"金和路３１１巷４３之２號","OBJECTID":436024},"geometry":{"x":173860.13999999966,"y":2580453.8000000026}},{"attributes":{"ID":436050,"DIS_CODE":0,"TOWNNAME":"鹽水區","LI":"義稠里","LIN":"8鄰","STREET":"金和路","SECT":" ","MAREA":" ","LANE":"３１１巷","ALLEY":" ","HOUSE_NO":"４３之３號","E_COORD97":173861.85999999999,"N_COORD97":2580449.6600000001,"ADDRESS":"金和路３１１巷４３之３號","OBJECTID":436025},"geometry":{"x":173861.86000000127,"y":2580449.6600000039}},{"attributes":{"ID":436051,"DIS_CODE":0,"TOWNNAME":"鹽水區","LI":"義稠里","LIN":"8鄰","STREET":"金和路","SECT":" ","MAREA":" ","LANE":"３１１巷","ALLEY":" ","HOUSE_NO":"４３之５號","E_COORD97":173863.57999999999,"N_COORD97":2580445.5099999998,"ADDRESS":"金和路３１１巷４３之５號","OBJECTID":436026},"geometry":{"x":173863.58000000101,"y":2580445.5099999998}},{"attributes":{"ID":436052,"DIS_CODE":0,"TOWNNAME":"鹽水區","LI":"橋南里","LIN":"7鄰","STREET":"南太路","SECT":" ","MAREA":" ","LANE":"６９巷","ALLEY":" ","HOUSE_NO":"３１號","E_COORD97":175592.64000000001,"N_COORD97":2578775.71,"ADDRESS":"南太路６９巷３１號","OBJECTID":436027},"geometry":{"x":175592.63999999966,"y":2578775.7100000028}},{"attributes":{"ID":436053,"DIS_CODE":0,"TOWNNAME":"鹽水區","LI":"橋南里","LIN":"15鄰","STREET":"南門路","SECT":" ","MAREA":" ","LANE":"１２巷","ALLEY":" ","HOUSE_NO":"１號","E_COORD97":175020.01000000001,"N_COORD97":2579433.1499999999,"ADDRESS":"南門路１２巷１號","OBJECTID":436028},"geometry":{"x":175020.01000000071,"y":2579433.1500000022}},{"attributes":{"ID":436054,"DIS_CODE":0,"TOWNNAME":"鹽水區","LI":"橋南里","LIN":"15鄰","STREET":"南門路","SECT":" ","MAREA":" ","LANE":"１２巷","ALLEY":" ","HOUSE_NO":"２號","E_COORD97":175019.60000000001,"N_COORD97":2579426.0899999999,"ADDRESS":"南門路１２巷２號","OBJECTID":436029},"geometry":{"x":175019.59999999963,"y":2579426.0900000017}},{"attributes":{"ID":436055,"DIS_CODE":0,"TOWNNAME":"鹽水區","LI":"橋南里","LIN":"7鄰","STREET":"南門路","SECT":" ","MAREA":" ","LANE":"２０１巷","ALLEY":" ","HOUSE_NO":"３號","E_COORD97":175423.17999999999,"N_COORD97":2579004.1499999999,"ADDRESS":"南門路２０１巷３號","OBJECTID":436030},"geometry":{"x":175423.18000000156,"y":2579004.1500000004}},{"attributes":{"ID":436056,"DIS_CODE":0,"TOWNNAME":"永康區","LI":"永康里","LIN":"40鄰","STREET":"永大二路","SECT":" ","MAREA":" ","LANE":" ","ALLEY":" ","HOUSE_NO":"４６號二樓之１","E_COORD97":174255.44,"N_COORD97":2546582.0899999999,"ADDRESS":"永大二路４６號二樓之１","OBJECTID":436031},"geometry":{"x":174255.44000000041,"y":2546582.0899999999}},{"attributes":{"ID":436057,"DIS_CODE":0,"TOWNNAME":"北區","LI":"成德里","LIN":"28鄰","STREET":"育德路","SECT":" ","MAREA":" ","LANE":"２２１巷","ALLEY":" ","HOUSE_NO":"７１號","E_COORD97":168429.10000000001,"N_COORD97":2545750.6499999999,"ADDRESS":"育德路２２１巷７１號","OBJECTID":436032},"geometry":{"x":168429.0999999987,"y":2545750.6500000022}},{"attributes":{"ID":436058,"DIS_CODE":0,"TOWNNAME":"北區","LI":"成德里","LIN":"34鄰","STREET":"育德路","SECT":" ","MAREA":" ","LANE":"４２３巷","ALLEY":" ","HOUSE_NO":"１號","E_COORD97":168648.22,"N_COORD97":2545998.7999999998,"ADDRESS":"育德路４２３巷１號","OBJECTID":436033},"geometry":{"x":168648.21999999974,"y":2545998.8000000007}},{"attributes":{"ID":436059,"DIS_CODE":0,"TOWNNAME":"北區","LI":"成德里","LIN":"34鄰","STREET":"育德路","SECT":" ","MAREA":" ","LANE":"４２３巷","ALLEY":" ","HOUSE_NO":"２號","E_COORD97":168649.17000000001,"N_COORD97":2546011.1800000002,"ADDRESS":"育德路４２３巷２號","OBJECTID":436034},"geometry":{"x":168649.16999999993,"y":2546011.1799999997}},{"attributes":{"ID":436060,"DIS_CODE":0,"TOWNNAME":"北區","LI":"成德里","LIN":"25鄰","STREET":"育德路","SECT":" ","MAREA":" ","LANE":"２２１巷","ALLEY":" ","HOUSE_NO":"４０號","E_COORD97":168530.54000000001,"N_COORD97":2545767.6400000001,"ADDRESS":"育德路２２１巷４０號","OBJECTID":436035},"geometry":{"x":168530.54000000097,"y":2545767.6400000025}},{"attributes":{"ID":436061,"DIS_CODE":0,"TOWNNAME":"六甲區","LI":"甲南里","LIN":"14鄰","STREET":"永安街","SECT":" ","MAREA":" ","LANE":"３巷","ALLEY":" ","HOUSE_NO":"２９號","E_COORD97":183933.32000000001,"N_COORD97":2569752.1299999999,"ADDRESS":"永安街３巷２９號","OBJECTID":436036},"geometry":{"x":183933.32000000123,"y":2569752.1300000008}},{"attributes":{"ID":436062,"DIS_CODE":0,"TOWNNAME":"北區","LI":"成德里","LIN":"25鄰","STREET":"育德路","SECT":" ","MAREA":" ","LANE":"２２１巷","ALLEY":" ","HOUSE_NO":"３８號","E_COORD97":168540.38,"N_COORD97":2545767.1600000001,"ADDRESS":"育德路２２１巷３８號","OBJECTID":436037},"geometry":{"x":168540.37999999989,"y":2545767.160000002}},{"attributes":{"ID":436063,"DIS_CODE":0,"TOWNNAME":"北區","LI":"成德里","LIN":"12鄰","STREET":"海安路","SECT":"三段","MAREA":" ","LANE":"３３８巷","ALLEY":" ","HOUSE_NO":"１１３號","E_COORD97":168276.20000000001,"N_COORD97":2545515.1600000001,"ADDRESS":"海安路三段３３８巷１１３號","OBJECTID":436038},"geometry":{"x":168276.20000000019,"y":2545515.1600000039}},{"attributes":{"ID":436064,"DIS_CODE":0,"TOWNNAME":"北區","LI":"成德里","LIN":"12鄰","STREET":"海安路","SECT":"三段","MAREA":" ","LANE":"３３８巷","ALLEY":" ","HOUSE_NO":"１１１號","E_COORD97":168266.04000000001,"N_COORD97":2545514.6000000001,"ADDRESS":"海安路三段３３８巷１１１號","OBJECTID":436039},"geometry":{"x":168266.04000000097,"y":2545514.5999999996}},{"attributes":{"ID":436065,"DIS_CODE":0,"TOWNNAME":"北區","LI":"成功里","LIN":"25鄰","STREET":"西門路","SECT":"四段","MAREA":" ","LANE":"５３３巷","ALLEY":" ","HOUSE_NO":"１２號","E_COORD97":168974.20000000001,"N_COORD97":2546927.1299999999,"ADDRESS":"西門路四段５３３巷１２號","OBJECTID":436040},"geometry":{"x":168974.20000000019,"y":2546927.129999999}},{"attributes":{"ID":436066,"DIS_CODE":0,"TOWNNAME":"將軍區","LI":"廣山里","LIN":"4鄰","STREET":" ","SECT":" ","MAREA":"廣山","LANE":" ","ALLEY":" ","HOUSE_NO":"４之１號","E_COORD97":159780.47922099999,"N_COORD97":2568592.2998600001,"ADDRESS":"廣山４之１號","OBJECTID":436041},"geometry":{"x":159780.47922100127,"y":2568592.2998590004}},{"attributes":{"ID":436067,"DIS_CODE":0,"TOWNNAME":"北區","LI":"成功里","LIN":"25鄰","STREET":"西門路","SECT":"四段","MAREA":" ","LANE":"５３３巷","ALLEY":" ","HOUSE_NO":"１３號","E_COORD97":168962.45000000001,"N_COORD97":2546933.79,"ADDRESS":"西門路四段５３３巷１３號","OBJECTID":436042},"geometry":{"x":168962.45000000019,"y":2546933.7900000028}},{"attributes":{"ID":436068,"DIS_CODE":0,"TOWNNAME":"北區","LI":"成功里","LIN":"25鄰","STREET":"西門路","SECT":"四段","MAREA":" ","LANE":"５３３巷","ALLEY":" ","HOUSE_NO":"１６號","E_COORD97":168953.39999999999,"N_COORD97":2546939.0299999998,"ADDRESS":"西門路四段５３３巷１６號","OBJECTID":436043},"geometry":{"x":168953.39999999944,"y":2546939.0300000031}},{"attributes":{"ID":436069,"DIS_CODE":0,"TOWNNAME":"北區","LI":"成功里","LIN":"25鄰","STREET":"西門路","SECT":"四段","MAREA":" ","LANE":"５３３巷","ALLEY":" ","HOUSE_NO":"１７號","E_COORD97":168944.35000000001,"N_COORD97":2546944.5899999999,"ADDRESS":"西門路四段５３３巷１７號","OBJECTID":436044},"geometry":{"x":168944.34999999963,"y":2546944.5899999999}},{"attributes":{"ID":436070,"DIS_CODE":0,"TOWNNAME":"北區","LI":"成功里","LIN":"25鄰","STREET":"西門路","SECT":"四段","MAREA":" ","LANE":"５３３巷","ALLEY":" ","HOUSE_NO":"１８號","E_COORD97":168934.67000000001,"N_COORD97":2546949.9900000002,"ADDRESS":"西門路四段５３３巷１８號","OBJECTID":436045},"geometry":{"x":168934.67000000086,"y":2546949.9900000002}},{"attributes":{"ID":436071,"DIS_CODE":0,"TOWNNAME":"北區","LI":"成功里","LIN":"23鄰","STREET":"北安路","SECT":"一段","MAREA":" ","LANE":"１７６巷","ALLEY":" ","HOUSE_NO":"５９號","E_COORD97":168962.73000000001,"N_COORD97":2546601.8599999999,"ADDRESS":"北安路一段１７６巷５９號","OBJECTID":436046},"geometry":{"x":168962.73000000045,"y":2546601.8600000013}},{"attributes":{"ID":436072,"DIS_CODE":0,"TOWNNAME":"北區","LI":"成功里","LIN":"23鄰","STREET":"北安路","SECT":"一段","MAREA":" ","LANE":"１７６巷","ALLEY":" ","HOUSE_NO":"６１號","E_COORD97":168964.32000000001,"N_COORD97":2546605.5099999998,"ADDRESS":"北安路一段１７６巷６１號","OBJECTID":436047},"geometry":{"x":168964.32000000123,"y":2546605.5100000016}},{"attributes":{"ID":436073,"DIS_CODE":0,"TOWNNAME":"北區","LI":"成功里","LIN":"23鄰","STREET":"北安路","SECT":"一段","MAREA":" ","LANE":"１７６巷","ALLEY":" ","HOUSE_NO":"６３號","E_COORD97":168965.91,"N_COORD97":2546608.5299999998,"ADDRESS":"北安路一段１７６巷６３號","OBJECTID":436048},"geometry":{"x":168965.91000000015,"y":2546608.5299999993}},{"attributes":{"ID":436074,"DIS_CODE":0,"TOWNNAME":"北區","LI":"成功里","LIN":"23鄰","STREET":"北安路","SECT":"一段","MAREA":" ","LANE":"１７６巷","ALLEY":" ","HOUSE_NO":"６５號","E_COORD97":168968.29000000001,"N_COORD97":2546611.8599999999,"ADDRESS":"北安路一段１７６巷６５號","OBJECTID":436049},"geometry":{"x":168968.29000000004,"y":2546611.8600000013}},{"attributes":{"ID":436075,"DIS_CODE":0,"TOWNNAME":"北區","LI":"成功里","LIN":"23鄰","STREET":"北安路","SECT":"一段","MAREA":" ","LANE":"１７６巷","ALLEY":" ","HOUSE_NO":"６７號","E_COORD97":168969.72,"N_COORD97":2546615.8300000001,"ADDRESS":"北安路一段１７６巷６７號","OBJECTID":436050},"geometry":{"x":168969.72000000067,"y":2546615.8300000038}},{"attributes":{"ID":436076,"DIS_CODE":0,"TOWNNAME":"北區","LI":"成功里","LIN":"23鄰","STREET":"北安路","SECT":"一段","MAREA":" ","LANE":"１７６巷","ALLEY":" ","HOUSE_NO":"６９號","E_COORD97":168970.98999999999,"N_COORD97":2546618.5299999998,"ADDRESS":"北安路一段１７６巷６９號","OBJECTID":436051},"geometry":{"x":168970.99000000022,"y":2546618.5300000012}},{"attributes":{"ID":436077,"DIS_CODE":0,"TOWNNAME":"北區","LI":"成功里","LIN":"23鄰","STREET":"北安路","SECT":"一段","MAREA":" ","LANE":"１７６巷","ALLEY":" ","HOUSE_NO":"７１號","E_COORD97":168972.57999999999,"N_COORD97":2546622.6600000001,"ADDRESS":"北安路一段１７６巷７１號","OBJECTID":436052},"geometry":{"x":168972.58000000101,"y":2546622.6600000001}},{"attributes":{"ID":436078,"DIS_CODE":0,"TOWNNAME":"北區","LI":"成德里","LIN":"20鄰","STREET":"育德一街","SECT":" ","MAREA":" ","LANE":"２２１巷","ALLEY":" ","HOUSE_NO":"１０號","E_COORD97":168519.04000000001,"N_COORD97":2546325.8500000001,"ADDRESS":"育德一街２２１巷１０號","OBJECTID":436053},"geometry":{"x":168519.04000000097,"y":2546325.8499999996}},{"attributes":{"ID":436079,"DIS_CODE":0,"TOWNNAME":"北區","LI":"成德里","LIN":"20鄰","STREET":"文成三路","SECT":" ","MAREA":" ","LANE":"２６７巷","ALLEY":" ","HOUSE_NO":"１５號","E_COORD97":168330.48999999999,"N_COORD97":2546285.48,"ADDRESS":"文成三路２６７巷１５號","OBJECTID":436054},"geometry":{"x":168330.48999999929,"y":2546285.4800000004}},{"attributes":{"ID":436080,"DIS_CODE":0,"TOWNNAME":"北區","LI":"成德里","LIN":"20鄰","STREET":"文成三路","SECT":" ","MAREA":" ","LANE":"２６７巷","ALLEY":" ","HOUSE_NO":"１７號","E_COORD97":168333.03,"N_COORD97":2546279.4500000002,"ADDRESS":"文成三路２６７巷１７號","OBJECTID":436055},"geometry":{"x":168333.03000000026,"y":2546279.4500000011}},{"attributes":{"ID":436081,"DIS_CODE":0,"TOWNNAME":"北區","LI":"成德里","LIN":"32鄰","STREET":"育德路","SECT":" ","MAREA":" ","LANE":"５８０巷","ALLEY":" ","HOUSE_NO":"１號","E_COORD97":168745.53,"N_COORD97":2546307.4700000002,"ADDRESS":"育德路５８０巷１號","OBJECTID":436056},"geometry":{"x":168745.52999999933,"y":2546307.4700000025}},{"attributes":{"ID":436082,"DIS_CODE":0,"TOWNNAME":"北區","LI":"成德里","LIN":"32鄰","STREET":"育德路","SECT":" ","MAREA":" ","LANE":"５８０巷","ALLEY":" ","HOUSE_NO":"２號","E_COORD97":168743.47,"N_COORD97":2546300.3300000001,"ADDRESS":"育德路５８０巷２號","OBJECTID":436057},"geometry":{"x":168743.46999999974,"y":2546300.3300000038}},{"attributes":{"ID":436083,"DIS_CODE":0,"TOWNNAME":"北區","LI":"成德里","LIN":"32鄰","STREET":"育德路","SECT":" ","MAREA":" ","LANE":"５８０巷","ALLEY":" ","HOUSE_NO":"１６號","E_COORD97":168778.07000000001,"N_COORD97":2546292.8700000001,"ADDRESS":"育德路５８０巷１６號","OBJECTID":436058},"geometry":{"x":168778.07000000123,"y":2546292.870000001}},{"attributes":{"ID":436084,"DIS_CODE":0,"TOWNNAME":"北區","LI":"成德里","LIN":"32鄰","STREET":"育德路","SECT":" ","MAREA":" ","LANE":"５８０巷","ALLEY":" ","HOUSE_NO":"１２號","E_COORD97":168771.25,"N_COORD97":2546294.77,"ADDRESS":"育德路５８０巷１２號","OBJECTID":436059},"geometry":{"x":168771.25000000093,"y":2546294.7700000014}},{"attributes":{"ID":436085,"DIS_CODE":0,"TOWNNAME":"北區","LI":"成德里","LIN":"32鄰","STREET":"育德路","SECT":" ","MAREA":" ","LANE":"５８０巷","ALLEY":" ","HOUSE_NO":"６號","E_COORD97":168751.09,"N_COORD97":2546298.8999999999,"ADDRESS":"育德路５８０巷６號","OBJECTID":436060},"geometry":{"x":168751.08999999985,"y":2546298.9000000004}},{"attributes":{"ID":436086,"DIS_CODE":0,"TOWNNAME":"北區","LI":"成德里","LIN":"1鄰","STREET":"西門路","SECT":"四段","MAREA":" ","LANE":"１巷","ALLEY":" ","HOUSE_NO":"８號","E_COORD97":168557.22,"N_COORD97":2545196.2799999998,"ADDRESS":"西門路四段１巷８號","OBJECTID":436061},"geometry":{"x":168557.21999999881,"y":2545196.2800000012}},{"attributes":{"ID":436087,"DIS_CODE":0,"TOWNNAME":"北區","LI":"成德里","LIN":"32鄰","STREET":"育德路","SECT":" ","MAREA":" ","LANE":"５８０巷","ALLEY":" ","HOUSE_NO":"８號","E_COORD97":168756.95999999999,"N_COORD97":2546297.6299999999,"ADDRESS":"育德路５８０巷８號","OBJECTID":436062},"geometry":{"x":168756.95999999996,"y":2546297.6300000008}},{"attributes":{"ID":436088,"DIS_CODE":0,"TOWNNAME":"北區","LI":"成德里","LIN":"32鄰","STREET":"育德路","SECT":" ","MAREA":" ","LANE":"５９２巷","ALLEY":" ","HOUSE_NO":"３號","E_COORD97":168759.34,"N_COORD97":2546334.46,"ADDRESS":"育德路５９２巷３號","OBJECTID":436063},"geometry":{"x":168759.33999999985,"y":2546334.4600000046}},{"attributes":{"ID":436089,"DIS_CODE":0,"TOWNNAME":"北區","LI":"成德里","LIN":"41鄰","STREET":"育德三街","SECT":" ","MAREA":" ","LANE":"１３２巷","ALLEY":" ","HOUSE_NO":"１號","E_COORD97":168171.04999999999,"N_COORD97":2546205.8100000001,"ADDRESS":"育德三街１３２巷１號","OBJECTID":436064},"geometry":{"x":168171.05000000075,"y":2546205.8100000005}},{"attributes":{"ID":436090,"DIS_CODE":0,"TOWNNAME":"北區","LI":"成德里","LIN":"41鄰","STREET":"育德三街","SECT":" ","MAREA":" ","LANE":"１３２巷","ALLEY":" ","HOUSE_NO":"１６號","E_COORD97":168221.06,"N_COORD97":2546199.9300000002,"ADDRESS":"育德三街１３２巷１６號","OBJECTID":436065},"geometry":{"x":168221.06000000145,"y":2546199.9299999997}},{"attributes":{"ID":436091,"DIS_CODE":0,"TOWNNAME":"北區","LI":"成德里","LIN":"41鄰","STREET":"育德三街","SECT":" ","MAREA":" ","LANE":"１３２巷","ALLEY":" ","HOUSE_NO":"１２號","E_COORD97":168212.64000000001,"N_COORD97":2546198.8199999998,"ADDRESS":"育德三街１３２巷１２號","OBJECTID":436066},"geometry":{"x":168212.6400000006,"y":2546198.8199999984}},{"attributes":{"ID":436092,"DIS_CODE":0,"TOWNNAME":"北區","LI":"成德里","LIN":"41鄰","STREET":"育德三街","SECT":" ","MAREA":" ","LANE":"１３２巷","ALLEY":" ","HOUSE_NO":"１０號","E_COORD97":168204.07000000001,"N_COORD97":2546198.3399999999,"ADDRESS":"育德三街１３２巷１０號","OBJECTID":436067},"geometry":{"x":168204.0700000003,"y":2546198.3400000036}},{"attributes":{"ID":436093,"DIS_CODE":0,"TOWNNAME":"永康區","LI":"永康里","LIN":"40鄰","STREET":"永大二路","SECT":" ","MAREA":" ","LANE":" ","ALLEY":" ","HOUSE_NO":"５０號三樓","E_COORD97":174241.22,"N_COORD97":2546574.2999999998,"ADDRESS":"永大二路５０號三樓","OBJECTID":436068},"geometry":{"x":174241.21999999881,"y":2546574.3000000007}},{"attributes":{"ID":436094,"DIS_CODE":0,"TOWNNAME":"北區","LI":"成德里","LIN":"11鄰","STREET":"育德路","SECT":" ","MAREA":" ","LANE":"２２５巷","ALLEY":" ","HOUSE_NO":"２號","E_COORD97":168631.35000000001,"N_COORD97":2545785.3399999999,"ADDRESS":"育德路２２５巷２號","OBJECTID":436069},"geometry":{"x":168631.35000000056,"y":2545785.3400000017}},{"attributes":{"ID":436095,"DIS_CODE":0,"TOWNNAME":"北區","LI":"三德里","LIN":"13鄰","STREET":"成功路","SECT":" ","MAREA":" ","LANE":"２２０巷","ALLEY":" ","HOUSE_NO":"３９號","E_COORD97":168396.04000000001,"N_COORD97":2544457.46,"ADDRESS":"成功路２２０巷３９號","OBJECTID":436070},"geometry":{"x":168396.03999999911,"y":2544457.4600000028}},{"attributes":{"ID":436096,"DIS_CODE":0,"TOWNNAME":"北區","LI":"大和里","LIN":"25鄰","STREET":"大和路","SECT":" ","MAREA":" ","LANE":"３６０巷","ALLEY":" ","HOUSE_NO":"２號","E_COORD97":166908.17999999999,"N_COORD97":2546170,"ADDRESS":"大和路３６０巷２號","OBJECTID":436071},"geometry":{"x":166908.18000000156,"y":2546170}},{"attributes":{"ID":436097,"DIS_CODE":0,"TOWNNAME":"北區","LI":"成德里","LIN":"34鄰","STREET":"文成一路","SECT":" ","MAREA":" ","LANE":"２０７巷","ALLEY":" ","HOUSE_NO":"１１號","E_COORD97":168310.04000000001,"N_COORD97":2546004.3500000001,"ADDRESS":"文成一路２０７巷１１號","OBJECTID":436072},"geometry":{"x":168310.04000000097,"y":2546004.3499999996}},{"attributes":{"ID":436098,"DIS_CODE":0,"TOWNNAME":"北區","LI":"成德里","LIN":"34鄰","STREET":"文成一路","SECT":" ","MAREA":" ","LANE":"２０７巷","ALLEY":" ","HOUSE_NO":"９號","E_COORD97":168309.88,"N_COORD97":2546010.0699999998,"ADDRESS":"文成一路２０７巷９號","OBJECTID":436073},"geometry":{"x":168309.87999999989,"y":2546010.0700000003}},{"attributes":{"ID":436099,"DIS_CODE":0,"TOWNNAME":"北區","LI":"賢北里","LIN":"3鄰","STREET":"中華北路","SECT":"一段","MAREA":" ","LANE":"１０５巷","ALLEY":" ","HOUSE_NO":"１６號","E_COORD97":166420.48999999999,"N_COORD97":2545486.3399999999,"ADDRESS":"中華北路一段１０５巷１６號","OBJECTID":436074},"geometry":{"x":166420.49000000115,"y":2545486.3400000036}},{"attributes":{"ID":436100,"DIS_CODE":0,"TOWNNAME":"北區","LI":"賢北里","LIN":"15鄰","STREET":"大興街","SECT":" ","MAREA":" ","LANE":"５８５巷","ALLEY":" ","HOUSE_NO":"１９號","E_COORD97":166016.17999999999,"N_COORD97":2545318.1299999999,"ADDRESS":"大興街５８５巷１９號","OBJECTID":436075},"geometry":{"x":166016.1799999997,"y":2545318.1300000008}},{"attributes":{"ID":436101,"DIS_CODE":0,"TOWNNAME":"北區","LI":"賢北里","LIN":"15鄰","STREET":"大興街","SECT":" ","MAREA":" ","LANE":"５８５巷","ALLEY":" ","HOUSE_NO":"２１號","E_COORD97":166017.95999999999,"N_COORD97":2545314.4399999999,"ADDRESS":"大興街５８５巷２１號","OBJECTID":436076},"geometry":{"x":166017.95999999996,"y":2545314.4399999995}},{"attributes":{"ID":436102,"DIS_CODE":0,"TOWNNAME":"南區","LI":"大忠里","LIN":"18鄰","STREET":"大同路","SECT":"二段","MAREA":" ","LANE":"６４０巷","ALLEY":" ","HOUSE_NO":"６號","E_COORD97":169514.88,"N_COORD97":2541050.1000000001,"ADDRESS":"大同路二段６４０巷６號","OBJECTID":436077},"geometry":{"x":169514.88000000082,"y":2541050.1000000015}},{"attributes":{"ID":436103,"DIS_CODE":0,"TOWNNAME":"新營區","LI":"忠政里","LIN":"4鄰","STREET":"中正路","SECT":" ","MAREA":" ","LANE":"３９巷","ALLEY":" ","HOUSE_NO":"３號","E_COORD97":180054.70999999999,"N_COORD97":2579174.9100000001,"ADDRESS":"中正路３９巷３號","OBJECTID":436078},"geometry":{"x":180054.71000000089,"y":2579174.9100000001}},{"attributes":{"ID":436104,"DIS_CODE":0,"TOWNNAME":"南區","LI":"大忠里","LIN":"18鄰","STREET":"大同路","SECT":"二段","MAREA":" ","LANE":"６４０巷","ALLEY":" ","HOUSE_NO":"６號之１","E_COORD97":169509.38,"N_COORD97":2541049.8599999999,"ADDRESS":"大同路二段６４０巷６號之１","OBJECTID":436079},"geometry":{"x":169509.38000000082,"y":2541049.8599999994}},{"attributes":{"ID":436105,"DIS_CODE":0,"TOWNNAME":"南區","LI":"建南里","LIN":"13鄰","STREET":"中華南路","SECT":"二段","MAREA":" ","LANE":"１８５巷","ALLEY":" ","HOUSE_NO":"６４號","E_COORD97":166989.54000000001,"N_COORD97":2540040.04,"ADDRESS":"中華南路二段１８５巷６４號","OBJECTID":436080},"geometry":{"x":166989.54000000097,"y":2540040.040000001}},{"attributes":{"ID":436106,"DIS_CODE":0,"TOWNNAME":"南區","LI":"建南里","LIN":"13鄰","STREET":"中華南路","SECT":"二段","MAREA":" ","LANE":"１８５巷","ALLEY":" ","HOUSE_NO":"６２號","E_COORD97":166989.41,"N_COORD97":2540044.8399999999,"ADDRESS":"中華南路二段１８５巷６２號","OBJECTID":436081},"geometry":{"x":166989.41000000015,"y":2540044.8400000036}},{"attributes":{"ID":436107,"DIS_CODE":0,"TOWNNAME":"南區","LI":"興農里","LIN":"13鄰","STREET":"明興路","SECT":" ","MAREA":" ","LANE":"１０５５巷","ALLEY":" ","HOUSE_NO":"２６號之１","E_COORD97":166385.85000000001,"N_COORD97":2536850.0600000001,"ADDRESS":"明興路１０５５巷２６號之１","OBJECTID":436082},"geometry":{"x":166385.84999999963,"y":2536850.0600000005}},{"attributes":{"ID":436108,"DIS_CODE":0,"TOWNNAME":"南區","LI":"喜北里","LIN":"14鄰","STREET":"喜樹路","SECT":" ","MAREA":" ","LANE":"２２２巷","ALLEY":" ","HOUSE_NO":"４６號","E_COORD97":165592.67999999999,"N_COORD97":2538067.9500000002,"ADDRESS":"喜樹路２２２巷４６號","OBJECTID":436083},"geometry":{"x":165592.68000000156,"y":2538067.9500000011}},{"attributes":{"ID":436109,"DIS_CODE":0,"TOWNNAME":"新化區","LI":"太平里","LIN":"13鄰","STREET":"太平街","SECT":" ","MAREA":" ","LANE":"４８巷","ALLEY":" ","HOUSE_NO":"８號","E_COORD97":178804.57000000001,"N_COORD97":2548854.25,"ADDRESS":"太平街４８巷８號","OBJECTID":436084},"geometry":{"x":178804.56999999937,"y":2548854.2500000019}},{"attributes":{"ID":436110,"DIS_CODE":0,"TOWNNAME":"新化區","LI":"東榮里","LIN":"13鄰","STREET":"中興路","SECT":" ","MAREA":" ","LANE":"５５４巷","ALLEY":" ","HOUSE_NO":"３５號","E_COORD97":179910.06,"N_COORD97":2548033.25,"ADDRESS":"中興路５５４巷３５號","OBJECTID":436085},"geometry":{"x":179910.06000000052,"y":2548033.2500000037}},{"attributes":{"ID":436111,"DIS_CODE":0,"TOWNNAME":"新化區","LI":"東榮里","LIN":"34鄰","STREET":"中正路","SECT":" ","MAREA":" ","LANE":"３８８巷","ALLEY":" ","HOUSE_NO":"１８號","E_COORD97":179170.56,"N_COORD97":2548409.25,"ADDRESS":"中正路３８８巷１８號","OBJECTID":436086},"geometry":{"x":179170.56000000052,"y":2548409.25}},{"attributes":{"ID":436112,"DIS_CODE":0,"TOWNNAME":"新化區","LI":"東榮里","LIN":"34鄰","STREET":"中正路","SECT":" ","MAREA":" ","LANE":"３８８巷","ALLEY":" ","HOUSE_NO":"８號","E_COORD97":179125.10999999999,"N_COORD97":2548395.25,"ADDRESS":"中正路３８８巷８號","OBJECTID":436087},"geometry":{"x":179125.11000000127,"y":2548395.25}},{"attributes":{"ID":436113,"DIS_CODE":0,"TOWNNAME":"新化區","LI":"東榮里","LIN":"4鄰","STREET":"信義路","SECT":" ","MAREA":" ","LANE":"９３巷","ALLEY":" ","HOUSE_NO":"１號之３","E_COORD97":179813.82999999999,"N_COORD97":2548659.2599999998,"ADDRESS":"信義路９３巷１號之３","OBJECTID":436088},"geometry":{"x":179813.83000000101,"y":2548659.2599999998}},{"attributes":{"ID":436114,"DIS_CODE":0,"TOWNNAME":"新化區","LI":"豐榮里","LIN":"8鄰","STREET":"大智路","SECT":" ","MAREA":" ","LANE":"７７巷","ALLEY":" ","HOUSE_NO":"３０號","E_COORD97":178304.73000000001,"N_COORD97":2548283.25,"ADDRESS":"大智路７７巷３０號","OBJECTID":436089},"geometry":{"x":178304.73000000045,"y":2548283.25}},{"attributes":{"ID":436115,"DIS_CODE":0,"TOWNNAME":"新化區","LI":"協興里","LIN":"13鄰","STREET":"太平街","SECT":" ","MAREA":" ","LANE":"１５０巷","ALLEY":" ","HOUSE_NO":"８３號","E_COORD97":178299.57000000001,"N_COORD97":2548791.25,"ADDRESS":"太平街１５０巷８３號","OBJECTID":436090},"geometry":{"x":178299.57000000216,"y":2548791.25}},{"attributes":{"ID":436116,"DIS_CODE":0,"TOWNNAME":"新化區","LI":"武安里","LIN":"4鄰","STREET":"中正路","SECT":" ","MAREA":" ","LANE":"３４１巷","ALLEY":" ","HOUSE_NO":"１７號之２","E_COORD97":179081.70999999999,"N_COORD97":2548182.2599999998,"ADDRESS":"中正路３４１巷１７號之２","OBJECTID":436091},"geometry":{"x":179081.71000000089,"y":2548182.2600000035}},{"attributes":{"ID":436117,"DIS_CODE":0,"TOWNNAME":"新營區","LI":"忠政里","LIN":"13鄰","STREET":"中正路","SECT":" ","MAREA":" ","LANE":"７７巷","ALLEY":" ","HOUSE_NO":"９號","E_COORD97":180036.29000000001,"N_COORD97":2579632.3700000001,"ADDRESS":"中正路７７巷９號","OBJECTID":436092},"geometry":{"x":180036.29000000004,"y":2579632.3700000029}},{"attributes":{"ID":436118,"DIS_CODE":0,"TOWNNAME":"新化區","LI":"東榮里","LIN":"18鄰","STREET":"中興路","SECT":" ","MAREA":" ","LANE":"６８５巷","ALLEY":" ","HOUSE_NO":"１０號之１","E_COORD97":179555.48999999999,"N_COORD97":2548054.2599999998,"ADDRESS":"中興路６８５巷１０號之１","OBJECTID":436093},"geometry":{"x":179555.49000000022,"y":2548054.2600000016}},{"attributes":{"ID":436119,"DIS_CODE":0,"TOWNNAME":"北區","LI":"成德里","LIN":"32鄰","STREET":"育德路","SECT":" ","MAREA":" ","LANE":"５００巷","ALLEY":" ","HOUSE_NO":"３號","E_COORD97":168713.45999999999,"N_COORD97":2546119.9100000001,"ADDRESS":"育德路５００巷３號","OBJECTID":436094},"geometry":{"x":168713.45999999996,"y":2546119.9100000001}},{"attributes":{"ID":436120,"DIS_CODE":0,"TOWNNAME":"北區","LI":"成德里","LIN":"17鄰","STREET":"西門路","SECT":"四段","MAREA":" ","LANE":"３４１巷","ALLEY":" ","HOUSE_NO":"２６號","E_COORD97":168947.59,"N_COORD97":2546225.7999999998,"ADDRESS":"西門路四段３４１巷２６號","OBJECTID":436095},"geometry":{"x":168947.58999999985,"y":2546225.8000000007}},{"attributes":{"ID":436121,"DIS_CODE":0,"TOWNNAME":"北區","LI":"成德里","LIN":"17鄰","STREET":"西門路","SECT":"四段","MAREA":" ","LANE":"３４１巷","ALLEY":" ","HOUSE_NO":"２８號","E_COORD97":168944.03,"N_COORD97":2546228.1699999999,"ADDRESS":"西門路四段３４１巷２８號","OBJECTID":436096},"geometry":{"x":168944.03000000212,"y":2546228.1700000018}},{"attributes":{"ID":436122,"DIS_CODE":0,"TOWNNAME":"北區","LI":"成德里","LIN":"17鄰","STREET":"西門路","SECT":"四段","MAREA":" ","LANE":"３４１巷","ALLEY":" ","HOUSE_NO":"２號","E_COORD97":168995.51999999999,"N_COORD97":2546197.8399999999,"ADDRESS":"西門路四段３４１巷２號","OBJECTID":436097},"geometry":{"x":168995.51999999955,"y":2546197.8399999999}},{"attributes":{"ID":436123,"DIS_CODE":0,"TOWNNAME":"北區","LI":"成德里","LIN":"17鄰","STREET":"西門路","SECT":"四段","MAREA":" ","LANE":"３４１巷","ALLEY":" ","HOUSE_NO":"３０號","E_COORD97":168940.34,"N_COORD97":2546230.54,"ADDRESS":"西門路四段３４１巷３０號","OBJECTID":436098},"geometry":{"x":168940.34000000078,"y":2546230.540000001}},{"attributes":{"ID":436124,"DIS_CODE":0,"TOWNNAME":"北區","LI":"成德里","LIN":"17鄰","STREET":"西門路","SECT":"四段","MAREA":" ","LANE":"３４１巷","ALLEY":" ","HOUSE_NO":"３２號","E_COORD97":168936,"N_COORD97":2546232.3799999999,"ADDRESS":"西門路四段３４１巷３２號","OBJECTID":436099},"geometry":{"x":168936.00000000093,"y":2546232.3800000008}},{"attributes":{"ID":436125,"DIS_CODE":0,"TOWNNAME":"北區","LI":"成德里","LIN":"17鄰","STREET":"西門路","SECT":"四段","MAREA":" ","LANE":"３４１巷","ALLEY":" ","HOUSE_NO":"３４號","E_COORD97":168932.04999999999,"N_COORD97":2546235.0099999998,"ADDRESS":"西門路四段３４１巷３４號","OBJECTID":436100},"geometry":{"x":168932.05000000075,"y":2546235.0100000016}},{"attributes":{"ID":436126,"DIS_CODE":0,"TOWNNAME":"北區","LI":"成德里","LIN":"17鄰","STREET":"西門路","SECT":"四段","MAREA":" ","LANE":"３４１巷","ALLEY":" ","HOUSE_NO":"３６號","E_COORD97":168928.35999999999,"N_COORD97":2546237.5099999998,"ADDRESS":"西門路四段３４１巷３６號","OBJECTID":436101},"geometry":{"x":168928.3600000022,"y":2546237.5099999998}},{"attributes":{"ID":436127,"DIS_CODE":0,"TOWNNAME":"北區","LI":"成德里","LIN":"17鄰","STREET":"西門路","SECT":"四段","MAREA":" ","LANE":"３４１巷","ALLEY":" ","HOUSE_NO":"３８號","E_COORD97":168924.28,"N_COORD97":2546239.75,"ADDRESS":"西門路四段３４１巷３８號","OBJECTID":436102},"geometry":{"x":168924.28000000119,"y":2546239.7500000037}},{"attributes":{"ID":436128,"DIS_CODE":0,"TOWNNAME":"北區","LI":"大港里","LIN":"4鄰","STREET":"大興街","SECT":" ","MAREA":" ","LANE":"１７４巷","ALLEY":" ","HOUSE_NO":"７０號","E_COORD97":166869.66,"N_COORD97":2545898.2400000002,"ADDRESS":"大興街１７４巷７０號","OBJECTID":436103},"geometry":{"x":166869.65999999922,"y":2545898.2400000021}},{"attributes":{"ID":436129,"DIS_CODE":0,"TOWNNAME":"北區","LI":"大港里","LIN":"4鄰","STREET":"大興街","SECT":" ","MAREA":" ","LANE":"１７４巷","ALLEY":" ","HOUSE_NO":"７２號","E_COORD97":166868.23000000001,"N_COORD97":2545902.6800000002,"ADDRESS":"大興街１７４巷７２號","OBJECTID":436104},"geometry":{"x":166868.23000000138,"y":2545902.6799999997}},{"attributes":{"ID":436130,"DIS_CODE":0,"TOWNNAME":"北區","LI":"大港里","LIN":"4鄰","STREET":"大興街","SECT":" ","MAREA":" ","LANE":"１７４巷","ALLEY":" ","HOUSE_NO":"７４號","E_COORD97":166867.51999999999,"N_COORD97":2545906.5899999999,"ADDRESS":"大興街１７４巷７４號","OBJECTID":436105},"geometry":{"x":166867.52000000048,"y":2545906.5900000017}},{"attributes":{"ID":436131,"DIS_CODE":0,"TOWNNAME":"北區","LI":"大港里","LIN":"4鄰","STREET":"大興街","SECT":" ","MAREA":" ","LANE":"１７４巷","ALLEY":" ","HOUSE_NO":"７６號","E_COORD97":166867.17000000001,"N_COORD97":2545910.1499999999,"ADDRESS":"大興街１７４巷７６號","OBJECTID":436106},"geometry":{"x":166867.16999999993,"y":2545910.1500000022}},{"attributes":{"ID":436132,"DIS_CODE":0,"TOWNNAME":"北區","LI":"大港里","LIN":"4鄰","STREET":"大興街","SECT":" ","MAREA":" ","LANE":"１７４巷","ALLEY":" ","HOUSE_NO":"７８號","E_COORD97":166866.98999999999,"N_COORD97":2545913.8799999999,"ADDRESS":"大興街１７４巷７８號","OBJECTID":436107},"geometry":{"x":166866.99000000022,"y":2545913.8800000008}},{"attributes":{"ID":436133,"DIS_CODE":0,"TOWNNAME":"關廟區","LI":"香洋里","LIN":"25鄰","STREET":"民生街","SECT":" ","MAREA":" ","LANE":"２１８巷","ALLEY":" ","HOUSE_NO":"９號","E_COORD97":180941.39000000001,"N_COORD97":2539964.29,"ADDRESS":"民生街２１８巷９號","OBJECTID":436108},"geometry":{"x":180941.3900000006,"y":2539964.290000001}},{"attributes":{"ID":436134,"DIS_CODE":0,"TOWNNAME":"北區","LI":"大港里","LIN":"4鄰","STREET":"大興街","SECT":" ","MAREA":" ","LANE":"１７４巷","ALLEY":" ","HOUSE_NO":"８０號","E_COORD97":166866.98999999999,"N_COORD97":2545918.1400000001,"ADDRESS":"大興街１７４巷８０號","OBJECTID":436109},"geometry":{"x":166866.99000000022,"y":2545918.1400000006}},{"attributes":{"ID":436135,"DIS_CODE":0,"TOWNNAME":"北區","LI":"大港里","LIN":"4鄰","STREET":"大興街","SECT":" ","MAREA":" ","LANE":"１７４巷","ALLEY":" ","HOUSE_NO":"８２號","E_COORD97":166867.17000000001,"N_COORD97":2545921.8799999999,"ADDRESS":"大興街１７４巷８２號","OBJECTID":436110},"geometry":{"x":166867.16999999993,"y":2545921.879999999}},{"attributes":{"ID":436136,"DIS_CODE":0,"TOWNNAME":"北區","LI":"大港里","LIN":"4鄰","STREET":"大興街","SECT":" ","MAREA":" ","LANE":"１７４巷","ALLEY":" ","HOUSE_NO":"８４號","E_COORD97":166866.98999999999,"N_COORD97":2545925.79,"ADDRESS":"大興街１７４巷８４號","OBJECTID":436111},"geometry":{"x":166866.99000000022,"y":2545925.7899999991}},{"attributes":{"ID":436137,"DIS_CODE":0,"TOWNNAME":"北區","LI":"大港里","LIN":"4鄰","STREET":"大興街","SECT":" ","MAREA":" ","LANE":"１７４巷","ALLEY":" ","HOUSE_NO":"８６號","E_COORD97":166866.63,"N_COORD97":2545929.8700000001,"ADDRESS":"大興街１７４巷８６號","OBJECTID":436112},"geometry":{"x":166866.63000000082,"y":2545929.8700000029}},{"attributes":{"ID":436138,"DIS_CODE":0,"TOWNNAME":"北區","LI":"大港里","LIN":"4鄰","STREET":"大興街","SECT":" ","MAREA":" ","LANE":"１７４巷","ALLEY":" ","HOUSE_NO":"８８號","E_COORD97":166866.28,"N_COORD97":2545934.1400000001,"ADDRESS":"大興街１７４巷８８號","OBJECTID":436113},"geometry":{"x":166866.28000000119,"y":2545934.1400000025}},{"attributes":{"ID":436139,"DIS_CODE":0,"TOWNNAME":"北區","LI":"大港里","LIN":"4鄰","STREET":"大興街","SECT":" ","MAREA":" ","LANE":"１７４巷","ALLEY":" ","HOUSE_NO":"６１號","E_COORD97":166854.10999999999,"N_COORD97":2545880.77,"ADDRESS":"大興街１７４巷６１號","OBJECTID":436114},"geometry":{"x":166854.11000000127,"y":2545880.7700000014}},{"attributes":{"ID":436140,"DIS_CODE":0,"TOWNNAME":"北區","LI":"大港里","LIN":"4鄰","STREET":"大興街","SECT":" ","MAREA":" ","LANE":"１７４巷","ALLEY":" ","HOUSE_NO":"６３號","E_COORD97":166854.10999999999,"N_COORD97":2545885.02,"ADDRESS":"大興街１７４巷６３號","OBJECTID":436115},"geometry":{"x":166854.11000000127,"y":2545885.0200000033}},{"attributes":{"ID":436141,"DIS_CODE":0,"TOWNNAME":"北區","LI":"大港里","LIN":"4鄰","STREET":"大興街","SECT":" ","MAREA":" ","LANE":"１７４巷","ALLEY":" ","HOUSE_NO":"６５號","E_COORD97":166854.10999999999,"N_COORD97":2545888.4700000002,"ADDRESS":"大興街１７４巷６５號","OBJECTID":436116},"geometry":{"x":166854.11000000127,"y":2545888.4700000007}},{"attributes":{"ID":436142,"DIS_CODE":0,"TOWNNAME":"北區","LI":"大港里","LIN":"4鄰","STREET":"大興街","SECT":" ","MAREA":" ","LANE":"１７４巷","ALLEY":" ","HOUSE_NO":"６７號","E_COORD97":166854.64000000001,"N_COORD97":2545893.7799999998,"ADDRESS":"大興街１７４巷６７號","OBJECTID":436117},"geometry":{"x":166854.6400000006,"y":2545893.7800000012}},{"attributes":{"ID":436143,"DIS_CODE":0,"TOWNNAME":"北區","LI":"大港里","LIN":"4鄰","STREET":"大興街","SECT":" ","MAREA":" ","LANE":"１７４巷","ALLEY":" ","HOUSE_NO":"６９號","E_COORD97":166853.48000000001,"N_COORD97":2545897.3700000001,"ADDRESS":"大興街１７４巷６９號","OBJECTID":436118},"geometry":{"x":166853.48000000138,"y":2545897.370000001}},{"attributes":{"ID":436144,"DIS_CODE":0,"TOWNNAME":"北區","LI":"大港里","LIN":"4鄰","STREET":"大興街","SECT":" ","MAREA":" ","LANE":"１７４巷","ALLEY":" ","HOUSE_NO":"７１號","E_COORD97":166853.31,"N_COORD97":2545901.1000000001,"ADDRESS":"大興街１７４巷７１號","OBJECTID":436119},"geometry":{"x":166853.31000000052,"y":2545901.0999999996}},{"attributes":{"ID":436145,"DIS_CODE":0,"TOWNNAME":"北區","LI":"大港里","LIN":"4鄰","STREET":"大興街","SECT":" ","MAREA":" ","LANE":"１７４巷","ALLEY":" ","HOUSE_NO":"７３號","E_COORD97":166852.76999999999,"N_COORD97":2545905.1899999999,"ADDRESS":"大興街１７４巷７３號","OBJECTID":436120},"geometry":{"x":166852.76999999955,"y":2545905.1900000013}},{"attributes":{"ID":436146,"DIS_CODE":0,"TOWNNAME":"北區","LI":"大港里","LIN":"4鄰","STREET":"大興街","SECT":" ","MAREA":" ","LANE":"１７４巷","ALLEY":" ","HOUSE_NO":"７５號","E_COORD97":166852.76999999999,"N_COORD97":2545908.0299999998,"ADDRESS":"大興街１７４巷７５號","OBJECTID":436121},"geometry":{"x":166852.76999999955,"y":2545908.0299999993}},{"attributes":{"ID":436147,"DIS_CODE":0,"TOWNNAME":"北區","LI":"大港里","LIN":"4鄰","STREET":"大興街","SECT":" ","MAREA":" ","LANE":"１７４巷","ALLEY":" ","HOUSE_NO":"７７號","E_COORD97":166852.06,"N_COORD97":2545912.6600000001,"ADDRESS":"大興街１７４巷７７號","OBJECTID":436122},"geometry":{"x":166852.06000000052,"y":2545912.660000002}},{"attributes":{"ID":436148,"DIS_CODE":0,"TOWNNAME":"北區","LI":"大港里","LIN":"4鄰","STREET":"大興街","SECT":" ","MAREA":" ","LANE":"１７４巷","ALLEY":" ","HOUSE_NO":"７９號","E_COORD97":166851.88,"N_COORD97":2545915.8500000001,"ADDRESS":"大興街１７４巷７９號","OBJECTID":436123},"geometry":{"x":166851.88000000082,"y":2545915.8499999996}},{"attributes":{"ID":436149,"DIS_CODE":0,"TOWNNAME":"北區","LI":"大港里","LIN":"4鄰","STREET":"大興街","SECT":" ","MAREA":" ","LANE":"１７４巷","ALLEY":" ","HOUSE_NO":"８１號","E_COORD97":166851.88,"N_COORD97":2545920.6499999999,"ADDRESS":"大興街１７４巷８１號","OBJECTID":436124},"geometry":{"x":166851.88000000082,"y":2545920.6500000004}},{"attributes":{"ID":436150,"DIS_CODE":0,"TOWNNAME":"北區","LI":"大港里","LIN":"4鄰","STREET":"大興街","SECT":" ","MAREA":" ","LANE":"１７４巷","ALLEY":" ","HOUSE_NO":"８３號","E_COORD97":166850.98999999999,"N_COORD97":2545924.7400000002,"ADDRESS":"大興街１７４巷８３號","OBJECTID":436125},"geometry":{"x":166850.99000000115,"y":2545924.7400000039}},{"attributes":{"ID":436151,"DIS_CODE":0,"TOWNNAME":"北區","LI":"大港里","LIN":"3鄰","STREET":"大興街","SECT":" ","MAREA":" ","LANE":"１７４巷","ALLEY":" ","HOUSE_NO":"７號","E_COORD97":166866.88,"N_COORD97":2545725.4700000002,"ADDRESS":"大興街１７４巷７號","OBJECTID":436126},"geometry":{"x":166866.88000000082,"y":2545725.4700000007}},{"attributes":{"ID":436152,"DIS_CODE":0,"TOWNNAME":"北區","LI":"大港里","LIN":"17鄰","STREET":"大興街","SECT":" ","MAREA":" ","LANE":"２４６巷","ALLEY":" ","HOUSE_NO":"１２２號","E_COORD97":166571.06,"N_COORD97":2545926.0899999999,"ADDRESS":"大興街２４６巷１２２號","OBJECTID":436127},"geometry":{"x":166571.05999999959,"y":2545926.0900000017}},{"attributes":{"ID":436153,"DIS_CODE":0,"TOWNNAME":"北區","LI":"大和里","LIN":"8鄰","STREET":"文賢路","SECT":" ","MAREA":" ","LANE":"７５９巷","ALLEY":" ","HOUSE_NO":"１號","E_COORD97":167309.89000000001,"N_COORD97":2546192.7200000002,"ADDRESS":"文賢路７５９巷１號","OBJECTID":436128},"geometry":{"x":167309.88999999966,"y":2546192.7200000007}},{"attributes":{"ID":436154,"DIS_CODE":0,"TOWNNAME":"北區","LI":"大和里","LIN":"8鄰","STREET":"文賢路","SECT":" ","MAREA":" ","LANE":"７５９巷","ALLEY":" ","HOUSE_NO":"２號","E_COORD97":167308.84,"N_COORD97":2546197.4900000002,"ADDRESS":"文賢路７５９巷２號","OBJECTID":436129},"geometry":{"x":167308.83999999985,"y":2546197.4900000002}},{"attributes":{"ID":436155,"DIS_CODE":0,"TOWNNAME":"北區","LI":"大和里","LIN":"8鄰","STREET":"文賢路","SECT":" ","MAREA":" ","LANE":"７５９巷","ALLEY":" ","HOUSE_NO":"３號","E_COORD97":167307.35999999999,"N_COORD97":2546201.8399999999,"ADDRESS":"文賢路７５９巷３號","OBJECTID":436130},"geometry":{"x":167307.36000000034,"y":2546201.8400000036}},{"attributes":{"ID":436156,"DIS_CODE":0,"TOWNNAME":"北區","LI":"大和里","LIN":"8鄰","STREET":"文賢路","SECT":" ","MAREA":" ","LANE":"７５９巷","ALLEY":" ","HOUSE_NO":"４號","E_COORD97":167304.91,"N_COORD97":2546205.3500000001,"ADDRESS":"文賢路７５９巷４號","OBJECTID":436131},"geometry":{"x":167304.91000000015,"y":2546205.3500000015}},{"attributes":{"ID":436157,"DIS_CODE":0,"TOWNNAME":"北區","LI":"大和里","LIN":"13鄰","STREET":"文賢路","SECT":" ","MAREA":" ","LANE":"７９９巷","ALLEY":" ","HOUSE_NO":"１３號","E_COORD97":167292.44,"N_COORD97":2546259.1299999999,"ADDRESS":"文賢路７９９巷１３號","OBJECTID":436132},"geometry":{"x":167292.44000000134,"y":2546259.129999999}},{"attributes":{"ID":436158,"DIS_CODE":0,"TOWNNAME":"北區","LI":"大和里","LIN":"13鄰","STREET":"文賢路","SECT":" ","MAREA":" ","LANE":"７９９巷","ALLEY":" ","HOUSE_NO":"８１號","E_COORD97":167154.89000000001,"N_COORD97":2546252.2400000002,"ADDRESS":"文賢路７９９巷８１號","OBJECTID":436133},"geometry":{"x":167154.8900000006,"y":2546252.2400000002}},{"attributes":{"ID":436159,"DIS_CODE":0,"TOWNNAME":"北區","LI":"大和里","LIN":"13鄰","STREET":"文賢路","SECT":" ","MAREA":" ","LANE":"７９９巷","ALLEY":" ","HOUSE_NO":"９號","E_COORD97":167290.82000000001,"N_COORD97":2546275.9100000001,"ADDRESS":"文賢路７９９巷９號","OBJECTID":436134},"geometry":{"x":167290.8200000003,"y":2546275.9100000001}},{"attributes":{"ID":436160,"DIS_CODE":0,"TOWNNAME":"北區","LI":"大和里","LIN":"24鄰","STREET":"大和路","SECT":" ","MAREA":" ","LANE":"３３０巷","ALLEY":" ","HOUSE_NO":"４６號","E_COORD97":167013.94,"N_COORD97":2546146.4100000001,"ADDRESS":"大和路３３０巷４６號","OBJECTID":436135},"geometry":{"x":167013.94000000227,"y":2546146.4100000001}},{"attributes":{"ID":436161,"DIS_CODE":0,"TOWNNAME":"北區","LI":"大和里","LIN":"24鄰","STREET":"大和路","SECT":" ","MAREA":" ","LANE":"３３０巷","ALLEY":" ","HOUSE_NO":"４８號","E_COORD97":167019.20000000001,"N_COORD97":2546147.5800000001,"ADDRESS":"大和路３３０巷４８號","OBJECTID":436136},"geometry":{"x":167019.20000000112,"y":2546147.5800000019}},{"attributes":{"ID":436162,"DIS_CODE":0,"TOWNNAME":"六甲區","LI":"甲南里","LIN":"14鄰","STREET":"永安街","SECT":" ","MAREA":" ","LANE":"３巷","ALLEY":" ","HOUSE_NO":"３號","E_COORD97":183959.78,"N_COORD97":2569821.9300000002,"ADDRESS":"永安街３巷３號","OBJECTID":436137},"geometry":{"x":183959.78000000026,"y":2569821.9300000034}},{"attributes":{"ID":436163,"DIS_CODE":0,"TOWNNAME":"北區","LI":"大和里","LIN":"24鄰","STREET":"大和路","SECT":" ","MAREA":" ","LANE":"３３０巷","ALLEY":" ","HOUSE_NO":"５０號","E_COORD97":167024.60000000001,"N_COORD97":2546148.8799999999,"ADDRESS":"大和路３３０巷５０號","OBJECTID":436138},"geometry":{"x":167024.60000000056,"y":2546148.879999999}},{"attributes":{"ID":436164,"DIS_CODE":0,"TOWNNAME":"北區","LI":"大和里","LIN":"24鄰","STREET":"大和路","SECT":" ","MAREA":" ","LANE":"３３０巷","ALLEY":" ","HOUSE_NO":"５２號","E_COORD97":167029.16,"N_COORD97":2546150.6299999999,"ADDRESS":"大和路３３０巷５２號","OBJECTID":436139},"geometry":{"x":167029.16000000201,"y":2546150.629999999}},{"attributes":{"ID":436165,"DIS_CODE":0,"TOWNNAME":"北區","LI":"大和里","LIN":"24鄰","STREET":"大和路","SECT":" ","MAREA":" ","LANE":"３３０巷","ALLEY":" ","HOUSE_NO":"５７號","E_COORD97":167039.70000000001,"N_COORD97":2546174.71,"ADDRESS":"大和路３３０巷５７號","OBJECTID":436140},"geometry":{"x":167039.70000000112,"y":2546174.7100000028}},{"attributes":{"ID":436166,"DIS_CODE":0,"TOWNNAME":"北區","LI":"大和里","LIN":"21鄰","STREET":"大港街","SECT":" ","MAREA":" ","LANE":"１１０巷","ALLEY":" ","HOUSE_NO":"１４號","E_COORD97":167061.19,"N_COORD97":2546133.9700000002,"ADDRESS":"大港街１１０巷１４號","OBJECTID":436141},"geometry":{"x":167061.19000000041,"y":2546133.9700000044}},{"attributes":{"ID":436167,"DIS_CODE":0,"TOWNNAME":"山上區","LI":"明和里","LIN":"19鄰","STREET":" ","SECT":" ","MAREA":"明和","LANE":" ","ALLEY":" ","HOUSE_NO":"５２號之５","E_COORD97":183279.08011499999,"N_COORD97":2555942.52642,"ADDRESS":"明和５２號之５","OBJECTID":436142},"geometry":{"x":183279.08011500072,"y":2555942.5264250003}},{"attributes":{"ID":436168,"DIS_CODE":0,"TOWNNAME":"北區","LI":"大和里","LIN":"21鄰","STREET":"大港街","SECT":" ","MAREA":" ","LANE":"１１０巷","ALLEY":" ","HOUSE_NO":"１６號","E_COORD97":167051.76000000001,"N_COORD97":2546130.6600000001,"ADDRESS":"大港街１１０巷１６號","OBJECTID":436143},"geometry":{"x":167051.76000000164,"y":2546130.6600000001}},{"attributes":{"ID":436169,"DIS_CODE":0,"TOWNNAME":"北區","LI":"大和里","LIN":"21鄰","STREET":"大港街","SECT":" ","MAREA":" ","LANE":"１１０巷","ALLEY":" ","HOUSE_NO":"１８號","E_COORD97":167044.47,"N_COORD97":2546128.8999999999,"ADDRESS":"大港街１１０巷１８號","OBJECTID":436144},"geometry":{"x":167044.46999999974,"y":2546128.9000000022}},{"attributes":{"ID":436170,"DIS_CODE":0,"TOWNNAME":"北區","LI":"大和里","LIN":"21鄰","STREET":"大港街","SECT":" ","MAREA":" ","LANE":"１１０巷","ALLEY":" ","HOUSE_NO":"２０號","E_COORD97":167029.37,"N_COORD97":2546122.1899999999,"ADDRESS":"大港街１１０巷２０號","OBJECTID":436145},"geometry":{"x":167029.37000000197,"y":2546122.1900000013}},{"attributes":{"ID":436171,"DIS_CODE":0,"TOWNNAME":"北區","LI":"大和里","LIN":"21鄰","STREET":"大港街","SECT":" ","MAREA":" ","LANE":"１１０巷","ALLEY":" ","HOUSE_NO":"２２號","E_COORD97":167028.45999999999,"N_COORD97":2546126.8100000001,"ADDRESS":"大港街１１０巷２２號","OBJECTID":436146},"geometry":{"x":167028.45999999996,"y":2546126.8100000005}},{"attributes":{"ID":436172,"DIS_CODE":0,"TOWNNAME":"北區","LI":"大和里","LIN":"21鄰","STREET":"大港街","SECT":" ","MAREA":" ","LANE":"１１０巷","ALLEY":" ","HOUSE_NO":"２４號","E_COORD97":167026.82999999999,"N_COORD97":2546131.75,"ADDRESS":"大港街１１０巷２４號","OBJECTID":436147},"geometry":{"x":167026.83000000101,"y":2546131.7500000019}},{"attributes":{"ID":436173,"DIS_CODE":0,"TOWNNAME":"北區","LI":"大和里","LIN":"21鄰","STREET":"大港街","SECT":" ","MAREA":" ","LANE":"１１０巷","ALLEY":" ","HOUSE_NO":"２６號","E_COORD97":167025.39999999999,"N_COORD97":2546136.2999999998,"ADDRESS":"大港街１１０巷２６號","OBJECTID":436148},"geometry":{"x":167025.40000000037,"y":2546136.3000000026}},{"attributes":{"ID":436174,"DIS_CODE":0,"TOWNNAME":"關廟區","LI":"香洋里","LIN":"25鄰","STREET":"民生街","SECT":" ","MAREA":" ","LANE":"２１８巷","ALLEY":" ","HOUSE_NO":"２１號","E_COORD97":180967.54000000001,"N_COORD97":2539959.29,"ADDRESS":"民生街２１８巷２１號","OBJECTID":436149},"geometry":{"x":180967.53999999911,"y":2539959.2899999991}},{"attributes":{"ID":436175,"DIS_CODE":0,"TOWNNAME":"關廟區","LI":"東勢里","LIN":"26鄰","STREET":"東安街","SECT":" ","MAREA":" ","LANE":"９５巷","ALLEY":" ","HOUSE_NO":"５號","E_COORD97":181468.01999999999,"N_COORD97":2539668.3199999998,"ADDRESS":"東安街９５巷５號","OBJECTID":436150},"geometry":{"x":181468.02000000048,"y":2539668.3200000003}},{"attributes":{"ID":436176,"DIS_CODE":0,"TOWNNAME":"關廟區","LI":"北勢里","LIN":"20鄰","STREET":"成功路","SECT":" ","MAREA":" ","LANE":"３２９巷","ALLEY":" ","HOUSE_NO":"６號","E_COORD97":181309.17000000001,"N_COORD97":2540470.27,"ADDRESS":"成功路３２９巷６號","OBJECTID":436151},"geometry":{"x":181309.17000000179,"y":2540470.2700000014}},{"attributes":{"ID":436177,"DIS_CODE":0,"TOWNNAME":"關廟區","LI":"關廟里","LIN":"13鄰","STREET":"大仁街","SECT":" ","MAREA":" ","LANE":"１２５巷","ALLEY":" ","HOUSE_NO":"５號","E_COORD97":181027.76999999999,"N_COORD97":2539356.25,"ADDRESS":"大仁街１２５巷５號","OBJECTID":436152},"geometry":{"x":181027.76999999955,"y":2539356.25}},{"attributes":{"ID":436178,"DIS_CODE":0,"TOWNNAME":"關廟區","LI":"南花里","LIN":"4鄰","STREET":"園東街","SECT":" ","MAREA":" ","LANE":"１巷","ALLEY":" ","HOUSE_NO":"２號","E_COORD97":182087.70999999999,"N_COORD97":2540044.25,"ADDRESS":"園東街１巷２號","OBJECTID":436153},"geometry":{"x":182087.71000000089,"y":2540044.25}},{"attributes":{"ID":436179,"DIS_CODE":0,"TOWNNAME":"關廟區","LI":"南花里","LIN":"4鄰","STREET":"園東街","SECT":" ","MAREA":" ","LANE":"１巷","ALLEY":" ","HOUSE_NO":"１１號","E_COORD97":182126.66,"N_COORD97":2540037.25,"ADDRESS":"園東街１巷１１號","OBJECTID":436154},"geometry":{"x":182126.66000000108,"y":2540037.25}},{"attributes":{"ID":436180,"DIS_CODE":0,"TOWNNAME":"關廟區","LI":"關廟里","LIN":"4鄰","STREET":"中山路","SECT":"二段","MAREA":" ","LANE":"２６２巷","ALLEY":" ","HOUSE_NO":"６號","E_COORD97":179737.31,"N_COORD97":2540573.25,"ADDRESS":"中山路二段２６２巷６號","OBJECTID":436155},"geometry":{"x":179737.30999999959,"y":2540573.25}},{"attributes":{"ID":436181,"DIS_CODE":0,"TOWNNAME":"關廟區","LI":"關廟里","LIN":"4鄰","STREET":"中山路","SECT":"二段","MAREA":" ","LANE":"２６２巷","ALLEY":" ","HOUSE_NO":"６號","E_COORD97":179748.16,"N_COORD97":2540574.2799999998,"ADDRESS":"中山路二段２６２巷６號","OBJECTID":436156},"geometry":{"x":179748.16000000201,"y":2540574.2800000012}},{"attributes":{"ID":436182,"DIS_CODE":0,"TOWNNAME":"關廟區","LI":"香洋里","LIN":"14鄰","STREET":"仁愛路","SECT":" ","MAREA":" ","LANE":"２０巷","ALLEY":" ","HOUSE_NO":"１１號","E_COORD97":181313.79000000001,"N_COORD97":2540102.2799999998,"ADDRESS":"仁愛路２０巷１１號","OBJECTID":436157},"geometry":{"x":181313.79000000097,"y":2540102.2800000031}},{"attributes":{"ID":436183,"DIS_CODE":0,"TOWNNAME":"關廟區","LI":"關廟里","LIN":"4鄰","STREET":"中山路","SECT":"二段","MAREA":" ","LANE":"１７０巷","ALLEY":" ","HOUSE_NO":"６號","E_COORD97":180785.35999999999,"N_COORD97":2540116.2799999998,"ADDRESS":"中山路二段１７０巷６號","OBJECTID":436158},"geometry":{"x":180785.36000000034,"y":2540116.2800000012}},{"attributes":{"ID":436184,"DIS_CODE":0,"TOWNNAME":"關廟區","LI":"五甲里","LIN":"4鄰","STREET":"南雄路","SECT":"一段","MAREA":" ","LANE":"８１８巷","ALLEY":" ","HOUSE_NO":"７號","E_COORD97":181414.48999999999,"N_COORD97":2539135.2799999998,"ADDRESS":"南雄路一段８１８巷７號","OBJECTID":436159},"geometry":{"x":181414.49000000115,"y":2539135.2799999993}},{"attributes":{"ID":436185,"DIS_CODE":0,"TOWNNAME":"關廟區","LI":"松腳里","LIN":"4鄰","STREET":"松平街","SECT":" ","MAREA":" ","LANE":"５６巷","ALLEY":" ","HOUSE_NO":"５３號","E_COORD97":182007.76999999999,"N_COORD97":2539840.25,"ADDRESS":"松平街５６巷５３號","OBJECTID":436160},"geometry":{"x":182007.76999999955,"y":2539840.2500000019}},{"attributes":{"ID":436186,"DIS_CODE":0,"TOWNNAME":"關廟區","LI":"關廟里","LIN":"4鄰","STREET":"中山路","SECT":"二段","MAREA":" ","LANE":"１７０巷","ALLEY":" ","HOUSE_NO":"１０號","E_COORD97":180787.70999999999,"N_COORD97":2540124.2799999998,"ADDRESS":"中山路二段１７０巷１０號","OBJECTID":436161},"geometry":{"x":180787.70999999996,"y":2540124.2800000012}},{"attributes":{"ID":436187,"DIS_CODE":0,"TOWNNAME":"關廟區","LI":"東勢里","LIN":"26鄰","STREET":"東安街","SECT":" ","MAREA":" ","LANE":"９５巷","ALLEY":" ","HOUSE_NO":"３號","E_COORD97":181461.82000000001,"N_COORD97":2539668.3199999998,"ADDRESS":"東安街９５巷３號","OBJECTID":436162},"geometry":{"x":181461.82000000123,"y":2539668.3200000003}},{"attributes":{"ID":436188,"DIS_CODE":0,"TOWNNAME":"關廟區","LI":"北花里","LIN":"20鄰","STREET":"中正路","SECT":" ","MAREA":" ","LANE":"１１３巷","ALLEY":" ","HOUSE_NO":"１５號","E_COORD97":183600.35999999999,"N_COORD97":2540866.6200000001,"ADDRESS":"中正路１１３巷１５號","OBJECTID":436163},"geometry":{"x":183600.36000000127,"y":2540866.620000001}},{"attributes":{"ID":436189,"DIS_CODE":0,"TOWNNAME":"關廟區","LI":"香洋里","LIN":"25鄰","STREET":"民生街","SECT":" ","MAREA":" ","LANE":"２１８巷","ALLEY":" ","HOUSE_NO":"３號","E_COORD97":180929.09,"N_COORD97":2539967.29,"ADDRESS":"民生街２１８巷３號","OBJECTID":436164},"geometry":{"x":180929.08999999985,"y":2539967.290000001}},{"attributes":{"ID":436190,"DIS_CODE":0,"TOWNNAME":"關廟區","LI":"香洋里","LIN":"24鄰","STREET":"民族街","SECT":" ","MAREA":" ","LANE":"１５７巷","ALLEY":" ","HOUSE_NO":"２號","E_COORD97":181229.59,"N_COORD97":2539866.29,"ADDRESS":"民族街１５７巷２號","OBJECTID":436165},"geometry":{"x":181229.58999999985,"y":2539866.290000001}},{"attributes":{"ID":436191,"DIS_CODE":0,"TOWNNAME":"關廟區","LI":"關廟里","LIN":"5鄰","STREET":"民生街","SECT":" ","MAREA":" ","LANE":"２０３巷","ALLEY":" ","HOUSE_NO":"２１號","E_COORD97":180822.84,"N_COORD97":2539975.29,"ADDRESS":"民生街２０３巷２１號","OBJECTID":436166},"geometry":{"x":180822.83999999985,"y":2539975.2899999991}},{"attributes":{"ID":436192,"DIS_CODE":0,"TOWNNAME":"關廟區","LI":"香洋里","LIN":"26鄰","STREET":"民權街","SECT":" ","MAREA":" ","LANE":"２２８巷","ALLEY":" ","HOUSE_NO":"１７號","E_COORD97":181131.84,"N_COORD97":2539819.29,"ADDRESS":"民權街２２８巷１７號","OBJECTID":436167},"geometry":{"x":181131.84000000078,"y":2539819.2899999991}},{"attributes":{"ID":436193,"DIS_CODE":0,"TOWNNAME":"關廟區","LI":"香洋里","LIN":"26鄰","STREET":"民權街","SECT":" ","MAREA":" ","LANE":"２２８巷","ALLEY":" ","HOUSE_NO":"１８號","E_COORD97":181145.64000000001,"N_COORD97":2539814.29,"ADDRESS":"民權街２２８巷１８號","OBJECTID":436168},"geometry":{"x":181145.63999999966,"y":2539814.290000001}},{"attributes":{"ID":436194,"DIS_CODE":0,"TOWNNAME":"關廟區","LI":"五甲里","LIN":"4鄰","STREET":"南雄路","SECT":"一段","MAREA":" ","LANE":"８１８巷","ALLEY":" ","HOUSE_NO":"２號","E_COORD97":181412.59,"N_COORD97":2539126.2799999998,"ADDRESS":"南雄路一段８１８巷２號","OBJECTID":436169},"geometry":{"x":181412.58999999985,"y":2539126.2800000012}},{"attributes":{"ID":436195,"DIS_CODE":0,"TOWNNAME":"關廟區","LI":"北花里","LIN":"4鄰","STREET":"中正路","SECT":" ","MAREA":" ","LANE":"６８１巷","ALLEY":" ","HOUSE_NO":"８號","E_COORD97":181971.95999999999,"N_COORD97":2540357.25,"ADDRESS":"中正路６８１巷８號","OBJECTID":436170},"geometry":{"x":181971.96000000089,"y":2540357.25}},{"attributes":{"ID":436196,"DIS_CODE":0,"TOWNNAME":"永康區","LI":"永康里","LIN":"40鄰","STREET":"永大二路","SECT":" ","MAREA":" ","LANE":" ","ALLEY":" ","HOUSE_NO":"５０號八樓之２","E_COORD97":174243.48999999999,"N_COORD97":2546574.3399999999,"ADDRESS":"永大二路５０號八樓之２","OBJECTID":436171},"geometry":{"x":174243.49000000209,"y":2546574.3399999999}},{"attributes":{"ID":436197,"DIS_CODE":0,"TOWNNAME":"關廟區","LI":"南花里","LIN":"4鄰","STREET":"中山路","SECT":"一段","MAREA":" ","LANE":"２００巷","ALLEY":" ","HOUSE_NO":"２１號","E_COORD97":182015.60999999999,"N_COORD97":2539998.2799999998,"ADDRESS":"中山路一段２００巷２１號","OBJECTID":436172},"geometry":{"x":182015.61000000127,"y":2539998.2800000012}},{"attributes":{"ID":436198,"DIS_CODE":0,"TOWNNAME":"關廟區","LI":"布袋里","LIN":"4鄰","STREET":"長文街","SECT":" ","MAREA":" ","LANE":"２１５巷","ALLEY":" ","HOUSE_NO":"７號","E_COORD97":182647.23999999999,"N_COORD97":2535242.25,"ADDRESS":"長文街２１５巷７號","OBJECTID":436173},"geometry":{"x":182647.24000000115,"y":2535242.2500000019}},{"attributes":{"ID":436199,"DIS_CODE":0,"TOWNNAME":"關廟區","LI":"南花里","LIN":"4鄰","STREET":"園東街","SECT":" ","MAREA":" ","LANE":"５１巷","ALLEY":" ","HOUSE_NO":"１６號","E_COORD97":182034.60999999999,"N_COORD97":2540025.25,"ADDRESS":"園東街５１巷１６號","OBJECTID":436174},"geometry":{"x":182034.61000000127,"y":2540025.2500000037}},{"attributes":{"ID":436200,"DIS_CODE":0,"TOWNNAME":"關廟區","LI":"南花里","LIN":"4鄰","STREET":"園東街","SECT":" ","MAREA":" ","LANE":"１巷","ALLEY":" ","HOUSE_NO":"１０號","E_COORD97":182086.35999999999,"N_COORD97":2540034.25,"ADDRESS":"園東街１巷１０號","OBJECTID":436175},"geometry":{"x":182086.3600000022,"y":2540034.25}},{"attributes":{"ID":436201,"DIS_CODE":0,"TOWNNAME":"關廟區","LI":"香洋里","LIN":"26鄰","STREET":"民權街","SECT":" ","MAREA":" ","LANE":"２２８巷","ALLEY":" ","HOUSE_NO":"２６號","E_COORD97":181142.23999999999,"N_COORD97":2539826.29,"ADDRESS":"民權街２２８巷２６號","OBJECTID":436176},"geometry":{"x":181142.24000000022,"y":2539826.2899999991}},{"attributes":{"ID":436202,"DIS_CODE":0,"TOWNNAME":"關廟區","LI":"香洋里","LIN":"14鄰","STREET":"仁愛路","SECT":" ","MAREA":" ","LANE":"２０巷","ALLEY":" ","HOUSE_NO":"１號","E_COORD97":181292.23999999999,"N_COORD97":2540110.2799999998,"ADDRESS":"仁愛路２０巷１號","OBJECTID":436177},"geometry":{"x":181292.24000000115,"y":2540110.2800000012}},{"attributes":{"ID":436203,"DIS_CODE":0,"TOWNNAME":"關廟區","LI":"五甲里","LIN":"4鄰","STREET":"南雄路","SECT":"一段","MAREA":" ","LANE":"８１８巷","ALLEY":" ","HOUSE_NO":"１號","E_COORD97":181405.98999999999,"N_COORD97":2539126.2799999998,"ADDRESS":"南雄路一段８１８巷１號","OBJECTID":436178},"geometry":{"x":181405.99000000115,"y":2539126.2800000012}},{"attributes":{"ID":436204,"DIS_CODE":0,"TOWNNAME":"關廟區","LI":"南花里","LIN":"4鄰","STREET":"園東街","SECT":" ","MAREA":" ","LANE":"６５巷","ALLEY":" ","HOUSE_NO":"１３號","E_COORD97":181996.60999999999,"N_COORD97":2540042.25,"ADDRESS":"園東街６５巷１３號","OBJECTID":436179},"geometry":{"x":181996.6100000022,"y":2540042.2500000037}},{"attributes":{"ID":436205,"DIS_CODE":0,"TOWNNAME":"關廟區","LI":"南花里","LIN":"4鄰","STREET":"園東街","SECT":" ","MAREA":" ","LANE":"６５巷","ALLEY":" ","HOUSE_NO":"１５號","E_COORD97":181995.81,"N_COORD97":2540038.25,"ADDRESS":"園東街６５巷１５號","OBJECTID":436180},"geometry":{"x":181995.80999999959,"y":2540038.25}},{"attributes":{"ID":436206,"DIS_CODE":0,"TOWNNAME":"關廟區","LI":"關廟里","LIN":"13鄰","STREET":"大仁街","SECT":" ","MAREA":" ","LANE":"１３０巷","ALLEY":" ","HOUSE_NO":"１０號","E_COORD97":181012.51999999999,"N_COORD97":2539428.25,"ADDRESS":"大仁街１３０巷１０號","OBJECTID":436181},"geometry":{"x":181012.51999999955,"y":2539428.25}},{"attributes":{"ID":436207,"DIS_CODE":0,"TOWNNAME":"關廟區","LI":"五甲里","LIN":"4鄰","STREET":"南雄路","SECT":"一段","MAREA":" ","LANE":"８１８巷","ALLEY":" ","HOUSE_NO":"９號","E_COORD97":181418.29000000001,"N_COORD97":2539139.2799999998,"ADDRESS":"南雄路一段８１８巷９號","OBJECTID":436182},"geometry":{"x":181418.29000000004,"y":2539139.2799999975}},{"attributes":{"ID":436208,"DIS_CODE":0,"TOWNNAME":"關廟區","LI":"香洋里","LIN":"26鄰","STREET":"民權街","SECT":" ","MAREA":" ","LANE":"２２８巷","ALLEY":" ","HOUSE_NO":"１９號","E_COORD97":181131.14000000001,"N_COORD97":2539823.29,"ADDRESS":"民權街２２８巷１９號","OBJECTID":436183},"geometry":{"x":181131.14000000153,"y":2539823.2899999991}},{"attributes":{"ID":436209,"DIS_CODE":0,"TOWNNAME":"關廟區","LI":"香洋里","LIN":"25鄰","STREET":"民生街","SECT":" ","MAREA":" ","LANE":"２１８巷","ALLEY":" ","HOUSE_NO":"１９號","E_COORD97":180963.34,"N_COORD97":2539959.29,"ADDRESS":"民生街２１８巷１９號","OBJECTID":436184},"geometry":{"x":180963.33999999985,"y":2539959.2899999991}},{"attributes":{"ID":436210,"DIS_CODE":0,"TOWNNAME":"關廟區","LI":"北花里","LIN":"13鄰","STREET":"中正路","SECT":" ","MAREA":" ","LANE":"２６５巷","ALLEY":" ","HOUSE_NO":"５號","E_COORD97":183268.95999999999,"N_COORD97":2540838.25,"ADDRESS":"中正路２６５巷５號","OBJECTID":436185},"geometry":{"x":183268.96000000089,"y":2540838.25}},{"attributes":{"ID":436211,"DIS_CODE":0,"TOWNNAME":"關廟區","LI":"關廟里","LIN":"14鄰","STREET":"民生街","SECT":" ","MAREA":" ","LANE":"１１５巷","ALLEY":" ","HOUSE_NO":"１１號","E_COORD97":180803.23999999999,"N_COORD97":2539737.29,"ADDRESS":"民生街１１５巷１１號","OBJECTID":436186},"geometry":{"x":180803.24000000022,"y":2539737.290000001}},{"attributes":{"ID":436212,"DIS_CODE":0,"TOWNNAME":"關廟區","LI":"新埔里","LIN":"4鄰","STREET":"新埔三街","SECT":" ","MAREA":" ","LANE":"２７巷","ALLEY":" ","HOUSE_NO":"３５號","E_COORD97":181135.82000000001,"N_COORD97":2540884.25,"ADDRESS":"新埔三街２７巷３５號","OBJECTID":436187},"geometry":{"x":181135.82000000123,"y":2540884.2500000019}},{"attributes":{"ID":436213,"DIS_CODE":0,"TOWNNAME":"關廟區","LI":"新埔里","LIN":"4鄰","STREET":"新埔三街","SECT":" ","MAREA":" ","LANE":"２７巷","ALLEY":" ","HOUSE_NO":"３６號","E_COORD97":181124.62,"N_COORD97":2540901.25,"ADDRESS":"新埔三街２７巷３６號","OBJECTID":436188},"geometry":{"x":181124.62000000011,"y":2540901.2500000019}},{"attributes":{"ID":436214,"DIS_CODE":0,"TOWNNAME":"關廟區","LI":"北花里","LIN":"13鄰","STREET":"中正路","SECT":" ","MAREA":" ","LANE":"２６５巷","ALLEY":" ","HOUSE_NO":"３號","E_COORD97":183267.06,"N_COORD97":2540841.25,"ADDRESS":"中正路２６５巷３號","OBJECTID":436189},"geometry":{"x":183267.05999999959,"y":2540841.25}},{"attributes":{"ID":436215,"DIS_CODE":0,"TOWNNAME":"關廟區","LI":"香洋里","LIN":"14鄰","STREET":"仁愛路","SECT":" ","MAREA":" ","LANE":"１８巷","ALLEY":" ","HOUSE_NO":"１３號","E_COORD97":181312.69,"N_COORD97":2540089.2799999998,"ADDRESS":"仁愛路１８巷１３號","OBJECTID":436190},"geometry":{"x":181312.69000000041,"y":2540089.2800000012}},{"attributes":{"ID":436216,"DIS_CODE":0,"TOWNNAME":"關廟區","LI":"南花里","LIN":"4鄰","STREET":"園東街","SECT":" ","MAREA":" ","LANE":"６５巷","ALLEY":" ","HOUSE_NO":"１９號","E_COORD97":181994.70999999999,"N_COORD97":2540029.25,"ADDRESS":"園東街６５巷１９號","OBJECTID":436191},"geometry":{"x":181994.70999999996,"y":2540029.2500000019}},{"attributes":{"ID":436217,"DIS_CODE":0,"TOWNNAME":"關廟區","LI":"關廟里","LIN":"4鄰","STREET":"中山路","SECT":"二段","MAREA":" ","LANE":"１７０巷","ALLEY":" ","HOUSE_NO":"８號","E_COORD97":180786.06,"N_COORD97":2540120.2799999998,"ADDRESS":"中山路二段１７０巷８號","OBJECTID":436192},"geometry":{"x":180786.06000000052,"y":2540120.2800000012}},{"attributes":{"ID":436218,"DIS_CODE":0,"TOWNNAME":"關廟區","LI":"北花里","LIN":"20鄰","STREET":"中正路","SECT":" ","MAREA":" ","LANE":"１２７巷","ALLEY":" ","HOUSE_NO":"１５號","E_COORD97":183568.56,"N_COORD97":2540864.6200000001,"ADDRESS":"中正路１２７巷１５號","OBJECTID":436193},"geometry":{"x":183568.55999999959,"y":2540864.6200000048}},{"attributes":{"ID":436219,"DIS_CODE":0,"TOWNNAME":"關廟區","LI":"北花里","LIN":"4鄰","STREET":"中正路","SECT":" ","MAREA":" ","LANE":"６８１巷","ALLEY":" ","HOUSE_NO":"６號","E_COORD97":181976.16,"N_COORD97":2540356.25,"ADDRESS":"中正路６８１巷６號","OBJECTID":436194},"geometry":{"x":181976.16000000108,"y":2540356.25}},{"attributes":{"ID":436220,"DIS_CODE":0,"TOWNNAME":"關廟區","LI":"松腳里","LIN":"18鄰","STREET":"中山路","SECT":"一段","MAREA":" ","LANE":"８９巷","ALLEY":" ","HOUSE_NO":"３３號","E_COORD97":181933.76000000001,"N_COORD97":2539859.2799999998,"ADDRESS":"中山路一段８９巷３３號","OBJECTID":436195},"geometry":{"x":181933.75999999885,"y":2539859.2800000012}},{"attributes":{"ID":436221,"DIS_CODE":0,"TOWNNAME":"關廟區","LI":"香洋里","LIN":"26鄰","STREET":"民權街","SECT":" ","MAREA":" ","LANE":"２２８巷","ALLEY":" ","HOUSE_NO":"１６號","E_COORD97":181146.84,"N_COORD97":2539810.29,"ADDRESS":"民權街２２８巷１６號","OBJECTID":436196},"geometry":{"x":181146.84000000171,"y":2539810.2899999972}},{"attributes":{"ID":436222,"DIS_CODE":0,"TOWNNAME":"關廟區","LI":"香洋里","LIN":"24鄰","STREET":"民權街","SECT":" ","MAREA":" ","LANE":"２０８巷","ALLEY":" ","HOUSE_NO":"９號","E_COORD97":181180.09,"N_COORD97":2539853.29,"ADDRESS":"民權街２０８巷９號","OBJECTID":436197},"geometry":{"x":181180.08999999985,"y":2539853.2899999991}},{"attributes":{"ID":436223,"DIS_CODE":0,"TOWNNAME":"關廟區","LI":"深坑里","LIN":"14鄰","STREET":"南雄路","SECT":"一段","MAREA":" ","LANE":"３７７巷","ALLEY":" ","HOUSE_NO":"１５號","E_COORD97":181730.12,"N_COORD97":2537474.2999999998,"ADDRESS":"南雄路一段３７７巷１５號","OBJECTID":436198},"geometry":{"x":181730.12000000197,"y":2537474.3000000026}},{"attributes":{"ID":436224,"DIS_CODE":0,"TOWNNAME":"關廟區","LI":"南花里","LIN":"4鄰","STREET":"園東街","SECT":" ","MAREA":" ","LANE":"１巷","ALLEY":" ","HOUSE_NO":"７號","E_COORD97":182138.81,"N_COORD97":2540045.25,"ADDRESS":"園東街１巷７號","OBJECTID":436199},"geometry":{"x":182138.81000000052,"y":2540045.25}},{"attributes":{"ID":436225,"DIS_CODE":0,"TOWNNAME":"關廟區","LI":"五甲里","LIN":"4鄰","STREET":"南雄路","SECT":"一段","MAREA":" ","LANE":"８１８巷","ALLEY":" ","HOUSE_NO":"６號","E_COORD97":181415.98999999999,"N_COORD97":2539129.2799999998,"ADDRESS":"南雄路一段８１８巷６號","OBJECTID":436200},"geometry":{"x":181415.99000000115,"y":2539129.2800000031}}]}