{"displayFieldName":"TOWNNAME","fieldAliases":{"ID":"ID","DIS_CODE":"DIS_CODE","TOWNNAME":"TOWNNAME","LI":"LI","LIN":"LIN","STREET":"STREET","SECT":"SECT","MAREA":"MAREA","LANE":"LANE","ALLEY":"ALLEY","HOUSE_NO":"HOUSE_NO","E_COORD97":"E_COORD97","N_COORD97":"N_COORD97","ADDRESS":"ADDRESS","OBJECTID":"OBJECTID"},"geometryType":"esriGeometryPoint","spatialReference":{"wkid":102443,"latestWkid":3826},"fields":[{"name":"ID","type":"esriFieldTypeDouble","alias":"ID"},{"name":"DIS_CODE","type":"esriFieldTypeInteger","alias":"DIS_CODE"},{"name":"TOWNNAME","type":"esriFieldTypeString","alias":"TOWNNAME","length":8},{"name":"LI","type":"esriFieldTypeString","alias":"LI","length":8},{"name":"LIN","type":"esriFieldTypeString","alias":"LIN","length":12},{"name":"STREET","type":"esriFieldTypeString","alias":"STREET","length":20},{"name":"SECT","type":"esriFieldTypeString","alias":"SECT","length":8},{"name":"MAREA","type":"esriFieldTypeString","alias":"MAREA","length":12},{"name":"LANE","type":"esriFieldTypeString","alias":"LANE","length":10},{"name":"ALLEY","type":"esriFieldTypeString","alias":"ALLEY","length":10},{"name":"HOUSE_NO","type":"esriFieldTypeString","alias":"HOUSE_NO","length":20},{"name":"E_COORD97","type":"esriFieldTypeDouble","alias":"E_COORD97"},{"name":"N_COORD97","type":"esriFieldTypeDouble","alias":"N_COORD97"},{"name":"ADDRESS","type":"esriFieldTypeString","alias":"ADDRESS","length":50},{"name":"OBJECTID","type":"esriFieldTypeOID","alias":"OBJECTID"}],"features":[{"attributes":{"ID":616628,"DIS_CODE":0,"TOWNNAME":"安南區","LI":"佃東里","LIN":"2鄰","STREET":"海佃路","SECT":"四段","MAREA":" ","LANE":" ","ALLEY":" ","HOUSE_NO":"３２０號","E_COORD97":165610.97,"N_COORD97":2551362.1600000001,"ADDRESS":"海佃路四段３２０號","OBJECTID":616601},"geometry":{"x":165610.96999999974,"y":2551362.1600000001}},{"attributes":{"ID":616629,"DIS_CODE":0,"TOWNNAME":"安南區","LI":"佃東里","LIN":"2鄰","STREET":"海佃路","SECT":"四段","MAREA":" ","LANE":" ","ALLEY":" ","HOUSE_NO":"３２２號","E_COORD97":165611.07000000001,"N_COORD97":2551365.4199999999,"ADDRESS":"海佃路四段３２２號","OBJECTID":616602},"geometry":{"x":165611.07000000216,"y":2551365.4200000018}},{"attributes":{"ID":616630,"DIS_CODE":0,"TOWNNAME":"安南區","LI":"佃東里","LIN":"2鄰","STREET":"海佃路","SECT":"四段","MAREA":" ","LANE":" ","ALLEY":" ","HOUSE_NO":"３２６號","E_COORD97":165614.03,"N_COORD97":2551373.79,"ADDRESS":"海佃路四段３２６號","OBJECTID":616603},"geometry":{"x":165614.03000000026,"y":2551373.7899999991}},{"attributes":{"ID":616631,"DIS_CODE":0,"TOWNNAME":"安南區","LI":"佃東里","LIN":"2鄰","STREET":"海佃路","SECT":"四段","MAREA":" ","LANE":" ","ALLEY":" ","HOUSE_NO":"３３０號","E_COORD97":165612.19,"N_COORD97":2551382.5600000001,"ADDRESS":"海佃路四段３３０號","OBJECTID":616604},"geometry":{"x":165612.19000000134,"y":2551382.5600000024}},{"attributes":{"ID":616632,"DIS_CODE":0,"TOWNNAME":"安南區","LI":"佃東里","LIN":"2鄰","STREET":"海佃路","SECT":"四段","MAREA":" ","LANE":" ","ALLEY":" ","HOUSE_NO":"３３２號","E_COORD97":165613.10999999999,"N_COORD97":2551386.02,"ADDRESS":"海佃路四段３３２號","OBJECTID":616605},"geometry":{"x":165613.11000000127,"y":2551386.0199999996}},{"attributes":{"ID":616633,"DIS_CODE":0,"TOWNNAME":"安南區","LI":"佃東里","LIN":"2鄰","STREET":"海佃路","SECT":"四段","MAREA":" ","LANE":" ","ALLEY":" ","HOUSE_NO":"３３４號","E_COORD97":165613.72,"N_COORD97":2551390.7000000002,"ADDRESS":"海佃路四段３３４號","OBJECTID":616606},"geometry":{"x":165613.71999999974,"y":2551390.7000000011}},{"attributes":{"ID":616634,"DIS_CODE":0,"TOWNNAME":"安南區","LI":"佃東里","LIN":"2鄰","STREET":"海佃路","SECT":"四段","MAREA":" ","LANE":" ","ALLEY":" ","HOUSE_NO":"３６０號","E_COORD97":165610.57000000001,"N_COORD97":2551443.7400000002,"ADDRESS":"海佃路四段３６０號","OBJECTID":616607},"geometry":{"x":165610.5700000003,"y":2551443.7400000002}},{"attributes":{"ID":616635,"DIS_CODE":0,"TOWNNAME":"安南區","LI":"佃東里","LIN":"2鄰","STREET":"海佃路","SECT":"四段","MAREA":" ","LANE":" ","ALLEY":" ","HOUSE_NO":"３６２號","E_COORD97":165607.70999999999,"N_COORD97":2551454.6600000001,"ADDRESS":"海佃路四段３６２號","OBJECTID":616608},"geometry":{"x":165607.70999999996,"y":2551454.6600000001}},{"attributes":{"ID":616636,"DIS_CODE":0,"TOWNNAME":"安南區","LI":"佃東里","LIN":"2鄰","STREET":"海佃路","SECT":"四段","MAREA":" ","LANE":" ","ALLEY":" ","HOUSE_NO":"３７２號","E_COORD97":165609.54000000001,"N_COORD97":2551463.1099999999,"ADDRESS":"海佃路四段３７２號","OBJECTID":616609},"geometry":{"x":165609.54000000097,"y":2551463.1099999994}},{"attributes":{"ID":616637,"DIS_CODE":0,"TOWNNAME":"安南區","LI":"佃東里","LIN":"2鄰","STREET":"海佃路","SECT":"四段","MAREA":" ","LANE":" ","ALLEY":" ","HOUSE_NO":"３７６號","E_COORD97":165611.07000000001,"N_COORD97":2551469.3300000001,"ADDRESS":"海佃路四段３７６號","OBJECTID":616610},"geometry":{"x":165611.07000000216,"y":2551469.3300000001}},{"attributes":{"ID":616638,"DIS_CODE":0,"TOWNNAME":"安南區","LI":"佃東里","LIN":"2鄰","STREET":"海佃路","SECT":"四段","MAREA":" ","LANE":" ","ALLEY":" ","HOUSE_NO":"３８２號","E_COORD97":165608.41,"N_COORD97":2551485.3500000001,"ADDRESS":"海佃路四段３８２號","OBJECTID":616611},"geometry":{"x":165608.41000000015,"y":2551485.3500000015}},{"attributes":{"ID":616639,"DIS_CODE":0,"TOWNNAME":"安南區","LI":"佃東里","LIN":"2鄰","STREET":"海佃路","SECT":"四段","MAREA":" ","LANE":" ","ALLEY":" ","HOUSE_NO":"３８６號","E_COORD97":165609.23000000001,"N_COORD97":2551492.5899999999,"ADDRESS":"海佃路四段３８６號","OBJECTID":616612},"geometry":{"x":165609.23000000138,"y":2551492.5900000036}},{"attributes":{"ID":616640,"DIS_CODE":0,"TOWNNAME":"麻豆區","LI":"中興里","LIN":"2鄰","STREET":"中華街","SECT":" ","MAREA":" ","LANE":" ","ALLEY":" ","HOUSE_NO":"３２號","E_COORD97":172912.70999999999,"N_COORD97":2564674.3199999998,"ADDRESS":"中華街３２號","OBJECTID":616613},"geometry":{"x":172912.71000000183,"y":2564674.3200000022}},{"attributes":{"ID":616641,"DIS_CODE":0,"TOWNNAME":"安南區","LI":"溪心里","LIN":"2鄰","STREET":"海佃路","SECT":"二段","MAREA":" ","LANE":" ","ALLEY":" ","HOUSE_NO":"５６９號","E_COORD97":166597.62,"N_COORD97":2549367.7799999998,"ADDRESS":"海佃路二段５６９號","OBJECTID":616614},"geometry":{"x":166597.62000000104,"y":2549367.7799999993}},{"attributes":{"ID":616642,"DIS_CODE":0,"TOWNNAME":"安南區","LI":"溪心里","LIN":"2鄰","STREET":"海佃路","SECT":"二段","MAREA":" ","LANE":" ","ALLEY":" ","HOUSE_NO":"５８３號","E_COORD97":166578.48999999999,"N_COORD97":2549397.5600000001,"ADDRESS":"海佃路二段５８３號","OBJECTID":616615},"geometry":{"x":166578.49000000115,"y":2549397.5600000005}},{"attributes":{"ID":616643,"DIS_CODE":0,"TOWNNAME":"安南區","LI":"總頭里","LIN":"2鄰","STREET":"總安街","SECT":"二段","MAREA":" ","LANE":" ","ALLEY":" ","HOUSE_NO":"３３５號","E_COORD97":168362.60000000001,"N_COORD97":2550463.9500000002,"ADDRESS":"總安街二段３３５號","OBJECTID":616616},"geometry":{"x":168362.59999999963,"y":2550463.9499999993}},{"attributes":{"ID":616644,"DIS_CODE":0,"TOWNNAME":"安南區","LI":"安順里","LIN":"2鄰","STREET":"總安街","SECT":"一段","MAREA":" ","LANE":" ","ALLEY":" ","HOUSE_NO":"７０號","E_COORD97":169780.01000000001,"N_COORD97":2550126.54,"ADDRESS":"總安街一段７０號","OBJECTID":616617},"geometry":{"x":169780.01000000071,"y":2550126.540000001}},{"attributes":{"ID":616645,"DIS_CODE":0,"TOWNNAME":"安南區","LI":"安順里","LIN":"2鄰","STREET":"總安街","SECT":"一段","MAREA":" ","LANE":" ","ALLEY":" ","HOUSE_NO":"６８號","E_COORD97":169784.41,"N_COORD97":2550126.0800000001,"ADDRESS":"總安街一段６８號","OBJECTID":616618},"geometry":{"x":169784.41000000108,"y":2550126.0800000001}},{"attributes":{"ID":616646,"DIS_CODE":0,"TOWNNAME":"安南區","LI":"\u25A0南里","LIN":"2鄰","STREET":"安昌街","SECT":" ","MAREA":" ","LANE":" ","ALLEY":" ","HOUSE_NO":"１３６號","E_COORD97":170056.07000000001,"N_COORD97":2552351.3199999998,"ADDRESS":"安昌街１３６號","OBJECTID":616619},"geometry":{"x":170056.07000000123,"y":2552351.3200000003}},{"attributes":{"ID":616647,"DIS_CODE":0,"TOWNNAME":"安南區","LI":"\u25A0南里","LIN":"2鄰","STREET":"安昌街","SECT":" ","MAREA":" ","LANE":" ","ALLEY":" ","HOUSE_NO":"１３８號","E_COORD97":170057.19,"N_COORD97":2552355.3500000001,"ADDRESS":"安昌街１３８號","OBJECTID":616620},"geometry":{"x":170057.19000000134,"y":2552355.3500000015}},{"attributes":{"ID":616648,"DIS_CODE":0,"TOWNNAME":"安南區","LI":"\u25A0南里","LIN":"2鄰","STREET":"安昌街","SECT":" ","MAREA":" ","LANE":" ","ALLEY":" ","HOUSE_NO":"１４０號","E_COORD97":170058.76000000001,"N_COORD97":2552359.6000000001,"ADDRESS":"安昌街１４０號","OBJECTID":616621},"geometry":{"x":170058.75999999978,"y":2552359.5999999996}},{"attributes":{"ID":616649,"DIS_CODE":0,"TOWNNAME":"安南區","LI":"\u25A0南里","LIN":"2鄰","STREET":"安昌街","SECT":" ","MAREA":" ","LANE":" ","ALLEY":" ","HOUSE_NO":"１４１號","E_COORD97":170046.37,"N_COORD97":2552369.2599999998,"ADDRESS":"安昌街１４１號","OBJECTID":616622},"geometry":{"x":170046.37000000011,"y":2552369.2600000035}},{"attributes":{"ID":616650,"DIS_CODE":0,"TOWNNAME":"安南區","LI":"\u25A0南里","LIN":"2鄰","STREET":"安昌街","SECT":" ","MAREA":" ","LANE":" ","ALLEY":" ","HOUSE_NO":"１４６號","E_COORD97":170064.37,"N_COORD97":2552369.3500000001,"ADDRESS":"安昌街１４６號","OBJECTID":616623},"geometry":{"x":170064.37000000104,"y":2552369.3500000015}},{"attributes":{"ID":616651,"DIS_CODE":0,"TOWNNAME":"安南區","LI":"\u25A0南里","LIN":"2鄰","STREET":"安昌街","SECT":" ","MAREA":" ","LANE":" ","ALLEY":" ","HOUSE_NO":"１４９號","E_COORD97":170054.72,"N_COORD97":2552405.8900000001,"ADDRESS":"安昌街１４９號","OBJECTID":616624},"geometry":{"x":170054.72000000067,"y":2552405.8900000006}},{"attributes":{"ID":616652,"DIS_CODE":0,"TOWNNAME":"安南區","LI":"\u25A0南里","LIN":"2鄰","STREET":"安昌街","SECT":" ","MAREA":" ","LANE":" ","ALLEY":" ","HOUSE_NO":"１７５號","E_COORD97":170089.98999999999,"N_COORD97":2552453.1699999999,"ADDRESS":"安昌街１７５號","OBJECTID":616625},"geometry":{"x":170089.99000000022,"y":2552453.1700000018}},{"attributes":{"ID":616653,"DIS_CODE":0,"TOWNNAME":"安南區","LI":"淵中里","LIN":"2鄰","STREET":"安中路","SECT":"三段","MAREA":" ","LANE":" ","ALLEY":" ","HOUSE_NO":"４１１號","E_COORD97":165355.17000000001,"N_COORD97":2550026.6600000001,"ADDRESS":"安中路三段４１１號","OBJECTID":616626},"geometry":{"x":165355.16999999993,"y":2550026.6600000001}},{"attributes":{"ID":616654,"DIS_CODE":0,"TOWNNAME":"南區","LI":"喜北里","LIN":"2鄰","STREET":"喜樹路","SECT":" ","MAREA":" ","LANE":" ","ALLEY":" ","HOUSE_NO":"４８號","E_COORD97":165872.85999999999,"N_COORD97":2538574.25,"ADDRESS":"喜樹路４８號","OBJECTID":616627},"geometry":{"x":165872.86000000034,"y":2538574.2500000037}},{"attributes":{"ID":616655,"DIS_CODE":0,"TOWNNAME":"南區","LI":"喜北里","LIN":"2鄰","STREET":"喜樹路","SECT":" ","MAREA":" ","LANE":" ","ALLEY":" ","HOUSE_NO":"４６號","E_COORD97":165872.64999999999,"N_COORD97":2538577.96,"ADDRESS":"喜樹路４６號","OBJECTID":616628},"geometry":{"x":165872.65000000037,"y":2538577.9600000028}},{"attributes":{"ID":616656,"DIS_CODE":0,"TOWNNAME":"南區","LI":"喜北里","LIN":"2鄰","STREET":"喜樹路","SECT":" ","MAREA":" ","LANE":" ","ALLEY":" ","HOUSE_NO":"４２號","E_COORD97":165872.63,"N_COORD97":2538585.73,"ADDRESS":"喜樹路４２號","OBJECTID":616629},"geometry":{"x":165872.62999999989,"y":2538585.7300000023}},{"attributes":{"ID":616657,"DIS_CODE":0,"TOWNNAME":"南區","LI":"喜北里","LIN":"2鄰","STREET":"喜樹路","SECT":" ","MAREA":" ","LANE":" ","ALLEY":" ","HOUSE_NO":"４４號","E_COORD97":165873.09,"N_COORD97":2538581.9500000002,"ADDRESS":"喜樹路４４號","OBJECTID":616630},"geometry":{"x":165873.08999999892,"y":2538581.9499999993}},{"attributes":{"ID":616658,"DIS_CODE":0,"TOWNNAME":"南區","LI":"喜北里","LIN":"2鄰","STREET":"喜樹路","SECT":" ","MAREA":" ","LANE":" ","ALLEY":" ","HOUSE_NO":"５０號","E_COORD97":165872.54999999999,"N_COORD97":2538570.2999999998,"ADDRESS":"喜樹路５０號","OBJECTID":616631},"geometry":{"x":165872.55000000075,"y":2538570.3000000007}},{"attributes":{"ID":616659,"DIS_CODE":0,"TOWNNAME":"南區","LI":"喜北里","LIN":"2鄰","STREET":"喜樹路","SECT":" ","MAREA":" ","LANE":" ","ALLEY":" ","HOUSE_NO":"５４號","E_COORD97":165872.54999999999,"N_COORD97":2538562.4300000002,"ADDRESS":"喜樹路５４號","OBJECTID":616632},"geometry":{"x":165872.55000000075,"y":2538562.4300000034}},{"attributes":{"ID":616660,"DIS_CODE":0,"TOWNNAME":"永康區","LI":"神洲里","LIN":"2鄰","STREET":"忠孝路","SECT":" ","MAREA":" ","LANE":" ","ALLEY":" ","HOUSE_NO":"２６號","E_COORD97":172095.20999999999,"N_COORD97":2544630.4300000002,"ADDRESS":"忠孝路２６號","OBJECTID":616633},"geometry":{"x":172095.20999999996,"y":2544630.4299999997}},{"attributes":{"ID":616661,"DIS_CODE":0,"TOWNNAME":"南區","LI":"喜北里","LIN":"2鄰","STREET":"喜樹路","SECT":" ","MAREA":" ","LANE":" ","ALLEY":" ","HOUSE_NO":"５２號","E_COORD97":165872.51000000001,"N_COORD97":2538566.5699999998,"ADDRESS":"喜樹路５２號","OBJECTID":616634},"geometry":{"x":165872.51000000071,"y":2538566.5700000022}},{"attributes":{"ID":616662,"DIS_CODE":0,"TOWNNAME":"南區","LI":"喜東里","LIN":"2鄰","STREET":"明興路","SECT":" ","MAREA":" ","LANE":" ","ALLEY":" ","HOUSE_NO":"３９９號","E_COORD97":166343.56,"N_COORD97":2538869.6499999999,"ADDRESS":"明興路３９９號","OBJECTID":616635},"geometry":{"x":166343.55999999959,"y":2538869.6500000004}},{"attributes":{"ID":616663,"DIS_CODE":0,"TOWNNAME":"南區","LI":"喜東里","LIN":"2鄰","STREET":"明興路","SECT":" ","MAREA":" ","LANE":" ","ALLEY":" ","HOUSE_NO":"４０１號","E_COORD97":166342.89999999999,"N_COORD97":2538865.2799999998,"ADDRESS":"明興路４０１號","OBJECTID":616636},"geometry":{"x":166342.90000000224,"y":2538865.2800000012}},{"attributes":{"ID":616664,"DIS_CODE":0,"TOWNNAME":"南區","LI":"喜東里","LIN":"2鄰","STREET":"明興路","SECT":" ","MAREA":" ","LANE":" ","ALLEY":" ","HOUSE_NO":"４０３號","E_COORD97":166342.35000000001,"N_COORD97":2538861.1200000001,"ADDRESS":"明興路４０３號","OBJECTID":616637},"geometry":{"x":166342.3499999987,"y":2538861.1200000048}},{"attributes":{"ID":616665,"DIS_CODE":0,"TOWNNAME":"南區","LI":"喜東里","LIN":"2鄰","STREET":"明興路","SECT":" ","MAREA":" ","LANE":" ","ALLEY":" ","HOUSE_NO":"４０５號","E_COORD97":166341.35999999999,"N_COORD97":2538857.0699999998,"ADDRESS":"明興路４０５號","OBJECTID":616638},"geometry":{"x":166341.3600000022,"y":2538857.070000004}},{"attributes":{"ID":616666,"DIS_CODE":0,"TOWNNAME":"南區","LI":"喜東里","LIN":"2鄰","STREET":"明興路","SECT":" ","MAREA":" ","LANE":" ","ALLEY":" ","HOUSE_NO":"４０７號","E_COORD97":166340.04999999999,"N_COORD97":2538852.9300000002,"ADDRESS":"明興路４０７號","OBJECTID":616639},"geometry":{"x":166340.05000000075,"y":2538852.9299999997}},{"attributes":{"ID":616667,"DIS_CODE":0,"TOWNNAME":"南區","LI":"喜東里","LIN":"2鄰","STREET":"明興路","SECT":" ","MAREA":" ","LANE":" ","ALLEY":" ","HOUSE_NO":"４０９號","E_COORD97":166339.82999999999,"N_COORD97":2538848.6600000001,"ADDRESS":"明興路４０９號","OBJECTID":616640},"geometry":{"x":166339.83000000101,"y":2538848.6600000001}},{"attributes":{"ID":616668,"DIS_CODE":0,"TOWNNAME":"南區","LI":"喜東里","LIN":"2鄰","STREET":"明興路","SECT":" ","MAREA":" ","LANE":" ","ALLEY":" ","HOUSE_NO":"４１１號","E_COORD97":166338.73000000001,"N_COORD97":2538844.8300000001,"ADDRESS":"明興路４１１號","OBJECTID":616641},"geometry":{"x":166338.73000000045,"y":2538844.8299999982}},{"attributes":{"ID":616669,"DIS_CODE":0,"TOWNNAME":"南區","LI":"喜東里","LIN":"2鄰","STREET":"明興路","SECT":" ","MAREA":" ","LANE":" ","ALLEY":" ","HOUSE_NO":"４１３號","E_COORD97":166337.97,"N_COORD97":2538840.8900000001,"ADDRESS":"明興路４１３號","OBJECTID":616642},"geometry":{"x":166337.96999999974,"y":2538840.8900000006}},{"attributes":{"ID":616670,"DIS_CODE":0,"TOWNNAME":"南區","LI":"喜東里","LIN":"2鄰","STREET":"明興路","SECT":" ","MAREA":" ","LANE":" ","ALLEY":" ","HOUSE_NO":"４１７號","E_COORD97":166332.70999999999,"N_COORD97":2538830.8999999999,"ADDRESS":"明興路４１７號","OBJECTID":616643},"geometry":{"x":166332.71000000089,"y":2538830.9000000004}},{"attributes":{"ID":616671,"DIS_CODE":0,"TOWNNAME":"南區","LI":"喜東里","LIN":"2鄰","STREET":"明興路","SECT":" ","MAREA":" ","LANE":" ","ALLEY":" ","HOUSE_NO":"４１９號","E_COORD97":166331.94,"N_COORD97":2538827.0699999998,"ADDRESS":"明興路４１９號","OBJECTID":616644},"geometry":{"x":166331.94000000041,"y":2538827.0700000022}},{"attributes":{"ID":616672,"DIS_CODE":0,"TOWNNAME":"南區","LI":"喜東里","LIN":"2鄰","STREET":"明興路","SECT":" ","MAREA":" ","LANE":" ","ALLEY":" ","HOUSE_NO":"４２１號","E_COORD97":166330.91,"N_COORD97":2538823.5699999998,"ADDRESS":"明興路４２１號","OBJECTID":616645},"geometry":{"x":166330.91000000108,"y":2538823.5700000022}},{"attributes":{"ID":616673,"DIS_CODE":0,"TOWNNAME":"南區","LI":"喜東里","LIN":"2鄰","STREET":"明興路","SECT":" ","MAREA":" ","LANE":" ","ALLEY":" ","HOUSE_NO":"４２３號","E_COORD97":166330.03,"N_COORD97":2538819.0800000001,"ADDRESS":"明興路４２３號","OBJECTID":616646},"geometry":{"x":166330.03000000212,"y":2538819.0800000001}},{"attributes":{"ID":616674,"DIS_CODE":0,"TOWNNAME":"南區","LI":"喜東里","LIN":"2鄰","STREET":"明興路","SECT":" ","MAREA":" ","LANE":" ","ALLEY":" ","HOUSE_NO":"４２５號","E_COORD97":166329.16,"N_COORD97":2538814.1600000001,"ADDRESS":"明興路４２５號","OBJECTID":616647},"geometry":{"x":166329.16000000108,"y":2538814.1600000001}},{"attributes":{"ID":616675,"DIS_CODE":0,"TOWNNAME":"南區","LI":"喜東里","LIN":"2鄰","STREET":"明興路","SECT":" ","MAREA":" ","LANE":" ","ALLEY":" ","HOUSE_NO":"４２７號","E_COORD97":166328.17000000001,"N_COORD97":2538810.5499999998,"ADDRESS":"明興路４２７號","OBJECTID":616648},"geometry":{"x":166328.16999999993,"y":2538810.5500000045}},{"attributes":{"ID":616676,"DIS_CODE":0,"TOWNNAME":"南區","LI":"喜東里","LIN":"2鄰","STREET":"明興路","SECT":" ","MAREA":" ","LANE":" ","ALLEY":" ","HOUSE_NO":"４２９號","E_COORD97":166326.75,"N_COORD97":2538806.7200000002,"ADDRESS":"明興路４２９號","OBJECTID":616649},"geometry":{"x":166326.75000000093,"y":2538806.7200000025}},{"attributes":{"ID":616677,"DIS_CODE":0,"TOWNNAME":"南區","LI":"喜東里","LIN":"2鄰","STREET":"明興路","SECT":" ","MAREA":" ","LANE":" ","ALLEY":" ","HOUSE_NO":"４３１號","E_COORD97":166324.98999999999,"N_COORD97":2538802.7799999998,"ADDRESS":"明興路４３１號","OBJECTID":616650},"geometry":{"x":166324.99000000022,"y":2538802.7799999993}},{"attributes":{"ID":616678,"DIS_CODE":0,"TOWNNAME":"南區","LI":"喜東里","LIN":"2鄰","STREET":"明興路","SECT":" ","MAREA":" ","LANE":" ","ALLEY":" ","HOUSE_NO":"４３３號","E_COORD97":166324.45000000001,"N_COORD97":2538798.5099999998,"ADDRESS":"明興路４３３號","OBJECTID":616651},"geometry":{"x":166324.45000000112,"y":2538798.5099999998}},{"attributes":{"ID":616679,"DIS_CODE":0,"TOWNNAME":"南區","LI":"喜東里","LIN":"2鄰","STREET":"明興路","SECT":" ","MAREA":" ","LANE":" ","ALLEY":" ","HOUSE_NO":"４３５號","E_COORD97":166323.13,"N_COORD97":2538793.04,"ADDRESS":"明興路４３５號","OBJECTID":616652},"geometry":{"x":166323.12999999989,"y":2538793.040000001}},{"attributes":{"ID":616680,"DIS_CODE":0,"TOWNNAME":"永康區","LI":"埔園里","LIN":"2鄰","STREET":"永埔街","SECT":" ","MAREA":" ","LANE":" ","ALLEY":" ","HOUSE_NO":"８９號","E_COORD97":173939.70000000001,"N_COORD97":2547733.9900000002,"ADDRESS":"永埔街８９號","OBJECTID":616653},"geometry":{"x":173939.70000000019,"y":2547733.9900000021}},{"attributes":{"ID":616681,"DIS_CODE":0,"TOWNNAME":"永康區","LI":"埔園里","LIN":"2鄰","STREET":"聖龍街","SECT":" ","MAREA":" ","LANE":" ","ALLEY":" ","HOUSE_NO":"１８號","E_COORD97":173823.17999999999,"N_COORD97":2547772.75,"ADDRESS":"聖龍街１８號","OBJECTID":616654},"geometry":{"x":173823.18000000063,"y":2547772.7500000019}},{"attributes":{"ID":616682,"DIS_CODE":0,"TOWNNAME":"永康區","LI":"埔園里","LIN":"2鄰","STREET":"永埔街","SECT":" ","MAREA":" ","LANE":" ","ALLEY":" ","HOUSE_NO":"１３２號","E_COORD97":173974.20999999999,"N_COORD97":2547708.9900000002,"ADDRESS":"永埔街１３２號","OBJECTID":616655},"geometry":{"x":173974.21000000089,"y":2547708.9900000002}},{"attributes":{"ID":616683,"DIS_CODE":0,"TOWNNAME":"永康區","LI":"埔園里","LIN":"2鄰","STREET":"中山路","SECT":" ","MAREA":" ","LANE":" ","ALLEY":" ","HOUSE_NO":"１０２號","E_COORD97":173806.97,"N_COORD97":2547675.25,"ADDRESS":"中山路１０２號","OBJECTID":616656},"geometry":{"x":173806.96999999974,"y":2547675.2500000019}},{"attributes":{"ID":616684,"DIS_CODE":0,"TOWNNAME":"永康區","LI":"神洲里","LIN":"2鄰","STREET":"忠孝路","SECT":" ","MAREA":" ","LANE":" ","ALLEY":" ","HOUSE_NO":"２８號","E_COORD97":172095.57999999999,"N_COORD97":2544634.4300000002,"ADDRESS":"忠孝路２８號","OBJECTID":616657},"geometry":{"x":172095.58000000101,"y":2544634.4299999978}},{"attributes":{"ID":616685,"DIS_CODE":0,"TOWNNAME":"永康區","LI":"埔園里","LIN":"2鄰","STREET":"中山路","SECT":" ","MAREA":" ","LANE":" ","ALLEY":" ","HOUSE_NO":"１２８號","E_COORD97":173792.19,"N_COORD97":2547738.9900000002,"ADDRESS":"中山路１２８號","OBJECTID":616658},"geometry":{"x":173792.19000000041,"y":2547738.9900000002}},{"attributes":{"ID":616686,"DIS_CODE":0,"TOWNNAME":"永康區","LI":"埔園里","LIN":"2鄰","STREET":"永埔街","SECT":" ","MAREA":" ","LANE":" ","ALLEY":" ","HOUSE_NO":"１４８號","E_COORD97":173965.91,"N_COORD97":2547732.2400000002,"ADDRESS":"永埔街１４８號","OBJECTID":616659},"geometry":{"x":173965.91000000201,"y":2547732.2400000021}},{"attributes":{"ID":616687,"DIS_CODE":0,"TOWNNAME":"永康區","LI":"埔園里","LIN":"2鄰","STREET":"永埔街","SECT":" ","MAREA":" ","LANE":" ","ALLEY":" ","HOUSE_NO":"１５０號","E_COORD97":173964.82000000001,"N_COORD97":2547736.2400000002,"ADDRESS":"永埔街１５０號","OBJECTID":616660},"geometry":{"x":173964.81999999937,"y":2547736.2400000021}},{"attributes":{"ID":616688,"DIS_CODE":0,"TOWNNAME":"永康區","LI":"埔園里","LIN":"2鄰","STREET":"中山路","SECT":" ","MAREA":" ","LANE":" ","ALLEY":" ","HOUSE_NO":"１２６號","E_COORD97":173793.44,"N_COORD97":2547734.4900000002,"ADDRESS":"中山路１２６號","OBJECTID":616661},"geometry":{"x":173793.44000000134,"y":2547734.4900000021}},{"attributes":{"ID":616689,"DIS_CODE":0,"TOWNNAME":"永康區","LI":"埔園里","LIN":"2鄰","STREET":"中山路","SECT":" ","MAREA":" ","LANE":" ","ALLEY":" ","HOUSE_NO":"１１８號","E_COORD97":173798.64999999999,"N_COORD97":2547711.9900000002,"ADDRESS":"中山路１１８號","OBJECTID":616662},"geometry":{"x":173798.6500000013,"y":2547711.9900000002}},{"attributes":{"ID":616690,"DIS_CODE":0,"TOWNNAME":"永康區","LI":"南灣里","LIN":"2鄰","STREET":"大灣路","SECT":" ","MAREA":" ","LANE":" ","ALLEY":" ","HOUSE_NO":"４６３號","E_COORD97":174656.23000000001,"N_COORD97":2544695.8199999998,"ADDRESS":"大灣路４６３號","OBJECTID":616663},"geometry":{"x":174656.23000000138,"y":2544695.8200000003}},{"attributes":{"ID":616691,"DIS_CODE":0,"TOWNNAME":"永康區","LI":"南灣里","LIN":"2鄰","STREET":"大灣路","SECT":" ","MAREA":" ","LANE":" ","ALLEY":" ","HOUSE_NO":"４９１號","E_COORD97":174632.66,"N_COORD97":2544649.3399999999,"ADDRESS":"大灣路４９１號","OBJECTID":616664},"geometry":{"x":174632.66000000108,"y":2544649.3400000017}},{"attributes":{"ID":616692,"DIS_CODE":0,"TOWNNAME":"永康區","LI":"南灣里","LIN":"2鄰","STREET":"大灣路","SECT":" ","MAREA":" ","LANE":" ","ALLEY":" ","HOUSE_NO":"４７７號","E_COORD97":174642.07000000001,"N_COORD97":2544666.3399999999,"ADDRESS":"大灣路４７７號","OBJECTID":616665},"geometry":{"x":174642.07000000123,"y":2544666.3400000017}},{"attributes":{"ID":616693,"DIS_CODE":0,"TOWNNAME":"永康區","LI":"南灣里","LIN":"2鄰","STREET":"大灣一街","SECT":" ","MAREA":" ","LANE":" ","ALLEY":" ","HOUSE_NO":"１４５號","E_COORD97":174661.20000000001,"N_COORD97":2544632.7400000002,"ADDRESS":"大灣一街１４５號","OBJECTID":616666},"geometry":{"x":174661.20000000112,"y":2544632.7400000002}},{"attributes":{"ID":616694,"DIS_CODE":0,"TOWNNAME":"永康區","LI":"烏竹里","LIN":"2鄰","STREET":"烏竹街","SECT":" ","MAREA":" ","LANE":" ","ALLEY":" ","HOUSE_NO":"８６號","E_COORD97":174526.51999999999,"N_COORD97":2549453.0800000001,"ADDRESS":"烏竹街８６號","OBJECTID":616667},"geometry":{"x":174526.51999999955,"y":2549453.0800000019}},{"attributes":{"ID":616695,"DIS_CODE":0,"TOWNNAME":"永康區","LI":"南灣里","LIN":"2鄰","STREET":"大灣路","SECT":" ","MAREA":" ","LANE":" ","ALLEY":" ","HOUSE_NO":"４４５號","E_COORD97":174676.54999999999,"N_COORD97":2544737.23,"ADDRESS":"大灣路４４５號","OBJECTID":616668},"geometry":{"x":174676.55000000168,"y":2544737.2300000004}},{"attributes":{"ID":616696,"DIS_CODE":0,"TOWNNAME":"永康區","LI":"南灣里","LIN":"2鄰","STREET":"大灣路","SECT":" ","MAREA":" ","LANE":" ","ALLEY":" ","HOUSE_NO":"４７１號","E_COORD97":174648.5,"N_COORD97":2544679.52,"ADDRESS":"大灣路４７１號","OBJECTID":616669},"geometry":{"x":174648.50000000093,"y":2544679.5200000014}},{"attributes":{"ID":616697,"DIS_CODE":0,"TOWNNAME":"永康區","LI":"埔園里","LIN":"2鄰","STREET":"聖龍街","SECT":" ","MAREA":" ","LANE":" ","ALLEY":" ","HOUSE_NO":"２０號","E_COORD97":173827.10999999999,"N_COORD97":2547776,"ADDRESS":"聖龍街２０號","OBJECTID":616670},"geometry":{"x":173827.11000000034,"y":2547776}},{"attributes":{"ID":616698,"DIS_CODE":0,"TOWNNAME":"安南區","LI":"公\u25A0里","LIN":"2鄰","STREET":"安興街","SECT":" ","MAREA":" ","LANE":" ","ALLEY":" ","HOUSE_NO":"６２號","E_COORD97":164281.32000000001,"N_COORD97":2552268.3599999999,"ADDRESS":"安興街６２號","OBJECTID":616671},"geometry":{"x":164281.3200000003,"y":2552268.3599999994}},{"attributes":{"ID":616699,"DIS_CODE":0,"TOWNNAME":"安南區","LI":"城東里","LIN":"2鄰","STREET":"城北路","SECT":" ","MAREA":" ","LANE":" ","ALLEY":" ","HOUSE_NO":"２２０號","E_COORD97":161005.60000000001,"N_COORD97":2551848.48,"ADDRESS":"城北路２２０號","OBJECTID":616672},"geometry":{"x":161005.59999999963,"y":2551848.4800000004}},{"attributes":{"ID":616700,"DIS_CODE":0,"TOWNNAME":"安南區","LI":"城東里","LIN":"2鄰","STREET":"城北路","SECT":" ","MAREA":" ","LANE":" ","ALLEY":" ","HOUSE_NO":"２３６號","E_COORD97":161006.78,"N_COORD97":2551888.4399999999,"ADDRESS":"城北路２３６號","OBJECTID":616673},"geometry":{"x":161006.78000000026,"y":2551888.4399999995}},{"attributes":{"ID":616701,"DIS_CODE":0,"TOWNNAME":"安南區","LI":"城北里","LIN":"2鄰","STREET":"城北路","SECT":" ","MAREA":" ","LANE":" ","ALLEY":" ","HOUSE_NO":"５４號","E_COORD97":160946.54000000001,"N_COORD97":2551521.9300000002,"ADDRESS":"城北路５４號","OBJECTID":616674},"geometry":{"x":160946.54000000097,"y":2551521.9300000016}},{"attributes":{"ID":616702,"DIS_CODE":0,"TOWNNAME":"安南區","LI":"城北里","LIN":"2鄰","STREET":"城北路","SECT":" ","MAREA":" ","LANE":" ","ALLEY":" ","HOUSE_NO":"５８號","E_COORD97":160951.67999999999,"N_COORD97":2551525.1200000001,"ADDRESS":"城北路５８號","OBJECTID":616675},"geometry":{"x":160951.68000000063,"y":2551525.1200000029}},{"attributes":{"ID":616703,"DIS_CODE":0,"TOWNNAME":"安南區","LI":"城北里","LIN":"2鄰","STREET":"城北路","SECT":" ","MAREA":" ","LANE":" ","ALLEY":" ","HOUSE_NO":"６０號","E_COORD97":160955.29999999999,"N_COORD97":2551529.1499999999,"ADDRESS":"城北路６０號","OBJECTID":616676},"geometry":{"x":160955.29999999981,"y":2551529.1500000004}},{"attributes":{"ID":616704,"DIS_CODE":0,"TOWNNAME":"安南區","LI":"城北里","LIN":"2鄰","STREET":"城北路","SECT":" ","MAREA":" ","LANE":" ","ALLEY":" ","HOUSE_NO":"６２號","E_COORD97":160959.06,"N_COORD97":2551531.6499999999,"ADDRESS":"城北路６２號","OBJECTID":616677},"geometry":{"x":160959.06000000052,"y":2551531.6500000004}},{"attributes":{"ID":616705,"DIS_CODE":0,"TOWNNAME":"安南區","LI":"城北里","LIN":"2鄰","STREET":"城北路","SECT":" ","MAREA":" ","LANE":" ","ALLEY":" ","HOUSE_NO":"７０號","E_COORD97":160970.28,"N_COORD97":2551541.2000000002,"ADDRESS":"城北路７０號","OBJECTID":616678},"geometry":{"x":160970.28000000119,"y":2551541.1999999993}},{"attributes":{"ID":616706,"DIS_CODE":0,"TOWNNAME":"安南區","LI":"城北里","LIN":"2鄰","STREET":"城北路","SECT":" ","MAREA":" ","LANE":" ","ALLEY":" ","HOUSE_NO":"７４號","E_COORD97":160975.14999999999,"N_COORD97":2551546.6200000001,"ADDRESS":"城北路７４號","OBJECTID":616679},"geometry":{"x":160975.15000000037,"y":2551546.620000001}},{"attributes":{"ID":616707,"DIS_CODE":0,"TOWNNAME":"安南區","LI":"城北里","LIN":"2鄰","STREET":"城北路","SECT":" ","MAREA":" ","LANE":" ","ALLEY":" ","HOUSE_NO":"７６號","E_COORD97":160979.32000000001,"N_COORD97":2551550.6499999999,"ADDRESS":"城北路７６號","OBJECTID":616680},"geometry":{"x":160979.3200000003,"y":2551550.6500000022}},{"attributes":{"ID":616708,"DIS_CODE":0,"TOWNNAME":"安南區","LI":"城北里","LIN":"2鄰","STREET":"城北路","SECT":" ","MAREA":" ","LANE":" ","ALLEY":" ","HOUSE_NO":"８２號","E_COORD97":160987.60999999999,"N_COORD97":2551559.8700000001,"ADDRESS":"城北路８２號","OBJECTID":616681},"geometry":{"x":160987.61000000034,"y":2551559.8700000048}},{"attributes":{"ID":616709,"DIS_CODE":0,"TOWNNAME":"新市區","LI":"新和里","LIN":"2鄰","STREET":"中山路","SECT":" ","MAREA":" ","LANE":" ","ALLEY":" ","HOUSE_NO":"２６８號","E_COORD97":177376.98999999999,"N_COORD97":2552003,"ADDRESS":"中山路２６８號","OBJECTID":616682},"geometry":{"x":177376.99000000022,"y":2552003.0000000019}},{"attributes":{"ID":616710,"DIS_CODE":0,"TOWNNAME":"新市區","LI":"新和里","LIN":"2鄰","STREET":"中山路","SECT":" ","MAREA":" ","LANE":" ","ALLEY":" ","HOUSE_NO":"２４４號","E_COORD97":177431.23999999999,"N_COORD97":2552040.75,"ADDRESS":"中山路２４４號","OBJECTID":616683},"geometry":{"x":177431.24000000022,"y":2552040.7500000037}},{"attributes":{"ID":616711,"DIS_CODE":0,"TOWNNAME":"新市區","LI":"新和里","LIN":"2鄰","STREET":"中山路","SECT":" ","MAREA":" ","LANE":" ","ALLEY":" ","HOUSE_NO":"２３６號","E_COORD97":177446.13,"N_COORD97":2552048.25,"ADDRESS":"中山路２３６號","OBJECTID":616684},"geometry":{"x":177446.13000000175,"y":2552048.2500000019}},{"attributes":{"ID":616712,"DIS_CODE":0,"TOWNNAME":"新市區","LI":"新和里","LIN":"2鄰","STREET":"中山路","SECT":" ","MAREA":" ","LANE":" ","ALLEY":" ","HOUSE_NO":"２５０號","E_COORD97":177421.23999999999,"N_COORD97":2552034,"ADDRESS":"中山路２５０號","OBJECTID":616685},"geometry":{"x":177421.24000000022,"y":2552034.0000000019}},{"attributes":{"ID":616713,"DIS_CODE":0,"TOWNNAME":"佳里區","LI":"六安里","LIN":"8鄰","STREET":"六合街","SECT":" ","MAREA":" ","LANE":" ","ALLEY":" ","HOUSE_NO":"３０號","E_COORD97":165991.14000000001,"N_COORD97":2562893.2999999998,"ADDRESS":"六合街３０號","OBJECTID":616686},"geometry":{"x":165991.13999999966,"y":2562893.3000000007}},{"attributes":{"ID":616714,"DIS_CODE":0,"TOWNNAME":"佳里區","LI":"六安里","LIN":"8鄰","STREET":"六合街","SECT":" ","MAREA":" ","LANE":" ","ALLEY":" ","HOUSE_NO":"３２號","E_COORD97":165991.62,"N_COORD97":2562899.7999999998,"ADDRESS":"六合街３２號","OBJECTID":616687},"geometry":{"x":165991.62000000011,"y":2562899.8000000007}},{"attributes":{"ID":616715,"DIS_CODE":0,"TOWNNAME":"佳里區","LI":"六安里","LIN":"8鄰","STREET":"六合街","SECT":" ","MAREA":" ","LANE":" ","ALLEY":" ","HOUSE_NO":"３４號","E_COORD97":166008.01000000001,"N_COORD97":2562894.1600000001,"ADDRESS":"六合街３４號","OBJECTID":616688},"geometry":{"x":166008.01000000071,"y":2562894.1600000039}},{"attributes":{"ID":616716,"DIS_CODE":0,"TOWNNAME":"佳里區","LI":"六安里","LIN":"8鄰","STREET":"六合街","SECT":" ","MAREA":" ","LANE":" ","ALLEY":" ","HOUSE_NO":"３６號","E_COORD97":166014.51999999999,"N_COORD97":2562893.5,"ADDRESS":"六合街３６號","OBJECTID":616689},"geometry":{"x":166014.52000000048,"y":2562893.5}},{"attributes":{"ID":616717,"DIS_CODE":0,"TOWNNAME":"佳里區","LI":"六安里","LIN":"8鄰","STREET":"六合街","SECT":" ","MAREA":" ","LANE":" ","ALLEY":" ","HOUSE_NO":"４０號","E_COORD97":166026.32000000001,"N_COORD97":2562893.1000000001,"ADDRESS":"六合街４０號","OBJECTID":616690},"geometry":{"x":166026.32000000216,"y":2562893.0999999996}},{"attributes":{"ID":616718,"DIS_CODE":0,"TOWNNAME":"佳里區","LI":"六安里","LIN":"8鄰","STREET":"六合街","SECT":" ","MAREA":" ","LANE":" ","ALLEY":" ","HOUSE_NO":"４２號","E_COORD97":166031.73999999999,"N_COORD97":2562893.3300000001,"ADDRESS":"六合街４２號","OBJECTID":616691},"geometry":{"x":166031.74000000022,"y":2562893.3300000019}},{"attributes":{"ID":616719,"DIS_CODE":0,"TOWNNAME":"佳里區","LI":"六安里","LIN":"8鄰","STREET":"六合街","SECT":" ","MAREA":" ","LANE":" ","ALLEY":" ","HOUSE_NO":"４６號","E_COORD97":165992.94,"N_COORD97":2562910.8300000001,"ADDRESS":"六合街４６號","OBJECTID":616692},"geometry":{"x":165992.94000000041,"y":2562910.8300000019}},{"attributes":{"ID":616720,"DIS_CODE":0,"TOWNNAME":"佳里區","LI":"六安里","LIN":"8鄰","STREET":"六合街","SECT":" ","MAREA":" ","LANE":" ","ALLEY":" ","HOUSE_NO":"４８號","E_COORD97":165993.06,"N_COORD97":2562916.2200000002,"ADDRESS":"六合街４８號","OBJECTID":616693},"geometry":{"x":165993.05999999959,"y":2562916.2200000025}},{"attributes":{"ID":616721,"DIS_CODE":0,"TOWNNAME":"佳里區","LI":"六安里","LIN":"8鄰","STREET":"六合街","SECT":" ","MAREA":" ","LANE":" ","ALLEY":" ","HOUSE_NO":"５０號","E_COORD97":165993.29999999999,"N_COORD97":2562921.8599999999,"ADDRESS":"六合街５０號","OBJECTID":616694},"geometry":{"x":165993.29999999981,"y":2562921.8599999994}},{"attributes":{"ID":616722,"DIS_CODE":0,"TOWNNAME":"佳里區","LI":"六安里","LIN":"8鄰","STREET":"六合街","SECT":" ","MAREA":" ","LANE":" ","ALLEY":" ","HOUSE_NO":"５２號","E_COORD97":165993.85999999999,"N_COORD97":2562928.3399999999,"ADDRESS":"六合街５２號","OBJECTID":616695},"geometry":{"x":165993.8600000022,"y":2562928.3399999999}},{"attributes":{"ID":616723,"DIS_CODE":0,"TOWNNAME":"佳里區","LI":"六安里","LIN":"7鄰","STREET":"六合街","SECT":" ","MAREA":" ","LANE":" ","ALLEY":" ","HOUSE_NO":"５４號","E_COORD97":166013.5,"N_COORD97":2562914.4300000002,"ADDRESS":"六合街５４號","OBJECTID":616696},"geometry":{"x":166013.50000000093,"y":2562914.4299999997}},{"attributes":{"ID":616724,"DIS_CODE":0,"TOWNNAME":"佳里區","LI":"六安里","LIN":"7鄰","STREET":"六合街","SECT":" ","MAREA":" ","LANE":" ","ALLEY":" ","HOUSE_NO":"５６號","E_COORD97":166019.94,"N_COORD97":2562914.6699999999,"ADDRESS":"六合街５６號","OBJECTID":616697},"geometry":{"x":166019.94000000041,"y":2562914.6700000018}},{"attributes":{"ID":616725,"DIS_CODE":0,"TOWNNAME":"佳里區","LI":"六安里","LIN":"7鄰","STREET":"六合街","SECT":" ","MAREA":" ","LANE":" ","ALLEY":" ","HOUSE_NO":"５８號","E_COORD97":166025.97,"N_COORD97":2562914.52,"ADDRESS":"六合街５８號","OBJECTID":616698},"geometry":{"x":166025.96999999974,"y":2562914.5199999996}},{"attributes":{"ID":616726,"DIS_CODE":0,"TOWNNAME":"佳里區","LI":"六安里","LIN":"7鄰","STREET":"六合街","SECT":" ","MAREA":" ","LANE":" ","ALLEY":" ","HOUSE_NO":"６０號","E_COORD97":166032.22,"N_COORD97":2562914.4300000002,"ADDRESS":"六合街６０號","OBJECTID":616699},"geometry":{"x":166032.22000000067,"y":2562914.4299999997}},{"attributes":{"ID":616727,"DIS_CODE":0,"TOWNNAME":"佳里區","LI":"六安里","LIN":"7鄰","STREET":"六合街","SECT":" ","MAREA":" ","LANE":" ","ALLEY":" ","HOUSE_NO":"６２號","E_COORD97":166033.70999999999,"N_COORD97":2562944.3199999998,"ADDRESS":"六合街６２號","OBJECTID":616700},"geometry":{"x":166033.71000000089,"y":2562944.320000004}},{"attributes":{"ID":616728,"DIS_CODE":0,"TOWNNAME":"佳里區","LI":"六安里","LIN":"7鄰","STREET":"六合街","SECT":" ","MAREA":" ","LANE":" ","ALLEY":" ","HOUSE_NO":"６４號","E_COORD97":166027.51000000001,"N_COORD97":2562944.5,"ADDRESS":"六合街６４號","OBJECTID":616701},"geometry":{"x":166027.50999999978,"y":2562944.5}},{"attributes":{"ID":616729,"DIS_CODE":0,"TOWNNAME":"佳里區","LI":"六安里","LIN":"7鄰","STREET":"六合街","SECT":" ","MAREA":" ","LANE":" ","ALLEY":" ","HOUSE_NO":"６６號","E_COORD97":166021.19,"N_COORD97":2562944.6899999999,"ADDRESS":"六合街６６號","OBJECTID":616702},"geometry":{"x":166021.19000000134,"y":2562944.6900000013}},{"attributes":{"ID":616730,"DIS_CODE":0,"TOWNNAME":"佳里區","LI":"六安里","LIN":"9鄰","STREET":"六合街","SECT":" ","MAREA":" ","LANE":" ","ALLEY":" ","HOUSE_NO":"５３號","E_COORD97":165975.5,"N_COORD97":2563019.8599999999,"ADDRESS":"六合街５３號","OBJECTID":616703},"geometry":{"x":165975.5,"y":2563019.8599999994}},{"attributes":{"ID":616731,"DIS_CODE":0,"TOWNNAME":"佳里區","LI":"六安里","LIN":"9鄰","STREET":"六合街","SECT":" ","MAREA":" ","LANE":" ","ALLEY":" ","HOUSE_NO":"５３號地下一層","E_COORD97":165975.5,"N_COORD97":2563019.8599999999,"ADDRESS":"六合街５３號地下一層","OBJECTID":616704},"geometry":{"x":165975.5,"y":2563019.8599999994}},{"attributes":{"ID":616732,"DIS_CODE":0,"TOWNNAME":"佳里區","LI":"六安里","LIN":"9鄰","STREET":"六合街","SECT":" ","MAREA":" ","LANE":" ","ALLEY":" ","HOUSE_NO":"５５號","E_COORD97":165975.34,"N_COORD97":2563024.2400000002,"ADDRESS":"六合街５５號","OBJECTID":616705},"geometry":{"x":165975.34000000078,"y":2563024.2400000002}},{"attributes":{"ID":616733,"DIS_CODE":0,"TOWNNAME":"佳里區","LI":"六安里","LIN":"8鄰","STREET":"六合街","SECT":" ","MAREA":" ","LANE":" ","ALLEY":" ","HOUSE_NO":"９號","E_COORD97":165961.97,"N_COORD97":2562857.8599999999,"ADDRESS":"六合街９號","OBJECTID":616706},"geometry":{"x":165961.9700000016,"y":2562857.8599999975}},{"attributes":{"ID":616734,"DIS_CODE":0,"TOWNNAME":"東區","LI":"裕聖里","LIN":"1鄰","STREET":"裕文路","SECT":" ","MAREA":" ","LANE":" ","ALLEY":" ","HOUSE_NO":"８２號","E_COORD97":172287.07999999999,"N_COORD97":2542540.1899999999,"ADDRESS":"裕文路８２號","OBJECTID":616707},"geometry":{"x":172287.08000000101,"y":2542540.1899999995}},{"attributes":{"ID":616735,"DIS_CODE":0,"TOWNNAME":"佳里區","LI":"六安里","LIN":"9鄰","STREET":"六合街","SECT":" ","MAREA":" ","LANE":" ","ALLEY":" ","HOUSE_NO":"８２號地下一層","E_COORD97":166001.82999999999,"N_COORD97":2563018.4700000002,"ADDRESS":"六合街８２號地下一層","OBJECTID":616708},"geometry":{"x":166001.83000000007,"y":2563018.4700000025}},{"attributes":{"ID":616736,"DIS_CODE":0,"TOWNNAME":"佳里區","LI":"六安里","LIN":"9鄰","STREET":"六合街","SECT":" ","MAREA":" ","LANE":" ","ALLEY":" ","HOUSE_NO":"８６號","E_COORD97":166002.60999999999,"N_COORD97":2563023.3399999999,"ADDRESS":"六合街８６號","OBJECTID":616709},"geometry":{"x":166002.61000000127,"y":2563023.3399999999}},{"attributes":{"ID":616737,"DIS_CODE":0,"TOWNNAME":"東區","LI":"和平里","LIN":"2鄰","STREET":"文化路","SECT":" ","MAREA":" ","LANE":" ","ALLEY":" ","HOUSE_NO":"１２３號","E_COORD97":171352.91,"N_COORD97":2542027.5699999998,"ADDRESS":"文化路１２３號","OBJECTID":616710},"geometry":{"x":171352.91000000015,"y":2542027.5700000022}},{"attributes":{"ID":616738,"DIS_CODE":0,"TOWNNAME":"東區","LI":"和平里","LIN":"2鄰","STREET":"文化路","SECT":" ","MAREA":" ","LANE":" ","ALLEY":" ","HOUSE_NO":"１２５號","E_COORD97":171353.39999999999,"N_COORD97":2542033.2999999998,"ADDRESS":"文化路１２５號","OBJECTID":616711},"geometry":{"x":171353.40000000037,"y":2542033.3000000026}},{"attributes":{"ID":616739,"DIS_CODE":0,"TOWNNAME":"東區","LI":"東門里","LIN":"2鄰","STREET":"北門路","SECT":"一段","MAREA":" ","LANE":" ","ALLEY":" ","HOUSE_NO":"２４號","E_COORD97":169174.23999999999,"N_COORD97":2543396.1200000001,"ADDRESS":"北門路一段２４號","OBJECTID":616712},"geometry":{"x":169174.24000000022,"y":2543396.120000001}},{"attributes":{"ID":616740,"DIS_CODE":0,"TOWNNAME":"善化區","LI":"坐駕里","LIN":"2鄰","STREET":"中興路","SECT":" ","MAREA":" ","LANE":" ","ALLEY":" ","HOUSE_NO":"８號","E_COORD97":177778.85999999999,"N_COORD97":2559008.25,"ADDRESS":"中興路８號","OBJECTID":616713},"geometry":{"x":177778.8600000022,"y":2559008.2500000037}},{"attributes":{"ID":616741,"DIS_CODE":0,"TOWNNAME":"東區","LI":"裕聖里","LIN":"2鄰","STREET":"裕信路","SECT":" ","MAREA":" ","LANE":" ","ALLEY":" ","HOUSE_NO":"３２０之１５號","E_COORD97":172518.28,"N_COORD97":2542475.2000000002,"ADDRESS":"裕信路３２０之１５號","OBJECTID":616714},"geometry":{"x":172518.28000000119,"y":2542475.1999999993}},{"attributes":{"ID":616742,"DIS_CODE":0,"TOWNNAME":"東區","LI":"裕聖里","LIN":"2鄰","STREET":"裕信路","SECT":" ","MAREA":" ","LANE":" ","ALLEY":" ","HOUSE_NO":"３２０之１３號","E_COORD97":172523.03,"N_COORD97":2542475.2000000002,"ADDRESS":"裕信路３２０之１３號","OBJECTID":616715},"geometry":{"x":172523.03000000119,"y":2542475.1999999993}},{"attributes":{"ID":616743,"DIS_CODE":0,"TOWNNAME":"東區","LI":"裕聖里","LIN":"2鄰","STREET":"裕信路","SECT":" ","MAREA":" ","LANE":" ","ALLEY":" ","HOUSE_NO":"３２０之１２號","E_COORD97":172528.51000000001,"N_COORD97":2542475.0600000001,"ADDRESS":"裕信路３２０之１２號","OBJECTID":616716},"geometry":{"x":172528.50999999978,"y":2542475.0600000042}},{"attributes":{"ID":616744,"DIS_CODE":0,"TOWNNAME":"善化區","LI":"坐駕里","LIN":"2鄰","STREET":"青年路","SECT":" ","MAREA":" ","LANE":" ","ALLEY":" ","HOUSE_NO":"２０２號","E_COORD97":177821.64999999999,"N_COORD97":2559029.5,"ADDRESS":"青年路２０２號","OBJECTID":616717},"geometry":{"x":177821.6500000013,"y":2559029.5}},{"attributes":{"ID":616745,"DIS_CODE":0,"TOWNNAME":"善化區","LI":"北關里","LIN":"2鄰","STREET":"中山路","SECT":" ","MAREA":" ","LANE":" ","ALLEY":" ","HOUSE_NO":"５２２號","E_COORD97":177074.57999999999,"N_COORD97":2559170,"ADDRESS":"中山路５２２號","OBJECTID":616718},"geometry":{"x":177074.58000000007,"y":2559170.0000000019}},{"attributes":{"ID":616746,"DIS_CODE":0,"TOWNNAME":"善化區","LI":"坐駕里","LIN":"2鄰","STREET":"青年路","SECT":" ","MAREA":" ","LANE":" ","ALLEY":" ","HOUSE_NO":"１６９號","E_COORD97":177778.42000000001,"N_COORD97":2559032.5,"ADDRESS":"青年路１６９號","OBJECTID":616719},"geometry":{"x":177778.42000000086,"y":2559032.5}},{"attributes":{"ID":616747,"DIS_CODE":0,"TOWNNAME":"善化區","LI":"坐駕里","LIN":"2鄰","STREET":"青年路","SECT":" ","MAREA":" ","LANE":" ","ALLEY":" ","HOUSE_NO":"２１２號","E_COORD97":177814.34,"N_COORD97":2559055.75,"ADDRESS":"青年路２１２號","OBJECTID":616720},"geometry":{"x":177814.34000000078,"y":2559055.7500000037}},{"attributes":{"ID":616748,"DIS_CODE":0,"TOWNNAME":"善化區","LI":"坐駕里","LIN":"2鄰","STREET":"中山路","SECT":" ","MAREA":" ","LANE":" ","ALLEY":" ","HOUSE_NO":"３２５號","E_COORD97":177772.76999999999,"N_COORD97":2559071.25,"ADDRESS":"中山路３２５號","OBJECTID":616721},"geometry":{"x":177772.76999999955,"y":2559071.25}},{"attributes":{"ID":616749,"DIS_CODE":0,"TOWNNAME":"善化區","LI":"小新里","LIN":"2鄰","STREET":"成功路","SECT":" ","MAREA":" ","LANE":" ","ALLEY":" ","HOUSE_NO":"１０７號","E_COORD97":179875.23999999999,"N_COORD97":2558618,"ADDRESS":"成功路１０７號","OBJECTID":616722},"geometry":{"x":179875.24000000115,"y":2558618.0000000019}},{"attributes":{"ID":616750,"DIS_CODE":0,"TOWNNAME":"仁德區","LI":"土庫里","LIN":"2鄰","STREET":"太乙路","SECT":" ","MAREA":" ","LANE":" ","ALLEY":" ","HOUSE_NO":"３２號","E_COORD97":173539.06,"N_COORD97":2542514.7599999998,"ADDRESS":"太乙路３２號","OBJECTID":616723},"geometry":{"x":173539.06000000052,"y":2542514.7600000016}},{"attributes":{"ID":616751,"DIS_CODE":0,"TOWNNAME":"仁德區","LI":"仁義里","LIN":"2鄰","STREET":"中山路","SECT":" ","MAREA":" ","LANE":" ","ALLEY":" ","HOUSE_NO":"３１７號","E_COORD97":174050.98999999999,"N_COORD97":2541222.2400000002,"ADDRESS":"中山路３１７號","OBJECTID":616724},"geometry":{"x":174050.99000000115,"y":2541222.2399999984}},{"attributes":{"ID":616752,"DIS_CODE":0,"TOWNNAME":"仁德區","LI":"仁義里","LIN":"2鄰","STREET":"中山路","SECT":" ","MAREA":" ","LANE":" ","ALLEY":" ","HOUSE_NO":"３２３號","E_COORD97":174038,"N_COORD97":2541223.4900000002,"ADDRESS":"中山路３２３號","OBJECTID":616725},"geometry":{"x":174038.00000000186,"y":2541223.4900000002}},{"attributes":{"ID":616753,"DIS_CODE":0,"TOWNNAME":"仁德區","LI":"一甲里","LIN":"2鄰","STREET":"中正路","SECT":"三段","MAREA":" ","LANE":" ","ALLEY":" ","HOUSE_NO":"１８５號","E_COORD97":173486.69,"N_COORD97":2541861.0299999998,"ADDRESS":"中正路三段１８５號","OBJECTID":616726},"geometry":{"x":173486.69000000134,"y":2541861.0300000012}},{"attributes":{"ID":616754,"DIS_CODE":0,"TOWNNAME":"仁德區","LI":"新田里","LIN":"2鄰","STREET":"義林路","SECT":" ","MAREA":" ","LANE":" ","ALLEY":" ","HOUSE_NO":"９３號","E_COORD97":174331.69,"N_COORD97":2540144.0099999998,"ADDRESS":"義林路９３號","OBJECTID":616727},"geometry":{"x":174331.69000000041,"y":2540144.0099999998}},{"attributes":{"ID":616755,"DIS_CODE":0,"TOWNNAME":"仁德區","LI":"後壁里","LIN":"2鄰","STREET":"德安路","SECT":" ","MAREA":" ","LANE":" ","ALLEY":" ","HOUSE_NO":"４０號","E_COORD97":173389.01000000001,"N_COORD97":2539200.0699999998,"ADDRESS":"德安路４０號","OBJECTID":616728},"geometry":{"x":173389.01000000071,"y":2539200.0700000022}},{"attributes":{"ID":616756,"DIS_CODE":0,"TOWNNAME":"仁德區","LI":"一甲里","LIN":"2鄰","STREET":"中正路","SECT":"三段","MAREA":" ","LANE":" ","ALLEY":" ","HOUSE_NO":"１９５號","E_COORD97":173496.26999999999,"N_COORD97":2541885.0299999998,"ADDRESS":"中正路三段１９５號","OBJECTID":616729},"geometry":{"x":173496.26999999955,"y":2541885.0300000012}},{"attributes":{"ID":616757,"DIS_CODE":0,"TOWNNAME":"仁德區","LI":"仁義里","LIN":"2鄰","STREET":"仁義路","SECT":" ","MAREA":" ","LANE":" ","ALLEY":" ","HOUSE_NO":"２６９號","E_COORD97":174026.73000000001,"N_COORD97":2541068.27,"ADDRESS":"仁義路２６９號","OBJECTID":616730},"geometry":{"x":174026.73000000231,"y":2541068.2699999996}},{"attributes":{"ID":616758,"DIS_CODE":0,"TOWNNAME":"東區","LI":"復興里","LIN":"10鄰","STREET":"裕文路","SECT":" ","MAREA":" ","LANE":" ","ALLEY":" ","HOUSE_NO":"２４號","E_COORD97":171861.62,"N_COORD97":2542586.8300000001,"ADDRESS":"裕文路２４號","OBJECTID":616731},"geometry":{"x":171861.62000000011,"y":2542586.8300000001}},{"attributes":{"ID":616759,"DIS_CODE":0,"TOWNNAME":"仁德區","LI":"一甲里","LIN":"2鄰","STREET":"中正路","SECT":"三段","MAREA":" ","LANE":" ","ALLEY":" ","HOUSE_NO":"３１３號","E_COORD97":173717.42999999999,"N_COORD97":2542248.77,"ADDRESS":"中正路三段３１３號","OBJECTID":616732},"geometry":{"x":173717.4299999997,"y":2542248.7700000033}},{"attributes":{"ID":616760,"DIS_CODE":0,"TOWNNAME":"仁德區","LI":"一甲里","LIN":"2鄰","STREET":"中正路","SECT":"三段","MAREA":" ","LANE":" ","ALLEY":" ","HOUSE_NO":"３２３號","E_COORD97":173729.26000000001,"N_COORD97":2542266.2799999998,"ADDRESS":"中正路三段３２３號","OBJECTID":616733},"geometry":{"x":173729.26000000164,"y":2542266.2800000012}},{"attributes":{"ID":616761,"DIS_CODE":0,"TOWNNAME":"仁德區","LI":"上崙里","LIN":"2鄰","STREET":"德崙路","SECT":" ","MAREA":" ","LANE":" ","ALLEY":" ","HOUSE_NO":"１７７之１號","E_COORD97":173623.82000000001,"N_COORD97":2538329.7999999998,"ADDRESS":"德崙路１７７之１號","OBJECTID":616734},"geometry":{"x":173623.8200000003,"y":2538329.8000000007}},{"attributes":{"ID":616762,"DIS_CODE":0,"TOWNNAME":"仁德區","LI":"上崙里","LIN":"2鄰","STREET":"德崙路","SECT":" ","MAREA":" ","LANE":" ","ALLEY":" ","HOUSE_NO":"１８９號","E_COORD97":173654.81,"N_COORD97":2538319.5099999998,"ADDRESS":"德崙路１８９號","OBJECTID":616735},"geometry":{"x":173654.81000000052,"y":2538319.5100000016}},{"attributes":{"ID":616763,"DIS_CODE":0,"TOWNNAME":"仁德區","LI":"二行里","LIN":"2鄰","STREET":"二行一路","SECT":" ","MAREA":" ","LANE":" ","ALLEY":" ","HOUSE_NO":"１７１號","E_COORD97":170513.38,"N_COORD97":2535590.2400000002,"ADDRESS":"二行一路１７１號","OBJECTID":616736},"geometry":{"x":170513.38000000082,"y":2535590.2400000002}},{"attributes":{"ID":616764,"DIS_CODE":0,"TOWNNAME":"仁德區","LI":"二行里","LIN":"2鄰","STREET":"二仁路","SECT":"一段","MAREA":" ","LANE":" ","ALLEY":" ","HOUSE_NO":"１４７號","E_COORD97":170518.17999999999,"N_COORD97":2535656.5299999998,"ADDRESS":"二仁路一段１４７號","OBJECTID":616737},"geometry":{"x":170518.1799999997,"y":2535656.5300000012}},{"attributes":{"ID":616765,"DIS_CODE":0,"TOWNNAME":"仁德區","LI":"二行里","LIN":"2鄰","STREET":"二行一路","SECT":" ","MAREA":" ","LANE":" ","ALLEY":" ","HOUSE_NO":"１８９號","E_COORD97":170513.29000000001,"N_COORD97":2535633.25,"ADDRESS":"二行一路１８９號","OBJECTID":616738},"geometry":{"x":170513.29000000004,"y":2535633.25}},{"attributes":{"ID":616766,"DIS_CODE":0,"TOWNNAME":"仁德區","LI":"二行里","LIN":"2鄰","STREET":"二行一路","SECT":" ","MAREA":" ","LANE":" ","ALLEY":" ","HOUSE_NO":"１８５號","E_COORD97":170513.23000000001,"N_COORD97":2535624.4900000002,"ADDRESS":"二行一路１８５號","OBJECTID":616739},"geometry":{"x":170513.23000000138,"y":2535624.4900000021}},{"attributes":{"ID":616767,"DIS_CODE":0,"TOWNNAME":"仁德區","LI":"一甲里","LIN":"2鄰","STREET":"忠義路","SECT":" ","MAREA":" ","LANE":" ","ALLEY":" ","HOUSE_NO":"２７０號","E_COORD97":173371.10999999999,"N_COORD97":2541921.5099999998,"ADDRESS":"忠義路２７０號","OBJECTID":616740},"geometry":{"x":173371.11000000034,"y":2541921.5099999998}},{"attributes":{"ID":616768,"DIS_CODE":0,"TOWNNAME":"仁德區","LI":"上崙里","LIN":"2鄰","STREET":"德崙路","SECT":" ","MAREA":" ","LANE":" ","ALLEY":" ","HOUSE_NO":"２０５號","E_COORD97":173677.41,"N_COORD97":2538291.5099999998,"ADDRESS":"德崙路２０５號","OBJECTID":616741},"geometry":{"x":173677.41000000015,"y":2538291.5100000016}},{"attributes":{"ID":616769,"DIS_CODE":0,"TOWNNAME":"仁德區","LI":"一甲里","LIN":"2鄰","STREET":"中正路","SECT":"三段","MAREA":" ","LANE":" ","ALLEY":" ","HOUSE_NO":"３２１號","E_COORD97":173726.51999999999,"N_COORD97":2542261.5299999998,"ADDRESS":"中正路三段３２１號","OBJECTID":616742},"geometry":{"x":173726.51999999955,"y":2542261.5300000012}},{"attributes":{"ID":616770,"DIS_CODE":0,"TOWNNAME":"仁德區","LI":"一甲里","LIN":"2鄰","STREET":"中正路","SECT":"三段","MAREA":" ","LANE":" ","ALLEY":" ","HOUSE_NO":"２６３號","E_COORD97":173626.54000000001,"N_COORD97":2542125.27,"ADDRESS":"中正路三段２６３號","OBJECTID":616743},"geometry":{"x":173626.54000000097,"y":2542125.2699999996}},{"attributes":{"ID":616771,"DIS_CODE":0,"TOWNNAME":"仁德區","LI":"二行里","LIN":"2鄰","STREET":"中正西路","SECT":" ","MAREA":" ","LANE":" ","ALLEY":" ","HOUSE_NO":"３６號","E_COORD97":170359.84,"N_COORD97":2535442.25,"ADDRESS":"中正西路３６號","OBJECTID":616744},"geometry":{"x":170359.83999999985,"y":2535442.2500000019}},{"attributes":{"ID":616772,"DIS_CODE":0,"TOWNNAME":"仁德區","LI":"一甲里","LIN":"2鄰","STREET":"中正路","SECT":"三段","MAREA":" ","LANE":" ","ALLEY":" ","HOUSE_NO":"１７７號","E_COORD97":173478.45000000001,"N_COORD97":2541843.77,"ADDRESS":"中正路三段１７７號","OBJECTID":616745},"geometry":{"x":173478.45000000019,"y":2541843.7699999996}},{"attributes":{"ID":616773,"DIS_CODE":0,"TOWNNAME":"仁德區","LI":"二行里","LIN":"2鄰","STREET":"二行一路","SECT":" ","MAREA":" ","LANE":" ","ALLEY":" ","HOUSE_NO":"１９１號","E_COORD97":170515.84,"N_COORD97":2535637.75,"ADDRESS":"二行一路１９１號","OBJECTID":616746},"geometry":{"x":170515.83999999985,"y":2535637.75}},{"attributes":{"ID":616774,"DIS_CODE":0,"TOWNNAME":"仁德區","LI":"一甲里","LIN":"2鄰","STREET":"忠義路","SECT":" ","MAREA":" ","LANE":" ","ALLEY":" ","HOUSE_NO":"３８５號","E_COORD97":173401.35000000001,"N_COORD97":2541888.27,"ADDRESS":"忠義路３８５號","OBJECTID":616747},"geometry":{"x":173401.35000000056,"y":2541888.2699999996}},{"attributes":{"ID":616775,"DIS_CODE":0,"TOWNNAME":"仁德區","LI":"一甲里","LIN":"2鄰","STREET":"忠義路","SECT":" ","MAREA":" ","LANE":" ","ALLEY":" ","HOUSE_NO":"３９７號","E_COORD97":173334.44,"N_COORD97":2541884.77,"ADDRESS":"忠義路３９７號","OBJECTID":616748},"geometry":{"x":173334.44000000134,"y":2541884.7699999996}},{"attributes":{"ID":616776,"DIS_CODE":0,"TOWNNAME":"仁德區","LI":"一甲里","LIN":"2鄰","STREET":"忠義路","SECT":" ","MAREA":" ","LANE":" ","ALLEY":" ","HOUSE_NO":"６６８號","E_COORD97":173285.79000000001,"N_COORD97":2542063.52,"ADDRESS":"忠義路６６８號","OBJECTID":616749},"geometry":{"x":173285.79000000097,"y":2542063.5199999996}},{"attributes":{"ID":616777,"DIS_CODE":0,"TOWNNAME":"仁德區","LI":"一甲里","LIN":"2鄰","STREET":"中正路","SECT":"三段","MAREA":" ","LANE":" ","ALLEY":" ","HOUSE_NO":"２９７號","E_COORD97":173698.95000000001,"N_COORD97":2542222.52,"ADDRESS":"中正路三段２９７號","OBJECTID":616750},"geometry":{"x":173698.95000000019,"y":2542222.5199999996}},{"attributes":{"ID":616778,"DIS_CODE":0,"TOWNNAME":"仁德區","LI":"上崙里","LIN":"2鄰","STREET":"德崙路","SECT":" ","MAREA":" ","LANE":" ","ALLEY":" ","HOUSE_NO":"２２３號","E_COORD97":173739.79000000001,"N_COORD97":2538233.27,"ADDRESS":"德崙路２２３號","OBJECTID":616751},"geometry":{"x":173739.79000000097,"y":2538233.2699999996}},{"attributes":{"ID":616779,"DIS_CODE":0,"TOWNNAME":"仁德區","LI":"二行里","LIN":"2鄰","STREET":"二行一路","SECT":" ","MAREA":" ","LANE":" ","ALLEY":" ","HOUSE_NO":"１７５號","E_COORD97":170512.60999999999,"N_COORD97":2535598.9900000002,"ADDRESS":"二行一路１７５號","OBJECTID":616752},"geometry":{"x":170512.61000000034,"y":2535598.9900000002}},{"attributes":{"ID":616780,"DIS_CODE":0,"TOWNNAME":"仁德區","LI":"二行里","LIN":"2鄰","STREET":"二行一路","SECT":" ","MAREA":" ","LANE":" ","ALLEY":" ","HOUSE_NO":"１７７號","E_COORD97":170513.23999999999,"N_COORD97":2535603.2400000002,"ADDRESS":"二行一路１７７號","OBJECTID":616753},"geometry":{"x":170513.24000000022,"y":2535603.2400000002}},{"attributes":{"ID":616781,"DIS_CODE":0,"TOWNNAME":"仁德區","LI":"一甲里","LIN":"2鄰","STREET":"忠義路","SECT":" ","MAREA":" ","LANE":" ","ALLEY":" ","HOUSE_NO":"３９１號","E_COORD97":173348.59,"N_COORD97":2541905.7599999998,"ADDRESS":"忠義路３９１號","OBJECTID":616754},"geometry":{"x":173348.58999999985,"y":2541905.7599999998}},{"attributes":{"ID":616782,"DIS_CODE":0,"TOWNNAME":"仁德區","LI":"二行里","LIN":"2鄰","STREET":"二行一路","SECT":" ","MAREA":" ","LANE":" ","ALLEY":" ","HOUSE_NO":"１９５號","E_COORD97":170511.84,"N_COORD97":2535645.75,"ADDRESS":"二行一路１９５號","OBJECTID":616755},"geometry":{"x":170511.84000000078,"y":2535645.7500000019}},{"attributes":{"ID":616783,"DIS_CODE":0,"TOWNNAME":"仁德區","LI":"二行里","LIN":"2鄰","STREET":"二行一路","SECT":" ","MAREA":" ","LANE":" ","ALLEY":" ","HOUSE_NO":"１５７號","E_COORD97":170509.94,"N_COORD97":2535560.75,"ADDRESS":"二行一路１５７號","OBJECTID":616756},"geometry":{"x":170509.94000000134,"y":2535560.7500000019}},{"attributes":{"ID":616784,"DIS_CODE":0,"TOWNNAME":"仁德區","LI":"一甲里","LIN":"2鄰","STREET":"中正路","SECT":"三段","MAREA":" ","LANE":" ","ALLEY":" ","HOUSE_NO":"３０９號","E_COORD97":173712.64999999999,"N_COORD97":2542242.52,"ADDRESS":"中正路三段３０９號","OBJECTID":616757},"geometry":{"x":173712.6500000013,"y":2542242.5199999996}},{"attributes":{"ID":616785,"DIS_CODE":0,"TOWNNAME":"仁德區","LI":"二行里","LIN":"2鄰","STREET":"二行一路","SECT":" ","MAREA":" ","LANE":" ","ALLEY":" ","HOUSE_NO":"１８７號","E_COORD97":170513.34,"N_COORD97":2535628.7400000002,"ADDRESS":"二行一路１８７號","OBJECTID":616758},"geometry":{"x":170513.34000000078,"y":2535628.7400000021}},{"attributes":{"ID":616786,"DIS_CODE":0,"TOWNNAME":"仁德區","LI":"二行里","LIN":"2鄰","STREET":"二行一路","SECT":" ","MAREA":" ","LANE":" ","ALLEY":" ","HOUSE_NO":"１７３號","E_COORD97":170514.01000000001,"N_COORD97":2535594.2400000002,"ADDRESS":"二行一路１７３號","OBJECTID":616759},"geometry":{"x":170514.01000000071,"y":2535594.2400000039}},{"attributes":{"ID":616787,"DIS_CODE":0,"TOWNNAME":"仁德區","LI":"一甲里","LIN":"2鄰","STREET":"中正路","SECT":"三段","MAREA":" ","LANE":" ","ALLEY":" ","HOUSE_NO":"２６９號","E_COORD97":173623.85999999999,"N_COORD97":2542169.7799999998,"ADDRESS":"中正路三段２６９號","OBJECTID":616760},"geometry":{"x":173623.8599999994,"y":2542169.7799999993}},{"attributes":{"ID":616788,"DIS_CODE":0,"TOWNNAME":"仁德區","LI":"上崙里","LIN":"2鄰","STREET":"德崙路","SECT":" ","MAREA":" ","LANE":" ","ALLEY":" ","HOUSE_NO":"２１９號","E_COORD97":173733.14999999999,"N_COORD97":2538239.02,"ADDRESS":"德崙路２１９號","OBJECTID":616761},"geometry":{"x":173733.15000000037,"y":2538239.0199999996}},{"attributes":{"ID":616789,"DIS_CODE":0,"TOWNNAME":"仁德區","LI":"一甲里","LIN":"2鄰","STREET":"中正路","SECT":"三段","MAREA":" ","LANE":" ","ALLEY":" ","HOUSE_NO":"１７５號","E_COORD97":173477.01000000001,"N_COORD97":2541840.27,"ADDRESS":"中正路三段１７５號","OBJECTID":616762},"geometry":{"x":173477.01000000071,"y":2541840.2699999996}},{"attributes":{"ID":616790,"DIS_CODE":0,"TOWNNAME":"仁德區","LI":"二行里","LIN":"2鄰","STREET":"二行一路","SECT":" ","MAREA":" ","LANE":" ","ALLEY":" ","HOUSE_NO":"１７９號","E_COORD97":170513.51000000001,"N_COORD97":2535610.4900000002,"ADDRESS":"二行一路１７９號","OBJECTID":616763},"geometry":{"x":170513.51000000071,"y":2535610.4900000021}},{"attributes":{"ID":616791,"DIS_CODE":0,"TOWNNAME":"仁德區","LI":"二行里","LIN":"2鄰","STREET":"二行一路","SECT":" ","MAREA":" ","LANE":" ","ALLEY":" ","HOUSE_NO":"１５５號","E_COORD97":170509.37,"N_COORD97":2535556.5,"ADDRESS":"二行一路１５５號","OBJECTID":616764},"geometry":{"x":170509.37000000011,"y":2535556.5000000019}},{"attributes":{"ID":616792,"DIS_CODE":0,"TOWNNAME":"仁德區","LI":"一甲里","LIN":"2鄰","STREET":"中正路","SECT":"三段","MAREA":" ","LANE":" ","ALLEY":" ","HOUSE_NO":"３０７號","E_COORD97":173710.45000000001,"N_COORD97":2542238.77,"ADDRESS":"中正路三段３０７號","OBJECTID":616765},"geometry":{"x":173710.45000000112,"y":2542238.7700000033}},{"attributes":{"ID":616793,"DIS_CODE":0,"TOWNNAME":"仁德區","LI":"一甲里","LIN":"2鄰","STREET":"忠義路","SECT":" ","MAREA":" ","LANE":" ","ALLEY":" ","HOUSE_NO":"３８３號","E_COORD97":173443.39999999999,"N_COORD97":2541892.77,"ADDRESS":"忠義路３８３號","OBJECTID":616766},"geometry":{"x":173443.40000000037,"y":2541892.7700000033}},{"attributes":{"ID":616794,"DIS_CODE":0,"TOWNNAME":"仁德區","LI":"一甲里","LIN":"2鄰","STREET":"中正路","SECT":"三段","MAREA":" ","LANE":" ","ALLEY":" ","HOUSE_NO":"３１７號","E_COORD97":173722.12,"N_COORD97":2542255.27,"ADDRESS":"中正路三段３１７號","OBJECTID":616767},"geometry":{"x":173722.12000000104,"y":2542255.2699999996}},{"attributes":{"ID":616795,"DIS_CODE":0,"TOWNNAME":"仁德區","LI":"二行里","LIN":"2鄰","STREET":"二行一路","SECT":" ","MAREA":" ","LANE":" ","ALLEY":" ","HOUSE_NO":"１６１號","E_COORD97":170511.25,"N_COORD97":2535569,"ADDRESS":"二行一路１６１號","OBJECTID":616768},"geometry":{"x":170511.25,"y":2535569.0000000019}},{"attributes":{"ID":616796,"DIS_CODE":0,"TOWNNAME":"仁德區","LI":"一甲里","LIN":"2鄰","STREET":"中正路","SECT":"三段","MAREA":" ","LANE":" ","ALLEY":" ","HOUSE_NO":"３１９號","E_COORD97":173724.20999999999,"N_COORD97":2542258.52,"ADDRESS":"中正路三段３１９號","OBJECTID":616769},"geometry":{"x":173724.20999999996,"y":2542258.5200000014}},{"attributes":{"ID":616797,"DIS_CODE":0,"TOWNNAME":"仁德區","LI":"上崙里","LIN":"2鄰","STREET":"德崙路","SECT":" ","MAREA":" ","LANE":" ","ALLEY":" ","HOUSE_NO":"２１５號","E_COORD97":173719.92999999999,"N_COORD97":2538251.02,"ADDRESS":"德崙路２１５號","OBJECTID":616770},"geometry":{"x":173719.93000000063,"y":2538251.0200000014}},{"attributes":{"ID":616798,"DIS_CODE":0,"TOWNNAME":"仁德區","LI":"一甲里","LIN":"2鄰","STREET":"中正路","SECT":"三段","MAREA":" ","LANE":" ","ALLEY":" ","HOUSE_NO":"３０１號","E_COORD97":173703.60000000001,"N_COORD97":2542229.27,"ADDRESS":"中正路三段３０１號","OBJECTID":616771},"geometry":{"x":173703.60000000056,"y":2542229.2700000014}},{"attributes":{"ID":616799,"DIS_CODE":0,"TOWNNAME":"仁德區","LI":"上崙里","LIN":"2鄰","STREET":"德崙路","SECT":" ","MAREA":" ","LANE":" ","ALLEY":" ","HOUSE_NO":"２０１號","E_COORD97":173670.81,"N_COORD97":2538296.2599999998,"ADDRESS":"德崙路２０１號","OBJECTID":616772},"geometry":{"x":173670.80999999959,"y":2538296.2600000016}},{"attributes":{"ID":616800,"DIS_CODE":0,"TOWNNAME":"仁德區","LI":"一甲里","LIN":"2鄰","STREET":"中正路","SECT":"三段","MAREA":" ","LANE":" ","ALLEY":" ","HOUSE_NO":"２９９號","E_COORD97":173701.31,"N_COORD97":2542225.77,"ADDRESS":"中正路三段２９９號","OBJECTID":616773},"geometry":{"x":173701.30999999959,"y":2542225.7700000014}},{"attributes":{"ID":616801,"DIS_CODE":0,"TOWNNAME":"仁德區","LI":"大甲里","LIN":"2鄰","STREET":"行大一街","SECT":" ","MAREA":" ","LANE":" ","ALLEY":" ","HOUSE_NO":"２６９號","E_COORD97":169754.09,"N_COORD97":2534998.9900000002,"ADDRESS":"行大一街２６９號","OBJECTID":616774},"geometry":{"x":169754.09000000078,"y":2534998.9900000002}},{"attributes":{"ID":616802,"DIS_CODE":0,"TOWNNAME":"仁德區","LI":"二行里","LIN":"2鄰","STREET":"二行一路","SECT":" ","MAREA":" ","LANE":" ","ALLEY":" ","HOUSE_NO":"１５９號","E_COORD97":170510.64000000001,"N_COORD97":2535564.75,"ADDRESS":"二行一路１５９號","OBJECTID":616775},"geometry":{"x":170510.64000000153,"y":2535564.7500000019}},{"attributes":{"ID":616803,"DIS_CODE":0,"TOWNNAME":"東區","LI":"復興里","LIN":"10鄰","STREET":"裕文路","SECT":" ","MAREA":" ","LANE":" ","ALLEY":" ","HOUSE_NO":"３２號","E_COORD97":171877.54999999999,"N_COORD97":2542582.0600000001,"ADDRESS":"裕文路３２號","OBJECTID":616776},"geometry":{"x":171877.54999999981,"y":2542582.0600000005}},{"attributes":{"ID":616804,"DIS_CODE":0,"TOWNNAME":"仁德區","LI":"上崙里","LIN":"2鄰","STREET":"德崙路","SECT":" ","MAREA":" ","LANE":" ","ALLEY":" ","HOUSE_NO":"１８１號","E_COORD97":173624.53,"N_COORD97":2538327.27,"ADDRESS":"德崙路１８１號","OBJECTID":616777},"geometry":{"x":173624.53000000212,"y":2538327.2700000014}},{"attributes":{"ID":616805,"DIS_CODE":0,"TOWNNAME":"仁德區","LI":"大甲里","LIN":"2鄰","STREET":"行大一街","SECT":" ","MAREA":" ","LANE":" ","ALLEY":" ","HOUSE_NO":"２６１號","E_COORD97":169772.07000000001,"N_COORD97":2534988.7400000002,"ADDRESS":"行大一街２６１號","OBJECTID":616778},"geometry":{"x":169772.0700000003,"y":2534988.7400000021}},{"attributes":{"ID":616806,"DIS_CODE":0,"TOWNNAME":"仁德區","LI":"一甲里","LIN":"2鄰","STREET":"中正路","SECT":"三段","MAREA":" ","LANE":" ","ALLEY":" ","HOUSE_NO":"１５３號","E_COORD97":173451.48999999999,"N_COORD97":2541786.5299999998,"ADDRESS":"中正路三段１５３號","OBJECTID":616779},"geometry":{"x":173451.49000000022,"y":2541786.5300000012}},{"attributes":{"ID":616807,"DIS_CODE":0,"TOWNNAME":"仁德區","LI":"一甲里","LIN":"2鄰","STREET":"中正路","SECT":"三段","MAREA":" ","LANE":" ","ALLEY":" ","HOUSE_NO":"２６５之１號","E_COORD97":173629.91,"N_COORD97":2542142.79,"ADDRESS":"中正路三段２６５之１號","OBJECTID":616780},"geometry":{"x":173629.91000000015,"y":2542142.7899999991}},{"attributes":{"ID":616808,"DIS_CODE":0,"TOWNNAME":"仁德區","LI":"二行里","LIN":"2鄰","STREET":"二行一路","SECT":" ","MAREA":" ","LANE":" ","ALLEY":" ","HOUSE_NO":"１６７號","E_COORD97":170512.48999999999,"N_COORD97":2535581.7400000002,"ADDRESS":"二行一路１６７號","OBJECTID":616781},"geometry":{"x":170512.49000000115,"y":2535581.7400000021}},{"attributes":{"ID":616809,"DIS_CODE":0,"TOWNNAME":"仁德區","LI":"大甲里","LIN":"2鄰","STREET":"行大一街","SECT":" ","MAREA":" ","LANE":" ","ALLEY":" ","HOUSE_NO":"１８９號","E_COORD97":169930.95000000001,"N_COORD97":2534975.7400000002,"ADDRESS":"行大一街１８９號","OBJECTID":616782},"geometry":{"x":169930.94999999925,"y":2534975.7400000002}},{"attributes":{"ID":616810,"DIS_CODE":0,"TOWNNAME":"仁德區","LI":"一甲里","LIN":"2鄰","STREET":"中正路","SECT":"三段","MAREA":" ","LANE":" ","ALLEY":" ","HOUSE_NO":"１７１號","E_COORD97":173473.01000000001,"N_COORD97":2541831.77,"ADDRESS":"中正路三段１７１號","OBJECTID":616783},"geometry":{"x":173473.00999999978,"y":2541831.7700000033}},{"attributes":{"ID":616811,"DIS_CODE":0,"TOWNNAME":"仁德區","LI":"二行里","LIN":"2鄰","STREET":"二行一路","SECT":" ","MAREA":" ","LANE":" ","ALLEY":" ","HOUSE_NO":"１６９號","E_COORD97":170512.81,"N_COORD97":2535585.7400000002,"ADDRESS":"二行一路１６９號","OBJECTID":616784},"geometry":{"x":170512.81000000145,"y":2535585.7400000021}},{"attributes":{"ID":616812,"DIS_CODE":0,"TOWNNAME":"仁德區","LI":"一甲里","LIN":"2鄰","STREET":"中正路","SECT":"三段","MAREA":" ","LANE":" ","ALLEY":" ","HOUSE_NO":"２６７號","E_COORD97":173648.53,"N_COORD97":2542152.02,"ADDRESS":"中正路三段２６７號","OBJECTID":616785},"geometry":{"x":173648.53000000119,"y":2542152.0200000033}},{"attributes":{"ID":616813,"DIS_CODE":0,"TOWNNAME":"仁德區","LI":"大甲里","LIN":"2鄰","STREET":"行大一街","SECT":" ","MAREA":" ","LANE":" ","ALLEY":" ","HOUSE_NO":"２６５號","E_COORD97":169763.88,"N_COORD97":2534999.9900000002,"ADDRESS":"行大一街２６５號","OBJECTID":616786},"geometry":{"x":169763.88000000082,"y":2534999.9900000021}},{"attributes":{"ID":616814,"DIS_CODE":0,"TOWNNAME":"仁德區","LI":"大甲里","LIN":"2鄰","STREET":"行大一街","SECT":" ","MAREA":" ","LANE":" ","ALLEY":" ","HOUSE_NO":"８８號","E_COORD97":169990.95999999999,"N_COORD97":2535002.7400000002,"ADDRESS":"行大一街８８號","OBJECTID":616787},"geometry":{"x":169990.95999999996,"y":2535002.7400000021}},{"attributes":{"ID":616815,"DIS_CODE":0,"TOWNNAME":"仁德區","LI":"上崙里","LIN":"2鄰","STREET":"德崙路","SECT":" ","MAREA":" ","LANE":" ","ALLEY":" ","HOUSE_NO":"１９７號","E_COORD97":173662.01000000001,"N_COORD97":2538297.7599999998,"ADDRESS":"德崙路１９７號","OBJECTID":616788},"geometry":{"x":173662.01000000071,"y":2538297.7599999998}},{"attributes":{"ID":616816,"DIS_CODE":0,"TOWNNAME":"仁德區","LI":"二行里","LIN":"2鄰","STREET":"二仁路","SECT":"一段","MAREA":" ","LANE":" ","ALLEY":" ","HOUSE_NO":"１４９號","E_COORD97":170507.09,"N_COORD97":2535663.5299999998,"ADDRESS":"二仁路一段１４９號","OBJECTID":616789},"geometry":{"x":170507.08999999985,"y":2535663.5300000012}},{"attributes":{"ID":616817,"DIS_CODE":0,"TOWNNAME":"仁德區","LI":"上崙里","LIN":"2鄰","STREET":"德崙路","SECT":" ","MAREA":" ","LANE":" ","ALLEY":" ","HOUSE_NO":"１９１號","E_COORD97":173652.82999999999,"N_COORD97":2538307.0099999998,"ADDRESS":"德崙路１９１號","OBJECTID":616790},"geometry":{"x":173652.83000000194,"y":2538307.0099999998}},{"attributes":{"ID":616818,"DIS_CODE":0,"TOWNNAME":"仁德區","LI":"二行里","LIN":"2鄰","STREET":"二行一路","SECT":" ","MAREA":" ","LANE":" ","ALLEY":" ","HOUSE_NO":"１８３號","E_COORD97":170513.37,"N_COORD97":2535619.9900000002,"ADDRESS":"二行一路１８３號","OBJECTID":616791},"geometry":{"x":170513.37000000104,"y":2535619.9900000039}},{"attributes":{"ID":616819,"DIS_CODE":0,"TOWNNAME":"新化區","LI":"太平里","LIN":"2鄰","STREET":"忠孝路","SECT":" ","MAREA":" ","LANE":" ","ALLEY":" ","HOUSE_NO":"４０號","E_COORD97":179065.57000000001,"N_COORD97":2548751.25,"ADDRESS":"忠孝路４０號","OBJECTID":616792},"geometry":{"x":179065.5700000003,"y":2548751.25}},{"attributes":{"ID":616820,"DIS_CODE":0,"TOWNNAME":"仁德區","LI":"上崙里","LIN":"2鄰","STREET":"德崙路","SECT":" ","MAREA":" ","LANE":" ","ALLEY":" ","HOUSE_NO":"１８５號","E_COORD97":173637.51000000001,"N_COORD97":2538317.7599999998,"ADDRESS":"德崙路１８５號","OBJECTID":616793},"geometry":{"x":173637.50999999885,"y":2538317.7600000016}},{"attributes":{"ID":616821,"DIS_CODE":0,"TOWNNAME":"仁德區","LI":"二行里","LIN":"2鄰","STREET":"二仁路","SECT":"一段","MAREA":" ","LANE":" ","ALLEY":" ","HOUSE_NO":"１５１號","E_COORD97":170514.67999999999,"N_COORD97":2535669.7799999998,"ADDRESS":"二仁路一段１５１號","OBJECTID":616794},"geometry":{"x":170514.68000000063,"y":2535669.7799999993}},{"attributes":{"ID":616822,"DIS_CODE":0,"TOWNNAME":"新化區","LI":"東榮里","LIN":"2鄰","STREET":"中興路","SECT":" ","MAREA":" ","LANE":" ","ALLEY":" ","HOUSE_NO":"３０號","E_COORD97":181953.76000000001,"N_COORD97":2547345.25,"ADDRESS":"中興路３０號","OBJECTID":616795},"geometry":{"x":181953.75999999978,"y":2547345.2500000037}},{"attributes":{"ID":616823,"DIS_CODE":0,"TOWNNAME":"新化區","LI":"東榮里","LIN":"2鄰","STREET":"中興路","SECT":" ","MAREA":" ","LANE":" ","ALLEY":" ","HOUSE_NO":"１０２號","E_COORD97":181875.70999999999,"N_COORD97":2547324.25,"ADDRESS":"中興路１０２號","OBJECTID":616796},"geometry":{"x":181875.71000000089,"y":2547324.25}},{"attributes":{"ID":616824,"DIS_CODE":0,"TOWNNAME":"新化區","LI":"東榮里","LIN":"2鄰","STREET":"中興路","SECT":" ","MAREA":" ","LANE":" ","ALLEY":" ","HOUSE_NO":"９８號","E_COORD97":181881.16,"N_COORD97":2547323.25,"ADDRESS":"中興路９８號","OBJECTID":616797},"geometry":{"x":181881.16000000108,"y":2547323.25}},{"attributes":{"ID":616825,"DIS_CODE":0,"TOWNNAME":"新化區","LI":"太平里","LIN":"2鄰","STREET":"忠孝路","SECT":" ","MAREA":" ","LANE":" ","ALLEY":" ","HOUSE_NO":"２６號之３","E_COORD97":179147.62,"N_COORD97":2548738.2599999998,"ADDRESS":"忠孝路２６號之３","OBJECTID":616798},"geometry":{"x":179147.62000000011,"y":2548738.2600000035}},{"attributes":{"ID":616826,"DIS_CODE":0,"TOWNNAME":"新化區","LI":"太平里","LIN":"2鄰","STREET":"忠孝路","SECT":" ","MAREA":" ","LANE":" ","ALLEY":" ","HOUSE_NO":"２號","E_COORD97":179312.12,"N_COORD97":2548798.25,"ADDRESS":"忠孝路２號","OBJECTID":616799},"geometry":{"x":179312.12000000011,"y":2548798.25}},{"attributes":{"ID":616827,"DIS_CODE":0,"TOWNNAME":"新化區","LI":"中央里","LIN":"2鄰","STREET":"大同街","SECT":" ","MAREA":" ","LANE":" ","ALLEY":" ","HOUSE_NO":"１００號","E_COORD97":178984.63,"N_COORD97":2548338.25,"ADDRESS":"大同街１００號","OBJECTID":616800},"geometry":{"x":178984.62999999989,"y":2548338.2499999981}}]}