{"displayFieldName":"TOWNNAME","fieldAliases":{"ID":"ID","DIS_CODE":"DIS_CODE","TOWNNAME":"TOWNNAME","LI":"LI","LIN":"LIN","STREET":"STREET","SECT":"SECT","MAREA":"MAREA","LANE":"LANE","ALLEY":"ALLEY","HOUSE_NO":"HOUSE_NO","E_COORD97":"E_COORD97","N_COORD97":"N_COORD97","ADDRESS":"ADDRESS","OBJECTID":"OBJECTID"},"geometryType":"esriGeometryPoint","spatialReference":{"wkid":102443,"latestWkid":3826},"fields":[{"name":"ID","type":"esriFieldTypeDouble","alias":"ID"},{"name":"DIS_CODE","type":"esriFieldTypeInteger","alias":"DIS_CODE"},{"name":"TOWNNAME","type":"esriFieldTypeString","alias":"TOWNNAME","length":8},{"name":"LI","type":"esriFieldTypeString","alias":"LI","length":8},{"name":"LIN","type":"esriFieldTypeString","alias":"LIN","length":12},{"name":"STREET","type":"esriFieldTypeString","alias":"STREET","length":20},{"name":"SECT","type":"esriFieldTypeString","alias":"SECT","length":8},{"name":"MAREA","type":"esriFieldTypeString","alias":"MAREA","length":12},{"name":"LANE","type":"esriFieldTypeString","alias":"LANE","length":10},{"name":"ALLEY","type":"esriFieldTypeString","alias":"ALLEY","length":10},{"name":"HOUSE_NO","type":"esriFieldTypeString","alias":"HOUSE_NO","length":20},{"name":"E_COORD97","type":"esriFieldTypeDouble","alias":"E_COORD97"},{"name":"N_COORD97","type":"esriFieldTypeDouble","alias":"N_COORD97"},{"name":"ADDRESS","type":"esriFieldTypeString","alias":"ADDRESS","length":50},{"name":"OBJECTID","type":"esriFieldTypeOID","alias":"OBJECTID"}],"features":[{"attributes":{"ID":485826,"DIS_CODE":0,"TOWNNAME":"西港區","LI":"慶安里","LIN":"32鄰","STREET":"新興街","SECT":" ","MAREA":" ","LANE":" ","ALLEY":" ","HOUSE_NO":"８號之１０１","E_COORD97":168329.31,"N_COORD97":2557580.1600000001,"ADDRESS":"新興街８號之１０１","OBJECTID":485801},"geometry":{"x":168329.30999999866,"y":2557580.1600000001}},{"attributes":{"ID":485827,"DIS_CODE":0,"TOWNNAME":"西港區","LI":"慶安里","LIN":"32鄰","STREET":"新興街","SECT":" ","MAREA":" ","LANE":" ","ALLEY":" ","HOUSE_NO":"８號之１０２","E_COORD97":168325.41,"N_COORD97":2557579.4399999999,"ADDRESS":"新興街８號之１０２","OBJECTID":485802},"geometry":{"x":168325.41000000015,"y":2557579.4400000013}},{"attributes":{"ID":485828,"DIS_CODE":0,"TOWNNAME":"西港區","LI":"慶安里","LIN":"32鄰","STREET":"新興街","SECT":" ","MAREA":" ","LANE":" ","ALLEY":" ","HOUSE_NO":"８號之１０３","E_COORD97":168320.51000000001,"N_COORD97":2557578.1499999999,"ADDRESS":"新興街８號之１０３","OBJECTID":485803},"geometry":{"x":168320.51000000071,"y":2557578.1499999985}},{"attributes":{"ID":485829,"DIS_CODE":0,"TOWNNAME":"西港區","LI":"慶安里","LIN":"32鄰","STREET":"新興街","SECT":" ","MAREA":" ","LANE":" ","ALLEY":" ","HOUSE_NO":"８號之１０４","E_COORD97":168316.26999999999,"N_COORD97":2557577.3900000001,"ADDRESS":"新興街８號之１０４","OBJECTID":485804},"geometry":{"x":168316.27000000048,"y":2557577.3900000025}},{"attributes":{"ID":485830,"DIS_CODE":0,"TOWNNAME":"西港區","LI":"慶安里","LIN":"32鄰","STREET":"新興街","SECT":" ","MAREA":" ","LANE":" ","ALLEY":" ","HOUSE_NO":"８號之１０５","E_COORD97":168312.03,"N_COORD97":2557576.8300000001,"ADDRESS":"新興街８號之１０５","OBJECTID":485805},"geometry":{"x":168312.03000000119,"y":2557576.8300000038}},{"attributes":{"ID":485831,"DIS_CODE":0,"TOWNNAME":"西港區","LI":"慶安里","LIN":"32鄰","STREET":"新興街","SECT":" ","MAREA":" ","LANE":" ","ALLEY":" ","HOUSE_NO":"８號之１０６","E_COORD97":168307.73999999999,"N_COORD97":2557575.5499999998,"ADDRESS":"新興街８號之１０６","OBJECTID":485806},"geometry":{"x":168307.74000000022,"y":2557575.5500000007}},{"attributes":{"ID":485832,"DIS_CODE":0,"TOWNNAME":"西港區","LI":"慶安里","LIN":"32鄰","STREET":"新興街","SECT":" ","MAREA":" ","LANE":" ","ALLEY":" ","HOUSE_NO":"８號之１０７","E_COORD97":168303.20999999999,"N_COORD97":2557575.0600000001,"ADDRESS":"新興街８號之１０７","OBJECTID":485807},"geometry":{"x":168303.20999999996,"y":2557575.0600000005}},{"attributes":{"ID":485833,"DIS_CODE":0,"TOWNNAME":"西港區","LI":"慶安里","LIN":"32鄰","STREET":"新興街","SECT":" ","MAREA":" ","LANE":" ","ALLEY":" ","HOUSE_NO":"８號之１０８","E_COORD97":168298.62,"N_COORD97":2557573.7599999998,"ADDRESS":"新興街８號之１０８","OBJECTID":485808},"geometry":{"x":168298.62000000011,"y":2557573.7600000035}},{"attributes":{"ID":485834,"DIS_CODE":0,"TOWNNAME":"西港區","LI":"慶安里","LIN":"32鄰","STREET":"新興街","SECT":" ","MAREA":" ","LANE":" ","ALLEY":" ","HOUSE_NO":"８號之１０９","E_COORD97":168294.35000000001,"N_COORD97":2557573.3300000001,"ADDRESS":"新興街８號之１０９","OBJECTID":485809},"geometry":{"x":168294.35000000056,"y":2557573.3300000038}},{"attributes":{"ID":485835,"DIS_CODE":0,"TOWNNAME":"西港區","LI":"慶安里","LIN":"32鄰","STREET":"新興街","SECT":" ","MAREA":" ","LANE":" ","ALLEY":" ","HOUSE_NO":"８號之１１０","E_COORD97":168278.79999999999,"N_COORD97":2557561.4199999999,"ADDRESS":"新興街８號之１１０","OBJECTID":485810},"geometry":{"x":168278.79999999888,"y":2557561.4199999999}},{"attributes":{"ID":485836,"DIS_CODE":0,"TOWNNAME":"西港區","LI":"慶安里","LIN":"32鄰","STREET":"新興街","SECT":" ","MAREA":" ","LANE":" ","ALLEY":" ","HOUSE_NO":"８號之１１１","E_COORD97":168277.64999999999,"N_COORD97":2557565.3100000001,"ADDRESS":"新興街８號之１１１","OBJECTID":485811},"geometry":{"x":168277.6500000013,"y":2557565.3100000024}},{"attributes":{"ID":485837,"DIS_CODE":0,"TOWNNAME":"西港區","LI":"慶安里","LIN":"32鄰","STREET":"新興街","SECT":" ","MAREA":" ","LANE":" ","ALLEY":" ","HOUSE_NO":"８號之１１２","E_COORD97":168276.48999999999,"N_COORD97":2557570.3700000001,"ADDRESS":"新興街８號之１１２","OBJECTID":485812},"geometry":{"x":168276.49000000115,"y":2557570.370000001}},{"attributes":{"ID":485838,"DIS_CODE":0,"TOWNNAME":"西港區","LI":"慶安里","LIN":"32鄰","STREET":"新興街","SECT":" ","MAREA":" ","LANE":" ","ALLEY":" ","HOUSE_NO":"８號之１１３","E_COORD97":168275.75,"N_COORD97":2557574.3799999999,"ADDRESS":"新興街８號之１１３","OBJECTID":485813},"geometry":{"x":168275.75,"y":2557574.379999999}},{"attributes":{"ID":485839,"DIS_CODE":0,"TOWNNAME":"西港區","LI":"慶安里","LIN":"32鄰","STREET":"新興街","SECT":" ","MAREA":" ","LANE":" ","ALLEY":" ","HOUSE_NO":"８號之１１４","E_COORD97":168274.95999999999,"N_COORD97":2557578.79,"ADDRESS":"新興街８號之１１４","OBJECTID":485814},"geometry":{"x":168274.96000000089,"y":2557578.7899999991}},{"attributes":{"ID":485840,"DIS_CODE":0,"TOWNNAME":"西港區","LI":"慶安里","LIN":"32鄰","STREET":"新興街","SECT":" ","MAREA":" ","LANE":" ","ALLEY":" ","HOUSE_NO":"８號之１１５","E_COORD97":168273.89999999999,"N_COORD97":2557583.5299999998,"ADDRESS":"新興街８號之１１５","OBJECTID":485815},"geometry":{"x":168273.9000000013,"y":2557583.5299999993}},{"attributes":{"ID":485841,"DIS_CODE":0,"TOWNNAME":"西港區","LI":"慶安里","LIN":"32鄰","STREET":"新興街","SECT":" ","MAREA":" ","LANE":" ","ALLEY":" ","HOUSE_NO":"８號之１１６","E_COORD97":168272.76999999999,"N_COORD97":2557587.98,"ADDRESS":"新興街８號之１１６","OBJECTID":485816},"geometry":{"x":168272.77000000048,"y":2557587.9800000023}},{"attributes":{"ID":485842,"DIS_CODE":0,"TOWNNAME":"西港區","LI":"慶安里","LIN":"32鄰","STREET":"新興街","SECT":" ","MAREA":" ","LANE":" ","ALLEY":" ","HOUSE_NO":"８號之１１７","E_COORD97":168271.70999999999,"N_COORD97":2557592.8300000001,"ADDRESS":"新興街８號之１１７","OBJECTID":485817},"geometry":{"x":168271.71000000089,"y":2557592.8300000001}},{"attributes":{"ID":485843,"DIS_CODE":0,"TOWNNAME":"西港區","LI":"慶安里","LIN":"32鄰","STREET":"新興街","SECT":" ","MAREA":" ","LANE":" ","ALLEY":" ","HOUSE_NO":"８號之１１８","E_COORD97":168270.91,"N_COORD97":2557597.3100000001,"ADDRESS":"新興街８號之１１８","OBJECTID":485818},"geometry":{"x":168270.91000000015,"y":2557597.3100000005}},{"attributes":{"ID":485844,"DIS_CODE":0,"TOWNNAME":"西港區","LI":"慶安里","LIN":"32鄰","STREET":"新興街","SECT":" ","MAREA":" ","LANE":" ","ALLEY":" ","HOUSE_NO":"８號之１１９","E_COORD97":168269.89999999999,"N_COORD97":2557601.4500000002,"ADDRESS":"新興街８號之１１９","OBJECTID":485819},"geometry":{"x":168269.90000000037,"y":2557601.4499999993}},{"attributes":{"ID":485845,"DIS_CODE":0,"TOWNNAME":"永康區","LI":"建國里","LIN":"32鄰","STREET":"復興路","SECT":" ","MAREA":" ","LANE":" ","ALLEY":" ","HOUSE_NO":"６１號","E_COORD97":173025.95999999999,"N_COORD97":2544315.6200000001,"ADDRESS":"復興路６１號","OBJECTID":485820},"geometry":{"x":173025.95999999996,"y":2544315.620000001}},{"attributes":{"ID":485846,"DIS_CODE":0,"TOWNNAME":"安南區","LI":"州北里","LIN":"32鄰","STREET":"北安路","SECT":"四段","MAREA":" ","LANE":" ","ALLEY":" ","HOUSE_NO":"５３４號","E_COORD97":169553.26000000001,"N_COORD97":2551851.9500000002,"ADDRESS":"北安路四段５３４號","OBJECTID":485821},"geometry":{"x":169553.25999999978,"y":2551851.9499999974}},{"attributes":{"ID":485847,"DIS_CODE":0,"TOWNNAME":"安南區","LI":"州北里","LIN":"32鄰","STREET":"北安路","SECT":"四段","MAREA":" ","LANE":" ","ALLEY":" ","HOUSE_NO":"５１８號","E_COORD97":169547.29000000001,"N_COORD97":2551812.8599999999,"ADDRESS":"北安路四段５１８號","OBJECTID":485822},"geometry":{"x":169547.2900000019,"y":2551812.8600000013}},{"attributes":{"ID":485848,"DIS_CODE":0,"TOWNNAME":"安南區","LI":"州北里","LIN":"32鄰","STREET":"北安路","SECT":"四段","MAREA":" ","LANE":" ","ALLEY":" ","HOUSE_NO":"５１６號","E_COORD97":169547.01999999999,"N_COORD97":2551808.3900000001,"ADDRESS":"北安路四段５１６號","OBJECTID":485823},"geometry":{"x":169547.02000000048,"y":2551808.3900000006}},{"attributes":{"ID":485849,"DIS_CODE":0,"TOWNNAME":"安南區","LI":"州北里","LIN":"32鄰","STREET":"北安路","SECT":"四段","MAREA":" ","LANE":" ","ALLEY":" ","HOUSE_NO":"５２０號","E_COORD97":169547.57000000001,"N_COORD97":2551819.2200000002,"ADDRESS":"北安路四段５２０號","OBJECTID":485824},"geometry":{"x":169547.57000000123,"y":2551819.2200000025}},{"attributes":{"ID":485850,"DIS_CODE":0,"TOWNNAME":"安南區","LI":"州北里","LIN":"32鄰","STREET":"北安路","SECT":"四段","MAREA":" ","LANE":" ","ALLEY":" ","HOUSE_NO":"５２２號","E_COORD97":169549.87,"N_COORD97":2551825.98,"ADDRESS":"北安路四段５２２號","OBJECTID":485825},"geometry":{"x":169549.87000000011,"y":2551825.9799999986}},{"attributes":{"ID":485851,"DIS_CODE":0,"TOWNNAME":"安南區","LI":"州北里","LIN":"32鄰","STREET":"北安路","SECT":"四段","MAREA":" ","LANE":" ","ALLEY":" ","HOUSE_NO":"５２４號","E_COORD97":169550.28,"N_COORD97":2551830.1800000002,"ADDRESS":"北安路四段５２４號","OBJECTID":485826},"geometry":{"x":169550.28000000026,"y":2551830.1799999997}},{"attributes":{"ID":485852,"DIS_CODE":0,"TOWNNAME":"安南區","LI":"州北里","LIN":"32鄰","STREET":"北安路","SECT":"四段","MAREA":" ","LANE":" ","ALLEY":" ","HOUSE_NO":"５２６號","E_COORD97":169550.82000000001,"N_COORD97":2551834.7799999998,"ADDRESS":"北安路四段５２６號","OBJECTID":485827},"geometry":{"x":169550.82000000123,"y":2551834.7799999993}},{"attributes":{"ID":485853,"DIS_CODE":0,"TOWNNAME":"安南區","LI":"州北里","LIN":"32鄰","STREET":"北安路","SECT":"四段","MAREA":" ","LANE":" ","ALLEY":" ","HOUSE_NO":"５２８號","E_COORD97":169551.48999999999,"N_COORD97":2551839.1099999999,"ADDRESS":"北安路四段５２８號","OBJECTID":485828},"geometry":{"x":169551.49000000115,"y":2551839.1100000013}},{"attributes":{"ID":485854,"DIS_CODE":0,"TOWNNAME":"安南區","LI":"州北里","LIN":"32鄰","STREET":"北安路","SECT":"四段","MAREA":" ","LANE":" ","ALLEY":" ","HOUSE_NO":"５３０號","E_COORD97":169552.44,"N_COORD97":2551843.4300000002,"ADDRESS":"北安路四段５３０號","OBJECTID":485829},"geometry":{"x":169552.44000000134,"y":2551843.4300000016}},{"attributes":{"ID":485855,"DIS_CODE":0,"TOWNNAME":"安南區","LI":"州北里","LIN":"32鄰","STREET":"北安路","SECT":"四段","MAREA":" ","LANE":" ","ALLEY":" ","HOUSE_NO":"５３２號","E_COORD97":169552.44,"N_COORD97":2551847.7599999998,"ADDRESS":"北安路四段５３２號","OBJECTID":485830},"geometry":{"x":169552.44000000134,"y":2551847.7600000016}},{"attributes":{"ID":485856,"DIS_CODE":0,"TOWNNAME":"安南區","LI":"州北里","LIN":"32鄰","STREET":"北安路","SECT":"四段","MAREA":" ","LANE":" ","ALLEY":" ","HOUSE_NO":"５３６號","E_COORD97":169553.53,"N_COORD97":2551856.5499999998,"ADDRESS":"北安路四段５３６號","OBJECTID":485831},"geometry":{"x":169553.53000000026,"y":2551856.5500000045}},{"attributes":{"ID":485857,"DIS_CODE":0,"TOWNNAME":"安南區","LI":"州北里","LIN":"32鄰","STREET":"北安路","SECT":"四段","MAREA":" ","LANE":" ","ALLEY":" ","HOUSE_NO":"５３８號","E_COORD97":169554.20000000001,"N_COORD97":2551860.8799999999,"ADDRESS":"北安路四段５３８號","OBJECTID":485832},"geometry":{"x":169554.20000000019,"y":2551860.879999999}},{"attributes":{"ID":485858,"DIS_CODE":0,"TOWNNAME":"安南區","LI":"州北里","LIN":"32鄰","STREET":"北安路","SECT":"四段","MAREA":" ","LANE":" ","ALLEY":" ","HOUSE_NO":"５４０號","E_COORD97":169554.88,"N_COORD97":2551865.3500000001,"ADDRESS":"北安路四段５４０號","OBJECTID":485833},"geometry":{"x":169554.88000000175,"y":2551865.3499999996}},{"attributes":{"ID":485859,"DIS_CODE":0,"TOWNNAME":"安南區","LI":"州北里","LIN":"32鄰","STREET":"北安路","SECT":"四段","MAREA":" ","LANE":" ","ALLEY":" ","HOUSE_NO":"５４２號","E_COORD97":169555.42000000001,"N_COORD97":2551869.6800000002,"ADDRESS":"北安路四段５４２號","OBJECTID":485834},"geometry":{"x":169555.42000000086,"y":2551869.6800000016}},{"attributes":{"ID":485860,"DIS_CODE":0,"TOWNNAME":"安南區","LI":"州北里","LIN":"32鄰","STREET":"北安路","SECT":"四段","MAREA":" ","LANE":" ","ALLEY":" ","HOUSE_NO":"５４６號","E_COORD97":169556.51000000001,"N_COORD97":2551878.4700000002,"ADDRESS":"北安路四段５４６號","OBJECTID":485835},"geometry":{"x":169556.50999999978,"y":2551878.4700000025}},{"attributes":{"ID":485861,"DIS_CODE":0,"TOWNNAME":"安南區","LI":"州北里","LIN":"32鄰","STREET":"北安路","SECT":"四段","MAREA":" ","LANE":" ","ALLEY":" ","HOUSE_NO":"５５０號","E_COORD97":169555.31,"N_COORD97":2551892.1899999999,"ADDRESS":"北安路四段５５０號","OBJECTID":485836},"geometry":{"x":169555.31000000052,"y":2551892.1900000013}},{"attributes":{"ID":485862,"DIS_CODE":0,"TOWNNAME":"安南區","LI":"州北里","LIN":"32鄰","STREET":"北安路","SECT":"四段","MAREA":" ","LANE":" ","ALLEY":" ","HOUSE_NO":"５５２號","E_COORD97":169555.26000000001,"N_COORD97":2551895.9700000002,"ADDRESS":"北安路四段５５２號","OBJECTID":485837},"geometry":{"x":169555.25999999978,"y":2551895.9700000007}},{"attributes":{"ID":485863,"DIS_CODE":0,"TOWNNAME":"安南區","LI":"州北里","LIN":"32鄰","STREET":"北安路","SECT":"四段","MAREA":" ","LANE":" ","ALLEY":" ","HOUSE_NO":"５５４號","E_COORD97":169555.91,"N_COORD97":2551900.2000000002,"ADDRESS":"北安路四段５５４號","OBJECTID":485838},"geometry":{"x":169555.91000000015,"y":2551900.1999999993}},{"attributes":{"ID":485864,"DIS_CODE":0,"TOWNNAME":"安南區","LI":"州北里","LIN":"32鄰","STREET":"北安路","SECT":"四段","MAREA":" ","LANE":" ","ALLEY":" ","HOUSE_NO":"５５６號","E_COORD97":169556.35999999999,"N_COORD97":2551904.4300000002,"ADDRESS":"北安路四段５５６號","OBJECTID":485839},"geometry":{"x":169556.36000000034,"y":2551904.4300000016}},{"attributes":{"ID":485865,"DIS_CODE":0,"TOWNNAME":"仁德區","LI":"仁義里","LIN":"32鄰","STREET":"中清三街","SECT":" ","MAREA":" ","LANE":" ","ALLEY":" ","HOUSE_NO":"２２號","E_COORD97":173505.42999999999,"N_COORD97":2541520.04,"ADDRESS":"中清三街２２號","OBJECTID":485840},"geometry":{"x":173505.4299999997,"y":2541520.0399999991}},{"attributes":{"ID":485866,"DIS_CODE":0,"TOWNNAME":"東區","LI":"中西里","LIN":"32鄰","STREET":"林森路","SECT":"二段","MAREA":" ","LANE":" ","ALLEY":" ","HOUSE_NO":"１２３號之１","E_COORD97":170413.5,"N_COORD97":2543423.71,"ADDRESS":"林森路二段１２３號之１","OBJECTID":485841},"geometry":{"x":170413.5,"y":2543423.7100000046}},{"attributes":{"ID":485867,"DIS_CODE":0,"TOWNNAME":"東區","LI":"中西里","LIN":"32鄰","STREET":"林森路","SECT":"二段","MAREA":" ","LANE":" ","ALLEY":" ","HOUSE_NO":"１２３號之２","E_COORD97":170413.5,"N_COORD97":2543423.71,"ADDRESS":"林森路二段１２３號之２","OBJECTID":485842},"geometry":{"x":170413.5,"y":2543423.7100000046}},{"attributes":{"ID":485868,"DIS_CODE":0,"TOWNNAME":"東區","LI":"中西里","LIN":"32鄰","STREET":"林森路","SECT":"二段","MAREA":" ","LANE":" ","ALLEY":" ","HOUSE_NO":"１２３號之３","E_COORD97":170413.5,"N_COORD97":2543423.71,"ADDRESS":"林森路二段１２３號之３","OBJECTID":485843},"geometry":{"x":170413.5,"y":2543423.7100000046}},{"attributes":{"ID":485869,"DIS_CODE":0,"TOWNNAME":"東區","LI":"中西里","LIN":"32鄰","STREET":"林森路","SECT":"二段","MAREA":" ","LANE":" ","ALLEY":" ","HOUSE_NO":"１２３號之４","E_COORD97":170413.5,"N_COORD97":2543423.71,"ADDRESS":"林森路二段１２３號之４","OBJECTID":485844},"geometry":{"x":170413.5,"y":2543423.7100000046}},{"attributes":{"ID":485870,"DIS_CODE":0,"TOWNNAME":"東區","LI":"中西里","LIN":"32鄰","STREET":"林森路","SECT":"二段","MAREA":" ","LANE":" ","ALLEY":" ","HOUSE_NO":"１２３號之５","E_COORD97":170413.5,"N_COORD97":2543423.71,"ADDRESS":"林森路二段１２３號之５","OBJECTID":485845},"geometry":{"x":170413.5,"y":2543423.7100000046}},{"attributes":{"ID":485871,"DIS_CODE":0,"TOWNNAME":"東區","LI":"中西里","LIN":"32鄰","STREET":"林森路","SECT":"二段","MAREA":" ","LANE":" ","ALLEY":" ","HOUSE_NO":"１２３號之６","E_COORD97":170413.5,"N_COORD97":2543423.71,"ADDRESS":"林森路二段１２３號之６","OBJECTID":485846},"geometry":{"x":170413.5,"y":2543423.7100000046}},{"attributes":{"ID":485872,"DIS_CODE":0,"TOWNNAME":"麻豆區","LI":"大埕里","LIN":"8鄰","STREET":" ","SECT":" ","MAREA":"大埕","LANE":" ","ALLEY":" ","HOUSE_NO":"１５號之３７","E_COORD97":173159.33528,"N_COORD97":2565367.9229899999,"ADDRESS":"大埕１５號之３７","OBJECTID":485847},"geometry":{"x":173159.33528000116,"y":2565367.9229900017}},{"attributes":{"ID":485873,"DIS_CODE":0,"TOWNNAME":"東區","LI":"中西里","LIN":"32鄰","STREET":"林森路","SECT":"二段","MAREA":" ","LANE":" ","ALLEY":" ","HOUSE_NO":"１２３號之７","E_COORD97":170413.5,"N_COORD97":2543423.71,"ADDRESS":"林森路二段１２３號之７","OBJECTID":485848},"geometry":{"x":170413.5,"y":2543423.7100000046}},{"attributes":{"ID":485874,"DIS_CODE":0,"TOWNNAME":"東區","LI":"中西里","LIN":"32鄰","STREET":"林森路","SECT":"二段","MAREA":" ","LANE":" ","ALLEY":" ","HOUSE_NO":"１２３號之８","E_COORD97":170413.5,"N_COORD97":2543423.71,"ADDRESS":"林森路二段１２３號之８","OBJECTID":485849},"geometry":{"x":170413.5,"y":2543423.7100000046}},{"attributes":{"ID":485875,"DIS_CODE":0,"TOWNNAME":"東區","LI":"中西里","LIN":"32鄰","STREET":"林森路","SECT":"二段","MAREA":" ","LANE":" ","ALLEY":" ","HOUSE_NO":"１２３號之９","E_COORD97":170413.5,"N_COORD97":2543423.71,"ADDRESS":"林森路二段１２３號之９","OBJECTID":485850},"geometry":{"x":170413.5,"y":2543423.7100000046}},{"attributes":{"ID":485876,"DIS_CODE":0,"TOWNNAME":"東區","LI":"中西里","LIN":"32鄰","STREET":"林森路","SECT":"二段","MAREA":" ","LANE":" ","ALLEY":" ","HOUSE_NO":"１２３號之１０","E_COORD97":170413.5,"N_COORD97":2543423.71,"ADDRESS":"林森路二段１２３號之１０","OBJECTID":485851},"geometry":{"x":170413.5,"y":2543423.7100000046}},{"attributes":{"ID":485877,"DIS_CODE":0,"TOWNNAME":"東區","LI":"中西里","LIN":"32鄰","STREET":"林森路","SECT":"二段","MAREA":" ","LANE":" ","ALLEY":" ","HOUSE_NO":"１２５號之４","E_COORD97":170413.5,"N_COORD97":2543423.71,"ADDRESS":"林森路二段１２５號之４","OBJECTID":485852},"geometry":{"x":170413.5,"y":2543423.7100000046}},{"attributes":{"ID":485878,"DIS_CODE":0,"TOWNNAME":"東區","LI":"中西里","LIN":"32鄰","STREET":"林森路","SECT":"二段","MAREA":" ","LANE":" ","ALLEY":" ","HOUSE_NO":"１２５號之５","E_COORD97":170413.5,"N_COORD97":2543423.71,"ADDRESS":"林森路二段１２５號之５","OBJECTID":485853},"geometry":{"x":170413.5,"y":2543423.7100000046}},{"attributes":{"ID":485879,"DIS_CODE":0,"TOWNNAME":"東區","LI":"中西里","LIN":"32鄰","STREET":"林森路","SECT":"二段","MAREA":" ","LANE":" ","ALLEY":" ","HOUSE_NO":"１２５號之６","E_COORD97":170413.5,"N_COORD97":2543423.71,"ADDRESS":"林森路二段１２５號之６","OBJECTID":485854},"geometry":{"x":170413.5,"y":2543423.7100000046}},{"attributes":{"ID":485880,"DIS_CODE":0,"TOWNNAME":"東區","LI":"中西里","LIN":"32鄰","STREET":"林森路","SECT":"二段","MAREA":" ","LANE":" ","ALLEY":" ","HOUSE_NO":"１２５號之７","E_COORD97":170413.5,"N_COORD97":2543423.71,"ADDRESS":"林森路二段１２５號之７","OBJECTID":485855},"geometry":{"x":170413.5,"y":2543423.7100000046}},{"attributes":{"ID":485881,"DIS_CODE":0,"TOWNNAME":"東區","LI":"中西里","LIN":"32鄰","STREET":"林森路","SECT":"二段","MAREA":" ","LANE":" ","ALLEY":" ","HOUSE_NO":"１２５號之８","E_COORD97":170413.5,"N_COORD97":2543423.71,"ADDRESS":"林森路二段１２５號之８","OBJECTID":485856},"geometry":{"x":170413.5,"y":2543423.7100000046}},{"attributes":{"ID":485882,"DIS_CODE":0,"TOWNNAME":"東區","LI":"中西里","LIN":"32鄰","STREET":"林森路","SECT":"二段","MAREA":" ","LANE":" ","ALLEY":" ","HOUSE_NO":"１２５號之９","E_COORD97":170413.5,"N_COORD97":2543423.71,"ADDRESS":"林森路二段１２５號之９","OBJECTID":485857},"geometry":{"x":170413.5,"y":2543423.7100000046}},{"attributes":{"ID":485883,"DIS_CODE":0,"TOWNNAME":"東區","LI":"中西里","LIN":"32鄰","STREET":"林森路","SECT":"二段","MAREA":" ","LANE":" ","ALLEY":" ","HOUSE_NO":"１２５號之１０","E_COORD97":170413.5,"N_COORD97":2543423.71,"ADDRESS":"林森路二段１２５號之１０","OBJECTID":485858},"geometry":{"x":170413.5,"y":2543423.7100000046}},{"attributes":{"ID":485884,"DIS_CODE":0,"TOWNNAME":"東區","LI":"中西里","LIN":"32鄰","STREET":"林森路","SECT":"二段","MAREA":" ","LANE":" ","ALLEY":" ","HOUSE_NO":"１２５號之１１","E_COORD97":170413.5,"N_COORD97":2543423.71,"ADDRESS":"林森路二段１２５號之１１","OBJECTID":485859},"geometry":{"x":170413.5,"y":2543423.7100000046}},{"attributes":{"ID":485885,"DIS_CODE":0,"TOWNNAME":"東區","LI":"崇誨里","LIN":"32鄰","STREET":"林森路","SECT":"二段","MAREA":" ","LANE":" ","ALLEY":" ","HOUSE_NO":"２２６號","E_COORD97":170508.44,"N_COORD97":2543437.8799999999,"ADDRESS":"林森路二段２２６號","OBJECTID":485860},"geometry":{"x":170508.44000000134,"y":2543437.8800000008}},{"attributes":{"ID":485886,"DIS_CODE":0,"TOWNNAME":"東區","LI":"崇誨里","LIN":"32鄰","STREET":"林森路","SECT":"二段","MAREA":" ","LANE":" ","ALLEY":" ","HOUSE_NO":"２２８號","E_COORD97":170512.19,"N_COORD97":2543444.9399999999,"ADDRESS":"林森路二段２２８號","OBJECTID":485861},"geometry":{"x":170512.19000000041,"y":2543444.9400000013}},{"attributes":{"ID":485887,"DIS_CODE":0,"TOWNNAME":"東區","LI":"崇誨里","LIN":"32鄰","STREET":"林森路","SECT":"二段","MAREA":" ","LANE":" ","ALLEY":" ","HOUSE_NO":"２３４號","E_COORD97":170495.54000000001,"N_COORD97":2543440.79,"ADDRESS":"林森路二段２３４號","OBJECTID":485862},"geometry":{"x":170495.54000000097,"y":2543440.7899999991}},{"attributes":{"ID":485888,"DIS_CODE":0,"TOWNNAME":"東區","LI":"崇誨里","LIN":"32鄰","STREET":"林森路","SECT":"二段","MAREA":" ","LANE":" ","ALLEY":" ","HOUSE_NO":"２３６號","E_COORD97":170497.62,"N_COORD97":2543447.4399999999,"ADDRESS":"林森路二段２３６號","OBJECTID":485863},"geometry":{"x":170497.61999999918,"y":2543447.4399999995}},{"attributes":{"ID":485889,"DIS_CODE":0,"TOWNNAME":"永康區","LI":"\u25A0洲里","LIN":"32鄰","STREET":"正南八街","SECT":" ","MAREA":" ","LANE":" ","ALLEY":" ","HOUSE_NO":"８３號","E_COORD97":171241.5,"N_COORD97":2548912.7999999998,"ADDRESS":"正南八街８３號","OBJECTID":485864},"geometry":{"x":171241.50000000093,"y":2548912.8000000026}},{"attributes":{"ID":485890,"DIS_CODE":0,"TOWNNAME":"永康區","LI":"\u25A0洲里","LIN":"32鄰","STREET":"正南八街","SECT":" ","MAREA":" ","LANE":" ","ALLEY":" ","HOUSE_NO":"８１號","E_COORD97":171251.39000000001,"N_COORD97":2548904.7999999998,"ADDRESS":"正南八街８１號","OBJECTID":485865},"geometry":{"x":171251.38999999873,"y":2548904.8000000007}},{"attributes":{"ID":485891,"DIS_CODE":0,"TOWNNAME":"仁德區","LI":"仁義里","LIN":"32鄰","STREET":"中清二街","SECT":" ","MAREA":" ","LANE":" ","ALLEY":" ","HOUSE_NO":"３５之８號","E_COORD97":173544.60999999999,"N_COORD97":2541496.8100000001,"ADDRESS":"中清二街３５之８號","OBJECTID":485866},"geometry":{"x":173544.61000000127,"y":2541496.8100000042}},{"attributes":{"ID":485892,"DIS_CODE":0,"TOWNNAME":"仁德區","LI":"仁義里","LIN":"32鄰","STREET":"中清二街","SECT":" ","MAREA":" ","LANE":" ","ALLEY":" ","HOUSE_NO":"３５之２號","E_COORD97":173552.87,"N_COORD97":2541479.5699999998,"ADDRESS":"中清二街３５之２號","OBJECTID":485867},"geometry":{"x":173552.87000000104,"y":2541479.5700000022}},{"attributes":{"ID":485893,"DIS_CODE":0,"TOWNNAME":"仁德區","LI":"仁義里","LIN":"32鄰","STREET":"中清二街","SECT":" ","MAREA":" ","LANE":" ","ALLEY":" ","HOUSE_NO":"３５之１２號","E_COORD97":173566.85000000001,"N_COORD97":2541494.0600000001,"ADDRESS":"中清二街３５之１２號","OBJECTID":485868},"geometry":{"x":173566.84999999963,"y":2541494.0600000005}},{"attributes":{"ID":485894,"DIS_CODE":0,"TOWNNAME":"仁德區","LI":"仁義里","LIN":"32鄰","STREET":"中清三街","SECT":" ","MAREA":" ","LANE":" ","ALLEY":" ","HOUSE_NO":"２０號","E_COORD97":173504.57000000001,"N_COORD97":2541515.79,"ADDRESS":"中清三街２０號","OBJECTID":485869},"geometry":{"x":173504.57000000123,"y":2541515.7900000028}},{"attributes":{"ID":485895,"DIS_CODE":0,"TOWNNAME":"仁德區","LI":"仁義里","LIN":"32鄰","STREET":"中清二街","SECT":" ","MAREA":" ","LANE":" ","ALLEY":" ","HOUSE_NO":"３５之５號","E_COORD97":173542.98999999999,"N_COORD97":2541481.0699999998,"ADDRESS":"中清二街３５之５號","OBJECTID":485870},"geometry":{"x":173542.99000000022,"y":2541481.0699999984}},{"attributes":{"ID":485896,"DIS_CODE":0,"TOWNNAME":"仁德區","LI":"仁義里","LIN":"32鄰","STREET":"中清二街","SECT":" ","MAREA":" ","LANE":" ","ALLEY":" ","HOUSE_NO":"３５之３號","E_COORD97":173547.85999999999,"N_COORD97":2541480.3199999998,"ADDRESS":"中清二街３５之３號","OBJECTID":485871},"geometry":{"x":173547.86000000127,"y":2541480.3200000022}},{"attributes":{"ID":485897,"DIS_CODE":0,"TOWNNAME":"仁德區","LI":"仁義里","LIN":"32鄰","STREET":"正義路","SECT":" ","MAREA":" ","LANE":" ","ALLEY":" ","HOUSE_NO":"７５號","E_COORD97":173534.78,"N_COORD97":2541450.77,"ADDRESS":"正義路７５號","OBJECTID":485872},"geometry":{"x":173534.78000000119,"y":2541450.7699999996}},{"attributes":{"ID":485898,"DIS_CODE":0,"TOWNNAME":"仁德區","LI":"仁義里","LIN":"32鄰","STREET":"中清三街","SECT":" ","MAREA":" ","LANE":" ","ALLEY":" ","HOUSE_NO":"１０號","E_COORD97":173502.89000000001,"N_COORD97":2541494.29,"ADDRESS":"中清三街１０號","OBJECTID":485873},"geometry":{"x":173502.8900000006,"y":2541494.2899999991}},{"attributes":{"ID":485899,"DIS_CODE":0,"TOWNNAME":"仁德區","LI":"仁義里","LIN":"32鄰","STREET":"中清二街","SECT":" ","MAREA":" ","LANE":" ","ALLEY":" ","HOUSE_NO":"３１號","E_COORD97":173557.51000000001,"N_COORD97":2541460.2999999998,"ADDRESS":"中清二街３１號","OBJECTID":485874},"geometry":{"x":173557.50999999978,"y":2541460.3000000026}},{"attributes":{"ID":485900,"DIS_CODE":0,"TOWNNAME":"仁德區","LI":"仁義里","LIN":"32鄰","STREET":"正義路","SECT":" ","MAREA":" ","LANE":" ","ALLEY":" ","HOUSE_NO":"６７號","E_COORD97":173517.5,"N_COORD97":2541452.52,"ADDRESS":"正義路６７號","OBJECTID":485875},"geometry":{"x":173517.50000000186,"y":2541452.5199999996}},{"attributes":{"ID":485901,"DIS_CODE":0,"TOWNNAME":"仁德區","LI":"太子里","LIN":"32鄰","STREET":"太子三街","SECT":" ","MAREA":" ","LANE":" ","ALLEY":" ","HOUSE_NO":"１０號","E_COORD97":174016.95000000001,"N_COORD97":2543454.25,"ADDRESS":"太子三街１０號","OBJECTID":485876},"geometry":{"x":174016.95000000112,"y":2543454.2500000019}},{"attributes":{"ID":485902,"DIS_CODE":0,"TOWNNAME":"仁德區","LI":"太子里","LIN":"32鄰","STREET":"太子三街","SECT":" ","MAREA":" ","LANE":" ","ALLEY":" ","HOUSE_NO":"３０號","E_COORD97":173953.22,"N_COORD97":2543453.5,"ADDRESS":"太子三街３０號","OBJECTID":485877},"geometry":{"x":173953.2200000016,"y":2543453.5}},{"attributes":{"ID":485903,"DIS_CODE":0,"TOWNNAME":"仁德區","LI":"仁德里","LIN":"32鄰","STREET":"中山路","SECT":" ","MAREA":" ","LANE":" ","ALLEY":" ","HOUSE_NO":"６２２號","E_COORD97":173189.70999999999,"N_COORD97":2541372.25,"ADDRESS":"中山路６２２號","OBJECTID":485878},"geometry":{"x":173189.71000000089,"y":2541372.2500000019}},{"attributes":{"ID":485904,"DIS_CODE":0,"TOWNNAME":"仁德區","LI":"太子里","LIN":"32鄰","STREET":"太子三街","SECT":" ","MAREA":" ","LANE":" ","ALLEY":" ","HOUSE_NO":"２９號","E_COORD97":173969.23999999999,"N_COORD97":2543443.0099999998,"ADDRESS":"太子三街２９號","OBJECTID":485879},"geometry":{"x":173969.24000000115,"y":2543443.0099999998}},{"attributes":{"ID":485905,"DIS_CODE":0,"TOWNNAME":"永康區","LI":"\u25A0洲里","LIN":"32鄰","STREET":"\u25A0行路","SECT":" ","MAREA":" ","LANE":" ","ALLEY":" ","HOUSE_NO":"２５５號","E_COORD97":171066.69,"N_COORD97":2548930.5,"ADDRESS":"\u25A0行路２５５號","OBJECTID":485880},"geometry":{"x":171066.69000000041,"y":2548930.5000000019}},{"attributes":{"ID":485906,"DIS_CODE":0,"TOWNNAME":"麻豆區","LI":"大埕里","LIN":"8鄰","STREET":" ","SECT":" ","MAREA":"大埕","LANE":" ","ALLEY":" ","HOUSE_NO":"１５號之３８","E_COORD97":173160.18294999999,"N_COORD97":2565364.1129899998,"ADDRESS":"大埕１５號之３８","OBJECTID":485881},"geometry":{"x":173160.18295000121,"y":2565364.1129899994}},{"attributes":{"ID":485907,"DIS_CODE":0,"TOWNNAME":"永康區","LI":"\u25A0洲里","LIN":"32鄰","STREET":"\u25A0行路","SECT":" ","MAREA":" ","LANE":" ","ALLEY":" ","HOUSE_NO":"２３７號","E_COORD97":171167.60000000001,"N_COORD97":2549034.8700000001,"ADDRESS":"\u25A0行路２３７號","OBJECTID":485882},"geometry":{"x":171167.60000000056,"y":2549034.8700000029}},{"attributes":{"ID":485908,"DIS_CODE":0,"TOWNNAME":"永康區","LI":"\u25A0洲里","LIN":"32鄰","STREET":"\u25A0行路","SECT":" ","MAREA":" ","LANE":" ","ALLEY":" ","HOUSE_NO":"２４１號","E_COORD97":171199.25,"N_COORD97":2549017.0800000001,"ADDRESS":"\u25A0行路２４１號","OBJECTID":485883},"geometry":{"x":171199.25000000093,"y":2549017.0800000001}},{"attributes":{"ID":485909,"DIS_CODE":0,"TOWNNAME":"安南區","LI":"安富里","LIN":"32鄰","STREET":"府安路","SECT":"五段","MAREA":" ","LANE":" ","ALLEY":" ","HOUSE_NO":"１５４號","E_COORD97":167816.67999999999,"N_COORD97":2547044.8799999999,"ADDRESS":"府安路五段１５４號","OBJECTID":485884},"geometry":{"x":167816.67999999877,"y":2547044.8800000027}},{"attributes":{"ID":485910,"DIS_CODE":0,"TOWNNAME":"永康區","LI":"崑山里","LIN":"32鄰","STREET":"永大路","SECT":"二段","MAREA":" ","LANE":" ","ALLEY":" ","HOUSE_NO":"５７號","E_COORD97":174160.97,"N_COORD97":2544812.9900000002,"ADDRESS":"永大路二段５７號","OBJECTID":485885},"geometry":{"x":174160.96999999974,"y":2544812.9900000002}},{"attributes":{"ID":485911,"DIS_CODE":0,"TOWNNAME":"永康區","LI":"永康里","LIN":"32鄰","STREET":"永康街","SECT":" ","MAREA":" ","LANE":" ","ALLEY":" ","HOUSE_NO":"３７０號","E_COORD97":174379.62,"N_COORD97":2547059.77,"ADDRESS":"永康街３７０號","OBJECTID":485886},"geometry":{"x":174379.61999999918,"y":2547059.7700000033}},{"attributes":{"ID":485912,"DIS_CODE":0,"TOWNNAME":"歸仁區","LI":"許厝里","LIN":"32鄰","STREET":"復興路","SECT":" ","MAREA":" ","LANE":" ","ALLEY":" ","HOUSE_NO":"６８號","E_COORD97":177854.95999999999,"N_COORD97":2540625.54,"ADDRESS":"復興路６８號","OBJECTID":485887},"geometry":{"x":177854.95999999996,"y":2540625.5399999991}},{"attributes":{"ID":485913,"DIS_CODE":0,"TOWNNAME":"中西區","LI":"西湖里","LIN":"32鄰","STREET":"西湖街","SECT":" ","MAREA":" ","LANE":" ","ALLEY":" ","HOUSE_NO":"２１６號","E_COORD97":166216.48999999999,"N_COORD97":2544926.4900000002,"ADDRESS":"西湖街２１６號","OBJECTID":485888},"geometry":{"x":166216.49000000022,"y":2544926.4900000039}},{"attributes":{"ID":485914,"DIS_CODE":0,"TOWNNAME":"永康區","LI":"\u25A0洲里","LIN":"32鄰","STREET":"\u25A0行路","SECT":" ","MAREA":" ","LANE":" ","ALLEY":" ","HOUSE_NO":"２３５號","E_COORD97":171172.29999999999,"N_COORD97":2549039.6200000001,"ADDRESS":"\u25A0行路２３５號","OBJECTID":485889},"geometry":{"x":171172.29999999981,"y":2549039.6200000029}},{"attributes":{"ID":485915,"DIS_CODE":0,"TOWNNAME":"仁德區","LI":"仁德里","LIN":"32鄰","STREET":"中山路","SECT":" ","MAREA":" ","LANE":" ","ALLEY":" ","HOUSE_NO":"６１２號","E_COORD97":173215.23999999999,"N_COORD97":2541361.25,"ADDRESS":"中山路６１２號","OBJECTID":485890},"geometry":{"x":173215.24000000115,"y":2541361.2500000037}},{"attributes":{"ID":485916,"DIS_CODE":0,"TOWNNAME":"仁德區","LI":"太子里","LIN":"32鄰","STREET":"太子三街","SECT":" ","MAREA":" ","LANE":" ","ALLEY":" ","HOUSE_NO":"１４號","E_COORD97":174007.89000000001,"N_COORD97":2543456.75,"ADDRESS":"太子三街１４號","OBJECTID":485891},"geometry":{"x":174007.89000000153,"y":2543456.7500000019}},{"attributes":{"ID":485917,"DIS_CODE":0,"TOWNNAME":"仁德區","LI":"太子里","LIN":"32鄰","STREET":"太子三街","SECT":" ","MAREA":" ","LANE":" ","ALLEY":" ","HOUSE_NO":"１９號","E_COORD97":174020.14999999999,"N_COORD97":2543442.5099999998,"ADDRESS":"太子三街１９號","OBJECTID":485892},"geometry":{"x":174020.15000000037,"y":2543442.5099999998}},{"attributes":{"ID":485918,"DIS_CODE":0,"TOWNNAME":"仁德區","LI":"仁義里","LIN":"32鄰","STREET":"中清二街","SECT":" ","MAREA":" ","LANE":" ","ALLEY":" ","HOUSE_NO":"３５之１０號","E_COORD97":173555.95999999999,"N_COORD97":2541495.5600000001,"ADDRESS":"中清二街３５之１０號","OBJECTID":485893},"geometry":{"x":173555.95999999996,"y":2541495.5600000024}},{"attributes":{"ID":485919,"DIS_CODE":0,"TOWNNAME":"仁德區","LI":"仁義里","LIN":"32鄰","STREET":"中清三街","SECT":" ","MAREA":" ","LANE":" ","ALLEY":" ","HOUSE_NO":"１２號之１","E_COORD97":173505.23999999999,"N_COORD97":2541502.8100000001,"ADDRESS":"中清三街１２號之１","OBJECTID":485894},"geometry":{"x":173505.24000000022,"y":2541502.8100000005}},{"attributes":{"ID":485920,"DIS_CODE":0,"TOWNNAME":"仁德區","LI":"仁義里","LIN":"32鄰","STREET":"中清三街","SECT":" ","MAREA":" ","LANE":" ","ALLEY":" ","HOUSE_NO":"２號","E_COORD97":173515.85999999999,"N_COORD97":2541472.5499999998,"ADDRESS":"中清三街２號","OBJECTID":485895},"geometry":{"x":173515.86000000127,"y":2541472.5500000026}},{"attributes":{"ID":485921,"DIS_CODE":0,"TOWNNAME":"仁德區","LI":"仁德里","LIN":"32鄰","STREET":"中山路","SECT":" ","MAREA":" ","LANE":" ","ALLEY":" ","HOUSE_NO":"６０８號","E_COORD97":173225.32000000001,"N_COORD97":2541359.25,"ADDRESS":"中山路６０８號","OBJECTID":485896},"geometry":{"x":173225.3200000003,"y":2541359.2500000019}},{"attributes":{"ID":485922,"DIS_CODE":0,"TOWNNAME":"仁德區","LI":"仁義里","LIN":"32鄰","STREET":"中清二街","SECT":" ","MAREA":" ","LANE":" ","ALLEY":" ","HOUSE_NO":"５３號","E_COORD97":173532.62,"N_COORD97":2541512.79,"ADDRESS":"中清二街５３號","OBJECTID":485897},"geometry":{"x":173532.62000000104,"y":2541512.790000001}},{"attributes":{"ID":485923,"DIS_CODE":0,"TOWNNAME":"仁德區","LI":"仁義里","LIN":"32鄰","STREET":"中清二街","SECT":" ","MAREA":" ","LANE":" ","ALLEY":" ","HOUSE_NO":"３５之７號","E_COORD97":173539.29000000001,"N_COORD97":2541497.5600000001,"ADDRESS":"中清二街３５之７號","OBJECTID":485898},"geometry":{"x":173539.2900000019,"y":2541497.5600000005}},{"attributes":{"ID":485924,"DIS_CODE":0,"TOWNNAME":"仁德區","LI":"仁義里","LIN":"32鄰","STREET":"中清二街","SECT":" ","MAREA":" ","LANE":" ","ALLEY":" ","HOUSE_NO":"３５之６號","E_COORD97":173537.73999999999,"N_COORD97":2541481.5699999998,"ADDRESS":"中清二街３５之６號","OBJECTID":485899},"geometry":{"x":173537.74000000022,"y":2541481.570000004}},{"attributes":{"ID":485925,"DIS_CODE":0,"TOWNNAME":"東區","LI":"忠孝里","LIN":"32鄰","STREET":"崇明路","SECT":" ","MAREA":" ","LANE":" ","ALLEY":" ","HOUSE_NO":"１７８號","E_COORD97":169778.88,"N_COORD97":2542214.4199999999,"ADDRESS":"崇明路１７８號","OBJECTID":485900},"geometry":{"x":169778.88000000082,"y":2542214.4200000037}},{"attributes":{"ID":485926,"DIS_CODE":0,"TOWNNAME":"東區","LI":"忠孝里","LIN":"32鄰","STREET":"崇明路","SECT":" ","MAREA":" ","LANE":" ","ALLEY":" ","HOUSE_NO":"１８２號","E_COORD97":169783.94,"N_COORD97":2542205.9100000001,"ADDRESS":"崇明路１８２號","OBJECTID":485901},"geometry":{"x":169783.94000000227,"y":2542205.910000002}},{"attributes":{"ID":485927,"DIS_CODE":0,"TOWNNAME":"永康區","LI":"復國里","LIN":"32鄰","STREET":"復華一街","SECT":" ","MAREA":" ","LANE":" ","ALLEY":" ","HOUSE_NO":"７號","E_COORD97":172669.87,"N_COORD97":2545070.5299999998,"ADDRESS":"復華一街７號","OBJECTID":485902},"geometry":{"x":172669.87000000104,"y":2545070.5299999993}},{"attributes":{"ID":485928,"DIS_CODE":0,"TOWNNAME":"永康區","LI":"復國里","LIN":"32鄰","STREET":"復華一街","SECT":" ","MAREA":" ","LANE":" ","ALLEY":" ","HOUSE_NO":"２２號","E_COORD97":172663.04000000001,"N_COORD97":2545088.2599999998,"ADDRESS":"復華一街２２號","OBJECTID":485903},"geometry":{"x":172663.0400000019,"y":2545088.2600000016}},{"attributes":{"ID":485929,"DIS_CODE":0,"TOWNNAME":"永康區","LI":"復華里","LIN":"32鄰","STREET":"復國一路","SECT":" ","MAREA":" ","LANE":" ","ALLEY":" ","HOUSE_NO":"５５４號","E_COORD97":172513.14999999999,"N_COORD97":2546284.02,"ADDRESS":"復國一路５５４號","OBJECTID":485904},"geometry":{"x":172513.15000000037,"y":2546284.0199999996}},{"attributes":{"ID":485930,"DIS_CODE":0,"TOWNNAME":"永康區","LI":"龍潭里","LIN":"32鄰","STREET":"龍中街","SECT":" ","MAREA":" ","LANE":" ","ALLEY":" ","HOUSE_NO":"７２號之２","E_COORD97":174448.06,"N_COORD97":2548024.3399999999,"ADDRESS":"龍中街７２號之２","OBJECTID":485905},"geometry":{"x":174448.06000000052,"y":2548024.3399999999}},{"attributes":{"ID":485931,"DIS_CODE":0,"TOWNNAME":"永康區","LI":"龍潭里","LIN":"32鄰","STREET":"龍中街","SECT":" ","MAREA":" ","LANE":" ","ALLEY":" ","HOUSE_NO":"７４號之２","E_COORD97":174447.56,"N_COORD97":2548028.0899999999,"ADDRESS":"龍中街７４號之２","OBJECTID":485906},"geometry":{"x":174447.56000000052,"y":2548028.0900000017}},{"attributes":{"ID":485932,"DIS_CODE":0,"TOWNNAME":"永康區","LI":"\u25A0洲里","LIN":"32鄰","STREET":"正南八街","SECT":" ","MAREA":" ","LANE":" ","ALLEY":" ","HOUSE_NO":"８７號","E_COORD97":171233.48999999999,"N_COORD97":2548923.2999999998,"ADDRESS":"正南八街８７號","OBJECTID":485907},"geometry":{"x":171233.49000000115,"y":2548923.3000000026}},{"attributes":{"ID":485933,"DIS_CODE":0,"TOWNNAME":"東區","LI":"泉南里","LIN":"32鄰","STREET":"林森路","SECT":"一段","MAREA":" ","LANE":" ","ALLEY":" ","HOUSE_NO":"１６９號","E_COORD97":169585.60999999999,"N_COORD97":2542557.5099999998,"ADDRESS":"林森路一段１６９號","OBJECTID":485908},"geometry":{"x":169585.61000000034,"y":2542557.5100000016}},{"attributes":{"ID":485934,"DIS_CODE":0,"TOWNNAME":"東區","LI":"泉南里","LIN":"32鄰","STREET":"林森路","SECT":"一段","MAREA":" ","LANE":" ","ALLEY":" ","HOUSE_NO":"１６７號","E_COORD97":169579.89999999999,"N_COORD97":2542555.9100000001,"ADDRESS":"林森路一段１６７號","OBJECTID":485909},"geometry":{"x":169579.90000000037,"y":2542555.9100000001}},{"attributes":{"ID":485935,"DIS_CODE":0,"TOWNNAME":"東區","LI":"泉南里","LIN":"32鄰","STREET":"府連路","SECT":" ","MAREA":" ","LANE":" ","ALLEY":" ","HOUSE_NO":"３１４號","E_COORD97":169551.88,"N_COORD97":2542837.0699999998,"ADDRESS":"府連路３１４號","OBJECTID":485910},"geometry":{"x":169551.88000000082,"y":2542837.0700000003}},{"attributes":{"ID":485936,"DIS_CODE":0,"TOWNNAME":"東區","LI":"泉南里","LIN":"32鄰","STREET":"府連路","SECT":" ","MAREA":" ","LANE":" ","ALLEY":" ","HOUSE_NO":"３１６號","E_COORD97":169557.25,"N_COORD97":2542836.4399999999,"ADDRESS":"府連路３１６號","OBJECTID":485911},"geometry":{"x":169557.25,"y":2542836.4399999995}},{"attributes":{"ID":485937,"DIS_CODE":0,"TOWNNAME":"東區","LI":"泉南里","LIN":"32鄰","STREET":"府連路","SECT":" ","MAREA":" ","LANE":" ","ALLEY":" ","HOUSE_NO":"３１８號","E_COORD97":169562.47,"N_COORD97":2542835.1800000002,"ADDRESS":"府連路３１８號","OBJECTID":485912},"geometry":{"x":169562.46999999881,"y":2542835.1799999997}},{"attributes":{"ID":485938,"DIS_CODE":0,"TOWNNAME":"東區","LI":"泉南里","LIN":"32鄰","STREET":"府連路","SECT":" ","MAREA":" ","LANE":" ","ALLEY":" ","HOUSE_NO":"３２０號","E_COORD97":169566.73000000001,"N_COORD97":2542833.9100000001,"ADDRESS":"府連路３２０號","OBJECTID":485913},"geometry":{"x":169566.73000000231,"y":2542833.9100000001}},{"attributes":{"ID":485939,"DIS_CODE":0,"TOWNNAME":"東區","LI":"泉南里","LIN":"32鄰","STREET":"府連路","SECT":" ","MAREA":" ","LANE":" ","ALLEY":" ","HOUSE_NO":"３２２號","E_COORD97":169572.73999999999,"N_COORD97":2542832.4900000002,"ADDRESS":"府連路３２２號","OBJECTID":485914},"geometry":{"x":169572.74000000022,"y":2542832.4900000021}},{"attributes":{"ID":485940,"DIS_CODE":0,"TOWNNAME":"東區","LI":"泉南里","LIN":"32鄰","STREET":"府連路","SECT":" ","MAREA":" ","LANE":" ","ALLEY":" ","HOUSE_NO":"３２４號","E_COORD97":169577.16,"N_COORD97":2542830.75,"ADDRESS":"府連路３２４號","OBJECTID":485915},"geometry":{"x":169577.16000000108,"y":2542830.7500000019}},{"attributes":{"ID":485941,"DIS_CODE":0,"TOWNNAME":"東區","LI":"忠孝里","LIN":"32鄰","STREET":"崇明六街","SECT":" ","MAREA":" ","LANE":" ","ALLEY":" ","HOUSE_NO":"４號","E_COORD97":169598.09,"N_COORD97":2542169.8300000001,"ADDRESS":"崇明六街４號","OBJECTID":485916},"geometry":{"x":169598.09000000078,"y":2542169.8300000001}},{"attributes":{"ID":485942,"DIS_CODE":0,"TOWNNAME":"東區","LI":"忠孝里","LIN":"32鄰","STREET":"崇明六街","SECT":" ","MAREA":" ","LANE":" ","ALLEY":" ","HOUSE_NO":"６號","E_COORD97":169602.94,"N_COORD97":2542170.73,"ADDRESS":"崇明六街６號","OBJECTID":485917},"geometry":{"x":169602.94000000134,"y":2542170.7300000004}},{"attributes":{"ID":485943,"DIS_CODE":0,"TOWNNAME":"東區","LI":"忠孝里","LIN":"32鄰","STREET":"崇明六街","SECT":" ","MAREA":" ","LANE":" ","ALLEY":" ","HOUSE_NO":"６號之１","E_COORD97":169608.14999999999,"N_COORD97":2542172.3399999999,"ADDRESS":"崇明六街６號之１","OBJECTID":485918},"geometry":{"x":169608.1500000013,"y":2542172.3399999999}},{"attributes":{"ID":485944,"DIS_CODE":0,"TOWNNAME":"東區","LI":"忠孝里","LIN":"32鄰","STREET":"崇明六街","SECT":" ","MAREA":" ","LANE":" ","ALLEY":" ","HOUSE_NO":"６號之２","E_COORD97":169613.17999999999,"N_COORD97":2542174.1299999999,"ADDRESS":"崇明六街６號之２","OBJECTID":485919},"geometry":{"x":169613.1799999997,"y":2542174.129999999}},{"attributes":{"ID":485945,"DIS_CODE":0,"TOWNNAME":"東區","LI":"忠孝里","LIN":"32鄰","STREET":"崇明六街","SECT":" ","MAREA":" ","LANE":" ","ALLEY":" ","HOUSE_NO":"６號之４","E_COORD97":169622.87,"N_COORD97":2542178.2599999998,"ADDRESS":"崇明六街６號之４","OBJECTID":485920},"geometry":{"x":169622.86999999918,"y":2542178.2600000016}},{"attributes":{"ID":485946,"DIS_CODE":0,"TOWNNAME":"東區","LI":"忠孝里","LIN":"32鄰","STREET":"崇明六街","SECT":" ","MAREA":" ","LANE":" ","ALLEY":" ","HOUSE_NO":"６號之３","E_COORD97":169617.85000000001,"N_COORD97":2542176.4700000002,"ADDRESS":"崇明六街６號之３","OBJECTID":485921},"geometry":{"x":169617.85000000056,"y":2542176.4700000007}},{"attributes":{"ID":485947,"DIS_CODE":0,"TOWNNAME":"仁德區","LI":"太子里","LIN":"32鄰","STREET":"太子路","SECT":" ","MAREA":" ","LANE":" ","ALLEY":" ","HOUSE_NO":"５０３號","E_COORD97":174005.44,"N_COORD97":2543499.25,"ADDRESS":"太子路５０３號","OBJECTID":485922},"geometry":{"x":174005.44000000134,"y":2543499.25}},{"attributes":{"ID":485948,"DIS_CODE":0,"TOWNNAME":"仁德區","LI":"太子里","LIN":"32鄰","STREET":"太子路","SECT":" ","MAREA":" ","LANE":" ","ALLEY":" ","HOUSE_NO":"５１５號","E_COORD97":173975.41,"N_COORD97":2543501,"ADDRESS":"太子路５１５號","OBJECTID":485923},"geometry":{"x":173975.41000000015,"y":2543501}},{"attributes":{"ID":485949,"DIS_CODE":0,"TOWNNAME":"仁德區","LI":"太子里","LIN":"32鄰","STREET":"太子路","SECT":" ","MAREA":" ","LANE":" ","ALLEY":" ","HOUSE_NO":"５０１號","E_COORD97":174011.60999999999,"N_COORD97":2543498.25,"ADDRESS":"太子路５０１號","OBJECTID":485924},"geometry":{"x":174011.61000000034,"y":2543498.2500000019}},{"attributes":{"ID":485950,"DIS_CODE":0,"TOWNNAME":"仁德區","LI":"太子里","LIN":"32鄰","STREET":"太子路","SECT":" ","MAREA":" ","LANE":" ","ALLEY":" ","HOUSE_NO":"５０５號","E_COORD97":173999.75,"N_COORD97":2543500.5,"ADDRESS":"太子路５０５號","OBJECTID":485925},"geometry":{"x":173999.75000000093,"y":2543500.5}},{"attributes":{"ID":485951,"DIS_CODE":0,"TOWNNAME":"仁德區","LI":"太子里","LIN":"32鄰","STREET":"太子路","SECT":" ","MAREA":" ","LANE":" ","ALLEY":" ","HOUSE_NO":"４９７號","E_COORD97":174019.73000000001,"N_COORD97":2543497.5,"ADDRESS":"太子路４９７號","OBJECTID":485926},"geometry":{"x":174019.73000000045,"y":2543497.5}},{"attributes":{"ID":485952,"DIS_CODE":0,"TOWNNAME":"仁德區","LI":"太子里","LIN":"32鄰","STREET":"太子路","SECT":" ","MAREA":" ","LANE":" ","ALLEY":" ","HOUSE_NO":"５０７號","E_COORD97":173994.89999999999,"N_COORD97":2543501,"ADDRESS":"太子路５０７號","OBJECTID":485927},"geometry":{"x":173994.89999999944,"y":2543501}},{"attributes":{"ID":485953,"DIS_CODE":0,"TOWNNAME":"仁德區","LI":"太子里","LIN":"32鄰","STREET":"太子路","SECT":" ","MAREA":" ","LANE":" ","ALLEY":" ","HOUSE_NO":"５０９號","E_COORD97":173989.14000000001,"N_COORD97":2543500.25,"ADDRESS":"太子路５０９號","OBJECTID":485928},"geometry":{"x":173989.14000000153,"y":2543500.2499999981}},{"attributes":{"ID":485954,"DIS_CODE":0,"TOWNNAME":"仁德區","LI":"後壁里","LIN":"32鄰","STREET":"德洋路","SECT":" ","MAREA":" ","LANE":" ","ALLEY":" ","HOUSE_NO":"２４２號","E_COORD97":172555.26000000001,"N_COORD97":2539568.52,"ADDRESS":"德洋路２４２號","OBJECTID":485929},"geometry":{"x":172555.25999999978,"y":2539568.5199999977}},{"attributes":{"ID":485955,"DIS_CODE":0,"TOWNNAME":"仁德區","LI":"後壁里","LIN":"32鄰","STREET":"德洋路","SECT":" ","MAREA":" ","LANE":" ","ALLEY":" ","HOUSE_NO":"２１２號","E_COORD97":172525.45999999999,"N_COORD97":2539501.27,"ADDRESS":"德洋路２１２號","OBJECTID":485930},"geometry":{"x":172525.45999999996,"y":2539501.2699999996}},{"attributes":{"ID":485956,"DIS_CODE":0,"TOWNNAME":"新市區","LI":"新和里","LIN":"32鄰","STREET":"華興街","SECT":" ","MAREA":" ","LANE":" ","ALLEY":" ","HOUSE_NO":"３７之１號","E_COORD97":177712.60000000001,"N_COORD97":2552984.0499999998,"ADDRESS":"華興街３７之１號","OBJECTID":485931},"geometry":{"x":177712.60000000056,"y":2552984.0500000007}},{"attributes":{"ID":485957,"DIS_CODE":0,"TOWNNAME":"新市區","LI":"新和里","LIN":"32鄰","STREET":"華興街","SECT":" ","MAREA":" ","LANE":" ","ALLEY":" ","HOUSE_NO":"５９號","E_COORD97":177653.45000000001,"N_COORD97":2552977.5,"ADDRESS":"華興街５９號","OBJECTID":485932},"geometry":{"x":177653.45000000112,"y":2552977.5}},{"attributes":{"ID":485958,"DIS_CODE":0,"TOWNNAME":"新市區","LI":"新和里","LIN":"32鄰","STREET":"華興街","SECT":" ","MAREA":" ","LANE":" ","ALLEY":" ","HOUSE_NO":"２３號","E_COORD97":177767.45000000001,"N_COORD97":2552992.25,"ADDRESS":"華興街２３號","OBJECTID":485933},"geometry":{"x":177767.45000000019,"y":2552992.25}},{"attributes":{"ID":485959,"DIS_CODE":0,"TOWNNAME":"永康區","LI":"正強里","LIN":"32鄰","STREET":"中正路","SECT":" ","MAREA":" ","LANE":" ","ALLEY":" ","HOUSE_NO":"２１０號","E_COORD97":173355.37,"N_COORD97":2547891,"ADDRESS":"中正路２１０號","OBJECTID":485934},"geometry":{"x":173355.37000000011,"y":2547891}},{"attributes":{"ID":485960,"DIS_CODE":0,"TOWNNAME":"永康區","LI":"正強里","LIN":"32鄰","STREET":"中正路","SECT":" ","MAREA":" ","LANE":" ","ALLEY":" ","HOUSE_NO":"２２０號","E_COORD97":173323.01000000001,"N_COORD97":2547893.25,"ADDRESS":"中正路２２０號","OBJECTID":485935},"geometry":{"x":173323.01000000071,"y":2547893.25}},{"attributes":{"ID":485961,"DIS_CODE":0,"TOWNNAME":"永康區","LI":"正強里","LIN":"32鄰","STREET":"四維街","SECT":" ","MAREA":" ","LANE":" ","ALLEY":" ","HOUSE_NO":"４１號","E_COORD97":173382.94,"N_COORD97":2548037.25,"ADDRESS":"四維街４１號","OBJECTID":485936},"geometry":{"x":173382.94000000134,"y":2548037.2500000019}},{"attributes":{"ID":485962,"DIS_CODE":0,"TOWNNAME":"永康區","LI":"正強里","LIN":"32鄰","STREET":"四維街","SECT":" ","MAREA":" ","LANE":" ","ALLEY":" ","HOUSE_NO":"３９號之１","E_COORD97":173389.26999999999,"N_COORD97":2548020.0299999998,"ADDRESS":"四維街３９號之１","OBJECTID":485937},"geometry":{"x":173389.26999999955,"y":2548020.0299999993}},{"attributes":{"ID":485963,"DIS_CODE":0,"TOWNNAME":"永康區","LI":"正強里","LIN":"32鄰","STREET":"四維街","SECT":" ","MAREA":" ","LANE":" ","ALLEY":" ","HOUSE_NO":"４９號","E_COORD97":173396.41,"N_COORD97":2548053,"ADDRESS":"四維街４９號","OBJECTID":485938},"geometry":{"x":173396.41000000108,"y":2548053.0000000019}},{"attributes":{"ID":485964,"DIS_CODE":0,"TOWNNAME":"永康區","LI":"正強里","LIN":"32鄰","STREET":"四維街","SECT":" ","MAREA":" ","LANE":" ","ALLEY":" ","HOUSE_NO":"３１號","E_COORD97":173407.78,"N_COORD97":2548021.0800000001,"ADDRESS":"四維街３１號","OBJECTID":485939},"geometry":{"x":173407.78000000119,"y":2548021.0800000038}},{"attributes":{"ID":485965,"DIS_CODE":0,"TOWNNAME":"永康區","LI":"正強里","LIN":"32鄰","STREET":"四維街","SECT":" ","MAREA":" ","LANE":" ","ALLEY":" ","HOUSE_NO":"３７號","E_COORD97":173403.06,"N_COORD97":2548034.8300000001,"ADDRESS":"四維街３７號","OBJECTID":485940},"geometry":{"x":173403.05999999866,"y":2548034.8300000001}},{"attributes":{"ID":485966,"DIS_CODE":0,"TOWNNAME":"永康區","LI":"正強里","LIN":"32鄰","STREET":"四維街","SECT":" ","MAREA":" ","LANE":" ","ALLEY":" ","HOUSE_NO":"２５號","E_COORD97":173415.23000000001,"N_COORD97":2547999.75,"ADDRESS":"四維街２５號","OBJECTID":485941},"geometry":{"x":173415.23000000138,"y":2547999.7500000019}},{"attributes":{"ID":485967,"DIS_CODE":0,"TOWNNAME":"永康區","LI":"永康里","LIN":"32鄰","STREET":"永康街","SECT":" ","MAREA":" ","LANE":" ","ALLEY":" ","HOUSE_NO":"２７１號","E_COORD97":174362.39999999999,"N_COORD97":2547078.9900000002,"ADDRESS":"永康街２７１號","OBJECTID":485942},"geometry":{"x":174362.40000000037,"y":2547078.9900000002}},{"attributes":{"ID":485968,"DIS_CODE":0,"TOWNNAME":"永康區","LI":"永康里","LIN":"32鄰","STREET":"永康街","SECT":" ","MAREA":" ","LANE":" ","ALLEY":" ","HOUSE_NO":"２５７號","E_COORD97":174315.37,"N_COORD97":2547074.3700000001,"ADDRESS":"永康街２５７號","OBJECTID":485943},"geometry":{"x":174315.37000000197,"y":2547074.3700000048}},{"attributes":{"ID":485969,"DIS_CODE":0,"TOWNNAME":"永康區","LI":"永康里","LIN":"32鄰","STREET":"永康街","SECT":" ","MAREA":" ","LANE":" ","ALLEY":" ","HOUSE_NO":"２７５號","E_COORD97":174375.23000000001,"N_COORD97":2547081.9900000002,"ADDRESS":"永康街２７５號","OBJECTID":485944},"geometry":{"x":174375.23000000045,"y":2547081.9900000002}},{"attributes":{"ID":485970,"DIS_CODE":0,"TOWNNAME":"永康區","LI":"永康里","LIN":"32鄰","STREET":"永康街","SECT":" ","MAREA":" ","LANE":" ","ALLEY":" ","HOUSE_NO":"２７３號","E_COORD97":174368.76000000001,"N_COORD97":2547080.2400000002,"ADDRESS":"永康街２７３號","OBJECTID":485945},"geometry":{"x":174368.76000000071,"y":2547080.2400000002}},{"attributes":{"ID":485971,"DIS_CODE":0,"TOWNNAME":"永康區","LI":"永康里","LIN":"32鄰","STREET":"永康街","SECT":" ","MAREA":" ","LANE":" ","ALLEY":" ","HOUSE_NO":"２５５號","E_COORD97":174310.66,"N_COORD97":2547073.6200000001,"ADDRESS":"永康街２５５號","OBJECTID":485946},"geometry":{"x":174310.66000000108,"y":2547073.6200000029}},{"attributes":{"ID":485972,"DIS_CODE":0,"TOWNNAME":"永康區","LI":"正強里","LIN":"32鄰","STREET":"中正路","SECT":" ","MAREA":" ","LANE":" ","ALLEY":" ","HOUSE_NO":"２０８號","E_COORD97":173372.44,"N_COORD97":2547889.75,"ADDRESS":"中正路２０８號","OBJECTID":485947},"geometry":{"x":173372.44000000041,"y":2547889.75}},{"attributes":{"ID":485973,"DIS_CODE":0,"TOWNNAME":"永康區","LI":"正強里","LIN":"32鄰","STREET":"中正路","SECT":" ","MAREA":" ","LANE":" ","ALLEY":" ","HOUSE_NO":"２１２號","E_COORD97":173346.81,"N_COORD97":2547891.5,"ADDRESS":"中正路２１２號","OBJECTID":485948},"geometry":{"x":173346.80999999959,"y":2547891.5}},{"attributes":{"ID":485974,"DIS_CODE":0,"TOWNNAME":"永康區","LI":"北灣里","LIN":"32鄰","STREET":"大同街","SECT":" ","MAREA":" ","LANE":" ","ALLEY":" ","HOUSE_NO":"７７號","E_COORD97":175141.63,"N_COORD97":2545447.2799999998,"ADDRESS":"大同街７７號","OBJECTID":485949},"geometry":{"x":175141.62999999989,"y":2545447.2800000012}},{"attributes":{"ID":485975,"DIS_CODE":0,"TOWNNAME":"永康區","LI":"正強里","LIN":"32鄰","STREET":"四維街","SECT":" ","MAREA":" ","LANE":" ","ALLEY":" ","HOUSE_NO":"２７號","E_COORD97":173411.95000000001,"N_COORD97":2548005.5,"ADDRESS":"四維街２７號","OBJECTID":485950},"geometry":{"x":173411.95000000112,"y":2548005.5000000019}},{"attributes":{"ID":485976,"DIS_CODE":0,"TOWNNAME":"中西區","LI":"西賢里","LIN":"32鄰","STREET":"西賢六街","SECT":" ","MAREA":" ","LANE":" ","ALLEY":" ","HOUSE_NO":"４７號","E_COORD97":165074.78,"N_COORD97":2544724.2599999998,"ADDRESS":"西賢六街４７號","OBJECTID":485951},"geometry":{"x":165074.78000000026,"y":2544724.2600000035}},{"attributes":{"ID":485977,"DIS_CODE":0,"TOWNNAME":"中西區","LI":"西賢里","LIN":"32鄰","STREET":"西賢六街","SECT":" ","MAREA":" ","LANE":" ","ALLEY":" ","HOUSE_NO":"４９號","E_COORD97":165069.85999999999,"N_COORD97":2544725.4500000002,"ADDRESS":"西賢六街４９號","OBJECTID":485952},"geometry":{"x":165069.86000000034,"y":2544725.4499999974}},{"attributes":{"ID":485978,"DIS_CODE":0,"TOWNNAME":"中西區","LI":"西賢里","LIN":"32鄰","STREET":"西賢六街","SECT":" ","MAREA":" ","LANE":" ","ALLEY":" ","HOUSE_NO":"５１號","E_COORD97":165065.22,"N_COORD97":2544726.52,"ADDRESS":"西賢六街５１號","OBJECTID":485953},"geometry":{"x":165065.2200000016,"y":2544726.5200000014}},{"attributes":{"ID":485979,"DIS_CODE":0,"TOWNNAME":"中西區","LI":"西賢里","LIN":"32鄰","STREET":"西賢六街","SECT":" ","MAREA":" ","LANE":" ","ALLEY":" ","HOUSE_NO":"５３號","E_COORD97":165061.10000000001,"N_COORD97":2544727.5800000001,"ADDRESS":"西賢六街５３號","OBJECTID":485954},"geometry":{"x":165061.10000000056,"y":2544727.5800000001}},{"attributes":{"ID":485980,"DIS_CODE":0,"TOWNNAME":"中西區","LI":"西賢里","LIN":"32鄰","STREET":"西賢六街","SECT":" ","MAREA":" ","LANE":" ","ALLEY":" ","HOUSE_NO":"５５號","E_COORD97":165055.92000000001,"N_COORD97":2544728.2400000002,"ADDRESS":"西賢六街５５號","OBJECTID":485955},"geometry":{"x":165055.92000000086,"y":2544728.2400000039}},{"attributes":{"ID":485981,"DIS_CODE":0,"TOWNNAME":"中西區","LI":"西賢里","LIN":"32鄰","STREET":"西賢六街","SECT":" ","MAREA":" ","LANE":" ","ALLEY":" ","HOUSE_NO":"５７號","E_COORD97":165052.07000000001,"N_COORD97":2544728.8999999999,"ADDRESS":"西賢六街５７號","OBJECTID":485956},"geometry":{"x":165052.07000000123,"y":2544728.9000000004}},{"attributes":{"ID":485982,"DIS_CODE":0,"TOWNNAME":"中西區","LI":"西賢里","LIN":"32鄰","STREET":"西賢六街","SECT":" ","MAREA":" ","LANE":" ","ALLEY":" ","HOUSE_NO":"５９號","E_COORD97":165046.76000000001,"N_COORD97":2544730.23,"ADDRESS":"西賢六街５９號","OBJECTID":485957},"geometry":{"x":165046.76000000071,"y":2544730.2300000004}},{"attributes":{"ID":485983,"DIS_CODE":0,"TOWNNAME":"中西區","LI":"西賢里","LIN":"32鄰","STREET":"西賢六街","SECT":" ","MAREA":" ","LANE":" ","ALLEY":" ","HOUSE_NO":"６１號","E_COORD97":165042.64000000001,"N_COORD97":2544731.29,"ADDRESS":"西賢六街６１號","OBJECTID":485958},"geometry":{"x":165042.6400000006,"y":2544731.290000001}},{"attributes":{"ID":485984,"DIS_CODE":0,"TOWNNAME":"中西區","LI":"西賢里","LIN":"32鄰","STREET":"西賢六街","SECT":" ","MAREA":" ","LANE":" ","ALLEY":" ","HOUSE_NO":"６３號","E_COORD97":165038.26000000001,"N_COORD97":2544732.48,"ADDRESS":"西賢六街６３號","OBJECTID":485959},"geometry":{"x":165038.26000000071,"y":2544732.4800000004}},{"attributes":{"ID":485985,"DIS_CODE":0,"TOWNNAME":"中西區","LI":"西賢里","LIN":"32鄰","STREET":"西賢六街","SECT":" ","MAREA":" ","LANE":" ","ALLEY":" ","HOUSE_NO":"６５號","E_COORD97":165033.60999999999,"N_COORD97":2544733.2799999998,"ADDRESS":"西賢六街６５號","OBJECTID":485960},"geometry":{"x":165033.61000000034,"y":2544733.2799999993}},{"attributes":{"ID":485986,"DIS_CODE":0,"TOWNNAME":"中西區","LI":"西賢里","LIN":"32鄰","STREET":"西賢六街","SECT":" ","MAREA":" ","LANE":" ","ALLEY":" ","HOUSE_NO":"６７號","E_COORD97":165028.70000000001,"N_COORD97":2544734.4700000002,"ADDRESS":"西賢六街６７號","OBJECTID":485961},"geometry":{"x":165028.70000000205,"y":2544734.4700000025}},{"attributes":{"ID":485987,"DIS_CODE":0,"TOWNNAME":"中西區","LI":"西賢里","LIN":"32鄰","STREET":"西賢六街","SECT":" ","MAREA":" ","LANE":" ","ALLEY":" ","HOUSE_NO":"６９號","E_COORD97":165024.85000000001,"N_COORD97":2544735.3999999999,"ADDRESS":"西賢六街６９號","OBJECTID":485962},"geometry":{"x":165024.84999999963,"y":2544735.4000000022}},{"attributes":{"ID":485988,"DIS_CODE":0,"TOWNNAME":"中西區","LI":"西賢里","LIN":"32鄰","STREET":"西賢六街","SECT":" ","MAREA":" ","LANE":" ","ALLEY":" ","HOUSE_NO":"７１號","E_COORD97":165011.72,"N_COORD97":2544737.8500000001,"ADDRESS":"西賢六街７１號","OBJECTID":485963},"geometry":{"x":165011.72000000067,"y":2544737.8500000015}},{"attributes":{"ID":485989,"DIS_CODE":0,"TOWNNAME":"中西區","LI":"西賢里","LIN":"32鄰","STREET":"西賢六街","SECT":" ","MAREA":" ","LANE":" ","ALLEY":" ","HOUSE_NO":"７３號","E_COORD97":165006.97,"N_COORD97":2544740.9399999999,"ADDRESS":"西賢六街７３號","OBJECTID":485964},"geometry":{"x":165006.96999999974,"y":2544740.9400000013}},{"attributes":{"ID":485990,"DIS_CODE":0,"TOWNNAME":"永康區","LI":"永康里","LIN":"32鄰","STREET":"永大路","SECT":"二段","MAREA":" ","LANE":" ","ALLEY":" ","HOUSE_NO":"１４４６號","E_COORD97":174284.34,"N_COORD97":2547092.0899999999,"ADDRESS":"永大路二段１４４６號","OBJECTID":485965},"geometry":{"x":174284.33999999985,"y":2547092.0900000017}},{"attributes":{"ID":485991,"DIS_CODE":0,"TOWNNAME":"永康區","LI":"永康里","LIN":"32鄰","STREET":"永大路","SECT":"二段","MAREA":" ","LANE":" ","ALLEY":" ","HOUSE_NO":"１４５２號","E_COORD97":174277.41,"N_COORD97":2547120.8700000001,"ADDRESS":"永大路二段１４５２號","OBJECTID":485966},"geometry":{"x":174277.41000000015,"y":2547120.870000001}},{"attributes":{"ID":485992,"DIS_CODE":0,"TOWNNAME":"仁德區","LI":"後壁里","LIN":"32鄰","STREET":"民安路","SECT":"一段","MAREA":" ","LANE":" ","ALLEY":" ","HOUSE_NO":"２３８號","E_COORD97":172665.10999999999,"N_COORD97":2539694.7599999998,"ADDRESS":"民安路一段２３８號","OBJECTID":485967},"geometry":{"x":172665.11000000127,"y":2539694.7599999998}},{"attributes":{"ID":485993,"DIS_CODE":0,"TOWNNAME":"仁德區","LI":"後壁里","LIN":"32鄰","STREET":"德洋路","SECT":" ","MAREA":" ","LANE":" ","ALLEY":" ","HOUSE_NO":"２７１號","E_COORD97":172584.10999999999,"N_COORD97":2539679.8500000001,"ADDRESS":"德洋路２７１號","OBJECTID":485968},"geometry":{"x":172584.11000000034,"y":2539679.8500000015}},{"attributes":{"ID":485994,"DIS_CODE":0,"TOWNNAME":"仁德區","LI":"後壁里","LIN":"32鄰","STREET":"德洋路","SECT":" ","MAREA":" ","LANE":" ","ALLEY":" ","HOUSE_NO":"２７３號","E_COORD97":172586.88,"N_COORD97":2539686.8300000001,"ADDRESS":"德洋路２７３號","OBJECTID":485969},"geometry":{"x":172586.87999999989,"y":2539686.8300000019}},{"attributes":{"ID":485995,"DIS_CODE":0,"TOWNNAME":"仁德區","LI":"後壁里","LIN":"32鄰","STREET":"德洋路","SECT":" ","MAREA":" ","LANE":" ","ALLEY":" ","HOUSE_NO":"２７５號","E_COORD97":172589.57000000001,"N_COORD97":2539692.75,"ADDRESS":"德洋路２７５號","OBJECTID":485970},"geometry":{"x":172589.5700000003,"y":2539692.75}},{"attributes":{"ID":485996,"DIS_CODE":0,"TOWNNAME":"仁德區","LI":"後壁里","LIN":"32鄰","STREET":"德洋路","SECT":" ","MAREA":" ","LANE":" ","ALLEY":" ","HOUSE_NO":"２７７號","E_COORD97":172592.57999999999,"N_COORD97":2539699.6800000002,"ADDRESS":"德洋路２７７號","OBJECTID":485971},"geometry":{"x":172592.58000000007,"y":2539699.6799999997}},{"attributes":{"ID":485997,"DIS_CODE":0,"TOWNNAME":"仁德區","LI":"後壁里","LIN":"32鄰","STREET":"德洋路","SECT":" ","MAREA":" ","LANE":" ","ALLEY":" ","HOUSE_NO":"２７９號","E_COORD97":172595.48999999999,"N_COORD97":2539706.0499999998,"ADDRESS":"德洋路２７９號","OBJECTID":485972},"geometry":{"x":172595.49000000022,"y":2539706.0500000026}},{"attributes":{"ID":485998,"DIS_CODE":0,"TOWNNAME":"新市區","LI":"新和里","LIN":"32鄰","STREET":"華興街","SECT":" ","MAREA":" ","LANE":" ","ALLEY":" ","HOUSE_NO":"５５號","E_COORD97":177664.29000000001,"N_COORD97":2552979.75,"ADDRESS":"華興街５５號","OBJECTID":485973},"geometry":{"x":177664.29000000097,"y":2552979.7499999981}},{"attributes":{"ID":485999,"DIS_CODE":0,"TOWNNAME":"新市區","LI":"新和里","LIN":"32鄰","STREET":"華興街","SECT":" ","MAREA":" ","LANE":" ","ALLEY":" ","HOUSE_NO":"３５號","E_COORD97":177742.01000000001,"N_COORD97":2552989.25,"ADDRESS":"華興街３５號","OBJECTID":485974},"geometry":{"x":177742.01000000071,"y":2552989.25}},{"attributes":{"ID":486000,"DIS_CODE":0,"TOWNNAME":"永康區","LI":"永康里","LIN":"32鄰","STREET":"永康街","SECT":" ","MAREA":" ","LANE":" ","ALLEY":" ","HOUSE_NO":"２５３號","E_COORD97":174306.23999999999,"N_COORD97":2547071.3700000001,"ADDRESS":"永康街２５３號","OBJECTID":485975},"geometry":{"x":174306.24000000209,"y":2547071.3700000029}},{"attributes":{"ID":486001,"DIS_CODE":0,"TOWNNAME":"永康區","LI":"建國里","LIN":"32鄰","STREET":"復興路","SECT":" ","MAREA":" ","LANE":" ","ALLEY":" ","HOUSE_NO":"５９號","E_COORD97":173029.82999999999,"N_COORD97":2544315.6200000001,"ADDRESS":"復興路５９號","OBJECTID":485976},"geometry":{"x":173029.83000000007,"y":2544315.620000001}},{"attributes":{"ID":486002,"DIS_CODE":0,"TOWNNAME":"永康區","LI":"永康里","LIN":"32鄰","STREET":"永康街","SECT":" ","MAREA":" ","LANE":" ","ALLEY":" ","HOUSE_NO":"２６３號","E_COORD97":174335.97,"N_COORD97":2547078.1299999999,"ADDRESS":"永康街２６３號","OBJECTID":485977},"geometry":{"x":174335.96999999974,"y":2547078.1300000008}},{"attributes":{"ID":486003,"DIS_CODE":0,"TOWNNAME":"永康區","LI":"北灣里","LIN":"32鄰","STREET":"大同街","SECT":" ","MAREA":" ","LANE":" ","ALLEY":" ","HOUSE_NO":"７９號","E_COORD97":175137.85999999999,"N_COORD97":2545449.0299999998,"ADDRESS":"大同街７９號","OBJECTID":485978},"geometry":{"x":175137.8600000022,"y":2545449.0299999993}},{"attributes":{"ID":486004,"DIS_CODE":0,"TOWNNAME":"永康區","LI":"南灣里","LIN":"32鄰","STREET":"大灣一街","SECT":" ","MAREA":" ","LANE":" ","ALLEY":" ","HOUSE_NO":"５號","E_COORD97":174220.10000000001,"N_COORD97":2544812.8999999999,"ADDRESS":"大灣一街５號","OBJECTID":485979},"geometry":{"x":174220.10000000149,"y":2544812.9000000022}},{"attributes":{"ID":486005,"DIS_CODE":0,"TOWNNAME":"永康區","LI":"東灣里","LIN":"32鄰","STREET":"大灣一街","SECT":" ","MAREA":" ","LANE":" ","ALLEY":" ","HOUSE_NO":"３５２號","E_COORD97":175101.78,"N_COORD97":2544764.54,"ADDRESS":"大灣一街３５２號","OBJECTID":485980},"geometry":{"x":175101.78000000026,"y":2544764.5399999991}},{"attributes":{"ID":486006,"DIS_CODE":0,"TOWNNAME":"永康區","LI":"南灣里","LIN":"32鄰","STREET":"大灣一街","SECT":" ","MAREA":" ","LANE":" ","ALLEY":" ","HOUSE_NO":"３１號","E_COORD97":174275.54000000001,"N_COORD97":2544798.8399999999,"ADDRESS":"大灣一街３１號","OBJECTID":485981},"geometry":{"x":174275.54000000097,"y":2544798.8400000017}},{"attributes":{"ID":486007,"DIS_CODE":0,"TOWNNAME":"永康區","LI":"建國里","LIN":"32鄰","STREET":"復興路","SECT":" ","MAREA":" ","LANE":" ","ALLEY":" ","HOUSE_NO":"５７號","E_COORD97":173033.92999999999,"N_COORD97":2544315.6200000001,"ADDRESS":"復興路５７號","OBJECTID":485982},"geometry":{"x":173033.9299999997,"y":2544315.620000001}},{"attributes":{"ID":486008,"DIS_CODE":0,"TOWNNAME":"永康區","LI":"東灣里","LIN":"32鄰","STREET":"大灣一街","SECT":" ","MAREA":" ","LANE":" ","ALLEY":" ","HOUSE_NO":"３２６號","E_COORD97":175057.47,"N_COORD97":2544729.8300000001,"ADDRESS":"大灣一街３２６號","OBJECTID":485983},"geometry":{"x":175057.47000000067,"y":2544729.8300000001}},{"attributes":{"ID":486009,"DIS_CODE":0,"TOWNNAME":"佳里區","LI":"安西里","LIN":"32鄰","STREET":"光華街","SECT":" ","MAREA":" ","LANE":" ","ALLEY":" ","HOUSE_NO":"１１６號","E_COORD97":165102.67000000001,"N_COORD97":2562826.75,"ADDRESS":"光華街１１６號","OBJECTID":485984},"geometry":{"x":165102.66999999993,"y":2562826.7500000019}},{"attributes":{"ID":486010,"DIS_CODE":0,"TOWNNAME":"佳里區","LI":"安西里","LIN":"32鄰","STREET":"光華街","SECT":" ","MAREA":" ","LANE":" ","ALLEY":" ","HOUSE_NO":"１１８號","E_COORD97":165098.38,"N_COORD97":2562827.0299999998,"ADDRESS":"光華街１１８號","OBJECTID":485985},"geometry":{"x":165098.38000000082,"y":2562827.0300000012}},{"attributes":{"ID":486011,"DIS_CODE":0,"TOWNNAME":"佳里區","LI":"安西里","LIN":"32鄰","STREET":"光華街","SECT":" ","MAREA":" ","LANE":" ","ALLEY":" ","HOUSE_NO":"１２０號","E_COORD97":165093.78,"N_COORD97":2562826.8599999999,"ADDRESS":"光華街１２０號","OBJECTID":485986},"geometry":{"x":165093.78000000026,"y":2562826.8599999994}},{"attributes":{"ID":486012,"DIS_CODE":0,"TOWNNAME":"佳里區","LI":"安西里","LIN":"32鄰","STREET":"光華街","SECT":" ","MAREA":" ","LANE":" ","ALLEY":" ","HOUSE_NO":"１２２號","E_COORD97":165089.72,"N_COORD97":2562827.1200000001,"ADDRESS":"光華街１２２號","OBJECTID":485987},"geometry":{"x":165089.72000000067,"y":2562827.120000001}},{"attributes":{"ID":486013,"DIS_CODE":0,"TOWNNAME":"佳里區","LI":"安西里","LIN":"32鄰","STREET":"光華街","SECT":" ","MAREA":" ","LANE":" ","ALLEY":" ","HOUSE_NO":"１２４號","E_COORD97":165085.16,"N_COORD97":2562827.0499999998,"ADDRESS":"光華街１２４號","OBJECTID":485988},"geometry":{"x":165085.16000000108,"y":2562827.0500000007}},{"attributes":{"ID":486014,"DIS_CODE":0,"TOWNNAME":"佳里區","LI":"安西里","LIN":"32鄰","STREET":"光華街","SECT":" ","MAREA":" ","LANE":" ","ALLEY":" ","HOUSE_NO":"１２６號","E_COORD97":165081.07000000001,"N_COORD97":2562826.8100000001,"ADDRESS":"光華街１２６號","OBJECTID":485989},"geometry":{"x":165081.07000000123,"y":2562826.8100000024}},{"attributes":{"ID":486015,"DIS_CODE":0,"TOWNNAME":"麻豆區","LI":"大埕里","LIN":"8鄰","STREET":" ","SECT":" ","MAREA":"大埕","LANE":" ","ALLEY":" ","HOUSE_NO":"１５號之３９","E_COORD97":173161.24254000001,"N_COORD97":2565359.2446599999,"ADDRESS":"大埕１５號之３９","OBJECTID":485990},"geometry":{"x":173161.24254000187,"y":2565359.2446600012}},{"attributes":{"ID":486016,"DIS_CODE":0,"TOWNNAME":"佳里區","LI":"安西里","LIN":"32鄰","STREET":"光華街","SECT":" ","MAREA":" ","LANE":" ","ALLEY":" ","HOUSE_NO":"１２８號","E_COORD97":165071.16,"N_COORD97":2562822.6899999999,"ADDRESS":"光華街１２８號","OBJECTID":485991},"geometry":{"x":165071.16000000201,"y":2562822.6900000013}},{"attributes":{"ID":486017,"DIS_CODE":0,"TOWNNAME":"永康區","LI":"東灣里","LIN":"32鄰","STREET":"大灣一街","SECT":" ","MAREA":" ","LANE":" ","ALLEY":" ","HOUSE_NO":"３３８號","E_COORD97":175079.38,"N_COORD97":2544749.7000000002,"ADDRESS":"大灣一街３３８號","OBJECTID":485992},"geometry":{"x":175079.37999999896,"y":2544749.6999999993}},{"attributes":{"ID":486018,"DIS_CODE":0,"TOWNNAME":"永康區","LI":"南灣里","LIN":"32鄰","STREET":"大灣一街","SECT":" ","MAREA":" ","LANE":" ","ALLEY":" ","HOUSE_NO":"２９號","E_COORD97":174271.48000000001,"N_COORD97":2544800.0800000001,"ADDRESS":"大灣一街２９號","OBJECTID":485993},"geometry":{"x":174271.48000000138,"y":2544800.0800000038}},{"attributes":{"ID":486019,"DIS_CODE":0,"TOWNNAME":"永康區","LI":"西灣里","LIN":"32鄰","STREET":"國光八街","SECT":" ","MAREA":" ","LANE":" ","ALLEY":" ","HOUSE_NO":"８０號","E_COORD97":174219.35999999999,"N_COORD97":2545769.21,"ADDRESS":"國光八街８０號","OBJECTID":485994},"geometry":{"x":174219.36000000127,"y":2545769.2100000009}},{"attributes":{"ID":486020,"DIS_CODE":0,"TOWNNAME":"永康區","LI":"西灣里","LIN":"32鄰","STREET":"國光八街","SECT":" ","MAREA":" ","LANE":" ","ALLEY":" ","HOUSE_NO":"６６號","E_COORD97":174248.79000000001,"N_COORD97":2545773.96,"ADDRESS":"國光八街６６號","OBJECTID":485995},"geometry":{"x":174248.79000000097,"y":2545773.9600000009}},{"attributes":{"ID":486021,"DIS_CODE":0,"TOWNNAME":"永康區","LI":"西灣里","LIN":"32鄰","STREET":"國光八街","SECT":" ","MAREA":" ","LANE":" ","ALLEY":" ","HOUSE_NO":"７８號","E_COORD97":174223.64000000001,"N_COORD97":2545769.46,"ADDRESS":"國光八街７８號","OBJECTID":485996},"geometry":{"x":174223.6400000006,"y":2545769.4600000028}},{"attributes":{"ID":486022,"DIS_CODE":0,"TOWNNAME":"永康區","LI":"永康里","LIN":"32鄰","STREET":"永明街","SECT":" ","MAREA":" ","LANE":" ","ALLEY":" ","HOUSE_NO":"１５０號","E_COORD97":174308.20000000001,"N_COORD97":2547186.6699999999,"ADDRESS":"永明街１５０號","OBJECTID":485997},"geometry":{"x":174308.20000000112,"y":2547186.6700000018}},{"attributes":{"ID":486023,"DIS_CODE":0,"TOWNNAME":"佳里區","LI":"安西里","LIN":"32鄰","STREET":"安西路","SECT":" ","MAREA":" ","LANE":" ","ALLEY":" ","HOUSE_NO":"２４９號","E_COORD97":165114.67999999999,"N_COORD97":2562825.3599999999,"ADDRESS":"安西路２４９號","OBJECTID":485998},"geometry":{"x":165114.68000000156,"y":2562825.3600000013}},{"attributes":{"ID":486024,"DIS_CODE":0,"TOWNNAME":"佳里區","LI":"安西里","LIN":"32鄰","STREET":"安西路","SECT":" ","MAREA":" ","LANE":" ","ALLEY":" ","HOUSE_NO":"２５１號","E_COORD97":165115.44,"N_COORD97":2562832.2400000002,"ADDRESS":"安西路２５１號","OBJECTID":485999},"geometry":{"x":165115.44000000227,"y":2562832.2400000002}},{"attributes":{"ID":486025,"DIS_CODE":0,"TOWNNAME":"佳里區","LI":"安西里","LIN":"32鄰","STREET":"安西路","SECT":" ","MAREA":" ","LANE":" ","ALLEY":" ","HOUSE_NO":"２５３號","E_COORD97":165115.73000000001,"N_COORD97":2562837.5299999998,"ADDRESS":"安西路２５３號","OBJECTID":486000},"geometry":{"x":165115.73000000138,"y":2562837.5300000012}}]}