{"displayFieldName":"TOWNNAME","fieldAliases":{"ID":"ID","DIS_CODE":"DIS_CODE","TOWNNAME":"TOWNNAME","LI":"LI","LIN":"LIN","STREET":"STREET","SECT":"SECT","MAREA":"MAREA","LANE":"LANE","ALLEY":"ALLEY","HOUSE_NO":"HOUSE_NO","E_COORD97":"E_COORD97","N_COORD97":"N_COORD97","ADDRESS":"ADDRESS","OBJECTID":"OBJECTID"},"geometryType":"esriGeometryPoint","spatialReference":{"wkid":102443,"latestWkid":3826},"fields":[{"name":"ID","type":"esriFieldTypeDouble","alias":"ID"},{"name":"DIS_CODE","type":"esriFieldTypeInteger","alias":"DIS_CODE"},{"name":"TOWNNAME","type":"esriFieldTypeString","alias":"TOWNNAME","length":8},{"name":"LI","type":"esriFieldTypeString","alias":"LI","length":8},{"name":"LIN","type":"esriFieldTypeString","alias":"LIN","length":12},{"name":"STREET","type":"esriFieldTypeString","alias":"STREET","length":20},{"name":"SECT","type":"esriFieldTypeString","alias":"SECT","length":8},{"name":"MAREA","type":"esriFieldTypeString","alias":"MAREA","length":12},{"name":"LANE","type":"esriFieldTypeString","alias":"LANE","length":10},{"name":"ALLEY","type":"esriFieldTypeString","alias":"ALLEY","length":10},{"name":"HOUSE_NO","type":"esriFieldTypeString","alias":"HOUSE_NO","length":20},{"name":"E_COORD97","type":"esriFieldTypeDouble","alias":"E_COORD97"},{"name":"N_COORD97","type":"esriFieldTypeDouble","alias":"N_COORD97"},{"name":"ADDRESS","type":"esriFieldTypeString","alias":"ADDRESS","length":50},{"name":"OBJECTID","type":"esriFieldTypeOID","alias":"OBJECTID"}],"features":[{"attributes":{"ID":361011,"DIS_CODE":0,"TOWNNAME":"北區","LI":"重興里","LIN":"19鄰","STREET":"林森路","SECT":"三段","MAREA":" ","LANE":"１４０巷","ALLEY":" ","HOUSE_NO":"４９號二樓","E_COORD97":170722.13,"N_COORD97":2545018.4199999999,"ADDRESS":"林森路三段１４０巷４９號二樓","OBJECTID":361001},"geometry":{"x":170722.12999999989,"y":2545018.4200000018}},{"attributes":{"ID":361012,"DIS_CODE":0,"TOWNNAME":"北區","LI":"重興里","LIN":"19鄰","STREET":"林森路","SECT":"三段","MAREA":" ","LANE":"１４０巷","ALLEY":" ","HOUSE_NO":"４９號八樓","E_COORD97":170722.13,"N_COORD97":2545018.4199999999,"ADDRESS":"林森路三段１４０巷４９號八樓","OBJECTID":361002},"geometry":{"x":170722.12999999989,"y":2545018.4200000018}},{"attributes":{"ID":361013,"DIS_CODE":0,"TOWNNAME":"北區","LI":"重興里","LIN":"19鄰","STREET":"林森路","SECT":"三段","MAREA":" ","LANE":"１４０巷","ALLEY":" ","HOUSE_NO":"４９號三樓","E_COORD97":170722.13,"N_COORD97":2545018.4199999999,"ADDRESS":"林森路三段１４０巷４９號三樓","OBJECTID":361003},"geometry":{"x":170722.12999999989,"y":2545018.4200000018}},{"attributes":{"ID":361014,"DIS_CODE":0,"TOWNNAME":"北區","LI":"重興里","LIN":"19鄰","STREET":"林森路","SECT":"三段","MAREA":" ","LANE":"１４０巷","ALLEY":" ","HOUSE_NO":"４９號五樓","E_COORD97":170722.13,"N_COORD97":2545018.4199999999,"ADDRESS":"林森路三段１４０巷４９號五樓","OBJECTID":361004},"geometry":{"x":170722.12999999989,"y":2545018.4200000018}},{"attributes":{"ID":361015,"DIS_CODE":0,"TOWNNAME":"北區","LI":"重興里","LIN":"19鄰","STREET":"林森路","SECT":"三段","MAREA":" ","LANE":"１４０巷","ALLEY":" ","HOUSE_NO":"４９號六樓","E_COORD97":170722.13,"N_COORD97":2545018.4199999999,"ADDRESS":"林森路三段１４０巷４９號六樓","OBJECTID":361005},"geometry":{"x":170722.12999999989,"y":2545018.4200000018}},{"attributes":{"ID":361016,"DIS_CODE":0,"TOWNNAME":"新營區","LI":"新東里","LIN":"13鄰","STREET":"東興六街","SECT":" ","MAREA":" ","LANE":" ","ALLEY":" ","HOUSE_NO":"１２２號","E_COORD97":181052.57000000001,"N_COORD97":2579228.9300000002,"ADDRESS":"東興六街１２２號","OBJECTID":361006},"geometry":{"x":181052.57000000216,"y":2579228.9299999997}},{"attributes":{"ID":361017,"DIS_CODE":0,"TOWNNAME":"北區","LI":"重興里","LIN":"19鄰","STREET":"林森路","SECT":"三段","MAREA":" ","LANE":"１４０巷","ALLEY":" ","HOUSE_NO":"４９號四樓","E_COORD97":170722.13,"N_COORD97":2545018.4199999999,"ADDRESS":"林森路三段１４０巷４９號四樓","OBJECTID":361007},"geometry":{"x":170722.12999999989,"y":2545018.4200000018}},{"attributes":{"ID":361018,"DIS_CODE":0,"TOWNNAME":"北區","LI":"重興里","LIN":"19鄰","STREET":"林森路","SECT":"三段","MAREA":" ","LANE":"１４０巷","ALLEY":" ","HOUSE_NO":"５１號七樓","E_COORD97":170715.48000000001,"N_COORD97":2545010.6800000002,"ADDRESS":"林森路三段１４０巷５１號七樓","OBJECTID":361008},"geometry":{"x":170715.48000000045,"y":2545010.6800000016}},{"attributes":{"ID":361019,"DIS_CODE":0,"TOWNNAME":"北區","LI":"重興里","LIN":"19鄰","STREET":"林森路","SECT":"三段","MAREA":" ","LANE":"１４０巷","ALLEY":" ","HOUSE_NO":"５１號二樓","E_COORD97":170715.48000000001,"N_COORD97":2545010.6800000002,"ADDRESS":"林森路三段１４０巷５１號二樓","OBJECTID":361009},"geometry":{"x":170715.48000000045,"y":2545010.6800000016}},{"attributes":{"ID":361020,"DIS_CODE":0,"TOWNNAME":"北區","LI":"重興里","LIN":"19鄰","STREET":"林森路","SECT":"三段","MAREA":" ","LANE":"１４０巷","ALLEY":" ","HOUSE_NO":"５１號八樓","E_COORD97":170715.48000000001,"N_COORD97":2545010.6800000002,"ADDRESS":"林森路三段１４０巷５１號八樓","OBJECTID":361010},"geometry":{"x":170715.48000000045,"y":2545010.6800000016}},{"attributes":{"ID":361021,"DIS_CODE":0,"TOWNNAME":"北區","LI":"重興里","LIN":"19鄰","STREET":"林森路","SECT":"三段","MAREA":" ","LANE":"１４０巷","ALLEY":" ","HOUSE_NO":"５１號三樓","E_COORD97":170715.48000000001,"N_COORD97":2545010.6800000002,"ADDRESS":"林森路三段１４０巷５１號三樓","OBJECTID":361011},"geometry":{"x":170715.48000000045,"y":2545010.6800000016}},{"attributes":{"ID":361022,"DIS_CODE":0,"TOWNNAME":"北區","LI":"重興里","LIN":"19鄰","STREET":"林森路","SECT":"三段","MAREA":" ","LANE":"１４０巷","ALLEY":" ","HOUSE_NO":"５１號五樓","E_COORD97":170715.48000000001,"N_COORD97":2545010.6800000002,"ADDRESS":"林森路三段１４０巷５１號五樓","OBJECTID":361012},"geometry":{"x":170715.48000000045,"y":2545010.6800000016}},{"attributes":{"ID":361023,"DIS_CODE":0,"TOWNNAME":"北區","LI":"重興里","LIN":"19鄰","STREET":"林森路","SECT":"三段","MAREA":" ","LANE":"１４０巷","ALLEY":" ","HOUSE_NO":"５１號六樓","E_COORD97":170715.48000000001,"N_COORD97":2545010.6800000002,"ADDRESS":"林森路三段１４０巷５１號六樓","OBJECTID":361013},"geometry":{"x":170715.48000000045,"y":2545010.6800000016}},{"attributes":{"ID":361024,"DIS_CODE":0,"TOWNNAME":"北區","LI":"重興里","LIN":"19鄰","STREET":"林森路","SECT":"三段","MAREA":" ","LANE":"１４０巷","ALLEY":" ","HOUSE_NO":"５１號四樓","E_COORD97":170715.48000000001,"N_COORD97":2545010.6800000002,"ADDRESS":"林森路三段１４０巷５１號四樓","OBJECTID":361014},"geometry":{"x":170715.48000000045,"y":2545010.6800000016}},{"attributes":{"ID":361025,"DIS_CODE":0,"TOWNNAME":"南區","LI":"田寮里","LIN":"19鄰","STREET":"西門路","SECT":"一段","MAREA":" ","LANE":"２２３巷","ALLEY":" ","HOUSE_NO":"２０號二樓","E_COORD97":167581.92000000001,"N_COORD97":2541845.6000000001,"ADDRESS":"西門路一段２２３巷２０號二樓","OBJECTID":361015},"geometry":{"x":167581.92000000086,"y":2541845.5999999996}},{"attributes":{"ID":361026,"DIS_CODE":0,"TOWNNAME":"南區","LI":"田寮里","LIN":"19鄰","STREET":"西門路","SECT":"一段","MAREA":" ","LANE":"２２３巷","ALLEY":" ","HOUSE_NO":"２０號三樓","E_COORD97":167581.92000000001,"N_COORD97":2541845.6000000001,"ADDRESS":"西門路一段２２３巷２０號三樓","OBJECTID":361016},"geometry":{"x":167581.92000000086,"y":2541845.5999999996}},{"attributes":{"ID":361027,"DIS_CODE":0,"TOWNNAME":"南區","LI":"田寮里","LIN":"19鄰","STREET":"西門路","SECT":"一段","MAREA":" ","LANE":"２２３巷","ALLEY":" ","HOUSE_NO":"２０號四樓","E_COORD97":167581.92000000001,"N_COORD97":2541845.6000000001,"ADDRESS":"西門路一段２２３巷２０號四樓","OBJECTID":361017},"geometry":{"x":167581.92000000086,"y":2541845.5999999996}},{"attributes":{"ID":361028,"DIS_CODE":0,"TOWNNAME":"東區","LI":"成大里","LIN":"4鄰","STREET":"東寧路","SECT":"西段","MAREA":" ","LANE":"１８巷","ALLEY":" ","HOUSE_NO":"５號之３","E_COORD97":169620.73000000001,"N_COORD97":2543728.0800000001,"ADDRESS":"東寧路西段１８巷５號之３","OBJECTID":361018},"geometry":{"x":169620.73000000045,"y":2543728.0800000001}},{"attributes":{"ID":361029,"DIS_CODE":0,"TOWNNAME":"東區","LI":"成大里","LIN":"12鄰","STREET":"育樂街","SECT":" ","MAREA":" ","LANE":"１６８巷","ALLEY":" ","HOUSE_NO":"１５號","E_COORD97":169430.94,"N_COORD97":2543909.4199999999,"ADDRESS":"育樂街１６８巷１５號","OBJECTID":361019},"geometry":{"x":169430.94000000041,"y":2543909.4200000037}},{"attributes":{"ID":361030,"DIS_CODE":0,"TOWNNAME":"東區","LI":"成大里","LIN":" ","STREET":"勝利路","SECT":" ","MAREA":" ","LANE":"１７７巷","ALLEY":" ","HOUSE_NO":"１４號","E_COORD97":169728.32000000001,"N_COORD97":2544069.6600000001,"ADDRESS":"勝利路１７７巷１４號","OBJECTID":361020},"geometry":{"x":169728.3200000003,"y":2544069.6600000001}},{"attributes":{"ID":361031,"DIS_CODE":0,"TOWNNAME":"東區","LI":"成大里","LIN":" ","STREET":"勝利路","SECT":" ","MAREA":" ","LANE":"１７１巷","ALLEY":" ","HOUSE_NO":"８號","E_COORD97":169750.42000000001,"N_COORD97":2544050.5899999999,"ADDRESS":"勝利路１７１巷８號","OBJECTID":361021},"geometry":{"x":169750.42000000086,"y":2544050.5900000036}},{"attributes":{"ID":361032,"DIS_CODE":0,"TOWNNAME":"北區","LI":"長榮里","LIN":"19鄰","STREET":"長榮路","SECT":"五段","MAREA":" ","LANE":"４１巷","ALLEY":" ","HOUSE_NO":"４８號七樓之１","E_COORD97":169972.22,"N_COORD97":2545526.4700000002,"ADDRESS":"長榮路五段４１巷４８號七樓之１","OBJECTID":361022},"geometry":{"x":169972.21999999974,"y":2545526.4700000007}},{"attributes":{"ID":361033,"DIS_CODE":0,"TOWNNAME":"北區","LI":"長榮里","LIN":"19鄰","STREET":"長榮路","SECT":"五段","MAREA":" ","LANE":"４１巷","ALLEY":" ","HOUSE_NO":"４８號七樓之２","E_COORD97":169972.22,"N_COORD97":2545526.4700000002,"ADDRESS":"長榮路五段４１巷４８號七樓之２","OBJECTID":361023},"geometry":{"x":169972.21999999974,"y":2545526.4700000007}},{"attributes":{"ID":361034,"DIS_CODE":0,"TOWNNAME":"北區","LI":"長榮里","LIN":"19鄰","STREET":"長榮路","SECT":"五段","MAREA":" ","LANE":"４１巷","ALLEY":" ","HOUSE_NO":"４８號七樓之３","E_COORD97":169972.22,"N_COORD97":2545526.4700000002,"ADDRESS":"長榮路五段４１巷４８號七樓之３","OBJECTID":361024},"geometry":{"x":169972.21999999974,"y":2545526.4700000007}},{"attributes":{"ID":361035,"DIS_CODE":0,"TOWNNAME":"東區","LI":"自強里","LIN":" ","STREET":"中華東路","SECT":"二段","MAREA":" ","LANE":"１８５巷","ALLEY":" ","HOUSE_NO":"１２號","E_COORD97":171379.04000000001,"N_COORD97":2542766.4399999999,"ADDRESS":"中華東路二段１８５巷１２號","OBJECTID":361025},"geometry":{"x":171379.04000000004,"y":2542766.4400000032}},{"attributes":{"ID":361036,"DIS_CODE":0,"TOWNNAME":"北區","LI":"長榮里","LIN":"19鄰","STREET":"長榮路","SECT":"五段","MAREA":" ","LANE":"４１巷","ALLEY":" ","HOUSE_NO":"４８號七樓之５","E_COORD97":169972.22,"N_COORD97":2545526.4700000002,"ADDRESS":"長榮路五段４１巷４８號七樓之５","OBJECTID":361026},"geometry":{"x":169972.21999999974,"y":2545526.4700000007}},{"attributes":{"ID":361037,"DIS_CODE":0,"TOWNNAME":"北區","LI":"長榮里","LIN":"19鄰","STREET":"長榮路","SECT":"五段","MAREA":" ","LANE":"４１巷","ALLEY":" ","HOUSE_NO":"４８號八樓之１","E_COORD97":169972.22,"N_COORD97":2545526.4700000002,"ADDRESS":"長榮路五段４１巷４８號八樓之１","OBJECTID":361027},"geometry":{"x":169972.21999999974,"y":2545526.4700000007}},{"attributes":{"ID":361038,"DIS_CODE":0,"TOWNNAME":"北區","LI":"長榮里","LIN":"19鄰","STREET":"長榮路","SECT":"五段","MAREA":" ","LANE":"４１巷","ALLEY":" ","HOUSE_NO":"４８號八樓之２","E_COORD97":169972.22,"N_COORD97":2545526.4700000002,"ADDRESS":"長榮路五段４１巷４８號八樓之２","OBJECTID":361028},"geometry":{"x":169972.21999999974,"y":2545526.4700000007}},{"attributes":{"ID":361039,"DIS_CODE":0,"TOWNNAME":"北區","LI":"長榮里","LIN":"19鄰","STREET":"長榮路","SECT":"五段","MAREA":" ","LANE":"４１巷","ALLEY":" ","HOUSE_NO":"４８號八樓之３","E_COORD97":169972.22,"N_COORD97":2545526.4700000002,"ADDRESS":"長榮路五段４１巷４８號八樓之３","OBJECTID":361029},"geometry":{"x":169972.21999999974,"y":2545526.4700000007}},{"attributes":{"ID":361040,"DIS_CODE":0,"TOWNNAME":"北區","LI":"長榮里","LIN":"19鄰","STREET":"長榮路","SECT":"五段","MAREA":" ","LANE":"４１巷","ALLEY":" ","HOUSE_NO":"４８號八樓之５","E_COORD97":169972.22,"N_COORD97":2545526.4700000002,"ADDRESS":"長榮路五段４１巷４８號八樓之５","OBJECTID":361030},"geometry":{"x":169972.21999999974,"y":2545526.4700000007}},{"attributes":{"ID":361041,"DIS_CODE":0,"TOWNNAME":"北區","LI":"長榮里","LIN":"19鄰","STREET":"長榮路","SECT":"五段","MAREA":" ","LANE":"４１巷","ALLEY":" ","HOUSE_NO":"４８號九樓之１","E_COORD97":169972.22,"N_COORD97":2545526.4700000002,"ADDRESS":"長榮路五段４１巷４８號九樓之１","OBJECTID":361031},"geometry":{"x":169972.21999999974,"y":2545526.4700000007}},{"attributes":{"ID":361042,"DIS_CODE":0,"TOWNNAME":"北區","LI":"長榮里","LIN":"19鄰","STREET":"長榮路","SECT":"五段","MAREA":" ","LANE":"４１巷","ALLEY":" ","HOUSE_NO":"４８號九樓之２","E_COORD97":169972.22,"N_COORD97":2545526.4700000002,"ADDRESS":"長榮路五段４１巷４８號九樓之２","OBJECTID":361032},"geometry":{"x":169972.21999999974,"y":2545526.4700000007}},{"attributes":{"ID":361043,"DIS_CODE":0,"TOWNNAME":"北區","LI":"長榮里","LIN":"19鄰","STREET":"長榮路","SECT":"五段","MAREA":" ","LANE":"４１巷","ALLEY":" ","HOUSE_NO":"４８號九樓之３","E_COORD97":169972.22,"N_COORD97":2545526.4700000002,"ADDRESS":"長榮路五段４１巷４８號九樓之３","OBJECTID":361033},"geometry":{"x":169972.21999999974,"y":2545526.4700000007}},{"attributes":{"ID":361044,"DIS_CODE":0,"TOWNNAME":"北區","LI":"長榮里","LIN":"19鄰","STREET":"長榮路","SECT":"五段","MAREA":" ","LANE":"４１巷","ALLEY":" ","HOUSE_NO":"４８號九樓之５","E_COORD97":169972.22,"N_COORD97":2545526.4700000002,"ADDRESS":"長榮路五段４１巷４８號九樓之５","OBJECTID":361034},"geometry":{"x":169972.21999999974,"y":2545526.4700000007}},{"attributes":{"ID":361045,"DIS_CODE":0,"TOWNNAME":"北區","LI":"長榮里","LIN":"19鄰","STREET":"長榮路","SECT":"五段","MAREA":" ","LANE":"４１巷","ALLEY":" ","HOUSE_NO":"４８號十樓之１","E_COORD97":169972.22,"N_COORD97":2545526.4700000002,"ADDRESS":"長榮路五段４１巷４８號十樓之１","OBJECTID":361035},"geometry":{"x":169972.21999999974,"y":2545526.4700000007}},{"attributes":{"ID":361046,"DIS_CODE":0,"TOWNNAME":"北區","LI":"長榮里","LIN":"19鄰","STREET":"長榮路","SECT":"五段","MAREA":" ","LANE":"４１巷","ALLEY":" ","HOUSE_NO":"４８號十樓之２","E_COORD97":169972.22,"N_COORD97":2545526.4700000002,"ADDRESS":"長榮路五段４１巷４８號十樓之２","OBJECTID":361036},"geometry":{"x":169972.21999999974,"y":2545526.4700000007}},{"attributes":{"ID":361047,"DIS_CODE":0,"TOWNNAME":"北區","LI":"長榮里","LIN":"19鄰","STREET":"長榮路","SECT":"五段","MAREA":" ","LANE":"４１巷","ALLEY":" ","HOUSE_NO":"４８號十樓之３","E_COORD97":169972.22,"N_COORD97":2545526.4700000002,"ADDRESS":"長榮路五段４１巷４８號十樓之３","OBJECTID":361037},"geometry":{"x":169972.21999999974,"y":2545526.4700000007}},{"attributes":{"ID":361048,"DIS_CODE":0,"TOWNNAME":"北區","LI":"長榮里","LIN":"19鄰","STREET":"長榮路","SECT":"五段","MAREA":" ","LANE":"４１巷","ALLEY":" ","HOUSE_NO":"４８號十樓之５","E_COORD97":169972.22,"N_COORD97":2545526.4700000002,"ADDRESS":"長榮路五段４１巷４８號十樓之５","OBJECTID":361038},"geometry":{"x":169972.21999999974,"y":2545526.4700000007}},{"attributes":{"ID":361049,"DIS_CODE":0,"TOWNNAME":"北區","LI":"長榮里","LIN":"19鄰","STREET":"長榮路","SECT":"五段","MAREA":" ","LANE":"４１巷","ALLEY":" ","HOUSE_NO":"４８號十一樓之１","E_COORD97":169972.22,"N_COORD97":2545526.4700000002,"ADDRESS":"長榮路五段４１巷４８號十一樓之１","OBJECTID":361039},"geometry":{"x":169972.21999999974,"y":2545526.4700000007}},{"attributes":{"ID":361050,"DIS_CODE":0,"TOWNNAME":"北區","LI":"長榮里","LIN":"19鄰","STREET":"長榮路","SECT":"五段","MAREA":" ","LANE":"４１巷","ALLEY":" ","HOUSE_NO":"４８號十一樓之２","E_COORD97":169972.22,"N_COORD97":2545526.4700000002,"ADDRESS":"長榮路五段４１巷４８號十一樓之２","OBJECTID":361040},"geometry":{"x":169972.21999999974,"y":2545526.4700000007}},{"attributes":{"ID":361051,"DIS_CODE":0,"TOWNNAME":"北區","LI":"長榮里","LIN":"19鄰","STREET":"長榮路","SECT":"五段","MAREA":" ","LANE":"４１巷","ALLEY":" ","HOUSE_NO":"４８號十一樓之３","E_COORD97":169972.22,"N_COORD97":2545526.4700000002,"ADDRESS":"長榮路五段４１巷４８號十一樓之３","OBJECTID":361041},"geometry":{"x":169972.21999999974,"y":2545526.4700000007}},{"attributes":{"ID":361052,"DIS_CODE":0,"TOWNNAME":"北區","LI":"長榮里","LIN":"19鄰","STREET":"長榮路","SECT":"五段","MAREA":" ","LANE":"４１巷","ALLEY":" ","HOUSE_NO":"４８號十一樓之５","E_COORD97":169972.22,"N_COORD97":2545526.4700000002,"ADDRESS":"長榮路五段４１巷４８號十一樓之５","OBJECTID":361042},"geometry":{"x":169972.21999999974,"y":2545526.4700000007}},{"attributes":{"ID":361053,"DIS_CODE":0,"TOWNNAME":"柳營區","LI":"東昇里","LIN":"13鄰","STREET":"康樂街","SECT":" ","MAREA":" ","LANE":" ","ALLEY":" ","HOUSE_NO":"７７號","E_COORD97":180353.16,"N_COORD97":2575125.8199999998,"ADDRESS":"康樂街７７號","OBJECTID":361043},"geometry":{"x":180353.16000000015,"y":2575125.820000004}},{"attributes":{"ID":361054,"DIS_CODE":0,"TOWNNAME":"永康區","LI":"西灣里","LIN":"39鄰","STREET":"永華路","SECT":" ","MAREA":" ","LANE":"２１２巷","ALLEY":" ","HOUSE_NO":"１８號四樓","E_COORD97":174147.98000000001,"N_COORD97":2545431.25,"ADDRESS":"永華路２１２巷１８號四樓","OBJECTID":361044},"geometry":{"x":174147.98000000045,"y":2545431.2500000019}},{"attributes":{"ID":361055,"DIS_CODE":0,"TOWNNAME":"北區","LI":"長榮里","LIN":"19鄰","STREET":"長榮路","SECT":"五段","MAREA":" ","LANE":"４１巷","ALLEY":" ","HOUSE_NO":"４８號十二樓之１","E_COORD97":169972.22,"N_COORD97":2545526.4700000002,"ADDRESS":"長榮路五段４１巷４８號十二樓之１","OBJECTID":361045},"geometry":{"x":169972.21999999974,"y":2545526.4700000007}},{"attributes":{"ID":361056,"DIS_CODE":0,"TOWNNAME":"北區","LI":"長榮里","LIN":"19鄰","STREET":"長榮路","SECT":"五段","MAREA":" ","LANE":"４１巷","ALLEY":" ","HOUSE_NO":"４８號十二樓之２","E_COORD97":169972.22,"N_COORD97":2545526.4700000002,"ADDRESS":"長榮路五段４１巷４８號十二樓之２","OBJECTID":361046},"geometry":{"x":169972.21999999974,"y":2545526.4700000007}},{"attributes":{"ID":361057,"DIS_CODE":0,"TOWNNAME":"北區","LI":"長榮里","LIN":"19鄰","STREET":"長榮路","SECT":"五段","MAREA":" ","LANE":"４１巷","ALLEY":" ","HOUSE_NO":"４８號十二樓之３","E_COORD97":169972.22,"N_COORD97":2545526.4700000002,"ADDRESS":"長榮路五段４１巷４８號十二樓之３","OBJECTID":361047},"geometry":{"x":169972.21999999974,"y":2545526.4700000007}},{"attributes":{"ID":361058,"DIS_CODE":0,"TOWNNAME":"北區","LI":"長榮里","LIN":"19鄰","STREET":"長榮路","SECT":"五段","MAREA":" ","LANE":"４１巷","ALLEY":" ","HOUSE_NO":"４８號十二樓之５","E_COORD97":169972.22,"N_COORD97":2545526.4700000002,"ADDRESS":"長榮路五段４１巷４８號十二樓之５","OBJECTID":361048},"geometry":{"x":169972.21999999974,"y":2545526.4700000007}},{"attributes":{"ID":361059,"DIS_CODE":0,"TOWNNAME":"北區","LI":"成功里","LIN":"19鄰","STREET":"北成路","SECT":" ","MAREA":" ","LANE":"１２８巷","ALLEY":" ","HOUSE_NO":"５３號四樓","E_COORD97":168974.59,"N_COORD97":2546831.7999999998,"ADDRESS":"北成路１２８巷５３號四樓","OBJECTID":361049},"geometry":{"x":168974.58999999985,"y":2546831.8000000026}},{"attributes":{"ID":361060,"DIS_CODE":0,"TOWNNAME":"永康區","LI":"正強里","LIN":"19鄰","STREET":"中山南路","SECT":" ","MAREA":" ","LANE":"４７１巷","ALLEY":" ","HOUSE_NO":"５９號","E_COORD97":173219.60000000001,"N_COORD97":2547180.9900000002,"ADDRESS":"中山南路４７１巷５９號","OBJECTID":361050},"geometry":{"x":173219.59999999963,"y":2547180.9900000039}},{"attributes":{"ID":361061,"DIS_CODE":0,"TOWNNAME":"永康區","LI":"正強里","LIN":"19鄰","STREET":"中山南路","SECT":" ","MAREA":" ","LANE":"４７１巷","ALLEY":" ","HOUSE_NO":"５７號","E_COORD97":173215.85000000001,"N_COORD97":2547180.25,"ADDRESS":"中山南路４７１巷５７號","OBJECTID":361051},"geometry":{"x":173215.84999999963,"y":2547180.2500000019}},{"attributes":{"ID":361062,"DIS_CODE":0,"TOWNNAME":"永康區","LI":"正強里","LIN":"19鄰","STREET":"中山南路","SECT":" ","MAREA":" ","LANE":"４７１巷","ALLEY":" ","HOUSE_NO":"５３號","E_COORD97":173207.64999999999,"N_COORD97":2547177.9900000002,"ADDRESS":"中山南路４７１巷５３號","OBJECTID":361052},"geometry":{"x":173207.65000000037,"y":2547177.9900000021}},{"attributes":{"ID":361063,"DIS_CODE":0,"TOWNNAME":"東區","LI":"忠孝里","LIN":"28鄰","STREET":"中華東路","SECT":"三段","MAREA":" ","LANE":"４５２巷","ALLEY":" ","HOUSE_NO":"１號","E_COORD97":169900.98000000001,"N_COORD97":2541553.8799999999,"ADDRESS":"中華東路三段４５２巷１號","OBJECTID":361053},"geometry":{"x":169900.98000000138,"y":2541553.8800000008}},{"attributes":{"ID":361064,"DIS_CODE":0,"TOWNNAME":"永康區","LI":"正強里","LIN":"19鄰","STREET":"中山南路","SECT":" ","MAREA":" ","LANE":"４７１巷","ALLEY":" ","HOUSE_NO":"５５號","E_COORD97":173212.26000000001,"N_COORD97":2547179.25,"ADDRESS":"中山南路４７１巷５５號","OBJECTID":361054},"geometry":{"x":173212.26000000071,"y":2547179.2500000037}},{"attributes":{"ID":361065,"DIS_CODE":0,"TOWNNAME":"永康區","LI":"正強里","LIN":"19鄰","STREET":"中山南路","SECT":" ","MAREA":" ","LANE":"４７１巷","ALLEY":" ","HOUSE_NO":"４３號","E_COORD97":173186.76999999999,"N_COORD97":2547174.3500000001,"ADDRESS":"中山南路４７１巷４３號","OBJECTID":361055},"geometry":{"x":173186.77000000048,"y":2547174.3499999978}},{"attributes":{"ID":361066,"DIS_CODE":0,"TOWNNAME":"安南區","LI":"\u25A0南里","LIN":"19鄰","STREET":"安昌街","SECT":" ","MAREA":" ","LANE":"１０６巷","ALLEY":" ","HOUSE_NO":"５７號","E_COORD97":170103.53,"N_COORD97":2552022.6099999999,"ADDRESS":"安昌街１０６巷５７號","OBJECTID":361056},"geometry":{"x":170103.53000000212,"y":2552022.6099999994}},{"attributes":{"ID":361067,"DIS_CODE":0,"TOWNNAME":"安南區","LI":"\u25A0南里","LIN":"19鄰","STREET":"安昌街","SECT":" ","MAREA":" ","LANE":"１０６巷","ALLEY":" ","HOUSE_NO":"５９號","E_COORD97":170107.67000000001,"N_COORD97":2552023.1000000001,"ADDRESS":"安昌街１０６巷５９號","OBJECTID":361057},"geometry":{"x":170107.67000000086,"y":2552023.0999999996}},{"attributes":{"ID":361068,"DIS_CODE":0,"TOWNNAME":"安南區","LI":"長安里","LIN":"19鄰","STREET":"公學路","SECT":"二段","MAREA":" ","LANE":"１０８巷","ALLEY":" ","HOUSE_NO":"１１號","E_COORD97":167650.85000000001,"N_COORD97":2552348.6400000001,"ADDRESS":"公學路二段１０８巷１１號","OBJECTID":361058},"geometry":{"x":167650.84999999963,"y":2552348.6400000025}},{"attributes":{"ID":361069,"DIS_CODE":0,"TOWNNAME":"安南區","LI":"長安里","LIN":"19鄰","STREET":"公學路","SECT":"二段","MAREA":" ","LANE":"１０８巷","ALLEY":" ","HOUSE_NO":"１２號","E_COORD97":167663.44,"N_COORD97":2552385.8599999999,"ADDRESS":"公學路二段１０８巷１２號","OBJECTID":361059},"geometry":{"x":167663.44000000134,"y":2552385.8600000013}},{"attributes":{"ID":361070,"DIS_CODE":0,"TOWNNAME":"安南區","LI":"長安里","LIN":"19鄰","STREET":"公學路","SECT":"二段","MAREA":" ","LANE":"１０８巷","ALLEY":" ","HOUSE_NO":"１４號","E_COORD97":167660.79000000001,"N_COORD97":2552389.9500000002,"ADDRESS":"公學路二段１０８巷１４號","OBJECTID":361060},"geometry":{"x":167660.79000000097,"y":2552389.9499999993}},{"attributes":{"ID":361071,"DIS_CODE":0,"TOWNNAME":"安南區","LI":"長安里","LIN":"19鄰","STREET":"公學路","SECT":"二段","MAREA":" ","LANE":"１０８巷","ALLEY":" ","HOUSE_NO":"１６號","E_COORD97":167658.20999999999,"N_COORD97":2552393.3599999999,"ADDRESS":"公學路二段１０８巷１６號","OBJECTID":361061},"geometry":{"x":167658.21000000089,"y":2552393.3600000013}},{"attributes":{"ID":361072,"DIS_CODE":0,"TOWNNAME":"安南區","LI":"長安里","LIN":"19鄰","STREET":"公學路","SECT":"二段","MAREA":" ","LANE":"１０８巷","ALLEY":" ","HOUSE_NO":"１８號","E_COORD97":167654.95000000001,"N_COORD97":2552396.0099999998,"ADDRESS":"公學路二段１０８巷１８號","OBJECTID":361062},"geometry":{"x":167654.95000000112,"y":2552396.0100000016}},{"attributes":{"ID":361073,"DIS_CODE":0,"TOWNNAME":"新營區","LI":"新東里","LIN":"13鄰","STREET":"東興六街","SECT":" ","MAREA":" ","LANE":" ","ALLEY":" ","HOUSE_NO":"１２８號","E_COORD97":181065.87,"N_COORD97":2579229.9700000002,"ADDRESS":"東興六街１２８號","OBJECTID":361063},"geometry":{"x":181065.87000000104,"y":2579229.9700000007}},{"attributes":{"ID":361074,"DIS_CODE":0,"TOWNNAME":"新營區","LI":"新東里","LIN":"13鄰","STREET":"東興六街","SECT":" ","MAREA":" ","LANE":" ","ALLEY":" ","HOUSE_NO":"１２４號","E_COORD97":181056.67000000001,"N_COORD97":2579230.02,"ADDRESS":"東興六街１２４號","OBJECTID":361064},"geometry":{"x":181056.67000000086,"y":2579230.0200000014}},{"attributes":{"ID":361075,"DIS_CODE":0,"TOWNNAME":"永康區","LI":"西灣里","LIN":"39鄰","STREET":"永華路","SECT":" ","MAREA":" ","LANE":"２１２巷","ALLEY":" ","HOUSE_NO":"２４號六樓","E_COORD97":174165.19,"N_COORD97":2545448,"ADDRESS":"永華路２１２巷２４號六樓","OBJECTID":361065},"geometry":{"x":174165.19000000041,"y":2545447.9999999981}},{"attributes":{"ID":361076,"DIS_CODE":0,"TOWNNAME":"永康區","LI":"勝利里","LIN":"39鄰","STREET":"勝華街","SECT":" ","MAREA":" ","LANE":"３７巷","ALLEY":" ","HOUSE_NO":"１６號","E_COORD97":171441.87,"N_COORD97":2545175.8599999999,"ADDRESS":"勝華街３７巷１６號","OBJECTID":361066},"geometry":{"x":171441.86999999918,"y":2545175.8599999994}},{"attributes":{"ID":361077,"DIS_CODE":0,"TOWNNAME":"安南區","LI":"長安里","LIN":"19鄰","STREET":"公學路","SECT":"二段","MAREA":" ","LANE":"１０８巷","ALLEY":" ","HOUSE_NO":"２０號","E_COORD97":167651.45000000001,"N_COORD97":2552399.1600000001,"ADDRESS":"公學路二段１０８巷２０號","OBJECTID":361067},"geometry":{"x":167651.45000000112,"y":2552399.160000002}},{"attributes":{"ID":361078,"DIS_CODE":0,"TOWNNAME":"安南區","LI":"長安里","LIN":"19鄰","STREET":"公學路","SECT":"二段","MAREA":" ","LANE":"１０８巷","ALLEY":" ","HOUSE_NO":"２２號","E_COORD97":167648.95000000001,"N_COORD97":2552402.7999999998,"ADDRESS":"公學路二段１０８巷２２號","OBJECTID":361068},"geometry":{"x":167648.95000000019,"y":2552402.8000000007}},{"attributes":{"ID":361079,"DIS_CODE":0,"TOWNNAME":"安南區","LI":"長安里","LIN":"19鄰","STREET":"公學路","SECT":"二段","MAREA":" ","LANE":"１０８巷","ALLEY":" ","HOUSE_NO":"２４號","E_COORD97":167645.76000000001,"N_COORD97":2552405.75,"ADDRESS":"公學路二段１０８巷２４號","OBJECTID":361069},"geometry":{"x":167645.76000000071,"y":2552405.75}},{"attributes":{"ID":361080,"DIS_CODE":0,"TOWNNAME":"安南區","LI":"長安里","LIN":"19鄰","STREET":"公學路","SECT":"二段","MAREA":" ","LANE":"１０８巷","ALLEY":" ","HOUSE_NO":"２６號","E_COORD97":167642.66,"N_COORD97":2552409.3100000001,"ADDRESS":"公學路二段１０８巷２６號","OBJECTID":361070},"geometry":{"x":167642.65999999922,"y":2552409.3100000005}},{"attributes":{"ID":361081,"DIS_CODE":0,"TOWNNAME":"安南區","LI":"長安里","LIN":"19鄰","STREET":"公學路","SECT":"二段","MAREA":" ","LANE":"１０８巷","ALLEY":" ","HOUSE_NO":"２８號","E_COORD97":167638.26000000001,"N_COORD97":2552411.2799999998,"ADDRESS":"公學路二段１０８巷２８號","OBJECTID":361071},"geometry":{"x":167638.25999999885,"y":2552411.2799999993}},{"attributes":{"ID":361082,"DIS_CODE":0,"TOWNNAME":"安南區","LI":"長安里","LIN":"19鄰","STREET":"公學路","SECT":"二段","MAREA":" ","LANE":"１０８巷","ALLEY":" ","HOUSE_NO":"３０號","E_COORD97":167635.22,"N_COORD97":2552415.1499999999,"ADDRESS":"公學路二段１０８巷３０號","OBJECTID":361072},"geometry":{"x":167635.2200000016,"y":2552415.1500000022}},{"attributes":{"ID":361083,"DIS_CODE":0,"TOWNNAME":"安南區","LI":"長安里","LIN":"19鄰","STREET":"公學路","SECT":"二段","MAREA":" ","LANE":"１０８巷","ALLEY":" ","HOUSE_NO":"６號","E_COORD97":167675.37,"N_COORD97":2552379.7599999998,"ADDRESS":"公學路二段１０８巷６號","OBJECTID":361073},"geometry":{"x":167675.37000000104,"y":2552379.7600000035}},{"attributes":{"ID":361084,"DIS_CODE":0,"TOWNNAME":"柳營區","LI":"東昇里","LIN":"13鄰","STREET":"康樂街","SECT":" ","MAREA":" ","LANE":" ","ALLEY":" ","HOUSE_NO":"７９號","E_COORD97":180348.72,"N_COORD97":2575125.9199999999,"ADDRESS":"康樂街７９號","OBJECTID":361074},"geometry":{"x":180348.71999999974,"y":2575125.9200000018}},{"attributes":{"ID":361085,"DIS_CODE":0,"TOWNNAME":"安南區","LI":"長安里","LIN":"19鄰","STREET":"公學路","SECT":"二段","MAREA":" ","LANE":"２２０巷","ALLEY":" ","HOUSE_NO":"３５號之１","E_COORD97":167394.82999999999,"N_COORD97":2552149.3999999999,"ADDRESS":"公學路二段２２０巷３５號之１","OBJECTID":361075},"geometry":{"x":167394.83000000101,"y":2552149.4000000022}},{"attributes":{"ID":361086,"DIS_CODE":0,"TOWNNAME":"安南區","LI":"海東里","LIN":"19鄰","STREET":"海佃路","SECT":"二段","MAREA":" ","LANE":"２６５巷","ALLEY":" ","HOUSE_NO":"６號之２","E_COORD97":166743.97,"N_COORD97":2548643.1000000001,"ADDRESS":"海佃路二段２６５巷６號之２","OBJECTID":361076},"geometry":{"x":166743.97000000067,"y":2548643.0999999996}},{"attributes":{"ID":361087,"DIS_CODE":0,"TOWNNAME":"安南區","LI":"淵中里","LIN":"19鄰","STREET":"安中路","SECT":"四段","MAREA":" ","LANE":"１９７巷","ALLEY":" ","HOUSE_NO":"４１號","E_COORD97":164758.89999999999,"N_COORD97":2549999.96,"ADDRESS":"安中路四段１９７巷４１號","OBJECTID":361077},"geometry":{"x":164758.90000000037,"y":2549999.9600000028}},{"attributes":{"ID":361088,"DIS_CODE":0,"TOWNNAME":"下營區","LI":"仁里里","LIN":"19鄰","STREET":"公園路","SECT":" ","MAREA":" ","LANE":"３２巷","ALLEY":" ","HOUSE_NO":"４０號","E_COORD97":174332.88,"N_COORD97":2570437.3799999999,"ADDRESS":"公園路３２巷４０號","OBJECTID":361078},"geometry":{"x":174332.87999999989,"y":2570437.379999999}},{"attributes":{"ID":361089,"DIS_CODE":0,"TOWNNAME":"下營區","LI":"仁里里","LIN":"19鄰","STREET":"公園路","SECT":" ","MAREA":" ","LANE":"３２巷","ALLEY":" ","HOUSE_NO":"４２號","E_COORD97":174332.69,"N_COORD97":2570440.9300000002,"ADDRESS":"公園路３２巷４２號","OBJECTID":361079},"geometry":{"x":174332.69000000134,"y":2570440.9299999997}},{"attributes":{"ID":361090,"DIS_CODE":0,"TOWNNAME":"下營區","LI":"仁里里","LIN":"19鄰","STREET":"公園路","SECT":" ","MAREA":" ","LANE":"３２巷","ALLEY":" ","HOUSE_NO":"４６號","E_COORD97":174332.28,"N_COORD97":2570444.4100000001,"ADDRESS":"公園路３２巷４６號","OBJECTID":361080},"geometry":{"x":174332.28000000026,"y":2570444.410000002}},{"attributes":{"ID":361091,"DIS_CODE":0,"TOWNNAME":"下營區","LI":"仁里里","LIN":"19鄰","STREET":"公園路","SECT":" ","MAREA":" ","LANE":"３２巷","ALLEY":" ","HOUSE_NO":"４８號","E_COORD97":174331.64000000001,"N_COORD97":2570448.3500000001,"ADDRESS":"公園路３２巷４８號","OBJECTID":361081},"geometry":{"x":174331.64000000153,"y":2570448.3499999996}},{"attributes":{"ID":361092,"DIS_CODE":0,"TOWNNAME":"下營區","LI":"仁里里","LIN":"19鄰","STREET":"公園路","SECT":" ","MAREA":" ","LANE":"３２巷","ALLEY":" ","HOUSE_NO":"５０號","E_COORD97":174330.78,"N_COORD97":2570453.5600000001,"ADDRESS":"公園路３２巷５０號","OBJECTID":361082},"geometry":{"x":174330.78000000026,"y":2570453.5600000024}},{"attributes":{"ID":361093,"DIS_CODE":0,"TOWNNAME":"下營區","LI":"仁里里","LIN":"19鄰","STREET":"公園路","SECT":" ","MAREA":" ","LANE":"３２巷","ALLEY":" ","HOUSE_NO":"５２號","E_COORD97":174329.92000000001,"N_COORD97":2570458.1800000002,"ADDRESS":"公園路３２巷５２號","OBJECTID":361083},"geometry":{"x":174329.91999999899,"y":2570458.1800000016}},{"attributes":{"ID":361094,"DIS_CODE":0,"TOWNNAME":"下營區","LI":"仁里里","LIN":"19鄰","STREET":"友愛街","SECT":" ","MAREA":" ","LANE":"６２巷","ALLEY":" ","HOUSE_NO":"３１號","E_COORD97":174321.89999999999,"N_COORD97":2570471.4500000002,"ADDRESS":"友愛街６２巷３１號","OBJECTID":361084},"geometry":{"x":174321.90000000037,"y":2570471.4499999993}},{"attributes":{"ID":361095,"DIS_CODE":0,"TOWNNAME":"下營區","LI":"營前里","LIN":"19鄰","STREET":"文明街","SECT":" ","MAREA":" ","LANE":"４５巷","ALLEY":" ","HOUSE_NO":"２６號","E_COORD97":174746.35999999999,"N_COORD97":2570221.9900000002,"ADDRESS":"文明街４５巷２６號","OBJECTID":361085},"geometry":{"x":174746.36000000127,"y":2570221.9900000039}},{"attributes":{"ID":361096,"DIS_CODE":0,"TOWNNAME":"新營區","LI":"新東里","LIN":"13鄰","STREET":"東興六街","SECT":" ","MAREA":" ","LANE":" ","ALLEY":" ","HOUSE_NO":"１２５號","E_COORD97":181064.91,"N_COORD97":2579242.1699999999,"ADDRESS":"東興六街１２５號","OBJECTID":361086},"geometry":{"x":181064.91000000015,"y":2579242.1700000037}},{"attributes":{"ID":361097,"DIS_CODE":0,"TOWNNAME":"新營區","LI":"好平里","LIN":"13鄰","STREET":"復興路","SECT":" ","MAREA":" ","LANE":" ","ALLEY":" ","HOUSE_NO":"１２７號","E_COORD97":179418.59,"N_COORD97":2578040.5800000001,"ADDRESS":"復興路１２７號","OBJECTID":361087},"geometry":{"x":179418.58999999985,"y":2578040.5800000019}},{"attributes":{"ID":361098,"DIS_CODE":0,"TOWNNAME":"永康區","LI":"五王里","LIN":"39鄰","STREET":"中華路","SECT":" ","MAREA":" ","LANE":"５７８巷","ALLEY":" ","HOUSE_NO":"１７號之９２","E_COORD97":171333.70000000001,"N_COORD97":2545989.54,"ADDRESS":"中華路５７８巷１７號之９２","OBJECTID":361088},"geometry":{"x":171333.70000000112,"y":2545989.5400000028}},{"attributes":{"ID":361099,"DIS_CODE":0,"TOWNNAME":"下營區","LI":"後街里","LIN":"19鄰","STREET":"水池街","SECT":" ","MAREA":" ","LANE":"１７２巷","ALLEY":" ","HOUSE_NO":"１號","E_COORD97":174494.51999999999,"N_COORD97":2571175.8199999998,"ADDRESS":"水池街１７２巷１號","OBJECTID":361089},"geometry":{"x":174494.51999999955,"y":2571175.820000004}},{"attributes":{"ID":361100,"DIS_CODE":0,"TOWNNAME":"下營區","LI":"後街里","LIN":"19鄰","STREET":"水池街","SECT":" ","MAREA":" ","LANE":"１７２巷","ALLEY":" ","HOUSE_NO":"２號","E_COORD97":174517.25,"N_COORD97":2571161.8999999999,"ADDRESS":"水池街１７２巷２號","OBJECTID":361090},"geometry":{"x":174517.25,"y":2571161.9000000041}},{"attributes":{"ID":361101,"DIS_CODE":0,"TOWNNAME":"下營區","LI":"後街里","LIN":"19鄰","STREET":"水池街","SECT":" ","MAREA":" ","LANE":"１７２巷","ALLEY":" ","HOUSE_NO":"９號","E_COORD97":174501.17000000001,"N_COORD97":2571176,"ADDRESS":"水池街１７２巷９號","OBJECTID":361091},"geometry":{"x":174501.17000000179,"y":2571176.0000000019}},{"attributes":{"ID":361102,"DIS_CODE":0,"TOWNNAME":"永康區","LI":"正強里","LIN":"19鄰","STREET":"中山南路","SECT":" ","MAREA":" ","LANE":"４７１巷","ALLEY":" ","HOUSE_NO":"４５號","E_COORD97":173190.47,"N_COORD97":2547175.1000000001,"ADDRESS":"中山南路４７１巷４５號","OBJECTID":361092},"geometry":{"x":173190.47000000067,"y":2547175.0999999996}},{"attributes":{"ID":361103,"DIS_CODE":0,"TOWNNAME":"永康區","LI":"正強里","LIN":"19鄰","STREET":"中山南路","SECT":" ","MAREA":" ","LANE":"４７１巷","ALLEY":" ","HOUSE_NO":"６５號","E_COORD97":173232.81,"N_COORD97":2547183.5699999998,"ADDRESS":"中山南路４７１巷６５號","OBJECTID":361093},"geometry":{"x":173232.80999999959,"y":2547183.5700000003}},{"attributes":{"ID":361104,"DIS_CODE":0,"TOWNNAME":"永康區","LI":"網寮里","LIN":"19鄰","STREET":"永二街","SECT":" ","MAREA":" ","LANE":"２１５巷","ALLEY":" ","HOUSE_NO":"１號","E_COORD97":173424.45999999999,"N_COORD97":2546279.9199999999,"ADDRESS":"永二街２１５巷１號","OBJECTID":361094},"geometry":{"x":173424.45999999903,"y":2546279.9200000018}},{"attributes":{"ID":361105,"DIS_CODE":0,"TOWNNAME":"東區","LI":"崇明里","LIN":"19鄰","STREET":"中華東路","SECT":"三段","MAREA":" ","LANE":"３５７巷","ALLEY":" ","HOUSE_NO":"１０號","E_COORD97":170356.41,"N_COORD97":2541543.7799999998,"ADDRESS":"中華東路三段３５７巷１０號","OBJECTID":361095},"geometry":{"x":170356.41000000015,"y":2541543.7800000012}},{"attributes":{"ID":361106,"DIS_CODE":0,"TOWNNAME":"東區","LI":"崇明里","LIN":"19鄰","STREET":"中華東路","SECT":"三段","MAREA":" ","LANE":"３５７巷","ALLEY":" ","HOUSE_NO":"１２號","E_COORD97":170361.92000000001,"N_COORD97":2541537.9900000002,"ADDRESS":"中華東路三段３５７巷１２號","OBJECTID":361096},"geometry":{"x":170361.92000000086,"y":2541537.9900000002}},{"attributes":{"ID":361107,"DIS_CODE":0,"TOWNNAME":"東區","LI":"崇明里","LIN":"19鄰","STREET":"中華東路","SECT":"三段","MAREA":" ","LANE":"３５７巷","ALLEY":" ","HOUSE_NO":"１４號","E_COORD97":170363.89999999999,"N_COORD97":2541534.4700000002,"ADDRESS":"中華東路三段３５７巷１４號","OBJECTID":361097},"geometry":{"x":170363.90000000224,"y":2541534.4700000025}},{"attributes":{"ID":361108,"DIS_CODE":0,"TOWNNAME":"東區","LI":"崇明里","LIN":"19鄰","STREET":"中華東路","SECT":"三段","MAREA":" ","LANE":"３５７巷","ALLEY":" ","HOUSE_NO":"１５號","E_COORD97":170308.44,"N_COORD97":2541576.6899999999,"ADDRESS":"中華東路三段３５７巷１５號","OBJECTID":361098},"geometry":{"x":170308.44000000134,"y":2541576.6899999995}},{"attributes":{"ID":361109,"DIS_CODE":0,"TOWNNAME":"東區","LI":"崇明里","LIN":"19鄰","STREET":"中華東路","SECT":"三段","MAREA":" ","LANE":"３５７巷","ALLEY":" ","HOUSE_NO":"１６號","E_COORD97":170366.87,"N_COORD97":2541531.5,"ADDRESS":"中華東路三段３５７巷１６號","OBJECTID":361099},"geometry":{"x":170366.87000000011,"y":2541531.5}},{"attributes":{"ID":361110,"DIS_CODE":0,"TOWNNAME":"東區","LI":"崇明里","LIN":"19鄰","STREET":"中華東路","SECT":"三段","MAREA":" ","LANE":"３５７巷","ALLEY":" ","HOUSE_NO":"１７號","E_COORD97":170316.06,"N_COORD97":2541578.3900000001,"ADDRESS":"中華東路三段３５７巷１７號","OBJECTID":361100},"geometry":{"x":170316.05999999866,"y":2541578.3900000025}},{"attributes":{"ID":361111,"DIS_CODE":0,"TOWNNAME":"東區","LI":"崇明里","LIN":"19鄰","STREET":"中華東路","SECT":"三段","MAREA":" ","LANE":"３５７巷","ALLEY":" ","HOUSE_NO":"１８號","E_COORD97":170370.54000000001,"N_COORD97":2541529.2400000002,"ADDRESS":"中華東路三段３５７巷１８號","OBJECTID":361101},"geometry":{"x":170370.54000000004,"y":2541529.2400000002}},{"attributes":{"ID":361112,"DIS_CODE":0,"TOWNNAME":"東區","LI":"崇明里","LIN":"19鄰","STREET":"中華東路","SECT":"三段","MAREA":" ","LANE":"３５７巷","ALLEY":" ","HOUSE_NO":"１９號","E_COORD97":170322.14000000001,"N_COORD97":2541581.0699999998,"ADDRESS":"中華東路三段３５７巷１９號","OBJECTID":361102},"geometry":{"x":170322.13999999966,"y":2541581.0700000022}},{"attributes":{"ID":361113,"DIS_CODE":0,"TOWNNAME":"東區","LI":"崇明里","LIN":"19鄰","STREET":"中華東路","SECT":"三段","MAREA":" ","LANE":"３５７巷","ALLEY":" ","HOUSE_NO":"２號之１","E_COORD97":170346.10000000001,"N_COORD97":2541553.1699999999,"ADDRESS":"中華東路三段３５７巷２號之１","OBJECTID":361103},"geometry":{"x":170346.09999999963,"y":2541553.1699999999}},{"attributes":{"ID":361114,"DIS_CODE":0,"TOWNNAME":"東區","LI":"崇明里","LIN":"19鄰","STREET":"中華東路","SECT":"三段","MAREA":" ","LANE":"３５７巷","ALLEY":" ","HOUSE_NO":"３１號","E_COORD97":170345.44,"N_COORD97":2541595.04,"ADDRESS":"中華東路三段３５７巷３１號","OBJECTID":361104},"geometry":{"x":170345.44000000134,"y":2541595.0399999991}},{"attributes":{"ID":361115,"DIS_CODE":0,"TOWNNAME":"東區","LI":"崇明里","LIN":"19鄰","STREET":"中華東路","SECT":"三段","MAREA":" ","LANE":"３５７巷","ALLEY":" ","HOUSE_NO":"３３號","E_COORD97":170352.22,"N_COORD97":2541588.1200000001,"ADDRESS":"中華東路三段３５７巷３３號","OBJECTID":361105},"geometry":{"x":170352.21999999974,"y":2541588.1200000029}},{"attributes":{"ID":361116,"DIS_CODE":0,"TOWNNAME":"新營區","LI":"永生里","LIN":"13鄰","STREET":"中山路","SECT":" ","MAREA":" ","LANE":" ","ALLEY":" ","HOUSE_NO":"２２９號","E_COORD97":179871.48999999999,"N_COORD97":2577973.0899999999,"ADDRESS":"中山路２２９號","OBJECTID":361106},"geometry":{"x":179871.49000000209,"y":2577973.0899999999}},{"attributes":{"ID":361117,"DIS_CODE":0,"TOWNNAME":"永康區","LI":"北灣里","LIN":"39鄰","STREET":"大同街","SECT":" ","MAREA":" ","LANE":"４６３巷","ALLEY":" ","HOUSE_NO":"１１號","E_COORD97":174564.44,"N_COORD97":2546370.4500000002,"ADDRESS":"大同街４６３巷１１號","OBJECTID":361107},"geometry":{"x":174564.44000000227,"y":2546370.4500000011}},{"attributes":{"ID":361118,"DIS_CODE":0,"TOWNNAME":"永康區","LI":"北灣里","LIN":"39鄰","STREET":"大同街","SECT":" ","MAREA":" ","LANE":"４６３巷","ALLEY":" ","HOUSE_NO":"１３號","E_COORD97":174560.17999999999,"N_COORD97":2546369.3900000001,"ADDRESS":"大同街４６３巷１３號","OBJECTID":361108},"geometry":{"x":174560.17999999877,"y":2546369.3900000025}},{"attributes":{"ID":361119,"DIS_CODE":0,"TOWNNAME":"永康區","LI":"北灣里","LIN":"39鄰","STREET":"大同街","SECT":" ","MAREA":" ","LANE":"４６３巷","ALLEY":" ","HOUSE_NO":"１５號","E_COORD97":174554.75,"N_COORD97":2546368.7000000002,"ADDRESS":"大同街４６３巷１５號","OBJECTID":361109},"geometry":{"x":174554.75,"y":2546368.7000000011}},{"attributes":{"ID":361120,"DIS_CODE":0,"TOWNNAME":"永康區","LI":"北灣里","LIN":"39鄰","STREET":"大同街","SECT":" ","MAREA":" ","LANE":"４６３巷","ALLEY":" ","HOUSE_NO":"１號","E_COORD97":174586.39999999999,"N_COORD97":2546377.9700000002,"ADDRESS":"大同街４６３巷１號","OBJECTID":361110},"geometry":{"x":174586.40000000037,"y":2546377.9700000044}},{"attributes":{"ID":361121,"DIS_CODE":0,"TOWNNAME":"永康區","LI":"北灣里","LIN":"39鄰","STREET":"大同街","SECT":" ","MAREA":" ","LANE":"４６３巷","ALLEY":" ","HOUSE_NO":"３號","E_COORD97":174581.56,"N_COORD97":2546376.5,"ADDRESS":"大同街４６３巷３號","OBJECTID":361111},"geometry":{"x":174581.56000000052,"y":2546376.5}},{"attributes":{"ID":361122,"DIS_CODE":0,"TOWNNAME":"永康區","LI":"北灣里","LIN":"39鄰","STREET":"大同街","SECT":" ","MAREA":" ","LANE":"４６３巷","ALLEY":" ","HOUSE_NO":"５號","E_COORD97":174577.03,"N_COORD97":2546374.71,"ADDRESS":"大同街４６３巷５號","OBJECTID":361112},"geometry":{"x":174577.02999999933,"y":2546374.7100000028}},{"attributes":{"ID":361123,"DIS_CODE":0,"TOWNNAME":"永康區","LI":"北灣里","LIN":"39鄰","STREET":"大同街","SECT":" ","MAREA":" ","LANE":"４６３巷","ALLEY":" ","HOUSE_NO":"７號","E_COORD97":174572.73999999999,"N_COORD97":2546373.79,"ADDRESS":"大同街４６３巷７號","OBJECTID":361113},"geometry":{"x":174572.74000000115,"y":2546373.7899999991}},{"attributes":{"ID":361124,"DIS_CODE":0,"TOWNNAME":"永康區","LI":"北灣里","LIN":"39鄰","STREET":"大同街","SECT":" ","MAREA":" ","LANE":"４６３巷","ALLEY":" ","HOUSE_NO":"９號","E_COORD97":174568.13,"N_COORD97":2546372.1299999999,"ADDRESS":"大同街４６３巷９號","OBJECTID":361114},"geometry":{"x":174568.13000000082,"y":2546372.1300000008}},{"attributes":{"ID":361125,"DIS_CODE":0,"TOWNNAME":"永康區","LI":"龍潭里","LIN":"39鄰","STREET":"永明街","SECT":" ","MAREA":" ","LANE":"２１５巷","ALLEY":" ","HOUSE_NO":"８號","E_COORD97":174530.98999999999,"N_COORD97":2547235.6800000002,"ADDRESS":"永明街２１５巷８號","OBJECTID":361115},"geometry":{"x":174530.99000000022,"y":2547235.6799999997}},{"attributes":{"ID":361126,"DIS_CODE":0,"TOWNNAME":"東區","LI":"崇明里","LIN":"19鄰","STREET":"中華東路","SECT":"三段","MAREA":" ","LANE":"３５７巷","ALLEY":" ","HOUSE_NO":"３５號","E_COORD97":170355.89000000001,"N_COORD97":2541586.0099999998,"ADDRESS":"中華東路三段３５７巷３５號","OBJECTID":361116},"geometry":{"x":170355.88999999966,"y":2541586.0099999979}},{"attributes":{"ID":361127,"DIS_CODE":0,"TOWNNAME":"東區","LI":"崇明里","LIN":"19鄰","STREET":"中華東路","SECT":"三段","MAREA":" ","LANE":"３５７巷","ALLEY":" ","HOUSE_NO":"３７號","E_COORD97":170359.57000000001,"N_COORD97":2541580.3599999999,"ADDRESS":"中華東路三段３５７巷３７號","OBJECTID":361117},"geometry":{"x":170359.57000000123,"y":2541580.3600000031}},{"attributes":{"ID":361128,"DIS_CODE":0,"TOWNNAME":"東區","LI":"崇明里","LIN":"19鄰","STREET":"中華東路","SECT":"三段","MAREA":" ","LANE":"３５７巷","ALLEY":" ","HOUSE_NO":"３９號","E_COORD97":170362.67000000001,"N_COORD97":2541577.2599999998,"ADDRESS":"中華東路三段３５７巷３９號","OBJECTID":361118},"geometry":{"x":170362.66999999993,"y":2541577.2599999998}},{"attributes":{"ID":361129,"DIS_CODE":0,"TOWNNAME":"東區","LI":"崇明里","LIN":"19鄰","STREET":"中華東路","SECT":"三段","MAREA":" ","LANE":"３５７巷","ALLEY":" ","HOUSE_NO":"４１號","E_COORD97":170366.48999999999,"N_COORD97":2541575.2799999998,"ADDRESS":"中華東路三段３５７巷４１號","OBJECTID":361119},"geometry":{"x":170366.49000000209,"y":2541575.2800000012}},{"attributes":{"ID":361130,"DIS_CODE":0,"TOWNNAME":"東區","LI":"崇明里","LIN":"19鄰","STREET":"中華東路","SECT":"三段","MAREA":" ","LANE":"３５７巷","ALLEY":" ","HOUSE_NO":"４３號","E_COORD97":170368.47,"N_COORD97":2541572.1699999999,"ADDRESS":"中華東路三段３５７巷４３號","OBJECTID":361120},"geometry":{"x":170368.47000000067,"y":2541572.1700000018}},{"attributes":{"ID":361131,"DIS_CODE":0,"TOWNNAME":"東區","LI":"崇明里","LIN":"19鄰","STREET":"中華東路","SECT":"三段","MAREA":" ","LANE":"３５７巷","ALLEY":" ","HOUSE_NO":"４５號","E_COORD97":170372.84,"N_COORD97":2541569.3500000001,"ADDRESS":"中華東路三段３５７巷４５號","OBJECTID":361121},"geometry":{"x":170372.84000000078,"y":2541569.3499999996}},{"attributes":{"ID":361132,"DIS_CODE":0,"TOWNNAME":"東區","LI":"崇明里","LIN":"19鄰","STREET":"中華東路","SECT":"三段","MAREA":" ","LANE":"３５７巷","ALLEY":" ","HOUSE_NO":"４７號","E_COORD97":170376.94,"N_COORD97":2541566.9500000002,"ADDRESS":"中華東路三段３５７巷４７號","OBJECTID":361122},"geometry":{"x":170376.94000000041,"y":2541566.9500000011}},{"attributes":{"ID":361133,"DIS_CODE":0,"TOWNNAME":"新營區","LI":"新東里","LIN":"13鄰","STREET":"東興六街","SECT":" ","MAREA":" ","LANE":" ","ALLEY":" ","HOUSE_NO":"９７號","E_COORD97":180992.01000000001,"N_COORD97":2579238.0600000001,"ADDRESS":"東興六街９７號","OBJECTID":361123},"geometry":{"x":180992.01000000071,"y":2579238.0600000024}},{"attributes":{"ID":361134,"DIS_CODE":0,"TOWNNAME":"新營區","LI":"埤寮里","LIN":"13鄰","STREET":"中正路","SECT":" ","MAREA":" ","LANE":" ","ALLEY":" ","HOUSE_NO":"４３３號","E_COORD97":180047.16,"N_COORD97":2580296.8100000001,"ADDRESS":"中正路４３３號","OBJECTID":361124},"geometry":{"x":180047.16000000108,"y":2580296.8100000024}},{"attributes":{"ID":361135,"DIS_CODE":0,"TOWNNAME":"新營區","LI":"新南里","LIN":"13鄰","STREET":"長榮路","SECT":"二段","MAREA":" ","LANE":" ","ALLEY":" ","HOUSE_NO":"７９５號","E_COORD97":178448.29000000001,"N_COORD97":2579180.3799999999,"ADDRESS":"長榮路二段７９５號","OBJECTID":361125},"geometry":{"x":178448.29000000004,"y":2579180.3800000008}},{"attributes":{"ID":361136,"DIS_CODE":0,"TOWNNAME":"新營區","LI":"民榮里","LIN":"13鄰","STREET":"新進路","SECT":"二段","MAREA":" ","LANE":" ","ALLEY":" ","HOUSE_NO":"１７７號","E_COORD97":179269.76000000001,"N_COORD97":2577717.9199999999,"ADDRESS":"新進路二段１７７號","OBJECTID":361126},"geometry":{"x":179269.76000000071,"y":2577717.9199999999}},{"attributes":{"ID":361137,"DIS_CODE":0,"TOWNNAME":"新營區","LI":"新南里","LIN":"13鄰","STREET":"長榮路","SECT":"二段","MAREA":" ","LANE":" ","ALLEY":" ","HOUSE_NO":"７５３號","E_COORD97":178509.92999999999,"N_COORD97":2579236.5600000001,"ADDRESS":"長榮路二段７５３號","OBJECTID":361127},"geometry":{"x":178509.92999999877,"y":2579236.5600000005}},{"attributes":{"ID":361138,"DIS_CODE":0,"TOWNNAME":"新營區","LI":"埤寮里","LIN":"13鄰","STREET":"中正路","SECT":" ","MAREA":" ","LANE":" ","ALLEY":" ","HOUSE_NO":"３９７號","E_COORD97":180032.23999999999,"N_COORD97":2580167.2999999998,"ADDRESS":"中正路３９７號","OBJECTID":361128},"geometry":{"x":180032.24000000022,"y":2580167.3000000007}},{"attributes":{"ID":361139,"DIS_CODE":0,"TOWNNAME":"柳營區","LI":"光福里","LIN":"13鄰","STREET":"柳營路","SECT":"二段","MAREA":" ","LANE":" ","ALLEY":" ","HOUSE_NO":"１４６號","E_COORD97":179611.26999999999,"N_COORD97":2575398.9700000002,"ADDRESS":"柳營路二段１４６號","OBJECTID":361129},"geometry":{"x":179611.27000000142,"y":2575398.9700000007}},{"attributes":{"ID":361140,"DIS_CODE":0,"TOWNNAME":"柳營區","LI":"光福里","LIN":"13鄰","STREET":"柳營路","SECT":"二段","MAREA":" ","LANE":" ","ALLEY":" ","HOUSE_NO":"１４８號","E_COORD97":179610.64999999999,"N_COORD97":2575403.1099999999,"ADDRESS":"柳營路二段１４８號","OBJECTID":361130},"geometry":{"x":179610.65000000037,"y":2575403.1099999994}},{"attributes":{"ID":361141,"DIS_CODE":0,"TOWNNAME":"柳營區","LI":"士林里","LIN":"13鄰","STREET":"柳營路","SECT":"一段","MAREA":" ","LANE":" ","ALLEY":" ","HOUSE_NO":"７５９號","E_COORD97":179673.70999999999,"N_COORD97":2574992.0899999999,"ADDRESS":"柳營路一段７５９號","OBJECTID":361131},"geometry":{"x":179673.71000000089,"y":2574992.0900000017}},{"attributes":{"ID":361142,"DIS_CODE":0,"TOWNNAME":"東區","LI":"崇明里","LIN":"19鄰","STREET":"中華東路","SECT":"三段","MAREA":" ","LANE":"３５７巷","ALLEY":" ","HOUSE_NO":"４９號","E_COORD97":170379.91,"N_COORD97":2541562.29,"ADDRESS":"中華東路三段３５７巷４９號","OBJECTID":361132},"geometry":{"x":170379.91000000015,"y":2541562.2899999991}},{"attributes":{"ID":361143,"DIS_CODE":0,"TOWNNAME":"東區","LI":"崇明里","LIN":"19鄰","STREET":"中華東路","SECT":"三段","MAREA":" ","LANE":"３５７巷","ALLEY":" ","HOUSE_NO":"５１號","E_COORD97":170383.29999999999,"N_COORD97":2541559.0499999998,"ADDRESS":"中華東路三段３５７巷５１號","OBJECTID":361133},"geometry":{"x":170383.30000000075,"y":2541559.0500000007}},{"attributes":{"ID":361144,"DIS_CODE":0,"TOWNNAME":"東區","LI":"崇明里","LIN":"19鄰","STREET":"中華東路","SECT":"三段","MAREA":" ","LANE":"３５７巷","ALLEY":" ","HOUSE_NO":"５５號","E_COORD97":170388.66,"N_COORD97":2541549.3199999998,"ADDRESS":"中華東路三段３５７巷５５號","OBJECTID":361134},"geometry":{"x":170388.66000000015,"y":2541549.3200000003}},{"attributes":{"ID":361145,"DIS_CODE":0,"TOWNNAME":"東區","LI":"崇明里","LIN":"19鄰","STREET":"中華東路","SECT":"三段","MAREA":" ","LANE":"３５７巷","ALLEY":" ","HOUSE_NO":"６７號","E_COORD97":170401.98999999999,"N_COORD97":2541528.6800000002,"ADDRESS":"中華東路三段３５７巷６７號","OBJECTID":361135},"geometry":{"x":170401.98999999929,"y":2541528.6800000016}},{"attributes":{"ID":361146,"DIS_CODE":0,"TOWNNAME":"東區","LI":"崇明里","LIN":"19鄰","STREET":"中華東路","SECT":"三段","MAREA":" ","LANE":"３５７巷","ALLEY":" ","HOUSE_NO":"６號","E_COORD97":170349.20999999999,"N_COORD97":2541550.3500000001,"ADDRESS":"中華東路三段３５７巷６號","OBJECTID":361136},"geometry":{"x":170349.20999999996,"y":2541550.3500000015}},{"attributes":{"ID":361147,"DIS_CODE":0,"TOWNNAME":"東區","LI":"崇明里","LIN":"19鄰","STREET":"中華東路","SECT":"三段","MAREA":" ","LANE":"３５７巷","ALLEY":" ","HOUSE_NO":"８號","E_COORD97":170352.04000000001,"N_COORD97":2541546.75,"ADDRESS":"中華東路三段３５７巷８號","OBJECTID":361137},"geometry":{"x":170352.04000000004,"y":2541546.75}},{"attributes":{"ID":361148,"DIS_CODE":0,"TOWNNAME":"佳里區","LI":"忠仁里","LIN":"19鄰","STREET":"忠仁街","SECT":" ","MAREA":" ","LANE":"５８巷","ALLEY":" ","HOUSE_NO":"１０號","E_COORD97":166109.26000000001,"N_COORD97":2562081.2200000002,"ADDRESS":"忠仁街５８巷１０號","OBJECTID":361138},"geometry":{"x":166109.26000000164,"y":2562081.2200000025}},{"attributes":{"ID":361149,"DIS_CODE":0,"TOWNNAME":"佳里區","LI":"忠仁里","LIN":"19鄰","STREET":"忠仁街","SECT":" ","MAREA":" ","LANE":"５８巷","ALLEY":" ","HOUSE_NO":"１１號","E_COORD97":166113.88,"N_COORD97":2562081.7200000002,"ADDRESS":"忠仁街５８巷１１號","OBJECTID":361139},"geometry":{"x":166113.88000000082,"y":2562081.7200000025}},{"attributes":{"ID":361150,"DIS_CODE":0,"TOWNNAME":"佳里區","LI":"忠仁里","LIN":"19鄰","STREET":"忠仁街","SECT":" ","MAREA":" ","LANE":"５８巷","ALLEY":" ","HOUSE_NO":"１２號","E_COORD97":166118.06,"N_COORD97":2562082.4399999999,"ADDRESS":"忠仁街５８巷１２號","OBJECTID":361140},"geometry":{"x":166118.05999999959,"y":2562082.4400000013}},{"attributes":{"ID":361151,"DIS_CODE":0,"TOWNNAME":"佳里區","LI":"忠仁里","LIN":"19鄰","STREET":"忠仁街","SECT":" ","MAREA":" ","LANE":"５８巷","ALLEY":" ","HOUSE_NO":"１３號","E_COORD97":166127.81,"N_COORD97":2562086.3999999999,"ADDRESS":"忠仁街５８巷１３號","OBJECTID":361141},"geometry":{"x":166127.81000000052,"y":2562086.4000000022}},{"attributes":{"ID":361152,"DIS_CODE":0,"TOWNNAME":"佳里區","LI":"忠仁里","LIN":"19鄰","STREET":"忠仁街","SECT":" ","MAREA":" ","LANE":"５８巷","ALLEY":" ","HOUSE_NO":"１４號","E_COORD97":166132.98000000001,"N_COORD97":2562087.0499999998,"ADDRESS":"忠仁街５８巷１４號","OBJECTID":361142},"geometry":{"x":166132.98000000138,"y":2562087.0500000007}},{"attributes":{"ID":361153,"DIS_CODE":0,"TOWNNAME":"佳里區","LI":"忠仁里","LIN":"19鄰","STREET":"忠仁街","SECT":" ","MAREA":" ","LANE":"５８巷","ALLEY":" ","HOUSE_NO":"１５號","E_COORD97":166130.29999999999,"N_COORD97":2562067.2000000002,"ADDRESS":"忠仁街５８巷１５號","OBJECTID":361143},"geometry":{"x":166130.29999999981,"y":2562067.2000000011}},{"attributes":{"ID":361154,"DIS_CODE":0,"TOWNNAME":"永康區","LI":"埔園里","LIN":"39鄰","STREET":"埔園街","SECT":" ","MAREA":" ","LANE":"５９巷","ALLEY":" ","HOUSE_NO":"１號","E_COORD97":173989.87,"N_COORD97":2548036.6499999999,"ADDRESS":"埔園街５９巷１號","OBJECTID":361144},"geometry":{"x":173989.87000000197,"y":2548036.6500000004}},{"attributes":{"ID":361155,"DIS_CODE":0,"TOWNNAME":"永康區","LI":"埔園里","LIN":"39鄰","STREET":"埔園街","SECT":" ","MAREA":" ","LANE":"５９巷","ALLEY":" ","HOUSE_NO":"３號","E_COORD97":173984.85999999999,"N_COORD97":2548033.96,"ADDRESS":"埔園街５９巷３號","OBJECTID":361145},"geometry":{"x":173984.86000000034,"y":2548033.9600000028}},{"attributes":{"ID":361156,"DIS_CODE":0,"TOWNNAME":"歸仁區","LI":"六甲里","LIN":"39鄰","STREET":"六甲八街","SECT":" ","MAREA":" ","LANE":"１４９巷","ALLEY":" ","HOUSE_NO":"１２８號","E_COORD97":175249.10000000001,"N_COORD97":2539871.73,"ADDRESS":"六甲八街１４９巷１２８號","OBJECTID":361146},"geometry":{"x":175249.10000000056,"y":2539871.7300000004}},{"attributes":{"ID":361157,"DIS_CODE":0,"TOWNNAME":"歸仁區","LI":"六甲里","LIN":"39鄰","STREET":"六甲八街","SECT":" ","MAREA":" ","LANE":"１４９巷","ALLEY":" ","HOUSE_NO":"１６２號","E_COORD97":175256.39999999999,"N_COORD97":2539886.73,"ADDRESS":"六甲八街１４９巷１６２號","OBJECTID":361147},"geometry":{"x":175256.4000000013,"y":2539886.7299999986}},{"attributes":{"ID":361158,"DIS_CODE":0,"TOWNNAME":"玉井區","LI":"玉田里","LIN":"39鄰","STREET":"和平街","SECT":" ","MAREA":" ","LANE":"２２巷","ALLEY":" ","HOUSE_NO":"２２號","E_COORD97":194972.14000000001,"N_COORD97":2557596.25,"ADDRESS":"和平街２２巷２２號","OBJECTID":361148},"geometry":{"x":194972.13999999873,"y":2557596.25}},{"attributes":{"ID":361159,"DIS_CODE":0,"TOWNNAME":"玉井區","LI":"玉田里","LIN":"39鄰","STREET":"和平街","SECT":" ","MAREA":" ","LANE":"２２巷","ALLEY":" ","HOUSE_NO":"１２號","E_COORD97":194984.63,"N_COORD97":2557589.2400000002,"ADDRESS":"和平街２２巷１２號","OBJECTID":361149},"geometry":{"x":194984.63000000082,"y":2557589.2400000021}},{"attributes":{"ID":361160,"DIS_CODE":0,"TOWNNAME":"玉井區","LI":"玉田里","LIN":"39鄰","STREET":"和平街","SECT":" ","MAREA":" ","LANE":"２２巷","ALLEY":" ","HOUSE_NO":"２６號","E_COORD97":194967.73000000001,"N_COORD97":2557601.25,"ADDRESS":"和平街２２巷２６號","OBJECTID":361150},"geometry":{"x":194967.73000000138,"y":2557601.2500000037}},{"attributes":{"ID":361161,"DIS_CODE":0,"TOWNNAME":"玉井區","LI":"玉田里","LIN":"39鄰","STREET":"和平街","SECT":" ","MAREA":" ","LANE":"２２巷","ALLEY":" ","HOUSE_NO":"４１號","E_COORD97":194938.92999999999,"N_COORD97":2557587.2400000002,"ADDRESS":"和平街２２巷４１號","OBJECTID":361151},"geometry":{"x":194938.93000000063,"y":2557587.2400000002}},{"attributes":{"ID":361162,"DIS_CODE":0,"TOWNNAME":"玉井區","LI":"玉田里","LIN":"39鄰","STREET":"和平街","SECT":" ","MAREA":" ","LANE":"２２巷","ALLEY":" ","HOUSE_NO":"２８號","E_COORD97":194963.14000000001,"N_COORD97":2557603.25,"ADDRESS":"和平街２２巷２８號","OBJECTID":361152},"geometry":{"x":194963.13999999966,"y":2557603.25}},{"attributes":{"ID":361163,"DIS_CODE":0,"TOWNNAME":"佳里區","LI":"忠仁里","LIN":"19鄰","STREET":"忠仁街","SECT":" ","MAREA":" ","LANE":"５８巷","ALLEY":" ","HOUSE_NO":"１６號","E_COORD97":166134.59,"N_COORD97":2562067.6600000001,"ADDRESS":"忠仁街５８巷１６號","OBJECTID":361153},"geometry":{"x":166134.59000000078,"y":2562067.660000002}},{"attributes":{"ID":361164,"DIS_CODE":0,"TOWNNAME":"佳里區","LI":"忠仁里","LIN":"19鄰","STREET":"忠仁街","SECT":" ","MAREA":" ","LANE":"５８巷","ALLEY":" ","HOUSE_NO":"１號","E_COORD97":166069.67999999999,"N_COORD97":2562075.2200000002,"ADDRESS":"忠仁街５８巷１號","OBJECTID":361154},"geometry":{"x":166069.68000000063,"y":2562075.2200000025}},{"attributes":{"ID":361165,"DIS_CODE":0,"TOWNNAME":"佳里區","LI":"忠仁里","LIN":"19鄰","STREET":"忠仁街","SECT":" ","MAREA":" ","LANE":"５８巷","ALLEY":" ","HOUSE_NO":"２號","E_COORD97":166073.75,"N_COORD97":2562075.7799999998,"ADDRESS":"忠仁街５８巷２號","OBJECTID":361155},"geometry":{"x":166073.75,"y":2562075.7800000012}},{"attributes":{"ID":361166,"DIS_CODE":0,"TOWNNAME":"佳里區","LI":"忠仁里","LIN":"19鄰","STREET":"忠仁街","SECT":" ","MAREA":" ","LANE":"５８巷","ALLEY":" ","HOUSE_NO":"３號","E_COORD97":166077.60000000001,"N_COORD97":2562076.3500000001,"ADDRESS":"忠仁街５８巷３號","OBJECTID":361156},"geometry":{"x":166077.59999999963,"y":2562076.3500000015}},{"attributes":{"ID":361167,"DIS_CODE":0,"TOWNNAME":"柳營區","LI":"士林里","LIN":"13鄰","STREET":"柳營路","SECT":"一段","MAREA":" ","LANE":" ","ALLEY":" ","HOUSE_NO":"７６１號","E_COORD97":179671.94,"N_COORD97":2574999.3500000001,"ADDRESS":"柳營路一段７６１號","OBJECTID":361157},"geometry":{"x":179671.94000000227,"y":2574999.3500000034}},{"attributes":{"ID":361168,"DIS_CODE":0,"TOWNNAME":"柳營區","LI":"士林里","LIN":"13鄰","STREET":"柳營路","SECT":"一段","MAREA":" ","LANE":" ","ALLEY":" ","HOUSE_NO":"７６５號","E_COORD97":179670.17999999999,"N_COORD97":2575006.5899999999,"ADDRESS":"柳營路一段７６５號","OBJECTID":361158},"geometry":{"x":179670.18000000063,"y":2575006.5899999999}},{"attributes":{"ID":361169,"DIS_CODE":0,"TOWNNAME":"柳營區","LI":"士林里","LIN":"13鄰","STREET":"柳營路","SECT":"一段","MAREA":" ","LANE":" ","ALLEY":" ","HOUSE_NO":"７７１號","E_COORD97":179667.57000000001,"N_COORD97":2575019.21,"ADDRESS":"柳營路一段７７１號","OBJECTID":361159},"geometry":{"x":179667.57000000216,"y":2575019.2100000028}},{"attributes":{"ID":361170,"DIS_CODE":0,"TOWNNAME":"柳營區","LI":"士林里","LIN":"13鄰","STREET":"柳營路","SECT":"一段","MAREA":" ","LANE":" ","ALLEY":" ","HOUSE_NO":"７７３號","E_COORD97":179665.45000000001,"N_COORD97":2575026.9100000001,"ADDRESS":"柳營路一段７７３號","OBJECTID":361160},"geometry":{"x":179665.45000000112,"y":2575026.9100000039}},{"attributes":{"ID":361171,"DIS_CODE":0,"TOWNNAME":"柳營區","LI":"士林里","LIN":"13鄰","STREET":"柳營路","SECT":"一段","MAREA":" ","LANE":" ","ALLEY":" ","HOUSE_NO":"７８５號","E_COORD97":179646.12,"N_COORD97":2575058.3500000001,"ADDRESS":"柳營路一段７８５號","OBJECTID":361161},"geometry":{"x":179646.12000000011,"y":2575058.3500000015}},{"attributes":{"ID":361172,"DIS_CODE":0,"TOWNNAME":"柳營區","LI":"光福里","LIN":"13鄰","STREET":"柳營路","SECT":"二段","MAREA":" ","LANE":" ","ALLEY":" ","HOUSE_NO":"６８號","E_COORD97":179648.45999999999,"N_COORD97":2575263.6200000001,"ADDRESS":"柳營路二段６８號","OBJECTID":361162},"geometry":{"x":179648.45999999996,"y":2575263.6200000048}},{"attributes":{"ID":361173,"DIS_CODE":0,"TOWNNAME":"柳營區","LI":"光福里","LIN":"13鄰","STREET":"柳營路","SECT":"二段","MAREA":" ","LANE":" ","ALLEY":" ","HOUSE_NO":"７０號","E_COORD97":179647.60000000001,"N_COORD97":2575269.2400000002,"ADDRESS":"柳營路二段７０號","OBJECTID":361163},"geometry":{"x":179647.59999999963,"y":2575269.2400000021}},{"attributes":{"ID":361174,"DIS_CODE":0,"TOWNNAME":"柳營區","LI":"光福里","LIN":"13鄰","STREET":"柳營路","SECT":"二段","MAREA":" ","LANE":" ","ALLEY":" ","HOUSE_NO":"７２號","E_COORD97":179643.38,"N_COORD97":2575275.7200000002,"ADDRESS":"柳營路二段７２號","OBJECTID":361164},"geometry":{"x":179643.38000000082,"y":2575275.7199999988}},{"attributes":{"ID":361175,"DIS_CODE":0,"TOWNNAME":"柳營區","LI":"光福里","LIN":"13鄰","STREET":"柳營路","SECT":"二段","MAREA":" ","LANE":" ","ALLEY":" ","HOUSE_NO":"７６號","E_COORD97":179641.14999999999,"N_COORD97":2575280.98,"ADDRESS":"柳營路二段７６號","OBJECTID":361165},"geometry":{"x":179641.15000000037,"y":2575280.9800000042}},{"attributes":{"ID":361176,"DIS_CODE":0,"TOWNNAME":"北區","LI":"成德里","LIN":"39鄰","STREET":"文成五街","SECT":" ","MAREA":" ","LANE":"１７６巷","ALLEY":" ","HOUSE_NO":"１號","E_COORD97":168281.32999999999,"N_COORD97":2546538.6000000001,"ADDRESS":"文成五街１７６巷１號","OBJECTID":361166},"geometry":{"x":168281.33000000101,"y":2546538.5999999978}},{"attributes":{"ID":361177,"DIS_CODE":0,"TOWNNAME":"北區","LI":"成德里","LIN":"39鄰","STREET":"文成五街","SECT":" ","MAREA":" ","LANE":"１７６巷","ALLEY":" ","HOUSE_NO":"３號","E_COORD97":168280.31,"N_COORD97":2546544.4399999999,"ADDRESS":"文成五街１７６巷３號","OBJECTID":361167},"geometry":{"x":168280.31000000145,"y":2546544.4400000013}},{"attributes":{"ID":361178,"DIS_CODE":0,"TOWNNAME":"北區","LI":"成德里","LIN":"39鄰","STREET":"文成五街","SECT":" ","MAREA":" ","LANE":"１７６巷","ALLEY":" ","HOUSE_NO":"２號","E_COORD97":168299.10999999999,"N_COORD97":2546543.4199999999,"ADDRESS":"文成五街１７６巷２號","OBJECTID":361168},"geometry":{"x":168299.11000000034,"y":2546543.4199999999}},{"attributes":{"ID":361179,"DIS_CODE":0,"TOWNNAME":"佳里區","LI":"忠仁里","LIN":"19鄰","STREET":"忠仁街","SECT":" ","MAREA":" ","LANE":"５８巷","ALLEY":" ","HOUSE_NO":"４號","E_COORD97":166081.42000000001,"N_COORD97":2562076.8999999999,"ADDRESS":"忠仁街５８巷４號","OBJECTID":361169},"geometry":{"x":166081.42000000086,"y":2562076.9000000022}},{"attributes":{"ID":361180,"DIS_CODE":0,"TOWNNAME":"佳里區","LI":"忠仁里","LIN":"19鄰","STREET":"忠仁街","SECT":" ","MAREA":" ","LANE":"５８巷","ALLEY":" ","HOUSE_NO":"５號","E_COORD97":166085.69,"N_COORD97":2562077.1200000001,"ADDRESS":"忠仁街５８巷５號","OBJECTID":361170},"geometry":{"x":166085.69000000134,"y":2562077.120000001}},{"attributes":{"ID":361181,"DIS_CODE":0,"TOWNNAME":"佳里區","LI":"忠仁里","LIN":"19鄰","STREET":"忠仁街","SECT":" ","MAREA":" ","LANE":"５８巷","ALLEY":" ","HOUSE_NO":"６號","E_COORD97":166089.79000000001,"N_COORD97":2562077.3500000001,"ADDRESS":"忠仁街５８巷６號","OBJECTID":361171},"geometry":{"x":166089.79000000097,"y":2562077.3499999996}},{"attributes":{"ID":361182,"DIS_CODE":0,"TOWNNAME":"佳里區","LI":"忠仁里","LIN":"19鄰","STREET":"忠仁街","SECT":" ","MAREA":" ","LANE":"５８巷","ALLEY":" ","HOUSE_NO":"７號","E_COORD97":166096.09,"N_COORD97":2562079.1299999999,"ADDRESS":"忠仁街５８巷７號","OBJECTID":361172},"geometry":{"x":166096.09000000078,"y":2562079.129999999}},{"attributes":{"ID":361183,"DIS_CODE":0,"TOWNNAME":"佳里區","LI":"忠仁里","LIN":"19鄰","STREET":"忠仁街","SECT":" ","MAREA":" ","LANE":"５８巷","ALLEY":" ","HOUSE_NO":"８號","E_COORD97":166100.82000000001,"N_COORD97":2562079.6899999999,"ADDRESS":"忠仁街５８巷８號","OBJECTID":361173},"geometry":{"x":166100.81999999937,"y":2562079.6900000032}},{"attributes":{"ID":361184,"DIS_CODE":0,"TOWNNAME":"佳里區","LI":"忠仁里","LIN":"19鄰","STREET":"忠仁街","SECT":" ","MAREA":" ","LANE":"５８巷","ALLEY":" ","HOUSE_NO":"９號","E_COORD97":166105.01999999999,"N_COORD97":2562080.23,"ADDRESS":"忠仁街５８巷９號","OBJECTID":361174},"geometry":{"x":166105.01999999955,"y":2562080.2300000042}},{"attributes":{"ID":361185,"DIS_CODE":0,"TOWNNAME":"東區","LI":"崇善里","LIN":" ","STREET":"中華東路","SECT":"三段","MAREA":" ","LANE":"１０７巷","ALLEY":" ","HOUSE_NO":"３６號","E_COORD97":170820.03,"N_COORD97":2542068.3900000001,"ADDRESS":"中華東路三段１０７巷３６號","OBJECTID":361175},"geometry":{"x":170820.03000000026,"y":2542068.3900000006}},{"attributes":{"ID":361186,"DIS_CODE":0,"TOWNNAME":"東區","LI":"崇德里","LIN":"20鄰","STREET":"崇明十四街","SECT":" ","MAREA":" ","LANE":"６０巷","ALLEY":" ","HOUSE_NO":"１６號","E_COORD97":170681.48000000001,"N_COORD97":2541599.9500000002,"ADDRESS":"崇明十四街６０巷１６號","OBJECTID":361176},"geometry":{"x":170681.48000000045,"y":2541599.950000003}},{"attributes":{"ID":361187,"DIS_CODE":0,"TOWNNAME":"佳里區","LI":"安西里","LIN":"19鄰","STREET":"忠孝路","SECT":" ","MAREA":" ","LANE":"８７巷","ALLEY":" ","HOUSE_NO":"１０號","E_COORD97":165467.51000000001,"N_COORD97":2562868.9399999999,"ADDRESS":"忠孝路８７巷１０號","OBJECTID":361177},"geometry":{"x":165467.51000000071,"y":2562868.9400000013}},{"attributes":{"ID":361188,"DIS_CODE":0,"TOWNNAME":"佳里區","LI":"安西里","LIN":"19鄰","STREET":"忠孝路","SECT":" ","MAREA":" ","LANE":"８７巷","ALLEY":" ","HOUSE_NO":"１２號","E_COORD97":165467.35999999999,"N_COORD97":2562862.77,"ADDRESS":"忠孝路８７巷１２號","OBJECTID":361178},"geometry":{"x":165467.36000000127,"y":2562862.7700000014}},{"attributes":{"ID":361189,"DIS_CODE":0,"TOWNNAME":"佳里區","LI":"安西里","LIN":"19鄰","STREET":"忠孝路","SECT":" ","MAREA":" ","LANE":"８７巷","ALLEY":" ","HOUSE_NO":"１４號","E_COORD97":165466.82999999999,"N_COORD97":2562856.0699999998,"ADDRESS":"忠孝路８７巷１４號","OBJECTID":361179},"geometry":{"x":165466.83000000101,"y":2562856.0700000003}},{"attributes":{"ID":361190,"DIS_CODE":0,"TOWNNAME":"佳里區","LI":"安西里","LIN":"19鄰","STREET":"忠孝路","SECT":" ","MAREA":" ","LANE":"８７巷","ALLEY":" ","HOUSE_NO":"１６號","E_COORD97":165466.66,"N_COORD97":2562852.3599999999,"ADDRESS":"忠孝路８７巷１６號","OBJECTID":361180},"geometry":{"x":165466.66000000108,"y":2562852.3600000013}},{"attributes":{"ID":361191,"DIS_CODE":0,"TOWNNAME":"柳營區","LI":"光福里","LIN":"13鄰","STREET":"柳營路","SECT":"二段","MAREA":" ","LANE":" ","ALLEY":" ","HOUSE_NO":"７８號","E_COORD97":179639.66,"N_COORD97":2575285.1000000001,"ADDRESS":"柳營路二段７８號","OBJECTID":361181},"geometry":{"x":179639.66000000201,"y":2575285.0999999996}},{"attributes":{"ID":361192,"DIS_CODE":0,"TOWNNAME":"柳營區","LI":"光福里","LIN":"13鄰","STREET":"柳營路","SECT":"二段","MAREA":" ","LANE":" ","ALLEY":" ","HOUSE_NO":"８０號","E_COORD97":179638.88,"N_COORD97":2575289.8100000001,"ADDRESS":"柳營路二段８０號","OBJECTID":361182},"geometry":{"x":179638.87999999989,"y":2575289.8100000024}},{"attributes":{"ID":361193,"DIS_CODE":0,"TOWNNAME":"柳營區","LI":"光福里","LIN":"13鄰","STREET":"柳營路","SECT":"二段","MAREA":" ","LANE":" ","ALLEY":" ","HOUSE_NO":"８２號","E_COORD97":179654.54999999999,"N_COORD97":2575302.2599999998,"ADDRESS":"柳營路二段８２號","OBJECTID":361183},"geometry":{"x":179654.54999999981,"y":2575302.2600000016}},{"attributes":{"ID":361194,"DIS_CODE":0,"TOWNNAME":"佳里區","LI":"安西里","LIN":"19鄰","STREET":"忠孝路","SECT":" ","MAREA":" ","LANE":"８７巷","ALLEY":" ","HOUSE_NO":"１８號","E_COORD97":165466.70000000001,"N_COORD97":2562848.8399999999,"ADDRESS":"忠孝路８７巷１８號","OBJECTID":361184},"geometry":{"x":165466.70000000112,"y":2562848.8400000017}},{"attributes":{"ID":361195,"DIS_CODE":0,"TOWNNAME":"佳里區","LI":"安西里","LIN":"19鄰","STREET":"忠孝路","SECT":" ","MAREA":" ","LANE":"８７巷","ALLEY":" ","HOUSE_NO":"１號","E_COORD97":165479.10999999999,"N_COORD97":2562869.2000000002,"ADDRESS":"忠孝路８７巷１號","OBJECTID":361185},"geometry":{"x":165479.11000000127,"y":2562869.200000003}},{"attributes":{"ID":361196,"DIS_CODE":0,"TOWNNAME":"佳里區","LI":"安西里","LIN":"19鄰","STREET":"忠孝路","SECT":" ","MAREA":" ","LANE":"８７巷","ALLEY":" ","HOUSE_NO":"２號","E_COORD97":165470.42000000001,"N_COORD97":2562889.0800000001,"ADDRESS":"忠孝路８７巷２號","OBJECTID":361186},"geometry":{"x":165470.41999999993,"y":2562889.0800000019}},{"attributes":{"ID":361197,"DIS_CODE":0,"TOWNNAME":"佳里區","LI":"安西里","LIN":"19鄰","STREET":"忠孝路","SECT":" ","MAREA":" ","LANE":"８７巷","ALLEY":" ","HOUSE_NO":"３號","E_COORD97":165479.07000000001,"N_COORD97":2562864.29,"ADDRESS":"忠孝路８７巷３號","OBJECTID":361187},"geometry":{"x":165479.07000000123,"y":2562864.2899999991}},{"attributes":{"ID":361198,"DIS_CODE":0,"TOWNNAME":"佳里區","LI":"安西里","LIN":"19鄰","STREET":"忠孝路","SECT":" ","MAREA":" ","LANE":"８７巷","ALLEY":" ","HOUSE_NO":"４號","E_COORD97":165470.01999999999,"N_COORD97":2562884.3599999999,"ADDRESS":"忠孝路８７巷４號","OBJECTID":361188},"geometry":{"x":165470.02000000048,"y":2562884.3599999994}},{"attributes":{"ID":361199,"DIS_CODE":0,"TOWNNAME":"佳里區","LI":"安西里","LIN":"19鄰","STREET":"忠孝路","SECT":" ","MAREA":" ","LANE":"８７巷","ALLEY":" ","HOUSE_NO":"５號","E_COORD97":165478.5,"N_COORD97":2562859.3500000001,"ADDRESS":"忠孝路８７巷５號","OBJECTID":361189},"geometry":{"x":165478.5,"y":2562859.3500000015}},{"attributes":{"ID":361200,"DIS_CODE":0,"TOWNNAME":"佳里區","LI":"安西里","LIN":"19鄰","STREET":"忠孝路","SECT":" ","MAREA":" ","LANE":"８７巷","ALLEY":" ","HOUSE_NO":"６號","E_COORD97":165469.57000000001,"N_COORD97":2562879.73,"ADDRESS":"忠孝路８７巷６號","OBJECTID":361190},"geometry":{"x":165469.5700000003,"y":2562879.7300000004}},{"attributes":{"ID":361201,"DIS_CODE":0,"TOWNNAME":"佳里區","LI":"安西里","LIN":"19鄰","STREET":"忠孝路","SECT":" ","MAREA":" ","LANE":"８７巷","ALLEY":" ","HOUSE_NO":"８號","E_COORD97":165469.12,"N_COORD97":2562874.2400000002,"ADDRESS":"忠孝路８７巷８號","OBJECTID":361191},"geometry":{"x":165469.12000000011,"y":2562874.2400000021}},{"attributes":{"ID":361202,"DIS_CODE":0,"TOWNNAME":"佳里區","LI":"東寧里","LIN":"19鄰","STREET":"信義一街","SECT":" ","MAREA":" ","LANE":"４１８巷","ALLEY":" ","HOUSE_NO":"１８號","E_COORD97":166249.25,"N_COORD97":2562412.4199999999,"ADDRESS":"信義一街４１８巷１８號","OBJECTID":361192},"geometry":{"x":166249.25000000093,"y":2562412.4200000018}},{"attributes":{"ID":361203,"DIS_CODE":0,"TOWNNAME":"佳里區","LI":"東寧里","LIN":"19鄰","STREET":"信義一街","SECT":" ","MAREA":" ","LANE":"４１８巷","ALLEY":" ","HOUSE_NO":"１９號","E_COORD97":166254.95000000001,"N_COORD97":2562431.4300000002,"ADDRESS":"信義一街４１８巷１９號","OBJECTID":361193},"geometry":{"x":166254.95000000112,"y":2562431.4300000016}},{"attributes":{"ID":361204,"DIS_CODE":0,"TOWNNAME":"佳里區","LI":"東寧里","LIN":"19鄰","STREET":"信義一街","SECT":" ","MAREA":" ","LANE":"４１８巷","ALLEY":" ","HOUSE_NO":"１號","E_COORD97":166218.56,"N_COORD97":2562426.7200000002,"ADDRESS":"信義一街４１８巷１號","OBJECTID":361194},"geometry":{"x":166218.55999999959,"y":2562426.7200000025}},{"attributes":{"ID":361205,"DIS_CODE":0,"TOWNNAME":"佳里區","LI":"東寧里","LIN":"19鄰","STREET":"信義一街","SECT":" ","MAREA":" ","LANE":"４１８巷","ALLEY":" ","HOUSE_NO":"２０號","E_COORD97":166253.25,"N_COORD97":2562412.7999999998,"ADDRESS":"信義一街４１８巷２０號","OBJECTID":361195},"geometry":{"x":166253.25,"y":2562412.8000000026}},{"attributes":{"ID":361206,"DIS_CODE":0,"TOWNNAME":"東區","LI":"崇德里","LIN":"10鄰","STREET":"崇德八街","SECT":" ","MAREA":" ","LANE":"４６巷","ALLEY":" ","HOUSE_NO":"１２號地下層","E_COORD97":170933.35000000001,"N_COORD97":2541545.0099999998,"ADDRESS":"崇德八街４６巷１２號地下層","OBJECTID":361196},"geometry":{"x":170933.35000000056,"y":2541545.0099999998}},{"attributes":{"ID":361207,"DIS_CODE":0,"TOWNNAME":"佳里區","LI":"東寧里","LIN":"19鄰","STREET":"信義一街","SECT":" ","MAREA":" ","LANE":"４１８巷","ALLEY":" ","HOUSE_NO":"２１號","E_COORD97":166258.89000000001,"N_COORD97":2562431.6899999999,"ADDRESS":"信義一街４１８巷２１號","OBJECTID":361197},"geometry":{"x":166258.88999999966,"y":2562431.6899999995}},{"attributes":{"ID":361208,"DIS_CODE":0,"TOWNNAME":"佳里區","LI":"東寧里","LIN":"19鄰","STREET":"信義一街","SECT":" ","MAREA":" ","LANE":"４１８巷","ALLEY":" ","HOUSE_NO":"２２號","E_COORD97":166257.25,"N_COORD97":2562413.1800000002,"ADDRESS":"信義一街４１８巷２２號","OBJECTID":361198},"geometry":{"x":166257.25000000093,"y":2562413.1800000016}},{"attributes":{"ID":361209,"DIS_CODE":0,"TOWNNAME":"佳里區","LI":"東寧里","LIN":"19鄰","STREET":"信義一街","SECT":" ","MAREA":" ","LANE":"４１８巷","ALLEY":" ","HOUSE_NO":"２３號","E_COORD97":166263.22,"N_COORD97":2562432.4500000002,"ADDRESS":"信義一街４１８巷２３號","OBJECTID":361199},"geometry":{"x":166263.21999999974,"y":2562432.4499999993}},{"attributes":{"ID":361210,"DIS_CODE":0,"TOWNNAME":"佳里區","LI":"東寧里","LIN":"19鄰","STREET":"信義一街","SECT":" ","MAREA":" ","LANE":"４１８巷","ALLEY":" ","HOUSE_NO":"２５號","E_COORD97":166266.84,"N_COORD97":2562433.0299999998,"ADDRESS":"信義一街４１８巷２５號","OBJECTID":361200},"geometry":{"x":166266.84000000078,"y":2562433.0300000031}}]}