{"displayFieldName":"TOWNNAME","fieldAliases":{"ID":"ID","DIS_CODE":"DIS_CODE","TOWNNAME":"TOWNNAME","LI":"LI","LIN":"LIN","STREET":"STREET","SECT":"SECT","MAREA":"MAREA","LANE":"LANE","ALLEY":"ALLEY","HOUSE_NO":"HOUSE_NO","E_COORD97":"E_COORD97","N_COORD97":"N_COORD97","ADDRESS":"ADDRESS","OBJECTID":"OBJECTID"},"geometryType":"esriGeometryPoint","spatialReference":{"wkid":102443,"latestWkid":3826},"fields":[{"name":"ID","type":"esriFieldTypeDouble","alias":"ID"},{"name":"DIS_CODE","type":"esriFieldTypeInteger","alias":"DIS_CODE"},{"name":"TOWNNAME","type":"esriFieldTypeString","alias":"TOWNNAME","length":8},{"name":"LI","type":"esriFieldTypeString","alias":"LI","length":8},{"name":"LIN","type":"esriFieldTypeString","alias":"LIN","length":12},{"name":"STREET","type":"esriFieldTypeString","alias":"STREET","length":20},{"name":"SECT","type":"esriFieldTypeString","alias":"SECT","length":8},{"name":"MAREA","type":"esriFieldTypeString","alias":"MAREA","length":12},{"name":"LANE","type":"esriFieldTypeString","alias":"LANE","length":10},{"name":"ALLEY","type":"esriFieldTypeString","alias":"ALLEY","length":10},{"name":"HOUSE_NO","type":"esriFieldTypeString","alias":"HOUSE_NO","length":20},{"name":"E_COORD97","type":"esriFieldTypeDouble","alias":"E_COORD97"},{"name":"N_COORD97","type":"esriFieldTypeDouble","alias":"N_COORD97"},{"name":"ADDRESS","type":"esriFieldTypeString","alias":"ADDRESS","length":50},{"name":"OBJECTID","type":"esriFieldTypeOID","alias":"OBJECTID"}],"features":[{"attributes":{"ID":28601,"DIS_CODE":0,"TOWNNAME":"善化區","LI":"溪美里","LIN":"14鄰","STREET":" ","SECT":" ","MAREA":"溪尾","LANE":" ","ALLEY":" ","HOUSE_NO":"１２６號之１","E_COORD97":176880.17999999999,"N_COORD97":2561343.27,"ADDRESS":"溪尾１２６號之１","OBJECTID":28601},"geometry":{"x":176880.1799999997,"y":2561343.2700000033}},{"attributes":{"ID":28602,"DIS_CODE":0,"TOWNNAME":"永康區","LI":"復華里","LIN":"31鄰","STREET":"復華八街","SECT":" ","MAREA":" ","LANE":"５１巷","ALLEY":"６１弄","HOUSE_NO":"１號","E_COORD97":172621.60791699999,"N_COORD97":2546432.5922699999,"ADDRESS":"復華八街５１巷６１弄１號","OBJECTID":28602},"geometry":{"x":172621.60791699961,"y":2546432.5922720022}},{"attributes":{"ID":28603,"DIS_CODE":0,"TOWNNAME":"北區","LI":"仁愛里","LIN":"17鄰","STREET":"東豐路","SECT":" ","MAREA":" ","LANE":"３０５巷","ALLEY":"２５弄","HOUSE_NO":"５號","E_COORD97":170393.44,"N_COORD97":2544856.04,"ADDRESS":"東豐路３０５巷２５弄５號","OBJECTID":28603},"geometry":{"x":170393.44000000041,"y":2544856.0399999991}},{"attributes":{"ID":28604,"DIS_CODE":0,"TOWNNAME":"北區","LI":"仁愛里","LIN":"17鄰","STREET":"東豐路","SECT":" ","MAREA":" ","LANE":"３０５巷","ALLEY":"２５弄","HOUSE_NO":"７號","E_COORD97":170389.38,"N_COORD97":2544858.3300000001,"ADDRESS":"東豐路３０５巷２５弄７號","OBJECTID":28604},"geometry":{"x":170389.38000000082,"y":2544858.3300000001}},{"attributes":{"ID":28605,"DIS_CODE":0,"TOWNNAME":"北區","LI":"仁愛里","LIN":"17鄰","STREET":"東豐路","SECT":" ","MAREA":" ","LANE":"３０５巷","ALLEY":"２５弄","HOUSE_NO":"９號","E_COORD97":170385.06,"N_COORD97":2544859.0099999998,"ADDRESS":"東豐路３０５巷２５弄９號","OBJECTID":28605},"geometry":{"x":170385.05999999959,"y":2544859.0100000016}},{"attributes":{"ID":28606,"DIS_CODE":0,"TOWNNAME":"北區","LI":"文元里","LIN":"17鄰","STREET":"文賢路","SECT":" ","MAREA":" ","LANE":"１０３０巷","ALLEY":"４９弄","HOUSE_NO":"９號","E_COORD97":167543.29000000001,"N_COORD97":2546123.48,"ADDRESS":"文賢路１０３０巷４９弄９號","OBJECTID":28606},"geometry":{"x":167543.29000000004,"y":2546123.4800000042}},{"attributes":{"ID":28607,"DIS_CODE":0,"TOWNNAME":"善化區","LI":"溪美里","LIN":"14鄰","STREET":" ","SECT":" ","MAREA":"溪尾","LANE":" ","ALLEY":" ","HOUSE_NO":"１２３號","E_COORD97":176861.48000000001,"N_COORD97":2561370.27,"ADDRESS":"溪尾１２３號","OBJECTID":28607},"geometry":{"x":176861.48000000138,"y":2561370.2699999977}},{"attributes":{"ID":28608,"DIS_CODE":0,"TOWNNAME":"北區","LI":"文元里","LIN":"17鄰","STREET":"文賢路","SECT":" ","MAREA":" ","LANE":"１０３０巷","ALLEY":"４９弄","HOUSE_NO":"１３號","E_COORD97":167543.92000000001,"N_COORD97":2546131.1000000001,"ADDRESS":"文賢路１０３０巷４９弄１３號","OBJECTID":28608},"geometry":{"x":167543.91999999993,"y":2546131.0999999996}},{"attributes":{"ID":28609,"DIS_CODE":0,"TOWNNAME":"北區","LI":"大和里","LIN":"17鄰","STREET":"文賢路","SECT":" ","MAREA":" ","LANE":"８３３巷","ALLEY":"２２弄","HOUSE_NO":"２０之１號","E_COORD97":167224.07000000001,"N_COORD97":2546437.5899999999,"ADDRESS":"文賢路８３３巷２２弄２０之１號","OBJECTID":28609},"geometry":{"x":167224.0700000003,"y":2546437.5900000036}},{"attributes":{"ID":28610,"DIS_CODE":0,"TOWNNAME":"北區","LI":"成功里","LIN":"17鄰","STREET":"北成路","SECT":" ","MAREA":" ","LANE":"８０巷","ALLEY":"４１弄","HOUSE_NO":"１之１號","E_COORD97":169040.97,"N_COORD97":2546744.0099999998,"ADDRESS":"北成路８０巷４１弄１之１號","OBJECTID":28610},"geometry":{"x":169040.97000000067,"y":2546744.0100000016}},{"attributes":{"ID":28611,"DIS_CODE":0,"TOWNNAME":"北區","LI":"文元里","LIN":"17鄰","STREET":"文賢路","SECT":" ","MAREA":" ","LANE":"１０３０巷","ALLEY":"３５弄","HOUSE_NO":"２號","E_COORD97":167515.73000000001,"N_COORD97":2546104.4300000002,"ADDRESS":"文賢路１０３０巷３５弄２號","OBJECTID":28611},"geometry":{"x":167515.73000000138,"y":2546104.4299999997}},{"attributes":{"ID":28612,"DIS_CODE":0,"TOWNNAME":"北區","LI":"文元里","LIN":"17鄰","STREET":"文賢路","SECT":" ","MAREA":" ","LANE":"１０３０巷","ALLEY":"３５弄","HOUSE_NO":"６號","E_COORD97":167514.67999999999,"N_COORD97":2546115.8300000001,"ADDRESS":"文賢路１０３０巷３５弄６號","OBJECTID":28612},"geometry":{"x":167514.6799999997,"y":2546115.8300000001}},{"attributes":{"ID":28613,"DIS_CODE":0,"TOWNNAME":"北區","LI":"文元里","LIN":"17鄰","STREET":"文賢路","SECT":" ","MAREA":" ","LANE":"１０３０巷","ALLEY":"３５弄","HOUSE_NO":"５號","E_COORD97":167502.89999999999,"N_COORD97":2546121.7000000002,"ADDRESS":"文賢路１０３０巷３５弄５號","OBJECTID":28613},"geometry":{"x":167502.9000000013,"y":2546121.7000000011}},{"attributes":{"ID":28614,"DIS_CODE":0,"TOWNNAME":"玉井區","LI":"層林里","LIN":"8鄰","STREET":" ","SECT":" ","MAREA":"層林","LANE":" ","ALLEY":" ","HOUSE_NO":"８８號","E_COORD97":191524.37,"N_COORD97":2552799.2400000002,"ADDRESS":"層林８８號","OBJECTID":28614},"geometry":{"x":191524.37000000011,"y":2552799.2400000002}},{"attributes":{"ID":28615,"DIS_CODE":0,"TOWNNAME":"永康區","LI":"二王里","LIN":"17鄰","STREET":"忠孝路","SECT":" ","MAREA":" ","LANE":"４１０巷","ALLEY":"５０弄","HOUSE_NO":"１６號二樓","E_COORD97":172586.31,"N_COORD97":2546449.46,"ADDRESS":"忠孝路４１０巷５０弄１６號二樓","OBJECTID":28615},"geometry":{"x":172586.31000000052,"y":2546449.4600000046}},{"attributes":{"ID":28616,"DIS_CODE":0,"TOWNNAME":"玉井區","LI":"豐里里","LIN":"8鄰","STREET":" ","SECT":" ","MAREA":"豐里","LANE":" ","ALLEY":" ","HOUSE_NO":"７４號","E_COORD97":192847.45999999999,"N_COORD97":2559561.25,"ADDRESS":"豐里７４號","OBJECTID":28616},"geometry":{"x":192847.45999999996,"y":2559561.2500000019}},{"attributes":{"ID":28617,"DIS_CODE":0,"TOWNNAME":"永康區","LI":"二王里","LIN":"17鄰","STREET":"忠孝路","SECT":" ","MAREA":" ","LANE":"４１０巷","ALLEY":"５０弄","HOUSE_NO":"１７號四樓","E_COORD97":172601.10999999999,"N_COORD97":2546443.5899999999,"ADDRESS":"忠孝路４１０巷５０弄１７號四樓","OBJECTID":28617},"geometry":{"x":172601.11000000034,"y":2546443.5899999999}},{"attributes":{"ID":28618,"DIS_CODE":0,"TOWNNAME":"新營區","LI":"埤寮里","LIN":"4鄰","STREET":" ","SECT":" ","MAREA":"許丑","LANE":" ","ALLEY":" ","HOUSE_NO":"５１之１號","E_COORD97":179760.19,"N_COORD97":2580997.02,"ADDRESS":"許丑５１之１號","OBJECTID":28618},"geometry":{"x":179760.19000000227,"y":2580997.0200000014}},{"attributes":{"ID":28619,"DIS_CODE":0,"TOWNNAME":"永康區","LI":"二王里","LIN":"17鄰","STREET":"忠孝路","SECT":" ","MAREA":" ","LANE":"４１０巷","ALLEY":"５０弄","HOUSE_NO":"１６號四樓","E_COORD97":172586.31,"N_COORD97":2546449.46,"ADDRESS":"忠孝路４１０巷５０弄１６號四樓","OBJECTID":28619},"geometry":{"x":172586.31000000052,"y":2546449.4600000046}},{"attributes":{"ID":28620,"DIS_CODE":0,"TOWNNAME":"玉井區","LI":"豐里里","LIN":"8鄰","STREET":" ","SECT":" ","MAREA":"豐里","LANE":" ","ALLEY":" ","HOUSE_NO":"７６號","E_COORD97":192733.17000000001,"N_COORD97":2559591.25,"ADDRESS":"豐里７６號","OBJECTID":28620},"geometry":{"x":192733.17000000086,"y":2559591.2500000037}},{"attributes":{"ID":28621,"DIS_CODE":0,"TOWNNAME":"善化區","LI":"溪美里","LIN":"14鄰","STREET":" ","SECT":" ","MAREA":"溪尾","LANE":" ","ALLEY":" ","HOUSE_NO":"１３５號之５","E_COORD97":176968.06,"N_COORD97":2561431.77,"ADDRESS":"溪尾１３５號之５","OBJECTID":28621},"geometry":{"x":176968.06000000145,"y":2561431.7700000033}},{"attributes":{"ID":28622,"DIS_CODE":0,"TOWNNAME":"善化區","LI":"胡家里","LIN":"14鄰","STREET":" ","SECT":" ","MAREA":"胡厝寮","LANE":" ","ALLEY":" ","HOUSE_NO":"１２５之２號","E_COORD97":175460.60000000001,"N_COORD97":2560799.52,"ADDRESS":"胡厝寮１２５之２號","OBJECTID":28622},"geometry":{"x":175460.59999999963,"y":2560799.5200000014}},{"attributes":{"ID":28623,"DIS_CODE":0,"TOWNNAME":"永康區","LI":"二王里","LIN":"17鄰","STREET":"忠孝路","SECT":" ","MAREA":" ","LANE":"４１０巷","ALLEY":"５０弄","HOUSE_NO":"１４號三樓","E_COORD97":172588.37,"N_COORD97":2546461.7799999998,"ADDRESS":"忠孝路４１０巷５０弄１４號三樓","OBJECTID":28623},"geometry":{"x":172588.37000000104,"y":2546461.7799999993}},{"attributes":{"ID":28624,"DIS_CODE":0,"TOWNNAME":"永康區","LI":"二王里","LIN":"17鄰","STREET":"忠孝路","SECT":" ","MAREA":" ","LANE":"４１０巷","ALLEY":"５０弄","HOUSE_NO":"１４號六樓","E_COORD97":172588.37,"N_COORD97":2546461.7799999998,"ADDRESS":"忠孝路４１０巷５０弄１４號六樓","OBJECTID":28624},"geometry":{"x":172588.37000000104,"y":2546461.7799999993}},{"attributes":{"ID":28625,"DIS_CODE":0,"TOWNNAME":"永康區","LI":"二王里","LIN":"17鄰","STREET":"忠孝路","SECT":" ","MAREA":" ","LANE":"４１０巷","ALLEY":"５０弄","HOUSE_NO":"１５號三樓","E_COORD97":172600.76000000001,"N_COORD97":2546449.9700000002,"ADDRESS":"忠孝路４１０巷５０弄１５號三樓","OBJECTID":28625},"geometry":{"x":172600.76000000071,"y":2546449.9700000025}},{"attributes":{"ID":28626,"DIS_CODE":0,"TOWNNAME":"永康區","LI":"二王里","LIN":"17鄰","STREET":"忠孝路","SECT":" ","MAREA":" ","LANE":"４１０巷","ALLEY":"５０弄","HOUSE_NO":"１４號五樓","E_COORD97":172588.37,"N_COORD97":2546461.7799999998,"ADDRESS":"忠孝路４１０巷５０弄１４號五樓","OBJECTID":28626},"geometry":{"x":172588.37000000104,"y":2546461.7799999993}},{"attributes":{"ID":28627,"DIS_CODE":0,"TOWNNAME":"永康區","LI":"二王里","LIN":"17鄰","STREET":"忠孝路","SECT":" ","MAREA":" ","LANE":"４１０巷","ALLEY":"５０弄","HOUSE_NO":"１４號二樓","E_COORD97":172588.37,"N_COORD97":2546461.7799999998,"ADDRESS":"忠孝路４１０巷５０弄１４號二樓","OBJECTID":28627},"geometry":{"x":172588.37000000104,"y":2546461.7799999993}},{"attributes":{"ID":28628,"DIS_CODE":0,"TOWNNAME":"永康區","LI":"二王里","LIN":"17鄰","STREET":"忠孝路","SECT":" ","MAREA":" ","LANE":"４１０巷","ALLEY":"５０弄","HOUSE_NO":"１５號五樓","E_COORD97":172600.76000000001,"N_COORD97":2546449.9700000002,"ADDRESS":"忠孝路４１０巷５０弄１５號五樓","OBJECTID":28628},"geometry":{"x":172600.76000000071,"y":2546449.9700000025}},{"attributes":{"ID":28629,"DIS_CODE":0,"TOWNNAME":"北區","LI":"六甲里","LIN":"13鄰","STREET":"和緯路","SECT":"二段","MAREA":" ","LANE":"７１巷","ALLEY":"１１弄","HOUSE_NO":"２０號","E_COORD97":168956.72,"N_COORD97":2545699.5800000001,"ADDRESS":"和緯路二段７１巷１１弄２０號","OBJECTID":28629},"geometry":{"x":168956.71999999974,"y":2545699.5800000019}},{"attributes":{"ID":28630,"DIS_CODE":0,"TOWNNAME":"北區","LI":"六甲里","LIN":"13鄰","STREET":"和緯路","SECT":"二段","MAREA":" ","LANE":"７１巷","ALLEY":"１１弄","HOUSE_NO":"２７號","E_COORD97":168980.70999999999,"N_COORD97":2545700.7000000002,"ADDRESS":"和緯路二段７１巷１１弄２７號","OBJECTID":28630},"geometry":{"x":168980.70999999996,"y":2545700.7000000011}},{"attributes":{"ID":28631,"DIS_CODE":0,"TOWNNAME":"北區","LI":"六甲里","LIN":"13鄰","STREET":"和緯路","SECT":"二段","MAREA":" ","LANE":"７１巷","ALLEY":"１１弄","HOUSE_NO":"１８號","E_COORD97":168952.85000000001,"N_COORD97":2545700.6099999999,"ADDRESS":"和緯路二段７１巷１１弄１８號","OBJECTID":28631},"geometry":{"x":168952.84999999963,"y":2545700.6099999994}},{"attributes":{"ID":28632,"DIS_CODE":0,"TOWNNAME":"北區","LI":"六甲里","LIN":"13鄰","STREET":"和緯路","SECT":"二段","MAREA":" ","LANE":"７１巷","ALLEY":"１１弄","HOUSE_NO":"２５號","E_COORD97":168976.10000000001,"N_COORD97":2545701.9500000002,"ADDRESS":"和緯路二段７１巷１１弄２５號","OBJECTID":28632},"geometry":{"x":168976.09999999963,"y":2545701.950000003}},{"attributes":{"ID":28633,"DIS_CODE":0,"TOWNNAME":"北區","LI":"六甲里","LIN":"13鄰","STREET":"和緯路","SECT":"二段","MAREA":" ","LANE":"７１巷","ALLEY":"１１弄","HOUSE_NO":"２３號","E_COORD97":168971.70000000001,"N_COORD97":2545703.21,"ADDRESS":"和緯路二段７１巷１１弄２３號","OBJECTID":28633},"geometry":{"x":168971.70000000205,"y":2545703.2100000028}},{"attributes":{"ID":28634,"DIS_CODE":0,"TOWNNAME":"北區","LI":"六甲里","LIN":"13鄰","STREET":"和緯路","SECT":"二段","MAREA":" ","LANE":"７１巷","ALLEY":"１１弄","HOUSE_NO":"２１號","E_COORD97":168967.29999999999,"N_COORD97":2545704.04,"ADDRESS":"和緯路二段７１巷１１弄２１號","OBJECTID":28634},"geometry":{"x":168967.30000000075,"y":2545704.0399999991}},{"attributes":{"ID":28635,"DIS_CODE":0,"TOWNNAME":"北區","LI":"六甲里","LIN":"13鄰","STREET":"和緯路","SECT":"二段","MAREA":" ","LANE":"７１巷","ALLEY":"１１弄","HOUSE_NO":"１９號","E_COORD97":168962.89999999999,"N_COORD97":2545705.0899999999,"ADDRESS":"和緯路二段７１巷１１弄１９號","OBJECTID":28635},"geometry":{"x":168962.90000000037,"y":2545705.0900000036}},{"attributes":{"ID":28636,"DIS_CODE":0,"TOWNNAME":"北區","LI":"六甲里","LIN":"13鄰","STREET":"和緯路","SECT":"二段","MAREA":" ","LANE":"７１巷","ALLEY":"１１弄","HOUSE_NO":"１７號","E_COORD97":168958.5,"N_COORD97":2545706.1400000001,"ADDRESS":"和緯路二段７１巷１１弄１７號","OBJECTID":28636},"geometry":{"x":168958.5,"y":2545706.1400000025}},{"attributes":{"ID":28637,"DIS_CODE":0,"TOWNNAME":"北區","LI":"六甲里","LIN":"13鄰","STREET":"和緯路","SECT":"二段","MAREA":" ","LANE":"７１巷","ALLEY":"１１弄","HOUSE_NO":"４６號","E_COORD97":169006.10000000001,"N_COORD97":2545687.2599999998,"ADDRESS":"和緯路二段７１巷１１弄４６號","OBJECTID":28637},"geometry":{"x":169006.10000000056,"y":2545687.2600000016}},{"attributes":{"ID":28638,"DIS_CODE":0,"TOWNNAME":"北區","LI":"六甲里","LIN":"13鄰","STREET":"和緯路","SECT":"二段","MAREA":" ","LANE":"７１巷","ALLEY":"１１弄","HOUSE_NO":"４７號","E_COORD97":169024.34,"N_COORD97":2545690.2200000002,"ADDRESS":"和緯路二段７１巷１１弄４７號","OBJECTID":28638},"geometry":{"x":169024.33999999985,"y":2545690.2200000007}},{"attributes":{"ID":28639,"DIS_CODE":0,"TOWNNAME":"永康區","LI":"二王里","LIN":"17鄰","STREET":"忠孝路","SECT":" ","MAREA":" ","LANE":"４１０巷","ALLEY":"５０弄","HOUSE_NO":"１７號五樓","E_COORD97":172601.10999999999,"N_COORD97":2546443.5899999999,"ADDRESS":"忠孝路４１０巷５０弄１７號五樓","OBJECTID":28639},"geometry":{"x":172601.11000000034,"y":2546443.5899999999}},{"attributes":{"ID":28640,"DIS_CODE":0,"TOWNNAME":"永康區","LI":"二王里","LIN":"17鄰","STREET":"忠孝路","SECT":" ","MAREA":" ","LANE":"４１０巷","ALLEY":"５０弄","HOUSE_NO":"１６號六樓","E_COORD97":172586.31,"N_COORD97":2546449.46,"ADDRESS":"忠孝路４１０巷５０弄１６號六樓","OBJECTID":28640},"geometry":{"x":172586.31000000052,"y":2546449.4600000046}},{"attributes":{"ID":28641,"DIS_CODE":0,"TOWNNAME":"東區","LI":"東聖里","LIN":"17鄰","STREET":"中華東路","SECT":"二段","MAREA":" ","LANE":"１３３巷","ALLEY":"１７弄","HOUSE_NO":"２３號三樓","E_COORD97":171458.70000000001,"N_COORD97":2542960.25,"ADDRESS":"中華東路二段１３３巷１７弄２３號三樓","OBJECTID":28641},"geometry":{"x":171458.70000000112,"y":2542960.25}},{"attributes":{"ID":28642,"DIS_CODE":0,"TOWNNAME":"東區","LI":"東聖里","LIN":"17鄰","STREET":"中華東路","SECT":"二段","MAREA":" ","LANE":"１３３巷","ALLEY":"１７弄","HOUSE_NO":"２７號二樓","E_COORD97":171475.07999999999,"N_COORD97":2542959.3199999998,"ADDRESS":"中華東路二段１３３巷１７弄２７號二樓","OBJECTID":28642},"geometry":{"x":171475.08000000101,"y":2542959.3200000022}},{"attributes":{"ID":28643,"DIS_CODE":0,"TOWNNAME":"東區","LI":"東聖里","LIN":"17鄰","STREET":"中華東路","SECT":"二段","MAREA":" ","LANE":"１３３巷","ALLEY":"１７弄","HOUSE_NO":"２９號四樓","E_COORD97":171482.32999999999,"N_COORD97":2542958.7599999998,"ADDRESS":"中華東路二段１３３巷１７弄２９號四樓","OBJECTID":28643},"geometry":{"x":171482.33000000007,"y":2542958.7600000016}},{"attributes":{"ID":28644,"DIS_CODE":0,"TOWNNAME":"東區","LI":"東聖里","LIN":"17鄰","STREET":"中華東路","SECT":"二段","MAREA":" ","LANE":"１３３巷","ALLEY":"１７弄","HOUSE_NO":"２９號五樓","E_COORD97":171482.32999999999,"N_COORD97":2542958.7599999998,"ADDRESS":"中華東路二段１３３巷１７弄２９號五樓","OBJECTID":28644},"geometry":{"x":171482.33000000007,"y":2542958.7600000016}},{"attributes":{"ID":28645,"DIS_CODE":0,"TOWNNAME":"東區","LI":"東聖里","LIN":"17鄰","STREET":"中華東路","SECT":"二段","MAREA":" ","LANE":"１３３巷","ALLEY":"１７弄","HOUSE_NO":"３５號二樓","E_COORD97":171509.31,"N_COORD97":2542956.71,"ADDRESS":"中華東路二段１３３巷１７弄３５號二樓","OBJECTID":28645},"geometry":{"x":171509.30999999959,"y":2542956.7100000028}},{"attributes":{"ID":28646,"DIS_CODE":0,"TOWNNAME":"東區","LI":"東聖里","LIN":"17鄰","STREET":"中華東路","SECT":"二段","MAREA":" ","LANE":"１３３巷","ALLEY":"１７弄","HOUSE_NO":"３５號四樓","E_COORD97":171509.31,"N_COORD97":2542956.71,"ADDRESS":"中華東路二段１３３巷１７弄３５號四樓","OBJECTID":28646},"geometry":{"x":171509.30999999959,"y":2542956.7100000028}},{"attributes":{"ID":28647,"DIS_CODE":0,"TOWNNAME":"東區","LI":"東聖里","LIN":"17鄰","STREET":"中華東路","SECT":"二段","MAREA":" ","LANE":"１３３巷","ALLEY":"１７弄","HOUSE_NO":"３９號四樓","E_COORD97":171525.13,"N_COORD97":2542956.8999999999,"ADDRESS":"中華東路二段１３３巷１７弄３９號四樓","OBJECTID":28647},"geometry":{"x":171525.13000000082,"y":2542956.9000000004}},{"attributes":{"ID":28648,"DIS_CODE":0,"TOWNNAME":"六甲區","LI":"菁埔里","LIN":"8鄰","STREET":" ","SECT":" ","MAREA":"菁埔寮","LANE":" ","ALLEY":" ","HOUSE_NO":"３號","E_COORD97":177977.17000000001,"N_COORD97":2570042.2000000002,"ADDRESS":"菁埔寮３號","OBJECTID":28648},"geometry":{"x":177977.17000000086,"y":2570042.1999999993}},{"attributes":{"ID":28649,"DIS_CODE":0,"TOWNNAME":"東區","LI":"東聖里","LIN":"17鄰","STREET":"中華東路","SECT":"二段","MAREA":" ","LANE":"１３３巷","ALLEY":"１７弄","HOUSE_NO":"４１號三樓","E_COORD97":171534.62,"N_COORD97":2542956.71,"ADDRESS":"中華東路二段１３３巷１７弄４１號三樓","OBJECTID":28649},"geometry":{"x":171534.62000000011,"y":2542956.7100000028}},{"attributes":{"ID":28650,"DIS_CODE":0,"TOWNNAME":"東區","LI":"東聖里","LIN":"17鄰","STREET":"中華東路","SECT":"二段","MAREA":" ","LANE":"１３３巷","ALLEY":"１７弄","HOUSE_NO":"２１號二樓","E_COORD97":171449.39999999999,"N_COORD97":2542960.0600000001,"ADDRESS":"中華東路二段１３３巷１７弄２１號二樓","OBJECTID":28650},"geometry":{"x":171449.4000000013,"y":2542960.0600000042}},{"attributes":{"ID":28651,"DIS_CODE":0,"TOWNNAME":"東區","LI":"東聖里","LIN":"17鄰","STREET":"中華東路","SECT":"二段","MAREA":" ","LANE":"１３３巷","ALLEY":"１７弄","HOUSE_NO":"２１號三樓","E_COORD97":171449.39999999999,"N_COORD97":2542960.0600000001,"ADDRESS":"中華東路二段１３３巷１７弄２１號三樓","OBJECTID":28651},"geometry":{"x":171449.4000000013,"y":2542960.0600000042}},{"attributes":{"ID":28652,"DIS_CODE":0,"TOWNNAME":"東區","LI":"東聖里","LIN":"17鄰","STREET":"中華東路","SECT":"二段","MAREA":" ","LANE":"１３３巷","ALLEY":"１７弄","HOUSE_NO":"２１號五樓","E_COORD97":171449.39999999999,"N_COORD97":2542960.0600000001,"ADDRESS":"中華東路二段１３３巷１７弄２１號五樓","OBJECTID":28652},"geometry":{"x":171449.4000000013,"y":2542960.0600000042}},{"attributes":{"ID":28653,"DIS_CODE":0,"TOWNNAME":"東區","LI":"東聖里","LIN":"17鄰","STREET":"中華東路","SECT":"二段","MAREA":" ","LANE":"１３３巷","ALLEY":"１７弄","HOUSE_NO":"２１號四樓","E_COORD97":171449.39999999999,"N_COORD97":2542960.0600000001,"ADDRESS":"中華東路二段１３３巷１７弄２１號四樓","OBJECTID":28653},"geometry":{"x":171449.4000000013,"y":2542960.0600000042}},{"attributes":{"ID":28654,"DIS_CODE":0,"TOWNNAME":"玉井區","LI":"望明里","LIN":"8鄰","STREET":" ","SECT":" ","MAREA":"劉陳","LANE":" ","ALLEY":" ","HOUSE_NO":"１５２號","E_COORD97":193549.85000000001,"N_COORD97":2556269.25,"ADDRESS":"劉陳１５２號","OBJECTID":28654},"geometry":{"x":193549.84999999963,"y":2556269.2500000019}},{"attributes":{"ID":28655,"DIS_CODE":0,"TOWNNAME":"東區","LI":"東聖里","LIN":"17鄰","STREET":"中華東路","SECT":"二段","MAREA":" ","LANE":"１３３巷","ALLEY":"１７弄","HOUSE_NO":"２３號五樓","E_COORD97":171458.70000000001,"N_COORD97":2542960.25,"ADDRESS":"中華東路二段１３３巷１７弄２３號五樓","OBJECTID":28655},"geometry":{"x":171458.70000000112,"y":2542960.25}},{"attributes":{"ID":28656,"DIS_CODE":0,"TOWNNAME":"東區","LI":"東聖里","LIN":"17鄰","STREET":"中華東路","SECT":"二段","MAREA":" ","LANE":"１３３巷","ALLEY":"１７弄","HOUSE_NO":"２３號四樓","E_COORD97":171458.70000000001,"N_COORD97":2542960.25,"ADDRESS":"中華東路二段１３３巷１７弄２３號四樓","OBJECTID":28656},"geometry":{"x":171458.70000000112,"y":2542960.25}},{"attributes":{"ID":28657,"DIS_CODE":0,"TOWNNAME":"東區","LI":"東聖里","LIN":"17鄰","STREET":"中華東路","SECT":"二段","MAREA":" ","LANE":"１３３巷","ALLEY":"１７弄","HOUSE_NO":"２５號二樓","E_COORD97":171465.39999999999,"N_COORD97":2542960.25,"ADDRESS":"中華東路二段１３３巷１７弄２５號二樓","OBJECTID":28657},"geometry":{"x":171465.40000000037,"y":2542960.25}},{"attributes":{"ID":28658,"DIS_CODE":0,"TOWNNAME":"東區","LI":"東聖里","LIN":"17鄰","STREET":"中華東路","SECT":"二段","MAREA":" ","LANE":"１３３巷","ALLEY":"１７弄","HOUSE_NO":"２５號三樓","E_COORD97":171465.39999999999,"N_COORD97":2542960.25,"ADDRESS":"中華東路二段１３３巷１７弄２５號三樓","OBJECTID":28658},"geometry":{"x":171465.40000000037,"y":2542960.25}},{"attributes":{"ID":28659,"DIS_CODE":0,"TOWNNAME":"東區","LI":"東聖里","LIN":"17鄰","STREET":"中華東路","SECT":"二段","MAREA":" ","LANE":"１３３巷","ALLEY":"１７弄","HOUSE_NO":"２５號五樓","E_COORD97":171465.39999999999,"N_COORD97":2542960.25,"ADDRESS":"中華東路二段１３３巷１７弄２５號五樓","OBJECTID":28659},"geometry":{"x":171465.40000000037,"y":2542960.25}},{"attributes":{"ID":28660,"DIS_CODE":0,"TOWNNAME":"東區","LI":"東聖里","LIN":"17鄰","STREET":"中華東路","SECT":"二段","MAREA":" ","LANE":"１３３巷","ALLEY":"１７弄","HOUSE_NO":"２５號四樓","E_COORD97":171465.39999999999,"N_COORD97":2542960.25,"ADDRESS":"中華東路二段１３３巷１７弄２５號四樓","OBJECTID":28660},"geometry":{"x":171465.40000000037,"y":2542960.25}},{"attributes":{"ID":28661,"DIS_CODE":0,"TOWNNAME":"東區","LI":"東聖里","LIN":"17鄰","STREET":"中華東路","SECT":"二段","MAREA":" ","LANE":"１３３巷","ALLEY":"１７弄","HOUSE_NO":"２７號三樓","E_COORD97":171475.07999999999,"N_COORD97":2542959.3199999998,"ADDRESS":"中華東路二段１３３巷１７弄２７號三樓","OBJECTID":28661},"geometry":{"x":171475.08000000101,"y":2542959.3200000022}},{"attributes":{"ID":28662,"DIS_CODE":0,"TOWNNAME":"東區","LI":"東聖里","LIN":"17鄰","STREET":"中華東路","SECT":"二段","MAREA":" ","LANE":"１３３巷","ALLEY":"１７弄","HOUSE_NO":"２７號五樓","E_COORD97":171475.07999999999,"N_COORD97":2542959.3199999998,"ADDRESS":"中華東路二段１３３巷１７弄２７號五樓","OBJECTID":28662},"geometry":{"x":171475.08000000101,"y":2542959.3200000022}},{"attributes":{"ID":28663,"DIS_CODE":0,"TOWNNAME":"永康區","LI":"三合里","LIN":"14鄰","STREET":"南工街","SECT":" ","MAREA":" ","LANE":" ","ALLEY":" ","HOUSE_NO":"２０２號","E_COORD97":172039.14000000001,"N_COORD97":2545918.0099999998,"ADDRESS":"南工街２０２號","OBJECTID":28663},"geometry":{"x":172039.13999999966,"y":2545918.0099999998}},{"attributes":{"ID":28664,"DIS_CODE":0,"TOWNNAME":"永康區","LI":"大灣里","LIN":"14鄰","STREET":"民族路","SECT":" ","MAREA":" ","LANE":" ","ALLEY":" ","HOUSE_NO":"３８１之１號","E_COORD97":174882.35999999999,"N_COORD97":2545299.6899999999,"ADDRESS":"民族路３８１之１號","OBJECTID":28664},"geometry":{"x":174882.36000000127,"y":2545299.6899999995}},{"attributes":{"ID":28665,"DIS_CODE":0,"TOWNNAME":"永康區","LI":"三合里","LIN":"14鄰","STREET":"南工街","SECT":" ","MAREA":" ","LANE":" ","ALLEY":" ","HOUSE_NO":"２０３號","E_COORD97":172021.22,"N_COORD97":2545878.2400000002,"ADDRESS":"南工街２０３號","OBJECTID":28665},"geometry":{"x":172021.22000000067,"y":2545878.2400000021}},{"attributes":{"ID":28666,"DIS_CODE":0,"TOWNNAME":"永康區","LI":"三民里","LIN":"14鄰","STREET":"中正北路","SECT":" ","MAREA":" ","LANE":" ","ALLEY":" ","HOUSE_NO":"９５２號之１","E_COORD97":175657.42000000001,"N_COORD97":2550665.0499999998,"ADDRESS":"中正北路９５２號之１","OBJECTID":28666},"geometry":{"x":175657.42000000179,"y":2550665.0500000007}},{"attributes":{"ID":28667,"DIS_CODE":0,"TOWNNAME":"永康區","LI":"三合里","LIN":"14鄰","STREET":"南工街","SECT":" ","MAREA":" ","LANE":" ","ALLEY":" ","HOUSE_NO":"１８４號","E_COORD97":172035.79000000001,"N_COORD97":2545869.23,"ADDRESS":"南工街１８４號","OBJECTID":28667},"geometry":{"x":172035.7900000019,"y":2545869.2300000004}},{"attributes":{"ID":28668,"DIS_CODE":0,"TOWNNAME":"玉井區","LI":"豐里里","LIN":"8鄰","STREET":" ","SECT":" ","MAREA":"豐里","LANE":" ","ALLEY":" ","HOUSE_NO":"７５之１號","E_COORD97":192814.57000000001,"N_COORD97":2559751.29,"ADDRESS":"豐里７５之１號","OBJECTID":28668},"geometry":{"x":192814.57000000123,"y":2559751.2899999991}},{"attributes":{"ID":28669,"DIS_CODE":0,"TOWNNAME":"玉井區","LI":"豐里里","LIN":"8鄰","STREET":" ","SECT":" ","MAREA":"豐里","LANE":" ","ALLEY":" ","HOUSE_NO":"７４之３號","E_COORD97":192830.17000000001,"N_COORD97":2559055.2999999998,"ADDRESS":"豐里７４之３號","OBJECTID":28669},"geometry":{"x":192830.17000000086,"y":2559055.3000000007}},{"attributes":{"ID":28670,"DIS_CODE":0,"TOWNNAME":"玉井區","LI":"望明里","LIN":"8鄰","STREET":" ","SECT":" ","MAREA":"劉陳","LANE":" ","ALLEY":" ","HOUSE_NO":"１５６號","E_COORD97":193559.35000000001,"N_COORD97":2556285.25,"ADDRESS":"劉陳１５６號","OBJECTID":28670},"geometry":{"x":193559.35000000056,"y":2556285.25}},{"attributes":{"ID":28671,"DIS_CODE":0,"TOWNNAME":"玉井區","LI":"豐里里","LIN":"8鄰","STREET":" ","SECT":" ","MAREA":"豐里","LANE":" ","ALLEY":" ","HOUSE_NO":"８３號","E_COORD97":192687.07000000001,"N_COORD97":2559536.2400000002,"ADDRESS":"豐里８３號","OBJECTID":28671},"geometry":{"x":192687.07000000123,"y":2559536.2400000002}},{"attributes":{"ID":28672,"DIS_CODE":0,"TOWNNAME":"東區","LI":"東聖里","LIN":"17鄰","STREET":"中華東路","SECT":"二段","MAREA":" ","LANE":"１３３巷","ALLEY":"１７弄","HOUSE_NO":"２７號四樓","E_COORD97":171475.07999999999,"N_COORD97":2542959.3199999998,"ADDRESS":"中華東路二段１３３巷１７弄２７號四樓","OBJECTID":28672},"geometry":{"x":171475.08000000101,"y":2542959.3200000022}},{"attributes":{"ID":28673,"DIS_CODE":0,"TOWNNAME":"玉井區","LI":"望明里","LIN":"8鄰","STREET":" ","SECT":" ","MAREA":"望明","LANE":" ","ALLEY":" ","HOUSE_NO":"８９之２７號","E_COORD97":193534.09,"N_COORD97":2556433.29,"ADDRESS":"望明８９之２７號","OBJECTID":28673},"geometry":{"x":193534.09000000078,"y":2556433.2899999972}},{"attributes":{"ID":28674,"DIS_CODE":0,"TOWNNAME":"玉井區","LI":"望明里","LIN":"8鄰","STREET":" ","SECT":" ","MAREA":"望明","LANE":" ","ALLEY":" ","HOUSE_NO":"８９之１８號","E_COORD97":193537.79000000001,"N_COORD97":2556473.2999999998,"ADDRESS":"望明８９之１８號","OBJECTID":28674},"geometry":{"x":193537.79000000097,"y":2556473.3000000026}},{"attributes":{"ID":28675,"DIS_CODE":0,"TOWNNAME":"新營區","LI":"嘉芳里","LIN":"2鄰","STREET":" ","SECT":" ","MAREA":"茄苳腳","LANE":" ","ALLEY":" ","HOUSE_NO":"１８號之１","E_COORD97":177127.19,"N_COORD97":2578385.0699999998,"ADDRESS":"茄苳腳１８之１號","OBJECTID":28675},"geometry":{"x":177127.19000000041,"y":2578385.0700000003}},{"attributes":{"ID":28676,"DIS_CODE":0,"TOWNNAME":"東區","LI":"東聖里","LIN":"17鄰","STREET":"中華東路","SECT":"二段","MAREA":" ","LANE":"１３３巷","ALLEY":"１７弄","HOUSE_NO":"２９號二樓","E_COORD97":171482.32999999999,"N_COORD97":2542958.7599999998,"ADDRESS":"中華東路二段１３３巷１７弄２９號二樓","OBJECTID":28676},"geometry":{"x":171482.33000000007,"y":2542958.7600000016}},{"attributes":{"ID":28677,"DIS_CODE":0,"TOWNNAME":"東區","LI":"崇信里","LIN":"17鄰","STREET":"崇善路","SECT":" ","MAREA":" ","LANE":"２０５巷","ALLEY":"６弄","HOUSE_NO":"１８號","E_COORD97":170571.06,"N_COORD97":2542228.2599999998,"ADDRESS":"崇善路２０５巷６弄１８號","OBJECTID":28677},"geometry":{"x":170571.06000000052,"y":2542228.2599999998}},{"attributes":{"ID":28678,"DIS_CODE":0,"TOWNNAME":"東區","LI":"東聖里","LIN":"17鄰","STREET":"中華東路","SECT":"二段","MAREA":" ","LANE":"１３３巷","ALLEY":"１７弄","HOUSE_NO":"２９號三樓","E_COORD97":171482.32999999999,"N_COORD97":2542958.7599999998,"ADDRESS":"中華東路二段１３３巷１７弄２９號三樓","OBJECTID":28678},"geometry":{"x":171482.33000000007,"y":2542958.7600000016}},{"attributes":{"ID":28679,"DIS_CODE":0,"TOWNNAME":"東區","LI":"東聖里","LIN":"17鄰","STREET":"中華東路","SECT":"二段","MAREA":" ","LANE":"１３３巷","ALLEY":"１７弄","HOUSE_NO":"３１號二樓","E_COORD97":171491.26999999999,"N_COORD97":2542957.0899999999,"ADDRESS":"中華東路二段１３３巷１７弄３１號二樓","OBJECTID":28679},"geometry":{"x":171491.27000000142,"y":2542957.0900000017}},{"attributes":{"ID":28680,"DIS_CODE":0,"TOWNNAME":"玉井區","LI":"豐里里","LIN":"8鄰","STREET":" ","SECT":" ","MAREA":"豐里","LANE":" ","ALLEY":" ","HOUSE_NO":"７４之６號","E_COORD97":192888.45999999999,"N_COORD97":2558987.2999999998,"ADDRESS":"豐里７４之６號","OBJECTID":28680},"geometry":{"x":192888.45999999996,"y":2558987.3000000007}},{"attributes":{"ID":28681,"DIS_CODE":0,"TOWNNAME":"玉井區","LI":"層林里","LIN":"8鄰","STREET":" ","SECT":" ","MAREA":"層林","LANE":" ","ALLEY":" ","HOUSE_NO":"８９號","E_COORD97":191526.87,"N_COORD97":2552783.2400000002,"ADDRESS":"層林８９號","OBJECTID":28681},"geometry":{"x":191526.87000000104,"y":2552783.2400000002}},{"attributes":{"ID":28682,"DIS_CODE":0,"TOWNNAME":"東區","LI":"東聖里","LIN":"17鄰","STREET":"中華東路","SECT":"二段","MAREA":" ","LANE":"１３３巷","ALLEY":"１７弄","HOUSE_NO":"３１號三樓","E_COORD97":171491.26999999999,"N_COORD97":2542957.0899999999,"ADDRESS":"中華東路二段１３３巷１７弄３１號三樓","OBJECTID":28682},"geometry":{"x":171491.27000000142,"y":2542957.0900000017}},{"attributes":{"ID":28683,"DIS_CODE":0,"TOWNNAME":"東區","LI":"東聖里","LIN":"17鄰","STREET":"中華東路","SECT":"二段","MAREA":" ","LANE":"１３３巷","ALLEY":"１７弄","HOUSE_NO":"３１號五樓","E_COORD97":171491.26999999999,"N_COORD97":2542957.0899999999,"ADDRESS":"中華東路二段１３３巷１７弄３１號五樓","OBJECTID":28683},"geometry":{"x":171491.27000000142,"y":2542957.0900000017}},{"attributes":{"ID":28684,"DIS_CODE":0,"TOWNNAME":"東區","LI":"東聖里","LIN":"17鄰","STREET":"中華東路","SECT":"二段","MAREA":" ","LANE":"１３３巷","ALLEY":"１７弄","HOUSE_NO":"３３號二樓","E_COORD97":171500.01000000001,"N_COORD97":2542957.6400000001,"ADDRESS":"中華東路二段１３３巷１７弄３３號二樓","OBJECTID":28684},"geometry":{"x":171500.01000000164,"y":2542957.6400000025}},{"attributes":{"ID":28685,"DIS_CODE":0,"TOWNNAME":"玉井區","LI":"望明里","LIN":"8鄰","STREET":" ","SECT":" ","MAREA":"望明","LANE":" ","ALLEY":" ","HOUSE_NO":"８７之５號","E_COORD97":193856.23000000001,"N_COORD97":2555989.29,"ADDRESS":"望明８７之５號","OBJECTID":28685},"geometry":{"x":193856.23000000045,"y":2555989.2900000028}},{"attributes":{"ID":28686,"DIS_CODE":0,"TOWNNAME":"玉井區","LI":"望明里","LIN":"8鄰","STREET":" ","SECT":" ","MAREA":"望明","LANE":" ","ALLEY":" ","HOUSE_NO":"８９之１９號","E_COORD97":193539.67999999999,"N_COORD97":2556447.29,"ADDRESS":"望明８９之１９號","OBJECTID":28686},"geometry":{"x":193539.68000000156,"y":2556447.2900000028}},{"attributes":{"ID":28687,"DIS_CODE":0,"TOWNNAME":"東區","LI":"東聖里","LIN":"17鄰","STREET":"中華東路","SECT":"二段","MAREA":" ","LANE":"１３３巷","ALLEY":"１７弄","HOUSE_NO":"３３號三樓","E_COORD97":171500.01000000001,"N_COORD97":2542957.6400000001,"ADDRESS":"中華東路二段１３３巷１７弄３３號三樓","OBJECTID":28687},"geometry":{"x":171500.01000000164,"y":2542957.6400000025}},{"attributes":{"ID":28688,"DIS_CODE":0,"TOWNNAME":"玉井區","LI":"望明里","LIN":"8鄰","STREET":" ","SECT":" ","MAREA":"望明","LANE":" ","ALLEY":" ","HOUSE_NO":"８９號之１７","E_COORD97":193541.09,"N_COORD97":2556451.29,"ADDRESS":"望明８９之１７號","OBJECTID":28688},"geometry":{"x":193541.09000000078,"y":2556451.290000001}},{"attributes":{"ID":28689,"DIS_CODE":0,"TOWNNAME":"玉井區","LI":"沙田里","LIN":"8鄰","STREET":" ","SECT":" ","MAREA":"沙田","LANE":" ","ALLEY":" ","HOUSE_NO":"８５號之１","E_COORD97":199568.89000000001,"N_COORD97":2557031.29,"ADDRESS":"沙田８５號之１","OBJECTID":28689},"geometry":{"x":199568.88999999966,"y":2557031.290000001}},{"attributes":{"ID":28690,"DIS_CODE":0,"TOWNNAME":"玉井區","LI":"望明里","LIN":"8鄰","STREET":" ","SECT":" ","MAREA":"公\u25A0","LANE":" ","ALLEY":" ","HOUSE_NO":"３３號","E_COORD97":193905.76000000001,"N_COORD97":2556595.25,"ADDRESS":"公\u25A0３３號","OBJECTID":28690},"geometry":{"x":193905.76000000071,"y":2556595.2500000019}},{"attributes":{"ID":28691,"DIS_CODE":0,"TOWNNAME":"永康區","LI":"北灣里","LIN":"14鄰","STREET":"文賢街","SECT":" ","MAREA":" ","LANE":" ","ALLEY":" ","HOUSE_NO":"３０２號","E_COORD97":175039.51999999999,"N_COORD97":2545837.3799999999,"ADDRESS":"文賢街３０２號","OBJECTID":28691},"geometry":{"x":175039.52000000048,"y":2545837.379999999}},{"attributes":{"ID":28692,"DIS_CODE":0,"TOWNNAME":"玉井區","LI":"望明里","LIN":"8鄰","STREET":" ","SECT":" ","MAREA":"公\u25A0","LANE":" ","ALLEY":" ","HOUSE_NO":"６８號","E_COORD97":194025.17000000001,"N_COORD97":2556635.2400000002,"ADDRESS":"公\u25A0６８號","OBJECTID":28692},"geometry":{"x":194025.17000000086,"y":2556635.2400000039}},{"attributes":{"ID":28693,"DIS_CODE":0,"TOWNNAME":"玉井區","LI":"望明里","LIN":"8鄰","STREET":" ","SECT":" ","MAREA":"劉陳","LANE":" ","ALLEY":" ","HOUSE_NO":"１３８號","E_COORD97":193532.06,"N_COORD97":2556261.25,"ADDRESS":"劉陳１３８號","OBJECTID":28693},"geometry":{"x":193532.06000000052,"y":2556261.25}},{"attributes":{"ID":28694,"DIS_CODE":0,"TOWNNAME":"玉井區","LI":"三和里","LIN":"8鄰","STREET":" ","SECT":" ","MAREA":"三和","LANE":" ","ALLEY":" ","HOUSE_NO":"９９號","E_COORD97":195116.13,"N_COORD97":2555511.2400000002,"ADDRESS":"三和９９號","OBJECTID":28694},"geometry":{"x":195116.12999999989,"y":2555511.2400000002}},{"attributes":{"ID":28695,"DIS_CODE":0,"TOWNNAME":"玉井區","LI":"三和里","LIN":"8鄰","STREET":" ","SECT":" ","MAREA":"三和","LANE":" ","ALLEY":" ","HOUSE_NO":"８８號","E_COORD97":195022.14000000001,"N_COORD97":2555633.25,"ADDRESS":"三和８８號","OBJECTID":28695},"geometry":{"x":195022.1400000006,"y":2555633.25}},{"attributes":{"ID":28696,"DIS_CODE":0,"TOWNNAME":"玉井區","LI":"三和里","LIN":"8鄰","STREET":" ","SECT":" ","MAREA":"三和","LANE":" ","ALLEY":" ","HOUSE_NO":"９９之４號","E_COORD97":195090.73000000001,"N_COORD97":2555523.2999999998,"ADDRESS":"三和９９之４號","OBJECTID":28696},"geometry":{"x":195090.73000000045,"y":2555523.3000000045}},{"attributes":{"ID":28697,"DIS_CODE":0,"TOWNNAME":"玉井區","LI":"三和里","LIN":"8鄰","STREET":" ","SECT":" ","MAREA":"三和","LANE":" ","ALLEY":" ","HOUSE_NO":"９９之１號","E_COORD97":195073.54000000001,"N_COORD97":2555518.29,"ADDRESS":"三和９９之１號","OBJECTID":28697},"geometry":{"x":195073.54000000097,"y":2555518.2900000028}},{"attributes":{"ID":28698,"DIS_CODE":0,"TOWNNAME":"六甲區","LI":"菁埔里","LIN":"8鄰","STREET":" ","SECT":" ","MAREA":"菁埔寮","LANE":" ","ALLEY":" ","HOUSE_NO":"１２５號","E_COORD97":177617.35999999999,"N_COORD97":2570161.6400000001,"ADDRESS":"菁埔寮１２５號","OBJECTID":28698},"geometry":{"x":177617.36000000034,"y":2570161.6400000025}},{"attributes":{"ID":28699,"DIS_CODE":0,"TOWNNAME":"六甲區","LI":"菁埔里","LIN":"8鄰","STREET":" ","SECT":" ","MAREA":"菁埔寮","LANE":" ","ALLEY":" ","HOUSE_NO":"１２９號","E_COORD97":177684.67000000001,"N_COORD97":2570188.96,"ADDRESS":"菁埔寮１２９號","OBJECTID":28699},"geometry":{"x":177684.66999999899,"y":2570188.9600000046}},{"attributes":{"ID":28700,"DIS_CODE":0,"TOWNNAME":"六甲區","LI":"菁埔里","LIN":"8鄰","STREET":" ","SECT":" ","MAREA":"菁埔寮","LANE":" ","ALLEY":" ","HOUSE_NO":"１３１號","E_COORD97":177726.37,"N_COORD97":2570219.6299999999,"ADDRESS":"菁埔寮１３１號","OBJECTID":28700},"geometry":{"x":177726.37000000104,"y":2570219.6300000027}},{"attributes":{"ID":28701,"DIS_CODE":0,"TOWNNAME":"六甲區","LI":"菁埔里","LIN":"8鄰","STREET":" ","SECT":" ","MAREA":"菁埔寮","LANE":" ","ALLEY":" ","HOUSE_NO":"１３４號","E_COORD97":177787.09,"N_COORD97":2570259.79,"ADDRESS":"菁埔寮１３４號","OBJECTID":28701},"geometry":{"x":177787.09000000171,"y":2570259.790000001}},{"attributes":{"ID":28702,"DIS_CODE":0,"TOWNNAME":"六甲區","LI":"菁埔里","LIN":"8鄰","STREET":" ","SECT":" ","MAREA":"菁埔寮","LANE":" ","ALLEY":" ","HOUSE_NO":"１號","E_COORD97":178119.54999999999,"N_COORD97":2569933.0899999999,"ADDRESS":"菁埔寮１號","OBJECTID":28702},"geometry":{"x":178119.55000000168,"y":2569933.0900000017}},{"attributes":{"ID":28703,"DIS_CODE":0,"TOWNNAME":"新市區","LI":"潭頂里","LIN":"14鄰","STREET":" ","SECT":" ","MAREA":"潭頂","LANE":" ","ALLEY":" ","HOUSE_NO":"５４９號","E_COORD97":180119.98000000001,"N_COORD97":2552950.5,"ADDRESS":"潭頂５４９號","OBJECTID":28703},"geometry":{"x":180119.98000000138,"y":2552950.5}},{"attributes":{"ID":28704,"DIS_CODE":0,"TOWNNAME":"東區","LI":"東聖里","LIN":"17鄰","STREET":"中華東路","SECT":"二段","MAREA":" ","LANE":"１３３巷","ALLEY":"１７弄","HOUSE_NO":"３３號五樓","E_COORD97":171500.01000000001,"N_COORD97":2542957.6400000001,"ADDRESS":"中華東路二段１３３巷１７弄３３號五樓","OBJECTID":28704},"geometry":{"x":171500.01000000164,"y":2542957.6400000025}},{"attributes":{"ID":28705,"DIS_CODE":0,"TOWNNAME":"六甲區","LI":"菁埔里","LIN":"8鄰","STREET":" ","SECT":" ","MAREA":"菁埔寮","LANE":" ","ALLEY":" ","HOUSE_NO":"２１號","E_COORD97":177574.87,"N_COORD97":2570102.7200000002,"ADDRESS":"菁埔寮２１號","OBJECTID":28705},"geometry":{"x":177574.87000000011,"y":2570102.7200000025}},{"attributes":{"ID":28706,"DIS_CODE":0,"TOWNNAME":"六甲區","LI":"菁埔里","LIN":"8鄰","STREET":" ","SECT":" ","MAREA":"菁埔寮","LANE":" ","ALLEY":" ","HOUSE_NO":"３０號","E_COORD97":177533.14999999999,"N_COORD97":2570051.5800000001,"ADDRESS":"菁埔寮３０號","OBJECTID":28706},"geometry":{"x":177533.1500000013,"y":2570051.5799999982}},{"attributes":{"ID":28707,"DIS_CODE":0,"TOWNNAME":"新營區","LI":"埤寮里","LIN":"4鄰","STREET":" ","SECT":" ","MAREA":"許丑","LANE":" ","ALLEY":" ","HOUSE_NO":"４５號之７","E_COORD97":179724.32000000001,"N_COORD97":2580967.29,"ADDRESS":"許丑４５號之７","OBJECTID":28707},"geometry":{"x":179724.32000000123,"y":2580967.290000001}},{"attributes":{"ID":28708,"DIS_CODE":0,"TOWNNAME":"六甲區","LI":"菁埔里","LIN":"8鄰","STREET":" ","SECT":" ","MAREA":"菁埔寮","LANE":" ","ALLEY":" ","HOUSE_NO":"３４號","E_COORD97":177537.51000000001,"N_COORD97":2570032.0899999999,"ADDRESS":"菁埔寮３４號","OBJECTID":28708},"geometry":{"x":177537.50999999978,"y":2570032.0900000017}},{"attributes":{"ID":28709,"DIS_CODE":0,"TOWNNAME":"新營區","LI":"埤寮里","LIN":"4鄰","STREET":" ","SECT":" ","MAREA":"許丑","LANE":" ","ALLEY":" ","HOUSE_NO":"４８之２號","E_COORD97":179738.78,"N_COORD97":2580998.23,"ADDRESS":"許丑４８之２號","OBJECTID":28709},"geometry":{"x":179738.78000000026,"y":2580998.2300000004}},{"attributes":{"ID":28710,"DIS_CODE":0,"TOWNNAME":"麻豆區","LI":"安東里","LIN":"8鄰","STREET":" ","SECT":" ","MAREA":"安業","LANE":" ","ALLEY":" ","HOUSE_NO":"１１３號","E_COORD97":172817.82999999999,"N_COORD97":2562231.1400000001,"ADDRESS":"安業１１３號","OBJECTID":28710},"geometry":{"x":172817.83000000007,"y":2562231.1400000025}},{"attributes":{"ID":28711,"DIS_CODE":0,"TOWNNAME":"麻豆區","LI":"安東里","LIN":"8鄰","STREET":" ","SECT":" ","MAREA":"安業","LANE":" ","ALLEY":" ","HOUSE_NO":"１１５號之１","E_COORD97":172898.82000000001,"N_COORD97":2562385.0499999998,"ADDRESS":"安業１１５號之１","OBJECTID":28711},"geometry":{"x":172898.82000000123,"y":2562385.0500000026}},{"attributes":{"ID":28712,"DIS_CODE":0,"TOWNNAME":"麻豆區","LI":"安東里","LIN":"8鄰","STREET":" ","SECT":" ","MAREA":"安業","LANE":" ","ALLEY":" ","HOUSE_NO":"１１７號之１","E_COORD97":172838.72,"N_COORD97":2562406.7400000002,"ADDRESS":"安業１１７號之１","OBJECTID":28712},"geometry":{"x":172838.71999999974,"y":2562406.7400000021}},{"attributes":{"ID":28713,"DIS_CODE":0,"TOWNNAME":"麻豆區","LI":"安東里","LIN":"8鄰","STREET":" ","SECT":" ","MAREA":"安業","LANE":" ","ALLEY":" ","HOUSE_NO":"１１９號","E_COORD97":172903.25,"N_COORD97":2562416.0899999999,"ADDRESS":"安業１１９號","OBJECTID":28713},"geometry":{"x":172903.25,"y":2562416.089999998}},{"attributes":{"ID":28714,"DIS_CODE":0,"TOWNNAME":"東區","LI":"東聖里","LIN":"17鄰","STREET":"中華東路","SECT":"二段","MAREA":" ","LANE":"１３３巷","ALLEY":"１７弄","HOUSE_NO":"３３號四樓","E_COORD97":171500.01000000001,"N_COORD97":2542957.6400000001,"ADDRESS":"中華東路二段１３３巷１７弄３３號四樓","OBJECTID":28714},"geometry":{"x":171500.01000000164,"y":2542957.6400000025}},{"attributes":{"ID":28715,"DIS_CODE":0,"TOWNNAME":"東區","LI":"東聖里","LIN":"17鄰","STREET":"中華東路","SECT":"二段","MAREA":" ","LANE":"１３３巷","ALLEY":"１７弄","HOUSE_NO":"３５號三樓","E_COORD97":171509.31,"N_COORD97":2542956.71,"ADDRESS":"中華東路二段１３３巷１７弄３５號三樓","OBJECTID":28715},"geometry":{"x":171509.30999999959,"y":2542956.7100000028}},{"attributes":{"ID":28716,"DIS_CODE":0,"TOWNNAME":"東區","LI":"東聖里","LIN":"17鄰","STREET":"中華東路","SECT":"二段","MAREA":" ","LANE":"１３３巷","ALLEY":"１７弄","HOUSE_NO":"３５號五樓","E_COORD97":171509.31,"N_COORD97":2542956.71,"ADDRESS":"中華東路二段１３３巷１７弄３５號五樓","OBJECTID":28716},"geometry":{"x":171509.30999999959,"y":2542956.7100000028}},{"attributes":{"ID":28717,"DIS_CODE":0,"TOWNNAME":"東區","LI":"東聖里","LIN":"17鄰","STREET":"中華東路","SECT":"二段","MAREA":" ","LANE":"１３３巷","ALLEY":"１７弄","HOUSE_NO":"３７號二樓","E_COORD97":171516.76000000001,"N_COORD97":2542956.3399999999,"ADDRESS":"中華東路二段１３３巷１７弄３７號二樓","OBJECTID":28717},"geometry":{"x":171516.75999999978,"y":2542956.3399999999}},{"attributes":{"ID":28718,"DIS_CODE":0,"TOWNNAME":"新營區","LI":"民生里","LIN":" ","STREET":"民生路","SECT":" ","MAREA":" ","LANE":" ","ALLEY":" ","HOUSE_NO":"１０３之８號","E_COORD97":179150.23999999999,"N_COORD97":2578513.6899999999,"ADDRESS":"民生路１０３之８號","OBJECTID":28718},"geometry":{"x":179150.24000000022,"y":2578513.6900000013}},{"attributes":{"ID":28719,"DIS_CODE":0,"TOWNNAME":"東區","LI":"東聖里","LIN":"17鄰","STREET":"中華東路","SECT":"二段","MAREA":" ","LANE":"１３３巷","ALLEY":"１７弄","HOUSE_NO":"３７號三樓","E_COORD97":171516.76000000001,"N_COORD97":2542956.3399999999,"ADDRESS":"中華東路二段１３３巷１７弄３７號三樓","OBJECTID":28719},"geometry":{"x":171516.75999999978,"y":2542956.3399999999}},{"attributes":{"ID":28720,"DIS_CODE":0,"TOWNNAME":"東區","LI":"東聖里","LIN":"17鄰","STREET":"中華東路","SECT":"二段","MAREA":" ","LANE":"１３３巷","ALLEY":"１７弄","HOUSE_NO":"３７號四樓","E_COORD97":171516.76000000001,"N_COORD97":2542956.3399999999,"ADDRESS":"中華東路二段１３３巷１７弄３７號四樓","OBJECTID":28720},"geometry":{"x":171516.75999999978,"y":2542956.3399999999}},{"attributes":{"ID":28721,"DIS_CODE":0,"TOWNNAME":"東區","LI":"東聖里","LIN":"17鄰","STREET":"中華東路","SECT":"二段","MAREA":" ","LANE":"１３３巷","ALLEY":"１７弄","HOUSE_NO":"３９號三樓","E_COORD97":171525.13,"N_COORD97":2542956.8999999999,"ADDRESS":"中華東路二段１３３巷１７弄３９號三樓","OBJECTID":28721},"geometry":{"x":171525.13000000082,"y":2542956.9000000004}},{"attributes":{"ID":28722,"DIS_CODE":0,"TOWNNAME":"東區","LI":"東聖里","LIN":"17鄰","STREET":"中華東路","SECT":"二段","MAREA":" ","LANE":"１３３巷","ALLEY":"１７弄","HOUSE_NO":"３９號五樓","E_COORD97":171525.13,"N_COORD97":2542956.8999999999,"ADDRESS":"中華東路二段１３３巷１７弄３９號五樓","OBJECTID":28722},"geometry":{"x":171525.13000000082,"y":2542956.9000000004}},{"attributes":{"ID":28723,"DIS_CODE":0,"TOWNNAME":"東區","LI":"東聖里","LIN":"17鄰","STREET":"中華東路","SECT":"二段","MAREA":" ","LANE":"１３３巷","ALLEY":"１７弄","HOUSE_NO":"４１號二樓","E_COORD97":171534.62,"N_COORD97":2542956.71,"ADDRESS":"中華東路二段１３３巷１７弄４１號二樓","OBJECTID":28723},"geometry":{"x":171534.62000000011,"y":2542956.7100000028}},{"attributes":{"ID":28724,"DIS_CODE":0,"TOWNNAME":"永康區","LI":"三民里","LIN":"14鄰","STREET":"中正北路","SECT":" ","MAREA":" ","LANE":" ","ALLEY":" ","HOUSE_NO":"９６２號之１","E_COORD97":175713.92999999999,"N_COORD97":2550716.04,"ADDRESS":"中正北路９６２號之１","OBJECTID":28724},"geometry":{"x":175713.9299999997,"y":2550716.040000001}},{"attributes":{"ID":28725,"DIS_CODE":0,"TOWNNAME":"永康區","LI":"三民里","LIN":"14鄰","STREET":"和平東路","SECT":" ","MAREA":" ","LANE":" ","ALLEY":" ","HOUSE_NO":"１２８號","E_COORD97":174810.95999999999,"N_COORD97":2550638.0299999998,"ADDRESS":"和平東路１２８號","OBJECTID":28725},"geometry":{"x":174810.95999999996,"y":2550638.0300000031}},{"attributes":{"ID":28726,"DIS_CODE":0,"TOWNNAME":"永康區","LI":"復華里","LIN":"14鄰","STREET":"復華六街","SECT":" ","MAREA":" ","LANE":" ","ALLEY":" ","HOUSE_NO":"１８號","E_COORD97":172896.06,"N_COORD97":2545848.8599999999,"ADDRESS":"復華六街１８號","OBJECTID":28726},"geometry":{"x":172896.05999999959,"y":2545848.8600000031}},{"attributes":{"ID":28727,"DIS_CODE":0,"TOWNNAME":"永康區","LI":"三民里","LIN":"14鄰","STREET":"中正北路","SECT":" ","MAREA":" ","LANE":" ","ALLEY":" ","HOUSE_NO":"９４８號","E_COORD97":175568.22,"N_COORD97":2550588,"ADDRESS":"中正北路９４８號","OBJECTID":28727},"geometry":{"x":175568.21999999974,"y":2550588.0000000037}},{"attributes":{"ID":28728,"DIS_CODE":0,"TOWNNAME":"永康區","LI":"大灣里","LIN":"14鄰","STREET":"大民街","SECT":" ","MAREA":" ","LANE":" ","ALLEY":" ","HOUSE_NO":"３７號","E_COORD97":174804.67999999999,"N_COORD97":2545320.9700000002,"ADDRESS":"大民街３７號","OBJECTID":28728},"geometry":{"x":174804.68000000063,"y":2545320.9700000025}},{"attributes":{"ID":28729,"DIS_CODE":0,"TOWNNAME":"永康區","LI":"三民里","LIN":"14鄰","STREET":"中正北路","SECT":" ","MAREA":" ","LANE":" ","ALLEY":" ","HOUSE_NO":"９９５號","E_COORD97":175315.07999999999,"N_COORD97":2550416.7400000002,"ADDRESS":"中正北路９９５號","OBJECTID":28729},"geometry":{"x":175315.08000000007,"y":2550416.7400000002}},{"attributes":{"ID":28730,"DIS_CODE":0,"TOWNNAME":"永康區","LI":"三民里","LIN":"14鄰","STREET":"和平東路","SECT":" ","MAREA":" ","LANE":" ","ALLEY":" ","HOUSE_NO":"５０號","E_COORD97":175029.39999999999,"N_COORD97":2550747.7400000002,"ADDRESS":"和平東路５０號","OBJECTID":28730},"geometry":{"x":175029.4000000013,"y":2550747.7400000002}},{"attributes":{"ID":28731,"DIS_CODE":0,"TOWNNAME":"新營區","LI":"三仙里","LIN":" ","STREET":"民權路","SECT":" ","MAREA":" ","LANE":" ","ALLEY":" ","HOUSE_NO":"３之４號","E_COORD97":179754.04000000001,"N_COORD97":2578008.0299999998,"ADDRESS":"民權路３之４號","OBJECTID":28731},"geometry":{"x":179754.0400000019,"y":2578008.0299999993}},{"attributes":{"ID":28732,"DIS_CODE":0,"TOWNNAME":"新營區","LI":"民榮里","LIN":" ","STREET":"裕民路","SECT":" ","MAREA":" ","LANE":" ","ALLEY":" ","HOUSE_NO":"１１之１號","E_COORD97":179155.03,"N_COORD97":2577851.4100000001,"ADDRESS":"裕民路１１之１號","OBJECTID":28732},"geometry":{"x":179155.03000000026,"y":2577851.410000002}},{"attributes":{"ID":28733,"DIS_CODE":0,"TOWNNAME":"新營區","LI":"興業里","LIN":" ","STREET":"中山路","SECT":" ","MAREA":" ","LANE":" ","ALLEY":" ","HOUSE_NO":"９１之３５號","E_COORD97":180447.82000000001,"N_COORD97":2578209.6499999999,"ADDRESS":"中山路９１之３５號","OBJECTID":28733},"geometry":{"x":180447.82000000123,"y":2578209.6500000022}},{"attributes":{"ID":28734,"DIS_CODE":0,"TOWNNAME":"新營區","LI":"三仙里","LIN":"20鄰","STREET":"三民路","SECT":" ","MAREA":" ","LANE":" ","ALLEY":" ","HOUSE_NO":"１４０號之４２","E_COORD97":179526.48999999999,"N_COORD97":2578477.5800000001,"ADDRESS":"三民路１４０號之４２","OBJECTID":28734},"geometry":{"x":179526.49000000022,"y":2578477.5800000019}},{"attributes":{"ID":28735,"DIS_CODE":0,"TOWNNAME":"東區","LI":"東聖里","LIN":"17鄰","STREET":"中華東路","SECT":"二段","MAREA":" ","LANE":"１３３巷","ALLEY":"１７弄","HOUSE_NO":"４１號五樓","E_COORD97":171534.62,"N_COORD97":2542956.71,"ADDRESS":"中華東路二段１３３巷１７弄４１號五樓","OBJECTID":28735},"geometry":{"x":171534.62000000011,"y":2542956.7100000028}},{"attributes":{"ID":28736,"DIS_CODE":0,"TOWNNAME":"東區","LI":"東聖里","LIN":"17鄰","STREET":"中華東路","SECT":"二段","MAREA":" ","LANE":"１３３巷","ALLEY":"１７弄","HOUSE_NO":"４１號四樓","E_COORD97":171534.62,"N_COORD97":2542956.71,"ADDRESS":"中華東路二段１３３巷１７弄４１號四樓","OBJECTID":28736},"geometry":{"x":171534.62000000011,"y":2542956.7100000028}},{"attributes":{"ID":28737,"DIS_CODE":0,"TOWNNAME":"東區","LI":"東聖里","LIN":"17鄰","STREET":"中華東路","SECT":"二段","MAREA":" ","LANE":"１３３巷","ALLEY":"１７弄","HOUSE_NO":"４３號二樓","E_COORD97":171541.87,"N_COORD97":2542956.5299999998,"ADDRESS":"中華東路二段１３３巷１７弄４３號二樓","OBJECTID":28737},"geometry":{"x":171541.86999999918,"y":2542956.5300000012}},{"attributes":{"ID":28738,"DIS_CODE":0,"TOWNNAME":"永康區","LI":"二王里","LIN":"17鄰","STREET":"忠孝路","SECT":" ","MAREA":" ","LANE":"４１０巷","ALLEY":"５０弄","HOUSE_NO":"１８號三樓","E_COORD97":172587.48000000001,"N_COORD97":2546442.7599999998,"ADDRESS":"忠孝路４１０巷５０弄１８號三樓","OBJECTID":28738},"geometry":{"x":172587.48000000231,"y":2546442.7599999979}},{"attributes":{"ID":28739,"DIS_CODE":0,"TOWNNAME":"永康區","LI":"二王里","LIN":"17鄰","STREET":"忠孝路","SECT":" ","MAREA":" ","LANE":"４１０巷","ALLEY":"５０弄","HOUSE_NO":"１５號四樓","E_COORD97":172600.76000000001,"N_COORD97":2546449.9700000002,"ADDRESS":"忠孝路４１０巷５０弄１５號四樓","OBJECTID":28739},"geometry":{"x":172600.76000000071,"y":2546449.9700000025}},{"attributes":{"ID":28740,"DIS_CODE":0,"TOWNNAME":"永康區","LI":"二王里","LIN":"17鄰","STREET":"忠孝路","SECT":" ","MAREA":" ","LANE":"４１０巷","ALLEY":"５０弄","HOUSE_NO":"１８號二樓","E_COORD97":172587.48000000001,"N_COORD97":2546442.7599999998,"ADDRESS":"忠孝路４１０巷５０弄１８號二樓","OBJECTID":28740},"geometry":{"x":172587.48000000231,"y":2546442.7599999979}},{"attributes":{"ID":28741,"DIS_CODE":0,"TOWNNAME":"永康區","LI":"二王里","LIN":"17鄰","STREET":"忠孝路","SECT":" ","MAREA":" ","LANE":"４１０巷","ALLEY":"５０弄","HOUSE_NO":"１８號五樓","E_COORD97":172587.48000000001,"N_COORD97":2546442.7599999998,"ADDRESS":"忠孝路４１０巷５０弄１８號五樓","OBJECTID":28741},"geometry":{"x":172587.48000000231,"y":2546442.7599999979}},{"attributes":{"ID":28742,"DIS_CODE":0,"TOWNNAME":"永康區","LI":"神洲里","LIN":"17鄰","STREET":"忠孝路","SECT":" ","MAREA":" ","LANE":"７６巷","ALLEY":"４７弄","HOUSE_NO":"１７號二樓","E_COORD97":172171.06,"N_COORD97":2544937.1899999999,"ADDRESS":"忠孝路７６巷４７弄１７號二樓","OBJECTID":28742},"geometry":{"x":172171.06000000052,"y":2544937.1899999995}},{"attributes":{"ID":28743,"DIS_CODE":0,"TOWNNAME":"永康區","LI":"神洲里","LIN":"17鄰","STREET":"忠孝路","SECT":" ","MAREA":" ","LANE":"７６巷","ALLEY":"４７弄","HOUSE_NO":"１５號五樓","E_COORD97":172183.14999999999,"N_COORD97":2544937.8199999998,"ADDRESS":"忠孝路７６巷４７弄１５號五樓","OBJECTID":28743},"geometry":{"x":172183.1500000013,"y":2544937.820000004}},{"attributes":{"ID":28744,"DIS_CODE":0,"TOWNNAME":"新營區","LI":"中營里","LIN":"14鄰","STREET":"東山五路","SECT":" ","MAREA":" ","LANE":" ","ALLEY":" ","HOUSE_NO":"１５８號","E_COORD97":181888.29000000001,"N_COORD97":2579295.9300000002,"ADDRESS":"東山五路１５８號","OBJECTID":28744},"geometry":{"x":181888.2900000019,"y":2579295.9300000016}},{"attributes":{"ID":28745,"DIS_CODE":0,"TOWNNAME":"新營區","LI":"民生里","LIN":"4鄰","STREET":"三興街","SECT":" ","MAREA":" ","LANE":" ","ALLEY":" ","HOUSE_NO":"１７號","E_COORD97":179458.35000000001,"N_COORD97":2578274.0600000001,"ADDRESS":"三興街１７號","OBJECTID":28745},"geometry":{"x":179458.35000000056,"y":2578274.0600000042}},{"attributes":{"ID":28746,"DIS_CODE":0,"TOWNNAME":"新營區","LI":"民榮里","LIN":" ","STREET":"裕民路","SECT":" ","MAREA":" ","LANE":" ","ALLEY":" ","HOUSE_NO":"１７之７號","E_COORD97":179188.57999999999,"N_COORD97":2577809.1699999999,"ADDRESS":"裕民路１７之７號","OBJECTID":28746},"geometry":{"x":179188.58000000007,"y":2577809.1700000018}},{"attributes":{"ID":28747,"DIS_CODE":0,"TOWNNAME":"新營區","LI":"民榮里","LIN":" ","STREET":"南昌街","SECT":" ","MAREA":" ","LANE":" ","ALLEY":" ","HOUSE_NO":"６０之１號","E_COORD97":179246.26000000001,"N_COORD97":2577673.7799999998,"ADDRESS":"南昌街６０之１號","OBJECTID":28747},"geometry":{"x":179246.25999999978,"y":2577673.7799999993}},{"attributes":{"ID":28748,"DIS_CODE":0,"TOWNNAME":"新營區","LI":"民榮里","LIN":" ","STREET":"裕民路","SECT":" ","MAREA":" ","LANE":" ","ALLEY":" ","HOUSE_NO":"１３之９號","E_COORD97":179155.82000000001,"N_COORD97":2577802.6800000002,"ADDRESS":"裕民路１３之９號","OBJECTID":28748},"geometry":{"x":179155.82000000123,"y":2577802.6800000016}},{"attributes":{"ID":28749,"DIS_CODE":0,"TOWNNAME":"麻豆區","LI":"安東里","LIN":"8鄰","STREET":" ","SECT":" ","MAREA":"安業","LANE":" ","ALLEY":" ","HOUSE_NO":"１２０號之１","E_COORD97":172912.16,"N_COORD97":2562444.9300000002,"ADDRESS":"安業１２０號之１","OBJECTID":28749},"geometry":{"x":172912.16000000108,"y":2562444.9300000016}},{"attributes":{"ID":28750,"DIS_CODE":0,"TOWNNAME":"麻豆區","LI":"安東里","LIN":"8鄰","STREET":" ","SECT":" ","MAREA":"安業","LANE":" ","ALLEY":" ","HOUSE_NO":"１２０號","E_COORD97":172911.23999999999,"N_COORD97":2562430.5800000001,"ADDRESS":"安業１２０號","OBJECTID":28750},"geometry":{"x":172911.24000000115,"y":2562430.5800000019}},{"attributes":{"ID":28751,"DIS_CODE":0,"TOWNNAME":"東區","LI":"東聖里","LIN":"17鄰","STREET":"中華東路","SECT":"二段","MAREA":" ","LANE":"１３３巷","ALLEY":"１７弄","HOUSE_NO":"３１號四樓","E_COORD97":171491.26999999999,"N_COORD97":2542957.0899999999,"ADDRESS":"中華東路二段１３３巷１７弄３１號四樓","OBJECTID":28751},"geometry":{"x":171491.27000000142,"y":2542957.0900000017}},{"attributes":{"ID":28752,"DIS_CODE":0,"TOWNNAME":"東區","LI":"崇誨里","LIN":"17鄰","STREET":"林森路","SECT":"二段","MAREA":" ","LANE":"１９２巷","ALLEY":"３６弄","HOUSE_NO":"３號七樓","E_COORD97":170630.64999999999,"N_COORD97":2543317.3100000001,"ADDRESS":"林森路二段１９２巷３６弄３號七樓","OBJECTID":28752},"geometry":{"x":170630.6500000013,"y":2543317.3099999987}},{"attributes":{"ID":28753,"DIS_CODE":0,"TOWNNAME":"東區","LI":"崇誨里","LIN":"17鄰","STREET":"林森路","SECT":"二段","MAREA":" ","LANE":"１９２巷","ALLEY":"３６弄","HOUSE_NO":"５號四樓","E_COORD97":170632.47,"N_COORD97":2543311.5299999998,"ADDRESS":"林森路二段１９２巷３６弄５號四樓","OBJECTID":28753},"geometry":{"x":170632.47000000067,"y":2543311.5300000031}},{"attributes":{"ID":28754,"DIS_CODE":0,"TOWNNAME":"東區","LI":"崇誨里","LIN":"17鄰","STREET":"林森路","SECT":"二段","MAREA":" ","LANE":"１９２巷","ALLEY":"３６弄","HOUSE_NO":"５號六樓","E_COORD97":170632.47,"N_COORD97":2543311.5299999998,"ADDRESS":"林森路二段１９２巷３６弄５號六樓","OBJECTID":28754},"geometry":{"x":170632.47000000067,"y":2543311.5300000031}},{"attributes":{"ID":28755,"DIS_CODE":0,"TOWNNAME":"東區","LI":"崇誨里","LIN":"17鄰","STREET":"林森路","SECT":"二段","MAREA":" ","LANE":"１９２巷","ALLEY":"３６弄","HOUSE_NO":"７號三樓","E_COORD97":170634.28,"N_COORD97":2543304.0800000001,"ADDRESS":"林森路二段１９２巷３６弄７號三樓","OBJECTID":28755},"geometry":{"x":170634.28000000119,"y":2543304.0800000001}},{"attributes":{"ID":28756,"DIS_CODE":0,"TOWNNAME":"東區","LI":"富強里","LIN":"28鄰","STREET":"東門路","SECT":"二段","MAREA":" ","LANE":"３６５巷","ALLEY":"３４弄","HOUSE_NO":"９號四樓","E_COORD97":170903.78,"N_COORD97":2542690.8300000001,"ADDRESS":"東門路二段３６５巷３４弄９號四樓","OBJECTID":28756},"geometry":{"x":170903.78000000119,"y":2542690.8300000019}},{"attributes":{"ID":28757,"DIS_CODE":0,"TOWNNAME":"安南區","LI":"幸福里","LIN":"14鄰","STREET":"府安路","SECT":"六段","MAREA":" ","LANE":" ","ALLEY":" ","HOUSE_NO":"４７號","E_COORD97":166958.54000000001,"N_COORD97":2546642.9399999999,"ADDRESS":"府安路六段４７號","OBJECTID":28757},"geometry":{"x":166958.53999999911,"y":2546642.9400000013}},{"attributes":{"ID":28758,"DIS_CODE":0,"TOWNNAME":"安南區","LI":"幸福里","LIN":"14鄰","STREET":"府安路","SECT":"六段","MAREA":" ","LANE":" ","ALLEY":" ","HOUSE_NO":"４９號","E_COORD97":166944.01999999999,"N_COORD97":2546636.6499999999,"ADDRESS":"府安路六段４９號","OBJECTID":28758},"geometry":{"x":166944.01999999955,"y":2546636.6500000004}},{"attributes":{"ID":28759,"DIS_CODE":0,"TOWNNAME":"東區","LI":"崇誨里","LIN":"17鄰","STREET":"林森路","SECT":"二段","MAREA":" ","LANE":"１９２巷","ALLEY":"３６弄","HOUSE_NO":"７號四樓之１","E_COORD97":170634.28,"N_COORD97":2543304.0800000001,"ADDRESS":"林森路二段１９２巷３６弄７號四樓之１","OBJECTID":28759},"geometry":{"x":170634.28000000119,"y":2543304.0800000001}},{"attributes":{"ID":28760,"DIS_CODE":0,"TOWNNAME":"麻豆區","LI":"安業里","LIN":"8鄰","STREET":" ","SECT":" ","MAREA":"安業","LANE":" ","ALLEY":" ","HOUSE_NO":"１５２號之１","E_COORD97":172497.66,"N_COORD97":2562193.4100000001,"ADDRESS":"安業１５２號之１","OBJECTID":28760},"geometry":{"x":172497.66000000015,"y":2562193.4100000001}},{"attributes":{"ID":28761,"DIS_CODE":0,"TOWNNAME":"麻豆區","LI":"安業里","LIN":"8鄰","STREET":" ","SECT":" ","MAREA":"安業","LANE":" ","ALLEY":" ","HOUSE_NO":"１５２號","E_COORD97":172530.37,"N_COORD97":2562188.6200000001,"ADDRESS":"安業１５２號","OBJECTID":28761},"geometry":{"x":172530.37000000197,"y":2562188.620000001}},{"attributes":{"ID":28762,"DIS_CODE":0,"TOWNNAME":"麻豆區","LI":"安業里","LIN":"8鄰","STREET":" ","SECT":" ","MAREA":"安業","LANE":" ","ALLEY":" ","HOUSE_NO":"１５４號","E_COORD97":172517.95000000001,"N_COORD97":2562162.0299999998,"ADDRESS":"安業１５４號","OBJECTID":28762},"geometry":{"x":172517.95000000205,"y":2562162.0300000031}},{"attributes":{"ID":28763,"DIS_CODE":0,"TOWNNAME":"東區","LI":"崇誨里","LIN":"17鄰","STREET":"林森路","SECT":"二段","MAREA":" ","LANE":"１９２巷","ALLEY":"３６弄","HOUSE_NO":"７號四樓之３","E_COORD97":170634.28,"N_COORD97":2543304.0800000001,"ADDRESS":"林森路二段１９２巷３６弄７號四樓之３","OBJECTID":28763},"geometry":{"x":170634.28000000119,"y":2543304.0800000001}},{"attributes":{"ID":28764,"DIS_CODE":0,"TOWNNAME":"東區","LI":"崇誨里","LIN":"17鄰","STREET":"林森路","SECT":"二段","MAREA":" ","LANE":"１９２巷","ALLEY":"３６弄","HOUSE_NO":"７號四樓之４","E_COORD97":170634.28,"N_COORD97":2543304.0800000001,"ADDRESS":"林森路二段１９２巷３６弄７號四樓之４","OBJECTID":28764},"geometry":{"x":170634.28000000119,"y":2543304.0800000001}},{"attributes":{"ID":28765,"DIS_CODE":0,"TOWNNAME":"東區","LI":"崇誨里","LIN":"17鄰","STREET":"林森路","SECT":"二段","MAREA":" ","LANE":"１９２巷","ALLEY":"３６弄","HOUSE_NO":"７號五樓","E_COORD97":170634.28,"N_COORD97":2543304.0800000001,"ADDRESS":"林森路二段１９２巷３６弄７號五樓","OBJECTID":28765},"geometry":{"x":170634.28000000119,"y":2543304.0800000001}},{"attributes":{"ID":28766,"DIS_CODE":0,"TOWNNAME":"東區","LI":"崇誨里","LIN":"17鄰","STREET":"林森路","SECT":"二段","MAREA":" ","LANE":"１９２巷","ALLEY":"３６弄","HOUSE_NO":"７號五樓之２","E_COORD97":170634.28,"N_COORD97":2543304.0800000001,"ADDRESS":"林森路二段１９２巷３６弄７號五樓之２","OBJECTID":28766},"geometry":{"x":170634.28000000119,"y":2543304.0800000001}},{"attributes":{"ID":28767,"DIS_CODE":0,"TOWNNAME":"東區","LI":"崇誨里","LIN":"17鄰","STREET":"林森路","SECT":"二段","MAREA":" ","LANE":"１９２巷","ALLEY":"３６弄","HOUSE_NO":"７號五樓之３","E_COORD97":170634.28,"N_COORD97":2543304.0800000001,"ADDRESS":"林森路二段１９２巷３６弄７號五樓之３","OBJECTID":28767},"geometry":{"x":170634.28000000119,"y":2543304.0800000001}},{"attributes":{"ID":28768,"DIS_CODE":0,"TOWNNAME":"東區","LI":"崇誨里","LIN":"17鄰","STREET":"林森路","SECT":"二段","MAREA":" ","LANE":"１９２巷","ALLEY":"３６弄","HOUSE_NO":"７號六樓","E_COORD97":170634.28,"N_COORD97":2543304.0800000001,"ADDRESS":"林森路二段１９２巷３６弄７號六樓","OBJECTID":28768},"geometry":{"x":170634.28000000119,"y":2543304.0800000001}},{"attributes":{"ID":28769,"DIS_CODE":0,"TOWNNAME":"安南區","LI":"海南里","LIN":"14鄰","STREET":"府安路","SECT":"七段","MAREA":" ","LANE":" ","ALLEY":" ","HOUSE_NO":"５８號","E_COORD97":165954.72,"N_COORD97":2545908.8399999999,"ADDRESS":"府安路七段５８號","OBJECTID":28769},"geometry":{"x":165954.71999999974,"y":2545908.8399999999}},{"attributes":{"ID":28770,"DIS_CODE":0,"TOWNNAME":"東區","LI":"崇德里","LIN":"14鄰","STREET":"崇明路","SECT":" ","MAREA":" ","LANE":" ","ALLEY":" ","HOUSE_NO":"３８９號","E_COORD97":170392,"N_COORD97":2541629.1400000001,"ADDRESS":"崇明路３８９號","OBJECTID":28770},"geometry":{"x":170392.00000000093,"y":2541629.1400000006}},{"attributes":{"ID":28771,"DIS_CODE":0,"TOWNNAME":"麻豆區","LI":"安業里","LIN":"8鄰","STREET":" ","SECT":" ","MAREA":"安業","LANE":" ","ALLEY":" ","HOUSE_NO":"１５８號之１","E_COORD97":172557.53,"N_COORD97":2562132.8100000001,"ADDRESS":"安業１５８號之１","OBJECTID":28771},"geometry":{"x":172557.53000000026,"y":2562132.8100000005}},{"attributes":{"ID":28772,"DIS_CODE":0,"TOWNNAME":"麻豆區","LI":"安業里","LIN":"8鄰","STREET":" ","SECT":" ","MAREA":"安業","LANE":" ","ALLEY":" ","HOUSE_NO":"１５９號","E_COORD97":172547.57000000001,"N_COORD97":2562123.25,"ADDRESS":"安業１５９號","OBJECTID":28772},"geometry":{"x":172547.5700000003,"y":2562123.25}},{"attributes":{"ID":28773,"DIS_CODE":0,"TOWNNAME":"麻豆區","LI":"安業里","LIN":"8鄰","STREET":" ","SECT":" ","MAREA":"安業","LANE":" ","ALLEY":" ","HOUSE_NO":"１６０號","E_COORD97":172550.39000000001,"N_COORD97":2562113.2799999998,"ADDRESS":"安業１６０號","OBJECTID":28773},"geometry":{"x":172550.3900000006,"y":2562113.2800000012}},{"attributes":{"ID":28774,"DIS_CODE":0,"TOWNNAME":"麻豆區","LI":"安業里","LIN":"8鄰","STREET":" ","SECT":" ","MAREA":"安業","LANE":" ","ALLEY":" ","HOUSE_NO":"２６０號之１","E_COORD97":172497.84,"N_COORD97":2562221.5899999999,"ADDRESS":"安業２６０號之１","OBJECTID":28774},"geometry":{"x":172497.83999999892,"y":2562221.5899999999}},{"attributes":{"ID":28775,"DIS_CODE":0,"TOWNNAME":"麻豆區","LI":"安業里","LIN":"8鄰","STREET":" ","SECT":" ","MAREA":"安業","LANE":" ","ALLEY":" ","HOUSE_NO":"２６０號之２","E_COORD97":172493.95999999999,"N_COORD97":2562219.9300000002,"ADDRESS":"安業２６０號之２","OBJECTID":28775},"geometry":{"x":172493.96000000183,"y":2562219.9299999997}},{"attributes":{"ID":28776,"DIS_CODE":0,"TOWNNAME":"麻豆區","LI":"安業里","LIN":"8鄰","STREET":" ","SECT":" ","MAREA":"安業","LANE":" ","ALLEY":" ","HOUSE_NO":"２６０號之３","E_COORD97":172490.37,"N_COORD97":2562218.0099999998,"ADDRESS":"安業２６０號之３","OBJECTID":28776},"geometry":{"x":172490.37000000104,"y":2562218.0100000016}},{"attributes":{"ID":28777,"DIS_CODE":0,"TOWNNAME":"麻豆區","LI":"安業里","LIN":"8鄰","STREET":" ","SECT":" ","MAREA":"安業","LANE":" ","ALLEY":" ","HOUSE_NO":"２６０號之４","E_COORD97":172486.73999999999,"N_COORD97":2562215.46,"ADDRESS":"安業２６０號之４","OBJECTID":28777},"geometry":{"x":172486.74000000022,"y":2562215.4600000028}},{"attributes":{"ID":28778,"DIS_CODE":0,"TOWNNAME":"麻豆區","LI":"安業里","LIN":"8鄰","STREET":" ","SECT":" ","MAREA":"安業","LANE":" ","ALLEY":" ","HOUSE_NO":"２６０號之５","E_COORD97":172482.79999999999,"N_COORD97":2562213.3999999999,"ADDRESS":"安業２６０號之５","OBJECTID":28778},"geometry":{"x":172482.79999999981,"y":2562213.4000000004}},{"attributes":{"ID":28779,"DIS_CODE":0,"TOWNNAME":"麻豆區","LI":"安業里","LIN":"8鄰","STREET":" ","SECT":" ","MAREA":"安業","LANE":" ","ALLEY":" ","HOUSE_NO":"２６０號之６","E_COORD97":172479.75,"N_COORD97":2562211.3399999999,"ADDRESS":"安業２６０號之６","OBJECTID":28779},"geometry":{"x":172479.75,"y":2562211.3400000036}},{"attributes":{"ID":28780,"DIS_CODE":0,"TOWNNAME":"新營區","LI":"太南里","LIN":"19鄰","STREET":" ","SECT":" ","MAREA":"太子宮","LANE":" ","ALLEY":" ","HOUSE_NO":"３１２之３號","E_COORD97":176035.29000000001,"N_COORD97":2576584.23,"ADDRESS":"太子宮３１２之３號","OBJECTID":28780},"geometry":{"x":176035.29000000097,"y":2576584.2300000042}},{"attributes":{"ID":28781,"DIS_CODE":0,"TOWNNAME":"麻豆區","LI":"安業里","LIN":"8鄰","STREET":" ","SECT":" ","MAREA":"安業","LANE":" ","ALLEY":" ","HOUSE_NO":"２６０號","E_COORD97":172501.56,"N_COORD97":2562224.27,"ADDRESS":"安業２６０號","OBJECTID":28781},"geometry":{"x":172501.56000000052,"y":2562224.2699999996}},{"attributes":{"ID":28782,"DIS_CODE":0,"TOWNNAME":"麻豆區","LI":"安西里","LIN":"8鄰","STREET":" ","SECT":" ","MAREA":"安業","LANE":" ","ALLEY":" ","HOUSE_NO":"２６１號","E_COORD97":172474.17999999999,"N_COORD97":2562257.27,"ADDRESS":"安業２６１號","OBJECTID":28782},"geometry":{"x":172474.18000000063,"y":2562257.2699999996}},{"attributes":{"ID":28783,"DIS_CODE":0,"TOWNNAME":"麻豆區","LI":"安西里","LIN":"8鄰","STREET":" ","SECT":" ","MAREA":"安業","LANE":" ","ALLEY":" ","HOUSE_NO":"２６２號","E_COORD97":172482.70999999999,"N_COORD97":2562277.0899999999,"ADDRESS":"安業２６２號","OBJECTID":28783},"geometry":{"x":172482.71000000089,"y":2562277.089999998}},{"attributes":{"ID":28784,"DIS_CODE":0,"TOWNNAME":"麻豆區","LI":"安西里","LIN":"8鄰","STREET":" ","SECT":" ","MAREA":"安業","LANE":" ","ALLEY":" ","HOUSE_NO":"２６３號","E_COORD97":172461.23000000001,"N_COORD97":2562290.7000000002,"ADDRESS":"安業２６３號","OBJECTID":28784},"geometry":{"x":172461.23000000045,"y":2562290.7000000011}},{"attributes":{"ID":28785,"DIS_CODE":0,"TOWNNAME":"麻豆區","LI":"安西里","LIN":"8鄰","STREET":" ","SECT":" ","MAREA":"安業","LANE":" ","ALLEY":" ","HOUSE_NO":"２６４號","E_COORD97":172466.94,"N_COORD97":2562327.8100000001,"ADDRESS":"安業２６４號","OBJECTID":28785},"geometry":{"x":172466.94000000041,"y":2562327.8100000024}},{"attributes":{"ID":28786,"DIS_CODE":0,"TOWNNAME":"麻豆區","LI":"安西里","LIN":"8鄰","STREET":" ","SECT":" ","MAREA":"安業","LANE":" ","ALLEY":" ","HOUSE_NO":"２６６號","E_COORD97":172514.10000000001,"N_COORD97":2562269.79,"ADDRESS":"安業２６６號","OBJECTID":28786},"geometry":{"x":172514.09999999963,"y":2562269.790000001}},{"attributes":{"ID":28787,"DIS_CODE":0,"TOWNNAME":"麻豆區","LI":"安西里","LIN":"8鄰","STREET":" ","SECT":" ","MAREA":"安業","LANE":" ","ALLEY":" ","HOUSE_NO":"２６７號之１","E_COORD97":172523.95999999999,"N_COORD97":2562305.9199999999,"ADDRESS":"安業２６７號之１","OBJECTID":28787},"geometry":{"x":172523.95999999996,"y":2562305.9200000018}},{"attributes":{"ID":28788,"DIS_CODE":0,"TOWNNAME":"麻豆區","LI":"安西里","LIN":"8鄰","STREET":" ","SECT":" ","MAREA":"安業","LANE":" ","ALLEY":" ","HOUSE_NO":"２６７號","E_COORD97":172526.59,"N_COORD97":2562282.27,"ADDRESS":"安業２６７號","OBJECTID":28788},"geometry":{"x":172526.58999999985,"y":2562282.2699999977}},{"attributes":{"ID":28789,"DIS_CODE":0,"TOWNNAME":"麻豆區","LI":"安西里","LIN":"8鄰","STREET":" ","SECT":" ","MAREA":"安業","LANE":" ","ALLEY":" ","HOUSE_NO":"２６９號之１","E_COORD97":172493.98999999999,"N_COORD97":2562335.3500000001,"ADDRESS":"安業２６９號之１","OBJECTID":28789},"geometry":{"x":172493.99000000209,"y":2562335.3499999996}},{"attributes":{"ID":28790,"DIS_CODE":0,"TOWNNAME":"麻豆區","LI":"安西里","LIN":"8鄰","STREET":" ","SECT":" ","MAREA":"安業","LANE":" ","ALLEY":" ","HOUSE_NO":"２７１號","E_COORD97":172552.20000000001,"N_COORD97":2562312.5299999998,"ADDRESS":"安業２７１號","OBJECTID":28790},"geometry":{"x":172552.20000000112,"y":2562312.5300000012}},{"attributes":{"ID":28791,"DIS_CODE":0,"TOWNNAME":"麻豆區","LI":"安西里","LIN":"8鄰","STREET":" ","SECT":" ","MAREA":"安業","LANE":" ","ALLEY":" ","HOUSE_NO":"２７２號之１","E_COORD97":172556.53,"N_COORD97":2562298.8500000001,"ADDRESS":"安業２７２號之１","OBJECTID":28791},"geometry":{"x":172556.53000000212,"y":2562298.8499999978}},{"attributes":{"ID":28792,"DIS_CODE":0,"TOWNNAME":"麻豆區","LI":"北勢里","LIN":"14鄰","STREET":" ","SECT":" ","MAREA":"北勢寮","LANE":" ","ALLEY":" ","HOUSE_NO":"４０號之２","E_COORD97":171482.41,"N_COORD97":2567624.2000000002,"ADDRESS":"北勢寮４０號之２","OBJECTID":28792},"geometry":{"x":171482.41000000201,"y":2567624.2000000011}},{"attributes":{"ID":28793,"DIS_CODE":0,"TOWNNAME":"麻豆區","LI":"北勢里","LIN":"14鄰","STREET":" ","SECT":" ","MAREA":"北勢寮","LANE":" ","ALLEY":" ","HOUSE_NO":"４０號","E_COORD97":171496.44,"N_COORD97":2567631.2999999998,"ADDRESS":"北勢寮４０號","OBJECTID":28793},"geometry":{"x":171496.44000000134,"y":2567631.3000000026}},{"attributes":{"ID":28794,"DIS_CODE":0,"TOWNNAME":"麻豆區","LI":"北勢里","LIN":"14鄰","STREET":" ","SECT":" ","MAREA":"北勢寮","LANE":" ","ALLEY":" ","HOUSE_NO":"４１號","E_COORD97":171458.20000000001,"N_COORD97":2567684.5299999998,"ADDRESS":"北勢寮４１號","OBJECTID":28794},"geometry":{"x":171458.20000000019,"y":2567684.5299999975}},{"attributes":{"ID":28795,"DIS_CODE":0,"TOWNNAME":"麻豆區","LI":"北勢里","LIN":"14鄰","STREET":" ","SECT":" ","MAREA":"北勢寮","LANE":" ","ALLEY":" ","HOUSE_NO":"４２號","E_COORD97":171469.69,"N_COORD97":2567702.4199999999,"ADDRESS":"北勢寮４２號","OBJECTID":28795},"geometry":{"x":171469.69000000134,"y":2567702.4199999999}},{"attributes":{"ID":28796,"DIS_CODE":0,"TOWNNAME":"麻豆區","LI":"北勢里","LIN":"14鄰","STREET":" ","SECT":" ","MAREA":"北勢寮","LANE":" ","ALLEY":" ","HOUSE_NO":"４５號之１","E_COORD97":171439.64000000001,"N_COORD97":2567687.3399999999,"ADDRESS":"北勢寮４５號之１","OBJECTID":28796},"geometry":{"x":171439.64000000153,"y":2567687.3400000017}},{"attributes":{"ID":28797,"DIS_CODE":0,"TOWNNAME":"東區","LI":"崇誨里","LIN":"17鄰","STREET":"林森路","SECT":"二段","MAREA":" ","LANE":"１９２巷","ALLEY":"３６弄","HOUSE_NO":"７號六樓之２","E_COORD97":170634.28,"N_COORD97":2543304.0800000001,"ADDRESS":"林森路二段１９２巷３６弄７號六樓之２","OBJECTID":28797},"geometry":{"x":170634.28000000119,"y":2543304.0800000001}},{"attributes":{"ID":28798,"DIS_CODE":0,"TOWNNAME":"東區","LI":"崇誨里","LIN":"17鄰","STREET":"林森路","SECT":"二段","MAREA":" ","LANE":"１９２巷","ALLEY":"３６弄","HOUSE_NO":"７號六樓之３","E_COORD97":170634.28,"N_COORD97":2543304.0800000001,"ADDRESS":"林森路二段１９２巷３６弄７號六樓之３","OBJECTID":28798},"geometry":{"x":170634.28000000119,"y":2543304.0800000001}},{"attributes":{"ID":28799,"DIS_CODE":0,"TOWNNAME":"麻豆區","LI":"北勢里","LIN":"14鄰","STREET":" ","SECT":" ","MAREA":"北勢寮","LANE":" ","ALLEY":" ","HOUSE_NO":"４５號","E_COORD97":171455.5,"N_COORD97":2567703.0699999998,"ADDRESS":"北勢寮４５號","OBJECTID":28799},"geometry":{"x":171455.5,"y":2567703.0700000022}},{"attributes":{"ID":28800,"DIS_CODE":0,"TOWNNAME":"麻豆區","LI":"北勢里","LIN":"14鄰","STREET":" ","SECT":" ","MAREA":"北勢寮","LANE":" ","ALLEY":" ","HOUSE_NO":"４６號","E_COORD97":171441.48999999999,"N_COORD97":2567693.1000000001,"ADDRESS":"北勢寮４６號","OBJECTID":28800},"geometry":{"x":171441.49000000115,"y":2567693.1000000015}}]}