{"displayFieldName":"TOWNNAME","fieldAliases":{"ID":"ID","DIS_CODE":"DIS_CODE","TOWNNAME":"TOWNNAME","LI":"LI","LIN":"LIN","STREET":"STREET","SECT":"SECT","MAREA":"MAREA","LANE":"LANE","ALLEY":"ALLEY","HOUSE_NO":"HOUSE_NO","E_COORD97":"E_COORD97","N_COORD97":"N_COORD97","ADDRESS":"ADDRESS","OBJECTID":"OBJECTID"},"geometryType":"esriGeometryPoint","spatialReference":{"wkid":102443,"latestWkid":3826},"fields":[{"name":"ID","type":"esriFieldTypeDouble","alias":"ID"},{"name":"DIS_CODE","type":"esriFieldTypeInteger","alias":"DIS_CODE"},{"name":"TOWNNAME","type":"esriFieldTypeString","alias":"TOWNNAME","length":8},{"name":"LI","type":"esriFieldTypeString","alias":"LI","length":8},{"name":"LIN","type":"esriFieldTypeString","alias":"LIN","length":12},{"name":"STREET","type":"esriFieldTypeString","alias":"STREET","length":20},{"name":"SECT","type":"esriFieldTypeString","alias":"SECT","length":8},{"name":"MAREA","type":"esriFieldTypeString","alias":"MAREA","length":12},{"name":"LANE","type":"esriFieldTypeString","alias":"LANE","length":10},{"name":"ALLEY","type":"esriFieldTypeString","alias":"ALLEY","length":10},{"name":"HOUSE_NO","type":"esriFieldTypeString","alias":"HOUSE_NO","length":20},{"name":"E_COORD97","type":"esriFieldTypeDouble","alias":"E_COORD97"},{"name":"N_COORD97","type":"esriFieldTypeDouble","alias":"N_COORD97"},{"name":"ADDRESS","type":"esriFieldTypeString","alias":"ADDRESS","length":50},{"name":"OBJECTID","type":"esriFieldTypeOID","alias":"OBJECTID"}],"features":[{"attributes":{"ID":27001,"DIS_CODE":0,"TOWNNAME":"永康區","LI":"三合里","LIN":"17鄰","STREET":"南工街","SECT":" ","MAREA":" ","LANE":"２４７巷","ALLEY":"６弄","HOUSE_NO":"６號","E_COORD97":171923.94,"N_COORD97":2545831.8399999999,"ADDRESS":"南工街２４７巷６弄６號","OBJECTID":27001},"geometry":{"x":171923.94000000134,"y":2545831.8399999999}},{"attributes":{"ID":27002,"DIS_CODE":0,"TOWNNAME":"永康區","LI":"二王里","LIN":"17鄰","STREET":"忠孝路","SECT":" ","MAREA":" ","LANE":"４１０巷","ALLEY":"５０弄","HOUSE_NO":"１０號","E_COORD97":172583.78,"N_COORD97":2546476.6699999999,"ADDRESS":"忠孝路４１０巷５０弄１０號","OBJECTID":27002},"geometry":{"x":172583.78000000119,"y":2546476.6699999999}},{"attributes":{"ID":27003,"DIS_CODE":0,"TOWNNAME":"永康區","LI":"二王里","LIN":"17鄰","STREET":"忠孝路","SECT":" ","MAREA":" ","LANE":"４１０巷","ALLEY":"５０弄","HOUSE_NO":"３號","E_COORD97":172597.62,"N_COORD97":2546503.8199999998,"ADDRESS":"忠孝路４１０巷５０弄３號","OBJECTID":27003},"geometry":{"x":172597.62000000011,"y":2546503.8200000003}},{"attributes":{"ID":27004,"DIS_CODE":0,"TOWNNAME":"新營區","LI":"忠政里","LIN":"6鄰","STREET":"府西路","SECT":" ","MAREA":" ","LANE":" ","ALLEY":" ","HOUSE_NO":"６２之３號","E_COORD97":179836.60999999999,"N_COORD97":2579212.5499999998,"ADDRESS":"府西路６２之３號","OBJECTID":27004},"geometry":{"x":179836.61000000034,"y":2579212.5500000007}},{"attributes":{"ID":27005,"DIS_CODE":0,"TOWNNAME":"歸仁區","LI":"辜厝里","LIN":"34鄰","STREET":"大吉街","SECT":" ","MAREA":" ","LANE":" ","ALLEY":" ","HOUSE_NO":"１２７號","E_COORD97":177209.28,"N_COORD97":2540514.5499999998,"ADDRESS":"大吉街１２７號","OBJECTID":27005},"geometry":{"x":177209.28000000026,"y":2540514.5500000007}},{"attributes":{"ID":27006,"DIS_CODE":0,"TOWNNAME":"安平區","LI":"育平里","LIN":"34鄰","STREET":"育平路","SECT":" ","MAREA":" ","LANE":" ","ALLEY":" ","HOUSE_NO":"１８１號","E_COORD97":164570.31,"N_COORD97":2543361.3100000001,"ADDRESS":"育平路１８１號","OBJECTID":27006},"geometry":{"x":164570.31000000052,"y":2543361.3099999987}},{"attributes":{"ID":27007,"DIS_CODE":0,"TOWNNAME":"安平區","LI":"育平里","LIN":"34鄰","STREET":"郡平路","SECT":" ","MAREA":" ","LANE":" ","ALLEY":" ","HOUSE_NO":"２４２號","E_COORD97":164505.09,"N_COORD97":2543364.4399999999,"ADDRESS":"郡平路２４２號","OBJECTID":27007},"geometry":{"x":164505.09000000171,"y":2543364.4400000013}},{"attributes":{"ID":27008,"DIS_CODE":0,"TOWNNAME":"六甲區","LI":"六甲里","LIN":"5鄰","STREET":"民權街","SECT":" ","MAREA":" ","LANE":" ","ALLEY":" ","HOUSE_NO":"１０號","E_COORD97":183504.67000000001,"N_COORD97":2569632.8999999999,"ADDRESS":"民權街１０號","OBJECTID":27008},"geometry":{"x":183504.67000000086,"y":2569632.9000000041}},{"attributes":{"ID":27009,"DIS_CODE":0,"TOWNNAME":"佳里區","LI":"漳洲里","LIN":"8鄰","STREET":" ","SECT":" ","MAREA":"番子寮","LANE":" ","ALLEY":" ","HOUSE_NO":"２６５號","E_COORD97":163467.37,"N_COORD97":2564623.48,"ADDRESS":"番子寮２６５號","OBJECTID":27009},"geometry":{"x":163467.37000000011,"y":2564623.4800000004}},{"attributes":{"ID":27010,"DIS_CODE":0,"TOWNNAME":"永康區","LI":"二王里","LIN":"17鄰","STREET":"忠孝路","SECT":" ","MAREA":" ","LANE":"４１０巷","ALLEY":"５０弄","HOUSE_NO":"６號","E_COORD97":172588.73000000001,"N_COORD97":2546491.3900000001,"ADDRESS":"忠孝路４１０巷５０弄６號","OBJECTID":27010},"geometry":{"x":172588.73000000045,"y":2546491.3900000025}},{"attributes":{"ID":27011,"DIS_CODE":0,"TOWNNAME":"永康區","LI":"三合里","LIN":"17鄰","STREET":"南工街","SECT":" ","MAREA":" ","LANE":"２４７巷","ALLEY":"６弄","HOUSE_NO":"１４號","E_COORD97":171952.44,"N_COORD97":2545819.3399999999,"ADDRESS":"南工街２４７巷６弄１４號","OBJECTID":27011},"geometry":{"x":171952.44000000134,"y":2545819.3400000017}},{"attributes":{"ID":27012,"DIS_CODE":0,"TOWNNAME":"玉井區","LI":"望明里","LIN":"8鄰","STREET":" ","SECT":" ","MAREA":"公\u25A0","LANE":" ","ALLEY":" ","HOUSE_NO":"２之１號","E_COORD97":193840.72,"N_COORD97":2556462.2999999998,"ADDRESS":"公\u25A0２之１號","OBJECTID":27012},"geometry":{"x":193840.71999999974,"y":2556462.3000000045}},{"attributes":{"ID":27013,"DIS_CODE":0,"TOWNNAME":"玉井區","LI":"豐里里","LIN":"8鄰","STREET":" ","SECT":" ","MAREA":"豐里","LANE":" ","ALLEY":" ","HOUSE_NO":"７４之８號","E_COORD97":192782.95999999999,"N_COORD97":2559092.29,"ADDRESS":"豐里７４之８號","OBJECTID":27013},"geometry":{"x":192782.95999999996,"y":2559092.290000001}},{"attributes":{"ID":27014,"DIS_CODE":0,"TOWNNAME":"永康區","LI":"二王里","LIN":"17鄰","STREET":"忠孝路","SECT":" ","MAREA":" ","LANE":"４１０巷","ALLEY":"５０弄","HOUSE_NO":"４號","E_COORD97":172588.70999999999,"N_COORD97":2546502.5499999998,"ADDRESS":"忠孝路４１０巷５０弄４號","OBJECTID":27014},"geometry":{"x":172588.70999999903,"y":2546502.5500000007}},{"attributes":{"ID":27015,"DIS_CODE":0,"TOWNNAME":"永康區","LI":"二王里","LIN":"17鄰","STREET":"忠孝路","SECT":" ","MAREA":" ","LANE":"４１０巷","ALLEY":"５０弄","HOUSE_NO":"１２號","E_COORD97":172589.92999999999,"N_COORD97":2546476.6699999999,"ADDRESS":"忠孝路４１０巷５０弄１２號","OBJECTID":27015},"geometry":{"x":172589.9299999997,"y":2546476.6699999999}},{"attributes":{"ID":27016,"DIS_CODE":0,"TOWNNAME":"玉井區","LI":"望明里","LIN":"8鄰","STREET":" ","SECT":" ","MAREA":"望明","LANE":" ","ALLEY":" ","HOUSE_NO":"８９之１０號","E_COORD97":193542.89000000001,"N_COORD97":2556485.2999999998,"ADDRESS":"望明８９之１０號","OBJECTID":27016},"geometry":{"x":193542.88999999966,"y":2556485.3000000007}},{"attributes":{"ID":27017,"DIS_CODE":0,"TOWNNAME":"永康區","LI":"五王里","LIN":"17鄰","STREET":"成功路","SECT":" ","MAREA":" ","LANE":"１７２巷","ALLEY":"７６弄","HOUSE_NO":"１號","E_COORD97":171582.16,"N_COORD97":2545786.27,"ADDRESS":"成功路１７２巷７６弄１號","OBJECTID":27017},"geometry":{"x":171582.16000000015,"y":2545786.2700000014}},{"attributes":{"ID":27018,"DIS_CODE":0,"TOWNNAME":"永康區","LI":"三合里","LIN":"17鄰","STREET":"南工街","SECT":" ","MAREA":" ","LANE":"２４７巷","ALLEY":"６弄","HOUSE_NO":"１２號","E_COORD97":171949.48999999999,"N_COORD97":2545800.0899999999,"ADDRESS":"南工街２４７巷６弄１２號","OBJECTID":27018},"geometry":{"x":171949.49000000022,"y":2545800.0900000036}},{"attributes":{"ID":27019,"DIS_CODE":0,"TOWNNAME":"永康區","LI":"三合里","LIN":"17鄰","STREET":"南工街","SECT":" ","MAREA":" ","LANE":"２４７巷","ALLEY":"６弄","HOUSE_NO":"１５號","E_COORD97":171946.14999999999,"N_COORD97":2545828.5899999999,"ADDRESS":"南工街２４７巷６弄１５號","OBJECTID":27019},"geometry":{"x":171946.1500000013,"y":2545828.5900000017}},{"attributes":{"ID":27020,"DIS_CODE":0,"TOWNNAME":"玉井區","LI":"望明里","LIN":"8鄰","STREET":" ","SECT":" ","MAREA":"望明","LANE":" ","ALLEY":" ","HOUSE_NO":"８９之２９號","E_COORD97":193532.59,"N_COORD97":2556429.29,"ADDRESS":"望明８９之２９號","OBJECTID":27020},"geometry":{"x":193532.59000000078,"y":2556429.2899999991}},{"attributes":{"ID":27021,"DIS_CODE":0,"TOWNNAME":"安南區","LI":"幸福里","LIN":"17鄰","STREET":"府安路","SECT":"六段","MAREA":" ","LANE":"２７巷","ALLEY":"６９弄","HOUSE_NO":"５號","E_COORD97":166984.85999999999,"N_COORD97":2546856.5499999998,"ADDRESS":"府安路六段２７巷６９弄５號","OBJECTID":27021},"geometry":{"x":166984.86000000034,"y":2546856.5500000026}},{"attributes":{"ID":27022,"DIS_CODE":0,"TOWNNAME":"玉井區","LI":"層林里","LIN":"8鄰","STREET":" ","SECT":" ","MAREA":"層林","LANE":" ","ALLEY":" ","HOUSE_NO":"８７之１號","E_COORD97":191558.37,"N_COORD97":2552811.29,"ADDRESS":"層林８７之１號","OBJECTID":27022},"geometry":{"x":191558.37000000011,"y":2552811.2899999991}},{"attributes":{"ID":27023,"DIS_CODE":0,"TOWNNAME":"安南區","LI":"幸福里","LIN":"17鄰","STREET":"府安路","SECT":"六段","MAREA":" ","LANE":"２７巷","ALLEY":"６９弄","HOUSE_NO":"６號","E_COORD97":166979.45999999999,"N_COORD97":2546884.3999999999,"ADDRESS":"府安路六段２７巷６９弄６號","OBJECTID":27023},"geometry":{"x":166979.46000000183,"y":2546884.4000000022}},{"attributes":{"ID":27024,"DIS_CODE":0,"TOWNNAME":"玉井區","LI":"望明里","LIN":"8鄰","STREET":" ","SECT":" ","MAREA":"望明","LANE":" ","ALLEY":" ","HOUSE_NO":"８９之２號","E_COORD97":193473.32999999999,"N_COORD97":2556522.29,"ADDRESS":"望明８９之２號","OBJECTID":27024},"geometry":{"x":193473.33000000101,"y":2556522.290000001}},{"attributes":{"ID":27025,"DIS_CODE":0,"TOWNNAME":"玉井區","LI":"沙田里","LIN":"8鄰","STREET":" ","SECT":" ","MAREA":"沙田","LANE":" ","ALLEY":" ","HOUSE_NO":"８３號","E_COORD97":199440.45999999999,"N_COORD97":2556851.2799999998,"ADDRESS":"沙田８３號","OBJECTID":27025},"geometry":{"x":199440.45999999996,"y":2556851.2800000012}},{"attributes":{"ID":27026,"DIS_CODE":0,"TOWNNAME":"安南區","LI":"幸福里","LIN":"17鄰","STREET":"府安路","SECT":"六段","MAREA":" ","LANE":"２７巷","ALLEY":"６９弄","HOUSE_NO":"７號","E_COORD97":166981.39999999999,"N_COORD97":2546851.8500000001,"ADDRESS":"府安路六段２７巷６９弄７號","OBJECTID":27026},"geometry":{"x":166981.40000000037,"y":2546851.8499999996}},{"attributes":{"ID":27027,"DIS_CODE":0,"TOWNNAME":"玉井區","LI":"豐里里","LIN":"8鄰","STREET":" ","SECT":" ","MAREA":"豐里","LANE":" ","ALLEY":" ","HOUSE_NO":"７４之５號","E_COORD97":192837.37,"N_COORD97":2559033.29,"ADDRESS":"豐里７４之５號","OBJECTID":27027},"geometry":{"x":192837.37000000104,"y":2559033.2899999991}},{"attributes":{"ID":27028,"DIS_CODE":0,"TOWNNAME":"安南區","LI":"幸福里","LIN":"17鄰","STREET":"府安路","SECT":"六段","MAREA":" ","LANE":"２７巷","ALLEY":"６９弄","HOUSE_NO":"８號","E_COORD97":166975.35999999999,"N_COORD97":2546882.23,"ADDRESS":"府安路六段２７巷６９弄８號","OBJECTID":27028},"geometry":{"x":166975.3600000022,"y":2546882.2300000023}},{"attributes":{"ID":27029,"DIS_CODE":0,"TOWNNAME":"安南區","LI":"幸福里","LIN":"17鄰","STREET":"府安路","SECT":"六段","MAREA":" ","LANE":"２７巷","ALLEY":"６９弄","HOUSE_NO":"９號","E_COORD97":166976.54000000001,"N_COORD97":2546853.46,"ADDRESS":"府安路六段２７巷６９弄９號","OBJECTID":27029},"geometry":{"x":166976.54000000004,"y":2546853.4600000028}},{"attributes":{"ID":27030,"DIS_CODE":0,"TOWNNAME":"玉井區","LI":"望明里","LIN":"8鄰","STREET":" ","SECT":" ","MAREA":"劉陳","LANE":" ","ALLEY":" ","HOUSE_NO":"１９２號","E_COORD97":193647.56,"N_COORD97":2556331.2400000002,"ADDRESS":"劉陳１９２號","OBJECTID":27030},"geometry":{"x":193647.56000000052,"y":2556331.2400000021}},{"attributes":{"ID":27031,"DIS_CODE":0,"TOWNNAME":"玉井區","LI":"望明里","LIN":"8鄰","STREET":" ","SECT":" ","MAREA":"望明","LANE":" ","ALLEY":" ","HOUSE_NO":"８９之３６號","E_COORD97":193523.38,"N_COORD97":2556439.29,"ADDRESS":"望明８９之３６號","OBJECTID":27031},"geometry":{"x":193523.38000000082,"y":2556439.2899999991}},{"attributes":{"ID":27032,"DIS_CODE":0,"TOWNNAME":"安南區","LI":"幸福里","LIN":"17鄰","STREET":"府安路","SECT":"六段","MAREA":" ","LANE":"２７巷","ALLEY":"６９弄","HOUSE_NO":"１０號","E_COORD97":166970.54000000001,"N_COORD97":2546885.1200000001,"ADDRESS":"府安路六段２７巷６９弄１０號","OBJECTID":27032},"geometry":{"x":166970.5400000019,"y":2546885.120000001}},{"attributes":{"ID":27033,"DIS_CODE":0,"TOWNNAME":"玉井區","LI":"望明里","LIN":"8鄰","STREET":" ","SECT":" ","MAREA":"望明","LANE":" ","ALLEY":" ","HOUSE_NO":"８８號之１","E_COORD97":193867.76999999999,"N_COORD97":2556734.29,"ADDRESS":"望明８８號之１","OBJECTID":27033},"geometry":{"x":193867.77000000142,"y":2556734.2899999991}},{"attributes":{"ID":27034,"DIS_CODE":0,"TOWNNAME":"玉井區","LI":"望明里","LIN":"8鄰","STREET":" ","SECT":" ","MAREA":"劉陳","LANE":" ","ALLEY":" ","HOUSE_NO":"１３７號","E_COORD97":193534.06,"N_COORD97":2556303.2400000002,"ADDRESS":"劉陳１３７號","OBJECTID":27034},"geometry":{"x":193534.06000000052,"y":2556303.2400000021}},{"attributes":{"ID":27035,"DIS_CODE":0,"TOWNNAME":"玉井區","LI":"豐里里","LIN":"8鄰","STREET":" ","SECT":" ","MAREA":"豐里","LANE":" ","ALLEY":" ","HOUSE_NO":"８２號","E_COORD97":192688.67000000001,"N_COORD97":2559500.25,"ADDRESS":"豐里８２號","OBJECTID":27035},"geometry":{"x":192688.66999999993,"y":2559500.2500000019}},{"attributes":{"ID":27036,"DIS_CODE":0,"TOWNNAME":"玉井區","LI":"望明里","LIN":"8鄰","STREET":" ","SECT":" ","MAREA":"望明","LANE":" ","ALLEY":" ","HOUSE_NO":"８９號之３８","E_COORD97":193521.26000000001,"N_COORD97":2556435.29,"ADDRESS":"望明８９號之３８","OBJECTID":27036},"geometry":{"x":193521.26000000071,"y":2556435.2899999991}},{"attributes":{"ID":27037,"DIS_CODE":0,"TOWNNAME":"玉井區","LI":"望明里","LIN":"8鄰","STREET":" ","SECT":" ","MAREA":"劉陳","LANE":" ","ALLEY":" ","HOUSE_NO":"１４１號","E_COORD97":193542.45000000001,"N_COORD97":2556310.2400000002,"ADDRESS":"劉陳１４１號","OBJECTID":27037},"geometry":{"x":193542.45000000112,"y":2556310.2400000021}},{"attributes":{"ID":27038,"DIS_CODE":0,"TOWNNAME":"玉井區","LI":"望明里","LIN":"8鄰","STREET":" ","SECT":" ","MAREA":"劉陳","LANE":" ","ALLEY":" ","HOUSE_NO":"１３９號","E_COORD97":193537.26000000001,"N_COORD97":2556305.2400000002,"ADDRESS":"劉陳１３９號","OBJECTID":27038},"geometry":{"x":193537.25999999978,"y":2556305.2400000002}},{"attributes":{"ID":27039,"DIS_CODE":0,"TOWNNAME":"玉井區","LI":"望明里","LIN":"8鄰","STREET":" ","SECT":" ","MAREA":"望明","LANE":" ","ALLEY":" ","HOUSE_NO":"８９號之２６","E_COORD97":193532.53,"N_COORD97":2556462.2999999998,"ADDRESS":"望明８９號之２６","OBJECTID":27039},"geometry":{"x":193532.53000000026,"y":2556462.3000000045}},{"attributes":{"ID":27040,"DIS_CODE":0,"TOWNNAME":"玉井區","LI":"望明里","LIN":"8鄰","STREET":" ","SECT":" ","MAREA":"望明","LANE":" ","ALLEY":" ","HOUSE_NO":"８９號之２８","E_COORD97":193530.47,"N_COORD97":2556456.2999999998,"ADDRESS":"望明８９之２８號","OBJECTID":27040},"geometry":{"x":193530.46999999974,"y":2556456.3000000026}},{"attributes":{"ID":27041,"DIS_CODE":0,"TOWNNAME":"玉井區","LI":"望明里","LIN":"8鄰","STREET":" ","SECT":" ","MAREA":"望明","LANE":" ","ALLEY":" ","HOUSE_NO":"８９之２０號","E_COORD97":193536.79000000001,"N_COORD97":2556470.2999999998,"ADDRESS":"望明８９之２０號","OBJECTID":27041},"geometry":{"x":193536.79000000004,"y":2556470.3000000026}},{"attributes":{"ID":27042,"DIS_CODE":0,"TOWNNAME":"玉井區","LI":"望明里","LIN":"8鄰","STREET":" ","SECT":" ","MAREA":"劉陳","LANE":" ","ALLEY":" ","HOUSE_NO":"１４３號","E_COORD97":193550.76000000001,"N_COORD97":2556316.2400000002,"ADDRESS":"劉陳１４３號","OBJECTID":27042},"geometry":{"x":193550.75999999978,"y":2556316.2400000039}},{"attributes":{"ID":27043,"DIS_CODE":0,"TOWNNAME":"新營區","LI":"民榮里","LIN":" ","STREET":"興農街","SECT":" ","MAREA":" ","LANE":" ","ALLEY":" ","HOUSE_NO":"８６之４號","E_COORD97":179240.60000000001,"N_COORD97":2577762.4100000001,"ADDRESS":"興農街８６之４號","OBJECTID":27043},"geometry":{"x":179240.59999999963,"y":2577762.4099999983}},{"attributes":{"ID":27044,"DIS_CODE":0,"TOWNNAME":"仁德區","LI":"保安里","LIN":"17鄰","STREET":"中正路","SECT":"一段","MAREA":" ","LANE":"１１６巷","ALLEY":"２弄","HOUSE_NO":"２５號","E_COORD97":171354.39000000001,"N_COORD97":2535456.2799999998,"ADDRESS":"中正路一段１１６巷２弄２５號","OBJECTID":27044},"geometry":{"x":171354.38999999966,"y":2535456.2799999993}},{"attributes":{"ID":27045,"DIS_CODE":0,"TOWNNAME":"永康區","LI":"東橋里","LIN":"17鄰","STREET":"東橋八街","SECT":" ","MAREA":" ","LANE":"２５巷","ALLEY":"１弄","HOUSE_NO":"１號","E_COORD97":171355.95000000001,"N_COORD97":2546790.7799999998,"ADDRESS":"東橋八街２５巷１弄１號","OBJECTID":27045},"geometry":{"x":171355.95000000019,"y":2546790.7799999993}},{"attributes":{"ID":27046,"DIS_CODE":0,"TOWNNAME":"新營區","LI":"民生里","LIN":" ","STREET":"民生路","SECT":" ","MAREA":" ","LANE":" ","ALLEY":" ","HOUSE_NO":"６７之１號","E_COORD97":179171.25,"N_COORD97":2578461.54,"ADDRESS":"民生路６７之１號","OBJECTID":27046},"geometry":{"x":179171.25000000093,"y":2578461.5399999991}},{"attributes":{"ID":27047,"DIS_CODE":0,"TOWNNAME":"新營區","LI":"三仙里","LIN":"20鄰","STREET":"三民路","SECT":" ","MAREA":" ","LANE":" ","ALLEY":" ","HOUSE_NO":"１４０號之９","E_COORD97":179523.98999999999,"N_COORD97":2578442.1499999999,"ADDRESS":"三民路１４０號之９","OBJECTID":27047},"geometry":{"x":179523.99000000209,"y":2578442.1500000004}},{"attributes":{"ID":27048,"DIS_CODE":0,"TOWNNAME":"新營區","LI":"中營里","LIN":"14鄰","STREET":"東山三路","SECT":" ","MAREA":" ","LANE":" ","ALLEY":" ","HOUSE_NO":"７９號","E_COORD97":181599.04000000001,"N_COORD97":2579114.54,"ADDRESS":"東山三路７９號","OBJECTID":27048},"geometry":{"x":181599.04000000097,"y":2579114.540000001}},{"attributes":{"ID":27049,"DIS_CODE":0,"TOWNNAME":"永康區","LI":"東橋里","LIN":"17鄰","STREET":"東橋八街","SECT":" ","MAREA":" ","LANE":"２５巷","ALLEY":"１弄","HOUSE_NO":"３號","E_COORD97":171351.45999999999,"N_COORD97":2546788.04,"ADDRESS":"東橋八街２５巷１弄３號","OBJECTID":27049},"geometry":{"x":171351.46000000183,"y":2546788.0399999991}},{"attributes":{"ID":27050,"DIS_CODE":0,"TOWNNAME":"永康區","LI":"東橋里","LIN":"17鄰","STREET":"東橋八街","SECT":" ","MAREA":" ","LANE":"２５巷","ALLEY":"１弄","HOUSE_NO":"５號","E_COORD97":171347.01000000001,"N_COORD97":2546785.3300000001,"ADDRESS":"東橋八街２５巷１弄５號","OBJECTID":27050},"geometry":{"x":171347.00999999978,"y":2546785.3300000038}},{"attributes":{"ID":27051,"DIS_CODE":0,"TOWNNAME":"新營區","LI":"三仙里","LIN":"20鄰","STREET":"三民路","SECT":" ","MAREA":" ","LANE":" ","ALLEY":" ","HOUSE_NO":"１４０號之２２","E_COORD97":179505.88,"N_COORD97":2578446.6699999999,"ADDRESS":"三民路１４０號之２２","OBJECTID":27051},"geometry":{"x":179505.88000000082,"y":2578446.6700000018}},{"attributes":{"ID":27052,"DIS_CODE":0,"TOWNNAME":"永康區","LI":"東橋里","LIN":"17鄰","STREET":"東橋八街","SECT":" ","MAREA":" ","LANE":"２５巷","ALLEY":"１弄","HOUSE_NO":"７號","E_COORD97":171342.54999999999,"N_COORD97":2546782.6099999999,"ADDRESS":"東橋八街２５巷１弄７號","OBJECTID":27052},"geometry":{"x":171342.55000000075,"y":2546782.6100000031}},{"attributes":{"ID":27053,"DIS_CODE":0,"TOWNNAME":"永康區","LI":"東橋里","LIN":"17鄰","STREET":"東橋八街","SECT":" ","MAREA":" ","LANE":"２５巷","ALLEY":"１弄","HOUSE_NO":"９號","E_COORD97":171337.48999999999,"N_COORD97":2546779.52,"ADDRESS":"東橋八街２５巷１弄９號","OBJECTID":27053},"geometry":{"x":171337.49000000022,"y":2546779.5199999996}},{"attributes":{"ID":27054,"DIS_CODE":0,"TOWNNAME":"七股區","LI":"三股里","LIN":"7鄰","STREET":" ","SECT":" ","MAREA":"三股","LANE":" ","ALLEY":" ","HOUSE_NO":"８７號","E_COORD97":159778.45000000001,"N_COORD97":2555827.23,"ADDRESS":"三股８７號","OBJECTID":27054},"geometry":{"x":159778.44999999925,"y":2555827.2300000004}},{"attributes":{"ID":27055,"DIS_CODE":0,"TOWNNAME":"永康區","LI":"東橋里","LIN":"17鄰","STREET":"東橋八街","SECT":" ","MAREA":" ","LANE":"２５巷","ALLEY":"１弄","HOUSE_NO":"１１號","E_COORD97":171333.03,"N_COORD97":2546776.7999999998,"ADDRESS":"東橋八街２５巷１弄１１號","OBJECTID":27055},"geometry":{"x":171333.03000000119,"y":2546776.8000000026}},{"attributes":{"ID":27056,"DIS_CODE":0,"TOWNNAME":"永康區","LI":"東橋里","LIN":"17鄰","STREET":"東橋八街","SECT":" ","MAREA":" ","LANE":"２５巷","ALLEY":"１弄","HOUSE_NO":"１３號","E_COORD97":171328.57999999999,"N_COORD97":2546774.0899999999,"ADDRESS":"東橋八街２５巷１弄１３號","OBJECTID":27056},"geometry":{"x":171328.58000000194,"y":2546774.0900000017}},{"attributes":{"ID":27057,"DIS_CODE":0,"TOWNNAME":"永康區","LI":"東橋里","LIN":"17鄰","STREET":"東橋八街","SECT":" ","MAREA":" ","LANE":"２５巷","ALLEY":"１弄","HOUSE_NO":"１５號","E_COORD97":171322.63,"N_COORD97":2546771.5499999998,"ADDRESS":"東橋八街２５巷１弄１５號","OBJECTID":27057},"geometry":{"x":171322.62999999989,"y":2546771.5500000026}},{"attributes":{"ID":27058,"DIS_CODE":0,"TOWNNAME":"永康區","LI":"東橋里","LIN":"17鄰","STREET":"東橋八街","SECT":" ","MAREA":" ","LANE":"２５巷","ALLEY":"１弄","HOUSE_NO":"２號","E_COORD97":171345.56,"N_COORD97":2546808.5299999998,"ADDRESS":"東橋八街２５巷１弄２號","OBJECTID":27058},"geometry":{"x":171345.56000000052,"y":2546808.5300000012}},{"attributes":{"ID":27059,"DIS_CODE":0,"TOWNNAME":"東區","LI":"後甲里","LIN":"34鄰","STREET":" ","SECT":" ","MAREA":"精忠三村","LANE":" ","ALLEY":" ","HOUSE_NO":"１號之１４","E_COORD97":171748.23000000001,"N_COORD97":2543531.2599999998,"ADDRESS":"精忠三村１號之１４","OBJECTID":27059},"geometry":{"x":171748.23000000045,"y":2543531.2600000016}},{"attributes":{"ID":27060,"DIS_CODE":0,"TOWNNAME":"東區","LI":"後甲里","LIN":"34鄰","STREET":" ","SECT":" ","MAREA":"精忠三村","LANE":" ","ALLEY":" ","HOUSE_NO":"１號之４５","E_COORD97":171746.97,"N_COORD97":2543617.8799999999,"ADDRESS":"精忠三村１號之４５","OBJECTID":27060},"geometry":{"x":171746.96999999974,"y":2543617.8800000008}},{"attributes":{"ID":27061,"DIS_CODE":0,"TOWNNAME":"東區","LI":"後甲里","LIN":"34鄰","STREET":" ","SECT":" ","MAREA":"精忠三村","LANE":" ","ALLEY":" ","HOUSE_NO":"１號之４４","E_COORD97":171748.88,"N_COORD97":2543615.3399999999,"ADDRESS":"精忠三村１號之４４","OBJECTID":27061},"geometry":{"x":171748.88000000082,"y":2543615.3400000017}},{"attributes":{"ID":27062,"DIS_CODE":0,"TOWNNAME":"東區","LI":"後甲里","LIN":"34鄰","STREET":" ","SECT":" ","MAREA":"精忠三村","LANE":" ","ALLEY":" ","HOUSE_NO":"１號之４３","E_COORD97":171746.97,"N_COORD97":2543612.3799999999,"ADDRESS":"精忠三村１號之４３","OBJECTID":27062},"geometry":{"x":171746.96999999974,"y":2543612.379999999}},{"attributes":{"ID":27063,"DIS_CODE":0,"TOWNNAME":"新化區","LI":"東榮里","LIN":"34鄰","STREET":"中山路","SECT":" ","MAREA":" ","LANE":" ","ALLEY":" ","HOUSE_NO":"２１７號之２","E_COORD97":179175.45999999999,"N_COORD97":2548441.2599999998,"ADDRESS":"中山路２１７號之２","OBJECTID":27063},"geometry":{"x":179175.46000000089,"y":2548441.2600000016}},{"attributes":{"ID":27064,"DIS_CODE":0,"TOWNNAME":"東區","LI":"後甲里","LIN":"34鄰","STREET":" ","SECT":" ","MAREA":"精忠三村","LANE":" ","ALLEY":" ","HOUSE_NO":"１號之４２","E_COORD97":171748.67000000001,"N_COORD97":2543608.9900000002,"ADDRESS":"精忠三村１號之４２","OBJECTID":27064},"geometry":{"x":171748.67000000086,"y":2543608.9900000021}},{"attributes":{"ID":27065,"DIS_CODE":0,"TOWNNAME":"北區","LI":"成德里","LIN":"34鄰","STREET":"文成路","SECT":" ","MAREA":" ","LANE":" ","ALLEY":" ","HOUSE_NO":"１６５號","E_COORD97":168459.35376500001,"N_COORD97":2545946.11259,"ADDRESS":"文成路１６５號","OBJECTID":27065},"geometry":{"x":168459.35376499966,"y":2545946.1125950031}},{"attributes":{"ID":27066,"DIS_CODE":0,"TOWNNAME":"北區","LI":"成德里","LIN":"34鄰","STREET":"和緯路","SECT":"二段","MAREA":" ","LANE":" ","ALLEY":" ","HOUSE_NO":"２８６號","E_COORD97":168593.81,"N_COORD97":2545885.2000000002,"ADDRESS":"和緯路二段２８６號","OBJECTID":27066},"geometry":{"x":168593.80999999866,"y":2545885.1999999993}},{"attributes":{"ID":27067,"DIS_CODE":0,"TOWNNAME":"永康區","LI":"埔園里","LIN":"34鄰","STREET":"八德街","SECT":" ","MAREA":" ","LANE":" ","ALLEY":" ","HOUSE_NO":"７２號","E_COORD97":174225.20000000001,"N_COORD97":2548525.02,"ADDRESS":"八德街７２號","OBJECTID":27067},"geometry":{"x":174225.20000000112,"y":2548525.0199999996}},{"attributes":{"ID":27068,"DIS_CODE":0,"TOWNNAME":"永康區","LI":"埔園里","LIN":"34鄰","STREET":"龍中街","SECT":" ","MAREA":" ","LANE":" ","ALLEY":" ","HOUSE_NO":"７０５號","E_COORD97":174276.92999999999,"N_COORD97":2549081.46,"ADDRESS":"龍中街７０５號","OBJECTID":27068},"geometry":{"x":174276.9299999997,"y":2549081.4600000028}},{"attributes":{"ID":27069,"DIS_CODE":0,"TOWNNAME":"永康區","LI":"埔園里","LIN":"34鄰","STREET":"八德街","SECT":" ","MAREA":" ","LANE":" ","ALLEY":" ","HOUSE_NO":"７０號","E_COORD97":174232.56,"N_COORD97":2548528.3100000001,"ADDRESS":"八德街７０號","OBJECTID":27069},"geometry":{"x":174232.56000000052,"y":2548528.3099999987}},{"attributes":{"ID":27070,"DIS_CODE":0,"TOWNNAME":"永康區","LI":"東橋里","LIN":"17鄰","STREET":"東橋八街","SECT":" ","MAREA":" ","LANE":"２５巷","ALLEY":"１弄","HOUSE_NO":"６號","E_COORD97":171342.10999999999,"N_COORD97":2546803.7400000002,"ADDRESS":"東橋八街２５巷１弄６號","OBJECTID":27070},"geometry":{"x":171342.1099999994,"y":2546803.7400000021}},{"attributes":{"ID":27071,"DIS_CODE":0,"TOWNNAME":"新營區","LI":"民權里","LIN":"20鄰","STREET":"仁愛街","SECT":" ","MAREA":" ","LANE":" ","ALLEY":" ","HOUSE_NO":"３３號之１","E_COORD97":179796.07000000001,"N_COORD97":2578271.4100000001,"ADDRESS":"仁愛街３３號之１","OBJECTID":27071},"geometry":{"x":179796.0700000003,"y":2578271.4100000039}},{"attributes":{"ID":27072,"DIS_CODE":0,"TOWNNAME":"永康區","LI":"東橋里","LIN":"17鄰","STREET":"東橋八街","SECT":" ","MAREA":" ","LANE":"２５巷","ALLEY":"１弄","HOUSE_NO":"８號","E_COORD97":171336.57999999999,"N_COORD97":2546800.3599999999,"ADDRESS":"東橋八街２５巷１弄８號","OBJECTID":27072},"geometry":{"x":171336.58000000007,"y":2546800.3599999994}},{"attributes":{"ID":27073,"DIS_CODE":0,"TOWNNAME":"永康區","LI":"東橋里","LIN":"17鄰","STREET":"東橋八街","SECT":" ","MAREA":" ","LANE":"２５巷","ALLEY":"１弄","HOUSE_NO":"１０號","E_COORD97":171331.97,"N_COORD97":2546797.5499999998,"ADDRESS":"東橋八街２５巷１弄１０號","OBJECTID":27073},"geometry":{"x":171331.96999999974,"y":2546797.5500000007}},{"attributes":{"ID":27074,"DIS_CODE":0,"TOWNNAME":"永康區","LI":"東橋里","LIN":"17鄰","STREET":"東橋八街","SECT":" ","MAREA":" ","LANE":"２５巷","ALLEY":"１弄","HOUSE_NO":"１２號","E_COORD97":171327.35999999999,"N_COORD97":2546794.7400000002,"ADDRESS":"東橋八街２５巷１弄１２號","OBJECTID":27074},"geometry":{"x":171327.36000000127,"y":2546794.7400000002}},{"attributes":{"ID":27075,"DIS_CODE":0,"TOWNNAME":"永康區","LI":"東橋里","LIN":"17鄰","STREET":"東橋八街","SECT":" ","MAREA":" ","LANE":"２５巷","ALLEY":"１弄","HOUSE_NO":"１６號","E_COORD97":171322.75,"N_COORD97":2546791.9300000002,"ADDRESS":"東橋八街２５巷１弄１６號","OBJECTID":27075},"geometry":{"x":171322.75000000093,"y":2546791.9300000016}},{"attributes":{"ID":27076,"DIS_CODE":0,"TOWNNAME":"永康區","LI":"東橋里","LIN":"17鄰","STREET":"東橋八街","SECT":" ","MAREA":" ","LANE":"２５巷","ALLEY":"１弄","HOUSE_NO":"１８號","E_COORD97":171318.14000000001,"N_COORD97":2546789.1200000001,"ADDRESS":"東橋八街２５巷１弄１８號","OBJECTID":27076},"geometry":{"x":171318.1400000006,"y":2546789.1200000029}},{"attributes":{"ID":27077,"DIS_CODE":0,"TOWNNAME":"永康區","LI":"東橋里","LIN":"17鄰","STREET":"東橋八街","SECT":" ","MAREA":" ","LANE":"２５巷","ALLEY":"１弄","HOUSE_NO":"２０號","E_COORD97":171312.44,"N_COORD97":2546786.4300000002,"ADDRESS":"東橋八街２５巷１弄２０號","OBJECTID":27077},"geometry":{"x":171312.44000000041,"y":2546786.4299999997}},{"attributes":{"ID":27078,"DIS_CODE":0,"TOWNNAME":"永康區","LI":"東橋里","LIN":"17鄰","STREET":"東橋八街","SECT":" ","MAREA":" ","LANE":"２５巷","ALLEY":"３弄","HOUSE_NO":"１號","E_COORD97":171340.76999999999,"N_COORD97":2546816.3900000001,"ADDRESS":"東橋八街２５巷３弄１號","OBJECTID":27078},"geometry":{"x":171340.77000000048,"y":2546816.3900000025}},{"attributes":{"ID":27079,"DIS_CODE":0,"TOWNNAME":"永康區","LI":"東橋里","LIN":"17鄰","STREET":"東橋八街","SECT":" ","MAREA":" ","LANE":"２５巷","ALLEY":"３弄","HOUSE_NO":"３號","E_COORD97":171336.12,"N_COORD97":2546813.5499999998,"ADDRESS":"東橋八街２５巷３弄３號","OBJECTID":27079},"geometry":{"x":171336.12000000011,"y":2546813.5500000007}},{"attributes":{"ID":27080,"DIS_CODE":0,"TOWNNAME":"新營區","LI":"忠政里","LIN":"25鄰","STREET":"府西路","SECT":" ","MAREA":" ","LANE":" ","ALLEY":" ","HOUSE_NO":"７２之１號","E_COORD97":179816.32000000001,"N_COORD97":2579243.6600000001,"ADDRESS":"府西路７２之１號","OBJECTID":27080},"geometry":{"x":179816.3200000003,"y":2579243.660000002}},{"attributes":{"ID":27081,"DIS_CODE":0,"TOWNNAME":"永康區","LI":"東橋里","LIN":"17鄰","STREET":"東橋八街","SECT":" ","MAREA":" ","LANE":"２５巷","ALLEY":"３弄","HOUSE_NO":"５號","E_COORD97":171331.51000000001,"N_COORD97":2546810.7400000002,"ADDRESS":"東橋八街２５巷３弄５號","OBJECTID":27081},"geometry":{"x":171331.50999999978,"y":2546810.7400000021}},{"attributes":{"ID":27082,"DIS_CODE":0,"TOWNNAME":"新營區","LI":"三仙里","LIN":"13鄰","STREET":"中華路","SECT":" ","MAREA":" ","LANE":" ","ALLEY":" ","HOUSE_NO":"４８號","E_COORD97":179635.09,"N_COORD97":2578211.2000000002,"ADDRESS":"中華路４８號","OBJECTID":27082},"geometry":{"x":179635.09000000078,"y":2578211.2000000011}},{"attributes":{"ID":27083,"DIS_CODE":0,"TOWNNAME":"新營區","LI":"民榮里","LIN":"13鄰","STREET":"新進路","SECT":"二段","MAREA":" ","LANE":" ","ALLEY":" ","HOUSE_NO":"１９７號","E_COORD97":179199.20000000001,"N_COORD97":2577722.6800000002,"ADDRESS":"新進路二段１９７號","OBJECTID":27083},"geometry":{"x":179199.20000000112,"y":2577722.6799999997}},{"attributes":{"ID":27084,"DIS_CODE":0,"TOWNNAME":"新營區","LI":"民榮里","LIN":"13鄰","STREET":"南昌街","SECT":" ","MAREA":" ","LANE":" ","ALLEY":" ","HOUSE_NO":"６６號","E_COORD97":179178.41,"N_COORD97":2577697.3100000001,"ADDRESS":"南昌街６６號","OBJECTID":27084},"geometry":{"x":179178.41000000015,"y":2577697.3100000024}},{"attributes":{"ID":27085,"DIS_CODE":0,"TOWNNAME":"新營區","LI":"中營里","LIN":"14鄰","STREET":"東山路","SECT":" ","MAREA":" ","LANE":" ","ALLEY":" ","HOUSE_NO":"１６３號","E_COORD97":181623.07999999999,"N_COORD97":2578740.1200000001,"ADDRESS":"東山路１６３號","OBJECTID":27085},"geometry":{"x":181623.08000000007,"y":2578740.1200000029}},{"attributes":{"ID":27086,"DIS_CODE":0,"TOWNNAME":"新營區","LI":"民榮里","LIN":"10鄰","STREET":"裕民路","SECT":" ","MAREA":" ","LANE":" ","ALLEY":" ","HOUSE_NO":"２１號","E_COORD97":179218.98999999999,"N_COORD97":2577830.0099999998,"ADDRESS":"裕民路２１號","OBJECTID":27086},"geometry":{"x":179218.99000000115,"y":2577830.0100000016}},{"attributes":{"ID":27087,"DIS_CODE":0,"TOWNNAME":"永康區","LI":"東橋里","LIN":"17鄰","STREET":"東橋八街","SECT":" ","MAREA":" ","LANE":"２５巷","ALLEY":"３弄","HOUSE_NO":"７號","E_COORD97":171326.89999999999,"N_COORD97":2546807.9300000002,"ADDRESS":"東橋八街２５巷３弄７號","OBJECTID":27087},"geometry":{"x":171326.9000000013,"y":2546807.9300000034}},{"attributes":{"ID":27088,"DIS_CODE":0,"TOWNNAME":"新營區","LI":"嘉芳里","LIN":" ","STREET":" ","SECT":" ","MAREA":"茄苳腳","LANE":" ","ALLEY":" ","HOUSE_NO":"３１號","E_COORD97":177013.95000000001,"N_COORD97":2578314.7000000002,"ADDRESS":"茄苳腳３１號","OBJECTID":27088},"geometry":{"x":177013.95000000112,"y":2578314.6999999993}},{"attributes":{"ID":27089,"DIS_CODE":0,"TOWNNAME":"永康區","LI":"東橋里","LIN":"17鄰","STREET":"東橋八街","SECT":" ","MAREA":" ","LANE":"２５巷","ALLEY":"３弄","HOUSE_NO":"９號","E_COORD97":171322.29000000001,"N_COORD97":2546805.1200000001,"ADDRESS":"東橋八街２５巷３弄９號","OBJECTID":27089},"geometry":{"x":171322.29000000097,"y":2546805.1200000029}},{"attributes":{"ID":27090,"DIS_CODE":0,"TOWNNAME":"東區","LI":"後甲里","LIN":"34鄰","STREET":" ","SECT":" ","MAREA":"精忠三村","LANE":" ","ALLEY":" ","HOUSE_NO":"１號之１３","E_COORD97":171749.5,"N_COORD97":2543528.9300000002,"ADDRESS":"精忠三村１號之１３","OBJECTID":27090},"geometry":{"x":171749.50000000186,"y":2543528.9299999997}},{"attributes":{"ID":27091,"DIS_CODE":0,"TOWNNAME":"永康區","LI":"東橋里","LIN":"17鄰","STREET":"東橋八街","SECT":" ","MAREA":" ","LANE":"２５巷","ALLEY":"３弄","HOUSE_NO":"１１號","E_COORD97":171317.67999999999,"N_COORD97":2546802.3100000001,"ADDRESS":"東橋八街２５巷３弄１１號","OBJECTID":27091},"geometry":{"x":171317.68000000063,"y":2546802.3100000005}},{"attributes":{"ID":27092,"DIS_CODE":0,"TOWNNAME":"永康區","LI":"\u25A0行里","LIN":"34鄰","STREET":"中正北路","SECT":" ","MAREA":" ","LANE":" ","ALLEY":" ","HOUSE_NO":"１１１之１號","E_COORD97":172165.12,"N_COORD97":2549112.1000000001,"ADDRESS":"中正北路１１１之１號","OBJECTID":27092},"geometry":{"x":172165.12000000011,"y":2549112.1000000034}},{"attributes":{"ID":27093,"DIS_CODE":0,"TOWNNAME":"新營區","LI":"延平里","LIN":"5鄰","STREET":"長春街","SECT":" ","MAREA":" ","LANE":" ","ALLEY":" ","HOUSE_NO":"１４號","E_COORD97":179754.98494299999,"N_COORD97":2577922.3919299999,"ADDRESS":"長春街１４號","OBJECTID":27093},"geometry":{"x":179754.9849430006,"y":2577922.3919290025}},{"attributes":{"ID":27094,"DIS_CODE":0,"TOWNNAME":"永康區","LI":"\u25A0行里","LIN":"34鄰","STREET":"中正北路","SECT":" ","MAREA":" ","LANE":" ","ALLEY":" ","HOUSE_NO":"１１１號","E_COORD97":172165.12,"N_COORD97":2549112.1000000001,"ADDRESS":"中正北路１１１號","OBJECTID":27094},"geometry":{"x":172165.12000000011,"y":2549112.1000000034}},{"attributes":{"ID":27095,"DIS_CODE":0,"TOWNNAME":"東區","LI":"後甲里","LIN":"34鄰","STREET":"裕農路","SECT":" ","MAREA":" ","LANE":" ","ALLEY":" ","HOUSE_NO":"１３７號之３","E_COORD97":171510.12,"N_COORD97":2543540.3399999999,"ADDRESS":"裕農路１３７號之３","OBJECTID":27095},"geometry":{"x":171510.12000000104,"y":2543540.3400000036}},{"attributes":{"ID":27096,"DIS_CODE":0,"TOWNNAME":"東區","LI":"後甲里","LIN":"34鄰","STREET":" ","SECT":" ","MAREA":"精忠三村","LANE":" ","ALLEY":" ","HOUSE_NO":"１號之５２","E_COORD97":171747.39999999999,"N_COORD97":2543650.0499999998,"ADDRESS":"精忠三村１號之５２","OBJECTID":27096},"geometry":{"x":171747.4000000013,"y":2543650.0500000026}},{"attributes":{"ID":27097,"DIS_CODE":0,"TOWNNAME":"東區","LI":"後甲里","LIN":"34鄰","STREET":" ","SECT":" ","MAREA":"精忠三村","LANE":" ","ALLEY":" ","HOUSE_NO":"４８號","E_COORD97":171747.60999999999,"N_COORD97":2543629.1000000001,"ADDRESS":"精忠三村４８號","OBJECTID":27097},"geometry":{"x":171747.61000000127,"y":2543629.0999999996}},{"attributes":{"ID":27098,"DIS_CODE":0,"TOWNNAME":"永康區","LI":"東橋里","LIN":"17鄰","STREET":"東橋八街","SECT":" ","MAREA":" ","LANE":"２５巷","ALLEY":"３弄","HOUSE_NO":"１３號","E_COORD97":171313.07000000001,"N_COORD97":2546799.5,"ADDRESS":"東橋八街２５巷３弄１３號","OBJECTID":27098},"geometry":{"x":171313.0700000003,"y":2546799.5}},{"attributes":{"ID":27099,"DIS_CODE":0,"TOWNNAME":"永康區","LI":"東橋里","LIN":"17鄰","STREET":"東橋八街","SECT":" ","MAREA":" ","LANE":"２５巷","ALLEY":"３弄","HOUSE_NO":"１５號","E_COORD97":171307.48000000001,"N_COORD97":2546796.4399999999,"ADDRESS":"東橋八街２５巷３弄１５號","OBJECTID":27099},"geometry":{"x":171307.48000000045,"y":2546796.4399999995}},{"attributes":{"ID":27100,"DIS_CODE":0,"TOWNNAME":"新營區","LI":"嘉芳里","LIN":" ","STREET":" ","SECT":" ","MAREA":"茄苳腳","LANE":" ","ALLEY":" ","HOUSE_NO":"２９之８號","E_COORD97":177044.10999999999,"N_COORD97":2578325.6899999999,"ADDRESS":"茄苳腳２９之８號","OBJECTID":27100},"geometry":{"x":177044.11000000034,"y":2578325.6899999995}},{"attributes":{"ID":27101,"DIS_CODE":0,"TOWNNAME":"東區","LI":"後甲里","LIN":"34鄰","STREET":" ","SECT":" ","MAREA":" ","LANE":" ","ALLEY":" ","HOUSE_NO":"１號之１１","E_COORD97":171748.26999999999,"N_COORD97":2543518.0299999998,"ADDRESS":"１號之１１","OBJECTID":27101},"geometry":{"x":171748.26999999955,"y":2543518.0299999975}},{"attributes":{"ID":27102,"DIS_CODE":0,"TOWNNAME":"東區","LI":"後甲里","LIN":"34鄰","STREET":" ","SECT":" ","MAREA":" ","LANE":" ","ALLEY":" ","HOUSE_NO":"１號之１０","E_COORD97":171748.06,"N_COORD97":2543515.0600000001,"ADDRESS":"１號之１０","OBJECTID":27102},"geometry":{"x":171748.05999999959,"y":2543515.0600000005}},{"attributes":{"ID":27103,"DIS_CODE":0,"TOWNNAME":"東區","LI":"後甲里","LIN":"34鄰","STREET":" ","SECT":" ","MAREA":" ","LANE":" ","ALLEY":" ","HOUSE_NO":"１號之９","E_COORD97":171748.26999999999,"N_COORD97":2543511.4700000002,"ADDRESS":"１號之９","OBJECTID":27103},"geometry":{"x":171748.26999999955,"y":2543511.4700000025}},{"attributes":{"ID":27104,"DIS_CODE":0,"TOWNNAME":"東區","LI":"後甲里","LIN":"34鄰","STREET":" ","SECT":" ","MAREA":" ","LANE":" ","ALLEY":" ","HOUSE_NO":"１號之８","E_COORD97":171747.85000000001,"N_COORD97":2543507.02,"ADDRESS":"１號之８","OBJECTID":27104},"geometry":{"x":171747.84999999963,"y":2543507.0199999996}},{"attributes":{"ID":27105,"DIS_CODE":0,"TOWNNAME":"東區","LI":"後甲里","LIN":"34鄰","STREET":" ","SECT":" ","MAREA":" ","LANE":" ","ALLEY":" ","HOUSE_NO":"１號之７","E_COORD97":171748.70000000001,"N_COORD97":2543503.4199999999,"ADDRESS":"１號之７","OBJECTID":27105},"geometry":{"x":171748.70000000112,"y":2543503.4200000018}},{"attributes":{"ID":27106,"DIS_CODE":0,"TOWNNAME":"東區","LI":"後甲里","LIN":"34鄰","STREET":" ","SECT":" ","MAREA":" ","LANE":" ","ALLEY":" ","HOUSE_NO":"１號之６","E_COORD97":171748.48000000001,"N_COORD97":2543500.46,"ADDRESS":"１號之６","OBJECTID":27106},"geometry":{"x":171748.48000000231,"y":2543500.4600000028}},{"attributes":{"ID":27107,"DIS_CODE":0,"TOWNNAME":"玉井區","LI":"望明里","LIN":"8鄰","STREET":" ","SECT":" ","MAREA":"望明","LANE":" ","ALLEY":" ","HOUSE_NO":"８９之２２號","E_COORD97":193534.48000000001,"N_COORD97":2556465.2999999998,"ADDRESS":"望明８９之２２號","OBJECTID":27107},"geometry":{"x":193534.48000000045,"y":2556465.3000000007}},{"attributes":{"ID":27108,"DIS_CODE":0,"TOWNNAME":"玉井區","LI":"望明里","LIN":"8鄰","STREET":" ","SECT":" ","MAREA":"望明","LANE":" ","ALLEY":" ","HOUSE_NO":"８９之２５號","E_COORD97":193535.29000000001,"N_COORD97":2556436.29,"ADDRESS":"望明８９之２５號","OBJECTID":27108},"geometry":{"x":193535.29000000004,"y":2556436.2899999991}},{"attributes":{"ID":27109,"DIS_CODE":0,"TOWNNAME":"玉井區","LI":"豐里里","LIN":"8鄰","STREET":" ","SECT":" ","MAREA":"豐里","LANE":" ","ALLEY":" ","HOUSE_NO":"７４之９號","E_COORD97":192862.95999999999,"N_COORD97":2559005.29,"ADDRESS":"豐里７４之９號","OBJECTID":27109},"geometry":{"x":192862.95999999996,"y":2559005.2899999991}},{"attributes":{"ID":27110,"DIS_CODE":0,"TOWNNAME":"永康區","LI":"東橋里","LIN":"17鄰","STREET":"東橋八街","SECT":" ","MAREA":" ","LANE":"２５巷","ALLEY":"３弄","HOUSE_NO":"２號","E_COORD97":171329.79999999999,"N_COORD97":2546834.8199999998,"ADDRESS":"東橋八街２５巷３弄２號","OBJECTID":27110},"geometry":{"x":171329.79999999981,"y":2546834.8200000003}},{"attributes":{"ID":27111,"DIS_CODE":0,"TOWNNAME":"玉井區","LI":"豐里里","LIN":"8鄰","STREET":" ","SECT":" ","MAREA":"豐里","LANE":" ","ALLEY":" ","HOUSE_NO":"８３之１號","E_COORD97":192582.66,"N_COORD97":2559488.2999999998,"ADDRESS":"豐里８３之１號","OBJECTID":27111},"geometry":{"x":192582.66000000108,"y":2559488.3000000007}},{"attributes":{"ID":27112,"DIS_CODE":0,"TOWNNAME":"永康區","LI":"東橋里","LIN":"17鄰","STREET":"東橋八街","SECT":" ","MAREA":" ","LANE":"２５巷","ALLEY":"３弄","HOUSE_NO":"６號","E_COORD97":171326.25,"N_COORD97":2546830.1000000001,"ADDRESS":"東橋八街２５巷３弄６號","OBJECTID":27112},"geometry":{"x":171326.25000000093,"y":2546830.0999999996}},{"attributes":{"ID":27113,"DIS_CODE":0,"TOWNNAME":"永康區","LI":"東橋里","LIN":"17鄰","STREET":"東橋八街","SECT":" ","MAREA":" ","LANE":"２５巷","ALLEY":"３弄","HOUSE_NO":"８號","E_COORD97":171320.32999999999,"N_COORD97":2546828.9199999999,"ADDRESS":"東橋八街２５巷３弄８號","OBJECTID":27113},"geometry":{"x":171320.33000000101,"y":2546828.9200000018}},{"attributes":{"ID":27114,"DIS_CODE":0,"TOWNNAME":"永康區","LI":"東橋里","LIN":"17鄰","STREET":"東橋八街","SECT":" ","MAREA":" ","LANE":"２５巷","ALLEY":"３弄","HOUSE_NO":"１０號","E_COORD97":171317.57000000001,"N_COORD97":2546823.2400000002,"ADDRESS":"東橋八街２５巷３弄１０號","OBJECTID":27114},"geometry":{"x":171317.57000000123,"y":2546823.2400000039}},{"attributes":{"ID":27115,"DIS_CODE":0,"TOWNNAME":"永康區","LI":"東橋里","LIN":"17鄰","STREET":"東橋八街","SECT":" ","MAREA":" ","LANE":"２５巷","ALLEY":"３弄","HOUSE_NO":"１２號","E_COORD97":171312.97,"N_COORD97":2546820.4100000001,"ADDRESS":"東橋八街２５巷３弄１２號","OBJECTID":27115},"geometry":{"x":171312.96999999974,"y":2546820.4100000001}},{"attributes":{"ID":27116,"DIS_CODE":0,"TOWNNAME":"永康區","LI":"東橋里","LIN":"17鄰","STREET":"東橋八街","SECT":" ","MAREA":" ","LANE":"２５巷","ALLEY":"３弄","HOUSE_NO":"１６號","E_COORD97":171308.38,"N_COORD97":2546817.5699999998,"ADDRESS":"東橋八街２５巷３弄１６號","OBJECTID":27116},"geometry":{"x":171308.38000000082,"y":2546817.5699999984}},{"attributes":{"ID":27117,"DIS_CODE":0,"TOWNNAME":"永康區","LI":"東橋里","LIN":"17鄰","STREET":"東橋八街","SECT":" ","MAREA":" ","LANE":"２５巷","ALLEY":"３弄","HOUSE_NO":"１８號","E_COORD97":171303.78,"N_COORD97":2546814.73,"ADDRESS":"東橋八街２５巷３弄１８號","OBJECTID":27117},"geometry":{"x":171303.78000000212,"y":2546814.7300000023}},{"attributes":{"ID":27118,"DIS_CODE":0,"TOWNNAME":"永康區","LI":"東橋里","LIN":"17鄰","STREET":"東橋八街","SECT":" ","MAREA":" ","LANE":"２５巷","ALLEY":"３弄","HOUSE_NO":"２０號","E_COORD97":171296.72,"N_COORD97":2546812.5800000001,"ADDRESS":"東橋八街２５巷３弄２０號","OBJECTID":27118},"geometry":{"x":171296.7200000016,"y":2546812.5800000001}},{"attributes":{"ID":27119,"DIS_CODE":0,"TOWNNAME":"永康區","LI":"東橋里","LIN":"17鄰","STREET":"東橋八街","SECT":" ","MAREA":" ","LANE":"２５巷","ALLEY":"２弄","HOUSE_NO":"２號","E_COORD97":171366.98999999999,"N_COORD97":2546799.7599999998,"ADDRESS":"東橋八街２５巷２弄２號","OBJECTID":27119},"geometry":{"x":171366.99000000115,"y":2546799.7600000016}},{"attributes":{"ID":27120,"DIS_CODE":0,"TOWNNAME":"永康區","LI":"東橋里","LIN":"17鄰","STREET":"東橋八街","SECT":" ","MAREA":" ","LANE":"２５巷","ALLEY":"２弄","HOUSE_NO":"６號","E_COORD97":171371.38,"N_COORD97":2546802.4399999999,"ADDRESS":"東橋八街２５巷２弄６號","OBJECTID":27120},"geometry":{"x":171371.37999999989,"y":2546802.4400000013}},{"attributes":{"ID":27121,"DIS_CODE":0,"TOWNNAME":"永康區","LI":"東橋里","LIN":"17鄰","STREET":"東橋八街","SECT":" ","MAREA":" ","LANE":"２５巷","ALLEY":"２弄","HOUSE_NO":"８號","E_COORD97":171375.73999999999,"N_COORD97":2546805.1000000001,"ADDRESS":"東橋八街２５巷２弄８號","OBJECTID":27121},"geometry":{"x":171375.74000000115,"y":2546805.0999999996}},{"attributes":{"ID":27122,"DIS_CODE":0,"TOWNNAME":"永康區","LI":"東橋里","LIN":"17鄰","STREET":"東橋八街","SECT":" ","MAREA":" ","LANE":"２５巷","ALLEY":"２弄","HOUSE_NO":"１０號","E_COORD97":171380.10999999999,"N_COORD97":2546807.7599999998,"ADDRESS":"東橋八街２５巷２弄１０號","OBJECTID":27122},"geometry":{"x":171380.11000000127,"y":2546807.7599999998}},{"attributes":{"ID":27123,"DIS_CODE":0,"TOWNNAME":"永康區","LI":"東橋里","LIN":"17鄰","STREET":"東橋八街","SECT":" ","MAREA":" ","LANE":"２５巷","ALLEY":"２弄","HOUSE_NO":"１２號","E_COORD97":171384.47,"N_COORD97":2546810.4100000001,"ADDRESS":"東橋八街２５巷２弄１２號","OBJECTID":27123},"geometry":{"x":171384.46999999974,"y":2546810.4100000001}},{"attributes":{"ID":27124,"DIS_CODE":0,"TOWNNAME":"永康區","LI":"東橋里","LIN":"17鄰","STREET":"東橋八街","SECT":" ","MAREA":" ","LANE":"２５巷","ALLEY":"２弄","HOUSE_NO":"１６號","E_COORD97":171389.60000000001,"N_COORD97":2546812.5800000001,"ADDRESS":"東橋八街２５巷２弄１６號","OBJECTID":27124},"geometry":{"x":171389.60000000056,"y":2546812.5800000001}},{"attributes":{"ID":27125,"DIS_CODE":0,"TOWNNAME":"永康區","LI":"東橋里","LIN":"17鄰","STREET":"東橋八街","SECT":" ","MAREA":" ","LANE":"２５巷","ALLEY":"２弄","HOUSE_NO":"１８號","E_COORD97":171394.19,"N_COORD97":2546817.6899999999,"ADDRESS":"東橋八街２５巷２弄１８號","OBJECTID":27125},"geometry":{"x":171394.18999999948,"y":2546817.6900000013}},{"attributes":{"ID":27126,"DIS_CODE":0,"TOWNNAME":"學甲區","LI":"三慶里","LIN":"8鄰","STREET":" ","SECT":" ","MAREA":"頂洲","LANE":" ","ALLEY":" ","HOUSE_NO":"９６號","E_COORD97":168476.19,"N_COORD97":2576341.9700000002,"ADDRESS":"頂洲９６號","OBJECTID":27126},"geometry":{"x":168476.19000000041,"y":2576341.9700000007}},{"attributes":{"ID":27127,"DIS_CODE":0,"TOWNNAME":"鹽水區","LI":"後宅里","LIN":"8鄰","STREET":" ","SECT":" ","MAREA":"番子寮","LANE":" ","ALLEY":" ","HOUSE_NO":"３４之２號","E_COORD97":171821.10999999999,"N_COORD97":2578240.2599999998,"ADDRESS":"番子寮３４之２號","OBJECTID":27127},"geometry":{"x":171821.11000000127,"y":2578240.2599999998}},{"attributes":{"ID":27128,"DIS_CODE":0,"TOWNNAME":"鹽水區","LI":"義稠里","LIN":"8鄰","STREET":" ","SECT":" ","MAREA":"義稠","LANE":" ","ALLEY":" ","HOUSE_NO":"１０７之７號","E_COORD97":173855.73999999999,"N_COORD97":2580622.7200000002,"ADDRESS":"義稠１０７之７號","OBJECTID":27128},"geometry":{"x":173855.74000000115,"y":2580622.7200000044}},{"attributes":{"ID":27129,"DIS_CODE":0,"TOWNNAME":"學甲區","LI":"新榮里","LIN":"8鄰","STREET":" ","SECT":" ","MAREA":"東竹圍","LANE":" ","ALLEY":" ","HOUSE_NO":"２８號之２","E_COORD97":166738.87,"N_COORD97":2570122.3900000001,"ADDRESS":"東竹圍２８號之２","OBJECTID":27129},"geometry":{"x":166738.87000000011,"y":2570122.3900000025}},{"attributes":{"ID":27130,"DIS_CODE":0,"TOWNNAME":"學甲區","LI":"新榮里","LIN":"8鄰","STREET":" ","SECT":" ","MAREA":"東竹圍","LANE":" ","ALLEY":" ","HOUSE_NO":"２８號之３","E_COORD97":166738.89999999999,"N_COORD97":2570118.25,"ADDRESS":"東竹圍２８號之３","OBJECTID":27130},"geometry":{"x":166738.90000000037,"y":2570118.2500000037}},{"attributes":{"ID":27131,"DIS_CODE":0,"TOWNNAME":"學甲區","LI":"新榮里","LIN":"8鄰","STREET":" ","SECT":" ","MAREA":"東竹圍","LANE":" ","ALLEY":" ","HOUSE_NO":"１６號之１４","E_COORD97":166894.34,"N_COORD97":2569979.8100000001,"ADDRESS":"東竹圍１６號之１４","OBJECTID":27131},"geometry":{"x":166894.34000000078,"y":2569979.8100000024}},{"attributes":{"ID":27132,"DIS_CODE":0,"TOWNNAME":"學甲區","LI":"新榮里","LIN":"8鄰","STREET":" ","SECT":" ","MAREA":"東竹圍","LANE":" ","ALLEY":" ","HOUSE_NO":"１６號之１５","E_COORD97":166866.17000000001,"N_COORD97":2569968.6899999999,"ADDRESS":"東竹圍１６號之１５","OBJECTID":27132},"geometry":{"x":166866.17000000179,"y":2569968.6899999995}},{"attributes":{"ID":27133,"DIS_CODE":0,"TOWNNAME":"學甲區","LI":"新榮里","LIN":"8鄰","STREET":" ","SECT":" ","MAREA":"東竹圍","LANE":" ","ALLEY":" ","HOUSE_NO":"１６號之１６","E_COORD97":166867.03,"N_COORD97":2569961.7599999998,"ADDRESS":"東竹圍１６號之１６","OBJECTID":27133},"geometry":{"x":166867.03000000026,"y":2569961.7599999998}},{"attributes":{"ID":27134,"DIS_CODE":0,"TOWNNAME":"學甲區","LI":"新榮里","LIN":"8鄰","STREET":" ","SECT":" ","MAREA":"東竹圍","LANE":" ","ALLEY":" ","HOUSE_NO":"１６號之１７","E_COORD97":166868.16,"N_COORD97":2569954.7999999998,"ADDRESS":"東竹圍１６號之１７","OBJECTID":27134},"geometry":{"x":166868.16000000201,"y":2569954.8000000007}},{"attributes":{"ID":27135,"DIS_CODE":0,"TOWNNAME":"永康區","LI":"永康里","LIN":"34鄰","STREET":"永康街","SECT":" ","MAREA":" ","LANE":" ","ALLEY":" ","HOUSE_NO":"３５８號","E_COORD97":174350.42999999999,"N_COORD97":2547055.0600000001,"ADDRESS":"永康街３５８號","OBJECTID":27135},"geometry":{"x":174350.43000000063,"y":2547055.0600000005}},{"attributes":{"ID":27136,"DIS_CODE":0,"TOWNNAME":"新化區","LI":"東榮里","LIN":"34鄰","STREET":"中山路","SECT":" ","MAREA":" ","LANE":" ","ALLEY":" ","HOUSE_NO":"２２３號","E_COORD97":179164.10999999999,"N_COORD97":2548439.25,"ADDRESS":"中山路２２３號","OBJECTID":27136},"geometry":{"x":179164.11000000127,"y":2548439.25}},{"attributes":{"ID":27137,"DIS_CODE":0,"TOWNNAME":"仁德區","LI":"太子里","LIN":"34鄰","STREET":"土庫路","SECT":" ","MAREA":" ","LANE":" ","ALLEY":" ","HOUSE_NO":"１號","E_COORD97":174194.42999999999,"N_COORD97":2543475.7400000002,"ADDRESS":"土庫路１號","OBJECTID":27137},"geometry":{"x":174194.43000000063,"y":2543475.7400000002}},{"attributes":{"ID":27138,"DIS_CODE":0,"TOWNNAME":"學甲區","LI":"新榮里","LIN":"8鄰","STREET":" ","SECT":" ","MAREA":"東竹圍","LANE":" ","ALLEY":" ","HOUSE_NO":"１６號之１８","E_COORD97":166869.09,"N_COORD97":2569948,"ADDRESS":"東竹圍１６號之１８","OBJECTID":27138},"geometry":{"x":166869.09000000078,"y":2569948.0000000019}},{"attributes":{"ID":27139,"DIS_CODE":0,"TOWNNAME":"學甲區","LI":"新榮里","LIN":"8鄰","STREET":" ","SECT":" ","MAREA":"東竹圍","LANE":" ","ALLEY":" ","HOUSE_NO":"１６號之１９","E_COORD97":166870.10000000001,"N_COORD97":2569940.8700000001,"ADDRESS":"東竹圍１６號之１９","OBJECTID":27139},"geometry":{"x":166870.10000000056,"y":2569940.870000001}},{"attributes":{"ID":27140,"DIS_CODE":0,"TOWNNAME":"學甲區","LI":"新榮里","LIN":"8鄰","STREET":" ","SECT":" ","MAREA":"東竹圍","LANE":" ","ALLEY":" ","HOUSE_NO":"１６號之１","E_COORD97":166871.16,"N_COORD97":2570003.04,"ADDRESS":"東竹圍１６號之１","OBJECTID":27140},"geometry":{"x":166871.16000000015,"y":2570003.0399999991}},{"attributes":{"ID":27141,"DIS_CODE":0,"TOWNNAME":"學甲區","LI":"新榮里","LIN":"8鄰","STREET":" ","SECT":" ","MAREA":"東竹圍","LANE":" ","ALLEY":" ","HOUSE_NO":"１６號之２０","E_COORD97":166884.60000000001,"N_COORD97":2569968.8700000001,"ADDRESS":"東竹圍１６號之２０","OBJECTID":27141},"geometry":{"x":166884.59999999963,"y":2569968.870000001}},{"attributes":{"ID":27142,"DIS_CODE":0,"TOWNNAME":"永康區","LI":"東橋里","LIN":"17鄰","STREET":"東橋八街","SECT":" ","MAREA":" ","LANE":"２５巷","ALLEY":"２弄","HOUSE_NO":"１號","E_COORD97":171359.04999999999,"N_COORD97":2546814.0600000001,"ADDRESS":"東橋八街２５巷２弄１號","OBJECTID":27142},"geometry":{"x":171359.05000000168,"y":2546814.0600000005}},{"attributes":{"ID":27143,"DIS_CODE":0,"TOWNNAME":"學甲區","LI":"新榮里","LIN":"8鄰","STREET":" ","SECT":" ","MAREA":"東竹圍","LANE":" ","ALLEY":" ","HOUSE_NO":"１６號之２１","E_COORD97":166884.89000000001,"N_COORD97":2569964.8100000001,"ADDRESS":"東竹圍１６號之２１","OBJECTID":27143},"geometry":{"x":166884.8900000006,"y":2569964.8100000005}},{"attributes":{"ID":27144,"DIS_CODE":0,"TOWNNAME":"學甲區","LI":"新榮里","LIN":"8鄰","STREET":" ","SECT":" ","MAREA":"東竹圍","LANE":" ","ALLEY":" ","HOUSE_NO":"１６號之２２","E_COORD97":166885.41,"N_COORD97":2569961.21,"ADDRESS":"東竹圍１６號之２２","OBJECTID":27144},"geometry":{"x":166885.41000000108,"y":2569961.2100000028}},{"attributes":{"ID":27145,"DIS_CODE":0,"TOWNNAME":"學甲區","LI":"新榮里","LIN":"8鄰","STREET":" ","SECT":" ","MAREA":"東竹圍","LANE":" ","ALLEY":" ","HOUSE_NO":"１６號之２３","E_COORD97":166886.23999999999,"N_COORD97":2569957.8100000001,"ADDRESS":"東竹圍１６號之２３","OBJECTID":27145},"geometry":{"x":166886.24000000209,"y":2569957.8100000005}},{"attributes":{"ID":27146,"DIS_CODE":0,"TOWNNAME":"永康區","LI":"東橋里","LIN":"17鄰","STREET":"東橋八街","SECT":" ","MAREA":" ","LANE":"２５巷","ALLEY":"２弄","HOUSE_NO":"３號","E_COORD97":171360.85000000001,"N_COORD97":2546818.75,"ADDRESS":"東橋八街２５巷２弄３號","OBJECTID":27146},"geometry":{"x":171360.85000000056,"y":2546818.75}},{"attributes":{"ID":27147,"DIS_CODE":0,"TOWNNAME":"永康區","LI":"東橋里","LIN":"17鄰","STREET":"東橋八街","SECT":" ","MAREA":" ","LANE":"２５巷","ALLEY":"２弄","HOUSE_NO":"５號","E_COORD97":171365.41,"N_COORD97":2546821.54,"ADDRESS":"東橋八街２５巷２弄５號","OBJECTID":27147},"geometry":{"x":171365.41000000201,"y":2546821.540000001}},{"attributes":{"ID":27148,"DIS_CODE":0,"TOWNNAME":"永康區","LI":"東橋里","LIN":"17鄰","STREET":"東橋八街","SECT":" ","MAREA":" ","LANE":"２５巷","ALLEY":"２弄","HOUSE_NO":"７號","E_COORD97":171369.92000000001,"N_COORD97":2546824.2799999998,"ADDRESS":"東橋八街２５巷２弄７號","OBJECTID":27148},"geometry":{"x":171369.91999999993,"y":2546824.2799999993}},{"attributes":{"ID":27149,"DIS_CODE":0,"TOWNNAME":"永康區","LI":"東橋里","LIN":"17鄰","STREET":"東橋八街","SECT":" ","MAREA":" ","LANE":"２５巷","ALLEY":"２弄","HOUSE_NO":"９號","E_COORD97":171374.42000000001,"N_COORD97":2546827.0299999998,"ADDRESS":"東橋八街２５巷２弄９號","OBJECTID":27149},"geometry":{"x":171374.42000000086,"y":2546827.0299999975}},{"attributes":{"ID":27150,"DIS_CODE":0,"TOWNNAME":"永康區","LI":"東橋里","LIN":"17鄰","STREET":"東橋八街","SECT":" ","MAREA":" ","LANE":"２５巷","ALLEY":"２弄","HOUSE_NO":"１１號","E_COORD97":171378.92000000001,"N_COORD97":2546829.7799999998,"ADDRESS":"東橋八街２５巷２弄１１號","OBJECTID":27150},"geometry":{"x":171378.92000000086,"y":2546829.7800000012}},{"attributes":{"ID":27151,"DIS_CODE":0,"TOWNNAME":"永康區","LI":"東橋里","LIN":"17鄰","STREET":"東橋八街","SECT":" ","MAREA":" ","LANE":"２５巷","ALLEY":"２弄","HOUSE_NO":"１３號","E_COORD97":171384.95000000001,"N_COORD97":2546833.4500000002,"ADDRESS":"東橋八街２５巷２弄１３號","OBJECTID":27151},"geometry":{"x":171384.95000000019,"y":2546833.4499999993}},{"attributes":{"ID":27152,"DIS_CODE":0,"TOWNNAME":"永康區","LI":"東橋里","LIN":"17鄰","STREET":"東橋八街","SECT":" ","MAREA":" ","LANE":"２５巷","ALLEY":"６弄","HOUSE_NO":"２號","E_COORD97":171352.17000000001,"N_COORD97":2546824.6899999999,"ADDRESS":"東橋八街２５巷６弄２號","OBJECTID":27152},"geometry":{"x":171352.17000000086,"y":2546824.6899999995}},{"attributes":{"ID":27153,"DIS_CODE":0,"TOWNNAME":"永康區","LI":"東橋里","LIN":"17鄰","STREET":"東橋八街","SECT":" ","MAREA":" ","LANE":"２５巷","ALLEY":"６弄","HOUSE_NO":"６號","E_COORD97":171357.12,"N_COORD97":2546827.7000000002,"ADDRESS":"東橋八街２５巷６弄６號","OBJECTID":27153},"geometry":{"x":171357.12000000197,"y":2546827.6999999993}},{"attributes":{"ID":27154,"DIS_CODE":0,"TOWNNAME":"永康區","LI":"東橋里","LIN":"17鄰","STREET":"東橋八街","SECT":" ","MAREA":" ","LANE":"２５巷","ALLEY":"６弄","HOUSE_NO":"８號","E_COORD97":171361.89999999999,"N_COORD97":2546830.6200000001,"ADDRESS":"東橋八街２５巷６弄８號","OBJECTID":27154},"geometry":{"x":171361.90000000037,"y":2546830.620000001}},{"attributes":{"ID":27155,"DIS_CODE":0,"TOWNNAME":"永康區","LI":"東橋里","LIN":"17鄰","STREET":"東橋八街","SECT":" ","MAREA":" ","LANE":"２５巷","ALLEY":"６弄","HOUSE_NO":"１０號","E_COORD97":171366.48999999999,"N_COORD97":2546833.4199999999,"ADDRESS":"東橋八街２５巷６弄１０號","OBJECTID":27155},"geometry":{"x":171366.49000000022,"y":2546833.4200000018}},{"attributes":{"ID":27156,"DIS_CODE":0,"TOWNNAME":"學甲區","LI":"新榮里","LIN":"8鄰","STREET":" ","SECT":" ","MAREA":"東竹圍","LANE":" ","ALLEY":" ","HOUSE_NO":"１６號","E_COORD97":166868.35000000001,"N_COORD97":2570034.3100000001,"ADDRESS":"東竹圍１６號","OBJECTID":27156},"geometry":{"x":166868.35000000056,"y":2570034.3100000024}},{"attributes":{"ID":27157,"DIS_CODE":0,"TOWNNAME":"永康區","LI":"東橋里","LIN":"17鄰","STREET":"東橋八街","SECT":" ","MAREA":" ","LANE":"２５巷","ALLEY":"６弄","HOUSE_NO":"１２號","E_COORD97":171371.07999999999,"N_COORD97":2546836.2200000002,"ADDRESS":"東橋八街２５巷６弄１２號","OBJECTID":27157},"geometry":{"x":171371.08000000194,"y":2546836.2200000007}},{"attributes":{"ID":27158,"DIS_CODE":0,"TOWNNAME":"永康區","LI":"東橋里","LIN":"17鄰","STREET":"東橋八街","SECT":" ","MAREA":" ","LANE":"２５巷","ALLEY":"６弄","HOUSE_NO":"１６號","E_COORD97":171375.66,"N_COORD97":2546839.0099999998,"ADDRESS":"東橋八街２５巷６弄１６號","OBJECTID":27158},"geometry":{"x":171375.66000000201,"y":2546839.0100000016}},{"attributes":{"ID":27159,"DIS_CODE":0,"TOWNNAME":"永康區","LI":"東橋里","LIN":"17鄰","STREET":"東橋八街","SECT":" ","MAREA":" ","LANE":"２５巷","ALLEY":"６弄","HOUSE_NO":"１８號","E_COORD97":171380.72,"N_COORD97":2546843.4399999999,"ADDRESS":"東橋八街２５巷６弄１８號","OBJECTID":27159},"geometry":{"x":171380.71999999974,"y":2546843.4399999995}},{"attributes":{"ID":27160,"DIS_CODE":0,"TOWNNAME":"永康區","LI":"東橋里","LIN":"17鄰","STREET":"東橋八街","SECT":" ","MAREA":" ","LANE":"２５巷","ALLEY":"６弄","HOUSE_NO":"１號","E_COORD97":171342.98000000001,"N_COORD97":2546840.46,"ADDRESS":"東橋八街２５巷６弄１號","OBJECTID":27160},"geometry":{"x":171342.98000000045,"y":2546840.4600000028}},{"attributes":{"ID":27161,"DIS_CODE":0,"TOWNNAME":"學甲區","LI":"新榮里","LIN":"8鄰","STREET":" ","SECT":" ","MAREA":"東竹圍","LANE":" ","ALLEY":" ","HOUSE_NO":"１６號之２４","E_COORD97":166886.89999999999,"N_COORD97":2569953.1600000001,"ADDRESS":"東竹圍１６號之２４","OBJECTID":27161},"geometry":{"x":166886.90000000037,"y":2569953.1600000039}},{"attributes":{"ID":27162,"DIS_CODE":0,"TOWNNAME":"永康區","LI":"東橋里","LIN":"17鄰","STREET":"東橋八街","SECT":" ","MAREA":" ","LANE":"２５巷","ALLEY":"６弄","HOUSE_NO":"３號","E_COORD97":171347.95000000001,"N_COORD97":2546843.54,"ADDRESS":"東橋八街２５巷６弄３號","OBJECTID":27162},"geometry":{"x":171347.95000000019,"y":2546843.5399999991}},{"attributes":{"ID":27163,"DIS_CODE":0,"TOWNNAME":"永康區","LI":"東橋里","LIN":"17鄰","STREET":"東橋八街","SECT":" ","MAREA":" ","LANE":"２５巷","ALLEY":"６弄","HOUSE_NO":"５號","E_COORD97":171352.70999999999,"N_COORD97":2546846.4900000002,"ADDRESS":"東橋八街２５巷６弄５號","OBJECTID":27163},"geometry":{"x":171352.70999999996,"y":2546846.4900000021}},{"attributes":{"ID":27164,"DIS_CODE":0,"TOWNNAME":"仁德區","LI":"太子里","LIN":"34鄰","STREET":"土庫路","SECT":" ","MAREA":" ","LANE":" ","ALLEY":" ","HOUSE_NO":"１７號","E_COORD97":174201.16,"N_COORD97":2543433,"ADDRESS":"土庫路１７號","OBJECTID":27164},"geometry":{"x":174201.16000000015,"y":2543433}},{"attributes":{"ID":27165,"DIS_CODE":0,"TOWNNAME":"仁德區","LI":"仁德里","LIN":"34鄰","STREET":"中山路","SECT":" ","MAREA":" ","LANE":" ","ALLEY":" ","HOUSE_NO":"７３６號","E_COORD97":172727.39000000001,"N_COORD97":2541520.2400000002,"ADDRESS":"中山路７３６號","OBJECTID":27165},"geometry":{"x":172727.38999999966,"y":2541520.2400000002}},{"attributes":{"ID":27166,"DIS_CODE":0,"TOWNNAME":"仁德區","LI":"仁義里","LIN":"34鄰","STREET":"正義二街","SECT":" ","MAREA":" ","LANE":" ","ALLEY":" ","HOUSE_NO":"４９號","E_COORD97":173519.14000000001,"N_COORD97":2541570.77,"ADDRESS":"正義二街４９號","OBJECTID":27166},"geometry":{"x":173519.13999999966,"y":2541570.7700000033}},{"attributes":{"ID":27167,"DIS_CODE":0,"TOWNNAME":"永康區","LI":"永康里","LIN":"34鄰","STREET":"大同街","SECT":" ","MAREA":" ","LANE":" ","ALLEY":" ","HOUSE_NO":"７８７號","E_COORD97":174428.98000000001,"N_COORD97":2546957.25,"ADDRESS":"大同街７８７號","OBJECTID":27167},"geometry":{"x":174428.98000000138,"y":2546957.25}},{"attributes":{"ID":27168,"DIS_CODE":0,"TOWNNAME":"永康區","LI":"埔園里","LIN":"34鄰","STREET":"八德街","SECT":" ","MAREA":" ","LANE":" ","ALLEY":" ","HOUSE_NO":"８６號","E_COORD97":174186.67999999999,"N_COORD97":2548527.5099999998,"ADDRESS":"八德街８６號","OBJECTID":27168},"geometry":{"x":174186.6799999997,"y":2548527.5100000016}},{"attributes":{"ID":27169,"DIS_CODE":0,"TOWNNAME":"永康區","LI":"尚頂里","LIN":"34鄰","STREET":"國聖街","SECT":" ","MAREA":" ","LANE":" ","ALLEY":" ","HOUSE_NO":"１０１號","E_COORD97":170490.95000000001,"N_COORD97":2548098.25,"ADDRESS":"國聖街１０１號","OBJECTID":27169},"geometry":{"x":170490.95000000112,"y":2548098.2500000019}},{"attributes":{"ID":27170,"DIS_CODE":0,"TOWNNAME":"永康區","LI":"埔園里","LIN":"34鄰","STREET":"永大路","SECT":"三段","MAREA":" ","LANE":" ","ALLEY":" ","HOUSE_NO":"５５８號","E_COORD97":174081.84,"N_COORD97":2548633.27,"ADDRESS":"永大路三段５５８號","OBJECTID":27170},"geometry":{"x":174081.84000000078,"y":2548633.2700000014}},{"attributes":{"ID":27171,"DIS_CODE":0,"TOWNNAME":"永康區","LI":"埔園里","LIN":"34鄰","STREET":"永大路","SECT":"三段","MAREA":" ","LANE":" ","ALLEY":" ","HOUSE_NO":"５５６號","E_COORD97":174081.98000000001,"N_COORD97":2548629.2799999998,"ADDRESS":"永大路三段５５６號","OBJECTID":27171},"geometry":{"x":174081.98000000045,"y":2548629.2800000031}},{"attributes":{"ID":27172,"DIS_CODE":0,"TOWNNAME":"永康區","LI":"東橋里","LIN":"17鄰","STREET":"東橋八街","SECT":" ","MAREA":" ","LANE":"２５巷","ALLEY":"６弄","HOUSE_NO":"７號","E_COORD97":171357.35000000001,"N_COORD97":2546849.3599999999,"ADDRESS":"東橋八街２５巷６弄７號","OBJECTID":27172},"geometry":{"x":171357.35000000056,"y":2546849.3600000013}},{"attributes":{"ID":27173,"DIS_CODE":0,"TOWNNAME":"學甲區","LI":"新榮里","LIN":"8鄰","STREET":" ","SECT":" ","MAREA":"東竹圍","LANE":" ","ALLEY":" ","HOUSE_NO":"１６號之２５","E_COORD97":166887,"N_COORD97":2569949.3199999998,"ADDRESS":"東竹圍１６號之２５","OBJECTID":27173},"geometry":{"x":166887,"y":2569949.3200000022}},{"attributes":{"ID":27174,"DIS_CODE":0,"TOWNNAME":"永康區","LI":"東橋里","LIN":"17鄰","STREET":"東橋八街","SECT":" ","MAREA":" ","LANE":"２５巷","ALLEY":"６弄","HOUSE_NO":"９號","E_COORD97":171361.98000000001,"N_COORD97":2546852.23,"ADDRESS":"東橋八街２５巷６弄９號","OBJECTID":27174},"geometry":{"x":171361.98000000231,"y":2546852.2300000023}},{"attributes":{"ID":27175,"DIS_CODE":0,"TOWNNAME":"永康區","LI":"東橋里","LIN":"17鄰","STREET":"東橋八街","SECT":" ","MAREA":" ","LANE":"２５巷","ALLEY":"６弄","HOUSE_NO":"１１號","E_COORD97":171366.60999999999,"N_COORD97":2546855.1000000001,"ADDRESS":"東橋八街２５巷６弄１１號","OBJECTID":27175},"geometry":{"x":171366.61000000127,"y":2546855.1000000015}},{"attributes":{"ID":27176,"DIS_CODE":0,"TOWNNAME":"學甲區","LI":"新榮里","LIN":"8鄰","STREET":" ","SECT":" ","MAREA":"東竹圍","LANE":" ","ALLEY":" ","HOUSE_NO":"１６號之２６","E_COORD97":166887.67999999999,"N_COORD97":2569945.3999999999,"ADDRESS":"東竹圍１６號之２６","OBJECTID":27176},"geometry":{"x":166887.6799999997,"y":2569945.4000000022}},{"attributes":{"ID":27177,"DIS_CODE":0,"TOWNNAME":"永康區","LI":"東橋里","LIN":"17鄰","STREET":"東橋八街","SECT":" ","MAREA":" ","LANE":"２５巷","ALLEY":"６弄","HOUSE_NO":"１３號","E_COORD97":171372.19,"N_COORD97":2546860.2400000002,"ADDRESS":"東橋八街２５巷６弄１３號","OBJECTID":27177},"geometry":{"x":171372.18999999948,"y":2546860.2400000002}},{"attributes":{"ID":27178,"DIS_CODE":0,"TOWNNAME":"仁德區","LI":"保安里","LIN":"17鄰","STREET":"中正路","SECT":"一段","MAREA":" ","LANE":"１１６巷","ALLEY":"２弄","HOUSE_NO":"２２號","E_COORD97":171350.89999999999,"N_COORD97":2535472.7799999998,"ADDRESS":"中正路一段１１６巷２弄２２號","OBJECTID":27178},"geometry":{"x":171350.9000000013,"y":2535472.7800000012}},{"attributes":{"ID":27179,"DIS_CODE":0,"TOWNNAME":"仁德區","LI":"成功里","LIN":"17鄰","STREET":"全福路","SECT":" ","MAREA":" ","LANE":"８０巷","ALLEY":"１３弄","HOUSE_NO":"５號","E_COORD97":171060.66,"N_COORD97":2539273.5,"ADDRESS":"全福路８０巷１３弄５號","OBJECTID":27179},"geometry":{"x":171060.66000000108,"y":2539273.5}},{"attributes":{"ID":27180,"DIS_CODE":0,"TOWNNAME":"仁德區","LI":"成功里","LIN":"17鄰","STREET":"全福路","SECT":" ","MAREA":" ","LANE":"８０巷","ALLEY":"１３弄","HOUSE_NO":"６號","E_COORD97":171057.67999999999,"N_COORD97":2539251.9900000002,"ADDRESS":"全福路８０巷１３弄６號","OBJECTID":27180},"geometry":{"x":171057.6799999997,"y":2539251.9900000021}},{"attributes":{"ID":27181,"DIS_CODE":0,"TOWNNAME":"仁德區","LI":"成功里","LIN":"17鄰","STREET":"全福路","SECT":" ","MAREA":" ","LANE":"８０巷","ALLEY":"１３弄","HOUSE_NO":"２之１號","E_COORD97":171055.73000000001,"N_COORD97":2539252.04,"ADDRESS":"全福路８０巷１３弄２之１號","OBJECTID":27181},"geometry":{"x":171055.73000000138,"y":2539252.0399999991}},{"attributes":{"ID":27182,"DIS_CODE":0,"TOWNNAME":"仁德區","LI":"保安里","LIN":"17鄰","STREET":"中正路","SECT":"一段","MAREA":" ","LANE":"１１６巷","ALLEY":"２弄","HOUSE_NO":"１２號","E_COORD97":171360.94,"N_COORD97":2535491.77,"ADDRESS":"中正路一段１１６巷２弄１２號","OBJECTID":27182},"geometry":{"x":171360.94000000134,"y":2535491.7700000033}},{"attributes":{"ID":27183,"DIS_CODE":0,"TOWNNAME":"仁德區","LI":"保安里","LIN":"17鄰","STREET":"中正路","SECT":"一段","MAREA":" ","LANE":"１１６巷","ALLEY":"２弄","HOUSE_NO":"７號","E_COORD97":171371.35000000001,"N_COORD97":2535490.52,"ADDRESS":"中正路一段１１６巷２弄７號","OBJECTID":27183},"geometry":{"x":171371.34999999963,"y":2535490.5200000014}},{"attributes":{"ID":27184,"DIS_CODE":0,"TOWNNAME":"仁德區","LI":"保安里","LIN":"17鄰","STREET":"中正路","SECT":"一段","MAREA":" ","LANE":"１１６巷","ALLEY":"２弄","HOUSE_NO":"２號","E_COORD97":171370.04000000001,"N_COORD97":2535515.27,"ADDRESS":"中正路一段１１６巷２弄２號","OBJECTID":27184},"geometry":{"x":171370.04000000097,"y":2535515.2699999977}},{"attributes":{"ID":27185,"DIS_CODE":0,"TOWNNAME":"官田區","LI":"隆本里","LIN":"17鄰","STREET":"興隆街","SECT":" ","MAREA":" ","LANE":"５１巷","ALLEY":"３弄","HOUSE_NO":"１０號","E_COORD97":179951.97,"N_COORD97":2566343.4900000002,"ADDRESS":"興隆街５１巷３弄１０號","OBJECTID":27185},"geometry":{"x":179951.96999999974,"y":2566343.4900000039}},{"attributes":{"ID":27186,"DIS_CODE":0,"TOWNNAME":"官田區","LI":"隆本里","LIN":"17鄰","STREET":"興隆街","SECT":" ","MAREA":" ","LANE":"５１巷","ALLEY":"３弄","HOUSE_NO":"１２號","E_COORD97":179956.16,"N_COORD97":2566344.2999999998,"ADDRESS":"興隆街５１巷３弄１２號","OBJECTID":27186},"geometry":{"x":179956.16000000015,"y":2566344.3000000007}},{"attributes":{"ID":27187,"DIS_CODE":0,"TOWNNAME":"官田區","LI":"隆本里","LIN":"17鄰","STREET":"興隆街","SECT":" ","MAREA":" ","LANE":"５１巷","ALLEY":"３弄","HOUSE_NO":"１６號","E_COORD97":179961.88,"N_COORD97":2566345.1899999999,"ADDRESS":"興隆街５１巷３弄１６號","OBJECTID":27187},"geometry":{"x":179961.88000000082,"y":2566345.1900000013}},{"attributes":{"ID":27188,"DIS_CODE":0,"TOWNNAME":"官田區","LI":"隆本里","LIN":"17鄰","STREET":"興隆街","SECT":" ","MAREA":" ","LANE":"５１巷","ALLEY":"３弄","HOUSE_NO":"１號","E_COORD97":179936.97,"N_COORD97":2566352.0499999998,"ADDRESS":"興隆街５１巷３弄１號","OBJECTID":27188},"geometry":{"x":179936.96999999974,"y":2566352.0500000007}},{"attributes":{"ID":27189,"DIS_CODE":0,"TOWNNAME":"學甲區","LI":"新榮里","LIN":"8鄰","STREET":" ","SECT":" ","MAREA":"東竹圍","LANE":" ","ALLEY":" ","HOUSE_NO":"１７號","E_COORD97":166867.76000000001,"N_COORD97":2570054.0299999998,"ADDRESS":"東竹圍１７號","OBJECTID":27189},"geometry":{"x":166867.76000000071,"y":2570054.0299999993}},{"attributes":{"ID":27190,"DIS_CODE":0,"TOWNNAME":"官田區","LI":"隆本里","LIN":"17鄰","STREET":"興隆街","SECT":" ","MAREA":" ","LANE":"５１巷","ALLEY":"３弄","HOUSE_NO":"２號","E_COORD97":179938.92999999999,"N_COORD97":2566340.4399999999,"ADDRESS":"興隆街５１巷３弄２號","OBJECTID":27190},"geometry":{"x":179938.9299999997,"y":2566340.4400000013}},{"attributes":{"ID":27191,"DIS_CODE":0,"TOWNNAME":"官田區","LI":"隆本里","LIN":"17鄰","STREET":"興隆街","SECT":" ","MAREA":" ","LANE":"５１巷","ALLEY":"３弄","HOUSE_NO":"３號","E_COORD97":179943.31,"N_COORD97":2566353.0600000001,"ADDRESS":"興隆街５１巷３弄３號","OBJECTID":27191},"geometry":{"x":179943.31000000052,"y":2566353.0600000005}},{"attributes":{"ID":27192,"DIS_CODE":0,"TOWNNAME":"官田區","LI":"隆本里","LIN":"17鄰","STREET":"興隆街","SECT":" ","MAREA":" ","LANE":"５１巷","ALLEY":"３弄","HOUSE_NO":"５號","E_COORD97":179949.76000000001,"N_COORD97":2566354.5099999998,"ADDRESS":"興隆街５１巷３弄５號","OBJECTID":27192},"geometry":{"x":179949.75999999978,"y":2566354.5100000016}},{"attributes":{"ID":27193,"DIS_CODE":0,"TOWNNAME":"官田區","LI":"隆本里","LIN":"17鄰","STREET":"興隆街","SECT":" ","MAREA":" ","LANE":"５１巷","ALLEY":"３弄","HOUSE_NO":"６號","E_COORD97":179943.41,"N_COORD97":2566341.46,"ADDRESS":"興隆街５１巷３弄６號","OBJECTID":27193},"geometry":{"x":179943.41000000108,"y":2566341.4600000028}},{"attributes":{"ID":27194,"DIS_CODE":0,"TOWNNAME":"官田區","LI":"隆本里","LIN":"17鄰","STREET":"興隆街","SECT":" ","MAREA":" ","LANE":"５１巷","ALLEY":"３弄","HOUSE_NO":"７號","E_COORD97":179955.17000000001,"N_COORD97":2566355.8100000001,"ADDRESS":"興隆街５１巷３弄７號","OBJECTID":27194},"geometry":{"x":179955.17000000086,"y":2566355.8100000024}},{"attributes":{"ID":27195,"DIS_CODE":0,"TOWNNAME":"官田區","LI":"隆本里","LIN":"17鄰","STREET":"興隆街","SECT":" ","MAREA":" ","LANE":"５１巷","ALLEY":"３弄","HOUSE_NO":"８號","E_COORD97":179947.92999999999,"N_COORD97":2566342.4500000002,"ADDRESS":"興隆街５１巷３弄８號","OBJECTID":27195},"geometry":{"x":179947.93000000063,"y":2566342.4499999974}},{"attributes":{"ID":27196,"DIS_CODE":0,"TOWNNAME":"官田區","LI":"隆本里","LIN":"17鄰","STREET":"興隆街","SECT":" ","MAREA":" ","LANE":"５１巷","ALLEY":"３弄","HOUSE_NO":"９號","E_COORD97":179960.98000000001,"N_COORD97":2566358.4700000002,"ADDRESS":"興隆街５１巷３弄９號","OBJECTID":27196},"geometry":{"x":179960.98000000045,"y":2566358.4700000025}},{"attributes":{"ID":27197,"DIS_CODE":0,"TOWNNAME":"學甲區","LI":"新榮里","LIN":"8鄰","STREET":" ","SECT":" ","MAREA":"東竹圍","LANE":" ","ALLEY":" ","HOUSE_NO":"１６號之２７","E_COORD97":166888.79000000001,"N_COORD97":2569941.6299999999,"ADDRESS":"東竹圍１６號之２７","OBJECTID":27197},"geometry":{"x":166888.79000000004,"y":2569941.6300000027}},{"attributes":{"ID":27198,"DIS_CODE":0,"TOWNNAME":"官田區","LI":"隆本里","LIN":"17鄰","STREET":"興隆街","SECT":" ","MAREA":" ","LANE":"５１巷","ALLEY":"５弄","HOUSE_NO":"１號","E_COORD97":179942.62,"N_COORD97":2566326.6400000001,"ADDRESS":"興隆街５１巷５弄１號","OBJECTID":27198},"geometry":{"x":179942.62000000011,"y":2566326.6400000025}},{"attributes":{"ID":27199,"DIS_CODE":0,"TOWNNAME":"官田區","LI":"隆本里","LIN":"17鄰","STREET":"興隆街","SECT":" ","MAREA":" ","LANE":"５１巷","ALLEY":"５弄","HOUSE_NO":"３號","E_COORD97":179948.14000000001,"N_COORD97":2566327.73,"ADDRESS":"興隆街５１巷５弄３號","OBJECTID":27199},"geometry":{"x":179948.1400000006,"y":2566327.7300000004}},{"attributes":{"ID":27200,"DIS_CODE":0,"TOWNNAME":"官田區","LI":"隆本里","LIN":"17鄰","STREET":"興隆街","SECT":" ","MAREA":" ","LANE":"５１巷","ALLEY":"６弄","HOUSE_NO":"１０號","E_COORD97":179907.63,"N_COORD97":2566340.04,"ADDRESS":"興隆街５１巷６弄１０號","OBJECTID":27200},"geometry":{"x":179907.63000000082,"y":2566340.040000001}}]}