{"displayFieldName":"TOWNNAME","fieldAliases":{"ID":"ID","DIS_CODE":"DIS_CODE","TOWNNAME":"TOWNNAME","LI":"LI","LIN":"LIN","STREET":"STREET","SECT":"SECT","MAREA":"MAREA","LANE":"LANE","ALLEY":"ALLEY","HOUSE_NO":"HOUSE_NO","E_COORD97":"E_COORD97","N_COORD97":"N_COORD97","ADDRESS":"ADDRESS","OBJECTID":"OBJECTID"},"geometryType":"esriGeometryPoint","spatialReference":{"wkid":102443,"latestWkid":3826},"fields":[{"name":"ID","type":"esriFieldTypeDouble","alias":"ID"},{"name":"DIS_CODE","type":"esriFieldTypeInteger","alias":"DIS_CODE"},{"name":"TOWNNAME","type":"esriFieldTypeString","alias":"TOWNNAME","length":8},{"name":"LI","type":"esriFieldTypeString","alias":"LI","length":8},{"name":"LIN","type":"esriFieldTypeString","alias":"LIN","length":12},{"name":"STREET","type":"esriFieldTypeString","alias":"STREET","length":20},{"name":"SECT","type":"esriFieldTypeString","alias":"SECT","length":8},{"name":"MAREA","type":"esriFieldTypeString","alias":"MAREA","length":12},{"name":"LANE","type":"esriFieldTypeString","alias":"LANE","length":10},{"name":"ALLEY","type":"esriFieldTypeString","alias":"ALLEY","length":10},{"name":"HOUSE_NO","type":"esriFieldTypeString","alias":"HOUSE_NO","length":20},{"name":"E_COORD97","type":"esriFieldTypeDouble","alias":"E_COORD97"},{"name":"N_COORD97","type":"esriFieldTypeDouble","alias":"N_COORD97"},{"name":"ADDRESS","type":"esriFieldTypeString","alias":"ADDRESS","length":50},{"name":"OBJECTID","type":"esriFieldTypeOID","alias":"OBJECTID"}],"features":[{"attributes":{"ID":187202,"DIS_CODE":0,"TOWNNAME":"西港區","LI":"竹林里","LIN":"11鄰","STREET":" ","SECT":" ","MAREA":"大竹林","LANE":" ","ALLEY":" ","HOUSE_NO":"９２號","E_COORD97":166626.76000000001,"N_COORD97":2557876.23,"ADDRESS":"大竹林９２號","OBJECTID":187201},"geometry":{"x":166626.76000000071,"y":2557876.2300000042}},{"attributes":{"ID":187203,"DIS_CODE":0,"TOWNNAME":"西港區","LI":"竹林里","LIN":"11鄰","STREET":" ","SECT":" ","MAREA":"大竹林","LANE":" ","ALLEY":" ","HOUSE_NO":"９３號之１","E_COORD97":166604.32000000001,"N_COORD97":2557854.3500000001,"ADDRESS":"大竹林９３號之１","OBJECTID":187202},"geometry":{"x":166604.31999999937,"y":2557854.3500000034}},{"attributes":{"ID":187204,"DIS_CODE":0,"TOWNNAME":"安南區","LI":"學東里","LIN":"5鄰","STREET":"公學路","SECT":"六段","MAREA":" ","LANE":"４６９巷","ALLEY":"５２弄","HOUSE_NO":"８號","E_COORD97":162599.95999999999,"N_COORD97":2553109.4500000002,"ADDRESS":"公學路六段４６９巷５２弄８號","OBJECTID":187203},"geometry":{"x":162599.95999999996,"y":2553109.4499999993}},{"attributes":{"ID":187205,"DIS_CODE":0,"TOWNNAME":"善化區","LI":"光文里","LIN":"10鄰","STREET":"中山路","SECT":" ","MAREA":" ","LANE":" ","ALLEY":" ","HOUSE_NO":"５５號","E_COORD97":178751.39000000001,"N_COORD97":2559197.75,"ADDRESS":"中山路５５號","OBJECTID":187204},"geometry":{"x":178751.3900000006,"y":2559197.7499999981}},{"attributes":{"ID":187206,"DIS_CODE":0,"TOWNNAME":"善化區","LI":"光文里","LIN":"10鄰","STREET":"民族路","SECT":" ","MAREA":" ","LANE":" ","ALLEY":" ","HOUSE_NO":"１０７號","E_COORD97":178401.45999999999,"N_COORD97":2559111.2599999998,"ADDRESS":"民族路１０７號","OBJECTID":187205},"geometry":{"x":178401.45999999996,"y":2559111.2599999998}},{"attributes":{"ID":187207,"DIS_CODE":0,"TOWNNAME":"安南區","LI":"學東里","LIN":"5鄰","STREET":"公學路","SECT":"六段","MAREA":" ","LANE":"４６９巷","ALLEY":"５０弄","HOUSE_NO":"３７號","E_COORD97":162533.06,"N_COORD97":2553133.04,"ADDRESS":"公學路六段４６９巷５０弄３７號","OBJECTID":187206},"geometry":{"x":162533.05999999959,"y":2553133.0400000028}},{"attributes":{"ID":187208,"DIS_CODE":0,"TOWNNAME":"安南區","LI":"溪心里","LIN":"5鄰","STREET":"本原街","SECT":"二段","MAREA":" ","LANE":"１０６巷","ALLEY":"５９弄","HOUSE_NO":"２號","E_COORD97":166915.29000000001,"N_COORD97":2550971,"ADDRESS":"本原街二段１０６巷５９弄２號","OBJECTID":187207},"geometry":{"x":166915.29000000097,"y":2550971.0000000037}},{"attributes":{"ID":187209,"DIS_CODE":0,"TOWNNAME":"安南區","LI":"溪心里","LIN":"5鄰","STREET":"本原街","SECT":"二段","MAREA":" ","LANE":"１０６巷","ALLEY":"５９弄","HOUSE_NO":"２號之１","E_COORD97":166917.59,"N_COORD97":2550949.6899999999,"ADDRESS":"本原街二段１０６巷５９弄２號之１","OBJECTID":187208},"geometry":{"x":166917.59000000078,"y":2550949.6900000013}},{"attributes":{"ID":187210,"DIS_CODE":0,"TOWNNAME":"安南區","LI":"溪心里","LIN":"5鄰","STREET":"本原街","SECT":"二段","MAREA":" ","LANE":"１０６巷","ALLEY":"５９弄","HOUSE_NO":"２號之２","E_COORD97":166915.92999999999,"N_COORD97":2550954.6600000001,"ADDRESS":"本原街二段１０６巷５９弄２號之２","OBJECTID":187209},"geometry":{"x":166915.9299999997,"y":2550954.660000002}},{"attributes":{"ID":187211,"DIS_CODE":0,"TOWNNAME":"西港區","LI":"竹林里","LIN":"11鄰","STREET":" ","SECT":" ","MAREA":"大竹林","LANE":" ","ALLEY":" ","HOUSE_NO":"９３號之２","E_COORD97":166599.29999999999,"N_COORD97":2557876.9399999999,"ADDRESS":"大竹林９３號之２","OBJECTID":187210},"geometry":{"x":166599.30000000075,"y":2557876.9399999976}},{"attributes":{"ID":187212,"DIS_CODE":0,"TOWNNAME":"安南區","LI":"州北里","LIN":"5鄰","STREET":"安和路","SECT":"五段","MAREA":" ","LANE":"８１巷","ALLEY":"６４弄","HOUSE_NO":"２２號","E_COORD97":169708.75,"N_COORD97":2551682.1600000001,"ADDRESS":"安和路五段８１巷６４弄２２號","OBJECTID":187211},"geometry":{"x":169708.75000000093,"y":2551682.1600000039}},{"attributes":{"ID":187213,"DIS_CODE":0,"TOWNNAME":"安南區","LI":"州北里","LIN":"5鄰","STREET":"安和路","SECT":"五段","MAREA":" ","LANE":"８１巷","ALLEY":"６４弄","HOUSE_NO":"２４號","E_COORD97":169706.62,"N_COORD97":2551685,"ADDRESS":"安和路五段８１巷６４弄２４號","OBJECTID":187212},"geometry":{"x":169706.62000000104,"y":2551685}},{"attributes":{"ID":187214,"DIS_CODE":0,"TOWNNAME":"安南區","LI":"州北里","LIN":"5鄰","STREET":"安和路","SECT":"五段","MAREA":" ","LANE":"８１巷","ALLEY":"６４弄","HOUSE_NO":"２６號","E_COORD97":169704.01000000001,"N_COORD97":2551687.8399999999,"ADDRESS":"安和路五段８１巷６４弄２６號","OBJECTID":187213},"geometry":{"x":169704.00999999978,"y":2551687.8400000017}},{"attributes":{"ID":187215,"DIS_CODE":0,"TOWNNAME":"安南區","LI":"州北里","LIN":"5鄰","STREET":"安和路","SECT":"五段","MAREA":" ","LANE":"８１巷","ALLEY":"６４弄","HOUSE_NO":"２８號","E_COORD97":169701.76000000001,"N_COORD97":2551690.21,"ADDRESS":"安和路五段８１巷６４弄２８號","OBJECTID":187214},"geometry":{"x":169701.76000000071,"y":2551690.2100000028}},{"attributes":{"ID":187216,"DIS_CODE":0,"TOWNNAME":"安南區","LI":"州北里","LIN":"5鄰","STREET":"安和路","SECT":"五段","MAREA":" ","LANE":"８１巷","ALLEY":"６４弄","HOUSE_NO":"３０號","E_COORD97":169698.92000000001,"N_COORD97":2551693.1699999999,"ADDRESS":"安和路五段８１巷６４弄３０號","OBJECTID":187215},"geometry":{"x":169698.92000000086,"y":2551693.1700000018}},{"attributes":{"ID":187217,"DIS_CODE":0,"TOWNNAME":"西港區","LI":"竹林里","LIN":"11鄰","STREET":" ","SECT":" ","MAREA":"大竹林","LANE":" ","ALLEY":" ","HOUSE_NO":"９３號之３","E_COORD97":166586.89000000001,"N_COORD97":2557855.79,"ADDRESS":"大竹林９３號之３","OBJECTID":187216},"geometry":{"x":166586.8900000006,"y":2557855.7899999991}},{"attributes":{"ID":187218,"DIS_CODE":0,"TOWNNAME":"安南區","LI":"州北里","LIN":"5鄰","STREET":"安和路","SECT":"五段","MAREA":" ","LANE":"８１巷","ALLEY":"６４弄","HOUSE_NO":"３２號","E_COORD97":169696.54999999999,"N_COORD97":2551695.8900000001,"ADDRESS":"安和路五段８１巷６４弄３２號","OBJECTID":187217},"geometry":{"x":169696.55000000075,"y":2551695.8900000025}},{"attributes":{"ID":187219,"DIS_CODE":0,"TOWNNAME":"西港區","LI":"竹林里","LIN":"11鄰","STREET":" ","SECT":" ","MAREA":"大竹林","LANE":" ","ALLEY":" ","HOUSE_NO":"９３號之９","E_COORD97":166604.75,"N_COORD97":2557932.3500000001,"ADDRESS":"大竹林９３號之９","OBJECTID":187218},"geometry":{"x":166604.75000000093,"y":2557932.3500000034}},{"attributes":{"ID":187220,"DIS_CODE":0,"TOWNNAME":"西港區","LI":"竹林里","LIN":"11鄰","STREET":" ","SECT":" ","MAREA":"大竹林","LANE":" ","ALLEY":" ","HOUSE_NO":"９３號","E_COORD97":166633.44,"N_COORD97":2557852.8900000001,"ADDRESS":"大竹林９３號","OBJECTID":187219},"geometry":{"x":166633.44000000041,"y":2557852.8900000025}},{"attributes":{"ID":187221,"DIS_CODE":0,"TOWNNAME":"西港區","LI":"竹林里","LIN":"11鄰","STREET":" ","SECT":" ","MAREA":"大竹林","LANE":" ","ALLEY":" ","HOUSE_NO":"９４號","E_COORD97":166647.39999999999,"N_COORD97":2557857.1699999999,"ADDRESS":"大竹林９４號","OBJECTID":187220},"geometry":{"x":166647.40000000037,"y":2557857.1700000018}},{"attributes":{"ID":187222,"DIS_CODE":0,"TOWNNAME":"西港區","LI":"竹林里","LIN":"11鄰","STREET":" ","SECT":" ","MAREA":"大竹林","LANE":" ","ALLEY":" ","HOUSE_NO":"９５號","E_COORD97":166677.14999999999,"N_COORD97":2557847.7999999998,"ADDRESS":"大竹林９５號","OBJECTID":187221},"geometry":{"x":166677.1500000013,"y":2557847.8000000007}},{"attributes":{"ID":187223,"DIS_CODE":0,"TOWNNAME":"西港區","LI":"竹林里","LIN":"11鄰","STREET":" ","SECT":" ","MAREA":"大竹林","LANE":" ","ALLEY":" ","HOUSE_NO":"９６號","E_COORD97":166711.07999999999,"N_COORD97":2557849.5,"ADDRESS":"大竹林９６號","OBJECTID":187222},"geometry":{"x":166711.08000000101,"y":2557849.5}},{"attributes":{"ID":187224,"DIS_CODE":0,"TOWNNAME":"新化區","LI":"崙頂里","LIN":"11鄰","STREET":" ","SECT":" ","MAREA":"崙子頂","LANE":" ","ALLEY":" ","HOUSE_NO":"４００號之１","E_COORD97":176939.66,"N_COORD97":2546951.2599999998,"ADDRESS":"崙子頂４００號之１","OBJECTID":187223},"geometry":{"x":176939.66000000108,"y":2546951.2599999998}},{"attributes":{"ID":187225,"DIS_CODE":0,"TOWNNAME":"新化區","LI":"崙頂里","LIN":"11鄰","STREET":" ","SECT":" ","MAREA":"崙子頂","LANE":" ","ALLEY":" ","HOUSE_NO":"４１０號之２","E_COORD97":177034.48000000001,"N_COORD97":2546920.2599999998,"ADDRESS":"崙子頂４１０號之２","OBJECTID":187224},"geometry":{"x":177034.48000000138,"y":2546920.2599999998}},{"attributes":{"ID":187226,"DIS_CODE":0,"TOWNNAME":"安南區","LI":"州北里","LIN":"5鄰","STREET":"安和路","SECT":"五段","MAREA":" ","LANE":"８１巷","ALLEY":"６４弄","HOUSE_NO":"３４號","E_COORD97":169693.94,"N_COORD97":2551698.3700000001,"ADDRESS":"安和路五段８１巷６４弄３４號","OBJECTID":187225},"geometry":{"x":169693.93999999948,"y":2551698.370000001}},{"attributes":{"ID":187227,"DIS_CODE":0,"TOWNNAME":"安南區","LI":"州北里","LIN":"5鄰","STREET":"安和路","SECT":"五段","MAREA":" ","LANE":"８１巷","ALLEY":"６４弄","HOUSE_NO":"３６號","E_COORD97":169689.5,"N_COORD97":2551701.1299999999,"ADDRESS":"安和路五段８１巷６４弄３６號","OBJECTID":187226},"geometry":{"x":169689.5,"y":2551701.129999999}},{"attributes":{"ID":187228,"DIS_CODE":0,"TOWNNAME":"東區","LI":"自強里","LIN":"5鄰","STREET":"東門路","SECT":"三段","MAREA":" ","LANE":"３７巷","ALLEY":"１０弄","HOUSE_NO":"１３號","E_COORD97":171271.14000000001,"N_COORD97":2542357.4399999999,"ADDRESS":"東門路三段３７巷１０弄１３號","OBJECTID":187227},"geometry":{"x":171271.13999999966,"y":2542357.4400000013}},{"attributes":{"ID":187229,"DIS_CODE":0,"TOWNNAME":"東區","LI":"自強里","LIN":"5鄰","STREET":"東門路","SECT":"三段","MAREA":" ","LANE":"３７巷","ALLEY":"１０弄","HOUSE_NO":"１４號","E_COORD97":171268.35999999999,"N_COORD97":2542337.1499999999,"ADDRESS":"東門路三段３７巷１０弄１４號","OBJECTID":187228},"geometry":{"x":171268.36000000127,"y":2542337.1500000004}},{"attributes":{"ID":187230,"DIS_CODE":0,"TOWNNAME":"新化區","LI":"全興里","LIN":"11鄰","STREET":" ","SECT":" ","MAREA":"竹子\u25A0","LANE":" ","ALLEY":" ","HOUSE_NO":"２４９號之１","E_COORD97":178588.95999999999,"N_COORD97":2547016.2599999998,"ADDRESS":"竹子\u25A0２４９號之１","OBJECTID":187229},"geometry":{"x":178588.95999999996,"y":2547016.2600000016}},{"attributes":{"ID":187231,"DIS_CODE":0,"TOWNNAME":"東區","LI":"自強里","LIN":"5鄰","STREET":"東門路","SECT":"三段","MAREA":" ","LANE":"３７巷","ALLEY":"１０弄","HOUSE_NO":"１５號","E_COORD97":171275.14000000001,"N_COORD97":2542357.27,"ADDRESS":"東門路三段３７巷１０弄１５號","OBJECTID":187230},"geometry":{"x":171275.14000000153,"y":2542357.2700000033}},{"attributes":{"ID":187232,"DIS_CODE":0,"TOWNNAME":"新化區","LI":"唪口里","LIN":"11鄰","STREET":" ","SECT":" ","MAREA":"唪口","LANE":" ","ALLEY":" ","HOUSE_NO":"１５８號","E_COORD97":177558.14999999999,"N_COORD97":2548837.25,"ADDRESS":"唪口１５８號","OBJECTID":187231},"geometry":{"x":177558.14999999944,"y":2548837.2500000019}},{"attributes":{"ID":187233,"DIS_CODE":0,"TOWNNAME":"東區","LI":"自強里","LIN":"5鄰","STREET":"東門路","SECT":"三段","MAREA":" ","LANE":"３７巷","ALLEY":"１０弄","HOUSE_NO":"１６號","E_COORD97":171272.70999999999,"N_COORD97":2542337.5,"ADDRESS":"東門路三段３７巷１０弄１６號","OBJECTID":187232},"geometry":{"x":171272.70999999996,"y":2542337.5000000019}},{"attributes":{"ID":187234,"DIS_CODE":0,"TOWNNAME":"新化區","LI":"崙頂里","LIN":"11鄰","STREET":" ","SECT":" ","MAREA":"崙子頂","LANE":" ","ALLEY":" ","HOUSE_NO":"４０３號之５","E_COORD97":176887.98999999999,"N_COORD97":2547014.2599999998,"ADDRESS":"崙子頂４０３號之５","OBJECTID":187233},"geometry":{"x":176887.99000000209,"y":2547014.2599999998}},{"attributes":{"ID":187235,"DIS_CODE":0,"TOWNNAME":"安定區","LI":"安定里","LIN":"11鄰","STREET":" ","SECT":" ","MAREA":"安定","LANE":" ","ALLEY":" ","HOUSE_NO":"８８號","E_COORD97":172004.76999999999,"N_COORD97":2557760.3199999998,"ADDRESS":"安定８８號","OBJECTID":187234},"geometry":{"x":172004.77000000142,"y":2557760.320000004}},{"attributes":{"ID":187236,"DIS_CODE":0,"TOWNNAME":"東區","LI":"自強里","LIN":"5鄰","STREET":"東門路","SECT":"三段","MAREA":" ","LANE":"３７巷","ALLEY":"１０弄","HOUSE_NO":"１７號","E_COORD97":171280.17000000001,"N_COORD97":2542357.0899999999,"ADDRESS":"東門路三段３７巷１０弄１７號","OBJECTID":187235},"geometry":{"x":171280.16999999993,"y":2542357.0900000017}},{"attributes":{"ID":187237,"DIS_CODE":0,"TOWNNAME":"東區","LI":"自強里","LIN":"5鄰","STREET":"東門路","SECT":"三段","MAREA":" ","LANE":"３７巷","ALLEY":"１０弄","HOUSE_NO":"１８號","E_COORD97":171276.70000000001,"N_COORD97":2542337.3199999998,"ADDRESS":"東門路三段３７巷１０弄１８號","OBJECTID":187236},"geometry":{"x":171276.70000000019,"y":2542337.320000004}},{"attributes":{"ID":187238,"DIS_CODE":0,"TOWNNAME":"東區","LI":"自強里","LIN":"5鄰","STREET":"東門路","SECT":"三段","MAREA":" ","LANE":"３７巷","ALLEY":"１０弄","HOUSE_NO":"１９號","E_COORD97":171284.17000000001,"N_COORD97":2542357.4399999999,"ADDRESS":"東門路三段３７巷１０弄１９號","OBJECTID":187237},"geometry":{"x":171284.17000000086,"y":2542357.4400000013}},{"attributes":{"ID":187239,"DIS_CODE":0,"TOWNNAME":"東區","LI":"自強里","LIN":"5鄰","STREET":"東門路","SECT":"三段","MAREA":" ","LANE":"３７巷","ALLEY":"１０弄","HOUSE_NO":"１號","E_COORD97":171245.95999999999,"N_COORD97":2542355.8799999999,"ADDRESS":"東門路三段３７巷１０弄１號","OBJECTID":187238},"geometry":{"x":171245.95999999996,"y":2542355.8800000027}},{"attributes":{"ID":187240,"DIS_CODE":0,"TOWNNAME":"東區","LI":"自強里","LIN":"5鄰","STREET":"東門路","SECT":"三段","MAREA":" ","LANE":"３７巷","ALLEY":"１０弄","HOUSE_NO":"２０號","E_COORD97":171281.04000000001,"N_COORD97":2542337.1499999999,"ADDRESS":"東門路三段３７巷１０弄２０號","OBJECTID":187239},"geometry":{"x":171281.04000000004,"y":2542337.1500000004}},{"attributes":{"ID":187241,"DIS_CODE":0,"TOWNNAME":"東區","LI":"自強里","LIN":"5鄰","STREET":"東門路","SECT":"三段","MAREA":" ","LANE":"３７巷","ALLEY":"１０弄","HOUSE_NO":"２１號","E_COORD97":171288.51000000001,"N_COORD97":2542357.27,"ADDRESS":"東門路三段３７巷１０弄２１號","OBJECTID":187240},"geometry":{"x":171288.51000000071,"y":2542357.2700000033}},{"attributes":{"ID":187242,"DIS_CODE":0,"TOWNNAME":"東區","LI":"自強里","LIN":"5鄰","STREET":"東門路","SECT":"三段","MAREA":" ","LANE":"３７巷","ALLEY":"１０弄","HOUSE_NO":"２２號","E_COORD97":171285.38,"N_COORD97":2542337.3199999998,"ADDRESS":"東門路三段３７巷１０弄２２號","OBJECTID":187241},"geometry":{"x":171285.37999999989,"y":2542337.320000004}},{"attributes":{"ID":187243,"DIS_CODE":0,"TOWNNAME":"東區","LI":"自強里","LIN":"5鄰","STREET":"東門路","SECT":"三段","MAREA":" ","LANE":"３７巷","ALLEY":"１０弄","HOUSE_NO":"２３號","E_COORD97":171293.01999999999,"N_COORD97":2542357.4399999999,"ADDRESS":"東門路三段３７巷１０弄２３號","OBJECTID":187242},"geometry":{"x":171293.02000000048,"y":2542357.4400000013}},{"attributes":{"ID":187244,"DIS_CODE":0,"TOWNNAME":"安定區","LI":"安加里","LIN":"11鄰","STREET":" ","SECT":" ","MAREA":"安定","LANE":" ","ALLEY":" ","HOUSE_NO":"２６８號之４","E_COORD97":171557.07999999999,"N_COORD97":2557373.3199999998,"ADDRESS":"安定２６８號之４","OBJECTID":187243},"geometry":{"x":171557.08000000007,"y":2557373.3200000003}},{"attributes":{"ID":187245,"DIS_CODE":0,"TOWNNAME":"東區","LI":"自強里","LIN":"5鄰","STREET":"東門路","SECT":"三段","MAREA":" ","LANE":"３７巷","ALLEY":"１０弄","HOUSE_NO":"２４號","E_COORD97":171289.72,"N_COORD97":2542337.3199999998,"ADDRESS":"東門路三段３７巷１０弄２４號","OBJECTID":187244},"geometry":{"x":171289.71999999974,"y":2542337.320000004}},{"attributes":{"ID":187246,"DIS_CODE":0,"TOWNNAME":"永康區","LI":"龍潭里","LIN":"10鄰","STREET":"龍橋街","SECT":" ","MAREA":" ","LANE":"３巷","ALLEY":" ","HOUSE_NO":"５號","E_COORD97":174873.76000000001,"N_COORD97":2548289.9500000002,"ADDRESS":"龍橋街３巷５號","OBJECTID":187245},"geometry":{"x":174873.76000000071,"y":2548289.9500000011}},{"attributes":{"ID":187247,"DIS_CODE":0,"TOWNNAME":"安定區","LI":"海寮里","LIN":"11鄰","STREET":" ","SECT":" ","MAREA":"海寮","LANE":" ","ALLEY":" ","HOUSE_NO":"１１６號","E_COORD97":169123.64000000001,"N_COORD97":2555284.25,"ADDRESS":"海寮１１６號","OBJECTID":187246},"geometry":{"x":169123.63999999966,"y":2555284.25}},{"attributes":{"ID":187248,"DIS_CODE":0,"TOWNNAME":"安定區","LI":"海寮里","LIN":"11鄰","STREET":" ","SECT":" ","MAREA":"海寮","LANE":" ","ALLEY":" ","HOUSE_NO":"１０６號","E_COORD97":169151.94,"N_COORD97":2555317.25,"ADDRESS":"海寮１０６號","OBJECTID":187247},"geometry":{"x":169151.94000000134,"y":2555317.2500000019}},{"attributes":{"ID":187249,"DIS_CODE":0,"TOWNNAME":"六甲區","LI":"二甲里","LIN":"24鄰","STREET":"信義街","SECT":" ","MAREA":" ","LANE":" ","ALLEY":" ","HOUSE_NO":"２５２號","E_COORD97":183361.94,"N_COORD97":2569831.3300000001,"ADDRESS":"信義街２５２號","OBJECTID":187248},"geometry":{"x":183361.94000000041,"y":2569831.3300000019}},{"attributes":{"ID":187250,"DIS_CODE":0,"TOWNNAME":"安定區","LI":"港尾里","LIN":"11鄰","STREET":" ","SECT":" ","MAREA":"港子尾","LANE":" ","ALLEY":" ","HOUSE_NO":"６８號之４","E_COORD97":171423.35000000001,"N_COORD97":2555798.2999999998,"ADDRESS":"港子尾６８號之４","OBJECTID":187249},"geometry":{"x":171423.35000000056,"y":2555798.3000000026}},{"attributes":{"ID":187251,"DIS_CODE":0,"TOWNNAME":"安定區","LI":"海寮里","LIN":"11鄰","STREET":" ","SECT":" ","MAREA":"海寮","LANE":" ","ALLEY":" ","HOUSE_NO":"１１１號","E_COORD97":169157.54000000001,"N_COORD97":2555239.25,"ADDRESS":"海寮１１１號","OBJECTID":187250},"geometry":{"x":169157.54000000097,"y":2555239.2500000019}},{"attributes":{"ID":187252,"DIS_CODE":0,"TOWNNAME":"安定區","LI":"中榮里","LIN":"11鄰","STREET":" ","SECT":" ","MAREA":"許中營","LANE":" ","ALLEY":" ","HOUSE_NO":"９０之１號","E_COORD97":172155.556878,"N_COORD97":2555050.0347699998,"ADDRESS":"許中營９０之１號","OBJECTID":187251},"geometry":{"x":172155.55687799957,"y":2555050.0347730014}},{"attributes":{"ID":187253,"DIS_CODE":0,"TOWNNAME":"佳里區","LI":"三協里","LIN":"11鄰","STREET":" ","SECT":" ","MAREA":"後庄","LANE":" ","ALLEY":" ","HOUSE_NO":"２７號之１","E_COORD97":168466.29999999999,"N_COORD97":2564807.75,"ADDRESS":"後庄２７號之１","OBJECTID":187252},"geometry":{"x":168466.29999999981,"y":2564807.75}},{"attributes":{"ID":187254,"DIS_CODE":0,"TOWNNAME":"佳里區","LI":"三協里","LIN":"11鄰","STREET":" ","SECT":" ","MAREA":"後庄","LANE":" ","ALLEY":" ","HOUSE_NO":"２８號之１","E_COORD97":168440.72,"N_COORD97":2564842.0699999998,"ADDRESS":"後庄２８號之１","OBJECTID":187253},"geometry":{"x":168440.72000000067,"y":2564842.0700000022}},{"attributes":{"ID":187255,"DIS_CODE":0,"TOWNNAME":"佳里區","LI":"三協里","LIN":"11鄰","STREET":" ","SECT":" ","MAREA":"後庄","LANE":" ","ALLEY":" ","HOUSE_NO":"２８號之２","E_COORD97":168433.64000000001,"N_COORD97":2564844.79,"ADDRESS":"後庄２８號之２","OBJECTID":187254},"geometry":{"x":168433.63999999966,"y":2564844.7899999972}},{"attributes":{"ID":187256,"DIS_CODE":0,"TOWNNAME":"佳里區","LI":"三協里","LIN":"11鄰","STREET":" ","SECT":" ","MAREA":"後庄","LANE":" ","ALLEY":" ","HOUSE_NO":"２８號","E_COORD97":168463.62,"N_COORD97":2564829.2200000002,"ADDRESS":"後庄２８號","OBJECTID":187255},"geometry":{"x":168463.62000000197,"y":2564829.2200000007}},{"attributes":{"ID":187257,"DIS_CODE":0,"TOWNNAME":"佳里區","LI":"三協里","LIN":"11鄰","STREET":" ","SECT":" ","MAREA":"後庄","LANE":" ","ALLEY":" ","HOUSE_NO":"２９號","E_COORD97":168424.45000000001,"N_COORD97":2564851.2599999998,"ADDRESS":"後庄２９號","OBJECTID":187256},"geometry":{"x":168424.45000000112,"y":2564851.2599999998}},{"attributes":{"ID":187258,"DIS_CODE":0,"TOWNNAME":"佳里區","LI":"三協里","LIN":"11鄰","STREET":" ","SECT":" ","MAREA":"後庄","LANE":" ","ALLEY":" ","HOUSE_NO":"３０號","E_COORD97":168486.54999999999,"N_COORD97":2564789.8399999999,"ADDRESS":"後庄３０號","OBJECTID":187257},"geometry":{"x":168486.54999999981,"y":2564789.8399999999}},{"attributes":{"ID":187259,"DIS_CODE":0,"TOWNNAME":"佳里區","LI":"三協里","LIN":"11鄰","STREET":" ","SECT":" ","MAREA":"後庄","LANE":" ","ALLEY":" ","HOUSE_NO":"３１號之１","E_COORD97":168453.95999999999,"N_COORD97":2564749.4100000001,"ADDRESS":"後庄３１號之１","OBJECTID":187258},"geometry":{"x":168453.95999999996,"y":2564749.4100000001}},{"attributes":{"ID":187260,"DIS_CODE":0,"TOWNNAME":"東區","LI":"自強里","LIN":"5鄰","STREET":"東門路","SECT":"三段","MAREA":" ","LANE":"３７巷","ALLEY":"１０弄","HOUSE_NO":"２５號","E_COORD97":171297.70999999999,"N_COORD97":2542357.6099999999,"ADDRESS":"東門路三段３７巷１０弄２５號","OBJECTID":187259},"geometry":{"x":171297.71000000089,"y":2542357.6099999994}},{"attributes":{"ID":187261,"DIS_CODE":0,"TOWNNAME":"東區","LI":"自強里","LIN":"5鄰","STREET":"東門路","SECT":"三段","MAREA":" ","LANE":"３７巷","ALLEY":"１０弄","HOUSE_NO":"２６號","E_COORD97":171293.89000000001,"N_COORD97":2542337.5,"ADDRESS":"東門路三段３７巷１０弄２６號","OBJECTID":187260},"geometry":{"x":171293.89000000153,"y":2542337.5000000019}},{"attributes":{"ID":187262,"DIS_CODE":0,"TOWNNAME":"東區","LI":"自強里","LIN":"5鄰","STREET":"東門路","SECT":"三段","MAREA":" ","LANE":"３７巷","ALLEY":"１０弄","HOUSE_NO":"２７號","E_COORD97":171302.23000000001,"N_COORD97":2542357.96,"ADDRESS":"東門路三段３７巷１０弄２７號","OBJECTID":187261},"geometry":{"x":171302.23000000045,"y":2542357.9600000028}},{"attributes":{"ID":187263,"DIS_CODE":0,"TOWNNAME":"東區","LI":"自強里","LIN":"5鄰","STREET":"東門路","SECT":"三段","MAREA":" ","LANE":"３７巷","ALLEY":"１０弄","HOUSE_NO":"２８號","E_COORD97":171298.23000000001,"N_COORD97":2542336.98,"ADDRESS":"東門路三段３７巷１０弄２８號","OBJECTID":187262},"geometry":{"x":171298.23000000138,"y":2542336.9800000023}},{"attributes":{"ID":187264,"DIS_CODE":0,"TOWNNAME":"東區","LI":"自強里","LIN":"5鄰","STREET":"東門路","SECT":"三段","MAREA":" ","LANE":"３７巷","ALLEY":"１０弄","HOUSE_NO":"２９號","E_COORD97":171307.95999999999,"N_COORD97":2542357.96,"ADDRESS":"東門路三段３７巷１０弄２９號","OBJECTID":187263},"geometry":{"x":171307.96000000089,"y":2542357.9600000028}},{"attributes":{"ID":187265,"DIS_CODE":0,"TOWNNAME":"南區","LI":"文華里","LIN":"22鄰","STREET":"德南街","SECT":" ","MAREA":" ","LANE":" ","ALLEY":" ","HOUSE_NO":"９０號","E_COORD97":166696.53,"N_COORD97":2542992.8700000001,"ADDRESS":"德南街９０號","OBJECTID":187264},"geometry":{"x":166696.53000000119,"y":2542992.8700000029}},{"attributes":{"ID":187266,"DIS_CODE":0,"TOWNNAME":"東區","LI":"自強里","LIN":"5鄰","STREET":"東門路","SECT":"三段","MAREA":" ","LANE":"３７巷","ALLEY":"１０弄","HOUSE_NO":"２號","E_COORD97":171243.01000000001,"N_COORD97":2542335.7599999998,"ADDRESS":"東門路三段３７巷１０弄２號","OBJECTID":187265},"geometry":{"x":171243.01000000071,"y":2542335.7599999998}},{"attributes":{"ID":187267,"DIS_CODE":0,"TOWNNAME":"東區","LI":"自強里","LIN":"5鄰","STREET":"東門路","SECT":"三段","MAREA":" ","LANE":"３７巷","ALLEY":"１０弄","HOUSE_NO":"３０號","E_COORD97":171302.57999999999,"N_COORD97":2542337.1499999999,"ADDRESS":"東門路三段３７巷１０弄３０號","OBJECTID":187266},"geometry":{"x":171302.58000000007,"y":2542337.1500000004}},{"attributes":{"ID":187268,"DIS_CODE":0,"TOWNNAME":"東區","LI":"自強里","LIN":"5鄰","STREET":"東門路","SECT":"三段","MAREA":" ","LANE":"３７巷","ALLEY":"１０弄","HOUSE_NO":"３２號","E_COORD97":171307.09,"N_COORD97":2542336.6299999999,"ADDRESS":"東門路三段３７巷１０弄３２號","OBJECTID":187267},"geometry":{"x":171307.09000000078,"y":2542336.629999999}},{"attributes":{"ID":187269,"DIS_CODE":0,"TOWNNAME":"東區","LI":"自強里","LIN":"5鄰","STREET":"東門路","SECT":"三段","MAREA":" ","LANE":"３７巷","ALLEY":"１０弄","HOUSE_NO":"３４號","E_COORD97":171311.26000000001,"N_COORD97":2542337.6699999999,"ADDRESS":"東門路三段３７巷１０弄３４號","OBJECTID":187268},"geometry":{"x":171311.25999999978,"y":2542337.6699999999}},{"attributes":{"ID":187270,"DIS_CODE":0,"TOWNNAME":"東區","LI":"自強里","LIN":"5鄰","STREET":"東門路","SECT":"三段","MAREA":" ","LANE":"３７巷","ALLEY":"１０弄","HOUSE_NO":"３號","E_COORD97":171250.13,"N_COORD97":2542356.0499999998,"ADDRESS":"東門路三段３７巷１０弄３號","OBJECTID":187269},"geometry":{"x":171250.13000000175,"y":2542356.0500000007}},{"attributes":{"ID":187271,"DIS_CODE":0,"TOWNNAME":"東區","LI":"自強里","LIN":"5鄰","STREET":"東門路","SECT":"三段","MAREA":" ","LANE":"３７巷","ALLEY":"１０弄","HOUSE_NO":"４號","E_COORD97":171247.35000000001,"N_COORD97":2542336.46,"ADDRESS":"東門路三段３７巷１０弄４號","OBJECTID":187270},"geometry":{"x":171247.35000000056,"y":2542336.4600000009}},{"attributes":{"ID":187272,"DIS_CODE":0,"TOWNNAME":"東區","LI":"自強里","LIN":"5鄰","STREET":"東門路","SECT":"三段","MAREA":" ","LANE":"３７巷","ALLEY":"１０弄","HOUSE_NO":"５號","E_COORD97":171253.78,"N_COORD97":2542356.5699999998,"ADDRESS":"東門路三段３７巷１０弄５號","OBJECTID":187271},"geometry":{"x":171253.78000000026,"y":2542356.5700000022}},{"attributes":{"ID":187273,"DIS_CODE":0,"TOWNNAME":"東區","LI":"自強里","LIN":"5鄰","STREET":"東門路","SECT":"三段","MAREA":" ","LANE":"３７巷","ALLEY":"１０弄","HOUSE_NO":"７號","E_COORD97":171258.98999999999,"N_COORD97":2542356.5699999998,"ADDRESS":"東門路三段３７巷１０弄７號","OBJECTID":187272},"geometry":{"x":171258.99000000115,"y":2542356.5700000022}},{"attributes":{"ID":187274,"DIS_CODE":0,"TOWNNAME":"東區","LI":"自強里","LIN":"5鄰","STREET":"東門路","SECT":"三段","MAREA":" ","LANE":"３７巷","ALLEY":"１０弄","HOUSE_NO":"８號","E_COORD97":171255.51000000001,"N_COORD97":2542336.6299999999,"ADDRESS":"東門路三段３７巷１０弄８號","OBJECTID":187273},"geometry":{"x":171255.50999999978,"y":2542336.629999999}},{"attributes":{"ID":187275,"DIS_CODE":0,"TOWNNAME":"東區","LI":"自強里","LIN":"5鄰","STREET":"東門路","SECT":"三段","MAREA":" ","LANE":"３７巷","ALLEY":"１０弄","HOUSE_NO":"９號","E_COORD97":171262.45999999999,"N_COORD97":2542356.5699999998,"ADDRESS":"東門路三段３７巷１０弄９號","OBJECTID":187274},"geometry":{"x":171262.45999999996,"y":2542356.5700000022}},{"attributes":{"ID":187276,"DIS_CODE":0,"TOWNNAME":"東區","LI":"自強里","LIN":"5鄰","STREET":"東門路","SECT":"三段","MAREA":" ","LANE":"３７巷","ALLEY":"１２弄","HOUSE_NO":"１０號","E_COORD97":171326.19,"N_COORD97":2542339.23,"ADDRESS":"東門路三段３７巷１２弄１０號","OBJECTID":187275},"geometry":{"x":171326.19000000041,"y":2542339.2300000023}},{"attributes":{"ID":187277,"DIS_CODE":0,"TOWNNAME":"佳里區","LI":"三協里","LIN":"11鄰","STREET":" ","SECT":" ","MAREA":"後庄","LANE":" ","ALLEY":" ","HOUSE_NO":"３１號之２","E_COORD97":168441.34,"N_COORD97":2564768.1600000001,"ADDRESS":"後庄３１號之２","OBJECTID":187276},"geometry":{"x":168441.34000000171,"y":2564768.1600000001}},{"attributes":{"ID":187278,"DIS_CODE":0,"TOWNNAME":"佳里區","LI":"三協里","LIN":"11鄰","STREET":" ","SECT":" ","MAREA":"後庄","LANE":" ","ALLEY":" ","HOUSE_NO":"３１號","E_COORD97":168479.53,"N_COORD97":2564769.7999999998,"ADDRESS":"後庄３１號","OBJECTID":187277},"geometry":{"x":168479.53000000212,"y":2564769.8000000026}},{"attributes":{"ID":187279,"DIS_CODE":0,"TOWNNAME":"佳里區","LI":"三協里","LIN":"11鄰","STREET":" ","SECT":" ","MAREA":"後庄","LANE":" ","ALLEY":" ","HOUSE_NO":"３３號","E_COORD97":168428.85999999999,"N_COORD97":2564766.4199999999,"ADDRESS":"後庄３３號","OBJECTID":187278},"geometry":{"x":168428.86000000127,"y":2564766.4199999999}},{"attributes":{"ID":187280,"DIS_CODE":0,"TOWNNAME":"佳里區","LI":"三協里","LIN":"11鄰","STREET":" ","SECT":" ","MAREA":"後庄","LANE":" ","ALLEY":" ","HOUSE_NO":"３４號之１","E_COORD97":168396.76999999999,"N_COORD97":2564755.0800000001,"ADDRESS":"後庄３４號之１","OBJECTID":187279},"geometry":{"x":168396.76999999955,"y":2564755.0800000001}},{"attributes":{"ID":187281,"DIS_CODE":0,"TOWNNAME":"東區","LI":"自強里","LIN":"5鄰","STREET":"東門路","SECT":"三段","MAREA":" ","LANE":"３７巷","ALLEY":"１２弄","HOUSE_NO":"１１號","E_COORD97":171266.60000000001,"N_COORD97":2542372.4399999999,"ADDRESS":"東門路三段３７巷１２弄１１號","OBJECTID":187280},"geometry":{"x":171266.59999999963,"y":2542372.4399999995}},{"attributes":{"ID":187282,"DIS_CODE":0,"TOWNNAME":"東區","LI":"自強里","LIN":"5鄰","STREET":"東門路","SECT":"三段","MAREA":" ","LANE":"３７巷","ALLEY":"１２弄","HOUSE_NO":"１２號","E_COORD97":171325.14999999999,"N_COORD97":2542333.8500000001,"ADDRESS":"東門路三段３７巷１２弄１２號","OBJECTID":187281},"geometry":{"x":171325.15000000224,"y":2542333.8500000015}},{"attributes":{"ID":187283,"DIS_CODE":0,"TOWNNAME":"東區","LI":"自強里","LIN":"5鄰","STREET":"東門路","SECT":"三段","MAREA":" ","LANE":"３７巷","ALLEY":"１２弄","HOUSE_NO":"１４號","E_COORD97":171336.44,"N_COORD97":2542334.2000000002,"ADDRESS":"東門路三段３７巷１２弄１４號","OBJECTID":187282},"geometry":{"x":171336.44000000041,"y":2542334.2000000011}},{"attributes":{"ID":187284,"DIS_CODE":0,"TOWNNAME":"六甲區","LI":"二甲里","LIN":"24鄰","STREET":"信義街","SECT":" ","MAREA":" ","LANE":" ","ALLEY":" ","HOUSE_NO":"２５４號","E_COORD97":183362.84,"N_COORD97":2569835.6600000001,"ADDRESS":"信義街２５４號","OBJECTID":187283},"geometry":{"x":183362.84000000078,"y":2569835.660000002}},{"attributes":{"ID":187285,"DIS_CODE":0,"TOWNNAME":"六甲區","LI":"二甲里","LIN":"24鄰","STREET":"信義街","SECT":" ","MAREA":" ","LANE":" ","ALLEY":" ","HOUSE_NO":"２５６號","E_COORD97":183364.14000000001,"N_COORD97":2569839.9399999999,"ADDRESS":"信義街２５６號","OBJECTID":187284},"geometry":{"x":183364.1400000006,"y":2569839.9400000013}},{"attributes":{"ID":187286,"DIS_CODE":0,"TOWNNAME":"六甲區","LI":"二甲里","LIN":"24鄰","STREET":"信義街","SECT":" ","MAREA":" ","LANE":" ","ALLEY":" ","HOUSE_NO":"２５８號","E_COORD97":183364.76000000001,"N_COORD97":2569844.4300000002,"ADDRESS":"信義街２５８號","OBJECTID":187285},"geometry":{"x":183364.76000000071,"y":2569844.4299999997}},{"attributes":{"ID":187287,"DIS_CODE":0,"TOWNNAME":"六甲區","LI":"二甲里","LIN":"24鄰","STREET":"信義街","SECT":" ","MAREA":" ","LANE":" ","ALLEY":" ","HOUSE_NO":"２６２號","E_COORD97":183366.20999999999,"N_COORD97":2569860.0800000001,"ADDRESS":"信義街２６２號","OBJECTID":187286},"geometry":{"x":183366.20999999996,"y":2569860.0800000019}},{"attributes":{"ID":187288,"DIS_CODE":0,"TOWNNAME":"六甲區","LI":"二甲里","LIN":"24鄰","STREET":"信義街","SECT":" ","MAREA":" ","LANE":" ","ALLEY":" ","HOUSE_NO":"２７８號","E_COORD97":183372,"N_COORD97":2569882.5600000001,"ADDRESS":"信義街２７８號","OBJECTID":187287},"geometry":{"x":183372.00000000093,"y":2569882.5599999987}},{"attributes":{"ID":187289,"DIS_CODE":0,"TOWNNAME":"東區","LI":"自強里","LIN":"5鄰","STREET":"東門路","SECT":"三段","MAREA":" ","LANE":"３７巷","ALLEY":"１２弄","HOUSE_NO":"１６號","E_COORD97":171335.57000000001,"N_COORD97":2542340.96,"ADDRESS":"東門路三段３７巷１２弄１６號","OBJECTID":187288},"geometry":{"x":171335.56999999937,"y":2542340.9600000028}},{"attributes":{"ID":187290,"DIS_CODE":0,"TOWNNAME":"東區","LI":"自強里","LIN":"5鄰","STREET":"東門路","SECT":"三段","MAREA":" ","LANE":"３７巷","ALLEY":"１２弄","HOUSE_NO":"１８號","E_COORD97":171339,"N_COORD97":2542357.6499999999,"ADDRESS":"東門路三段３７巷１２弄１８號","OBJECTID":187289},"geometry":{"x":171339,"y":2542357.6500000004}},{"attributes":{"ID":187291,"DIS_CODE":0,"TOWNNAME":"東區","LI":"自強里","LIN":"5鄰","STREET":"東門路","SECT":"三段","MAREA":" ","LANE":"３７巷","ALLEY":"１２弄","HOUSE_NO":"１９號","E_COORD97":171290.13,"N_COORD97":2542371.4300000002,"ADDRESS":"東門路三段３７巷１２弄１９號","OBJECTID":187290},"geometry":{"x":171290.12999999989,"y":2542371.4300000016}},{"attributes":{"ID":187292,"DIS_CODE":0,"TOWNNAME":"東區","LI":"自強里","LIN":"5鄰","STREET":"東門路","SECT":"三段","MAREA":" ","LANE":"３７巷","ALLEY":"１２弄","HOUSE_NO":"１號","E_COORD97":171244.22,"N_COORD97":2542370.8599999999,"ADDRESS":"東門路三段３７巷１２弄１號","OBJECTID":187291},"geometry":{"x":171244.2200000016,"y":2542370.8600000013}},{"attributes":{"ID":187293,"DIS_CODE":0,"TOWNNAME":"東區","LI":"自強里","LIN":"5鄰","STREET":"東門路","SECT":"三段","MAREA":" ","LANE":"３７巷","ALLEY":"１２弄","HOUSE_NO":"２０號","E_COORD97":171342.69,"N_COORD97":2542359.6499999999,"ADDRESS":"東門路三段３７巷１２弄２０號","OBJECTID":187292},"geometry":{"x":171342.69000000041,"y":2542359.6500000022}},{"attributes":{"ID":187294,"DIS_CODE":0,"TOWNNAME":"東區","LI":"自強里","LIN":"5鄰","STREET":"東門路","SECT":"三段","MAREA":" ","LANE":"３７巷","ALLEY":"１２弄","HOUSE_NO":"２１號","E_COORD97":171294.57999999999,"N_COORD97":2542371.7200000002,"ADDRESS":"東門路三段３７巷１２弄２１號","OBJECTID":187293},"geometry":{"x":171294.57999999914,"y":2542371.7200000007}},{"attributes":{"ID":187295,"DIS_CODE":0,"TOWNNAME":"東區","LI":"自強里","LIN":"5鄰","STREET":"東門路","SECT":"三段","MAREA":" ","LANE":"３７巷","ALLEY":"１２弄","HOUSE_NO":"２２號","E_COORD97":171347.54000000001,"N_COORD97":2542359.8199999998,"ADDRESS":"東門路三段３７巷１２弄２２號","OBJECTID":187294},"geometry":{"x":171347.5400000019,"y":2542359.8200000003}},{"attributes":{"ID":187296,"DIS_CODE":0,"TOWNNAME":"東區","LI":"自強里","LIN":"5鄰","STREET":"東門路","SECT":"三段","MAREA":" ","LANE":"３７巷","ALLEY":"１２弄","HOUSE_NO":"２３號","E_COORD97":171300.75,"N_COORD97":2542374.1600000001,"ADDRESS":"東門路三段３７巷１２弄２３號","OBJECTID":187295},"geometry":{"x":171300.75000000093,"y":2542374.1600000001}},{"attributes":{"ID":187297,"DIS_CODE":0,"TOWNNAME":"官田區","LI":"官田里","LIN":"28鄰","STREET":" ","SECT":" ","MAREA":"中\u25A0","LANE":" ","ALLEY":" ","HOUSE_NO":"２８號","E_COORD97":183402.98000000001,"N_COORD97":2566511.1800000002,"ADDRESS":"中\u25A0２８號","OBJECTID":187296},"geometry":{"x":183402.98000000138,"y":2566511.1800000034}},{"attributes":{"ID":187298,"DIS_CODE":0,"TOWNNAME":"東區","LI":"龍山里","LIN":"10鄰","STREET":"東門路","SECT":"二段","MAREA":" ","LANE":" ","ALLEY":" ","HOUSE_NO":"１２號","E_COORD97":169945.41,"N_COORD97":2542990.3799999999,"ADDRESS":"東門路二段１２號","OBJECTID":187297},"geometry":{"x":169945.41000000108,"y":2542990.3800000008}},{"attributes":{"ID":187299,"DIS_CODE":0,"TOWNNAME":"東區","LI":"龍山里","LIN":"10鄰","STREET":"東門路","SECT":"二段","MAREA":" ","LANE":" ","ALLEY":" ","HOUSE_NO":"１４號","E_COORD97":169948.85000000001,"N_COORD97":2542988.6600000001,"ADDRESS":"東門路二段１４號","OBJECTID":187298},"geometry":{"x":169948.85000000056,"y":2542988.6600000001}},{"attributes":{"ID":187300,"DIS_CODE":0,"TOWNNAME":"東區","LI":"龍山里","LIN":"10鄰","STREET":"東門路","SECT":"二段","MAREA":" ","LANE":" ","ALLEY":" ","HOUSE_NO":"１８號","E_COORD97":169956.92999999999,"N_COORD97":2542986.6000000001,"ADDRESS":"東門路二段１８號","OBJECTID":187299},"geometry":{"x":169956.93000000063,"y":2542986.6000000015}},{"attributes":{"ID":187301,"DIS_CODE":0,"TOWNNAME":"東區","LI":"龍山里","LIN":"10鄰","STREET":"東門路","SECT":"二段","MAREA":" ","LANE":" ","ALLEY":" ","HOUSE_NO":"２０號","E_COORD97":169961.39000000001,"N_COORD97":2542985.0600000001,"ADDRESS":"東門路二段２０號","OBJECTID":187300},"geometry":{"x":169961.39000000153,"y":2542985.0600000024}},{"attributes":{"ID":187302,"DIS_CODE":0,"TOWNNAME":"東區","LI":"龍山里","LIN":"10鄰","STREET":"東門路","SECT":"二段","MAREA":" ","LANE":" ","ALLEY":" ","HOUSE_NO":"２４號","E_COORD97":169967.82000000001,"N_COORD97":2542980.7599999998,"ADDRESS":"東門路二段２４號","OBJECTID":187301},"geometry":{"x":169967.82000000123,"y":2542980.7599999998}},{"attributes":{"ID":187303,"DIS_CODE":0,"TOWNNAME":"東區","LI":"龍山里","LIN":"10鄰","STREET":"東門路","SECT":"二段","MAREA":" ","LANE":" ","ALLEY":" ","HOUSE_NO":"２６號","E_COORD97":169971.88,"N_COORD97":2542979.73,"ADDRESS":"東門路二段２６號","OBJECTID":187302},"geometry":{"x":169971.88000000175,"y":2542979.7300000023}},{"attributes":{"ID":187304,"DIS_CODE":0,"TOWNNAME":"東區","LI":"龍山里","LIN":"10鄰","STREET":"東門路","SECT":"二段","MAREA":" ","LANE":" ","ALLEY":" ","HOUSE_NO":"２８號","E_COORD97":169976.69,"N_COORD97":2542978.7000000002,"ADDRESS":"東門路二段２８號","OBJECTID":187303},"geometry":{"x":169976.69000000041,"y":2542978.7000000011}},{"attributes":{"ID":187305,"DIS_CODE":0,"TOWNNAME":"東區","LI":"龍山里","LIN":"10鄰","STREET":"東門路","SECT":"二段","MAREA":" ","LANE":" ","ALLEY":" ","HOUSE_NO":"３０號","E_COORD97":169980.82000000001,"N_COORD97":2542977.3300000001,"ADDRESS":"東門路二段３０號","OBJECTID":187304},"geometry":{"x":169980.8200000003,"y":2542977.3300000001}},{"attributes":{"ID":187306,"DIS_CODE":0,"TOWNNAME":"東區","LI":"龍山里","LIN":"10鄰","STREET":"東門路","SECT":"二段","MAREA":" ","LANE":" ","ALLEY":" ","HOUSE_NO":"３２號","E_COORD97":169985.28,"N_COORD97":2542975.27,"ADDRESS":"東門路二段３２號","OBJECTID":187305},"geometry":{"x":169985.28000000119,"y":2542975.2700000014}},{"attributes":{"ID":187307,"DIS_CODE":0,"TOWNNAME":"佳里區","LI":"三協里","LIN":"11鄰","STREET":" ","SECT":" ","MAREA":"後庄","LANE":" ","ALLEY":" ","HOUSE_NO":"３４號之３２","E_COORD97":167877.10999999999,"N_COORD97":2564883.1200000001,"ADDRESS":"後庄３４號之３２","OBJECTID":187306},"geometry":{"x":167877.11000000034,"y":2564883.1200000029}},{"attributes":{"ID":187308,"DIS_CODE":0,"TOWNNAME":"佳里區","LI":"三協里","LIN":"11鄰","STREET":" ","SECT":" ","MAREA":"後庄","LANE":" ","ALLEY":" ","HOUSE_NO":"３４號之３３","E_COORD97":167913.57999999999,"N_COORD97":2564862.8900000001,"ADDRESS":"後庄３４號之３３","OBJECTID":187307},"geometry":{"x":167913.58000000101,"y":2564862.8900000043}},{"attributes":{"ID":187309,"DIS_CODE":0,"TOWNNAME":"佳里區","LI":"三協里","LIN":"11鄰","STREET":" ","SECT":" ","MAREA":"後庄","LANE":" ","ALLEY":" ","HOUSE_NO":"３４號","E_COORD97":168412.69,"N_COORD97":2564768.4500000002,"ADDRESS":"後庄３４號","OBJECTID":187308},"geometry":{"x":168412.69000000134,"y":2564768.4499999993}},{"attributes":{"ID":187310,"DIS_CODE":0,"TOWNNAME":"佳里區","LI":"三協里","LIN":"11鄰","STREET":" ","SECT":" ","MAREA":"後庄","LANE":" ","ALLEY":" ","HOUSE_NO":"３５號","E_COORD97":168395.45000000001,"N_COORD97":2564783.5299999998,"ADDRESS":"後庄３５號","OBJECTID":187309},"geometry":{"x":168395.45000000112,"y":2564783.5300000012}},{"attributes":{"ID":187311,"DIS_CODE":0,"TOWNNAME":"佳里區","LI":"三協里","LIN":"11鄰","STREET":" ","SECT":" ","MAREA":"後庄","LANE":" ","ALLEY":" ","HOUSE_NO":"３６號","E_COORD97":168412.01000000001,"N_COORD97":2564817.4300000002,"ADDRESS":"後庄３６號","OBJECTID":187310},"geometry":{"x":168412.01000000071,"y":2564817.4299999978}},{"attributes":{"ID":187312,"DIS_CODE":0,"TOWNNAME":"佳里區","LI":"三協里","LIN":"11鄰","STREET":" ","SECT":" ","MAREA":"後庄","LANE":" ","ALLEY":" ","HOUSE_NO":"３７號","E_COORD97":168423.94,"N_COORD97":2564832.7000000002,"ADDRESS":"後庄３７號","OBJECTID":187311},"geometry":{"x":168423.94000000041,"y":2564832.7000000011}},{"attributes":{"ID":187313,"DIS_CODE":0,"TOWNNAME":"佳里區","LI":"通興里","LIN":"11鄰","STREET":" ","SECT":" ","MAREA":"埔頂","LANE":" ","ALLEY":" ","HOUSE_NO":"４７號","E_COORD97":163610.22,"N_COORD97":2560739.7200000002,"ADDRESS":"埔頂４７號","OBJECTID":187312},"geometry":{"x":163610.21999999974,"y":2560739.7200000025}},{"attributes":{"ID":187314,"DIS_CODE":0,"TOWNNAME":"佳里區","LI":"通興里","LIN":"11鄰","STREET":" ","SECT":" ","MAREA":"埔頂","LANE":" ","ALLEY":" ","HOUSE_NO":"４８號","E_COORD97":163625.73999999999,"N_COORD97":2560756.9900000002,"ADDRESS":"埔頂４８號","OBJECTID":187313},"geometry":{"x":163625.74000000022,"y":2560756.9900000021}},{"attributes":{"ID":187315,"DIS_CODE":0,"TOWNNAME":"佳里區","LI":"通興里","LIN":"11鄰","STREET":" ","SECT":" ","MAREA":"埔頂","LANE":" ","ALLEY":" ","HOUSE_NO":"４９號","E_COORD97":163606.10000000001,"N_COORD97":2560769.5,"ADDRESS":"埔頂４９號","OBJECTID":187314},"geometry":{"x":163606.09999999963,"y":2560769.5000000037}},{"attributes":{"ID":187316,"DIS_CODE":0,"TOWNNAME":"佳里區","LI":"通興里","LIN":"11鄰","STREET":" ","SECT":" ","MAREA":"埔頂","LANE":" ","ALLEY":" ","HOUSE_NO":"５０號","E_COORD97":163584.04999999999,"N_COORD97":2560775.5800000001,"ADDRESS":"埔頂５０號","OBJECTID":187315},"geometry":{"x":163584.05000000075,"y":2560775.5800000038}},{"attributes":{"ID":187317,"DIS_CODE":0,"TOWNNAME":"佳里區","LI":"通興里","LIN":"11鄰","STREET":" ","SECT":" ","MAREA":"埔頂","LANE":" ","ALLEY":" ","HOUSE_NO":"５１號之１","E_COORD97":163564.97,"N_COORD97":2560717.54,"ADDRESS":"埔頂５１號之１","OBJECTID":187316},"geometry":{"x":163564.9700000016,"y":2560717.540000001}},{"attributes":{"ID":187318,"DIS_CODE":0,"TOWNNAME":"佳里區","LI":"通興里","LIN":"11鄰","STREET":" ","SECT":" ","MAREA":"埔頂","LANE":" ","ALLEY":" ","HOUSE_NO":"５１號之２","E_COORD97":163565.94,"N_COORD97":2560713.2799999998,"ADDRESS":"埔頂５１號之２","OBJECTID":187317},"geometry":{"x":163565.94000000227,"y":2560713.2800000012}},{"attributes":{"ID":187319,"DIS_CODE":0,"TOWNNAME":"佳里區","LI":"通興里","LIN":"11鄰","STREET":" ","SECT":" ","MAREA":"埔頂","LANE":" ","ALLEY":" ","HOUSE_NO":"５１號之３","E_COORD97":163566.79999999999,"N_COORD97":2560708.77,"ADDRESS":"埔頂５１號之３","OBJECTID":187318},"geometry":{"x":163566.80000000075,"y":2560708.7699999996}},{"attributes":{"ID":187320,"DIS_CODE":0,"TOWNNAME":"官田區","LI":"官田里","LIN":"28鄰","STREET":" ","SECT":" ","MAREA":"中\u25A0","LANE":" ","ALLEY":" ","HOUSE_NO":"１８號","E_COORD97":183350.09,"N_COORD97":2566568.8500000001,"ADDRESS":"中\u25A0１８號","OBJECTID":187319},"geometry":{"x":183350.08999999985,"y":2566568.8500000015}},{"attributes":{"ID":187321,"DIS_CODE":0,"TOWNNAME":"佳里區","LI":"通興里","LIN":"11鄰","STREET":" ","SECT":" ","MAREA":"埔頂","LANE":" ","ALLEY":" ","HOUSE_NO":"５１號之４","E_COORD97":163567.39000000001,"N_COORD97":2560704.8900000001,"ADDRESS":"埔頂５１號之４","OBJECTID":187320},"geometry":{"x":163567.3900000006,"y":2560704.8900000006}},{"attributes":{"ID":187322,"DIS_CODE":0,"TOWNNAME":"佳里區","LI":"通興里","LIN":"11鄰","STREET":" ","SECT":" ","MAREA":"埔頂","LANE":" ","ALLEY":" ","HOUSE_NO":"５１號之５","E_COORD97":163569.16,"N_COORD97":2560699.6499999999,"ADDRESS":"埔頂５１號之５","OBJECTID":187321},"geometry":{"x":163569.15999999922,"y":2560699.6500000004}},{"attributes":{"ID":187323,"DIS_CODE":0,"TOWNNAME":"佳里區","LI":"通興里","LIN":"11鄰","STREET":" ","SECT":" ","MAREA":"埔頂","LANE":" ","ALLEY":" ","HOUSE_NO":"５１號之６","E_COORD97":163558.12,"N_COORD97":2560728.8700000001,"ADDRESS":"埔頂５１號之６","OBJECTID":187322},"geometry":{"x":163558.12000000104,"y":2560728.8700000029}},{"attributes":{"ID":187324,"DIS_CODE":0,"TOWNNAME":"佳里區","LI":"通興里","LIN":"11鄰","STREET":" ","SECT":" ","MAREA":"埔頂","LANE":" ","ALLEY":" ","HOUSE_NO":"５１號","E_COORD97":163559.92000000001,"N_COORD97":2560725.0099999998,"ADDRESS":"埔頂５１號","OBJECTID":187323},"geometry":{"x":163559.91999999993,"y":2560725.0100000035}},{"attributes":{"ID":187325,"DIS_CODE":0,"TOWNNAME":"佳里區","LI":"通興里","LIN":"11鄰","STREET":" ","SECT":" ","MAREA":"埔頂","LANE":" ","ALLEY":" ","HOUSE_NO":"５２號之１","E_COORD97":163531.44,"N_COORD97":2560736.3999999999,"ADDRESS":"埔頂５２號之１","OBJECTID":187324},"geometry":{"x":163531.44000000041,"y":2560736.4000000041}},{"attributes":{"ID":187326,"DIS_CODE":0,"TOWNNAME":"東區","LI":"自強里","LIN":"5鄰","STREET":"東門路","SECT":"三段","MAREA":" ","LANE":"３７巷","ALLEY":"１２弄","HOUSE_NO":"２２之１號","E_COORD97":171351.54000000001,"N_COORD97":2542359.6499999999,"ADDRESS":"東門路三段３７巷１２弄２２之１號","OBJECTID":187325},"geometry":{"x":171351.54000000097,"y":2542359.6500000022}},{"attributes":{"ID":187327,"DIS_CODE":0,"TOWNNAME":"東區","LI":"龍山里","LIN":"10鄰","STREET":"東門路","SECT":"二段","MAREA":" ","LANE":" ","ALLEY":" ","HOUSE_NO":"９２號","E_COORD97":170020.17000000001,"N_COORD97":2542961.7000000002,"ADDRESS":"東門路二段９２號","OBJECTID":187326},"geometry":{"x":170020.16999999993,"y":2542961.7000000011}},{"attributes":{"ID":187328,"DIS_CODE":0,"TOWNNAME":"東區","LI":"龍山里","LIN":"10鄰","STREET":"東門路","SECT":"二段","MAREA":" ","LANE":" ","ALLEY":" ","HOUSE_NO":"９４號","E_COORD97":170025.32999999999,"N_COORD97":2542962.8999999999,"ADDRESS":"東門路二段９４號","OBJECTID":187327},"geometry":{"x":170025.33000000101,"y":2542962.9000000004}},{"attributes":{"ID":187329,"DIS_CODE":0,"TOWNNAME":"東區","LI":"富強里","LIN":"10鄰","STREET":"中華東路","SECT":"二段","MAREA":" ","LANE":" ","ALLEY":" ","HOUSE_NO":"１５６號","E_COORD97":171215.57999999999,"N_COORD97":2542707.7000000002,"ADDRESS":"中華東路二段１５６號","OBJECTID":187328},"geometry":{"x":171215.58000000101,"y":2542707.7000000011}},{"attributes":{"ID":187330,"DIS_CODE":0,"TOWNNAME":"東區","LI":"自強里","LIN":"5鄰","STREET":"東門路","SECT":"三段","MAREA":" ","LANE":"３７巷","ALLEY":"１２弄","HOUSE_NO":"２５號","E_COORD97":171307.92000000001,"N_COORD97":2542375.4500000002,"ADDRESS":"東門路三段３７巷１２弄２５號","OBJECTID":187329},"geometry":{"x":171307.92000000086,"y":2542375.4499999993}},{"attributes":{"ID":187331,"DIS_CODE":0,"TOWNNAME":"永康區","LI":"北灣里","LIN":"10鄰","STREET":"信義街","SECT":" ","MAREA":" ","LANE":" ","ALLEY":" ","HOUSE_NO":"１０８號","E_COORD97":175148.70000000001,"N_COORD97":2545634.75,"ADDRESS":"信義街１０８號","OBJECTID":187330},"geometry":{"x":175148.70000000019,"y":2545634.75}},{"attributes":{"ID":187332,"DIS_CODE":0,"TOWNNAME":"東區","LI":"崇文里","LIN":"10鄰","STREET":"崇德十八街","SECT":" ","MAREA":" ","LANE":" ","ALLEY":" ","HOUSE_NO":"１２號","E_COORD97":170852.34,"N_COORD97":2541017.1600000001,"ADDRESS":"崇德十八街１２號","OBJECTID":187331},"geometry":{"x":170852.34000000078,"y":2541017.160000002}},{"attributes":{"ID":187333,"DIS_CODE":0,"TOWNNAME":"東區","LI":"崇文里","LIN":"10鄰","STREET":"崇德十八街","SECT":" ","MAREA":" ","LANE":" ","ALLEY":" ","HOUSE_NO":"１４號","E_COORD97":170852.14000000001,"N_COORD97":2541008.1000000001,"ADDRESS":"崇德十八街１４號","OBJECTID":187332},"geometry":{"x":170852.1400000006,"y":2541008.0999999996}},{"attributes":{"ID":187334,"DIS_CODE":0,"TOWNNAME":"東區","LI":"崇文里","LIN":"10鄰","STREET":"崇德十八街","SECT":" ","MAREA":" ","LANE":" ","ALLEY":" ","HOUSE_NO":"１６號","E_COORD97":170859.60000000001,"N_COORD97":2541007.9100000001,"ADDRESS":"崇德十八街１６號","OBJECTID":187333},"geometry":{"x":170859.59999999963,"y":2541007.910000002}},{"attributes":{"ID":187335,"DIS_CODE":0,"TOWNNAME":"東區","LI":"崇文里","LIN":"10鄰","STREET":"崇德十八街","SECT":" ","MAREA":" ","LANE":" ","ALLEY":" ","HOUSE_NO":"１８號","E_COORD97":170866.47,"N_COORD97":2541008.1000000001,"ADDRESS":"崇德十八街１８號","OBJECTID":187334},"geometry":{"x":170866.47000000067,"y":2541008.0999999996}},{"attributes":{"ID":187336,"DIS_CODE":0,"TOWNNAME":"東區","LI":"自強里","LIN":"5鄰","STREET":"東門路","SECT":"三段","MAREA":" ","LANE":"３７巷","ALLEY":"１２弄","HOUSE_NO":"２６號","E_COORD97":171356.22,"N_COORD97":2542359.4900000002,"ADDRESS":"東門路三段３７巷１２弄２６號","OBJECTID":187335},"geometry":{"x":171356.2200000016,"y":2542359.4900000002}},{"attributes":{"ID":187337,"DIS_CODE":0,"TOWNNAME":"東區","LI":"自強里","LIN":"5鄰","STREET":"東門路","SECT":"三段","MAREA":" ","LANE":"３７巷","ALLEY":"１２弄","HOUSE_NO":"２７號","E_COORD97":171313.09,"N_COORD97":2542376.3100000001,"ADDRESS":"東門路三段３７巷１２弄２７號","OBJECTID":187336},"geometry":{"x":171313.09000000171,"y":2542376.3100000024}},{"attributes":{"ID":187338,"DIS_CODE":0,"TOWNNAME":"東區","LI":"自強里","LIN":"5鄰","STREET":"東門路","SECT":"三段","MAREA":" ","LANE":"３７巷","ALLEY":"１２弄","HOUSE_NO":"２８號","E_COORD97":171360.72,"N_COORD97":2542358.9900000002,"ADDRESS":"東門路三段３７巷１２弄２８號","OBJECTID":187337},"geometry":{"x":171360.71999999974,"y":2542358.9900000002}},{"attributes":{"ID":187339,"DIS_CODE":0,"TOWNNAME":"東區","LI":"崇文里","LIN":"10鄰","STREET":"崇德十八街","SECT":" ","MAREA":" ","LANE":" ","ALLEY":" ","HOUSE_NO":"２０號","E_COORD97":170864.78,"N_COORD97":2541017.2599999998,"ADDRESS":"崇德十八街２０號","OBJECTID":187338},"geometry":{"x":170864.78000000212,"y":2541017.2599999998}},{"attributes":{"ID":187340,"DIS_CODE":0,"TOWNNAME":"歸仁區","LI":"沙崙里","LIN":"10鄰","STREET":" ","SECT":" ","MAREA":"沙崙","LANE":" ","ALLEY":" ","HOUSE_NO":"４１５號","E_COORD97":180504.64999999999,"N_COORD97":2537957.25,"ADDRESS":"沙崙４１５號","OBJECTID":187339},"geometry":{"x":180504.6500000013,"y":2537957.2500000037}},{"attributes":{"ID":187341,"DIS_CODE":0,"TOWNNAME":"新市區","LI":"港墘里","LIN":"10鄰","STREET":" ","SECT":" ","MAREA":"崙頂","LANE":" ","ALLEY":" ","HOUSE_NO":"６２號之９","E_COORD97":178953.59,"N_COORD97":2552685.7999999998,"ADDRESS":"崙頂６２號之９","OBJECTID":187340},"geometry":{"x":178953.59000000078,"y":2552685.8000000026}},{"attributes":{"ID":187342,"DIS_CODE":0,"TOWNNAME":"麻豆區","LI":"南勢里","LIN":"10鄰","STREET":" ","SECT":" ","MAREA":"南勢","LANE":" ","ALLEY":" ","HOUSE_NO":"１號之２５","E_COORD97":174601.35000000001,"N_COORD97":2565828.5499999998,"ADDRESS":"南勢１號之２５","OBJECTID":187341},"geometry":{"x":174601.35000000149,"y":2565828.5500000026}},{"attributes":{"ID":187343,"DIS_CODE":0,"TOWNNAME":"佳里區","LI":"通興里","LIN":"11鄰","STREET":" ","SECT":" ","MAREA":"埔頂","LANE":" ","ALLEY":" ","HOUSE_NO":"５２號","E_COORD97":163526.69,"N_COORD97":2560743.1600000001,"ADDRESS":"埔頂５２號","OBJECTID":187342},"geometry":{"x":163526.69000000041,"y":2560743.1600000001}},{"attributes":{"ID":187344,"DIS_CODE":0,"TOWNNAME":"佳里區","LI":"通興里","LIN":"11鄰","STREET":" ","SECT":" ","MAREA":"埔頂","LANE":" ","ALLEY":" ","HOUSE_NO":"５３號","E_COORD97":163546.82999999999,"N_COORD97":2560700.8100000001,"ADDRESS":"埔頂５３號","OBJECTID":187343},"geometry":{"x":163546.83000000101,"y":2560700.8100000024}},{"attributes":{"ID":187345,"DIS_CODE":0,"TOWNNAME":"佳里區","LI":"通興里","LIN":"11鄰","STREET":" ","SECT":" ","MAREA":"埔頂","LANE":" ","ALLEY":" ","HOUSE_NO":"５４號之１","E_COORD97":163506.76999999999,"N_COORD97":2560695.23,"ADDRESS":"埔頂５４號之１","OBJECTID":187344},"geometry":{"x":163506.76999999862,"y":2560695.2300000023}},{"attributes":{"ID":187346,"DIS_CODE":0,"TOWNNAME":"佳里區","LI":"通興里","LIN":"11鄰","STREET":" ","SECT":" ","MAREA":"埔頂","LANE":" ","ALLEY":" ","HOUSE_NO":"５４號之２","E_COORD97":163526.13,"N_COORD97":2560698.27,"ADDRESS":"埔頂５４號之２","OBJECTID":187345},"geometry":{"x":163526.12999999989,"y":2560698.2699999996}},{"attributes":{"ID":187347,"DIS_CODE":0,"TOWNNAME":"佳里區","LI":"通興里","LIN":"11鄰","STREET":" ","SECT":" ","MAREA":"埔頂","LANE":" ","ALLEY":" ","HOUSE_NO":"５４號之３","E_COORD97":163540.60000000001,"N_COORD97":2560701.6000000001,"ADDRESS":"埔頂５４號之３","OBJECTID":187346},"geometry":{"x":163540.60000000056,"y":2560701.6000000015}},{"attributes":{"ID":187348,"DIS_CODE":0,"TOWNNAME":"佳里區","LI":"通興里","LIN":"11鄰","STREET":" ","SECT":" ","MAREA":"埔頂","LANE":" ","ALLEY":" ","HOUSE_NO":"５４號","E_COORD97":163489.85999999999,"N_COORD97":2560733.8900000001,"ADDRESS":"埔頂５４號","OBJECTID":187347},"geometry":{"x":163489.86000000034,"y":2560733.8900000025}},{"attributes":{"ID":187349,"DIS_CODE":0,"TOWNNAME":"佳里區","LI":"蚶寮里","LIN":"11鄰","STREET":" ","SECT":" ","MAREA":"蚶寮","LANE":" ","ALLEY":" ","HOUSE_NO":"１０６號之８","E_COORD97":162884.62,"N_COORD97":2558654.5600000001,"ADDRESS":"蚶寮１０６號之８","OBJECTID":187348},"geometry":{"x":162884.62000000197,"y":2558654.5600000024}},{"attributes":{"ID":187350,"DIS_CODE":0,"TOWNNAME":"佳里區","LI":"蚶寮里","LIN":"11鄰","STREET":" ","SECT":" ","MAREA":"蚶寮","LANE":" ","ALLEY":" ","HOUSE_NO":"１０６號之９","E_COORD97":162854.54999999999,"N_COORD97":2558664.46,"ADDRESS":"蚶寮１０６號之９","OBJECTID":187349},"geometry":{"x":162854.55000000075,"y":2558664.4600000009}},{"attributes":{"ID":187351,"DIS_CODE":0,"TOWNNAME":"佳里區","LI":"蚶寮里","LIN":"11鄰","STREET":" ","SECT":" ","MAREA":"蚶寮","LANE":" ","ALLEY":" ","HOUSE_NO":"１０７號之１","E_COORD97":162835.31,"N_COORD97":2558625.3599999999,"ADDRESS":"蚶寮１０７號之１","OBJECTID":187350},"geometry":{"x":162835.31000000145,"y":2558625.3599999994}},{"attributes":{"ID":187352,"DIS_CODE":0,"TOWNNAME":"佳里區","LI":"蚶寮里","LIN":"11鄰","STREET":" ","SECT":" ","MAREA":"蚶寮","LANE":" ","ALLEY":" ","HOUSE_NO":"１０７號之６","E_COORD97":162884,"N_COORD97":2558625.0800000001,"ADDRESS":"蚶寮１０７號之６","OBJECTID":187351},"geometry":{"x":162884.00000000093,"y":2558625.0800000001}},{"attributes":{"ID":187353,"DIS_CODE":0,"TOWNNAME":"佳里區","LI":"蚶寮里","LIN":"11鄰","STREET":" ","SECT":" ","MAREA":"蚶寮","LANE":" ","ALLEY":" ","HOUSE_NO":"１０７號","E_COORD97":162872.78,"N_COORD97":2558629.7799999998,"ADDRESS":"蚶寮１０７號","OBJECTID":187352},"geometry":{"x":162872.78000000026,"y":2558629.7799999993}},{"attributes":{"ID":187354,"DIS_CODE":0,"TOWNNAME":"佳里區","LI":"頂\u25A0里","LIN":"11鄰","STREET":" ","SECT":" ","MAREA":"頂\u25A0","LANE":" ","ALLEY":" ","HOUSE_NO":"１２７號","E_COORD97":162911.60999999999,"N_COORD97":2563813.6099999999,"ADDRESS":"頂\u25A0１２７號","OBJECTID":187353},"geometry":{"x":162911.61000000034,"y":2563813.6100000013}},{"attributes":{"ID":187355,"DIS_CODE":0,"TOWNNAME":"佳里區","LI":"頂\u25A0里","LIN":"11鄰","STREET":" ","SECT":" ","MAREA":"頂\u25A0","LANE":" ","ALLEY":" ","HOUSE_NO":"１２８號","E_COORD97":162911.91,"N_COORD97":2563802.7200000002,"ADDRESS":"頂\u25A0１２８號","OBJECTID":187354},"geometry":{"x":162911.91000000108,"y":2563802.7199999988}},{"attributes":{"ID":187356,"DIS_CODE":0,"TOWNNAME":"佳里區","LI":"頂\u25A0里","LIN":"11鄰","STREET":" ","SECT":" ","MAREA":"頂\u25A0","LANE":" ","ALLEY":" ","HOUSE_NO":"１２９號","E_COORD97":162903.84,"N_COORD97":2563783.6400000001,"ADDRESS":"頂\u25A0１２９號","OBJECTID":187355},"geometry":{"x":162903.84000000078,"y":2563783.6400000025}},{"attributes":{"ID":187357,"DIS_CODE":0,"TOWNNAME":"佳里區","LI":"頂\u25A0里","LIN":"11鄰","STREET":" ","SECT":" ","MAREA":"頂\u25A0","LANE":" ","ALLEY":" ","HOUSE_NO":"１３０號","E_COORD97":162880.28,"N_COORD97":2563789.96,"ADDRESS":"頂\u25A0１３０號","OBJECTID":187356},"geometry":{"x":162880.28000000212,"y":2563789.9600000009}},{"attributes":{"ID":187358,"DIS_CODE":0,"TOWNNAME":"東區","LI":"自強里","LIN":"5鄰","STREET":"東門路","SECT":"三段","MAREA":" ","LANE":"３７巷","ALLEY":"１２弄","HOUSE_NO":"２９號","E_COORD97":171401.89000000001,"N_COORD97":2542374.5699999998,"ADDRESS":"東門路三段３７巷１２弄２９號","OBJECTID":187357},"geometry":{"x":171401.88999999966,"y":2542374.5700000022}},{"attributes":{"ID":187359,"DIS_CODE":0,"TOWNNAME":"下營區","LI":"後街里","LIN":"10鄰","STREET":"民權一街","SECT":" ","MAREA":" ","LANE":" ","ALLEY":" ","HOUSE_NO":"１２０號","E_COORD97":174426.31,"N_COORD97":2570667.9700000002,"ADDRESS":"民權一街１２０號","OBJECTID":187358},"geometry":{"x":174426.30999999959,"y":2570667.9700000025}},{"attributes":{"ID":187360,"DIS_CODE":0,"TOWNNAME":"下營區","LI":"後街里","LIN":"10鄰","STREET":"民權一街","SECT":" ","MAREA":" ","LANE":" ","ALLEY":" ","HOUSE_NO":"１２２號","E_COORD97":174425.09,"N_COORD97":2570672.4100000001,"ADDRESS":"民權一街１２２號","OBJECTID":187359},"geometry":{"x":174425.08999999985,"y":2570672.4100000001}},{"attributes":{"ID":187361,"DIS_CODE":0,"TOWNNAME":"下營區","LI":"後街里","LIN":"10鄰","STREET":"民權一街","SECT":" ","MAREA":" ","LANE":" ","ALLEY":" ","HOUSE_NO":"１２６號","E_COORD97":174429.38,"N_COORD97":2570680.7999999998,"ADDRESS":"民權一街１２６號","OBJECTID":187360},"geometry":{"x":174429.38000000082,"y":2570680.8000000007}},{"attributes":{"ID":187362,"DIS_CODE":0,"TOWNNAME":"白河區","LI":"關嶺里","LIN":"10鄰","STREET":" ","SECT":" ","MAREA":"南寮","LANE":" ","ALLEY":" ","HOUSE_NO":"３５之１號","E_COORD97":198110.60195800001,"N_COORD97":2579098.43029,"ADDRESS":"南寮３５之１號","OBJECTID":187361},"geometry":{"x":198110.60195800103,"y":2579098.4302879982}},{"attributes":{"ID":187363,"DIS_CODE":0,"TOWNNAME":"東區","LI":"自強里","LIN":"5鄰","STREET":"東門路","SECT":"三段","MAREA":" ","LANE":"３７巷","ALLEY":"１２弄","HOUSE_NO":"２號","E_COORD97":171315.16,"N_COORD97":2542357.79,"ADDRESS":"東門路三段３７巷１２弄２號","OBJECTID":187362},"geometry":{"x":171315.16000000108,"y":2542357.790000001}},{"attributes":{"ID":187364,"DIS_CODE":0,"TOWNNAME":"東區","LI":"自強里","LIN":"5鄰","STREET":"東門路","SECT":"三段","MAREA":" ","LANE":"３７巷","ALLEY":"１２弄","HOUSE_NO":"２號之１","E_COORD97":171320.22,"N_COORD97":2542357.9399999999,"ADDRESS":"東門路三段３７巷１２弄２號之１","OBJECTID":187363},"geometry":{"x":171320.21999999974,"y":2542357.9399999995}},{"attributes":{"ID":187365,"DIS_CODE":0,"TOWNNAME":"東區","LI":"自強里","LIN":"5鄰","STREET":"東門路","SECT":"三段","MAREA":" ","LANE":"３７巷","ALLEY":"１２弄","HOUSE_NO":"３０號","E_COORD97":171366.39999999999,"N_COORD97":2542357.3199999998,"ADDRESS":"東門路三段３７巷１２弄３０號","OBJECTID":187364},"geometry":{"x":171366.4000000013,"y":2542357.3200000003}},{"attributes":{"ID":187366,"DIS_CODE":0,"TOWNNAME":"東區","LI":"自強里","LIN":"5鄰","STREET":"東門路","SECT":"三段","MAREA":" ","LANE":"３７巷","ALLEY":"１２弄","HOUSE_NO":"３１號","E_COORD97":171407.20000000001,"N_COORD97":2542375,"ADDRESS":"東門路三段３７巷１２弄３１號","OBJECTID":187365},"geometry":{"x":171407.20000000019,"y":2542375}},{"attributes":{"ID":187367,"DIS_CODE":0,"TOWNNAME":"東區","LI":"自強里","LIN":"5鄰","STREET":"東門路","SECT":"三段","MAREA":" ","LANE":"３７巷","ALLEY":"１２弄","HOUSE_NO":"３２號","E_COORD97":171377.42000000001,"N_COORD97":2542357.3100000001,"ADDRESS":"東門路三段３７巷１２弄３２號","OBJECTID":187366},"geometry":{"x":171377.42000000086,"y":2542357.3100000005}},{"attributes":{"ID":187368,"DIS_CODE":0,"TOWNNAME":"東區","LI":"自強里","LIN":"5鄰","STREET":"東門路","SECT":"三段","MAREA":" ","LANE":"３７巷","ALLEY":"１２弄","HOUSE_NO":"３３號","E_COORD97":171411.20999999999,"N_COORD97":2542375.29,"ADDRESS":"東門路三段３７巷１２弄３３號","OBJECTID":187367},"geometry":{"x":171411.21000000089,"y":2542375.290000001}},{"attributes":{"ID":187369,"DIS_CODE":0,"TOWNNAME":"東區","LI":"自強里","LIN":"5鄰","STREET":"東門路","SECT":"三段","MAREA":" ","LANE":"３７巷","ALLEY":"１２弄","HOUSE_NO":"３４號","E_COORD97":171383.85000000001,"N_COORD97":2542358.3500000001,"ADDRESS":"東門路三段３７巷１２弄３４號","OBJECTID":187368},"geometry":{"x":171383.8499999987,"y":2542358.3500000015}},{"attributes":{"ID":187370,"DIS_CODE":0,"TOWNNAME":"東區","LI":"自強里","LIN":"5鄰","STREET":"東門路","SECT":"三段","MAREA":" ","LANE":"３７巷","ALLEY":"１２弄","HOUSE_NO":"３５號","E_COORD97":171414.94,"N_COORD97":2542375.1499999999,"ADDRESS":"東門路三段３７巷１２弄３５號","OBJECTID":187369},"geometry":{"x":171414.94000000134,"y":2542375.1500000004}},{"attributes":{"ID":187371,"DIS_CODE":0,"TOWNNAME":"東區","LI":"自強里","LIN":"5鄰","STREET":"東門路","SECT":"三段","MAREA":" ","LANE":"３７巷","ALLEY":"１２弄","HOUSE_NO":"３６號","E_COORD97":171389.75,"N_COORD97":2542359.21,"ADDRESS":"東門路三段３７巷１２弄３６號","OBJECTID":187370},"geometry":{"x":171389.75,"y":2542359.2100000046}},{"attributes":{"ID":187372,"DIS_CODE":0,"TOWNNAME":"東區","LI":"自強里","LIN":"5鄰","STREET":"東門路","SECT":"三段","MAREA":" ","LANE":"３７巷","ALLEY":"１２弄","HOUSE_NO":"３８號","E_COORD97":171395.66,"N_COORD97":2542359.73,"ADDRESS":"東門路三段３７巷１２弄３８號","OBJECTID":187371},"geometry":{"x":171395.66000000015,"y":2542359.7300000023}},{"attributes":{"ID":187373,"DIS_CODE":0,"TOWNNAME":"東區","LI":"自強里","LIN":"5鄰","STREET":"東門路","SECT":"三段","MAREA":" ","LANE":"３７巷","ALLEY":"１２弄","HOUSE_NO":"３號","E_COORD97":171250.23999999999,"N_COORD97":2542371.29,"ADDRESS":"東門路三段３７巷１２弄３號","OBJECTID":187372},"geometry":{"x":171250.24000000115,"y":2542371.290000001}},{"attributes":{"ID":187374,"DIS_CODE":0,"TOWNNAME":"東區","LI":"自強里","LIN":"5鄰","STREET":"東門路","SECT":"三段","MAREA":" ","LANE":"３７巷","ALLEY":"１２弄","HOUSE_NO":"４０號","E_COORD97":171400.35000000001,"N_COORD97":2542360.25,"ADDRESS":"東門路三段３７巷１２弄４０號","OBJECTID":187373},"geometry":{"x":171400.34999999963,"y":2542360.25}},{"attributes":{"ID":187375,"DIS_CODE":0,"TOWNNAME":"東區","LI":"自強里","LIN":"5鄰","STREET":"東門路","SECT":"三段","MAREA":" ","LANE":"３７巷","ALLEY":"１２弄","HOUSE_NO":"５號","E_COORD97":171253.82999999999,"N_COORD97":2542370.5800000001,"ADDRESS":"東門路三段３７巷１２弄５號","OBJECTID":187374},"geometry":{"x":171253.83000000007,"y":2542370.5800000019}},{"attributes":{"ID":187376,"DIS_CODE":0,"TOWNNAME":"東區","LI":"自強里","LIN":"5鄰","STREET":"東門路","SECT":"三段","MAREA":" ","LANE":"３７巷","ALLEY":"１２弄","HOUSE_NO":"６號","E_COORD97":171324.41,"N_COORD97":2542357.79,"ADDRESS":"東門路三段３７巷１２弄６號","OBJECTID":187375},"geometry":{"x":171324.41000000015,"y":2542357.790000001}},{"attributes":{"ID":187377,"DIS_CODE":0,"TOWNNAME":"東區","LI":"自強里","LIN":"5鄰","STREET":"東門路","SECT":"三段","MAREA":" ","LANE":"３７巷","ALLEY":"１２弄","HOUSE_NO":"７號","E_COORD97":171258.28,"N_COORD97":2542372.0099999998,"ADDRESS":"東門路三段３７巷１２弄７號","OBJECTID":187376},"geometry":{"x":171258.28000000119,"y":2542372.0099999998}},{"attributes":{"ID":187378,"DIS_CODE":0,"TOWNNAME":"東區","LI":"自強里","LIN":"5鄰","STREET":"東門路","SECT":"三段","MAREA":" ","LANE":"３７巷","ALLEY":"１２弄","HOUSE_NO":"８號","E_COORD97":171328.16,"N_COORD97":2542357.21,"ADDRESS":"東門路三段３７巷１２弄８號","OBJECTID":187377},"geometry":{"x":171328.16000000201,"y":2542357.2100000028}},{"attributes":{"ID":187379,"DIS_CODE":0,"TOWNNAME":"安南區","LI":"佃西里","LIN":"10鄰","STREET":"海佃路","SECT":"四段","MAREA":" ","LANE":" ","ALLEY":" ","HOUSE_NO":"３９１號","E_COORD97":165553.10588399999,"N_COORD97":2551525.28571,"ADDRESS":"海佃路四段３９１號","OBJECTID":187378},"geometry":{"x":165553.10588400159,"y":2551525.2857070025}},{"attributes":{"ID":187380,"DIS_CODE":0,"TOWNNAME":"安南區","LI":"佃西里","LIN":"10鄰","STREET":"海佃路","SECT":"四段","MAREA":" ","LANE":" ","ALLEY":" ","HOUSE_NO":"３４１號","E_COORD97":165580.22491399999,"N_COORD97":2551423.2624300001,"ADDRESS":"海佃路四段３４１號","OBJECTID":187379},"geometry":{"x":165580.22491400037,"y":2551423.2624280043}},{"attributes":{"ID":187381,"DIS_CODE":0,"TOWNNAME":"中西區","LI":"大涼里","LIN":"10鄰","STREET":"府前路","SECT":"二段","MAREA":" ","LANE":"２５８巷","ALLEY":" ","HOUSE_NO":"３１號","E_COORD97":167026.88,"N_COORD97":2543756.5600000001,"ADDRESS":"府前路二段２５８巷３１號","OBJECTID":187380},"geometry":{"x":167026.87999999989,"y":2543756.5600000042}},{"attributes":{"ID":187382,"DIS_CODE":0,"TOWNNAME":"白河區","LI":"關嶺里","LIN":"10鄰","STREET":" ","SECT":" ","MAREA":"南寮","LANE":" ","ALLEY":" ","HOUSE_NO":"３５之２號","E_COORD97":198100.64676999999,"N_COORD97":2579102.6636199998,"ADDRESS":"南寮３５之２號","OBJECTID":187381},"geometry":{"x":198100.64677000139,"y":2579102.6636190005}},{"attributes":{"ID":187383,"DIS_CODE":0,"TOWNNAME":"中西區","LI":"大涼里","LIN":"10鄰","STREET":"府前路","SECT":"二段","MAREA":" ","LANE":"２５８巷","ALLEY":" ","HOUSE_NO":"３３號","E_COORD97":167030.09,"N_COORD97":2543774.1099999999,"ADDRESS":"府前路二段２５８巷３３號","OBJECTID":187382},"geometry":{"x":167030.09000000078,"y":2543774.1099999994}},{"attributes":{"ID":187384,"DIS_CODE":0,"TOWNNAME":"白河區","LI":"河東里","LIN":"10鄰","STREET":" ","SECT":" ","MAREA":"糞箕湖","LANE":" ","ALLEY":" ","HOUSE_NO":"１３９之１６號","E_COORD97":190963.04949,"N_COORD97":2582720.0083099999,"ADDRESS":"糞箕湖１３９之１６號","OBJECTID":187383},"geometry":{"x":190963.04949000105,"y":2582720.008312}},{"attributes":{"ID":187385,"DIS_CODE":0,"TOWNNAME":"佳里區","LI":"頂\u25A0里","LIN":"11鄰","STREET":" ","SECT":" ","MAREA":"頂\u25A0","LANE":" ","ALLEY":" ","HOUSE_NO":"１３２號","E_COORD97":162879.57999999999,"N_COORD97":2563838.6299999999,"ADDRESS":"頂\u25A0１３２號","OBJECTID":187384},"geometry":{"x":162879.58000000007,"y":2563838.629999999}},{"attributes":{"ID":187386,"DIS_CODE":0,"TOWNNAME":"佳里區","LI":"頂\u25A0里","LIN":"11鄰","STREET":" ","SECT":" ","MAREA":"頂\u25A0","LANE":" ","ALLEY":" ","HOUSE_NO":"１３３號","E_COORD97":162852.62,"N_COORD97":2563823.4700000002,"ADDRESS":"頂\u25A0１３３號","OBJECTID":187385},"geometry":{"x":162852.62000000104,"y":2563823.4700000007}},{"attributes":{"ID":187387,"DIS_CODE":0,"TOWNNAME":"佳里區","LI":"頂\u25A0里","LIN":"11鄰","STREET":" ","SECT":" ","MAREA":"頂\u25A0","LANE":" ","ALLEY":" ","HOUSE_NO":"１３４號","E_COORD97":162835.12,"N_COORD97":2563806.1099999999,"ADDRESS":"頂\u25A0１３４號","OBJECTID":187386},"geometry":{"x":162835.12000000011,"y":2563806.1100000013}},{"attributes":{"ID":187388,"DIS_CODE":0,"TOWNNAME":"佳里區","LI":"頂\u25A0里","LIN":"11鄰","STREET":" ","SECT":" ","MAREA":"頂\u25A0","LANE":" ","ALLEY":" ","HOUSE_NO":"１３５號之１","E_COORD97":162781.03,"N_COORD97":2563874.1000000001,"ADDRESS":"頂\u25A0１３５號之１","OBJECTID":187387},"geometry":{"x":162781.03000000119,"y":2563874.1000000034}},{"attributes":{"ID":187389,"DIS_CODE":0,"TOWNNAME":"永康區","LI":"埔園里","LIN":"10鄰","STREET":"自強路","SECT":" ","MAREA":" ","LANE":" ","ALLEY":" ","HOUSE_NO":"４１０號","E_COORD97":173621.98999999999,"N_COORD97":2547843.0499999998,"ADDRESS":"自強路４１０號","OBJECTID":187388},"geometry":{"x":173621.99000000115,"y":2547843.0500000026}},{"attributes":{"ID":187390,"DIS_CODE":0,"TOWNNAME":"永康區","LI":"新樹里","LIN":"10鄰","STREET":"富強路","SECT":"二段","MAREA":" ","LANE":" ","ALLEY":" ","HOUSE_NO":"１０４號","E_COORD97":175671.98999999999,"N_COORD97":2547038.7200000002,"ADDRESS":"富強路二段１０４號","OBJECTID":187389},"geometry":{"x":175671.99000000022,"y":2547038.7200000025}},{"attributes":{"ID":187391,"DIS_CODE":0,"TOWNNAME":"永康區","LI":"中華里","LIN":"10鄰","STREET":"小東路","SECT":" ","MAREA":" ","LANE":" ","ALLEY":" ","HOUSE_NO":"５９３號","E_COORD97":171809.19,"N_COORD97":2544340.98,"ADDRESS":"小東路５９３號","OBJECTID":187390},"geometry":{"x":171809.19000000041,"y":2544340.9800000023}},{"attributes":{"ID":187392,"DIS_CODE":0,"TOWNNAME":"東區","LI":"自強里","LIN":"5鄰","STREET":"東門路","SECT":"三段","MAREA":" ","LANE":"３７巷","ALLEY":"１２弄","HOUSE_NO":"９號","E_COORD97":171262.72,"N_COORD97":2542371.29,"ADDRESS":"東門路三段３７巷１２弄９號","OBJECTID":187391},"geometry":{"x":171262.71999999974,"y":2542371.290000001}},{"attributes":{"ID":187393,"DIS_CODE":0,"TOWNNAME":"東區","LI":"復興里","LIN":"5鄰","STREET":"富農街","SECT":"一段","MAREA":" ","LANE":"２１８巷","ALLEY":"３７弄","HOUSE_NO":"１０號","E_COORD97":171679.98000000001,"N_COORD97":2542585.8100000001,"ADDRESS":"富農街一段２１８巷３７弄１０號","OBJECTID":187392},"geometry":{"x":171679.98000000045,"y":2542585.8100000024}},{"attributes":{"ID":187394,"DIS_CODE":0,"TOWNNAME":"東區","LI":"復興里","LIN":"5鄰","STREET":"富農街","SECT":"一段","MAREA":" ","LANE":"２１８巷","ALLEY":"３７弄","HOUSE_NO":"１１號","E_COORD97":171680.29999999999,"N_COORD97":2542590.6099999999,"ADDRESS":"富農街一段２１８巷３７弄１１號","OBJECTID":187393},"geometry":{"x":171680.29999999981,"y":2542590.6099999994}},{"attributes":{"ID":187395,"DIS_CODE":0,"TOWNNAME":"安定區","LI":"安定里","LIN":"10鄰","STREET":" ","SECT":" ","MAREA":"安定","LANE":" ","ALLEY":" ","HOUSE_NO":"９４號","E_COORD97":172086.97,"N_COORD97":2557771.4700000002,"ADDRESS":"安定９４號","OBJECTID":187394},"geometry":{"x":172086.97000000067,"y":2557771.4700000007}},{"attributes":{"ID":187396,"DIS_CODE":0,"TOWNNAME":"東區","LI":"復興里","LIN":"5鄰","STREET":"富農街","SECT":"一段","MAREA":" ","LANE":"２１８巷","ALLEY":"３７弄","HOUSE_NO":"１３號","E_COORD97":171681.35999999999,"N_COORD97":2542600.6200000001,"ADDRESS":"富農街一段２１８巷３７弄１３號","OBJECTID":187395},"geometry":{"x":171681.3600000022,"y":2542600.6200000048}},{"attributes":{"ID":187397,"DIS_CODE":0,"TOWNNAME":"安定區","LI":"蘇厝里","LIN":"10鄰","STREET":" ","SECT":" ","MAREA":"蘇厝","LANE":" ","ALLEY":" ","HOUSE_NO":"３６７號","E_COORD97":173039.51999999999,"N_COORD97":2558951.25,"ADDRESS":"蘇厝３６７號","OBJECTID":187396},"geometry":{"x":173039.52000000048,"y":2558951.2500000019}},{"attributes":{"ID":187398,"DIS_CODE":0,"TOWNNAME":"佳里區","LI":"頂\u25A0里","LIN":"11鄰","STREET":" ","SECT":" ","MAREA":"頂\u25A0","LANE":" ","ALLEY":" ","HOUSE_NO":"１３５號之２","E_COORD97":162779.45000000001,"N_COORD97":2563853.2599999998,"ADDRESS":"頂\u25A0１３５號之２","OBJECTID":187397},"geometry":{"x":162779.45000000112,"y":2563853.2600000016}},{"attributes":{"ID":187399,"DIS_CODE":0,"TOWNNAME":"佳里區","LI":"頂\u25A0里","LIN":"11鄰","STREET":" ","SECT":" ","MAREA":"頂\u25A0","LANE":" ","ALLEY":" ","HOUSE_NO":"１３５號","E_COORD97":162835.10999999999,"N_COORD97":2563821.6499999999,"ADDRESS":"頂\u25A0１３５號","OBJECTID":187398},"geometry":{"x":162835.11000000034,"y":2563821.6500000022}},{"attributes":{"ID":187400,"DIS_CODE":0,"TOWNNAME":"佳里區","LI":"頂\u25A0里","LIN":"11鄰","STREET":" ","SECT":" ","MAREA":"頂\u25A0","LANE":" ","ALLEY":" ","HOUSE_NO":"１３６號之１","E_COORD97":163562.94,"N_COORD97":2564276.8300000001,"ADDRESS":"頂\u25A0１３６號之１","OBJECTID":187399},"geometry":{"x":163562.94000000134,"y":2564276.8300000019}},{"attributes":{"ID":187401,"DIS_CODE":0,"TOWNNAME":"佳里區","LI":"頂\u25A0里","LIN":"11鄰","STREET":" ","SECT":" ","MAREA":"頂\u25A0","LANE":" ","ALLEY":" ","HOUSE_NO":"１３６號之２","E_COORD97":163505.17000000001,"N_COORD97":2564296.1600000001,"ADDRESS":"頂\u25A0１３６號之２","OBJECTID":187400},"geometry":{"x":163505.17000000086,"y":2564296.1600000001}}]}