{"displayFieldName":"TOWNNAME","fieldAliases":{"ID":"ID","DIS_CODE":"DIS_CODE","TOWNNAME":"TOWNNAME","LI":"LI","LIN":"LIN","STREET":"STREET","SECT":"SECT","MAREA":"MAREA","LANE":"LANE","ALLEY":"ALLEY","HOUSE_NO":"HOUSE_NO","E_COORD97":"E_COORD97","N_COORD97":"N_COORD97","ADDRESS":"ADDRESS","OBJECTID":"OBJECTID"},"geometryType":"esriGeometryPoint","spatialReference":{"wkid":102443,"latestWkid":3826},"fields":[{"name":"ID","type":"esriFieldTypeDouble","alias":"ID"},{"name":"DIS_CODE","type":"esriFieldTypeInteger","alias":"DIS_CODE"},{"name":"TOWNNAME","type":"esriFieldTypeString","alias":"TOWNNAME","length":8},{"name":"LI","type":"esriFieldTypeString","alias":"LI","length":8},{"name":"LIN","type":"esriFieldTypeString","alias":"LIN","length":12},{"name":"STREET","type":"esriFieldTypeString","alias":"STREET","length":20},{"name":"SECT","type":"esriFieldTypeString","alias":"SECT","length":8},{"name":"MAREA","type":"esriFieldTypeString","alias":"MAREA","length":12},{"name":"LANE","type":"esriFieldTypeString","alias":"LANE","length":10},{"name":"ALLEY","type":"esriFieldTypeString","alias":"ALLEY","length":10},{"name":"HOUSE_NO","type":"esriFieldTypeString","alias":"HOUSE_NO","length":20},{"name":"E_COORD97","type":"esriFieldTypeDouble","alias":"E_COORD97"},{"name":"N_COORD97","type":"esriFieldTypeDouble","alias":"N_COORD97"},{"name":"ADDRESS","type":"esriFieldTypeString","alias":"ADDRESS","length":50},{"name":"OBJECTID","type":"esriFieldTypeOID","alias":"OBJECTID"}],"features":[{"attributes":{"ID":398225,"DIS_CODE":0,"TOWNNAME":"安平區","LI":"華平里","LIN":"16鄰","STREET":"建平八街","SECT":" ","MAREA":" ","LANE":"４５０巷","ALLEY":" ","HOUSE_NO":"３７號二樓","E_COORD97":165087.82000000001,"N_COORD97":2543707.8599999999,"ADDRESS":"建平八街４５０巷３７號二樓","OBJECTID":398201},"geometry":{"x":165087.82000000123,"y":2543707.8599999994}},{"attributes":{"ID":398226,"DIS_CODE":0,"TOWNNAME":"安平區","LI":"華平里","LIN":"16鄰","STREET":"建平八街","SECT":" ","MAREA":" ","LANE":"４５０巷","ALLEY":" ","HOUSE_NO":"３７號三樓","E_COORD97":165087.82000000001,"N_COORD97":2543707.8599999999,"ADDRESS":"建平八街４５０巷３７號三樓","OBJECTID":398202},"geometry":{"x":165087.82000000123,"y":2543707.8599999994}},{"attributes":{"ID":398227,"DIS_CODE":0,"TOWNNAME":"安平區","LI":"華平里","LIN":"16鄰","STREET":"建平八街","SECT":" ","MAREA":" ","LANE":"４５０巷","ALLEY":" ","HOUSE_NO":"３７號之１七樓","E_COORD97":165070.20999999999,"N_COORD97":2543709.5800000001,"ADDRESS":"建平八街４５０巷３７號之１七樓","OBJECTID":398203},"geometry":{"x":165070.20999999996,"y":2543709.5800000019}},{"attributes":{"ID":398228,"DIS_CODE":0,"TOWNNAME":"安平區","LI":"華平里","LIN":"16鄰","STREET":"建平八街","SECT":" ","MAREA":" ","LANE":"４５０巷","ALLEY":" ","HOUSE_NO":"３７號之１二樓","E_COORD97":165070.20999999999,"N_COORD97":2543709.5800000001,"ADDRESS":"建平八街４５０巷３７號之１二樓","OBJECTID":398204},"geometry":{"x":165070.20999999996,"y":2543709.5800000019}},{"attributes":{"ID":398229,"DIS_CODE":0,"TOWNNAME":"安平區","LI":"華平里","LIN":"16鄰","STREET":"建平八街","SECT":" ","MAREA":" ","LANE":"４５０巷","ALLEY":" ","HOUSE_NO":"３７號之１三樓","E_COORD97":165070.20999999999,"N_COORD97":2543709.5800000001,"ADDRESS":"建平八街４５０巷３７號之１三樓","OBJECTID":398205},"geometry":{"x":165070.20999999996,"y":2543709.5800000019}},{"attributes":{"ID":398230,"DIS_CODE":0,"TOWNNAME":"北區","LI":"正覺里","LIN":"11鄰","STREET":"正覺街","SECT":" ","MAREA":" ","LANE":"７７巷","ALLEY":" ","HOUSE_NO":"５號","E_COORD97":169280.56,"N_COORD97":2546388.4399999999,"ADDRESS":"正覺街７７巷５號","OBJECTID":398206},"geometry":{"x":169280.56000000145,"y":2546388.4400000013}},{"attributes":{"ID":398231,"DIS_CODE":0,"TOWNNAME":"安平區","LI":"華平里","LIN":"16鄰","STREET":"建平八街","SECT":" ","MAREA":" ","LANE":"４５０巷","ALLEY":" ","HOUSE_NO":"３７號之１五樓","E_COORD97":165070.20999999999,"N_COORD97":2543709.5800000001,"ADDRESS":"建平八街４５０巷３７號之１五樓","OBJECTID":398207},"geometry":{"x":165070.20999999996,"y":2543709.5800000019}},{"attributes":{"ID":398232,"DIS_CODE":0,"TOWNNAME":"安平區","LI":"華平里","LIN":"16鄰","STREET":"建平八街","SECT":" ","MAREA":" ","LANE":"４５０巷","ALLEY":" ","HOUSE_NO":"３７號之１六樓","E_COORD97":165070.20999999999,"N_COORD97":2543709.5800000001,"ADDRESS":"建平八街４５０巷３７號之１六樓","OBJECTID":398208},"geometry":{"x":165070.20999999996,"y":2543709.5800000019}},{"attributes":{"ID":398233,"DIS_CODE":0,"TOWNNAME":"安平區","LI":"華平里","LIN":"16鄰","STREET":"建平八街","SECT":" ","MAREA":" ","LANE":"４５０巷","ALLEY":" ","HOUSE_NO":"３７號之１四樓","E_COORD97":165070.20999999999,"N_COORD97":2543709.5800000001,"ADDRESS":"建平八街４５０巷３７號之１四樓","OBJECTID":398209},"geometry":{"x":165070.20999999996,"y":2543709.5800000019}},{"attributes":{"ID":398234,"DIS_CODE":0,"TOWNNAME":"安平區","LI":"華平里","LIN":"16鄰","STREET":"建平八街","SECT":" ","MAREA":" ","LANE":"４５０巷","ALLEY":" ","HOUSE_NO":"３７號五樓","E_COORD97":165087.82000000001,"N_COORD97":2543707.8599999999,"ADDRESS":"建平八街４５０巷３７號五樓","OBJECTID":398210},"geometry":{"x":165087.82000000123,"y":2543707.8599999994}},{"attributes":{"ID":398235,"DIS_CODE":0,"TOWNNAME":"安平區","LI":"華平里","LIN":"16鄰","STREET":"建平八街","SECT":" ","MAREA":" ","LANE":"４５０巷","ALLEY":" ","HOUSE_NO":"３７號六樓","E_COORD97":165087.82000000001,"N_COORD97":2543707.8599999999,"ADDRESS":"建平八街４５０巷３７號六樓","OBJECTID":398211},"geometry":{"x":165087.82000000123,"y":2543707.8599999994}},{"attributes":{"ID":398236,"DIS_CODE":0,"TOWNNAME":"安平區","LI":"華平里","LIN":"16鄰","STREET":"建平八街","SECT":" ","MAREA":" ","LANE":"４５０巷","ALLEY":" ","HOUSE_NO":"３７號四樓","E_COORD97":165087.82000000001,"N_COORD97":2543707.8599999999,"ADDRESS":"建平八街４５０巷３７號四樓","OBJECTID":398212},"geometry":{"x":165087.82000000123,"y":2543707.8599999994}},{"attributes":{"ID":398237,"DIS_CODE":0,"TOWNNAME":"南區","LI":"新生里","LIN":"16鄰","STREET":"大同路","SECT":"二段","MAREA":" ","LANE":"１１２巷","ALLEY":" ","HOUSE_NO":"９號三樓之３","E_COORD97":169173.64999999999,"N_COORD97":2542227.7999999998,"ADDRESS":"大同路二段１１２巷９號三樓之３","OBJECTID":398213},"geometry":{"x":169173.65000000037,"y":2542227.8000000007}},{"attributes":{"ID":398238,"DIS_CODE":0,"TOWNNAME":"南區","LI":"新生里","LIN":"16鄰","STREET":"大同路","SECT":"二段","MAREA":" ","LANE":"１１２巷","ALLEY":" ","HOUSE_NO":"９號三樓之５","E_COORD97":169173.64999999999,"N_COORD97":2542227.7999999998,"ADDRESS":"大同路二段１１２巷９號三樓之５","OBJECTID":398214},"geometry":{"x":169173.65000000037,"y":2542227.8000000007}},{"attributes":{"ID":398239,"DIS_CODE":0,"TOWNNAME":"南區","LI":"新生里","LIN":"16鄰","STREET":"大同路","SECT":"二段","MAREA":" ","LANE":"１１２巷","ALLEY":" ","HOUSE_NO":"９號四樓之１","E_COORD97":169173.64999999999,"N_COORD97":2542227.7999999998,"ADDRESS":"大同路二段１１２巷９號四樓之１","OBJECTID":398215},"geometry":{"x":169173.65000000037,"y":2542227.8000000007}},{"attributes":{"ID":398240,"DIS_CODE":0,"TOWNNAME":"南區","LI":"新生里","LIN":"16鄰","STREET":"大同路","SECT":"二段","MAREA":" ","LANE":"１１２巷","ALLEY":" ","HOUSE_NO":"９號四樓之２","E_COORD97":169173.64999999999,"N_COORD97":2542227.7999999998,"ADDRESS":"大同路二段１１２巷９號四樓之２","OBJECTID":398216},"geometry":{"x":169173.65000000037,"y":2542227.8000000007}},{"attributes":{"ID":398241,"DIS_CODE":0,"TOWNNAME":"南區","LI":"新生里","LIN":"16鄰","STREET":"大同路","SECT":"二段","MAREA":" ","LANE":"１１２巷","ALLEY":" ","HOUSE_NO":"９號四樓之３","E_COORD97":169173.64999999999,"N_COORD97":2542227.7999999998,"ADDRESS":"大同路二段１１２巷９號四樓之３","OBJECTID":398217},"geometry":{"x":169173.65000000037,"y":2542227.8000000007}},{"attributes":{"ID":398242,"DIS_CODE":0,"TOWNNAME":"南區","LI":"新生里","LIN":"16鄰","STREET":"大同路","SECT":"二段","MAREA":" ","LANE":"１１２巷","ALLEY":" ","HOUSE_NO":"９號四樓之５","E_COORD97":169173.64999999999,"N_COORD97":2542227.7999999998,"ADDRESS":"大同路二段１１２巷９號四樓之５","OBJECTID":398218},"geometry":{"x":169173.65000000037,"y":2542227.8000000007}},{"attributes":{"ID":398243,"DIS_CODE":0,"TOWNNAME":"南區","LI":"新生里","LIN":"16鄰","STREET":"大同路","SECT":"二段","MAREA":" ","LANE":"１１２巷","ALLEY":" ","HOUSE_NO":"９號五樓之１","E_COORD97":169173.64999999999,"N_COORD97":2542227.7999999998,"ADDRESS":"大同路二段１１２巷９號五樓之１","OBJECTID":398219},"geometry":{"x":169173.65000000037,"y":2542227.8000000007}},{"attributes":{"ID":398244,"DIS_CODE":0,"TOWNNAME":"南區","LI":"新生里","LIN":"16鄰","STREET":"大同路","SECT":"二段","MAREA":" ","LANE":"１１２巷","ALLEY":" ","HOUSE_NO":"９號五樓之２","E_COORD97":169173.64999999999,"N_COORD97":2542227.7999999998,"ADDRESS":"大同路二段１１２巷９號五樓之２","OBJECTID":398220},"geometry":{"x":169173.65000000037,"y":2542227.8000000007}},{"attributes":{"ID":398245,"DIS_CODE":0,"TOWNNAME":"南區","LI":"新生里","LIN":"16鄰","STREET":"大同路","SECT":"二段","MAREA":" ","LANE":"１１２巷","ALLEY":" ","HOUSE_NO":"９號五樓之３","E_COORD97":169173.64999999999,"N_COORD97":2542227.7999999998,"ADDRESS":"大同路二段１１２巷９號五樓之３","OBJECTID":398221},"geometry":{"x":169173.65000000037,"y":2542227.8000000007}},{"attributes":{"ID":398246,"DIS_CODE":0,"TOWNNAME":"南區","LI":"新生里","LIN":"16鄰","STREET":"大同路","SECT":"二段","MAREA":" ","LANE":"１１２巷","ALLEY":" ","HOUSE_NO":"９號五樓之５","E_COORD97":169173.64999999999,"N_COORD97":2542227.7999999998,"ADDRESS":"大同路二段１１２巷９號五樓之５","OBJECTID":398222},"geometry":{"x":169173.65000000037,"y":2542227.8000000007}},{"attributes":{"ID":398247,"DIS_CODE":0,"TOWNNAME":"南區","LI":"新生里","LIN":"16鄰","STREET":"大同路","SECT":"二段","MAREA":" ","LANE":"１１２巷","ALLEY":" ","HOUSE_NO":"９號六樓之１","E_COORD97":169173.64999999999,"N_COORD97":2542227.7999999998,"ADDRESS":"大同路二段１１２巷９號六樓之１","OBJECTID":398223},"geometry":{"x":169173.65000000037,"y":2542227.8000000007}},{"attributes":{"ID":398248,"DIS_CODE":0,"TOWNNAME":"南區","LI":"新生里","LIN":"16鄰","STREET":"大同路","SECT":"二段","MAREA":" ","LANE":"１１２巷","ALLEY":" ","HOUSE_NO":"９號六樓之２","E_COORD97":169173.64999999999,"N_COORD97":2542227.7999999998,"ADDRESS":"大同路二段１１２巷９號六樓之２","OBJECTID":398224},"geometry":{"x":169173.65000000037,"y":2542227.8000000007}},{"attributes":{"ID":398249,"DIS_CODE":0,"TOWNNAME":"南區","LI":"新生里","LIN":"16鄰","STREET":"大同路","SECT":"二段","MAREA":" ","LANE":"１１２巷","ALLEY":" ","HOUSE_NO":"９號六樓之３","E_COORD97":169173.64999999999,"N_COORD97":2542227.7999999998,"ADDRESS":"大同路二段１１２巷９號六樓之３","OBJECTID":398225},"geometry":{"x":169173.65000000037,"y":2542227.8000000007}},{"attributes":{"ID":398250,"DIS_CODE":0,"TOWNNAME":"南區","LI":"新生里","LIN":"16鄰","STREET":"大同路","SECT":"二段","MAREA":" ","LANE":"１１２巷","ALLEY":" ","HOUSE_NO":"９號六樓之５","E_COORD97":169173.64999999999,"N_COORD97":2542227.7999999998,"ADDRESS":"大同路二段１１２巷９號六樓之５","OBJECTID":398226},"geometry":{"x":169173.65000000037,"y":2542227.8000000007}},{"attributes":{"ID":398251,"DIS_CODE":0,"TOWNNAME":"南區","LI":"新生里","LIN":"16鄰","STREET":"大同路","SECT":"二段","MAREA":" ","LANE":"１１２巷","ALLEY":" ","HOUSE_NO":"９號七樓之１","E_COORD97":169173.64999999999,"N_COORD97":2542227.7999999998,"ADDRESS":"大同路二段１１２巷９號七樓之１","OBJECTID":398227},"geometry":{"x":169173.65000000037,"y":2542227.8000000007}},{"attributes":{"ID":398252,"DIS_CODE":0,"TOWNNAME":"南區","LI":"新生里","LIN":"16鄰","STREET":"大同路","SECT":"二段","MAREA":" ","LANE":"１１２巷","ALLEY":" ","HOUSE_NO":"９號七樓之２","E_COORD97":169173.64999999999,"N_COORD97":2542227.7999999998,"ADDRESS":"大同路二段１１２巷９號七樓之２","OBJECTID":398228},"geometry":{"x":169173.65000000037,"y":2542227.8000000007}},{"attributes":{"ID":398253,"DIS_CODE":0,"TOWNNAME":"南區","LI":"新生里","LIN":"16鄰","STREET":"大同路","SECT":"二段","MAREA":" ","LANE":"１１２巷","ALLEY":" ","HOUSE_NO":"９號七樓之３","E_COORD97":169173.64999999999,"N_COORD97":2542227.7999999998,"ADDRESS":"大同路二段１１２巷９號七樓之３","OBJECTID":398229},"geometry":{"x":169173.65000000037,"y":2542227.8000000007}},{"attributes":{"ID":398254,"DIS_CODE":0,"TOWNNAME":"南區","LI":"新生里","LIN":"16鄰","STREET":"大同路","SECT":"二段","MAREA":" ","LANE":"１１２巷","ALLEY":" ","HOUSE_NO":"９號七樓之５","E_COORD97":169173.64999999999,"N_COORD97":2542227.7999999998,"ADDRESS":"大同路二段１１２巷９號七樓之５","OBJECTID":398230},"geometry":{"x":169173.65000000037,"y":2542227.8000000007}},{"attributes":{"ID":398255,"DIS_CODE":0,"TOWNNAME":"南區","LI":"新生里","LIN":"16鄰","STREET":"大同路","SECT":"二段","MAREA":" ","LANE":"１１２巷","ALLEY":" ","HOUSE_NO":"９號八樓之１","E_COORD97":169173.64999999999,"N_COORD97":2542227.7999999998,"ADDRESS":"大同路二段１１２巷９號八樓之１","OBJECTID":398231},"geometry":{"x":169173.65000000037,"y":2542227.8000000007}},{"attributes":{"ID":398256,"DIS_CODE":0,"TOWNNAME":"北區","LI":"國姓里","LIN":"11鄰","STREET":"小北路","SECT":" ","MAREA":" ","LANE":"５４巷","ALLEY":" ","HOUSE_NO":"７號","E_COORD97":168811.25,"N_COORD97":2545226.6800000002,"ADDRESS":"小北路５４巷７號","OBJECTID":398232},"geometry":{"x":168811.25,"y":2545226.6800000016}},{"attributes":{"ID":398257,"DIS_CODE":0,"TOWNNAME":"南區","LI":"新生里","LIN":"16鄰","STREET":"大同路","SECT":"二段","MAREA":" ","LANE":"１１２巷","ALLEY":" ","HOUSE_NO":"９號八樓之２","E_COORD97":169173.64999999999,"N_COORD97":2542227.7999999998,"ADDRESS":"大同路二段１１２巷９號八樓之２","OBJECTID":398233},"geometry":{"x":169173.65000000037,"y":2542227.8000000007}},{"attributes":{"ID":398258,"DIS_CODE":0,"TOWNNAME":"南區","LI":"新生里","LIN":"16鄰","STREET":"大同路","SECT":"二段","MAREA":" ","LANE":"１１２巷","ALLEY":" ","HOUSE_NO":"９號八樓之３","E_COORD97":169173.64999999999,"N_COORD97":2542227.7999999998,"ADDRESS":"大同路二段１１２巷９號八樓之３","OBJECTID":398234},"geometry":{"x":169173.65000000037,"y":2542227.8000000007}},{"attributes":{"ID":398259,"DIS_CODE":0,"TOWNNAME":"南區","LI":"新生里","LIN":"16鄰","STREET":"大同路","SECT":"二段","MAREA":" ","LANE":"１１２巷","ALLEY":" ","HOUSE_NO":"９號八樓之５","E_COORD97":169173.64999999999,"N_COORD97":2542227.7999999998,"ADDRESS":"大同路二段１１２巷９號八樓之５","OBJECTID":398235},"geometry":{"x":169173.65000000037,"y":2542227.8000000007}},{"attributes":{"ID":398260,"DIS_CODE":0,"TOWNNAME":"南區","LI":"新生里","LIN":"16鄰","STREET":"大同路","SECT":"二段","MAREA":" ","LANE":"１１２巷","ALLEY":" ","HOUSE_NO":"９號九樓之１","E_COORD97":169173.64999999999,"N_COORD97":2542227.7999999998,"ADDRESS":"大同路二段１１２巷９號九樓之１","OBJECTID":398236},"geometry":{"x":169173.65000000037,"y":2542227.8000000007}},{"attributes":{"ID":398261,"DIS_CODE":0,"TOWNNAME":"南區","LI":"新生里","LIN":"16鄰","STREET":"大同路","SECT":"二段","MAREA":" ","LANE":"１１２巷","ALLEY":" ","HOUSE_NO":"９號九樓之２","E_COORD97":169173.64999999999,"N_COORD97":2542227.7999999998,"ADDRESS":"大同路二段１１２巷９號九樓之２","OBJECTID":398237},"geometry":{"x":169173.65000000037,"y":2542227.8000000007}},{"attributes":{"ID":398262,"DIS_CODE":0,"TOWNNAME":"南區","LI":"新生里","LIN":"16鄰","STREET":"大同路","SECT":"二段","MAREA":" ","LANE":"１１２巷","ALLEY":" ","HOUSE_NO":"９號九樓之３","E_COORD97":169173.64999999999,"N_COORD97":2542227.7999999998,"ADDRESS":"大同路二段１１２巷９號九樓之３","OBJECTID":398238},"geometry":{"x":169173.65000000037,"y":2542227.8000000007}},{"attributes":{"ID":398263,"DIS_CODE":0,"TOWNNAME":"南區","LI":"新生里","LIN":"16鄰","STREET":"大同路","SECT":"二段","MAREA":" ","LANE":"１１２巷","ALLEY":" ","HOUSE_NO":"９號九樓之５","E_COORD97":169173.64999999999,"N_COORD97":2542227.7999999998,"ADDRESS":"大同路二段１１２巷９號九樓之５","OBJECTID":398239},"geometry":{"x":169173.65000000037,"y":2542227.8000000007}},{"attributes":{"ID":398264,"DIS_CODE":0,"TOWNNAME":"南區","LI":"新生里","LIN":"16鄰","STREET":"大同路","SECT":"二段","MAREA":" ","LANE":"１１２巷","ALLEY":" ","HOUSE_NO":"９號十樓之１","E_COORD97":169173.64999999999,"N_COORD97":2542227.7999999998,"ADDRESS":"大同路二段１１２巷９號十樓之１","OBJECTID":398240},"geometry":{"x":169173.65000000037,"y":2542227.8000000007}},{"attributes":{"ID":398265,"DIS_CODE":0,"TOWNNAME":"南區","LI":"新生里","LIN":"16鄰","STREET":"大同路","SECT":"二段","MAREA":" ","LANE":"１１２巷","ALLEY":" ","HOUSE_NO":"９號十樓之２","E_COORD97":169173.64999999999,"N_COORD97":2542227.7999999998,"ADDRESS":"大同路二段１１２巷９號十樓之２","OBJECTID":398241},"geometry":{"x":169173.65000000037,"y":2542227.8000000007}},{"attributes":{"ID":398266,"DIS_CODE":0,"TOWNNAME":"南區","LI":"新生里","LIN":"16鄰","STREET":"大同路","SECT":"二段","MAREA":" ","LANE":"１１２巷","ALLEY":" ","HOUSE_NO":"９號十樓之３","E_COORD97":169173.64999999999,"N_COORD97":2542227.7999999998,"ADDRESS":"大同路二段１１２巷９號十樓之３","OBJECTID":398242},"geometry":{"x":169173.65000000037,"y":2542227.8000000007}},{"attributes":{"ID":398267,"DIS_CODE":0,"TOWNNAME":"南區","LI":"新生里","LIN":"16鄰","STREET":"大同路","SECT":"二段","MAREA":" ","LANE":"１１２巷","ALLEY":" ","HOUSE_NO":"９號十樓之５","E_COORD97":169173.64999999999,"N_COORD97":2542227.7999999998,"ADDRESS":"大同路二段１１２巷９號十樓之５","OBJECTID":398243},"geometry":{"x":169173.65000000037,"y":2542227.8000000007}},{"attributes":{"ID":398268,"DIS_CODE":0,"TOWNNAME":"南區","LI":"新生里","LIN":"16鄰","STREET":"大同路","SECT":"二段","MAREA":" ","LANE":"１１２巷","ALLEY":" ","HOUSE_NO":"９號十一樓之１","E_COORD97":169173.64999999999,"N_COORD97":2542227.7999999998,"ADDRESS":"大同路二段１１２巷９號十一樓之１","OBJECTID":398244},"geometry":{"x":169173.65000000037,"y":2542227.8000000007}},{"attributes":{"ID":398269,"DIS_CODE":0,"TOWNNAME":"南區","LI":"新生里","LIN":"16鄰","STREET":"大同路","SECT":"二段","MAREA":" ","LANE":"１１２巷","ALLEY":" ","HOUSE_NO":"９號十一樓之２","E_COORD97":169173.64999999999,"N_COORD97":2542227.7999999998,"ADDRESS":"大同路二段１１２巷９號十一樓之２","OBJECTID":398245},"geometry":{"x":169173.65000000037,"y":2542227.8000000007}},{"attributes":{"ID":398270,"DIS_CODE":0,"TOWNNAME":"南區","LI":"新生里","LIN":"16鄰","STREET":"大同路","SECT":"二段","MAREA":" ","LANE":"１１２巷","ALLEY":" ","HOUSE_NO":"９號十一樓之３","E_COORD97":169173.64999999999,"N_COORD97":2542227.7999999998,"ADDRESS":"大同路二段１１２巷９號十一樓之３","OBJECTID":398246},"geometry":{"x":169173.65000000037,"y":2542227.8000000007}},{"attributes":{"ID":398271,"DIS_CODE":0,"TOWNNAME":"南區","LI":"新生里","LIN":"16鄰","STREET":"大同路","SECT":"二段","MAREA":" ","LANE":"１１２巷","ALLEY":" ","HOUSE_NO":"９號十一樓之５","E_COORD97":169173.64999999999,"N_COORD97":2542227.7999999998,"ADDRESS":"大同路二段１１２巷９號十一樓之５","OBJECTID":398247},"geometry":{"x":169173.65000000037,"y":2542227.8000000007}},{"attributes":{"ID":398272,"DIS_CODE":0,"TOWNNAME":"南區","LI":"新生里","LIN":"16鄰","STREET":"大同路","SECT":"二段","MAREA":" ","LANE":"１１２巷","ALLEY":" ","HOUSE_NO":"１１號八樓之１","E_COORD97":169180.69,"N_COORD97":2542194.9300000002,"ADDRESS":"大同路二段１１２巷１１號八樓之１","OBJECTID":398248},"geometry":{"x":169180.69000000134,"y":2542194.9300000016}},{"attributes":{"ID":398273,"DIS_CODE":0,"TOWNNAME":"南區","LI":"新生里","LIN":"16鄰","STREET":"大同路","SECT":"二段","MAREA":" ","LANE":"１１２巷","ALLEY":" ","HOUSE_NO":"１１號八樓之５","E_COORD97":169180.69,"N_COORD97":2542194.9300000002,"ADDRESS":"大同路二段１１２巷１１號八樓之５","OBJECTID":398249},"geometry":{"x":169180.69000000134,"y":2542194.9300000016}},{"attributes":{"ID":398274,"DIS_CODE":0,"TOWNNAME":"南區","LI":"新生里","LIN":"16鄰","STREET":"大同路","SECT":"二段","MAREA":" ","LANE":"１１２巷","ALLEY":" ","HOUSE_NO":"１１號九樓之１","E_COORD97":169180.69,"N_COORD97":2542194.9300000002,"ADDRESS":"大同路二段１１２巷１１號九樓之１","OBJECTID":398250},"geometry":{"x":169180.69000000134,"y":2542194.9300000016}},{"attributes":{"ID":398275,"DIS_CODE":0,"TOWNNAME":"南區","LI":"新生里","LIN":"16鄰","STREET":"大同路","SECT":"二段","MAREA":" ","LANE":"１１２巷","ALLEY":" ","HOUSE_NO":"１１號九樓之５","E_COORD97":169180.69,"N_COORD97":2542194.9300000002,"ADDRESS":"大同路二段１１２巷１１號九樓之５","OBJECTID":398251},"geometry":{"x":169180.69000000134,"y":2542194.9300000016}},{"attributes":{"ID":398276,"DIS_CODE":0,"TOWNNAME":"南區","LI":"新生里","LIN":"16鄰","STREET":"大同路","SECT":"二段","MAREA":" ","LANE":"１１２巷","ALLEY":" ","HOUSE_NO":"１１號十樓之１","E_COORD97":169180.69,"N_COORD97":2542194.9300000002,"ADDRESS":"大同路二段１１２巷１１號十樓之１","OBJECTID":398252},"geometry":{"x":169180.69000000134,"y":2542194.9300000016}},{"attributes":{"ID":398277,"DIS_CODE":0,"TOWNNAME":"南區","LI":"新生里","LIN":"16鄰","STREET":"大同路","SECT":"二段","MAREA":" ","LANE":"１１２巷","ALLEY":" ","HOUSE_NO":"１１號十樓之５","E_COORD97":169180.69,"N_COORD97":2542194.9300000002,"ADDRESS":"大同路二段１１２巷１１號十樓之５","OBJECTID":398253},"geometry":{"x":169180.69000000134,"y":2542194.9300000016}},{"attributes":{"ID":398278,"DIS_CODE":0,"TOWNNAME":"南區","LI":"新生里","LIN":"16鄰","STREET":"大同路","SECT":"二段","MAREA":" ","LANE":"１１２巷","ALLEY":" ","HOUSE_NO":"１１號十一樓之１","E_COORD97":169180.69,"N_COORD97":2542194.9300000002,"ADDRESS":"大同路二段１１２巷１１號十一樓之１","OBJECTID":398254},"geometry":{"x":169180.69000000134,"y":2542194.9300000016}},{"attributes":{"ID":398279,"DIS_CODE":0,"TOWNNAME":"南區","LI":"新生里","LIN":"16鄰","STREET":"大同路","SECT":"二段","MAREA":" ","LANE":"１１２巷","ALLEY":" ","HOUSE_NO":"１１號十一樓之５","E_COORD97":169180.69,"N_COORD97":2542194.9300000002,"ADDRESS":"大同路二段１１２巷１１號十一樓之５","OBJECTID":398255},"geometry":{"x":169180.69000000134,"y":2542194.9300000016}},{"attributes":{"ID":398280,"DIS_CODE":0,"TOWNNAME":"南區","LI":"新生里","LIN":"16鄰","STREET":"大同路","SECT":"二段","MAREA":" ","LANE":"１１２巷","ALLEY":" ","HOUSE_NO":"１１號四樓之５","E_COORD97":169180.69,"N_COORD97":2542194.9300000002,"ADDRESS":"大同路二段１１２巷１１號四樓之５","OBJECTID":398256},"geometry":{"x":169180.69000000134,"y":2542194.9300000016}},{"attributes":{"ID":398281,"DIS_CODE":0,"TOWNNAME":"南區","LI":"新生里","LIN":"16鄰","STREET":"大同路","SECT":"二段","MAREA":" ","LANE":"１１２巷","ALLEY":" ","HOUSE_NO":"１１號五樓之１","E_COORD97":169180.69,"N_COORD97":2542194.9300000002,"ADDRESS":"大同路二段１１２巷１１號五樓之１","OBJECTID":398257},"geometry":{"x":169180.69000000134,"y":2542194.9300000016}},{"attributes":{"ID":398282,"DIS_CODE":0,"TOWNNAME":"南區","LI":"新生里","LIN":"16鄰","STREET":"大同路","SECT":"二段","MAREA":" ","LANE":"１１２巷","ALLEY":" ","HOUSE_NO":"１１號五樓之５","E_COORD97":169180.69,"N_COORD97":2542194.9300000002,"ADDRESS":"大同路二段１１２巷１１號五樓之５","OBJECTID":398258},"geometry":{"x":169180.69000000134,"y":2542194.9300000016}},{"attributes":{"ID":398283,"DIS_CODE":0,"TOWNNAME":"南區","LI":"新生里","LIN":"16鄰","STREET":"大同路","SECT":"二段","MAREA":" ","LANE":"１１２巷","ALLEY":" ","HOUSE_NO":"１１號六樓之１","E_COORD97":169180.69,"N_COORD97":2542194.9300000002,"ADDRESS":"大同路二段１１２巷１１號六樓之１","OBJECTID":398259},"geometry":{"x":169180.69000000134,"y":2542194.9300000016}},{"attributes":{"ID":398284,"DIS_CODE":0,"TOWNNAME":"鹽水區","LI":"橋南里","LIN":"16鄰","STREET":"月津路","SECT":" ","MAREA":" ","LANE":"７５巷","ALLEY":" ","HOUSE_NO":"２號五樓之１","E_COORD97":174938.79000000001,"N_COORD97":2579234.1200000001,"ADDRESS":"月津路７５巷２號五樓之１","OBJECTID":398260},"geometry":{"x":174938.79000000004,"y":2579234.1200000029}},{"attributes":{"ID":398285,"DIS_CODE":0,"TOWNNAME":"南區","LI":"新生里","LIN":"16鄰","STREET":"大同路","SECT":"二段","MAREA":" ","LANE":"１１２巷","ALLEY":" ","HOUSE_NO":"１１號六樓之５","E_COORD97":169180.69,"N_COORD97":2542194.9300000002,"ADDRESS":"大同路二段１１２巷１１號六樓之５","OBJECTID":398261},"geometry":{"x":169180.69000000134,"y":2542194.9300000016}},{"attributes":{"ID":398286,"DIS_CODE":0,"TOWNNAME":"鹽水區","LI":"橋南里","LIN":"16鄰","STREET":"月津路","SECT":" ","MAREA":" ","LANE":"７５巷","ALLEY":" ","HOUSE_NO":"２號一樓之１","E_COORD97":174938.79000000001,"N_COORD97":2579234.1200000001,"ADDRESS":"月津路７５巷２號一樓之１","OBJECTID":398262},"geometry":{"x":174938.79000000004,"y":2579234.1200000029}},{"attributes":{"ID":398287,"DIS_CODE":0,"TOWNNAME":"南區","LI":"新生里","LIN":"16鄰","STREET":"大同路","SECT":"二段","MAREA":" ","LANE":"１１２巷","ALLEY":" ","HOUSE_NO":"１１號七樓之１","E_COORD97":169180.69,"N_COORD97":2542194.9300000002,"ADDRESS":"大同路二段１１２巷１１號七樓之１","OBJECTID":398263},"geometry":{"x":169180.69000000134,"y":2542194.9300000016}},{"attributes":{"ID":398288,"DIS_CODE":0,"TOWNNAME":"新營區","LI":"新南里","LIN":"16鄰","STREET":"隋唐街","SECT":" ","MAREA":" ","LANE":"３１巷","ALLEY":" ","HOUSE_NO":"６１號五樓","E_COORD97":178686.76999999999,"N_COORD97":2578323.1800000002,"ADDRESS":"隋唐街３１巷６１號五樓","OBJECTID":398264},"geometry":{"x":178686.76999999955,"y":2578323.1800000034}},{"attributes":{"ID":398289,"DIS_CODE":0,"TOWNNAME":"南區","LI":"新生里","LIN":"16鄰","STREET":"大同路","SECT":"二段","MAREA":" ","LANE":"１１２巷","ALLEY":" ","HOUSE_NO":"１１號七樓之５","E_COORD97":169180.69,"N_COORD97":2542194.9300000002,"ADDRESS":"大同路二段１１２巷１１號七樓之５","OBJECTID":398265},"geometry":{"x":169180.69000000134,"y":2542194.9300000016}},{"attributes":{"ID":398290,"DIS_CODE":0,"TOWNNAME":"北區","LI":"大道里","LIN":"16鄰","STREET":"北門路","SECT":"二段","MAREA":" ","LANE":"５２７巷","ALLEY":" ","HOUSE_NO":"１８號三樓之２","E_COORD97":169525.98999999999,"N_COORD97":2545704.4700000002,"ADDRESS":"北門路二段５２７巷１８號三樓之２","OBJECTID":398266},"geometry":{"x":169525.99000000115,"y":2545704.4700000025}},{"attributes":{"ID":398291,"DIS_CODE":0,"TOWNNAME":"北區","LI":"大道里","LIN":"16鄰","STREET":"北門路","SECT":"二段","MAREA":" ","LANE":"５２７巷","ALLEY":" ","HOUSE_NO":"１８號三樓之１","E_COORD97":169525.98999999999,"N_COORD97":2545704.4700000002,"ADDRESS":"北門路二段５２７巷１８號三樓之１","OBJECTID":398267},"geometry":{"x":169525.99000000115,"y":2545704.4700000025}},{"attributes":{"ID":398292,"DIS_CODE":0,"TOWNNAME":"北區","LI":"大道里","LIN":"16鄰","STREET":"北門路","SECT":"二段","MAREA":" ","LANE":"５２７巷","ALLEY":" ","HOUSE_NO":"１８號四樓之２","E_COORD97":169525.98999999999,"N_COORD97":2545704.4700000002,"ADDRESS":"北門路二段５２７巷１８號四樓之２","OBJECTID":398268},"geometry":{"x":169525.99000000115,"y":2545704.4700000025}},{"attributes":{"ID":398293,"DIS_CODE":0,"TOWNNAME":"北區","LI":"大道里","LIN":"16鄰","STREET":"北門路","SECT":"二段","MAREA":" ","LANE":"５２７巷","ALLEY":" ","HOUSE_NO":"１８號四樓之１","E_COORD97":169525.98999999999,"N_COORD97":2545704.4700000002,"ADDRESS":"北門路二段５２７巷１８號四樓之１","OBJECTID":398269},"geometry":{"x":169525.99000000115,"y":2545704.4700000025}},{"attributes":{"ID":398294,"DIS_CODE":0,"TOWNNAME":"北區","LI":"大道里","LIN":"16鄰","STREET":"北門路","SECT":"二段","MAREA":" ","LANE":"５２７巷","ALLEY":" ","HOUSE_NO":"１８號五樓之２","E_COORD97":169525.98999999999,"N_COORD97":2545704.4700000002,"ADDRESS":"北門路二段５２７巷１８號五樓之２","OBJECTID":398270},"geometry":{"x":169525.99000000115,"y":2545704.4700000025}},{"attributes":{"ID":398295,"DIS_CODE":0,"TOWNNAME":"北區","LI":"大道里","LIN":"16鄰","STREET":"北門路","SECT":"二段","MAREA":" ","LANE":"５２７巷","ALLEY":" ","HOUSE_NO":"１８號五樓之１","E_COORD97":169525.98999999999,"N_COORD97":2545704.4700000002,"ADDRESS":"北門路二段５２７巷１８號五樓之１","OBJECTID":398271},"geometry":{"x":169525.99000000115,"y":2545704.4700000025}},{"attributes":{"ID":398296,"DIS_CODE":0,"TOWNNAME":"北區","LI":"大道里","LIN":"16鄰","STREET":"北門路","SECT":"二段","MAREA":" ","LANE":"５２７巷","ALLEY":" ","HOUSE_NO":"１８號六樓之２","E_COORD97":169525.98999999999,"N_COORD97":2545704.4700000002,"ADDRESS":"北門路二段５２７巷１８號六樓之２","OBJECTID":398272},"geometry":{"x":169525.99000000115,"y":2545704.4700000025}},{"attributes":{"ID":398297,"DIS_CODE":0,"TOWNNAME":"中西區","LI":"光賢里","LIN":"14鄰","STREET":"武聖路","SECT":" ","MAREA":" ","LANE":"６９巷","ALLEY":" ","HOUSE_NO":"３８號","E_COORD97":167097.16,"N_COORD97":2545058.3799999999,"ADDRESS":"武聖路６９巷３８號","OBJECTID":398273},"geometry":{"x":167097.16000000108,"y":2545058.3800000008}},{"attributes":{"ID":398298,"DIS_CODE":0,"TOWNNAME":"北區","LI":"大道里","LIN":"16鄰","STREET":"北門路","SECT":"二段","MAREA":" ","LANE":"５２７巷","ALLEY":" ","HOUSE_NO":"１８號六樓之１","E_COORD97":169525.98999999999,"N_COORD97":2545704.4700000002,"ADDRESS":"北門路二段５２７巷１８號六樓之１","OBJECTID":398274},"geometry":{"x":169525.99000000115,"y":2545704.4700000025}},{"attributes":{"ID":398299,"DIS_CODE":0,"TOWNNAME":"北區","LI":"大道里","LIN":"16鄰","STREET":"北門路","SECT":"二段","MAREA":" ","LANE":"５２７巷","ALLEY":" ","HOUSE_NO":"１８號七樓之２","E_COORD97":169525.98999999999,"N_COORD97":2545704.4700000002,"ADDRESS":"北門路二段５２７巷１８號七樓之２","OBJECTID":398275},"geometry":{"x":169525.99000000115,"y":2545704.4700000025}},{"attributes":{"ID":398300,"DIS_CODE":0,"TOWNNAME":"北區","LI":"大道里","LIN":"16鄰","STREET":"北門路","SECT":"二段","MAREA":" ","LANE":"５２７巷","ALLEY":" ","HOUSE_NO":"１８號七樓之１","E_COORD97":169525.98999999999,"N_COORD97":2545704.4700000002,"ADDRESS":"北門路二段５２７巷１８號七樓之１","OBJECTID":398276},"geometry":{"x":169525.99000000115,"y":2545704.4700000025}},{"attributes":{"ID":398301,"DIS_CODE":0,"TOWNNAME":"北區","LI":"大道里","LIN":"16鄰","STREET":"北門路","SECT":"二段","MAREA":" ","LANE":"５２７巷","ALLEY":" ","HOUSE_NO":"１８號八樓之２","E_COORD97":169525.98999999999,"N_COORD97":2545704.4700000002,"ADDRESS":"北門路二段５２７巷１８號八樓之２","OBJECTID":398277},"geometry":{"x":169525.99000000115,"y":2545704.4700000025}},{"attributes":{"ID":398302,"DIS_CODE":0,"TOWNNAME":"北區","LI":"大道里","LIN":"16鄰","STREET":"北門路","SECT":"二段","MAREA":" ","LANE":"５２７巷","ALLEY":" ","HOUSE_NO":"１８號八樓之１","E_COORD97":169525.98999999999,"N_COORD97":2545704.4700000002,"ADDRESS":"北門路二段５２７巷１８號八樓之１","OBJECTID":398278},"geometry":{"x":169525.99000000115,"y":2545704.4700000025}},{"attributes":{"ID":398303,"DIS_CODE":0,"TOWNNAME":"北區","LI":"大道里","LIN":"16鄰","STREET":"北門路","SECT":"二段","MAREA":" ","LANE":"５２７巷","ALLEY":" ","HOUSE_NO":"１８號九樓之２","E_COORD97":169525.98999999999,"N_COORD97":2545704.4700000002,"ADDRESS":"北門路二段５２７巷１８號九樓之２","OBJECTID":398279},"geometry":{"x":169525.99000000115,"y":2545704.4700000025}},{"attributes":{"ID":398304,"DIS_CODE":0,"TOWNNAME":"北區","LI":"大道里","LIN":"16鄰","STREET":"北門路","SECT":"二段","MAREA":" ","LANE":"５２７巷","ALLEY":" ","HOUSE_NO":"１８號九樓之１","E_COORD97":169525.98999999999,"N_COORD97":2545704.4700000002,"ADDRESS":"北門路二段５２７巷１８號九樓之１","OBJECTID":398280},"geometry":{"x":169525.99000000115,"y":2545704.4700000025}},{"attributes":{"ID":398305,"DIS_CODE":0,"TOWNNAME":"北區","LI":"大道里","LIN":"16鄰","STREET":"北門路","SECT":"二段","MAREA":" ","LANE":"５２７巷","ALLEY":" ","HOUSE_NO":"１８號十樓之２","E_COORD97":169525.98999999999,"N_COORD97":2545704.4700000002,"ADDRESS":"北門路二段５２７巷１８號十樓之２","OBJECTID":398281},"geometry":{"x":169525.99000000115,"y":2545704.4700000025}},{"attributes":{"ID":398306,"DIS_CODE":0,"TOWNNAME":"北區","LI":"大道里","LIN":"16鄰","STREET":"北門路","SECT":"二段","MAREA":" ","LANE":"５２７巷","ALLEY":" ","HOUSE_NO":"１８號十樓之１","E_COORD97":169525.98999999999,"N_COORD97":2545704.4700000002,"ADDRESS":"北門路二段５２７巷１８號十樓之１","OBJECTID":398282},"geometry":{"x":169525.99000000115,"y":2545704.4700000025}},{"attributes":{"ID":398307,"DIS_CODE":0,"TOWNNAME":"北區","LI":"大道里","LIN":"16鄰","STREET":"北門路","SECT":"二段","MAREA":" ","LANE":"５２７巷","ALLEY":" ","HOUSE_NO":"２０號三樓之２","E_COORD97":169523.45000000001,"N_COORD97":2545686.0499999998,"ADDRESS":"北門路二段５２７巷２０號三樓之２","OBJECTID":398283},"geometry":{"x":169523.45000000019,"y":2545686.0500000045}},{"attributes":{"ID":398308,"DIS_CODE":0,"TOWNNAME":"北區","LI":"大道里","LIN":"16鄰","STREET":"北門路","SECT":"二段","MAREA":" ","LANE":"５２７巷","ALLEY":" ","HOUSE_NO":"２０號三樓之１","E_COORD97":169523.45000000001,"N_COORD97":2545686.0499999998,"ADDRESS":"北門路二段５２７巷２０號三樓之１","OBJECTID":398284},"geometry":{"x":169523.45000000019,"y":2545686.0500000045}},{"attributes":{"ID":398309,"DIS_CODE":0,"TOWNNAME":"北區","LI":"大道里","LIN":"16鄰","STREET":"北門路","SECT":"二段","MAREA":" ","LANE":"５２７巷","ALLEY":" ","HOUSE_NO":"２０號四樓之２","E_COORD97":169523.45000000001,"N_COORD97":2545686.0499999998,"ADDRESS":"北門路二段５２７巷２０號四樓之２","OBJECTID":398285},"geometry":{"x":169523.45000000019,"y":2545686.0500000045}},{"attributes":{"ID":398310,"DIS_CODE":0,"TOWNNAME":"北區","LI":"大道里","LIN":"16鄰","STREET":"北門路","SECT":"二段","MAREA":" ","LANE":"５２７巷","ALLEY":" ","HOUSE_NO":"２０號四樓之１","E_COORD97":169523.45000000001,"N_COORD97":2545686.0499999998,"ADDRESS":"北門路二段５２７巷２０號四樓之１","OBJECTID":398286},"geometry":{"x":169523.45000000019,"y":2545686.0500000045}},{"attributes":{"ID":398311,"DIS_CODE":0,"TOWNNAME":"北區","LI":"大道里","LIN":"16鄰","STREET":"北門路","SECT":"二段","MAREA":" ","LANE":"５２７巷","ALLEY":" ","HOUSE_NO":"２０號五樓之２","E_COORD97":169523.45000000001,"N_COORD97":2545686.0499999998,"ADDRESS":"北門路二段５２７巷２０號五樓之２","OBJECTID":398287},"geometry":{"x":169523.45000000019,"y":2545686.0500000045}},{"attributes":{"ID":398312,"DIS_CODE":0,"TOWNNAME":"北區","LI":"大道里","LIN":"16鄰","STREET":"北門路","SECT":"二段","MAREA":" ","LANE":"５２７巷","ALLEY":" ","HOUSE_NO":"２０號五樓之１","E_COORD97":169523.45000000001,"N_COORD97":2545686.0499999998,"ADDRESS":"北門路二段５２７巷２０號五樓之１","OBJECTID":398288},"geometry":{"x":169523.45000000019,"y":2545686.0500000045}},{"attributes":{"ID":398313,"DIS_CODE":0,"TOWNNAME":"北區","LI":"大道里","LIN":"16鄰","STREET":"北門路","SECT":"二段","MAREA":" ","LANE":"５２７巷","ALLEY":" ","HOUSE_NO":"２０號六樓之２","E_COORD97":169523.45000000001,"N_COORD97":2545686.0499999998,"ADDRESS":"北門路二段５２７巷２０號六樓之２","OBJECTID":398289},"geometry":{"x":169523.45000000019,"y":2545686.0500000045}},{"attributes":{"ID":398314,"DIS_CODE":0,"TOWNNAME":"北區","LI":"大道里","LIN":"16鄰","STREET":"北門路","SECT":"二段","MAREA":" ","LANE":"５２７巷","ALLEY":" ","HOUSE_NO":"２０號六樓之１","E_COORD97":169523.45000000001,"N_COORD97":2545686.0499999998,"ADDRESS":"北門路二段５２７巷２０號六樓之１","OBJECTID":398290},"geometry":{"x":169523.45000000019,"y":2545686.0500000045}},{"attributes":{"ID":398315,"DIS_CODE":0,"TOWNNAME":"北區","LI":"大道里","LIN":"16鄰","STREET":"北門路","SECT":"二段","MAREA":" ","LANE":"５２７巷","ALLEY":" ","HOUSE_NO":"２０號七樓之２","E_COORD97":169523.45000000001,"N_COORD97":2545686.0499999998,"ADDRESS":"北門路二段５２７巷２０號七樓之２","OBJECTID":398291},"geometry":{"x":169523.45000000019,"y":2545686.0500000045}},{"attributes":{"ID":398316,"DIS_CODE":0,"TOWNNAME":"北區","LI":"大道里","LIN":"16鄰","STREET":"北門路","SECT":"二段","MAREA":" ","LANE":"５２７巷","ALLEY":" ","HOUSE_NO":"２０號七樓之１","E_COORD97":169523.45000000001,"N_COORD97":2545686.0499999998,"ADDRESS":"北門路二段５２７巷２０號七樓之１","OBJECTID":398292},"geometry":{"x":169523.45000000019,"y":2545686.0500000045}},{"attributes":{"ID":398317,"DIS_CODE":0,"TOWNNAME":"北區","LI":"大道里","LIN":"16鄰","STREET":"北門路","SECT":"二段","MAREA":" ","LANE":"５２７巷","ALLEY":" ","HOUSE_NO":"２０號八樓之２","E_COORD97":169523.45000000001,"N_COORD97":2545686.0499999998,"ADDRESS":"北門路二段５２７巷２０號八樓之２","OBJECTID":398293},"geometry":{"x":169523.45000000019,"y":2545686.0500000045}},{"attributes":{"ID":398318,"DIS_CODE":0,"TOWNNAME":"北區","LI":"大道里","LIN":"16鄰","STREET":"北門路","SECT":"二段","MAREA":" ","LANE":"５２７巷","ALLEY":" ","HOUSE_NO":"２０號八樓之１","E_COORD97":169523.45000000001,"N_COORD97":2545686.0499999998,"ADDRESS":"北門路二段５２７巷２０號八樓之１","OBJECTID":398294},"geometry":{"x":169523.45000000019,"y":2545686.0500000045}},{"attributes":{"ID":398319,"DIS_CODE":0,"TOWNNAME":"北區","LI":"大道里","LIN":"16鄰","STREET":"北門路","SECT":"二段","MAREA":" ","LANE":"５２７巷","ALLEY":" ","HOUSE_NO":"２０號九樓之２","E_COORD97":169523.45000000001,"N_COORD97":2545686.0499999998,"ADDRESS":"北門路二段５２７巷２０號九樓之２","OBJECTID":398295},"geometry":{"x":169523.45000000019,"y":2545686.0500000045}},{"attributes":{"ID":398320,"DIS_CODE":0,"TOWNNAME":"北區","LI":"大道里","LIN":"16鄰","STREET":"北門路","SECT":"二段","MAREA":" ","LANE":"５２７巷","ALLEY":" ","HOUSE_NO":"２０號九樓之１","E_COORD97":169523.45000000001,"N_COORD97":2545686.0499999998,"ADDRESS":"北門路二段５２７巷２０號九樓之１","OBJECTID":398296},"geometry":{"x":169523.45000000019,"y":2545686.0500000045}},{"attributes":{"ID":398321,"DIS_CODE":0,"TOWNNAME":"北區","LI":"大道里","LIN":"16鄰","STREET":"北門路","SECT":"二段","MAREA":" ","LANE":"５２７巷","ALLEY":" ","HOUSE_NO":"２０號十樓之２","E_COORD97":169523.45000000001,"N_COORD97":2545686.0499999998,"ADDRESS":"北門路二段５２７巷２０號十樓之２","OBJECTID":398297},"geometry":{"x":169523.45000000019,"y":2545686.0500000045}},{"attributes":{"ID":398322,"DIS_CODE":0,"TOWNNAME":"北區","LI":"大道里","LIN":"16鄰","STREET":"北門路","SECT":"二段","MAREA":" ","LANE":"５２７巷","ALLEY":" ","HOUSE_NO":"２０號十樓之１","E_COORD97":169523.45000000001,"N_COORD97":2545686.0499999998,"ADDRESS":"北門路二段５２７巷２０號十樓之１","OBJECTID":398298},"geometry":{"x":169523.45000000019,"y":2545686.0500000045}},{"attributes":{"ID":398323,"DIS_CODE":0,"TOWNNAME":"北區","LI":"大道里","LIN":"16鄰","STREET":"北門路","SECT":"二段","MAREA":" ","LANE":"５４７巷","ALLEY":" ","HOUSE_NO":"３９號三樓之３","E_COORD97":169546.16,"N_COORD97":2545697.8799999999,"ADDRESS":"北門路二段５４７巷３９號三樓之３","OBJECTID":398299},"geometry":{"x":169546.16000000015,"y":2545697.879999999}},{"attributes":{"ID":398324,"DIS_CODE":0,"TOWNNAME":"北區","LI":"大道里","LIN":"16鄰","STREET":"北門路","SECT":"二段","MAREA":" ","LANE":"５４７巷","ALLEY":" ","HOUSE_NO":"３９號四樓之２","E_COORD97":169546.16,"N_COORD97":2545697.8799999999,"ADDRESS":"北門路二段５４７巷３９號四樓之２","OBJECTID":398300},"geometry":{"x":169546.16000000015,"y":2545697.879999999}},{"attributes":{"ID":398325,"DIS_CODE":0,"TOWNNAME":"北區","LI":"大道里","LIN":"16鄰","STREET":"北門路","SECT":"二段","MAREA":" ","LANE":"５４７巷","ALLEY":" ","HOUSE_NO":"３９號四樓之１","E_COORD97":169546.16,"N_COORD97":2545697.8799999999,"ADDRESS":"北門路二段５４７巷３９號四樓之１","OBJECTID":398301},"geometry":{"x":169546.16000000015,"y":2545697.879999999}},{"attributes":{"ID":398326,"DIS_CODE":0,"TOWNNAME":"北區","LI":"大道里","LIN":"16鄰","STREET":"北門路","SECT":"二段","MAREA":" ","LANE":"５４７巷","ALLEY":" ","HOUSE_NO":"３９號四樓之５","E_COORD97":169546.16,"N_COORD97":2545697.8799999999,"ADDRESS":"北門路二段５４７巷３９號四樓之５","OBJECTID":398302},"geometry":{"x":169546.16000000015,"y":2545697.879999999}},{"attributes":{"ID":398327,"DIS_CODE":0,"TOWNNAME":"北區","LI":"大道里","LIN":"16鄰","STREET":"北門路","SECT":"二段","MAREA":" ","LANE":"５４７巷","ALLEY":" ","HOUSE_NO":"３９號四樓之３","E_COORD97":169546.16,"N_COORD97":2545697.8799999999,"ADDRESS":"北門路二段５４７巷３９號四樓之３","OBJECTID":398303},"geometry":{"x":169546.16000000015,"y":2545697.879999999}},{"attributes":{"ID":398328,"DIS_CODE":0,"TOWNNAME":"北區","LI":"大道里","LIN":"16鄰","STREET":"北門路","SECT":"二段","MAREA":" ","LANE":"５４７巷","ALLEY":" ","HOUSE_NO":"３９號五樓之２","E_COORD97":169546.16,"N_COORD97":2545697.8799999999,"ADDRESS":"北門路二段５４７巷３９號五樓之２","OBJECTID":398304},"geometry":{"x":169546.16000000015,"y":2545697.879999999}},{"attributes":{"ID":398329,"DIS_CODE":0,"TOWNNAME":"北區","LI":"大道里","LIN":"16鄰","STREET":"北門路","SECT":"二段","MAREA":" ","LANE":"５４７巷","ALLEY":" ","HOUSE_NO":"３９號五樓之１","E_COORD97":169546.16,"N_COORD97":2545697.8799999999,"ADDRESS":"北門路二段５４７巷３９號五樓之１","OBJECTID":398305},"geometry":{"x":169546.16000000015,"y":2545697.879999999}},{"attributes":{"ID":398330,"DIS_CODE":0,"TOWNNAME":"北區","LI":"大道里","LIN":"16鄰","STREET":"北門路","SECT":"二段","MAREA":" ","LANE":"５４７巷","ALLEY":" ","HOUSE_NO":"３９號五樓之５","E_COORD97":169546.16,"N_COORD97":2545697.8799999999,"ADDRESS":"北門路二段５４７巷３９號五樓之５","OBJECTID":398306},"geometry":{"x":169546.16000000015,"y":2545697.879999999}},{"attributes":{"ID":398331,"DIS_CODE":0,"TOWNNAME":"北區","LI":"大道里","LIN":"16鄰","STREET":"北門路","SECT":"二段","MAREA":" ","LANE":"５４７巷","ALLEY":" ","HOUSE_NO":"３９號五樓之３","E_COORD97":169546.16,"N_COORD97":2545697.8799999999,"ADDRESS":"北門路二段５４７巷３９號五樓之３","OBJECTID":398307},"geometry":{"x":169546.16000000015,"y":2545697.879999999}},{"attributes":{"ID":398332,"DIS_CODE":0,"TOWNNAME":"北區","LI":"大道里","LIN":"16鄰","STREET":"北門路","SECT":"二段","MAREA":" ","LANE":"５４７巷","ALLEY":" ","HOUSE_NO":"３９號六樓之２","E_COORD97":169546.16,"N_COORD97":2545697.8799999999,"ADDRESS":"北門路二段５４７巷３９號六樓之２","OBJECTID":398308},"geometry":{"x":169546.16000000015,"y":2545697.879999999}},{"attributes":{"ID":398333,"DIS_CODE":0,"TOWNNAME":"北區","LI":"大道里","LIN":"16鄰","STREET":"北門路","SECT":"二段","MAREA":" ","LANE":"５４７巷","ALLEY":" ","HOUSE_NO":"３９號六樓之１","E_COORD97":169546.16,"N_COORD97":2545697.8799999999,"ADDRESS":"北門路二段５４７巷３９號六樓之１","OBJECTID":398309},"geometry":{"x":169546.16000000015,"y":2545697.879999999}},{"attributes":{"ID":398334,"DIS_CODE":0,"TOWNNAME":"北區","LI":"大道里","LIN":"16鄰","STREET":"北門路","SECT":"二段","MAREA":" ","LANE":"５４７巷","ALLEY":" ","HOUSE_NO":"３９號六樓之５","E_COORD97":169546.16,"N_COORD97":2545697.8799999999,"ADDRESS":"北門路二段５４７巷３９號六樓之５","OBJECTID":398310},"geometry":{"x":169546.16000000015,"y":2545697.879999999}},{"attributes":{"ID":398335,"DIS_CODE":0,"TOWNNAME":"北區","LI":"大道里","LIN":"16鄰","STREET":"北門路","SECT":"二段","MAREA":" ","LANE":"５４７巷","ALLEY":" ","HOUSE_NO":"３９號六樓之３","E_COORD97":169546.16,"N_COORD97":2545697.8799999999,"ADDRESS":"北門路二段５４７巷３９號六樓之３","OBJECTID":398311},"geometry":{"x":169546.16000000015,"y":2545697.879999999}},{"attributes":{"ID":398336,"DIS_CODE":0,"TOWNNAME":"北區","LI":"大道里","LIN":"16鄰","STREET":"北門路","SECT":"二段","MAREA":" ","LANE":"５４７巷","ALLEY":" ","HOUSE_NO":"３９號七樓之２","E_COORD97":169546.16,"N_COORD97":2545697.8799999999,"ADDRESS":"北門路二段５４７巷３９號七樓之２","OBJECTID":398312},"geometry":{"x":169546.16000000015,"y":2545697.879999999}},{"attributes":{"ID":398337,"DIS_CODE":0,"TOWNNAME":"北區","LI":"大道里","LIN":"16鄰","STREET":"北門路","SECT":"二段","MAREA":" ","LANE":"５４７巷","ALLEY":" ","HOUSE_NO":"３９號七樓之５","E_COORD97":169546.16,"N_COORD97":2545697.8799999999,"ADDRESS":"北門路二段５４７巷３９號七樓之５","OBJECTID":398313},"geometry":{"x":169546.16000000015,"y":2545697.879999999}},{"attributes":{"ID":398338,"DIS_CODE":0,"TOWNNAME":"北區","LI":"大道里","LIN":"16鄰","STREET":"北門路","SECT":"二段","MAREA":" ","LANE":"５４７巷","ALLEY":" ","HOUSE_NO":"３９號七樓之３","E_COORD97":169546.16,"N_COORD97":2545697.8799999999,"ADDRESS":"北門路二段５４７巷３９號七樓之３","OBJECTID":398314},"geometry":{"x":169546.16000000015,"y":2545697.879999999}},{"attributes":{"ID":398339,"DIS_CODE":0,"TOWNNAME":"北區","LI":"大道里","LIN":"16鄰","STREET":"北門路","SECT":"二段","MAREA":" ","LANE":"５４７巷","ALLEY":" ","HOUSE_NO":"３９號八樓之２","E_COORD97":169546.16,"N_COORD97":2545697.8799999999,"ADDRESS":"北門路二段５４７巷３９號八樓之２","OBJECTID":398315},"geometry":{"x":169546.16000000015,"y":2545697.879999999}},{"attributes":{"ID":398340,"DIS_CODE":0,"TOWNNAME":"北區","LI":"大道里","LIN":"16鄰","STREET":"北門路","SECT":"二段","MAREA":" ","LANE":"５４７巷","ALLEY":" ","HOUSE_NO":"３９號八樓之１","E_COORD97":169546.16,"N_COORD97":2545697.8799999999,"ADDRESS":"北門路二段５４７巷３９號八樓之１","OBJECTID":398316},"geometry":{"x":169546.16000000015,"y":2545697.879999999}},{"attributes":{"ID":398341,"DIS_CODE":0,"TOWNNAME":"北區","LI":"大道里","LIN":"16鄰","STREET":"北門路","SECT":"二段","MAREA":" ","LANE":"５４７巷","ALLEY":" ","HOUSE_NO":"３９號八樓之５","E_COORD97":169546.16,"N_COORD97":2545697.8799999999,"ADDRESS":"北門路二段５４７巷３９號八樓之５","OBJECTID":398317},"geometry":{"x":169546.16000000015,"y":2545697.879999999}},{"attributes":{"ID":398342,"DIS_CODE":0,"TOWNNAME":"麻豆區","LI":"\u25A0江里","LIN":"13鄰","STREET":"民權路","SECT":" ","MAREA":" ","LANE":"９１巷","ALLEY":" ","HOUSE_NO":"８號","E_COORD97":173591.54000000001,"N_COORD97":2564359.21,"ADDRESS":"民權路９１巷８號","OBJECTID":398318},"geometry":{"x":173591.54000000004,"y":2564359.2100000046}},{"attributes":{"ID":398343,"DIS_CODE":0,"TOWNNAME":"北區","LI":"大道里","LIN":"16鄰","STREET":"北門路","SECT":"二段","MAREA":" ","LANE":"５４７巷","ALLEY":" ","HOUSE_NO":"３９號八樓之３","E_COORD97":169546.16,"N_COORD97":2545697.8799999999,"ADDRESS":"北門路二段５４７巷３９號八樓之３","OBJECTID":398319},"geometry":{"x":169546.16000000015,"y":2545697.879999999}},{"attributes":{"ID":398344,"DIS_CODE":0,"TOWNNAME":"北區","LI":"大道里","LIN":"16鄰","STREET":"北門路","SECT":"二段","MAREA":" ","LANE":"５４７巷","ALLEY":" ","HOUSE_NO":"３９號七樓之１","E_COORD97":169546.16,"N_COORD97":2545697.8799999999,"ADDRESS":"北門路二段５４７巷３９號七樓之１","OBJECTID":398320},"geometry":{"x":169546.16000000015,"y":2545697.879999999}},{"attributes":{"ID":398345,"DIS_CODE":0,"TOWNNAME":"北區","LI":"大道里","LIN":"16鄰","STREET":"北門路","SECT":"二段","MAREA":" ","LANE":"５４７巷","ALLEY":" ","HOUSE_NO":"３９號九樓之２","E_COORD97":169546.16,"N_COORD97":2545697.8799999999,"ADDRESS":"北門路二段５４７巷３９號九樓之２","OBJECTID":398321},"geometry":{"x":169546.16000000015,"y":2545697.879999999}},{"attributes":{"ID":398346,"DIS_CODE":0,"TOWNNAME":"北區","LI":"大道里","LIN":"16鄰","STREET":"北門路","SECT":"二段","MAREA":" ","LANE":"５４７巷","ALLEY":" ","HOUSE_NO":"３９號九樓之１","E_COORD97":169546.16,"N_COORD97":2545697.8799999999,"ADDRESS":"北門路二段５４７巷３９號九樓之１","OBJECTID":398322},"geometry":{"x":169546.16000000015,"y":2545697.879999999}},{"attributes":{"ID":398347,"DIS_CODE":0,"TOWNNAME":"北區","LI":"大道里","LIN":"16鄰","STREET":"北門路","SECT":"二段","MAREA":" ","LANE":"５４７巷","ALLEY":" ","HOUSE_NO":"３９號九樓之５","E_COORD97":169546.16,"N_COORD97":2545697.8799999999,"ADDRESS":"北門路二段５４７巷３９號九樓之５","OBJECTID":398323},"geometry":{"x":169546.16000000015,"y":2545697.879999999}},{"attributes":{"ID":398348,"DIS_CODE":0,"TOWNNAME":"北區","LI":"大道里","LIN":"16鄰","STREET":"北門路","SECT":"二段","MAREA":" ","LANE":"５４７巷","ALLEY":" ","HOUSE_NO":"３９號九樓之３","E_COORD97":169546.16,"N_COORD97":2545697.8799999999,"ADDRESS":"北門路二段５４７巷３９號九樓之３","OBJECTID":398324},"geometry":{"x":169546.16000000015,"y":2545697.879999999}},{"attributes":{"ID":398349,"DIS_CODE":0,"TOWNNAME":"北區","LI":"大道里","LIN":"16鄰","STREET":"北門路","SECT":"二段","MAREA":" ","LANE":"５４７巷","ALLEY":" ","HOUSE_NO":"３９號十樓之２","E_COORD97":169546.16,"N_COORD97":2545697.8799999999,"ADDRESS":"北門路二段５４７巷３９號十樓之２","OBJECTID":398325},"geometry":{"x":169546.16000000015,"y":2545697.879999999}},{"attributes":{"ID":398350,"DIS_CODE":0,"TOWNNAME":"北區","LI":"大道里","LIN":"16鄰","STREET":"北門路","SECT":"二段","MAREA":" ","LANE":"５４７巷","ALLEY":" ","HOUSE_NO":"３９號十樓之１","E_COORD97":169546.16,"N_COORD97":2545697.8799999999,"ADDRESS":"北門路二段５４７巷３９號十樓之１","OBJECTID":398326},"geometry":{"x":169546.16000000015,"y":2545697.879999999}},{"attributes":{"ID":398351,"DIS_CODE":0,"TOWNNAME":"北區","LI":"大道里","LIN":"16鄰","STREET":"北門路","SECT":"二段","MAREA":" ","LANE":"５４７巷","ALLEY":" ","HOUSE_NO":"３９號十樓之５","E_COORD97":169546.16,"N_COORD97":2545697.8799999999,"ADDRESS":"北門路二段５４７巷３９號十樓之５","OBJECTID":398327},"geometry":{"x":169546.16000000015,"y":2545697.879999999}},{"attributes":{"ID":398352,"DIS_CODE":0,"TOWNNAME":"北區","LI":"大道里","LIN":"16鄰","STREET":"北門路","SECT":"二段","MAREA":" ","LANE":"５４７巷","ALLEY":" ","HOUSE_NO":"３９號十樓之３","E_COORD97":169546.16,"N_COORD97":2545697.8799999999,"ADDRESS":"北門路二段５４７巷３９號十樓之３","OBJECTID":398328},"geometry":{"x":169546.16000000015,"y":2545697.879999999}},{"attributes":{"ID":398353,"DIS_CODE":0,"TOWNNAME":"北區","LI":"光武里","LIN":"16鄰","STREET":"北門路","SECT":"二段","MAREA":" ","LANE":"５７７巷","ALLEY":" ","HOUSE_NO":"１８號二樓之１","E_COORD97":169607.26999999999,"N_COORD97":2545790.27,"ADDRESS":"北門路二段５７７巷１８號二樓之１","OBJECTID":398329},"geometry":{"x":169607.26999999955,"y":2545790.2699999996}},{"attributes":{"ID":398354,"DIS_CODE":0,"TOWNNAME":"北區","LI":"光武里","LIN":"16鄰","STREET":"北門路","SECT":"二段","MAREA":" ","LANE":"５７７巷","ALLEY":" ","HOUSE_NO":"１８號二樓之２","E_COORD97":169607.26999999999,"N_COORD97":2545790.27,"ADDRESS":"北門路二段５７７巷１８號二樓之２","OBJECTID":398330},"geometry":{"x":169607.26999999955,"y":2545790.2699999996}},{"attributes":{"ID":398355,"DIS_CODE":0,"TOWNNAME":"北區","LI":"光武里","LIN":"16鄰","STREET":"北門路","SECT":"二段","MAREA":" ","LANE":"５７７巷","ALLEY":" ","HOUSE_NO":"１８號三樓之１","E_COORD97":169607.26999999999,"N_COORD97":2545790.27,"ADDRESS":"北門路二段５７７巷１８號三樓之１","OBJECTID":398331},"geometry":{"x":169607.26999999955,"y":2545790.2699999996}},{"attributes":{"ID":398356,"DIS_CODE":0,"TOWNNAME":"北區","LI":"光武里","LIN":"16鄰","STREET":"北門路","SECT":"二段","MAREA":" ","LANE":"５７７巷","ALLEY":" ","HOUSE_NO":"１８號四樓之１","E_COORD97":169607.26999999999,"N_COORD97":2545790.27,"ADDRESS":"北門路二段５７７巷１８號四樓之１","OBJECTID":398332},"geometry":{"x":169607.26999999955,"y":2545790.2699999996}},{"attributes":{"ID":398357,"DIS_CODE":0,"TOWNNAME":"北區","LI":"光武里","LIN":"16鄰","STREET":"北門路","SECT":"二段","MAREA":" ","LANE":"５７７巷","ALLEY":" ","HOUSE_NO":"１８號五樓之１","E_COORD97":169607.26999999999,"N_COORD97":2545790.27,"ADDRESS":"北門路二段５７７巷１８號五樓之１","OBJECTID":398333},"geometry":{"x":169607.26999999955,"y":2545790.2699999996}},{"attributes":{"ID":398358,"DIS_CODE":0,"TOWNNAME":"北區","LI":"光武里","LIN":"16鄰","STREET":"北門路","SECT":"二段","MAREA":" ","LANE":"５７７巷","ALLEY":" ","HOUSE_NO":"１８號六樓之１","E_COORD97":169607.26999999999,"N_COORD97":2545790.27,"ADDRESS":"北門路二段５７７巷１８號六樓之１","OBJECTID":398334},"geometry":{"x":169607.26999999955,"y":2545790.2699999996}},{"attributes":{"ID":398359,"DIS_CODE":0,"TOWNNAME":"北區","LI":"光武里","LIN":"16鄰","STREET":"北門路","SECT":"二段","MAREA":" ","LANE":"５７７巷","ALLEY":" ","HOUSE_NO":"１８號七樓之１","E_COORD97":169607.26999999999,"N_COORD97":2545790.27,"ADDRESS":"北門路二段５７７巷１８號七樓之１","OBJECTID":398335},"geometry":{"x":169607.26999999955,"y":2545790.2699999996}},{"attributes":{"ID":398360,"DIS_CODE":0,"TOWNNAME":"北區","LI":"光武里","LIN":"16鄰","STREET":"北門路","SECT":"二段","MAREA":" ","LANE":"５７７巷","ALLEY":" ","HOUSE_NO":"１８號八樓之１","E_COORD97":169607.26999999999,"N_COORD97":2545790.27,"ADDRESS":"北門路二段５７７巷１８號八樓之１","OBJECTID":398336},"geometry":{"x":169607.26999999955,"y":2545790.2699999996}},{"attributes":{"ID":398361,"DIS_CODE":0,"TOWNNAME":"北區","LI":"光武里","LIN":"16鄰","STREET":"北門路","SECT":"二段","MAREA":" ","LANE":"５７７巷","ALLEY":" ","HOUSE_NO":"１８號九樓之１","E_COORD97":169607.26999999999,"N_COORD97":2545790.27,"ADDRESS":"北門路二段５７７巷１８號九樓之１","OBJECTID":398337},"geometry":{"x":169607.26999999955,"y":2545790.2699999996}},{"attributes":{"ID":398362,"DIS_CODE":0,"TOWNNAME":"北區","LI":"光武里","LIN":"16鄰","STREET":"北門路","SECT":"二段","MAREA":" ","LANE":"５７７巷","ALLEY":" ","HOUSE_NO":"１８號十樓之１","E_COORD97":169607.26999999999,"N_COORD97":2545790.27,"ADDRESS":"北門路二段５７７巷１８號十樓之１","OBJECTID":398338},"geometry":{"x":169607.26999999955,"y":2545790.2699999996}},{"attributes":{"ID":398363,"DIS_CODE":0,"TOWNNAME":"北區","LI":"光武里","LIN":"16鄰","STREET":"北門路","SECT":"二段","MAREA":" ","LANE":"５７７巷","ALLEY":" ","HOUSE_NO":"１８號三樓之２","E_COORD97":169607.26999999999,"N_COORD97":2545790.27,"ADDRESS":"北門路二段５７７巷１８號三樓之２","OBJECTID":398339},"geometry":{"x":169607.26999999955,"y":2545790.2699999996}},{"attributes":{"ID":398364,"DIS_CODE":0,"TOWNNAME":"北區","LI":"光武里","LIN":"16鄰","STREET":"北門路","SECT":"二段","MAREA":" ","LANE":"５７７巷","ALLEY":" ","HOUSE_NO":"１８號四樓之２","E_COORD97":169607.26999999999,"N_COORD97":2545790.27,"ADDRESS":"北門路二段５７７巷１８號四樓之２","OBJECTID":398340},"geometry":{"x":169607.26999999955,"y":2545790.2699999996}},{"attributes":{"ID":398365,"DIS_CODE":0,"TOWNNAME":"北區","LI":"光武里","LIN":"16鄰","STREET":"北門路","SECT":"二段","MAREA":" ","LANE":"５７７巷","ALLEY":" ","HOUSE_NO":"１８號五樓之２","E_COORD97":169607.26999999999,"N_COORD97":2545790.27,"ADDRESS":"北門路二段５７７巷１８號五樓之２","OBJECTID":398341},"geometry":{"x":169607.26999999955,"y":2545790.2699999996}},{"attributes":{"ID":398366,"DIS_CODE":0,"TOWNNAME":"北區","LI":"光武里","LIN":"16鄰","STREET":"北門路","SECT":"二段","MAREA":" ","LANE":"５７７巷","ALLEY":" ","HOUSE_NO":"１８號六樓之２","E_COORD97":169607.26999999999,"N_COORD97":2545790.27,"ADDRESS":"北門路二段５７７巷１８號六樓之２","OBJECTID":398342},"geometry":{"x":169607.26999999955,"y":2545790.2699999996}},{"attributes":{"ID":398367,"DIS_CODE":0,"TOWNNAME":"北區","LI":"光武里","LIN":"16鄰","STREET":"北門路","SECT":"二段","MAREA":" ","LANE":"５７７巷","ALLEY":" ","HOUSE_NO":"１８號七樓之２","E_COORD97":169607.26999999999,"N_COORD97":2545790.27,"ADDRESS":"北門路二段５７７巷１８號七樓之２","OBJECTID":398343},"geometry":{"x":169607.26999999955,"y":2545790.2699999996}},{"attributes":{"ID":398368,"DIS_CODE":0,"TOWNNAME":"東區","LI":"崇成里","LIN":"13鄰","STREET":"崇道路","SECT":" ","MAREA":" ","LANE":" ","ALLEY":" ","HOUSE_NO":"５０號","E_COORD97":170740.28,"N_COORD97":2541387.8100000001,"ADDRESS":"崇道路５０號","OBJECTID":398344},"geometry":{"x":170740.28000000026,"y":2541387.8100000005}},{"attributes":{"ID":398369,"DIS_CODE":0,"TOWNNAME":"東區","LI":"崇成里","LIN":"13鄰","STREET":"崇道路","SECT":" ","MAREA":" ","LANE":" ","ALLEY":" ","HOUSE_NO":"５２號","E_COORD97":170752.20000000001,"N_COORD97":2541387.96,"ADDRESS":"崇道路５２號","OBJECTID":398345},"geometry":{"x":170752.20000000112,"y":2541387.9600000046}},{"attributes":{"ID":398370,"DIS_CODE":0,"TOWNNAME":"北區","LI":"正覺里","LIN":"11鄰","STREET":"正覺街","SECT":" ","MAREA":" ","LANE":"７７巷","ALLEY":" ","HOUSE_NO":"１號","E_COORD97":169288.19,"N_COORD97":2546388.73,"ADDRESS":"正覺街７７巷１號","OBJECTID":398346},"geometry":{"x":169288.19000000041,"y":2546388.7300000004}},{"attributes":{"ID":398371,"DIS_CODE":0,"TOWNNAME":"北區","LI":"光武里","LIN":"16鄰","STREET":"北門路","SECT":"二段","MAREA":" ","LANE":"５７７巷","ALLEY":" ","HOUSE_NO":"１８號八樓之２","E_COORD97":169607.26999999999,"N_COORD97":2545790.27,"ADDRESS":"北門路二段５７７巷１８號八樓之２","OBJECTID":398347},"geometry":{"x":169607.26999999955,"y":2545790.2699999996}},{"attributes":{"ID":398372,"DIS_CODE":0,"TOWNNAME":"北區","LI":"光武里","LIN":"16鄰","STREET":"北門路","SECT":"二段","MAREA":" ","LANE":"５７７巷","ALLEY":" ","HOUSE_NO":"１８號九樓之２","E_COORD97":169607.26999999999,"N_COORD97":2545790.27,"ADDRESS":"北門路二段５７７巷１８號九樓之２","OBJECTID":398348},"geometry":{"x":169607.26999999955,"y":2545790.2699999996}},{"attributes":{"ID":398373,"DIS_CODE":0,"TOWNNAME":"北區","LI":"光武里","LIN":"16鄰","STREET":"北門路","SECT":"二段","MAREA":" ","LANE":"５７７巷","ALLEY":" ","HOUSE_NO":"１８號十樓之２","E_COORD97":169607.26999999999,"N_COORD97":2545790.27,"ADDRESS":"北門路二段５７７巷１８號十樓之２","OBJECTID":398349},"geometry":{"x":169607.26999999955,"y":2545790.2699999996}},{"attributes":{"ID":398374,"DIS_CODE":0,"TOWNNAME":"北區","LI":"光武里","LIN":"16鄰","STREET":"北門路","SECT":"二段","MAREA":" ","LANE":"５７７巷","ALLEY":" ","HOUSE_NO":"１８號十一樓之１","E_COORD97":169607.26999999999,"N_COORD97":2545790.27,"ADDRESS":"北門路二段５７７巷１８號十一樓之１","OBJECTID":398350},"geometry":{"x":169607.26999999955,"y":2545790.2699999996}},{"attributes":{"ID":398375,"DIS_CODE":0,"TOWNNAME":"北區","LI":"光武里","LIN":"16鄰","STREET":"北門路","SECT":"二段","MAREA":" ","LANE":"５７７巷","ALLEY":" ","HOUSE_NO":"１８號十一樓之２","E_COORD97":169607.26999999999,"N_COORD97":2545790.27,"ADDRESS":"北門路二段５７７巷１８號十一樓之２","OBJECTID":398351},"geometry":{"x":169607.26999999955,"y":2545790.2699999996}},{"attributes":{"ID":398376,"DIS_CODE":0,"TOWNNAME":"北區","LI":"新勝里","LIN":"16鄰","STREET":"長榮路","SECT":"五段","MAREA":" ","LANE":"１９９巷","ALLEY":" ","HOUSE_NO":"１４號二樓之１","E_COORD97":169994.28,"N_COORD97":2545855.8199999998,"ADDRESS":"長榮路五段１９９巷１４號二樓之１","OBJECTID":398352},"geometry":{"x":169994.28000000026,"y":2545855.8200000003}},{"attributes":{"ID":398377,"DIS_CODE":0,"TOWNNAME":"北區","LI":"新勝里","LIN":"16鄰","STREET":"長榮路","SECT":"五段","MAREA":" ","LANE":"１９９巷","ALLEY":" ","HOUSE_NO":"１４號二樓之２","E_COORD97":169994.28,"N_COORD97":2545855.8199999998,"ADDRESS":"長榮路五段１９９巷１４號二樓之２","OBJECTID":398353},"geometry":{"x":169994.28000000026,"y":2545855.8200000003}},{"attributes":{"ID":398378,"DIS_CODE":0,"TOWNNAME":"北區","LI":"新勝里","LIN":"16鄰","STREET":"長榮路","SECT":"五段","MAREA":" ","LANE":"１９９巷","ALLEY":" ","HOUSE_NO":"１４號二樓之３","E_COORD97":169994.28,"N_COORD97":2545855.8199999998,"ADDRESS":"長榮路五段１９９巷１４號二樓之３","OBJECTID":398354},"geometry":{"x":169994.28000000026,"y":2545855.8200000003}},{"attributes":{"ID":398379,"DIS_CODE":0,"TOWNNAME":"北區","LI":"新勝里","LIN":"16鄰","STREET":"長榮路","SECT":"五段","MAREA":" ","LANE":"１９９巷","ALLEY":" ","HOUSE_NO":"１４號三樓之１","E_COORD97":169994.28,"N_COORD97":2545855.8199999998,"ADDRESS":"長榮路五段１９９巷１４號三樓之１","OBJECTID":398355},"geometry":{"x":169994.28000000026,"y":2545855.8200000003}},{"attributes":{"ID":398380,"DIS_CODE":0,"TOWNNAME":"北區","LI":"新勝里","LIN":"16鄰","STREET":"長榮路","SECT":"五段","MAREA":" ","LANE":"１９９巷","ALLEY":" ","HOUSE_NO":"１４號三樓之２","E_COORD97":169994.28,"N_COORD97":2545855.8199999998,"ADDRESS":"長榮路五段１９９巷１４號三樓之２","OBJECTID":398356},"geometry":{"x":169994.28000000026,"y":2545855.8200000003}},{"attributes":{"ID":398381,"DIS_CODE":0,"TOWNNAME":"北區","LI":"新勝里","LIN":"16鄰","STREET":"長榮路","SECT":"五段","MAREA":" ","LANE":"１９９巷","ALLEY":" ","HOUSE_NO":"１４號三樓之３","E_COORD97":169994.28,"N_COORD97":2545855.8199999998,"ADDRESS":"長榮路五段１９９巷１４號三樓之３","OBJECTID":398357},"geometry":{"x":169994.28000000026,"y":2545855.8200000003}},{"attributes":{"ID":398382,"DIS_CODE":0,"TOWNNAME":"北區","LI":"新勝里","LIN":"16鄰","STREET":"長榮路","SECT":"五段","MAREA":" ","LANE":"１９９巷","ALLEY":" ","HOUSE_NO":"１４號五樓之１","E_COORD97":169994.28,"N_COORD97":2545855.8199999998,"ADDRESS":"長榮路五段１９９巷１４號五樓之１","OBJECTID":398358},"geometry":{"x":169994.28000000026,"y":2545855.8200000003}},{"attributes":{"ID":398383,"DIS_CODE":0,"TOWNNAME":"北區","LI":"新勝里","LIN":"16鄰","STREET":"長榮路","SECT":"五段","MAREA":" ","LANE":"１９９巷","ALLEY":" ","HOUSE_NO":"１４號五樓之２","E_COORD97":169994.28,"N_COORD97":2545855.8199999998,"ADDRESS":"長榮路五段１９９巷１４號五樓之２","OBJECTID":398359},"geometry":{"x":169994.28000000026,"y":2545855.8200000003}},{"attributes":{"ID":398384,"DIS_CODE":0,"TOWNNAME":"北區","LI":"新勝里","LIN":"16鄰","STREET":"長榮路","SECT":"五段","MAREA":" ","LANE":"１９９巷","ALLEY":" ","HOUSE_NO":"１４號五樓之３","E_COORD97":169994.28,"N_COORD97":2545855.8199999998,"ADDRESS":"長榮路五段１９９巷１４號五樓之３","OBJECTID":398360},"geometry":{"x":169994.28000000026,"y":2545855.8200000003}},{"attributes":{"ID":398385,"DIS_CODE":0,"TOWNNAME":"北區","LI":"新勝里","LIN":"16鄰","STREET":"長榮路","SECT":"五段","MAREA":" ","LANE":"１９９巷","ALLEY":" ","HOUSE_NO":"１４號六樓之１","E_COORD97":169994.28,"N_COORD97":2545855.8199999998,"ADDRESS":"長榮路五段１９９巷１４號六樓之１","OBJECTID":398361},"geometry":{"x":169994.28000000026,"y":2545855.8200000003}},{"attributes":{"ID":398386,"DIS_CODE":0,"TOWNNAME":"北區","LI":"新勝里","LIN":"16鄰","STREET":"長榮路","SECT":"五段","MAREA":" ","LANE":"１９９巷","ALLEY":" ","HOUSE_NO":"１４號六樓之２","E_COORD97":169994.28,"N_COORD97":2545855.8199999998,"ADDRESS":"長榮路五段１９９巷１４號六樓之２","OBJECTID":398362},"geometry":{"x":169994.28000000026,"y":2545855.8200000003}},{"attributes":{"ID":398387,"DIS_CODE":0,"TOWNNAME":"北區","LI":"新勝里","LIN":"16鄰","STREET":"長榮路","SECT":"五段","MAREA":" ","LANE":"１９９巷","ALLEY":" ","HOUSE_NO":"１４號六樓之３","E_COORD97":169994.28,"N_COORD97":2545855.8199999998,"ADDRESS":"長榮路五段１９９巷１４號六樓之３","OBJECTID":398363},"geometry":{"x":169994.28000000026,"y":2545855.8200000003}},{"attributes":{"ID":398388,"DIS_CODE":0,"TOWNNAME":"北區","LI":"新勝里","LIN":"16鄰","STREET":"長榮路","SECT":"五段","MAREA":" ","LANE":"１９９巷","ALLEY":" ","HOUSE_NO":"１４號四樓之１","E_COORD97":169994.28,"N_COORD97":2545855.8199999998,"ADDRESS":"長榮路五段１９９巷１４號四樓之１","OBJECTID":398364},"geometry":{"x":169994.28000000026,"y":2545855.8200000003}},{"attributes":{"ID":398389,"DIS_CODE":0,"TOWNNAME":"北區","LI":"新勝里","LIN":"16鄰","STREET":"長榮路","SECT":"五段","MAREA":" ","LANE":"１９９巷","ALLEY":" ","HOUSE_NO":"１４號四樓之２","E_COORD97":169994.28,"N_COORD97":2545855.8199999998,"ADDRESS":"長榮路五段１９９巷１４號四樓之２","OBJECTID":398365},"geometry":{"x":169994.28000000026,"y":2545855.8200000003}},{"attributes":{"ID":398390,"DIS_CODE":0,"TOWNNAME":"北區","LI":"新勝里","LIN":"16鄰","STREET":"長榮路","SECT":"五段","MAREA":" ","LANE":"１９９巷","ALLEY":" ","HOUSE_NO":"１４號四樓之３","E_COORD97":169994.28,"N_COORD97":2545855.8199999998,"ADDRESS":"長榮路五段１９９巷１４號四樓之３","OBJECTID":398366},"geometry":{"x":169994.28000000026,"y":2545855.8200000003}},{"attributes":{"ID":398391,"DIS_CODE":0,"TOWNNAME":"新營區","LI":"新南里","LIN":"16鄰","STREET":"隋唐街","SECT":" ","MAREA":" ","LANE":"３１巷","ALLEY":" ","HOUSE_NO":"５５號八樓之３","E_COORD97":178689.01000000001,"N_COORD97":2578323.2200000002,"ADDRESS":"隋唐街３１巷５５號八樓之３","OBJECTID":398367},"geometry":{"x":178689.00999999978,"y":2578323.2200000007}},{"attributes":{"ID":398392,"DIS_CODE":0,"TOWNNAME":"新營區","LI":"新南里","LIN":"16鄰","STREET":"隋唐街","SECT":" ","MAREA":" ","LANE":"３１巷","ALLEY":" ","HOUSE_NO":"５５號六樓之４","E_COORD97":178688.94,"N_COORD97":2578323.2200000002,"ADDRESS":"隋唐街３１巷５５號六樓之４","OBJECTID":398368},"geometry":{"x":178688.94000000134,"y":2578323.2200000007}},{"attributes":{"ID":398393,"DIS_CODE":0,"TOWNNAME":"新營區","LI":"新南里","LIN":"16鄰","STREET":"隋唐街","SECT":" ","MAREA":" ","LANE":"３１巷","ALLEY":" ","HOUSE_NO":"５５號四樓之２","E_COORD97":178689.04999999999,"N_COORD97":2578323.2200000002,"ADDRESS":"隋唐街３１巷５５號四樓之２","OBJECTID":398369},"geometry":{"x":178689.05000000168,"y":2578323.2200000007}},{"attributes":{"ID":398394,"DIS_CODE":0,"TOWNNAME":"新營區","LI":"新南里","LIN":"16鄰","STREET":"隋唐街","SECT":" ","MAREA":" ","LANE":"３１巷","ALLEY":" ","HOUSE_NO":"５７號二樓之２","E_COORD97":178689.04999999999,"N_COORD97":2578323.2200000002,"ADDRESS":"隋唐街３１巷５７號二樓之２","OBJECTID":398370},"geometry":{"x":178689.05000000168,"y":2578323.2200000007}},{"attributes":{"ID":398395,"DIS_CODE":0,"TOWNNAME":"新營區","LI":"新南里","LIN":"16鄰","STREET":"隋唐街","SECT":" ","MAREA":" ","LANE":"３１巷","ALLEY":" ","HOUSE_NO":"６１號八樓","E_COORD97":178686.76999999999,"N_COORD97":2578323.1800000002,"ADDRESS":"隋唐街３１巷６１號八樓","OBJECTID":398371},"geometry":{"x":178686.76999999955,"y":2578323.1800000034}},{"attributes":{"ID":398396,"DIS_CODE":0,"TOWNNAME":"新營區","LI":"新南里","LIN":"16鄰","STREET":"隋唐街","SECT":" ","MAREA":" ","LANE":"３１巷","ALLEY":" ","HOUSE_NO":"５５號三樓之４","E_COORD97":178688.94,"N_COORD97":2578323.2200000002,"ADDRESS":"隋唐街３１巷５５號三樓之４","OBJECTID":398372},"geometry":{"x":178688.94000000134,"y":2578323.2200000007}},{"attributes":{"ID":398397,"DIS_CODE":0,"TOWNNAME":"新營區","LI":"新南里","LIN":"16鄰","STREET":"隋唐街","SECT":" ","MAREA":" ","LANE":"３１巷","ALLEY":" ","HOUSE_NO":"５５號八樓之４","E_COORD97":178688.94,"N_COORD97":2578323.2200000002,"ADDRESS":"隋唐街３１巷５５號八樓之４","OBJECTID":398373},"geometry":{"x":178688.94000000134,"y":2578323.2200000007}},{"attributes":{"ID":398398,"DIS_CODE":0,"TOWNNAME":"新營區","LI":"新南里","LIN":"16鄰","STREET":"隋唐街","SECT":" ","MAREA":" ","LANE":"３１巷","ALLEY":" ","HOUSE_NO":"６１號十樓","E_COORD97":178686.76999999999,"N_COORD97":2578323.1800000002,"ADDRESS":"隋唐街３１巷６１號十樓","OBJECTID":398374},"geometry":{"x":178686.76999999955,"y":2578323.1800000034}},{"attributes":{"ID":398399,"DIS_CODE":0,"TOWNNAME":"北區","LI":"實踐里","LIN":"16鄰","STREET":"長榮路","SECT":"五段","MAREA":" ","LANE":"４０６巷","ALLEY":" ","HOUSE_NO":"２０號二樓之１","E_COORD97":169503.97,"N_COORD97":2546021.5699999998,"ADDRESS":"長榮路五段４０６巷２０號二樓之１","OBJECTID":398375},"geometry":{"x":169503.97000000067,"y":2546021.5700000022}},{"attributes":{"ID":398400,"DIS_CODE":0,"TOWNNAME":"北區","LI":"實踐里","LIN":"16鄰","STREET":"長榮路","SECT":"五段","MAREA":" ","LANE":"４０６巷","ALLEY":" ","HOUSE_NO":"２０號二樓之２","E_COORD97":169503.97,"N_COORD97":2546021.5699999998,"ADDRESS":"長榮路五段４０６巷２０號二樓之２","OBJECTID":398376},"geometry":{"x":169503.97000000067,"y":2546021.5700000022}},{"attributes":{"ID":398401,"DIS_CODE":0,"TOWNNAME":"北區","LI":"實踐里","LIN":"16鄰","STREET":"長榮路","SECT":"五段","MAREA":" ","LANE":"４０６巷","ALLEY":" ","HOUSE_NO":"２０號二樓之３","E_COORD97":169503.97,"N_COORD97":2546021.5699999998,"ADDRESS":"長榮路五段４０６巷２０號二樓之３","OBJECTID":398377},"geometry":{"x":169503.97000000067,"y":2546021.5700000022}},{"attributes":{"ID":398402,"DIS_CODE":0,"TOWNNAME":"北區","LI":"實踐里","LIN":"16鄰","STREET":"長榮路","SECT":"五段","MAREA":" ","LANE":"４０６巷","ALLEY":" ","HOUSE_NO":"２０號三樓之１","E_COORD97":169503.97,"N_COORD97":2546021.5699999998,"ADDRESS":"長榮路五段４０６巷２０號三樓之１","OBJECTID":398378},"geometry":{"x":169503.97000000067,"y":2546021.5700000022}},{"attributes":{"ID":398403,"DIS_CODE":0,"TOWNNAME":"北區","LI":"實踐里","LIN":"16鄰","STREET":"長榮路","SECT":"五段","MAREA":" ","LANE":"４０６巷","ALLEY":" ","HOUSE_NO":"２０號三樓之２","E_COORD97":169503.97,"N_COORD97":2546021.5699999998,"ADDRESS":"長榮路五段４０６巷２０號三樓之２","OBJECTID":398379},"geometry":{"x":169503.97000000067,"y":2546021.5700000022}},{"attributes":{"ID":398404,"DIS_CODE":0,"TOWNNAME":"北區","LI":"實踐里","LIN":"16鄰","STREET":"長榮路","SECT":"五段","MAREA":" ","LANE":"４０６巷","ALLEY":" ","HOUSE_NO":"２０號三樓之３","E_COORD97":169503.97,"N_COORD97":2546021.5699999998,"ADDRESS":"長榮路五段４０６巷２０號三樓之３","OBJECTID":398380},"geometry":{"x":169503.97000000067,"y":2546021.5700000022}},{"attributes":{"ID":398405,"DIS_CODE":0,"TOWNNAME":"北區","LI":"實踐里","LIN":"16鄰","STREET":"長榮路","SECT":"五段","MAREA":" ","LANE":"４０６巷","ALLEY":" ","HOUSE_NO":"２０號五樓之１","E_COORD97":169503.97,"N_COORD97":2546021.5699999998,"ADDRESS":"長榮路五段４０６巷２０號五樓之１","OBJECTID":398381},"geometry":{"x":169503.97000000067,"y":2546021.5700000022}},{"attributes":{"ID":398406,"DIS_CODE":0,"TOWNNAME":"北區","LI":"實踐里","LIN":"16鄰","STREET":"長榮路","SECT":"五段","MAREA":" ","LANE":"４０６巷","ALLEY":" ","HOUSE_NO":"２０號五樓之２","E_COORD97":169503.97,"N_COORD97":2546021.5699999998,"ADDRESS":"長榮路五段４０６巷２０號五樓之２","OBJECTID":398382},"geometry":{"x":169503.97000000067,"y":2546021.5700000022}},{"attributes":{"ID":398407,"DIS_CODE":0,"TOWNNAME":"北區","LI":"實踐里","LIN":"16鄰","STREET":"長榮路","SECT":"五段","MAREA":" ","LANE":"４０６巷","ALLEY":" ","HOUSE_NO":"２０號五樓之３","E_COORD97":169503.97,"N_COORD97":2546021.5699999998,"ADDRESS":"長榮路五段４０６巷２０號五樓之３","OBJECTID":398383},"geometry":{"x":169503.97000000067,"y":2546021.5700000022}},{"attributes":{"ID":398408,"DIS_CODE":0,"TOWNNAME":"北區","LI":"實踐里","LIN":"16鄰","STREET":"長榮路","SECT":"五段","MAREA":" ","LANE":"４０６巷","ALLEY":" ","HOUSE_NO":"２０號四樓之１","E_COORD97":169503.97,"N_COORD97":2546021.5699999998,"ADDRESS":"長榮路五段４０６巷２０號四樓之１","OBJECTID":398384},"geometry":{"x":169503.97000000067,"y":2546021.5700000022}},{"attributes":{"ID":398409,"DIS_CODE":0,"TOWNNAME":"北區","LI":"實踐里","LIN":"16鄰","STREET":"長榮路","SECT":"五段","MAREA":" ","LANE":"４０６巷","ALLEY":" ","HOUSE_NO":"２０號四樓之２","E_COORD97":169503.97,"N_COORD97":2546021.5699999998,"ADDRESS":"長榮路五段４０６巷２０號四樓之２","OBJECTID":398385},"geometry":{"x":169503.97000000067,"y":2546021.5700000022}},{"attributes":{"ID":398410,"DIS_CODE":0,"TOWNNAME":"北區","LI":"實踐里","LIN":"16鄰","STREET":"長榮路","SECT":"五段","MAREA":" ","LANE":"４０６巷","ALLEY":" ","HOUSE_NO":"２０號四樓之３","E_COORD97":169503.97,"N_COORD97":2546021.5699999998,"ADDRESS":"長榮路五段４０６巷２０號四樓之３","OBJECTID":398386},"geometry":{"x":169503.97000000067,"y":2546021.5700000022}},{"attributes":{"ID":398411,"DIS_CODE":0,"TOWNNAME":"善化區","LI":"坐駕里","LIN":"17鄰","STREET":"興華路","SECT":" ","MAREA":" ","LANE":"２７７巷","ALLEY":" ","HOUSE_NO":"２號","E_COORD97":177845.67000000001,"N_COORD97":2558486.75,"ADDRESS":"興華路２７７巷２號","OBJECTID":398387},"geometry":{"x":177845.66999999993,"y":2558486.7500000019}},{"attributes":{"ID":398412,"DIS_CODE":0,"TOWNNAME":"北區","LI":"長榮里","LIN":"16鄰","STREET":"長榮路","SECT":"五段","MAREA":" ","LANE":"４１巷","ALLEY":" ","HOUSE_NO":"６２號二樓之１","E_COORD97":169898.56,"N_COORD97":2545584.5699999998,"ADDRESS":"長榮路五段４１巷６２號二樓之１","OBJECTID":398388},"geometry":{"x":169898.55999999959,"y":2545584.5700000022}},{"attributes":{"ID":398413,"DIS_CODE":0,"TOWNNAME":"北區","LI":"長榮里","LIN":"16鄰","STREET":"長榮路","SECT":"五段","MAREA":" ","LANE":"４１巷","ALLEY":" ","HOUSE_NO":"６２號二樓之２","E_COORD97":169898.56,"N_COORD97":2545584.5699999998,"ADDRESS":"長榮路五段４１巷６２號二樓之２","OBJECTID":398389},"geometry":{"x":169898.55999999959,"y":2545584.5700000022}},{"attributes":{"ID":398414,"DIS_CODE":0,"TOWNNAME":"北區","LI":"長榮里","LIN":"16鄰","STREET":"長榮路","SECT":"五段","MAREA":" ","LANE":"４１巷","ALLEY":" ","HOUSE_NO":"６２號三樓之１","E_COORD97":169898.56,"N_COORD97":2545584.5699999998,"ADDRESS":"長榮路五段４１巷６２號三樓之１","OBJECTID":398390},"geometry":{"x":169898.55999999959,"y":2545584.5700000022}},{"attributes":{"ID":398415,"DIS_CODE":0,"TOWNNAME":"北區","LI":"長榮里","LIN":"16鄰","STREET":"長榮路","SECT":"五段","MAREA":" ","LANE":"４１巷","ALLEY":" ","HOUSE_NO":"６２號三樓之２","E_COORD97":169898.56,"N_COORD97":2545584.5699999998,"ADDRESS":"長榮路五段４１巷６２號三樓之２","OBJECTID":398391},"geometry":{"x":169898.55999999959,"y":2545584.5700000022}},{"attributes":{"ID":398416,"DIS_CODE":0,"TOWNNAME":"北區","LI":"長榮里","LIN":"16鄰","STREET":"長榮路","SECT":"五段","MAREA":" ","LANE":"４１巷","ALLEY":" ","HOUSE_NO":"６２號四樓之１","E_COORD97":169898.56,"N_COORD97":2545584.5699999998,"ADDRESS":"長榮路五段４１巷６２號四樓之１","OBJECTID":398392},"geometry":{"x":169898.55999999959,"y":2545584.5700000022}},{"attributes":{"ID":398417,"DIS_CODE":0,"TOWNNAME":"北區","LI":"長榮里","LIN":"16鄰","STREET":"長榮路","SECT":"五段","MAREA":" ","LANE":"４１巷","ALLEY":" ","HOUSE_NO":"６２號四樓之２","E_COORD97":169898.56,"N_COORD97":2545584.5699999998,"ADDRESS":"長榮路五段４１巷６２號四樓之２","OBJECTID":398393},"geometry":{"x":169898.55999999959,"y":2545584.5700000022}},{"attributes":{"ID":398418,"DIS_CODE":0,"TOWNNAME":"北區","LI":"長榮里","LIN":"16鄰","STREET":"長榮路","SECT":"五段","MAREA":" ","LANE":"４１巷","ALLEY":" ","HOUSE_NO":"６２號四樓之３","E_COORD97":169898.56,"N_COORD97":2545584.5699999998,"ADDRESS":"長榮路五段４１巷６２號四樓之３","OBJECTID":398394},"geometry":{"x":169898.55999999959,"y":2545584.5700000022}},{"attributes":{"ID":398419,"DIS_CODE":0,"TOWNNAME":"北區","LI":"長榮里","LIN":"16鄰","STREET":"長榮路","SECT":"五段","MAREA":" ","LANE":"４１巷","ALLEY":" ","HOUSE_NO":"６２號四樓之５","E_COORD97":169898.56,"N_COORD97":2545584.5699999998,"ADDRESS":"長榮路五段４１巷６２號四樓之５","OBJECTID":398395},"geometry":{"x":169898.55999999959,"y":2545584.5700000022}},{"attributes":{"ID":398420,"DIS_CODE":0,"TOWNNAME":"北區","LI":"長榮里","LIN":"16鄰","STREET":"長榮路","SECT":"五段","MAREA":" ","LANE":"４１巷","ALLEY":" ","HOUSE_NO":"６２號五樓之１","E_COORD97":169898.56,"N_COORD97":2545584.5699999998,"ADDRESS":"長榮路五段４１巷６２號五樓之１","OBJECTID":398396},"geometry":{"x":169898.55999999959,"y":2545584.5700000022}},{"attributes":{"ID":398421,"DIS_CODE":0,"TOWNNAME":"北區","LI":"長榮里","LIN":"16鄰","STREET":"長榮路","SECT":"五段","MAREA":" ","LANE":"４１巷","ALLEY":" ","HOUSE_NO":"６２號五樓之２","E_COORD97":169898.56,"N_COORD97":2545584.5699999998,"ADDRESS":"長榮路五段４１巷６２號五樓之２","OBJECTID":398397},"geometry":{"x":169898.55999999959,"y":2545584.5700000022}},{"attributes":{"ID":398422,"DIS_CODE":0,"TOWNNAME":"北區","LI":"長榮里","LIN":"16鄰","STREET":"長榮路","SECT":"五段","MAREA":" ","LANE":"４１巷","ALLEY":" ","HOUSE_NO":"６２號五樓之３","E_COORD97":169898.56,"N_COORD97":2545584.5699999998,"ADDRESS":"長榮路五段４１巷６２號五樓之３","OBJECTID":398398},"geometry":{"x":169898.55999999959,"y":2545584.5700000022}},{"attributes":{"ID":398423,"DIS_CODE":0,"TOWNNAME":"北區","LI":"長榮里","LIN":"16鄰","STREET":"長榮路","SECT":"五段","MAREA":" ","LANE":"４１巷","ALLEY":" ","HOUSE_NO":"６２號五樓之５","E_COORD97":169898.56,"N_COORD97":2545584.5699999998,"ADDRESS":"長榮路五段４１巷６２號五樓之５","OBJECTID":398399},"geometry":{"x":169898.55999999959,"y":2545584.5700000022}},{"attributes":{"ID":398424,"DIS_CODE":0,"TOWNNAME":"北區","LI":"長榮里","LIN":"16鄰","STREET":"長榮路","SECT":"五段","MAREA":" ","LANE":"４１巷","ALLEY":" ","HOUSE_NO":"６２號六樓之１","E_COORD97":169898.56,"N_COORD97":2545584.5699999998,"ADDRESS":"長榮路五段４１巷６２號六樓之１","OBJECTID":398400},"geometry":{"x":169898.55999999959,"y":2545584.5700000022}}]}