{"displayFieldName":"TOWNNAME","fieldAliases":{"ID":"ID","DIS_CODE":"DIS_CODE","TOWNNAME":"TOWNNAME","LI":"LI","LIN":"LIN","STREET":"STREET","SECT":"SECT","MAREA":"MAREA","LANE":"LANE","ALLEY":"ALLEY","HOUSE_NO":"HOUSE_NO","E_COORD97":"E_COORD97","N_COORD97":"N_COORD97","ADDRESS":"ADDRESS","OBJECTID":"OBJECTID"},"geometryType":"esriGeometryPoint","spatialReference":{"wkid":102443,"latestWkid":3826},"fields":[{"name":"ID","type":"esriFieldTypeDouble","alias":"ID"},{"name":"DIS_CODE","type":"esriFieldTypeInteger","alias":"DIS_CODE"},{"name":"TOWNNAME","type":"esriFieldTypeString","alias":"TOWNNAME","length":8},{"name":"LI","type":"esriFieldTypeString","alias":"LI","length":8},{"name":"LIN","type":"esriFieldTypeString","alias":"LIN","length":12},{"name":"STREET","type":"esriFieldTypeString","alias":"STREET","length":20},{"name":"SECT","type":"esriFieldTypeString","alias":"SECT","length":8},{"name":"MAREA","type":"esriFieldTypeString","alias":"MAREA","length":12},{"name":"LANE","type":"esriFieldTypeString","alias":"LANE","length":10},{"name":"ALLEY","type":"esriFieldTypeString","alias":"ALLEY","length":10},{"name":"HOUSE_NO","type":"esriFieldTypeString","alias":"HOUSE_NO","length":20},{"name":"E_COORD97","type":"esriFieldTypeDouble","alias":"E_COORD97"},{"name":"N_COORD97","type":"esriFieldTypeDouble","alias":"N_COORD97"},{"name":"ADDRESS","type":"esriFieldTypeString","alias":"ADDRESS","length":50},{"name":"OBJECTID","type":"esriFieldTypeOID","alias":"OBJECTID"}],"features":[{"attributes":{"ID":450826,"DIS_CODE":0,"TOWNNAME":"中西區","LI":"福安里","LIN":"18鄰","STREET":"中正路","SECT":" ","MAREA":" ","LANE":"１３１巷","ALLEY":" ","HOUSE_NO":"１５號","E_COORD97":167939.14999999999,"N_COORD97":2543615.52,"ADDRESS":"中正路１３１巷１５號","OBJECTID":450801},"geometry":{"x":167939.15000000037,"y":2543615.5199999996}},{"attributes":{"ID":450827,"DIS_CODE":0,"TOWNNAME":"中西區","LI":"福安里","LIN":"18鄰","STREET":"中正路","SECT":" ","MAREA":" ","LANE":"１３１巷","ALLEY":" ","HOUSE_NO":"１５號之１","E_COORD97":167929.85000000001,"N_COORD97":2543616.71,"ADDRESS":"中正路１３１巷１５號之１","OBJECTID":450802},"geometry":{"x":167929.85000000056,"y":2543616.709999999}},{"attributes":{"ID":450828,"DIS_CODE":0,"TOWNNAME":"中西區","LI":"福安里","LIN":"18鄰","STREET":"中正路","SECT":" ","MAREA":" ","LANE":"１３１巷","ALLEY":" ","HOUSE_NO":"１７號","E_COORD97":167928.78,"N_COORD97":2543612.2000000002,"ADDRESS":"中正路１３１巷１７號","OBJECTID":450803},"geometry":{"x":167928.78000000119,"y":2543612.2000000011}},{"attributes":{"ID":450829,"DIS_CODE":0,"TOWNNAME":"中西區","LI":"福安里","LIN":"18鄰","STREET":"中正路","SECT":" ","MAREA":" ","LANE":"１３１巷","ALLEY":" ","HOUSE_NO":"２１號","E_COORD97":167926.92000000001,"N_COORD97":2543604.5,"ADDRESS":"中正路１３１巷２１號","OBJECTID":450804},"geometry":{"x":167926.91999999993,"y":2543604.5000000019}},{"attributes":{"ID":450830,"DIS_CODE":0,"TOWNNAME":"中西區","LI":"福安里","LIN":"18鄰","STREET":"中正路","SECT":" ","MAREA":" ","LANE":"１３１巷","ALLEY":" ","HOUSE_NO":"２３號","E_COORD97":167924.66,"N_COORD97":2543595.46,"ADDRESS":"中正路１３１巷２３號","OBJECTID":450805},"geometry":{"x":167924.66000000108,"y":2543595.4600000028}},{"attributes":{"ID":450831,"DIS_CODE":0,"TOWNNAME":"中西區","LI":"福安里","LIN":"18鄰","STREET":"中正路","SECT":" ","MAREA":" ","LANE":"１３１巷","ALLEY":" ","HOUSE_NO":"２３號之１","E_COORD97":167925.98999999999,"N_COORD97":2543600.1099999999,"ADDRESS":"中正路１３１巷２３號之１","OBJECTID":450806},"geometry":{"x":167925.99000000115,"y":2543600.1100000013}},{"attributes":{"ID":450832,"DIS_CODE":0,"TOWNNAME":"中西區","LI":"福安里","LIN":"18鄰","STREET":"中正路","SECT":" ","MAREA":" ","LANE":"１３１巷","ALLEY":" ","HOUSE_NO":"２５號","E_COORD97":167923.73000000001,"N_COORD97":2543592.54,"ADDRESS":"中正路１３１巷２５號","OBJECTID":450807},"geometry":{"x":167923.73000000045,"y":2543592.5400000028}},{"attributes":{"ID":450833,"DIS_CODE":0,"TOWNNAME":"中西區","LI":"福安里","LIN":"18鄰","STREET":"永福路","SECT":"二段","MAREA":" ","LANE":"６３巷","ALLEY":" ","HOUSE_NO":"３１號","E_COORD97":167946.85999999999,"N_COORD97":2543600.7799999998,"ADDRESS":"永福路二段６３巷３１號","OBJECTID":450808},"geometry":{"x":167946.8600000022,"y":2543600.7799999993}},{"attributes":{"ID":450834,"DIS_CODE":0,"TOWNNAME":"中西區","LI":"福安里","LIN":"18鄰","STREET":"永福路","SECT":"二段","MAREA":" ","LANE":"６３巷","ALLEY":" ","HOUSE_NO":"３３號","E_COORD97":167947.26000000001,"N_COORD97":2543613.9300000002,"ADDRESS":"永福路二段６３巷３３號","OBJECTID":450809},"geometry":{"x":167947.26000000071,"y":2543613.9299999978}},{"attributes":{"ID":450835,"DIS_CODE":0,"TOWNNAME":"東區","LI":"東安里","LIN":"18鄰","STREET":"衛國街","SECT":" ","MAREA":" ","LANE":"２５巷","ALLEY":" ","HOUSE_NO":"１３號","E_COORD97":170186.38,"N_COORD97":2543026.9500000002,"ADDRESS":"衛國街２５巷１３號","OBJECTID":450810},"geometry":{"x":170186.37999999989,"y":2543026.950000003}},{"attributes":{"ID":450836,"DIS_CODE":0,"TOWNNAME":"東區","LI":"東安里","LIN":"18鄰","STREET":"衛國街","SECT":" ","MAREA":" ","LANE":"２５巷","ALLEY":" ","HOUSE_NO":"１１號","E_COORD97":170191.64999999999,"N_COORD97":2543026.5899999999,"ADDRESS":"衛國街２５巷１１號","OBJECTID":450811},"geometry":{"x":170191.6500000013,"y":2543026.5900000036}},{"attributes":{"ID":450837,"DIS_CODE":0,"TOWNNAME":"東區","LI":"東安里","LIN":"18鄰","STREET":"衛國街","SECT":" ","MAREA":" ","LANE":"２５巷","ALLEY":" ","HOUSE_NO":"１４號","E_COORD97":170188.47,"N_COORD97":2543036.75,"ADDRESS":"衛國街２５巷１４號","OBJECTID":450812},"geometry":{"x":170188.47000000067,"y":2543036.7500000019}},{"attributes":{"ID":450838,"DIS_CODE":0,"TOWNNAME":"東區","LI":"東安里","LIN":"18鄰","STREET":"衛國街","SECT":" ","MAREA":" ","LANE":"２５巷","ALLEY":" ","HOUSE_NO":"１６號","E_COORD97":170183.66,"N_COORD97":2543037.6499999999,"ADDRESS":"衛國街２５巷１６號","OBJECTID":450813},"geometry":{"x":170183.66000000015,"y":2543037.6500000022}},{"attributes":{"ID":450839,"DIS_CODE":0,"TOWNNAME":"東區","LI":"大德里","LIN":"18鄰","STREET":"立德十一路","SECT":" ","MAREA":" ","LANE":"５５巷","ALLEY":" ","HOUSE_NO":"４８號","E_COORD97":169496.17999999999,"N_COORD97":2542197.1899999999,"ADDRESS":"立德十一路５５巷４８號","OBJECTID":450814},"geometry":{"x":169496.1799999997,"y":2542197.1899999995}},{"attributes":{"ID":450840,"DIS_CODE":0,"TOWNNAME":"東區","LI":"大德里","LIN":"18鄰","STREET":"立德十一路","SECT":" ","MAREA":" ","LANE":"５５巷","ALLEY":" ","HOUSE_NO":"５０號","E_COORD97":169496.39000000001,"N_COORD97":2542201.4900000002,"ADDRESS":"立德十一路５５巷５０號","OBJECTID":450815},"geometry":{"x":169496.38999999966,"y":2542201.4900000021}},{"attributes":{"ID":450841,"DIS_CODE":0,"TOWNNAME":"東區","LI":"大德里","LIN":"18鄰","STREET":"立德十一路","SECT":" ","MAREA":" ","LANE":"５５巷","ALLEY":" ","HOUSE_NO":"５２號","E_COORD97":169495.76999999999,"N_COORD97":2542206.4100000001,"ADDRESS":"立德十一路５５巷５２號","OBJECTID":450816},"geometry":{"x":169495.76999999955,"y":2542206.4100000001}},{"attributes":{"ID":450842,"DIS_CODE":0,"TOWNNAME":"東區","LI":"大德里","LIN":"18鄰","STREET":"立德十一路","SECT":" ","MAREA":" ","LANE":"５５巷","ALLEY":" ","HOUSE_NO":"５４號","E_COORD97":169493.72,"N_COORD97":2542209.2599999998,"ADDRESS":"立德十一路５５巷５４號","OBJECTID":450817},"geometry":{"x":169493.72000000067,"y":2542209.2600000016}},{"attributes":{"ID":450843,"DIS_CODE":0,"TOWNNAME":"東區","LI":"大德里","LIN":"18鄰","STREET":"立德十一路","SECT":" ","MAREA":" ","LANE":"５５巷","ALLEY":" ","HOUSE_NO":"５６號","E_COORD97":169494.13,"N_COORD97":2542213.3700000001,"ADDRESS":"立德十一路５５巷５６號","OBJECTID":450818},"geometry":{"x":169494.13000000082,"y":2542213.3700000029}},{"attributes":{"ID":450844,"DIS_CODE":0,"TOWNNAME":"東區","LI":"大德里","LIN":"18鄰","STREET":"立德十一路","SECT":" ","MAREA":" ","LANE":"５５巷","ALLEY":" ","HOUSE_NO":"５８號","E_COORD97":169492.48999999999,"N_COORD97":2542216.4500000002,"ADDRESS":"立德十一路５５巷５８號","OBJECTID":450819},"geometry":{"x":169492.49000000115,"y":2542216.4499999993}},{"attributes":{"ID":450845,"DIS_CODE":0,"TOWNNAME":"東區","LI":"大德里","LIN":"18鄰","STREET":"立德十一路","SECT":" ","MAREA":" ","LANE":"５５巷","ALLEY":" ","HOUSE_NO":"６０號","E_COORD97":169492.07999999999,"N_COORD97":2542220.1299999999,"ADDRESS":"立德十一路５５巷６０號","OBJECTID":450820},"geometry":{"x":169492.08000000007,"y":2542220.1300000008}},{"attributes":{"ID":450846,"DIS_CODE":0,"TOWNNAME":"東區","LI":"中西里","LIN":"18鄰","STREET":"長榮路","SECT":"二段","MAREA":" ","LANE":"３２巷","ALLEY":" ","HOUSE_NO":"１２７號","E_COORD97":170092.57000000001,"N_COORD97":2543211.3100000001,"ADDRESS":"長榮路二段３２巷１２７號","OBJECTID":450821},"geometry":{"x":170092.5700000003,"y":2543211.3100000005}},{"attributes":{"ID":450847,"DIS_CODE":0,"TOWNNAME":"東區","LI":"中西里","LIN":"18鄰","STREET":"長榮路","SECT":"二段","MAREA":" ","LANE":"３２巷","ALLEY":" ","HOUSE_NO":"１３１號","E_COORD97":170100.82000000001,"N_COORD97":2543215.9900000002,"ADDRESS":"長榮路二段３２巷１３１號","OBJECTID":450822},"geometry":{"x":170100.8200000003,"y":2543215.9900000002}},{"attributes":{"ID":450848,"DIS_CODE":0,"TOWNNAME":"東區","LI":"中西里","LIN":"18鄰","STREET":"長榮路","SECT":"二段","MAREA":" ","LANE":"３２巷","ALLEY":" ","HOUSE_NO":"１３３號","E_COORD97":170104.04999999999,"N_COORD97":2543218.3399999999,"ADDRESS":"長榮路二段３２巷１３３號","OBJECTID":450823},"geometry":{"x":170104.04999999981,"y":2543218.3400000036}},{"attributes":{"ID":450849,"DIS_CODE":0,"TOWNNAME":"東區","LI":"中西里","LIN":"18鄰","STREET":"長榮路","SECT":"二段","MAREA":" ","LANE":"３２巷","ALLEY":" ","HOUSE_NO":"１３５號","E_COORD97":170108.75,"N_COORD97":2543220.4399999999,"ADDRESS":"長榮路二段３２巷１３５號","OBJECTID":450824},"geometry":{"x":170108.75000000093,"y":2543220.4399999976}},{"attributes":{"ID":450850,"DIS_CODE":0,"TOWNNAME":"東區","LI":"中西里","LIN":"18鄰","STREET":"長榮路","SECT":"二段","MAREA":" ","LANE":"３２巷","ALLEY":" ","HOUSE_NO":"１３７號","E_COORD97":170113.51999999999,"N_COORD97":2543222.2999999998,"ADDRESS":"長榮路二段３２巷１３７號","OBJECTID":450825},"geometry":{"x":170113.52000000048,"y":2543222.3000000007}},{"attributes":{"ID":450851,"DIS_CODE":0,"TOWNNAME":"東區","LI":"中西里","LIN":"18鄰","STREET":"長榮路","SECT":"二段","MAREA":" ","LANE":"３２巷","ALLEY":" ","HOUSE_NO":"１６３號","E_COORD97":170131.82999999999,"N_COORD97":2543242.0600000001,"ADDRESS":"長榮路二段３２巷１６３號","OBJECTID":450826},"geometry":{"x":170131.83000000194,"y":2543242.0600000024}},{"attributes":{"ID":450852,"DIS_CODE":0,"TOWNNAME":"中西區","LI":"仙草里","LIN":"18鄰","STREET":"五妃街","SECT":" ","MAREA":" ","LANE":"３０９巷","ALLEY":" ","HOUSE_NO":"２９號","E_COORD97":167916.26000000001,"N_COORD97":2542498.2799999998,"ADDRESS":"五妃街３０９巷２９號","OBJECTID":450827},"geometry":{"x":167916.25999999885,"y":2542498.2799999993}},{"attributes":{"ID":450853,"DIS_CODE":0,"TOWNNAME":"中西區","LI":"仙草里","LIN":"18鄰","STREET":"五妃街","SECT":" ","MAREA":" ","LANE":"３０９巷","ALLEY":" ","HOUSE_NO":"３１號","E_COORD97":167905.45999999999,"N_COORD97":2542499.46,"ADDRESS":"五妃街３０９巷３１號","OBJECTID":450828},"geometry":{"x":167905.46000000089,"y":2542499.4600000009}},{"attributes":{"ID":450854,"DIS_CODE":0,"TOWNNAME":"中西區","LI":"仙草里","LIN":"18鄰","STREET":"五妃街","SECT":" ","MAREA":" ","LANE":"３０９巷","ALLEY":" ","HOUSE_NO":"３３號","E_COORD97":167889.95000000001,"N_COORD97":2542491.75,"ADDRESS":"五妃街３０９巷３３號","OBJECTID":450829},"geometry":{"x":167889.94999999925,"y":2542491.7500000019}},{"attributes":{"ID":450855,"DIS_CODE":0,"TOWNNAME":"官田區","LI":"隆本里","LIN":"18鄰","STREET":"忠孝街","SECT":" ","MAREA":" ","LANE":"１３１巷","ALLEY":" ","HOUSE_NO":"１號","E_COORD97":179997.72,"N_COORD97":2566351.3799999999,"ADDRESS":"忠孝街１３１巷１號","OBJECTID":450830},"geometry":{"x":179997.71999999974,"y":2566351.379999999}},{"attributes":{"ID":450856,"DIS_CODE":0,"TOWNNAME":"官田區","LI":"隆本里","LIN":"18鄰","STREET":"忠孝街","SECT":" ","MAREA":" ","LANE":"１３１巷","ALLEY":" ","HOUSE_NO":"２號","E_COORD97":179989.59,"N_COORD97":2566361.8100000001,"ADDRESS":"忠孝街１３１巷２號","OBJECTID":450831},"geometry":{"x":179989.59000000078,"y":2566361.8100000042}},{"attributes":{"ID":450857,"DIS_CODE":0,"TOWNNAME":"官田區","LI":"隆本里","LIN":"18鄰","STREET":"忠孝街","SECT":" ","MAREA":" ","LANE":"１３１巷","ALLEY":" ","HOUSE_NO":"３號","E_COORD97":179991.34,"N_COORD97":2566349.79,"ADDRESS":"忠孝街１３１巷３號","OBJECTID":450832},"geometry":{"x":179991.34000000078,"y":2566349.7899999991}},{"attributes":{"ID":450858,"DIS_CODE":0,"TOWNNAME":"官田區","LI":"隆本里","LIN":"18鄰","STREET":"忠孝街","SECT":" ","MAREA":" ","LANE":"１３１巷","ALLEY":" ","HOUSE_NO":"５號","E_COORD97":179984.78,"N_COORD97":2566347.8399999999,"ADDRESS":"忠孝街１３１巷５號","OBJECTID":450833},"geometry":{"x":179984.78000000212,"y":2566347.8400000017}},{"attributes":{"ID":450859,"DIS_CODE":0,"TOWNNAME":"善化區","LI":"文昌里","LIN":"18鄰","STREET":"中正路","SECT":" ","MAREA":" ","LANE":"２６６巷","ALLEY":" ","HOUSE_NO":"１１號","E_COORD97":177753.34,"N_COORD97":2558420,"ADDRESS":"中正路２６６巷１１號","OBJECTID":450834},"geometry":{"x":177753.34000000078,"y":2558420.0000000037}},{"attributes":{"ID":450860,"DIS_CODE":0,"TOWNNAME":"善化區","LI":"文昌里","LIN":"18鄰","STREET":"中正路","SECT":" ","MAREA":" ","LANE":"２６６巷","ALLEY":" ","HOUSE_NO":"１２號","E_COORD97":177751.32999999999,"N_COORD97":2558408,"ADDRESS":"中正路２６６巷１２號","OBJECTID":450835},"geometry":{"x":177751.33000000007,"y":2558408}},{"attributes":{"ID":450861,"DIS_CODE":0,"TOWNNAME":"善化區","LI":"文昌里","LIN":"18鄰","STREET":"興華路","SECT":" ","MAREA":" ","LANE":"３１７巷","ALLEY":" ","HOUSE_NO":"１２號","E_COORD97":177744.98999999999,"N_COORD97":2558447,"ADDRESS":"興華路３１７巷１２號","OBJECTID":450836},"geometry":{"x":177744.99000000022,"y":2558447.0000000037}},{"attributes":{"ID":450862,"DIS_CODE":0,"TOWNNAME":"善化區","LI":"光文里","LIN":"18鄰","STREET":"和平路","SECT":" ","MAREA":" ","LANE":"１２６巷","ALLEY":" ","HOUSE_NO":"１號","E_COORD97":178145.28,"N_COORD97":2558942.75,"ADDRESS":"和平路１２６巷１號","OBJECTID":450837},"geometry":{"x":178145.28000000026,"y":2558942.75}},{"attributes":{"ID":450863,"DIS_CODE":0,"TOWNNAME":"善化區","LI":"文昌里","LIN":"18鄰","STREET":"中正路","SECT":" ","MAREA":" ","LANE":"２６６巷","ALLEY":" ","HOUSE_NO":"１５號","E_COORD97":177761.41,"N_COORD97":2558421.25,"ADDRESS":"中正路２６６巷１５號","OBJECTID":450838},"geometry":{"x":177761.41000000201,"y":2558421.2499999981}},{"attributes":{"ID":450864,"DIS_CODE":0,"TOWNNAME":"善化區","LI":"文昌里","LIN":"18鄰","STREET":"中正路","SECT":" ","MAREA":" ","LANE":"２６６巷","ALLEY":" ","HOUSE_NO":"３號","E_COORD97":177736.95000000001,"N_COORD97":2558417.75,"ADDRESS":"中正路２６６巷３號","OBJECTID":450839},"geometry":{"x":177736.95000000019,"y":2558417.75}},{"attributes":{"ID":450865,"DIS_CODE":0,"TOWNNAME":"善化區","LI":"文昌里","LIN":"18鄰","STREET":"中正路","SECT":" ","MAREA":" ","LANE":"２６６巷","ALLEY":" ","HOUSE_NO":"４號","E_COORD97":177734.98000000001,"N_COORD97":2558405.75,"ADDRESS":"中正路２６６巷４號","OBJECTID":450840},"geometry":{"x":177734.98000000045,"y":2558405.7500000019}},{"attributes":{"ID":450866,"DIS_CODE":0,"TOWNNAME":"善化區","LI":"文昌里","LIN":"18鄰","STREET":"中正路","SECT":" ","MAREA":" ","LANE":"２６６巷","ALLEY":" ","HOUSE_NO":"１６號","E_COORD97":177759.37,"N_COORD97":2558409,"ADDRESS":"中正路２６６巷１６號","OBJECTID":450841},"geometry":{"x":177759.37000000011,"y":2558409}},{"attributes":{"ID":450867,"DIS_CODE":0,"TOWNNAME":"善化區","LI":"文昌里","LIN":"18鄰","STREET":"興華路","SECT":" ","MAREA":" ","LANE":"３１７巷","ALLEY":" ","HOUSE_NO":"７號","E_COORD97":177756.32000000001,"N_COORD97":2558462,"ADDRESS":"興華路３１７巷７號","OBJECTID":450842},"geometry":{"x":177756.3200000003,"y":2558462.0000000019}},{"attributes":{"ID":450868,"DIS_CODE":0,"TOWNNAME":"善化區","LI":"光文里","LIN":"18鄰","STREET":"和平路","SECT":" ","MAREA":" ","LANE":"１２６巷","ALLEY":" ","HOUSE_NO":"１３號","E_COORD97":178192.48999999999,"N_COORD97":2558950,"ADDRESS":"和平路１２６巷１３號","OBJECTID":450843},"geometry":{"x":178192.49000000022,"y":2558950.0000000019}},{"attributes":{"ID":450869,"DIS_CODE":0,"TOWNNAME":"善化區","LI":"光文里","LIN":"18鄰","STREET":"和平路","SECT":" ","MAREA":" ","LANE":"１４６巷","ALLEY":" ","HOUSE_NO":"１３號","E_COORD97":178214.64999999999,"N_COORD97":2558972.5,"ADDRESS":"和平路１４６巷１３號","OBJECTID":450844},"geometry":{"x":178214.6500000013,"y":2558972.5000000037}},{"attributes":{"ID":450870,"DIS_CODE":0,"TOWNNAME":"善化區","LI":"光文里","LIN":"18鄰","STREET":"和平路","SECT":" ","MAREA":" ","LANE":"１４６巷","ALLEY":" ","HOUSE_NO":"１２號","E_COORD97":178211.10000000001,"N_COORD97":2558972,"ADDRESS":"和平路１４６巷１２號","OBJECTID":450845},"geometry":{"x":178211.10000000056,"y":2558972}},{"attributes":{"ID":450871,"DIS_CODE":0,"TOWNNAME":"善化區","LI":"光文里","LIN":"18鄰","STREET":"和平路","SECT":" ","MAREA":" ","LANE":"１４６巷","ALLEY":" ","HOUSE_NO":"１５號","E_COORD97":178222.10999999999,"N_COORD97":2558973.5,"ADDRESS":"和平路１４６巷１５號","OBJECTID":450846},"geometry":{"x":178222.11000000127,"y":2558973.5000000019}},{"attributes":{"ID":450872,"DIS_CODE":0,"TOWNNAME":"善化區","LI":"文昌里","LIN":"18鄰","STREET":"中正路","SECT":" ","MAREA":" ","LANE":"２６６巷","ALLEY":" ","HOUSE_NO":"１３號","E_COORD97":177757.48000000001,"N_COORD97":2558420.75,"ADDRESS":"中正路２６６巷１３號","OBJECTID":450847},"geometry":{"x":177757.48000000045,"y":2558420.75}},{"attributes":{"ID":450873,"DIS_CODE":0,"TOWNNAME":"東區","LI":"大學里","LIN":"18鄰","STREET":"長榮路","SECT":"三段","MAREA":" ","LANE":"５０巷","ALLEY":" ","HOUSE_NO":"１號","E_COORD97":170234.60999999999,"N_COORD97":2543755.1400000001,"ADDRESS":"長榮路三段５０巷１號","OBJECTID":450848},"geometry":{"x":170234.61000000034,"y":2543755.1400000006}},{"attributes":{"ID":450874,"DIS_CODE":0,"TOWNNAME":"東區","LI":"大學里","LIN":"18鄰","STREET":"長榮路","SECT":"三段","MAREA":" ","LANE":"５０巷","ALLEY":" ","HOUSE_NO":"２號","E_COORD97":170242.12,"N_COORD97":2543757.1600000001,"ADDRESS":"長榮路三段５０巷２號","OBJECTID":450849},"geometry":{"x":170242.12000000104,"y":2543757.160000002}},{"attributes":{"ID":450875,"DIS_CODE":0,"TOWNNAME":"東區","LI":"大學里","LIN":"18鄰","STREET":"長榮路","SECT":"三段","MAREA":" ","LANE":"５０巷","ALLEY":" ","HOUSE_NO":"３號","E_COORD97":170249.56,"N_COORD97":2543759.1000000001,"ADDRESS":"長榮路三段５０巷３號","OBJECTID":450850},"geometry":{"x":170249.55999999959,"y":2543759.1000000015}},{"attributes":{"ID":450876,"DIS_CODE":0,"TOWNNAME":"東區","LI":"大學里","LIN":"18鄰","STREET":"長榮路","SECT":"三段","MAREA":" ","LANE":"５０巷","ALLEY":" ","HOUSE_NO":"５號","E_COORD97":170258.19,"N_COORD97":2543768.4199999999,"ADDRESS":"長榮路三段５０巷５號","OBJECTID":450851},"geometry":{"x":170258.19000000041,"y":2543768.4200000018}},{"attributes":{"ID":450877,"DIS_CODE":0,"TOWNNAME":"東區","LI":"大學里","LIN":"18鄰","STREET":"長榮路","SECT":"三段","MAREA":" ","LANE":"５０巷","ALLEY":" ","HOUSE_NO":"６號","E_COORD97":170247.82999999999,"N_COORD97":2543766.4700000002,"ADDRESS":"長榮路三段５０巷６號","OBJECTID":450852},"geometry":{"x":170247.83000000101,"y":2543766.4700000007}},{"attributes":{"ID":450878,"DIS_CODE":0,"TOWNNAME":"東區","LI":"裕農里","LIN":"18鄰","STREET":"裕豐街","SECT":" ","MAREA":" ","LANE":"２１４巷","ALLEY":" ","HOUSE_NO":"７４號","E_COORD97":170860.34,"N_COORD97":2543164.5099999998,"ADDRESS":"裕豐街２１４巷７４號","OBJECTID":450853},"geometry":{"x":170860.33999999892,"y":2543164.5099999998}},{"attributes":{"ID":450879,"DIS_CODE":0,"TOWNNAME":"東區","LI":"富裕里","LIN":"18鄰","STREET":"裕豐街","SECT":" ","MAREA":" ","LANE":"８４巷","ALLEY":" ","HOUSE_NO":"１８號","E_COORD97":170830.89000000001,"N_COORD97":2542823.9399999999,"ADDRESS":"裕豐街８４巷１８號","OBJECTID":450854},"geometry":{"x":170830.88999999966,"y":2542823.9400000032}},{"attributes":{"ID":450880,"DIS_CODE":0,"TOWNNAME":"東區","LI":"富裕里","LIN":"18鄰","STREET":"裕豐街","SECT":" ","MAREA":" ","LANE":"８４巷","ALLEY":" ","HOUSE_NO":"２０號","E_COORD97":170835.37,"N_COORD97":2542824.2799999998,"ADDRESS":"裕豐街８４巷２０號","OBJECTID":450855},"geometry":{"x":170835.37000000104,"y":2542824.2799999993}},{"attributes":{"ID":450881,"DIS_CODE":0,"TOWNNAME":"東區","LI":"富裕里","LIN":"18鄰","STREET":"裕豐街","SECT":" ","MAREA":" ","LANE":"８４巷","ALLEY":" ","HOUSE_NO":"２２號","E_COORD97":170839.47,"N_COORD97":2542826.1600000001,"ADDRESS":"裕豐街８４巷２２號","OBJECTID":450856},"geometry":{"x":170839.47000000067,"y":2542826.1600000001}},{"attributes":{"ID":450882,"DIS_CODE":0,"TOWNNAME":"東區","LI":"富裕里","LIN":"18鄰","STREET":"裕豐街","SECT":" ","MAREA":" ","LANE":"８４巷","ALLEY":" ","HOUSE_NO":"２４號","E_COORD97":170842.91,"N_COORD97":2542825.9900000002,"ADDRESS":"裕豐街８４巷２４號","OBJECTID":450857},"geometry":{"x":170842.91000000015,"y":2542825.9900000021}},{"attributes":{"ID":450883,"DIS_CODE":0,"TOWNNAME":"東區","LI":"富裕里","LIN":"18鄰","STREET":"裕豐街","SECT":" ","MAREA":" ","LANE":"８４巷","ALLEY":" ","HOUSE_NO":"５３號","E_COORD97":170793.76999999999,"N_COORD97":2542850.6400000001,"ADDRESS":"裕豐街８４巷５３號","OBJECTID":450858},"geometry":{"x":170793.76999999955,"y":2542850.6399999987}},{"attributes":{"ID":450884,"DIS_CODE":0,"TOWNNAME":"東區","LI":"富裕里","LIN":"18鄰","STREET":"裕豐街","SECT":" ","MAREA":" ","LANE":"８４巷","ALLEY":" ","HOUSE_NO":"５５號","E_COORD97":170800.78,"N_COORD97":2542850.6400000001,"ADDRESS":"裕豐街８４巷５５號","OBJECTID":450859},"geometry":{"x":170800.78000000119,"y":2542850.6399999987}},{"attributes":{"ID":450885,"DIS_CODE":0,"TOWNNAME":"東區","LI":"富裕里","LIN":"18鄰","STREET":"裕豐街","SECT":" ","MAREA":" ","LANE":"８４巷","ALLEY":" ","HOUSE_NO":"５７號","E_COORD97":170807.57000000001,"N_COORD97":2542849.79,"ADDRESS":"裕豐街８４巷５７號","OBJECTID":450860},"geometry":{"x":170807.57000000123,"y":2542849.790000001}},{"attributes":{"ID":450886,"DIS_CODE":0,"TOWNNAME":"東區","LI":"富裕里","LIN":"18鄰","STREET":"裕豐街","SECT":" ","MAREA":" ","LANE":"８４巷","ALLEY":" ","HOUSE_NO":"５９號","E_COORD97":170813.62,"N_COORD97":2542849.8999999999,"ADDRESS":"裕豐街８４巷５９號","OBJECTID":450861},"geometry":{"x":170813.62000000104,"y":2542849.9000000022}},{"attributes":{"ID":450887,"DIS_CODE":0,"TOWNNAME":"東區","LI":"富裕里","LIN":"18鄰","STREET":"裕豐街","SECT":" ","MAREA":" ","LANE":"８４巷","ALLEY":" ","HOUSE_NO":"６１號","E_COORD97":170820.82000000001,"N_COORD97":2542850.1299999999,"ADDRESS":"裕豐街８４巷６１號","OBJECTID":450862},"geometry":{"x":170820.82000000123,"y":2542850.1300000008}},{"attributes":{"ID":450888,"DIS_CODE":0,"TOWNNAME":"東區","LI":"富裕里","LIN":"18鄰","STREET":"裕豐街","SECT":" ","MAREA":" ","LANE":"８４巷","ALLEY":" ","HOUSE_NO":"６３號","E_COORD97":170828.29000000001,"N_COORD97":2542849.1699999999,"ADDRESS":"裕豐街８４巷６３號","OBJECTID":450863},"geometry":{"x":170828.29000000004,"y":2542849.1699999999}},{"attributes":{"ID":450889,"DIS_CODE":0,"TOWNNAME":"東區","LI":"虎尾里","LIN":"18鄰","STREET":"富農街","SECT":"一段","MAREA":" ","LANE":"１３８巷","ALLEY":" ","HOUSE_NO":"１０號","E_COORD97":171540.26000000001,"N_COORD97":2542346.3399999999,"ADDRESS":"富農街一段１３８巷１０號","OBJECTID":450864},"geometry":{"x":171540.25999999978,"y":2542346.3399999999}},{"attributes":{"ID":450890,"DIS_CODE":0,"TOWNNAME":"東區","LI":"虎尾里","LIN":"18鄰","STREET":"富農街","SECT":"一段","MAREA":" ","LANE":"１３８巷","ALLEY":" ","HOUSE_NO":"１２號","E_COORD97":171544.45999999999,"N_COORD97":2542346.73,"ADDRESS":"富農街一段１３８巷１２號","OBJECTID":450865},"geometry":{"x":171544.45999999903,"y":2542346.7300000004}},{"attributes":{"ID":450891,"DIS_CODE":0,"TOWNNAME":"東區","LI":"虎尾里","LIN":"18鄰","STREET":"富農街","SECT":"一段","MAREA":" ","LANE":"１３８巷","ALLEY":" ","HOUSE_NO":"１４號","E_COORD97":171549.85999999999,"N_COORD97":2542347.1299999999,"ADDRESS":"富農街一段１３８巷１４號","OBJECTID":450866},"geometry":{"x":171549.86000000127,"y":2542347.129999999}},{"attributes":{"ID":450892,"DIS_CODE":0,"TOWNNAME":"東區","LI":"虎尾里","LIN":"18鄰","STREET":"富農街","SECT":"一段","MAREA":" ","LANE":"１３８巷","ALLEY":" ","HOUSE_NO":"１８號","E_COORD97":171559.67000000001,"N_COORD97":2542342.9399999999,"ADDRESS":"富農街一段１３８巷１８號","OBJECTID":450867},"geometry":{"x":171559.66999999993,"y":2542342.9400000013}},{"attributes":{"ID":450893,"DIS_CODE":0,"TOWNNAME":"東區","LI":"虎尾里","LIN":"18鄰","STREET":"富農街","SECT":"一段","MAREA":" ","LANE":"１３８巷","ALLEY":" ","HOUSE_NO":"２０號","E_COORD97":171566.67000000001,"N_COORD97":2542342.54,"ADDRESS":"富農街一段１３８巷２０號","OBJECTID":450868},"geometry":{"x":171566.66999999993,"y":2542342.540000001}},{"attributes":{"ID":450894,"DIS_CODE":0,"TOWNNAME":"東區","LI":"虎尾里","LIN":"18鄰","STREET":"富農街","SECT":"一段","MAREA":" ","LANE":"１３８巷","ALLEY":" ","HOUSE_NO":"２號","E_COORD97":171523.45999999999,"N_COORD97":2542344.9399999999,"ADDRESS":"富農街一段１３８巷２號","OBJECTID":450869},"geometry":{"x":171523.45999999996,"y":2542344.9399999995}},{"attributes":{"ID":450895,"DIS_CODE":0,"TOWNNAME":"東區","LI":"虎尾里","LIN":"18鄰","STREET":"富農街","SECT":"一段","MAREA":" ","LANE":"１３８巷","ALLEY":" ","HOUSE_NO":"３號","E_COORD97":171536.26000000001,"N_COORD97":2542365.8199999998,"ADDRESS":"富農街一段１３８巷３號","OBJECTID":450870},"geometry":{"x":171536.26000000071,"y":2542365.8200000022}},{"attributes":{"ID":450896,"DIS_CODE":0,"TOWNNAME":"東區","LI":"虎尾里","LIN":"18鄰","STREET":"富農街","SECT":"一段","MAREA":" ","LANE":"１３８巷","ALLEY":" ","HOUSE_NO":"４號","E_COORD97":171527.45999999999,"N_COORD97":2542344.9399999999,"ADDRESS":"富農街一段１３８巷４號","OBJECTID":450871},"geometry":{"x":171527.45999999996,"y":2542344.9399999995}},{"attributes":{"ID":450897,"DIS_CODE":0,"TOWNNAME":"東區","LI":"虎尾里","LIN":"18鄰","STREET":"富農街","SECT":"一段","MAREA":" ","LANE":"１３８巷","ALLEY":" ","HOUSE_NO":"５號","E_COORD97":171541.85999999999,"N_COORD97":2542366.2200000002,"ADDRESS":"富農街一段１３８巷５號","OBJECTID":450872},"geometry":{"x":171541.86000000034,"y":2542366.2200000025}},{"attributes":{"ID":450898,"DIS_CODE":0,"TOWNNAME":"東區","LI":"虎尾里","LIN":"18鄰","STREET":"富農街","SECT":"一段","MAREA":" ","LANE":"１３８巷","ALLEY":" ","HOUSE_NO":"６號","E_COORD97":171531.85999999999,"N_COORD97":2542345.1400000001,"ADDRESS":"富農街一段１３８巷６號","OBJECTID":450873},"geometry":{"x":171531.86000000034,"y":2542345.1400000006}},{"attributes":{"ID":450899,"DIS_CODE":0,"TOWNNAME":"東區","LI":"虎尾里","LIN":"18鄰","STREET":"富農街","SECT":"一段","MAREA":" ","LANE":"１３８巷","ALLEY":" ","HOUSE_NO":"７號","E_COORD97":171548.45999999999,"N_COORD97":2542367.02,"ADDRESS":"富農街一段１３８巷７號","OBJECTID":450874},"geometry":{"x":171548.46000000089,"y":2542367.0200000014}},{"attributes":{"ID":450900,"DIS_CODE":0,"TOWNNAME":"東區","LI":"虎尾里","LIN":"18鄰","STREET":"富農街","SECT":"一段","MAREA":" ","LANE":"１３８巷","ALLEY":" ","HOUSE_NO":"８號","E_COORD97":171535.45999999999,"N_COORD97":2542345.9399999999,"ADDRESS":"富農街一段１３８巷８號","OBJECTID":450875},"geometry":{"x":171535.45999999996,"y":2542345.9400000032}},{"attributes":{"ID":450901,"DIS_CODE":0,"TOWNNAME":"東區","LI":"虎尾里","LIN":"18鄰","STREET":"富農街","SECT":"一段","MAREA":" ","LANE":"１３８巷","ALLEY":" ","HOUSE_NO":"９號","E_COORD97":171554.47,"N_COORD97":2542367.2200000002,"ADDRESS":"富農街一段１３８巷９號","OBJECTID":450876},"geometry":{"x":171554.4700000016,"y":2542367.2200000025}},{"attributes":{"ID":450902,"DIS_CODE":0,"TOWNNAME":"永康區","LI":"西灣里","LIN":"18鄰","STREET":"大安街","SECT":" ","MAREA":" ","LANE":"２９３巷","ALLEY":" ","HOUSE_NO":"３９號","E_COORD97":174547.51999999999,"N_COORD97":2545563.3100000001,"ADDRESS":"大安街２９３巷３９號","OBJECTID":450877},"geometry":{"x":174547.51999999862,"y":2545563.3100000024}},{"attributes":{"ID":450903,"DIS_CODE":0,"TOWNNAME":"仁德區","LI":"仁義里","LIN":"18鄰","STREET":"正義三街","SECT":" ","MAREA":" ","LANE":"２８６巷","ALLEY":" ","HOUSE_NO":"５２號","E_COORD97":173986.64000000001,"N_COORD97":2541440.25,"ADDRESS":"正義三街２８６巷５２號","OBJECTID":450878},"geometry":{"x":173986.6400000006,"y":2541440.2500000019}},{"attributes":{"ID":450904,"DIS_CODE":0,"TOWNNAME":"仁德區","LI":"仁德里","LIN":"18鄰","STREET":"文華路","SECT":"三段","MAREA":" ","LANE":"１８９巷","ALLEY":" ","HOUSE_NO":"６８號","E_COORD97":172107.87,"N_COORD97":2540484.3100000001,"ADDRESS":"文華路三段１８９巷６８號","OBJECTID":450879},"geometry":{"x":172107.87000000011,"y":2540484.3100000024}},{"attributes":{"ID":450905,"DIS_CODE":0,"TOWNNAME":"安南區","LI":"安西里","LIN":"18鄰","STREET":"安通二街","SECT":" ","MAREA":" ","LANE":"９９巷","ALLEY":" ","HOUSE_NO":"１號","E_COORD97":168619,"N_COORD97":2547969.2200000002,"ADDRESS":"安通二街９９巷１號","OBJECTID":450880},"geometry":{"x":168619.00000000093,"y":2547969.2200000007}},{"attributes":{"ID":450906,"DIS_CODE":0,"TOWNNAME":"安南區","LI":"安西里","LIN":"18鄰","STREET":"安通二街","SECT":" ","MAREA":" ","LANE":"９９巷","ALLEY":" ","HOUSE_NO":"３號","E_COORD97":168610.09,"N_COORD97":2547964.3599999999,"ADDRESS":"安通二街９９巷３號","OBJECTID":450881},"geometry":{"x":168610.08999999985,"y":2547964.3600000031}},{"attributes":{"ID":450907,"DIS_CODE":0,"TOWNNAME":"東區","LI":"新東里","LIN":"18鄰","STREET":"裕豐街","SECT":" ","MAREA":" ","LANE":"１８５巷","ALLEY":" ","HOUSE_NO":"９號","E_COORD97":170751,"N_COORD97":2543189.8799999999,"ADDRESS":"裕豐街１８５巷９號","OBJECTID":450882},"geometry":{"x":170751.00000000186,"y":2543189.8800000027}},{"attributes":{"ID":450908,"DIS_CODE":0,"TOWNNAME":"安南區","LI":"安西里","LIN":"18鄰","STREET":"安通三街","SECT":" ","MAREA":" ","LANE":"２９巷","ALLEY":" ","HOUSE_NO":"２號","E_COORD97":168527.78,"N_COORD97":2547957.6600000001,"ADDRESS":"安通三街２９巷２號","OBJECTID":450883},"geometry":{"x":168527.78000000119,"y":2547957.660000002}},{"attributes":{"ID":450909,"DIS_CODE":0,"TOWNNAME":"安南區","LI":"安西里","LIN":"18鄰","STREET":"安通三街","SECT":" ","MAREA":" ","LANE":"２９巷","ALLEY":" ","HOUSE_NO":"３號","E_COORD97":168522.793665,"N_COORD97":2547933.7204100001,"ADDRESS":"安通三街２９巷３號","OBJECTID":450884},"geometry":{"x":168522.79366500024,"y":2547933.7204149999}},{"attributes":{"ID":450910,"DIS_CODE":0,"TOWNNAME":"安南區","LI":"安西里","LIN":"18鄰","STREET":"安通三街","SECT":" ","MAREA":" ","LANE":"２９巷","ALLEY":" ","HOUSE_NO":"５號","E_COORD97":168518.97811,"N_COORD97":2547933.50875,"ADDRESS":"安通三街２９巷５號","OBJECTID":450885},"geometry":{"x":168518.97810999956,"y":2547933.5087480042}},{"attributes":{"ID":450911,"DIS_CODE":0,"TOWNNAME":"安南區","LI":"安西里","LIN":"18鄰","STREET":"安通三街","SECT":" ","MAREA":" ","LANE":"２９巷","ALLEY":" ","HOUSE_NO":"６號","E_COORD97":168522.17000000001,"N_COORD97":2547958.2999999998,"ADDRESS":"安通三街２９巷６號","OBJECTID":450886},"geometry":{"x":168522.16999999899,"y":2547958.3000000007}},{"attributes":{"ID":450912,"DIS_CODE":0,"TOWNNAME":"安南區","LI":"安西里","LIN":"18鄰","STREET":"安通三街","SECT":" ","MAREA":" ","LANE":"２９巷","ALLEY":" ","HOUSE_NO":"７號","E_COORD97":168513.94,"N_COORD97":2547933.3700000001,"ADDRESS":"安通三街２９巷７號","OBJECTID":450887},"geometry":{"x":168513.94000000041,"y":2547933.3700000029}},{"attributes":{"ID":450913,"DIS_CODE":0,"TOWNNAME":"安南區","LI":"安西里","LIN":"18鄰","STREET":"安通三街","SECT":" ","MAREA":" ","LANE":"２９巷","ALLEY":" ","HOUSE_NO":"８號","E_COORD97":168517.67000000001,"N_COORD97":2547958.27,"ADDRESS":"安通三街２９巷８號","OBJECTID":450888},"geometry":{"x":168517.67000000086,"y":2547958.2700000033}},{"attributes":{"ID":450914,"DIS_CODE":0,"TOWNNAME":"安南區","LI":"安西里","LIN":"18鄰","STREET":"安通三街","SECT":" ","MAREA":" ","LANE":"２９巷","ALLEY":" ","HOUSE_NO":"９號","E_COORD97":168510.07000000001,"N_COORD97":2547932.98,"ADDRESS":"安通三街２９巷９號","OBJECTID":450889},"geometry":{"x":168510.07000000123,"y":2547932.9800000004}},{"attributes":{"ID":450915,"DIS_CODE":0,"TOWNNAME":"安南區","LI":"安西里","LIN":"18鄰","STREET":"安通三街","SECT":" ","MAREA":" ","LANE":"２９巷","ALLEY":" ","HOUSE_NO":"１０號","E_COORD97":168513.01000000001,"N_COORD97":2547953.4900000002,"ADDRESS":"安通三街２９巷１０號","OBJECTID":450890},"geometry":{"x":168513.01000000164,"y":2547953.4900000002}},{"attributes":{"ID":450916,"DIS_CODE":0,"TOWNNAME":"安南區","LI":"安西里","LIN":"18鄰","STREET":"安通三街","SECT":" ","MAREA":" ","LANE":"２９巷","ALLEY":" ","HOUSE_NO":"１２號","E_COORD97":168509.13,"N_COORD97":2547953.73,"ADDRESS":"安通三街２９巷１２號","OBJECTID":450891},"geometry":{"x":168509.13000000082,"y":2547953.7300000023}},{"attributes":{"ID":450917,"DIS_CODE":0,"TOWNNAME":"安南區","LI":"安西里","LIN":"18鄰","STREET":"安通三街","SECT":" ","MAREA":" ","LANE":"２９巷","ALLEY":" ","HOUSE_NO":"１６號","E_COORD97":168503.41,"N_COORD97":2547955.21,"ADDRESS":"安通三街２９巷１６號","OBJECTID":450892},"geometry":{"x":168503.41000000015,"y":2547955.2100000009}},{"attributes":{"ID":450918,"DIS_CODE":0,"TOWNNAME":"東區","LI":"中西里","LIN":"18鄰","STREET":"長榮路","SECT":"二段","MAREA":" ","LANE":"３２巷","ALLEY":" ","HOUSE_NO":"１４１號","E_COORD97":170063.42000000001,"N_COORD97":2543262.3500000001,"ADDRESS":"長榮路二段３２巷１４１號","OBJECTID":450893},"geometry":{"x":170063.42000000086,"y":2543262.3500000015}},{"attributes":{"ID":450919,"DIS_CODE":0,"TOWNNAME":"東區","LI":"中西里","LIN":"18鄰","STREET":"長榮路","SECT":"二段","MAREA":" ","LANE":"３２巷","ALLEY":" ","HOUSE_NO":"１４３號","E_COORD97":170066.89999999999,"N_COORD97":2543260.6600000001,"ADDRESS":"長榮路二段３２巷１４３號","OBJECTID":450894},"geometry":{"x":170066.90000000037,"y":2543260.6600000039}},{"attributes":{"ID":450920,"DIS_CODE":0,"TOWNNAME":"東區","LI":"中西里","LIN":"18鄰","STREET":"長榮路","SECT":"二段","MAREA":" ","LANE":"３２巷","ALLEY":" ","HOUSE_NO":"１４９號","E_COORD97":170077.98000000001,"N_COORD97":2543253.96,"ADDRESS":"長榮路二段３２巷１４９號","OBJECTID":450895},"geometry":{"x":170077.98000000045,"y":2543253.9600000028}},{"attributes":{"ID":450921,"DIS_CODE":0,"TOWNNAME":"東區","LI":"中西里","LIN":"18鄰","STREET":"長榮路","SECT":"二段","MAREA":" ","LANE":"３２巷","ALLEY":" ","HOUSE_NO":"１５５號","E_COORD97":170088.84,"N_COORD97":2543248.8700000001,"ADDRESS":"長榮路二段３２巷１５５號","OBJECTID":450896},"geometry":{"x":170088.83999999985,"y":2543248.870000001}},{"attributes":{"ID":450922,"DIS_CODE":0,"TOWNNAME":"東區","LI":"中西里","LIN":"18鄰","STREET":"長榮路","SECT":"二段","MAREA":" ","LANE":"３２巷","ALLEY":" ","HOUSE_NO":"１５９號","E_COORD97":170098.87,"N_COORD97":2543244.1800000002,"ADDRESS":"長榮路二段３２巷１５９號","OBJECTID":450897},"geometry":{"x":170098.87000000011,"y":2543244.1800000016}},{"attributes":{"ID":450923,"DIS_CODE":0,"TOWNNAME":"東區","LI":"中西里","LIN":"18鄰","STREET":"長榮路","SECT":"二段","MAREA":" ","LANE":"３２巷","ALLEY":" ","HOUSE_NO":"１６１號","E_COORD97":170103.16,"N_COORD97":2543242,"ADDRESS":"長榮路二段３２巷１６１號","OBJECTID":450898},"geometry":{"x":170103.16000000108,"y":2543242.0000000019}},{"attributes":{"ID":450924,"DIS_CODE":0,"TOWNNAME":"東區","LI":"新東里","LIN":"18鄰","STREET":"裕豐街","SECT":" ","MAREA":" ","LANE":"１８５巷","ALLEY":" ","HOUSE_NO":"１號","E_COORD97":170766.84,"N_COORD97":2543191.98,"ADDRESS":"裕豐街１８５巷１號","OBJECTID":450899},"geometry":{"x":170766.83999999985,"y":2543191.9800000023}},{"attributes":{"ID":450925,"DIS_CODE":0,"TOWNNAME":"東區","LI":"新東里","LIN":"18鄰","STREET":"裕豐街","SECT":" ","MAREA":" ","LANE":"１８５巷","ALLEY":" ","HOUSE_NO":"１１號","E_COORD97":170745.85999999999,"N_COORD97":2543188.3100000001,"ADDRESS":"裕豐街１８５巷１１號","OBJECTID":450900},"geometry":{"x":170745.86000000127,"y":2543188.3100000005}},{"attributes":{"ID":450926,"DIS_CODE":0,"TOWNNAME":"東區","LI":"大智里","LIN":"18鄰","STREET":"長東街","SECT":" ","MAREA":" ","LANE":"４１巷","ALLEY":" ","HOUSE_NO":"２０４號","E_COORD97":171216.91,"N_COORD97":2540528.6299999999,"ADDRESS":"長東街４１巷２０４號","OBJECTID":450901},"geometry":{"x":171216.91000000108,"y":2540528.629999999}},{"attributes":{"ID":450927,"DIS_CODE":0,"TOWNNAME":"東區","LI":"大智里","LIN":"18鄰","STREET":"長東街","SECT":" ","MAREA":" ","LANE":"４１巷","ALLEY":" ","HOUSE_NO":"２０６號","E_COORD97":171216.20000000001,"N_COORD97":2540533.1400000001,"ADDRESS":"長東街４１巷２０６號","OBJECTID":450902},"geometry":{"x":171216.20000000112,"y":2540533.1400000025}},{"attributes":{"ID":450928,"DIS_CODE":0,"TOWNNAME":"東區","LI":"大智里","LIN":"18鄰","STREET":"長東街","SECT":" ","MAREA":" ","LANE":"４１巷","ALLEY":" ","HOUSE_NO":"２０８號","E_COORD97":171216.42999999999,"N_COORD97":2540536.7000000002,"ADDRESS":"長東街４１巷２０８號","OBJECTID":450903},"geometry":{"x":171216.43000000063,"y":2540536.700000003}},{"attributes":{"ID":450929,"DIS_CODE":0,"TOWNNAME":"東區","LI":"大智里","LIN":"18鄰","STREET":"長東街","SECT":" ","MAREA":" ","LANE":"４１巷","ALLEY":" ","HOUSE_NO":"２１８號","E_COORD97":171212.16,"N_COORD97":2540563.2599999998,"ADDRESS":"長東街４１巷２１８號","OBJECTID":450904},"geometry":{"x":171212.16000000015,"y":2540563.2599999998}},{"attributes":{"ID":450930,"DIS_CODE":0,"TOWNNAME":"東區","LI":"大智里","LIN":"18鄰","STREET":"長東街","SECT":" ","MAREA":" ","LANE":"４１巷","ALLEY":" ","HOUSE_NO":"２２０號","E_COORD97":171211.69,"N_COORD97":2540567.0600000001,"ADDRESS":"長東街４１巷２２０號","OBJECTID":450905},"geometry":{"x":171211.69000000134,"y":2540567.0600000024}},{"attributes":{"ID":450931,"DIS_CODE":0,"TOWNNAME":"東區","LI":"大智里","LIN":"18鄰","STREET":"長東街","SECT":" ","MAREA":" ","LANE":"４１巷","ALLEY":" ","HOUSE_NO":"２２２號","E_COORD97":171211.70999999999,"N_COORD97":2540570.8399999999,"ADDRESS":"長東街４１巷２２２號","OBJECTID":450906},"geometry":{"x":171211.70999999996,"y":2540570.8400000017}},{"attributes":{"ID":450932,"DIS_CODE":0,"TOWNNAME":"東區","LI":"圍下里","LIN":"18鄰","STREET":"慶東街","SECT":" ","MAREA":" ","LANE":"１６２巷","ALLEY":" ","HOUSE_NO":"１號","E_COORD97":169690.64999999999,"N_COORD97":2543424.4700000002,"ADDRESS":"慶東街１６２巷１號","OBJECTID":450907},"geometry":{"x":169690.65000000037,"y":2543424.4700000007}},{"attributes":{"ID":450933,"DIS_CODE":0,"TOWNNAME":"東區","LI":"圍下里","LIN":"18鄰","STREET":"慶東街","SECT":" ","MAREA":" ","LANE":"１６２巷","ALLEY":" ","HOUSE_NO":"２號","E_COORD97":169689.37,"N_COORD97":2543411.6200000001,"ADDRESS":"慶東街１６２巷２號","OBJECTID":450908},"geometry":{"x":169689.37000000104,"y":2543411.6200000029}},{"attributes":{"ID":450934,"DIS_CODE":0,"TOWNNAME":"東區","LI":"圍下里","LIN":"18鄰","STREET":"慶東街","SECT":" ","MAREA":" ","LANE":"１８０巷","ALLEY":" ","HOUSE_NO":"１０號","E_COORD97":169695.48999999999,"N_COORD97":2543438.77,"ADDRESS":"慶東街１８０巷１０號","OBJECTID":450909},"geometry":{"x":169695.49000000115,"y":2543438.7700000033}},{"attributes":{"ID":450935,"DIS_CODE":0,"TOWNNAME":"東區","LI":"圍下里","LIN":"18鄰","STREET":"慶東街","SECT":" ","MAREA":" ","LANE":"１８０巷","ALLEY":" ","HOUSE_NO":"１１號","E_COORD97":169704.82000000001,"N_COORD97":2543438.2000000002,"ADDRESS":"慶東街１８０巷１１號","OBJECTID":450910},"geometry":{"x":169704.81999999937,"y":2543438.1999999993}},{"attributes":{"ID":450936,"DIS_CODE":0,"TOWNNAME":"東區","LI":"圍下里","LIN":"18鄰","STREET":"慶東街","SECT":" ","MAREA":" ","LANE":"１４８巷","ALLEY":" ","HOUSE_NO":"５號","E_COORD97":169698.70999999999,"N_COORD97":2543381.77,"ADDRESS":"慶東街１４８巷５號","OBJECTID":450911},"geometry":{"x":169698.71000000089,"y":2543381.7700000014}},{"attributes":{"ID":450937,"DIS_CODE":0,"TOWNNAME":"東區","LI":"圍下里","LIN":"18鄰","STREET":"慶東街","SECT":" ","MAREA":" ","LANE":"１４８巷","ALLEY":" ","HOUSE_NO":"７號","E_COORD97":169703.42999999999,"N_COORD97":2543381.3100000001,"ADDRESS":"慶東街１４８巷７號","OBJECTID":450912},"geometry":{"x":169703.42999999877,"y":2543381.3100000005}},{"attributes":{"ID":450938,"DIS_CODE":0,"TOWNNAME":"東區","LI":"圍下里","LIN":"18鄰","STREET":"慶東街","SECT":" ","MAREA":" ","LANE":"１４８巷","ALLEY":" ","HOUSE_NO":"９號","E_COORD97":169708.5,"N_COORD97":2543380.5099999998,"ADDRESS":"慶東街１４８巷９號","OBJECTID":450913},"geometry":{"x":169708.50000000186,"y":2543380.5100000016}},{"attributes":{"ID":450939,"DIS_CODE":0,"TOWNNAME":"安南區","LI":"安西里","LIN":"18鄰","STREET":"安通二街","SECT":" ","MAREA":" ","LANE":"９９巷","ALLEY":" ","HOUSE_NO":"２號","E_COORD97":168617.04000000001,"N_COORD97":2547987.21,"ADDRESS":"安通二街９９巷２號","OBJECTID":450914},"geometry":{"x":168617.04000000097,"y":2547987.2100000046}},{"attributes":{"ID":450940,"DIS_CODE":0,"TOWNNAME":"安南區","LI":"安西里","LIN":"18鄰","STREET":"安通二街","SECT":" ","MAREA":" ","LANE":"９９巷","ALLEY":" ","HOUSE_NO":"６號","E_COORD97":168608.81,"N_COORD97":2547990.4399999999,"ADDRESS":"安通二街９９巷６號","OBJECTID":450915},"geometry":{"x":168608.80999999959,"y":2547990.4399999995}},{"attributes":{"ID":450941,"DIS_CODE":0,"TOWNNAME":"安南區","LI":"安西里","LIN":"18鄰","STREET":"安通二街","SECT":" ","MAREA":" ","LANE":"９９巷","ALLEY":" ","HOUSE_NO":"８號","E_COORD97":168601.64999999999,"N_COORD97":2547989.2599999998,"ADDRESS":"安通二街９９巷８號","OBJECTID":450916},"geometry":{"x":168601.6500000013,"y":2547989.2600000035}},{"attributes":{"ID":450942,"DIS_CODE":0,"TOWNNAME":"安南區","LI":"安西里","LIN":"18鄰","STREET":"安通二街","SECT":" ","MAREA":" ","LANE":"９９巷","ALLEY":" ","HOUSE_NO":"１０號","E_COORD97":168595.04999999999,"N_COORD97":2547988.7999999998,"ADDRESS":"安通二街９９巷１０號","OBJECTID":450917},"geometry":{"x":168595.04999999981,"y":2547988.8000000007}},{"attributes":{"ID":450943,"DIS_CODE":0,"TOWNNAME":"安南區","LI":"安西里","LIN":"18鄰","STREET":"安通二街","SECT":" ","MAREA":" ","LANE":"９９巷","ALLEY":" ","HOUSE_NO":"１２號","E_COORD97":168588.45000000001,"N_COORD97":2547988.3399999999,"ADDRESS":"安通二街９９巷１２號","OBJECTID":450918},"geometry":{"x":168588.45000000205,"y":2547988.339999998}},{"attributes":{"ID":450944,"DIS_CODE":0,"TOWNNAME":"安南區","LI":"安西里","LIN":"18鄰","STREET":"安通二街","SECT":" ","MAREA":" ","LANE":"９９巷","ALLEY":" ","HOUSE_NO":"１６號","E_COORD97":168582.53,"N_COORD97":2547985.5600000001,"ADDRESS":"安通二街９９巷１６號","OBJECTID":450919},"geometry":{"x":168582.53000000026,"y":2547985.5600000024}},{"attributes":{"ID":450945,"DIS_CODE":0,"TOWNNAME":"安南區","LI":"大安里","LIN":"18鄰","STREET":"義安街","SECT":" ","MAREA":" ","LANE":"１９８巷","ALLEY":" ","HOUSE_NO":"２９號","E_COORD97":167677.81,"N_COORD97":2548279.4399999999,"ADDRESS":"義安街１９８巷２９號","OBJECTID":450920},"geometry":{"x":167677.80999999959,"y":2548279.4400000013}},{"attributes":{"ID":450946,"DIS_CODE":0,"TOWNNAME":"安南區","LI":"大安里","LIN":"18鄰","STREET":"義安街","SECT":" ","MAREA":" ","LANE":"１９８巷","ALLEY":" ","HOUSE_NO":"３７號","E_COORD97":167690.85000000001,"N_COORD97":2548270.0600000001,"ADDRESS":"義安街１９８巷３７號","OBJECTID":450921},"geometry":{"x":167690.85000000056,"y":2548270.0600000024}},{"attributes":{"ID":450947,"DIS_CODE":0,"TOWNNAME":"安南區","LI":"大安里","LIN":"18鄰","STREET":"義安街","SECT":" ","MAREA":" ","LANE":"１９８巷","ALLEY":" ","HOUSE_NO":"３９號","E_COORD97":167693.45999999999,"N_COORD97":2548267.0299999998,"ADDRESS":"義安街１９８巷３９號","OBJECTID":450922},"geometry":{"x":167693.46000000089,"y":2548267.0299999993}},{"attributes":{"ID":450948,"DIS_CODE":0,"TOWNNAME":"安南區","LI":"大安里","LIN":"18鄰","STREET":"義安街","SECT":" ","MAREA":" ","LANE":"１８４巷","ALLEY":" ","HOUSE_NO":"２號","E_COORD97":167598.63,"N_COORD97":2548256.0899999999,"ADDRESS":"義安街１８４巷２號","OBJECTID":450923},"geometry":{"x":167598.63000000175,"y":2548256.0900000017}},{"attributes":{"ID":450949,"DIS_CODE":0,"TOWNNAME":"安南區","LI":"大安里","LIN":"18鄰","STREET":"義安街","SECT":" ","MAREA":" ","LANE":"１８４巷","ALLEY":" ","HOUSE_NO":"４號","E_COORD97":167603.97,"N_COORD97":2548252.5699999998,"ADDRESS":"義安街１８４巷４號","OBJECTID":450924},"geometry":{"x":167603.96999999974,"y":2548252.5700000022}},{"attributes":{"ID":450950,"DIS_CODE":0,"TOWNNAME":"善化區","LI":"光文里","LIN":"18鄰","STREET":"和平路","SECT":" ","MAREA":" ","LANE":"１２６巷","ALLEY":" ","HOUSE_NO":"１５號","E_COORD97":178199.79000000001,"N_COORD97":2558951.25,"ADDRESS":"和平路１２６巷１５號","OBJECTID":450925},"geometry":{"x":178199.79000000097,"y":2558951.2500000019}},{"attributes":{"ID":450951,"DIS_CODE":0,"TOWNNAME":"善化區","LI":"光文里","LIN":"18鄰","STREET":"和平路","SECT":" ","MAREA":" ","LANE":"１２６巷","ALLEY":" ","HOUSE_NO":"４號","E_COORD97":178155.92999999999,"N_COORD97":2558942.75,"ADDRESS":"和平路１２６巷４號","OBJECTID":450926},"geometry":{"x":178155.93000000063,"y":2558942.75}},{"attributes":{"ID":450952,"DIS_CODE":0,"TOWNNAME":"善化區","LI":"光文里","LIN":"18鄰","STREET":"和平路","SECT":" ","MAREA":" ","LANE":"１３６巷","ALLEY":" ","HOUSE_NO":"７號","E_COORD97":178164.54000000001,"N_COORD97":2558955.5,"ADDRESS":"和平路１３６巷７號","OBJECTID":450927},"geometry":{"x":178164.54000000097,"y":2558955.5000000037}},{"attributes":{"ID":450953,"DIS_CODE":0,"TOWNNAME":"中西區","LI":"三民里","LIN":"18鄰","STREET":"民權路","SECT":"二段","MAREA":" ","LANE":"６４巷","ALLEY":" ","HOUSE_NO":"１３號","E_COORD97":168494.10000000001,"N_COORD97":2543959.6499999999,"ADDRESS":"民權路二段６４巷１３號","OBJECTID":450928},"geometry":{"x":168494.10000000056,"y":2543959.6500000022}},{"attributes":{"ID":450954,"DIS_CODE":0,"TOWNNAME":"中西區","LI":"三民里","LIN":"18鄰","STREET":"民權路","SECT":"二段","MAREA":" ","LANE":"６４巷","ALLEY":" ","HOUSE_NO":"１５號","E_COORD97":168494.10000000001,"N_COORD97":2543962.1099999999,"ADDRESS":"民權路二段６４巷１５號","OBJECTID":450929},"geometry":{"x":168494.10000000056,"y":2543962.1100000031}},{"attributes":{"ID":450955,"DIS_CODE":0,"TOWNNAME":"中西區","LI":"三民里","LIN":"18鄰","STREET":"民權路","SECT":"二段","MAREA":" ","LANE":"６４巷","ALLEY":" ","HOUSE_NO":"１７號","E_COORD97":168473.26000000001,"N_COORD97":2543967.5499999998,"ADDRESS":"民權路二段６４巷１７號","OBJECTID":450930},"geometry":{"x":168473.25999999978,"y":2543967.5500000026}},{"attributes":{"ID":450956,"DIS_CODE":0,"TOWNNAME":"中西區","LI":"三民里","LIN":"18鄰","STREET":"民權路","SECT":"二段","MAREA":" ","LANE":"６４巷","ALLEY":" ","HOUSE_NO":"１９號","E_COORD97":168466.39999999999,"N_COORD97":2543973.46,"ADDRESS":"民權路二段６４巷１９號","OBJECTID":450931},"geometry":{"x":168466.40000000037,"y":2543973.4600000009}},{"attributes":{"ID":450957,"DIS_CODE":0,"TOWNNAME":"中西區","LI":"三民里","LIN":"18鄰","STREET":"民權路","SECT":"二段","MAREA":" ","LANE":"６４巷","ALLEY":" ","HOUSE_NO":"２１號","E_COORD97":168467.82000000001,"N_COORD97":2543977.48,"ADDRESS":"民權路二段６４巷２１號","OBJECTID":450932},"geometry":{"x":168467.82000000123,"y":2543977.4800000042}},{"attributes":{"ID":450958,"DIS_CODE":0,"TOWNNAME":"中西區","LI":"三民里","LIN":"18鄰","STREET":"民權路","SECT":"二段","MAREA":" ","LANE":"６４巷","ALLEY":" ","HOUSE_NO":"２３號","E_COORD97":168469.47,"N_COORD97":2543981.7400000002,"ADDRESS":"民權路二段６４巷２３號","OBJECTID":450933},"geometry":{"x":168469.47000000067,"y":2543981.7400000002}},{"attributes":{"ID":450959,"DIS_CODE":0,"TOWNNAME":"中西區","LI":"三民里","LIN":"18鄰","STREET":"民權路","SECT":"二段","MAREA":" ","LANE":"６４巷","ALLEY":" ","HOUSE_NO":"２５號","E_COORD97":168470.66,"N_COORD97":2543985.7599999998,"ADDRESS":"民權路二段６４巷２５號","OBJECTID":450934},"geometry":{"x":168470.66000000108,"y":2543985.7600000016}},{"attributes":{"ID":450960,"DIS_CODE":0,"TOWNNAME":"中西區","LI":"三民里","LIN":"18鄰","STREET":"民權路","SECT":"二段","MAREA":" ","LANE":"６４巷","ALLEY":" ","HOUSE_NO":"２７號","E_COORD97":168471.37,"N_COORD97":2543988.6000000001,"ADDRESS":"民權路二段６４巷２７號","OBJECTID":450935},"geometry":{"x":168471.37000000011,"y":2543988.5999999996}},{"attributes":{"ID":450961,"DIS_CODE":0,"TOWNNAME":"中西區","LI":"三民里","LIN":"18鄰","STREET":"民權路","SECT":"二段","MAREA":" ","LANE":"６４巷","ALLEY":" ","HOUSE_NO":"３３號","E_COORD97":168476.10999999999,"N_COORD97":2543974.6400000001,"ADDRESS":"民權路二段６４巷３３號","OBJECTID":450936},"geometry":{"x":168476.11000000127,"y":2543974.6400000025}},{"attributes":{"ID":450962,"DIS_CODE":0,"TOWNNAME":"中西區","LI":"三民里","LIN":"18鄰","STREET":"民權路","SECT":"二段","MAREA":" ","LANE":"６４巷","ALLEY":" ","HOUSE_NO":"３５號","E_COORD97":168480.13,"N_COORD97":2543976.2999999998,"ADDRESS":"民權路二段６４巷３５號","OBJECTID":450937},"geometry":{"x":168480.13000000175,"y":2543976.3000000026}},{"attributes":{"ID":450963,"DIS_CODE":0,"TOWNNAME":"中西區","LI":"三民里","LIN":"18鄰","STREET":"民權路","SECT":"二段","MAREA":" ","LANE":"６４巷","ALLEY":" ","HOUSE_NO":"３７號","E_COORD97":168482.97,"N_COORD97":2543973.46,"ADDRESS":"民權路二段６４巷３７號","OBJECTID":450938},"geometry":{"x":168482.97000000067,"y":2543973.4600000009}},{"attributes":{"ID":450964,"DIS_CODE":0,"TOWNNAME":"中西區","LI":"三民里","LIN":"18鄰","STREET":"民權路","SECT":"二段","MAREA":" ","LANE":"６４巷","ALLEY":" ","HOUSE_NO":"３９號","E_COORD97":168487.95000000001,"N_COORD97":2543974.8799999999,"ADDRESS":"民權路二段６４巷３９號","OBJECTID":450939},"geometry":{"x":168487.95000000019,"y":2543974.879999999}},{"attributes":{"ID":450965,"DIS_CODE":0,"TOWNNAME":"中西區","LI":"三民里","LIN":"18鄰","STREET":"民權路","SECT":"二段","MAREA":" ","LANE":"６４巷","ALLEY":" ","HOUSE_NO":"４１號","E_COORD97":168494.26000000001,"N_COORD97":2543967.4300000002,"ADDRESS":"民權路二段６４巷４１號","OBJECTID":450940},"geometry":{"x":168494.25999999978,"y":2543967.4300000016}},{"attributes":{"ID":450966,"DIS_CODE":0,"TOWNNAME":"中西區","LI":"三民里","LIN":"18鄰","STREET":"民權路","SECT":"二段","MAREA":" ","LANE":"６４巷","ALLEY":" ","HOUSE_NO":"４３號","E_COORD97":168495.04999999999,"N_COORD97":2543972.3599999999,"ADDRESS":"民權路二段６４巷４３號","OBJECTID":450941},"geometry":{"x":168495.04999999981,"y":2543972.3599999994}},{"attributes":{"ID":450967,"DIS_CODE":0,"TOWNNAME":"中西區","LI":"三民里","LIN":"18鄰","STREET":"民權路","SECT":"二段","MAREA":" ","LANE":"６４巷","ALLEY":" ","HOUSE_NO":"４５號","E_COORD97":168497.42000000001,"N_COORD97":2543975.1200000001,"ADDRESS":"民權路二段６４巷４５號","OBJECTID":450942},"geometry":{"x":168497.42000000086,"y":2543975.1200000029}},{"attributes":{"ID":450968,"DIS_CODE":0,"TOWNNAME":"中西區","LI":"三民里","LIN":"18鄰","STREET":"民權路","SECT":"二段","MAREA":" ","LANE":"６４巷","ALLEY":" ","HOUSE_NO":"４７號","E_COORD97":168500.03,"N_COORD97":2543982.9199999999,"ADDRESS":"民權路二段６４巷４７號","OBJECTID":450943},"geometry":{"x":168500.03000000119,"y":2543982.9199999999}},{"attributes":{"ID":450969,"DIS_CODE":0,"TOWNNAME":"中西區","LI":"三民里","LIN":"18鄰","STREET":"民權路","SECT":"二段","MAREA":" ","LANE":"６４巷","ALLEY":" ","HOUSE_NO":"４９號","E_COORD97":168501.20999999999,"N_COORD97":2543987.4199999999,"ADDRESS":"民權路二段６４巷４９號","OBJECTID":450944},"geometry":{"x":168501.20999999996,"y":2543987.4200000037}},{"attributes":{"ID":450970,"DIS_CODE":0,"TOWNNAME":"中西區","LI":"三民里","LIN":"18鄰","STREET":"民權路","SECT":"二段","MAREA":" ","LANE":"６４巷","ALLEY":" ","HOUSE_NO":"５１號","E_COORD97":168502.39000000001,"N_COORD97":2543991.9100000001,"ADDRESS":"民權路二段６４巷５１號","OBJECTID":450945},"geometry":{"x":168502.3900000006,"y":2543991.910000002}},{"attributes":{"ID":450971,"DIS_CODE":0,"TOWNNAME":"中西區","LI":"三民里","LIN":"18鄰","STREET":"民權路","SECT":"二段","MAREA":" ","LANE":"６４巷","ALLEY":" ","HOUSE_NO":"５３號","E_COORD97":168502.87,"N_COORD97":2543995.9300000002,"ADDRESS":"民權路二段６４巷５３號","OBJECTID":450946},"geometry":{"x":168502.87000000104,"y":2543995.9299999997}},{"attributes":{"ID":450972,"DIS_CODE":0,"TOWNNAME":"中西區","LI":"三民里","LIN":"18鄰","STREET":"民權路","SECT":"二段","MAREA":" ","LANE":"６４巷","ALLEY":" ","HOUSE_NO":"５號","E_COORD97":168482.26000000001,"N_COORD97":2543936.1099999999,"ADDRESS":"民權路二段６４巷５號","OBJECTID":450947},"geometry":{"x":168482.25999999978,"y":2543936.1100000013}},{"attributes":{"ID":450973,"DIS_CODE":0,"TOWNNAME":"中西區","LI":"三民里","LIN":"18鄰","STREET":"民權路","SECT":"二段","MAREA":" ","LANE":"６４巷","ALLEY":" ","HOUSE_NO":"５號之１","E_COORD97":168475.39999999999,"N_COORD97":2543939.1899999999,"ADDRESS":"民權路二段６４巷５號之１","OBJECTID":450948},"geometry":{"x":168475.40000000224,"y":2543939.1900000013}},{"attributes":{"ID":450974,"DIS_CODE":0,"TOWNNAME":"中西區","LI":"三民里","LIN":"18鄰","STREET":"民權路","SECT":"二段","MAREA":" ","LANE":"６４巷","ALLEY":" ","HOUSE_NO":"５號之２","E_COORD97":168468.53,"N_COORD97":2543941.3199999998,"ADDRESS":"民權路二段６４巷５號之２","OBJECTID":450949},"geometry":{"x":168468.53000000026,"y":2543941.3200000022}},{"attributes":{"ID":450975,"DIS_CODE":0,"TOWNNAME":"中西區","LI":"三民里","LIN":"18鄰","STREET":"民權路","SECT":"二段","MAREA":" ","LANE":"６４巷","ALLEY":" ","HOUSE_NO":"５號之３","E_COORD97":168460.23999999999,"N_COORD97":2543943.6800000002,"ADDRESS":"民權路二段６４巷５號之３","OBJECTID":450950},"geometry":{"x":168460.24000000115,"y":2543943.6799999997}},{"attributes":{"ID":450976,"DIS_CODE":0,"TOWNNAME":"中西區","LI":"三民里","LIN":"18鄰","STREET":"民權路","SECT":"二段","MAREA":" ","LANE":"６４巷","ALLEY":" ","HOUSE_NO":"５號之４","E_COORD97":168454.07999999999,"N_COORD97":2543946.7599999998,"ADDRESS":"民權路二段６４巷５號之４","OBJECTID":450951},"geometry":{"x":168454.08000000101,"y":2543946.7599999998}},{"attributes":{"ID":450977,"DIS_CODE":0,"TOWNNAME":"中西區","LI":"三民里","LIN":"18鄰","STREET":"民權路","SECT":"二段","MAREA":" ","LANE":"６４巷","ALLEY":" ","HOUSE_NO":"５號之５","E_COORD97":168455.98000000001,"N_COORD97":2543953.7400000002,"ADDRESS":"民權路二段６４巷５號之５","OBJECTID":450952},"geometry":{"x":168455.98000000045,"y":2543953.7400000002}},{"attributes":{"ID":450978,"DIS_CODE":0,"TOWNNAME":"中西區","LI":"三民里","LIN":"18鄰","STREET":"民權路","SECT":"二段","MAREA":" ","LANE":"６４巷","ALLEY":" ","HOUSE_NO":"５號之７","E_COORD97":168464.5,"N_COORD97":2543951.8500000001,"ADDRESS":"民權路二段６４巷５號之７","OBJECTID":450953},"geometry":{"x":168464.50000000093,"y":2543951.8500000015}},{"attributes":{"ID":450979,"DIS_CODE":0,"TOWNNAME":"中西區","LI":"三民里","LIN":"18鄰","STREET":"民權路","SECT":"二段","MAREA":" ","LANE":"６４巷","ALLEY":" ","HOUSE_NO":"５號之８","E_COORD97":168471.60999999999,"N_COORD97":2543953.27,"ADDRESS":"民權路二段６４巷５號之８","OBJECTID":450954},"geometry":{"x":168471.61000000034,"y":2543953.2699999996}},{"attributes":{"ID":450980,"DIS_CODE":0,"TOWNNAME":"中西區","LI":"三民里","LIN":"18鄰","STREET":"民權路","SECT":"二段","MAREA":" ","LANE":"６４巷","ALLEY":" ","HOUSE_NO":"５號之９","E_COORD97":168473.73999999999,"N_COORD97":2543948.54,"ADDRESS":"民權路二段６４巷５號之９","OBJECTID":450955},"geometry":{"x":168473.74000000115,"y":2543948.5400000028}},{"attributes":{"ID":450981,"DIS_CODE":0,"TOWNNAME":"中西區","LI":"三民里","LIN":"18鄰","STREET":"民權路","SECT":"二段","MAREA":" ","LANE":"６４巷","ALLEY":" ","HOUSE_NO":"７號","E_COORD97":168489.84,"N_COORD97":2543947.1200000001,"ADDRESS":"民權路二段６４巷７號","OBJECTID":450956},"geometry":{"x":168489.83999999985,"y":2543947.1200000029}},{"attributes":{"ID":450982,"DIS_CODE":0,"TOWNNAME":"中西區","LI":"三民里","LIN":"18鄰","STREET":"民權路","SECT":"二段","MAREA":" ","LANE":"６４巷","ALLEY":" ","HOUSE_NO":"７號之１","E_COORD97":168486.76000000001,"N_COORD97":2543944.9900000002,"ADDRESS":"民權路二段６４巷７號之１","OBJECTID":450957},"geometry":{"x":168486.76000000071,"y":2543944.9900000002}},{"attributes":{"ID":450983,"DIS_CODE":0,"TOWNNAME":"中西區","LI":"三民里","LIN":"18鄰","STREET":"民權路","SECT":"二段","MAREA":" ","LANE":"６４巷","ALLEY":" ","HOUSE_NO":"７號之２","E_COORD97":168488.42000000001,"N_COORD97":2543949.9500000002,"ADDRESS":"民權路二段６４巷７號之２","OBJECTID":450958},"geometry":{"x":168488.42000000179,"y":2543949.9500000011}},{"attributes":{"ID":450984,"DIS_CODE":0,"TOWNNAME":"中西區","LI":"三民里","LIN":"18鄰","STREET":"民權路","SECT":"二段","MAREA":" ","LANE":"６４巷","ALLEY":" ","HOUSE_NO":"７號之３","E_COORD97":168482.5,"N_COORD97":2543946.8799999999,"ADDRESS":"民權路二段６４巷７號之３","OBJECTID":450959},"geometry":{"x":168482.5,"y":2543946.8800000008}},{"attributes":{"ID":450985,"DIS_CODE":0,"TOWNNAME":"中西區","LI":"三民里","LIN":"18鄰","STREET":"民權路","SECT":"二段","MAREA":" ","LANE":"６４巷","ALLEY":" ","HOUSE_NO":"９號","E_COORD97":168492.92000000001,"N_COORD97":2543953.27,"ADDRESS":"民權路二段６４巷９號","OBJECTID":450960},"geometry":{"x":168492.91999999993,"y":2543953.2699999996}},{"attributes":{"ID":450986,"DIS_CODE":0,"TOWNNAME":"中西區","LI":"永福里","LIN":"18鄰","STREET":"民族路","SECT":"二段","MAREA":" ","LANE":"３１７巷","ALLEY":" ","HOUSE_NO":"２號","E_COORD97":168272.62,"N_COORD97":2544110.96,"ADDRESS":"民族路二段３１７巷２號","OBJECTID":450961},"geometry":{"x":168272.62000000104,"y":2544110.9600000028}},{"attributes":{"ID":450987,"DIS_CODE":0,"TOWNNAME":"中西區","LI":"永福里","LIN":"18鄰","STREET":"民族路","SECT":"二段","MAREA":" ","LANE":"３１７巷","ALLEY":" ","HOUSE_NO":"１０號","E_COORD97":168252.87,"N_COORD97":2544095.9900000002,"ADDRESS":"民族路二段３１７巷１０號","OBJECTID":450962},"geometry":{"x":168252.87000000011,"y":2544095.9900000039}},{"attributes":{"ID":450988,"DIS_CODE":0,"TOWNNAME":"中西區","LI":"永福里","LIN":"18鄰","STREET":"民族路","SECT":"二段","MAREA":" ","LANE":"３１７巷","ALLEY":" ","HOUSE_NO":"１２號","E_COORD97":168249.97,"N_COORD97":2544091.8700000001,"ADDRESS":"民族路二段３１７巷１２號","OBJECTID":450963},"geometry":{"x":168249.96999999974,"y":2544091.8700000029}},{"attributes":{"ID":450989,"DIS_CODE":0,"TOWNNAME":"中西區","LI":"永福里","LIN":"18鄰","STREET":"民族路","SECT":"二段","MAREA":" ","LANE":"３１７巷","ALLEY":" ","HOUSE_NO":"１４號","E_COORD97":168255.20999999999,"N_COORD97":2544089.3100000001,"ADDRESS":"民族路二段３１７巷１４號","OBJECTID":450964},"geometry":{"x":168255.20999999996,"y":2544089.3100000005}},{"attributes":{"ID":450990,"DIS_CODE":0,"TOWNNAME":"中西區","LI":"永福里","LIN":"18鄰","STREET":"民族路","SECT":"二段","MAREA":" ","LANE":"３１７巷","ALLEY":" ","HOUSE_NO":"１６號","E_COORD97":168266.03,"N_COORD97":2544088.5299999998,"ADDRESS":"民族路二段３１７巷１６號","OBJECTID":450965},"geometry":{"x":168266.03000000212,"y":2544088.5300000012}},{"attributes":{"ID":450991,"DIS_CODE":0,"TOWNNAME":"中西區","LI":"永福里","LIN":"18鄰","STREET":"民族路","SECT":"二段","MAREA":" ","LANE":"３１７巷","ALLEY":" ","HOUSE_NO":"１６號之１","E_COORD97":168264.01999999999,"N_COORD97":2544083.52,"ADDRESS":"民族路二段３１７巷１６號之１","OBJECTID":450966},"geometry":{"x":168264.02000000048,"y":2544083.5199999996}},{"attributes":{"ID":450992,"DIS_CODE":0,"TOWNNAME":"中西區","LI":"永福里","LIN":"18鄰","STREET":"民族路","SECT":"二段","MAREA":" ","LANE":"３１７巷","ALLEY":" ","HOUSE_NO":"１８號","E_COORD97":168252.67999999999,"N_COORD97":2544080.2799999998,"ADDRESS":"民族路二段３１７巷１８號","OBJECTID":450967},"geometry":{"x":168252.68000000063,"y":2544080.2800000012}},{"attributes":{"ID":450993,"DIS_CODE":0,"TOWNNAME":"中西區","LI":"永福里","LIN":"18鄰","STREET":"民族路","SECT":"二段","MAREA":" ","LANE":"３１７巷","ALLEY":" ","HOUSE_NO":"２０號","E_COORD97":168262.20000000001,"N_COORD97":2544077.6600000001,"ADDRESS":"民族路二段３１７巷２０號","OBJECTID":450968},"geometry":{"x":168262.20000000019,"y":2544077.6600000039}},{"attributes":{"ID":450994,"DIS_CODE":0,"TOWNNAME":"中西區","LI":"永福里","LIN":"18鄰","STREET":"民族路","SECT":"二段","MAREA":" ","LANE":"３１７巷","ALLEY":" ","HOUSE_NO":"２２號","E_COORD97":168259.72,"N_COORD97":2544072.7599999998,"ADDRESS":"民族路二段３１７巷２２號","OBJECTID":450969},"geometry":{"x":168259.72000000067,"y":2544072.7599999998}},{"attributes":{"ID":450995,"DIS_CODE":0,"TOWNNAME":"中西區","LI":"永福里","LIN":"18鄰","STREET":"民族路","SECT":"二段","MAREA":" ","LANE":"３１７巷","ALLEY":" ","HOUSE_NO":"２２號之１","E_COORD97":168257.23000000001,"N_COORD97":2544066.4199999999,"ADDRESS":"民族路二段３１７巷２２號之１","OBJECTID":450970},"geometry":{"x":168257.23000000045,"y":2544066.4200000018}},{"attributes":{"ID":450996,"DIS_CODE":0,"TOWNNAME":"中西區","LI":"永福里","LIN":"18鄰","STREET":"民族路","SECT":"二段","MAREA":" ","LANE":"３１７巷","ALLEY":" ","HOUSE_NO":"３４號","E_COORD97":168239.94,"N_COORD97":2544038.5,"ADDRESS":"民族路二段３１７巷３４號","OBJECTID":450971},"geometry":{"x":168239.94000000134,"y":2544038.5000000019}},{"attributes":{"ID":450997,"DIS_CODE":0,"TOWNNAME":"中西區","LI":"永福里","LIN":"18鄰","STREET":"民族路","SECT":"二段","MAREA":" ","LANE":"３１７巷","ALLEY":" ","HOUSE_NO":"３６號","E_COORD97":168242.04999999999,"N_COORD97":2544046.1600000001,"ADDRESS":"民族路二段３１７巷３６號","OBJECTID":450972},"geometry":{"x":168242.05000000075,"y":2544046.1600000001}},{"attributes":{"ID":450998,"DIS_CODE":0,"TOWNNAME":"中西區","LI":"永福里","LIN":"18鄰","STREET":"民族路","SECT":"二段","MAREA":" ","LANE":"３１７巷","ALLEY":" ","HOUSE_NO":"３８號","E_COORD97":168249.06,"N_COORD97":2544045.6000000001,"ADDRESS":"民族路二段３１７巷３８號","OBJECTID":450973},"geometry":{"x":168249.05999999959,"y":2544045.5999999996}},{"attributes":{"ID":450999,"DIS_CODE":0,"TOWNNAME":"中西區","LI":"永福里","LIN":"18鄰","STREET":"民族路","SECT":"二段","MAREA":" ","LANE":"３１７巷","ALLEY":" ","HOUSE_NO":"４０號","E_COORD97":168250.95000000001,"N_COORD97":2544044.23,"ADDRESS":"民族路二段３１７巷４０號","OBJECTID":450974},"geometry":{"x":168250.95000000019,"y":2544044.2300000023}},{"attributes":{"ID":451000,"DIS_CODE":0,"TOWNNAME":"中西區","LI":"永福里","LIN":"18鄰","STREET":"民族路","SECT":"二段","MAREA":" ","LANE":"３１７巷","ALLEY":" ","HOUSE_NO":"４２號","E_COORD97":168256.47,"N_COORD97":2544041.3399999999,"ADDRESS":"民族路二段３１７巷４２號","OBJECTID":450975},"geometry":{"x":168256.46999999974,"y":2544041.3399999999}},{"attributes":{"ID":451001,"DIS_CODE":0,"TOWNNAME":"中西區","LI":"永福里","LIN":"18鄰","STREET":"民族路","SECT":"二段","MAREA":" ","LANE":"３１７巷","ALLEY":" ","HOUSE_NO":"６號","E_COORD97":168270.60999999999,"N_COORD97":2544102.1600000001,"ADDRESS":"民族路二段３１７巷６號","OBJECTID":450976},"geometry":{"x":168270.6100000022,"y":2544102.160000002}},{"attributes":{"ID":451002,"DIS_CODE":0,"TOWNNAME":"中西區","LI":"永福里","LIN":"18鄰","STREET":"民族路","SECT":"二段","MAREA":" ","LANE":"３１７巷","ALLEY":" ","HOUSE_NO":"８號","E_COORD97":168264.37,"N_COORD97":2544097.04,"ADDRESS":"民族路二段３１７巷８號","OBJECTID":450977},"geometry":{"x":168264.37000000011,"y":2544097.0399999991}},{"attributes":{"ID":451003,"DIS_CODE":0,"TOWNNAME":"中西區","LI":"赤嵌里","LIN":"18鄰","STREET":"忠義路","SECT":"二段","MAREA":" ","LANE":"２３３巷","ALLEY":" ","HOUSE_NO":"５８號","E_COORD97":168336.14000000001,"N_COORD97":2544147.0699999998,"ADDRESS":"忠義路二段２３３巷５８號","OBJECTID":450978},"geometry":{"x":168336.1400000006,"y":2544147.0700000022}},{"attributes":{"ID":451004,"DIS_CODE":0,"TOWNNAME":"東區","LI":"富強里","LIN":"18鄰","STREET":"東門路","SECT":"二段","MAREA":" ","LANE":"３０１巷","ALLEY":" ","HOUSE_NO":"１０５號","E_COORD97":171009.84,"N_COORD97":2542737.0600000001,"ADDRESS":"東門路二段３０１巷１０５號","OBJECTID":450979},"geometry":{"x":171009.84000000078,"y":2542737.0600000024}},{"attributes":{"ID":451005,"DIS_CODE":0,"TOWNNAME":"東區","LI":"富強里","LIN":"18鄰","STREET":"東門路","SECT":"二段","MAREA":" ","LANE":"３０１巷","ALLEY":" ","HOUSE_NO":"１０７號","E_COORD97":171014.88,"N_COORD97":2542740.6800000002,"ADDRESS":"東門路二段３０１巷１０７號","OBJECTID":450980},"geometry":{"x":171014.88000000082,"y":2542740.6799999997}},{"attributes":{"ID":451006,"DIS_CODE":0,"TOWNNAME":"東區","LI":"富強里","LIN":"18鄰","STREET":"東門路","SECT":"二段","MAREA":" ","LANE":"３０１巷","ALLEY":" ","HOUSE_NO":"１１１號","E_COORD97":171023.01000000001,"N_COORD97":2542742.4500000002,"ADDRESS":"東門路二段３０１巷１１１號","OBJECTID":450981},"geometry":{"x":171023.00999999978,"y":2542742.450000003}},{"attributes":{"ID":451007,"DIS_CODE":0,"TOWNNAME":"學甲區","LI":"新達里","LIN":"5鄰","STREET":"中山路","SECT":" ","MAREA":" ","LANE":"７６巷","ALLEY":" ","HOUSE_NO":"１０號","E_COORD97":166330.20000000001,"N_COORD97":2570516.1899999999,"ADDRESS":"中山路７６巷１０號","OBJECTID":450982},"geometry":{"x":166330.20000000019,"y":2570516.1900000013}},{"attributes":{"ID":451008,"DIS_CODE":0,"TOWNNAME":"學甲區","LI":"新達里","LIN":"5鄰","STREET":"中山路","SECT":" ","MAREA":" ","LANE":"７６巷","ALLEY":" ","HOUSE_NO":"１２號","E_COORD97":166315.60999999999,"N_COORD97":2570520,"ADDRESS":"中山路７６巷１２號","OBJECTID":450983},"geometry":{"x":166315.61000000034,"y":2570520.0000000037}},{"attributes":{"ID":451009,"DIS_CODE":0,"TOWNNAME":"中西區","LI":"大涼里","LIN":"18鄰","STREET":"府前一街","SECT":" ","MAREA":" ","LANE":"１０９巷","ALLEY":" ","HOUSE_NO":"１２號","E_COORD97":166664.92999999999,"N_COORD97":2543989.7400000002,"ADDRESS":"府前一街１０９巷１２號","OBJECTID":450984},"geometry":{"x":166664.9299999997,"y":2543989.7400000021}},{"attributes":{"ID":451010,"DIS_CODE":0,"TOWNNAME":"中西區","LI":"大涼里","LIN":"18鄰","STREET":"府前一街","SECT":" ","MAREA":" ","LANE":"１０９巷","ALLEY":" ","HOUSE_NO":"２號","E_COORD97":166701.79000000001,"N_COORD97":2544001.3900000001,"ADDRESS":"府前一街１０９巷２號","OBJECTID":450985},"geometry":{"x":166701.79000000097,"y":2544001.3900000006}},{"attributes":{"ID":451011,"DIS_CODE":0,"TOWNNAME":"中西區","LI":"大涼里","LIN":"18鄰","STREET":"府前一街","SECT":" ","MAREA":" ","LANE":"１０９巷","ALLEY":" ","HOUSE_NO":"６號","E_COORD97":166692.89999999999,"N_COORD97":2543998.9900000002,"ADDRESS":"府前一街１０９巷６號","OBJECTID":450986},"geometry":{"x":166692.9000000013,"y":2543998.9900000021}},{"attributes":{"ID":451012,"DIS_CODE":0,"TOWNNAME":"中西區","LI":"大涼里","LIN":"18鄰","STREET":"府前一街","SECT":" ","MAREA":" ","LANE":"１０９巷","ALLEY":" ","HOUSE_NO":"８號","E_COORD97":166685.12,"N_COORD97":2543995.8399999999,"ADDRESS":"府前一街１０９巷８號","OBJECTID":450987},"geometry":{"x":166685.11999999918,"y":2543995.8400000017}},{"attributes":{"ID":451013,"DIS_CODE":0,"TOWNNAME":"南區","LI":"開南里","LIN":"24鄰","STREET":"\u25A0埕路","SECT":" ","MAREA":" ","LANE":"１３１巷","ALLEY":" ","HOUSE_NO":"１６３號九樓","E_COORD97":166523.69,"N_COORD97":2540877.46,"ADDRESS":"\u25A0埕路１３１巷１６３號九樓","OBJECTID":450988},"geometry":{"x":166523.69000000041,"y":2540877.4600000028}},{"attributes":{"ID":451014,"DIS_CODE":0,"TOWNNAME":"南區","LI":"開南里","LIN":"24鄰","STREET":"\u25A0埕路","SECT":" ","MAREA":" ","LANE":"１３１巷","ALLEY":" ","HOUSE_NO":"１６３號九樓之１","E_COORD97":166523.69,"N_COORD97":2540877.46,"ADDRESS":"\u25A0埕路１３１巷１６３號九樓之１","OBJECTID":450989},"geometry":{"x":166523.69000000041,"y":2540877.4600000028}},{"attributes":{"ID":451015,"DIS_CODE":0,"TOWNNAME":"南區","LI":"開南里","LIN":"24鄰","STREET":"\u25A0埕路","SECT":" ","MAREA":" ","LANE":"１３１巷","ALLEY":" ","HOUSE_NO":"１６３號九樓之２","E_COORD97":166523.69,"N_COORD97":2540877.46,"ADDRESS":"\u25A0埕路１３１巷１６３號九樓之２","OBJECTID":450990},"geometry":{"x":166523.69000000041,"y":2540877.4600000028}},{"attributes":{"ID":451016,"DIS_CODE":0,"TOWNNAME":"南區","LI":"開南里","LIN":"24鄰","STREET":"\u25A0埕路","SECT":" ","MAREA":" ","LANE":"１３１巷","ALLEY":" ","HOUSE_NO":"１６３號九樓之３","E_COORD97":166523.69,"N_COORD97":2540877.46,"ADDRESS":"\u25A0埕路１３１巷１６３號九樓之３","OBJECTID":450991},"geometry":{"x":166523.69000000041,"y":2540877.4600000028}},{"attributes":{"ID":451017,"DIS_CODE":0,"TOWNNAME":"南區","LI":"開南里","LIN":"24鄰","STREET":"\u25A0埕路","SECT":" ","MAREA":" ","LANE":"１３１巷","ALLEY":" ","HOUSE_NO":"１６３號二樓","E_COORD97":166523.69,"N_COORD97":2540877.46,"ADDRESS":"\u25A0埕路１３１巷１６３號二樓","OBJECTID":450992},"geometry":{"x":166523.69000000041,"y":2540877.4600000028}},{"attributes":{"ID":451018,"DIS_CODE":0,"TOWNNAME":"南區","LI":"開南里","LIN":"24鄰","STREET":"\u25A0埕路","SECT":" ","MAREA":" ","LANE":"１３１巷","ALLEY":" ","HOUSE_NO":"１６３號二樓之１","E_COORD97":166523.69,"N_COORD97":2540877.46,"ADDRESS":"\u25A0埕路１３１巷１６３號二樓之１","OBJECTID":450993},"geometry":{"x":166523.69000000041,"y":2540877.4600000028}},{"attributes":{"ID":451019,"DIS_CODE":0,"TOWNNAME":"南區","LI":"開南里","LIN":"24鄰","STREET":"\u25A0埕路","SECT":" ","MAREA":" ","LANE":"１３１巷","ALLEY":" ","HOUSE_NO":"１６３號二樓之２","E_COORD97":166523.69,"N_COORD97":2540877.46,"ADDRESS":"\u25A0埕路１３１巷１６３號二樓之２","OBJECTID":450994},"geometry":{"x":166523.69000000041,"y":2540877.4600000028}},{"attributes":{"ID":451020,"DIS_CODE":0,"TOWNNAME":"南區","LI":"開南里","LIN":"24鄰","STREET":"\u25A0埕路","SECT":" ","MAREA":" ","LANE":"１３１巷","ALLEY":" ","HOUSE_NO":"１６３號二樓之３","E_COORD97":166523.69,"N_COORD97":2540877.46,"ADDRESS":"\u25A0埕路１３１巷１６３號二樓之３","OBJECTID":450995},"geometry":{"x":166523.69000000041,"y":2540877.4600000028}},{"attributes":{"ID":451021,"DIS_CODE":0,"TOWNNAME":"南區","LI":"開南里","LIN":"24鄰","STREET":"\u25A0埕路","SECT":" ","MAREA":" ","LANE":"１３１巷","ALLEY":" ","HOUSE_NO":"１６３號八樓","E_COORD97":166523.69,"N_COORD97":2540877.46,"ADDRESS":"\u25A0埕路１３１巷１６３號八樓","OBJECTID":450996},"geometry":{"x":166523.69000000041,"y":2540877.4600000028}},{"attributes":{"ID":451022,"DIS_CODE":0,"TOWNNAME":"南區","LI":"開南里","LIN":"24鄰","STREET":"\u25A0埕路","SECT":" ","MAREA":" ","LANE":"１３１巷","ALLEY":" ","HOUSE_NO":"１６３號八樓之１","E_COORD97":166523.69,"N_COORD97":2540877.46,"ADDRESS":"\u25A0埕路１３１巷１６３號八樓之１","OBJECTID":450997},"geometry":{"x":166523.69000000041,"y":2540877.4600000028}},{"attributes":{"ID":451023,"DIS_CODE":0,"TOWNNAME":"南區","LI":"開南里","LIN":"24鄰","STREET":"\u25A0埕路","SECT":" ","MAREA":" ","LANE":"１３１巷","ALLEY":" ","HOUSE_NO":"１６３號八樓之２","E_COORD97":166523.69,"N_COORD97":2540877.46,"ADDRESS":"\u25A0埕路１３１巷１６３號八樓之２","OBJECTID":450998},"geometry":{"x":166523.69000000041,"y":2540877.4600000028}},{"attributes":{"ID":451024,"DIS_CODE":0,"TOWNNAME":"南區","LI":"開南里","LIN":"24鄰","STREET":"\u25A0埕路","SECT":" ","MAREA":" ","LANE":"１３１巷","ALLEY":" ","HOUSE_NO":"１６３號八樓之３","E_COORD97":166523.69,"N_COORD97":2540877.46,"ADDRESS":"\u25A0埕路１３１巷１６３號八樓之３","OBJECTID":450999},"geometry":{"x":166523.69000000041,"y":2540877.4600000028}},{"attributes":{"ID":451025,"DIS_CODE":0,"TOWNNAME":"東區","LI":"崇文里","LIN":"40鄰","STREET":"生產路","SECT":" ","MAREA":" ","LANE":" ","ALLEY":" ","HOUSE_NO":"２７３號五樓","E_COORD97":170903.01999999999,"N_COORD97":2540618.1099999999,"ADDRESS":"生產路２７３號五樓","OBJECTID":451000},"geometry":{"x":170903.02000000142,"y":2540618.1099999994}}]}