{"displayFieldName":"TOWNNAME","fieldAliases":{"ID":"ID","DIS_CODE":"DIS_CODE","TOWNNAME":"TOWNNAME","LI":"LI","LIN":"LIN","STREET":"STREET","SECT":"SECT","MAREA":"MAREA","LANE":"LANE","ALLEY":"ALLEY","HOUSE_NO":"HOUSE_NO","E_COORD97":"E_COORD97","N_COORD97":"N_COORD97","ADDRESS":"ADDRESS","OBJECTID":"OBJECTID"},"geometryType":"esriGeometryPoint","spatialReference":{"wkid":102443,"latestWkid":3826},"fields":[{"name":"ID","type":"esriFieldTypeDouble","alias":"ID"},{"name":"DIS_CODE","type":"esriFieldTypeInteger","alias":"DIS_CODE"},{"name":"TOWNNAME","type":"esriFieldTypeString","alias":"TOWNNAME","length":8},{"name":"LI","type":"esriFieldTypeString","alias":"LI","length":8},{"name":"LIN","type":"esriFieldTypeString","alias":"LIN","length":12},{"name":"STREET","type":"esriFieldTypeString","alias":"STREET","length":20},{"name":"SECT","type":"esriFieldTypeString","alias":"SECT","length":8},{"name":"MAREA","type":"esriFieldTypeString","alias":"MAREA","length":12},{"name":"LANE","type":"esriFieldTypeString","alias":"LANE","length":10},{"name":"ALLEY","type":"esriFieldTypeString","alias":"ALLEY","length":10},{"name":"HOUSE_NO","type":"esriFieldTypeString","alias":"HOUSE_NO","length":20},{"name":"E_COORD97","type":"esriFieldTypeDouble","alias":"E_COORD97"},{"name":"N_COORD97","type":"esriFieldTypeDouble","alias":"N_COORD97"},{"name":"ADDRESS","type":"esriFieldTypeString","alias":"ADDRESS","length":50},{"name":"OBJECTID","type":"esriFieldTypeOID","alias":"OBJECTID"}],"features":[{"attributes":{"ID":159202,"DIS_CODE":0,"TOWNNAME":"安定區","LI":"安定里","LIN":"5鄰","STREET":" ","SECT":" ","MAREA":"安定","LANE":" ","ALLEY":" ","HOUSE_NO":"２８之７號","E_COORD97":172113.57000000001,"N_COORD97":2557996.3199999998,"ADDRESS":"安定２８之７號","OBJECTID":159201},"geometry":{"x":172113.5700000003,"y":2557996.3200000003}},{"attributes":{"ID":159203,"DIS_CODE":0,"TOWNNAME":"安定區","LI":"港口里","LIN":"5鄰","STREET":" ","SECT":" ","MAREA":"港口","LANE":" ","ALLEY":" ","HOUSE_NO":"２６４之１２號","E_COORD97":171509.23999999999,"N_COORD97":2554674.2999999998,"ADDRESS":"港口２６４之１２號","OBJECTID":159202},"geometry":{"x":171509.24000000115,"y":2554674.3000000007}},{"attributes":{"ID":159204,"DIS_CODE":0,"TOWNNAME":"安定區","LI":"保西里","LIN":"5鄰","STREET":" ","SECT":" ","MAREA":"安定","LANE":" ","ALLEY":" ","HOUSE_NO":"３７７號","E_COORD97":171554.42000000001,"N_COORD97":2557662.3199999998,"ADDRESS":"安定３７７號","OBJECTID":159203},"geometry":{"x":171554.41999999993,"y":2557662.3200000022}},{"attributes":{"ID":159205,"DIS_CODE":0,"TOWNNAME":"安定區","LI":"保西里","LIN":"5鄰","STREET":" ","SECT":" ","MAREA":"安定","LANE":" ","ALLEY":" ","HOUSE_NO":"３７６號","E_COORD97":171572.82000000001,"N_COORD97":2557657.3199999998,"ADDRESS":"安定３７６號","OBJECTID":159204},"geometry":{"x":171572.8200000003,"y":2557657.3200000003}},{"attributes":{"ID":159206,"DIS_CODE":0,"TOWNNAME":"安定區","LI":"中沙里","LIN":"5鄰","STREET":" ","SECT":" ","MAREA":"沙崙","LANE":" ","ALLEY":" ","HOUSE_NO":"５之７號","E_COORD97":168827.62,"N_COORD97":2552628.2999999998,"ADDRESS":"沙崙５之７號","OBJECTID":159205},"geometry":{"x":168827.62000000011,"y":2552628.3000000026}},{"attributes":{"ID":159207,"DIS_CODE":0,"TOWNNAME":"安定區","LI":"保西里","LIN":"5鄰","STREET":" ","SECT":" ","MAREA":"安定","LANE":" ","ALLEY":" ","HOUSE_NO":"３７４號之１","E_COORD97":171606.51999999999,"N_COORD97":2557635.3199999998,"ADDRESS":"安定３７４之１號","OBJECTID":159206},"geometry":{"x":171606.52000000142,"y":2557635.3200000022}},{"attributes":{"ID":159208,"DIS_CODE":0,"TOWNNAME":"安定區","LI":"中榮里","LIN":"5鄰","STREET":" ","SECT":" ","MAREA":"許中營","LANE":" ","ALLEY":" ","HOUSE_NO":"５２之１號","E_COORD97":172353.14000000001,"N_COORD97":2555004.2999999998,"ADDRESS":"許中營５２之１號","OBJECTID":159207},"geometry":{"x":172353.13999999966,"y":2555004.2999999989}},{"attributes":{"ID":159209,"DIS_CODE":0,"TOWNNAME":"新營區","LI":"民榮里","LIN":"12鄰","STREET":"興農街","SECT":" ","MAREA":" ","LANE":" ","ALLEY":" ","HOUSE_NO":"６０號","E_COORD97":179254.89000000001,"N_COORD97":2577863.0499999998,"ADDRESS":"興農街６０號","OBJECTID":159208},"geometry":{"x":179254.8900000006,"y":2577863.0500000007}},{"attributes":{"ID":159210,"DIS_CODE":0,"TOWNNAME":"永康區","LI":"埔園里","LIN":"2鄰","STREET":"永埔街","SECT":" ","MAREA":" ","LANE":"１１６巷","ALLEY":"９弄","HOUSE_NO":"１６號四樓之３","E_COORD97":174005.69,"N_COORD97":2547723.8799999999,"ADDRESS":"永埔街１１６巷９弄１６號四樓之３","OBJECTID":159209},"geometry":{"x":174005.69000000134,"y":2547723.8800000008}},{"attributes":{"ID":159211,"DIS_CODE":0,"TOWNNAME":"永康區","LI":"埔園里","LIN":"2鄰","STREET":"永埔街","SECT":" ","MAREA":" ","LANE":"１１６巷","ALLEY":"９弄","HOUSE_NO":"２６號三樓之２","E_COORD97":173997.78,"N_COORD97":2547740.9700000002,"ADDRESS":"永埔街１１６巷９弄２６號三樓之２","OBJECTID":159210},"geometry":{"x":173997.78000000119,"y":2547740.9700000044}},{"attributes":{"ID":159212,"DIS_CODE":0,"TOWNNAME":"永康區","LI":"埔園里","LIN":"2鄰","STREET":"永埔街","SECT":" ","MAREA":" ","LANE":"１１６巷","ALLEY":"９弄","HOUSE_NO":"１６號三樓之２","E_COORD97":174005.73000000001,"N_COORD97":2547723.8799999999,"ADDRESS":"永埔街１１６巷９弄１６號三樓之２","OBJECTID":159211},"geometry":{"x":174005.73000000045,"y":2547723.8800000008}},{"attributes":{"ID":159213,"DIS_CODE":0,"TOWNNAME":"永康區","LI":"埔園里","LIN":"2鄰","STREET":"永埔街","SECT":" ","MAREA":" ","LANE":"１１６巷","ALLEY":"９弄","HOUSE_NO":"２６號六樓之２","E_COORD97":173997.78,"N_COORD97":2547740.9700000002,"ADDRESS":"永埔街１１６巷９弄２６號六樓之２","OBJECTID":159212},"geometry":{"x":173997.78000000119,"y":2547740.9700000044}},{"attributes":{"ID":159214,"DIS_CODE":0,"TOWNNAME":"永康區","LI":"埔園里","LIN":"2鄰","STREET":"永埔街","SECT":" ","MAREA":" ","LANE":"１１６巷","ALLEY":"９弄","HOUSE_NO":"１６號五樓之３","E_COORD97":174005.69,"N_COORD97":2547723.8799999999,"ADDRESS":"永埔街１１６巷９弄１６號五樓之３","OBJECTID":159213},"geometry":{"x":174005.69000000134,"y":2547723.8800000008}},{"attributes":{"ID":159215,"DIS_CODE":0,"TOWNNAME":"永康區","LI":"埔園里","LIN":"2鄰","STREET":"永埔街","SECT":" ","MAREA":" ","LANE":"１１６巷","ALLEY":"９弄","HOUSE_NO":"２６號六樓之３","E_COORD97":173997.73999999999,"N_COORD97":2547740.9700000002,"ADDRESS":"永埔街１１６巷９弄２６號六樓之３","OBJECTID":159214},"geometry":{"x":173997.74000000115,"y":2547740.9700000044}},{"attributes":{"ID":159216,"DIS_CODE":0,"TOWNNAME":"永康區","LI":"埔園里","LIN":"2鄰","STREET":"永埔街","SECT":" ","MAREA":" ","LANE":"１１６巷","ALLEY":"９弄","HOUSE_NO":"１６號六樓之３","E_COORD97":174005.69,"N_COORD97":2547723.8799999999,"ADDRESS":"永埔街１１６巷９弄１６號六樓之３","OBJECTID":159215},"geometry":{"x":174005.69000000134,"y":2547723.8800000008}},{"attributes":{"ID":159217,"DIS_CODE":0,"TOWNNAME":"永康區","LI":"埔園里","LIN":"2鄰","STREET":"永埔街","SECT":" ","MAREA":" ","LANE":"１１６巷","ALLEY":"９弄","HOUSE_NO":"２６號二樓之３","E_COORD97":173997.73999999999,"N_COORD97":2547740.9700000002,"ADDRESS":"永埔街１１６巷９弄２６號二樓之３","OBJECTID":159216},"geometry":{"x":173997.74000000115,"y":2547740.9700000044}},{"attributes":{"ID":159218,"DIS_CODE":0,"TOWNNAME":"永康區","LI":"埔園里","LIN":"2鄰","STREET":"永埔街","SECT":" ","MAREA":" ","LANE":"１１６巷","ALLEY":"９弄","HOUSE_NO":"１６號六樓之１","E_COORD97":174005.59,"N_COORD97":2547723.8799999999,"ADDRESS":"永埔街１１６巷９弄１６號六樓之１","OBJECTID":159217},"geometry":{"x":174005.59000000078,"y":2547723.8800000008}},{"attributes":{"ID":159219,"DIS_CODE":0,"TOWNNAME":"永康區","LI":"埔園里","LIN":"2鄰","STREET":"永埔街","SECT":" ","MAREA":" ","LANE":"１１６巷","ALLEY":"９弄","HOUSE_NO":"１６號五樓之４","E_COORD97":174005.62,"N_COORD97":2547723.8799999999,"ADDRESS":"永埔街１１６巷９弄１６號五樓之４","OBJECTID":159218},"geometry":{"x":174005.62000000104,"y":2547723.8800000008}},{"attributes":{"ID":159220,"DIS_CODE":0,"TOWNNAME":"永康區","LI":"埔園里","LIN":"2鄰","STREET":"永埔街","SECT":" ","MAREA":" ","LANE":"１１６巷","ALLEY":"９弄","HOUSE_NO":"２６號四樓之２","E_COORD97":173997.78,"N_COORD97":2547740.9700000002,"ADDRESS":"永埔街１１６巷９弄２６號四樓之２","OBJECTID":159219},"geometry":{"x":173997.78000000119,"y":2547740.9700000044}},{"attributes":{"ID":159221,"DIS_CODE":0,"TOWNNAME":"永康區","LI":"埔園里","LIN":"2鄰","STREET":"永埔街","SECT":" ","MAREA":" ","LANE":"１１６巷","ALLEY":"９弄","HOUSE_NO":"１６號五樓之１","E_COORD97":174005.59,"N_COORD97":2547723.8799999999,"ADDRESS":"永埔街１１６巷９弄１６號五樓之１","OBJECTID":159220},"geometry":{"x":174005.59000000078,"y":2547723.8800000008}},{"attributes":{"ID":159222,"DIS_CODE":0,"TOWNNAME":"永康區","LI":"埔園里","LIN":"2鄰","STREET":"永埔街","SECT":" ","MAREA":" ","LANE":"１１６巷","ALLEY":"９弄","HOUSE_NO":"１６號七樓之２","E_COORD97":174005.73000000001,"N_COORD97":2547723.8799999999,"ADDRESS":"永埔街１１６巷９弄１６號七樓之２","OBJECTID":159221},"geometry":{"x":174005.73000000045,"y":2547723.8800000008}},{"attributes":{"ID":159223,"DIS_CODE":0,"TOWNNAME":"永康區","LI":"埔園里","LIN":"2鄰","STREET":"永埔街","SECT":" ","MAREA":" ","LANE":"１１６巷","ALLEY":"９弄","HOUSE_NO":"１６號三樓之１","E_COORD97":174005.59,"N_COORD97":2547723.8799999999,"ADDRESS":"永埔街１１６巷９弄１６號三樓之１","OBJECTID":159222},"geometry":{"x":174005.59000000078,"y":2547723.8800000008}},{"attributes":{"ID":159224,"DIS_CODE":0,"TOWNNAME":"永康區","LI":"埔園里","LIN":"2鄰","STREET":"永埔街","SECT":" ","MAREA":" ","LANE":"１１６巷","ALLEY":"９弄","HOUSE_NO":"２６號五樓之１","E_COORD97":173997.64000000001,"N_COORD97":2547740.9700000002,"ADDRESS":"永埔街１１６巷９弄２６號五樓之１","OBJECTID":159223},"geometry":{"x":173997.64000000153,"y":2547740.9700000044}},{"attributes":{"ID":159225,"DIS_CODE":0,"TOWNNAME":"北區","LI":"振興里","LIN":"12鄰","STREET":"長榮路","SECT":"四段","MAREA":" ","LANE":" ","ALLEY":" ","HOUSE_NO":"９７號","E_COORD97":170278.19,"N_COORD97":2545063.7999999998,"ADDRESS":"長榮路四段９７號","OBJECTID":159224},"geometry":{"x":170278.19000000041,"y":2545063.8000000045}},{"attributes":{"ID":159226,"DIS_CODE":0,"TOWNNAME":"新營區","LI":"埤寮里","LIN":"12鄰","STREET":" ","SECT":" ","MAREA":"埤寮","LANE":" ","ALLEY":" ","HOUSE_NO":"９２號","E_COORD97":180380.79999999999,"N_COORD97":2580743.0800000001,"ADDRESS":"埤寮９２號","OBJECTID":159225},"geometry":{"x":180380.80000000168,"y":2580743.0800000019}},{"attributes":{"ID":159227,"DIS_CODE":0,"TOWNNAME":"安定區","LI":"港尾里","LIN":"5鄰","STREET":" ","SECT":" ","MAREA":"港子尾","LANE":" ","ALLEY":" ","HOUSE_NO":"２３號","E_COORD97":171492.09,"N_COORD97":2556086.2599999998,"ADDRESS":"港子尾２３號","OBJECTID":159226},"geometry":{"x":171492.08999999985,"y":2556086.2600000016}},{"attributes":{"ID":159228,"DIS_CODE":0,"TOWNNAME":"安定區","LI":"海寮里","LIN":"5鄰","STREET":" ","SECT":" ","MAREA":"海寮","LANE":" ","ALLEY":" ","HOUSE_NO":"５５號之３","E_COORD97":169441.53,"N_COORD97":2555318.2999999998,"ADDRESS":"海寮５５號之３","OBJECTID":159227},"geometry":{"x":169441.53000000119,"y":2555318.3000000007}},{"attributes":{"ID":159229,"DIS_CODE":0,"TOWNNAME":"安定區","LI":"安定里","LIN":"5鄰","STREET":" ","SECT":" ","MAREA":"安定","LANE":" ","ALLEY":" ","HOUSE_NO":"２３號","E_COORD97":172084.87,"N_COORD97":2558030.3199999998,"ADDRESS":"安定２３號","OBJECTID":159228},"geometry":{"x":172084.87000000104,"y":2558030.3200000003}},{"attributes":{"ID":159230,"DIS_CODE":0,"TOWNNAME":"新化區","LI":"全興里","LIN":"5鄰","STREET":" ","SECT":" ","MAREA":"竹子\u25A0","LANE":" ","ALLEY":" ","HOUSE_NO":"１９７號","E_COORD97":177869.13,"N_COORD97":2547512.25,"ADDRESS":"竹子\u25A0１９７號","OBJECTID":159229},"geometry":{"x":177869.12999999989,"y":2547512.2500000019}},{"attributes":{"ID":159231,"DIS_CODE":0,"TOWNNAME":"新化區","LI":"北勢里","LIN":"5鄰","STREET":" ","SECT":" ","MAREA":"北勢","LANE":" ","ALLEY":" ","HOUSE_NO":"８０號之１","E_COORD97":177282.56,"N_COORD97":2549668.2599999998,"ADDRESS":"北勢８０號之１","OBJECTID":159230},"geometry":{"x":177282.56000000052,"y":2549668.2600000016}},{"attributes":{"ID":159232,"DIS_CODE":0,"TOWNNAME":"新化區","LI":"北勢里","LIN":"5鄰","STREET":" ","SECT":" ","MAREA":"北勢","LANE":" ","ALLEY":" ","HOUSE_NO":"１１９號","E_COORD97":177214.28,"N_COORD97":2549590.2599999998,"ADDRESS":"北勢１１９號","OBJECTID":159231},"geometry":{"x":177214.28000000026,"y":2549590.2600000016}},{"attributes":{"ID":159233,"DIS_CODE":0,"TOWNNAME":"新化區","LI":"北勢里","LIN":"5鄰","STREET":" ","SECT":" ","MAREA":"北勢","LANE":" ","ALLEY":" ","HOUSE_NO":"８３號之１","E_COORD97":177251.95999999999,"N_COORD97":2549624.2599999998,"ADDRESS":"北勢８３號之１","OBJECTID":159232},"geometry":{"x":177251.95999999996,"y":2549624.2600000016}},{"attributes":{"ID":159234,"DIS_CODE":0,"TOWNNAME":"新化區","LI":"豐榮里","LIN":"5鄰","STREET":" ","SECT":" ","MAREA":"洋子","LANE":" ","ALLEY":" ","HOUSE_NO":"１２５號之１","E_COORD97":177831.51000000001,"N_COORD97":2548231.2599999998,"ADDRESS":"洋子１２５號之１","OBJECTID":159233},"geometry":{"x":177831.51000000164,"y":2548231.2600000016}},{"attributes":{"ID":159235,"DIS_CODE":0,"TOWNNAME":"麻豆區","LI":"小埤里","LIN":"5鄰","STREET":" ","SECT":" ","MAREA":"小埤頭","LANE":" ","ALLEY":" ","HOUSE_NO":"１７號之１","E_COORD97":171396.82000000001,"N_COORD97":2566051.6099999999,"ADDRESS":"小埤頭１７號之１","OBJECTID":159234},"geometry":{"x":171396.82000000216,"y":2566051.6100000013}},{"attributes":{"ID":159236,"DIS_CODE":0,"TOWNNAME":"新化區","LI":"全興里","LIN":"5鄰","STREET":" ","SECT":" ","MAREA":"竹子\u25A0","LANE":" ","ALLEY":" ","HOUSE_NO":"１９７號之７","E_COORD97":177748.67999999999,"N_COORD97":2547619.2599999998,"ADDRESS":"竹子\u25A0１９７號之７","OBJECTID":159235},"geometry":{"x":177748.6799999997,"y":2547619.2599999979}},{"attributes":{"ID":159237,"DIS_CODE":0,"TOWNNAME":"新化區","LI":"豐榮里","LIN":"5鄰","STREET":" ","SECT":" ","MAREA":"洋子","LANE":" ","ALLEY":" ","HOUSE_NO":"１２４號","E_COORD97":177830.670209,"N_COORD97":2548259.7460699999,"ADDRESS":"洋子１２４號","OBJECTID":159236},"geometry":{"x":177830.67020899989,"y":2548259.7460740022}},{"attributes":{"ID":159238,"DIS_CODE":0,"TOWNNAME":"新營區","LI":"民生里","LIN":"12鄰","STREET":"復興路","SECT":" ","MAREA":" ","LANE":" ","ALLEY":" ","HOUSE_NO":"１９０號","E_COORD97":179062.70000000001,"N_COORD97":2578056.6800000002,"ADDRESS":"復興路１９０號","OBJECTID":159237},"geometry":{"x":179062.70000000019,"y":2578056.6800000016}},{"attributes":{"ID":159239,"DIS_CODE":0,"TOWNNAME":"南區","LI":"文南里","LIN":"12鄰","STREET":"南明街","SECT":" ","MAREA":" ","LANE":" ","ALLEY":" ","HOUSE_NO":"３９號","E_COORD97":166791.78,"N_COORD97":2542789.1499999999,"ADDRESS":"南明街３９號","OBJECTID":159238},"geometry":{"x":166791.78000000119,"y":2542789.1500000004}},{"attributes":{"ID":159240,"DIS_CODE":0,"TOWNNAME":"南區","LI":"彰南里","LIN":"12鄰","STREET":"新孝路","SECT":" ","MAREA":" ","LANE":" ","ALLEY":" ","HOUSE_NO":"１８３號之１","E_COORD97":166340.07999999999,"N_COORD97":2542066.1499999999,"ADDRESS":"新孝路１８３號之１","OBJECTID":159239},"geometry":{"x":166340.08000000101,"y":2542066.1500000004}},{"attributes":{"ID":159241,"DIS_CODE":0,"TOWNNAME":"永康區","LI":"埔園里","LIN":"2鄰","STREET":"永埔街","SECT":" ","MAREA":" ","LANE":"１１６巷","ALLEY":"９弄","HOUSE_NO":"１６號四樓之５","E_COORD97":174005.62,"N_COORD97":2547723.8799999999,"ADDRESS":"永埔街１１６巷９弄１６號四樓之５","OBJECTID":159240},"geometry":{"x":174005.62000000104,"y":2547723.8800000008}},{"attributes":{"ID":159242,"DIS_CODE":0,"TOWNNAME":"永康區","LI":"甲頂里","LIN":"2鄰","STREET":"南台街","SECT":" ","MAREA":" ","LANE":"１３５巷","ALLEY":"７弄","HOUSE_NO":"１號三樓","E_COORD97":170034.06,"N_COORD97":2546816.4700000002,"ADDRESS":"南台街１３５巷７弄１號三樓","OBJECTID":159241},"geometry":{"x":170034.05999999959,"y":2546816.4700000025}},{"attributes":{"ID":159243,"DIS_CODE":0,"TOWNNAME":"永康區","LI":"甲頂里","LIN":"2鄰","STREET":"南台街","SECT":" ","MAREA":" ","LANE":"１３５巷","ALLEY":"７弄","HOUSE_NO":"１號二樓","E_COORD97":170034.06,"N_COORD97":2546816.4700000002,"ADDRESS":"南台街１３５巷７弄１號二樓","OBJECTID":159242},"geometry":{"x":170034.05999999959,"y":2546816.4700000025}},{"attributes":{"ID":159244,"DIS_CODE":0,"TOWNNAME":"歸仁區","LI":"武東里","LIN":"12鄰","STREET":" ","SECT":" ","MAREA":"明德新村","LANE":" ","ALLEY":" ","HOUSE_NO":"１３４號","E_COORD97":175235.73999999999,"N_COORD97":2536119.27,"ADDRESS":"明德新村１３４號","OBJECTID":159243},"geometry":{"x":175235.74000000115,"y":2536119.2700000014}},{"attributes":{"ID":159245,"DIS_CODE":0,"TOWNNAME":"歸仁區","LI":"武東里","LIN":"12鄰","STREET":" ","SECT":" ","MAREA":"明德新村","LANE":" ","ALLEY":" ","HOUSE_NO":"４９號","E_COORD97":175178.29000000001,"N_COORD97":2536157.27,"ADDRESS":"明德新村４９號","OBJECTID":159244},"geometry":{"x":175178.29000000004,"y":2536157.2700000014}},{"attributes":{"ID":159246,"DIS_CODE":0,"TOWNNAME":"歸仁區","LI":"武東里","LIN":"12鄰","STREET":" ","SECT":" ","MAREA":"明德新村","LANE":" ","ALLEY":" ","HOUSE_NO":"１６７號","E_COORD97":174996.84,"N_COORD97":2536127.27,"ADDRESS":"明德新村１６７號","OBJECTID":159245},"geometry":{"x":174996.84000000078,"y":2536127.2700000014}},{"attributes":{"ID":159247,"DIS_CODE":0,"TOWNNAME":"歸仁區","LI":"武東里","LIN":"12鄰","STREET":" ","SECT":" ","MAREA":"明德新村","LANE":" ","ALLEY":" ","HOUSE_NO":"８３號","E_COORD97":175283.79000000001,"N_COORD97":2536130.27,"ADDRESS":"明德新村８３號","OBJECTID":159246},"geometry":{"x":175283.7900000019,"y":2536130.2700000014}},{"attributes":{"ID":159248,"DIS_CODE":0,"TOWNNAME":"歸仁區","LI":"武東里","LIN":"12鄰","STREET":" ","SECT":" ","MAREA":"明德新村","LANE":" ","ALLEY":" ","HOUSE_NO":"１６號","E_COORD97":175136.39000000001,"N_COORD97":2536193.27,"ADDRESS":"明德新村１６號","OBJECTID":159247},"geometry":{"x":175136.38999999966,"y":2536193.2699999996}},{"attributes":{"ID":159249,"DIS_CODE":0,"TOWNNAME":"歸仁區","LI":"武東里","LIN":"12鄰","STREET":" ","SECT":" ","MAREA":"明德新村","LANE":" ","ALLEY":" ","HOUSE_NO":"１１２號","E_COORD97":175050.23999999999,"N_COORD97":2536147.27,"ADDRESS":"明德新村１１２號","OBJECTID":159248},"geometry":{"x":175050.24000000209,"y":2536147.2700000014}},{"attributes":{"ID":159250,"DIS_CODE":0,"TOWNNAME":"新化區","LI":"北勢里","LIN":"5鄰","STREET":" ","SECT":" ","MAREA":"北勢","LANE":" ","ALLEY":" ","HOUSE_NO":"７８號之１","E_COORD97":177316.66,"N_COORD97":2549676.2599999998,"ADDRESS":"北勢７８號之１","OBJECTID":159249},"geometry":{"x":177316.66000000015,"y":2549676.2599999998}},{"attributes":{"ID":159251,"DIS_CODE":0,"TOWNNAME":"新化區","LI":"知義里","LIN":"5鄰","STREET":" ","SECT":" ","MAREA":"知母義","LANE":" ","ALLEY":" ","HOUSE_NO":"７３號","E_COORD97":180143.47,"N_COORD97":2547216.25,"ADDRESS":"知母義７３號","OBJECTID":159250},"geometry":{"x":180143.46999999974,"y":2547216.2500000037}},{"attributes":{"ID":159252,"DIS_CODE":0,"TOWNNAME":"新化區","LI":"羊林里","LIN":"5鄰","STREET":" ","SECT":" ","MAREA":"\u25A0拔林","LANE":" ","ALLEY":" ","HOUSE_NO":"４６３號","E_COORD97":183606.82000000001,"N_COORD97":2551731.25,"ADDRESS":"\u25A0拔林４６３號","OBJECTID":159251},"geometry":{"x":183606.8200000003,"y":2551731.25}},{"attributes":{"ID":159253,"DIS_CODE":0,"TOWNNAME":"新化區","LI":"豐榮里","LIN":"5鄰","STREET":" ","SECT":" ","MAREA":"洋子","LANE":" ","ALLEY":" ","HOUSE_NO":"９５號之３","E_COORD97":177940.57999999999,"N_COORD97":2548295.2599999998,"ADDRESS":"洋子９５號之３","OBJECTID":159252},"geometry":{"x":177940.58000000101,"y":2548295.2600000016}},{"attributes":{"ID":159254,"DIS_CODE":0,"TOWNNAME":"新化區","LI":"豐榮里","LIN":"5鄰","STREET":" ","SECT":" ","MAREA":"洋子","LANE":" ","ALLEY":" ","HOUSE_NO":"８８號之１","E_COORD97":177841.35999999999,"N_COORD97":2548310.2599999998,"ADDRESS":"洋子８８號之１","OBJECTID":159253},"geometry":{"x":177841.36000000034,"y":2548310.2599999998}},{"attributes":{"ID":159255,"DIS_CODE":0,"TOWNNAME":"南區","LI":"文南里","LIN":"12鄰","STREET":"永南四街","SECT":" ","MAREA":" ","LANE":" ","ALLEY":" ","HOUSE_NO":"７０號","E_COORD97":166725.01000000001,"N_COORD97":2542760.46,"ADDRESS":"永南四街７０號","OBJECTID":159254},"geometry":{"x":166725.01000000071,"y":2542760.4600000009}},{"attributes":{"ID":159256,"DIS_CODE":0,"TOWNNAME":"南區","LI":"文南里","LIN":"12鄰","STREET":"南明街","SECT":" ","MAREA":" ","LANE":" ","ALLEY":" ","HOUSE_NO":"１１號","E_COORD97":166851.04000000001,"N_COORD97":2542785.7599999998,"ADDRESS":"南明街１１號","OBJECTID":159255},"geometry":{"x":166851.04000000004,"y":2542785.7600000016}},{"attributes":{"ID":159257,"DIS_CODE":0,"TOWNNAME":"麻豆區","LI":"小埤里","LIN":"5鄰","STREET":" ","SECT":" ","MAREA":"小埤頭","LANE":" ","ALLEY":" ","HOUSE_NO":"１８號","E_COORD97":171413.45000000001,"N_COORD97":2566015.8999999999,"ADDRESS":"小埤頭１８號","OBJECTID":159256},"geometry":{"x":171413.45000000112,"y":2566015.9000000022}},{"attributes":{"ID":159258,"DIS_CODE":0,"TOWNNAME":"永康區","LI":"甲頂里","LIN":"2鄰","STREET":"南台街","SECT":" ","MAREA":" ","LANE":"１３５巷","ALLEY":"７弄","HOUSE_NO":"１號一樓","E_COORD97":170034.06,"N_COORD97":2546816.4700000002,"ADDRESS":"南台街１３５巷７弄１號一樓","OBJECTID":159257},"geometry":{"x":170034.05999999959,"y":2546816.4700000025}},{"attributes":{"ID":159259,"DIS_CODE":0,"TOWNNAME":"永康區","LI":"五王里","LIN":"2鄰","STREET":"成功路","SECT":" ","MAREA":" ","LANE":"１７２巷","ALLEY":"８弄","HOUSE_NO":"１０號三樓之３","E_COORD97":171493.95000000001,"N_COORD97":2545595.2000000002,"ADDRESS":"成功路１７２巷８弄１０號三樓之３","OBJECTID":159258},"geometry":{"x":171493.94999999925,"y":2545595.200000003}},{"attributes":{"ID":159260,"DIS_CODE":0,"TOWNNAME":"東區","LI":"泉南里","LIN":"2鄰","STREET":"東門路","SECT":"一段","MAREA":" ","LANE":"５２巷","ALLEY":"３弄","HOUSE_NO":"１０號二樓","E_COORD97":169334.42999999999,"N_COORD97":2543155.1699999999,"ADDRESS":"東門路一段５２巷３弄１０號二樓","OBJECTID":159259},"geometry":{"x":169334.43000000063,"y":2543155.1700000037}},{"attributes":{"ID":159261,"DIS_CODE":0,"TOWNNAME":"西港區","LI":"營西里","LIN":"5鄰","STREET":" ","SECT":" ","MAREA":"後營","LANE":" ","ALLEY":" ","HOUSE_NO":"４１號","E_COORD97":169725.06,"N_COORD97":2560218.8199999998,"ADDRESS":"後營４１號","OBJECTID":159260},"geometry":{"x":169725.06000000052,"y":2560218.8200000022}},{"attributes":{"ID":159262,"DIS_CODE":0,"TOWNNAME":"南區","LI":"文南里","LIN":"12鄰","STREET":"南明街","SECT":" ","MAREA":" ","LANE":" ","ALLEY":" ","HOUSE_NO":"１３號","E_COORD97":166845.91,"N_COORD97":2542786.3300000001,"ADDRESS":"南明街１３號","OBJECTID":159261},"geometry":{"x":166845.91000000015,"y":2542786.3300000001}},{"attributes":{"ID":159263,"DIS_CODE":0,"TOWNNAME":"麻豆區","LI":"小埤里","LIN":"5鄰","STREET":" ","SECT":" ","MAREA":"小埤頭","LANE":" ","ALLEY":" ","HOUSE_NO":"１９號","E_COORD97":171405.47,"N_COORD97":2566031.6800000002,"ADDRESS":"小埤頭１９號","OBJECTID":159262},"geometry":{"x":171405.47000000067,"y":2566031.6799999997}},{"attributes":{"ID":159264,"DIS_CODE":0,"TOWNNAME":"麻豆區","LI":"小埤里","LIN":"5鄰","STREET":" ","SECT":" ","MAREA":"小埤頭","LANE":" ","ALLEY":" ","HOUSE_NO":"２０號之２","E_COORD97":171426.04999999999,"N_COORD97":2566031.9500000002,"ADDRESS":"小埤頭２０號之２","OBJECTID":159263},"geometry":{"x":171426.04999999981,"y":2566031.9500000011}},{"attributes":{"ID":159265,"DIS_CODE":0,"TOWNNAME":"仁德區","LI":"中生里","LIN":"5鄰","STREET":" ","SECT":" ","MAREA":"中洲","LANE":" ","ALLEY":" ","HOUSE_NO":"１２５號之２","E_COORD97":172920.67999999999,"N_COORD97":2534300.0499999998,"ADDRESS":"中洲１２５號之２","OBJECTID":159264},"geometry":{"x":172920.6799999997,"y":2534300.0500000007}},{"attributes":{"ID":159266,"DIS_CODE":0,"TOWNNAME":"佳里區","LI":"龍安里","LIN":"5鄰","STREET":" ","SECT":" ","MAREA":"塭子內","LANE":" ","ALLEY":" ","HOUSE_NO":"５２號之１","E_COORD97":164635.64999999999,"N_COORD97":2558374.5800000001,"ADDRESS":"塭子內５２號之１","OBJECTID":159265},"geometry":{"x":164635.65000000037,"y":2558374.5800000001}},{"attributes":{"ID":159267,"DIS_CODE":0,"TOWNNAME":"佳里區","LI":"龍安里","LIN":"5鄰","STREET":" ","SECT":" ","MAREA":"塭子內","LANE":" ","ALLEY":" ","HOUSE_NO":"５２號","E_COORD97":164618.47,"N_COORD97":2558370.1800000002,"ADDRESS":"塭子內５２號","OBJECTID":159266},"geometry":{"x":164618.47000000067,"y":2558370.1799999997}},{"attributes":{"ID":159268,"DIS_CODE":0,"TOWNNAME":"佳里區","LI":"龍安里","LIN":"5鄰","STREET":" ","SECT":" ","MAREA":"塭子內","LANE":" ","ALLEY":" ","HOUSE_NO":"５３號","E_COORD97":164654.62,"N_COORD97":2558362.1899999999,"ADDRESS":"塭子內５３號","OBJECTID":159267},"geometry":{"x":164654.62000000104,"y":2558362.1899999995}},{"attributes":{"ID":159269,"DIS_CODE":0,"TOWNNAME":"歸仁區","LI":"武東里","LIN":"12鄰","STREET":" ","SECT":" ","MAREA":"明德新村","LANE":" ","ALLEY":" ","HOUSE_NO":"４０號","E_COORD97":175244.89000000001,"N_COORD97":2536150.27,"ADDRESS":"明德新村４０號","OBJECTID":159268},"geometry":{"x":175244.88999999966,"y":2536150.2700000014}},{"attributes":{"ID":159270,"DIS_CODE":0,"TOWNNAME":"佳里區","LI":"龍安里","LIN":"5鄰","STREET":" ","SECT":" ","MAREA":"塭子內","LANE":" ","ALLEY":" ","HOUSE_NO":"５４號之１","E_COORD97":164832.92000000001,"N_COORD97":2558317.4199999999,"ADDRESS":"塭子內５４號之１","OBJECTID":159269},"geometry":{"x":164832.91999999993,"y":2558317.4199999999}},{"attributes":{"ID":159271,"DIS_CODE":0,"TOWNNAME":"佳里區","LI":"龍安里","LIN":"5鄰","STREET":" ","SECT":" ","MAREA":"塭子內","LANE":" ","ALLEY":" ","HOUSE_NO":"５４號之２","E_COORD97":164831.07999999999,"N_COORD97":2558346.8399999999,"ADDRESS":"塭子內５４號之２","OBJECTID":159270},"geometry":{"x":164831.08000000101,"y":2558346.8400000017}},{"attributes":{"ID":159272,"DIS_CODE":0,"TOWNNAME":"佳里區","LI":"龍安里","LIN":"5鄰","STREET":" ","SECT":" ","MAREA":"塭子內","LANE":" ","ALLEY":" ","HOUSE_NO":"５４號之３","E_COORD97":164865.82999999999,"N_COORD97":2558348.4199999999,"ADDRESS":"塭子內５４號之３","OBJECTID":159271},"geometry":{"x":164865.83000000007,"y":2558348.4199999999}},{"attributes":{"ID":159273,"DIS_CODE":0,"TOWNNAME":"佳里區","LI":"龍安里","LIN":"5鄰","STREET":" ","SECT":" ","MAREA":"塭子內","LANE":" ","ALLEY":" ","HOUSE_NO":"５５號之１","E_COORD97":164756.42000000001,"N_COORD97":2558556.71,"ADDRESS":"塭子內５５號之１","OBJECTID":159272},"geometry":{"x":164756.42000000086,"y":2558556.7100000009}},{"attributes":{"ID":159274,"DIS_CODE":0,"TOWNNAME":"佳里區","LI":"龍安里","LIN":"5鄰","STREET":" ","SECT":" ","MAREA":"塭子內","LANE":" ","ALLEY":" ","HOUSE_NO":"５５號之２","E_COORD97":164738.75,"N_COORD97":2558554.9100000001,"ADDRESS":"塭子內５５號之２","OBJECTID":159273},"geometry":{"x":164738.75000000093,"y":2558554.9100000001}},{"attributes":{"ID":159275,"DIS_CODE":0,"TOWNNAME":"佳里區","LI":"龍安里","LIN":"5鄰","STREET":" ","SECT":" ","MAREA":"塭子內","LANE":" ","ALLEY":" ","HOUSE_NO":"５５號","E_COORD97":164882.13,"N_COORD97":2558437.5499999998,"ADDRESS":"塭子內５５號","OBJECTID":159274},"geometry":{"x":164882.12999999989,"y":2558437.5500000026}},{"attributes":{"ID":159276,"DIS_CODE":0,"TOWNNAME":"佳里區","LI":"龍安里","LIN":"5鄰","STREET":" ","SECT":" ","MAREA":"塭子內","LANE":" ","ALLEY":" ","HOUSE_NO":"５６號之２","E_COORD97":164628.69,"N_COORD97":2558285.6699999999,"ADDRESS":"塭子內５６號之２","OBJECTID":159275},"geometry":{"x":164628.68999999948,"y":2558285.6699999999}},{"attributes":{"ID":159277,"DIS_CODE":0,"TOWNNAME":"佳里區","LI":"龍安里","LIN":"5鄰","STREET":" ","SECT":" ","MAREA":"塭子內","LANE":" ","ALLEY":" ","HOUSE_NO":"５６號","E_COORD97":164637.22,"N_COORD97":2558281.2599999998,"ADDRESS":"塭子內５６號","OBJECTID":159276},"geometry":{"x":164637.22000000067,"y":2558281.2599999998}},{"attributes":{"ID":159278,"DIS_CODE":0,"TOWNNAME":"佳里區","LI":"龍安里","LIN":"5鄰","STREET":" ","SECT":" ","MAREA":"塭子內","LANE":" ","ALLEY":" ","HOUSE_NO":"５７號","E_COORD97":164628.57000000001,"N_COORD97":2558326.8900000001,"ADDRESS":"塭子內５７號","OBJECTID":159277},"geometry":{"x":164628.57000000123,"y":2558326.8900000025}},{"attributes":{"ID":159279,"DIS_CODE":0,"TOWNNAME":"佳里區","LI":"龍安里","LIN":"5鄰","STREET":" ","SECT":" ","MAREA":"塭子內","LANE":" ","ALLEY":" ","HOUSE_NO":"５８號","E_COORD97":164596.17000000001,"N_COORD97":2558326.98,"ADDRESS":"塭子內５８號","OBJECTID":159278},"geometry":{"x":164596.17000000179,"y":2558326.9800000023}},{"attributes":{"ID":159280,"DIS_CODE":0,"TOWNNAME":"佳里區","LI":"龍安里","LIN":"5鄰","STREET":" ","SECT":" ","MAREA":"塭子內","LANE":" ","ALLEY":" ","HOUSE_NO":"５９號","E_COORD97":164589.54000000001,"N_COORD97":2558298.3799999999,"ADDRESS":"塭子內５９號","OBJECTID":159279},"geometry":{"x":164589.54000000097,"y":2558298.3800000008}},{"attributes":{"ID":159281,"DIS_CODE":0,"TOWNNAME":"佳里區","LI":"三協里","LIN":"5鄰","STREET":" ","SECT":" ","MAREA":"潭墘","LANE":" ","ALLEY":" ","HOUSE_NO":"１號之３","E_COORD97":168200.67000000001,"N_COORD97":2564019.3399999999,"ADDRESS":"潭墘１號之３","OBJECTID":159280},"geometry":{"x":168200.67000000086,"y":2564019.3400000017}},{"attributes":{"ID":159282,"DIS_CODE":0,"TOWNNAME":"東區","LI":"泉南里","LIN":"2鄰","STREET":"東門路","SECT":"一段","MAREA":" ","LANE":"５２巷","ALLEY":"３弄","HOUSE_NO":"１０號三樓","E_COORD97":169334.42999999999,"N_COORD97":2543155.1699999999,"ADDRESS":"東門路一段５２巷３弄１０號三樓","OBJECTID":159281},"geometry":{"x":169334.43000000063,"y":2543155.1700000037}},{"attributes":{"ID":159283,"DIS_CODE":0,"TOWNNAME":"東區","LI":"泉南里","LIN":"2鄰","STREET":"東門路","SECT":"一段","MAREA":" ","LANE":"５２巷","ALLEY":"３弄","HOUSE_NO":"１２號三樓","E_COORD97":169341.12,"N_COORD97":2543153.0800000001,"ADDRESS":"東門路一段５２巷３弄１２號三樓","OBJECTID":159282},"geometry":{"x":169341.12000000011,"y":2543153.0800000019}},{"attributes":{"ID":159284,"DIS_CODE":0,"TOWNNAME":"東區","LI":"泉南里","LIN":"2鄰","STREET":"東門路","SECT":"一段","MAREA":" ","LANE":"５２巷","ALLEY":"３弄","HOUSE_NO":"１２號四樓","E_COORD97":169341.12,"N_COORD97":2543153.0800000001,"ADDRESS":"東門路一段５２巷３弄１２號四樓","OBJECTID":159283},"geometry":{"x":169341.12000000011,"y":2543153.0800000019}},{"attributes":{"ID":159285,"DIS_CODE":0,"TOWNNAME":"六甲區","LI":"甲東里","LIN":"12鄰","STREET":"裕農街","SECT":" ","MAREA":" ","LANE":" ","ALLEY":" ","HOUSE_NO":"２８４號","E_COORD97":184133.38,"N_COORD97":2570015.2599999998,"ADDRESS":"裕農街２８４號","OBJECTID":159284},"geometry":{"x":184133.37999999989,"y":2570015.2599999998}},{"attributes":{"ID":159286,"DIS_CODE":0,"TOWNNAME":"六甲區","LI":"甲東里","LIN":"12鄰","STREET":"裕農街","SECT":" ","MAREA":" ","LANE":" ","ALLEY":" ","HOUSE_NO":"２８５號","E_COORD97":184135.25,"N_COORD97":2569976.9500000002,"ADDRESS":"裕農街２８５號","OBJECTID":159285},"geometry":{"x":184135.25000000093,"y":2569976.9499999974}},{"attributes":{"ID":159287,"DIS_CODE":0,"TOWNNAME":"六甲區","LI":"甲東里","LIN":"12鄰","STREET":"裕農街","SECT":" ","MAREA":" ","LANE":" ","ALLEY":" ","HOUSE_NO":"２８６號","E_COORD97":184128.64000000001,"N_COORD97":2570015.02,"ADDRESS":"裕農街２８６號","OBJECTID":159286},"geometry":{"x":184128.6400000006,"y":2570015.0200000014}},{"attributes":{"ID":159288,"DIS_CODE":0,"TOWNNAME":"佳里區","LI":"三協里","LIN":"5鄰","STREET":" ","SECT":" ","MAREA":"潭墘","LANE":" ","ALLEY":" ","HOUSE_NO":"１號","E_COORD97":168209.34,"N_COORD97":2563992.5699999998,"ADDRESS":"潭墘１號","OBJECTID":159287},"geometry":{"x":168209.34000000078,"y":2563992.5700000003}},{"attributes":{"ID":159289,"DIS_CODE":0,"TOWNNAME":"六甲區","LI":"甲東里","LIN":"12鄰","STREET":"裕農街","SECT":" ","MAREA":" ","LANE":" ","ALLEY":" ","HOUSE_NO":"２８７號","E_COORD97":184129.23000000001,"N_COORD97":2569976.8399999999,"ADDRESS":"裕農街２８７號","OBJECTID":159288},"geometry":{"x":184129.23000000045,"y":2569976.8399999999}},{"attributes":{"ID":159290,"DIS_CODE":0,"TOWNNAME":"佳里區","LI":"三協里","LIN":"5鄰","STREET":" ","SECT":" ","MAREA":"潭墘","LANE":" ","ALLEY":" ","HOUSE_NO":"２號","E_COORD97":168233.48000000001,"N_COORD97":2563972.3900000001,"ADDRESS":"潭墘２號","OBJECTID":159289},"geometry":{"x":168233.48000000045,"y":2563972.3900000025}},{"attributes":{"ID":159291,"DIS_CODE":0,"TOWNNAME":"佳里區","LI":"營頂里","LIN":"5鄰","STREET":" ","SECT":" ","MAREA":"營頂","LANE":" ","ALLEY":" ","HOUSE_NO":"４８號","E_COORD97":166963.67999999999,"N_COORD97":2566726.1200000001,"ADDRESS":"營頂４８號","OBJECTID":159290},"geometry":{"x":166963.6799999997,"y":2566726.120000001}},{"attributes":{"ID":159292,"DIS_CODE":0,"TOWNNAME":"東區","LI":"泉南里","LIN":"2鄰","STREET":"東門路","SECT":"一段","MAREA":" ","LANE":"５２巷","ALLEY":"３弄","HOUSE_NO":"１４號三樓","E_COORD97":169348.76000000001,"N_COORD97":2543150.6800000002,"ADDRESS":"東門路一段５２巷３弄１４號三樓","OBJECTID":159291},"geometry":{"x":169348.76000000164,"y":2543150.6799999997}},{"attributes":{"ID":159293,"DIS_CODE":0,"TOWNNAME":"東區","LI":"泉南里","LIN":"2鄰","STREET":"東門路","SECT":"一段","MAREA":" ","LANE":"５２巷","ALLEY":"３弄","HOUSE_NO":"１４號四樓","E_COORD97":169348.76000000001,"N_COORD97":2543150.6800000002,"ADDRESS":"東門路一段５２巷３弄１４號四樓","OBJECTID":159292},"geometry":{"x":169348.76000000164,"y":2543150.6799999997}},{"attributes":{"ID":159294,"DIS_CODE":0,"TOWNNAME":"東區","LI":"泉南里","LIN":"2鄰","STREET":"東門路","SECT":"一段","MAREA":" ","LANE":"５２巷","ALLEY":"３弄","HOUSE_NO":"２號四樓","E_COORD97":169305.04000000001,"N_COORD97":2543167.3999999999,"ADDRESS":"東門路一段５２巷３弄２號四樓","OBJECTID":159293},"geometry":{"x":169305.04000000097,"y":2543167.3999999985}},{"attributes":{"ID":159295,"DIS_CODE":0,"TOWNNAME":"佳里區","LI":"營頂里","LIN":"5鄰","STREET":" ","SECT":" ","MAREA":"營頂","LANE":" ","ALLEY":" ","HOUSE_NO":"４９號","E_COORD97":166976.57999999999,"N_COORD97":2566693.0499999998,"ADDRESS":"營頂４９號","OBJECTID":159294},"geometry":{"x":166976.58000000007,"y":2566693.0500000026}},{"attributes":{"ID":159296,"DIS_CODE":0,"TOWNNAME":"佳里區","LI":"營頂里","LIN":"5鄰","STREET":" ","SECT":" ","MAREA":"營頂","LANE":" ","ALLEY":" ","HOUSE_NO":"５０號之１","E_COORD97":167005.94,"N_COORD97":2566719.9300000002,"ADDRESS":"營頂５０號之１","OBJECTID":159295},"geometry":{"x":167005.94000000134,"y":2566719.9300000016}},{"attributes":{"ID":159297,"DIS_CODE":0,"TOWNNAME":"佳里區","LI":"營頂里","LIN":"5鄰","STREET":" ","SECT":" ","MAREA":"營頂","LANE":" ","ALLEY":" ","HOUSE_NO":"５２號之１","E_COORD97":167043.64999999999,"N_COORD97":2566783.5800000001,"ADDRESS":"營頂５２號之１","OBJECTID":159296},"geometry":{"x":167043.6500000013,"y":2566783.5800000038}},{"attributes":{"ID":159298,"DIS_CODE":0,"TOWNNAME":"佳里區","LI":"營頂里","LIN":"5鄰","STREET":" ","SECT":" ","MAREA":"營頂","LANE":" ","ALLEY":" ","HOUSE_NO":"５２號之６","E_COORD97":167145.67000000001,"N_COORD97":2566791.4900000002,"ADDRESS":"營頂５２號之６","OBJECTID":159297},"geometry":{"x":167145.66999999899,"y":2566791.4900000021}},{"attributes":{"ID":159299,"DIS_CODE":0,"TOWNNAME":"六甲區","LI":"甲東里","LIN":"12鄰","STREET":"裕農街","SECT":" ","MAREA":" ","LANE":" ","ALLEY":" ","HOUSE_NO":"２８８號","E_COORD97":184123.48000000001,"N_COORD97":2570014.98,"ADDRESS":"裕農街２８８號","OBJECTID":159298},"geometry":{"x":184123.48000000138,"y":2570014.9800000004}},{"attributes":{"ID":159300,"DIS_CODE":0,"TOWNNAME":"佳里區","LI":"營頂里","LIN":"5鄰","STREET":" ","SECT":" ","MAREA":"營頂","LANE":" ","ALLEY":" ","HOUSE_NO":"５２號","E_COORD97":167026.56,"N_COORD97":2566728.25,"ADDRESS":"營頂５２號","OBJECTID":159299},"geometry":{"x":167026.56000000052,"y":2566728.2500000019}},{"attributes":{"ID":159301,"DIS_CODE":0,"TOWNNAME":"佳里區","LI":"營頂里","LIN":"5鄰","STREET":" ","SECT":" ","MAREA":"營頂","LANE":" ","ALLEY":" ","HOUSE_NO":"５３號","E_COORD97":167031.62,"N_COORD97":2566705.9300000002,"ADDRESS":"營頂５３號","OBJECTID":159300},"geometry":{"x":167031.62000000104,"y":2566705.9300000034}},{"attributes":{"ID":159302,"DIS_CODE":0,"TOWNNAME":"佳里區","LI":"營頂里","LIN":"5鄰","STREET":" ","SECT":" ","MAREA":"營頂","LANE":" ","ALLEY":" ","HOUSE_NO":"５４號","E_COORD97":166975.25,"N_COORD97":2566669.52,"ADDRESS":"營頂５４號","OBJECTID":159301},"geometry":{"x":166975.25,"y":2566669.5200000014}},{"attributes":{"ID":159303,"DIS_CODE":0,"TOWNNAME":"佳里區","LI":"營頂里","LIN":"5鄰","STREET":" ","SECT":" ","MAREA":"營頂","LANE":" ","ALLEY":" ","HOUSE_NO":"５５號","E_COORD97":166956.70999999999,"N_COORD97":2566661.3100000001,"ADDRESS":"營頂５５號","OBJECTID":159302},"geometry":{"x":166956.70999999996,"y":2566661.3100000024}},{"attributes":{"ID":159304,"DIS_CODE":0,"TOWNNAME":"南區","LI":"金華里","LIN":"12鄰","STREET":"健康路","SECT":"二段","MAREA":" ","LANE":" ","ALLEY":" ","HOUSE_NO":"２６５號","E_COORD97":166958.76000000001,"N_COORD97":2542462.48,"ADDRESS":"健康路二段２６５號","OBJECTID":159303},"geometry":{"x":166958.76000000071,"y":2542462.4800000023}},{"attributes":{"ID":159305,"DIS_CODE":0,"TOWNNAME":"東山區","LI":"大客里","LIN":"12鄰","STREET":" ","SECT":" ","MAREA":"大庄","LANE":" ","ALLEY":" ","HOUSE_NO":"９０號","E_COORD97":190509.31,"N_COORD97":2578987.0699999998,"ADDRESS":"大庄９０號","OBJECTID":159304},"geometry":{"x":190509.31000000145,"y":2578987.0700000022}},{"attributes":{"ID":159306,"DIS_CODE":0,"TOWNNAME":"麻豆區","LI":"小埤里","LIN":"5鄰","STREET":" ","SECT":" ","MAREA":"小埤頭","LANE":" ","ALLEY":" ","HOUSE_NO":"２４號","E_COORD97":171438.07999999999,"N_COORD97":2566055.2000000002,"ADDRESS":"小埤頭２４號","OBJECTID":159305},"geometry":{"x":171438.08000000007,"y":2566055.1999999993}},{"attributes":{"ID":159307,"DIS_CODE":0,"TOWNNAME":"麻豆區","LI":"小埤里","LIN":"5鄰","STREET":" ","SECT":" ","MAREA":"小埤頭","LANE":" ","ALLEY":" ","HOUSE_NO":"２５號","E_COORD97":171464.31,"N_COORD97":2566069.0600000001,"ADDRESS":"小埤頭２５號","OBJECTID":159306},"geometry":{"x":171464.31000000052,"y":2566069.0600000024}},{"attributes":{"ID":159308,"DIS_CODE":0,"TOWNNAME":"麻豆區","LI":"小埤里","LIN":"5鄰","STREET":" ","SECT":" ","MAREA":"小埤頭","LANE":" ","ALLEY":" ","HOUSE_NO":"２７號","E_COORD97":171494.89999999999,"N_COORD97":2566067.3700000001,"ADDRESS":"小埤頭２７號","OBJECTID":159307},"geometry":{"x":171494.9000000013,"y":2566067.3700000029}},{"attributes":{"ID":159309,"DIS_CODE":0,"TOWNNAME":"西港區","LI":"西港里","LIN":"5鄰","STREET":" ","SECT":" ","MAREA":"西港","LANE":" ","ALLEY":" ","HOUSE_NO":"２號之３０","E_COORD97":168958.10000000001,"N_COORD97":2558518.1200000001,"ADDRESS":"西港２號之３０","OBJECTID":159308},"geometry":{"x":168958.10000000149,"y":2558518.120000001}},{"attributes":{"ID":159310,"DIS_CODE":0,"TOWNNAME":"西港區","LI":"西港里","LIN":"5鄰","STREET":" ","SECT":" ","MAREA":"西港","LANE":" ","ALLEY":" ","HOUSE_NO":"２之３１號","E_COORD97":168974.79000000001,"N_COORD97":2558533.4100000001,"ADDRESS":"西港２之３１號","OBJECTID":159309},"geometry":{"x":168974.79000000097,"y":2558533.410000002}},{"attributes":{"ID":159311,"DIS_CODE":0,"TOWNNAME":"西港區","LI":"西港里","LIN":"5鄰","STREET":" ","SECT":" ","MAREA":"西港","LANE":" ","ALLEY":" ","HOUSE_NO":"２號之３１","E_COORD97":168974.79000000001,"N_COORD97":2558533.4100000001,"ADDRESS":"西港２號之３１","OBJECTID":159310},"geometry":{"x":168974.79000000097,"y":2558533.410000002}},{"attributes":{"ID":159312,"DIS_CODE":0,"TOWNNAME":"西港區","LI":"西港里","LIN":"5鄰","STREET":" ","SECT":" ","MAREA":"西港","LANE":" ","ALLEY":" ","HOUSE_NO":"２之３２號","E_COORD97":168919.28,"N_COORD97":2558461.1499999999,"ADDRESS":"西港２之３２號","OBJECTID":159311},"geometry":{"x":168919.28000000119,"y":2558461.1500000022}},{"attributes":{"ID":159313,"DIS_CODE":0,"TOWNNAME":"西港區","LI":"西港里","LIN":"5鄰","STREET":" ","SECT":" ","MAREA":"西港","LANE":" ","ALLEY":" ","HOUSE_NO":"２號之３","E_COORD97":169041.70000000001,"N_COORD97":2558593.0600000001,"ADDRESS":"西港２號之３","OBJECTID":159312},"geometry":{"x":169041.70000000112,"y":2558593.0600000042}},{"attributes":{"ID":159314,"DIS_CODE":0,"TOWNNAME":"西港區","LI":"西港里","LIN":"5鄰","STREET":" ","SECT":" ","MAREA":"西港","LANE":" ","ALLEY":" ","HOUSE_NO":"２號之６０","E_COORD97":169145.85000000001,"N_COORD97":2558925.5800000001,"ADDRESS":"西港２號之６０","OBJECTID":159313},"geometry":{"x":169145.84999999963,"y":2558925.5800000019}},{"attributes":{"ID":159315,"DIS_CODE":0,"TOWNNAME":"西港區","LI":"西港里","LIN":"5鄰","STREET":" ","SECT":" ","MAREA":"西港","LANE":" ","ALLEY":" ","HOUSE_NO":"２號之６","E_COORD97":169003.62,"N_COORD97":2558536.04,"ADDRESS":"西港２號之６","OBJECTID":159314},"geometry":{"x":169003.62000000011,"y":2558536.0399999991}},{"attributes":{"ID":159316,"DIS_CODE":0,"TOWNNAME":"西港區","LI":"西港里","LIN":"5鄰","STREET":" ","SECT":" ","MAREA":"西港","LANE":" ","ALLEY":" ","HOUSE_NO":"２號之７","E_COORD97":169073.70000000001,"N_COORD97":2558546.52,"ADDRESS":"西港２號之７","OBJECTID":159315},"geometry":{"x":169073.70000000112,"y":2558546.5199999996}},{"attributes":{"ID":159317,"DIS_CODE":0,"TOWNNAME":"西港區","LI":"西港里","LIN":"5鄰","STREET":" ","SECT":" ","MAREA":"西港","LANE":" ","ALLEY":" ","HOUSE_NO":"２號之８","E_COORD97":169087.17000000001,"N_COORD97":2558564.1699999999,"ADDRESS":"西港２號之８","OBJECTID":159316},"geometry":{"x":169087.17000000086,"y":2558564.1699999981}},{"attributes":{"ID":159318,"DIS_CODE":0,"TOWNNAME":"西港區","LI":"西港里","LIN":"5鄰","STREET":" ","SECT":" ","MAREA":"西港","LANE":" ","ALLEY":" ","HOUSE_NO":"２號之９","E_COORD97":169090.89999999999,"N_COORD97":2558568.1099999999,"ADDRESS":"西港２號之９","OBJECTID":159317},"geometry":{"x":169090.90000000224,"y":2558568.1100000013}},{"attributes":{"ID":159319,"DIS_CODE":0,"TOWNNAME":"西港區","LI":"南海里","LIN":"5鄰","STREET":" ","SECT":" ","MAREA":"南海埔","LANE":" ","ALLEY":" ","HOUSE_NO":"３６號之１","E_COORD97":167748.56,"N_COORD97":2557570.6299999999,"ADDRESS":"南海埔３６號之１","OBJECTID":159318},"geometry":{"x":167748.56000000052,"y":2557570.6300000008}},{"attributes":{"ID":159320,"DIS_CODE":0,"TOWNNAME":"西港區","LI":"南海里","LIN":"5鄰","STREET":" ","SECT":" ","MAREA":"南海埔","LANE":" ","ALLEY":" ","HOUSE_NO":"３６號","E_COORD97":167757.66,"N_COORD97":2557564.7799999998,"ADDRESS":"南海埔３６號","OBJECTID":159319},"geometry":{"x":167757.66000000015,"y":2557564.7799999993}},{"attributes":{"ID":159321,"DIS_CODE":0,"TOWNNAME":"西港區","LI":"南海里","LIN":"5鄰","STREET":" ","SECT":" ","MAREA":"南海埔","LANE":" ","ALLEY":" ","HOUSE_NO":"３７號","E_COORD97":167753.79000000001,"N_COORD97":2557524.3900000001,"ADDRESS":"南海埔３７號","OBJECTID":159320},"geometry":{"x":167753.7900000019,"y":2557524.3900000025}},{"attributes":{"ID":159322,"DIS_CODE":0,"TOWNNAME":"西港區","LI":"南海里","LIN":"5鄰","STREET":" ","SECT":" ","MAREA":"南海埔","LANE":" ","ALLEY":" ","HOUSE_NO":"３８號之１","E_COORD97":167721.42000000001,"N_COORD97":2557495.6600000001,"ADDRESS":"南海埔３８號之１","OBJECTID":159321},"geometry":{"x":167721.41999999993,"y":2557495.6600000001}},{"attributes":{"ID":159323,"DIS_CODE":0,"TOWNNAME":"西港區","LI":"南海里","LIN":"5鄰","STREET":" ","SECT":" ","MAREA":"南海埔","LANE":" ","ALLEY":" ","HOUSE_NO":"３８號","E_COORD97":167731.48000000001,"N_COORD97":2557489.8399999999,"ADDRESS":"南海埔３８號","OBJECTID":159322},"geometry":{"x":167731.48000000138,"y":2557489.8400000017}},{"attributes":{"ID":159324,"DIS_CODE":0,"TOWNNAME":"西港區","LI":"南海里","LIN":"5鄰","STREET":" ","SECT":" ","MAREA":"南海埔","LANE":" ","ALLEY":" ","HOUSE_NO":"３９號","E_COORD97":167684.66,"N_COORD97":2557488.48,"ADDRESS":"南海埔３９號","OBJECTID":159323},"geometry":{"x":167684.66000000015,"y":2557488.4800000023}},{"attributes":{"ID":159325,"DIS_CODE":0,"TOWNNAME":"西港區","LI":"南海里","LIN":"5鄰","STREET":" ","SECT":" ","MAREA":"南海埔","LANE":" ","ALLEY":" ","HOUSE_NO":"４０號之２","E_COORD97":167704.37,"N_COORD97":2557476.8599999999,"ADDRESS":"南海埔４０號之２","OBJECTID":159324},"geometry":{"x":167704.37000000104,"y":2557476.8599999994}},{"attributes":{"ID":159326,"DIS_CODE":0,"TOWNNAME":"西港區","LI":"南海里","LIN":"5鄰","STREET":" ","SECT":" ","MAREA":"南海埔","LANE":" ","ALLEY":" ","HOUSE_NO":"４０號之３","E_COORD97":167696.23000000001,"N_COORD97":2557474.4900000002,"ADDRESS":"南海埔４０號之３","OBJECTID":159325},"geometry":{"x":167696.23000000045,"y":2557474.4900000021}},{"attributes":{"ID":159327,"DIS_CODE":0,"TOWNNAME":"西港區","LI":"南海里","LIN":"5鄰","STREET":" ","SECT":" ","MAREA":"南海埔","LANE":" ","ALLEY":" ","HOUSE_NO":"４１號","E_COORD97":167711.35999999999,"N_COORD97":2557480.0099999998,"ADDRESS":"南海埔４１號","OBJECTID":159326},"geometry":{"x":167711.36000000127,"y":2557480.0099999998}},{"attributes":{"ID":159328,"DIS_CODE":0,"TOWNNAME":"西港區","LI":"後營里","LIN":"5鄰","STREET":" ","SECT":" ","MAREA":"後營","LANE":" ","ALLEY":" ","HOUSE_NO":"１８８號","E_COORD97":169923.66,"N_COORD97":2560319.5,"ADDRESS":"後營１８８號","OBJECTID":159327},"geometry":{"x":169923.66000000108,"y":2560319.5000000019}},{"attributes":{"ID":159329,"DIS_CODE":0,"TOWNNAME":"西港區","LI":"後營里","LIN":"5鄰","STREET":" ","SECT":" ","MAREA":"後營","LANE":" ","ALLEY":" ","HOUSE_NO":"１８９號","E_COORD97":169928.76999999999,"N_COORD97":2560304.4100000001,"ADDRESS":"後營１８９號","OBJECTID":159328},"geometry":{"x":169928.77000000048,"y":2560304.4100000001}},{"attributes":{"ID":159330,"DIS_CODE":0,"TOWNNAME":"西港區","LI":"後營里","LIN":"5鄰","STREET":" ","SECT":" ","MAREA":"後營","LANE":" ","ALLEY":" ","HOUSE_NO":"１９０號","E_COORD97":169942.70999999999,"N_COORD97":2560302.8999999999,"ADDRESS":"後營１９０號","OBJECTID":159329},"geometry":{"x":169942.71000000183,"y":2560302.9000000022}},{"attributes":{"ID":159331,"DIS_CODE":0,"TOWNNAME":"西港區","LI":"後營里","LIN":"5鄰","STREET":" ","SECT":" ","MAREA":"後營","LANE":" ","ALLEY":" ","HOUSE_NO":"１９１號之１","E_COORD97":169969.57000000001,"N_COORD97":2560296.9900000002,"ADDRESS":"後營１９１號之１","OBJECTID":159330},"geometry":{"x":169969.57000000123,"y":2560296.9900000002}},{"attributes":{"ID":159332,"DIS_CODE":0,"TOWNNAME":"西港區","LI":"後營里","LIN":"5鄰","STREET":" ","SECT":" ","MAREA":"後營","LANE":" ","ALLEY":" ","HOUSE_NO":"１９１號之２","E_COORD97":169962.64999999999,"N_COORD97":2560299.0600000001,"ADDRESS":"後營１９１號之２","OBJECTID":159331},"geometry":{"x":169962.6500000013,"y":2560299.0600000024}},{"attributes":{"ID":159333,"DIS_CODE":0,"TOWNNAME":"西港區","LI":"後營里","LIN":"5鄰","STREET":" ","SECT":" ","MAREA":"後營","LANE":" ","ALLEY":" ","HOUSE_NO":"１９１號","E_COORD97":169958.10000000001,"N_COORD97":2560327.77,"ADDRESS":"後營１９１號","OBJECTID":159332},"geometry":{"x":169958.09999999963,"y":2560327.7700000014}},{"attributes":{"ID":159334,"DIS_CODE":0,"TOWNNAME":"東區","LI":"泉南里","LIN":"2鄰","STREET":"東門路","SECT":"一段","MAREA":" ","LANE":"５２巷","ALLEY":"３弄","HOUSE_NO":"４號二樓","E_COORD97":169313.20000000001,"N_COORD97":2543163.3199999998,"ADDRESS":"東門路一段５２巷３弄４號二樓","OBJECTID":159333},"geometry":{"x":169313.20000000019,"y":2543163.3200000003}},{"attributes":{"ID":159335,"DIS_CODE":0,"TOWNNAME":"西港區","LI":"後營里","LIN":"5鄰","STREET":" ","SECT":" ","MAREA":"後營","LANE":" ","ALLEY":" ","HOUSE_NO":"１９２號","E_COORD97":169982.32000000001,"N_COORD97":2560340.0899999999,"ADDRESS":"後營１９２號","OBJECTID":159334},"geometry":{"x":169982.3200000003,"y":2560340.0899999999}},{"attributes":{"ID":159336,"DIS_CODE":0,"TOWNNAME":"東區","LI":"泉南里","LIN":"2鄰","STREET":"東門路","SECT":"一段","MAREA":" ","LANE":"５２巷","ALLEY":"３弄","HOUSE_NO":"４號三樓","E_COORD97":169313.20000000001,"N_COORD97":2543163.3199999998,"ADDRESS":"東門路一段５２巷３弄４號三樓","OBJECTID":159335},"geometry":{"x":169313.20000000019,"y":2543163.3200000003}},{"attributes":{"ID":159337,"DIS_CODE":0,"TOWNNAME":"西港區","LI":"後營里","LIN":"5鄰","STREET":" ","SECT":" ","MAREA":"後營","LANE":" ","ALLEY":" ","HOUSE_NO":"１９３號之１","E_COORD97":170038.94,"N_COORD97":2560333.79,"ADDRESS":"後營１９３號之１","OBJECTID":159336},"geometry":{"x":170038.94000000134,"y":2560333.790000001}},{"attributes":{"ID":159338,"DIS_CODE":0,"TOWNNAME":"北區","LI":"長德里","LIN":"12鄰","STREET":"長北街","SECT":" ","MAREA":" ","LANE":" ","ALLEY":" ","HOUSE_NO":"２００號","E_COORD97":168533.32000000001,"N_COORD97":2544965.3799999999,"ADDRESS":"長北街２００號","OBJECTID":159337},"geometry":{"x":168533.3200000003,"y":2544965.379999999}},{"attributes":{"ID":159339,"DIS_CODE":0,"TOWNNAME":"北區","LI":"長德里","LIN":"12鄰","STREET":"長北街","SECT":" ","MAREA":" ","LANE":" ","ALLEY":" ","HOUSE_NO":"２０２號","E_COORD97":168535.06,"N_COORD97":2544971.27,"ADDRESS":"長北街２０２號","OBJECTID":159338},"geometry":{"x":168535.06000000052,"y":2544971.2700000033}},{"attributes":{"ID":159340,"DIS_CODE":0,"TOWNNAME":"北區","LI":"長德里","LIN":"12鄰","STREET":"長北街","SECT":" ","MAREA":" ","LANE":" ","ALLEY":" ","HOUSE_NO":"２０４號","E_COORD97":168550.72,"N_COORD97":2545002.8700000001,"ADDRESS":"長北街２０４號","OBJECTID":159339},"geometry":{"x":168550.72000000067,"y":2545002.8700000048}},{"attributes":{"ID":159341,"DIS_CODE":0,"TOWNNAME":"北區","LI":"長德里","LIN":"12鄰","STREET":"長北街","SECT":" ","MAREA":" ","LANE":" ","ALLEY":" ","HOUSE_NO":"２０６號","E_COORD97":168556.95999999999,"N_COORD97":2545019.4700000002,"ADDRESS":"長北街２０６號","OBJECTID":159340},"geometry":{"x":168556.95999999996,"y":2545019.4700000025}},{"attributes":{"ID":159342,"DIS_CODE":0,"TOWNNAME":"將軍區","LI":"仁和里","LIN":"22鄰","STREET":" ","SECT":" ","MAREA":"和巷","LANE":" ","ALLEY":" ","HOUSE_NO":"９６號","E_COORD97":163876.48000000001,"N_COORD97":2569246.1699999999,"ADDRESS":"和巷９６號","OBJECTID":159341},"geometry":{"x":163876.48000000138,"y":2569246.1699999999}},{"attributes":{"ID":159343,"DIS_CODE":0,"TOWNNAME":"北區","LI":"長德里","LIN":"12鄰","STREET":"長北街","SECT":" ","MAREA":" ","LANE":" ","ALLEY":" ","HOUSE_NO":"２０８號","E_COORD97":168559.73000000001,"N_COORD97":2545023.6299999999,"ADDRESS":"長北街２０８號","OBJECTID":159342},"geometry":{"x":168559.73000000231,"y":2545023.6300000008}},{"attributes":{"ID":159344,"DIS_CODE":0,"TOWNNAME":"中西區","LI":"保安里","LIN":" ","STREET":"康樂街","SECT":" ","MAREA":" ","LANE":" ","ALLEY":" ","HOUSE_NO":"９６之１７號","E_COORD97":167479.70000000001,"N_COORD97":2543696.79,"ADDRESS":"康樂街９６之１７號","OBJECTID":159343},"geometry":{"x":167479.69999999925,"y":2543696.790000001}},{"attributes":{"ID":159345,"DIS_CODE":0,"TOWNNAME":"中西區","LI":"保安里","LIN":" ","STREET":"康樂街","SECT":" ","MAREA":" ","LANE":" ","ALLEY":" ","HOUSE_NO":"９６之１８號","E_COORD97":167481.51999999999,"N_COORD97":2543702.79,"ADDRESS":"康樂街９６之１８號","OBJECTID":159344},"geometry":{"x":167481.51999999955,"y":2543702.7900000028}},{"attributes":{"ID":159346,"DIS_CODE":0,"TOWNNAME":"東區","LI":"泉南里","LIN":"2鄰","STREET":"東門路","SECT":"一段","MAREA":" ","LANE":"５２巷","ALLEY":"３弄","HOUSE_NO":"４號四樓","E_COORD97":169313.20000000001,"N_COORD97":2543163.3199999998,"ADDRESS":"東門路一段５２巷３弄４號四樓","OBJECTID":159345},"geometry":{"x":169313.20000000019,"y":2543163.3200000003}},{"attributes":{"ID":159347,"DIS_CODE":0,"TOWNNAME":"東區","LI":"泉南里","LIN":"2鄰","STREET":"東門路","SECT":"一段","MAREA":" ","LANE":"５２巷","ALLEY":"３弄","HOUSE_NO":"６號二樓","E_COORD97":169319.79000000001,"N_COORD97":2543160.3999999999,"ADDRESS":"東門路一段５２巷３弄６號二樓","OBJECTID":159346},"geometry":{"x":169319.79000000004,"y":2543160.4000000004}},{"attributes":{"ID":159348,"DIS_CODE":0,"TOWNNAME":"東區","LI":"泉南里","LIN":"2鄰","STREET":"東門路","SECT":"一段","MAREA":" ","LANE":"５２巷","ALLEY":"３弄","HOUSE_NO":"６號四樓","E_COORD97":169319.79000000001,"N_COORD97":2543160.3999999999,"ADDRESS":"東門路一段５２巷３弄６號四樓","OBJECTID":159347},"geometry":{"x":169319.79000000004,"y":2543160.4000000004}},{"attributes":{"ID":159349,"DIS_CODE":0,"TOWNNAME":"東區","LI":"泉南里","LIN":"2鄰","STREET":"東門路","SECT":"一段","MAREA":" ","LANE":"５２巷","ALLEY":"３弄","HOUSE_NO":"８號二樓","E_COORD97":169327.10999999999,"N_COORD97":2543158.3100000001,"ADDRESS":"東門路一段５２巷３弄８號二樓","OBJECTID":159348},"geometry":{"x":169327.11000000127,"y":2543158.3100000042}},{"attributes":{"ID":159350,"DIS_CODE":0,"TOWNNAME":"中西區","LI":"保安里","LIN":" ","STREET":"康樂街","SECT":" ","MAREA":" ","LANE":" ","ALLEY":" ","HOUSE_NO":"９６之１９號","E_COORD97":167487.51999999999,"N_COORD97":2543709.48,"ADDRESS":"康樂街９６之１９號","OBJECTID":159349},"geometry":{"x":167487.52000000048,"y":2543709.4800000042}},{"attributes":{"ID":159351,"DIS_CODE":0,"TOWNNAME":"中西區","LI":"保安里","LIN":" ","STREET":"康樂街","SECT":" ","MAREA":" ","LANE":" ","ALLEY":" ","HOUSE_NO":"９６之２０號","E_COORD97":167489.06,"N_COORD97":2543716.7400000002,"ADDRESS":"康樂街９６之２０號","OBJECTID":159350},"geometry":{"x":167489.06000000052,"y":2543716.7400000002}},{"attributes":{"ID":159352,"DIS_CODE":0,"TOWNNAME":"中西區","LI":"保安里","LIN":" ","STREET":"康樂街","SECT":" ","MAREA":" ","LANE":" ","ALLEY":" ","HOUSE_NO":"９６之２１號","E_COORD97":167490.57000000001,"N_COORD97":2543723.8900000001,"ADDRESS":"康樂街９６之２１號","OBJECTID":159351},"geometry":{"x":167490.5700000003,"y":2543723.8900000043}},{"attributes":{"ID":159353,"DIS_CODE":0,"TOWNNAME":"中西區","LI":"保安里","LIN":" ","STREET":"康樂街","SECT":" ","MAREA":" ","LANE":" ","ALLEY":" ","HOUSE_NO":"９６之２２號","E_COORD97":167490.57000000001,"N_COORD97":2543726.75,"ADDRESS":"康樂街９６之２２號","OBJECTID":159352},"geometry":{"x":167490.5700000003,"y":2543726.75}},{"attributes":{"ID":159354,"DIS_CODE":0,"TOWNNAME":"中西區","LI":"保安里","LIN":" ","STREET":"康樂街","SECT":" ","MAREA":" ","LANE":" ","ALLEY":" ","HOUSE_NO":"９６之２３號","E_COORD97":167490.76000000001,"N_COORD97":2543729.23,"ADDRESS":"康樂街９６之２３號","OBJECTID":159353},"geometry":{"x":167490.75999999885,"y":2543729.2300000023}},{"attributes":{"ID":159355,"DIS_CODE":0,"TOWNNAME":"中西區","LI":"保安里","LIN":" ","STREET":"康樂街","SECT":" ","MAREA":" ","LANE":" ","ALLEY":" ","HOUSE_NO":"９６之２５號","E_COORD97":167491.91,"N_COORD97":2543733.2400000002,"ADDRESS":"康樂街９６之２５號","OBJECTID":159354},"geometry":{"x":167491.91000000201,"y":2543733.2400000002}},{"attributes":{"ID":159356,"DIS_CODE":0,"TOWNNAME":"西港區","LI":"後營里","LIN":"5鄰","STREET":" ","SECT":" ","MAREA":"後營","LANE":" ","ALLEY":" ","HOUSE_NO":"１９３號之２","E_COORD97":170002.62,"N_COORD97":2560327.8399999999,"ADDRESS":"後營１９３號之２","OBJECTID":159355},"geometry":{"x":170002.61999999918,"y":2560327.8399999999}},{"attributes":{"ID":159357,"DIS_CODE":0,"TOWNNAME":"東區","LI":"泉南里","LIN":"2鄰","STREET":"東門路","SECT":"一段","MAREA":" ","LANE":"５２巷","ALLEY":"３弄","HOUSE_NO":"８號四樓","E_COORD97":169327.10999999999,"N_COORD97":2543158.3100000001,"ADDRESS":"東門路一段５２巷３弄８號四樓","OBJECTID":159356},"geometry":{"x":169327.11000000127,"y":2543158.3100000042}},{"attributes":{"ID":159358,"DIS_CODE":0,"TOWNNAME":"東區","LI":"泉南里","LIN":"2鄰","STREET":"東門路","SECT":"一段","MAREA":" ","LANE":"５２巷","ALLEY":"３弄","HOUSE_NO":"１０號四樓","E_COORD97":169334.42999999999,"N_COORD97":2543155.1699999999,"ADDRESS":"東門路一段５２巷３弄１０號四樓","OBJECTID":159357},"geometry":{"x":169334.43000000063,"y":2543155.1700000037}},{"attributes":{"ID":159359,"DIS_CODE":0,"TOWNNAME":"東區","LI":"泉南里","LIN":"2鄰","STREET":"東門路","SECT":"一段","MAREA":" ","LANE":"５２巷","ALLEY":"３弄","HOUSE_NO":"２號二樓","E_COORD97":169305.04000000001,"N_COORD97":2543167.3999999999,"ADDRESS":"東門路一段５２巷３弄２號二樓","OBJECTID":159358},"geometry":{"x":169305.04000000097,"y":2543167.3999999985}},{"attributes":{"ID":159360,"DIS_CODE":0,"TOWNNAME":"東區","LI":"泉南里","LIN":"2鄰","STREET":"東門路","SECT":"一段","MAREA":" ","LANE":"５２巷","ALLEY":"３弄","HOUSE_NO":"２號三樓","E_COORD97":169305.04000000001,"N_COORD97":2543167.3999999999,"ADDRESS":"東門路一段５２巷３弄２號三樓","OBJECTID":159359},"geometry":{"x":169305.04000000097,"y":2543167.3999999985}},{"attributes":{"ID":159361,"DIS_CODE":0,"TOWNNAME":"東區","LI":"泉南里","LIN":"2鄰","STREET":"東門路","SECT":"一段","MAREA":" ","LANE":"５２巷","ALLEY":"３弄","HOUSE_NO":"６號三樓","E_COORD97":169319.79000000001,"N_COORD97":2543160.3999999999,"ADDRESS":"東門路一段５２巷３弄６號三樓","OBJECTID":159360},"geometry":{"x":169319.79000000004,"y":2543160.4000000004}},{"attributes":{"ID":159362,"DIS_CODE":0,"TOWNNAME":"東區","LI":"泉南里","LIN":"2鄰","STREET":"東門路","SECT":"一段","MAREA":" ","LANE":"５２巷","ALLEY":"３弄","HOUSE_NO":"８號三樓","E_COORD97":169327.10999999999,"N_COORD97":2543158.3100000001,"ADDRESS":"東門路一段５２巷３弄８號三樓","OBJECTID":159361},"geometry":{"x":169327.11000000127,"y":2543158.3100000042}},{"attributes":{"ID":159363,"DIS_CODE":0,"TOWNNAME":"東區","LI":"泉南里","LIN":"2鄰","STREET":"東門路","SECT":"一段","MAREA":" ","LANE":"５２巷","ALLEY":"３弄","HOUSE_NO":"１２號二樓","E_COORD97":169341.12,"N_COORD97":2543153.0800000001,"ADDRESS":"東門路一段５２巷３弄１２號二樓","OBJECTID":159362},"geometry":{"x":169341.12000000011,"y":2543153.0800000019}},{"attributes":{"ID":159364,"DIS_CODE":0,"TOWNNAME":"東區","LI":"泉南里","LIN":"2鄰","STREET":"東門路","SECT":"一段","MAREA":" ","LANE":"５２巷","ALLEY":"３弄","HOUSE_NO":"１４號二樓","E_COORD97":169348.76000000001,"N_COORD97":2543150.6800000002,"ADDRESS":"東門路一段５２巷３弄１４號二樓","OBJECTID":159363},"geometry":{"x":169348.76000000164,"y":2543150.6799999997}},{"attributes":{"ID":159365,"DIS_CODE":0,"TOWNNAME":"安南區","LI":"海東里","LIN":"23鄰","STREET":"同安路","SECT":" ","MAREA":" ","LANE":"１４５巷","ALLEY":"１７弄","HOUSE_NO":"７號","E_COORD97":166980.10000000001,"N_COORD97":2549080.5499999998,"ADDRESS":"同安路１４５巷１７弄７號","OBJECTID":159364},"geometry":{"x":166980.10000000056,"y":2549080.5500000026}},{"attributes":{"ID":159366,"DIS_CODE":0,"TOWNNAME":"西港區","LI":"後營里","LIN":"5鄰","STREET":" ","SECT":" ","MAREA":"後營","LANE":" ","ALLEY":" ","HOUSE_NO":"１９３號","E_COORD97":170043.82000000001,"N_COORD97":2560300.6600000001,"ADDRESS":"後營１９３號","OBJECTID":159365},"geometry":{"x":170043.81999999937,"y":2560300.6600000039}},{"attributes":{"ID":159367,"DIS_CODE":0,"TOWNNAME":"西港區","LI":"後營里","LIN":"5鄰","STREET":" ","SECT":" ","MAREA":"後營","LANE":" ","ALLEY":" ","HOUSE_NO":"１９４號之１","E_COORD97":169984.94,"N_COORD97":2560292.0600000001,"ADDRESS":"後營１９４號之１","OBJECTID":159366},"geometry":{"x":169984.94000000041,"y":2560292.0600000024}},{"attributes":{"ID":159368,"DIS_CODE":0,"TOWNNAME":"西港區","LI":"後營里","LIN":"5鄰","STREET":" ","SECT":" ","MAREA":"後營","LANE":" ","ALLEY":" ","HOUSE_NO":"１９４號","E_COORD97":170004.48999999999,"N_COORD97":2560304.3799999999,"ADDRESS":"後營１９４號","OBJECTID":159367},"geometry":{"x":170004.49000000115,"y":2560304.3799999971}},{"attributes":{"ID":159369,"DIS_CODE":0,"TOWNNAME":"新市區","LI":"大營里","LIN":"5鄰","STREET":" ","SECT":" ","MAREA":"大營","LANE":" ","ALLEY":" ","HOUSE_NO":"７８之３９號","E_COORD97":179665.10000000001,"N_COORD97":2555457.2999999998,"ADDRESS":"大營７８之３９號","OBJECTID":159368},"geometry":{"x":179665.10000000056,"y":2555457.3000000007}},{"attributes":{"ID":159370,"DIS_CODE":0,"TOWNNAME":"永康區","LI":"蔦松里","LIN":"2鄰","STREET":"中正北路","SECT":" ","MAREA":" ","LANE":"５２１巷","ALLEY":"８弄","HOUSE_NO":"６號","E_COORD97":173845.87,"N_COORD97":2549201.25,"ADDRESS":"中正北路５２１巷８弄６號","OBJECTID":159369},"geometry":{"x":173845.87000000104,"y":2549201.2500000019}},{"attributes":{"ID":159371,"DIS_CODE":0,"TOWNNAME":"鹽水區","LI":"中境里","LIN":"12鄰","STREET":"三福路","SECT":" ","MAREA":" ","LANE":" ","ALLEY":" ","HOUSE_NO":"１２３號之３","E_COORD97":174646.19,"N_COORD97":2580294.5899999999,"ADDRESS":"三福路１２３號之３","OBJECTID":159370},"geometry":{"x":174646.19000000134,"y":2580294.5900000017}},{"attributes":{"ID":159372,"DIS_CODE":0,"TOWNNAME":"鹽水區","LI":"中境里","LIN":"12鄰","STREET":"三福路","SECT":" ","MAREA":" ","LANE":" ","ALLEY":" ","HOUSE_NO":"１２３號之４","E_COORD97":174645.64999999999,"N_COORD97":2580299.1499999999,"ADDRESS":"三福路１２３號之４","OBJECTID":159371},"geometry":{"x":174645.65000000037,"y":2580299.1500000004}},{"attributes":{"ID":159373,"DIS_CODE":0,"TOWNNAME":"鹽水區","LI":"中境里","LIN":"12鄰","STREET":"三福路","SECT":" ","MAREA":" ","LANE":" ","ALLEY":" ","HOUSE_NO":"１２４號","E_COORD97":174664.64000000001,"N_COORD97":2580337.1699999999,"ADDRESS":"三福路１２４號","OBJECTID":159372},"geometry":{"x":174664.6400000006,"y":2580337.1699999981}},{"attributes":{"ID":159374,"DIS_CODE":0,"TOWNNAME":"鹽水區","LI":"中境里","LIN":"12鄰","STREET":"三福路","SECT":" ","MAREA":" ","LANE":" ","ALLEY":" ","HOUSE_NO":"１２５號","E_COORD97":174639.44,"N_COORD97":2580305.2000000002,"ADDRESS":"三福路１２５號","OBJECTID":159373},"geometry":{"x":174639.44000000134,"y":2580305.1999999993}},{"attributes":{"ID":159375,"DIS_CODE":0,"TOWNNAME":"歸仁區","LI":"媽廟里","LIN":"12鄰","STREET":"保大路","SECT":"一段","MAREA":" ","LANE":" ","ALLEY":" ","HOUSE_NO":"２３１號","E_COORD97":177420.03,"N_COORD97":2544052.7200000002,"ADDRESS":"保大路一段２３１號","OBJECTID":159374},"geometry":{"x":177420.03000000212,"y":2544052.7200000007}},{"attributes":{"ID":159376,"DIS_CODE":0,"TOWNNAME":"中西區","LI":"保安里","LIN":" ","STREET":"康樂街","SECT":" ","MAREA":" ","LANE":" ","ALLEY":" ","HOUSE_NO":"９６之２６號","E_COORD97":167493.04999999999,"N_COORD97":2543737.8199999998,"ADDRESS":"康樂街９６之２６號","OBJECTID":159375},"geometry":{"x":167493.05000000075,"y":2543737.820000004}},{"attributes":{"ID":159377,"DIS_CODE":0,"TOWNNAME":"中西區","LI":"保安里","LIN":" ","STREET":"康樂街","SECT":" ","MAREA":" ","LANE":" ","ALLEY":" ","HOUSE_NO":"９６之４１號","E_COORD97":167462.34,"N_COORD97":2543728.2000000002,"ADDRESS":"康樂街９６之４１號","OBJECTID":159376},"geometry":{"x":167462.34000000078,"y":2543728.2000000011}},{"attributes":{"ID":159378,"DIS_CODE":0,"TOWNNAME":"永康區","LI":"蔦松里","LIN":"2鄰","STREET":"中正北路","SECT":" ","MAREA":" ","LANE":"５２１巷","ALLEY":"８弄","HOUSE_NO":"１０號","E_COORD97":173854.92999999999,"N_COORD97":2549204.25,"ADDRESS":"中正北路５２１巷８弄１０號","OBJECTID":159377},"geometry":{"x":173854.92999999877,"y":2549204.2500000019}},{"attributes":{"ID":159379,"DIS_CODE":0,"TOWNNAME":"永康區","LI":"勝利里","LIN":"2鄰","STREET":"勝利街","SECT":" ","MAREA":" ","LANE":"２巷","ALLEY":"５９弄","HOUSE_NO":"１８號","E_COORD97":170958.44,"N_COORD97":2544751.7599999998,"ADDRESS":"勝利街２巷５９弄１８號","OBJECTID":159378},"geometry":{"x":170958.44000000041,"y":2544751.7600000016}},{"attributes":{"ID":159380,"DIS_CODE":0,"TOWNNAME":"永康區","LI":"勝利里","LIN":"2鄰","STREET":"勝利街","SECT":" ","MAREA":" ","LANE":"２巷","ALLEY":"５９弄","HOUSE_NO":"１０號","E_COORD97":170973.14999999999,"N_COORD97":2544719.25,"ADDRESS":"勝利街２巷５９弄１０號","OBJECTID":159379},"geometry":{"x":170973.1500000013,"y":2544719.2500000019}},{"attributes":{"ID":159381,"DIS_CODE":0,"TOWNNAME":"永康區","LI":"勝利里","LIN":"2鄰","STREET":"勝利街","SECT":" ","MAREA":" ","LANE":"２巷","ALLEY":"５９弄","HOUSE_NO":"１２號","E_COORD97":170969.84,"N_COORD97":2544720,"ADDRESS":"勝利街２巷５９弄１２號","OBJECTID":159380},"geometry":{"x":170969.83999999985,"y":2544720.0000000019}},{"attributes":{"ID":159382,"DIS_CODE":0,"TOWNNAME":"永康區","LI":"五王里","LIN":"2鄰","STREET":"成功路","SECT":" ","MAREA":" ","LANE":"１７２巷","ALLEY":"８弄","HOUSE_NO":"２６號","E_COORD97":171505.01999999999,"N_COORD97":2545566.5,"ADDRESS":"成功路１７２巷８弄２６號","OBJECTID":159381},"geometry":{"x":171505.02000000048,"y":2545566.5}},{"attributes":{"ID":159383,"DIS_CODE":0,"TOWNNAME":"永康區","LI":"勝利里","LIN":"2鄰","STREET":"勝利街","SECT":" ","MAREA":" ","LANE":"２巷","ALLEY":"５９弄","HOUSE_NO":"２號","E_COORD97":170988.98999999999,"N_COORD97":2544716,"ADDRESS":"勝利街２巷５９弄２號","OBJECTID":159382},"geometry":{"x":170988.99000000115,"y":2544716.0000000037}},{"attributes":{"ID":159384,"DIS_CODE":0,"TOWNNAME":"新市區","LI":"新市里","LIN":"2鄰","STREET":"光華街","SECT":" ","MAREA":" ","LANE":"１８３巷","ALLEY":"７弄","HOUSE_NO":"１２號","E_COORD97":177767.20000000001,"N_COORD97":2553054.75,"ADDRESS":"光華街１８３巷７弄１２號","OBJECTID":159383},"geometry":{"x":177767.20000000019,"y":2553054.7500000037}},{"attributes":{"ID":159385,"DIS_CODE":0,"TOWNNAME":"東區","LI":"崇善里","LIN":"2鄰","STREET":"中華東路","SECT":"三段","MAREA":" ","LANE":"７７巷","ALLEY":"３４弄","HOUSE_NO":"１０號","E_COORD97":170896.12,"N_COORD97":2542106.1299999999,"ADDRESS":"中華東路三段７７巷３４弄１０號","OBJECTID":159384},"geometry":{"x":170896.12000000197,"y":2542106.129999999}},{"attributes":{"ID":159386,"DIS_CODE":0,"TOWNNAME":"東區","LI":"崇善里","LIN":"2鄰","STREET":"中華東路","SECT":"三段","MAREA":" ","LANE":"７７巷","ALLEY":"３４弄","HOUSE_NO":"１１號","E_COORD97":170906.42000000001,"N_COORD97":2542091.3900000001,"ADDRESS":"中華東路三段７７巷３４弄１１號","OBJECTID":159385},"geometry":{"x":170906.42000000086,"y":2542091.3900000025}},{"attributes":{"ID":159387,"DIS_CODE":0,"TOWNNAME":"東區","LI":"崇善里","LIN":"2鄰","STREET":"中華東路","SECT":"三段","MAREA":" ","LANE":"７７巷","ALLEY":"３４弄","HOUSE_NO":"１３號","E_COORD97":170900.12,"N_COORD97":2542085.1400000001,"ADDRESS":"中華東路三段７７巷３４弄１３號","OBJECTID":159386},"geometry":{"x":170900.12000000104,"y":2542085.1400000025}},{"attributes":{"ID":159388,"DIS_CODE":0,"TOWNNAME":"東區","LI":"崇善里","LIN":"2鄰","STREET":"中華東路","SECT":"三段","MAREA":" ","LANE":"７７巷","ALLEY":"３４弄","HOUSE_NO":"１５號","E_COORD97":170893.51000000001,"N_COORD97":2542080.4700000002,"ADDRESS":"中華東路三段７７巷３４弄１５號","OBJECTID":159387},"geometry":{"x":170893.51000000071,"y":2542080.4700000025}},{"attributes":{"ID":159389,"DIS_CODE":0,"TOWNNAME":"東區","LI":"崇善里","LIN":"2鄰","STREET":"中華東路","SECT":"三段","MAREA":" ","LANE":"７７巷","ALLEY":"３４弄","HOUSE_NO":"１７號","E_COORD97":170889.44,"N_COORD97":2542076.6099999999,"ADDRESS":"中華東路三段７７巷３４弄１７號","OBJECTID":159388},"geometry":{"x":170889.44000000134,"y":2542076.6099999975}},{"attributes":{"ID":159390,"DIS_CODE":0,"TOWNNAME":"東區","LI":"崇善里","LIN":"2鄰","STREET":"中華東路","SECT":"三段","MAREA":" ","LANE":"７７巷","ALLEY":"３４弄","HOUSE_NO":"１號","E_COORD97":170930.56,"N_COORD97":2542110.8399999999,"ADDRESS":"中華東路三段７７巷３４弄１號","OBJECTID":159389},"geometry":{"x":170930.56000000052,"y":2542110.8400000017}},{"attributes":{"ID":159391,"DIS_CODE":0,"TOWNNAME":"東區","LI":"崇善里","LIN":"2鄰","STREET":"中華東路","SECT":"三段","MAREA":" ","LANE":"７７巷","ALLEY":"３４弄","HOUSE_NO":"２１號","E_COORD97":170873.07000000001,"N_COORD97":2542061.8799999999,"ADDRESS":"中華東路三段７７巷３４弄２１號","OBJECTID":159390},"geometry":{"x":170873.07000000123,"y":2542061.8800000008}},{"attributes":{"ID":159392,"DIS_CODE":0,"TOWNNAME":"東區","LI":"崇善里","LIN":"2鄰","STREET":"中華東路","SECT":"三段","MAREA":" ","LANE":"７７巷","ALLEY":"３４弄","HOUSE_NO":"２號","E_COORD97":170914.97,"N_COORD97":2542119.54,"ADDRESS":"中華東路三段７７巷３４弄２號","OBJECTID":159391},"geometry":{"x":170914.96999999974,"y":2542119.5399999991}},{"attributes":{"ID":159393,"DIS_CODE":0,"TOWNNAME":"東區","LI":"崇善里","LIN":"2鄰","STREET":"中華東路","SECT":"三段","MAREA":" ","LANE":"７７巷","ALLEY":"３４弄","HOUSE_NO":"３號","E_COORD97":170926.20999999999,"N_COORD97":2542106.8599999999,"ADDRESS":"中華東路三段７７巷３４弄３號","OBJECTID":159392},"geometry":{"x":170926.21000000089,"y":2542106.8600000013}},{"attributes":{"ID":159394,"DIS_CODE":0,"TOWNNAME":"東區","LI":"崇善里","LIN":"2鄰","STREET":"中華東路","SECT":"三段","MAREA":" ","LANE":"７７巷","ALLEY":"３４弄","HOUSE_NO":"４號","E_COORD97":170911.70999999999,"N_COORD97":2542114.8300000001,"ADDRESS":"中華東路三段７７巷３４弄４號","OBJECTID":159393},"geometry":{"x":170911.70999999996,"y":2542114.8300000019}},{"attributes":{"ID":159395,"DIS_CODE":0,"TOWNNAME":"東區","LI":"崇善里","LIN":"2鄰","STREET":"中華東路","SECT":"三段","MAREA":" ","LANE":"７７巷","ALLEY":"３４弄","HOUSE_NO":"５號","E_COORD97":170921.26999999999,"N_COORD97":2542101.8500000001,"ADDRESS":"中華東路三段７７巷３４弄５號","OBJECTID":159394},"geometry":{"x":170921.26999999955,"y":2542101.8499999996}},{"attributes":{"ID":159396,"DIS_CODE":0,"TOWNNAME":"中西區","LI":"保安里","LIN":" ","STREET":"康樂街","SECT":" ","MAREA":" ","LANE":" ","ALLEY":" ","HOUSE_NO":"９６之４６號","E_COORD97":167443.79000000001,"N_COORD97":2543724.0600000001,"ADDRESS":"康樂街９６之４６號","OBJECTID":159395},"geometry":{"x":167443.79000000097,"y":2543724.0600000024}},{"attributes":{"ID":159397,"DIS_CODE":0,"TOWNNAME":"新市區","LI":"大營里","LIN":"5鄰","STREET":" ","SECT":" ","MAREA":"大營","LANE":" ","ALLEY":" ","HOUSE_NO":"７８之７號","E_COORD97":179638.85000000001,"N_COORD97":2555499.2999999998,"ADDRESS":"大營７８之７號","OBJECTID":159396},"geometry":{"x":179638.84999999963,"y":2555499.3000000045}},{"attributes":{"ID":159398,"DIS_CODE":0,"TOWNNAME":"新市區","LI":"大社里","LIN":"5鄰","STREET":" ","SECT":" ","MAREA":"大社","LANE":" ","ALLEY":" ","HOUSE_NO":"２２３之３號","E_COORD97":180136.63,"N_COORD97":2554367.0499999998,"ADDRESS":"大社２２３之３號","OBJECTID":159397},"geometry":{"x":180136.63000000082,"y":2554367.0500000007}},{"attributes":{"ID":159399,"DIS_CODE":0,"TOWNNAME":"新市區","LI":"大營里","LIN":"5鄰","STREET":" ","SECT":" ","MAREA":"大營","LANE":" ","ALLEY":" ","HOUSE_NO":"７８之２６號","E_COORD97":179637.79000000001,"N_COORD97":2555442.5499999998,"ADDRESS":"大營７８之２６號","OBJECTID":159398},"geometry":{"x":179637.79000000097,"y":2555442.5500000007}},{"attributes":{"ID":159400,"DIS_CODE":0,"TOWNNAME":"新市區","LI":"大營里","LIN":"5鄰","STREET":" ","SECT":" ","MAREA":"大營","LANE":" ","ALLEY":" ","HOUSE_NO":"７８之３８號","E_COORD97":179665.10000000001,"N_COORD97":2555445.2999999998,"ADDRESS":"大營７８之３８號","OBJECTID":159399},"geometry":{"x":179665.10000000056,"y":2555445.3000000045}},{"attributes":{"ID":159401,"DIS_CODE":0,"TOWNNAME":"歸仁區","LI":"媽廟里","LIN":"12鄰","STREET":"保大路","SECT":"一段","MAREA":" ","LANE":" ","ALLEY":" ","HOUSE_NO":"２３３號","E_COORD97":177412.82999999999,"N_COORD97":2544054.7200000002,"ADDRESS":"保大路一段２３３號","OBJECTID":159400},"geometry":{"x":177412.83000000101,"y":2544054.7200000025}}]}