{"displayFieldName":"TOWNNAME","fieldAliases":{"ID":"ID","DIS_CODE":"DIS_CODE","TOWNNAME":"TOWNNAME","LI":"LI","LIN":"LIN","STREET":"STREET","SECT":"SECT","MAREA":"MAREA","LANE":"LANE","ALLEY":"ALLEY","HOUSE_NO":"HOUSE_NO","E_COORD97":"E_COORD97","N_COORD97":"N_COORD97","ADDRESS":"ADDRESS","OBJECTID":"OBJECTID"},"geometryType":"esriGeometryPoint","spatialReference":{"wkid":102443,"latestWkid":3826},"fields":[{"name":"ID","type":"esriFieldTypeDouble","alias":"ID"},{"name":"DIS_CODE","type":"esriFieldTypeInteger","alias":"DIS_CODE"},{"name":"TOWNNAME","type":"esriFieldTypeString","alias":"TOWNNAME","length":8},{"name":"LI","type":"esriFieldTypeString","alias":"LI","length":8},{"name":"LIN","type":"esriFieldTypeString","alias":"LIN","length":12},{"name":"STREET","type":"esriFieldTypeString","alias":"STREET","length":20},{"name":"SECT","type":"esriFieldTypeString","alias":"SECT","length":8},{"name":"MAREA","type":"esriFieldTypeString","alias":"MAREA","length":12},{"name":"LANE","type":"esriFieldTypeString","alias":"LANE","length":10},{"name":"ALLEY","type":"esriFieldTypeString","alias":"ALLEY","length":10},{"name":"HOUSE_NO","type":"esriFieldTypeString","alias":"HOUSE_NO","length":20},{"name":"E_COORD97","type":"esriFieldTypeDouble","alias":"E_COORD97"},{"name":"N_COORD97","type":"esriFieldTypeDouble","alias":"N_COORD97"},{"name":"ADDRESS","type":"esriFieldTypeString","alias":"ADDRESS","length":50},{"name":"OBJECTID","type":"esriFieldTypeOID","alias":"OBJECTID"}],"features":[{"attributes":{"ID":660228,"DIS_CODE":0,"TOWNNAME":"安南區","LI":"溪心里","LIN":"8鄰","STREET":"安中路","SECT":"二段","MAREA":" ","LANE":"７１巷","ALLEY":" ","HOUSE_NO":"９８號","E_COORD97":166668.37057100001,"N_COORD97":2549451.7240399998,"ADDRESS":"安中路二段７１巷９８號","OBJECTID":660201},"geometry":{"x":166668.37057100143,"y":2549451.7240410019}},{"attributes":{"ID":660229,"DIS_CODE":0,"TOWNNAME":"安南區","LI":"溪心里","LIN":"8鄰","STREET":"安中路","SECT":"二段","MAREA":" ","LANE":"７１巷","ALLEY":" ","HOUSE_NO":"８２號","E_COORD97":166689.76665000001,"N_COORD97":2549467.5990300002,"ADDRESS":"安中路二段７１巷８２號","OBJECTID":660202},"geometry":{"x":166689.76664999966,"y":2549467.5990319997}},{"attributes":{"ID":660230,"DIS_CODE":0,"TOWNNAME":"安南區","LI":"溪心里","LIN":"8鄰","STREET":"安中路","SECT":"二段","MAREA":" ","LANE":"７１巷","ALLEY":" ","HOUSE_NO":"８６號","E_COORD97":166686.58901500001,"N_COORD97":2549465.0590300001,"ADDRESS":"安中路二段７１巷８６號","OBJECTID":660203},"geometry":{"x":166686.58901499864,"y":2549465.0590330008}},{"attributes":{"ID":660231,"DIS_CODE":0,"TOWNNAME":"安南區","LI":"溪心里","LIN":"8鄰","STREET":"安中路","SECT":"二段","MAREA":" ","LANE":"７１巷","ALLEY":" ","HOUSE_NO":"８８號","E_COORD97":166674.937684,"N_COORD97":2549456.5923700002,"ADDRESS":"安中路二段７１巷８８號","OBJECTID":660204},"geometry":{"x":166674.93768399954,"y":2549456.592371}},{"attributes":{"ID":660232,"DIS_CODE":0,"TOWNNAME":"安南區","LI":"溪心里","LIN":"11鄰","STREET":"功安三街","SECT":" ","MAREA":" ","LANE":" ","ALLEY":" ","HOUSE_NO":"３號","E_COORD97":166260.150322,"N_COORD97":2549970.20126,"ADDRESS":"功安三街３號","OBJECTID":660205},"geometry":{"x":166260.15032199956,"y":2549970.2012610026}},{"attributes":{"ID":660233,"DIS_CODE":0,"TOWNNAME":"安南區","LI":"溪心里","LIN":"11鄰","STREET":"功安三街","SECT":" ","MAREA":" ","LANE":" ","ALLEY":" ","HOUSE_NO":"１號","E_COORD97":166265.022696,"N_COORD97":2549964.9095999999,"ADDRESS":"功安三街１號","OBJECTID":660206},"geometry":{"x":166265.02269600146,"y":2549964.909597002}},{"attributes":{"ID":660234,"DIS_CODE":0,"TOWNNAME":"西港區","LI":"竹林里","LIN":"7鄰","STREET":" ","SECT":" ","MAREA":"大竹林","LANE":" ","ALLEY":" ","HOUSE_NO":"５７號之７","E_COORD97":166681.20529000001,"N_COORD97":2558223.5861200001,"ADDRESS":"大竹林５７號之７","OBJECTID":660207},"geometry":{"x":166681.20528999902,"y":2558223.586120002}},{"attributes":{"ID":660235,"DIS_CODE":0,"TOWNNAME":"官田區","LI":"官田里","LIN":"3鄰","STREET":" ","SECT":" ","MAREA":"官田","LANE":" ","ALLEY":" ","HOUSE_NO":"２６號","E_COORD97":182536.97876599999,"N_COORD97":2565275.93102,"ADDRESS":"官田２６號","OBJECTID":660208},"geometry":{"x":182536.97876599897,"y":2565275.9310170021}},{"attributes":{"ID":660236,"DIS_CODE":0,"TOWNNAME":"安南區","LI":"溪心里","LIN":"13鄰","STREET":"樂安二街","SECT":" ","MAREA":" ","LANE":" ","ALLEY":" ","HOUSE_NO":"３３號","E_COORD97":166093.85406099999,"N_COORD97":2549698.9505699999,"ADDRESS":"樂安二街３３號","OBJECTID":660209},"geometry":{"x":166093.85406100098,"y":2549698.9505740032}},{"attributes":{"ID":660237,"DIS_CODE":0,"TOWNNAME":"安南區","LI":"溪心里","LIN":"13鄰","STREET":"樂安二街","SECT":" ","MAREA":" ","LANE":" ","ALLEY":" ","HOUSE_NO":"３５號","E_COORD97":166092.15932199999,"N_COORD97":2549691.9655800001,"ADDRESS":"樂安二街３５號","OBJECTID":660210},"geometry":{"x":166092.15932200011,"y":2549691.9655769989}},{"attributes":{"ID":660238,"DIS_CODE":0,"TOWNNAME":"永康區","LI":"大灣里","LIN":"31鄰","STREET":"文賢街","SECT":" ","MAREA":" ","LANE":"６８巷","ALLEY":"３６弄","HOUSE_NO":"７８號","E_COORD97":175423.50336199999,"N_COORD97":2545044.8769999999,"ADDRESS":"文賢街６８巷３６弄７８號","OBJECTID":660211},"geometry":{"x":175423.50336200185,"y":2545044.8770000003}},{"attributes":{"ID":660239,"DIS_CODE":0,"TOWNNAME":"永康區","LI":"大灣里","LIN":"31鄰","STREET":"文賢街","SECT":" ","MAREA":" ","LANE":"６８巷","ALLEY":"３６弄","HOUSE_NO":"８０號","E_COORD97":175424.56311799999,"N_COORD97":2545045.5120000001,"ADDRESS":"文賢街６８巷３６弄８０號","OBJECTID":660212},"geometry":{"x":175424.56311800051,"y":2545045.5119989999}},{"attributes":{"ID":660240,"DIS_CODE":0,"TOWNNAME":"永康區","LI":"大灣里","LIN":"31鄰","STREET":"文賢街","SECT":" ","MAREA":" ","LANE":"６８巷","ALLEY":"３６弄","HOUSE_NO":"８２號","E_COORD97":175426.04677700001,"N_COORD97":2545045.9353299998,"ADDRESS":"文賢街６８巷３６弄８２號","OBJECTID":660213},"geometry":{"x":175426.04677699972,"y":2545045.935332004}},{"attributes":{"ID":660241,"DIS_CODE":0,"TOWNNAME":"永康區","LI":"大灣里","LIN":"31鄰","STREET":"文賢街","SECT":" ","MAREA":" ","LANE":"６８巷","ALLEY":"３６弄","HOUSE_NO":"８６號","E_COORD97":175427.318485,"N_COORD97":2545046.57033,"ADDRESS":"文賢街６８巷３６弄８６號","OBJECTID":660214},"geometry":{"x":175427.3184850011,"y":2545046.5703320038}},{"attributes":{"ID":660242,"DIS_CODE":0,"TOWNNAME":"安南區","LI":"溪心里","LIN":"11鄰","STREET":"安吉路","SECT":"一段","MAREA":" ","LANE":" ","ALLEY":" ","HOUSE_NO":"６７７號","E_COORD97":166952.87487,"N_COORD97":2550338.6068899999,"ADDRESS":"安吉路一段６７７號","OBJECTID":660215},"geometry":{"x":166952.87487000041,"y":2550338.6068900023}},{"attributes":{"ID":660243,"DIS_CODE":0,"TOWNNAME":"永康區","LI":"大灣里","LIN":"31鄰","STREET":"文賢街","SECT":" ","MAREA":" ","LANE":"６８巷","ALLEY":"３６弄","HOUSE_NO":"８８號","E_COORD97":175429.64994900001,"N_COORD97":2545046.7820000001,"ADDRESS":"文賢街６８巷３６弄８８號","OBJECTID":660216},"geometry":{"x":175429.64994900115,"y":2545046.7819989994}},{"attributes":{"ID":660244,"DIS_CODE":0,"TOWNNAME":"永康區","LI":"中興里","LIN":"3鄰","STREET":"中華一路","SECT":" ","MAREA":" ","LANE":" ","ALLEY":" ","HOUSE_NO":"２０號","E_COORD97":171910.19870800001,"N_COORD97":2544987.0920299999,"ADDRESS":"中華一路２０號","OBJECTID":660217},"geometry":{"x":171910.19870800059,"y":2544987.0920310002}},{"attributes":{"ID":660245,"DIS_CODE":0,"TOWNNAME":"官田區","LI":"官田里","LIN":"7鄰","STREET":" ","SECT":" ","MAREA":"官田","LANE":" ","ALLEY":" ","HOUSE_NO":"５９號之１３８","E_COORD97":183382.14301100001,"N_COORD97":2564844.2469100002,"ADDRESS":"官田５９號之１３８","OBJECTID":660218},"geometry":{"x":183382.14301100001,"y":2564844.2469080016}},{"attributes":{"ID":660246,"DIS_CODE":0,"TOWNNAME":"安南區","LI":"溪心里","LIN":"8鄰","STREET":"安中路","SECT":"二段","MAREA":" ","LANE":"７１巷","ALLEY":"１０１弄","HOUSE_NO":"３號","E_COORD97":166640.407378,"N_COORD97":2549432.7798799998,"ADDRESS":"安中路二段７１巷１０１弄３號","OBJECTID":660219},"geometry":{"x":166640.40737800021,"y":2549432.7798840031}},{"attributes":{"ID":660247,"DIS_CODE":0,"TOWNNAME":"安南區","LI":"溪心里","LIN":"8鄰","STREET":"安中路","SECT":"二段","MAREA":" ","LANE":"７１巷","ALLEY":"１０１弄","HOUSE_NO":"１號","E_COORD97":166639.34816600001,"N_COORD97":2549425.1598899998,"ADDRESS":"安中路二段７１巷１０１弄１號","OBJECTID":660220},"geometry":{"x":166639.34816600196,"y":2549425.1598879993}},{"attributes":{"ID":660248,"DIS_CODE":0,"TOWNNAME":"安南區","LI":"溪心里","LIN":"17鄰","STREET":"海佃路","SECT":"三段","MAREA":" ","LANE":" ","ALLEY":" ","HOUSE_NO":"１７８號","E_COORD97":166111.013293,"N_COORD97":2550098.8945200001,"ADDRESS":"海佃路三段１７８號","OBJECTID":660221},"geometry":{"x":166111.01329300087,"y":2550098.8945240006}},{"attributes":{"ID":660249,"DIS_CODE":0,"TOWNNAME":"官田區","LI":"官田里","LIN":"8鄰","STREET":" ","SECT":" ","MAREA":"官田","LANE":" ","ALLEY":" ","HOUSE_NO":"６５號","E_COORD97":182521.90689799999,"N_COORD97":2565125.2367699998,"ADDRESS":"官田６５號","OBJECTID":660222},"geometry":{"x":182521.90689800121,"y":2565125.2367650028}},{"attributes":{"ID":660250,"DIS_CODE":0,"TOWNNAME":"新營區","LI":"姑爺里","LIN":"4鄰","STREET":" ","SECT":" ","MAREA":"姑爺","LANE":" ","ALLEY":" ","HOUSE_NO":"３０號","E_COORD97":174175.82169000001,"N_COORD97":2574267.3273200002,"ADDRESS":"姑爺３０號","OBJECTID":660223},"geometry":{"x":174175.82168999966,"y":2574267.3273160011}},{"attributes":{"ID":660251,"DIS_CODE":0,"TOWNNAME":"新營區","LI":"姑爺里","LIN":"4鄰","STREET":" ","SECT":" ","MAREA":"姑爺","LANE":" ","ALLEY":" ","HOUSE_NO":"３０之１號","E_COORD97":174196.586148,"N_COORD97":2574261.1889900002,"ADDRESS":"姑爺３０之１號","OBJECTID":660224},"geometry":{"x":174196.58614800125,"y":2574261.1889859997}},{"attributes":{"ID":660252,"DIS_CODE":0,"TOWNNAME":"新營區","LI":"姑爺里","LIN":"4鄰","STREET":" ","SECT":" ","MAREA":"姑爺","LANE":" ","ALLEY":" ","HOUSE_NO":"３１號","E_COORD97":174223.28330700001,"N_COORD97":2574260.5539899999,"ADDRESS":"姑爺３１號","OBJECTID":660225},"geometry":{"x":174223.28330700006,"y":2574260.5539859999}},{"attributes":{"ID":660253,"DIS_CODE":0,"TOWNNAME":"新營區","LI":"姑爺里","LIN":"4鄰","STREET":" ","SECT":" ","MAREA":"姑爺","LANE":" ","ALLEY":" ","HOUSE_NO":"３２號","E_COORD97":174238.75070999999,"N_COORD97":2574250.81733,"ADDRESS":"姑爺３２號","OBJECTID":660226},"geometry":{"x":174238.75071000215,"y":2574250.8173249997}},{"attributes":{"ID":660254,"DIS_CODE":0,"TOWNNAME":"新營區","LI":"姑爺里","LIN":"4鄰","STREET":" ","SECT":" ","MAREA":"姑爺","LANE":" ","ALLEY":" ","HOUSE_NO":"３３號","E_COORD97":174237.05565200001,"N_COORD97":2574238.54067,"ADDRESS":"姑爺３３號","OBJECTID":660227},"geometry":{"x":174237.05565200094,"y":2574238.5406650007}},{"attributes":{"ID":660255,"DIS_CODE":0,"TOWNNAME":"官田區","LI":"官田里","LIN":"10鄰","STREET":" ","SECT":" ","MAREA":"官田","LANE":" ","ALLEY":" ","HOUSE_NO":"９２號","E_COORD97":182371.34344,"N_COORD97":2565095.85561,"ADDRESS":"官田９２號","OBJECTID":660228},"geometry":{"x":182371.3434400009,"y":2565095.8556140009}},{"attributes":{"ID":660256,"DIS_CODE":0,"TOWNNAME":"永康區","LI":"王行里","LIN":"16鄰","STREET":"永科環路","SECT":" ","MAREA":" ","LANE":" ","ALLEY":" ","HOUSE_NO":"３８７號","E_COORD97":175626.128799,"N_COORD97":2549274.8213800001,"ADDRESS":"永科環路３８７號","OBJECTID":660229},"geometry":{"x":175626.12879899982,"y":2549274.821382001}},{"attributes":{"ID":660257,"DIS_CODE":0,"TOWNNAME":"永康區","LI":"王行里","LIN":"16鄰","STREET":"永科環路","SECT":" ","MAREA":" ","LANE":" ","ALLEY":" ","HOUSE_NO":"３９７號","E_COORD97":175632.06343499999,"N_COORD97":2549302.97303,"ADDRESS":"永科環路３９７號","OBJECTID":660230},"geometry":{"x":175632.06343500037,"y":2549302.9730340019}},{"attributes":{"ID":660258,"DIS_CODE":0,"TOWNNAME":"永康區","LI":"王行里","LIN":"9鄰","STREET":"王行路","SECT":" ","MAREA":" ","LANE":" ","ALLEY":" ","HOUSE_NO":"５１９號","E_COORD97":175473.09996399999,"N_COORD97":2549031.2990100002,"ADDRESS":"王行路５１９號","OBJECTID":660231},"geometry":{"x":175473.09996400122,"y":2549031.2990140039}},{"attributes":{"ID":660259,"DIS_CODE":0,"TOWNNAME":"西港區","LI":"竹林里","LIN":"14鄰","STREET":" ","SECT":" ","MAREA":"大竹林","LANE":" ","ALLEY":" ","HOUSE_NO":"１２０號","E_COORD97":166813.77777799999,"N_COORD97":2557924.62732,"ADDRESS":"大竹林１２０號","OBJECTID":660232},"geometry":{"x":166813.77777800057,"y":2557924.6273220032}},{"attributes":{"ID":660260,"DIS_CODE":0,"TOWNNAME":"永康區","LI":"王行里","LIN":"2鄰","STREET":"永科南路","SECT":" ","MAREA":" ","LANE":" ","ALLEY":" ","HOUSE_NO":"６號","E_COORD97":176668.71721500001,"N_COORD97":2548326.2377300002,"ADDRESS":"永科南路６號","OBJECTID":660233},"geometry":{"x":176668.71721500065,"y":2548326.2377279997}},{"attributes":{"ID":660261,"DIS_CODE":0,"TOWNNAME":"永康區","LI":"王行里","LIN":"2鄰","STREET":"永科南路","SECT":" ","MAREA":" ","LANE":" ","ALLEY":" ","HOUSE_NO":"８號","E_COORD97":176659.60331000001,"N_COORD97":2548324.1210599998,"ADDRESS":"永科南路８號","OBJECTID":660234},"geometry":{"x":176659.60331000015,"y":2548324.1210619994}},{"attributes":{"ID":660262,"DIS_CODE":0,"TOWNNAME":"永康區","LI":"永康里","LIN":"39鄰","STREET":"永忠路","SECT":" ","MAREA":" ","LANE":"１１巷","ALLEY":" ","HOUSE_NO":"３２號","E_COORD97":174189.310975,"N_COORD97":2546379.5404500002,"ADDRESS":"永忠路１１巷３２號","OBJECTID":660235},"geometry":{"x":174189.31097500026,"y":2546379.5404460002}},{"attributes":{"ID":660263,"DIS_CODE":0,"TOWNNAME":"永康區","LI":"永康里","LIN":"39鄰","STREET":"永忠路","SECT":" ","MAREA":" ","LANE":"１１巷","ALLEY":" ","HOUSE_NO":"３６號","E_COORD97":174184.43609500001,"N_COORD97":2546377.84711,"ADDRESS":"永忠路１１巷３６號","OBJECTID":660236},"geometry":{"x":174184.43609500024,"y":2546377.847113004}},{"attributes":{"ID":660264,"DIS_CODE":0,"TOWNNAME":"永康區","LI":"甲頂里","LIN":"11鄰","STREET":"中正南路","SECT":" ","MAREA":" ","LANE":"５２巷","ALLEY":"６８弄","HOUSE_NO":"２１號","E_COORD97":170114.335391,"N_COORD97":2546771.5469,"ADDRESS":"中正南路５２巷６８弄２１號","OBJECTID":660237},"geometry":{"x":170114.33539100084,"y":2546771.5469010025}},{"attributes":{"ID":660265,"DIS_CODE":0,"TOWNNAME":"永康區","LI":"西勢里","LIN":"5鄰","STREET":"富強路","SECT":"一段","MAREA":" ","LANE":"３２１巷","ALLEY":" ","HOUSE_NO":"４３之２號","E_COORD97":175558.304385,"N_COORD97":2546716.61943,"ADDRESS":"富強路一段３２１巷４３之２號","OBJECTID":660238},"geometry":{"x":175558.30438500084,"y":2546716.6194300018}},{"attributes":{"ID":660266,"DIS_CODE":0,"TOWNNAME":"永康區","LI":"西灣里","LIN":"40鄰","STREET":"大勇路","SECT":" ","MAREA":" ","LANE":" ","ALLEY":" ","HOUSE_NO":"１號","E_COORD97":174185.28390000001,"N_COORD97":2545337.9293399998,"ADDRESS":"大勇路１號","OBJECTID":660239},"geometry":{"x":174185.28390000109,"y":2545337.9293410014}},{"attributes":{"ID":660267,"DIS_CODE":0,"TOWNNAME":"永康區","LI":"西灣里","LIN":"53鄰","STREET":"文化路","SECT":" ","MAREA":" ","LANE":" ","ALLEY":" ","HOUSE_NO":"２２３號","E_COORD97":173682.95933300001,"N_COORD97":2546151.8930700002,"ADDRESS":"文化路２２３號","OBJECTID":660240},"geometry":{"x":173682.9593330007,"y":2546151.8930690009}},{"attributes":{"ID":660268,"DIS_CODE":0,"TOWNNAME":"永康區","LI":"西灣里","LIN":"53鄰","STREET":"文化路","SECT":" ","MAREA":" ","LANE":" ","ALLEY":" ","HOUSE_NO":"２２５號","E_COORD97":173678.50835600001,"N_COORD97":2546148.7180699999,"ADDRESS":"文化路２２５號","OBJECTID":660241},"geometry":{"x":173678.50835600216,"y":2546148.7180700023}},{"attributes":{"ID":660269,"DIS_CODE":0,"TOWNNAME":"永康區","LI":"西灣里","LIN":"53鄰","STREET":"文化路","SECT":" ","MAREA":" ","LANE":" ","ALLEY":" ","HOUSE_NO":"２３３之２號","E_COORD97":173655.82956700001,"N_COORD97":2546139.6164099998,"ADDRESS":"文化路２３３之２號","OBJECTID":660242},"geometry":{"x":173655.82956700027,"y":2546139.6164080035}},{"attributes":{"ID":660270,"DIS_CODE":0,"TOWNNAME":"永康區","LI":"西灣里","LIN":"53鄰","STREET":"文化路","SECT":" ","MAREA":" ","LANE":" ","ALLEY":" ","HOUSE_NO":"２３３之１號","E_COORD97":173659.64469099999,"N_COORD97":2546142.57974,"ADDRESS":"文化路２３３之１號","OBJECTID":660243},"geometry":{"x":173659.64469099976,"y":2546142.5797400009}},{"attributes":{"ID":660271,"DIS_CODE":0,"TOWNNAME":"西港區","LI":"永樂里","LIN":"9鄰","STREET":" ","SECT":" ","MAREA":"大塭寮","LANE":" ","ALLEY":" ","HOUSE_NO":"７５號","E_COORD97":165848.201791,"N_COORD97":2556234.7266199999,"ADDRESS":"大塭寮７５號","OBJECTID":660244},"geometry":{"x":165848.20179100055,"y":2556234.7266150024}},{"attributes":{"ID":660272,"DIS_CODE":0,"TOWNNAME":"永康區","LI":"西灣里","LIN":"53鄰","STREET":"文化路","SECT":" ","MAREA":" ","LANE":" ","ALLEY":" ","HOUSE_NO":"２３３號","E_COORD97":173663.459814,"N_COORD97":2546144.9080699999,"ADDRESS":"文化路２３３號","OBJECTID":660245},"geometry":{"x":173663.45981400087,"y":2546144.9080720041}},{"attributes":{"ID":660273,"DIS_CODE":0,"TOWNNAME":"永康區","LI":"西灣里","LIN":"53鄰","STREET":"文化路","SECT":" ","MAREA":" ","LANE":" ","ALLEY":" ","HOUSE_NO":"２３１號","E_COORD97":173666.42713200001,"N_COORD97":2546146.38974,"ADDRESS":"文化路２３１號","OBJECTID":660246},"geometry":{"x":173666.42713200022,"y":2546146.3897379991}},{"attributes":{"ID":660274,"DIS_CODE":0,"TOWNNAME":"永康區","LI":"西灣里","LIN":"53鄰","STREET":"文化路","SECT":" ","MAREA":" ","LANE":" ","ALLEY":" ","HOUSE_NO":"２２９號","E_COORD97":173669.18249899999,"N_COORD97":2546147.65974,"ADDRESS":"文化路２２９號","OBJECTID":660247},"geometry":{"x":173669.1824990008,"y":2546147.6597370002}},{"attributes":{"ID":660275,"DIS_CODE":0,"TOWNNAME":"永康區","LI":"西灣里","LIN":"53鄰","STREET":"文化路","SECT":" ","MAREA":" ","LANE":" ","ALLEY":" ","HOUSE_NO":"２２７號","E_COORD97":173673.63347599999,"N_COORD97":2546149.5647399998,"ADDRESS":"文化路２２７號","OBJECTID":660248},"geometry":{"x":173673.63347600028,"y":2546149.5647359993}},{"attributes":{"ID":660276,"DIS_CODE":0,"TOWNNAME":"永康區","LI":"西灣里","LIN":"28鄰","STREET":"公園路","SECT":" ","MAREA":" ","LANE":" ","ALLEY":" ","HOUSE_NO":"９號","E_COORD97":174472.90180699999,"N_COORD97":2546005.9489799999,"ADDRESS":"公園路９號","OBJECTID":660249},"geometry":{"x":174472.90180699993,"y":2546005.9489810001}},{"attributes":{"ID":660277,"DIS_CODE":0,"TOWNNAME":"永康區","LI":"東橋里","LIN":"14鄰","STREET":"東橋一路","SECT":" ","MAREA":" ","LANE":" ","ALLEY":" ","HOUSE_NO":"１２號","E_COORD97":171631.90665799999,"N_COORD97":2546351.9179600002,"ADDRESS":"東橋一路１２號","OBJECTID":660250},"geometry":{"x":171631.90665800031,"y":2546351.9179599993}},{"attributes":{"ID":660278,"DIS_CODE":0,"TOWNNAME":"永康區","LI":"東橋里","LIN":"14鄰","STREET":"東橋一路","SECT":" ","MAREA":" ","LANE":" ","ALLEY":" ","HOUSE_NO":"２０號","E_COORD97":171615.16250599999,"N_COORD97":2546374.3546199999,"ADDRESS":"東橋一路２０號","OBJECTID":660251},"geometry":{"x":171615.16250600107,"y":2546374.354615001}},{"attributes":{"ID":660279,"DIS_CODE":0,"TOWNNAME":"永康區","LI":"東橋里","LIN":"14鄰","STREET":"東橋一路","SECT":" ","MAREA":" ","LANE":" ","ALLEY":" ","HOUSE_NO":"２２號","E_COORD97":171613.678847,"N_COORD97":2546376.6829499998,"ADDRESS":"東橋一路２２號","OBJECTID":660252},"geometry":{"x":171613.67884700187,"y":2546376.6829470005}},{"attributes":{"ID":660280,"DIS_CODE":0,"TOWNNAME":"永康區","LI":"埔園里","LIN":"37鄰","STREET":"龍國街","SECT":" ","MAREA":" ","LANE":" ","ALLEY":" ","HOUSE_NO":"１４３號","E_COORD97":174335.981271,"N_COORD97":2548070.7562000002,"ADDRESS":"龍國街１４３號","OBJECTID":660253},"geometry":{"x":174335.98127099965,"y":2548070.7561990023}},{"attributes":{"ID":660281,"DIS_CODE":0,"TOWNNAME":"永康區","LI":"埔園里","LIN":"37鄰","STREET":"龍國街","SECT":" ","MAREA":" ","LANE":" ","ALLEY":" ","HOUSE_NO":"１４５號","E_COORD97":174340.432248,"N_COORD97":2548070.9678699998,"ADDRESS":"龍國街１４５號","OBJECTID":660254},"geometry":{"x":174340.43224800099,"y":2548070.9678659998}},{"attributes":{"ID":660282,"DIS_CODE":0,"TOWNNAME":"安定區","LI":"中榮里","LIN":"2鄰","STREET":" ","SECT":" ","MAREA":"許中營","LANE":" ","ALLEY":" ","HOUSE_NO":"２３之１號","E_COORD97":172605.19194700001,"N_COORD97":2554765.7476900001,"ADDRESS":"許中營２３之１號","OBJECTID":660255},"geometry":{"x":172605.1919470001,"y":2554765.7476870008}},{"attributes":{"ID":660283,"DIS_CODE":0,"TOWNNAME":"永康區","LI":"埔園里","LIN":"37鄰","STREET":"龍國街","SECT":" ","MAREA":" ","LANE":"１３１巷","ALLEY":"１２弄","HOUSE_NO":"１８號","E_COORD97":174356.11664399999,"N_COORD97":2548150.9778200001,"ADDRESS":"龍國街１３１巷１２弄１８號","OBJECTID":660256},"geometry":{"x":174356.11664400063,"y":2548150.9778220002}},{"attributes":{"ID":660284,"DIS_CODE":0,"TOWNNAME":"永康區","LI":"埔園里","LIN":"37鄰","STREET":"龍國街","SECT":" ","MAREA":" ","LANE":"１３１巷","ALLEY":"１２弄","HOUSE_NO":"２０號","E_COORD97":174358.87200999999,"N_COORD97":2548150.7661600001,"ADDRESS":"龍國街１３１巷１２弄２０號","OBJECTID":660257},"geometry":{"x":174358.87201000005,"y":2548150.7661560029}},{"attributes":{"ID":660285,"DIS_CODE":0,"TOWNNAME":"永康區","LI":"埔園里","LIN":"37鄰","STREET":"龍國街","SECT":" ","MAREA":" ","LANE":"１３１巷","ALLEY":"１２弄","HOUSE_NO":"２２號","E_COORD97":174358.44810800001,"N_COORD97":2548146.9561600001,"ADDRESS":"龍國街１３１巷１２弄２２號","OBJECTID":660258},"geometry":{"x":174358.44810800068,"y":2548146.9561580028}},{"attributes":{"ID":660286,"DIS_CODE":0,"TOWNNAME":"永康區","LI":"埔園里","LIN":"37鄰","STREET":"龍國街","SECT":" ","MAREA":" ","LANE":"１３１巷","ALLEY":"１２弄","HOUSE_NO":"２６號","E_COORD97":174358.02420499999,"N_COORD97":2548143.9928299999,"ADDRESS":"龍國街１３１巷１２弄２６號","OBJECTID":660259},"geometry":{"x":174358.02420500014,"y":2548143.9928259999}},{"attributes":{"ID":660287,"DIS_CODE":0,"TOWNNAME":"永康區","LI":"埔園里","LIN":"37鄰","STREET":"龍國街","SECT":" ","MAREA":" ","LANE":"１３１巷","ALLEY":"１２弄","HOUSE_NO":"２８號","E_COORD97":174357.60030300001,"N_COORD97":2548140.8178300001,"ADDRESS":"龍國街１３１巷１２弄２８號","OBJECTID":660260},"geometry":{"x":174357.60030300077,"y":2548140.8178280015}},{"attributes":{"ID":660288,"DIS_CODE":0,"TOWNNAME":"永康區","LI":"埔園里","LIN":"37鄰","STREET":"龍國街","SECT":" ","MAREA":" ","LANE":"１３１巷","ALLEY":"１２弄","HOUSE_NO":"３０號","E_COORD97":174356.75249700001,"N_COORD97":2548138.4895000001,"ADDRESS":"龍國街１３１巷１２弄３０號","OBJECTID":660261},"geometry":{"x":174356.75249700155,"y":2548138.489496002}},{"attributes":{"ID":660289,"DIS_CODE":0,"TOWNNAME":"永康區","LI":"埔園里","LIN":"37鄰","STREET":"龍國街","SECT":" ","MAREA":" ","LANE":"１３１巷","ALLEY":"１２弄","HOUSE_NO":"３２號","E_COORD97":174356.540546,"N_COORD97":2548134.2561699999,"ADDRESS":"龍國街１３１巷１２弄３２號","OBJECTID":660262},"geometry":{"x":174356.540546,"y":2548134.2561649997}},{"attributes":{"ID":660290,"DIS_CODE":0,"TOWNNAME":"永康區","LI":"埔園里","LIN":"36鄰","STREET":"龍中街","SECT":" ","MAREA":" ","LANE":" ","ALLEY":" ","HOUSE_NO":"４８５之２號","E_COORD97":174394.26787700001,"N_COORD97":2548261.4677599999,"ADDRESS":"龍中街４８５之２號","OBJECTID":660263},"geometry":{"x":174394.26787700038,"y":2548261.467763003}},{"attributes":{"ID":660291,"DIS_CODE":0,"TOWNNAME":"永康區","LI":"埔園里","LIN":"36鄰","STREET":"龍中街","SECT":" ","MAREA":" ","LANE":" ","ALLEY":" ","HOUSE_NO":"４８５之１號","E_COORD97":174394.26787700001,"N_COORD97":2548257.4460999998,"ADDRESS":"龍中街４８５之１號","OBJECTID":660264},"geometry":{"x":174394.26787700038,"y":2548257.4460980017}},{"attributes":{"ID":660292,"DIS_CODE":0,"TOWNNAME":"永康區","LI":"埔園里","LIN":"36鄰","STREET":"龍中街","SECT":" ","MAREA":" ","LANE":" ","ALLEY":" ","HOUSE_NO":"４８５號","E_COORD97":174395.115682,"N_COORD97":2548253.6360999998,"ADDRESS":"龍中街４８５號","OBJECTID":660265},"geometry":{"x":174395.11568200029,"y":2548253.6361000035}},{"attributes":{"ID":660293,"DIS_CODE":0,"TOWNNAME":"永康區","LI":"埔園里","LIN":"36鄰","STREET":"龍中街","SECT":" ","MAREA":" ","LANE":" ","ALLEY":" ","HOUSE_NO":"４８３號","E_COORD97":174395.115682,"N_COORD97":2548250.2494399999,"ADDRESS":"龍中街４８３號","OBJECTID":660266},"geometry":{"x":174395.11568200029,"y":2548250.249435002}},{"attributes":{"ID":660294,"DIS_CODE":0,"TOWNNAME":"永康區","LI":"埔園里","LIN":"36鄰","STREET":"龍中街","SECT":" ","MAREA":" ","LANE":" ","ALLEY":" ","HOUSE_NO":"４８１號","E_COORD97":174395.53958400001,"N_COORD97":2548246.86277,"ADDRESS":"龍中街４８１號","OBJECTID":660267},"geometry":{"x":174395.53958399966,"y":2548246.8627710007}},{"attributes":{"ID":660295,"DIS_CODE":0,"TOWNNAME":"永康區","LI":"埔園里","LIN":"36鄰","STREET":"龍中街","SECT":" ","MAREA":" ","LANE":" ","ALLEY":" ","HOUSE_NO":"４７９號","E_COORD97":174395.32763300001,"N_COORD97":2548243.4761100002,"ADDRESS":"龍中街４７９號","OBJECTID":660268},"geometry":{"x":174395.32763300091,"y":2548243.4761059992}},{"attributes":{"ID":660296,"DIS_CODE":0,"TOWNNAME":"永康區","LI":"埔園里","LIN":"36鄰","STREET":"龍中街","SECT":" ","MAREA":" ","LANE":" ","ALLEY":" ","HOUSE_NO":"４７７號","E_COORD97":174395.32763300001,"N_COORD97":2548240.3011099999,"ADDRESS":"龍中街４７７號","OBJECTID":660269},"geometry":{"x":174395.32763300091,"y":2548240.3011070006}},{"attributes":{"ID":660297,"DIS_CODE":0,"TOWNNAME":"永康區","LI":"埔園里","LIN":"36鄰","STREET":"龍中街","SECT":" ","MAREA":" ","LANE":" ","ALLEY":" ","HOUSE_NO":"４７５號","E_COORD97":174395.32763300001,"N_COORD97":2548237.1261100001,"ADDRESS":"龍中街４７５號","OBJECTID":660270},"geometry":{"x":174395.32763300091,"y":2548237.1261090003}},{"attributes":{"ID":660298,"DIS_CODE":0,"TOWNNAME":"永康區","LI":"埔園里","LIN":"36鄰","STREET":"龍中街","SECT":" ","MAREA":" ","LANE":" ","ALLEY":" ","HOUSE_NO":"４７３號","E_COORD97":174395.963487,"N_COORD97":2548234.58611,"ADDRESS":"龍中街４７３號","OBJECTID":660271},"geometry":{"x":174395.9634870002,"y":2548234.5861110017}},{"attributes":{"ID":660299,"DIS_CODE":0,"TOWNNAME":"永康區","LI":"埔園里","LIN":"36鄰","STREET":"龍中街","SECT":" ","MAREA":" ","LANE":" ","ALLEY":" ","HOUSE_NO":"４７１號","E_COORD97":174396.17543800001,"N_COORD97":2548232.04611,"ADDRESS":"龍中街４７１號","OBJECTID":660272},"geometry":{"x":174396.17543800082,"y":2548232.0461120009}},{"attributes":{"ID":660300,"DIS_CODE":0,"TOWNNAME":"永康區","LI":"崑山里","LIN":"40鄰","STREET":"崑山街","SECT":" ","MAREA":" ","LANE":"２２２巷","ALLEY":" ","HOUSE_NO":"３１號","E_COORD97":174222.16342600001,"N_COORD97":2545006.98869,"ADDRESS":"崑山街２２２巷３１號","OBJECTID":660273},"geometry":{"x":174222.16342599969,"y":2545006.9886869993}},{"attributes":{"ID":660301,"DIS_CODE":0,"TOWNNAME":"安定區","LI":"安加里","LIN":"9鄰","STREET":" ","SECT":" ","MAREA":"安定","LANE":" ","ALLEY":" ","HOUSE_NO":"２５６之８１號","E_COORD97":171817.60423,"N_COORD97":2557262.77801,"ADDRESS":"安定２５６之８１號","OBJECTID":660274},"geometry":{"x":171817.60423000157,"y":2557262.7780060023}},{"attributes":{"ID":660302,"DIS_CODE":0,"TOWNNAME":"永康區","LI":"崑山里","LIN":"40鄰","STREET":"崑山街","SECT":" ","MAREA":" ","LANE":"２２２巷","ALLEY":" ","HOUSE_NO":"３３號","E_COORD97":174224.49489,"N_COORD97":2545006.3536899998,"ADDRESS":"崑山街２２２巷３３號","OBJECTID":660275},"geometry":{"x":174224.49488999974,"y":2545006.3536869995}},{"attributes":{"ID":660303,"DIS_CODE":0,"TOWNNAME":"安定區","LI":"六嘉里","LIN":"12鄰","STREET":" ","SECT":" ","MAREA":"六塊寮","LANE":" ","ALLEY":" ","HOUSE_NO":"１５７之７號","E_COORD97":169940.496338,"N_COORD97":2552778.5691800001,"ADDRESS":"六塊寮１５７之７號","OBJECTID":660276},"geometry":{"x":169940.49633799959,"y":2552778.5691770017}},{"attributes":{"ID":660304,"DIS_CODE":0,"TOWNNAME":"永康區","LI":"新樹里","LIN":"1鄰","STREET":"富強路","SECT":"二段","MAREA":" ","LANE":"２７５巷","ALLEY":" ","HOUSE_NO":"５１號（農業資材室，","E_COORD97":175420.324092,"N_COORD97":2547422.3157199998,"ADDRESS":"富強路二段２７５巷５１號（農業資材室，不得設籍）","OBJECTID":660277},"geometry":{"x":175420.32409199979,"y":2547422.3157160003}},{"attributes":{"ID":660305,"DIS_CODE":0,"TOWNNAME":"永康區","LI":"蔦松里","LIN":"1鄰","STREET":"蔦松二街","SECT":" ","MAREA":" ","LANE":"８７巷","ALLEY":"３０弄","HOUSE_NO":"１號","E_COORD97":173664.51957,"N_COORD97":2549320.0121900002,"ADDRESS":"蔦松二街８７巷３０弄１號","OBJECTID":660278},"geometry":{"x":173664.51957000233,"y":2549320.0121910013}},{"attributes":{"ID":660306,"DIS_CODE":0,"TOWNNAME":"安定區","LI":"海寮里","LIN":"1鄰","STREET":" ","SECT":" ","MAREA":"海寮","LANE":" ","ALLEY":" ","HOUSE_NO":"５之５３號","E_COORD97":168154.217102,"N_COORD97":2554606.3098599999,"ADDRESS":"海寮５之５３號","OBJECTID":660279},"geometry":{"x":168154.21710200049,"y":2554606.3098570015}},{"attributes":{"ID":660307,"DIS_CODE":0,"TOWNNAME":"永康區","LI":"蔦松里","LIN":"1鄰","STREET":"蔦松二街","SECT":" ","MAREA":" ","LANE":"８７巷","ALLEY":"３０弄","HOUSE_NO":"３號","E_COORD97":173662.40005699999,"N_COORD97":2549315.9905300001,"ADDRESS":"蔦松二街８７巷３０弄３號","OBJECTID":660280},"geometry":{"x":173662.40005700104,"y":2549315.9905270003}},{"attributes":{"ID":660308,"DIS_CODE":0,"TOWNNAME":"永康區","LI":"蔦松里","LIN":"1鄰","STREET":"蔦松二街","SECT":" ","MAREA":" ","LANE":"８７巷","ALLEY":"３０弄","HOUSE_NO":"５號","E_COORD97":173660.068593,"N_COORD97":2549312.8155299998,"ADDRESS":"蔦松二街８７巷３０弄５號","OBJECTID":660281},"geometry":{"x":173660.06859300099,"y":2549312.8155280016}},{"attributes":{"ID":660309,"DIS_CODE":0,"TOWNNAME":"永康區","LI":"蔦松里","LIN":"1鄰","STREET":"蔦松二街","SECT":" ","MAREA":" ","LANE":"８７巷","ALLEY":"３０弄","HOUSE_NO":"７號","E_COORD97":173657.52517800001,"N_COORD97":2549308.7938600001,"ADDRESS":"蔦松二街８７巷３０弄７號","OBJECTID":660282},"geometry":{"x":173657.52517800033,"y":2549308.7938640006}},{"attributes":{"ID":660310,"DIS_CODE":0,"TOWNNAME":"永康區","LI":"蔦松里","LIN":"1鄰","STREET":"蔦松二街","SECT":" ","MAREA":" ","LANE":"８７巷","ALLEY":"３０弄","HOUSE_NO":"９號","E_COORD97":173655.405665,"N_COORD97":2549305.4071999998,"ADDRESS":"蔦松二街８７巷３０弄９號","OBJECTID":660283},"geometry":{"x":173655.4056650009,"y":2549305.4071990009}},{"attributes":{"ID":660311,"DIS_CODE":0,"TOWNNAME":"安定區","LI":"大同里","LIN":"14鄰","STREET":" ","SECT":" ","MAREA":"牛肉寮","LANE":" ","ALLEY":" ","HOUSE_NO":"６５之４１號","E_COORD97":171067.009991,"N_COORD97":2553307.8149299999,"ADDRESS":"牛肉寮６５之４１號","OBJECTID":660284},"geometry":{"x":171067.00999100134,"y":2553307.814933002}},{"attributes":{"ID":660312,"DIS_CODE":0,"TOWNNAME":"安定區","LI":"港尾里","LIN":"7鄰","STREET":" ","SECT":" ","MAREA":"港子尾","LANE":" ","ALLEY":" ","HOUSE_NO":"３７之３５號","E_COORD97":172134.604181,"N_COORD97":2556155.6825600001,"ADDRESS":"港子尾３７之３５號","OBJECTID":660285},"geometry":{"x":172134.60418100003,"y":2556155.682562001}},{"attributes":{"ID":660313,"DIS_CODE":0,"TOWNNAME":"玉井區","LI":"玉田里","LIN":"40鄰","STREET":"中山路","SECT":" ","MAREA":" ","LANE":" ","ALLEY":" ","HOUSE_NO":"２０８號","E_COORD97":195177.747455,"N_COORD97":2557719.1799699999,"ADDRESS":"中山路２０８號","OBJECTID":660286},"geometry":{"x":195177.74745500088,"y":2557719.1799730007}},{"attributes":{"ID":660314,"DIS_CODE":0,"TOWNNAME":"玉井區","LI":"玉田里","LIN":"22鄰","STREET":"中華路","SECT":" ","MAREA":" ","LANE":" ","ALLEY":" ","HOUSE_NO":"１１０號","E_COORD97":195024.31919899999,"N_COORD97":2557976.8840000001,"ADDRESS":"中華路１１０號","OBJECTID":660287},"geometry":{"x":195024.31919900142,"y":2557976.8840000015}},{"attributes":{"ID":660315,"DIS_CODE":0,"TOWNNAME":"玉井區","LI":"玉田里","LIN":"24鄰","STREET":"中華路","SECT":" ","MAREA":" ","LANE":" ","ALLEY":" ","HOUSE_NO":"１３２號之１","E_COORD97":195045.72552000001,"N_COORD97":2557950.9575,"ADDRESS":"中華路１３２號之１","OBJECTID":660288},"geometry":{"x":195045.72552000079,"y":2557950.9575000033}},{"attributes":{"ID":660316,"DIS_CODE":0,"TOWNNAME":"玉井區","LI":"玉田里","LIN":"21鄰","STREET":"中華路","SECT":" ","MAREA":" ","LANE":" ","ALLEY":" ","HOUSE_NO":"２５１號","E_COORD97":195231.577151,"N_COORD97":2557806.38925,"ADDRESS":"中華路２５１號","OBJECTID":660289},"geometry":{"x":195231.57715099957,"y":2557806.3892450016}},{"attributes":{"ID":660317,"DIS_CODE":0,"TOWNNAME":"山上區","LI":"新莊里","LIN":"9鄰","STREET":" ","SECT":" ","MAREA":"大庄","LANE":" ","ALLEY":" ","HOUSE_NO":"５６號","E_COORD97":182777.31886900001,"N_COORD97":2554018.5804699999,"ADDRESS":"大庄５６號","OBJECTID":660290},"geometry":{"x":182777.31886900123,"y":2554018.5804670006}},{"attributes":{"ID":660318,"DIS_CODE":0,"TOWNNAME":"山上區","LI":"新莊里","LIN":"9鄰","STREET":" ","SECT":" ","MAREA":"大庄","LANE":" ","ALLEY":" ","HOUSE_NO":"５６號","E_COORD97":182748.533008,"N_COORD97":2554215.5425900002,"ADDRESS":"大庄５６號","OBJECTID":660291},"geometry":{"x":182748.53300799895,"y":2554215.542588003}},{"attributes":{"ID":660319,"DIS_CODE":0,"TOWNNAME":"山上區","LI":"新莊里","LIN":"1鄰","STREET":" ","SECT":" ","MAREA":"新庄","LANE":" ","ALLEY":" ","HOUSE_NO":"１號之５","E_COORD97":184735.42593200001,"N_COORD97":2554971.28523,"ADDRESS":"新庄１號之５","OBJECTID":660292},"geometry":{"x":184735.42593200039,"y":2554971.2852250002}},{"attributes":{"ID":660320,"DIS_CODE":0,"TOWNNAME":"山上區","LI":"新莊里","LIN":"1鄰","STREET":" ","SECT":" ","MAREA":"新庄","LANE":" ","ALLEY":" ","HOUSE_NO":"１號之８","E_COORD97":184685.962401,"N_COORD97":2554955.7309300001,"ADDRESS":"新庄１號之８","OBJECTID":660293},"geometry":{"x":184685.96240100078,"y":2554955.7309309989}},{"attributes":{"ID":660321,"DIS_CODE":0,"TOWNNAME":"山上區","LI":"新莊里","LIN":"1鄰","STREET":" ","SECT":" ","MAREA":"新庄","LANE":" ","ALLEY":" ","HOUSE_NO":"１之１９號","E_COORD97":184734.57853599999,"N_COORD97":2555010.12604,"ADDRESS":"新庄１之１９號","OBJECTID":660294},"geometry":{"x":184734.5785360001,"y":2555010.1260380019}},{"attributes":{"ID":660322,"DIS_CODE":0,"TOWNNAME":"善化區","LI":"溪美里","LIN":"5鄰","STREET":" ","SECT":" ","MAREA":"溪尾","LANE":" ","ALLEY":" ","HOUSE_NO":"４６號之１","E_COORD97":176727.15190999999,"N_COORD97":2561223.1479199999,"ADDRESS":"溪尾４６號之１","OBJECTID":660295},"geometry":{"x":176727.15191000048,"y":2561223.1479200032}},{"attributes":{"ID":660323,"DIS_CODE":0,"TOWNNAME":"善化區","LI":"溪美里","LIN":"14鄰","STREET":" ","SECT":" ","MAREA":"溪尾","LANE":" ","ALLEY":" ","HOUSE_NO":"１３０號之３","E_COORD97":176940.95433000001,"N_COORD97":2561384.2261600001,"ADDRESS":"溪尾１３０號之３","OBJECTID":660296},"geometry":{"x":176940.95433000103,"y":2561384.226160001}},{"attributes":{"ID":660324,"DIS_CODE":0,"TOWNNAME":"善化區","LI":"溪美里","LIN":"14鄰","STREET":" ","SECT":" ","MAREA":"溪尾","LANE":" ","ALLEY":" ","HOUSE_NO":"７２號之１３","E_COORD97":176166.61567999999,"N_COORD97":2561070.05008,"ADDRESS":"溪尾７２號之１３","OBJECTID":660297},"geometry":{"x":176166.61567999888,"y":2561070.0500799995}},{"attributes":{"ID":660325,"DIS_CODE":0,"TOWNNAME":"善化區","LI":"溪美里","LIN":"20鄰","STREET":" ","SECT":" ","MAREA":"溪尾","LANE":" ","ALLEY":" ","HOUSE_NO":"１７８號之８","E_COORD97":176887.47223000001,"N_COORD97":2561223.1801,"ADDRESS":"溪尾１７８號之８","OBJECTID":660298},"geometry":{"x":176887.47223000042,"y":2561223.1800999995}},{"attributes":{"ID":660326,"DIS_CODE":0,"TOWNNAME":"善化區","LI":"溪美里","LIN":"5鄰","STREET":" ","SECT":" ","MAREA":"溪尾","LANE":" ","ALLEY":" ","HOUSE_NO":"４３號之６","E_COORD97":176595.79827,"N_COORD97":2561125.39016,"ADDRESS":"溪尾４３號之６","OBJECTID":660299},"geometry":{"x":176595.79827000108,"y":2561125.3901600018}},{"attributes":{"ID":660327,"DIS_CODE":0,"TOWNNAME":"善化區","LI":"溪美里","LIN":"8鄰","STREET":" ","SECT":" ","MAREA":"溪尾","LANE":" ","ALLEY":" ","HOUSE_NO":"７２號之１２","E_COORD97":176134.94734000001,"N_COORD97":2560988.02929,"ADDRESS":"溪尾７２號之１２","OBJECTID":660300},"geometry":{"x":176134.94734000228,"y":2560988.02929}},{"attributes":{"ID":660328,"DIS_CODE":0,"TOWNNAME":"善化區","LI":"溪美里","LIN":"12鄰","STREET":" ","SECT":" ","MAREA":"溪尾","LANE":" ","ALLEY":" ","HOUSE_NO":"１１３號之１３","E_COORD97":176162.59968000001,"N_COORD97":2562000.8537499998,"ADDRESS":"溪尾１１３號之１３","OBJECTID":660301},"geometry":{"x":176162.59967999998,"y":2562000.8537500016}},{"attributes":{"ID":660329,"DIS_CODE":0,"TOWNNAME":"山上區","LI":"新莊里","LIN":"1鄰","STREET":" ","SECT":" ","MAREA":"新庄","LANE":" ","ALLEY":" ","HOUSE_NO":"７號之１","E_COORD97":185101.48989999999,"N_COORD97":2554989.43878,"ADDRESS":"新庄７號之１","OBJECTID":660302},"geometry":{"x":185101.48990000132,"y":2554989.4387839995}},{"attributes":{"ID":660330,"DIS_CODE":0,"TOWNNAME":"山上區","LI":"新莊里","LIN":"5鄰","STREET":" ","SECT":" ","MAREA":"新庄","LANE":" ","ALLEY":" ","HOUSE_NO":"５５之１號","E_COORD97":184793.78711800001,"N_COORD97":2555186.54691,"ADDRESS":"新庄５５之１號","OBJECTID":660303},"geometry":{"x":184793.78711800091,"y":2555186.5469119996}},{"attributes":{"ID":660331,"DIS_CODE":0,"TOWNNAME":"山上區","LI":"新莊里","LIN":"5鄰","STREET":" ","SECT":" ","MAREA":"新庄","LANE":" ","ALLEY":" ","HOUSE_NO":"５５號","E_COORD97":184834.88581499999,"N_COORD97":2555191.6269100001,"ADDRESS":"新庄５５號","OBJECTID":660304},"geometry":{"x":184834.88581500202,"y":2555191.6269089989}},{"attributes":{"ID":660332,"DIS_CODE":0,"TOWNNAME":"山上區","LI":"新莊里","LIN":"5鄰","STREET":" ","SECT":" ","MAREA":"新庄","LANE":" ","ALLEY":" ","HOUSE_NO":"５５號之１","E_COORD97":184789.973837,"N_COORD97":2555191.3094100002,"ADDRESS":"新庄５５號之１","OBJECTID":660305},"geometry":{"x":184789.97383700218,"y":2555191.3094100002}},{"attributes":{"ID":660333,"DIS_CODE":0,"TOWNNAME":"山上區","LI":"新莊里","LIN":"5鄰","STREET":" ","SECT":" ","MAREA":"新庄","LANE":" ","ALLEY":" ","HOUSE_NO":"５７號之３","E_COORD97":184829.589591,"N_COORD97":2555162.2052600002,"ADDRESS":"新庄５７號之３","OBJECTID":660306},"geometry":{"x":184829.58959100023,"y":2555162.2052590027}},{"attributes":{"ID":660334,"DIS_CODE":0,"TOWNNAME":"新營區","LI":"王公里","LIN":"13鄰","STREET":"民族路","SECT":" ","MAREA":" ","LANE":"１０６巷","ALLEY":" ","HOUSE_NO":"６７號","E_COORD97":180445.24813699999,"N_COORD97":2579107.5364299999,"ADDRESS":"民族路１０６巷６７號","OBJECTID":660307},"geometry":{"x":180445.24813700095,"y":2579107.5364340041}},{"attributes":{"ID":660335,"DIS_CODE":0,"TOWNNAME":"新營區","LI":"王公里","LIN":"13鄰","STREET":"民族路","SECT":" ","MAREA":" ","LANE":"１０６巷","ALLEY":" ","HOUSE_NO":"６８號","E_COORD97":180435.713437,"N_COORD97":2579107.1131000002,"ADDRESS":"民族路１０６巷６８號","OBJECTID":660308},"geometry":{"x":180435.71343700215,"y":2579107.113101}},{"attributes":{"ID":660336,"DIS_CODE":0,"TOWNNAME":"新營區","LI":"王公里","LIN":"13鄰","STREET":"民族路","SECT":" ","MAREA":" ","LANE":"１０６巷","ALLEY":" ","HOUSE_NO":"６９號","E_COORD97":180426.17873700001,"N_COORD97":2579105.41977,"ADDRESS":"民族路１０６巷６９號","OBJECTID":660309},"geometry":{"x":180426.17873700056,"y":2579105.4197680019}},{"attributes":{"ID":660337,"DIS_CODE":0,"TOWNNAME":"新營區","LI":"王公里","LIN":"13鄰","STREET":"民族路","SECT":" ","MAREA":" ","LANE":"１１４巷","ALLEY":" ","HOUSE_NO":"６０號","E_COORD97":180501.60880799999,"N_COORD97":2579207.33721,"ADDRESS":"民族路１１４巷６０號","OBJECTID":660310},"geometry":{"x":180501.60880799964,"y":2579207.3372130003}},{"attributes":{"ID":660338,"DIS_CODE":0,"TOWNNAME":"新營區","LI":"王公里","LIN":"13鄰","STREET":"義和街","SECT":" ","MAREA":" ","LANE":"８巷","ALLEY":" ","HOUSE_NO":"３０號之１","E_COORD97":180493.345401,"N_COORD97":2579150.5047399998,"ADDRESS":"義和街８巷３０號之１","OBJECTID":660311},"geometry":{"x":180493.34540100116,"y":2579150.5047440045}},{"attributes":{"ID":660339,"DIS_CODE":0,"TOWNNAME":"新營區","LI":"王公里","LIN":"12鄰","STREET":"義和街","SECT":" ","MAREA":" ","LANE":" ","ALLEY":" ","HOUSE_NO":"１１號","E_COORD97":180447.79072300001,"N_COORD97":2579035.67564,"ADDRESS":"義和街１１號","OBJECTID":660312},"geometry":{"x":180447.79072299972,"y":2579035.6756390017}},{"attributes":{"ID":660340,"DIS_CODE":0,"TOWNNAME":"新營區","LI":"王公里","LIN":"16鄰","STREET":"大仁街","SECT":" ","MAREA":" ","LANE":" ","ALLEY":" ","HOUSE_NO":"４７號","E_COORD97":180284.641413,"N_COORD97":2579384.18462,"ADDRESS":"大仁街４７號","OBJECTID":660313},"geometry":{"x":180284.64141300041,"y":2579384.1846179999}},{"attributes":{"ID":660341,"DIS_CODE":0,"TOWNNAME":"新營區","LI":"王公里","LIN":"16鄰","STREET":"大仁街","SECT":" ","MAREA":" ","LANE":" ","ALLEY":" ","HOUSE_NO":"４９之１號","E_COORD97":180287.60776399999,"N_COORD97":2579402.0704399999,"ADDRESS":"大仁街４９之１號","OBJECTID":660314},"geometry":{"x":180287.60776400007,"y":2579402.070441002}},{"attributes":{"ID":660342,"DIS_CODE":0,"TOWNNAME":"新化區","LI":"\u25A0拔里","LIN":"3鄰","STREET":" ","SECT":" ","MAREA":"\u25A0拔林","LANE":" ","ALLEY":" ","HOUSE_NO":"１２２號","E_COORD97":183610.89408,"N_COORD97":2552018.7687400002,"ADDRESS":"\u25A0拔林１２２號","OBJECTID":660315},"geometry":{"x":183610.89408,"y":2552018.7687400021}},{"attributes":{"ID":660343,"DIS_CODE":0,"TOWNNAME":"永康區","LI":"蔦松里","LIN":"1鄰","STREET":"蔦松二街","SECT":" ","MAREA":" ","LANE":"８７巷","ALLEY":"３０弄","HOUSE_NO":"１１號","E_COORD97":173653.72479199999,"N_COORD97":2549302.6496100002,"ADDRESS":"蔦松二街８７巷３０弄１１號","OBJECTID":660316},"geometry":{"x":173653.72479200177,"y":2549302.6496090014}},{"attributes":{"ID":660344,"DIS_CODE":0,"TOWNNAME":"東區","LI":"大德里","LIN":"18鄰","STREET":"立德十一路","SECT":" ","MAREA":" ","LANE":"５５巷","ALLEY":"３８弄","HOUSE_NO":"２１號","E_COORD97":169513.533528,"N_COORD97":2542234.68499,"ADDRESS":"立德十一路５５巷３８弄２１號","OBJECTID":660317},"geometry":{"x":169513.53352800105,"y":2542234.6849890035}},{"attributes":{"ID":660345,"DIS_CODE":0,"TOWNNAME":"東區","LI":"大德里","LIN":"18鄰","STREET":"立德十一路","SECT":" ","MAREA":" ","LANE":"５５巷","ALLEY":"３８弄","HOUSE_NO":"２２號","E_COORD97":169522.43222300001,"N_COORD97":2542241.6699899998,"ADDRESS":"立德十一路５５巷３８弄２２號","OBJECTID":660318},"geometry":{"x":169522.43222300056,"y":2542241.6699850019}},{"attributes":{"ID":660346,"DIS_CODE":0,"TOWNNAME":"東區","LI":"大德里","LIN":"18鄰","STREET":"立德十一路","SECT":" ","MAREA":" ","LANE":"５５巷","ALLEY":"３８弄","HOUSE_NO":"２４號","E_COORD97":169508.66043300001,"N_COORD97":2542236.8016599999,"ADDRESS":"立德十一路５５巷３８弄２４號","OBJECTID":660319},"geometry":{"x":169508.66043300182,"y":2542236.8016550001}},{"attributes":{"ID":660347,"DIS_CODE":0,"TOWNNAME":"永康區","LI":"蔦松里","LIN":"1鄰","STREET":"蔦松二街","SECT":" ","MAREA":" ","LANE":"８７巷","ALLEY":"３０弄","HOUSE_NO":"１３號","E_COORD97":173652.45308400001,"N_COORD97":2549299.4746099999,"ADDRESS":"蔦松二街８７巷３０弄１３號","OBJECTID":660320},"geometry":{"x":173652.45308400039,"y":2549299.474611003}},{"attributes":{"ID":660348,"DIS_CODE":0,"TOWNNAME":"官田區","LI":"大崎里","LIN":"6鄰","STREET":" ","SECT":" ","MAREA":"大崎","LANE":" ","ALLEY":" ","HOUSE_NO":"４９號之２","E_COORD97":185756.752756,"N_COORD97":2565329.50972,"ADDRESS":"大崎４９號之２","OBJECTID":660321},"geometry":{"x":185756.7527560005,"y":2565329.5097160023}},{"attributes":{"ID":660349,"DIS_CODE":0,"TOWNNAME":"官田區","LI":"大崎里","LIN":"6鄰","STREET":" ","SECT":" ","MAREA":"大崎","LANE":" ","ALLEY":" ","HOUSE_NO":"４９號之３","E_COORD97":185754.210261,"N_COORD97":2565307.9197300002,"ADDRESS":"大崎４９號之３","OBJECTID":660322},"geometry":{"x":185754.21026100032,"y":2565307.9197280016}},{"attributes":{"ID":660350,"DIS_CODE":0,"TOWNNAME":"新營區","LI":"王公里","LIN":"19鄰","STREET":"民族路","SECT":" ","MAREA":" ","LANE":"１１４巷","ALLEY":" ","HOUSE_NO":"１號","E_COORD97":180383.72283700001,"N_COORD97":2579218.38356,"ADDRESS":"民族路１１４巷１號","OBJECTID":660323},"geometry":{"x":180383.72283700109,"y":2579218.3835620005}},{"attributes":{"ID":660351,"DIS_CODE":0,"TOWNNAME":"官田區","LI":"大崎里","LIN":"6鄰","STREET":" ","SECT":" ","MAREA":"大崎","LANE":" ","ALLEY":" ","HOUSE_NO":"５３號之４","E_COORD97":185748.48964499999,"N_COORD97":2565291.6214000001,"ADDRESS":"大崎５３號之４","OBJECTID":660324},"geometry":{"x":185748.48964500055,"y":2565291.6214030012}},{"attributes":{"ID":660352,"DIS_CODE":0,"TOWNNAME":"永康區","LI":"蔦松里","LIN":"1鄰","STREET":"蔦松二街","SECT":" ","MAREA":" ","LANE":"８７巷","ALLEY":"３０弄","HOUSE_NO":"１５號","E_COORD97":173650.75747400001,"N_COORD97":2549296.9346099999,"ADDRESS":"蔦松二街８７巷３０弄１５號","OBJECTID":660325},"geometry":{"x":173650.75747399963,"y":2549296.9346120022}},{"attributes":{"ID":660353,"DIS_CODE":0,"TOWNNAME":"永康區","LI":"蔦松里","LIN":"1鄰","STREET":"蔦松二街","SECT":" ","MAREA":" ","LANE":"８７巷","ALLEY":"３０弄","HOUSE_NO":"１７號","E_COORD97":173649.06186399999,"N_COORD97":2549294.3946099998,"ADDRESS":"蔦松二街８７巷３０弄１７號","OBJECTID":660326},"geometry":{"x":173649.06186399981,"y":2549294.3946140036}},{"attributes":{"ID":660354,"DIS_CODE":0,"TOWNNAME":"永康區","LI":"蔦松里","LIN":"1鄰","STREET":"蔦松二街","SECT":" ","MAREA":" ","LANE":"８７巷","ALLEY":"３０弄","HOUSE_NO":"１９號","E_COORD97":173647.15430200001,"N_COORD97":2549292.7012800002,"ADDRESS":"蔦松二街８７巷３０弄１９號","OBJECTID":660327},"geometry":{"x":173647.154302001,"y":2549292.7012809999}},{"attributes":{"ID":660355,"DIS_CODE":0,"TOWNNAME":"永康區","LI":"龍潭里","LIN":"29鄰","STREET":"龍潭街","SECT":" ","MAREA":" ","LANE":"２６巷","ALLEY":" ","HOUSE_NO":"１３號","E_COORD97":174784.06104500001,"N_COORD97":2547773.6762700002,"ADDRESS":"龍潭街２６巷１３號","OBJECTID":660328},"geometry":{"x":174784.06104500126,"y":2547773.676268002}},{"attributes":{"ID":660356,"DIS_CODE":0,"TOWNNAME":"新營區","LI":"王公里","LIN":"10鄰","STREET":"民族路","SECT":" ","MAREA":" ","LANE":"１０６巷","ALLEY":" ","HOUSE_NO":"５號","E_COORD97":180406.81799899999,"N_COORD97":2579194.4652399998,"ADDRESS":"民族路１０６巷５號","OBJECTID":660329},"geometry":{"x":180406.81799899973,"y":2579194.4652410019}},{"attributes":{"ID":660357,"DIS_CODE":0,"TOWNNAME":"東區","LI":"大德里","LIN":"13鄰","STREET":"立德十路","SECT":" ","MAREA":" ","LANE":"８０巷","ALLEY":" ","HOUSE_NO":"２號","E_COORD97":169571.58692199999,"N_COORD97":2542043.8675899999,"ADDRESS":"立德十路８０巷２號","OBJECTID":660330},"geometry":{"x":169571.58692200109,"y":2542043.8675920013}},{"attributes":{"ID":660358,"DIS_CODE":0,"TOWNNAME":"東區","LI":"大德里","LIN":"13鄰","STREET":"立德十路","SECT":" ","MAREA":" ","LANE":"８０巷","ALLEY":" ","HOUSE_NO":"４號","E_COORD97":169573.07003800001,"N_COORD97":2542039.6342600002,"ADDRESS":"立德十路８０巷４號","OBJECTID":660331},"geometry":{"x":169573.07003799919,"y":2542039.6342610046}},{"attributes":{"ID":660359,"DIS_CODE":0,"TOWNNAME":"東區","LI":"大德里","LIN":"13鄰","STREET":"立德十路","SECT":" ","MAREA":" ","LANE":"８０巷","ALLEY":" ","HOUSE_NO":"１８號","E_COORD97":169573.07003800001,"N_COORD97":2542039.6342600002,"ADDRESS":"立德十路８０巷１８號","OBJECTID":660332},"geometry":{"x":169573.07003799919,"y":2542039.6342610046}},{"attributes":{"ID":660360,"DIS_CODE":0,"TOWNNAME":"東區","LI":"大德里","LIN":"13鄰","STREET":"立德十路","SECT":" ","MAREA":" ","LANE":"８０巷","ALLEY":" ","HOUSE_NO":"１８號","E_COORD97":169573.07003800001,"N_COORD97":2542039.6342600002,"ADDRESS":"立德十路８０巷１８號","OBJECTID":660333},"geometry":{"x":169573.07003799919,"y":2542039.6342610046}},{"attributes":{"ID":660361,"DIS_CODE":0,"TOWNNAME":"東區","LI":"大德里","LIN":"13鄰","STREET":"立德十路","SECT":" ","MAREA":" ","LANE":"８０巷","ALLEY":" ","HOUSE_NO":"１８號","E_COORD97":169573.07003800001,"N_COORD97":2542039.6342600002,"ADDRESS":"立德十路８０巷１８號","OBJECTID":660334},"geometry":{"x":169573.07003799919,"y":2542039.6342610046}},{"attributes":{"ID":660362,"DIS_CODE":0,"TOWNNAME":"東區","LI":"大德里","LIN":"13鄰","STREET":"立德十路","SECT":" ","MAREA":" ","LANE":"８０巷","ALLEY":" ","HOUSE_NO":"１８號","E_COORD97":169583.134039,"N_COORD97":2542001.5872,"ADDRESS":"立德十路８０巷１８號","OBJECTID":660335},"geometry":{"x":169583.13403900061,"y":2542001.5871980004}},{"attributes":{"ID":660363,"DIS_CODE":0,"TOWNNAME":"永康區","LI":"大灣里","LIN":"8鄰","STREET":"民族路","SECT":" ","MAREA":" ","LANE":"３９６巷","ALLEY":" ","HOUSE_NO":"３２之１號","E_COORD97":174757.99103500001,"N_COORD97":2545466.61668,"ADDRESS":"民族路３９６巷３２之１號","OBJECTID":660336},"geometry":{"x":174757.99103499949,"y":2545466.6166810039}},{"attributes":{"ID":660364,"DIS_CODE":0,"TOWNNAME":"東區","LI":"大德里","LIN":"17鄰","STREET":"立德十一路","SECT":" ","MAREA":" ","LANE":"８１巷","ALLEY":" ","HOUSE_NO":"５６號","E_COORD97":169539.69993,"N_COORD97":2542226.37708,"ADDRESS":"立德十一路８１巷５６號","OBJECTID":660337},"geometry":{"x":169539.69993000105,"y":2542226.3770770021}},{"attributes":{"ID":660365,"DIS_CODE":0,"TOWNNAME":"永康區","LI":"王行里","LIN":"16鄰","STREET":"永科環路","SECT":" ","MAREA":" ","LANE":" ","ALLEY":" ","HOUSE_NO":"１６８號","E_COORD97":176108.332731,"N_COORD97":2548486.9925500001,"ADDRESS":"永科環路１６８號","OBJECTID":660338},"geometry":{"x":176108.33273100108,"y":2548486.9925500043}},{"attributes":{"ID":660366,"DIS_CODE":0,"TOWNNAME":"永康區","LI":"王行里","LIN":"16鄰","STREET":"永科南路","SECT":" ","MAREA":" ","LANE":" ","ALLEY":" ","HOUSE_NO":"１８１號","E_COORD97":175970.988293,"N_COORD97":2548115.4119199999,"ADDRESS":"永科南路１８１號","OBJECTID":660339},"geometry":{"x":175970.98829299957,"y":2548115.4119170029}},{"attributes":{"ID":660367,"DIS_CODE":0,"TOWNNAME":"永康區","LI":"王行里","LIN":"16鄰","STREET":"永科南路","SECT":" ","MAREA":" ","LANE":" ","ALLEY":" ","HOUSE_NO":"１８９號","E_COORD97":175915.24510199999,"N_COORD97":2548101.01859,"ADDRESS":"永科南路１８９號","OBJECTID":660340},"geometry":{"x":175915.24510200135,"y":2548101.0185920019}},{"attributes":{"ID":660368,"DIS_CODE":0,"TOWNNAME":"永康區","LI":"王行里","LIN":"16鄰","STREET":"永科南路","SECT":" ","MAREA":" ","LANE":" ","ALLEY":" ","HOUSE_NO":"１９９號","E_COORD97":175859.07800899999,"N_COORD97":2548087.26027,"ADDRESS":"永科南路１９９號","OBJECTID":660341},"geometry":{"x":175859.07800900098,"y":2548087.2602660023}},{"attributes":{"ID":660369,"DIS_CODE":0,"TOWNNAME":"西港區","LI":"金砂里","LIN":"12鄰","STREET":" ","SECT":" ","MAREA":"下宅子","LANE":" ","ALLEY":" ","HOUSE_NO":"７號之２","E_COORD97":167724.68374000001,"N_COORD97":2561282.3454200001,"ADDRESS":"下宅子７號之２","OBJECTID":660342},"geometry":{"x":167724.68374000024,"y":2561282.3454200011}},{"attributes":{"ID":660370,"DIS_CODE":0,"TOWNNAME":"永康區","LI":"王行里","LIN":"2鄰","STREET":"永科南路","SECT":" ","MAREA":" ","LANE":" ","ALLEY":" ","HOUSE_NO":"３０號","E_COORD97":176593.489244,"N_COORD97":2548306.3351500002,"ADDRESS":"永科南路３０號","OBJECTID":660343},"geometry":{"x":176593.48924400005,"y":2548306.3351470008}},{"attributes":{"ID":660371,"DIS_CODE":0,"TOWNNAME":"永康區","LI":"王行里","LIN":"2鄰","STREET":"永科南路","SECT":" ","MAREA":" ","LANE":" ","ALLEY":" ","HOUSE_NO":"５０號","E_COORD97":176509.980434,"N_COORD97":2548284.1101600002,"ADDRESS":"永科南路５０號","OBJECTID":660344},"geometry":{"x":176509.98043400049,"y":2548284.1101590004}},{"attributes":{"ID":660372,"DIS_CODE":0,"TOWNNAME":"永康區","LI":"王行里","LIN":"2鄰","STREET":"永科南路","SECT":" ","MAREA":" ","LANE":" ","ALLEY":" ","HOUSE_NO":"５６號","E_COORD97":176492.17652499999,"N_COORD97":2548279.4534999998,"ADDRESS":"永科南路５６號","OBJECTID":660345},"geometry":{"x":176492.17652499955,"y":2548279.4534949996}},{"attributes":{"ID":660373,"DIS_CODE":0,"TOWNNAME":"永康區","LI":"王行里","LIN":"9鄰","STREET":"永科北路","SECT":" ","MAREA":" ","LANE":" ","ALLEY":" ","HOUSE_NO":"６２號","E_COORD97":175959.627909,"N_COORD97":2549695.4228400001,"ADDRESS":"永科北路６２號","OBJECTID":660346},"geometry":{"x":175959.62790900096,"y":2549695.4228429999}},{"attributes":{"ID":660374,"DIS_CODE":0,"TOWNNAME":"永康區","LI":"王行里","LIN":"13鄰","STREET":"王行東路","SECT":" ","MAREA":" ","LANE":" ","ALLEY":" ","HOUSE_NO":"３９８號","E_COORD97":176543.553724,"N_COORD97":2549139.6923099998,"ADDRESS":"王行東路３９８號","OBJECTID":660347},"geometry":{"x":176543.55372400023,"y":2549139.6923089996}},{"attributes":{"ID":660375,"DIS_CODE":0,"TOWNNAME":"東區","LI":"成大里","LIN":"31鄰","STREET":"北門路","SECT":"一段","MAREA":" ","LANE":" ","ALLEY":" ","HOUSE_NO":"１６號之１","E_COORD97":169312.742917,"N_COORD97":2544401.2710199999,"ADDRESS":"北門路一段１６號之１","OBJECTID":660348},"geometry":{"x":169312.74291699938,"y":2544401.2710229997}},{"attributes":{"ID":660376,"DIS_CODE":0,"TOWNNAME":"永康區","LI":"正強里","LIN":"1鄰","STREET":"中正路","SECT":" ","MAREA":" ","LANE":"１巷","ALLEY":" ","HOUSE_NO":"２之１號","E_COORD97":173701.18089300001,"N_COORD97":2547669.4828900001,"ADDRESS":"中正路１巷２之１號","OBJECTID":660349},"geometry":{"x":173701.18089300022,"y":2547669.4828950018}},{"attributes":{"ID":660377,"DIS_CODE":0,"TOWNNAME":"永康區","LI":"正強里","LIN":"1鄰","STREET":"中正路","SECT":" ","MAREA":" ","LANE":"１巷","ALLEY":" ","HOUSE_NO":"２之２號","E_COORD97":173704.78406500001,"N_COORD97":2547670.5412300001,"ADDRESS":"中正路１巷２之２號","OBJECTID":660350},"geometry":{"x":173704.78406500071,"y":2547670.5412280001}},{"attributes":{"ID":660378,"DIS_CODE":0,"TOWNNAME":"後壁區","LI":"竹新里","LIN":"15鄰","STREET":" ","SECT":" ","MAREA":"新厝","LANE":" ","ALLEY":" ","HOUSE_NO":"３２之５號","E_COORD97":179217.43749099999,"N_COORD97":2582253.8802700001,"ADDRESS":"新厝３２之５號","OBJECTID":660351},"geometry":{"x":179217.4374909997,"y":2582253.8802739996}},{"attributes":{"ID":660379,"DIS_CODE":0,"TOWNNAME":"永康區","LI":"正強里","LIN":"1鄰","STREET":"中正路","SECT":" ","MAREA":" ","LANE":"１巷","ALLEY":" ","HOUSE_NO":"２之３號","E_COORD97":173707.963334,"N_COORD97":2547672.2345599998,"ADDRESS":"中正路１巷２之３號","OBJECTID":660352},"geometry":{"x":173707.9633340016,"y":2547672.2345599979}},{"attributes":{"ID":660380,"DIS_CODE":0,"TOWNNAME":"官田區","LI":"大崎里","LIN":"7鄰","STREET":" ","SECT":" ","MAREA":"大崎","LANE":" ","ALLEY":" ","HOUSE_NO":"５９號之６","E_COORD97":185600.04065899999,"N_COORD97":2564766.1419500001,"ADDRESS":"大崎５９號之６","OBJECTID":660353},"geometry":{"x":185600.0406590011,"y":2564766.1419500001}},{"attributes":{"ID":660381,"DIS_CODE":0,"TOWNNAME":"永康區","LI":"正強里","LIN":"1鄰","STREET":"中正路","SECT":" ","MAREA":" ","LANE":"１巷","ALLEY":" ","HOUSE_NO":"５號","E_COORD97":173716.017483,"N_COORD97":2547663.3445600001,"ADDRESS":"中正路１巷５號","OBJECTID":660354},"geometry":{"x":173716.01748300064,"y":2547663.3445650004}},{"attributes":{"ID":660382,"DIS_CODE":0,"TOWNNAME":"永康區","LI":"正強里","LIN":"1鄰","STREET":"中正路","SECT":" ","MAREA":" ","LANE":"１巷","ALLEY":" ","HOUSE_NO":"３號","E_COORD97":173721.104314,"N_COORD97":2547667.5778999999,"ADDRESS":"中正路１巷３號","OBJECTID":660355},"geometry":{"x":173721.10431400128,"y":2547667.5778959971}},{"attributes":{"ID":660383,"DIS_CODE":0,"TOWNNAME":"永康區","LI":"西灣里","LIN":"29鄰","STREET":"公園路","SECT":" ","MAREA":" ","LANE":"６３巷","ALLEY":" ","HOUSE_NO":"１２號","E_COORD97":174332.371847,"N_COORD97":2545954.6663199998,"ADDRESS":"公園路６３巷１２號","OBJECTID":660356},"geometry":{"x":174332.3718470009,"y":2545954.6663210001}},{"attributes":{"ID":660384,"DIS_CODE":0,"TOWNNAME":"永康區","LI":"西灣里","LIN":"29鄰","STREET":"公園路","SECT":" ","MAREA":" ","LANE":"６３巷","ALLEY":" ","HOUSE_NO":"１６號","E_COORD97":174333.64355499999,"N_COORD97":2545951.7029900001,"ADDRESS":"公園路６３巷１６號","OBJECTID":660357},"geometry":{"x":174333.64355500136,"y":2545951.7029890027}},{"attributes":{"ID":660385,"DIS_CODE":0,"TOWNNAME":"永康區","LI":"西灣里","LIN":"29鄰","STREET":"公園路","SECT":" ","MAREA":" ","LANE":"６３巷","ALLEY":" ","HOUSE_NO":"１８號","E_COORD97":174334.49136000001,"N_COORD97":2545949.1629900001,"ADDRESS":"公園路６３巷１８號","OBJECTID":660358},"geometry":{"x":174334.4913600022,"y":2545949.1629910022}},{"attributes":{"ID":660386,"DIS_CODE":0,"TOWNNAME":"永康區","LI":"西灣里","LIN":"29鄰","STREET":"公園路","SECT":" ","MAREA":" ","LANE":"６３巷","ALLEY":" ","HOUSE_NO":"２０號","E_COORD97":174334.70331099999,"N_COORD97":2545946.8346600002,"ADDRESS":"公園路６３巷２０號","OBJECTID":660359},"geometry":{"x":174334.70331100095,"y":2545946.8346580006}},{"attributes":{"ID":660387,"DIS_CODE":0,"TOWNNAME":"東區","LI":"成大里","LIN":"22鄰","STREET":"育樂街","SECT":" ","MAREA":" ","LANE":"５７巷","ALLEY":"２弄","HOUSE_NO":"１７號之１","E_COORD97":169610.445852,"N_COORD97":2543971.5541400001,"ADDRESS":"育樂街５７巷２弄１７號之１","OBJECTID":660360},"geometry":{"x":169610.4458520012,"y":2543971.554142002}},{"attributes":{"ID":660388,"DIS_CODE":0,"TOWNNAME":"東區","LI":"成大里","LIN":"22鄰","STREET":"育樂街","SECT":" ","MAREA":" ","LANE":"５７巷","ALLEY":"２弄","HOUSE_NO":"１７號之２","E_COORD97":169615.53082099999,"N_COORD97":2543966.0508099999,"ADDRESS":"育樂街５７巷２弄１７號之２","OBJECTID":660361},"geometry":{"x":169615.53082100209,"y":2543966.0508120004}},{"attributes":{"ID":660389,"DIS_CODE":0,"TOWNNAME":"善化區","LI":"小新里","LIN":"11鄰","STREET":"蓮潭南街","SECT":" ","MAREA":" ","LANE":" ","ALLEY":" ","HOUSE_NO":"１１２號","E_COORD97":179197.07784499999,"N_COORD97":2556879.9517100002,"ADDRESS":"蓮潭南街１１２號","OBJECTID":660362},"geometry":{"x":179197.07784499973,"y":2556879.9517090023}},{"attributes":{"ID":660390,"DIS_CODE":0,"TOWNNAME":"善化區","LI":"小新里","LIN":"11鄰","STREET":"蓮潭南街","SECT":" ","MAREA":" ","LANE":" ","ALLEY":" ","HOUSE_NO":"１１６號","E_COORD97":179191.98990399999,"N_COORD97":2556880.1633799998,"ADDRESS":"蓮潭南街１１６號","OBJECTID":660363},"geometry":{"x":179191.98990400136,"y":2556880.1633749995}},{"attributes":{"ID":660391,"DIS_CODE":0,"TOWNNAME":"善化區","LI":"小新里","LIN":"11鄰","STREET":"蓮潭南街","SECT":" ","MAREA":" ","LANE":" ","ALLEY":" ","HOUSE_NO":"１１８號","E_COORD97":179186.47796799999,"N_COORD97":2556880.1633799998,"ADDRESS":"蓮潭南街１１８號","OBJECTID":660364},"geometry":{"x":179186.47796799988,"y":2556880.1633749995}},{"attributes":{"ID":660392,"DIS_CODE":0,"TOWNNAME":"善化區","LI":"小新里","LIN":"11鄰","STREET":"蓮潭南街","SECT":" ","MAREA":" ","LANE":" ","ALLEY":" ","HOUSE_NO":"１２０號","E_COORD97":179181.602025,"N_COORD97":2556880.79837,"ADDRESS":"蓮潭南街１２０號","OBJECTID":660365},"geometry":{"x":179181.60202500038,"y":2556880.7983749993}},{"attributes":{"ID":660393,"DIS_CODE":0,"TOWNNAME":"善化區","LI":"小新里","LIN":"11鄰","STREET":"蓮潭南街","SECT":" ","MAREA":" ","LANE":" ","ALLEY":" ","HOUSE_NO":"１２２號","E_COORD97":179176.30208699999,"N_COORD97":2556880.5867099999,"ADDRESS":"蓮潭南街１２２號","OBJECTID":660366},"geometry":{"x":179176.30208700057,"y":2556880.5867080018}},{"attributes":{"ID":660394,"DIS_CODE":0,"TOWNNAME":"善化區","LI":"小新里","LIN":"11鄰","STREET":"蓮潭南街","SECT":" ","MAREA":" ","LANE":" ","ALLEY":" ","HOUSE_NO":"１２６號","E_COORD97":179171.638141,"N_COORD97":2556880.79837,"ADDRESS":"蓮潭南街１２６號","OBJECTID":660367},"geometry":{"x":179171.63814100157,"y":2556880.7983749993}},{"attributes":{"ID":660395,"DIS_CODE":0,"TOWNNAME":"善化區","LI":"小新里","LIN":"11鄰","STREET":"蓮潭南街","SECT":" ","MAREA":" ","LANE":" ","ALLEY":" ","HOUSE_NO":"１２８號","E_COORD97":179166.33820200001,"N_COORD97":2556880.79837,"ADDRESS":"蓮潭南街１２８號","OBJECTID":660368},"geometry":{"x":179166.3382020006,"y":2556880.7983749993}},{"attributes":{"ID":660396,"DIS_CODE":0,"TOWNNAME":"善化區","LI":"小新里","LIN":"11鄰","STREET":"蓮潭南街","SECT":" ","MAREA":" ","LANE":" ","ALLEY":" ","HOUSE_NO":"１３０號","E_COORD97":179161.674256,"N_COORD97":2556881.0100400001,"ADDRESS":"蓮潭南街１３０號","OBJECTID":660369},"geometry":{"x":179161.67425600067,"y":2556881.0100410003}},{"attributes":{"ID":660397,"DIS_CODE":0,"TOWNNAME":"善化區","LI":"小新里","LIN":"11鄰","STREET":"蓮潭南街","SECT":" ","MAREA":" ","LANE":" ","ALLEY":" ","HOUSE_NO":"１３２號","E_COORD97":179155.73832500001,"N_COORD97":2556880.79837,"ADDRESS":"蓮潭南街１３２號","OBJECTID":660370},"geometry":{"x":179155.73832499981,"y":2556880.7983749993}},{"attributes":{"ID":660398,"DIS_CODE":0,"TOWNNAME":"善化區","LI":"小新里","LIN":"11鄰","STREET":"蓮潭南街","SECT":" ","MAREA":" ","LANE":" ","ALLEY":" ","HOUSE_NO":"１３６號","E_COORD97":179150.65038499999,"N_COORD97":2556880.79837,"ADDRESS":"蓮潭南街１３６號","OBJECTID":660371},"geometry":{"x":179150.65038499981,"y":2556880.7983749993}},{"attributes":{"ID":660399,"DIS_CODE":0,"TOWNNAME":"安南區","LI":"溪北里","LIN":"24鄰","STREET":"安和路","SECT":"一段","MAREA":" ","LANE":" ","ALLEY":" ","HOUSE_NO":"１２５之１號","E_COORD97":169450.71794900001,"N_COORD97":2547666.2924000002,"ADDRESS":"安和路一段１２５之１號","OBJECTID":660372},"geometry":{"x":169450.71794900019,"y":2547666.2923970018}},{"attributes":{"ID":660400,"DIS_CODE":0,"TOWNNAME":"安南區","LI":"溪北里","LIN":"3鄰","STREET":"安和路","SECT":"一段","MAREA":" ","LANE":" ","ALLEY":" ","HOUSE_NO":"８３之１號","E_COORD97":169472.227678,"N_COORD97":2547565.5879099998,"ADDRESS":"安和路一段８３之１號","OBJECTID":660373},"geometry":{"x":169472.22767800093,"y":2547565.5879050009}},{"attributes":{"ID":660401,"DIS_CODE":0,"TOWNNAME":"東區","LI":"成大里","LIN":"22鄰","STREET":"育樂街","SECT":" ","MAREA":" ","LANE":"５７巷","ALLEY":"２弄","HOUSE_NO":"１７號之３","E_COORD97":169621.251411,"N_COORD97":2543954.8324899999,"ADDRESS":"育樂街５７巷２弄１７號之３","OBJECTID":660374},"geometry":{"x":169621.25141100027,"y":2543954.8324849997}},{"attributes":{"ID":660402,"DIS_CODE":0,"TOWNNAME":"東區","LI":"成大里","LIN":"22鄰","STREET":"育樂街","SECT":" ","MAREA":" ","LANE":"５７巷","ALLEY":"２弄","HOUSE_NO":"１７號之４","E_COORD97":169611.505221,"N_COORD97":2543957.7958200001,"ADDRESS":"育樂街５７巷２弄１７號之４","OBJECTID":660375},"geometry":{"x":169611.50522099994,"y":2543957.7958160024}},{"attributes":{"ID":660403,"DIS_CODE":0,"TOWNNAME":"安南區","LI":"溪北里","LIN":"5鄰","STREET":"安和路","SECT":"一段","MAREA":" ","LANE":" ","ALLEY":" ","HOUSE_NO":"２９之１號","E_COORD97":169523.98809,"N_COORD97":2547418.44545,"ADDRESS":"安和路一段２９之１號","OBJECTID":660376},"geometry":{"x":169523.98809000198,"y":2547418.4454549979}},{"attributes":{"ID":660404,"DIS_CODE":0,"TOWNNAME":"永康區","LI":"西灣里","LIN":"29鄰","STREET":"公園路","SECT":" ","MAREA":" ","LANE":"６３巷","ALLEY":" ","HOUSE_NO":"２２號","E_COORD97":174336.952724,"N_COORD97":2545943.4044499998,"ADDRESS":"公園路６３巷２２號","OBJECTID":660377},"geometry":{"x":174336.95272400044,"y":2545943.4044460002}},{"attributes":{"ID":660405,"DIS_CODE":0,"TOWNNAME":"永康區","LI":"西灣里","LIN":"29鄰","STREET":"公園路","SECT":" ","MAREA":" ","LANE":"６３巷","ALLEY":" ","HOUSE_NO":"２６號","E_COORD97":174337.16467599999,"N_COORD97":2545940.8644500002,"ADDRESS":"公園路６３巷２６號","OBJECTID":660378},"geometry":{"x":174337.16467600036,"y":2545940.8644470014}},{"attributes":{"ID":660406,"DIS_CODE":0,"TOWNNAME":"永康區","LI":"西灣里","LIN":"29鄰","STREET":"公園路","SECT":" ","MAREA":" ","LANE":"６３巷","ALLEY":" ","HOUSE_NO":"２８之１號","E_COORD97":174339.70809100001,"N_COORD97":2545938.1127800001,"ADDRESS":"公園路６３巷２８之１號","OBJECTID":660379},"geometry":{"x":174339.70809100103,"y":2545938.1127819996}},{"attributes":{"ID":660407,"DIS_CODE":0,"TOWNNAME":"永康區","LI":"西灣里","LIN":"29鄰","STREET":"公園路","SECT":" ","MAREA":" ","LANE":"６３巷","ALLEY":" ","HOUSE_NO":"２８之２號","E_COORD97":174340.131994,"N_COORD97":2545935.1494499999,"ADDRESS":"公園路６３巷２８之２號","OBJECTID":660380},"geometry":{"x":174340.1319939997,"y":2545935.1494500022}},{"attributes":{"ID":660408,"DIS_CODE":0,"TOWNNAME":"官田區","LI":"二鎮里","LIN":"15鄰","STREET":" ","SECT":" ","MAREA":"角秀","LANE":" ","ALLEY":" ","HOUSE_NO":"８號之９","E_COORD97":182744.56717900001,"N_COORD97":2567826.1061399998,"ADDRESS":"角秀８號之９","OBJECTID":660381},"geometry":{"x":182744.56717900094,"y":2567826.1061349977}},{"attributes":{"ID":660409,"DIS_CODE":0,"TOWNNAME":"永康區","LI":"西灣里","LIN":"29鄰","STREET":"公園路","SECT":" ","MAREA":" ","LANE":"６３巷","ALLEY":" ","HOUSE_NO":"２８之３號","E_COORD97":174340.97979899999,"N_COORD97":2545931.3394499999,"ADDRESS":"公園路６３巷２８之３號","OBJECTID":660382},"geometry":{"x":174340.97979899962,"y":2545931.3394520022}},{"attributes":{"ID":660410,"DIS_CODE":0,"TOWNNAME":"永康區","LI":"西灣里","LIN":"29鄰","STREET":"公園路","SECT":" ","MAREA":" ","LANE":"６３巷","ALLEY":" ","HOUSE_NO":"２８號","E_COORD97":174337.16467599999,"N_COORD97":2545939.3827800001,"ADDRESS":"公園路６３巷２８號","OBJECTID":660383},"geometry":{"x":174337.16467600036,"y":2545939.3827809989}},{"attributes":{"ID":660411,"DIS_CODE":0,"TOWNNAME":"永康區","LI":"西灣里","LIN":"8鄰","STREET":"大安街","SECT":" ","MAREA":" ","LANE":" ","ALLEY":" ","HOUSE_NO":"９９號","E_COORD97":174520.71449700001,"N_COORD97":2545041.1757700001,"ADDRESS":"大安街９９號","OBJECTID":660384},"geometry":{"x":174520.71449699998,"y":2545041.1757660024}},{"attributes":{"ID":660412,"DIS_CODE":0,"TOWNNAME":"安南區","LI":"溪北里","LIN":"12鄰","STREET":"安和路","SECT":"一段","MAREA":" ","LANE":" ","ALLEY":" ","HOUSE_NO":"５９之８號","E_COORD97":169504.67661200001,"N_COORD97":2547507.32357,"ADDRESS":"安和路一段５９之８號","OBJECTID":660385},"geometry":{"x":169504.67661200091,"y":2547507.3235679995}},{"attributes":{"ID":660413,"DIS_CODE":0,"TOWNNAME":"安南區","LI":"溪北里","LIN":"3鄰","STREET":"安和路","SECT":"一段","MAREA":" ","LANE":" ","ALLEY":" ","HOUSE_NO":"８３之２號","E_COORD97":169475.198389,"N_COORD97":2547557.7002099999,"ADDRESS":"安和路一段８３之２號","OBJECTID":660386},"geometry":{"x":169475.19838900212,"y":2547557.7002070025}},{"attributes":{"ID":660414,"DIS_CODE":0,"TOWNNAME":"永康區","LI":"尚頂里","LIN":"2鄰","STREET":"中正二街","SECT":" ","MAREA":" ","LANE":"１６９巷","ALLEY":" ","HOUSE_NO":"５２號","E_COORD97":171275.740181,"N_COORD97":2547790.4067799998,"ADDRESS":"中正二街１６９巷５２號","OBJECTID":660387},"geometry":{"x":171275.7401810009,"y":2547790.4067820031}},{"attributes":{"ID":660415,"DIS_CODE":0,"TOWNNAME":"永康區","LI":"尚頂里","LIN":"2鄰","STREET":"中正二街","SECT":" ","MAREA":" ","LANE":"１６９巷","ALLEY":" ","HOUSE_NO":"５０號","E_COORD97":171280.82701199999,"N_COORD97":2547787.23178,"ADDRESS":"中正二街１６９巷５０號","OBJECTID":660388},"geometry":{"x":171280.82701200061,"y":2547787.2317829989}},{"attributes":{"ID":660416,"DIS_CODE":0,"TOWNNAME":"永康區","LI":"東橋里","LIN":"27鄰","STREET":"中正路","SECT":" ","MAREA":" ","LANE":"２７９巷","ALLEY":"２１弄","HOUSE_NO":"８號","E_COORD97":172526.88867099999,"N_COORD97":2547856.5525799999,"ADDRESS":"中正路２７９巷２１弄８號","OBJECTID":660389},"geometry":{"x":172526.88867099956,"y":2547856.5525790025}},{"attributes":{"ID":660417,"DIS_CODE":0,"TOWNNAME":"安南區","LI":"溪北里","LIN":"16鄰","STREET":"府安路","SECT":"四段","MAREA":" ","LANE":" ","ALLEY":" ","HOUSE_NO":"５８之１號","E_COORD97":169268.279351,"N_COORD97":2547307.3573799999,"ADDRESS":"府安路四段５８之１號","OBJECTID":660390},"geometry":{"x":169268.27935099974,"y":2547307.3573819976}},{"attributes":{"ID":660418,"DIS_CODE":0,"TOWNNAME":"永康區","LI":"埔園里","LIN":"31鄰","STREET":"八德街","SECT":" ","MAREA":" ","LANE":"３２６巷","ALLEY":"５３弄","HOUSE_NO":"１０號","E_COORD97":173634.970038,"N_COORD97":2548780.3712499999,"ADDRESS":"八德街３２６巷５３弄１０號","OBJECTID":660391},"geometry":{"x":173634.97003800143,"y":2548780.371247001}},{"attributes":{"ID":660419,"DIS_CODE":0,"TOWNNAME":"官田區","LI":"二鎮里","LIN":"15鄰","STREET":" ","SECT":" ","MAREA":"角秀","LANE":" ","ALLEY":" ","HOUSE_NO":"７號之６","E_COORD97":182570.723922,"N_COORD97":2567930.2450700002,"ADDRESS":"角秀７號之６","OBJECTID":660392},"geometry":{"x":182570.7239220012,"y":2567930.245073}},{"attributes":{"ID":660420,"DIS_CODE":0,"TOWNNAME":"永康區","LI":"埔園里","LIN":"31鄰","STREET":"八德街","SECT":" ","MAREA":" ","LANE":"３２６巷","ALLEY":"５３弄","HOUSE_NO":"１２號","E_COORD97":173630.731012,"N_COORD97":2548781.6412499999,"ADDRESS":"八德街３２６巷５３弄１２號","OBJECTID":660393},"geometry":{"x":173630.7310120007,"y":2548781.6412460003}},{"attributes":{"ID":660421,"DIS_CODE":0,"TOWNNAME":"安南區","LI":"溪北里","LIN":"12鄰","STREET":"文安街","SECT":" ","MAREA":" ","LANE":" ","ALLEY":" ","HOUSE_NO":"６０號之１","E_COORD97":169355.01743000001,"N_COORD97":2547508.8639400001,"ADDRESS":"文安街６０號之１","OBJECTID":660394},"geometry":{"x":169355.01743000094,"y":2547508.8639400024}},{"attributes":{"ID":660422,"DIS_CODE":0,"TOWNNAME":"永康區","LI":"埔園里","LIN":"31鄰","STREET":"八德街","SECT":" ","MAREA":" ","LANE":"３２６巷","ALLEY":"５３弄","HOUSE_NO":"１１號","E_COORD97":173632.00271999999,"N_COORD97":2548773.5979200001,"ADDRESS":"八德街３２６巷５３弄１１號","OBJECTID":660395},"geometry":{"x":173632.00272000208,"y":2548773.5979169998}},{"attributes":{"ID":660423,"DIS_CODE":0,"TOWNNAME":"永康區","LI":"埔園里","LIN":"31鄰","STREET":"八德街","SECT":" ","MAREA":" ","LANE":"３２６巷","ALLEY":"５３弄","HOUSE_NO":"１３號","E_COORD97":173628.39954799999,"N_COORD97":2548774.65625,"ADDRESS":"八德街３２６巷５３弄１３號","OBJECTID":660396},"geometry":{"x":173628.39954800066,"y":2548774.6562500019}},{"attributes":{"ID":660424,"DIS_CODE":0,"TOWNNAME":"安南區","LI":"溪北里","LIN":"12鄰","STREET":"文安街","SECT":" ","MAREA":" ","LANE":" ","ALLEY":" ","HOUSE_NO":"７號之２","E_COORD97":169442.56974599999,"N_COORD97":2547495.7723900001,"ADDRESS":"文安街７號之２","OBJECTID":660397},"geometry":{"x":169442.56974600069,"y":2547495.7723920029}},{"attributes":{"ID":660425,"DIS_CODE":0,"TOWNNAME":"東山區","LI":"東山里","LIN":"20鄰","STREET":" ","SECT":" ","MAREA":"東山","LANE":" ","ALLEY":" ","HOUSE_NO":"２８９號","E_COORD97":188949.266856,"N_COORD97":2580554.3106999998,"ADDRESS":"東山２８９號","OBJECTID":660398},"geometry":{"x":188949.26685599983,"y":2580554.3107000012}},{"attributes":{"ID":660426,"DIS_CODE":0,"TOWNNAME":"山上區","LI":"玉\u25A0里","LIN":"7鄰","STREET":" ","SECT":" ","MAREA":"牛稠埔","LANE":" ","ALLEY":" ","HOUSE_NO":"４號","E_COORD97":185698.750359,"N_COORD97":2554714.0734799998,"ADDRESS":"牛稠埔４號","OBJECTID":660399},"geometry":{"x":185698.75035900157,"y":2554714.0734780002}},{"attributes":{"ID":660427,"DIS_CODE":0,"TOWNNAME":"山上區","LI":"玉\u25A0里","LIN":"7鄰","STREET":" ","SECT":" ","MAREA":"牛稠埔","LANE":" ","ALLEY":" ","HOUSE_NO":"３號","E_COORD97":185704.68278199999,"N_COORD97":2554696.2934900001,"ADDRESS":"牛稠埔３號","OBJECTID":660400},"geometry":{"x":185704.68278199993,"y":2554696.2934869993}}]}