{"displayFieldName":"TOWNNAME","fieldAliases":{"ID":"ID","DIS_CODE":"DIS_CODE","TOWNNAME":"TOWNNAME","LI":"LI","LIN":"LIN","STREET":"STREET","SECT":"SECT","MAREA":"MAREA","LANE":"LANE","ALLEY":"ALLEY","HOUSE_NO":"HOUSE_NO","E_COORD97":"E_COORD97","N_COORD97":"N_COORD97","ADDRESS":"ADDRESS","OBJECTID":"OBJECTID"},"geometryType":"esriGeometryPoint","spatialReference":{"wkid":102443,"latestWkid":3826},"fields":[{"name":"ID","type":"esriFieldTypeDouble","alias":"ID"},{"name":"DIS_CODE","type":"esriFieldTypeInteger","alias":"DIS_CODE"},{"name":"TOWNNAME","type":"esriFieldTypeString","alias":"TOWNNAME","length":8},{"name":"LI","type":"esriFieldTypeString","alias":"LI","length":8},{"name":"LIN","type":"esriFieldTypeString","alias":"LIN","length":12},{"name":"STREET","type":"esriFieldTypeString","alias":"STREET","length":20},{"name":"SECT","type":"esriFieldTypeString","alias":"SECT","length":8},{"name":"MAREA","type":"esriFieldTypeString","alias":"MAREA","length":12},{"name":"LANE","type":"esriFieldTypeString","alias":"LANE","length":10},{"name":"ALLEY","type":"esriFieldTypeString","alias":"ALLEY","length":10},{"name":"HOUSE_NO","type":"esriFieldTypeString","alias":"HOUSE_NO","length":20},{"name":"E_COORD97","type":"esriFieldTypeDouble","alias":"E_COORD97"},{"name":"N_COORD97","type":"esriFieldTypeDouble","alias":"N_COORD97"},{"name":"ADDRESS","type":"esriFieldTypeString","alias":"ADDRESS","length":50},{"name":"OBJECTID","type":"esriFieldTypeOID","alias":"OBJECTID"}],"features":[{"attributes":{"ID":55601,"DIS_CODE":0,"TOWNNAME":"白河區","LI":"虎山里","LIN":"1鄰","STREET":" ","SECT":" ","MAREA":"木屐寮","LANE":" ","ALLEY":" ","HOUSE_NO":"１０之１號","E_COORD97":193817.76000000001,"N_COORD97":2583075.9500000002,"ADDRESS":"木屐寮１０之１號","OBJECTID":55601},"geometry":{"x":193817.76000000071,"y":2583075.9499999993}},{"attributes":{"ID":55602,"DIS_CODE":0,"TOWNNAME":"白河區","LI":"虎山里","LIN":"1鄰","STREET":" ","SECT":" ","MAREA":"木屐寮","LANE":" ","ALLEY":" ","HOUSE_NO":"１１號","E_COORD97":193855.45000000001,"N_COORD97":2583088.2599999998,"ADDRESS":"木屐寮１１號","OBJECTID":55602},"geometry":{"x":193855.45000000112,"y":2583088.2599999998}},{"attributes":{"ID":55603,"DIS_CODE":0,"TOWNNAME":"下營區","LI":"新興里","LIN":"1鄰","STREET":"自由街","SECT":" ","MAREA":" ","LANE":"１３２巷","ALLEY":"２８弄","HOUSE_NO":"７號","E_COORD97":174874.26000000001,"N_COORD97":2570922.8199999998,"ADDRESS":"自由街１３２巷２８弄７號","OBJECTID":55603},"geometry":{"x":174874.25999999978,"y":2570922.8200000022}},{"attributes":{"ID":55604,"DIS_CODE":0,"TOWNNAME":"安南區","LI":"淵西里","LIN":"1鄰","STREET":"安中路","SECT":"四段","MAREA":" ","LANE":"２９０巷","ALLEY":"２９１弄","HOUSE_NO":"９６號之５０","E_COORD97":164845.91,"N_COORD97":2550586.7799999998,"ADDRESS":"安中路四段２９０巷２９１弄９６號之５０","OBJECTID":55604},"geometry":{"x":164845.91000000108,"y":2550586.7800000012}},{"attributes":{"ID":55605,"DIS_CODE":0,"TOWNNAME":"安南區","LI":"佃西里","LIN":"1鄰","STREET":"海佃路","SECT":"四段","MAREA":" ","LANE":"３８８巷","ALLEY":"６７弄","HOUSE_NO":"３１號","E_COORD97":165467.10000000001,"N_COORD97":2551751.48,"ADDRESS":"海佃路四段３８８巷６７弄３１號","OBJECTID":55605},"geometry":{"x":165467.09999999963,"y":2551751.4800000042}},{"attributes":{"ID":55606,"DIS_CODE":0,"TOWNNAME":"安南區","LI":"佃西里","LIN":"1鄰","STREET":"海佃路","SECT":"四段","MAREA":" ","LANE":"３８８巷","ALLEY":"６７弄","HOUSE_NO":"３３號","E_COORD97":165461.72,"N_COORD97":2551748.79,"ADDRESS":"海佃路四段３８８巷６７弄３３號","OBJECTID":55606},"geometry":{"x":165461.71999999974,"y":2551748.790000001}},{"attributes":{"ID":55607,"DIS_CODE":0,"TOWNNAME":"安南區","LI":"佃西里","LIN":"1鄰","STREET":"海佃路","SECT":"四段","MAREA":" ","LANE":"４９０巷","ALLEY":"３０弄","HOUSE_NO":"２５號","E_COORD97":165446.39000000001,"N_COORD97":2551741.3399999999,"ADDRESS":"海佃路四段４９０巷３０弄２５號","OBJECTID":55607},"geometry":{"x":165446.38999999966,"y":2551741.3399999999}},{"attributes":{"ID":55608,"DIS_CODE":0,"TOWNNAME":"安南區","LI":"佃西里","LIN":"1鄰","STREET":"海佃路","SECT":"四段","MAREA":" ","LANE":"４９０巷","ALLEY":"３０弄","HOUSE_NO":"２７號","E_COORD97":165452.81,"N_COORD97":2551736.1699999999,"ADDRESS":"海佃路四段４９０巷３０弄２７號","OBJECTID":55608},"geometry":{"x":165452.81000000145,"y":2551736.1700000037}},{"attributes":{"ID":55609,"DIS_CODE":0,"TOWNNAME":"安南區","LI":"佃西里","LIN":"1鄰","STREET":"海佃路","SECT":"四段","MAREA":" ","LANE":"４９０巷","ALLEY":"３０弄","HOUSE_NO":"２９號","E_COORD97":165456.54000000001,"N_COORD97":2551734.1000000001,"ADDRESS":"海佃路四段４９０巷３０弄２９號","OBJECTID":55609},"geometry":{"x":165456.54000000004,"y":2551734.1000000015}},{"attributes":{"ID":55610,"DIS_CODE":0,"TOWNNAME":"安南區","LI":"佃西里","LIN":"1鄰","STREET":"海佃路","SECT":"四段","MAREA":" ","LANE":"４９０巷","ALLEY":"３０弄","HOUSE_NO":"３１號","E_COORD97":165462.75,"N_COORD97":2551736.79,"ADDRESS":"海佃路四段４９０巷３０弄３１號","OBJECTID":55610},"geometry":{"x":165462.75000000093,"y":2551736.7899999991}},{"attributes":{"ID":55611,"DIS_CODE":0,"TOWNNAME":"安南區","LI":"佃西里","LIN":"1鄰","STREET":"海佃路","SECT":"四段","MAREA":" ","LANE":"３８８巷","ALLEY":"６７弄","HOUSE_NO":"３７號","E_COORD97":165453.48000000001,"N_COORD97":2551754.48,"ADDRESS":"海佃路四段３８８巷６７弄３７號","OBJECTID":55611},"geometry":{"x":165453.48000000045,"y":2551754.4800000004}},{"attributes":{"ID":55612,"DIS_CODE":0,"TOWNNAME":"安南區","LI":"佃西里","LIN":"1鄰","STREET":"海佃路","SECT":"四段","MAREA":" ","LANE":"３８８巷","ALLEY":"６７弄","HOUSE_NO":"３９號","E_COORD97":165447.84,"N_COORD97":2551753.1400000001,"ADDRESS":"海佃路四段３８８巷６７弄３９號","OBJECTID":55612},"geometry":{"x":165447.84000000078,"y":2551753.1400000006}},{"attributes":{"ID":55613,"DIS_CODE":0,"TOWNNAME":"安南區","LI":"佃西里","LIN":"1鄰","STREET":"海佃路","SECT":"四段","MAREA":" ","LANE":"３８８巷","ALLEY":"５３弄","HOUSE_NO":"６號","E_COORD97":165551.95000000001,"N_COORD97":2551697.6499999999,"ADDRESS":"海佃路四段３８８巷５３弄６號","OBJECTID":55613},"geometry":{"x":165551.95000000019,"y":2551697.6500000022}},{"attributes":{"ID":55614,"DIS_CODE":0,"TOWNNAME":"安南區","LI":"佃西里","LIN":"1鄰","STREET":"海佃路","SECT":"四段","MAREA":" ","LANE":"３８８巷","ALLEY":"５３弄","HOUSE_NO":"８號","E_COORD97":165546.92000000001,"N_COORD97":2551696.5899999999,"ADDRESS":"海佃路四段３８８巷５３弄８號","OBJECTID":55614},"geometry":{"x":165546.91999999993,"y":2551696.5900000017}},{"attributes":{"ID":55615,"DIS_CODE":0,"TOWNNAME":"下營區","LI":"新興里","LIN":"1鄰","STREET":"自由街","SECT":" ","MAREA":" ","LANE":"１３２巷","ALLEY":"２８弄","HOUSE_NO":"１０號","E_COORD97":174874.89000000001,"N_COORD97":2570948.6499999999,"ADDRESS":"自由街１３２巷２８弄１０號","OBJECTID":55615},"geometry":{"x":174874.8900000006,"y":2570948.6500000004}},{"attributes":{"ID":55616,"DIS_CODE":0,"TOWNNAME":"下營區","LI":"新興里","LIN":"1鄰","STREET":"自由街","SECT":" ","MAREA":" ","LANE":"１３２巷","ALLEY":"２８弄","HOUSE_NO":"１１號","E_COORD97":174866.04999999999,"N_COORD97":2570922.1499999999,"ADDRESS":"自由街１３２巷２８弄１１號","OBJECTID":55616},"geometry":{"x":174866.04999999981,"y":2570922.1500000004}},{"attributes":{"ID":55617,"DIS_CODE":0,"TOWNNAME":"下營區","LI":"新興里","LIN":"1鄰","STREET":"自由街","SECT":" ","MAREA":" ","LANE":"１３２巷","ALLEY":"２８弄","HOUSE_NO":"１２號","E_COORD97":174868.20000000001,"N_COORD97":2570947.9199999999,"ADDRESS":"自由街１３２巷２８弄１２號","OBJECTID":55617},"geometry":{"x":174868.20000000112,"y":2570947.9200000037}},{"attributes":{"ID":55618,"DIS_CODE":0,"TOWNNAME":"下營區","LI":"新興里","LIN":"1鄰","STREET":"自由街","SECT":" ","MAREA":" ","LANE":"１３２巷","ALLEY":"２８弄","HOUSE_NO":"１３號","E_COORD97":174861.91,"N_COORD97":2570921.9500000002,"ADDRESS":"自由街１３２巷２８弄１３號","OBJECTID":55618},"geometry":{"x":174861.91000000015,"y":2570921.9499999993}},{"attributes":{"ID":55619,"DIS_CODE":0,"TOWNNAME":"下營區","LI":"新興里","LIN":"1鄰","STREET":"自由街","SECT":" ","MAREA":" ","LANE":"１３２巷","ALLEY":"２８弄","HOUSE_NO":"１５號","E_COORD97":174856.41,"N_COORD97":2570921.3700000001,"ADDRESS":"自由街１３２巷２８弄１５號","OBJECTID":55619},"geometry":{"x":174856.41000000108,"y":2570921.370000001}},{"attributes":{"ID":55620,"DIS_CODE":0,"TOWNNAME":"下營區","LI":"新興里","LIN":"1鄰","STREET":"自由街","SECT":" ","MAREA":" ","LANE":"１３２巷","ALLEY":"２８弄","HOUSE_NO":"１８號","E_COORD97":174859.82999999999,"N_COORD97":2570947.2999999998,"ADDRESS":"自由街１３２巷２８弄１８號","OBJECTID":55620},"geometry":{"x":174859.83000000101,"y":2570947.3000000026}},{"attributes":{"ID":55621,"DIS_CODE":0,"TOWNNAME":"下營區","LI":"新興里","LIN":"1鄰","STREET":"自由街","SECT":" ","MAREA":" ","LANE":"１３２巷","ALLEY":"２８弄","HOUSE_NO":"１號","E_COORD97":174887.60000000001,"N_COORD97":2570923.6899999999,"ADDRESS":"自由街１３２巷２８弄１號","OBJECTID":55621},"geometry":{"x":174887.59999999963,"y":2570923.6899999995}},{"attributes":{"ID":55622,"DIS_CODE":0,"TOWNNAME":"下營區","LI":"新興里","LIN":"1鄰","STREET":"自由街","SECT":" ","MAREA":" ","LANE":"１３２巷","ALLEY":"２８弄","HOUSE_NO":"２０號","E_COORD97":174854.48000000001,"N_COORD97":2570946.9700000002,"ADDRESS":"自由街１３２巷２８弄２０號","OBJECTID":55622},"geometry":{"x":174854.48000000138,"y":2570946.9700000007}},{"attributes":{"ID":55623,"DIS_CODE":0,"TOWNNAME":"下營區","LI":"新興里","LIN":"1鄰","STREET":"自由街","SECT":" ","MAREA":" ","LANE":"１３２巷","ALLEY":"２８弄","HOUSE_NO":"３號","E_COORD97":174883.25,"N_COORD97":2570923.3399999999,"ADDRESS":"自由街１３２巷２８弄３號","OBJECTID":55623},"geometry":{"x":174883.25,"y":2570923.3399999999}},{"attributes":{"ID":55624,"DIS_CODE":0,"TOWNNAME":"白河區","LI":"虎山里","LIN":"1鄰","STREET":" ","SECT":" ","MAREA":"木屐寮","LANE":" ","ALLEY":" ","HOUSE_NO":"１３號","E_COORD97":193860.39000000001,"N_COORD97":2583109.0699999998,"ADDRESS":"木屐寮１３號","OBJECTID":55624},"geometry":{"x":193860.3900000006,"y":2583109.0700000022}},{"attributes":{"ID":55625,"DIS_CODE":0,"TOWNNAME":"白河區","LI":"虎山里","LIN":"1鄰","STREET":" ","SECT":" ","MAREA":"木屐寮","LANE":" ","ALLEY":" ","HOUSE_NO":"１４號","E_COORD97":193860.87,"N_COORD97":2583123.6800000002,"ADDRESS":"木屐寮１４號","OBJECTID":55625},"geometry":{"x":193860.87000000197,"y":2583123.6799999978}},{"attributes":{"ID":55626,"DIS_CODE":0,"TOWNNAME":"白河區","LI":"虎山里","LIN":"1鄰","STREET":" ","SECT":" ","MAREA":"木屐寮","LANE":" ","ALLEY":" ","HOUSE_NO":"１５之１號","E_COORD97":193819.98000000001,"N_COORD97":2583124.0899999999,"ADDRESS":"木屐寮１５之１號","OBJECTID":55626},"geometry":{"x":193819.98000000138,"y":2583124.0899999999}},{"attributes":{"ID":55627,"DIS_CODE":0,"TOWNNAME":"白河區","LI":"虎山里","LIN":"1鄰","STREET":" ","SECT":" ","MAREA":"木屐寮","LANE":" ","ALLEY":" ","HOUSE_NO":"１５號","E_COORD97":193835.16,"N_COORD97":2583139.52,"ADDRESS":"木屐寮１５號","OBJECTID":55627},"geometry":{"x":193835.16000000201,"y":2583139.5200000014}},{"attributes":{"ID":55628,"DIS_CODE":0,"TOWNNAME":"白河區","LI":"虎山里","LIN":"1鄰","STREET":" ","SECT":" ","MAREA":"木屐寮","LANE":" ","ALLEY":" ","HOUSE_NO":"１之１０號","E_COORD97":193616.85000000001,"N_COORD97":2583036.21,"ADDRESS":"木屐寮１之１０號","OBJECTID":55628},"geometry":{"x":193616.85000000056,"y":2583036.2100000009}},{"attributes":{"ID":55629,"DIS_CODE":0,"TOWNNAME":"白河區","LI":"虎山里","LIN":"1鄰","STREET":" ","SECT":" ","MAREA":"木屐寮","LANE":" ","ALLEY":" ","HOUSE_NO":"１之１１號","E_COORD97":193442.35999999999,"N_COORD97":2582875.8500000001,"ADDRESS":"木屐寮１之１１號","OBJECTID":55629},"geometry":{"x":193442.3600000022,"y":2582875.8500000015}},{"attributes":{"ID":55630,"DIS_CODE":0,"TOWNNAME":"白河區","LI":"虎山里","LIN":"1鄰","STREET":" ","SECT":" ","MAREA":"木屐寮","LANE":" ","ALLEY":" ","HOUSE_NO":"１之１２號","E_COORD97":193733.39999999999,"N_COORD97":2583139.9900000002,"ADDRESS":"木屐寮１之１２號","OBJECTID":55630},"geometry":{"x":193733.40000000037,"y":2583139.9900000021}},{"attributes":{"ID":55631,"DIS_CODE":0,"TOWNNAME":"白河區","LI":"虎山里","LIN":"1鄰","STREET":" ","SECT":" ","MAREA":"木屐寮","LANE":" ","ALLEY":" ","HOUSE_NO":"１之１８號","E_COORD97":193678.56,"N_COORD97":2583077.1000000001,"ADDRESS":"木屐寮１之１８號","OBJECTID":55631},"geometry":{"x":193678.55999999959,"y":2583077.1000000034}},{"attributes":{"ID":55632,"DIS_CODE":0,"TOWNNAME":"白河區","LI":"虎山里","LIN":"1鄰","STREET":" ","SECT":" ","MAREA":"木屐寮","LANE":" ","ALLEY":" ","HOUSE_NO":"１之１號","E_COORD97":193707.98999999999,"N_COORD97":2582719.9700000002,"ADDRESS":"木屐寮１之１號","OBJECTID":55632},"geometry":{"x":193707.99000000115,"y":2582719.9700000025}},{"attributes":{"ID":55633,"DIS_CODE":0,"TOWNNAME":"下營區","LI":"新興里","LIN":"1鄰","STREET":"自由街","SECT":" ","MAREA":" ","LANE":"１３２巷","ALLEY":"２８弄","HOUSE_NO":"５號","E_COORD97":174879.16,"N_COORD97":2570923.1800000002,"ADDRESS":"自由街１３２巷２８弄５號","OBJECTID":55633},"geometry":{"x":174879.16000000015,"y":2570923.1800000016}},{"attributes":{"ID":55634,"DIS_CODE":0,"TOWNNAME":"將軍區","LI":"保源里","LIN":"1鄰","STREET":" ","SECT":" ","MAREA":"苓保","LANE":" ","ALLEY":" ","HOUSE_NO":"２之４號","E_COORD97":164763.67999999999,"N_COORD97":2568878.1299999999,"ADDRESS":"苓保２之４號","OBJECTID":55634},"geometry":{"x":164763.67999999877,"y":2568878.1300000008}},{"attributes":{"ID":55635,"DIS_CODE":0,"TOWNNAME":"下營區","LI":"新興里","LIN":"1鄰","STREET":"自由街","SECT":" ","MAREA":" ","LANE":"１３２巷","ALLEY":"２８弄","HOUSE_NO":"９號","E_COORD97":174870.57999999999,"N_COORD97":2570922.5899999999,"ADDRESS":"自由街１３２巷２８弄９號","OBJECTID":55635},"geometry":{"x":174870.58000000101,"y":2570922.589999998}},{"attributes":{"ID":55636,"DIS_CODE":0,"TOWNNAME":"白河區","LI":"虎山里","LIN":"1鄰","STREET":" ","SECT":" ","MAREA":"木屐寮","LANE":" ","ALLEY":" ","HOUSE_NO":"１之２０號","E_COORD97":193575.73000000001,"N_COORD97":2583054.1200000001,"ADDRESS":"木屐寮１之２０號","OBJECTID":55636},"geometry":{"x":193575.73000000231,"y":2583054.120000001}},{"attributes":{"ID":55637,"DIS_CODE":0,"TOWNNAME":"白河區","LI":"虎山里","LIN":"1鄰","STREET":" ","SECT":" ","MAREA":"木屐寮","LANE":" ","ALLEY":" ","HOUSE_NO":"１之２３號","E_COORD97":193528.06,"N_COORD97":2583046.4399999999,"ADDRESS":"木屐寮１之２３號","OBJECTID":55637},"geometry":{"x":193528.05999999959,"y":2583046.4399999995}},{"attributes":{"ID":55638,"DIS_CODE":0,"TOWNNAME":"白河區","LI":"虎山里","LIN":"1鄰","STREET":" ","SECT":" ","MAREA":"木屐寮","LANE":" ","ALLEY":" ","HOUSE_NO":"１之２６號","E_COORD97":193497.23000000001,"N_COORD97":2582974.2599999998,"ADDRESS":"木屐寮１之２６號","OBJECTID":55638},"geometry":{"x":193497.23000000045,"y":2582974.2600000035}},{"attributes":{"ID":55639,"DIS_CODE":0,"TOWNNAME":"白河區","LI":"虎山里","LIN":"1鄰","STREET":" ","SECT":" ","MAREA":"木屐寮","LANE":" ","ALLEY":" ","HOUSE_NO":"１之２７號","E_COORD97":193550.45999999999,"N_COORD97":2583004.7999999998,"ADDRESS":"木屐寮１之２７號","OBJECTID":55639},"geometry":{"x":193550.46000000089,"y":2583004.8000000007}},{"attributes":{"ID":55640,"DIS_CODE":0,"TOWNNAME":"白河區","LI":"虎山里","LIN":"1鄰","STREET":" ","SECT":" ","MAREA":"木屐寮","LANE":" ","ALLEY":" ","HOUSE_NO":"１之８號","E_COORD97":193681.48999999999,"N_COORD97":2582892.75,"ADDRESS":"木屐寮１之８號","OBJECTID":55640},"geometry":{"x":193681.49000000022,"y":2582892.75}},{"attributes":{"ID":55641,"DIS_CODE":0,"TOWNNAME":"白河區","LI":"虎山里","LIN":"1鄰","STREET":" ","SECT":" ","MAREA":"木屐寮","LANE":" ","ALLEY":" ","HOUSE_NO":"１之９號","E_COORD97":193693.01000000001,"N_COORD97":2582955.1800000002,"ADDRESS":"木屐寮１之９號","OBJECTID":55641},"geometry":{"x":193693.00999999978,"y":2582955.1800000016}},{"attributes":{"ID":55642,"DIS_CODE":0,"TOWNNAME":"白河區","LI":"虎山里","LIN":"1鄰","STREET":" ","SECT":" ","MAREA":"木屐寮","LANE":" ","ALLEY":" ","HOUSE_NO":"３之１號","E_COORD97":193756.53,"N_COORD97":2583071.9500000002,"ADDRESS":"木屐寮３之１號","OBJECTID":55642},"geometry":{"x":193756.53000000212,"y":2583071.9500000011}},{"attributes":{"ID":55643,"DIS_CODE":0,"TOWNNAME":"將軍區","LI":"長榮里","LIN":"1鄰","STREET":" ","SECT":" ","MAREA":"長榮","LANE":" ","ALLEY":" ","HOUSE_NO":"８號","E_COORD97":163867.42999999999,"N_COORD97":2566468.3100000001,"ADDRESS":"長榮８號","OBJECTID":55643},"geometry":{"x":163867.43000000063,"y":2566468.3100000024}},{"attributes":{"ID":55644,"DIS_CODE":0,"TOWNNAME":"將軍區","LI":"苓和里","LIN":"1鄰","STREET":" ","SECT":" ","MAREA":"苓和","LANE":" ","ALLEY":" ","HOUSE_NO":"１之１２號","E_COORD97":165336.91,"N_COORD97":2569438.8700000001,"ADDRESS":"苓和１之１２號","OBJECTID":55644},"geometry":{"x":165336.91000000015,"y":2569438.870000001}},{"attributes":{"ID":55645,"DIS_CODE":0,"TOWNNAME":"將軍區","LI":"苓和里","LIN":"1鄰","STREET":" ","SECT":" ","MAREA":"苓和","LANE":" ","ALLEY":" ","HOUSE_NO":"１之１５號","E_COORD97":165254.69,"N_COORD97":2569374.4900000002,"ADDRESS":"苓和１之１５號","OBJECTID":55645},"geometry":{"x":165254.69000000134,"y":2569374.4900000039}},{"attributes":{"ID":55646,"DIS_CODE":0,"TOWNNAME":"將軍區","LI":"苓和里","LIN":"1鄰","STREET":" ","SECT":" ","MAREA":"苓和","LANE":" ","ALLEY":" ","HOUSE_NO":"１之１６號","E_COORD97":165121.92999999999,"N_COORD97":2569436.54,"ADDRESS":"苓和１之１６號","OBJECTID":55646},"geometry":{"x":165121.93000000063,"y":2569436.5399999991}},{"attributes":{"ID":55647,"DIS_CODE":0,"TOWNNAME":"將軍區","LI":"苓和里","LIN":"1鄰","STREET":" ","SECT":" ","MAREA":"苓和","LANE":" ","ALLEY":" ","HOUSE_NO":"１之１８號","E_COORD97":165030.92999999999,"N_COORD97":2569432.1899999999,"ADDRESS":"苓和１之１８號","OBJECTID":55647},"geometry":{"x":165030.9299999997,"y":2569432.1899999995}},{"attributes":{"ID":55648,"DIS_CODE":0,"TOWNNAME":"將軍區","LI":"苓和里","LIN":"1鄰","STREET":" ","SECT":" ","MAREA":"苓和","LANE":" ","ALLEY":" ","HOUSE_NO":"１之１９號","E_COORD97":164699.29000000001,"N_COORD97":2569405.6200000001,"ADDRESS":"苓和１之１９號","OBJECTID":55648},"geometry":{"x":164699.29000000097,"y":2569405.6200000029}},{"attributes":{"ID":55649,"DIS_CODE":0,"TOWNNAME":"將軍區","LI":"苓和里","LIN":"1鄰","STREET":" ","SECT":" ","MAREA":"苓和","LANE":" ","ALLEY":" ","HOUSE_NO":"１之２０號","E_COORD97":165327.25,"N_COORD97":2569474,"ADDRESS":"苓和１之２０號","OBJECTID":55649},"geometry":{"x":165327.25,"y":2569474.0000000019}},{"attributes":{"ID":55650,"DIS_CODE":0,"TOWNNAME":"將軍區","LI":"苓和里","LIN":"1鄰","STREET":" ","SECT":" ","MAREA":"苓和","LANE":" ","ALLEY":" ","HOUSE_NO":"１之３２號","E_COORD97":164931.14000000001,"N_COORD97":2569073.2799999998,"ADDRESS":"苓和１之３２號","OBJECTID":55650},"geometry":{"x":164931.13999999966,"y":2569073.2800000031}},{"attributes":{"ID":55651,"DIS_CODE":0,"TOWNNAME":"將軍區","LI":"苓和里","LIN":"1鄰","STREET":" ","SECT":" ","MAREA":"苓和","LANE":" ","ALLEY":" ","HOUSE_NO":"１之４號","E_COORD97":164820.31,"N_COORD97":2569019.3599999999,"ADDRESS":"苓和１之４號","OBJECTID":55651},"geometry":{"x":164820.30999999866,"y":2569019.3600000013}},{"attributes":{"ID":55652,"DIS_CODE":0,"TOWNNAME":"將軍區","LI":"苓和里","LIN":"1鄰","STREET":" ","SECT":" ","MAREA":"苓和","LANE":" ","ALLEY":" ","HOUSE_NO":"１之６號","E_COORD97":165056.73999999999,"N_COORD97":2569240.8500000001,"ADDRESS":"苓和１之６號","OBJECTID":55652},"geometry":{"x":165056.74000000022,"y":2569240.8499999996}},{"attributes":{"ID":55653,"DIS_CODE":0,"TOWNNAME":"將軍區","LI":"苓和里","LIN":"1鄰","STREET":" ","SECT":" ","MAREA":"苓和","LANE":" ","ALLEY":" ","HOUSE_NO":"８號","E_COORD97":164723.07999999999,"N_COORD97":2569055.1200000001,"ADDRESS":"苓和８號","OBJECTID":55653},"geometry":{"x":164723.08000000101,"y":2569055.120000001}},{"attributes":{"ID":55654,"DIS_CODE":0,"TOWNNAME":"將軍區","LI":"苓和里","LIN":"1鄰","STREET":" ","SECT":" ","MAREA":"苓和","LANE":" ","ALLEY":" ","HOUSE_NO":"９之１２號","E_COORD97":164669,"N_COORD97":2569423.0299999998,"ADDRESS":"苓和９之１２號","OBJECTID":55654},"geometry":{"x":164669.00000000093,"y":2569423.0299999993}},{"attributes":{"ID":55655,"DIS_CODE":0,"TOWNNAME":"將軍區","LI":"苓和里","LIN":"1鄰","STREET":" ","SECT":" ","MAREA":"苓和","LANE":" ","ALLEY":" ","HOUSE_NO":"９之１８號","E_COORD97":164768.84,"N_COORD97":2569355.7200000002,"ADDRESS":"苓和９之１８號","OBJECTID":55655},"geometry":{"x":164768.83999999985,"y":2569355.7200000007}},{"attributes":{"ID":55656,"DIS_CODE":0,"TOWNNAME":"將軍區","LI":"苓和里","LIN":"1鄰","STREET":" ","SECT":" ","MAREA":"苓和","LANE":" ","ALLEY":" ","HOUSE_NO":"９之６號","E_COORD97":164673.85000000001,"N_COORD97":2569395.6600000001,"ADDRESS":"苓和９之６號","OBJECTID":55656},"geometry":{"x":164673.84999999963,"y":2569395.6600000001}},{"attributes":{"ID":55657,"DIS_CODE":0,"TOWNNAME":"將軍區","LI":"苓和里","LIN":"1鄰","STREET":" ","SECT":" ","MAREA":"苓和","LANE":" ","ALLEY":" ","HOUSE_NO":"９號","E_COORD97":164707,"N_COORD97":2569056.7400000002,"ADDRESS":"苓和９號","OBJECTID":55657},"geometry":{"x":164707,"y":2569056.7400000002}},{"attributes":{"ID":55658,"DIS_CODE":0,"TOWNNAME":"將軍區","LI":"保源里","LIN":"1鄰","STREET":" ","SECT":" ","MAREA":"苓保","LANE":" ","ALLEY":" ","HOUSE_NO":"１０號","E_COORD97":164664.75,"N_COORD97":2568858.3599999999,"ADDRESS":"苓保１０號","OBJECTID":55658},"geometry":{"x":164664.75,"y":2568858.3599999994}},{"attributes":{"ID":55659,"DIS_CODE":0,"TOWNNAME":"將軍區","LI":"保源里","LIN":"1鄰","STREET":" ","SECT":" ","MAREA":"苓保","LANE":" ","ALLEY":" ","HOUSE_NO":"１之２２號","E_COORD97":165124.48999999999,"N_COORD97":2569043.25,"ADDRESS":"苓保１之２２號","OBJECTID":55659},"geometry":{"x":165124.49000000022,"y":2569043.25}},{"attributes":{"ID":55660,"DIS_CODE":0,"TOWNNAME":"將軍區","LI":"保源里","LIN":"1鄰","STREET":" ","SECT":" ","MAREA":"苓保","LANE":" ","ALLEY":" ","HOUSE_NO":"１之２號","E_COORD97":164842.94,"N_COORD97":2568939.7799999998,"ADDRESS":"苓保１之２號","OBJECTID":55660},"geometry":{"x":164842.94000000134,"y":2568939.7799999993}},{"attributes":{"ID":55661,"DIS_CODE":0,"TOWNNAME":"將軍區","LI":"保源里","LIN":"1鄰","STREET":" ","SECT":" ","MAREA":"苓保","LANE":" ","ALLEY":" ","HOUSE_NO":"１之３０號","E_COORD97":165500.07999999999,"N_COORD97":2568947.3999999999,"ADDRESS":"苓保１之３０號","OBJECTID":55661},"geometry":{"x":165500.08000000007,"y":2568947.4000000004}},{"attributes":{"ID":55662,"DIS_CODE":0,"TOWNNAME":"將軍區","LI":"保源里","LIN":"1鄰","STREET":" ","SECT":" ","MAREA":"苓保","LANE":" ","ALLEY":" ","HOUSE_NO":"１之３６號","E_COORD97":165538.17000000001,"N_COORD97":2568763.0099999998,"ADDRESS":"苓保１之３６號","OBJECTID":55662},"geometry":{"x":165538.16999999993,"y":2568763.0099999998}},{"attributes":{"ID":55663,"DIS_CODE":0,"TOWNNAME":"將軍區","LI":"保源里","LIN":"1鄰","STREET":" ","SECT":" ","MAREA":"苓保","LANE":" ","ALLEY":" ","HOUSE_NO":"１之４號","E_COORD97":164866.67999999999,"N_COORD97":2568959.0699999998,"ADDRESS":"苓保１之４號","OBJECTID":55663},"geometry":{"x":164866.6799999997,"y":2568959.0700000003}},{"attributes":{"ID":55664,"DIS_CODE":0,"TOWNNAME":"將軍區","LI":"保源里","LIN":"1鄰","STREET":" ","SECT":" ","MAREA":"苓保","LANE":" ","ALLEY":" ","HOUSE_NO":"１之５號","E_COORD97":164876.04999999999,"N_COORD97":2568962.3599999999,"ADDRESS":"苓保１之５號","OBJECTID":55664},"geometry":{"x":164876.04999999981,"y":2568962.3600000013}},{"attributes":{"ID":55665,"DIS_CODE":0,"TOWNNAME":"將軍區","LI":"保源里","LIN":"1鄰","STREET":" ","SECT":" ","MAREA":"苓保","LANE":" ","ALLEY":" ","HOUSE_NO":"１之９號","E_COORD97":165255.67000000001,"N_COORD97":2569060.02,"ADDRESS":"苓保１之９號","OBJECTID":55665},"geometry":{"x":165255.67000000179,"y":2569060.0199999996}},{"attributes":{"ID":55666,"DIS_CODE":0,"TOWNNAME":"將軍區","LI":"保源里","LIN":"1鄰","STREET":" ","SECT":" ","MAREA":"苓保","LANE":" ","ALLEY":" ","HOUSE_NO":"２之１號","E_COORD97":164749.66,"N_COORD97":2568875.1200000001,"ADDRESS":"苓保２之１號","OBJECTID":55666},"geometry":{"x":164749.66000000108,"y":2568875.120000001}},{"attributes":{"ID":55667,"DIS_CODE":0,"TOWNNAME":"將軍區","LI":"保源里","LIN":"1鄰","STREET":" ","SECT":" ","MAREA":"苓保","LANE":" ","ALLEY":" ","HOUSE_NO":"２之２號","E_COORD97":164754.67999999999,"N_COORD97":2568876.02,"ADDRESS":"苓保２之２號","OBJECTID":55667},"geometry":{"x":164754.6799999997,"y":2568876.0200000014}},{"attributes":{"ID":55668,"DIS_CODE":0,"TOWNNAME":"將軍區","LI":"保源里","LIN":"1鄰","STREET":" ","SECT":" ","MAREA":"苓保","LANE":" ","ALLEY":" ","HOUSE_NO":"２之３號","E_COORD97":164759.20999999999,"N_COORD97":2568877.04,"ADDRESS":"苓保２之３號","OBJECTID":55668},"geometry":{"x":164759.21000000089,"y":2568877.0399999991}},{"attributes":{"ID":55669,"DIS_CODE":0,"TOWNNAME":"將軍區","LI":"保源里","LIN":"1鄰","STREET":" ","SECT":" ","MAREA":"苓保","LANE":" ","ALLEY":" ","HOUSE_NO":"２之５號","E_COORD97":164759.12,"N_COORD97":2568852.5600000001,"ADDRESS":"苓保２之５號","OBJECTID":55669},"geometry":{"x":164759.12000000011,"y":2568852.5600000024}},{"attributes":{"ID":55670,"DIS_CODE":0,"TOWNNAME":"將軍區","LI":"保源里","LIN":"1鄰","STREET":" ","SECT":" ","MAREA":"苓保","LANE":" ","ALLEY":" ","HOUSE_NO":"２之６號","E_COORD97":164760.17999999999,"N_COORD97":2568847.98,"ADDRESS":"苓保２之６號","OBJECTID":55670},"geometry":{"x":164760.1799999997,"y":2568847.9800000004}},{"attributes":{"ID":55671,"DIS_CODE":0,"TOWNNAME":"將軍區","LI":"保源里","LIN":"1鄰","STREET":" ","SECT":" ","MAREA":"苓保","LANE":" ","ALLEY":" ","HOUSE_NO":"５號","E_COORD97":164708.57999999999,"N_COORD97":2568838.5899999999,"ADDRESS":"苓保５號","OBJECTID":55671},"geometry":{"x":164708.58000000007,"y":2568838.5900000017}},{"attributes":{"ID":55672,"DIS_CODE":0,"TOWNNAME":"將軍區","LI":"保源里","LIN":"1鄰","STREET":" ","SECT":" ","MAREA":"苓保","LANE":" ","ALLEY":" ","HOUSE_NO":"６號","E_COORD97":164693.17000000001,"N_COORD97":2568842.0800000001,"ADDRESS":"苓保６號","OBJECTID":55672},"geometry":{"x":164693.17000000086,"y":2568842.0800000019}},{"attributes":{"ID":55673,"DIS_CODE":0,"TOWNNAME":"將軍區","LI":"保源里","LIN":"1鄰","STREET":" ","SECT":" ","MAREA":"苓保","LANE":" ","ALLEY":" ","HOUSE_NO":"８之１號","E_COORD97":164679.67000000001,"N_COORD97":2568869.71,"ADDRESS":"苓保８之１號","OBJECTID":55673},"geometry":{"x":164679.67000000086,"y":2568869.7100000028}},{"attributes":{"ID":55674,"DIS_CODE":0,"TOWNNAME":"將軍區","LI":"保源里","LIN":"1鄰","STREET":" ","SECT":" ","MAREA":"苓保","LANE":" ","ALLEY":" ","HOUSE_NO":"８號","E_COORD97":164677.31,"N_COORD97":2568860.7400000002,"ADDRESS":"苓保８號","OBJECTID":55674},"geometry":{"x":164677.30999999959,"y":2568860.7400000039}},{"attributes":{"ID":55675,"DIS_CODE":0,"TOWNNAME":"將軍區","LI":"將富里","LIN":"1鄰","STREET":" ","SECT":" ","MAREA":"將富","LANE":" ","ALLEY":" ","HOUSE_NO":"１０號","E_COORD97":161690.51999999999,"N_COORD97":2568607.3199999998,"ADDRESS":"將富１０號","OBJECTID":55675},"geometry":{"x":161690.51999999955,"y":2568607.3200000022}},{"attributes":{"ID":55676,"DIS_CODE":0,"TOWNNAME":"將軍區","LI":"將富里","LIN":"1鄰","STREET":" ","SECT":" ","MAREA":"將富","LANE":" ","ALLEY":" ","HOUSE_NO":"１１之１號","E_COORD97":161710.63,"N_COORD97":2568602,"ADDRESS":"將富１１之１號","OBJECTID":55676},"geometry":{"x":161710.62999999989,"y":2568602.0000000019}},{"attributes":{"ID":55677,"DIS_CODE":0,"TOWNNAME":"將軍區","LI":"將富里","LIN":"1鄰","STREET":" ","SECT":" ","MAREA":"將富","LANE":" ","ALLEY":" ","HOUSE_NO":"１１號","E_COORD97":161705.57000000001,"N_COORD97":2568603.2200000002,"ADDRESS":"將富１１號","OBJECTID":55677},"geometry":{"x":161705.57000000123,"y":2568603.2200000007}},{"attributes":{"ID":55678,"DIS_CODE":0,"TOWNNAME":"將軍區","LI":"將富里","LIN":"1鄰","STREET":" ","SECT":" ","MAREA":"將富","LANE":" ","ALLEY":" ","HOUSE_NO":"１２號","E_COORD97":161730.75,"N_COORD97":2568595.29,"ADDRESS":"將富１２號","OBJECTID":55678},"geometry":{"x":161730.75,"y":2568595.290000001}},{"attributes":{"ID":55679,"DIS_CODE":0,"TOWNNAME":"將軍區","LI":"將富里","LIN":"1鄰","STREET":" ","SECT":" ","MAREA":"將富","LANE":" ","ALLEY":" ","HOUSE_NO":"１４號","E_COORD97":161774.03,"N_COORD97":2568581.4700000002,"ADDRESS":"將富１４號","OBJECTID":55679},"geometry":{"x":161774.03000000119,"y":2568581.4699999988}},{"attributes":{"ID":55680,"DIS_CODE":0,"TOWNNAME":"將軍區","LI":"將富里","LIN":"1鄰","STREET":" ","SECT":" ","MAREA":"將富","LANE":" ","ALLEY":" ","HOUSE_NO":"５號","E_COORD97":161758.92000000001,"N_COORD97":2568611.8300000001,"ADDRESS":"將富５號","OBJECTID":55680},"geometry":{"x":161758.92000000086,"y":2568611.8300000001}},{"attributes":{"ID":55681,"DIS_CODE":0,"TOWNNAME":"將軍區","LI":"廣山里","LIN":"1鄰","STREET":" ","SECT":" ","MAREA":"廣山","LANE":" ","ALLEY":" ","HOUSE_NO":"１０之３號","E_COORD97":159735.62,"N_COORD97":2568649.02,"ADDRESS":"廣山１０之３號","OBJECTID":55681},"geometry":{"x":159735.62000000104,"y":2568649.0200000014}},{"attributes":{"ID":55682,"DIS_CODE":0,"TOWNNAME":"將軍區","LI":"廣山里","LIN":"1鄰","STREET":" ","SECT":" ","MAREA":"廣山","LANE":" ","ALLEY":" ","HOUSE_NO":"１０號","E_COORD97":159744.82000000001,"N_COORD97":2568636.7400000002,"ADDRESS":"廣山１０號","OBJECTID":55682},"geometry":{"x":159744.82000000123,"y":2568636.7399999984}},{"attributes":{"ID":55683,"DIS_CODE":0,"TOWNNAME":"將軍區","LI":"廣山里","LIN":"1鄰","STREET":" ","SECT":" ","MAREA":"廣山","LANE":" ","ALLEY":" ","HOUSE_NO":"３號","E_COORD97":159798.39000000001,"N_COORD97":2568584.4500000002,"ADDRESS":"廣山３號","OBJECTID":55683},"geometry":{"x":159798.38999999966,"y":2568584.4500000011}},{"attributes":{"ID":55684,"DIS_CODE":0,"TOWNNAME":"將軍區","LI":"廣山里","LIN":"1鄰","STREET":" ","SECT":" ","MAREA":"廣山","LANE":" ","ALLEY":" ","HOUSE_NO":"５號","E_COORD97":159766.04999999999,"N_COORD97":2568600.4399999999,"ADDRESS":"廣山５號","OBJECTID":55684},"geometry":{"x":159766.05000000075,"y":2568600.4399999995}},{"attributes":{"ID":55685,"DIS_CODE":0,"TOWNNAME":"將軍區","LI":"廣山里","LIN":"1鄰","STREET":" ","SECT":" ","MAREA":"廣山","LANE":" ","ALLEY":" ","HOUSE_NO":"７號","E_COORD97":159820.54999999999,"N_COORD97":2568639.4100000001,"ADDRESS":"廣山７號","OBJECTID":55685},"geometry":{"x":159820.55000000075,"y":2568639.4100000039}},{"attributes":{"ID":55686,"DIS_CODE":0,"TOWNNAME":"將軍區","LI":"廣山里","LIN":"1鄰","STREET":" ","SECT":" ","MAREA":"廣山","LANE":" ","ALLEY":" ","HOUSE_NO":"８號","E_COORD97":159790.32999999999,"N_COORD97":2568624.3399999999,"ADDRESS":"廣山８號","OBJECTID":55686},"geometry":{"x":159790.33000000007,"y":2568624.3399999999}},{"attributes":{"ID":55687,"DIS_CODE":0,"TOWNNAME":"將軍區","LI":"廣山里","LIN":"1鄰","STREET":" ","SECT":" ","MAREA":"廣山","LANE":" ","ALLEY":" ","HOUSE_NO":"９之１號","E_COORD97":159772.79000000001,"N_COORD97":2568660.77,"ADDRESS":"廣山９之１號","OBJECTID":55687},"geometry":{"x":159772.7900000019,"y":2568660.7700000014}},{"attributes":{"ID":55688,"DIS_CODE":0,"TOWNNAME":"善化區","LI":"小新里","LIN":"8鄰","STREET":" ","SECT":" ","MAREA":"小新營","LANE":" ","ALLEY":" ","HOUSE_NO":"６０號之７","E_COORD97":179595.28,"N_COORD97":2558379.5899999999,"ADDRESS":"小新營６０號之７","OBJECTID":55688},"geometry":{"x":179595.28000000119,"y":2558379.5900000017}},{"attributes":{"ID":55689,"DIS_CODE":0,"TOWNNAME":"將軍區","LI":"廣山里","LIN":"1鄰","STREET":" ","SECT":" ","MAREA":"廣山","LANE":" ","ALLEY":" ","HOUSE_NO":"９之２號","E_COORD97":159788.95000000001,"N_COORD97":2568655.5699999998,"ADDRESS":"廣山９之２號","OBJECTID":55689},"geometry":{"x":159788.95000000112,"y":2568655.5700000022}},{"attributes":{"ID":55690,"DIS_CODE":0,"TOWNNAME":"將軍區","LI":"廣山里","LIN":"1鄰","STREET":" ","SECT":" ","MAREA":"廣山","LANE":" ","ALLEY":" ","HOUSE_NO":"９號","E_COORD97":159788.01000000001,"N_COORD97":2568642.6400000001,"ADDRESS":"廣山９號","OBJECTID":55690},"geometry":{"x":159788.01000000164,"y":2568642.6400000025}},{"attributes":{"ID":55691,"DIS_CODE":0,"TOWNNAME":"將軍區","LI":"鯤溟里","LIN":"1鄰","STREET":" ","SECT":" ","MAREA":"鯤溟","LANE":" ","ALLEY":" ","HOUSE_NO":"１之１４號","E_COORD97":156691.66,"N_COORD97":2565511.8199999998,"ADDRESS":"鯤溟１之１４號","OBJECTID":55691},"geometry":{"x":156691.66000000015,"y":2565511.8200000022}},{"attributes":{"ID":55692,"DIS_CODE":0,"TOWNNAME":"將軍區","LI":"鯤溟里","LIN":"1鄰","STREET":" ","SECT":" ","MAREA":"鯤溟","LANE":" ","ALLEY":" ","HOUSE_NO":"１之１５號","E_COORD97":156691.29000000001,"N_COORD97":2565508.1800000002,"ADDRESS":"鯤溟１之１５號","OBJECTID":55692},"geometry":{"x":156691.29000000097,"y":2565508.1800000016}},{"attributes":{"ID":55693,"DIS_CODE":0,"TOWNNAME":"將軍區","LI":"鯤溟里","LIN":"1鄰","STREET":" ","SECT":" ","MAREA":"鯤溟","LANE":" ","ALLEY":" ","HOUSE_NO":"１之１６號","E_COORD97":156690.26999999999,"N_COORD97":2565504.23,"ADDRESS":"鯤溟１之１６號","OBJECTID":55693},"geometry":{"x":156690.26999999955,"y":2565504.2300000004}},{"attributes":{"ID":55694,"DIS_CODE":0,"TOWNNAME":"將軍區","LI":"鯤溟里","LIN":"1鄰","STREET":" ","SECT":" ","MAREA":"鯤溟","LANE":" ","ALLEY":" ","HOUSE_NO":"１之１號","E_COORD97":156679.12,"N_COORD97":2565539.6200000001,"ADDRESS":"鯤溟１之１號","OBJECTID":55694},"geometry":{"x":156679.12000000104,"y":2565539.6199999992}},{"attributes":{"ID":55695,"DIS_CODE":0,"TOWNNAME":"將軍區","LI":"鯤溟里","LIN":"1鄰","STREET":" ","SECT":" ","MAREA":"鯤溟","LANE":" ","ALLEY":" ","HOUSE_NO":"１之３號","E_COORD97":156739.92000000001,"N_COORD97":2565494.1200000001,"ADDRESS":"鯤溟１之３號","OBJECTID":55695},"geometry":{"x":156739.91999999993,"y":2565494.120000001}},{"attributes":{"ID":55696,"DIS_CODE":0,"TOWNNAME":"將軍區","LI":"鯤溟里","LIN":"1鄰","STREET":" ","SECT":" ","MAREA":"鯤溟","LANE":" ","ALLEY":" ","HOUSE_NO":"１之４號","E_COORD97":156679.72,"N_COORD97":2565533.6499999999,"ADDRESS":"鯤溟１之４號","OBJECTID":55696},"geometry":{"x":156679.72000000067,"y":2565533.6500000022}},{"attributes":{"ID":55697,"DIS_CODE":0,"TOWNNAME":"將軍區","LI":"鯤溟里","LIN":"1鄰","STREET":" ","SECT":" ","MAREA":"鯤溟","LANE":" ","ALLEY":" ","HOUSE_NO":"１之５號","E_COORD97":156714.87,"N_COORD97":2565534.9700000002,"ADDRESS":"鯤溟１之５號","OBJECTID":55697},"geometry":{"x":156714.87000000104,"y":2565534.9700000025}},{"attributes":{"ID":55698,"DIS_CODE":0,"TOWNNAME":"將軍區","LI":"鯤溟里","LIN":"1鄰","STREET":" ","SECT":" ","MAREA":"鯤溟","LANE":" ","ALLEY":" ","HOUSE_NO":"１之６號","E_COORD97":156714.94,"N_COORD97":2565529.1899999999,"ADDRESS":"鯤溟１之６號","OBJECTID":55698},"geometry":{"x":156714.94000000041,"y":2565529.1900000013}},{"attributes":{"ID":55699,"DIS_CODE":0,"TOWNNAME":"將軍區","LI":"鯤溟里","LIN":"1鄰","STREET":" ","SECT":" ","MAREA":"鯤溟","LANE":" ","ALLEY":" ","HOUSE_NO":"１之７號","E_COORD97":156715.16,"N_COORD97":2565522.8900000001,"ADDRESS":"鯤溟１之７號","OBJECTID":55699},"geometry":{"x":156715.16000000015,"y":2565522.8900000006}},{"attributes":{"ID":55700,"DIS_CODE":0,"TOWNNAME":"將軍區","LI":"鯤溟里","LIN":"1鄰","STREET":" ","SECT":" ","MAREA":"鯤溟","LANE":" ","ALLEY":" ","HOUSE_NO":"１之９號","E_COORD97":156689.67999999999,"N_COORD97":2565499.8700000001,"ADDRESS":"鯤溟１之９號","OBJECTID":55700},"geometry":{"x":156689.68000000156,"y":2565499.870000001}},{"attributes":{"ID":55701,"DIS_CODE":0,"TOWNNAME":"將軍區","LI":"鯤溟里","LIN":"1鄰","STREET":" ","SECT":" ","MAREA":"鯤溟","LANE":" ","ALLEY":" ","HOUSE_NO":"１號","E_COORD97":156664.17999999999,"N_COORD97":2565544.5600000001,"ADDRESS":"鯤溟１號","OBJECTID":55701},"geometry":{"x":156664.18000000156,"y":2565544.5600000024}},{"attributes":{"ID":55702,"DIS_CODE":0,"TOWNNAME":"將軍區","LI":"鯤溟里","LIN":"1鄰","STREET":" ","SECT":" ","MAREA":"鯤溟","LANE":" ","ALLEY":" ","HOUSE_NO":"２號","E_COORD97":156667.35999999999,"N_COORD97":2565520.4700000002,"ADDRESS":"鯤溟２號","OBJECTID":55702},"geometry":{"x":156667.36000000127,"y":2565520.4700000025}},{"attributes":{"ID":55703,"DIS_CODE":0,"TOWNNAME":"將軍區","LI":"鯤溟里","LIN":"1鄰","STREET":" ","SECT":" ","MAREA":"鯤溟","LANE":" ","ALLEY":" ","HOUSE_NO":"３號","E_COORD97":156674.23000000001,"N_COORD97":2565508.52,"ADDRESS":"鯤溟３號","OBJECTID":55703},"geometry":{"x":156674.23000000045,"y":2565508.5200000033}},{"attributes":{"ID":55704,"DIS_CODE":0,"TOWNNAME":"將軍區","LI":"鯤溟里","LIN":"1鄰","STREET":" ","SECT":" ","MAREA":"鯤溟","LANE":" ","ALLEY":" ","HOUSE_NO":"４號","E_COORD97":156654.53,"N_COORD97":2565479.54,"ADDRESS":"鯤溟４號","OBJECTID":55704},"geometry":{"x":156654.53000000119,"y":2565479.5399999991}},{"attributes":{"ID":55705,"DIS_CODE":0,"TOWNNAME":"將軍區","LI":"鯤溟里","LIN":"1鄰","STREET":" ","SECT":" ","MAREA":"鯤溟","LANE":" ","ALLEY":" ","HOUSE_NO":"５號","E_COORD97":156653.79999999999,"N_COORD97":2565459.2400000002,"ADDRESS":"鯤溟５號","OBJECTID":55705},"geometry":{"x":156653.80000000075,"y":2565459.2400000002}},{"attributes":{"ID":55706,"DIS_CODE":0,"TOWNNAME":"將軍區","LI":"鯤溟里","LIN":"1鄰","STREET":" ","SECT":" ","MAREA":"鯤溟","LANE":" ","ALLEY":" ","HOUSE_NO":"６之１０號","E_COORD97":156808.70999999999,"N_COORD97":2565484.6099999999,"ADDRESS":"鯤溟６之１０號","OBJECTID":55706},"geometry":{"x":156808.71000000089,"y":2565484.6100000013}},{"attributes":{"ID":55707,"DIS_CODE":0,"TOWNNAME":"將軍區","LI":"鯤溟里","LIN":"1鄰","STREET":" ","SECT":" ","MAREA":"鯤溟","LANE":" ","ALLEY":" ","HOUSE_NO":"６之１１號","E_COORD97":156803.35999999999,"N_COORD97":2565484.0299999998,"ADDRESS":"鯤溟６之１１號","OBJECTID":55707},"geometry":{"x":156803.36000000127,"y":2565484.0299999993}},{"attributes":{"ID":55708,"DIS_CODE":0,"TOWNNAME":"安定區","LI":"大同里","LIN":"8鄰","STREET":" ","SECT":" ","MAREA":"大同","LANE":" ","ALLEY":" ","HOUSE_NO":"９５號","E_COORD97":170377.67000000001,"N_COORD97":2553771.25,"ADDRESS":"大同９５號","OBJECTID":55708},"geometry":{"x":170377.67000000086,"y":2553771.2500000019}},{"attributes":{"ID":55709,"DIS_CODE":0,"TOWNNAME":"將軍區","LI":"鯤溟里","LIN":"1鄰","STREET":" ","SECT":" ","MAREA":"鯤溟","LANE":" ","ALLEY":" ","HOUSE_NO":"６之１２號","E_COORD97":156832.47,"N_COORD97":2565486.5800000001,"ADDRESS":"鯤溟６之１２號","OBJECTID":55709},"geometry":{"x":156832.47000000067,"y":2565486.5800000001}},{"attributes":{"ID":55710,"DIS_CODE":0,"TOWNNAME":"將軍區","LI":"鯤溟里","LIN":"1鄰","STREET":" ","SECT":" ","MAREA":"鯤溟","LANE":" ","ALLEY":" ","HOUSE_NO":"６之１３號","E_COORD97":156824.60999999999,"N_COORD97":2565486.3700000001,"ADDRESS":"鯤溟６之１３號","OBJECTID":55710},"geometry":{"x":156824.6100000022,"y":2565486.370000001}},{"attributes":{"ID":55711,"DIS_CODE":0,"TOWNNAME":"將軍區","LI":"鯤溟里","LIN":"1鄰","STREET":" ","SECT":" ","MAREA":"鯤溟","LANE":" ","ALLEY":" ","HOUSE_NO":"６之１６號","E_COORD97":156754.45999999999,"N_COORD97":2565492.1000000001,"ADDRESS":"鯤溟６之１６號","OBJECTID":55711},"geometry":{"x":156754.46000000089,"y":2565492.1000000015}},{"attributes":{"ID":55712,"DIS_CODE":0,"TOWNNAME":"將軍區","LI":"鯤溟里","LIN":"1鄰","STREET":" ","SECT":" ","MAREA":"鯤溟","LANE":" ","ALLEY":" ","HOUSE_NO":"６之１號","E_COORD97":156834.26999999999,"N_COORD97":2565421.77,"ADDRESS":"鯤溟６之１號","OBJECTID":55712},"geometry":{"x":156834.26999999955,"y":2565421.7699999977}},{"attributes":{"ID":55713,"DIS_CODE":0,"TOWNNAME":"將軍區","LI":"鯤溟里","LIN":"1鄰","STREET":" ","SECT":" ","MAREA":"鯤溟","LANE":" ","ALLEY":" ","HOUSE_NO":"６之２１號","E_COORD97":156760.04999999999,"N_COORD97":2565514.7000000002,"ADDRESS":"鯤溟６之２１號","OBJECTID":55713},"geometry":{"x":156760.05000000168,"y":2565514.7000000011}},{"attributes":{"ID":55714,"DIS_CODE":0,"TOWNNAME":"將軍區","LI":"鯤溟里","LIN":"1鄰","STREET":" ","SECT":" ","MAREA":"鯤溟","LANE":" ","ALLEY":" ","HOUSE_NO":"６之２２號","E_COORD97":156759.87,"N_COORD97":2565519.4900000002,"ADDRESS":"鯤溟６之２２號","OBJECTID":55714},"geometry":{"x":156759.87000000197,"y":2565519.4900000039}},{"attributes":{"ID":55715,"DIS_CODE":0,"TOWNNAME":"將軍區","LI":"鯤溟里","LIN":"1鄰","STREET":" ","SECT":" ","MAREA":"鯤溟","LANE":" ","ALLEY":" ","HOUSE_NO":"６之２４號","E_COORD97":156748.07999999999,"N_COORD97":2565536.1099999999,"ADDRESS":"鯤溟６之２４號","OBJECTID":55715},"geometry":{"x":156748.08000000007,"y":2565536.1100000013}},{"attributes":{"ID":55716,"DIS_CODE":0,"TOWNNAME":"將軍區","LI":"鯤溟里","LIN":"1鄰","STREET":" ","SECT":" ","MAREA":"鯤溟","LANE":" ","ALLEY":" ","HOUSE_NO":"６之２號","E_COORD97":156827.92999999999,"N_COORD97":2565446.2599999998,"ADDRESS":"鯤溟６之２號","OBJECTID":55716},"geometry":{"x":156827.9299999997,"y":2565446.2600000035}},{"attributes":{"ID":55717,"DIS_CODE":0,"TOWNNAME":"將軍區","LI":"鯤溟里","LIN":"1鄰","STREET":" ","SECT":" ","MAREA":"鯤溟","LANE":" ","ALLEY":" ","HOUSE_NO":"６之３６號","E_COORD97":156789.14000000001,"N_COORD97":2565457.98,"ADDRESS":"鯤溟６之３６號","OBJECTID":55717},"geometry":{"x":156789.13999999966,"y":2565457.9800000004}},{"attributes":{"ID":55718,"DIS_CODE":0,"TOWNNAME":"將軍區","LI":"鯤溟里","LIN":"1鄰","STREET":" ","SECT":" ","MAREA":"鯤溟","LANE":" ","ALLEY":" ","HOUSE_NO":"６之３７號","E_COORD97":156788.42999999999,"N_COORD97":2565453.48,"ADDRESS":"鯤溟６之３７號","OBJECTID":55718},"geometry":{"x":156788.43000000063,"y":2565453.4800000023}},{"attributes":{"ID":55719,"DIS_CODE":0,"TOWNNAME":"將軍區","LI":"鯤溟里","LIN":"1鄰","STREET":" ","SECT":" ","MAREA":"鯤溟","LANE":" ","ALLEY":" ","HOUSE_NO":"６之３８號","E_COORD97":156788.66,"N_COORD97":2565449.7000000002,"ADDRESS":"鯤溟６之３８號","OBJECTID":55719},"geometry":{"x":156788.66000000108,"y":2565449.7000000011}},{"attributes":{"ID":55720,"DIS_CODE":0,"TOWNNAME":"將軍區","LI":"鯤溟里","LIN":"1鄰","STREET":" ","SECT":" ","MAREA":"鯤溟","LANE":" ","ALLEY":" ","HOUSE_NO":"６之３９號","E_COORD97":156788.62,"N_COORD97":2565445.3399999999,"ADDRESS":"鯤溟６之３９號","OBJECTID":55720},"geometry":{"x":156788.61999999918,"y":2565445.339999998}},{"attributes":{"ID":55721,"DIS_CODE":0,"TOWNNAME":"將軍區","LI":"鯤溟里","LIN":"1鄰","STREET":" ","SECT":" ","MAREA":"鯤溟","LANE":" ","ALLEY":" ","HOUSE_NO":"６之３號","E_COORD97":156826.48000000001,"N_COORD97":2565468.25,"ADDRESS":"鯤溟６之３號","OBJECTID":55721},"geometry":{"x":156826.48000000045,"y":2565468.2500000019}},{"attributes":{"ID":55722,"DIS_CODE":0,"TOWNNAME":"將軍區","LI":"鯤溟里","LIN":"1鄰","STREET":" ","SECT":" ","MAREA":"鯤溟","LANE":" ","ALLEY":" ","HOUSE_NO":"６之４０號","E_COORD97":156788.10000000001,"N_COORD97":2565441.4199999999,"ADDRESS":"鯤溟６之４０號","OBJECTID":55722},"geometry":{"x":156788.09999999963,"y":2565441.4199999999}},{"attributes":{"ID":55723,"DIS_CODE":0,"TOWNNAME":"將軍區","LI":"鯤溟里","LIN":"1鄰","STREET":" ","SECT":" ","MAREA":"鯤溟","LANE":" ","ALLEY":" ","HOUSE_NO":"６之４１號","E_COORD97":156787.94,"N_COORD97":2565437.0099999998,"ADDRESS":"鯤溟６之４１號","OBJECTID":55723},"geometry":{"x":156787.94000000041,"y":2565437.0099999998}},{"attributes":{"ID":55724,"DIS_CODE":0,"TOWNNAME":"將軍區","LI":"鯤溟里","LIN":"1鄰","STREET":" ","SECT":" ","MAREA":"鯤溟","LANE":" ","ALLEY":" ","HOUSE_NO":"６之５６號","E_COORD97":156769.14000000001,"N_COORD97":2565439.9100000001,"ADDRESS":"鯤溟６之５６號","OBJECTID":55724},"geometry":{"x":156769.13999999966,"y":2565439.910000002}},{"attributes":{"ID":55725,"DIS_CODE":0,"TOWNNAME":"將軍區","LI":"鯤鯓里","LIN":"1鄰","STREET":" ","SECT":" ","MAREA":"鯤鯓","LANE":" ","ALLEY":" ","HOUSE_NO":"３之２號","E_COORD97":156680.56,"N_COORD97":2565636.27,"ADDRESS":"鯤鯓３之２號","OBJECTID":55725},"geometry":{"x":156680.56000000052,"y":2565636.2700000014}},{"attributes":{"ID":55726,"DIS_CODE":0,"TOWNNAME":"將軍區","LI":"鯤鯓里","LIN":"1鄰","STREET":" ","SECT":" ","MAREA":"鯤鯓","LANE":" ","ALLEY":" ","HOUSE_NO":"３之４號","E_COORD97":156677.23000000001,"N_COORD97":2565654.8300000001,"ADDRESS":"鯤鯓３之４號","OBJECTID":55726},"geometry":{"x":156677.23000000138,"y":2565654.8300000001}},{"attributes":{"ID":55727,"DIS_CODE":0,"TOWNNAME":"將軍區","LI":"鯤鯓里","LIN":"1鄰","STREET":" ","SECT":" ","MAREA":"鯤鯓","LANE":" ","ALLEY":" ","HOUSE_NO":"３之５號","E_COORD97":156683.49911400001,"N_COORD97":2565666.6124999998,"ADDRESS":"鯤鯓３之５號","OBJECTID":55727},"geometry":{"x":156683.49911400024,"y":2565666.6125039998}},{"attributes":{"ID":55728,"DIS_CODE":0,"TOWNNAME":"將軍區","LI":"鯤鯓里","LIN":"1鄰","STREET":" ","SECT":" ","MAREA":"鯤鯓","LANE":" ","ALLEY":" ","HOUSE_NO":"３之６號","E_COORD97":156681.27513699999,"N_COORD97":2565673.38583,"ADDRESS":"鯤鯓３之６號","OBJECTID":55728},"geometry":{"x":156681.27513700072,"y":2565673.385834001}},{"attributes":{"ID":55729,"DIS_CODE":0,"TOWNNAME":"龍崎區","LI":"大坪里","LIN":"1鄰","STREET":" ","SECT":" ","MAREA":"磅空子","LANE":" ","ALLEY":" ","HOUSE_NO":"２號","E_COORD97":187710.09,"N_COORD97":2538244.25,"ADDRESS":"磅空子２號","OBJECTID":55729},"geometry":{"x":187710.08999999985,"y":2538244.25}},{"attributes":{"ID":55730,"DIS_CODE":0,"TOWNNAME":"將軍區","LI":"鯤鯓里","LIN":"1鄰","STREET":" ","SECT":" ","MAREA":"鯤鯓","LANE":" ","ALLEY":" ","HOUSE_NO":"４之１號","E_COORD97":156660.45999999999,"N_COORD97":2565656.6499999999,"ADDRESS":"鯤鯓４之１號","OBJECTID":55730},"geometry":{"x":156660.45999999996,"y":2565656.6500000004}},{"attributes":{"ID":55731,"DIS_CODE":0,"TOWNNAME":"將軍區","LI":"鯤鯓里","LIN":"1鄰","STREET":" ","SECT":" ","MAREA":"鯤鯓","LANE":" ","ALLEY":" ","HOUSE_NO":"４之２號","E_COORD97":156663.89999999999,"N_COORD97":2565646.0499999998,"ADDRESS":"鯤鯓４之２號","OBJECTID":55731},"geometry":{"x":156663.9000000013,"y":2565646.0500000026}},{"attributes":{"ID":55732,"DIS_CODE":0,"TOWNNAME":"將軍區","LI":"鯤鯓里","LIN":"1鄰","STREET":" ","SECT":" ","MAREA":"鯤鯓","LANE":" ","ALLEY":" ","HOUSE_NO":"４之３號","E_COORD97":156658.13,"N_COORD97":2565628.2799999998,"ADDRESS":"鯤鯓４之３號","OBJECTID":55732},"geometry":{"x":156658.13000000082,"y":2565628.2799999975}},{"attributes":{"ID":55733,"DIS_CODE":0,"TOWNNAME":"將軍區","LI":"鯤鯓里","LIN":"1鄰","STREET":" ","SECT":" ","MAREA":"鯤鯓","LANE":" ","ALLEY":" ","HOUSE_NO":"４號","E_COORD97":156635.88,"N_COORD97":2565648.3199999998,"ADDRESS":"鯤鯓４號","OBJECTID":55733},"geometry":{"x":156635.88000000175,"y":2565648.3200000003}},{"attributes":{"ID":55734,"DIS_CODE":0,"TOWNNAME":"將軍區","LI":"鯤鯓里","LIN":"1鄰","STREET":" ","SECT":" ","MAREA":"鯤鯓","LANE":" ","ALLEY":" ","HOUSE_NO":"５之１號","E_COORD97":156639.42999999999,"N_COORD97":2565661.4900000002,"ADDRESS":"鯤鯓５之１號","OBJECTID":55734},"geometry":{"x":156639.43000000063,"y":2565661.4900000002}},{"attributes":{"ID":55735,"DIS_CODE":0,"TOWNNAME":"將軍區","LI":"鯤鯓里","LIN":"1鄰","STREET":" ","SECT":" ","MAREA":"鯤鯓","LANE":" ","ALLEY":" ","HOUSE_NO":"５之２號","E_COORD97":156638.75,"N_COORD97":2565656.6499999999,"ADDRESS":"鯤鯓５之２號","OBJECTID":55735},"geometry":{"x":156638.75000000093,"y":2565656.6500000004}},{"attributes":{"ID":55736,"DIS_CODE":0,"TOWNNAME":"將軍區","LI":"鯤鯓里","LIN":"1鄰","STREET":" ","SECT":" ","MAREA":"鯤鯓","LANE":" ","ALLEY":" ","HOUSE_NO":"５號","E_COORD97":156640.10999999999,"N_COORD97":2565666.1600000001,"ADDRESS":"鯤鯓５號","OBJECTID":55736},"geometry":{"x":156640.11000000127,"y":2565666.1600000001}},{"attributes":{"ID":55737,"DIS_CODE":0,"TOWNNAME":"將軍區","LI":"鯤鯓里","LIN":"1鄰","STREET":" ","SECT":" ","MAREA":"鯤鯓","LANE":" ","ALLEY":" ","HOUSE_NO":"７之１號","E_COORD97":156620.22,"N_COORD97":2565651.25,"ADDRESS":"鯤鯓７之１號","OBJECTID":55737},"geometry":{"x":156620.22000000067,"y":2565651.2500000019}},{"attributes":{"ID":55738,"DIS_CODE":0,"TOWNNAME":"將軍區","LI":"西華里","LIN":"1鄰","STREET":" ","SECT":" ","MAREA":"西華","LANE":" ","ALLEY":" ","HOUSE_NO":"１之１７號","E_COORD97":163675.97,"N_COORD97":2566654.8900000001,"ADDRESS":"西華１之１７號","OBJECTID":55738},"geometry":{"x":163675.97000000067,"y":2566654.8900000006}},{"attributes":{"ID":55739,"DIS_CODE":0,"TOWNNAME":"將軍區","LI":"長榮里","LIN":"1鄰","STREET":" ","SECT":" ","MAREA":"長榮","LANE":" ","ALLEY":" ","HOUSE_NO":"４號","E_COORD97":163945.45999999999,"N_COORD97":2566465.0499999998,"ADDRESS":"長榮４號","OBJECTID":55739},"geometry":{"x":163945.46000000089,"y":2566465.0500000007}},{"attributes":{"ID":55740,"DIS_CODE":0,"TOWNNAME":"仁德區","LI":"中洲里","LIN":"1鄰","STREET":" ","SECT":" ","MAREA":"中洲","LANE":" ","ALLEY":" ","HOUSE_NO":"３之１２號","E_COORD97":173600.64000000001,"N_COORD97":2534337.29,"ADDRESS":"中洲３之１２號","OBJECTID":55740},"geometry":{"x":173600.63999999966,"y":2534337.2899999991}},{"attributes":{"ID":55741,"DIS_CODE":0,"TOWNNAME":"仁德區","LI":"中洲里","LIN":"1鄰","STREET":" ","SECT":" ","MAREA":"中洲","LANE":" ","ALLEY":" ","HOUSE_NO":"１號之５","E_COORD97":173948.53,"N_COORD97":2534415.5499999998,"ADDRESS":"中洲１號之５","OBJECTID":55741},"geometry":{"x":173948.53000000119,"y":2534415.5500000007}},{"attributes":{"ID":55742,"DIS_CODE":0,"TOWNNAME":"仁德區","LI":"中生里","LIN":"1鄰","STREET":" ","SECT":" ","MAREA":"中洲","LANE":" ","ALLEY":" ","HOUSE_NO":"５４號","E_COORD97":173152.14999999999,"N_COORD97":2534288.75,"ADDRESS":"中洲５４號","OBJECTID":55742},"geometry":{"x":173152.15000000037,"y":2534288.7500000037}},{"attributes":{"ID":55743,"DIS_CODE":0,"TOWNNAME":"龍崎區","LI":"崎頂里","LIN":"1鄰","STREET":" ","SECT":" ","MAREA":"新市子","LANE":" ","ALLEY":" ","HOUSE_NO":"１７號","E_COORD97":184288.72,"N_COORD97":2540722.25,"ADDRESS":"新市子１７號","OBJECTID":55743},"geometry":{"x":184288.7200000016,"y":2540722.25}},{"attributes":{"ID":55744,"DIS_CODE":0,"TOWNNAME":"龍崎區","LI":"大坪里","LIN":"1鄰","STREET":" ","SECT":" ","MAREA":"磅空子","LANE":" ","ALLEY":" ","HOUSE_NO":"３之１號","E_COORD97":187471.09,"N_COORD97":2538340.2999999998,"ADDRESS":"磅空子３之１號","OBJECTID":55744},"geometry":{"x":187471.08999999985,"y":2538340.3000000007}},{"attributes":{"ID":55745,"DIS_CODE":0,"TOWNNAME":"龍崎區","LI":"大坪里","LIN":"1鄰","STREET":" ","SECT":" ","MAREA":"磅空子","LANE":" ","ALLEY":" ","HOUSE_NO":"１０號","E_COORD97":187866.44,"N_COORD97":2537605.25,"ADDRESS":"磅空子１０號","OBJECTID":55745},"geometry":{"x":187866.44000000227,"y":2537605.2500000019}},{"attributes":{"ID":55746,"DIS_CODE":0,"TOWNNAME":"龍崎區","LI":"大坪里","LIN":"1鄰","STREET":" ","SECT":" ","MAREA":"磅空子","LANE":" ","ALLEY":" ","HOUSE_NO":"１號之１","E_COORD97":187609.63,"N_COORD97":2538327.2999999998,"ADDRESS":"磅空子１號之１","OBJECTID":55746},"geometry":{"x":187609.62999999989,"y":2538327.3000000045}},{"attributes":{"ID":55747,"DIS_CODE":0,"TOWNNAME":"龍崎區","LI":"龍船里","LIN":"1鄰","STREET":" ","SECT":" ","MAREA":"瓦厝子","LANE":" ","ALLEY":" ","HOUSE_NO":"１０號","E_COORD97":189486.69,"N_COORD97":2537758.25,"ADDRESS":"瓦厝子１０號","OBJECTID":55747},"geometry":{"x":189486.69000000041,"y":2537758.2500000019}},{"attributes":{"ID":55748,"DIS_CODE":0,"TOWNNAME":"龍崎區","LI":"龍船里","LIN":"1鄰","STREET":" ","SECT":" ","MAREA":"瓦厝子","LANE":" ","ALLEY":" ","HOUSE_NO":"４號","E_COORD97":189256.73999999999,"N_COORD97":2537623.25,"ADDRESS":"瓦厝子４號","OBJECTID":55748},"geometry":{"x":189256.74000000115,"y":2537623.25}},{"attributes":{"ID":55749,"DIS_CODE":0,"TOWNNAME":"龍崎區","LI":"楠坑里","LIN":"1鄰","STREET":" ","SECT":" ","MAREA":"狗頸崙","LANE":" ","ALLEY":" ","HOUSE_NO":"８號","E_COORD97":186133.70999999999,"N_COORD97":2538498.25,"ADDRESS":"狗頸崙８號","OBJECTID":55749},"geometry":{"x":186133.71000000089,"y":2538498.25}},{"attributes":{"ID":55750,"DIS_CODE":0,"TOWNNAME":"龍崎區","LI":"龍船里","LIN":"1鄰","STREET":" ","SECT":" ","MAREA":"瓦厝子","LANE":" ","ALLEY":" ","HOUSE_NO":"６號","E_COORD97":189473.04000000001,"N_COORD97":2537604.25,"ADDRESS":"瓦厝子６號","OBJECTID":55750},"geometry":{"x":189473.04000000097,"y":2537604.25}},{"attributes":{"ID":55751,"DIS_CODE":0,"TOWNNAME":"龍崎區","LI":"龍船里","LIN":"1鄰","STREET":" ","SECT":" ","MAREA":"瓦厝子","LANE":" ","ALLEY":" ","HOUSE_NO":"８號","E_COORD97":189458.34,"N_COORD97":2537639.25,"ADDRESS":"瓦厝子８號","OBJECTID":55751},"geometry":{"x":189458.34000000171,"y":2537639.2500000019}},{"attributes":{"ID":55752,"DIS_CODE":0,"TOWNNAME":"龍崎區","LI":"楠坑里","LIN":"1鄰","STREET":" ","SECT":" ","MAREA":"狗頸崙","LANE":" ","ALLEY":" ","HOUSE_NO":"５號","E_COORD97":186306.31,"N_COORD97":2538443.25,"ADDRESS":"狗頸崙５號","OBJECTID":55752},"geometry":{"x":186306.30999999959,"y":2538443.2500000019}},{"attributes":{"ID":55753,"DIS_CODE":0,"TOWNNAME":"龍崎區","LI":"崎頂里","LIN":"1鄰","STREET":" ","SECT":" ","MAREA":"新市子","LANE":" ","ALLEY":" ","HOUSE_NO":"２號","E_COORD97":184156.67000000001,"N_COORD97":2540764.25,"ADDRESS":"新市子２號","OBJECTID":55753},"geometry":{"x":184156.66999999993,"y":2540764.2499999981}},{"attributes":{"ID":55754,"DIS_CODE":0,"TOWNNAME":"龍崎區","LI":"崎頂里","LIN":"1鄰","STREET":" ","SECT":" ","MAREA":"新市子","LANE":" ","ALLEY":" ","HOUSE_NO":"９號","E_COORD97":184217.26999999999,"N_COORD97":2540759.25,"ADDRESS":"新市子９號","OBJECTID":55754},"geometry":{"x":184217.27000000048,"y":2540759.2500000019}},{"attributes":{"ID":55755,"DIS_CODE":0,"TOWNNAME":"龍崎區","LI":"崎頂里","LIN":"1鄰","STREET":" ","SECT":" ","MAREA":"新市子","LANE":" ","ALLEY":" ","HOUSE_NO":"２４號","E_COORD97":184316.32000000001,"N_COORD97":2540699.25,"ADDRESS":"新市子２４號","OBJECTID":55755},"geometry":{"x":184316.32000000123,"y":2540699.25}},{"attributes":{"ID":55756,"DIS_CODE":0,"TOWNNAME":"龍崎區","LI":"石\u25A0里","LIN":"1鄰","STREET":" ","SECT":" ","MAREA":"檳榔宅","LANE":" ","ALLEY":" ","HOUSE_NO":"１之２號","E_COORD97":188564.37,"N_COORD97":2538514.2999999998,"ADDRESS":"檳榔宅１之２號","OBJECTID":55756},"geometry":{"x":188564.37000000011,"y":2538514.3000000026}},{"attributes":{"ID":55757,"DIS_CODE":0,"TOWNNAME":"龍崎區","LI":"土崎里","LIN":"1鄰","STREET":" ","SECT":" ","MAREA":"考潭","LANE":" ","ALLEY":" ","HOUSE_NO":"８之３號","E_COORD97":185335.09,"N_COORD97":2543484.2999999998,"ADDRESS":"考潭８之３號","OBJECTID":55757},"geometry":{"x":185335.08999999985,"y":2543484.3000000026}},{"attributes":{"ID":55758,"DIS_CODE":0,"TOWNNAME":"龍崎區","LI":"土崎里","LIN":"1鄰","STREET":" ","SECT":" ","MAREA":"考潭","LANE":" ","ALLEY":" ","HOUSE_NO":"１之７號","E_COORD97":184763.39000000001,"N_COORD97":2542563.2999999998,"ADDRESS":"考潭１之７號","OBJECTID":55758},"geometry":{"x":184763.38999999966,"y":2542563.3000000026}},{"attributes":{"ID":55759,"DIS_CODE":0,"TOWNNAME":"龍崎區","LI":"土崎里","LIN":"1鄰","STREET":" ","SECT":" ","MAREA":"考潭","LANE":" ","ALLEY":" ","HOUSE_NO":"５號","E_COORD97":185158.59,"N_COORD97":2543352.25,"ADDRESS":"考潭５號","OBJECTID":55759},"geometry":{"x":185158.58999999985,"y":2543352.2500000019}},{"attributes":{"ID":55760,"DIS_CODE":0,"TOWNNAME":"龍崎區","LI":"土崎里","LIN":"1鄰","STREET":" ","SECT":" ","MAREA":"考潭","LANE":" ","ALLEY":" ","HOUSE_NO":"１１之４號","E_COORD97":185563.44,"N_COORD97":2542893.2999999998,"ADDRESS":"考潭１１之４號","OBJECTID":55760},"geometry":{"x":185563.44000000134,"y":2542893.3000000007}},{"attributes":{"ID":55761,"DIS_CODE":0,"TOWNNAME":"龍崎區","LI":"土崎里","LIN":"1鄰","STREET":" ","SECT":" ","MAREA":"考潭","LANE":" ","ALLEY":" ","HOUSE_NO":"４號","E_COORD97":185081.89000000001,"N_COORD97":2542905.25,"ADDRESS":"考潭４號","OBJECTID":55761},"geometry":{"x":185081.88999999966,"y":2542905.2500000019}},{"attributes":{"ID":55762,"DIS_CODE":0,"TOWNNAME":"龍崎區","LI":"牛埔里","LIN":"1鄰","STREET":" ","SECT":" ","MAREA":"牛埔","LANE":" ","ALLEY":" ","HOUSE_NO":"１４號","E_COORD97":189542.67000000001,"N_COORD97":2537076.25,"ADDRESS":"牛埔１４號","OBJECTID":55762},"geometry":{"x":189542.67000000179,"y":2537076.2500000019}},{"attributes":{"ID":55763,"DIS_CODE":0,"TOWNNAME":"龍崎區","LI":"土崎里","LIN":"1鄰","STREET":" ","SECT":" ","MAREA":"考潭","LANE":" ","ALLEY":" ","HOUSE_NO":"１１號之２","E_COORD97":185632.51000000001,"N_COORD97":2542872.2999999998,"ADDRESS":"考潭１１號之２","OBJECTID":55763},"geometry":{"x":185632.50999999978,"y":2542872.3000000007}},{"attributes":{"ID":55764,"DIS_CODE":0,"TOWNNAME":"龍崎區","LI":"土崎里","LIN":"1鄰","STREET":" ","SECT":" ","MAREA":"考潭","LANE":" ","ALLEY":" ","HOUSE_NO":"８號","E_COORD97":185243.89000000001,"N_COORD97":2543432.25,"ADDRESS":"考潭８號","OBJECTID":55764},"geometry":{"x":185243.8900000006,"y":2543432.25}},{"attributes":{"ID":55765,"DIS_CODE":0,"TOWNNAME":"龍崎區","LI":"土崎里","LIN":"1鄰","STREET":" ","SECT":" ","MAREA":"考潭","LANE":" ","ALLEY":" ","HOUSE_NO":"３號","E_COORD97":185126.39000000001,"N_COORD97":2542814.25,"ADDRESS":"考潭３號","OBJECTID":55765},"geometry":{"x":185126.38999999966,"y":2542814.25}},{"attributes":{"ID":55766,"DIS_CODE":0,"TOWNNAME":"龍崎區","LI":"土崎里","LIN":"1鄰","STREET":" ","SECT":" ","MAREA":"考潭","LANE":" ","ALLEY":" ","HOUSE_NO":"１０之１號","E_COORD97":185460.34,"N_COORD97":2543219.2999999998,"ADDRESS":"考潭１０之１號","OBJECTID":55766},"geometry":{"x":185460.33999999985,"y":2543219.2999999989}},{"attributes":{"ID":55767,"DIS_CODE":0,"TOWNNAME":"龍崎區","LI":"土崎里","LIN":"1鄰","STREET":" ","SECT":" ","MAREA":"考潭","LANE":" ","ALLEY":" ","HOUSE_NO":"１０號","E_COORD97":185429.04000000001,"N_COORD97":2543094.25,"ADDRESS":"考潭１０號","OBJECTID":55767},"geometry":{"x":185429.04000000004,"y":2543094.2500000019}},{"attributes":{"ID":55768,"DIS_CODE":0,"TOWNNAME":"龍崎區","LI":"牛埔里","LIN":"1鄰","STREET":" ","SECT":" ","MAREA":"牛埔","LANE":" ","ALLEY":" ","HOUSE_NO":"７之３號","E_COORD97":189814.72,"N_COORD97":2537246.2999999998,"ADDRESS":"牛埔７之３號","OBJECTID":55768},"geometry":{"x":189814.71999999974,"y":2537246.3000000026}},{"attributes":{"ID":55769,"DIS_CODE":0,"TOWNNAME":"龍崎區","LI":"中坑里","LIN":"1鄰","STREET":" ","SECT":" ","MAREA":"中坑","LANE":" ","ALLEY":" ","HOUSE_NO":"１１之２號","E_COORD97":186414.76000000001,"N_COORD97":2538643.2999999998,"ADDRESS":"中坑１１之２號","OBJECTID":55769},"geometry":{"x":186414.76000000071,"y":2538643.3000000026}},{"attributes":{"ID":55770,"DIS_CODE":0,"TOWNNAME":"龍崎區","LI":"土崎里","LIN":"1鄰","STREET":" ","SECT":" ","MAREA":"考潭","LANE":" ","ALLEY":" ","HOUSE_NO":"１之８號","E_COORD97":185066.39000000001,"N_COORD97":2542767.2999999998,"ADDRESS":"考潭１之８號","OBJECTID":55770},"geometry":{"x":185066.3900000006,"y":2542767.3000000007}},{"attributes":{"ID":55771,"DIS_CODE":0,"TOWNNAME":"龍崎區","LI":"中坑里","LIN":"1鄰","STREET":" ","SECT":" ","MAREA":"中坑","LANE":" ","ALLEY":" ","HOUSE_NO":"１１之１號","E_COORD97":186331.76000000001,"N_COORD97":2538743.2999999998,"ADDRESS":"中坑１１之１號","OBJECTID":55771},"geometry":{"x":186331.76000000071,"y":2538743.3000000007}},{"attributes":{"ID":55772,"DIS_CODE":0,"TOWNNAME":"龍崎區","LI":"牛埔里","LIN":"1鄰","STREET":" ","SECT":" ","MAREA":"牛埔","LANE":" ","ALLEY":" ","HOUSE_NO":"１０號","E_COORD97":189713.26999999999,"N_COORD97":2537235.25,"ADDRESS":"牛埔１０號","OBJECTID":55772},"geometry":{"x":189713.27000000048,"y":2537235.2500000037}},{"attributes":{"ID":55773,"DIS_CODE":0,"TOWNNAME":"龍崎區","LI":"中坑里","LIN":"1鄰","STREET":" ","SECT":" ","MAREA":"中坑","LANE":" ","ALLEY":" ","HOUSE_NO":"１４號","E_COORD97":185740.26000000001,"N_COORD97":2538423.2799999998,"ADDRESS":"中坑１４號","OBJECTID":55773},"geometry":{"x":185740.26000000071,"y":2538423.2799999993}},{"attributes":{"ID":55774,"DIS_CODE":0,"TOWNNAME":"龍崎區","LI":"中坑里","LIN":"1鄰","STREET":" ","SECT":" ","MAREA":"中坑","LANE":" ","ALLEY":" ","HOUSE_NO":"１１號","E_COORD97":186300.95999999999,"N_COORD97":2538714.2799999998,"ADDRESS":"中坑１１號","OBJECTID":55774},"geometry":{"x":186300.95999999996,"y":2538714.2799999993}},{"attributes":{"ID":55775,"DIS_CODE":0,"TOWNNAME":"龍崎區","LI":"牛埔里","LIN":"1鄰","STREET":" ","SECT":" ","MAREA":"牛埔","LANE":" ","ALLEY":" ","HOUSE_NO":"３號","E_COORD97":190078.72,"N_COORD97":2537734.25,"ADDRESS":"牛埔３號","OBJECTID":55775},"geometry":{"x":190078.71999999974,"y":2537734.2500000019}},{"attributes":{"ID":55776,"DIS_CODE":0,"TOWNNAME":"龍崎區","LI":"石\u25A0里","LIN":"1鄰","STREET":" ","SECT":" ","MAREA":"檳榔宅","LANE":" ","ALLEY":" ","HOUSE_NO":"６之１號","E_COORD97":188583.57000000001,"N_COORD97":2538318.2999999998,"ADDRESS":"檳榔宅６之１號","OBJECTID":55776},"geometry":{"x":188583.5700000003,"y":2538318.3000000026}},{"attributes":{"ID":55777,"DIS_CODE":0,"TOWNNAME":"龍崎區","LI":"崎頂里","LIN":"1鄰","STREET":" ","SECT":" ","MAREA":"新市子","LANE":" ","ALLEY":" ","HOUSE_NO":"１８號","E_COORD97":184309.62,"N_COORD97":2540721.25,"ADDRESS":"新市子１８號","OBJECTID":55777},"geometry":{"x":184309.62000000011,"y":2540721.2500000019}},{"attributes":{"ID":55778,"DIS_CODE":0,"TOWNNAME":"龍崎區","LI":"楠坑里","LIN":"1鄰","STREET":" ","SECT":" ","MAREA":"狗頸崙","LANE":" ","ALLEY":" ","HOUSE_NO":"７號","E_COORD97":186319.41,"N_COORD97":2538492.25,"ADDRESS":"狗頸崙７號","OBJECTID":55778},"geometry":{"x":186319.41000000108,"y":2538492.25}},{"attributes":{"ID":55779,"DIS_CODE":0,"TOWNNAME":"龍崎區","LI":"楠坑里","LIN":"1鄰","STREET":" ","SECT":" ","MAREA":"狗頸崙","LANE":" ","ALLEY":" ","HOUSE_NO":"５之１號","E_COORD97":186305.01000000001,"N_COORD97":2538449.2999999998,"ADDRESS":"狗頸崙５之１號","OBJECTID":55779},"geometry":{"x":186305.00999999978,"y":2538449.3000000045}},{"attributes":{"ID":55780,"DIS_CODE":0,"TOWNNAME":"龍崎區","LI":"崎頂里","LIN":"1鄰","STREET":" ","SECT":" ","MAREA":"新市子","LANE":" ","ALLEY":" ","HOUSE_NO":"３號","E_COORD97":184177.87,"N_COORD97":2540758.25,"ADDRESS":"新市子３號","OBJECTID":55780},"geometry":{"x":184177.87000000197,"y":2540758.2500000019}},{"attributes":{"ID":55781,"DIS_CODE":0,"TOWNNAME":"龍崎區","LI":"崎頂里","LIN":"1鄰","STREET":" ","SECT":" ","MAREA":"新市子","LANE":" ","ALLEY":" ","HOUSE_NO":"３２號","E_COORD97":184328.62,"N_COORD97":2540634.25,"ADDRESS":"新市子３２號","OBJECTID":55781},"geometry":{"x":184328.62000000011,"y":2540634.25}},{"attributes":{"ID":55782,"DIS_CODE":0,"TOWNNAME":"龍崎區","LI":"石\u25A0里","LIN":"1鄰","STREET":" ","SECT":" ","MAREA":"檳榔宅","LANE":" ","ALLEY":" ","HOUSE_NO":"１之３號","E_COORD97":188577.97,"N_COORD97":2538532.2999999998,"ADDRESS":"檳榔宅１之３號","OBJECTID":55782},"geometry":{"x":188577.97000000067,"y":2538532.3000000007}},{"attributes":{"ID":55783,"DIS_CODE":0,"TOWNNAME":"龍崎區","LI":"石\u25A0里","LIN":"1鄰","STREET":" ","SECT":" ","MAREA":"檳榔宅","LANE":" ","ALLEY":" ","HOUSE_NO":"１之４號","E_COORD97":188584.17000000001,"N_COORD97":2538539.2999999998,"ADDRESS":"檳榔宅１之４號","OBJECTID":55783},"geometry":{"x":188584.16999999993,"y":2538539.3000000007}},{"attributes":{"ID":55784,"DIS_CODE":0,"TOWNNAME":"龍崎區","LI":"崎頂里","LIN":"1鄰","STREET":" ","SECT":" ","MAREA":"新市子","LANE":" ","ALLEY":" ","HOUSE_NO":"２６號","E_COORD97":184334.32000000001,"N_COORD97":2540679.25,"ADDRESS":"新市子２６號","OBJECTID":55784},"geometry":{"x":184334.31999999937,"y":2540679.25}},{"attributes":{"ID":55785,"DIS_CODE":0,"TOWNNAME":"龍崎區","LI":"崎頂里","LIN":"1鄰","STREET":" ","SECT":" ","MAREA":"新市子","LANE":" ","ALLEY":" ","HOUSE_NO":"３之１號","E_COORD97":184166.47,"N_COORD97":2540712.2999999998,"ADDRESS":"新市子３之１號","OBJECTID":55785},"geometry":{"x":184166.46999999974,"y":2540712.3000000007}},{"attributes":{"ID":55786,"DIS_CODE":0,"TOWNNAME":"龍崎區","LI":"崎頂里","LIN":"1鄰","STREET":" ","SECT":" ","MAREA":"新市子","LANE":" ","ALLEY":" ","HOUSE_NO":"１９號","E_COORD97":184312.22,"N_COORD97":2540709.25,"ADDRESS":"新市子１９號","OBJECTID":55786},"geometry":{"x":184312.21999999974,"y":2540709.25}},{"attributes":{"ID":55787,"DIS_CODE":0,"TOWNNAME":"龍崎區","LI":"崎頂里","LIN":"1鄰","STREET":" ","SECT":" ","MAREA":"新市子","LANE":" ","ALLEY":" ","HOUSE_NO":"１５號","E_COORD97":184291.72,"N_COORD97":2540734.25,"ADDRESS":"新市子１５號","OBJECTID":55787},"geometry":{"x":184291.71999999974,"y":2540734.2500000019}},{"attributes":{"ID":55788,"DIS_CODE":0,"TOWNNAME":"龍崎區","LI":"崎頂里","LIN":"1鄰","STREET":" ","SECT":" ","MAREA":"新市子","LANE":" ","ALLEY":" ","HOUSE_NO":"３１號","E_COORD97":184332.32000000001,"N_COORD97":2540640.25,"ADDRESS":"新市子３１號","OBJECTID":55788},"geometry":{"x":184332.3200000003,"y":2540640.2500000019}},{"attributes":{"ID":55789,"DIS_CODE":0,"TOWNNAME":"龍崎區","LI":"崎頂里","LIN":"1鄰","STREET":" ","SECT":" ","MAREA":"新市子","LANE":" ","ALLEY":" ","HOUSE_NO":"３０號","E_COORD97":184337.32000000001,"N_COORD97":2540648.25,"ADDRESS":"新市子３０號","OBJECTID":55789},"geometry":{"x":184337.3200000003,"y":2540648.25}},{"attributes":{"ID":55790,"DIS_CODE":0,"TOWNNAME":"龍崎區","LI":"石\u25A0里","LIN":"1鄰","STREET":" ","SECT":" ","MAREA":"檳榔宅","LANE":" ","ALLEY":" ","HOUSE_NO":"３號","E_COORD97":188500.76999999999,"N_COORD97":2538402.25,"ADDRESS":"檳榔宅３號","OBJECTID":55790},"geometry":{"x":188500.77000000142,"y":2538402.2500000019}},{"attributes":{"ID":55791,"DIS_CODE":0,"TOWNNAME":"龍崎區","LI":"石\u25A0里","LIN":"1鄰","STREET":" ","SECT":" ","MAREA":"檳榔宅","LANE":" ","ALLEY":" ","HOUSE_NO":"６號","E_COORD97":188595.67000000001,"N_COORD97":2538319.25,"ADDRESS":"檳榔宅６號","OBJECTID":55791},"geometry":{"x":188595.67000000086,"y":2538319.25}},{"attributes":{"ID":55792,"DIS_CODE":0,"TOWNNAME":"龍崎區","LI":"石\u25A0里","LIN":"1鄰","STREET":" ","SECT":" ","MAREA":"檳榔宅","LANE":" ","ALLEY":" ","HOUSE_NO":"９號","E_COORD97":188702.87,"N_COORD97":2538315.25,"ADDRESS":"檳榔宅９號","OBJECTID":55792},"geometry":{"x":188702.87000000104,"y":2538315.25}},{"attributes":{"ID":55793,"DIS_CODE":0,"TOWNNAME":"龍崎區","LI":"石\u25A0里","LIN":"1鄰","STREET":" ","SECT":" ","MAREA":"檳榔宅","LANE":" ","ALLEY":" ","HOUSE_NO":"３之３號","E_COORD97":188574.57000000001,"N_COORD97":2538494.2999999998,"ADDRESS":"檳榔宅３之３號","OBJECTID":55793},"geometry":{"x":188574.57000000123,"y":2538494.3000000026}},{"attributes":{"ID":55794,"DIS_CODE":0,"TOWNNAME":"龍崎區","LI":"崎頂里","LIN":"1鄰","STREET":" ","SECT":" ","MAREA":"新市子","LANE":" ","ALLEY":" ","HOUSE_NO":"２７號","E_COORD97":184336.22,"N_COORD97":2540671.25,"ADDRESS":"新市子２７號","OBJECTID":55794},"geometry":{"x":184336.2200000016,"y":2540671.25}},{"attributes":{"ID":55795,"DIS_CODE":0,"TOWNNAME":"龍崎區","LI":"崎頂里","LIN":"1鄰","STREET":" ","SECT":" ","MAREA":"新市子","LANE":" ","ALLEY":" ","HOUSE_NO":"１０號","E_COORD97":184240.22,"N_COORD97":2540735.25,"ADDRESS":"新市子１０號","OBJECTID":55795},"geometry":{"x":184240.22000000067,"y":2540735.2500000019}},{"attributes":{"ID":55796,"DIS_CODE":0,"TOWNNAME":"龍崎區","LI":"石\u25A0里","LIN":"1鄰","STREET":" ","SECT":" ","MAREA":"檳榔宅","LANE":" ","ALLEY":" ","HOUSE_NO":"２號","E_COORD97":188473.07000000001,"N_COORD97":2538452.25,"ADDRESS":"檳榔宅２號","OBJECTID":55796},"geometry":{"x":188473.07000000123,"y":2538452.2500000037}},{"attributes":{"ID":55797,"DIS_CODE":0,"TOWNNAME":"龍崎區","LI":"石\u25A0里","LIN":"1鄰","STREET":" ","SECT":" ","MAREA":"檳榔宅","LANE":" ","ALLEY":" ","HOUSE_NO":"１之６號","E_COORD97":188484.97,"N_COORD97":2538552.2999999998,"ADDRESS":"檳榔宅１之６號","OBJECTID":55797},"geometry":{"x":188484.97000000067,"y":2538552.3000000026}},{"attributes":{"ID":55798,"DIS_CODE":0,"TOWNNAME":"龍崎區","LI":"大坪里","LIN":"1鄰","STREET":" ","SECT":" ","MAREA":"磅空子","LANE":" ","ALLEY":" ","HOUSE_NO":"２號之４","E_COORD97":187187.75,"N_COORD97":2537565.2999999998,"ADDRESS":"磅空子２號之４","OBJECTID":55798},"geometry":{"x":187187.75000000093,"y":2537565.3000000026}},{"attributes":{"ID":55799,"DIS_CODE":0,"TOWNNAME":"龍崎區","LI":"中坑里","LIN":"1鄰","STREET":" ","SECT":" ","MAREA":"中坑","LANE":" ","ALLEY":" ","HOUSE_NO":"８之５號","E_COORD97":186747.10999999999,"N_COORD97":2538297.2999999998,"ADDRESS":"中坑８之５號","OBJECTID":55799},"geometry":{"x":186747.11000000127,"y":2538297.3000000026}},{"attributes":{"ID":55800,"DIS_CODE":0,"TOWNNAME":"龍崎區","LI":"大坪里","LIN":"1鄰","STREET":" ","SECT":" ","MAREA":"磅空子","LANE":" ","ALLEY":" ","HOUSE_NO":"６號","E_COORD97":187278.69,"N_COORD97":2538020.25,"ADDRESS":"磅空子６號","OBJECTID":55800},"geometry":{"x":187278.69000000134,"y":2538020.25}}]}