{"displayFieldName":"TOWNNAME","fieldAliases":{"ID":"ID","DIS_CODE":"DIS_CODE","TOWNNAME":"TOWNNAME","LI":"LI","LIN":"LIN","STREET":"STREET","SECT":"SECT","MAREA":"MAREA","LANE":"LANE","ALLEY":"ALLEY","HOUSE_NO":"HOUSE_NO","E_COORD97":"E_COORD97","N_COORD97":"N_COORD97","ADDRESS":"ADDRESS","OBJECTID":"OBJECTID"},"geometryType":"esriGeometryPoint","spatialReference":{"wkid":102443,"latestWkid":3826},"fields":[{"name":"ID","type":"esriFieldTypeDouble","alias":"ID"},{"name":"DIS_CODE","type":"esriFieldTypeInteger","alias":"DIS_CODE"},{"name":"TOWNNAME","type":"esriFieldTypeString","alias":"TOWNNAME","length":8},{"name":"LI","type":"esriFieldTypeString","alias":"LI","length":8},{"name":"LIN","type":"esriFieldTypeString","alias":"LIN","length":12},{"name":"STREET","type":"esriFieldTypeString","alias":"STREET","length":20},{"name":"SECT","type":"esriFieldTypeString","alias":"SECT","length":8},{"name":"MAREA","type":"esriFieldTypeString","alias":"MAREA","length":12},{"name":"LANE","type":"esriFieldTypeString","alias":"LANE","length":10},{"name":"ALLEY","type":"esriFieldTypeString","alias":"ALLEY","length":10},{"name":"HOUSE_NO","type":"esriFieldTypeString","alias":"HOUSE_NO","length":20},{"name":"E_COORD97","type":"esriFieldTypeDouble","alias":"E_COORD97"},{"name":"N_COORD97","type":"esriFieldTypeDouble","alias":"N_COORD97"},{"name":"ADDRESS","type":"esriFieldTypeString","alias":"ADDRESS","length":50},{"name":"OBJECTID","type":"esriFieldTypeOID","alias":"OBJECTID"}],"features":[{"attributes":{"ID":353810,"DIS_CODE":0,"TOWNNAME":"新化區","LI":"太平里","LIN":"6鄰","STREET":"民生路","SECT":" ","MAREA":" ","LANE":"３１４巷","ALLEY":" ","HOUSE_NO":"２３號","E_COORD97":178984.45999999999,"N_COORD97":2549245.25,"ADDRESS":"民生路３１４巷２３號","OBJECTID":353801},"geometry":{"x":178984.45999999996,"y":2549245.2500000019}},{"attributes":{"ID":353811,"DIS_CODE":0,"TOWNNAME":"新化區","LI":"太平里","LIN":"6鄰","STREET":"民生路","SECT":" ","MAREA":" ","LANE":"３１４巷","ALLEY":" ","HOUSE_NO":"２２號","E_COORD97":178998.56,"N_COORD97":2549229.25,"ADDRESS":"民生路３１４巷２２號","OBJECTID":353802},"geometry":{"x":178998.55999999959,"y":2549229.25}},{"attributes":{"ID":353812,"DIS_CODE":0,"TOWNNAME":"安南區","LI":"新順里","LIN":"6鄰","STREET":"安生街","SECT":" ","MAREA":" ","LANE":"１７２巷","ALLEY":" ","HOUSE_NO":"１０號","E_COORD97":169314.75,"N_COORD97":2549579.25,"ADDRESS":"安生街１７２巷１０號","OBJECTID":353803},"geometry":{"x":169314.75,"y":2549579.2500000037}},{"attributes":{"ID":353813,"DIS_CODE":0,"TOWNNAME":"安南區","LI":"新順里","LIN":"6鄰","STREET":"安生街","SECT":" ","MAREA":" ","LANE":"１７２巷","ALLEY":" ","HOUSE_NO":"１２號","E_COORD97":169313.60999999999,"N_COORD97":2549583.5299999998,"ADDRESS":"安生街１７２巷１２號","OBJECTID":353804},"geometry":{"x":169313.61000000127,"y":2549583.5300000031}},{"attributes":{"ID":353814,"DIS_CODE":0,"TOWNNAME":"安南區","LI":"新順里","LIN":"6鄰","STREET":"安生街","SECT":" ","MAREA":" ","LANE":"１７２巷","ALLEY":" ","HOUSE_NO":"１４號","E_COORD97":169311.60999999999,"N_COORD97":2549586.6699999999,"ADDRESS":"安生街１７２巷１４號","OBJECTID":353805},"geometry":{"x":169311.61000000127,"y":2549586.6700000037}},{"attributes":{"ID":353815,"DIS_CODE":0,"TOWNNAME":"安南區","LI":"新順里","LIN":"6鄰","STREET":"安生街","SECT":" ","MAREA":" ","LANE":"１７２巷","ALLEY":" ","HOUSE_NO":"１６號","E_COORD97":169309.89999999999,"N_COORD97":2549591.23,"ADDRESS":"安生街１７２巷１６號","OBJECTID":353806},"geometry":{"x":169309.9000000013,"y":2549591.2300000023}},{"attributes":{"ID":353816,"DIS_CODE":0,"TOWNNAME":"安南區","LI":"新順里","LIN":"6鄰","STREET":"安生街","SECT":" ","MAREA":" ","LANE":"１７２巷","ALLEY":" ","HOUSE_NO":"１８號","E_COORD97":169303.04999999999,"N_COORD97":2549598.0800000001,"ADDRESS":"安生街１７２巷１８號","OBJECTID":353807},"geometry":{"x":169303.05000000075,"y":2549598.0800000019}},{"attributes":{"ID":353817,"DIS_CODE":0,"TOWNNAME":"安南區","LI":"新順里","LIN":"6鄰","STREET":"安生街","SECT":" ","MAREA":" ","LANE":"１７２巷","ALLEY":" ","HOUSE_NO":"１號","E_COORD97":169305.04000000001,"N_COORD97":2549557,"ADDRESS":"安生街１７２巷１號","OBJECTID":353808},"geometry":{"x":169305.04000000097,"y":2549557}},{"attributes":{"ID":353818,"DIS_CODE":0,"TOWNNAME":"安南區","LI":"新順里","LIN":"6鄰","STREET":"安生街","SECT":" ","MAREA":" ","LANE":"１７２巷","ALLEY":" ","HOUSE_NO":"２０號","E_COORD97":169303.04999999999,"N_COORD97":2549601.79,"ADDRESS":"安生街１７２巷２０號","OBJECTID":353809},"geometry":{"x":169303.05000000075,"y":2549601.7900000028}},{"attributes":{"ID":353819,"DIS_CODE":0,"TOWNNAME":"安南區","LI":"新順里","LIN":"6鄰","STREET":"安生街","SECT":" ","MAREA":" ","LANE":"１７２巷","ALLEY":" ","HOUSE_NO":"２２號","E_COORD97":169302.47,"N_COORD97":2549606.6299999999,"ADDRESS":"安生街１７２巷２２號","OBJECTID":353810},"geometry":{"x":169302.46999999974,"y":2549606.6300000008}},{"attributes":{"ID":353820,"DIS_CODE":0,"TOWNNAME":"安南區","LI":"新順里","LIN":"6鄰","STREET":"安生街","SECT":" ","MAREA":" ","LANE":"１７２巷","ALLEY":" ","HOUSE_NO":"２４號","E_COORD97":169300.76000000001,"N_COORD97":2549610.6299999999,"ADDRESS":"安生街１７２巷２４號","OBJECTID":353811},"geometry":{"x":169300.75999999978,"y":2549610.6300000008}},{"attributes":{"ID":353821,"DIS_CODE":0,"TOWNNAME":"安南區","LI":"新順里","LIN":"6鄰","STREET":"安生街","SECT":" ","MAREA":" ","LANE":"１７２巷","ALLEY":" ","HOUSE_NO":"２６號","E_COORD97":169300.48000000001,"N_COORD97":2549614.9100000001,"ADDRESS":"安生街１７２巷２６號","OBJECTID":353812},"geometry":{"x":169300.48000000231,"y":2549614.9100000001}},{"attributes":{"ID":353822,"DIS_CODE":0,"TOWNNAME":"安南區","LI":"新順里","LIN":"6鄰","STREET":"安生街","SECT":" ","MAREA":" ","LANE":"１７２巷","ALLEY":" ","HOUSE_NO":"２８號","E_COORD97":169298.19,"N_COORD97":2549618.8999999999,"ADDRESS":"安生街１７２巷２８號","OBJECTID":353813},"geometry":{"x":169298.19000000134,"y":2549618.9000000004}},{"attributes":{"ID":353823,"DIS_CODE":0,"TOWNNAME":"安南區","LI":"新順里","LIN":"6鄰","STREET":"安生街","SECT":" ","MAREA":" ","LANE":"１７２巷","ALLEY":" ","HOUSE_NO":"２號","E_COORD97":169319.89000000001,"N_COORD97":2549565.8399999999,"ADDRESS":"安生街１７２巷２號","OBJECTID":353814},"geometry":{"x":169319.88999999966,"y":2549565.8400000017}},{"attributes":{"ID":353824,"DIS_CODE":0,"TOWNNAME":"安南區","LI":"新順里","LIN":"6鄰","STREET":"安生街","SECT":" ","MAREA":" ","LANE":"１７２巷","ALLEY":" ","HOUSE_NO":"３號","E_COORD97":169303.89999999999,"N_COORD97":2549562.7000000002,"ADDRESS":"安生街１７２巷３號","OBJECTID":353815},"geometry":{"x":169303.90000000037,"y":2549562.7000000011}},{"attributes":{"ID":353825,"DIS_CODE":0,"TOWNNAME":"安南區","LI":"新順里","LIN":"6鄰","STREET":"安生街","SECT":" ","MAREA":" ","LANE":"１７２巷","ALLEY":" ","HOUSE_NO":"５號","E_COORD97":169302.19,"N_COORD97":2549568.1200000001,"ADDRESS":"安生街１７２巷５號","OBJECTID":353816},"geometry":{"x":169302.19000000041,"y":2549568.1200000029}},{"attributes":{"ID":353826,"DIS_CODE":0,"TOWNNAME":"安南區","LI":"新順里","LIN":"6鄰","STREET":"安生街","SECT":" ","MAREA":" ","LANE":"１７２巷","ALLEY":" ","HOUSE_NO":"６號","E_COORD97":169318.17999999999,"N_COORD97":2549571.2599999998,"ADDRESS":"安生街１７２巷６號","OBJECTID":353817},"geometry":{"x":169318.1799999997,"y":2549571.2599999998}},{"attributes":{"ID":353827,"DIS_CODE":0,"TOWNNAME":"安南區","LI":"新順里","LIN":"6鄰","STREET":"安生街","SECT":" ","MAREA":" ","LANE":"１７２巷","ALLEY":" ","HOUSE_NO":"８號","E_COORD97":169316.75,"N_COORD97":2549575.25,"ADDRESS":"安生街１７２巷８號","OBJECTID":353818},"geometry":{"x":169316.74999999907,"y":2549575.25}},{"attributes":{"ID":353828,"DIS_CODE":0,"TOWNNAME":"安南區","LI":"新順里","LIN":"6鄰","STREET":"安豐六街","SECT":" ","MAREA":" ","LANE":"１０巷","ALLEY":" ","HOUSE_NO":"３１號","E_COORD97":169289.91,"N_COORD97":2549595.5099999998,"ADDRESS":"安豐六街１０巷３１號","OBJECTID":353819},"geometry":{"x":169289.91000000015,"y":2549595.5100000016}},{"attributes":{"ID":353829,"DIS_CODE":0,"TOWNNAME":"安南區","LI":"新順里","LIN":"6鄰","STREET":"安豐六街","SECT":" ","MAREA":" ","LANE":"１０巷","ALLEY":" ","HOUSE_NO":"３３號","E_COORD97":169290.20000000001,"N_COORD97":2549588.6600000001,"ADDRESS":"安豐六街１０巷３３號","OBJECTID":353820},"geometry":{"x":169290.19999999925,"y":2549588.6600000001}},{"attributes":{"ID":353830,"DIS_CODE":0,"TOWNNAME":"安南區","LI":"新順里","LIN":"6鄰","STREET":"安豐六街","SECT":" ","MAREA":" ","LANE":"１０巷","ALLEY":" ","HOUSE_NO":"３５號","E_COORD97":169289.63,"N_COORD97":2549582.96,"ADDRESS":"安豐六街１０巷３５號","OBJECTID":353821},"geometry":{"x":169289.62999999989,"y":2549582.9600000028}},{"attributes":{"ID":353831,"DIS_CODE":0,"TOWNNAME":"安南區","LI":"新順里","LIN":"6鄰","STREET":"安豐六街","SECT":" ","MAREA":" ","LANE":"１０巷","ALLEY":" ","HOUSE_NO":"３７號","E_COORD97":169289.04999999999,"N_COORD97":2549578.6800000002,"ADDRESS":"安豐六街１０巷３７號","OBJECTID":353822},"geometry":{"x":169289.04999999981,"y":2549578.6799999997}},{"attributes":{"ID":353832,"DIS_CODE":0,"TOWNNAME":"安南區","LI":"新順里","LIN":"6鄰","STREET":"安豐六街","SECT":" ","MAREA":" ","LANE":"１０巷","ALLEY":" ","HOUSE_NO":"３９號","E_COORD97":169287.91,"N_COORD97":2549573.8300000001,"ADDRESS":"安豐六街１０巷３９號","OBJECTID":353823},"geometry":{"x":169287.91000000108,"y":2549573.8300000019}},{"attributes":{"ID":353833,"DIS_CODE":0,"TOWNNAME":"安南區","LI":"新順里","LIN":"6鄰","STREET":"安豐六街","SECT":" ","MAREA":" ","LANE":"１０巷","ALLEY":" ","HOUSE_NO":"４１號","E_COORD97":169287.63,"N_COORD97":2549569.2599999998,"ADDRESS":"安豐六街１０巷４１號","OBJECTID":353824},"geometry":{"x":169287.63000000082,"y":2549569.2600000016}},{"attributes":{"ID":353834,"DIS_CODE":0,"TOWNNAME":"永康區","LI":"南灣里","LIN":"1鄰","STREET":"大灣二街","SECT":" ","MAREA":" ","LANE":" ","ALLEY":" ","HOUSE_NO":"９７號","E_COORD97":174752.12,"N_COORD97":2544760.5600000001,"ADDRESS":"大灣二街９７號","OBJECTID":353825},"geometry":{"x":174752.12000000011,"y":2544760.5600000024}},{"attributes":{"ID":353835,"DIS_CODE":0,"TOWNNAME":"安南區","LI":"新順里","LIN":"6鄰","STREET":"安豐六街","SECT":" ","MAREA":" ","LANE":"１０巷","ALLEY":" ","HOUSE_NO":"４３號","E_COORD97":169287.34,"N_COORD97":2549564.1299999999,"ADDRESS":"安豐六街１０巷４３號","OBJECTID":353826},"geometry":{"x":169287.34000000171,"y":2549564.129999999}},{"attributes":{"ID":353836,"DIS_CODE":0,"TOWNNAME":"安南區","LI":"新順里","LIN":"6鄰","STREET":"安豐六街","SECT":" ","MAREA":" ","LANE":"１０巷","ALLEY":" ","HOUSE_NO":"４５號","E_COORD97":169286.76999999999,"N_COORD97":2549558.9900000002,"ADDRESS":"安豐六街１０巷４５號","OBJECTID":353827},"geometry":{"x":169286.76999999955,"y":2549558.9900000021}},{"attributes":{"ID":353837,"DIS_CODE":0,"TOWNNAME":"安南區","LI":"安順里","LIN":"6鄰","STREET":"總安街","SECT":"一段","MAREA":" ","LANE":"１１０巷","ALLEY":" ","HOUSE_NO":"２３號","E_COORD97":169691.23000000001,"N_COORD97":2550232.3900000001,"ADDRESS":"總安街一段１１０巷２３號","OBJECTID":353828},"geometry":{"x":169691.23000000138,"y":2550232.3900000006}},{"attributes":{"ID":353838,"DIS_CODE":0,"TOWNNAME":"安南區","LI":"新順里","LIN":"6鄰","STREET":"安生街","SECT":" ","MAREA":" ","LANE":"１６０巷","ALLEY":" ","HOUSE_NO":"５號","E_COORD97":169370.42999999999,"N_COORD97":2549557.8500000001,"ADDRESS":"安生街１６０巷５號","OBJECTID":353829},"geometry":{"x":169370.4299999997,"y":2549557.8500000034}},{"attributes":{"ID":353839,"DIS_CODE":0,"TOWNNAME":"安南區","LI":"新順里","LIN":"6鄰","STREET":"安生街","SECT":" ","MAREA":" ","LANE":"１６０巷","ALLEY":" ","HOUSE_NO":"７號","E_COORD97":169370.72,"N_COORD97":2549563.5600000001,"ADDRESS":"安生街１６０巷７號","OBJECTID":353830},"geometry":{"x":169370.71999999974,"y":2549563.5600000005}},{"attributes":{"ID":353840,"DIS_CODE":0,"TOWNNAME":"安南區","LI":"新順里","LIN":"6鄰","STREET":"安生街","SECT":" ","MAREA":" ","LANE":"１６０巷","ALLEY":" ","HOUSE_NO":"９號","E_COORD97":169370.42999999999,"N_COORD97":2549568.6899999999,"ADDRESS":"安生街１６０巷９號","OBJECTID":353831},"geometry":{"x":169370.4299999997,"y":2549568.6899999995}},{"attributes":{"ID":353841,"DIS_CODE":0,"TOWNNAME":"新化區","LI":"協興里","LIN":"6鄰","STREET":"忠孝路","SECT":" ","MAREA":" ","LANE":"１９０巷","ALLEY":" ","HOUSE_NO":"５號之５","E_COORD97":178396.17999999999,"N_COORD97":2548655.2599999998,"ADDRESS":"忠孝路１９０巷５號之５","OBJECTID":353832},"geometry":{"x":178396.1799999997,"y":2548655.2599999998}},{"attributes":{"ID":353842,"DIS_CODE":0,"TOWNNAME":"新化區","LI":"太平里","LIN":"6鄰","STREET":"民生路","SECT":" ","MAREA":" ","LANE":"３１４巷","ALLEY":" ","HOUSE_NO":"３０號","E_COORD97":179018.26000000001,"N_COORD97":2549229.25,"ADDRESS":"民生路３１４巷３０號","OBJECTID":353833},"geometry":{"x":179018.26000000164,"y":2549229.25}},{"attributes":{"ID":353843,"DIS_CODE":0,"TOWNNAME":"新化區","LI":"太平里","LIN":"6鄰","STREET":"民生路","SECT":" ","MAREA":" ","LANE":"３１４巷","ALLEY":" ","HOUSE_NO":"２５號","E_COORD97":178991.45999999999,"N_COORD97":2549245.25,"ADDRESS":"民生路３１４巷２５號","OBJECTID":353834},"geometry":{"x":178991.45999999903,"y":2549245.2500000019}},{"attributes":{"ID":353844,"DIS_CODE":0,"TOWNNAME":"新化區","LI":"協興里","LIN":"6鄰","STREET":"忠孝路","SECT":" ","MAREA":" ","LANE":"１９６巷","ALLEY":" ","HOUSE_NO":"２號之２","E_COORD97":178385.28,"N_COORD97":2548600.2599999998,"ADDRESS":"忠孝路１９６巷２號之２","OBJECTID":353835},"geometry":{"x":178385.28000000119,"y":2548600.2600000016}},{"attributes":{"ID":353845,"DIS_CODE":0,"TOWNNAME":"新化區","LI":"太平里","LIN":"6鄰","STREET":"民生路","SECT":" ","MAREA":" ","LANE":"３１４巷","ALLEY":" ","HOUSE_NO":"１號","E_COORD97":178923.31,"N_COORD97":2549223.25,"ADDRESS":"民生路３１４巷１號","OBJECTID":353836},"geometry":{"x":178923.31000000052,"y":2549223.2499999981}},{"attributes":{"ID":353846,"DIS_CODE":0,"TOWNNAME":"新化區","LI":"太平里","LIN":"6鄰","STREET":"民生路","SECT":" ","MAREA":" ","LANE":"３１４巷","ALLEY":" ","HOUSE_NO":"２７號","E_COORD97":178998.26000000001,"N_COORD97":2549245.25,"ADDRESS":"民生路３１４巷２７號","OBJECTID":353837},"geometry":{"x":178998.26000000071,"y":2549245.2500000019}},{"attributes":{"ID":353847,"DIS_CODE":0,"TOWNNAME":"新化區","LI":"太平里","LIN":"6鄰","STREET":"民生路","SECT":" ","MAREA":" ","LANE":"３１４巷","ALLEY":" ","HOUSE_NO":"２６號","E_COORD97":179008.66,"N_COORD97":2549229.25,"ADDRESS":"民生路３１４巷２６號","OBJECTID":353838},"geometry":{"x":179008.66000000015,"y":2549229.25}},{"attributes":{"ID":353848,"DIS_CODE":0,"TOWNNAME":"新化區","LI":"協興里","LIN":"6鄰","STREET":"忠孝路","SECT":" ","MAREA":" ","LANE":"１９６巷","ALLEY":" ","HOUSE_NO":"１６號","E_COORD97":178332.76999999999,"N_COORD97":2548587.25,"ADDRESS":"忠孝路１９６巷１６號","OBJECTID":353839},"geometry":{"x":178332.76999999955,"y":2548587.2500000019}},{"attributes":{"ID":353849,"DIS_CODE":0,"TOWNNAME":"新化區","LI":"太平里","LIN":"6鄰","STREET":"民生路","SECT":" ","MAREA":" ","LANE":"３１４巷","ALLEY":" ","HOUSE_NO":"９７號","E_COORD97":178962.26000000001,"N_COORD97":2549257.25,"ADDRESS":"民生路３１４巷９７號","OBJECTID":353840},"geometry":{"x":178962.26000000164,"y":2549257.2500000037}},{"attributes":{"ID":353850,"DIS_CODE":0,"TOWNNAME":"新化區","LI":"太平里","LIN":"6鄰","STREET":"民生路","SECT":" ","MAREA":" ","LANE":"３１４巷","ALLEY":" ","HOUSE_NO":"３４號","E_COORD97":179027.35999999999,"N_COORD97":2549228.25,"ADDRESS":"民生路３１４巷３４號","OBJECTID":353841},"geometry":{"x":179027.36000000127,"y":2549228.2500000019}},{"attributes":{"ID":353851,"DIS_CODE":0,"TOWNNAME":"新化區","LI":"太平里","LIN":"6鄰","STREET":"民生路","SECT":" ","MAREA":" ","LANE":"３１４巷","ALLEY":" ","HOUSE_NO":"２８號","E_COORD97":179013.26000000001,"N_COORD97":2549229.25,"ADDRESS":"民生路３１４巷２８號","OBJECTID":353842},"geometry":{"x":179013.26000000071,"y":2549229.25}},{"attributes":{"ID":353852,"DIS_CODE":0,"TOWNNAME":"新化區","LI":"太平里","LIN":"6鄰","STREET":"民生路","SECT":" ","MAREA":" ","LANE":"３１４巷","ALLEY":" ","HOUSE_NO":"９１號","E_COORD97":179002.35999999999,"N_COORD97":2549263.25,"ADDRESS":"民生路３１４巷９１號","OBJECTID":353843},"geometry":{"x":179002.36000000034,"y":2549263.25}},{"attributes":{"ID":353853,"DIS_CODE":0,"TOWNNAME":"新化區","LI":"太平里","LIN":"6鄰","STREET":"民生路","SECT":" ","MAREA":" ","LANE":"３１４巷","ALLEY":" ","HOUSE_NO":"９９號","E_COORD97":178959.85999999999,"N_COORD97":2549262.25,"ADDRESS":"民生路３１４巷９９號","OBJECTID":353844},"geometry":{"x":178959.86000000034,"y":2549262.2500000019}},{"attributes":{"ID":353854,"DIS_CODE":0,"TOWNNAME":"新化區","LI":"太平里","LIN":"6鄰","STREET":"民生路","SECT":" ","MAREA":" ","LANE":"３１４巷","ALLEY":" ","HOUSE_NO":"８號","E_COORD97":178960.81,"N_COORD97":2549225.25,"ADDRESS":"民生路３１４巷８號","OBJECTID":353845},"geometry":{"x":178960.81000000052,"y":2549225.25}},{"attributes":{"ID":353855,"DIS_CODE":0,"TOWNNAME":"新化區","LI":"協興里","LIN":"6鄰","STREET":"忠孝路","SECT":" ","MAREA":" ","LANE":"１９６巷","ALLEY":" ","HOUSE_NO":"２號","E_COORD97":178372.22,"N_COORD97":2548599.25,"ADDRESS":"忠孝路１９６巷２號","OBJECTID":353846},"geometry":{"x":178372.21999999974,"y":2548599.25}},{"attributes":{"ID":353856,"DIS_CODE":0,"TOWNNAME":"新化區","LI":"協興里","LIN":"6鄰","STREET":"忠孝路","SECT":" ","MAREA":" ","LANE":"１９０巷","ALLEY":" ","HOUSE_NO":"５號之６","E_COORD97":178396.26999999999,"N_COORD97":2548660.2599999998,"ADDRESS":"忠孝路１９０巷５號之６","OBJECTID":353847},"geometry":{"x":178396.27000000048,"y":2548660.2600000035}},{"attributes":{"ID":353857,"DIS_CODE":0,"TOWNNAME":"新化區","LI":"協興里","LIN":"6鄰","STREET":"忠孝路","SECT":" ","MAREA":" ","LANE":"１９６巷","ALLEY":" ","HOUSE_NO":"１２號","E_COORD97":178345.47,"N_COORD97":2548592.25,"ADDRESS":"忠孝路１９６巷１２號","OBJECTID":353848},"geometry":{"x":178345.4700000016,"y":2548592.25}},{"attributes":{"ID":353858,"DIS_CODE":0,"TOWNNAME":"新化區","LI":"太平里","LIN":"6鄰","STREET":"民生路","SECT":" ","MAREA":" ","LANE":"３１４巷","ALLEY":" ","HOUSE_NO":"１０５號","E_COORD97":178917.91,"N_COORD97":2549241.25,"ADDRESS":"民生路３１４巷１０５號","OBJECTID":353849},"geometry":{"x":178917.91000000108,"y":2549241.2500000019}},{"attributes":{"ID":353859,"DIS_CODE":0,"TOWNNAME":"新化區","LI":"太平里","LIN":"6鄰","STREET":"民生路","SECT":" ","MAREA":" ","LANE":"３１４巷","ALLEY":" ","HOUSE_NO":"１７號","E_COORD97":178963.26000000001,"N_COORD97":2549239.25,"ADDRESS":"民生路３１４巷１７號","OBJECTID":353850},"geometry":{"x":178963.25999999978,"y":2549239.25}},{"attributes":{"ID":353860,"DIS_CODE":0,"TOWNNAME":"新化區","LI":"太平里","LIN":"6鄰","STREET":"民生路","SECT":" ","MAREA":" ","LANE":"３１４巷","ALLEY":" ","HOUSE_NO":"１０３號","E_COORD97":178930.70999999999,"N_COORD97":2549251.25,"ADDRESS":"民生路３１４巷１０３號","OBJECTID":353851},"geometry":{"x":178930.71000000089,"y":2549251.2500000019}},{"attributes":{"ID":353861,"DIS_CODE":0,"TOWNNAME":"新化區","LI":"太平里","LIN":"6鄰","STREET":"民生路","SECT":" ","MAREA":" ","LANE":"３１４巷","ALLEY":" ","HOUSE_NO":"１８號","E_COORD97":178988.95999999999,"N_COORD97":2549229.25,"ADDRESS":"民生路３１４巷１８號","OBJECTID":353852},"geometry":{"x":178988.96000000089,"y":2549229.25}},{"attributes":{"ID":353862,"DIS_CODE":0,"TOWNNAME":"新化區","LI":"太平里","LIN":"6鄰","STREET":"民生路","SECT":" ","MAREA":" ","LANE":"３１４巷","ALLEY":" ","HOUSE_NO":"２號","E_COORD97":178947.81,"N_COORD97":2549219.25,"ADDRESS":"民生路３１４巷２號","OBJECTID":353853},"geometry":{"x":178947.80999999959,"y":2549219.25}},{"attributes":{"ID":353863,"DIS_CODE":0,"TOWNNAME":"新化區","LI":"太平里","LIN":"6鄰","STREET":"民生路","SECT":" ","MAREA":" ","LANE":"３１４巷","ALLEY":" ","HOUSE_NO":"９５號","E_COORD97":178977.66,"N_COORD97":2549263.25,"ADDRESS":"民生路３１４巷９５號","OBJECTID":353854},"geometry":{"x":178977.66000000108,"y":2549263.25}},{"attributes":{"ID":353864,"DIS_CODE":0,"TOWNNAME":"南區","LI":"同安里","LIN":"6鄰","STREET":"明興路","SECT":" ","MAREA":" ","LANE":"１１８１巷","ALLEY":" ","HOUSE_NO":"１５８號","E_COORD97":166882.70000000001,"N_COORD97":2536264.3300000001,"ADDRESS":"明興路１１８１巷１５８號","OBJECTID":353855},"geometry":{"x":166882.70000000019,"y":2536264.3300000001}},{"attributes":{"ID":353865,"DIS_CODE":0,"TOWNNAME":"南區","LI":"同安里","LIN":"6鄰","STREET":"明興路","SECT":" ","MAREA":" ","LANE":"１１８１巷","ALLEY":" ","HOUSE_NO":"１６０號之１","E_COORD97":166896.51000000001,"N_COORD97":2536174.8399999999,"ADDRESS":"明興路１１８１巷１６０號之１","OBJECTID":353856},"geometry":{"x":166896.51000000071,"y":2536174.8399999999}},{"attributes":{"ID":353866,"DIS_CODE":0,"TOWNNAME":"南區","LI":"同安里","LIN":"6鄰","STREET":"明興路","SECT":" ","MAREA":" ","LANE":"１１８１巷","ALLEY":" ","HOUSE_NO":"１６２號","E_COORD97":166868.76999999999,"N_COORD97":2536295.48,"ADDRESS":"明興路１１８１巷１６２號","OBJECTID":353857},"geometry":{"x":166868.77000000048,"y":2536295.4800000023}},{"attributes":{"ID":353867,"DIS_CODE":0,"TOWNNAME":"南區","LI":"同安里","LIN":"6鄰","STREET":"明興路","SECT":" ","MAREA":" ","LANE":"１１８１巷","ALLEY":" ","HOUSE_NO":"１７２號","E_COORD97":166955.5,"N_COORD97":2536230.1600000001,"ADDRESS":"明興路１１８１巷１７２號","OBJECTID":353858},"geometry":{"x":166955.50000000186,"y":2536230.160000002}},{"attributes":{"ID":353868,"DIS_CODE":0,"TOWNNAME":"南區","LI":"同安里","LIN":"6鄰","STREET":"明興路","SECT":" ","MAREA":" ","LANE":"１１８１巷","ALLEY":" ","HOUSE_NO":"１７４號","E_COORD97":166963.91,"N_COORD97":2536236.54,"ADDRESS":"明興路１１８１巷１７４號","OBJECTID":353859},"geometry":{"x":166963.91000000015,"y":2536236.540000001}},{"attributes":{"ID":353869,"DIS_CODE":0,"TOWNNAME":"南區","LI":"同安里","LIN":"6鄰","STREET":"明興路","SECT":" ","MAREA":" ","LANE":"１１８１巷","ALLEY":" ","HOUSE_NO":"１９２號","E_COORD97":167070.31,"N_COORD97":2536131.52,"ADDRESS":"明興路１１８１巷１９２號","OBJECTID":353860},"geometry":{"x":167070.31000000052,"y":2536131.5200000014}},{"attributes":{"ID":353870,"DIS_CODE":0,"TOWNNAME":"南區","LI":"同安里","LIN":"6鄰","STREET":"明興路","SECT":" ","MAREA":" ","LANE":"１１８１巷","ALLEY":" ","HOUSE_NO":"１９４號","E_COORD97":167050.60000000001,"N_COORD97":2536141.4900000002,"ADDRESS":"明興路１１８１巷１９４號","OBJECTID":353861},"geometry":{"x":167050.59999999963,"y":2536141.4900000002}},{"attributes":{"ID":353871,"DIS_CODE":0,"TOWNNAME":"南區","LI":"同安里","LIN":"6鄰","STREET":"明興路","SECT":" ","MAREA":" ","LANE":"１１８１巷","ALLEY":" ","HOUSE_NO":"２００號","E_COORD97":167074.12,"N_COORD97":2536198.71,"ADDRESS":"明興路１１８１巷２００號","OBJECTID":353862},"geometry":{"x":167074.12000000104,"y":2536198.7100000046}},{"attributes":{"ID":353872,"DIS_CODE":0,"TOWNNAME":"南區","LI":"同安里","LIN":"6鄰","STREET":"明興路","SECT":" ","MAREA":" ","LANE":"１１８１巷","ALLEY":" ","HOUSE_NO":"２０４號","E_COORD97":167135.32000000001,"N_COORD97":2536201.7599999998,"ADDRESS":"明興路１１８１巷２０４號","OBJECTID":353863},"geometry":{"x":167135.32000000123,"y":2536201.7600000016}},{"attributes":{"ID":353873,"DIS_CODE":0,"TOWNNAME":"南區","LI":"同安里","LIN":"6鄰","STREET":"明興路","SECT":" ","MAREA":" ","LANE":"１１８１巷","ALLEY":" ","HOUSE_NO":"２３０號","E_COORD97":167149.25,"N_COORD97":2536198.9300000002,"ADDRESS":"明興路１１８１巷２３０號","OBJECTID":353864},"geometry":{"x":167149.25000000093,"y":2536198.9299999997}},{"attributes":{"ID":353874,"DIS_CODE":0,"TOWNNAME":"南區","LI":"同安里","LIN":"6鄰","STREET":"興南街","SECT":" ","MAREA":" ","LANE":"２巷","ALLEY":" ","HOUSE_NO":"２號","E_COORD97":166370.47,"N_COORD97":2536210.7599999998,"ADDRESS":"興南街２巷２號","OBJECTID":353865},"geometry":{"x":166370.46999999881,"y":2536210.7600000035}},{"attributes":{"ID":353875,"DIS_CODE":0,"TOWNNAME":"南區","LI":"同安里","LIN":"6鄰","STREET":"興南街","SECT":" ","MAREA":" ","LANE":"２巷","ALLEY":" ","HOUSE_NO":"４號","E_COORD97":166349.17000000001,"N_COORD97":2536201.2599999998,"ADDRESS":"興南街２巷４號","OBJECTID":353866},"geometry":{"x":166349.17000000179,"y":2536201.2600000016}},{"attributes":{"ID":353876,"DIS_CODE":0,"TOWNNAME":"南區","LI":"同安里","LIN":"6鄰","STREET":"興南街","SECT":" ","MAREA":" ","LANE":"２巷","ALLEY":" ","HOUSE_NO":"５號","E_COORD97":166344.57000000001,"N_COORD97":2536192.8199999998,"ADDRESS":"興南街２巷５號","OBJECTID":353867},"geometry":{"x":166344.5700000003,"y":2536192.8200000003}},{"attributes":{"ID":353877,"DIS_CODE":0,"TOWNNAME":"南區","LI":"同安里","LIN":"6鄰","STREET":"興南街","SECT":" ","MAREA":" ","LANE":"２巷","ALLEY":" ","HOUSE_NO":"６號","E_COORD97":166341.59,"N_COORD97":2536207.8900000001,"ADDRESS":"興南街２巷６號","OBJECTID":353868},"geometry":{"x":166341.59000000078,"y":2536207.8900000025}},{"attributes":{"ID":353878,"DIS_CODE":0,"TOWNNAME":"南區","LI":"同安里","LIN":"6鄰","STREET":"興南街","SECT":" ","MAREA":" ","LANE":"２巷","ALLEY":" ","HOUSE_NO":"７號","E_COORD97":166346.95000000001,"N_COORD97":2536183.8999999999,"ADDRESS":"興南街２巷７號","OBJECTID":353869},"geometry":{"x":166346.95000000019,"y":2536183.9000000022}},{"attributes":{"ID":353879,"DIS_CODE":0,"TOWNNAME":"南區","LI":"同安里","LIN":"6鄰","STREET":"興南街","SECT":" ","MAREA":" ","LANE":"２巷","ALLEY":" ","HOUSE_NO":"８號","E_COORD97":166330.98999999999,"N_COORD97":2536200.3900000001,"ADDRESS":"興南街２巷８號","OBJECTID":353870},"geometry":{"x":166330.99000000115,"y":2536200.3899999987}},{"attributes":{"ID":353880,"DIS_CODE":0,"TOWNNAME":"南區","LI":"同安里","LIN":"6鄰","STREET":"興南街","SECT":" ","MAREA":" ","LANE":"２巷","ALLEY":" ","HOUSE_NO":"９號","E_COORD97":166329.31,"N_COORD97":2536186.9300000002,"ADDRESS":"興南街２巷９號","OBJECTID":353871},"geometry":{"x":166329.31000000052,"y":2536186.9300000016}},{"attributes":{"ID":353881,"DIS_CODE":0,"TOWNNAME":"東區","LI":"大德里","LIN":"6鄰","STREET":"立德十路","SECT":" ","MAREA":" ","LANE":"３０巷","ALLEY":" ","HOUSE_NO":"２號","E_COORD97":169468.85000000001,"N_COORD97":2542026.5299999998,"ADDRESS":"立德十路３０巷２號","OBJECTID":353872},"geometry":{"x":169468.85000000056,"y":2542026.5300000031}},{"attributes":{"ID":353882,"DIS_CODE":0,"TOWNNAME":"南區","LI":"同安里","LIN":"6鄰","STREET":"灣裡路","SECT":" ","MAREA":" ","LANE":"３５１巷","ALLEY":" ","HOUSE_NO":"２４號","E_COORD97":166330.88,"N_COORD97":2536221.7799999998,"ADDRESS":"灣裡路３５１巷２４號","OBJECTID":353873},"geometry":{"x":166330.88000000082,"y":2536221.7800000012}},{"attributes":{"ID":353883,"DIS_CODE":0,"TOWNNAME":"南區","LI":"同安里","LIN":"6鄰","STREET":"灣裡路","SECT":" ","MAREA":" ","LANE":"３５１巷","ALLEY":" ","HOUSE_NO":"２８號","E_COORD97":166385.95999999999,"N_COORD97":2536237.7200000002,"ADDRESS":"灣裡路３５１巷２８號","OBJECTID":353874},"geometry":{"x":166385.95999999996,"y":2536237.7200000007}},{"attributes":{"ID":353884,"DIS_CODE":0,"TOWNNAME":"南區","LI":"同安里","LIN":"6鄰","STREET":"灣裡路","SECT":" ","MAREA":" ","LANE":"３５１巷","ALLEY":" ","HOUSE_NO":"３４號","E_COORD97":166407.44,"N_COORD97":2536273.0499999998,"ADDRESS":"灣裡路３５１巷３４號","OBJECTID":353875},"geometry":{"x":166407.44000000134,"y":2536273.0500000007}},{"attributes":{"ID":353885,"DIS_CODE":0,"TOWNNAME":"南區","LI":"同安里","LIN":"6鄰","STREET":"灣裡路","SECT":" ","MAREA":" ","LANE":"３５１巷","ALLEY":" ","HOUSE_NO":"３６號","E_COORD97":166417.20000000001,"N_COORD97":2536276.6699999999,"ADDRESS":"灣裡路３５１巷３６號","OBJECTID":353876},"geometry":{"x":166417.20000000112,"y":2536276.6700000018}},{"attributes":{"ID":353886,"DIS_CODE":0,"TOWNNAME":"南區","LI":"同安里","LIN":"6鄰","STREET":"灣裡路","SECT":" ","MAREA":" ","LANE":"３５１巷","ALLEY":" ","HOUSE_NO":"３８號","E_COORD97":166422.20000000001,"N_COORD97":2536273.0499999998,"ADDRESS":"灣裡路３５１巷３８號","OBJECTID":353877},"geometry":{"x":166422.20000000112,"y":2536273.0500000007}},{"attributes":{"ID":353887,"DIS_CODE":0,"TOWNNAME":"南區","LI":"同安里","LIN":"6鄰","STREET":"明興路","SECT":" ","MAREA":" ","LANE":"１１８１巷","ALLEY":" ","HOUSE_NO":"１１４號","E_COORD97":166723.48000000001,"N_COORD97":2536309.4399999999,"ADDRESS":"明興路１１８１巷１１４號","OBJECTID":353878},"geometry":{"x":166723.48000000045,"y":2536309.4399999995}},{"attributes":{"ID":353888,"DIS_CODE":0,"TOWNNAME":"南區","LI":"同安里","LIN":"6鄰","STREET":"興南街","SECT":" ","MAREA":" ","LANE":"２巷","ALLEY":" ","HOUSE_NO":"１１號","E_COORD97":166330.35999999999,"N_COORD97":2536177.3199999998,"ADDRESS":"興南街２巷１１號","OBJECTID":353879},"geometry":{"x":166330.36000000127,"y":2536177.320000004}},{"attributes":{"ID":353889,"DIS_CODE":0,"TOWNNAME":"南區","LI":"竹溪里","LIN":"6鄰","STREET":"體育路","SECT":" ","MAREA":" ","LANE":"２１巷","ALLEY":" ","HOUSE_NO":"２０號","E_COORD97":168795.03,"N_COORD97":2542331.3199999998,"ADDRESS":"體育路２１巷２０號","OBJECTID":353880},"geometry":{"x":168795.03000000119,"y":2542331.3200000022}},{"attributes":{"ID":353890,"DIS_CODE":0,"TOWNNAME":"南區","LI":"佛壇里","LIN":"6鄰","STREET":"興南街","SECT":" ","MAREA":" ","LANE":"１２４巷","ALLEY":" ","HOUSE_NO":"２２號","E_COORD97":166128.48000000001,"N_COORD97":2535981.6200000001,"ADDRESS":"興南街１２４巷２２號","OBJECTID":353881},"geometry":{"x":166128.48000000045,"y":2535981.620000001}},{"attributes":{"ID":353891,"DIS_CODE":0,"TOWNNAME":"仁德區","LI":"成功里","LIN":"6鄰","STREET":"保華路","SECT":" ","MAREA":" ","LANE":"１１７巷","ALLEY":" ","HOUSE_NO":"１號","E_COORD97":171142.60000000001,"N_COORD97":2540044.9900000002,"ADDRESS":"保華路１１７巷１號","OBJECTID":353882},"geometry":{"x":171142.59999999963,"y":2540044.9900000021}},{"attributes":{"ID":353892,"DIS_CODE":0,"TOWNNAME":"仁德區","LI":"保安里","LIN":"6鄰","STREET":"文賢路","SECT":"一段","MAREA":" ","LANE":"７６３巷","ALLEY":" ","HOUSE_NO":"５號","E_COORD97":171546.82000000001,"N_COORD97":2536167.3300000001,"ADDRESS":"文賢路一段７６３巷５號","OBJECTID":353883},"geometry":{"x":171546.8200000003,"y":2536167.3300000019}},{"attributes":{"ID":353893,"DIS_CODE":0,"TOWNNAME":"仁德區","LI":"仁義里","LIN":"6鄰","STREET":"中山路","SECT":" ","MAREA":" ","LANE":"４４１巷","ALLEY":" ","HOUSE_NO":"１５號","E_COORD97":173761.82000000001,"N_COORD97":2541202.4900000002,"ADDRESS":"中山路４４１巷１５號","OBJECTID":353884},"geometry":{"x":173761.82000000123,"y":2541202.4900000002}},{"attributes":{"ID":353894,"DIS_CODE":0,"TOWNNAME":"仁德區","LI":"保安里","LIN":"6鄰","STREET":"文賢路","SECT":"一段","MAREA":" ","LANE":"７６３巷","ALLEY":" ","HOUSE_NO":"３號之５","E_COORD97":171553.63,"N_COORD97":2536187.8300000001,"ADDRESS":"文賢路一段７６３巷３號之５","OBJECTID":353885},"geometry":{"x":171553.63000000175,"y":2536187.8300000019}},{"attributes":{"ID":353895,"DIS_CODE":0,"TOWNNAME":"仁德區","LI":"土庫里","LIN":"6鄰","STREET":"土庫三街","SECT":" ","MAREA":" ","LANE":"７９巷","ALLEY":" ","HOUSE_NO":"１號","E_COORD97":174313.017322,"N_COORD97":2543094.3113099998,"ADDRESS":"土庫三街７９巷１號","OBJECTID":353886},"geometry":{"x":174313.01732200012,"y":2543094.3113119993}},{"attributes":{"ID":353896,"DIS_CODE":0,"TOWNNAME":"仁德區","LI":"保安里","LIN":"6鄰","STREET":"文賢路","SECT":"一段","MAREA":" ","LANE":"７６３巷","ALLEY":" ","HOUSE_NO":"３號之３","E_COORD97":171548.42000000001,"N_COORD97":2536210.8199999998,"ADDRESS":"文賢路一段７６３巷３號之３","OBJECTID":353887},"geometry":{"x":171548.42000000086,"y":2536210.8199999984}},{"attributes":{"ID":353897,"DIS_CODE":0,"TOWNNAME":"仁德區","LI":"仁德里","LIN":"6鄰","STREET":"仁德三街","SECT":" ","MAREA":" ","LANE":"９巷","ALLEY":" ","HOUSE_NO":"９號","E_COORD97":173328.76999999999,"N_COORD97":2540952.02,"ADDRESS":"仁德三街９巷９號","OBJECTID":353888},"geometry":{"x":173328.77000000142,"y":2540952.0200000033}},{"attributes":{"ID":353898,"DIS_CODE":0,"TOWNNAME":"仁德區","LI":"一甲里","LIN":"6鄰","STREET":"中正路","SECT":"三段","MAREA":" ","LANE":"１６２巷","ALLEY":" ","HOUSE_NO":"２３號","E_COORD97":173562.56,"N_COORD97":2541758.79,"ADDRESS":"中正路三段１６２巷２３號","OBJECTID":353889},"geometry":{"x":173562.56000000145,"y":2541758.7899999991}},{"attributes":{"ID":353899,"DIS_CODE":0,"TOWNNAME":"仁德區","LI":"仁德里","LIN":"6鄰","STREET":"仁德三街","SECT":" ","MAREA":" ","LANE":"３５巷","ALLEY":" ","HOUSE_NO":"４號","E_COORD97":173245.07000000001,"N_COORD97":2540950.02,"ADDRESS":"仁德三街３５巷４號","OBJECTID":353890},"geometry":{"x":173245.07000000123,"y":2540950.0200000014}},{"attributes":{"ID":353900,"DIS_CODE":0,"TOWNNAME":"永康區","LI":"安康里","LIN":"6鄰","STREET":"中華路","SECT":" ","MAREA":" ","LANE":"７２７巷","ALLEY":" ","HOUSE_NO":"６２號","E_COORD97":170704.76000000001,"N_COORD97":2546352.02,"ADDRESS":"中華路７２７巷６２號","OBJECTID":353891},"geometry":{"x":170704.75999999978,"y":2546352.0199999996}},{"attributes":{"ID":353901,"DIS_CODE":0,"TOWNNAME":"永康區","LI":"安康里","LIN":"6鄰","STREET":"中華路","SECT":" ","MAREA":" ","LANE":"７２７巷","ALLEY":" ","HOUSE_NO":"３２號","E_COORD97":170757.76999999999,"N_COORD97":2546382.4700000002,"ADDRESS":"中華路７２７巷３２號","OBJECTID":353892},"geometry":{"x":170757.77000000048,"y":2546382.4700000025}},{"attributes":{"ID":353902,"DIS_CODE":0,"TOWNNAME":"永康區","LI":"安康里","LIN":"6鄰","STREET":"中華路","SECT":" ","MAREA":" ","LANE":"７２７巷","ALLEY":" ","HOUSE_NO":"５８號","E_COORD97":170712.06,"N_COORD97":2546357.52,"ADDRESS":"中華路７２７巷５８號","OBJECTID":353893},"geometry":{"x":170712.05999999959,"y":2546357.5200000014}},{"attributes":{"ID":353903,"DIS_CODE":0,"TOWNNAME":"永康區","LI":"安康里","LIN":"6鄰","STREET":"中華路","SECT":" ","MAREA":" ","LANE":"７２７巷","ALLEY":" ","HOUSE_NO":"５９號","E_COORD97":170690.39000000001,"N_COORD97":2546326.5499999998,"ADDRESS":"中華路７２７巷５９號","OBJECTID":353894},"geometry":{"x":170690.39000000153,"y":2546326.5499999989}},{"attributes":{"ID":353904,"DIS_CODE":0,"TOWNNAME":"永康區","LI":"安康里","LIN":"6鄰","STREET":"中華路","SECT":" ","MAREA":" ","LANE":"７２７巷","ALLEY":" ","HOUSE_NO":"４１號","E_COORD97":170730.39999999999,"N_COORD97":2546351.5,"ADDRESS":"中華路７２７巷４１號","OBJECTID":353895},"geometry":{"x":170730.4000000013,"y":2546351.5000000019}},{"attributes":{"ID":353905,"DIS_CODE":0,"TOWNNAME":"永康區","LI":"安康里","LIN":"6鄰","STREET":"中華路","SECT":" ","MAREA":" ","LANE":"７２７巷","ALLEY":" ","HOUSE_NO":"６０號","E_COORD97":170708.54999999999,"N_COORD97":2546354.77,"ADDRESS":"中華路７２７巷６０號","OBJECTID":353896},"geometry":{"x":170708.55000000075,"y":2546354.7700000033}},{"attributes":{"ID":353906,"DIS_CODE":0,"TOWNNAME":"永康區","LI":"安康里","LIN":"6鄰","STREET":"中華路","SECT":" ","MAREA":" ","LANE":"７２７巷","ALLEY":" ","HOUSE_NO":"４７號","E_COORD97":170715.79999999999,"N_COORD97":2546342.3300000001,"ADDRESS":"中華路７２７巷４７號","OBJECTID":353897},"geometry":{"x":170715.79999999981,"y":2546342.3300000019}},{"attributes":{"ID":353907,"DIS_CODE":0,"TOWNNAME":"永康區","LI":"安康里","LIN":"6鄰","STREET":"中華路","SECT":" ","MAREA":" ","LANE":"７２７巷","ALLEY":" ","HOUSE_NO":"５６號","E_COORD97":170718.85000000001,"N_COORD97":2546360.9500000002,"ADDRESS":"中華路７２７巷５６號","OBJECTID":353898},"geometry":{"x":170718.84999999963,"y":2546360.9500000011}},{"attributes":{"ID":353908,"DIS_CODE":0,"TOWNNAME":"永康區","LI":"安康里","LIN":"6鄰","STREET":"中華路","SECT":" ","MAREA":" ","LANE":"７２７巷","ALLEY":" ","HOUSE_NO":"５１號","E_COORD97":170708.73000000001,"N_COORD97":2546336.8300000001,"ADDRESS":"中華路７２７巷５１號","OBJECTID":353899},"geometry":{"x":170708.73000000045,"y":2546336.8300000001}},{"attributes":{"ID":353909,"DIS_CODE":0,"TOWNNAME":"永康區","LI":"安康里","LIN":"6鄰","STREET":"中華路","SECT":" ","MAREA":" ","LANE":"７２７巷","ALLEY":" ","HOUSE_NO":"３５號","E_COORD97":170744.92999999999,"N_COORD97":2546358.9900000002,"ADDRESS":"中華路７２７巷３５號","OBJECTID":353900},"geometry":{"x":170744.93000000063,"y":2546358.9900000002}},{"attributes":{"ID":353910,"DIS_CODE":0,"TOWNNAME":"永康區","LI":"尚頂里","LIN":"6鄰","STREET":"中正二街","SECT":" ","MAREA":" ","LANE":"１０５巷","ALLEY":" ","HOUSE_NO":"２３號","E_COORD97":170962.85000000001,"N_COORD97":2547586.8300000001,"ADDRESS":"中正二街１０５巷２３號","OBJECTID":353901},"geometry":{"x":170962.84999999963,"y":2547586.8300000019}},{"attributes":{"ID":353911,"DIS_CODE":0,"TOWNNAME":"永康區","LI":"復國里","LIN":"6鄰","STREET":"復國一路","SECT":" ","MAREA":" ","LANE":"１２０巷","ALLEY":" ","HOUSE_NO":"５５號","E_COORD97":172793.37,"N_COORD97":2545040.77,"ADDRESS":"復國一路１２０巷５５號","OBJECTID":353902},"geometry":{"x":172793.37000000104,"y":2545040.7699999996}},{"attributes":{"ID":353912,"DIS_CODE":0,"TOWNNAME":"永康區","LI":"二王里","LIN":"6鄰","STREET":"永二街","SECT":" ","MAREA":" ","LANE":"３７６巷","ALLEY":" ","HOUSE_NO":"２３號","E_COORD97":172857.17999999999,"N_COORD97":2546755.4300000002,"ADDRESS":"永二街３７６巷２３號","OBJECTID":353903},"geometry":{"x":172857.18000000063,"y":2546755.4299999997}},{"attributes":{"ID":353913,"DIS_CODE":0,"TOWNNAME":"永康區","LI":"安康里","LIN":"6鄰","STREET":"中華路","SECT":" ","MAREA":" ","LANE":"７２７巷","ALLEY":" ","HOUSE_NO":"３號","E_COORD97":170806.66,"N_COORD97":2546370.7400000002,"ADDRESS":"中華路７２７巷３號","OBJECTID":353904},"geometry":{"x":170806.66000000108,"y":2546370.7400000002}},{"attributes":{"ID":353914,"DIS_CODE":0,"TOWNNAME":"永康區","LI":"新樹里","LIN":"6鄰","STREET":"西勢路","SECT":" ","MAREA":" ","LANE":"２２８巷","ALLEY":" ","HOUSE_NO":"２４號","E_COORD97":175771.92000000001,"N_COORD97":2546825.7799999998,"ADDRESS":"西勢路２２８巷２４號","OBJECTID":353905},"geometry":{"x":175771.91999999993,"y":2546825.7800000012}},{"attributes":{"ID":353915,"DIS_CODE":0,"TOWNNAME":"永康區","LI":"新樹里","LIN":"6鄰","STREET":"西勢路","SECT":" ","MAREA":" ","LANE":"１７４巷","ALLEY":" ","HOUSE_NO":"１７號","E_COORD97":175893.56,"N_COORD97":2546908.8199999998,"ADDRESS":"西勢路１７４巷１７號","OBJECTID":353906},"geometry":{"x":175893.56000000052,"y":2546908.8200000022}},{"attributes":{"ID":353916,"DIS_CODE":0,"TOWNNAME":"永康區","LI":"二王里","LIN":"6鄰","STREET":"永二街","SECT":" ","MAREA":" ","LANE":"３６６巷","ALLEY":" ","HOUSE_NO":"３號","E_COORD97":172885.42000000001,"N_COORD97":2546714.7599999998,"ADDRESS":"永二街３６６巷３號","OBJECTID":353907},"geometry":{"x":172885.41999999993,"y":2546714.7600000016}},{"attributes":{"ID":353917,"DIS_CODE":0,"TOWNNAME":"永康區","LI":"網寮里","LIN":"6鄰","STREET":"永二街","SECT":" ","MAREA":" ","LANE":"１６６巷","ALLEY":" ","HOUSE_NO":"１號","E_COORD97":173376.69,"N_COORD97":2546352.8799999999,"ADDRESS":"永二街１６６巷１號","OBJECTID":353908},"geometry":{"x":173376.69000000134,"y":2546352.8799999971}},{"attributes":{"ID":353918,"DIS_CODE":0,"TOWNNAME":"永康區","LI":"正強里","LIN":"6鄰","STREET":"自強路","SECT":" ","MAREA":" ","LANE":"３３０巷","ALLEY":" ","HOUSE_NO":"１１號","E_COORD97":173432.51000000001,"N_COORD97":2547663.3399999999,"ADDRESS":"自強路３３０巷１１號","OBJECTID":353909},"geometry":{"x":173432.51000000164,"y":2547663.3400000017}},{"attributes":{"ID":353919,"DIS_CODE":0,"TOWNNAME":"永康區","LI":"成功里","LIN":"6鄰","STREET":"忠孝路","SECT":" ","MAREA":" ","LANE":"２１３巷","ALLEY":" ","HOUSE_NO":"３號","E_COORD97":172070.29999999999,"N_COORD97":2544956,"ADDRESS":"忠孝路２１３巷３號","OBJECTID":353910},"geometry":{"x":172070.29999999981,"y":2544956}},{"attributes":{"ID":353920,"DIS_CODE":0,"TOWNNAME":"永康區","LI":"永康里","LIN":"6鄰","STREET":"中山南路","SECT":" ","MAREA":" ","LANE":"６５３巷","ALLEY":" ","HOUSE_NO":"１８號","E_COORD97":173797.73999999999,"N_COORD97":2547483.5,"ADDRESS":"中山南路６５３巷１８號","OBJECTID":353911},"geometry":{"x":173797.74000000115,"y":2547483.5000000019}},{"attributes":{"ID":353921,"DIS_CODE":0,"TOWNNAME":"永康區","LI":"三民里","LIN":"6鄰","STREET":"三民街","SECT":" ","MAREA":" ","LANE":"１８巷","ALLEY":" ","HOUSE_NO":"１９號","E_COORD97":173371.28,"N_COORD97":2550191.2799999998,"ADDRESS":"三民街１８巷１９號","OBJECTID":353912},"geometry":{"x":173371.28000000026,"y":2550191.2799999993}},{"attributes":{"ID":353922,"DIS_CODE":0,"TOWNNAME":"永康區","LI":"蔦松里","LIN":"6鄰","STREET":"蔦松一街","SECT":" ","MAREA":" ","LANE":"７４巷","ALLEY":" ","HOUSE_NO":"２５號","E_COORD97":173901.97,"N_COORD97":2549567.9900000002,"ADDRESS":"蔦松一街７４巷２５號","OBJECTID":353913},"geometry":{"x":173901.96999999974,"y":2549567.9900000039}},{"attributes":{"ID":353923,"DIS_CODE":0,"TOWNNAME":"永康區","LI":"網寮里","LIN":"6鄰","STREET":"永二街","SECT":" ","MAREA":" ","LANE":"１９６巷","ALLEY":" ","HOUSE_NO":"１８號","E_COORD97":173337.32999999999,"N_COORD97":2546290.7400000002,"ADDRESS":"永二街１９６巷１８號","OBJECTID":353914},"geometry":{"x":173337.33000000194,"y":2546290.7400000002}},{"attributes":{"ID":353924,"DIS_CODE":0,"TOWNNAME":"南區","LI":"明德里","LIN":"6鄰","STREET":"大成路","SECT":"一段","MAREA":" ","LANE":"６１巷","ALLEY":" ","HOUSE_NO":"５８號","E_COORD97":168082.89000000001,"N_COORD97":2541648.1800000002,"ADDRESS":"大成路一段６１巷５８號","OBJECTID":353915},"geometry":{"x":168082.88999999966,"y":2541648.1799999997}},{"attributes":{"ID":353925,"DIS_CODE":0,"TOWNNAME":"南區","LI":"明德里","LIN":"6鄰","STREET":"大成路","SECT":"一段","MAREA":" ","LANE":"６１巷","ALLEY":" ","HOUSE_NO":"５９號","E_COORD97":168117.85999999999,"N_COORD97":2541646.1000000001,"ADDRESS":"大成路一段６１巷５９號","OBJECTID":353916},"geometry":{"x":168117.8599999994,"y":2541646.0999999996}},{"attributes":{"ID":353926,"DIS_CODE":0,"TOWNNAME":"南區","LI":"明德里","LIN":"6鄰","STREET":"大成路","SECT":"一段","MAREA":" ","LANE":"６１巷","ALLEY":" ","HOUSE_NO":"７０號","E_COORD97":168065.41,"N_COORD97":2541622.9100000001,"ADDRESS":"大成路一段６１巷７０號","OBJECTID":353917},"geometry":{"x":168065.41000000108,"y":2541622.910000002}},{"attributes":{"ID":353927,"DIS_CODE":0,"TOWNNAME":"南區","LI":"明德里","LIN":"6鄰","STREET":"大成路","SECT":"一段","MAREA":" ","LANE":"６１巷","ALLEY":" ","HOUSE_NO":"７４號","E_COORD97":168076.37,"N_COORD97":2541631.25,"ADDRESS":"大成路一段６１巷７４號","OBJECTID":353918},"geometry":{"x":168076.37000000011,"y":2541631.25}},{"attributes":{"ID":353928,"DIS_CODE":0,"TOWNNAME":"南區","LI":"明德里","LIN":"6鄰","STREET":"大成路","SECT":"一段","MAREA":" ","LANE":"６１巷","ALLEY":" ","HOUSE_NO":"７６號","E_COORD97":168063.32000000001,"N_COORD97":2541632.8100000001,"ADDRESS":"大成路一段６１巷７６號","OBJECTID":353919},"geometry":{"x":168063.3200000003,"y":2541632.8100000024}},{"attributes":{"ID":353929,"DIS_CODE":0,"TOWNNAME":"南區","LI":"明德里","LIN":"6鄰","STREET":"大成路","SECT":"一段","MAREA":" ","LANE":"６１巷","ALLEY":" ","HOUSE_NO":"８４號","E_COORD97":168065.67000000001,"N_COORD97":2541638.2799999998,"ADDRESS":"大成路一段６１巷８４號","OBJECTID":353920},"geometry":{"x":168065.66999999993,"y":2541638.2800000031}},{"attributes":{"ID":353930,"DIS_CODE":0,"TOWNNAME":"南區","LI":"明德里","LIN":"6鄰","STREET":"大成路","SECT":"一段","MAREA":" ","LANE":"６１巷","ALLEY":" ","HOUSE_NO":"３２號","E_COORD97":168059.92999999999,"N_COORD97":2541669.2000000002,"ADDRESS":"大成路一段６１巷３２號","OBJECTID":353921},"geometry":{"x":168059.93000000063,"y":2541669.200000003}},{"attributes":{"ID":353931,"DIS_CODE":0,"TOWNNAME":"南區","LI":"明德里","LIN":"6鄰","STREET":"大成路","SECT":"一段","MAREA":" ","LANE":"６１巷","ALLEY":" ","HOUSE_NO":"５３號","E_COORD97":168109.25,"N_COORD97":2541644.54,"ADDRESS":"大成路一段６１巷５３號","OBJECTID":353922},"geometry":{"x":168109.25,"y":2541644.540000001}},{"attributes":{"ID":353932,"DIS_CODE":0,"TOWNNAME":"南區","LI":"明興里","LIN":"6鄰","STREET":"永仁街","SECT":" ","MAREA":" ","LANE":"３０巷","ALLEY":" ","HOUSE_NO":"１號","E_COORD97":166976.64999999999,"N_COORD97":2540727.6800000002,"ADDRESS":"永仁街３０巷１號","OBJECTID":353923},"geometry":{"x":166976.65000000037,"y":2540727.6800000016}},{"attributes":{"ID":353933,"DIS_CODE":0,"TOWNNAME":"南區","LI":"明興里","LIN":"6鄰","STREET":"永仁街","SECT":" ","MAREA":" ","LANE":"３０巷","ALLEY":" ","HOUSE_NO":"２號","E_COORD97":167014.45999999999,"N_COORD97":2540732.6099999999,"ADDRESS":"永仁街３０巷２號","OBJECTID":353924},"geometry":{"x":167014.45999999996,"y":2540732.6099999994}},{"attributes":{"ID":353934,"DIS_CODE":0,"TOWNNAME":"南區","LI":"明興里","LIN":"6鄰","STREET":"永仁街","SECT":" ","MAREA":" ","LANE":"３０巷","ALLEY":" ","HOUSE_NO":"４號","E_COORD97":167003.75,"N_COORD97":2540748.25,"ADDRESS":"永仁街３０巷４號","OBJECTID":353925},"geometry":{"x":167003.75000000093,"y":2540748.2500000019}},{"attributes":{"ID":353935,"DIS_CODE":0,"TOWNNAME":"南區","LI":"明興里","LIN":"6鄰","STREET":"永仁街","SECT":" ","MAREA":" ","LANE":"３０巷","ALLEY":" ","HOUSE_NO":"６號","E_COORD97":166990.41,"N_COORD97":2540732.1299999999,"ADDRESS":"永仁街３０巷６號","OBJECTID":353926},"geometry":{"x":166990.41000000108,"y":2540732.129999999}},{"attributes":{"ID":353936,"DIS_CODE":0,"TOWNNAME":"南區","LI":"明興里","LIN":"6鄰","STREET":"永仁街","SECT":" ","MAREA":" ","LANE":"３０巷","ALLEY":" ","HOUSE_NO":"８號","E_COORD97":166990.23999999999,"N_COORD97":2540737.0499999998,"ADDRESS":"永仁街３０巷８號","OBJECTID":353927},"geometry":{"x":166990.24000000115,"y":2540737.0500000026}},{"attributes":{"ID":353937,"DIS_CODE":0,"TOWNNAME":"南區","LI":"明興里","LIN":"6鄰","STREET":"永仁街","SECT":" ","MAREA":" ","LANE":"３０巷","ALLEY":" ","HOUSE_NO":"９號","E_COORD97":166977.92000000001,"N_COORD97":2540749.1800000002,"ADDRESS":"永仁街３０巷９號","OBJECTID":353928},"geometry":{"x":166977.92000000179,"y":2540749.1800000016}},{"attributes":{"ID":353938,"DIS_CODE":0,"TOWNNAME":"南區","LI":"明興里","LIN":"6鄰","STREET":"永仁街","SECT":" ","MAREA":" ","LANE":"３０巷","ALLEY":" ","HOUSE_NO":"１０號","E_COORD97":166989.14000000001,"N_COORD97":2540741.29,"ADDRESS":"永仁街３０巷１０號","OBJECTID":353929},"geometry":{"x":166989.13999999966,"y":2540741.2899999991}},{"attributes":{"ID":353939,"DIS_CODE":0,"TOWNNAME":"南區","LI":"明興里","LIN":"6鄰","STREET":"永仁街","SECT":" ","MAREA":" ","LANE":"３０巷","ALLEY":" ","HOUSE_NO":"１２號","E_COORD97":166988.70999999999,"N_COORD97":2540746.21,"ADDRESS":"永仁街３０巷１２號","OBJECTID":353930},"geometry":{"x":166988.71000000089,"y":2540746.2100000028}},{"attributes":{"ID":353940,"DIS_CODE":0,"TOWNNAME":"南區","LI":"明興里","LIN":"6鄰","STREET":"永仁街","SECT":" ","MAREA":" ","LANE":"３０巷","ALLEY":" ","HOUSE_NO":"１２號之１","E_COORD97":166988.97,"N_COORD97":2540751.2999999998,"ADDRESS":"永仁街３０巷１２號之１","OBJECTID":353931},"geometry":{"x":166988.96999999974,"y":2540751.3000000045}},{"attributes":{"ID":353941,"DIS_CODE":0,"TOWNNAME":"南區","LI":"省躬里","LIN":"6鄰","STREET":"灣裡路","SECT":" ","MAREA":" ","LANE":"７２巷","ALLEY":" ","HOUSE_NO":"１７號","E_COORD97":165892.03,"N_COORD97":2536923.6800000002,"ADDRESS":"灣裡路７２巷１７號","OBJECTID":353932},"geometry":{"x":165892.03000000026,"y":2536923.6800000016}},{"attributes":{"ID":353942,"DIS_CODE":0,"TOWNNAME":"南區","LI":"省躬里","LIN":"6鄰","STREET":"省躬一街","SECT":" ","MAREA":" ","LANE":"１９巷","ALLEY":" ","HOUSE_NO":"７號","E_COORD97":165878.69,"N_COORD97":2536935.4900000002,"ADDRESS":"省躬一街１９巷７號","OBJECTID":353933},"geometry":{"x":165878.69000000134,"y":2536935.4900000039}},{"attributes":{"ID":353943,"DIS_CODE":0,"TOWNNAME":"新化區","LI":"觀音里","LIN":"6鄰","STREET":"中正路","SECT":" ","MAREA":" ","LANE":"５４９巷","ALLEY":" ","HOUSE_NO":"２５號之１","E_COORD97":178975.09,"N_COORD97":2548604.2599999998,"ADDRESS":"中正路５４９巷２５號之１","OBJECTID":353934},"geometry":{"x":178975.08999999985,"y":2548604.2600000016}},{"attributes":{"ID":353944,"DIS_CODE":0,"TOWNNAME":"新化區","LI":"東榮里","LIN":"6鄰","STREET":"信義路","SECT":" ","MAREA":" ","LANE":"１１７巷","ALLEY":" ","HOUSE_NO":"３３號之１","E_COORD97":179726.20999999999,"N_COORD97":2548404.2599999998,"ADDRESS":"信義路１１７巷３３號之１","OBJECTID":353935},"geometry":{"x":179726.21000000089,"y":2548404.2600000016}},{"attributes":{"ID":353945,"DIS_CODE":0,"TOWNNAME":"新化區","LI":"武安里","LIN":"6鄰","STREET":"大同街","SECT":" ","MAREA":" ","LANE":"９１巷","ALLEY":" ","HOUSE_NO":"１號","E_COORD97":178965.78,"N_COORD97":2548255.25,"ADDRESS":"大同街９１巷１號","OBJECTID":353936},"geometry":{"x":178965.78000000026,"y":2548255.2500000019}},{"attributes":{"ID":353946,"DIS_CODE":0,"TOWNNAME":"新化區","LI":"護國里","LIN":"6鄰","STREET":"中山路","SECT":" ","MAREA":" ","LANE":"１４６巷","ALLEY":" ","HOUSE_NO":"４號","E_COORD97":179267.31,"N_COORD97":2548574.25,"ADDRESS":"中山路１４６巷４號","OBJECTID":353937},"geometry":{"x":179267.31000000052,"y":2548574.25}},{"attributes":{"ID":353947,"DIS_CODE":0,"TOWNNAME":"新化區","LI":"護國里","LIN":"6鄰","STREET":"中山路","SECT":" ","MAREA":" ","LANE":"１４６巷","ALLEY":" ","HOUSE_NO":"５號","E_COORD97":179258.51000000001,"N_COORD97":2548566.25,"ADDRESS":"中山路１４６巷５號","OBJECTID":353938},"geometry":{"x":179258.50999999978,"y":2548566.2500000019}},{"attributes":{"ID":353948,"DIS_CODE":0,"TOWNNAME":"新化區","LI":"護國里","LIN":"6鄰","STREET":"中山路","SECT":" ","MAREA":" ","LANE":"１４６巷","ALLEY":" ","HOUSE_NO":"２號","E_COORD97":179278.20999999999,"N_COORD97":2548575.25,"ADDRESS":"中山路１４６巷２號","OBJECTID":353939},"geometry":{"x":179278.21000000089,"y":2548575.25}},{"attributes":{"ID":353949,"DIS_CODE":0,"TOWNNAME":"新化區","LI":"協興里","LIN":"6鄰","STREET":"忠孝路","SECT":" ","MAREA":" ","LANE":"１９０巷","ALLEY":" ","HOUSE_NO":"３號之１","E_COORD97":178398.54999999999,"N_COORD97":2548620.2599999998,"ADDRESS":"忠孝路１９０巷３號之１","OBJECTID":353940},"geometry":{"x":178398.54999999981,"y":2548620.2600000016}},{"attributes":{"ID":353950,"DIS_CODE":0,"TOWNNAME":"西港區","LI":"西港里","LIN":"6鄰","STREET":"文化路","SECT":" ","MAREA":" ","LANE":"５８巷","ALLEY":" ","HOUSE_NO":"１２號","E_COORD97":168748.76000000001,"N_COORD97":2558185.7000000002,"ADDRESS":"文化路５８巷１２號","OBJECTID":353941},"geometry":{"x":168748.76000000164,"y":2558185.6999999993}},{"attributes":{"ID":353951,"DIS_CODE":0,"TOWNNAME":"西港區","LI":"西港里","LIN":"6鄰","STREET":"文化路","SECT":" ","MAREA":" ","LANE":"５８巷","ALLEY":" ","HOUSE_NO":"１３號","E_COORD97":168749.60000000001,"N_COORD97":2558178.0600000001,"ADDRESS":"文化路５８巷１３號","OBJECTID":353942},"geometry":{"x":168749.60000000149,"y":2558178.0600000005}},{"attributes":{"ID":353952,"DIS_CODE":0,"TOWNNAME":"西港區","LI":"西港里","LIN":"6鄰","STREET":"文化路","SECT":" ","MAREA":" ","LANE":"５８巷","ALLEY":" ","HOUSE_NO":"１４號","E_COORD97":168751.13,"N_COORD97":2558170.4700000002,"ADDRESS":"文化路５８巷１４號","OBJECTID":353943},"geometry":{"x":168751.12999999989,"y":2558170.4700000025}},{"attributes":{"ID":353953,"DIS_CODE":0,"TOWNNAME":"西港區","LI":"西港里","LIN":"6鄰","STREET":"文化路","SECT":" ","MAREA":" ","LANE":"５８巷","ALLEY":" ","HOUSE_NO":"２號","E_COORD97":168720.10000000001,"N_COORD97":2558166.8900000001,"ADDRESS":"文化路５８巷２號","OBJECTID":353944},"geometry":{"x":168720.09999999963,"y":2558166.8900000043}},{"attributes":{"ID":353954,"DIS_CODE":0,"TOWNNAME":"西港區","LI":"西港里","LIN":"6鄰","STREET":"文化路","SECT":" ","MAREA":" ","LANE":"５８巷","ALLEY":" ","HOUSE_NO":"７號","E_COORD97":168735.17000000001,"N_COORD97":2558187.8500000001,"ADDRESS":"文化路５８巷７號","OBJECTID":353945},"geometry":{"x":168735.16999999993,"y":2558187.8500000015}},{"attributes":{"ID":353955,"DIS_CODE":0,"TOWNNAME":"西港區","LI":"西港里","LIN":"6鄰","STREET":"文化路","SECT":" ","MAREA":" ","LANE":"５８巷","ALLEY":" ","HOUSE_NO":"８號","E_COORD97":168735.63,"N_COORD97":2558179.25,"ADDRESS":"文化路５８巷８號","OBJECTID":353946},"geometry":{"x":168735.62999999989,"y":2558179.25}},{"attributes":{"ID":353956,"DIS_CODE":0,"TOWNNAME":"西港區","LI":"西港里","LIN":"6鄰","STREET":"文化路","SECT":" ","MAREA":" ","LANE":"５８巷","ALLEY":" ","HOUSE_NO":"９號","E_COORD97":168737.70999999999,"N_COORD97":2558172.6400000001,"ADDRESS":"文化路５８巷９號","OBJECTID":353947},"geometry":{"x":168737.71000000089,"y":2558172.6400000025}},{"attributes":{"ID":353957,"DIS_CODE":0,"TOWNNAME":"西港區","LI":"西港里","LIN":"6鄰","STREET":"文化路","SECT":" ","MAREA":" ","LANE":"９２巷","ALLEY":" ","HOUSE_NO":"１２號","E_COORD97":168752.23999999999,"N_COORD97":2558217.0299999998,"ADDRESS":"文化路９２巷１２號","OBJECTID":353948},"geometry":{"x":168752.24000000022,"y":2558217.0300000012}},{"attributes":{"ID":353958,"DIS_CODE":0,"TOWNNAME":"西港區","LI":"西港里","LIN":"6鄰","STREET":"文化路","SECT":" ","MAREA":" ","LANE":"９２巷","ALLEY":" ","HOUSE_NO":"１３號","E_COORD97":168763.04000000001,"N_COORD97":2558185.9100000001,"ADDRESS":"文化路９２巷１３號","OBJECTID":353949},"geometry":{"x":168763.04000000097,"y":2558185.9100000001}},{"attributes":{"ID":353959,"DIS_CODE":0,"TOWNNAME":"西港區","LI":"西港里","LIN":"6鄰","STREET":"文化路","SECT":" ","MAREA":" ","LANE":"９２巷","ALLEY":" ","HOUSE_NO":"１４號","E_COORD97":168749.17999999999,"N_COORD97":2558214.96,"ADDRESS":"文化路９２巷１４號","OBJECTID":353950},"geometry":{"x":168749.18000000156,"y":2558214.9600000028}},{"attributes":{"ID":353960,"DIS_CODE":0,"TOWNNAME":"西港區","LI":"西港里","LIN":"6鄰","STREET":"文化路","SECT":" ","MAREA":" ","LANE":"９２巷","ALLEY":" ","HOUSE_NO":"１５號","E_COORD97":168765.76000000001,"N_COORD97":2558179.7599999998,"ADDRESS":"文化路９２巷１５號","OBJECTID":353951},"geometry":{"x":168765.76000000164,"y":2558179.7599999998}},{"attributes":{"ID":353961,"DIS_CODE":0,"TOWNNAME":"西港區","LI":"西港里","LIN":"6鄰","STREET":"文化路","SECT":" ","MAREA":" ","LANE":"９２巷","ALLEY":" ","HOUSE_NO":"１６號","E_COORD97":168745.26000000001,"N_COORD97":2558213,"ADDRESS":"文化路９２巷１６號","OBJECTID":353952},"geometry":{"x":168745.26000000164,"y":2558213.0000000037}},{"attributes":{"ID":353962,"DIS_CODE":0,"TOWNNAME":"西港區","LI":"西港里","LIN":"6鄰","STREET":"文化路","SECT":" ","MAREA":" ","LANE":"９２巷","ALLEY":" ","HOUSE_NO":"１８號","E_COORD97":168742.14000000001,"N_COORD97":2558211.1099999999,"ADDRESS":"文化路９２巷１８號","OBJECTID":353953},"geometry":{"x":168742.13999999966,"y":2558211.1099999994}},{"attributes":{"ID":353963,"DIS_CODE":0,"TOWNNAME":"西港區","LI":"西港里","LIN":"6鄰","STREET":"文化路","SECT":" ","MAREA":" ","LANE":"９２巷","ALLEY":" ","HOUSE_NO":"１號之１","E_COORD97":168791.16,"N_COORD97":2558218.02,"ADDRESS":"文化路９２巷１號之１","OBJECTID":353954},"geometry":{"x":168791.16000000108,"y":2558218.0199999996}},{"attributes":{"ID":353964,"DIS_CODE":0,"TOWNNAME":"西港區","LI":"西港里","LIN":"6鄰","STREET":"文化路","SECT":" ","MAREA":" ","LANE":"９２巷","ALLEY":" ","HOUSE_NO":"１號之２","E_COORD97":168791.35999999999,"N_COORD97":2558213.5899999999,"ADDRESS":"文化路９２巷１號之２","OBJECTID":353955},"geometry":{"x":168791.36000000127,"y":2558213.5900000017}},{"attributes":{"ID":353965,"DIS_CODE":0,"TOWNNAME":"西港區","LI":"西港里","LIN":"6鄰","STREET":"文化路","SECT":" ","MAREA":" ","LANE":"９２巷","ALLEY":" ","HOUSE_NO":"１之７號","E_COORD97":168791.82000000001,"N_COORD97":2558196.3199999998,"ADDRESS":"文化路９２巷１之７號","OBJECTID":353956},"geometry":{"x":168791.82000000123,"y":2558196.3200000003}},{"attributes":{"ID":353966,"DIS_CODE":0,"TOWNNAME":"西港區","LI":"西港里","LIN":"6鄰","STREET":"文化路","SECT":" ","MAREA":" ","LANE":"９２巷","ALLEY":" ","HOUSE_NO":"１號","E_COORD97":168774.73000000001,"N_COORD97":2558206.8999999999,"ADDRESS":"文化路９２巷１號","OBJECTID":353957},"geometry":{"x":168774.73000000045,"y":2558206.9000000004}},{"attributes":{"ID":353967,"DIS_CODE":0,"TOWNNAME":"西港區","LI":"西港里","LIN":"6鄰","STREET":"文化路","SECT":" ","MAREA":" ","LANE":"９２巷","ALLEY":" ","HOUSE_NO":"２０號","E_COORD97":168738.66,"N_COORD97":2558208.8199999998,"ADDRESS":"文化路９２巷２０號","OBJECTID":353958},"geometry":{"x":168738.66000000108,"y":2558208.8200000022}},{"attributes":{"ID":353968,"DIS_CODE":0,"TOWNNAME":"西港區","LI":"西港里","LIN":"6鄰","STREET":"文化路","SECT":" ","MAREA":" ","LANE":"９２巷","ALLEY":" ","HOUSE_NO":"２２號","E_COORD97":168734.89999999999,"N_COORD97":2558206.7999999998,"ADDRESS":"文化路９２巷２２號","OBJECTID":353959},"geometry":{"x":168734.90000000224,"y":2558206.8000000007}},{"attributes":{"ID":353969,"DIS_CODE":0,"TOWNNAME":"西港區","LI":"西港里","LIN":"6鄰","STREET":"文化路","SECT":" ","MAREA":" ","LANE":"９２巷","ALLEY":" ","HOUSE_NO":"２４號之１","E_COORD97":168730.92999999999,"N_COORD97":2558220.52,"ADDRESS":"文化路９２巷２４號之１","OBJECTID":353960},"geometry":{"x":168730.93000000063,"y":2558220.5200000014}},{"attributes":{"ID":353970,"DIS_CODE":0,"TOWNNAME":"西港區","LI":"西港里","LIN":"6鄰","STREET":"文化路","SECT":" ","MAREA":" ","LANE":"９２巷","ALLEY":" ","HOUSE_NO":"２４號","E_COORD97":168731.72,"N_COORD97":2558204.75,"ADDRESS":"文化路９２巷２４號","OBJECTID":353961},"geometry":{"x":168731.71999999974,"y":2558204.7500000037}},{"attributes":{"ID":353971,"DIS_CODE":0,"TOWNNAME":"西港區","LI":"西港里","LIN":"6鄰","STREET":"文化路","SECT":" ","MAREA":" ","LANE":"９２巷","ALLEY":" ","HOUSE_NO":"２號之１","E_COORD97":168787.88,"N_COORD97":2558226.5699999998,"ADDRESS":"文化路９２巷２號之１","OBJECTID":353962},"geometry":{"x":168787.87999999989,"y":2558226.570000004}},{"attributes":{"ID":353972,"DIS_CODE":0,"TOWNNAME":"西港區","LI":"西港里","LIN":"6鄰","STREET":"文化路","SECT":" ","MAREA":" ","LANE":"９２巷","ALLEY":" ","HOUSE_NO":"２號之２","E_COORD97":168786.70000000001,"N_COORD97":2558230.6699999999,"ADDRESS":"文化路９２巷２號之２","OBJECTID":353963},"geometry":{"x":168786.69999999925,"y":2558230.6699999999}},{"attributes":{"ID":353973,"DIS_CODE":0,"TOWNNAME":"西港區","LI":"西港里","LIN":"6鄰","STREET":"文化路","SECT":" ","MAREA":" ","LANE":"９２巷","ALLEY":" ","HOUSE_NO":"２號","E_COORD97":168770.35000000001,"N_COORD97":2558225.7400000002,"ADDRESS":"文化路９２巷２號","OBJECTID":353964},"geometry":{"x":168770.35000000056,"y":2558225.7400000021}},{"attributes":{"ID":353974,"DIS_CODE":0,"TOWNNAME":"東區","LI":"大德里","LIN":"6鄰","STREET":"立德十路","SECT":" ","MAREA":" ","LANE":"３０巷","ALLEY":" ","HOUSE_NO":"３２號","E_COORD97":169470.03,"N_COORD97":2541964.1499999999,"ADDRESS":"立德十路３０巷３２號","OBJECTID":353965},"geometry":{"x":169470.03000000119,"y":2541964.1500000004}},{"attributes":{"ID":353975,"DIS_CODE":0,"TOWNNAME":"後壁區","LI":"新嘉里","LIN":"20鄰","STREET":" ","SECT":" ","MAREA":"白沙屯","LANE":" ","ALLEY":" ","HOUSE_NO":"２１５號","E_COORD97":179497.59,"N_COORD97":2585631.8999999999,"ADDRESS":"白沙屯２１５號","OBJECTID":353966},"geometry":{"x":179497.59000000078,"y":2585631.8999999985}},{"attributes":{"ID":353976,"DIS_CODE":0,"TOWNNAME":"東區","LI":"大德里","LIN":"6鄰","STREET":"立德十路","SECT":" ","MAREA":" ","LANE":"３０巷","ALLEY":" ","HOUSE_NO":"１０號","E_COORD97":169460.34,"N_COORD97":2542008.6200000001,"ADDRESS":"立德十路３０巷１０號","OBJECTID":353967},"geometry":{"x":169460.34000000078,"y":2542008.6200000029}},{"attributes":{"ID":353977,"DIS_CODE":0,"TOWNNAME":"東區","LI":"大德里","LIN":"6鄰","STREET":"立德十路","SECT":" ","MAREA":" ","LANE":"３０巷","ALLEY":" ","HOUSE_NO":"１２號","E_COORD97":169460.76000000001,"N_COORD97":2542005.8399999999,"ADDRESS":"立德十路３０巷１２號","OBJECTID":353968},"geometry":{"x":169460.76000000164,"y":2542005.8400000017}},{"attributes":{"ID":353978,"DIS_CODE":0,"TOWNNAME":"東區","LI":"大德里","LIN":"6鄰","STREET":"立德十路","SECT":" ","MAREA":" ","LANE":"３０巷","ALLEY":" ","HOUSE_NO":"１４號","E_COORD97":169461.39000000001,"N_COORD97":2542001.2999999998,"ADDRESS":"立德十路３０巷１４號","OBJECTID":353969},"geometry":{"x":169461.39000000153,"y":2542001.3000000007}},{"attributes":{"ID":353979,"DIS_CODE":0,"TOWNNAME":"東區","LI":"大德里","LIN":"6鄰","STREET":"立德十路","SECT":" ","MAREA":" ","LANE":"３０巷","ALLEY":" ","HOUSE_NO":"１８號","E_COORD97":169463,"N_COORD97":2541993.6200000001,"ADDRESS":"立德十路３０巷１８號","OBJECTID":353970},"geometry":{"x":169463.00000000093,"y":2541993.6200000048}},{"attributes":{"ID":353980,"DIS_CODE":0,"TOWNNAME":"東區","LI":"大德里","LIN":"6鄰","STREET":"立德十路","SECT":" ","MAREA":" ","LANE":"３０巷","ALLEY":" ","HOUSE_NO":"２０號","E_COORD97":169463.76000000001,"N_COORD97":2541987.2400000002,"ADDRESS":"立德十路３０巷２０號","OBJECTID":353971},"geometry":{"x":169463.75999999978,"y":2541987.2400000002}},{"attributes":{"ID":353981,"DIS_CODE":0,"TOWNNAME":"東區","LI":"大德里","LIN":"6鄰","STREET":"立德十路","SECT":" ","MAREA":" ","LANE":"３０巷","ALLEY":" ","HOUSE_NO":"２２號","E_COORD97":169465.44,"N_COORD97":2541983.3999999999,"ADDRESS":"立德十路３０巷２２號","OBJECTID":353972},"geometry":{"x":169465.44000000134,"y":2541983.4000000004}},{"attributes":{"ID":353982,"DIS_CODE":0,"TOWNNAME":"東區","LI":"大德里","LIN":"6鄰","STREET":"立德十路","SECT":" ","MAREA":" ","LANE":"３０巷","ALLEY":" ","HOUSE_NO":"２４號","E_COORD97":169466.14000000001,"N_COORD97":2541979.96,"ADDRESS":"立德十路３０巷２４號","OBJECTID":353973},"geometry":{"x":169466.13999999966,"y":2541979.9600000009}},{"attributes":{"ID":353983,"DIS_CODE":0,"TOWNNAME":"東區","LI":"大德里","LIN":"6鄰","STREET":"立德十路","SECT":" ","MAREA":" ","LANE":"３０巷","ALLEY":" ","HOUSE_NO":"１號","E_COORD97":169478.42000000001,"N_COORD97":2542028.2799999998,"ADDRESS":"立德十路３０巷１號","OBJECTID":353974},"geometry":{"x":169478.42000000179,"y":2542028.2800000031}},{"attributes":{"ID":353984,"DIS_CODE":0,"TOWNNAME":"東區","LI":"大德里","LIN":"6鄰","STREET":"立德十路","SECT":" ","MAREA":" ","LANE":"３０巷","ALLEY":" ","HOUSE_NO":"５號","E_COORD97":169486.73999999999,"N_COORD97":2542029.6699999999,"ADDRESS":"立德十路３０巷５號","OBJECTID":353975},"geometry":{"x":169486.74000000209,"y":2542029.6700000037}},{"attributes":{"ID":353985,"DIS_CODE":0,"TOWNNAME":"東區","LI":"大德里","LIN":"6鄰","STREET":"立德十路","SECT":" ","MAREA":" ","LANE":"３０巷","ALLEY":" ","HOUSE_NO":"７號","E_COORD97":169491.70000000001,"N_COORD97":2542030.0899999999,"ADDRESS":"立德十路３０巷７號","OBJECTID":353976},"geometry":{"x":169491.70000000019,"y":2542030.0900000036}},{"attributes":{"ID":353986,"DIS_CODE":0,"TOWNNAME":"東區","LI":"大德里","LIN":"6鄰","STREET":"立德十路","SECT":" ","MAREA":" ","LANE":"３０巷","ALLEY":" ","HOUSE_NO":"９號","E_COORD97":169491.76999999999,"N_COORD97":2542021.2400000002,"ADDRESS":"立德十路３０巷９號","OBJECTID":353977},"geometry":{"x":169491.76999999955,"y":2542021.2400000002}},{"attributes":{"ID":353987,"DIS_CODE":0,"TOWNNAME":"東區","LI":"大德里","LIN":"6鄰","STREET":"立德十路","SECT":" ","MAREA":" ","LANE":"３０巷","ALLEY":" ","HOUSE_NO":"１５號","E_COORD97":169493.66,"N_COORD97":2542013.0699999998,"ADDRESS":"立德十路３０巷１５號","OBJECTID":353978},"geometry":{"x":169493.66000000015,"y":2542013.0700000003}},{"attributes":{"ID":353988,"DIS_CODE":0,"TOWNNAME":"東區","LI":"大德里","LIN":"6鄰","STREET":"立德十路","SECT":" ","MAREA":" ","LANE":"３０巷","ALLEY":" ","HOUSE_NO":"１９號","E_COORD97":169495.62,"N_COORD97":2542004.9199999999,"ADDRESS":"立德十路３０巷１９號","OBJECTID":353979},"geometry":{"x":169495.62000000011,"y":2542004.9200000018}},{"attributes":{"ID":353989,"DIS_CODE":0,"TOWNNAME":"東區","LI":"大德里","LIN":"6鄰","STREET":"立德十路","SECT":" ","MAREA":" ","LANE":"３０巷","ALLEY":" ","HOUSE_NO":"２１號","E_COORD97":169495.82999999999,"N_COORD97":2542001.4300000002,"ADDRESS":"立德十路３０巷２１號","OBJECTID":353980},"geometry":{"x":169495.83000000007,"y":2542001.4300000016}},{"attributes":{"ID":353990,"DIS_CODE":0,"TOWNNAME":"東區","LI":"大德里","LIN":"6鄰","STREET":"立德十路","SECT":" ","MAREA":" ","LANE":"３０巷","ALLEY":" ","HOUSE_NO":"２３號","E_COORD97":169496.95000000001,"N_COORD97":2541997.5899999999,"ADDRESS":"立德十路３０巷２３號","OBJECTID":353981},"geometry":{"x":169496.95000000019,"y":2541997.5900000017}},{"attributes":{"ID":353991,"DIS_CODE":0,"TOWNNAME":"東區","LI":"大德里","LIN":"6鄰","STREET":"立德十路","SECT":" ","MAREA":" ","LANE":"３０巷","ALLEY":" ","HOUSE_NO":"２５號","E_COORD97":169497.37,"N_COORD97":2541994.0299999998,"ADDRESS":"立德十路３０巷２５號","OBJECTID":353982},"geometry":{"x":169497.37000000011,"y":2541994.0300000012}},{"attributes":{"ID":353992,"DIS_CODE":0,"TOWNNAME":"東區","LI":"大德里","LIN":"6鄰","STREET":"立德十路","SECT":" ","MAREA":" ","LANE":"３０巷","ALLEY":" ","HOUSE_NO":"２７號","E_COORD97":169498.56,"N_COORD97":2541989.4300000002,"ADDRESS":"立德十路３０巷２７號","OBJECTID":353983},"geometry":{"x":169498.55999999959,"y":2541989.4299999997}},{"attributes":{"ID":353993,"DIS_CODE":0,"TOWNNAME":"東區","LI":"大德里","LIN":"6鄰","STREET":"立德十路","SECT":" ","MAREA":" ","LANE":"３０巷","ALLEY":" ","HOUSE_NO":"２９號","E_COORD97":169498.98000000001,"N_COORD97":2541985.5899999999,"ADDRESS":"立德十路３０巷２９號","OBJECTID":353984},"geometry":{"x":169498.98000000231,"y":2541985.589999998}},{"attributes":{"ID":353994,"DIS_CODE":0,"TOWNNAME":"東區","LI":"大德里","LIN":"6鄰","STREET":"立德十路","SECT":" ","MAREA":" ","LANE":"３０巷","ALLEY":" ","HOUSE_NO":"３１號","E_COORD97":169500.17000000001,"N_COORD97":2541981.96,"ADDRESS":"立德十路３０巷３１號","OBJECTID":353985},"geometry":{"x":169500.16999999993,"y":2541981.9600000028}},{"attributes":{"ID":353995,"DIS_CODE":0,"TOWNNAME":"東區","LI":"大德里","LIN":"6鄰","STREET":"立德十路","SECT":" ","MAREA":" ","LANE":"３０巷","ALLEY":" ","HOUSE_NO":"３７號","E_COORD97":169502.76999999999,"N_COORD97":2541967.3199999998,"ADDRESS":"立德十路３０巷３７號","OBJECTID":353986},"geometry":{"x":169502.77000000142,"y":2541967.3200000003}},{"attributes":{"ID":353996,"DIS_CODE":0,"TOWNNAME":"東區","LI":"大德里","LIN":"6鄰","STREET":"立德十路","SECT":" ","MAREA":" ","LANE":"３０巷","ALLEY":" ","HOUSE_NO":"３９號","E_COORD97":169503.47,"N_COORD97":2541961.46,"ADDRESS":"立德十路３０巷３９號","OBJECTID":353987},"geometry":{"x":169503.47000000067,"y":2541961.4600000028}},{"attributes":{"ID":353997,"DIS_CODE":0,"TOWNNAME":"東區","LI":"大德里","LIN":"6鄰","STREET":"立德十路","SECT":" ","MAREA":" ","LANE":"３０巷","ALLEY":" ","HOUSE_NO":"５１號","E_COORD97":169486.47,"N_COORD97":2541947.6699999999,"ADDRESS":"立德十路３０巷５１號","OBJECTID":353988},"geometry":{"x":169486.47000000067,"y":2541947.6699999999}},{"attributes":{"ID":353998,"DIS_CODE":0,"TOWNNAME":"東區","LI":"中西里","LIN":"6鄰","STREET":"勝利路","SECT":" ","MAREA":" ","LANE":"１２巷","ALLEY":" ","HOUSE_NO":"４７號","E_COORD97":169928.73999999999,"N_COORD97":2543407.3399999999,"ADDRESS":"勝利路１２巷４７號","OBJECTID":353989},"geometry":{"x":169928.74000000022,"y":2543407.3399999999}},{"attributes":{"ID":353999,"DIS_CODE":0,"TOWNNAME":"東區","LI":"中西里","LIN":"6鄰","STREET":"勝利路","SECT":" ","MAREA":" ","LANE":"１２巷","ALLEY":" ","HOUSE_NO":"４９號","E_COORD97":169928.92000000001,"N_COORD97":2543404.23,"ADDRESS":"勝利路１２巷４９號","OBJECTID":353990},"geometry":{"x":169928.91999999993,"y":2543404.2300000023}},{"attributes":{"ID":354000,"DIS_CODE":0,"TOWNNAME":"東區","LI":"仁和里","LIN":"6鄰","STREET":"仁和路","SECT":" ","MAREA":" ","LANE":"１１１巷","ALLEY":" ","HOUSE_NO":"８７號","E_COORD97":171594.01999999999,"N_COORD97":2541297.7400000002,"ADDRESS":"仁和路１１１巷８７號","OBJECTID":353991},"geometry":{"x":171594.01999999955,"y":2541297.7400000021}},{"attributes":{"ID":354001,"DIS_CODE":0,"TOWNNAME":"東區","LI":"仁和里","LIN":"6鄰","STREET":"仁和路","SECT":" ","MAREA":" ","LANE":"１１１巷","ALLEY":" ","HOUSE_NO":"８５號","E_COORD97":171589.48999999999,"N_COORD97":2541298.2599999998,"ADDRESS":"仁和路１１１巷８５號","OBJECTID":353992},"geometry":{"x":171589.49000000115,"y":2541298.2599999998}},{"attributes":{"ID":354002,"DIS_CODE":0,"TOWNNAME":"東區","LI":"仁和里","LIN":"6鄰","STREET":"仁和路","SECT":" ","MAREA":" ","LANE":"１１１巷","ALLEY":" ","HOUSE_NO":"８３號","E_COORD97":171584.23000000001,"N_COORD97":2541298.3700000001,"ADDRESS":"仁和路１１１巷８３號","OBJECTID":353993},"geometry":{"x":171584.23000000138,"y":2541298.3700000029}},{"attributes":{"ID":354003,"DIS_CODE":0,"TOWNNAME":"東區","LI":"仁和里","LIN":"6鄰","STREET":"仁和路","SECT":" ","MAREA":" ","LANE":"１１１巷","ALLEY":" ","HOUSE_NO":"８１號","E_COORD97":171579.81,"N_COORD97":2541299,"ADDRESS":"仁和路１１１巷８１號","OBJECTID":353994},"geometry":{"x":171579.81000000052,"y":2541299.0000000019}},{"attributes":{"ID":354004,"DIS_CODE":0,"TOWNNAME":"東區","LI":"仁和里","LIN":"6鄰","STREET":"仁和路","SECT":" ","MAREA":" ","LANE":"１１１巷","ALLEY":" ","HOUSE_NO":"７６號","E_COORD97":171575.47,"N_COORD97":2541283.2400000002,"ADDRESS":"仁和路１１１巷７６號","OBJECTID":353995},"geometry":{"x":171575.47000000067,"y":2541283.2399999984}},{"attributes":{"ID":354005,"DIS_CODE":0,"TOWNNAME":"東區","LI":"仁和里","LIN":"6鄰","STREET":"仁和路","SECT":" ","MAREA":" ","LANE":"１１１巷","ALLEY":" ","HOUSE_NO":"７９號","E_COORD97":171574.76000000001,"N_COORD97":2541299.6299999999,"ADDRESS":"仁和路１１１巷７９號","OBJECTID":353996},"geometry":{"x":171574.76000000071,"y":2541299.6299999971}},{"attributes":{"ID":354006,"DIS_CODE":0,"TOWNNAME":"東區","LI":"仁和里","LIN":"6鄰","STREET":"仁和路","SECT":" ","MAREA":" ","LANE":"１１１巷","ALLEY":" ","HOUSE_NO":"７７號","E_COORD97":171569.60000000001,"N_COORD97":2541300.3700000001,"ADDRESS":"仁和路１１１巷７７號","OBJECTID":353997},"geometry":{"x":171569.59999999963,"y":2541300.3700000048}},{"attributes":{"ID":354007,"DIS_CODE":0,"TOWNNAME":"東區","LI":"仁和里","LIN":"6鄰","STREET":"仁和路","SECT":" ","MAREA":" ","LANE":"１１１巷","ALLEY":" ","HOUSE_NO":"７５號","E_COORD97":171564.54999999999,"N_COORD97":2541301.1000000001,"ADDRESS":"仁和路１１１巷７５號","OBJECTID":353998},"geometry":{"x":171564.55000000075,"y":2541301.1000000015}},{"attributes":{"ID":354008,"DIS_CODE":0,"TOWNNAME":"東區","LI":"仁和里","LIN":"6鄰","STREET":"仁和路","SECT":" ","MAREA":" ","LANE":"１１１巷","ALLEY":" ","HOUSE_NO":"７３號","E_COORD97":171559.81,"N_COORD97":2541301.52,"ADDRESS":"仁和路１１１巷７３號","OBJECTID":353999},"geometry":{"x":171559.80999999959,"y":2541301.5200000014}},{"attributes":{"ID":354009,"DIS_CODE":0,"TOWNNAME":"東區","LI":"德光里","LIN":"7鄰","STREET":"崇明路","SECT":" ","MAREA":" ","LANE":"１５５巷","ALLEY":" ","HOUSE_NO":"５號","E_COORD97":169941.94,"N_COORD97":2542196.9300000002,"ADDRESS":"崇明路１５５巷５號","OBJECTID":354000},"geometry":{"x":169941.94000000134,"y":2542196.9300000034}}]}