{"displayFieldName":"TOWNNAME","fieldAliases":{"ID":"ID","DIS_CODE":"DIS_CODE","TOWNNAME":"TOWNNAME","LI":"LI","LIN":"LIN","STREET":"STREET","SECT":"SECT","MAREA":"MAREA","LANE":"LANE","ALLEY":"ALLEY","HOUSE_NO":"HOUSE_NO","E_COORD97":"E_COORD97","N_COORD97":"N_COORD97","ADDRESS":"ADDRESS","OBJECTID":"OBJECTID"},"geometryType":"esriGeometryPoint","spatialReference":{"wkid":102443,"latestWkid":3826},"fields":[{"name":"ID","type":"esriFieldTypeDouble","alias":"ID"},{"name":"DIS_CODE","type":"esriFieldTypeInteger","alias":"DIS_CODE"},{"name":"TOWNNAME","type":"esriFieldTypeString","alias":"TOWNNAME","length":8},{"name":"LI","type":"esriFieldTypeString","alias":"LI","length":8},{"name":"LIN","type":"esriFieldTypeString","alias":"LIN","length":12},{"name":"STREET","type":"esriFieldTypeString","alias":"STREET","length":20},{"name":"SECT","type":"esriFieldTypeString","alias":"SECT","length":8},{"name":"MAREA","type":"esriFieldTypeString","alias":"MAREA","length":12},{"name":"LANE","type":"esriFieldTypeString","alias":"LANE","length":10},{"name":"ALLEY","type":"esriFieldTypeString","alias":"ALLEY","length":10},{"name":"HOUSE_NO","type":"esriFieldTypeString","alias":"HOUSE_NO","length":20},{"name":"E_COORD97","type":"esriFieldTypeDouble","alias":"E_COORD97"},{"name":"N_COORD97","type":"esriFieldTypeDouble","alias":"N_COORD97"},{"name":"ADDRESS","type":"esriFieldTypeString","alias":"ADDRESS","length":50},{"name":"OBJECTID","type":"esriFieldTypeOID","alias":"OBJECTID"}],"features":[{"attributes":{"ID":345610,"DIS_CODE":0,"TOWNNAME":"善化區","LI":"東昌里","LIN":"5鄰","STREET":" ","SECT":" ","MAREA":"東勢寮","LANE":" ","ALLEY":" ","HOUSE_NO":"５３號之１","E_COORD97":180608.06,"N_COORD97":2561917.27,"ADDRESS":"東勢寮５３號之１","OBJECTID":345601},"geometry":{"x":180608.06000000052,"y":2561917.2700000014}},{"attributes":{"ID":345611,"DIS_CODE":0,"TOWNNAME":"中西區","LI":"法華里","LIN":"8鄰","STREET":"五妃街","SECT":" ","MAREA":" ","LANE":" ","ALLEY":" ","HOUSE_NO":"１１之６號六樓","E_COORD97":169066.92999999999,"N_COORD97":2542539.6099999999,"ADDRESS":"五妃街１１之６號六樓","OBJECTID":345602},"geometry":{"x":169066.93000000063,"y":2542539.6099999994}},{"attributes":{"ID":345612,"DIS_CODE":0,"TOWNNAME":"仁德區","LI":"仁愛里","LIN":"5鄰","STREET":" ","SECT":" ","MAREA":"仁愛","LANE":" ","ALLEY":" ","HOUSE_NO":"８５號","E_COORD97":170314.25148000001,"N_COORD97":2539873.8650000002,"ADDRESS":"仁愛８５號","OBJECTID":345603},"geometry":{"x":170314.25148000009,"y":2539873.8650000039}},{"attributes":{"ID":345613,"DIS_CODE":0,"TOWNNAME":"善化區","LI":"小新里","LIN":"5鄰","STREET":" ","SECT":" ","MAREA":"小新營","LANE":" ","ALLEY":" ","HOUSE_NO":"３９號","E_COORD97":179786.14999999999,"N_COORD97":2558276.25,"ADDRESS":"小新營３９號","OBJECTID":345604},"geometry":{"x":179786.1500000013,"y":2558276.2500000019}},{"attributes":{"ID":345614,"DIS_CODE":0,"TOWNNAME":"善化區","LI":"小新里","LIN":"5鄰","STREET":" ","SECT":" ","MAREA":"小新營","LANE":" ","ALLEY":" ","HOUSE_NO":"３６號之１","E_COORD97":179747.89999999999,"N_COORD97":2558315.27,"ADDRESS":"小新營３６號之１","OBJECTID":345605},"geometry":{"x":179747.90000000037,"y":2558315.2699999996}},{"attributes":{"ID":345615,"DIS_CODE":0,"TOWNNAME":"善化區","LI":"六分里","LIN":"5鄰","STREET":" ","SECT":" ","MAREA":"東勢宅","LANE":" ","ALLEY":" ","HOUSE_NO":"３５號","E_COORD97":177767.29999999999,"N_COORD97":2561015.7599999998,"ADDRESS":"東勢宅３５號","OBJECTID":345606},"geometry":{"x":177767.30000000075,"y":2561015.7600000016}},{"attributes":{"ID":345616,"DIS_CODE":0,"TOWNNAME":"善化區","LI":"六德里","LIN":"5鄰","STREET":" ","SECT":" ","MAREA":"六分寮","LANE":" ","ALLEY":" ","HOUSE_NO":"２３４號","E_COORD97":178841.29999999999,"N_COORD97":2561700,"ADDRESS":"六分寮２３４號","OBJECTID":345607},"geometry":{"x":178841.29999999981,"y":2561700}},{"attributes":{"ID":345617,"DIS_CODE":0,"TOWNNAME":"善化區","LI":"什乃里","LIN":"5鄰","STREET":" ","SECT":" ","MAREA":"什乃","LANE":" ","ALLEY":" ","HOUSE_NO":"４３號","E_COORD97":176147.12,"N_COORD97":2560481.5,"ADDRESS":"什乃４３號","OBJECTID":345608},"geometry":{"x":176147.12000000011,"y":2560481.5000000019}},{"attributes":{"ID":345618,"DIS_CODE":0,"TOWNNAME":"善化區","LI":"六分里","LIN":"5鄰","STREET":" ","SECT":" ","MAREA":"東勢宅","LANE":" ","ALLEY":" ","HOUSE_NO":"５２號","E_COORD97":177822.70999999999,"N_COORD97":2561293.7599999998,"ADDRESS":"東勢宅５２號","OBJECTID":345609},"geometry":{"x":177822.71000000089,"y":2561293.7600000016}},{"attributes":{"ID":345619,"DIS_CODE":0,"TOWNNAME":"善化區","LI":"六德里","LIN":"5鄰","STREET":" ","SECT":" ","MAREA":"六分寮","LANE":" ","ALLEY":" ","HOUSE_NO":"２３７號","E_COORD97":178866.07000000001,"N_COORD97":2561678.5,"ADDRESS":"六分寮２３７號","OBJECTID":345610},"geometry":{"x":178866.07000000123,"y":2561678.5000000019}},{"attributes":{"ID":345620,"DIS_CODE":0,"TOWNNAME":"善化區","LI":"六分里","LIN":"5鄰","STREET":" ","SECT":" ","MAREA":"東勢宅","LANE":" ","ALLEY":" ","HOUSE_NO":"３５號之５","E_COORD97":177709.39999999999,"N_COORD97":2560946.52,"ADDRESS":"東勢宅３５號之５","OBJECTID":345611},"geometry":{"x":177709.4000000013,"y":2560946.5200000014}},{"attributes":{"ID":345621,"DIS_CODE":0,"TOWNNAME":"善化區","LI":"文正里","LIN":"5鄰","STREET":"文正路","SECT":" ","MAREA":" ","LANE":"７９巷","ALLEY":" ","HOUSE_NO":"２號","E_COORD97":177160.20000000001,"N_COORD97":2559340.5299999998,"ADDRESS":"文正路７９巷２號","OBJECTID":345612},"geometry":{"x":177160.20000000112,"y":2559340.5299999993}},{"attributes":{"ID":345622,"DIS_CODE":0,"TOWNNAME":"安南區","LI":"安順里","LIN":"5鄰","STREET":"安和路","SECT":"四段","MAREA":" ","LANE":"６７巷","ALLEY":" ","HOUSE_NO":"１０號","E_COORD97":169863.73999999999,"N_COORD97":2550282.6899999999,"ADDRESS":"安和路四段６７巷１０號","OBJECTID":345613},"geometry":{"x":169863.74000000115,"y":2550282.6900000013}},{"attributes":{"ID":345623,"DIS_CODE":0,"TOWNNAME":"安南區","LI":"安順里","LIN":"5鄰","STREET":"安和路","SECT":"四段","MAREA":" ","LANE":"６７巷","ALLEY":" ","HOUSE_NO":"１２號","E_COORD97":169864.19,"N_COORD97":2550277.8399999999,"ADDRESS":"安和路四段６７巷１２號","OBJECTID":345614},"geometry":{"x":169864.19000000134,"y":2550277.8400000017}},{"attributes":{"ID":345624,"DIS_CODE":0,"TOWNNAME":"安南區","LI":"安順里","LIN":"5鄰","STREET":"安和路","SECT":"四段","MAREA":" ","LANE":"６７巷","ALLEY":" ","HOUSE_NO":"１４號","E_COORD97":169864.04000000001,"N_COORD97":2550272.8300000001,"ADDRESS":"安和路四段６７巷１４號","OBJECTID":345615},"geometry":{"x":169864.04000000004,"y":2550272.8300000001}},{"attributes":{"ID":345625,"DIS_CODE":0,"TOWNNAME":"安平區","LI":"育平里","LIN":"31鄰","STREET":"健康三街","SECT":" ","MAREA":" ","LANE":"１０７巷","ALLEY":" ","HOUSE_NO":"１９號八樓之３","E_COORD97":164679.60000000001,"N_COORD97":2543139.7799999998,"ADDRESS":"健康三街１０７巷１９號八樓之３","OBJECTID":345616},"geometry":{"x":164679.60000000056,"y":2543139.7799999993}},{"attributes":{"ID":345626,"DIS_CODE":0,"TOWNNAME":"中西區","LI":"法華里","LIN":"8鄰","STREET":"五妃街","SECT":" ","MAREA":" ","LANE":" ","ALLEY":" ","HOUSE_NO":"１１之６號四樓","E_COORD97":169066.92999999999,"N_COORD97":2542539.6099999999,"ADDRESS":"五妃街１１之６號四樓","OBJECTID":345617},"geometry":{"x":169066.93000000063,"y":2542539.6099999994}},{"attributes":{"ID":345627,"DIS_CODE":0,"TOWNNAME":"中西區","LI":"法華里","LIN":"8鄰","STREET":"五妃街","SECT":" ","MAREA":" ","LANE":" ","ALLEY":" ","HOUSE_NO":"５號七樓之１","E_COORD97":169092.45000000001,"N_COORD97":2542552.1200000001,"ADDRESS":"五妃街５號七樓之１","OBJECTID":345618},"geometry":{"x":169092.45000000112,"y":2542552.120000001}},{"attributes":{"ID":345628,"DIS_CODE":0,"TOWNNAME":"中西區","LI":"法華里","LIN":"8鄰","STREET":"五妃街","SECT":" ","MAREA":" ","LANE":" ","ALLEY":" ","HOUSE_NO":"５號七樓之２","E_COORD97":169092.45000000001,"N_COORD97":2542552.1200000001,"ADDRESS":"五妃街５號七樓之２","OBJECTID":345619},"geometry":{"x":169092.45000000112,"y":2542552.120000001}},{"attributes":{"ID":345629,"DIS_CODE":0,"TOWNNAME":"中西區","LI":"法華里","LIN":"8鄰","STREET":"五妃街","SECT":" ","MAREA":" ","LANE":" ","ALLEY":" ","HOUSE_NO":"５號八樓之１","E_COORD97":169092.45000000001,"N_COORD97":2542552.1200000001,"ADDRESS":"五妃街５號八樓之１","OBJECTID":345620},"geometry":{"x":169092.45000000112,"y":2542552.120000001}},{"attributes":{"ID":345630,"DIS_CODE":0,"TOWNNAME":"安南區","LI":"溪心里","LIN":"5鄰","STREET":"本原街","SECT":"二段","MAREA":" ","LANE":"１０６巷","ALLEY":" ","HOUSE_NO":"４５號","E_COORD97":166893.60000000001,"N_COORD97":2550880.2799999998,"ADDRESS":"本原街二段１０６巷４５號","OBJECTID":345621},"geometry":{"x":166893.60000000056,"y":2550880.2800000031}},{"attributes":{"ID":345631,"DIS_CODE":0,"TOWNNAME":"安南區","LI":"溪心里","LIN":"5鄰","STREET":"本原街","SECT":"二段","MAREA":" ","LANE":"１０６巷","ALLEY":" ","HOUSE_NO":"４７號","E_COORD97":166900.42999999999,"N_COORD97":2550881.23,"ADDRESS":"本原街二段１０６巷４７號","OBJECTID":345622},"geometry":{"x":166900.43000000063,"y":2550881.2300000004}},{"attributes":{"ID":345632,"DIS_CODE":0,"TOWNNAME":"安南區","LI":"佃東里","LIN":"5鄰","STREET":"公學路","SECT":"四段","MAREA":" ","LANE":"１２２巷","ALLEY":" ","HOUSE_NO":"２１號之１","E_COORD97":165574.32999999999,"N_COORD97":2552151.9900000002,"ADDRESS":"公學路四段１２２巷２１號之１","OBJECTID":345623},"geometry":{"x":165574.33000000007,"y":2552151.9900000021}},{"attributes":{"ID":345633,"DIS_CODE":0,"TOWNNAME":"白河區","LI":"汴頭里","LIN":"5鄰","STREET":" ","SECT":" ","MAREA":"林子內","LANE":" ","ALLEY":" ","HOUSE_NO":"４５之１０號","E_COORD97":194985.22,"N_COORD97":2585066.3700000001,"ADDRESS":"林子內４５之１０號","OBJECTID":345624},"geometry":{"x":194985.21999999881,"y":2585066.370000001}},{"attributes":{"ID":345634,"DIS_CODE":0,"TOWNNAME":"安南區","LI":"淵中里","LIN":"5鄰","STREET":"安中路","SECT":"四段","MAREA":" ","LANE":"９４巷","ALLEY":" ","HOUSE_NO":"１２號","E_COORD97":165113.72,"N_COORD97":2550059.5699999998,"ADDRESS":"安中路四段９４巷１２號","OBJECTID":345625},"geometry":{"x":165113.71999999974,"y":2550059.5700000022}},{"attributes":{"ID":345635,"DIS_CODE":0,"TOWNNAME":"安南區","LI":"淵中里","LIN":"5鄰","STREET":"安中路","SECT":"四段","MAREA":" ","LANE":"９４巷","ALLEY":" ","HOUSE_NO":"１３號","E_COORD97":165097.98999999999,"N_COORD97":2550064.54,"ADDRESS":"安中路四段９４巷１３號","OBJECTID":345626},"geometry":{"x":165097.99000000115,"y":2550064.5399999972}},{"attributes":{"ID":345636,"DIS_CODE":0,"TOWNNAME":"安南區","LI":"淵中里","LIN":"5鄰","STREET":"安中路","SECT":"四段","MAREA":" ","LANE":"９４巷","ALLEY":" ","HOUSE_NO":"１４號","E_COORD97":165103.39999999999,"N_COORD97":2550066.2400000002,"ADDRESS":"安中路四段９４巷１４號","OBJECTID":345627},"geometry":{"x":165103.40000000037,"y":2550066.2400000002}},{"attributes":{"ID":345637,"DIS_CODE":0,"TOWNNAME":"安南區","LI":"淵中里","LIN":"5鄰","STREET":"安中路","SECT":"四段","MAREA":" ","LANE":"９４巷","ALLEY":" ","HOUSE_NO":"１５號","E_COORD97":165108.23000000001,"N_COORD97":2550069.23,"ADDRESS":"安中路四段９４巷１５號","OBJECTID":345628},"geometry":{"x":165108.22999999952,"y":2550069.2300000023}},{"attributes":{"ID":345638,"DIS_CODE":0,"TOWNNAME":"安南區","LI":"淵中里","LIN":"5鄰","STREET":"安中路","SECT":"四段","MAREA":" ","LANE":"９４巷","ALLEY":" ","HOUSE_NO":"１１號","E_COORD97":165116.44,"N_COORD97":2550053.4900000002,"ADDRESS":"安中路四段９４巷１１號","OBJECTID":345629},"geometry":{"x":165116.44000000041,"y":2550053.4900000021}},{"attributes":{"ID":345639,"DIS_CODE":0,"TOWNNAME":"安南區","LI":"淵中里","LIN":"5鄰","STREET":"安中路","SECT":"四段","MAREA":" ","LANE":"９４巷","ALLEY":" ","HOUSE_NO":"１６號","E_COORD97":165117.76000000001,"N_COORD97":2550083.3700000001,"ADDRESS":"安中路四段９４巷１６號","OBJECTID":345630},"geometry":{"x":165117.76000000071,"y":2550083.370000001}},{"attributes":{"ID":345640,"DIS_CODE":0,"TOWNNAME":"安南區","LI":"城南里","LIN":"5鄰","STREET":"城西街","SECT":"一段","MAREA":" ","LANE":"１９４巷","ALLEY":" ","HOUSE_NO":"１８號","E_COORD97":160414.5,"N_COORD97":2551286.8500000001,"ADDRESS":"城西街一段１９４巷１８號","OBJECTID":345631},"geometry":{"x":160414.50000000093,"y":2551286.8499999978}},{"attributes":{"ID":345641,"DIS_CODE":0,"TOWNNAME":"白河區","LI":"庄內里","LIN":"5鄰","STREET":"自立街","SECT":" ","MAREA":" ","LANE":"１巷","ALLEY":" ","HOUSE_NO":"６號","E_COORD97":190759.76000000001,"N_COORD97":2583458.6499999999,"ADDRESS":"自立街１巷６號","OBJECTID":345632},"geometry":{"x":190759.76000000071,"y":2583458.6500000022}},{"attributes":{"ID":345642,"DIS_CODE":0,"TOWNNAME":"官田區","LI":"隆本里","LIN":"5鄰","STREET":"中華路","SECT":"二段","MAREA":" ","LANE":"１０８巷","ALLEY":" ","HOUSE_NO":"２９號","E_COORD97":180138.45999999999,"N_COORD97":2566548.2599999998,"ADDRESS":"中華路二段１０８巷２９號","OBJECTID":345633},"geometry":{"x":180138.45999999996,"y":2566548.2600000016}},{"attributes":{"ID":345643,"DIS_CODE":0,"TOWNNAME":"安平區","LI":"育平里","LIN":"31鄰","STREET":"健康三街","SECT":" ","MAREA":" ","LANE":"１０７巷","ALLEY":" ","HOUSE_NO":"１９號八樓之４","E_COORD97":164679.60000000001,"N_COORD97":2543139.7799999998,"ADDRESS":"健康三街１０７巷１９號八樓之４","OBJECTID":345634},"geometry":{"x":164679.60000000056,"y":2543139.7799999993}},{"attributes":{"ID":345644,"DIS_CODE":0,"TOWNNAME":"中西區","LI":"法華里","LIN":"8鄰","STREET":"五妃街","SECT":" ","MAREA":" ","LANE":" ","ALLEY":" ","HOUSE_NO":"５號八樓之２","E_COORD97":169092.45000000001,"N_COORD97":2542552.1200000001,"ADDRESS":"五妃街５號八樓之２","OBJECTID":345635},"geometry":{"x":169092.45000000112,"y":2542552.120000001}},{"attributes":{"ID":345645,"DIS_CODE":0,"TOWNNAME":"中西區","LI":"法華里","LIN":"8鄰","STREET":"五妃街","SECT":" ","MAREA":" ","LANE":" ","ALLEY":" ","HOUSE_NO":"５號三樓之１","E_COORD97":169092.45000000001,"N_COORD97":2542552.1200000001,"ADDRESS":"五妃街５號三樓之１","OBJECTID":345636},"geometry":{"x":169092.45000000112,"y":2542552.120000001}},{"attributes":{"ID":345646,"DIS_CODE":0,"TOWNNAME":"中西區","LI":"法華里","LIN":"8鄰","STREET":"五妃街","SECT":" ","MAREA":" ","LANE":" ","ALLEY":" ","HOUSE_NO":"５號三樓之２","E_COORD97":169092.45000000001,"N_COORD97":2542552.1200000001,"ADDRESS":"五妃街５號三樓之２","OBJECTID":345637},"geometry":{"x":169092.45000000112,"y":2542552.120000001}},{"attributes":{"ID":345647,"DIS_CODE":0,"TOWNNAME":"中西區","LI":"法華里","LIN":"8鄰","STREET":"五妃街","SECT":" ","MAREA":" ","LANE":" ","ALLEY":" ","HOUSE_NO":"５號五樓之１","E_COORD97":169092.45000000001,"N_COORD97":2542552.1200000001,"ADDRESS":"五妃街５號五樓之１","OBJECTID":345638},"geometry":{"x":169092.45000000112,"y":2542552.120000001}},{"attributes":{"ID":345648,"DIS_CODE":0,"TOWNNAME":"中西區","LI":"法華里","LIN":"8鄰","STREET":"五妃街","SECT":" ","MAREA":" ","LANE":" ","ALLEY":" ","HOUSE_NO":"５號五樓之２","E_COORD97":169092.45000000001,"N_COORD97":2542552.1200000001,"ADDRESS":"五妃街５號五樓之２","OBJECTID":345639},"geometry":{"x":169092.45000000112,"y":2542552.120000001}},{"attributes":{"ID":345649,"DIS_CODE":0,"TOWNNAME":"中西區","LI":"法華里","LIN":"8鄰","STREET":"五妃街","SECT":" ","MAREA":" ","LANE":" ","ALLEY":" ","HOUSE_NO":"５號六樓之１","E_COORD97":169092.45000000001,"N_COORD97":2542552.1200000001,"ADDRESS":"五妃街５號六樓之１","OBJECTID":345640},"geometry":{"x":169092.45000000112,"y":2542552.120000001}},{"attributes":{"ID":345650,"DIS_CODE":0,"TOWNNAME":"中西區","LI":"法華里","LIN":"8鄰","STREET":"五妃街","SECT":" ","MAREA":" ","LANE":" ","ALLEY":" ","HOUSE_NO":"５號六樓之２","E_COORD97":169092.45000000001,"N_COORD97":2542552.1200000001,"ADDRESS":"五妃街５號六樓之２","OBJECTID":345641},"geometry":{"x":169092.45000000112,"y":2542552.120000001}},{"attributes":{"ID":345651,"DIS_CODE":0,"TOWNNAME":"中西區","LI":"法華里","LIN":"8鄰","STREET":"五妃街","SECT":" ","MAREA":" ","LANE":" ","ALLEY":" ","HOUSE_NO":"５號四樓之１","E_COORD97":169092.45000000001,"N_COORD97":2542552.1200000001,"ADDRESS":"五妃街５號四樓之１","OBJECTID":345642},"geometry":{"x":169092.45000000112,"y":2542552.120000001}},{"attributes":{"ID":345652,"DIS_CODE":0,"TOWNNAME":"中西區","LI":"法華里","LIN":"8鄰","STREET":"五妃街","SECT":" ","MAREA":" ","LANE":" ","ALLEY":" ","HOUSE_NO":"５號四樓之２","E_COORD97":169092.45000000001,"N_COORD97":2542552.1200000001,"ADDRESS":"五妃街５號四樓之２","OBJECTID":345643},"geometry":{"x":169092.45000000112,"y":2542552.120000001}},{"attributes":{"ID":345653,"DIS_CODE":0,"TOWNNAME":"中西區","LI":"民主里","LIN":"8鄰","STREET":"府前路","SECT":"二段","MAREA":" ","LANE":" ","ALLEY":" ","HOUSE_NO":"１７６號六樓之１４","E_COORD97":167342.12,"N_COORD97":2543566.2999999998,"ADDRESS":"府前路二段１７６號六樓之１４","OBJECTID":345644},"geometry":{"x":167342.12000000104,"y":2543566.3000000026}},{"attributes":{"ID":345654,"DIS_CODE":0,"TOWNNAME":"中西區","LI":"民主里","LIN":"8鄰","STREET":"府前路","SECT":"二段","MAREA":" ","LANE":" ","ALLEY":" ","HOUSE_NO":"１７６號七樓之１","E_COORD97":167342.12,"N_COORD97":2543566.2999999998,"ADDRESS":"府前路二段１７６號七樓之１","OBJECTID":345645},"geometry":{"x":167342.12000000104,"y":2543566.3000000026}},{"attributes":{"ID":345655,"DIS_CODE":0,"TOWNNAME":"中西區","LI":"民主里","LIN":"8鄰","STREET":"府前路","SECT":"二段","MAREA":" ","LANE":" ","ALLEY":" ","HOUSE_NO":"１７６號七樓之１０","E_COORD97":167342.12,"N_COORD97":2543566.2999999998,"ADDRESS":"府前路二段１７６號七樓之１０","OBJECTID":345646},"geometry":{"x":167342.12000000104,"y":2543566.3000000026}},{"attributes":{"ID":345656,"DIS_CODE":0,"TOWNNAME":"中西區","LI":"民主里","LIN":"8鄰","STREET":"府前路","SECT":"二段","MAREA":" ","LANE":" ","ALLEY":" ","HOUSE_NO":"１７６號七樓之１１","E_COORD97":167342.12,"N_COORD97":2543566.2999999998,"ADDRESS":"府前路二段１７６號七樓之１１","OBJECTID":345647},"geometry":{"x":167342.12000000104,"y":2543566.3000000026}},{"attributes":{"ID":345657,"DIS_CODE":0,"TOWNNAME":"官田區","LI":"隆本里","LIN":"5鄰","STREET":"中華路","SECT":"二段","MAREA":" ","LANE":"１０８巷","ALLEY":" ","HOUSE_NO":"３３號","E_COORD97":180171.53,"N_COORD97":2566550.4100000001,"ADDRESS":"中華路二段１０８巷３３號","OBJECTID":345648},"geometry":{"x":180171.53000000119,"y":2566550.4100000001}},{"attributes":{"ID":345658,"DIS_CODE":0,"TOWNNAME":"官田區","LI":"隆本里","LIN":"5鄰","STREET":"中華路","SECT":"二段","MAREA":" ","LANE":"１０８巷","ALLEY":" ","HOUSE_NO":"３５號","E_COORD97":180175.95999999999,"N_COORD97":2566550.3100000001,"ADDRESS":"中華路二段１０８巷３５號","OBJECTID":345649},"geometry":{"x":180175.95999999996,"y":2566550.3100000005}},{"attributes":{"ID":345659,"DIS_CODE":0,"TOWNNAME":"官田區","LI":"隆本里","LIN":"5鄰","STREET":"中華路","SECT":"二段","MAREA":" ","LANE":"１０８巷","ALLEY":" ","HOUSE_NO":"３７號","E_COORD97":180180.28,"N_COORD97":2566550.8300000001,"ADDRESS":"中華路二段１０８巷３７號","OBJECTID":345650},"geometry":{"x":180180.28000000119,"y":2566550.8300000001}},{"attributes":{"ID":345660,"DIS_CODE":0,"TOWNNAME":"官田區","LI":"隆本里","LIN":"5鄰","STREET":"中華路","SECT":"二段","MAREA":" ","LANE":"１０８巷","ALLEY":" ","HOUSE_NO":"３９號","E_COORD97":180184.51999999999,"N_COORD97":2566551.4300000002,"ADDRESS":"中華路二段１０８巷３９號","OBJECTID":345651},"geometry":{"x":180184.52000000048,"y":2566551.4300000016}},{"attributes":{"ID":345661,"DIS_CODE":0,"TOWNNAME":"官田區","LI":"隆本里","LIN":"5鄰","STREET":"中華路","SECT":"二段","MAREA":" ","LANE":"１０８巷","ALLEY":" ","HOUSE_NO":"４１號","E_COORD97":180188.64000000001,"N_COORD97":2566552.0499999998,"ADDRESS":"中華路二段１０８巷４１號","OBJECTID":345652},"geometry":{"x":180188.64000000153,"y":2566552.0500000026}},{"attributes":{"ID":345662,"DIS_CODE":0,"TOWNNAME":"官田區","LI":"隆本里","LIN":"5鄰","STREET":"中華路","SECT":"二段","MAREA":" ","LANE":"１０８巷","ALLEY":" ","HOUSE_NO":"４３號","E_COORD97":180193.35999999999,"N_COORD97":2566552.3599999999,"ADDRESS":"中華路二段１０８巷４３號","OBJECTID":345653},"geometry":{"x":180193.36000000127,"y":2566552.3599999994}},{"attributes":{"ID":345663,"DIS_CODE":0,"TOWNNAME":"官田區","LI":"隆本里","LIN":"5鄰","STREET":"中華路","SECT":"二段","MAREA":" ","LANE":"１０８巷","ALLEY":" ","HOUSE_NO":"４５號","E_COORD97":180197.34,"N_COORD97":2566553.02,"ADDRESS":"中華路二段１０８巷４５號","OBJECTID":345654},"geometry":{"x":180197.33999999985,"y":2566553.0200000014}},{"attributes":{"ID":345664,"DIS_CODE":0,"TOWNNAME":"官田區","LI":"隆本里","LIN":"5鄰","STREET":"中華路","SECT":"二段","MAREA":" ","LANE":"１０８巷","ALLEY":" ","HOUSE_NO":"４７號","E_COORD97":180203.14000000001,"N_COORD97":2566553.96,"ADDRESS":"中華路二段１０８巷４７號","OBJECTID":345655},"geometry":{"x":180203.13999999966,"y":2566553.9600000009}},{"attributes":{"ID":345665,"DIS_CODE":0,"TOWNNAME":"安平區","LI":"育平里","LIN":"31鄰","STREET":"健康三街","SECT":" ","MAREA":" ","LANE":"１０７巷","ALLEY":" ","HOUSE_NO":"１９號八樓之５","E_COORD97":164679.60000000001,"N_COORD97":2543139.7799999998,"ADDRESS":"健康三街１０７巷１９號八樓之５","OBJECTID":345656},"geometry":{"x":164679.60000000056,"y":2543139.7799999993}},{"attributes":{"ID":345666,"DIS_CODE":0,"TOWNNAME":"安平區","LI":"育平里","LIN":"31鄰","STREET":"健康三街","SECT":" ","MAREA":" ","LANE":"１０７巷","ALLEY":" ","HOUSE_NO":"１９號八樓之６","E_COORD97":164679.60000000001,"N_COORD97":2543139.7799999998,"ADDRESS":"健康三街１０７巷１９號八樓之６","OBJECTID":345657},"geometry":{"x":164679.60000000056,"y":2543139.7799999993}},{"attributes":{"ID":345667,"DIS_CODE":0,"TOWNNAME":"安平區","LI":"育平里","LIN":"31鄰","STREET":"健康三街","SECT":" ","MAREA":" ","LANE":"１０７巷","ALLEY":" ","HOUSE_NO":"１９號八樓之７","E_COORD97":164679.60000000001,"N_COORD97":2543139.7799999998,"ADDRESS":"健康三街１０７巷１９號八樓之７","OBJECTID":345658},"geometry":{"x":164679.60000000056,"y":2543139.7799999993}},{"attributes":{"ID":345668,"DIS_CODE":0,"TOWNNAME":"安平區","LI":"育平里","LIN":"31鄰","STREET":"健康三街","SECT":" ","MAREA":" ","LANE":"１０７巷","ALLEY":" ","HOUSE_NO":"１９號三樓之１","E_COORD97":164679.60000000001,"N_COORD97":2543139.7799999998,"ADDRESS":"健康三街１０７巷１９號三樓之１","OBJECTID":345659},"geometry":{"x":164679.60000000056,"y":2543139.7799999993}},{"attributes":{"ID":345669,"DIS_CODE":0,"TOWNNAME":"安平區","LI":"育平里","LIN":"31鄰","STREET":"健康三街","SECT":" ","MAREA":" ","LANE":"１０７巷","ALLEY":" ","HOUSE_NO":"１９號三樓之２","E_COORD97":164679.60000000001,"N_COORD97":2543139.7799999998,"ADDRESS":"健康三街１０７巷１９號三樓之２","OBJECTID":345660},"geometry":{"x":164679.60000000056,"y":2543139.7799999993}},{"attributes":{"ID":345670,"DIS_CODE":0,"TOWNNAME":"安平區","LI":"育平里","LIN":"31鄰","STREET":"健康三街","SECT":" ","MAREA":" ","LANE":"１０７巷","ALLEY":" ","HOUSE_NO":"１９號三樓之３","E_COORD97":164679.60000000001,"N_COORD97":2543139.7799999998,"ADDRESS":"健康三街１０７巷１９號三樓之３","OBJECTID":345661},"geometry":{"x":164679.60000000056,"y":2543139.7799999993}},{"attributes":{"ID":345671,"DIS_CODE":0,"TOWNNAME":"安平區","LI":"育平里","LIN":"31鄰","STREET":"健康三街","SECT":" ","MAREA":" ","LANE":"１０７巷","ALLEY":" ","HOUSE_NO":"１９號三樓之４","E_COORD97":164679.60000000001,"N_COORD97":2543139.7799999998,"ADDRESS":"健康三街１０７巷１９號三樓之４","OBJECTID":345662},"geometry":{"x":164679.60000000056,"y":2543139.7799999993}},{"attributes":{"ID":345672,"DIS_CODE":0,"TOWNNAME":"東區","LI":"崇文里","LIN":"31鄰","STREET":"生產路","SECT":" ","MAREA":" ","LANE":"２９７巷","ALLEY":" ","HOUSE_NO":"３９號","E_COORD97":170973.45999999999,"N_COORD97":2540736.8700000001,"ADDRESS":"生產路２９７巷３９號","OBJECTID":345663},"geometry":{"x":170973.46000000089,"y":2540736.870000001}},{"attributes":{"ID":345673,"DIS_CODE":0,"TOWNNAME":"安平區","LI":"育平里","LIN":"31鄰","STREET":"健康三街","SECT":" ","MAREA":" ","LANE":"１０７巷","ALLEY":" ","HOUSE_NO":"１９號三樓之５","E_COORD97":164679.60000000001,"N_COORD97":2543139.7799999998,"ADDRESS":"健康三街１０７巷１９號三樓之５","OBJECTID":345664},"geometry":{"x":164679.60000000056,"y":2543139.7799999993}},{"attributes":{"ID":345674,"DIS_CODE":0,"TOWNNAME":"安平區","LI":"育平里","LIN":"31鄰","STREET":"健康三街","SECT":" ","MAREA":" ","LANE":"１０７巷","ALLEY":" ","HOUSE_NO":"１９號三樓之６","E_COORD97":164679.60000000001,"N_COORD97":2543139.7799999998,"ADDRESS":"健康三街１０７巷１９號三樓之６","OBJECTID":345665},"geometry":{"x":164679.60000000056,"y":2543139.7799999993}},{"attributes":{"ID":345675,"DIS_CODE":0,"TOWNNAME":"安平區","LI":"育平里","LIN":"31鄰","STREET":"健康三街","SECT":" ","MAREA":" ","LANE":"１０７巷","ALLEY":" ","HOUSE_NO":"１９號三樓之７","E_COORD97":164679.60000000001,"N_COORD97":2543139.7799999998,"ADDRESS":"健康三街１０７巷１９號三樓之７","OBJECTID":345666},"geometry":{"x":164679.60000000056,"y":2543139.7799999993}},{"attributes":{"ID":345676,"DIS_CODE":0,"TOWNNAME":"安平區","LI":"育平里","LIN":"31鄰","STREET":"健康三街","SECT":" ","MAREA":" ","LANE":"１０７巷","ALLEY":" ","HOUSE_NO":"１９號五樓之１","E_COORD97":164679.60000000001,"N_COORD97":2543139.7799999998,"ADDRESS":"健康三街１０７巷１９號五樓之１","OBJECTID":345667},"geometry":{"x":164679.60000000056,"y":2543139.7799999993}},{"attributes":{"ID":345677,"DIS_CODE":0,"TOWNNAME":"安平區","LI":"育平里","LIN":"31鄰","STREET":"健康三街","SECT":" ","MAREA":" ","LANE":"１０７巷","ALLEY":" ","HOUSE_NO":"１９號五樓之２","E_COORD97":164679.60000000001,"N_COORD97":2543139.7799999998,"ADDRESS":"健康三街１０７巷１９號五樓之２","OBJECTID":345668},"geometry":{"x":164679.60000000056,"y":2543139.7799999993}},{"attributes":{"ID":345678,"DIS_CODE":0,"TOWNNAME":"安平區","LI":"育平里","LIN":"31鄰","STREET":"健康三街","SECT":" ","MAREA":" ","LANE":"１０７巷","ALLEY":" ","HOUSE_NO":"１９號五樓之３","E_COORD97":164679.60000000001,"N_COORD97":2543139.7799999998,"ADDRESS":"健康三街１０７巷１９號五樓之３","OBJECTID":345669},"geometry":{"x":164679.60000000056,"y":2543139.7799999993}},{"attributes":{"ID":345679,"DIS_CODE":0,"TOWNNAME":"中西區","LI":"民主里","LIN":"8鄰","STREET":"府前路","SECT":"二段","MAREA":" ","LANE":" ","ALLEY":" ","HOUSE_NO":"１７６號七樓之１２","E_COORD97":167342.12,"N_COORD97":2543566.2999999998,"ADDRESS":"府前路二段１７６號七樓之１２","OBJECTID":345670},"geometry":{"x":167342.12000000104,"y":2543566.3000000026}},{"attributes":{"ID":345680,"DIS_CODE":0,"TOWNNAME":"中西區","LI":"民主里","LIN":"8鄰","STREET":"府前路","SECT":"二段","MAREA":" ","LANE":" ","ALLEY":" ","HOUSE_NO":"１７６號七樓之１３","E_COORD97":167342.12,"N_COORD97":2543566.2999999998,"ADDRESS":"府前路二段１７６號七樓之１３","OBJECTID":345671},"geometry":{"x":167342.12000000104,"y":2543566.3000000026}},{"attributes":{"ID":345681,"DIS_CODE":0,"TOWNNAME":"中西區","LI":"民主里","LIN":"8鄰","STREET":"府前路","SECT":"二段","MAREA":" ","LANE":" ","ALLEY":" ","HOUSE_NO":"１７６號七樓之１４","E_COORD97":167342.12,"N_COORD97":2543566.2999999998,"ADDRESS":"府前路二段１７６號七樓之１４","OBJECTID":345672},"geometry":{"x":167342.12000000104,"y":2543566.3000000026}},{"attributes":{"ID":345682,"DIS_CODE":0,"TOWNNAME":"中西區","LI":"民主里","LIN":"8鄰","STREET":"府前路","SECT":"二段","MAREA":" ","LANE":" ","ALLEY":" ","HOUSE_NO":"１７６號七樓之２","E_COORD97":167342.12,"N_COORD97":2543566.2999999998,"ADDRESS":"府前路二段１７６號七樓之２","OBJECTID":345673},"geometry":{"x":167342.12000000104,"y":2543566.3000000026}},{"attributes":{"ID":345683,"DIS_CODE":0,"TOWNNAME":"中西區","LI":"民主里","LIN":"8鄰","STREET":"府前路","SECT":"二段","MAREA":" ","LANE":" ","ALLEY":" ","HOUSE_NO":"１７６號七樓之３","E_COORD97":167342.12,"N_COORD97":2543566.2999999998,"ADDRESS":"府前路二段１７６號七樓之３","OBJECTID":345674},"geometry":{"x":167342.12000000104,"y":2543566.3000000026}},{"attributes":{"ID":345684,"DIS_CODE":0,"TOWNNAME":"中西區","LI":"民主里","LIN":"8鄰","STREET":"府前路","SECT":"二段","MAREA":" ","LANE":" ","ALLEY":" ","HOUSE_NO":"１７６號七樓之４","E_COORD97":167342.12,"N_COORD97":2543566.2999999998,"ADDRESS":"府前路二段１７６號七樓之４","OBJECTID":345675},"geometry":{"x":167342.12000000104,"y":2543566.3000000026}},{"attributes":{"ID":345685,"DIS_CODE":0,"TOWNNAME":"中西區","LI":"民主里","LIN":"8鄰","STREET":"府前路","SECT":"二段","MAREA":" ","LANE":" ","ALLEY":" ","HOUSE_NO":"１７６號七樓之５","E_COORD97":167342.12,"N_COORD97":2543566.2999999998,"ADDRESS":"府前路二段１７６號七樓之５","OBJECTID":345676},"geometry":{"x":167342.12000000104,"y":2543566.3000000026}},{"attributes":{"ID":345686,"DIS_CODE":0,"TOWNNAME":"官田區","LI":"隆本里","LIN":"5鄰","STREET":"中華路","SECT":"二段","MAREA":" ","LANE":"１３２巷","ALLEY":" ","HOUSE_NO":"１６號","E_COORD97":180091.04000000001,"N_COORD97":2566609.29,"ADDRESS":"中華路二段１３２巷１６號","OBJECTID":345677},"geometry":{"x":180091.04000000004,"y":2566609.290000001}},{"attributes":{"ID":345687,"DIS_CODE":0,"TOWNNAME":"官田區","LI":"隆本里","LIN":"5鄰","STREET":"中華路","SECT":"二段","MAREA":" ","LANE":"１０８巷","ALLEY":" ","HOUSE_NO":"５１號","E_COORD97":180235.22,"N_COORD97":2566557.7999999998,"ADDRESS":"中華路二段１０８巷５１號","OBJECTID":345678},"geometry":{"x":180235.21999999974,"y":2566557.8000000007}},{"attributes":{"ID":345688,"DIS_CODE":0,"TOWNNAME":"官田區","LI":"隆本里","LIN":"5鄰","STREET":"中華路","SECT":"二段","MAREA":" ","LANE":"１０８巷","ALLEY":" ","HOUSE_NO":"５３號","E_COORD97":180239.56,"N_COORD97":2566558.0299999998,"ADDRESS":"中華路二段１０８巷５３號","OBJECTID":345679},"geometry":{"x":180239.55999999959,"y":2566558.0299999993}},{"attributes":{"ID":345689,"DIS_CODE":0,"TOWNNAME":"安平區","LI":"育平里","LIN":"31鄰","STREET":"健康三街","SECT":" ","MAREA":" ","LANE":"１０７巷","ALLEY":" ","HOUSE_NO":"１９號五樓之４","E_COORD97":164679.60000000001,"N_COORD97":2543139.7799999998,"ADDRESS":"健康三街１０７巷１９號五樓之４","OBJECTID":345680},"geometry":{"x":164679.60000000056,"y":2543139.7799999993}},{"attributes":{"ID":345690,"DIS_CODE":0,"TOWNNAME":"安平區","LI":"育平里","LIN":"31鄰","STREET":"健康三街","SECT":" ","MAREA":" ","LANE":"１０７巷","ALLEY":" ","HOUSE_NO":"１９號五樓之５","E_COORD97":164679.60000000001,"N_COORD97":2543139.7799999998,"ADDRESS":"健康三街１０７巷１９號五樓之５","OBJECTID":345681},"geometry":{"x":164679.60000000056,"y":2543139.7799999993}},{"attributes":{"ID":345691,"DIS_CODE":0,"TOWNNAME":"安平區","LI":"育平里","LIN":"31鄰","STREET":"健康三街","SECT":" ","MAREA":" ","LANE":"１０７巷","ALLEY":" ","HOUSE_NO":"１９號五樓之６","E_COORD97":164679.60000000001,"N_COORD97":2543139.7799999998,"ADDRESS":"健康三街１０７巷１９號五樓之６","OBJECTID":345682},"geometry":{"x":164679.60000000056,"y":2543139.7799999993}},{"attributes":{"ID":345692,"DIS_CODE":0,"TOWNNAME":"安平區","LI":"育平里","LIN":"31鄰","STREET":"健康三街","SECT":" ","MAREA":" ","LANE":"１０７巷","ALLEY":" ","HOUSE_NO":"１９號五樓之７","E_COORD97":164679.60000000001,"N_COORD97":2543139.7799999998,"ADDRESS":"健康三街１０７巷１９號五樓之７","OBJECTID":345683},"geometry":{"x":164679.60000000056,"y":2543139.7799999993}},{"attributes":{"ID":345693,"DIS_CODE":0,"TOWNNAME":"安平區","LI":"育平里","LIN":"31鄰","STREET":"健康三街","SECT":" ","MAREA":" ","LANE":"１０７巷","ALLEY":" ","HOUSE_NO":"１９號六樓之１","E_COORD97":164679.60000000001,"N_COORD97":2543139.7799999998,"ADDRESS":"健康三街１０７巷１９號六樓之１","OBJECTID":345684},"geometry":{"x":164679.60000000056,"y":2543139.7799999993}},{"attributes":{"ID":345694,"DIS_CODE":0,"TOWNNAME":"安平區","LI":"育平里","LIN":"31鄰","STREET":"健康三街","SECT":" ","MAREA":" ","LANE":"１０７巷","ALLEY":" ","HOUSE_NO":"１９號六樓之２","E_COORD97":164679.60000000001,"N_COORD97":2543139.7799999998,"ADDRESS":"健康三街１０７巷１９號六樓之２","OBJECTID":345685},"geometry":{"x":164679.60000000056,"y":2543139.7799999993}},{"attributes":{"ID":345695,"DIS_CODE":0,"TOWNNAME":"安平區","LI":"育平里","LIN":"31鄰","STREET":"健康三街","SECT":" ","MAREA":" ","LANE":"１０７巷","ALLEY":" ","HOUSE_NO":"１９號六樓之３","E_COORD97":164679.60000000001,"N_COORD97":2543139.7799999998,"ADDRESS":"健康三街１０７巷１９號六樓之３","OBJECTID":345686},"geometry":{"x":164679.60000000056,"y":2543139.7799999993}},{"attributes":{"ID":345696,"DIS_CODE":0,"TOWNNAME":"安平區","LI":"育平里","LIN":"31鄰","STREET":"健康三街","SECT":" ","MAREA":" ","LANE":"１０７巷","ALLEY":" ","HOUSE_NO":"１９號六樓之４","E_COORD97":164679.60000000001,"N_COORD97":2543139.7799999998,"ADDRESS":"健康三街１０７巷１９號六樓之４","OBJECTID":345687},"geometry":{"x":164679.60000000056,"y":2543139.7799999993}},{"attributes":{"ID":345697,"DIS_CODE":0,"TOWNNAME":"安平區","LI":"育平里","LIN":"31鄰","STREET":"健康三街","SECT":" ","MAREA":" ","LANE":"１０７巷","ALLEY":" ","HOUSE_NO":"１９號六樓之５","E_COORD97":164679.60000000001,"N_COORD97":2543139.7799999998,"ADDRESS":"健康三街１０７巷１９號六樓之５","OBJECTID":345688},"geometry":{"x":164679.60000000056,"y":2543139.7799999993}},{"attributes":{"ID":345698,"DIS_CODE":0,"TOWNNAME":"安平區","LI":"育平里","LIN":"31鄰","STREET":"健康三街","SECT":" ","MAREA":" ","LANE":"１０７巷","ALLEY":" ","HOUSE_NO":"１９號六樓之６","E_COORD97":164679.60000000001,"N_COORD97":2543139.7799999998,"ADDRESS":"健康三街１０７巷１９號六樓之６","OBJECTID":345689},"geometry":{"x":164679.60000000056,"y":2543139.7799999993}},{"attributes":{"ID":345699,"DIS_CODE":0,"TOWNNAME":"東區","LI":"崇文里","LIN":"31鄰","STREET":"生產路","SECT":" ","MAREA":" ","LANE":"２９７巷","ALLEY":" ","HOUSE_NO":"３７號","E_COORD97":170973.35999999999,"N_COORD97":2540732.5,"ADDRESS":"生產路２９７巷３７號","OBJECTID":345690},"geometry":{"x":170973.36000000127,"y":2540732.5000000019}},{"attributes":{"ID":345700,"DIS_CODE":0,"TOWNNAME":"東區","LI":"崇文里","LIN":"31鄰","STREET":"生產路","SECT":" ","MAREA":" ","LANE":"２９７巷","ALLEY":" ","HOUSE_NO":"３８號","E_COORD97":170998.51999999999,"N_COORD97":2540719.1400000001,"ADDRESS":"生產路２９７巷３８號","OBJECTID":345691},"geometry":{"x":170998.52000000048,"y":2540719.1400000025}},{"attributes":{"ID":345701,"DIS_CODE":0,"TOWNNAME":"東區","LI":"崇文里","LIN":"31鄰","STREET":"生產路","SECT":" ","MAREA":" ","LANE":"２９７巷","ALLEY":" ","HOUSE_NO":"４０號","E_COORD97":170998.51999999999,"N_COORD97":2540723.2200000002,"ADDRESS":"生產路２９７巷４０號","OBJECTID":345692},"geometry":{"x":170998.52000000048,"y":2540723.2200000007}},{"attributes":{"ID":345702,"DIS_CODE":0,"TOWNNAME":"東區","LI":"崇文里","LIN":"31鄰","STREET":"生產路","SECT":" ","MAREA":" ","LANE":"２９７巷","ALLEY":" ","HOUSE_NO":"４１號","E_COORD97":170973.45999999999,"N_COORD97":2540741.1499999999,"ADDRESS":"生產路２９７巷４１號","OBJECTID":345693},"geometry":{"x":170973.46000000089,"y":2540741.1500000004}},{"attributes":{"ID":345703,"DIS_CODE":0,"TOWNNAME":"東區","LI":"崇文里","LIN":"31鄰","STREET":"生產路","SECT":" ","MAREA":" ","LANE":"２９７巷","ALLEY":" ","HOUSE_NO":"４２號","E_COORD97":170998.62,"N_COORD97":2540728.0899999999,"ADDRESS":"生產路２９７巷４２號","OBJECTID":345694},"geometry":{"x":170998.62000000104,"y":2540728.0900000036}},{"attributes":{"ID":345704,"DIS_CODE":0,"TOWNNAME":"東區","LI":"崇文里","LIN":"31鄰","STREET":"生產路","SECT":" ","MAREA":" ","LANE":"２９７巷","ALLEY":" ","HOUSE_NO":"４３號","E_COORD97":170973.45999999999,"N_COORD97":2540745.73,"ADDRESS":"生產路２９７巷４３號","OBJECTID":345695},"geometry":{"x":170973.46000000089,"y":2540745.7300000023}},{"attributes":{"ID":345705,"DIS_CODE":0,"TOWNNAME":"東區","LI":"崇文里","LIN":"31鄰","STREET":"生產路","SECT":" ","MAREA":" ","LANE":"２９７巷","ALLEY":" ","HOUSE_NO":"４４號","E_COORD97":170998.62,"N_COORD97":2540732.0699999998,"ADDRESS":"生產路２９７巷４４號","OBJECTID":345696},"geometry":{"x":170998.62000000104,"y":2540732.070000004}},{"attributes":{"ID":345706,"DIS_CODE":0,"TOWNNAME":"中西區","LI":"民主里","LIN":"8鄰","STREET":"府前路","SECT":"二段","MAREA":" ","LANE":" ","ALLEY":" ","HOUSE_NO":"１７６號七樓之６","E_COORD97":167342.12,"N_COORD97":2543566.2999999998,"ADDRESS":"府前路二段１７６號七樓之６","OBJECTID":345697},"geometry":{"x":167342.12000000104,"y":2543566.3000000026}},{"attributes":{"ID":345707,"DIS_CODE":0,"TOWNNAME":"中西區","LI":"民主里","LIN":"8鄰","STREET":"府前路","SECT":"二段","MAREA":" ","LANE":" ","ALLEY":" ","HOUSE_NO":"１７６號七樓之７","E_COORD97":167342.12,"N_COORD97":2543566.2999999998,"ADDRESS":"府前路二段１７６號七樓之７","OBJECTID":345698},"geometry":{"x":167342.12000000104,"y":2543566.3000000026}},{"attributes":{"ID":345708,"DIS_CODE":0,"TOWNNAME":"中西區","LI":"民主里","LIN":"8鄰","STREET":"府前路","SECT":"二段","MAREA":" ","LANE":" ","ALLEY":" ","HOUSE_NO":"１７６號七樓之８","E_COORD97":167342.12,"N_COORD97":2543566.2999999998,"ADDRESS":"府前路二段１７６號七樓之８","OBJECTID":345699},"geometry":{"x":167342.12000000104,"y":2543566.3000000026}},{"attributes":{"ID":345709,"DIS_CODE":0,"TOWNNAME":"官田區","LI":"隆本里","LIN":"5鄰","STREET":"中華路","SECT":"二段","MAREA":" ","LANE":"１３２巷","ALLEY":" ","HOUSE_NO":"１０號","E_COORD97":180081.51000000001,"N_COORD97":2566604.21,"ADDRESS":"中華路二段１３２巷１０號","OBJECTID":345700},"geometry":{"x":180081.51000000071,"y":2566604.2100000028}},{"attributes":{"ID":345710,"DIS_CODE":0,"TOWNNAME":"官田區","LI":"隆本里","LIN":"5鄰","STREET":"中華路","SECT":"二段","MAREA":" ","LANE":"１３２巷","ALLEY":" ","HOUSE_NO":"１８號","E_COORD97":180095.19,"N_COORD97":2566609.3900000001,"ADDRESS":"中華路二段１３２巷１８號","OBJECTID":345701},"geometry":{"x":180095.19000000041,"y":2566609.3900000025}},{"attributes":{"ID":345711,"DIS_CODE":0,"TOWNNAME":"官田區","LI":"隆本里","LIN":"5鄰","STREET":"中華路","SECT":"二段","MAREA":" ","LANE":"１３２巷","ALLEY":" ","HOUSE_NO":"２０號","E_COORD97":180099.01999999999,"N_COORD97":2566610.2200000002,"ADDRESS":"中華路二段１３２巷２０號","OBJECTID":345702},"geometry":{"x":180099.01999999955,"y":2566610.2200000044}},{"attributes":{"ID":345712,"DIS_CODE":0,"TOWNNAME":"官田區","LI":"隆本里","LIN":"5鄰","STREET":"中華路","SECT":"二段","MAREA":" ","LANE":"１３２巷","ALLEY":" ","HOUSE_NO":"２２號","E_COORD97":180103.63,"N_COORD97":2566610.8900000001,"ADDRESS":"中華路二段１３２巷２２號","OBJECTID":345703},"geometry":{"x":180103.62999999989,"y":2566610.8900000006}},{"attributes":{"ID":345713,"DIS_CODE":0,"TOWNNAME":"官田區","LI":"隆本里","LIN":"5鄰","STREET":"中華路","SECT":"二段","MAREA":" ","LANE":"１３２巷","ALLEY":" ","HOUSE_NO":"２６號","E_COORD97":180110.63,"N_COORD97":2566611.2599999998,"ADDRESS":"中華路二段１３２巷２６號","OBJECTID":345704},"geometry":{"x":180110.62999999989,"y":2566611.2599999998}},{"attributes":{"ID":345714,"DIS_CODE":0,"TOWNNAME":"官田區","LI":"隆本里","LIN":"5鄰","STREET":"中華路","SECT":"二段","MAREA":" ","LANE":"１３２巷","ALLEY":" ","HOUSE_NO":"２８號","E_COORD97":180115.67999999999,"N_COORD97":2566611.8999999999,"ADDRESS":"中華路二段１３２巷２８號","OBJECTID":345705},"geometry":{"x":180115.68000000063,"y":2566611.9000000041}},{"attributes":{"ID":345715,"DIS_CODE":0,"TOWNNAME":"官田區","LI":"隆本里","LIN":"5鄰","STREET":"中華路","SECT":"二段","MAREA":" ","LANE":"１３２巷","ALLEY":" ","HOUSE_NO":"２號","E_COORD97":180068.03,"N_COORD97":2566602.4100000001,"ADDRESS":"中華路二段１３２巷２號","OBJECTID":345706},"geometry":{"x":180068.03000000119,"y":2566602.410000002}},{"attributes":{"ID":345716,"DIS_CODE":0,"TOWNNAME":"官田區","LI":"隆本里","LIN":"5鄰","STREET":"中華路","SECT":"二段","MAREA":" ","LANE":"１３２巷","ALLEY":" ","HOUSE_NO":"３０號","E_COORD97":180120.47,"N_COORD97":2566612.4500000002,"ADDRESS":"中華路二段１３２巷３０號","OBJECTID":345707},"geometry":{"x":180120.47000000067,"y":2566612.4499999993}},{"attributes":{"ID":345717,"DIS_CODE":0,"TOWNNAME":"官田區","LI":"隆本里","LIN":"5鄰","STREET":"中華路","SECT":"二段","MAREA":" ","LANE":"１３２巷","ALLEY":" ","HOUSE_NO":"３２號","E_COORD97":180166.48999999999,"N_COORD97":2566616.3199999998,"ADDRESS":"中華路二段１３２巷３２號","OBJECTID":345708},"geometry":{"x":180166.49000000209,"y":2566616.3200000022}},{"attributes":{"ID":345718,"DIS_CODE":0,"TOWNNAME":"官田區","LI":"隆本里","LIN":"5鄰","STREET":"中華路","SECT":"二段","MAREA":" ","LANE":"１３２巷","ALLEY":" ","HOUSE_NO":"３６號","E_COORD97":180170.79000000001,"N_COORD97":2566616.4900000002,"ADDRESS":"中華路二段１３２巷３６號","OBJECTID":345709},"geometry":{"x":180170.79000000004,"y":2566616.4900000002}},{"attributes":{"ID":345719,"DIS_CODE":0,"TOWNNAME":"官田區","LI":"隆本里","LIN":"5鄰","STREET":"中華路","SECT":"二段","MAREA":" ","LANE":"１３２巷","ALLEY":" ","HOUSE_NO":"３８號","E_COORD97":180174.92000000001,"N_COORD97":2566617.2200000002,"ADDRESS":"中華路二段１３２巷３８號","OBJECTID":345710},"geometry":{"x":180174.91999999899,"y":2566617.2200000044}},{"attributes":{"ID":345720,"DIS_CODE":0,"TOWNNAME":"官田區","LI":"隆本里","LIN":"5鄰","STREET":"中華路","SECT":"二段","MAREA":" ","LANE":"１３２巷","ALLEY":" ","HOUSE_NO":"４０號","E_COORD97":180179.19,"N_COORD97":2566617.5299999998,"ADDRESS":"中華路二段１３２巷４０號","OBJECTID":345711},"geometry":{"x":180179.19000000134,"y":2566617.5300000012}},{"attributes":{"ID":345721,"DIS_CODE":0,"TOWNNAME":"東區","LI":"崇文里","LIN":"31鄰","STREET":"生產路","SECT":" ","MAREA":" ","LANE":"２９７巷","ALLEY":" ","HOUSE_NO":"４５號","E_COORD97":170973.45999999999,"N_COORD97":2540750,"ADDRESS":"生產路２９７巷４５號","OBJECTID":345712},"geometry":{"x":170973.46000000089,"y":2540750.0000000019}},{"attributes":{"ID":345722,"DIS_CODE":0,"TOWNNAME":"東區","LI":"崇文里","LIN":"31鄰","STREET":"生產路","SECT":" ","MAREA":" ","LANE":"２９７巷","ALLEY":" ","HOUSE_NO":"４６號","E_COORD97":170998.82000000001,"N_COORD97":2540736.7400000002,"ADDRESS":"生產路２９７巷４６號","OBJECTID":345713},"geometry":{"x":170998.82000000123,"y":2540736.7400000002}},{"attributes":{"ID":345723,"DIS_CODE":0,"TOWNNAME":"東區","LI":"崇文里","LIN":"31鄰","STREET":"生產路","SECT":" ","MAREA":" ","LANE":"２９７巷","ALLEY":" ","HOUSE_NO":"４８號","E_COORD97":170998.82000000001,"N_COORD97":2540740.7200000002,"ADDRESS":"生產路２９７巷４８號","OBJECTID":345714},"geometry":{"x":170998.82000000123,"y":2540740.7200000007}},{"attributes":{"ID":345724,"DIS_CODE":0,"TOWNNAME":"中西區","LI":"民主里","LIN":"8鄰","STREET":"府前路","SECT":"二段","MAREA":" ","LANE":" ","ALLEY":" ","HOUSE_NO":"１７６號七樓之９","E_COORD97":167342.12,"N_COORD97":2543566.2999999998,"ADDRESS":"府前路二段１７６號七樓之９","OBJECTID":345715},"geometry":{"x":167342.12000000104,"y":2543566.3000000026}},{"attributes":{"ID":345725,"DIS_CODE":0,"TOWNNAME":"中西區","LI":"民主里","LIN":"8鄰","STREET":"府前路","SECT":"二段","MAREA":" ","LANE":" ","ALLEY":" ","HOUSE_NO":"１７６號九樓","E_COORD97":167342.12,"N_COORD97":2543566.2999999998,"ADDRESS":"府前路二段１７６號九樓","OBJECTID":345716},"geometry":{"x":167342.12000000104,"y":2543566.3000000026}},{"attributes":{"ID":345726,"DIS_CODE":0,"TOWNNAME":"中西區","LI":"民主里","LIN":"8鄰","STREET":"府前路","SECT":"二段","MAREA":" ","LANE":" ","ALLEY":" ","HOUSE_NO":"１７６號八樓之１","E_COORD97":167342.12,"N_COORD97":2543566.2999999998,"ADDRESS":"府前路二段１７６號八樓之１","OBJECTID":345717},"geometry":{"x":167342.12000000104,"y":2543566.3000000026}},{"attributes":{"ID":345727,"DIS_CODE":0,"TOWNNAME":"中西區","LI":"民主里","LIN":"8鄰","STREET":"府前路","SECT":"二段","MAREA":" ","LANE":" ","ALLEY":" ","HOUSE_NO":"１７６號八樓之１０","E_COORD97":167342.12,"N_COORD97":2543566.2999999998,"ADDRESS":"府前路二段１７６號八樓之１０","OBJECTID":345718},"geometry":{"x":167342.12000000104,"y":2543566.3000000026}},{"attributes":{"ID":345728,"DIS_CODE":0,"TOWNNAME":"中西區","LI":"民主里","LIN":"8鄰","STREET":"府前路","SECT":"二段","MAREA":" ","LANE":" ","ALLEY":" ","HOUSE_NO":"１７６號八樓之１１","E_COORD97":167342.12,"N_COORD97":2543566.2999999998,"ADDRESS":"府前路二段１７６號八樓之１１","OBJECTID":345719},"geometry":{"x":167342.12000000104,"y":2543566.3000000026}},{"attributes":{"ID":345729,"DIS_CODE":0,"TOWNNAME":"中西區","LI":"民主里","LIN":"8鄰","STREET":"府前路","SECT":"二段","MAREA":" ","LANE":" ","ALLEY":" ","HOUSE_NO":"１７６號八樓之１２","E_COORD97":167342.12,"N_COORD97":2543566.2999999998,"ADDRESS":"府前路二段１７６號八樓之１２","OBJECTID":345720},"geometry":{"x":167342.12000000104,"y":2543566.3000000026}},{"attributes":{"ID":345730,"DIS_CODE":0,"TOWNNAME":"中西區","LI":"民主里","LIN":"8鄰","STREET":"府前路","SECT":"二段","MAREA":" ","LANE":" ","ALLEY":" ","HOUSE_NO":"１７６號八樓之１３","E_COORD97":167342.12,"N_COORD97":2543566.2999999998,"ADDRESS":"府前路二段１７６號八樓之１３","OBJECTID":345721},"geometry":{"x":167342.12000000104,"y":2543566.3000000026}},{"attributes":{"ID":345731,"DIS_CODE":0,"TOWNNAME":"玉井區","LI":"玉田里","LIN":"31鄰","STREET":"民族路","SECT":" ","MAREA":" ","LANE":"９９巷","ALLEY":" ","HOUSE_NO":"６號","E_COORD97":195246.23999999999,"N_COORD97":2558130.29,"ADDRESS":"民族路９９巷６號","OBJECTID":345722},"geometry":{"x":195246.24000000022,"y":2558130.290000001}},{"attributes":{"ID":345732,"DIS_CODE":0,"TOWNNAME":"中西區","LI":"民主里","LIN":"8鄰","STREET":"府前路","SECT":"二段","MAREA":" ","LANE":" ","ALLEY":" ","HOUSE_NO":"１７６號八樓之１４","E_COORD97":167342.12,"N_COORD97":2543566.2999999998,"ADDRESS":"府前路二段１７６號八樓之１４","OBJECTID":345723},"geometry":{"x":167342.12000000104,"y":2543566.3000000026}},{"attributes":{"ID":345733,"DIS_CODE":0,"TOWNNAME":"中西區","LI":"民主里","LIN":"8鄰","STREET":"府前路","SECT":"二段","MAREA":" ","LANE":" ","ALLEY":" ","HOUSE_NO":"１７６號八樓之２","E_COORD97":167342.12,"N_COORD97":2543566.2999999998,"ADDRESS":"府前路二段１７６號八樓之２","OBJECTID":345724},"geometry":{"x":167342.12000000104,"y":2543566.3000000026}},{"attributes":{"ID":345734,"DIS_CODE":0,"TOWNNAME":"中西區","LI":"民主里","LIN":"8鄰","STREET":"府前路","SECT":"二段","MAREA":" ","LANE":" ","ALLEY":" ","HOUSE_NO":"１７６號八樓之３","E_COORD97":167342.12,"N_COORD97":2543566.2999999998,"ADDRESS":"府前路二段１７６號八樓之３","OBJECTID":345725},"geometry":{"x":167342.12000000104,"y":2543566.3000000026}},{"attributes":{"ID":345735,"DIS_CODE":0,"TOWNNAME":"中西區","LI":"民主里","LIN":"8鄰","STREET":"府前路","SECT":"二段","MAREA":" ","LANE":" ","ALLEY":" ","HOUSE_NO":"１７６號八樓之４","E_COORD97":167342.12,"N_COORD97":2543566.2999999998,"ADDRESS":"府前路二段１７６號八樓之４","OBJECTID":345726},"geometry":{"x":167342.12000000104,"y":2543566.3000000026}},{"attributes":{"ID":345736,"DIS_CODE":0,"TOWNNAME":"官田區","LI":"東庄里","LIN":"5鄰","STREET":" ","SECT":" ","MAREA":"西庄","LANE":" ","ALLEY":" ","HOUSE_NO":"１３７號之１","E_COORD97":178078.466484,"N_COORD97":2565246.14139,"ADDRESS":"西庄１３７號之１","OBJECTID":345727},"geometry":{"x":178078.46648400091,"y":2565246.1413940005}},{"attributes":{"ID":345737,"DIS_CODE":0,"TOWNNAME":"東區","LI":"崇文里","LIN":"31鄰","STREET":"生產路","SECT":" ","MAREA":" ","LANE":"２９７巷","ALLEY":" ","HOUSE_NO":"５０號","E_COORD97":170998.82000000001,"N_COORD97":2540745.29,"ADDRESS":"生產路２９７巷５０號","OBJECTID":345728},"geometry":{"x":170998.82000000123,"y":2540745.2899999991}},{"attributes":{"ID":345738,"DIS_CODE":0,"TOWNNAME":"東區","LI":"崇文里","LIN":"31鄰","STREET":"生產路","SECT":" ","MAREA":" ","LANE":"２９７巷","ALLEY":" ","HOUSE_NO":"５２號","E_COORD97":170999.22,"N_COORD97":2540749.5699999998,"ADDRESS":"生產路２９７巷５２號","OBJECTID":345729},"geometry":{"x":170999.22000000067,"y":2540749.5700000022}},{"attributes":{"ID":345739,"DIS_CODE":0,"TOWNNAME":"永康區","LI":"永康里","LIN":"31鄰","STREET":"永大路","SECT":"三段","MAREA":" ","LANE":"７８巷","ALLEY":" ","HOUSE_NO":"１５號","E_COORD97":174264.22,"N_COORD97":2547765.3300000001,"ADDRESS":"永大路三段７８巷１５號","OBJECTID":345730},"geometry":{"x":174264.21999999974,"y":2547765.3300000038}},{"attributes":{"ID":345740,"DIS_CODE":0,"TOWNNAME":"官田區","LI":"東庄里","LIN":"5鄰","STREET":" ","SECT":" ","MAREA":"西庄","LANE":" ","ALLEY":" ","HOUSE_NO":"１３７號之２","E_COORD97":178070.418741,"N_COORD97":2565245.0830600001,"ADDRESS":"西庄１３７號之２","OBJECTID":345731},"geometry":{"x":178070.41874099988,"y":2565245.0830610022}},{"attributes":{"ID":345741,"DIS_CODE":0,"TOWNNAME":"官田區","LI":"東庄里","LIN":"5鄰","STREET":" ","SECT":" ","MAREA":"西庄","LANE":" ","ALLEY":" ","HOUSE_NO":"１３７號之３","E_COORD97":178065.335956,"N_COORD97":2565244.4480599998,"ADDRESS":"西庄１３７號之３","OBJECTID":345732},"geometry":{"x":178065.33595599979,"y":2565244.4480610024}},{"attributes":{"ID":345742,"DIS_CODE":0,"TOWNNAME":"官田區","LI":"東庄里","LIN":"5鄰","STREET":" ","SECT":" ","MAREA":"西庄","LANE":" ","ALLEY":" ","HOUSE_NO":"１３７號","E_COORD97":178060.67673599999,"N_COORD97":2565243.1780599998,"ADDRESS":"西庄１３７號","OBJECTID":345733},"geometry":{"x":178060.67673599999,"y":2565243.1780620012}},{"attributes":{"ID":345743,"DIS_CODE":0,"TOWNNAME":"官田區","LI":"東庄里","LIN":"5鄰","STREET":" ","SECT":" ","MAREA":"西庄","LANE":" ","ALLEY":" ","HOUSE_NO":"１３８號之１","E_COORD97":178105.89999999999,"N_COORD97":2565252.2400000002,"ADDRESS":"西庄１３８號之１","OBJECTID":345734},"geometry":{"x":178105.90000000224,"y":2565252.2400000002}},{"attributes":{"ID":345744,"DIS_CODE":0,"TOWNNAME":"官田區","LI":"東庄里","LIN":"5鄰","STREET":" ","SECT":" ","MAREA":"西庄","LANE":" ","ALLEY":" ","HOUSE_NO":"１３８號","E_COORD97":178092.32999999999,"N_COORD97":2565256.4300000002,"ADDRESS":"西庄１３８號","OBJECTID":345735},"geometry":{"x":178092.32999999914,"y":2565256.4300000016}},{"attributes":{"ID":345745,"DIS_CODE":0,"TOWNNAME":"官田區","LI":"東庄里","LIN":"5鄰","STREET":" ","SECT":" ","MAREA":"西庄","LANE":" ","ALLEY":" ","HOUSE_NO":"１３９號之１０","E_COORD97":178114.35000000001,"N_COORD97":2565338.3300000001,"ADDRESS":"西庄１３９號之１０","OBJECTID":345736},"geometry":{"x":178114.35000000056,"y":2565338.3300000019}},{"attributes":{"ID":345746,"DIS_CODE":0,"TOWNNAME":"官田區","LI":"東庄里","LIN":"5鄰","STREET":" ","SECT":" ","MAREA":"西庄","LANE":" ","ALLEY":" ","HOUSE_NO":"１３９號之１９","E_COORD97":177966.81,"N_COORD97":2565542.6699999999,"ADDRESS":"西庄１３９號之１９","OBJECTID":345737},"geometry":{"x":177966.81000000052,"y":2565542.6700000018}},{"attributes":{"ID":345747,"DIS_CODE":0,"TOWNNAME":"官田區","LI":"東庄里","LIN":"5鄰","STREET":" ","SECT":" ","MAREA":"西庄","LANE":" ","ALLEY":" ","HOUSE_NO":"１３９號之２０","E_COORD97":178089.28,"N_COORD97":2565417.5800000001,"ADDRESS":"西庄１３９號之２０","OBJECTID":345738},"geometry":{"x":178089.28000000026,"y":2565417.5800000019}},{"attributes":{"ID":345748,"DIS_CODE":0,"TOWNNAME":"官田區","LI":"東庄里","LIN":"5鄰","STREET":" ","SECT":" ","MAREA":"西庄","LANE":" ","ALLEY":" ","HOUSE_NO":"１３９號之２１","E_COORD97":178194.19,"N_COORD97":2565288.6499999999,"ADDRESS":"西庄１３９號之２１","OBJECTID":345739},"geometry":{"x":178194.19000000134,"y":2565288.6500000022}},{"attributes":{"ID":345749,"DIS_CODE":0,"TOWNNAME":"永康區","LI":"成功里","LIN":"31鄰","STREET":"中華路","SECT":" ","MAREA":" ","LANE":"１３４巷","ALLEY":" ","HOUSE_NO":"７８號","E_COORD97":171861.41,"N_COORD97":2544782.75,"ADDRESS":"中華路１３４巷７８號","OBJECTID":345740},"geometry":{"x":171861.41000000015,"y":2544782.7500000019}},{"attributes":{"ID":345750,"DIS_CODE":0,"TOWNNAME":"仁德區","LI":"仁愛里","LIN":"5鄰","STREET":" ","SECT":" ","MAREA":"仁愛","LANE":" ","ALLEY":" ","HOUSE_NO":"８３號","E_COORD97":170327.81018,"N_COORD97":2539873.8650000002,"ADDRESS":"仁愛８３號","OBJECTID":345741},"geometry":{"x":170327.8101799991,"y":2539873.8650000039}},{"attributes":{"ID":345751,"DIS_CODE":0,"TOWNNAME":"永康區","LI":"成功里","LIN":"31鄰","STREET":"中華一路","SECT":" ","MAREA":" ","LANE":"３９巷","ALLEY":" ","HOUSE_NO":"５２號","E_COORD97":171874.42999999999,"N_COORD97":2544863.5699999998,"ADDRESS":"中華一路３９巷５２號","OBJECTID":345742},"geometry":{"x":171874.4299999997,"y":2544863.5700000003}},{"attributes":{"ID":345752,"DIS_CODE":0,"TOWNNAME":"官田區","LI":"東庄里","LIN":"5鄰","STREET":" ","SECT":" ","MAREA":"西庄","LANE":" ","ALLEY":" ","HOUSE_NO":"１３９號之５２","E_COORD97":177771.26999999999,"N_COORD97":2566043.3700000001,"ADDRESS":"西庄１３９號之５２","OBJECTID":345743},"geometry":{"x":177771.26999999955,"y":2566043.3700000048}},{"attributes":{"ID":345753,"DIS_CODE":0,"TOWNNAME":"仁德區","LI":"仁愛里","LIN":"5鄰","STREET":" ","SECT":" ","MAREA":"仁愛","LANE":" ","ALLEY":" ","HOUSE_NO":"８７號","E_COORD97":170322.30196400001,"N_COORD97":2539851.5249999999,"ADDRESS":"仁愛８７號","OBJECTID":345744},"geometry":{"x":170322.3019640008,"y":2539851.5250000004}},{"attributes":{"ID":345754,"DIS_CODE":0,"TOWNNAME":"仁德區","LI":"仁愛里","LIN":"5鄰","STREET":" ","SECT":" ","MAREA":"仁愛","LANE":" ","ALLEY":" ","HOUSE_NO":"９１號","E_COORD97":170346.45340900001,"N_COORD97":2539851.5249999999,"ADDRESS":"仁愛９１號","OBJECTID":345745},"geometry":{"x":170346.45340900123,"y":2539851.5250000004}},{"attributes":{"ID":345755,"DIS_CODE":0,"TOWNNAME":"仁德區","LI":"土庫里","LIN":"5鄰","STREET":"土庫六街","SECT":" ","MAREA":" ","LANE":"７５巷","ALLEY":" ","HOUSE_NO":"１８號","E_COORD97":174090.73000000001,"N_COORD97":2543225.5,"ADDRESS":"土庫六街７５巷１８號","OBJECTID":345746},"geometry":{"x":174090.73000000045,"y":2543225.5000000019}},{"attributes":{"ID":345756,"DIS_CODE":0,"TOWNNAME":"新市區","LI":"潭頂里","LIN":"14鄰","STREET":" ","SECT":" ","MAREA":"潭頂","LANE":" ","ALLEY":" ","HOUSE_NO":"５２３號","E_COORD97":180410.34,"N_COORD97":2552929,"ADDRESS":"潭頂５２３號","OBJECTID":345747},"geometry":{"x":180410.33999999985,"y":2552929.0000000019}},{"attributes":{"ID":345757,"DIS_CODE":0,"TOWNNAME":"仁德區","LI":"仁義里","LIN":"5鄰","STREET":"中山路","SECT":" ","MAREA":" ","LANE":"３７９巷","ALLEY":" ","HOUSE_NO":"７號","E_COORD97":173890.23000000001,"N_COORD97":2541203.9900000002,"ADDRESS":"中山路３７９巷７號","OBJECTID":345748},"geometry":{"x":173890.23000000138,"y":2541203.9900000039}},{"attributes":{"ID":345758,"DIS_CODE":0,"TOWNNAME":"仁德區","LI":"中生里","LIN":"5鄰","STREET":" ","SECT":" ","MAREA":"中洲","LANE":" ","ALLEY":" ","HOUSE_NO":"１２６號之５","E_COORD97":172903.17999999999,"N_COORD97":2534223.0499999998,"ADDRESS":"中洲１２６號之５","OBJECTID":345749},"geometry":{"x":172903.18000000063,"y":2534223.0500000045}},{"attributes":{"ID":345759,"DIS_CODE":0,"TOWNNAME":"仁德區","LI":"中生里","LIN":"5鄰","STREET":" ","SECT":" ","MAREA":"中洲","LANE":" ","ALLEY":" ","HOUSE_NO":"１３２號之１１","E_COORD97":172511.32000000001,"N_COORD97":2534322.5499999998,"ADDRESS":"中洲１３２號之１１","OBJECTID":345750},"geometry":{"x":172511.3200000003,"y":2534322.5500000026}},{"attributes":{"ID":345760,"DIS_CODE":0,"TOWNNAME":"仁德區","LI":"中生里","LIN":"5鄰","STREET":" ","SECT":" ","MAREA":"中洲","LANE":" ","ALLEY":" ","HOUSE_NO":"１３０號之１０","E_COORD97":172767.07000000001,"N_COORD97":2534377.29,"ADDRESS":"中洲１３０號之１０","OBJECTID":345751},"geometry":{"x":172767.07000000123,"y":2534377.290000001}},{"attributes":{"ID":345761,"DIS_CODE":0,"TOWNNAME":"仁德區","LI":"中生里","LIN":"5鄰","STREET":" ","SECT":" ","MAREA":"中洲","LANE":" ","ALLEY":" ","HOUSE_NO":"１３０之２２號","E_COORD97":172789.62,"N_COORD97":2534436.5499999998,"ADDRESS":"中洲１３０之２２號","OBJECTID":345752},"geometry":{"x":172789.62000000197,"y":2534436.5499999989}},{"attributes":{"ID":345762,"DIS_CODE":0,"TOWNNAME":"仁德區","LI":"一甲里","LIN":"5鄰","STREET":"忠義三街","SECT":" ","MAREA":" ","LANE":"８巷","ALLEY":" ","HOUSE_NO":"２４號","E_COORD97":173667.26000000001,"N_COORD97":2541647.77,"ADDRESS":"忠義三街８巷２４號","OBJECTID":345753},"geometry":{"x":173667.26000000071,"y":2541647.7699999996}},{"attributes":{"ID":345763,"DIS_CODE":0,"TOWNNAME":"仁德區","LI":"大甲里","LIN":"5鄰","STREET":"行大街","SECT":" ","MAREA":" ","LANE":"２８５巷","ALLEY":" ","HOUSE_NO":"３２號","E_COORD97":169730.28,"N_COORD97":2535062.2400000002,"ADDRESS":"行大街２８５巷３２號","OBJECTID":345754},"geometry":{"x":169730.28000000026,"y":2535062.2400000039}},{"attributes":{"ID":345764,"DIS_CODE":0,"TOWNNAME":"新營區","LI":"忠政里","LIN":"31鄰","STREET":"府西路","SECT":" ","MAREA":" ","LANE":"７７巷","ALLEY":" ","HOUSE_NO":"２１號","E_COORD97":179737.67999999999,"N_COORD97":2579140.98,"ADDRESS":"府西路７７巷２１號","OBJECTID":345755},"geometry":{"x":179737.68000000063,"y":2579140.9800000004}},{"attributes":{"ID":345765,"DIS_CODE":0,"TOWNNAME":"新營區","LI":"民榮里","LIN":"31鄰","STREET":"太子路","SECT":" ","MAREA":" ","LANE":"５３巷","ALLEY":" ","HOUSE_NO":"２７號","E_COORD97":178365.48000000001,"N_COORD97":2577957.0299999998,"ADDRESS":"太子路５３巷２７號","OBJECTID":345756},"geometry":{"x":178365.48000000138,"y":2577957.0299999993}},{"attributes":{"ID":345766,"DIS_CODE":0,"TOWNNAME":"新營區","LI":"民榮里","LIN":"31鄰","STREET":"太子路","SECT":" ","MAREA":" ","LANE":"５３巷","ALLEY":" ","HOUSE_NO":"２５號","E_COORD97":178363.45000000001,"N_COORD97":2577960.3599999999,"ADDRESS":"太子路５３巷２５號","OBJECTID":345757},"geometry":{"x":178363.45000000112,"y":2577960.3600000013}},{"attributes":{"ID":345767,"DIS_CODE":0,"TOWNNAME":"中西區","LI":"民主里","LIN":"8鄰","STREET":"府前路","SECT":"二段","MAREA":" ","LANE":" ","ALLEY":" ","HOUSE_NO":"１７６號八樓之５","E_COORD97":167342.12,"N_COORD97":2543566.2999999998,"ADDRESS":"府前路二段１７６號八樓之５","OBJECTID":345758},"geometry":{"x":167342.12000000104,"y":2543566.3000000026}},{"attributes":{"ID":345768,"DIS_CODE":0,"TOWNNAME":"中西區","LI":"民主里","LIN":"8鄰","STREET":"府前路","SECT":"二段","MAREA":" ","LANE":" ","ALLEY":" ","HOUSE_NO":"１７６號八樓之６","E_COORD97":167342.12,"N_COORD97":2543566.2999999998,"ADDRESS":"府前路二段１７６號八樓之６","OBJECTID":345759},"geometry":{"x":167342.12000000104,"y":2543566.3000000026}},{"attributes":{"ID":345769,"DIS_CODE":0,"TOWNNAME":"中西區","LI":"民主里","LIN":"8鄰","STREET":"府前路","SECT":"二段","MAREA":" ","LANE":" ","ALLEY":" ","HOUSE_NO":"１７６號八樓之７","E_COORD97":167342.12,"N_COORD97":2543566.2999999998,"ADDRESS":"府前路二段１７６號八樓之７","OBJECTID":345760},"geometry":{"x":167342.12000000104,"y":2543566.3000000026}},{"attributes":{"ID":345770,"DIS_CODE":0,"TOWNNAME":"中西區","LI":"民主里","LIN":"8鄰","STREET":"府前路","SECT":"二段","MAREA":" ","LANE":" ","ALLEY":" ","HOUSE_NO":"１７６號八樓之８","E_COORD97":167342.12,"N_COORD97":2543566.2999999998,"ADDRESS":"府前路二段１７６號八樓之８","OBJECTID":345761},"geometry":{"x":167342.12000000104,"y":2543566.3000000026}},{"attributes":{"ID":345771,"DIS_CODE":0,"TOWNNAME":"仁德區","LI":"三甲里","LIN":"5鄰","STREET":" ","SECT":" ","MAREA":"三甲子","LANE":" ","ALLEY":" ","HOUSE_NO":"４７號之９","E_COORD97":171894.95000000001,"N_COORD97":2536697.5499999998,"ADDRESS":"三甲子４７號之９","OBJECTID":345762},"geometry":{"x":171894.95000000019,"y":2536697.5500000007}},{"attributes":{"ID":345772,"DIS_CODE":0,"TOWNNAME":"官田區","LI":"官田里","LIN":"5鄰","STREET":" ","SECT":" ","MAREA":"官田","LANE":" ","ALLEY":" ","HOUSE_NO":"４０號","E_COORD97":182514.35999999999,"N_COORD97":2565179.5800000001,"ADDRESS":"官田４０號","OBJECTID":345763},"geometry":{"x":182514.36000000127,"y":2565179.5799999982}},{"attributes":{"ID":345773,"DIS_CODE":0,"TOWNNAME":"官田區","LI":"官田里","LIN":"5鄰","STREET":" ","SECT":" ","MAREA":"官田","LANE":" ","ALLEY":" ","HOUSE_NO":"４７號之１６","E_COORD97":182635.26999999999,"N_COORD97":2565093.8799999999,"ADDRESS":"官田４７號之１６","OBJECTID":345764},"geometry":{"x":182635.26999999862,"y":2565093.879999999}},{"attributes":{"ID":345774,"DIS_CODE":0,"TOWNNAME":"官田區","LI":"官田里","LIN":"5鄰","STREET":" ","SECT":" ","MAREA":"官田","LANE":" ","ALLEY":" ","HOUSE_NO":"４７號之１７","E_COORD97":182636.76999999999,"N_COORD97":2565087.9500000002,"ADDRESS":"官田４７號之１７","OBJECTID":345765},"geometry":{"x":182636.76999999955,"y":2565087.9499999974}},{"attributes":{"ID":345775,"DIS_CODE":0,"TOWNNAME":"官田區","LI":"官田里","LIN":"5鄰","STREET":" ","SECT":" ","MAREA":"官田","LANE":" ","ALLEY":" ","HOUSE_NO":"４７號之１８","E_COORD97":182638.28,"N_COORD97":2565082.02,"ADDRESS":"官田４７號之１８","OBJECTID":345766},"geometry":{"x":182638.28000000119,"y":2565082.0200000014}},{"attributes":{"ID":345776,"DIS_CODE":0,"TOWNNAME":"東區","LI":"德高里","LIN":"5鄰","STREET":"仁和路","SECT":" ","MAREA":" ","LANE":"２５２巷","ALLEY":" ","HOUSE_NO":"６號","E_COORD97":171567.31,"N_COORD97":2540883.5699999998,"ADDRESS":"仁和路２５２巷６號","OBJECTID":345767},"geometry":{"x":171567.31000000145,"y":2540883.5700000003}},{"attributes":{"ID":345777,"DIS_CODE":0,"TOWNNAME":"東區","LI":"虎尾里","LIN":"5鄰","STREET":"富農街","SECT":"一段","MAREA":" ","LANE":"７２巷","ALLEY":" ","HOUSE_NO":"３２之１號","E_COORD97":171623.17000000001,"N_COORD97":2542179.5800000001,"ADDRESS":"富農街一段７２巷３２之１號","OBJECTID":345768},"geometry":{"x":171623.17000000086,"y":2542179.5800000038}},{"attributes":{"ID":345778,"DIS_CODE":0,"TOWNNAME":"官田區","LI":"官田里","LIN":"5鄰","STREET":" ","SECT":" ","MAREA":"官田","LANE":" ","ALLEY":" ","HOUSE_NO":"４７號之１","E_COORD97":182600.31,"N_COORD97":2565131.2599999998,"ADDRESS":"官田４７號之１","OBJECTID":345769},"geometry":{"x":182600.31000000052,"y":2565131.2600000016}},{"attributes":{"ID":345779,"DIS_CODE":0,"TOWNNAME":"官田區","LI":"官田里","LIN":"5鄰","STREET":" ","SECT":" ","MAREA":"官田","LANE":" ","ALLEY":" ","HOUSE_NO":"４７號之２","E_COORD97":182616.28,"N_COORD97":2565145.4199999999,"ADDRESS":"官田４７號之２","OBJECTID":345770},"geometry":{"x":182616.28000000119,"y":2565145.4199999999}},{"attributes":{"ID":345780,"DIS_CODE":0,"TOWNNAME":"歸仁區","LI":"辜厝里","LIN":"31鄰","STREET":"大順三街","SECT":" ","MAREA":" ","LANE":"７８巷","ALLEY":" ","HOUSE_NO":"９號","E_COORD97":177371.13,"N_COORD97":2540456.9500000002,"ADDRESS":"大順三街７８巷９號","OBJECTID":345771},"geometry":{"x":177371.12999999989,"y":2540456.9499999974}},{"attributes":{"ID":345781,"DIS_CODE":0,"TOWNNAME":"歸仁區","LI":"辜厝里","LIN":"31鄰","STREET":"大順三街","SECT":" ","MAREA":" ","LANE":"７８巷","ALLEY":" ","HOUSE_NO":"１１號","E_COORD97":177367.28,"N_COORD97":2540456.9500000002,"ADDRESS":"大順三街７８巷１１號","OBJECTID":345772},"geometry":{"x":177367.27999999933,"y":2540456.9499999974}},{"attributes":{"ID":345782,"DIS_CODE":0,"TOWNNAME":"官田區","LI":"官田里","LIN":"5鄰","STREET":" ","SECT":" ","MAREA":"官田","LANE":" ","ALLEY":" ","HOUSE_NO":"４７號之３","E_COORD97":182623.31,"N_COORD97":2565128.5299999998,"ADDRESS":"官田４７號之３","OBJECTID":345773},"geometry":{"x":182623.31000000145,"y":2565128.5300000031}},{"attributes":{"ID":345783,"DIS_CODE":0,"TOWNNAME":"官田區","LI":"官田里","LIN":"5鄰","STREET":" ","SECT":" ","MAREA":"官田","LANE":" ","ALLEY":" ","HOUSE_NO":"４７號之４","E_COORD97":182624.47,"N_COORD97":2565123.5600000001,"ADDRESS":"官田４７號之４","OBJECTID":345774},"geometry":{"x":182624.47000000067,"y":2565123.5600000024}},{"attributes":{"ID":345784,"DIS_CODE":0,"TOWNNAME":"官田區","LI":"官田里","LIN":"5鄰","STREET":" ","SECT":" ","MAREA":"官田","LANE":" ","ALLEY":" ","HOUSE_NO":"４７號之５","E_COORD97":182625.64000000001,"N_COORD97":2565118.5899999999,"ADDRESS":"官田４７號之５","OBJECTID":345775},"geometry":{"x":182625.63999999966,"y":2565118.5900000036}},{"attributes":{"ID":345785,"DIS_CODE":0,"TOWNNAME":"官田區","LI":"官田里","LIN":"5鄰","STREET":" ","SECT":" ","MAREA":"官田","LANE":" ","ALLEY":" ","HOUSE_NO":"４７號之６","E_COORD97":182626.79999999999,"N_COORD97":2565113.6200000001,"ADDRESS":"官田４７號之６","OBJECTID":345776},"geometry":{"x":182626.79999999981,"y":2565113.6200000029}},{"attributes":{"ID":345786,"DIS_CODE":0,"TOWNNAME":"歸仁區","LI":"南保里","LIN":"31鄰","STREET":"民權八街","SECT":" ","MAREA":" ","LANE":"２３巷","ALLEY":" ","HOUSE_NO":"１４號","E_COORD97":176896.73999999999,"N_COORD97":2540943.29,"ADDRESS":"民權八街２３巷１４號","OBJECTID":345777},"geometry":{"x":176896.74000000115,"y":2540943.290000001}},{"attributes":{"ID":345787,"DIS_CODE":0,"TOWNNAME":"歸仁區","LI":"南興里","LIN":"31鄰","STREET":"保興街","SECT":" ","MAREA":" ","LANE":"１７巷","ALLEY":" ","HOUSE_NO":"８號","E_COORD97":176461.82000000001,"N_COORD97":2540986.25,"ADDRESS":"保興街１７巷８號","OBJECTID":345778},"geometry":{"x":176461.81999999937,"y":2540986.2500000019}},{"attributes":{"ID":345788,"DIS_CODE":0,"TOWNNAME":"歸仁區","LI":"南興里","LIN":"31鄰","STREET":"保興街","SECT":" ","MAREA":" ","LANE":"５５巷","ALLEY":" ","HOUSE_NO":"１３號","E_COORD97":176450.07000000001,"N_COORD97":2541057.25,"ADDRESS":"保興街５５巷１３號","OBJECTID":345779},"geometry":{"x":176450.07000000216,"y":2541057.2500000019}},{"attributes":{"ID":345789,"DIS_CODE":0,"TOWNNAME":"歸仁區","LI":"南興里","LIN":"31鄰","STREET":"保興街","SECT":" ","MAREA":" ","LANE":"２９巷","ALLEY":" ","HOUSE_NO":"２號","E_COORD97":176472.12,"N_COORD97":2541008.25,"ADDRESS":"保興街２９巷２號","OBJECTID":345780},"geometry":{"x":176472.12000000104,"y":2541008.2499999981}},{"attributes":{"ID":345790,"DIS_CODE":0,"TOWNNAME":"歸仁區","LI":"南興里","LIN":"31鄰","STREET":"保興街","SECT":" ","MAREA":" ","LANE":"５５巷","ALLEY":" ","HOUSE_NO":"５號","E_COORD97":176467.22,"N_COORD97":2541047.25,"ADDRESS":"保興街５５巷５號","OBJECTID":345781},"geometry":{"x":176467.2200000016,"y":2541047.2500000019}},{"attributes":{"ID":345791,"DIS_CODE":0,"TOWNNAME":"中西區","LI":"民主里","LIN":"8鄰","STREET":"府前路","SECT":"二段","MAREA":" ","LANE":" ","ALLEY":" ","HOUSE_NO":"１７６號八樓之９","E_COORD97":167342.12,"N_COORD97":2543566.2999999998,"ADDRESS":"府前路二段１７６號八樓之９","OBJECTID":345782},"geometry":{"x":167342.12000000104,"y":2543566.3000000026}},{"attributes":{"ID":345792,"DIS_CODE":0,"TOWNNAME":"官田區","LI":"官田里","LIN":"5鄰","STREET":" ","SECT":" ","MAREA":"官田","LANE":" ","ALLEY":" ","HOUSE_NO":"４７號之７","E_COORD97":182614.39000000001,"N_COORD97":2565117.0299999998,"ADDRESS":"官田４７號之７","OBJECTID":345783},"geometry":{"x":182614.39000000153,"y":2565117.0299999993}},{"attributes":{"ID":345793,"DIS_CODE":0,"TOWNNAME":"中西區","LI":"民主里","LIN":"8鄰","STREET":"府前路","SECT":"二段","MAREA":" ","LANE":" ","ALLEY":" ","HOUSE_NO":"１７６號十一樓","E_COORD97":167342.12,"N_COORD97":2543566.2999999998,"ADDRESS":"府前路二段１７６號十一樓","OBJECTID":345784},"geometry":{"x":167342.12000000104,"y":2543566.3000000026}},{"attributes":{"ID":345794,"DIS_CODE":0,"TOWNNAME":"永康區","LI":"大灣里","LIN":" ","STREET":"大灣路","SECT":" ","MAREA":" ","LANE":"２１９巷","ALLEY":" ","HOUSE_NO":"３１號","E_COORD97":174856.51999999999,"N_COORD97":2545491.75,"ADDRESS":"大灣路２１９巷３１號","OBJECTID":345785},"geometry":{"x":174856.52000000048,"y":2545491.7500000019}},{"attributes":{"ID":345795,"DIS_CODE":0,"TOWNNAME":"永康區","LI":"\u25A0行里","LIN":"38鄰","STREET":"仁愛街","SECT":" ","MAREA":" ","LANE":"１３８巷","ALLEY":" ","HOUSE_NO":"２號","E_COORD97":172163.78,"N_COORD97":2549627.7799999998,"ADDRESS":"仁愛街１３８巷２號","OBJECTID":345786},"geometry":{"x":172163.78000000119,"y":2549627.7799999993}},{"attributes":{"ID":345796,"DIS_CODE":0,"TOWNNAME":"東區","LI":"中西里","LIN":"5鄰","STREET":"勝利路","SECT":" ","MAREA":" ","LANE":"１２巷","ALLEY":" ","HOUSE_NO":"３６號","E_COORD97":169914.35000000001,"N_COORD97":2543361.7200000002,"ADDRESS":"勝利路１２巷３６號","OBJECTID":345787},"geometry":{"x":169914.35000000056,"y":2543361.7200000007}},{"attributes":{"ID":345797,"DIS_CODE":0,"TOWNNAME":"東區","LI":"中西里","LIN":"5鄰","STREET":"勝利路","SECT":" ","MAREA":" ","LANE":"１２巷","ALLEY":" ","HOUSE_NO":"１４號","E_COORD97":169843.09,"N_COORD97":2543357.0600000001,"ADDRESS":"勝利路１２巷１４號","OBJECTID":345788},"geometry":{"x":169843.08999999985,"y":2543357.0600000024}},{"attributes":{"ID":345798,"DIS_CODE":0,"TOWNNAME":"東區","LI":"後甲里","LIN":"5鄰","STREET":"裕農路","SECT":" ","MAREA":" ","LANE":"６６１巷","ALLEY":" ","HOUSE_NO":"６３號","E_COORD97":171711.16,"N_COORD97":2543376.5499999998,"ADDRESS":"裕農路６６１巷６３號","OBJECTID":345789},"geometry":{"x":171711.15999999922,"y":2543376.5500000007}},{"attributes":{"ID":345799,"DIS_CODE":0,"TOWNNAME":"東區","LI":"中西里","LIN":"5鄰","STREET":"勝利路","SECT":" ","MAREA":" ","LANE":"１２巷","ALLEY":" ","HOUSE_NO":"３８號","E_COORD97":169919.48999999999,"N_COORD97":2543360.25,"ADDRESS":"勝利路１２巷３８號","OBJECTID":345790},"geometry":{"x":169919.49000000115,"y":2543360.25}},{"attributes":{"ID":345800,"DIS_CODE":0,"TOWNNAME":"東區","LI":"裕農里","LIN":"5鄰","STREET":"裕農路","SECT":" ","MAREA":" ","LANE":"２９１巷","ALLEY":" ","HOUSE_NO":"６６號","E_COORD97":170881.32999999999,"N_COORD97":2543112.8500000001,"ADDRESS":"裕農路２９１巷６６號","OBJECTID":345791},"geometry":{"x":170881.33000000101,"y":2543112.8500000034}},{"attributes":{"ID":345801,"DIS_CODE":0,"TOWNNAME":"東區","LI":"裕農里","LIN":"5鄰","STREET":"裕農路","SECT":" ","MAREA":" ","LANE":"２９１巷","ALLEY":" ","HOUSE_NO":"６７號","E_COORD97":170880.95999999999,"N_COORD97":2543116.5600000001,"ADDRESS":"裕農路２９１巷６７號","OBJECTID":345792},"geometry":{"x":170880.95999999996,"y":2543116.5600000024}},{"attributes":{"ID":345802,"DIS_CODE":0,"TOWNNAME":"東區","LI":"裕農里","LIN":"5鄰","STREET":"裕農路","SECT":" ","MAREA":" ","LANE":"２９１巷","ALLEY":" ","HOUSE_NO":"６８號","E_COORD97":170880.20999999999,"N_COORD97":2543120.6499999999,"ADDRESS":"裕農路２９１巷６８號","OBJECTID":345793},"geometry":{"x":170880.21000000089,"y":2543120.6500000004}},{"attributes":{"ID":345803,"DIS_CODE":0,"TOWNNAME":"東區","LI":"中西里","LIN":"5鄰","STREET":"勝利路","SECT":" ","MAREA":" ","LANE":"１２巷","ALLEY":" ","HOUSE_NO":"５４號","E_COORD97":169961.51999999999,"N_COORD97":2543352.9199999999,"ADDRESS":"勝利路１２巷５４號","OBJECTID":345794},"geometry":{"x":169961.51999999955,"y":2543352.9199999999}},{"attributes":{"ID":345804,"DIS_CODE":0,"TOWNNAME":"東區","LI":"大福里","LIN":"5鄰","STREET":"立德二路","SECT":" ","MAREA":" ","LANE":"５４巷","ALLEY":" ","HOUSE_NO":"２２號","E_COORD97":169598.79000000001,"N_COORD97":2541711.04,"ADDRESS":"立德二路５４巷２２號","OBJECTID":345795},"geometry":{"x":169598.79000000097,"y":2541711.0400000028}},{"attributes":{"ID":345805,"DIS_CODE":0,"TOWNNAME":"東區","LI":"虎尾里","LIN":"5鄰","STREET":"富農街","SECT":"一段","MAREA":" ","LANE":"７２巷","ALLEY":" ","HOUSE_NO":"２０號","E_COORD97":171590.41,"N_COORD97":2542174.2400000002,"ADDRESS":"富農街一段７２巷２０號","OBJECTID":345796},"geometry":{"x":171590.41000000015,"y":2542174.2400000002}},{"attributes":{"ID":345806,"DIS_CODE":0,"TOWNNAME":"中西區","LI":"民主里","LIN":"8鄰","STREET":"府前路","SECT":"二段","MAREA":" ","LANE":" ","ALLEY":" ","HOUSE_NO":"１７６號十二樓","E_COORD97":167342.12,"N_COORD97":2543566.2999999998,"ADDRESS":"府前路二段１７６號十二樓","OBJECTID":345797},"geometry":{"x":167342.12000000104,"y":2543566.3000000026}},{"attributes":{"ID":345807,"DIS_CODE":0,"TOWNNAME":"中西區","LI":"民主里","LIN":"8鄰","STREET":"府前路","SECT":"二段","MAREA":" ","LANE":" ","ALLEY":" ","HOUSE_NO":"１７６號十三樓","E_COORD97":167342.12,"N_COORD97":2543566.2999999998,"ADDRESS":"府前路二段１７６號十三樓","OBJECTID":345798},"geometry":{"x":167342.12000000104,"y":2543566.3000000026}},{"attributes":{"ID":345808,"DIS_CODE":0,"TOWNNAME":"中西區","LI":"民主里","LIN":"8鄰","STREET":"府前路","SECT":"二段","MAREA":" ","LANE":" ","ALLEY":" ","HOUSE_NO":"１７６號十樓","E_COORD97":167342.12,"N_COORD97":2543566.2999999998,"ADDRESS":"府前路二段１７６號十樓","OBJECTID":345799},"geometry":{"x":167342.12000000104,"y":2543566.3000000026}},{"attributes":{"ID":345809,"DIS_CODE":0,"TOWNNAME":"中西區","LI":"民主里","LIN":"8鄰","STREET":"府前路","SECT":"二段","MAREA":" ","LANE":" ","ALLEY":" ","HOUSE_NO":"１７６號五樓之１","E_COORD97":167342.12,"N_COORD97":2543566.2999999998,"ADDRESS":"府前路二段１７６號五樓之１","OBJECTID":345800},"geometry":{"x":167342.12000000104,"y":2543566.3000000026}}]}