{"displayFieldName":"TOWNNAME","fieldAliases":{"ID":"ID","DIS_CODE":"DIS_CODE","TOWNNAME":"TOWNNAME","LI":"LI","LIN":"LIN","STREET":"STREET","SECT":"SECT","MAREA":"MAREA","LANE":"LANE","ALLEY":"ALLEY","HOUSE_NO":"HOUSE_NO","E_COORD97":"E_COORD97","N_COORD97":"N_COORD97","ADDRESS":"ADDRESS","OBJECTID":"OBJECTID"},"geometryType":"esriGeometryPoint","spatialReference":{"wkid":102443,"latestWkid":3826},"fields":[{"name":"ID","type":"esriFieldTypeDouble","alias":"ID"},{"name":"DIS_CODE","type":"esriFieldTypeInteger","alias":"DIS_CODE"},{"name":"TOWNNAME","type":"esriFieldTypeString","alias":"TOWNNAME","length":8},{"name":"LI","type":"esriFieldTypeString","alias":"LI","length":8},{"name":"LIN","type":"esriFieldTypeString","alias":"LIN","length":12},{"name":"STREET","type":"esriFieldTypeString","alias":"STREET","length":20},{"name":"SECT","type":"esriFieldTypeString","alias":"SECT","length":8},{"name":"MAREA","type":"esriFieldTypeString","alias":"MAREA","length":12},{"name":"LANE","type":"esriFieldTypeString","alias":"LANE","length":10},{"name":"ALLEY","type":"esriFieldTypeString","alias":"ALLEY","length":10},{"name":"HOUSE_NO","type":"esriFieldTypeString","alias":"HOUSE_NO","length":20},{"name":"E_COORD97","type":"esriFieldTypeDouble","alias":"E_COORD97"},{"name":"N_COORD97","type":"esriFieldTypeDouble","alias":"N_COORD97"},{"name":"ADDRESS","type":"esriFieldTypeString","alias":"ADDRESS","length":50},{"name":"OBJECTID","type":"esriFieldTypeOID","alias":"OBJECTID"}],"features":[{"attributes":{"ID":317809,"DIS_CODE":0,"TOWNNAME":"將軍區","LI":"長沙里","LIN":"9鄰","STREET":" ","SECT":" ","MAREA":"長沙","LANE":" ","ALLEY":" ","HOUSE_NO":"７７號","E_COORD97":157259.20965999999,"N_COORD97":2568711.7679300001,"ADDRESS":"長沙７７號","OBJECTID":317801},"geometry":{"x":157259.20966000017,"y":2568711.7679279987}},{"attributes":{"ID":317810,"DIS_CODE":0,"TOWNNAME":"將軍區","LI":"長沙里","LIN":"9鄰","STREET":" ","SECT":" ","MAREA":"長沙","LANE":" ","ALLEY":" ","HOUSE_NO":"７９號","E_COORD97":157260.26913900001,"N_COORD97":2568723.6212599999,"ADDRESS":"長沙７９號","OBJECTID":317802},"geometry":{"x":157260.26913900115,"y":2568723.6212550011}},{"attributes":{"ID":317811,"DIS_CODE":0,"TOWNNAME":"佳里區","LI":"安西里","LIN":"54鄰","STREET":"佳安西路","SECT":" ","MAREA":" ","LANE":"５巷","ALLEY":" ","HOUSE_NO":"１６號","E_COORD97":163691.20000000001,"N_COORD97":2562251.3199999998,"ADDRESS":"佳安西路５巷１６號","OBJECTID":317803},"geometry":{"x":163691.20000000205,"y":2562251.3200000003}},{"attributes":{"ID":317812,"DIS_CODE":0,"TOWNNAME":"佳里區","LI":"安西里","LIN":"54鄰","STREET":"佳安西路","SECT":" ","MAREA":" ","LANE":"５巷","ALLEY":" ","HOUSE_NO":"１７號","E_COORD97":163705.04000000001,"N_COORD97":2562267.6800000002,"ADDRESS":"佳安西路５巷１７號","OBJECTID":317804},"geometry":{"x":163705.04000000004,"y":2562267.6800000016}},{"attributes":{"ID":317813,"DIS_CODE":0,"TOWNNAME":"北區","LI":"元寶里","LIN":"17鄰","STREET":"開元路","SECT":" ","MAREA":" ","LANE":"４８５巷","ALLEY":" ","HOUSE_NO":"２２號","E_COORD97":170516.20999999999,"N_COORD97":2545706.3300000001,"ADDRESS":"開元路４８５巷２２號","OBJECTID":317805},"geometry":{"x":170516.21000000089,"y":2545706.3300000001}},{"attributes":{"ID":317814,"DIS_CODE":0,"TOWNNAME":"佳里區","LI":"安西里","LIN":"54鄰","STREET":"佳安西路","SECT":" ","MAREA":" ","LANE":"５巷","ALLEY":" ","HOUSE_NO":"１８號","E_COORD97":163696.34,"N_COORD97":2562251.0600000001,"ADDRESS":"佳安西路５巷１８號","OBJECTID":317806},"geometry":{"x":163696.33999999985,"y":2562251.0600000042}},{"attributes":{"ID":317815,"DIS_CODE":0,"TOWNNAME":"佳里區","LI":"安西里","LIN":"54鄰","STREET":"佳安西路","SECT":" ","MAREA":" ","LANE":"５巷","ALLEY":" ","HOUSE_NO":"１９號","E_COORD97":163709.70000000001,"N_COORD97":2562267.6000000001,"ADDRESS":"佳安西路５巷１９號","OBJECTID":317807},"geometry":{"x":163709.70000000205,"y":2562267.6000000015}},{"attributes":{"ID":317816,"DIS_CODE":0,"TOWNNAME":"佳里區","LI":"安西里","LIN":"54鄰","STREET":"佳安西路","SECT":" ","MAREA":" ","LANE":"５巷","ALLEY":" ","HOUSE_NO":"１號","E_COORD97":163669.20000000001,"N_COORD97":2562268.0800000001,"ADDRESS":"佳安西路５巷１號","OBJECTID":317808},"geometry":{"x":163669.20000000112,"y":2562268.0800000019}},{"attributes":{"ID":317817,"DIS_CODE":0,"TOWNNAME":"仁德區","LI":"新田里","LIN":"17鄰","STREET":"民安路","SECT":"二段","MAREA":" ","LANE":" ","ALLEY":" ","HOUSE_NO":"７７號之１五樓之２","E_COORD97":173513.53,"N_COORD97":2539241.3100000001,"ADDRESS":"民安路二段７７號之１五樓之２","OBJECTID":317809},"geometry":{"x":173513.53000000026,"y":2539241.3100000005}},{"attributes":{"ID":317818,"DIS_CODE":0,"TOWNNAME":"仁德區","LI":"新田里","LIN":"17鄰","STREET":"民安路","SECT":"二段","MAREA":" ","LANE":" ","ALLEY":" ","HOUSE_NO":"７７號四樓之２","E_COORD97":173501.32000000001,"N_COORD97":2539215.3100000001,"ADDRESS":"民安路二段７７號四樓之２","OBJECTID":317810},"geometry":{"x":173501.3200000003,"y":2539215.3100000042}},{"attributes":{"ID":317819,"DIS_CODE":0,"TOWNNAME":"仁德區","LI":"新田里","LIN":"17鄰","STREET":"民安路","SECT":"二段","MAREA":" ","LANE":" ","ALLEY":" ","HOUSE_NO":"７７號之１三樓之３","E_COORD97":173513.48999999999,"N_COORD97":2539241.3100000001,"ADDRESS":"民安路二段７７號之１三樓之３","OBJECTID":317811},"geometry":{"x":173513.49000000115,"y":2539241.3100000005}},{"attributes":{"ID":317820,"DIS_CODE":0,"TOWNNAME":"玉井區","LI":"望明里","LIN":" ","STREET":" ","SECT":" ","MAREA":"公\u25A0","LANE":" ","ALLEY":" ","HOUSE_NO":"１５號","E_COORD97":193869.87,"N_COORD97":2556564.25,"ADDRESS":"公\u25A0１５號","OBJECTID":317812},"geometry":{"x":193869.87000000104,"y":2556564.2500000019}},{"attributes":{"ID":317821,"DIS_CODE":0,"TOWNNAME":"仁德區","LI":"新田里","LIN":"17鄰","STREET":"民安路","SECT":"二段","MAREA":" ","LANE":" ","ALLEY":" ","HOUSE_NO":"７７號之１九樓之２","E_COORD97":173513.53,"N_COORD97":2539241.3100000001,"ADDRESS":"民安路二段７７號之１九樓之２","OBJECTID":317813},"geometry":{"x":173513.53000000026,"y":2539241.3100000005}},{"attributes":{"ID":317822,"DIS_CODE":0,"TOWNNAME":"仁德區","LI":"新田里","LIN":"17鄰","STREET":"民安路","SECT":"二段","MAREA":" ","LANE":" ","ALLEY":" ","HOUSE_NO":"７５號四樓之１","E_COORD97":173489.59,"N_COORD97":2539223.0600000001,"ADDRESS":"民安路二段７５號四樓之１","OBJECTID":317814},"geometry":{"x":173489.58999999892,"y":2539223.0600000005}},{"attributes":{"ID":317823,"DIS_CODE":0,"TOWNNAME":"關廟區","LI":"北花里","LIN":"20鄰","STREET":"中正路","SECT":" ","MAREA":" ","LANE":"１１３巷","ALLEY":" ","HOUSE_NO":"１８號","E_COORD97":183589.26000000001,"N_COORD97":2540874.6200000001,"ADDRESS":"中正路１１３巷１８號","OBJECTID":317815},"geometry":{"x":183589.25999999978,"y":2540874.6199999992}},{"attributes":{"ID":317824,"DIS_CODE":0,"TOWNNAME":"關廟區","LI":"南花里","LIN":"8鄰","STREET":"四維街","SECT":" ","MAREA":" ","LANE":"２６１巷","ALLEY":" ","HOUSE_NO":"３號","E_COORD97":181824.95999999999,"N_COORD97":2540260.25,"ADDRESS":"四維街２６１巷３號","OBJECTID":317816},"geometry":{"x":181824.96000000089,"y":2540260.2500000019}},{"attributes":{"ID":317825,"DIS_CODE":0,"TOWNNAME":"關廟區","LI":"關廟里","LIN":"4鄰","STREET":"中山路","SECT":"二段","MAREA":" ","LANE":"１７０巷","ALLEY":" ","HOUSE_NO":"２號","E_COORD97":180784.95999999999,"N_COORD97":2540112.2799999998,"ADDRESS":"中山路二段１７０巷２號","OBJECTID":317817},"geometry":{"x":180784.95999999903,"y":2540112.2799999975}},{"attributes":{"ID":317826,"DIS_CODE":0,"TOWNNAME":"關廟區","LI":"北花里","LIN":"20鄰","STREET":"中正路","SECT":" ","MAREA":" ","LANE":"２０巷","ALLEY":" ","HOUSE_NO":"２號","E_COORD97":183906.81,"N_COORD97":2541025.25,"ADDRESS":"中正路２０巷２號","OBJECTID":317818},"geometry":{"x":183906.81000000052,"y":2541025.2499999981}},{"attributes":{"ID":317827,"DIS_CODE":0,"TOWNNAME":"關廟區","LI":"關廟里","LIN":"14鄰","STREET":"大仁街","SECT":" ","MAREA":" ","LANE":"３４６巷","ALLEY":" ","HOUSE_NO":"１６號","E_COORD97":180845.92000000001,"N_COORD97":2539668.25,"ADDRESS":"大仁街３４６巷１６號","OBJECTID":317819},"geometry":{"x":180845.91999999993,"y":2539668.25}},{"attributes":{"ID":317828,"DIS_CODE":0,"TOWNNAME":"佳里區","LI":"安西里","LIN":"54鄰","STREET":"佳安西路","SECT":" ","MAREA":" ","LANE":"５巷","ALLEY":" ","HOUSE_NO":"２０號","E_COORD97":163700.95999999999,"N_COORD97":2562251.1099999999,"ADDRESS":"佳安西路５巷２０號","OBJECTID":317820},"geometry":{"x":163700.96000000183,"y":2562251.1100000013}},{"attributes":{"ID":317829,"DIS_CODE":0,"TOWNNAME":"佳里區","LI":"安西里","LIN":"54鄰","STREET":"佳安西路","SECT":" ","MAREA":" ","LANE":"５巷","ALLEY":" ","HOUSE_NO":"２１號","E_COORD97":163714,"N_COORD97":2562267.6499999999,"ADDRESS":"佳安西路５巷２１號","OBJECTID":317821},"geometry":{"x":163714,"y":2562267.6500000022}},{"attributes":{"ID":317830,"DIS_CODE":0,"TOWNNAME":"佳里區","LI":"安西里","LIN":"54鄰","STREET":"佳安西路","SECT":" ","MAREA":" ","LANE":"５巷","ALLEY":" ","HOUSE_NO":"２２號","E_COORD97":163705.67999999999,"N_COORD97":2562251.52,"ADDRESS":"佳安西路５巷２２號","OBJECTID":317822},"geometry":{"x":163705.6799999997,"y":2562251.5200000014}},{"attributes":{"ID":317831,"DIS_CODE":0,"TOWNNAME":"佳里區","LI":"安西里","LIN":"54鄰","STREET":"佳安西路","SECT":" ","MAREA":" ","LANE":"５巷","ALLEY":" ","HOUSE_NO":"２３號","E_COORD97":163718.59,"N_COORD97":2562267.7000000002,"ADDRESS":"佳安西路５巷２３號","OBJECTID":317823},"geometry":{"x":163718.59000000171,"y":2562267.6999999993}},{"attributes":{"ID":317832,"DIS_CODE":0,"TOWNNAME":"佳里區","LI":"安西里","LIN":"54鄰","STREET":"佳安西路","SECT":" ","MAREA":" ","LANE":"５巷","ALLEY":" ","HOUSE_NO":"２５號","E_COORD97":163723.22,"N_COORD97":2562267.77,"ADDRESS":"佳安西路５巷２５號","OBJECTID":317824},"geometry":{"x":163723.22000000067,"y":2562267.7699999996}},{"attributes":{"ID":317833,"DIS_CODE":0,"TOWNNAME":"佳里區","LI":"安西里","LIN":"54鄰","STREET":"佳安西路","SECT":" ","MAREA":" ","LANE":"５巷","ALLEY":" ","HOUSE_NO":"２６號","E_COORD97":163709.76999999999,"N_COORD97":2562251.3300000001,"ADDRESS":"佳安西路５巷２６號","OBJECTID":317825},"geometry":{"x":163709.76999999955,"y":2562251.3300000001}},{"attributes":{"ID":317834,"DIS_CODE":0,"TOWNNAME":"佳里區","LI":"安西里","LIN":"54鄰","STREET":"佳安西路","SECT":" ","MAREA":" ","LANE":"５巷","ALLEY":" ","HOUSE_NO":"２７號","E_COORD97":163727.66,"N_COORD97":2562267.2799999998,"ADDRESS":"佳安西路５巷２７號","OBJECTID":317826},"geometry":{"x":163727.66000000108,"y":2562267.2799999993}},{"attributes":{"ID":317835,"DIS_CODE":0,"TOWNNAME":"佳里區","LI":"安西里","LIN":"54鄰","STREET":"佳安西路","SECT":" ","MAREA":" ","LANE":"５巷","ALLEY":" ","HOUSE_NO":"２８號","E_COORD97":163713.81,"N_COORD97":2562251.27,"ADDRESS":"佳安西路５巷２８號","OBJECTID":317827},"geometry":{"x":163713.81000000052,"y":2562251.2699999996}},{"attributes":{"ID":317836,"DIS_CODE":0,"TOWNNAME":"仁德區","LI":"新田里","LIN":"17鄰","STREET":"民安路","SECT":"二段","MAREA":" ","LANE":" ","ALLEY":" ","HOUSE_NO":"７７號之１十樓之２","E_COORD97":173513.53,"N_COORD97":2539241.3100000001,"ADDRESS":"民安路二段７７號之１十樓之２","OBJECTID":317828},"geometry":{"x":173513.53000000026,"y":2539241.3100000005}},{"attributes":{"ID":317837,"DIS_CODE":0,"TOWNNAME":"仁德區","LI":"新田里","LIN":"17鄰","STREET":"民安路","SECT":"二段","MAREA":" ","LANE":" ","ALLEY":" ","HOUSE_NO":"７７號之１三樓之２","E_COORD97":173513.53,"N_COORD97":2539241.3100000001,"ADDRESS":"民安路二段７７號之１三樓之２","OBJECTID":317829},"geometry":{"x":173513.53000000026,"y":2539241.3100000005}},{"attributes":{"ID":317838,"DIS_CODE":0,"TOWNNAME":"仁德區","LI":"新田里","LIN":"17鄰","STREET":"民安路","SECT":"二段","MAREA":" ","LANE":" ","ALLEY":" ","HOUSE_NO":"７７號四樓之３","E_COORD97":173501.28,"N_COORD97":2539215.3100000001,"ADDRESS":"民安路二段７７號四樓之３","OBJECTID":317830},"geometry":{"x":173501.28000000119,"y":2539215.3100000042}},{"attributes":{"ID":317839,"DIS_CODE":0,"TOWNNAME":"仁德區","LI":"新田里","LIN":"17鄰","STREET":"民安路","SECT":"二段","MAREA":" ","LANE":" ","ALLEY":" ","HOUSE_NO":"７７號之１三樓之１","E_COORD97":173513.39000000001,"N_COORD97":2539241.3100000001,"ADDRESS":"民安路二段７７號之１三樓之１","OBJECTID":317831},"geometry":{"x":173513.3900000006,"y":2539241.3100000005}},{"attributes":{"ID":317840,"DIS_CODE":0,"TOWNNAME":"佳里區","LI":"建南里","LIN":"6鄰","STREET":"中和街","SECT":" ","MAREA":" ","LANE":"５２巷","ALLEY":" ","HOUSE_NO":"２號","E_COORD97":165644.289628,"N_COORD97":2562208.1404900001,"ADDRESS":"中和街５２巷２號","OBJECTID":317832},"geometry":{"x":165644.28962800093,"y":2562208.1404870041}},{"attributes":{"ID":317841,"DIS_CODE":0,"TOWNNAME":"關廟區","LI":"香洋里","LIN":"14鄰","STREET":"仁愛路","SECT":" ","MAREA":" ","LANE":"２０巷","ALLEY":" ","HOUSE_NO":"２號","E_COORD97":181291.04000000001,"N_COORD97":2540106.2799999998,"ADDRESS":"仁愛路２０巷２號","OBJECTID":317833},"geometry":{"x":181291.04000000004,"y":2540106.2800000012}},{"attributes":{"ID":317842,"DIS_CODE":0,"TOWNNAME":"關廟區","LI":"五甲里","LIN":"14鄰","STREET":"光復街","SECT":" ","MAREA":" ","LANE":"３７巷","ALLEY":" ","HOUSE_NO":"１５號","E_COORD97":181408.54000000001,"N_COORD97":2539235.2799999998,"ADDRESS":"光復街３７巷１５號","OBJECTID":317834},"geometry":{"x":181408.5400000019,"y":2539235.2800000012}},{"attributes":{"ID":317843,"DIS_CODE":0,"TOWNNAME":"關廟區","LI":"香洋里","LIN":"25鄰","STREET":"民生街","SECT":" ","MAREA":" ","LANE":"２１８巷","ALLEY":" ","HOUSE_NO":"１３號","E_COORD97":180951.44,"N_COORD97":2539962.29,"ADDRESS":"民生街２１８巷１３號","OBJECTID":317835},"geometry":{"x":180951.44000000041,"y":2539962.2899999991}},{"attributes":{"ID":317844,"DIS_CODE":0,"TOWNNAME":"關廟區","LI":"北花里","LIN":"20鄰","STREET":"中正路","SECT":" ","MAREA":" ","LANE":"１１３巷","ALLEY":" ","HOUSE_NO":"３號","E_COORD97":183596.41,"N_COORD97":2540892.6200000001,"ADDRESS":"中正路１１３巷３號","OBJECTID":317836},"geometry":{"x":183596.41000000108,"y":2540892.6200000029}},{"attributes":{"ID":317845,"DIS_CODE":0,"TOWNNAME":"關廟區","LI":"關廟里","LIN":"13鄰","STREET":"大仁街","SECT":" ","MAREA":" ","LANE":"１３０巷","ALLEY":" ","HOUSE_NO":"２２號","E_COORD97":181027.51999999999,"N_COORD97":2539470.25,"ADDRESS":"大仁街１３０巷２２號","OBJECTID":317837},"geometry":{"x":181027.51999999955,"y":2539470.2500000019}},{"attributes":{"ID":317846,"DIS_CODE":0,"TOWNNAME":"佳里區","LI":"安西里","LIN":"54鄰","STREET":"佳安西路","SECT":" ","MAREA":" ","LANE":"５巷","ALLEY":" ","HOUSE_NO":"２９號","E_COORD97":163731.87,"N_COORD97":2562267.3500000001,"ADDRESS":"佳安西路５巷２９號","OBJECTID":317838},"geometry":{"x":163731.87000000011,"y":2562267.3499999996}},{"attributes":{"ID":317847,"DIS_CODE":0,"TOWNNAME":"佳里區","LI":"安西里","LIN":"54鄰","STREET":"佳安西路","SECT":" ","MAREA":" ","LANE":"５巷","ALLEY":" ","HOUSE_NO":"２號","E_COORD97":163669.64999999999,"N_COORD97":2562250.6699999999,"ADDRESS":"佳安西路５巷２號","OBJECTID":317839},"geometry":{"x":163669.65000000224,"y":2562250.6700000018}},{"attributes":{"ID":317848,"DIS_CODE":0,"TOWNNAME":"佳里區","LI":"安西里","LIN":"54鄰","STREET":"佳安西路","SECT":" ","MAREA":" ","LANE":"５巷","ALLEY":" ","HOUSE_NO":"３０號","E_COORD97":163718.69,"N_COORD97":2562251.1299999999,"ADDRESS":"佳安西路５巷３０號","OBJECTID":317840},"geometry":{"x":163718.69000000134,"y":2562251.129999999}},{"attributes":{"ID":317849,"DIS_CODE":0,"TOWNNAME":"佳里區","LI":"安西里","LIN":"54鄰","STREET":"佳安西路","SECT":" ","MAREA":" ","LANE":"５巷","ALLEY":" ","HOUSE_NO":"３１號","E_COORD97":163735.91,"N_COORD97":2562267.4199999999,"ADDRESS":"佳安西路５巷３１號","OBJECTID":317841},"geometry":{"x":163735.91000000108,"y":2562267.4199999999}},{"attributes":{"ID":317850,"DIS_CODE":0,"TOWNNAME":"佳里區","LI":"安西里","LIN":"54鄰","STREET":"佳安西路","SECT":" ","MAREA":" ","LANE":"５巷","ALLEY":" ","HOUSE_NO":"３２號","E_COORD97":163723.42999999999,"N_COORD97":2562251.2599999998,"ADDRESS":"佳安西路５巷３２號","OBJECTID":317842},"geometry":{"x":163723.43000000063,"y":2562251.2599999998}},{"attributes":{"ID":317851,"DIS_CODE":0,"TOWNNAME":"佳里區","LI":"安西里","LIN":"54鄰","STREET":"佳安西路","SECT":" ","MAREA":" ","LANE":"５巷","ALLEY":" ","HOUSE_NO":"３６號","E_COORD97":163727.94,"N_COORD97":2562252.4199999999,"ADDRESS":"佳安西路５巷３６號","OBJECTID":317843},"geometry":{"x":163727.94000000041,"y":2562252.4200000018}},{"attributes":{"ID":317852,"DIS_CODE":0,"TOWNNAME":"佳里區","LI":"安西里","LIN":"54鄰","STREET":"佳安西路","SECT":" ","MAREA":" ","LANE":"５巷","ALLEY":" ","HOUSE_NO":"３號","E_COORD97":163674.13,"N_COORD97":2562267.9199999999,"ADDRESS":"佳安西路５巷３號","OBJECTID":317844},"geometry":{"x":163674.12999999989,"y":2562267.9199999999}},{"attributes":{"ID":317853,"DIS_CODE":0,"TOWNNAME":"仁德區","LI":"新田里","LIN":"17鄰","STREET":"民安路","SECT":"二段","MAREA":" ","LANE":" ","ALLEY":" ","HOUSE_NO":"７５號八樓之２","E_COORD97":173489.73000000001,"N_COORD97":2539223.0600000001,"ADDRESS":"民安路二段７５號八樓之２","OBJECTID":317845},"geometry":{"x":173489.73000000138,"y":2539223.0600000005}},{"attributes":{"ID":317854,"DIS_CODE":0,"TOWNNAME":"仁德區","LI":"新田里","LIN":"17鄰","STREET":"民安路","SECT":"二段","MAREA":" ","LANE":" ","ALLEY":" ","HOUSE_NO":"７７號五樓之３","E_COORD97":173501.28,"N_COORD97":2539215.3100000001,"ADDRESS":"民安路二段７７號五樓之３","OBJECTID":317846},"geometry":{"x":173501.28000000119,"y":2539215.3100000042}},{"attributes":{"ID":317855,"DIS_CODE":0,"TOWNNAME":"仁德區","LI":"新田里","LIN":"17鄰","STREET":"民安路","SECT":"二段","MAREA":" ","LANE":" ","ALLEY":" ","HOUSE_NO":"７７號二樓之３","E_COORD97":173501.28,"N_COORD97":2539215.3100000001,"ADDRESS":"民安路二段７７號二樓之３","OBJECTID":317847},"geometry":{"x":173501.28000000119,"y":2539215.3100000042}},{"attributes":{"ID":317856,"DIS_CODE":0,"TOWNNAME":"仁德區","LI":"新田里","LIN":"17鄰","STREET":"民安路","SECT":"二段","MAREA":" ","LANE":" ","ALLEY":" ","HOUSE_NO":"７７號七樓之２","E_COORD97":173501.32000000001,"N_COORD97":2539215.3100000001,"ADDRESS":"民安路二段７７號七樓之２","OBJECTID":317848},"geometry":{"x":173501.3200000003,"y":2539215.3100000042}},{"attributes":{"ID":317857,"DIS_CODE":0,"TOWNNAME":"安南區","LI":"梅花里","LIN":"17鄰","STREET":"安中路","SECT":"一段","MAREA":" ","LANE":" ","ALLEY":" ","HOUSE_NO":"７５５號三樓","E_COORD97":167438.07999999999,"N_COORD97":2549324.27,"ADDRESS":"安中路一段７５５號三樓","OBJECTID":317849},"geometry":{"x":167438.08000000194,"y":2549324.2699999977}},{"attributes":{"ID":317858,"DIS_CODE":0,"TOWNNAME":"關廟區","LI":"北花里","LIN":"20鄰","STREET":"中正路","SECT":" ","MAREA":" ","LANE":" ","ALLEY":" ","HOUSE_NO":"８３號","E_COORD97":183651.41,"N_COORD97":2540920.25,"ADDRESS":"中正路８３號","OBJECTID":317850},"geometry":{"x":183651.41000000015,"y":2540920.2500000037}},{"attributes":{"ID":317859,"DIS_CODE":0,"TOWNNAME":"佳里區","LI":"營頂里","LIN":"8鄰","STREET":" ","SECT":" ","MAREA":"營頂","LANE":" ","ALLEY":" ","HOUSE_NO":"８５之１號","E_COORD97":167175.42947800001,"N_COORD97":2566516.3240399999,"ADDRESS":"營頂８５之１號","OBJECTID":317851},"geometry":{"x":167175.42947799992,"y":2566516.3240409996}},{"attributes":{"ID":317860,"DIS_CODE":0,"TOWNNAME":"歸仁區","LI":"沙崙里","LIN":"9鄰","STREET":" ","SECT":" ","MAREA":"五條寮","LANE":" ","ALLEY":" ","HOUSE_NO":"１９８號","E_COORD97":180386.00466499999,"N_COORD97":2536212.5774300001,"ADDRESS":"五條寮１９８號","OBJECTID":317852},"geometry":{"x":180386.00466500223,"y":2536212.5774349999}},{"attributes":{"ID":317861,"DIS_CODE":0,"TOWNNAME":"南化區","LI":"小崙里","LIN":"4鄰","STREET":" ","SECT":" ","MAREA":"小崙","LANE":" ","ALLEY":" ","HOUSE_NO":"４０號","E_COORD97":197202.07000000001,"N_COORD97":2551220.75,"ADDRESS":"小崙４０號","OBJECTID":317853},"geometry":{"x":197202.0700000003,"y":2551220.7500000019}},{"attributes":{"ID":317862,"DIS_CODE":0,"TOWNNAME":"歸仁區","LI":"崙頂里","LIN":"25鄰","STREET":"崙頂街","SECT":" ","MAREA":" ","LANE":" ","ALLEY":" ","HOUSE_NO":"１３２號","E_COORD97":177849.40182,"N_COORD97":2539844.78596,"ADDRESS":"崙頂街１３２號","OBJECTID":317854},"geometry":{"x":177849.40182000026,"y":2539844.7859600019}},{"attributes":{"ID":317863,"DIS_CODE":0,"TOWNNAME":"關廟區","LI":"埤頭里","LIN":"4鄰","STREET":"保東路","SECT":" ","MAREA":" ","LANE":"１１５巷","ALLEY":" ","HOUSE_NO":"１４０號","E_COORD97":178773.01999999999,"N_COORD97":2543922.2999999998,"ADDRESS":"保東路１１５巷１４０號","OBJECTID":317855},"geometry":{"x":178773.01999999955,"y":2543922.3000000026}},{"attributes":{"ID":317864,"DIS_CODE":0,"TOWNNAME":"關廟區","LI":"松腳里","LIN":"14鄰","STREET":"東興路","SECT":" ","MAREA":" ","LANE":"２５１巷","ALLEY":" ","HOUSE_NO":"３號","E_COORD97":181824.26999999999,"N_COORD97":2539594.25,"ADDRESS":"東興路２５１巷３號","OBJECTID":317856},"geometry":{"x":181824.26999999955,"y":2539594.25}},{"attributes":{"ID":317865,"DIS_CODE":0,"TOWNNAME":"關廟區","LI":"五甲里","LIN":"14鄰","STREET":"光復街","SECT":" ","MAREA":" ","LANE":"６３巷","ALLEY":" ","HOUSE_NO":"４１號","E_COORD97":181383.23999999999,"N_COORD97":2539303.2799999998,"ADDRESS":"光復街６３巷４１號","OBJECTID":317857},"geometry":{"x":181383.24000000022,"y":2539303.2800000012}},{"attributes":{"ID":317866,"DIS_CODE":0,"TOWNNAME":"關廟區","LI":"新埔里","LIN":"4鄰","STREET":"新埔三街","SECT":" ","MAREA":" ","LANE":"２７巷","ALLEY":" ","HOUSE_NO":"４２號","E_COORD97":181112.72,"N_COORD97":2540871.25,"ADDRESS":"新埔三街２７巷４２號","OBJECTID":317858},"geometry":{"x":181112.72000000067,"y":2540871.25}},{"attributes":{"ID":317867,"DIS_CODE":0,"TOWNNAME":"佳里區","LI":"安西里","LIN":"54鄰","STREET":"佳安西路","SECT":" ","MAREA":" ","LANE":"５巷","ALLEY":" ","HOUSE_NO":"５號","E_COORD97":163678.70000000001,"N_COORD97":2562268,"ADDRESS":"佳安西路５巷５號","OBJECTID":317859},"geometry":{"x":163678.70000000019,"y":2562268.0000000037}},{"attributes":{"ID":317868,"DIS_CODE":0,"TOWNNAME":"佳里區","LI":"安西里","LIN":"54鄰","STREET":"佳安西路","SECT":" ","MAREA":" ","LANE":"５巷","ALLEY":" ","HOUSE_NO":"６號","E_COORD97":163674.04999999999,"N_COORD97":2562250.5299999998,"ADDRESS":"佳安西路５巷６號","OBJECTID":317860},"geometry":{"x":163674.04999999981,"y":2562250.5300000012}},{"attributes":{"ID":317869,"DIS_CODE":0,"TOWNNAME":"佳里區","LI":"安西里","LIN":"54鄰","STREET":"佳安西路","SECT":" ","MAREA":" ","LANE":"５巷","ALLEY":" ","HOUSE_NO":"７號","E_COORD97":163682.95000000001,"N_COORD97":2562267.8799999999,"ADDRESS":"佳安西路５巷７號","OBJECTID":317861},"geometry":{"x":163682.95000000112,"y":2562267.8800000008}},{"attributes":{"ID":317870,"DIS_CODE":0,"TOWNNAME":"佳里區","LI":"安西里","LIN":"54鄰","STREET":"佳安西路","SECT":" ","MAREA":" ","LANE":"５巷","ALLEY":" ","HOUSE_NO":"８號","E_COORD97":163678.26999999999,"N_COORD97":2562250.8999999999,"ADDRESS":"佳安西路５巷８號","OBJECTID":317862},"geometry":{"x":163678.27000000048,"y":2562250.9000000004}},{"attributes":{"ID":317871,"DIS_CODE":0,"TOWNNAME":"佳里區","LI":"安西里","LIN":"54鄰","STREET":"佳安西路","SECT":" ","MAREA":" ","LANE":"５巷","ALLEY":" ","HOUSE_NO":"９號","E_COORD97":163687.39999999999,"N_COORD97":2562267.7200000002,"ADDRESS":"佳安西路５巷９號","OBJECTID":317863},"geometry":{"x":163687.40000000037,"y":2562267.7200000025}},{"attributes":{"ID":317872,"DIS_CODE":0,"TOWNNAME":"歸仁區","LI":"南保里","LIN":"54鄰","STREET":"大順五街","SECT":" ","MAREA":" ","LANE":"８３巷","ALLEY":" ","HOUSE_NO":"２號","E_COORD97":176722.26999999999,"N_COORD97":2540514.25,"ADDRESS":"大順五街８３巷２號","OBJECTID":317864},"geometry":{"x":176722.26999999955,"y":2540514.2500000019}},{"attributes":{"ID":317873,"DIS_CODE":0,"TOWNNAME":"歸仁區","LI":"南保里","LIN":"54鄰","STREET":"大順五街","SECT":" ","MAREA":" ","LANE":"８３巷","ALLEY":" ","HOUSE_NO":"３號","E_COORD97":176739.67000000001,"N_COORD97":2540514.25,"ADDRESS":"大順五街８３巷３號","OBJECTID":317865},"geometry":{"x":176739.67000000086,"y":2540514.2500000019}},{"attributes":{"ID":317874,"DIS_CODE":0,"TOWNNAME":"歸仁區","LI":"辜厝里","LIN":"54鄰","STREET":"中正十街","SECT":" ","MAREA":" ","LANE":"５巷","ALLEY":" ","HOUSE_NO":"７號","E_COORD97":176995.64000000001,"N_COORD97":2540151.25,"ADDRESS":"中正十街５巷７號","OBJECTID":317866},"geometry":{"x":176995.63999999966,"y":2540151.2500000019}},{"attributes":{"ID":317875,"DIS_CODE":0,"TOWNNAME":"歸仁區","LI":"南保里","LIN":"54鄰","STREET":"大順五街","SECT":" ","MAREA":" ","LANE":"８３巷","ALLEY":" ","HOUSE_NO":"１號","E_COORD97":176733.47,"N_COORD97":2540514.25,"ADDRESS":"大順五街８３巷１號","OBJECTID":317867},"geometry":{"x":176733.47000000067,"y":2540514.2500000019}},{"attributes":{"ID":317876,"DIS_CODE":0,"TOWNNAME":"安南區","LI":"梅花里","LIN":"17鄰","STREET":"安中路","SECT":"一段","MAREA":" ","LANE":" ","ALLEY":" ","HOUSE_NO":"７５５號四樓","E_COORD97":167438.07999999999,"N_COORD97":2549324.27,"ADDRESS":"安中路一段７５５號四樓","OBJECTID":317868},"geometry":{"x":167438.08000000194,"y":2549324.2699999977}},{"attributes":{"ID":317877,"DIS_CODE":0,"TOWNNAME":"永康區","LI":"西橋里","LIN":"17鄰","STREET":"大橋三街","SECT":" ","MAREA":" ","LANE":" ","ALLEY":" ","HOUSE_NO":"３４號四樓","E_COORD97":170574.88,"N_COORD97":2546443.5099999998,"ADDRESS":"大橋三街３４號四樓","OBJECTID":317869},"geometry":{"x":170574.87999999989,"y":2546443.5099999998}},{"attributes":{"ID":317878,"DIS_CODE":0,"TOWNNAME":"永康區","LI":"烏竹里","LIN":"17鄰","STREET":"竹園一街","SECT":" ","MAREA":" ","LANE":" ","ALLEY":" ","HOUSE_NO":"５９號二樓之２","E_COORD97":174399.79999999999,"N_COORD97":2548923.0800000001,"ADDRESS":"竹園一街５９號二樓之２","OBJECTID":317870},"geometry":{"x":174399.79999999981,"y":2548923.0800000038}},{"attributes":{"ID":317879,"DIS_CODE":0,"TOWNNAME":"永康區","LI":"烏竹里","LIN":"17鄰","STREET":"竹園一街","SECT":" ","MAREA":" ","LANE":" ","ALLEY":" ","HOUSE_NO":"６１號三樓之１","E_COORD97":174414.26000000001,"N_COORD97":2548929.3300000001,"ADDRESS":"竹園一街６１號三樓之１","OBJECTID":317871},"geometry":{"x":174414.26000000071,"y":2548929.3300000019}},{"attributes":{"ID":317880,"DIS_CODE":0,"TOWNNAME":"新化區","LI":"東榮里","LIN":"1鄰","STREET":"中興路","SECT":" ","MAREA":" ","LANE":" ","ALLEY":" ","HOUSE_NO":"３９４號","E_COORD97":180631.20999999999,"N_COORD97":2547519.25,"ADDRESS":"中興路３９４號","OBJECTID":317872},"geometry":{"x":180631.21000000089,"y":2547519.2500000019}},{"attributes":{"ID":317881,"DIS_CODE":0,"TOWNNAME":"將軍區","LI":"長沙里","LIN":"9鄰","STREET":" ","SECT":" ","MAREA":"長沙","LANE":" ","ALLEY":" ","HOUSE_NO":"８０之１號","E_COORD97":157266.83790700001,"N_COORD97":2568752.4079100001,"ADDRESS":"長沙８０之１號","OBJECTID":317873},"geometry":{"x":157266.83790700044,"y":2568752.4079060014}},{"attributes":{"ID":317882,"DIS_CODE":0,"TOWNNAME":"大內區","LI":"石城里","LIN":"12鄰","STREET":" ","SECT":" ","MAREA":"石子瀨","LANE":" ","ALLEY":" ","HOUSE_NO":"１０６號","E_COORD97":184043.19021599999,"N_COORD97":2558035.5800100002,"ADDRESS":"石子瀨１０６號","OBJECTID":317874},"geometry":{"x":184043.19021600019,"y":2558035.5800129995}},{"attributes":{"ID":317883,"DIS_CODE":0,"TOWNNAME":"關廟區","LI":"北花里","LIN":"20鄰","STREET":"中正路","SECT":" ","MAREA":" ","LANE":"１１３巷","ALLEY":" ","HOUSE_NO":"１３號","E_COORD97":183599.95999999999,"N_COORD97":2540871.6200000001,"ADDRESS":"中正路１１３巷１３號","OBJECTID":317875},"geometry":{"x":183599.95999999996,"y":2540871.6200000048}},{"attributes":{"ID":317884,"DIS_CODE":0,"TOWNNAME":"關廟區","LI":"北花里","LIN":"20鄰","STREET":"中正路","SECT":" ","MAREA":" ","LANE":"２０巷","ALLEY":" ","HOUSE_NO":"１號","E_COORD97":183886.10999999999,"N_COORD97":2541031.25,"ADDRESS":"中正路２０巷１號","OBJECTID":317876},"geometry":{"x":183886.11000000034,"y":2541031.25}},{"attributes":{"ID":317885,"DIS_CODE":0,"TOWNNAME":"關廟區","LI":"關廟里","LIN":"14鄰","STREET":"民生街","SECT":" ","MAREA":" ","LANE":"１１５巷","ALLEY":" ","HOUSE_NO":"７號","E_COORD97":180813.19,"N_COORD97":2539745.29,"ADDRESS":"民生街１１５巷７號","OBJECTID":317877},"geometry":{"x":180813.19000000134,"y":2539745.2899999991}},{"attributes":{"ID":317886,"DIS_CODE":0,"TOWNNAME":"歸仁區","LI":"辜厝里","LIN":"54鄰","STREET":"民權南路","SECT":" ","MAREA":" ","LANE":"３３３巷","ALLEY":" ","HOUSE_NO":"２８號","E_COORD97":177002.13,"N_COORD97":2540186.6000000001,"ADDRESS":"民權南路３３３巷２８號","OBJECTID":317878},"geometry":{"x":177002.13000000082,"y":2540186.6000000015}},{"attributes":{"ID":317887,"DIS_CODE":0,"TOWNNAME":"歸仁區","LI":"南保里","LIN":"54鄰","STREET":"大順五街","SECT":" ","MAREA":" ","LANE":"８３巷","ALLEY":" ","HOUSE_NO":"８號","E_COORD97":176707.87,"N_COORD97":2540514.25,"ADDRESS":"大順五街８３巷８號","OBJECTID":317879},"geometry":{"x":176707.87000000104,"y":2540514.2500000019}},{"attributes":{"ID":317888,"DIS_CODE":0,"TOWNNAME":"歸仁區","LI":"南保里","LIN":"54鄰","STREET":"大順五街","SECT":" ","MAREA":" ","LANE":"８３巷","ALLEY":" ","HOUSE_NO":"６號","E_COORD97":176715.07000000001,"N_COORD97":2540514.25,"ADDRESS":"大順五街８３巷６號","OBJECTID":317880},"geometry":{"x":176715.07000000123,"y":2540514.2500000019}},{"attributes":{"ID":317889,"DIS_CODE":0,"TOWNNAME":"北區","LI":"元寶里","LIN":"17鄰","STREET":"開元路","SECT":" ","MAREA":" ","LANE":"４８５巷","ALLEY":" ","HOUSE_NO":"３２號","E_COORD97":170512.88,"N_COORD97":2545733.79,"ADDRESS":"開元路４８５巷３２號","OBJECTID":317881},"geometry":{"x":170512.88000000082,"y":2545733.790000001}},{"attributes":{"ID":317890,"DIS_CODE":0,"TOWNNAME":"歸仁區","LI":"辜厝里","LIN":"54鄰","STREET":"中正十街","SECT":" ","MAREA":" ","LANE":"５巷","ALLEY":" ","HOUSE_NO":"５號","E_COORD97":177008.69,"N_COORD97":2540155.25,"ADDRESS":"中正十街５巷５號","OBJECTID":317882},"geometry":{"x":177008.68999999948,"y":2540155.2500000019}},{"attributes":{"ID":317891,"DIS_CODE":0,"TOWNNAME":"歸仁區","LI":"辜厝里","LIN":"54鄰","STREET":"中正十街","SECT":" ","MAREA":" ","LANE":"５巷","ALLEY":" ","HOUSE_NO":"３號","E_COORD97":177014.79000000001,"N_COORD97":2540159.25,"ADDRESS":"中正十街５巷３號","OBJECTID":317883},"geometry":{"x":177014.79000000097,"y":2540159.25}},{"attributes":{"ID":317892,"DIS_CODE":0,"TOWNNAME":"歸仁區","LI":"辜厝里","LIN":"54鄰","STREET":"中正十街","SECT":" ","MAREA":" ","LANE":"５巷","ALLEY":" ","HOUSE_NO":"１號","E_COORD97":177020.98999999999,"N_COORD97":2540163.25,"ADDRESS":"中正十街５巷１號","OBJECTID":317884},"geometry":{"x":177020.99000000022,"y":2540163.25}},{"attributes":{"ID":317893,"DIS_CODE":0,"TOWNNAME":"仁德區","LI":"仁義里","LIN":"54鄰","STREET":"仁義一街","SECT":" ","MAREA":" ","LANE":"３１巷","ALLEY":" ","HOUSE_NO":"４號","E_COORD97":173354.97,"N_COORD97":2541229.27,"ADDRESS":"仁義一街３１巷４號","OBJECTID":317885},"geometry":{"x":173354.97000000067,"y":2541229.2700000014}},{"attributes":{"ID":317894,"DIS_CODE":0,"TOWNNAME":"仁德區","LI":"仁義里","LIN":"54鄰","STREET":"中正路","SECT":"二段","MAREA":" ","LANE":"１１６０巷","ALLEY":" ","HOUSE_NO":"１８號","E_COORD97":173346.42000000001,"N_COORD97":2541247.5299999998,"ADDRESS":"中正路二段１１６０巷１８號","OBJECTID":317886},"geometry":{"x":173346.41999999993,"y":2541247.5300000012}},{"attributes":{"ID":317895,"DIS_CODE":0,"TOWNNAME":"仁德區","LI":"仁義里","LIN":"54鄰","STREET":"中正路","SECT":"二段","MAREA":" ","LANE":"１１６０巷","ALLEY":" ","HOUSE_NO":"６號","E_COORD97":173308.54000000001,"N_COORD97":2541241.7799999998,"ADDRESS":"中正路二段１１６０巷６號","OBJECTID":317887},"geometry":{"x":173308.54000000004,"y":2541241.7800000031}},{"attributes":{"ID":317896,"DIS_CODE":0,"TOWNNAME":"仁德區","LI":"仁義里","LIN":"54鄰","STREET":"中正路","SECT":"二段","MAREA":" ","LANE":"１１６０巷","ALLEY":" ","HOUSE_NO":"４號","E_COORD97":173304.45999999999,"N_COORD97":2541241.2799999998,"ADDRESS":"中正路二段１１６０巷４號","OBJECTID":317888},"geometry":{"x":173304.46000000089,"y":2541241.2799999975}},{"attributes":{"ID":317897,"DIS_CODE":0,"TOWNNAME":"安南區","LI":"梅花里","LIN":"17鄰","STREET":"安中路","SECT":"一段","MAREA":" ","LANE":" ","ALLEY":" ","HOUSE_NO":"７５５號五樓","E_COORD97":167438.07999999999,"N_COORD97":2549324.27,"ADDRESS":"安中路一段７５５號五樓","OBJECTID":317889},"geometry":{"x":167438.08000000194,"y":2549324.2699999977}},{"attributes":{"ID":317898,"DIS_CODE":0,"TOWNNAME":"東區","LI":"自強里","LIN":"17鄰","STREET":"中華東路","SECT":"二段","MAREA":" ","LANE":" ","ALLEY":" ","HOUSE_NO":"２６３號二樓","E_COORD97":171189.69,"N_COORD97":2542603.4100000001,"ADDRESS":"中華東路二段２６３號二樓","OBJECTID":317890},"geometry":{"x":171189.69000000134,"y":2542603.4100000001}},{"attributes":{"ID":317899,"DIS_CODE":0,"TOWNNAME":"永康區","LI":"東灣里","LIN":"17鄰","STREET":"大灣三街","SECT":" ","MAREA":" ","LANE":" ","ALLEY":" ","HOUSE_NO":"４３號五樓之２","E_COORD97":174978.95999999999,"N_COORD97":2544922.3799999999,"ADDRESS":"大灣三街４３號五樓之２","OBJECTID":317891},"geometry":{"x":174978.95999999903,"y":2544922.3800000027}},{"attributes":{"ID":317900,"DIS_CODE":0,"TOWNNAME":"歸仁區","LI":"沙崙里","LIN":"2鄰","STREET":" ","SECT":" ","MAREA":"二甲","LANE":" ","ALLEY":" ","HOUSE_NO":"９６號","E_COORD97":178362.829406,"N_COORD97":2539216.4452,"ADDRESS":"二甲９６號","OBJECTID":317892},"geometry":{"x":178362.82940600161,"y":2539216.4451960009}},{"attributes":{"ID":317901,"DIS_CODE":0,"TOWNNAME":"安南區","LI":"溪北里","LIN":"4鄰","STREET":"文安街","SECT":" ","MAREA":" ","LANE":" ","ALLEY":" ","HOUSE_NO":"７２號","E_COORD97":169329.105278,"N_COORD97":2547494.4714199998,"ADDRESS":"文安街７２號","OBJECTID":317893},"geometry":{"x":169329.10527800024,"y":2547494.471415}},{"attributes":{"ID":317902,"DIS_CODE":0,"TOWNNAME":"關廟區","LI":"北花里","LIN":"20鄰","STREET":"中正路","SECT":" ","MAREA":" ","LANE":"１１３巷","ALLEY":" ","HOUSE_NO":"３３號","E_COORD97":183609.16,"N_COORD97":2540827.6200000001,"ADDRESS":"中正路１１３巷３３號","OBJECTID":317894},"geometry":{"x":183609.16000000015,"y":2540827.6200000048}},{"attributes":{"ID":317903,"DIS_CODE":0,"TOWNNAME":"關廟區","LI":"關廟里","LIN":"14鄰","STREET":"民生街","SECT":" ","MAREA":" ","LANE":"１１５巷","ALLEY":" ","HOUSE_NO":"８２號","E_COORD97":180349.94,"N_COORD97":2539273.29,"ADDRESS":"民生街１１５巷８２號","OBJECTID":317895},"geometry":{"x":180349.94000000227,"y":2539273.2899999991}},{"attributes":{"ID":317904,"DIS_CODE":0,"TOWNNAME":"關廟區","LI":"北花里","LIN":"18鄰","STREET":"中正路","SECT":" ","MAREA":" ","LANE":"５６７巷","ALLEY":" ","HOUSE_NO":"２９號","E_COORD97":182363.32999999999,"N_COORD97":2540410.4700000002,"ADDRESS":"中正路５６７巷２９號","OBJECTID":317896},"geometry":{"x":182363.33000000101,"y":2540410.4700000007}},{"attributes":{"ID":317905,"DIS_CODE":0,"TOWNNAME":"關廟區","LI":"北花里","LIN":"20鄰","STREET":"中正路","SECT":" ","MAREA":" ","LANE":"１２７巷","ALLEY":" ","HOUSE_NO":"９號","E_COORD97":183565.31,"N_COORD97":2540876.6200000001,"ADDRESS":"中正路１２７巷９號","OBJECTID":317897},"geometry":{"x":183565.30999999959,"y":2540876.620000001}},{"attributes":{"ID":317906,"DIS_CODE":0,"TOWNNAME":"關廟區","LI":"香洋里","LIN":"26鄰","STREET":"民權街","SECT":" ","MAREA":" ","LANE":"２２８巷","ALLEY":" ","HOUSE_NO":"２５號","E_COORD97":181126.84,"N_COORD97":2539834.29,"ADDRESS":"民權街２２８巷２５號","OBJECTID":317898},"geometry":{"x":181126.84000000078,"y":2539834.2900000028}},{"attributes":{"ID":317907,"DIS_CODE":0,"TOWNNAME":"關廟區","LI":"香洋里","LIN":"25鄰","STREET":"民生街","SECT":" ","MAREA":" ","LANE":"２１８巷","ALLEY":" ","HOUSE_NO":"５號","E_COORD97":180932.89000000001,"N_COORD97":2539966.29,"ADDRESS":"民生街２１８巷５號","OBJECTID":317899},"geometry":{"x":180932.8900000006,"y":2539966.2899999972}},{"attributes":{"ID":317908,"DIS_CODE":0,"TOWNNAME":"歸仁區","LI":"辜厝里","LIN":"54鄰","STREET":"中正十街","SECT":" ","MAREA":" ","LANE":"５巷","ALLEY":" ","HOUSE_NO":"２號","E_COORD97":177008.69,"N_COORD97":2540167.25,"ADDRESS":"中正十街５巷２號","OBJECTID":317900},"geometry":{"x":177008.68999999948,"y":2540167.25}},{"attributes":{"ID":317909,"DIS_CODE":0,"TOWNNAME":"歸仁區","LI":"南保里","LIN":"54鄰","STREET":"大順五街","SECT":" ","MAREA":" ","LANE":"８３巷","ALLEY":" ","HOUSE_NO":"５號","E_COORD97":176746.87,"N_COORD97":2540514.25,"ADDRESS":"大順五街８３巷５號","OBJECTID":317901},"geometry":{"x":176746.87000000104,"y":2540514.2500000019}},{"attributes":{"ID":317910,"DIS_CODE":0,"TOWNNAME":"北區","LI":"元寶里","LIN":"13鄰","STREET":"開元路","SECT":" ","MAREA":" ","LANE":"４８５巷","ALLEY":" ","HOUSE_NO":"２９號","E_COORD97":170480.92000000001,"N_COORD97":2545714.0699999998,"ADDRESS":"開元路４８５巷２９號","OBJECTID":317902},"geometry":{"x":170480.92000000086,"y":2545714.0700000022}},{"attributes":{"ID":317911,"DIS_CODE":0,"TOWNNAME":"北區","LI":"元寶里","LIN":"17鄰","STREET":"開元路","SECT":" ","MAREA":" ","LANE":"４８５巷","ALLEY":" ","HOUSE_NO":"２４號地下一層","E_COORD97":170515.73999999999,"N_COORD97":2545710.9300000002,"ADDRESS":"開元路４８５巷２４號地下一層","OBJECTID":317903},"geometry":{"x":170515.74000000209,"y":2545710.9300000016}},{"attributes":{"ID":317912,"DIS_CODE":0,"TOWNNAME":"北區","LI":"元寶里","LIN":"17鄰","STREET":"開元路","SECT":" ","MAREA":" ","LANE":"４８５巷","ALLEY":" ","HOUSE_NO":"２６號","E_COORD97":170514.78,"N_COORD97":2545717.9199999999,"ADDRESS":"開元路４８５巷２６號","OBJECTID":317904},"geometry":{"x":170514.78000000026,"y":2545717.9200000018}},{"attributes":{"ID":317913,"DIS_CODE":0,"TOWNNAME":"北區","LI":"元寶里","LIN":"17鄰","STREET":"開元路","SECT":" ","MAREA":" ","LANE":"４８５巷","ALLEY":" ","HOUSE_NO":"２８號","E_COORD97":170514.14999999999,"N_COORD97":2545723.3100000001,"ADDRESS":"開元路４８５巷２８號","OBJECTID":317905},"geometry":{"x":170514.15000000037,"y":2545723.3100000005}},{"attributes":{"ID":317914,"DIS_CODE":0,"TOWNNAME":"北區","LI":"元寶里","LIN":"13鄰","STREET":"開元路","SECT":" ","MAREA":" ","LANE":"４８５巷","ALLEY":" ","HOUSE_NO":"３１號","E_COORD97":170479.51999999999,"N_COORD97":2545719.3100000001,"ADDRESS":"開元路４８５巷３１號","OBJECTID":317906},"geometry":{"x":170479.52000000048,"y":2545719.3100000024}},{"attributes":{"ID":317915,"DIS_CODE":0,"TOWNNAME":"永康區","LI":"西灣里","LIN":"15鄰","STREET":"大安街","SECT":" ","MAREA":" ","LANE":"９７巷","ALLEY":" ","HOUSE_NO":"６號","E_COORD97":174481.48999999999,"N_COORD97":2545060.8399999999,"ADDRESS":"大安街９７巷６號","OBJECTID":317907},"geometry":{"x":174481.49000000115,"y":2545060.8400000017}},{"attributes":{"ID":317916,"DIS_CODE":0,"TOWNNAME":"永康區","LI":"東灣里","LIN":"17鄰","STREET":"大灣三街","SECT":" ","MAREA":" ","LANE":" ","ALLEY":" ","HOUSE_NO":"４３號五樓之５","E_COORD97":174978.98000000001,"N_COORD97":2544922.3799999999,"ADDRESS":"大灣三街４３號五樓之５","OBJECTID":317908},"geometry":{"x":174978.98000000045,"y":2544922.3800000027}},{"attributes":{"ID":317917,"DIS_CODE":0,"TOWNNAME":"永康區","LI":"東灣里","LIN":"17鄰","STREET":"大灣三街","SECT":" ","MAREA":" ","LANE":" ","ALLEY":" ","HOUSE_NO":"４３號五樓之３","E_COORD97":174978.92000000001,"N_COORD97":2544922.3799999999,"ADDRESS":"大灣三街４３號五樓之３","OBJECTID":317909},"geometry":{"x":174978.91999999993,"y":2544922.3800000027}},{"attributes":{"ID":317918,"DIS_CODE":0,"TOWNNAME":"永康區","LI":"東灣里","LIN":"17鄰","STREET":"大灣三街","SECT":" ","MAREA":" ","LANE":" ","ALLEY":" ","HOUSE_NO":"４３號三樓之２","E_COORD97":174978.95999999999,"N_COORD97":2544922.3799999999,"ADDRESS":"大灣三街４３號三樓之２","OBJECTID":317910},"geometry":{"x":174978.95999999903,"y":2544922.3800000027}},{"attributes":{"ID":317919,"DIS_CODE":0,"TOWNNAME":"永康區","LI":"東灣里","LIN":"17鄰","STREET":"大灣三街","SECT":" ","MAREA":" ","LANE":" ","ALLEY":" ","HOUSE_NO":"４３號七樓之６","E_COORD97":174978.92999999999,"N_COORD97":2544922.3799999999,"ADDRESS":"大灣三街４３號七樓之６","OBJECTID":317911},"geometry":{"x":174978.93000000156,"y":2544922.3800000027}},{"attributes":{"ID":317920,"DIS_CODE":0,"TOWNNAME":"永康區","LI":"東灣里","LIN":"17鄰","STREET":"大灣三街","SECT":" ","MAREA":" ","LANE":" ","ALLEY":" ","HOUSE_NO":"４３號二樓之１","E_COORD97":174978.82000000001,"N_COORD97":2544922.3799999999,"ADDRESS":"大灣三街４３號二樓之１","OBJECTID":317912},"geometry":{"x":174978.82000000123,"y":2544922.3800000027}},{"attributes":{"ID":317921,"DIS_CODE":0,"TOWNNAME":"永康區","LI":"東灣里","LIN":"17鄰","STREET":"大灣三街","SECT":" ","MAREA":" ","LANE":" ","ALLEY":" ","HOUSE_NO":"４３號八樓之２","E_COORD97":174978.95999999999,"N_COORD97":2544922.3799999999,"ADDRESS":"大灣三街４３號八樓之２","OBJECTID":317913},"geometry":{"x":174978.95999999903,"y":2544922.3800000027}},{"attributes":{"ID":317922,"DIS_CODE":0,"TOWNNAME":"南化區","LI":"中坑里","LIN":"4鄰","STREET":" ","SECT":" ","MAREA":"中坑","LANE":" ","ALLEY":" ","HOUSE_NO":"２９之１號","E_COORD97":193886.56,"N_COORD97":2549456.7999999998,"ADDRESS":"中坑２９之１號","OBJECTID":317914},"geometry":{"x":193886.56000000052,"y":2549456.8000000007}},{"attributes":{"ID":317923,"DIS_CODE":0,"TOWNNAME":"南化區","LI":"北寮里","LIN":"13鄰","STREET":" ","SECT":" ","MAREA":"北寮","LANE":" ","ALLEY":" ","HOUSE_NO":"１７９之５號","E_COORD97":198837.64000000001,"N_COORD97":2552553.7999999998,"ADDRESS":"北寮１７９之５號","OBJECTID":317915},"geometry":{"x":198837.6400000006,"y":2552553.8000000026}},{"attributes":{"ID":317924,"DIS_CODE":0,"TOWNNAME":"南化區","LI":"南化里","LIN":"14鄰","STREET":" ","SECT":" ","MAREA":"南化","LANE":" ","ALLEY":" ","HOUSE_NO":"２９３之１０號","E_COORD97":198689.39000000001,"N_COORD97":2548335.7999999998,"ADDRESS":"南化２９３之１０號","OBJECTID":317916},"geometry":{"x":198689.38999999966,"y":2548335.8000000045}},{"attributes":{"ID":317925,"DIS_CODE":0,"TOWNNAME":"南化區","LI":"玉山里","LIN":"13鄰","STREET":" ","SECT":" ","MAREA":"玉山","LANE":" ","ALLEY":" ","HOUSE_NO":"１４９號","E_COORD97":202308.42000000001,"N_COORD97":2552607.75,"ADDRESS":"玉山１４９號","OBJECTID":317917},"geometry":{"x":202308.41999999993,"y":2552607.7500000019}},{"attributes":{"ID":317926,"DIS_CODE":0,"TOWNNAME":"關廟區","LI":"關廟里","LIN":"8鄰","STREET":"大仁街","SECT":" ","MAREA":" ","LANE":"３７７巷","ALLEY":" ","HOUSE_NO":"１號","E_COORD97":180899.57000000001,"N_COORD97":2539787.25,"ADDRESS":"大仁街３７７巷１號","OBJECTID":317918},"geometry":{"x":180899.5700000003,"y":2539787.25}},{"attributes":{"ID":317927,"DIS_CODE":0,"TOWNNAME":"關廟區","LI":"關廟里","LIN":"4鄰","STREET":"文衡路","SECT":" ","MAREA":" ","LANE":"２３巷","ALLEY":" ","HOUSE_NO":"２號","E_COORD97":180871.89000000001,"N_COORD97":2540132.3300000001,"ADDRESS":"文衡路２３巷２號","OBJECTID":317919},"geometry":{"x":180871.8900000006,"y":2540132.3300000001}},{"attributes":{"ID":317928,"DIS_CODE":0,"TOWNNAME":"關廟區","LI":"新光里","LIN":"13鄰","STREET":"南寮街","SECT":" ","MAREA":" ","LANE":"２９巷","ALLEY":" ","HOUSE_NO":"１６號","E_COORD97":184345.12,"N_COORD97":2541613.25,"ADDRESS":"南寮街２９巷１６號","OBJECTID":317920},"geometry":{"x":184345.12000000011,"y":2541613.2500000019}},{"attributes":{"ID":317929,"DIS_CODE":0,"TOWNNAME":"關廟區","LI":"香洋里","LIN":"14鄰","STREET":"中正路","SECT":" ","MAREA":" ","LANE":"９０７巷","ALLEY":" ","HOUSE_NO":"２號","E_COORD97":181352.45999999999,"N_COORD97":2540185.25,"ADDRESS":"中正路９０７巷２號","OBJECTID":317921},"geometry":{"x":181352.45999999996,"y":2540185.2500000019}},{"attributes":{"ID":317930,"DIS_CODE":0,"TOWNNAME":"下營區","LI":"新興里","LIN":"15鄰","STREET":"寮前二街","SECT":" ","MAREA":" ","LANE":"２８巷","ALLEY":" ","HOUSE_NO":"３３號","E_COORD97":175262.56,"N_COORD97":2570374.5899999999,"ADDRESS":"寮前二街２８巷３３號","OBJECTID":317922},"geometry":{"x":175262.55999999959,"y":2570374.5900000017}},{"attributes":{"ID":317931,"DIS_CODE":0,"TOWNNAME":"歸仁區","LI":"媽廟里","LIN":"15鄰","STREET":"媽廟二街","SECT":" ","MAREA":" ","LANE":"１５巷","ALLEY":" ","HOUSE_NO":"１６號","E_COORD97":177665.98000000001,"N_COORD97":2543767.7200000002,"ADDRESS":"媽廟二街１５巷１６號","OBJECTID":317923},"geometry":{"x":177665.98000000045,"y":2543767.7200000007}},{"attributes":{"ID":317932,"DIS_CODE":0,"TOWNNAME":"東山區","LI":"南溪里","LIN":"9鄰","STREET":" ","SECT":" ","MAREA":"二重溪","LANE":" ","ALLEY":" ","HOUSE_NO":"９５號","E_COORD97":189454.20011000001,"N_COORD97":2574282.68028,"ADDRESS":"二重溪９５號","OBJECTID":317924},"geometry":{"x":189454.20010999963,"y":2574282.68028}},{"attributes":{"ID":317933,"DIS_CODE":0,"TOWNNAME":"永康區","LI":"東灣里","LIN":"17鄰","STREET":"大灣三街","SECT":" ","MAREA":" ","LANE":" ","ALLEY":" ","HOUSE_NO":"４３號八樓之１","E_COORD97":174978.82000000001,"N_COORD97":2544922.3799999999,"ADDRESS":"大灣三街４３號八樓之１","OBJECTID":317925},"geometry":{"x":174978.82000000123,"y":2544922.3800000027}},{"attributes":{"ID":317934,"DIS_CODE":0,"TOWNNAME":"永康區","LI":"東灣里","LIN":"17鄰","STREET":"大灣三街","SECT":" ","MAREA":" ","LANE":" ","ALLEY":" ","HOUSE_NO":"４３號六樓之５","E_COORD97":174978.98000000001,"N_COORD97":2544922.3799999999,"ADDRESS":"大灣三街４３號六樓之５","OBJECTID":317926},"geometry":{"x":174978.98000000045,"y":2544922.3800000027}},{"attributes":{"ID":317935,"DIS_CODE":0,"TOWNNAME":"永康區","LI":"東灣里","LIN":"17鄰","STREET":"大灣三街","SECT":" ","MAREA":" ","LANE":" ","ALLEY":" ","HOUSE_NO":"４３號三樓之５","E_COORD97":174978.98000000001,"N_COORD97":2544922.3799999999,"ADDRESS":"大灣三街４３號三樓之５","OBJECTID":317927},"geometry":{"x":174978.98000000045,"y":2544922.3800000027}},{"attributes":{"ID":317936,"DIS_CODE":0,"TOWNNAME":"南化區","LI":"南化里","LIN":"4鄰","STREET":" ","SECT":" ","MAREA":"南化","LANE":" ","ALLEY":" ","HOUSE_NO":"１２９號","E_COORD97":196374.94,"N_COORD97":2549126.75,"ADDRESS":"南化１２９號","OBJECTID":317928},"geometry":{"x":196374.94000000134,"y":2549126.7500000019}},{"attributes":{"ID":317937,"DIS_CODE":0,"TOWNNAME":"南化區","LI":"北平里","LIN":"4鄰","STREET":" ","SECT":" ","MAREA":"北平","LANE":" ","ALLEY":" ","HOUSE_NO":"４６號","E_COORD97":195343.79000000001,"N_COORD97":2551597.75,"ADDRESS":"北平４６號","OBJECTID":317929},"geometry":{"x":195343.79000000004,"y":2551597.7500000019}},{"attributes":{"ID":317938,"DIS_CODE":0,"TOWNNAME":"關廟區","LI":"山西里","LIN":"3鄰","STREET":"興中街","SECT":" ","MAREA":" ","LANE":" ","ALLEY":" ","HOUSE_NO":"１７號","E_COORD97":180941.95774000001,"N_COORD97":2540255.77935,"ADDRESS":"興中街１７號","OBJECTID":317930},"geometry":{"x":180941.95774000138,"y":2540255.7793530039}},{"attributes":{"ID":317939,"DIS_CODE":0,"TOWNNAME":"南化區","LI":"北寮里","LIN":"4鄰","STREET":" ","SECT":" ","MAREA":"北寮","LANE":" ","ALLEY":" ","HOUSE_NO":"４５號","E_COORD97":197639.19,"N_COORD97":2553159.75,"ADDRESS":"北寮４５號","OBJECTID":317931},"geometry":{"x":197639.19000000227,"y":2553159.7500000037}},{"attributes":{"ID":317940,"DIS_CODE":0,"TOWNNAME":"安平區","LI":"華平里","LIN":"15鄰","STREET":"建平八街","SECT":" ","MAREA":" ","LANE":"４５０巷","ALLEY":" ","HOUSE_NO":"３號","E_COORD97":165085.01999999999,"N_COORD97":2543640.25,"ADDRESS":"建平八街４５０巷３號","OBJECTID":317932},"geometry":{"x":165085.02000000142,"y":2543640.2500000019}},{"attributes":{"ID":317941,"DIS_CODE":0,"TOWNNAME":"安平區","LI":"華平里","LIN":"15鄰","STREET":"建平八街","SECT":" ","MAREA":" ","LANE":"４５０巷","ALLEY":" ","HOUSE_NO":"５號","E_COORD97":165085.94,"N_COORD97":2543644.54,"ADDRESS":"建平八街４５０巷５號","OBJECTID":317933},"geometry":{"x":165085.94000000041,"y":2543644.540000001}},{"attributes":{"ID":317942,"DIS_CODE":0,"TOWNNAME":"北區","LI":"中樓里","LIN":"15鄰","STREET":"開元路","SECT":" ","MAREA":" ","LANE":"９０巷","ALLEY":" ","HOUSE_NO":"６７號之４","E_COORD97":169824.39000000001,"N_COORD97":2545132.4500000002,"ADDRESS":"開元路９０巷６７號之４","OBJECTID":317934},"geometry":{"x":169824.3900000006,"y":2545132.450000003}},{"attributes":{"ID":317943,"DIS_CODE":0,"TOWNNAME":"北區","LI":"中樓里","LIN":"15鄰","STREET":"開元路","SECT":" ","MAREA":" ","LANE":"９０巷","ALLEY":" ","HOUSE_NO":"６７號之５","E_COORD97":169828.51000000001,"N_COORD97":2545133.6899999999,"ADDRESS":"開元路９０巷６７號之５","OBJECTID":317935},"geometry":{"x":169828.51000000164,"y":2545133.6899999995}},{"attributes":{"ID":317944,"DIS_CODE":0,"TOWNNAME":"南化區","LI":"南化里","LIN":"4鄰","STREET":" ","SECT":" ","MAREA":"南化","LANE":" ","ALLEY":" ","HOUSE_NO":"１１９號之１","E_COORD97":196291.37,"N_COORD97":2549240.7999999998,"ADDRESS":"南化１１９號之１","OBJECTID":317936},"geometry":{"x":196291.37000000011,"y":2549240.8000000045}},{"attributes":{"ID":317945,"DIS_CODE":0,"TOWNNAME":"南化區","LI":"小崙里","LIN":"8鄰","STREET":" ","SECT":" ","MAREA":"小崙","LANE":" ","ALLEY":" ","HOUSE_NO":"９６號","E_COORD97":198938.76999999999,"N_COORD97":2550007.75,"ADDRESS":"小崙９６號","OBJECTID":317937},"geometry":{"x":198938.77000000048,"y":2550007.7500000019}},{"attributes":{"ID":317946,"DIS_CODE":0,"TOWNNAME":"南化區","LI":"南化里","LIN":"4鄰","STREET":" ","SECT":" ","MAREA":"南化","LANE":" ","ALLEY":" ","HOUSE_NO":"１２４號","E_COORD97":196433.44,"N_COORD97":2549173.75,"ADDRESS":"南化１２４號","OBJECTID":317938},"geometry":{"x":196433.44000000041,"y":2549173.7500000019}},{"attributes":{"ID":317947,"DIS_CODE":0,"TOWNNAME":"仁德區","LI":"仁德里","LIN":"39鄰","STREET":"文山路","SECT":" ","MAREA":" ","LANE":" ","ALLEY":" ","HOUSE_NO":"２１２號","E_COORD97":172648.39999999999,"N_COORD97":2541815.3199999998,"ADDRESS":"文山路２１２號","OBJECTID":317939},"geometry":{"x":172648.40000000037,"y":2541815.320000004}},{"attributes":{"ID":317948,"DIS_CODE":0,"TOWNNAME":"南化區","LI":"西埔里","LIN":"6鄰","STREET":" ","SECT":" ","MAREA":"西埔","LANE":" ","ALLEY":" ","HOUSE_NO":"４９號","E_COORD97":194428.14000000001,"N_COORD97":2548205.75,"ADDRESS":"西埔４９號","OBJECTID":317940},"geometry":{"x":194428.14000000153,"y":2548205.75}},{"attributes":{"ID":317949,"DIS_CODE":0,"TOWNNAME":"永康區","LI":"復華里","LIN":"21鄰","STREET":"復華七街","SECT":" ","MAREA":" ","LANE":"２２５巷","ALLEY":" ","HOUSE_NO":"７號","E_COORD97":172917.97717999999,"N_COORD97":2546427.3691400001,"ADDRESS":"復華七街２２５巷７號","OBJECTID":317941},"geometry":{"x":172917.97718000039,"y":2546427.3691419996}},{"attributes":{"ID":317950,"DIS_CODE":0,"TOWNNAME":"北區","LI":"中樓里","LIN":"15鄰","STREET":"開元路","SECT":" ","MAREA":" ","LANE":"９０巷","ALLEY":" ","HOUSE_NO":"９９號之１","E_COORD97":169838.66,"N_COORD97":2545042.6699999999,"ADDRESS":"開元路９０巷９９號之１","OBJECTID":317942},"geometry":{"x":169838.66000000108,"y":2545042.6699999999}},{"attributes":{"ID":317951,"DIS_CODE":0,"TOWNNAME":"白河區","LI":"永安里","LIN":"4鄰","STREET":"九龍街","SECT":" ","MAREA":" ","LANE":" ","ALLEY":" ","HOUSE_NO":"８３號","E_COORD97":190017.5,"N_COORD97":2583032.54,"ADDRESS":"九龍街８３號","OBJECTID":317943},"geometry":{"x":190017.50000000093,"y":2583032.5399999972}},{"attributes":{"ID":317952,"DIS_CODE":0,"TOWNNAME":"歸仁區","LI":"看東里","LIN":"3鄰","STREET":"成功六街","SECT":" ","MAREA":" ","LANE":"３８巷","ALLEY":" ","HOUSE_NO":"６１號","E_COORD97":178456.00360299999,"N_COORD97":2540255.4492600001,"ADDRESS":"成功六街３８巷６１號","OBJECTID":317944},"geometry":{"x":178456.00360300019,"y":2540255.4492560029}},{"attributes":{"ID":317953,"DIS_CODE":0,"TOWNNAME":"南化區","LI":"南化里","LIN":"14鄰","STREET":" ","SECT":" ","MAREA":"南化","LANE":" ","ALLEY":" ","HOUSE_NO":"２９３號之１２","E_COORD97":198690.95999999999,"N_COORD97":2548354.7999999998,"ADDRESS":"南化２９３號之１２","OBJECTID":317945},"geometry":{"x":198690.95999999996,"y":2548354.8000000007}},{"attributes":{"ID":317954,"DIS_CODE":0,"TOWNNAME":"南化區","LI":"南化里","LIN":"8鄰","STREET":" ","SECT":" ","MAREA":"南化","LANE":" ","ALLEY":" ","HOUSE_NO":"１５０號","E_COORD97":196428.44,"N_COORD97":2549098.75,"ADDRESS":"南化１５０號","OBJECTID":317946},"geometry":{"x":196428.44000000041,"y":2549098.7500000019}},{"attributes":{"ID":317955,"DIS_CODE":0,"TOWNNAME":"南化區","LI":"南化里","LIN":"8鄰","STREET":" ","SECT":" ","MAREA":"南化","LANE":" ","ALLEY":" ","HOUSE_NO":"１５５號","E_COORD97":196441.64000000001,"N_COORD97":2549105.75,"ADDRESS":"南化１５５號","OBJECTID":317947},"geometry":{"x":196441.63999999966,"y":2549105.7500000019}},{"attributes":{"ID":317956,"DIS_CODE":0,"TOWNNAME":"南化區","LI":"西埔里","LIN":"7鄰","STREET":" ","SECT":" ","MAREA":"西埔","LANE":" ","ALLEY":" ","HOUSE_NO":"６０號","E_COORD97":194259.23999999999,"N_COORD97":2548378.75,"ADDRESS":"西埔６０號","OBJECTID":317948},"geometry":{"x":194259.24000000115,"y":2548378.75}},{"attributes":{"ID":317957,"DIS_CODE":0,"TOWNNAME":"南化區","LI":"小崙里","LIN":"1鄰","STREET":" ","SECT":" ","MAREA":"小崙","LANE":" ","ALLEY":" ","HOUSE_NO":"１號之２","E_COORD97":196745.98999999999,"N_COORD97":2549488.7999999998,"ADDRESS":"小崙１號之２","OBJECTID":317949},"geometry":{"x":196745.99000000115,"y":2549488.8000000026}},{"attributes":{"ID":317958,"DIS_CODE":0,"TOWNNAME":"南化區","LI":"南化里","LIN":"4鄰","STREET":" ","SECT":" ","MAREA":"南化","LANE":" ","ALLEY":" ","HOUSE_NO":"４２之８號","E_COORD97":196054.29000000001,"N_COORD97":2549345.7999999998,"ADDRESS":"南化４２之８號","OBJECTID":317950},"geometry":{"x":196054.29000000004,"y":2549345.8000000045}},{"attributes":{"ID":317959,"DIS_CODE":0,"TOWNNAME":"南化區","LI":"南化里","LIN":"4鄰","STREET":" ","SECT":" ","MAREA":"南化","LANE":" ","ALLEY":" ","HOUSE_NO":"４９號之６","E_COORD97":196241.92999999999,"N_COORD97":2549268.7999999998,"ADDRESS":"南化４９號之６","OBJECTID":317951},"geometry":{"x":196241.93000000063,"y":2549268.8000000026}},{"attributes":{"ID":317960,"DIS_CODE":0,"TOWNNAME":"新營區","LI":"鐵線里","LIN":" ","STREET":" ","SECT":" ","MAREA":"秀才","LANE":" ","ALLEY":" ","HOUSE_NO":"１４之３號","E_COORD97":174769.35999999999,"N_COORD97":2573932.6899999999,"ADDRESS":"秀才１４之３號","OBJECTID":317952},"geometry":{"x":174769.36000000034,"y":2573932.6900000013}},{"attributes":{"ID":317961,"DIS_CODE":0,"TOWNNAME":"新營區","LI":"五興里","LIN":"14鄰","STREET":" ","SECT":" ","MAREA":"五間厝","LANE":" ","ALLEY":" ","HOUSE_NO":"１４７號之１","E_COORD97":175404.79000000001,"N_COORD97":2574299.3799999999,"ADDRESS":"五間厝１４７之１號","OBJECTID":317953},"geometry":{"x":175404.79000000097,"y":2574299.379999999}},{"attributes":{"ID":317962,"DIS_CODE":0,"TOWNNAME":"歸仁區","LI":"大潭里","LIN":"11鄰","STREET":"大潭二街","SECT":" ","MAREA":" ","LANE":" ","ALLEY":" ","HOUSE_NO":"１９號","E_COORD97":175087.737689,"N_COORD97":2534678.0081199999,"ADDRESS":"大潭二街１９號","OBJECTID":317954},"geometry":{"x":175087.73768900055,"y":2534678.0081220027}},{"attributes":{"ID":317963,"DIS_CODE":0,"TOWNNAME":"新營區","LI":"五興里","LIN":"13鄰","STREET":" ","SECT":" ","MAREA":"五間厝","LANE":" ","ALLEY":" ","HOUSE_NO":"１３３號","E_COORD97":175437.51999999999,"N_COORD97":2574386.6400000001,"ADDRESS":"五間厝１３３號","OBJECTID":317955},"geometry":{"x":175437.51999999862,"y":2574386.6400000006}},{"attributes":{"ID":317964,"DIS_CODE":0,"TOWNNAME":"新市區","LI":"港墘里","LIN":"1鄰","STREET":"中山路","SECT":" ","MAREA":" ","LANE":" ","ALLEY":" ","HOUSE_NO":"１之１０號","E_COORD97":179059.71401500001,"N_COORD97":2554075.2338700001,"ADDRESS":"中山路１之１０號","OBJECTID":317956},"geometry":{"x":179059.7140150005,"y":2554075.2338680029}},{"attributes":{"ID":317965,"DIS_CODE":0,"TOWNNAME":"新營區","LI":"王公里","LIN":"12鄰","STREET":"義和街","SECT":" ","MAREA":" ","LANE":" ","ALLEY":" ","HOUSE_NO":"３號之２９","E_COORD97":180490.5,"N_COORD97":2579044.46,"ADDRESS":"義和街３號之２９","OBJECTID":317957},"geometry":{"x":180490.50000000093,"y":2579044.459999999}},{"attributes":{"ID":317966,"DIS_CODE":0,"TOWNNAME":"新營區","LI":"大宏里","LIN":"13鄰","STREET":"文昌街","SECT":" ","MAREA":" ","LANE":" ","ALLEY":" ","HOUSE_NO":"５８號之１","E_COORD97":180235.47,"N_COORD97":2578334.6699999999,"ADDRESS":"文昌街５８號之１","OBJECTID":317958},"geometry":{"x":180235.4700000016,"y":2578334.6700000018}},{"attributes":{"ID":317967,"DIS_CODE":0,"TOWNNAME":"北區","LI":"大道里","LIN":"15鄰","STREET":"北門路","SECT":"二段","MAREA":" ","LANE":"５２７巷","ALLEY":" ","HOUSE_NO":"２２號","E_COORD97":169520.91,"N_COORD97":2545667,"ADDRESS":"北門路二段５２７巷２２號","OBJECTID":317959},"geometry":{"x":169520.91000000015,"y":2545667}},{"attributes":{"ID":317968,"DIS_CODE":0,"TOWNNAME":"北區","LI":"大道里","LIN":"15鄰","STREET":"北門路","SECT":"二段","MAREA":" ","LANE":"５２７巷","ALLEY":" ","HOUSE_NO":"２６號","E_COORD97":169533.92999999999,"N_COORD97":2545665.73,"ADDRESS":"北門路二段５２７巷２６號","OBJECTID":317960},"geometry":{"x":169533.92999999877,"y":2545665.7300000023}},{"attributes":{"ID":317969,"DIS_CODE":0,"TOWNNAME":"歸仁區","LI":"武東里","LIN":"13鄰","STREET":" ","SECT":" ","MAREA":"明德新村","LANE":" ","ALLEY":" ","HOUSE_NO":"７２號","E_COORD97":174969.42223600001,"N_COORD97":2536185.1111699999,"ADDRESS":"明德新村７２號","OBJECTID":317961},"geometry":{"x":174969.42223600112,"y":2536185.111165002}},{"attributes":{"ID":317970,"DIS_CODE":0,"TOWNNAME":"北區","LI":"振興里","LIN":"15鄰","STREET":"長榮路","SECT":"四段","MAREA":" ","LANE":"１０２巷","ALLEY":" ","HOUSE_NO":"１０號","E_COORD97":170327.16,"N_COORD97":2545108.8500000001,"ADDRESS":"長榮路四段１０２巷１０號","OBJECTID":317962},"geometry":{"x":170327.16000000015,"y":2545108.8499999996}},{"attributes":{"ID":317971,"DIS_CODE":0,"TOWNNAME":"北區","LI":"振興里","LIN":"15鄰","STREET":"長榮路","SECT":"四段","MAREA":" ","LANE":"１０２巷","ALLEY":" ","HOUSE_NO":"１２號","E_COORD97":170330.32999999999,"N_COORD97":2545110.7000000002,"ADDRESS":"長榮路四段１０２巷１２號","OBJECTID":317963},"geometry":{"x":170330.33000000101,"y":2545110.7000000011}},{"attributes":{"ID":317972,"DIS_CODE":0,"TOWNNAME":"新營區","LI":"角帶里","LIN":"4鄰","STREET":" ","SECT":" ","MAREA":"角帶圍","LANE":" ","ALLEY":" ","HOUSE_NO":"５３號","E_COORD97":174837.85000000001,"N_COORD97":2575822.7200000002,"ADDRESS":"角帶圍５３號","OBJECTID":317964},"geometry":{"x":174837.85000000056,"y":2575822.7200000025}},{"attributes":{"ID":317973,"DIS_CODE":0,"TOWNNAME":"新營區","LI":"護鎮里","LIN":"4鄰","STREET":" ","SECT":" ","MAREA":"後鎮","LANE":" ","ALLEY":" ","HOUSE_NO":"４３號之２３","E_COORD97":179135.64000000001,"N_COORD97":2581213.75,"ADDRESS":"後鎮４３之２３號","OBJECTID":317965},"geometry":{"x":179135.63999999966,"y":2581213.75}},{"attributes":{"ID":317974,"DIS_CODE":0,"TOWNNAME":"新營區","LI":"太北里","LIN":" ","STREET":" ","SECT":" ","MAREA":"太子宮","LANE":" ","ALLEY":" ","HOUSE_NO":"７１之１號","E_COORD97":176063.39000000001,"N_COORD97":2577148.8799999999,"ADDRESS":"太子宮７１之１號","OBJECTID":317966},"geometry":{"x":176063.38999999966,"y":2577148.8800000008}},{"attributes":{"ID":317975,"DIS_CODE":0,"TOWNNAME":"新營區","LI":"太南里","LIN":"4鄰","STREET":" ","SECT":" ","MAREA":"太子宮","LANE":" ","ALLEY":" ","HOUSE_NO":"３３２之３號","E_COORD97":176328.32999999999,"N_COORD97":2577088.8799999999,"ADDRESS":"太子宮３３２之３號","OBJECTID":317967},"geometry":{"x":176328.33000000101,"y":2577088.879999999}},{"attributes":{"ID":317976,"DIS_CODE":0,"TOWNNAME":"新營區","LI":"鐵線里","LIN":" ","STREET":" ","SECT":" ","MAREA":"鐵線橋","LANE":" ","ALLEY":" ","HOUSE_NO":"９０之２號","E_COORD97":175977.26000000001,"N_COORD97":2573841.3399999999,"ADDRESS":"鐵線橋９０之２號","OBJECTID":317968},"geometry":{"x":175977.26000000071,"y":2573841.3400000017}},{"attributes":{"ID":317977,"DIS_CODE":0,"TOWNNAME":"新營區","LI":"太南里","LIN":"18鄰","STREET":" ","SECT":" ","MAREA":"太子宮","LANE":" ","ALLEY":" ","HOUSE_NO":"３０９之１９號","E_COORD97":175991.63,"N_COORD97":2576606.6000000001,"ADDRESS":"太子宮３０９之１９號","OBJECTID":317969},"geometry":{"x":175991.63000000175,"y":2576606.5999999996}},{"attributes":{"ID":317978,"DIS_CODE":0,"TOWNNAME":"新營區","LI":"太南里","LIN":"20鄰","STREET":" ","SECT":" ","MAREA":"太子宮","LANE":" ","ALLEY":" ","HOUSE_NO":"３４１號之４","E_COORD97":176362.01000000001,"N_COORD97":2576936.98,"ADDRESS":"太子宮３４１號之４","OBJECTID":317970},"geometry":{"x":176362.01000000071,"y":2576936.9800000004}},{"attributes":{"ID":317979,"DIS_CODE":0,"TOWNNAME":"歸仁區","LI":"大廟里","LIN":"3鄰","STREET":"保大路","SECT":"三段","MAREA":" ","LANE":"５５巷","ALLEY":" ","HOUSE_NO":"６３號","E_COORD97":176459.26395600001,"N_COORD97":2543895.9812699999,"ADDRESS":"保大路三段５５巷６３號","OBJECTID":317971},"geometry":{"x":176459.2639560001,"y":2543895.9812730011}},{"attributes":{"ID":317980,"DIS_CODE":0,"TOWNNAME":"新營區","LI":"民權里","LIN":" ","STREET":"中正路","SECT":" ","MAREA":" ","LANE":"９巷","ALLEY":" ","HOUSE_NO":"３４號","E_COORD97":179993.07000000001,"N_COORD97":2578421.0299999998,"ADDRESS":"中正路９巷３４號","OBJECTID":317972},"geometry":{"x":179993.07000000216,"y":2578421.0299999993}},{"attributes":{"ID":317981,"DIS_CODE":0,"TOWNNAME":"新營區","LI":"南興里","LIN":" ","STREET":"延平路","SECT":" ","MAREA":" ","LANE":"１４０巷","ALLEY":" ","HOUSE_NO":"４５之１號","E_COORD97":179595.70999999999,"N_COORD97":2577363.1400000001,"ADDRESS":"延平路１４０巷４５之１號","OBJECTID":317973},"geometry":{"x":179595.71000000089,"y":2577363.1400000025}},{"attributes":{"ID":317982,"DIS_CODE":0,"TOWNNAME":"新營區","LI":"興業里","LIN":" ","STREET":"中興路","SECT":" ","MAREA":" ","LANE":"１５巷","ALLEY":" ","HOUSE_NO":"１５之１號","E_COORD97":180219.25,"N_COORD97":2577936.0699999998,"ADDRESS":"中興路１５巷１５之１號","OBJECTID":317974},"geometry":{"x":180219.25000000093,"y":2577936.0700000022}},{"attributes":{"ID":317983,"DIS_CODE":0,"TOWNNAME":"新營區","LI":"王公里","LIN":"13鄰","STREET":"義和街","SECT":" ","MAREA":" ","LANE":"８巷","ALLEY":" ","HOUSE_NO":"３２號","E_COORD97":180463,"N_COORD97":2579167.4500000002,"ADDRESS":"義和街８巷３２號","OBJECTID":317975},"geometry":{"x":180463.00000000093,"y":2579167.4499999993}},{"attributes":{"ID":317984,"DIS_CODE":0,"TOWNNAME":"北區","LI":"正覺里","LIN":"15鄰","STREET":"正覺街","SECT":" ","MAREA":" ","LANE":"７７巷","ALLEY":" ","HOUSE_NO":"６號","E_COORD97":169280.07000000001,"N_COORD97":2546408.79,"ADDRESS":"正覺街７７巷６號","OBJECTID":317976},"geometry":{"x":169280.07000000123,"y":2546408.790000001}},{"attributes":{"ID":317985,"DIS_CODE":0,"TOWNNAME":"北區","LI":"正覺里","LIN":"15鄰","STREET":"正覺街","SECT":" ","MAREA":" ","LANE":"７７巷","ALLEY":" ","HOUSE_NO":"８號","E_COORD97":169275.97,"N_COORD97":2546408.3100000001,"ADDRESS":"正覺街７７巷８號","OBJECTID":317977},"geometry":{"x":169275.96999999974,"y":2546408.3100000005}},{"attributes":{"ID":317986,"DIS_CODE":0,"TOWNNAME":"新營區","LI":"嘉芳里","LIN":"15鄰","STREET":"復興路","SECT":" ","MAREA":" ","LANE":"１１１２巷","ALLEY":" ","HOUSE_NO":"１號","E_COORD97":176046.79999999999,"N_COORD97":2578886.5099999998,"ADDRESS":"復興路１１１２巷１號","OBJECTID":317978},"geometry":{"x":176046.80000000075,"y":2578886.5099999998}},{"attributes":{"ID":317987,"DIS_CODE":0,"TOWNNAME":"新營區","LI":"嘉芳里","LIN":"15鄰","STREET":"復興路","SECT":" ","MAREA":" ","LANE":"１１１２巷","ALLEY":" ","HOUSE_NO":"２２號","E_COORD97":176067.78,"N_COORD97":2578930.71,"ADDRESS":"復興路１１１２巷２２號","OBJECTID":317979},"geometry":{"x":176067.78000000119,"y":2578930.7100000009}},{"attributes":{"ID":317988,"DIS_CODE":0,"TOWNNAME":"歸仁區","LI":"大潭里","LIN":"15鄰","STREET":"大潭二街","SECT":" ","MAREA":" ","LANE":"３０巷","ALLEY":" ","HOUSE_NO":"３４號","E_COORD97":174999.70999999999,"N_COORD97":2534756.25,"ADDRESS":"大潭二街３０巷３４號","OBJECTID":317980},"geometry":{"x":174999.71000000089,"y":2534756.25}},{"attributes":{"ID":317989,"DIS_CODE":0,"TOWNNAME":"歸仁區","LI":"大廟里","LIN":"15鄰","STREET":"大廟五街","SECT":" ","MAREA":" ","LANE":"１３２巷","ALLEY":" ","HOUSE_NO":"２４號","E_COORD97":176134.63,"N_COORD97":2544425.5299999998,"ADDRESS":"大廟五街１３２巷２４號","OBJECTID":317981},"geometry":{"x":176134.63000000082,"y":2544425.5299999993}},{"attributes":{"ID":317990,"DIS_CODE":0,"TOWNNAME":"永康區","LI":"東灣里","LIN":"17鄰","STREET":"大灣三街","SECT":" ","MAREA":" ","LANE":" ","ALLEY":" ","HOUSE_NO":"４３號三樓之１","E_COORD97":174978.82000000001,"N_COORD97":2544922.3799999999,"ADDRESS":"大灣三街４３號三樓之１","OBJECTID":317982},"geometry":{"x":174978.82000000123,"y":2544922.3800000027}},{"attributes":{"ID":317991,"DIS_CODE":0,"TOWNNAME":"永康區","LI":"東灣里","LIN":"17鄰","STREET":"大灣三街","SECT":" ","MAREA":" ","LANE":" ","ALLEY":" ","HOUSE_NO":"４３號五樓之７","E_COORD97":174978.89999999999,"N_COORD97":2544922.3799999999,"ADDRESS":"大灣三街４３號五樓之７","OBJECTID":317983},"geometry":{"x":174978.9000000013,"y":2544922.3800000027}},{"attributes":{"ID":317992,"DIS_CODE":0,"TOWNNAME":"永康區","LI":"東灣里","LIN":"17鄰","STREET":"大灣三街","SECT":" ","MAREA":" ","LANE":" ","ALLEY":" ","HOUSE_NO":"４３號二樓之３","E_COORD97":174978.92000000001,"N_COORD97":2544922.3799999999,"ADDRESS":"大灣三街４３號二樓之３","OBJECTID":317984},"geometry":{"x":174978.91999999993,"y":2544922.3800000027}},{"attributes":{"ID":317993,"DIS_CODE":0,"TOWNNAME":"永康區","LI":"東灣里","LIN":"17鄰","STREET":"大灣三街","SECT":" ","MAREA":" ","LANE":" ","ALLEY":" ","HOUSE_NO":"４３號六樓之６","E_COORD97":174978.92999999999,"N_COORD97":2544922.3799999999,"ADDRESS":"大灣三街４３號六樓之６","OBJECTID":317985},"geometry":{"x":174978.93000000156,"y":2544922.3800000027}},{"attributes":{"ID":317994,"DIS_CODE":0,"TOWNNAME":"新營區","LI":"太北里","LIN":"6鄰","STREET":" ","SECT":" ","MAREA":"太子宮","LANE":" ","ALLEY":" ","HOUSE_NO":"４７號之８","E_COORD97":175849.5,"N_COORD97":2577120.0499999998,"ADDRESS":"太子宮４７號之８","OBJECTID":317986},"geometry":{"x":175849.5,"y":2577120.0500000007}},{"attributes":{"ID":317995,"DIS_CODE":0,"TOWNNAME":"新營區","LI":"南興里","LIN":"4鄰","STREET":"和平路","SECT":" ","MAREA":" ","LANE":"９７巷","ALLEY":" ","HOUSE_NO":"３３之１號","E_COORD97":179518.98000000001,"N_COORD97":2577573.9199999999,"ADDRESS":"和平路９７巷３３之１號","OBJECTID":317987},"geometry":{"x":179518.98000000045,"y":2577573.9200000018}},{"attributes":{"ID":317996,"DIS_CODE":0,"TOWNNAME":"歸仁區","LI":"武東里","LIN":"13鄰","STREET":" ","SECT":" ","MAREA":"明德新村","LANE":" ","ALLEY":" ","HOUSE_NO":"６７號","E_COORD97":175023.43502100001,"N_COORD97":2536168.4556499999,"ADDRESS":"明德新村６７號","OBJECTID":317988},"geometry":{"x":175023.43502100185,"y":2536168.4556530006}},{"attributes":{"ID":317997,"DIS_CODE":0,"TOWNNAME":"新營區","LI":"忠政里","LIN":"4鄰","STREET":"中正路","SECT":" ","MAREA":" ","LANE":"３７巷","ALLEY":" ","HOUSE_NO":"８號","E_COORD97":180033.07000000001,"N_COORD97":2579145.1099999999,"ADDRESS":"中正路３７巷８號","OBJECTID":317989},"geometry":{"x":180033.0700000003,"y":2579145.1100000013}},{"attributes":{"ID":317998,"DIS_CODE":0,"TOWNNAME":"新營區","LI":"太南里","LIN":"4鄰","STREET":" ","SECT":" ","MAREA":"太子宮","LANE":" ","ALLEY":" ","HOUSE_NO":"３３２之５號","E_COORD97":176330.32000000001,"N_COORD97":2577078.8999999999,"ADDRESS":"太子宮３３２之５號","OBJECTID":317990},"geometry":{"x":176330.32000000123,"y":2577078.9000000022}},{"attributes":{"ID":317999,"DIS_CODE":0,"TOWNNAME":"新營區","LI":"南興里","LIN":"6鄰","STREET":"和平路","SECT":" ","MAREA":" ","LANE":"９７巷","ALLEY":" ","HOUSE_NO":"１１號之２","E_COORD97":179453.48000000001,"N_COORD97":2577585.3100000001,"ADDRESS":"和平路９７巷１１之２號","OBJECTID":317991},"geometry":{"x":179453.48000000138,"y":2577585.3100000024}},{"attributes":{"ID":318000,"DIS_CODE":0,"TOWNNAME":"柳營區","LI":"東昇里","LIN":"15鄰","STREET":"康樂街","SECT":" ","MAREA":" ","LANE":"６７巷","ALLEY":" ","HOUSE_NO":"７號","E_COORD97":180391.29000000001,"N_COORD97":2575097.2400000002,"ADDRESS":"康樂街６７巷７號","OBJECTID":317992},"geometry":{"x":180391.2900000019,"y":2575097.2400000021}},{"attributes":{"ID":318001,"DIS_CODE":0,"TOWNNAME":"歸仁區","LI":"大廟里","LIN":"15鄰","STREET":"大廟五街","SECT":" ","MAREA":" ","LANE":"１３２巷","ALLEY":" ","HOUSE_NO":"２７號","E_COORD97":176152.13,"N_COORD97":2544433.5299999998,"ADDRESS":"大廟五街１３２巷２７號","OBJECTID":317993},"geometry":{"x":176152.12999999989,"y":2544433.5300000031}},{"attributes":{"ID":318002,"DIS_CODE":0,"TOWNNAME":"南區","LI":"金華里","LIN":"15鄰","STREET":"金華路","SECT":"二段","MAREA":" ","LANE":"５１巷","ALLEY":" ","HOUSE_NO":"９３號","E_COORD97":166729.41,"N_COORD97":2542113.3199999998,"ADDRESS":"金華路二段５１巷９３號","OBJECTID":317994},"geometry":{"x":166729.41000000108,"y":2542113.3200000003}},{"attributes":{"ID":318003,"DIS_CODE":0,"TOWNNAME":"新營區","LI":"鐵線里","LIN":" ","STREET":" ","SECT":" ","MAREA":"鐵線橋","LANE":" ","ALLEY":" ","HOUSE_NO":"６之１６號","E_COORD97":176028.98000000001,"N_COORD97":2573946.29,"ADDRESS":"鐵線橋６之１６號","OBJECTID":317995},"geometry":{"x":176028.98000000138,"y":2573946.290000001}},{"attributes":{"ID":318004,"DIS_CODE":0,"TOWNNAME":"南區","LI":"金華里","LIN":"15鄰","STREET":"金華路","SECT":"二段","MAREA":" ","LANE":"５１巷","ALLEY":" ","HOUSE_NO":"９４號","E_COORD97":166730.39999999999,"N_COORD97":2542091.23,"ADDRESS":"金華路二段５１巷９４號","OBJECTID":317996},"geometry":{"x":166730.40000000037,"y":2542091.2300000023}},{"attributes":{"ID":318005,"DIS_CODE":0,"TOWNNAME":"新營區","LI":"鐵線里","LIN":" ","STREET":" ","SECT":" ","MAREA":"鐵線橋","LANE":" ","ALLEY":" ","HOUSE_NO":"６之７號","E_COORD97":176036.14000000001,"N_COORD97":2573990.5499999998,"ADDRESS":"鐵線橋６之７號","OBJECTID":317997},"geometry":{"x":176036.1400000006,"y":2573990.5500000026}},{"attributes":{"ID":318006,"DIS_CODE":0,"TOWNNAME":"南區","LI":"金華里","LIN":"15鄰","STREET":"金華路","SECT":"二段","MAREA":" ","LANE":"５１巷","ALLEY":" ","HOUSE_NO":"９５號","E_COORD97":166718.66,"N_COORD97":2542115.5099999998,"ADDRESS":"金華路二段５１巷９５號","OBJECTID":317998},"geometry":{"x":166718.66000000015,"y":2542115.5100000016}},{"attributes":{"ID":318007,"DIS_CODE":0,"TOWNNAME":"南區","LI":"金華里","LIN":"15鄰","STREET":"金華路","SECT":"二段","MAREA":" ","LANE":"５１巷","ALLEY":" ","HOUSE_NO":"９６號","E_COORD97":166716.57000000001,"N_COORD97":2542093.3199999998,"ADDRESS":"金華路二段５１巷９６號","OBJECTID":317999},"geometry":{"x":166716.57000000123,"y":2542093.320000004}},{"attributes":{"ID":318008,"DIS_CODE":0,"TOWNNAME":"南區","LI":"金華里","LIN":"15鄰","STREET":"金華路","SECT":"二段","MAREA":" ","LANE":"５１巷","ALLEY":" ","HOUSE_NO":"９７號","E_COORD97":166709,"N_COORD97":2542116.0600000001,"ADDRESS":"金華路二段５１巷９７號","OBJECTID":318000},"geometry":{"x":166709,"y":2542116.0600000024}}]}