{"displayFieldName":"TOWNNAME","fieldAliases":{"ID":"ID","DIS_CODE":"DIS_CODE","TOWNNAME":"TOWNNAME","LI":"LI","LIN":"LIN","STREET":"STREET","SECT":"SECT","MAREA":"MAREA","LANE":"LANE","ALLEY":"ALLEY","HOUSE_NO":"HOUSE_NO","E_COORD97":"E_COORD97","N_COORD97":"N_COORD97","ADDRESS":"ADDRESS","OBJECTID":"OBJECTID"},"geometryType":"esriGeometryPoint","spatialReference":{"wkid":102443,"latestWkid":3826},"fields":[{"name":"ID","type":"esriFieldTypeDouble","alias":"ID"},{"name":"DIS_CODE","type":"esriFieldTypeInteger","alias":"DIS_CODE"},{"name":"TOWNNAME","type":"esriFieldTypeString","alias":"TOWNNAME","length":8},{"name":"LI","type":"esriFieldTypeString","alias":"LI","length":8},{"name":"LIN","type":"esriFieldTypeString","alias":"LIN","length":12},{"name":"STREET","type":"esriFieldTypeString","alias":"STREET","length":20},{"name":"SECT","type":"esriFieldTypeString","alias":"SECT","length":8},{"name":"MAREA","type":"esriFieldTypeString","alias":"MAREA","length":12},{"name":"LANE","type":"esriFieldTypeString","alias":"LANE","length":10},{"name":"ALLEY","type":"esriFieldTypeString","alias":"ALLEY","length":10},{"name":"HOUSE_NO","type":"esriFieldTypeString","alias":"HOUSE_NO","length":20},{"name":"E_COORD97","type":"esriFieldTypeDouble","alias":"E_COORD97"},{"name":"N_COORD97","type":"esriFieldTypeDouble","alias":"N_COORD97"},{"name":"ADDRESS","type":"esriFieldTypeString","alias":"ADDRESS","length":50},{"name":"OBJECTID","type":"esriFieldTypeOID","alias":"OBJECTID"}],"features":[{"attributes":{"ID":311209,"DIS_CODE":0,"TOWNNAME":"永康區","LI":"五王里","LIN":" ","STREET":"中華二路","SECT":" ","MAREA":" ","LANE":"２０６巷","ALLEY":" ","HOUSE_NO":"４４號","E_COORD97":171613.23000000001,"N_COORD97":2545594.3100000001,"ADDRESS":"中華二路２０６巷４４號","OBJECTID":311201},"geometry":{"x":171613.23000000138,"y":2545594.3100000005}},{"attributes":{"ID":311210,"DIS_CODE":0,"TOWNNAME":"永康區","LI":"崑山里","LIN":"5鄰","STREET":"崑大路","SECT":" ","MAREA":" ","LANE":"１５５巷","ALLEY":" ","HOUSE_NO":"９號","E_COORD97":173612.16,"N_COORD97":2544247.4700000002,"ADDRESS":"崑大路１５５巷９號","OBJECTID":311202},"geometry":{"x":173612.16000000108,"y":2544247.4700000007}},{"attributes":{"ID":311211,"DIS_CODE":0,"TOWNNAME":"永康區","LI":"網寮里","LIN":"5鄰","STREET":"永勝街","SECT":" ","MAREA":" ","LANE":"１０６巷","ALLEY":" ","HOUSE_NO":"１９號","E_COORD97":173587.60999999999,"N_COORD97":2546360.9199999999,"ADDRESS":"永勝街１０６巷１９號","OBJECTID":311203},"geometry":{"x":173587.61000000034,"y":2546360.9200000037}},{"attributes":{"ID":311212,"DIS_CODE":0,"TOWNNAME":"永康區","LI":"崑山里","LIN":"32鄰","STREET":"大灣路","SECT":" ","MAREA":" ","LANE":"７９８巷","ALLEY":" ","HOUSE_NO":"８３號","E_COORD97":174106.48999999999,"N_COORD97":2544806.8399999999,"ADDRESS":"大灣路７９８巷８３號","OBJECTID":311204},"geometry":{"x":174106.49000000115,"y":2544806.8399999999}},{"attributes":{"ID":311213,"DIS_CODE":0,"TOWNNAME":"永康區","LI":"崑山里","LIN":"42鄰","STREET":"大仁街","SECT":" ","MAREA":" ","LANE":"１９９巷","ALLEY":" ","HOUSE_NO":"１２號","E_COORD97":173896.01000000001,"N_COORD97":2545065.75,"ADDRESS":"大仁街１９９巷１２號","OBJECTID":311205},"geometry":{"x":173896.01000000071,"y":2545065.75}},{"attributes":{"ID":311214,"DIS_CODE":0,"TOWNNAME":"北區","LI":"文成里","LIN":"7鄰","STREET":"文賢路","SECT":" ","MAREA":" ","LANE":"５４６巷","ALLEY":" ","HOUSE_NO":"４０號","E_COORD97":167522.97,"N_COORD97":2545343.2200000002,"ADDRESS":"文賢路５４６巷４０號","OBJECTID":311206},"geometry":{"x":167522.96999999974,"y":2545343.2200000025}},{"attributes":{"ID":311215,"DIS_CODE":0,"TOWNNAME":"北區","LI":"文成里","LIN":"7鄰","STREET":"文賢路","SECT":" ","MAREA":" ","LANE":"５４６巷","ALLEY":" ","HOUSE_NO":"４２號","E_COORD97":167528.12,"N_COORD97":2545343.0299999998,"ADDRESS":"文賢路５４６巷４２號","OBJECTID":311207},"geometry":{"x":167528.12000000104,"y":2545343.0300000012}},{"attributes":{"ID":311216,"DIS_CODE":0,"TOWNNAME":"北區","LI":"文成里","LIN":"7鄰","STREET":"文賢路","SECT":" ","MAREA":" ","LANE":"５４６巷","ALLEY":" ","HOUSE_NO":"４４號","E_COORD97":167533.26999999999,"N_COORD97":2545342.27,"ADDRESS":"文賢路５４６巷４４號","OBJECTID":311208},"geometry":{"x":167533.27000000048,"y":2545342.2700000014}},{"attributes":{"ID":311217,"DIS_CODE":0,"TOWNNAME":"北區","LI":"文成里","LIN":"7鄰","STREET":"文賢路","SECT":" ","MAREA":" ","LANE":"５４６巷","ALLEY":" ","HOUSE_NO":"４６號","E_COORD97":167538.79999999999,"N_COORD97":2545342.0800000001,"ADDRESS":"文賢路５４６巷４６號","OBJECTID":311209},"geometry":{"x":167538.80000000075,"y":2545342.0800000001}},{"attributes":{"ID":311218,"DIS_CODE":0,"TOWNNAME":"北區","LI":"文成里","LIN":"7鄰","STREET":"文賢路","SECT":" ","MAREA":" ","LANE":"５４６巷","ALLEY":" ","HOUSE_NO":"４８號","E_COORD97":167544.51999999999,"N_COORD97":2545342.0800000001,"ADDRESS":"文賢路５４６巷４８號","OBJECTID":311210},"geometry":{"x":167544.51999999955,"y":2545342.0800000001}},{"attributes":{"ID":311219,"DIS_CODE":0,"TOWNNAME":"北區","LI":"文成里","LIN":"7鄰","STREET":"文賢路","SECT":" ","MAREA":" ","LANE":"５４６巷","ALLEY":" ","HOUSE_NO":"５０號","E_COORD97":167549.48000000001,"N_COORD97":2545341.5099999998,"ADDRESS":"文賢路５４６巷５０號","OBJECTID":311211},"geometry":{"x":167549.48000000231,"y":2545341.5099999998}},{"attributes":{"ID":311220,"DIS_CODE":0,"TOWNNAME":"北區","LI":"文成里","LIN":"7鄰","STREET":"文賢路","SECT":" ","MAREA":" ","LANE":"５４６巷","ALLEY":" ","HOUSE_NO":"５２號","E_COORD97":167555.20000000001,"N_COORD97":2545341.3199999998,"ADDRESS":"文賢路５４６巷５２號","OBJECTID":311212},"geometry":{"x":167555.20000000112,"y":2545341.320000004}},{"attributes":{"ID":311221,"DIS_CODE":0,"TOWNNAME":"北區","LI":"文成里","LIN":"7鄰","STREET":"文賢路","SECT":" ","MAREA":" ","LANE":"５４６巷","ALLEY":" ","HOUSE_NO":"５４號","E_COORD97":167560.73000000001,"N_COORD97":2545341.1299999999,"ADDRESS":"文賢路５４６巷５４號","OBJECTID":311213},"geometry":{"x":167560.73000000045,"y":2545341.1300000027}},{"attributes":{"ID":311222,"DIS_CODE":0,"TOWNNAME":"北區","LI":"文成里","LIN":"7鄰","STREET":"文賢路","SECT":" ","MAREA":" ","LANE":"５４６巷","ALLEY":" ","HOUSE_NO":"５６號","E_COORD97":167565.31,"N_COORD97":2545341.3199999998,"ADDRESS":"文賢路５４６巷５６號","OBJECTID":311214},"geometry":{"x":167565.31000000052,"y":2545341.320000004}},{"attributes":{"ID":311223,"DIS_CODE":0,"TOWNNAME":"北區","LI":"文成里","LIN":"7鄰","STREET":"文賢路","SECT":" ","MAREA":" ","LANE":"５４６巷","ALLEY":" ","HOUSE_NO":"５８號","E_COORD97":167572.17000000001,"N_COORD97":2545341.3199999998,"ADDRESS":"文賢路５４６巷５８號","OBJECTID":311215},"geometry":{"x":167572.16999999993,"y":2545341.320000004}},{"attributes":{"ID":311224,"DIS_CODE":0,"TOWNNAME":"北區","LI":"文成里","LIN":"7鄰","STREET":"文賢路","SECT":" ","MAREA":" ","LANE":"５４６巷","ALLEY":" ","HOUSE_NO":"６０號","E_COORD97":167576.17999999999,"N_COORD97":2545341.5099999998,"ADDRESS":"文賢路５４６巷６０號","OBJECTID":311216},"geometry":{"x":167576.18000000156,"y":2545341.5099999998}},{"attributes":{"ID":311225,"DIS_CODE":0,"TOWNNAME":"東區","LI":"中西里","LIN":"17鄰","STREET":"林森路","SECT":"二段","MAREA":" ","LANE":" ","ALLEY":" ","HOUSE_NO":"７９號之２四樓之２","E_COORD97":170132.79999999999,"N_COORD97":2543262.7400000002,"ADDRESS":"林森路二段７９號之２四樓之２","OBJECTID":311217},"geometry":{"x":170132.79999999981,"y":2543262.7400000002}},{"attributes":{"ID":311226,"DIS_CODE":0,"TOWNNAME":"東區","LI":"中西里","LIN":"17鄰","STREET":"林森路","SECT":"二段","MAREA":" ","LANE":" ","ALLEY":" ","HOUSE_NO":"７９號之３二樓","E_COORD97":170128.82999999999,"N_COORD97":2543269.1200000001,"ADDRESS":"林森路二段７９號之３二樓","OBJECTID":311218},"geometry":{"x":170128.83000000101,"y":2543269.1200000029}},{"attributes":{"ID":311227,"DIS_CODE":0,"TOWNNAME":"東區","LI":"中西里","LIN":"17鄰","STREET":"林森路","SECT":"二段","MAREA":" ","LANE":" ","ALLEY":" ","HOUSE_NO":"７９號之３三樓","E_COORD97":170128.82999999999,"N_COORD97":2543269.1200000001,"ADDRESS":"林森路二段７９號之３三樓","OBJECTID":311219},"geometry":{"x":170128.83000000101,"y":2543269.1200000029}},{"attributes":{"ID":311228,"DIS_CODE":0,"TOWNNAME":"東區","LI":"中西里","LIN":"17鄰","STREET":"林森路","SECT":"二段","MAREA":" ","LANE":" ","ALLEY":" ","HOUSE_NO":"７９號之３四樓之１","E_COORD97":170128.82999999999,"N_COORD97":2543269.1200000001,"ADDRESS":"林森路二段７９號之３四樓之１","OBJECTID":311220},"geometry":{"x":170128.83000000101,"y":2543269.1200000029}},{"attributes":{"ID":311229,"DIS_CODE":0,"TOWNNAME":"東區","LI":"中西里","LIN":"17鄰","STREET":"林森路","SECT":"二段","MAREA":" ","LANE":" ","ALLEY":" ","HOUSE_NO":"７９號之３四樓之２","E_COORD97":170128.82999999999,"N_COORD97":2543269.1200000001,"ADDRESS":"林森路二段７９號之３四樓之２","OBJECTID":311221},"geometry":{"x":170128.83000000101,"y":2543269.1200000029}},{"attributes":{"ID":311230,"DIS_CODE":0,"TOWNNAME":"佳里區","LI":"東寧里","LIN":"1鄰","STREET":"中山路","SECT":" ","MAREA":" ","LANE":" ","ALLEY":" ","HOUSE_NO":"２９０號","E_COORD97":165721.85000000001,"N_COORD97":2562339.54,"ADDRESS":"中山路２９０號","OBJECTID":311222},"geometry":{"x":165721.84999999963,"y":2562339.540000001}},{"attributes":{"ID":311231,"DIS_CODE":0,"TOWNNAME":"永康區","LI":"東灣里","LIN":"25鄰","STREET":"大灣二街","SECT":" ","MAREA":" ","LANE":"７１巷","ALLEY":" ","HOUSE_NO":"２７號","E_COORD97":174817.10999999999,"N_COORD97":2544698.23,"ADDRESS":"大灣二街７１巷２７號","OBJECTID":311223},"geometry":{"x":174817.11000000034,"y":2544698.2300000023}},{"attributes":{"ID":311232,"DIS_CODE":0,"TOWNNAME":"永康區","LI":"埔園里","LIN":"39鄰","STREET":"聖龍街","SECT":" ","MAREA":" ","LANE":"１７９巷","ALLEY":" ","HOUSE_NO":"５３號","E_COORD97":174347.66,"N_COORD97":2547936.6200000001,"ADDRESS":"聖龍街１７９巷５３號","OBJECTID":311224},"geometry":{"x":174347.66000000108,"y":2547936.620000001}},{"attributes":{"ID":311233,"DIS_CODE":0,"TOWNNAME":"永康區","LI":"崑山里","LIN":"39鄰","STREET":"崑山街","SECT":" ","MAREA":" ","LANE":"２００巷","ALLEY":" ","HOUSE_NO":"２０號","E_COORD97":174134.28,"N_COORD97":2544967.7799999998,"ADDRESS":"崑山街２００巷２０號","OBJECTID":311225},"geometry":{"x":174134.28000000026,"y":2544967.7800000031}},{"attributes":{"ID":311234,"DIS_CODE":0,"TOWNNAME":"永康區","LI":"神洲里","LIN":"5鄰","STREET":"忠孝路","SECT":" ","MAREA":" ","LANE":"３８巷","ALLEY":" ","HOUSE_NO":"２３號","E_COORD97":172174.17000000001,"N_COORD97":2544710.6200000001,"ADDRESS":"忠孝路３８巷２３號","OBJECTID":311226},"geometry":{"x":172174.17000000086,"y":2544710.6200000029}},{"attributes":{"ID":311235,"DIS_CODE":0,"TOWNNAME":"永康區","LI":"龍潭里","LIN":"38鄰","STREET":"中山北路","SECT":" ","MAREA":" ","LANE":"１６４巷","ALLEY":" ","HOUSE_NO":"６６號","E_COORD97":174388.32999999999,"N_COORD97":2547394.5499999998,"ADDRESS":"中山北路１６４巷６６號","OBJECTID":311227},"geometry":{"x":174388.32999999914,"y":2547394.5499999989}},{"attributes":{"ID":311236,"DIS_CODE":0,"TOWNNAME":"北區","LI":"文成里","LIN":"7鄰","STREET":"文賢路","SECT":" ","MAREA":" ","LANE":"５４６巷","ALLEY":" ","HOUSE_NO":"６２號","E_COORD97":167583.23000000001,"N_COORD97":2545341.1299999999,"ADDRESS":"文賢路５４６巷６２號","OBJECTID":311228},"geometry":{"x":167583.22999999952,"y":2545341.1300000027}},{"attributes":{"ID":311237,"DIS_CODE":0,"TOWNNAME":"北區","LI":"文成里","LIN":"7鄰","STREET":"文賢路","SECT":" ","MAREA":" ","LANE":"５４６巷","ALLEY":" ","HOUSE_NO":"８號","E_COORD97":167409.48999999999,"N_COORD97":2545344.7799999998,"ADDRESS":"文賢路５４６巷８號","OBJECTID":311229},"geometry":{"x":167409.49000000022,"y":2545344.7800000012}},{"attributes":{"ID":311238,"DIS_CODE":0,"TOWNNAME":"北區","LI":"文成里","LIN":"7鄰","STREET":"文賢路","SECT":" ","MAREA":" ","LANE":"５４６巷","ALLEY":" ","HOUSE_NO":"８號之１","E_COORD97":167415.01999999999,"N_COORD97":2545345.73,"ADDRESS":"文賢路５４６巷８號之１","OBJECTID":311230},"geometry":{"x":167415.02000000048,"y":2545345.7300000023}},{"attributes":{"ID":311239,"DIS_CODE":0,"TOWNNAME":"北區","LI":"光武里","LIN":"7鄰","STREET":"北門路","SECT":"二段","MAREA":" ","LANE":"５４７巷","ALLEY":" ","HOUSE_NO":"２號","E_COORD97":169644.73999999999,"N_COORD97":2545695.7400000002,"ADDRESS":"北門路二段５４７巷２號","OBJECTID":311231},"geometry":{"x":169644.74000000115,"y":2545695.7400000021}},{"attributes":{"ID":311240,"DIS_CODE":0,"TOWNNAME":"北區","LI":"光武里","LIN":"7鄰","STREET":"北門路","SECT":"二段","MAREA":" ","LANE":"５４７巷","ALLEY":" ","HOUSE_NO":"６號","E_COORD97":169639.82000000001,"N_COORD97":2545697.3199999998,"ADDRESS":"北門路二段５４７巷６號","OBJECTID":311232},"geometry":{"x":169639.8200000003,"y":2545697.320000004}},{"attributes":{"ID":311241,"DIS_CODE":0,"TOWNNAME":"北區","LI":"光武里","LIN":"7鄰","STREET":"北門路","SECT":"二段","MAREA":" ","LANE":"５４７巷","ALLEY":" ","HOUSE_NO":"８號","E_COORD97":169634.26000000001,"N_COORD97":2545699.71,"ADDRESS":"北門路二段５４７巷８號","OBJECTID":311233},"geometry":{"x":169634.26000000071,"y":2545699.7100000028}},{"attributes":{"ID":311242,"DIS_CODE":0,"TOWNNAME":"南區","LI":"竹溪里","LIN":"7鄰","STREET":"健康路","SECT":"一段","MAREA":" ","LANE":"１３３巷","ALLEY":" ","HOUSE_NO":"１０號","E_COORD97":168883.76000000001,"N_COORD97":2542357.0600000001,"ADDRESS":"健康路一段１３３巷１０號","OBJECTID":311234},"geometry":{"x":168883.75999999978,"y":2542357.0600000024}},{"attributes":{"ID":311243,"DIS_CODE":0,"TOWNNAME":"南區","LI":"竹溪里","LIN":"7鄰","STREET":"健康路","SECT":"一段","MAREA":" ","LANE":"１３３巷","ALLEY":" ","HOUSE_NO":"２號","E_COORD97":168882.92000000001,"N_COORD97":2542389.5499999998,"ADDRESS":"健康路一段１３３巷２號","OBJECTID":311235},"geometry":{"x":168882.91999999993,"y":2542389.5500000007}},{"attributes":{"ID":311244,"DIS_CODE":0,"TOWNNAME":"南區","LI":"同安里","LIN":"7鄰","STREET":"灣裡路","SECT":" ","MAREA":" ","LANE":"３５１巷","ALLEY":" ","HOUSE_NO":"３７號之２","E_COORD97":166318.75,"N_COORD97":2536257.6299999999,"ADDRESS":"灣裡路３５１巷３７號之２","OBJECTID":311236},"geometry":{"x":166318.75000000093,"y":2536257.629999999}},{"attributes":{"ID":311245,"DIS_CODE":0,"TOWNNAME":"東區","LI":"中西里","LIN":"17鄰","STREET":"林森路","SECT":"二段","MAREA":" ","LANE":" ","ALLEY":" ","HOUSE_NO":"７９號之４二樓","E_COORD97":170124.87,"N_COORD97":2543274.29,"ADDRESS":"林森路二段７９號之４二樓","OBJECTID":311237},"geometry":{"x":170124.87000000197,"y":2543274.2899999991}},{"attributes":{"ID":311246,"DIS_CODE":0,"TOWNNAME":"東區","LI":"中西里","LIN":"17鄰","STREET":"林森路","SECT":"二段","MAREA":" ","LANE":" ","ALLEY":" ","HOUSE_NO":"７９號之４三樓","E_COORD97":170124.87,"N_COORD97":2543274.29,"ADDRESS":"林森路二段７９號之４三樓","OBJECTID":311238},"geometry":{"x":170124.87000000197,"y":2543274.2899999991}},{"attributes":{"ID":311247,"DIS_CODE":0,"TOWNNAME":"東區","LI":"中西里","LIN":"17鄰","STREET":"林森路","SECT":"二段","MAREA":" ","LANE":" ","ALLEY":" ","HOUSE_NO":"７９號之４四樓","E_COORD97":170124.87,"N_COORD97":2543274.29,"ADDRESS":"林森路二段７９號之４四樓","OBJECTID":311239},"geometry":{"x":170124.87000000197,"y":2543274.2899999991}},{"attributes":{"ID":311248,"DIS_CODE":0,"TOWNNAME":"東區","LI":"中西里","LIN":"17鄰","STREET":"林森路","SECT":"二段","MAREA":" ","LANE":" ","ALLEY":" ","HOUSE_NO":"７９號之５二樓","E_COORD97":170126.73000000001,"N_COORD97":2543281.1400000001,"ADDRESS":"林森路二段７９號之５二樓","OBJECTID":311240},"geometry":{"x":170126.73000000138,"y":2543281.1400000006}},{"attributes":{"ID":311249,"DIS_CODE":0,"TOWNNAME":"佳里區","LI":"建南里","LIN":"1鄰","STREET":"中山路","SECT":" ","MAREA":" ","LANE":" ","ALLEY":" ","HOUSE_NO":"２９７號","E_COORD97":165697.03,"N_COORD97":2562388.6899999999,"ADDRESS":"中山路２９７號","OBJECTID":311241},"geometry":{"x":165697.03000000026,"y":2562388.6900000013}},{"attributes":{"ID":311250,"DIS_CODE":0,"TOWNNAME":"將軍區","LI":"忠興里","LIN":"20鄰","STREET":" ","SECT":" ","MAREA":"忠興","LANE":" ","ALLEY":" ","HOUSE_NO":"２１０號","E_COORD97":163951.95999999999,"N_COORD97":2566670.2400000002,"ADDRESS":"忠興２１０號","OBJECTID":311242},"geometry":{"x":163951.96000000183,"y":2566670.2400000002}},{"attributes":{"ID":311251,"DIS_CODE":0,"TOWNNAME":"永康區","LI":"龍潭里","LIN":"38鄰","STREET":"中山北路","SECT":" ","MAREA":" ","LANE":"１６４巷","ALLEY":" ","HOUSE_NO":"８２號之５","E_COORD97":174450.19,"N_COORD97":2547386.9199999999,"ADDRESS":"中山北路１６４巷８２號之５","OBJECTID":311243},"geometry":{"x":174450.19000000041,"y":2547386.9199999999}},{"attributes":{"ID":311252,"DIS_CODE":0,"TOWNNAME":"永康區","LI":"網寮里","LIN":"20鄰","STREET":"永二街","SECT":" ","MAREA":" ","LANE":"２４５巷","ALLEY":" ","HOUSE_NO":"２號","E_COORD97":173316.29000000001,"N_COORD97":2546210,"ADDRESS":"永二街２４５巷２號","OBJECTID":311244},"geometry":{"x":173316.29000000097,"y":2546210}},{"attributes":{"ID":311253,"DIS_CODE":0,"TOWNNAME":"永康區","LI":"埔園里","LIN":"25鄰","STREET":"自強路","SECT":" ","MAREA":" ","LANE":"４１７巷","ALLEY":" ","HOUSE_NO":"１０號","E_COORD97":173769.39000000001,"N_COORD97":2548012.7400000002,"ADDRESS":"自強路４１７巷１０號","OBJECTID":311245},"geometry":{"x":173769.3900000006,"y":2548012.7400000002}},{"attributes":{"ID":311254,"DIS_CODE":0,"TOWNNAME":"永康區","LI":"東灣里","LIN":"25鄰","STREET":"大灣二街","SECT":" ","MAREA":" ","LANE":"７１巷","ALLEY":" ","HOUSE_NO":"３５號","E_COORD97":174813.04000000001,"N_COORD97":2544682.9900000002,"ADDRESS":"大灣二街７１巷３５號","OBJECTID":311246},"geometry":{"x":174813.04000000097,"y":2544682.9900000021}},{"attributes":{"ID":311255,"DIS_CODE":0,"TOWNNAME":"永康區","LI":"埔園里","LIN":"4鄰","STREET":"埔聖街","SECT":" ","MAREA":" ","LANE":"８１巷","ALLEY":" ","HOUSE_NO":"７３之３號","E_COORD97":173994.85999999999,"N_COORD97":2547779.6400000001,"ADDRESS":"埔聖街８１巷７３之３號","OBJECTID":311247},"geometry":{"x":173994.86000000034,"y":2547779.6400000006}},{"attributes":{"ID":311256,"DIS_CODE":0,"TOWNNAME":"永康區","LI":"\u25A0洲里","LIN":"4鄰","STREET":"\u25A0行路","SECT":" ","MAREA":" ","LANE":"９８巷","ALLEY":" ","HOUSE_NO":"４號","E_COORD97":171547.56,"N_COORD97":2549295.2400000002,"ADDRESS":"\u25A0行路９８巷４號","OBJECTID":311248},"geometry":{"x":171547.56000000052,"y":2549295.2400000021}},{"attributes":{"ID":311257,"DIS_CODE":0,"TOWNNAME":"永康區","LI":"龍潭里","LIN":"5鄰","STREET":"龍潭街","SECT":" ","MAREA":" ","LANE":"１２１巷","ALLEY":" ","HOUSE_NO":"１３號","E_COORD97":174790.29999999999,"N_COORD97":2548175.5099999998,"ADDRESS":"龍潭街１２１巷１３號","OBJECTID":311249},"geometry":{"x":174790.30000000075,"y":2548175.5099999998}},{"attributes":{"ID":311258,"DIS_CODE":0,"TOWNNAME":"南區","LI":"同安里","LIN":"7鄰","STREET":"灣裡路","SECT":" ","MAREA":" ","LANE":"３５１巷","ALLEY":" ","HOUSE_NO":"３７號之３","E_COORD97":166322.34,"N_COORD97":2536253.1899999999,"ADDRESS":"灣裡路３５１巷３７號之３","OBJECTID":311250},"geometry":{"x":166322.34000000171,"y":2536253.1900000013}},{"attributes":{"ID":311259,"DIS_CODE":0,"TOWNNAME":"北區","LI":"五福里","LIN":"7鄰","STREET":"成功路","SECT":" ","MAREA":" ","LANE":"２３８巷","ALLEY":" ","HOUSE_NO":"２４號","E_COORD97":168323.85999999999,"N_COORD97":2544493.9700000002,"ADDRESS":"成功路２３８巷２４號","OBJECTID":311251},"geometry":{"x":168323.86000000127,"y":2544493.9700000025}},{"attributes":{"ID":311260,"DIS_CODE":0,"TOWNNAME":"北區","LI":"五福里","LIN":"7鄰","STREET":"成功路","SECT":" ","MAREA":" ","LANE":"２３８巷","ALLEY":" ","HOUSE_NO":"５０號","E_COORD97":168327.89999999999,"N_COORD97":2544503.48,"ADDRESS":"成功路２３８巷５０號","OBJECTID":311252},"geometry":{"x":168327.90000000224,"y":2544503.4800000023}},{"attributes":{"ID":311261,"DIS_CODE":0,"TOWNNAME":"北區","LI":"五福里","LIN":"7鄰","STREET":"成功路","SECT":" ","MAREA":" ","LANE":"２３８巷","ALLEY":" ","HOUSE_NO":"５２號","E_COORD97":168331.54999999999,"N_COORD97":2544510.5099999998,"ADDRESS":"成功路２３８巷５２號","OBJECTID":311253},"geometry":{"x":168331.55000000168,"y":2544510.5099999998}},{"attributes":{"ID":311262,"DIS_CODE":0,"TOWNNAME":"北區","LI":"五福里","LIN":"7鄰","STREET":"成功路","SECT":" ","MAREA":" ","LANE":"２３８巷","ALLEY":" ","HOUSE_NO":"５４號","E_COORD97":168353.48999999999,"N_COORD97":2544508.79,"ADDRESS":"成功路２３８巷５４號","OBJECTID":311254},"geometry":{"x":168353.49000000022,"y":2544508.7899999991}},{"attributes":{"ID":311263,"DIS_CODE":0,"TOWNNAME":"北區","LI":"五福里","LIN":"7鄰","STREET":"成功路","SECT":" ","MAREA":" ","LANE":"２３８巷","ALLEY":" ","HOUSE_NO":"５４號之１","E_COORD97":168355.45000000001,"N_COORD97":2544512.7000000002,"ADDRESS":"成功路２３８巷５４號之１","OBJECTID":311255},"geometry":{"x":168355.45000000019,"y":2544512.6999999993}},{"attributes":{"ID":311264,"DIS_CODE":0,"TOWNNAME":"北區","LI":"五福里","LIN":"7鄰","STREET":"成功路","SECT":" ","MAREA":" ","LANE":"２３８巷","ALLEY":" ","HOUSE_NO":"５４號之２","E_COORD97":168357.53,"N_COORD97":2544516.2200000002,"ADDRESS":"成功路２３８巷５４號之２","OBJECTID":311256},"geometry":{"x":168357.53000000212,"y":2544516.2200000025}},{"attributes":{"ID":311265,"DIS_CODE":0,"TOWNNAME":"東區","LI":"中西里","LIN":"17鄰","STREET":"林森路","SECT":"二段","MAREA":" ","LANE":" ","ALLEY":" ","HOUSE_NO":"７９號之５四樓","E_COORD97":170126.73000000001,"N_COORD97":2543281.1400000001,"ADDRESS":"林森路二段７９號之５四樓","OBJECTID":311257},"geometry":{"x":170126.73000000138,"y":2543281.1400000006}},{"attributes":{"ID":311266,"DIS_CODE":0,"TOWNNAME":"東區","LI":"中西里","LIN":"17鄰","STREET":"林森路","SECT":"二段","MAREA":" ","LANE":" ","ALLEY":" ","HOUSE_NO":"７９號之６二樓","E_COORD97":170131.98999999999,"N_COORD97":2543286.8700000001,"ADDRESS":"林森路二段７９號之６二樓","OBJECTID":311258},"geometry":{"x":170131.99000000022,"y":2543286.8699999992}},{"attributes":{"ID":311267,"DIS_CODE":0,"TOWNNAME":"東區","LI":"中西里","LIN":"17鄰","STREET":"林森路","SECT":"二段","MAREA":" ","LANE":" ","ALLEY":" ","HOUSE_NO":"７９號之６三樓","E_COORD97":170131.98999999999,"N_COORD97":2543286.8700000001,"ADDRESS":"林森路二段７９號之６三樓","OBJECTID":311259},"geometry":{"x":170131.99000000022,"y":2543286.8699999992}},{"attributes":{"ID":311268,"DIS_CODE":0,"TOWNNAME":"東區","LI":"中西里","LIN":"17鄰","STREET":"林森路","SECT":"二段","MAREA":" ","LANE":" ","ALLEY":" ","HOUSE_NO":"７９號之６四樓","E_COORD97":170131.98999999999,"N_COORD97":2543286.8700000001,"ADDRESS":"林森路二段７９號之６四樓","OBJECTID":311260},"geometry":{"x":170131.99000000022,"y":2543286.8699999992}},{"attributes":{"ID":311269,"DIS_CODE":0,"TOWNNAME":"中西區","LI":"法華里","LIN":"17鄰","STREET":"法華街","SECT":" ","MAREA":" ","LANE":" ","ALLEY":" ","HOUSE_NO":"１７６號二樓","E_COORD97":168858.97,"N_COORD97":2542526.6800000002,"ADDRESS":"法華街１７６號二樓","OBJECTID":311261},"geometry":{"x":168858.96999999881,"y":2542526.6799999997}},{"attributes":{"ID":311270,"DIS_CODE":0,"TOWNNAME":"中西區","LI":"法華里","LIN":"17鄰","STREET":"法華街","SECT":" ","MAREA":" ","LANE":" ","ALLEY":" ","HOUSE_NO":"１７６號三樓","E_COORD97":168858.97,"N_COORD97":2542526.6800000002,"ADDRESS":"法華街１７６號三樓","OBJECTID":311262},"geometry":{"x":168858.96999999881,"y":2542526.6799999997}},{"attributes":{"ID":311271,"DIS_CODE":0,"TOWNNAME":"將軍區","LI":"忠興里","LIN":"20鄰","STREET":" ","SECT":" ","MAREA":"忠興","LANE":" ","ALLEY":" ","HOUSE_NO":"２１１號","E_COORD97":163978.32999999999,"N_COORD97":2566688.0800000001,"ADDRESS":"忠興２１１號","OBJECTID":311263},"geometry":{"x":163978.33000000194,"y":2566688.0800000001}},{"attributes":{"ID":311272,"DIS_CODE":0,"TOWNNAME":"將軍區","LI":"忠興里","LIN":"5鄰","STREET":" ","SECT":" ","MAREA":"忠興","LANE":" ","ALLEY":" ","HOUSE_NO":"６２號","E_COORD97":163657.66,"N_COORD97":2566879.8100000001,"ADDRESS":"忠興６２號","OBJECTID":311264},"geometry":{"x":163657.66000000108,"y":2566879.8100000005}},{"attributes":{"ID":311273,"DIS_CODE":0,"TOWNNAME":"永康區","LI":"神洲里","LIN":"18鄰","STREET":"忠孝路","SECT":" ","MAREA":" ","LANE":"１０６巷","ALLEY":" ","HOUSE_NO":"４號","E_COORD97":172109.37,"N_COORD97":2544974.75,"ADDRESS":"忠孝路１０６巷４號","OBJECTID":311265},"geometry":{"x":172109.37000000011,"y":2544974.75}},{"attributes":{"ID":311274,"DIS_CODE":0,"TOWNNAME":"將軍區","LI":"忠興里","LIN":"17鄰","STREET":" ","SECT":" ","MAREA":"忠興","LANE":" ","ALLEY":" ","HOUSE_NO":"１６８之２號","E_COORD97":163843.67000000001,"N_COORD97":2566898.1600000001,"ADDRESS":"忠興１６８之２號","OBJECTID":311266},"geometry":{"x":163843.67000000179,"y":2566898.1600000039}},{"attributes":{"ID":311275,"DIS_CODE":0,"TOWNNAME":"永康區","LI":"南灣里","LIN":" ","STREET":"南興路","SECT":" ","MAREA":" ","LANE":"１０１巷","ALLEY":" ","HOUSE_NO":"２４號","E_COORD97":174076.95999999999,"N_COORD97":2544383.25,"ADDRESS":"南興路１０１巷２４號","OBJECTID":311267},"geometry":{"x":174076.95999999996,"y":2544383.2500000019}},{"attributes":{"ID":311276,"DIS_CODE":0,"TOWNNAME":"將軍區","LI":"忠興里","LIN":"17鄰","STREET":" ","SECT":" ","MAREA":"忠興","LANE":" ","ALLEY":" ","HOUSE_NO":"１６８之３號","E_COORD97":163843.26000000001,"N_COORD97":2566906.0600000001,"ADDRESS":"忠興１６８之３號","OBJECTID":311268},"geometry":{"x":163843.26000000071,"y":2566906.0600000042}},{"attributes":{"ID":311277,"DIS_CODE":0,"TOWNNAME":"永康區","LI":"網寮里","LIN":"20鄰","STREET":"文化路","SECT":" ","MAREA":" ","LANE":"３２３巷","ALLEY":" ","HOUSE_NO":"１８號","E_COORD97":173383.38,"N_COORD97":2546138.0800000001,"ADDRESS":"文化路３２３巷１８號","OBJECTID":311269},"geometry":{"x":173383.38000000082,"y":2546138.0800000001}},{"attributes":{"ID":311278,"DIS_CODE":0,"TOWNNAME":"永康區","LI":"復興里","LIN":"20鄰","STREET":"復興路","SECT":" ","MAREA":" ","LANE":"２８２巷","ALLEY":" ","HOUSE_NO":"４１號","E_COORD97":172377.45000000001,"N_COORD97":2544407.02,"ADDRESS":"復興路２８２巷４１號","OBJECTID":311270},"geometry":{"x":172377.45000000112,"y":2544407.0200000033}},{"attributes":{"ID":311279,"DIS_CODE":0,"TOWNNAME":"永康區","LI":"龍潭里","LIN":"39鄰","STREET":"永明街","SECT":" ","MAREA":" ","LANE":"２１５巷","ALLEY":" ","HOUSE_NO":"１２號","E_COORD97":174527.42000000001,"N_COORD97":2547256.0600000001,"ADDRESS":"永明街２１５巷１２號","OBJECTID":311271},"geometry":{"x":174527.42000000086,"y":2547256.0600000024}},{"attributes":{"ID":311280,"DIS_CODE":0,"TOWNNAME":"北區","LI":"五福里","LIN":"7鄰","STREET":"成功路","SECT":" ","MAREA":" ","LANE":"２３８巷","ALLEY":" ","HOUSE_NO":"５４號之３","E_COORD97":168359.88,"N_COORD97":2544519.3399999999,"ADDRESS":"成功路２３８巷５４號之３","OBJECTID":311272},"geometry":{"x":168359.88000000175,"y":2544519.3399999999}},{"attributes":{"ID":311281,"DIS_CODE":0,"TOWNNAME":"北區","LI":"五福里","LIN":"7鄰","STREET":"成功路","SECT":" ","MAREA":" ","LANE":"２３８巷","ALLEY":" ","HOUSE_NO":"５４號之４","E_COORD97":168361.95999999999,"N_COORD97":2544522.8599999999,"ADDRESS":"成功路２３８巷５４號之４","OBJECTID":311273},"geometry":{"x":168361.95999999996,"y":2544522.8600000031}},{"attributes":{"ID":311282,"DIS_CODE":0,"TOWNNAME":"北區","LI":"五福里","LIN":"7鄰","STREET":"成功路","SECT":" ","MAREA":" ","LANE":"２３８巷","ALLEY":" ","HOUSE_NO":"５４號之５","E_COORD97":168364.04999999999,"N_COORD97":2544526.1200000001,"ADDRESS":"成功路２３８巷５４號之５","OBJECTID":311274},"geometry":{"x":168364.05000000075,"y":2544526.1199999992}},{"attributes":{"ID":311283,"DIS_CODE":0,"TOWNNAME":"北區","LI":"五福里","LIN":"7鄰","STREET":"成功路","SECT":" ","MAREA":" ","LANE":"２３８巷","ALLEY":" ","HOUSE_NO":"５４號之６","E_COORD97":168366.26999999999,"N_COORD97":2544529.2400000002,"ADDRESS":"成功路２３８巷５４號之６","OBJECTID":311275},"geometry":{"x":168366.26999999955,"y":2544529.2400000021}},{"attributes":{"ID":311284,"DIS_CODE":0,"TOWNNAME":"北區","LI":"五福里","LIN":"7鄰","STREET":"成功路","SECT":" ","MAREA":" ","LANE":"２３８巷","ALLEY":" ","HOUSE_NO":"５６號","E_COORD97":168347.23000000001,"N_COORD97":2544517.6499999999,"ADDRESS":"成功路２３８巷５６號","OBJECTID":311276},"geometry":{"x":168347.23000000045,"y":2544517.6500000004}},{"attributes":{"ID":311285,"DIS_CODE":0,"TOWNNAME":"北區","LI":"五福里","LIN":"7鄰","STREET":"成功路","SECT":" ","MAREA":" ","LANE":"２３８巷","ALLEY":" ","HOUSE_NO":"６０號","E_COORD97":168359.75,"N_COORD97":2544532.1099999999,"ADDRESS":"成功路２３８巷６０號","OBJECTID":311277},"geometry":{"x":168359.75000000093,"y":2544532.1100000013}},{"attributes":{"ID":311286,"DIS_CODE":0,"TOWNNAME":"北區","LI":"五福里","LIN":"7鄰","STREET":"成功路","SECT":" ","MAREA":" ","LANE":"２３８巷","ALLEY":" ","HOUSE_NO":"６２號","E_COORD97":168341.10999999999,"N_COORD97":2544522.6000000001,"ADDRESS":"成功路２３８巷６２號","OBJECTID":311278},"geometry":{"x":168341.11000000034,"y":2544522.6000000015}},{"attributes":{"ID":311287,"DIS_CODE":0,"TOWNNAME":"北區","LI":"五福里","LIN":"7鄰","STREET":"成功路","SECT":" ","MAREA":" ","LANE":"２３８巷","ALLEY":" ","HOUSE_NO":"６４號","E_COORD97":168349.97,"N_COORD97":2544534.9700000002,"ADDRESS":"成功路２３８巷６４號","OBJECTID":311279},"geometry":{"x":168349.96999999974,"y":2544534.9700000025}},{"attributes":{"ID":311288,"DIS_CODE":0,"TOWNNAME":"中西區","LI":"法華里","LIN":"17鄰","STREET":"法華街","SECT":" ","MAREA":" ","LANE":" ","ALLEY":" ","HOUSE_NO":"１７６號之１二樓","E_COORD97":168858.97,"N_COORD97":2542532.5800000001,"ADDRESS":"法華街１７６號之１二樓","OBJECTID":311280},"geometry":{"x":168858.96999999881,"y":2542532.5800000019}},{"attributes":{"ID":311289,"DIS_CODE":0,"TOWNNAME":"中西區","LI":"法華里","LIN":"17鄰","STREET":"法華街","SECT":" ","MAREA":" ","LANE":" ","ALLEY":" ","HOUSE_NO":"１７６號之１三樓","E_COORD97":168858.97,"N_COORD97":2542532.5800000001,"ADDRESS":"法華街１７６號之１三樓","OBJECTID":311281},"geometry":{"x":168858.96999999881,"y":2542532.5800000019}},{"attributes":{"ID":311290,"DIS_CODE":0,"TOWNNAME":"中西區","LI":"法華里","LIN":"17鄰","STREET":"法華街","SECT":" ","MAREA":" ","LANE":" ","ALLEY":" ","HOUSE_NO":"１７６號之１五樓","E_COORD97":168858.97,"N_COORD97":2542532.5800000001,"ADDRESS":"法華街１７６號之１五樓","OBJECTID":311282},"geometry":{"x":168858.96999999881,"y":2542532.5800000019}},{"attributes":{"ID":311291,"DIS_CODE":0,"TOWNNAME":"中西區","LI":"法華里","LIN":"17鄰","STREET":"法華街","SECT":" ","MAREA":" ","LANE":" ","ALLEY":" ","HOUSE_NO":"１７６號之１六樓","E_COORD97":168858.97,"N_COORD97":2542532.5800000001,"ADDRESS":"法華街１７６號之１六樓","OBJECTID":311283},"geometry":{"x":168858.96999999881,"y":2542532.5800000019}},{"attributes":{"ID":311292,"DIS_CODE":0,"TOWNNAME":"中西區","LI":"法華里","LIN":"17鄰","STREET":"法華街","SECT":" ","MAREA":" ","LANE":" ","ALLEY":" ","HOUSE_NO":"１７６號之１四樓","E_COORD97":168858.97,"N_COORD97":2542532.5800000001,"ADDRESS":"法華街１７６號之１四樓","OBJECTID":311284},"geometry":{"x":168858.96999999881,"y":2542532.5800000019}},{"attributes":{"ID":311293,"DIS_CODE":0,"TOWNNAME":"將軍區","LI":"忠興里","LIN":"19鄰","STREET":" ","SECT":" ","MAREA":"忠興","LANE":" ","ALLEY":" ","HOUSE_NO":"１８７之４號","E_COORD97":163847.62,"N_COORD97":2566699.8599999999,"ADDRESS":"忠興１８７之４號","OBJECTID":311285},"geometry":{"x":163847.62000000197,"y":2566699.8600000013}},{"attributes":{"ID":311294,"DIS_CODE":0,"TOWNNAME":"北區","LI":"五福里","LIN":"7鄰","STREET":"長北街","SECT":" ","MAREA":" ","LANE":"２１巷","ALLEY":" ","HOUSE_NO":"５號","E_COORD97":168336.76999999999,"N_COORD97":2544489.4100000001,"ADDRESS":"長北街２１巷５號","OBJECTID":311286},"geometry":{"x":168336.77000000048,"y":2544489.4100000039}},{"attributes":{"ID":311295,"DIS_CODE":0,"TOWNNAME":"北區","LI":"五福里","LIN":"7鄰","STREET":"長北街","SECT":" ","MAREA":" ","LANE":"２１巷","ALLEY":" ","HOUSE_NO":"６號","E_COORD97":168345.10999999999,"N_COORD97":2544502.4399999999,"ADDRESS":"長北街２１巷６號","OBJECTID":311287},"geometry":{"x":168345.1100000022,"y":2544502.4400000013}},{"attributes":{"ID":311296,"DIS_CODE":0,"TOWNNAME":"北區","LI":"五福里","LIN":"7鄰","STREET":"長北街","SECT":" ","MAREA":" ","LANE":"２１巷","ALLEY":" ","HOUSE_NO":"７號","E_COORD97":168333.25,"N_COORD97":2544491.7599999998,"ADDRESS":"長北街２１巷７號","OBJECTID":311288},"geometry":{"x":168333.25,"y":2544491.7600000016}},{"attributes":{"ID":311297,"DIS_CODE":0,"TOWNNAME":"北區","LI":"五福里","LIN":"7鄰","STREET":"長北街","SECT":" ","MAREA":" ","LANE":"２１巷","ALLEY":" ","HOUSE_NO":"８號","E_COORD97":168338.72,"N_COORD97":2544502.8300000001,"ADDRESS":"長北街２１巷８號","OBJECTID":311289},"geometry":{"x":168338.7200000016,"y":2544502.8300000001}},{"attributes":{"ID":311298,"DIS_CODE":0,"TOWNNAME":"將軍區","LI":"忠興里","LIN":"19鄰","STREET":" ","SECT":" ","MAREA":"忠興","LANE":" ","ALLEY":" ","HOUSE_NO":"１８７之５號","E_COORD97":163848.20000000001,"N_COORD97":2566695.9500000002,"ADDRESS":"忠興１８７之５號","OBJECTID":311290},"geometry":{"x":163848.20000000019,"y":2566695.9500000011}},{"attributes":{"ID":311299,"DIS_CODE":0,"TOWNNAME":"將軍區","LI":"忠興里","LIN":"19鄰","STREET":" ","SECT":" ","MAREA":"忠興","LANE":" ","ALLEY":" ","HOUSE_NO":"１８７之６號","E_COORD97":163848.85000000001,"N_COORD97":2566692.2000000002,"ADDRESS":"忠興１８７之６號","OBJECTID":311291},"geometry":{"x":163848.85000000149,"y":2566692.1999999993}},{"attributes":{"ID":311300,"DIS_CODE":0,"TOWNNAME":"北區","LI":"五福里","LIN":"7鄰","STREET":"長北街","SECT":" ","MAREA":" ","LANE":"２１巷","ALLEY":" ","HOUSE_NO":"９號","E_COORD97":168329.07000000001,"N_COORD97":2544492.6699999999,"ADDRESS":"長北街２１巷９號","OBJECTID":311292},"geometry":{"x":168329.07000000123,"y":2544492.6699999999}},{"attributes":{"ID":311301,"DIS_CODE":0,"TOWNNAME":"東區","LI":"崇信里","LIN":"20鄰","STREET":"中華東路","SECT":"三段","MAREA":" ","LANE":"４４巷","ALLEY":" ","HOUSE_NO":"１００號","E_COORD97":170735.29999999999,"N_COORD97":2542554.04,"ADDRESS":"中華東路三段４４巷１００號","OBJECTID":311293},"geometry":{"x":170735.30000000168,"y":2542554.0399999991}},{"attributes":{"ID":311302,"DIS_CODE":0,"TOWNNAME":"東區","LI":"崇信里","LIN":"20鄰","STREET":"中華東路","SECT":"三段","MAREA":" ","LANE":"４４巷","ALLEY":" ","HOUSE_NO":"１０２號","E_COORD97":170732.29999999999,"N_COORD97":2542557.4399999999,"ADDRESS":"中華東路三段４４巷１０２號","OBJECTID":311294},"geometry":{"x":170732.30000000075,"y":2542557.4400000013}},{"attributes":{"ID":311303,"DIS_CODE":0,"TOWNNAME":"東區","LI":"崇信里","LIN":"20鄰","STREET":"中華東路","SECT":"三段","MAREA":" ","LANE":"４４巷","ALLEY":" ","HOUSE_NO":"１０４號","E_COORD97":170729.09,"N_COORD97":2542562.6400000001,"ADDRESS":"中華東路三段４４巷１０４號","OBJECTID":311295},"geometry":{"x":170729.08999999985,"y":2542562.6400000043}},{"attributes":{"ID":311304,"DIS_CODE":0,"TOWNNAME":"東區","LI":"崇信里","LIN":"20鄰","STREET":"中華東路","SECT":"三段","MAREA":" ","LANE":"４４巷","ALLEY":" ","HOUSE_NO":"７４號","E_COORD97":170780.56,"N_COORD97":2542496.2400000002,"ADDRESS":"中華東路三段４４巷７４號","OBJECTID":311296},"geometry":{"x":170780.55999999866,"y":2542496.2400000002}},{"attributes":{"ID":311305,"DIS_CODE":0,"TOWNNAME":"北區","LI":"三德里","LIN":"7鄰","STREET":"裕民街","SECT":" ","MAREA":" ","LANE":"３４巷","ALLEY":" ","HOUSE_NO":"２０號","E_COORD97":168471.14000000001,"N_COORD97":2544415.98,"ADDRESS":"裕民街３４巷２０號","OBJECTID":311297},"geometry":{"x":168471.13999999966,"y":2544415.9800000023}},{"attributes":{"ID":311306,"DIS_CODE":0,"TOWNNAME":"北區","LI":"三德里","LIN":"7鄰","STREET":"裕民街","SECT":" ","MAREA":" ","LANE":"３４巷","ALLEY":" ","HOUSE_NO":"２２號","E_COORD97":168473.44,"N_COORD97":2544413.54,"ADDRESS":"裕民街３４巷２２號","OBJECTID":311298},"geometry":{"x":168473.44000000227,"y":2544413.540000001}},{"attributes":{"ID":311307,"DIS_CODE":0,"TOWNNAME":"北區","LI":"三德里","LIN":"7鄰","STREET":"裕民街","SECT":" ","MAREA":" ","LANE":"３４巷","ALLEY":" ","HOUSE_NO":"２４號","E_COORD97":168476.19,"N_COORD97":2544410.3599999999,"ADDRESS":"裕民街３４巷２４號","OBJECTID":311299},"geometry":{"x":168476.19000000041,"y":2544410.3599999994}},{"attributes":{"ID":311308,"DIS_CODE":0,"TOWNNAME":"北區","LI":"三德里","LIN":"7鄰","STREET":"裕民街","SECT":" ","MAREA":" ","LANE":"３４巷","ALLEY":" ","HOUSE_NO":"２號","E_COORD97":168455.34,"N_COORD97":2544435.52,"ADDRESS":"裕民街３４巷２號","OBJECTID":311300},"geometry":{"x":168455.34000000078,"y":2544435.5200000014}},{"attributes":{"ID":311309,"DIS_CODE":0,"TOWNNAME":"北區","LI":"三德里","LIN":"7鄰","STREET":"裕民街","SECT":" ","MAREA":" ","LANE":"３４巷","ALLEY":" ","HOUSE_NO":"４號","E_COORD97":168457.35999999999,"N_COORD97":2544433.0600000001,"ADDRESS":"裕民街３４巷４號","OBJECTID":311301},"geometry":{"x":168457.36000000127,"y":2544433.0600000005}},{"attributes":{"ID":311310,"DIS_CODE":0,"TOWNNAME":"北區","LI":"三德里","LIN":"7鄰","STREET":"裕民街","SECT":" ","MAREA":" ","LANE":"３４巷","ALLEY":" ","HOUSE_NO":"６號","E_COORD97":168459.82999999999,"N_COORD97":2544430.1699999999,"ADDRESS":"裕民街３４巷６號","OBJECTID":311302},"geometry":{"x":168459.83000000007,"y":2544430.1700000018}},{"attributes":{"ID":311311,"DIS_CODE":0,"TOWNNAME":"中西區","LI":"法華里","LIN":"17鄰","STREET":"法華街","SECT":" ","MAREA":" ","LANE":" ","ALLEY":" ","HOUSE_NO":"１７６號之２二樓","E_COORD97":168843.23000000001,"N_COORD97":2542533.7599999998,"ADDRESS":"法華街１７６號之２二樓","OBJECTID":311303},"geometry":{"x":168843.23000000138,"y":2542533.7600000035}},{"attributes":{"ID":311312,"DIS_CODE":0,"TOWNNAME":"中西區","LI":"法華里","LIN":"17鄰","STREET":"法華街","SECT":" ","MAREA":" ","LANE":" ","ALLEY":" ","HOUSE_NO":"１７６號之２三樓","E_COORD97":168843.23000000001,"N_COORD97":2542533.7599999998,"ADDRESS":"法華街１７６號之２三樓","OBJECTID":311304},"geometry":{"x":168843.23000000138,"y":2542533.7600000035}},{"attributes":{"ID":311313,"DIS_CODE":0,"TOWNNAME":"中西區","LI":"法華里","LIN":"17鄰","STREET":"法華街","SECT":" ","MAREA":" ","LANE":" ","ALLEY":" ","HOUSE_NO":"１７６號之２五樓","E_COORD97":168843.23000000001,"N_COORD97":2542533.7599999998,"ADDRESS":"法華街１７６號之２五樓","OBJECTID":311305},"geometry":{"x":168843.23000000138,"y":2542533.7600000035}},{"attributes":{"ID":311314,"DIS_CODE":0,"TOWNNAME":"中西區","LI":"法華里","LIN":"17鄰","STREET":"法華街","SECT":" ","MAREA":" ","LANE":" ","ALLEY":" ","HOUSE_NO":"１７６號之２六樓","E_COORD97":168843.23000000001,"N_COORD97":2542533.7599999998,"ADDRESS":"法華街１７６號之２六樓","OBJECTID":311306},"geometry":{"x":168843.23000000138,"y":2542533.7600000035}},{"attributes":{"ID":311315,"DIS_CODE":0,"TOWNNAME":"東區","LI":"崇信里","LIN":"26鄰","STREET":"崇善路","SECT":" ","MAREA":" ","LANE":"２３１巷","ALLEY":" ","HOUSE_NO":"１７號","E_COORD97":170619.91,"N_COORD97":2542228.0299999998,"ADDRESS":"崇善路２３１巷１７號","OBJECTID":311307},"geometry":{"x":170619.91000000108,"y":2542228.0300000012}},{"attributes":{"ID":311316,"DIS_CODE":0,"TOWNNAME":"東區","LI":"崇信里","LIN":"26鄰","STREET":"崇善路","SECT":" ","MAREA":" ","LANE":"２３１巷","ALLEY":" ","HOUSE_NO":"１９號","E_COORD97":170623.04999999999,"N_COORD97":2542231.3500000001,"ADDRESS":"崇善路２３１巷１９號","OBJECTID":311308},"geometry":{"x":170623.04999999981,"y":2542231.3500000034}},{"attributes":{"ID":311317,"DIS_CODE":0,"TOWNNAME":"東區","LI":"崇信里","LIN":"26鄰","STREET":"崇善路","SECT":" ","MAREA":" ","LANE":"２３１巷","ALLEY":" ","HOUSE_NO":"２１號","E_COORD97":170625.67000000001,"N_COORD97":2542234.6600000001,"ADDRESS":"崇善路２３１巷２１號","OBJECTID":311309},"geometry":{"x":170625.66999999993,"y":2542234.660000002}},{"attributes":{"ID":311318,"DIS_CODE":0,"TOWNNAME":"東區","LI":"崇信里","LIN":"26鄰","STREET":"崇學路","SECT":" ","MAREA":" ","LANE":"２３０巷","ALLEY":" ","HOUSE_NO":"１１９號","E_COORD97":170616.32000000001,"N_COORD97":2542279.6899999999,"ADDRESS":"崇學路２３０巷１１９號","OBJECTID":311310},"geometry":{"x":170616.3200000003,"y":2542279.6900000032}},{"attributes":{"ID":311319,"DIS_CODE":0,"TOWNNAME":"東區","LI":"崇信里","LIN":"26鄰","STREET":"崇學路","SECT":" ","MAREA":" ","LANE":"２３０巷","ALLEY":" ","HOUSE_NO":"１３１號","E_COORD97":170597.20000000001,"N_COORD97":2542252.7999999998,"ADDRESS":"崇學路２３０巷１３１號","OBJECTID":311311},"geometry":{"x":170597.19999999925,"y":2542252.8000000007}},{"attributes":{"ID":311320,"DIS_CODE":0,"TOWNNAME":"東區","LI":"崇學里","LIN":"9鄰","STREET":"崇明十一街","SECT":" ","MAREA":" ","LANE":"５２巷","ALLEY":" ","HOUSE_NO":"１０號","E_COORD97":170366.23000000001,"N_COORD97":2541862.1699999999,"ADDRESS":"崇明十一街５２巷１０號","OBJECTID":311312},"geometry":{"x":170366.23000000045,"y":2541862.1699999999}},{"attributes":{"ID":311321,"DIS_CODE":0,"TOWNNAME":"東區","LI":"崇學里","LIN":"9鄰","STREET":"崇明十一街","SECT":" ","MAREA":" ","LANE":"５２巷","ALLEY":" ","HOUSE_NO":"１２號","E_COORD97":170369.92000000001,"N_COORD97":2541859.3700000001,"ADDRESS":"崇明十一街５２巷１２號","OBJECTID":311313},"geometry":{"x":170369.91999999899,"y":2541859.370000001}},{"attributes":{"ID":311322,"DIS_CODE":0,"TOWNNAME":"北區","LI":"三德里","LIN":"7鄰","STREET":"裕民街","SECT":" ","MAREA":" ","LANE":"３４巷","ALLEY":" ","HOUSE_NO":"８號","E_COORD97":168461.42000000001,"N_COORD97":2544427.8500000001,"ADDRESS":"裕民街３４巷８號","OBJECTID":311314},"geometry":{"x":168461.42000000086,"y":2544427.8499999996}},{"attributes":{"ID":311323,"DIS_CODE":0,"TOWNNAME":"北區","LI":"重興里","LIN":"7鄰","STREET":"林森路","SECT":"三段","MAREA":" ","LANE":"８６巷","ALLEY":" ","HOUSE_NO":"１０號","E_COORD97":170591.03,"N_COORD97":2544910.3500000001,"ADDRESS":"林森路三段８６巷１０號","OBJECTID":311315},"geometry":{"x":170591.03000000026,"y":2544910.3500000015}},{"attributes":{"ID":311324,"DIS_CODE":0,"TOWNNAME":"北區","LI":"重興里","LIN":"7鄰","STREET":"林森路","SECT":"三段","MAREA":" ","LANE":"８６巷","ALLEY":" ","HOUSE_NO":"１２號","E_COORD97":170592.98000000001,"N_COORD97":2544914.25,"ADDRESS":"林森路三段８６巷１２號","OBJECTID":311316},"geometry":{"x":170592.98000000138,"y":2544914.2500000037}},{"attributes":{"ID":311325,"DIS_CODE":0,"TOWNNAME":"北區","LI":"重興里","LIN":"7鄰","STREET":"林森路","SECT":"三段","MAREA":" ","LANE":"８６巷","ALLEY":" ","HOUSE_NO":"１４號","E_COORD97":170594.04000000001,"N_COORD97":2544918.1499999999,"ADDRESS":"林森路三段８６巷１４號","OBJECTID":311317},"geometry":{"x":170594.04000000004,"y":2544918.1500000004}},{"attributes":{"ID":311326,"DIS_CODE":0,"TOWNNAME":"北區","LI":"重興里","LIN":"7鄰","STREET":"林森路","SECT":"三段","MAREA":" ","LANE":"８６巷","ALLEY":" ","HOUSE_NO":"１６號","E_COORD97":170595.5,"N_COORD97":2544921.7200000002,"ADDRESS":"林森路三段８６巷１６號","OBJECTID":311318},"geometry":{"x":170595.50000000093,"y":2544921.7199999988}},{"attributes":{"ID":311327,"DIS_CODE":0,"TOWNNAME":"北區","LI":"重興里","LIN":"7鄰","STREET":"林森路","SECT":"三段","MAREA":" ","LANE":"８６巷","ALLEY":" ","HOUSE_NO":"１８號","E_COORD97":170596.48000000001,"N_COORD97":2544924.8900000001,"ADDRESS":"林森路三段８６巷１８號","OBJECTID":311319},"geometry":{"x":170596.48000000138,"y":2544924.8900000025}},{"attributes":{"ID":311328,"DIS_CODE":0,"TOWNNAME":"北區","LI":"重興里","LIN":"7鄰","STREET":"林森路","SECT":"三段","MAREA":" ","LANE":"８６巷","ALLEY":" ","HOUSE_NO":"１號","E_COORD97":170578.56,"N_COORD97":2544941.4100000001,"ADDRESS":"林森路三段８６巷１號","OBJECTID":311320},"geometry":{"x":170578.55999999959,"y":2544941.410000002}},{"attributes":{"ID":311329,"DIS_CODE":0,"TOWNNAME":"善化區","LI":"坐駕里","LIN":"17鄰","STREET":"文化路","SECT":" ","MAREA":" ","LANE":" ","ALLEY":" ","HOUSE_NO":"２６號","E_COORD97":177973.37,"N_COORD97":2558373,"ADDRESS":"文化路２６號","OBJECTID":311321},"geometry":{"x":177973.37000000011,"y":2558373.0000000019}},{"attributes":{"ID":311330,"DIS_CODE":0,"TOWNNAME":"中西區","LI":"法華里","LIN":"17鄰","STREET":"法華街","SECT":" ","MAREA":" ","LANE":" ","ALLEY":" ","HOUSE_NO":"１７６號之２四樓","E_COORD97":168843.23000000001,"N_COORD97":2542533.7599999998,"ADDRESS":"法華街１７６號之２四樓","OBJECTID":311322},"geometry":{"x":168843.23000000138,"y":2542533.7600000035}},{"attributes":{"ID":311331,"DIS_CODE":0,"TOWNNAME":"永康區","LI":"中興里","LIN":"17鄰","STREET":"中華路","SECT":" ","MAREA":" ","LANE":" ","ALLEY":" ","HOUSE_NO":"２２８號","E_COORD97":171640.70999999999,"N_COORD97":2545085,"ADDRESS":"中華路２２８號","OBJECTID":311323},"geometry":{"x":171640.70999999996,"y":2545085}},{"attributes":{"ID":311332,"DIS_CODE":0,"TOWNNAME":"中西區","LI":"法華里","LIN":"17鄰","STREET":"法華街","SECT":" ","MAREA":" ","LANE":" ","ALLEY":" ","HOUSE_NO":"１７６號之３三樓","E_COORD97":168842.44,"N_COORD97":2542526.29,"ADDRESS":"法華街１７６號之３三樓","OBJECTID":311324},"geometry":{"x":168842.44000000041,"y":2542526.2900000028}},{"attributes":{"ID":311333,"DIS_CODE":0,"TOWNNAME":"中西區","LI":"法華里","LIN":"17鄰","STREET":"法華街","SECT":" ","MAREA":" ","LANE":" ","ALLEY":" ","HOUSE_NO":"１９０號之２三樓","E_COORD97":168836.92999999999,"N_COORD97":2542494.0600000001,"ADDRESS":"法華街１９０號之２三樓","OBJECTID":311325},"geometry":{"x":168836.9299999997,"y":2542494.0600000005}},{"attributes":{"ID":311334,"DIS_CODE":0,"TOWNNAME":"中西區","LI":"法華里","LIN":"17鄰","STREET":"法華街","SECT":" ","MAREA":" ","LANE":" ","ALLEY":" ","HOUSE_NO":"１９０號之２四樓","E_COORD97":168836.92999999999,"N_COORD97":2542494.0600000001,"ADDRESS":"法華街１９０號之２四樓","OBJECTID":311326},"geometry":{"x":168836.9299999997,"y":2542494.0600000005}},{"attributes":{"ID":311335,"DIS_CODE":0,"TOWNNAME":"中西區","LI":"法華里","LIN":"17鄰","STREET":"法華街","SECT":" ","MAREA":" ","LANE":" ","ALLEY":" ","HOUSE_NO":"２００號二樓","E_COORD97":168838.5,"N_COORD97":2542478.5,"ADDRESS":"法華街２００號二樓","OBJECTID":311327},"geometry":{"x":168838.5,"y":2542478.5000000037}},{"attributes":{"ID":311336,"DIS_CODE":0,"TOWNNAME":"北區","LI":"興北里","LIN":"7鄰","STREET":"公園北路","SECT":" ","MAREA":" ","LANE":"８８巷","ALLEY":" ","HOUSE_NO":"２號","E_COORD97":169129.10999999999,"N_COORD97":2545010.8500000001,"ADDRESS":"公園北路８８巷２號","OBJECTID":311328},"geometry":{"x":169129.11000000127,"y":2545010.8499999996}},{"attributes":{"ID":311337,"DIS_CODE":0,"TOWNNAME":"北區","LI":"興北里","LIN":"7鄰","STREET":"公園北路","SECT":" ","MAREA":" ","LANE":"８８巷","ALLEY":" ","HOUSE_NO":"６號","E_COORD97":169131.32000000001,"N_COORD97":2545016.54,"ADDRESS":"公園北路８８巷６號","OBJECTID":311329},"geometry":{"x":169131.3200000003,"y":2545016.5400000028}},{"attributes":{"ID":311338,"DIS_CODE":0,"TOWNNAME":"中西區","LI":"開山里","LIN":"7鄰","STREET":"開山路","SECT":" ","MAREA":" ","LANE":"１２７巷","ALLEY":" ","HOUSE_NO":"１０２號二樓之２","E_COORD97":169036.94,"N_COORD97":2543065.5899999999,"ADDRESS":"開山路１２７巷１０２號二樓之２","OBJECTID":311330},"geometry":{"x":169036.94000000134,"y":2543065.5900000017}},{"attributes":{"ID":311339,"DIS_CODE":0,"TOWNNAME":"中西區","LI":"開山里","LIN":"7鄰","STREET":"開山路","SECT":" ","MAREA":" ","LANE":"１２７巷","ALLEY":" ","HOUSE_NO":"１０２號三樓之１","E_COORD97":169036.94,"N_COORD97":2543065.5899999999,"ADDRESS":"開山路１２７巷１０２號三樓之１","OBJECTID":311331},"geometry":{"x":169036.94000000134,"y":2543065.5900000017}},{"attributes":{"ID":311340,"DIS_CODE":0,"TOWNNAME":"中西區","LI":"開山里","LIN":"7鄰","STREET":"開山路","SECT":" ","MAREA":" ","LANE":"１２７巷","ALLEY":" ","HOUSE_NO":"１０２號三樓之２","E_COORD97":169036.94,"N_COORD97":2543065.5899999999,"ADDRESS":"開山路１２７巷１０２號三樓之２","OBJECTID":311332},"geometry":{"x":169036.94000000134,"y":2543065.5900000017}},{"attributes":{"ID":311341,"DIS_CODE":0,"TOWNNAME":"中西區","LI":"開山里","LIN":"7鄰","STREET":"開山路","SECT":" ","MAREA":" ","LANE":"１２７巷","ALLEY":" ","HOUSE_NO":"１０２號五樓之１","E_COORD97":169036.94,"N_COORD97":2543065.5899999999,"ADDRESS":"開山路１２７巷１０２號五樓之１","OBJECTID":311333},"geometry":{"x":169036.94000000134,"y":2543065.5900000017}},{"attributes":{"ID":311342,"DIS_CODE":0,"TOWNNAME":"中西區","LI":"開山里","LIN":"7鄰","STREET":"開山路","SECT":" ","MAREA":" ","LANE":"１２７巷","ALLEY":" ","HOUSE_NO":"１０２號五樓之２","E_COORD97":169036.94,"N_COORD97":2543065.5899999999,"ADDRESS":"開山路１２７巷１０２號五樓之２","OBJECTID":311334},"geometry":{"x":169036.94000000134,"y":2543065.5900000017}},{"attributes":{"ID":311343,"DIS_CODE":0,"TOWNNAME":"中西區","LI":"開山里","LIN":"7鄰","STREET":"開山路","SECT":" ","MAREA":" ","LANE":"１２７巷","ALLEY":" ","HOUSE_NO":"１０２號四樓之１","E_COORD97":169036.94,"N_COORD97":2543065.5899999999,"ADDRESS":"開山路１２７巷１０２號四樓之１","OBJECTID":311335},"geometry":{"x":169036.94000000134,"y":2543065.5900000017}},{"attributes":{"ID":311344,"DIS_CODE":0,"TOWNNAME":"中西區","LI":"開山里","LIN":"7鄰","STREET":"開山路","SECT":" ","MAREA":" ","LANE":"１２７巷","ALLEY":" ","HOUSE_NO":"１０２號四樓之２","E_COORD97":169036.94,"N_COORD97":2543065.5899999999,"ADDRESS":"開山路１２７巷１０２號四樓之２","OBJECTID":311336},"geometry":{"x":169036.94000000134,"y":2543065.5900000017}},{"attributes":{"ID":311345,"DIS_CODE":0,"TOWNNAME":"東區","LI":"東光里","LIN":"7鄰","STREET":"東興路","SECT":" ","MAREA":" ","LANE":"１６９巷","ALLEY":" ","HOUSE_NO":"１６號五樓","E_COORD97":170928.42000000001,"N_COORD97":2543817.98,"ADDRESS":"東興路１６９巷１６號五樓","OBJECTID":311337},"geometry":{"x":170928.42000000086,"y":2543817.9800000042}},{"attributes":{"ID":311346,"DIS_CODE":0,"TOWNNAME":"東區","LI":"東光里","LIN":"7鄰","STREET":"東興路","SECT":" ","MAREA":" ","LANE":"１６９巷","ALLEY":" ","HOUSE_NO":"１６號六樓","E_COORD97":170928.42000000001,"N_COORD97":2543817.98,"ADDRESS":"東興路１６９巷１６號六樓","OBJECTID":311338},"geometry":{"x":170928.42000000086,"y":2543817.9800000042}},{"attributes":{"ID":311347,"DIS_CODE":0,"TOWNNAME":"東區","LI":"崇信里","LIN":"21鄰","STREET":"中華東路","SECT":"三段","MAREA":" ","LANE":"４４巷","ALLEY":" ","HOUSE_NO":"７號","E_COORD97":170861.35000000001,"N_COORD97":2542322.6299999999,"ADDRESS":"中華東路三段４４巷７號","OBJECTID":311339},"geometry":{"x":170861.34999999963,"y":2542322.629999999}},{"attributes":{"ID":311348,"DIS_CODE":0,"TOWNNAME":"東區","LI":"崇信里","LIN":"21鄰","STREET":"中華東路","SECT":"三段","MAREA":" ","LANE":"４４巷","ALLEY":" ","HOUSE_NO":"９號","E_COORD97":170859.76999999999,"N_COORD97":2542326.8599999999,"ADDRESS":"中華東路三段４４巷９號","OBJECTID":311340},"geometry":{"x":170859.76999999955,"y":2542326.8600000013}},{"attributes":{"ID":311349,"DIS_CODE":0,"TOWNNAME":"東區","LI":"崇學里","LIN":"6鄰","STREET":"崇德四街","SECT":" ","MAREA":" ","LANE":"３巷","ALLEY":" ","HOUSE_NO":"３２號","E_COORD97":170441.12,"N_COORD97":2541963.5099999998,"ADDRESS":"崇德四街３巷３２號","OBJECTID":311341},"geometry":{"x":170441.12000000011,"y":2541963.5100000016}},{"attributes":{"ID":311350,"DIS_CODE":0,"TOWNNAME":"東區","LI":"崇學里","LIN":"6鄰","STREET":"崇德四街","SECT":" ","MAREA":" ","LANE":"３巷","ALLEY":" ","HOUSE_NO":"３３號","E_COORD97":170428.75,"N_COORD97":2541943.1099999999,"ADDRESS":"崇德四街３巷３３號","OBJECTID":311342},"geometry":{"x":170428.75,"y":2541943.1099999994}},{"attributes":{"ID":311351,"DIS_CODE":0,"TOWNNAME":"白河區","LI":"仙草里","LIN":"11鄰","STREET":" ","SECT":" ","MAREA":"羌仔崙","LANE":" ","ALLEY":" ","HOUSE_NO":"２３號","E_COORD97":198490.20999999999,"N_COORD97":2582662.1400000001,"ADDRESS":"羌仔崙２３號","OBJECTID":311343},"geometry":{"x":198490.21000000089,"y":2582662.1400000025}},{"attributes":{"ID":311352,"DIS_CODE":0,"TOWNNAME":"將軍區","LI":"嘉昌里","LIN":"13鄰","STREET":" ","SECT":" ","MAREA":"昌平","LANE":" ","ALLEY":" ","HOUSE_NO":"７號","E_COORD97":163311.82000000001,"N_COORD97":2567337.7000000002,"ADDRESS":"昌平７號","OBJECTID":311344},"geometry":{"x":163311.8200000003,"y":2567337.700000003}},{"attributes":{"ID":311353,"DIS_CODE":0,"TOWNNAME":"東區","LI":"崇學里","LIN":"6鄰","STREET":"崇德四街","SECT":" ","MAREA":" ","LANE":"３巷","ALLEY":" ","HOUSE_NO":"３４號","E_COORD97":170438.06,"N_COORD97":2541965.8399999999,"ADDRESS":"崇德四街３巷３４號","OBJECTID":311345},"geometry":{"x":170438.05999999959,"y":2541965.8399999999}},{"attributes":{"ID":311354,"DIS_CODE":0,"TOWNNAME":"東區","LI":"崇學里","LIN":"6鄰","STREET":"崇德四街","SECT":" ","MAREA":" ","LANE":"３巷","ALLEY":" ","HOUSE_NO":"３５號","E_COORD97":170424.67999999999,"N_COORD97":2541945.6000000001,"ADDRESS":"崇德四街３巷３５號","OBJECTID":311346},"geometry":{"x":170424.68000000063,"y":2541945.6000000015}},{"attributes":{"ID":311355,"DIS_CODE":0,"TOWNNAME":"東區","LI":"崇學里","LIN":"6鄰","STREET":"崇德四街","SECT":" ","MAREA":" ","LANE":"３巷","ALLEY":" ","HOUSE_NO":"３６號","E_COORD97":170433.82999999999,"N_COORD97":2541968.75,"ADDRESS":"崇德四街３巷３６號","OBJECTID":311347},"geometry":{"x":170433.83000000101,"y":2541968.7500000019}},{"attributes":{"ID":311356,"DIS_CODE":0,"TOWNNAME":"東區","LI":"崇學里","LIN":"6鄰","STREET":"崇德四街","SECT":" ","MAREA":" ","LANE":"３巷","ALLEY":" ","HOUSE_NO":"３７號","E_COORD97":170421.60999999999,"N_COORD97":2541948.25,"ADDRESS":"崇德四街３巷３７號","OBJECTID":311348},"geometry":{"x":170421.6099999994,"y":2541948.2500000019}},{"attributes":{"ID":311357,"DIS_CODE":0,"TOWNNAME":"東區","LI":"東光里","LIN":"7鄰","STREET":"東興路","SECT":" ","MAREA":" ","LANE":"１６９巷","ALLEY":" ","HOUSE_NO":"１６號七樓","E_COORD97":170928.42000000001,"N_COORD97":2543817.98,"ADDRESS":"東興路１６９巷１６號七樓","OBJECTID":311349},"geometry":{"x":170928.42000000086,"y":2543817.9800000042}},{"attributes":{"ID":311358,"DIS_CODE":0,"TOWNNAME":"新營區","LI":"新東里","LIN":"27鄰","STREET":"東光街","SECT":" ","MAREA":" ","LANE":" ","ALLEY":" ","HOUSE_NO":"６０號","E_COORD97":180621.999301,"N_COORD97":2579586.5560599999,"ADDRESS":"東光街６０號","OBJECTID":311350},"geometry":{"x":180621.99930099957,"y":2579586.5560580026}},{"attributes":{"ID":311359,"DIS_CODE":0,"TOWNNAME":"東區","LI":"東光里","LIN":"7鄰","STREET":"東興路","SECT":" ","MAREA":" ","LANE":"１６９巷","ALLEY":" ","HOUSE_NO":"１８號二樓","E_COORD97":170925,"N_COORD97":2543821.3100000001,"ADDRESS":"東興路１６９巷１８號二樓","OBJECTID":311351},"geometry":{"x":170925,"y":2543821.3100000005}},{"attributes":{"ID":311360,"DIS_CODE":0,"TOWNNAME":"東區","LI":"東光里","LIN":"7鄰","STREET":"東興路","SECT":" ","MAREA":" ","LANE":"１６９巷","ALLEY":" ","HOUSE_NO":"１８號三樓","E_COORD97":170925,"N_COORD97":2543821.3100000001,"ADDRESS":"東興路１６９巷１８號三樓","OBJECTID":311352},"geometry":{"x":170925,"y":2543821.3100000005}},{"attributes":{"ID":311361,"DIS_CODE":0,"TOWNNAME":"東區","LI":"東光里","LIN":"7鄰","STREET":"東興路","SECT":" ","MAREA":" ","LANE":"１６９巷","ALLEY":" ","HOUSE_NO":"１８號四樓","E_COORD97":170925,"N_COORD97":2543821.3100000001,"ADDRESS":"東興路１６９巷１８號四樓","OBJECTID":311353},"geometry":{"x":170925,"y":2543821.3100000005}},{"attributes":{"ID":311362,"DIS_CODE":0,"TOWNNAME":"東區","LI":"東光里","LIN":"7鄰","STREET":"東興路","SECT":" ","MAREA":" ","LANE":"１６９巷","ALLEY":" ","HOUSE_NO":"１８號五樓","E_COORD97":170925,"N_COORD97":2543821.3100000001,"ADDRESS":"東興路１６９巷１８號五樓","OBJECTID":311354},"geometry":{"x":170925,"y":2543821.3100000005}},{"attributes":{"ID":311363,"DIS_CODE":0,"TOWNNAME":"東區","LI":"東光里","LIN":"7鄰","STREET":"東興路","SECT":" ","MAREA":" ","LANE":"１６９巷","ALLEY":" ","HOUSE_NO":"１８號六樓","E_COORD97":170925,"N_COORD97":2543821.3100000001,"ADDRESS":"東興路１６９巷１８號六樓","OBJECTID":311355},"geometry":{"x":170925,"y":2543821.3100000005}},{"attributes":{"ID":311364,"DIS_CODE":0,"TOWNNAME":"中西區","LI":"法華里","LIN":"17鄰","STREET":"法華街","SECT":" ","MAREA":" ","LANE":" ","ALLEY":" ","HOUSE_NO":"２００號三樓","E_COORD97":168838.5,"N_COORD97":2542478.5,"ADDRESS":"法華街２００號三樓","OBJECTID":311356},"geometry":{"x":168838.5,"y":2542478.5000000037}},{"attributes":{"ID":311365,"DIS_CODE":0,"TOWNNAME":"中西區","LI":"法華里","LIN":"17鄰","STREET":"法華街","SECT":" ","MAREA":" ","LANE":" ","ALLEY":" ","HOUSE_NO":"２００號四樓","E_COORD97":168838.5,"N_COORD97":2542478.5,"ADDRESS":"法華街２００號四樓","OBJECTID":311357},"geometry":{"x":168838.5,"y":2542478.5000000037}},{"attributes":{"ID":311366,"DIS_CODE":0,"TOWNNAME":"新營區","LI":"興安里","LIN":" ","STREET":"延平路","SECT":" ","MAREA":" ","LANE":" ","ALLEY":" ","HOUSE_NO":"１３９號","E_COORD97":179806.60999999999,"N_COORD97":2577465.0699999998,"ADDRESS":"延平路１３９號","OBJECTID":311358},"geometry":{"x":179806.61000000127,"y":2577465.0700000022}},{"attributes":{"ID":311367,"DIS_CODE":0,"TOWNNAME":"新營區","LI":"南紙里","LIN":"20鄰","STREET":"建業路","SECT":" ","MAREA":" ","LANE":" ","ALLEY":" ","HOUSE_NO":"２９９號","E_COORD97":177879.73000000001,"N_COORD97":2577517.52,"ADDRESS":"建業路２９９號","OBJECTID":311359},"geometry":{"x":177879.73000000045,"y":2577517.5200000014}},{"attributes":{"ID":311368,"DIS_CODE":0,"TOWNNAME":"新營區","LI":"新東里","LIN":"20鄰","STREET":"東明街","SECT":" ","MAREA":" ","LANE":" ","ALLEY":" ","HOUSE_NO":"３號","E_COORD97":180794.98999999999,"N_COORD97":2579562.3599999999,"ADDRESS":"東明街３號","OBJECTID":311360},"geometry":{"x":180794.99000000022,"y":2579562.3599999975}},{"attributes":{"ID":311369,"DIS_CODE":0,"TOWNNAME":"善化區","LI":"坐駕里","LIN":"17鄰","STREET":"文化路","SECT":" ","MAREA":" ","LANE":" ","ALLEY":" ","HOUSE_NO":"６號四樓之３","E_COORD97":177970.09,"N_COORD97":2558361.29,"ADDRESS":"文化路６號四樓之３","OBJECTID":311361},"geometry":{"x":177970.09000000171,"y":2558361.2899999991}},{"attributes":{"ID":311370,"DIS_CODE":0,"TOWNNAME":"善化區","LI":"坐駕里","LIN":"17鄰","STREET":"文化路","SECT":" ","MAREA":" ","LANE":" ","ALLEY":" ","HOUSE_NO":"６號四樓之５","E_COORD97":177970.09,"N_COORD97":2558361.29,"ADDRESS":"文化路６號四樓之５","OBJECTID":311362},"geometry":{"x":177970.09000000171,"y":2558361.2899999991}},{"attributes":{"ID":311371,"DIS_CODE":0,"TOWNNAME":"仁德區","LI":"新田里","LIN":"17鄰","STREET":"民安路","SECT":"二段","MAREA":" ","LANE":" ","ALLEY":" ","HOUSE_NO":"７７號之１八樓之３","E_COORD97":173513.48999999999,"N_COORD97":2539241.3100000001,"ADDRESS":"民安路二段７７號之１八樓之３","OBJECTID":311363},"geometry":{"x":173513.49000000115,"y":2539241.3100000005}},{"attributes":{"ID":311372,"DIS_CODE":0,"TOWNNAME":"仁德區","LI":"新田里","LIN":"17鄰","STREET":"民安路","SECT":"二段","MAREA":" ","LANE":" ","ALLEY":" ","HOUSE_NO":"７７號十樓之３","E_COORD97":173501.28,"N_COORD97":2539215.3100000001,"ADDRESS":"民安路二段７７號十樓之３","OBJECTID":311364},"geometry":{"x":173501.28000000119,"y":2539215.3100000042}},{"attributes":{"ID":311373,"DIS_CODE":0,"TOWNNAME":"新營區","LI":"嘉芳里","LIN":"1鄰","STREET":"復興路","SECT":" ","MAREA":" ","LANE":"７００巷","ALLEY":" ","HOUSE_NO":"８１號","E_COORD97":177240.616629,"N_COORD97":2579004.47113,"ADDRESS":"復興路７００巷８１號","OBJECTID":311365},"geometry":{"x":177240.61662900075,"y":2579004.4711280018}},{"attributes":{"ID":311374,"DIS_CODE":0,"TOWNNAME":"東區","LI":"崇學里","LIN":"4鄰","STREET":"崇學路","SECT":" ","MAREA":" ","LANE":"５６巷","ALLEY":" ","HOUSE_NO":"６２號","E_COORD97":170344.07999999999,"N_COORD97":2542009.8100000001,"ADDRESS":"崇學路５６巷６２號","OBJECTID":311366},"geometry":{"x":170344.08000000101,"y":2542009.8100000024}},{"attributes":{"ID":311375,"DIS_CODE":0,"TOWNNAME":"東區","LI":"崇學里","LIN":"8鄰","STREET":"崇明十一街","SECT":" ","MAREA":" ","LANE":"１０巷","ALLEY":" ","HOUSE_NO":"２２號","E_COORD97":170311.64999999999,"N_COORD97":2541751.5899999999,"ADDRESS":"崇明十一街１０巷２２號","OBJECTID":311367},"geometry":{"x":170311.6500000013,"y":2541751.5899999999}},{"attributes":{"ID":311376,"DIS_CODE":0,"TOWNNAME":"東區","LI":"崇學里","LIN":"8鄰","STREET":"崇明十一街","SECT":" ","MAREA":" ","LANE":"１０巷","ALLEY":" ","HOUSE_NO":"２４號","E_COORD97":170314.17000000001,"N_COORD97":2541748.2000000002,"ADDRESS":"崇明十一街１０巷２４號","OBJECTID":311368},"geometry":{"x":170314.17000000179,"y":2541748.2000000011}},{"attributes":{"ID":311377,"DIS_CODE":0,"TOWNNAME":"將軍區","LI":"嘉昌里","LIN":"13鄰","STREET":" ","SECT":" ","MAREA":"昌平","LANE":" ","ALLEY":" ","HOUSE_NO":"５之７號","E_COORD97":163230.29999999999,"N_COORD97":2567306.0899999999,"ADDRESS":"昌平５之７號","OBJECTID":311369},"geometry":{"x":163230.29999999981,"y":2567306.0900000017}},{"attributes":{"ID":311378,"DIS_CODE":0,"TOWNNAME":"東區","LI":"東光里","LIN":"7鄰","STREET":"東興路","SECT":" ","MAREA":" ","LANE":"１６９巷","ALLEY":" ","HOUSE_NO":"１８號七樓","E_COORD97":170925,"N_COORD97":2543821.3100000001,"ADDRESS":"東興路１６９巷１８號七樓","OBJECTID":311370},"geometry":{"x":170925,"y":2543821.3100000005}},{"attributes":{"ID":311379,"DIS_CODE":0,"TOWNNAME":"東區","LI":"東光里","LIN":"7鄰","STREET":"東興路","SECT":" ","MAREA":" ","LANE":"１６９巷","ALLEY":" ","HOUSE_NO":"２０號三樓","E_COORD97":170919.59,"N_COORD97":2543819.96,"ADDRESS":"東興路１６９巷２０號三樓","OBJECTID":311371},"geometry":{"x":170919.58999999985,"y":2543819.9600000028}},{"attributes":{"ID":311380,"DIS_CODE":0,"TOWNNAME":"東區","LI":"東光里","LIN":"7鄰","STREET":"東興路","SECT":" ","MAREA":" ","LANE":"１６９巷","ALLEY":" ","HOUSE_NO":"２０號四樓","E_COORD97":170919.59,"N_COORD97":2543819.96,"ADDRESS":"東興路１６９巷２０號四樓","OBJECTID":311372},"geometry":{"x":170919.58999999985,"y":2543819.9600000028}},{"attributes":{"ID":311381,"DIS_CODE":0,"TOWNNAME":"東區","LI":"東光里","LIN":"7鄰","STREET":"東興路","SECT":" ","MAREA":" ","LANE":"１６９巷","ALLEY":" ","HOUSE_NO":"２０號五樓","E_COORD97":170919.59,"N_COORD97":2543819.96,"ADDRESS":"東興路１６９巷２０號五樓","OBJECTID":311373},"geometry":{"x":170919.58999999985,"y":2543819.9600000028}},{"attributes":{"ID":311382,"DIS_CODE":0,"TOWNNAME":"東區","LI":"東光里","LIN":"7鄰","STREET":"東興路","SECT":" ","MAREA":" ","LANE":"１６９巷","ALLEY":" ","HOUSE_NO":"２０號六樓","E_COORD97":170919.59,"N_COORD97":2543819.96,"ADDRESS":"東興路１６９巷２０號六樓","OBJECTID":311374},"geometry":{"x":170919.58999999985,"y":2543819.9600000028}},{"attributes":{"ID":311383,"DIS_CODE":0,"TOWNNAME":"東區","LI":"東光里","LIN":"7鄰","STREET":"東興路","SECT":" ","MAREA":" ","LANE":"１６９巷","ALLEY":" ","HOUSE_NO":"２０號七樓","E_COORD97":170919.59,"N_COORD97":2543819.96,"ADDRESS":"東興路１６９巷２０號七樓","OBJECTID":311375},"geometry":{"x":170919.58999999985,"y":2543819.9600000028}},{"attributes":{"ID":311384,"DIS_CODE":0,"TOWNNAME":"仁德區","LI":"太子里","LIN":"7鄰","STREET":"太子路","SECT":" ","MAREA":" ","LANE":"１９０巷","ALLEY":" ","HOUSE_NO":"１２號三樓","E_COORD97":174328.78,"N_COORD97":2543621.2599999998,"ADDRESS":"太子路１９０巷１２號三樓","OBJECTID":311376},"geometry":{"x":174328.78000000026,"y":2543621.2599999998}},{"attributes":{"ID":311385,"DIS_CODE":0,"TOWNNAME":"仁德區","LI":"太子里","LIN":"7鄰","STREET":"太子路","SECT":" ","MAREA":" ","LANE":"１９０巷","ALLEY":" ","HOUSE_NO":"１２號二樓","E_COORD97":174328.78,"N_COORD97":2543621.2599999998,"ADDRESS":"太子路１９０巷１２號二樓","OBJECTID":311377},"geometry":{"x":174328.78000000026,"y":2543621.2599999998}},{"attributes":{"ID":311386,"DIS_CODE":0,"TOWNNAME":"仁德區","LI":"新田里","LIN":"17鄰","STREET":"民安路","SECT":"二段","MAREA":" ","LANE":" ","ALLEY":" ","HOUSE_NO":"７７號七樓之３","E_COORD97":173501.28,"N_COORD97":2539215.3100000001,"ADDRESS":"民安路二段７７號七樓之３","OBJECTID":311378},"geometry":{"x":173501.28000000119,"y":2539215.3100000042}},{"attributes":{"ID":311387,"DIS_CODE":0,"TOWNNAME":"仁德區","LI":"新田里","LIN":"17鄰","STREET":"民安路","SECT":"二段","MAREA":" ","LANE":" ","ALLEY":" ","HOUSE_NO":"７７號二樓之２","E_COORD97":173501.32000000001,"N_COORD97":2539215.3100000001,"ADDRESS":"民安路二段７７號二樓之２","OBJECTID":311379},"geometry":{"x":173501.3200000003,"y":2539215.3100000042}},{"attributes":{"ID":311388,"DIS_CODE":0,"TOWNNAME":"仁德區","LI":"新田里","LIN":"17鄰","STREET":"民安路","SECT":"二段","MAREA":" ","LANE":" ","ALLEY":" ","HOUSE_NO":"７７號一樓之２","E_COORD97":173501.32000000001,"N_COORD97":2539215.3100000001,"ADDRESS":"民安路二段７７號一樓之２","OBJECTID":311380},"geometry":{"x":173501.3200000003,"y":2539215.3100000042}},{"attributes":{"ID":311389,"DIS_CODE":0,"TOWNNAME":"佳里區","LI":"建南里","LIN":"1鄰","STREET":"中山路","SECT":" ","MAREA":" ","LANE":" ","ALLEY":" ","HOUSE_NO":"２９９號","E_COORD97":165696.20999999999,"N_COORD97":2562392.6299999999,"ADDRESS":"中山路２９９號","OBJECTID":311381},"geometry":{"x":165696.21000000183,"y":2562392.6300000008}},{"attributes":{"ID":311390,"DIS_CODE":0,"TOWNNAME":"白河區","LI":"汴頭里","LIN":"4鄰","STREET":" ","SECT":" ","MAREA":"林子內","LANE":" ","ALLEY":" ","HOUSE_NO":"４１號","E_COORD97":194897.66,"N_COORD97":2585148.5099999998,"ADDRESS":"林子內４１號","OBJECTID":311382},"geometry":{"x":194897.66000000015,"y":2585148.5099999998}},{"attributes":{"ID":311391,"DIS_CODE":0,"TOWNNAME":"白河區","LI":"汴頭里","LIN":"3鄰","STREET":" ","SECT":" ","MAREA":"林子內","LANE":" ","ALLEY":" ","HOUSE_NO":"２２號","E_COORD97":195098.95000000001,"N_COORD97":2584888.0299999998,"ADDRESS":"林子內２２號","OBJECTID":311383},"geometry":{"x":195098.95000000019,"y":2584888.0300000012}},{"attributes":{"ID":311392,"DIS_CODE":0,"TOWNNAME":"白河區","LI":"汴頭里","LIN":"3鄰","STREET":" ","SECT":" ","MAREA":"林子內","LANE":" ","ALLEY":" ","HOUSE_NO":"２３之１號","E_COORD97":195077.48999999999,"N_COORD97":2584913.8700000001,"ADDRESS":"林子內２３之１號","OBJECTID":311384},"geometry":{"x":195077.49000000115,"y":2584913.870000001}},{"attributes":{"ID":311393,"DIS_CODE":0,"TOWNNAME":"白河區","LI":"汴頭里","LIN":"3鄰","STREET":" ","SECT":" ","MAREA":"林子內","LANE":" ","ALLEY":" ","HOUSE_NO":"２３號","E_COORD97":195089.17999999999,"N_COORD97":2584943.5899999999,"ADDRESS":"林子內２３號","OBJECTID":311385},"geometry":{"x":195089.18000000063,"y":2584943.5900000017}},{"attributes":{"ID":311394,"DIS_CODE":0,"TOWNNAME":"白河區","LI":"汴頭里","LIN":"3鄰","STREET":" ","SECT":" ","MAREA":"林子內","LANE":" ","ALLEY":" ","HOUSE_NO":"２４號","E_COORD97":195094.12,"N_COORD97":2584928.2599999998,"ADDRESS":"林子內２４號","OBJECTID":311386},"geometry":{"x":195094.12000000011,"y":2584928.2600000016}},{"attributes":{"ID":311395,"DIS_CODE":0,"TOWNNAME":"白河區","LI":"汴頭里","LIN":"3鄰","STREET":" ","SECT":" ","MAREA":"林子內","LANE":" ","ALLEY":" ","HOUSE_NO":"２５號","E_COORD97":195056.82999999999,"N_COORD97":2584953.9900000002,"ADDRESS":"林子內２５號","OBJECTID":311387},"geometry":{"x":195056.83000000101,"y":2584953.9900000021}},{"attributes":{"ID":311396,"DIS_CODE":0,"TOWNNAME":"白河區","LI":"草店里","LIN":"4鄰","STREET":" ","SECT":" ","MAREA":"草店","LANE":" ","ALLEY":" ","HOUSE_NO":"３２號","E_COORD97":192300.47,"N_COORD97":2587717.8700000001,"ADDRESS":"草店３２號","OBJECTID":311388},"geometry":{"x":192300.47000000067,"y":2587717.8699999992}},{"attributes":{"ID":311397,"DIS_CODE":0,"TOWNNAME":"白河區","LI":"草店里","LIN":"4鄰","STREET":" ","SECT":" ","MAREA":"草店","LANE":" ","ALLEY":" ","HOUSE_NO":"３３之１號","E_COORD97":192299.20000000001,"N_COORD97":2587693.2000000002,"ADDRESS":"草店３３之１號","OBJECTID":311389},"geometry":{"x":192299.20000000205,"y":2587693.1999999993}},{"attributes":{"ID":311398,"DIS_CODE":0,"TOWNNAME":"白河區","LI":"草店里","LIN":"4鄰","STREET":" ","SECT":" ","MAREA":"草店","LANE":" ","ALLEY":" ","HOUSE_NO":"３３之２號","E_COORD97":192255.04999999999,"N_COORD97":2587717.73,"ADDRESS":"草店３３之２號","OBJECTID":311390},"geometry":{"x":192255.04999999981,"y":2587717.7300000004}},{"attributes":{"ID":311399,"DIS_CODE":0,"TOWNNAME":"白河區","LI":"草店里","LIN":"4鄰","STREET":" ","SECT":" ","MAREA":"草店","LANE":" ","ALLEY":" ","HOUSE_NO":"３３號","E_COORD97":192300.82000000001,"N_COORD97":2587712.4300000002,"ADDRESS":"草店３３號","OBJECTID":311391},"geometry":{"x":192300.82000000123,"y":2587712.4299999997}},{"attributes":{"ID":311400,"DIS_CODE":0,"TOWNNAME":"白河區","LI":"永安里","LIN":"4鄰","STREET":"國泰路","SECT":" ","MAREA":" ","LANE":" ","ALLEY":" ","HOUSE_NO":"１５４號","E_COORD97":189953.64000000001,"N_COORD97":2583036.73,"ADDRESS":"國泰路１５４號","OBJECTID":311392},"geometry":{"x":189953.6400000006,"y":2583036.7300000023}},{"attributes":{"ID":311401,"DIS_CODE":0,"TOWNNAME":"白河區","LI":"草店里","LIN":"4鄰","STREET":" ","SECT":" ","MAREA":"草店","LANE":" ","ALLEY":" ","HOUSE_NO":"３４號","E_COORD97":192285.67999999999,"N_COORD97":2587691.5699999998,"ADDRESS":"草店３４號","OBJECTID":311393},"geometry":{"x":192285.68000000063,"y":2587691.5700000003}},{"attributes":{"ID":311402,"DIS_CODE":0,"TOWNNAME":"白河區","LI":"草店里","LIN":"4鄰","STREET":" ","SECT":" ","MAREA":"草店","LANE":" ","ALLEY":" ","HOUSE_NO":"３５之１號","E_COORD97":192275.48000000001,"N_COORD97":2587654.0899999999,"ADDRESS":"草店３５之１號","OBJECTID":311394},"geometry":{"x":192275.48000000231,"y":2587654.089999998}},{"attributes":{"ID":311403,"DIS_CODE":0,"TOWNNAME":"白河區","LI":"秀祐里","LIN":"4鄰","STREET":" ","SECT":" ","MAREA":"頂秀祐","LANE":" ","ALLEY":" ","HOUSE_NO":"５２之１號","E_COORD97":188822.91,"N_COORD97":2583430.3300000001,"ADDRESS":"頂秀祐５２之１號","OBJECTID":311395},"geometry":{"x":188822.91000000108,"y":2583430.3300000001}},{"attributes":{"ID":311404,"DIS_CODE":0,"TOWNNAME":"白河區","LI":"秀祐里","LIN":"4鄰","STREET":" ","SECT":" ","MAREA":"頂秀祐","LANE":" ","ALLEY":" ","HOUSE_NO":"５３之１號","E_COORD97":188841.12,"N_COORD97":2583384.1400000001,"ADDRESS":"頂秀祐５３之１號","OBJECTID":311396},"geometry":{"x":188841.12000000011,"y":2583384.1400000025}},{"attributes":{"ID":311405,"DIS_CODE":0,"TOWNNAME":"白河區","LI":"秀祐里","LIN":"4鄰","STREET":" ","SECT":" ","MAREA":"頂秀祐","LANE":" ","ALLEY":" ","HOUSE_NO":"５４之１號","E_COORD97":188822.16,"N_COORD97":2583398.9500000002,"ADDRESS":"頂秀祐５４之１號","OBJECTID":311397},"geometry":{"x":188822.16000000015,"y":2583398.9499999993}},{"attributes":{"ID":311406,"DIS_CODE":0,"TOWNNAME":"白河區","LI":"秀祐里","LIN":"4鄰","STREET":" ","SECT":" ","MAREA":"頂秀祐","LANE":" ","ALLEY":" ","HOUSE_NO":"５５之１號","E_COORD97":188829.70000000001,"N_COORD97":2583358.2200000002,"ADDRESS":"頂秀祐５５之１號","OBJECTID":311398},"geometry":{"x":188829.70000000112,"y":2583358.2200000007}},{"attributes":{"ID":311407,"DIS_CODE":0,"TOWNNAME":"白河區","LI":"秀祐里","LIN":"4鄰","STREET":" ","SECT":" ","MAREA":"頂秀祐","LANE":" ","ALLEY":" ","HOUSE_NO":"５５號","E_COORD97":188825.10999999999,"N_COORD97":2583372.9300000002,"ADDRESS":"頂秀祐５５號","OBJECTID":311399},"geometry":{"x":188825.11000000127,"y":2583372.9299999978}},{"attributes":{"ID":311408,"DIS_CODE":0,"TOWNNAME":"白河區","LI":"秀祐里","LIN":"4鄰","STREET":" ","SECT":" ","MAREA":"頂秀祐","LANE":" ","ALLEY":" ","HOUSE_NO":"５６號","E_COORD97":188841.53,"N_COORD97":2583330.3399999999,"ADDRESS":"頂秀祐５６號","OBJECTID":311400},"geometry":{"x":188841.53000000026,"y":2583330.3400000017}}]}