{"displayFieldName":"TOWNNAME","fieldAliases":{"ID":"ID","DIS_CODE":"DIS_CODE","TOWNNAME":"TOWNNAME","LI":"LI","LIN":"LIN","STREET":"STREET","SECT":"SECT","MAREA":"MAREA","LANE":"LANE","ALLEY":"ALLEY","HOUSE_NO":"HOUSE_NO","E_COORD97":"E_COORD97","N_COORD97":"N_COORD97","ADDRESS":"ADDRESS","OBJECTID":"OBJECTID"},"geometryType":"esriGeometryPoint","spatialReference":{"wkid":102443,"latestWkid":3826},"fields":[{"name":"ID","type":"esriFieldTypeDouble","alias":"ID"},{"name":"DIS_CODE","type":"esriFieldTypeInteger","alias":"DIS_CODE"},{"name":"TOWNNAME","type":"esriFieldTypeString","alias":"TOWNNAME","length":8},{"name":"LI","type":"esriFieldTypeString","alias":"LI","length":8},{"name":"LIN","type":"esriFieldTypeString","alias":"LIN","length":12},{"name":"STREET","type":"esriFieldTypeString","alias":"STREET","length":20},{"name":"SECT","type":"esriFieldTypeString","alias":"SECT","length":8},{"name":"MAREA","type":"esriFieldTypeString","alias":"MAREA","length":12},{"name":"LANE","type":"esriFieldTypeString","alias":"LANE","length":10},{"name":"ALLEY","type":"esriFieldTypeString","alias":"ALLEY","length":10},{"name":"HOUSE_NO","type":"esriFieldTypeString","alias":"HOUSE_NO","length":20},{"name":"E_COORD97","type":"esriFieldTypeDouble","alias":"E_COORD97"},{"name":"N_COORD97","type":"esriFieldTypeDouble","alias":"N_COORD97"},{"name":"ADDRESS","type":"esriFieldTypeString","alias":"ADDRESS","length":50},{"name":"OBJECTID","type":"esriFieldTypeOID","alias":"OBJECTID"}],"features":[{"attributes":{"ID":117001,"DIS_CODE":0,"TOWNNAME":"永康區","LI":"三合里","LIN":"12鄰","STREET":"南工街","SECT":" ","MAREA":" ","LANE":"２４７巷","ALLEY":"３３弄","HOUSE_NO":"１６號","E_COORD97":171996.97,"N_COORD97":2545800.5899999999,"ADDRESS":"南工街２４７巷３３弄１６號","OBJECTID":117001},"geometry":{"x":171996.9700000016,"y":2545800.5900000017}},{"attributes":{"ID":117002,"DIS_CODE":0,"TOWNNAME":"永康區","LI":"大灣里","LIN":"28鄰","STREET":"民族路","SECT":" ","MAREA":" ","LANE":"１９０巷","ALLEY":"１４弄","HOUSE_NO":"１１號","E_COORD97":175259.20000000001,"N_COORD97":2545019.5299999998,"ADDRESS":"民族路１９０巷１４弄１１號","OBJECTID":117002},"geometry":{"x":175259.20000000112,"y":2545019.5299999993}},{"attributes":{"ID":117003,"DIS_CODE":0,"TOWNNAME":"永康區","LI":"大橋里","LIN":"23鄰","STREET":"大橋一街","SECT":" ","MAREA":" ","LANE":"１３９巷","ALLEY":"２２弄","HOUSE_NO":"６２號之２","E_COORD97":171161.06,"N_COORD97":2546625.7999999998,"ADDRESS":"大橋一街１３９巷２２弄６２號之２","OBJECTID":117003},"geometry":{"x":171161.06000000052,"y":2546625.8000000007}},{"attributes":{"ID":117004,"DIS_CODE":0,"TOWNNAME":"永康區","LI":"二王里","LIN":"23鄰","STREET":"忠孝路","SECT":" ","MAREA":" ","LANE":"４２９巷","ALLEY":"１５弄","HOUSE_NO":"１２號","E_COORD97":172394.64000000001,"N_COORD97":2546477.8700000001,"ADDRESS":"忠孝路４２９巷１５弄１２號","OBJECTID":117004},"geometry":{"x":172394.6400000006,"y":2546477.8700000029}},{"attributes":{"ID":117005,"DIS_CODE":0,"TOWNNAME":"永康區","LI":"二王里","LIN":"23鄰","STREET":"忠孝路","SECT":" ","MAREA":" ","LANE":"４２９巷","ALLEY":"１５弄","HOUSE_NO":"１１號","E_COORD97":172405.89000000001,"N_COORD97":2546477.6200000001,"ADDRESS":"忠孝路４２９巷１５弄１１號","OBJECTID":117005},"geometry":{"x":172405.89000000153,"y":2546477.620000001}},{"attributes":{"ID":117006,"DIS_CODE":0,"TOWNNAME":"永康區","LI":"大橋里","LIN":"23鄰","STREET":"大橋一街","SECT":" ","MAREA":" ","LANE":"１３９巷","ALLEY":"２２弄","HOUSE_NO":"６０號之３","E_COORD97":171154.85000000001,"N_COORD97":2546614.2999999998,"ADDRESS":"大橋一街１３９巷２２弄６０號之３","OBJECTID":117006},"geometry":{"x":171154.84999999963,"y":2546614.3000000026}},{"attributes":{"ID":117007,"DIS_CODE":0,"TOWNNAME":"永康區","LI":"二王里","LIN":"23鄰","STREET":"中山南路","SECT":" ","MAREA":" ","LANE":"５４４巷","ALLEY":"５９弄","HOUSE_NO":"１７號","E_COORD97":172429.56,"N_COORD97":2546452.8799999999,"ADDRESS":"中山南路５４４巷５９弄１７號","OBJECTID":117007},"geometry":{"x":172429.55999999959,"y":2546452.8800000008}},{"attributes":{"ID":117008,"DIS_CODE":0,"TOWNNAME":"永康區","LI":"二王里","LIN":"32鄰","STREET":"中山南路","SECT":" ","MAREA":" ","LANE":"５１０巷","ALLEY":"３４弄","HOUSE_NO":"５號","E_COORD97":172168.66,"N_COORD97":2546396.21,"ADDRESS":"中山南路５１０巷３４弄５號","OBJECTID":117008},"geometry":{"x":172168.66000000015,"y":2546396.2100000009}},{"attributes":{"ID":117009,"DIS_CODE":0,"TOWNNAME":"永康區","LI":"二王里","LIN":"47鄰","STREET":"南工街","SECT":" ","MAREA":" ","LANE":"２２６巷","ALLEY":"８弄","HOUSE_NO":"９號","E_COORD97":172026.29000000001,"N_COORD97":2546040,"ADDRESS":"南工街２２６巷８弄９號","OBJECTID":117009},"geometry":{"x":172026.29000000097,"y":2546040}},{"attributes":{"ID":117010,"DIS_CODE":0,"TOWNNAME":"新化區","LI":"知義里","LIN":"14鄰","STREET":"復興路","SECT":" ","MAREA":" ","LANE":" ","ALLEY":" ","HOUSE_NO":"９號","E_COORD97":179605.22,"N_COORD97":2547209.25,"ADDRESS":"復興路９號","OBJECTID":117010},"geometry":{"x":179605.22000000067,"y":2547209.2499999981}},{"attributes":{"ID":117011,"DIS_CODE":0,"TOWNNAME":"新化區","LI":"知義里","LIN":" ","STREET":" ","SECT":" ","MAREA":"新和庄","LANE":" ","ALLEY":" ","HOUSE_NO":"１５５號","E_COORD97":182022.29000000001,"N_COORD97":2546681.25,"ADDRESS":"新和庄１５５號","OBJECTID":117011},"geometry":{"x":182022.29000000097,"y":2546681.2500000019}},{"attributes":{"ID":117012,"DIS_CODE":0,"TOWNNAME":"新化區","LI":"\u25A0拔里","LIN":"1鄰","STREET":" ","SECT":" ","MAREA":"\u25A0拔林","LANE":" ","ALLEY":" ","HOUSE_NO":"６７號","E_COORD97":183450.57000000001,"N_COORD97":2551977.25,"ADDRESS":"\u25A0拔林６７號","OBJECTID":117012},"geometry":{"x":183450.5700000003,"y":2551977.2500000019}},{"attributes":{"ID":117013,"DIS_CODE":0,"TOWNNAME":"新化區","LI":"\u25A0拔里","LIN":"1鄰","STREET":" ","SECT":" ","MAREA":"\u25A0拔林","LANE":" ","ALLEY":" ","HOUSE_NO":"４０號之１","E_COORD97":183120.79999999999,"N_COORD97":2552017.2599999998,"ADDRESS":"\u25A0拔林４０號之１","OBJECTID":117013},"geometry":{"x":183120.80000000075,"y":2552017.2600000016}},{"attributes":{"ID":117014,"DIS_CODE":0,"TOWNNAME":"下營區","LI":"開化里","LIN":"1鄰","STREET":" ","SECT":" ","MAREA":"中營","LANE":" ","ALLEY":" ","HOUSE_NO":"２號之１","E_COORD97":175387.57000000001,"N_COORD97":2568446.3500000001,"ADDRESS":"中營２號之１","OBJECTID":117014},"geometry":{"x":175387.57000000123,"y":2568446.3500000015}},{"attributes":{"ID":117015,"DIS_CODE":0,"TOWNNAME":"下營區","LI":"開化里","LIN":"1鄰","STREET":" ","SECT":" ","MAREA":"中營","LANE":" ","ALLEY":" ","HOUSE_NO":"２號","E_COORD97":175389.64999999999,"N_COORD97":2568432.4199999999,"ADDRESS":"中營２號","OBJECTID":117015},"geometry":{"x":175389.65000000037,"y":2568432.4200000018}},{"attributes":{"ID":117016,"DIS_CODE":0,"TOWNNAME":"下營區","LI":"開化里","LIN":"1鄰","STREET":" ","SECT":" ","MAREA":"中營","LANE":" ","ALLEY":" ","HOUSE_NO":"３０號","E_COORD97":175631.29999999999,"N_COORD97":2568329.0899999999,"ADDRESS":"中營３０號","OBJECTID":117016},"geometry":{"x":175631.30000000075,"y":2568329.0900000036}},{"attributes":{"ID":117017,"DIS_CODE":0,"TOWNNAME":"下營區","LI":"開化里","LIN":"6鄰","STREET":" ","SECT":" ","MAREA":"中營","LANE":" ","ALLEY":" ","HOUSE_NO":"３８９號","E_COORD97":176054.17999999999,"N_COORD97":2568223.1099999999,"ADDRESS":"中營３８９號","OBJECTID":117017},"geometry":{"x":176054.18000000063,"y":2568223.1099999994}},{"attributes":{"ID":117018,"DIS_CODE":0,"TOWNNAME":"下營區","LI":"開化里","LIN":"6鄰","STREET":" ","SECT":" ","MAREA":"中營","LANE":" ","ALLEY":" ","HOUSE_NO":"３９０號","E_COORD97":176047.57999999999,"N_COORD97":2568204.4199999999,"ADDRESS":"中營３９０號","OBJECTID":117018},"geometry":{"x":176047.58000000007,"y":2568204.4199999999}},{"attributes":{"ID":117019,"DIS_CODE":0,"TOWNNAME":"下營區","LI":"開化里","LIN":"6鄰","STREET":" ","SECT":" ","MAREA":"中營","LANE":" ","ALLEY":" ","HOUSE_NO":"３９１號","E_COORD97":176075.81,"N_COORD97":2568200.3900000001,"ADDRESS":"中營３９１號","OBJECTID":117019},"geometry":{"x":176075.80999999959,"y":2568200.3900000025}},{"attributes":{"ID":117020,"DIS_CODE":0,"TOWNNAME":"下營區","LI":"開化里","LIN":"6鄰","STREET":" ","SECT":" ","MAREA":"中營","LANE":" ","ALLEY":" ","HOUSE_NO":"３９２號","E_COORD97":176056.87,"N_COORD97":2568169.8500000001,"ADDRESS":"中營３９２號","OBJECTID":117020},"geometry":{"x":176056.87000000104,"y":2568169.8499999996}},{"attributes":{"ID":117021,"DIS_CODE":0,"TOWNNAME":"下營區","LI":"開化里","LIN":"6鄰","STREET":" ","SECT":" ","MAREA":"中營","LANE":" ","ALLEY":" ","HOUSE_NO":"３９３號","E_COORD97":176061.17999999999,"N_COORD97":2568170.1600000001,"ADDRESS":"中營３９３號","OBJECTID":117021},"geometry":{"x":176061.18000000063,"y":2568170.160000002}},{"attributes":{"ID":117022,"DIS_CODE":0,"TOWNNAME":"下營區","LI":"開化里","LIN":"6鄰","STREET":" ","SECT":" ","MAREA":"中營","LANE":" ","ALLEY":" ","HOUSE_NO":"３９４號","E_COORD97":176066.03,"N_COORD97":2568169.9399999999,"ADDRESS":"中營３９４號","OBJECTID":117022},"geometry":{"x":176066.03000000119,"y":2568169.9399999995}},{"attributes":{"ID":117023,"DIS_CODE":0,"TOWNNAME":"下營區","LI":"開化里","LIN":"6鄰","STREET":" ","SECT":" ","MAREA":"中營","LANE":" ","ALLEY":" ","HOUSE_NO":"３９８號","E_COORD97":176080.47,"N_COORD97":2568185.1699999999,"ADDRESS":"中營３９８號","OBJECTID":117023},"geometry":{"x":176080.46999999881,"y":2568185.1699999999}},{"attributes":{"ID":117024,"DIS_CODE":0,"TOWNNAME":"下營區","LI":"開化里","LIN":"6鄰","STREET":" ","SECT":" ","MAREA":"中營","LANE":" ","ALLEY":" ","HOUSE_NO":"３９９號","E_COORD97":176057.89000000001,"N_COORD97":2568181.75,"ADDRESS":"中營３９９號","OBJECTID":117024},"geometry":{"x":176057.8900000006,"y":2568181.75}},{"attributes":{"ID":117025,"DIS_CODE":0,"TOWNNAME":"下營區","LI":"開化里","LIN":"16鄰","STREET":" ","SECT":" ","MAREA":"中營","LANE":" ","ALLEY":" ","HOUSE_NO":"３６號","E_COORD97":175614.76999999999,"N_COORD97":2568239.7200000002,"ADDRESS":"中營３６號","OBJECTID":117025},"geometry":{"x":175614.76999999955,"y":2568239.7200000007}},{"attributes":{"ID":117026,"DIS_CODE":0,"TOWNNAME":"新化區","LI":"協興里","LIN":"10鄰","STREET":"正新路","SECT":" ","MAREA":" ","LANE":" ","ALLEY":" ","HOUSE_NO":"３２６號","E_COORD97":178573.32000000001,"N_COORD97":2548817.25,"ADDRESS":"正新路３２６號","OBJECTID":117026},"geometry":{"x":178573.3200000003,"y":2548817.2500000019}},{"attributes":{"ID":117027,"DIS_CODE":0,"TOWNNAME":"永康區","LI":"二王里","LIN":"1鄰","STREET":"二王路","SECT":" ","MAREA":" ","LANE":"２７巷","ALLEY":"１２弄","HOUSE_NO":"１７號","E_COORD97":173061.76000000001,"N_COORD97":2546737.3599999999,"ADDRESS":"二王路２７巷１２弄１７號","OBJECTID":117027},"geometry":{"x":173061.76000000071,"y":2546737.3600000013}},{"attributes":{"ID":117028,"DIS_CODE":0,"TOWNNAME":"永康區","LI":"三民里","LIN":"6鄰","STREET":"三民街","SECT":" ","MAREA":" ","LANE":"１８巷","ALLEY":"８弄","HOUSE_NO":"１９號","E_COORD97":173388.28,"N_COORD97":2550152.9100000001,"ADDRESS":"三民街１８巷８弄１９號","OBJECTID":117028},"geometry":{"x":173388.28000000026,"y":2550152.910000002}},{"attributes":{"ID":117029,"DIS_CODE":0,"TOWNNAME":"永康區","LI":"三合里","LIN":"23鄰","STREET":"南工街","SECT":" ","MAREA":" ","LANE":"３２３巷","ALLEY":"３５弄","HOUSE_NO":"５號","E_COORD97":171794.85999999999,"N_COORD97":2545938.7400000002,"ADDRESS":"南工街３２３巷３５弄５號","OBJECTID":117029},"geometry":{"x":171794.8600000022,"y":2545938.7400000021}},{"attributes":{"ID":117030,"DIS_CODE":0,"TOWNNAME":"東區","LI":"文聖里","LIN":"10鄰","STREET":"裕文路","SECT":" ","MAREA":" ","LANE":" ","ALLEY":" ","HOUSE_NO":"１２３號","E_COORD97":172083.32000000001,"N_COORD97":2542595.6000000001,"ADDRESS":"裕文路１２３號","OBJECTID":117030},"geometry":{"x":172083.32000000216,"y":2542595.5999999978}},{"attributes":{"ID":117031,"DIS_CODE":0,"TOWNNAME":"永康區","LI":"大灣里","LIN":"26鄰","STREET":"民族路","SECT":" ","MAREA":" ","LANE":"１９０巷","ALLEY":"１弄","HOUSE_NO":"４號","E_COORD97":175156.84,"N_COORD97":2545130.6800000002,"ADDRESS":"民族路１９０巷１弄４號","OBJECTID":117031},"geometry":{"x":175156.84000000078,"y":2545130.6799999997}},{"attributes":{"ID":117032,"DIS_CODE":0,"TOWNNAME":"永康區","LI":"三民里","LIN":"6鄰","STREET":"三民街","SECT":" ","MAREA":" ","LANE":"１８巷","ALLEY":"８弄","HOUSE_NO":"２２號","E_COORD97":173363.45000000001,"N_COORD97":2550116.7799999998,"ADDRESS":"三民街１８巷８弄２２號","OBJECTID":117032},"geometry":{"x":173363.45000000019,"y":2550116.7799999993}},{"attributes":{"ID":117033,"DIS_CODE":0,"TOWNNAME":"東區","LI":"文聖里","LIN":"10鄰","STREET":"裕文路","SECT":" ","MAREA":" ","LANE":" ","ALLEY":" ","HOUSE_NO":"１２５號","E_COORD97":172084.13,"N_COORD97":2542582.5499999998,"ADDRESS":"裕文路１２５號","OBJECTID":117033},"geometry":{"x":172084.13000000175,"y":2542582.5500000007}},{"attributes":{"ID":117034,"DIS_CODE":0,"TOWNNAME":"東區","LI":"文聖里","LIN":"10鄰","STREET":"裕文路","SECT":" ","MAREA":" ","LANE":" ","ALLEY":" ","HOUSE_NO":"１２７號","E_COORD97":172088.42000000001,"N_COORD97":2542586.1200000001,"ADDRESS":"裕文路１２７號","OBJECTID":117034},"geometry":{"x":172088.41999999993,"y":2542586.120000001}},{"attributes":{"ID":117035,"DIS_CODE":0,"TOWNNAME":"東區","LI":"關聖里","LIN":"14鄰","STREET":"裕平路","SECT":" ","MAREA":" ","LANE":" ","ALLEY":" ","HOUSE_NO":"３９號","E_COORD97":172097.07000000001,"N_COORD97":2542846,"ADDRESS":"裕平路３９號","OBJECTID":117035},"geometry":{"x":172097.07000000123,"y":2542846.0000000019}},{"attributes":{"ID":117036,"DIS_CODE":0,"TOWNNAME":"永康區","LI":"三合里","LIN":"10鄰","STREET":"南工街","SECT":" ","MAREA":" ","LANE":"２４７巷","ALLEY":"３５弄","HOUSE_NO":"２８號","E_COORD97":171990.76000000001,"N_COORD97":2545645.4300000002,"ADDRESS":"南工街２４７巷３５弄２８號","OBJECTID":117036},"geometry":{"x":171990.75999999978,"y":2545645.4300000016}},{"attributes":{"ID":117037,"DIS_CODE":0,"TOWNNAME":"東區","LI":"關聖里","LIN":"17鄰","STREET":"裕平路","SECT":" ","MAREA":" ","LANE":" ","ALLEY":" ","HOUSE_NO":"９１號","E_COORD97":172303.44,"N_COORD97":2542844.7200000002,"ADDRESS":"裕平路９１號","OBJECTID":117037},"geometry":{"x":172303.44000000134,"y":2542844.7200000025}},{"attributes":{"ID":117038,"DIS_CODE":0,"TOWNNAME":"東區","LI":"文聖里","LIN":"15鄰","STREET":"裕孝路","SECT":" ","MAREA":" ","LANE":" ","ALLEY":" ","HOUSE_NO":"１８９號","E_COORD97":172451.67999999999,"N_COORD97":2542715.0800000001,"ADDRESS":"裕孝路１８９號","OBJECTID":117038},"geometry":{"x":172451.68000000063,"y":2542715.0800000038}},{"attributes":{"ID":117039,"DIS_CODE":0,"TOWNNAME":"東區","LI":"文聖里","LIN":"15鄰","STREET":"裕孝路","SECT":" ","MAREA":" ","LANE":" ","ALLEY":" ","HOUSE_NO":"１９１之１０號","E_COORD97":172508.82000000001,"N_COORD97":2542710.8199999998,"ADDRESS":"裕孝路１９１之１０號","OBJECTID":117039},"geometry":{"x":172508.82000000216,"y":2542710.8200000022}},{"attributes":{"ID":117040,"DIS_CODE":0,"TOWNNAME":"東區","LI":"文聖里","LIN":"15鄰","STREET":"裕孝路","SECT":" ","MAREA":" ","LANE":" ","ALLEY":" ","HOUSE_NO":"１９１之１１號","E_COORD97":172513.92000000001,"N_COORD97":2542713.5,"ADDRESS":"裕孝路１９１之１１號","OBJECTID":117040},"geometry":{"x":172513.91999999993,"y":2542713.5000000019}},{"attributes":{"ID":117041,"DIS_CODE":0,"TOWNNAME":"永康區","LI":"二王里","LIN":"21鄰","STREET":"中山南路","SECT":" ","MAREA":" ","LANE":"６４４巷","ALLEY":"４２弄","HOUSE_NO":"１６號","E_COORD97":172351.89999999999,"N_COORD97":2546545.1299999999,"ADDRESS":"中山南路６４４巷４２弄１６號","OBJECTID":117041},"geometry":{"x":172351.90000000037,"y":2546545.1300000008}},{"attributes":{"ID":117042,"DIS_CODE":0,"TOWNNAME":"永康區","LI":"三合里","LIN":"9鄰","STREET":"南工街","SECT":" ","MAREA":" ","LANE":"２４７巷","ALLEY":"３５弄","HOUSE_NO":"１０６號","E_COORD97":172044.13,"N_COORD97":2545738.2400000002,"ADDRESS":"南工街２４７巷３５弄１０６號","OBJECTID":117042},"geometry":{"x":172044.13000000082,"y":2545738.2399999984}},{"attributes":{"ID":117043,"DIS_CODE":0,"TOWNNAME":"永康區","LI":"大灣里","LIN":"30鄰","STREET":"民族路","SECT":" ","MAREA":" ","LANE":"１２６巷","ALLEY":"８０弄","HOUSE_NO":"１３號","E_COORD97":175447.76999999999,"N_COORD97":2544911.46,"ADDRESS":"民族路１２６巷８０弄１３號","OBJECTID":117043},"geometry":{"x":175447.77000000142,"y":2544911.4600000028}},{"attributes":{"ID":117044,"DIS_CODE":0,"TOWNNAME":"永康區","LI":"二王里","LIN":"44鄰","STREET":"南工街","SECT":" ","MAREA":" ","LANE":"２１４巷","ALLEY":"３０弄","HOUSE_NO":"１０號","E_COORD97":172116.72,"N_COORD97":2546044.8700000001,"ADDRESS":"南工街２１４巷３０弄１０號","OBJECTID":117044},"geometry":{"x":172116.71999999974,"y":2546044.8700000029}},{"attributes":{"ID":117045,"DIS_CODE":0,"TOWNNAME":"永康區","LI":"二王里","LIN":"44鄰","STREET":"南工街","SECT":" ","MAREA":" ","LANE":"２１４巷","ALLEY":"３０弄","HOUSE_NO":"２號","E_COORD97":172081.25,"N_COORD97":2546048.1200000001,"ADDRESS":"南工街２１４巷３０弄２號","OBJECTID":117045},"geometry":{"x":172081.25,"y":2546048.120000001}},{"attributes":{"ID":117046,"DIS_CODE":0,"TOWNNAME":"新市區","LI":"港墘里","LIN":"23鄰","STREET":"光華街","SECT":" ","MAREA":" ","LANE":"１５２巷","ALLEY":"１７弄","HOUSE_NO":"２號","E_COORD97":177954.12,"N_COORD97":2552843,"ADDRESS":"光華街１５２巷１７弄２號","OBJECTID":117046},"geometry":{"x":177954.12000000011,"y":2552843.0000000019}},{"attributes":{"ID":117047,"DIS_CODE":0,"TOWNNAME":"永康區","LI":"三合里","LIN":"16鄰","STREET":"南工街","SECT":" ","MAREA":" ","LANE":"２４７巷","ALLEY":"２弄","HOUSE_NO":"６號","E_COORD97":171963.45999999999,"N_COORD97":2545920.5,"ADDRESS":"南工街２４７巷２弄６號","OBJECTID":117047},"geometry":{"x":171963.46000000089,"y":2545920.5000000019}},{"attributes":{"ID":117048,"DIS_CODE":0,"TOWNNAME":"永康區","LI":"二王里","LIN":"47鄰","STREET":"南工街","SECT":" ","MAREA":" ","LANE":"２２６巷","ALLEY":"３弄","HOUSE_NO":"６號","E_COORD97":171954.42000000001,"N_COORD97":2546001.98,"ADDRESS":"南工街２２６巷３弄６號","OBJECTID":117048},"geometry":{"x":171954.41999999993,"y":2546001.9800000023}},{"attributes":{"ID":117049,"DIS_CODE":0,"TOWNNAME":"東區","LI":"文聖里","LIN":"15鄰","STREET":"裕孝路","SECT":" ","MAREA":" ","LANE":" ","ALLEY":" ","HOUSE_NO":"１９１之１號","E_COORD97":172465.62,"N_COORD97":2542710.4100000001,"ADDRESS":"裕孝路１９１之１號","OBJECTID":117049},"geometry":{"x":172465.62000000011,"y":2542710.410000002}},{"attributes":{"ID":117050,"DIS_CODE":0,"TOWNNAME":"永康區","LI":"大橋里","LIN":"19鄰","STREET":"大橋一街","SECT":" ","MAREA":" ","LANE":"１３９巷","ALLEY":"２２弄","HOUSE_NO":"６１號","E_COORD97":171072.45000000001,"N_COORD97":2546604.04,"ADDRESS":"大橋一街１３９巷２２弄６１號","OBJECTID":117050},"geometry":{"x":171072.45000000112,"y":2546604.040000001}},{"attributes":{"ID":117051,"DIS_CODE":0,"TOWNNAME":"新營區","LI":"延平里","LIN":"1鄰","STREET":"延平路","SECT":" ","MAREA":" ","LANE":" ","ALLEY":" ","HOUSE_NO":"４６之１８６號","E_COORD97":179701.99368099999,"N_COORD97":2577770.0726999999,"ADDRESS":"延平路４６之１８６號","OBJECTID":117051},"geometry":{"x":179701.99368100055,"y":2577770.0726990011}},{"attributes":{"ID":117052,"DIS_CODE":0,"TOWNNAME":"歸仁區","LI":"後市里","LIN":"1鄰","STREET":"民權南路","SECT":" ","MAREA":" ","LANE":" ","ALLEY":" ","HOUSE_NO":"１６１號","E_COORD97":176976.579749,"N_COORD97":2540586.6172099998,"ADDRESS":"民權南路１６１號","OBJECTID":117052},"geometry":{"x":176976.57974899933,"y":2540586.6172130033}},{"attributes":{"ID":117053,"DIS_CODE":0,"TOWNNAME":"新化區","LI":"知義里","LIN":"6鄰","STREET":" ","SECT":" ","MAREA":"新和庄","LANE":" ","ALLEY":" ","HOUSE_NO":"９號之１２","E_COORD97":181305.084626,"N_COORD97":2546940.32247,"ADDRESS":"新和庄９號之１２","OBJECTID":117053},"geometry":{"x":181305.08462600131,"y":2546940.3224689998}},{"attributes":{"ID":117054,"DIS_CODE":0,"TOWNNAME":"新化區","LI":"\u25A0拔里","LIN":"1鄰","STREET":" ","SECT":" ","MAREA":"\u25A0拔林","LANE":" ","ALLEY":" ","HOUSE_NO":"３６號之１１","E_COORD97":183046.64999999999,"N_COORD97":2552046.2599999998,"ADDRESS":"\u25A0拔林３６號之１１","OBJECTID":117054},"geometry":{"x":183046.65000000037,"y":2552046.2599999998}},{"attributes":{"ID":117055,"DIS_CODE":0,"TOWNNAME":"新化區","LI":"崙頂里","LIN":"1鄰","STREET":" ","SECT":" ","MAREA":"崙子頂","LANE":" ","ALLEY":" ","HOUSE_NO":"４１號","E_COORD97":176978.78,"N_COORD97":2546516.25,"ADDRESS":"崙子頂４１號","OBJECTID":117055},"geometry":{"x":176978.78000000026,"y":2546516.25}},{"attributes":{"ID":117056,"DIS_CODE":0,"TOWNNAME":"新化區","LI":"武安里","LIN":"13鄰","STREET":"健康路","SECT":" ","MAREA":" ","LANE":" ","ALLEY":" ","HOUSE_NO":"５６號","E_COORD97":178887.57999999999,"N_COORD97":2548070.2599999998,"ADDRESS":"健康路５６號","OBJECTID":117056},"geometry":{"x":178887.58000000194,"y":2548070.2600000035}},{"attributes":{"ID":117057,"DIS_CODE":0,"TOWNNAME":"安南區","LI":"溪北里","LIN":"1鄰","STREET":"安和路","SECT":"一段","MAREA":" ","LANE":" ","ALLEY":" ","HOUSE_NO":"１２５號","E_COORD97":169447.37,"N_COORD97":2547662.2799999998,"ADDRESS":"安和路一段１２５號","OBJECTID":117057},"geometry":{"x":169447.37000000104,"y":2547662.2799999993}},{"attributes":{"ID":117058,"DIS_CODE":0,"TOWNNAME":"永康區","LI":"三合里","LIN":"16鄰","STREET":"南工街","SECT":" ","MAREA":" ","LANE":"２４７巷","ALLEY":"２弄","HOUSE_NO":"９號","E_COORD97":171953.19,"N_COORD97":2545909.5600000001,"ADDRESS":"南工街２４７巷２弄９號","OBJECTID":117058},"geometry":{"x":171953.19000000041,"y":2545909.5600000042}},{"attributes":{"ID":117059,"DIS_CODE":0,"TOWNNAME":"東區","LI":"崇文里","LIN":"1鄰","STREET":"崇德十五街","SECT":" ","MAREA":" ","LANE":" ","ALLEY":" ","HOUSE_NO":"２０號","E_COORD97":170908.37,"N_COORD97":2541174.0499999998,"ADDRESS":"崇德十五街２０號","OBJECTID":117059},"geometry":{"x":170908.37000000104,"y":2541174.0500000026}},{"attributes":{"ID":117060,"DIS_CODE":0,"TOWNNAME":"永康區","LI":"大灣里","LIN":"28鄰","STREET":"民族路","SECT":" ","MAREA":" ","LANE":"１９０巷","ALLEY":"１４弄","HOUSE_NO":"６號","E_COORD97":175254.62,"N_COORD97":2545042.2799999998,"ADDRESS":"民族路１９０巷１４弄６號","OBJECTID":117060},"geometry":{"x":175254.62000000104,"y":2545042.2800000031}},{"attributes":{"ID":117061,"DIS_CODE":0,"TOWNNAME":"白河區","LI":"大竹里","LIN":"1鄰","STREET":" ","SECT":" ","MAREA":"大排竹","LANE":" ","ALLEY":" ","HOUSE_NO":"１４號","E_COORD97":189903.147474,"N_COORD97":2585193.4617099999,"ADDRESS":"大排竹１４號","OBJECTID":117061},"geometry":{"x":189903.14747400116,"y":2585193.4617049992}},{"attributes":{"ID":117062,"DIS_CODE":0,"TOWNNAME":"新化區","LI":"\u25A0拔里","LIN":"1鄰","STREET":" ","SECT":" ","MAREA":"\u25A0拔林","LANE":" ","ALLEY":" ","HOUSE_NO":"３６號之２","E_COORD97":182768.73000000001,"N_COORD97":2552109.2599999998,"ADDRESS":"\u25A0拔林３６號之２","OBJECTID":117062},"geometry":{"x":182768.72999999952,"y":2552109.2600000016}},{"attributes":{"ID":117063,"DIS_CODE":0,"TOWNNAME":"新化區","LI":"知義里","LIN":"1鄰","STREET":" ","SECT":" ","MAREA":"知母義","LANE":" ","ALLEY":" ","HOUSE_NO":"１號","E_COORD97":179608.01999999999,"N_COORD97":2547178.25,"ADDRESS":"知母義１號","OBJECTID":117063},"geometry":{"x":179608.02000000048,"y":2547178.25}},{"attributes":{"ID":117064,"DIS_CODE":0,"TOWNNAME":"下營區","LI":"開化里","LIN":"16鄰","STREET":" ","SECT":" ","MAREA":"中營","LANE":" ","ALLEY":" ","HOUSE_NO":"３８號","E_COORD97":175593.07999999999,"N_COORD97":2568206.6200000001,"ADDRESS":"中營３８號","OBJECTID":117064},"geometry":{"x":175593.08000000007,"y":2568206.620000001}},{"attributes":{"ID":117065,"DIS_CODE":0,"TOWNNAME":"下營區","LI":"開化里","LIN":"16鄰","STREET":" ","SECT":" ","MAREA":"中營","LANE":" ","ALLEY":" ","HOUSE_NO":"３９號","E_COORD97":175667.69,"N_COORD97":2568238.96,"ADDRESS":"中營３９號","OBJECTID":117065},"geometry":{"x":175667.69000000041,"y":2568238.9600000009}},{"attributes":{"ID":117066,"DIS_CODE":0,"TOWNNAME":"下營區","LI":"開化里","LIN":"1鄰","STREET":" ","SECT":" ","MAREA":"中營","LANE":" ","ALLEY":" ","HOUSE_NO":"６號","E_COORD97":175399.35999999999,"N_COORD97":2568362.6000000001,"ADDRESS":"中營６號","OBJECTID":117066},"geometry":{"x":175399.36000000127,"y":2568362.6000000034}},{"attributes":{"ID":117067,"DIS_CODE":0,"TOWNNAME":"下營區","LI":"中營里","LIN":"4鄰","STREET":" ","SECT":" ","MAREA":"中營","LANE":" ","ALLEY":" ","HOUSE_NO":"９８９號","E_COORD97":175961.84,"N_COORD97":2568560.8100000001,"ADDRESS":"中營９８９號","OBJECTID":117067},"geometry":{"x":175961.84000000078,"y":2568560.8100000005}},{"attributes":{"ID":117068,"DIS_CODE":0,"TOWNNAME":"下營區","LI":"中營里","LIN":"4鄰","STREET":" ","SECT":" ","MAREA":"中營","LANE":" ","ALLEY":" ","HOUSE_NO":"９９０號","E_COORD97":175964.20000000001,"N_COORD97":2568538.5299999998,"ADDRESS":"中營９９０號","OBJECTID":117068},"geometry":{"x":175964.20000000205,"y":2568538.5299999993}},{"attributes":{"ID":117069,"DIS_CODE":0,"TOWNNAME":"下營區","LI":"中營里","LIN":"4鄰","STREET":" ","SECT":" ","MAREA":"中營","LANE":" ","ALLEY":" ","HOUSE_NO":"９９３號","E_COORD97":175961.48000000001,"N_COORD97":2568577.96,"ADDRESS":"中營９９３號","OBJECTID":117069},"geometry":{"x":175961.48000000138,"y":2568577.9600000009}},{"attributes":{"ID":117070,"DIS_CODE":0,"TOWNNAME":"下營區","LI":"中營里","LIN":"4鄰","STREET":" ","SECT":" ","MAREA":"中營","LANE":" ","ALLEY":" ","HOUSE_NO":"９９５號之１","E_COORD97":175961.57999999999,"N_COORD97":2568589.73,"ADDRESS":"中營９９５號之１","OBJECTID":117070},"geometry":{"x":175961.58000000194,"y":2568589.7300000042}},{"attributes":{"ID":117071,"DIS_CODE":0,"TOWNNAME":"下營區","LI":"中營里","LIN":"4鄰","STREET":" ","SECT":" ","MAREA":"中營","LANE":" ","ALLEY":" ","HOUSE_NO":"９９５號","E_COORD97":175965.04999999999,"N_COORD97":2568606.98,"ADDRESS":"中營９９５號","OBJECTID":117071},"geometry":{"x":175965.05000000075,"y":2568606.9800000004}},{"attributes":{"ID":117072,"DIS_CODE":0,"TOWNNAME":"永康區","LI":"三合里","LIN":"23鄰","STREET":"南工街","SECT":" ","MAREA":" ","LANE":"３２３巷","ALLEY":"３２弄","HOUSE_NO":"８號","E_COORD97":171764.22,"N_COORD97":2545945.2400000002,"ADDRESS":"南工街３２３巷３２弄８號","OBJECTID":117072},"geometry":{"x":171764.21999999974,"y":2545945.2400000039}},{"attributes":{"ID":117073,"DIS_CODE":0,"TOWNNAME":"永康區","LI":"二王里","LIN":"23鄰","STREET":"中山南路","SECT":" ","MAREA":" ","LANE":"５４４巷","ALLEY":"５９弄","HOUSE_NO":"３０號","E_COORD97":172423.01999999999,"N_COORD97":2546432.8300000001,"ADDRESS":"中山南路５４４巷５９弄３０號","OBJECTID":117073},"geometry":{"x":172423.01999999955,"y":2546432.8300000038}},{"attributes":{"ID":117074,"DIS_CODE":0,"TOWNNAME":"永康區","LI":"大橋里","LIN":"23鄰","STREET":"大橋一街","SECT":" ","MAREA":" ","LANE":"１３９巷","ALLEY":"２２弄","HOUSE_NO":"６０號之２","E_COORD97":171151.42000000001,"N_COORD97":2546619.5499999998,"ADDRESS":"大橋一街１３９巷２２弄６０號之２","OBJECTID":117074},"geometry":{"x":171151.41999999899,"y":2546619.5500000026}},{"attributes":{"ID":117075,"DIS_CODE":0,"TOWNNAME":"永康區","LI":"大橋里","LIN":"23鄰","STREET":"大橋一街","SECT":" ","MAREA":" ","LANE":"１３９巷","ALLEY":"２２弄","HOUSE_NO":"６２號之３","E_COORD97":171164.67999999999,"N_COORD97":2546620.2999999998,"ADDRESS":"大橋一街１３９巷２２弄６２號之３","OBJECTID":117075},"geometry":{"x":171164.67999999877,"y":2546620.3000000045}},{"attributes":{"ID":117076,"DIS_CODE":0,"TOWNNAME":"永康區","LI":"二王里","LIN":"23鄰","STREET":"忠孝路","SECT":" ","MAREA":" ","LANE":"４２９巷","ALLEY":"１５弄","HOUSE_NO":"５號","E_COORD97":172433.60999999999,"N_COORD97":2546504.3599999999,"ADDRESS":"忠孝路４２９巷１５弄５號","OBJECTID":117076},"geometry":{"x":172433.61000000034,"y":2546504.3600000013}},{"attributes":{"ID":117077,"DIS_CODE":0,"TOWNNAME":"永康區","LI":"埔園里","LIN":"23鄰","STREET":"四維街","SECT":" ","MAREA":" ","LANE":"５８巷","ALLEY":"６弄","HOUSE_NO":"２３號","E_COORD97":173479.98999999999,"N_COORD97":2548004,"ADDRESS":"四維街５８巷６弄２３號","OBJECTID":117077},"geometry":{"x":173479.99000000022,"y":2548004}},{"attributes":{"ID":117078,"DIS_CODE":0,"TOWNNAME":"永康區","LI":"二王里","LIN":"23鄰","STREET":"中山南路","SECT":" ","MAREA":" ","LANE":"５４４巷","ALLEY":"５９弄","HOUSE_NO":"３６號","E_COORD97":172446.57000000001,"N_COORD97":2546436,"ADDRESS":"中山南路５４４巷５９弄３６號","OBJECTID":117078},"geometry":{"x":172446.57000000123,"y":2546436.0000000019}},{"attributes":{"ID":117079,"DIS_CODE":0,"TOWNNAME":"永康區","LI":"大橋里","LIN":"23鄰","STREET":"大橋一街","SECT":" ","MAREA":" ","LANE":"１３９巷","ALLEY":"２２弄","HOUSE_NO":"６２號之１","E_COORD97":171157.62,"N_COORD97":2546630.7999999998,"ADDRESS":"大橋一街１３９巷２２弄６２號之１","OBJECTID":117079},"geometry":{"x":171157.62000000104,"y":2546630.8000000026}},{"attributes":{"ID":117080,"DIS_CODE":0,"TOWNNAME":"下營區","LI":"仁里里","LIN":"1鄰","STREET":"仁南街","SECT":" ","MAREA":" ","LANE":" ","ALLEY":" ","HOUSE_NO":"７號","E_COORD97":174637.79999999999,"N_COORD97":2569677.1499999999,"ADDRESS":"仁南街７號","OBJECTID":117080},"geometry":{"x":174637.80000000075,"y":2569677.1500000004}},{"attributes":{"ID":117081,"DIS_CODE":0,"TOWNNAME":"永康區","LI":"三合里","LIN":"23鄰","STREET":"南工街","SECT":" ","MAREA":" ","LANE":"３２３巷","ALLEY":"３２弄","HOUSE_NO":"４號","E_COORD97":171772.17000000001,"N_COORD97":2545944.4900000002,"ADDRESS":"南工街３２３巷３２弄４號","OBJECTID":117081},"geometry":{"x":171772.17000000086,"y":2545944.4900000021}},{"attributes":{"ID":117082,"DIS_CODE":0,"TOWNNAME":"仁德區","LI":"新田里","LIN":"1鄰","STREET":"新田二街１３８巷","SECT":" ","MAREA":" ","LANE":" ","ALLEY":" ","HOUSE_NO":"２２之１號","E_COORD97":174982.01635399999,"N_COORD97":2540038.9901200002,"ADDRESS":"新田二街１３８巷２２之１號","OBJECTID":117082},"geometry":{"x":174982.0163540002,"y":2540038.9901230019}},{"attributes":{"ID":117083,"DIS_CODE":0,"TOWNNAME":"安南區","LI":"總頭里","LIN":"1鄰","STREET":"北安路","SECT":"三段","MAREA":" ","LANE":" ","ALLEY":" ","HOUSE_NO":"３０１之９號","E_COORD97":168878.45000000001,"N_COORD97":2549666.1400000001,"ADDRESS":"北安路三段３０１之９號","OBJECTID":117083},"geometry":{"x":168878.45000000205,"y":2549666.1400000025}},{"attributes":{"ID":117084,"DIS_CODE":0,"TOWNNAME":"歸仁區","LI":"看西里","LIN":"8鄰","STREET":"仁愛南街","SECT":" ","MAREA":" ","LANE":" ","ALLEY":" ","HOUSE_NO":"２５０號","E_COORD97":178252.49884399999,"N_COORD97":2540197.6794699999,"ADDRESS":"仁愛南街２５０號","OBJECTID":117084},"geometry":{"x":178252.49884400051,"y":2540197.6794710048}},{"attributes":{"ID":117085,"DIS_CODE":0,"TOWNNAME":"下營區","LI":"中營里","LIN":"4鄰","STREET":" ","SECT":" ","MAREA":"中營","LANE":" ","ALLEY":" ","HOUSE_NO":"９９６號之１","E_COORD97":175939.32000000001,"N_COORD97":2568587.5499999998,"ADDRESS":"中營９９６號之１","OBJECTID":117085},"geometry":{"x":175939.3200000003,"y":2568587.5500000007}},{"attributes":{"ID":117086,"DIS_CODE":0,"TOWNNAME":"新化區","LI":"武安里","LIN":"13鄰","STREET":"健康路","SECT":" ","MAREA":" ","LANE":"６０巷","ALLEY":" ","HOUSE_NO":"２號","E_COORD97":178880.07999999999,"N_COORD97":2548085.2599999998,"ADDRESS":"健康路６０巷２號","OBJECTID":117086},"geometry":{"x":178880.08000000007,"y":2548085.2600000016}},{"attributes":{"ID":117087,"DIS_CODE":0,"TOWNNAME":"下營區","LI":"中營里","LIN":"4鄰","STREET":" ","SECT":" ","MAREA":"中營","LANE":" ","ALLEY":" ","HOUSE_NO":"９９６號之２","E_COORD97":175935.23000000001,"N_COORD97":2568587.5099999998,"ADDRESS":"中營９９６號之２","OBJECTID":117087},"geometry":{"x":175935.23000000045,"y":2568587.5100000035}},{"attributes":{"ID":117088,"DIS_CODE":0,"TOWNNAME":"下營區","LI":"中營里","LIN":"4鄰","STREET":" ","SECT":" ","MAREA":"中營","LANE":" ","ALLEY":" ","HOUSE_NO":"９９６號","E_COORD97":175945.07999999999,"N_COORD97":2568587.8500000001,"ADDRESS":"中營９９６號","OBJECTID":117088},"geometry":{"x":175945.08000000101,"y":2568587.8499999996}},{"attributes":{"ID":117089,"DIS_CODE":0,"TOWNNAME":"永康區","LI":"二王里","LIN":"23鄰","STREET":"忠孝路","SECT":" ","MAREA":" ","LANE":"４２９巷","ALLEY":"１５弄","HOUSE_NO":"１號","E_COORD97":172391.76000000001,"N_COORD97":2546503.1099999999,"ADDRESS":"忠孝路４２９巷１５弄１號","OBJECTID":117089},"geometry":{"x":172391.76000000164,"y":2546503.1099999994}},{"attributes":{"ID":117090,"DIS_CODE":0,"TOWNNAME":"永康區","LI":"大橋里","LIN":"23鄰","STREET":"大橋一街","SECT":" ","MAREA":" ","LANE":"１３９巷","ALLEY":"２２弄","HOUSE_NO":"６０號之１","E_COORD97":171147.95000000001,"N_COORD97":2546624.5499999998,"ADDRESS":"大橋一街１３９巷２２弄６０號之１","OBJECTID":117090},"geometry":{"x":171147.95000000019,"y":2546624.5500000007}},{"attributes":{"ID":117091,"DIS_CODE":0,"TOWNNAME":"永康區","LI":"二王里","LIN":"23鄰","STREET":"忠孝路","SECT":" ","MAREA":" ","LANE":"４２９巷","ALLEY":"１７弄","HOUSE_NO":"１號","E_COORD97":172370.57999999999,"N_COORD97":2546497.29,"ADDRESS":"忠孝路４２９巷１７弄１號","OBJECTID":117091},"geometry":{"x":172370.58000000007,"y":2546497.290000001}},{"attributes":{"ID":117092,"DIS_CODE":0,"TOWNNAME":"永康區","LI":"二王里","LIN":"24鄰","STREET":"中山南路","SECT":" ","MAREA":" ","LANE":"５４４巷","ALLEY":"６３弄","HOUSE_NO":"３１號","E_COORD97":172435.59,"N_COORD97":2546406.3300000001,"ADDRESS":"中山南路５４４巷６３弄３１號","OBJECTID":117092},"geometry":{"x":172435.59000000078,"y":2546406.3300000019}},{"attributes":{"ID":117093,"DIS_CODE":0,"TOWNNAME":"永康區","LI":"二王里","LIN":"44鄰","STREET":"南工街","SECT":" ","MAREA":" ","LANE":"２１４巷","ALLEY":"３０弄","HOUSE_NO":"１２號","E_COORD97":172125.35999999999,"N_COORD97":2546044.8700000001,"ADDRESS":"南工街２１４巷３０弄１２號","OBJECTID":117093},"geometry":{"x":172125.3600000022,"y":2546044.8700000029}},{"attributes":{"ID":117094,"DIS_CODE":0,"TOWNNAME":"仁德區","LI":"後壁里","LIN":"23鄰","STREET":"中正路","SECT":"二段","MAREA":" ","LANE":"１８７巷","ALLEY":"６弄","HOUSE_NO":"１８號","E_COORD97":173049.45999999999,"N_COORD97":2538711.77,"ADDRESS":"中正路二段１８７巷６弄１８號","OBJECTID":117094},"geometry":{"x":173049.45999999996,"y":2538711.7699999996}},{"attributes":{"ID":117095,"DIS_CODE":0,"TOWNNAME":"中西區","LI":"水仙里","LIN":"1鄰","STREET":"民生路","SECT":"二段","MAREA":" ","LANE":" ","ALLEY":" ","HOUSE_NO":"１０號","E_COORD97":167869.48999999999,"N_COORD97":2543927.0299999998,"ADDRESS":"民生路二段１０號","OBJECTID":117095},"geometry":{"x":167869.49000000209,"y":2543927.0299999993}},{"attributes":{"ID":117096,"DIS_CODE":0,"TOWNNAME":"永康區","LI":"網寮里","LIN":"1鄰","STREET":"永二街","SECT":" ","MAREA":" ","LANE":" ","ALLEY":" ","HOUSE_NO":"５５號","E_COORD97":173627.5,"N_COORD97":2546672.1099999999,"ADDRESS":"永二街５５號","OBJECTID":117096},"geometry":{"x":173627.5,"y":2546672.1100000013}},{"attributes":{"ID":117097,"DIS_CODE":0,"TOWNNAME":"永康區","LI":"六合里","LIN":"1鄰","STREET":"新興街","SECT":" ","MAREA":" ","LANE":" ","ALLEY":" ","HOUSE_NO":"８之２號地下一層之１","E_COORD97":170941.26999999999,"N_COORD97":2545746.29,"ADDRESS":"新興街８之２號地下一層之１","OBJECTID":117097},"geometry":{"x":170941.26999999955,"y":2545746.2899999991}},{"attributes":{"ID":117098,"DIS_CODE":0,"TOWNNAME":"永康區","LI":"新樹里","LIN":"1鄰","STREET":"富強路","SECT":"二段","MAREA":" ","LANE":" ","ALLEY":" ","HOUSE_NO":"１９８號","E_COORD97":175650.64999999999,"N_COORD97":2547258.6899999999,"ADDRESS":"富強路二段１９８號","OBJECTID":117098},"geometry":{"x":175650.65000000037,"y":2547258.6899999995}},{"attributes":{"ID":117099,"DIS_CODE":0,"TOWNNAME":"白河區","LI":"大竹里","LIN":"1鄰","STREET":" ","SECT":" ","MAREA":"大排竹","LANE":" ","ALLEY":" ","HOUSE_NO":"２之９號","E_COORD97":191093.524496,"N_COORD97":2585164.6620499999,"ADDRESS":"大排竹２之９號","OBJECTID":117099},"geometry":{"x":191093.52449600026,"y":2585164.6620510034}},{"attributes":{"ID":117100,"DIS_CODE":0,"TOWNNAME":"仁德區","LI":"後壁里","LIN":"23鄰","STREET":"中正路","SECT":"二段","MAREA":" ","LANE":"１８７巷","ALLEY":"６弄","HOUSE_NO":"１４號","E_COORD97":173091.98999999999,"N_COORD97":2538711.77,"ADDRESS":"中正路二段１８７巷６弄１４號","OBJECTID":117100},"geometry":{"x":173091.99000000022,"y":2538711.7699999996}},{"attributes":{"ID":117101,"DIS_CODE":0,"TOWNNAME":"仁德區","LI":"後壁里","LIN":"23鄰","STREET":"中正路","SECT":"二段","MAREA":" ","LANE":"１８７巷","ALLEY":"６弄","HOUSE_NO":"２３號","E_COORD97":173084.004747,"N_COORD97":2538652.9361899998,"ADDRESS":"中正路二段１８７巷６弄２３號","OBJECTID":117101},"geometry":{"x":173084.00474699959,"y":2538652.9361930024}},{"attributes":{"ID":117102,"DIS_CODE":0,"TOWNNAME":"仁德區","LI":"後壁里","LIN":"23鄰","STREET":"中正路","SECT":"二段","MAREA":" ","LANE":"１８７巷","ALLEY":"６弄","HOUSE_NO":"２２之１號","E_COORD97":173056.64999999999,"N_COORD97":2538686.5499999998,"ADDRESS":"中正路二段１８７巷６弄２２之１號","OBJECTID":117102},"geometry":{"x":173056.6500000013,"y":2538686.5500000007}},{"attributes":{"ID":117103,"DIS_CODE":0,"TOWNNAME":"永康區","LI":"三合里","LIN":"11鄰","STREET":"南工街","SECT":" ","MAREA":" ","LANE":"２４７巷","ALLEY":"６４弄","HOUSE_NO":"２號","E_COORD97":171943.20999999999,"N_COORD97":2545777.9900000002,"ADDRESS":"南工街２４７巷６４弄２號","OBJECTID":117103},"geometry":{"x":171943.21000000089,"y":2545777.9900000021}},{"attributes":{"ID":117104,"DIS_CODE":0,"TOWNNAME":"永康區","LI":"二王里","LIN":"27鄰","STREET":"中山南路","SECT":" ","MAREA":" ","LANE":"５４４巷","ALLEY":"９２弄","HOUSE_NO":"１０號","E_COORD97":172287.01999999999,"N_COORD97":2546243.6299999999,"ADDRESS":"中山南路５４４巷９２弄１０號","OBJECTID":117104},"geometry":{"x":172287.02000000048,"y":2546243.6300000008}},{"attributes":{"ID":117105,"DIS_CODE":0,"TOWNNAME":"永康區","LI":"二王里","LIN":"47鄰","STREET":"南工街","SECT":" ","MAREA":" ","LANE":"２２６巷","ALLEY":"６弄","HOUSE_NO":"１２號","E_COORD97":172024.17999999999,"N_COORD97":2546021.5,"ADDRESS":"南工街２２６巷６弄１２號","OBJECTID":117105},"geometry":{"x":172024.18000000156,"y":2546021.5000000019}},{"attributes":{"ID":117106,"DIS_CODE":0,"TOWNNAME":"中西區","LI":"保安里","LIN":"1鄰","STREET":"西門路","SECT":"二段","MAREA":" ","LANE":"５９巷","ALLEY":" ","HOUSE_NO":"１２號","E_COORD97":167734.35000000001,"N_COORD97":2543566.5,"ADDRESS":"西門路二段５９巷１２號","OBJECTID":117106},"geometry":{"x":167734.35000000056,"y":2543566.5000000037}},{"attributes":{"ID":117107,"DIS_CODE":0,"TOWNNAME":"白河區","LI":"秀祐里","LIN":"1鄰","STREET":" ","SECT":" ","MAREA":"頂秀祐","LANE":" ","ALLEY":" ","HOUSE_NO":"１之３６號","E_COORD97":189549.010026,"N_COORD97":2583724.8648899999,"ADDRESS":"頂秀祐１之３６號","OBJECTID":117107},"geometry":{"x":189549.01002600044,"y":2583724.8648920022}},{"attributes":{"ID":117108,"DIS_CODE":0,"TOWNNAME":"將軍區","LI":"平沙里","LIN":"11鄰","STREET":" ","SECT":" ","MAREA":"平沙","LANE":" ","ALLEY":" ","HOUSE_NO":"９３之１號","E_COORD97":157278.280279,"N_COORD97":2568472.0363699999,"ADDRESS":"平沙９３之１號","OBJECTID":117108},"geometry":{"x":157278.28027899936,"y":2568472.0363679994}},{"attributes":{"ID":117109,"DIS_CODE":0,"TOWNNAME":"新化區","LI":"知義里","LIN":" ","STREET":" ","SECT":" ","MAREA":"新和庄","LANE":" ","ALLEY":" ","HOUSE_NO":"１４５號之８","E_COORD97":181986.34,"N_COORD97":2546557.2599999998,"ADDRESS":"新和庄１４５號之８","OBJECTID":117109},"geometry":{"x":181986.34000000078,"y":2546557.2599999998}},{"attributes":{"ID":117110,"DIS_CODE":0,"TOWNNAME":"將軍區","LI":"北埔里","LIN":"1鄰","STREET":" ","SECT":" ","MAREA":"北埔","LANE":" ","ALLEY":" ","HOUSE_NO":"２號","E_COORD97":163084.54999999999,"N_COORD97":2569079.1699999999,"ADDRESS":"北埔２號","OBJECTID":117110},"geometry":{"x":163084.54999999981,"y":2569079.1700000018}},{"attributes":{"ID":117111,"DIS_CODE":0,"TOWNNAME":"將軍區","LI":"西和里","LIN":"1鄰","STREET":" ","SECT":" ","MAREA":"西和","LANE":" ","ALLEY":" ","HOUSE_NO":"１１號","E_COORD97":163237.84,"N_COORD97":2566479.2000000002,"ADDRESS":"西和１１號","OBJECTID":117111},"geometry":{"x":163237.84000000078,"y":2566479.1999999993}},{"attributes":{"ID":117112,"DIS_CODE":0,"TOWNNAME":"下營區","LI":"甲中里","LIN":"4鄰","STREET":" ","SECT":" ","MAREA":"中庄子","LANE":" ","ALLEY":" ","HOUSE_NO":"３０號之２","E_COORD97":175417.59,"N_COORD97":2572323.02,"ADDRESS":"中庄子３０號之２","OBJECTID":117112},"geometry":{"x":175417.59000000078,"y":2572323.0200000033}},{"attributes":{"ID":117113,"DIS_CODE":0,"TOWNNAME":"下營區","LI":"甲中里","LIN":"4鄰","STREET":" ","SECT":" ","MAREA":"中庄子","LANE":" ","ALLEY":" ","HOUSE_NO":"３０號","E_COORD97":175414.57000000001,"N_COORD97":2572312.2999999998,"ADDRESS":"中庄子３０號","OBJECTID":117113},"geometry":{"x":175414.57000000123,"y":2572312.3000000045}},{"attributes":{"ID":117114,"DIS_CODE":0,"TOWNNAME":"將軍區","LI":"仁和里","LIN":"1鄰","STREET":" ","SECT":" ","MAREA":"仁巷","LANE":" ","ALLEY":" ","HOUSE_NO":"１之３號","E_COORD97":164040.14999999999,"N_COORD97":2569497.23,"ADDRESS":"仁巷１之３號","OBJECTID":117114},"geometry":{"x":164040.15000000037,"y":2569497.2300000004}},{"attributes":{"ID":117115,"DIS_CODE":0,"TOWNNAME":"將軍區","LI":"仁和里","LIN":"1鄰","STREET":" ","SECT":" ","MAREA":"仁巷","LANE":" ","ALLEY":" ","HOUSE_NO":"１之６號","E_COORD97":164068.26000000001,"N_COORD97":2569507.9700000002,"ADDRESS":"仁巷１之６號","OBJECTID":117115},"geometry":{"x":164068.26000000164,"y":2569507.9700000025}},{"attributes":{"ID":117116,"DIS_CODE":0,"TOWNNAME":"將軍區","LI":"仁和里","LIN":"1鄰","STREET":" ","SECT":" ","MAREA":"仁巷","LANE":" ","ALLEY":" ","HOUSE_NO":"１之８號","E_COORD97":164107.34,"N_COORD97":2569971.2999999998,"ADDRESS":"仁巷１之８號","OBJECTID":117116},"geometry":{"x":164107.34000000078,"y":2569971.3000000007}},{"attributes":{"ID":117117,"DIS_CODE":0,"TOWNNAME":"將軍區","LI":"仁和里","LIN":"1鄰","STREET":" ","SECT":" ","MAREA":"仁巷","LANE":" ","ALLEY":" ","HOUSE_NO":"１號","E_COORD97":164036.98999999999,"N_COORD97":2569455.4900000002,"ADDRESS":"仁巷１號","OBJECTID":117117},"geometry":{"x":164036.99000000115,"y":2569455.4900000002}},{"attributes":{"ID":117118,"DIS_CODE":0,"TOWNNAME":"永康區","LI":"三合里","LIN":"12鄰","STREET":"南工街","SECT":" ","MAREA":" ","LANE":"２４７巷","ALLEY":"３３弄","HOUSE_NO":"２號","E_COORD97":171968.12,"N_COORD97":2545805.8399999999,"ADDRESS":"南工街２４７巷３３弄２號","OBJECTID":117118},"geometry":{"x":171968.12000000104,"y":2545805.8400000017}},{"attributes":{"ID":117119,"DIS_CODE":0,"TOWNNAME":"新化區","LI":"崙頂里","LIN":"5鄰","STREET":" ","SECT":" ","MAREA":"崙子頂","LANE":" ","ALLEY":" ","HOUSE_NO":"２１９號","E_COORD97":176629.03,"N_COORD97":2546898.25,"ADDRESS":"崙子頂２１９號","OBJECTID":117119},"geometry":{"x":176629.03000000119,"y":2546898.2500000019}},{"attributes":{"ID":117120,"DIS_CODE":0,"TOWNNAME":"永康區","LI":"三合里","LIN":"10鄰","STREET":"南工街","SECT":" ","MAREA":" ","LANE":"２４７巷","ALLEY":"３５弄","HOUSE_NO":"９號","E_COORD97":171983.35999999999,"N_COORD97":2545738.4300000002,"ADDRESS":"南工街２４７巷３５弄９號","OBJECTID":117120},"geometry":{"x":171983.36000000127,"y":2545738.4299999997}},{"attributes":{"ID":117121,"DIS_CODE":0,"TOWNNAME":"新化區","LI":"礁坑里","LIN":"13鄰","STREET":" ","SECT":" ","MAREA":"礁坑子","LANE":" ","ALLEY":" ","HOUSE_NO":"２３號","E_COORD97":184329.98000000001,"N_COORD97":2547791.25,"ADDRESS":"礁坑子２３號","OBJECTID":117121},"geometry":{"x":184329.97999999952,"y":2547791.25}},{"attributes":{"ID":117122,"DIS_CODE":0,"TOWNNAME":"新化區","LI":"知義里","LIN":"1鄰","STREET":" ","SECT":" ","MAREA":"知母義","LANE":" ","ALLEY":" ","HOUSE_NO":"１８７號之１","E_COORD97":179736.64999999999,"N_COORD97":2547200.2599999998,"ADDRESS":"知母義１８７號之１","OBJECTID":117122},"geometry":{"x":179736.65000000224,"y":2547200.2600000016}},{"attributes":{"ID":117123,"DIS_CODE":0,"TOWNNAME":"永康區","LI":"三合里","LIN":"23鄰","STREET":"南工街","SECT":" ","MAREA":" ","LANE":"３２３巷","ALLEY":"１４弄","HOUSE_NO":"３號","E_COORD97":171760.29000000001,"N_COORD97":2545992,"ADDRESS":"南工街３２３巷１４弄３號","OBJECTID":117123},"geometry":{"x":171760.29000000004,"y":2545992.0000000019}},{"attributes":{"ID":117124,"DIS_CODE":0,"TOWNNAME":"永康區","LI":"大橋里","LIN":"23鄰","STREET":"大橋一街","SECT":" ","MAREA":" ","LANE":"２２３巷","ALLEY":"３弄","HOUSE_NO":"３號","E_COORD97":171200.82000000001,"N_COORD97":2546667.9900000002,"ADDRESS":"大橋一街２２３巷３弄３號","OBJECTID":117124},"geometry":{"x":171200.82000000123,"y":2546667.9900000002}},{"attributes":{"ID":117125,"DIS_CODE":0,"TOWNNAME":"新化區","LI":"山\u25A0里","LIN":"4鄰","STREET":" ","SECT":" ","MAREA":"頂山\u25A0","LANE":" ","ALLEY":" ","HOUSE_NO":"１０９號之３","E_COORD97":179606.98000000001,"N_COORD97":2546713.2599999998,"ADDRESS":"頂山\u25A0１０９號之３","OBJECTID":117125},"geometry":{"x":179606.98000000045,"y":2546713.2599999998}},{"attributes":{"ID":117126,"DIS_CODE":0,"TOWNNAME":"新化區","LI":"崙頂里","LIN":"4鄰","STREET":" ","SECT":" ","MAREA":"崙子頂","LANE":" ","ALLEY":" ","HOUSE_NO":"１９８號之１","E_COORD97":176675.35999999999,"N_COORD97":2546818.2599999998,"ADDRESS":"崙子頂１９８號之１","OBJECTID":117126},"geometry":{"x":176675.3600000022,"y":2546818.2599999998}},{"attributes":{"ID":117127,"DIS_CODE":0,"TOWNNAME":"永康區","LI":"二王里","LIN":"23鄰","STREET":"中山南路","SECT":" ","MAREA":" ","LANE":"５４４巷","ALLEY":"５９弄","HOUSE_NO":"６號","E_COORD97":172350.84,"N_COORD97":2546434.3300000001,"ADDRESS":"中山南路５４４巷５９弄６號","OBJECTID":117127},"geometry":{"x":172350.84000000078,"y":2546434.3300000019}},{"attributes":{"ID":117128,"DIS_CODE":0,"TOWNNAME":"永康區","LI":"中興里","LIN":"3鄰","STREET":"中山東路","SECT":" ","MAREA":" ","LANE":"４７２巷","ALLEY":"１弄","HOUSE_NO":"５號","E_COORD97":171945.38,"N_COORD97":2544995.75,"ADDRESS":"中山東路４７２巷１弄５號","OBJECTID":117128},"geometry":{"x":171945.38000000082,"y":2544995.7500000037}},{"attributes":{"ID":117129,"DIS_CODE":0,"TOWNNAME":"永康區","LI":"二王里","LIN":"35鄰","STREET":"中山南路","SECT":" ","MAREA":" ","LANE":"４９０巷","ALLEY":"２弄","HOUSE_NO":"２５號","E_COORD97":172083.34,"N_COORD97":2546353.4700000002,"ADDRESS":"中山南路４９０巷２弄２５號","OBJECTID":117129},"geometry":{"x":172083.34000000078,"y":2546353.4700000007}},{"attributes":{"ID":117130,"DIS_CODE":0,"TOWNNAME":"永康區","LI":"三民里","LIN":"6鄰","STREET":"三民街","SECT":" ","MAREA":" ","LANE":"１８巷","ALLEY":"１弄","HOUSE_NO":"３２號","E_COORD97":173389.59,"N_COORD97":2550219.5299999998,"ADDRESS":"三民街１８巷１弄３２號","OBJECTID":117130},"geometry":{"x":173389.59000000171,"y":2550219.5299999993}},{"attributes":{"ID":117131,"DIS_CODE":0,"TOWNNAME":"永康區","LI":"二王里","LIN":"23鄰","STREET":"中山南路","SECT":" ","MAREA":" ","LANE":"５４４巷","ALLEY":"５９弄","HOUSE_NO":"２４號","E_COORD97":172405.09,"N_COORD97":2546433.5800000001,"ADDRESS":"中山南路５４４巷５９弄２４號","OBJECTID":117131},"geometry":{"x":172405.09000000078,"y":2546433.5800000001}},{"attributes":{"ID":117132,"DIS_CODE":0,"TOWNNAME":"下營區","LI":"甲中里","LIN":"1鄰","STREET":" ","SECT":" ","MAREA":"中庄子","LANE":" ","ALLEY":" ","HOUSE_NO":"１號之１０","E_COORD97":175284.63,"N_COORD97":2571890.8700000001,"ADDRESS":"中庄子１號之１０","OBJECTID":117132},"geometry":{"x":175284.63000000175,"y":2571890.870000001}},{"attributes":{"ID":117133,"DIS_CODE":0,"TOWNNAME":"下營區","LI":"甲中里","LIN":"1鄰","STREET":" ","SECT":" ","MAREA":"中庄子","LANE":" ","ALLEY":" ","HOUSE_NO":"１號之１１","E_COORD97":175316.14999999999,"N_COORD97":2572103.1600000001,"ADDRESS":"中庄子１號之１１","OBJECTID":117133},"geometry":{"x":175316.1500000013,"y":2572103.160000002}},{"attributes":{"ID":117134,"DIS_CODE":0,"TOWNNAME":"下營區","LI":"甲中里","LIN":"1鄰","STREET":" ","SECT":" ","MAREA":"中庄子","LANE":" ","ALLEY":" ","HOUSE_NO":"１號之１２","E_COORD97":175320.09,"N_COORD97":2572103.6600000001,"ADDRESS":"中庄子１號之１２","OBJECTID":117134},"geometry":{"x":175320.08999999985,"y":2572103.660000002}},{"attributes":{"ID":117135,"DIS_CODE":0,"TOWNNAME":"下營區","LI":"甲中里","LIN":"7鄰","STREET":" ","SECT":" ","MAREA":"中庄子","LANE":" ","ALLEY":" ","HOUSE_NO":"４６號之１０","E_COORD97":175458.53,"N_COORD97":2572595.9300000002,"ADDRESS":"中庄子４６號之１０","OBJECTID":117135},"geometry":{"x":175458.52999999933,"y":2572595.9300000016}},{"attributes":{"ID":117136,"DIS_CODE":0,"TOWNNAME":"下營區","LI":"甲中里","LIN":"7鄰","STREET":" ","SECT":" ","MAREA":"中庄子","LANE":" ","ALLEY":" ","HOUSE_NO":"４６號之１１","E_COORD97":175391.5,"N_COORD97":2572588.1499999999,"ADDRESS":"中庄子４６號之１１","OBJECTID":117136},"geometry":{"x":175391.50000000093,"y":2572588.1500000022}},{"attributes":{"ID":117137,"DIS_CODE":0,"TOWNNAME":"下營區","LI":"甲中里","LIN":"7鄰","STREET":" ","SECT":" ","MAREA":"中庄子","LANE":" ","ALLEY":" ","HOUSE_NO":"４６號之１２","E_COORD97":175326.60000000001,"N_COORD97":2572589.21,"ADDRESS":"中庄子４６號之１２","OBJECTID":117137},"geometry":{"x":175326.59999999963,"y":2572589.2100000028}},{"attributes":{"ID":117138,"DIS_CODE":0,"TOWNNAME":"下營區","LI":"甲中里","LIN":"7鄰","STREET":" ","SECT":" ","MAREA":"中庄子","LANE":" ","ALLEY":" ","HOUSE_NO":"４６號之１３","E_COORD97":175514.32999999999,"N_COORD97":2572690.6200000001,"ADDRESS":"中庄子４６號之１３","OBJECTID":117138},"geometry":{"x":175514.33000000101,"y":2572690.6200000029}},{"attributes":{"ID":117139,"DIS_CODE":0,"TOWNNAME":"下營區","LI":"甲中里","LIN":"7鄰","STREET":" ","SECT":" ","MAREA":"中庄子","LANE":" ","ALLEY":" ","HOUSE_NO":"４６號之１５","E_COORD97":175295.81,"N_COORD97":2572581.7400000002,"ADDRESS":"中庄子４６號之１５","OBJECTID":117139},"geometry":{"x":175295.81000000052,"y":2572581.7400000002}},{"attributes":{"ID":117140,"DIS_CODE":0,"TOWNNAME":"下營區","LI":"甲中里","LIN":"7鄰","STREET":" ","SECT":" ","MAREA":"中庄子","LANE":" ","ALLEY":" ","HOUSE_NO":"４６號之１６","E_COORD97":175299.13,"N_COORD97":2572624.6600000001,"ADDRESS":"中庄子４６號之１６","OBJECTID":117140},"geometry":{"x":175299.12999999989,"y":2572624.6600000039}},{"attributes":{"ID":117141,"DIS_CODE":0,"TOWNNAME":"下營區","LI":"甲中里","LIN":"7鄰","STREET":" ","SECT":" ","MAREA":"中庄子","LANE":" ","ALLEY":" ","HOUSE_NO":"４６號之１","E_COORD97":175518.37,"N_COORD97":2572353.0099999998,"ADDRESS":"中庄子４６號之１","OBJECTID":117141},"geometry":{"x":175518.37000000011,"y":2572353.0099999998}},{"attributes":{"ID":117142,"DIS_CODE":0,"TOWNNAME":"下營區","LI":"甲中里","LIN":"19鄰","STREET":" ","SECT":" ","MAREA":"中庄子","LANE":" ","ALLEY":" ","HOUSE_NO":"６９號之１２","E_COORD97":175443.04999999999,"N_COORD97":2572102.6000000001,"ADDRESS":"中庄子６９號之１２","OBJECTID":117142},"geometry":{"x":175443.05000000075,"y":2572102.6000000015}},{"attributes":{"ID":117143,"DIS_CODE":0,"TOWNNAME":"下營區","LI":"甲中里","LIN":"19鄰","STREET":" ","SECT":" ","MAREA":"中庄子","LANE":" ","ALLEY":" ","HOUSE_NO":"６９號之１３","E_COORD97":175441.41,"N_COORD97":2572099.1499999999,"ADDRESS":"中庄子６９號之１３","OBJECTID":117143},"geometry":{"x":175441.41000000108,"y":2572099.1499999985}},{"attributes":{"ID":117144,"DIS_CODE":0,"TOWNNAME":"下營區","LI":"甲中里","LIN":"19鄰","STREET":" ","SECT":" ","MAREA":"中庄子","LANE":" ","ALLEY":" ","HOUSE_NO":"６９號之１４","E_COORD97":175420.10999999999,"N_COORD97":2572104.3399999999,"ADDRESS":"中庄子６９號之１４","OBJECTID":117144},"geometry":{"x":175420.11000000034,"y":2572104.3400000036}},{"attributes":{"ID":117145,"DIS_CODE":0,"TOWNNAME":"下營區","LI":"甲中里","LIN":"18鄰","STREET":" ","SECT":" ","MAREA":"中庄子","LANE":" ","ALLEY":" ","HOUSE_NO":"７號","E_COORD97":175348.54000000001,"N_COORD97":2572209.7200000002,"ADDRESS":"中庄子７號","OBJECTID":117145},"geometry":{"x":175348.54000000097,"y":2572209.7200000007}},{"attributes":{"ID":117146,"DIS_CODE":0,"TOWNNAME":"永康區","LI":"二王里","LIN":"23鄰","STREET":"忠孝路","SECT":" ","MAREA":" ","LANE":"４２９巷","ALLEY":"１５弄","HOUSE_NO":"４號","E_COORD97":172428.29999999999,"N_COORD97":2546504.3599999999,"ADDRESS":"忠孝路４２９巷１５弄４號","OBJECTID":117146},"geometry":{"x":172428.29999999981,"y":2546504.3600000013}},{"attributes":{"ID":117147,"DIS_CODE":0,"TOWNNAME":"麻豆區","LI":"穀興里","LIN":"1鄰","STREET":"興華街","SECT":" ","MAREA":" ","LANE":" ","ALLEY":" ","HOUSE_NO":"１８號","E_COORD97":173030.29000000001,"N_COORD97":2564865.77,"ADDRESS":"興華街１８號","OBJECTID":117147},"geometry":{"x":173030.29000000004,"y":2564865.7699999977}},{"attributes":{"ID":117148,"DIS_CODE":0,"TOWNNAME":"永康區","LI":"二王里","LIN":"23鄰","STREET":"中山南路","SECT":" ","MAREA":" ","LANE":"５４４巷","ALLEY":"５９弄","HOUSE_NO":"１３號","E_COORD97":172416.26999999999,"N_COORD97":2546453.3799999999,"ADDRESS":"中山南路５４４巷５９弄１３號","OBJECTID":117148},"geometry":{"x":172416.26999999955,"y":2546453.379999999}},{"attributes":{"ID":117149,"DIS_CODE":0,"TOWNNAME":"永康區","LI":"埔園里","LIN":"23鄰","STREET":"四維街","SECT":" ","MAREA":" ","LANE":"５８巷","ALLEY":"６弄","HOUSE_NO":"２８號","E_COORD97":173470.63,"N_COORD97":2547998.5,"ADDRESS":"四維街５８巷６弄２８號","OBJECTID":117149},"geometry":{"x":173470.62999999989,"y":2547998.5000000019}},{"attributes":{"ID":117150,"DIS_CODE":0,"TOWNNAME":"永康區","LI":"埔園里","LIN":"23鄰","STREET":"四維街","SECT":" ","MAREA":" ","LANE":"５８巷","ALLEY":"６弄","HOUSE_NO":"２０號","E_COORD97":173464.98999999999,"N_COORD97":2548015.7400000002,"ADDRESS":"四維街５８巷６弄２０號","OBJECTID":117150},"geometry":{"x":173464.99000000022,"y":2548015.7400000002}},{"attributes":{"ID":117151,"DIS_CODE":0,"TOWNNAME":"永康區","LI":"埔園里","LIN":"23鄰","STREET":"四維街","SECT":" ","MAREA":" ","LANE":"５８巷","ALLEY":"６弄","HOUSE_NO":"２４號","E_COORD97":173467.64999999999,"N_COORD97":2548007.5,"ADDRESS":"四維街５８巷６弄２４號","OBJECTID":117151},"geometry":{"x":173467.64999999944,"y":2548007.5}},{"attributes":{"ID":117152,"DIS_CODE":0,"TOWNNAME":"白河區","LI":"崁頭里","LIN":"1鄰","STREET":" ","SECT":" ","MAREA":"崁子頭","LANE":" ","ALLEY":" ","HOUSE_NO":"６號","E_COORD97":190405.59,"N_COORD97":2580776.2000000002,"ADDRESS":"崁子頭６號","OBJECTID":117152},"geometry":{"x":190405.58999999985,"y":2580776.1999999993}},{"attributes":{"ID":117153,"DIS_CODE":0,"TOWNNAME":"新化區","LI":"武安里","LIN":"13鄰","STREET":"健康路","SECT":" ","MAREA":" ","LANE":" ","ALLEY":" ","HOUSE_NO":"９號","E_COORD97":178913.92999999999,"N_COORD97":2548018.2599999998,"ADDRESS":"健康路９號","OBJECTID":117153},"geometry":{"x":178913.93000000063,"y":2548018.2599999998}},{"attributes":{"ID":117154,"DIS_CODE":0,"TOWNNAME":"新化區","LI":"山\u25A0里","LIN":"4鄰","STREET":" ","SECT":" ","MAREA":"頂山\u25A0","LANE":" ","ALLEY":" ","HOUSE_NO":"１１０號之１","E_COORD97":179590.06,"N_COORD97":2546677.2599999998,"ADDRESS":"頂山\u25A0１１０號之１","OBJECTID":117154},"geometry":{"x":179590.05999999959,"y":2546677.2600000016}},{"attributes":{"ID":117155,"DIS_CODE":0,"TOWNNAME":"新化區","LI":"山\u25A0里","LIN":"4鄰","STREET":" ","SECT":" ","MAREA":"頂山\u25A0","LANE":" ","ALLEY":" ","HOUSE_NO":"１０６號之２","E_COORD97":179569.48000000001,"N_COORD97":2546671.2599999998,"ADDRESS":"頂山\u25A0１０６號之２","OBJECTID":117155},"geometry":{"x":179569.48000000045,"y":2546671.2600000016}},{"attributes":{"ID":117156,"DIS_CODE":0,"TOWNNAME":"新化區","LI":"知義里","LIN":" ","STREET":" ","SECT":" ","MAREA":"新和庄","LANE":" ","ALLEY":" ","HOUSE_NO":"４８號","E_COORD97":181377.84,"N_COORD97":2546489.25,"ADDRESS":"新和庄４８號","OBJECTID":117156},"geometry":{"x":181377.84000000078,"y":2546489.25}},{"attributes":{"ID":117157,"DIS_CODE":0,"TOWNNAME":"永康區","LI":"埔園里","LIN":"23鄰","STREET":"四維街","SECT":" ","MAREA":" ","LANE":"５８巷","ALLEY":"６弄","HOUSE_NO":"１７號","E_COORD97":173475.84,"N_COORD97":2548018.4900000002,"ADDRESS":"四維街５８巷６弄１７號","OBJECTID":117157},"geometry":{"x":173475.83999999985,"y":2548018.4900000039}},{"attributes":{"ID":117158,"DIS_CODE":0,"TOWNNAME":"安南區","LI":"安富里","LIN":"23鄰","STREET":"郡安路","SECT":"五段","MAREA":" ","LANE":"１６４巷","ALLEY":"７弄","HOUSE_NO":"１１號","E_COORD97":167702.10000000001,"N_COORD97":2547637.79,"ADDRESS":"郡安路五段１６４巷７弄１１號","OBJECTID":117158},"geometry":{"x":167702.10000000149,"y":2547637.7899999991}},{"attributes":{"ID":117159,"DIS_CODE":0,"TOWNNAME":"麻豆區","LI":"謝安里","LIN":"1鄰","STREET":" ","SECT":" ","MAREA":"謝厝寮","LANE":" ","ALLEY":" ","HOUSE_NO":"７號","E_COORD97":172155.26999999999,"N_COORD97":2561321.6600000001,"ADDRESS":"謝厝寮７號","OBJECTID":117159},"geometry":{"x":172155.26999999955,"y":2561321.660000002}},{"attributes":{"ID":117160,"DIS_CODE":0,"TOWNNAME":"安定區","LI":"管寮里","LIN":"1鄰","STREET":" ","SECT":" ","MAREA":"管寮","LANE":" ","ALLEY":" ","HOUSE_NO":"２號","E_COORD97":169852.98999999999,"N_COORD97":2556068.25,"ADDRESS":"管寮２號","OBJECTID":117160},"geometry":{"x":169852.99000000209,"y":2556068.25}},{"attributes":{"ID":117161,"DIS_CODE":0,"TOWNNAME":"安定區","LI":"新吉里","LIN":"1鄰","STREET":" ","SECT":" ","MAREA":"新吉","LANE":" ","ALLEY":" ","HOUSE_NO":"１號之６","E_COORD97":169115.56,"N_COORD97":2554128.2999999998,"ADDRESS":"新吉１號之６","OBJECTID":117161},"geometry":{"x":169115.55999999959,"y":2554128.3000000007}},{"attributes":{"ID":117162,"DIS_CODE":0,"TOWNNAME":"安南區","LI":"安富里","LIN":"23鄰","STREET":"郡安路","SECT":"五段","MAREA":" ","LANE":"１６４巷","ALLEY":"７弄","HOUSE_NO":"１２號","E_COORD97":167706.94,"N_COORD97":2547617.1099999999,"ADDRESS":"郡安路五段１６４巷７弄１２號","OBJECTID":117162},"geometry":{"x":167706.94000000041,"y":2547617.1100000013}},{"attributes":{"ID":117163,"DIS_CODE":0,"TOWNNAME":"安定區","LI":"安定里","LIN":"1鄰","STREET":" ","SECT":" ","MAREA":"領寄","LANE":" ","ALLEY":" ","HOUSE_NO":"３號","E_COORD97":173556.44,"N_COORD97":2557057.25,"ADDRESS":"領寄３號","OBJECTID":117163},"geometry":{"x":173556.44000000134,"y":2557057.25}},{"attributes":{"ID":117164,"DIS_CODE":0,"TOWNNAME":"安定區","LI":"新吉里","LIN":"1鄰","STREET":" ","SECT":" ","MAREA":"新吉","LANE":" ","ALLEY":" ","HOUSE_NO":"２號","E_COORD97":169189.92000000001,"N_COORD97":2554129.25,"ADDRESS":"新吉２號","OBJECTID":117164},"geometry":{"x":169189.91999999993,"y":2554129.2500000037}},{"attributes":{"ID":117165,"DIS_CODE":0,"TOWNNAME":"安南區","LI":"安富里","LIN":"23鄰","STREET":"郡安路","SECT":"五段","MAREA":" ","LANE":"１６４巷","ALLEY":"７弄","HOUSE_NO":"１３號","E_COORD97":167712.42000000001,"N_COORD97":2547640.3100000001,"ADDRESS":"郡安路五段１６４巷７弄１３號","OBJECTID":117165},"geometry":{"x":167712.42000000086,"y":2547640.3100000042}},{"attributes":{"ID":117166,"DIS_CODE":0,"TOWNNAME":"安定區","LI":"新吉里","LIN":"1鄰","STREET":" ","SECT":" ","MAREA":"新吉","LANE":" ","ALLEY":" ","HOUSE_NO":"４號","E_COORD97":169247.72,"N_COORD97":2554130.25,"ADDRESS":"新吉４號","OBJECTID":117166},"geometry":{"x":169247.72000000067,"y":2554130.2500000019}},{"attributes":{"ID":117167,"DIS_CODE":0,"TOWNNAME":"安南區","LI":"安富里","LIN":"23鄰","STREET":"郡安路","SECT":"五段","MAREA":" ","LANE":"１６４巷","ALLEY":"７弄","HOUSE_NO":"１５號","E_COORD97":167718.62,"N_COORD97":2547640.3100000001,"ADDRESS":"郡安路五段１６４巷７弄１５號","OBJECTID":117167},"geometry":{"x":167718.62000000011,"y":2547640.3100000042}},{"attributes":{"ID":117168,"DIS_CODE":0,"TOWNNAME":"安南區","LI":"安富里","LIN":"23鄰","STREET":"郡安路","SECT":"五段","MAREA":" ","LANE":"１６４巷","ALLEY":"７弄","HOUSE_NO":"１６號","E_COORD97":167722.54000000001,"N_COORD97":2547619.3999999999,"ADDRESS":"郡安路五段１６４巷７弄１６號","OBJECTID":117168},"geometry":{"x":167722.54000000004,"y":2547619.4000000022}},{"attributes":{"ID":117169,"DIS_CODE":0,"TOWNNAME":"下營區","LI":"西連里","LIN":"1鄰","STREET":" ","SECT":" ","MAREA":"連表","LANE":" ","ALLEY":" ","HOUSE_NO":"１０號","E_COORD97":174979.01999999999,"N_COORD97":2567749.3999999999,"ADDRESS":"連表１０號","OBJECTID":117169},"geometry":{"x":174979.02000000048,"y":2567749.4000000022}},{"attributes":{"ID":117170,"DIS_CODE":0,"TOWNNAME":"下營區","LI":"甲中里","LIN":"18鄰","STREET":" ","SECT":" ","MAREA":"中庄子","LANE":" ","ALLEY":" ","HOUSE_NO":"８號之１","E_COORD97":175314.60000000001,"N_COORD97":2572198.3199999998,"ADDRESS":"中庄子８號之１","OBJECTID":117170},"geometry":{"x":175314.59999999963,"y":2572198.3200000003}},{"attributes":{"ID":117171,"DIS_CODE":0,"TOWNNAME":"下營區","LI":"甲中里","LIN":"18鄰","STREET":" ","SECT":" ","MAREA":"中庄子","LANE":" ","ALLEY":" ","HOUSE_NO":"８號之２","E_COORD97":175320.25,"N_COORD97":2572209.6400000001,"ADDRESS":"中庄子８號之２","OBJECTID":117171},"geometry":{"x":175320.25000000093,"y":2572209.6400000025}},{"attributes":{"ID":117172,"DIS_CODE":0,"TOWNNAME":"下營區","LI":"甲中里","LIN":"18鄰","STREET":" ","SECT":" ","MAREA":"中庄子","LANE":" ","ALLEY":" ","HOUSE_NO":"８號","E_COORD97":175301.07999999999,"N_COORD97":2572203.96,"ADDRESS":"中庄子８號","OBJECTID":117172},"geometry":{"x":175301.08000000101,"y":2572203.9600000028}},{"attributes":{"ID":117173,"DIS_CODE":0,"TOWNNAME":"下營區","LI":"甲中里","LIN":"18鄰","STREET":" ","SECT":" ","MAREA":"中庄子","LANE":" ","ALLEY":" ","HOUSE_NO":"９號之１","E_COORD97":175293.54000000001,"N_COORD97":2572237.2599999998,"ADDRESS":"中庄子９號之１","OBJECTID":117173},"geometry":{"x":175293.54000000004,"y":2572237.2600000016}},{"attributes":{"ID":117174,"DIS_CODE":0,"TOWNNAME":"安南區","LI":"安富里","LIN":"23鄰","STREET":"郡安路","SECT":"五段","MAREA":" ","LANE":"１６４巷","ALLEY":"７弄","HOUSE_NO":"１７號","E_COORD97":167723.66,"N_COORD97":2547641.9100000001,"ADDRESS":"郡安路五段１６４巷７弄１７號","OBJECTID":117174},"geometry":{"x":167723.66000000015,"y":2547641.9100000001}},{"attributes":{"ID":117175,"DIS_CODE":0,"TOWNNAME":"新化區","LI":"知義里","LIN":" ","STREET":" ","SECT":" ","MAREA":"新和庄","LANE":" ","ALLEY":" ","HOUSE_NO":"５３號","E_COORD97":181830.44,"N_COORD97":2546534.25,"ADDRESS":"新和庄５３號","OBJECTID":117175},"geometry":{"x":181830.44000000134,"y":2546534.25}},{"attributes":{"ID":117176,"DIS_CODE":0,"TOWNNAME":"安南區","LI":"安富里","LIN":"23鄰","STREET":"郡安路","SECT":"五段","MAREA":" ","LANE":"１６４巷","ALLEY":"７弄","HOUSE_NO":"１８號","E_COORD97":167727.81,"N_COORD97":2547621.23,"ADDRESS":"郡安路五段１６４巷７弄１８號","OBJECTID":117176},"geometry":{"x":167727.81000000052,"y":2547621.2300000023}},{"attributes":{"ID":117177,"DIS_CODE":0,"TOWNNAME":"安南區","LI":"安富里","LIN":"23鄰","STREET":"郡安路","SECT":"五段","MAREA":" ","LANE":"１６４巷","ALLEY":"７弄","HOUSE_NO":"１９號","E_COORD97":167728.48000000001,"N_COORD97":2547644.2000000002,"ADDRESS":"郡安路五段１６４巷７弄１９號","OBJECTID":117177},"geometry":{"x":167728.48000000045,"y":2547644.2000000011}},{"attributes":{"ID":117178,"DIS_CODE":0,"TOWNNAME":"新化區","LI":"全興里","LIN":"4鄰","STREET":" ","SECT":" ","MAREA":"竹子\u25A0","LANE":" ","ALLEY":" ","HOUSE_NO":"４３號","E_COORD97":177644.48000000001,"N_COORD97":2547742.25,"ADDRESS":"竹子\u25A0４３號","OBJECTID":117178},"geometry":{"x":177644.48000000138,"y":2547742.2500000019}},{"attributes":{"ID":117179,"DIS_CODE":0,"TOWNNAME":"新化區","LI":"山\u25A0里","LIN":"5鄰","STREET":" ","SECT":" ","MAREA":"頂山\u25A0","LANE":" ","ALLEY":" ","HOUSE_NO":"２０號","E_COORD97":179571.88,"N_COORD97":2546806.25,"ADDRESS":"頂山\u25A0２０號","OBJECTID":117179},"geometry":{"x":179571.88000000175,"y":2546806.2500000037}},{"attributes":{"ID":117180,"DIS_CODE":0,"TOWNNAME":"新化區","LI":"礁坑里","LIN":"13鄰","STREET":" ","SECT":" ","MAREA":"礁坑子","LANE":" ","ALLEY":" ","HOUSE_NO":"２６號","E_COORD97":184433.971575,"N_COORD97":2547843.3908199999,"ADDRESS":"礁坑子２６號","OBJECTID":117180},"geometry":{"x":184433.97157500032,"y":2547843.390823001}},{"attributes":{"ID":117181,"DIS_CODE":0,"TOWNNAME":"新化區","LI":"山\u25A0里","LIN":" ","STREET":" ","SECT":" ","MAREA":"頂山\u25A0","LANE":" ","ALLEY":" ","HOUSE_NO":"１２１號之２","E_COORD97":179561.48000000001,"N_COORD97":2546731.2599999998,"ADDRESS":"頂山\u25A0１２１號之２","OBJECTID":117181},"geometry":{"x":179561.48000000231,"y":2546731.2600000035}},{"attributes":{"ID":117182,"DIS_CODE":0,"TOWNNAME":"下營區","LI":"甲中里","LIN":"18鄰","STREET":" ","SECT":" ","MAREA":"中庄子","LANE":" ","ALLEY":" ","HOUSE_NO":"９號之２","E_COORD97":175265.35999999999,"N_COORD97":2572218.6899999999,"ADDRESS":"中庄子９號之２","OBJECTID":117182},"geometry":{"x":175265.36000000127,"y":2572218.6899999995}},{"attributes":{"ID":117183,"DIS_CODE":0,"TOWNNAME":"官田區","LI":"南\u25A0里","LIN":"13鄰","STREET":" ","SECT":" ","MAREA":"三結義","LANE":" ","ALLEY":" ","HOUSE_NO":"４２號之６０","E_COORD97":179859.39999999999,"N_COORD97":2567248.27,"ADDRESS":"三結義４２號之６０","OBJECTID":117183},"geometry":{"x":179859.4000000013,"y":2567248.2699999996}},{"attributes":{"ID":117184,"DIS_CODE":0,"TOWNNAME":"官田區","LI":"南\u25A0里","LIN":"13鄰","STREET":" ","SECT":" ","MAREA":"三結義","LANE":" ","ALLEY":" ","HOUSE_NO":"４２號","E_COORD97":179906.92000000001,"N_COORD97":2567871.1499999999,"ADDRESS":"三結義４２號","OBJECTID":117184},"geometry":{"x":179906.91999999993,"y":2567871.1500000004}},{"attributes":{"ID":117185,"DIS_CODE":0,"TOWNNAME":"官田區","LI":"南\u25A0里","LIN":"13鄰","STREET":" ","SECT":" ","MAREA":"三結義","LANE":" ","ALLEY":" ","HOUSE_NO":"４６號","E_COORD97":180010.81,"N_COORD97":2567111.1899999999,"ADDRESS":"三結義４６號","OBJECTID":117185},"geometry":{"x":180010.80999999959,"y":2567111.1900000013}},{"attributes":{"ID":117186,"DIS_CODE":0,"TOWNNAME":"官田區","LI":"渡頭里","LIN":"26鄰","STREET":" ","SECT":" ","MAREA":"三塊厝","LANE":" ","ALLEY":" ","HOUSE_NO":"１號之１０","E_COORD97":181931.73999999999,"N_COORD97":2562914.6200000001,"ADDRESS":"三塊厝１號之１０","OBJECTID":117186},"geometry":{"x":181931.74000000115,"y":2562914.620000001}},{"attributes":{"ID":117187,"DIS_CODE":0,"TOWNNAME":"安南區","LI":"安富里","LIN":"23鄰","STREET":"郡安路","SECT":"五段","MAREA":" ","LANE":"１６４巷","ALLEY":"７弄","HOUSE_NO":"１號","E_COORD97":167667.69,"N_COORD97":2547631.3799999999,"ADDRESS":"郡安路五段１６４巷７弄１號","OBJECTID":117187},"geometry":{"x":167667.69000000041,"y":2547631.3800000027}},{"attributes":{"ID":117188,"DIS_CODE":0,"TOWNNAME":"安南區","LI":"安富里","LIN":"23鄰","STREET":"郡安路","SECT":"五段","MAREA":" ","LANE":"１６４巷","ALLEY":"７弄","HOUSE_NO":"２０號","E_COORD97":167732.63,"N_COORD97":2547622.8300000001,"ADDRESS":"郡安路五段１６４巷７弄２０號","OBJECTID":117188},"geometry":{"x":167732.63000000175,"y":2547622.8300000038}},{"attributes":{"ID":117189,"DIS_CODE":0,"TOWNNAME":"永康區","LI":"二王里","LIN":"42鄰","STREET":"中山南路","SECT":" ","MAREA":" ","LANE":"３１６巷","ALLEY":"３２弄","HOUSE_NO":"２６號","E_COORD97":172040.17999999999,"N_COORD97":2546064.9500000002,"ADDRESS":"中山南路３１６巷３２弄２６號","OBJECTID":117189},"geometry":{"x":172040.18000000063,"y":2546064.950000003}},{"attributes":{"ID":117190,"DIS_CODE":0,"TOWNNAME":"永康區","LI":"二王里","LIN":"19鄰","STREET":"中山南路","SECT":" ","MAREA":" ","LANE":"６４４巷","ALLEY":"２９弄","HOUSE_NO":"５號","E_COORD97":172438.97,"N_COORD97":2546585.8999999999,"ADDRESS":"中山南路６４４巷２９弄５號","OBJECTID":117190},"geometry":{"x":172438.96999999974,"y":2546585.9000000022}},{"attributes":{"ID":117191,"DIS_CODE":0,"TOWNNAME":"永康區","LI":"三合里","LIN":"23鄰","STREET":"南工街","SECT":" ","MAREA":" ","LANE":"３２３巷","ALLEY":"３５弄","HOUSE_NO":"３號","E_COORD97":171790.82000000001,"N_COORD97":2545938.9900000002,"ADDRESS":"南工街３２３巷３５弄３號","OBJECTID":117191},"geometry":{"x":171790.82000000123,"y":2545938.9900000002}},{"attributes":{"ID":117192,"DIS_CODE":0,"TOWNNAME":"安南區","LI":"安富里","LIN":"23鄰","STREET":"郡安路","SECT":"五段","MAREA":" ","LANE":"１６４巷","ALLEY":"７弄","HOUSE_NO":"２２號","E_COORD97":167738.35999999999,"N_COORD97":2547621,"ADDRESS":"郡安路五段１６４巷７弄２２號","OBJECTID":117192},"geometry":{"x":167738.3600000022,"y":2547621}},{"attributes":{"ID":117193,"DIS_CODE":0,"TOWNNAME":"官田區","LI":"渡頭里","LIN":"26鄰","STREET":" ","SECT":" ","MAREA":"三塊厝","LANE":" ","ALLEY":" ","HOUSE_NO":"１號之２１","E_COORD97":181685.39000000001,"N_COORD97":2562962.2000000002,"ADDRESS":"三塊厝１號之２１","OBJECTID":117193},"geometry":{"x":181685.39000000153,"y":2562962.2000000011}},{"attributes":{"ID":117194,"DIS_CODE":0,"TOWNNAME":"安南區","LI":"安富里","LIN":"23鄰","STREET":"郡安路","SECT":"五段","MAREA":" ","LANE":"１６４巷","ALLEY":"７弄","HOUSE_NO":"２３號","E_COORD97":167738.34,"N_COORD97":2547645.8100000001,"ADDRESS":"郡安路五段１６４巷７弄２３號","OBJECTID":117194},"geometry":{"x":167738.34000000078,"y":2547645.8100000005}},{"attributes":{"ID":117195,"DIS_CODE":0,"TOWNNAME":"安南區","LI":"安富里","LIN":"23鄰","STREET":"郡安路","SECT":"五段","MAREA":" ","LANE":"１６４巷","ALLEY":"７弄","HOUSE_NO":"２４號","E_COORD97":167742.72,"N_COORD97":2547623.98,"ADDRESS":"郡安路五段１６４巷７弄２４號","OBJECTID":117195},"geometry":{"x":167742.72000000067,"y":2547623.9800000004}},{"attributes":{"ID":117196,"DIS_CODE":0,"TOWNNAME":"安南區","LI":"安富里","LIN":"23鄰","STREET":"郡安路","SECT":"五段","MAREA":" ","LANE":"１６４巷","ALLEY":"７弄","HOUSE_NO":"２５號","E_COORD97":167743.16,"N_COORD97":2547646.9500000002,"ADDRESS":"郡安路五段１６４巷７弄２５號","OBJECTID":117196},"geometry":{"x":167743.16000000108,"y":2547646.9499999993}},{"attributes":{"ID":117197,"DIS_CODE":0,"TOWNNAME":"安南區","LI":"安富里","LIN":"23鄰","STREET":"郡安路","SECT":"五段","MAREA":" ","LANE":"１６４巷","ALLEY":"７弄","HOUSE_NO":"２６號","E_COORD97":167748.45999999999,"N_COORD97":2547624.8900000001,"ADDRESS":"郡安路五段１６４巷７弄２６號","OBJECTID":117197},"geometry":{"x":167748.45999999996,"y":2547624.8900000006}},{"attributes":{"ID":117198,"DIS_CODE":0,"TOWNNAME":"永康區","LI":"\u25A0洲里","LIN":"1鄰","STREET":"仁愛街","SECT":" ","MAREA":" ","LANE":" ","ALLEY":" ","HOUSE_NO":"３號","E_COORD97":171897.95000000001,"N_COORD97":2549197.5299999998,"ADDRESS":"仁愛街３號","OBJECTID":117198},"geometry":{"x":171897.95000000112,"y":2549197.5300000012}},{"attributes":{"ID":117199,"DIS_CODE":0,"TOWNNAME":"官田區","LI":"渡頭里","LIN":"32鄰","STREET":" ","SECT":" ","MAREA":"三塊厝","LANE":" ","ALLEY":" ","HOUSE_NO":"２９４號之１","E_COORD97":183481.54999999999,"N_COORD97":2561480.6099999999,"ADDRESS":"三塊厝２９４號之１","OBJECTID":117199},"geometry":{"x":183481.55000000075,"y":2561480.6100000013}},{"attributes":{"ID":117200,"DIS_CODE":0,"TOWNNAME":"官田區","LI":"渡頭里","LIN":"27鄰","STREET":" ","SECT":" ","MAREA":"三塊厝","LANE":" ","ALLEY":" ","HOUSE_NO":"３０號","E_COORD97":182569.16,"N_COORD97":2562117.8599999999,"ADDRESS":"三塊厝３０號","OBJECTID":117200},"geometry":{"x":182569.16000000108,"y":2562117.8599999994}}]}