{"displayFieldName":"TOWNNAME","fieldAliases":{"ID":"ID","DIS_CODE":"DIS_CODE","TOWNNAME":"TOWNNAME","LI":"LI","LIN":"LIN","STREET":"STREET","SECT":"SECT","MAREA":"MAREA","LANE":"LANE","ALLEY":"ALLEY","HOUSE_NO":"HOUSE_NO","E_COORD97":"E_COORD97","N_COORD97":"N_COORD97","ADDRESS":"ADDRESS","OBJECTID":"OBJECTID"},"geometryType":"esriGeometryPoint","spatialReference":{"wkid":102443,"latestWkid":3826},"fields":[{"name":"ID","type":"esriFieldTypeDouble","alias":"ID"},{"name":"DIS_CODE","type":"esriFieldTypeInteger","alias":"DIS_CODE"},{"name":"TOWNNAME","type":"esriFieldTypeString","alias":"TOWNNAME","length":8},{"name":"LI","type":"esriFieldTypeString","alias":"LI","length":8},{"name":"LIN","type":"esriFieldTypeString","alias":"LIN","length":12},{"name":"STREET","type":"esriFieldTypeString","alias":"STREET","length":20},{"name":"SECT","type":"esriFieldTypeString","alias":"SECT","length":8},{"name":"MAREA","type":"esriFieldTypeString","alias":"MAREA","length":12},{"name":"LANE","type":"esriFieldTypeString","alias":"LANE","length":10},{"name":"ALLEY","type":"esriFieldTypeString","alias":"ALLEY","length":10},{"name":"HOUSE_NO","type":"esriFieldTypeString","alias":"HOUSE_NO","length":20},{"name":"E_COORD97","type":"esriFieldTypeDouble","alias":"E_COORD97"},{"name":"N_COORD97","type":"esriFieldTypeDouble","alias":"N_COORD97"},{"name":"ADDRESS","type":"esriFieldTypeString","alias":"ADDRESS","length":50},{"name":"OBJECTID","type":"esriFieldTypeOID","alias":"OBJECTID"}],"features":[{"attributes":{"ID":230405,"DIS_CODE":0,"TOWNNAME":"永康區","LI":"網寮里","LIN":"15鄰","STREET":"永和街","SECT":" ","MAREA":" ","LANE":"２８２巷","ALLEY":" ","HOUSE_NO":"５號","E_COORD97":173318.78,"N_COORD97":2546616.5,"ADDRESS":"永和街２８２巷５號","OBJECTID":230401},"geometry":{"x":173318.78000000026,"y":2546616.5}},{"attributes":{"ID":230406,"DIS_CODE":0,"TOWNNAME":"永康區","LI":"復華里","LIN":"23鄰","STREET":"國華街","SECT":" ","MAREA":" ","LANE":"９９巷","ALLEY":" ","HOUSE_NO":"２號","E_COORD97":172703.75,"N_COORD97":2546127.5,"ADDRESS":"國華街９９巷２號","OBJECTID":230402},"geometry":{"x":172703.74999999907,"y":2546127.5000000019}},{"attributes":{"ID":230407,"DIS_CODE":0,"TOWNNAME":"永康區","LI":"崑山里","LIN":"47鄰","STREET":"國光五街","SECT":" ","MAREA":" ","LANE":" ","ALLEY":" ","HOUSE_NO":"２號十五樓之１","E_COORD97":174238.48999999999,"N_COORD97":2545059.54,"ADDRESS":"國光五街２號十五樓之１","OBJECTID":230403},"geometry":{"x":174238.49000000115,"y":2545059.5399999991}},{"attributes":{"ID":230408,"DIS_CODE":0,"TOWNNAME":"永康區","LI":"崑山里","LIN":"47鄰","STREET":"國光五街","SECT":" ","MAREA":" ","LANE":" ","ALLEY":" ","HOUSE_NO":"２號之３十五樓之３","E_COORD97":174256.06,"N_COORD97":2545100.1499999999,"ADDRESS":"國光五街２號之３十五樓之３","OBJECTID":230404},"geometry":{"x":174256.06000000052,"y":2545100.1500000004}},{"attributes":{"ID":230409,"DIS_CODE":0,"TOWNNAME":"永康區","LI":"崑山里","LIN":"47鄰","STREET":"國光五街","SECT":" ","MAREA":" ","LANE":" ","ALLEY":" ","HOUSE_NO":"２號之３十五樓之２","E_COORD97":174256.09,"N_COORD97":2545100.1499999999,"ADDRESS":"國光五街２號之３十五樓之２","OBJECTID":230405},"geometry":{"x":174256.09000000078,"y":2545100.1500000004}},{"attributes":{"ID":230410,"DIS_CODE":0,"TOWNNAME":"永康區","LI":"崑山里","LIN":"47鄰","STREET":"國光五街","SECT":" ","MAREA":" ","LANE":" ","ALLEY":" ","HOUSE_NO":"２號之３十六樓之２","E_COORD97":174256.09,"N_COORD97":2545100.1499999999,"ADDRESS":"國光五街２號之３十六樓之２","OBJECTID":230406},"geometry":{"x":174256.09000000078,"y":2545100.1500000004}},{"attributes":{"ID":230411,"DIS_CODE":0,"TOWNNAME":"永康區","LI":"崑山里","LIN":"47鄰","STREET":"國光五街","SECT":" ","MAREA":" ","LANE":" ","ALLEY":" ","HOUSE_NO":"２號之３九樓之１","E_COORD97":174254.70999999999,"N_COORD97":2545100.1499999999,"ADDRESS":"國光五街２號之３九樓之１","OBJECTID":230407},"geometry":{"x":174254.70999999996,"y":2545100.1500000004}},{"attributes":{"ID":230412,"DIS_CODE":0,"TOWNNAME":"永康區","LI":"崑山里","LIN":"47鄰","STREET":"國光五街","SECT":" ","MAREA":" ","LANE":" ","ALLEY":" ","HOUSE_NO":"２號五樓之１","E_COORD97":174237.23999999999,"N_COORD97":2545059.54,"ADDRESS":"國光五街２號五樓之１","OBJECTID":230408},"geometry":{"x":174237.24000000115,"y":2545059.5399999991}},{"attributes":{"ID":230413,"DIS_CODE":0,"TOWNNAME":"永康區","LI":"崑山里","LIN":"47鄰","STREET":"國光五街","SECT":" ","MAREA":" ","LANE":" ","ALLEY":" ","HOUSE_NO":"２號五樓之２","E_COORD97":174237.37,"N_COORD97":2545059.54,"ADDRESS":"國光五街２號五樓之２","OBJECTID":230409},"geometry":{"x":174237.37000000197,"y":2545059.5399999991}},{"attributes":{"ID":230414,"DIS_CODE":0,"TOWNNAME":"永康區","LI":"崑山里","LIN":"47鄰","STREET":"國光五街","SECT":" ","MAREA":" ","LANE":" ","ALLEY":" ","HOUSE_NO":"２號十一樓之２","E_COORD97":174238.62,"N_COORD97":2545059.54,"ADDRESS":"國光五街２號十一樓之２","OBJECTID":230410},"geometry":{"x":174238.62000000011,"y":2545059.5399999991}},{"attributes":{"ID":230415,"DIS_CODE":0,"TOWNNAME":"永康區","LI":"崑山里","LIN":"47鄰","STREET":"國光五街","SECT":" ","MAREA":" ","LANE":" ","ALLEY":" ","HOUSE_NO":"２號九樓之２","E_COORD97":174237.37,"N_COORD97":2545059.54,"ADDRESS":"國光五街２號九樓之２","OBJECTID":230411},"geometry":{"x":174237.37000000197,"y":2545059.5399999991}},{"attributes":{"ID":230416,"DIS_CODE":0,"TOWNNAME":"永康區","LI":"崑山里","LIN":"47鄰","STREET":"國光五街","SECT":" ","MAREA":" ","LANE":" ","ALLEY":" ","HOUSE_NO":"２號十二樓之１","E_COORD97":174238.48999999999,"N_COORD97":2545059.54,"ADDRESS":"國光五街２號十二樓之１","OBJECTID":230412},"geometry":{"x":174238.49000000115,"y":2545059.5399999991}},{"attributes":{"ID":230417,"DIS_CODE":0,"TOWNNAME":"下營區","LI":"後街里","LIN":"23鄰","STREET":"大愛街","SECT":" ","MAREA":" ","LANE":" ","ALLEY":" ","HOUSE_NO":"１號","E_COORD97":174785.23999999999,"N_COORD97":2571064.6299999999,"ADDRESS":"大愛街１號","OBJECTID":230413},"geometry":{"x":174785.24000000022,"y":2571064.6300000008}},{"attributes":{"ID":230418,"DIS_CODE":0,"TOWNNAME":"永康區","LI":"崑山里","LIN":"47鄰","STREET":"國光五街","SECT":" ","MAREA":" ","LANE":" ","ALLEY":" ","HOUSE_NO":"２號之３五樓之２","E_COORD97":174254.84,"N_COORD97":2545100.1499999999,"ADDRESS":"國光五街２號之３五樓之２","OBJECTID":230414},"geometry":{"x":174254.84000000078,"y":2545100.1500000004}},{"attributes":{"ID":230419,"DIS_CODE":0,"TOWNNAME":"永康區","LI":"崑山里","LIN":"47鄰","STREET":"國光五街","SECT":" ","MAREA":" ","LANE":" ","ALLEY":" ","HOUSE_NO":"２號四樓","E_COORD97":174235.10000000001,"N_COORD97":2545059.5,"ADDRESS":"國光五街２號四樓","OBJECTID":230415},"geometry":{"x":174235.09999999963,"y":2545059.5000000019}},{"attributes":{"ID":230420,"DIS_CODE":0,"TOWNNAME":"善化區","LI":"坐駕里","LIN":"23鄰","STREET":" ","SECT":" ","MAREA":"坐駕","LANE":" ","ALLEY":" ","HOUSE_NO":"２２號之８","E_COORD97":178800,"N_COORD97":2558315.27,"ADDRESS":"坐駕２２號之８","OBJECTID":230416},"geometry":{"x":178800.00000000093,"y":2558315.2699999996}},{"attributes":{"ID":230421,"DIS_CODE":0,"TOWNNAME":"善化區","LI":"坐駕里","LIN":"23鄰","STREET":" ","SECT":" ","MAREA":"坐駕","LANE":" ","ALLEY":" ","HOUSE_NO":"２０號","E_COORD97":178684.82000000001,"N_COORD97":2558103,"ADDRESS":"坐駕２０號","OBJECTID":230417},"geometry":{"x":178684.82000000123,"y":2558103}},{"attributes":{"ID":230422,"DIS_CODE":0,"TOWNNAME":"善化區","LI":"坐駕里","LIN":"23鄰","STREET":" ","SECT":" ","MAREA":"坐駕","LANE":" ","ALLEY":" ","HOUSE_NO":"２２號之１","E_COORD97":178746.66,"N_COORD97":2558156.77,"ADDRESS":"坐駕２２號之１","OBJECTID":230418},"geometry":{"x":178746.66000000108,"y":2558156.7700000014}},{"attributes":{"ID":230423,"DIS_CODE":0,"TOWNNAME":"善化區","LI":"坐駕里","LIN":"23鄰","STREET":" ","SECT":" ","MAREA":"坐駕","LANE":" ","ALLEY":" ","HOUSE_NO":"２２號之２","E_COORD97":178742.66,"N_COORD97":2558156.27,"ADDRESS":"坐駕２２號之２","OBJECTID":230419},"geometry":{"x":178742.66000000015,"y":2558156.2699999977}},{"attributes":{"ID":230424,"DIS_CODE":0,"TOWNNAME":"永康區","LI":"網寮里","LIN":"5鄰","STREET":"永勝街","SECT":" ","MAREA":" ","LANE":"１０６巷","ALLEY":" ","HOUSE_NO":"１號","E_COORD97":173557.17000000001,"N_COORD97":2546340.6899999999,"ADDRESS":"永勝街１０６巷１號","OBJECTID":230420},"geometry":{"x":173557.17000000086,"y":2546340.6899999995}},{"attributes":{"ID":230425,"DIS_CODE":0,"TOWNNAME":"永康區","LI":"網寮里","LIN":"20鄰","STREET":"永二街","SECT":" ","MAREA":" ","LANE":"２４５巷","ALLEY":" ","HOUSE_NO":"２７號之１０","E_COORD97":173313.13,"N_COORD97":2546123.0600000001,"ADDRESS":"永二街２４５巷２７號之１０","OBJECTID":230421},"geometry":{"x":173313.13000000175,"y":2546123.0600000042}},{"attributes":{"ID":230426,"DIS_CODE":0,"TOWNNAME":"東區","LI":"自強里","LIN":"2鄰","STREET":"富農街","SECT":"一段","MAREA":" ","LANE":"１３１巷","ALLEY":" ","HOUSE_NO":"６號六樓之１","E_COORD97":171518.42999999999,"N_COORD97":2542488.0499999998,"ADDRESS":"富農街一段１３１巷６號六樓之１","OBJECTID":230422},"geometry":{"x":171518.4299999997,"y":2542488.0500000007}},{"attributes":{"ID":230427,"DIS_CODE":0,"TOWNNAME":"東區","LI":"自強里","LIN":"2鄰","STREET":"富農街","SECT":"一段","MAREA":" ","LANE":"１３１巷","ALLEY":" ","HOUSE_NO":"２號七樓","E_COORD97":171523.17000000001,"N_COORD97":2542487.9100000001,"ADDRESS":"富農街一段１３１巷２號七樓","OBJECTID":230423},"geometry":{"x":171523.17000000086,"y":2542487.9100000001}},{"attributes":{"ID":230428,"DIS_CODE":0,"TOWNNAME":"東區","LI":"自強里","LIN":"2鄰","STREET":"富農街","SECT":"一段","MAREA":" ","LANE":"１３１巷","ALLEY":" ","HOUSE_NO":"１６號七樓之１","E_COORD97":171491.17000000001,"N_COORD97":2542487.9100000001,"ADDRESS":"富農街一段１３１巷１６號七樓之１","OBJECTID":230424},"geometry":{"x":171491.17000000086,"y":2542487.9100000001}},{"attributes":{"ID":230429,"DIS_CODE":0,"TOWNNAME":"東區","LI":"自強里","LIN":"2鄰","STREET":"富農街","SECT":"一段","MAREA":" ","LANE":"１３１巷","ALLEY":" ","HOUSE_NO":"１６號七樓","E_COORD97":171491.17000000001,"N_COORD97":2542487.9100000001,"ADDRESS":"富農街一段１３１巷１６號七樓","OBJECTID":230425},"geometry":{"x":171491.17000000086,"y":2542487.9100000001}},{"attributes":{"ID":230430,"DIS_CODE":0,"TOWNNAME":"東區","LI":"自強里","LIN":"2鄰","STREET":"富農街","SECT":"一段","MAREA":" ","LANE":"１３１巷","ALLEY":" ","HOUSE_NO":"２４號七樓之１","E_COORD97":171472.23000000001,"N_COORD97":2542487.6200000001,"ADDRESS":"富農街一段１３１巷２４號七樓之１","OBJECTID":230426},"geometry":{"x":171472.23000000138,"y":2542487.620000001}},{"attributes":{"ID":230431,"DIS_CODE":0,"TOWNNAME":"關廟區","LI":"松腳里","LIN":"11鄰","STREET":"四維街","SECT":" ","MAREA":" ","LANE":"８７巷","ALLEY":" ","HOUSE_NO":"３６號","E_COORD97":181791.79894099999,"N_COORD97":2539685.8695999999,"ADDRESS":"四維街８７巷３６號","OBJECTID":230427},"geometry":{"x":181791.79894100036,"y":2539685.8695969991}},{"attributes":{"ID":230432,"DIS_CODE":0,"TOWNNAME":"東區","LI":"自強里","LIN":"2鄰","STREET":"富農街","SECT":"一段","MAREA":" ","LANE":"１３１巷","ALLEY":" ","HOUSE_NO":"２號八樓","E_COORD97":171523.17000000001,"N_COORD97":2542487.9100000001,"ADDRESS":"富農街一段１３１巷２號八樓","OBJECTID":230428},"geometry":{"x":171523.17000000086,"y":2542487.9100000001}},{"attributes":{"ID":230433,"DIS_CODE":0,"TOWNNAME":"東區","LI":"自強里","LIN":"2鄰","STREET":"富農街","SECT":"一段","MAREA":" ","LANE":"１３１巷","ALLEY":" ","HOUSE_NO":"２號八樓之１","E_COORD97":171523.17000000001,"N_COORD97":2542487.9100000001,"ADDRESS":"富農街一段１３１巷２號八樓之１","OBJECTID":230429},"geometry":{"x":171523.17000000086,"y":2542487.9100000001}},{"attributes":{"ID":230434,"DIS_CODE":0,"TOWNNAME":"東區","LI":"自強里","LIN":"27鄰","STREET":"中華東路","SECT":"二段","MAREA":" ","LANE":"１３３巷","ALLEY":" ","HOUSE_NO":"６號","E_COORD97":171397.06,"N_COORD97":2542851.5600000001,"ADDRESS":"中華東路二段１３３巷６號","OBJECTID":230430},"geometry":{"x":171397.05999999959,"y":2542851.5600000042}},{"attributes":{"ID":230435,"DIS_CODE":0,"TOWNNAME":"永康區","LI":"崑山里","LIN":"47鄰","STREET":"國光五街","SECT":" ","MAREA":" ","LANE":" ","ALLEY":" ","HOUSE_NO":"２號九樓之１","E_COORD97":174237.23999999999,"N_COORD97":2545059.54,"ADDRESS":"國光五街２號九樓之１","OBJECTID":230431},"geometry":{"x":174237.24000000115,"y":2545059.5399999991}},{"attributes":{"ID":230436,"DIS_CODE":0,"TOWNNAME":"永康區","LI":"崑山里","LIN":"47鄰","STREET":"國光五街","SECT":" ","MAREA":" ","LANE":" ","ALLEY":" ","HOUSE_NO":"２號二樓","E_COORD97":174235.10000000001,"N_COORD97":2545059.5,"ADDRESS":"國光五街２號二樓","OBJECTID":230432},"geometry":{"x":174235.09999999963,"y":2545059.5000000019}},{"attributes":{"ID":230437,"DIS_CODE":0,"TOWNNAME":"善化區","LI":"光文里","LIN":"23鄰","STREET":"中山路","SECT":" ","MAREA":" ","LANE":" ","ALLEY":" ","HOUSE_NO":"１８４號","E_COORD97":178367.48000000001,"N_COORD97":2559160,"ADDRESS":"中山路１８４號","OBJECTID":230433},"geometry":{"x":178367.48000000045,"y":2559160.0000000019}},{"attributes":{"ID":230438,"DIS_CODE":0,"TOWNNAME":"永康區","LI":"復華里","LIN":"23鄰","STREET":"國華街","SECT":" ","MAREA":" ","LANE":"９９巷","ALLEY":" ","HOUSE_NO":"６號","E_COORD97":172700.23999999999,"N_COORD97":2546124,"ADDRESS":"國華街９９巷６號","OBJECTID":230434},"geometry":{"x":172700.24000000022,"y":2546124.0000000019}},{"attributes":{"ID":230439,"DIS_CODE":0,"TOWNNAME":"永康區","LI":"網寮里","LIN":"23鄰","STREET":"永春街","SECT":" ","MAREA":" ","LANE":"２０巷","ALLEY":" ","HOUSE_NO":"４號","E_COORD97":173788.72,"N_COORD97":2546284.7400000002,"ADDRESS":"永春街２０巷４號","OBJECTID":230435},"geometry":{"x":173788.7200000016,"y":2546284.7400000021}},{"attributes":{"ID":230440,"DIS_CODE":0,"TOWNNAME":"永康區","LI":"網寮里","LIN":"23鄰","STREET":"文化路","SECT":" ","MAREA":" ","LANE":"１２８巷","ALLEY":" ","HOUSE_NO":"１８號","E_COORD97":173891.34,"N_COORD97":2546295.5699999998,"ADDRESS":"文化路１２８巷１８號","OBJECTID":230436},"geometry":{"x":173891.33999999892,"y":2546295.570000004}},{"attributes":{"ID":230441,"DIS_CODE":0,"TOWNNAME":"永康區","LI":"網寮里","LIN":"23鄰","STREET":"文化路","SECT":" ","MAREA":" ","LANE":"１２８巷","ALLEY":" ","HOUSE_NO":"２４號","E_COORD97":173888.41,"N_COORD97":2546308.3300000001,"ADDRESS":"文化路１２８巷２４號","OBJECTID":230437},"geometry":{"x":173888.41000000108,"y":2546308.3300000019}},{"attributes":{"ID":230442,"DIS_CODE":0,"TOWNNAME":"永康區","LI":"網寮里","LIN":"23鄰","STREET":"永春街","SECT":" ","MAREA":" ","LANE":"２０巷","ALLEY":" ","HOUSE_NO":"５號","E_COORD97":173783.04999999999,"N_COORD97":2546301.6499999999,"ADDRESS":"永春街２０巷５號","OBJECTID":230438},"geometry":{"x":173783.04999999888,"y":2546301.6500000004}},{"attributes":{"ID":230443,"DIS_CODE":0,"TOWNNAME":"永康區","LI":"網寮里","LIN":"23鄰","STREET":"永春街","SECT":" ","MAREA":" ","LANE":"２０巷","ALLEY":" ","HOUSE_NO":"９號","E_COORD97":173790.89000000001,"N_COORD97":2546303.8999999999,"ADDRESS":"永春街２０巷９號","OBJECTID":230439},"geometry":{"x":173790.89000000153,"y":2546303.9000000041}},{"attributes":{"ID":230444,"DIS_CODE":0,"TOWNNAME":"永康區","LI":"復華里","LIN":"23鄰","STREET":"國華街","SECT":" ","MAREA":" ","LANE":"９９巷","ALLEY":" ","HOUSE_NO":"９號","E_COORD97":172700.47,"N_COORD97":2546101.25,"ADDRESS":"國華街９９巷９號","OBJECTID":230440},"geometry":{"x":172700.4700000016,"y":2546101.2500000019}},{"attributes":{"ID":230445,"DIS_CODE":0,"TOWNNAME":"東區","LI":"自強里","LIN":"2鄰","STREET":"富農街","SECT":"一段","MAREA":" ","LANE":"１３１巷","ALLEY":" ","HOUSE_NO":"６號八樓","E_COORD97":171518.42999999999,"N_COORD97":2542488.0499999998,"ADDRESS":"富農街一段１３１巷６號八樓","OBJECTID":230441},"geometry":{"x":171518.4299999997,"y":2542488.0500000007}},{"attributes":{"ID":230446,"DIS_CODE":0,"TOWNNAME":"東區","LI":"自強里","LIN":"2鄰","STREET":"富農街","SECT":"一段","MAREA":" ","LANE":"１３１巷","ALLEY":" ","HOUSE_NO":"６號八樓之１","E_COORD97":171518.42999999999,"N_COORD97":2542488.0499999998,"ADDRESS":"富農街一段１３１巷６號八樓之１","OBJECTID":230442},"geometry":{"x":171518.4299999997,"y":2542488.0500000007}},{"attributes":{"ID":230447,"DIS_CODE":0,"TOWNNAME":"永康區","LI":"崑山里","LIN":"47鄰","STREET":"國光五街","SECT":" ","MAREA":" ","LANE":" ","ALLEY":" ","HOUSE_NO":"２號十四樓之１","E_COORD97":174238.48999999999,"N_COORD97":2545059.54,"ADDRESS":"國光五街２號十四樓之１","OBJECTID":230443},"geometry":{"x":174238.49000000115,"y":2545059.5399999991}},{"attributes":{"ID":230448,"DIS_CODE":0,"TOWNNAME":"永康區","LI":"崑山里","LIN":"47鄰","STREET":"國光五街","SECT":" ","MAREA":" ","LANE":" ","ALLEY":" ","HOUSE_NO":"２號十二樓之２","E_COORD97":174238.62,"N_COORD97":2545059.54,"ADDRESS":"國光五街２號十二樓之２","OBJECTID":230444},"geometry":{"x":174238.62000000011,"y":2545059.5399999991}},{"attributes":{"ID":230449,"DIS_CODE":0,"TOWNNAME":"永康區","LI":"崑山里","LIN":"47鄰","STREET":"國光五街","SECT":" ","MAREA":" ","LANE":" ","ALLEY":" ","HOUSE_NO":"２號之３七樓之２","E_COORD97":174254.84,"N_COORD97":2545100.1499999999,"ADDRESS":"國光五街２號之３七樓之２","OBJECTID":230445},"geometry":{"x":174254.84000000078,"y":2545100.1500000004}},{"attributes":{"ID":230450,"DIS_CODE":0,"TOWNNAME":"永康區","LI":"崑山里","LIN":"47鄰","STREET":"國光五街","SECT":" ","MAREA":" ","LANE":" ","ALLEY":" ","HOUSE_NO":"２號之３十樓之３","E_COORD97":174254.81,"N_COORD97":2545100.1499999999,"ADDRESS":"國光五街２號之３十樓之３","OBJECTID":230446},"geometry":{"x":174254.81000000052,"y":2545100.1500000004}},{"attributes":{"ID":230451,"DIS_CODE":0,"TOWNNAME":"永康區","LI":"崑山里","LIN":"47鄰","STREET":"國光五街","SECT":" ","MAREA":" ","LANE":" ","ALLEY":" ","HOUSE_NO":"２號之３八樓之１","E_COORD97":174254.70999999999,"N_COORD97":2545100.1499999999,"ADDRESS":"國光五街２號之３八樓之１","OBJECTID":230447},"geometry":{"x":174254.70999999996,"y":2545100.1500000004}},{"attributes":{"ID":230452,"DIS_CODE":0,"TOWNNAME":"永康區","LI":"崑山里","LIN":"47鄰","STREET":"國光五街","SECT":" ","MAREA":" ","LANE":" ","ALLEY":" ","HOUSE_NO":"２號之３九樓之３","E_COORD97":174254.81,"N_COORD97":2545100.1499999999,"ADDRESS":"國光五街２號之３九樓之３","OBJECTID":230448},"geometry":{"x":174254.81000000052,"y":2545100.1500000004}},{"attributes":{"ID":230453,"DIS_CODE":0,"TOWNNAME":"善化區","LI":"東關里","LIN":"1鄰","STREET":"中山路","SECT":" ","MAREA":" ","LANE":" ","ALLEY":" ","HOUSE_NO":"３６６號","E_COORD97":177592.42000000001,"N_COORD97":2559110.5,"ADDRESS":"中山路３６６號","OBJECTID":230449},"geometry":{"x":177592.41999999993,"y":2559110.5}},{"attributes":{"ID":230454,"DIS_CODE":0,"TOWNNAME":"永康區","LI":"復華里","LIN":"23鄰","STREET":"國華街","SECT":" ","MAREA":" ","LANE":"９７巷","ALLEY":" ","HOUSE_NO":"８號","E_COORD97":172727.39000000001,"N_COORD97":2546092.9900000002,"ADDRESS":"國華街９７巷８號","OBJECTID":230450},"geometry":{"x":172727.38999999966,"y":2546092.9900000021}},{"attributes":{"ID":230455,"DIS_CODE":0,"TOWNNAME":"永康區","LI":"網寮里","LIN":"23鄰","STREET":"永春街","SECT":" ","MAREA":" ","LANE":"１２巷","ALLEY":" ","HOUSE_NO":"２號之２","E_COORD97":173801.60000000001,"N_COORD97":2546241.7400000002,"ADDRESS":"永春街１２巷２號之２","OBJECTID":230451},"geometry":{"x":173801.60000000056,"y":2546241.7400000021}},{"attributes":{"ID":230456,"DIS_CODE":0,"TOWNNAME":"永康區","LI":"復興里","LIN":"23鄰","STREET":"復興路","SECT":" ","MAREA":" ","LANE":"２４６巷","ALLEY":" ","HOUSE_NO":"２１號","E_COORD97":172391.95000000001,"N_COORD97":2544447.5299999998,"ADDRESS":"復興路２４６巷２１號","OBJECTID":230452},"geometry":{"x":172391.95000000019,"y":2544447.5300000012}},{"attributes":{"ID":230457,"DIS_CODE":0,"TOWNNAME":"永康區","LI":"網寮里","LIN":"23鄰","STREET":"永春街","SECT":" ","MAREA":" ","LANE":"２０巷","ALLEY":" ","HOUSE_NO":"３６號","E_COORD97":173855.82999999999,"N_COORD97":2546308.1400000001,"ADDRESS":"永春街２０巷３６號","OBJECTID":230453},"geometry":{"x":173855.83000000007,"y":2546308.1400000006}},{"attributes":{"ID":230458,"DIS_CODE":0,"TOWNNAME":"永康區","LI":"復華里","LIN":"23鄰","STREET":"國華街","SECT":" ","MAREA":" ","LANE":"９７巷","ALLEY":" ","HOUSE_NO":"１８號","E_COORD97":172707.64000000001,"N_COORD97":2546072.2400000002,"ADDRESS":"國華街９７巷１８號","OBJECTID":230454},"geometry":{"x":172707.64000000153,"y":2546072.2400000021}},{"attributes":{"ID":230459,"DIS_CODE":0,"TOWNNAME":"永康區","LI":"網寮里","LIN":"23鄰","STREET":"永春街","SECT":" ","MAREA":" ","LANE":"１２巷","ALLEY":" ","HOUSE_NO":"１８號","E_COORD97":173833.26999999999,"N_COORD97":2546250.1800000002,"ADDRESS":"永春街１２巷１８號","OBJECTID":230455},"geometry":{"x":173833.26999999955,"y":2546250.1800000034}},{"attributes":{"ID":230460,"DIS_CODE":0,"TOWNNAME":"永康區","LI":"網寮里","LIN":"23鄰","STREET":"永春街","SECT":" ","MAREA":" ","LANE":"２０巷","ALLEY":" ","HOUSE_NO":"３２號","E_COORD97":173847.75,"N_COORD97":2546305.6400000001,"ADDRESS":"永春街２０巷３２號","OBJECTID":230456},"geometry":{"x":173847.75,"y":2546305.6400000043}},{"attributes":{"ID":230461,"DIS_CODE":0,"TOWNNAME":"永康區","LI":"網寮里","LIN":"23鄰","STREET":"永春街","SECT":" ","MAREA":" ","LANE":"１２巷","ALLEY":" ","HOUSE_NO":"２２號","E_COORD97":173847.56,"N_COORD97":2546251.1400000001,"ADDRESS":"永春街１２巷２２號","OBJECTID":230457},"geometry":{"x":173847.56000000052,"y":2546251.1399999987}},{"attributes":{"ID":230462,"DIS_CODE":0,"TOWNNAME":"永康區","LI":"復華里","LIN":"4鄰","STREET":"復國二路","SECT":" ","MAREA":" ","LANE":"２４３巷","ALLEY":" ","HOUSE_NO":"１６號","E_COORD97":172966.87,"N_COORD97":2546132.5699999998,"ADDRESS":"復國二路２４３巷１６號","OBJECTID":230458},"geometry":{"x":172966.87000000011,"y":2546132.5700000003}},{"attributes":{"ID":230463,"DIS_CODE":0,"TOWNNAME":"東區","LI":"自強里","LIN":"2鄰","STREET":"富農街","SECT":"一段","MAREA":" ","LANE":"１３１巷","ALLEY":" ","HOUSE_NO":"１６號八樓","E_COORD97":171491.17000000001,"N_COORD97":2542487.9100000001,"ADDRESS":"富農街一段１３１巷１６號八樓","OBJECTID":230459},"geometry":{"x":171491.17000000086,"y":2542487.9100000001}},{"attributes":{"ID":230464,"DIS_CODE":0,"TOWNNAME":"東區","LI":"自強里","LIN":"2鄰","STREET":"富農街","SECT":"一段","MAREA":" ","LANE":"１３１巷","ALLEY":" ","HOUSE_NO":"１６號八樓之１","E_COORD97":171491.17000000001,"N_COORD97":2542487.9100000001,"ADDRESS":"富農街一段１３１巷１６號八樓之１","OBJECTID":230460},"geometry":{"x":171491.17000000086,"y":2542487.9100000001}},{"attributes":{"ID":230465,"DIS_CODE":0,"TOWNNAME":"東區","LI":"自強里","LIN":"2鄰","STREET":"富農街","SECT":"一段","MAREA":" ","LANE":"１３１巷","ALLEY":" ","HOUSE_NO":"２４號八樓","E_COORD97":171472.23000000001,"N_COORD97":2542487.6200000001,"ADDRESS":"富農街一段１３１巷２４號八樓","OBJECTID":230461},"geometry":{"x":171472.23000000138,"y":2542487.620000001}},{"attributes":{"ID":230466,"DIS_CODE":0,"TOWNNAME":"東區","LI":"自強里","LIN":"2鄰","STREET":"富農街","SECT":"一段","MAREA":" ","LANE":"１３１巷","ALLEY":" ","HOUSE_NO":"２４號八樓之１","E_COORD97":171472.23000000001,"N_COORD97":2542487.6200000001,"ADDRESS":"富農街一段１３１巷２４號八樓之１","OBJECTID":230462},"geometry":{"x":171472.23000000138,"y":2542487.620000001}},{"attributes":{"ID":230467,"DIS_CODE":0,"TOWNNAME":"東區","LI":"自強里","LIN":"2鄰","STREET":"富農街","SECT":"一段","MAREA":" ","LANE":"１３１巷","ALLEY":" ","HOUSE_NO":"６號七樓","E_COORD97":171518.42999999999,"N_COORD97":2542488.0499999998,"ADDRESS":"富農街一段１３１巷６號七樓","OBJECTID":230463},"geometry":{"x":171518.4299999997,"y":2542488.0500000007}},{"attributes":{"ID":230468,"DIS_CODE":0,"TOWNNAME":"東區","LI":"自強里","LIN":"2鄰","STREET":"富農街","SECT":"一段","MAREA":" ","LANE":"１３１巷","ALLEY":" ","HOUSE_NO":"６號七樓之１","E_COORD97":171518.42999999999,"N_COORD97":2542488.0499999998,"ADDRESS":"富農街一段１３１巷６號七樓之１","OBJECTID":230464},"geometry":{"x":171518.4299999997,"y":2542488.0500000007}},{"attributes":{"ID":230469,"DIS_CODE":0,"TOWNNAME":"永康區","LI":"崑山里","LIN":"47鄰","STREET":"國光五街","SECT":" ","MAREA":" ","LANE":" ","ALLEY":" ","HOUSE_NO":"２號之３十二樓之１","E_COORD97":174255.95999999999,"N_COORD97":2545100.1499999999,"ADDRESS":"國光五街２號之３十二樓之１","OBJECTID":230465},"geometry":{"x":174255.96000000089,"y":2545100.1500000004}},{"attributes":{"ID":230470,"DIS_CODE":0,"TOWNNAME":"永康區","LI":"崑山里","LIN":"47鄰","STREET":"國光五街","SECT":" ","MAREA":" ","LANE":" ","ALLEY":" ","HOUSE_NO":"２號之３十三樓之２","E_COORD97":174256.09,"N_COORD97":2545100.1499999999,"ADDRESS":"國光五街２號之３十三樓之２","OBJECTID":230466},"geometry":{"x":174256.09000000078,"y":2545100.1500000004}},{"attributes":{"ID":230471,"DIS_CODE":0,"TOWNNAME":"永康區","LI":"崑山里","LIN":"47鄰","STREET":"國光五街","SECT":" ","MAREA":" ","LANE":" ","ALLEY":" ","HOUSE_NO":"２號之３十六樓之１","E_COORD97":174255.95999999999,"N_COORD97":2545100.1499999999,"ADDRESS":"國光五街２號之３十六樓之１","OBJECTID":230467},"geometry":{"x":174255.96000000089,"y":2545100.1500000004}},{"attributes":{"ID":230472,"DIS_CODE":0,"TOWNNAME":"永康區","LI":"崑山里","LIN":"47鄰","STREET":"國光五街","SECT":" ","MAREA":" ","LANE":" ","ALLEY":" ","HOUSE_NO":"２號之３十一樓之２","E_COORD97":174256.09,"N_COORD97":2545100.1499999999,"ADDRESS":"國光五街２號之３十一樓之２","OBJECTID":230468},"geometry":{"x":174256.09000000078,"y":2545100.1500000004}},{"attributes":{"ID":230473,"DIS_CODE":0,"TOWNNAME":"永康區","LI":"崑山里","LIN":"47鄰","STREET":"國光五街","SECT":" ","MAREA":" ","LANE":" ","ALLEY":" ","HOUSE_NO":"２號六樓之１","E_COORD97":174237.23999999999,"N_COORD97":2545059.54,"ADDRESS":"國光五街２號六樓之１","OBJECTID":230469},"geometry":{"x":174237.24000000115,"y":2545059.5399999991}},{"attributes":{"ID":230474,"DIS_CODE":0,"TOWNNAME":"永康區","LI":"崑山里","LIN":"47鄰","STREET":"國光五街","SECT":" ","MAREA":" ","LANE":" ","ALLEY":" ","HOUSE_NO":"２號之３六樓之２","E_COORD97":174254.84,"N_COORD97":2545100.1499999999,"ADDRESS":"國光五街２號之３六樓之２","OBJECTID":230470},"geometry":{"x":174254.84000000078,"y":2545100.1500000004}},{"attributes":{"ID":230475,"DIS_CODE":0,"TOWNNAME":"永康區","LI":"崑山里","LIN":"47鄰","STREET":"國光五街","SECT":" ","MAREA":" ","LANE":" ","ALLEY":" ","HOUSE_NO":"２號之３二樓之３","E_COORD97":174254.81,"N_COORD97":2545100.1499999999,"ADDRESS":"國光五街２號之３二樓之３","OBJECTID":230471},"geometry":{"x":174254.81000000052,"y":2545100.1500000004}},{"attributes":{"ID":230476,"DIS_CODE":0,"TOWNNAME":"永康區","LI":"崑山里","LIN":"47鄰","STREET":"國光五街","SECT":" ","MAREA":" ","LANE":" ","ALLEY":" ","HOUSE_NO":"２號之３八樓之２","E_COORD97":174254.84,"N_COORD97":2545100.1499999999,"ADDRESS":"國光五街２號之３八樓之２","OBJECTID":230472},"geometry":{"x":174254.84000000078,"y":2545100.1500000004}},{"attributes":{"ID":230477,"DIS_CODE":0,"TOWNNAME":"永康區","LI":"崑山里","LIN":"47鄰","STREET":"國光五街","SECT":" ","MAREA":" ","LANE":" ","ALLEY":" ","HOUSE_NO":"２號十一樓之１","E_COORD97":174238.48999999999,"N_COORD97":2545059.54,"ADDRESS":"國光五街２號十一樓之１","OBJECTID":230473},"geometry":{"x":174238.49000000115,"y":2545059.5399999991}},{"attributes":{"ID":230478,"DIS_CODE":0,"TOWNNAME":"永康區","LI":"三合里","LIN":"23鄰","STREET":"南工街","SECT":" ","MAREA":" ","LANE":"３２３巷","ALLEY":" ","HOUSE_NO":"１７號","E_COORD97":171790.13,"N_COORD97":2545993.5,"ADDRESS":"南工街３２３巷１７號","OBJECTID":230474},"geometry":{"x":171790.12999999989,"y":2545993.5}},{"attributes":{"ID":230479,"DIS_CODE":0,"TOWNNAME":"永康區","LI":"三合里","LIN":"23鄰","STREET":"南工街","SECT":" ","MAREA":" ","LANE":"３２３巷","ALLEY":" ","HOUSE_NO":"２４號","E_COORD97":171776.63,"N_COORD97":2545971.9900000002,"ADDRESS":"南工街３２３巷２４號","OBJECTID":230475},"geometry":{"x":171776.62999999989,"y":2545971.9900000021}},{"attributes":{"ID":230480,"DIS_CODE":0,"TOWNNAME":"永康區","LI":"復華里","LIN":"36鄰","STREET":"復華七街","SECT":" ","MAREA":" ","LANE":"３９巷","ALLEY":" ","HOUSE_NO":"３９號","E_COORD97":172576.51999999999,"N_COORD97":2546064.48,"ADDRESS":"復華七街３９巷３９號","OBJECTID":230476},"geometry":{"x":172576.52000000048,"y":2546064.4800000004}},{"attributes":{"ID":230481,"DIS_CODE":0,"TOWNNAME":"永康區","LI":"網寮里","LIN":"17鄰","STREET":"永興路","SECT":" ","MAREA":" ","LANE":"４２７巷","ALLEY":" ","HOUSE_NO":"８號","E_COORD97":173271.91,"N_COORD97":2546852.3399999999,"ADDRESS":"永興路４２７巷８號","OBJECTID":230477},"geometry":{"x":173271.91000000015,"y":2546852.3399999999}},{"attributes":{"ID":230482,"DIS_CODE":0,"TOWNNAME":"永康區","LI":"網寮里","LIN":"23鄰","STREET":"永春街","SECT":" ","MAREA":" ","LANE":"１２巷","ALLEY":" ","HOUSE_NO":"２６號","E_COORD97":173852.39000000001,"N_COORD97":2546252.6400000001,"ADDRESS":"永春街１２巷２６號","OBJECTID":230478},"geometry":{"x":173852.3900000006,"y":2546252.6400000025}},{"attributes":{"ID":230483,"DIS_CODE":0,"TOWNNAME":"永康區","LI":"崑山里","LIN":"23鄰","STREET":"崑山街","SECT":" ","MAREA":" ","LANE":"６３巷","ALLEY":" ","HOUSE_NO":"２２號","E_COORD97":173880.45999999999,"N_COORD97":2544683.2000000002,"ADDRESS":"崑山街６３巷２２號","OBJECTID":230479},"geometry":{"x":173880.45999999903,"y":2544683.200000003}},{"attributes":{"ID":230484,"DIS_CODE":0,"TOWNNAME":"中西區","LI":"赤嵌里","LIN":"2鄰","STREET":"西華南街","SECT":" ","MAREA":" ","LANE":"１２０巷","ALLEY":" ","HOUSE_NO":"１６號二樓","E_COORD97":169059.26999999999,"N_COORD97":2544137.9700000002,"ADDRESS":"西華南街１２０巷１６號二樓","OBJECTID":230480},"geometry":{"x":169059.27000000048,"y":2544137.9700000025}},{"attributes":{"ID":230485,"DIS_CODE":0,"TOWNNAME":"中西區","LI":"赤嵌里","LIN":"2鄰","STREET":"西華南街","SECT":" ","MAREA":" ","LANE":"１２０巷","ALLEY":" ","HOUSE_NO":"１８號三樓之６","E_COORD97":169070.20000000001,"N_COORD97":2544135.4700000002,"ADDRESS":"西華南街１２０巷１８號三樓之６","OBJECTID":230481},"geometry":{"x":169070.20000000112,"y":2544135.4700000007}},{"attributes":{"ID":230486,"DIS_CODE":0,"TOWNNAME":"永康區","LI":"大灣里","LIN":"12鄰","STREET":"大民街","SECT":" ","MAREA":" ","LANE":"５８巷","ALLEY":" ","HOUSE_NO":"１６號","E_COORD97":174889.37,"N_COORD97":2545361.3799999999,"ADDRESS":"大民街５８巷１６號","OBJECTID":230482},"geometry":{"x":174889.37000000011,"y":2545361.3800000008}},{"attributes":{"ID":230487,"DIS_CODE":0,"TOWNNAME":"中西區","LI":"安海里","LIN":"2鄰","STREET":"正興街","SECT":" ","MAREA":" ","LANE":" ","ALLEY":" ","HOUSE_NO":"２５６號二樓","E_COORD97":167400.04000000001,"N_COORD97":2544024.9399999999,"ADDRESS":"正興街２５６號二樓","OBJECTID":230483},"geometry":{"x":167400.04000000097,"y":2544024.9400000013}},{"attributes":{"ID":230488,"DIS_CODE":0,"TOWNNAME":"永康區","LI":"崑山里","LIN":"47鄰","STREET":"國光五街","SECT":" ","MAREA":" ","LANE":" ","ALLEY":" ","HOUSE_NO":"２號十樓之２","E_COORD97":174237.37,"N_COORD97":2545059.54,"ADDRESS":"國光五街２號十樓之２","OBJECTID":230484},"geometry":{"x":174237.37000000197,"y":2545059.5399999991}},{"attributes":{"ID":230489,"DIS_CODE":0,"TOWNNAME":"永康區","LI":"崑山里","LIN":"47鄰","STREET":"國光五街","SECT":" ","MAREA":" ","LANE":" ","ALLEY":" ","HOUSE_NO":"２號之３六樓之１","E_COORD97":174254.70999999999,"N_COORD97":2545100.1499999999,"ADDRESS":"國光五街２號之３六樓之１","OBJECTID":230485},"geometry":{"x":174254.70999999996,"y":2545100.1500000004}},{"attributes":{"ID":230490,"DIS_CODE":0,"TOWNNAME":"新市區","LI":"新和里","LIN":"47鄰","STREET":"和平街","SECT":" ","MAREA":" ","LANE":" ","ALLEY":" ","HOUSE_NO":"１９８號","E_COORD97":177394.03,"N_COORD97":2553257.5,"ADDRESS":"和平街１９８號","OBJECTID":230486},"geometry":{"x":177394.03000000026,"y":2553257.5000000019}},{"attributes":{"ID":230491,"DIS_CODE":0,"TOWNNAME":"新市區","LI":"新和里","LIN":"47鄰","STREET":"和平街","SECT":" ","MAREA":" ","LANE":" ","ALLEY":" ","HOUSE_NO":"２０４號","E_COORD97":177384.42999999999,"N_COORD97":2553250,"ADDRESS":"和平街２０４號","OBJECTID":230487},"geometry":{"x":177384.43000000156,"y":2553250.0000000019}},{"attributes":{"ID":230492,"DIS_CODE":0,"TOWNNAME":"歸仁區","LI":"南保里","LIN":"47鄰","STREET":"民權十街","SECT":" ","MAREA":" ","LANE":" ","ALLEY":" ","HOUSE_NO":"１２５號","E_COORD97":176725.73999999999,"N_COORD97":2540662.29,"ADDRESS":"民權十街１２５號","OBJECTID":230488},"geometry":{"x":176725.74000000115,"y":2540662.290000001}},{"attributes":{"ID":230493,"DIS_CODE":0,"TOWNNAME":"歸仁區","LI":"後市里","LIN":"47鄰","STREET":"文化街","SECT":"二段","MAREA":" ","LANE":" ","ALLEY":" ","HOUSE_NO":"１１５號","E_COORD97":177203.14000000001,"N_COORD97":2541185.7599999998,"ADDRESS":"文化街二段１１５號","OBJECTID":230489},"geometry":{"x":177203.13999999966,"y":2541185.7600000016}},{"attributes":{"ID":230494,"DIS_CODE":0,"TOWNNAME":"永康區","LI":"南灣里","LIN":"23鄰","STREET":"大灣路","SECT":" ","MAREA":" ","LANE":"７６４巷","ALLEY":" ","HOUSE_NO":"８３號","E_COORD97":174191.92999999999,"N_COORD97":2544736.0099999998,"ADDRESS":"大灣路７６４巷８３號","OBJECTID":230490},"geometry":{"x":174191.9299999997,"y":2544736.0100000035}},{"attributes":{"ID":230495,"DIS_CODE":0,"TOWNNAME":"永康區","LI":"新樹里","LIN":"11鄰","STREET":"富強路","SECT":"二段","MAREA":" ","LANE":"１２８巷","ALLEY":" ","HOUSE_NO":"４９號","E_COORD97":175778.67000000001,"N_COORD97":2547126.1600000001,"ADDRESS":"富強路二段１２８巷４９號","OBJECTID":230491},"geometry":{"x":175778.66999999993,"y":2547126.160000002}},{"attributes":{"ID":230496,"DIS_CODE":0,"TOWNNAME":"永康區","LI":"復國里","LIN":"22鄰","STREET":"復華六街","SECT":" ","MAREA":" ","LANE":"９３巷","ALLEY":" ","HOUSE_NO":"１２號","E_COORD97":172607.87,"N_COORD97":2545806.6699999999,"ADDRESS":"復華六街９３巷１２號","OBJECTID":230492},"geometry":{"x":172607.87000000011,"y":2545806.6700000018}},{"attributes":{"ID":230497,"DIS_CODE":0,"TOWNNAME":"永康區","LI":"新樹里","LIN":"7鄰","STREET":"富強路","SECT":"二段","MAREA":" ","LANE":"５６巷","ALLEY":" ","HOUSE_NO":"９號","E_COORD97":175741.56,"N_COORD97":2546954.7999999998,"ADDRESS":"富強路二段５６巷９號","OBJECTID":230493},"geometry":{"x":175741.56000000052,"y":2546954.8000000007}},{"attributes":{"ID":230498,"DIS_CODE":0,"TOWNNAME":"永康區","LI":"網寮里","LIN":"12鄰","STREET":"永勝街","SECT":" ","MAREA":" ","LANE":"１６３巷","ALLEY":" ","HOUSE_NO":"６號","E_COORD97":173305.04000000001,"N_COORD97":2546491.8199999998,"ADDRESS":"永勝街１６３巷６號","OBJECTID":230494},"geometry":{"x":173305.04000000004,"y":2546491.8200000022}},{"attributes":{"ID":230499,"DIS_CODE":0,"TOWNNAME":"永康區","LI":"復華里","LIN":"23鄰","STREET":"國華街","SECT":" ","MAREA":" ","LANE":"９７巷","ALLEY":" ","HOUSE_NO":"２號","E_COORD97":172734.98000000001,"N_COORD97":2546101,"ADDRESS":"國華街９７巷２號","OBJECTID":230495},"geometry":{"x":172734.98000000231,"y":2546101}},{"attributes":{"ID":230500,"DIS_CODE":0,"TOWNNAME":"永康區","LI":"復國里","LIN":"23鄰","STREET":"復華三街","SECT":" ","MAREA":" ","LANE":"９０巷","ALLEY":" ","HOUSE_NO":"５５號","E_COORD97":172577.92999999999,"N_COORD97":2545680.2799999998,"ADDRESS":"復華三街９０巷５５號","OBJECTID":230496},"geometry":{"x":172577.9299999997,"y":2545680.2800000012}},{"attributes":{"ID":230501,"DIS_CODE":0,"TOWNNAME":"東區","LI":"東光里","LIN":"23鄰","STREET":"東安路","SECT":" ","MAREA":" ","LANE":"１５６巷","ALLEY":" ","HOUSE_NO":"２１號","E_COORD97":170844.79000000001,"N_COORD97":2543892.3900000001,"ADDRESS":"東安路１５６巷２１號","OBJECTID":230497},"geometry":{"x":170844.79000000097,"y":2543892.3900000006}},{"attributes":{"ID":230502,"DIS_CODE":0,"TOWNNAME":"中西區","LI":"安海里","LIN":"2鄰","STREET":"正興街","SECT":" ","MAREA":" ","LANE":" ","ALLEY":" ","HOUSE_NO":"２５６號三樓","E_COORD97":167400.04000000001,"N_COORD97":2544024.9399999999,"ADDRESS":"正興街２５６號三樓","OBJECTID":230498},"geometry":{"x":167400.04000000097,"y":2544024.9400000013}},{"attributes":{"ID":230503,"DIS_CODE":0,"TOWNNAME":"永康區","LI":"北灣里","LIN":"32鄰","STREET":"大同街","SECT":" ","MAREA":" ","LANE":"８７巷","ALLEY":" ","HOUSE_NO":"２號","E_COORD97":175103.35000000001,"N_COORD97":2545463.1400000001,"ADDRESS":"大同街８７巷２號","OBJECTID":230499},"geometry":{"x":175103.35000000056,"y":2545463.1400000025}},{"attributes":{"ID":230504,"DIS_CODE":0,"TOWNNAME":"永康區","LI":"尚頂里","LIN":"12鄰","STREET":"尚頂路","SECT":" ","MAREA":" ","LANE":"５２巷","ALLEY":" ","HOUSE_NO":"６號","E_COORD97":171227.72,"N_COORD97":2547511.48,"ADDRESS":"尚頂路５２巷６號","OBJECTID":230500},"geometry":{"x":171227.72000000067,"y":2547511.4800000023}},{"attributes":{"ID":230505,"DIS_CODE":0,"TOWNNAME":"永康區","LI":"正強里","LIN":"25鄰","STREET":"中正路","SECT":" ","MAREA":" ","LANE":"１２７巷","ALLEY":" ","HOUSE_NO":"６號","E_COORD97":173364.54000000001,"N_COORD97":2547851.9900000002,"ADDRESS":"中正路１２７巷６號","OBJECTID":230501},"geometry":{"x":173364.54000000004,"y":2547851.9900000002}},{"attributes":{"ID":230506,"DIS_CODE":0,"TOWNNAME":"永康區","LI":"正強里","LIN":"46鄰","STREET":"中正路","SECT":" ","MAREA":" ","LANE":"２５６巷","ALLEY":" ","HOUSE_NO":"９號之２９","E_COORD97":173207.14000000001,"N_COORD97":2547991.8799999999,"ADDRESS":"中正路２５６巷９號之２９","OBJECTID":230502},"geometry":{"x":173207.13999999966,"y":2547991.8800000008}},{"attributes":{"ID":230507,"DIS_CODE":0,"TOWNNAME":"永康區","LI":"甲頂里","LIN":"13鄰","STREET":"正新街","SECT":" ","MAREA":" ","LANE":"１７巷","ALLEY":" ","HOUSE_NO":"１３號","E_COORD97":170363.78,"N_COORD97":2546556.5099999998,"ADDRESS":"正新街１７巷１３號","OBJECTID":230503},"geometry":{"x":170363.78000000026,"y":2546556.5100000035}},{"attributes":{"ID":230508,"DIS_CODE":0,"TOWNNAME":"永康區","LI":"西灣里","LIN":"52鄰","STREET":"永華路","SECT":" ","MAREA":" ","LANE":"３３９巷","ALLEY":" ","HOUSE_NO":"１７號","E_COORD97":173964.81,"N_COORD97":2545937.7400000002,"ADDRESS":"永華路３３９巷１７號","OBJECTID":230504},"geometry":{"x":173964.81000000052,"y":2545937.7400000002}},{"attributes":{"ID":230509,"DIS_CODE":0,"TOWNNAME":"中西區","LI":"保安里","LIN":"2鄰","STREET":"西門路","SECT":"二段","MAREA":" ","LANE":"２５巷","ALLEY":" ","HOUSE_NO":"１號一樓之１","E_COORD97":167735.10999999999,"N_COORD97":2543519.25,"ADDRESS":"西門路二段２５巷１號一樓之１","OBJECTID":230505},"geometry":{"x":167735.11000000127,"y":2543519.25}},{"attributes":{"ID":230510,"DIS_CODE":0,"TOWNNAME":"中西區","LI":"保安里","LIN":"2鄰","STREET":"西門路","SECT":"二段","MAREA":" ","LANE":"２５巷","ALLEY":" ","HOUSE_NO":"１號二樓之１","E_COORD97":167735.10999999999,"N_COORD97":2543519.25,"ADDRESS":"西門路二段２５巷１號二樓之１","OBJECTID":230506},"geometry":{"x":167735.11000000127,"y":2543519.25}},{"attributes":{"ID":230511,"DIS_CODE":0,"TOWNNAME":"中西區","LI":"保安里","LIN":"2鄰","STREET":"西門路","SECT":"二段","MAREA":" ","LANE":"２５巷","ALLEY":" ","HOUSE_NO":"１號二樓之２","E_COORD97":167735.10999999999,"N_COORD97":2543519.25,"ADDRESS":"西門路二段２５巷１號二樓之２","OBJECTID":230507},"geometry":{"x":167735.11000000127,"y":2543519.25}},{"attributes":{"ID":230512,"DIS_CODE":0,"TOWNNAME":"中西區","LI":"保安里","LIN":"2鄰","STREET":"西門路","SECT":"二段","MAREA":" ","LANE":"２５巷","ALLEY":" ","HOUSE_NO":"１號三樓","E_COORD97":167735.10999999999,"N_COORD97":2543519.25,"ADDRESS":"西門路二段２５巷１號三樓","OBJECTID":230508},"geometry":{"x":167735.11000000127,"y":2543519.25}},{"attributes":{"ID":230513,"DIS_CODE":0,"TOWNNAME":"中西區","LI":"保安里","LIN":"2鄰","STREET":"西門路","SECT":"二段","MAREA":" ","LANE":"２５巷","ALLEY":" ","HOUSE_NO":"１號三樓之１","E_COORD97":167735.10999999999,"N_COORD97":2543519.25,"ADDRESS":"西門路二段２５巷１號三樓之１","OBJECTID":230509},"geometry":{"x":167735.11000000127,"y":2543519.25}},{"attributes":{"ID":230514,"DIS_CODE":0,"TOWNNAME":"中西區","LI":"保安里","LIN":"2鄰","STREET":"西門路","SECT":"二段","MAREA":" ","LANE":"２５巷","ALLEY":" ","HOUSE_NO":"１號三樓之２","E_COORD97":167735.10999999999,"N_COORD97":2543519.25,"ADDRESS":"西門路二段２５巷１號三樓之２","OBJECTID":230510},"geometry":{"x":167735.11000000127,"y":2543519.25}},{"attributes":{"ID":230515,"DIS_CODE":0,"TOWNNAME":"中西區","LI":"保安里","LIN":"2鄰","STREET":"西門路","SECT":"二段","MAREA":" ","LANE":"２５巷","ALLEY":" ","HOUSE_NO":"１號四樓之１","E_COORD97":167735.10999999999,"N_COORD97":2543519.25,"ADDRESS":"西門路二段２５巷１號四樓之１","OBJECTID":230511},"geometry":{"x":167735.11000000127,"y":2543519.25}},{"attributes":{"ID":230516,"DIS_CODE":0,"TOWNNAME":"歸仁區","LI":"南保里","LIN":"47鄰","STREET":"民權十街","SECT":" ","MAREA":" ","LANE":" ","ALLEY":" ","HOUSE_NO":"１３３號","E_COORD97":176725.64000000001,"N_COORD97":2540645.29,"ADDRESS":"民權十街１３３號","OBJECTID":230512},"geometry":{"x":176725.6400000006,"y":2540645.290000001}},{"attributes":{"ID":230517,"DIS_CODE":0,"TOWNNAME":"歸仁區","LI":"後市里","LIN":"47鄰","STREET":"文化街","SECT":"二段","MAREA":" ","LANE":" ","ALLEY":" ","HOUSE_NO":"１１７號","E_COORD97":177199.04000000001,"N_COORD97":2541186.7599999998,"ADDRESS":"文化街二段１１７號","OBJECTID":230513},"geometry":{"x":177199.04000000004,"y":2541186.7599999998}},{"attributes":{"ID":230518,"DIS_CODE":0,"TOWNNAME":"歸仁區","LI":"南保里","LIN":"47鄰","STREET":"大順街","SECT":" ","MAREA":" ","LANE":" ","ALLEY":" ","HOUSE_NO":"２４６號","E_COORD97":176748.97,"N_COORD97":2540616.25,"ADDRESS":"大順街２４６號","OBJECTID":230514},"geometry":{"x":176748.97000000067,"y":2540616.2500000019}},{"attributes":{"ID":230519,"DIS_CODE":0,"TOWNNAME":"歸仁區","LI":"南保里","LIN":"47鄰","STREET":"民權十街","SECT":" ","MAREA":" ","LANE":" ","ALLEY":" ","HOUSE_NO":"１３９號","E_COORD97":176724.54000000001,"N_COORD97":2540632.29,"ADDRESS":"民權十街１３９號","OBJECTID":230515},"geometry":{"x":176724.53999999911,"y":2540632.290000001}},{"attributes":{"ID":230520,"DIS_CODE":0,"TOWNNAME":"歸仁區","LI":"南保里","LIN":"47鄰","STREET":"民權十街","SECT":" ","MAREA":" ","LANE":" ","ALLEY":" ","HOUSE_NO":"１３７號","E_COORD97":176725.64000000001,"N_COORD97":2540636.29,"ADDRESS":"民權十街１３７號","OBJECTID":230516},"geometry":{"x":176725.6400000006,"y":2540636.2899999991}},{"attributes":{"ID":230521,"DIS_CODE":0,"TOWNNAME":"歸仁區","LI":"南保里","LIN":"47鄰","STREET":"民權十街","SECT":" ","MAREA":" ","LANE":" ","ALLEY":" ","HOUSE_NO":"１３５號","E_COORD97":176725.64000000001,"N_COORD97":2540640.29,"ADDRESS":"民權十街１３５號","OBJECTID":230517},"geometry":{"x":176725.6400000006,"y":2540640.2899999991}},{"attributes":{"ID":230522,"DIS_CODE":0,"TOWNNAME":"歸仁區","LI":"南保里","LIN":"47鄰","STREET":"民權十街","SECT":" ","MAREA":" ","LANE":" ","ALLEY":" ","HOUSE_NO":"１２９號","E_COORD97":176725.64000000001,"N_COORD97":2540652.29,"ADDRESS":"民權十街１２９號","OBJECTID":230518},"geometry":{"x":176725.6400000006,"y":2540652.290000001}},{"attributes":{"ID":230523,"DIS_CODE":0,"TOWNNAME":"歸仁區","LI":"南保里","LIN":"47鄰","STREET":"大順街","SECT":" ","MAREA":" ","LANE":" ","ALLEY":" ","HOUSE_NO":"２５０號","E_COORD97":176740.76999999999,"N_COORD97":2540616.25,"ADDRESS":"大順街２５０號","OBJECTID":230519},"geometry":{"x":176740.76999999955,"y":2540616.2500000019}},{"attributes":{"ID":230524,"DIS_CODE":0,"TOWNNAME":"歸仁區","LI":"辜厝里","LIN":"47鄰","STREET":"民權九街","SECT":" ","MAREA":" ","LANE":" ","ALLEY":" ","HOUSE_NO":"６０號","E_COORD97":177090.62,"N_COORD97":2540339.0299999998,"ADDRESS":"民權九街６０號","OBJECTID":230520},"geometry":{"x":177090.62000000104,"y":2540339.0300000012}},{"attributes":{"ID":230525,"DIS_CODE":0,"TOWNNAME":"中西區","LI":"保安里","LIN":"2鄰","STREET":"西門路","SECT":"二段","MAREA":" ","LANE":"２５巷","ALLEY":" ","HOUSE_NO":"１號四樓之２","E_COORD97":167735.10999999999,"N_COORD97":2543519.25,"ADDRESS":"西門路二段２５巷１號四樓之２","OBJECTID":230521},"geometry":{"x":167735.11000000127,"y":2543519.25}},{"attributes":{"ID":230526,"DIS_CODE":0,"TOWNNAME":"永康區","LI":"大灣里","LIN":"12鄰","STREET":"民族路","SECT":" ","MAREA":" ","LANE":"３８０巷","ALLEY":" ","HOUSE_NO":"２號","E_COORD97":174816.70999999999,"N_COORD97":2545394.04,"ADDRESS":"民族路３８０巷２號","OBJECTID":230522},"geometry":{"x":174816.71000000089,"y":2545394.040000001}},{"attributes":{"ID":230527,"DIS_CODE":0,"TOWNNAME":"永康區","LI":"五王里","LIN":"38鄰","STREET":"中華路","SECT":" ","MAREA":" ","LANE":"５７８巷","ALLEY":" ","HOUSE_NO":"１７號之１","E_COORD97":171332.32000000001,"N_COORD97":2545989.54,"ADDRESS":"中華路５７８巷１７號之１","OBJECTID":230523},"geometry":{"x":171332.32000000216,"y":2545989.5400000028}},{"attributes":{"ID":230528,"DIS_CODE":0,"TOWNNAME":"永康區","LI":"中興里","LIN":"13鄰","STREET":"中興街","SECT":" ","MAREA":" ","LANE":"５２巷","ALLEY":" ","HOUSE_NO":"２號","E_COORD97":172106.69,"N_COORD97":2545237.0800000001,"ADDRESS":"中興街５２巷２號","OBJECTID":230524},"geometry":{"x":172106.69000000134,"y":2545237.0800000001}},{"attributes":{"ID":230529,"DIS_CODE":0,"TOWNNAME":"永康區","LI":"網寮里","LIN":"19鄰","STREET":"永大一路","SECT":" ","MAREA":" ","LANE":"３８０巷","ALLEY":" ","HOUSE_NO":"１１號","E_COORD97":173475.37,"N_COORD97":2546187.3700000001,"ADDRESS":"永大一路３８０巷１１號","OBJECTID":230525},"geometry":{"x":173475.37000000011,"y":2546187.3700000029}},{"attributes":{"ID":230530,"DIS_CODE":0,"TOWNNAME":"永康區","LI":"龍潭里","LIN":"2鄰","STREET":"龍潭街","SECT":" ","MAREA":" ","LANE":"７５巷","ALLEY":" ","HOUSE_NO":"２號二樓之４","E_COORD97":174794.45999999999,"N_COORD97":2548051.3599999999,"ADDRESS":"龍潭街７５巷２號二樓之４","OBJECTID":230526},"geometry":{"x":174794.46000000089,"y":2548051.3599999994}},{"attributes":{"ID":230531,"DIS_CODE":0,"TOWNNAME":"永康區","LI":"南灣里","LIN":"31鄰","STREET":"大安街","SECT":" ","MAREA":" ","LANE":"２７巷","ALLEY":" ","HOUSE_NO":"７號","E_COORD97":174402.16,"N_COORD97":2544816.6899999999,"ADDRESS":"大安街２７巷７號","OBJECTID":230527},"geometry":{"x":174402.16000000108,"y":2544816.6900000013}},{"attributes":{"ID":230532,"DIS_CODE":0,"TOWNNAME":"永康區","LI":"崑山里","LIN":"25鄰","STREET":"大灣路","SECT":" ","MAREA":" ","LANE":"９４２巷","ALLEY":" ","HOUSE_NO":"８２號","E_COORD97":173706.76000000001,"N_COORD97":2544696.79,"ADDRESS":"大灣路９４２巷８２號","OBJECTID":230528},"geometry":{"x":173706.75999999978,"y":2544696.790000001}},{"attributes":{"ID":230533,"DIS_CODE":0,"TOWNNAME":"永康區","LI":"北灣里","LIN":"39鄰","STREET":"大同街","SECT":" ","MAREA":" ","LANE":"６３６巷","ALLEY":" ","HOUSE_NO":"２６號","E_COORD97":174683.91,"N_COORD97":2546368.2200000002,"ADDRESS":"大同街６３６巷２６號","OBJECTID":230529},"geometry":{"x":174683.91000000015,"y":2546368.2200000007}},{"attributes":{"ID":230534,"DIS_CODE":0,"TOWNNAME":"永康區","LI":"西勢里","LIN":"16鄰","STREET":"西勢路","SECT":" ","MAREA":" ","LANE":"８２巷","ALLEY":" ","HOUSE_NO":"１０號","E_COORD97":176110.20000000001,"N_COORD97":2546800.4700000002,"ADDRESS":"西勢路８２巷１０號","OBJECTID":230530},"geometry":{"x":176110.20000000112,"y":2546800.4700000007}},{"attributes":{"ID":230535,"DIS_CODE":0,"TOWNNAME":"永康區","LI":"南灣里","LIN":"39鄰","STREET":"大安街","SECT":" ","MAREA":" ","LANE":"９７巷","ALLEY":" ","HOUSE_NO":"４９號","E_COORD97":174431.07999999999,"N_COORD97":2545068.3399999999,"ADDRESS":"大安街９７巷４９號","OBJECTID":230531},"geometry":{"x":174431.08000000101,"y":2545068.3399999999}},{"attributes":{"ID":230536,"DIS_CODE":0,"TOWNNAME":"永康區","LI":"西橋里","LIN":"14鄰","STREET":"中華西街","SECT":" ","MAREA":" ","LANE":"２３１巷","ALLEY":" ","HOUSE_NO":"５號","E_COORD97":170614.42000000001,"N_COORD97":2546391.4900000002,"ADDRESS":"中華西街２３１巷５號","OBJECTID":230532},"geometry":{"x":170614.42000000086,"y":2546391.4900000021}},{"attributes":{"ID":230537,"DIS_CODE":0,"TOWNNAME":"永康區","LI":"正強里","LIN":"8鄰","STREET":"正義街","SECT":" ","MAREA":" ","LANE":"４９巷","ALLEY":" ","HOUSE_NO":"６號","E_COORD97":173566.92999999999,"N_COORD97":2547614.2599999998,"ADDRESS":"正義街４９巷６號","OBJECTID":230533},"geometry":{"x":173566.93000000156,"y":2547614.2600000016}},{"attributes":{"ID":230538,"DIS_CODE":0,"TOWNNAME":"永康區","LI":"大橋里","LIN":"7鄰","STREET":"大橋三街","SECT":" ","MAREA":" ","LANE":"１９９巷","ALLEY":" ","HOUSE_NO":"９７號","E_COORD97":170971.53,"N_COORD97":2546934.2200000002,"ADDRESS":"大橋三街１９９巷９７號","OBJECTID":230534},"geometry":{"x":170971.53000000212,"y":2546934.2200000007}},{"attributes":{"ID":230539,"DIS_CODE":0,"TOWNNAME":"永康區","LI":"北灣里","LIN":"10鄰","STREET":"大灣路","SECT":" ","MAREA":" ","LANE":"１０２巷","ALLEY":" ","HOUSE_NO":"８號","E_COORD97":175172.48999999999,"N_COORD97":2545717.1099999999,"ADDRESS":"大灣路１０２巷８號","OBJECTID":230535},"geometry":{"x":175172.49000000209,"y":2545717.1099999994}},{"attributes":{"ID":230540,"DIS_CODE":0,"TOWNNAME":"永康區","LI":"龍潭里","LIN":"2鄰","STREET":"龍潭街","SECT":" ","MAREA":" ","LANE":"７５巷","ALLEY":" ","HOUSE_NO":"２號四樓之１","E_COORD97":174794.42999999999,"N_COORD97":2548051.3599999999,"ADDRESS":"龍潭街７５巷２號四樓之１","OBJECTID":230536},"geometry":{"x":174794.43000000063,"y":2548051.3599999994}},{"attributes":{"ID":230541,"DIS_CODE":0,"TOWNNAME":"永康區","LI":"龍潭里","LIN":"2鄰","STREET":"龍潭街","SECT":" ","MAREA":" ","LANE":"７５巷","ALLEY":" ","HOUSE_NO":"２號六樓之４","E_COORD97":174794.45999999999,"N_COORD97":2548051.3599999999,"ADDRESS":"龍潭街７５巷２號六樓之４","OBJECTID":230537},"geometry":{"x":174794.46000000089,"y":2548051.3599999994}},{"attributes":{"ID":230542,"DIS_CODE":0,"TOWNNAME":"永康區","LI":"龍潭里","LIN":"2鄰","STREET":"龍潭街","SECT":" ","MAREA":" ","LANE":"７５巷","ALLEY":" ","HOUSE_NO":"２號六樓之３","E_COORD97":174794.53,"N_COORD97":2548051.3599999999,"ADDRESS":"龍潭街７５巷２號六樓之３","OBJECTID":230538},"geometry":{"x":174794.53000000119,"y":2548051.3599999994}},{"attributes":{"ID":230543,"DIS_CODE":0,"TOWNNAME":"永康區","LI":"烏竹里","LIN":"4鄰","STREET":"烏竹街","SECT":" ","MAREA":" ","LANE":"６２巷","ALLEY":" ","HOUSE_NO":"４１號之１","E_COORD97":174605.38,"N_COORD97":2549355.5499999998,"ADDRESS":"烏竹街６２巷４１號之１","OBJECTID":230539},"geometry":{"x":174605.38000000082,"y":2549355.5500000026}},{"attributes":{"ID":230544,"DIS_CODE":0,"TOWNNAME":"永康區","LI":"東灣里","LIN":"13鄰","STREET":"大灣路","SECT":" ","MAREA":" ","LANE":"３５７巷","ALLEY":" ","HOUSE_NO":"１５號","E_COORD97":174823.17999999999,"N_COORD97":2544924.6000000001,"ADDRESS":"大灣路３５７巷１５號","OBJECTID":230540},"geometry":{"x":174823.18000000063,"y":2544924.5999999996}},{"attributes":{"ID":230545,"DIS_CODE":0,"TOWNNAME":"永康區","LI":"復國里","LIN":"14鄰","STREET":"復國二路","SECT":" ","MAREA":" ","LANE":"１８４巷","ALLEY":" ","HOUSE_NO":"８號","E_COORD97":172954.20999999999,"N_COORD97":2545719.54,"ADDRESS":"復國二路１８４巷８號","OBJECTID":230541},"geometry":{"x":172954.20999999996,"y":2545719.540000001}},{"attributes":{"ID":230546,"DIS_CODE":0,"TOWNNAME":"永康區","LI":"復華里","LIN":"35鄰","STREET":"復華七街","SECT":" ","MAREA":" ","LANE":"３９巷","ALLEY":" ","HOUSE_NO":"１２號","E_COORD97":172599.81,"N_COORD97":2546066.02,"ADDRESS":"復華七街３９巷１２號","OBJECTID":230542},"geometry":{"x":172599.81000000052,"y":2546066.0200000014}},{"attributes":{"ID":230547,"DIS_CODE":0,"TOWNNAME":"永康區","LI":"永康里","LIN":"35鄰","STREET":"大同街","SECT":" ","MAREA":" ","LANE":"９２８巷","ALLEY":" ","HOUSE_NO":"１０號","E_COORD97":174472.54999999999,"N_COORD97":2546995.4100000001,"ADDRESS":"大同街９２８巷１０號","OBJECTID":230543},"geometry":{"x":174472.54999999981,"y":2546995.410000002}},{"attributes":{"ID":230548,"DIS_CODE":0,"TOWNNAME":"永康區","LI":"西勢里","LIN":"2鄰","STREET":"西勢路","SECT":" ","MAREA":" ","LANE":"２７０巷","ALLEY":" ","HOUSE_NO":"１號","E_COORD97":175607.22,"N_COORD97":2546824.4399999999,"ADDRESS":"西勢路２７０巷１號","OBJECTID":230544},"geometry":{"x":175607.21999999974,"y":2546824.4400000032}},{"attributes":{"ID":230549,"DIS_CODE":0,"TOWNNAME":"永康區","LI":"甲頂里","LIN":"13鄰","STREET":"大武街","SECT":" ","MAREA":" ","LANE":"２巷","ALLEY":" ","HOUSE_NO":"４１號","E_COORD97":170393.60000000001,"N_COORD97":2546565.4900000002,"ADDRESS":"大武街２巷４１號","OBJECTID":230545},"geometry":{"x":170393.59999999963,"y":2546565.4900000021}},{"attributes":{"ID":230550,"DIS_CODE":0,"TOWNNAME":"永康區","LI":"尚頂里","LIN":"3鄰","STREET":"中正二街","SECT":" ","MAREA":" ","LANE":"１６２巷","ALLEY":" ","HOUSE_NO":"３７號","E_COORD97":171393.62,"N_COORD97":2547519.4500000002,"ADDRESS":"中正二街１６２巷３７號","OBJECTID":230546},"geometry":{"x":171393.62000000104,"y":2547519.450000003}},{"attributes":{"ID":230551,"DIS_CODE":0,"TOWNNAME":"永康區","LI":"王行里","LIN":"15鄰","STREET":"龍昌街","SECT":" ","MAREA":" ","LANE":"１２０巷","ALLEY":" ","HOUSE_NO":"２６號","E_COORD97":175091.04999999999,"N_COORD97":2548057.3999999999,"ADDRESS":"龍昌街１２０巷２６號","OBJECTID":230547},"geometry":{"x":175091.04999999981,"y":2548057.4000000022}},{"attributes":{"ID":230552,"DIS_CODE":0,"TOWNNAME":"永康區","LI":"北灣里","LIN":"37鄰","STREET":"大同街","SECT":" ","MAREA":" ","LANE":"３２０巷","ALLEY":" ","HOUSE_NO":"１５號","E_COORD97":174796.67999999999,"N_COORD97":2545988.2999999998,"ADDRESS":"大同街３２０巷１５號","OBJECTID":230548},"geometry":{"x":174796.68000000063,"y":2545988.3000000007}},{"attributes":{"ID":230553,"DIS_CODE":0,"TOWNNAME":"永康區","LI":"安康里","LIN":"23鄰","STREET":"中華西街","SECT":" ","MAREA":" ","LANE":"１２２巷","ALLEY":" ","HOUSE_NO":"３５號","E_COORD97":170837.35999999999,"N_COORD97":2546236,"ADDRESS":"中華西街１２２巷３５號","OBJECTID":230549},"geometry":{"x":170837.36000000127,"y":2546236.0000000019}},{"attributes":{"ID":230554,"DIS_CODE":0,"TOWNNAME":"永康區","LI":"東灣里","LIN":"25鄰","STREET":"大灣二街","SECT":" ","MAREA":" ","LANE":"７１巷","ALLEY":" ","HOUSE_NO":"１２號","E_COORD97":174793.17999999999,"N_COORD97":2544690.9199999999,"ADDRESS":"大灣二街７１巷１２號","OBJECTID":230550},"geometry":{"x":174793.18000000063,"y":2544690.9200000018}},{"attributes":{"ID":230555,"DIS_CODE":0,"TOWNNAME":"永康區","LI":"西灣里","LIN":"41鄰","STREET":"國光六街","SECT":" ","MAREA":" ","LANE":"９０巷","ALLEY":" ","HOUSE_NO":"１２號","E_COORD97":174050.48000000001,"N_COORD97":2545384.9500000002,"ADDRESS":"國光六街９０巷１２號","OBJECTID":230551},"geometry":{"x":174050.48000000231,"y":2545384.9500000011}},{"attributes":{"ID":230556,"DIS_CODE":0,"TOWNNAME":"永康區","LI":"神洲里","LIN":"12鄰","STREET":"忠孝路","SECT":" ","MAREA":" ","LANE":"１５２巷","ALLEY":" ","HOUSE_NO":"２６號","E_COORD97":172194.73000000001,"N_COORD97":2545072.25,"ADDRESS":"忠孝路１５２巷２６號","OBJECTID":230552},"geometry":{"x":172194.73000000138,"y":2545072.25}},{"attributes":{"ID":230557,"DIS_CODE":0,"TOWNNAME":"永康區","LI":"復國里","LIN":"16鄰","STREET":"復國二路","SECT":" ","MAREA":" ","LANE":"１８４巷","ALLEY":" ","HOUSE_NO":"１３號","E_COORD97":172980.56,"N_COORD97":2545729.2799999998,"ADDRESS":"復國二路１８４巷１３號","OBJECTID":230553},"geometry":{"x":172980.55999999959,"y":2545729.2799999993}},{"attributes":{"ID":230558,"DIS_CODE":0,"TOWNNAME":"永康區","LI":"崑山里","LIN":"26鄰","STREET":"大灣路","SECT":" ","MAREA":" ","LANE":"９４２巷","ALLEY":" ","HOUSE_NO":"１５７號","E_COORD97":173707.53,"N_COORD97":2544758.25,"ADDRESS":"大灣路９４２巷１５７號","OBJECTID":230554},"geometry":{"x":173707.53000000212,"y":2544758.2500000037}},{"attributes":{"ID":230559,"DIS_CODE":0,"TOWNNAME":"新市區","LI":"大社里","LIN":"23鄰","STREET":" ","SECT":" ","MAREA":"大社","LANE":" ","ALLEY":" ","HOUSE_NO":"８５７號","E_COORD97":179650.82000000001,"N_COORD97":2554116.25,"ADDRESS":"大社８５７號","OBJECTID":230555},"geometry":{"x":179650.82000000123,"y":2554116.2500000019}},{"attributes":{"ID":230560,"DIS_CODE":0,"TOWNNAME":"永康區","LI":"崑山里","LIN":"46鄰","STREET":"崑山街","SECT":" ","MAREA":" ","LANE":"２５８巷","ALLEY":" ","HOUSE_NO":"１３號","E_COORD97":174172.82000000001,"N_COORD97":2545141.3300000001,"ADDRESS":"崑山街２５８巷１３號","OBJECTID":230556},"geometry":{"x":174172.8200000003,"y":2545141.3300000019}},{"attributes":{"ID":230561,"DIS_CODE":0,"TOWNNAME":"永康區","LI":"復國里","LIN":"28鄰","STREET":"復華二街","SECT":" ","MAREA":" ","LANE":"１２巷","ALLEY":" ","HOUSE_NO":"１５號","E_COORD97":172624.45999999999,"N_COORD97":2545388.5299999998,"ADDRESS":"復華二街１２巷１５號","OBJECTID":230557},"geometry":{"x":172624.46000000183,"y":2545388.5299999993}},{"attributes":{"ID":230562,"DIS_CODE":0,"TOWNNAME":"永康區","LI":"正強里","LIN":"16鄰","STREET":"自強路","SECT":" ","MAREA":" ","LANE":"２１６巷","ALLEY":" ","HOUSE_NO":"７號","E_COORD97":173290.31,"N_COORD97":2547575.5,"ADDRESS":"自強路２１６巷７號","OBJECTID":230558},"geometry":{"x":173290.31000000052,"y":2547575.5000000019}},{"attributes":{"ID":230563,"DIS_CODE":0,"TOWNNAME":"永康區","LI":"正強里","LIN":"36鄰","STREET":"正強街","SECT":" ","MAREA":" ","LANE":"３０９巷","ALLEY":" ","HOUSE_NO":"６號","E_COORD97":173229.29999999999,"N_COORD97":2548171.3300000001,"ADDRESS":"正強街３０９巷６號","OBJECTID":230559},"geometry":{"x":173229.30000000075,"y":2548171.3300000001}},{"attributes":{"ID":230564,"DIS_CODE":0,"TOWNNAME":"永康區","LI":"成功里","LIN":"41鄰","STREET":"中華路","SECT":" ","MAREA":" ","LANE":"１５４巷","ALLEY":" ","HOUSE_NO":"４３號","E_COORD97":171728.85000000001,"N_COORD97":2544896.0099999998,"ADDRESS":"中華路１５４巷４３號","OBJECTID":230560},"geometry":{"x":171728.85000000056,"y":2544896.0100000016}},{"attributes":{"ID":230565,"DIS_CODE":0,"TOWNNAME":"永康區","LI":"正強里","LIN":"24鄰","STREET":"中正路","SECT":" ","MAREA":" ","LANE":"１２７巷","ALLEY":" ","HOUSE_NO":"１１號","E_COORD97":173382.95999999999,"N_COORD97":2547837.9900000002,"ADDRESS":"中正路１２７巷１１號","OBJECTID":230561},"geometry":{"x":173382.96000000089,"y":2547837.9900000002}},{"attributes":{"ID":230566,"DIS_CODE":0,"TOWNNAME":"永康區","LI":"尚頂里","LIN":"26鄰","STREET":"南台街","SECT":" ","MAREA":" ","LANE":"５４巷","ALLEY":" ","HOUSE_NO":"６號之５","E_COORD97":170384.44,"N_COORD97":2546992.54,"ADDRESS":"南台街５４巷６號之５","OBJECTID":230562},"geometry":{"x":170384.44000000134,"y":2546992.5399999991}},{"attributes":{"ID":230567,"DIS_CODE":0,"TOWNNAME":"永康區","LI":"復華里","LIN":"35鄰","STREET":"復國一路","SECT":" ","MAREA":" ","LANE":"４７５巷","ALLEY":" ","HOUSE_NO":"３號","E_COORD97":172592.95000000001,"N_COORD97":2546117.4900000002,"ADDRESS":"復國一路４７５巷３號","OBJECTID":230563},"geometry":{"x":172592.95000000112,"y":2546117.4900000021}},{"attributes":{"ID":230568,"DIS_CODE":0,"TOWNNAME":"安定區","LI":"蘇林里","LIN":"23鄰","STREET":" ","SECT":" ","MAREA":"蘇厝","LANE":" ","ALLEY":" ","HOUSE_NO":"２６３號","E_COORD97":173402.82000000001,"N_COORD97":2558723.25,"ADDRESS":"蘇厝２６３號","OBJECTID":230564},"geometry":{"x":173402.82000000123,"y":2558723.2500000037}},{"attributes":{"ID":230569,"DIS_CODE":0,"TOWNNAME":"永康區","LI":"正強里","LIN":"44鄰","STREET":"中正路","SECT":" ","MAREA":" ","LANE":"２５６巷","ALLEY":" ","HOUSE_NO":"５號之１３","E_COORD97":173155.19,"N_COORD97":2547982.8799999999,"ADDRESS":"中正路２５６巷５號之１３","OBJECTID":230565},"geometry":{"x":173155.19000000041,"y":2547982.879999999}},{"attributes":{"ID":230570,"DIS_CODE":0,"TOWNNAME":"安定區","LI":"蘇林里","LIN":"23鄰","STREET":" ","SECT":" ","MAREA":"蘇厝","LANE":" ","ALLEY":" ","HOUSE_NO":"２６１之４號","E_COORD97":173338.02492900001,"N_COORD97":2558736.4510400002,"ADDRESS":"蘇厝２６１之４號","OBJECTID":230566},"geometry":{"x":173338.02492900006,"y":2558736.4510440007}},{"attributes":{"ID":230571,"DIS_CODE":0,"TOWNNAME":"安定區","LI":"蘇林里","LIN":"23鄰","STREET":" ","SECT":" ","MAREA":"蘇厝","LANE":" ","ALLEY":" ","HOUSE_NO":"２６３號之１","E_COORD97":173405.35000000001,"N_COORD97":2558717.2999999998,"ADDRESS":"蘇厝２６３號之１","OBJECTID":230567},"geometry":{"x":173405.35000000056,"y":2558717.3000000026}},{"attributes":{"ID":230572,"DIS_CODE":0,"TOWNNAME":"安定區","LI":"蘇林里","LIN":"23鄰","STREET":" ","SECT":" ","MAREA":"蘇厝","LANE":" ","ALLEY":" ","HOUSE_NO":"２６５號","E_COORD97":173395.72,"N_COORD97":2558673.25,"ADDRESS":"蘇厝２６５號","OBJECTID":230568},"geometry":{"x":173395.72000000067,"y":2558673.2500000019}},{"attributes":{"ID":230573,"DIS_CODE":0,"TOWNNAME":"安定區","LI":"蘇林里","LIN":"23鄰","STREET":" ","SECT":" ","MAREA":"蘇厝","LANE":" ","ALLEY":" ","HOUSE_NO":"２５５號","E_COORD97":173314.42000000001,"N_COORD97":2558693.25,"ADDRESS":"蘇厝２５５號","OBJECTID":230569},"geometry":{"x":173314.41999999993,"y":2558693.2500000019}},{"attributes":{"ID":230574,"DIS_CODE":0,"TOWNNAME":"安定區","LI":"蘇林里","LIN":"23鄰","STREET":" ","SECT":" ","MAREA":"蘇厝","LANE":" ","ALLEY":" ","HOUSE_NO":"２５８號","E_COORD97":173360.12,"N_COORD97":2558660.25,"ADDRESS":"蘇厝２５８號","OBJECTID":230570},"geometry":{"x":173360.12000000011,"y":2558660.2500000019}},{"attributes":{"ID":230575,"DIS_CODE":0,"TOWNNAME":"永康區","LI":"北灣里","LIN":"19鄰","STREET":"大同街","SECT":" ","MAREA":" ","LANE":"２９３巷","ALLEY":" ","HOUSE_NO":"８號","E_COORD97":174733.14999999999,"N_COORD97":2545960.21,"ADDRESS":"大同街２９３巷８號","OBJECTID":230571},"geometry":{"x":174733.1500000013,"y":2545960.2100000028}},{"attributes":{"ID":230576,"DIS_CODE":0,"TOWNNAME":"永康區","LI":"尚頂里","LIN":"2鄰","STREET":"中正二街","SECT":" ","MAREA":" ","LANE":"１６９巷","ALLEY":" ","HOUSE_NO":"７號","E_COORD97":171342.87,"N_COORD97":2547755.75,"ADDRESS":"中正二街１６９巷７號","OBJECTID":230572},"geometry":{"x":171342.87000000011,"y":2547755.7500000019}},{"attributes":{"ID":230577,"DIS_CODE":0,"TOWNNAME":"永康區","LI":"建國里","LIN":"4鄰","STREET":"復興路","SECT":" ","MAREA":" ","LANE":"５４巷","ALLEY":" ","HOUSE_NO":"１號","E_COORD97":172869.04000000001,"N_COORD97":2544376.0299999998,"ADDRESS":"復興路５４巷１號","OBJECTID":230573},"geometry":{"x":172869.04000000004,"y":2544376.0300000031}},{"attributes":{"ID":230578,"DIS_CODE":0,"TOWNNAME":"永康區","LI":"永康里","LIN":"32鄰","STREET":"大同街","SECT":" ","MAREA":" ","LANE":"９７６巷","ALLEY":" ","HOUSE_NO":"５號","E_COORD97":174401.98000000001,"N_COORD97":2547128.4900000002,"ADDRESS":"大同街９７６巷５號","OBJECTID":230574},"geometry":{"x":174401.98000000138,"y":2547128.4900000002}},{"attributes":{"ID":230579,"DIS_CODE":0,"TOWNNAME":"永康區","LI":"成功里","LIN":"41鄰","STREET":"中華路","SECT":" ","MAREA":" ","LANE":"１５４巷","ALLEY":" ","HOUSE_NO":"４７號","E_COORD97":171735.82000000001,"N_COORD97":2544895.2599999998,"ADDRESS":"中華路１５４巷４７號","OBJECTID":230575},"geometry":{"x":171735.82000000216,"y":2544895.2600000016}},{"attributes":{"ID":230580,"DIS_CODE":0,"TOWNNAME":"永康區","LI":"甲頂里","LIN":"8鄰","STREET":"中華路","SECT":" ","MAREA":" ","LANE":"８９３巷","ALLEY":" ","HOUSE_NO":"５號","E_COORD97":170449.79999999999,"N_COORD97":2546658.0299999998,"ADDRESS":"中華路８９３巷５號","OBJECTID":230576},"geometry":{"x":170449.79999999981,"y":2546658.0300000012}},{"attributes":{"ID":230581,"DIS_CODE":0,"TOWNNAME":"安定區","LI":"蘇林里","LIN":"23鄰","STREET":" ","SECT":" ","MAREA":"蘇厝","LANE":" ","ALLEY":" ","HOUSE_NO":"２５９號","E_COORD97":173358.51999999999,"N_COORD97":2558677.25,"ADDRESS":"蘇厝２５９號","OBJECTID":230577},"geometry":{"x":173358.51999999955,"y":2558677.2500000019}},{"attributes":{"ID":230582,"DIS_CODE":0,"TOWNNAME":"安定區","LI":"蘇林里","LIN":"23鄰","STREET":" ","SECT":" ","MAREA":"蘇厝","LANE":" ","ALLEY":" ","HOUSE_NO":"２６１之３號","E_COORD97":173333.12,"N_COORD97":2558736.2999999998,"ADDRESS":"蘇厝２６１之３號","OBJECTID":230578},"geometry":{"x":173333.12000000011,"y":2558736.3000000007}},{"attributes":{"ID":230583,"DIS_CODE":0,"TOWNNAME":"安定區","LI":"蘇林里","LIN":"23鄰","STREET":" ","SECT":" ","MAREA":"蘇厝","LANE":" ","ALLEY":" ","HOUSE_NO":"２６０之３號","E_COORD97":173358.42000000001,"N_COORD97":2558707.2999999998,"ADDRESS":"蘇厝２６０之３號","OBJECTID":230579},"geometry":{"x":173358.41999999993,"y":2558707.3000000026}},{"attributes":{"ID":230584,"DIS_CODE":0,"TOWNNAME":"永康區","LI":"網寮里","LIN":"23鄰","STREET":"永春街","SECT":" ","MAREA":" ","LANE":"２０巷","ALLEY":" ","HOUSE_NO":"２６號","E_COORD97":173835.17000000001,"N_COORD97":2546301.6400000001,"ADDRESS":"永春街２０巷２６號","OBJECTID":230580},"geometry":{"x":173835.17000000086,"y":2546301.6400000006}},{"attributes":{"ID":230585,"DIS_CODE":0,"TOWNNAME":"中西區","LI":"法華里","LIN":"23鄰","STREET":"健康路","SECT":"一段","MAREA":" ","LANE":"１７０巷","ALLEY":" ","HOUSE_NO":"３號","E_COORD97":168689.03,"N_COORD97":2542477.1099999999,"ADDRESS":"健康路一段１７０巷３號","OBJECTID":230581},"geometry":{"x":168689.03000000026,"y":2542477.1100000031}},{"attributes":{"ID":230586,"DIS_CODE":0,"TOWNNAME":"中西區","LI":"法華里","LIN":"23鄰","STREET":"健康路","SECT":"一段","MAREA":" ","LANE":"１７０巷","ALLEY":" ","HOUSE_NO":"５號","E_COORD97":168688.70000000001,"N_COORD97":2542487.6899999999,"ADDRESS":"健康路一段１７０巷５號","OBJECTID":230582},"geometry":{"x":168688.70000000112,"y":2542487.6900000013}},{"attributes":{"ID":230587,"DIS_CODE":0,"TOWNNAME":"仁德區","LI":"成功里","LIN":"23鄰","STREET":"保華路","SECT":" ","MAREA":" ","LANE":"２６５巷","ALLEY":" ","HOUSE_NO":"２３號","E_COORD97":170676.98999999999,"N_COORD97":2539880.6400000001,"ADDRESS":"保華路２６５巷２３號","OBJECTID":230583},"geometry":{"x":170676.99000000115,"y":2539880.6399999987}},{"attributes":{"ID":230588,"DIS_CODE":0,"TOWNNAME":"永康區","LI":"網寮里","LIN":"25鄰","STREET":"永春街","SECT":" ","MAREA":" ","LANE":"９６巷","ALLEY":" ","HOUSE_NO":"６號","E_COORD97":173743.32999999999,"N_COORD97":2546519.4300000002,"ADDRESS":"永春街９６巷６號","OBJECTID":230584},"geometry":{"x":173743.33000000101,"y":2546519.4299999997}},{"attributes":{"ID":230589,"DIS_CODE":0,"TOWNNAME":"永康區","LI":"復華里","LIN":"40鄰","STREET":"復華六街","SECT":" ","MAREA":" ","LANE":"８８巷","ALLEY":" ","HOUSE_NO":"１０號","E_COORD97":172661.14000000001,"N_COORD97":2545885.46,"ADDRESS":"復華六街８８巷１０號","OBJECTID":230585},"geometry":{"x":172661.13999999966,"y":2545885.4600000009}},{"attributes":{"ID":230590,"DIS_CODE":0,"TOWNNAME":"永康區","LI":"網寮里","LIN":"24鄰","STREET":"永春街","SECT":" ","MAREA":" ","LANE":"４５巷","ALLEY":" ","HOUSE_NO":"１號","E_COORD97":173741.85000000001,"N_COORD97":2546375.6899999999,"ADDRESS":"永春街４５巷１號","OBJECTID":230586},"geometry":{"x":173741.8499999987,"y":2546375.6900000013}},{"attributes":{"ID":230591,"DIS_CODE":0,"TOWNNAME":"永康區","LI":"正強里","LIN":"15鄰","STREET":"正強街","SECT":" ","MAREA":" ","LANE":"６３巷","ALLEY":" ","HOUSE_NO":"１２號","E_COORD97":173310.98999999999,"N_COORD97":2547303.6499999999,"ADDRESS":"正強街６３巷１２號","OBJECTID":230587},"geometry":{"x":173310.99000000209,"y":2547303.6500000022}},{"attributes":{"ID":230592,"DIS_CODE":0,"TOWNNAME":"永康區","LI":"永康里","LIN":"28鄰","STREET":"永平街","SECT":" ","MAREA":" ","LANE":"４６９巷","ALLEY":" ","HOUSE_NO":"１６號","E_COORD97":174158.39999999999,"N_COORD97":2546882.3700000001,"ADDRESS":"永平街４６９巷１６號","OBJECTID":230588},"geometry":{"x":174158.4000000013,"y":2546882.3700000029}},{"attributes":{"ID":230593,"DIS_CODE":0,"TOWNNAME":"安定區","LI":"蘇林里","LIN":"23鄰","STREET":" ","SECT":" ","MAREA":"蘇厝","LANE":" ","ALLEY":" ","HOUSE_NO":"２６０之１號","E_COORD97":173359.22,"N_COORD97":2558698.2999999998,"ADDRESS":"蘇厝２６０之１號","OBJECTID":230589},"geometry":{"x":173359.21999999974,"y":2558698.3000000007}},{"attributes":{"ID":230594,"DIS_CODE":0,"TOWNNAME":"安定區","LI":"蘇林里","LIN":"23鄰","STREET":" ","SECT":" ","MAREA":"蘇厝","LANE":" ","ALLEY":" ","HOUSE_NO":"２６７號之２","E_COORD97":173405.69,"N_COORD97":2558698.2999999998,"ADDRESS":"蘇厝２６７號之２","OBJECTID":230590},"geometry":{"x":173405.69000000041,"y":2558698.3000000007}},{"attributes":{"ID":230595,"DIS_CODE":0,"TOWNNAME":"永康區","LI":"西勢里","LIN":"29鄰","STREET":"西勢路","SECT":" ","MAREA":" ","LANE":"１５８巷","ALLEY":" ","HOUSE_NO":"３５號","E_COORD97":175927.29000000001,"N_COORD97":2546854.3799999999,"ADDRESS":"西勢路１５８巷３５號","OBJECTID":230591},"geometry":{"x":175927.29000000004,"y":2546854.379999999}},{"attributes":{"ID":230596,"DIS_CODE":0,"TOWNNAME":"北區","LI":"中樓里","LIN":"2鄰","STREET":"前鋒路","SECT":" ","MAREA":" ","LANE":"１８５巷","ALLEY":" ","HOUSE_NO":"５號三樓之１","E_COORD97":169457.82000000001,"N_COORD97":2544754.2000000002,"ADDRESS":"前鋒路１８５巷５號三樓之１","OBJECTID":230592},"geometry":{"x":169457.82000000123,"y":2544754.1999999974}},{"attributes":{"ID":230597,"DIS_CODE":0,"TOWNNAME":"永康區","LI":"復華里","LIN":"11鄰","STREET":"復國二路","SECT":" ","MAREA":" ","LANE":"２４３巷","ALLEY":" ","HOUSE_NO":"７號","E_COORD97":172997.92999999999,"N_COORD97":2546096.77,"ADDRESS":"復國二路２４３巷７號","OBJECTID":230593},"geometry":{"x":172997.93000000063,"y":2546096.7700000033}},{"attributes":{"ID":230598,"DIS_CODE":0,"TOWNNAME":"歸仁區","LI":"南保里","LIN":"47鄰","STREET":"大順街","SECT":" ","MAREA":" ","LANE":" ","ALLEY":" ","HOUSE_NO":"２３６號","E_COORD97":176769.47,"N_COORD97":2540616.25,"ADDRESS":"大順街２３６號","OBJECTID":230594},"geometry":{"x":176769.47000000067,"y":2540616.2500000019}},{"attributes":{"ID":230599,"DIS_CODE":0,"TOWNNAME":"歸仁區","LI":"後市里","LIN":"47鄰","STREET":"文化街","SECT":"二段","MAREA":" ","LANE":" ","ALLEY":" ","HOUSE_NO":"１０１號","E_COORD97":177229.73999999999,"N_COORD97":2541175.7599999998,"ADDRESS":"文化街二段１０１號","OBJECTID":230595},"geometry":{"x":177229.74000000022,"y":2541175.7600000016}},{"attributes":{"ID":230600,"DIS_CODE":0,"TOWNNAME":"歸仁區","LI":"後市里","LIN":"47鄰","STREET":"文化街","SECT":"二段","MAREA":" ","LANE":" ","ALLEY":" ","HOUSE_NO":"１２３號","E_COORD97":177188.84,"N_COORD97":2541191.7599999998,"ADDRESS":"文化街二段１２３號","OBJECTID":230596},"geometry":{"x":177188.84000000078,"y":2541191.7600000016}},{"attributes":{"ID":230601,"DIS_CODE":0,"TOWNNAME":"歸仁區","LI":"後市里","LIN":"47鄰","STREET":"文化街","SECT":"二段","MAREA":" ","LANE":" ","ALLEY":" ","HOUSE_NO":"１３３號","E_COORD97":177170.44,"N_COORD97":2541197.7599999998,"ADDRESS":"文化街二段１３３號","OBJECTID":230597},"geometry":{"x":177170.44000000134,"y":2541197.7599999998}},{"attributes":{"ID":230602,"DIS_CODE":0,"TOWNNAME":"歸仁區","LI":"後市里","LIN":"47鄰","STREET":"文化街","SECT":"二段","MAREA":" ","LANE":" ","ALLEY":" ","HOUSE_NO":"１１１號","E_COORD97":177211.34,"N_COORD97":2541183.7599999998,"ADDRESS":"文化街二段１１１號","OBJECTID":230598},"geometry":{"x":177211.34000000078,"y":2541183.7599999998}},{"attributes":{"ID":230603,"DIS_CODE":0,"TOWNNAME":"歸仁區","LI":"後市里","LIN":"47鄰","STREET":"文化街","SECT":"二段","MAREA":" ","LANE":" ","ALLEY":" ","HOUSE_NO":"１０５號","E_COORD97":177221.64000000001,"N_COORD97":2541178.7599999998,"ADDRESS":"文化街二段１０５號","OBJECTID":230599},"geometry":{"x":177221.63999999966,"y":2541178.7600000016}},{"attributes":{"ID":230604,"DIS_CODE":0,"TOWNNAME":"歸仁區","LI":"後市里","LIN":"47鄰","STREET":"文化街","SECT":"二段","MAREA":" ","LANE":" ","ALLEY":" ","HOUSE_NO":"１０７號","E_COORD97":177217.54000000001,"N_COORD97":2541179.7599999998,"ADDRESS":"文化街二段１０７號","OBJECTID":230600},"geometry":{"x":177217.54000000004,"y":2541179.7599999998}}]}