{"displayFieldName":"TOWNNAME","fieldAliases":{"ID":"ID","DIS_CODE":"DIS_CODE","TOWNNAME":"TOWNNAME","LI":"LI","LIN":"LIN","STREET":"STREET","SECT":"SECT","MAREA":"MAREA","LANE":"LANE","ALLEY":"ALLEY","HOUSE_NO":"HOUSE_NO","E_COORD97":"E_COORD97","N_COORD97":"N_COORD97","ADDRESS":"ADDRESS","OBJECTID":"OBJECTID"},"geometryType":"esriGeometryPoint","spatialReference":{"wkid":102443,"latestWkid":3826},"fields":[{"name":"ID","type":"esriFieldTypeDouble","alias":"ID"},{"name":"DIS_CODE","type":"esriFieldTypeInteger","alias":"DIS_CODE"},{"name":"TOWNNAME","type":"esriFieldTypeString","alias":"TOWNNAME","length":8},{"name":"LI","type":"esriFieldTypeString","alias":"LI","length":8},{"name":"LIN","type":"esriFieldTypeString","alias":"LIN","length":12},{"name":"STREET","type":"esriFieldTypeString","alias":"STREET","length":20},{"name":"SECT","type":"esriFieldTypeString","alias":"SECT","length":8},{"name":"MAREA","type":"esriFieldTypeString","alias":"MAREA","length":12},{"name":"LANE","type":"esriFieldTypeString","alias":"LANE","length":10},{"name":"ALLEY","type":"esriFieldTypeString","alias":"ALLEY","length":10},{"name":"HOUSE_NO","type":"esriFieldTypeString","alias":"HOUSE_NO","length":20},{"name":"E_COORD97","type":"esriFieldTypeDouble","alias":"E_COORD97"},{"name":"N_COORD97","type":"esriFieldTypeDouble","alias":"N_COORD97"},{"name":"ADDRESS","type":"esriFieldTypeString","alias":"ADDRESS","length":50},{"name":"OBJECTID","type":"esriFieldTypeOID","alias":"OBJECTID"}],"features":[{"attributes":{"ID":81201,"DIS_CODE":0,"TOWNNAME":"安南區","LI":"淵東里","LIN":"12鄰","STREET":"海佃路","SECT":"四段","MAREA":" ","LANE":"５５巷","ALLEY":"４８弄","HOUSE_NO":"１１０號","E_COORD97":165573.64999999999,"N_COORD97":2550760.5699999998,"ADDRESS":"海佃路四段５５巷４８弄１１０號","OBJECTID":81201},"geometry":{"x":165573.6500000013,"y":2550760.5699999984}},{"attributes":{"ID":81202,"DIS_CODE":0,"TOWNNAME":"安南區","LI":"溪東里","LIN":"12鄰","STREET":"北安路","SECT":"二段","MAREA":" ","LANE":"６３巷","ALLEY":"６０弄","HOUSE_NO":"１２號","E_COORD97":168275.76999999999,"N_COORD97":2547396.6200000001,"ADDRESS":"北安路二段６３巷６０弄１２號","OBJECTID":81202},"geometry":{"x":168275.77000000048,"y":2547396.620000001}},{"attributes":{"ID":81203,"DIS_CODE":0,"TOWNNAME":"永康區","LI":"大橋里","LIN":"12鄰","STREET":"大橋二街","SECT":" ","MAREA":" ","LANE":"２３９巷","ALLEY":"２１弄","HOUSE_NO":"２５號","E_COORD97":171036.44,"N_COORD97":2546804.3599999999,"ADDRESS":"大橋二街２３９巷２１弄２５號","OBJECTID":81203},"geometry":{"x":171036.44000000041,"y":2546804.3599999994}},{"attributes":{"ID":81204,"DIS_CODE":0,"TOWNNAME":"永康區","LI":"三合里","LIN":"12鄰","STREET":"南工街","SECT":" ","MAREA":" ","LANE":"２４７巷","ALLEY":"３３弄","HOUSE_NO":"１３號","E_COORD97":171993.75,"N_COORD97":2545810.02,"ADDRESS":"南工街２４７巷３３弄１３號","OBJECTID":81204},"geometry":{"x":171993.75000000093,"y":2545810.0199999996}},{"attributes":{"ID":81205,"DIS_CODE":0,"TOWNNAME":"永康區","LI":"三合里","LIN":"12鄰","STREET":"南工街","SECT":" ","MAREA":" ","LANE":"２４７巷","ALLEY":"３３弄","HOUSE_NO":"９號","E_COORD97":171984.66,"N_COORD97":2545811.27,"ADDRESS":"南工街２４７巷３３弄９號","OBJECTID":81205},"geometry":{"x":171984.66000000108,"y":2545811.2699999996}},{"attributes":{"ID":81206,"DIS_CODE":0,"TOWNNAME":"永康區","LI":"三合里","LIN":"12鄰","STREET":"南工街","SECT":" ","MAREA":" ","LANE":"２４７巷","ALLEY":"３３弄","HOUSE_NO":"１９號","E_COORD97":172005.75,"N_COORD97":2545808.02,"ADDRESS":"南工街２４７巷３３弄１９號","OBJECTID":81206},"geometry":{"x":172005.75000000093,"y":2545808.0200000014}},{"attributes":{"ID":81207,"DIS_CODE":0,"TOWNNAME":"善化區","LI":"牛庄里","LIN":"7鄰","STREET":" ","SECT":" ","MAREA":"牛庄","LANE":" ","ALLEY":" ","HOUSE_NO":"８９號","E_COORD97":180095.34,"N_COORD97":2560077.75,"ADDRESS":"牛庄８９號","OBJECTID":81207},"geometry":{"x":180095.33999999985,"y":2560077.75}},{"attributes":{"ID":81208,"DIS_CODE":0,"TOWNNAME":"南區","LI":"明興里","LIN":"20鄰","STREET":"金華路","SECT":"一段","MAREA":" ","LANE":"８４巷","ALLEY":" ","HOUSE_NO":"８號","E_COORD97":166938.53,"N_COORD97":2540426.3999999999,"ADDRESS":"金華路一段８４巷８號","OBJECTID":81208},"geometry":{"x":166938.53000000212,"y":2540426.4000000022}},{"attributes":{"ID":81209,"DIS_CODE":0,"TOWNNAME":"南區","LI":"新昌里","LIN":"4鄰","STREET":"夏林路","SECT":" ","MAREA":" ","LANE":" ","ALLEY":" ","HOUSE_NO":"７號","E_COORD97":167485.03,"N_COORD97":2542866.6200000001,"ADDRESS":"夏林路７號","OBJECTID":81209},"geometry":{"x":167485.03000000119,"y":2542866.6200000029}},{"attributes":{"ID":81210,"DIS_CODE":0,"TOWNNAME":"白河區","LI":"永安里","LIN":"7鄰","STREET":"十全街","SECT":" ","MAREA":" ","LANE":" ","ALLEY":" ","HOUSE_NO":"２９９號","E_COORD97":189699.95999999999,"N_COORD97":2583108.8500000001,"ADDRESS":"十全街２９９號","OBJECTID":81210},"geometry":{"x":189699.95999999903,"y":2583108.8499999996}},{"attributes":{"ID":81211,"DIS_CODE":0,"TOWNNAME":"北區","LI":"延平里","LIN":"15鄰","STREET":"公園路","SECT":" ","MAREA":" ","LANE":" ","ALLEY":" ","HOUSE_NO":"８３８號","E_COORD97":169225.20999999999,"N_COORD97":2545957.9700000002,"ADDRESS":"公園路８３８號","OBJECTID":81211},"geometry":{"x":169225.20999999996,"y":2545957.9700000025}},{"attributes":{"ID":81212,"DIS_CODE":0,"TOWNNAME":"北區","LI":"延平里","LIN":"15鄰","STREET":"公園路","SECT":" ","MAREA":" ","LANE":" ","ALLEY":" ","HOUSE_NO":"８４０號","E_COORD97":169237.56,"N_COORD97":2545973.7000000002,"ADDRESS":"公園路８４０號","OBJECTID":81212},"geometry":{"x":169237.55999999959,"y":2545973.6999999993}},{"attributes":{"ID":81213,"DIS_CODE":0,"TOWNNAME":"歸仁區","LI":"歸南里","LIN":"15鄰","STREET":"民生南街","SECT":"二段","MAREA":" ","LANE":" ","ALLEY":" ","HOUSE_NO":"４０９號","E_COORD97":176160.64000000001,"N_COORD97":2539722.29,"ADDRESS":"民生南街二段４０９號","OBJECTID":81213},"geometry":{"x":176160.63999999873,"y":2539722.2900000028}},{"attributes":{"ID":81214,"DIS_CODE":0,"TOWNNAME":"歸仁區","LI":"崙頂里","LIN":"15鄰","STREET":"崙頂三街","SECT":" ","MAREA":" ","LANE":" ","ALLEY":" ","HOUSE_NO":"３１號","E_COORD97":177905.20999999999,"N_COORD97":2539907.1099999999,"ADDRESS":"崙頂三街３１號","OBJECTID":81214},"geometry":{"x":177905.21000000089,"y":2539907.1100000031}},{"attributes":{"ID":81215,"DIS_CODE":0,"TOWNNAME":"歸仁區","LI":"新厝里","LIN":"15鄰","STREET":"大成路","SECT":" ","MAREA":" ","LANE":" ","ALLEY":" ","HOUSE_NO":"１０號","E_COORD97":177548.37,"N_COORD97":2540465.5899999999,"ADDRESS":"大成路１０號","OBJECTID":81215},"geometry":{"x":177548.37000000104,"y":2540465.5899999999}},{"attributes":{"ID":81216,"DIS_CODE":0,"TOWNNAME":"歸仁區","LI":"新厝里","LIN":"15鄰","STREET":"中正南路","SECT":"一段","MAREA":" ","LANE":" ","ALLEY":" ","HOUSE_NO":"１１３號","E_COORD97":177517.64999999999,"N_COORD97":2540474.5899999999,"ADDRESS":"中正南路一段１１３號","OBJECTID":81216},"geometry":{"x":177517.65000000224,"y":2540474.5900000017}},{"attributes":{"ID":81217,"DIS_CODE":0,"TOWNNAME":"歸仁區","LI":"新厝里","LIN":"15鄰","STREET":"中正南路","SECT":"一段","MAREA":" ","LANE":" ","ALLEY":" ","HOUSE_NO":"１２５號","E_COORD97":177501.14999999999,"N_COORD97":2540456.5899999999,"ADDRESS":"中正南路一段１２５號","OBJECTID":81217},"geometry":{"x":177501.1500000013,"y":2540456.589999998}},{"attributes":{"ID":81218,"DIS_CODE":0,"TOWNNAME":"歸仁區","LI":"西埔里","LIN":"15鄰","STREET":"西埔二街","SECT":" ","MAREA":" ","LANE":" ","ALLEY":" ","HOUSE_NO":"９６號","E_COORD97":176813.34,"N_COORD97":2544797.25,"ADDRESS":"西埔二街９６號","OBJECTID":81218},"geometry":{"x":176813.33999999985,"y":2544797.2500000019}},{"attributes":{"ID":81219,"DIS_CODE":0,"TOWNNAME":"歸仁區","LI":"武東里","LIN":"15鄰","STREET":"中正南路","SECT":"二段","MAREA":" ","LANE":" ","ALLEY":" ","HOUSE_NO":"６７號","E_COORD97":175842.45999999999,"N_COORD97":2536305.5,"ADDRESS":"中正南路二段６７號","OBJECTID":81219},"geometry":{"x":175842.46000000089,"y":2536305.5000000019}},{"attributes":{"ID":81220,"DIS_CODE":0,"TOWNNAME":"歸仁區","LI":"大廟里","LIN":"15鄰","STREET":"大廟六街","SECT":" ","MAREA":" ","LANE":" ","ALLEY":" ","HOUSE_NO":"１３３號","E_COORD97":176267.22,"N_COORD97":2544387.25,"ADDRESS":"大廟六街１３３號","OBJECTID":81220},"geometry":{"x":176267.22000000067,"y":2544387.25}},{"attributes":{"ID":81221,"DIS_CODE":0,"TOWNNAME":"歸仁區","LI":"辜厝里","LIN":"15鄰","STREET":"中正南路","SECT":"一段","MAREA":" ","LANE":" ","ALLEY":" ","HOUSE_NO":"１１０號","E_COORD97":177510.64999999999,"N_COORD97":2540503.6899999999,"ADDRESS":"中正南路一段１１０號","OBJECTID":81221},"geometry":{"x":177510.65000000037,"y":2540503.6900000013}},{"attributes":{"ID":81222,"DIS_CODE":0,"TOWNNAME":"鹽水區","LI":"竹埔里","LIN":"1鄰","STREET":" ","SECT":" ","MAREA":"竹子腳","LANE":" ","ALLEY":" ","HOUSE_NO":"６號之１","E_COORD97":173111.76999999999,"N_COORD97":2574499.3799999999,"ADDRESS":"竹子腳６號之１","OBJECTID":81222},"geometry":{"x":173111.77000000142,"y":2574499.379999999}},{"attributes":{"ID":81223,"DIS_CODE":0,"TOWNNAME":"永康區","LI":"三合里","LIN":"12鄰","STREET":"南工街","SECT":" ","MAREA":" ","LANE":"２４７巷","ALLEY":"３３弄","HOUSE_NO":"８號","E_COORD97":171980.12,"N_COORD97":2545803.8399999999,"ADDRESS":"南工街２４７巷３３弄８號","OBJECTID":81223},"geometry":{"x":171980.12000000104,"y":2545803.8399999999}},{"attributes":{"ID":81224,"DIS_CODE":0,"TOWNNAME":"永康區","LI":"三合里","LIN":"12鄰","STREET":"南工街","SECT":" ","MAREA":" ","LANE":"２４７巷","ALLEY":"３３弄","HOUSE_NO":"３１號","E_COORD97":172029.79000000001,"N_COORD97":2545804.52,"ADDRESS":"南工街２４７巷３３弄３１號","OBJECTID":81224},"geometry":{"x":172029.79000000004,"y":2545804.5200000014}},{"attributes":{"ID":81225,"DIS_CODE":0,"TOWNNAME":"鹽水區","LI":"竹埔里","LIN":"1鄰","STREET":" ","SECT":" ","MAREA":"竹子腳","LANE":" ","ALLEY":" ","HOUSE_NO":"６號之２","E_COORD97":173173.26000000001,"N_COORD97":2574429.21,"ADDRESS":"竹子腳６號之２","OBJECTID":81225},"geometry":{"x":173173.26000000071,"y":2574429.2100000028}},{"attributes":{"ID":81226,"DIS_CODE":0,"TOWNNAME":"鹽水區","LI":"竹埔里","LIN":"1鄰","STREET":" ","SECT":" ","MAREA":"竹子腳","LANE":" ","ALLEY":" ","HOUSE_NO":"６號","E_COORD97":173080.51000000001,"N_COORD97":2574503.1400000001,"ADDRESS":"竹子腳６號","OBJECTID":81226},"geometry":{"x":173080.51000000071,"y":2574503.1400000006}},{"attributes":{"ID":81227,"DIS_CODE":0,"TOWNNAME":"鹽水區","LI":"竹埔里","LIN":"1鄰","STREET":" ","SECT":" ","MAREA":"竹子腳","LANE":" ","ALLEY":" ","HOUSE_NO":"７號","E_COORD97":173042.95000000001,"N_COORD97":2574478.1499999999,"ADDRESS":"竹子腳７號","OBJECTID":81227},"geometry":{"x":173042.95000000019,"y":2574478.1500000004}},{"attributes":{"ID":81228,"DIS_CODE":0,"TOWNNAME":"鹽水區","LI":"竹埔里","LIN":"1鄰","STREET":" ","SECT":" ","MAREA":"竹子腳","LANE":" ","ALLEY":" ","HOUSE_NO":"８號","E_COORD97":173023.48999999999,"N_COORD97":2574483.4500000002,"ADDRESS":"竹子腳８號","OBJECTID":81228},"geometry":{"x":173023.49000000115,"y":2574483.4500000011}},{"attributes":{"ID":81229,"DIS_CODE":0,"TOWNNAME":"鹽水區","LI":"飯店里","LIN":"1鄰","STREET":" ","SECT":" ","MAREA":"麻油寮","LANE":" ","ALLEY":" ","HOUSE_NO":"３１號之１","E_COORD97":168959.51999999999,"N_COORD97":2574667.48,"ADDRESS":"麻油寮３１號之１","OBJECTID":81229},"geometry":{"x":168959.51999999955,"y":2574667.4800000023}},{"attributes":{"ID":81230,"DIS_CODE":0,"TOWNNAME":"鹽水區","LI":"岸內里","LIN":"1鄰","STREET":" ","SECT":" ","MAREA":"蔦松腳","LANE":" ","ALLEY":" ","HOUSE_NO":"２之１１號","E_COORD97":175425.67999999999,"N_COORD97":2581526.3900000001,"ADDRESS":"蔦松腳２之１１號","OBJECTID":81230},"geometry":{"x":175425.6799999997,"y":2581526.3899999987}},{"attributes":{"ID":81231,"DIS_CODE":0,"TOWNNAME":"鹽水區","LI":"岸內里","LIN":"1鄰","STREET":" ","SECT":" ","MAREA":"蔦松腳","LANE":" ","ALLEY":" ","HOUSE_NO":"２號之１","E_COORD97":175525.20000000001,"N_COORD97":2581386.5099999998,"ADDRESS":"蔦松腳２號之１","OBJECTID":81231},"geometry":{"x":175525.20000000205,"y":2581386.5100000016}},{"attributes":{"ID":81232,"DIS_CODE":0,"TOWNNAME":"鹽水區","LI":"岸內里","LIN":"1鄰","STREET":" ","SECT":" ","MAREA":"蔦松腳","LANE":" ","ALLEY":" ","HOUSE_NO":"２號","E_COORD97":175618.95000000001,"N_COORD97":2581508.9900000002,"ADDRESS":"蔦松腳２號","OBJECTID":81232},"geometry":{"x":175618.95000000112,"y":2581508.9900000021}},{"attributes":{"ID":81233,"DIS_CODE":0,"TOWNNAME":"鹽水區","LI":"岸內里","LIN":"1鄰","STREET":" ","SECT":" ","MAREA":"蔦松腳","LANE":" ","ALLEY":" ","HOUSE_NO":"３號","E_COORD97":175584.29999999999,"N_COORD97":2581488.2000000002,"ADDRESS":"蔦松腳３號","OBJECTID":81233},"geometry":{"x":175584.29999999981,"y":2581488.1999999993}},{"attributes":{"ID":81234,"DIS_CODE":0,"TOWNNAME":"鹽水區","LI":"岸內里","LIN":"1鄰","STREET":" ","SECT":" ","MAREA":"蔦松腳","LANE":" ","ALLEY":" ","HOUSE_NO":"４號之１","E_COORD97":175846.23999999999,"N_COORD97":2581513.1299999999,"ADDRESS":"蔦松腳４號之１","OBJECTID":81234},"geometry":{"x":175846.24000000022,"y":2581513.1300000027}},{"attributes":{"ID":81235,"DIS_CODE":0,"TOWNNAME":"鹽水區","LI":"岸內里","LIN":"1鄰","STREET":" ","SECT":" ","MAREA":"蔦松腳","LANE":" ","ALLEY":" ","HOUSE_NO":"４號之２","E_COORD97":175859.17000000001,"N_COORD97":2581522.3100000001,"ADDRESS":"蔦松腳４號之２","OBJECTID":81235},"geometry":{"x":175859.17000000179,"y":2581522.3100000005}},{"attributes":{"ID":81236,"DIS_CODE":0,"TOWNNAME":"鹽水區","LI":"岸內里","LIN":"1鄰","STREET":" ","SECT":" ","MAREA":"蔦松腳","LANE":" ","ALLEY":" ","HOUSE_NO":"４之３號","E_COORD97":175953.23000000001,"N_COORD97":2581688.0299999998,"ADDRESS":"蔦松腳４之３號","OBJECTID":81236},"geometry":{"x":175953.23000000138,"y":2581688.0300000012}},{"attributes":{"ID":81237,"DIS_CODE":0,"TOWNNAME":"鹽水區","LI":"岸內里","LIN":"1鄰","STREET":" ","SECT":" ","MAREA":"蔦松腳","LANE":" ","ALLEY":" ","HOUSE_NO":"４之５號","E_COORD97":176007.66,"N_COORD97":2581709.4500000002,"ADDRESS":"蔦松腳４之５號","OBJECTID":81237},"geometry":{"x":176007.66000000108,"y":2581709.4500000011}},{"attributes":{"ID":81238,"DIS_CODE":0,"TOWNNAME":"鹽水區","LI":"岸內里","LIN":"1鄰","STREET":" ","SECT":" ","MAREA":"蔦松腳","LANE":" ","ALLEY":" ","HOUSE_NO":"８號之１","E_COORD97":175781.94,"N_COORD97":2581689.4199999999,"ADDRESS":"蔦松腳８號之１","OBJECTID":81238},"geometry":{"x":175781.94000000134,"y":2581689.4200000018}},{"attributes":{"ID":81239,"DIS_CODE":0,"TOWNNAME":"鹽水區","LI":"岸內里","LIN":"1鄰","STREET":" ","SECT":" ","MAREA":"蔦松腳","LANE":" ","ALLEY":" ","HOUSE_NO":"８號","E_COORD97":175767.79000000001,"N_COORD97":2581659.0600000001,"ADDRESS":"蔦松腳８號","OBJECTID":81239},"geometry":{"x":175767.79000000004,"y":2581659.0600000024}},{"attributes":{"ID":81240,"DIS_CODE":0,"TOWNNAME":"鹽水區","LI":"岸內里","LIN":"1鄰","STREET":" ","SECT":" ","MAREA":"蔦松腳","LANE":" ","ALLEY":" ","HOUSE_NO":"９號","E_COORD97":175830.38,"N_COORD97":2581684.46,"ADDRESS":"蔦松腳９號","OBJECTID":81240},"geometry":{"x":175830.37999999896,"y":2581684.4600000009}},{"attributes":{"ID":81241,"DIS_CODE":0,"TOWNNAME":"佳里區","LI":"嘉福里","LIN":"1鄰","STREET":" ","SECT":" ","MAREA":"下營","LANE":" ","ALLEY":" ","HOUSE_NO":"７號","E_COORD97":163022.51000000001,"N_COORD97":2563641.7000000002,"ADDRESS":"下營７號","OBJECTID":81241},"geometry":{"x":163022.51000000071,"y":2563641.6999999993}},{"attributes":{"ID":81242,"DIS_CODE":0,"TOWNNAME":"後壁區","LI":"墨林里","LIN":"1鄰","STREET":" ","SECT":" ","MAREA":"菁寮","LANE":" ","ALLEY":" ","HOUSE_NO":"１５０之２５號","E_COORD97":182115.60999999999,"N_COORD97":2586667.8500000001,"ADDRESS":"菁寮１５０之２５號","OBJECTID":81242},"geometry":{"x":182115.61000000127,"y":2586667.8499999996}},{"attributes":{"ID":81243,"DIS_CODE":0,"TOWNNAME":"後壁區","LI":"墨林里","LIN":"1鄰","STREET":" ","SECT":" ","MAREA":"菁寮","LANE":" ","ALLEY":" ","HOUSE_NO":"１５０之２６號","E_COORD97":182115.82000000001,"N_COORD97":2586674.3999999999,"ADDRESS":"菁寮１５０之２６號","OBJECTID":81243},"geometry":{"x":182115.82000000123,"y":2586674.4000000022}},{"attributes":{"ID":81244,"DIS_CODE":0,"TOWNNAME":"後壁區","LI":"墨林里","LIN":"1鄰","STREET":" ","SECT":" ","MAREA":"菁寮","LANE":" ","ALLEY":" ","HOUSE_NO":"１５０之２７號","E_COORD97":182116.94,"N_COORD97":2586678.52,"ADDRESS":"菁寮１５０之２７號","OBJECTID":81244},"geometry":{"x":182116.94000000134,"y":2586678.5200000014}},{"attributes":{"ID":81245,"DIS_CODE":0,"TOWNNAME":"七股區","LI":"?榔里","LIN":"1鄰","STREET":" ","SECT":" ","MAREA":"?榔","LANE":" ","ALLEY":" ","HOUSE_NO":"１０號","E_COORD97":162394.57000000001,"N_COORD97":2555428.3900000001,"ADDRESS":"?榔１０號","OBJECTID":81245},"geometry":{"x":162394.5700000003,"y":2555428.3900000025}},{"attributes":{"ID":81246,"DIS_CODE":0,"TOWNNAME":"七股區","LI":"?榔里","LIN":"1鄰","STREET":" ","SECT":" ","MAREA":"?榔","LANE":" ","ALLEY":" ","HOUSE_NO":"１２號","E_COORD97":162410.67999999999,"N_COORD97":2555408.6099999999,"ADDRESS":"?榔１２號","OBJECTID":81246},"geometry":{"x":162410.6799999997,"y":2555408.6100000013}},{"attributes":{"ID":81247,"DIS_CODE":0,"TOWNNAME":"七股區","LI":"?榔里","LIN":"1鄰","STREET":" ","SECT":" ","MAREA":"?榔","LANE":" ","ALLEY":" ","HOUSE_NO":"１號之６","E_COORD97":162246.67000000001,"N_COORD97":2555495.2999999998,"ADDRESS":"?榔１號之６","OBJECTID":81247},"geometry":{"x":162246.67000000179,"y":2555495.3000000007}},{"attributes":{"ID":81248,"DIS_CODE":0,"TOWNNAME":"七股區","LI":"?榔里","LIN":"1鄰","STREET":" ","SECT":" ","MAREA":"?榔","LANE":" ","ALLEY":" ","HOUSE_NO":"４號之１","E_COORD97":162272.89999999999,"N_COORD97":2555417.0299999998,"ADDRESS":"?榔４號之１","OBJECTID":81248},"geometry":{"x":162272.9000000013,"y":2555417.0299999993}},{"attributes":{"ID":81249,"DIS_CODE":0,"TOWNNAME":"七股區","LI":"?榔里","LIN":"1鄰","STREET":" ","SECT":" ","MAREA":"?榔","LANE":" ","ALLEY":" ","HOUSE_NO":"４號之２０","E_COORD97":162332.88,"N_COORD97":2555458.6000000001,"ADDRESS":"?榔４號之２０","OBJECTID":81249},"geometry":{"x":162332.87999999989,"y":2555458.5999999996}},{"attributes":{"ID":81250,"DIS_CODE":0,"TOWNNAME":"七股區","LI":"?榔里","LIN":"1鄰","STREET":" ","SECT":" ","MAREA":"?榔","LANE":" ","ALLEY":" ","HOUSE_NO":"４號之２","E_COORD97":162276.20999999999,"N_COORD97":2555450.8999999999,"ADDRESS":"?榔４號之２","OBJECTID":81250},"geometry":{"x":162276.20999999996,"y":2555450.9000000041}},{"attributes":{"ID":81251,"DIS_CODE":0,"TOWNNAME":"七股區","LI":"?榔里","LIN":"1鄰","STREET":" ","SECT":" ","MAREA":"?榔","LANE":" ","ALLEY":" ","HOUSE_NO":"４號之３","E_COORD97":162276.70999999999,"N_COORD97":2555460.5800000001,"ADDRESS":"?榔４號之３","OBJECTID":81251},"geometry":{"x":162276.70999999996,"y":2555460.5800000019}},{"attributes":{"ID":81252,"DIS_CODE":0,"TOWNNAME":"七股區","LI":"?榔里","LIN":"1鄰","STREET":" ","SECT":" ","MAREA":"?榔","LANE":" ","ALLEY":" ","HOUSE_NO":"４號之５","E_COORD97":162275.67000000001,"N_COORD97":2555483.4199999999,"ADDRESS":"?榔４號之５","OBJECTID":81252},"geometry":{"x":162275.67000000086,"y":2555483.4199999999}},{"attributes":{"ID":81253,"DIS_CODE":0,"TOWNNAME":"七股區","LI":"?榔里","LIN":"1鄰","STREET":" ","SECT":" ","MAREA":"?榔","LANE":" ","ALLEY":" ","HOUSE_NO":"４號之７","E_COORD97":162295.29000000001,"N_COORD97":2555490.5699999998,"ADDRESS":"?榔４號之７","OBJECTID":81253},"geometry":{"x":162295.2900000019,"y":2555490.570000004}},{"attributes":{"ID":81254,"DIS_CODE":0,"TOWNNAME":"七股區","LI":"?榔里","LIN":"1鄰","STREET":" ","SECT":" ","MAREA":"?榔","LANE":" ","ALLEY":" ","HOUSE_NO":"４號之８","E_COORD97":162277.98999999999,"N_COORD97":2555472.7999999998,"ADDRESS":"?榔４號之８","OBJECTID":81254},"geometry":{"x":162277.99000000022,"y":2555472.8000000026}},{"attributes":{"ID":81255,"DIS_CODE":0,"TOWNNAME":"七股區","LI":"?榔里","LIN":"1鄰","STREET":" ","SECT":" ","MAREA":"?榔","LANE":" ","ALLEY":" ","HOUSE_NO":"４號","E_COORD97":162273.82000000001,"N_COORD97":2555406.0499999998,"ADDRESS":"?榔４號","OBJECTID":81255},"geometry":{"x":162273.82000000123,"y":2555406.0499999989}},{"attributes":{"ID":81256,"DIS_CODE":0,"TOWNNAME":"七股區","LI":"?榔里","LIN":"1鄰","STREET":" ","SECT":" ","MAREA":"?榔","LANE":" ","ALLEY":" ","HOUSE_NO":"５號之１","E_COORD97":162325.41,"N_COORD97":2555404.2799999998,"ADDRESS":"?榔５號之１","OBJECTID":81256},"geometry":{"x":162325.41000000108,"y":2555404.2800000012}},{"attributes":{"ID":81257,"DIS_CODE":0,"TOWNNAME":"七股區","LI":"?榔里","LIN":"1鄰","STREET":" ","SECT":" ","MAREA":"?榔","LANE":" ","ALLEY":" ","HOUSE_NO":"５號","E_COORD97":162302.66,"N_COORD97":2555398.2400000002,"ADDRESS":"?榔５號","OBJECTID":81257},"geometry":{"x":162302.66000000015,"y":2555398.2400000021}},{"attributes":{"ID":81258,"DIS_CODE":0,"TOWNNAME":"七股區","LI":"?榔里","LIN":"1鄰","STREET":" ","SECT":" ","MAREA":"?榔","LANE":" ","ALLEY":" ","HOUSE_NO":"６號之１","E_COORD97":162372.10000000001,"N_COORD97":2555425.7400000002,"ADDRESS":"?榔６號之１","OBJECTID":81258},"geometry":{"x":162372.09999999963,"y":2555425.7400000021}},{"attributes":{"ID":81259,"DIS_CODE":0,"TOWNNAME":"麻豆區","LI":"海埔里","LIN":"7鄰","STREET":" ","SECT":" ","MAREA":"海埔","LANE":" ","ALLEY":" ","HOUSE_NO":"２８號","E_COORD97":169499.37,"N_COORD97":2566875.7000000002,"ADDRESS":"海埔２８號","OBJECTID":81259},"geometry":{"x":169499.37000000197,"y":2566875.6999999993}},{"attributes":{"ID":81260,"DIS_CODE":0,"TOWNNAME":"麻豆區","LI":"海埔里","LIN":"7鄰","STREET":" ","SECT":" ","MAREA":"海埔","LANE":" ","ALLEY":" ","HOUSE_NO":"２９號","E_COORD97":169534.07999999999,"N_COORD97":2566860.5299999998,"ADDRESS":"海埔２９號","OBJECTID":81260},"geometry":{"x":169534.08000000101,"y":2566860.5299999993}},{"attributes":{"ID":81261,"DIS_CODE":0,"TOWNNAME":"麻豆區","LI":"海埔里","LIN":"7鄰","STREET":" ","SECT":" ","MAREA":"海埔","LANE":" ","ALLEY":" ","HOUSE_NO":"３０號","E_COORD97":169532.67999999999,"N_COORD97":2566875.9399999999,"ADDRESS":"海埔３０號","OBJECTID":81261},"geometry":{"x":169532.68000000063,"y":2566875.9400000013}},{"attributes":{"ID":81262,"DIS_CODE":0,"TOWNNAME":"麻豆區","LI":"海埔里","LIN":"7鄰","STREET":" ","SECT":" ","MAREA":"海埔","LANE":" ","ALLEY":" ","HOUSE_NO":"３２號","E_COORD97":169525.31,"N_COORD97":2566922.9399999999,"ADDRESS":"海埔３２號","OBJECTID":81262},"geometry":{"x":169525.31000000052,"y":2566922.9400000032}},{"attributes":{"ID":81263,"DIS_CODE":0,"TOWNNAME":"麻豆區","LI":"海埔里","LIN":"7鄰","STREET":" ","SECT":" ","MAREA":"海埔","LANE":" ","ALLEY":" ","HOUSE_NO":"３４號之１１","E_COORD97":169423.22,"N_COORD97":2566971.1699999999,"ADDRESS":"海埔３４號之１１","OBJECTID":81263},"geometry":{"x":169423.21999999974,"y":2566971.1699999999}},{"attributes":{"ID":81264,"DIS_CODE":0,"TOWNNAME":"麻豆區","LI":"海埔里","LIN":"7鄰","STREET":" ","SECT":" ","MAREA":"海埔","LANE":" ","ALLEY":" ","HOUSE_NO":"３４號之１５","E_COORD97":169359.42999999999,"N_COORD97":2566988.6000000001,"ADDRESS":"海埔３４號之１５","OBJECTID":81264},"geometry":{"x":169359.43000000156,"y":2566988.5999999996}},{"attributes":{"ID":81265,"DIS_CODE":0,"TOWNNAME":"麻豆區","LI":"海埔里","LIN":"7鄰","STREET":" ","SECT":" ","MAREA":"海埔","LANE":" ","ALLEY":" ","HOUSE_NO":"３４號之１６","E_COORD97":169241.32000000001,"N_COORD97":2567017.8900000001,"ADDRESS":"海埔３４號之１６","OBJECTID":81265},"geometry":{"x":169241.3200000003,"y":2567017.8900000006}},{"attributes":{"ID":81266,"DIS_CODE":0,"TOWNNAME":"麻豆區","LI":"海埔里","LIN":"7鄰","STREET":" ","SECT":" ","MAREA":"海埔","LANE":" ","ALLEY":" ","HOUSE_NO":"３４號之１７","E_COORD97":169236.19,"N_COORD97":2567019.04,"ADDRESS":"海埔３４號之１７","OBJECTID":81266},"geometry":{"x":169236.19000000041,"y":2567019.0399999991}},{"attributes":{"ID":81267,"DIS_CODE":0,"TOWNNAME":"麻豆區","LI":"海埔里","LIN":"7鄰","STREET":" ","SECT":" ","MAREA":"海埔","LANE":" ","ALLEY":" ","HOUSE_NO":"３４號之１８","E_COORD97":169180.5,"N_COORD97":2567024.5499999998,"ADDRESS":"海埔３４號之１８","OBJECTID":81267},"geometry":{"x":169180.5,"y":2567024.5500000007}},{"attributes":{"ID":81268,"DIS_CODE":0,"TOWNNAME":"麻豆區","LI":"海埔里","LIN":"7鄰","STREET":" ","SECT":" ","MAREA":"海埔","LANE":" ","ALLEY":" ","HOUSE_NO":"３４號之２１","E_COORD97":169256.48999999999,"N_COORD97":2566993.6899999999,"ADDRESS":"海埔３４號之２１","OBJECTID":81268},"geometry":{"x":169256.49000000115,"y":2566993.6900000013}},{"attributes":{"ID":81269,"DIS_CODE":0,"TOWNNAME":"麻豆區","LI":"海埔里","LIN":"7鄰","STREET":" ","SECT":" ","MAREA":"海埔","LANE":" ","ALLEY":" ","HOUSE_NO":"３４號之２５","E_COORD97":169382.14999999999,"N_COORD97":2566920.75,"ADDRESS":"海埔３４號之２５","OBJECTID":81269},"geometry":{"x":169382.15000000037,"y":2566920.75}},{"attributes":{"ID":81270,"DIS_CODE":0,"TOWNNAME":"鹽水區","LI":"田寮里","LIN":"5鄰","STREET":" ","SECT":" ","MAREA":"田寮","LANE":" ","ALLEY":" ","HOUSE_NO":"５０號","E_COORD97":171097.94,"N_COORD97":2575191.1000000001,"ADDRESS":"田寮５０號","OBJECTID":81270},"geometry":{"x":171097.94000000134,"y":2575191.1000000034}},{"attributes":{"ID":81271,"DIS_CODE":0,"TOWNNAME":"七股區","LI":"?榔里","LIN":"1鄰","STREET":" ","SECT":" ","MAREA":"?榔","LANE":" ","ALLEY":" ","HOUSE_NO":"６號","E_COORD97":162371.5,"N_COORD97":2555404.1699999999,"ADDRESS":"?榔６號","OBJECTID":81271},"geometry":{"x":162371.5,"y":2555404.1699999999}},{"attributes":{"ID":81272,"DIS_CODE":0,"TOWNNAME":"七股區","LI":"?榔里","LIN":"1鄰","STREET":" ","SECT":" ","MAREA":"?榔","LANE":" ","ALLEY":" ","HOUSE_NO":"８號","E_COORD97":162412.10999999999,"N_COORD97":2555386.1200000001,"ADDRESS":"?榔８號","OBJECTID":81272},"geometry":{"x":162412.1100000022,"y":2555386.1200000029}},{"attributes":{"ID":81273,"DIS_CODE":0,"TOWNNAME":"七股區","LI":"?榔里","LIN":"1鄰","STREET":" ","SECT":" ","MAREA":"?榔","LANE":" ","ALLEY":" ","HOUSE_NO":"９號之１","E_COORD97":162391.07999999999,"N_COORD97":2555410.8399999999,"ADDRESS":"?榔９號之１","OBJECTID":81273},"geometry":{"x":162391.08000000007,"y":2555410.8400000017}},{"attributes":{"ID":81274,"DIS_CODE":0,"TOWNNAME":"七股區","LI":"?埕里","LIN":"1鄰","STREET":" ","SECT":" ","MAREA":"?埕","LANE":" ","ALLEY":" ","HOUSE_NO":"１號之２","E_COORD97":158552.93969500001,"N_COORD97":2561019.2239299999,"ADDRESS":"?埕１號之２","OBJECTID":81274},"geometry":{"x":158552.93969499972,"y":2561019.2239320036}},{"attributes":{"ID":81275,"DIS_CODE":0,"TOWNNAME":"七股區","LI":"?埕里","LIN":"1鄰","STREET":" ","SECT":" ","MAREA":"?埕","LANE":" ","ALLEY":" ","HOUSE_NO":"１號","E_COORD97":158558.67000000001,"N_COORD97":2561041.46,"ADDRESS":"?埕１號","OBJECTID":81275},"geometry":{"x":158558.67000000086,"y":2561041.4600000009}},{"attributes":{"ID":81276,"DIS_CODE":0,"TOWNNAME":"西港區","LI":"永樂里","LIN":"1鄰","STREET":" ","SECT":" ","MAREA":"大塭寮","LANE":" ","ALLEY":" ","HOUSE_NO":"１之１０號","E_COORD97":166091.01999999999,"N_COORD97":2556372.27,"ADDRESS":"大塭寮１之１０號","OBJECTID":81276},"geometry":{"x":166091.02000000048,"y":2556372.2699999996}},{"attributes":{"ID":81277,"DIS_CODE":0,"TOWNNAME":"西港區","LI":"永樂里","LIN":"1鄰","STREET":" ","SECT":" ","MAREA":"大塭寮","LANE":" ","ALLEY":" ","HOUSE_NO":"１號之１","E_COORD97":166092.57999999999,"N_COORD97":2556298.0699999998,"ADDRESS":"大塭寮１號之１","OBJECTID":81277},"geometry":{"x":166092.58000000101,"y":2556298.0700000022}},{"attributes":{"ID":81278,"DIS_CODE":0,"TOWNNAME":"西港區","LI":"永樂里","LIN":"1鄰","STREET":" ","SECT":" ","MAREA":"大塭寮","LANE":" ","ALLEY":" ","HOUSE_NO":"１號之２","E_COORD97":166101.44,"N_COORD97":2556343.3500000001,"ADDRESS":"大塭寮１號之２","OBJECTID":81278},"geometry":{"x":166101.44000000041,"y":2556343.3500000015}},{"attributes":{"ID":81279,"DIS_CODE":0,"TOWNNAME":"永康區","LI":"三合里","LIN":"12鄰","STREET":"南工街","SECT":" ","MAREA":" ","LANE":"２４７巷","ALLEY":"３３弄","HOUSE_NO":"３０號","E_COORD97":172024.53,"N_COORD97":2545796.3399999999,"ADDRESS":"南工街２４７巷３３弄３０號","OBJECTID":81279},"geometry":{"x":172024.53000000119,"y":2545796.3400000017}},{"attributes":{"ID":81280,"DIS_CODE":0,"TOWNNAME":"西港區","LI":"永樂里","LIN":"1鄰","STREET":" ","SECT":" ","MAREA":"大塭寮","LANE":" ","ALLEY":" ","HOUSE_NO":"１號之３","E_COORD97":165938,"N_COORD97":2556321,"ADDRESS":"大塭寮１號之３","OBJECTID":81280},"geometry":{"x":165938,"y":2556320.9999999981}},{"attributes":{"ID":81281,"DIS_CODE":0,"TOWNNAME":"西港區","LI":"永樂里","LIN":"1鄰","STREET":" ","SECT":" ","MAREA":"大塭寮","LANE":" ","ALLEY":" ","HOUSE_NO":"１號之４","E_COORD97":165941.54000000001,"N_COORD97":2556515.1099999999,"ADDRESS":"大塭寮１號之４","OBJECTID":81281},"geometry":{"x":165941.5400000019,"y":2556515.1099999994}},{"attributes":{"ID":81282,"DIS_CODE":0,"TOWNNAME":"西港區","LI":"永樂里","LIN":"1鄰","STREET":" ","SECT":" ","MAREA":"大塭寮","LANE":" ","ALLEY":" ","HOUSE_NO":"１號之６","E_COORD97":166043.39000000001,"N_COORD97":2556658.8500000001,"ADDRESS":"大塭寮１號之６","OBJECTID":81282},"geometry":{"x":166043.38999999966,"y":2556658.8500000015}},{"attributes":{"ID":81283,"DIS_CODE":0,"TOWNNAME":"西港區","LI":"永樂里","LIN":"1鄰","STREET":" ","SECT":" ","MAREA":"大塭寮","LANE":" ","ALLEY":" ","HOUSE_NO":"１號之７","E_COORD97":165958.20000000001,"N_COORD97":2556321.3500000001,"ADDRESS":"大塭寮１號之７","OBJECTID":81283},"geometry":{"x":165958.20000000112,"y":2556321.3499999996}},{"attributes":{"ID":81284,"DIS_CODE":0,"TOWNNAME":"西港區","LI":"永樂里","LIN":"1鄰","STREET":" ","SECT":" ","MAREA":"大塭寮","LANE":" ","ALLEY":" ","HOUSE_NO":"１號之８","E_COORD97":166063.37,"N_COORD97":2556348.6400000001,"ADDRESS":"大塭寮１號之８","OBJECTID":81284},"geometry":{"x":166063.37000000104,"y":2556348.6400000025}},{"attributes":{"ID":81285,"DIS_CODE":0,"TOWNNAME":"永康區","LI":"三合里","LIN":"12鄰","STREET":"南工街","SECT":" ","MAREA":" ","LANE":"２４７巷","ALLEY":"３３弄","HOUSE_NO":"２１號","E_COORD97":172009.51000000001,"N_COORD97":2545807.52,"ADDRESS":"南工街２４７巷３３弄２１號","OBJECTID":81285},"geometry":{"x":172009.50999999978,"y":2545807.5200000014}},{"attributes":{"ID":81286,"DIS_CODE":0,"TOWNNAME":"西港區","LI":"永樂里","LIN":"1鄰","STREET":" ","SECT":" ","MAREA":"大塭寮","LANE":" ","ALLEY":" ","HOUSE_NO":"１之９號","E_COORD97":165941.63,"N_COORD97":2556553.75,"ADDRESS":"大塭寮１之９號","OBJECTID":81286},"geometry":{"x":165941.62999999989,"y":2556553.7500000019}},{"attributes":{"ID":81287,"DIS_CODE":0,"TOWNNAME":"西港區","LI":"永樂里","LIN":"1鄰","STREET":" ","SECT":" ","MAREA":"大塭寮","LANE":" ","ALLEY":" ","HOUSE_NO":"１號","E_COORD97":165928.85000000001,"N_COORD97":2556350.0800000001,"ADDRESS":"大塭寮１號","OBJECTID":81287},"geometry":{"x":165928.85000000149,"y":2556350.0800000001}},{"attributes":{"ID":81288,"DIS_CODE":0,"TOWNNAME":"西港區","LI":"永樂里","LIN":"1鄰","STREET":" ","SECT":" ","MAREA":"大塭寮","LANE":" ","ALLEY":" ","HOUSE_NO":"２號之１","E_COORD97":165907.59,"N_COORD97":2556337.3199999998,"ADDRESS":"大塭寮２號之１","OBJECTID":81288},"geometry":{"x":165907.59000000078,"y":2556337.3200000022}},{"attributes":{"ID":81289,"DIS_CODE":0,"TOWNNAME":"西港區","LI":"永樂里","LIN":"1鄰","STREET":" ","SECT":" ","MAREA":"大塭寮","LANE":" ","ALLEY":" ","HOUSE_NO":"３號","E_COORD97":165889.53,"N_COORD97":2556339.0499999998,"ADDRESS":"大塭寮３號","OBJECTID":81289},"geometry":{"x":165889.53000000119,"y":2556339.0500000026}},{"attributes":{"ID":81290,"DIS_CODE":0,"TOWNNAME":"西港區","LI":"永樂里","LIN":"1鄰","STREET":" ","SECT":" ","MAREA":"大塭寮","LANE":" ","ALLEY":" ","HOUSE_NO":"４號","E_COORD97":165819.56,"N_COORD97":2556362.3500000001,"ADDRESS":"大塭寮４號","OBJECTID":81290},"geometry":{"x":165819.56000000052,"y":2556362.3500000034}},{"attributes":{"ID":81291,"DIS_CODE":0,"TOWNNAME":"柳營區","LI":"篤農里","LIN":"1鄰","STREET":" ","SECT":" ","MAREA":"小腳腿","LANE":" ","ALLEY":" ","HOUSE_NO":"１７３號之６","E_COORD97":185303.48999999999,"N_COORD97":2576851.2200000002,"ADDRESS":"小腳腿１７３號之６","OBJECTID":81291},"geometry":{"x":185303.49000000115,"y":2576851.2200000007}},{"attributes":{"ID":81292,"DIS_CODE":0,"TOWNNAME":"柳營區","LI":"篤農里","LIN":"1鄰","STREET":" ","SECT":" ","MAREA":"小腳腿","LANE":" ","ALLEY":" ","HOUSE_NO":"１７３號","E_COORD97":185314.37,"N_COORD97":2576861.5099999998,"ADDRESS":"小腳腿１７３號","OBJECTID":81292},"geometry":{"x":185314.37000000104,"y":2576861.5099999998}},{"attributes":{"ID":81293,"DIS_CODE":0,"TOWNNAME":"柳營區","LI":"篤農里","LIN":"1鄰","STREET":" ","SECT":" ","MAREA":"小腳腿","LANE":" ","ALLEY":" ","HOUSE_NO":"１７４號之１","E_COORD97":185318.89999999999,"N_COORD97":2576824.75,"ADDRESS":"小腳腿１７４號之１","OBJECTID":81293},"geometry":{"x":185318.90000000224,"y":2576824.7500000019}},{"attributes":{"ID":81294,"DIS_CODE":0,"TOWNNAME":"柳營區","LI":"篤農里","LIN":"1鄰","STREET":" ","SECT":" ","MAREA":"小腳腿","LANE":" ","ALLEY":" ","HOUSE_NO":"１７４號之２","E_COORD97":185314.16,"N_COORD97":2576824.5800000001,"ADDRESS":"小腳腿１７４號之２","OBJECTID":81294},"geometry":{"x":185314.16000000108,"y":2576824.5800000001}},{"attributes":{"ID":81295,"DIS_CODE":0,"TOWNNAME":"柳營區","LI":"篤農里","LIN":"1鄰","STREET":" ","SECT":" ","MAREA":"小腳腿","LANE":" ","ALLEY":" ","HOUSE_NO":"１７４號之３","E_COORD97":185309,"N_COORD97":2576824.2200000002,"ADDRESS":"小腳腿１７４號之３","OBJECTID":81295},"geometry":{"x":185309,"y":2576824.2200000007}},{"attributes":{"ID":81296,"DIS_CODE":0,"TOWNNAME":"永康區","LI":"三合里","LIN":"12鄰","STREET":"南工街","SECT":" ","MAREA":" ","LANE":"２４７巷","ALLEY":"３３弄","HOUSE_NO":"２之１號","E_COORD97":171974.73999999999,"N_COORD97":2545805.3900000001,"ADDRESS":"南工街２４７巷３３弄２之１號","OBJECTID":81296},"geometry":{"x":171974.74000000022,"y":2545805.3899999987}},{"attributes":{"ID":81297,"DIS_CODE":0,"TOWNNAME":"柳營區","LI":"篤農里","LIN":"1鄰","STREET":" ","SECT":" ","MAREA":"小腳腿","LANE":" ","ALLEY":" ","HOUSE_NO":"１７４號","E_COORD97":185297.88,"N_COORD97":2576830.8199999998,"ADDRESS":"小腳腿１７４號","OBJECTID":81297},"geometry":{"x":185297.87999999989,"y":2576830.8199999984}},{"attributes":{"ID":81298,"DIS_CODE":0,"TOWNNAME":"仁德區","LI":"仁德里","LIN":"12鄰","STREET":"四維街","SECT":" ","MAREA":" ","LANE":"４８巷","ALLEY":"１弄","HOUSE_NO":"８號","E_COORD97":173191.12,"N_COORD97":2541566,"ADDRESS":"四維街４８巷１弄８號","OBJECTID":81298},"geometry":{"x":173191.12000000011,"y":2541565.9999999981}},{"attributes":{"ID":81299,"DIS_CODE":0,"TOWNNAME":"柳營區","LI":"篤農里","LIN":"1鄰","STREET":" ","SECT":" ","MAREA":"小腳腿","LANE":" ","ALLEY":" ","HOUSE_NO":"１７５號之２","E_COORD97":185360.60000000001,"N_COORD97":2576811.7000000002,"ADDRESS":"小腳腿１７５號之２","OBJECTID":81299},"geometry":{"x":185360.59999999963,"y":2576811.7000000011}},{"attributes":{"ID":81300,"DIS_CODE":0,"TOWNNAME":"柳營區","LI":"篤農里","LIN":"1鄰","STREET":" ","SECT":" ","MAREA":"小腳腿","LANE":" ","ALLEY":" ","HOUSE_NO":"１７５號之３","E_COORD97":185385.41,"N_COORD97":2576809.8500000001,"ADDRESS":"小腳腿１７５號之３","OBJECTID":81300},"geometry":{"x":185385.41000000108,"y":2576809.8500000034}},{"attributes":{"ID":81301,"DIS_CODE":0,"TOWNNAME":"柳營區","LI":"篤農里","LIN":"1鄰","STREET":" ","SECT":" ","MAREA":"小腳腿","LANE":" ","ALLEY":" ","HOUSE_NO":"１７５號之４","E_COORD97":185375.12,"N_COORD97":2576842.4700000002,"ADDRESS":"小腳腿１７５號之４","OBJECTID":81301},"geometry":{"x":185375.12000000104,"y":2576842.4700000007}},{"attributes":{"ID":81302,"DIS_CODE":0,"TOWNNAME":"仁德區","LI":"仁德里","LIN":"12鄰","STREET":"四維街","SECT":" ","MAREA":" ","LANE":"４８巷","ALLEY":"１弄","HOUSE_NO":"１４號","E_COORD97":173177.66,"N_COORD97":2541564.25,"ADDRESS":"四維街４８巷１弄１４號","OBJECTID":81302},"geometry":{"x":173177.66000000201,"y":2541564.25}},{"attributes":{"ID":81303,"DIS_CODE":0,"TOWNNAME":"仁德區","LI":"仁德里","LIN":"12鄰","STREET":"中山路","SECT":" ","MAREA":" ","LANE":"６０６巷","ALLEY":"１弄","HOUSE_NO":"５５號","E_COORD97":173168.67000000001,"N_COORD97":2541486.9900000002,"ADDRESS":"中山路６０６巷１弄５５號","OBJECTID":81303},"geometry":{"x":173168.66999999899,"y":2541486.9900000002}},{"attributes":{"ID":81304,"DIS_CODE":0,"TOWNNAME":"仁德區","LI":"仁德里","LIN":"12鄰","STREET":"中山路","SECT":" ","MAREA":" ","LANE":"６０６巷","ALLEY":"１弄","HOUSE_NO":"４５號","E_COORD97":173190.29999999999,"N_COORD97":2541482.9900000002,"ADDRESS":"中山路６０６巷１弄４５號","OBJECTID":81304},"geometry":{"x":173190.30000000075,"y":2541482.9900000021}},{"attributes":{"ID":81305,"DIS_CODE":0,"TOWNNAME":"仁德區","LI":"仁德里","LIN":"12鄰","STREET":"中山路","SECT":" ","MAREA":" ","LANE":"６０６巷","ALLEY":"１弄","HOUSE_NO":"３０號","E_COORD97":173165.79999999999,"N_COORD97":2541499.7400000002,"ADDRESS":"中山路６０６巷１弄３０號","OBJECTID":81305},"geometry":{"x":173165.79999999981,"y":2541499.7400000002}},{"attributes":{"ID":81306,"DIS_CODE":0,"TOWNNAME":"仁德區","LI":"仁德里","LIN":"12鄰","STREET":"中山路","SECT":" ","MAREA":" ","LANE":"６０６巷","ALLEY":"１弄","HOUSE_NO":"５１號","E_COORD97":173172.60999999999,"N_COORD97":2541466,"ADDRESS":"中山路６０６巷１弄５１號","OBJECTID":81306},"geometry":{"x":173172.61000000034,"y":2541466.0000000019}},{"attributes":{"ID":81307,"DIS_CODE":0,"TOWNNAME":"柳營區","LI":"篤農里","LIN":"1鄰","STREET":" ","SECT":" ","MAREA":"小腳腿","LANE":" ","ALLEY":" ","HOUSE_NO":"１７５號","E_COORD97":185330.20000000001,"N_COORD97":2576833.75,"ADDRESS":"小腳腿１７５號","OBJECTID":81307},"geometry":{"x":185330.20000000205,"y":2576833.75}},{"attributes":{"ID":81308,"DIS_CODE":0,"TOWNNAME":"仁德區","LI":"仁德里","LIN":"12鄰","STREET":"中山路","SECT":" ","MAREA":" ","LANE":"６０６巷","ALLEY":"１弄","HOUSE_NO":"５７號","E_COORD97":173163.47,"N_COORD97":2541486.9900000002,"ADDRESS":"中山路６０６巷１弄５７號","OBJECTID":81308},"geometry":{"x":173163.47000000067,"y":2541486.9900000002}},{"attributes":{"ID":81309,"DIS_CODE":0,"TOWNNAME":"柳營區","LI":"篤農里","LIN":"1鄰","STREET":" ","SECT":" ","MAREA":"小腳腿","LANE":" ","ALLEY":" ","HOUSE_NO":"１７６號之１","E_COORD97":185317.73999999999,"N_COORD97":2576797.7999999998,"ADDRESS":"小腳腿１７６號之１","OBJECTID":81309},"geometry":{"x":185317.74000000022,"y":2576797.8000000045}},{"attributes":{"ID":81310,"DIS_CODE":0,"TOWNNAME":"柳營區","LI":"篤農里","LIN":"1鄰","STREET":" ","SECT":" ","MAREA":"小腳腿","LANE":" ","ALLEY":" ","HOUSE_NO":"１７６號之２","E_COORD97":185299.54999999999,"N_COORD97":2576781.9500000002,"ADDRESS":"小腳腿１７６號之２","OBJECTID":81310},"geometry":{"x":185299.54999999981,"y":2576781.9500000011}},{"attributes":{"ID":81311,"DIS_CODE":0,"TOWNNAME":"柳營區","LI":"篤農里","LIN":"1鄰","STREET":" ","SECT":" ","MAREA":"小腳腿","LANE":" ","ALLEY":" ","HOUSE_NO":"１７６號之３","E_COORD97":185298.03,"N_COORD97":2576775.3399999999,"ADDRESS":"小腳腿１７６號之３","OBJECTID":81311},"geometry":{"x":185298.03000000119,"y":2576775.3399999999}},{"attributes":{"ID":81312,"DIS_CODE":0,"TOWNNAME":"安南區","LI":"\u25A0田里","LIN":"7鄰","STREET":"工業三路","SECT":" ","MAREA":" ","LANE":" ","ALLEY":" ","HOUSE_NO":"１８號","E_COORD97":163372.23999999999,"N_COORD97":2548277.3799999999,"ADDRESS":"工業三路１８號","OBJECTID":81312},"geometry":{"x":163372.24000000209,"y":2548277.379999999}},{"attributes":{"ID":81313,"DIS_CODE":0,"TOWNNAME":"仁德區","LI":"仁德里","LIN":"12鄰","STREET":"中山路","SECT":" ","MAREA":" ","LANE":"６０６巷","ALLEY":"１弄","HOUSE_NO":"３９號","E_COORD97":173190.95000000001,"N_COORD97":2541469,"ADDRESS":"中山路６０６巷１弄３９號","OBJECTID":81313},"geometry":{"x":173190.95000000205,"y":2541469.0000000019}},{"attributes":{"ID":81314,"DIS_CODE":0,"TOWNNAME":"柳營區","LI":"篤農里","LIN":"1鄰","STREET":" ","SECT":" ","MAREA":"小腳腿","LANE":" ","ALLEY":" ","HOUSE_NO":"１７６號之５","E_COORD97":185315.69,"N_COORD97":2576792.02,"ADDRESS":"小腳腿１７６號之５","OBJECTID":81314},"geometry":{"x":185315.69000000134,"y":2576792.0200000014}},{"attributes":{"ID":81315,"DIS_CODE":0,"TOWNNAME":"柳營區","LI":"篤農里","LIN":"1鄰","STREET":" ","SECT":" ","MAREA":"小腳腿","LANE":" ","ALLEY":" ","HOUSE_NO":"１７６號之６","E_COORD97":185314.70000000001,"N_COORD97":2576786.29,"ADDRESS":"小腳腿１７６號之６","OBJECTID":81315},"geometry":{"x":185314.70000000019,"y":2576786.290000001}},{"attributes":{"ID":81316,"DIS_CODE":0,"TOWNNAME":"仁德區","LI":"仁德里","LIN":"12鄰","STREET":"中山路","SECT":" ","MAREA":" ","LANE":"６０６巷","ALLEY":"１弄","HOUSE_NO":"４７號","E_COORD97":173190.16,"N_COORD97":2541487.7400000002,"ADDRESS":"中山路６０６巷１弄４７號","OBJECTID":81316},"geometry":{"x":173190.16000000108,"y":2541487.7400000021}},{"attributes":{"ID":81317,"DIS_CODE":0,"TOWNNAME":"柳營區","LI":"篤農里","LIN":"1鄰","STREET":" ","SECT":" ","MAREA":"小腳腿","LANE":" ","ALLEY":" ","HOUSE_NO":"１７６號","E_COORD97":185306.73000000001,"N_COORD97":2576792.7400000002,"ADDRESS":"小腳腿１７６號","OBJECTID":81317},"geometry":{"x":185306.73000000138,"y":2576792.7400000002}},{"attributes":{"ID":81318,"DIS_CODE":0,"TOWNNAME":"仁德區","LI":"仁德里","LIN":"12鄰","STREET":"中山路","SECT":" ","MAREA":" ","LANE":"６０６巷","ALLEY":"１弄","HOUSE_NO":"２４號","E_COORD97":173189.81,"N_COORD97":2541503.4900000002,"ADDRESS":"中山路６０６巷１弄２４號","OBJECTID":81318},"geometry":{"x":173189.81000000052,"y":2541503.4900000021}},{"attributes":{"ID":81319,"DIS_CODE":0,"TOWNNAME":"仁德區","LI":"仁德里","LIN":"12鄰","STREET":"中山路","SECT":" ","MAREA":" ","LANE":"６０６巷","ALLEY":"１弄","HOUSE_NO":"４９號","E_COORD97":173190.20999999999,"N_COORD97":2541491.9900000002,"ADDRESS":"中山路６０６巷１弄４９號","OBJECTID":81319},"geometry":{"x":173190.20999999996,"y":2541491.9900000039}},{"attributes":{"ID":81320,"DIS_CODE":0,"TOWNNAME":"柳營區","LI":"篤農里","LIN":"1鄰","STREET":" ","SECT":" ","MAREA":"小腳腿","LANE":" ","ALLEY":" ","HOUSE_NO":"１７７號之１","E_COORD97":185299.48000000001,"N_COORD97":2576769.2599999998,"ADDRESS":"小腳腿１７７號之１","OBJECTID":81320},"geometry":{"x":185299.48000000045,"y":2576769.2599999998}},{"attributes":{"ID":81321,"DIS_CODE":0,"TOWNNAME":"柳營區","LI":"篤農里","LIN":"1鄰","STREET":" ","SECT":" ","MAREA":"小腳腿","LANE":" ","ALLEY":" ","HOUSE_NO":"１７７號之２","E_COORD97":185297.60999999999,"N_COORD97":2576758.3199999998,"ADDRESS":"小腳腿１７７號之２","OBJECTID":81321},"geometry":{"x":185297.61000000127,"y":2576758.3200000003}},{"attributes":{"ID":81322,"DIS_CODE":0,"TOWNNAME":"柳營區","LI":"篤農里","LIN":"1鄰","STREET":" ","SECT":" ","MAREA":"小腳腿","LANE":" ","ALLEY":" ","HOUSE_NO":"１７７號之３","E_COORD97":185297.23000000001,"N_COORD97":2576754.4300000002,"ADDRESS":"小腳腿１７７號之３","OBJECTID":81322},"geometry":{"x":185297.23000000045,"y":2576754.4299999997}},{"attributes":{"ID":81323,"DIS_CODE":0,"TOWNNAME":"仁德區","LI":"仁德里","LIN":"12鄰","STREET":"四維街","SECT":" ","MAREA":" ","LANE":"４８巷","ALLEY":"１弄","HOUSE_NO":"６號","E_COORD97":173203.39000000001,"N_COORD97":2541567,"ADDRESS":"四維街４８巷１弄６號","OBJECTID":81323},"geometry":{"x":173203.3900000006,"y":2541567.0000000019}},{"attributes":{"ID":81324,"DIS_CODE":0,"TOWNNAME":"仁德區","LI":"上崙里","LIN":"12鄰","STREET":"德崙路","SECT":" ","MAREA":" ","LANE":"３９５巷","ALLEY":"１８弄","HOUSE_NO":"６號","E_COORD97":174211.85000000001,"N_COORD97":2538140.02,"ADDRESS":"德崙路３９５巷１８弄６號","OBJECTID":81324},"geometry":{"x":174211.85000000056,"y":2538140.0199999996}},{"attributes":{"ID":81325,"DIS_CODE":0,"TOWNNAME":"仁德區","LI":"太子里","LIN":"12鄰","STREET":"長興二街","SECT":" ","MAREA":" ","LANE":"７０巷","ALLEY":"６弄","HOUSE_NO":"１５號","E_COORD97":174257.45000000001,"N_COORD97":2543746.5899999999,"ADDRESS":"長興二街７０巷６弄１５號","OBJECTID":81325},"geometry":{"x":174257.45000000112,"y":2543746.5900000017}},{"attributes":{"ID":81326,"DIS_CODE":0,"TOWNNAME":"仁德區","LI":"仁德里","LIN":"12鄰","STREET":"中山路","SECT":" ","MAREA":" ","LANE":"６０６巷","ALLEY":"１弄","HOUSE_NO":"４３號","E_COORD97":173190.75,"N_COORD97":2541478.25,"ADDRESS":"中山路６０６巷１弄４３號","OBJECTID":81326},"geometry":{"x":173190.75000000093,"y":2541478.25}},{"attributes":{"ID":81327,"DIS_CODE":0,"TOWNNAME":"仁德區","LI":"太子里","LIN":"12鄰","STREET":"長興二街","SECT":" ","MAREA":" ","LANE":"７０巷","ALLEY":"６弄","HOUSE_NO":"２號","E_COORD97":174307.06,"N_COORD97":2543750.2599999998,"ADDRESS":"長興二街７０巷６弄２號","OBJECTID":81327},"geometry":{"x":174307.06000000052,"y":2543750.2599999998}},{"attributes":{"ID":81328,"DIS_CODE":0,"TOWNNAME":"仁德區","LI":"太子里","LIN":"12鄰","STREET":"長興二街","SECT":" ","MAREA":" ","LANE":"７０巷","ALLEY":"６弄","HOUSE_NO":"１４號","E_COORD97":174281.91,"N_COORD97":2543758.5099999998,"ADDRESS":"長興二街７０巷６弄１４號","OBJECTID":81328},"geometry":{"x":174281.91000000108,"y":2543758.5099999998}},{"attributes":{"ID":81329,"DIS_CODE":0,"TOWNNAME":"仁德區","LI":"仁德里","LIN":"12鄰","STREET":"中山路","SECT":" ","MAREA":" ","LANE":"６０６巷","ALLEY":"１弄","HOUSE_NO":"６１號","E_COORD97":173153.07999999999,"N_COORD97":2541486.4900000002,"ADDRESS":"中山路６０６巷１弄６１號","OBJECTID":81329},"geometry":{"x":173153.08000000101,"y":2541486.4900000021}},{"attributes":{"ID":81330,"DIS_CODE":0,"TOWNNAME":"柳營區","LI":"篤農里","LIN":"1鄰","STREET":" ","SECT":" ","MAREA":"小腳腿","LANE":" ","ALLEY":" ","HOUSE_NO":"１７７號之４","E_COORD97":185298.47,"N_COORD97":2576749.6899999999,"ADDRESS":"小腳腿１７７號之４","OBJECTID":81330},"geometry":{"x":185298.46999999974,"y":2576749.6900000032}},{"attributes":{"ID":81331,"DIS_CODE":0,"TOWNNAME":"仁德區","LI":"仁德里","LIN":"12鄰","STREET":"中山路","SECT":" ","MAREA":" ","LANE":"６０６巷","ALLEY":"１弄","HOUSE_NO":"２８號","E_COORD97":173171.44,"N_COORD97":2541500.2400000002,"ADDRESS":"中山路６０６巷１弄２８號","OBJECTID":81331},"geometry":{"x":173171.44000000134,"y":2541500.2399999984}},{"attributes":{"ID":81332,"DIS_CODE":0,"TOWNNAME":"仁德區","LI":"仁德里","LIN":"12鄰","STREET":"中山路","SECT":" ","MAREA":" ","LANE":"６０６巷","ALLEY":"１弄","HOUSE_NO":"３７號","E_COORD97":173191.32999999999,"N_COORD97":2541464.5,"ADDRESS":"中山路６０６巷１弄３７號","OBJECTID":81332},"geometry":{"x":173191.33000000007,"y":2541464.5000000037}},{"attributes":{"ID":81333,"DIS_CODE":0,"TOWNNAME":"仁德區","LI":"仁德里","LIN":"12鄰","STREET":"中山路","SECT":" ","MAREA":" ","LANE":"６０６巷","ALLEY":"１弄","HOUSE_NO":"５９號","E_COORD97":173158.45000000001,"N_COORD97":2541486.9900000002,"ADDRESS":"中山路６０６巷１弄５９號","OBJECTID":81333},"geometry":{"x":173158.45000000019,"y":2541486.9900000002}},{"attributes":{"ID":81334,"DIS_CODE":0,"TOWNNAME":"仁德區","LI":"太子里","LIN":"12鄰","STREET":"長興二街","SECT":" ","MAREA":" ","LANE":"７０巷","ALLEY":"６弄","HOUSE_NO":"２４號","E_COORD97":174259.79000000001,"N_COORD97":2543763.25,"ADDRESS":"長興二街７０巷６弄２４號","OBJECTID":81334},"geometry":{"x":174259.7900000019,"y":2543763.25}},{"attributes":{"ID":81335,"DIS_CODE":0,"TOWNNAME":"仁德區","LI":"仁德里","LIN":"12鄰","STREET":"中山路","SECT":" ","MAREA":" ","LANE":"６０６巷","ALLEY":"１弄","HOUSE_NO":"４１號","E_COORD97":173190.98000000001,"N_COORD97":2541474,"ADDRESS":"中山路６０６巷１弄４１號","OBJECTID":81335},"geometry":{"x":173190.98000000231,"y":2541474}},{"attributes":{"ID":81336,"DIS_CODE":0,"TOWNNAME":"仁德區","LI":"仁德里","LIN":"12鄰","STREET":"中山路","SECT":" ","MAREA":" ","LANE":"６０６巷","ALLEY":"１弄","HOUSE_NO":"２２號","E_COORD97":173189.04999999999,"N_COORD97":2541510.7400000002,"ADDRESS":"中山路６０６巷１弄２２號","OBJECTID":81336},"geometry":{"x":173189.04999999981,"y":2541510.7400000039}},{"attributes":{"ID":81337,"DIS_CODE":0,"TOWNNAME":"仁德區","LI":"仁德里","LIN":"12鄰","STREET":"中山路","SECT":" ","MAREA":" ","LANE":"６０６巷","ALLEY":"１弄","HOUSE_NO":"１８號","E_COORD97":173212.51000000001,"N_COORD97":2541456.25,"ADDRESS":"中山路６０６巷１弄１８號","OBJECTID":81337},"geometry":{"x":173212.51000000071,"y":2541456.2500000037}},{"attributes":{"ID":81338,"DIS_CODE":0,"TOWNNAME":"仁德區","LI":"太子里","LIN":"12鄰","STREET":"長興二街","SECT":" ","MAREA":" ","LANE":"７０巷","ALLEY":"６弄","HOUSE_NO":"８號","E_COORD97":174293.79000000001,"N_COORD97":2543754.2599999998,"ADDRESS":"長興二街７０巷６弄８號","OBJECTID":81338},"geometry":{"x":174293.7900000019,"y":2543754.2599999979}},{"attributes":{"ID":81339,"DIS_CODE":0,"TOWNNAME":"安南區","LI":"安富里","LIN":"12鄰","STREET":"安富街","SECT":" ","MAREA":" ","LANE":"２５１巷","ALLEY":"２８弄","HOUSE_NO":"５０號","E_COORD97":167353.5,"N_COORD97":2547342.7799999998,"ADDRESS":"安富街２５１巷２８弄５０號","OBJECTID":81339},"geometry":{"x":167353.5,"y":2547342.7799999993}},{"attributes":{"ID":81340,"DIS_CODE":0,"TOWNNAME":"安南區","LI":"安富里","LIN":"12鄰","STREET":"安富街","SECT":" ","MAREA":" ","LANE":"２５１巷","ALLEY":"２８弄","HOUSE_NO":"４２號","E_COORD97":167374.53,"N_COORD97":2547346.4300000002,"ADDRESS":"安富街２５１巷２８弄４２號","OBJECTID":81340},"geometry":{"x":167374.53000000119,"y":2547346.4299999997}},{"attributes":{"ID":81341,"DIS_CODE":0,"TOWNNAME":"新市區","LI":"新市里","LIN":"12鄰","STREET":"中正路","SECT":" ","MAREA":" ","LANE":"３０１巷","ALLEY":"１５弄","HOUSE_NO":"６１號","E_COORD97":177458.547418,"N_COORD97":2553225.2368899998,"ADDRESS":"中正路３０１巷１５弄６１號","OBJECTID":81341},"geometry":{"x":177458.54741800018,"y":2553225.2368900012}},{"attributes":{"ID":81342,"DIS_CODE":0,"TOWNNAME":"新市區","LI":"新市里","LIN":"12鄰","STREET":"中正路","SECT":" ","MAREA":" ","LANE":"３０１巷","ALLEY":"１５弄","HOUSE_NO":"６３號","E_COORD97":177452.50962600001,"N_COORD97":2553222.9085599999,"ADDRESS":"中正路３０１巷１５弄６３號","OBJECTID":81342},"geometry":{"x":177452.50962600019,"y":2553222.9085580036}},{"attributes":{"ID":81343,"DIS_CODE":0,"TOWNNAME":"柳營區","LI":"篤農里","LIN":"1鄰","STREET":" ","SECT":" ","MAREA":"小腳腿","LANE":" ","ALLEY":" ","HOUSE_NO":"１７７號之５","E_COORD97":185298.29000000001,"N_COORD97":2576745.3100000001,"ADDRESS":"小腳腿１７７號之５","OBJECTID":81343},"geometry":{"x":185298.29000000004,"y":2576745.3100000005}},{"attributes":{"ID":81344,"DIS_CODE":0,"TOWNNAME":"柳營區","LI":"篤農里","LIN":"1鄰","STREET":" ","SECT":" ","MAREA":"小腳腿","LANE":" ","ALLEY":" ","HOUSE_NO":"１７７號之６","E_COORD97":185298.01999999999,"N_COORD97":2576741.02,"ADDRESS":"小腳腿１７７號之６","OBJECTID":81344},"geometry":{"x":185298.01999999955,"y":2576741.0200000033}},{"attributes":{"ID":81345,"DIS_CODE":0,"TOWNNAME":"柳營區","LI":"篤農里","LIN":"1鄰","STREET":" ","SECT":" ","MAREA":"小腳腿","LANE":" ","ALLEY":" ","HOUSE_NO":"１７７號之７","E_COORD97":185298.37,"N_COORD97":2576764.0899999999,"ADDRESS":"小腳腿１７７號之７","OBJECTID":81345},"geometry":{"x":185298.37000000197,"y":2576764.0899999999}},{"attributes":{"ID":81346,"DIS_CODE":0,"TOWNNAME":"新市區","LI":"新市里","LIN":"12鄰","STREET":"中正路","SECT":" ","MAREA":" ","LANE":"３０１巷","ALLEY":"１５弄","HOUSE_NO":"６５號","E_COORD97":177447.319242,"N_COORD97":2553219.9452300002,"ADDRESS":"中正路３０１巷１５弄６５號","OBJECTID":81346},"geometry":{"x":177447.31924199965,"y":2553219.9452260006}},{"attributes":{"ID":81347,"DIS_CODE":0,"TOWNNAME":"新市區","LI":"新市里","LIN":"12鄰","STREET":"中正路","SECT":" ","MAREA":" ","LANE":"３０１巷","ALLEY":"１５弄","HOUSE_NO":"６７號","E_COORD97":177442.12885899999,"N_COORD97":2553217.4052300001,"ADDRESS":"中正路３０１巷１５弄６７號","OBJECTID":81347},"geometry":{"x":177442.12885900028,"y":2553217.4052280001}},{"attributes":{"ID":81348,"DIS_CODE":0,"TOWNNAME":"善化區","LI":"東隆里","LIN":"7鄰","STREET":" ","SECT":" ","MAREA":"東勢寮","LANE":" ","ALLEY":" ","HOUSE_NO":"１８８號","E_COORD97":179906.14000000001,"N_COORD97":2561793.2599999998,"ADDRESS":"東勢寮１８８號","OBJECTID":81348},"geometry":{"x":179906.1400000006,"y":2561793.2599999998}},{"attributes":{"ID":81349,"DIS_CODE":0,"TOWNNAME":"新市區","LI":"新市里","LIN":"12鄰","STREET":"中正路","SECT":" ","MAREA":" ","LANE":"３０１巷","ALLEY":"１５弄","HOUSE_NO":"６９號","E_COORD97":177436.726624,"N_COORD97":2553214.65356,"ADDRESS":"中正路３０１巷１５弄６９號","OBJECTID":81349},"geometry":{"x":177436.72662400082,"y":2553214.6535630003}},{"attributes":{"ID":81350,"DIS_CODE":0,"TOWNNAME":"歸仁區","LI":"西埔里","LIN":"8鄰","STREET":"保大路","SECT":"二段","MAREA":" ","LANE":" ","ALLEY":" ","HOUSE_NO":"２８２號","E_COORD97":176579.07000000001,"N_COORD97":2544164.2799999998,"ADDRESS":"保大路二段２８２號","OBJECTID":81350},"geometry":{"x":176579.07000000123,"y":2544164.2800000031}},{"attributes":{"ID":81351,"DIS_CODE":0,"TOWNNAME":"柳營區","LI":"篤農里","LIN":"1鄰","STREET":" ","SECT":" ","MAREA":"小腳腿","LANE":" ","ALLEY":" ","HOUSE_NO":"１７８號之１","E_COORD97":185295.91,"N_COORD97":2576718.1299999999,"ADDRESS":"小腳腿１７８號之１","OBJECTID":81351},"geometry":{"x":185295.91000000015,"y":2576718.129999999}},{"attributes":{"ID":81352,"DIS_CODE":0,"TOWNNAME":"新市區","LI":"新市里","LIN":"12鄰","STREET":"中正路","SECT":" ","MAREA":" ","LANE":"３０１巷","ALLEY":"１５弄","HOUSE_NO":"７１號","E_COORD97":177431.95994500001,"N_COORD97":2553212.11356,"ADDRESS":"中正路３０１巷１５弄７１號","OBJECTID":81352},"geometry":{"x":177431.95994499978,"y":2553212.1135639995}},{"attributes":{"ID":81353,"DIS_CODE":0,"TOWNNAME":"安南區","LI":"海佃里","LIN":"12鄰","STREET":"國安街","SECT":" ","MAREA":" ","LANE":"５６巷","ALLEY":"１２１弄","HOUSE_NO":"１０號","E_COORD97":166909.17999999999,"N_COORD97":2547377.0600000001,"ADDRESS":"國安街５６巷１２１弄１０號","OBJECTID":81353},"geometry":{"x":166909.1799999997,"y":2547377.0600000005}},{"attributes":{"ID":81354,"DIS_CODE":0,"TOWNNAME":"善化區","LI":"嘉北里","LIN":"7鄰","STREET":" ","SECT":" ","MAREA":"茄拔","LANE":" ","ALLEY":" ","HOUSE_NO":"１７０號","E_COORD97":181087.92999999999,"N_COORD97":2559916.7599999998,"ADDRESS":"茄拔１７０號","OBJECTID":81354},"geometry":{"x":181087.9299999997,"y":2559916.7600000016}},{"attributes":{"ID":81355,"DIS_CODE":0,"TOWNNAME":"善化區","LI":"東隆里","LIN":"7鄰","STREET":" ","SECT":" ","MAREA":"東勢寮","LANE":" ","ALLEY":" ","HOUSE_NO":"１８９號","E_COORD97":179909.44,"N_COORD97":2561858.7599999998,"ADDRESS":"東勢寮１８９號","OBJECTID":81355},"geometry":{"x":179909.44000000134,"y":2561858.7599999979}},{"attributes":{"ID":81356,"DIS_CODE":0,"TOWNNAME":"善化區","LI":"牛庄里","LIN":"7鄰","STREET":" ","SECT":" ","MAREA":"牛庄","LANE":" ","ALLEY":" ","HOUSE_NO":"７０號","E_COORD97":180111.76000000001,"N_COORD97":2560100.75,"ADDRESS":"牛庄７０號","OBJECTID":81356},"geometry":{"x":180111.76000000071,"y":2560100.7500000019}},{"attributes":{"ID":81357,"DIS_CODE":0,"TOWNNAME":"善化區","LI":"東隆里","LIN":"7鄰","STREET":" ","SECT":" ","MAREA":"東勢寮","LANE":" ","ALLEY":" ","HOUSE_NO":"１８９號之２","E_COORD97":179916.60999999999,"N_COORD97":2561874.27,"ADDRESS":"東勢寮１８９號之２","OBJECTID":81357},"geometry":{"x":179916.6100000022,"y":2561874.2699999996}},{"attributes":{"ID":81358,"DIS_CODE":0,"TOWNNAME":"善化區","LI":"牛庄里","LIN":"7鄰","STREET":" ","SECT":" ","MAREA":"牛庄","LANE":" ","ALLEY":" ","HOUSE_NO":"７２號之１","E_COORD97":180121.72,"N_COORD97":2560048.02,"ADDRESS":"牛庄７２號之１","OBJECTID":81358},"geometry":{"x":180121.71999999974,"y":2560048.0200000014}},{"attributes":{"ID":81359,"DIS_CODE":0,"TOWNNAME":"柳營區","LI":"篤農里","LIN":"1鄰","STREET":" ","SECT":" ","MAREA":"小腳腿","LANE":" ","ALLEY":" ","HOUSE_NO":"１７８號之２","E_COORD97":185295.85999999999,"N_COORD97":2576722.6299999999,"ADDRESS":"小腳腿１７８號之２","OBJECTID":81359},"geometry":{"x":185295.86000000127,"y":2576722.6300000027}},{"attributes":{"ID":81360,"DIS_CODE":0,"TOWNNAME":"柳營區","LI":"篤農里","LIN":"1鄰","STREET":" ","SECT":" ","MAREA":"小腳腿","LANE":" ","ALLEY":" ","HOUSE_NO":"１７８號之３","E_COORD97":185295.92999999999,"N_COORD97":2576726.7599999998,"ADDRESS":"小腳腿１７８號之３","OBJECTID":81360},"geometry":{"x":185295.93000000156,"y":2576726.7600000016}},{"attributes":{"ID":81361,"DIS_CODE":0,"TOWNNAME":"柳營區","LI":"篤農里","LIN":"1鄰","STREET":" ","SECT":" ","MAREA":"小腳腿","LANE":" ","ALLEY":" ","HOUSE_NO":"１７８號之４","E_COORD97":185296.09,"N_COORD97":2576730.8599999999,"ADDRESS":"小腳腿１７８號之４","OBJECTID":81361},"geometry":{"x":185296.08999999985,"y":2576730.8599999994}},{"attributes":{"ID":81362,"DIS_CODE":0,"TOWNNAME":"安南區","LI":"海佃里","LIN":"12鄰","STREET":"國安街","SECT":" ","MAREA":" ","LANE":"５６巷","ALLEY":"１２１弄","HOUSE_NO":"１１號","E_COORD97":166909.85000000001,"N_COORD97":2547351.1499999999,"ADDRESS":"國安街５６巷１２１弄１１號","OBJECTID":81362},"geometry":{"x":166909.84999999963,"y":2547351.1500000022}},{"attributes":{"ID":81363,"DIS_CODE":0,"TOWNNAME":"安南區","LI":"海佃里","LIN":"12鄰","STREET":"國安街","SECT":" ","MAREA":" ","LANE":"５６巷","ALLEY":"１２１弄","HOUSE_NO":"１２號","E_COORD97":166904.53,"N_COORD97":2547377.0600000001,"ADDRESS":"國安街５６巷１２１弄１２號","OBJECTID":81363},"geometry":{"x":166904.53000000026,"y":2547377.0600000005}},{"attributes":{"ID":81364,"DIS_CODE":0,"TOWNNAME":"安南區","LI":"海佃里","LIN":"12鄰","STREET":"國安街","SECT":" ","MAREA":" ","LANE":"５６巷","ALLEY":"１２１弄","HOUSE_NO":"１３號","E_COORD97":166904.53,"N_COORD97":2547349.8199999998,"ADDRESS":"國安街５６巷１２１弄１３號","OBJECTID":81364},"geometry":{"x":166904.53000000026,"y":2547349.8200000022}},{"attributes":{"ID":81365,"DIS_CODE":0,"TOWNNAME":"柳營區","LI":"篤農里","LIN":"1鄰","STREET":" ","SECT":" ","MAREA":"小腳腿","LANE":" ","ALLEY":" ","HOUSE_NO":"１７８號之５","E_COORD97":185296.35999999999,"N_COORD97":2576735.5499999998,"ADDRESS":"小腳腿１７８號之５","OBJECTID":81365},"geometry":{"x":185296.36000000034,"y":2576735.5500000026}},{"attributes":{"ID":81366,"DIS_CODE":0,"TOWNNAME":"柳營區","LI":"篤農里","LIN":"1鄰","STREET":" ","SECT":" ","MAREA":"小腳腿","LANE":" ","ALLEY":" ","HOUSE_NO":"１７８號","E_COORD97":185295.92999999999,"N_COORD97":2576710.3900000001,"ADDRESS":"小腳腿１７８號","OBJECTID":81366},"geometry":{"x":185295.93000000156,"y":2576710.3900000025}},{"attributes":{"ID":81367,"DIS_CODE":0,"TOWNNAME":"柳營區","LI":"篤農里","LIN":"1鄰","STREET":" ","SECT":" ","MAREA":"小腳腿","LANE":" ","ALLEY":" ","HOUSE_NO":"１７９號之１","E_COORD97":185295.66,"N_COORD97":2576713.96,"ADDRESS":"小腳腿１７９號之１","OBJECTID":81367},"geometry":{"x":185295.66000000015,"y":2576713.9600000009}},{"attributes":{"ID":81368,"DIS_CODE":0,"TOWNNAME":"柳營區","LI":"篤農里","LIN":"1鄰","STREET":" ","SECT":" ","MAREA":"小腳腿","LANE":" ","ALLEY":" ","HOUSE_NO":"１７９號","E_COORD97":185304.98000000001,"N_COORD97":2576689.4199999999,"ADDRESS":"小腳腿１７９號","OBJECTID":81368},"geometry":{"x":185304.98000000138,"y":2576689.4199999999}},{"attributes":{"ID":81369,"DIS_CODE":0,"TOWNNAME":"柳營區","LI":"重溪里","LIN":"1鄰","STREET":" ","SECT":" ","MAREA":"小腳腿","LANE":" ","ALLEY":" ","HOUSE_NO":"２號之１０","E_COORD97":184879.62,"N_COORD97":2576299.9300000002,"ADDRESS":"小腳腿２號之１０","OBJECTID":81369},"geometry":{"x":184879.61999999918,"y":2576299.9299999997}},{"attributes":{"ID":81370,"DIS_CODE":0,"TOWNNAME":"柳營區","LI":"重溪里","LIN":"1鄰","STREET":" ","SECT":" ","MAREA":"小腳腿","LANE":" ","ALLEY":" ","HOUSE_NO":"２號之１１","E_COORD97":185032.53,"N_COORD97":2576225.27,"ADDRESS":"小腳腿２號之１１","OBJECTID":81370},"geometry":{"x":185032.53000000026,"y":2576225.2700000014}},{"attributes":{"ID":81371,"DIS_CODE":0,"TOWNNAME":"柳營區","LI":"重溪里","LIN":"1鄰","STREET":" ","SECT":" ","MAREA":"小腳腿","LANE":" ","ALLEY":" ","HOUSE_NO":"２號之１２","E_COORD97":184633.94,"N_COORD97":2576333.5600000001,"ADDRESS":"小腳腿２號之１２","OBJECTID":81371},"geometry":{"x":184633.94000000134,"y":2576333.5600000005}},{"attributes":{"ID":81372,"DIS_CODE":0,"TOWNNAME":"柳營區","LI":"重溪里","LIN":"1鄰","STREET":" ","SECT":" ","MAREA":"小腳腿","LANE":" ","ALLEY":" ","HOUSE_NO":"２號之１３","E_COORD97":185053.09,"N_COORD97":2576224.6099999999,"ADDRESS":"小腳腿２號之１３","OBJECTID":81372},"geometry":{"x":185053.09000000078,"y":2576224.6100000031}},{"attributes":{"ID":81373,"DIS_CODE":0,"TOWNNAME":"安南區","LI":"海佃里","LIN":"12鄰","STREET":"國安街","SECT":" ","MAREA":" ","LANE":"５６巷","ALLEY":"１２１弄","HOUSE_NO":"１４號","E_COORD97":166900.54000000001,"N_COORD97":2547375.73,"ADDRESS":"國安街５６巷１２１弄１４號","OBJECTID":81373},"geometry":{"x":166900.54000000004,"y":2547375.7300000004}},{"attributes":{"ID":81374,"DIS_CODE":0,"TOWNNAME":"柳營區","LI":"重溪里","LIN":"1鄰","STREET":" ","SECT":" ","MAREA":"小腳腿","LANE":" ","ALLEY":" ","HOUSE_NO":"２號之１５","E_COORD97":184977.32999999999,"N_COORD97":2576211.6600000001,"ADDRESS":"小腳腿２號之１５","OBJECTID":81374},"geometry":{"x":184977.33000000101,"y":2576211.6600000039}},{"attributes":{"ID":81375,"DIS_CODE":0,"TOWNNAME":"柳營區","LI":"重溪里","LIN":"1鄰","STREET":" ","SECT":" ","MAREA":"小腳腿","LANE":" ","ALLEY":" ","HOUSE_NO":"２號之２","E_COORD97":184629.78,"N_COORD97":2576294.3100000001,"ADDRESS":"小腳腿２號之２","OBJECTID":81375},"geometry":{"x":184629.78000000119,"y":2576294.3100000005}},{"attributes":{"ID":81376,"DIS_CODE":0,"TOWNNAME":"安南區","LI":"海佃里","LIN":"12鄰","STREET":"國安街","SECT":" ","MAREA":" ","LANE":"５６巷","ALLEY":"１２１弄","HOUSE_NO":"１５號","E_COORD97":166901.20000000001,"N_COORD97":2547348.5,"ADDRESS":"國安街５６巷１２１弄１５號","OBJECTID":81376},"geometry":{"x":166901.20000000019,"y":2547348.5000000019}},{"attributes":{"ID":81377,"DIS_CODE":0,"TOWNNAME":"安南區","LI":"\u25A0南里","LIN":"7鄰","STREET":"安昌街","SECT":" ","MAREA":" ","LANE":"１１９巷","ALLEY":" ","HOUSE_NO":"１８號","E_COORD97":169968.19,"N_COORD97":2552294.98,"ADDRESS":"安昌街１１９巷１８號","OBJECTID":81377},"geometry":{"x":169968.19000000041,"y":2552294.9800000023}},{"attributes":{"ID":81378,"DIS_CODE":0,"TOWNNAME":"白河區","LI":"外角里","LIN":"12鄰","STREET":" ","SECT":" ","MAREA":"庄內","LANE":" ","ALLEY":" ","HOUSE_NO":"５１號","E_COORD97":190917.84,"N_COORD97":2583306.8300000001,"ADDRESS":"庄內５１號","OBJECTID":81378},"geometry":{"x":190917.84000000171,"y":2583306.8300000019}},{"attributes":{"ID":81379,"DIS_CODE":0,"TOWNNAME":"柳營區","LI":"重溪里","LIN":"1鄰","STREET":" ","SECT":" ","MAREA":"小腳腿","LANE":" ","ALLEY":" ","HOUSE_NO":"２號之８","E_COORD97":185018.01999999999,"N_COORD97":2576214.1400000001,"ADDRESS":"小腳腿２號之８","OBJECTID":81379},"geometry":{"x":185018.01999999955,"y":2576214.1400000006}},{"attributes":{"ID":81380,"DIS_CODE":0,"TOWNNAME":"安南區","LI":"\u25A0田里","LIN":"7鄰","STREET":"科技一路","SECT":" ","MAREA":" ","LANE":" ","ALLEY":" ","HOUSE_NO":"２３號","E_COORD97":162937.64999999999,"N_COORD97":2548971.3999999999,"ADDRESS":"科技一路２３號","OBJECTID":81380},"geometry":{"x":162937.6500000013,"y":2548971.4000000004}},{"attributes":{"ID":81381,"DIS_CODE":0,"TOWNNAME":"柳營區","LI":"重溪里","LIN":"1鄰","STREET":" ","SECT":" ","MAREA":"小腳腿","LANE":" ","ALLEY":" ","HOUSE_NO":"３號之２６","E_COORD97":184863.95000000001,"N_COORD97":2576241.3599999999,"ADDRESS":"小腳腿３號之２６","OBJECTID":81381},"geometry":{"x":184863.95000000205,"y":2576241.3600000013}},{"attributes":{"ID":81382,"DIS_CODE":0,"TOWNNAME":"善化區","LI":"東隆里","LIN":"7鄰","STREET":" ","SECT":" ","MAREA":"東勢寮","LANE":" ","ALLEY":" ","HOUSE_NO":"１９３號","E_COORD97":179801.10000000001,"N_COORD97":2561787.5099999998,"ADDRESS":"東勢寮１９３號","OBJECTID":81382},"geometry":{"x":179801.10000000056,"y":2561787.5100000016}},{"attributes":{"ID":81383,"DIS_CODE":0,"TOWNNAME":"安南區","LI":"海佃里","LIN":"12鄰","STREET":"國安街","SECT":" ","MAREA":" ","LANE":"５６巷","ALLEY":"１２１弄","HOUSE_NO":"１６號","E_COORD97":166895.88,"N_COORD97":2547375.0699999998,"ADDRESS":"國安街５６巷１２１弄１６號","OBJECTID":81383},"geometry":{"x":166895.88000000082,"y":2547375.0700000022}},{"attributes":{"ID":81384,"DIS_CODE":0,"TOWNNAME":"善化區","LI":"牛庄里","LIN":"7鄰","STREET":" ","SECT":" ","MAREA":"牛庄","LANE":" ","ALLEY":" ","HOUSE_NO":"７４號","E_COORD97":180131.17999999999,"N_COORD97":2560025.25,"ADDRESS":"牛庄７４號","OBJECTID":81384},"geometry":{"x":180131.18000000063,"y":2560025.2500000037}},{"attributes":{"ID":81385,"DIS_CODE":0,"TOWNNAME":"善化區","LI":"東隆里","LIN":"7鄰","STREET":" ","SECT":" ","MAREA":"東勢寮","LANE":" ","ALLEY":" ","HOUSE_NO":"１８９號之４","E_COORD97":179950.79999999999,"N_COORD97":2561878.02,"ADDRESS":"東勢寮１８９號之４","OBJECTID":81385},"geometry":{"x":179950.80000000075,"y":2561878.0200000014}},{"attributes":{"ID":81386,"DIS_CODE":0,"TOWNNAME":"善化區","LI":"東昌里","LIN":"7鄰","STREET":" ","SECT":" ","MAREA":"東勢寮","LANE":" ","ALLEY":" ","HOUSE_NO":"６９之３號","E_COORD97":180459.92999999999,"N_COORD97":2561795.52,"ADDRESS":"東勢寮６９之３號","OBJECTID":81386},"geometry":{"x":180459.93000000063,"y":2561795.5199999996}},{"attributes":{"ID":81387,"DIS_CODE":0,"TOWNNAME":"安南區","LI":"海佃里","LIN":"12鄰","STREET":"國安街","SECT":" ","MAREA":" ","LANE":"５６巷","ALLEY":"１２１弄","HOUSE_NO":"１７號","E_COORD97":166896.54999999999,"N_COORD97":2547347.1699999999,"ADDRESS":"國安街５６巷１２１弄１７號","OBJECTID":81387},"geometry":{"x":166896.54999999981,"y":2547347.1700000018}},{"attributes":{"ID":81388,"DIS_CODE":0,"TOWNNAME":"安南區","LI":"海佃里","LIN":"12鄰","STREET":"國安街","SECT":" ","MAREA":" ","LANE":"５６巷","ALLEY":"１２１弄","HOUSE_NO":"１８號","E_COORD97":166891.23000000001,"N_COORD97":2547373.7400000002,"ADDRESS":"國安街５６巷１２１弄１８號","OBJECTID":81388},"geometry":{"x":166891.23000000045,"y":2547373.7400000021}},{"attributes":{"ID":81389,"DIS_CODE":0,"TOWNNAME":"善化區","LI":"東隆里","LIN":"7鄰","STREET":" ","SECT":" ","MAREA":"東勢寮","LANE":" ","ALLEY":" ","HOUSE_NO":"１９２號","E_COORD97":179819.89999999999,"N_COORD97":2561844.7599999998,"ADDRESS":"東勢寮１９２號","OBJECTID":81389},"geometry":{"x":179819.9000000013,"y":2561844.7599999998}},{"attributes":{"ID":81390,"DIS_CODE":0,"TOWNNAME":"安南區","LI":"海佃里","LIN":"12鄰","STREET":"國安街","SECT":" ","MAREA":" ","LANE":"５６巷","ALLEY":"１２１弄","HOUSE_NO":"１９號","E_COORD97":166892.56,"N_COORD97":2547345.8399999999,"ADDRESS":"國安街５６巷１２１弄１９號","OBJECTID":81390},"geometry":{"x":166892.56000000052,"y":2547345.8400000017}},{"attributes":{"ID":81391,"DIS_CODE":0,"TOWNNAME":"善化區","LI":"嘉北里","LIN":"7鄰","STREET":" ","SECT":" ","MAREA":"茄拔","LANE":" ","ALLEY":" ","HOUSE_NO":"１７６號之４","E_COORD97":181093.14000000001,"N_COORD97":2559977.27,"ADDRESS":"茄拔１７６號之４","OBJECTID":81391},"geometry":{"x":181093.13999999966,"y":2559977.2700000033}},{"attributes":{"ID":81392,"DIS_CODE":0,"TOWNNAME":"安南區","LI":"海佃里","LIN":"12鄰","STREET":"國安街","SECT":" ","MAREA":" ","LANE":"５６巷","ALLEY":"１２１弄","HOUSE_NO":"１號","E_COORD97":166931.13,"N_COORD97":2547354.4700000002,"ADDRESS":"國安街５６巷１２１弄１號","OBJECTID":81392},"geometry":{"x":166931.13000000082,"y":2547354.4700000044}},{"attributes":{"ID":81393,"DIS_CODE":0,"TOWNNAME":"安南區","LI":"海佃里","LIN":"12鄰","STREET":"國安街","SECT":" ","MAREA":" ","LANE":"５６巷","ALLEY":"１２１弄","HOUSE_NO":"２０號","E_COORD97":166886.57000000001,"N_COORD97":2547372.4100000001,"ADDRESS":"國安街５６巷１２１弄２０號","OBJECTID":81393},"geometry":{"x":166886.57000000123,"y":2547372.410000002}},{"attributes":{"ID":81394,"DIS_CODE":0,"TOWNNAME":"安南區","LI":"海佃里","LIN":"12鄰","STREET":"國安街","SECT":" ","MAREA":" ","LANE":"５６巷","ALLEY":"１２１弄","HOUSE_NO":"２１號","E_COORD97":166887.89999999999,"N_COORD97":2547345.1699999999,"ADDRESS":"國安街５６巷１２１弄２１號","OBJECTID":81394},"geometry":{"x":166887.90000000037,"y":2547345.1699999999}},{"attributes":{"ID":81395,"DIS_CODE":0,"TOWNNAME":"善化區","LI":"嘉北里","LIN":"7鄰","STREET":" ","SECT":" ","MAREA":"茄拔","LANE":" ","ALLEY":" ","HOUSE_NO":"１７４號之１","E_COORD97":181047.78,"N_COORD97":2559915.52,"ADDRESS":"茄拔１７４號之１","OBJECTID":81395},"geometry":{"x":181047.78000000212,"y":2559915.5200000014}},{"attributes":{"ID":81396,"DIS_CODE":0,"TOWNNAME":"善化區","LI":"胡家里","LIN":"7鄰","STREET":" ","SECT":" ","MAREA":"胡厝寮","LANE":" ","ALLEY":" ","HOUSE_NO":"５４號之２","E_COORD97":175441.70000000001,"N_COORD97":2560639.52,"ADDRESS":"胡厝寮５４號之２","OBJECTID":81396},"geometry":{"x":175441.70000000019,"y":2560639.5199999996}},{"attributes":{"ID":81397,"DIS_CODE":0,"TOWNNAME":"善化區","LI":"東隆里","LIN":"7鄰","STREET":" ","SECT":" ","MAREA":"東勢寮","LANE":" ","ALLEY":" ","HOUSE_NO":"２００號之１","E_COORD97":179887.63,"N_COORD97":2561762.02,"ADDRESS":"東勢寮２００號之１","OBJECTID":81397},"geometry":{"x":179887.63000000082,"y":2561762.0200000033}},{"attributes":{"ID":81398,"DIS_CODE":0,"TOWNNAME":"安南區","LI":"海佃里","LIN":"12鄰","STREET":"國安街","SECT":" ","MAREA":" ","LANE":"５６巷","ALLEY":"１２１弄","HOUSE_NO":"２２號","E_COORD97":166881.92000000001,"N_COORD97":2547371.75,"ADDRESS":"國安街５６巷１２１弄２２號","OBJECTID":81398},"geometry":{"x":166881.92000000086,"y":2547371.75}},{"attributes":{"ID":81399,"DIS_CODE":0,"TOWNNAME":"南區","LI":"文南里","LIN":"14鄰","STREET":"永南二街","SECT":" ","MAREA":" ","LANE":" ","ALLEY":" ","HOUSE_NO":"１８號","E_COORD97":166778.09,"N_COORD97":2542624.9900000002,"ADDRESS":"永南二街１８號","OBJECTID":81399},"geometry":{"x":166778.08999999985,"y":2542624.9900000021}},{"attributes":{"ID":81400,"DIS_CODE":0,"TOWNNAME":"善化區","LI":"東昌里","LIN":"7鄰","STREET":" ","SECT":" ","MAREA":"東勢寮","LANE":" ","ALLEY":" ","HOUSE_NO":"７１之５號","E_COORD97":180437.47,"N_COORD97":2561833.52,"ADDRESS":"東勢寮７１之５號","OBJECTID":81400},"geometry":{"x":180437.47000000067,"y":2561833.5200000033}}]}