{"displayFieldName":"TOWNNAME","fieldAliases":{"ID":"ID","DIS_CODE":"DIS_CODE","TOWNNAME":"TOWNNAME","LI":"LI","LIN":"LIN","STREET":"STREET","SECT":"SECT","MAREA":"MAREA","LANE":"LANE","ALLEY":"ALLEY","HOUSE_NO":"HOUSE_NO","E_COORD97":"E_COORD97","N_COORD97":"N_COORD97","ADDRESS":"ADDRESS","OBJECTID":"OBJECTID"},"geometryType":"esriGeometryPoint","spatialReference":{"wkid":102443,"latestWkid":3826},"fields":[{"name":"ID","type":"esriFieldTypeDouble","alias":"ID"},{"name":"DIS_CODE","type":"esriFieldTypeInteger","alias":"DIS_CODE"},{"name":"TOWNNAME","type":"esriFieldTypeString","alias":"TOWNNAME","length":8},{"name":"LI","type":"esriFieldTypeString","alias":"LI","length":8},{"name":"LIN","type":"esriFieldTypeString","alias":"LIN","length":12},{"name":"STREET","type":"esriFieldTypeString","alias":"STREET","length":20},{"name":"SECT","type":"esriFieldTypeString","alias":"SECT","length":8},{"name":"MAREA","type":"esriFieldTypeString","alias":"MAREA","length":12},{"name":"LANE","type":"esriFieldTypeString","alias":"LANE","length":10},{"name":"ALLEY","type":"esriFieldTypeString","alias":"ALLEY","length":10},{"name":"HOUSE_NO","type":"esriFieldTypeString","alias":"HOUSE_NO","length":20},{"name":"E_COORD97","type":"esriFieldTypeDouble","alias":"E_COORD97"},{"name":"N_COORD97","type":"esriFieldTypeDouble","alias":"N_COORD97"},{"name":"ADDRESS","type":"esriFieldTypeString","alias":"ADDRESS","length":50},{"name":"OBJECTID","type":"esriFieldTypeOID","alias":"OBJECTID"}],"features":[{"attributes":{"ID":256405,"DIS_CODE":0,"TOWNNAME":"永康區","LI":"東橋里","LIN":"17鄰","STREET":"東橋三路","SECT":" ","MAREA":" ","LANE":"４３０巷","ALLEY":" ","HOUSE_NO":"３７號","E_COORD97":171452.57999999999,"N_COORD97":2547120.8500000001,"ADDRESS":"東橋三路４３０巷３７號","OBJECTID":256401},"geometry":{"x":171452.58000000101,"y":2547120.8500000015}},{"attributes":{"ID":256406,"DIS_CODE":0,"TOWNNAME":"永康區","LI":"東橋里","LIN":"17鄰","STREET":"東橋三路","SECT":" ","MAREA":" ","LANE":"４３０巷","ALLEY":" ","HOUSE_NO":"３９號","E_COORD97":171456.51999999999,"N_COORD97":2547123.29,"ADDRESS":"東橋三路４３０巷３９號","OBJECTID":256402},"geometry":{"x":171456.51999999955,"y":2547123.2899999972}},{"attributes":{"ID":256407,"DIS_CODE":0,"TOWNNAME":"永康區","LI":"東橋里","LIN":"17鄰","STREET":"東橋三路","SECT":" ","MAREA":" ","LANE":"４３０巷","ALLEY":" ","HOUSE_NO":"４１號","E_COORD97":171460.79000000001,"N_COORD97":2547124.3500000001,"ADDRESS":"東橋三路４３０巷４１號","OBJECTID":256403},"geometry":{"x":171460.79000000004,"y":2547124.3500000015}},{"attributes":{"ID":256408,"DIS_CODE":0,"TOWNNAME":"永康區","LI":"東橋里","LIN":"17鄰","STREET":"東橋三路","SECT":" ","MAREA":" ","LANE":"４３０巷","ALLEY":" ","HOUSE_NO":"４３號","E_COORD97":171464.56,"N_COORD97":2547127.8700000001,"ADDRESS":"東橋三路４３０巷４３號","OBJECTID":256404},"geometry":{"x":171464.56000000052,"y":2547127.870000001}},{"attributes":{"ID":256409,"DIS_CODE":0,"TOWNNAME":"永康區","LI":"東橋里","LIN":"17鄰","STREET":"東橋三路","SECT":" ","MAREA":" ","LANE":"４３０巷","ALLEY":" ","HOUSE_NO":"２號","E_COORD97":171396.76000000001,"N_COORD97":2547064,"ADDRESS":"東橋三路４３０巷２號","OBJECTID":256405},"geometry":{"x":171396.76000000071,"y":2547064}},{"attributes":{"ID":256410,"DIS_CODE":0,"TOWNNAME":"永康區","LI":"東橋里","LIN":"17鄰","STREET":"東橋三路","SECT":" ","MAREA":" ","LANE":"４３０巷","ALLEY":" ","HOUSE_NO":"６號","E_COORD97":171400.73000000001,"N_COORD97":2547067.3300000001,"ADDRESS":"東橋三路４３０巷６號","OBJECTID":256406},"geometry":{"x":171400.73000000045,"y":2547067.3300000019}},{"attributes":{"ID":256411,"DIS_CODE":0,"TOWNNAME":"永康區","LI":"東橋里","LIN":"17鄰","STREET":"東橋三路","SECT":" ","MAREA":" ","LANE":"４３０巷","ALLEY":" ","HOUSE_NO":"８號","E_COORD97":171405.95999999999,"N_COORD97":2547066.3399999999,"ADDRESS":"東橋三路４３０巷８號","OBJECTID":256407},"geometry":{"x":171405.96000000089,"y":2547066.3400000036}},{"attributes":{"ID":256412,"DIS_CODE":0,"TOWNNAME":"永康區","LI":"東橋里","LIN":"17鄰","STREET":"東橋三路","SECT":" ","MAREA":" ","LANE":"４３０巷","ALLEY":" ","HOUSE_NO":"１０號","E_COORD97":171409.14999999999,"N_COORD97":2547068.3100000001,"ADDRESS":"東橋三路４３０巷１０號","OBJECTID":256408},"geometry":{"x":171409.15000000037,"y":2547068.3100000024}},{"attributes":{"ID":256413,"DIS_CODE":0,"TOWNNAME":"永康區","LI":"東橋里","LIN":"17鄰","STREET":"東橋三路","SECT":" ","MAREA":" ","LANE":"４３０巷","ALLEY":" ","HOUSE_NO":"１２號","E_COORD97":171412.94,"N_COORD97":2547070.6699999999,"ADDRESS":"東橋三路４３０巷１２號","OBJECTID":256409},"geometry":{"x":171412.94000000227,"y":2547070.6699999999}},{"attributes":{"ID":256414,"DIS_CODE":0,"TOWNNAME":"永康區","LI":"東橋里","LIN":"17鄰","STREET":"東橋三路","SECT":" ","MAREA":" ","LANE":"４３０巷","ALLEY":" ","HOUSE_NO":"１６號","E_COORD97":171416.73999999999,"N_COORD97":2547073.02,"ADDRESS":"東橋三路４３０巷１６號","OBJECTID":256410},"geometry":{"x":171416.74000000022,"y":2547073.0200000014}},{"attributes":{"ID":256415,"DIS_CODE":0,"TOWNNAME":"永康區","LI":"東橋里","LIN":"17鄰","STREET":"東橋三路","SECT":" ","MAREA":" ","LANE":"４３０巷","ALLEY":" ","HOUSE_NO":"１８號","E_COORD97":171419,"N_COORD97":2547078.6600000001,"ADDRESS":"東橋三路４３０巷１８號","OBJECTID":256411},"geometry":{"x":171419.00000000186,"y":2547078.660000002}},{"attributes":{"ID":256416,"DIS_CODE":0,"TOWNNAME":"永康區","LI":"東橋里","LIN":"17鄰","STREET":"東橋三路","SECT":" ","MAREA":" ","LANE":"４３０巷","ALLEY":" ","HOUSE_NO":"２０號","E_COORD97":171424.07999999999,"N_COORD97":2547078.6299999999,"ADDRESS":"東橋三路４３０巷２０號","OBJECTID":256412},"geometry":{"x":171424.08000000101,"y":2547078.6300000008}},{"attributes":{"ID":256417,"DIS_CODE":0,"TOWNNAME":"永康區","LI":"東橋里","LIN":"17鄰","STREET":"東橋三路","SECT":" ","MAREA":" ","LANE":"４３０巷","ALLEY":" ","HOUSE_NO":"２２號","E_COORD97":171427.37,"N_COORD97":2547079.6200000001,"ADDRESS":"東橋三路４３０巷２２號","OBJECTID":256413},"geometry":{"x":171427.37000000104,"y":2547079.6200000029}},{"attributes":{"ID":256418,"DIS_CODE":0,"TOWNNAME":"永康區","LI":"東橋里","LIN":"17鄰","STREET":"東橋三路","SECT":" ","MAREA":" ","LANE":"４３０巷","ALLEY":" ","HOUSE_NO":"２６號","E_COORD97":171431.17000000001,"N_COORD97":2547081.9700000002,"ADDRESS":"東橋三路４３０巷２６號","OBJECTID":256414},"geometry":{"x":171431.17000000179,"y":2547081.9700000007}},{"attributes":{"ID":256419,"DIS_CODE":0,"TOWNNAME":"永康區","LI":"東橋里","LIN":"17鄰","STREET":"東橋三路","SECT":" ","MAREA":" ","LANE":"４３０巷","ALLEY":" ","HOUSE_NO":"２８號","E_COORD97":171435.57999999999,"N_COORD97":2547084.71,"ADDRESS":"東橋三路４３０巷２８號","OBJECTID":256415},"geometry":{"x":171435.58000000101,"y":2547084.7100000009}},{"attributes":{"ID":256420,"DIS_CODE":0,"TOWNNAME":"永康區","LI":"東橋里","LIN":"17鄰","STREET":"東橋三路","SECT":" ","MAREA":" ","LANE":"４３０巷","ALLEY":" ","HOUSE_NO":"３０號","E_COORD97":171438.82000000001,"N_COORD97":2547086.7200000002,"ADDRESS":"東橋三路４３０巷３０號","OBJECTID":256416},"geometry":{"x":171438.8200000003,"y":2547086.7200000007}},{"attributes":{"ID":256421,"DIS_CODE":0,"TOWNNAME":"永康區","LI":"東橋里","LIN":"17鄰","STREET":"東橋三路","SECT":" ","MAREA":" ","LANE":"４３０巷","ALLEY":" ","HOUSE_NO":"３２號","E_COORD97":171441.10000000001,"N_COORD97":2547092.3700000001,"ADDRESS":"東橋三路４３０巷３２號","OBJECTID":256417},"geometry":{"x":171441.09999999963,"y":2547092.3700000029}},{"attributes":{"ID":256422,"DIS_CODE":0,"TOWNNAME":"永康區","LI":"東橋里","LIN":"17鄰","STREET":"東橋三路","SECT":" ","MAREA":" ","LANE":"４３０巷","ALLEY":" ","HOUSE_NO":"３６號","E_COORD97":171446.42000000001,"N_COORD97":2547091.4300000002,"ADDRESS":"東橋三路４３０巷３６號","OBJECTID":256418},"geometry":{"x":171446.41999999899,"y":2547091.4299999997}},{"attributes":{"ID":256423,"DIS_CODE":0,"TOWNNAME":"永康區","LI":"東橋里","LIN":"17鄰","STREET":"東橋三路","SECT":" ","MAREA":" ","LANE":"４３０巷","ALLEY":" ","HOUSE_NO":"３８號","E_COORD97":171449.60999999999,"N_COORD97":2547093.4100000001,"ADDRESS":"東橋三路４３０巷３８號","OBJECTID":256419},"geometry":{"x":171449.61000000127,"y":2547093.4100000039}},{"attributes":{"ID":256424,"DIS_CODE":0,"TOWNNAME":"永康區","LI":"東橋里","LIN":"17鄰","STREET":"東橋三路","SECT":" ","MAREA":" ","LANE":"４３０巷","ALLEY":" ","HOUSE_NO":"４０號","E_COORD97":171454.01999999999,"N_COORD97":2547096.1400000001,"ADDRESS":"東橋三路４３０巷４０號","OBJECTID":256420},"geometry":{"x":171454.02000000142,"y":2547096.1400000025}},{"attributes":{"ID":256425,"DIS_CODE":0,"TOWNNAME":"永康區","LI":"東橋里","LIN":"17鄰","STREET":"東橋三路","SECT":" ","MAREA":" ","LANE":"４３０巷","ALLEY":" ","HOUSE_NO":"４２號","E_COORD97":171456.63,"N_COORD97":2547100.4100000001,"ADDRESS":"東橋三路４３０巷４２號","OBJECTID":256421},"geometry":{"x":171456.62999999989,"y":2547100.410000002}},{"attributes":{"ID":256426,"DIS_CODE":0,"TOWNNAME":"永康區","LI":"東橋里","LIN":"17鄰","STREET":"東橋三路","SECT":" ","MAREA":" ","LANE":"４３０巷","ALLEY":" ","HOUSE_NO":"４６號","E_COORD97":171460.82999999999,"N_COORD97":2547101.4300000002,"ADDRESS":"東橋三路４３０巷４６號","OBJECTID":256422},"geometry":{"x":171460.83000000194,"y":2547101.4299999997}},{"attributes":{"ID":256427,"DIS_CODE":0,"TOWNNAME":"安南區","LI":"淵中里","LIN":"13鄰","STREET":"安中路","SECT":"四段","MAREA":" ","LANE":"１６４巷","ALLEY":" ","HOUSE_NO":"１號","E_COORD97":164884.986072,"N_COORD97":2550062.04691,"ADDRESS":"安中路四段１６４巷１號","OBJECTID":256423},"geometry":{"x":164884.98607200198,"y":2550062.0469140001}},{"attributes":{"ID":256428,"DIS_CODE":0,"TOWNNAME":"永康區","LI":"東橋里","LIN":"17鄰","STREET":"東橋三路","SECT":" ","MAREA":" ","LANE":"４３０巷","ALLEY":" ","HOUSE_NO":"５０號","E_COORD97":171464.04000000001,"N_COORD97":2547102.3599999999,"ADDRESS":"東橋三路４３０巷５０號","OBJECTID":256424},"geometry":{"x":171464.04000000004,"y":2547102.3599999994}},{"attributes":{"ID":256429,"DIS_CODE":0,"TOWNNAME":"永康區","LI":"東橋里","LIN":"17鄰","STREET":"東橋三路","SECT":" ","MAREA":" ","LANE":"４３０巷","ALLEY":" ","HOUSE_NO":"５２號","E_COORD97":171467.26000000001,"N_COORD97":2547107.0099999998,"ADDRESS":"東橋三路４３０巷５２號","OBJECTID":256425},"geometry":{"x":171467.25999999978,"y":2547107.0100000016}},{"attributes":{"ID":256430,"DIS_CODE":0,"TOWNNAME":"永康區","LI":"東橋里","LIN":"17鄰","STREET":"東橋三路","SECT":" ","MAREA":" ","LANE":"４３０巷","ALLEY":" ","HOUSE_NO":"５６號","E_COORD97":171472.25,"N_COORD97":2547107.4500000002,"ADDRESS":"東橋三路４３０巷５６號","OBJECTID":256426},"geometry":{"x":171472.25000000093,"y":2547107.4499999993}},{"attributes":{"ID":256431,"DIS_CODE":0,"TOWNNAME":"永康區","LI":"東橋里","LIN":"17鄰","STREET":"東橋三路","SECT":" ","MAREA":" ","LANE":"４３０巷","ALLEY":" ","HOUSE_NO":"５８號","E_COORD97":171475.45000000001,"N_COORD97":2547111.04,"ADDRESS":"東橋三路４３０巷５８號","OBJECTID":256427},"geometry":{"x":171475.45000000205,"y":2547111.0399999991}},{"attributes":{"ID":256432,"DIS_CODE":0,"TOWNNAME":"安南區","LI":"海東里","LIN":"17鄰","STREET":"同安路","SECT":" ","MAREA":" ","LANE":"３８７巷","ALLEY":" ","HOUSE_NO":"７號","E_COORD97":167264.98000000001,"N_COORD97":2549373.48,"ADDRESS":"同安路３８７巷７號","OBJECTID":256428},"geometry":{"x":167264.98000000138,"y":2549373.4800000004}},{"attributes":{"ID":256433,"DIS_CODE":0,"TOWNNAME":"安南區","LI":"海東里","LIN":"17鄰","STREET":"同安路","SECT":" ","MAREA":" ","LANE":"３８７巷","ALLEY":" ","HOUSE_NO":"９號","E_COORD97":167261.60999999999,"N_COORD97":2549376.2200000002,"ADDRESS":"同安路３８７巷９號","OBJECTID":256429},"geometry":{"x":167261.61000000034,"y":2549376.2200000007}},{"attributes":{"ID":256434,"DIS_CODE":0,"TOWNNAME":"永康區","LI":"五王里","LIN":"17鄰","STREET":"成功路","SECT":" ","MAREA":" ","LANE":"２０４巷","ALLEY":" ","HOUSE_NO":"３１號","E_COORD97":171479.12,"N_COORD97":2545763.3799999999,"ADDRESS":"成功路２０４巷３１號","OBJECTID":256430},"geometry":{"x":171479.11999999918,"y":2545763.3800000027}},{"attributes":{"ID":256435,"DIS_CODE":0,"TOWNNAME":"永康區","LI":"五王里","LIN":"17鄰","STREET":"成功路","SECT":" ","MAREA":" ","LANE":"２０４巷","ALLEY":" ","HOUSE_NO":"５３號","E_COORD97":171521.73000000001,"N_COORD97":2545792.02,"ADDRESS":"成功路２０４巷５３號","OBJECTID":256431},"geometry":{"x":171521.73000000138,"y":2545792.0199999996}},{"attributes":{"ID":256436,"DIS_CODE":0,"TOWNNAME":"永康區","LI":"西勢里","LIN":"17鄰","STREET":"富強路","SECT":"一段","MAREA":" ","LANE":"２５４巷","ALLEY":" ","HOUSE_NO":"５８號","E_COORD97":175797.84,"N_COORD97":2546360.52,"ADDRESS":"富強路一段２５４巷５８號","OBJECTID":256432},"geometry":{"x":175797.83999999985,"y":2546360.5200000014}},{"attributes":{"ID":256437,"DIS_CODE":0,"TOWNNAME":"東區","LI":"中西里","LIN":"27鄰","STREET":"東寧路","SECT":" ","MAREA":" ","LANE":"１２０巷","ALLEY":" ","HOUSE_NO":"８５號之３","E_COORD97":170289.37,"N_COORD97":2543461.7200000002,"ADDRESS":"東寧路１２０巷８５號之３","OBJECTID":256433},"geometry":{"x":170289.37000000104,"y":2543461.7200000025}},{"attributes":{"ID":256438,"DIS_CODE":0,"TOWNNAME":"東區","LI":"忠孝里","LIN":"27鄰","STREET":"榮譽街","SECT":" ","MAREA":" ","LANE":"８４巷","ALLEY":" ","HOUSE_NO":"１１號","E_COORD97":169796.28,"N_COORD97":2541687.4700000002,"ADDRESS":"榮譽街８４巷１１號","OBJECTID":256434},"geometry":{"x":169796.28000000026,"y":2541687.4700000025}},{"attributes":{"ID":256439,"DIS_CODE":0,"TOWNNAME":"永康區","LI":"西勢里","LIN":"27鄰","STREET":"廣興街","SECT":" ","MAREA":" ","LANE":"２６巷","ALLEY":" ","HOUSE_NO":"４１號","E_COORD97":176003.26999999999,"N_COORD97":2546402.1400000001,"ADDRESS":"廣興街２６巷４１號","OBJECTID":256435},"geometry":{"x":176003.26999999955,"y":2546402.1400000025}},{"attributes":{"ID":256440,"DIS_CODE":0,"TOWNNAME":"永康區","LI":"西勢里","LIN":"27鄰","STREET":"廣興街","SECT":" ","MAREA":" ","LANE":"２６巷","ALLEY":" ","HOUSE_NO":"３９號","E_COORD97":176000.09,"N_COORD97":2546404.3999999999,"ADDRESS":"廣興街２６巷３９號","OBJECTID":256436},"geometry":{"x":176000.08999999985,"y":2546404.4000000004}},{"attributes":{"ID":256441,"DIS_CODE":0,"TOWNNAME":"永康區","LI":"西勢里","LIN":"27鄰","STREET":"廣興街","SECT":" ","MAREA":" ","LANE":"２６巷","ALLEY":" ","HOUSE_NO":"３７號","E_COORD97":175996.63,"N_COORD97":2546406.8999999999,"ADDRESS":"廣興街２６巷３７號","OBJECTID":256437},"geometry":{"x":175996.63000000175,"y":2546406.9000000022}},{"attributes":{"ID":256442,"DIS_CODE":0,"TOWNNAME":"永康區","LI":"\u25A0行里","LIN":"27鄰","STREET":"中正南路","SECT":" ","MAREA":" ","LANE":"３６０巷","ALLEY":" ","HOUSE_NO":"１３號之３","E_COORD97":171131.66,"N_COORD97":2548122.3300000001,"ADDRESS":"中正南路３６０巷１３號之３","OBJECTID":256438},"geometry":{"x":171131.66000000108,"y":2548122.3300000019}},{"attributes":{"ID":256443,"DIS_CODE":0,"TOWNNAME":"永康區","LI":"龍潭里","LIN":"27鄰","STREET":"中山北路","SECT":" ","MAREA":" ","LANE":"４６１巷","ALLEY":" ","HOUSE_NO":"２７號","E_COORD97":175098.48000000001,"N_COORD97":2547855.4100000001,"ADDRESS":"中山北路４６１巷２７號","OBJECTID":256439},"geometry":{"x":175098.48000000138,"y":2547855.4100000001}},{"attributes":{"ID":256444,"DIS_CODE":0,"TOWNNAME":"永康區","LI":"永康里","LIN":"17鄰","STREET":"永中街","SECT":" ","MAREA":" ","LANE":"１１８巷","ALLEY":" ","HOUSE_NO":"１號","E_COORD97":173977.94,"N_COORD97":2547243.75,"ADDRESS":"永中街１１８巷１號","OBJECTID":256440},"geometry":{"x":173977.94000000134,"y":2547243.7500000019}},{"attributes":{"ID":256445,"DIS_CODE":0,"TOWNNAME":"永康區","LI":"北灣里","LIN":"17鄰","STREET":"信義二街","SECT":" ","MAREA":" ","LANE":"１６０巷","ALLEY":" ","HOUSE_NO":"１１號","E_COORD97":174812.53,"N_COORD97":2545751.6499999999,"ADDRESS":"信義二街１６０巷１１號","OBJECTID":256441},"geometry":{"x":174812.53000000026,"y":2545751.6500000004}},{"attributes":{"ID":256446,"DIS_CODE":0,"TOWNNAME":"永康區","LI":"勝利里","LIN":"17鄰","STREET":"中華一路","SECT":" ","MAREA":" ","LANE":"２８３巷","ALLEY":" ","HOUSE_NO":"２０號","E_COORD97":171257.39000000001,"N_COORD97":2544942.9900000002,"ADDRESS":"中華一路２８３巷２０號","OBJECTID":256442},"geometry":{"x":171257.3900000006,"y":2544942.9900000002}},{"attributes":{"ID":256447,"DIS_CODE":0,"TOWNNAME":"永康區","LI":"崑山里","LIN":"17鄰","STREET":"大灣路","SECT":" ","MAREA":" ","LANE":"９４２巷","ALLEY":" ","HOUSE_NO":"５７號","E_COORD97":173638.70000000001,"N_COORD97":2544552.25,"ADDRESS":"大灣路９４２巷５７號","OBJECTID":256443},"geometry":{"x":173638.70000000112,"y":2544552.2500000019}},{"attributes":{"ID":256448,"DIS_CODE":0,"TOWNNAME":"北區","LI":"大和里","LIN":"8鄰","STREET":"文賢路","SECT":" ","MAREA":" ","LANE":"７５９巷","ALLEY":" ","HOUSE_NO":"７號","E_COORD97":167295.98999999999,"N_COORD97":2546223.0499999998,"ADDRESS":"文賢路７５９巷７號","OBJECTID":256444},"geometry":{"x":167295.99000000022,"y":2546223.0500000026}},{"attributes":{"ID":256449,"DIS_CODE":0,"TOWNNAME":"中西區","LI":"天后里","LIN":"17鄰","STREET":"西門路","SECT":"二段","MAREA":" ","LANE":"３７２巷","ALLEY":" ","HOUSE_NO":"２１號","E_COORD97":168090.98000000001,"N_COORD97":2544304.1800000002,"ADDRESS":"西門路二段３７２巷２１號","OBJECTID":256445},"geometry":{"x":168090.98000000138,"y":2544304.1800000034}},{"attributes":{"ID":256450,"DIS_CODE":0,"TOWNNAME":"仁德區","LI":"後壁里","LIN":"17鄰","STREET":"德善路","SECT":" ","MAREA":" ","LANE":"１２巷","ALLEY":" ","HOUSE_NO":"６號","E_COORD97":173264.79000000001,"N_COORD97":2538897.7599999998,"ADDRESS":"德善路１２巷６號","OBJECTID":256446},"geometry":{"x":173264.7900000019,"y":2538897.7599999998}},{"attributes":{"ID":256451,"DIS_CODE":0,"TOWNNAME":"仁德區","LI":"後壁里","LIN":"17鄰","STREET":"德善路","SECT":" ","MAREA":" ","LANE":"１２巷","ALLEY":" ","HOUSE_NO":"４號","E_COORD97":173266.69,"N_COORD97":2538904.7599999998,"ADDRESS":"德善路１２巷４號","OBJECTID":256447},"geometry":{"x":173266.69000000041,"y":2538904.7599999998}},{"attributes":{"ID":256452,"DIS_CODE":0,"TOWNNAME":"仁德區","LI":"新田里","LIN":"17鄰","STREET":"北保東路","SECT":" ","MAREA":" ","LANE":"４６巷","ALLEY":" ","HOUSE_NO":"２６號","E_COORD97":173531.20000000001,"N_COORD97":2539274.75,"ADDRESS":"北保東路４６巷２６號","OBJECTID":256448},"geometry":{"x":173531.20000000019,"y":2539274.75}},{"attributes":{"ID":256453,"DIS_CODE":0,"TOWNNAME":"仁德區","LI":"新田里","LIN":"17鄰","STREET":"北保東路","SECT":" ","MAREA":" ","LANE":"４６巷","ALLEY":" ","HOUSE_NO":"１８號","E_COORD97":173534.17000000001,"N_COORD97":2539322.4900000002,"ADDRESS":"北保東路４６巷１８號","OBJECTID":256449},"geometry":{"x":173534.16999999993,"y":2539322.4900000021}},{"attributes":{"ID":256454,"DIS_CODE":0,"TOWNNAME":"仁德區","LI":"新田里","LIN":"17鄰","STREET":"北保東路","SECT":" ","MAREA":" ","LANE":"４６巷","ALLEY":" ","HOUSE_NO":"１號","E_COORD97":173496.22,"N_COORD97":2539355.7400000002,"ADDRESS":"北保東路４６巷１號","OBJECTID":256450},"geometry":{"x":173496.22000000067,"y":2539355.7400000021}},{"attributes":{"ID":256455,"DIS_CODE":0,"TOWNNAME":"下營區","LI":"宅內里","LIN":"17鄰","STREET":"人和三街","SECT":" ","MAREA":" ","LANE":"４１巷","ALLEY":" ","HOUSE_NO":"１３號","E_COORD97":174324.89999999999,"N_COORD97":2570671.48,"ADDRESS":"人和三街４１巷１３號","OBJECTID":256451},"geometry":{"x":174324.90000000037,"y":2570671.4800000023}},{"attributes":{"ID":256456,"DIS_CODE":0,"TOWNNAME":"中西區","LI":"青年里","LIN":"17鄰","STREET":"中山路","SECT":" ","MAREA":" ","LANE":"８巷","ALLEY":" ","HOUSE_NO":"２號","E_COORD97":168581.64999999999,"N_COORD97":2543688.3500000001,"ADDRESS":"中山路８巷２號","OBJECTID":256452},"geometry":{"x":168581.65000000037,"y":2543688.3499999996}},{"attributes":{"ID":256457,"DIS_CODE":0,"TOWNNAME":"新營區","LI":"民生里","LIN":"11鄰","STREET":"三民路","SECT":" ","MAREA":" ","LANE":"１８６巷","ALLEY":" ","HOUSE_NO":"２號之５","E_COORD97":179221.35999999999,"N_COORD97":2578278.5600000001,"ADDRESS":"三民路１８６巷２號之５","OBJECTID":256453},"geometry":{"x":179221.3599999994,"y":2578278.5600000024}},{"attributes":{"ID":256458,"DIS_CODE":0,"TOWNNAME":"新營區","LI":"興業里","LIN":" ","STREET":"公誠街","SECT":" ","MAREA":" ","LANE":"１１巷","ALLEY":" ","HOUSE_NO":"１５之２號","E_COORD97":180365.70000000001,"N_COORD97":2577973.0299999998,"ADDRESS":"公誠街１１巷１５之２號","OBJECTID":256454},"geometry":{"x":180365.70000000112,"y":2577973.0299999993}},{"attributes":{"ID":256459,"DIS_CODE":0,"TOWNNAME":"新營區","LI":"民生里","LIN":"25鄰","STREET":"民生路","SECT":" ","MAREA":" ","LANE":"１６３巷","ALLEY":" ","HOUSE_NO":"１５之１號","E_COORD97":179177.17999999999,"N_COORD97":2578630.96,"ADDRESS":"民生路１６３巷１５之１號","OBJECTID":256455},"geometry":{"x":179177.1799999997,"y":2578630.9600000046}},{"attributes":{"ID":256460,"DIS_CODE":0,"TOWNNAME":"永康區","LI":"正強里","LIN":"17鄰","STREET":"自強路","SECT":" ","MAREA":" ","LANE":"１８８巷","ALLEY":" ","HOUSE_NO":"２８號之８","E_COORD97":173204.51000000001,"N_COORD97":2547392.04,"ADDRESS":"自強路１８８巷２８號之８","OBJECTID":256456},"geometry":{"x":173204.50999999978,"y":2547392.0399999991}},{"attributes":{"ID":256461,"DIS_CODE":0,"TOWNNAME":"安平區","LI":"國平里","LIN":"24鄰","STREET":"建平七街","SECT":" ","MAREA":" ","LANE":" ","ALLEY":" ","HOUSE_NO":"６７７號九樓之７","E_COORD97":164850.32999999999,"N_COORD97":2543412.3599999999,"ADDRESS":"建平七街６７７號九樓之７","OBJECTID":256457},"geometry":{"x":164850.33000000101,"y":2543412.3600000013}},{"attributes":{"ID":256462,"DIS_CODE":0,"TOWNNAME":"安平區","LI":"國平里","LIN":"24鄰","STREET":"建平七街","SECT":" ","MAREA":" ","LANE":" ","ALLEY":" ","HOUSE_NO":"６７７號九樓之８","E_COORD97":164850.32999999999,"N_COORD97":2543412.3599999999,"ADDRESS":"建平七街６７７號九樓之８","OBJECTID":256458},"geometry":{"x":164850.33000000101,"y":2543412.3600000013}},{"attributes":{"ID":256463,"DIS_CODE":0,"TOWNNAME":"安平區","LI":"國平里","LIN":"24鄰","STREET":"建平七街","SECT":" ","MAREA":" ","LANE":" ","ALLEY":" ","HOUSE_NO":"６７７號九樓之９","E_COORD97":164850.32999999999,"N_COORD97":2543412.3599999999,"ADDRESS":"建平七街６７７號九樓之９","OBJECTID":256459},"geometry":{"x":164850.33000000101,"y":2543412.3600000013}},{"attributes":{"ID":256464,"DIS_CODE":0,"TOWNNAME":"安平區","LI":"國平里","LIN":"24鄰","STREET":"建平七街","SECT":" ","MAREA":" ","LANE":" ","ALLEY":" ","HOUSE_NO":"６７７號二樓之１","E_COORD97":164850.32999999999,"N_COORD97":2543412.3599999999,"ADDRESS":"建平七街６７７號二樓之１","OBJECTID":256460},"geometry":{"x":164850.33000000101,"y":2543412.3600000013}},{"attributes":{"ID":256465,"DIS_CODE":0,"TOWNNAME":"安平區","LI":"國平里","LIN":"24鄰","STREET":"建平七街","SECT":" ","MAREA":" ","LANE":" ","ALLEY":" ","HOUSE_NO":"６７７號二樓之１０","E_COORD97":164850.32999999999,"N_COORD97":2543412.3599999999,"ADDRESS":"建平七街６７７號二樓之１０","OBJECTID":256461},"geometry":{"x":164850.33000000101,"y":2543412.3600000013}},{"attributes":{"ID":256466,"DIS_CODE":0,"TOWNNAME":"安平區","LI":"國平里","LIN":"24鄰","STREET":"建平七街","SECT":" ","MAREA":" ","LANE":" ","ALLEY":" ","HOUSE_NO":"６７７號二樓之１１","E_COORD97":164850.32999999999,"N_COORD97":2543412.3599999999,"ADDRESS":"建平七街６７７號二樓之１１","OBJECTID":256462},"geometry":{"x":164850.33000000101,"y":2543412.3600000013}},{"attributes":{"ID":256467,"DIS_CODE":0,"TOWNNAME":"西港區","LI":"西港里","LIN":"27鄰","STREET":" ","SECT":" ","MAREA":"堀子頭","LANE":" ","ALLEY":" ","HOUSE_NO":"２７號","E_COORD97":168712.70000000001,"N_COORD97":2557675.4500000002,"ADDRESS":"堀子頭２７號","OBJECTID":256463},"geometry":{"x":168712.70000000112,"y":2557675.4499999993}},{"attributes":{"ID":256468,"DIS_CODE":0,"TOWNNAME":"西港區","LI":"西港里","LIN":"27鄰","STREET":" ","SECT":" ","MAREA":"堀子頭","LANE":" ","ALLEY":" ","HOUSE_NO":"２８號之１","E_COORD97":168687.78,"N_COORD97":2557687.8199999998,"ADDRESS":"堀子頭２８號之１","OBJECTID":256464},"geometry":{"x":168687.78000000026,"y":2557687.8200000003}},{"attributes":{"ID":256469,"DIS_CODE":0,"TOWNNAME":"西港區","LI":"西港里","LIN":"27鄰","STREET":" ","SECT":" ","MAREA":"堀子頭","LANE":" ","ALLEY":" ","HOUSE_NO":"２８號","E_COORD97":168688.09,"N_COORD97":2557691.9399999999,"ADDRESS":"堀子頭２８號","OBJECTID":256465},"geometry":{"x":168688.08999999985,"y":2557691.9400000013}},{"attributes":{"ID":256470,"DIS_CODE":0,"TOWNNAME":"西港區","LI":"西港里","LIN":"27鄰","STREET":" ","SECT":" ","MAREA":"堀子頭","LANE":" ","ALLEY":" ","HOUSE_NO":"２９號之１","E_COORD97":168704.42999999999,"N_COORD97":2557654.8399999999,"ADDRESS":"堀子頭２９號之１","OBJECTID":256466},"geometry":{"x":168704.4299999997,"y":2557654.8400000017}},{"attributes":{"ID":256471,"DIS_CODE":0,"TOWNNAME":"西港區","LI":"西港里","LIN":"27鄰","STREET":" ","SECT":" ","MAREA":"堀子頭","LANE":" ","ALLEY":" ","HOUSE_NO":"２９號","E_COORD97":168688.54000000001,"N_COORD97":2557675.21,"ADDRESS":"堀子頭２９號","OBJECTID":256467},"geometry":{"x":168688.54000000097,"y":2557675.2100000009}},{"attributes":{"ID":256472,"DIS_CODE":0,"TOWNNAME":"西港區","LI":"西港里","LIN":"27鄰","STREET":" ","SECT":" ","MAREA":"堀子頭","LANE":" ","ALLEY":" ","HOUSE_NO":"５５號之１","E_COORD97":168714.35999999999,"N_COORD97":2557566.25,"ADDRESS":"堀子頭５５號之１","OBJECTID":256468},"geometry":{"x":168714.36000000034,"y":2557566.25}},{"attributes":{"ID":256473,"DIS_CODE":0,"TOWNNAME":"西港區","LI":"西港里","LIN":"27鄰","STREET":" ","SECT":" ","MAREA":"堀子頭","LANE":" ","ALLEY":" ","HOUSE_NO":"５５號","E_COORD97":168702.82999999999,"N_COORD97":2557601.0299999998,"ADDRESS":"堀子頭５５號","OBJECTID":256469},"geometry":{"x":168702.83000000194,"y":2557601.0299999993}},{"attributes":{"ID":256474,"DIS_CODE":0,"TOWNNAME":"西港區","LI":"西港里","LIN":"27鄰","STREET":" ","SECT":" ","MAREA":"堀子頭","LANE":" ","ALLEY":" ","HOUSE_NO":"５６號","E_COORD97":168738.17999999999,"N_COORD97":2557574.2799999998,"ADDRESS":"堀子頭５６號","OBJECTID":256470},"geometry":{"x":168738.1799999997,"y":2557574.2800000012}},{"attributes":{"ID":256475,"DIS_CODE":0,"TOWNNAME":"西港區","LI":"西港里","LIN":"27鄰","STREET":" ","SECT":" ","MAREA":"堀子頭","LANE":" ","ALLEY":" ","HOUSE_NO":"５７號","E_COORD97":168726.01000000001,"N_COORD97":2557614.8300000001,"ADDRESS":"堀子頭５７號","OBJECTID":256471},"geometry":{"x":168726.00999999978,"y":2557614.8300000019}},{"attributes":{"ID":256476,"DIS_CODE":0,"TOWNNAME":"西港區","LI":"西港里","LIN":"27鄰","STREET":" ","SECT":" ","MAREA":"堀子頭","LANE":" ","ALLEY":" ","HOUSE_NO":"５８號之２","E_COORD97":168713.60000000001,"N_COORD97":2557645.8900000001,"ADDRESS":"堀子頭５８號之２","OBJECTID":256472},"geometry":{"x":168713.59999999963,"y":2557645.8900000025}},{"attributes":{"ID":256477,"DIS_CODE":0,"TOWNNAME":"西港區","LI":"西港里","LIN":"27鄰","STREET":" ","SECT":" ","MAREA":"堀子頭","LANE":" ","ALLEY":" ","HOUSE_NO":"５８號","E_COORD97":168751.03,"N_COORD97":2557680.2000000002,"ADDRESS":"堀子頭５８號","OBJECTID":256473},"geometry":{"x":168751.03000000119,"y":2557680.2000000011}},{"attributes":{"ID":256478,"DIS_CODE":0,"TOWNNAME":"東區","LI":"崇誨里","LIN":"27鄰","STREET":"裕豐街","SECT":" ","MAREA":" ","LANE":"１８５巷","ALLEY":" ","HOUSE_NO":"４號","E_COORD97":170763.34,"N_COORD97":2543212.04,"ADDRESS":"裕豐街１８５巷４號","OBJECTID":256474},"geometry":{"x":170763.33999999985,"y":2543212.0399999991}},{"attributes":{"ID":256479,"DIS_CODE":0,"TOWNNAME":"永康區","LI":"西灣里","LIN":"27鄰","STREET":"公園路","SECT":" ","MAREA":" ","LANE":"６３巷","ALLEY":" ","HOUSE_NO":"４７號","E_COORD97":174371.25,"N_COORD97":2545831.1699999999,"ADDRESS":"公園路６３巷４７號","OBJECTID":256475},"geometry":{"x":174371.25,"y":2545831.1700000018}},{"attributes":{"ID":256480,"DIS_CODE":0,"TOWNNAME":"永康區","LI":"西灣里","LIN":"27鄰","STREET":"公園路","SECT":" ","MAREA":" ","LANE":"６３巷","ALLEY":" ","HOUSE_NO":"３９號","E_COORD97":174372.10999999999,"N_COORD97":2545849.6600000001,"ADDRESS":"公園路６３巷３９號","OBJECTID":256476},"geometry":{"x":174372.11000000127,"y":2545849.6600000001}},{"attributes":{"ID":256481,"DIS_CODE":0,"TOWNNAME":"永康區","LI":"正強里","LIN":"17鄰","STREET":"自強路","SECT":" ","MAREA":" ","LANE":"１８８巷","ALLEY":" ","HOUSE_NO":"３４號","E_COORD97":173211.32000000001,"N_COORD97":2547361.5,"ADDRESS":"自強路１８８巷３４號","OBJECTID":256477},"geometry":{"x":173211.32000000123,"y":2547361.5000000019}},{"attributes":{"ID":256482,"DIS_CODE":0,"TOWNNAME":"永康區","LI":"勝利里","LIN":"17鄰","STREET":"中華一路","SECT":" ","MAREA":" ","LANE":"２８３巷","ALLEY":" ","HOUSE_NO":"１０號","E_COORD97":171258.87,"N_COORD97":2544962,"ADDRESS":"中華一路２８３巷１０號","OBJECTID":256478},"geometry":{"x":171258.87000000197,"y":2544962}},{"attributes":{"ID":256483,"DIS_CODE":0,"TOWNNAME":"安平區","LI":"國平里","LIN":"24鄰","STREET":"建平七街","SECT":" ","MAREA":" ","LANE":" ","ALLEY":" ","HOUSE_NO":"６７７號二樓之２","E_COORD97":164850.32999999999,"N_COORD97":2543412.3599999999,"ADDRESS":"建平七街６７７號二樓之２","OBJECTID":256479},"geometry":{"x":164850.33000000101,"y":2543412.3600000013}},{"attributes":{"ID":256484,"DIS_CODE":0,"TOWNNAME":"安平區","LI":"國平里","LIN":"24鄰","STREET":"建平七街","SECT":" ","MAREA":" ","LANE":" ","ALLEY":" ","HOUSE_NO":"６７７號二樓之３","E_COORD97":164850.32999999999,"N_COORD97":2543412.3599999999,"ADDRESS":"建平七街６７７號二樓之３","OBJECTID":256480},"geometry":{"x":164850.33000000101,"y":2543412.3600000013}},{"attributes":{"ID":256485,"DIS_CODE":0,"TOWNNAME":"安平區","LI":"國平里","LIN":"24鄰","STREET":"建平七街","SECT":" ","MAREA":" ","LANE":" ","ALLEY":" ","HOUSE_NO":"６７７號二樓之４","E_COORD97":164850.32999999999,"N_COORD97":2543412.3599999999,"ADDRESS":"建平七街６７７號二樓之４","OBJECTID":256481},"geometry":{"x":164850.33000000101,"y":2543412.3600000013}},{"attributes":{"ID":256486,"DIS_CODE":0,"TOWNNAME":"永康區","LI":"龍潭里","LIN":"27鄰","STREET":"中山北路","SECT":" ","MAREA":" ","LANE":"４６１巷","ALLEY":" ","HOUSE_NO":"２６號","E_COORD97":175112.62,"N_COORD97":2547835.6000000001,"ADDRESS":"中山北路４６１巷２６號","OBJECTID":256482},"geometry":{"x":175112.62000000104,"y":2547835.6000000015}},{"attributes":{"ID":256487,"DIS_CODE":0,"TOWNNAME":"永康區","LI":"龍潭里","LIN":"27鄰","STREET":"中山北路","SECT":" ","MAREA":" ","LANE":"４６１巷","ALLEY":" ","HOUSE_NO":"２２號","E_COORD97":175113.59,"N_COORD97":2547827.6000000001,"ADDRESS":"中山北路４６１巷２２號","OBJECTID":256483},"geometry":{"x":175113.59000000171,"y":2547827.6000000015}},{"attributes":{"ID":256488,"DIS_CODE":0,"TOWNNAME":"永康區","LI":"龍潭里","LIN":"27鄰","STREET":"中山北路","SECT":" ","MAREA":" ","LANE":"４６１巷","ALLEY":" ","HOUSE_NO":"２４號","E_COORD97":175113.07000000001,"N_COORD97":2547831.8500000001,"ADDRESS":"中山北路４６１巷２４號","OBJECTID":256484},"geometry":{"x":175113.07000000123,"y":2547831.8499999996}},{"attributes":{"ID":256489,"DIS_CODE":0,"TOWNNAME":"永康區","LI":"龍潭里","LIN":"27鄰","STREET":"中山北路","SECT":" ","MAREA":" ","LANE":"４６１巷","ALLEY":" ","HOUSE_NO":"２３號","E_COORD97":175100.5,"N_COORD97":2547846.9199999999,"ADDRESS":"中山北路４６１巷２３號","OBJECTID":256485},"geometry":{"x":175100.5,"y":2547846.9200000018}},{"attributes":{"ID":256490,"DIS_CODE":0,"TOWNNAME":"永康區","LI":"龍潭里","LIN":"27鄰","STREET":"中山北路","SECT":" ","MAREA":" ","LANE":"４６１巷","ALLEY":" ","HOUSE_NO":"１０號","E_COORD97":175116.28,"N_COORD97":2547803.8500000001,"ADDRESS":"中山北路４６１巷１０號","OBJECTID":256486},"geometry":{"x":175116.28000000212,"y":2547803.8499999996}},{"attributes":{"ID":256491,"DIS_CODE":0,"TOWNNAME":"永康區","LI":"\u25A0行里","LIN":"27鄰","STREET":"中正南路","SECT":" ","MAREA":" ","LANE":"３６０巷","ALLEY":" ","HOUSE_NO":"１５號","E_COORD97":171179.5,"N_COORD97":2548115.73,"ADDRESS":"中正南路３６０巷１５號","OBJECTID":256487},"geometry":{"x":171179.5,"y":2548115.7300000023}},{"attributes":{"ID":256492,"DIS_CODE":0,"TOWNNAME":"永康區","LI":"西勢里","LIN":"17鄰","STREET":"富強路","SECT":"一段","MAREA":" ","LANE":"２５４巷","ALLEY":" ","HOUSE_NO":"７５號","E_COORD97":175794.26000000001,"N_COORD97":2546318.5699999998,"ADDRESS":"富強路一段２５４巷７５號","OBJECTID":256488},"geometry":{"x":175794.26000000071,"y":2546318.5700000003}},{"attributes":{"ID":256493,"DIS_CODE":0,"TOWNNAME":"永康區","LI":"西灣里","LIN":"17鄰","STREET":"永大路","SECT":"二段","MAREA":" ","LANE":"５５６巷","ALLEY":" ","HOUSE_NO":"３９號","E_COORD97":174521.48000000001,"N_COORD97":2545404.0299999998,"ADDRESS":"永大路二段５５６巷３９號","OBJECTID":256489},"geometry":{"x":174521.48000000045,"y":2545404.0300000012}},{"attributes":{"ID":256494,"DIS_CODE":0,"TOWNNAME":"永康區","LI":"西勢里","LIN":"17鄰","STREET":"富強路","SECT":"一段","MAREA":" ","LANE":"２５４巷","ALLEY":" ","HOUSE_NO":"６６號","E_COORD97":175778.10000000001,"N_COORD97":2546340.6800000002,"ADDRESS":"富強路一段２５４巷６６號","OBJECTID":256490},"geometry":{"x":175778.10000000056,"y":2546340.6799999997}},{"attributes":{"ID":256495,"DIS_CODE":0,"TOWNNAME":"永康區","LI":"東灣里","LIN":"17鄰","STREET":"大灣三街","SECT":" ","MAREA":" ","LANE":"５７巷","ALLEY":" ","HOUSE_NO":"３號","E_COORD97":174951.91,"N_COORD97":2544915.0299999998,"ADDRESS":"大灣三街５７巷３號","OBJECTID":256491},"geometry":{"x":174951.91000000015,"y":2544915.0300000031}},{"attributes":{"ID":256496,"DIS_CODE":0,"TOWNNAME":"永康區","LI":"東灣里","LIN":"17鄰","STREET":"大灣三街","SECT":" ","MAREA":" ","LANE":"５７巷","ALLEY":" ","HOUSE_NO":"１號","E_COORD97":174931.69,"N_COORD97":2544896.8999999999,"ADDRESS":"大灣三街５７巷１號","OBJECTID":256492},"geometry":{"x":174931.69000000041,"y":2544896.9000000041}},{"attributes":{"ID":256497,"DIS_CODE":0,"TOWNNAME":"永康區","LI":"東灣里","LIN":"17鄰","STREET":"大灣三街","SECT":" ","MAREA":" ","LANE":"５７巷","ALLEY":" ","HOUSE_NO":"１０號","E_COORD97":174912.98000000001,"N_COORD97":2544902.2400000002,"ADDRESS":"大灣三街５７巷１０號","OBJECTID":256493},"geometry":{"x":174912.98000000045,"y":2544902.2400000021}},{"attributes":{"ID":256498,"DIS_CODE":0,"TOWNNAME":"中西區","LI":"郡王里","LIN":"17鄰","STREET":"南門路","SECT":" ","MAREA":" ","LANE":"９７巷","ALLEY":" ","HOUSE_NO":"１號","E_COORD97":168477.60999999999,"N_COORD97":2543254,"ADDRESS":"南門路９７巷１號","OBJECTID":256494},"geometry":{"x":168477.61000000127,"y":2543254}},{"attributes":{"ID":256499,"DIS_CODE":0,"TOWNNAME":"新營區","LI":"新東里","LIN":"4鄰","STREET":"東大街","SECT":" ","MAREA":" ","LANE":"５２巷","ALLEY":" ","HOUSE_NO":"１２號","E_COORD97":181078.51999999999,"N_COORD97":2579140.21,"ADDRESS":"東大街５２巷１２號","OBJECTID":256495},"geometry":{"x":181078.51999999955,"y":2579140.2100000009}},{"attributes":{"ID":256500,"DIS_CODE":0,"TOWNNAME":"安南區","LI":"佃東里","LIN":"17鄰","STREET":"公學路","SECT":"四段","MAREA":" ","LANE":"５４巷","ALLEY":" ","HOUSE_NO":"１０２之１號","E_COORD97":165866.54000000001,"N_COORD97":2552180.4700000002,"ADDRESS":"公學路四段５４巷１０２之１號","OBJECTID":256496},"geometry":{"x":165866.54000000004,"y":2552180.4700000025}},{"attributes":{"ID":256501,"DIS_CODE":0,"TOWNNAME":"新市區","LI":"新和里","LIN":"17鄰","STREET":"銘傳街","SECT":" ","MAREA":" ","LANE":"１２巷","ALLEY":" ","HOUSE_NO":"５號","E_COORD97":177529.95000000001,"N_COORD97":2552687.25,"ADDRESS":"銘傳街１２巷５號","OBJECTID":256497},"geometry":{"x":177529.95000000019,"y":2552687.25}},{"attributes":{"ID":256502,"DIS_CODE":0,"TOWNNAME":"新營區","LI":"新北里","LIN":"20鄰","STREET":"民生路","SECT":" ","MAREA":" ","LANE":"３３６巷","ALLEY":" ","HOUSE_NO":"４０號","E_COORD97":178997.38,"N_COORD97":2579184.3700000001,"ADDRESS":"民生路３３６巷４０號","OBJECTID":256498},"geometry":{"x":178997.38000000082,"y":2579184.3700000048}},{"attributes":{"ID":256503,"DIS_CODE":0,"TOWNNAME":"下營區","LI":"新興里","LIN":"17鄰","STREET":"中山路","SECT":"一段","MAREA":" ","LANE":"４７６巷","ALLEY":" ","HOUSE_NO":"１４６號","E_COORD97":176242.03,"N_COORD97":2571188.4100000001,"ADDRESS":"中山路一段４７６巷１４６號","OBJECTID":256499},"geometry":{"x":176242.03000000119,"y":2571188.4100000001}},{"attributes":{"ID":256504,"DIS_CODE":0,"TOWNNAME":"下營區","LI":"新興里","LIN":"17鄰","STREET":"中山路","SECT":"一段","MAREA":" ","LANE":"４７６巷","ALLEY":" ","HOUSE_NO":"１６０號","E_COORD97":176353.70999999999,"N_COORD97":2571207.3999999999,"ADDRESS":"中山路一段４７６巷１６０號","OBJECTID":256500},"geometry":{"x":176353.70999999903,"y":2571207.4000000022}},{"attributes":{"ID":256505,"DIS_CODE":0,"TOWNNAME":"仁德區","LI":"太子里","LIN":"27鄰","STREET":"大吉路","SECT":" ","MAREA":" ","LANE":"１９２巷","ALLEY":" ","HOUSE_NO":"２號","E_COORD97":173367.37,"N_COORD97":2543349.2400000002,"ADDRESS":"大吉路１９２巷２號","OBJECTID":256501},"geometry":{"x":173367.37000000011,"y":2543349.2400000021}},{"attributes":{"ID":256506,"DIS_CODE":0,"TOWNNAME":"下營區","LI":"新興里","LIN":"17鄰","STREET":"中山路","SECT":"一段","MAREA":" ","LANE":"４７６巷","ALLEY":" ","HOUSE_NO":"１６１號","E_COORD97":175970.56,"N_COORD97":2571199.73,"ADDRESS":"中山路一段４７６巷１６１號","OBJECTID":256502},"geometry":{"x":175970.55999999959,"y":2571199.7300000004}},{"attributes":{"ID":256507,"DIS_CODE":0,"TOWNNAME":"下營區","LI":"新興里","LIN":"17鄰","STREET":"中山路","SECT":"一段","MAREA":" ","LANE":"４７６巷","ALLEY":" ","HOUSE_NO":"１６８號","E_COORD97":176374.26000000001,"N_COORD97":2571207.2200000002,"ADDRESS":"中山路一段４７６巷１６８號","OBJECTID":256503},"geometry":{"x":176374.26000000071,"y":2571207.2200000007}},{"attributes":{"ID":256508,"DIS_CODE":0,"TOWNNAME":"下營區","LI":"新興里","LIN":"17鄰","STREET":"中山路","SECT":"一段","MAREA":" ","LANE":"４７６巷","ALLEY":" ","HOUSE_NO":"１９９號","E_COORD97":176341.03,"N_COORD97":2571234.21,"ADDRESS":"中山路一段４７６巷１９９號","OBJECTID":256504},"geometry":{"x":176341.03000000026,"y":2571234.2100000009}},{"attributes":{"ID":256509,"DIS_CODE":0,"TOWNNAME":"下營區","LI":"新興里","LIN":"17鄰","STREET":"中山路","SECT":"一段","MAREA":" ","LANE":"４７６巷","ALLEY":" ","HOUSE_NO":"２８號","E_COORD97":175730.10000000001,"N_COORD97":2571126.3199999998,"ADDRESS":"中山路一段４７６巷２８號","OBJECTID":256505},"geometry":{"x":175730.09999999963,"y":2571126.3200000022}},{"attributes":{"ID":256510,"DIS_CODE":0,"TOWNNAME":"安平區","LI":"國平里","LIN":"24鄰","STREET":"建平七街","SECT":" ","MAREA":" ","LANE":" ","ALLEY":" ","HOUSE_NO":"６７７號二樓之５","E_COORD97":164850.32999999999,"N_COORD97":2543412.3599999999,"ADDRESS":"建平七街６７７號二樓之５","OBJECTID":256506},"geometry":{"x":164850.33000000101,"y":2543412.3600000013}},{"attributes":{"ID":256511,"DIS_CODE":0,"TOWNNAME":"安平區","LI":"國平里","LIN":"24鄰","STREET":"建平七街","SECT":" ","MAREA":" ","LANE":" ","ALLEY":" ","HOUSE_NO":"６７７號二樓之６","E_COORD97":164850.32999999999,"N_COORD97":2543412.3599999999,"ADDRESS":"建平七街６７７號二樓之６","OBJECTID":256507},"geometry":{"x":164850.33000000101,"y":2543412.3600000013}},{"attributes":{"ID":256512,"DIS_CODE":0,"TOWNNAME":"安平區","LI":"國平里","LIN":"24鄰","STREET":"建平七街","SECT":" ","MAREA":" ","LANE":" ","ALLEY":" ","HOUSE_NO":"６７７號二樓之７","E_COORD97":164850.32999999999,"N_COORD97":2543412.3599999999,"ADDRESS":"建平七街６７７號二樓之７","OBJECTID":256508},"geometry":{"x":164850.33000000101,"y":2543412.3600000013}},{"attributes":{"ID":256513,"DIS_CODE":0,"TOWNNAME":"安平區","LI":"國平里","LIN":"24鄰","STREET":"建平七街","SECT":" ","MAREA":" ","LANE":" ","ALLEY":" ","HOUSE_NO":"６７７號二樓之８","E_COORD97":164850.32999999999,"N_COORD97":2543412.3599999999,"ADDRESS":"建平七街６７７號二樓之８","OBJECTID":256509},"geometry":{"x":164850.33000000101,"y":2543412.3600000013}},{"attributes":{"ID":256514,"DIS_CODE":0,"TOWNNAME":"安平區","LI":"國平里","LIN":"24鄰","STREET":"建平七街","SECT":" ","MAREA":" ","LANE":" ","ALLEY":" ","HOUSE_NO":"６７７號二樓之９","E_COORD97":164850.32999999999,"N_COORD97":2543412.3599999999,"ADDRESS":"建平七街６７７號二樓之９","OBJECTID":256510},"geometry":{"x":164850.33000000101,"y":2543412.3600000013}},{"attributes":{"ID":256515,"DIS_CODE":0,"TOWNNAME":"安平區","LI":"國平里","LIN":"24鄰","STREET":"建平七街","SECT":" ","MAREA":" ","LANE":" ","ALLEY":" ","HOUSE_NO":"６７７號八樓之１","E_COORD97":164850.32999999999,"N_COORD97":2543412.3599999999,"ADDRESS":"建平七街６７７號八樓之１","OBJECTID":256511},"geometry":{"x":164850.33000000101,"y":2543412.3600000013}},{"attributes":{"ID":256516,"DIS_CODE":0,"TOWNNAME":"仁德區","LI":"仁愛里","LIN":"27鄰","STREET":"大同路","SECT":"三段","MAREA":" ","LANE":" ","ALLEY":" ","HOUSE_NO":"１７３號","E_COORD97":169768.95199599999,"N_COORD97":2539754.5024000001,"ADDRESS":"大同路三段１７３號","OBJECTID":256512},"geometry":{"x":169768.95199599955,"y":2539754.5024010018}},{"attributes":{"ID":256517,"DIS_CODE":0,"TOWNNAME":"仁德區","LI":"仁愛里","LIN":"27鄰","STREET":"亞航街","SECT":" ","MAREA":" ","LANE":" ","ALLEY":" ","HOUSE_NO":"３７號","E_COORD97":169890.087268,"N_COORD97":2539257.9853599998,"ADDRESS":"亞航街３７號","OBJECTID":256513},"geometry":{"x":169890.08726800047,"y":2539257.9853600003}},{"attributes":{"ID":256518,"DIS_CODE":0,"TOWNNAME":"永康區","LI":"\u25A0行里","LIN":"27鄰","STREET":"中正南路","SECT":" ","MAREA":" ","LANE":"３６０巷","ALLEY":" ","HOUSE_NO":"１９號","E_COORD97":171247.89999999999,"N_COORD97":2548084,"ADDRESS":"中正南路３６０巷１９號","OBJECTID":256514},"geometry":{"x":171247.9000000013,"y":2548084.0000000019}},{"attributes":{"ID":256519,"DIS_CODE":0,"TOWNNAME":"東區","LI":"泉南里","LIN":"27鄰","STREET":"府連路","SECT":" ","MAREA":" ","LANE":"２６０巷","ALLEY":" ","HOUSE_NO":"１０號","E_COORD97":169449.70000000001,"N_COORD97":2542834.3500000001,"ADDRESS":"府連路２６０巷１０號","OBJECTID":256515},"geometry":{"x":169449.70000000205,"y":2542834.3499999996}},{"attributes":{"ID":256520,"DIS_CODE":0,"TOWNNAME":"東區","LI":"泉南里","LIN":"27鄰","STREET":"府連路","SECT":" ","MAREA":" ","LANE":"２６０巷","ALLEY":" ","HOUSE_NO":"１２號","E_COORD97":169450.66,"N_COORD97":2542830.5,"ADDRESS":"府連路２６０巷１２號","OBJECTID":256516},"geometry":{"x":169450.66000000108,"y":2542830.5}},{"attributes":{"ID":256521,"DIS_CODE":0,"TOWNNAME":"東區","LI":"泉南里","LIN":"27鄰","STREET":"府連路","SECT":" ","MAREA":" ","LANE":"２６０巷","ALLEY":" ","HOUSE_NO":"１８號","E_COORD97":169455.85000000001,"N_COORD97":2542802.6400000001,"ADDRESS":"府連路２６０巷１８號","OBJECTID":256517},"geometry":{"x":169455.84999999963,"y":2542802.6400000006}},{"attributes":{"ID":256522,"DIS_CODE":0,"TOWNNAME":"下營區","LI":"新興里","LIN":"17鄰","STREET":"中山路","SECT":"一段","MAREA":" ","LANE":"４７６巷","ALLEY":" ","HOUSE_NO":"４２號","E_COORD97":175813.54999999999,"N_COORD97":2571089.73,"ADDRESS":"中山路一段４７６巷４２號","OBJECTID":256518},"geometry":{"x":175813.54999999981,"y":2571089.7300000023}},{"attributes":{"ID":256523,"DIS_CODE":0,"TOWNNAME":"安平區","LI":"國平里","LIN":"24鄰","STREET":"建平七街","SECT":" ","MAREA":" ","LANE":" ","ALLEY":" ","HOUSE_NO":"６７７號八樓之１０","E_COORD97":164850.32999999999,"N_COORD97":2543412.3599999999,"ADDRESS":"建平七街６７７號八樓之１０","OBJECTID":256519},"geometry":{"x":164850.33000000101,"y":2543412.3600000013}},{"attributes":{"ID":256524,"DIS_CODE":0,"TOWNNAME":"安平區","LI":"國平里","LIN":"24鄰","STREET":"建平七街","SECT":" ","MAREA":" ","LANE":" ","ALLEY":" ","HOUSE_NO":"６７７號八樓之１１","E_COORD97":164850.32999999999,"N_COORD97":2543412.3599999999,"ADDRESS":"建平七街６７７號八樓之１１","OBJECTID":256520},"geometry":{"x":164850.33000000101,"y":2543412.3600000013}},{"attributes":{"ID":256525,"DIS_CODE":0,"TOWNNAME":"安平區","LI":"國平里","LIN":"24鄰","STREET":"建平七街","SECT":" ","MAREA":" ","LANE":" ","ALLEY":" ","HOUSE_NO":"６７７號八樓之２","E_COORD97":164850.32999999999,"N_COORD97":2543412.3599999999,"ADDRESS":"建平七街６７７號八樓之２","OBJECTID":256521},"geometry":{"x":164850.33000000101,"y":2543412.3600000013}},{"attributes":{"ID":256526,"DIS_CODE":0,"TOWNNAME":"安平區","LI":"國平里","LIN":"24鄰","STREET":"建平七街","SECT":" ","MAREA":" ","LANE":" ","ALLEY":" ","HOUSE_NO":"６７７號八樓之３","E_COORD97":164850.32999999999,"N_COORD97":2543412.3599999999,"ADDRESS":"建平七街６７７號八樓之３","OBJECTID":256522},"geometry":{"x":164850.33000000101,"y":2543412.3600000013}},{"attributes":{"ID":256527,"DIS_CODE":0,"TOWNNAME":"玉井區","LI":"玉井里","LIN":"14鄰","STREET":"中正路","SECT":" ","MAREA":" ","LANE":" ","ALLEY":" ","HOUSE_NO":"１４８號","E_COORD97":194906.73999999999,"N_COORD97":2558202.3100000001,"ADDRESS":"中正路１４８號","OBJECTID":256523},"geometry":{"x":194906.74000000115,"y":2558202.3100000024}},{"attributes":{"ID":256528,"DIS_CODE":0,"TOWNNAME":"東區","LI":"泉南里","LIN":"27鄰","STREET":"府連路","SECT":" ","MAREA":" ","LANE":"２６０巷","ALLEY":" ","HOUSE_NO":"２０號","E_COORD97":169456.82000000001,"N_COORD97":2542798.7999999998,"ADDRESS":"府連路２６０巷２０號","OBJECTID":256524},"geometry":{"x":169456.8200000003,"y":2542798.8000000007}},{"attributes":{"ID":256529,"DIS_CODE":0,"TOWNNAME":"東區","LI":"泉南里","LIN":"27鄰","STREET":"府連路","SECT":" ","MAREA":" ","LANE":"２６０巷","ALLEY":" ","HOUSE_NO":"２２號","E_COORD97":169457.97,"N_COORD97":2542794.96,"ADDRESS":"府連路２６０巷２２號","OBJECTID":256525},"geometry":{"x":169457.97000000067,"y":2542794.9600000046}},{"attributes":{"ID":256530,"DIS_CODE":0,"TOWNNAME":"東區","LI":"泉南里","LIN":"27鄰","STREET":"府連路","SECT":" ","MAREA":" ","LANE":"２６０巷","ALLEY":" ","HOUSE_NO":"２４號","E_COORD97":169459.89000000001,"N_COORD97":2542791.5,"ADDRESS":"府連路２６０巷２４號","OBJECTID":256526},"geometry":{"x":169459.8900000006,"y":2542791.5000000019}},{"attributes":{"ID":256531,"DIS_CODE":0,"TOWNNAME":"東區","LI":"泉南里","LIN":"27鄰","STREET":"府連路","SECT":" ","MAREA":" ","LANE":"２６０巷","ALLEY":" ","HOUSE_NO":"４號","E_COORD97":169442.97,"N_COORD97":2542846.46,"ADDRESS":"府連路２６０巷４號","OBJECTID":256527},"geometry":{"x":169442.97000000067,"y":2542846.4600000028}},{"attributes":{"ID":256532,"DIS_CODE":0,"TOWNNAME":"東區","LI":"泉南里","LIN":"27鄰","STREET":"府連路","SECT":" ","MAREA":" ","LANE":"２６０巷","ALLEY":" ","HOUSE_NO":"６號","E_COORD97":169446.42999999999,"N_COORD97":2542843,"ADDRESS":"府連路２６０巷６號","OBJECTID":256528},"geometry":{"x":169446.43000000063,"y":2542843}},{"attributes":{"ID":256533,"DIS_CODE":0,"TOWNNAME":"東區","LI":"泉南里","LIN":"27鄰","STREET":"府連路","SECT":" ","MAREA":" ","LANE":"２６０巷","ALLEY":" ","HOUSE_NO":"８號","E_COORD97":169447.78,"N_COORD97":2542838.2000000002,"ADDRESS":"府連路２６０巷８號","OBJECTID":256529},"geometry":{"x":169447.78000000119,"y":2542838.1999999993}},{"attributes":{"ID":256534,"DIS_CODE":0,"TOWNNAME":"東區","LI":"泉南里","LIN":"27鄰","STREET":"府連路","SECT":" ","MAREA":" ","LANE":"２６０巷","ALLEY":" ","HOUSE_NO":"１４號","E_COORD97":169449.70000000001,"N_COORD97":2542824.3599999999,"ADDRESS":"府連路２６０巷１４號","OBJECTID":256530},"geometry":{"x":169449.70000000205,"y":2542824.3600000031}},{"attributes":{"ID":256535,"DIS_CODE":0,"TOWNNAME":"下營區","LI":"新興里","LIN":"17鄰","STREET":"中華街","SECT":" ","MAREA":" ","LANE":"２０２巷","ALLEY":" ","HOUSE_NO":"２９號","E_COORD97":175219.35000000001,"N_COORD97":2570705.21,"ADDRESS":"中華街２０２巷２９號","OBJECTID":256531},"geometry":{"x":175219.34999999963,"y":2570705.2100000009}},{"attributes":{"ID":256536,"DIS_CODE":0,"TOWNNAME":"永康區","LI":"西灣里","LIN":"17鄰","STREET":"永大路","SECT":"二段","MAREA":" ","LANE":"５５６巷","ALLEY":" ","HOUSE_NO":"２３號","E_COORD97":174478.75,"N_COORD97":2545423.52,"ADDRESS":"永大路二段５５６巷２３號","OBJECTID":256532},"geometry":{"x":174478.75000000186,"y":2545423.5199999996}},{"attributes":{"ID":256537,"DIS_CODE":0,"TOWNNAME":"下營區","LI":"新興里","LIN":"17鄰","STREET":"中華街","SECT":" ","MAREA":" ","LANE":"２０２巷","ALLEY":" ","HOUSE_NO":"３１號","E_COORD97":175224.85999999999,"N_COORD97":2570705.3199999998,"ADDRESS":"中華街２０２巷３１號","OBJECTID":256533},"geometry":{"x":175224.86000000127,"y":2570705.3200000022}},{"attributes":{"ID":256538,"DIS_CODE":0,"TOWNNAME":"下營區","LI":"新興里","LIN":"17鄰","STREET":"中華街","SECT":" ","MAREA":" ","LANE":"２０２巷","ALLEY":" ","HOUSE_NO":"３號","E_COORD97":175147.94,"N_COORD97":2570712.0899999999,"ADDRESS":"中華街２０２巷３號","OBJECTID":256534},"geometry":{"x":175147.94000000134,"y":2570712.0899999999}},{"attributes":{"ID":256539,"DIS_CODE":0,"TOWNNAME":"下營區","LI":"新興里","LIN":"17鄰","STREET":"中華街","SECT":" ","MAREA":" ","LANE":"２０２巷","ALLEY":" ","HOUSE_NO":"４５號","E_COORD97":175295.41,"N_COORD97":2570718.96,"ADDRESS":"中華街２０２巷４５號","OBJECTID":256535},"geometry":{"x":175295.41000000108,"y":2570718.9600000028}},{"attributes":{"ID":256540,"DIS_CODE":0,"TOWNNAME":"下營區","LI":"新興里","LIN":"17鄰","STREET":"中華街","SECT":" ","MAREA":" ","LANE":"２０２巷","ALLEY":" ","HOUSE_NO":"４７號","E_COORD97":175303.25,"N_COORD97":2570710.98,"ADDRESS":"中華街２０２巷４７號","OBJECTID":256536},"geometry":{"x":175303.25000000093,"y":2570710.9800000023}},{"attributes":{"ID":256541,"DIS_CODE":0,"TOWNNAME":"下營區","LI":"新興里","LIN":"17鄰","STREET":"中華街","SECT":" ","MAREA":" ","LANE":"２０２巷","ALLEY":" ","HOUSE_NO":"５號","E_COORD97":175154.06,"N_COORD97":2570711.73,"ADDRESS":"中華街２０２巷５號","OBJECTID":256537},"geometry":{"x":175154.05999999959,"y":2570711.7300000004}},{"attributes":{"ID":256542,"DIS_CODE":0,"TOWNNAME":"下營區","LI":"新興里","LIN":"17鄰","STREET":"中華街","SECT":" ","MAREA":" ","LANE":"２０２巷","ALLEY":" ","HOUSE_NO":"６１號","E_COORD97":175425.42000000001,"N_COORD97":2570744.3900000001,"ADDRESS":"中華街２０２巷６１號","OBJECTID":256538},"geometry":{"x":175425.42000000086,"y":2570744.3900000006}},{"attributes":{"ID":256543,"DIS_CODE":0,"TOWNNAME":"下營區","LI":"新興里","LIN":"17鄰","STREET":"中華街","SECT":" ","MAREA":" ","LANE":"２０２巷","ALLEY":" ","HOUSE_NO":"７號","E_COORD97":175159.95999999999,"N_COORD97":2570711.2999999998,"ADDRESS":"中華街２０２巷７號","OBJECTID":256539},"geometry":{"x":175159.95999999996,"y":2570711.3000000007}},{"attributes":{"ID":256544,"DIS_CODE":0,"TOWNNAME":"永康區","LI":"尚頂里","LIN":"17鄰","STREET":"中正南路","SECT":" ","MAREA":" ","LANE":"２２０巷","ALLEY":" ","HOUSE_NO":"１６號","E_COORD97":170203.70000000001,"N_COORD97":2547296.25,"ADDRESS":"中正南路２２０巷１６號","OBJECTID":256540},"geometry":{"x":170203.70000000019,"y":2547296.25}},{"attributes":{"ID":256545,"DIS_CODE":0,"TOWNNAME":"永康區","LI":"尚頂里","LIN":"17鄰","STREET":"中正南路","SECT":" ","MAREA":" ","LANE":"２１０巷","ALLEY":" ","HOUSE_NO":"７號之１","E_COORD97":170138.29000000001,"N_COORD97":2547135.0499999998,"ADDRESS":"中正南路２１０巷７號之１","OBJECTID":256541},"geometry":{"x":170138.29000000004,"y":2547135.0500000026}},{"attributes":{"ID":256546,"DIS_CODE":0,"TOWNNAME":"新營區","LI":"南興里","LIN":" ","STREET":"興農街","SECT":" ","MAREA":" ","LANE":"１４０巷","ALLEY":" ","HOUSE_NO":"１１之３號","E_COORD97":179212.79999999999,"N_COORD97":2577524.4399999999,"ADDRESS":"興農街１４０巷１１之３號","OBJECTID":256542},"geometry":{"x":179212.80000000168,"y":2577524.4400000032}},{"attributes":{"ID":256547,"DIS_CODE":0,"TOWNNAME":"新營區","LI":"嘉芳里","LIN":"15鄰","STREET":"復興路","SECT":" ","MAREA":" ","LANE":"１０００巷","ALLEY":" ","HOUSE_NO":"１號之２０","E_COORD97":176331.17999999999,"N_COORD97":2578961.5699999998,"ADDRESS":"復興路１０００巷１之２０號","OBJECTID":256543},"geometry":{"x":176331.1799999997,"y":2578961.5700000003}},{"attributes":{"ID":256548,"DIS_CODE":0,"TOWNNAME":"東區","LI":"東門里","LIN":"17鄰","STREET":"東門路","SECT":"一段","MAREA":" ","LANE":"１３５巷","ALLEY":" ","HOUSE_NO":"１９號","E_COORD97":169504.87,"N_COORD97":2543268.7200000002,"ADDRESS":"東門路一段１３５巷１９號","OBJECTID":256544},"geometry":{"x":169504.87000000104,"y":2543268.7200000025}},{"attributes":{"ID":256549,"DIS_CODE":0,"TOWNNAME":"東區","LI":"東門里","LIN":"17鄰","STREET":"東門路","SECT":"一段","MAREA":" ","LANE":"１３５巷","ALLEY":" ","HOUSE_NO":"２１號","E_COORD97":169505.87,"N_COORD97":2543271.8100000001,"ADDRESS":"東門路一段１３５巷２１號","OBJECTID":256545},"geometry":{"x":169505.87000000011,"y":2543271.8100000005}},{"attributes":{"ID":256550,"DIS_CODE":0,"TOWNNAME":"東區","LI":"東門里","LIN":"17鄰","STREET":"東門路","SECT":"一段","MAREA":" ","LANE":"１３５巷","ALLEY":" ","HOUSE_NO":"２３號","E_COORD97":169507.03,"N_COORD97":2543275.5800000001,"ADDRESS":"東門路一段１３５巷２３號","OBJECTID":256546},"geometry":{"x":169507.03000000119,"y":2543275.5800000019}},{"attributes":{"ID":256551,"DIS_CODE":0,"TOWNNAME":"新營區","LI":"南興里","LIN":"18鄰","STREET":"建業路","SECT":" ","MAREA":" ","LANE":"１５７巷","ALLEY":" ","HOUSE_NO":"２４號","E_COORD97":178381.29999999999,"N_COORD97":2577420.9500000002,"ADDRESS":"建業路１５７巷２４號","OBJECTID":256547},"geometry":{"x":178381.30000000075,"y":2577420.9499999993}},{"attributes":{"ID":256552,"DIS_CODE":0,"TOWNNAME":"安平區","LI":"國平里","LIN":"24鄰","STREET":"建平七街","SECT":" ","MAREA":" ","LANE":" ","ALLEY":" ","HOUSE_NO":"６７７號八樓之４","E_COORD97":164850.32999999999,"N_COORD97":2543412.3599999999,"ADDRESS":"建平七街６７７號八樓之４","OBJECTID":256548},"geometry":{"x":164850.33000000101,"y":2543412.3600000013}},{"attributes":{"ID":256553,"DIS_CODE":0,"TOWNNAME":"安平區","LI":"國平里","LIN":"24鄰","STREET":"建平七街","SECT":" ","MAREA":" ","LANE":" ","ALLEY":" ","HOUSE_NO":"６７７號八樓之５","E_COORD97":164850.32999999999,"N_COORD97":2543412.3599999999,"ADDRESS":"建平七街６７７號八樓之５","OBJECTID":256549},"geometry":{"x":164850.33000000101,"y":2543412.3600000013}},{"attributes":{"ID":256554,"DIS_CODE":0,"TOWNNAME":"安平區","LI":"國平里","LIN":"24鄰","STREET":"建平七街","SECT":" ","MAREA":" ","LANE":" ","ALLEY":" ","HOUSE_NO":"６７７號八樓之６","E_COORD97":164850.32999999999,"N_COORD97":2543412.3599999999,"ADDRESS":"建平七街６７７號八樓之６","OBJECTID":256550},"geometry":{"x":164850.33000000101,"y":2543412.3600000013}},{"attributes":{"ID":256555,"DIS_CODE":0,"TOWNNAME":"安平區","LI":"國平里","LIN":"24鄰","STREET":"建平七街","SECT":" ","MAREA":" ","LANE":" ","ALLEY":" ","HOUSE_NO":"６７７號八樓之７","E_COORD97":164850.32999999999,"N_COORD97":2543412.3599999999,"ADDRESS":"建平七街６７７號八樓之７","OBJECTID":256551},"geometry":{"x":164850.33000000101,"y":2543412.3600000013}},{"attributes":{"ID":256556,"DIS_CODE":0,"TOWNNAME":"安平區","LI":"國平里","LIN":"24鄰","STREET":"建平七街","SECT":" ","MAREA":" ","LANE":" ","ALLEY":" ","HOUSE_NO":"６７７號八樓之８","E_COORD97":164850.32999999999,"N_COORD97":2543412.3599999999,"ADDRESS":"建平七街６７７號八樓之８","OBJECTID":256552},"geometry":{"x":164850.33000000101,"y":2543412.3600000013}},{"attributes":{"ID":256557,"DIS_CODE":0,"TOWNNAME":"安平區","LI":"國平里","LIN":"24鄰","STREET":"建平七街","SECT":" ","MAREA":" ","LANE":" ","ALLEY":" ","HOUSE_NO":"６７７號八樓之９","E_COORD97":164850.32999999999,"N_COORD97":2543412.3599999999,"ADDRESS":"建平七街６７７號八樓之９","OBJECTID":256553},"geometry":{"x":164850.33000000101,"y":2543412.3600000013}},{"attributes":{"ID":256558,"DIS_CODE":0,"TOWNNAME":"東區","LI":"泉南里","LIN":"27鄰","STREET":"府連路","SECT":" ","MAREA":" ","LANE":"２６０巷","ALLEY":" ","HOUSE_NO":"１６號","E_COORD97":169454.51000000001,"N_COORD97":2542806.4900000002,"ADDRESS":"府連路２６０巷１６號","OBJECTID":256554},"geometry":{"x":169454.51000000071,"y":2542806.4900000002}},{"attributes":{"ID":256559,"DIS_CODE":0,"TOWNNAME":"新營區","LI":"角帶里","LIN":"1鄰","STREET":" ","SECT":" ","MAREA":"角帶圍","LANE":" ","ALLEY":" ","HOUSE_NO":"１號","E_COORD97":174845.13981299999,"N_COORD97":2576143.8502099998,"ADDRESS":"角帶圍１號","OBJECTID":256555},"geometry":{"x":174845.13981300127,"y":2576143.8502090033}},{"attributes":{"ID":256560,"DIS_CODE":0,"TOWNNAME":"安南區","LI":"新順里","LIN":"15鄰","STREET":"培安二街","SECT":" ","MAREA":" ","LANE":" ","ALLEY":" ","HOUSE_NO":"６６號","E_COORD97":169390.41,"N_COORD97":2549770.4500000002,"ADDRESS":"培安二街６６號","OBJECTID":256556},"geometry":{"x":169390.40999999922,"y":2549770.450000003}},{"attributes":{"ID":256561,"DIS_CODE":0,"TOWNNAME":"安南區","LI":"鳳凰里","LIN":"27鄰","STREET":"北安路","SECT":"三段","MAREA":" ","LANE":"１４５巷","ALLEY":" ","HOUSE_NO":"５７號","E_COORD97":168153.60000000001,"N_COORD97":2549083.21,"ADDRESS":"北安路三段１４５巷５７號","OBJECTID":256557},"geometry":{"x":168153.60000000056,"y":2549083.2100000028}},{"attributes":{"ID":256562,"DIS_CODE":0,"TOWNNAME":"永康區","LI":"\u25A0洲里","LIN":"27鄰","STREET":"洲尾街","SECT":" ","MAREA":" ","LANE":"１５２巷","ALLEY":" ","HOUSE_NO":"２４號","E_COORD97":171060.22,"N_COORD97":2549069.7999999998,"ADDRESS":"洲尾街１５２巷２４號","OBJECTID":256558},"geometry":{"x":171060.22000000067,"y":2549069.8000000007}},{"attributes":{"ID":256563,"DIS_CODE":0,"TOWNNAME":"永康區","LI":"\u25A0洲里","LIN":"27鄰","STREET":"洲尾街","SECT":" ","MAREA":" ","LANE":"１５２巷","ALLEY":" ","HOUSE_NO":"２２號","E_COORD97":171058.72,"N_COORD97":2549073.5499999998,"ADDRESS":"洲尾街１５２巷２２號","OBJECTID":256559},"geometry":{"x":171058.71999999974,"y":2549073.5500000026}},{"attributes":{"ID":256564,"DIS_CODE":0,"TOWNNAME":"永康區","LI":"\u25A0洲里","LIN":"27鄰","STREET":"洲尾街","SECT":" ","MAREA":" ","LANE":"１４６巷","ALLEY":" ","HOUSE_NO":"３１號","E_COORD97":170998.45000000001,"N_COORD97":2549066.4199999999,"ADDRESS":"洲尾街１４６巷３１號","OBJECTID":256560},"geometry":{"x":170998.45000000019,"y":2549066.4200000037}},{"attributes":{"ID":256565,"DIS_CODE":0,"TOWNNAME":"永康區","LI":"\u25A0洲里","LIN":"27鄰","STREET":"洲尾街","SECT":" ","MAREA":" ","LANE":"１５２巷","ALLEY":" ","HOUSE_NO":"２６號","E_COORD97":171061.26999999999,"N_COORD97":2549066.0499999998,"ADDRESS":"洲尾街１５２巷２６號","OBJECTID":256561},"geometry":{"x":171061.27000000048,"y":2549066.0499999989}},{"attributes":{"ID":256566,"DIS_CODE":0,"TOWNNAME":"官田區","LI":"二鎮里","LIN":"17鄰","STREET":"工社中街","SECT":" ","MAREA":" ","LANE":"１９巷","ALLEY":" ","HOUSE_NO":"８號","E_COORD97":181176.13,"N_COORD97":2568539.5099999998,"ADDRESS":"工社中街１９巷８號","OBJECTID":256562},"geometry":{"x":181176.13000000082,"y":2568539.5099999979}},{"attributes":{"ID":256567,"DIS_CODE":0,"TOWNNAME":"官田區","LI":"二鎮里","LIN":"17鄰","STREET":"工社中街","SECT":" ","MAREA":" ","LANE":"１９巷","ALLEY":" ","HOUSE_NO":"９號","E_COORD97":181180.38,"N_COORD97":2568540.75,"ADDRESS":"工社中街１９巷９號","OBJECTID":256563},"geometry":{"x":181180.37999999896,"y":2568540.75}},{"attributes":{"ID":256568,"DIS_CODE":0,"TOWNNAME":"官田區","LI":"二鎮里","LIN":"17鄰","STREET":"工社中街","SECT":" ","MAREA":" ","LANE":"２５巷","ALLEY":" ","HOUSE_NO":"２２號","E_COORD97":181258.94,"N_COORD97":2568586.8399999999,"ADDRESS":"工社中街２５巷２２號","OBJECTID":256564},"geometry":{"x":181258.94000000134,"y":2568586.8399999999}},{"attributes":{"ID":256569,"DIS_CODE":0,"TOWNNAME":"官田區","LI":"二鎮里","LIN":"17鄰","STREET":"工社中街","SECT":" ","MAREA":" ","LANE":"２５巷","ALLEY":" ","HOUSE_NO":"２３號","E_COORD97":181259.76000000001,"N_COORD97":2568582.6899999999,"ADDRESS":"工社中街２５巷２３號","OBJECTID":256565},"geometry":{"x":181259.76000000071,"y":2568582.6900000013}},{"attributes":{"ID":256570,"DIS_CODE":0,"TOWNNAME":"官田區","LI":"二鎮里","LIN":"17鄰","STREET":"工社中街","SECT":" ","MAREA":" ","LANE":"２５巷","ALLEY":" ","HOUSE_NO":"２４號","E_COORD97":181260.81,"N_COORD97":2568578.75,"ADDRESS":"工社中街２５巷２４號","OBJECTID":256566},"geometry":{"x":181260.81000000052,"y":2568578.75}},{"attributes":{"ID":256571,"DIS_CODE":0,"TOWNNAME":"官田區","LI":"二鎮里","LIN":"17鄰","STREET":"工社中街","SECT":" ","MAREA":" ","LANE":"２５巷","ALLEY":" ","HOUSE_NO":"２５號","E_COORD97":181262.07000000001,"N_COORD97":2568574.6000000001,"ADDRESS":"工社中街２５巷２５號","OBJECTID":256567},"geometry":{"x":181262.0700000003,"y":2568574.6000000015}},{"attributes":{"ID":256572,"DIS_CODE":0,"TOWNNAME":"官田區","LI":"二鎮里","LIN":"17鄰","STREET":"工社中街","SECT":" ","MAREA":" ","LANE":"２５巷","ALLEY":" ","HOUSE_NO":"２６號","E_COORD97":181274.09,"N_COORD97":2568586.23,"ADDRESS":"工社中街２５巷２６號","OBJECTID":256568},"geometry":{"x":181274.09000000171,"y":2568586.2299999986}},{"attributes":{"ID":256573,"DIS_CODE":0,"TOWNNAME":"官田區","LI":"二鎮里","LIN":"17鄰","STREET":"工社中街","SECT":" ","MAREA":" ","LANE":"２５巷","ALLEY":" ","HOUSE_NO":"２７號","E_COORD97":181279.16,"N_COORD97":2568587.1600000001,"ADDRESS":"工社中街２５巷２７號","OBJECTID":256569},"geometry":{"x":181279.16000000108,"y":2568587.160000002}},{"attributes":{"ID":256574,"DIS_CODE":0,"TOWNNAME":"官田區","LI":"二鎮里","LIN":"17鄰","STREET":"工社中街","SECT":" ","MAREA":" ","LANE":"２５巷","ALLEY":" ","HOUSE_NO":"２９號","E_COORD97":181290.73999999999,"N_COORD97":2568592.3900000001,"ADDRESS":"工社中街２５巷２９號","OBJECTID":256570},"geometry":{"x":181290.74000000115,"y":2568592.3900000043}},{"attributes":{"ID":256575,"DIS_CODE":0,"TOWNNAME":"官田區","LI":"二鎮里","LIN":"17鄰","STREET":"工社中街","SECT":" ","MAREA":" ","LANE":"１５巷","ALLEY":" ","HOUSE_NO":"１３號","E_COORD97":181215.81,"N_COORD97":2568501.0899999999,"ADDRESS":"工社中街１５巷１３號","OBJECTID":256571},"geometry":{"x":181215.80999999959,"y":2568501.0899999999}},{"attributes":{"ID":256576,"DIS_CODE":0,"TOWNNAME":"官田區","LI":"二鎮里","LIN":"17鄰","STREET":"工社中街","SECT":" ","MAREA":" ","LANE":"１５巷","ALLEY":" ","HOUSE_NO":"１４號","E_COORD97":181186.82999999999,"N_COORD97":2568518.1699999999,"ADDRESS":"工社中街１５巷１４號","OBJECTID":256572},"geometry":{"x":181186.83000000101,"y":2568518.1699999999}},{"attributes":{"ID":256577,"DIS_CODE":0,"TOWNNAME":"安平區","LI":"國平里","LIN":"24鄰","STREET":"建平七街","SECT":" ","MAREA":" ","LANE":" ","ALLEY":" ","HOUSE_NO":"６７７號十一樓之１","E_COORD97":164850.32999999999,"N_COORD97":2543412.3599999999,"ADDRESS":"建平七街６７７號十一樓之１","OBJECTID":256573},"geometry":{"x":164850.33000000101,"y":2543412.3600000013}},{"attributes":{"ID":256578,"DIS_CODE":0,"TOWNNAME":"安平區","LI":"國平里","LIN":"24鄰","STREET":"建平七街","SECT":" ","MAREA":" ","LANE":" ","ALLEY":" ","HOUSE_NO":"６７７號十一樓之１０","E_COORD97":164850.32999999999,"N_COORD97":2543412.3599999999,"ADDRESS":"建平七街６７７號十一樓之１０","OBJECTID":256574},"geometry":{"x":164850.33000000101,"y":2543412.3600000013}},{"attributes":{"ID":256579,"DIS_CODE":0,"TOWNNAME":"安平區","LI":"國平里","LIN":"24鄰","STREET":"建平七街","SECT":" ","MAREA":" ","LANE":" ","ALLEY":" ","HOUSE_NO":"６７７號十一樓之１１","E_COORD97":164850.32999999999,"N_COORD97":2543412.3599999999,"ADDRESS":"建平七街６７７號十一樓之１１","OBJECTID":256575},"geometry":{"x":164850.33000000101,"y":2543412.3600000013}},{"attributes":{"ID":256580,"DIS_CODE":0,"TOWNNAME":"安平區","LI":"國平里","LIN":"32鄰","STREET":"育平二街","SECT":" ","MAREA":" ","LANE":" ","ALLEY":" ","HOUSE_NO":"５９號","E_COORD97":164806.38,"N_COORD97":2542921.3599999999,"ADDRESS":"育平二街５９號","OBJECTID":256576},"geometry":{"x":164806.37999999989,"y":2542921.3599999994}},{"attributes":{"ID":256581,"DIS_CODE":0,"TOWNNAME":"安平區","LI":"國平里","LIN":"32鄰","STREET":"育平二街","SECT":" ","MAREA":" ","LANE":" ","ALLEY":" ","HOUSE_NO":"６１號","E_COORD97":164811.07999999999,"N_COORD97":2542920.6899999999,"ADDRESS":"育平二街６１號","OBJECTID":256577},"geometry":{"x":164811.08000000101,"y":2542920.6900000032}},{"attributes":{"ID":256582,"DIS_CODE":0,"TOWNNAME":"安南區","LI":"\u25A0南里","LIN":"27鄰","STREET":"環福街","SECT":" ","MAREA":" ","LANE":"２２０巷","ALLEY":" ","HOUSE_NO":"２５號","E_COORD97":170289.20999999999,"N_COORD97":2552737.98,"ADDRESS":"環福街２２０巷２５號","OBJECTID":256578},"geometry":{"x":170289.21000000089,"y":2552737.9799999986}},{"attributes":{"ID":256583,"DIS_CODE":0,"TOWNNAME":"安南區","LI":"\u25A0南里","LIN":"27鄰","STREET":"環福街","SECT":" ","MAREA":" ","LANE":"２２０巷","ALLEY":" ","HOUSE_NO":"３５號","E_COORD97":170310.66,"N_COORD97":2552767.1299999999,"ADDRESS":"環福街２２０巷３５號","OBJECTID":256579},"geometry":{"x":170310.66000000015,"y":2552767.1300000008}},{"attributes":{"ID":256584,"DIS_CODE":0,"TOWNNAME":"安南區","LI":"\u25A0南里","LIN":"27鄰","STREET":"環福街","SECT":" ","MAREA":" ","LANE":"２５４巷","ALLEY":" ","HOUSE_NO":"１８號","E_COORD97":170203.79000000001,"N_COORD97":2552711.3900000001,"ADDRESS":"環福街２５４巷１８號","OBJECTID":256580},"geometry":{"x":170203.79000000097,"y":2552711.3900000006}},{"attributes":{"ID":256585,"DIS_CODE":0,"TOWNNAME":"官田區","LI":"二鎮里","LIN":"17鄰","STREET":"工社中街","SECT":" ","MAREA":" ","LANE":"１５巷","ALLEY":" ","HOUSE_NO":"１６號","E_COORD97":181193.57999999999,"N_COORD97":2568519.9500000002,"ADDRESS":"工社中街１５巷１６號","OBJECTID":256581},"geometry":{"x":181193.58000000101,"y":2568519.9500000011}},{"attributes":{"ID":256586,"DIS_CODE":0,"TOWNNAME":"安平區","LI":"國平里","LIN":"32鄰","STREET":"育平二街","SECT":" ","MAREA":" ","LANE":" ","ALLEY":" ","HOUSE_NO":"６３號","E_COORD97":164816.20999999999,"N_COORD97":2542919.7999999998,"ADDRESS":"育平二街６３號","OBJECTID":256582},"geometry":{"x":164816.20999999996,"y":2542919.8000000007}},{"attributes":{"ID":256587,"DIS_CODE":0,"TOWNNAME":"安平區","LI":"國平里","LIN":"32鄰","STREET":"育平二街","SECT":" ","MAREA":" ","LANE":" ","ALLEY":" ","HOUSE_NO":"６５號","E_COORD97":164822.25,"N_COORD97":2542918.46,"ADDRESS":"育平二街６５號","OBJECTID":256583},"geometry":{"x":164822.25,"y":2542918.4600000028}},{"attributes":{"ID":256588,"DIS_CODE":0,"TOWNNAME":"安平區","LI":"國平里","LIN":"32鄰","STREET":"育平二街","SECT":" ","MAREA":" ","LANE":" ","ALLEY":" ","HOUSE_NO":"６７號","E_COORD97":164827.60999999999,"N_COORD97":2542917.3500000001,"ADDRESS":"育平二街６７號","OBJECTID":256584},"geometry":{"x":164827.6100000022,"y":2542917.3500000015}},{"attributes":{"ID":256589,"DIS_CODE":0,"TOWNNAME":"安平區","LI":"國平里","LIN":"32鄰","STREET":"育平二街","SECT":" ","MAREA":" ","LANE":" ","ALLEY":" ","HOUSE_NO":"６９號","E_COORD97":164831.63,"N_COORD97":2542916.6800000002,"ADDRESS":"育平二街６９號","OBJECTID":256585},"geometry":{"x":164831.62999999989,"y":2542916.6799999997}},{"attributes":{"ID":256590,"DIS_CODE":0,"TOWNNAME":"永康區","LI":"\u25A0行里","LIN":"27鄰","STREET":"中正南路","SECT":" ","MAREA":" ","LANE":"３６０巷","ALLEY":" ","HOUSE_NO":"１４號","E_COORD97":171167.60999999999,"N_COORD97":2548081.2400000002,"ADDRESS":"中正南路３６０巷１４號","OBJECTID":256586},"geometry":{"x":171167.6100000022,"y":2548081.2400000039}},{"attributes":{"ID":256591,"DIS_CODE":0,"TOWNNAME":"永康區","LI":"\u25A0行里","LIN":"27鄰","STREET":"中正南路","SECT":" ","MAREA":" ","LANE":"３６０巷","ALLEY":" ","HOUSE_NO":"１７號","E_COORD97":171209.92999999999,"N_COORD97":2548094.8599999999,"ADDRESS":"中正南路３６０巷１７號","OBJECTID":256587},"geometry":{"x":171209.9299999997,"y":2548094.8599999994}},{"attributes":{"ID":256592,"DIS_CODE":0,"TOWNNAME":"永康區","LI":"\u25A0行里","LIN":"27鄰","STREET":"中正南路","SECT":" ","MAREA":" ","LANE":"３６０巷","ALLEY":" ","HOUSE_NO":"１８號","E_COORD97":171160.45999999999,"N_COORD97":2548020.9700000002,"ADDRESS":"中正南路３６０巷１８號","OBJECTID":256588},"geometry":{"x":171160.46000000089,"y":2548020.9700000007}},{"attributes":{"ID":256593,"DIS_CODE":0,"TOWNNAME":"永康區","LI":"\u25A0行里","LIN":"27鄰","STREET":"中正南路","SECT":" ","MAREA":" ","LANE":"３６０巷","ALLEY":" ","HOUSE_NO":"２０號","E_COORD97":171151.17999999999,"N_COORD97":2548001.8199999998,"ADDRESS":"中正南路３６０巷２０號","OBJECTID":256589},"geometry":{"x":171151.18000000156,"y":2548001.8200000003}},{"attributes":{"ID":256594,"DIS_CODE":0,"TOWNNAME":"永康區","LI":"龍潭里","LIN":"27鄰","STREET":"中山北路","SECT":" ","MAREA":" ","LANE":"４６１巷","ALLEY":" ","HOUSE_NO":"１４號","E_COORD97":175115.42999999999,"N_COORD97":2547811.6000000001,"ADDRESS":"中山北路４６１巷１４號","OBJECTID":256590},"geometry":{"x":175115.4299999997,"y":2547811.6000000015}},{"attributes":{"ID":256595,"DIS_CODE":0,"TOWNNAME":"官田區","LI":"二鎮里","LIN":"17鄰","STREET":"工社中街","SECT":" ","MAREA":" ","LANE":"１５巷","ALLEY":" ","HOUSE_NO":"１７號之１","E_COORD97":181228.29999999999,"N_COORD97":2568505.96,"ADDRESS":"工社中街１５巷１７號之１","OBJECTID":256591},"geometry":{"x":181228.29999999888,"y":2568505.9600000009}},{"attributes":{"ID":256596,"DIS_CODE":0,"TOWNNAME":"官田區","LI":"二鎮里","LIN":"17鄰","STREET":"工社中街","SECT":" ","MAREA":" ","LANE":"１５巷","ALLEY":" ","HOUSE_NO":"１７號","E_COORD97":181223.91,"N_COORD97":2568505,"ADDRESS":"工社中街１５巷１７號","OBJECTID":256592},"geometry":{"x":181223.91000000015,"y":2568505}},{"attributes":{"ID":256597,"DIS_CODE":0,"TOWNNAME":"官田區","LI":"二鎮里","LIN":"17鄰","STREET":"工社中街","SECT":" ","MAREA":" ","LANE":"１５巷","ALLEY":" ","HOUSE_NO":"２０號之１","E_COORD97":181214.67999999999,"N_COORD97":2568524.8599999999,"ADDRESS":"工社中街１５巷２０號之１","OBJECTID":256593},"geometry":{"x":181214.68000000063,"y":2568524.8600000013}},{"attributes":{"ID":256598,"DIS_CODE":0,"TOWNNAME":"官田區","LI":"二鎮里","LIN":"17鄰","STREET":"工社中街","SECT":" ","MAREA":" ","LANE":"１５巷","ALLEY":" ","HOUSE_NO":"２０號之２","E_COORD97":181219.10000000001,"N_COORD97":2568526.0099999998,"ADDRESS":"工社中街１５巷２０號之２","OBJECTID":256594},"geometry":{"x":181219.09999999963,"y":2568526.0099999979}},{"attributes":{"ID":256599,"DIS_CODE":0,"TOWNNAME":"官田區","LI":"二鎮里","LIN":"17鄰","STREET":"工社中街","SECT":" ","MAREA":" ","LANE":"１５巷","ALLEY":" ","HOUSE_NO":"２０號","E_COORD97":181210.26000000001,"N_COORD97":2568523.5099999998,"ADDRESS":"工社中街１５巷２０號","OBJECTID":256595},"geometry":{"x":181210.26000000071,"y":2568523.5100000016}},{"attributes":{"ID":256600,"DIS_CODE":0,"TOWNNAME":"官田區","LI":"二鎮里","LIN":"17鄰","STREET":"工社中街","SECT":" ","MAREA":" ","LANE":"１５巷","ALLEY":" ","HOUSE_NO":"２２號之１","E_COORD97":181227.39000000001,"N_COORD97":2568528.1600000001,"ADDRESS":"工社中街１５巷２２號之１","OBJECTID":256596},"geometry":{"x":181227.38999999966,"y":2568528.1600000001}},{"attributes":{"ID":256601,"DIS_CODE":0,"TOWNNAME":"南區","LI":"郡南里","LIN":"9鄰","STREET":"永成路","SECT":"三段","MAREA":" ","LANE":"１３７巷","ALLEY":" ","HOUSE_NO":"１０號","E_COORD97":167455.832696,"N_COORD97":2540753.6789099998,"ADDRESS":"永成路三段１３７巷１０號","OBJECTID":256597},"geometry":{"x":167455.83269600105,"y":2540753.678904999}},{"attributes":{"ID":256602,"DIS_CODE":0,"TOWNNAME":"官田區","LI":"二鎮里","LIN":"17鄰","STREET":"工社中街","SECT":" ","MAREA":" ","LANE":"１５巷","ALLEY":" ","HOUSE_NO":"２２號","E_COORD97":181223.69,"N_COORD97":2568527.21,"ADDRESS":"工社中街１５巷２２號","OBJECTID":256598},"geometry":{"x":181223.69000000134,"y":2568527.2100000028}},{"attributes":{"ID":256603,"DIS_CODE":0,"TOWNNAME":"官田區","LI":"二鎮里","LIN":"17鄰","STREET":"工社中街","SECT":" ","MAREA":" ","LANE":"１５巷","ALLEY":" ","HOUSE_NO":"２３號","E_COORD97":181241.60999999999,"N_COORD97":2568508.5600000001,"ADDRESS":"工社中街１５巷２３號","OBJECTID":256599},"geometry":{"x":181241.61000000034,"y":2568508.5600000005}},{"attributes":{"ID":256604,"DIS_CODE":0,"TOWNNAME":"官田區","LI":"二鎮里","LIN":"17鄰","STREET":"工社中街","SECT":" ","MAREA":" ","LANE":"１５巷","ALLEY":" ","HOUSE_NO":"２４號","E_COORD97":181232.67000000001,"N_COORD97":2568529.52,"ADDRESS":"工社中街１５巷２４號","OBJECTID":256600},"geometry":{"x":181232.66999999993,"y":2568529.5200000033}}]}