{"displayFieldName":"TOWNNAME","fieldAliases":{"ID":"ID","DIS_CODE":"DIS_CODE","TOWNNAME":"TOWNNAME","LI":"LI","LIN":"LIN","STREET":"STREET","SECT":"SECT","MAREA":"MAREA","LANE":"LANE","ALLEY":"ALLEY","HOUSE_NO":"HOUSE_NO","E_COORD97":"E_COORD97","N_COORD97":"N_COORD97","ADDRESS":"ADDRESS","OBJECTID":"OBJECTID"},"geometryType":"esriGeometryPoint","spatialReference":{"wkid":102443,"latestWkid":3826},"fields":[{"name":"ID","type":"esriFieldTypeDouble","alias":"ID"},{"name":"DIS_CODE","type":"esriFieldTypeInteger","alias":"DIS_CODE"},{"name":"TOWNNAME","type":"esriFieldTypeString","alias":"TOWNNAME","length":8},{"name":"LI","type":"esriFieldTypeString","alias":"LI","length":8},{"name":"LIN","type":"esriFieldTypeString","alias":"LIN","length":12},{"name":"STREET","type":"esriFieldTypeString","alias":"STREET","length":20},{"name":"SECT","type":"esriFieldTypeString","alias":"SECT","length":8},{"name":"MAREA","type":"esriFieldTypeString","alias":"MAREA","length":12},{"name":"LANE","type":"esriFieldTypeString","alias":"LANE","length":10},{"name":"ALLEY","type":"esriFieldTypeString","alias":"ALLEY","length":10},{"name":"HOUSE_NO","type":"esriFieldTypeString","alias":"HOUSE_NO","length":20},{"name":"E_COORD97","type":"esriFieldTypeDouble","alias":"E_COORD97"},{"name":"N_COORD97","type":"esriFieldTypeDouble","alias":"N_COORD97"},{"name":"ADDRESS","type":"esriFieldTypeString","alias":"ADDRESS","length":50},{"name":"OBJECTID","type":"esriFieldTypeOID","alias":"OBJECTID"}],"features":[{"attributes":{"ID":537428,"DIS_CODE":0,"TOWNNAME":"仁德區","LI":"一甲里","LIN":"19鄰","STREET":"太乙路","SECT":" ","MAREA":" ","LANE":" ","ALLEY":" ","HOUSE_NO":"４３號","E_COORD97":173504.20999999999,"N_COORD97":2542479.2599999998,"ADDRESS":"太乙路４３號","OBJECTID":537401},"geometry":{"x":173504.21000000183,"y":2542479.2599999998}},{"attributes":{"ID":537429,"DIS_CODE":0,"TOWNNAME":"仁德區","LI":"一甲里","LIN":"19鄰","STREET":"中正路","SECT":"三段","MAREA":" ","LANE":" ","ALLEY":" ","HOUSE_NO":"３５５號","E_COORD97":173823.19,"N_COORD97":2542432.77,"ADDRESS":"中正路三段３５５號","OBJECTID":537402},"geometry":{"x":173823.19000000041,"y":2542432.7700000014}},{"attributes":{"ID":537430,"DIS_CODE":0,"TOWNNAME":"仁德區","LI":"仁義里","LIN":"19鄰","STREET":"中山路","SECT":" ","MAREA":" ","LANE":" ","ALLEY":" ","HOUSE_NO":"２９６號","E_COORD97":174014.01000000001,"N_COORD97":2541254.25,"ADDRESS":"中山路２９６號","OBJECTID":537403},"geometry":{"x":174014.01000000164,"y":2541254.2500000019}},{"attributes":{"ID":537431,"DIS_CODE":0,"TOWNNAME":"仁德區","LI":"仁義里","LIN":"19鄰","STREET":"中山路","SECT":" ","MAREA":" ","LANE":" ","ALLEY":" ","HOUSE_NO":"３０４號","E_COORD97":173997.82000000001,"N_COORD97":2541256.5,"ADDRESS":"中山路３０４號","OBJECTID":537404},"geometry":{"x":173997.82000000123,"y":2541256.5}},{"attributes":{"ID":537432,"DIS_CODE":0,"TOWNNAME":"仁德區","LI":"一甲里","LIN":"19鄰","STREET":"太新路","SECT":" ","MAREA":" ","LANE":" ","ALLEY":" ","HOUSE_NO":"８２號","E_COORD97":173415.17000000001,"N_COORD97":2542300.5099999998,"ADDRESS":"太新路８２號","OBJECTID":537405},"geometry":{"x":173415.17000000086,"y":2542300.5099999998}},{"attributes":{"ID":537433,"DIS_CODE":0,"TOWNNAME":"仁德區","LI":"仁德里","LIN":"19鄰","STREET":"文華一街","SECT":" ","MAREA":" ","LANE":" ","ALLEY":" ","HOUSE_NO":"３３號","E_COORD97":172292.87,"N_COORD97":2540312.0800000001,"ADDRESS":"文華一街３３號","OBJECTID":537406},"geometry":{"x":172292.87000000197,"y":2540312.0800000019}},{"attributes":{"ID":537434,"DIS_CODE":0,"TOWNNAME":"仁德區","LI":"太子里","LIN":"19鄰","STREET":"太子北路","SECT":" ","MAREA":" ","LANE":" ","ALLEY":" ","HOUSE_NO":"１８７之１號","E_COORD97":173895.42000000001,"N_COORD97":2543553.0499999998,"ADDRESS":"太子北路１８７之１號","OBJECTID":537407},"geometry":{"x":173895.41999999993,"y":2543553.0500000007}},{"attributes":{"ID":537435,"DIS_CODE":0,"TOWNNAME":"仁德區","LI":"仁德里","LIN":"19鄰","STREET":"文華一街","SECT":" ","MAREA":" ","LANE":" ","ALLEY":" ","HOUSE_NO":"２６號之１","E_COORD97":172257.84,"N_COORD97":2540288.0699999998,"ADDRESS":"文華一街２６號之１","OBJECTID":537408},"geometry":{"x":172257.84000000078,"y":2540288.070000004}},{"attributes":{"ID":537436,"DIS_CODE":0,"TOWNNAME":"仁德區","LI":"一甲里","LIN":"19鄰","STREET":"太乙一街","SECT":" ","MAREA":" ","LANE":" ","ALLEY":" ","HOUSE_NO":"６號","E_COORD97":173620.59,"N_COORD97":2542431.5,"ADDRESS":"太乙一街６號","OBJECTID":537409},"geometry":{"x":173620.59000000078,"y":2542431.5000000019}},{"attributes":{"ID":537437,"DIS_CODE":0,"TOWNNAME":"仁德區","LI":"一甲里","LIN":"19鄰","STREET":"太乙一街","SECT":" ","MAREA":" ","LANE":" ","ALLEY":" ","HOUSE_NO":"３０號","E_COORD97":173597.87,"N_COORD97":2542379.5099999998,"ADDRESS":"太乙一街３０號","OBJECTID":537410},"geometry":{"x":173597.87000000011,"y":2542379.5100000035}},{"attributes":{"ID":537438,"DIS_CODE":0,"TOWNNAME":"仁德區","LI":"一甲里","LIN":"19鄰","STREET":"太乙三街","SECT":" ","MAREA":" ","LANE":" ","ALLEY":" ","HOUSE_NO":"３３號","E_COORD97":173334.70000000001,"N_COORD97":2542278.2599999998,"ADDRESS":"太乙三街３３號","OBJECTID":537411},"geometry":{"x":173334.70000000019,"y":2542278.2599999998}},{"attributes":{"ID":537439,"DIS_CODE":0,"TOWNNAME":"仁德區","LI":"一甲里","LIN":"19鄰","STREET":"太乙一街","SECT":" ","MAREA":" ","LANE":" ","ALLEY":" ","HOUSE_NO":"１９號","E_COORD97":173604.87,"N_COORD97":2542277.7599999998,"ADDRESS":"太乙一街１９號","OBJECTID":537412},"geometry":{"x":173604.86999999918,"y":2542277.7600000016}},{"attributes":{"ID":537440,"DIS_CODE":0,"TOWNNAME":"仁德區","LI":"上崙里","LIN":"19鄰","STREET":"上崙一街","SECT":" ","MAREA":" ","LANE":" ","ALLEY":" ","HOUSE_NO":"１４９號","E_COORD97":173934.67000000001,"N_COORD97":2537765.2400000002,"ADDRESS":"上崙一街１４９號","OBJECTID":537413},"geometry":{"x":173934.66999999993,"y":2537765.2400000021}},{"attributes":{"ID":537441,"DIS_CODE":0,"TOWNNAME":"仁德區","LI":"上崙里","LIN":"19鄰","STREET":"上崙一街","SECT":" ","MAREA":" ","LANE":" ","ALLEY":" ","HOUSE_NO":"９１號","E_COORD97":173931.59,"N_COORD97":2537888.4900000002,"ADDRESS":"上崙一街９１號","OBJECTID":537414},"geometry":{"x":173931.58999999985,"y":2537888.4900000021}},{"attributes":{"ID":537442,"DIS_CODE":0,"TOWNNAME":"仁德區","LI":"二行里","LIN":"19鄰","STREET":"行大街","SECT":" ","MAREA":" ","LANE":" ","ALLEY":" ","HOUSE_NO":"２５８之２號","E_COORD97":169805.48999999999,"N_COORD97":2535135.7999999998,"ADDRESS":"行大街２５８之２號","OBJECTID":537415},"geometry":{"x":169805.49000000209,"y":2535135.8000000007}},{"attributes":{"ID":537443,"DIS_CODE":0,"TOWNNAME":"仁德區","LI":"二行里","LIN":"19鄰","STREET":"行大街","SECT":" ","MAREA":" ","LANE":" ","ALLEY":" ","HOUSE_NO":"２６８號","E_COORD97":169776.60000000001,"N_COORD97":2535149.25,"ADDRESS":"行大街２６８號","OBJECTID":537416},"geometry":{"x":169776.59999999963,"y":2535149.25}},{"attributes":{"ID":537444,"DIS_CODE":0,"TOWNNAME":"仁德區","LI":"一甲里","LIN":"19鄰","STREET":"太乙一街","SECT":" ","MAREA":" ","LANE":" ","ALLEY":" ","HOUSE_NO":"２１號","E_COORD97":173548.12,"N_COORD97":2542257.5,"ADDRESS":"太乙一街２１號","OBJECTID":537417},"geometry":{"x":173548.12000000104,"y":2542257.5}},{"attributes":{"ID":537445,"DIS_CODE":0,"TOWNNAME":"仁德區","LI":"一甲里","LIN":"19鄰","STREET":"太乙一街","SECT":" ","MAREA":" ","LANE":" ","ALLEY":" ","HOUSE_NO":"１１號","E_COORD97":173619.07000000001,"N_COORD97":2542354.75,"ADDRESS":"太乙一街１１號","OBJECTID":537418},"geometry":{"x":173619.07000000216,"y":2542354.7500000037}},{"attributes":{"ID":537446,"DIS_CODE":0,"TOWNNAME":"仁德區","LI":"一甲里","LIN":"19鄰","STREET":"太乙一街","SECT":" ","MAREA":" ","LANE":" ","ALLEY":" ","HOUSE_NO":"４０號","E_COORD97":173593.76000000001,"N_COORD97":2542334.25,"ADDRESS":"太乙一街４０號","OBJECTID":537419},"geometry":{"x":173593.76000000071,"y":2542334.2500000037}},{"attributes":{"ID":537447,"DIS_CODE":0,"TOWNNAME":"仁德區","LI":"一甲里","LIN":"19鄰","STREET":"太乙三街","SECT":" ","MAREA":" ","LANE":" ","ALLEY":" ","HOUSE_NO":"２１號","E_COORD97":173346.45000000001,"N_COORD97":2542350.75,"ADDRESS":"太乙三街２１號","OBJECTID":537420},"geometry":{"x":173346.45000000019,"y":2542350.75}},{"attributes":{"ID":537448,"DIS_CODE":0,"TOWNNAME":"仁德區","LI":"一甲里","LIN":"19鄰","STREET":"太乙一街","SECT":" ","MAREA":" ","LANE":" ","ALLEY":" ","HOUSE_NO":"５６號","E_COORD97":173572.95999999999,"N_COORD97":2542271.0099999998,"ADDRESS":"太乙一街５６號","OBJECTID":537421},"geometry":{"x":173572.95999999996,"y":2542271.0100000035}},{"attributes":{"ID":537449,"DIS_CODE":0,"TOWNNAME":"仁德區","LI":"一甲里","LIN":"19鄰","STREET":"太乙一街","SECT":" ","MAREA":" ","LANE":" ","ALLEY":" ","HOUSE_NO":"３４號","E_COORD97":173602.64000000001,"N_COORD97":2542353.5,"ADDRESS":"太乙一街３４號","OBJECTID":537422},"geometry":{"x":173602.64000000153,"y":2542353.5000000019}},{"attributes":{"ID":537450,"DIS_CODE":0,"TOWNNAME":"仁德區","LI":"一甲里","LIN":"19鄰","STREET":"太乙一街","SECT":" ","MAREA":" ","LANE":" ","ALLEY":" ","HOUSE_NO":"３１號","E_COORD97":173509.37,"N_COORD97":2542265.5099999998,"ADDRESS":"太乙一街３１號","OBJECTID":537423},"geometry":{"x":173509.37000000011,"y":2542265.5100000016}},{"attributes":{"ID":537451,"DIS_CODE":0,"TOWNNAME":"仁德區","LI":"一甲里","LIN":"19鄰","STREET":"太乙三街","SECT":" ","MAREA":" ","LANE":" ","ALLEY":" ","HOUSE_NO":"１９號","E_COORD97":173347.76999999999,"N_COORD97":2542359,"ADDRESS":"太乙三街１９號","OBJECTID":537424},"geometry":{"x":173347.77000000048,"y":2542359}},{"attributes":{"ID":537452,"DIS_CODE":0,"TOWNNAME":"仁德區","LI":"一甲里","LIN":"19鄰","STREET":"太乙三街","SECT":" ","MAREA":" ","LANE":" ","ALLEY":" ","HOUSE_NO":"３１號之１","E_COORD97":173338.94,"N_COORD97":2542290.7999999998,"ADDRESS":"太乙三街３１號之１","OBJECTID":537425},"geometry":{"x":173338.94000000134,"y":2542290.8000000026}},{"attributes":{"ID":537453,"DIS_CODE":0,"TOWNNAME":"仁德區","LI":"一甲里","LIN":"19鄰","STREET":"太乙一街","SECT":" ","MAREA":" ","LANE":" ","ALLEY":" ","HOUSE_NO":"５號","E_COORD97":173631.29999999999,"N_COORD97":2542402.7599999998,"ADDRESS":"太乙一街５號","OBJECTID":537426},"geometry":{"x":173631.30000000075,"y":2542402.7600000016}},{"attributes":{"ID":537454,"DIS_CODE":0,"TOWNNAME":"仁德區","LI":"一甲里","LIN":"19鄰","STREET":"太乙一街","SECT":" ","MAREA":" ","LANE":" ","ALLEY":" ","HOUSE_NO":"２號","E_COORD97":173616.20999999999,"N_COORD97":2542451,"ADDRESS":"太乙一街２號","OBJECTID":537427},"geometry":{"x":173616.21000000183,"y":2542451.0000000037}},{"attributes":{"ID":537455,"DIS_CODE":0,"TOWNNAME":"仁德區","LI":"一甲里","LIN":"19鄰","STREET":"太乙一街","SECT":" ","MAREA":" ","LANE":" ","ALLEY":" ","HOUSE_NO":"５８號","E_COORD97":173555.20999999999,"N_COORD97":2542273.7599999998,"ADDRESS":"太乙一街５８號","OBJECTID":537428},"geometry":{"x":173555.21000000183,"y":2542273.7600000016}},{"attributes":{"ID":537456,"DIS_CODE":0,"TOWNNAME":"仁德區","LI":"一甲里","LIN":"19鄰","STREET":"太乙一街","SECT":" ","MAREA":" ","LANE":" ","ALLEY":" ","HOUSE_NO":"４８號","E_COORD97":173593.17000000001,"N_COORD97":2542304.5099999998,"ADDRESS":"太乙一街４８號","OBJECTID":537429},"geometry":{"x":173593.17000000086,"y":2542304.5099999998}},{"attributes":{"ID":537457,"DIS_CODE":0,"TOWNNAME":"仁德區","LI":"一甲里","LIN":"19鄰","STREET":"太乙一街","SECT":" ","MAREA":" ","LANE":" ","ALLEY":" ","HOUSE_NO":"２７號","E_COORD97":173522.37,"N_COORD97":2542262.7599999998,"ADDRESS":"太乙一街２７號","OBJECTID":537430},"geometry":{"x":173522.37000000104,"y":2542262.7600000035}},{"attributes":{"ID":537458,"DIS_CODE":0,"TOWNNAME":"仁德區","LI":"一甲里","LIN":"19鄰","STREET":"太乙路","SECT":" ","MAREA":" ","LANE":" ","ALLEY":" ","HOUSE_NO":"５７號","E_COORD97":173410.54000000001,"N_COORD97":2542479.0099999998,"ADDRESS":"太乙路５７號","OBJECTID":537431},"geometry":{"x":173410.5400000019,"y":2542479.0100000016}},{"attributes":{"ID":537459,"DIS_CODE":0,"TOWNNAME":"仁德區","LI":"一甲里","LIN":"19鄰","STREET":"太乙一街","SECT":" ","MAREA":" ","LANE":" ","ALLEY":" ","HOUSE_NO":"２５號","E_COORD97":173529.57000000001,"N_COORD97":2542261,"ADDRESS":"太乙一街２５號","OBJECTID":537432},"geometry":{"x":173529.57000000123,"y":2542260.9999999981}},{"attributes":{"ID":537460,"DIS_CODE":0,"TOWNNAME":"仁德區","LI":"一甲里","LIN":"19鄰","STREET":"太乙二街","SECT":" ","MAREA":" ","LANE":" ","ALLEY":" ","HOUSE_NO":"１號","E_COORD97":173509.57999999999,"N_COORD97":2542399.5099999998,"ADDRESS":"太乙二街１號","OBJECTID":537433},"geometry":{"x":173509.58000000007,"y":2542399.5099999998}},{"attributes":{"ID":537461,"DIS_CODE":0,"TOWNNAME":"仁德區","LI":"一甲里","LIN":"19鄰","STREET":"太乙一街","SECT":" ","MAREA":" ","LANE":" ","ALLEY":" ","HOUSE_NO":"７０號","E_COORD97":173511.76999999999,"N_COORD97":2542285.5099999998,"ADDRESS":"太乙一街７０號","OBJECTID":537434},"geometry":{"x":173511.76999999862,"y":2542285.5100000016}},{"attributes":{"ID":537462,"DIS_CODE":0,"TOWNNAME":"仁德區","LI":"上崙里","LIN":"19鄰","STREET":"崑崙路","SECT":" ","MAREA":" ","LANE":" ","ALLEY":" ","HOUSE_NO":"５６０號","E_COORD97":173977.16,"N_COORD97":2537669.2400000002,"ADDRESS":"崑崙路５６０號","OBJECTID":537435},"geometry":{"x":173977.16000000015,"y":2537669.2400000039}},{"attributes":{"ID":537463,"DIS_CODE":0,"TOWNNAME":"仁德區","LI":"一甲里","LIN":"19鄰","STREET":"太乙一街","SECT":" ","MAREA":" ","LANE":" ","ALLEY":" ","HOUSE_NO":"２３號","E_COORD97":173538.95999999999,"N_COORD97":2542259.25,"ADDRESS":"太乙一街２３號","OBJECTID":537436},"geometry":{"x":173538.96000000089,"y":2542259.25}},{"attributes":{"ID":537464,"DIS_CODE":0,"TOWNNAME":"仁德區","LI":"一甲里","LIN":"19鄰","STREET":"太新路","SECT":" ","MAREA":" ","LANE":" ","ALLEY":" ","HOUSE_NO":"１７０號","E_COORD97":173556.69,"N_COORD97":2542397.7599999998,"ADDRESS":"太新路１７０號","OBJECTID":537437},"geometry":{"x":173556.69000000041,"y":2542397.7599999998}},{"attributes":{"ID":537465,"DIS_CODE":0,"TOWNNAME":"仁德區","LI":"一甲里","LIN":"19鄰","STREET":"太乙一街","SECT":" ","MAREA":" ","LANE":" ","ALLEY":" ","HOUSE_NO":"３２號","E_COORD97":173599.67000000001,"N_COORD97":2542364,"ADDRESS":"太乙一街３２號","OBJECTID":537438},"geometry":{"x":173599.67000000086,"y":2542364.0000000019}},{"attributes":{"ID":537466,"DIS_CODE":0,"TOWNNAME":"仁德區","LI":"一甲里","LIN":"19鄰","STREET":"太新路","SECT":" ","MAREA":" ","LANE":" ","ALLEY":" ","HOUSE_NO":"１７２號","E_COORD97":173558.45999999999,"N_COORD97":2542405.5099999998,"ADDRESS":"太新路１７２號","OBJECTID":537439},"geometry":{"x":173558.46000000183,"y":2542405.5099999998}},{"attributes":{"ID":537467,"DIS_CODE":0,"TOWNNAME":"仁德區","LI":"一甲里","LIN":"19鄰","STREET":"太乙三街","SECT":" ","MAREA":" ","LANE":" ","ALLEY":" ","HOUSE_NO":"２５號","E_COORD97":173342.87,"N_COORD97":2542324,"ADDRESS":"太乙三街２５號","OBJECTID":537440},"geometry":{"x":173342.87000000104,"y":2542324}},{"attributes":{"ID":537468,"DIS_CODE":0,"TOWNNAME":"仁德區","LI":"上崙里","LIN":"19鄰","STREET":"上崙一街","SECT":" ","MAREA":" ","LANE":" ","ALLEY":" ","HOUSE_NO":"６１號","E_COORD97":173873.54000000001,"N_COORD97":2537991.2400000002,"ADDRESS":"上崙一街６１號","OBJECTID":537441},"geometry":{"x":173873.54000000097,"y":2537991.2400000039}},{"attributes":{"ID":537469,"DIS_CODE":0,"TOWNNAME":"仁德區","LI":"一甲里","LIN":"19鄰","STREET":"太乙一街","SECT":" ","MAREA":" ","LANE":" ","ALLEY":" ","HOUSE_NO":"８號","E_COORD97":173619.25,"N_COORD97":2542422.75,"ADDRESS":"太乙一街８號","OBJECTID":537442},"geometry":{"x":173619.25000000186,"y":2542422.7500000019}},{"attributes":{"ID":537470,"DIS_CODE":0,"TOWNNAME":"仁德區","LI":"一甲里","LIN":"19鄰","STREET":"太乙一街","SECT":" ","MAREA":" ","LANE":" ","ALLEY":" ","HOUSE_NO":"２９號","E_COORD97":173515.57000000001,"N_COORD97":2542264.2599999998,"ADDRESS":"太乙一街２９號","OBJECTID":537443},"geometry":{"x":173515.56999999937,"y":2542264.2600000016}},{"attributes":{"ID":537471,"DIS_CODE":0,"TOWNNAME":"仁德區","LI":"一甲里","LIN":"19鄰","STREET":"太乙一街","SECT":" ","MAREA":" ","LANE":" ","ALLEY":" ","HOUSE_NO":"１３號","E_COORD97":173612.70999999999,"N_COORD97":2542327,"ADDRESS":"太乙一街１３號","OBJECTID":537444},"geometry":{"x":173612.71000000183,"y":2542327.0000000019}},{"attributes":{"ID":537472,"DIS_CODE":0,"TOWNNAME":"仁德區","LI":"一甲里","LIN":"19鄰","STREET":"太乙路","SECT":" ","MAREA":" ","LANE":" ","ALLEY":" ","HOUSE_NO":"２３號","E_COORD97":173600.26999999999,"N_COORD97":2542462,"ADDRESS":"太乙路２３號","OBJECTID":537445},"geometry":{"x":173600.27000000048,"y":2542462.0000000019}},{"attributes":{"ID":537473,"DIS_CODE":0,"TOWNNAME":"仁德區","LI":"一甲里","LIN":"19鄰","STREET":"太乙一街","SECT":" ","MAREA":" ","LANE":" ","ALLEY":" ","HOUSE_NO":"５０號","E_COORD97":173592.14000000001,"N_COORD97":2542297.5099999998,"ADDRESS":"太乙一街５０號","OBJECTID":537446},"geometry":{"x":173592.13999999966,"y":2542297.5099999998}},{"attributes":{"ID":537474,"DIS_CODE":0,"TOWNNAME":"仁德區","LI":"一甲里","LIN":"19鄰","STREET":"太乙二街","SECT":" ","MAREA":" ","LANE":" ","ALLEY":" ","HOUSE_NO":"４３號","E_COORD97":173323.64000000001,"N_COORD97":2542192.0099999998,"ADDRESS":"太乙二街４３號","OBJECTID":537447},"geometry":{"x":173323.6400000006,"y":2542192.0099999998}},{"attributes":{"ID":537475,"DIS_CODE":0,"TOWNNAME":"仁德區","LI":"一甲里","LIN":"19鄰","STREET":"太乙二街","SECT":" ","MAREA":" ","LANE":" ","ALLEY":" ","HOUSE_NO":"２７號","E_COORD97":173434.69,"N_COORD97":2542192.2599999998,"ADDRESS":"太乙二街２７號","OBJECTID":537448},"geometry":{"x":173434.69000000041,"y":2542192.2600000016}},{"attributes":{"ID":537476,"DIS_CODE":0,"TOWNNAME":"仁德區","LI":"一甲里","LIN":"19鄰","STREET":"太乙二街","SECT":" ","MAREA":" ","LANE":" ","ALLEY":" ","HOUSE_NO":"３５號","E_COORD97":173399.5,"N_COORD97":2542193.5099999998,"ADDRESS":"太乙二街３５號","OBJECTID":537449},"geometry":{"x":173399.50000000093,"y":2542193.5100000016}},{"attributes":{"ID":537477,"DIS_CODE":0,"TOWNNAME":"仁德區","LI":"一甲里","LIN":"19鄰","STREET":"太乙二街","SECT":" ","MAREA":" ","LANE":" ","ALLEY":" ","HOUSE_NO":"１２號","E_COORD97":173482.26000000001,"N_COORD97":2542364.5,"ADDRESS":"太乙二街１２號","OBJECTID":537450},"geometry":{"x":173482.26000000071,"y":2542364.5000000019}},{"attributes":{"ID":537478,"DIS_CODE":0,"TOWNNAME":"仁德區","LI":"一甲里","LIN":"19鄰","STREET":"太乙一街","SECT":" ","MAREA":" ","LANE":" ","ALLEY":" ","HOUSE_NO":"６０號","E_COORD97":173542.51000000001,"N_COORD97":2542276.2599999998,"ADDRESS":"太乙一街６０號","OBJECTID":537451},"geometry":{"x":173542.50999999978,"y":2542276.2600000035}},{"attributes":{"ID":537479,"DIS_CODE":0,"TOWNNAME":"仁德區","LI":"一甲里","LIN":"19鄰","STREET":"太新路","SECT":" ","MAREA":" ","LANE":" ","ALLEY":" ","HOUSE_NO":"１８０號","E_COORD97":173565.64999999999,"N_COORD97":2542433.25,"ADDRESS":"太新路１８０號","OBJECTID":537452},"geometry":{"x":173565.65000000037,"y":2542433.2500000019}},{"attributes":{"ID":537480,"DIS_CODE":0,"TOWNNAME":"仁德區","LI":"一甲里","LIN":"19鄰","STREET":"太乙二街","SECT":" ","MAREA":" ","LANE":" ","ALLEY":" ","HOUSE_NO":"７號","E_COORD97":173498.56,"N_COORD97":2542372.2599999998,"ADDRESS":"太乙二街７號","OBJECTID":537453},"geometry":{"x":173498.56000000052,"y":2542372.2600000016}},{"attributes":{"ID":537481,"DIS_CODE":0,"TOWNNAME":"仁德區","LI":"一甲里","LIN":"19鄰","STREET":"太乙二街","SECT":" ","MAREA":" ","LANE":" ","ALLEY":" ","HOUSE_NO":"５號","E_COORD97":173501.06,"N_COORD97":2542381.5099999998,"ADDRESS":"太乙二街５號","OBJECTID":537454},"geometry":{"x":173501.05999999959,"y":2542381.5099999998}},{"attributes":{"ID":537482,"DIS_CODE":0,"TOWNNAME":"仁德區","LI":"上崙里","LIN":"19鄰","STREET":"德崙路","SECT":" ","MAREA":" ","LANE":" ","ALLEY":" ","HOUSE_NO":"３１２號","E_COORD97":173872.12,"N_COORD97":2538117.2599999998,"ADDRESS":"德崙路３１２號","OBJECTID":537455},"geometry":{"x":173872.12000000011,"y":2538117.2600000016}},{"attributes":{"ID":537483,"DIS_CODE":0,"TOWNNAME":"仁德區","LI":"一甲里","LIN":"19鄰","STREET":"太乙一街","SECT":" ","MAREA":" ","LANE":" ","ALLEY":" ","HOUSE_NO":"６２號","E_COORD97":173533.12,"N_COORD97":2542277.5099999998,"ADDRESS":"太乙一街６２號","OBJECTID":537456},"geometry":{"x":173533.12000000011,"y":2542277.5099999998}},{"attributes":{"ID":537484,"DIS_CODE":0,"TOWNNAME":"仁德區","LI":"一甲里","LIN":"19鄰","STREET":"太乙二街","SECT":" ","MAREA":" ","LANE":" ","ALLEY":" ","HOUSE_NO":"５０號","E_COORD97":173426.54000000001,"N_COORD97":2542209,"ADDRESS":"太乙二街５０號","OBJECTID":537457},"geometry":{"x":173426.54000000097,"y":2542209}},{"attributes":{"ID":537485,"DIS_CODE":0,"TOWNNAME":"仁德區","LI":"一甲里","LIN":"19鄰","STREET":"太乙二街","SECT":" ","MAREA":" ","LANE":" ","ALLEY":" ","HOUSE_NO":"３３號","E_COORD97":173406.95999999999,"N_COORD97":2542193.2599999998,"ADDRESS":"太乙二街３３號","OBJECTID":537458},"geometry":{"x":173406.95999999996,"y":2542193.2599999998}},{"attributes":{"ID":537486,"DIS_CODE":0,"TOWNNAME":"仁德區","LI":"一甲里","LIN":"19鄰","STREET":"太乙二街","SECT":" ","MAREA":" ","LANE":" ","ALLEY":" ","HOUSE_NO":"４１號","E_COORD97":173353.42000000001,"N_COORD97":2542192.0099999998,"ADDRESS":"太乙二街４１號","OBJECTID":537459},"geometry":{"x":173353.41999999993,"y":2542192.0099999998}},{"attributes":{"ID":537487,"DIS_CODE":0,"TOWNNAME":"仁德區","LI":"上崙里","LIN":"19鄰","STREET":"德崙路","SECT":" ","MAREA":" ","LANE":" ","ALLEY":" ","HOUSE_NO":"３０６號","E_COORD97":173857.70999999999,"N_COORD97":2538121.52,"ADDRESS":"德崙路３０６號","OBJECTID":537460},"geometry":{"x":173857.70999999996,"y":2538121.5200000014}},{"attributes":{"ID":537488,"DIS_CODE":0,"TOWNNAME":"仁德區","LI":"一甲里","LIN":"19鄰","STREET":"太乙一街","SECT":" ","MAREA":" ","LANE":" ","ALLEY":" ","HOUSE_NO":"３８號","E_COORD97":173596.20999999999,"N_COORD97":2542342.75,"ADDRESS":"太乙一街３８號","OBJECTID":537461},"geometry":{"x":173596.21000000089,"y":2542342.75}},{"attributes":{"ID":537489,"DIS_CODE":0,"TOWNNAME":"仁德區","LI":"上崙里","LIN":"19鄰","STREET":"德崙路","SECT":" ","MAREA":" ","LANE":" ","ALLEY":" ","HOUSE_NO":"３００號","E_COORD97":173837.48000000001,"N_COORD97":2538128.27,"ADDRESS":"德崙路３００號","OBJECTID":537462},"geometry":{"x":173837.48000000138,"y":2538128.2699999996}},{"attributes":{"ID":537490,"DIS_CODE":0,"TOWNNAME":"仁德區","LI":"一甲里","LIN":"19鄰","STREET":"太乙路","SECT":" ","MAREA":" ","LANE":" ","ALLEY":" ","HOUSE_NO":"１３號","E_COORD97":173684.01000000001,"N_COORD97":2542423.25,"ADDRESS":"太乙路１３號","OBJECTID":537463},"geometry":{"x":173684.01000000071,"y":2542423.2500000019}},{"attributes":{"ID":537491,"DIS_CODE":0,"TOWNNAME":"仁德區","LI":"上崙里","LIN":"19鄰","STREET":"上崙一街","SECT":" ","MAREA":" ","LANE":" ","ALLEY":" ","HOUSE_NO":"１２９號","E_COORD97":173878.87,"N_COORD97":2537803.9900000002,"ADDRESS":"上崙一街１２９號","OBJECTID":537464},"geometry":{"x":173878.87000000011,"y":2537803.9900000021}},{"attributes":{"ID":537492,"DIS_CODE":0,"TOWNNAME":"仁德區","LI":"上崙里","LIN":"19鄰","STREET":"德崙路","SECT":" ","MAREA":" ","LANE":" ","ALLEY":" ","HOUSE_NO":"３０６之１號","E_COORD97":173866,"N_COORD97":2538121.2999999998,"ADDRESS":"德崙路３０６之１號","OBJECTID":537465},"geometry":{"x":173866,"y":2538121.3000000026}},{"attributes":{"ID":537493,"DIS_CODE":0,"TOWNNAME":"仁德區","LI":"一甲里","LIN":"19鄰","STREET":"太乙二街","SECT":" ","MAREA":" ","LANE":" ","ALLEY":" ","HOUSE_NO":"３號","E_COORD97":173502.17000000001,"N_COORD97":2542391.5099999998,"ADDRESS":"太乙二街３號","OBJECTID":537466},"geometry":{"x":173502.16999999993,"y":2542391.5099999998}},{"attributes":{"ID":537494,"DIS_CODE":0,"TOWNNAME":"仁德區","LI":"一甲里","LIN":"19鄰","STREET":"太乙路","SECT":" ","MAREA":" ","LANE":" ","ALLEY":" ","HOUSE_NO":"５１號","E_COORD97":173464.98000000001,"N_COORD97":2542482.7599999998,"ADDRESS":"太乙路５１號","OBJECTID":537467},"geometry":{"x":173464.98000000045,"y":2542482.7599999979}},{"attributes":{"ID":537495,"DIS_CODE":0,"TOWNNAME":"仁德區","LI":"一甲里","LIN":"19鄰","STREET":"太乙二街","SECT":" ","MAREA":" ","LANE":" ","ALLEY":" ","HOUSE_NO":"３９號","E_COORD97":173376.42999999999,"N_COORD97":2542194.7599999998,"ADDRESS":"太乙二街３９號","OBJECTID":537468},"geometry":{"x":173376.4299999997,"y":2542194.7600000035}},{"attributes":{"ID":537496,"DIS_CODE":0,"TOWNNAME":"仁德區","LI":"一甲里","LIN":"19鄰","STREET":"太乙三街","SECT":" ","MAREA":" ","LANE":" ","ALLEY":" ","HOUSE_NO":"７號","E_COORD97":173357.01999999999,"N_COORD97":2542423.5,"ADDRESS":"太乙三街７號","OBJECTID":537469},"geometry":{"x":173357.01999999955,"y":2542423.5}},{"attributes":{"ID":537497,"DIS_CODE":0,"TOWNNAME":"仁德區","LI":"一甲里","LIN":"19鄰","STREET":"太乙路","SECT":" ","MAREA":" ","LANE":" ","ALLEY":" ","HOUSE_NO":"５號","E_COORD97":173772.32000000001,"N_COORD97":2542447.75,"ADDRESS":"太乙路５號","OBJECTID":537470},"geometry":{"x":173772.32000000123,"y":2542447.75}},{"attributes":{"ID":537498,"DIS_CODE":0,"TOWNNAME":"仁德區","LI":"一甲里","LIN":"19鄰","STREET":"太乙二街","SECT":" ","MAREA":" ","LANE":" ","ALLEY":" ","HOUSE_NO":"６０號","E_COORD97":173386,"N_COORD97":2542214.25,"ADDRESS":"太乙二街６０號","OBJECTID":537471},"geometry":{"x":173386.00000000093,"y":2542214.25}},{"attributes":{"ID":537499,"DIS_CODE":0,"TOWNNAME":"仁德區","LI":"上崙里","LIN":"19鄰","STREET":"上崙一街","SECT":" ","MAREA":" ","LANE":" ","ALLEY":" ","HOUSE_NO":"２７號","E_COORD97":173837.35000000001,"N_COORD97":2538030,"ADDRESS":"上崙一街２７號","OBJECTID":537472},"geometry":{"x":173837.35000000056,"y":2538030.0000000037}},{"attributes":{"ID":537500,"DIS_CODE":0,"TOWNNAME":"安南區","LI":"理想里","LIN":"19鄰","STREET":"大安街","SECT":" ","MAREA":" ","LANE":" ","ALLEY":" ","HOUSE_NO":"４１７號","E_COORD97":167335.76000000001,"N_COORD97":2548706.3599999999,"ADDRESS":"大安街４１７號","OBJECTID":537473},"geometry":{"x":167335.75999999978,"y":2548706.3599999994}},{"attributes":{"ID":537501,"DIS_CODE":0,"TOWNNAME":"安南區","LI":"理想里","LIN":"19鄰","STREET":"大安街","SECT":" ","MAREA":" ","LANE":" ","ALLEY":" ","HOUSE_NO":"４１９號","E_COORD97":167333.13,"N_COORD97":2548711.9700000002,"ADDRESS":"大安街４１９號","OBJECTID":537474},"geometry":{"x":167333.13000000082,"y":2548711.9700000025}},{"attributes":{"ID":537502,"DIS_CODE":0,"TOWNNAME":"安南區","LI":"理想里","LIN":"19鄰","STREET":"大安街","SECT":" ","MAREA":" ","LANE":" ","ALLEY":" ","HOUSE_NO":"４２１號","E_COORD97":167331.20000000001,"N_COORD97":2548715.2200000002,"ADDRESS":"大安街４２１號","OBJECTID":537475},"geometry":{"x":167331.20000000112,"y":2548715.2200000007}},{"attributes":{"ID":537503,"DIS_CODE":0,"TOWNNAME":"安南區","LI":"理想里","LIN":"19鄰","STREET":"大安街","SECT":" ","MAREA":" ","LANE":" ","ALLEY":" ","HOUSE_NO":"４２３號","E_COORD97":167328.01000000001,"N_COORD97":2548718.7400000002,"ADDRESS":"大安街４２３號","OBJECTID":537476},"geometry":{"x":167328.00999999885,"y":2548718.7400000039}},{"attributes":{"ID":537504,"DIS_CODE":0,"TOWNNAME":"安南區","LI":"理想里","LIN":"19鄰","STREET":"大安街","SECT":" ","MAREA":" ","LANE":" ","ALLEY":" ","HOUSE_NO":"４２５號","E_COORD97":167325.01999999999,"N_COORD97":2548721.4700000002,"ADDRESS":"大安街４２５號","OBJECTID":537477},"geometry":{"x":167325.02000000048,"y":2548721.4700000025}},{"attributes":{"ID":537505,"DIS_CODE":0,"TOWNNAME":"安南區","LI":"理想里","LIN":"19鄰","STREET":"大安街","SECT":" ","MAREA":" ","LANE":" ","ALLEY":" ","HOUSE_NO":"４２７號","E_COORD97":167322.16,"N_COORD97":2548723.79,"ADDRESS":"大安街４２７號","OBJECTID":537478},"geometry":{"x":167322.16000000015,"y":2548723.7900000028}},{"attributes":{"ID":537506,"DIS_CODE":0,"TOWNNAME":"安南區","LI":"理想里","LIN":"19鄰","STREET":"大安街","SECT":" ","MAREA":" ","LANE":" ","ALLEY":" ","HOUSE_NO":"４２９號","E_COORD97":167318.31,"N_COORD97":2548728.1099999999,"ADDRESS":"大安街４２９號","OBJECTID":537479},"geometry":{"x":167318.30999999959,"y":2548728.1099999994}},{"attributes":{"ID":537507,"DIS_CODE":0,"TOWNNAME":"安南區","LI":"理想里","LIN":"19鄰","STREET":"大安街","SECT":" ","MAREA":" ","LANE":" ","ALLEY":" ","HOUSE_NO":"４３１號","E_COORD97":167316.04000000001,"N_COORD97":2548732.3900000001,"ADDRESS":"大安街４３１號","OBJECTID":537480},"geometry":{"x":167316.04000000004,"y":2548732.3900000025}},{"attributes":{"ID":537508,"DIS_CODE":0,"TOWNNAME":"安南區","LI":"理想里","LIN":"19鄰","STREET":"大安街","SECT":" ","MAREA":" ","LANE":" ","ALLEY":" ","HOUSE_NO":"４３３號","E_COORD97":167313.38,"N_COORD97":2548735.6400000001,"ADDRESS":"大安街４３３號","OBJECTID":537481},"geometry":{"x":167313.37999999989,"y":2548735.6400000006}},{"attributes":{"ID":537509,"DIS_CODE":0,"TOWNNAME":"安南區","LI":"理想里","LIN":"19鄰","STREET":"大安街","SECT":" ","MAREA":" ","LANE":" ","ALLEY":" ","HOUSE_NO":"４３５號","E_COORD97":167308.73000000001,"N_COORD97":2548738.6299999999,"ADDRESS":"大安街４３５號","OBJECTID":537482},"geometry":{"x":167308.73000000231,"y":2548738.6300000008}},{"attributes":{"ID":537510,"DIS_CODE":0,"TOWNNAME":"安南區","LI":"理想里","LIN":"19鄰","STREET":"大安街","SECT":" ","MAREA":" ","LANE":" ","ALLEY":" ","HOUSE_NO":"４３７號","E_COORD97":167303,"N_COORD97":2548742.8199999998,"ADDRESS":"大安街４３７號","OBJECTID":537483},"geometry":{"x":167303.00000000186,"y":2548742.8200000022}},{"attributes":{"ID":537511,"DIS_CODE":0,"TOWNNAME":"安南區","LI":"理想里","LIN":"19鄰","STREET":"大安街","SECT":" ","MAREA":" ","LANE":" ","ALLEY":" ","HOUSE_NO":"４３９號","E_COORD97":167298.20999999999,"N_COORD97":2548743.8799999999,"ADDRESS":"大安街４３９號","OBJECTID":537484},"geometry":{"x":167298.21000000183,"y":2548743.8800000008}},{"attributes":{"ID":537512,"DIS_CODE":0,"TOWNNAME":"安南區","LI":"理想里","LIN":"19鄰","STREET":"大安街","SECT":" ","MAREA":" ","LANE":" ","ALLEY":" ","HOUSE_NO":"４４１號","E_COORD97":167294.62,"N_COORD97":2548746.1400000001,"ADDRESS":"大安街４４１號","OBJECTID":537485},"geometry":{"x":167294.62000000104,"y":2548746.1400000006}},{"attributes":{"ID":537513,"DIS_CODE":0,"TOWNNAME":"安南區","LI":"理想里","LIN":"19鄰","STREET":"大安街","SECT":" ","MAREA":" ","LANE":" ","ALLEY":" ","HOUSE_NO":"４４３號","E_COORD97":167291.29999999999,"N_COORD97":2548748.73,"ADDRESS":"大安街４４３號","OBJECTID":537486},"geometry":{"x":167291.30000000075,"y":2548748.7300000004}},{"attributes":{"ID":537514,"DIS_CODE":0,"TOWNNAME":"安南區","LI":"理想里","LIN":"19鄰","STREET":"大安街","SECT":" ","MAREA":" ","LANE":" ","ALLEY":" ","HOUSE_NO":"４４５號","E_COORD97":167287.44,"N_COORD97":2548750.98,"ADDRESS":"大安街４４５號","OBJECTID":537487},"geometry":{"x":167287.44000000134,"y":2548750.9800000042}},{"attributes":{"ID":537515,"DIS_CODE":0,"TOWNNAME":"安南區","LI":"理想里","LIN":"19鄰","STREET":"大安街","SECT":" ","MAREA":" ","LANE":" ","ALLEY":" ","HOUSE_NO":"４４７號","E_COORD97":167283.25,"N_COORD97":2548752.9100000001,"ADDRESS":"大安街４４７號","OBJECTID":537488},"geometry":{"x":167283.25000000093,"y":2548752.9100000001}},{"attributes":{"ID":537516,"DIS_CODE":0,"TOWNNAME":"安南區","LI":"理想里","LIN":"19鄰","STREET":"大安街","SECT":" ","MAREA":" ","LANE":" ","ALLEY":" ","HOUSE_NO":"４４９號","E_COORD97":167280.12,"N_COORD97":2548756.7200000002,"ADDRESS":"大安街４４９號","OBJECTID":537489},"geometry":{"x":167280.11999999918,"y":2548756.7200000025}},{"attributes":{"ID":537517,"DIS_CODE":0,"TOWNNAME":"安南區","LI":"理想里","LIN":"19鄰","STREET":"大安街","SECT":" ","MAREA":" ","LANE":" ","ALLEY":" ","HOUSE_NO":"４５１號","E_COORD97":167276.32999999999,"N_COORD97":2548758.5800000001,"ADDRESS":"大安街４５１號","OBJECTID":537490},"geometry":{"x":167276.33000000007,"y":2548758.5800000001}},{"attributes":{"ID":537518,"DIS_CODE":0,"TOWNNAME":"安南區","LI":"理想里","LIN":"19鄰","STREET":"大安街","SECT":" ","MAREA":" ","LANE":" ","ALLEY":" ","HOUSE_NO":"４５３號","E_COORD97":167272.67999999999,"N_COORD97":2548761.5699999998,"ADDRESS":"大安街４５３號","OBJECTID":537491},"geometry":{"x":167272.68000000156,"y":2548761.5700000022}},{"attributes":{"ID":537519,"DIS_CODE":0,"TOWNNAME":"安南區","LI":"理想里","LIN":"19鄰","STREET":"大安街","SECT":" ","MAREA":" ","LANE":" ","ALLEY":" ","HOUSE_NO":"４５５號","E_COORD97":167268.62,"N_COORD97":2548763.5600000001,"ADDRESS":"大安街４５５號","OBJECTID":537492},"geometry":{"x":167268.62000000104,"y":2548763.5600000005}},{"attributes":{"ID":537520,"DIS_CODE":0,"TOWNNAME":"安南區","LI":"理想里","LIN":"19鄰","STREET":"大安街","SECT":" ","MAREA":" ","LANE":" ","ALLEY":" ","HOUSE_NO":"４５７號","E_COORD97":167264.95999999999,"N_COORD97":2548766.4199999999,"ADDRESS":"大安街４５７號","OBJECTID":537493},"geometry":{"x":167264.96000000089,"y":2548766.4199999999}},{"attributes":{"ID":537521,"DIS_CODE":0,"TOWNNAME":"安南區","LI":"溪心里","LIN":"19鄰","STREET":"功安一街","SECT":" ","MAREA":" ","LANE":" ","ALLEY":" ","HOUSE_NO":"７１號","E_COORD97":166038.81,"N_COORD97":2549922.6099999999,"ADDRESS":"功安一街７１號","OBJECTID":537494},"geometry":{"x":166038.80999999959,"y":2549922.6100000013}},{"attributes":{"ID":537522,"DIS_CODE":0,"TOWNNAME":"安南區","LI":"溪心里","LIN":"19鄰","STREET":"功安一街","SECT":" ","MAREA":" ","LANE":" ","ALLEY":" ","HOUSE_NO":"７７號","E_COORD97":166031.63,"N_COORD97":2549932.5,"ADDRESS":"功安一街７７號","OBJECTID":537495},"geometry":{"x":166031.62999999989,"y":2549932.5}},{"attributes":{"ID":537523,"DIS_CODE":0,"TOWNNAME":"安南區","LI":"溪心里","LIN":"19鄰","STREET":"功安一街","SECT":" ","MAREA":" ","LANE":" ","ALLEY":" ","HOUSE_NO":"７９號","E_COORD97":166028.75,"N_COORD97":2549935.3799999999,"ADDRESS":"功安一街７９號","OBJECTID":537496},"geometry":{"x":166028.75000000093,"y":2549935.379999999}},{"attributes":{"ID":537524,"DIS_CODE":0,"TOWNNAME":"安南區","LI":"溪心里","LIN":"19鄰","STREET":"功安一街","SECT":" ","MAREA":" ","LANE":" ","ALLEY":" ","HOUSE_NO":"８１號","E_COORD97":166026.17000000001,"N_COORD97":2549938.1499999999,"ADDRESS":"功安一街８１號","OBJECTID":537497},"geometry":{"x":166026.16999999993,"y":2549938.1500000004}},{"attributes":{"ID":537525,"DIS_CODE":0,"TOWNNAME":"安南區","LI":"溪心里","LIN":"19鄰","STREET":"功安一街","SECT":" ","MAREA":" ","LANE":" ","ALLEY":" ","HOUSE_NO":"８５號","E_COORD97":166021.42999999999,"N_COORD97":2549944.8900000001,"ADDRESS":"功安一街８５號","OBJECTID":537498},"geometry":{"x":166021.4299999997,"y":2549944.8900000006}},{"attributes":{"ID":537526,"DIS_CODE":0,"TOWNNAME":"安南區","LI":"溪心里","LIN":"19鄰","STREET":"功安一街","SECT":" ","MAREA":" ","LANE":" ","ALLEY":" ","HOUSE_NO":"８７號","E_COORD97":166018.57999999999,"N_COORD97":2549947.9500000002,"ADDRESS":"功安一街８７號","OBJECTID":537499},"geometry":{"x":166018.58000000007,"y":2549947.9500000011}},{"attributes":{"ID":537527,"DIS_CODE":0,"TOWNNAME":"安南區","LI":"溪心里","LIN":"19鄰","STREET":"功安一街","SECT":" ","MAREA":" ","LANE":" ","ALLEY":" ","HOUSE_NO":"９１號","E_COORD97":166003.60000000001,"N_COORD97":2549963.5,"ADDRESS":"功安一街９１號","OBJECTID":537500},"geometry":{"x":166003.60000000056,"y":2549963.5}},{"attributes":{"ID":537528,"DIS_CODE":0,"TOWNNAME":"安南區","LI":"溪心里","LIN":"19鄰","STREET":"安中路","SECT":"三段","MAREA":" ","LANE":" ","ALLEY":" ","HOUSE_NO":"１４２號","E_COORD97":165991.60999999999,"N_COORD97":2549842.0499999998,"ADDRESS":"安中路三段１４２號","OBJECTID":537501},"geometry":{"x":165991.61000000034,"y":2549842.0500000007}},{"attributes":{"ID":537529,"DIS_CODE":0,"TOWNNAME":"安南區","LI":"溪心里","LIN":"19鄰","STREET":"安中路","SECT":"三段","MAREA":" ","LANE":" ","ALLEY":" ","HOUSE_NO":"１４６號","E_COORD97":165987.70999999999,"N_COORD97":2549846.3199999998,"ADDRESS":"安中路三段１４６號","OBJECTID":537502},"geometry":{"x":165987.71000000183,"y":2549846.3200000003}},{"attributes":{"ID":537530,"DIS_CODE":0,"TOWNNAME":"安南區","LI":"溪心里","LIN":"19鄰","STREET":"安中路","SECT":"三段","MAREA":" ","LANE":" ","ALLEY":" ","HOUSE_NO":"１４８號","E_COORD97":165982.44,"N_COORD97":2549844.8100000001,"ADDRESS":"安中路三段１４８號","OBJECTID":537503},"geometry":{"x":165982.44000000041,"y":2549844.8100000024}},{"attributes":{"ID":537531,"DIS_CODE":0,"TOWNNAME":"安南區","LI":"溪心里","LIN":"19鄰","STREET":"安中路","SECT":"三段","MAREA":" ","LANE":" ","ALLEY":" ","HOUSE_NO":"１５０號","E_COORD97":165977.67000000001,"N_COORD97":2549846.4399999999,"ADDRESS":"安中路三段１５０號","OBJECTID":537504},"geometry":{"x":165977.66999999993,"y":2549846.4400000013}},{"attributes":{"ID":537532,"DIS_CODE":0,"TOWNNAME":"安南區","LI":"溪心里","LIN":"19鄰","STREET":"安中路","SECT":"三段","MAREA":" ","LANE":" ","ALLEY":" ","HOUSE_NO":"１５２號","E_COORD97":165973.53,"N_COORD97":2549848.9500000002,"ADDRESS":"安中路三段１５２號","OBJECTID":537505},"geometry":{"x":165973.53000000026,"y":2549848.9500000011}},{"attributes":{"ID":537533,"DIS_CODE":0,"TOWNNAME":"安南區","LI":"溪心里","LIN":"19鄰","STREET":"安中路","SECT":"三段","MAREA":" ","LANE":" ","ALLEY":" ","HOUSE_NO":"２１０號","E_COORD97":165939.67000000001,"N_COORD97":2549855.96,"ADDRESS":"安中路三段２１０號","OBJECTID":537506},"geometry":{"x":165939.67000000086,"y":2549855.9600000009}},{"attributes":{"ID":537534,"DIS_CODE":0,"TOWNNAME":"安南區","LI":"溪心里","LIN":"19鄰","STREET":"安中路","SECT":"三段","MAREA":" ","LANE":" ","ALLEY":" ","HOUSE_NO":"２１２號之１","E_COORD97":165930.25,"N_COORD97":2549858.3399999999,"ADDRESS":"安中路三段２１２號之１","OBJECTID":537507},"geometry":{"x":165930.25000000093,"y":2549858.3399999999}},{"attributes":{"ID":537535,"DIS_CODE":0,"TOWNNAME":"安南區","LI":"溪心里","LIN":"19鄰","STREET":"安中路","SECT":"三段","MAREA":" ","LANE":" ","ALLEY":" ","HOUSE_NO":"２２２號","E_COORD97":165913.67999999999,"N_COORD97":2549863.7400000002,"ADDRESS":"安中路三段２２２號","OBJECTID":537508},"geometry":{"x":165913.68000000063,"y":2549863.7400000002}},{"attributes":{"ID":537536,"DIS_CODE":0,"TOWNNAME":"安南區","LI":"溪心里","LIN":"19鄰","STREET":"安中路","SECT":"三段","MAREA":" ","LANE":" ","ALLEY":" ","HOUSE_NO":"２２４號","E_COORD97":165907.64999999999,"N_COORD97":2549862.8599999999,"ADDRESS":"安中路三段２２４號","OBJECTID":537509},"geometry":{"x":165907.6500000013,"y":2549862.8600000031}},{"attributes":{"ID":537537,"DIS_CODE":0,"TOWNNAME":"安南區","LI":"溪心里","LIN":"19鄰","STREET":"安中路","SECT":"三段","MAREA":" ","LANE":" ","ALLEY":" ","HOUSE_NO":"２２６號","E_COORD97":165904.89000000001,"N_COORD97":2549866.6200000001,"ADDRESS":"安中路三段２２６號","OBJECTID":537510},"geometry":{"x":165904.89000000153,"y":2549866.6200000029}},{"attributes":{"ID":537538,"DIS_CODE":0,"TOWNNAME":"安南區","LI":"溪心里","LIN":"19鄰","STREET":"安中路","SECT":"三段","MAREA":" ","LANE":" ","ALLEY":" ","HOUSE_NO":"２２８號","E_COORD97":165899.48999999999,"N_COORD97":2549865.75,"ADDRESS":"安中路三段２２８號","OBJECTID":537511},"geometry":{"x":165899.49000000022,"y":2549865.7500000019}},{"attributes":{"ID":537539,"DIS_CODE":0,"TOWNNAME":"安南區","LI":"溪心里","LIN":"19鄰","STREET":"安中路","SECT":"三段","MAREA":" ","LANE":" ","ALLEY":" ","HOUSE_NO":"２３０號","E_COORD97":165895.72,"N_COORD97":2549869.3799999999,"ADDRESS":"安中路三段２３０號","OBJECTID":537512},"geometry":{"x":165895.71999999974,"y":2549869.3800000008}},{"attributes":{"ID":537540,"DIS_CODE":0,"TOWNNAME":"安南區","LI":"溪心里","LIN":"19鄰","STREET":"安中路","SECT":"三段","MAREA":" ","LANE":" ","ALLEY":" ","HOUSE_NO":"２３２號","E_COORD97":165891.07999999999,"N_COORD97":2549868.1499999999,"ADDRESS":"安中路三段２３２號","OBJECTID":537513},"geometry":{"x":165891.08000000101,"y":2549868.1500000004}},{"attributes":{"ID":537541,"DIS_CODE":0,"TOWNNAME":"安南區","LI":"溪心里","LIN":"19鄰","STREET":"安中路","SECT":"三段","MAREA":" ","LANE":" ","ALLEY":" ","HOUSE_NO":"２３４號","E_COORD97":165887.69,"N_COORD97":2549871.9100000001,"ADDRESS":"安中路三段２３４號","OBJECTID":537514},"geometry":{"x":165887.69000000041,"y":2549871.9100000001}},{"attributes":{"ID":537542,"DIS_CODE":0,"TOWNNAME":"安南區","LI":"溪心里","LIN":"19鄰","STREET":"安中路","SECT":"三段","MAREA":" ","LANE":" ","ALLEY":" ","HOUSE_NO":"２３６號","E_COORD97":165882.66,"N_COORD97":2549870.4100000001,"ADDRESS":"安中路三段２３６號","OBJECTID":537515},"geometry":{"x":165882.66000000015,"y":2549870.410000002}},{"attributes":{"ID":537543,"DIS_CODE":0,"TOWNNAME":"安南區","LI":"溪心里","LIN":"19鄰","STREET":"安中路","SECT":"三段","MAREA":" ","LANE":" ","ALLEY":" ","HOUSE_NO":"２３８號","E_COORD97":165879.14999999999,"N_COORD97":2549873.54,"ADDRESS":"安中路三段２３８號","OBJECTID":537516},"geometry":{"x":165879.1500000013,"y":2549873.5399999991}},{"attributes":{"ID":537544,"DIS_CODE":0,"TOWNNAME":"安南區","LI":"溪心里","LIN":"19鄰","STREET":"安中路","SECT":"三段","MAREA":" ","LANE":" ","ALLEY":" ","HOUSE_NO":"２４０號","E_COORD97":165874.25,"N_COORD97":2549871.6600000001,"ADDRESS":"安中路三段２４０號","OBJECTID":537517},"geometry":{"x":165874.25000000093,"y":2549871.6600000039}},{"attributes":{"ID":537545,"DIS_CODE":0,"TOWNNAME":"安南區","LI":"溪心里","LIN":"19鄰","STREET":"安中路","SECT":"三段","MAREA":" ","LANE":" ","ALLEY":" ","HOUSE_NO":"２４２號","E_COORD97":165869.35999999999,"N_COORD97":2549872.4100000001,"ADDRESS":"安中路三段２４２號","OBJECTID":537518},"geometry":{"x":165869.36000000034,"y":2549872.4100000001}},{"attributes":{"ID":537546,"DIS_CODE":0,"TOWNNAME":"安南區","LI":"溪心里","LIN":"19鄰","STREET":"安中路","SECT":"三段","MAREA":" ","LANE":" ","ALLEY":" ","HOUSE_NO":"２４２號之１","E_COORD97":165865.45999999999,"N_COORD97":2549874.1600000001,"ADDRESS":"安中路三段２４２號之１","OBJECTID":537519},"geometry":{"x":165865.45999999996,"y":2549874.1600000001}},{"attributes":{"ID":537547,"DIS_CODE":0,"TOWNNAME":"安南區","LI":"溪心里","LIN":"19鄰","STREET":"安中路","SECT":"三段","MAREA":" ","LANE":" ","ALLEY":" ","HOUSE_NO":"２４６號","E_COORD97":165861.07000000001,"N_COORD97":2549876.2999999998,"ADDRESS":"安中路三段２４６號","OBJECTID":537520},"geometry":{"x":165861.0700000003,"y":2549876.3000000026}},{"attributes":{"ID":537548,"DIS_CODE":0,"TOWNNAME":"安南區","LI":"溪心里","LIN":"19鄰","STREET":"安中路","SECT":"三段","MAREA":" ","LANE":" ","ALLEY":" ","HOUSE_NO":"２４８號","E_COORD97":165854.67000000001,"N_COORD97":2549874.7999999998,"ADDRESS":"安中路三段２４８號","OBJECTID":537521},"geometry":{"x":165854.67000000086,"y":2549874.8000000045}},{"attributes":{"ID":537549,"DIS_CODE":0,"TOWNNAME":"安南區","LI":"溪心里","LIN":"19鄰","STREET":"海中街","SECT":" ","MAREA":" ","LANE":" ","ALLEY":" ","HOUSE_NO":"７６２號","E_COORD97":165879.39999999999,"N_COORD97":2549891.48,"ADDRESS":"海中街７６２號","OBJECTID":537522},"geometry":{"x":165879.40000000037,"y":2549891.4800000023}},{"attributes":{"ID":537550,"DIS_CODE":0,"TOWNNAME":"安南區","LI":"溪心里","LIN":"19鄰","STREET":"海中街","SECT":" ","MAREA":" ","LANE":" ","ALLEY":" ","HOUSE_NO":"７６４號","E_COORD97":165882.54000000001,"N_COORD97":2549894.4900000002,"ADDRESS":"海中街７６４號","OBJECTID":537523},"geometry":{"x":165882.54000000097,"y":2549894.4900000021}},{"attributes":{"ID":537551,"DIS_CODE":0,"TOWNNAME":"安南區","LI":"溪心里","LIN":"19鄰","STREET":"海中街","SECT":" ","MAREA":" ","LANE":" ","ALLEY":" ","HOUSE_NO":"７６６號","E_COORD97":165885.67999999999,"N_COORD97":2549897.1299999999,"ADDRESS":"海中街７６６號","OBJECTID":537524},"geometry":{"x":165885.6799999997,"y":2549897.129999999}},{"attributes":{"ID":537552,"DIS_CODE":0,"TOWNNAME":"安南區","LI":"溪心里","LIN":"19鄰","STREET":"海中街","SECT":" ","MAREA":" ","LANE":" ","ALLEY":" ","HOUSE_NO":"７６８號","E_COORD97":165888.82000000001,"N_COORD97":2549899.6299999999,"ADDRESS":"海中街７６８號","OBJECTID":537525},"geometry":{"x":165888.8200000003,"y":2549899.629999999}},{"attributes":{"ID":537553,"DIS_CODE":0,"TOWNNAME":"安南區","LI":"溪心里","LIN":"19鄰","STREET":"海中街","SECT":" ","MAREA":" ","LANE":" ","ALLEY":" ","HOUSE_NO":"７７０號","E_COORD97":165890.57000000001,"N_COORD97":2549902.1400000001,"ADDRESS":"海中街７７０號","OBJECTID":537526},"geometry":{"x":165890.5700000003,"y":2549902.1400000006}},{"attributes":{"ID":537554,"DIS_CODE":0,"TOWNNAME":"安南區","LI":"溪心里","LIN":"19鄰","STREET":"海中街","SECT":" ","MAREA":" ","LANE":" ","ALLEY":" ","HOUSE_NO":"７７２號","E_COORD97":165892.82999999999,"N_COORD97":2549904.6499999999,"ADDRESS":"海中街７７２號","OBJECTID":537527},"geometry":{"x":165892.83000000101,"y":2549904.6500000004}},{"attributes":{"ID":537555,"DIS_CODE":0,"TOWNNAME":"安南區","LI":"溪心里","LIN":"19鄰","STREET":"海中街","SECT":" ","MAREA":" ","LANE":" ","ALLEY":" ","HOUSE_NO":"７９４號","E_COORD97":165944.82999999999,"N_COORD97":2549952.3300000001,"ADDRESS":"海中街７９４號","OBJECTID":537528},"geometry":{"x":165944.83000000101,"y":2549952.3300000019}},{"attributes":{"ID":537556,"DIS_CODE":0,"TOWNNAME":"安南區","LI":"溪心里","LIN":"19鄰","STREET":"海中街","SECT":" ","MAREA":" ","LANE":" ","ALLEY":" ","HOUSE_NO":"７９６號","E_COORD97":165944.73000000001,"N_COORD97":2549956.75,"ADDRESS":"海中街７９６號","OBJECTID":537529},"geometry":{"x":165944.73000000138,"y":2549956.7500000019}},{"attributes":{"ID":537557,"DIS_CODE":0,"TOWNNAME":"新化區","LI":"東榮里","LIN":"19鄰","STREET":"民生路","SECT":" ","MAREA":" ","LANE":" ","ALLEY":" ","HOUSE_NO":"３０號","E_COORD97":179462.76000000001,"N_COORD97":2548129.25,"ADDRESS":"民生路３０號","OBJECTID":537530},"geometry":{"x":179462.76000000071,"y":2548129.2500000019}},{"attributes":{"ID":537558,"DIS_CODE":0,"TOWNNAME":"官田區","LI":"隆田里","LIN":"19鄰","STREET":"中華路","SECT":"一段","MAREA":" ","LANE":" ","ALLEY":" ","HOUSE_NO":"１４６號","E_COORD97":180491.28,"N_COORD97":2566083.5600000001,"ADDRESS":"中華路一段１４６號","OBJECTID":537531},"geometry":{"x":180491.28000000026,"y":2566083.5600000024}},{"attributes":{"ID":537559,"DIS_CODE":0,"TOWNNAME":"官田區","LI":"隆田里","LIN":"19鄰","STREET":"中華路","SECT":"一段","MAREA":" ","LANE":" ","ALLEY":" ","HOUSE_NO":"１４８號","E_COORD97":180485.56,"N_COORD97":2566087.0699999998,"ADDRESS":"中華路一段１４８號","OBJECTID":537532},"geometry":{"x":180485.55999999866,"y":2566087.0700000003}},{"attributes":{"ID":537560,"DIS_CODE":0,"TOWNNAME":"官田區","LI":"隆田里","LIN":"19鄰","STREET":"中華路","SECT":"一段","MAREA":" ","LANE":" ","ALLEY":" ","HOUSE_NO":"１５０號","E_COORD97":180480.56,"N_COORD97":2566089.4399999999,"ADDRESS":"中華路一段１５０號","OBJECTID":537533},"geometry":{"x":180480.56000000145,"y":2566089.4400000013}},{"attributes":{"ID":537561,"DIS_CODE":0,"TOWNNAME":"官田區","LI":"隆田里","LIN":"19鄰","STREET":"中華路","SECT":"一段","MAREA":" ","LANE":" ","ALLEY":" ","HOUSE_NO":"１５２號","E_COORD97":180474.37,"N_COORD97":2566092.23,"ADDRESS":"中華路一段１５２號","OBJECTID":537534},"geometry":{"x":180474.37000000104,"y":2566092.2300000023}},{"attributes":{"ID":537562,"DIS_CODE":0,"TOWNNAME":"官田區","LI":"隆田里","LIN":"19鄰","STREET":"中華路","SECT":"一段","MAREA":" ","LANE":" ","ALLEY":" ","HOUSE_NO":"１５８號","E_COORD97":180454.87,"N_COORD97":2566101.1800000002,"ADDRESS":"中華路一段１５８號","OBJECTID":537535},"geometry":{"x":180454.87000000011,"y":2566101.1800000016}},{"attributes":{"ID":537563,"DIS_CODE":0,"TOWNNAME":"官田區","LI":"隆田里","LIN":"19鄰","STREET":"中華路","SECT":"一段","MAREA":" ","LANE":" ","ALLEY":" ","HOUSE_NO":"４６號","E_COORD97":180869.76000000001,"N_COORD97":2565694.5299999998,"ADDRESS":"中華路一段４６號","OBJECTID":537536},"geometry":{"x":180869.76000000071,"y":2565694.5300000031}},{"attributes":{"ID":537564,"DIS_CODE":0,"TOWNNAME":"官田區","LI":"隆田里","LIN":"19鄰","STREET":"中華路","SECT":"一段","MAREA":" ","LANE":" ","ALLEY":" ","HOUSE_NO":"４號","E_COORD97":180967.16,"N_COORD97":2565582.5600000001,"ADDRESS":"中華路一段４號","OBJECTID":537537},"geometry":{"x":180967.16000000108,"y":2565582.5600000005}},{"attributes":{"ID":537565,"DIS_CODE":0,"TOWNNAME":"官田區","LI":"隆田里","LIN":"19鄰","STREET":"中華路","SECT":"一段","MAREA":" ","LANE":" ","ALLEY":" ","HOUSE_NO":"６８號","E_COORD97":180773.66,"N_COORD97":2565851.7400000002,"ADDRESS":"中華路一段６８號","OBJECTID":537538},"geometry":{"x":180773.65999999922,"y":2565851.7400000021}},{"attributes":{"ID":537566,"DIS_CODE":0,"TOWNNAME":"官田區","LI":"隆田里","LIN":"19鄰","STREET":"中華路","SECT":"一段","MAREA":" ","LANE":" ","ALLEY":" ","HOUSE_NO":"７６號","E_COORD97":180773.63,"N_COORD97":2565867.79,"ADDRESS":"中華路一段７６號","OBJECTID":537539},"geometry":{"x":180773.63000000175,"y":2565867.7899999991}},{"attributes":{"ID":537567,"DIS_CODE":0,"TOWNNAME":"官田區","LI":"隆田里","LIN":"19鄰","STREET":"中華路","SECT":"一段","MAREA":" ","LANE":" ","ALLEY":" ","HOUSE_NO":"７８號","E_COORD97":180771.29999999999,"N_COORD97":2565871.4900000002,"ADDRESS":"中華路一段７８號","OBJECTID":537540},"geometry":{"x":180771.30000000075,"y":2565871.4900000002}},{"attributes":{"ID":537568,"DIS_CODE":0,"TOWNNAME":"官田區","LI":"隆田里","LIN":"19鄰","STREET":"中華路","SECT":"一段","MAREA":" ","LANE":" ","ALLEY":" ","HOUSE_NO":"８２號","E_COORD97":180762.60000000001,"N_COORD97":2565884.0499999998,"ADDRESS":"中華路一段８２號","OBJECTID":537541},"geometry":{"x":180762.59999999963,"y":2565884.0500000026}},{"attributes":{"ID":537569,"DIS_CODE":0,"TOWNNAME":"官田區","LI":"隆田里","LIN":"19鄰","STREET":"中華路","SECT":"一段","MAREA":" ","LANE":" ","ALLEY":" ","HOUSE_NO":"８６號","E_COORD97":180758.73999999999,"N_COORD97":2565888.4900000002,"ADDRESS":"中華路一段８６號","OBJECTID":537542},"geometry":{"x":180758.74000000115,"y":2565888.4900000002}},{"attributes":{"ID":537570,"DIS_CODE":0,"TOWNNAME":"白河區","LI":"永安里","LIN":"19鄰","STREET":"新生路","SECT":" ","MAREA":" ","LANE":" ","ALLEY":" ","HOUSE_NO":"１０２號","E_COORD97":190193.34,"N_COORD97":2583418.5,"ADDRESS":"新生路１０２號","OBJECTID":537543},"geometry":{"x":190193.33999999985,"y":2583418.5000000019}},{"attributes":{"ID":537571,"DIS_CODE":0,"TOWNNAME":"白河區","LI":"永安里","LIN":"19鄰","STREET":"新生路","SECT":" ","MAREA":" ","LANE":" ","ALLEY":" ","HOUSE_NO":"１０４號","E_COORD97":190195.89000000001,"N_COORD97":2583426.3999999999,"ADDRESS":"新生路１０４號","OBJECTID":537544},"geometry":{"x":190195.8900000006,"y":2583426.4000000022}},{"attributes":{"ID":537572,"DIS_CODE":0,"TOWNNAME":"白河區","LI":"白河里","LIN":"19鄰","STREET":"新起街","SECT":" ","MAREA":" ","LANE":" ","ALLEY":" ","HOUSE_NO":"１００號","E_COORD97":190440.20999999999,"N_COORD97":2583375.8100000001,"ADDRESS":"新起街１００號","OBJECTID":537545},"geometry":{"x":190440.20999999996,"y":2583375.8100000024}},{"attributes":{"ID":537573,"DIS_CODE":0,"TOWNNAME":"白河區","LI":"白河里","LIN":"19鄰","STREET":"新起街","SECT":" ","MAREA":" ","LANE":" ","ALLEY":" ","HOUSE_NO":"１０２號","E_COORD97":190441.14999999999,"N_COORD97":2583379.5600000001,"ADDRESS":"新起街１０２號","OBJECTID":537546},"geometry":{"x":190441.15000000037,"y":2583379.5600000005}},{"attributes":{"ID":537574,"DIS_CODE":0,"TOWNNAME":"白河區","LI":"白河里","LIN":"19鄰","STREET":"新起街","SECT":" ","MAREA":" ","LANE":" ","ALLEY":" ","HOUSE_NO":"１０４號","E_COORD97":190442.26000000001,"N_COORD97":2583383.75,"ADDRESS":"新起街１０４號","OBJECTID":537547},"geometry":{"x":190442.26000000071,"y":2583383.75}},{"attributes":{"ID":537575,"DIS_CODE":0,"TOWNNAME":"白河區","LI":"白河里","LIN":"19鄰","STREET":"新起街","SECT":" ","MAREA":" ","LANE":" ","ALLEY":" ","HOUSE_NO":"１０６號","E_COORD97":190443.59,"N_COORD97":2583387.8100000001,"ADDRESS":"新起街１０６號","OBJECTID":537548},"geometry":{"x":190443.59000000078,"y":2583387.8100000005}},{"attributes":{"ID":537576,"DIS_CODE":0,"TOWNNAME":"白河區","LI":"白河里","LIN":"19鄰","STREET":"新起街","SECT":" ","MAREA":" ","LANE":" ","ALLEY":" ","HOUSE_NO":"１０８號","E_COORD97":190444.57000000001,"N_COORD97":2583391.5800000001,"ADDRESS":"新起街１０８號","OBJECTID":537549},"geometry":{"x":190444.57000000123,"y":2583391.5800000001}},{"attributes":{"ID":537577,"DIS_CODE":0,"TOWNNAME":"白河區","LI":"白河里","LIN":"19鄰","STREET":"新起街","SECT":" ","MAREA":" ","LANE":" ","ALLEY":" ","HOUSE_NO":"１１０號","E_COORD97":190445.39000000001,"N_COORD97":2583394.7599999998,"ADDRESS":"新起街１１０號","OBJECTID":537550},"geometry":{"x":190445.38999999966,"y":2583394.7600000035}},{"attributes":{"ID":537578,"DIS_CODE":0,"TOWNNAME":"白河區","LI":"白河里","LIN":"19鄰","STREET":"新起街","SECT":" ","MAREA":" ","LANE":" ","ALLEY":" ","HOUSE_NO":"１１２號","E_COORD97":190446.54999999999,"N_COORD97":2583398.9100000001,"ADDRESS":"新起街１１２號","OBJECTID":537551},"geometry":{"x":190446.54999999981,"y":2583398.910000002}},{"attributes":{"ID":537579,"DIS_CODE":0,"TOWNNAME":"白河區","LI":"白河里","LIN":"19鄰","STREET":"新起街","SECT":" ","MAREA":" ","LANE":" ","ALLEY":" ","HOUSE_NO":"１１４號","E_COORD97":190447.70000000001,"N_COORD97":2583403.0600000001,"ADDRESS":"新起街１１４號","OBJECTID":537552},"geometry":{"x":190447.70000000019,"y":2583403.0600000005}},{"attributes":{"ID":537580,"DIS_CODE":0,"TOWNNAME":"白河區","LI":"白河里","LIN":"19鄰","STREET":"新起街","SECT":" ","MAREA":" ","LANE":" ","ALLEY":" ","HOUSE_NO":"１１６號","E_COORD97":190448.85999999999,"N_COORD97":2583407.21,"ADDRESS":"新起街１１６號","OBJECTID":537553},"geometry":{"x":190448.86000000127,"y":2583407.2100000028}},{"attributes":{"ID":537581,"DIS_CODE":0,"TOWNNAME":"白河區","LI":"白河里","LIN":"19鄰","STREET":"新起街","SECT":" ","MAREA":" ","LANE":" ","ALLEY":" ","HOUSE_NO":"１１８號","E_COORD97":190450.01000000001,"N_COORD97":2583411.3500000001,"ADDRESS":"新起街１１８號","OBJECTID":537554},"geometry":{"x":190450.00999999978,"y":2583411.3500000015}},{"attributes":{"ID":537582,"DIS_CODE":0,"TOWNNAME":"白河區","LI":"白河里","LIN":"19鄰","STREET":"新起街","SECT":" ","MAREA":" ","LANE":" ","ALLEY":" ","HOUSE_NO":"１２２號","E_COORD97":190450.72,"N_COORD97":2583420.3599999999,"ADDRESS":"新起街１２２號","OBJECTID":537555},"geometry":{"x":190450.7200000016,"y":2583420.3599999994}},{"attributes":{"ID":537583,"DIS_CODE":0,"TOWNNAME":"白河區","LI":"永安里","LIN":"19鄰","STREET":"新興路","SECT":" ","MAREA":" ","LANE":" ","ALLEY":" ","HOUSE_NO":"５５１號","E_COORD97":190274.09,"N_COORD97":2583473.52,"ADDRESS":"新興路５５１號","OBJECTID":537556},"geometry":{"x":190274.09000000078,"y":2583473.5199999996}},{"attributes":{"ID":537584,"DIS_CODE":0,"TOWNNAME":"白河區","LI":"永安里","LIN":"19鄰","STREET":"新興路","SECT":" ","MAREA":" ","LANE":" ","ALLEY":" ","HOUSE_NO":"５５３號","E_COORD97":190270.23000000001,"N_COORD97":2583473.7599999998,"ADDRESS":"新興路５５３號","OBJECTID":537557},"geometry":{"x":190270.23000000138,"y":2583473.7600000016}},{"attributes":{"ID":537585,"DIS_CODE":0,"TOWNNAME":"白河區","LI":"永安里","LIN":"19鄰","STREET":"新興路","SECT":" ","MAREA":" ","LANE":" ","ALLEY":" ","HOUSE_NO":"５５５號","E_COORD97":190266.41,"N_COORD97":2583474.23,"ADDRESS":"新興路５５５號","OBJECTID":537558},"geometry":{"x":190266.41000000015,"y":2583474.2300000023}},{"attributes":{"ID":537586,"DIS_CODE":0,"TOWNNAME":"白河區","LI":"永安里","LIN":"19鄰","STREET":"新興路","SECT":" ","MAREA":" ","LANE":" ","ALLEY":" ","HOUSE_NO":"５５７號","E_COORD97":190262.25,"N_COORD97":2583474.9300000002,"ADDRESS":"新興路５５７號","OBJECTID":537559},"geometry":{"x":190262.25,"y":2583474.9300000034}},{"attributes":{"ID":537587,"DIS_CODE":0,"TOWNNAME":"白河區","LI":"永安里","LIN":"19鄰","STREET":"新興路","SECT":" ","MAREA":" ","LANE":" ","ALLEY":" ","HOUSE_NO":"５５９號","E_COORD97":190258.37,"N_COORD97":2583475.4500000002,"ADDRESS":"新興路５５９號","OBJECTID":537560},"geometry":{"x":190258.37000000011,"y":2583475.4500000011}},{"attributes":{"ID":537588,"DIS_CODE":0,"TOWNNAME":"白河區","LI":"永安里","LIN":"19鄰","STREET":"新興路","SECT":" ","MAREA":" ","LANE":" ","ALLEY":" ","HOUSE_NO":"５６１號","E_COORD97":190254.48999999999,"N_COORD97":2583476.0800000001,"ADDRESS":"新興路５６１號","OBJECTID":537561},"geometry":{"x":190254.49000000209,"y":2583476.0800000001}},{"attributes":{"ID":537589,"DIS_CODE":0,"TOWNNAME":"白河區","LI":"永安里","LIN":"19鄰","STREET":"新興路","SECT":" ","MAREA":" ","LANE":" ","ALLEY":" ","HOUSE_NO":"５６５號","E_COORD97":190245.12,"N_COORD97":2583475.8500000001,"ADDRESS":"新興路５６５號","OBJECTID":537562},"geometry":{"x":190245.12000000104,"y":2583475.8500000015}},{"attributes":{"ID":537590,"DIS_CODE":0,"TOWNNAME":"白河區","LI":"永安里","LIN":"19鄰","STREET":"新興路","SECT":" ","MAREA":" ","LANE":" ","ALLEY":" ","HOUSE_NO":"５６７號","E_COORD97":190240.39999999999,"N_COORD97":2583476.5600000001,"ADDRESS":"新興路５６７號","OBJECTID":537563},"geometry":{"x":190240.4000000013,"y":2583476.5600000005}},{"attributes":{"ID":537591,"DIS_CODE":0,"TOWNNAME":"白河區","LI":"永安里","LIN":"19鄰","STREET":"新興路","SECT":" ","MAREA":" ","LANE":" ","ALLEY":" ","HOUSE_NO":"５６９號","E_COORD97":190235.85999999999,"N_COORD97":2583477.1899999999,"ADDRESS":"新興路５６９號","OBJECTID":537564},"geometry":{"x":190235.86000000127,"y":2583477.1900000013}},{"attributes":{"ID":537592,"DIS_CODE":0,"TOWNNAME":"白河區","LI":"永安里","LIN":"19鄰","STREET":"新興路","SECT":" ","MAREA":" ","LANE":" ","ALLEY":" ","HOUSE_NO":"５７１號","E_COORD97":190231.64999999999,"N_COORD97":2583477.7999999998,"ADDRESS":"新興路５７１號","OBJECTID":537565},"geometry":{"x":190231.6500000013,"y":2583477.8000000026}},{"attributes":{"ID":537593,"DIS_CODE":0,"TOWNNAME":"西港區","LI":"慶安里","LIN":"19鄰","STREET":"進學街","SECT":" ","MAREA":" ","LANE":" ","ALLEY":" ","HOUSE_NO":"４１號","E_COORD97":168300.10000000001,"N_COORD97":2558045.9199999999,"ADDRESS":"進學街４１號","OBJECTID":537566},"geometry":{"x":168300.09999999963,"y":2558045.9199999999}},{"attributes":{"ID":537594,"DIS_CODE":0,"TOWNNAME":"西港區","LI":"慶安里","LIN":"19鄰","STREET":"進學街","SECT":" ","MAREA":" ","LANE":" ","ALLEY":" ","HOUSE_NO":"１５號","E_COORD97":168317.60000000001,"N_COORD97":2558015.77,"ADDRESS":"進學街１５號","OBJECTID":537567},"geometry":{"x":168317.60000000056,"y":2558015.7699999996}},{"attributes":{"ID":537595,"DIS_CODE":0,"TOWNNAME":"西港區","LI":"慶安里","LIN":"19鄰","STREET":"進學街","SECT":" ","MAREA":" ","LANE":" ","ALLEY":" ","HOUSE_NO":"１７號","E_COORD97":168318.17999999999,"N_COORD97":2558011.6299999999,"ADDRESS":"進學街１７號","OBJECTID":537568},"geometry":{"x":168318.1799999997,"y":2558011.6300000008}},{"attributes":{"ID":537596,"DIS_CODE":0,"TOWNNAME":"西港區","LI":"慶安里","LIN":"19鄰","STREET":"進學街","SECT":" ","MAREA":" ","LANE":" ","ALLEY":" ","HOUSE_NO":"１９號","E_COORD97":168336.32000000001,"N_COORD97":2558012.8599999999,"ADDRESS":"進學街１９號","OBJECTID":537569},"geometry":{"x":168336.3200000003,"y":2558012.8599999994}},{"attributes":{"ID":537597,"DIS_CODE":0,"TOWNNAME":"西港區","LI":"慶安里","LIN":"19鄰","STREET":"進學街","SECT":" ","MAREA":" ","LANE":" ","ALLEY":" ","HOUSE_NO":"２３號","E_COORD97":168336.03,"N_COORD97":2558004.3599999999,"ADDRESS":"進學街２３號","OBJECTID":537570},"geometry":{"x":168336.03000000119,"y":2558004.3600000013}},{"attributes":{"ID":537598,"DIS_CODE":0,"TOWNNAME":"西港區","LI":"慶安里","LIN":"19鄰","STREET":"進學街","SECT":" ","MAREA":" ","LANE":" ","ALLEY":" ","HOUSE_NO":"３１號","E_COORD97":168318.39999999999,"N_COORD97":2558047.4500000002,"ADDRESS":"進學街３１號","OBJECTID":537571},"geometry":{"x":168318.4000000013,"y":2558047.4500000011}},{"attributes":{"ID":537599,"DIS_CODE":0,"TOWNNAME":"西港區","LI":"慶安里","LIN":"19鄰","STREET":"進學街","SECT":" ","MAREA":" ","LANE":" ","ALLEY":" ","HOUSE_NO":"３３號","E_COORD97":168314.85999999999,"N_COORD97":2558046.9900000002,"ADDRESS":"進學街３３號","OBJECTID":537572},"geometry":{"x":168314.86000000127,"y":2558046.9899999984}},{"attributes":{"ID":537600,"DIS_CODE":0,"TOWNNAME":"西港區","LI":"慶安里","LIN":"19鄰","STREET":"進學街","SECT":" ","MAREA":" ","LANE":" ","ALLEY":" ","HOUSE_NO":"３５號","E_COORD97":168311.44,"N_COORD97":2558046.6000000001,"ADDRESS":"進學街３５號","OBJECTID":537573},"geometry":{"x":168311.44000000134,"y":2558046.6000000015}},{"attributes":{"ID":537601,"DIS_CODE":0,"TOWNNAME":"西港區","LI":"慶安里","LIN":"19鄰","STREET":"進學街","SECT":" ","MAREA":" ","LANE":" ","ALLEY":" ","HOUSE_NO":"３７號","E_COORD97":168307.75,"N_COORD97":2558046.0600000001,"ADDRESS":"進學街３７號","OBJECTID":537574},"geometry":{"x":168307.75,"y":2558046.0600000005}},{"attributes":{"ID":537602,"DIS_CODE":0,"TOWNNAME":"西港區","LI":"慶安里","LIN":"19鄰","STREET":"進學街","SECT":" ","MAREA":" ","LANE":" ","ALLEY":" ","HOUSE_NO":"３９號","E_COORD97":168303.64999999999,"N_COORD97":2558045.7000000002,"ADDRESS":"進學街３９號","OBJECTID":537575},"geometry":{"x":168303.65000000037,"y":2558045.7000000011}},{"attributes":{"ID":537603,"DIS_CODE":0,"TOWNNAME":"西港區","LI":"慶安里","LIN":"19鄰","STREET":"進學街","SECT":" ","MAREA":" ","LANE":" ","ALLEY":" ","HOUSE_NO":"４３號","E_COORD97":168295.88,"N_COORD97":2558045.4399999999,"ADDRESS":"進學街４３號","OBJECTID":537576},"geometry":{"x":168295.88000000082,"y":2558045.4399999995}},{"attributes":{"ID":537604,"DIS_CODE":0,"TOWNNAME":"永康區","LI":"西灣里","LIN":"19鄰","STREET":"大安街","SECT":" ","MAREA":" ","LANE":" ","ALLEY":" ","HOUSE_NO":"３４５號","E_COORD97":174610.53,"N_COORD97":2545758.2000000002,"ADDRESS":"大安街３４５號","OBJECTID":537577},"geometry":{"x":174610.53000000026,"y":2545758.200000003}},{"attributes":{"ID":537605,"DIS_CODE":0,"TOWNNAME":"東區","LI":"裕聖里","LIN":"19鄰","STREET":"裕敬二街","SECT":" ","MAREA":" ","LANE":" ","ALLEY":" ","HOUSE_NO":"１０２號","E_COORD97":172650.81,"N_COORD97":2541999.4700000002,"ADDRESS":"裕敬二街１０２號","OBJECTID":537578},"geometry":{"x":172650.81000000052,"y":2541999.4700000007}},{"attributes":{"ID":537606,"DIS_CODE":0,"TOWNNAME":"東區","LI":"文聖里","LIN":"19鄰","STREET":"裕平路","SECT":" ","MAREA":" ","LANE":" ","ALLEY":" ","HOUSE_NO":"３１０號","E_COORD97":172629.66,"N_COORD97":2542809.5499999998,"ADDRESS":"裕平路３１０號","OBJECTID":537579},"geometry":{"x":172629.66000000015,"y":2542809.5500000007}},{"attributes":{"ID":537607,"DIS_CODE":0,"TOWNNAME":"東區","LI":"文聖里","LIN":"19鄰","STREET":"裕平路","SECT":" ","MAREA":" ","LANE":" ","ALLEY":" ","HOUSE_NO":"３１２號","E_COORD97":172636.03,"N_COORD97":2542809.7000000002,"ADDRESS":"裕平路３１２號","OBJECTID":537580},"geometry":{"x":172636.02999999933,"y":2542809.7000000011}},{"attributes":{"ID":537608,"DIS_CODE":0,"TOWNNAME":"東區","LI":"文聖里","LIN":"19鄰","STREET":"裕信二街","SECT":" ","MAREA":" ","LANE":" ","ALLEY":" ","HOUSE_NO":"１號","E_COORD97":172633.64000000001,"N_COORD97":2542766.8799999999,"ADDRESS":"裕信二街１號","OBJECTID":537581},"geometry":{"x":172633.6400000006,"y":2542766.8800000008}},{"attributes":{"ID":537609,"DIS_CODE":0,"TOWNNAME":"東區","LI":"文聖里","LIN":"19鄰","STREET":"裕信二街","SECT":" ","MAREA":" ","LANE":" ","ALLEY":" ","HOUSE_NO":"２號","E_COORD97":172631.85999999999,"N_COORD97":2542746.3999999999,"ADDRESS":"裕信二街２號","OBJECTID":537582},"geometry":{"x":172631.86000000034,"y":2542746.4000000004}},{"attributes":{"ID":537610,"DIS_CODE":0,"TOWNNAME":"東區","LI":"文聖里","LIN":"19鄰","STREET":"裕信路","SECT":" ","MAREA":" ","LANE":" ","ALLEY":" ","HOUSE_NO":"１７９號","E_COORD97":172617.60999999999,"N_COORD97":2542811.1099999999,"ADDRESS":"裕信路１７９號","OBJECTID":537583},"geometry":{"x":172617.61000000127,"y":2542811.1099999994}},{"attributes":{"ID":537611,"DIS_CODE":0,"TOWNNAME":"東區","LI":"文聖里","LIN":"19鄰","STREET":"裕信路","SECT":" ","MAREA":" ","LANE":" ","ALLEY":" ","HOUSE_NO":"１８１號","E_COORD97":172617.31,"N_COORD97":2542806.6600000001,"ADDRESS":"裕信路１８１號","OBJECTID":537584},"geometry":{"x":172617.31000000052,"y":2542806.660000002}},{"attributes":{"ID":537612,"DIS_CODE":0,"TOWNNAME":"東區","LI":"文聖里","LIN":"19鄰","STREET":"裕信路","SECT":" ","MAREA":" ","LANE":" ","ALLEY":" ","HOUSE_NO":"１８３號","E_COORD97":172617.31,"N_COORD97":2542801.9100000001,"ADDRESS":"裕信路１８３號","OBJECTID":537585},"geometry":{"x":172617.31000000052,"y":2542801.910000002}},{"attributes":{"ID":537613,"DIS_CODE":0,"TOWNNAME":"東區","LI":"文聖里","LIN":"19鄰","STREET":"裕信路","SECT":" ","MAREA":" ","LANE":" ","ALLEY":" ","HOUSE_NO":"１８５號","E_COORD97":172616.42000000001,"N_COORD97":2542796.5699999998,"ADDRESS":"裕信路１８５號","OBJECTID":537586},"geometry":{"x":172616.42000000086,"y":2542796.5699999984}},{"attributes":{"ID":537614,"DIS_CODE":0,"TOWNNAME":"東區","LI":"文聖里","LIN":"19鄰","STREET":"裕信路","SECT":" ","MAREA":" ","LANE":" ","ALLEY":" ","HOUSE_NO":"１８７號","E_COORD97":172616.12,"N_COORD97":2542791.52,"ADDRESS":"裕信路１８７號","OBJECTID":537587},"geometry":{"x":172616.12000000011,"y":2542791.5199999996}},{"attributes":{"ID":537615,"DIS_CODE":0,"TOWNNAME":"東區","LI":"文聖里","LIN":"19鄰","STREET":"裕信路","SECT":" ","MAREA":" ","LANE":" ","ALLEY":" ","HOUSE_NO":"１８９號","E_COORD97":172615.53,"N_COORD97":2542785.8799999999,"ADDRESS":"裕信路１８９號","OBJECTID":537588},"geometry":{"x":172615.53000000026,"y":2542785.879999999}},{"attributes":{"ID":537616,"DIS_CODE":0,"TOWNNAME":"東區","LI":"文聖里","LIN":"19鄰","STREET":"裕信路","SECT":" ","MAREA":" ","LANE":" ","ALLEY":" ","HOUSE_NO":"１９１號","E_COORD97":172615.23000000001,"N_COORD97":2542781.1299999999,"ADDRESS":"裕信路１９１號","OBJECTID":537589},"geometry":{"x":172615.23000000138,"y":2542781.1299999971}},{"attributes":{"ID":537617,"DIS_CODE":0,"TOWNNAME":"東區","LI":"文聖里","LIN":"19鄰","STREET":"裕信路","SECT":" ","MAREA":" ","LANE":" ","ALLEY":" ","HOUSE_NO":"１９３號","E_COORD97":172615.53,"N_COORD97":2542776.6800000002,"ADDRESS":"裕信路１９３號","OBJECTID":537590},"geometry":{"x":172615.53000000026,"y":2542776.6800000016}},{"attributes":{"ID":537618,"DIS_CODE":0,"TOWNNAME":"東區","LI":"文聖里","LIN":"19鄰","STREET":"裕信路","SECT":" ","MAREA":" ","LANE":" ","ALLEY":" ","HOUSE_NO":"１９５號","E_COORD97":172615.53,"N_COORD97":2542771.9300000002,"ADDRESS":"裕信路１９５號","OBJECTID":537591},"geometry":{"x":172615.53000000026,"y":2542771.9299999997}},{"attributes":{"ID":537619,"DIS_CODE":0,"TOWNNAME":"東區","LI":"文聖里","LIN":"19鄰","STREET":"裕信路","SECT":" ","MAREA":" ","LANE":" ","ALLEY":" ","HOUSE_NO":"１９７號","E_COORD97":172615.82999999999,"N_COORD97":2542766.8799999999,"ADDRESS":"裕信路１９７號","OBJECTID":537592},"geometry":{"x":172615.83000000101,"y":2542766.8800000008}},{"attributes":{"ID":537620,"DIS_CODE":0,"TOWNNAME":"東區","LI":"文聖里","LIN":"19鄰","STREET":"裕信路","SECT":" ","MAREA":" ","LANE":" ","ALLEY":" ","HOUSE_NO":"１９９號","E_COORD97":172615.53,"N_COORD97":2542747.5800000001,"ADDRESS":"裕信路１９９號","OBJECTID":537593},"geometry":{"x":172615.53000000026,"y":2542747.5800000001}},{"attributes":{"ID":537621,"DIS_CODE":0,"TOWNNAME":"東區","LI":"文聖里","LIN":"19鄰","STREET":"裕信路","SECT":" ","MAREA":" ","LANE":" ","ALLEY":" ","HOUSE_NO":"２０１號","E_COORD97":172615.53,"N_COORD97":2542742.2400000002,"ADDRESS":"裕信路２０１號","OBJECTID":537594},"geometry":{"x":172615.53000000026,"y":2542742.2400000021}},{"attributes":{"ID":537622,"DIS_CODE":0,"TOWNNAME":"東區","LI":"文聖里","LIN":"19鄰","STREET":"裕信路","SECT":" ","MAREA":" ","LANE":" ","ALLEY":" ","HOUSE_NO":"２０３號","E_COORD97":172615.82999999999,"N_COORD97":2542737.4900000002,"ADDRESS":"裕信路２０３號","OBJECTID":537595},"geometry":{"x":172615.83000000101,"y":2542737.4900000021}},{"attributes":{"ID":537623,"DIS_CODE":0,"TOWNNAME":"東區","LI":"文聖里","LIN":"19鄰","STREET":"裕信路","SECT":" ","MAREA":" ","LANE":" ","ALLEY":" ","HOUSE_NO":"２０５號","E_COORD97":172615.53,"N_COORD97":2542732.1499999999,"ADDRESS":"裕信路２０５號","OBJECTID":537596},"geometry":{"x":172615.53000000026,"y":2542732.1500000041}},{"attributes":{"ID":537624,"DIS_CODE":0,"TOWNNAME":"西港區","LI":"慶安里","LIN":"19鄰","STREET":"慶安路","SECT":" ","MAREA":" ","LANE":" ","ALLEY":" ","HOUSE_NO":"１０號","E_COORD97":168365.32999999999,"N_COORD97":2557936.5499999998,"ADDRESS":"慶安路１０號","OBJECTID":537597},"geometry":{"x":168365.32999999914,"y":2557936.5500000026}},{"attributes":{"ID":537625,"DIS_CODE":0,"TOWNNAME":"西港區","LI":"慶安里","LIN":"19鄰","STREET":"慶安路","SECT":" ","MAREA":" ","LANE":" ","ALLEY":" ","HOUSE_NO":"１４號","E_COORD97":168357.29000000001,"N_COORD97":2557936.02,"ADDRESS":"慶安路１４號","OBJECTID":537598},"geometry":{"x":168357.2900000019,"y":2557936.0200000014}},{"attributes":{"ID":537626,"DIS_CODE":0,"TOWNNAME":"西港區","LI":"慶安里","LIN":"19鄰","STREET":"慶安路","SECT":" ","MAREA":" ","LANE":" ","ALLEY":" ","HOUSE_NO":"１６號","E_COORD97":168353.53,"N_COORD97":2557935.2000000002,"ADDRESS":"慶安路１６號","OBJECTID":537599},"geometry":{"x":168353.53000000026,"y":2557935.1999999993}},{"attributes":{"ID":537627,"DIS_CODE":0,"TOWNNAME":"西港區","LI":"慶安里","LIN":"19鄰","STREET":"慶安路","SECT":" ","MAREA":" ","LANE":" ","ALLEY":" ","HOUSE_NO":"３０號","E_COORD97":168304.01000000001,"N_COORD97":2557958.6600000001,"ADDRESS":"慶安路３０號","OBJECTID":537600},"geometry":{"x":168304.00999999978,"y":2557958.660000002}}]}