{"displayFieldName":"TOWNNAME","fieldAliases":{"ID":"ID","DIS_CODE":"DIS_CODE","TOWNNAME":"TOWNNAME","LI":"LI","LIN":"LIN","STREET":"STREET","SECT":"SECT","MAREA":"MAREA","LANE":"LANE","ALLEY":"ALLEY","HOUSE_NO":"HOUSE_NO","E_COORD97":"E_COORD97","N_COORD97":"N_COORD97","ADDRESS":"ADDRESS","OBJECTID":"OBJECTID"},"geometryType":"esriGeometryPoint","spatialReference":{"wkid":102443,"latestWkid":3826},"fields":[{"name":"ID","type":"esriFieldTypeDouble","alias":"ID"},{"name":"DIS_CODE","type":"esriFieldTypeInteger","alias":"DIS_CODE"},{"name":"TOWNNAME","type":"esriFieldTypeString","alias":"TOWNNAME","length":8},{"name":"LI","type":"esriFieldTypeString","alias":"LI","length":8},{"name":"LIN","type":"esriFieldTypeString","alias":"LIN","length":12},{"name":"STREET","type":"esriFieldTypeString","alias":"STREET","length":20},{"name":"SECT","type":"esriFieldTypeString","alias":"SECT","length":8},{"name":"MAREA","type":"esriFieldTypeString","alias":"MAREA","length":12},{"name":"LANE","type":"esriFieldTypeString","alias":"LANE","length":10},{"name":"ALLEY","type":"esriFieldTypeString","alias":"ALLEY","length":10},{"name":"HOUSE_NO","type":"esriFieldTypeString","alias":"HOUSE_NO","length":20},{"name":"E_COORD97","type":"esriFieldTypeDouble","alias":"E_COORD97"},{"name":"N_COORD97","type":"esriFieldTypeDouble","alias":"N_COORD97"},{"name":"ADDRESS","type":"esriFieldTypeString","alias":"ADDRESS","length":50},{"name":"OBJECTID","type":"esriFieldTypeOID","alias":"OBJECTID"}],"features":[{"attributes":{"ID":547628,"DIS_CODE":0,"TOWNNAME":"東區","LI":"裕農里","LIN":"10鄰","STREET":"東寧路","SECT":" ","MAREA":" ","LANE":" ","ALLEY":" ","HOUSE_NO":"５４０號四樓之１","E_COORD97":171211.16,"N_COORD97":2543245.5299999998,"ADDRESS":"東寧路５４０號四樓之１","OBJECTID":547601},"geometry":{"x":171211.16000000201,"y":2543245.5299999993}},{"attributes":{"ID":547629,"DIS_CODE":0,"TOWNNAME":"東區","LI":"裕農里","LIN":"10鄰","STREET":"東寧路","SECT":" ","MAREA":" ","LANE":" ","ALLEY":" ","HOUSE_NO":"５４０號四樓之２","E_COORD97":171211.16,"N_COORD97":2543245.5299999998,"ADDRESS":"東寧路５４０號四樓之２","OBJECTID":547602},"geometry":{"x":171211.16000000201,"y":2543245.5299999993}},{"attributes":{"ID":547630,"DIS_CODE":0,"TOWNNAME":"東區","LI":"裕農里","LIN":"10鄰","STREET":"東寧路","SECT":" ","MAREA":" ","LANE":" ","ALLEY":" ","HOUSE_NO":"５４０號四樓之３","E_COORD97":171211.16,"N_COORD97":2543245.5299999998,"ADDRESS":"東寧路５４０號四樓之３","OBJECTID":547603},"geometry":{"x":171211.16000000201,"y":2543245.5299999993}},{"attributes":{"ID":547631,"DIS_CODE":0,"TOWNNAME":"東區","LI":"裕農里","LIN":"10鄰","STREET":"東寧路","SECT":" ","MAREA":" ","LANE":" ","ALLEY":" ","HOUSE_NO":"５４０號四樓之６","E_COORD97":171211.16,"N_COORD97":2543245.5299999998,"ADDRESS":"東寧路５４０號四樓之６","OBJECTID":547604},"geometry":{"x":171211.16000000201,"y":2543245.5299999993}},{"attributes":{"ID":547632,"DIS_CODE":0,"TOWNNAME":"東區","LI":"裕農里","LIN":"10鄰","STREET":"東寧路","SECT":" ","MAREA":" ","LANE":" ","ALLEY":" ","HOUSE_NO":"５４０號四樓之５","E_COORD97":171211.16,"N_COORD97":2543245.5299999998,"ADDRESS":"東寧路５４０號四樓之５","OBJECTID":547605},"geometry":{"x":171211.16000000201,"y":2543245.5299999993}},{"attributes":{"ID":547633,"DIS_CODE":0,"TOWNNAME":"東區","LI":"裕農里","LIN":"10鄰","STREET":"東寧路","SECT":" ","MAREA":" ","LANE":" ","ALLEY":" ","HOUSE_NO":"５４０號五樓之１","E_COORD97":171211.16,"N_COORD97":2543245.5299999998,"ADDRESS":"東寧路５４０號五樓之１","OBJECTID":547606},"geometry":{"x":171211.16000000201,"y":2543245.5299999993}},{"attributes":{"ID":547634,"DIS_CODE":0,"TOWNNAME":"善化區","LI":"光文里","LIN":"10鄰","STREET":"中山路","SECT":" ","MAREA":" ","LANE":" ","ALLEY":" ","HOUSE_NO":"９９號二樓","E_COORD97":178610.29999999999,"N_COORD97":2559165.75,"ADDRESS":"中山路９９號二樓","OBJECTID":547607},"geometry":{"x":178610.29999999981,"y":2559165.75}},{"attributes":{"ID":547635,"DIS_CODE":0,"TOWNNAME":"東區","LI":"裕農里","LIN":"10鄰","STREET":"東寧路","SECT":" ","MAREA":" ","LANE":" ","ALLEY":" ","HOUSE_NO":"５４０號五樓之２","E_COORD97":171211.16,"N_COORD97":2543245.5299999998,"ADDRESS":"東寧路５４０號五樓之２","OBJECTID":547608},"geometry":{"x":171211.16000000201,"y":2543245.5299999993}},{"attributes":{"ID":547636,"DIS_CODE":0,"TOWNNAME":"東區","LI":"裕農里","LIN":"10鄰","STREET":"東寧路","SECT":" ","MAREA":" ","LANE":" ","ALLEY":" ","HOUSE_NO":"５４０號五樓之３","E_COORD97":171211.16,"N_COORD97":2543245.5299999998,"ADDRESS":"東寧路５４０號五樓之３","OBJECTID":547609},"geometry":{"x":171211.16000000201,"y":2543245.5299999993}},{"attributes":{"ID":547637,"DIS_CODE":0,"TOWNNAME":"東區","LI":"裕農里","LIN":"10鄰","STREET":"東寧路","SECT":" ","MAREA":" ","LANE":" ","ALLEY":" ","HOUSE_NO":"５４０號五樓之４","E_COORD97":171211.16,"N_COORD97":2543245.5299999998,"ADDRESS":"東寧路５４０號五樓之４","OBJECTID":547610},"geometry":{"x":171211.16000000201,"y":2543245.5299999993}},{"attributes":{"ID":547638,"DIS_CODE":0,"TOWNNAME":"東區","LI":"裕農里","LIN":"10鄰","STREET":"東寧路","SECT":" ","MAREA":" ","LANE":" ","ALLEY":" ","HOUSE_NO":"５４０號五樓之５","E_COORD97":171211.16,"N_COORD97":2543245.5299999998,"ADDRESS":"東寧路５４０號五樓之５","OBJECTID":547611},"geometry":{"x":171211.16000000201,"y":2543245.5299999993}},{"attributes":{"ID":547639,"DIS_CODE":0,"TOWNNAME":"東區","LI":"裕農里","LIN":"10鄰","STREET":"東寧路","SECT":" ","MAREA":" ","LANE":" ","ALLEY":" ","HOUSE_NO":"５４０號六樓之１","E_COORD97":171211.16,"N_COORD97":2543245.5299999998,"ADDRESS":"東寧路５４０號六樓之１","OBJECTID":547612},"geometry":{"x":171211.16000000201,"y":2543245.5299999993}},{"attributes":{"ID":547640,"DIS_CODE":0,"TOWNNAME":"東區","LI":"裕農里","LIN":"10鄰","STREET":"東寧路","SECT":" ","MAREA":" ","LANE":" ","ALLEY":" ","HOUSE_NO":"５４０號六樓之２","E_COORD97":171211.16,"N_COORD97":2543245.5299999998,"ADDRESS":"東寧路５４０號六樓之２","OBJECTID":547613},"geometry":{"x":171211.16000000201,"y":2543245.5299999993}},{"attributes":{"ID":547641,"DIS_CODE":0,"TOWNNAME":"東區","LI":"裕農里","LIN":"10鄰","STREET":"東寧路","SECT":" ","MAREA":" ","LANE":" ","ALLEY":" ","HOUSE_NO":"５４０號六樓之３","E_COORD97":171211.16,"N_COORD97":2543245.5299999998,"ADDRESS":"東寧路５４０號六樓之３","OBJECTID":547614},"geometry":{"x":171211.16000000201,"y":2543245.5299999993}},{"attributes":{"ID":547642,"DIS_CODE":0,"TOWNNAME":"東區","LI":"裕農里","LIN":"10鄰","STREET":"東寧路","SECT":" ","MAREA":" ","LANE":" ","ALLEY":" ","HOUSE_NO":"５４０號六樓之５","E_COORD97":171211.16,"N_COORD97":2543245.5299999998,"ADDRESS":"東寧路５４０號六樓之５","OBJECTID":547615},"geometry":{"x":171211.16000000201,"y":2543245.5299999993}},{"attributes":{"ID":547643,"DIS_CODE":0,"TOWNNAME":"東區","LI":"裕農里","LIN":"10鄰","STREET":"東寧路","SECT":" ","MAREA":" ","LANE":" ","ALLEY":" ","HOUSE_NO":"５４０號七樓之１","E_COORD97":171211.16,"N_COORD97":2543245.5299999998,"ADDRESS":"東寧路５４０號七樓之１","OBJECTID":547616},"geometry":{"x":171211.16000000201,"y":2543245.5299999993}},{"attributes":{"ID":547644,"DIS_CODE":0,"TOWNNAME":"東區","LI":"裕農里","LIN":"10鄰","STREET":"東寧路","SECT":" ","MAREA":" ","LANE":" ","ALLEY":" ","HOUSE_NO":"５４０號七樓之２","E_COORD97":171211.16,"N_COORD97":2543245.5299999998,"ADDRESS":"東寧路５４０號七樓之２","OBJECTID":547617},"geometry":{"x":171211.16000000201,"y":2543245.5299999993}},{"attributes":{"ID":547645,"DIS_CODE":0,"TOWNNAME":"東區","LI":"裕農里","LIN":"10鄰","STREET":"東寧路","SECT":" ","MAREA":" ","LANE":" ","ALLEY":" ","HOUSE_NO":"５４０號七樓之３","E_COORD97":171211.16,"N_COORD97":2543245.5299999998,"ADDRESS":"東寧路５４０號七樓之３","OBJECTID":547618},"geometry":{"x":171211.16000000201,"y":2543245.5299999993}},{"attributes":{"ID":547646,"DIS_CODE":0,"TOWNNAME":"東區","LI":"裕農里","LIN":"10鄰","STREET":"東寧路","SECT":" ","MAREA":" ","LANE":" ","ALLEY":" ","HOUSE_NO":"５４０號七樓之４","E_COORD97":171211.16,"N_COORD97":2543245.5299999998,"ADDRESS":"東寧路５４０號七樓之４","OBJECTID":547619},"geometry":{"x":171211.16000000201,"y":2543245.5299999993}},{"attributes":{"ID":547647,"DIS_CODE":0,"TOWNNAME":"東區","LI":"裕農里","LIN":"10鄰","STREET":"東寧路","SECT":" ","MAREA":" ","LANE":" ","ALLEY":" ","HOUSE_NO":"５４０號七樓之５","E_COORD97":171211.16,"N_COORD97":2543245.5299999998,"ADDRESS":"東寧路５４０號七樓之５","OBJECTID":547620},"geometry":{"x":171211.16000000201,"y":2543245.5299999993}},{"attributes":{"ID":547648,"DIS_CODE":0,"TOWNNAME":"東區","LI":"裕農里","LIN":"10鄰","STREET":"東寧路","SECT":" ","MAREA":" ","LANE":" ","ALLEY":" ","HOUSE_NO":"５４０號三樓之５","E_COORD97":171211.16,"N_COORD97":2543245.5299999998,"ADDRESS":"東寧路５４０號三樓之５","OBJECTID":547621},"geometry":{"x":171211.16000000201,"y":2543245.5299999993}},{"attributes":{"ID":547649,"DIS_CODE":0,"TOWNNAME":"東區","LI":"東明里","LIN":"10鄰","STREET":"東興路","SECT":" ","MAREA":" ","LANE":" ","ALLEY":" ","HOUSE_NO":"１３１號七樓之１","E_COORD97":170961.54000000001,"N_COORD97":2543693.52,"ADDRESS":"東興路１３１號七樓之１","OBJECTID":547622},"geometry":{"x":170961.54000000097,"y":2543693.5199999996}},{"attributes":{"ID":547650,"DIS_CODE":0,"TOWNNAME":"東區","LI":"東明里","LIN":"10鄰","STREET":"東興路","SECT":" ","MAREA":" ","LANE":" ","ALLEY":" ","HOUSE_NO":"１３１號七樓之２","E_COORD97":170961.54000000001,"N_COORD97":2543693.52,"ADDRESS":"東興路１３１號七樓之２","OBJECTID":547623},"geometry":{"x":170961.54000000097,"y":2543693.5199999996}},{"attributes":{"ID":547651,"DIS_CODE":0,"TOWNNAME":"東區","LI":"東明里","LIN":"10鄰","STREET":"東興路","SECT":" ","MAREA":" ","LANE":" ","ALLEY":" ","HOUSE_NO":"１３１號七樓之３","E_COORD97":170961.54000000001,"N_COORD97":2543693.52,"ADDRESS":"東興路１３１號七樓之３","OBJECTID":547624},"geometry":{"x":170961.54000000097,"y":2543693.5199999996}},{"attributes":{"ID":547652,"DIS_CODE":0,"TOWNNAME":"東區","LI":"東明里","LIN":"10鄰","STREET":"東興路","SECT":" ","MAREA":" ","LANE":" ","ALLEY":" ","HOUSE_NO":"１３１號七樓之４","E_COORD97":170961.54000000001,"N_COORD97":2543693.52,"ADDRESS":"東興路１３１號七樓之４","OBJECTID":547625},"geometry":{"x":170961.54000000097,"y":2543693.5199999996}},{"attributes":{"ID":547653,"DIS_CODE":0,"TOWNNAME":"東區","LI":"東明里","LIN":"10鄰","STREET":"東興路","SECT":" ","MAREA":" ","LANE":" ","ALLEY":" ","HOUSE_NO":"１３１號七樓之５","E_COORD97":170961.54000000001,"N_COORD97":2543693.52,"ADDRESS":"東興路１３１號七樓之５","OBJECTID":547626},"geometry":{"x":170961.54000000097,"y":2543693.5199999996}},{"attributes":{"ID":547654,"DIS_CODE":0,"TOWNNAME":"東區","LI":"東明里","LIN":"10鄰","STREET":"東興路","SECT":" ","MAREA":" ","LANE":" ","ALLEY":" ","HOUSE_NO":"１３１號三樓之１","E_COORD97":170961.54000000001,"N_COORD97":2543693.52,"ADDRESS":"東興路１３１號三樓之１","OBJECTID":547627},"geometry":{"x":170961.54000000097,"y":2543693.5199999996}},{"attributes":{"ID":547655,"DIS_CODE":0,"TOWNNAME":"東區","LI":"東明里","LIN":"10鄰","STREET":"東興路","SECT":" ","MAREA":" ","LANE":" ","ALLEY":" ","HOUSE_NO":"１３１號三樓之２","E_COORD97":170961.54000000001,"N_COORD97":2543693.52,"ADDRESS":"東興路１３１號三樓之２","OBJECTID":547628},"geometry":{"x":170961.54000000097,"y":2543693.5199999996}},{"attributes":{"ID":547656,"DIS_CODE":0,"TOWNNAME":"東區","LI":"崇善里","LIN":"5鄰","STREET":"崇善路","SECT":" ","MAREA":" ","LANE":" ","ALLEY":" ","HOUSE_NO":"５０９號","E_COORD97":170975.82000000001,"N_COORD97":2541656.3799999999,"ADDRESS":"崇善路５０９號","OBJECTID":547629},"geometry":{"x":170975.8200000003,"y":2541656.379999999}},{"attributes":{"ID":547657,"DIS_CODE":0,"TOWNNAME":"東區","LI":"崇善里","LIN":"5鄰","STREET":"崇善路","SECT":" ","MAREA":" ","LANE":" ","ALLEY":" ","HOUSE_NO":"５１１號","E_COORD97":170977.79000000001,"N_COORD97":2541650.6499999999,"ADDRESS":"崇善路５１１號","OBJECTID":547630},"geometry":{"x":170977.78999999911,"y":2541650.6500000022}},{"attributes":{"ID":547658,"DIS_CODE":0,"TOWNNAME":"東區","LI":"崇善里","LIN":"5鄰","STREET":"崇善路","SECT":" ","MAREA":" ","LANE":" ","ALLEY":" ","HOUSE_NO":"５１３號","E_COORD97":170979.42999999999,"N_COORD97":2541644.75,"ADDRESS":"崇善路５１３號","OBJECTID":547631},"geometry":{"x":170979.4299999997,"y":2541644.75}},{"attributes":{"ID":547659,"DIS_CODE":0,"TOWNNAME":"東區","LI":"崇善里","LIN":"5鄰","STREET":"崇善路","SECT":" ","MAREA":" ","LANE":" ","ALLEY":" ","HOUSE_NO":"５１５號","E_COORD97":170980.57000000001,"N_COORD97":2541638.8599999999,"ADDRESS":"崇善路５１５號","OBJECTID":547632},"geometry":{"x":170980.5700000003,"y":2541638.8600000013}},{"attributes":{"ID":547660,"DIS_CODE":0,"TOWNNAME":"東區","LI":"崇學里","LIN":"18鄰","STREET":"崇學路","SECT":" ","MAREA":" ","LANE":" ","ALLEY":" ","HOUSE_NO":"６６號","E_COORD97":170270.78,"N_COORD97":2542116.8500000001,"ADDRESS":"崇學路６６號","OBJECTID":547633},"geometry":{"x":170270.78000000026,"y":2542116.8500000015}},{"attributes":{"ID":547661,"DIS_CODE":0,"TOWNNAME":"東區","LI":"德高里","LIN":"13鄰","STREET":"崇善路","SECT":" ","MAREA":" ","LANE":" ","ALLEY":" ","HOUSE_NO":"１０７１號","E_COORD97":171512.29999999999,"N_COORD97":2540562.1800000002,"ADDRESS":"崇善路１０７１號","OBJECTID":547634},"geometry":{"x":171512.30000000075,"y":2540562.1800000016}},{"attributes":{"ID":547662,"DIS_CODE":0,"TOWNNAME":"東區","LI":"圍下里","LIN":"10鄰","STREET":"青年路","SECT":" ","MAREA":" ","LANE":" ","ALLEY":" ","HOUSE_NO":"２９７號","E_COORD97":169388.73000000001,"N_COORD97":2543560.02,"ADDRESS":"青年路２９７號","OBJECTID":547635},"geometry":{"x":169388.73000000231,"y":2543560.0200000014}},{"attributes":{"ID":547663,"DIS_CODE":0,"TOWNNAME":"東區","LI":"圍下里","LIN":"10鄰","STREET":"青年路","SECT":" ","MAREA":" ","LANE":" ","ALLEY":" ","HOUSE_NO":"２９９號","E_COORD97":169394.81,"N_COORD97":2543559.73,"ADDRESS":"青年路２９９號","OBJECTID":547636},"geometry":{"x":169394.81000000052,"y":2543559.7300000023}},{"attributes":{"ID":547664,"DIS_CODE":0,"TOWNNAME":"東區","LI":"圍下里","LIN":"10鄰","STREET":"青年路","SECT":" ","MAREA":" ","LANE":" ","ALLEY":" ","HOUSE_NO":"３０５號","E_COORD97":169411.35999999999,"N_COORD97":2543558.6000000001,"ADDRESS":"青年路３０５號","OBJECTID":547637},"geometry":{"x":169411.3600000022,"y":2543558.6000000034}},{"attributes":{"ID":547665,"DIS_CODE":0,"TOWNNAME":"東區","LI":"圍下里","LIN":"10鄰","STREET":"青年路","SECT":" ","MAREA":" ","LANE":" ","ALLEY":" ","HOUSE_NO":"３０９號","E_COORD97":169421.26000000001,"N_COORD97":2543557.75,"ADDRESS":"青年路３０９號","OBJECTID":547638},"geometry":{"x":169421.25999999978,"y":2543557.75}},{"attributes":{"ID":547666,"DIS_CODE":0,"TOWNNAME":"東區","LI":"圍下里","LIN":"10鄰","STREET":"青年路","SECT":" ","MAREA":" ","LANE":" ","ALLEY":" ","HOUSE_NO":"３１１號","E_COORD97":169425.07999999999,"N_COORD97":2543557.4700000002,"ADDRESS":"青年路３１１號","OBJECTID":547639},"geometry":{"x":169425.08000000101,"y":2543557.4700000044}},{"attributes":{"ID":547667,"DIS_CODE":0,"TOWNNAME":"東區","LI":"圍下里","LIN":"10鄰","STREET":"青年路","SECT":" ","MAREA":" ","LANE":" ","ALLEY":" ","HOUSE_NO":"３１５號","E_COORD97":169432.01999999999,"N_COORD97":2543556.7599999998,"ADDRESS":"青年路３１５號","OBJECTID":547640},"geometry":{"x":169432.02000000048,"y":2543556.7599999998}},{"attributes":{"ID":547668,"DIS_CODE":0,"TOWNNAME":"東區","LI":"東明里","LIN":"10鄰","STREET":"東興路","SECT":" ","MAREA":" ","LANE":" ","ALLEY":" ","HOUSE_NO":"１３１號三樓之３","E_COORD97":170961.54000000001,"N_COORD97":2543693.52,"ADDRESS":"東興路１３１號三樓之３","OBJECTID":547641},"geometry":{"x":170961.54000000097,"y":2543693.5199999996}},{"attributes":{"ID":547669,"DIS_CODE":0,"TOWNNAME":"善化區","LI":"光文里","LIN":"10鄰","STREET":"中山路","SECT":" ","MAREA":" ","LANE":" ","ALLEY":" ","HOUSE_NO":"１１９號","E_COORD97":178556.09,"N_COORD97":2559168.6099999999,"ADDRESS":"中山路１１９號","OBJECTID":547642},"geometry":{"x":178556.08999999985,"y":2559168.6100000013}},{"attributes":{"ID":547670,"DIS_CODE":0,"TOWNNAME":"東區","LI":"東明里","LIN":"10鄰","STREET":"東興路","SECT":" ","MAREA":" ","LANE":" ","ALLEY":" ","HOUSE_NO":"１３１號三樓之４","E_COORD97":170961.54000000001,"N_COORD97":2543693.52,"ADDRESS":"東興路１３１號三樓之４","OBJECTID":547643},"geometry":{"x":170961.54000000097,"y":2543693.5199999996}},{"attributes":{"ID":547671,"DIS_CODE":0,"TOWNNAME":"東區","LI":"東明里","LIN":"10鄰","STREET":"東興路","SECT":" ","MAREA":" ","LANE":" ","ALLEY":" ","HOUSE_NO":"１３１號五樓之１","E_COORD97":170961.54000000001,"N_COORD97":2543693.52,"ADDRESS":"東興路１３１號五樓之１","OBJECTID":547644},"geometry":{"x":170961.54000000097,"y":2543693.5199999996}},{"attributes":{"ID":547672,"DIS_CODE":0,"TOWNNAME":"東區","LI":"東明里","LIN":"10鄰","STREET":"東興路","SECT":" ","MAREA":" ","LANE":" ","ALLEY":" ","HOUSE_NO":"１３１號五樓之２","E_COORD97":170961.54000000001,"N_COORD97":2543693.52,"ADDRESS":"東興路１３１號五樓之２","OBJECTID":547645},"geometry":{"x":170961.54000000097,"y":2543693.5199999996}},{"attributes":{"ID":547673,"DIS_CODE":0,"TOWNNAME":"東區","LI":"東明里","LIN":"10鄰","STREET":"東興路","SECT":" ","MAREA":" ","LANE":" ","ALLEY":" ","HOUSE_NO":"１３１號五樓之３","E_COORD97":170961.54000000001,"N_COORD97":2543693.52,"ADDRESS":"東興路１３１號五樓之３","OBJECTID":547646},"geometry":{"x":170961.54000000097,"y":2543693.5199999996}},{"attributes":{"ID":547674,"DIS_CODE":0,"TOWNNAME":"東區","LI":"東明里","LIN":"10鄰","STREET":"東興路","SECT":" ","MAREA":" ","LANE":" ","ALLEY":" ","HOUSE_NO":"１３１號五樓之４","E_COORD97":170961.54000000001,"N_COORD97":2543693.52,"ADDRESS":"東興路１３１號五樓之４","OBJECTID":547647},"geometry":{"x":170961.54000000097,"y":2543693.5199999996}},{"attributes":{"ID":547675,"DIS_CODE":0,"TOWNNAME":"東區","LI":"東明里","LIN":"10鄰","STREET":"東興路","SECT":" ","MAREA":" ","LANE":" ","ALLEY":" ","HOUSE_NO":"１３１號五樓之６","E_COORD97":170961.54000000001,"N_COORD97":2543693.52,"ADDRESS":"東興路１３１號五樓之６","OBJECTID":547648},"geometry":{"x":170961.54000000097,"y":2543693.5199999996}},{"attributes":{"ID":547676,"DIS_CODE":0,"TOWNNAME":"東區","LI":"崇德里","LIN":"11鄰","STREET":"崇德十街","SECT":" ","MAREA":" ","LANE":" ","ALLEY":" ","HOUSE_NO":"２號","E_COORD97":170825.60000000001,"N_COORD97":2541498.4199999999,"ADDRESS":"崇德十街２號","OBJECTID":547649},"geometry":{"x":170825.59999999963,"y":2541498.4199999999}},{"attributes":{"ID":547677,"DIS_CODE":0,"TOWNNAME":"東區","LI":"崇德里","LIN":"11鄰","STREET":"崇德路","SECT":" ","MAREA":" ","LANE":" ","ALLEY":" ","HOUSE_NO":"５６３號","E_COORD97":170804.98999999999,"N_COORD97":2541504.1800000002,"ADDRESS":"崇德路５６３號","OBJECTID":547650},"geometry":{"x":170804.99000000022,"y":2541504.1800000016}},{"attributes":{"ID":547678,"DIS_CODE":0,"TOWNNAME":"東區","LI":"崇德里","LIN":"11鄰","STREET":"崇德路","SECT":" ","MAREA":" ","LANE":" ","ALLEY":" ","HOUSE_NO":"５６３之１號","E_COORD97":170804.48000000001,"N_COORD97":2541500.3399999999,"ADDRESS":"崇德路５６３之１號","OBJECTID":547651},"geometry":{"x":170804.48000000138,"y":2541500.3400000017}},{"attributes":{"ID":547679,"DIS_CODE":0,"TOWNNAME":"東區","LI":"崇德里","LIN":"11鄰","STREET":"崇德路","SECT":" ","MAREA":" ","LANE":" ","ALLEY":" ","HOUSE_NO":"５６５號","E_COORD97":170803.87,"N_COORD97":2541495.6200000001,"ADDRESS":"崇德路５６５號","OBJECTID":547652},"geometry":{"x":170803.87000000011,"y":2541495.6200000029}},{"attributes":{"ID":547680,"DIS_CODE":0,"TOWNNAME":"東區","LI":"龍山里","LIN":"5鄰","STREET":"崇仁街","SECT":" ","MAREA":" ","LANE":" ","ALLEY":" ","HOUSE_NO":"７０號","E_COORD97":170350.20000000001,"N_COORD97":2542725.6099999999,"ADDRESS":"崇仁街７０號","OBJECTID":547653},"geometry":{"x":170350.20000000112,"y":2542725.6100000013}},{"attributes":{"ID":547681,"DIS_CODE":0,"TOWNNAME":"東區","LI":"龍山里","LIN":"5鄰","STREET":"崇仁街","SECT":" ","MAREA":" ","LANE":" ","ALLEY":" ","HOUSE_NO":"７２號","E_COORD97":170359.12,"N_COORD97":2542719.2000000002,"ADDRESS":"崇仁街７２號","OBJECTID":547654},"geometry":{"x":170359.12000000104,"y":2542719.1999999993}},{"attributes":{"ID":547682,"DIS_CODE":0,"TOWNNAME":"東區","LI":"東明里","LIN":"10鄰","STREET":"東興路","SECT":" ","MAREA":" ","LANE":" ","ALLEY":" ","HOUSE_NO":"１３１號六樓之２","E_COORD97":170961.54000000001,"N_COORD97":2543693.52,"ADDRESS":"東興路１３１號六樓之２","OBJECTID":547655},"geometry":{"x":170961.54000000097,"y":2543693.5199999996}},{"attributes":{"ID":547683,"DIS_CODE":0,"TOWNNAME":"東區","LI":"東明里","LIN":"10鄰","STREET":"東興路","SECT":" ","MAREA":" ","LANE":" ","ALLEY":" ","HOUSE_NO":"１３１號六樓之３","E_COORD97":170961.54000000001,"N_COORD97":2543693.52,"ADDRESS":"東興路１３１號六樓之３","OBJECTID":547656},"geometry":{"x":170961.54000000097,"y":2543693.5199999996}},{"attributes":{"ID":547684,"DIS_CODE":0,"TOWNNAME":"東區","LI":"東明里","LIN":"10鄰","STREET":"東興路","SECT":" ","MAREA":" ","LANE":" ","ALLEY":" ","HOUSE_NO":"１３１號六樓之４","E_COORD97":170961.54000000001,"N_COORD97":2543693.52,"ADDRESS":"東興路１３１號六樓之４","OBJECTID":547657},"geometry":{"x":170961.54000000097,"y":2543693.5199999996}},{"attributes":{"ID":547685,"DIS_CODE":0,"TOWNNAME":"東區","LI":"東明里","LIN":"10鄰","STREET":"東興路","SECT":" ","MAREA":" ","LANE":" ","ALLEY":" ","HOUSE_NO":"１３１號六樓之５","E_COORD97":170961.54000000001,"N_COORD97":2543693.52,"ADDRESS":"東興路１３１號六樓之５","OBJECTID":547658},"geometry":{"x":170961.54000000097,"y":2543693.5199999996}},{"attributes":{"ID":547686,"DIS_CODE":0,"TOWNNAME":"東區","LI":"東明里","LIN":"10鄰","STREET":"東興路","SECT":" ","MAREA":" ","LANE":" ","ALLEY":" ","HOUSE_NO":"１３１號六樓之６","E_COORD97":170961.54000000001,"N_COORD97":2543693.52,"ADDRESS":"東興路１３１號六樓之６","OBJECTID":547659},"geometry":{"x":170961.54000000097,"y":2543693.5199999996}},{"attributes":{"ID":547687,"DIS_CODE":0,"TOWNNAME":"東區","LI":"東明里","LIN":"10鄰","STREET":"東興路","SECT":" ","MAREA":" ","LANE":" ","ALLEY":" ","HOUSE_NO":"１３１號四樓之２","E_COORD97":170961.54000000001,"N_COORD97":2543693.52,"ADDRESS":"東興路１３１號四樓之２","OBJECTID":547660},"geometry":{"x":170961.54000000097,"y":2543693.5199999996}},{"attributes":{"ID":547688,"DIS_CODE":0,"TOWNNAME":"東區","LI":"東明里","LIN":"10鄰","STREET":"東興路","SECT":" ","MAREA":" ","LANE":" ","ALLEY":" ","HOUSE_NO":"１３１號四樓之３","E_COORD97":170961.54000000001,"N_COORD97":2543693.52,"ADDRESS":"東興路１３１號四樓之３","OBJECTID":547661},"geometry":{"x":170961.54000000097,"y":2543693.5199999996}},{"attributes":{"ID":547689,"DIS_CODE":0,"TOWNNAME":"東區","LI":"東明里","LIN":"10鄰","STREET":"東興路","SECT":" ","MAREA":" ","LANE":" ","ALLEY":" ","HOUSE_NO":"１３１號四樓之５","E_COORD97":170961.54000000001,"N_COORD97":2543693.52,"ADDRESS":"東興路１３１號四樓之５","OBJECTID":547662},"geometry":{"x":170961.54000000097,"y":2543693.5199999996}},{"attributes":{"ID":547690,"DIS_CODE":0,"TOWNNAME":"東區","LI":"東明里","LIN":"10鄰","STREET":"東興路","SECT":" ","MAREA":" ","LANE":" ","ALLEY":" ","HOUSE_NO":"１３１號四樓之６","E_COORD97":170961.54000000001,"N_COORD97":2543693.52,"ADDRESS":"東興路１３１號四樓之６","OBJECTID":547663},"geometry":{"x":170961.54000000097,"y":2543693.5199999996}},{"attributes":{"ID":547691,"DIS_CODE":0,"TOWNNAME":"東區","LI":"東明里","LIN":"10鄰","STREET":"東興路","SECT":" ","MAREA":" ","LANE":" ","ALLEY":" ","HOUSE_NO":"１３１號四樓之１","E_COORD97":170961.54000000001,"N_COORD97":2543693.52,"ADDRESS":"東興路１３１號四樓之１","OBJECTID":547664},"geometry":{"x":170961.54000000097,"y":2543693.5199999996}},{"attributes":{"ID":547692,"DIS_CODE":0,"TOWNNAME":"東區","LI":"東明里","LIN":"10鄰","STREET":"東興路","SECT":" ","MAREA":" ","LANE":" ","ALLEY":" ","HOUSE_NO":"１３１號三樓之５","E_COORD97":170961.54000000001,"N_COORD97":2543693.52,"ADDRESS":"東興路１３１號三樓之５","OBJECTID":547665},"geometry":{"x":170961.54000000097,"y":2543693.5199999996}},{"attributes":{"ID":547693,"DIS_CODE":0,"TOWNNAME":"中西區","LI":"郡西里","LIN":"10鄰","STREET":"大仁街","SECT":" ","MAREA":" ","LANE":" ","ALLEY":" ","HOUSE_NO":"５１號","E_COORD97":167376.64000000001,"N_COORD97":2543428.0499999998,"ADDRESS":"大仁街５１號","OBJECTID":547666},"geometry":{"x":167376.6400000006,"y":2543428.0500000045}},{"attributes":{"ID":547694,"DIS_CODE":0,"TOWNNAME":"東區","LI":"東明里","LIN":"10鄰","STREET":"東興路","SECT":" ","MAREA":" ","LANE":" ","ALLEY":" ","HOUSE_NO":"１３１號五樓之５","E_COORD97":170961.54000000001,"N_COORD97":2543693.52,"ADDRESS":"東興路１３１號五樓之５","OBJECTID":547667},"geometry":{"x":170961.54000000097,"y":2543693.5199999996}},{"attributes":{"ID":547695,"DIS_CODE":0,"TOWNNAME":"東區","LI":"東明里","LIN":"10鄰","STREET":"東興路","SECT":" ","MAREA":" ","LANE":" ","ALLEY":" ","HOUSE_NO":"１３１號六樓之１","E_COORD97":170961.54000000001,"N_COORD97":2543693.52,"ADDRESS":"東興路１３１號六樓之１","OBJECTID":547668},"geometry":{"x":170961.54000000097,"y":2543693.5199999996}},{"attributes":{"ID":547696,"DIS_CODE":0,"TOWNNAME":"中西區","LI":"五妃里","LIN":"10鄰","STREET":"慶中街","SECT":" ","MAREA":" ","LANE":" ","ALLEY":" ","HOUSE_NO":"１４２號二樓","E_COORD97":168580.85999999999,"N_COORD97":2542725.1200000001,"ADDRESS":"慶中街１４２號二樓","OBJECTID":547669},"geometry":{"x":168580.8600000022,"y":2542725.120000001}},{"attributes":{"ID":547697,"DIS_CODE":0,"TOWNNAME":"中西區","LI":"五妃里","LIN":"10鄰","STREET":"慶中街","SECT":" ","MAREA":" ","LANE":" ","ALLEY":" ","HOUSE_NO":"１４２號三樓","E_COORD97":168580.85999999999,"N_COORD97":2542725.1200000001,"ADDRESS":"慶中街１４２號三樓","OBJECTID":547670},"geometry":{"x":168580.8600000022,"y":2542725.120000001}},{"attributes":{"ID":547698,"DIS_CODE":0,"TOWNNAME":"中西區","LI":"五妃里","LIN":"10鄰","STREET":"慶中街","SECT":" ","MAREA":" ","LANE":" ","ALLEY":" ","HOUSE_NO":"１４２號五樓","E_COORD97":168580.85999999999,"N_COORD97":2542725.1200000001,"ADDRESS":"慶中街１４２號五樓","OBJECTID":547671},"geometry":{"x":168580.8600000022,"y":2542725.120000001}},{"attributes":{"ID":547699,"DIS_CODE":0,"TOWNNAME":"中西區","LI":"五妃里","LIN":"10鄰","STREET":"慶中街","SECT":" ","MAREA":" ","LANE":" ","ALLEY":" ","HOUSE_NO":"１４２號六樓","E_COORD97":168580.85999999999,"N_COORD97":2542725.1200000001,"ADDRESS":"慶中街１４２號六樓","OBJECTID":547672},"geometry":{"x":168580.8600000022,"y":2542725.120000001}},{"attributes":{"ID":547700,"DIS_CODE":0,"TOWNNAME":"中西區","LI":"五妃里","LIN":"10鄰","STREET":"慶中街","SECT":" ","MAREA":" ","LANE":" ","ALLEY":" ","HOUSE_NO":"１４２號四樓","E_COORD97":168580.85999999999,"N_COORD97":2542725.1200000001,"ADDRESS":"慶中街１４２號四樓","OBJECTID":547673},"geometry":{"x":168580.8600000022,"y":2542725.120000001}},{"attributes":{"ID":547701,"DIS_CODE":0,"TOWNNAME":"中西區","LI":"五妃里","LIN":"10鄰","STREET":"慶中街","SECT":" ","MAREA":" ","LANE":" ","ALLEY":" ","HOUSE_NO":"１４４號七樓","E_COORD97":168591.45999999999,"N_COORD97":2542730.8500000001,"ADDRESS":"慶中街１４４號七樓","OBJECTID":547674},"geometry":{"x":168591.45999999903,"y":2542730.8500000015}},{"attributes":{"ID":547702,"DIS_CODE":0,"TOWNNAME":"中西區","LI":"五妃里","LIN":"10鄰","STREET":"慶中街","SECT":" ","MAREA":" ","LANE":" ","ALLEY":" ","HOUSE_NO":"１４４號二樓","E_COORD97":168591.45999999999,"N_COORD97":2542730.8500000001,"ADDRESS":"慶中街１４４號二樓","OBJECTID":547675},"geometry":{"x":168591.45999999903,"y":2542730.8500000015}},{"attributes":{"ID":547703,"DIS_CODE":0,"TOWNNAME":"中西區","LI":"五妃里","LIN":"10鄰","STREET":"慶中街","SECT":" ","MAREA":" ","LANE":" ","ALLEY":" ","HOUSE_NO":"１４４號三樓","E_COORD97":168591.45999999999,"N_COORD97":2542730.8500000001,"ADDRESS":"慶中街１４４號三樓","OBJECTID":547676},"geometry":{"x":168591.45999999903,"y":2542730.8500000015}},{"attributes":{"ID":547704,"DIS_CODE":0,"TOWNNAME":"中西區","LI":"五妃里","LIN":"10鄰","STREET":"慶中街","SECT":" ","MAREA":" ","LANE":" ","ALLEY":" ","HOUSE_NO":"１４４號五樓","E_COORD97":168591.45999999999,"N_COORD97":2542730.8500000001,"ADDRESS":"慶中街１４４號五樓","OBJECTID":547677},"geometry":{"x":168591.45999999903,"y":2542730.8500000015}},{"attributes":{"ID":547705,"DIS_CODE":0,"TOWNNAME":"中西區","LI":"五妃里","LIN":"10鄰","STREET":"慶中街","SECT":" ","MAREA":" ","LANE":" ","ALLEY":" ","HOUSE_NO":"１４４號六樓","E_COORD97":168591.45999999999,"N_COORD97":2542730.8500000001,"ADDRESS":"慶中街１４４號六樓","OBJECTID":547678},"geometry":{"x":168591.45999999903,"y":2542730.8500000015}},{"attributes":{"ID":547706,"DIS_CODE":0,"TOWNNAME":"中西區","LI":"五妃里","LIN":"10鄰","STREET":"慶中街","SECT":" ","MAREA":" ","LANE":" ","ALLEY":" ","HOUSE_NO":"１４４號四樓","E_COORD97":168591.45999999999,"N_COORD97":2542730.8500000001,"ADDRESS":"慶中街１４４號四樓","OBJECTID":547679},"geometry":{"x":168591.45999999903,"y":2542730.8500000015}},{"attributes":{"ID":547707,"DIS_CODE":0,"TOWNNAME":"中西區","LI":"五妃里","LIN":"10鄰","STREET":"慶中街","SECT":" ","MAREA":" ","LANE":" ","ALLEY":" ","HOUSE_NO":"１４６號七樓","E_COORD97":168581.63,"N_COORD97":2542736.5899999999,"ADDRESS":"慶中街１４６號七樓","OBJECTID":547680},"geometry":{"x":168581.62999999989,"y":2542736.5900000017}},{"attributes":{"ID":547708,"DIS_CODE":0,"TOWNNAME":"中西區","LI":"五妃里","LIN":"10鄰","STREET":"慶中街","SECT":" ","MAREA":" ","LANE":" ","ALLEY":" ","HOUSE_NO":"１４６號二樓","E_COORD97":168581.63,"N_COORD97":2542736.5899999999,"ADDRESS":"慶中街１４６號二樓","OBJECTID":547681},"geometry":{"x":168581.62999999989,"y":2542736.5900000017}},{"attributes":{"ID":547709,"DIS_CODE":0,"TOWNNAME":"中西區","LI":"五妃里","LIN":"10鄰","STREET":"慶中街","SECT":" ","MAREA":" ","LANE":" ","ALLEY":" ","HOUSE_NO":"１４６號三樓","E_COORD97":168581.63,"N_COORD97":2542736.5899999999,"ADDRESS":"慶中街１４６號三樓","OBJECTID":547682},"geometry":{"x":168581.62999999989,"y":2542736.5900000017}},{"attributes":{"ID":547710,"DIS_CODE":0,"TOWNNAME":"中西區","LI":"五妃里","LIN":"10鄰","STREET":"慶中街","SECT":" ","MAREA":" ","LANE":" ","ALLEY":" ","HOUSE_NO":"１４６號五樓","E_COORD97":168581.63,"N_COORD97":2542736.5899999999,"ADDRESS":"慶中街１４６號五樓","OBJECTID":547683},"geometry":{"x":168581.62999999989,"y":2542736.5900000017}},{"attributes":{"ID":547711,"DIS_CODE":0,"TOWNNAME":"中西區","LI":"五妃里","LIN":"10鄰","STREET":"慶中街","SECT":" ","MAREA":" ","LANE":" ","ALLEY":" ","HOUSE_NO":"１４６號六樓","E_COORD97":168581.63,"N_COORD97":2542736.5899999999,"ADDRESS":"慶中街１４６號六樓","OBJECTID":547684},"geometry":{"x":168581.62999999989,"y":2542736.5900000017}},{"attributes":{"ID":547712,"DIS_CODE":0,"TOWNNAME":"中西區","LI":"五妃里","LIN":"10鄰","STREET":"慶中街","SECT":" ","MAREA":" ","LANE":" ","ALLEY":" ","HOUSE_NO":"１４６號四樓","E_COORD97":168581.63,"N_COORD97":2542736.5899999999,"ADDRESS":"慶中街１４６號四樓","OBJECTID":547685},"geometry":{"x":168581.62999999989,"y":2542736.5900000017}},{"attributes":{"ID":547713,"DIS_CODE":0,"TOWNNAME":"中西區","LI":"五妃里","LIN":"10鄰","STREET":"慶中街","SECT":" ","MAREA":" ","LANE":" ","ALLEY":" ","HOUSE_NO":"１４８號七樓","E_COORD97":168568.98999999999,"N_COORD97":2542736.4700000002,"ADDRESS":"慶中街１４８號七樓","OBJECTID":547686},"geometry":{"x":168568.99000000022,"y":2542736.4700000007}},{"attributes":{"ID":547714,"DIS_CODE":0,"TOWNNAME":"中西區","LI":"五妃里","LIN":"10鄰","STREET":"慶中街","SECT":" ","MAREA":" ","LANE":" ","ALLEY":" ","HOUSE_NO":"１４８號二樓","E_COORD97":168568.98999999999,"N_COORD97":2542736.4700000002,"ADDRESS":"慶中街１４８號二樓","OBJECTID":547687},"geometry":{"x":168568.99000000022,"y":2542736.4700000007}},{"attributes":{"ID":547715,"DIS_CODE":0,"TOWNNAME":"中西區","LI":"五妃里","LIN":"10鄰","STREET":"慶中街","SECT":" ","MAREA":" ","LANE":" ","ALLEY":" ","HOUSE_NO":"１４８號三樓","E_COORD97":168568.98999999999,"N_COORD97":2542736.4700000002,"ADDRESS":"慶中街１４８號三樓","OBJECTID":547688},"geometry":{"x":168568.99000000022,"y":2542736.4700000007}},{"attributes":{"ID":547716,"DIS_CODE":0,"TOWNNAME":"中西區","LI":"五妃里","LIN":"10鄰","STREET":"慶中街","SECT":" ","MAREA":" ","LANE":" ","ALLEY":" ","HOUSE_NO":"１４８號五樓","E_COORD97":168568.98999999999,"N_COORD97":2542736.4700000002,"ADDRESS":"慶中街１４８號五樓","OBJECTID":547689},"geometry":{"x":168568.99000000022,"y":2542736.4700000007}},{"attributes":{"ID":547717,"DIS_CODE":0,"TOWNNAME":"中西區","LI":"五妃里","LIN":"10鄰","STREET":"慶中街","SECT":" ","MAREA":" ","LANE":" ","ALLEY":" ","HOUSE_NO":"１４８號六樓","E_COORD97":168568.98999999999,"N_COORD97":2542736.4700000002,"ADDRESS":"慶中街１４８號六樓","OBJECTID":547690},"geometry":{"x":168568.99000000022,"y":2542736.4700000007}},{"attributes":{"ID":547718,"DIS_CODE":0,"TOWNNAME":"中西區","LI":"五妃里","LIN":"10鄰","STREET":"慶中街","SECT":" ","MAREA":" ","LANE":" ","ALLEY":" ","HOUSE_NO":"１４８號四樓","E_COORD97":168568.98999999999,"N_COORD97":2542736.4700000002,"ADDRESS":"慶中街１４８號四樓","OBJECTID":547691},"geometry":{"x":168568.99000000022,"y":2542736.4700000007}},{"attributes":{"ID":547719,"DIS_CODE":0,"TOWNNAME":"中西區","LI":"五妃里","LIN":"10鄰","STREET":"慶中街","SECT":" ","MAREA":" ","LANE":" ","ALLEY":" ","HOUSE_NO":"１５０號七樓","E_COORD97":168556.85999999999,"N_COORD97":2542737.4900000002,"ADDRESS":"慶中街１５０號七樓","OBJECTID":547692},"geometry":{"x":168556.86000000034,"y":2542737.4900000021}},{"attributes":{"ID":547720,"DIS_CODE":0,"TOWNNAME":"中西區","LI":"五妃里","LIN":"10鄰","STREET":"慶中街","SECT":" ","MAREA":" ","LANE":" ","ALLEY":" ","HOUSE_NO":"１５０號三樓","E_COORD97":168556.85999999999,"N_COORD97":2542737.4900000002,"ADDRESS":"慶中街１５０號三樓","OBJECTID":547693},"geometry":{"x":168556.86000000034,"y":2542737.4900000021}},{"attributes":{"ID":547721,"DIS_CODE":0,"TOWNNAME":"中西區","LI":"五妃里","LIN":"10鄰","STREET":"慶中街","SECT":" ","MAREA":" ","LANE":" ","ALLEY":" ","HOUSE_NO":"１５０號五樓","E_COORD97":168556.85999999999,"N_COORD97":2542737.4900000002,"ADDRESS":"慶中街１５０號五樓","OBJECTID":547694},"geometry":{"x":168556.86000000034,"y":2542737.4900000021}},{"attributes":{"ID":547722,"DIS_CODE":0,"TOWNNAME":"中西區","LI":"五妃里","LIN":"10鄰","STREET":"慶中街","SECT":" ","MAREA":" ","LANE":" ","ALLEY":" ","HOUSE_NO":"１５０號六樓","E_COORD97":168556.85999999999,"N_COORD97":2542737.4900000002,"ADDRESS":"慶中街１５０號六樓","OBJECTID":547695},"geometry":{"x":168556.86000000034,"y":2542737.4900000021}},{"attributes":{"ID":547723,"DIS_CODE":0,"TOWNNAME":"中西區","LI":"五妃里","LIN":"10鄰","STREET":"慶中街","SECT":" ","MAREA":" ","LANE":" ","ALLEY":" ","HOUSE_NO":"１５０號四樓","E_COORD97":168556.85999999999,"N_COORD97":2542737.4900000002,"ADDRESS":"慶中街１５０號四樓","OBJECTID":547696},"geometry":{"x":168556.86000000034,"y":2542737.4900000021}},{"attributes":{"ID":547724,"DIS_CODE":0,"TOWNNAME":"中西區","LI":"郡王里","LIN":"10鄰","STREET":"南門路","SECT":" ","MAREA":" ","LANE":" ","ALLEY":" ","HOUSE_NO":"１７７號一樓","E_COORD97":168466.76000000001,"N_COORD97":2542961.6600000001,"ADDRESS":"南門路１７７號一樓","OBJECTID":547697},"geometry":{"x":168466.75999999978,"y":2542961.6600000001}},{"attributes":{"ID":547725,"DIS_CODE":0,"TOWNNAME":"中西區","LI":"郡王里","LIN":"10鄰","STREET":"南門路","SECT":" ","MAREA":" ","LANE":" ","ALLEY":" ","HOUSE_NO":"１７７號二樓","E_COORD97":168466.76000000001,"N_COORD97":2542961.6600000001,"ADDRESS":"南門路１７７號二樓","OBJECTID":547698},"geometry":{"x":168466.75999999978,"y":2542961.6600000001}},{"attributes":{"ID":547726,"DIS_CODE":0,"TOWNNAME":"中西區","LI":"郡王里","LIN":"10鄰","STREET":"南門路","SECT":" ","MAREA":" ","LANE":" ","ALLEY":" ","HOUSE_NO":"１７７號三樓","E_COORD97":168466.76000000001,"N_COORD97":2542961.6600000001,"ADDRESS":"南門路１７７號三樓","OBJECTID":547699},"geometry":{"x":168466.75999999978,"y":2542961.6600000001}},{"attributes":{"ID":547727,"DIS_CODE":0,"TOWNNAME":"中西區","LI":"郡王里","LIN":"10鄰","STREET":"南門路","SECT":" ","MAREA":" ","LANE":" ","ALLEY":" ","HOUSE_NO":"１７７號五樓","E_COORD97":168466.76000000001,"N_COORD97":2542961.6600000001,"ADDRESS":"南門路１７７號五樓","OBJECTID":547700},"geometry":{"x":168466.75999999978,"y":2542961.6600000001}},{"attributes":{"ID":547728,"DIS_CODE":0,"TOWNNAME":"中西區","LI":"郡王里","LIN":"10鄰","STREET":"南門路","SECT":" ","MAREA":" ","LANE":" ","ALLEY":" ","HOUSE_NO":"１７７號四樓","E_COORD97":168466.76000000001,"N_COORD97":2542961.6600000001,"ADDRESS":"南門路１７７號四樓","OBJECTID":547701},"geometry":{"x":168466.75999999978,"y":2542961.6600000001}},{"attributes":{"ID":547729,"DIS_CODE":0,"TOWNNAME":"仁德區","LI":"保安里","LIN":"10鄰","STREET":"文賢二街","SECT":" ","MAREA":" ","LANE":" ","ALLEY":" ","HOUSE_NO":"３７號","E_COORD97":171712.87,"N_COORD97":2536115.3199999998,"ADDRESS":"文賢二街３７號","OBJECTID":547702},"geometry":{"x":171712.87000000011,"y":2536115.3200000003}},{"attributes":{"ID":547730,"DIS_CODE":0,"TOWNNAME":"永康區","LI":"大橋里","LIN":"10鄰","STREET":"大橋三街","SECT":" ","MAREA":" ","LANE":" ","ALLEY":" ","HOUSE_NO":"２２８號","E_COORD97":170909.82000000001,"N_COORD97":2546797.4900000002,"ADDRESS":"大橋三街２２８號","OBJECTID":547703},"geometry":{"x":170909.8200000003,"y":2546797.4900000002}},{"attributes":{"ID":547731,"DIS_CODE":0,"TOWNNAME":"永康區","LI":"大灣里","LIN":"10鄰","STREET":"大同街","SECT":" ","MAREA":" ","LANE":" ","ALLEY":" ","HOUSE_NO":"１０１號","E_COORD97":175019.81,"N_COORD97":2545510.3799999999,"ADDRESS":"大同街１０１號","OBJECTID":547704},"geometry":{"x":175019.80999999959,"y":2545510.3800000008}},{"attributes":{"ID":547732,"DIS_CODE":0,"TOWNNAME":"永康區","LI":"大橋里","LIN":"10鄰","STREET":"大橋三街","SECT":" ","MAREA":" ","LANE":" ","ALLEY":" ","HOUSE_NO":"２６４號之２","E_COORD97":171043.07999999999,"N_COORD97":2546872.3700000001,"ADDRESS":"大橋三街２６４號之２","OBJECTID":547705},"geometry":{"x":171043.08000000007,"y":2546872.3700000029}},{"attributes":{"ID":547733,"DIS_CODE":0,"TOWNNAME":"永康區","LI":"大灣里","LIN":"10鄰","STREET":"大同街","SECT":" ","MAREA":" ","LANE":" ","ALLEY":" ","HOUSE_NO":"９７號","E_COORD97":175036.10999999999,"N_COORD97":2545503.3700000001,"ADDRESS":"大同街９７號","OBJECTID":547706},"geometry":{"x":175036.1100000022,"y":2545503.370000001}},{"attributes":{"ID":547734,"DIS_CODE":0,"TOWNNAME":"東區","LI":"忠孝里","LIN":"10鄰","STREET":"榮譽街","SECT":" ","MAREA":" ","LANE":" ","ALLEY":" ","HOUSE_NO":"１６６號","E_COORD97":169992.64999999999,"N_COORD97":2541820.5,"ADDRESS":"榮譽街１６６號","OBJECTID":547707},"geometry":{"x":169992.65000000224,"y":2541820.5000000037}},{"attributes":{"ID":547735,"DIS_CODE":0,"TOWNNAME":"東區","LI":"忠孝里","LIN":"10鄰","STREET":"榮譽街","SECT":" ","MAREA":" ","LANE":" ","ALLEY":" ","HOUSE_NO":"１６８號","E_COORD97":169997.01999999999,"N_COORD97":2541822.1600000001,"ADDRESS":"榮譽街１６８號","OBJECTID":547708},"geometry":{"x":169997.01999999955,"y":2541822.1600000001}},{"attributes":{"ID":547736,"DIS_CODE":0,"TOWNNAME":"東區","LI":"忠孝里","LIN":"10鄰","STREET":"榮譽街","SECT":" ","MAREA":" ","LANE":" ","ALLEY":" ","HOUSE_NO":"１７０號","E_COORD97":169999.92999999999,"N_COORD97":2541824.4399999999,"ADDRESS":"榮譽街１７０號","OBJECTID":547709},"geometry":{"x":169999.9299999997,"y":2541824.4400000013}},{"attributes":{"ID":547737,"DIS_CODE":0,"TOWNNAME":"東區","LI":"忠孝里","LIN":"10鄰","STREET":"榮譽街","SECT":" ","MAREA":" ","LANE":" ","ALLEY":" ","HOUSE_NO":"１７２號","E_COORD97":170003.67000000001,"N_COORD97":2541826.73,"ADDRESS":"榮譽街１７２號","OBJECTID":547710},"geometry":{"x":170003.66999999993,"y":2541826.7300000023}},{"attributes":{"ID":547738,"DIS_CODE":0,"TOWNNAME":"東區","LI":"忠孝里","LIN":"10鄰","STREET":"榮譽街","SECT":" ","MAREA":" ","LANE":" ","ALLEY":" ","HOUSE_NO":"１７４號","E_COORD97":170007.20000000001,"N_COORD97":2541828.5899999999,"ADDRESS":"榮譽街１７４號","OBJECTID":547711},"geometry":{"x":170007.20000000019,"y":2541828.5899999999}},{"attributes":{"ID":547739,"DIS_CODE":0,"TOWNNAME":"東區","LI":"忠孝里","LIN":"10鄰","STREET":"榮譽街","SECT":" ","MAREA":" ","LANE":" ","ALLEY":" ","HOUSE_NO":"１７６號","E_COORD97":170010.73000000001,"N_COORD97":2541830.8799999999,"ADDRESS":"榮譽街１７６號","OBJECTID":547712},"geometry":{"x":170010.72999999952,"y":2541830.8800000008}},{"attributes":{"ID":547740,"DIS_CODE":0,"TOWNNAME":"東區","LI":"忠孝里","LIN":"10鄰","STREET":"榮譽街","SECT":" ","MAREA":" ","LANE":" ","ALLEY":" ","HOUSE_NO":"１７８號","E_COORD97":170014.67999999999,"N_COORD97":2541833.1600000001,"ADDRESS":"榮譽街１７８號","OBJECTID":547713},"geometry":{"x":170014.6799999997,"y":2541833.1600000039}},{"attributes":{"ID":547741,"DIS_CODE":0,"TOWNNAME":"東區","LI":"忠孝里","LIN":"10鄰","STREET":"榮譽街","SECT":" ","MAREA":" ","LANE":" ","ALLEY":" ","HOUSE_NO":"１８０號","E_COORD97":170017.79999999999,"N_COORD97":2541835.23,"ADDRESS":"榮譽街１８０號","OBJECTID":547714},"geometry":{"x":170017.79999999981,"y":2541835.2300000004}},{"attributes":{"ID":547742,"DIS_CODE":0,"TOWNNAME":"東區","LI":"忠孝里","LIN":"10鄰","STREET":"榮譽街","SECT":" ","MAREA":" ","LANE":" ","ALLEY":" ","HOUSE_NO":"１８２號","E_COORD97":170021.57999999999,"N_COORD97":2541838.0099999998,"ADDRESS":"榮譽街１８２號","OBJECTID":547715},"geometry":{"x":170021.58000000194,"y":2541838.0100000016}},{"attributes":{"ID":547743,"DIS_CODE":0,"TOWNNAME":"東區","LI":"忠孝里","LIN":"10鄰","STREET":"榮譽街","SECT":" ","MAREA":" ","LANE":" ","ALLEY":" ","HOUSE_NO":"１５２號","E_COORD97":169968.95999999999,"N_COORD97":2541806.3900000001,"ADDRESS":"榮譽街１５２號","OBJECTID":547716},"geometry":{"x":169968.95999999996,"y":2541806.3900000025}},{"attributes":{"ID":547744,"DIS_CODE":0,"TOWNNAME":"東區","LI":"忠孝里","LIN":"10鄰","STREET":"榮譽街","SECT":" ","MAREA":" ","LANE":" ","ALLEY":" ","HOUSE_NO":"１５４號","E_COORD97":169972.07999999999,"N_COORD97":2541807.6299999999,"ADDRESS":"榮譽街１５４號","OBJECTID":547717},"geometry":{"x":169972.08000000007,"y":2541807.629999999}},{"attributes":{"ID":547745,"DIS_CODE":0,"TOWNNAME":"東區","LI":"忠孝里","LIN":"10鄰","STREET":"榮譽街","SECT":" ","MAREA":" ","LANE":" ","ALLEY":" ","HOUSE_NO":"１５６號","E_COORD97":169975.20000000001,"N_COORD97":2541809.71,"ADDRESS":"榮譽街１５６號","OBJECTID":547718},"geometry":{"x":169975.20000000205,"y":2541809.709999999}},{"attributes":{"ID":547746,"DIS_CODE":0,"TOWNNAME":"東區","LI":"大智里","LIN":"10鄰","STREET":"德東街","SECT":" ","MAREA":" ","LANE":" ","ALLEY":" ","HOUSE_NO":"１０８號","E_COORD97":171146.23999999999,"N_COORD97":2540240.8300000001,"ADDRESS":"德東街１０８號","OBJECTID":547719},"geometry":{"x":171146.24000000209,"y":2540240.8300000001}},{"attributes":{"ID":547747,"DIS_CODE":0,"TOWNNAME":"東區","LI":"大智里","LIN":"10鄰","STREET":"德東街","SECT":" ","MAREA":" ","LANE":" ","ALLEY":" ","HOUSE_NO":"１１０號","E_COORD97":171149.69,"N_COORD97":2540242.1400000001,"ADDRESS":"德東街１１０號","OBJECTID":547720},"geometry":{"x":171149.69000000041,"y":2540242.1400000006}},{"attributes":{"ID":547748,"DIS_CODE":0,"TOWNNAME":"東區","LI":"大智里","LIN":"10鄰","STREET":"德東街","SECT":" ","MAREA":" ","LANE":" ","ALLEY":" ","HOUSE_NO":"１１１號","E_COORD97":171110.31,"N_COORD97":2540272.4900000002,"ADDRESS":"德東街１１１號","OBJECTID":547721},"geometry":{"x":171110.31000000052,"y":2540272.4900000021}},{"attributes":{"ID":547749,"DIS_CODE":0,"TOWNNAME":"東區","LI":"大智里","LIN":"10鄰","STREET":"德東街","SECT":" ","MAREA":" ","LANE":" ","ALLEY":" ","HOUSE_NO":"１１２號","E_COORD97":171152.85999999999,"N_COORD97":2540240.9199999999,"ADDRESS":"德東街１１２號","OBJECTID":547722},"geometry":{"x":171152.86000000127,"y":2540240.9200000037}},{"attributes":{"ID":547750,"DIS_CODE":0,"TOWNNAME":"東區","LI":"大智里","LIN":"10鄰","STREET":"德東街","SECT":" ","MAREA":" ","LANE":" ","ALLEY":" ","HOUSE_NO":"１１５號","E_COORD97":171117.98999999999,"N_COORD97":2540272.7200000002,"ADDRESS":"德東街１１５號","OBJECTID":547723},"geometry":{"x":171117.99000000115,"y":2540272.7200000007}},{"attributes":{"ID":547751,"DIS_CODE":0,"TOWNNAME":"東區","LI":"大智里","LIN":"10鄰","STREET":"德東街","SECT":" ","MAREA":" ","LANE":" ","ALLEY":" ","HOUSE_NO":"１１６號","E_COORD97":171160.42000000001,"N_COORD97":2540241.6800000002,"ADDRESS":"德東街１１６號","OBJECTID":547724},"geometry":{"x":171160.42000000086,"y":2540241.6799999997}},{"attributes":{"ID":547752,"DIS_CODE":0,"TOWNNAME":"東區","LI":"大智里","LIN":"10鄰","STREET":"德東街","SECT":" ","MAREA":" ","LANE":" ","ALLEY":" ","HOUSE_NO":"１１７號","E_COORD97":171121.32000000001,"N_COORD97":2540274.5499999998,"ADDRESS":"德東街１１７號","OBJECTID":547725},"geometry":{"x":171121.3200000003,"y":2540274.5500000007}},{"attributes":{"ID":547753,"DIS_CODE":0,"TOWNNAME":"東區","LI":"大智里","LIN":"10鄰","STREET":"德東街","SECT":" ","MAREA":" ","LANE":" ","ALLEY":" ","HOUSE_NO":"１１８號","E_COORD97":171163.78,"N_COORD97":2540243.3500000001,"ADDRESS":"德東街１１８號","OBJECTID":547726},"geometry":{"x":171163.78000000119,"y":2540243.3499999996}},{"attributes":{"ID":547754,"DIS_CODE":0,"TOWNNAME":"東區","LI":"大智里","LIN":"10鄰","STREET":"德東街","SECT":" ","MAREA":" ","LANE":" ","ALLEY":" ","HOUSE_NO":"１２１號","E_COORD97":171128.54999999999,"N_COORD97":2540275.1299999999,"ADDRESS":"德東街１２１號","OBJECTID":547727},"geometry":{"x":171128.55000000168,"y":2540275.129999999}},{"attributes":{"ID":547755,"DIS_CODE":0,"TOWNNAME":"東區","LI":"大智里","LIN":"10鄰","STREET":"德東街","SECT":" ","MAREA":" ","LANE":" ","ALLEY":" ","HOUSE_NO":"１２５號","E_COORD97":171136.57999999999,"N_COORD97":2540274.8999999999,"ADDRESS":"德東街１２５號","OBJECTID":547728},"geometry":{"x":171136.58000000007,"y":2540274.9000000004}},{"attributes":{"ID":547756,"DIS_CODE":0,"TOWNNAME":"東區","LI":"大智里","LIN":"10鄰","STREET":"德東街","SECT":" ","MAREA":" ","LANE":" ","ALLEY":" ","HOUSE_NO":"１３１號","E_COORD97":171152.60999999999,"N_COORD97":2540276.2200000002,"ADDRESS":"德東街１３１號","OBJECTID":547729},"geometry":{"x":171152.61000000127,"y":2540276.2200000007}},{"attributes":{"ID":547757,"DIS_CODE":0,"TOWNNAME":"東區","LI":"大智里","LIN":"10鄰","STREET":"德東街","SECT":" ","MAREA":" ","LANE":" ","ALLEY":" ","HOUSE_NO":"１３３號","E_COORD97":171157.19,"N_COORD97":2540277.6400000001,"ADDRESS":"德東街１３３號","OBJECTID":547730},"geometry":{"x":171157.19000000134,"y":2540277.6400000043}},{"attributes":{"ID":547758,"DIS_CODE":0,"TOWNNAME":"東區","LI":"大智里","LIN":"10鄰","STREET":"德東街","SECT":" ","MAREA":" ","LANE":" ","ALLEY":" ","HOUSE_NO":"１３５號","E_COORD97":171161.85000000001,"N_COORD97":2540276.6699999999,"ADDRESS":"德東街１３５號","OBJECTID":547731},"geometry":{"x":171161.85000000149,"y":2540276.6700000037}},{"attributes":{"ID":547759,"DIS_CODE":0,"TOWNNAME":"東區","LI":"大智里","LIN":"10鄰","STREET":"德東街","SECT":" ","MAREA":" ","LANE":" ","ALLEY":" ","HOUSE_NO":"１３７號","E_COORD97":171166.45000000001,"N_COORD97":2540277.6800000002,"ADDRESS":"德東街１３７號","OBJECTID":547732},"geometry":{"x":171166.45000000019,"y":2540277.6800000016}},{"attributes":{"ID":547760,"DIS_CODE":0,"TOWNNAME":"東區","LI":"大智里","LIN":"10鄰","STREET":"德東街","SECT":" ","MAREA":" ","LANE":" ","ALLEY":" ","HOUSE_NO":"１７４號","E_COORD97":171281.35000000001,"N_COORD97":2540245.2000000002,"ADDRESS":"德東街１７４號","OBJECTID":547733},"geometry":{"x":171281.35000000056,"y":2540245.200000003}},{"attributes":{"ID":547761,"DIS_CODE":0,"TOWNNAME":"東區","LI":"大智里","LIN":"10鄰","STREET":"德東街","SECT":" ","MAREA":" ","LANE":" ","ALLEY":" ","HOUSE_NO":"１７６號","E_COORD97":171285.04999999999,"N_COORD97":2540247.6099999999,"ADDRESS":"德東街１７６號","OBJECTID":547734},"geometry":{"x":171285.05000000075,"y":2540247.6100000013}},{"attributes":{"ID":547762,"DIS_CODE":0,"TOWNNAME":"東區","LI":"大智里","LIN":"10鄰","STREET":"德東街","SECT":" ","MAREA":" ","LANE":" ","ALLEY":" ","HOUSE_NO":"１７８號","E_COORD97":171290.03,"N_COORD97":2540247.77,"ADDRESS":"德東街１７８號","OBJECTID":547735},"geometry":{"x":171290.02999999933,"y":2540247.7699999996}},{"attributes":{"ID":547763,"DIS_CODE":0,"TOWNNAME":"東區","LI":"大智里","LIN":"10鄰","STREET":"德東街","SECT":" ","MAREA":" ","LANE":" ","ALLEY":" ","HOUSE_NO":"９４號","E_COORD97":171116.57000000001,"N_COORD97":2540240.5600000001,"ADDRESS":"德東街９４號","OBJECTID":547736},"geometry":{"x":171116.5700000003,"y":2540240.5599999987}},{"attributes":{"ID":547764,"DIS_CODE":0,"TOWNNAME":"永康區","LI":"大灣里","LIN":"10鄰","STREET":"大灣路","SECT":" ","MAREA":" ","LANE":" ","ALLEY":" ","HOUSE_NO":"１９２號","E_COORD97":175031.60999999999,"N_COORD97":2545445.2200000002,"ADDRESS":"大灣路１９２號","OBJECTID":547737},"geometry":{"x":175031.61000000127,"y":2545445.2200000025}},{"attributes":{"ID":547765,"DIS_CODE":0,"TOWNNAME":"永康區","LI":"大橋里","LIN":"10鄰","STREET":"大橋三街","SECT":" ","MAREA":" ","LANE":" ","ALLEY":" ","HOUSE_NO":"１９２號","E_COORD97":170845.45000000001,"N_COORD97":2546755.5,"ADDRESS":"大橋三街１９２號","OBJECTID":547738},"geometry":{"x":170845.45000000112,"y":2546755.5}},{"attributes":{"ID":547766,"DIS_CODE":0,"TOWNNAME":"永康區","LI":"大灣里","LIN":"10鄰","STREET":"大灣路","SECT":" ","MAREA":" ","LANE":" ","ALLEY":" ","HOUSE_NO":"１８８號","E_COORD97":175035.73999999999,"N_COORD97":2545452.8399999999,"ADDRESS":"大灣路１８８號","OBJECTID":547739},"geometry":{"x":175035.74000000115,"y":2545452.8400000017}},{"attributes":{"ID":547767,"DIS_CODE":0,"TOWNNAME":"永康區","LI":"大橋里","LIN":"10鄰","STREET":"大橋三街","SECT":" ","MAREA":" ","LANE":" ","ALLEY":" ","HOUSE_NO":"１９４號","E_COORD97":170848.82000000001,"N_COORD97":2546757.75,"ADDRESS":"大橋三街１９４號","OBJECTID":547740},"geometry":{"x":170848.8200000003,"y":2546757.75}},{"attributes":{"ID":547768,"DIS_CODE":0,"TOWNNAME":"永康區","LI":"大橋里","LIN":"10鄰","STREET":"大橋三街","SECT":" ","MAREA":" ","LANE":" ","ALLEY":" ","HOUSE_NO":"２００號","E_COORD97":170859.01999999999,"N_COORD97":2546764.25,"ADDRESS":"大橋三街２００號","OBJECTID":547741},"geometry":{"x":170859.02000000142,"y":2546764.25}},{"attributes":{"ID":547769,"DIS_CODE":0,"TOWNNAME":"永康區","LI":"大灣里","LIN":"10鄰","STREET":"大灣路","SECT":" ","MAREA":" ","LANE":" ","ALLEY":" ","HOUSE_NO":"１７８號","E_COORD97":175045.91,"N_COORD97":2545469.77,"ADDRESS":"大灣路１７８號","OBJECTID":547742},"geometry":{"x":175045.91000000108,"y":2545469.7700000033}},{"attributes":{"ID":547770,"DIS_CODE":0,"TOWNNAME":"永康區","LI":"大橋里","LIN":"10鄰","STREET":"大橋三街","SECT":" ","MAREA":" ","LANE":" ","ALLEY":" ","HOUSE_NO":"２６４號","E_COORD97":171033.44,"N_COORD97":2546867.3300000001,"ADDRESS":"大橋三街２６４號","OBJECTID":547743},"geometry":{"x":171033.44000000134,"y":2546867.3300000019}},{"attributes":{"ID":547771,"DIS_CODE":0,"TOWNNAME":"永康區","LI":"大橋里","LIN":"10鄰","STREET":"大橋三街","SECT":" ","MAREA":" ","LANE":" ","ALLEY":" ","HOUSE_NO":"２１２號","E_COORD97":170879.41,"N_COORD97":2546777.2400000002,"ADDRESS":"大橋三街２１２號","OBJECTID":547744},"geometry":{"x":170879.41000000108,"y":2546777.2400000021}},{"attributes":{"ID":547772,"DIS_CODE":0,"TOWNNAME":"永康區","LI":"大灣里","LIN":"10鄰","STREET":"大灣路","SECT":" ","MAREA":" ","LANE":" ","ALLEY":" ","HOUSE_NO":"１８０號","E_COORD97":175043.98999999999,"N_COORD97":2545466.3399999999,"ADDRESS":"大灣路１８０號","OBJECTID":547745},"geometry":{"x":175043.99000000115,"y":2545466.3400000036}},{"attributes":{"ID":547773,"DIS_CODE":0,"TOWNNAME":"永康區","LI":"大橋里","LIN":"10鄰","STREET":"大橋三街","SECT":" ","MAREA":" ","LANE":" ","ALLEY":" ","HOUSE_NO":"２５２號","E_COORD97":171007.60000000001,"N_COORD97":2546849.3199999998,"ADDRESS":"大橋三街２５２號","OBJECTID":547746},"geometry":{"x":171007.60000000149,"y":2546849.3200000003}},{"attributes":{"ID":547774,"DIS_CODE":0,"TOWNNAME":"永康區","LI":"大灣里","LIN":"10鄰","STREET":"大灣路","SECT":" ","MAREA":" ","LANE":" ","ALLEY":" ","HOUSE_NO":"１８６號","E_COORD97":175037.45000000001,"N_COORD97":2545455.9300000002,"ADDRESS":"大灣路１８６號","OBJECTID":547747},"geometry":{"x":175037.45000000112,"y":2545455.9300000016}},{"attributes":{"ID":547775,"DIS_CODE":0,"TOWNNAME":"仁德區","LI":"仁義里","LIN":"10鄰","STREET":"中山路","SECT":" ","MAREA":" ","LANE":" ","ALLEY":" ","HOUSE_NO":"５１１號","E_COORD97":173521.10999999999,"N_COORD97":2541288.4900000002,"ADDRESS":"中山路５１１號","OBJECTID":547748},"geometry":{"x":173521.11000000127,"y":2541288.4900000039}},{"attributes":{"ID":547776,"DIS_CODE":0,"TOWNNAME":"仁德區","LI":"仁義里","LIN":"10鄰","STREET":"中山路","SECT":" ","MAREA":" ","LANE":" ","ALLEY":" ","HOUSE_NO":"５６１號","E_COORD97":173408.14999999999,"N_COORD97":2541305.2400000002,"ADDRESS":"中山路５６１號","OBJECTID":547749},"geometry":{"x":173408.15000000037,"y":2541305.2400000021}},{"attributes":{"ID":547777,"DIS_CODE":0,"TOWNNAME":"善化區","LI":"坐駕里","LIN":"10鄰","STREET":"青年路","SECT":" ","MAREA":" ","LANE":" ","ALLEY":" ","HOUSE_NO":"９８號之３","E_COORD97":177929.04000000001,"N_COORD97":2558583.52,"ADDRESS":"青年路９８號之３","OBJECTID":547750},"geometry":{"x":177929.04000000097,"y":2558583.5200000014}},{"attributes":{"ID":547778,"DIS_CODE":0,"TOWNNAME":"善化區","LI":"文昌里","LIN":"10鄰","STREET":"大同路","SECT":" ","MAREA":" ","LANE":" ","ALLEY":" ","HOUSE_NO":"２５２號","E_COORD97":177405.45000000001,"N_COORD97":2558842.0699999998,"ADDRESS":"大同路２５２號","OBJECTID":547751},"geometry":{"x":177405.45000000112,"y":2558842.0700000003}},{"attributes":{"ID":547779,"DIS_CODE":0,"TOWNNAME":"善化區","LI":"光文里","LIN":"10鄰","STREET":"中山路","SECT":" ","MAREA":" ","LANE":" ","ALLEY":" ","HOUSE_NO":"８５號","E_COORD97":178656.29000000001,"N_COORD97":2559179.04,"ADDRESS":"中山路８５號","OBJECTID":547752},"geometry":{"x":178656.29000000004,"y":2559179.040000001}},{"attributes":{"ID":547780,"DIS_CODE":0,"TOWNNAME":"善化區","LI":"光文里","LIN":"10鄰","STREET":"中山路","SECT":" ","MAREA":" ","LANE":" ","ALLEY":" ","HOUSE_NO":"１１３號","E_COORD97":178570.54999999999,"N_COORD97":2559171.0299999998,"ADDRESS":"中山路１１３號","OBJECTID":547753},"geometry":{"x":178570.55000000075,"y":2559171.0299999993}},{"attributes":{"ID":547781,"DIS_CODE":0,"TOWNNAME":"善化區","LI":"光文里","LIN":"10鄰","STREET":"民族路","SECT":" ","MAREA":" ","LANE":" ","ALLEY":" ","HOUSE_NO":"１０１號","E_COORD97":178430.19,"N_COORD97":2559116.8300000001,"ADDRESS":"民族路１０１號","OBJECTID":547754},"geometry":{"x":178430.19000000134,"y":2559116.8300000019}},{"attributes":{"ID":547782,"DIS_CODE":0,"TOWNNAME":"善化區","LI":"光文里","LIN":"10鄰","STREET":"民族路","SECT":" ","MAREA":" ","LANE":" ","ALLEY":" ","HOUSE_NO":"８１號","E_COORD97":178530.69,"N_COORD97":2559131.5,"ADDRESS":"民族路８１號","OBJECTID":547755},"geometry":{"x":178530.69000000041,"y":2559131.5}},{"attributes":{"ID":547783,"DIS_CODE":0,"TOWNNAME":"善化區","LI":"坐駕里","LIN":"10鄰","STREET":"建國路","SECT":" ","MAREA":" ","LANE":" ","ALLEY":" ","HOUSE_NO":"５５號","E_COORD97":177998.79999999999,"N_COORD97":2558648.8900000001,"ADDRESS":"建國路５５號","OBJECTID":547756},"geometry":{"x":177998.79999999981,"y":2558648.8900000025}},{"attributes":{"ID":547784,"DIS_CODE":0,"TOWNNAME":"善化區","LI":"坐駕里","LIN":"10鄰","STREET":"建國路","SECT":" ","MAREA":" ","LANE":" ","ALLEY":" ","HOUSE_NO":"５７號","E_COORD97":177997.22,"N_COORD97":2558654.6000000001,"ADDRESS":"建國路５７號","OBJECTID":547757},"geometry":{"x":177997.21999999974,"y":2558654.5999999996}},{"attributes":{"ID":547785,"DIS_CODE":0,"TOWNNAME":"善化區","LI":"坐駕里","LIN":"10鄰","STREET":"建國路","SECT":" ","MAREA":" ","LANE":" ","ALLEY":" ","HOUSE_NO":"５９號","E_COORD97":177993.32999999999,"N_COORD97":2558658.0499999998,"ADDRESS":"建國路５９號","OBJECTID":547758},"geometry":{"x":177993.33000000007,"y":2558658.0500000026}},{"attributes":{"ID":547786,"DIS_CODE":0,"TOWNNAME":"善化區","LI":"坐駕里","LIN":"10鄰","STREET":"建國路","SECT":" ","MAREA":" ","LANE":" ","ALLEY":" ","HOUSE_NO":"６１號","E_COORD97":177989.54999999999,"N_COORD97":2558662.46,"ADDRESS":"建國路６１號","OBJECTID":547759},"geometry":{"x":177989.55000000075,"y":2558662.4600000028}},{"attributes":{"ID":547787,"DIS_CODE":0,"TOWNNAME":"善化區","LI":"坐駕里","LIN":"10鄰","STREET":"建國路","SECT":" ","MAREA":" ","LANE":" ","ALLEY":" ","HOUSE_NO":"６３號","E_COORD97":177992.75,"N_COORD97":2558668.0699999998,"ADDRESS":"建國路６３號","OBJECTID":547760},"geometry":{"x":177992.74999999907,"y":2558668.0700000022}},{"attributes":{"ID":547788,"DIS_CODE":0,"TOWNNAME":"善化區","LI":"坐駕里","LIN":"10鄰","STREET":"自立路","SECT":" ","MAREA":" ","LANE":" ","ALLEY":" ","HOUSE_NO":"１１０號","E_COORD97":177972.48000000001,"N_COORD97":2558636.9199999999,"ADDRESS":"自立路１１０號","OBJECTID":547761},"geometry":{"x":177972.48000000045,"y":2558636.9199999999}},{"attributes":{"ID":547789,"DIS_CODE":0,"TOWNNAME":"中西區","LI":"保安里","LIN":"10鄰","STREET":"友愛街","SECT":" ","MAREA":" ","LANE":" ","ALLEY":" ","HOUSE_NO":"１６８號","E_COORD97":167705.56,"N_COORD97":2543625.8700000001,"ADDRESS":"友愛街１６８號","OBJECTID":547762},"geometry":{"x":167705.56000000145,"y":2543625.870000001}},{"attributes":{"ID":547790,"DIS_CODE":0,"TOWNNAME":"中西區","LI":"保安里","LIN":"10鄰","STREET":"友愛街","SECT":" ","MAREA":" ","LANE":" ","ALLEY":" ","HOUSE_NO":"１７０號","E_COORD97":167702.04999999999,"N_COORD97":2543626.1899999999,"ADDRESS":"友愛街１７０號","OBJECTID":547763},"geometry":{"x":167702.04999999981,"y":2543626.1900000013}},{"attributes":{"ID":547791,"DIS_CODE":0,"TOWNNAME":"中西區","LI":"保安里","LIN":"10鄰","STREET":"國華街","SECT":"二段","MAREA":" ","LANE":" ","ALLEY":" ","HOUSE_NO":"１８０號","E_COORD97":167698.54000000001,"N_COORD97":2543627.4700000002,"ADDRESS":"國華街二段１８０號","OBJECTID":547764},"geometry":{"x":167698.54000000097,"y":2543627.4700000007}},{"attributes":{"ID":547792,"DIS_CODE":0,"TOWNNAME":"中西區","LI":"保安里","LIN":"10鄰","STREET":"國華街","SECT":"二段","MAREA":" ","LANE":" ","ALLEY":" ","HOUSE_NO":"１８２號","E_COORD97":167700.76999999999,"N_COORD97":2543637.6699999999,"ADDRESS":"國華街二段１８２號","OBJECTID":547765},"geometry":{"x":167700.77000000142,"y":2543637.6700000018}},{"attributes":{"ID":547793,"DIS_CODE":0,"TOWNNAME":"中西區","LI":"保安里","LIN":"10鄰","STREET":"國華街","SECT":"二段","MAREA":" ","LANE":" ","ALLEY":" ","HOUSE_NO":"１８４號","E_COORD97":167704.78,"N_COORD97":2543646.4399999999,"ADDRESS":"國華街二段１８４號","OBJECTID":547766},"geometry":{"x":167704.78000000212,"y":2543646.4399999995}},{"attributes":{"ID":547794,"DIS_CODE":0,"TOWNNAME":"中西區","LI":"保安里","LIN":"10鄰","STREET":"友愛街","SECT":" ","MAREA":" ","LANE":" ","ALLEY":" ","HOUSE_NO":"１４８號","E_COORD97":167743.25,"N_COORD97":2543617.7400000002,"ADDRESS":"友愛街１４８號","OBJECTID":547767},"geometry":{"x":167743.25,"y":2543617.7400000002}},{"attributes":{"ID":547795,"DIS_CODE":0,"TOWNNAME":"中西區","LI":"保安里","LIN":"10鄰","STREET":"友愛街","SECT":" ","MAREA":" ","LANE":" ","ALLEY":" ","HOUSE_NO":"１５０號","E_COORD97":167739.73000000001,"N_COORD97":2543618.54,"ADDRESS":"友愛街１５０號","OBJECTID":547768},"geometry":{"x":167739.73000000138,"y":2543618.5399999991}},{"attributes":{"ID":547796,"DIS_CODE":0,"TOWNNAME":"中西區","LI":"保安里","LIN":"10鄰","STREET":"友愛街","SECT":" ","MAREA":" ","LANE":" ","ALLEY":" ","HOUSE_NO":"１５２號","E_COORD97":167737.01999999999,"N_COORD97":2543619.1699999999,"ADDRESS":"友愛街１５２號","OBJECTID":547769},"geometry":{"x":167737.02000000048,"y":2543619.1699999999}},{"attributes":{"ID":547797,"DIS_CODE":0,"TOWNNAME":"中西區","LI":"保安里","LIN":"10鄰","STREET":"友愛街","SECT":" ","MAREA":" ","LANE":" ","ALLEY":" ","HOUSE_NO":"１５４號","E_COORD97":167731.26999999999,"N_COORD97":2543620.1299999999,"ADDRESS":"友愛街１５４號","OBJECTID":547770},"geometry":{"x":167731.27000000142,"y":2543620.1300000008}},{"attributes":{"ID":547798,"DIS_CODE":0,"TOWNNAME":"中西區","LI":"保安里","LIN":"10鄰","STREET":"友愛街","SECT":" ","MAREA":" ","LANE":" ","ALLEY":" ","HOUSE_NO":"１５６號","E_COORD97":167726.79999999999,"N_COORD97":2543621.25,"ADDRESS":"友愛街１５６號","OBJECTID":547771},"geometry":{"x":167726.80000000075,"y":2543621.25}},{"attributes":{"ID":547799,"DIS_CODE":0,"TOWNNAME":"中西區","LI":"保安里","LIN":"10鄰","STREET":"友愛街","SECT":" ","MAREA":" ","LANE":" ","ALLEY":" ","HOUSE_NO":"１５８號","E_COORD97":167722.97,"N_COORD97":2543621.73,"ADDRESS":"友愛街１５８號","OBJECTID":547772},"geometry":{"x":167722.96999999974,"y":2543621.7300000004}},{"attributes":{"ID":547800,"DIS_CODE":0,"TOWNNAME":"中西區","LI":"保安里","LIN":"10鄰","STREET":"友愛街","SECT":" ","MAREA":" ","LANE":" ","ALLEY":" ","HOUSE_NO":"１６０號","E_COORD97":167719.45000000001,"N_COORD97":2543622.52,"ADDRESS":"友愛街１６０號","OBJECTID":547773},"geometry":{"x":167719.45000000112,"y":2543622.5199999996}},{"attributes":{"ID":547801,"DIS_CODE":0,"TOWNNAME":"中西區","LI":"保安里","LIN":"10鄰","STREET":"友愛街","SECT":" ","MAREA":" ","LANE":" ","ALLEY":" ","HOUSE_NO":"１６２號","E_COORD97":167716.10000000001,"N_COORD97":2543623.1600000001,"ADDRESS":"友愛街１６２號","OBJECTID":547774},"geometry":{"x":167716.10000000056,"y":2543623.1600000039}},{"attributes":{"ID":547802,"DIS_CODE":0,"TOWNNAME":"中西區","LI":"保安里","LIN":"10鄰","STREET":"友愛街","SECT":" ","MAREA":" ","LANE":" ","ALLEY":" ","HOUSE_NO":"１６４號","E_COORD97":167712.26999999999,"N_COORD97":2543624.7599999998,"ADDRESS":"友愛街１６４號","OBJECTID":547775},"geometry":{"x":167712.26999999955,"y":2543624.7599999998}},{"attributes":{"ID":547803,"DIS_CODE":0,"TOWNNAME":"中西區","LI":"保安里","LIN":"10鄰","STREET":"友愛街","SECT":" ","MAREA":" ","LANE":" ","ALLEY":" ","HOUSE_NO":"１６６號","E_COORD97":167709.39999999999,"N_COORD97":2543625.3900000001,"ADDRESS":"友愛街１６６號","OBJECTID":547776},"geometry":{"x":167709.4000000013,"y":2543625.3899999987}},{"attributes":{"ID":547804,"DIS_CODE":0,"TOWNNAME":"中西區","LI":"保安里","LIN":"10鄰","STREET":"國華街","SECT":"二段","MAREA":" ","LANE":" ","ALLEY":" ","HOUSE_NO":"１８８號","E_COORD97":167705.94,"N_COORD97":2543653.75,"ADDRESS":"國華街二段１８８號","OBJECTID":547777},"geometry":{"x":167705.94000000134,"y":2543653.7500000019}},{"attributes":{"ID":547805,"DIS_CODE":0,"TOWNNAME":"中西區","LI":"保安里","LIN":"10鄰","STREET":"國華街","SECT":"二段","MAREA":" ","LANE":" ","ALLEY":" ","HOUSE_NO":"１９０號","E_COORD97":167707.39000000001,"N_COORD97":2543656.7799999998,"ADDRESS":"國華街二段１９０號","OBJECTID":547778},"geometry":{"x":167707.3900000006,"y":2543656.7800000012}},{"attributes":{"ID":547806,"DIS_CODE":0,"TOWNNAME":"中西區","LI":"保安里","LIN":"10鄰","STREET":"國華街","SECT":"二段","MAREA":" ","LANE":" ","ALLEY":" ","HOUSE_NO":"１９２號","E_COORD97":167707.67999999999,"N_COORD97":2543664.2999999998,"ADDRESS":"國華街二段１９２號","OBJECTID":547779},"geometry":{"x":167707.6799999997,"y":2543664.3000000026}},{"attributes":{"ID":547807,"DIS_CODE":0,"TOWNNAME":"中西區","LI":"保安里","LIN":"10鄰","STREET":"國華街","SECT":"二段","MAREA":" ","LANE":" ","ALLEY":" ","HOUSE_NO":"１９４號","E_COORD97":167708.39999999999,"N_COORD97":2543667.9199999999,"ADDRESS":"國華街二段１９４號","OBJECTID":547780},"geometry":{"x":167708.40000000037,"y":2543667.9199999999}},{"attributes":{"ID":547808,"DIS_CODE":0,"TOWNNAME":"中西區","LI":"保安里","LIN":"10鄰","STREET":"國華街","SECT":"二段","MAREA":" ","LANE":" ","ALLEY":" ","HOUSE_NO":"１９６號","E_COORD97":167709.98999999999,"N_COORD97":2543674.1299999999,"ADDRESS":"國華街二段１９６號","OBJECTID":547781},"geometry":{"x":167709.99000000022,"y":2543674.1300000008}},{"attributes":{"ID":547809,"DIS_CODE":0,"TOWNNAME":"中西區","LI":"保安里","LIN":"10鄰","STREET":"國華街","SECT":"二段","MAREA":" ","LANE":" ","ALLEY":" ","HOUSE_NO":"１９８號","E_COORD97":167711.57999999999,"N_COORD97":2543679.0499999998,"ADDRESS":"國華街二段１９８號","OBJECTID":547782},"geometry":{"x":167711.58000000101,"y":2543679.0500000045}},{"attributes":{"ID":547810,"DIS_CODE":0,"TOWNNAME":"中西區","LI":"保安里","LIN":"10鄰","STREET":"國華街","SECT":"二段","MAREA":" ","LANE":" ","ALLEY":" ","HOUSE_NO":"２００號","E_COORD97":167711.87,"N_COORD97":2543684.6800000002,"ADDRESS":"國華街二段２００號","OBJECTID":547783},"geometry":{"x":167711.87000000011,"y":2543684.6800000016}},{"attributes":{"ID":547811,"DIS_CODE":0,"TOWNNAME":"中西區","LI":"保安里","LIN":"10鄰","STREET":"國華街","SECT":"二段","MAREA":" ","LANE":" ","ALLEY":" ","HOUSE_NO":"２０２號","E_COORD97":167712.60000000001,"N_COORD97":2543687.7200000002,"ADDRESS":"國華街二段２０２號","OBJECTID":547784},"geometry":{"x":167712.60000000056,"y":2543687.7200000044}},{"attributes":{"ID":547812,"DIS_CODE":0,"TOWNNAME":"中西區","LI":"保安里","LIN":"10鄰","STREET":"國華街","SECT":"二段","MAREA":" ","LANE":" ","ALLEY":" ","HOUSE_NO":"２０４號","E_COORD97":167712.89000000001,"N_COORD97":2543690.1800000002,"ADDRESS":"國華街二段２０４號","OBJECTID":547785},"geometry":{"x":167712.88999999966,"y":2543690.1799999997}},{"attributes":{"ID":547813,"DIS_CODE":0,"TOWNNAME":"中西區","LI":"普濟里","LIN":"10鄰","STREET":"成功路","SECT":" ","MAREA":" ","LANE":" ","ALLEY":" ","HOUSE_NO":"３０１號之１","E_COORD97":168070.51999999999,"N_COORD97":2544475.3599999999,"ADDRESS":"成功路３０１號之１","OBJECTID":547786},"geometry":{"x":168070.52000000048,"y":2544475.3600000031}},{"attributes":{"ID":547814,"DIS_CODE":0,"TOWNNAME":"中西區","LI":"郡西里","LIN":"10鄰","STREET":"大仁街","SECT":" ","MAREA":" ","LANE":" ","ALLEY":" ","HOUSE_NO":"３３號","E_COORD97":167437.81,"N_COORD97":2543411.75,"ADDRESS":"大仁街３３號","OBJECTID":547787},"geometry":{"x":167437.81000000145,"y":2543411.75}},{"attributes":{"ID":547815,"DIS_CODE":0,"TOWNNAME":"中西區","LI":"郡西里","LIN":"10鄰","STREET":"大仁街","SECT":" ","MAREA":" ","LANE":" ","ALLEY":" ","HOUSE_NO":"３９號","E_COORD97":167405.57999999999,"N_COORD97":2543423.29,"ADDRESS":"大仁街３９號","OBJECTID":547788},"geometry":{"x":167405.58000000007,"y":2543423.2899999991}},{"attributes":{"ID":547816,"DIS_CODE":0,"TOWNNAME":"中西區","LI":"郡西里","LIN":"10鄰","STREET":"大仁街","SECT":" ","MAREA":" ","LANE":" ","ALLEY":" ","HOUSE_NO":"４１號","E_COORD97":167401.54999999999,"N_COORD97":2543422.9300000002,"ADDRESS":"大仁街４１號","OBJECTID":547789},"geometry":{"x":167401.55000000075,"y":2543422.9299999997}},{"attributes":{"ID":547817,"DIS_CODE":0,"TOWNNAME":"中西區","LI":"普濟里","LIN":"10鄰","STREET":"成功路","SECT":" ","MAREA":" ","LANE":" ","ALLEY":" ","HOUSE_NO":"３０１號之２","E_COORD97":168067.89999999999,"N_COORD97":2544475.9700000002,"ADDRESS":"成功路３０１號之２","OBJECTID":547790},"geometry":{"x":168067.90000000037,"y":2544475.9700000044}},{"attributes":{"ID":547818,"DIS_CODE":0,"TOWNNAME":"中西區","LI":"普濟里","LIN":"10鄰","STREET":"成功路","SECT":" ","MAREA":" ","LANE":" ","ALLEY":" ","HOUSE_NO":"３０３號","E_COORD97":168060.45000000001,"N_COORD97":2544480.3900000001,"ADDRESS":"成功路３０３號","OBJECTID":547791},"geometry":{"x":168060.45000000019,"y":2544480.3900000025}},{"attributes":{"ID":547819,"DIS_CODE":0,"TOWNNAME":"中西區","LI":"普濟里","LIN":"10鄰","STREET":"成功路","SECT":" ","MAREA":" ","LANE":" ","ALLEY":" ","HOUSE_NO":"３０５號","E_COORD97":168055.81,"N_COORD97":2544480.3900000001,"ADDRESS":"成功路３０５號","OBJECTID":547792},"geometry":{"x":168055.80999999959,"y":2544480.3900000025}},{"attributes":{"ID":547820,"DIS_CODE":0,"TOWNNAME":"中西區","LI":"郡西里","LIN":"10鄰","STREET":"大仁街","SECT":" ","MAREA":" ","LANE":" ","ALLEY":" ","HOUSE_NO":"４５號","E_COORD97":167394.10000000001,"N_COORD97":2543424.27,"ADDRESS":"大仁街４５號","OBJECTID":547793},"geometry":{"x":167394.10000000056,"y":2543424.2699999996}},{"attributes":{"ID":547821,"DIS_CODE":0,"TOWNNAME":"中西區","LI":"郡西里","LIN":"10鄰","STREET":"大仁街","SECT":" ","MAREA":" ","LANE":" ","ALLEY":" ","HOUSE_NO":"４７號","E_COORD97":167390.67999999999,"N_COORD97":2543424.8799999999,"ADDRESS":"大仁街４７號","OBJECTID":547794},"geometry":{"x":167390.6799999997,"y":2543424.8800000008}},{"attributes":{"ID":547822,"DIS_CODE":0,"TOWNNAME":"中西區","LI":"郡西里","LIN":"10鄰","STREET":"郡西路","SECT":" ","MAREA":" ","LANE":" ","ALLEY":" ","HOUSE_NO":"１００號","E_COORD97":167427.67000000001,"N_COORD97":2543411.8700000001,"ADDRESS":"郡西路１００號","OBJECTID":547795},"geometry":{"x":167427.67000000086,"y":2543411.870000001}},{"attributes":{"ID":547823,"DIS_CODE":0,"TOWNNAME":"中西區","LI":"郡西里","LIN":"10鄰","STREET":"郡西路","SECT":" ","MAREA":" ","LANE":" ","ALLEY":" ","HOUSE_NO":"６３號","E_COORD97":167407.16,"N_COORD97":2543402.1899999999,"ADDRESS":"郡西路６３號","OBJECTID":547796},"geometry":{"x":167407.16000000201,"y":2543402.1900000032}},{"attributes":{"ID":547824,"DIS_CODE":0,"TOWNNAME":"中西區","LI":"郡西里","LIN":"10鄰","STREET":"郡西路","SECT":" ","MAREA":" ","LANE":" ","ALLEY":" ","HOUSE_NO":"６９號","E_COORD97":167411.07000000001,"N_COORD97":2543420.4900000002,"ADDRESS":"郡西路６９號","OBJECTID":547797},"geometry":{"x":167411.0700000003,"y":2543420.4900000002}},{"attributes":{"ID":547825,"DIS_CODE":0,"TOWNNAME":"中西區","LI":"郡西里","LIN":"10鄰","STREET":"郡西路","SECT":" ","MAREA":" ","LANE":" ","ALLEY":" ","HOUSE_NO":"９８號","E_COORD97":167425.60000000001,"N_COORD97":2543402.2400000002,"ADDRESS":"郡西路９８號","OBJECTID":547798},"geometry":{"x":167425.60000000149,"y":2543402.2399999984}},{"attributes":{"ID":547826,"DIS_CODE":0,"TOWNNAME":"中西區","LI":"郡西里","LIN":"10鄰","STREET":"大仁街","SECT":" ","MAREA":" ","LANE":" ","ALLEY":" ","HOUSE_NO":"４９號","E_COORD97":167383.97,"N_COORD97":2543427.3199999998,"ADDRESS":"大仁街４９號","OBJECTID":547799},"geometry":{"x":167383.96999999974,"y":2543427.3200000022}},{"attributes":{"ID":547827,"DIS_CODE":0,"TOWNNAME":"中西區","LI":"郡西里","LIN":"10鄰","STREET":"康樂街","SECT":" ","MAREA":" ","LANE":" ","ALLEY":" ","HOUSE_NO":"１０號","E_COORD97":167362.35999999999,"N_COORD97":2543402.1899999999,"ADDRESS":"康樂街１０號","OBJECTID":547800},"geometry":{"x":167362.36000000127,"y":2543402.1900000032}}]}