{"displayFieldName":"TOWNNAME","fieldAliases":{"ID":"ID","DIS_CODE":"DIS_CODE","TOWNNAME":"TOWNNAME","LI":"LI","LIN":"LIN","STREET":"STREET","SECT":"SECT","MAREA":"MAREA","LANE":"LANE","ALLEY":"ALLEY","HOUSE_NO":"HOUSE_NO","E_COORD97":"E_COORD97","N_COORD97":"N_COORD97","ADDRESS":"ADDRESS","OBJECTID":"OBJECTID"},"geometryType":"esriGeometryPoint","spatialReference":{"wkid":102443,"latestWkid":3826},"fields":[{"name":"ID","type":"esriFieldTypeDouble","alias":"ID"},{"name":"DIS_CODE","type":"esriFieldTypeInteger","alias":"DIS_CODE"},{"name":"TOWNNAME","type":"esriFieldTypeString","alias":"TOWNNAME","length":8},{"name":"LI","type":"esriFieldTypeString","alias":"LI","length":8},{"name":"LIN","type":"esriFieldTypeString","alias":"LIN","length":12},{"name":"STREET","type":"esriFieldTypeString","alias":"STREET","length":20},{"name":"SECT","type":"esriFieldTypeString","alias":"SECT","length":8},{"name":"MAREA","type":"esriFieldTypeString","alias":"MAREA","length":12},{"name":"LANE","type":"esriFieldTypeString","alias":"LANE","length":10},{"name":"ALLEY","type":"esriFieldTypeString","alias":"ALLEY","length":10},{"name":"HOUSE_NO","type":"esriFieldTypeString","alias":"HOUSE_NO","length":20},{"name":"E_COORD97","type":"esriFieldTypeDouble","alias":"E_COORD97"},{"name":"N_COORD97","type":"esriFieldTypeDouble","alias":"N_COORD97"},{"name":"ADDRESS","type":"esriFieldTypeString","alias":"ADDRESS","length":50},{"name":"OBJECTID","type":"esriFieldTypeOID","alias":"OBJECTID"}],"features":[{"attributes":{"ID":227205,"DIS_CODE":0,"TOWNNAME":"新營區","LI":"南紙里","LIN":"3鄰","STREET":"太子路","SECT":" ","MAREA":" ","LANE":"１５３巷","ALLEY":" ","HOUSE_NO":"３號","E_COORD97":177935.07999999999,"N_COORD97":2577839.5099999998,"ADDRESS":"太子路１５３巷３號","OBJECTID":227201},"geometry":{"x":177935.08000000101,"y":2577839.5100000035}},{"attributes":{"ID":227206,"DIS_CODE":0,"TOWNNAME":"六甲區","LI":"水林里","LIN":"3鄰","STREET":"中山路","SECT":" ","MAREA":" ","LANE":"２０６巷","ALLEY":" ","HOUSE_NO":"１９號","E_COORD97":183155.54000000001,"N_COORD97":2570223.52,"ADDRESS":"中山路２０６巷１９號","OBJECTID":227202},"geometry":{"x":183155.54000000004,"y":2570223.5199999996}},{"attributes":{"ID":227207,"DIS_CODE":0,"TOWNNAME":"六甲區","LI":"水林里","LIN":"3鄰","STREET":"中山路","SECT":" ","MAREA":" ","LANE":"２０６巷","ALLEY":" ","HOUSE_NO":"２１號","E_COORD97":183155.67999999999,"N_COORD97":2570239.6200000001,"ADDRESS":"中山路２０６巷２１號","OBJECTID":227203},"geometry":{"x":183155.68000000063,"y":2570239.6200000029}},{"attributes":{"ID":227208,"DIS_CODE":0,"TOWNNAME":"六甲區","LI":"水林里","LIN":"3鄰","STREET":"中山路","SECT":" ","MAREA":" ","LANE":"２０６巷","ALLEY":" ","HOUSE_NO":"２５號","E_COORD97":183160.03,"N_COORD97":2570289.75,"ADDRESS":"中山路２０６巷２５號","OBJECTID":227204},"geometry":{"x":183160.03000000119,"y":2570289.75}},{"attributes":{"ID":227209,"DIS_CODE":0,"TOWNNAME":"柳營區","LI":"東昇里","LIN":"3鄰","STREET":"成功街","SECT":" ","MAREA":" ","LANE":"１３６巷","ALLEY":" ","HOUSE_NO":"３０號","E_COORD97":179891.03,"N_COORD97":2575413.9900000002,"ADDRESS":"成功街１３６巷３０號","OBJECTID":227205},"geometry":{"x":179891.03000000026,"y":2575413.9900000021}},{"attributes":{"ID":227210,"DIS_CODE":0,"TOWNNAME":"北區","LI":"國姓里","LIN":"3鄰","STREET":"公園路","SECT":" ","MAREA":" ","LANE":"４３７巷","ALLEY":" ","HOUSE_NO":"２０號","E_COORD97":168957.87,"N_COORD97":2545417.71,"ADDRESS":"公園路４３７巷２０號","OBJECTID":227206},"geometry":{"x":168957.87000000011,"y":2545417.7100000028}},{"attributes":{"ID":227211,"DIS_CODE":0,"TOWNNAME":"北區","LI":"國姓里","LIN":"3鄰","STREET":"公園路","SECT":" ","MAREA":" ","LANE":"４３７巷","ALLEY":" ","HOUSE_NO":"２１號","E_COORD97":168939.82999999999,"N_COORD97":2545399.3999999999,"ADDRESS":"公園路４３７巷２１號","OBJECTID":227207},"geometry":{"x":168939.83000000007,"y":2545399.4000000022}},{"attributes":{"ID":227212,"DIS_CODE":0,"TOWNNAME":"北區","LI":"國姓里","LIN":"3鄰","STREET":"公園路","SECT":" ","MAREA":" ","LANE":"４３７巷","ALLEY":" ","HOUSE_NO":"２２號","E_COORD97":168953.42999999999,"N_COORD97":2545418.27,"ADDRESS":"公園路４３７巷２２號","OBJECTID":227208},"geometry":{"x":168953.4299999997,"y":2545418.2699999996}},{"attributes":{"ID":227213,"DIS_CODE":0,"TOWNNAME":"南區","LI":"建南里","LIN":"3鄰","STREET":"德興路","SECT":" ","MAREA":" ","LANE":"２３７巷","ALLEY":" ","HOUSE_NO":"１號","E_COORD97":167240.12,"N_COORD97":2540122.8999999999,"ADDRESS":"德興路２３７巷１號","OBJECTID":227209},"geometry":{"x":167240.12000000104,"y":2540122.9000000041}},{"attributes":{"ID":227214,"DIS_CODE":0,"TOWNNAME":"南區","LI":"建南里","LIN":"3鄰","STREET":"德興路","SECT":" ","MAREA":" ","LANE":"２３７巷","ALLEY":" ","HOUSE_NO":"３號","E_COORD97":167243.75,"N_COORD97":2540122.1800000002,"ADDRESS":"德興路２３７巷３號","OBJECTID":227210},"geometry":{"x":167243.75000000186,"y":2540122.1799999997}},{"attributes":{"ID":227215,"DIS_CODE":0,"TOWNNAME":"南區","LI":"建南里","LIN":"3鄰","STREET":"德興路","SECT":" ","MAREA":" ","LANE":"２３７巷","ALLEY":" ","HOUSE_NO":"５號","E_COORD97":167247.63,"N_COORD97":2540122.4199999999,"ADDRESS":"德興路２３７巷５號","OBJECTID":227211},"geometry":{"x":167247.62999999896,"y":2540122.4200000037}},{"attributes":{"ID":227216,"DIS_CODE":0,"TOWNNAME":"南區","LI":"建南里","LIN":"3鄰","STREET":"德興路","SECT":" ","MAREA":" ","LANE":"２３７巷","ALLEY":" ","HOUSE_NO":"７號","E_COORD97":167251.98999999999,"N_COORD97":2540122.1800000002,"ADDRESS":"德興路２３７巷７號","OBJECTID":227212},"geometry":{"x":167251.99000000022,"y":2540122.1799999997}},{"attributes":{"ID":227217,"DIS_CODE":0,"TOWNNAME":"南區","LI":"文南里","LIN":"3鄰","STREET":"金華路","SECT":"二段","MAREA":" ","LANE":"２８９巷","ALLEY":" ","HOUSE_NO":"１號","E_COORD97":167085.56,"N_COORD97":2542775.54,"ADDRESS":"金華路二段２８９巷１號","OBJECTID":227213},"geometry":{"x":167085.56000000052,"y":2542775.5400000028}},{"attributes":{"ID":227218,"DIS_CODE":0,"TOWNNAME":"永康區","LI":"南灣里","LIN":"8鄰","STREET":"南興路","SECT":" ","MAREA":" ","LANE":"２巷","ALLEY":" ","HOUSE_NO":"３之１號","E_COORD97":174242.59,"N_COORD97":2543950.5899999999,"ADDRESS":"南興路２巷３之１號","OBJECTID":227214},"geometry":{"x":174242.59000000078,"y":2543950.5899999999}},{"attributes":{"ID":227219,"DIS_CODE":0,"TOWNNAME":"永康區","LI":"埔園里","LIN":"30鄰","STREET":"龍埔街","SECT":" ","MAREA":" ","LANE":"４３０巷","ALLEY":" ","HOUSE_NO":"１９之１號","E_COORD97":173938.84,"N_COORD97":2548431.7599999998,"ADDRESS":"龍埔街４３０巷１９之１號","OBJECTID":227215},"geometry":{"x":173938.84000000171,"y":2548431.7599999998}},{"attributes":{"ID":227220,"DIS_CODE":0,"TOWNNAME":"永康區","LI":"埔園里","LIN":"30鄰","STREET":"龍埔街","SECT":" ","MAREA":" ","LANE":"４３０巷","ALLEY":" ","HOUSE_NO":"１９之２號","E_COORD97":173934.23000000001,"N_COORD97":2548430.6899999999,"ADDRESS":"龍埔街４３０巷１９之２號","OBJECTID":227216},"geometry":{"x":173934.23000000138,"y":2548430.6900000013}},{"attributes":{"ID":227221,"DIS_CODE":0,"TOWNNAME":"永康區","LI":"埔園里","LIN":"30鄰","STREET":"龍埔街","SECT":" ","MAREA":" ","LANE":"４３０巷","ALLEY":" ","HOUSE_NO":"１９之３號","E_COORD97":173929.51999999999,"N_COORD97":2548431.3199999998,"ADDRESS":"龍埔街４３０巷１９之３號","OBJECTID":227217},"geometry":{"x":173929.52000000048,"y":2548431.3200000022}},{"attributes":{"ID":227222,"DIS_CODE":0,"TOWNNAME":"新營區","LI":"大宏里","LIN":"11鄰","STREET":"三民路","SECT":" ","MAREA":" ","LANE":"８巷","ALLEY":" ","HOUSE_NO":"２７號","E_COORD97":180494.112827,"N_COORD97":2578567.6789199999,"ADDRESS":"三民路８巷２７號","OBJECTID":227218},"geometry":{"x":180494.11282700114,"y":2578567.6789190006}},{"attributes":{"ID":227223,"DIS_CODE":0,"TOWNNAME":"永康區","LI":"埔園里","LIN":"30鄰","STREET":"龍埔街","SECT":" ","MAREA":" ","LANE":"４３０巷","ALLEY":" ","HOUSE_NO":"１９之５號","E_COORD97":173925.04000000001,"N_COORD97":2548435.98,"ADDRESS":"龍埔街４３０巷１９之５號","OBJECTID":227219},"geometry":{"x":173925.04000000004,"y":2548435.9800000042}},{"attributes":{"ID":227224,"DIS_CODE":0,"TOWNNAME":"南區","LI":"建南里","LIN":"3鄰","STREET":"德興路","SECT":" ","MAREA":" ","LANE":"２４７巷","ALLEY":" ","HOUSE_NO":"２２號","E_COORD97":167277.82000000001,"N_COORD97":2540052.3599999999,"ADDRESS":"德興路２４７巷２２號","OBJECTID":227220},"geometry":{"x":167277.82000000123,"y":2540052.3600000013}},{"attributes":{"ID":227225,"DIS_CODE":0,"TOWNNAME":"南區","LI":"建南里","LIN":"3鄰","STREET":"德興路","SECT":" ","MAREA":" ","LANE":"２４７巷","ALLEY":" ","HOUSE_NO":"２４號","E_COORD97":167281.91,"N_COORD97":2540052.3599999999,"ADDRESS":"德興路２４７巷２４號","OBJECTID":227221},"geometry":{"x":167281.91000000108,"y":2540052.3600000013}},{"attributes":{"ID":227226,"DIS_CODE":0,"TOWNNAME":"南區","LI":"建南里","LIN":"3鄰","STREET":"德興路","SECT":" ","MAREA":" ","LANE":"２４７巷","ALLEY":" ","HOUSE_NO":"２６號","E_COORD97":167287.20999999999,"N_COORD97":2540052.6000000001,"ADDRESS":"德興路２４７巷２６號","OBJECTID":227222},"geometry":{"x":167287.20999999996,"y":2540052.5999999996}},{"attributes":{"ID":227227,"DIS_CODE":0,"TOWNNAME":"南區","LI":"建南里","LIN":"3鄰","STREET":"德興路","SECT":" ","MAREA":" ","LANE":"２３７巷","ALLEY":" ","HOUSE_NO":"７５號","E_COORD97":167330.70999999999,"N_COORD97":2540041.7000000002,"ADDRESS":"德興路２３７巷７５號","OBJECTID":227223},"geometry":{"x":167330.71000000089,"y":2540041.700000003}},{"attributes":{"ID":227228,"DIS_CODE":0,"TOWNNAME":"南區","LI":"建南里","LIN":"3鄰","STREET":"德興路","SECT":" ","MAREA":" ","LANE":"２３７巷","ALLEY":" ","HOUSE_NO":"７７號","E_COORD97":167331.73999999999,"N_COORD97":2540026.0099999998,"ADDRESS":"德興路２３７巷７７號","OBJECTID":227224},"geometry":{"x":167331.74000000022,"y":2540026.0099999998}},{"attributes":{"ID":227229,"DIS_CODE":0,"TOWNNAME":"歸仁區","LI":"西埔里","LIN":"3鄰","STREET":"西埔三街","SECT":" ","MAREA":" ","LANE":"５１巷","ALLEY":" ","HOUSE_NO":"３５號","E_COORD97":176956.69,"N_COORD97":2543991.25,"ADDRESS":"西埔三街５１巷３５號","OBJECTID":227225},"geometry":{"x":176956.69000000134,"y":2543991.25}},{"attributes":{"ID":227230,"DIS_CODE":0,"TOWNNAME":"玉井區","LI":"玉井里","LIN":"3鄰","STREET":"憲政街","SECT":" ","MAREA":" ","LANE":"６６巷","ALLEY":" ","HOUSE_NO":"８號","E_COORD97":194556.16,"N_COORD97":2558079.5699999998,"ADDRESS":"憲政街６６巷８號","OBJECTID":227226},"geometry":{"x":194556.16000000108,"y":2558079.5700000003}},{"attributes":{"ID":227231,"DIS_CODE":0,"TOWNNAME":"玉井區","LI":"玉井里","LIN":"3鄰","STREET":"憲政街","SECT":" ","MAREA":" ","LANE":"６６巷","ALLEY":" ","HOUSE_NO":"６號","E_COORD97":194551.14000000001,"N_COORD97":2558077.8999999999,"ADDRESS":"憲政街６６巷６號","OBJECTID":227227},"geometry":{"x":194551.13999999966,"y":2558077.9000000004}},{"attributes":{"ID":227232,"DIS_CODE":0,"TOWNNAME":"玉井區","LI":"玉井里","LIN":"3鄰","STREET":"憲政街","SECT":" ","MAREA":" ","LANE":"４８巷","ALLEY":" ","HOUSE_NO":"１３號","E_COORD97":194570.10999999999,"N_COORD97":2558102.9700000002,"ADDRESS":"憲政街４８巷１３號","OBJECTID":227228},"geometry":{"x":194570.11000000127,"y":2558102.9700000025}},{"attributes":{"ID":227233,"DIS_CODE":0,"TOWNNAME":"玉井區","LI":"玉井里","LIN":"3鄰","STREET":"憲政街","SECT":" ","MAREA":" ","LANE":"４８巷","ALLEY":" ","HOUSE_NO":"１號","E_COORD97":194589.95000000001,"N_COORD97":2558091.5699999998,"ADDRESS":"憲政街４８巷１號","OBJECTID":227229},"geometry":{"x":194589.95000000112,"y":2558091.5700000022}},{"attributes":{"ID":227234,"DIS_CODE":0,"TOWNNAME":"玉井區","LI":"玉井里","LIN":"3鄰","STREET":"憲政街","SECT":" ","MAREA":" ","LANE":"４８巷","ALLEY":" ","HOUSE_NO":"５號","E_COORD97":194572.45999999999,"N_COORD97":2558085.5699999998,"ADDRESS":"憲政街４８巷５號","OBJECTID":227230},"geometry":{"x":194572.46000000089,"y":2558085.5700000022}},{"attributes":{"ID":227235,"DIS_CODE":0,"TOWNNAME":"歸仁區","LI":"西埔里","LIN":"3鄰","STREET":"保大路","SECT":"二段","MAREA":" ","LANE":"１４５巷","ALLEY":" ","HOUSE_NO":"１９號","E_COORD97":176942.48000000001,"N_COORD97":2544058.25,"ADDRESS":"保大路二段１４５巷１９號","OBJECTID":227231},"geometry":{"x":176942.48000000231,"y":2544058.25}},{"attributes":{"ID":227236,"DIS_CODE":0,"TOWNNAME":"歸仁區","LI":"許厝里","LIN":"3鄰","STREET":"仁愛一街","SECT":" ","MAREA":" ","LANE":"１２巷","ALLEY":" ","HOUSE_NO":"１６號","E_COORD97":178331.56,"N_COORD97":2540586.8999999999,"ADDRESS":"仁愛一街１２巷１６號","OBJECTID":227232},"geometry":{"x":178331.56000000052,"y":2540586.9000000004}},{"attributes":{"ID":227237,"DIS_CODE":0,"TOWNNAME":"北區","LI":"公園里","LIN":"3鄰","STREET":"北門路","SECT":"二段","MAREA":" ","LANE":"９１巷","ALLEY":" ","HOUSE_NO":"１１號","E_COORD97":169253.59,"N_COORD97":2544410.6499999999,"ADDRESS":"北門路二段９１巷１１號","OBJECTID":227233},"geometry":{"x":169253.59000000078,"y":2544410.6500000022}},{"attributes":{"ID":227238,"DIS_CODE":0,"TOWNNAME":"北區","LI":"公園里","LIN":"3鄰","STREET":"北門路","SECT":"二段","MAREA":" ","LANE":"９１巷","ALLEY":" ","HOUSE_NO":"１３號","E_COORD97":169254.14999999999,"N_COORD97":2544413.1600000001,"ADDRESS":"北門路二段９１巷１３號","OBJECTID":227234},"geometry":{"x":169254.1500000013,"y":2544413.1600000039}},{"attributes":{"ID":227239,"DIS_CODE":0,"TOWNNAME":"麻豆區","LI":"大埕里","LIN":"9鄰","STREET":" ","SECT":" ","MAREA":"大埕","LANE":" ","ALLEY":" ","HOUSE_NO":"６５號","E_COORD97":173063.87,"N_COORD97":2565476.8999999999,"ADDRESS":"大埕６５號","OBJECTID":227235},"geometry":{"x":173063.87000000011,"y":2565476.9000000022}},{"attributes":{"ID":227240,"DIS_CODE":0,"TOWNNAME":"善化區","LI":"胡厝里","LIN":"28鄰","STREET":" ","SECT":" ","MAREA":"烏橋","LANE":" ","ALLEY":" ","HOUSE_NO":"４６號","E_COORD97":175317.57000000001,"N_COORD97":2558911.25,"ADDRESS":"烏橋４６號","OBJECTID":227236},"geometry":{"x":175317.56999999937,"y":2558911.2500000019}},{"attributes":{"ID":227241,"DIS_CODE":0,"TOWNNAME":"北區","LI":"公園里","LIN":"3鄰","STREET":"北門路","SECT":"二段","MAREA":" ","LANE":"９１巷","ALLEY":" ","HOUSE_NO":"１５號","E_COORD97":169254.64999999999,"N_COORD97":2544416.1600000001,"ADDRESS":"北門路二段９１巷１５號","OBJECTID":227237},"geometry":{"x":169254.65000000037,"y":2544416.1600000001}},{"attributes":{"ID":227242,"DIS_CODE":0,"TOWNNAME":"北區","LI":"公園里","LIN":"3鄰","STREET":"北門路","SECT":"二段","MAREA":" ","LANE":"９１巷","ALLEY":" ","HOUSE_NO":"１７號","E_COORD97":169255.28,"N_COORD97":2544419.7200000002,"ADDRESS":"北門路二段９１巷１７號","OBJECTID":227238},"geometry":{"x":169255.28000000026,"y":2544419.7200000007}},{"attributes":{"ID":227243,"DIS_CODE":0,"TOWNNAME":"北區","LI":"公園里","LIN":"3鄰","STREET":"北門路","SECT":"二段","MAREA":" ","LANE":"９１巷","ALLEY":" ","HOUSE_NO":"１９號","E_COORD97":169255.72,"N_COORD97":2544421.9100000001,"ADDRESS":"北門路二段９１巷１９號","OBJECTID":227239},"geometry":{"x":169255.7200000016,"y":2544421.9100000039}},{"attributes":{"ID":227244,"DIS_CODE":0,"TOWNNAME":"北區","LI":"公園里","LIN":"3鄰","STREET":"北門路","SECT":"二段","MAREA":" ","LANE":"９１巷","ALLEY":" ","HOUSE_NO":"１號","E_COORD97":169261.07999999999,"N_COORD97":2544420.3199999998,"ADDRESS":"北門路二段９１巷１號","OBJECTID":227240},"geometry":{"x":169261.08000000101,"y":2544420.3200000022}},{"attributes":{"ID":227245,"DIS_CODE":0,"TOWNNAME":"北區","LI":"公園里","LIN":"3鄰","STREET":"北門路","SECT":"二段","MAREA":" ","LANE":"９１巷","ALLEY":" ","HOUSE_NO":"２１號","E_COORD97":169251.59,"N_COORD97":2544422.6000000001,"ADDRESS":"北門路二段９１巷２１號","OBJECTID":227241},"geometry":{"x":169251.58999999892,"y":2544422.5999999996}},{"attributes":{"ID":227246,"DIS_CODE":0,"TOWNNAME":"北區","LI":"公園里","LIN":"3鄰","STREET":"北忠街","SECT":" ","MAREA":" ","LANE":"１６巷","ALLEY":" ","HOUSE_NO":"３５號","E_COORD97":169234.73999999999,"N_COORD97":2544418.1899999999,"ADDRESS":"北忠街１６巷３５號","OBJECTID":227242},"geometry":{"x":169234.74000000115,"y":2544418.1899999995}},{"attributes":{"ID":227247,"DIS_CODE":0,"TOWNNAME":"北區","LI":"公園里","LIN":"3鄰","STREET":"北忠街","SECT":" ","MAREA":" ","LANE":"１６巷","ALLEY":" ","HOUSE_NO":"３７號","E_COORD97":169239.67999999999,"N_COORD97":2544420.6499999999,"ADDRESS":"北忠街１６巷３７號","OBJECTID":227243},"geometry":{"x":169239.68000000063,"y":2544420.6500000022}},{"attributes":{"ID":227248,"DIS_CODE":0,"TOWNNAME":"北區","LI":"公園里","LIN":"3鄰","STREET":"北忠街","SECT":" ","MAREA":" ","LANE":"１６巷","ALLEY":" ","HOUSE_NO":"３９號","E_COORD97":169241.60000000001,"N_COORD97":2544428.8700000001,"ADDRESS":"北忠街１６巷３９號","OBJECTID":227244},"geometry":{"x":169241.60000000056,"y":2544428.870000001}},{"attributes":{"ID":227249,"DIS_CODE":0,"TOWNNAME":"北區","LI":"公園里","LIN":"3鄰","STREET":"北忠街","SECT":" ","MAREA":" ","LANE":"１６巷","ALLEY":" ","HOUSE_NO":"４１號","E_COORD97":169242.70000000001,"N_COORD97":2544436.1400000001,"ADDRESS":"北忠街１６巷４１號","OBJECTID":227245},"geometry":{"x":169242.69999999925,"y":2544436.1400000006}},{"attributes":{"ID":227250,"DIS_CODE":0,"TOWNNAME":"北區","LI":"公園里","LIN":"3鄰","STREET":"北忠街","SECT":" ","MAREA":" ","LANE":"１６巷","ALLEY":" ","HOUSE_NO":"４３號","E_COORD97":169245.32000000001,"N_COORD97":2544442.6299999999,"ADDRESS":"北忠街１６巷４３號","OBJECTID":227246},"geometry":{"x":169245.3200000003,"y":2544442.6300000027}},{"attributes":{"ID":227251,"DIS_CODE":0,"TOWNNAME":"北區","LI":"公園里","LIN":"3鄰","STREET":"北忠街","SECT":" ","MAREA":" ","LANE":"１６巷","ALLEY":" ","HOUSE_NO":"４７號","E_COORD97":169216.47,"N_COORD97":2544448.04,"ADDRESS":"北忠街１６巷４７號","OBJECTID":227247},"geometry":{"x":169216.46999999974,"y":2544448.040000001}},{"attributes":{"ID":227252,"DIS_CODE":0,"TOWNNAME":"北區","LI":"正覺里","LIN":"3鄰","STREET":"西門路","SECT":"四段","MAREA":" ","LANE":"３８０巷","ALLEY":" ","HOUSE_NO":"３號","E_COORD97":169055.32999999999,"N_COORD97":2546114.7000000002,"ADDRESS":"西門路四段３８０巷３號","OBJECTID":227248},"geometry":{"x":169055.33000000194,"y":2546114.7000000011}},{"attributes":{"ID":227253,"DIS_CODE":0,"TOWNNAME":"北區","LI":"正覺里","LIN":"3鄰","STREET":"西門路","SECT":"四段","MAREA":" ","LANE":"３８０巷","ALLEY":" ","HOUSE_NO":"５號","E_COORD97":169060.70999999999,"N_COORD97":2546111.4700000002,"ADDRESS":"西門路四段３８０巷５號","OBJECTID":227249},"geometry":{"x":169060.70999999996,"y":2546111.4700000025}},{"attributes":{"ID":227254,"DIS_CODE":0,"TOWNNAME":"北區","LI":"正覺里","LIN":"3鄰","STREET":"西門路","SECT":"四段","MAREA":" ","LANE":"３８０巷","ALLEY":" ","HOUSE_NO":"７號","E_COORD97":169065.12,"N_COORD97":2546109.71,"ADDRESS":"西門路四段３８０巷７號","OBJECTID":227250},"geometry":{"x":169065.12000000011,"y":2546109.7100000028}},{"attributes":{"ID":227255,"DIS_CODE":0,"TOWNNAME":"北區","LI":"正覺里","LIN":"3鄰","STREET":"西門路","SECT":"四段","MAREA":" ","LANE":"３８０巷","ALLEY":" ","HOUSE_NO":"９號","E_COORD97":169069.92000000001,"N_COORD97":2546108.4399999999,"ADDRESS":"西門路四段３８０巷９號","OBJECTID":227251},"geometry":{"x":169069.92000000179,"y":2546108.4399999995}},{"attributes":{"ID":227256,"DIS_CODE":0,"TOWNNAME":"仁德區","LI":"成功里","LIN":"43鄰","STREET":"文華路","SECT":"二段","MAREA":" ","LANE":"３１６巷","ALLEY":" ","HOUSE_NO":"９號","E_COORD97":170976.37,"N_COORD97":2537751.77,"ADDRESS":"文華路二段３１６巷９號","OBJECTID":227252},"geometry":{"x":170976.37000000104,"y":2537751.7699999996}},{"attributes":{"ID":227257,"DIS_CODE":0,"TOWNNAME":"仁德區","LI":"後壁里","LIN":"12鄰","STREET":"德善路","SECT":" ","MAREA":" ","LANE":"２４０巷","ALLEY":" ","HOUSE_NO":"２３號","E_COORD97":173846.41,"N_COORD97":2538613.0099999998,"ADDRESS":"德善路２４０巷２３號","OBJECTID":227253},"geometry":{"x":173846.41000000015,"y":2538613.0100000035}},{"attributes":{"ID":227258,"DIS_CODE":0,"TOWNNAME":"六甲區","LI":"二甲里","LIN":"3鄰","STREET":"民權街","SECT":" ","MAREA":" ","LANE":"１６３巷","ALLEY":" ","HOUSE_NO":"１０號","E_COORD97":183170.39000000001,"N_COORD97":2569664.9300000002,"ADDRESS":"民權街１６３巷１０號","OBJECTID":227254},"geometry":{"x":183170.39000000153,"y":2569664.9299999997}},{"attributes":{"ID":227259,"DIS_CODE":0,"TOWNNAME":"仁德區","LI":"保安里","LIN":"4鄰","STREET":"文賢路","SECT":"一段","MAREA":" ","LANE":"８６４巷","ALLEY":" ","HOUSE_NO":"１１號","E_COORD97":171536.54000000001,"N_COORD97":2536012.5699999998,"ADDRESS":"文賢路一段８６４巷１１號","OBJECTID":227255},"geometry":{"x":171536.54000000004,"y":2536012.570000004}},{"attributes":{"ID":227260,"DIS_CODE":0,"TOWNNAME":"新營區","LI":"民生里","LIN":"3鄰","STREET":"中華路","SECT":" ","MAREA":" ","LANE":"７６巷","ALLEY":" ","HOUSE_NO":"６號","E_COORD97":179441.32999999999,"N_COORD97":2578183.3199999998,"ADDRESS":"中華路７６巷６號","OBJECTID":227256},"geometry":{"x":179441.33000000007,"y":2578183.3200000003}},{"attributes":{"ID":227261,"DIS_CODE":0,"TOWNNAME":"新營區","LI":"新東里","LIN":"3鄰","STREET":"東大街","SECT":" ","MAREA":" ","LANE":"１２巷","ALLEY":" ","HOUSE_NO":"１６號","E_COORD97":181045.35999999999,"N_COORD97":2579047.3399999999,"ADDRESS":"東大街１２巷１６號","OBJECTID":227257},"geometry":{"x":181045.3599999994,"y":2579047.3399999999}},{"attributes":{"ID":227262,"DIS_CODE":0,"TOWNNAME":"仁德區","LI":"成功里","LIN":"6鄰","STREET":"成功三街","SECT":" ","MAREA":" ","LANE":"１巷","ALLEY":" ","HOUSE_NO":"２號","E_COORD97":171180.20000000001,"N_COORD97":2540036.5099999998,"ADDRESS":"成功三街１巷２號","OBJECTID":227258},"geometry":{"x":171180.20000000019,"y":2540036.5099999998}},{"attributes":{"ID":227263,"DIS_CODE":0,"TOWNNAME":"歸仁區","LI":"七甲里","LIN":"3鄰","STREET":"中正北路","SECT":"二段","MAREA":" ","LANE":"５０１巷","ALLEY":" ","HOUSE_NO":"６８號","E_COORD97":176942.45999999999,"N_COORD97":2543265.2799999998,"ADDRESS":"中正北路二段５０１巷６８號","OBJECTID":227259},"geometry":{"x":176942.46000000089,"y":2543265.2799999993}},{"attributes":{"ID":227264,"DIS_CODE":0,"TOWNNAME":"歸仁區","LI":"七甲里","LIN":"3鄰","STREET":"中正北路","SECT":"二段","MAREA":" ","LANE":"５０１巷","ALLEY":" ","HOUSE_NO":"１６號","E_COORD97":177429.57000000001,"N_COORD97":2543301.2599999998,"ADDRESS":"中正北路二段５０１巷１６號","OBJECTID":227260},"geometry":{"x":177429.5700000003,"y":2543301.2600000016}},{"attributes":{"ID":227265,"DIS_CODE":0,"TOWNNAME":"歸仁區","LI":"武東里","LIN":"3鄰","STREET":"中正南路","SECT":"二段","MAREA":" ","LANE":"２５３巷","ALLEY":" ","HOUSE_NO":"３７號","E_COORD97":175485.76000000001,"N_COORD97":2535226.2799999998,"ADDRESS":"中正南路二段２５３巷３７號","OBJECTID":227261},"geometry":{"x":175485.76000000071,"y":2535226.2799999993}},{"attributes":{"ID":227266,"DIS_CODE":0,"TOWNNAME":"歸仁區","LI":"七甲里","LIN":"3鄰","STREET":"中正北路","SECT":"二段","MAREA":" ","LANE":"５１６巷","ALLEY":" ","HOUSE_NO":"３６號","E_COORD97":177522.57000000001,"N_COORD97":2543243.2599999998,"ADDRESS":"中正北路二段５１６巷３６號","OBJECTID":227262},"geometry":{"x":177522.5700000003,"y":2543243.2600000016}},{"attributes":{"ID":227267,"DIS_CODE":0,"TOWNNAME":"歸仁區","LI":"大廟里","LIN":"3鄰","STREET":"大廟二街","SECT":" ","MAREA":" ","LANE":"９３巷","ALLEY":" ","HOUSE_NO":"１２號","E_COORD97":176075.20000000001,"N_COORD97":2543909.1699999999,"ADDRESS":"大廟二街９３巷１２號","OBJECTID":227263},"geometry":{"x":176075.20000000112,"y":2543909.1700000018}},{"attributes":{"ID":227268,"DIS_CODE":0,"TOWNNAME":"歸仁區","LI":"武東里","LIN":"3鄰","STREET":"武東二街","SECT":" ","MAREA":" ","LANE":"２０巷","ALLEY":" ","HOUSE_NO":"１號","E_COORD97":175468.14000000001,"N_COORD97":2535347.25,"ADDRESS":"武東二街２０巷１號","OBJECTID":227264},"geometry":{"x":175468.1400000006,"y":2535347.2500000019}},{"attributes":{"ID":227269,"DIS_CODE":0,"TOWNNAME":"歸仁區","LI":"七甲里","LIN":"3鄰","STREET":"中正北路","SECT":"二段","MAREA":" ","LANE":"５１６巷","ALLEY":" ","HOUSE_NO":"３０號","E_COORD97":177526.76999999999,"N_COORD97":2543255.2599999998,"ADDRESS":"中正北路二段５１６巷３０號","OBJECTID":227265},"geometry":{"x":177526.77000000048,"y":2543255.2599999998}},{"attributes":{"ID":227270,"DIS_CODE":0,"TOWNNAME":"歸仁區","LI":"文化里","LIN":"3鄰","STREET":"國光街","SECT":" ","MAREA":" ","LANE":"１４３巷","ALLEY":" ","HOUSE_NO":"３號","E_COORD97":177322.63,"N_COORD97":2541204.3300000001,"ADDRESS":"國光街１４３巷３號","OBJECTID":227266},"geometry":{"x":177322.63000000082,"y":2541204.3300000001}},{"attributes":{"ID":227271,"DIS_CODE":0,"TOWNNAME":"歸仁區","LI":"文化里","LIN":"3鄰","STREET":"國光街","SECT":" ","MAREA":" ","LANE":"１４３巷","ALLEY":" ","HOUSE_NO":"２號","E_COORD97":177345.32999999999,"N_COORD97":2541216.3300000001,"ADDRESS":"國光街１４３巷２號","OBJECTID":227267},"geometry":{"x":177345.33000000101,"y":2541216.3300000019}},{"attributes":{"ID":227272,"DIS_CODE":0,"TOWNNAME":"柳營區","LI":"大農里","LIN":"3鄰","STREET":"義士路","SECT":"一段","MAREA":" ","LANE":"２６２巷","ALLEY":" ","HOUSE_NO":"１０３號","E_COORD97":186150.39999999999,"N_COORD97":2575827.04,"ADDRESS":"義士路一段２６２巷１０３號","OBJECTID":227268},"geometry":{"x":186150.40000000037,"y":2575827.0399999991}},{"attributes":{"ID":227273,"DIS_CODE":0,"TOWNNAME":"柳營區","LI":"大農里","LIN":"3鄰","STREET":"義士路","SECT":"一段","MAREA":" ","LANE":"２６２巷","ALLEY":" ","HOUSE_NO":"１２１號","E_COORD97":186113.85999999999,"N_COORD97":2575828.3199999998,"ADDRESS":"義士路一段２６２巷１２１號","OBJECTID":227269},"geometry":{"x":186113.86000000034,"y":2575828.3200000022}},{"attributes":{"ID":227274,"DIS_CODE":0,"TOWNNAME":"柳營區","LI":"大農里","LIN":"3鄰","STREET":"義士路","SECT":"一段","MAREA":" ","LANE":"２６２巷","ALLEY":" ","HOUSE_NO":"１５１號","E_COORD97":186065.42000000001,"N_COORD97":2575792.2999999998,"ADDRESS":"義士路一段２６２巷１５１號","OBJECTID":227270},"geometry":{"x":186065.41999999993,"y":2575792.3000000026}},{"attributes":{"ID":227275,"DIS_CODE":0,"TOWNNAME":"柳營區","LI":"大農里","LIN":"3鄰","STREET":"義士路","SECT":"一段","MAREA":" ","LANE":"３８６巷","ALLEY":" ","HOUSE_NO":"１０號","E_COORD97":186147.20000000001,"N_COORD97":2575788.6099999999,"ADDRESS":"義士路一段３８６巷１０號","OBJECTID":227271},"geometry":{"x":186147.20000000205,"y":2575788.6100000013}},{"attributes":{"ID":227276,"DIS_CODE":0,"TOWNNAME":"仁德區","LI":"太子里","LIN":"21鄰","STREET":"長興四街","SECT":" ","MAREA":" ","LANE":"７４巷","ALLEY":" ","HOUSE_NO":"６號","E_COORD97":173920.48000000001,"N_COORD97":2543599.75,"ADDRESS":"長興四街７４巷６號","OBJECTID":227272},"geometry":{"x":173920.48000000138,"y":2543599.7500000019}},{"attributes":{"ID":227277,"DIS_CODE":0,"TOWNNAME":"柳營區","LI":"大農里","LIN":"3鄰","STREET":"義士路","SECT":"一段","MAREA":" ","LANE":"３８６巷","ALLEY":" ","HOUSE_NO":"１號","E_COORD97":186142.92999999999,"N_COORD97":2575745.7200000002,"ADDRESS":"義士路一段３８６巷１號","OBJECTID":227273},"geometry":{"x":186142.9299999997,"y":2575745.7200000007}},{"attributes":{"ID":227278,"DIS_CODE":0,"TOWNNAME":"柳營區","LI":"大農里","LIN":"3鄰","STREET":"義士路","SECT":"一段","MAREA":" ","LANE":"３８６巷","ALLEY":" ","HOUSE_NO":"２６號","E_COORD97":186133.35000000001,"N_COORD97":2575807.1800000002,"ADDRESS":"義士路一段３８６巷２６號","OBJECTID":227274},"geometry":{"x":186133.34999999963,"y":2575807.1799999997}},{"attributes":{"ID":227279,"DIS_CODE":0,"TOWNNAME":"柳營區","LI":"大農里","LIN":"3鄰","STREET":"義士路","SECT":"一段","MAREA":" ","LANE":"３８６巷","ALLEY":" ","HOUSE_NO":"２８號","E_COORD97":186131.67000000001,"N_COORD97":2575822.3500000001,"ADDRESS":"義士路一段３８６巷２８號","OBJECTID":227275},"geometry":{"x":186131.66999999993,"y":2575822.3499999996}},{"attributes":{"ID":227280,"DIS_CODE":0,"TOWNNAME":"柳營區","LI":"大農里","LIN":"3鄰","STREET":"義士路","SECT":"一段","MAREA":" ","LANE":"３８６巷","ALLEY":" ","HOUSE_NO":"２號","E_COORD97":186147.16,"N_COORD97":2575758.04,"ADDRESS":"義士路一段３８６巷２號","OBJECTID":227276},"geometry":{"x":186147.16000000015,"y":2575758.040000001}},{"attributes":{"ID":227281,"DIS_CODE":0,"TOWNNAME":"柳營區","LI":"大農里","LIN":"3鄰","STREET":"義士路","SECT":"一段","MAREA":" ","LANE":"３８６巷","ALLEY":" ","HOUSE_NO":"５號","E_COORD97":186132.95999999999,"N_COORD97":2575771.71,"ADDRESS":"義士路一段３８６巷５號","OBJECTID":227277},"geometry":{"x":186132.95999999996,"y":2575771.7100000028}},{"attributes":{"ID":227282,"DIS_CODE":0,"TOWNNAME":"柳營區","LI":"大農里","LIN":"3鄰","STREET":"義士路","SECT":"一段","MAREA":" ","LANE":"３８６巷","ALLEY":" ","HOUSE_NO":"６號","E_COORD97":186143.95000000001,"N_COORD97":2575767.4199999999,"ADDRESS":"義士路一段３８６巷６號","OBJECTID":227278},"geometry":{"x":186143.95000000205,"y":2575767.4199999999}},{"attributes":{"ID":227283,"DIS_CODE":0,"TOWNNAME":"歸仁區","LI":"武東里","LIN":"3鄰","STREET":"中正南路","SECT":"二段","MAREA":" ","LANE":"２５３巷","ALLEY":" ","HOUSE_NO":"２３號","E_COORD97":175472.45999999999,"N_COORD97":2535224.2799999998,"ADDRESS":"中正南路二段２５３巷２３號","OBJECTID":227279},"geometry":{"x":175472.46000000183,"y":2535224.2800000012}},{"attributes":{"ID":227284,"DIS_CODE":0,"TOWNNAME":"歸仁區","LI":"南興里","LIN":"3鄰","STREET":"文化十二街","SECT":" ","MAREA":" ","LANE":"７１巷","ALLEY":" ","HOUSE_NO":"１２號","E_COORD97":176450.84,"N_COORD97":2541347.3300000001,"ADDRESS":"文化十二街７１巷１２號","OBJECTID":227280},"geometry":{"x":176450.83999999985,"y":2541347.3300000038}},{"attributes":{"ID":227285,"DIS_CODE":0,"TOWNNAME":"歸仁區","LI":"八甲里","LIN":"3鄰","STREET":"大光街","SECT":" ","MAREA":" ","LANE":"６８巷","ALLEY":" ","HOUSE_NO":"９號","E_COORD97":178025.37,"N_COORD97":2541712.6099999999,"ADDRESS":"大光街６８巷９號","OBJECTID":227281},"geometry":{"x":178025.37000000011,"y":2541712.6099999994}},{"attributes":{"ID":227286,"DIS_CODE":0,"TOWNNAME":"歸仁區","LI":"武東里","LIN":"3鄰","STREET":"武東二街","SECT":" ","MAREA":" ","LANE":"２０巷","ALLEY":" ","HOUSE_NO":"９號","E_COORD97":175462.94,"N_COORD97":2535323.25,"ADDRESS":"武東二街２０巷９號","OBJECTID":227282},"geometry":{"x":175462.94000000134,"y":2535323.2500000019}},{"attributes":{"ID":227287,"DIS_CODE":0,"TOWNNAME":"歸仁區","LI":"武東里","LIN":"3鄰","STREET":"武東二街","SECT":" ","MAREA":" ","LANE":"２０巷","ALLEY":" ","HOUSE_NO":"３５號","E_COORD97":175465.79000000001,"N_COORD97":2535233.25,"ADDRESS":"武東二街２０巷３５號","OBJECTID":227283},"geometry":{"x":175465.79000000097,"y":2535233.25}},{"attributes":{"ID":227288,"DIS_CODE":0,"TOWNNAME":"歸仁區","LI":"南興里","LIN":"3鄰","STREET":"文化十二街","SECT":" ","MAREA":" ","LANE":"７１巷","ALLEY":" ","HOUSE_NO":"３號","E_COORD97":176438.29000000001,"N_COORD97":2541336.3300000001,"ADDRESS":"文化十二街７１巷３號","OBJECTID":227284},"geometry":{"x":176438.29000000097,"y":2541336.3300000001}},{"attributes":{"ID":227289,"DIS_CODE":0,"TOWNNAME":"歸仁區","LI":"南興里","LIN":"3鄰","STREET":"文化十二街","SECT":" ","MAREA":" ","LANE":"７１巷","ALLEY":" ","HOUSE_NO":"６號","E_COORD97":176461.89000000001,"N_COORD97":2541347.3300000001,"ADDRESS":"文化十二街７１巷６號","OBJECTID":227285},"geometry":{"x":176461.88999999966,"y":2541347.3300000038}},{"attributes":{"ID":227290,"DIS_CODE":0,"TOWNNAME":"歸仁區","LI":"西埔里","LIN":"3鄰","STREET":"保大路","SECT":"二段","MAREA":" ","LANE":"１４５巷","ALLEY":" ","HOUSE_NO":"２５號","E_COORD97":176951.12,"N_COORD97":2544016.2799999998,"ADDRESS":"保大路二段１４５巷２５號","OBJECTID":227286},"geometry":{"x":176951.12000000011,"y":2544016.2800000012}},{"attributes":{"ID":227291,"DIS_CODE":0,"TOWNNAME":"歸仁區","LI":"文化里","LIN":"3鄰","STREET":"國光街","SECT":" ","MAREA":" ","LANE":"１４３巷","ALLEY":" ","HOUSE_NO":"２７號","E_COORD97":177260.38,"N_COORD97":2541206.3300000001,"ADDRESS":"國光街１４３巷２７號","OBJECTID":227287},"geometry":{"x":177260.37999999989,"y":2541206.3300000019}},{"attributes":{"ID":227292,"DIS_CODE":0,"TOWNNAME":"歸仁區","LI":"大潭里","LIN":"3鄰","STREET":"大潭一街","SECT":" ","MAREA":" ","LANE":"５１巷","ALLEY":" ","HOUSE_NO":"８號","E_COORD97":175296.57000000001,"N_COORD97":2534663.25,"ADDRESS":"大潭一街５１巷８號","OBJECTID":227288},"geometry":{"x":175296.5700000003,"y":2534663.2500000019}},{"attributes":{"ID":227293,"DIS_CODE":0,"TOWNNAME":"歸仁區","LI":"南興里","LIN":"3鄰","STREET":"文化十二街","SECT":" ","MAREA":" ","LANE":"７１巷","ALLEY":" ","HOUSE_NO":"１４號","E_COORD97":176447.84,"N_COORD97":2541347.3300000001,"ADDRESS":"文化十二街７１巷１４號","OBJECTID":227289},"geometry":{"x":176447.84000000171,"y":2541347.3300000038}},{"attributes":{"ID":227294,"DIS_CODE":0,"TOWNNAME":"歸仁區","LI":"西埔里","LIN":"3鄰","STREET":"保大路","SECT":"二段","MAREA":" ","LANE":"１４５巷","ALLEY":" ","HOUSE_NO":"２１號","E_COORD97":176953.42000000001,"N_COORD97":2544049.2799999998,"ADDRESS":"保大路二段１４５巷２１號","OBJECTID":227290},"geometry":{"x":176953.41999999993,"y":2544049.2800000012}},{"attributes":{"ID":227295,"DIS_CODE":0,"TOWNNAME":"仁德區","LI":"後壁里","LIN":"13鄰","STREET":"德善路","SECT":" ","MAREA":" ","LANE":"１０８巷","ALLEY":" ","HOUSE_NO":"３１號","E_COORD97":173542.57999999999,"N_COORD97":2538768.52,"ADDRESS":"德善路１０８巷３１號","OBJECTID":227291},"geometry":{"x":173542.58000000194,"y":2538768.5200000033}},{"attributes":{"ID":227296,"DIS_CODE":0,"TOWNNAME":"仁德區","LI":"後壁里","LIN":"15鄰","STREET":"德南路","SECT":" ","MAREA":" ","LANE":"１３７巷","ALLEY":" ","HOUSE_NO":"６８之５號","E_COORD97":173643.29999999999,"N_COORD97":2538661.8700000001,"ADDRESS":"德南路１３７巷６８之５號","OBJECTID":227292},"geometry":{"x":173643.30000000075,"y":2538661.870000001}},{"attributes":{"ID":227297,"DIS_CODE":0,"TOWNNAME":"仁德區","LI":"後壁里","LIN":"25鄰","STREET":"德洋一街","SECT":" ","MAREA":" ","LANE":"１０巷","ALLEY":" ","HOUSE_NO":"２號","E_COORD97":173092.79000000001,"N_COORD97":2539111.0099999998,"ADDRESS":"德洋一街１０巷２號","OBJECTID":227293},"geometry":{"x":173092.79000000004,"y":2539111.0099999998}},{"attributes":{"ID":227298,"DIS_CODE":0,"TOWNNAME":"北區","LI":"國興里","LIN":"3鄰","STREET":"南園街","SECT":" ","MAREA":" ","LANE":"４９巷","ALLEY":" ","HOUSE_NO":"３５號","E_COORD97":170531.26999999999,"N_COORD97":2545499.9500000002,"ADDRESS":"南園街４９巷３５號","OBJECTID":227294},"geometry":{"x":170531.26999999955,"y":2545499.9500000011}},{"attributes":{"ID":227299,"DIS_CODE":0,"TOWNNAME":"北區","LI":"國興里","LIN":"3鄰","STREET":"南園街","SECT":" ","MAREA":" ","LANE":"４９巷","ALLEY":" ","HOUSE_NO":"３７號","E_COORD97":170532.38,"N_COORD97":2545504.7799999998,"ADDRESS":"南園街４９巷３７號","OBJECTID":227295},"geometry":{"x":170532.37999999989,"y":2545504.7800000012}},{"attributes":{"ID":227300,"DIS_CODE":0,"TOWNNAME":"北區","LI":"國興里","LIN":"3鄰","STREET":"南園街","SECT":" ","MAREA":" ","LANE":"４９巷","ALLEY":" ","HOUSE_NO":"３９號","E_COORD97":170532.57000000001,"N_COORD97":2545509.4199999999,"ADDRESS":"南園街４９巷３９號","OBJECTID":227296},"geometry":{"x":170532.57000000123,"y":2545509.4199999999}},{"attributes":{"ID":227301,"DIS_CODE":0,"TOWNNAME":"北區","LI":"國興里","LIN":"3鄰","STREET":"南園街","SECT":" ","MAREA":" ","LANE":"４９巷","ALLEY":" ","HOUSE_NO":"３號","E_COORD97":170520.31,"N_COORD97":2545461.1699999999,"ADDRESS":"南園街４９巷３號","OBJECTID":227297},"geometry":{"x":170520.31000000052,"y":2545461.1700000018}},{"attributes":{"ID":227302,"DIS_CODE":0,"TOWNNAME":"北區","LI":"國興里","LIN":"3鄰","STREET":"南園街","SECT":" ","MAREA":" ","LANE":"４９巷","ALLEY":" ","HOUSE_NO":"４１號","E_COORD97":170534.04999999999,"N_COORD97":2545513.6899999999,"ADDRESS":"南園街４９巷４１號","OBJECTID":227298},"geometry":{"x":170534.05000000075,"y":2545513.6899999995}},{"attributes":{"ID":227303,"DIS_CODE":0,"TOWNNAME":"北區","LI":"國興里","LIN":"3鄰","STREET":"南園街","SECT":" ","MAREA":" ","LANE":"４９巷","ALLEY":" ","HOUSE_NO":"４３號","E_COORD97":170524.20999999999,"N_COORD97":2545510.5299999998,"ADDRESS":"南園街４９巷４３號","OBJECTID":227299},"geometry":{"x":170524.21000000183,"y":2545510.5299999993}},{"attributes":{"ID":227304,"DIS_CODE":0,"TOWNNAME":"北區","LI":"國興里","LIN":"3鄰","STREET":"南園街","SECT":" ","MAREA":" ","LANE":"４９巷","ALLEY":" ","HOUSE_NO":"４５號","E_COORD97":170520.5,"N_COORD97":2545512.5699999998,"ADDRESS":"南園街４９巷４５號","OBJECTID":227300},"geometry":{"x":170520.50000000186,"y":2545512.570000004}},{"attributes":{"ID":227305,"DIS_CODE":0,"TOWNNAME":"北區","LI":"國興里","LIN":"3鄰","STREET":"南園街","SECT":" ","MAREA":" ","LANE":"４９巷","ALLEY":" ","HOUSE_NO":"４７號","E_COORD97":170516.60000000001,"N_COORD97":2545512.7599999998,"ADDRESS":"南園街４９巷４７號","OBJECTID":227301},"geometry":{"x":170516.60000000056,"y":2545512.7599999998}},{"attributes":{"ID":227306,"DIS_CODE":0,"TOWNNAME":"北區","LI":"國興里","LIN":"3鄰","STREET":"南園街","SECT":" ","MAREA":" ","LANE":"４９巷","ALLEY":" ","HOUSE_NO":"４９號","E_COORD97":170512.70000000001,"N_COORD97":2545513.6899999999,"ADDRESS":"南園街４９巷４９號","OBJECTID":227302},"geometry":{"x":170512.70000000112,"y":2545513.6899999995}},{"attributes":{"ID":227307,"DIS_CODE":0,"TOWNNAME":"仁德區","LI":"新田里","LIN":"2鄰","STREET":"新田二街","SECT":" ","MAREA":" ","LANE":"１３８巷","ALLEY":" ","HOUSE_NO":"６號","E_COORD97":174892.98999999999,"N_COORD97":2539964.1499999999,"ADDRESS":"新田二街１３８巷６號","OBJECTID":227303},"geometry":{"x":174892.99000000115,"y":2539964.1500000004}},{"attributes":{"ID":227308,"DIS_CODE":0,"TOWNNAME":"北區","LI":"國興里","LIN":"3鄰","STREET":"南園街","SECT":" ","MAREA":" ","LANE":"４９巷","ALLEY":" ","HOUSE_NO":"５３號","E_COORD97":170520.67999999999,"N_COORD97":2545527.9199999999,"ADDRESS":"南園街４９巷５３號","OBJECTID":227304},"geometry":{"x":170520.68000000156,"y":2545527.9200000018}},{"attributes":{"ID":227309,"DIS_CODE":0,"TOWNNAME":"仁德區","LI":"後壁里","LIN":"12鄰","STREET":"德南路","SECT":" ","MAREA":" ","LANE":"１６５巷","ALLEY":" ","HOUSE_NO":"１８號","E_COORD97":173670.04000000001,"N_COORD97":2538629.2599999998,"ADDRESS":"德南路１６５巷１８號","OBJECTID":227305},"geometry":{"x":173670.04000000097,"y":2538629.2600000016}},{"attributes":{"ID":227310,"DIS_CODE":0,"TOWNNAME":"北區","LI":"國興里","LIN":"3鄰","STREET":"南園街","SECT":" ","MAREA":" ","LANE":"４９巷","ALLEY":" ","HOUSE_NO":"５５號","E_COORD97":170527.17999999999,"N_COORD97":2545527.9199999999,"ADDRESS":"南園街４９巷５５號","OBJECTID":227306},"geometry":{"x":170527.1799999997,"y":2545527.9200000018}},{"attributes":{"ID":227311,"DIS_CODE":0,"TOWNNAME":"北區","LI":"國興里","LIN":"3鄰","STREET":"南園街","SECT":" ","MAREA":" ","LANE":"４９巷","ALLEY":" ","HOUSE_NO":"５７號","E_COORD97":170537.95000000001,"N_COORD97":2545520.8700000001,"ADDRESS":"南園街４９巷５７號","OBJECTID":227307},"geometry":{"x":170537.95000000205,"y":2545520.870000001}},{"attributes":{"ID":227312,"DIS_CODE":0,"TOWNNAME":"北區","LI":"國興里","LIN":"3鄰","STREET":"南園街","SECT":" ","MAREA":" ","LANE":"４９巷","ALLEY":" ","HOUSE_NO":"５９號","E_COORD97":170536.84,"N_COORD97":2545525.8799999999,"ADDRESS":"南園街４９巷５９號","OBJECTID":227308},"geometry":{"x":170536.84000000078,"y":2545525.8800000027}},{"attributes":{"ID":227313,"DIS_CODE":0,"TOWNNAME":"北區","LI":"國興里","LIN":"3鄰","STREET":"南園街","SECT":" ","MAREA":" ","LANE":"４９巷","ALLEY":" ","HOUSE_NO":"５號","E_COORD97":170523.64999999999,"N_COORD97":2545464.8799999999,"ADDRESS":"南園街４９巷５號","OBJECTID":227309},"geometry":{"x":170523.6500000013,"y":2545464.8800000027}},{"attributes":{"ID":227314,"DIS_CODE":0,"TOWNNAME":"仁德區","LI":"新田里","LIN":"12鄰","STREET":"民安路","SECT":"一段","MAREA":" ","LANE":"２５３巷","ALLEY":" ","HOUSE_NO":"７６號","E_COORD97":172743.01999999999,"N_COORD97":2540031.3199999998,"ADDRESS":"民安路一段２５３巷７６號","OBJECTID":227310},"geometry":{"x":172743.02000000048,"y":2540031.3200000003}},{"attributes":{"ID":227315,"DIS_CODE":0,"TOWNNAME":"仁德區","LI":"後壁里","LIN":"40鄰","STREET":"德善二街","SECT":" ","MAREA":" ","LANE":"１７巷","ALLEY":" ","HOUSE_NO":"２０號","E_COORD97":173519.04999999999,"N_COORD97":2538949.77,"ADDRESS":"德善二街１７巷２０號","OBJECTID":227311},"geometry":{"x":173519.05000000075,"y":2538949.7699999977}},{"attributes":{"ID":227316,"DIS_CODE":0,"TOWNNAME":"仁德區","LI":"新田里","LIN":"15鄰","STREET":"北保東路","SECT":" ","MAREA":" ","LANE":"８巷","ALLEY":" ","HOUSE_NO":"９號","E_COORD97":173367.64000000001,"N_COORD97":2539376.25,"ADDRESS":"北保東路８巷９號","OBJECTID":227312},"geometry":{"x":173367.6400000006,"y":2539376.25}},{"attributes":{"ID":227317,"DIS_CODE":0,"TOWNNAME":"仁德區","LI":"後壁里","LIN":"33鄰","STREET":"德洋二街","SECT":" ","MAREA":" ","LANE":"３９巷","ALLEY":" ","HOUSE_NO":"３３號","E_COORD97":172282.98000000001,"N_COORD97":2539424.6600000001,"ADDRESS":"德洋二街３９巷３３號","OBJECTID":227313},"geometry":{"x":172282.98000000138,"y":2539424.6600000001}},{"attributes":{"ID":227318,"DIS_CODE":0,"TOWNNAME":"北區","LI":"勝安里","LIN":"3鄰","STREET":"開元路","SECT":" ","MAREA":" ","LANE":"７１巷","ALLEY":" ","HOUSE_NO":"２５號","E_COORD97":169688.31,"N_COORD97":2545303.6200000001,"ADDRESS":"開元路７１巷２５號","OBJECTID":227314},"geometry":{"x":169688.30999999959,"y":2545303.6200000029}},{"attributes":{"ID":227319,"DIS_CODE":0,"TOWNNAME":"北區","LI":"華興里","LIN":"3鄰","STREET":"南園街","SECT":" ","MAREA":" ","LANE":"２８巷","ALLEY":" ","HOUSE_NO":"３號","E_COORD97":170452.14000000001,"N_COORD97":2545443.6299999999,"ADDRESS":"南園街２８巷３號","OBJECTID":227315},"geometry":{"x":170452.1400000006,"y":2545443.6300000008}},{"attributes":{"ID":227320,"DIS_CODE":0,"TOWNNAME":"北區","LI":"華興里","LIN":"3鄰","STREET":"南園街","SECT":" ","MAREA":" ","LANE":"２８巷","ALLEY":" ","HOUSE_NO":"４號","E_COORD97":170439.59,"N_COORD97":2545449.9300000002,"ADDRESS":"南園街２８巷４號","OBJECTID":227316},"geometry":{"x":170439.58999999985,"y":2545449.9300000016}},{"attributes":{"ID":227321,"DIS_CODE":0,"TOWNNAME":"關廟區","LI":"香洋里","LIN":"3鄰","STREET":"忠孝街","SECT":" ","MAREA":" ","LANE":"１６０巷","ALLEY":" ","HOUSE_NO":"１１號","E_COORD97":181133.92999999999,"N_COORD97":2540418.7400000002,"ADDRESS":"忠孝街１６０巷１１號","OBJECTID":227317},"geometry":{"x":181133.9299999997,"y":2540418.7399999984}},{"attributes":{"ID":227322,"DIS_CODE":0,"TOWNNAME":"關廟區","LI":"香洋里","LIN":"3鄰","STREET":"忠孝街","SECT":" ","MAREA":" ","LANE":"１８０巷","ALLEY":" ","HOUSE_NO":"１０號","E_COORD97":181116.59,"N_COORD97":2540468.25,"ADDRESS":"忠孝街１８０巷１０號","OBJECTID":227318},"geometry":{"x":181116.59000000078,"y":2540468.25}},{"attributes":{"ID":227323,"DIS_CODE":0,"TOWNNAME":"關廟區","LI":"東勢里","LIN":"3鄰","STREET":"東興路","SECT":" ","MAREA":" ","LANE":"１８８巷","ALLEY":" ","HOUSE_NO":"５號","E_COORD97":181628.97,"N_COORD97":2539526.25,"ADDRESS":"東興路１８８巷５號","OBJECTID":227319},"geometry":{"x":181628.9700000016,"y":2539526.25}},{"attributes":{"ID":227324,"DIS_CODE":0,"TOWNNAME":"關廟區","LI":"香洋里","LIN":"3鄰","STREET":"忠孝街","SECT":" ","MAREA":" ","LANE":"１６０巷","ALLEY":" ","HOUSE_NO":"１８號","E_COORD97":181109.42999999999,"N_COORD97":2540396.7400000002,"ADDRESS":"忠孝街１６０巷１８號","OBJECTID":227320},"geometry":{"x":181109.43000000063,"y":2540396.7400000021}},{"attributes":{"ID":227325,"DIS_CODE":0,"TOWNNAME":"關廟區","LI":"北花里","LIN":"3鄰","STREET":"旺萊路","SECT":" ","MAREA":" ","LANE":"５８１巷","ALLEY":" ","HOUSE_NO":"７２號","E_COORD97":182098.39000000001,"N_COORD97":2540356.25,"ADDRESS":"旺萊路５８１巷７２號","OBJECTID":227321},"geometry":{"x":182098.38999999966,"y":2540356.25}},{"attributes":{"ID":227326,"DIS_CODE":0,"TOWNNAME":"北區","LI":"開元里","LIN":"3鄰","STREET":"北園街","SECT":" ","MAREA":" ","LANE":"９９巷","ALLEY":" ","HOUSE_NO":"１０號","E_COORD97":170302.12,"N_COORD97":2545877.04,"ADDRESS":"北園街９９巷１０號","OBJECTID":227322},"geometry":{"x":170302.12000000011,"y":2545877.0399999991}},{"attributes":{"ID":227327,"DIS_CODE":0,"TOWNNAME":"北區","LI":"元寶里","LIN":"3鄰","STREET":"北園街","SECT":" ","MAREA":" ","LANE":"８０巷","ALLEY":" ","HOUSE_NO":"３０號","E_COORD97":170384.04000000001,"N_COORD97":2545793.6800000002,"ADDRESS":"北園街８０巷３０號","OBJECTID":227323},"geometry":{"x":170384.04000000004,"y":2545793.6800000016}},{"attributes":{"ID":227328,"DIS_CODE":0,"TOWNNAME":"北區","LI":"元寶里","LIN":"3鄰","STREET":"北園街","SECT":" ","MAREA":" ","LANE":"８０巷","ALLEY":" ","HOUSE_NO":"３２號","E_COORD97":170383.81,"N_COORD97":2545789.8599999999,"ADDRESS":"北園街８０巷３２號","OBJECTID":227324},"geometry":{"x":170383.80999999959,"y":2545789.8599999994}},{"attributes":{"ID":227329,"DIS_CODE":0,"TOWNNAME":"仁德區","LI":"新田里","LIN":"14鄰","STREET":"北保路","SECT":" ","MAREA":" ","LANE":"１８０巷","ALLEY":" ","HOUSE_NO":"１０號","E_COORD97":173485.48000000001,"N_COORD97":2539402.5,"ADDRESS":"北保路１８０巷１０號","OBJECTID":227325},"geometry":{"x":173485.48000000045,"y":2539402.5}},{"attributes":{"ID":227330,"DIS_CODE":0,"TOWNNAME":"仁德區","LI":"後壁里","LIN":"15鄰","STREET":"德善路","SECT":" ","MAREA":" ","LANE":"１０８巷","ALLEY":" ","HOUSE_NO":"１８號","E_COORD97":173479.16,"N_COORD97":2538780.77,"ADDRESS":"德善路１０８巷１８號","OBJECTID":227326},"geometry":{"x":173479.16000000015,"y":2538780.7700000014}},{"attributes":{"ID":227331,"DIS_CODE":0,"TOWNNAME":"北區","LI":"元寶里","LIN":"3鄰","STREET":"北園街","SECT":" ","MAREA":" ","LANE":"８０巷","ALLEY":" ","HOUSE_NO":"３４號","E_COORD97":170397.76999999999,"N_COORD97":2545805.6000000001,"ADDRESS":"北園街８０巷３４號","OBJECTID":227327},"geometry":{"x":170397.77000000142,"y":2545805.5999999996}},{"attributes":{"ID":227332,"DIS_CODE":0,"TOWNNAME":"北區","LI":"元寶里","LIN":"3鄰","STREET":"北園街","SECT":" ","MAREA":" ","LANE":"８０巷","ALLEY":" ","HOUSE_NO":"３６號","E_COORD97":170402.04000000001,"N_COORD97":2545807.1699999999,"ADDRESS":"北園街８０巷３６號","OBJECTID":227328},"geometry":{"x":170402.04000000097,"y":2545807.1700000018}},{"attributes":{"ID":227333,"DIS_CODE":0,"TOWNNAME":"北區","LI":"元寶里","LIN":"3鄰","STREET":"北園街","SECT":" ","MAREA":" ","LANE":"８０巷","ALLEY":" ","HOUSE_NO":"３８號","E_COORD97":170406.54000000001,"N_COORD97":2545806.7200000002,"ADDRESS":"北園街８０巷３８號","OBJECTID":227329},"geometry":{"x":170406.53999999911,"y":2545806.7200000044}},{"attributes":{"ID":227334,"DIS_CODE":0,"TOWNNAME":"北區","LI":"元寶里","LIN":"3鄰","STREET":"北園街","SECT":" ","MAREA":" ","LANE":"８０巷","ALLEY":" ","HOUSE_NO":"４０號","E_COORD97":170410.37,"N_COORD97":2545808.52,"ADDRESS":"北園街８０巷４０號","OBJECTID":227330},"geometry":{"x":170410.37000000104,"y":2545808.5200000014}},{"attributes":{"ID":227335,"DIS_CODE":0,"TOWNNAME":"北區","LI":"元寶里","LIN":"3鄰","STREET":"北園街","SECT":" ","MAREA":" ","LANE":"８０巷","ALLEY":" ","HOUSE_NO":"４２號","E_COORD97":170414.87,"N_COORD97":2545806.0499999998,"ADDRESS":"北園街８０巷４２號","OBJECTID":227331},"geometry":{"x":170414.87000000104,"y":2545806.0500000026}},{"attributes":{"ID":227336,"DIS_CODE":0,"TOWNNAME":"北區","LI":"元寶里","LIN":"3鄰","STREET":"北園街","SECT":" ","MAREA":" ","LANE":"８０巷","ALLEY":" ","HOUSE_NO":"４４號","E_COORD97":170419.37,"N_COORD97":2545808.0699999998,"ADDRESS":"北園街８０巷４４號","OBJECTID":227332},"geometry":{"x":170419.37000000011,"y":2545808.0700000022}},{"attributes":{"ID":227337,"DIS_CODE":0,"TOWNNAME":"北區","LI":"元寶里","LIN":"3鄰","STREET":"北園街","SECT":" ","MAREA":" ","LANE":"８０巷","ALLEY":" ","HOUSE_NO":"４６號","E_COORD97":170424.10000000001,"N_COORD97":2545806.9500000002,"ADDRESS":"北園街８０巷４６號","OBJECTID":227333},"geometry":{"x":170424.09999999963,"y":2545806.9499999974}},{"attributes":{"ID":227338,"DIS_CODE":0,"TOWNNAME":"新營區","LI":"民生里","LIN":"3鄰","STREET":"中華路","SECT":" ","MAREA":" ","LANE":"７６巷","ALLEY":" ","HOUSE_NO":"７號","E_COORD97":179416.95000000001,"N_COORD97":2578215.5600000001,"ADDRESS":"中華路７６巷７號","OBJECTID":227334},"geometry":{"x":179416.95000000019,"y":2578215.5600000005}},{"attributes":{"ID":227339,"DIS_CODE":0,"TOWNNAME":"新營區","LI":"埤寮里","LIN":"3鄰","STREET":"建國路","SECT":" ","MAREA":" ","LANE":"１８巷","ALLEY":" ","HOUSE_NO":"３號","E_COORD97":180043.42999999999,"N_COORD97":2581116.3300000001,"ADDRESS":"建國路１８巷３號","OBJECTID":227335},"geometry":{"x":180043.4299999997,"y":2581116.3300000038}},{"attributes":{"ID":227340,"DIS_CODE":0,"TOWNNAME":"北區","LI":"長德里","LIN":"3鄰","STREET":"公園南路","SECT":" ","MAREA":" ","LANE":"１５２巷","ALLEY":" ","HOUSE_NO":"３８號","E_COORD97":168616.87,"N_COORD97":2544743.6200000001,"ADDRESS":"公園南路１５２巷３８號","OBJECTID":227336},"geometry":{"x":168616.87000000104,"y":2544743.6200000029}},{"attributes":{"ID":227341,"DIS_CODE":0,"TOWNNAME":"關廟區","LI":"五甲里","LIN":"3鄰","STREET":"旺萊路","SECT":" ","MAREA":" ","LANE":"５７巷","ALLEY":" ","HOUSE_NO":"２號","E_COORD97":181548.98999999999,"N_COORD97":2539217.25,"ADDRESS":"旺萊路５７巷２號","OBJECTID":227337},"geometry":{"x":181548.99000000022,"y":2539217.25}},{"attributes":{"ID":227342,"DIS_CODE":0,"TOWNNAME":"關廟區","LI":"北花里","LIN":"3鄰","STREET":"旺萊路","SECT":" ","MAREA":" ","LANE":"５８１巷","ALLEY":" ","HOUSE_NO":"５２號","E_COORD97":182132.59,"N_COORD97":2540340.25,"ADDRESS":"旺萊路５８１巷５２號","OBJECTID":227338},"geometry":{"x":182132.58999999985,"y":2540340.25}},{"attributes":{"ID":227343,"DIS_CODE":0,"TOWNNAME":"關廟區","LI":"埤頭里","LIN":"3鄰","STREET":"保東路","SECT":" ","MAREA":" ","LANE":"８５巷","ALLEY":" ","HOUSE_NO":"４５號","E_COORD97":178957.37,"N_COORD97":2543926.25,"ADDRESS":"保東路８５巷４５號","OBJECTID":227339},"geometry":{"x":178957.37000000104,"y":2543926.25}},{"attributes":{"ID":227344,"DIS_CODE":0,"TOWNNAME":"關廟區","LI":"新光里","LIN":"3鄰","STREET":"新湖街","SECT":" ","MAREA":" ","LANE":"１２０巷","ALLEY":" ","HOUSE_NO":"５號","E_COORD97":183603.07000000001,"N_COORD97":2541839.25,"ADDRESS":"新湖街１２０巷５號","OBJECTID":227340},"geometry":{"x":183603.0700000003,"y":2541839.2500000037}},{"attributes":{"ID":227345,"DIS_CODE":0,"TOWNNAME":"關廟區","LI":"香洋里","LIN":"3鄰","STREET":"忠孝街","SECT":" ","MAREA":" ","LANE":"１６０巷","ALLEY":" ","HOUSE_NO":"９號","E_COORD97":181130.38,"N_COORD97":2540441.7400000002,"ADDRESS":"忠孝街１６０巷９號","OBJECTID":227341},"geometry":{"x":181130.38000000082,"y":2540441.7400000002}},{"attributes":{"ID":227346,"DIS_CODE":0,"TOWNNAME":"關廟區","LI":"北花里","LIN":"3鄰","STREET":"旺萊路","SECT":" ","MAREA":" ","LANE":"５８１巷","ALLEY":" ","HOUSE_NO":"４２號","E_COORD97":182150.69,"N_COORD97":2540334.25,"ADDRESS":"旺萊路５８１巷４２號","OBJECTID":227342},"geometry":{"x":182150.69000000134,"y":2540334.2500000019}},{"attributes":{"ID":227347,"DIS_CODE":0,"TOWNNAME":"關廟區","LI":"北花里","LIN":"3鄰","STREET":"旺萊路","SECT":" ","MAREA":" ","LANE":"５８１巷","ALLEY":" ","HOUSE_NO":"４０號","E_COORD97":182155.29000000001,"N_COORD97":2540332.25,"ADDRESS":"旺萊路５８１巷４０號","OBJECTID":227343},"geometry":{"x":182155.29000000004,"y":2540332.25}},{"attributes":{"ID":227348,"DIS_CODE":0,"TOWNNAME":"北區","LI":"成德里","LIN":"3鄰","STREET":"西門路","SECT":"四段","MAREA":" ","LANE":"１９巷","ALLEY":" ","HOUSE_NO":"２４號","E_COORD97":168562.45000000001,"N_COORD97":2545299.2000000002,"ADDRESS":"西門路四段１９巷２４號","OBJECTID":227344},"geometry":{"x":168562.45000000019,"y":2545299.1999999993}},{"attributes":{"ID":227349,"DIS_CODE":0,"TOWNNAME":"北區","LI":"成德里","LIN":"3鄰","STREET":"西門路","SECT":"四段","MAREA":" ","LANE":"１９巷","ALLEY":" ","HOUSE_NO":"２６號","E_COORD97":168558.23999999999,"N_COORD97":2545301.1899999999,"ADDRESS":"西門路四段１９巷２６號","OBJECTID":227345},"geometry":{"x":168558.24000000115,"y":2545301.1900000013}},{"attributes":{"ID":227350,"DIS_CODE":0,"TOWNNAME":"北區","LI":"成德里","LIN":"3鄰","STREET":"西門路","SECT":"四段","MAREA":" ","LANE":"１９巷","ALLEY":" ","HOUSE_NO":"２８號","E_COORD97":168553.81,"N_COORD97":2545303.23,"ADDRESS":"西門路四段１９巷２８號","OBJECTID":227346},"geometry":{"x":168553.81000000052,"y":2545303.2300000004}},{"attributes":{"ID":227351,"DIS_CODE":0,"TOWNNAME":"北區","LI":"成德里","LIN":"3鄰","STREET":"西門路","SECT":"四段","MAREA":" ","LANE":"１９巷","ALLEY":" ","HOUSE_NO":"２號","E_COORD97":168606.09,"N_COORD97":2545277.2000000002,"ADDRESS":"西門路四段１９巷２號","OBJECTID":227347},"geometry":{"x":168606.09000000078,"y":2545277.2000000011}},{"attributes":{"ID":227352,"DIS_CODE":0,"TOWNNAME":"北區","LI":"成德里","LIN":"3鄰","STREET":"西門路","SECT":"四段","MAREA":" ","LANE":"１９巷","ALLEY":" ","HOUSE_NO":"３０號","E_COORD97":168549.60000000001,"N_COORD97":2545306.77,"ADDRESS":"西門路四段１９巷３０號","OBJECTID":227348},"geometry":{"x":168549.60000000149,"y":2545306.7700000033}},{"attributes":{"ID":227353,"DIS_CODE":0,"TOWNNAME":"北區","LI":"成德里","LIN":"3鄰","STREET":"西門路","SECT":"四段","MAREA":" ","LANE":"１９巷","ALLEY":" ","HOUSE_NO":"３４號","E_COORD97":168542.29000000001,"N_COORD97":2545312.9700000002,"ADDRESS":"西門路四段１９巷３４號","OBJECTID":227349},"geometry":{"x":168542.29000000097,"y":2545312.9700000007}},{"attributes":{"ID":227354,"DIS_CODE":0,"TOWNNAME":"北區","LI":"成德里","LIN":"3鄰","STREET":"西門路","SECT":"四段","MAREA":" ","LANE":"１９巷","ALLEY":" ","HOUSE_NO":"３６號","E_COORD97":168536.53,"N_COORD97":2545315.8500000001,"ADDRESS":"西門路四段１９巷３６號","OBJECTID":227350},"geometry":{"x":168536.53000000026,"y":2545315.8499999996}},{"attributes":{"ID":227355,"DIS_CODE":0,"TOWNNAME":"北區","LI":"玉皇里","LIN":"3鄰","STREET":"北忠街","SECT":" ","MAREA":" ","LANE":"１７４巷","ALLEY":" ","HOUSE_NO":"２號","E_COORD97":168620.91,"N_COORD97":2544566.6499999999,"ADDRESS":"北忠街１７４巷２號","OBJECTID":227351},"geometry":{"x":168620.91000000201,"y":2544566.6500000022}},{"attributes":{"ID":227356,"DIS_CODE":0,"TOWNNAME":"北區","LI":"玉皇里","LIN":"3鄰","STREET":"北忠街","SECT":" ","MAREA":" ","LANE":"１７４巷","ALLEY":" ","HOUSE_NO":"６號","E_COORD97":168628.10999999999,"N_COORD97":2544571.98,"ADDRESS":"北忠街１７４巷６號","OBJECTID":227352},"geometry":{"x":168628.1099999994,"y":2544571.9800000023}},{"attributes":{"ID":227357,"DIS_CODE":0,"TOWNNAME":"北區","LI":"玉皇里","LIN":"3鄰","STREET":"崇安街","SECT":" ","MAREA":" ","LANE":"４１巷","ALLEY":" ","HOUSE_NO":"５號","E_COORD97":168640.10999999999,"N_COORD97":2544564.5899999999,"ADDRESS":"崇安街４１巷５號","OBJECTID":227353},"geometry":{"x":168640.1100000022,"y":2544564.5899999999}},{"attributes":{"ID":227358,"DIS_CODE":0,"TOWNNAME":"北區","LI":"玉皇里","LIN":"3鄰","STREET":"崇安街","SECT":" ","MAREA":" ","LANE":"４１巷","ALLEY":" ","HOUSE_NO":"７號","E_COORD97":168636.82999999999,"N_COORD97":2544569.1899999999,"ADDRESS":"崇安街４１巷７號","OBJECTID":227354},"geometry":{"x":168636.83000000101,"y":2544569.1900000013}},{"attributes":{"ID":227359,"DIS_CODE":0,"TOWNNAME":"北區","LI":"玉皇里","LIN":"3鄰","STREET":"崇安街","SECT":" ","MAREA":" ","LANE":"４１巷","ALLEY":" ","HOUSE_NO":"９號","E_COORD97":168633.41,"N_COORD97":2544574.4900000002,"ADDRESS":"崇安街４１巷９號","OBJECTID":227355},"geometry":{"x":168633.41000000108,"y":2544574.4900000021}},{"attributes":{"ID":227360,"DIS_CODE":0,"TOWNNAME":"北區","LI":"大山里","LIN":"3鄰","STREET":"精忠街","SECT":" ","MAREA":" ","LANE":"２８巷","ALLEY":" ","HOUSE_NO":"３２號","E_COORD97":169458.84,"N_COORD97":2545535.8300000001,"ADDRESS":"精忠街２８巷３２號","OBJECTID":227356},"geometry":{"x":169458.84000000078,"y":2545535.8300000019}},{"attributes":{"ID":227361,"DIS_CODE":0,"TOWNNAME":"北區","LI":"大山里","LIN":"3鄰","STREET":"精忠街","SECT":" ","MAREA":" ","LANE":"２８巷","ALLEY":" ","HOUSE_NO":"３２號之１","E_COORD97":169455.54000000001,"N_COORD97":2545520.9199999999,"ADDRESS":"精忠街２８巷３２號之１","OBJECTID":227357},"geometry":{"x":169455.53999999911,"y":2545520.9200000018}},{"attributes":{"ID":227362,"DIS_CODE":0,"TOWNNAME":"北區","LI":"大山里","LIN":"3鄰","STREET":"精忠街","SECT":" ","MAREA":" ","LANE":"２８巷","ALLEY":" ","HOUSE_NO":"３２號之２","E_COORD97":169451.64000000001,"N_COORD97":2545522.1299999999,"ADDRESS":"精忠街２８巷３２號之２","OBJECTID":227358},"geometry":{"x":169451.6400000006,"y":2545522.1300000008}},{"attributes":{"ID":227363,"DIS_CODE":0,"TOWNNAME":"北區","LI":"大山里","LIN":"3鄰","STREET":"精忠街","SECT":" ","MAREA":" ","LANE":"２８巷","ALLEY":" ","HOUSE_NO":"３４號","E_COORD97":169449.01000000001,"N_COORD97":2545523.1400000001,"ADDRESS":"精忠街２８巷３４號","OBJECTID":227359},"geometry":{"x":169449.01000000071,"y":2545523.1400000025}},{"attributes":{"ID":227364,"DIS_CODE":0,"TOWNNAME":"北區","LI":"大山里","LIN":"3鄰","STREET":"精忠街","SECT":" ","MAREA":" ","LANE":"２８巷","ALLEY":" ","HOUSE_NO":"３６號","E_COORD97":169445.14999999999,"N_COORD97":2545523.8100000001,"ADDRESS":"精忠街２８巷３６號","OBJECTID":227360},"geometry":{"x":169445.15000000224,"y":2545523.8100000005}},{"attributes":{"ID":227365,"DIS_CODE":0,"TOWNNAME":"北區","LI":"大山里","LIN":"3鄰","STREET":"精忠街","SECT":" ","MAREA":" ","LANE":"２８巷","ALLEY":" ","HOUSE_NO":"３８號","E_COORD97":169442.97,"N_COORD97":2545524.4300000002,"ADDRESS":"精忠街２８巷３８號","OBJECTID":227361},"geometry":{"x":169442.97000000067,"y":2545524.4300000016}},{"attributes":{"ID":227366,"DIS_CODE":0,"TOWNNAME":"北區","LI":"大山里","LIN":"3鄰","STREET":"精忠街","SECT":" ","MAREA":" ","LANE":"２８巷","ALLEY":" ","HOUSE_NO":"４０號","E_COORD97":169438.45999999999,"N_COORD97":2545525.5499999998,"ADDRESS":"精忠街２８巷４０號","OBJECTID":227362},"geometry":{"x":169438.45999999996,"y":2545525.5500000007}},{"attributes":{"ID":227367,"DIS_CODE":0,"TOWNNAME":"北區","LI":"大山里","LIN":"3鄰","STREET":"精忠街","SECT":" ","MAREA":" ","LANE":"２８巷","ALLEY":" ","HOUSE_NO":"４２號","E_COORD97":169435.95999999999,"N_COORD97":2545526.6000000001,"ADDRESS":"精忠街２８巷４２號","OBJECTID":227363},"geometry":{"x":169435.96000000089,"y":2545526.6000000015}},{"attributes":{"ID":227368,"DIS_CODE":0,"TOWNNAME":"北區","LI":"大山里","LIN":"3鄰","STREET":"精忠街","SECT":" ","MAREA":" ","LANE":"２８巷","ALLEY":" ","HOUSE_NO":"４４號","E_COORD97":169432.95000000001,"N_COORD97":2545527.7200000002,"ADDRESS":"精忠街２８巷４４號","OBJECTID":227364},"geometry":{"x":169432.95000000112,"y":2545527.7200000007}},{"attributes":{"ID":227369,"DIS_CODE":0,"TOWNNAME":"北區","LI":"大山里","LIN":"3鄰","STREET":"精忠街","SECT":" ","MAREA":" ","LANE":"２８巷","ALLEY":" ","HOUSE_NO":"４６號","E_COORD97":169428.72,"N_COORD97":2545527.8799999999,"ADDRESS":"精忠街２８巷４６號","OBJECTID":227365},"geometry":{"x":169428.7200000016,"y":2545527.879999999}},{"attributes":{"ID":227370,"DIS_CODE":0,"TOWNNAME":"北區","LI":"大山里","LIN":"3鄰","STREET":"精忠街","SECT":" ","MAREA":" ","LANE":"２８巷","ALLEY":" ","HOUSE_NO":"４８號","E_COORD97":169426.42999999999,"N_COORD97":2545528.7200000002,"ADDRESS":"精忠街２８巷４８號","OBJECTID":227366},"geometry":{"x":169426.4299999997,"y":2545528.7200000044}},{"attributes":{"ID":227371,"DIS_CODE":0,"TOWNNAME":"北區","LI":"大山里","LIN":"3鄰","STREET":"精忠街","SECT":" ","MAREA":" ","LANE":"２８巷","ALLEY":" ","HOUSE_NO":"５０號","E_COORD97":169419.64000000001,"N_COORD97":2545530.6099999999,"ADDRESS":"精忠街２８巷５０號","OBJECTID":227367},"geometry":{"x":169419.6400000006,"y":2545530.6099999994}},{"attributes":{"ID":227372,"DIS_CODE":0,"TOWNNAME":"北區","LI":"大山里","LIN":"3鄰","STREET":"精忠街","SECT":" ","MAREA":" ","LANE":"２８巷","ALLEY":" ","HOUSE_NO":"５２號","E_COORD97":169415.51999999999,"N_COORD97":2545534.4500000002,"ADDRESS":"精忠街２８巷５２號","OBJECTID":227368},"geometry":{"x":169415.51999999955,"y":2545534.4499999993}},{"attributes":{"ID":227373,"DIS_CODE":0,"TOWNNAME":"安平區","LI":"海頭里","LIN":"3鄰","STREET":"安北路","SECT":" ","MAREA":" ","LANE":"１２１巷","ALLEY":" ","HOUSE_NO":"２１號","E_COORD97":164207.39999999999,"N_COORD97":2544716.1899999999,"ADDRESS":"安北路１２１巷２１號","OBJECTID":227369},"geometry":{"x":164207.4000000013,"y":2544716.1899999995}},{"attributes":{"ID":227374,"DIS_CODE":0,"TOWNNAME":"安平區","LI":"海頭里","LIN":"3鄰","STREET":"安北路","SECT":" ","MAREA":" ","LANE":"１２１巷","ALLEY":" ","HOUSE_NO":"１７號","E_COORD97":164212.63,"N_COORD97":2544739.1800000002,"ADDRESS":"安北路１２１巷１７號","OBJECTID":227370},"geometry":{"x":164212.62999999989,"y":2544739.1800000016}},{"attributes":{"ID":227375,"DIS_CODE":0,"TOWNNAME":"安平區","LI":"海頭里","LIN":"3鄰","STREET":"安北路","SECT":" ","MAREA":" ","LANE":"１２１巷","ALLEY":" ","HOUSE_NO":"１９號","E_COORD97":164211.64999999999,"N_COORD97":2544731.27,"ADDRESS":"安北路１２１巷１９號","OBJECTID":227371},"geometry":{"x":164211.65000000037,"y":2544731.2700000014}},{"attributes":{"ID":227376,"DIS_CODE":0,"TOWNNAME":"北區","LI":"大和里","LIN":"3鄰","STREET":"大興街","SECT":" ","MAREA":" ","LANE":"７６巷","ALLEY":" ","HOUSE_NO":"１０１號","E_COORD97":167137.60000000001,"N_COORD97":2546030.2799999998,"ADDRESS":"大興街７６巷１０１號","OBJECTID":227372},"geometry":{"x":167137.60000000149,"y":2546030.2800000012}},{"attributes":{"ID":227377,"DIS_CODE":0,"TOWNNAME":"北區","LI":"大和里","LIN":"3鄰","STREET":"大興街","SECT":" ","MAREA":" ","LANE":"７６巷","ALLEY":" ","HOUSE_NO":"１０３號","E_COORD97":167143.32999999999,"N_COORD97":2546031.0600000001,"ADDRESS":"大興街７６巷１０３號","OBJECTID":227373},"geometry":{"x":167143.33000000101,"y":2546031.0600000005}},{"attributes":{"ID":227378,"DIS_CODE":0,"TOWNNAME":"北區","LI":"大和里","LIN":"3鄰","STREET":"大興街","SECT":" ","MAREA":" ","LANE":"７６巷","ALLEY":" ","HOUSE_NO":"１０５號","E_COORD97":167149.04999999999,"N_COORD97":2546031.6499999999,"ADDRESS":"大興街７６巷１０５號","OBJECTID":227374},"geometry":{"x":167149.04999999981,"y":2546031.6500000022}},{"attributes":{"ID":227379,"DIS_CODE":0,"TOWNNAME":"北區","LI":"大和里","LIN":"3鄰","STREET":"大興街","SECT":" ","MAREA":" ","LANE":"７６巷","ALLEY":" ","HOUSE_NO":"１０７號","E_COORD97":167155.10000000001,"N_COORD97":2546032.1000000001,"ADDRESS":"大興街７６巷１０７號","OBJECTID":227375},"geometry":{"x":167155.10000000056,"y":2546032.0999999996}},{"attributes":{"ID":227380,"DIS_CODE":0,"TOWNNAME":"北區","LI":"大和里","LIN":"3鄰","STREET":"大興街","SECT":" ","MAREA":" ","LANE":"７６巷","ALLEY":" ","HOUSE_NO":"１１號","E_COORD97":167165.60999999999,"N_COORD97":2545833.71,"ADDRESS":"大興街７６巷１１號","OBJECTID":227376},"geometry":{"x":167165.61000000127,"y":2545833.7100000009}},{"attributes":{"ID":227381,"DIS_CODE":0,"TOWNNAME":"北區","LI":"大和里","LIN":"3鄰","STREET":"大興街","SECT":" ","MAREA":" ","LANE":"７６巷","ALLEY":" ","HOUSE_NO":"１３號","E_COORD97":167165.20999999999,"N_COORD97":2545838.1299999999,"ADDRESS":"大興街７６巷１３號","OBJECTID":227377},"geometry":{"x":167165.20999999996,"y":2545838.129999999}},{"attributes":{"ID":227382,"DIS_CODE":0,"TOWNNAME":"北區","LI":"大和里","LIN":"3鄰","STREET":"大興街","SECT":" ","MAREA":" ","LANE":"７６巷","ALLEY":" ","HOUSE_NO":"１５號","E_COORD97":167164.67000000001,"N_COORD97":2545841.9500000002,"ADDRESS":"大興街７６巷１５號","OBJECTID":227378},"geometry":{"x":167164.67000000086,"y":2545841.9500000011}},{"attributes":{"ID":227383,"DIS_CODE":0,"TOWNNAME":"北區","LI":"大和里","LIN":"3鄰","STREET":"大興街","SECT":" ","MAREA":" ","LANE":"７６巷","ALLEY":" ","HOUSE_NO":"１７號","E_COORD97":167164.47,"N_COORD97":2545846.5699999998,"ADDRESS":"大興街７６巷１７號","OBJECTID":227379},"geometry":{"x":167164.47000000067,"y":2545846.5700000003}},{"attributes":{"ID":227384,"DIS_CODE":0,"TOWNNAME":"北區","LI":"大和里","LIN":"3鄰","STREET":"大興街","SECT":" ","MAREA":" ","LANE":"７６巷","ALLEY":" ","HOUSE_NO":"１９號","E_COORD97":167164.07000000001,"N_COORD97":2545850.52,"ADDRESS":"大興街７６巷１９號","OBJECTID":227380},"geometry":{"x":167164.07000000123,"y":2545850.5199999996}},{"attributes":{"ID":227385,"DIS_CODE":0,"TOWNNAME":"北區","LI":"大和里","LIN":"3鄰","STREET":"大興街","SECT":" ","MAREA":" ","LANE":"７６巷","ALLEY":" ","HOUSE_NO":"１號","E_COORD97":167167.75,"N_COORD97":2545812.4199999999,"ADDRESS":"大興街７６巷１號","OBJECTID":227381},"geometry":{"x":167167.75000000093,"y":2545812.4200000018}},{"attributes":{"ID":227386,"DIS_CODE":0,"TOWNNAME":"北區","LI":"大和里","LIN":"3鄰","STREET":"大興街","SECT":" ","MAREA":" ","LANE":"７６巷","ALLEY":" ","HOUSE_NO":"２１號","E_COORD97":167163.53,"N_COORD97":2545854.1099999999,"ADDRESS":"大興街７６巷２１號","OBJECTID":227382},"geometry":{"x":167163.53000000026,"y":2545854.1100000013}},{"attributes":{"ID":227387,"DIS_CODE":0,"TOWNNAME":"歸仁區","LI":"六甲里","LIN":"3鄰","STREET":"中正南路","SECT":"一段","MAREA":" ","LANE":"６３７巷","ALLEY":" ","HOUSE_NO":"６號","E_COORD97":176652.21917200001,"N_COORD97":2539821.4455900001,"ADDRESS":"中正南路一段６３７巷６號","OBJECTID":227383},"geometry":{"x":176652.21917200089,"y":2539821.4455869999}},{"attributes":{"ID":227388,"DIS_CODE":0,"TOWNNAME":"歸仁區","LI":"西埔里","LIN":"3鄰","STREET":"保大路","SECT":"二段","MAREA":" ","LANE":"１１１巷","ALLEY":" ","HOUSE_NO":"２２號","E_COORD97":177014.92000000001,"N_COORD97":2544062.2799999998,"ADDRESS":"保大路二段１１１巷２２號","OBJECTID":227384},"geometry":{"x":177014.91999999993,"y":2544062.2800000031}},{"attributes":{"ID":227389,"DIS_CODE":0,"TOWNNAME":"歸仁區","LI":"媽廟里","LIN":"3鄰","STREET":"媽廟一街","SECT":" ","MAREA":" ","LANE":"３８巷","ALLEY":" ","HOUSE_NO":"１７號","E_COORD97":177410.98000000001,"N_COORD97":2543615.7200000002,"ADDRESS":"媽廟一街３８巷１７號","OBJECTID":227385},"geometry":{"x":177410.98000000138,"y":2543615.7200000007}},{"attributes":{"ID":227390,"DIS_CODE":0,"TOWNNAME":"歸仁區","LI":"歸南里","LIN":"3鄰","STREET":"民權南路","SECT":" ","MAREA":" ","LANE":"２４８巷","ALLEY":" ","HOUSE_NO":"１６號","E_COORD97":176898.16,"N_COORD97":2540234.5,"ADDRESS":"民權南路２４８巷１６號","OBJECTID":227386},"geometry":{"x":176898.16000000015,"y":2540234.5000000019}},{"attributes":{"ID":227391,"DIS_CODE":0,"TOWNNAME":"歸仁區","LI":"媽廟里","LIN":"3鄰","STREET":"媽廟一街","SECT":" ","MAREA":" ","LANE":"３８巷","ALLEY":" ","HOUSE_NO":"１５號","E_COORD97":177407.88,"N_COORD97":2543606.7200000002,"ADDRESS":"媽廟一街３８巷１５號","OBJECTID":227387},"geometry":{"x":177407.87999999989,"y":2543606.7200000044}},{"attributes":{"ID":227392,"DIS_CODE":0,"TOWNNAME":"歸仁區","LI":"歸南里","LIN":"3鄰","STREET":"民權南路","SECT":" ","MAREA":" ","LANE":"２４８巷","ALLEY":" ","HOUSE_NO":"３０號","E_COORD97":176864.26000000001,"N_COORD97":2540235.5,"ADDRESS":"民權南路２４８巷３０號","OBJECTID":227388},"geometry":{"x":176864.26000000071,"y":2540235.5}},{"attributes":{"ID":227393,"DIS_CODE":0,"TOWNNAME":"歸仁區","LI":"媽廟里","LIN":"3鄰","STREET":"和順路","SECT":"一段","MAREA":" ","LANE":"６３巷","ALLEY":" ","HOUSE_NO":"１４號","E_COORD97":177312.01999999999,"N_COORD97":2543655.7200000002,"ADDRESS":"和順路一段６３巷１４號","OBJECTID":227389},"geometry":{"x":177312.01999999955,"y":2543655.7200000007}},{"attributes":{"ID":227394,"DIS_CODE":0,"TOWNNAME":"歸仁區","LI":"媽廟里","LIN":"3鄰","STREET":"和順路","SECT":"一段","MAREA":" ","LANE":"６３巷","ALLEY":" ","HOUSE_NO":"１８號","E_COORD97":177322.22,"N_COORD97":2543654.7200000002,"ADDRESS":"和順路一段６３巷１８號","OBJECTID":227390},"geometry":{"x":177322.22000000067,"y":2543654.7200000025}},{"attributes":{"ID":227395,"DIS_CODE":0,"TOWNNAME":"歸仁區","LI":"歸南里","LIN":"3鄰","STREET":"民權南路","SECT":" ","MAREA":" ","LANE":"２３４巷","ALLEY":" ","HOUSE_NO":"３號","E_COORD97":176919.51000000001,"N_COORD97":2540257.5,"ADDRESS":"民權南路２３４巷３號","OBJECTID":227391},"geometry":{"x":176919.51000000164,"y":2540257.5000000037}},{"attributes":{"ID":227396,"DIS_CODE":0,"TOWNNAME":"歸仁區","LI":"媽廟里","LIN":"3鄰","STREET":"和順路","SECT":"一段","MAREA":" ","LANE":"６３巷","ALLEY":" ","HOUSE_NO":"３２號","E_COORD97":177361.01999999999,"N_COORD97":2543617.7200000002,"ADDRESS":"和順路一段６３巷３２號","OBJECTID":227392},"geometry":{"x":177361.01999999955,"y":2543617.7200000025}},{"attributes":{"ID":227397,"DIS_CODE":0,"TOWNNAME":"歸仁區","LI":"歸南里","LIN":"3鄰","STREET":"民權南路","SECT":" ","MAREA":" ","LANE":"２４８巷","ALLEY":" ","HOUSE_NO":"２６號","E_COORD97":176873.56,"N_COORD97":2540235.5,"ADDRESS":"民權南路２４８巷２６號","OBJECTID":227393},"geometry":{"x":176873.56000000052,"y":2540235.5}},{"attributes":{"ID":227398,"DIS_CODE":0,"TOWNNAME":"歸仁區","LI":"歸南里","LIN":"3鄰","STREET":"民權南路","SECT":" ","MAREA":" ","LANE":"２４８巷","ALLEY":" ","HOUSE_NO":"２２號","E_COORD97":176882.76000000001,"N_COORD97":2540234.5,"ADDRESS":"民權南路２４８巷２２號","OBJECTID":227394},"geometry":{"x":176882.76000000071,"y":2540234.5000000019}},{"attributes":{"ID":227399,"DIS_CODE":0,"TOWNNAME":"歸仁區","LI":"媽廟里","LIN":"3鄰","STREET":"和順路","SECT":"一段","MAREA":" ","LANE":"６３巷","ALLEY":" ","HOUSE_NO":"２０號","E_COORD97":177329.42000000001,"N_COORD97":2543652.7200000002,"ADDRESS":"和順路一段６３巷２０號","OBJECTID":227395},"geometry":{"x":177329.42000000086,"y":2543652.7200000007}},{"attributes":{"ID":227400,"DIS_CODE":0,"TOWNNAME":"歸仁區","LI":"歸南里","LIN":"3鄰","STREET":"民權南路","SECT":" ","MAREA":" ","LANE":"２３４巷","ALLEY":" ","HOUSE_NO":"７號","E_COORD97":176911.31,"N_COORD97":2540258.5,"ADDRESS":"民權南路２３４巷７號","OBJECTID":227396},"geometry":{"x":176911.31000000052,"y":2540258.5000000019}},{"attributes":{"ID":227401,"DIS_CODE":0,"TOWNNAME":"歸仁區","LI":"媽廟里","LIN":"3鄰","STREET":"和順路","SECT":"一段","MAREA":" ","LANE":"６３巷","ALLEY":" ","HOUSE_NO":"２２號","E_COORD97":177335.51999999999,"N_COORD97":2543651.7200000002,"ADDRESS":"和順路一段６３巷２２號","OBJECTID":227397},"geometry":{"x":177335.51999999955,"y":2543651.7200000025}},{"attributes":{"ID":227402,"DIS_CODE":0,"TOWNNAME":"歸仁區","LI":"歸南里","LIN":"3鄰","STREET":"民權南路","SECT":" ","MAREA":" ","LANE":"２４８巷","ALLEY":" ","HOUSE_NO":"２４號","E_COORD97":176877.66,"N_COORD97":2540235.5,"ADDRESS":"民權南路２４８巷２４號","OBJECTID":227398},"geometry":{"x":176877.66000000015,"y":2540235.5}},{"attributes":{"ID":227403,"DIS_CODE":0,"TOWNNAME":"歸仁區","LI":"新厝里","LIN":"3鄰","STREET":"復興路","SECT":" ","MAREA":" ","LANE":"１１６巷","ALLEY":" ","HOUSE_NO":"１８號","E_COORD97":177740.01999999999,"N_COORD97":2540679.25,"ADDRESS":"復興路１１６巷１８號","OBJECTID":227399},"geometry":{"x":177740.02000000048,"y":2540679.25}},{"attributes":{"ID":227404,"DIS_CODE":0,"TOWNNAME":"歸仁區","LI":"歸南里","LIN":"3鄰","STREET":"民權南路","SECT":" ","MAREA":" ","LANE":"２４８巷","ALLEY":" ","HOUSE_NO":"３２號","E_COORD97":176860.16,"N_COORD97":2540235.5,"ADDRESS":"民權南路２４８巷３２號","OBJECTID":227400},"geometry":{"x":176860.16000000108,"y":2540235.5}}]}