{"displayFieldName":"TOWNNAME","fieldAliases":{"ID":"ID","DIS_CODE":"DIS_CODE","TOWNNAME":"TOWNNAME","LI":"LI","LIN":"LIN","STREET":"STREET","SECT":"SECT","MAREA":"MAREA","LANE":"LANE","ALLEY":"ALLEY","HOUSE_NO":"HOUSE_NO","E_COORD97":"E_COORD97","N_COORD97":"N_COORD97","ADDRESS":"ADDRESS","OBJECTID":"OBJECTID"},"geometryType":"esriGeometryPoint","spatialReference":{"wkid":102443,"latestWkid":3826},"fields":[{"name":"ID","type":"esriFieldTypeDouble","alias":"ID"},{"name":"DIS_CODE","type":"esriFieldTypeInteger","alias":"DIS_CODE"},{"name":"TOWNNAME","type":"esriFieldTypeString","alias":"TOWNNAME","length":8},{"name":"LI","type":"esriFieldTypeString","alias":"LI","length":8},{"name":"LIN","type":"esriFieldTypeString","alias":"LIN","length":12},{"name":"STREET","type":"esriFieldTypeString","alias":"STREET","length":20},{"name":"SECT","type":"esriFieldTypeString","alias":"SECT","length":8},{"name":"MAREA","type":"esriFieldTypeString","alias":"MAREA","length":12},{"name":"LANE","type":"esriFieldTypeString","alias":"LANE","length":10},{"name":"ALLEY","type":"esriFieldTypeString","alias":"ALLEY","length":10},{"name":"HOUSE_NO","type":"esriFieldTypeString","alias":"HOUSE_NO","length":20},{"name":"E_COORD97","type":"esriFieldTypeDouble","alias":"E_COORD97"},{"name":"N_COORD97","type":"esriFieldTypeDouble","alias":"N_COORD97"},{"name":"ADDRESS","type":"esriFieldTypeString","alias":"ADDRESS","length":50},{"name":"OBJECTID","type":"esriFieldTypeOID","alias":"OBJECTID"}],"features":[{"attributes":{"ID":13601,"DIS_CODE":0,"TOWNNAME":"東區","LI":"大同里","LIN":"24鄰","STREET":"大同路","SECT":"一段","MAREA":" ","LANE":"２４１巷","ALLEY":"６弄","HOUSE_NO":"４號三樓","E_COORD97":169168.51999999999,"N_COORD97":2542630.5099999998,"ADDRESS":"大同路一段２４１巷６弄４號三樓","OBJECTID":13601},"geometry":{"x":169168.51999999955,"y":2542630.5100000035}},{"attributes":{"ID":13602,"DIS_CODE":0,"TOWNNAME":"東區","LI":"大同里","LIN":"24鄰","STREET":"大同路","SECT":"一段","MAREA":" ","LANE":"２４１巷","ALLEY":"６弄","HOUSE_NO":"４號五樓","E_COORD97":169168.51999999999,"N_COORD97":2542630.5099999998,"ADDRESS":"大同路一段２４１巷６弄４號五樓","OBJECTID":13602},"geometry":{"x":169168.51999999955,"y":2542630.5100000035}},{"attributes":{"ID":13603,"DIS_CODE":0,"TOWNNAME":"東區","LI":"大同里","LIN":"24鄰","STREET":"大同路","SECT":"一段","MAREA":" ","LANE":"２４１巷","ALLEY":"６弄","HOUSE_NO":"４號四樓","E_COORD97":169168.51999999999,"N_COORD97":2542630.5099999998,"ADDRESS":"大同路一段２４１巷６弄４號四樓","OBJECTID":13603},"geometry":{"x":169168.51999999955,"y":2542630.5100000035}},{"attributes":{"ID":13604,"DIS_CODE":0,"TOWNNAME":"東區","LI":"大同里","LIN":"24鄰","STREET":"大同路","SECT":"一段","MAREA":" ","LANE":"２４１巷","ALLEY":"６弄","HOUSE_NO":"６號二樓","E_COORD97":169175.38,"N_COORD97":2542612.5899999999,"ADDRESS":"大同路一段２４１巷６弄６號二樓","OBJECTID":13604},"geometry":{"x":169175.38000000082,"y":2542612.5899999999}},{"attributes":{"ID":13605,"DIS_CODE":0,"TOWNNAME":"東區","LI":"大同里","LIN":"24鄰","STREET":"大同路","SECT":"一段","MAREA":" ","LANE":"２４１巷","ALLEY":"６弄","HOUSE_NO":"６號三樓","E_COORD97":169175.38,"N_COORD97":2542612.5899999999,"ADDRESS":"大同路一段２４１巷６弄６號三樓","OBJECTID":13605},"geometry":{"x":169175.38000000082,"y":2542612.5899999999}},{"attributes":{"ID":13606,"DIS_CODE":0,"TOWNNAME":"東區","LI":"大同里","LIN":"24鄰","STREET":"大同路","SECT":"一段","MAREA":" ","LANE":"２４１巷","ALLEY":"６弄","HOUSE_NO":"６號五樓","E_COORD97":169175.38,"N_COORD97":2542612.5899999999,"ADDRESS":"大同路一段２４１巷６弄６號五樓","OBJECTID":13606},"geometry":{"x":169175.38000000082,"y":2542612.5899999999}},{"attributes":{"ID":13607,"DIS_CODE":0,"TOWNNAME":"東區","LI":"和平里","LIN":"20鄰","STREET":"文化六街","SECT":" ","MAREA":" ","LANE":" ","ALLEY":" ","HOUSE_NO":"３２號","E_COORD97":171270.37,"N_COORD97":2541676.6800000002,"ADDRESS":"文化六街３２號","OBJECTID":13607},"geometry":{"x":171270.37000000011,"y":2541676.6800000034}},{"attributes":{"ID":13608,"DIS_CODE":0,"TOWNNAME":"官田區","LI":"二鎮里","LIN":"14鄰","STREET":" ","SECT":" ","MAREA":"程泰","LANE":" ","ALLEY":" ","HOUSE_NO":"５５號","E_COORD97":181640.81,"N_COORD97":2566502.7799999998,"ADDRESS":"程泰５５號","OBJECTID":13608},"geometry":{"x":181640.81000000052,"y":2566502.7799999993}},{"attributes":{"ID":13609,"DIS_CODE":0,"TOWNNAME":"西港區","LI":"南海里","LIN":"13鄰","STREET":" ","SECT":" ","MAREA":"南海埔","LANE":" ","ALLEY":" ","HOUSE_NO":"１１９號","E_COORD97":167700.84,"N_COORD97":2557341.8900000001,"ADDRESS":"南海埔１１９號","OBJECTID":13609},"geometry":{"x":167700.84000000078,"y":2557341.8900000006}},{"attributes":{"ID":13610,"DIS_CODE":0,"TOWNNAME":"東區","LI":"大同里","LIN":"24鄰","STREET":"大同路","SECT":"一段","MAREA":" ","LANE":"２４１巷","ALLEY":"６弄","HOUSE_NO":"６號四樓","E_COORD97":169175.38,"N_COORD97":2542612.5899999999,"ADDRESS":"大同路一段２４１巷６弄６號四樓","OBJECTID":13610},"geometry":{"x":169175.38000000082,"y":2542612.5899999999}},{"attributes":{"ID":13611,"DIS_CODE":0,"TOWNNAME":"東區","LI":"大同里","LIN":"24鄰","STREET":"大同路","SECT":"一段","MAREA":" ","LANE":"２４１巷","ALLEY":"６弄","HOUSE_NO":"８號二樓","E_COORD97":169178.70000000001,"N_COORD97":2542603.0800000001,"ADDRESS":"大同路一段２４１巷６弄８號二樓","OBJECTID":13611},"geometry":{"x":169178.70000000112,"y":2542603.0800000038}},{"attributes":{"ID":13612,"DIS_CODE":0,"TOWNNAME":"東區","LI":"大同里","LIN":"24鄰","STREET":"大同路","SECT":"一段","MAREA":" ","LANE":"２４１巷","ALLEY":"６弄","HOUSE_NO":"８號三樓","E_COORD97":169178.70000000001,"N_COORD97":2542603.0800000001,"ADDRESS":"大同路一段２４１巷６弄８號三樓","OBJECTID":13612},"geometry":{"x":169178.70000000112,"y":2542603.0800000038}},{"attributes":{"ID":13613,"DIS_CODE":0,"TOWNNAME":"西港區","LI":"南海里","LIN":"13鄰","STREET":" ","SECT":" ","MAREA":"南海埔","LANE":" ","ALLEY":" ","HOUSE_NO":"１２０號","E_COORD97":167715.63,"N_COORD97":2557305.1499999999,"ADDRESS":"南海埔１２０號","OBJECTID":13613},"geometry":{"x":167715.63000000175,"y":2557305.1500000022}},{"attributes":{"ID":13614,"DIS_CODE":0,"TOWNNAME":"西港區","LI":"南海里","LIN":"13鄰","STREET":" ","SECT":" ","MAREA":"南海埔","LANE":" ","ALLEY":" ","HOUSE_NO":"１２２號之１","E_COORD97":167678.45999999999,"N_COORD97":2557360.5,"ADDRESS":"南海埔１２２號之１","OBJECTID":13614},"geometry":{"x":167678.46000000089,"y":2557360.5}},{"attributes":{"ID":13615,"DIS_CODE":0,"TOWNNAME":"東區","LI":"大同里","LIN":"24鄰","STREET":"大同路","SECT":"一段","MAREA":" ","LANE":"２４１巷","ALLEY":"６弄","HOUSE_NO":"８號五樓","E_COORD97":169178.70000000001,"N_COORD97":2542603.0800000001,"ADDRESS":"大同路一段２４１巷６弄８號五樓","OBJECTID":13615},"geometry":{"x":169178.70000000112,"y":2542603.0800000038}},{"attributes":{"ID":13616,"DIS_CODE":0,"TOWNNAME":"東區","LI":"大同里","LIN":"24鄰","STREET":"大同路","SECT":"一段","MAREA":" ","LANE":"２４１巷","ALLEY":"６弄","HOUSE_NO":"８號四樓","E_COORD97":169178.70000000001,"N_COORD97":2542603.0800000001,"ADDRESS":"大同路一段２４１巷６弄８號四樓","OBJECTID":13616},"geometry":{"x":169178.70000000112,"y":2542603.0800000038}},{"attributes":{"ID":13617,"DIS_CODE":0,"TOWNNAME":"永康區","LI":"西勢里","LIN":"24鄰","STREET":"廣興街","SECT":" ","MAREA":" ","LANE":"３８巷","ALLEY":"４７弄","HOUSE_NO":"２６號五樓","E_COORD97":176105.07000000001,"N_COORD97":2546511.7599999998,"ADDRESS":"廣興街３８巷４７弄２６號五樓","OBJECTID":13617},"geometry":{"x":176105.07000000123,"y":2546511.7600000016}},{"attributes":{"ID":13618,"DIS_CODE":0,"TOWNNAME":"永康區","LI":"西勢里","LIN":"24鄰","STREET":"廣興街","SECT":" ","MAREA":" ","LANE":"３８巷","ALLEY":"４７弄","HOUSE_NO":"２４號三樓","E_COORD97":176100.62,"N_COORD97":2546504.25,"ADDRESS":"廣興街３８巷４７弄２４號三樓","OBJECTID":13618},"geometry":{"x":176100.62000000104,"y":2546504.2500000037}},{"attributes":{"ID":13619,"DIS_CODE":0,"TOWNNAME":"永康區","LI":"西勢里","LIN":"24鄰","STREET":"廣興街","SECT":" ","MAREA":" ","LANE":"３８巷","ALLEY":"４７弄","HOUSE_NO":"２２號二樓","E_COORD97":176097.28,"N_COORD97":2546498.5,"ADDRESS":"廣興街３８巷４７弄２２號二樓","OBJECTID":13619},"geometry":{"x":176097.28000000026,"y":2546498.5}},{"attributes":{"ID":13620,"DIS_CODE":0,"TOWNNAME":"永康區","LI":"西勢里","LIN":"24鄰","STREET":"廣興街","SECT":" ","MAREA":" ","LANE":"３８巷","ALLEY":"４７弄","HOUSE_NO":"２０號五樓","E_COORD97":176090.38,"N_COORD97":2546486.25,"ADDRESS":"廣興街３８巷４７弄２０號五樓","OBJECTID":13620},"geometry":{"x":176090.38000000082,"y":2546486.25}},{"attributes":{"ID":13621,"DIS_CODE":0,"TOWNNAME":"北區","LI":"振興里","LIN":"5鄰","STREET":"開元路","SECT":" ","MAREA":" ","LANE":"１４８巷","ALLEY":"２３弄","HOUSE_NO":"１２號之５","E_COORD97":170076.22,"N_COORD97":2545165.7200000002,"ADDRESS":"開元路１４８巷２３弄１２號之５","OBJECTID":13621},"geometry":{"x":170076.2200000016,"y":2545165.7200000007}},{"attributes":{"ID":13622,"DIS_CODE":0,"TOWNNAME":"北區","LI":"振興里","LIN":"5鄰","STREET":"開元路","SECT":" ","MAREA":" ","LANE":"１４８巷","ALLEY":"２３弄","HOUSE_NO":"１２號之６","E_COORD97":170076.87,"N_COORD97":2545187.2999999998,"ADDRESS":"開元路１４８巷２３弄１２號之６","OBJECTID":13622},"geometry":{"x":170076.87000000011,"y":2545187.3000000026}},{"attributes":{"ID":13623,"DIS_CODE":0,"TOWNNAME":"北區","LI":"振興里","LIN":"5鄰","STREET":"開元路","SECT":" ","MAREA":" ","LANE":"１４８巷","ALLEY":"２３弄","HOUSE_NO":"１２號之７","E_COORD97":170081.45000000001,"N_COORD97":2545184.8999999999,"ADDRESS":"開元路１４８巷２３弄１２號之７","OBJECTID":13623},"geometry":{"x":170081.45000000019,"y":2545184.9000000041}},{"attributes":{"ID":13624,"DIS_CODE":0,"TOWNNAME":"北區","LI":"振興里","LIN":"5鄰","STREET":"開元路","SECT":" ","MAREA":" ","LANE":"１４８巷","ALLEY":"２３弄","HOUSE_NO":"１２號之８","E_COORD97":170085.16,"N_COORD97":2545181.1899999999,"ADDRESS":"開元路１４８巷２３弄１２號之８","OBJECTID":13624},"geometry":{"x":170085.16000000015,"y":2545181.1899999995}},{"attributes":{"ID":13625,"DIS_CODE":0,"TOWNNAME":"永康區","LI":"西勢里","LIN":"24鄰","STREET":"廣興街","SECT":" ","MAREA":" ","LANE":"３８巷","ALLEY":"１４弄","HOUSE_NO":"２號五樓","E_COORD97":175945.54000000001,"N_COORD97":2546509.21,"ADDRESS":"廣興街３８巷１４弄２號五樓","OBJECTID":13625},"geometry":{"x":175945.54000000097,"y":2546509.2100000028}},{"attributes":{"ID":13626,"DIS_CODE":0,"TOWNNAME":"永康區","LI":"西勢里","LIN":"24鄰","STREET":"廣興街","SECT":" ","MAREA":" ","LANE":"３８巷","ALLEY":"４７弄","HOUSE_NO":"２６號六樓","E_COORD97":176105.07000000001,"N_COORD97":2546511.7599999998,"ADDRESS":"廣興街３８巷４７弄２６號六樓","OBJECTID":13626},"geometry":{"x":176105.07000000123,"y":2546511.7600000016}},{"attributes":{"ID":13627,"DIS_CODE":0,"TOWNNAME":"永康區","LI":"西勢里","LIN":"24鄰","STREET":"廣興街","SECT":" ","MAREA":" ","LANE":"３８巷","ALLEY":"４７弄","HOUSE_NO":"２０號二樓","E_COORD97":176090.38,"N_COORD97":2546486.25,"ADDRESS":"廣興街３８巷４７弄２０號二樓","OBJECTID":13627},"geometry":{"x":176090.38000000082,"y":2546486.25}},{"attributes":{"ID":13628,"DIS_CODE":0,"TOWNNAME":"永康區","LI":"西勢里","LIN":"24鄰","STREET":"廣興街","SECT":" ","MAREA":" ","LANE":"３８巷","ALLEY":"１４弄","HOUSE_NO":"６號二樓","E_COORD97":175932.85999999999,"N_COORD97":2546495.3700000001,"ADDRESS":"廣興街３８巷１４弄６號二樓","OBJECTID":13628},"geometry":{"x":175932.8600000022,"y":2546495.3700000029}},{"attributes":{"ID":13629,"DIS_CODE":0,"TOWNNAME":"西港區","LI":"南海里","LIN":"13鄰","STREET":" ","SECT":" ","MAREA":"南海埔","LANE":" ","ALLEY":" ","HOUSE_NO":"１２２號之３","E_COORD97":167660.5,"N_COORD97":2557309.6699999999,"ADDRESS":"南海埔１２２號之３","OBJECTID":13629},"geometry":{"x":167660.5,"y":2557309.6699999981}},{"attributes":{"ID":13630,"DIS_CODE":0,"TOWNNAME":"麻豆區","LI":"穀興里","LIN":"13鄰","STREET":"中華街","SECT":" ","MAREA":" ","LANE":" ","ALLEY":" ","HOUSE_NO":"２２號","E_COORD97":172904.54000000001,"N_COORD97":2564792.4300000002,"ADDRESS":"中華街２２號","OBJECTID":13630},"geometry":{"x":172904.54000000004,"y":2564792.4299999997}},{"attributes":{"ID":13631,"DIS_CODE":0,"TOWNNAME":"東區","LI":"虎尾里","LIN":"13鄰","STREET":"東成街","SECT":" ","MAREA":" ","LANE":" ","ALLEY":" ","HOUSE_NO":"１２９號","E_COORD97":171687.51999999999,"N_COORD97":2542312.4399999999,"ADDRESS":"東成街１２９號","OBJECTID":13631},"geometry":{"x":171687.51999999955,"y":2542312.4400000013}},{"attributes":{"ID":13632,"DIS_CODE":0,"TOWNNAME":"西港區","LI":"南海里","LIN":"13鄰","STREET":" ","SECT":" ","MAREA":"南海埔","LANE":" ","ALLEY":" ","HOUSE_NO":"１２２號之４","E_COORD97":167652.48999999999,"N_COORD97":2557303.0499999998,"ADDRESS":"南海埔１２２號之４","OBJECTID":13632},"geometry":{"x":167652.49000000209,"y":2557303.0500000026}},{"attributes":{"ID":13633,"DIS_CODE":0,"TOWNNAME":"永康區","LI":"光復里","LIN":"24鄰","STREET":"復興路","SECT":" ","MAREA":" ","LANE":"１２８巷","ALLEY":"１弄","HOUSE_NO":"１５號五樓","E_COORD97":172659.73999999999,"N_COORD97":2544368.0299999998,"ADDRESS":"復興路１２８巷１弄１５號五樓","OBJECTID":13633},"geometry":{"x":172659.74000000022,"y":2544368.0299999993}},{"attributes":{"ID":13634,"DIS_CODE":0,"TOWNNAME":"永康區","LI":"光復里","LIN":"24鄰","STREET":"復興路","SECT":" ","MAREA":" ","LANE":"１２８巷","ALLEY":"１弄","HOUSE_NO":"１５號二樓","E_COORD97":172659.73999999999,"N_COORD97":2544368.0299999998,"ADDRESS":"復興路１２８巷１弄１５號二樓","OBJECTID":13634},"geometry":{"x":172659.74000000022,"y":2544368.0299999993}},{"attributes":{"ID":13635,"DIS_CODE":0,"TOWNNAME":"東區","LI":"裕聖里","LIN":"13鄰","STREET":"裕信三街","SECT":" ","MAREA":" ","LANE":" ","ALLEY":" ","HOUSE_NO":"７９號","E_COORD97":172840.42999999999,"N_COORD97":2542462.8900000001,"ADDRESS":"裕信三街７９號","OBJECTID":13635},"geometry":{"x":172840.43000000063,"y":2542462.8900000043}},{"attributes":{"ID":13636,"DIS_CODE":0,"TOWNNAME":"新營區","LI":"新南里","LIN":"24鄰","STREET":"隋唐街","SECT":" ","MAREA":" ","LANE":"２９５巷","ALLEY":"４１弄","HOUSE_NO":"２５號四樓之５","E_COORD97":178238.73000000001,"N_COORD97":2578467.1499999999,"ADDRESS":"隋唐街２９５巷４１弄２５號四樓之５","OBJECTID":13636},"geometry":{"x":178238.73000000045,"y":2578467.1500000022}},{"attributes":{"ID":13637,"DIS_CODE":0,"TOWNNAME":"西港區","LI":"後營里","LIN":"13鄰","STREET":" ","SECT":" ","MAREA":"後營","LANE":" ","ALLEY":" ","HOUSE_NO":"２８０號之８","E_COORD97":169809.5,"N_COORD97":2560021.4100000001,"ADDRESS":"後營２８０號之８","OBJECTID":13637},"geometry":{"x":169809.5,"y":2560021.410000002}},{"attributes":{"ID":13638,"DIS_CODE":0,"TOWNNAME":"西港區","LI":"後營里","LIN":"13鄰","STREET":" ","SECT":" ","MAREA":"後營","LANE":" ","ALLEY":" ","HOUSE_NO":"２８０號之９","E_COORD97":169808.97,"N_COORD97":2560017.4700000002,"ADDRESS":"後營２８０號之９","OBJECTID":13638},"geometry":{"x":169808.97000000067,"y":2560017.4700000044}},{"attributes":{"ID":13639,"DIS_CODE":0,"TOWNNAME":"西港區","LI":"後營里","LIN":"13鄰","STREET":" ","SECT":" ","MAREA":"後營","LANE":" ","ALLEY":" ","HOUSE_NO":"２８０號","E_COORD97":169881.07999999999,"N_COORD97":2560039.2200000002,"ADDRESS":"後營２８０號","OBJECTID":13639},"geometry":{"x":169881.08000000101,"y":2560039.2200000007}},{"attributes":{"ID":13640,"DIS_CODE":0,"TOWNNAME":"新營區","LI":"南紙里","LIN":"24鄰","STREET":"南紙街","SECT":" ","MAREA":" ","LANE":"１１７巷","ALLEY":"４０弄","HOUSE_NO":"１號四樓之１４","E_COORD97":177951.19,"N_COORD97":2577430.8599999999,"ADDRESS":"南紙街１１７巷４０弄１號四樓之１４","OBJECTID":13640},"geometry":{"x":177951.18999999948,"y":2577430.8600000013}},{"attributes":{"ID":13641,"DIS_CODE":0,"TOWNNAME":"新營區","LI":"新南里","LIN":"24鄰","STREET":"隋唐街","SECT":" ","MAREA":" ","LANE":"２９５巷","ALLEY":"４１弄","HOUSE_NO":"２５號五樓之５","E_COORD97":178238.73000000001,"N_COORD97":2578467.1499999999,"ADDRESS":"隋唐街２９５巷４１弄２５號五樓之５","OBJECTID":13641},"geometry":{"x":178238.73000000045,"y":2578467.1500000022}},{"attributes":{"ID":13642,"DIS_CODE":0,"TOWNNAME":"新營區","LI":"南紙里","LIN":"24鄰","STREET":"南紙街","SECT":" ","MAREA":" ","LANE":"１１７巷","ALLEY":"４０弄","HOUSE_NO":"１號二樓之８","E_COORD97":177950.06,"N_COORD97":2577430.8599999999,"ADDRESS":"南紙街１１７巷４０弄１號二樓之８","OBJECTID":13642},"geometry":{"x":177950.06000000052,"y":2577430.8600000013}},{"attributes":{"ID":13643,"DIS_CODE":0,"TOWNNAME":"西港區","LI":"後營里","LIN":"13鄰","STREET":" ","SECT":" ","MAREA":"後營","LANE":" ","ALLEY":" ","HOUSE_NO":"２８１號之１０","E_COORD97":169895.29999999999,"N_COORD97":2559962.7000000002,"ADDRESS":"後營２８１號之１０","OBJECTID":13643},"geometry":{"x":169895.29999999981,"y":2559962.6999999993}},{"attributes":{"ID":13644,"DIS_CODE":0,"TOWNNAME":"新營區","LI":"南紙里","LIN":"24鄰","STREET":"南紙街","SECT":" ","MAREA":" ","LANE":"１１７巷","ALLEY":"４０弄","HOUSE_NO":"１號三樓之１６","E_COORD97":177951.26999999999,"N_COORD97":2577430.8599999999,"ADDRESS":"南紙街１１７巷４０弄１號三樓之１６","OBJECTID":13644},"geometry":{"x":177951.26999999955,"y":2577430.8600000013}},{"attributes":{"ID":13645,"DIS_CODE":0,"TOWNNAME":"新營區","LI":"新南里","LIN":"24鄰","STREET":"隋唐街","SECT":" ","MAREA":" ","LANE":"２９５巷","ALLEY":"４１弄","HOUSE_NO":"２５號四樓之８","E_COORD97":178238.72,"N_COORD97":2578467.1499999999,"ADDRESS":"隋唐街２９５巷４１弄２５號四樓之８","OBJECTID":13645},"geometry":{"x":178238.72000000067,"y":2578467.1500000022}},{"attributes":{"ID":13646,"DIS_CODE":0,"TOWNNAME":"新市區","LI":"港墘里","LIN":"13鄰","STREET":"中山路","SECT":" ","MAREA":" ","LANE":" ","ALLEY":" ","HOUSE_NO":"９２號","E_COORD97":178401.26999999999,"N_COORD97":2552818.5,"ADDRESS":"中山路９２號","OBJECTID":13646},"geometry":{"x":178401.27000000048,"y":2552818.5}},{"attributes":{"ID":13647,"DIS_CODE":0,"TOWNNAME":"東區","LI":"後甲里","LIN":"34鄰","STREET":" ","SECT":" ","MAREA":"精忠三村","LANE":" ","ALLEY":" ","HOUSE_NO":"１號之３２","E_COORD97":171748.67000000001,"N_COORD97":2543576.3900000001,"ADDRESS":"精忠三村１號之３２","OBJECTID":13647},"geometry":{"x":171748.67000000086,"y":2543576.3900000025}},{"attributes":{"ID":13648,"DIS_CODE":0,"TOWNNAME":"東區","LI":"後甲里","LIN":"34鄰","STREET":" ","SECT":" ","MAREA":"精忠三村","LANE":" ","ALLEY":" ","HOUSE_NO":"１號之３１","E_COORD97":171749.94,"N_COORD97":2543574.4900000002,"ADDRESS":"精忠三村１號之３１","OBJECTID":13648},"geometry":{"x":171749.94000000041,"y":2543574.4900000021}},{"attributes":{"ID":13649,"DIS_CODE":0,"TOWNNAME":"東區","LI":"後甲里","LIN":"34鄰","STREET":" ","SECT":" ","MAREA":"精忠三村","LANE":" ","ALLEY":" ","HOUSE_NO":"１號之３０","E_COORD97":171746.97,"N_COORD97":2543572.3700000001,"ADDRESS":"精忠三村１號之３０","OBJECTID":13649},"geometry":{"x":171746.96999999974,"y":2543572.3700000029}},{"attributes":{"ID":13650,"DIS_CODE":0,"TOWNNAME":"新營區","LI":"南紙里","LIN":"24鄰","STREET":"南紙街","SECT":" ","MAREA":" ","LANE":"１１７巷","ALLEY":"４０弄","HOUSE_NO":"１號五樓之１９","E_COORD97":177951.25,"N_COORD97":2577430.8599999999,"ADDRESS":"南紙街１１７巷４０弄１號五樓之１９","OBJECTID":13650},"geometry":{"x":177951.25000000093,"y":2577430.8600000013}},{"attributes":{"ID":13651,"DIS_CODE":0,"TOWNNAME":"新營區","LI":"南紙里","LIN":"24鄰","STREET":"南紙街","SECT":" ","MAREA":" ","LANE":"１１７巷","ALLEY":"４０弄","HOUSE_NO":"１號六樓之４","E_COORD97":177949.94,"N_COORD97":2577430.8599999999,"ADDRESS":"南紙街１１７巷４０弄１號六樓之４","OBJECTID":13651},"geometry":{"x":177949.94000000134,"y":2577430.8600000013}},{"attributes":{"ID":13652,"DIS_CODE":0,"TOWNNAME":"新營區","LI":"南紙里","LIN":"24鄰","STREET":"南紙街","SECT":" ","MAREA":" ","LANE":"１１７巷","ALLEY":"４０弄","HOUSE_NO":"１號六樓之１２","E_COORD97":177951.29999999999,"N_COORD97":2577430.8599999999,"ADDRESS":"南紙街１１７巷４０弄１號六樓之１２","OBJECTID":13652},"geometry":{"x":177951.29999999981,"y":2577430.8600000013}},{"attributes":{"ID":13653,"DIS_CODE":0,"TOWNNAME":"新營區","LI":"南紙里","LIN":"24鄰","STREET":"南紙街","SECT":" ","MAREA":" ","LANE":"１１７巷","ALLEY":"４０弄","HOUSE_NO":"１號六樓之１７","E_COORD97":177951.23999999999,"N_COORD97":2577430.8599999999,"ADDRESS":"南紙街１１７巷４０弄１號六樓之１７","OBJECTID":13653},"geometry":{"x":177951.24000000115,"y":2577430.8600000013}},{"attributes":{"ID":13654,"DIS_CODE":0,"TOWNNAME":"新營區","LI":"南紙里","LIN":"24鄰","STREET":"南紙街","SECT":" ","MAREA":" ","LANE":"１１７巷","ALLEY":"４０弄","HOUSE_NO":"１號二樓之２","E_COORD97":177950.04999999999,"N_COORD97":2577430.8599999999,"ADDRESS":"南紙街１１７巷４０弄１號二樓之２","OBJECTID":13654},"geometry":{"x":177950.05000000168,"y":2577430.8600000013}},{"attributes":{"ID":13655,"DIS_CODE":0,"TOWNNAME":"新營區","LI":"南紙里","LIN":"24鄰","STREET":"南紙街","SECT":" ","MAREA":" ","LANE":"１１７巷","ALLEY":"４０弄","HOUSE_NO":"１號六樓之１４","E_COORD97":177951.19,"N_COORD97":2577430.8599999999,"ADDRESS":"南紙街１１７巷４０弄１號六樓之１４","OBJECTID":13655},"geometry":{"x":177951.18999999948,"y":2577430.8600000013}},{"attributes":{"ID":13656,"DIS_CODE":0,"TOWNNAME":"新營區","LI":"南紙里","LIN":"24鄰","STREET":"南紙街","SECT":" ","MAREA":" ","LANE":"１１７巷","ALLEY":"４０弄","HOUSE_NO":"１號七樓之１１","E_COORD97":177951.17000000001,"N_COORD97":2577430.8599999999,"ADDRESS":"南紙街１１７巷４０弄１號七樓之１１","OBJECTID":13656},"geometry":{"x":177951.17000000086,"y":2577430.8600000013}},{"attributes":{"ID":13657,"DIS_CODE":0,"TOWNNAME":"新營區","LI":"新南里","LIN":"24鄰","STREET":"隋唐街","SECT":" ","MAREA":" ","LANE":"２９５巷","ALLEY":"４１弄","HOUSE_NO":"２５號五樓之２","E_COORD97":178238.70999999999,"N_COORD97":2578467.1499999999,"ADDRESS":"隋唐街２９５巷４１弄２５號五樓之２","OBJECTID":13657},"geometry":{"x":178238.70999999996,"y":2578467.1500000022}},{"attributes":{"ID":13658,"DIS_CODE":0,"TOWNNAME":"新營區","LI":"南紙里","LIN":"24鄰","STREET":"南紙街","SECT":" ","MAREA":" ","LANE":"１１７巷","ALLEY":"４０弄","HOUSE_NO":"１號七樓之１","E_COORD97":177949.92000000001,"N_COORD97":2577430.8599999999,"ADDRESS":"南紙街１１７巷４０弄１號七樓之１","OBJECTID":13658},"geometry":{"x":177949.92000000086,"y":2577430.8600000013}},{"attributes":{"ID":13659,"DIS_CODE":0,"TOWNNAME":"新營區","LI":"南紙里","LIN":"24鄰","STREET":"南紙街","SECT":" ","MAREA":" ","LANE":"１１７巷","ALLEY":"４０弄","HOUSE_NO":"１號四樓之８","E_COORD97":177950.06,"N_COORD97":2577430.8599999999,"ADDRESS":"南紙街１１７巷４０弄１號四樓之８","OBJECTID":13659},"geometry":{"x":177950.06000000052,"y":2577430.8600000013}},{"attributes":{"ID":13660,"DIS_CODE":0,"TOWNNAME":"新營區","LI":"南紙里","LIN":"24鄰","STREET":"南紙街","SECT":" ","MAREA":" ","LANE":"１１７巷","ALLEY":"４０弄","HOUSE_NO":"１號二樓之９","E_COORD97":177950,"N_COORD97":2577430.8599999999,"ADDRESS":"南紙街１１７巷４０弄１號二樓之９","OBJECTID":13660},"geometry":{"x":177950,"y":2577430.8600000013}},{"attributes":{"ID":13661,"DIS_CODE":0,"TOWNNAME":"新營區","LI":"南紙里","LIN":"24鄰","STREET":"南紙街","SECT":" ","MAREA":" ","LANE":"１１７巷","ALLEY":"４０弄","HOUSE_NO":"１號五樓之１７","E_COORD97":177951.23999999999,"N_COORD97":2577430.8599999999,"ADDRESS":"南紙街１１７巷４０弄１號五樓之１７","OBJECTID":13661},"geometry":{"x":177951.24000000115,"y":2577430.8600000013}},{"attributes":{"ID":13662,"DIS_CODE":0,"TOWNNAME":"仁德區","LI":"後壁里","LIN":"12鄰","STREET":"德南路","SECT":" ","MAREA":" ","LANE":"２５１巷","ALLEY":"２９弄","HOUSE_NO":"２８號","E_COORD97":173820.40313699999,"N_COORD97":2538524.4656199999,"ADDRESS":"德南路２５１巷２９弄２８號","OBJECTID":13662},"geometry":{"x":173820.40313700028,"y":2538524.4656180013}},{"attributes":{"ID":13663,"DIS_CODE":0,"TOWNNAME":"新營區","LI":"新南里","LIN":"24鄰","STREET":"隋唐街","SECT":" ","MAREA":" ","LANE":"２９５巷","ALLEY":"４１弄","HOUSE_NO":"２５號五樓之９","E_COORD97":178238.66,"N_COORD97":2578467.1499999999,"ADDRESS":"隋唐街２９５巷４１弄２５號五樓之９","OBJECTID":13663},"geometry":{"x":178238.66000000015,"y":2578467.1500000022}},{"attributes":{"ID":13664,"DIS_CODE":0,"TOWNNAME":"新營區","LI":"南紙里","LIN":"24鄰","STREET":"南紙街","SECT":" ","MAREA":" ","LANE":"１１７巷","ALLEY":"４０弄","HOUSE_NO":"１號五樓之１０","E_COORD97":177951.22,"N_COORD97":2577430.8599999999,"ADDRESS":"南紙街１１７巷４０弄１號五樓之１０","OBJECTID":13664},"geometry":{"x":177951.22000000067,"y":2577430.8600000013}},{"attributes":{"ID":13665,"DIS_CODE":0,"TOWNNAME":"新營區","LI":"南紙里","LIN":"24鄰","STREET":"南紙街","SECT":" ","MAREA":" ","LANE":"１１７巷","ALLEY":"４０弄","HOUSE_NO":"１號五樓之２","E_COORD97":177950.04999999999,"N_COORD97":2577430.8599999999,"ADDRESS":"南紙街１１７巷４０弄１號五樓之２","OBJECTID":13665},"geometry":{"x":177950.05000000168,"y":2577430.8600000013}},{"attributes":{"ID":13666,"DIS_CODE":0,"TOWNNAME":"新營區","LI":"新南里","LIN":"24鄰","STREET":"隋唐街","SECT":" ","MAREA":" ","LANE":"２９５巷","ALLEY":"４１弄","HOUSE_NO":"２５號四樓之６","E_COORD97":178238.67999999999,"N_COORD97":2578467.1499999999,"ADDRESS":"隋唐街２９５巷４１弄２５號四樓之６","OBJECTID":13666},"geometry":{"x":178238.67999999877,"y":2578467.1500000022}},{"attributes":{"ID":13667,"DIS_CODE":0,"TOWNNAME":"新營區","LI":"新南里","LIN":"24鄰","STREET":"隋唐街","SECT":" ","MAREA":" ","LANE":"２９５巷","ALLEY":"４１弄","HOUSE_NO":"２５號四樓之４","E_COORD97":178238.60000000001,"N_COORD97":2578467.1499999999,"ADDRESS":"隋唐街２９５巷４１弄２５號四樓之４","OBJECTID":13667},"geometry":{"x":178238.59999999963,"y":2578467.1500000022}},{"attributes":{"ID":13668,"DIS_CODE":0,"TOWNNAME":"官田區","LI":"二鎮里","LIN":"14鄰","STREET":" ","SECT":" ","MAREA":"程泰","LANE":" ","ALLEY":" ","HOUSE_NO":"５７號","E_COORD97":181641.39000000001,"N_COORD97":2566507.6600000001,"ADDRESS":"程泰５７號","OBJECTID":13668},"geometry":{"x":181641.39000000153,"y":2566507.6600000001}},{"attributes":{"ID":13669,"DIS_CODE":0,"TOWNNAME":"新營區","LI":"新南里","LIN":"24鄰","STREET":"隋唐街","SECT":" ","MAREA":" ","LANE":"２９５巷","ALLEY":"４１弄","HOUSE_NO":"２５號三樓之５","E_COORD97":178238.73000000001,"N_COORD97":2578467.1499999999,"ADDRESS":"隋唐街２９５巷４１弄２５號三樓之５","OBJECTID":13669},"geometry":{"x":178238.73000000045,"y":2578467.1500000022}},{"attributes":{"ID":13670,"DIS_CODE":0,"TOWNNAME":"中西區","LI":"小西里","LIN":"13鄰","STREET":"府前路","SECT":"一段","MAREA":" ","LANE":" ","ALLEY":" ","HOUSE_NO":"３６１號","E_COORD97":167896.76000000001,"N_COORD97":2543397.75,"ADDRESS":"府前路一段３６１號","OBJECTID":13670},"geometry":{"x":167896.76000000071,"y":2543397.75}},{"attributes":{"ID":13671,"DIS_CODE":0,"TOWNNAME":"中西區","LI":"小西里","LIN":"13鄰","STREET":"府前路","SECT":"一段","MAREA":" ","LANE":" ","ALLEY":" ","HOUSE_NO":"３６３號","E_COORD97":167892.41,"N_COORD97":2543396.1200000001,"ADDRESS":"府前路一段３６３號","OBJECTID":13671},"geometry":{"x":167892.41000000108,"y":2543396.120000001}},{"attributes":{"ID":13672,"DIS_CODE":0,"TOWNNAME":"中西區","LI":"小西里","LIN":"13鄰","STREET":"府前路","SECT":"一段","MAREA":" ","LANE":" ","ALLEY":" ","HOUSE_NO":"３６５號","E_COORD97":167889.04999999999,"N_COORD97":2543397.75,"ADDRESS":"府前路一段３６５號","OBJECTID":13672},"geometry":{"x":167889.05000000168,"y":2543397.75}},{"attributes":{"ID":13673,"DIS_CODE":0,"TOWNNAME":"東區","LI":"後甲里","LIN":"34鄰","STREET":" ","SECT":" ","MAREA":"精忠三村","LANE":" ","ALLEY":" ","HOUSE_NO":"１號之２９","E_COORD97":171749.73000000001,"N_COORD97":2543570.2599999998,"ADDRESS":"精忠三村１號之２９","OBJECTID":13673},"geometry":{"x":171749.73000000045,"y":2543570.2599999998}},{"attributes":{"ID":13674,"DIS_CODE":0,"TOWNNAME":"東區","LI":"後甲里","LIN":"34鄰","STREET":" ","SECT":" ","MAREA":"精忠三村","LANE":" ","ALLEY":" ","HOUSE_NO":"１號之２８","E_COORD97":171746.97,"N_COORD97":2543568.3500000001,"ADDRESS":"精忠三村１號之２８","OBJECTID":13674},"geometry":{"x":171746.96999999974,"y":2543568.3500000015}},{"attributes":{"ID":13675,"DIS_CODE":0,"TOWNNAME":"東區","LI":"後甲里","LIN":"34鄰","STREET":" ","SECT":" ","MAREA":"精忠三村","LANE":" ","ALLEY":" ","HOUSE_NO":"１號之２７","E_COORD97":171748.88,"N_COORD97":2543565.8100000001,"ADDRESS":"精忠三村１號之２７","OBJECTID":13675},"geometry":{"x":171748.88000000082,"y":2543565.8100000024}},{"attributes":{"ID":13676,"DIS_CODE":0,"TOWNNAME":"東區","LI":"後甲里","LIN":"34鄰","STREET":" ","SECT":" ","MAREA":"精忠三村","LANE":" ","ALLEY":" ","HOUSE_NO":"１號之４７","E_COORD97":171747.82000000001,"N_COORD97":2543622.96,"ADDRESS":"精忠三村１號之４７","OBJECTID":13676},"geometry":{"x":171747.82000000123,"y":2543622.9600000028}},{"attributes":{"ID":13677,"DIS_CODE":0,"TOWNNAME":"東區","LI":"後甲里","LIN":"34鄰","STREET":" ","SECT":" ","MAREA":"精忠三村","LANE":" ","ALLEY":" ","HOUSE_NO":"１號之４６","E_COORD97":171749.09,"N_COORD97":2543620.4199999999,"ADDRESS":"精忠三村１號之４６","OBJECTID":13677},"geometry":{"x":171749.09000000078,"y":2543620.4199999999}},{"attributes":{"ID":13678,"DIS_CODE":0,"TOWNNAME":"新市區","LI":"大社里","LIN":"34鄰","STREET":" ","SECT":" ","MAREA":"大社","LANE":" ","ALLEY":" ","HOUSE_NO":"５０１之２４號","E_COORD97":179835.76000000001,"N_COORD97":2554952.7999999998,"ADDRESS":"大社５０１之２４號","OBJECTID":13678},"geometry":{"x":179835.76000000071,"y":2554952.8000000007}},{"attributes":{"ID":13679,"DIS_CODE":0,"TOWNNAME":"新市區","LI":"大社里","LIN":"34鄰","STREET":" ","SECT":" ","MAREA":"大社","LANE":" ","ALLEY":" ","HOUSE_NO":"５０１之２７號","E_COORD97":179822.42000000001,"N_COORD97":2554950.7999999998,"ADDRESS":"大社５０１之２７號","OBJECTID":13679},"geometry":{"x":179822.42000000179,"y":2554950.8000000026}},{"attributes":{"ID":13680,"DIS_CODE":0,"TOWNNAME":"新市區","LI":"大社里","LIN":"34鄰","STREET":" ","SECT":" ","MAREA":"大社","LANE":" ","ALLEY":" ","HOUSE_NO":"５０１之３３號","E_COORD97":179793.01000000001,"N_COORD97":2554947.7999999998,"ADDRESS":"大社５０１之３３號","OBJECTID":13680},"geometry":{"x":179793.01000000071,"y":2554947.8000000026}},{"attributes":{"ID":13681,"DIS_CODE":0,"TOWNNAME":"新市區","LI":"大社里","LIN":"34鄰","STREET":" ","SECT":" ","MAREA":"大社","LANE":" ","ALLEY":" ","HOUSE_NO":"５０１之３２號","E_COORD97":179798.17000000001,"N_COORD97":2554948.5499999998,"ADDRESS":"大社５０１之３２號","OBJECTID":13681},"geometry":{"x":179798.16999999993,"y":2554948.5500000045}},{"attributes":{"ID":13682,"DIS_CODE":0,"TOWNNAME":"新市區","LI":"大社里","LIN":"34鄰","STREET":" ","SECT":" ","MAREA":"大社","LANE":" ","ALLEY":" ","HOUSE_NO":"５０１之３１號","E_COORD97":179803.32000000001,"N_COORD97":2554949.7999999998,"ADDRESS":"大社５０１之３１號","OBJECTID":13682},"geometry":{"x":179803.32000000123,"y":2554949.8000000007}},{"attributes":{"ID":13683,"DIS_CODE":0,"TOWNNAME":"新營區","LI":"南紙里","LIN":"24鄰","STREET":"南紙街","SECT":" ","MAREA":" ","LANE":"１１７巷","ALLEY":"４０弄","HOUSE_NO":"１號六樓之７","E_COORD97":177949.98999999999,"N_COORD97":2577430.8599999999,"ADDRESS":"南紙街１１７巷４０弄１號六樓之７","OBJECTID":13683},"geometry":{"x":177949.99000000022,"y":2577430.8600000013}},{"attributes":{"ID":13684,"DIS_CODE":0,"TOWNNAME":"新營區","LI":"南紙里","LIN":"24鄰","STREET":"南紙街","SECT":" ","MAREA":" ","LANE":"１１７巷","ALLEY":"４０弄","HOUSE_NO":"１號四樓之１８","E_COORD97":177951.31,"N_COORD97":2577430.8599999999,"ADDRESS":"南紙街１１７巷４０弄１號四樓之１８","OBJECTID":13684},"geometry":{"x":177951.31000000145,"y":2577430.8600000013}},{"attributes":{"ID":13685,"DIS_CODE":0,"TOWNNAME":"新營區","LI":"南紙里","LIN":"24鄰","STREET":"南紙街","SECT":" ","MAREA":" ","LANE":"１１７巷","ALLEY":"４０弄","HOUSE_NO":"１號七樓之８","E_COORD97":177950.06,"N_COORD97":2577430.8599999999,"ADDRESS":"南紙街１１７巷４０弄１號七樓之８","OBJECTID":13685},"geometry":{"x":177950.06000000052,"y":2577430.8600000013}},{"attributes":{"ID":13686,"DIS_CODE":0,"TOWNNAME":"新營區","LI":"南紙里","LIN":"24鄰","STREET":"南紙街","SECT":" ","MAREA":" ","LANE":"１１７巷","ALLEY":"４０弄","HOUSE_NO":"１號六樓之５","E_COORD97":177950.07000000001,"N_COORD97":2577430.8599999999,"ADDRESS":"南紙街１１７巷４０弄１號六樓之５","OBJECTID":13686},"geometry":{"x":177950.0700000003,"y":2577430.8600000013}},{"attributes":{"ID":13687,"DIS_CODE":0,"TOWNNAME":"新營區","LI":"南紙里","LIN":"24鄰","STREET":"南紙街","SECT":" ","MAREA":" ","LANE":"１１７巷","ALLEY":"４０弄","HOUSE_NO":"１號七樓之１３","E_COORD97":177951.26000000001,"N_COORD97":2577430.8599999999,"ADDRESS":"南紙街１１７巷４０弄１號七樓之１３","OBJECTID":13687},"geometry":{"x":177951.25999999978,"y":2577430.8600000013}},{"attributes":{"ID":13688,"DIS_CODE":0,"TOWNNAME":"新營區","LI":"南紙里","LIN":"24鄰","STREET":"南紙街","SECT":" ","MAREA":" ","LANE":"１１７巷","ALLEY":"４０弄","HOUSE_NO":"１號二樓之５","E_COORD97":177950.07000000001,"N_COORD97":2577430.8599999999,"ADDRESS":"南紙街１１７巷４０弄１號二樓之５","OBJECTID":13688},"geometry":{"x":177950.0700000003,"y":2577430.8600000013}},{"attributes":{"ID":13689,"DIS_CODE":0,"TOWNNAME":"新營區","LI":"南紙里","LIN":"24鄰","STREET":"南紙街","SECT":" ","MAREA":" ","LANE":"１１７巷","ALLEY":"４０弄","HOUSE_NO":"１號四樓之１９","E_COORD97":177951.25,"N_COORD97":2577430.8599999999,"ADDRESS":"南紙街１１７巷４０弄１號四樓之１９","OBJECTID":13689},"geometry":{"x":177951.25000000093,"y":2577430.8600000013}},{"attributes":{"ID":13690,"DIS_CODE":0,"TOWNNAME":"新營區","LI":"南紙里","LIN":"24鄰","STREET":"南紙街","SECT":" ","MAREA":" ","LANE":"１１７巷","ALLEY":"４０弄","HOUSE_NO":"１號三樓之１","E_COORD97":177949.92000000001,"N_COORD97":2577430.8599999999,"ADDRESS":"南紙街１１７巷４０弄１號三樓之１","OBJECTID":13690},"geometry":{"x":177949.92000000086,"y":2577430.8600000013}},{"attributes":{"ID":13691,"DIS_CODE":0,"TOWNNAME":"新營區","LI":"南紙里","LIN":"24鄰","STREET":"南紙街","SECT":" ","MAREA":" ","LANE":"１１７巷","ALLEY":"４０弄","HOUSE_NO":"１號七樓之１４","E_COORD97":177951.19,"N_COORD97":2577430.8599999999,"ADDRESS":"南紙街１１７巷４０弄１號七樓之１４","OBJECTID":13691},"geometry":{"x":177951.18999999948,"y":2577430.8600000013}},{"attributes":{"ID":13692,"DIS_CODE":0,"TOWNNAME":"新市區","LI":"大社里","LIN":"34鄰","STREET":" ","SECT":" ","MAREA":"大社","LANE":" ","ALLEY":" ","HOUSE_NO":"５０１之２號","E_COORD97":179848.67000000001,"N_COORD97":2554976.2999999998,"ADDRESS":"大社５０１之２號","OBJECTID":13692},"geometry":{"x":179848.67000000086,"y":2554976.3000000007}},{"attributes":{"ID":13693,"DIS_CODE":0,"TOWNNAME":"善化區","LI":"溪美里","LIN":"14鄰","STREET":" ","SECT":" ","MAREA":"溪尾","LANE":" ","ALLEY":" ","HOUSE_NO":"１３２號之３１","E_COORD97":176962.20000000001,"N_COORD97":2561463.52,"ADDRESS":"溪尾１３２號之３１","OBJECTID":13693},"geometry":{"x":176962.20000000019,"y":2561463.5199999977}},{"attributes":{"ID":13694,"DIS_CODE":0,"TOWNNAME":"善化區","LI":"溪美里","LIN":"14鄰","STREET":" ","SECT":" ","MAREA":"溪尾","LANE":" ","ALLEY":" ","HOUSE_NO":"１３５號（已半毀）","E_COORD97":176974.26999999999,"N_COORD97":2561401.52,"ADDRESS":"溪尾１３５號（已半毀）","OBJECTID":13694},"geometry":{"x":176974.27000000048,"y":2561401.5199999996}},{"attributes":{"ID":13695,"DIS_CODE":0,"TOWNNAME":"善化區","LI":"溪美里","LIN":"14鄰","STREET":" ","SECT":" ","MAREA":"溪尾","LANE":" ","ALLEY":" ","HOUSE_NO":"１３５號之７","E_COORD97":176965.14000000001,"N_COORD97":2561440.27,"ADDRESS":"溪尾１３５號之７","OBJECTID":13695},"geometry":{"x":176965.13999999966,"y":2561440.2699999996}},{"attributes":{"ID":13696,"DIS_CODE":0,"TOWNNAME":"善化區","LI":"溪美里","LIN":"14鄰","STREET":" ","SECT":" ","MAREA":"溪尾","LANE":" ","ALLEY":" ","HOUSE_NO":"１３２號之３５","E_COORD97":176963.64999999999,"N_COORD97":2561477.27,"ADDRESS":"溪尾１３２號之３５","OBJECTID":13696},"geometry":{"x":176963.6500000013,"y":2561477.2700000014}},{"attributes":{"ID":13697,"DIS_CODE":0,"TOWNNAME":"善化區","LI":"溪美里","LIN":"14鄰","STREET":" ","SECT":" ","MAREA":"溪尾","LANE":" ","ALLEY":" ","HOUSE_NO":"１３２號之３０","E_COORD97":176960.64999999999,"N_COORD97":2561458.77,"ADDRESS":"溪尾１３２號之３０","OBJECTID":13697},"geometry":{"x":176960.6500000013,"y":2561458.7700000033}},{"attributes":{"ID":13698,"DIS_CODE":0,"TOWNNAME":"安南區","LI":"佃西里","LIN":"13鄰","STREET":"海佃路","SECT":"四段","MAREA":" ","LANE":" ","ALLEY":" ","HOUSE_NO":"５００號","E_COORD97":165297.20999999999,"N_COORD97":2551648.5299999998,"ADDRESS":"海佃路四段５００號","OBJECTID":13698},"geometry":{"x":165297.20999999996,"y":2551648.5300000031}},{"attributes":{"ID":13699,"DIS_CODE":0,"TOWNNAME":"安南區","LI":"佃西里","LIN":"13鄰","STREET":"海佃路","SECT":"四段","MAREA":" ","LANE":" ","ALLEY":" ","HOUSE_NO":"５０２號","E_COORD97":165294.79000000001,"N_COORD97":2551664.04,"ADDRESS":"海佃路四段５０２號","OBJECTID":13699},"geometry":{"x":165294.79000000097,"y":2551664.0399999991}},{"attributes":{"ID":13700,"DIS_CODE":0,"TOWNNAME":"安南區","LI":"佃西里","LIN":"13鄰","STREET":"海佃路","SECT":"四段","MAREA":" ","LANE":" ","ALLEY":" ","HOUSE_NO":"５１６號","E_COORD97":165240.67999999999,"N_COORD97":2551670.3599999999,"ADDRESS":"海佃路四段５１６號","OBJECTID":13700},"geometry":{"x":165240.68000000063,"y":2551670.3600000013}},{"attributes":{"ID":13701,"DIS_CODE":0,"TOWNNAME":"安南區","LI":"佃西里","LIN":"13鄰","STREET":"海佃路","SECT":"四段","MAREA":" ","LANE":" ","ALLEY":" ","HOUSE_NO":"５１８號","E_COORD97":165234.94,"N_COORD97":2551666.3599999999,"ADDRESS":"海佃路四段５１８號","OBJECTID":13701},"geometry":{"x":165234.94000000041,"y":2551666.3600000031}},{"attributes":{"ID":13702,"DIS_CODE":0,"TOWNNAME":"善化區","LI":"溪美里","LIN":"14鄰","STREET":" ","SECT":" ","MAREA":"溪尾","LANE":" ","ALLEY":" ","HOUSE_NO":"１２７號","E_COORD97":176905.45999999999,"N_COORD97":2561359.77,"ADDRESS":"溪尾１２７號","OBJECTID":13702},"geometry":{"x":176905.46000000089,"y":2561359.7699999996}},{"attributes":{"ID":13703,"DIS_CODE":0,"TOWNNAME":"新市區","LI":"大社里","LIN":"14鄰","STREET":" ","SECT":" ","MAREA":"大社","LANE":" ","ALLEY":" ","HOUSE_NO":"５２１號","E_COORD97":179885.45999999999,"N_COORD97":2554790.25,"ADDRESS":"大社５２１號","OBJECTID":13703},"geometry":{"x":179885.46000000089,"y":2554790.2499999981}},{"attributes":{"ID":13704,"DIS_CODE":0,"TOWNNAME":"安南區","LI":"佃西里","LIN":"13鄰","STREET":"海佃路","SECT":"四段","MAREA":" ","LANE":" ","ALLEY":" ","HOUSE_NO":"５２８號","E_COORD97":165210.14000000001,"N_COORD97":2551670.0499999998,"ADDRESS":"海佃路四段５２８號","OBJECTID":13704},"geometry":{"x":165210.1400000006,"y":2551670.0500000045}},{"attributes":{"ID":13705,"DIS_CODE":0,"TOWNNAME":"安南區","LI":"佃西里","LIN":"13鄰","STREET":"海佃路","SECT":"四段","MAREA":" ","LANE":" ","ALLEY":" ","HOUSE_NO":"５３２號","E_COORD97":165201.22,"N_COORD97":2551673.9900000002,"ADDRESS":"海佃路四段５３２號","OBJECTID":13705},"geometry":{"x":165201.22000000067,"y":2551673.9900000021}},{"attributes":{"ID":13706,"DIS_CODE":0,"TOWNNAME":"安南區","LI":"佃西里","LIN":"13鄰","STREET":"海佃路","SECT":"四段","MAREA":" ","LANE":" ","ALLEY":" ","HOUSE_NO":"５４０號","E_COORD97":165189.73000000001,"N_COORD97":2551681.6200000001,"ADDRESS":"海佃路四段５４０號","OBJECTID":13706},"geometry":{"x":165189.73000000231,"y":2551681.6200000029}},{"attributes":{"ID":13707,"DIS_CODE":0,"TOWNNAME":"安南區","LI":"佃西里","LIN":"13鄰","STREET":"海佃路","SECT":"四段","MAREA":" ","LANE":" ","ALLEY":" ","HOUSE_NO":"５４２號","E_COORD97":165184.79999999999,"N_COORD97":2551684.8999999999,"ADDRESS":"海佃路四段５４２號","OBJECTID":13707},"geometry":{"x":165184.79999999981,"y":2551684.9000000022}},{"attributes":{"ID":13708,"DIS_CODE":0,"TOWNNAME":"安定區","LI":"安加里","LIN":"14鄰","STREET":" ","SECT":" ","MAREA":"安定","LANE":" ","ALLEY":" ","HOUSE_NO":"３０４號","E_COORD97":171685.62,"N_COORD97":2557527.3199999998,"ADDRESS":"安定３０４號","OBJECTID":13708},"geometry":{"x":171685.62000000011,"y":2557527.3200000022}},{"attributes":{"ID":13709,"DIS_CODE":0,"TOWNNAME":"安定區","LI":"大同里","LIN":"14鄰","STREET":" ","SECT":" ","MAREA":"牛肉寮","LANE":" ","ALLEY":" ","HOUSE_NO":"６５之２０號","E_COORD97":171098.87,"N_COORD97":2553534.2999999998,"ADDRESS":"牛肉寮６５之２０號","OBJECTID":13709},"geometry":{"x":171098.87000000011,"y":2553534.3000000026}},{"attributes":{"ID":13710,"DIS_CODE":0,"TOWNNAME":"安定區","LI":"海寮里","LIN":"14鄰","STREET":" ","SECT":" ","MAREA":"海寮","LANE":" ","ALLEY":" ","HOUSE_NO":"１３４號之２７","E_COORD97":168901.69,"N_COORD97":2555477.2999999998,"ADDRESS":"海寮１３４之２７號","OBJECTID":13710},"geometry":{"x":168901.69000000041,"y":2555477.3000000026}},{"attributes":{"ID":13711,"DIS_CODE":0,"TOWNNAME":"安定區","LI":"海寮里","LIN":"14鄰","STREET":" ","SECT":" ","MAREA":"海寮","LANE":" ","ALLEY":" ","HOUSE_NO":"１３２之２８號","E_COORD97":169045.09,"N_COORD97":2555458.2999999998,"ADDRESS":"海寮１３２之２８號","OBJECTID":13711},"geometry":{"x":169045.09000000078,"y":2555458.3000000007}},{"attributes":{"ID":13712,"DIS_CODE":0,"TOWNNAME":"安定區","LI":"大同里","LIN":"14鄰","STREET":" ","SECT":" ","MAREA":"牛肉寮","LANE":" ","ALLEY":" ","HOUSE_NO":"６５之１９號","E_COORD97":171158.47,"N_COORD97":2553559.2999999998,"ADDRESS":"牛肉寮６５之１９號","OBJECTID":13712},"geometry":{"x":171158.47000000067,"y":2553559.3000000007}},{"attributes":{"ID":13713,"DIS_CODE":0,"TOWNNAME":"安定區","LI":"大同里","LIN":"14鄰","STREET":" ","SECT":" ","MAREA":"\u25A0財","LANE":" ","ALLEY":" ","HOUSE_NO":"２６號","E_COORD97":171519.44,"N_COORD97":2552652.25,"ADDRESS":"\u25A0財２６號","OBJECTID":13713},"geometry":{"x":171519.44000000041,"y":2552652.2500000019}},{"attributes":{"ID":13714,"DIS_CODE":0,"TOWNNAME":"安定區","LI":"大同里","LIN":"14鄰","STREET":" ","SECT":" ","MAREA":"牛肉寮","LANE":" ","ALLEY":" ","HOUSE_NO":"２８號","E_COORD97":170703.92000000001,"N_COORD97":2552615.25,"ADDRESS":"牛肉寮２８號","OBJECTID":13714},"geometry":{"x":170703.91999999899,"y":2552615.2500000019}},{"attributes":{"ID":13715,"DIS_CODE":0,"TOWNNAME":"安定區","LI":"海寮里","LIN":"14鄰","STREET":" ","SECT":" ","MAREA":"海寮","LANE":" ","ALLEY":" ","HOUSE_NO":"１３４號之１２","E_COORD97":168898.85999999999,"N_COORD97":2555443.2999999998,"ADDRESS":"海寮１３４號之１２","OBJECTID":13715},"geometry":{"x":168898.86000000034,"y":2555443.3000000026}},{"attributes":{"ID":13716,"DIS_CODE":0,"TOWNNAME":"安定區","LI":"海寮里","LIN":"14鄰","STREET":" ","SECT":" ","MAREA":"海寮","LANE":" ","ALLEY":" ","HOUSE_NO":"１３１之５號","E_COORD97":168928.14000000001,"N_COORD97":2555377.2999999998,"ADDRESS":"海寮１３１之５號","OBJECTID":13716},"geometry":{"x":168928.1400000006,"y":2555377.3000000045}},{"attributes":{"ID":13717,"DIS_CODE":0,"TOWNNAME":"安定區","LI":"大同里","LIN":"14鄰","STREET":" ","SECT":" ","MAREA":"牛肉寮","LANE":" ","ALLEY":" ","HOUSE_NO":"２６號","E_COORD97":170745.42000000001,"N_COORD97":2552664.25,"ADDRESS":"牛肉寮２６號","OBJECTID":13717},"geometry":{"x":170745.42000000086,"y":2552664.25}},{"attributes":{"ID":13718,"DIS_CODE":0,"TOWNNAME":"安定區","LI":"海寮里","LIN":"14鄰","STREET":" ","SECT":" ","MAREA":"海寮","LANE":" ","ALLEY":" ","HOUSE_NO":"１３４號之２８","E_COORD97":168897.48000000001,"N_COORD97":2555521.2999999998,"ADDRESS":"海寮１３４號之２８","OBJECTID":13718},"geometry":{"x":168897.48000000138,"y":2555521.3000000026}},{"attributes":{"ID":13719,"DIS_CODE":0,"TOWNNAME":"安定區","LI":"大同里","LIN":"14鄰","STREET":" ","SECT":" ","MAREA":"\u25A0財","LANE":" ","ALLEY":" ","HOUSE_NO":"１３號","E_COORD97":172269.64000000001,"N_COORD97":2553005.25,"ADDRESS":"\u25A0財１３號","OBJECTID":13719},"geometry":{"x":172269.63999999966,"y":2553005.2500000019}},{"attributes":{"ID":13720,"DIS_CODE":0,"TOWNNAME":"安定區","LI":"海寮里","LIN":"14鄰","STREET":" ","SECT":" ","MAREA":"海寮","LANE":" ","ALLEY":" ","HOUSE_NO":"１３４號之５","E_COORD97":168880.53,"N_COORD97":2555466.2999999998,"ADDRESS":"海寮１３４號之５","OBJECTID":13720},"geometry":{"x":168880.53000000026,"y":2555466.3000000026}},{"attributes":{"ID":13721,"DIS_CODE":0,"TOWNNAME":"安定區","LI":"大同里","LIN":"14鄰","STREET":" ","SECT":" ","MAREA":"牛肉寮","LANE":" ","ALLEY":" ","HOUSE_NO":"６５之２５號","E_COORD97":171218.57000000001,"N_COORD97":2553242.2999999998,"ADDRESS":"牛肉寮６５之２５號","OBJECTID":13721},"geometry":{"x":171218.5700000003,"y":2553242.3000000026}},{"attributes":{"ID":13722,"DIS_CODE":0,"TOWNNAME":"安定區","LI":"大同里","LIN":"14鄰","STREET":" ","SECT":" ","MAREA":"牛肉寮","LANE":" ","ALLEY":" ","HOUSE_NO":"３１之３號","E_COORD97":170517.703327,"N_COORD97":2552648.9772199998,"ADDRESS":"牛肉寮３１之３號","OBJECTID":13722},"geometry":{"x":170517.70332700014,"y":2552648.9772199988}},{"attributes":{"ID":13723,"DIS_CODE":0,"TOWNNAME":"安定區","LI":"大同里","LIN":"14鄰","STREET":" ","SECT":" ","MAREA":"牛肉寮","LANE":" ","ALLEY":" ","HOUSE_NO":"６５之２３號","E_COORD97":171213.47,"N_COORD97":2553569.2999999998,"ADDRESS":"牛肉寮６５之２３號","OBJECTID":13723},"geometry":{"x":171213.46999999974,"y":2553569.3000000007}},{"attributes":{"ID":13724,"DIS_CODE":0,"TOWNNAME":"安定區","LI":"海寮里","LIN":"14鄰","STREET":" ","SECT":" ","MAREA":"海寮","LANE":" ","ALLEY":" ","HOUSE_NO":"１３４號之８","E_COORD97":168871.92999999999,"N_COORD97":2555458.2999999998,"ADDRESS":"海寮１３４號之８","OBJECTID":13724},"geometry":{"x":168871.93000000063,"y":2555458.3000000007}},{"attributes":{"ID":13725,"DIS_CODE":0,"TOWNNAME":"安定區","LI":"大同里","LIN":"14鄰","STREET":" ","SECT":" ","MAREA":"\u25A0財","LANE":" ","ALLEY":" ","HOUSE_NO":"１７號","E_COORD97":172419.64000000001,"N_COORD97":2552740.25,"ADDRESS":"\u25A0財１７號","OBJECTID":13725},"geometry":{"x":172419.6400000006,"y":2552740.2500000019}},{"attributes":{"ID":13726,"DIS_CODE":0,"TOWNNAME":"安定區","LI":"大同里","LIN":"14鄰","STREET":" ","SECT":" ","MAREA":"\u25A0財","LANE":" ","ALLEY":" ","HOUSE_NO":"１１號","E_COORD97":171945.04000000001,"N_COORD97":2552577.25,"ADDRESS":"\u25A0財１１號","OBJECTID":13726},"geometry":{"x":171945.04000000004,"y":2552577.2500000019}},{"attributes":{"ID":13727,"DIS_CODE":0,"TOWNNAME":"安定區","LI":"海寮里","LIN":"14鄰","STREET":" ","SECT":" ","MAREA":"海寮","LANE":" ","ALLEY":" ","HOUSE_NO":"１３４號之１３","E_COORD97":168901.03,"N_COORD97":2555433.2999999998,"ADDRESS":"海寮１３４號之１３","OBJECTID":13727},"geometry":{"x":168901.03000000026,"y":2555433.3000000026}},{"attributes":{"ID":13728,"DIS_CODE":0,"TOWNNAME":"新營區","LI":"南紙里","LIN":"24鄰","STREET":"南紙街","SECT":" ","MAREA":" ","LANE":"１１７巷","ALLEY":"４０弄","HOUSE_NO":"１號七樓之１８","E_COORD97":177951.31,"N_COORD97":2577430.8599999999,"ADDRESS":"南紙街１１７巷４０弄１號七樓之１８","OBJECTID":13728},"geometry":{"x":177951.31000000145,"y":2577430.8600000013}},{"attributes":{"ID":13729,"DIS_CODE":0,"TOWNNAME":"新營區","LI":"南紙里","LIN":"24鄰","STREET":"南紙街","SECT":" ","MAREA":" ","LANE":"１１７巷","ALLEY":"４０弄","HOUSE_NO":"１號七樓之３","E_COORD97":177950.01000000001,"N_COORD97":2577430.8599999999,"ADDRESS":"南紙街１１７巷４０弄１號七樓之３","OBJECTID":13729},"geometry":{"x":177950.00999999978,"y":2577430.8600000013}},{"attributes":{"ID":13730,"DIS_CODE":0,"TOWNNAME":"新營區","LI":"南紙里","LIN":"24鄰","STREET":"南紙街","SECT":" ","MAREA":" ","LANE":"１１７巷","ALLEY":"４０弄","HOUSE_NO":"１號二樓之１","E_COORD97":177949.92000000001,"N_COORD97":2577430.8599999999,"ADDRESS":"南紙街１１７巷４０弄１號二樓之１","OBJECTID":13730},"geometry":{"x":177949.92000000086,"y":2577430.8600000013}},{"attributes":{"ID":13731,"DIS_CODE":0,"TOWNNAME":"新營區","LI":"南紙里","LIN":"24鄰","STREET":"南紙街","SECT":" ","MAREA":" ","LANE":"１１７巷","ALLEY":"４０弄","HOUSE_NO":"１號三樓之９","E_COORD97":177950,"N_COORD97":2577430.8599999999,"ADDRESS":"南紙街１１７巷４０弄１號三樓之９","OBJECTID":13731},"geometry":{"x":177950,"y":2577430.8600000013}},{"attributes":{"ID":13732,"DIS_CODE":0,"TOWNNAME":"新營區","LI":"南紙里","LIN":"24鄰","STREET":"南紙街","SECT":" ","MAREA":" ","LANE":"１１７巷","ALLEY":"４０弄","HOUSE_NO":"１號六樓之２","E_COORD97":177950.04999999999,"N_COORD97":2577430.8599999999,"ADDRESS":"南紙街１１７巷４０弄１號六樓之２","OBJECTID":13732},"geometry":{"x":177950.05000000168,"y":2577430.8600000013}},{"attributes":{"ID":13733,"DIS_CODE":0,"TOWNNAME":"新營區","LI":"南紙里","LIN":"24鄰","STREET":"南紙街","SECT":" ","MAREA":" ","LANE":"１１７巷","ALLEY":"４０弄","HOUSE_NO":"１號四樓之１７","E_COORD97":177951.23999999999,"N_COORD97":2577430.8599999999,"ADDRESS":"南紙街１１７巷４０弄１號四樓之１７","OBJECTID":13733},"geometry":{"x":177951.24000000115,"y":2577430.8600000013}},{"attributes":{"ID":13734,"DIS_CODE":0,"TOWNNAME":"新營區","LI":"南紙里","LIN":"24鄰","STREET":"南紙街","SECT":" ","MAREA":" ","LANE":"１１７巷","ALLEY":"４０弄","HOUSE_NO":"１號五樓之１５","E_COORD97":177951.32000000001,"N_COORD97":2577430.8599999999,"ADDRESS":"南紙街１１７巷４０弄１號五樓之１５","OBJECTID":13734},"geometry":{"x":177951.3200000003,"y":2577430.8600000013}},{"attributes":{"ID":13735,"DIS_CODE":0,"TOWNNAME":"新營區","LI":"南紙里","LIN":"24鄰","STREET":"南紙街","SECT":" ","MAREA":" ","LANE":"１１７巷","ALLEY":"４０弄","HOUSE_NO":"１號三樓之１９","E_COORD97":177951.25,"N_COORD97":2577430.8599999999,"ADDRESS":"南紙街１１７巷４０弄１號三樓之１９","OBJECTID":13735},"geometry":{"x":177951.25000000093,"y":2577430.8600000013}},{"attributes":{"ID":13736,"DIS_CODE":0,"TOWNNAME":"北區","LI":"文元里","LIN":"5鄰","STREET":"文賢路","SECT":" ","MAREA":" ","LANE":"１１２２巷","ALLEY":"５９弄","HOUSE_NO":"１６號之１","E_COORD97":167513.66,"N_COORD97":2546423.1600000001,"ADDRESS":"文賢路１１２２巷５９弄１６號之１","OBJECTID":13736},"geometry":{"x":167513.66000000015,"y":2546423.1600000001}},{"attributes":{"ID":13737,"DIS_CODE":0,"TOWNNAME":"北區","LI":"六甲里","LIN":"13鄰","STREET":"公園路","SECT":" ","MAREA":" ","LANE":"５０９巷","ALLEY":"８弄","HOUSE_NO":"２１號","E_COORD97":169017.29000000001,"N_COORD97":2545631.2799999998,"ADDRESS":"公園路５０９巷８弄２１號","OBJECTID":13737},"geometry":{"x":169017.29000000097,"y":2545631.2799999993}},{"attributes":{"ID":13738,"DIS_CODE":0,"TOWNNAME":"新營區","LI":"南紙里","LIN":"24鄰","STREET":"南紙街","SECT":" ","MAREA":" ","LANE":"１１７巷","ALLEY":"４０弄","HOUSE_NO":"１號六樓之３","E_COORD97":177950.01000000001,"N_COORD97":2577430.8599999999,"ADDRESS":"南紙街１１７巷４０弄１號六樓之３","OBJECTID":13738},"geometry":{"x":177950.00999999978,"y":2577430.8600000013}},{"attributes":{"ID":13739,"DIS_CODE":0,"TOWNNAME":"南區","LI":"郡南里","LIN":"13鄰","STREET":"永興三街","SECT":" ","MAREA":" ","LANE":" ","ALLEY":" ","HOUSE_NO":"１４號","E_COORD97":167435.01000000001,"N_COORD97":2540613.5699999998,"ADDRESS":"永興三街１４號","OBJECTID":13739},"geometry":{"x":167435.01000000164,"y":2540613.570000004}},{"attributes":{"ID":13740,"DIS_CODE":0,"TOWNNAME":"東區","LI":"和平里","LIN":"20鄰","STREET":"文化六街","SECT":" ","MAREA":" ","LANE":" ","ALLEY":" ","HOUSE_NO":"３６號","E_COORD97":171275.28,"N_COORD97":2541678.8100000001,"ADDRESS":"文化六街３６號","OBJECTID":13740},"geometry":{"x":171275.28000000119,"y":2541678.8100000005}},{"attributes":{"ID":13741,"DIS_CODE":0,"TOWNNAME":"東區","LI":"和平里","LIN":"20鄰","STREET":"文化六街","SECT":" ","MAREA":" ","LANE":" ","ALLEY":" ","HOUSE_NO":"３８號","E_COORD97":171280.69,"N_COORD97":2541680.9300000002,"ADDRESS":"文化六街３８號","OBJECTID":13741},"geometry":{"x":171280.69000000227,"y":2541680.9299999997}},{"attributes":{"ID":13742,"DIS_CODE":0,"TOWNNAME":"東區","LI":"和平里","LIN":"20鄰","STREET":"文化六街","SECT":" ","MAREA":" ","LANE":" ","ALLEY":" ","HOUSE_NO":"５２號","E_COORD97":171285.92999999999,"N_COORD97":2541683.5499999998,"ADDRESS":"文化六街５２號","OBJECTID":13742},"geometry":{"x":171285.93000000063,"y":2541683.5500000026}},{"attributes":{"ID":13743,"DIS_CODE":0,"TOWNNAME":"東區","LI":"和平里","LIN":"20鄰","STREET":"文化六街","SECT":" ","MAREA":" ","LANE":" ","ALLEY":" ","HOUSE_NO":"５６號","E_COORD97":171291.48999999999,"N_COORD97":2541686.3399999999,"ADDRESS":"文化六街５６號","OBJECTID":13743},"geometry":{"x":171291.49000000022,"y":2541686.3400000017}},{"attributes":{"ID":13744,"DIS_CODE":0,"TOWNNAME":"東區","LI":"和平里","LIN":"20鄰","STREET":"文化六街","SECT":" ","MAREA":" ","LANE":" ","ALLEY":" ","HOUSE_NO":"５８號","E_COORD97":171296.73000000001,"N_COORD97":2541689.1200000001,"ADDRESS":"文化六街５８號","OBJECTID":13744},"geometry":{"x":171296.73000000045,"y":2541689.1200000029}},{"attributes":{"ID":13745,"DIS_CODE":0,"TOWNNAME":"東區","LI":"和平里","LIN":"20鄰","STREET":"文化六街","SECT":" ","MAREA":" ","LANE":" ","ALLEY":" ","HOUSE_NO":"１０號","E_COORD97":171226.82000000001,"N_COORD97":2541657.2799999998,"ADDRESS":"文化六街１０號","OBJECTID":13745},"geometry":{"x":171226.8200000003,"y":2541657.2799999993}},{"attributes":{"ID":13746,"DIS_CODE":0,"TOWNNAME":"安定區","LI":"海寮里","LIN":"14鄰","STREET":" ","SECT":" ","MAREA":"海寮","LANE":" ","ALLEY":" ","HOUSE_NO":"１３２之４１號","E_COORD97":169009.09,"N_COORD97":2555469.2999999998,"ADDRESS":"海寮１３２之４１號","OBJECTID":13746},"geometry":{"x":169009.08999999985,"y":2555469.3000000026}},{"attributes":{"ID":13747,"DIS_CODE":0,"TOWNNAME":"新營區","LI":"南紙里","LIN":"24鄰","STREET":"南紙街","SECT":" ","MAREA":" ","LANE":"１１７巷","ALLEY":"４０弄","HOUSE_NO":"１號四樓之３","E_COORD97":177950.01000000001,"N_COORD97":2577430.8599999999,"ADDRESS":"南紙街１１７巷４０弄１號四樓之３","OBJECTID":13747},"geometry":{"x":177950.00999999978,"y":2577430.8600000013}},{"attributes":{"ID":13748,"DIS_CODE":0,"TOWNNAME":"新營區","LI":"南紙里","LIN":"24鄰","STREET":"南紙街","SECT":" ","MAREA":" ","LANE":"１１７巷","ALLEY":"４０弄","HOUSE_NO":"１號三樓之１８","E_COORD97":177951.31,"N_COORD97":2577430.8599999999,"ADDRESS":"南紙街１１７巷４０弄１號三樓之１８","OBJECTID":13748},"geometry":{"x":177951.31000000145,"y":2577430.8600000013}},{"attributes":{"ID":13749,"DIS_CODE":0,"TOWNNAME":"新營區","LI":"南紙里","LIN":"24鄰","STREET":"南紙街","SECT":" ","MAREA":" ","LANE":"１１７巷","ALLEY":"４０弄","HOUSE_NO":"１號四樓之２","E_COORD97":177950.04999999999,"N_COORD97":2577430.8599999999,"ADDRESS":"南紙街１１７巷４０弄１號四樓之２","OBJECTID":13749},"geometry":{"x":177950.05000000168,"y":2577430.8600000013}},{"attributes":{"ID":13750,"DIS_CODE":0,"TOWNNAME":"新營區","LI":"南紙里","LIN":"24鄰","STREET":"南紙街","SECT":" ","MAREA":" ","LANE":"１１７巷","ALLEY":"４０弄","HOUSE_NO":"１號四樓之４","E_COORD97":177949.94,"N_COORD97":2577430.8599999999,"ADDRESS":"南紙街１１７巷４０弄１號四樓之４","OBJECTID":13750},"geometry":{"x":177949.94000000134,"y":2577430.8600000013}},{"attributes":{"ID":13751,"DIS_CODE":0,"TOWNNAME":"新營區","LI":"南紙里","LIN":"24鄰","STREET":"南紙街","SECT":" ","MAREA":" ","LANE":"１１７巷","ALLEY":"４０弄","HOUSE_NO":"１號四樓之６","E_COORD97":177950.01999999999,"N_COORD97":2577430.8599999999,"ADDRESS":"南紙街１１７巷４０弄１號四樓之６","OBJECTID":13751},"geometry":{"x":177950.02000000048,"y":2577430.8600000013}},{"attributes":{"ID":13752,"DIS_CODE":0,"TOWNNAME":"新營區","LI":"南紙里","LIN":"24鄰","STREET":"南紙街","SECT":" ","MAREA":" ","LANE":"１１７巷","ALLEY":"４０弄","HOUSE_NO":"１號五樓之１４","E_COORD97":177951.19,"N_COORD97":2577430.8599999999,"ADDRESS":"南紙街１１７巷４０弄１號五樓之１４","OBJECTID":13752},"geometry":{"x":177951.18999999948,"y":2577430.8600000013}},{"attributes":{"ID":13753,"DIS_CODE":0,"TOWNNAME":"新營區","LI":"南紙里","LIN":"24鄰","STREET":"南紙街","SECT":" ","MAREA":" ","LANE":"１１７巷","ALLEY":"４０弄","HOUSE_NO":"１號二樓之７","E_COORD97":177949.98999999999,"N_COORD97":2577430.8599999999,"ADDRESS":"南紙街１１７巷４０弄１號二樓之７","OBJECTID":13753},"geometry":{"x":177949.99000000022,"y":2577430.8600000013}},{"attributes":{"ID":13754,"DIS_CODE":0,"TOWNNAME":"新營區","LI":"南紙里","LIN":"24鄰","STREET":"南紙街","SECT":" ","MAREA":" ","LANE":"１１７巷","ALLEY":"４０弄","HOUSE_NO":"１號三樓之１１","E_COORD97":177951.17000000001,"N_COORD97":2577430.8599999999,"ADDRESS":"南紙街１１７巷４０弄１號三樓之１１","OBJECTID":13754},"geometry":{"x":177951.17000000086,"y":2577430.8600000013}},{"attributes":{"ID":13755,"DIS_CODE":0,"TOWNNAME":"新營區","LI":"南紙里","LIN":"24鄰","STREET":"南紙街","SECT":" ","MAREA":" ","LANE":"１１７巷","ALLEY":"４０弄","HOUSE_NO":"１號三樓之１３","E_COORD97":177951.26000000001,"N_COORD97":2577430.8599999999,"ADDRESS":"南紙街１１７巷４０弄１號三樓之１３","OBJECTID":13755},"geometry":{"x":177951.25999999978,"y":2577430.8600000013}},{"attributes":{"ID":13756,"DIS_CODE":0,"TOWNNAME":"新營區","LI":"南紙里","LIN":"24鄰","STREET":"南紙街","SECT":" ","MAREA":" ","LANE":"１１７巷","ALLEY":"４０弄","HOUSE_NO":"１號五樓之１３","E_COORD97":177951.26000000001,"N_COORD97":2577430.8599999999,"ADDRESS":"南紙街１１７巷４０弄１號五樓之１３","OBJECTID":13756},"geometry":{"x":177951.25999999978,"y":2577430.8600000013}},{"attributes":{"ID":13757,"DIS_CODE":0,"TOWNNAME":"新營區","LI":"南紙里","LIN":"24鄰","STREET":"南紙街","SECT":" ","MAREA":" ","LANE":"１１７巷","ALLEY":"４０弄","HOUSE_NO":"１號三樓之１０","E_COORD97":177951.22,"N_COORD97":2577430.8599999999,"ADDRESS":"南紙街１１７巷４０弄１號三樓之１０","OBJECTID":13757},"geometry":{"x":177951.22000000067,"y":2577430.8600000013}},{"attributes":{"ID":13758,"DIS_CODE":0,"TOWNNAME":"新營區","LI":"南紙里","LIN":"24鄰","STREET":"南紙街","SECT":" ","MAREA":" ","LANE":"１１７巷","ALLEY":"４０弄","HOUSE_NO":"１號二樓之３","E_COORD97":177950.01000000001,"N_COORD97":2577430.8599999999,"ADDRESS":"南紙街１１７巷４０弄１號二樓之３","OBJECTID":13758},"geometry":{"x":177950.00999999978,"y":2577430.8600000013}},{"attributes":{"ID":13759,"DIS_CODE":0,"TOWNNAME":"新營區","LI":"南紙里","LIN":"24鄰","STREET":"南紙街","SECT":" ","MAREA":" ","LANE":"１１７巷","ALLEY":"４０弄","HOUSE_NO":"１號四樓之１３","E_COORD97":177951.26000000001,"N_COORD97":2577430.8599999999,"ADDRESS":"南紙街１１７巷４０弄１號四樓之１３","OBJECTID":13759},"geometry":{"x":177951.25999999978,"y":2577430.8600000013}},{"attributes":{"ID":13760,"DIS_CODE":0,"TOWNNAME":"新營區","LI":"南紙里","LIN":"24鄰","STREET":"南紙街","SECT":" ","MAREA":" ","LANE":"１１７巷","ALLEY":"４０弄","HOUSE_NO":"１號六樓之１９","E_COORD97":177951.25,"N_COORD97":2577430.8599999999,"ADDRESS":"南紙街１１７巷４０弄１號六樓之１９","OBJECTID":13760},"geometry":{"x":177951.25000000093,"y":2577430.8600000013}},{"attributes":{"ID":13761,"DIS_CODE":0,"TOWNNAME":"官田區","LI":"二鎮里","LIN":"14鄰","STREET":" ","SECT":" ","MAREA":"程泰","LANE":" ","ALLEY":" ","HOUSE_NO":"５８號之１","E_COORD97":181701.23999999999,"N_COORD97":2566506.02,"ADDRESS":"程泰５８號之１","OBJECTID":13761},"geometry":{"x":181701.24000000115,"y":2566506.0200000014}},{"attributes":{"ID":13762,"DIS_CODE":0,"TOWNNAME":"新營區","LI":"南紙里","LIN":"24鄰","STREET":"南紙街","SECT":" ","MAREA":" ","LANE":"１１７巷","ALLEY":"４０弄","HOUSE_NO":"１號六樓之１","E_COORD97":177949.92000000001,"N_COORD97":2577430.8599999999,"ADDRESS":"南紙街１１７巷４０弄１號六樓之１","OBJECTID":13762},"geometry":{"x":177949.92000000086,"y":2577430.8600000013}},{"attributes":{"ID":13763,"DIS_CODE":0,"TOWNNAME":"新營區","LI":"南紙里","LIN":"24鄰","STREET":"南紙街","SECT":" ","MAREA":" ","LANE":"１１７巷","ALLEY":"４０弄","HOUSE_NO":"１號三樓之６","E_COORD97":177950.01999999999,"N_COORD97":2577430.8599999999,"ADDRESS":"南紙街１１７巷４０弄１號三樓之６","OBJECTID":13763},"geometry":{"x":177950.02000000048,"y":2577430.8600000013}},{"attributes":{"ID":13764,"DIS_CODE":0,"TOWNNAME":"新營區","LI":"南紙里","LIN":"24鄰","STREET":"南紙街","SECT":" ","MAREA":" ","LANE":"１１７巷","ALLEY":"４０弄","HOUSE_NO":"１號六樓之１０","E_COORD97":177951.22,"N_COORD97":2577430.8599999999,"ADDRESS":"南紙街１１７巷４０弄１號六樓之１０","OBJECTID":13764},"geometry":{"x":177951.22000000067,"y":2577430.8600000013}},{"attributes":{"ID":13765,"DIS_CODE":0,"TOWNNAME":"新營區","LI":"南紙里","LIN":"24鄰","STREET":"南紙街","SECT":" ","MAREA":" ","LANE":"１１７巷","ALLEY":"４０弄","HOUSE_NO":"１號七樓之５","E_COORD97":177950.07000000001,"N_COORD97":2577430.8599999999,"ADDRESS":"南紙街１１７巷４０弄１號七樓之５","OBJECTID":13765},"geometry":{"x":177950.0700000003,"y":2577430.8600000013}},{"attributes":{"ID":13766,"DIS_CODE":0,"TOWNNAME":"新營區","LI":"南紙里","LIN":"24鄰","STREET":"南紙街","SECT":" ","MAREA":" ","LANE":"１１７巷","ALLEY":"４０弄","HOUSE_NO":"１號五樓之５","E_COORD97":177950.07000000001,"N_COORD97":2577430.8599999999,"ADDRESS":"南紙街１１７巷４０弄１號五樓之５","OBJECTID":13766},"geometry":{"x":177950.0700000003,"y":2577430.8600000013}},{"attributes":{"ID":13767,"DIS_CODE":0,"TOWNNAME":"新營區","LI":"南紙里","LIN":"24鄰","STREET":"南紙街","SECT":" ","MAREA":" ","LANE":"１１７巷","ALLEY":"４０弄","HOUSE_NO":"１號四樓之１０","E_COORD97":177951.22,"N_COORD97":2577430.8599999999,"ADDRESS":"南紙街１１７巷４０弄１號四樓之１０","OBJECTID":13767},"geometry":{"x":177951.22000000067,"y":2577430.8600000013}},{"attributes":{"ID":13768,"DIS_CODE":0,"TOWNNAME":"南區","LI":"國宅里","LIN":"13鄰","STREET":"新孝路","SECT":" ","MAREA":" ","LANE":" ","ALLEY":" ","HOUSE_NO":"５９號","E_COORD97":166879.04000000001,"N_COORD97":2542040.0600000001,"ADDRESS":"新孝路５９號","OBJECTID":13768},"geometry":{"x":166879.0400000019,"y":2542040.0600000005}},{"attributes":{"ID":13769,"DIS_CODE":0,"TOWNNAME":"南區","LI":"國宅里","LIN":"13鄰","STREET":"新孝路","SECT":" ","MAREA":" ","LANE":" ","ALLEY":" ","HOUSE_NO":"６１號","E_COORD97":166864.70999999999,"N_COORD97":2542041.3399999999,"ADDRESS":"新孝路６１號","OBJECTID":13769},"geometry":{"x":166864.71000000089,"y":2542041.3399999999}},{"attributes":{"ID":13770,"DIS_CODE":0,"TOWNNAME":"安定區","LI":"大同里","LIN":"14鄰","STREET":" ","SECT":" ","MAREA":"牛肉寮","LANE":" ","ALLEY":" ","HOUSE_NO":"８號","E_COORD97":170667.15496000001,"N_COORD97":2552785.7585499999,"ADDRESS":"牛肉寮８號","OBJECTID":13770},"geometry":{"x":170667.15496000089,"y":2552785.7585540004}},{"attributes":{"ID":13771,"DIS_CODE":0,"TOWNNAME":"新營區","LI":"南紙里","LIN":"24鄰","STREET":"南紙街","SECT":" ","MAREA":" ","LANE":"１１７巷","ALLEY":"４０弄","HOUSE_NO":"１號二樓之１０","E_COORD97":177951.22,"N_COORD97":2577430.8599999999,"ADDRESS":"南紙街１１７巷４０弄１號二樓之１０","OBJECTID":13771},"geometry":{"x":177951.22000000067,"y":2577430.8600000013}},{"attributes":{"ID":13772,"DIS_CODE":0,"TOWNNAME":"東區","LI":"和平里","LIN":"20鄰","STREET":"文化六街","SECT":" ","MAREA":" ","LANE":" ","ALLEY":" ","HOUSE_NO":"６０號","E_COORD97":171301.81,"N_COORD97":2541692.23,"ADDRESS":"文化六街６０號","OBJECTID":13772},"geometry":{"x":171301.81000000052,"y":2541692.2300000023}},{"attributes":{"ID":13773,"DIS_CODE":0,"TOWNNAME":"東區","LI":"和平里","LIN":"20鄰","STREET":"文化六街","SECT":" ","MAREA":" ","LANE":" ","ALLEY":" ","HOUSE_NO":"６２號","E_COORD97":171308.84,"N_COORD97":2541694.77,"ADDRESS":"文化六街６２號","OBJECTID":13773},"geometry":{"x":171308.83999999985,"y":2541694.7699999996}},{"attributes":{"ID":13774,"DIS_CODE":0,"TOWNNAME":"東區","LI":"和平里","LIN":"20鄰","STREET":"文化六街","SECT":" ","MAREA":" ","LANE":" ","ALLEY":" ","HOUSE_NO":"６６號","E_COORD97":171323.25,"N_COORD97":2541698.8700000001,"ADDRESS":"文化六街６６號","OBJECTID":13774},"geometry":{"x":171323.25,"y":2541698.870000001}},{"attributes":{"ID":13775,"DIS_CODE":0,"TOWNNAME":"東區","LI":"和平里","LIN":"20鄰","STREET":"文化六街","SECT":" ","MAREA":" ","LANE":" ","ALLEY":" ","HOUSE_NO":"６８號","E_COORD97":171329.14999999999,"N_COORD97":2541699.1899999999,"ADDRESS":"文化六街６８號","OBJECTID":13775},"geometry":{"x":171329.1500000013,"y":2541699.1899999995}},{"attributes":{"ID":13776,"DIS_CODE":0,"TOWNNAME":"東區","LI":"和平里","LIN":"20鄰","STREET":"文化六街","SECT":" ","MAREA":" ","LANE":" ","ALLEY":" ","HOUSE_NO":"７０號","E_COORD97":171334.54999999999,"N_COORD97":2541699.3599999999,"ADDRESS":"文化六街７０號","OBJECTID":13776},"geometry":{"x":171334.54999999981,"y":2541699.3600000013}},{"attributes":{"ID":13777,"DIS_CODE":0,"TOWNNAME":"東區","LI":"裕聖里","LIN":"20鄰","STREET":"裕忠路","SECT":" ","MAREA":" ","LANE":" ","ALLEY":" ","HOUSE_NO":"２９５號","E_COORD97":172274.26999999999,"N_COORD97":2542375.77,"ADDRESS":"裕忠路２９５號","OBJECTID":13777},"geometry":{"x":172274.26999999862,"y":2542375.7700000014}},{"attributes":{"ID":13778,"DIS_CODE":0,"TOWNNAME":"新營區","LI":"南紙里","LIN":"24鄰","STREET":"南紙街","SECT":" ","MAREA":" ","LANE":"１１７巷","ALLEY":"４０弄","HOUSE_NO":"１號三樓之２０","E_COORD97":177951.22,"N_COORD97":2577430.8599999999,"ADDRESS":"南紙街１１７巷４０弄１號三樓之２０","OBJECTID":13778},"geometry":{"x":177951.22000000067,"y":2577430.8600000013}},{"attributes":{"ID":13779,"DIS_CODE":0,"TOWNNAME":"新營區","LI":"南紙里","LIN":"24鄰","STREET":"南紙街","SECT":" ","MAREA":" ","LANE":"１１７巷","ALLEY":"４０弄","HOUSE_NO":"１號六樓之１３","E_COORD97":177951.26000000001,"N_COORD97":2577430.8599999999,"ADDRESS":"南紙街１１７巷４０弄１號六樓之１３","OBJECTID":13779},"geometry":{"x":177951.25999999978,"y":2577430.8600000013}},{"attributes":{"ID":13780,"DIS_CODE":0,"TOWNNAME":"新營區","LI":"南紙里","LIN":"24鄰","STREET":"南紙街","SECT":" ","MAREA":" ","LANE":"１１７巷","ALLEY":"４０弄","HOUSE_NO":"１號三樓之７","E_COORD97":177949.98999999999,"N_COORD97":2577430.8599999999,"ADDRESS":"南紙街１１７巷４０弄１號三樓之７","OBJECTID":13780},"geometry":{"x":177949.99000000022,"y":2577430.8600000013}},{"attributes":{"ID":13781,"DIS_CODE":0,"TOWNNAME":"新營區","LI":"南紙里","LIN":"24鄰","STREET":"南紙街","SECT":" ","MAREA":" ","LANE":"１１７巷","ALLEY":"４０弄","HOUSE_NO":"１號七樓之１２","E_COORD97":177951.29999999999,"N_COORD97":2577430.8599999999,"ADDRESS":"南紙街１１７巷４０弄１號七樓之１２","OBJECTID":13781},"geometry":{"x":177951.29999999981,"y":2577430.8600000013}},{"attributes":{"ID":13782,"DIS_CODE":0,"TOWNNAME":"新營區","LI":"南紙里","LIN":"24鄰","STREET":"南紙街","SECT":" ","MAREA":" ","LANE":"１１７巷","ALLEY":"４０弄","HOUSE_NO":"１號五樓之１","E_COORD97":177949.92000000001,"N_COORD97":2577430.8599999999,"ADDRESS":"南紙街１１７巷４０弄１號五樓之１","OBJECTID":13782},"geometry":{"x":177949.92000000086,"y":2577430.8600000013}},{"attributes":{"ID":13783,"DIS_CODE":0,"TOWNNAME":"永康區","LI":"北灣里","LIN":"24鄰","STREET":"大灣路","SECT":" ","MAREA":" ","LANE":"３７巷","ALLEY":"２０弄","HOUSE_NO":"１６號","E_COORD97":175397.60000000001,"N_COORD97":2545816.5,"ADDRESS":"大灣路３７巷２０弄１６號","OBJECTID":13783},"geometry":{"x":175397.59999999963,"y":2545816.5}},{"attributes":{"ID":13784,"DIS_CODE":0,"TOWNNAME":"永康區","LI":"北灣里","LIN":"24鄰","STREET":"大灣路","SECT":" ","MAREA":" ","LANE":"３７巷","ALLEY":"３０弄","HOUSE_NO":"３號","E_COORD97":175432.56,"N_COORD97":2545852.71,"ADDRESS":"大灣路３７巷３０弄３號","OBJECTID":13784},"geometry":{"x":175432.56000000052,"y":2545852.7100000028}},{"attributes":{"ID":13785,"DIS_CODE":0,"TOWNNAME":"永康區","LI":"北灣里","LIN":"24鄰","STREET":"大灣路","SECT":" ","MAREA":" ","LANE":"３７巷","ALLEY":"２０弄","HOUSE_NO":"４號","E_COORD97":175393.75,"N_COORD97":2545843.2400000002,"ADDRESS":"大灣路３７巷２０弄４號","OBJECTID":13785},"geometry":{"x":175393.75,"y":2545843.2399999984}},{"attributes":{"ID":13786,"DIS_CODE":0,"TOWNNAME":"東區","LI":"裕聖里","LIN":"20鄰","STREET":"裕忠路","SECT":" ","MAREA":" ","LANE":" ","ALLEY":" ","HOUSE_NO":"２９７號","E_COORD97":172273.89999999999,"N_COORD97":2542357.96,"ADDRESS":"裕忠路２９７號","OBJECTID":13786},"geometry":{"x":172273.90000000037,"y":2542357.9600000028}},{"attributes":{"ID":13787,"DIS_CODE":0,"TOWNNAME":"東區","LI":"裕聖里","LIN":"20鄰","STREET":"裕忠路","SECT":" ","MAREA":" ","LANE":" ","ALLEY":" ","HOUSE_NO":"２９９號","E_COORD97":172274.26999999999,"N_COORD97":2542345.6800000002,"ADDRESS":"裕忠路２９９號","OBJECTID":13787},"geometry":{"x":172274.26999999862,"y":2542345.6800000016}},{"attributes":{"ID":13788,"DIS_CODE":0,"TOWNNAME":"東區","LI":"裕聖里","LIN":"20鄰","STREET":"裕忠路","SECT":" ","MAREA":" ","LANE":" ","ALLEY":" ","HOUSE_NO":"２９５之１１號","E_COORD97":172324.56,"N_COORD97":2542375.5800000001,"ADDRESS":"裕忠路２９５之１１號","OBJECTID":13788},"geometry":{"x":172324.55999999959,"y":2542375.5800000001}},{"attributes":{"ID":13789,"DIS_CODE":0,"TOWNNAME":"東區","LI":"裕聖里","LIN":"20鄰","STREET":"裕忠路","SECT":" ","MAREA":" ","LANE":" ","ALLEY":" ","HOUSE_NO":"２９５之６號","E_COORD97":172298.94,"N_COORD97":2542375.2799999998,"ADDRESS":"裕忠路２９５之６號","OBJECTID":13789},"geometry":{"x":172298.94000000041,"y":2542375.2800000012}},{"attributes":{"ID":13790,"DIS_CODE":0,"TOWNNAME":"東區","LI":"裕聖里","LIN":"20鄰","STREET":"裕忠路","SECT":" ","MAREA":" ","LANE":" ","ALLEY":" ","HOUSE_NO":"２９５之１號","E_COORD97":172278.5,"N_COORD97":2542375.7000000002,"ADDRESS":"裕忠路２９５之１號","OBJECTID":13790},"geometry":{"x":172278.50000000186,"y":2542375.7000000011}},{"attributes":{"ID":13791,"DIS_CODE":0,"TOWNNAME":"東區","LI":"裕聖里","LIN":"20鄰","STREET":"裕忠路","SECT":" ","MAREA":" ","LANE":" ","ALLEY":" ","HOUSE_NO":"２９５之２號","E_COORD97":172284.37,"N_COORD97":2542375.3999999999,"ADDRESS":"裕忠路２９５之２號","OBJECTID":13791},"geometry":{"x":172284.36999999918,"y":2542375.4000000022}},{"attributes":{"ID":13792,"DIS_CODE":0,"TOWNNAME":"永康區","LI":"北灣里","LIN":"24鄰","STREET":"大灣路","SECT":" ","MAREA":" ","LANE":"３７巷","ALLEY":"２０弄","HOUSE_NO":"２４號","E_COORD97":175396.79999999999,"N_COORD97":2545774.7400000002,"ADDRESS":"大灣路３７巷２０弄２４號","OBJECTID":13792},"geometry":{"x":175396.79999999981,"y":2545774.7400000002}},{"attributes":{"ID":13793,"DIS_CODE":0,"TOWNNAME":"後壁區","LI":"竹新里","LIN":"14鄰","STREET":" ","SECT":" ","MAREA":"新厝","LANE":" ","ALLEY":" ","HOUSE_NO":"１５號","E_COORD97":179166.64999999999,"N_COORD97":2582172.1299999999,"ADDRESS":"新厝１５號","OBJECTID":13793},"geometry":{"x":179166.65000000037,"y":2582172.1300000008}},{"attributes":{"ID":13794,"DIS_CODE":0,"TOWNNAME":"永康區","LI":"正強里","LIN":"24鄰","STREET":"中正路","SECT":" ","MAREA":" ","LANE":"１２７巷","ALLEY":"２４弄","HOUSE_NO":"１７號","E_COORD97":173329.87,"N_COORD97":2547781.3399999999,"ADDRESS":"中正路１２７巷２４弄１７號","OBJECTID":13794},"geometry":{"x":173329.87000000011,"y":2547781.3399999999}},{"attributes":{"ID":13795,"DIS_CODE":0,"TOWNNAME":"永康區","LI":"北灣里","LIN":"24鄰","STREET":"大灣路","SECT":" ","MAREA":" ","LANE":"３７巷","ALLEY":"３０弄","HOUSE_NO":"１６號","E_COORD97":175423.63,"N_COORD97":2545819.4700000002,"ADDRESS":"大灣路３７巷３０弄１６號","OBJECTID":13795},"geometry":{"x":175423.63000000175,"y":2545819.4700000025}},{"attributes":{"ID":13796,"DIS_CODE":0,"TOWNNAME":"永康區","LI":"北灣里","LIN":"24鄰","STREET":"大灣路","SECT":" ","MAREA":" ","LANE":"３７巷","ALLEY":"２０弄","HOUSE_NO":"２２號","E_COORD97":175403.44,"N_COORD97":2545775.7400000002,"ADDRESS":"大灣路３７巷２０弄２２號","OBJECTID":13796},"geometry":{"x":175403.44000000227,"y":2545775.7400000039}},{"attributes":{"ID":13797,"DIS_CODE":0,"TOWNNAME":"永康區","LI":"北灣里","LIN":"24鄰","STREET":"大灣路","SECT":" ","MAREA":" ","LANE":"３７巷","ALLEY":"３０弄","HOUSE_NO":"１９號","E_COORD97":175440.81,"N_COORD97":2545797.2200000002,"ADDRESS":"大灣路３７巷３０弄１９號","OBJECTID":13797},"geometry":{"x":175440.81000000145,"y":2545797.2200000025}},{"attributes":{"ID":13798,"DIS_CODE":0,"TOWNNAME":"東區","LI":"裕聖里","LIN":"20鄰","STREET":"裕忠路","SECT":" ","MAREA":" ","LANE":" ","ALLEY":" ","HOUSE_NO":"２９５之３號","E_COORD97":172289.20999999999,"N_COORD97":2542375.5600000001,"ADDRESS":"裕忠路２９５之３號","OBJECTID":13798},"geometry":{"x":172289.21000000089,"y":2542375.5600000005}},{"attributes":{"ID":13799,"DIS_CODE":0,"TOWNNAME":"東區","LI":"裕聖里","LIN":"20鄰","STREET":"裕忠路","SECT":" ","MAREA":" ","LANE":" ","ALLEY":" ","HOUSE_NO":"２９５之５號","E_COORD97":172294.28,"N_COORD97":2542375.3999999999,"ADDRESS":"裕忠路２９５之５號","OBJECTID":13799},"geometry":{"x":172294.28000000119,"y":2542375.4000000022}},{"attributes":{"ID":13800,"DIS_CODE":0,"TOWNNAME":"東區","LI":"裕聖里","LIN":"20鄰","STREET":"裕忠路","SECT":" ","MAREA":" ","LANE":" ","ALLEY":" ","HOUSE_NO":"２９５之７號","E_COORD97":172303.17000000001,"N_COORD97":2542375.2799999998,"ADDRESS":"裕忠路２９５之７號","OBJECTID":13800},"geometry":{"x":172303.17000000086,"y":2542375.2800000012}}]}