{"displayFieldName":"TOWNNAME","fieldAliases":{"ID":"ID","DIS_CODE":"DIS_CODE","TOWNNAME":"TOWNNAME","LI":"LI","LIN":"LIN","STREET":"STREET","SECT":"SECT","MAREA":"MAREA","LANE":"LANE","ALLEY":"ALLEY","HOUSE_NO":"HOUSE_NO","E_COORD97":"E_COORD97","N_COORD97":"N_COORD97","ADDRESS":"ADDRESS","OBJECTID":"OBJECTID"},"geometryType":"esriGeometryPoint","spatialReference":{"wkid":102443,"latestWkid":3826},"fields":[{"name":"ID","type":"esriFieldTypeDouble","alias":"ID"},{"name":"DIS_CODE","type":"esriFieldTypeInteger","alias":"DIS_CODE"},{"name":"TOWNNAME","type":"esriFieldTypeString","alias":"TOWNNAME","length":8},{"name":"LI","type":"esriFieldTypeString","alias":"LI","length":8},{"name":"LIN","type":"esriFieldTypeString","alias":"LIN","length":12},{"name":"STREET","type":"esriFieldTypeString","alias":"STREET","length":20},{"name":"SECT","type":"esriFieldTypeString","alias":"SECT","length":8},{"name":"MAREA","type":"esriFieldTypeString","alias":"MAREA","length":12},{"name":"LANE","type":"esriFieldTypeString","alias":"LANE","length":10},{"name":"ALLEY","type":"esriFieldTypeString","alias":"ALLEY","length":10},{"name":"HOUSE_NO","type":"esriFieldTypeString","alias":"HOUSE_NO","length":20},{"name":"E_COORD97","type":"esriFieldTypeDouble","alias":"E_COORD97"},{"name":"N_COORD97","type":"esriFieldTypeDouble","alias":"N_COORD97"},{"name":"ADDRESS","type":"esriFieldTypeString","alias":"ADDRESS","length":50},{"name":"OBJECTID","type":"esriFieldTypeOID","alias":"OBJECTID"}],"features":[{"attributes":{"ID":263405,"DIS_CODE":0,"TOWNNAME":"北區","LI":"仁愛里","LIN":"5鄰","STREET":"勝利路","SECT":" ","MAREA":" ","LANE":"１９０巷","ALLEY":" ","HOUSE_NO":"１７號","E_COORD97":169980.98702,"N_COORD97":2544958.9928199998,"ADDRESS":"勝利路１９０巷１７號","OBJECTID":263401},"geometry":{"x":169980.98702000082,"y":2544958.9928210005}},{"attributes":{"ID":263406,"DIS_CODE":0,"TOWNNAME":"新化區","LI":"武安里","LIN":"13鄰","STREET":"健康路","SECT":" ","MAREA":" ","LANE":"４７巷","ALLEY":" ","HOUSE_NO":"２６號","E_COORD97":178818.56,"N_COORD97":2548073.02,"ADDRESS":"健康路４７巷２６號","OBJECTID":263402},"geometry":{"x":178818.55999999959,"y":2548073.0200000014}},{"attributes":{"ID":263407,"DIS_CODE":0,"TOWNNAME":"永康區","LI":"埔園里","LIN":"22鄰","STREET":"四維街","SECT":" ","MAREA":" ","LANE":" ","ALLEY":" ","HOUSE_NO":"６０號","E_COORD97":173416.04999999999,"N_COORD97":2548073.9500000002,"ADDRESS":"四維街６０號","OBJECTID":263403},"geometry":{"x":173416.05000000075,"y":2548073.9499999993}},{"attributes":{"ID":263408,"DIS_CODE":0,"TOWNNAME":"永康區","LI":"西勢里","LIN":"22鄰","STREET":"富強路","SECT":"一段","MAREA":" ","LANE":" ","ALLEY":" ","HOUSE_NO":"２２０號","E_COORD97":175632.41,"N_COORD97":2546408.2799999998,"ADDRESS":"富強路一段２２０號","OBJECTID":263404},"geometry":{"x":175632.41000000108,"y":2546408.2799999975}},{"attributes":{"ID":263409,"DIS_CODE":0,"TOWNNAME":"永康區","LI":"埔園里","LIN":"7鄰","STREET":"中山路","SECT":" ","MAREA":" ","LANE":" ","ALLEY":" ","HOUSE_NO":"６３號","E_COORD97":173763.54000000001,"N_COORD97":2547737.7400000002,"ADDRESS":"中山路６３號","OBJECTID":263405},"geometry":{"x":173763.54000000097,"y":2547737.7400000002}},{"attributes":{"ID":263410,"DIS_CODE":0,"TOWNNAME":"新化區","LI":"武安里","LIN":"13鄰","STREET":"健康路","SECT":" ","MAREA":" ","LANE":"４７巷","ALLEY":" ","HOUSE_NO":"２８號","E_COORD97":178815.29000000001,"N_COORD97":2548070.21,"ADDRESS":"健康路４７巷２８號","OBJECTID":263406},"geometry":{"x":178815.29000000097,"y":2548070.2100000009}},{"attributes":{"ID":263411,"DIS_CODE":0,"TOWNNAME":"新化區","LI":"武安里","LIN":"13鄰","STREET":"健康路","SECT":" ","MAREA":" ","LANE":"４７巷","ALLEY":" ","HOUSE_NO":"３０號","E_COORD97":178812.01999999999,"N_COORD97":2548067.3999999999,"ADDRESS":"健康路４７巷３０號","OBJECTID":263407},"geometry":{"x":178812.01999999955,"y":2548067.4000000022}},{"attributes":{"ID":263412,"DIS_CODE":0,"TOWNNAME":"新化區","LI":"武安里","LIN":"13鄰","STREET":"健康路","SECT":" ","MAREA":" ","LANE":"４７巷","ALLEY":" ","HOUSE_NO":"３２號","E_COORD97":178809.66,"N_COORD97":2548063.5299999998,"ADDRESS":"健康路４７巷３２號","OBJECTID":263408},"geometry":{"x":178809.66000000108,"y":2548063.5299999993}},{"attributes":{"ID":263413,"DIS_CODE":0,"TOWNNAME":"新化區","LI":"豐榮里","LIN":"13鄰","STREET":"健康路","SECT":" ","MAREA":" ","LANE":"１０１巷","ALLEY":" ","HOUSE_NO":"１２號","E_COORD97":178736.10999999999,"N_COORD97":2548165.6499999999,"ADDRESS":"健康路１０１巷１２號","OBJECTID":263409},"geometry":{"x":178736.11000000034,"y":2548165.6500000004}},{"attributes":{"ID":263414,"DIS_CODE":0,"TOWNNAME":"東區","LI":"富強里","LIN":"22鄰","STREET":"富強二街","SECT":" ","MAREA":" ","LANE":" ","ALLEY":" ","HOUSE_NO":"１５號","E_COORD97":171017.72,"N_COORD97":2542546.5699999998,"ADDRESS":"富強二街１５號","OBJECTID":263410},"geometry":{"x":171017.72000000067,"y":2542546.5700000022}},{"attributes":{"ID":263415,"DIS_CODE":0,"TOWNNAME":"東區","LI":"富強里","LIN":"22鄰","STREET":"富強二街","SECT":" ","MAREA":" ","LANE":" ","ALLEY":" ","HOUSE_NO":"１７號","E_COORD97":171022.25,"N_COORD97":2542552.0099999998,"ADDRESS":"富強二街１７號","OBJECTID":263411},"geometry":{"x":171022.25000000186,"y":2542552.0099999998}},{"attributes":{"ID":263416,"DIS_CODE":0,"TOWNNAME":"安平區","LI":"億載里","LIN":"13鄰","STREET":"健康四街","SECT":" ","MAREA":" ","LANE":"９５巷","ALLEY":" ","HOUSE_NO":"９號","E_COORD97":164147.03,"N_COORD97":2543242.6099999999,"ADDRESS":"健康四街９５巷９號","OBJECTID":263412},"geometry":{"x":164147.03000000119,"y":2543242.6099999994}},{"attributes":{"ID":263417,"DIS_CODE":0,"TOWNNAME":"東區","LI":"富強里","LIN":"22鄰","STREET":"富強二街","SECT":" ","MAREA":" ","LANE":" ","ALLEY":" ","HOUSE_NO":"１９號","E_COORD97":171027.69,"N_COORD97":2542556.0899999999,"ADDRESS":"富強二街１９號","OBJECTID":263413},"geometry":{"x":171027.69000000041,"y":2542556.0900000017}},{"attributes":{"ID":263418,"DIS_CODE":0,"TOWNNAME":"東區","LI":"富強里","LIN":"22鄰","STREET":"富強二街","SECT":" ","MAREA":" ","LANE":" ","ALLEY":" ","HOUSE_NO":"１號","E_COORD97":170982.38,"N_COORD97":2542503.52,"ADDRESS":"富強二街１號","OBJECTID":263414},"geometry":{"x":170982.38000000082,"y":2542503.5199999996}},{"attributes":{"ID":263419,"DIS_CODE":0,"TOWNNAME":"南區","LI":"日新里","LIN":"13鄰","STREET":"金華路","SECT":"一段","MAREA":" ","LANE":"５０３巷","ALLEY":" ","HOUSE_NO":"５８號","E_COORD97":166847.20000000001,"N_COORD97":2541568.8700000001,"ADDRESS":"金華路一段５０３巷５８號","OBJECTID":263415},"geometry":{"x":166847.20000000019,"y":2541568.8700000029}},{"attributes":{"ID":263420,"DIS_CODE":0,"TOWNNAME":"南區","LI":"日新里","LIN":"13鄰","STREET":"金華路","SECT":"一段","MAREA":" ","LANE":"５０３巷","ALLEY":" ","HOUSE_NO":"６０號","E_COORD97":166844.51000000001,"N_COORD97":2541565.6800000002,"ADDRESS":"金華路一段５０３巷６０號","OBJECTID":263416},"geometry":{"x":166844.50999999978,"y":2541565.6800000016}},{"attributes":{"ID":263421,"DIS_CODE":0,"TOWNNAME":"東區","LI":"富強里","LIN":"22鄰","STREET":"富強二街","SECT":" ","MAREA":" ","LANE":" ","ALLEY":" ","HOUSE_NO":"３號","E_COORD97":170987.35999999999,"N_COORD97":2542510.77,"ADDRESS":"富強二街３號","OBJECTID":263417},"geometry":{"x":170987.36000000034,"y":2542510.7700000014}},{"attributes":{"ID":263422,"DIS_CODE":0,"TOWNNAME":"南區","LI":"日新里","LIN":"13鄰","STREET":"金華路","SECT":"一段","MAREA":" ","LANE":"５０３巷","ALLEY":" ","HOUSE_NO":"６２號","E_COORD97":166840.88,"N_COORD97":2541563.2000000002,"ADDRESS":"金華路一段５０３巷６２號","OBJECTID":263418},"geometry":{"x":166840.88000000175,"y":2541563.1999999993}},{"attributes":{"ID":263423,"DIS_CODE":0,"TOWNNAME":"南區","LI":"日新里","LIN":"13鄰","STREET":"金華路","SECT":"一段","MAREA":" ","LANE":"５０３巷","ALLEY":" ","HOUSE_NO":"６４號","E_COORD97":166836.78,"N_COORD97":2541559.48,"ADDRESS":"金華路一段５０３巷６４號","OBJECTID":263419},"geometry":{"x":166836.77999999933,"y":2541559.4800000004}},{"attributes":{"ID":263424,"DIS_CODE":0,"TOWNNAME":"東區","LI":"富強里","LIN":"22鄰","STREET":"富強二街","SECT":" ","MAREA":" ","LANE":" ","ALLEY":" ","HOUSE_NO":"５號","E_COORD97":170993.70000000001,"N_COORD97":2542516.21,"ADDRESS":"富強二街５號","OBJECTID":263420},"geometry":{"x":170993.70000000019,"y":2542516.2100000028}},{"attributes":{"ID":263425,"DIS_CODE":0,"TOWNNAME":"善化區","LI":"小新里","LIN":"22鄰","STREET":" ","SECT":" ","MAREA":"士宏新村","LANE":" ","ALLEY":" ","HOUSE_NO":"４號","E_COORD97":180438.75,"N_COORD97":2558487.25,"ADDRESS":"士宏新村４號","OBJECTID":263421},"geometry":{"x":180438.75,"y":2558487.2500000019}},{"attributes":{"ID":263426,"DIS_CODE":0,"TOWNNAME":"仁德區","LI":"大甲里","LIN":"22鄰","STREET":"行大街","SECT":" ","MAREA":" ","LANE":" ","ALLEY":" ","HOUSE_NO":"３９０號","E_COORD97":169493.70999999999,"N_COORD97":2535246.75,"ADDRESS":"行大街３９０號","OBJECTID":263422},"geometry":{"x":169493.71000000089,"y":2535246.75}},{"attributes":{"ID":263427,"DIS_CODE":0,"TOWNNAME":"東區","LI":"關聖里","LIN":"22鄰","STREET":"裕和五街","SECT":" ","MAREA":" ","LANE":" ","ALLEY":" ","HOUSE_NO":"１９９號","E_COORD97":172833.73999999999,"N_COORD97":2542904.7000000002,"ADDRESS":"裕和五街１９９號","OBJECTID":263423},"geometry":{"x":172833.74000000115,"y":2542904.7000000011}},{"attributes":{"ID":263428,"DIS_CODE":0,"TOWNNAME":"仁德區","LI":"仁愛里","LIN":"22鄰","STREET":" ","SECT":" ","MAREA":"仁愛","LANE":" ","ALLEY":" ","HOUSE_NO":"４５５號","E_COORD97":170160.473959,"N_COORD97":2540073.10678,"ADDRESS":"仁愛４５５號","OBJECTID":263424},"geometry":{"x":170160.47395899985,"y":2540073.1067829989}},{"attributes":{"ID":263429,"DIS_CODE":0,"TOWNNAME":"南區","LI":"日新里","LIN":"13鄰","STREET":"金華路","SECT":"一段","MAREA":" ","LANE":"５０３巷","ALLEY":" ","HOUSE_NO":"６６號","E_COORD97":166833.16,"N_COORD97":2541555.48,"ADDRESS":"金華路一段５０３巷６６號","OBJECTID":263425},"geometry":{"x":166833.16000000108,"y":2541555.4800000004}},{"attributes":{"ID":263430,"DIS_CODE":0,"TOWNNAME":"永康區","LI":"埔園里","LIN":"39鄰","STREET":"聖龍街","SECT":" ","MAREA":" ","LANE":" ","ALLEY":" ","HOUSE_NO":"１６１號","E_COORD97":174261.12,"N_COORD97":2547864.0499999998,"ADDRESS":"聖龍街１６１號","OBJECTID":263426},"geometry":{"x":174261.12000000197,"y":2547864.0500000026}},{"attributes":{"ID":263431,"DIS_CODE":0,"TOWNNAME":"南區","LI":"日新里","LIN":"13鄰","STREET":"金華路","SECT":"一段","MAREA":" ","LANE":"５０３巷","ALLEY":" ","HOUSE_NO":"６８號","E_COORD97":166831.34,"N_COORD97":2541551.8599999999,"ADDRESS":"金華路一段５０３巷６８號","OBJECTID":263427},"geometry":{"x":166831.34000000078,"y":2541551.8599999994}},{"attributes":{"ID":263432,"DIS_CODE":0,"TOWNNAME":"東區","LI":"關聖里","LIN":"22鄰","STREET":"裕和五街","SECT":" ","MAREA":" ","LANE":" ","ALLEY":" ","HOUSE_NO":"１９７號","E_COORD97":172833.45999999999,"N_COORD97":2542908.6400000001,"ADDRESS":"裕和五街１９７號","OBJECTID":263428},"geometry":{"x":172833.46000000089,"y":2542908.6400000043}},{"attributes":{"ID":263433,"DIS_CODE":0,"TOWNNAME":"南區","LI":"日新里","LIN":"13鄰","STREET":"金華路","SECT":"一段","MAREA":" ","LANE":"５０３巷","ALLEY":" ","HOUSE_NO":"７０號","E_COORD97":166827.42999999999,"N_COORD97":2541547.8599999999,"ADDRESS":"金華路一段５０３巷７０號","OBJECTID":263429},"geometry":{"x":166827.43000000063,"y":2541547.8600000013}},{"attributes":{"ID":263434,"DIS_CODE":0,"TOWNNAME":"南區","LI":"日新里","LIN":"13鄰","STREET":"金華路","SECT":"一段","MAREA":" ","LANE":"５０３巷","ALLEY":" ","HOUSE_NO":"７２號","E_COORD97":166825.14999999999,"N_COORD97":2541543.8599999999,"ADDRESS":"金華路一段５０３巷７２號","OBJECTID":263430},"geometry":{"x":166825.1500000013,"y":2541543.8600000013}},{"attributes":{"ID":263435,"DIS_CODE":0,"TOWNNAME":"東區","LI":"關聖里","LIN":"22鄰","STREET":"裕和五街","SECT":" ","MAREA":" ","LANE":" ","ALLEY":" ","HOUSE_NO":"１９５號","E_COORD97":172833.17999999999,"N_COORD97":2542913.1400000001,"ADDRESS":"裕和五街１９５號","OBJECTID":263431},"geometry":{"x":172833.18000000063,"y":2542913.1400000025}},{"attributes":{"ID":263436,"DIS_CODE":0,"TOWNNAME":"永康區","LI":"崑山里","LIN":"24鄰","STREET":"大仁街","SECT":" ","MAREA":" ","LANE":" ","ALLEY":" ","HOUSE_NO":"４８號","E_COORD97":173813.70999999999,"N_COORD97":2544672.0899999999,"ADDRESS":"大仁街４８號","OBJECTID":263432},"geometry":{"x":173813.70999999996,"y":2544672.0900000017}},{"attributes":{"ID":263437,"DIS_CODE":0,"TOWNNAME":"永康區","LI":"崑山里","LIN":"37鄰","STREET":"大仁街","SECT":" ","MAREA":" ","LANE":" ","ALLEY":" ","HOUSE_NO":"１９８號","E_COORD97":173948.97,"N_COORD97":2545069.8799999999,"ADDRESS":"大仁街１９８號","OBJECTID":263433},"geometry":{"x":173948.96999999974,"y":2545069.8800000008}},{"attributes":{"ID":263438,"DIS_CODE":0,"TOWNNAME":"東區","LI":"關聖里","LIN":"22鄰","STREET":"裕和五街","SECT":" ","MAREA":" ","LANE":" ","ALLEY":" ","HOUSE_NO":"１９３號","E_COORD97":172833.04000000001,"N_COORD97":2542916.7999999998,"ADDRESS":"裕和五街１９３號","OBJECTID":263434},"geometry":{"x":172833.04000000097,"y":2542916.8000000007}},{"attributes":{"ID":263439,"DIS_CODE":0,"TOWNNAME":"永康區","LI":"勝利里","LIN":"21鄰","STREET":"勝利街","SECT":" ","MAREA":" ","LANE":" ","ALLEY":" ","HOUSE_NO":"２２３號","E_COORD97":171373.51000000001,"N_COORD97":2545204.0099999998,"ADDRESS":"勝利街２２３號","OBJECTID":263435},"geometry":{"x":171373.51000000071,"y":2545204.0100000035}},{"attributes":{"ID":263440,"DIS_CODE":0,"TOWNNAME":"永康區","LI":"埔園里","LIN":"23鄰","STREET":"四維街","SECT":" ","MAREA":" ","LANE":" ","ALLEY":" ","HOUSE_NO":"２號","E_COORD97":173462.32999999999,"N_COORD97":2547928.5699999998,"ADDRESS":"四維街２號","OBJECTID":263436},"geometry":{"x":173462.33000000007,"y":2547928.5700000003}},{"attributes":{"ID":263441,"DIS_CODE":0,"TOWNNAME":"南區","LI":"田寮里","LIN":"13鄰","STREET":"西門路","SECT":"一段","MAREA":" ","LANE":"３７３巷","ALLEY":" ","HOUSE_NO":"４號","E_COORD97":167715.92999999999,"N_COORD97":2542160.5899999999,"ADDRESS":"西門路一段３７３巷４號","OBJECTID":263437},"geometry":{"x":167715.9299999997,"y":2542160.5899999999}},{"attributes":{"ID":263442,"DIS_CODE":0,"TOWNNAME":"南區","LI":"田寮里","LIN":"13鄰","STREET":"西門路","SECT":"一段","MAREA":" ","LANE":"３７３巷","ALLEY":" ","HOUSE_NO":"６號","E_COORD97":167709.59,"N_COORD97":2542161.5800000001,"ADDRESS":"西門路一段３７３巷６號","OBJECTID":263438},"geometry":{"x":167709.59000000078,"y":2542161.5800000001}},{"attributes":{"ID":263443,"DIS_CODE":0,"TOWNNAME":"南區","LI":"田寮里","LIN":"13鄰","STREET":"西門路","SECT":"一段","MAREA":" ","LANE":"３７３巷","ALLEY":" ","HOUSE_NO":"８號","E_COORD97":167704.64999999999,"N_COORD97":2542160.8700000001,"ADDRESS":"西門路一段３７３巷８號","OBJECTID":263439},"geometry":{"x":167704.6500000013,"y":2542160.870000001}},{"attributes":{"ID":263444,"DIS_CODE":0,"TOWNNAME":"南區","LI":"田寮里","LIN":"13鄰","STREET":"西門路","SECT":"一段","MAREA":" ","LANE":"３７３巷","ALLEY":" ","HOUSE_NO":"１０號","E_COORD97":167699.85999999999,"N_COORD97":2542159.1800000002,"ADDRESS":"西門路一段３７３巷１０號","OBJECTID":263440},"geometry":{"x":167699.86000000127,"y":2542159.1800000016}},{"attributes":{"ID":263445,"DIS_CODE":0,"TOWNNAME":"南區","LI":"田寮里","LIN":"13鄰","STREET":"西門路","SECT":"一段","MAREA":" ","LANE":"３７３巷","ALLEY":" ","HOUSE_NO":"１２號","E_COORD97":167695.20000000001,"N_COORD97":2542158.8999999999,"ADDRESS":"西門路一段３７３巷１２號","OBJECTID":263441},"geometry":{"x":167695.20000000205,"y":2542158.9000000022}},{"attributes":{"ID":263446,"DIS_CODE":0,"TOWNNAME":"南區","LI":"田寮里","LIN":"13鄰","STREET":"新興路","SECT":" ","MAREA":" ","LANE":"４１巷","ALLEY":" ","HOUSE_NO":"１４號","E_COORD97":167657.94,"N_COORD97":2542171.6800000002,"ADDRESS":"新興路４１巷１４號","OBJECTID":263442},"geometry":{"x":167657.94000000041,"y":2542171.6800000034}},{"attributes":{"ID":263447,"DIS_CODE":0,"TOWNNAME":"永康區","LI":"成功里","LIN":"13鄰","STREET":"忠孝路","SECT":" ","MAREA":" ","LANE":"２０７巷","ALLEY":" ","HOUSE_NO":"４９號","E_COORD97":171943.69,"N_COORD97":2544892,"ADDRESS":"忠孝路２０７巷４９號","OBJECTID":263443},"geometry":{"x":171943.69000000227,"y":2544891.9999999981}},{"attributes":{"ID":263448,"DIS_CODE":0,"TOWNNAME":"永康區","LI":"成功里","LIN":"13鄰","STREET":"忠孝路","SECT":" ","MAREA":" ","LANE":"２０７巷","ALLEY":" ","HOUSE_NO":"５３號","E_COORD97":171934.60999999999,"N_COORD97":2544910.8999999999,"ADDRESS":"忠孝路２０７巷５３號","OBJECTID":263444},"geometry":{"x":171934.61000000127,"y":2544910.9000000022}},{"attributes":{"ID":263449,"DIS_CODE":0,"TOWNNAME":"永康區","LI":"成功里","LIN":"13鄰","STREET":"忠孝路","SECT":" ","MAREA":" ","LANE":"２０３巷","ALLEY":" ","HOUSE_NO":"３０號","E_COORD97":172004.29000000001,"N_COORD97":2544889.25,"ADDRESS":"忠孝路２０３巷３０號","OBJECTID":263445},"geometry":{"x":172004.29000000097,"y":2544889.25}},{"attributes":{"ID":263450,"DIS_CODE":0,"TOWNNAME":"永康區","LI":"甲頂里","LIN":"13鄰","STREET":"大武街","SECT":" ","MAREA":" ","LANE":"１８巷","ALLEY":" ","HOUSE_NO":"１６號","E_COORD97":170336.89000000001,"N_COORD97":2546636.3399999999,"ADDRESS":"大武街１８巷１６號","OBJECTID":263446},"geometry":{"x":170336.8900000006,"y":2546636.3400000017}},{"attributes":{"ID":263451,"DIS_CODE":0,"TOWNNAME":"永康區","LI":"成功里","LIN":"13鄰","STREET":"忠孝路","SECT":" ","MAREA":" ","LANE":"２０３巷","ALLEY":" ","HOUSE_NO":"３２號","E_COORD97":172000.17999999999,"N_COORD97":2544888.25,"ADDRESS":"忠孝路２０３巷３２號","OBJECTID":263447},"geometry":{"x":172000.1799999997,"y":2544888.2500000019}},{"attributes":{"ID":263452,"DIS_CODE":0,"TOWNNAME":"永康區","LI":"成功里","LIN":"13鄰","STREET":"忠孝路","SECT":" ","MAREA":" ","LANE":"２０７巷","ALLEY":" ","HOUSE_NO":"３１號","E_COORD97":171997.60999999999,"N_COORD97":2544917.4900000002,"ADDRESS":"忠孝路２０７巷３１號","OBJECTID":263448},"geometry":{"x":171997.61000000034,"y":2544917.4900000021}},{"attributes":{"ID":263453,"DIS_CODE":0,"TOWNNAME":"永康區","LI":"安康里","LIN":"13鄰","STREET":"中華路","SECT":" ","MAREA":" ","LANE":"６１９巷","ALLEY":" ","HOUSE_NO":"９２號","E_COORD97":170858.04000000001,"N_COORD97":2545998.75,"ADDRESS":"中華路６１９巷９２號","OBJECTID":263449},"geometry":{"x":170858.04000000097,"y":2545998.75}},{"attributes":{"ID":263454,"DIS_CODE":0,"TOWNNAME":"善化區","LI":"坐駕里","LIN":"22鄰","STREET":" ","SECT":" ","MAREA":"陽明新村","LANE":" ","ALLEY":" ","HOUSE_NO":"１２號","E_COORD97":178087.64000000001,"N_COORD97":2558368.25,"ADDRESS":"陽明新村１２號","OBJECTID":263450},"geometry":{"x":178087.63999999966,"y":2558368.2500000019}},{"attributes":{"ID":263455,"DIS_CODE":0,"TOWNNAME":"永康區","LI":"甲頂里","LIN":"13鄰","STREET":"大武街","SECT":" ","MAREA":" ","LANE":"２巷","ALLEY":" ","HOUSE_NO":"４４號","E_COORD97":170383.12,"N_COORD97":2546547.9399999999,"ADDRESS":"大武街２巷４４號","OBJECTID":263451},"geometry":{"x":170383.12000000104,"y":2546547.9400000013}},{"attributes":{"ID":263456,"DIS_CODE":0,"TOWNNAME":"永康區","LI":"安康里","LIN":"13鄰","STREET":"中華路","SECT":" ","MAREA":" ","LANE":"６１９巷","ALLEY":" ","HOUSE_NO":"９０號","E_COORD97":170860.98999999999,"N_COORD97":2546002,"ADDRESS":"中華路６１９巷９０號","OBJECTID":263452},"geometry":{"x":170860.99000000022,"y":2546002.0000000019}},{"attributes":{"ID":263457,"DIS_CODE":0,"TOWNNAME":"永康區","LI":"甲頂里","LIN":"13鄰","STREET":"大武街","SECT":" ","MAREA":" ","LANE":"１８巷","ALLEY":" ","HOUSE_NO":"１４號","E_COORD97":170332.92999999999,"N_COORD97":2546638.8399999999,"ADDRESS":"大武街１８巷１４號","OBJECTID":263453},"geometry":{"x":170332.93000000063,"y":2546638.8399999999}},{"attributes":{"ID":263458,"DIS_CODE":0,"TOWNNAME":"永康區","LI":"甲頂里","LIN":"13鄰","STREET":"大武街","SECT":" ","MAREA":" ","LANE":"１８巷","ALLEY":" ","HOUSE_NO":"１８號","E_COORD97":170340.69,"N_COORD97":2546633.8399999999,"ADDRESS":"大武街１８巷１８號","OBJECTID":263454},"geometry":{"x":170340.69000000134,"y":2546633.8400000017}},{"attributes":{"ID":263459,"DIS_CODE":0,"TOWNNAME":"永康區","LI":"正強里","LIN":"13鄰","STREET":"自強路","SECT":" ","MAREA":" ","LANE":"１８８巷","ALLEY":" ","HOUSE_NO":"１５號之４","E_COORD97":173217.44,"N_COORD97":2547454.0499999998,"ADDRESS":"自強路１８８巷１５號之４","OBJECTID":263455},"geometry":{"x":173217.44000000134,"y":2547454.0500000026}},{"attributes":{"ID":263460,"DIS_CODE":0,"TOWNNAME":"永康區","LI":"永康里","LIN":"13鄰","STREET":"永康街","SECT":" ","MAREA":" ","LANE":"１３６巷","ALLEY":" ","HOUSE_NO":"３號","E_COORD97":173936.64000000001,"N_COORD97":2547050.5,"ADDRESS":"永康街１３６巷３號","OBJECTID":263456},"geometry":{"x":173936.64000000153,"y":2547050.5}},{"attributes":{"ID":263461,"DIS_CODE":0,"TOWNNAME":"中西區","LI":"永華里","LIN":"22鄰","STREET":"忠義路","SECT":"二段","MAREA":" ","LANE":"３８巷","ALLEY":" ","HOUSE_NO":"３號","E_COORD97":168343.25,"N_COORD97":2543717.3599999999,"ADDRESS":"忠義路二段３８巷３號","OBJECTID":263457},"geometry":{"x":168343.25,"y":2543717.3600000013}},{"attributes":{"ID":263462,"DIS_CODE":0,"TOWNNAME":"仁德區","LI":"成功里","LIN":"34鄰","STREET":"成功一街","SECT":" ","MAREA":" ","LANE":" ","ALLEY":" ","HOUSE_NO":"５３號","E_COORD97":170537.09,"N_COORD97":2540088.52,"ADDRESS":"成功一街５３號","OBJECTID":263458},"geometry":{"x":170537.09000000078,"y":2540088.5200000014}},{"attributes":{"ID":263463,"DIS_CODE":0,"TOWNNAME":"仁德區","LI":"成功里","LIN":"34鄰","STREET":"成功一街","SECT":" ","MAREA":" ","LANE":" ","ALLEY":" ","HOUSE_NO":"５１號","E_COORD97":170537.41,"N_COORD97":2540092.77,"ADDRESS":"成功一街５１號","OBJECTID":263459},"geometry":{"x":170537.41000000015,"y":2540092.7700000014}},{"attributes":{"ID":263464,"DIS_CODE":0,"TOWNNAME":"東區","LI":"崇誨里","LIN":"34鄰","STREET":"東寧路","SECT":" ","MAREA":" ","LANE":" ","ALLEY":" ","HOUSE_NO":"２６６號","E_COORD97":170629.79000000001,"N_COORD97":2543446.0600000001,"ADDRESS":"東寧路２６６號","OBJECTID":263460},"geometry":{"x":170629.79000000004,"y":2543446.0600000024}},{"attributes":{"ID":263465,"DIS_CODE":0,"TOWNNAME":"中西區","LI":"三民里","LIN":"22鄰","STREET":"民族路","SECT":"二段","MAREA":" ","LANE":" ","ALLEY":" ","HOUSE_NO":"２３５號","E_COORD97":168479.85000000001,"N_COORD97":2544051.5299999998,"ADDRESS":"民族路二段２３５號","OBJECTID":263461},"geometry":{"x":168479.84999999963,"y":2544051.5300000012}},{"attributes":{"ID":263466,"DIS_CODE":0,"TOWNNAME":"中西區","LI":"三民里","LIN":"22鄰","STREET":"民族路","SECT":"二段","MAREA":" ","LANE":" ","ALLEY":" ","HOUSE_NO":"２３７號","E_COORD97":168475.35999999999,"N_COORD97":2544052.9300000002,"ADDRESS":"民族路二段２３７號","OBJECTID":263462},"geometry":{"x":168475.36000000034,"y":2544052.9300000016}},{"attributes":{"ID":263467,"DIS_CODE":0,"TOWNNAME":"東區","LI":"忠孝里","LIN":"22鄰","STREET":"崇明七街","SECT":" ","MAREA":" ","LANE":" ","ALLEY":" ","HOUSE_NO":"６３號","E_COORD97":169750.51999999999,"N_COORD97":2542189.5499999998,"ADDRESS":"崇明七街６３號","OBJECTID":263463},"geometry":{"x":169750.52000000048,"y":2542189.5500000007}},{"attributes":{"ID":263468,"DIS_CODE":0,"TOWNNAME":"東區","LI":"忠孝里","LIN":"22鄰","STREET":"崇明七街","SECT":" ","MAREA":" ","LANE":" ","ALLEY":" ","HOUSE_NO":"６５號","E_COORD97":169755.57999999999,"N_COORD97":2542191.9500000002,"ADDRESS":"崇明七街６５號","OBJECTID":263464},"geometry":{"x":169755.58000000194,"y":2542191.9499999993}},{"attributes":{"ID":263469,"DIS_CODE":0,"TOWNNAME":"東區","LI":"虎尾里","LIN":"22鄰","STREET":"東成街","SECT":" ","MAREA":" ","LANE":" ","ALLEY":" ","HOUSE_NO":"１７４號","E_COORD97":171727.35000000001,"N_COORD97":2542294.6600000001,"ADDRESS":"東成街１７４號","OBJECTID":263465},"geometry":{"x":171727.34999999963,"y":2542294.660000002}},{"attributes":{"ID":263470,"DIS_CODE":0,"TOWNNAME":"東區","LI":"虎尾里","LIN":"22鄰","STREET":"東成街","SECT":" ","MAREA":" ","LANE":" ","ALLEY":" ","HOUSE_NO":"１７６號","E_COORD97":171736.20999999999,"N_COORD97":2542294.6600000001,"ADDRESS":"東成街１７６號","OBJECTID":263466},"geometry":{"x":171736.21000000183,"y":2542294.660000002}},{"attributes":{"ID":263471,"DIS_CODE":0,"TOWNNAME":"永康區","LI":"永康里","LIN":"13鄰","STREET":"永康街","SECT":" ","MAREA":" ","LANE":"１８６巷","ALLEY":" ","HOUSE_NO":"２３號","E_COORD97":173998.95000000001,"N_COORD97":2546993.9300000002,"ADDRESS":"永康街１８６巷２３號","OBJECTID":263467},"geometry":{"x":173998.95000000019,"y":2546993.9299999997}},{"attributes":{"ID":263472,"DIS_CODE":0,"TOWNNAME":"永康區","LI":"正強里","LIN":"13鄰","STREET":"自強路","SECT":" ","MAREA":" ","LANE":"１８８巷","ALLEY":" ","HOUSE_NO":"３號","E_COORD97":173208.82999999999,"N_COORD97":2547495.4900000002,"ADDRESS":"自強路１８８巷３號","OBJECTID":263468},"geometry":{"x":173208.83000000101,"y":2547495.4900000002}},{"attributes":{"ID":263473,"DIS_CODE":0,"TOWNNAME":"新化區","LI":"協興里","LIN":"13鄰","STREET":"太平街","SECT":" ","MAREA":" ","LANE":"１５０巷","ALLEY":" ","HOUSE_NO":"４９號","E_COORD97":178313.07000000001,"N_COORD97":2548813.25,"ADDRESS":"太平街１５０巷４９號","OBJECTID":263469},"geometry":{"x":178313.07000000216,"y":2548813.2500000037}},{"attributes":{"ID":263474,"DIS_CODE":0,"TOWNNAME":"新化區","LI":"協興里","LIN":"13鄰","STREET":"太平街","SECT":" ","MAREA":" ","LANE":"１５０巷","ALLEY":" ","HOUSE_NO":"１０５號","E_COORD97":178266.01999999999,"N_COORD97":2548819.25,"ADDRESS":"太平街１５０巷１０５號","OBJECTID":263470},"geometry":{"x":178266.01999999955,"y":2548819.25}},{"attributes":{"ID":263475,"DIS_CODE":0,"TOWNNAME":"安南區","LI":"安慶里","LIN":"13鄰","STREET":"安和路","SECT":"二段","MAREA":" ","LANE":"１１１巷","ALLEY":" ","HOUSE_NO":"１４號","E_COORD97":169462.14000000001,"N_COORD97":2548754.5899999999,"ADDRESS":"安和路二段１１１巷１４號","OBJECTID":263471},"geometry":{"x":169462.1400000006,"y":2548754.5900000017}},{"attributes":{"ID":263476,"DIS_CODE":0,"TOWNNAME":"安南區","LI":"安慶里","LIN":"13鄰","STREET":"安和路","SECT":"二段","MAREA":" ","LANE":"１１１巷","ALLEY":" ","HOUSE_NO":"１６號","E_COORD97":169457.67999999999,"N_COORD97":2548753.8999999999,"ADDRESS":"安和路二段１１１巷１６號","OBJECTID":263472},"geometry":{"x":169457.68000000156,"y":2548753.9000000004}},{"attributes":{"ID":263477,"DIS_CODE":0,"TOWNNAME":"安南區","LI":"淵東里","LIN":"13鄰","STREET":"本原街","SECT":"三段","MAREA":" ","LANE":"２４巷","ALLEY":" ","HOUSE_NO":"１號","E_COORD97":165690.45000000001,"N_COORD97":2550432.8999999999,"ADDRESS":"本原街三段２４巷１號","OBJECTID":263473},"geometry":{"x":165690.45000000112,"y":2550432.8999999985}},{"attributes":{"ID":263478,"DIS_CODE":0,"TOWNNAME":"安南區","LI":"淵東里","LIN":"13鄰","STREET":"海佃路","SECT":"四段","MAREA":" ","LANE":"５５巷","ALLEY":" ","HOUSE_NO":"８５號","E_COORD97":165485.87,"N_COORD97":2550493.8199999998,"ADDRESS":"海佃路四段５５巷８５號","OBJECTID":263474},"geometry":{"x":165485.87000000104,"y":2550493.8200000003}},{"attributes":{"ID":263479,"DIS_CODE":0,"TOWNNAME":"安南區","LI":"安順里","LIN":"13鄰","STREET":"總安街","SECT":"一段","MAREA":" ","LANE":"１１７巷","ALLEY":" ","HOUSE_NO":"２號","E_COORD97":169668.16,"N_COORD97":2550128.79,"ADDRESS":"總安街一段１１７巷２號","OBJECTID":263475},"geometry":{"x":169668.16000000015,"y":2550128.790000001}},{"attributes":{"ID":263480,"DIS_CODE":0,"TOWNNAME":"安南區","LI":"安順里","LIN":"13鄰","STREET":"總安街","SECT":"一段","MAREA":" ","LANE":"１１７巷","ALLEY":" ","HOUSE_NO":"４號","E_COORD97":169668.47,"N_COORD97":2550123.9300000002,"ADDRESS":"總安街一段１１７巷４號","OBJECTID":263476},"geometry":{"x":169668.47000000067,"y":2550123.9300000034}},{"attributes":{"ID":263481,"DIS_CODE":0,"TOWNNAME":"安南區","LI":"安順里","LIN":"13鄰","STREET":"總安街","SECT":"一段","MAREA":" ","LANE":"１１７巷","ALLEY":" ","HOUSE_NO":"６號","E_COORD97":169668.01000000001,"N_COORD97":2550120.4399999999,"ADDRESS":"總安街一段１１７巷６號","OBJECTID":263477},"geometry":{"x":169668.01000000071,"y":2550120.4400000013}},{"attributes":{"ID":263482,"DIS_CODE":0,"TOWNNAME":"安南區","LI":"安順里","LIN":"13鄰","STREET":"總安街","SECT":"一段","MAREA":" ","LANE":"１１７巷","ALLEY":" ","HOUSE_NO":"８號","E_COORD97":169667.39999999999,"N_COORD97":2550115.8900000001,"ADDRESS":"總安街一段１１７巷８號","OBJECTID":263478},"geometry":{"x":169667.4000000013,"y":2550115.8900000025}},{"attributes":{"ID":263483,"DIS_CODE":0,"TOWNNAME":"安南區","LI":"安順里","LIN":"13鄰","STREET":"總安街","SECT":"一段","MAREA":" ","LANE":"１４１巷","ALLEY":" ","HOUSE_NO":"１１號","E_COORD97":169631.26000000001,"N_COORD97":2550121.5,"ADDRESS":"總安街一段１４１巷１１號","OBJECTID":263479},"geometry":{"x":169631.25999999978,"y":2550121.5000000019}},{"attributes":{"ID":263484,"DIS_CODE":0,"TOWNNAME":"安南區","LI":"安順里","LIN":"13鄰","STREET":"總安街","SECT":"一段","MAREA":" ","LANE":"１４１巷","ALLEY":" ","HOUSE_NO":"１３號","E_COORD97":169630.95000000001,"N_COORD97":2550117.1000000001,"ADDRESS":"總安街一段１４１巷１３號","OBJECTID":263480},"geometry":{"x":169630.95000000205,"y":2550117.1000000015}},{"attributes":{"ID":263485,"DIS_CODE":0,"TOWNNAME":"白河區","LI":"永安里","LIN":" ","STREET":"中興街","SECT":" ","MAREA":" ","LANE":" ","ALLEY":" ","HOUSE_NO":"１８號","E_COORD97":190193.17999999999,"N_COORD97":2583206.77,"ADDRESS":"中興街１８號","OBJECTID":263481},"geometry":{"x":190193.17999999877,"y":2583206.7699999996}},{"attributes":{"ID":263486,"DIS_CODE":0,"TOWNNAME":"永康區","LI":"\u25A0洲里","LIN":"22鄰","STREET":"\u25A0忠街","SECT":" ","MAREA":" ","LANE":" ","ALLEY":" ","HOUSE_NO":"５２號","E_COORD97":171485.48999999999,"N_COORD97":2548991.4900000002,"ADDRESS":"\u25A0忠街５２號","OBJECTID":263482},"geometry":{"x":171485.49000000115,"y":2548991.4900000039}},{"attributes":{"ID":263487,"DIS_CODE":0,"TOWNNAME":"永康區","LI":"中華里","LIN":"22鄰","STREET":"華興街","SECT":" ","MAREA":" ","LANE":" ","ALLEY":" ","HOUSE_NO":"９２之１號","E_COORD97":171849.89000000001,"N_COORD97":2544582.1899999999,"ADDRESS":"華興街９２之１號","OBJECTID":263483},"geometry":{"x":171849.89000000153,"y":2544582.1900000013}},{"attributes":{"ID":263488,"DIS_CODE":0,"TOWNNAME":"安南區","LI":"安順里","LIN":"13鄰","STREET":"總安街","SECT":"一段","MAREA":" ","LANE":"１４１巷","ALLEY":" ","HOUSE_NO":"１５號","E_COORD97":169630.79999999999,"N_COORD97":2550112.5499999998,"ADDRESS":"總安街一段１４１巷１５號","OBJECTID":263484},"geometry":{"x":169630.79999999981,"y":2550112.5500000007}},{"attributes":{"ID":263489,"DIS_CODE":0,"TOWNNAME":"安南區","LI":"安順里","LIN":"13鄰","STREET":"總安街","SECT":"一段","MAREA":" ","LANE":"１４１巷","ALLEY":" ","HOUSE_NO":"１７號","E_COORD97":169630.79999999999,"N_COORD97":2550107.8500000001,"ADDRESS":"總安街一段１４１巷１７號","OBJECTID":263485},"geometry":{"x":169630.79999999981,"y":2550107.8500000015}},{"attributes":{"ID":263490,"DIS_CODE":0,"TOWNNAME":"安南區","LI":"安順里","LIN":"13鄰","STREET":"總安街","SECT":"一段","MAREA":" ","LANE":"１４１巷","ALLEY":" ","HOUSE_NO":"１９號","E_COORD97":169631.10000000001,"N_COORD97":2550103.6000000001,"ADDRESS":"總安街一段１４１巷１９號","OBJECTID":263486},"geometry":{"x":169631.10000000149,"y":2550103.6000000015}},{"attributes":{"ID":263491,"DIS_CODE":0,"TOWNNAME":"安南區","LI":"安順里","LIN":"13鄰","STREET":"總安街","SECT":"一段","MAREA":" ","LANE":"１４１巷","ALLEY":" ","HOUSE_NO":"３號","E_COORD97":169631.56,"N_COORD97":2550138.9500000002,"ADDRESS":"總安街一段１４１巷３號","OBJECTID":263487},"geometry":{"x":169631.56000000052,"y":2550138.9499999993}},{"attributes":{"ID":263492,"DIS_CODE":0,"TOWNNAME":"安南區","LI":"新順里","LIN":"13鄰","STREET":"永安路","SECT":" ","MAREA":" ","LANE":"７１巷","ALLEY":" ","HOUSE_NO":"１０號","E_COORD97":170351.60000000001,"N_COORD97":2549464.4500000002,"ADDRESS":"永安路７１巷１０號","OBJECTID":263488},"geometry":{"x":170351.60000000149,"y":2549464.4499999993}},{"attributes":{"ID":263493,"DIS_CODE":0,"TOWNNAME":"安南區","LI":"新順里","LIN":"13鄰","STREET":"永安路","SECT":" ","MAREA":" ","LANE":"７１巷","ALLEY":" ","HOUSE_NO":"１２號","E_COORD97":170356.37,"N_COORD97":2549477.0299999998,"ADDRESS":"永安路７１巷１２號","OBJECTID":263489},"geometry":{"x":170356.37000000011,"y":2549477.0299999993}},{"attributes":{"ID":263494,"DIS_CODE":0,"TOWNNAME":"安南區","LI":"新順里","LIN":"13鄰","STREET":"永安路","SECT":" ","MAREA":" ","LANE":"７１巷","ALLEY":" ","HOUSE_NO":"１８號","E_COORD97":170372,"N_COORD97":2549505.7599999998,"ADDRESS":"永安路７１巷１８號","OBJECTID":263490},"geometry":{"x":170372.00000000093,"y":2549505.7600000016}},{"attributes":{"ID":263495,"DIS_CODE":0,"TOWNNAME":"安南區","LI":"新順里","LIN":"13鄰","STREET":"永安路","SECT":" ","MAREA":" ","LANE":"７１巷","ALLEY":" ","HOUSE_NO":"２號","E_COORD97":170338.67000000001,"N_COORD97":2549444.3900000001,"ADDRESS":"永安路７１巷２號","OBJECTID":263491},"geometry":{"x":170338.67000000086,"y":2549444.3900000025}},{"attributes":{"ID":263496,"DIS_CODE":0,"TOWNNAME":"安南區","LI":"新順里","LIN":"13鄰","STREET":"永安路","SECT":" ","MAREA":" ","LANE":"７１巷","ALLEY":" ","HOUSE_NO":"５號","E_COORD97":170336.45000000001,"N_COORD97":2549475.9300000002,"ADDRESS":"永安路７１巷５號","OBJECTID":263492},"geometry":{"x":170336.45000000112,"y":2549475.9299999978}},{"attributes":{"ID":263497,"DIS_CODE":0,"TOWNNAME":"安南區","LI":"新順里","LIN":"13鄰","STREET":"永安路","SECT":" ","MAREA":" ","LANE":"７１巷","ALLEY":" ","HOUSE_NO":"７號","E_COORD97":170337.88,"N_COORD97":2549516.8799999999,"ADDRESS":"永安路７１巷７號","OBJECTID":263493},"geometry":{"x":170337.87999999989,"y":2549516.8800000008}},{"attributes":{"ID":263498,"DIS_CODE":0,"TOWNNAME":"永康區","LI":"復華里","LIN":"22鄰","STREET":"復華七街","SECT":" ","MAREA":" ","LANE":" ","ALLEY":" ","HOUSE_NO":"１０３號","E_COORD97":172819.04000000001,"N_COORD97":2546141.5499999998,"ADDRESS":"復華七街１０３號","OBJECTID":263494},"geometry":{"x":172819.04000000097,"y":2546141.5500000026}},{"attributes":{"ID":263499,"DIS_CODE":0,"TOWNNAME":"永康區","LI":"埔園里","LIN":"39鄰","STREET":"聖龍街","SECT":" ","MAREA":" ","LANE":" ","ALLEY":" ","HOUSE_NO":"１０９號","E_COORD97":174098.78,"N_COORD97":2547862.8199999998,"ADDRESS":"聖龍街１０９號","OBJECTID":263495},"geometry":{"x":174098.78000000026,"y":2547862.8200000003}},{"attributes":{"ID":263500,"DIS_CODE":0,"TOWNNAME":"永康區","LI":"崑山里","LIN":"39鄰","STREET":"永大路","SECT":"二段","MAREA":" ","LANE":" ","ALLEY":" ","HOUSE_NO":"７３號","E_COORD97":174183.28,"N_COORD97":2544878.0800000001,"ADDRESS":"永大路二段７３號","OBJECTID":263496},"geometry":{"x":174183.28000000026,"y":2544878.0800000038}},{"attributes":{"ID":263501,"DIS_CODE":0,"TOWNNAME":"永康區","LI":"崑山里","LIN":"24鄰","STREET":"大仁街","SECT":" ","MAREA":" ","LANE":" ","ALLEY":" ","HOUSE_NO":"６８號","E_COORD97":173823.57999999999,"N_COORD97":2544710.3300000001,"ADDRESS":"大仁街６８號","OBJECTID":263497},"geometry":{"x":173823.58000000007,"y":2544710.3300000038}},{"attributes":{"ID":263502,"DIS_CODE":0,"TOWNNAME":"永康區","LI":"勝利里","LIN":"6鄰","STREET":"勝利街","SECT":" ","MAREA":" ","LANE":" ","ALLEY":" ","HOUSE_NO":"７號","E_COORD97":171184.20000000001,"N_COORD97":2544569.7599999998,"ADDRESS":"勝利街７號","OBJECTID":263498},"geometry":{"x":171184.20000000112,"y":2544569.7600000016}},{"attributes":{"ID":263503,"DIS_CODE":0,"TOWNNAME":"永康區","LI":"勝利里","LIN":"33鄰","STREET":"中華路","SECT":" ","MAREA":" ","LANE":" ","ALLEY":" ","HOUSE_NO":"１號之１","E_COORD97":171500.60999999999,"N_COORD97":2544353.0499999998,"ADDRESS":"中華路１號之１","OBJECTID":263499},"geometry":{"x":171500.61000000127,"y":2544353.0500000007}},{"attributes":{"ID":263504,"DIS_CODE":0,"TOWNNAME":"永康區","LI":"二王里","LIN":"22鄰","STREET":"中山南路","SECT":" ","MAREA":" ","LANE":" ","ALLEY":" ","HOUSE_NO":"５７８號","E_COORD97":172252.89000000001,"N_COORD97":2546593.6099999999,"ADDRESS":"中山南路５７８號","OBJECTID":263500},"geometry":{"x":172252.88999999966,"y":2546593.6100000013}},{"attributes":{"ID":263505,"DIS_CODE":0,"TOWNNAME":"白河區","LI":"永安里","LIN":" ","STREET":"中興街","SECT":" ","MAREA":" ","LANE":" ","ALLEY":" ","HOUSE_NO":"２０號","E_COORD97":190188.91,"N_COORD97":2583208.8900000001,"ADDRESS":"中興街２０號","OBJECTID":263501},"geometry":{"x":190188.91000000201,"y":2583208.8900000025}},{"attributes":{"ID":263506,"DIS_CODE":0,"TOWNNAME":"安南區","LI":"新順里","LIN":"13鄰","STREET":"永安路","SECT":" ","MAREA":" ","LANE":"８９巷","ALLEY":" ","HOUSE_NO":"３號","E_COORD97":170475.92000000001,"N_COORD97":2549369.3399999999,"ADDRESS":"永安路８９巷３號","OBJECTID":263502},"geometry":{"x":170475.92000000086,"y":2549369.3400000017}},{"attributes":{"ID":263507,"DIS_CODE":0,"TOWNNAME":"安南區","LI":"新順里","LIN":"13鄰","STREET":"永安路","SECT":" ","MAREA":" ","LANE":"８９巷","ALLEY":" ","HOUSE_NO":"５號","E_COORD97":170479.51000000001,"N_COORD97":2549374.5,"ADDRESS":"永安路８９巷５號","OBJECTID":263503},"geometry":{"x":170479.51000000164,"y":2549374.5000000037}},{"attributes":{"ID":263508,"DIS_CODE":0,"TOWNNAME":"新化區","LI":"太平里","LIN":"13鄰","STREET":"太平街","SECT":" ","MAREA":" ","LANE":"２２巷","ALLEY":" ","HOUSE_NO":"７號之３","E_COORD97":178866.42000000001,"N_COORD97":2548825.2599999998,"ADDRESS":"太平街２２巷７號之３","OBJECTID":263504},"geometry":{"x":178866.42000000179,"y":2548825.2599999998}},{"attributes":{"ID":263509,"DIS_CODE":0,"TOWNNAME":"新化區","LI":"協興里","LIN":"13鄰","STREET":"太平街","SECT":" ","MAREA":" ","LANE":"１５０巷","ALLEY":" ","HOUSE_NO":"７１號","E_COORD97":178274.47,"N_COORD97":2548784.25,"ADDRESS":"太平街１５０巷７１號","OBJECTID":263505},"geometry":{"x":178274.47000000067,"y":2548784.2500000019}},{"attributes":{"ID":263510,"DIS_CODE":0,"TOWNNAME":"新化區","LI":"太平里","LIN":"13鄰","STREET":"太平街","SECT":" ","MAREA":" ","LANE":"２２巷","ALLEY":" ","HOUSE_NO":"１０號之１","E_COORD97":178881.75,"N_COORD97":2548843.2599999998,"ADDRESS":"太平街２２巷１０號之１","OBJECTID":263506},"geometry":{"x":178881.75000000093,"y":2548843.2600000035}},{"attributes":{"ID":263511,"DIS_CODE":0,"TOWNNAME":"新化區","LI":"協興里","LIN":"13鄰","STREET":"太平街","SECT":" ","MAREA":" ","LANE":"１５０巷","ALLEY":" ","HOUSE_NO":"９５號","E_COORD97":178276.17000000001,"N_COORD97":2548812.25,"ADDRESS":"太平街１５０巷９５號","OBJECTID":263507},"geometry":{"x":178276.16999999993,"y":2548812.25}},{"attributes":{"ID":263512,"DIS_CODE":0,"TOWNNAME":"新化區","LI":"太平里","LIN":"13鄰","STREET":"太平街","SECT":" ","MAREA":" ","LANE":"２２巷","ALLEY":" ","HOUSE_NO":"２６號","E_COORD97":178835.82000000001,"N_COORD97":2548873.25,"ADDRESS":"太平街２２巷２６號","OBJECTID":263508},"geometry":{"x":178835.82000000123,"y":2548873.25}},{"attributes":{"ID":263513,"DIS_CODE":0,"TOWNNAME":"安南區","LI":"新順里","LIN":"13鄰","STREET":"開安一街","SECT":" ","MAREA":" ","LANE":"８巷","ALLEY":" ","HOUSE_NO":"７號","E_COORD97":170460.97,"N_COORD97":2549663.1000000001,"ADDRESS":"開安一街８巷７號","OBJECTID":263509},"geometry":{"x":170460.96999999881,"y":2549663.0999999996}},{"attributes":{"ID":263514,"DIS_CODE":0,"TOWNNAME":"安南區","LI":"新順里","LIN":"13鄰","STREET":"開安路","SECT":" ","MAREA":" ","LANE":"３２巷","ALLEY":" ","HOUSE_NO":"３０號","E_COORD97":170553.35000000001,"N_COORD97":2549464.6000000001,"ADDRESS":"開安路３２巷３０號","OBJECTID":263510},"geometry":{"x":170553.35000000149,"y":2549464.6000000034}},{"attributes":{"ID":263515,"DIS_CODE":0,"TOWNNAME":"安南區","LI":"新順里","LIN":"13鄰","STREET":"開安路","SECT":" ","MAREA":" ","LANE":"３２巷","ALLEY":" ","HOUSE_NO":"８號","E_COORD97":170380.25,"N_COORD97":2549554.52,"ADDRESS":"開安路３２巷８號","OBJECTID":263511},"geometry":{"x":170380.25000000093,"y":2549554.5200000014}},{"attributes":{"ID":263516,"DIS_CODE":0,"TOWNNAME":"安南區","LI":"新順里","LIN":"13鄰","STREET":"開安路","SECT":" ","MAREA":" ","LANE":"６３巷","ALLEY":" ","HOUSE_NO":"２９號","E_COORD97":170289.32000000001,"N_COORD97":2549773.0899999999,"ADDRESS":"開安路６３巷２９號","OBJECTID":263512},"geometry":{"x":170289.3200000003,"y":2549773.0899999999}},{"attributes":{"ID":263517,"DIS_CODE":0,"TOWNNAME":"安南區","LI":"新順里","LIN":"13鄰","STREET":"開安路","SECT":" ","MAREA":" ","LANE":"６３巷","ALLEY":" ","HOUSE_NO":"３１號","E_COORD97":170283.98999999999,"N_COORD97":2549774.9900000002,"ADDRESS":"開安路６３巷３１號","OBJECTID":263513},"geometry":{"x":170283.99000000115,"y":2549774.9900000021}},{"attributes":{"ID":263518,"DIS_CODE":0,"TOWNNAME":"北區","LI":"安民里","LIN":"9鄰","STREET":"西門路","SECT":"三段","MAREA":" ","LANE":"４５巷","ALLEY":" ","HOUSE_NO":"１號","E_COORD97":168244.82000000001,"N_COORD97":2544706.6400000001,"ADDRESS":"西門路三段４５巷１號","OBJECTID":263514},"geometry":{"x":168244.8200000003,"y":2544706.6400000025}},{"attributes":{"ID":263519,"DIS_CODE":0,"TOWNNAME":"北區","LI":"安民里","LIN":"9鄰","STREET":"西門路","SECT":"三段","MAREA":" ","LANE":"４５巷","ALLEY":" ","HOUSE_NO":"３號","E_COORD97":168241.67000000001,"N_COORD97":2544703.77,"ADDRESS":"西門路三段４５巷３號","OBJECTID":263515},"geometry":{"x":168241.67000000086,"y":2544703.7700000014}},{"attributes":{"ID":263520,"DIS_CODE":0,"TOWNNAME":"北區","LI":"安民里","LIN":"9鄰","STREET":"西門路","SECT":"三段","MAREA":" ","LANE":"４５巷","ALLEY":" ","HOUSE_NO":"５號","E_COORD97":168239.07999999999,"N_COORD97":2544699.4700000002,"ADDRESS":"西門路三段４５巷５號","OBJECTID":263516},"geometry":{"x":168239.08000000101,"y":2544699.4700000007}},{"attributes":{"ID":263521,"DIS_CODE":0,"TOWNNAME":"南區","LI":"府南里","LIN":"13鄰","STREET":"永成路","SECT":"三段","MAREA":" ","LANE":"３７２巷","ALLEY":" ","HOUSE_NO":"１３號","E_COORD97":167552,"N_COORD97":2540999.7999999998,"ADDRESS":"永成路三段３７２巷１３號","OBJECTID":263517},"geometry":{"x":167552,"y":2540999.8000000026}},{"attributes":{"ID":263522,"DIS_CODE":0,"TOWNNAME":"南區","LI":"府南里","LIN":"13鄰","STREET":"永成路","SECT":"三段","MAREA":" ","LANE":"３７２巷","ALLEY":" ","HOUSE_NO":"１５號","E_COORD97":167557.23999999999,"N_COORD97":2540995.4399999999,"ADDRESS":"永成路三段３７２巷１５號","OBJECTID":263518},"geometry":{"x":167557.24000000022,"y":2540995.4399999995}},{"attributes":{"ID":263523,"DIS_CODE":0,"TOWNNAME":"南區","LI":"府南里","LIN":"13鄰","STREET":"永成路","SECT":"三段","MAREA":" ","LANE":"３７２巷","ALLEY":" ","HOUSE_NO":"１７號","E_COORD97":167562.01999999999,"N_COORD97":2540996.6600000001,"ADDRESS":"永成路三段３７２巷１７號","OBJECTID":263519},"geometry":{"x":167562.02000000048,"y":2540996.660000002}},{"attributes":{"ID":263524,"DIS_CODE":0,"TOWNNAME":"安南區","LI":"安慶里","LIN":"13鄰","STREET":"培安路","SECT":" ","MAREA":" ","LANE":"４８６巷","ALLEY":" ","HOUSE_NO":"９號","E_COORD97":169343.31,"N_COORD97":2548580.3399999999,"ADDRESS":"培安路４８６巷９號","OBJECTID":263520},"geometry":{"x":169343.31000000052,"y":2548580.3399999999}},{"attributes":{"ID":263525,"DIS_CODE":0,"TOWNNAME":"安南區","LI":"安慶里","LIN":"13鄰","STREET":"培安路","SECT":" ","MAREA":" ","LANE":"４８６巷","ALLEY":" ","HOUSE_NO":"１１號","E_COORD97":169339.19,"N_COORD97":2548579.5499999998,"ADDRESS":"培安路４８６巷１１號","OBJECTID":263521},"geometry":{"x":169339.19000000041,"y":2548579.5500000026}},{"attributes":{"ID":263526,"DIS_CODE":0,"TOWNNAME":"白河區","LI":"永安里","LIN":" ","STREET":"中興街","SECT":" ","MAREA":" ","LANE":" ","ALLEY":" ","HOUSE_NO":"２８號","E_COORD97":190158.38,"N_COORD97":2583223.2200000002,"ADDRESS":"中興街２８號","OBJECTID":263522},"geometry":{"x":190158.38000000082,"y":2583223.2200000044}},{"attributes":{"ID":263527,"DIS_CODE":0,"TOWNNAME":"東區","LI":"大福里","LIN":"22鄰","STREET":"大同路","SECT":"二段","MAREA":" ","LANE":" ","ALLEY":" ","HOUSE_NO":"１９７號","E_COORD97":169425.25,"N_COORD97":2541878.4399999999,"ADDRESS":"大同路二段１９７號","OBJECTID":263523},"geometry":{"x":169425.24999999907,"y":2541878.4400000013}},{"attributes":{"ID":263528,"DIS_CODE":0,"TOWNNAME":"東區","LI":"東明里","LIN":"22鄰","STREET":"怡東路","SECT":" ","MAREA":" ","LANE":" ","ALLEY":" ","HOUSE_NO":"４７號","E_COORD97":170814.35999999999,"N_COORD97":2543569.0800000001,"ADDRESS":"怡東路４７號","OBJECTID":263524},"geometry":{"x":170814.36000000034,"y":2543569.0800000001}},{"attributes":{"ID":263529,"DIS_CODE":0,"TOWNNAME":"安南區","LI":"安慶里","LIN":"13鄰","STREET":"培安路","SECT":" ","MAREA":" ","LANE":"４８６巷","ALLEY":" ","HOUSE_NO":"１３號","E_COORD97":169335.06,"N_COORD97":2548579.71,"ADDRESS":"培安路４８６巷１３號","OBJECTID":263525},"geometry":{"x":169335.06000000052,"y":2548579.7100000009}},{"attributes":{"ID":263530,"DIS_CODE":0,"TOWNNAME":"安南區","LI":"安慶里","LIN":"13鄰","STREET":"培安路","SECT":" ","MAREA":" ","LANE":"４８６巷","ALLEY":" ","HOUSE_NO":"１５號","E_COORD97":169331.57000000001,"N_COORD97":2548579.5499999998,"ADDRESS":"培安路４８６巷１５號","OBJECTID":263526},"geometry":{"x":169331.5700000003,"y":2548579.5500000026}},{"attributes":{"ID":263531,"DIS_CODE":0,"TOWNNAME":"仁德區","LI":"上崙里","LIN":"13鄰","STREET":"德崙路","SECT":" ","MAREA":" ","LANE":"４５０巷","ALLEY":" ","HOUSE_NO":"３９號","E_COORD97":174198.35000000001,"N_COORD97":2537985.0099999998,"ADDRESS":"德崙路４５０巷３９號","OBJECTID":263527},"geometry":{"x":174198.35000000056,"y":2537985.0099999998}},{"attributes":{"ID":263532,"DIS_CODE":0,"TOWNNAME":"仁德區","LI":"後壁里","LIN":"13鄰","STREET":"德善路","SECT":" ","MAREA":" ","LANE":"１０８巷","ALLEY":" ","HOUSE_NO":"２７號","E_COORD97":173515.5,"N_COORD97":2538760.27,"ADDRESS":"德善路１０８巷２７號","OBJECTID":263528},"geometry":{"x":173515.5,"y":2538760.2700000033}},{"attributes":{"ID":263533,"DIS_CODE":0,"TOWNNAME":"佳里區","LI":"建南里","LIN":"13鄰","STREET":"新生路","SECT":" ","MAREA":" ","LANE":"４４１巷","ALLEY":" ","HOUSE_NO":"１４１號","E_COORD97":165219.07000000001,"N_COORD97":2561816.4700000002,"ADDRESS":"新生路４４１巷１４１號","OBJECTID":263529},"geometry":{"x":165219.0700000003,"y":2561816.4700000007}},{"attributes":{"ID":263534,"DIS_CODE":0,"TOWNNAME":"佳里區","LI":"建南里","LIN":"13鄰","STREET":"新生路","SECT":" ","MAREA":" ","LANE":"４４１巷","ALLEY":" ","HOUSE_NO":"１８９號","E_COORD97":165246.42000000001,"N_COORD97":2561711.6099999999,"ADDRESS":"新生路４４１巷１８９號","OBJECTID":263530},"geometry":{"x":165246.41999999993,"y":2561711.6100000013}},{"attributes":{"ID":263535,"DIS_CODE":0,"TOWNNAME":"佳里區","LI":"建南里","LIN":"13鄰","STREET":"新生路","SECT":" ","MAREA":" ","LANE":"４４１巷","ALLEY":" ","HOUSE_NO":"２８號","E_COORD97":165196.29000000001,"N_COORD97":2562073.5800000001,"ADDRESS":"新生路４４１巷２８號","OBJECTID":263531},"geometry":{"x":165196.29000000097,"y":2562073.5800000001}},{"attributes":{"ID":263536,"DIS_CODE":0,"TOWNNAME":"東區","LI":"東明里","LIN":"22鄰","STREET":"怡東路","SECT":" ","MAREA":" ","LANE":" ","ALLEY":" ","HOUSE_NO":"５１號","E_COORD97":170815.51999999999,"N_COORD97":2543577.7000000002,"ADDRESS":"怡東路５１號","OBJECTID":263532},"geometry":{"x":170815.52000000048,"y":2543577.6999999974}},{"attributes":{"ID":263537,"DIS_CODE":0,"TOWNNAME":"永康區","LI":"崑山里","LIN":"20鄰","STREET":"國光一街","SECT":" ","MAREA":" ","LANE":" ","ALLEY":" ","HOUSE_NO":"３５號","E_COORD97":173892.41,"N_COORD97":2544604.3900000001,"ADDRESS":"國光一街３５號","OBJECTID":263533},"geometry":{"x":173892.41000000015,"y":2544604.3900000006}},{"attributes":{"ID":263538,"DIS_CODE":0,"TOWNNAME":"永康區","LI":"崑山里","LIN":"24鄰","STREET":"大仁街","SECT":" ","MAREA":" ","LANE":" ","ALLEY":" ","HOUSE_NO":"５８號","E_COORD97":173817.79999999999,"N_COORD97":2544691.5899999999,"ADDRESS":"大仁街５８號","OBJECTID":263534},"geometry":{"x":173817.80000000075,"y":2544691.5900000036}},{"attributes":{"ID":263539,"DIS_CODE":0,"TOWNNAME":"永康區","LI":"勝利里","LIN":"33鄰","STREET":"中華路","SECT":" ","MAREA":" ","LANE":" ","ALLEY":" ","HOUSE_NO":"１號之１６","E_COORD97":171501.95999999999,"N_COORD97":2544353.0499999998,"ADDRESS":"中華路１號之１６","OBJECTID":263535},"geometry":{"x":171501.95999999996,"y":2544353.0500000007}},{"attributes":{"ID":263540,"DIS_CODE":0,"TOWNNAME":"佳里區","LI":"建南里","LIN":"13鄰","STREET":"新生路","SECT":" ","MAREA":" ","LANE":"４４１巷","ALLEY":" ","HOUSE_NO":"２號","E_COORD97":165193.73000000001,"N_COORD97":2562138.2400000002,"ADDRESS":"新生路４４１巷２號","OBJECTID":263536},"geometry":{"x":165193.73000000138,"y":2562138.2400000021}},{"attributes":{"ID":263541,"DIS_CODE":0,"TOWNNAME":"佳里區","LI":"建南里","LIN":"13鄰","STREET":"新生路","SECT":" ","MAREA":" ","LANE":"４４１巷","ALLEY":" ","HOUSE_NO":"３０號","E_COORD97":165195.37,"N_COORD97":2562079.4100000001,"ADDRESS":"新生路４４１巷３０號","OBJECTID":263537},"geometry":{"x":165195.37000000104,"y":2562079.410000002}},{"attributes":{"ID":263542,"DIS_CODE":0,"TOWNNAME":"佳里區","LI":"建南里","LIN":"13鄰","STREET":"新生路","SECT":" ","MAREA":" ","LANE":"４４１巷","ALLEY":" ","HOUSE_NO":"３２號","E_COORD97":165200.89999999999,"N_COORD97":2562065.29,"ADDRESS":"新生路４４１巷３２號","OBJECTID":263538},"geometry":{"x":165200.9000000013,"y":2562065.290000001}},{"attributes":{"ID":263543,"DIS_CODE":0,"TOWNNAME":"佳里區","LI":"建南里","LIN":"13鄰","STREET":"新生路","SECT":" ","MAREA":" ","LANE":"４４１巷","ALLEY":" ","HOUSE_NO":"３４號","E_COORD97":165201.79999999999,"N_COORD97":2562056.9199999999,"ADDRESS":"新生路４４１巷３４號","OBJECTID":263539},"geometry":{"x":165201.79999999981,"y":2562056.9199999999}},{"attributes":{"ID":263544,"DIS_CODE":0,"TOWNNAME":"佳里區","LI":"建南里","LIN":"13鄰","STREET":"新生路","SECT":" ","MAREA":" ","LANE":"４４１巷","ALLEY":" ","HOUSE_NO":"３６號","E_COORD97":165205.60000000001,"N_COORD97":2562047.3500000001,"ADDRESS":"新生路４４１巷３６號","OBJECTID":263540},"geometry":{"x":165205.60000000056,"y":2562047.3499999996}},{"attributes":{"ID":263545,"DIS_CODE":0,"TOWNNAME":"佳里區","LI":"建南里","LIN":"13鄰","STREET":"新生路","SECT":" ","MAREA":" ","LANE":"４４１巷","ALLEY":" ","HOUSE_NO":"３８號","E_COORD97":165206.91,"N_COORD97":2562040.0699999998,"ADDRESS":"新生路４４１巷３８號","OBJECTID":263541},"geometry":{"x":165206.91000000201,"y":2562040.0700000003}},{"attributes":{"ID":263546,"DIS_CODE":0,"TOWNNAME":"佳里區","LI":"建南里","LIN":"13鄰","STREET":"新生路","SECT":" ","MAREA":" ","LANE":"４４１巷","ALLEY":" ","HOUSE_NO":"４０號","E_COORD97":165184.32999999999,"N_COORD97":2562064.27,"ADDRESS":"新生路４４１巷４０號","OBJECTID":263542},"geometry":{"x":165184.33000000101,"y":2562064.2699999996}},{"attributes":{"ID":263547,"DIS_CODE":0,"TOWNNAME":"佳里區","LI":"建南里","LIN":"13鄰","STREET":"新生路","SECT":" ","MAREA":" ","LANE":"４４１巷","ALLEY":" ","HOUSE_NO":"４２號","E_COORD97":165184.42000000001,"N_COORD97":2562060.3100000001,"ADDRESS":"新生路４４１巷４２號","OBJECTID":263543},"geometry":{"x":165184.42000000179,"y":2562060.3100000024}},{"attributes":{"ID":263548,"DIS_CODE":0,"TOWNNAME":"佳里區","LI":"建南里","LIN":"13鄰","STREET":"新生路","SECT":" ","MAREA":" ","LANE":"４４１巷","ALLEY":" ","HOUSE_NO":"４４號","E_COORD97":165184.73999999999,"N_COORD97":2562056.3399999999,"ADDRESS":"新生路４４１巷４４號","OBJECTID":263544},"geometry":{"x":165184.74000000115,"y":2562056.3400000017}},{"attributes":{"ID":263549,"DIS_CODE":0,"TOWNNAME":"佳里區","LI":"建南里","LIN":"13鄰","STREET":"新生路","SECT":" ","MAREA":" ","LANE":"４４１巷","ALLEY":" ","HOUSE_NO":"４６號","E_COORD97":165185.10000000001,"N_COORD97":2562052.4500000002,"ADDRESS":"新生路４４１巷４６號","OBJECTID":263545},"geometry":{"x":165185.10000000056,"y":2562052.4499999993}},{"attributes":{"ID":263550,"DIS_CODE":0,"TOWNNAME":"永康區","LI":"崑山里","LIN":"7鄰","STREET":"大灣路","SECT":" ","MAREA":" ","LANE":" ","ALLEY":" ","HOUSE_NO":"９２７號之１","E_COORD97":173518.98999999999,"N_COORD97":2544378.5699999998,"ADDRESS":"大灣路９２７號之１","OBJECTID":263546},"geometry":{"x":173518.99000000022,"y":2544378.5700000003}},{"attributes":{"ID":263551,"DIS_CODE":0,"TOWNNAME":"永康區","LI":"崑山里","LIN":"44鄰","STREET":"國光六街","SECT":" ","MAREA":" ","LANE":" ","ALLEY":" ","HOUSE_NO":"９３號","E_COORD97":174025.16,"N_COORD97":2545319.8999999999,"ADDRESS":"國光六街９３號","OBJECTID":263547},"geometry":{"x":174025.16000000201,"y":2545319.9000000004}},{"attributes":{"ID":263552,"DIS_CODE":0,"TOWNNAME":"永康區","LI":"大橋里","LIN":"22鄰","STREET":"大橋一街","SECT":" ","MAREA":" ","LANE":" ","ALLEY":" ","HOUSE_NO":"１６７號","E_COORD97":171101.82000000001,"N_COORD97":2546541.25,"ADDRESS":"大橋一街１６７號","OBJECTID":263548},"geometry":{"x":171101.82000000216,"y":2546541.25}},{"attributes":{"ID":263553,"DIS_CODE":0,"TOWNNAME":"永康區","LI":"大灣里","LIN":"22鄰","STREET":"民族路","SECT":" ","MAREA":" ","LANE":" ","ALLEY":" ","HOUSE_NO":"２９２號","E_COORD97":174983.73000000001,"N_COORD97":2545242.7400000002,"ADDRESS":"民族路２９２號","OBJECTID":263549},"geometry":{"x":174983.73000000045,"y":2545242.7400000002}},{"attributes":{"ID":263554,"DIS_CODE":0,"TOWNNAME":"永康區","LI":"大灣里","LIN":"22鄰","STREET":"中灣五街","SECT":" ","MAREA":" ","LANE":" ","ALLEY":" ","HOUSE_NO":"９號","E_COORD97":175059.78,"N_COORD97":2545211.3700000001,"ADDRESS":"中灣五街９號","OBJECTID":263550},"geometry":{"x":175059.78000000026,"y":2545211.370000001}},{"attributes":{"ID":263555,"DIS_CODE":0,"TOWNNAME":"佳里區","LI":"建南里","LIN":"13鄰","STREET":"新生路","SECT":" ","MAREA":" ","LANE":"４４１巷","ALLEY":" ","HOUSE_NO":"４８號","E_COORD97":165185.51000000001,"N_COORD97":2562048.5600000001,"ADDRESS":"新生路４４１巷４８號","OBJECTID":263551},"geometry":{"x":165185.51000000164,"y":2562048.5600000024}},{"attributes":{"ID":263556,"DIS_CODE":0,"TOWNNAME":"佳里區","LI":"建南里","LIN":"13鄰","STREET":"新生路","SECT":" ","MAREA":" ","LANE":"４４１巷","ALLEY":" ","HOUSE_NO":"４號","E_COORD97":165191.22,"N_COORD97":2562133.3100000001,"ADDRESS":"新生路４４１巷４號","OBJECTID":263552},"geometry":{"x":165191.22000000067,"y":2562133.3100000005}},{"attributes":{"ID":263557,"DIS_CODE":0,"TOWNNAME":"佳里區","LI":"建南里","LIN":"13鄰","STREET":"新生路","SECT":" ","MAREA":" ","LANE":"４４１巷","ALLEY":" ","HOUSE_NO":"５０號","E_COORD97":165186.04000000001,"N_COORD97":2562044.2200000002,"ADDRESS":"新生路４４１巷５０號","OBJECTID":263553},"geometry":{"x":165186.04000000097,"y":2562044.2200000025}},{"attributes":{"ID":263558,"DIS_CODE":0,"TOWNNAME":"佳里區","LI":"建南里","LIN":"13鄰","STREET":"新生路","SECT":" ","MAREA":" ","LANE":"４４１巷","ALLEY":" ","HOUSE_NO":"６０號","E_COORD97":165207.06,"N_COORD97":2561991.2200000002,"ADDRESS":"新生路４４１巷６０號","OBJECTID":263554},"geometry":{"x":165207.06000000052,"y":2561991.2200000007}},{"attributes":{"ID":263559,"DIS_CODE":0,"TOWNNAME":"佳里區","LI":"建南里","LIN":"13鄰","STREET":"新生路","SECT":" ","MAREA":" ","LANE":"４４１巷","ALLEY":" ","HOUSE_NO":"６２號","E_COORD97":165207.5,"N_COORD97":2561986.8100000001,"ADDRESS":"新生路４４１巷６２號","OBJECTID":263555},"geometry":{"x":165207.5,"y":2561986.8100000005}},{"attributes":{"ID":263560,"DIS_CODE":0,"TOWNNAME":"佳里區","LI":"建南里","LIN":"13鄰","STREET":"新生路","SECT":" ","MAREA":" ","LANE":"４４１巷","ALLEY":" ","HOUSE_NO":"６４號","E_COORD97":165207.82999999999,"N_COORD97":2561982.6499999999,"ADDRESS":"新生路４４１巷６４號","OBJECTID":263556},"geometry":{"x":165207.83000000101,"y":2561982.6500000041}},{"attributes":{"ID":263561,"DIS_CODE":0,"TOWNNAME":"佳里區","LI":"建南里","LIN":"13鄰","STREET":"新生路","SECT":" ","MAREA":" ","LANE":"４４１巷","ALLEY":" ","HOUSE_NO":"６６號","E_COORD97":165208.20000000001,"N_COORD97":2561978.29,"ADDRESS":"新生路４４１巷６６號","OBJECTID":263557},"geometry":{"x":165208.20000000205,"y":2561978.290000001}},{"attributes":{"ID":263562,"DIS_CODE":0,"TOWNNAME":"佳里區","LI":"建南里","LIN":"13鄰","STREET":"新生路","SECT":" ","MAREA":" ","LANE":"４４１巷","ALLEY":" ","HOUSE_NO":"６號","E_COORD97":165191.37,"N_COORD97":2562128.9500000002,"ADDRESS":"新生路４４１巷６號","OBJECTID":263558},"geometry":{"x":165191.37000000011,"y":2562128.9500000011}},{"attributes":{"ID":263563,"DIS_CODE":0,"TOWNNAME":"永康區","LI":"大灣里","LIN":"22鄰","STREET":"民族路","SECT":" ","MAREA":" ","LANE":" ","ALLEY":" ","HOUSE_NO":"２９４號","E_COORD97":174980.92000000001,"N_COORD97":2545245.9900000002,"ADDRESS":"民族路２９４號","OBJECTID":263559},"geometry":{"x":174980.92000000179,"y":2545245.9900000021}},{"attributes":{"ID":263564,"DIS_CODE":0,"TOWNNAME":"永康區","LI":"大灣里","LIN":"22鄰","STREET":"民族路","SECT":" ","MAREA":" ","LANE":" ","ALLEY":" ","HOUSE_NO":"３００號","E_COORD97":174972.12,"N_COORD97":2545254.7400000002,"ADDRESS":"民族路３００號","OBJECTID":263560},"geometry":{"x":174972.12000000104,"y":2545254.7400000021}},{"attributes":{"ID":263565,"DIS_CODE":0,"TOWNNAME":"永康區","LI":"大橋里","LIN":"22鄰","STREET":"大橋一街","SECT":" ","MAREA":" ","LANE":" ","ALLEY":" ","HOUSE_NO":"１４９號","E_COORD97":171056.73999999999,"N_COORD97":2546530.25,"ADDRESS":"大橋一街１４９號","OBJECTID":263561},"geometry":{"x":171056.74000000115,"y":2546530.25}},{"attributes":{"ID":263566,"DIS_CODE":0,"TOWNNAME":"永康區","LI":"大灣里","LIN":"22鄰","STREET":"民族路","SECT":" ","MAREA":" ","LANE":" ","ALLEY":" ","HOUSE_NO":"２６８號","E_COORD97":175014.70999999999,"N_COORD97":2545202.1899999999,"ADDRESS":"民族路２６８號","OBJECTID":263562},"geometry":{"x":175014.71000000183,"y":2545202.1900000032}},{"attributes":{"ID":263567,"DIS_CODE":0,"TOWNNAME":"永康區","LI":"崑山里","LIN":"31鄰","STREET":"國光二街","SECT":" ","MAREA":" ","LANE":" ","ALLEY":" ","HOUSE_NO":"１６號","E_COORD97":174040.10000000001,"N_COORD97":2544685.3500000001,"ADDRESS":"國光二街１６號","OBJECTID":263563},"geometry":{"x":174040.09999999963,"y":2544685.3499999996}},{"attributes":{"ID":263568,"DIS_CODE":0,"TOWNNAME":"中西區","LI":"開山里","LIN":"22鄰","STREET":"開山路","SECT":" ","MAREA":" ","LANE":" ","ALLEY":" ","HOUSE_NO":"２６７號之１","E_COORD97":169063.09,"N_COORD97":2542937.9100000001,"ADDRESS":"開山路２６７號之１","OBJECTID":263564},"geometry":{"x":169063.08999999985,"y":2542937.910000002}},{"attributes":{"ID":263569,"DIS_CODE":0,"TOWNNAME":"佳里區","LI":"建南里","LIN":"13鄰","STREET":"新生路","SECT":" ","MAREA":" ","LANE":"４４１巷","ALLEY":" ","HOUSE_NO":"７０號","E_COORD97":165196.32000000001,"N_COORD97":2561960.7400000002,"ADDRESS":"新生路４４１巷７０號","OBJECTID":263565},"geometry":{"x":165196.32000000123,"y":2561960.7400000002}},{"attributes":{"ID":263570,"DIS_CODE":0,"TOWNNAME":"佳里區","LI":"建南里","LIN":"13鄰","STREET":"新生路","SECT":" ","MAREA":" ","LANE":"４４１巷","ALLEY":" ","HOUSE_NO":"７２號","E_COORD97":165206.63,"N_COORD97":2561894.48,"ADDRESS":"新生路４４１巷７２號","OBJECTID":263566},"geometry":{"x":165206.62999999896,"y":2561894.4800000004}},{"attributes":{"ID":263571,"DIS_CODE":0,"TOWNNAME":"佳里區","LI":"建南里","LIN":"13鄰","STREET":"新生路","SECT":" ","MAREA":" ","LANE":"４４１巷","ALLEY":" ","HOUSE_NO":"７４號","E_COORD97":165201.91,"N_COORD97":2561893.8900000001,"ADDRESS":"新生路４４１巷７４號","OBJECTID":263567},"geometry":{"x":165201.91000000108,"y":2561893.8900000025}},{"attributes":{"ID":263572,"DIS_CODE":0,"TOWNNAME":"佳里區","LI":"建南里","LIN":"13鄰","STREET":"新生路","SECT":" ","MAREA":" ","LANE":"４４１巷","ALLEY":" ","HOUSE_NO":"７６號","E_COORD97":165197.01999999999,"N_COORD97":2561893.4300000002,"ADDRESS":"新生路４４１巷７６號","OBJECTID":263568},"geometry":{"x":165197.02000000142,"y":2561893.4299999997}},{"attributes":{"ID":263573,"DIS_CODE":0,"TOWNNAME":"佳里區","LI":"建南里","LIN":"13鄰","STREET":"新生路","SECT":" ","MAREA":" ","LANE":"４４１巷","ALLEY":" ","HOUSE_NO":"８０號","E_COORD97":165186.81,"N_COORD97":2561892.2599999998,"ADDRESS":"新生路４４１巷８０號","OBJECTID":263569},"geometry":{"x":165186.81000000052,"y":2561892.2599999998}},{"attributes":{"ID":263574,"DIS_CODE":0,"TOWNNAME":"佳里區","LI":"建南里","LIN":"13鄰","STREET":"新生路","SECT":" ","MAREA":" ","LANE":"４４１巷","ALLEY":" ","HOUSE_NO":"８２號","E_COORD97":165182.25,"N_COORD97":2561891.54,"ADDRESS":"新生路４４１巷８２號","OBJECTID":263570},"geometry":{"x":165182.25000000186,"y":2561891.540000001}},{"attributes":{"ID":263575,"DIS_CODE":0,"TOWNNAME":"佳里區","LI":"建南里","LIN":"13鄰","STREET":"新生路","SECT":" ","MAREA":" ","LANE":"４４１巷","ALLEY":" ","HOUSE_NO":"８４號","E_COORD97":165177.34,"N_COORD97":2561891.1200000001,"ADDRESS":"新生路４４１巷８４號","OBJECTID":263571},"geometry":{"x":165177.33999999985,"y":2561891.120000001}},{"attributes":{"ID":263576,"DIS_CODE":0,"TOWNNAME":"佳里區","LI":"建南里","LIN":"13鄰","STREET":"新生路","SECT":" ","MAREA":" ","LANE":"４４１巷","ALLEY":" ","HOUSE_NO":"８６號","E_COORD97":165172.29999999999,"N_COORD97":2561890.3900000001,"ADDRESS":"新生路４４１巷８６號","OBJECTID":263572},"geometry":{"x":165172.30000000075,"y":2561890.3900000025}},{"attributes":{"ID":263577,"DIS_CODE":0,"TOWNNAME":"永康區","LI":"成功里","LIN":"13鄰","STREET":"忠孝路","SECT":" ","MAREA":" ","LANE":"２０７巷","ALLEY":" ","HOUSE_NO":"３９號","E_COORD97":171953.17000000001,"N_COORD97":2544913.04,"ADDRESS":"忠孝路２０７巷３９號","OBJECTID":263573},"geometry":{"x":171953.16999999993,"y":2544913.0399999991}},{"attributes":{"ID":263578,"DIS_CODE":0,"TOWNNAME":"永康區","LI":"甲頂里","LIN":"13鄰","STREET":"大武街","SECT":" ","MAREA":" ","LANE":"１８巷","ALLEY":" ","HOUSE_NO":"２８號","E_COORD97":170359.48000000001,"N_COORD97":2546621.0899999999,"ADDRESS":"大武街１８巷２８號","OBJECTID":263574},"geometry":{"x":170359.48000000045,"y":2546621.0900000017}},{"attributes":{"ID":263579,"DIS_CODE":0,"TOWNNAME":"永康區","LI":"大灣里","LIN":"13鄰","STREET":"民族路","SECT":" ","MAREA":" ","LANE":"３４５巷","ALLEY":" ","HOUSE_NO":"１０號","E_COORD97":174968.75,"N_COORD97":2545171.7599999998,"ADDRESS":"民族路３４５巷１０號","OBJECTID":263575},"geometry":{"x":174968.75000000186,"y":2545171.7600000035}},{"attributes":{"ID":263580,"DIS_CODE":0,"TOWNNAME":"永康區","LI":"成功里","LIN":"13鄰","STREET":"忠孝路","SECT":" ","MAREA":" ","LANE":"２０７巷","ALLEY":" ","HOUSE_NO":"２７號","E_COORD97":172010.34,"N_COORD97":2544915.7599999998,"ADDRESS":"忠孝路２０７巷２７號","OBJECTID":263576},"geometry":{"x":172010.34000000078,"y":2544915.7599999998}},{"attributes":{"ID":263581,"DIS_CODE":0,"TOWNNAME":"永康區","LI":"大橋里","LIN":"13鄰","STREET":"大橋一街","SECT":" ","MAREA":" ","LANE":"２４７巷","ALLEY":" ","HOUSE_NO":"９９號","E_COORD97":171133.06,"N_COORD97":2546870.8100000001,"ADDRESS":"大橋一街２４７巷９９號","OBJECTID":263577},"geometry":{"x":171133.05999999959,"y":2546870.8100000042}},{"attributes":{"ID":263582,"DIS_CODE":0,"TOWNNAME":"永康區","LI":"王行里","LIN":"13鄰","STREET":"王行路","SECT":" ","MAREA":" ","LANE":"１０１８巷","ALLEY":" ","HOUSE_NO":"２５號","E_COORD97":175842.91,"N_COORD97":2550193.6400000001,"ADDRESS":"王行路１０１８巷２５號","OBJECTID":263578},"geometry":{"x":175842.91000000108,"y":2550193.6400000006}},{"attributes":{"ID":263583,"DIS_CODE":0,"TOWNNAME":"永康區","LI":"甲頂里","LIN":"13鄰","STREET":"正新街","SECT":" ","MAREA":" ","LANE":"１７巷","ALLEY":" ","HOUSE_NO":"１９號","E_COORD97":170355.48000000001,"N_COORD97":2546544.7599999998,"ADDRESS":"正新街１７巷１９號","OBJECTID":263579},"geometry":{"x":170355.48000000138,"y":2546544.7600000035}},{"attributes":{"ID":263584,"DIS_CODE":0,"TOWNNAME":"永康區","LI":"烏竹里","LIN":"13鄰","STREET":"龍橋街","SECT":" ","MAREA":" ","LANE":"３５０巷","ALLEY":" ","HOUSE_NO":"２３號","E_COORD97":174556.42000000001,"N_COORD97":2549136.9100000001,"ADDRESS":"龍橋街３５０巷２３號","OBJECTID":263580},"geometry":{"x":174556.41999999993,"y":2549136.9100000001}},{"attributes":{"ID":263585,"DIS_CODE":0,"TOWNNAME":"南區","LI":"明亮里","LIN":"13鄰","STREET":"金華路","SECT":"一段","MAREA":" ","LANE":"３５２巷","ALLEY":" ","HOUSE_NO":"１６５號","E_COORD97":167381.53,"N_COORD97":2540923.1200000001,"ADDRESS":"金華路一段３５２巷１６５號","OBJECTID":263581},"geometry":{"x":167381.53000000119,"y":2540923.1200000029}},{"attributes":{"ID":263586,"DIS_CODE":0,"TOWNNAME":"南區","LI":"明亮里","LIN":"13鄰","STREET":"金華路","SECT":"一段","MAREA":" ","LANE":"３５２巷","ALLEY":" ","HOUSE_NO":"１６７號","E_COORD97":167385.07999999999,"N_COORD97":2540920.9100000001,"ADDRESS":"金華路一段３５２巷１６７號","OBJECTID":263582},"geometry":{"x":167385.08000000007,"y":2540920.910000002}},{"attributes":{"ID":263587,"DIS_CODE":0,"TOWNNAME":"南區","LI":"明亮里","LIN":"13鄰","STREET":"金華路","SECT":"一段","MAREA":" ","LANE":"３５２巷","ALLEY":" ","HOUSE_NO":"１６９號","E_COORD97":167388.19,"N_COORD97":2540917.3599999999,"ADDRESS":"金華路一段３５２巷１６９號","OBJECTID":263583},"geometry":{"x":167388.19000000041,"y":2540917.3599999994}},{"attributes":{"ID":263588,"DIS_CODE":0,"TOWNNAME":"永康區","LI":"勝利里","LIN":"40鄰","STREET":"中華一路","SECT":" ","MAREA":" ","LANE":" ","ALLEY":" ","HOUSE_NO":"１６２號","E_COORD97":171550.04000000001,"N_COORD97":2544974.5,"ADDRESS":"中華一路１６２號","OBJECTID":263584},"geometry":{"x":171550.04000000097,"y":2544974.5000000019}},{"attributes":{"ID":263589,"DIS_CODE":0,"TOWNNAME":"永康區","LI":"崑山里","LIN":"22鄰","STREET":"國光二街","SECT":" ","MAREA":" ","LANE":" ","ALLEY":" ","HOUSE_NO":"３３號","E_COORD97":173996.29999999999,"N_COORD97":2544679.5,"ADDRESS":"國光二街３３號","OBJECTID":263585},"geometry":{"x":173996.29999999981,"y":2544679.5000000019}},{"attributes":{"ID":263590,"DIS_CODE":0,"TOWNNAME":"安南區","LI":"溪北里","LIN":"22鄰","STREET":"敦安街","SECT":" ","MAREA":" ","LANE":" ","ALLEY":" ","HOUSE_NO":"４７號","E_COORD97":169267.51000000001,"N_COORD97":2547535.5499999998,"ADDRESS":"敦安街４７號","OBJECTID":263586},"geometry":{"x":169267.51000000164,"y":2547535.5500000007}},{"attributes":{"ID":263591,"DIS_CODE":0,"TOWNNAME":"安南區","LI":"溪北里","LIN":"22鄰","STREET":"敦安街","SECT":" ","MAREA":" ","LANE":" ","ALLEY":" ","HOUSE_NO":"４９號","E_COORD97":169263.53,"N_COORD97":2547533.8700000001,"ADDRESS":"敦安街４９號","OBJECTID":263587},"geometry":{"x":169263.53000000119,"y":2547533.870000001}},{"attributes":{"ID":263592,"DIS_CODE":0,"TOWNNAME":"安南區","LI":"溪北里","LIN":"22鄰","STREET":"敦安街","SECT":" ","MAREA":" ","LANE":" ","ALLEY":" ","HOUSE_NO":"５３號","E_COORD97":169255.98000000001,"N_COORD97":2547530.73,"ADDRESS":"敦安街５３號","OBJECTID":263588},"geometry":{"x":169255.98000000045,"y":2547530.7300000004}},{"attributes":{"ID":263593,"DIS_CODE":0,"TOWNNAME":"南區","LI":"明亮里","LIN":"13鄰","STREET":"金華路","SECT":"一段","MAREA":" ","LANE":"３５２巷","ALLEY":" ","HOUSE_NO":"１７１號","E_COORD97":167391.73999999999,"N_COORD97":2540915.1400000001,"ADDRESS":"金華路一段３５２巷１７１號","OBJECTID":263589},"geometry":{"x":167391.74000000115,"y":2540915.1400000043}},{"attributes":{"ID":263594,"DIS_CODE":0,"TOWNNAME":"南區","LI":"明亮里","LIN":"13鄰","STREET":"金華路","SECT":"一段","MAREA":" ","LANE":"３５２巷","ALLEY":" ","HOUSE_NO":"１７３號","E_COORD97":167395.29000000001,"N_COORD97":2540912.04,"ADDRESS":"金華路一段３５２巷１７３號","OBJECTID":263590},"geometry":{"x":167395.29000000004,"y":2540912.040000001}},{"attributes":{"ID":263595,"DIS_CODE":0,"TOWNNAME":"南區","LI":"明亮里","LIN":"13鄰","STREET":"金華路","SECT":"一段","MAREA":" ","LANE":"３５２巷","ALLEY":" ","HOUSE_NO":"１７５號","E_COORD97":167398.85000000001,"N_COORD97":2540909.8199999998,"ADDRESS":"金華路一段３５２巷１７５號","OBJECTID":263591},"geometry":{"x":167398.85000000056,"y":2540909.8199999984}},{"attributes":{"ID":263596,"DIS_CODE":0,"TOWNNAME":"南區","LI":"明亮里","LIN":"13鄰","STREET":"金華路","SECT":"一段","MAREA":" ","LANE":"３５２巷","ALLEY":" ","HOUSE_NO":"１７７號","E_COORD97":167401.51000000001,"N_COORD97":2540908.4900000002,"ADDRESS":"金華路一段３５２巷１７７號","OBJECTID":263592},"geometry":{"x":167401.51000000071,"y":2540908.4900000002}},{"attributes":{"ID":263597,"DIS_CODE":0,"TOWNNAME":"南區","LI":"明亮里","LIN":"13鄰","STREET":"金華路","SECT":"一段","MAREA":" ","LANE":"３５２巷","ALLEY":" ","HOUSE_NO":"１７９號","E_COORD97":167404.17000000001,"N_COORD97":2540905.3900000001,"ADDRESS":"金華路一段３５２巷１７９號","OBJECTID":263593},"geometry":{"x":167404.17000000086,"y":2540905.3900000006}},{"attributes":{"ID":263598,"DIS_CODE":0,"TOWNNAME":"南區","LI":"明亮里","LIN":"13鄰","STREET":"金華路","SECT":"一段","MAREA":" ","LANE":"３５２巷","ALLEY":" ","HOUSE_NO":"１８１號","E_COORD97":167407.72,"N_COORD97":2540903.6099999999,"ADDRESS":"金華路一段３５２巷１８１號","OBJECTID":263594},"geometry":{"x":167407.71999999974,"y":2540903.6100000031}},{"attributes":{"ID":263599,"DIS_CODE":0,"TOWNNAME":"南區","LI":"明亮里","LIN":"13鄰","STREET":"金華路","SECT":"一段","MAREA":" ","LANE":"３５２巷","ALLEY":" ","HOUSE_NO":"１８３號","E_COORD97":167411.28,"N_COORD97":2540901.3999999999,"ADDRESS":"金華路一段３５２巷１８３號","OBJECTID":263595},"geometry":{"x":167411.28000000026,"y":2540901.4000000004}},{"attributes":{"ID":263600,"DIS_CODE":0,"TOWNNAME":"東區","LI":"虎尾里","LIN":"13鄰","STREET":"東成街","SECT":" ","MAREA":" ","LANE":"１３１巷","ALLEY":" ","HOUSE_NO":"１號","E_COORD97":171680.60000000001,"N_COORD97":2542340.2999999998,"ADDRESS":"東成街１３１巷１號","OBJECTID":263596},"geometry":{"x":171680.60000000149,"y":2542340.3000000007}},{"attributes":{"ID":263601,"DIS_CODE":0,"TOWNNAME":"新市區","LI":"港墘里","LIN":"13鄰","STREET":"中山路","SECT":" ","MAREA":" ","LANE":"７８巷","ALLEY":" ","HOUSE_NO":"３號","E_COORD97":178386.23000000001,"N_COORD97":2552846.75,"ADDRESS":"中山路７８巷３號","OBJECTID":263597},"geometry":{"x":178386.23000000045,"y":2552846.75}},{"attributes":{"ID":263602,"DIS_CODE":0,"TOWNNAME":"中西區","LI":"仙草里","LIN":"13鄰","STREET":"南寧街","SECT":" ","MAREA":" ","LANE":"８３巷","ALLEY":" ","HOUSE_NO":"１５號","E_COORD97":167825.29000000001,"N_COORD97":2542779.8799999999,"ADDRESS":"南寧街８３巷１５號","OBJECTID":263598},"geometry":{"x":167825.29000000097,"y":2542779.8800000027}},{"attributes":{"ID":263603,"DIS_CODE":0,"TOWNNAME":"中西區","LI":"仙草里","LIN":"13鄰","STREET":"南寧街","SECT":" ","MAREA":" ","LANE":"８３巷","ALLEY":" ","HOUSE_NO":"１７號","E_COORD97":167826.51000000001,"N_COORD97":2542774.6800000002,"ADDRESS":"南寧街８３巷１７號","OBJECTID":263599},"geometry":{"x":167826.51000000164,"y":2542774.6799999997}},{"attributes":{"ID":263604,"DIS_CODE":0,"TOWNNAME":"中西區","LI":"仙草里","LIN":"13鄰","STREET":"南寧街","SECT":" ","MAREA":" ","LANE":"８３巷","ALLEY":" ","HOUSE_NO":"１８號","E_COORD97":167797,"N_COORD97":2542806.8999999999,"ADDRESS":"南寧街８３巷１８號","OBJECTID":263600},"geometry":{"x":167797.00000000093,"y":2542806.9000000004}}]}