{"displayFieldName":"TOWNNAME","fieldAliases":{"ID":"ID","DIS_CODE":"DIS_CODE","TOWNNAME":"TOWNNAME","LI":"LI","LIN":"LIN","STREET":"STREET","SECT":"SECT","MAREA":"MAREA","LANE":"LANE","ALLEY":"ALLEY","HOUSE_NO":"HOUSE_NO","E_COORD97":"E_COORD97","N_COORD97":"N_COORD97","ADDRESS":"ADDRESS","OBJECTID":"OBJECTID"},"geometryType":"esriGeometryPoint","spatialReference":{"wkid":102443,"latestWkid":3826},"fields":[{"name":"ID","type":"esriFieldTypeDouble","alias":"ID"},{"name":"DIS_CODE","type":"esriFieldTypeInteger","alias":"DIS_CODE"},{"name":"TOWNNAME","type":"esriFieldTypeString","alias":"TOWNNAME","length":8},{"name":"LI","type":"esriFieldTypeString","alias":"LI","length":8},{"name":"LIN","type":"esriFieldTypeString","alias":"LIN","length":12},{"name":"STREET","type":"esriFieldTypeString","alias":"STREET","length":20},{"name":"SECT","type":"esriFieldTypeString","alias":"SECT","length":8},{"name":"MAREA","type":"esriFieldTypeString","alias":"MAREA","length":12},{"name":"LANE","type":"esriFieldTypeString","alias":"LANE","length":10},{"name":"ALLEY","type":"esriFieldTypeString","alias":"ALLEY","length":10},{"name":"HOUSE_NO","type":"esriFieldTypeString","alias":"HOUSE_NO","length":20},{"name":"E_COORD97","type":"esriFieldTypeDouble","alias":"E_COORD97"},{"name":"N_COORD97","type":"esriFieldTypeDouble","alias":"N_COORD97"},{"name":"ADDRESS","type":"esriFieldTypeString","alias":"ADDRESS","length":50},{"name":"OBJECTID","type":"esriFieldTypeOID","alias":"OBJECTID"}],"features":[{"attributes":{"ID":603228,"DIS_CODE":0,"TOWNNAME":"中西區","LI":"三民里","LIN":"22鄰","STREET":"民族路","SECT":"二段","MAREA":" ","LANE":" ","ALLEY":" ","HOUSE_NO":"２１３號","E_COORD97":168529.42999999999,"N_COORD97":2544033.3100000001,"ADDRESS":"民族路二段２１３號","OBJECTID":603201},"geometry":{"x":168529.43000000063,"y":2544033.3100000024}},{"attributes":{"ID":603229,"DIS_CODE":0,"TOWNNAME":"中西區","LI":"三民里","LIN":"22鄰","STREET":"民族路","SECT":"二段","MAREA":" ","LANE":" ","ALLEY":" ","HOUSE_NO":"２１５號","E_COORD97":168524.92999999999,"N_COORD97":2544034.9700000002,"ADDRESS":"民族路二段２１５號","OBJECTID":603202},"geometry":{"x":168524.9299999997,"y":2544034.9700000007}},{"attributes":{"ID":603230,"DIS_CODE":0,"TOWNNAME":"中西區","LI":"三民里","LIN":"22鄰","STREET":"民族路","SECT":"二段","MAREA":" ","LANE":" ","ALLEY":" ","HOUSE_NO":"２１７號","E_COORD97":168518.53,"N_COORD97":2544037.8100000001,"ADDRESS":"民族路二段２１７號","OBJECTID":603203},"geometry":{"x":168518.53000000212,"y":2544037.8100000024}},{"attributes":{"ID":603231,"DIS_CODE":0,"TOWNNAME":"中西區","LI":"三民里","LIN":"22鄰","STREET":"民族路","SECT":"二段","MAREA":" ","LANE":" ","ALLEY":" ","HOUSE_NO":"２１９號","E_COORD97":168510.48000000001,"N_COORD97":2544040.6400000001,"ADDRESS":"民族路二段２１９號","OBJECTID":603204},"geometry":{"x":168510.47999999952,"y":2544040.6399999987}},{"attributes":{"ID":603232,"DIS_CODE":0,"TOWNNAME":"中西區","LI":"三民里","LIN":"22鄰","STREET":"民族路","SECT":"二段","MAREA":" ","LANE":" ","ALLEY":" ","HOUSE_NO":"２２１號","E_COORD97":168503.85000000001,"N_COORD97":2544041.5899999999,"ADDRESS":"民族路二段２２１號","OBJECTID":603205},"geometry":{"x":168503.85000000149,"y":2544041.5900000017}},{"attributes":{"ID":603233,"DIS_CODE":0,"TOWNNAME":"中西區","LI":"三民里","LIN":"22鄰","STREET":"民族路","SECT":"二段","MAREA":" ","LANE":" ","ALLEY":" ","HOUSE_NO":"２２３號","E_COORD97":168499.10999999999,"N_COORD97":2544043.7200000002,"ADDRESS":"民族路二段２２３號","OBJECTID":603206},"geometry":{"x":168499.11000000034,"y":2544043.7200000044}},{"attributes":{"ID":603234,"DIS_CODE":0,"TOWNNAME":"永康區","LI":"崑山里","LIN":"48鄰","STREET":"永華路","SECT":" ","MAREA":" ","LANE":" ","ALLEY":" ","HOUSE_NO":"５０號","E_COORD97":174092.79999999999,"N_COORD97":2545263.4500000002,"ADDRESS":"永華路５０號","OBJECTID":603207},"geometry":{"x":174092.79999999981,"y":2545263.4499999993}},{"attributes":{"ID":603235,"DIS_CODE":0,"TOWNNAME":"永康區","LI":"崑山里","LIN":"19鄰","STREET":"崑山街","SECT":" ","MAREA":" ","LANE":" ","ALLEY":" ","HOUSE_NO":"１４號","E_COORD97":173950.60000000001,"N_COORD97":2544561.6299999999,"ADDRESS":"崑山街１４號","OBJECTID":603208},"geometry":{"x":173950.60000000056,"y":2544561.6300000008}},{"attributes":{"ID":603236,"DIS_CODE":0,"TOWNNAME":"中西區","LI":"三民里","LIN":"22鄰","STREET":"民族路","SECT":"二段","MAREA":" ","LANE":" ","ALLEY":" ","HOUSE_NO":"２２５號","E_COORD97":168492.95999999999,"N_COORD97":2544041.3500000001,"ADDRESS":"民族路二段２２５號","OBJECTID":603209},"geometry":{"x":168492.95999999996,"y":2544041.3499999996}},{"attributes":{"ID":603237,"DIS_CODE":0,"TOWNNAME":"中西區","LI":"三民里","LIN":"22鄰","STREET":"民族路","SECT":"二段","MAREA":" ","LANE":" ","ALLEY":" ","HOUSE_NO":"２２７號","E_COORD97":168489.64000000001,"N_COORD97":2544044.1899999999,"ADDRESS":"民族路二段２２７號","OBJECTID":603210},"geometry":{"x":168489.63999999966,"y":2544044.1900000013}},{"attributes":{"ID":603238,"DIS_CODE":0,"TOWNNAME":"中西區","LI":"三民里","LIN":"22鄰","STREET":"民族路","SECT":"二段","MAREA":" ","LANE":" ","ALLEY":" ","HOUSE_NO":"２２９號","E_COORD97":168485.62,"N_COORD97":2544046.5600000001,"ADDRESS":"民族路二段２２９號","OBJECTID":603211},"geometry":{"x":168485.62000000197,"y":2544046.5600000005}},{"attributes":{"ID":603239,"DIS_CODE":0,"TOWNNAME":"中西區","LI":"三民里","LIN":"22鄰","STREET":"民族路","SECT":"二段","MAREA":" ","LANE":" ","ALLEY":" ","HOUSE_NO":"２３１號","E_COORD97":168482.76999999999,"N_COORD97":2544048.4500000002,"ADDRESS":"民族路二段２３１號","OBJECTID":603212},"geometry":{"x":168482.77000000048,"y":2544048.4500000011}},{"attributes":{"ID":603240,"DIS_CODE":0,"TOWNNAME":"東區","LI":"虎尾里","LIN":"22鄰","STREET":"東成街","SECT":" ","MAREA":" ","LANE":" ","ALLEY":" ","HOUSE_NO":"１７８號","E_COORD97":171745.07000000001,"N_COORD97":2542294.9399999999,"ADDRESS":"東成街１７８號","OBJECTID":603213},"geometry":{"x":171745.07000000123,"y":2542294.9400000032}},{"attributes":{"ID":603241,"DIS_CODE":0,"TOWNNAME":"東區","LI":"虎尾里","LIN":"22鄰","STREET":"東成街","SECT":" ","MAREA":" ","LANE":" ","ALLEY":" ","HOUSE_NO":"１８０號","E_COORD97":171752.01000000001,"N_COORD97":2542295.0299999998,"ADDRESS":"東成街１８０號","OBJECTID":603214},"geometry":{"x":171752.00999999978,"y":2542295.0300000012}},{"attributes":{"ID":603242,"DIS_CODE":0,"TOWNNAME":"永康區","LI":"崑山里","LIN":"22鄰","STREET":"國光二街","SECT":" ","MAREA":" ","LANE":" ","ALLEY":" ","HOUSE_NO":"２３號","E_COORD97":174017.14999999999,"N_COORD97":2544671.96,"ADDRESS":"國光二街２３號","OBJECTID":603215},"geometry":{"x":174017.1500000013,"y":2544671.9600000009}},{"attributes":{"ID":603243,"DIS_CODE":0,"TOWNNAME":"永康區","LI":"埔園里","LIN":"25鄰","STREET":"埔東街","SECT":" ","MAREA":" ","LANE":" ","ALLEY":" ","HOUSE_NO":"４１號","E_COORD97":173767.34,"N_COORD97":2548134.2400000002,"ADDRESS":"埔東街４１號","OBJECTID":603216},"geometry":{"x":173767.33999999985,"y":2548134.2400000002}},{"attributes":{"ID":603244,"DIS_CODE":0,"TOWNNAME":"永康區","LI":"埔園里","LIN":"39鄰","STREET":"聖龍街","SECT":" ","MAREA":" ","LANE":" ","ALLEY":" ","HOUSE_NO":"１６３號","E_COORD97":174267.19,"N_COORD97":2547863.2999999998,"ADDRESS":"聖龍街１６３號","OBJECTID":603217},"geometry":{"x":174267.19000000041,"y":2547863.3000000007}},{"attributes":{"ID":603245,"DIS_CODE":0,"TOWNNAME":"永康區","LI":"\u25A0洲里","LIN":"22鄰","STREET":"中正南路","SECT":" ","MAREA":" ","LANE":" ","ALLEY":" ","HOUSE_NO":"６８３號","E_COORD97":171479.89999999999,"N_COORD97":2548771.4900000002,"ADDRESS":"中正南路６８３號","OBJECTID":603218},"geometry":{"x":171479.9000000013,"y":2548771.4900000021}},{"attributes":{"ID":603246,"DIS_CODE":0,"TOWNNAME":"中西區","LI":"法華里","LIN":"22鄰","STREET":"健康路","SECT":"一段","MAREA":" ","LANE":" ","ALLEY":" ","HOUSE_NO":"１７２號","E_COORD97":168689.03,"N_COORD97":2542451.6600000001,"ADDRESS":"健康路一段１７２號","OBJECTID":603219},"geometry":{"x":168689.03000000026,"y":2542451.660000002}},{"attributes":{"ID":603247,"DIS_CODE":0,"TOWNNAME":"中西區","LI":"法華里","LIN":"22鄰","STREET":"健康路","SECT":"一段","MAREA":" ","LANE":" ","ALLEY":" ","HOUSE_NO":"１７４號","E_COORD97":168682.07999999999,"N_COORD97":2542453.6400000001,"ADDRESS":"健康路一段１７４號","OBJECTID":603220},"geometry":{"x":168682.08000000007,"y":2542453.6400000006}},{"attributes":{"ID":603248,"DIS_CODE":0,"TOWNNAME":"安南區","LI":"溪北里","LIN":"22鄰","STREET":"敦安街","SECT":" ","MAREA":" ","LANE":" ","ALLEY":" ","HOUSE_NO":"８６號","E_COORD97":169171.42999999999,"N_COORD97":2547553.8500000001,"ADDRESS":"敦安街８６號","OBJECTID":603221},"geometry":{"x":169171.43000000063,"y":2547553.8499999996}},{"attributes":{"ID":603249,"DIS_CODE":0,"TOWNNAME":"永康區","LI":"中華里","LIN":"22鄰","STREET":"華興街","SECT":" ","MAREA":" ","LANE":" ","ALLEY":" ","HOUSE_NO":"９２號","E_COORD97":171851.04000000001,"N_COORD97":2544581.7999999998,"ADDRESS":"華興街９２號","OBJECTID":603222},"geometry":{"x":171851.0400000019,"y":2544581.8000000007}},{"attributes":{"ID":603250,"DIS_CODE":0,"TOWNNAME":"永康區","LI":"中華里","LIN":"22鄰","STREET":"忠勇街","SECT":" ","MAREA":" ","LANE":" ","ALLEY":" ","HOUSE_NO":"５５號","E_COORD97":171878.76000000001,"N_COORD97":2544598.8399999999,"ADDRESS":"忠勇街５５號","OBJECTID":603223},"geometry":{"x":171878.76000000071,"y":2544598.8400000017}},{"attributes":{"ID":603251,"DIS_CODE":0,"TOWNNAME":"永康區","LI":"大灣里","LIN":"22鄰","STREET":"大灣路","SECT":" ","MAREA":" ","LANE":" ","ALLEY":" ","HOUSE_NO":"２１９號","E_COORD97":174967.85000000001,"N_COORD97":2545297.0699999998,"ADDRESS":"大灣路２１９號","OBJECTID":603224},"geometry":{"x":174967.85000000056,"y":2545297.0700000022}},{"attributes":{"ID":603252,"DIS_CODE":0,"TOWNNAME":"仁德區","LI":"仁義里","LIN":"22鄰","STREET":"中山路","SECT":" ","MAREA":" ","LANE":" ","ALLEY":" ","HOUSE_NO":"４０６號","E_COORD97":173768.51000000001,"N_COORD97":2541286.7400000002,"ADDRESS":"中山路４０６號","OBJECTID":603225},"geometry":{"x":173768.51000000071,"y":2541286.7400000039}},{"attributes":{"ID":603253,"DIS_CODE":0,"TOWNNAME":"安南區","LI":"鳳凰里","LIN":"22鄰","STREET":"安中路","SECT":"一段","MAREA":" ","LANE":" ","ALLEY":" ","HOUSE_NO":"８２０號","E_COORD97":167469.92999999999,"N_COORD97":2549347.3500000001,"ADDRESS":"安中路一段８２０號","OBJECTID":603226},"geometry":{"x":167469.93000000063,"y":2549347.3499999996}},{"attributes":{"ID":603254,"DIS_CODE":0,"TOWNNAME":"安南區","LI":"鳳凰里","LIN":"22鄰","STREET":"安中路","SECT":"一段","MAREA":" ","LANE":" ","ALLEY":" ","HOUSE_NO":"８２２號","E_COORD97":167466.73999999999,"N_COORD97":2549349.71,"ADDRESS":"安中路一段８２２號","OBJECTID":603227},"geometry":{"x":167466.74000000115,"y":2549349.7100000009}},{"attributes":{"ID":603255,"DIS_CODE":0,"TOWNNAME":"安南區","LI":"鳳凰里","LIN":"22鄰","STREET":"安中路","SECT":"一段","MAREA":" ","LANE":" ","ALLEY":" ","HOUSE_NO":"８２６號","E_COORD97":167460.97,"N_COORD97":2549353.4199999999,"ADDRESS":"安中路一段８２６號","OBJECTID":603228},"geometry":{"x":167460.97000000067,"y":2549353.4199999999}},{"attributes":{"ID":603256,"DIS_CODE":0,"TOWNNAME":"安南區","LI":"鳳凰里","LIN":"22鄰","STREET":"安中路","SECT":"一段","MAREA":" ","LANE":" ","ALLEY":" ","HOUSE_NO":"８３０號","E_COORD97":167450.39999999999,"N_COORD97":2549359.6699999999,"ADDRESS":"安中路一段８３０號","OBJECTID":603229},"geometry":{"x":167450.4000000013,"y":2549359.6700000037}},{"attributes":{"ID":603257,"DIS_CODE":0,"TOWNNAME":"安南區","LI":"鳳凰里","LIN":"22鄰","STREET":"安中路","SECT":"一段","MAREA":" ","LANE":" ","ALLEY":" ","HOUSE_NO":"８３２號","E_COORD97":167447.62,"N_COORD97":2549361.8300000001,"ADDRESS":"安中路一段８３２號","OBJECTID":603230},"geometry":{"x":167447.62000000011,"y":2549361.8300000038}},{"attributes":{"ID":603258,"DIS_CODE":0,"TOWNNAME":"安南區","LI":"鳳凰里","LIN":"22鄰","STREET":"安中路","SECT":"一段","MAREA":" ","LANE":" ","ALLEY":" ","HOUSE_NO":"８３８號","E_COORD97":167439.07000000001,"N_COORD97":2549367.5899999999,"ADDRESS":"安中路一段８３８號","OBJECTID":603231},"geometry":{"x":167439.07000000123,"y":2549367.5900000017}},{"attributes":{"ID":603259,"DIS_CODE":0,"TOWNNAME":"安南區","LI":"鳳凰里","LIN":"22鄰","STREET":"安中路","SECT":"一段","MAREA":" ","LANE":" ","ALLEY":" ","HOUSE_NO":"８４０號（守衛室）","E_COORD97":167440.67999999999,"N_COORD97":2549389.8999999999,"ADDRESS":"安中路一段８４０號（守衛室）","OBJECTID":603232},"geometry":{"x":167440.68000000063,"y":2549389.9000000022}},{"attributes":{"ID":603260,"DIS_CODE":0,"TOWNNAME":"永康區","LI":"烏竹里","LIN":"9鄰","STREET":"龍橋街","SECT":" ","MAREA":" ","LANE":" ","ALLEY":" ","HOUSE_NO":"３８６號","E_COORD97":174478.76999999999,"N_COORD97":2549146.8500000001,"ADDRESS":"龍橋街３８６號","OBJECTID":603233},"geometry":{"x":174478.77000000048,"y":2549146.8499999996}},{"attributes":{"ID":603261,"DIS_CODE":0,"TOWNNAME":"永康區","LI":"埔園里","LIN":"23鄰","STREET":"四維街","SECT":" ","MAREA":" ","LANE":" ","ALLEY":" ","HOUSE_NO":"１６號","E_COORD97":173453.20999999999,"N_COORD97":2547957.5699999998,"ADDRESS":"四維街１６號","OBJECTID":603234},"geometry":{"x":173453.20999999996,"y":2547957.5700000022}},{"attributes":{"ID":603262,"DIS_CODE":0,"TOWNNAME":"安南區","LI":"溪北里","LIN":"22鄰","STREET":"敦安街","SECT":" ","MAREA":" ","LANE":" ","ALLEY":" ","HOUSE_NO":"５７號","E_COORD97":169245.92000000001,"N_COORD97":2547529.0600000001,"ADDRESS":"敦安街５７號","OBJECTID":603235},"geometry":{"x":169245.91999999993,"y":2547529.0600000005}},{"attributes":{"ID":603263,"DIS_CODE":0,"TOWNNAME":"安南區","LI":"鳳凰里","LIN":"22鄰","STREET":"安中路","SECT":"一段","MAREA":" ","LANE":" ","ALLEY":" ","HOUSE_NO":"８５０號","E_COORD97":167421.70999999999,"N_COORD97":2549378.04,"ADDRESS":"安中路一段８５０號","OBJECTID":603236},"geometry":{"x":167421.70999999996,"y":2549378.040000001}},{"attributes":{"ID":603264,"DIS_CODE":0,"TOWNNAME":"安南區","LI":"溪北里","LIN":"22鄰","STREET":"敦安街","SECT":" ","MAREA":" ","LANE":" ","ALLEY":" ","HOUSE_NO":"８５號","E_COORD97":169180.64999999999,"N_COORD97":2547528.25,"ADDRESS":"敦安街８５號","OBJECTID":603237},"geometry":{"x":169180.65000000224,"y":2547528.2500000037}},{"attributes":{"ID":603265,"DIS_CODE":0,"TOWNNAME":"安南區","LI":"鳳凰里","LIN":"22鄰","STREET":"安中路","SECT":"一段","MAREA":" ","LANE":" ","ALLEY":" ","HOUSE_NO":"８４８號","E_COORD97":167426.14999999999,"N_COORD97":2549375.77,"ADDRESS":"安中路一段８４８號","OBJECTID":603238},"geometry":{"x":167426.15000000224,"y":2549375.7700000014}},{"attributes":{"ID":603266,"DIS_CODE":0,"TOWNNAME":"安南區","LI":"溪北里","LIN":"22鄰","STREET":"敦安街","SECT":" ","MAREA":" ","LANE":" ","ALLEY":" ","HOUSE_NO":"６７號","E_COORD97":169220.10000000001,"N_COORD97":2547528.25,"ADDRESS":"敦安街６７號","OBJECTID":603239},"geometry":{"x":169220.09999999963,"y":2547528.2500000037}},{"attributes":{"ID":603267,"DIS_CODE":0,"TOWNNAME":"東區","LI":"中西里","LIN":"22鄰","STREET":"長榮路","SECT":"二段","MAREA":" ","LANE":" ","ALLEY":" ","HOUSE_NO":"１０６號","E_COORD97":170014.82000000001,"N_COORD97":2543281.4900000002,"ADDRESS":"長榮路二段１０６號","OBJECTID":603240},"geometry":{"x":170014.8200000003,"y":2543281.4900000002}},{"attributes":{"ID":603268,"DIS_CODE":0,"TOWNNAME":"東區","LI":"東安里","LIN":"22鄰","STREET":"東門路","SECT":"二段","MAREA":" ","LANE":" ","ALLEY":" ","HOUSE_NO":"１３１號","E_COORD97":170253,"N_COORD97":2542912.1899999999,"ADDRESS":"東門路二段１３１號","OBJECTID":603241},"geometry":{"x":170253.00000000093,"y":2542912.1899999995}},{"attributes":{"ID":603269,"DIS_CODE":0,"TOWNNAME":"東區","LI":"東安里","LIN":"22鄰","STREET":"衛國街","SECT":" ","MAREA":" ","LANE":" ","ALLEY":" ","HOUSE_NO":"８號之１","E_COORD97":170241.98000000001,"N_COORD97":2542958.7799999998,"ADDRESS":"衛國街８號之１","OBJECTID":603242},"geometry":{"x":170241.98000000138,"y":2542958.7799999993}},{"attributes":{"ID":603270,"DIS_CODE":0,"TOWNNAME":"東區","LI":"東安里","LIN":"22鄰","STREET":"衛國街","SECT":" ","MAREA":" ","LANE":" ","ALLEY":" ","HOUSE_NO":"８號之２","E_COORD97":170242.45000000001,"N_COORD97":2542962.3900000001,"ADDRESS":"衛國街８號之２","OBJECTID":603243},"geometry":{"x":170242.45000000019,"y":2542962.3900000025}},{"attributes":{"ID":603271,"DIS_CODE":0,"TOWNNAME":"善化區","LI":"光文里","LIN":"22鄰","STREET":"光華路","SECT":" ","MAREA":" ","LANE":" ","ALLEY":" ","HOUSE_NO":"１９號","E_COORD97":178635.37,"N_COORD97":2559259.5,"ADDRESS":"光華路１９號","OBJECTID":603244},"geometry":{"x":178635.37000000104,"y":2559259.5}},{"attributes":{"ID":603272,"DIS_CODE":0,"TOWNNAME":"東區","LI":"莊敬里","LIN":"22鄰","STREET":"莊敬路","SECT":" ","MAREA":" ","LANE":" ","ALLEY":" ","HOUSE_NO":"１１８號地下層","E_COORD97":171388.28,"N_COORD97":2544007.0699999998,"ADDRESS":"莊敬路１１８號地下層","OBJECTID":603245},"geometry":{"x":171388.28000000026,"y":2544007.070000004}},{"attributes":{"ID":603273,"DIS_CODE":0,"TOWNNAME":"中西區","LI":"法華里","LIN":"22鄰","STREET":"健康路","SECT":"一段","MAREA":" ","LANE":" ","ALLEY":" ","HOUSE_NO":"１８２號","E_COORD97":168633.41,"N_COORD97":2542451.9900000002,"ADDRESS":"健康路一段１８２號","OBJECTID":603246},"geometry":{"x":168633.41000000108,"y":2542451.9900000021}},{"attributes":{"ID":603274,"DIS_CODE":0,"TOWNNAME":"中西區","LI":"法華里","LIN":"22鄰","STREET":"健康路","SECT":"一段","MAREA":" ","LANE":" ","ALLEY":" ","HOUSE_NO":"２０２號","E_COORD97":168605.92999999999,"N_COORD97":2542455.96,"ADDRESS":"健康路一段２０２號","OBJECTID":603247},"geometry":{"x":168605.9299999997,"y":2542455.9600000046}},{"attributes":{"ID":603275,"DIS_CODE":0,"TOWNNAME":"中西區","LI":"法華里","LIN":"22鄰","STREET":"健康路","SECT":"一段","MAREA":" ","LANE":" ","ALLEY":" ","HOUSE_NO":"２０４號","E_COORD97":168601.29000000001,"N_COORD97":2542454.2999999998,"ADDRESS":"健康路一段２０４號","OBJECTID":603248},"geometry":{"x":168601.2900000019,"y":2542454.3000000026}},{"attributes":{"ID":603276,"DIS_CODE":0,"TOWNNAME":"中西區","LI":"法華里","LIN":"22鄰","STREET":"健康路","SECT":"一段","MAREA":" ","LANE":" ","ALLEY":" ","HOUSE_NO":"２０６號","E_COORD97":168597.32000000001,"N_COORD97":2542456.29,"ADDRESS":"健康路一段２０６號","OBJECTID":603249},"geometry":{"x":168597.3200000003,"y":2542456.290000001}},{"attributes":{"ID":603277,"DIS_CODE":0,"TOWNNAME":"中西區","LI":"法華里","LIN":"22鄰","STREET":"健康路","SECT":"一段","MAREA":" ","LANE":" ","ALLEY":" ","HOUSE_NO":"２０８號","E_COORD97":168592.67999999999,"N_COORD97":2542454.6299999999,"ADDRESS":"健康路一段２０８號","OBJECTID":603250},"geometry":{"x":168592.6799999997,"y":2542454.629999999}},{"attributes":{"ID":603278,"DIS_CODE":0,"TOWNNAME":"中西區","LI":"法華里","LIN":"22鄰","STREET":"健康路","SECT":"一段","MAREA":" ","LANE":" ","ALLEY":" ","HOUSE_NO":"２１０號","E_COORD97":168588.70999999999,"N_COORD97":2542457.6099999999,"ADDRESS":"健康路一段２１０號","OBJECTID":603251},"geometry":{"x":168588.71000000089,"y":2542457.6100000013}},{"attributes":{"ID":603279,"DIS_CODE":0,"TOWNNAME":"仁德區","LI":"成功里","LIN":"22鄰","STREET":"成功二街","SECT":" ","MAREA":" ","LANE":" ","ALLEY":" ","HOUSE_NO":"１９６號","E_COORD97":170888.92999999999,"N_COORD97":2539616.02,"ADDRESS":"成功二街１９６號","OBJECTID":603252},"geometry":{"x":170888.93000000063,"y":2539616.0200000033}},{"attributes":{"ID":603280,"DIS_CODE":0,"TOWNNAME":"永康區","LI":"崑山里","LIN":"22鄰","STREET":"國光一街","SECT":" ","MAREA":" ","LANE":" ","ALLEY":" ","HOUSE_NO":"２４號","E_COORD97":173982.67000000001,"N_COORD97":2544596.1899999999,"ADDRESS":"國光一街２４號","OBJECTID":603253},"geometry":{"x":173982.67000000086,"y":2544596.1900000013}},{"attributes":{"ID":603281,"DIS_CODE":0,"TOWNNAME":"永康區","LI":"大橋里","LIN":"22鄰","STREET":"大橋一街","SECT":" ","MAREA":" ","LANE":" ","ALLEY":" ","HOUSE_NO":"１５１號底層之１","E_COORD97":171057.48000000001,"N_COORD97":2546536.7999999998,"ADDRESS":"大橋一街１５１號底層之１","OBJECTID":603254},"geometry":{"x":171057.48000000138,"y":2546536.8000000026}},{"attributes":{"ID":603282,"DIS_CODE":0,"TOWNNAME":"永康區","LI":"崑山里","LIN":"25鄰","STREET":"大仁街","SECT":" ","MAREA":" ","LANE":" ","ALLEY":" ","HOUSE_NO":"５７號","E_COORD97":173790.73999999999,"N_COORD97":2544670.73,"ADDRESS":"大仁街５７號","OBJECTID":603255},"geometry":{"x":173790.74000000209,"y":2544670.7300000042}},{"attributes":{"ID":603283,"DIS_CODE":0,"TOWNNAME":"中西區","LI":"開山里","LIN":"22鄰","STREET":"大同路","SECT":"一段","MAREA":" ","LANE":" ","ALLEY":" ","HOUSE_NO":"１１８號","E_COORD97":169101.04999999999,"N_COORD97":2542911.3700000001,"ADDRESS":"大同路一段１１８號","OBJECTID":603256},"geometry":{"x":169101.05000000168,"y":2542911.3700000029}},{"attributes":{"ID":603284,"DIS_CODE":0,"TOWNNAME":"中西區","LI":"開山里","LIN":"22鄰","STREET":"開山路","SECT":" ","MAREA":" ","LANE":" ","ALLEY":" ","HOUSE_NO":"２６５號","E_COORD97":169047.01999999999,"N_COORD97":2542935.6800000002,"ADDRESS":"開山路２６５號","OBJECTID":603257},"geometry":{"x":169047.02000000048,"y":2542935.6800000016}},{"attributes":{"ID":603285,"DIS_CODE":0,"TOWNNAME":"中西區","LI":"開山里","LIN":"22鄰","STREET":"開山路","SECT":" ","MAREA":" ","LANE":" ","ALLEY":" ","HOUSE_NO":"２６７號","E_COORD97":169053.35999999999,"N_COORD97":2542932.2799999998,"ADDRESS":"開山路２６７號","OBJECTID":603258},"geometry":{"x":169053.36000000034,"y":2542932.2799999993}},{"attributes":{"ID":603286,"DIS_CODE":0,"TOWNNAME":"中西區","LI":"開山里","LIN":"22鄰","STREET":"開山路","SECT":" ","MAREA":" ","LANE":" ","ALLEY":" ","HOUSE_NO":"２６９號","E_COORD97":169054.89000000001,"N_COORD97":2542924.9700000002,"ADDRESS":"開山路２６９號","OBJECTID":603259},"geometry":{"x":169054.8900000006,"y":2542924.9700000025}},{"attributes":{"ID":603287,"DIS_CODE":0,"TOWNNAME":"中西區","LI":"開山里","LIN":"22鄰","STREET":"開山路","SECT":" ","MAREA":" ","LANE":" ","ALLEY":" ","HOUSE_NO":"２７１號","E_COORD97":169063.10000000001,"N_COORD97":2542931.1099999999,"ADDRESS":"開山路２７１號","OBJECTID":603260},"geometry":{"x":169063.0999999987,"y":2542931.1100000031}},{"attributes":{"ID":603288,"DIS_CODE":0,"TOWNNAME":"中西區","LI":"開山里","LIN":"22鄰","STREET":"開山路","SECT":" ","MAREA":" ","LANE":" ","ALLEY":" ","HOUSE_NO":"２７３號","E_COORD97":169078.73999999999,"N_COORD97":2542935.3399999999,"ADDRESS":"開山路２７３號","OBJECTID":603261},"geometry":{"x":169078.74000000115,"y":2542935.3399999999}},{"attributes":{"ID":603289,"DIS_CODE":0,"TOWNNAME":"中西區","LI":"開山里","LIN":"22鄰","STREET":"開山路","SECT":" ","MAREA":" ","LANE":" ","ALLEY":" ","HOUSE_NO":"２７５號","E_COORD97":169083.35999999999,"N_COORD97":2542925.3500000001,"ADDRESS":"開山路２７５號","OBJECTID":603262},"geometry":{"x":169083.36000000127,"y":2542925.3499999996}},{"attributes":{"ID":603290,"DIS_CODE":0,"TOWNNAME":"永康區","LI":"大灣里","LIN":"22鄰","STREET":"民族路","SECT":" ","MAREA":" ","LANE":" ","ALLEY":" ","HOUSE_NO":"２６２號","E_COORD97":175023.45999999999,"N_COORD97":2545191.6899999999,"ADDRESS":"民族路２６２號","OBJECTID":603263},"geometry":{"x":175023.46000000089,"y":2545191.6899999995}},{"attributes":{"ID":603291,"DIS_CODE":0,"TOWNNAME":"永康區","LI":"大灣里","LIN":"22鄰","STREET":"民族路","SECT":" ","MAREA":" ","LANE":" ","ALLEY":" ","HOUSE_NO":"２５８號","E_COORD97":175032.54000000001,"N_COORD97":2545186.3900000001,"ADDRESS":"民族路２５８號","OBJECTID":603264},"geometry":{"x":175032.54000000004,"y":2545186.3900000025}},{"attributes":{"ID":603292,"DIS_CODE":0,"TOWNNAME":"永康區","LI":"中興里","LIN":"22鄰","STREET":"中華路","SECT":" ","MAREA":" ","LANE":" ","ALLEY":" ","HOUSE_NO":"１９８號之１","E_COORD97":171633.26000000001,"N_COORD97":2544991.2999999998,"ADDRESS":"中華路１９８號之１","OBJECTID":603265},"geometry":{"x":171633.25999999978,"y":2544991.3000000007}},{"attributes":{"ID":603293,"DIS_CODE":0,"TOWNNAME":"永康區","LI":"中興里","LIN":"22鄰","STREET":"中華路","SECT":" ","MAREA":" ","LANE":" ","ALLEY":" ","HOUSE_NO":"２０２號之９","E_COORD97":171637.51000000001,"N_COORD97":2545025.54,"ADDRESS":"中華路２０２號之９","OBJECTID":603266},"geometry":{"x":171637.51000000071,"y":2545025.5399999991}},{"attributes":{"ID":603294,"DIS_CODE":0,"TOWNNAME":"永康區","LI":"中興里","LIN":"22鄰","STREET":"中華路","SECT":" ","MAREA":" ","LANE":" ","ALLEY":" ","HOUSE_NO":"１９８號之１２","E_COORD97":171636.42999999999,"N_COORD97":2545003.2999999998,"ADDRESS":"中華路１９８號之１２","OBJECTID":603267},"geometry":{"x":171636.43000000063,"y":2545003.3000000026}},{"attributes":{"ID":603295,"DIS_CODE":0,"TOWNNAME":"永康區","LI":"崑山里","LIN":"25鄰","STREET":"大仁街","SECT":" ","MAREA":" ","LANE":" ","ALLEY":" ","HOUSE_NO":"７１號","E_COORD97":173800.31,"N_COORD97":2544711.6200000001,"ADDRESS":"大仁街７１號","OBJECTID":603268},"geometry":{"x":173800.31000000052,"y":2544711.620000001}},{"attributes":{"ID":603296,"DIS_CODE":0,"TOWNNAME":"永康區","LI":"勝利里","LIN":"19鄰","STREET":"中華一路","SECT":" ","MAREA":" ","LANE":" ","ALLEY":" ","HOUSE_NO":"２７８號","E_COORD97":171307.84,"N_COORD97":2544992.25,"ADDRESS":"中華一路２７８號","OBJECTID":603269},"geometry":{"x":171307.83999999892,"y":2544992.2500000037}},{"attributes":{"ID":603297,"DIS_CODE":0,"TOWNNAME":"永康區","LI":"中興里","LIN":"22鄰","STREET":"中華路","SECT":" ","MAREA":" ","LANE":" ","ALLEY":" ","HOUSE_NO":"１９６號之１３","E_COORD97":171634.60999999999,"N_COORD97":2544991.2999999998,"ADDRESS":"中華路１９６號之１３","OBJECTID":603270},"geometry":{"x":171634.61000000127,"y":2544991.3000000007}},{"attributes":{"ID":603298,"DIS_CODE":0,"TOWNNAME":"永康區","LI":"中興里","LIN":"22鄰","STREET":"中華路","SECT":" ","MAREA":" ","LANE":" ","ALLEY":" ","HOUSE_NO":"１９６號之１７","E_COORD97":171634.59,"N_COORD97":2544991.2999999998,"ADDRESS":"中華路１９６號之１７","OBJECTID":603271},"geometry":{"x":171634.58999999985,"y":2544991.3000000007}},{"attributes":{"ID":603299,"DIS_CODE":0,"TOWNNAME":"永康區","LI":"中興里","LIN":"22鄰","STREET":"中華路","SECT":" ","MAREA":" ","LANE":" ","ALLEY":" ","HOUSE_NO":"１９６號之１２","E_COORD97":171634.64000000001,"N_COORD97":2544991.2999999998,"ADDRESS":"中華路１９６號之１２","OBJECTID":603272},"geometry":{"x":171634.64000000153,"y":2544991.3000000007}},{"attributes":{"ID":603300,"DIS_CODE":0,"TOWNNAME":"安南區","LI":"溪北里","LIN":"22鄰","STREET":"敦安街","SECT":" ","MAREA":" ","LANE":" ","ALLEY":" ","HOUSE_NO":"５５號","E_COORD97":169250.53,"N_COORD97":2547530.73,"ADDRESS":"敦安街５５號","OBJECTID":603273},"geometry":{"x":169250.53000000026,"y":2547530.7300000004}},{"attributes":{"ID":603301,"DIS_CODE":0,"TOWNNAME":"安南區","LI":"溪北里","LIN":"22鄰","STREET":"敦安街","SECT":" ","MAREA":" ","LANE":" ","ALLEY":" ","HOUSE_NO":"７１號","E_COORD97":169211.95999999999,"N_COORD97":2547528.0800000001,"ADDRESS":"敦安街７１號","OBJECTID":603274},"geometry":{"x":169211.96000000183,"y":2547528.0800000001}},{"attributes":{"ID":603302,"DIS_CODE":0,"TOWNNAME":"安南區","LI":"溪北里","LIN":"22鄰","STREET":"敦安街","SECT":" ","MAREA":" ","LANE":" ","ALLEY":" ","HOUSE_NO":"７３號","E_COORD97":169207.19,"N_COORD97":2547528.4300000002,"ADDRESS":"敦安街７３號","OBJECTID":603275},"geometry":{"x":169207.19000000041,"y":2547528.4299999997}},{"attributes":{"ID":603303,"DIS_CODE":0,"TOWNNAME":"安南區","LI":"溪北里","LIN":"22鄰","STREET":"敦安街","SECT":" ","MAREA":" ","LANE":" ","ALLEY":" ","HOUSE_NO":"７５號","E_COORD97":169202.41,"N_COORD97":2547528.0800000001,"ADDRESS":"敦安街７５號","OBJECTID":603276},"geometry":{"x":169202.41000000201,"y":2547528.0800000001}},{"attributes":{"ID":603304,"DIS_CODE":0,"TOWNNAME":"安南區","LI":"溪北里","LIN":"22鄰","STREET":"敦安街","SECT":" ","MAREA":" ","LANE":" ","ALLEY":" ","HOUSE_NO":"９５號","E_COORD97":169163.66,"N_COORD97":2547532.3100000001,"ADDRESS":"敦安街９５號","OBJECTID":603277},"geometry":{"x":169163.66000000108,"y":2547532.3100000024}},{"attributes":{"ID":603305,"DIS_CODE":0,"TOWNNAME":"安南區","LI":"溪北里","LIN":"22鄰","STREET":"敦安街","SECT":" ","MAREA":" ","LANE":" ","ALLEY":" ","HOUSE_NO":"９７號","E_COORD97":169159.73999999999,"N_COORD97":2547532.6099999999,"ADDRESS":"敦安街９７號","OBJECTID":603278},"geometry":{"x":169159.74000000115,"y":2547532.6100000013}},{"attributes":{"ID":603306,"DIS_CODE":0,"TOWNNAME":"東區","LI":"龍山里","LIN":"22鄰","STREET":"府東街","SECT":" ","MAREA":" ","LANE":" ","ALLEY":" ","HOUSE_NO":"２８號","E_COORD97":170070.97,"N_COORD97":2542889.6200000001,"ADDRESS":"府東街２８號","OBJECTID":603279},"geometry":{"x":170070.96999999974,"y":2542889.6200000029}},{"attributes":{"ID":603307,"DIS_CODE":0,"TOWNNAME":"東區","LI":"龍山里","LIN":"22鄰","STREET":"府東街","SECT":" ","MAREA":" ","LANE":" ","ALLEY":" ","HOUSE_NO":"３０號","E_COORD97":170059.63,"N_COORD97":2542892.3999999999,"ADDRESS":"府東街３０號","OBJECTID":603280},"geometry":{"x":170059.62999999989,"y":2542892.4000000004}},{"attributes":{"ID":603308,"DIS_CODE":0,"TOWNNAME":"東區","LI":"龍山里","LIN":"22鄰","STREET":"府東街","SECT":" ","MAREA":" ","LANE":" ","ALLEY":" ","HOUSE_NO":"３４號","E_COORD97":170046.76999999999,"N_COORD97":2542883.8300000001,"ADDRESS":"府東街３４號","OBJECTID":603281},"geometry":{"x":170046.76999999862,"y":2542883.8300000019}},{"attributes":{"ID":603309,"DIS_CODE":0,"TOWNNAME":"永康區","LI":"中興里","LIN":"22鄰","STREET":"中華路","SECT":" ","MAREA":" ","LANE":" ","ALLEY":" ","HOUSE_NO":"２００號之１８","E_COORD97":171637.54999999999,"N_COORD97":2545014.54,"ADDRESS":"中華路２００號之１８","OBJECTID":603282},"geometry":{"x":171637.55000000075,"y":2545014.540000001}},{"attributes":{"ID":603310,"DIS_CODE":0,"TOWNNAME":"永康區","LI":"中興里","LIN":"22鄰","STREET":"中華路","SECT":" ","MAREA":" ","LANE":" ","ALLEY":" ","HOUSE_NO":"１９８號之６","E_COORD97":171635.14999999999,"N_COORD97":2545003.2999999998,"ADDRESS":"中華路１９８號之６","OBJECTID":603283},"geometry":{"x":171635.14999999944,"y":2545003.3000000026}},{"attributes":{"ID":603311,"DIS_CODE":0,"TOWNNAME":"永康區","LI":"中興里","LIN":"22鄰","STREET":"中華路","SECT":" ","MAREA":" ","LANE":" ","ALLEY":" ","HOUSE_NO":"２１０號之５","E_COORD97":171678.70999999999,"N_COORD97":2545043.3599999999,"ADDRESS":"中華路２１０號之５","OBJECTID":603284},"geometry":{"x":171678.71000000089,"y":2545043.3600000013}},{"attributes":{"ID":603312,"DIS_CODE":0,"TOWNNAME":"永康區","LI":"中興里","LIN":"22鄰","STREET":"中華路","SECT":" ","MAREA":" ","LANE":" ","ALLEY":" ","HOUSE_NO":"２０２號之２７","E_COORD97":171638.76000000001,"N_COORD97":2545025.54,"ADDRESS":"中華路２０２號之２７","OBJECTID":603285},"geometry":{"x":171638.75999999978,"y":2545025.5399999991}},{"attributes":{"ID":603313,"DIS_CODE":0,"TOWNNAME":"永康區","LI":"大橋里","LIN":"22鄰","STREET":"大橋一街","SECT":" ","MAREA":" ","LANE":" ","ALLEY":" ","HOUSE_NO":"１４５號","E_COORD97":171061.14999999999,"N_COORD97":2546511,"ADDRESS":"大橋一街１４５號","OBJECTID":603286},"geometry":{"x":171061.1500000013,"y":2546511.0000000019}},{"attributes":{"ID":603314,"DIS_CODE":0,"TOWNNAME":"永康區","LI":"中興里","LIN":"22鄰","STREET":"中華路","SECT":" ","MAREA":" ","LANE":" ","ALLEY":" ","HOUSE_NO":"２００號之１０","E_COORD97":171637.45000000001,"N_COORD97":2545014.54,"ADDRESS":"中華路２００號之１０","OBJECTID":603287},"geometry":{"x":171637.45000000019,"y":2545014.540000001}},{"attributes":{"ID":603315,"DIS_CODE":0,"TOWNNAME":"永康區","LI":"大橋里","LIN":"22鄰","STREET":"大橋一街","SECT":" ","MAREA":" ","LANE":" ","ALLEY":" ","HOUSE_NO":"１４３號","E_COORD97":171056.67000000001,"N_COORD97":2546508.25,"ADDRESS":"大橋一街１４３號","OBJECTID":603288},"geometry":{"x":171056.67000000179,"y":2546508.2500000019}},{"attributes":{"ID":603316,"DIS_CODE":0,"TOWNNAME":"永康區","LI":"崑山里","LIN":"22鄰","STREET":"國光二街","SECT":" ","MAREA":" ","LANE":" ","ALLEY":" ","HOUSE_NO":"３５號","E_COORD97":173992.03,"N_COORD97":2544681,"ADDRESS":"國光二街３５號","OBJECTID":603289},"geometry":{"x":173992.03000000026,"y":2544681}},{"attributes":{"ID":603317,"DIS_CODE":0,"TOWNNAME":"永康區","LI":"埔園里","LIN":"39鄰","STREET":"聖龍街","SECT":" ","MAREA":" ","LANE":" ","ALLEY":" ","HOUSE_NO":"１７７號","E_COORD97":174302.14000000001,"N_COORD97":2547857.3500000001,"ADDRESS":"聖龍街１７７號","OBJECTID":603290},"geometry":{"x":174302.13999999966,"y":2547857.3500000015}},{"attributes":{"ID":603318,"DIS_CODE":0,"TOWNNAME":"中西區","LI":"藥王里","LIN":"22鄰","STREET":"和善街","SECT":" ","MAREA":" ","LANE":" ","ALLEY":" ","HOUSE_NO":"３５號","E_COORD97":167053.59,"N_COORD97":2544621.48,"ADDRESS":"和善街３５號","OBJECTID":603291},"geometry":{"x":167053.59000000078,"y":2544621.4800000042}},{"attributes":{"ID":603319,"DIS_CODE":0,"TOWNNAME":"中西區","LI":"藥王里","LIN":"22鄰","STREET":"和善街","SECT":" ","MAREA":" ","LANE":" ","ALLEY":" ","HOUSE_NO":"３９號","E_COORD97":167039.92000000001,"N_COORD97":2544635.5600000001,"ADDRESS":"和善街３９號","OBJECTID":603292},"geometry":{"x":167039.91999999993,"y":2544635.5600000024}},{"attributes":{"ID":603320,"DIS_CODE":0,"TOWNNAME":"中西區","LI":"藥王里","LIN":"22鄰","STREET":"和善街","SECT":" ","MAREA":" ","LANE":" ","ALLEY":" ","HOUSE_NO":"４５號","E_COORD97":167030.09,"N_COORD97":2544647.9500000002,"ADDRESS":"和善街４５號","OBJECTID":603293},"geometry":{"x":167030.09000000078,"y":2544647.9500000011}},{"attributes":{"ID":603321,"DIS_CODE":0,"TOWNNAME":"中西區","LI":"藥王里","LIN":"22鄰","STREET":"和善街","SECT":" ","MAREA":" ","LANE":" ","ALLEY":" ","HOUSE_NO":"４７號","E_COORD97":167027.10000000001,"N_COORD97":2544651.1499999999,"ADDRESS":"和善街４７號","OBJECTID":603294},"geometry":{"x":167027.09999999963,"y":2544651.1500000022}},{"attributes":{"ID":603322,"DIS_CODE":0,"TOWNNAME":"中西區","LI":"藥王里","LIN":"22鄰","STREET":"和善街","SECT":" ","MAREA":" ","LANE":" ","ALLEY":" ","HOUSE_NO":"４９號","E_COORD97":167024.10999999999,"N_COORD97":2544654.1400000001,"ADDRESS":"和善街４９號","OBJECTID":603295},"geometry":{"x":167024.11000000034,"y":2544654.1400000006}},{"attributes":{"ID":603323,"DIS_CODE":0,"TOWNNAME":"中西區","LI":"藥王里","LIN":"22鄰","STREET":"和善街","SECT":" ","MAREA":" ","LANE":" ","ALLEY":" ","HOUSE_NO":"５１號","E_COORD97":167020.69,"N_COORD97":2544657.77,"ADDRESS":"和善街５１號","OBJECTID":603296},"geometry":{"x":167020.69000000227,"y":2544657.7699999996}},{"attributes":{"ID":603324,"DIS_CODE":0,"TOWNNAME":"東區","LI":"富強里","LIN":"22鄰","STREET":"東門路","SECT":"二段","MAREA":" ","LANE":" ","ALLEY":" ","HOUSE_NO":"３５３號","E_COORD97":170829.34,"N_COORD97":2542562.2599999998,"ADDRESS":"東門路二段３５３號","OBJECTID":603297},"geometry":{"x":170829.33999999985,"y":2542562.2600000016}},{"attributes":{"ID":603325,"DIS_CODE":0,"TOWNNAME":"永康區","LI":"崑山里","LIN":"20鄰","STREET":"國光一街","SECT":" ","MAREA":" ","LANE":" ","ALLEY":" ","HOUSE_NO":"５７號","E_COORD97":173847.78,"N_COORD97":2544622.5099999998,"ADDRESS":"國光一街５７號","OBJECTID":603298},"geometry":{"x":173847.78000000026,"y":2544622.5099999998}},{"attributes":{"ID":603326,"DIS_CODE":0,"TOWNNAME":"永康區","LI":"崑山里","LIN":"39鄰","STREET":"永大路","SECT":"二段","MAREA":" ","LANE":" ","ALLEY":" ","HOUSE_NO":"８７號","E_COORD97":174198.53,"N_COORD97":2544909.0600000001,"ADDRESS":"永大路二段８７號","OBJECTID":603299},"geometry":{"x":174198.53000000026,"y":2544909.0599999987}},{"attributes":{"ID":603327,"DIS_CODE":0,"TOWNNAME":"中西區","LI":"萬昌里","LIN":"22鄰","STREET":"北門路","SECT":"一段","MAREA":" ","LANE":" ","ALLEY":" ","HOUSE_NO":"５３號之１","E_COORD97":169151.57999999999,"N_COORD97":2543425.21,"ADDRESS":"北門路一段５３號之１","OBJECTID":603300},"geometry":{"x":169151.58000000007,"y":2543425.2100000028}},{"attributes":{"ID":603328,"DIS_CODE":0,"TOWNNAME":"中西區","LI":"萬昌里","LIN":"22鄰","STREET":"北門路","SECT":"一段","MAREA":" ","LANE":" ","ALLEY":" ","HOUSE_NO":"５３號之２","E_COORD97":169152,"N_COORD97":2543429.4100000001,"ADDRESS":"北門路一段５３號之２","OBJECTID":603301},"geometry":{"x":169152,"y":2543429.410000002}},{"attributes":{"ID":603329,"DIS_CODE":0,"TOWNNAME":"中西區","LI":"萬昌里","LIN":"22鄰","STREET":"北門路","SECT":"一段","MAREA":" ","LANE":" ","ALLEY":" ","HOUSE_NO":"５５號","E_COORD97":169149.62,"N_COORD97":2543440.2000000002,"ADDRESS":"北門路一段５５號","OBJECTID":603302},"geometry":{"x":169149.62000000011,"y":2543440.2000000011}},{"attributes":{"ID":603330,"DIS_CODE":0,"TOWNNAME":"中西區","LI":"萬昌里","LIN":"22鄰","STREET":"北門路","SECT":"一段","MAREA":" ","LANE":" ","ALLEY":" ","HOUSE_NO":"５７號","E_COORD97":169153.14999999999,"N_COORD97":2543447.7000000002,"ADDRESS":"北門路一段５７號","OBJECTID":603303},"geometry":{"x":169153.15000000037,"y":2543447.6999999993}},{"attributes":{"ID":603331,"DIS_CODE":0,"TOWNNAME":"中西區","LI":"萬昌里","LIN":"22鄰","STREET":"北門路","SECT":"一段","MAREA":" ","LANE":" ","ALLEY":" ","HOUSE_NO":"５９號","E_COORD97":169153.09,"N_COORD97":2543451.54,"ADDRESS":"北門路一段５９號","OBJECTID":603304},"geometry":{"x":169153.08999999985,"y":2543451.540000001}},{"attributes":{"ID":603332,"DIS_CODE":0,"TOWNNAME":"中西區","LI":"萬昌里","LIN":"22鄰","STREET":"北門路","SECT":"一段","MAREA":" ","LANE":" ","ALLEY":" ","HOUSE_NO":"６１號","E_COORD97":169153.09,"N_COORD97":2543455.6200000001,"ADDRESS":"北門路一段６１號","OBJECTID":603305},"geometry":{"x":169153.08999999985,"y":2543455.6200000029}},{"attributes":{"ID":603333,"DIS_CODE":0,"TOWNNAME":"中西區","LI":"萬昌里","LIN":"22鄰","STREET":"北門路","SECT":"一段","MAREA":" ","LANE":" ","ALLEY":" ","HOUSE_NO":"６３號","E_COORD97":169154.17000000001,"N_COORD97":2543459.4199999999,"ADDRESS":"北門路一段６３號","OBJECTID":603306},"geometry":{"x":169154.16999999993,"y":2543459.4200000018}},{"attributes":{"ID":603334,"DIS_CODE":0,"TOWNNAME":"中西區","LI":"萬昌里","LIN":"22鄰","STREET":"北門路","SECT":"一段","MAREA":" ","LANE":" ","ALLEY":" ","HOUSE_NO":"６５號","E_COORD97":169153.57000000001,"N_COORD97":2543461.7000000002,"ADDRESS":"北門路一段６５號","OBJECTID":603307},"geometry":{"x":169153.5700000003,"y":2543461.6999999993}},{"attributes":{"ID":603335,"DIS_CODE":0,"TOWNNAME":"中西區","LI":"萬昌里","LIN":"22鄰","STREET":"北門路","SECT":"一段","MAREA":" ","LANE":" ","ALLEY":" ","HOUSE_NO":"６７號","E_COORD97":169154.64999999999,"N_COORD97":2543466.4300000002,"ADDRESS":"北門路一段６７號","OBJECTID":603308},"geometry":{"x":169154.65000000037,"y":2543466.4300000016}},{"attributes":{"ID":603336,"DIS_CODE":0,"TOWNNAME":"中西區","LI":"萬昌里","LIN":"22鄰","STREET":"北門路","SECT":"一段","MAREA":" ","LANE":" ","ALLEY":" ","HOUSE_NO":"６９號","E_COORD97":169151.81,"N_COORD97":2543474.27,"ADDRESS":"北門路一段６９號","OBJECTID":603309},"geometry":{"x":169151.81000000052,"y":2543474.2700000014}},{"attributes":{"ID":603337,"DIS_CODE":0,"TOWNNAME":"永康區","LI":"烏竹里","LIN":"20鄰","STREET":"自強路","SECT":" ","MAREA":" ","LANE":" ","ALLEY":" ","HOUSE_NO":"７８３號","E_COORD97":174505.73000000001,"N_COORD97":2548585.3199999998,"ADDRESS":"自強路７８３號","OBJECTID":603310},"geometry":{"x":174505.73000000045,"y":2548585.3200000003}},{"attributes":{"ID":603338,"DIS_CODE":0,"TOWNNAME":"安南區","LI":"溪北里","LIN":"22鄰","STREET":"敦安街","SECT":" ","MAREA":" ","LANE":" ","ALLEY":" ","HOUSE_NO":"５９號","E_COORD97":169240.47,"N_COORD97":2547526.5499999998,"ADDRESS":"敦安街５９號","OBJECTID":603311},"geometry":{"x":169240.4700000016,"y":2547526.5500000007}},{"attributes":{"ID":603339,"DIS_CODE":0,"TOWNNAME":"安南區","LI":"溪北里","LIN":"22鄰","STREET":"敦安街","SECT":" ","MAREA":" ","LANE":" ","ALLEY":" ","HOUSE_NO":"６３號","E_COORD97":169229.29000000001,"N_COORD97":2547529.6800000002,"ADDRESS":"敦安街６３號","OBJECTID":603312},"geometry":{"x":169229.29000000097,"y":2547529.6800000016}},{"attributes":{"ID":603340,"DIS_CODE":0,"TOWNNAME":"安南區","LI":"溪北里","LIN":"22鄰","STREET":"敦安街","SECT":" ","MAREA":" ","LANE":" ","ALLEY":" ","HOUSE_NO":"８９號","E_COORD97":169171.98000000001,"N_COORD97":2547527.8999999999,"ADDRESS":"敦安街８９號","OBJECTID":603313},"geometry":{"x":169171.98000000138,"y":2547527.9000000022}},{"attributes":{"ID":603341,"DIS_CODE":0,"TOWNNAME":"安南區","LI":"溪北里","LIN":"22鄰","STREET":"敦安街","SECT":" ","MAREA":" ","LANE":" ","ALLEY":" ","HOUSE_NO":"９１號","E_COORD97":169167.67999999999,"N_COORD97":2547532.1200000001,"ADDRESS":"敦安街９１號","OBJECTID":603314},"geometry":{"x":169167.6799999997,"y":2547532.120000001}},{"attributes":{"ID":603342,"DIS_CODE":0,"TOWNNAME":"安南區","LI":"溪北里","LIN":"22鄰","STREET":"敬安街","SECT":" ","MAREA":" ","LANE":" ","ALLEY":" ","HOUSE_NO":"１９號","E_COORD97":169168.10000000001,"N_COORD97":2547511.79,"ADDRESS":"敬安街１９號","OBJECTID":603315},"geometry":{"x":169168.09999999963,"y":2547511.7899999991}},{"attributes":{"ID":603343,"DIS_CODE":0,"TOWNNAME":"永康區","LI":"中華里","LIN":"22鄰","STREET":"華興街","SECT":" ","MAREA":" ","LANE":" ","ALLEY":" ","HOUSE_NO":"１１２號","E_COORD97":171812.62,"N_COORD97":2544583.1099999999,"ADDRESS":"華興街１１２號","OBJECTID":603316},"geometry":{"x":171812.62000000011,"y":2544583.1100000013}},{"attributes":{"ID":603344,"DIS_CODE":0,"TOWNNAME":"東區","LI":"富強里","LIN":"22鄰","STREET":"東門路","SECT":"二段","MAREA":" ","LANE":" ","ALLEY":" ","HOUSE_NO":"３１７號","E_COORD97":170752.72,"N_COORD97":2542656.2999999998,"ADDRESS":"東門路二段３１７號","OBJECTID":603317},"geometry":{"x":170752.7200000016,"y":2542656.3000000007}},{"attributes":{"ID":603345,"DIS_CODE":0,"TOWNNAME":"東區","LI":"富強里","LIN":"22鄰","STREET":"東門路","SECT":"二段","MAREA":" ","LANE":" ","ALLEY":" ","HOUSE_NO":"３４１號","E_COORD97":170772.394057,"N_COORD97":2542600.0147500001,"ADDRESS":"東門路二段３４１號","OBJECTID":603318},"geometry":{"x":170772.39405700192,"y":2542600.0147520006}},{"attributes":{"ID":603346,"DIS_CODE":0,"TOWNNAME":"東區","LI":"富強里","LIN":"22鄰","STREET":"東門路","SECT":"二段","MAREA":" ","LANE":" ","ALLEY":" ","HOUSE_NO":"３４５號","E_COORD97":170781.29275200001,"N_COORD97":2542595.3580900002,"ADDRESS":"東門路二段３４５號","OBJECTID":603319},"geometry":{"x":170781.2927520005,"y":2542595.3580879997}},{"attributes":{"ID":603347,"DIS_CODE":0,"TOWNNAME":"東區","LI":"東安里","LIN":"22鄰","STREET":"東門路","SECT":"二段","MAREA":" ","LANE":" ","ALLEY":" ","HOUSE_NO":"１３５號","E_COORD97":170262.79000000001,"N_COORD97":2542912.48,"ADDRESS":"東門路二段１３５號","OBJECTID":603320},"geometry":{"x":170262.79000000097,"y":2542912.4800000004}},{"attributes":{"ID":603348,"DIS_CODE":0,"TOWNNAME":"永康區","LI":"崑山里","LIN":"38鄰","STREET":"崑山街","SECT":" ","MAREA":" ","LANE":" ","ALLEY":" ","HOUSE_NO":"１８５號","E_COORD97":174045.26000000001,"N_COORD97":2544957.6000000001,"ADDRESS":"崑山街１８５號","OBJECTID":603321},"geometry":{"x":174045.26000000071,"y":2544957.5999999996}},{"attributes":{"ID":603349,"DIS_CODE":0,"TOWNNAME":"永康區","LI":"勝利里","LIN":"21鄰","STREET":"勝利街","SECT":" ","MAREA":" ","LANE":" ","ALLEY":" ","HOUSE_NO":"２０９號","E_COORD97":171357.07999999999,"N_COORD97":2545170.2599999998,"ADDRESS":"勝利街２０９號","OBJECTID":603322},"geometry":{"x":171357.08000000007,"y":2545170.2599999998}},{"attributes":{"ID":603350,"DIS_CODE":0,"TOWNNAME":"東區","LI":"富強里","LIN":"22鄰","STREET":"東門路","SECT":"二段","MAREA":" ","LANE":" ","ALLEY":" ","HOUSE_NO":"３１１號","E_COORD97":170741.66,"N_COORD97":2542652.1000000001,"ADDRESS":"東門路二段３１１號","OBJECTID":603323},"geometry":{"x":170741.66000000201,"y":2542652.0999999996}},{"attributes":{"ID":603351,"DIS_CODE":0,"TOWNNAME":"東區","LI":"龍山里","LIN":"22鄰","STREET":"東門路","SECT":"二段","MAREA":" ","LANE":" ","ALLEY":" ","HOUSE_NO":"１１８號","E_COORD97":170084.70000000001,"N_COORD97":2542941.54,"ADDRESS":"東門路二段１１８號","OBJECTID":603324},"geometry":{"x":170084.70000000019,"y":2542941.5400000028}},{"attributes":{"ID":603352,"DIS_CODE":0,"TOWNNAME":"永康區","LI":"\u25A0洲里","LIN":"22鄰","STREET":"中正南路","SECT":" ","MAREA":" ","LANE":" ","ALLEY":" ","HOUSE_NO":"７１３號","E_COORD97":171556.64999999999,"N_COORD97":2548842.0099999998,"ADDRESS":"中正南路７１３號","OBJECTID":603325},"geometry":{"x":171556.65000000037,"y":2548842.0100000016}},{"attributes":{"ID":603353,"DIS_CODE":0,"TOWNNAME":"永康區","LI":"\u25A0洲里","LIN":"22鄰","STREET":"中正南路","SECT":" ","MAREA":" ","LANE":" ","ALLEY":" ","HOUSE_NO":"７０７之９號","E_COORD97":171472.64000000001,"N_COORD97":2548872.54,"ADDRESS":"中正南路７０７之９號","OBJECTID":603326},"geometry":{"x":171472.6400000006,"y":2548872.540000001}},{"attributes":{"ID":603354,"DIS_CODE":0,"TOWNNAME":"永康區","LI":"\u25A0洲里","LIN":"22鄰","STREET":"中正南路","SECT":" ","MAREA":" ","LANE":" ","ALLEY":" ","HOUSE_NO":"７１３之２號","E_COORD97":171498.64999999999,"N_COORD97":2548880.6400000001,"ADDRESS":"中正南路７１３之２號","OBJECTID":603327},"geometry":{"x":171498.6500000013,"y":2548880.6400000025}},{"attributes":{"ID":603355,"DIS_CODE":0,"TOWNNAME":"永康區","LI":"中華里","LIN":"22鄰","STREET":"華興街","SECT":" ","MAREA":" ","LANE":" ","ALLEY":" ","HOUSE_NO":"８２號","E_COORD97":171871.54000000001,"N_COORD97":2544582.54,"ADDRESS":"華興街８２號","OBJECTID":603328},"geometry":{"x":171871.54000000097,"y":2544582.5400000028}},{"attributes":{"ID":603356,"DIS_CODE":0,"TOWNNAME":"永康區","LI":"崑山里","LIN":"20鄰","STREET":"大仁街","SECT":" ","MAREA":" ","LANE":" ","ALLEY":" ","HOUSE_NO":"２４號","E_COORD97":173826.78,"N_COORD97":2544549.1600000001,"ADDRESS":"大仁街２４號","OBJECTID":603329},"geometry":{"x":173826.78000000119,"y":2544549.160000002}},{"attributes":{"ID":603357,"DIS_CODE":0,"TOWNNAME":"永康區","LI":"崑山里","LIN":"15鄰","STREET":"大灣路","SECT":" ","MAREA":" ","LANE":" ","ALLEY":" ","HOUSE_NO":"９６２號","E_COORD97":173575.01999999999,"N_COORD97":2544414.5699999998,"ADDRESS":"大灣路９６２號","OBJECTID":603330},"geometry":{"x":173575.02000000048,"y":2544414.5700000022}},{"attributes":{"ID":603358,"DIS_CODE":0,"TOWNNAME":"永康區","LI":"中華里","LIN":"22鄰","STREET":"忠勇街","SECT":" ","MAREA":" ","LANE":" ","ALLEY":" ","HOUSE_NO":"５９號","E_COORD97":171878.5,"N_COORD97":2544607.98,"ADDRESS":"忠勇街５９號","OBJECTID":603331},"geometry":{"x":171878.50000000093,"y":2544607.9800000042}},{"attributes":{"ID":603359,"DIS_CODE":0,"TOWNNAME":"永康區","LI":"中華里","LIN":"22鄰","STREET":"華興街","SECT":" ","MAREA":" ","LANE":" ","ALLEY":" ","HOUSE_NO":"８８號","E_COORD97":171859.67000000001,"N_COORD97":2544582.0600000001,"ADDRESS":"華興街８８號","OBJECTID":603332},"geometry":{"x":171859.66999999993,"y":2544582.0600000024}},{"attributes":{"ID":603360,"DIS_CODE":0,"TOWNNAME":"永康區","LI":"大灣里","LIN":"22鄰","STREET":"大灣路","SECT":" ","MAREA":" ","LANE":" ","ALLEY":" ","HOUSE_NO":"２２３號","E_COORD97":174963.59,"N_COORD97":2545290.23,"ADDRESS":"大灣路２２３號","OBJECTID":603333},"geometry":{"x":174963.59000000078,"y":2545290.2300000004}},{"attributes":{"ID":603361,"DIS_CODE":0,"TOWNNAME":"永康區","LI":"崑山里","LIN":"1鄰","STREET":"永大路","SECT":"一段","MAREA":" ","LANE":" ","ALLEY":" ","HOUSE_NO":"２５３號","E_COORD97":173920.70999999999,"N_COORD97":2544184.2599999998,"ADDRESS":"永大路一段２５３號","OBJECTID":603334},"geometry":{"x":173920.70999999996,"y":2544184.2599999998}},{"attributes":{"ID":603362,"DIS_CODE":0,"TOWNNAME":"永康區","LI":"崑山里","LIN":"6鄰","STREET":"永大路","SECT":"一段","MAREA":" ","LANE":" ","ALLEY":" ","HOUSE_NO":"９號","E_COORD97":173783.37,"N_COORD97":2543807.9399999999,"ADDRESS":"永大路一段９號","OBJECTID":603335},"geometry":{"x":173783.37000000104,"y":2543807.9400000013}},{"attributes":{"ID":603363,"DIS_CODE":0,"TOWNNAME":"永康區","LI":"埔園里","LIN":"33鄰","STREET":"埔園街","SECT":" ","MAREA":" ","LANE":" ","ALLEY":" ","HOUSE_NO":"１４１號","E_COORD97":173887.20999999999,"N_COORD97":2548168.2999999998,"ADDRESS":"埔園街１４１號","OBJECTID":603336},"geometry":{"x":173887.20999999903,"y":2548168.3000000007}},{"attributes":{"ID":603364,"DIS_CODE":0,"TOWNNAME":"永康區","LI":"崑山里","LIN":"44鄰","STREET":"國光六街","SECT":" ","MAREA":" ","LANE":" ","ALLEY":" ","HOUSE_NO":"１２５號","E_COORD97":173955.06,"N_COORD97":2545360.7000000002,"ADDRESS":"國光六街１２５號","OBJECTID":603337},"geometry":{"x":173955.05999999959,"y":2545360.6999999993}},{"attributes":{"ID":603365,"DIS_CODE":0,"TOWNNAME":"永康區","LI":"埔園里","LIN":"28鄰","STREET":"中山路","SECT":" ","MAREA":" ","LANE":" ","ALLEY":" ","HOUSE_NO":"３３８號","E_COORD97":173682.98000000001,"N_COORD97":2548232.6800000002,"ADDRESS":"中山路３３８號","OBJECTID":603338},"geometry":{"x":173682.98000000138,"y":2548232.6799999997}},{"attributes":{"ID":603366,"DIS_CODE":0,"TOWNNAME":"永康區","LI":"崑山里","LIN":"22鄰","STREET":"永大路","SECT":"二段","MAREA":" ","LANE":" ","ALLEY":" ","HOUSE_NO":"５號","E_COORD97":174077.57999999999,"N_COORD97":2544593.0899999999,"ADDRESS":"永大路二段５號","OBJECTID":603339},"geometry":{"x":174077.58000000007,"y":2544593.0900000036}},{"attributes":{"ID":603367,"DIS_CODE":0,"TOWNNAME":"仁德區","LI":"仁義里","LIN":"22鄰","STREET":"中清路","SECT":" ","MAREA":" ","LANE":" ","ALLEY":" ","HOUSE_NO":"１００號","E_COORD97":173727.62,"N_COORD97":2541335.2999999998,"ADDRESS":"中清路１００號","OBJECTID":603340},"geometry":{"x":173727.62000000104,"y":2541335.3000000026}},{"attributes":{"ID":603368,"DIS_CODE":0,"TOWNNAME":"仁德區","LI":"仁義里","LIN":"22鄰","STREET":"正義路","SECT":" ","MAREA":" ","LANE":" ","ALLEY":" ","HOUSE_NO":"１３８號","E_COORD97":173767.04999999999,"N_COORD97":2541404.5099999998,"ADDRESS":"正義路１３８號","OBJECTID":603341},"geometry":{"x":173767.05000000075,"y":2541404.5100000016}},{"attributes":{"ID":603369,"DIS_CODE":0,"TOWNNAME":"仁德區","LI":"仁義里","LIN":"22鄰","STREET":"中山路","SECT":" ","MAREA":" ","LANE":" ","ALLEY":" ","HOUSE_NO":"４３０號","E_COORD97":173688.32000000001,"N_COORD97":2541295.9900000002,"ADDRESS":"中山路４３０號","OBJECTID":603342},"geometry":{"x":173688.3200000003,"y":2541295.9900000021}},{"attributes":{"ID":603370,"DIS_CODE":0,"TOWNNAME":"永康區","LI":"烏竹里","LIN":"19鄰","STREET":"自強路","SECT":" ","MAREA":" ","LANE":" ","ALLEY":" ","HOUSE_NO":"７４５號","E_COORD97":174428.94,"N_COORD97":2548529.0600000001,"ADDRESS":"自強路７４５號","OBJECTID":603343},"geometry":{"x":174428.94000000134,"y":2548529.0600000005}},{"attributes":{"ID":603371,"DIS_CODE":0,"TOWNNAME":"仁德區","LI":"仁義里","LIN":"22鄰","STREET":"中山路","SECT":" ","MAREA":" ","LANE":" ","ALLEY":" ","HOUSE_NO":"４４０號","E_COORD97":173664.14999999999,"N_COORD97":2541299.9900000002,"ADDRESS":"中山路４４０號","OBJECTID":603344},"geometry":{"x":173664.15000000037,"y":2541299.9900000021}},{"attributes":{"ID":603372,"DIS_CODE":0,"TOWNNAME":"仁德區","LI":"太子里","LIN":"22鄰","STREET":"太子北路","SECT":" ","MAREA":" ","LANE":" ","ALLEY":" ","HOUSE_NO":"２６６號","E_COORD97":173878.87,"N_COORD97":2543620.0099999998,"ADDRESS":"太子北路２６６號","OBJECTID":603345},"geometry":{"x":173878.87000000011,"y":2543620.0099999998}},{"attributes":{"ID":603373,"DIS_CODE":0,"TOWNNAME":"仁德區","LI":"仁義里","LIN":"22鄰","STREET":"中清一街","SECT":" ","MAREA":" ","LANE":" ","ALLEY":" ","HOUSE_NO":"３８號","E_COORD97":173647.38,"N_COORD97":2541389.54,"ADDRESS":"中清一街３８號","OBJECTID":603346},"geometry":{"x":173647.38000000082,"y":2541389.540000001}},{"attributes":{"ID":603374,"DIS_CODE":0,"TOWNNAME":"仁德區","LI":"太子里","LIN":"22鄰","STREET":"太子北路","SECT":" ","MAREA":" ","LANE":" ","ALLEY":" ","HOUSE_NO":"１６３號","E_COORD97":173898.20000000001,"N_COORD97":2543640.5099999998,"ADDRESS":"太子北路１６３號","OBJECTID":603347},"geometry":{"x":173898.20000000112,"y":2543640.5099999998}},{"attributes":{"ID":603375,"DIS_CODE":0,"TOWNNAME":"仁德區","LI":"仁義里","LIN":"22鄰","STREET":"中山路","SECT":" ","MAREA":" ","LANE":" ","ALLEY":" ","HOUSE_NO":"４３２號","E_COORD97":173682.51000000001,"N_COORD97":2541296.7400000002,"ADDRESS":"中山路４３２號","OBJECTID":603348},"geometry":{"x":173682.51000000071,"y":2541296.7399999984}},{"attributes":{"ID":603376,"DIS_CODE":0,"TOWNNAME":"仁德區","LI":"仁義里","LIN":"22鄰","STREET":"中清路","SECT":" ","MAREA":" ","LANE":" ","ALLEY":" ","HOUSE_NO":"１０４號","E_COORD97":173727.92999999999,"N_COORD97":2541344.0499999998,"ADDRESS":"中清路１０４號","OBJECTID":603349},"geometry":{"x":173727.93000000156,"y":2541344.0500000026}},{"attributes":{"ID":603377,"DIS_CODE":0,"TOWNNAME":"安南區","LI":"溪北里","LIN":"22鄰","STREET":"敦安街","SECT":" ","MAREA":" ","LANE":" ","ALLEY":" ","HOUSE_NO":"７７號","E_COORD97":169199.04999999999,"N_COORD97":2547528.25,"ADDRESS":"敦安街７７號","OBJECTID":603350},"geometry":{"x":169199.04999999981,"y":2547528.2500000037}},{"attributes":{"ID":603378,"DIS_CODE":0,"TOWNNAME":"安南區","LI":"溪北里","LIN":"22鄰","STREET":"敦安街","SECT":" ","MAREA":" ","LANE":" ","ALLEY":" ","HOUSE_NO":"８７號","E_COORD97":169176.23000000001,"N_COORD97":2547527.8999999999,"ADDRESS":"敦安街８７號","OBJECTID":603351},"geometry":{"x":169176.23000000045,"y":2547527.9000000022}},{"attributes":{"ID":603379,"DIS_CODE":0,"TOWNNAME":"安南區","LI":"溪北里","LIN":"22鄰","STREET":"敦安街","SECT":" ","MAREA":" ","LANE":" ","ALLEY":" ","HOUSE_NO":"７９號","E_COORD97":169193.92000000001,"N_COORD97":2547528.4300000002,"ADDRESS":"敦安街７９號","OBJECTID":603352},"geometry":{"x":169193.92000000086,"y":2547528.4299999997}},{"attributes":{"ID":603380,"DIS_CODE":0,"TOWNNAME":"安南區","LI":"溪北里","LIN":"22鄰","STREET":"敦安街","SECT":" ","MAREA":" ","LANE":" ","ALLEY":" ","HOUSE_NO":"８３號","E_COORD97":169185.25,"N_COORD97":2547528.0800000001,"ADDRESS":"敦安街８３號","OBJECTID":603353},"geometry":{"x":169185.25000000093,"y":2547528.0800000001}},{"attributes":{"ID":603381,"DIS_CODE":0,"TOWNNAME":"安南區","LI":"溪北里","LIN":"22鄰","STREET":"敦安街","SECT":" ","MAREA":" ","LANE":" ","ALLEY":" ","HOUSE_NO":"５１號","E_COORD97":169259.76000000001,"N_COORD97":2547532.8300000001,"ADDRESS":"敦安街５１號","OBJECTID":603354},"geometry":{"x":169259.76000000071,"y":2547532.8300000001}},{"attributes":{"ID":603382,"DIS_CODE":0,"TOWNNAME":"東區","LI":"東光里","LIN":"22鄰","STREET":"怡東路","SECT":" ","MAREA":" ","LANE":" ","ALLEY":" ","HOUSE_NO":"１４３號","E_COORD97":170871.14000000001,"N_COORD97":2543824.29,"ADDRESS":"怡東路１４３號","OBJECTID":603355},"geometry":{"x":170871.13999999966,"y":2543824.2899999991}},{"attributes":{"ID":603383,"DIS_CODE":0,"TOWNNAME":"東區","LI":"東光里","LIN":"22鄰","STREET":"怡東路","SECT":" ","MAREA":" ","LANE":" ","ALLEY":" ","HOUSE_NO":"１４５號","E_COORD97":170873.38,"N_COORD97":2543828.0600000001,"ADDRESS":"怡東路１４５號","OBJECTID":603356},"geometry":{"x":170873.37999999989,"y":2543828.0600000024}},{"attributes":{"ID":603384,"DIS_CODE":0,"TOWNNAME":"東區","LI":"東光里","LIN":"22鄰","STREET":"怡東路","SECT":" ","MAREA":" ","LANE":" ","ALLEY":" ","HOUSE_NO":"１４７號","E_COORD97":170873.59,"N_COORD97":2543831.6200000001,"ADDRESS":"怡東路１４７號","OBJECTID":603357},"geometry":{"x":170873.58999999985,"y":2543831.6200000029}},{"attributes":{"ID":603385,"DIS_CODE":0,"TOWNNAME":"東區","LI":"東光里","LIN":"22鄰","STREET":"怡東路","SECT":" ","MAREA":" ","LANE":" ","ALLEY":" ","HOUSE_NO":"１４９號","E_COORD97":170875.12,"N_COORD97":2543836.0099999998,"ADDRESS":"怡東路１４９號","OBJECTID":603358},"geometry":{"x":170875.12000000011,"y":2543836.0099999998}},{"attributes":{"ID":603386,"DIS_CODE":0,"TOWNNAME":"東區","LI":"東光里","LIN":"22鄰","STREET":"怡東路","SECT":" ","MAREA":" ","LANE":" ","ALLEY":" ","HOUSE_NO":"１５９號","E_COORD97":170881.62,"N_COORD97":2543855.3100000001,"ADDRESS":"怡東路１５９號","OBJECTID":603359},"geometry":{"x":170881.62000000104,"y":2543855.3100000005}},{"attributes":{"ID":603387,"DIS_CODE":0,"TOWNNAME":"東區","LI":"東光里","LIN":"22鄰","STREET":"怡東路","SECT":" ","MAREA":" ","LANE":" ","ALLEY":" ","HOUSE_NO":"１６１號","E_COORD97":170882.10999999999,"N_COORD97":2543859.73,"ADDRESS":"怡東路１６１號","OBJECTID":603360},"geometry":{"x":170882.11000000034,"y":2543859.7300000004}},{"attributes":{"ID":603388,"DIS_CODE":0,"TOWNNAME":"東區","LI":"東光里","LIN":"22鄰","STREET":"怡東路","SECT":" ","MAREA":" ","LANE":" ","ALLEY":" ","HOUSE_NO":"１６３號","E_COORD97":170882.60000000001,"N_COORD97":2543865.1299999999,"ADDRESS":"怡東路１６３號","OBJECTID":603361},"geometry":{"x":170882.60000000056,"y":2543865.129999999}},{"attributes":{"ID":603389,"DIS_CODE":0,"TOWNNAME":"東區","LI":"東光里","LIN":"22鄰","STREET":"怡東路","SECT":" ","MAREA":" ","LANE":" ","ALLEY":" ","HOUSE_NO":"１６５號","E_COORD97":170882.60000000001,"N_COORD97":2543868.3999999999,"ADDRESS":"怡東路１６５號","OBJECTID":603362},"geometry":{"x":170882.60000000056,"y":2543868.4000000004}},{"attributes":{"ID":603390,"DIS_CODE":0,"TOWNNAME":"永康區","LI":"崑山里","LIN":"47鄰","STREET":"永大路","SECT":"二段","MAREA":" ","LANE":" ","ALLEY":" ","HOUSE_NO":"１６５號","E_COORD97":174293.42999999999,"N_COORD97":2545155.6200000001,"ADDRESS":"永大路二段１６５號","OBJECTID":603363},"geometry":{"x":174293.4299999997,"y":2545155.620000001}},{"attributes":{"ID":603391,"DIS_CODE":0,"TOWNNAME":"永康區","LI":"埔園里","LIN":"7鄰","STREET":"中正路","SECT":" ","MAREA":" ","LANE":" ","ALLEY":" ","HOUSE_NO":"６號","E_COORD97":173749.31,"N_COORD97":2547696.75,"ADDRESS":"中正路６號","OBJECTID":603364},"geometry":{"x":173749.31000000052,"y":2547696.75}},{"attributes":{"ID":603392,"DIS_CODE":0,"TOWNNAME":"東區","LI":"虎尾里","LIN":"22鄰","STREET":"東成街","SECT":" ","MAREA":" ","LANE":" ","ALLEY":" ","HOUSE_NO":"１４６號","E_COORD97":171665.89000000001,"N_COORD97":2542289.6600000001,"ADDRESS":"東成街１４６號","OBJECTID":603365},"geometry":{"x":171665.8900000006,"y":2542289.6600000001}},{"attributes":{"ID":603393,"DIS_CODE":0,"TOWNNAME":"東區","LI":"虎尾里","LIN":"22鄰","STREET":"東成街","SECT":" ","MAREA":" ","LANE":" ","ALLEY":" ","HOUSE_NO":"１４８號","E_COORD97":171670.73000000001,"N_COORD97":2542290.2200000002,"ADDRESS":"東成街１４８號","OBJECTID":603366},"geometry":{"x":171670.73000000138,"y":2542290.2200000007}},{"attributes":{"ID":603394,"DIS_CODE":0,"TOWNNAME":"東區","LI":"虎尾里","LIN":"22鄰","STREET":"東成街","SECT":" ","MAREA":" ","LANE":" ","ALLEY":" ","HOUSE_NO":"１５０號","E_COORD97":171675.97,"N_COORD97":2542291.04,"ADDRESS":"東成街１５０號","OBJECTID":603367},"geometry":{"x":171675.96999999974,"y":2542291.040000001}},{"attributes":{"ID":603395,"DIS_CODE":0,"TOWNNAME":"東區","LI":"後甲里","LIN":"22鄰","STREET":"中華東路","SECT":"一段","MAREA":" ","LANE":" ","ALLEY":" ","HOUSE_NO":"２１９號","E_COORD97":171458.54999999999,"N_COORD97":2543361.2400000002,"ADDRESS":"中華東路一段２１９號","OBJECTID":603368},"geometry":{"x":171458.54999999981,"y":2543361.2400000002}},{"attributes":{"ID":603396,"DIS_CODE":0,"TOWNNAME":"東區","LI":"中西里","LIN":"22鄰","STREET":"長榮路","SECT":"二段","MAREA":" ","LANE":" ","ALLEY":" ","HOUSE_NO":"１０４號","E_COORD97":170013.51000000001,"N_COORD97":2543273.6099999999,"ADDRESS":"長榮路二段１０４號","OBJECTID":603369},"geometry":{"x":170013.51000000071,"y":2543273.6100000031}},{"attributes":{"ID":603397,"DIS_CODE":0,"TOWNNAME":"永康區","LI":"崑山里","LIN":"23鄰","STREET":"國光一街","SECT":" ","MAREA":" ","LANE":" ","ALLEY":" ","HOUSE_NO":"６０號","E_COORD97":173874.13,"N_COORD97":2544631.5699999998,"ADDRESS":"國光一街６０號","OBJECTID":603370},"geometry":{"x":173874.12999999896,"y":2544631.5700000022}},{"attributes":{"ID":603398,"DIS_CODE":0,"TOWNNAME":"東區","LI":"大福里","LIN":"22鄰","STREET":"大同路","SECT":"二段","MAREA":" ","LANE":" ","ALLEY":" ","HOUSE_NO":"１８５號","E_COORD97":169419.32000000001,"N_COORD97":2541905.6099999999,"ADDRESS":"大同路二段１８５號","OBJECTID":603371},"geometry":{"x":169419.3200000003,"y":2541905.6099999994}},{"attributes":{"ID":603399,"DIS_CODE":0,"TOWNNAME":"東區","LI":"大福里","LIN":"22鄰","STREET":"大同路","SECT":"二段","MAREA":" ","LANE":" ","ALLEY":" ","HOUSE_NO":"１８７號","E_COORD97":169418.26999999999,"N_COORD97":2541900.73,"ADDRESS":"大同路二段１８７號","OBJECTID":603372},"geometry":{"x":169418.27000000048,"y":2541900.7300000042}},{"attributes":{"ID":603400,"DIS_CODE":0,"TOWNNAME":"東區","LI":"大福里","LIN":"22鄰","STREET":"大同路","SECT":"二段","MAREA":" ","LANE":" ","ALLEY":" ","HOUSE_NO":"１８９號","E_COORD97":169419.32000000001,"N_COORD97":2541896.2000000002,"ADDRESS":"大同路二段１８９號","OBJECTID":603373},"geometry":{"x":169419.3200000003,"y":2541896.200000003}},{"attributes":{"ID":603401,"DIS_CODE":0,"TOWNNAME":"東區","LI":"大福里","LIN":"22鄰","STREET":"大同路","SECT":"二段","MAREA":" ","LANE":" ","ALLEY":" ","HOUSE_NO":"１９３號","E_COORD97":169422.45999999999,"N_COORD97":2541887.8399999999,"ADDRESS":"大同路二段１９３號","OBJECTID":603374},"geometry":{"x":169422.46000000089,"y":2541887.8399999999}},{"attributes":{"ID":603402,"DIS_CODE":0,"TOWNNAME":"東區","LI":"大福里","LIN":"22鄰","STREET":"大同路","SECT":"二段","MAREA":" ","LANE":" ","ALLEY":" ","HOUSE_NO":"１９５號","E_COORD97":169424.54999999999,"N_COORD97":2541883.6600000001,"ADDRESS":"大同路二段１９５號","OBJECTID":603375},"geometry":{"x":169424.54999999981,"y":2541883.6600000001}},{"attributes":{"ID":603403,"DIS_CODE":0,"TOWNNAME":"東區","LI":"大福里","LIN":"22鄰","STREET":"大同路","SECT":"二段","MAREA":" ","LANE":" ","ALLEY":" ","HOUSE_NO":"１９９號","E_COORD97":169425.95000000001,"N_COORD97":2541872.52,"ADDRESS":"大同路二段１９９號","OBJECTID":603376},"geometry":{"x":169425.95000000205,"y":2541872.5199999996}},{"attributes":{"ID":603404,"DIS_CODE":0,"TOWNNAME":"東區","LI":"大福里","LIN":"22鄰","STREET":"大同路","SECT":"二段","MAREA":" ","LANE":" ","ALLEY":" ","HOUSE_NO":"２０７號","E_COORD97":169433.26999999999,"N_COORD97":2541851.27,"ADDRESS":"大同路二段２０７號","OBJECTID":603377},"geometry":{"x":169433.27000000142,"y":2541851.2699999996}},{"attributes":{"ID":603405,"DIS_CODE":0,"TOWNNAME":"東區","LI":"大福里","LIN":"22鄰","STREET":"大同路","SECT":"二段","MAREA":" ","LANE":" ","ALLEY":" ","HOUSE_NO":"２１１號","E_COORD97":169432.57000000001,"N_COORD97":2541840.4700000002,"ADDRESS":"大同路二段２１１號","OBJECTID":603378},"geometry":{"x":169432.57000000123,"y":2541840.4700000007}},{"attributes":{"ID":603406,"DIS_CODE":0,"TOWNNAME":"東區","LI":"大福里","LIN":"22鄰","STREET":"大同路","SECT":"二段","MAREA":" ","LANE":" ","ALLEY":" ","HOUSE_NO":"２１３號","E_COORD97":169432.42000000001,"N_COORD97":2541836.3700000001,"ADDRESS":"大同路二段２１３號","OBJECTID":603379},"geometry":{"x":169432.41999999993,"y":2541836.3700000029}},{"attributes":{"ID":603407,"DIS_CODE":0,"TOWNNAME":"東區","LI":"大福里","LIN":"22鄰","STREET":"大同路","SECT":"二段","MAREA":" ","LANE":" ","ALLEY":" ","HOUSE_NO":"２１７號","E_COORD97":169435.20999999999,"N_COORD97":2541827.3100000001,"ADDRESS":"大同路二段２１７號","OBJECTID":603380},"geometry":{"x":169435.20999999996,"y":2541827.3100000024}},{"attributes":{"ID":603408,"DIS_CODE":0,"TOWNNAME":"東區","LI":"大福里","LIN":"22鄰","STREET":"大同路","SECT":"二段","MAREA":" ","LANE":" ","ALLEY":" ","HOUSE_NO":"２１９號","E_COORD97":169434.51000000001,"N_COORD97":2541824.8700000001,"ADDRESS":"大同路二段２１９號","OBJECTID":603381},"geometry":{"x":169434.50999999978,"y":2541824.870000001}},{"attributes":{"ID":603409,"DIS_CODE":0,"TOWNNAME":"東區","LI":"大福里","LIN":"22鄰","STREET":"立德八路","SECT":" ","MAREA":" ","LANE":" ","ALLEY":" ","HOUSE_NO":"１０號","E_COORD97":169437.44,"N_COORD97":2541907.8799999999,"ADDRESS":"立德八路１０號","OBJECTID":603382},"geometry":{"x":169437.44000000041,"y":2541907.879999999}},{"attributes":{"ID":603410,"DIS_CODE":0,"TOWNNAME":"永康區","LI":"勝利里","LIN":"29鄰","STREET":"勝利街","SECT":" ","MAREA":" ","LANE":" ","ALLEY":" ","HOUSE_NO":"４０之１號","E_COORD97":171340.85999999999,"N_COORD97":2544621.04,"ADDRESS":"勝利街４０之１號","OBJECTID":603383},"geometry":{"x":171340.86000000127,"y":2544621.040000001}},{"attributes":{"ID":603411,"DIS_CODE":0,"TOWNNAME":"東區","LI":"大福里","LIN":"22鄰","STREET":"立德八路","SECT":" ","MAREA":" ","LANE":" ","ALLEY":" ","HOUSE_NO":"６號","E_COORD97":169429.42999999999,"N_COORD97":2541905.6000000001,"ADDRESS":"立德八路６號","OBJECTID":603384},"geometry":{"x":169429.43000000063,"y":2541905.6000000015}},{"attributes":{"ID":603412,"DIS_CODE":0,"TOWNNAME":"東區","LI":"東光里","LIN":"22鄰","STREET":"東安路","SECT":" ","MAREA":" ","LANE":" ","ALLEY":" ","HOUSE_NO":"１３６號","E_COORD97":170745.12,"N_COORD97":2543842.98,"ADDRESS":"東安路１３６號","OBJECTID":603385},"geometry":{"x":170745.11999999918,"y":2543842.9800000023}},{"attributes":{"ID":603413,"DIS_CODE":0,"TOWNNAME":"東區","LI":"東光里","LIN":"22鄰","STREET":"東安路","SECT":" ","MAREA":" ","LANE":" ","ALLEY":" ","HOUSE_NO":"１３８號","E_COORD97":170746.03,"N_COORD97":2543847.54,"ADDRESS":"東安路１３８號","OBJECTID":603386},"geometry":{"x":170746.03000000212,"y":2543847.540000001}},{"attributes":{"ID":603414,"DIS_CODE":0,"TOWNNAME":"東區","LI":"東光里","LIN":"22鄰","STREET":"東安路","SECT":" ","MAREA":" ","LANE":" ","ALLEY":" ","HOUSE_NO":"１４０號","E_COORD97":170746.67999999999,"N_COORD97":2543853.02,"ADDRESS":"東安路１４０號","OBJECTID":603387},"geometry":{"x":170746.68000000063,"y":2543853.0199999996}},{"attributes":{"ID":603415,"DIS_CODE":0,"TOWNNAME":"東區","LI":"東光里","LIN":"22鄰","STREET":"東安路","SECT":" ","MAREA":" ","LANE":" ","ALLEY":" ","HOUSE_NO":"１４２號","E_COORD97":170747.73000000001,"N_COORD97":2543857.5800000001,"ADDRESS":"東安路１４２號","OBJECTID":603388},"geometry":{"x":170747.73000000045,"y":2543857.5800000038}},{"attributes":{"ID":603416,"DIS_CODE":0,"TOWNNAME":"東區","LI":"東光里","LIN":"22鄰","STREET":"東安路","SECT":" ","MAREA":" ","LANE":" ","ALLEY":" ","HOUSE_NO":"１４６號","E_COORD97":170749.29000000001,"N_COORD97":2543865.79,"ADDRESS":"東安路１４６號","OBJECTID":603389},"geometry":{"x":170749.29000000097,"y":2543865.790000001}},{"attributes":{"ID":603417,"DIS_CODE":0,"TOWNNAME":"東區","LI":"東光里","LIN":"22鄰","STREET":"東安路","SECT":" ","MAREA":" ","LANE":" ","ALLEY":" ","HOUSE_NO":"１４８號","E_COORD97":170749.67999999999,"N_COORD97":2543870.6200000001,"ADDRESS":"東安路１４８號","OBJECTID":603390},"geometry":{"x":170749.68000000063,"y":2543870.620000001}},{"attributes":{"ID":603418,"DIS_CODE":0,"TOWNNAME":"東區","LI":"東光里","LIN":"22鄰","STREET":"東安路","SECT":" ","MAREA":" ","LANE":" ","ALLEY":" ","HOUSE_NO":"１５０號","E_COORD97":170750.98999999999,"N_COORD97":2543874.27,"ADDRESS":"東安路１５０號","OBJECTID":603391},"geometry":{"x":170750.99000000022,"y":2543874.2700000014}},{"attributes":{"ID":603419,"DIS_CODE":0,"TOWNNAME":"東區","LI":"東光里","LIN":"22鄰","STREET":"東安路","SECT":" ","MAREA":" ","LANE":" ","ALLEY":" ","HOUSE_NO":"１５２號","E_COORD97":170751.64000000001,"N_COORD97":2543879.0899999999,"ADDRESS":"東安路１５２號","OBJECTID":603392},"geometry":{"x":170751.6400000006,"y":2543879.0900000017}},{"attributes":{"ID":603420,"DIS_CODE":0,"TOWNNAME":"東區","LI":"東光里","LIN":"22鄰","STREET":"東安路","SECT":" ","MAREA":" ","LANE":" ","ALLEY":" ","HOUSE_NO":"１５４號","E_COORD97":170752.29000000001,"N_COORD97":2543883,"ADDRESS":"東安路１５４號","OBJECTID":603393},"geometry":{"x":170752.29000000004,"y":2543883.0000000019}},{"attributes":{"ID":603421,"DIS_CODE":0,"TOWNNAME":"善化區","LI":"光文里","LIN":"22鄰","STREET":"光華路","SECT":" ","MAREA":" ","LANE":" ","ALLEY":" ","HOUSE_NO":"７號","E_COORD97":178638.32000000001,"N_COORD97":2559234.25,"ADDRESS":"光華路７號","OBJECTID":603394},"geometry":{"x":178638.3200000003,"y":2559234.25}},{"attributes":{"ID":603422,"DIS_CODE":0,"TOWNNAME":"永康區","LI":"埔園里","LIN":"25鄰","STREET":"埔東街","SECT":" ","MAREA":" ","LANE":" ","ALLEY":" ","HOUSE_NO":"３９號","E_COORD97":173768.12,"N_COORD97":2548128.9900000002,"ADDRESS":"埔東街３９號","OBJECTID":603395},"geometry":{"x":173768.12000000104,"y":2548128.9900000002}},{"attributes":{"ID":603423,"DIS_CODE":0,"TOWNNAME":"永康區","LI":"崑山里","LIN":"7鄰","STREET":"大灣路","SECT":" ","MAREA":" ","LANE":" ","ALLEY":" ","HOUSE_NO":"９２７號之２","E_COORD97":173511.42000000001,"N_COORD97":2544377.5699999998,"ADDRESS":"大灣路９２７號之２","OBJECTID":603396},"geometry":{"x":173511.42000000086,"y":2544377.5700000022}},{"attributes":{"ID":603424,"DIS_CODE":0,"TOWNNAME":"永康區","LI":"崑山里","LIN":"31鄰","STREET":"永大路","SECT":"二段","MAREA":" ","LANE":" ","ALLEY":" ","HOUSE_NO":"２３號","E_COORD97":174112.37,"N_COORD97":2544687.0299999998,"ADDRESS":"永大路二段２３號","OBJECTID":603397},"geometry":{"x":174112.37000000104,"y":2544687.0299999993}},{"attributes":{"ID":603425,"DIS_CODE":0,"TOWNNAME":"永康區","LI":"勝利里","LIN":"33鄰","STREET":"中華路","SECT":" ","MAREA":" ","LANE":" ","ALLEY":" ","HOUSE_NO":"１號之４","E_COORD97":171500.63,"N_COORD97":2544353.0499999998,"ADDRESS":"中華路１號之４","OBJECTID":603398},"geometry":{"x":171500.62999999989,"y":2544353.0500000007}},{"attributes":{"ID":603426,"DIS_CODE":0,"TOWNNAME":"永康區","LI":"埔園里","LIN":"29鄰","STREET":"埔東街","SECT":" ","MAREA":" ","LANE":" ","ALLEY":" ","HOUSE_NO":"５２號","E_COORD97":173790.67999999999,"N_COORD97":2548165.9900000002,"ADDRESS":"埔東街５２號","OBJECTID":603399},"geometry":{"x":173790.68000000156,"y":2548165.9900000002}},{"attributes":{"ID":603427,"DIS_CODE":0,"TOWNNAME":"安南區","LI":"長安里","LIN":"22鄰","STREET":"公學路","SECT":"二段","MAREA":" ","LANE":" ","ALLEY":" ","HOUSE_NO":"１１號","E_COORD97":167823.88,"N_COORD97":2552570.9300000002,"ADDRESS":"公學路二段１１號","OBJECTID":603400},"geometry":{"x":167823.87999999989,"y":2552570.9299999997}}]}