{"displayFieldName":"TOWNNAME","fieldAliases":{"ID":"ID","DIS_CODE":"DIS_CODE","TOWNNAME":"TOWNNAME","LI":"LI","LIN":"LIN","STREET":"STREET","SECT":"SECT","MAREA":"MAREA","LANE":"LANE","ALLEY":"ALLEY","HOUSE_NO":"HOUSE_NO","E_COORD97":"E_COORD97","N_COORD97":"N_COORD97","ADDRESS":"ADDRESS","OBJECTID":"OBJECTID"},"geometryType":"esriGeometryPoint","spatialReference":{"wkid":102443,"latestWkid":3826},"fields":[{"name":"ID","type":"esriFieldTypeDouble","alias":"ID"},{"name":"DIS_CODE","type":"esriFieldTypeInteger","alias":"DIS_CODE"},{"name":"TOWNNAME","type":"esriFieldTypeString","alias":"TOWNNAME","length":8},{"name":"LI","type":"esriFieldTypeString","alias":"LI","length":8},{"name":"LIN","type":"esriFieldTypeString","alias":"LIN","length":12},{"name":"STREET","type":"esriFieldTypeString","alias":"STREET","length":20},{"name":"SECT","type":"esriFieldTypeString","alias":"SECT","length":8},{"name":"MAREA","type":"esriFieldTypeString","alias":"MAREA","length":12},{"name":"LANE","type":"esriFieldTypeString","alias":"LANE","length":10},{"name":"ALLEY","type":"esriFieldTypeString","alias":"ALLEY","length":10},{"name":"HOUSE_NO","type":"esriFieldTypeString","alias":"HOUSE_NO","length":20},{"name":"E_COORD97","type":"esriFieldTypeDouble","alias":"E_COORD97"},{"name":"N_COORD97","type":"esriFieldTypeDouble","alias":"N_COORD97"},{"name":"ADDRESS","type":"esriFieldTypeString","alias":"ADDRESS","length":50},{"name":"OBJECTID","type":"esriFieldTypeOID","alias":"OBJECTID"}],"features":[{"attributes":{"ID":561028,"DIS_CODE":0,"TOWNNAME":"學甲區","LI":"新達里","LIN":"9鄰","STREET":"新興路","SECT":" ","MAREA":" ","LANE":" ","ALLEY":" ","HOUSE_NO":"５２號","E_COORD97":166628.95000000001,"N_COORD97":2570612.04,"ADDRESS":"新興路５２號","OBJECTID":561001},"geometry":{"x":166628.95000000205,"y":2570612.040000001}},{"attributes":{"ID":561029,"DIS_CODE":0,"TOWNNAME":"學甲區","LI":"新達里","LIN":"9鄰","STREET":"新興路","SECT":" ","MAREA":" ","LANE":" ","ALLEY":" ","HOUSE_NO":"５４號","E_COORD97":166624.26000000001,"N_COORD97":2570613.3700000001,"ADDRESS":"新興路５４號","OBJECTID":561002},"geometry":{"x":166624.25999999978,"y":2570613.3699999992}},{"attributes":{"ID":561030,"DIS_CODE":0,"TOWNNAME":"學甲區","LI":"新達里","LIN":"9鄰","STREET":"新興路","SECT":" ","MAREA":" ","LANE":" ","ALLEY":" ","HOUSE_NO":"５６號","E_COORD97":166620.17999999999,"N_COORD97":2570613.4300000002,"ADDRESS":"新興路５６號","OBJECTID":561003},"geometry":{"x":166620.18000000063,"y":2570613.4300000016}},{"attributes":{"ID":561031,"DIS_CODE":0,"TOWNNAME":"學甲區","LI":"新達里","LIN":"9鄰","STREET":"新興路","SECT":" ","MAREA":" ","LANE":" ","ALLEY":" ","HOUSE_NO":"５８號","E_COORD97":166616.04999999999,"N_COORD97":2570614.0499999998,"ADDRESS":"新興路５８號","OBJECTID":561004},"geometry":{"x":166616.05000000075,"y":2570614.0500000007}},{"attributes":{"ID":561032,"DIS_CODE":0,"TOWNNAME":"學甲區","LI":"新達里","LIN":"9鄰","STREET":"新興路","SECT":" ","MAREA":" ","LANE":" ","ALLEY":" ","HOUSE_NO":"６０號","E_COORD97":166612.01999999999,"N_COORD97":2570615.3900000001,"ADDRESS":"新興路６０號","OBJECTID":561005},"geometry":{"x":166612.01999999955,"y":2570615.3900000006}},{"attributes":{"ID":561033,"DIS_CODE":0,"TOWNNAME":"學甲區","LI":"新達里","LIN":"9鄰","STREET":"新興路","SECT":" ","MAREA":" ","LANE":" ","ALLEY":" ","HOUSE_NO":"６６號","E_COORD97":166593.51000000001,"N_COORD97":2570617.4100000001,"ADDRESS":"新興路６６號","OBJECTID":561006},"geometry":{"x":166593.50999999978,"y":2570617.410000002}},{"attributes":{"ID":561034,"DIS_CODE":0,"TOWNNAME":"學甲區","LI":"新達里","LIN":"9鄰","STREET":"新興路","SECT":" ","MAREA":" ","LANE":" ","ALLEY":" ","HOUSE_NO":"６８號","E_COORD97":166589.32000000001,"N_COORD97":2570618.04,"ADDRESS":"新興路６８號","OBJECTID":561007},"geometry":{"x":166589.32000000123,"y":2570618.040000001}},{"attributes":{"ID":561035,"DIS_CODE":0,"TOWNNAME":"學甲區","LI":"新達里","LIN":"9鄰","STREET":"新興路","SECT":" ","MAREA":" ","LANE":" ","ALLEY":" ","HOUSE_NO":"７０號","E_COORD97":166584.88,"N_COORD97":2570618.7000000002,"ADDRESS":"新興路７０號","OBJECTID":561008},"geometry":{"x":166584.88000000175,"y":2570618.6999999993}},{"attributes":{"ID":561036,"DIS_CODE":0,"TOWNNAME":"學甲區","LI":"新達里","LIN":"9鄰","STREET":"新興路","SECT":" ","MAREA":" ","LANE":" ","ALLEY":" ","HOUSE_NO":"７２號","E_COORD97":166580.85999999999,"N_COORD97":2570619.3799999999,"ADDRESS":"新興路７２號","OBJECTID":561009},"geometry":{"x":166580.86000000127,"y":2570619.3800000008}},{"attributes":{"ID":561037,"DIS_CODE":0,"TOWNNAME":"學甲區","LI":"新達里","LIN":"9鄰","STREET":"新興路","SECT":" ","MAREA":" ","LANE":" ","ALLEY":" ","HOUSE_NO":"７６號","E_COORD97":166572.07999999999,"N_COORD97":2570621,"ADDRESS":"新興路７６號","OBJECTID":561010},"geometry":{"x":166572.08000000101,"y":2570621}},{"attributes":{"ID":561038,"DIS_CODE":0,"TOWNNAME":"學甲區","LI":"仁得里","LIN":"9鄰","STREET":"廣文路","SECT":" ","MAREA":" ","LANE":" ","ALLEY":" ","HOUSE_NO":"３９號之３","E_COORD97":166095.63,"N_COORD97":2570215.2599999998,"ADDRESS":"廣文路３９號之３","OBJECTID":561011},"geometry":{"x":166095.63000000082,"y":2570215.2599999998}},{"attributes":{"ID":561039,"DIS_CODE":0,"TOWNNAME":"學甲區","LI":"仁得里","LIN":"9鄰","STREET":"廣文路","SECT":" ","MAREA":" ","LANE":" ","ALLEY":" ","HOUSE_NO":"３９號","E_COORD97":166107.01999999999,"N_COORD97":2570213.1299999999,"ADDRESS":"廣文路３９號","OBJECTID":561012},"geometry":{"x":166107.01999999955,"y":2570213.1300000027}},{"attributes":{"ID":561040,"DIS_CODE":0,"TOWNNAME":"學甲區","LI":"仁得里","LIN":"9鄰","STREET":"廣文路","SECT":" ","MAREA":" ","LANE":" ","ALLEY":" ","HOUSE_NO":"４３號","E_COORD97":166091.82000000001,"N_COORD97":2570224.2400000002,"ADDRESS":"廣文路４３號","OBJECTID":561013},"geometry":{"x":166091.8200000003,"y":2570224.2400000021}},{"attributes":{"ID":561041,"DIS_CODE":0,"TOWNNAME":"學甲區","LI":"慈福里","LIN":"9鄰","STREET":"濟生路","SECT":" ","MAREA":" ","LANE":" ","ALLEY":" ","HOUSE_NO":"２１號","E_COORD97":166781.38,"N_COORD97":2570171.1800000002,"ADDRESS":"濟生路２１號","OBJECTID":561014},"geometry":{"x":166781.37999999989,"y":2570171.1799999997}},{"attributes":{"ID":561042,"DIS_CODE":0,"TOWNNAME":"學甲區","LI":"慈福里","LIN":"9鄰","STREET":"濟生路","SECT":" ","MAREA":" ","LANE":" ","ALLEY":" ","HOUSE_NO":"２７號之１","E_COORD97":166681.85000000001,"N_COORD97":2570184.6699999999,"ADDRESS":"濟生路２７號之１","OBJECTID":561015},"geometry":{"x":166681.85000000056,"y":2570184.6700000018}},{"attributes":{"ID":561043,"DIS_CODE":0,"TOWNNAME":"學甲區","LI":"慈福里","LIN":"9鄰","STREET":"濟生路","SECT":" ","MAREA":" ","LANE":" ","ALLEY":" ","HOUSE_NO":"２７號","E_COORD97":166686.79000000001,"N_COORD97":2570184.2799999998,"ADDRESS":"濟生路２７號","OBJECTID":561016},"geometry":{"x":166686.79000000004,"y":2570184.2799999993}},{"attributes":{"ID":561044,"DIS_CODE":0,"TOWNNAME":"學甲區","LI":"慈福里","LIN":"9鄰","STREET":"濟生路","SECT":" ","MAREA":" ","LANE":" ","ALLEY":" ","HOUSE_NO":"２９號","E_COORD97":166681.76999999999,"N_COORD97":2570169.77,"ADDRESS":"濟生路２９號","OBJECTID":561017},"geometry":{"x":166681.76999999955,"y":2570169.7700000014}},{"attributes":{"ID":561045,"DIS_CODE":0,"TOWNNAME":"學甲區","LI":"慈福里","LIN":"9鄰","STREET":"濟生路","SECT":" ","MAREA":" ","LANE":" ","ALLEY":" ","HOUSE_NO":"３１號之１","E_COORD97":166669.45000000001,"N_COORD97":2570183.1499999999,"ADDRESS":"濟生路３１號之１","OBJECTID":561018},"geometry":{"x":166669.44999999925,"y":2570183.1500000004}},{"attributes":{"ID":561046,"DIS_CODE":0,"TOWNNAME":"學甲區","LI":"慈福里","LIN":"9鄰","STREET":"濟生路","SECT":" ","MAREA":" ","LANE":" ","ALLEY":" ","HOUSE_NO":"３１號之２","E_COORD97":166664.51000000001,"N_COORD97":2570183.3399999999,"ADDRESS":"濟生路３１號之２","OBJECTID":561019},"geometry":{"x":166664.50999999978,"y":2570183.3400000017}},{"attributes":{"ID":561047,"DIS_CODE":0,"TOWNNAME":"學甲區","LI":"慈福里","LIN":"9鄰","STREET":"濟生路","SECT":" ","MAREA":" ","LANE":" ","ALLEY":" ","HOUSE_NO":"３１號之３","E_COORD97":166660.26000000001,"N_COORD97":2570183.6200000001,"ADDRESS":"濟生路３１號之３","OBJECTID":561020},"geometry":{"x":166660.26000000164,"y":2570183.620000001}},{"attributes":{"ID":561048,"DIS_CODE":0,"TOWNNAME":"學甲區","LI":"慈福里","LIN":"9鄰","STREET":"濟生路","SECT":" ","MAREA":" ","LANE":" ","ALLEY":" ","HOUSE_NO":"３１號之６","E_COORD97":166644.5,"N_COORD97":2570181.5099999998,"ADDRESS":"濟生路３１號之６","OBJECTID":561021},"geometry":{"x":166644.5,"y":2570181.5100000016}},{"attributes":{"ID":561049,"DIS_CODE":0,"TOWNNAME":"學甲區","LI":"慈福里","LIN":"9鄰","STREET":"濟生路","SECT":" ","MAREA":" ","LANE":" ","ALLEY":" ","HOUSE_NO":"３１號之８","E_COORD97":166618.70999999999,"N_COORD97":2570192.5899999999,"ADDRESS":"濟生路３１號之８","OBJECTID":561022},"geometry":{"x":166618.71000000089,"y":2570192.5899999999}},{"attributes":{"ID":561050,"DIS_CODE":0,"TOWNNAME":"學甲區","LI":"慈福里","LIN":"9鄰","STREET":"濟生路","SECT":" ","MAREA":" ","LANE":" ","ALLEY":" ","HOUSE_NO":"３１號","E_COORD97":166675.45999999999,"N_COORD97":2570186.4199999999,"ADDRESS":"濟生路３１號","OBJECTID":561023},"geometry":{"x":166675.45999999996,"y":2570186.4200000018}},{"attributes":{"ID":561051,"DIS_CODE":0,"TOWNNAME":"六甲區","LI":"七甲里","LIN":"9鄰","STREET":"七甲街","SECT":" ","MAREA":" ","LANE":" ","ALLEY":" ","HOUSE_NO":"１００號","E_COORD97":183082.79000000001,"N_COORD97":2569035.9500000002,"ADDRESS":"七甲街１００號","OBJECTID":561024},"geometry":{"x":183082.79000000004,"y":2569035.9500000011}},{"attributes":{"ID":561052,"DIS_CODE":0,"TOWNNAME":"六甲區","LI":"七甲里","LIN":"9鄰","STREET":"七甲街","SECT":" ","MAREA":" ","LANE":" ","ALLEY":" ","HOUSE_NO":"１０２號","E_COORD97":183090.35000000001,"N_COORD97":2569045.6800000002,"ADDRESS":"七甲街１０２號","OBJECTID":561025},"geometry":{"x":183090.34999999963,"y":2569045.6799999997}},{"attributes":{"ID":561053,"DIS_CODE":0,"TOWNNAME":"六甲區","LI":"七甲里","LIN":"9鄰","STREET":"七甲街","SECT":" ","MAREA":" ","LANE":" ","ALLEY":" ","HOUSE_NO":"１０４號","E_COORD97":183093.54999999999,"N_COORD97":2569064.4100000001,"ADDRESS":"七甲街１０４號","OBJECTID":561026},"geometry":{"x":183093.55000000075,"y":2569064.410000002}},{"attributes":{"ID":561054,"DIS_CODE":0,"TOWNNAME":"南區","LI":"文南里","LIN":"9鄰","STREET":"健康路","SECT":"二段","MAREA":" ","LANE":" ","ALLEY":" ","HOUSE_NO":"２６６號","E_COORD97":166960.06,"N_COORD97":2542500.9100000001,"ADDRESS":"健康路二段２６６號","OBJECTID":561027},"geometry":{"x":166960.06000000052,"y":2542500.910000002}},{"attributes":{"ID":561055,"DIS_CODE":0,"TOWNNAME":"六甲區","LI":"七甲里","LIN":"9鄰","STREET":"七甲街","SECT":" ","MAREA":" ","LANE":" ","ALLEY":" ","HOUSE_NO":"５５號","E_COORD97":183128.89999999999,"N_COORD97":2568990.1200000001,"ADDRESS":"七甲街５５號","OBJECTID":561028},"geometry":{"x":183128.9000000013,"y":2568990.120000001}},{"attributes":{"ID":561056,"DIS_CODE":0,"TOWNNAME":"六甲區","LI":"七甲里","LIN":"9鄰","STREET":"七甲街","SECT":" ","MAREA":" ","LANE":" ","ALLEY":" ","HOUSE_NO":"９４號","E_COORD97":183111.32000000001,"N_COORD97":2569040.4199999999,"ADDRESS":"七甲街９４號","OBJECTID":561029},"geometry":{"x":183111.3200000003,"y":2569040.4200000018}},{"attributes":{"ID":561057,"DIS_CODE":0,"TOWNNAME":"六甲區","LI":"七甲里","LIN":"9鄰","STREET":"七甲街","SECT":" ","MAREA":" ","LANE":" ","ALLEY":" ","HOUSE_NO":"９６號","E_COORD97":183092.23999999999,"N_COORD97":2569029.8100000001,"ADDRESS":"七甲街９６號","OBJECTID":561030},"geometry":{"x":183092.24000000209,"y":2569029.8100000005}},{"attributes":{"ID":561058,"DIS_CODE":0,"TOWNNAME":"南區","LI":"竹溪里","LIN":"9鄰","STREET":"體育路","SECT":" ","MAREA":" ","LANE":" ","ALLEY":" ","HOUSE_NO":"１０號之２６","E_COORD97":168798.23999999999,"N_COORD97":2542100.3500000001,"ADDRESS":"體育路１０號之２６","OBJECTID":561031},"geometry":{"x":168798.24000000022,"y":2542100.3500000015}},{"attributes":{"ID":561059,"DIS_CODE":0,"TOWNNAME":"南區","LI":"竹溪里","LIN":"9鄰","STREET":"體育路","SECT":" ","MAREA":" ","LANE":" ","ALLEY":" ","HOUSE_NO":"１０號之３０","E_COORD97":168801.35999999999,"N_COORD97":2542069.8100000001,"ADDRESS":"體育路１０號之３０","OBJECTID":561032},"geometry":{"x":168801.36000000127,"y":2542069.8100000042}},{"attributes":{"ID":561060,"DIS_CODE":0,"TOWNNAME":"南區","LI":"文南里","LIN":"9鄰","STREET":"文南路","SECT":" ","MAREA":" ","LANE":" ","ALLEY":" ","HOUSE_NO":"５６號","E_COORD97":166946.98999999999,"N_COORD97":2542658.3599999999,"ADDRESS":"文南路５６號","OBJECTID":561033},"geometry":{"x":166946.99000000022,"y":2542658.3600000031}},{"attributes":{"ID":561061,"DIS_CODE":0,"TOWNNAME":"南區","LI":"明興里","LIN":"9鄰","STREET":"金華路","SECT":"一段","MAREA":" ","LANE":" ","ALLEY":" ","HOUSE_NO":"１３４號","E_COORD97":166928.84,"N_COORD97":2540583.3700000001,"ADDRESS":"金華路一段１３４號","OBJECTID":561034},"geometry":{"x":166928.83999999985,"y":2540583.370000001}},{"attributes":{"ID":561062,"DIS_CODE":0,"TOWNNAME":"北區","LI":"仁愛里","LIN":"9鄰","STREET":"長榮路","SECT":"四段","MAREA":" ","LANE":" ","ALLEY":" ","HOUSE_NO":"２２號","E_COORD97":170320.69,"N_COORD97":2544849.9399999999,"ADDRESS":"長榮路四段２２號","OBJECTID":561035},"geometry":{"x":170320.69000000041,"y":2544849.9399999995}},{"attributes":{"ID":561063,"DIS_CODE":0,"TOWNNAME":"北區","LI":"仁愛里","LIN":"9鄰","STREET":"長榮路","SECT":"四段","MAREA":" ","LANE":" ","ALLEY":" ","HOUSE_NO":"２４號","E_COORD97":170315.98999999999,"N_COORD97":2544859.02,"ADDRESS":"長榮路四段２４號","OBJECTID":561036},"geometry":{"x":170315.99000000115,"y":2544859.0200000014}},{"attributes":{"ID":561064,"DIS_CODE":0,"TOWNNAME":"北區","LI":"仁愛里","LIN":"9鄰","STREET":"長榮路","SECT":"四段","MAREA":" ","LANE":" ","ALLEY":" ","HOUSE_NO":"２６號","E_COORD97":170315.82999999999,"N_COORD97":2544863.5600000001,"ADDRESS":"長榮路四段２６號","OBJECTID":561037},"geometry":{"x":170315.83000000007,"y":2544863.5600000005}},{"attributes":{"ID":561065,"DIS_CODE":0,"TOWNNAME":"北區","LI":"仁愛里","LIN":"9鄰","STREET":"長榮路","SECT":"四段","MAREA":" ","LANE":" ","ALLEY":" ","HOUSE_NO":"２８號","E_COORD97":170316.76999999999,"N_COORD97":2544868.5600000001,"ADDRESS":"長榮路四段２８號","OBJECTID":561038},"geometry":{"x":170316.77000000048,"y":2544868.5600000042}},{"attributes":{"ID":561066,"DIS_CODE":0,"TOWNNAME":"北區","LI":"仁愛里","LIN":"9鄰","STREET":"長榮路","SECT":"四段","MAREA":" ","LANE":" ","ALLEY":" ","HOUSE_NO":"３０號","E_COORD97":170315.98999999999,"N_COORD97":2544872.4300000002,"ADDRESS":"長榮路四段３０號","OBJECTID":561039},"geometry":{"x":170315.99000000115,"y":2544872.4300000016}},{"attributes":{"ID":561067,"DIS_CODE":0,"TOWNNAME":"北區","LI":"仁愛里","LIN":"9鄰","STREET":"長榮路","SECT":"四段","MAREA":" ","LANE":" ","ALLEY":" ","HOUSE_NO":"３２號","E_COORD97":170314.87,"N_COORD97":2544877.6099999999,"ADDRESS":"長榮路四段３２號","OBJECTID":561040},"geometry":{"x":170314.87000000104,"y":2544877.6100000013}},{"attributes":{"ID":561068,"DIS_CODE":0,"TOWNNAME":"北區","LI":"仁愛里","LIN":"9鄰","STREET":"長榮路","SECT":"四段","MAREA":" ","LANE":" ","ALLEY":" ","HOUSE_NO":"３４號","E_COORD97":170318.04999999999,"N_COORD97":2544881.73,"ADDRESS":"長榮路四段３４號","OBJECTID":561041},"geometry":{"x":170318.04999999981,"y":2544881.7300000023}},{"attributes":{"ID":561069,"DIS_CODE":0,"TOWNNAME":"北區","LI":"仁愛里","LIN":"9鄰","STREET":"長榮路","SECT":"四段","MAREA":" ","LANE":" ","ALLEY":" ","HOUSE_NO":"３６號","E_COORD97":170317.82000000001,"N_COORD97":2544886.3199999998,"ADDRESS":"長榮路四段３６號","OBJECTID":561042},"geometry":{"x":170317.8200000003,"y":2544886.3200000003}},{"attributes":{"ID":561070,"DIS_CODE":0,"TOWNNAME":"北區","LI":"仁愛里","LIN":"9鄰","STREET":"長榮路","SECT":"四段","MAREA":" ","LANE":" ","ALLEY":" ","HOUSE_NO":"３８號","E_COORD97":170319.82000000001,"N_COORD97":2544891.0299999998,"ADDRESS":"長榮路四段３８號","OBJECTID":561043},"geometry":{"x":170319.8200000003,"y":2544891.0299999975}},{"attributes":{"ID":561071,"DIS_CODE":0,"TOWNNAME":"北區","LI":"仁愛里","LIN":"9鄰","STREET":"長榮路","SECT":"四段","MAREA":" ","LANE":" ","ALLEY":" ","HOUSE_NO":"４０號","E_COORD97":170318.53,"N_COORD97":2544895.27,"ADDRESS":"長榮路四段４０號","OBJECTID":561044},"geometry":{"x":170318.53000000026,"y":2544895.2699999996}},{"attributes":{"ID":561072,"DIS_CODE":0,"TOWNNAME":"北區","LI":"仁愛里","LIN":"9鄰","STREET":"長榮路","SECT":"四段","MAREA":" ","LANE":" ","ALLEY":" ","HOUSE_NO":"４２號","E_COORD97":170318.26000000001,"N_COORD97":2544899.6299999999,"ADDRESS":"長榮路四段４２號","OBJECTID":561045},"geometry":{"x":170318.25999999978,"y":2544899.629999999}},{"attributes":{"ID":561073,"DIS_CODE":0,"TOWNNAME":"北區","LI":"仁愛里","LIN":"9鄰","STREET":"長榮路","SECT":"四段","MAREA":" ","LANE":" ","ALLEY":" ","HOUSE_NO":"４４號","E_COORD97":170318.45999999999,"N_COORD97":2544904.5299999998,"ADDRESS":"長榮路四段４４號","OBJECTID":561046},"geometry":{"x":170318.45999999996,"y":2544904.5299999993}},{"attributes":{"ID":561074,"DIS_CODE":0,"TOWNNAME":"北區","LI":"仁愛里","LIN":"9鄰","STREET":"長榮路","SECT":"四段","MAREA":" ","LANE":" ","ALLEY":" ","HOUSE_NO":"５６號之１","E_COORD97":170345.10000000001,"N_COORD97":2544973.4199999999,"ADDRESS":"長榮路四段５６號之１","OBJECTID":561047},"geometry":{"x":170345.10000000056,"y":2544973.4199999999}},{"attributes":{"ID":561075,"DIS_CODE":0,"TOWNNAME":"北區","LI":"仁愛里","LIN":"9鄰","STREET":"長榮路","SECT":"四段","MAREA":" ","LANE":" ","ALLEY":" ","HOUSE_NO":"６０號","E_COORD97":170322.70000000001,"N_COORD97":2544978.6299999999,"ADDRESS":"長榮路四段６０號","OBJECTID":561048},"geometry":{"x":170322.70000000205,"y":2544978.6300000008}},{"attributes":{"ID":561076,"DIS_CODE":0,"TOWNNAME":"北區","LI":"仁愛里","LIN":"9鄰","STREET":"長榮路","SECT":"四段","MAREA":" ","LANE":" ","ALLEY":" ","HOUSE_NO":"６２號","E_COORD97":170322.09,"N_COORD97":2544983.04,"ADDRESS":"長榮路四段６２號","OBJECTID":561049},"geometry":{"x":170322.09000000078,"y":2544983.040000001}},{"attributes":{"ID":561077,"DIS_CODE":0,"TOWNNAME":"北區","LI":"仁愛里","LIN":"9鄰","STREET":"長榮路","SECT":"四段","MAREA":" ","LANE":" ","ALLEY":" ","HOUSE_NO":"６４號","E_COORD97":170321.97,"N_COORD97":2544988.4199999999,"ADDRESS":"長榮路四段６４號","OBJECTID":561050},"geometry":{"x":170321.96999999881,"y":2544988.4200000018}},{"attributes":{"ID":561078,"DIS_CODE":0,"TOWNNAME":"北區","LI":"仁愛里","LIN":"9鄰","STREET":"長榮路","SECT":"四段","MAREA":" ","LANE":" ","ALLEY":" ","HOUSE_NO":"６６號","E_COORD97":170321.72,"N_COORD97":2544995.2799999998,"ADDRESS":"長榮路四段６６號","OBJECTID":561051},"geometry":{"x":170321.71999999974,"y":2544995.2800000012}},{"attributes":{"ID":561079,"DIS_CODE":0,"TOWNNAME":"北區","LI":"仁愛里","LIN":"9鄰","STREET":"長榮路","SECT":"四段","MAREA":" ","LANE":" ","ALLEY":" ","HOUSE_NO":"６８號","E_COORD97":170321.23000000001,"N_COORD97":2544999.8100000001,"ADDRESS":"長榮路四段６８號","OBJECTID":561052},"geometry":{"x":170321.23000000138,"y":2544999.8100000024}},{"attributes":{"ID":561080,"DIS_CODE":0,"TOWNNAME":"北區","LI":"五福里","LIN":"9鄰","STREET":"自強街","SECT":" ","MAREA":" ","LANE":" ","ALLEY":" ","HOUSE_NO":"７１號","E_COORD97":168275.92000000001,"N_COORD97":2544573.4199999999,"ADDRESS":"自強街７１號","OBJECTID":561053},"geometry":{"x":168275.91999999993,"y":2544573.4199999999}},{"attributes":{"ID":561081,"DIS_CODE":0,"TOWNNAME":"北區","LI":"五福里","LIN":"9鄰","STREET":"自強街","SECT":" ","MAREA":" ","LANE":" ","ALLEY":" ","HOUSE_NO":"７３號","E_COORD97":168278.94,"N_COORD97":2544577.5,"ADDRESS":"自強街７３號","OBJECTID":561054},"geometry":{"x":168278.94000000134,"y":2544577.5000000019}},{"attributes":{"ID":561082,"DIS_CODE":0,"TOWNNAME":"北區","LI":"五福里","LIN":"9鄰","STREET":"自強街","SECT":" ","MAREA":" ","LANE":" ","ALLEY":" ","HOUSE_NO":"７５號","E_COORD97":168281.48000000001,"N_COORD97":2544580.8199999998,"ADDRESS":"自強街７５號","OBJECTID":561055},"geometry":{"x":168281.48000000045,"y":2544580.8200000003}},{"attributes":{"ID":561083,"DIS_CODE":0,"TOWNNAME":"北區","LI":"五福里","LIN":"9鄰","STREET":"自強街","SECT":" ","MAREA":" ","LANE":" ","ALLEY":" ","HOUSE_NO":"７７號","E_COORD97":168284.03,"N_COORD97":2544584.29,"ADDRESS":"自強街７７號","OBJECTID":561056},"geometry":{"x":168284.03000000026,"y":2544584.2900000028}},{"attributes":{"ID":561084,"DIS_CODE":0,"TOWNNAME":"北區","LI":"五福里","LIN":"9鄰","STREET":"自強街","SECT":" ","MAREA":" ","LANE":" ","ALLEY":" ","HOUSE_NO":"７９號","E_COORD97":168286.67999999999,"N_COORD97":2544587.6800000002,"ADDRESS":"自強街７９號","OBJECTID":561057},"geometry":{"x":168286.68000000063,"y":2544587.6799999997}},{"attributes":{"ID":561085,"DIS_CODE":0,"TOWNNAME":"北區","LI":"五福里","LIN":"9鄰","STREET":"自強街","SECT":" ","MAREA":" ","LANE":" ","ALLEY":" ","HOUSE_NO":"８１號","E_COORD97":168289.38,"N_COORD97":2544591.4500000002,"ADDRESS":"自強街８１號","OBJECTID":561058},"geometry":{"x":168289.38000000082,"y":2544591.4500000011}},{"attributes":{"ID":561086,"DIS_CODE":0,"TOWNNAME":"北區","LI":"五福里","LIN":"9鄰","STREET":"自強街","SECT":" ","MAREA":" ","LANE":" ","ALLEY":" ","HOUSE_NO":"８３號","E_COORD97":168292.39000000001,"N_COORD97":2544595.3900000001,"ADDRESS":"自強街８３號","OBJECTID":561059},"geometry":{"x":168292.3900000006,"y":2544595.3900000043}},{"attributes":{"ID":561087,"DIS_CODE":0,"TOWNNAME":"北區","LI":"五福里","LIN":"9鄰","STREET":"西門路","SECT":"三段","MAREA":" ","LANE":" ","ALLEY":" ","HOUSE_NO":"６６號","E_COORD97":168234.01999999999,"N_COORD97":2544610.6200000001,"ADDRESS":"西門路三段６６號","OBJECTID":561060},"geometry":{"x":168234.01999999955,"y":2544610.620000001}},{"attributes":{"ID":561088,"DIS_CODE":0,"TOWNNAME":"北區","LI":"五福里","LIN":"9鄰","STREET":"西門路","SECT":"三段","MAREA":" ","LANE":" ","ALLEY":" ","HOUSE_NO":"６８號","E_COORD97":168237.42999999999,"N_COORD97":2544614.4399999999,"ADDRESS":"西門路三段６８號","OBJECTID":561061},"geometry":{"x":168237.43000000063,"y":2544614.4400000013}},{"attributes":{"ID":561089,"DIS_CODE":0,"TOWNNAME":"北區","LI":"五福里","LIN":"9鄰","STREET":"西門路","SECT":"三段","MAREA":" ","LANE":" ","ALLEY":" ","HOUSE_NO":"７０號","E_COORD97":168240.42999999999,"N_COORD97":2544618.79,"ADDRESS":"西門路三段７０號","OBJECTID":561062},"geometry":{"x":168240.4299999997,"y":2544618.790000001}},{"attributes":{"ID":561090,"DIS_CODE":0,"TOWNNAME":"北區","LI":"五福里","LIN":"9鄰","STREET":"西門路","SECT":"三段","MAREA":" ","LANE":" ","ALLEY":" ","HOUSE_NO":"７２號","E_COORD97":168243.42999999999,"N_COORD97":2544621.9300000002,"ADDRESS":"西門路三段７２號","OBJECTID":561063},"geometry":{"x":168243.4299999997,"y":2544621.9300000016}},{"attributes":{"ID":561091,"DIS_CODE":0,"TOWNNAME":"北區","LI":"五福里","LIN":"9鄰","STREET":"西門路","SECT":"三段","MAREA":" ","LANE":" ","ALLEY":" ","HOUSE_NO":"７６號","E_COORD97":168246.42999999999,"N_COORD97":2544625.3300000001,"ADDRESS":"西門路三段７６號","OBJECTID":561064},"geometry":{"x":168246.43000000063,"y":2544625.3299999982}},{"attributes":{"ID":561092,"DIS_CODE":0,"TOWNNAME":"北區","LI":"五福里","LIN":"9鄰","STREET":"西門路","SECT":"三段","MAREA":" ","LANE":" ","ALLEY":" ","HOUSE_NO":"７８號","E_COORD97":168248.60999999999,"N_COORD97":2544628.3300000001,"ADDRESS":"西門路三段７８號","OBJECTID":561065},"geometry":{"x":168248.6100000022,"y":2544628.3300000001}},{"attributes":{"ID":561093,"DIS_CODE":0,"TOWNNAME":"北區","LI":"安民里","LIN":"9鄰","STREET":"成功路","SECT":" ","MAREA":" ","LANE":" ","ALLEY":" ","HOUSE_NO":"３０８號","E_COORD97":168101.75,"N_COORD97":2544494.6200000001,"ADDRESS":"成功路３０８號","OBJECTID":561066},"geometry":{"x":168101.75000000093,"y":2544494.620000001}},{"attributes":{"ID":561094,"DIS_CODE":0,"TOWNNAME":"北區","LI":"安民里","LIN":"9鄰","STREET":"成功路","SECT":" ","MAREA":" ","LANE":" ","ALLEY":" ","HOUSE_NO":"３０８號之１","E_COORD97":168096.04000000001,"N_COORD97":2544496.9100000001,"ADDRESS":"成功路３０８號之１","OBJECTID":561067},"geometry":{"x":168096.0400000019,"y":2544496.910000002}},{"attributes":{"ID":561095,"DIS_CODE":0,"TOWNNAME":"北區","LI":"安民里","LIN":"9鄰","STREET":"西門路","SECT":"三段","MAREA":" ","LANE":" ","ALLEY":" ","HOUSE_NO":"１１號","E_COORD97":168124.14999999999,"N_COORD97":2544501.25,"ADDRESS":"西門路三段１１號","OBJECTID":561068},"geometry":{"x":168124.15000000037,"y":2544501.2500000019}},{"attributes":{"ID":561096,"DIS_CODE":0,"TOWNNAME":"北區","LI":"安民里","LIN":"9鄰","STREET":"西門路","SECT":"三段","MAREA":" ","LANE":" ","ALLEY":" ","HOUSE_NO":"１３號","E_COORD97":168125.75,"N_COORD97":2544503.3100000001,"ADDRESS":"西門路三段１３號","OBJECTID":561069},"geometry":{"x":168125.75000000093,"y":2544503.3100000005}},{"attributes":{"ID":561097,"DIS_CODE":0,"TOWNNAME":"北區","LI":"安民里","LIN":"9鄰","STREET":"西門路","SECT":"三段","MAREA":" ","LANE":" ","ALLEY":" ","HOUSE_NO":"１５號","E_COORD97":168129.64000000001,"N_COORD97":2544508.5600000001,"ADDRESS":"西門路三段１５號","OBJECTID":561070},"geometry":{"x":168129.6400000006,"y":2544508.5600000005}},{"attributes":{"ID":561098,"DIS_CODE":0,"TOWNNAME":"北區","LI":"安民里","LIN":"9鄰","STREET":"西門路","SECT":"三段","MAREA":" ","LANE":" ","ALLEY":" ","HOUSE_NO":"１７號","E_COORD97":168131.69,"N_COORD97":2544511.0699999998,"ADDRESS":"西門路三段１７號","OBJECTID":561071},"geometry":{"x":168131.69000000134,"y":2544511.0700000003}},{"attributes":{"ID":561099,"DIS_CODE":0,"TOWNNAME":"北區","LI":"安民里","LIN":"9鄰","STREET":"西門路","SECT":"三段","MAREA":" ","LANE":" ","ALLEY":" ","HOUSE_NO":"１９號","E_COORD97":168133.75,"N_COORD97":2544514.7200000002,"ADDRESS":"西門路三段１９號","OBJECTID":561072},"geometry":{"x":168133.75000000186,"y":2544514.7200000007}},{"attributes":{"ID":561100,"DIS_CODE":0,"TOWNNAME":"北區","LI":"安民里","LIN":"9鄰","STREET":"西門路","SECT":"三段","MAREA":" ","LANE":" ","ALLEY":" ","HOUSE_NO":"１號","E_COORD97":168114.32000000001,"N_COORD97":2544490.29,"ADDRESS":"西門路三段１號","OBJECTID":561073},"geometry":{"x":168114.3200000003,"y":2544490.290000001}},{"attributes":{"ID":561101,"DIS_CODE":0,"TOWNNAME":"北區","LI":"安民里","LIN":"9鄰","STREET":"西門路","SECT":"三段","MAREA":" ","LANE":" ","ALLEY":" ","HOUSE_NO":"２１號","E_COORD97":168134.67000000001,"N_COORD97":2544517.6899999999,"ADDRESS":"西門路三段２１號","OBJECTID":561074},"geometry":{"x":168134.67000000086,"y":2544517.6900000013}},{"attributes":{"ID":561102,"DIS_CODE":0,"TOWNNAME":"北區","LI":"安民里","LIN":"9鄰","STREET":"西門路","SECT":"三段","MAREA":" ","LANE":" ","ALLEY":" ","HOUSE_NO":"２３號","E_COORD97":168139.01000000001,"N_COORD97":2544520.4300000002,"ADDRESS":"西門路三段２３號","OBJECTID":561075},"geometry":{"x":168139.01000000071,"y":2544520.4300000016}},{"attributes":{"ID":561103,"DIS_CODE":0,"TOWNNAME":"北區","LI":"安民里","LIN":"9鄰","STREET":"西門路","SECT":"三段","MAREA":" ","LANE":" ","ALLEY":" ","HOUSE_NO":"３１號","E_COORD97":168120.92999999999,"N_COORD97":2544532.1099999999,"ADDRESS":"西門路三段３１號","OBJECTID":561076},"geometry":{"x":168120.93000000063,"y":2544532.1100000013}},{"attributes":{"ID":561104,"DIS_CODE":0,"TOWNNAME":"北區","LI":"安民里","LIN":"9鄰","STREET":"西門路","SECT":"三段","MAREA":" ","LANE":" ","ALLEY":" ","HOUSE_NO":"３５號","E_COORD97":168140.60999999999,"N_COORD97":2544525.6800000002,"ADDRESS":"西門路三段３５號","OBJECTID":561077},"geometry":{"x":168140.61000000127,"y":2544525.6800000016}},{"attributes":{"ID":561105,"DIS_CODE":0,"TOWNNAME":"北區","LI":"安民里","LIN":"9鄰","STREET":"成功路","SECT":" ","MAREA":" ","LANE":" ","ALLEY":" ","HOUSE_NO":"３８０號","E_COORD97":168013.07000000001,"N_COORD97":2544529.79,"ADDRESS":"成功路３８０號","OBJECTID":561078},"geometry":{"x":168013.07000000216,"y":2544529.7900000028}},{"attributes":{"ID":561106,"DIS_CODE":0,"TOWNNAME":"北區","LI":"安民里","LIN":"9鄰","STREET":"成功路","SECT":" ","MAREA":" ","LANE":" ","ALLEY":" ","HOUSE_NO":"３７０號之１","E_COORD97":168038.01999999999,"N_COORD97":2544518.6099999999,"ADDRESS":"成功路３７０號之１","OBJECTID":561079},"geometry":{"x":168038.01999999862,"y":2544518.6100000013}},{"attributes":{"ID":561107,"DIS_CODE":0,"TOWNNAME":"北區","LI":"安民里","LIN":"9鄰","STREET":"成功路","SECT":" ","MAREA":" ","LANE":" ","ALLEY":" ","HOUSE_NO":"３７２號","E_COORD97":168032.53,"N_COORD97":2544521.3399999999,"ADDRESS":"成功路３７２號","OBJECTID":561080},"geometry":{"x":168032.53000000119,"y":2544521.3400000017}},{"attributes":{"ID":561108,"DIS_CODE":0,"TOWNNAME":"北區","LI":"安民里","LIN":"9鄰","STREET":"成功路","SECT":" ","MAREA":" ","LANE":" ","ALLEY":" ","HOUSE_NO":"３７４號","E_COORD97":168026.79000000001,"N_COORD97":2544524.3100000001,"ADDRESS":"成功路３７４號","OBJECTID":561081},"geometry":{"x":168026.79000000097,"y":2544524.3099999987}},{"attributes":{"ID":561109,"DIS_CODE":0,"TOWNNAME":"北區","LI":"安民里","LIN":"9鄰","STREET":"成功路","SECT":" ","MAREA":" ","LANE":" ","ALLEY":" ","HOUSE_NO":"３７６號","E_COORD97":168021.98999999999,"N_COORD97":2544525.9100000001,"ADDRESS":"成功路３７６號","OBJECTID":561082},"geometry":{"x":168021.99000000209,"y":2544525.9100000001}},{"attributes":{"ID":561110,"DIS_CODE":0,"TOWNNAME":"北區","LI":"安民里","LIN":"9鄰","STREET":"成功路","SECT":" ","MAREA":" ","LANE":" ","ALLEY":" ","HOUSE_NO":"３７８號","E_COORD97":168017.64000000001,"N_COORD97":2544527.7400000002,"ADDRESS":"成功路３７８號","OBJECTID":561083},"geometry":{"x":168017.6400000006,"y":2544527.7400000002}},{"attributes":{"ID":561111,"DIS_CODE":0,"TOWNNAME":"北區","LI":"安民里","LIN":"9鄰","STREET":"成功路","SECT":" ","MAREA":" ","LANE":" ","ALLEY":" ","HOUSE_NO":"３９８號","E_COORD97":167943.95000000001,"N_COORD97":2544553.2400000002,"ADDRESS":"成功路３９８號","OBJECTID":561084},"geometry":{"x":167943.95000000019,"y":2544553.2400000021}},{"attributes":{"ID":561112,"DIS_CODE":0,"TOWNNAME":"北區","LI":"文成里","LIN":"9鄰","STREET":"文賢路","SECT":" ","MAREA":" ","LANE":" ","ALLEY":" ","HOUSE_NO":"４９２號","E_COORD97":167349.66,"N_COORD97":2545221.1299999999,"ADDRESS":"文賢路４９２號","OBJECTID":561085},"geometry":{"x":167349.66000000201,"y":2545221.129999999}},{"attributes":{"ID":561113,"DIS_CODE":0,"TOWNNAME":"北區","LI":"文成里","LIN":"9鄰","STREET":"文賢路","SECT":" ","MAREA":" ","LANE":" ","ALLEY":" ","HOUSE_NO":"４９４號","E_COORD97":167350.67000000001,"N_COORD97":2545226.1499999999,"ADDRESS":"文賢路４９４號","OBJECTID":561086},"geometry":{"x":167350.66999999993,"y":2545226.1500000004}},{"attributes":{"ID":561114,"DIS_CODE":0,"TOWNNAME":"北區","LI":"文成里","LIN":"9鄰","STREET":"文賢路","SECT":" ","MAREA":" ","LANE":" ","ALLEY":" ","HOUSE_NO":"４９６號","E_COORD97":167350.87,"N_COORD97":2545230.3799999999,"ADDRESS":"文賢路４９６號","OBJECTID":561087},"geometry":{"x":167350.87000000011,"y":2545230.379999999}},{"attributes":{"ID":561115,"DIS_CODE":0,"TOWNNAME":"北區","LI":"文成里","LIN":"9鄰","STREET":"文賢路","SECT":" ","MAREA":" ","LANE":" ","ALLEY":" ","HOUSE_NO":"４９８號","E_COORD97":167351.07000000001,"N_COORD97":2545235,"ADDRESS":"文賢路４９８號","OBJECTID":561088},"geometry":{"x":167351.07000000123,"y":2545235.0000000019}},{"attributes":{"ID":561116,"DIS_CODE":0,"TOWNNAME":"北區","LI":"文成里","LIN":"9鄰","STREET":"文賢路","SECT":" ","MAREA":" ","LANE":" ","ALLEY":" ","HOUSE_NO":"５００號","E_COORD97":167351.67000000001,"N_COORD97":2545238.8199999998,"ADDRESS":"文賢路５００號","OBJECTID":561089},"geometry":{"x":167351.67000000086,"y":2545238.8200000003}},{"attributes":{"ID":561117,"DIS_CODE":0,"TOWNNAME":"北區","LI":"文成里","LIN":"9鄰","STREET":"文賢路","SECT":" ","MAREA":" ","LANE":" ","ALLEY":" ","HOUSE_NO":"５０４號","E_COORD97":167352.91,"N_COORD97":2545251.0299999998,"ADDRESS":"文賢路５０４號","OBJECTID":561090},"geometry":{"x":167352.91000000201,"y":2545251.0300000012}},{"attributes":{"ID":561118,"DIS_CODE":0,"TOWNNAME":"北區","LI":"文成里","LIN":"9鄰","STREET":"文賢路","SECT":" ","MAREA":" ","LANE":" ","ALLEY":" ","HOUSE_NO":"５０６號","E_COORD97":167352.31,"N_COORD97":2545255.6499999999,"ADDRESS":"文賢路５０６號","OBJECTID":561091},"geometry":{"x":167352.30999999959,"y":2545255.6500000022}},{"attributes":{"ID":561119,"DIS_CODE":0,"TOWNNAME":"北區","LI":"文成里","LIN":"9鄰","STREET":"文賢路","SECT":" ","MAREA":" ","LANE":" ","ALLEY":" ","HOUSE_NO":"５０８號","E_COORD97":167353.51999999999,"N_COORD97":2545262.4900000002,"ADDRESS":"文賢路５０８號","OBJECTID":561092},"geometry":{"x":167353.52000000048,"y":2545262.4900000021}},{"attributes":{"ID":561120,"DIS_CODE":0,"TOWNNAME":"北區","LI":"文成里","LIN":"9鄰","STREET":"文賢路","SECT":" ","MAREA":" ","LANE":" ","ALLEY":" ","HOUSE_NO":"５１０號","E_COORD97":167358.75,"N_COORD97":2545269.3300000001,"ADDRESS":"文賢路５１０號","OBJECTID":561093},"geometry":{"x":167358.75,"y":2545269.3300000001}},{"attributes":{"ID":561121,"DIS_CODE":0,"TOWNNAME":"北區","LI":"大道里","LIN":"9鄰","STREET":"北門路","SECT":"二段","MAREA":" ","LANE":" ","ALLEY":" ","HOUSE_NO":"５１７號","E_COORD97":169621.76000000001,"N_COORD97":2545603.4100000001,"ADDRESS":"北門路二段５１７號","OBJECTID":561094},"geometry":{"x":169621.76000000164,"y":2545603.4100000001}},{"attributes":{"ID":561122,"DIS_CODE":0,"TOWNNAME":"北區","LI":"大道里","LIN":"9鄰","STREET":"北門路","SECT":"二段","MAREA":" ","LANE":" ","ALLEY":" ","HOUSE_NO":"５０３號","E_COORD97":169612.10999999999,"N_COORD97":2545570.77,"ADDRESS":"北門路二段５０３號","OBJECTID":561095},"geometry":{"x":169612.11000000127,"y":2545570.7699999996}},{"attributes":{"ID":561123,"DIS_CODE":0,"TOWNNAME":"北區","LI":"大道里","LIN":"9鄰","STREET":"北門路","SECT":"二段","MAREA":" ","LANE":" ","ALLEY":" ","HOUSE_NO":"５０５號","E_COORD97":169613.13,"N_COORD97":2545575.3399999999,"ADDRESS":"北門路二段５０５號","OBJECTID":561096},"geometry":{"x":169613.13000000082,"y":2545575.3400000017}},{"attributes":{"ID":561124,"DIS_CODE":0,"TOWNNAME":"北區","LI":"大道里","LIN":"9鄰","STREET":"北門路","SECT":"二段","MAREA":" ","LANE":" ","ALLEY":" ","HOUSE_NO":"５０７號","E_COORD97":169614.64999999999,"N_COORD97":2545580.4199999999,"ADDRESS":"北門路二段５０７號","OBJECTID":561097},"geometry":{"x":169614.65000000224,"y":2545580.4199999999}},{"attributes":{"ID":561125,"DIS_CODE":0,"TOWNNAME":"北區","LI":"大道里","LIN":"9鄰","STREET":"北門路","SECT":"二段","MAREA":" ","LANE":" ","ALLEY":" ","HOUSE_NO":"５０９號","E_COORD97":169615.79000000001,"N_COORD97":2545585.1200000001,"ADDRESS":"北門路二段５０９號","OBJECTID":561098},"geometry":{"x":169615.79000000097,"y":2545585.1200000029}},{"attributes":{"ID":561126,"DIS_CODE":0,"TOWNNAME":"北區","LI":"三德里","LIN":"9鄰","STREET":"公園南路","SECT":" ","MAREA":" ","LANE":" ","ALLEY":" ","HOUSE_NO":"２５９號","E_COORD97":168473.54999999999,"N_COORD97":2544726.3700000001,"ADDRESS":"公園南路２５９號","OBJECTID":561099},"geometry":{"x":168473.54999999981,"y":2544726.370000001}},{"attributes":{"ID":561127,"DIS_CODE":0,"TOWNNAME":"北區","LI":"成功里","LIN":"9鄰","STREET":"西門路","SECT":"四段","MAREA":" ","LANE":" ","ALLEY":" ","HOUSE_NO":"４８５號","E_COORD97":169273,"N_COORD97":2546558.5899999999,"ADDRESS":"西門路四段４８５號","OBJECTID":561100},"geometry":{"x":169273.00000000093,"y":2546558.5899999999}},{"attributes":{"ID":561128,"DIS_CODE":0,"TOWNNAME":"北區","LI":"成功里","LIN":"9鄰","STREET":"西門路","SECT":"四段","MAREA":" ","LANE":" ","ALLEY":" ","HOUSE_NO":"４８９號","E_COORD97":169278.72,"N_COORD97":2546565.8900000001,"ADDRESS":"西門路四段４８９號","OBJECTID":561101},"geometry":{"x":169278.71999999974,"y":2546565.8900000025}},{"attributes":{"ID":561129,"DIS_CODE":0,"TOWNNAME":"北區","LI":"成功里","LIN":"9鄰","STREET":"西門路","SECT":"四段","MAREA":" ","LANE":" ","ALLEY":" ","HOUSE_NO":"４９５號","E_COORD97":169286.01999999999,"N_COORD97":2546576.6899999999,"ADDRESS":"西門路四段４９５號","OBJECTID":561102},"geometry":{"x":169286.02000000048,"y":2546576.6900000013}},{"attributes":{"ID":561130,"DIS_CODE":0,"TOWNNAME":"北區","LI":"成功里","LIN":"9鄰","STREET":"西門路","SECT":"四段","MAREA":" ","LANE":" ","ALLEY":" ","HOUSE_NO":"４９３號","E_COORD97":169283.16,"N_COORD97":2546573.1899999999,"ADDRESS":"西門路四段４９３號","OBJECTID":561103},"geometry":{"x":169283.16000000015,"y":2546573.1900000013}},{"attributes":{"ID":561131,"DIS_CODE":0,"TOWNNAME":"北區","LI":"成功里","LIN":"9鄰","STREET":"西門路","SECT":"四段","MAREA":" ","LANE":" ","ALLEY":" ","HOUSE_NO":"４９７號","E_COORD97":169288.56,"N_COORD97":2546579.8599999999,"ADDRESS":"西門路四段４９７號","OBJECTID":561104},"geometry":{"x":169288.55999999959,"y":2546579.8599999994}},{"attributes":{"ID":561132,"DIS_CODE":0,"TOWNNAME":"永康區","LI":"大橋里","LIN":"9鄰","STREET":"大橋三街","SECT":" ","MAREA":" ","LANE":" ","ALLEY":" ","HOUSE_NO":"２８１號四樓之２","E_COORD97":171125.56,"N_COORD97":2546950.7599999998,"ADDRESS":"大橋三街２８１號四樓之２","OBJECTID":561105},"geometry":{"x":171125.56000000052,"y":2546950.7599999998}},{"attributes":{"ID":561133,"DIS_CODE":0,"TOWNNAME":"仁德區","LI":"仁德里","LIN":"9鄰","STREET":"仁德二街","SECT":" ","MAREA":" ","LANE":" ","ALLEY":" ","HOUSE_NO":"３２號五樓之４","E_COORD97":173229.62,"N_COORD97":2541078.79,"ADDRESS":"仁德二街３２號五樓之４","OBJECTID":561106},"geometry":{"x":173229.62000000011,"y":2541078.790000001}},{"attributes":{"ID":561134,"DIS_CODE":0,"TOWNNAME":"仁德區","LI":"仁德里","LIN":"9鄰","STREET":"仁德二街","SECT":" ","MAREA":" ","LANE":" ","ALLEY":" ","HOUSE_NO":"３２號三樓之２","E_COORD97":173229.73000000001,"N_COORD97":2541078.79,"ADDRESS":"仁德二街３２號三樓之２","OBJECTID":561107},"geometry":{"x":173229.73000000045,"y":2541078.790000001}},{"attributes":{"ID":561135,"DIS_CODE":0,"TOWNNAME":"善化區","LI":"光文里","LIN":"9鄰","STREET":"民權路","SECT":" ","MAREA":" ","LANE":" ","ALLEY":" ","HOUSE_NO":"５號二樓","E_COORD97":178869.64999999999,"N_COORD97":2559084.6400000001,"ADDRESS":"民權路５號二樓","OBJECTID":561108},"geometry":{"x":178869.65000000037,"y":2559084.6400000025}},{"attributes":{"ID":561136,"DIS_CODE":0,"TOWNNAME":"善化區","LI":"光文里","LIN":"9鄰","STREET":"民權路","SECT":" ","MAREA":" ","LANE":" ","ALLEY":" ","HOUSE_NO":"５號三樓","E_COORD97":178869.64999999999,"N_COORD97":2559084.6400000001,"ADDRESS":"民權路５號三樓","OBJECTID":561109},"geometry":{"x":178869.65000000037,"y":2559084.6400000025}},{"attributes":{"ID":561137,"DIS_CODE":0,"TOWNNAME":"善化區","LI":"光文里","LIN":"9鄰","STREET":"民權路","SECT":" ","MAREA":" ","LANE":" ","ALLEY":" ","HOUSE_NO":"５號四樓之１","E_COORD97":178869.64999999999,"N_COORD97":2559084.6400000001,"ADDRESS":"民權路５號四樓之１","OBJECTID":561110},"geometry":{"x":178869.65000000037,"y":2559084.6400000025}},{"attributes":{"ID":561138,"DIS_CODE":0,"TOWNNAME":"善化區","LI":"光文里","LIN":"9鄰","STREET":"民權路","SECT":" ","MAREA":" ","LANE":" ","ALLEY":" ","HOUSE_NO":"５號四樓之２","E_COORD97":178869.64999999999,"N_COORD97":2559084.6400000001,"ADDRESS":"民權路５號四樓之２","OBJECTID":561111},"geometry":{"x":178869.65000000037,"y":2559084.6400000025}},{"attributes":{"ID":561139,"DIS_CODE":0,"TOWNNAME":"東區","LI":"中西里","LIN":"9鄰","STREET":"勝利路","SECT":" ","MAREA":" ","LANE":" ","ALLEY":" ","HOUSE_NO":"７４號五樓","E_COORD97":169821.85000000001,"N_COORD97":2543617.5600000001,"ADDRESS":"勝利路７４號五樓","OBJECTID":561112},"geometry":{"x":169821.84999999963,"y":2543617.5600000042}},{"attributes":{"ID":561140,"DIS_CODE":0,"TOWNNAME":"東區","LI":"中西里","LIN":"9鄰","STREET":"勝利路","SECT":" ","MAREA":" ","LANE":" ","ALLEY":" ","HOUSE_NO":"７４號四樓","E_COORD97":169821.85000000001,"N_COORD97":2543617.5600000001,"ADDRESS":"勝利路７４號四樓","OBJECTID":561113},"geometry":{"x":169821.84999999963,"y":2543617.5600000042}},{"attributes":{"ID":561141,"DIS_CODE":0,"TOWNNAME":"麻豆區","LI":"巷口里","LIN":"6鄰","STREET":"建南街","SECT":" ","MAREA":" ","LANE":" ","ALLEY":" ","HOUSE_NO":"２８號","E_COORD97":173078.10000000001,"N_COORD97":2564219.6099999999,"ADDRESS":"建南街２８號","OBJECTID":561114},"geometry":{"x":173078.10000000056,"y":2564219.6100000031}},{"attributes":{"ID":561142,"DIS_CODE":0,"TOWNNAME":"仁德區","LI":"仁德里","LIN":"9鄰","STREET":"仁德二街","SECT":" ","MAREA":" ","LANE":" ","ALLEY":" ","HOUSE_NO":"３２號三樓之４","E_COORD97":173229.62,"N_COORD97":2541078.79,"ADDRESS":"仁德二街３２號三樓之４","OBJECTID":561115},"geometry":{"x":173229.62000000011,"y":2541078.790000001}},{"attributes":{"ID":561143,"DIS_CODE":0,"TOWNNAME":"仁德區","LI":"仁德里","LIN":"9鄰","STREET":"仁德二街","SECT":" ","MAREA":" ","LANE":" ","ALLEY":" ","HOUSE_NO":"３２號三樓之３","E_COORD97":173229.70000000001,"N_COORD97":2541078.79,"ADDRESS":"仁德二街３２號三樓之３","OBJECTID":561116},"geometry":{"x":173229.70000000019,"y":2541078.790000001}},{"attributes":{"ID":561144,"DIS_CODE":0,"TOWNNAME":"仁德區","LI":"仁德里","LIN":"9鄰","STREET":"仁德二街","SECT":" ","MAREA":" ","LANE":" ","ALLEY":" ","HOUSE_NO":"３２號五樓之１","E_COORD97":173229.60000000001,"N_COORD97":2541078.79,"ADDRESS":"仁德二街３２號五樓之１","OBJECTID":561117},"geometry":{"x":173229.59999999963,"y":2541078.790000001}},{"attributes":{"ID":561145,"DIS_CODE":0,"TOWNNAME":"東區","LI":"忠孝里","LIN":"9鄰","STREET":"榮譽街","SECT":" ","MAREA":" ","LANE":" ","ALLEY":" ","HOUSE_NO":"９０號二樓之１","E_COORD97":169776.63,"N_COORD97":2541700.46,"ADDRESS":"榮譽街９０號二樓之１","OBJECTID":561118},"geometry":{"x":169776.62999999989,"y":2541700.4600000028}},{"attributes":{"ID":561146,"DIS_CODE":0,"TOWNNAME":"東區","LI":"忠孝里","LIN":"9鄰","STREET":"榮譽街","SECT":" ","MAREA":" ","LANE":" ","ALLEY":" ","HOUSE_NO":"９０號二樓之１２","E_COORD97":169776.63,"N_COORD97":2541700.46,"ADDRESS":"榮譽街９０號二樓之１２","OBJECTID":561119},"geometry":{"x":169776.62999999989,"y":2541700.4600000028}},{"attributes":{"ID":561147,"DIS_CODE":0,"TOWNNAME":"東區","LI":"忠孝里","LIN":"9鄰","STREET":"榮譽街","SECT":" ","MAREA":" ","LANE":" ","ALLEY":" ","HOUSE_NO":"９０號二樓之１３","E_COORD97":169776.63,"N_COORD97":2541700.46,"ADDRESS":"榮譽街９０號二樓之１３","OBJECTID":561120},"geometry":{"x":169776.62999999989,"y":2541700.4600000028}},{"attributes":{"ID":561148,"DIS_CODE":0,"TOWNNAME":"東區","LI":"忠孝里","LIN":"9鄰","STREET":"榮譽街","SECT":" ","MAREA":" ","LANE":" ","ALLEY":" ","HOUSE_NO":"９０號二樓之３","E_COORD97":169776.63,"N_COORD97":2541700.46,"ADDRESS":"榮譽街９０號二樓之３","OBJECTID":561121},"geometry":{"x":169776.62999999989,"y":2541700.4600000028}},{"attributes":{"ID":561149,"DIS_CODE":0,"TOWNNAME":"東區","LI":"忠孝里","LIN":"9鄰","STREET":"榮譽街","SECT":" ","MAREA":" ","LANE":" ","ALLEY":" ","HOUSE_NO":"９０號二樓之４","E_COORD97":169776.63,"N_COORD97":2541700.46,"ADDRESS":"榮譽街９０號二樓之４","OBJECTID":561122},"geometry":{"x":169776.62999999989,"y":2541700.4600000028}},{"attributes":{"ID":561150,"DIS_CODE":0,"TOWNNAME":"東區","LI":"忠孝里","LIN":"9鄰","STREET":"榮譽街","SECT":" ","MAREA":" ","LANE":" ","ALLEY":" ","HOUSE_NO":"９０號二樓之９","E_COORD97":169776.63,"N_COORD97":2541700.46,"ADDRESS":"榮譽街９０號二樓之９","OBJECTID":561123},"geometry":{"x":169776.62999999989,"y":2541700.4600000028}},{"attributes":{"ID":561151,"DIS_CODE":0,"TOWNNAME":"東區","LI":"忠孝里","LIN":"9鄰","STREET":"榮譽街","SECT":" ","MAREA":" ","LANE":" ","ALLEY":" ","HOUSE_NO":"９０號三樓","E_COORD97":169776.63,"N_COORD97":2541700.46,"ADDRESS":"榮譽街９０號三樓","OBJECTID":561124},"geometry":{"x":169776.62999999989,"y":2541700.4600000028}},{"attributes":{"ID":561152,"DIS_CODE":0,"TOWNNAME":"東區","LI":"忠孝里","LIN":"9鄰","STREET":"榮譽街","SECT":" ","MAREA":" ","LANE":" ","ALLEY":" ","HOUSE_NO":"９０號三樓之１３","E_COORD97":169776.63,"N_COORD97":2541700.46,"ADDRESS":"榮譽街９０號三樓之１３","OBJECTID":561125},"geometry":{"x":169776.62999999989,"y":2541700.4600000028}},{"attributes":{"ID":561153,"DIS_CODE":0,"TOWNNAME":"東區","LI":"忠孝里","LIN":"9鄰","STREET":"榮譽街","SECT":" ","MAREA":" ","LANE":" ","ALLEY":" ","HOUSE_NO":"９０號三樓之５","E_COORD97":169776.63,"N_COORD97":2541700.46,"ADDRESS":"榮譽街９０號三樓之５","OBJECTID":561126},"geometry":{"x":169776.62999999989,"y":2541700.4600000028}},{"attributes":{"ID":561154,"DIS_CODE":0,"TOWNNAME":"東區","LI":"忠孝里","LIN":"9鄰","STREET":"榮譽街","SECT":" ","MAREA":" ","LANE":" ","ALLEY":" ","HOUSE_NO":"９０號五樓之１４","E_COORD97":169776.63,"N_COORD97":2541700.46,"ADDRESS":"榮譽街９０號五樓之１４","OBJECTID":561127},"geometry":{"x":169776.62999999989,"y":2541700.4600000028}},{"attributes":{"ID":561155,"DIS_CODE":0,"TOWNNAME":"東區","LI":"忠孝里","LIN":"9鄰","STREET":"榮譽街","SECT":" ","MAREA":" ","LANE":" ","ALLEY":" ","HOUSE_NO":"９０號五樓之１５","E_COORD97":169776.63,"N_COORD97":2541700.46,"ADDRESS":"榮譽街９０號五樓之１５","OBJECTID":561128},"geometry":{"x":169776.62999999989,"y":2541700.4600000028}},{"attributes":{"ID":561156,"DIS_CODE":0,"TOWNNAME":"東區","LI":"忠孝里","LIN":"9鄰","STREET":"榮譽街","SECT":" ","MAREA":" ","LANE":" ","ALLEY":" ","HOUSE_NO":"９０號五樓之２","E_COORD97":169776.63,"N_COORD97":2541700.46,"ADDRESS":"榮譽街９０號五樓之２","OBJECTID":561129},"geometry":{"x":169776.62999999989,"y":2541700.4600000028}},{"attributes":{"ID":561157,"DIS_CODE":0,"TOWNNAME":"東區","LI":"忠孝里","LIN":"9鄰","STREET":"榮譽街","SECT":" ","MAREA":" ","LANE":" ","ALLEY":" ","HOUSE_NO":"９０號五樓之７","E_COORD97":169776.63,"N_COORD97":2541700.46,"ADDRESS":"榮譽街９０號五樓之７","OBJECTID":561130},"geometry":{"x":169776.62999999989,"y":2541700.4600000028}},{"attributes":{"ID":561158,"DIS_CODE":0,"TOWNNAME":"東區","LI":"忠孝里","LIN":"9鄰","STREET":"榮譽街","SECT":" ","MAREA":" ","LANE":" ","ALLEY":" ","HOUSE_NO":"９０號六樓之１","E_COORD97":169776.63,"N_COORD97":2541700.46,"ADDRESS":"榮譽街９０號六樓之１","OBJECTID":561131},"geometry":{"x":169776.62999999989,"y":2541700.4600000028}},{"attributes":{"ID":561159,"DIS_CODE":0,"TOWNNAME":"東區","LI":"忠孝里","LIN":"9鄰","STREET":"榮譽街","SECT":" ","MAREA":" ","LANE":" ","ALLEY":" ","HOUSE_NO":"９０號六樓之１０","E_COORD97":169776.63,"N_COORD97":2541700.46,"ADDRESS":"榮譽街９０號六樓之１０","OBJECTID":561132},"geometry":{"x":169776.62999999989,"y":2541700.4600000028}},{"attributes":{"ID":561160,"DIS_CODE":0,"TOWNNAME":"東區","LI":"忠孝里","LIN":"9鄰","STREET":"榮譽街","SECT":" ","MAREA":" ","LANE":" ","ALLEY":" ","HOUSE_NO":"９０號六樓之２","E_COORD97":169776.63,"N_COORD97":2541700.46,"ADDRESS":"榮譽街９０號六樓之２","OBJECTID":561133},"geometry":{"x":169776.62999999989,"y":2541700.4600000028}},{"attributes":{"ID":561161,"DIS_CODE":0,"TOWNNAME":"東區","LI":"忠孝里","LIN":"9鄰","STREET":"榮譽街","SECT":" ","MAREA":" ","LANE":" ","ALLEY":" ","HOUSE_NO":"９０號六樓之５","E_COORD97":169776.63,"N_COORD97":2541700.46,"ADDRESS":"榮譽街９０號六樓之５","OBJECTID":561134},"geometry":{"x":169776.62999999989,"y":2541700.4600000028}},{"attributes":{"ID":561162,"DIS_CODE":0,"TOWNNAME":"東區","LI":"忠孝里","LIN":"9鄰","STREET":"榮譽街","SECT":" ","MAREA":" ","LANE":" ","ALLEY":" ","HOUSE_NO":"９０號六樓之６","E_COORD97":169776.63,"N_COORD97":2541700.46,"ADDRESS":"榮譽街９０號六樓之６","OBJECTID":561135},"geometry":{"x":169776.62999999989,"y":2541700.4600000028}},{"attributes":{"ID":561163,"DIS_CODE":0,"TOWNNAME":"東區","LI":"忠孝里","LIN":"9鄰","STREET":"榮譽街","SECT":" ","MAREA":" ","LANE":" ","ALLEY":" ","HOUSE_NO":"９０號四樓之１０","E_COORD97":169776.63,"N_COORD97":2541700.46,"ADDRESS":"榮譽街９０號四樓之１０","OBJECTID":561136},"geometry":{"x":169776.62999999989,"y":2541700.4600000028}},{"attributes":{"ID":561164,"DIS_CODE":0,"TOWNNAME":"東區","LI":"忠孝里","LIN":"9鄰","STREET":"榮譽街","SECT":" ","MAREA":" ","LANE":" ","ALLEY":" ","HOUSE_NO":"９０號四樓之１２","E_COORD97":169776.63,"N_COORD97":2541700.46,"ADDRESS":"榮譽街９０號四樓之１２","OBJECTID":561137},"geometry":{"x":169776.62999999989,"y":2541700.4600000028}},{"attributes":{"ID":561165,"DIS_CODE":0,"TOWNNAME":"東區","LI":"忠孝里","LIN":"9鄰","STREET":"榮譽街","SECT":" ","MAREA":" ","LANE":" ","ALLEY":" ","HOUSE_NO":"９０號四樓之２","E_COORD97":169776.63,"N_COORD97":2541700.46,"ADDRESS":"榮譽街９０號四樓之２","OBJECTID":561138},"geometry":{"x":169776.62999999989,"y":2541700.4600000028}},{"attributes":{"ID":561166,"DIS_CODE":0,"TOWNNAME":"東區","LI":"忠孝里","LIN":"9鄰","STREET":"榮譽街","SECT":" ","MAREA":" ","LANE":" ","ALLEY":" ","HOUSE_NO":"９０號四樓之６","E_COORD97":169776.63,"N_COORD97":2541700.46,"ADDRESS":"榮譽街９０號四樓之６","OBJECTID":561139},"geometry":{"x":169776.62999999989,"y":2541700.4600000028}},{"attributes":{"ID":561167,"DIS_CODE":0,"TOWNNAME":"東區","LI":"忠孝里","LIN":"9鄰","STREET":"榮譽街","SECT":" ","MAREA":" ","LANE":" ","ALLEY":" ","HOUSE_NO":"９０號四樓之９","E_COORD97":169776.63,"N_COORD97":2541700.46,"ADDRESS":"榮譽街９０號四樓之９","OBJECTID":561140},"geometry":{"x":169776.62999999989,"y":2541700.4600000028}},{"attributes":{"ID":561168,"DIS_CODE":0,"TOWNNAME":"東區","LI":"忠孝里","LIN":"9鄰","STREET":"榮譽街","SECT":" ","MAREA":" ","LANE":" ","ALLEY":" ","HOUSE_NO":"９０號三樓之１０","E_COORD97":169776.63,"N_COORD97":2541700.46,"ADDRESS":"榮譽街９０號三樓之１０","OBJECTID":561141},"geometry":{"x":169776.62999999989,"y":2541700.4600000028}},{"attributes":{"ID":561169,"DIS_CODE":0,"TOWNNAME":"東區","LI":"忠孝里","LIN":"9鄰","STREET":"榮譽街","SECT":" ","MAREA":" ","LANE":" ","ALLEY":" ","HOUSE_NO":"９０號五樓之３","E_COORD97":169776.63,"N_COORD97":2541700.46,"ADDRESS":"榮譽街９０號五樓之３","OBJECTID":561142},"geometry":{"x":169776.62999999989,"y":2541700.4600000028}},{"attributes":{"ID":561170,"DIS_CODE":0,"TOWNNAME":"東區","LI":"忠孝里","LIN":"9鄰","STREET":"榮譽街","SECT":" ","MAREA":" ","LANE":" ","ALLEY":" ","HOUSE_NO":"９０號四樓之１３","E_COORD97":169776.63,"N_COORD97":2541700.46,"ADDRESS":"榮譽街９０號四樓之１３","OBJECTID":561143},"geometry":{"x":169776.62999999989,"y":2541700.4600000028}},{"attributes":{"ID":561171,"DIS_CODE":0,"TOWNNAME":"東區","LI":"忠孝里","LIN":"9鄰","STREET":"榮譽街","SECT":" ","MAREA":" ","LANE":" ","ALLEY":" ","HOUSE_NO":"９０號二樓之２","E_COORD97":169776.63,"N_COORD97":2541700.46,"ADDRESS":"榮譽街９０號二樓之２","OBJECTID":561144},"geometry":{"x":169776.62999999989,"y":2541700.4600000028}},{"attributes":{"ID":561172,"DIS_CODE":0,"TOWNNAME":"東區","LI":"忠孝里","LIN":"9鄰","STREET":"榮譽街","SECT":" ","MAREA":" ","LANE":" ","ALLEY":" ","HOUSE_NO":"９０號四樓之８","E_COORD97":169776.63,"N_COORD97":2541700.46,"ADDRESS":"榮譽街９０號四樓之８","OBJECTID":561145},"geometry":{"x":169776.62999999989,"y":2541700.4600000028}},{"attributes":{"ID":561173,"DIS_CODE":0,"TOWNNAME":"東區","LI":"忠孝里","LIN":"9鄰","STREET":"榮譽街","SECT":" ","MAREA":" ","LANE":" ","ALLEY":" ","HOUSE_NO":"９０號五樓之１０","E_COORD97":169776.63,"N_COORD97":2541700.46,"ADDRESS":"榮譽街９０號五樓之１０","OBJECTID":561146},"geometry":{"x":169776.62999999989,"y":2541700.4600000028}},{"attributes":{"ID":561174,"DIS_CODE":0,"TOWNNAME":"東區","LI":"忠孝里","LIN":"9鄰","STREET":"榮譽街","SECT":" ","MAREA":" ","LANE":" ","ALLEY":" ","HOUSE_NO":"９０號五樓之８","E_COORD97":169776.63,"N_COORD97":2541700.46,"ADDRESS":"榮譽街９０號五樓之８","OBJECTID":561147},"geometry":{"x":169776.62999999989,"y":2541700.4600000028}},{"attributes":{"ID":561175,"DIS_CODE":0,"TOWNNAME":"東區","LI":"忠孝里","LIN":"9鄰","STREET":"榮譽街","SECT":" ","MAREA":" ","LANE":" ","ALLEY":" ","HOUSE_NO":"９０號六樓之９","E_COORD97":169776.63,"N_COORD97":2541700.46,"ADDRESS":"榮譽街９０號六樓之９","OBJECTID":561148},"geometry":{"x":169776.62999999989,"y":2541700.4600000028}},{"attributes":{"ID":561176,"DIS_CODE":0,"TOWNNAME":"東區","LI":"忠孝里","LIN":"9鄰","STREET":"榮譽街","SECT":" ","MAREA":" ","LANE":" ","ALLEY":" ","HOUSE_NO":"９０號六樓之１１","E_COORD97":169776.63,"N_COORD97":2541700.46,"ADDRESS":"榮譽街９０號六樓之１１","OBJECTID":561149},"geometry":{"x":169776.62999999989,"y":2541700.4600000028}},{"attributes":{"ID":561177,"DIS_CODE":0,"TOWNNAME":"東區","LI":"忠孝里","LIN":"9鄰","STREET":"榮譽街","SECT":" ","MAREA":" ","LANE":" ","ALLEY":" ","HOUSE_NO":"９０號二樓之５","E_COORD97":169776.63,"N_COORD97":2541700.46,"ADDRESS":"榮譽街９０號二樓之５","OBJECTID":561150},"geometry":{"x":169776.62999999989,"y":2541700.4600000028}},{"attributes":{"ID":561178,"DIS_CODE":0,"TOWNNAME":"東區","LI":"忠孝里","LIN":"9鄰","STREET":"榮譽街","SECT":" ","MAREA":" ","LANE":" ","ALLEY":" ","HOUSE_NO":"９０號二樓之６","E_COORD97":169776.63,"N_COORD97":2541700.46,"ADDRESS":"榮譽街９０號二樓之６","OBJECTID":561151},"geometry":{"x":169776.62999999989,"y":2541700.4600000028}},{"attributes":{"ID":561179,"DIS_CODE":0,"TOWNNAME":"東區","LI":"忠孝里","LIN":"9鄰","STREET":"榮譽街","SECT":" ","MAREA":" ","LANE":" ","ALLEY":" ","HOUSE_NO":"９０號二樓之７","E_COORD97":169776.63,"N_COORD97":2541700.46,"ADDRESS":"榮譽街９０號二樓之７","OBJECTID":561152},"geometry":{"x":169776.62999999989,"y":2541700.4600000028}},{"attributes":{"ID":561180,"DIS_CODE":0,"TOWNNAME":"東區","LI":"忠孝里","LIN":"9鄰","STREET":"榮譽街","SECT":" ","MAREA":" ","LANE":" ","ALLEY":" ","HOUSE_NO":"９０號二樓之８","E_COORD97":169776.63,"N_COORD97":2541700.46,"ADDRESS":"榮譽街９０號二樓之８","OBJECTID":561153},"geometry":{"x":169776.62999999989,"y":2541700.4600000028}},{"attributes":{"ID":561181,"DIS_CODE":0,"TOWNNAME":"東區","LI":"忠孝里","LIN":"9鄰","STREET":"榮譽街","SECT":" ","MAREA":" ","LANE":" ","ALLEY":" ","HOUSE_NO":"９０號二樓之１０","E_COORD97":169776.63,"N_COORD97":2541700.46,"ADDRESS":"榮譽街９０號二樓之１０","OBJECTID":561154},"geometry":{"x":169776.62999999989,"y":2541700.4600000028}},{"attributes":{"ID":561182,"DIS_CODE":0,"TOWNNAME":"東區","LI":"忠孝里","LIN":"9鄰","STREET":"榮譽街","SECT":" ","MAREA":" ","LANE":" ","ALLEY":" ","HOUSE_NO":"９０號二樓之１１","E_COORD97":169776.63,"N_COORD97":2541700.46,"ADDRESS":"榮譽街９０號二樓之１１","OBJECTID":561155},"geometry":{"x":169776.62999999989,"y":2541700.4600000028}},{"attributes":{"ID":561183,"DIS_CODE":0,"TOWNNAME":"東區","LI":"忠孝里","LIN":"9鄰","STREET":"榮譽街","SECT":" ","MAREA":" ","LANE":" ","ALLEY":" ","HOUSE_NO":"９０號三樓之１","E_COORD97":169776.63,"N_COORD97":2541700.46,"ADDRESS":"榮譽街９０號三樓之１","OBJECTID":561156},"geometry":{"x":169776.62999999989,"y":2541700.4600000028}},{"attributes":{"ID":561184,"DIS_CODE":0,"TOWNNAME":"東區","LI":"忠孝里","LIN":"9鄰","STREET":"榮譽街","SECT":" ","MAREA":" ","LANE":" ","ALLEY":" ","HOUSE_NO":"９０號三樓之２","E_COORD97":169776.63,"N_COORD97":2541700.46,"ADDRESS":"榮譽街９０號三樓之２","OBJECTID":561157},"geometry":{"x":169776.62999999989,"y":2541700.4600000028}},{"attributes":{"ID":561185,"DIS_CODE":0,"TOWNNAME":"東區","LI":"忠孝里","LIN":"9鄰","STREET":"榮譽街","SECT":" ","MAREA":" ","LANE":" ","ALLEY":" ","HOUSE_NO":"９０號三樓之３","E_COORD97":169776.63,"N_COORD97":2541700.46,"ADDRESS":"榮譽街９０號三樓之３","OBJECTID":561158},"geometry":{"x":169776.62999999989,"y":2541700.4600000028}},{"attributes":{"ID":561186,"DIS_CODE":0,"TOWNNAME":"東區","LI":"忠孝里","LIN":"9鄰","STREET":"榮譽街","SECT":" ","MAREA":" ","LANE":" ","ALLEY":" ","HOUSE_NO":"９０號三樓之４","E_COORD97":169776.63,"N_COORD97":2541700.46,"ADDRESS":"榮譽街９０號三樓之４","OBJECTID":561159},"geometry":{"x":169776.62999999989,"y":2541700.4600000028}},{"attributes":{"ID":561187,"DIS_CODE":0,"TOWNNAME":"東區","LI":"忠孝里","LIN":"9鄰","STREET":"榮譽街","SECT":" ","MAREA":" ","LANE":" ","ALLEY":" ","HOUSE_NO":"９０號三樓之６","E_COORD97":169776.63,"N_COORD97":2541700.46,"ADDRESS":"榮譽街９０號三樓之６","OBJECTID":561160},"geometry":{"x":169776.62999999989,"y":2541700.4600000028}},{"attributes":{"ID":561188,"DIS_CODE":0,"TOWNNAME":"東區","LI":"忠孝里","LIN":"9鄰","STREET":"榮譽街","SECT":" ","MAREA":" ","LANE":" ","ALLEY":" ","HOUSE_NO":"９０號三樓之７","E_COORD97":169776.63,"N_COORD97":2541700.46,"ADDRESS":"榮譽街９０號三樓之７","OBJECTID":561161},"geometry":{"x":169776.62999999989,"y":2541700.4600000028}},{"attributes":{"ID":561189,"DIS_CODE":0,"TOWNNAME":"東區","LI":"忠孝里","LIN":"9鄰","STREET":"榮譽街","SECT":" ","MAREA":" ","LANE":" ","ALLEY":" ","HOUSE_NO":"９０號三樓之８","E_COORD97":169776.63,"N_COORD97":2541700.46,"ADDRESS":"榮譽街９０號三樓之８","OBJECTID":561162},"geometry":{"x":169776.62999999989,"y":2541700.4600000028}},{"attributes":{"ID":561190,"DIS_CODE":0,"TOWNNAME":"東區","LI":"忠孝里","LIN":"9鄰","STREET":"榮譽街","SECT":" ","MAREA":" ","LANE":" ","ALLEY":" ","HOUSE_NO":"９０號三樓之９","E_COORD97":169776.63,"N_COORD97":2541700.46,"ADDRESS":"榮譽街９０號三樓之９","OBJECTID":561163},"geometry":{"x":169776.62999999989,"y":2541700.4600000028}},{"attributes":{"ID":561191,"DIS_CODE":0,"TOWNNAME":"東區","LI":"忠孝里","LIN":"9鄰","STREET":"榮譽街","SECT":" ","MAREA":" ","LANE":" ","ALLEY":" ","HOUSE_NO":"９０號三樓之１１","E_COORD97":169776.63,"N_COORD97":2541700.46,"ADDRESS":"榮譽街９０號三樓之１１","OBJECTID":561164},"geometry":{"x":169776.62999999989,"y":2541700.4600000028}},{"attributes":{"ID":561192,"DIS_CODE":0,"TOWNNAME":"東區","LI":"忠孝里","LIN":"9鄰","STREET":"榮譽街","SECT":" ","MAREA":" ","LANE":" ","ALLEY":" ","HOUSE_NO":"９０號三樓之１２","E_COORD97":169776.63,"N_COORD97":2541700.46,"ADDRESS":"榮譽街９０號三樓之１２","OBJECTID":561165},"geometry":{"x":169776.62999999989,"y":2541700.4600000028}},{"attributes":{"ID":561193,"DIS_CODE":0,"TOWNNAME":"東區","LI":"忠孝里","LIN":"9鄰","STREET":"榮譽街","SECT":" ","MAREA":" ","LANE":" ","ALLEY":" ","HOUSE_NO":"９０號四樓","E_COORD97":169776.63,"N_COORD97":2541700.46,"ADDRESS":"榮譽街９０號四樓","OBJECTID":561166},"geometry":{"x":169776.62999999989,"y":2541700.4600000028}},{"attributes":{"ID":561194,"DIS_CODE":0,"TOWNNAME":"東區","LI":"忠孝里","LIN":"9鄰","STREET":"榮譽街","SECT":" ","MAREA":" ","LANE":" ","ALLEY":" ","HOUSE_NO":"９０號四樓之１","E_COORD97":169776.63,"N_COORD97":2541700.46,"ADDRESS":"榮譽街９０號四樓之１","OBJECTID":561167},"geometry":{"x":169776.62999999989,"y":2541700.4600000028}},{"attributes":{"ID":561195,"DIS_CODE":0,"TOWNNAME":"東區","LI":"忠孝里","LIN":"9鄰","STREET":"榮譽街","SECT":" ","MAREA":" ","LANE":" ","ALLEY":" ","HOUSE_NO":"９０號四樓之３","E_COORD97":169776.63,"N_COORD97":2541700.46,"ADDRESS":"榮譽街９０號四樓之３","OBJECTID":561168},"geometry":{"x":169776.62999999989,"y":2541700.4600000028}},{"attributes":{"ID":561196,"DIS_CODE":0,"TOWNNAME":"東區","LI":"忠孝里","LIN":"9鄰","STREET":"榮譽街","SECT":" ","MAREA":" ","LANE":" ","ALLEY":" ","HOUSE_NO":"９０號四樓之４","E_COORD97":169776.63,"N_COORD97":2541700.46,"ADDRESS":"榮譽街９０號四樓之４","OBJECTID":561169},"geometry":{"x":169776.62999999989,"y":2541700.4600000028}},{"attributes":{"ID":561197,"DIS_CODE":0,"TOWNNAME":"東區","LI":"忠孝里","LIN":"9鄰","STREET":"榮譽街","SECT":" ","MAREA":" ","LANE":" ","ALLEY":" ","HOUSE_NO":"９０號四樓之５","E_COORD97":169776.63,"N_COORD97":2541700.46,"ADDRESS":"榮譽街９０號四樓之５","OBJECTID":561170},"geometry":{"x":169776.62999999989,"y":2541700.4600000028}},{"attributes":{"ID":561198,"DIS_CODE":0,"TOWNNAME":"東區","LI":"忠孝里","LIN":"9鄰","STREET":"榮譽街","SECT":" ","MAREA":" ","LANE":" ","ALLEY":" ","HOUSE_NO":"９０號四樓之７","E_COORD97":169776.63,"N_COORD97":2541700.46,"ADDRESS":"榮譽街９０號四樓之７","OBJECTID":561171},"geometry":{"x":169776.62999999989,"y":2541700.4600000028}},{"attributes":{"ID":561199,"DIS_CODE":0,"TOWNNAME":"東區","LI":"忠孝里","LIN":"9鄰","STREET":"榮譽街","SECT":" ","MAREA":" ","LANE":" ","ALLEY":" ","HOUSE_NO":"９０號四樓之１１","E_COORD97":169776.63,"N_COORD97":2541700.46,"ADDRESS":"榮譽街９０號四樓之１１","OBJECTID":561172},"geometry":{"x":169776.62999999989,"y":2541700.4600000028}},{"attributes":{"ID":561200,"DIS_CODE":0,"TOWNNAME":"東區","LI":"忠孝里","LIN":"9鄰","STREET":"榮譽街","SECT":" ","MAREA":" ","LANE":" ","ALLEY":" ","HOUSE_NO":"９０號五樓之１","E_COORD97":169776.63,"N_COORD97":2541700.46,"ADDRESS":"榮譽街９０號五樓之１","OBJECTID":561173},"geometry":{"x":169776.62999999989,"y":2541700.4600000028}},{"attributes":{"ID":561201,"DIS_CODE":0,"TOWNNAME":"東區","LI":"忠孝里","LIN":"9鄰","STREET":"榮譽街","SECT":" ","MAREA":" ","LANE":" ","ALLEY":" ","HOUSE_NO":"９０號五樓之４","E_COORD97":169776.63,"N_COORD97":2541700.46,"ADDRESS":"榮譽街９０號五樓之４","OBJECTID":561174},"geometry":{"x":169776.62999999989,"y":2541700.4600000028}},{"attributes":{"ID":561202,"DIS_CODE":0,"TOWNNAME":"東區","LI":"忠孝里","LIN":"9鄰","STREET":"榮譽街","SECT":" ","MAREA":" ","LANE":" ","ALLEY":" ","HOUSE_NO":"９０號五樓之６","E_COORD97":169776.63,"N_COORD97":2541700.46,"ADDRESS":"榮譽街９０號五樓之６","OBJECTID":561175},"geometry":{"x":169776.62999999989,"y":2541700.4600000028}},{"attributes":{"ID":561203,"DIS_CODE":0,"TOWNNAME":"東區","LI":"忠孝里","LIN":"9鄰","STREET":"榮譽街","SECT":" ","MAREA":" ","LANE":" ","ALLEY":" ","HOUSE_NO":"９０號五樓之９","E_COORD97":169776.63,"N_COORD97":2541700.46,"ADDRESS":"榮譽街９０號五樓之９","OBJECTID":561176},"geometry":{"x":169776.62999999989,"y":2541700.4600000028}},{"attributes":{"ID":561204,"DIS_CODE":0,"TOWNNAME":"東區","LI":"忠孝里","LIN":"9鄰","STREET":"榮譽街","SECT":" ","MAREA":" ","LANE":" ","ALLEY":" ","HOUSE_NO":"９０號五樓之１１","E_COORD97":169776.63,"N_COORD97":2541700.46,"ADDRESS":"榮譽街９０號五樓之１１","OBJECTID":561177},"geometry":{"x":169776.62999999989,"y":2541700.4600000028}},{"attributes":{"ID":561205,"DIS_CODE":0,"TOWNNAME":"東區","LI":"忠孝里","LIN":"9鄰","STREET":"榮譽街","SECT":" ","MAREA":" ","LANE":" ","ALLEY":" ","HOUSE_NO":"９０號五樓之１２","E_COORD97":169776.63,"N_COORD97":2541700.46,"ADDRESS":"榮譽街９０號五樓之１２","OBJECTID":561178},"geometry":{"x":169776.62999999989,"y":2541700.4600000028}},{"attributes":{"ID":561206,"DIS_CODE":0,"TOWNNAME":"仁德區","LI":"仁德里","LIN":"9鄰","STREET":"仁德二街","SECT":" ","MAREA":" ","LANE":" ","ALLEY":" ","HOUSE_NO":"３２號四樓之２","E_COORD97":173229.73000000001,"N_COORD97":2541078.79,"ADDRESS":"仁德二街３２號四樓之２","OBJECTID":561179},"geometry":{"x":173229.73000000045,"y":2541078.790000001}},{"attributes":{"ID":561207,"DIS_CODE":0,"TOWNNAME":"仁德區","LI":"仁德里","LIN":"9鄰","STREET":"仁德二街","SECT":" ","MAREA":" ","LANE":" ","ALLEY":" ","HOUSE_NO":"３２號二樓之２","E_COORD97":173229.73000000001,"N_COORD97":2541078.79,"ADDRESS":"仁德二街３２號二樓之２","OBJECTID":561180},"geometry":{"x":173229.73000000045,"y":2541078.790000001}},{"attributes":{"ID":561208,"DIS_CODE":0,"TOWNNAME":"仁德區","LI":"仁德里","LIN":"9鄰","STREET":"仁德二街","SECT":" ","MAREA":" ","LANE":" ","ALLEY":" ","HOUSE_NO":"３２號二樓之４","E_COORD97":173229.62,"N_COORD97":2541078.79,"ADDRESS":"仁德二街３２號二樓之４","OBJECTID":561181},"geometry":{"x":173229.62000000011,"y":2541078.790000001}},{"attributes":{"ID":561209,"DIS_CODE":0,"TOWNNAME":"永康區","LI":"大橋里","LIN":"9鄰","STREET":"大橋三街","SECT":" ","MAREA":" ","LANE":" ","ALLEY":" ","HOUSE_NO":"２８７號七樓之２","E_COORD97":171119.37,"N_COORD97":2546965.5499999998,"ADDRESS":"大橋三街２８７號七樓之２","OBJECTID":561182},"geometry":{"x":171119.37000000011,"y":2546965.5500000026}},{"attributes":{"ID":561210,"DIS_CODE":0,"TOWNNAME":"永康區","LI":"大橋里","LIN":"9鄰","STREET":"大橋三街","SECT":" ","MAREA":" ","LANE":" ","ALLEY":" ","HOUSE_NO":"２８７號三樓之１","E_COORD97":171119.23000000001,"N_COORD97":2546965.5499999998,"ADDRESS":"大橋三街２８７號三樓之１","OBJECTID":561183},"geometry":{"x":171119.23000000045,"y":2546965.5500000026}},{"attributes":{"ID":561211,"DIS_CODE":0,"TOWNNAME":"永康區","LI":"大橋里","LIN":"9鄰","STREET":"大橋三街","SECT":" ","MAREA":" ","LANE":" ","ALLEY":" ","HOUSE_NO":"２８７號四樓之１","E_COORD97":171119.23000000001,"N_COORD97":2546965.5499999998,"ADDRESS":"大橋三街２８７號四樓之１","OBJECTID":561184},"geometry":{"x":171119.23000000045,"y":2546965.5500000026}},{"attributes":{"ID":561212,"DIS_CODE":0,"TOWNNAME":"中西區","LI":"天后里","LIN":"24鄰","STREET":"郡緯街","SECT":" ","MAREA":" ","LANE":" ","ALLEY":" ","HOUSE_NO":"２號","E_COORD97":168212.92000000001,"N_COORD97":2544290.5299999998,"ADDRESS":"郡緯街２號","OBJECTID":561185},"geometry":{"x":168212.91999999993,"y":2544290.5299999993}},{"attributes":{"ID":561213,"DIS_CODE":0,"TOWNNAME":"永康區","LI":"大橋里","LIN":"9鄰","STREET":"大橋三街","SECT":" ","MAREA":" ","LANE":" ","ALLEY":" ","HOUSE_NO":"２８１號四樓之１","E_COORD97":171125.42000000001,"N_COORD97":2546950.7599999998,"ADDRESS":"大橋三街２８１號四樓之１","OBJECTID":561186},"geometry":{"x":171125.41999999993,"y":2546950.7599999998}},{"attributes":{"ID":561214,"DIS_CODE":0,"TOWNNAME":"永康區","LI":"大橋里","LIN":"9鄰","STREET":"大橋三街","SECT":" ","MAREA":" ","LANE":" ","ALLEY":" ","HOUSE_NO":"２８７號二樓之２","E_COORD97":171119.37,"N_COORD97":2546965.5499999998,"ADDRESS":"大橋三街２８７號二樓之２","OBJECTID":561187},"geometry":{"x":171119.37000000011,"y":2546965.5500000026}},{"attributes":{"ID":561215,"DIS_CODE":0,"TOWNNAME":"永康區","LI":"大橋里","LIN":"9鄰","STREET":"大橋三街","SECT":" ","MAREA":" ","LANE":" ","ALLEY":" ","HOUSE_NO":"２８１號五樓之２","E_COORD97":171125.56,"N_COORD97":2546950.7599999998,"ADDRESS":"大橋三街２８１號五樓之２","OBJECTID":561188},"geometry":{"x":171125.56000000052,"y":2546950.7599999998}},{"attributes":{"ID":561216,"DIS_CODE":0,"TOWNNAME":"永康區","LI":"大橋里","LIN":"9鄰","STREET":"大橋三街","SECT":" ","MAREA":" ","LANE":" ","ALLEY":" ","HOUSE_NO":"２８１號七樓之２","E_COORD97":171125.56,"N_COORD97":2546950.7599999998,"ADDRESS":"大橋三街２８１號七樓之２","OBJECTID":561189},"geometry":{"x":171125.56000000052,"y":2546950.7599999998}},{"attributes":{"ID":561217,"DIS_CODE":0,"TOWNNAME":"永康區","LI":"大橋里","LIN":"9鄰","STREET":"大橋三街","SECT":" ","MAREA":" ","LANE":" ","ALLEY":" ","HOUSE_NO":"２８７號五樓之２","E_COORD97":171119.37,"N_COORD97":2546965.5499999998,"ADDRESS":"大橋三街２８７號五樓之２","OBJECTID":561190},"geometry":{"x":171119.37000000011,"y":2546965.5500000026}},{"attributes":{"ID":561218,"DIS_CODE":0,"TOWNNAME":"永康區","LI":"大橋里","LIN":"9鄰","STREET":"大橋三街","SECT":" ","MAREA":" ","LANE":" ","ALLEY":" ","HOUSE_NO":"２８７號五樓之１","E_COORD97":171119.23000000001,"N_COORD97":2546965.5499999998,"ADDRESS":"大橋三街２８７號五樓之１","OBJECTID":561191},"geometry":{"x":171119.23000000045,"y":2546965.5500000026}},{"attributes":{"ID":561219,"DIS_CODE":0,"TOWNNAME":"永康區","LI":"大橋里","LIN":"9鄰","STREET":"大橋三街","SECT":" ","MAREA":" ","LANE":" ","ALLEY":" ","HOUSE_NO":"２８１號五樓之３","E_COORD97":171125.51999999999,"N_COORD97":2546950.7599999998,"ADDRESS":"大橋三街２８１號五樓之３","OBJECTID":561192},"geometry":{"x":171125.52000000048,"y":2546950.7599999998}},{"attributes":{"ID":561220,"DIS_CODE":0,"TOWNNAME":"永康區","LI":"大橋里","LIN":"9鄰","STREET":"大橋三街","SECT":" ","MAREA":" ","LANE":" ","ALLEY":" ","HOUSE_NO":"２８１號六樓之２","E_COORD97":171125.56,"N_COORD97":2546950.7599999998,"ADDRESS":"大橋三街２８１號六樓之２","OBJECTID":561193},"geometry":{"x":171125.56000000052,"y":2546950.7599999998}},{"attributes":{"ID":561221,"DIS_CODE":0,"TOWNNAME":"永康區","LI":"大橋里","LIN":"9鄰","STREET":"大橋三街","SECT":" ","MAREA":" ","LANE":" ","ALLEY":" ","HOUSE_NO":"２８７號三樓之２","E_COORD97":171119.37,"N_COORD97":2546965.5499999998,"ADDRESS":"大橋三街２８７號三樓之２","OBJECTID":561194},"geometry":{"x":171119.37000000011,"y":2546965.5500000026}},{"attributes":{"ID":561222,"DIS_CODE":0,"TOWNNAME":"仁德區","LI":"一甲里","LIN":"20鄰","STREET":"太乙六街","SECT":" ","MAREA":" ","LANE":" ","ALLEY":" ","HOUSE_NO":"６８號","E_COORD97":173187.87,"N_COORD97":2542271.7599999998,"ADDRESS":"太乙六街６８號","OBJECTID":561195},"geometry":{"x":173187.86999999918,"y":2542271.7599999998}},{"attributes":{"ID":561223,"DIS_CODE":0,"TOWNNAME":"永康區","LI":"大橋里","LIN":"9鄰","STREET":"大橋三街","SECT":" ","MAREA":" ","LANE":" ","ALLEY":" ","HOUSE_NO":"２８１號六樓之１","E_COORD97":171125.42000000001,"N_COORD97":2546950.7599999998,"ADDRESS":"大橋三街２８１號六樓之１","OBJECTID":561196},"geometry":{"x":171125.41999999993,"y":2546950.7599999998}},{"attributes":{"ID":561224,"DIS_CODE":0,"TOWNNAME":"永康區","LI":"大橋里","LIN":"9鄰","STREET":"大橋三街","SECT":" ","MAREA":" ","LANE":" ","ALLEY":" ","HOUSE_NO":"２８１號七樓之１","E_COORD97":171125.42000000001,"N_COORD97":2546950.7599999998,"ADDRESS":"大橋三街２８１號七樓之１","OBJECTID":561197},"geometry":{"x":171125.41999999993,"y":2546950.7599999998}},{"attributes":{"ID":561225,"DIS_CODE":0,"TOWNNAME":"中西區","LI":"藥王里","LIN":"9鄰","STREET":"民權路","SECT":"三段","MAREA":" ","LANE":" ","ALLEY":" ","HOUSE_NO":"３３６號七樓之１","E_COORD97":167012.35999999999,"N_COORD97":2544333.1000000001,"ADDRESS":"民權路三段３３６號七樓之１","OBJECTID":561198},"geometry":{"x":167012.36000000034,"y":2544333.1000000015}},{"attributes":{"ID":561226,"DIS_CODE":0,"TOWNNAME":"中西區","LI":"藥王里","LIN":"9鄰","STREET":"民權路","SECT":"三段","MAREA":" ","LANE":" ","ALLEY":" ","HOUSE_NO":"３３６號七樓之２","E_COORD97":167012.35999999999,"N_COORD97":2544333.1000000001,"ADDRESS":"民權路三段３３６號七樓之２","OBJECTID":561199},"geometry":{"x":167012.36000000034,"y":2544333.1000000015}},{"attributes":{"ID":561227,"DIS_CODE":0,"TOWNNAME":"中西區","LI":"藥王里","LIN":"9鄰","STREET":"民權路","SECT":"三段","MAREA":" ","LANE":" ","ALLEY":" ","HOUSE_NO":"３３６號七樓之３","E_COORD97":167012.35999999999,"N_COORD97":2544333.1000000001,"ADDRESS":"民權路三段３３６號七樓之３","OBJECTID":561200},"geometry":{"x":167012.36000000034,"y":2544333.1000000015}}]}