{"displayFieldName":"TOWNNAME","fieldAliases":{"ID":"ID","DIS_CODE":"DIS_CODE","TOWNNAME":"TOWNNAME","LI":"LI","LIN":"LIN","STREET":"STREET","SECT":"SECT","MAREA":"MAREA","LANE":"LANE","ALLEY":"ALLEY","HOUSE_NO":"HOUSE_NO","E_COORD97":"E_COORD97","N_COORD97":"N_COORD97","ADDRESS":"ADDRESS","OBJECTID":"OBJECTID"},"geometryType":"esriGeometryPoint","spatialReference":{"wkid":102443,"latestWkid":3826},"fields":[{"name":"ID","type":"esriFieldTypeDouble","alias":"ID"},{"name":"DIS_CODE","type":"esriFieldTypeInteger","alias":"DIS_CODE"},{"name":"TOWNNAME","type":"esriFieldTypeString","alias":"TOWNNAME","length":8},{"name":"LI","type":"esriFieldTypeString","alias":"LI","length":8},{"name":"LIN","type":"esriFieldTypeString","alias":"LIN","length":12},{"name":"STREET","type":"esriFieldTypeString","alias":"STREET","length":20},{"name":"SECT","type":"esriFieldTypeString","alias":"SECT","length":8},{"name":"MAREA","type":"esriFieldTypeString","alias":"MAREA","length":12},{"name":"LANE","type":"esriFieldTypeString","alias":"LANE","length":10},{"name":"ALLEY","type":"esriFieldTypeString","alias":"ALLEY","length":10},{"name":"HOUSE_NO","type":"esriFieldTypeString","alias":"HOUSE_NO","length":20},{"name":"E_COORD97","type":"esriFieldTypeDouble","alias":"E_COORD97"},{"name":"N_COORD97","type":"esriFieldTypeDouble","alias":"N_COORD97"},{"name":"ADDRESS","type":"esriFieldTypeString","alias":"ADDRESS","length":50},{"name":"OBJECTID","type":"esriFieldTypeOID","alias":"OBJECTID"}],"features":[{"attributes":{"ID":566028,"DIS_CODE":0,"TOWNNAME":"安南區","LI":"城北里","LIN":"9鄰","STREET":"城北路","SECT":" ","MAREA":" ","LANE":" ","ALLEY":" ","HOUSE_NO":"７號","E_COORD97":160838.75,"N_COORD97":2551497.9100000001,"ADDRESS":"城北路７號","OBJECTID":566001},"geometry":{"x":160838.75,"y":2551497.910000002}},{"attributes":{"ID":566029,"DIS_CODE":0,"TOWNNAME":"安南區","LI":"城北里","LIN":"9鄰","STREET":"城北路","SECT":" ","MAREA":" ","LANE":" ","ALLEY":" ","HOUSE_NO":"８１號","E_COORD97":160970.26000000001,"N_COORD97":2551578.5800000001,"ADDRESS":"城北路８１號","OBJECTID":566002},"geometry":{"x":160970.26000000071,"y":2551578.5800000019}},{"attributes":{"ID":566030,"DIS_CODE":0,"TOWNNAME":"安南區","LI":"青草里","LIN":"9鄰","STREET":"青砂街","SECT":"二段","MAREA":" ","LANE":" ","ALLEY":" ","HOUSE_NO":"３０１號","E_COORD97":159187.01000000001,"N_COORD97":2553089.3999999999,"ADDRESS":"青砂街二段３０１號","OBJECTID":566003},"geometry":{"x":159187.00999999978,"y":2553089.4000000022}},{"attributes":{"ID":566031,"DIS_CODE":0,"TOWNNAME":"安南區","LI":"青草里","LIN":"9鄰","STREET":"青砂街","SECT":"二段","MAREA":" ","LANE":" ","ALLEY":" ","HOUSE_NO":"３０７號","E_COORD97":159172.34,"N_COORD97":2553090.7000000002,"ADDRESS":"青砂街二段３０７號","OBJECTID":566004},"geometry":{"x":159172.34000000078,"y":2553090.6999999993}},{"attributes":{"ID":566032,"DIS_CODE":0,"TOWNNAME":"安南區","LI":"青草里","LIN":"9鄰","STREET":"青砂街","SECT":"二段","MAREA":" ","LANE":" ","ALLEY":" ","HOUSE_NO":"３１３號","E_COORD97":159152.44,"N_COORD97":2553086.7799999998,"ADDRESS":"青砂街二段３１３號","OBJECTID":566005},"geometry":{"x":159152.44000000134,"y":2553086.7799999993}},{"attributes":{"ID":566033,"DIS_CODE":0,"TOWNNAME":"安南區","LI":"青草里","LIN":"9鄰","STREET":"青砂街","SECT":"二段","MAREA":" ","LANE":" ","ALLEY":" ","HOUSE_NO":"３２９號","E_COORD97":159132.01000000001,"N_COORD97":2553074.98,"ADDRESS":"青砂街二段３２９號","OBJECTID":566006},"geometry":{"x":159132.01000000071,"y":2553074.9800000023}},{"attributes":{"ID":566034,"DIS_CODE":0,"TOWNNAME":"安南區","LI":"青草里","LIN":"9鄰","STREET":"青砂街","SECT":"二段","MAREA":" ","LANE":" ","ALLEY":" ","HOUSE_NO":"３３７號","E_COORD97":159099.79000000001,"N_COORD97":2553073.9399999999,"ADDRESS":"青砂街二段３３７號","OBJECTID":566007},"geometry":{"x":159099.7900000019,"y":2553073.9400000013}},{"attributes":{"ID":566035,"DIS_CODE":0,"TOWNNAME":"安南區","LI":"青草里","LIN":"9鄰","STREET":"青砂街","SECT":"二段","MAREA":" ","LANE":" ","ALLEY":" ","HOUSE_NO":"３４３號","E_COORD97":159082.89000000001,"N_COORD97":2553067.0800000001,"ADDRESS":"青砂街二段３４３號","OBJECTID":566008},"geometry":{"x":159082.88999999966,"y":2553067.0800000019}},{"attributes":{"ID":566036,"DIS_CODE":0,"TOWNNAME":"安南區","LI":"青草里","LIN":"9鄰","STREET":"青砂街","SECT":"二段","MAREA":" ","LANE":" ","ALLEY":" ","HOUSE_NO":"３４９號","E_COORD97":159073.98999999999,"N_COORD97":2553059.2400000002,"ADDRESS":"青砂街二段３４９號","OBJECTID":566009},"geometry":{"x":159073.99000000115,"y":2553059.2400000021}},{"attributes":{"ID":566037,"DIS_CODE":0,"TOWNNAME":"安南區","LI":"青草里","LIN":"9鄰","STREET":"青砂街","SECT":"二段","MAREA":" ","LANE":" ","ALLEY":" ","HOUSE_NO":"３５５號","E_COORD97":159057.75,"N_COORD97":2553062.9300000002,"ADDRESS":"青砂街二段３５５號","OBJECTID":566010},"geometry":{"x":159057.75000000093,"y":2553062.9299999978}},{"attributes":{"ID":566038,"DIS_CODE":0,"TOWNNAME":"安南區","LI":"青草里","LIN":"9鄰","STREET":"青砂街","SECT":"二段","MAREA":" ","LANE":" ","ALLEY":" ","HOUSE_NO":"３６７號","E_COORD97":159026.07000000001,"N_COORD97":2553046.1899999999,"ADDRESS":"青砂街二段３６７號","OBJECTID":566011},"geometry":{"x":159026.0700000003,"y":2553046.1899999995}},{"attributes":{"ID":566039,"DIS_CODE":0,"TOWNNAME":"安南區","LI":"青草里","LIN":"9鄰","STREET":"青砂街","SECT":"二段","MAREA":" ","LANE":" ","ALLEY":" ","HOUSE_NO":"３９３號","E_COORD97":158979.29999999999,"N_COORD97":2553008.3599999999,"ADDRESS":"青砂街二段３９３號","OBJECTID":566012},"geometry":{"x":158979.30000000075,"y":2553008.3599999994}},{"attributes":{"ID":566040,"DIS_CODE":0,"TOWNNAME":"安南區","LI":"青草里","LIN":"9鄰","STREET":"青砂街","SECT":"二段","MAREA":" ","LANE":" ","ALLEY":" ","HOUSE_NO":"３９５號","E_COORD97":158976.42000000001,"N_COORD97":2553007.0600000001,"ADDRESS":"青砂街二段３９５號","OBJECTID":566013},"geometry":{"x":158976.41999999993,"y":2553007.0600000024}},{"attributes":{"ID":566041,"DIS_CODE":0,"TOWNNAME":"安南區","LI":"青草里","LIN":"9鄰","STREET":"青砂街","SECT":"二段","MAREA":" ","LANE":" ","ALLEY":" ","HOUSE_NO":"３９７號","E_COORD97":158972.23000000001,"N_COORD97":2553005.4900000002,"ADDRESS":"青砂街二段３９７號","OBJECTID":566014},"geometry":{"x":158972.23000000138,"y":2553005.4899999984}},{"attributes":{"ID":566042,"DIS_CODE":0,"TOWNNAME":"安南區","LI":"青草里","LIN":"9鄰","STREET":"青砂街","SECT":"二段","MAREA":" ","LANE":" ","ALLEY":" ","HOUSE_NO":"３９９號","E_COORD97":158969.35000000001,"N_COORD97":2553004.1800000002,"ADDRESS":"青砂街二段３９９號","OBJECTID":566015},"geometry":{"x":158969.34999999963,"y":2553004.1800000016}},{"attributes":{"ID":566043,"DIS_CODE":0,"TOWNNAME":"安南區","LI":"砂崙里","LIN":"9鄰","STREET":"青砂街","SECT":"一段","MAREA":" ","LANE":" ","ALLEY":" ","HOUSE_NO":"５７３號之１","E_COORD97":159893.32000000001,"N_COORD97":2552935.3399999999,"ADDRESS":"青砂街一段５７３號之１","OBJECTID":566016},"geometry":{"x":159893.32000000123,"y":2552935.3400000036}},{"attributes":{"ID":566044,"DIS_CODE":0,"TOWNNAME":"安南區","LI":"砂崙里","LIN":"9鄰","STREET":"青砂街","SECT":"一段","MAREA":" ","LANE":" ","ALLEY":" ","HOUSE_NO":"６８０號","E_COORD97":159962.62,"N_COORD97":2552849.7200000002,"ADDRESS":"青砂街一段６８０號","OBJECTID":566017},"geometry":{"x":159962.62000000104,"y":2552849.7200000025}},{"attributes":{"ID":566045,"DIS_CODE":0,"TOWNNAME":"安南區","LI":"淵東里","LIN":"9鄰","STREET":"本原街","SECT":"三段","MAREA":" ","LANE":" ","ALLEY":" ","HOUSE_NO":"２７７號","E_COORD97":165347.35000000001,"N_COORD97":2550226.2799999998,"ADDRESS":"本原街三段２７７號","OBJECTID":566018},"geometry":{"x":165347.35000000149,"y":2550226.2800000031}},{"attributes":{"ID":566046,"DIS_CODE":0,"TOWNNAME":"安南區","LI":"溪北里","LIN":"9鄰","STREET":"府安路","SECT":"四段","MAREA":" ","LANE":" ","ALLEY":" ","HOUSE_NO":"２６號","E_COORD97":169421.73999999999,"N_COORD97":2547325.4900000002,"ADDRESS":"府安路四段２６號","OBJECTID":566019},"geometry":{"x":169421.74000000022,"y":2547325.4900000002}},{"attributes":{"ID":566047,"DIS_CODE":0,"TOWNNAME":"安南區","LI":"溪北里","LIN":"9鄰","STREET":"府安路","SECT":"四段","MAREA":" ","LANE":" ","ALLEY":" ","HOUSE_NO":"２７號","E_COORD97":169418.20000000001,"N_COORD97":2547324.2799999998,"ADDRESS":"府安路四段２７號","OBJECTID":566020},"geometry":{"x":169418.20000000112,"y":2547324.2800000012}},{"attributes":{"ID":566048,"DIS_CODE":0,"TOWNNAME":"安南區","LI":"溪北里","LIN":"9鄰","STREET":"府安路","SECT":"四段","MAREA":" ","LANE":" ","ALLEY":" ","HOUSE_NO":"３０號","E_COORD97":169405.26999999999,"N_COORD97":2547321.46,"ADDRESS":"府安路四段３０號","OBJECTID":566021},"geometry":{"x":169405.26999999955,"y":2547321.4600000028}},{"attributes":{"ID":566049,"DIS_CODE":0,"TOWNNAME":"安南區","LI":"溪北里","LIN":"9鄰","STREET":"府安路","SECT":"四段","MAREA":" ","LANE":" ","ALLEY":" ","HOUSE_NO":"３１號","E_COORD97":169401.03,"N_COORD97":2547320.6499999999,"ADDRESS":"府安路四段３１號","OBJECTID":566022},"geometry":{"x":169401.03000000026,"y":2547320.6500000022}},{"attributes":{"ID":566050,"DIS_CODE":0,"TOWNNAME":"善化區","LI":"西關里","LIN":"9鄰","STREET":"復興街","SECT":" ","MAREA":" ","LANE":" ","ALLEY":" ","HOUSE_NO":"３４號","E_COORD97":177029.34,"N_COORD97":2559055.2599999998,"ADDRESS":"復興街３４號","OBJECTID":566023},"geometry":{"x":177029.34000000171,"y":2559055.2600000035}},{"attributes":{"ID":566051,"DIS_CODE":0,"TOWNNAME":"善化區","LI":"光文里","LIN":"9鄰","STREET":"光文路","SECT":" ","MAREA":" ","LANE":" ","ALLEY":" ","HOUSE_NO":"５之２號","E_COORD97":178897.17999999999,"N_COORD97":2559065.2799999998,"ADDRESS":"光文路５之２號","OBJECTID":566024},"geometry":{"x":178897.18000000063,"y":2559065.2800000012}},{"attributes":{"ID":566052,"DIS_CODE":0,"TOWNNAME":"善化區","LI":"文昌里","LIN":"9鄰","STREET":"自由路","SECT":" ","MAREA":" ","LANE":" ","ALLEY":" ","HOUSE_NO":"３６號","E_COORD97":177313.98999999999,"N_COORD97":2558935,"ADDRESS":"自由路３６號","OBJECTID":566025},"geometry":{"x":177313.99000000115,"y":2558935.0000000037}},{"attributes":{"ID":566053,"DIS_CODE":0,"TOWNNAME":"善化區","LI":"坐駕里","LIN":"9鄰","STREET":"大成路","SECT":" ","MAREA":" ","LANE":" ","ALLEY":" ","HOUSE_NO":"３８３號","E_COORD97":177870.38,"N_COORD97":2558767.7400000002,"ADDRESS":"大成路３８３號","OBJECTID":566026},"geometry":{"x":177870.38000000082,"y":2558767.7400000039}},{"attributes":{"ID":566054,"DIS_CODE":0,"TOWNNAME":"善化區","LI":"文昌里","LIN":"9鄰","STREET":"自由路","SECT":" ","MAREA":" ","LANE":" ","ALLEY":" ","HOUSE_NO":"５２號","E_COORD97":177291.88,"N_COORD97":2558909.75,"ADDRESS":"自由路５２號","OBJECTID":566027},"geometry":{"x":177291.88000000082,"y":2558909.7500000037}},{"attributes":{"ID":566055,"DIS_CODE":0,"TOWNNAME":"善化區","LI":"北關里","LIN":"9鄰","STREET":"博愛路","SECT":" ","MAREA":" ","LANE":" ","ALLEY":" ","HOUSE_NO":"４４號","E_COORD97":177181.95999999999,"N_COORD97":2559238.0099999998,"ADDRESS":"博愛路４４號","OBJECTID":566028},"geometry":{"x":177181.95999999996,"y":2559238.0100000016}},{"attributes":{"ID":566056,"DIS_CODE":0,"TOWNNAME":"善化區","LI":"文昌里","LIN":"9鄰","STREET":"自由路","SECT":" ","MAREA":" ","LANE":" ","ALLEY":" ","HOUSE_NO":"５４號","E_COORD97":177284.98999999999,"N_COORD97":2558912.25,"ADDRESS":"自由路５４號","OBJECTID":566029},"geometry":{"x":177284.99000000115,"y":2558912.25}},{"attributes":{"ID":566057,"DIS_CODE":0,"TOWNNAME":"善化區","LI":"北關里","LIN":"9鄰","STREET":"博愛路","SECT":" ","MAREA":" ","LANE":" ","ALLEY":" ","HOUSE_NO":"３１號","E_COORD97":177183.82000000001,"N_COORD97":2559215.0099999998,"ADDRESS":"博愛路３１號","OBJECTID":566030},"geometry":{"x":177183.8200000003,"y":2559215.0099999998}},{"attributes":{"ID":566058,"DIS_CODE":0,"TOWNNAME":"善化區","LI":"北關里","LIN":"9鄰","STREET":"博愛路","SECT":" ","MAREA":" ","LANE":" ","ALLEY":" ","HOUSE_NO":"４２號","E_COORD97":177187.29999999999,"N_COORD97":2559232.2599999998,"ADDRESS":"博愛路４２號","OBJECTID":566031},"geometry":{"x":177187.30000000075,"y":2559232.2600000016}},{"attributes":{"ID":566059,"DIS_CODE":0,"TOWNNAME":"善化區","LI":"北關里","LIN":"9鄰","STREET":"博愛路","SECT":" ","MAREA":" ","LANE":" ","ALLEY":" ","HOUSE_NO":"２９號","E_COORD97":177190.79999999999,"N_COORD97":2559214.2599999998,"ADDRESS":"博愛路２９號","OBJECTID":566032},"geometry":{"x":177190.80000000075,"y":2559214.2599999998}},{"attributes":{"ID":566060,"DIS_CODE":0,"TOWNNAME":"善化區","LI":"文正里","LIN":"9鄰","STREET":"文正路","SECT":" ","MAREA":" ","LANE":" ","ALLEY":" ","HOUSE_NO":"３９號之１","E_COORD97":177007.17000000001,"N_COORD97":2559322.5299999998,"ADDRESS":"文正路３９號之１","OBJECTID":566033},"geometry":{"x":177007.17000000086,"y":2559322.5299999993}},{"attributes":{"ID":566061,"DIS_CODE":0,"TOWNNAME":"善化區","LI":"光文里","LIN":"9鄰","STREET":"光文路","SECT":" ","MAREA":" ","LANE":" ","ALLEY":" ","HOUSE_NO":"７號","E_COORD97":178884.64999999999,"N_COORD97":2559164.7799999998,"ADDRESS":"光文路７號","OBJECTID":566034},"geometry":{"x":178884.6500000013,"y":2559164.7799999993}},{"attributes":{"ID":566062,"DIS_CODE":0,"TOWNNAME":"善化區","LI":"光文里","LIN":"9鄰","STREET":"光文路","SECT":" ","MAREA":" ","LANE":" ","ALLEY":" ","HOUSE_NO":"５之１號","E_COORD97":178897.29000000001,"N_COORD97":2559060.7799999998,"ADDRESS":"光文路５之１號","OBJECTID":566035},"geometry":{"x":178897.29000000004,"y":2559060.7799999993}},{"attributes":{"ID":566063,"DIS_CODE":0,"TOWNNAME":"善化區","LI":"北關里","LIN":"9鄰","STREET":"博愛路","SECT":" ","MAREA":" ","LANE":" ","ALLEY":" ","HOUSE_NO":"４６號之２","E_COORD97":177177.98999999999,"N_COORD97":2559231.52,"ADDRESS":"博愛路４６號之２","OBJECTID":566036},"geometry":{"x":177177.99000000115,"y":2559231.5199999996}},{"attributes":{"ID":566064,"DIS_CODE":0,"TOWNNAME":"善化區","LI":"光文里","LIN":"9鄰","STREET":"光文路","SECT":" ","MAREA":" ","LANE":" ","ALLEY":" ","HOUSE_NO":"３號","E_COORD97":178903.31,"N_COORD97":2559016.0299999998,"ADDRESS":"光文路３號","OBJECTID":566037},"geometry":{"x":178903.30999999959,"y":2559016.0300000012}},{"attributes":{"ID":566065,"DIS_CODE":0,"TOWNNAME":"善化區","LI":"光文里","LIN":"9鄰","STREET":"光文路","SECT":" ","MAREA":" ","LANE":" ","ALLEY":" ","HOUSE_NO":"８號之１","E_COORD97":178933.19,"N_COORD97":2559108.0299999998,"ADDRESS":"光文路８號之１","OBJECTID":566038},"geometry":{"x":178933.19000000134,"y":2559108.0300000012}},{"attributes":{"ID":566066,"DIS_CODE":0,"TOWNNAME":"善化區","LI":"光文里","LIN":"9鄰","STREET":"光文路","SECT":" ","MAREA":" ","LANE":" ","ALLEY":" ","HOUSE_NO":"９號","E_COORD97":178884.32000000001,"N_COORD97":2559174.0299999998,"ADDRESS":"光文路９號","OBJECTID":566039},"geometry":{"x":178884.32000000216,"y":2559174.0299999993}},{"attributes":{"ID":566067,"DIS_CODE":0,"TOWNNAME":"善化區","LI":"文昌里","LIN":"9鄰","STREET":"大同路","SECT":" ","MAREA":" ","LANE":" ","ALLEY":" ","HOUSE_NO":"３５３號","E_COORD97":177343.57000000001,"N_COORD97":2558951,"ADDRESS":"大同路３５３號","OBJECTID":566040},"geometry":{"x":177343.57000000123,"y":2558951}},{"attributes":{"ID":566068,"DIS_CODE":0,"TOWNNAME":"善化區","LI":"文昌里","LIN":"9鄰","STREET":"大同路","SECT":" ","MAREA":" ","LANE":" ","ALLEY":" ","HOUSE_NO":"３５１號","E_COORD97":177345.62,"N_COORD97":2558946.5,"ADDRESS":"大同路３５１號","OBJECTID":566041},"geometry":{"x":177345.62000000011,"y":2558946.5000000019}},{"attributes":{"ID":566069,"DIS_CODE":0,"TOWNNAME":"善化區","LI":"文昌里","LIN":"9鄰","STREET":"大同路","SECT":" ","MAREA":" ","LANE":" ","ALLEY":" ","HOUSE_NO":"３５５號","E_COORD97":177342.41,"N_COORD97":2558955.5,"ADDRESS":"大同路３５５號","OBJECTID":566042},"geometry":{"x":177342.41000000015,"y":2558955.5000000037}},{"attributes":{"ID":566070,"DIS_CODE":0,"TOWNNAME":"善化區","LI":"文正里","LIN":"9鄰","STREET":"文正路","SECT":" ","MAREA":" ","LANE":" ","ALLEY":" ","HOUSE_NO":"３７之１號","E_COORD97":176986.41,"N_COORD97":2559304.7799999998,"ADDRESS":"文正路３７之１號","OBJECTID":566043},"geometry":{"x":176986.41000000015,"y":2559304.7799999993}},{"attributes":{"ID":566071,"DIS_CODE":0,"TOWNNAME":"善化區","LI":"文昌里","LIN":"9鄰","STREET":"平等路","SECT":" ","MAREA":" ","LANE":" ","ALLEY":" ","HOUSE_NO":"１號","E_COORD97":177319.66,"N_COORD97":2558954.75,"ADDRESS":"平等路１號","OBJECTID":566044},"geometry":{"x":177319.66000000108,"y":2558954.7500000019}},{"attributes":{"ID":566072,"DIS_CODE":0,"TOWNNAME":"善化區","LI":"文正里","LIN":"9鄰","STREET":"文正路","SECT":" ","MAREA":" ","LANE":" ","ALLEY":" ","HOUSE_NO":"３７號","E_COORD97":176987.29999999999,"N_COORD97":2559313.5299999998,"ADDRESS":"文正路３７號","OBJECTID":566045},"geometry":{"x":176987.30000000075,"y":2559313.5299999993}},{"attributes":{"ID":566073,"DIS_CODE":0,"TOWNNAME":"善化區","LI":"光文里","LIN":"9鄰","STREET":"光文路","SECT":" ","MAREA":" ","LANE":" ","ALLEY":" ","HOUSE_NO":"１０號","E_COORD97":178932.84,"N_COORD97":2559153.7799999998,"ADDRESS":"光文路１０號","OBJECTID":566046},"geometry":{"x":178932.83999999892,"y":2559153.7800000012}},{"attributes":{"ID":566074,"DIS_CODE":0,"TOWNNAME":"善化區","LI":"光文里","LIN":"9鄰","STREET":"光文路","SECT":" ","MAREA":" ","LANE":" ","ALLEY":" ","HOUSE_NO":"９號之１","E_COORD97":178883.57000000001,"N_COORD97":2559181.7799999998,"ADDRESS":"光文路９號之１","OBJECTID":566047},"geometry":{"x":178883.5700000003,"y":2559181.7799999993}},{"attributes":{"ID":566075,"DIS_CODE":0,"TOWNNAME":"善化區","LI":"光文里","LIN":"9鄰","STREET":"成功路","SECT":" ","MAREA":" ","LANE":" ","ALLEY":" ","HOUSE_NO":"２９６號之２","E_COORD97":179057.25,"N_COORD97":2558921.77,"ADDRESS":"成功路２９６號之２","OBJECTID":566048},"geometry":{"x":179057.25,"y":2558921.7699999996}},{"attributes":{"ID":566076,"DIS_CODE":0,"TOWNNAME":"善化區","LI":"南關里","LIN":"9鄰","STREET":"三民路","SECT":" ","MAREA":" ","LANE":" ","ALLEY":" ","HOUSE_NO":"３７號之５","E_COORD97":177070.10000000001,"N_COORD97":2558918.52,"ADDRESS":"三民路３７號之５","OBJECTID":566049},"geometry":{"x":177070.10000000056,"y":2558918.5200000014}},{"attributes":{"ID":566077,"DIS_CODE":0,"TOWNNAME":"善化區","LI":"光文里","LIN":"9鄰","STREET":"民生路","SECT":" ","MAREA":" ","LANE":" ","ALLEY":" ","HOUSE_NO":"８號","E_COORD97":178892.85999999999,"N_COORD97":2559040.7599999998,"ADDRESS":"民生路８號","OBJECTID":566050},"geometry":{"x":178892.86000000127,"y":2559040.7599999998}},{"attributes":{"ID":566078,"DIS_CODE":0,"TOWNNAME":"東區","LI":"圍下里","LIN":"9鄰","STREET":"勝利路","SECT":" ","MAREA":" ","LANE":" ","ALLEY":" ","HOUSE_NO":"７７號","E_COORD97":169793.38,"N_COORD97":2543527.25,"ADDRESS":"勝利路７７號","OBJECTID":566051},"geometry":{"x":169793.37999999989,"y":2543527.25}},{"attributes":{"ID":566079,"DIS_CODE":0,"TOWNNAME":"永康區","LI":"西灣里","LIN":"9鄰","STREET":"永大路","SECT":"二段","MAREA":" ","LANE":" ","ALLEY":" ","HOUSE_NO":"４３６號","E_COORD97":174366.26999999999,"N_COORD97":2545248.4300000002,"ADDRESS":"永大路二段４３６號","OBJECTID":566052},"geometry":{"x":174366.27000000142,"y":2545248.4300000034}},{"attributes":{"ID":566080,"DIS_CODE":0,"TOWNNAME":"永康區","LI":"尚頂里","LIN":"9鄰","STREET":"正南一街","SECT":" ","MAREA":" ","LANE":" ","ALLEY":" ","HOUSE_NO":"１３５號","E_COORD97":170820.35000000001,"N_COORD97":2547251.5800000001,"ADDRESS":"正南一街１３５號","OBJECTID":566053},"geometry":{"x":170820.34999999963,"y":2547251.5800000038}},{"attributes":{"ID":566081,"DIS_CODE":0,"TOWNNAME":"永康區","LI":"\u25A0行里","LIN":"9鄰","STREET":"中正路","SECT":" ","MAREA":" ","LANE":" ","ALLEY":" ","HOUSE_NO":"３５５號","E_COORD97":172451.60000000001,"N_COORD97":2548418.5,"ADDRESS":"中正路３５５號","OBJECTID":566054},"geometry":{"x":172451.59999999963,"y":2548418.5000000019}},{"attributes":{"ID":566082,"DIS_CODE":0,"TOWNNAME":"永康區","LI":"\u25A0行里","LIN":"9鄰","STREET":"中正路","SECT":" ","MAREA":" ","LANE":" ","ALLEY":" ","HOUSE_NO":"３０７號","E_COORD97":172576.45000000001,"N_COORD97":2548297.5600000001,"ADDRESS":"中正路３０７號","OBJECTID":566055},"geometry":{"x":172576.45000000019,"y":2548297.5600000024}},{"attributes":{"ID":566083,"DIS_CODE":0,"TOWNNAME":"永康區","LI":"\u25A0行里","LIN":"9鄰","STREET":"中正路","SECT":" ","MAREA":" ","LANE":" ","ALLEY":" ","HOUSE_NO":"２９９號","E_COORD97":172636.63,"N_COORD97":2548231.7999999998,"ADDRESS":"中正路２９９號","OBJECTID":566056},"geometry":{"x":172636.62999999896,"y":2548231.8000000026}},{"attributes":{"ID":566084,"DIS_CODE":0,"TOWNNAME":"永康區","LI":"龍潭里","LIN":"9鄰","STREET":"龍埔街","SECT":" ","MAREA":" ","LANE":" ","ALLEY":" ","HOUSE_NO":"６０號","E_COORD97":174670.01000000001,"N_COORD97":2548247.27,"ADDRESS":"龍埔街６０號","OBJECTID":566057},"geometry":{"x":174670.01000000164,"y":2548247.2700000014}},{"attributes":{"ID":566085,"DIS_CODE":0,"TOWNNAME":"永康區","LI":"\u25A0行里","LIN":"9鄰","STREET":"中正路","SECT":" ","MAREA":" ","LANE":" ","ALLEY":" ","HOUSE_NO":"３２５號","E_COORD97":172544.17999999999,"N_COORD97":2548329.7599999998,"ADDRESS":"中正路３２５號","OBJECTID":566058},"geometry":{"x":172544.1799999997,"y":2548329.7599999998}},{"attributes":{"ID":566086,"DIS_CODE":0,"TOWNNAME":"永康區","LI":"龍潭里","LIN":"9鄰","STREET":"龍埔街","SECT":" ","MAREA":" ","LANE":" ","ALLEY":" ","HOUSE_NO":"５２號","E_COORD97":174711.13,"N_COORD97":2548270.0299999998,"ADDRESS":"龍埔街５２號","OBJECTID":566059},"geometry":{"x":174711.12999999989,"y":2548270.0299999993}},{"attributes":{"ID":566087,"DIS_CODE":0,"TOWNNAME":"永康區","LI":"龍潭里","LIN":"9鄰","STREET":"龍埔街","SECT":" ","MAREA":" ","LANE":" ","ALLEY":" ","HOUSE_NO":"４８號","E_COORD97":174738.41,"N_COORD97":2548240.8599999999,"ADDRESS":"龍埔街４８號","OBJECTID":566060},"geometry":{"x":174738.41000000015,"y":2548240.8599999994}},{"attributes":{"ID":566088,"DIS_CODE":0,"TOWNNAME":"永康區","LI":"蔦松里","LIN":"9鄰","STREET":"正北三路","SECT":" ","MAREA":" ","LANE":" ","ALLEY":" ","HOUSE_NO":"１２３號","E_COORD97":174341.73000000001,"N_COORD97":2550060.4900000002,"ADDRESS":"正北三路１２３號","OBJECTID":566061},"geometry":{"x":174341.73000000045,"y":2550060.4900000021}},{"attributes":{"ID":566089,"DIS_CODE":0,"TOWNNAME":"仁德區","LI":"上崙里","LIN":"9鄰","STREET":"德善路","SECT":" ","MAREA":" ","LANE":" ","ALLEY":" ","HOUSE_NO":"３０９號","E_COORD97":173965.92000000001,"N_COORD97":2538520.7599999998,"ADDRESS":"德善路３０９號","OBJECTID":566062},"geometry":{"x":173965.92000000086,"y":2538520.7600000016}},{"attributes":{"ID":566090,"DIS_CODE":0,"TOWNNAME":"永康區","LI":"蔦松里","LIN":"9鄰","STREET":"中正北路","SECT":" ","MAREA":" ","LANE":" ","ALLEY":" ","HOUSE_NO":"７１１號","E_COORD97":174190.76999999999,"N_COORD97":2549496.9900000002,"ADDRESS":"中正北路７１１號","OBJECTID":566063},"geometry":{"x":174190.77000000048,"y":2549496.9900000021}},{"attributes":{"ID":566091,"DIS_CODE":0,"TOWNNAME":"永康區","LI":"蔦松里","LIN":"9鄰","STREET":"中正北路","SECT":" ","MAREA":" ","LANE":" ","ALLEY":" ","HOUSE_NO":"８３３號","E_COORD97":174696.72,"N_COORD97":2549919.2400000002,"ADDRESS":"中正北路８３３號","OBJECTID":566064},"geometry":{"x":174696.71999999974,"y":2549919.2400000021}},{"attributes":{"ID":566092,"DIS_CODE":0,"TOWNNAME":"永康區","LI":"蔦松里","LIN":"9鄰","STREET":"正北三路","SECT":" ","MAREA":" ","LANE":" ","ALLEY":" ","HOUSE_NO":"１３５號","E_COORD97":174330.37,"N_COORD97":2550086.98,"ADDRESS":"正北三路１３５號","OBJECTID":566065},"geometry":{"x":174330.37000000011,"y":2550086.9800000042}},{"attributes":{"ID":566093,"DIS_CODE":0,"TOWNNAME":"永康區","LI":"蔦松里","LIN":"9鄰","STREET":"正北三路","SECT":" ","MAREA":" ","LANE":" ","ALLEY":" ","HOUSE_NO":"１４０號","E_COORD97":174374.04999999999,"N_COORD97":2550063.0600000001,"ADDRESS":"正北三路１４０號","OBJECTID":566066},"geometry":{"x":174374.04999999981,"y":2550063.0600000024}},{"attributes":{"ID":566094,"DIS_CODE":0,"TOWNNAME":"麻豆區","LI":"巷口里","LIN":"9鄰","STREET":"建南街","SECT":" ","MAREA":" ","LANE":" ","ALLEY":" ","HOUSE_NO":"１０６號","E_COORD97":173242.39000000001,"N_COORD97":2564243.3399999999,"ADDRESS":"建南街１０６號","OBJECTID":566067},"geometry":{"x":173242.3900000006,"y":2564243.3400000017}},{"attributes":{"ID":566095,"DIS_CODE":0,"TOWNNAME":"麻豆區","LI":"巷口里","LIN":"9鄰","STREET":"建南街","SECT":" ","MAREA":" ","LANE":" ","ALLEY":" ","HOUSE_NO":"１１０號","E_COORD97":173262.20000000001,"N_COORD97":2564245.3999999999,"ADDRESS":"建南街１１０號","OBJECTID":566068},"geometry":{"x":173262.20000000205,"y":2564245.3999999985}},{"attributes":{"ID":566096,"DIS_CODE":0,"TOWNNAME":"麻豆區","LI":"巷口里","LIN":"9鄰","STREET":"建南街","SECT":" ","MAREA":" ","LANE":" ","ALLEY":" ","HOUSE_NO":"１３６號","E_COORD97":173310.98999999999,"N_COORD97":2564259.75,"ADDRESS":"建南街１３６號","OBJECTID":566069},"geometry":{"x":173310.99000000209,"y":2564259.7500000037}},{"attributes":{"ID":566097,"DIS_CODE":0,"TOWNNAME":"麻豆區","LI":"巷口里","LIN":"9鄰","STREET":"建南街","SECT":" ","MAREA":" ","LANE":" ","ALLEY":" ","HOUSE_NO":"１３８號","E_COORD97":173329.10999999999,"N_COORD97":2564236.5600000001,"ADDRESS":"建南街１３８號","OBJECTID":566070},"geometry":{"x":173329.1100000022,"y":2564236.5600000005}},{"attributes":{"ID":566098,"DIS_CODE":0,"TOWNNAME":"麻豆區","LI":"巷口里","LIN":"9鄰","STREET":"建南街","SECT":" ","MAREA":" ","LANE":" ","ALLEY":" ","HOUSE_NO":"１４０號","E_COORD97":173342.56,"N_COORD97":2564248.75,"ADDRESS":"建南街１４０號","OBJECTID":566071},"geometry":{"x":173342.56000000052,"y":2564248.75}},{"attributes":{"ID":566099,"DIS_CODE":0,"TOWNNAME":"麻豆區","LI":"巷口里","LIN":"9鄰","STREET":"建南街","SECT":" ","MAREA":" ","LANE":" ","ALLEY":" ","HOUSE_NO":"１６８號","E_COORD97":173360.35999999999,"N_COORD97":2564262.4500000002,"ADDRESS":"建南街１６８號","OBJECTID":566072},"geometry":{"x":173360.36000000034,"y":2564262.4500000011}},{"attributes":{"ID":566100,"DIS_CODE":0,"TOWNNAME":"麻豆區","LI":"巷口里","LIN":"9鄰","STREET":"建南街","SECT":" ","MAREA":" ","LANE":" ","ALLEY":" ","HOUSE_NO":"１７０號","E_COORD97":173366.10000000001,"N_COORD97":2564262.8399999999,"ADDRESS":"建南街１７０號","OBJECTID":566073},"geometry":{"x":173366.10000000056,"y":2564262.8400000017}},{"attributes":{"ID":566101,"DIS_CODE":0,"TOWNNAME":"仁德區","LI":"上崙里","LIN":"9鄰","STREET":"德善路","SECT":" ","MAREA":" ","LANE":" ","ALLEY":" ","HOUSE_NO":"３０１號","E_COORD97":173950.26000000001,"N_COORD97":2538567.02,"ADDRESS":"德善路３０１號","OBJECTID":566074},"geometry":{"x":173950.26000000071,"y":2538567.0199999996}},{"attributes":{"ID":566102,"DIS_CODE":0,"TOWNNAME":"仁德區","LI":"上崙里","LIN":"9鄰","STREET":"德善路","SECT":" ","MAREA":" ","LANE":" ","ALLEY":" ","HOUSE_NO":"３２３號","E_COORD97":173974.04000000001,"N_COORD97":2538490.2599999998,"ADDRESS":"德善路３２３號","OBJECTID":566075},"geometry":{"x":173974.04000000097,"y":2538490.2600000016}},{"attributes":{"ID":566103,"DIS_CODE":0,"TOWNNAME":"仁德區","LI":"上崙里","LIN":"9鄰","STREET":"德善路","SECT":" ","MAREA":" ","LANE":" ","ALLEY":" ","HOUSE_NO":"２９１之１２號","E_COORD97":173977.26999999999,"N_COORD97":2538585.29,"ADDRESS":"德善路２９１之１２號","OBJECTID":566076},"geometry":{"x":173977.26999999955,"y":2538585.2899999991}},{"attributes":{"ID":566104,"DIS_CODE":0,"TOWNNAME":"仁德區","LI":"上崙里","LIN":"9鄰","STREET":"德善路","SECT":" ","MAREA":" ","LANE":" ","ALLEY":" ","HOUSE_NO":"３１３號","E_COORD97":173967.94,"N_COORD97":2538512.0099999998,"ADDRESS":"德善路３１３號","OBJECTID":566077},"geometry":{"x":173967.94000000134,"y":2538512.0100000016}},{"attributes":{"ID":566105,"DIS_CODE":0,"TOWNNAME":"仁德區","LI":"上崙里","LIN":"9鄰","STREET":"德善路","SECT":" ","MAREA":" ","LANE":" ","ALLEY":" ","HOUSE_NO":"２９９號","E_COORD97":173949.10999999999,"N_COORD97":2538571.02,"ADDRESS":"德善路２９９號","OBJECTID":566078},"geometry":{"x":173949.11000000034,"y":2538571.0199999996}},{"attributes":{"ID":566106,"DIS_CODE":0,"TOWNNAME":"仁德區","LI":"二行里","LIN":"9鄰","STREET":"行大街","SECT":" ","MAREA":" ","LANE":" ","ALLEY":" ","HOUSE_NO":"１０６號","E_COORD97":170124.42000000001,"N_COORD97":2535152.25,"ADDRESS":"行大街１０６號","OBJECTID":566079},"geometry":{"x":170124.42000000086,"y":2535152.25}},{"attributes":{"ID":566107,"DIS_CODE":0,"TOWNNAME":"仁德區","LI":"上崙里","LIN":"9鄰","STREET":"德善路","SECT":" ","MAREA":" ","LANE":" ","ALLEY":" ","HOUSE_NO":"３０７號","E_COORD97":173965.14999999999,"N_COORD97":2538524.7599999998,"ADDRESS":"德善路３０７號","OBJECTID":566080},"geometry":{"x":173965.1500000013,"y":2538524.7599999998}},{"attributes":{"ID":566108,"DIS_CODE":0,"TOWNNAME":"仁德區","LI":"上崙里","LIN":"9鄰","STREET":"德善路","SECT":" ","MAREA":" ","LANE":" ","ALLEY":" ","HOUSE_NO":"２９１之１１號","E_COORD97":173981.20999999999,"N_COORD97":2538586.54,"ADDRESS":"德善路２９１之１１號","OBJECTID":566081},"geometry":{"x":173981.21000000089,"y":2538586.540000001}},{"attributes":{"ID":566109,"DIS_CODE":0,"TOWNNAME":"仁德區","LI":"上崙里","LIN":"9鄰","STREET":"德善路","SECT":" ","MAREA":" ","LANE":" ","ALLEY":" ","HOUSE_NO":"２９１之３號","E_COORD97":173970.73000000001,"N_COORD97":2538605.54,"ADDRESS":"德善路２９１之３號","OBJECTID":566082},"geometry":{"x":173970.73000000231,"y":2538605.540000001}},{"attributes":{"ID":566110,"DIS_CODE":0,"TOWNNAME":"仁德區","LI":"上崙里","LIN":"9鄰","STREET":"德善路","SECT":" ","MAREA":" ","LANE":" ","ALLEY":" ","HOUSE_NO":"２９１之７號","E_COORD97":173982.97,"N_COORD97":2538609.04,"ADDRESS":"德善路２９１之７號","OBJECTID":566083},"geometry":{"x":173982.96999999974,"y":2538609.040000001}},{"attributes":{"ID":566111,"DIS_CODE":0,"TOWNNAME":"仁德區","LI":"大甲里","LIN":"9鄰","STREET":"行大一街","SECT":" ","MAREA":" ","LANE":" ","ALLEY":" ","HOUSE_NO":"３０５號","E_COORD97":169616.75,"N_COORD97":2535031.25,"ADDRESS":"行大一街３０５號","OBJECTID":566084},"geometry":{"x":169616.75,"y":2535031.2500000037}},{"attributes":{"ID":566112,"DIS_CODE":0,"TOWNNAME":"仁德區","LI":"上崙里","LIN":"9鄰","STREET":"德善路","SECT":" ","MAREA":" ","LANE":" ","ALLEY":" ","HOUSE_NO":"２９１之１號","E_COORD97":173963.23999999999,"N_COORD97":2538599.54,"ADDRESS":"德善路２９１之１號","OBJECTID":566085},"geometry":{"x":173963.24000000022,"y":2538599.540000001}},{"attributes":{"ID":566113,"DIS_CODE":0,"TOWNNAME":"仁德區","LI":"上崙里","LIN":"9鄰","STREET":"德善路","SECT":" ","MAREA":" ","LANE":" ","ALLEY":" ","HOUSE_NO":"２９１之８號","E_COORD97":173986.92999999999,"N_COORD97":2538610.29,"ADDRESS":"德善路２９１之８號","OBJECTID":566086},"geometry":{"x":173986.9299999997,"y":2538610.2900000028}},{"attributes":{"ID":566114,"DIS_CODE":0,"TOWNNAME":"仁德區","LI":"仁義里","LIN":"9鄰","STREET":"仁義一街","SECT":" ","MAREA":" ","LANE":" ","ALLEY":" ","HOUSE_NO":"１１６號","E_COORD97":173574.42000000001,"N_COORD97":2541181.7599999998,"ADDRESS":"仁義一街１１６號","OBJECTID":566087},"geometry":{"x":173574.42000000086,"y":2541181.7600000016}},{"attributes":{"ID":566115,"DIS_CODE":0,"TOWNNAME":"仁德區","LI":"太子里","LIN":"9鄰","STREET":"太子路","SECT":" ","MAREA":" ","LANE":" ","ALLEY":" ","HOUSE_NO":"１６２號","E_COORD97":174398.01000000001,"N_COORD97":2543524.2599999998,"ADDRESS":"太子路１６２號","OBJECTID":566088},"geometry":{"x":174398.00999999978,"y":2543524.2600000016}},{"attributes":{"ID":566116,"DIS_CODE":0,"TOWNNAME":"仁德區","LI":"仁義里","LIN":"9鄰","STREET":"仁義一街","SECT":" ","MAREA":" ","LANE":" ","ALLEY":" ","HOUSE_NO":"１３０號","E_COORD97":173605.62,"N_COORD97":2541179.0099999998,"ADDRESS":"仁義一街１３０號","OBJECTID":566089},"geometry":{"x":173605.62000000104,"y":2541179.0099999998}},{"attributes":{"ID":566117,"DIS_CODE":0,"TOWNNAME":"仁德區","LI":"仁德里","LIN":"9鄰","STREET":"中正路","SECT":"二段","MAREA":" ","LANE":" ","ALLEY":" ","HOUSE_NO":"１２０３號","E_COORD97":173283.29999999999,"N_COORD97":2541179.02,"ADDRESS":"中正路二段１２０３號","OBJECTID":566090},"geometry":{"x":173283.30000000075,"y":2541179.0200000033}},{"attributes":{"ID":566118,"DIS_CODE":0,"TOWNNAME":"仁德區","LI":"太子里","LIN":"9鄰","STREET":"太子路","SECT":" ","MAREA":" ","LANE":" ","ALLEY":" ","HOUSE_NO":"１３４號","E_COORD97":174638.67000000001,"N_COORD97":2543592.5,"ADDRESS":"太子路１３４號","OBJECTID":566091},"geometry":{"x":174638.67000000179,"y":2543592.5}},{"attributes":{"ID":566119,"DIS_CODE":0,"TOWNNAME":"仁德區","LI":"仁德里","LIN":"9鄰","STREET":"中正路","SECT":"二段","MAREA":" ","LANE":" ","ALLEY":" ","HOUSE_NO":"１１７９號","E_COORD97":173300.82000000001,"N_COORD97":2541117.1499999999,"ADDRESS":"中正路二段１１７９號","OBJECTID":566092},"geometry":{"x":173300.82000000123,"y":2541117.1500000004}},{"attributes":{"ID":566120,"DIS_CODE":0,"TOWNNAME":"仁德區","LI":"仁德里","LIN":"9鄰","STREET":"中正路","SECT":"二段","MAREA":" ","LANE":" ","ALLEY":" ","HOUSE_NO":"１１７１號","E_COORD97":173307.45999999999,"N_COORD97":2541100.8999999999,"ADDRESS":"中正路二段１１７１號","OBJECTID":566093},"geometry":{"x":173307.45999999903,"y":2541100.9000000022}},{"attributes":{"ID":566121,"DIS_CODE":0,"TOWNNAME":"仁德區","LI":"仁德里","LIN":"9鄰","STREET":"中正路","SECT":"二段","MAREA":" ","LANE":" ","ALLEY":" ","HOUSE_NO":"１１９３號","E_COORD97":173290.45000000001,"N_COORD97":2541159.2799999998,"ADDRESS":"中正路二段１１９３號","OBJECTID":566094},"geometry":{"x":173290.45000000019,"y":2541159.2799999993}},{"attributes":{"ID":566122,"DIS_CODE":0,"TOWNNAME":"仁德區","LI":"仁德里","LIN":"9鄰","STREET":"中正路","SECT":"二段","MAREA":" ","LANE":" ","ALLEY":" ","HOUSE_NO":"１１６１號","E_COORD97":173324.09,"N_COORD97":2541061.04,"ADDRESS":"中正路二段１１６１號","OBJECTID":566095},"geometry":{"x":173324.09000000078,"y":2541061.040000001}},{"attributes":{"ID":566123,"DIS_CODE":0,"TOWNNAME":"仁德區","LI":"仁德里","LIN":"9鄰","STREET":"中正路","SECT":"二段","MAREA":" ","LANE":" ","ALLEY":" ","HOUSE_NO":"１１４１號","E_COORD97":173344.75,"N_COORD97":2541011.9199999999,"ADDRESS":"中正路二段１１４１號","OBJECTID":566096},"geometry":{"x":173344.75000000186,"y":2541011.9200000018}},{"attributes":{"ID":566124,"DIS_CODE":0,"TOWNNAME":"仁德區","LI":"太子里","LIN":"9鄰","STREET":"太子路","SECT":" ","MAREA":" ","LANE":" ","ALLEY":" ","HOUSE_NO":"１３０號","E_COORD97":174656.14999999999,"N_COORD97":2543532.7599999998,"ADDRESS":"太子路１３０號","OBJECTID":566097},"geometry":{"x":174656.15000000224,"y":2543532.7599999998}},{"attributes":{"ID":566125,"DIS_CODE":0,"TOWNNAME":"仁德區","LI":"仁義里","LIN":"9鄰","STREET":"仁義一街","SECT":" ","MAREA":" ","LANE":" ","ALLEY":" ","HOUSE_NO":"１４０號","E_COORD97":173627.29999999999,"N_COORD97":2541177.0099999998,"ADDRESS":"仁義一街１４０號","OBJECTID":566098},"geometry":{"x":173627.30000000168,"y":2541177.0100000016}},{"attributes":{"ID":566126,"DIS_CODE":0,"TOWNNAME":"仁德區","LI":"仁德里","LIN":"9鄰","STREET":"中正路","SECT":"二段","MAREA":" ","LANE":" ","ALLEY":" ","HOUSE_NO":"１１８３號","E_COORD97":173296.82000000001,"N_COORD97":2541126.4100000001,"ADDRESS":"中正路二段１１８３號","OBJECTID":566099},"geometry":{"x":173296.8200000003,"y":2541126.4100000039}},{"attributes":{"ID":566127,"DIS_CODE":0,"TOWNNAME":"仁德區","LI":"仁德里","LIN":"9鄰","STREET":"中正路","SECT":"二段","MAREA":" ","LANE":" ","ALLEY":" ","HOUSE_NO":"１１５３號","E_COORD97":173336.59947700001,"N_COORD97":2541035.7739599999,"ADDRESS":"中正路二段１１５３號","OBJECTID":566100},"geometry":{"x":173336.5994769996,"y":2541035.7739640009}},{"attributes":{"ID":566128,"DIS_CODE":0,"TOWNNAME":"仁德區","LI":"太子里","LIN":"9鄰","STREET":"太子路","SECT":" ","MAREA":" ","LANE":" ","ALLEY":" ","HOUSE_NO":"１２８號","E_COORD97":174670.76000000001,"N_COORD97":2543544.5099999998,"ADDRESS":"太子路１２８號","OBJECTID":566101},"geometry":{"x":174670.76000000071,"y":2543544.5099999998}},{"attributes":{"ID":566129,"DIS_CODE":0,"TOWNNAME":"仁德區","LI":"太子里","LIN":"9鄰","STREET":"太子路","SECT":" ","MAREA":" ","LANE":" ","ALLEY":" ","HOUSE_NO":"１４８號","E_COORD97":174439.10000000001,"N_COORD97":2543525.7599999998,"ADDRESS":"太子路１４８號","OBJECTID":566102},"geometry":{"x":174439.10000000056,"y":2543525.7599999998}},{"attributes":{"ID":566130,"DIS_CODE":0,"TOWNNAME":"仁德區","LI":"太子里","LIN":"9鄰","STREET":"太子路","SECT":" ","MAREA":" ","LANE":" ","ALLEY":" ","HOUSE_NO":"１４６號","E_COORD97":174445.01999999999,"N_COORD97":2543525.5099999998,"ADDRESS":"太子路１４６號","OBJECTID":566103},"geometry":{"x":174445.02000000048,"y":2543525.5100000035}},{"attributes":{"ID":566131,"DIS_CODE":0,"TOWNNAME":"仁德區","LI":"仁德里","LIN":"9鄰","STREET":"中正路","SECT":"二段","MAREA":" ","LANE":" ","ALLEY":" ","HOUSE_NO":"１１９５號","E_COORD97":173289.17000000001,"N_COORD97":2541163.7799999998,"ADDRESS":"中正路二段１１９５號","OBJECTID":566104},"geometry":{"x":173289.17000000179,"y":2541163.7800000031}},{"attributes":{"ID":566132,"DIS_CODE":0,"TOWNNAME":"仁德區","LI":"太子里","LIN":"9鄰","STREET":"太子路","SECT":" ","MAREA":" ","LANE":" ","ALLEY":" ","HOUSE_NO":"１５２號","E_COORD97":174422.48000000001,"N_COORD97":2543525.0099999998,"ADDRESS":"太子路１５２號","OBJECTID":566105},"geometry":{"x":174422.48000000138,"y":2543525.0099999998}},{"attributes":{"ID":566133,"DIS_CODE":0,"TOWNNAME":"仁德區","LI":"仁德里","LIN":"9鄰","STREET":"中正路","SECT":"二段","MAREA":" ","LANE":" ","ALLEY":" ","HOUSE_NO":"１１５７號","E_COORD97":173331.42000000001,"N_COORD97":2541047.04,"ADDRESS":"中正路二段１１５７號","OBJECTID":566106},"geometry":{"x":173331.41999999899,"y":2541047.040000001}},{"attributes":{"ID":566134,"DIS_CODE":0,"TOWNNAME":"仁德區","LI":"仁德里","LIN":"9鄰","STREET":"中正路","SECT":"二段","MAREA":" ","LANE":" ","ALLEY":" ","HOUSE_NO":"１１６７號","E_COORD97":173310.88,"N_COORD97":2541073.0299999998,"ADDRESS":"中正路二段１１６７號","OBJECTID":566107},"geometry":{"x":173310.87999999989,"y":2541073.0299999993}},{"attributes":{"ID":566135,"DIS_CODE":0,"TOWNNAME":"東區","LI":"崇明里","LIN":"9鄰","STREET":"大同路","SECT":"二段","MAREA":" ","LANE":" ","ALLEY":" ","HOUSE_NO":"４５５號","E_COORD97":169554.53,"N_COORD97":2541224.1899999999,"ADDRESS":"大同路二段４５５號","OBJECTID":566108},"geometry":{"x":169554.53000000119,"y":2541224.1899999995}},{"attributes":{"ID":566136,"DIS_CODE":0,"TOWNNAME":"東區","LI":"崇明里","LIN":"9鄰","STREET":"大同路","SECT":"二段","MAREA":" ","LANE":" ","ALLEY":" ","HOUSE_NO":"４５９號","E_COORD97":169558.19,"N_COORD97":2541214.5800000001,"ADDRESS":"大同路二段４５９號","OBJECTID":566109},"geometry":{"x":169558.19000000041,"y":2541214.5800000019}},{"attributes":{"ID":566137,"DIS_CODE":0,"TOWNNAME":"東區","LI":"崇明里","LIN":"9鄰","STREET":"大同路","SECT":"二段","MAREA":" ","LANE":" ","ALLEY":" ","HOUSE_NO":"４６１號","E_COORD97":169559.10999999999,"N_COORD97":2541207.48,"ADDRESS":"大同路二段４６１號","OBJECTID":566110},"geometry":{"x":169559.11000000127,"y":2541207.4800000042}},{"attributes":{"ID":566138,"DIS_CODE":0,"TOWNNAME":"東區","LI":"崇明里","LIN":"9鄰","STREET":"大同路","SECT":"二段","MAREA":" ","LANE":" ","ALLEY":" ","HOUSE_NO":"５０９號","E_COORD97":169582.01000000001,"N_COORD97":2541111.4300000002,"ADDRESS":"大同路二段５０９號","OBJECTID":566111},"geometry":{"x":169582.00999999978,"y":2541111.4299999997}},{"attributes":{"ID":566139,"DIS_CODE":0,"TOWNNAME":"東區","LI":"崇明里","LIN":"9鄰","STREET":"大同路","SECT":"二段","MAREA":" ","LANE":" ","ALLEY":" ","HOUSE_NO":"４８９號","E_COORD97":169605.37,"N_COORD97":2541137.98,"ADDRESS":"大同路二段４８９號","OBJECTID":566112},"geometry":{"x":169605.37000000011,"y":2541137.9800000004}},{"attributes":{"ID":566140,"DIS_CODE":0,"TOWNNAME":"東區","LI":"崇明里","LIN":"9鄰","STREET":"大同路","SECT":"二段","MAREA":" ","LANE":" ","ALLEY":" ","HOUSE_NO":"４９１號","E_COORD97":169601.25,"N_COORD97":2541136.3799999999,"ADDRESS":"大同路二段４９１號","OBJECTID":566113},"geometry":{"x":169601.25,"y":2541136.3800000008}},{"attributes":{"ID":566141,"DIS_CODE":0,"TOWNNAME":"東區","LI":"崇明里","LIN":"9鄰","STREET":"大同路","SECT":"二段","MAREA":" ","LANE":" ","ALLEY":" ","HOUSE_NO":"４９３號","E_COORD97":169596.67000000001,"N_COORD97":2541135.0099999998,"ADDRESS":"大同路二段４９３號","OBJECTID":566114},"geometry":{"x":169596.66999999993,"y":2541135.0099999998}},{"attributes":{"ID":566142,"DIS_CODE":0,"TOWNNAME":"東區","LI":"崇明里","LIN":"9鄰","STREET":"大同路","SECT":"二段","MAREA":" ","LANE":" ","ALLEY":" ","HOUSE_NO":"４９５號","E_COORD97":169591.39999999999,"N_COORD97":2541134.5499999998,"ADDRESS":"大同路二段４９５號","OBJECTID":566115},"geometry":{"x":169591.4000000013,"y":2541134.5500000007}},{"attributes":{"ID":566143,"DIS_CODE":0,"TOWNNAME":"東區","LI":"崇明里","LIN":"9鄰","STREET":"大同路","SECT":"二段","MAREA":" ","LANE":" ","ALLEY":" ","HOUSE_NO":"４９７號","E_COORD97":169574.67999999999,"N_COORD97":2541137.98,"ADDRESS":"大同路二段４９７號","OBJECTID":566116},"geometry":{"x":169574.68000000156,"y":2541137.9800000004}},{"attributes":{"ID":566144,"DIS_CODE":0,"TOWNNAME":"東區","LI":"崇明里","LIN":"9鄰","STREET":"大同路","SECT":"二段","MAREA":" ","LANE":" ","ALLEY":" ","HOUSE_NO":"５０１號","E_COORD97":169577.42999999999,"N_COORD97":2541129.52,"ADDRESS":"大同路二段５０１號","OBJECTID":566117},"geometry":{"x":169577.4299999997,"y":2541129.5200000014}},{"attributes":{"ID":566145,"DIS_CODE":0,"TOWNNAME":"東區","LI":"崇明里","LIN":"9鄰","STREET":"大同路","SECT":"二段","MAREA":" ","LANE":" ","ALLEY":" ","HOUSE_NO":"５０３號","E_COORD97":169578.57999999999,"N_COORD97":2541125.1699999999,"ADDRESS":"大同路二段５０３號","OBJECTID":566118},"geometry":{"x":169578.58000000007,"y":2541125.1700000018}},{"attributes":{"ID":566146,"DIS_CODE":0,"TOWNNAME":"東區","LI":"崇明里","LIN":"9鄰","STREET":"大同路","SECT":"二段","MAREA":" ","LANE":" ","ALLEY":" ","HOUSE_NO":"５０７號","E_COORD97":169580.64000000001,"N_COORD97":2541114.8700000001,"ADDRESS":"大同路二段５０７號","OBJECTID":566119},"geometry":{"x":169580.6400000006,"y":2541114.8700000029}},{"attributes":{"ID":566147,"DIS_CODE":0,"TOWNNAME":"東區","LI":"崇明里","LIN":"9鄰","STREET":"大同路","SECT":"二段","MAREA":" ","LANE":" ","ALLEY":" ","HOUSE_NO":"４５１號","E_COORD97":169557.47,"N_COORD97":2541261.9900000002,"ADDRESS":"大同路二段４５１號","OBJECTID":566120},"geometry":{"x":169557.4700000016,"y":2541261.9900000021}},{"attributes":{"ID":566148,"DIS_CODE":0,"TOWNNAME":"東區","LI":"崇明里","LIN":"9鄰","STREET":"大同路","SECT":"二段","MAREA":" ","LANE":" ","ALLEY":" ","HOUSE_NO":"４６３號","E_COORD97":169560.70999999999,"N_COORD97":2541201.2999999998,"ADDRESS":"大同路二段４６３號","OBJECTID":566121},"geometry":{"x":169560.70999999996,"y":2541201.3000000007}},{"attributes":{"ID":566149,"DIS_CODE":0,"TOWNNAME":"東區","LI":"崇明里","LIN":"9鄰","STREET":"大同路","SECT":"二段","MAREA":" ","LANE":" ","ALLEY":" ","HOUSE_NO":"４９９號","E_COORD97":169575.37,"N_COORD97":2541133.1800000002,"ADDRESS":"大同路二段４９９號","OBJECTID":566122},"geometry":{"x":169575.37000000011,"y":2541133.1799999997}},{"attributes":{"ID":566150,"DIS_CODE":0,"TOWNNAME":"東區","LI":"崇明里","LIN":"9鄰","STREET":"大同路","SECT":"二段","MAREA":" ","LANE":" ","ALLEY":" ","HOUSE_NO":"５１１號","E_COORD97":169581.54999999999,"N_COORD97":2541105.9399999999,"ADDRESS":"大同路二段５１１號","OBJECTID":566123},"geometry":{"x":169581.55000000075,"y":2541105.9400000013}},{"attributes":{"ID":566151,"DIS_CODE":0,"TOWNNAME":"東區","LI":"崇明里","LIN":"9鄰","STREET":"大同路","SECT":"二段","MAREA":" ","LANE":" ","ALLEY":" ","HOUSE_NO":"５０５號","E_COORD97":169579.26000000001,"N_COORD97":2541119.8999999999,"ADDRESS":"大同路二段５０５號","OBJECTID":566124},"geometry":{"x":169579.26000000164,"y":2541119.9000000041}},{"attributes":{"ID":566152,"DIS_CODE":0,"TOWNNAME":"東區","LI":"崇明里","LIN":"9鄰","STREET":"大同路","SECT":"二段","MAREA":" ","LANE":" ","ALLEY":" ","HOUSE_NO":"４６５號","E_COORD97":169562.54000000001,"N_COORD97":2541194.8900000001,"ADDRESS":"大同路二段４６５號","OBJECTID":566125},"geometry":{"x":169562.5400000019,"y":2541194.8900000043}},{"attributes":{"ID":566153,"DIS_CODE":0,"TOWNNAME":"東區","LI":"崇明里","LIN":"9鄰","STREET":"大同路","SECT":"二段","MAREA":" ","LANE":" ","ALLEY":" ","HOUSE_NO":"４６７號","E_COORD97":169564.14999999999,"N_COORD97":2541189.1699999999,"ADDRESS":"大同路二段４６７號","OBJECTID":566126},"geometry":{"x":169564.1500000013,"y":2541189.1700000018}},{"attributes":{"ID":566154,"DIS_CODE":0,"TOWNNAME":"東區","LI":"崇明里","LIN":"9鄰","STREET":"大同路","SECT":"二段","MAREA":" ","LANE":" ","ALLEY":" ","HOUSE_NO":"４７１號","E_COORD97":169562.09,"N_COORD97":2541181.1600000001,"ADDRESS":"大同路二段４７１號","OBJECTID":566127},"geometry":{"x":169562.09000000078,"y":2541181.1600000001}},{"attributes":{"ID":566155,"DIS_CODE":0,"TOWNNAME":"東區","LI":"崇明里","LIN":"9鄰","STREET":"大同路","SECT":"二段","MAREA":" ","LANE":" ","ALLEY":" ","HOUSE_NO":"４７１號之２","E_COORD97":169581.06,"N_COORD97":2541183.54,"ADDRESS":"大同路二段４７１號之２","OBJECTID":566128},"geometry":{"x":169581.06000000052,"y":2541183.540000001}},{"attributes":{"ID":566156,"DIS_CODE":0,"TOWNNAME":"東區","LI":"崇明里","LIN":"9鄰","STREET":"大同路","SECT":"二段","MAREA":" ","LANE":" ","ALLEY":" ","HOUSE_NO":"４７１號之３","E_COORD97":169585.06,"N_COORD97":2541183.9500000002,"ADDRESS":"大同路二段４７１號之３","OBJECTID":566129},"geometry":{"x":169585.05999999959,"y":2541183.9500000011}},{"attributes":{"ID":566157,"DIS_CODE":0,"TOWNNAME":"東區","LI":"崇明里","LIN":"9鄰","STREET":"大同路","SECT":"二段","MAREA":" ","LANE":" ","ALLEY":" ","HOUSE_NO":"４７５號","E_COORD97":169568.26999999999,"N_COORD97":2541174.29,"ADDRESS":"大同路二段４７５號","OBJECTID":566130},"geometry":{"x":169568.26999999955,"y":2541174.290000001}},{"attributes":{"ID":566158,"DIS_CODE":0,"TOWNNAME":"東區","LI":"崇明里","LIN":"9鄰","STREET":"大同路","SECT":"二段","MAREA":" ","LANE":" ","ALLEY":" ","HOUSE_NO":"４７７號","E_COORD97":169569.64000000001,"N_COORD97":2541170.1699999999,"ADDRESS":"大同路二段４７７號","OBJECTID":566131},"geometry":{"x":169569.63999999966,"y":2541170.1699999999}},{"attributes":{"ID":566159,"DIS_CODE":0,"TOWNNAME":"東區","LI":"崇明里","LIN":"9鄰","STREET":"大同路","SECT":"二段","MAREA":" ","LANE":" ","ALLEY":" ","HOUSE_NO":"４８３號","E_COORD97":169571.48000000001,"N_COORD97":2541157.5899999999,"ADDRESS":"大同路二段４８３號","OBJECTID":566132},"geometry":{"x":169571.48000000045,"y":2541157.5899999999}},{"attributes":{"ID":566160,"DIS_CODE":0,"TOWNNAME":"東區","LI":"崇明里","LIN":"9鄰","STREET":"大同路","SECT":"二段","MAREA":" ","LANE":" ","ALLEY":" ","HOUSE_NO":"４８５號","E_COORD97":169571.48000000001,"N_COORD97":2541153.2400000002,"ADDRESS":"大同路二段４８５號","OBJECTID":566133},"geometry":{"x":169571.48000000045,"y":2541153.2400000002}},{"attributes":{"ID":566161,"DIS_CODE":0,"TOWNNAME":"東區","LI":"崇明里","LIN":"9鄰","STREET":"大同路","SECT":"二段","MAREA":" ","LANE":" ","ALLEY":" ","HOUSE_NO":"４７９號","E_COORD97":169570.10000000001,"N_COORD97":2541166.5099999998,"ADDRESS":"大同路二段４７９號","OBJECTID":566134},"geometry":{"x":169570.10000000149,"y":2541166.5100000016}},{"attributes":{"ID":566162,"DIS_CODE":0,"TOWNNAME":"東區","LI":"崇明里","LIN":"9鄰","STREET":"大同路","SECT":"二段","MAREA":" ","LANE":" ","ALLEY":" ","HOUSE_NO":"４８１號","E_COORD97":169570.79000000001,"N_COORD97":2541161.25,"ADDRESS":"大同路二段４８１號","OBJECTID":566135},"geometry":{"x":169570.78999999911,"y":2541161.2500000037}},{"attributes":{"ID":566163,"DIS_CODE":0,"TOWNNAME":"東區","LI":"崇明里","LIN":"9鄰","STREET":"大同路","SECT":"二段","MAREA":" ","LANE":" ","ALLEY":" ","HOUSE_NO":"４７３號","E_COORD97":169562.32000000001,"N_COORD97":2541177.73,"ADDRESS":"大同路二段４７３號","OBJECTID":566136},"geometry":{"x":169562.3200000003,"y":2541177.7300000004}},{"attributes":{"ID":566164,"DIS_CODE":0,"TOWNNAME":"東區","LI":"大學里","LIN":"9鄰","STREET":"東寧路","SECT":" ","MAREA":" ","LANE":" ","ALLEY":" ","HOUSE_NO":"２５號地下層","E_COORD97":170091.13,"N_COORD97":2543655.0499999998,"ADDRESS":"東寧路２５號地下層","OBJECTID":566137},"geometry":{"x":170091.13000000082,"y":2543655.0500000045}},{"attributes":{"ID":566165,"DIS_CODE":0,"TOWNNAME":"東區","LI":"大學里","LIN":"9鄰","STREET":"東寧路","SECT":" ","MAREA":" ","LANE":" ","ALLEY":" ","HOUSE_NO":"２７號","E_COORD97":170109.78,"N_COORD97":2543650.25,"ADDRESS":"東寧路２７號","OBJECTID":566138},"geometry":{"x":170109.78000000026,"y":2543650.2500000019}},{"attributes":{"ID":566166,"DIS_CODE":0,"TOWNNAME":"東區","LI":"大學里","LIN":"9鄰","STREET":"東寧路","SECT":" ","MAREA":" ","LANE":" ","ALLEY":" ","HOUSE_NO":"２９號","E_COORD97":170108.25,"N_COORD97":2543663.3900000001,"ADDRESS":"東寧路２９號","OBJECTID":566139},"geometry":{"x":170108.25,"y":2543663.3900000025}},{"attributes":{"ID":566167,"DIS_CODE":0,"TOWNNAME":"東區","LI":"大學里","LIN":"9鄰","STREET":"東寧路","SECT":" ","MAREA":" ","LANE":" ","ALLEY":" ","HOUSE_NO":"２５號","E_COORD97":170097.81,"N_COORD97":2543645.6600000001,"ADDRESS":"東寧路２５號","OBJECTID":566140},"geometry":{"x":170097.81000000052,"y":2543645.6600000001}},{"attributes":{"ID":566168,"DIS_CODE":0,"TOWNNAME":"東區","LI":"莊敬里","LIN":"9鄰","STREET":"東光路","SECT":"二段","MAREA":" ","LANE":" ","ALLEY":" ","HOUSE_NO":"１０１號","E_COORD97":171214.32999999999,"N_COORD97":2544197.8900000001,"ADDRESS":"東光路二段１０１號","OBJECTID":566141},"geometry":{"x":171214.33000000007,"y":2544197.8900000006}},{"attributes":{"ID":566169,"DIS_CODE":0,"TOWNNAME":"東區","LI":"莊敬里","LIN":"9鄰","STREET":"東光路","SECT":"二段","MAREA":" ","LANE":" ","ALLEY":" ","HOUSE_NO":"１０５號","E_COORD97":171215.23000000001,"N_COORD97":2544205.0800000001,"ADDRESS":"東光路二段１０５號","OBJECTID":566142},"geometry":{"x":171215.23000000138,"y":2544205.0800000019}},{"attributes":{"ID":566170,"DIS_CODE":0,"TOWNNAME":"東區","LI":"莊敬里","LIN":"9鄰","STREET":"東光路","SECT":"二段","MAREA":" ","LANE":" ","ALLEY":" ","HOUSE_NO":"１０７號","E_COORD97":171216.23000000001,"N_COORD97":2544208.5899999999,"ADDRESS":"東光路二段１０７號","OBJECTID":566143},"geometry":{"x":171216.23000000138,"y":2544208.5899999999}},{"attributes":{"ID":566171,"DIS_CODE":0,"TOWNNAME":"東區","LI":"莊敬里","LIN":"9鄰","STREET":"東光路","SECT":"二段","MAREA":" ","LANE":" ","ALLEY":" ","HOUSE_NO":"８１號","E_COORD97":171209.03,"N_COORD97":2544157.2999999998,"ADDRESS":"東光路二段８１號","OBJECTID":566144},"geometry":{"x":171209.03000000119,"y":2544157.3000000007}},{"attributes":{"ID":566172,"DIS_CODE":0,"TOWNNAME":"安南區","LI":"顯宮里","LIN":"9鄰","STREET":"媽祖宮二街","SECT":" ","MAREA":" ","LANE":" ","ALLEY":" ","HOUSE_NO":"１７６號","E_COORD97":160339.92000000001,"N_COORD97":2548755.8199999998,"ADDRESS":"媽祖宮二街１７６號","OBJECTID":566145},"geometry":{"x":160339.92000000086,"y":2548755.8200000022}},{"attributes":{"ID":566173,"DIS_CODE":0,"TOWNNAME":"永康區","LI":"永康里","LIN":"26鄰","STREET":"永明街","SECT":" ","MAREA":" ","LANE":" ","ALLEY":" ","HOUSE_NO":"９號","E_COORD97":174046.35999999999,"N_COORD97":2547373.6800000002,"ADDRESS":"永明街９號","OBJECTID":566146},"geometry":{"x":174046.36000000127,"y":2547373.6800000016}},{"attributes":{"ID":566174,"DIS_CODE":0,"TOWNNAME":"安南區","LI":"安和里","LIN":"9鄰","STREET":"安和路","SECT":"一段","MAREA":" ","LANE":" ","ALLEY":" ","HOUSE_NO":"４０號","E_COORD97":169599.42999999999,"N_COORD97":2547452.6099999999,"ADDRESS":"安和路一段４０號","OBJECTID":566147},"geometry":{"x":169599.4299999997,"y":2547452.6099999994}},{"attributes":{"ID":566175,"DIS_CODE":0,"TOWNNAME":"安南區","LI":"安和里","LIN":"9鄰","STREET":"安和路","SECT":"一段","MAREA":" ","LANE":" ","ALLEY":" ","HOUSE_NO":"３８號","E_COORD97":169599.42999999999,"N_COORD97":2547452.6099999999,"ADDRESS":"安和路一段３８號","OBJECTID":566148},"geometry":{"x":169599.4299999997,"y":2547452.6099999994}},{"attributes":{"ID":566176,"DIS_CODE":0,"TOWNNAME":"安南區","LI":"城北里","LIN":"9鄰","STREET":"安中路","SECT":"六段","MAREA":" ","LANE":" ","ALLEY":" ","HOUSE_NO":"６６０號","E_COORD97":160759.89999999999,"N_COORD97":2551645.75,"ADDRESS":"安中路六段６６０號","OBJECTID":566149},"geometry":{"x":160759.90000000037,"y":2551645.7500000019}},{"attributes":{"ID":566177,"DIS_CODE":0,"TOWNNAME":"白河區","LI":"外角里","LIN":"9鄰","STREET":"三民路","SECT":" ","MAREA":" ","LANE":" ","ALLEY":" ","HOUSE_NO":"１６０之２號","E_COORD97":190973.98000000001,"N_COORD97":2583334.73,"ADDRESS":"三民路１６０之２號","OBJECTID":566150},"geometry":{"x":190973.98000000138,"y":2583334.7300000042}},{"attributes":{"ID":566178,"DIS_CODE":0,"TOWNNAME":"白河區","LI":"外角里","LIN":"9鄰","STREET":"三民路","SECT":" ","MAREA":" ","LANE":" ","ALLEY":" ","HOUSE_NO":"１６０之３號","E_COORD97":190969.17000000001,"N_COORD97":2583334.1899999999,"ADDRESS":"三民路１６０之３號","OBJECTID":566151},"geometry":{"x":190969.16999999993,"y":2583334.1900000013}},{"attributes":{"ID":566179,"DIS_CODE":0,"TOWNNAME":"白河區","LI":"外角里","LIN":"9鄰","STREET":"三民路","SECT":" ","MAREA":" ","LANE":" ","ALLEY":" ","HOUSE_NO":"１６０之４號","E_COORD97":190987.42999999999,"N_COORD97":2583339.73,"ADDRESS":"三民路１６０之４號","OBJECTID":566152},"geometry":{"x":190987.43000000063,"y":2583339.7300000004}},{"attributes":{"ID":566180,"DIS_CODE":0,"TOWNNAME":"白河區","LI":"外角里","LIN":"9鄰","STREET":"三民路","SECT":" ","MAREA":" ","LANE":" ","ALLEY":" ","HOUSE_NO":"１６０之５號","E_COORD97":190985.22,"N_COORD97":2583352.6400000001,"ADDRESS":"三民路１６０之５號","OBJECTID":566153},"geometry":{"x":190985.22000000067,"y":2583352.6400000025}},{"attributes":{"ID":566181,"DIS_CODE":0,"TOWNNAME":"白河區","LI":"外角里","LIN":"9鄰","STREET":"三民路","SECT":" ","MAREA":" ","LANE":" ","ALLEY":" ","HOUSE_NO":"１６０之６號","E_COORD97":190964.60000000001,"N_COORD97":2583345.02,"ADDRESS":"三民路１６０之６號","OBJECTID":566154},"geometry":{"x":190964.59999999963,"y":2583345.0199999977}},{"attributes":{"ID":566182,"DIS_CODE":0,"TOWNNAME":"白河區","LI":"外角里","LIN":"9鄰","STREET":"三民路","SECT":" ","MAREA":" ","LANE":" ","ALLEY":" ","HOUSE_NO":"１６０之７號","E_COORD97":190964.26000000001,"N_COORD97":2583349.3199999998,"ADDRESS":"三民路１６０之７號","OBJECTID":566155},"geometry":{"x":190964.26000000164,"y":2583349.3200000003}},{"attributes":{"ID":566183,"DIS_CODE":0,"TOWNNAME":"永康區","LI":"正強里","LIN":"9鄰","STREET":"正義街","SECT":" ","MAREA":" ","LANE":" ","ALLEY":" ","HOUSE_NO":"１１８號","E_COORD97":173395.60000000001,"N_COORD97":2547564.52,"ADDRESS":"正義街１１８號","OBJECTID":566156},"geometry":{"x":173395.59999999963,"y":2547564.5200000014}},{"attributes":{"ID":566184,"DIS_CODE":0,"TOWNNAME":"永康區","LI":"\u25A0洲里","LIN":"9鄰","STREET":"\u25A0行路","SECT":" ","MAREA":" ","LANE":" ","ALLEY":" ","HOUSE_NO":"３５號","E_COORD97":171686.79000000001,"N_COORD97":2549155.1699999999,"ADDRESS":"\u25A0行路３５號","OBJECTID":566157},"geometry":{"x":171686.79000000097,"y":2549155.1699999999}},{"attributes":{"ID":566185,"DIS_CODE":0,"TOWNNAME":"永康區","LI":"\u25A0洲里","LIN":"9鄰","STREET":"\u25A0行路","SECT":" ","MAREA":" ","LANE":" ","ALLEY":" ","HOUSE_NO":"６１號","E_COORD97":171611.5,"N_COORD97":2549204.8399999999,"ADDRESS":"\u25A0行路６１號","OBJECTID":566158},"geometry":{"x":171611.5,"y":2549204.8399999999}},{"attributes":{"ID":566186,"DIS_CODE":0,"TOWNNAME":"永康區","LI":"\u25A0洲里","LIN":"9鄰","STREET":"\u25A0行路","SECT":" ","MAREA":" ","LANE":" ","ALLEY":" ","HOUSE_NO":"８９號","E_COORD97":171523.01999999999,"N_COORD97":2549257.2400000002,"ADDRESS":"\u25A0行路８９號","OBJECTID":566159},"geometry":{"x":171523.01999999955,"y":2549257.2400000002}},{"attributes":{"ID":566187,"DIS_CODE":0,"TOWNNAME":"永康區","LI":"\u25A0洲里","LIN":"9鄰","STREET":"\u25A0行路","SECT":" ","MAREA":" ","LANE":" ","ALLEY":" ","HOUSE_NO":"３５號之１","E_COORD97":171685.42999999999,"N_COORD97":2549157.2200000002,"ADDRESS":"\u25A0行路３５號之１","OBJECTID":566160},"geometry":{"x":171685.43000000063,"y":2549157.2200000025}},{"attributes":{"ID":566188,"DIS_CODE":0,"TOWNNAME":"永康區","LI":"\u25A0洲里","LIN":"9鄰","STREET":"\u25A0行路","SECT":" ","MAREA":" ","LANE":" ","ALLEY":" ","HOUSE_NO":"３１號","E_COORD97":171699.37,"N_COORD97":2549145.6699999999,"ADDRESS":"\u25A0行路３１號","OBJECTID":566161},"geometry":{"x":171699.37000000011,"y":2549145.6699999981}},{"attributes":{"ID":566189,"DIS_CODE":0,"TOWNNAME":"永康區","LI":"\u25A0洲里","LIN":"9鄰","STREET":"\u25A0行路","SECT":" ","MAREA":" ","LANE":" ","ALLEY":" ","HOUSE_NO":"４３號","E_COORD97":171649.67999999999,"N_COORD97":2549180.0800000001,"ADDRESS":"\u25A0行路４３號","OBJECTID":566162},"geometry":{"x":171649.68000000156,"y":2549180.0800000001}},{"attributes":{"ID":566190,"DIS_CODE":0,"TOWNNAME":"永康區","LI":"\u25A0洲里","LIN":"9鄰","STREET":"\u25A0洲二街","SECT":" ","MAREA":" ","LANE":" ","ALLEY":" ","HOUSE_NO":"８１號","E_COORD97":171541.63,"N_COORD97":2549234,"ADDRESS":"\u25A0洲二街８１號","OBJECTID":566163},"geometry":{"x":171541.63000000175,"y":2549234}},{"attributes":{"ID":566191,"DIS_CODE":0,"TOWNNAME":"永康區","LI":"\u25A0洲里","LIN":"9鄰","STREET":"\u25A0行路","SECT":" ","MAREA":" ","LANE":" ","ALLEY":" ","HOUSE_NO":"５５號","E_COORD97":171627.16,"N_COORD97":2549193.8300000001,"ADDRESS":"\u25A0行路５５號","OBJECTID":566164},"geometry":{"x":171627.16000000108,"y":2549193.8300000019}},{"attributes":{"ID":566192,"DIS_CODE":0,"TOWNNAME":"永康區","LI":"\u25A0洲里","LIN":"9鄰","STREET":"\u25A0行路","SECT":" ","MAREA":" ","LANE":" ","ALLEY":" ","HOUSE_NO":"８５號","E_COORD97":171522.14999999999,"N_COORD97":2549241.25,"ADDRESS":"\u25A0行路８５號","OBJECTID":566165},"geometry":{"x":171522.1500000013,"y":2549241.2500000019}},{"attributes":{"ID":566193,"DIS_CODE":0,"TOWNNAME":"永康區","LI":"\u25A0洲里","LIN":"9鄰","STREET":"\u25A0行路","SECT":" ","MAREA":" ","LANE":" ","ALLEY":" ","HOUSE_NO":"６７號","E_COORD97":171579.78,"N_COORD97":2549224.46,"ADDRESS":"\u25A0行路６７號","OBJECTID":566166},"geometry":{"x":171579.78000000026,"y":2549224.4600000028}},{"attributes":{"ID":566194,"DIS_CODE":0,"TOWNNAME":"永康區","LI":"\u25A0洲里","LIN":"9鄰","STREET":"\u25A0行路","SECT":" ","MAREA":" ","LANE":" ","ALLEY":" ","HOUSE_NO":"４１號","E_COORD97":171654.87,"N_COORD97":2549176.5800000001,"ADDRESS":"\u25A0行路４１號","OBJECTID":566167},"geometry":{"x":171654.87000000011,"y":2549176.5800000001}},{"attributes":{"ID":566195,"DIS_CODE":0,"TOWNNAME":"永康區","LI":"\u25A0洲里","LIN":"9鄰","STREET":"\u25A0行路","SECT":" ","MAREA":" ","LANE":" ","ALLEY":" ","HOUSE_NO":"５７號","E_COORD97":171622.45000000001,"N_COORD97":2549197.5800000001,"ADDRESS":"\u25A0行路５７號","OBJECTID":566168},"geometry":{"x":171622.45000000019,"y":2549197.5800000038}},{"attributes":{"ID":566196,"DIS_CODE":0,"TOWNNAME":"永康區","LI":"\u25A0洲里","LIN":"9鄰","STREET":"\u25A0行路","SECT":" ","MAREA":" ","LANE":" ","ALLEY":" ","HOUSE_NO":"５１號","E_COORD97":171636.20000000001,"N_COORD97":2549185.0800000001,"ADDRESS":"\u25A0行路５１號","OBJECTID":566169},"geometry":{"x":171636.20000000019,"y":2549185.0800000019}},{"attributes":{"ID":566197,"DIS_CODE":0,"TOWNNAME":"永康區","LI":"\u25A0洲里","LIN":"9鄰","STREET":"\u25A0行路","SECT":" ","MAREA":" ","LANE":" ","ALLEY":" ","HOUSE_NO":"６５號","E_COORD97":171583.32999999999,"N_COORD97":2549220.71,"ADDRESS":"\u25A0行路６５號","OBJECTID":566170},"geometry":{"x":171583.33000000101,"y":2549220.7100000009}},{"attributes":{"ID":566198,"DIS_CODE":0,"TOWNNAME":"永康區","LI":"\u25A0洲里","LIN":"9鄰","STREET":"\u25A0行路","SECT":" ","MAREA":" ","LANE":" ","ALLEY":" ","HOUSE_NO":"４５號","E_COORD97":171644.79000000001,"N_COORD97":2549183.0800000001,"ADDRESS":"\u25A0行路４５號","OBJECTID":566171},"geometry":{"x":171644.79000000097,"y":2549183.0800000001}},{"attributes":{"ID":566199,"DIS_CODE":0,"TOWNNAME":"永康區","LI":"\u25A0洲里","LIN":"9鄰","STREET":"\u25A0行路","SECT":" ","MAREA":" ","LANE":" ","ALLEY":" ","HOUSE_NO":"９１號","E_COORD97":171519.37,"N_COORD97":2549253.9900000002,"ADDRESS":"\u25A0行路９１號","OBJECTID":566172},"geometry":{"x":171519.37000000011,"y":2549253.9900000021}},{"attributes":{"ID":566200,"DIS_CODE":0,"TOWNNAME":"永康區","LI":"中華里","LIN":"9鄰","STREET":"忠勇街","SECT":" ","MAREA":" ","LANE":" ","ALLEY":" ","HOUSE_NO":"８８號","E_COORD97":171900.31,"N_COORD97":2544553.2599999998,"ADDRESS":"忠勇街８８號","OBJECTID":566173},"geometry":{"x":171900.31000000052,"y":2544553.2599999998}},{"attributes":{"ID":566201,"DIS_CODE":0,"TOWNNAME":"永康區","LI":"中華里","LIN":"9鄰","STREET":"忠勇街","SECT":" ","MAREA":" ","LANE":" ","ALLEY":" ","HOUSE_NO":"７２號","E_COORD97":171899.51000000001,"N_COORD97":2544519.8799999999,"ADDRESS":"忠勇街７２號","OBJECTID":566174},"geometry":{"x":171899.50999999978,"y":2544519.8800000008}},{"attributes":{"ID":566202,"DIS_CODE":0,"TOWNNAME":"永康區","LI":"南灣里","LIN":"9鄰","STREET":"大灣路","SECT":" ","MAREA":" ","LANE":" ","ALLEY":" ","HOUSE_NO":"６３７號","E_COORD97":174159.95000000001,"N_COORD97":2544493.21,"ADDRESS":"大灣路６３７號","OBJECTID":566175},"geometry":{"x":174159.95000000019,"y":2544493.2100000028}},{"attributes":{"ID":566203,"DIS_CODE":0,"TOWNNAME":"永康區","LI":"中華里","LIN":"9鄰","STREET":"忠勇街","SECT":" ","MAREA":" ","LANE":" ","ALLEY":" ","HOUSE_NO":"８４號","E_COORD97":171899.67000000001,"N_COORD97":2544544.8900000001,"ADDRESS":"忠勇街８４號","OBJECTID":566176},"geometry":{"x":171899.67000000086,"y":2544544.8900000025}},{"attributes":{"ID":566204,"DIS_CODE":0,"TOWNNAME":"永康區","LI":"中華里","LIN":"9鄰","STREET":"忠勇街","SECT":" ","MAREA":" ","LANE":" ","ALLEY":" ","HOUSE_NO":"８２號","E_COORD97":171899.51000000001,"N_COORD97":2544540.6800000002,"ADDRESS":"忠勇街８２號","OBJECTID":566177},"geometry":{"x":171899.50999999978,"y":2544540.6799999997}},{"attributes":{"ID":566205,"DIS_CODE":0,"TOWNNAME":"永康區","LI":"中華里","LIN":"9鄰","STREET":"忠勇街","SECT":" ","MAREA":" ","LANE":" ","ALLEY":" ","HOUSE_NO":"６６號","E_COORD97":171899.73000000001,"N_COORD97":2544507.7599999998,"ADDRESS":"忠勇街６６號","OBJECTID":566178},"geometry":{"x":171899.73000000138,"y":2544507.7600000016}},{"attributes":{"ID":566206,"DIS_CODE":0,"TOWNNAME":"永康區","LI":"中華里","LIN":"9鄰","STREET":"忠勇街","SECT":" ","MAREA":" ","LANE":" ","ALLEY":" ","HOUSE_NO":"７６號","E_COORD97":171899.51000000001,"N_COORD97":2544528.5499999998,"ADDRESS":"忠勇街７６號","OBJECTID":566179},"geometry":{"x":171899.50999999978,"y":2544528.5500000007}},{"attributes":{"ID":566207,"DIS_CODE":0,"TOWNNAME":"安南區","LI":"\u25A0南里","LIN":"9鄰","STREET":"安昌街","SECT":" ","MAREA":" ","LANE":" ","ALLEY":" ","HOUSE_NO":"２３８號","E_COORD97":170137.10000000001,"N_COORD97":2552590.21,"ADDRESS":"安昌街２３８號","OBJECTID":566180},"geometry":{"x":170137.10000000056,"y":2552590.2100000009}},{"attributes":{"ID":566208,"DIS_CODE":0,"TOWNNAME":"安南區","LI":"城北里","LIN":"9鄰","STREET":"尊安街","SECT":" ","MAREA":" ","LANE":" ","ALLEY":" ","HOUSE_NO":"５９號","E_COORD97":160906.92999999999,"N_COORD97":2551609.1299999999,"ADDRESS":"尊安街５９號","OBJECTID":566181},"geometry":{"x":160906.9299999997,"y":2551609.129999999}},{"attributes":{"ID":566209,"DIS_CODE":0,"TOWNNAME":"安南區","LI":"新順里","LIN":"9鄰","STREET":"安生街","SECT":" ","MAREA":" ","LANE":" ","ALLEY":" ","HOUSE_NO":"８３之１號","E_COORD97":169560.92000000001,"N_COORD97":2549506.8199999998,"ADDRESS":"安生街８３之１號","OBJECTID":566182},"geometry":{"x":169560.91999999993,"y":2549506.8200000003}},{"attributes":{"ID":566210,"DIS_CODE":0,"TOWNNAME":"安南區","LI":"\u25A0南里","LIN":"9鄰","STREET":"安昌街","SECT":" ","MAREA":" ","LANE":" ","ALLEY":" ","HOUSE_NO":"２５５號","E_COORD97":170115.26999999999,"N_COORD97":2552632.0600000001,"ADDRESS":"安昌街２５５號","OBJECTID":566183},"geometry":{"x":170115.27000000048,"y":2552632.0600000005}},{"attributes":{"ID":566211,"DIS_CODE":0,"TOWNNAME":"安南區","LI":"\u25A0南里","LIN":"9鄰","STREET":"安昌街","SECT":" ","MAREA":" ","LANE":" ","ALLEY":" ","HOUSE_NO":"２５７號","E_COORD97":170115.45000000001,"N_COORD97":2552636.7400000002,"ADDRESS":"安昌街２５７號","OBJECTID":566184},"geometry":{"x":170115.45000000019,"y":2552636.7400000002}},{"attributes":{"ID":566212,"DIS_CODE":0,"TOWNNAME":"安南區","LI":"大安里","LIN":"9鄰","STREET":"大安街","SECT":" ","MAREA":" ","LANE":" ","ALLEY":" ","HOUSE_NO":"２１８號","E_COORD97":167420.17999999999,"N_COORD97":2548333.96,"ADDRESS":"大安街２１８號","OBJECTID":566185},"geometry":{"x":167420.18000000156,"y":2548333.9600000009}},{"attributes":{"ID":566213,"DIS_CODE":0,"TOWNNAME":"安南區","LI":"大安里","LIN":"9鄰","STREET":"大安街","SECT":" ","MAREA":" ","LANE":" ","ALLEY":" ","HOUSE_NO":"２２６號","E_COORD97":167430.64999999999,"N_COORD97":2548350.98,"ADDRESS":"大安街２２６號","OBJECTID":566186},"geometry":{"x":167430.65000000037,"y":2548350.9800000042}},{"attributes":{"ID":566214,"DIS_CODE":0,"TOWNNAME":"安南區","LI":"大安里","LIN":"9鄰","STREET":"理安街","SECT":" ","MAREA":" ","LANE":" ","ALLEY":" ","HOUSE_NO":"１９５號","E_COORD97":167523.06,"N_COORD97":2548301.3199999998,"ADDRESS":"理安街１９５號","OBJECTID":566187},"geometry":{"x":167523.06000000052,"y":2548301.320000004}},{"attributes":{"ID":566215,"DIS_CODE":0,"TOWNNAME":"安南區","LI":"大安里","LIN":"9鄰","STREET":"理安街","SECT":" ","MAREA":" ","LANE":" ","ALLEY":" ","HOUSE_NO":"１７７號","E_COORD97":167500.28,"N_COORD97":2548265.1000000001,"ADDRESS":"理安街１７７號","OBJECTID":566188},"geometry":{"x":167500.28000000119,"y":2548265.1000000015}},{"attributes":{"ID":566216,"DIS_CODE":0,"TOWNNAME":"安南區","LI":"大安里","LIN":"9鄰","STREET":"理安街","SECT":" ","MAREA":" ","LANE":" ","ALLEY":" ","HOUSE_NO":"１８１號","E_COORD97":167504.89000000001,"N_COORD97":2548272.77,"ADDRESS":"理安街１８１號","OBJECTID":566189},"geometry":{"x":167504.88999999966,"y":2548272.7699999996}},{"attributes":{"ID":566217,"DIS_CODE":0,"TOWNNAME":"安南區","LI":"大安里","LIN":"9鄰","STREET":"理安街","SECT":" ","MAREA":" ","LANE":" ","ALLEY":" ","HOUSE_NO":"１８３號","E_COORD97":167507.57999999999,"N_COORD97":2548276.79,"ADDRESS":"理安街１８３號","OBJECTID":566190},"geometry":{"x":167507.58000000194,"y":2548276.790000001}},{"attributes":{"ID":566218,"DIS_CODE":0,"TOWNNAME":"安南區","LI":"大安里","LIN":"9鄰","STREET":"理安街","SECT":" ","MAREA":" ","LANE":" ","ALLEY":" ","HOUSE_NO":"１８９號","E_COORD97":167517.26000000001,"N_COORD97":2548290.04,"ADDRESS":"理安街１８９號","OBJECTID":566191},"geometry":{"x":167517.25999999978,"y":2548290.0399999991}},{"attributes":{"ID":566219,"DIS_CODE":0,"TOWNNAME":"安南區","LI":"安西里","LIN":"9鄰","STREET":"安和路","SECT":"一段","MAREA":" ","LANE":" ","ALLEY":" ","HOUSE_NO":"３３３號","E_COORD97":169257.29999999999,"N_COORD97":2548173.1099999999,"ADDRESS":"安和路一段３３３號","OBJECTID":566192},"geometry":{"x":169257.30000000075,"y":2548173.1100000013}},{"attributes":{"ID":566220,"DIS_CODE":0,"TOWNNAME":"安南區","LI":"安西里","LIN":"9鄰","STREET":"安和路","SECT":"一段","MAREA":" ","LANE":" ","ALLEY":" ","HOUSE_NO":"３２３號","E_COORD97":169262.75,"N_COORD97":2548155.1299999999,"ADDRESS":"安和路一段３２３號","OBJECTID":566193},"geometry":{"x":169262.75000000186,"y":2548155.1300000027}},{"attributes":{"ID":566221,"DIS_CODE":0,"TOWNNAME":"安南區","LI":"安西里","LIN":"9鄰","STREET":"安和路","SECT":"一段","MAREA":" ","LANE":" ","ALLEY":" ","HOUSE_NO":"２８９號","E_COORD97":169277.20999999999,"N_COORD97":2548085.2400000002,"ADDRESS":"安和路一段２８９號","OBJECTID":566194},"geometry":{"x":169277.21000000089,"y":2548085.2400000021}},{"attributes":{"ID":566222,"DIS_CODE":0,"TOWNNAME":"安南區","LI":"安西里","LIN":"9鄰","STREET":"安和路","SECT":"一段","MAREA":" ","LANE":" ","ALLEY":" ","HOUSE_NO":"２９１號","E_COORD97":169277.20999999999,"N_COORD97":2548090.1400000001,"ADDRESS":"安和路一段２９１號","OBJECTID":566195},"geometry":{"x":169277.21000000089,"y":2548090.1400000025}},{"attributes":{"ID":566223,"DIS_CODE":0,"TOWNNAME":"安南區","LI":"安富里","LIN":"9鄰","STREET":"安富街","SECT":" ","MAREA":" ","LANE":" ","ALLEY":" ","HOUSE_NO":"２５８號","E_COORD97":167503.48000000001,"N_COORD97":2547451.1299999999,"ADDRESS":"安富街２５８號","OBJECTID":566196},"geometry":{"x":167503.48000000045,"y":2547451.1300000008}},{"attributes":{"ID":566224,"DIS_CODE":0,"TOWNNAME":"安南區","LI":"安和里","LIN":"9鄰","STREET":"安和路","SECT":"一段","MAREA":" ","LANE":" ","ALLEY":" ","HOUSE_NO":"６０號","E_COORD97":169560.51000000001,"N_COORD97":2547506.54,"ADDRESS":"安和路一段６０號","OBJECTID":566197},"geometry":{"x":169560.50999999978,"y":2547506.540000001}},{"attributes":{"ID":566225,"DIS_CODE":0,"TOWNNAME":"安南區","LI":"安和里","LIN":"9鄰","STREET":"安和路","SECT":"一段","MAREA":" ","LANE":" ","ALLEY":" ","HOUSE_NO":"６８號","E_COORD97":169554.69,"N_COORD97":2547522.1099999999,"ADDRESS":"安和路一段６８號","OBJECTID":566198},"geometry":{"x":169554.69000000041,"y":2547522.1100000013}},{"attributes":{"ID":566226,"DIS_CODE":0,"TOWNNAME":"安南區","LI":"安和里","LIN":"9鄰","STREET":"安和路","SECT":"一段","MAREA":" ","LANE":" ","ALLEY":" ","HOUSE_NO":"７２號","E_COORD97":169552.32999999999,"N_COORD97":2547529.1899999999,"ADDRESS":"安和路一段７２號","OBJECTID":566199},"geometry":{"x":169552.33000000101,"y":2547529.1900000013}},{"attributes":{"ID":566227,"DIS_CODE":0,"TOWNNAME":"安南區","LI":"安和里","LIN":"9鄰","STREET":"安和路","SECT":"一段","MAREA":" ","LANE":" ","ALLEY":" ","HOUSE_NO":"９０號","E_COORD97":169535.89999999999,"N_COORD97":2547572.2400000002,"ADDRESS":"安和路一段９０號","OBJECTID":566200},"geometry":{"x":169535.90000000037,"y":2547572.2400000002}}]}