{"displayFieldName":"TOWNNAME","fieldAliases":{"ID":"ID","DIS_CODE":"DIS_CODE","TOWNNAME":"TOWNNAME","LI":"LI","LIN":"LIN","STREET":"STREET","SECT":"SECT","MAREA":"MAREA","LANE":"LANE","ALLEY":"ALLEY","HOUSE_NO":"HOUSE_NO","E_COORD97":"E_COORD97","N_COORD97":"N_COORD97","ADDRESS":"ADDRESS","OBJECTID":"OBJECTID"},"geometryType":"esriGeometryPoint","spatialReference":{"wkid":102443,"latestWkid":3826},"fields":[{"name":"ID","type":"esriFieldTypeDouble","alias":"ID"},{"name":"DIS_CODE","type":"esriFieldTypeInteger","alias":"DIS_CODE"},{"name":"TOWNNAME","type":"esriFieldTypeString","alias":"TOWNNAME","length":8},{"name":"LI","type":"esriFieldTypeString","alias":"LI","length":8},{"name":"LIN","type":"esriFieldTypeString","alias":"LIN","length":12},{"name":"STREET","type":"esriFieldTypeString","alias":"STREET","length":20},{"name":"SECT","type":"esriFieldTypeString","alias":"SECT","length":8},{"name":"MAREA","type":"esriFieldTypeString","alias":"MAREA","length":12},{"name":"LANE","type":"esriFieldTypeString","alias":"LANE","length":10},{"name":"ALLEY","type":"esriFieldTypeString","alias":"ALLEY","length":10},{"name":"HOUSE_NO","type":"esriFieldTypeString","alias":"HOUSE_NO","length":20},{"name":"E_COORD97","type":"esriFieldTypeDouble","alias":"E_COORD97"},{"name":"N_COORD97","type":"esriFieldTypeDouble","alias":"N_COORD97"},{"name":"ADDRESS","type":"esriFieldTypeString","alias":"ADDRESS","length":50},{"name":"OBJECTID","type":"esriFieldTypeOID","alias":"OBJECTID"}],"features":[{"attributes":{"ID":2601,"DIS_CODE":0,"TOWNNAME":"新市區","LI":"永就里","LIN":"3鄰","STREET":" ","SECT":" ","MAREA":"永就","LANE":" ","ALLEY":" ","HOUSE_NO":"３７之６號","E_COORD97":178488.65818999999,"N_COORD97":2551445.4329900001,"ADDRESS":"永就３７之６號","OBJECTID":2601},"geometry":{"x":178488.65819000173,"y":2551445.4329910018}},{"attributes":{"ID":2602,"DIS_CODE":0,"TOWNNAME":"新市區","LI":"永就里","LIN":"3鄰","STREET":" ","SECT":" ","MAREA":"永就","LANE":" ","ALLEY":" ","HOUSE_NO":"３７之８號","E_COORD97":178485.81088800001,"N_COORD97":2551445.6915000002,"ADDRESS":"永就３７之８號","OBJECTID":2602},"geometry":{"x":178485.8108880017,"y":2551445.6915020049}},{"attributes":{"ID":2603,"DIS_CODE":0,"TOWNNAME":"新市區","LI":"三舍里","LIN":"1鄰","STREET":" ","SECT":" ","MAREA":"三舍","LANE":" ","ALLEY":" ","HOUSE_NO":"１之１５號","E_COORD97":177815.947549,"N_COORD97":2554085.97829,"ADDRESS":"三舍１之１５號","OBJECTID":2603},"geometry":{"x":177815.94754900038,"y":2554085.9782860018}},{"attributes":{"ID":2604,"DIS_CODE":0,"TOWNNAME":"安南區","LI":"理想里","LIN":"13鄰","STREET":"海佃路","SECT":"二段","MAREA":" ","LANE":"１０２巷","ALLEY":" ","HOUSE_NO":"２３號","E_COORD97":167087.332173,"N_COORD97":2548030.0433299998,"ADDRESS":"海佃路二段１０２巷２３號","OBJECTID":2604},"geometry":{"x":167087.33217300009,"y":2548030.0433290005}},{"attributes":{"ID":2605,"DIS_CODE":0,"TOWNNAME":"鹽水區","LI":"岸內里","LIN":"10鄰","STREET":" ","SECT":" ","MAREA":"新岸內","LANE":" ","ALLEY":" ","HOUSE_NO":"１２７號","E_COORD97":174318.72,"N_COORD97":2581066.4300000002,"ADDRESS":"新岸內１２７號","OBJECTID":2605},"geometry":{"x":174318.71999999974,"y":2581066.4299999997}},{"attributes":{"ID":2606,"DIS_CODE":0,"TOWNNAME":"鹽水區","LI":"岸內里","LIN":"10鄰","STREET":" ","SECT":" ","MAREA":"新岸內","LANE":" ","ALLEY":" ","HOUSE_NO":"１３０號之２","E_COORD97":174287.70000000001,"N_COORD97":2581014.8399999999,"ADDRESS":"新岸內１３０號之２","OBJECTID":2606},"geometry":{"x":174287.70000000205,"y":2581014.8400000017}},{"attributes":{"ID":2607,"DIS_CODE":0,"TOWNNAME":"鹽水區","LI":"岸內里","LIN":"9鄰","STREET":"和平路","SECT":" ","MAREA":" ","LANE":"６３２巷","ALLEY":"６弄","HOUSE_NO":"１０號","E_COORD97":174688.41,"N_COORD97":2580630.9399999999,"ADDRESS":"和平路６３２巷６弄１０號","OBJECTID":2607},"geometry":{"x":174688.41000000108,"y":2580630.9400000013}},{"attributes":{"ID":2608,"DIS_CODE":0,"TOWNNAME":"鹽水區","LI":"岸內里","LIN":"9鄰","STREET":"和平路","SECT":" ","MAREA":" ","LANE":"６３２巷","ALLEY":"６弄","HOUSE_NO":"１１號","E_COORD97":174674.67999999999,"N_COORD97":2580610.3199999998,"ADDRESS":"和平路６３２巷６弄１１號","OBJECTID":2608},"geometry":{"x":174674.6799999997,"y":2580610.3200000003}},{"attributes":{"ID":2609,"DIS_CODE":0,"TOWNNAME":"鹽水區","LI":"岸內里","LIN":"9鄰","STREET":"和平路","SECT":" ","MAREA":" ","LANE":"６３２巷","ALLEY":"６弄","HOUSE_NO":"１２號","E_COORD97":174681.67999999999,"N_COORD97":2580630.7400000002,"ADDRESS":"和平路６３２巷６弄１２號","OBJECTID":2609},"geometry":{"x":174681.6799999997,"y":2580630.7400000002}},{"attributes":{"ID":2610,"DIS_CODE":0,"TOWNNAME":"鹽水區","LI":"岸內里","LIN":"9鄰","STREET":"和平路","SECT":" ","MAREA":" ","LANE":"６３２巷","ALLEY":"６弄","HOUSE_NO":"１３號","E_COORD97":174667.81,"N_COORD97":2580609.6200000001,"ADDRESS":"和平路６３２巷６弄１３號","OBJECTID":2610},"geometry":{"x":174667.81000000145,"y":2580609.620000001}},{"attributes":{"ID":2611,"DIS_CODE":0,"TOWNNAME":"鹽水區","LI":"岸內里","LIN":"9鄰","STREET":"和平路","SECT":" ","MAREA":" ","LANE":"６３２巷","ALLEY":"６弄","HOUSE_NO":"１５號","E_COORD97":174661.64999999999,"N_COORD97":2580610.0299999998,"ADDRESS":"和平路６３２巷６弄１５號","OBJECTID":2611},"geometry":{"x":174661.6500000013,"y":2580610.0300000012}},{"attributes":{"ID":2612,"DIS_CODE":0,"TOWNNAME":"鹽水區","LI":"岸內里","LIN":"9鄰","STREET":"和平路","SECT":" ","MAREA":" ","LANE":"６３２巷","ALLEY":"６弄","HOUSE_NO":"１６號","E_COORD97":174674.95000000001,"N_COORD97":2580630.54,"ADDRESS":"和平路６３２巷６弄１６號","OBJECTID":2612},"geometry":{"x":174674.95000000112,"y":2580630.540000001}},{"attributes":{"ID":2613,"DIS_CODE":0,"TOWNNAME":"鹽水區","LI":"岸內里","LIN":"9鄰","STREET":"和平路","SECT":" ","MAREA":" ","LANE":"６３２巷","ALLEY":"６弄","HOUSE_NO":"１７號","E_COORD97":174654.73000000001,"N_COORD97":2580609.8300000001,"ADDRESS":"和平路６３２巷６弄１７號","OBJECTID":2613},"geometry":{"x":174654.73000000138,"y":2580609.8300000001}},{"attributes":{"ID":2614,"DIS_CODE":0,"TOWNNAME":"鹽水區","LI":"岸內里","LIN":"9鄰","STREET":"和平路","SECT":" ","MAREA":" ","LANE":"６３２巷","ALLEY":"６弄","HOUSE_NO":"１８號","E_COORD97":174668.22,"N_COORD97":2580630.3399999999,"ADDRESS":"和平路６３２巷６弄１８號","OBJECTID":2614},"geometry":{"x":174668.21999999974,"y":2580630.3399999999}},{"attributes":{"ID":2615,"DIS_CODE":0,"TOWNNAME":"鹽水區","LI":"岸內里","LIN":"9鄰","STREET":"和平路","SECT":" ","MAREA":" ","LANE":"６３２巷","ALLEY":"６弄","HOUSE_NO":"１９號","E_COORD97":174648.25,"N_COORD97":2580609.7799999998,"ADDRESS":"和平路６３２巷６弄１９號","OBJECTID":2615},"geometry":{"x":174648.25000000186,"y":2580609.7799999993}},{"attributes":{"ID":2616,"DIS_CODE":0,"TOWNNAME":"鹽水區","LI":"岸內里","LIN":"9鄰","STREET":"和平路","SECT":" ","MAREA":" ","LANE":"６３２巷","ALLEY":"６弄","HOUSE_NO":"２０號","E_COORD97":174661.5,"N_COORD97":2580630.1400000001,"ADDRESS":"和平路６３２巷６弄２０號","OBJECTID":2616},"geometry":{"x":174661.5,"y":2580630.1400000025}},{"attributes":{"ID":2617,"DIS_CODE":0,"TOWNNAME":"鹽水區","LI":"岸內里","LIN":"9鄰","STREET":"和平路","SECT":" ","MAREA":" ","LANE":"６３２巷","ALLEY":"６弄","HOUSE_NO":"２２號","E_COORD97":174654.76999999999,"N_COORD97":2580629.9399999999,"ADDRESS":"和平路６３２巷６弄２２號","OBJECTID":2617},"geometry":{"x":174654.77000000048,"y":2580629.9400000032}},{"attributes":{"ID":2618,"DIS_CODE":0,"TOWNNAME":"鹽水區","LI":"岸內里","LIN":"9鄰","STREET":"和平路","SECT":" ","MAREA":" ","LANE":"６３２巷","ALLEY":"６弄","HOUSE_NO":"２３號","E_COORD97":174635.82999999999,"N_COORD97":2580609.6600000001,"ADDRESS":"和平路６３２巷６弄２３號","OBJECTID":2618},"geometry":{"x":174635.82999999914,"y":2580609.660000002}},{"attributes":{"ID":2619,"DIS_CODE":0,"TOWNNAME":"鹽水區","LI":"岸內里","LIN":"9鄰","STREET":"和平路","SECT":" ","MAREA":" ","LANE":"６３２巷","ALLEY":"６弄","HOUSE_NO":"２６號","E_COORD97":174648.04000000001,"N_COORD97":2580629.7400000002,"ADDRESS":"和平路６３２巷６弄２６號","OBJECTID":2619},"geometry":{"x":174648.0400000019,"y":2580629.7400000021}},{"attributes":{"ID":2620,"DIS_CODE":0,"TOWNNAME":"鹽水區","LI":"岸內里","LIN":"9鄰","STREET":"和平路","SECT":" ","MAREA":" ","LANE":"６３２巷","ALLEY":"６弄","HOUSE_NO":"２８號","E_COORD97":174641.32000000001,"N_COORD97":2580629.54,"ADDRESS":"和平路６３２巷６弄２８號","OBJECTID":2620},"geometry":{"x":174641.32000000216,"y":2580629.540000001}},{"attributes":{"ID":2621,"DIS_CODE":0,"TOWNNAME":"鹽水區","LI":"岸內里","LIN":"9鄰","STREET":"和平路","SECT":" ","MAREA":" ","LANE":"６３２巷","ALLEY":"６弄","HOUSE_NO":"３０號","E_COORD97":174634.59,"N_COORD97":2580629.3399999999,"ADDRESS":"和平路６３２巷６弄３０號","OBJECTID":2621},"geometry":{"x":174634.59000000078,"y":2580629.3400000017}},{"attributes":{"ID":2622,"DIS_CODE":0,"TOWNNAME":"鹽水區","LI":"岸內里","LIN":"9鄰","STREET":"和平路","SECT":" ","MAREA":" ","LANE":"６３２巷","ALLEY":"６弄","HOUSE_NO":"３號","E_COORD97":174700.73999999999,"N_COORD97":2580610.79,"ADDRESS":"和平路６３２巷６弄３號","OBJECTID":2622},"geometry":{"x":174700.74000000022,"y":2580610.790000001}},{"attributes":{"ID":2623,"DIS_CODE":0,"TOWNNAME":"鹽水區","LI":"岸內里","LIN":"9鄰","STREET":"和平路","SECT":" ","MAREA":" ","LANE":"６３２巷","ALLEY":"６弄","HOUSE_NO":"５號","E_COORD97":174694.57999999999,"N_COORD97":2580610.4500000002,"ADDRESS":"和平路６３２巷６弄５號","OBJECTID":2623},"geometry":{"x":174694.58000000007,"y":2580610.4500000011}},{"attributes":{"ID":2624,"DIS_CODE":0,"TOWNNAME":"鹽水區","LI":"岸內里","LIN":"9鄰","STREET":"和平路","SECT":" ","MAREA":" ","LANE":"６３２巷","ALLEY":"６弄","HOUSE_NO":"６號","E_COORD97":174701.85999999999,"N_COORD97":2580631.3399999999,"ADDRESS":"和平路６３２巷６弄６號","OBJECTID":2624},"geometry":{"x":174701.86000000034,"y":2580631.3400000036}},{"attributes":{"ID":2625,"DIS_CODE":0,"TOWNNAME":"鹽水區","LI":"岸內里","LIN":"9鄰","STREET":"和平路","SECT":" ","MAREA":" ","LANE":"６３２巷","ALLEY":"６弄","HOUSE_NO":"７號","E_COORD97":174688.25,"N_COORD97":2580610.5600000001,"ADDRESS":"和平路６３２巷６弄７號","OBJECTID":2625},"geometry":{"x":174688.25,"y":2580610.5600000024}},{"attributes":{"ID":2626,"DIS_CODE":0,"TOWNNAME":"鹽水區","LI":"岸內里","LIN":"8鄰","STREET":"和平路","SECT":" ","MAREA":" ","LANE":"６３２巷","ALLEY":"１弄","HOUSE_NO":"１６號","E_COORD97":174745.28,"N_COORD97":2580593.52,"ADDRESS":"和平路６３２巷１弄１６號","OBJECTID":2626},"geometry":{"x":174745.28000000119,"y":2580593.5200000014}},{"attributes":{"ID":2627,"DIS_CODE":0,"TOWNNAME":"鹽水區","LI":"岸內里","LIN":"8鄰","STREET":"和平路","SECT":" ","MAREA":" ","LANE":"６３２巷","ALLEY":"１弄","HOUSE_NO":"１號","E_COORD97":174723.09,"N_COORD97":2580573.1600000001,"ADDRESS":"和平路６３２巷１弄１號","OBJECTID":2627},"geometry":{"x":174723.08999999985,"y":2580573.160000002}},{"attributes":{"ID":2628,"DIS_CODE":0,"TOWNNAME":"鹽水區","LI":"岸內里","LIN":"8鄰","STREET":"和平路","SECT":" ","MAREA":" ","LANE":"６３２巷","ALLEY":"１弄","HOUSE_NO":"２號","E_COORD97":174722.23999999999,"N_COORD97":2580592.52,"ADDRESS":"和平路６３２巷１弄２號","OBJECTID":2628},"geometry":{"x":174722.24000000115,"y":2580592.5200000033}},{"attributes":{"ID":2629,"DIS_CODE":0,"TOWNNAME":"鹽水區","LI":"岸內里","LIN":"8鄰","STREET":"和平路","SECT":" ","MAREA":" ","LANE":"６３２巷","ALLEY":"１弄","HOUSE_NO":"３號","E_COORD97":174727.81,"N_COORD97":2580573.2999999998,"ADDRESS":"和平路６３２巷１弄３號","OBJECTID":2629},"geometry":{"x":174727.81000000052,"y":2580573.3000000007}},{"attributes":{"ID":2630,"DIS_CODE":0,"TOWNNAME":"鹽水區","LI":"岸內里","LIN":"8鄰","STREET":"和平路","SECT":" ","MAREA":" ","LANE":"６３２巷","ALLEY":"１弄","HOUSE_NO":"５號","E_COORD97":174732.53,"N_COORD97":2580573.4300000002,"ADDRESS":"和平路６３２巷１弄５號","OBJECTID":2630},"geometry":{"x":174732.53000000026,"y":2580573.4300000016}},{"attributes":{"ID":2631,"DIS_CODE":0,"TOWNNAME":"鹽水區","LI":"岸內里","LIN":"8鄰","STREET":"和平路","SECT":" ","MAREA":" ","LANE":"６３２巷","ALLEY":"１弄","HOUSE_NO":"６號","E_COORD97":174726.75,"N_COORD97":2580593.1099999999,"ADDRESS":"和平路６３２巷１弄６號","OBJECTID":2631},"geometry":{"x":174726.75000000093,"y":2580593.1100000013}},{"attributes":{"ID":2632,"DIS_CODE":0,"TOWNNAME":"鹽水區","LI":"岸內里","LIN":"8鄰","STREET":"和平路","SECT":" ","MAREA":" ","LANE":"６３２巷","ALLEY":"１弄","HOUSE_NO":"７號","E_COORD97":174737.25,"N_COORD97":2580573.5600000001,"ADDRESS":"和平路６３２巷１弄７號","OBJECTID":2632},"geometry":{"x":174737.25,"y":2580573.5600000024}},{"attributes":{"ID":2633,"DIS_CODE":0,"TOWNNAME":"鹽水區","LI":"岸內里","LIN":"8鄰","STREET":"和平路","SECT":" ","MAREA":" ","LANE":"６３２巷","ALLEY":"１弄","HOUSE_NO":"９號","E_COORD97":174741.95999999999,"N_COORD97":2580573.6899999999,"ADDRESS":"和平路６３２巷１弄９號","OBJECTID":2633},"geometry":{"x":174741.96000000089,"y":2580573.6899999995}},{"attributes":{"ID":2634,"DIS_CODE":0,"TOWNNAME":"鹽水區","LI":"岸內里","LIN":"9鄰","STREET":"和平路","SECT":" ","MAREA":" ","LANE":"６３２巷","ALLEY":"２弄","HOUSE_NO":"１０號","E_COORD97":174690.67999999999,"N_COORD97":2580592.7799999998,"ADDRESS":"和平路６３２巷２弄１０號","OBJECTID":2634},"geometry":{"x":174690.67999999877,"y":2580592.7799999993}},{"attributes":{"ID":2635,"DIS_CODE":0,"TOWNNAME":"鹽水區","LI":"岸內里","LIN":"9鄰","STREET":"和平路","SECT":" ","MAREA":" ","LANE":"６３２巷","ALLEY":"２弄","HOUSE_NO":"１１號","E_COORD97":174678.92999999999,"N_COORD97":2580572.46,"ADDRESS":"和平路６３２巷２弄１１號","OBJECTID":2635},"geometry":{"x":174678.93000000156,"y":2580572.4600000009}},{"attributes":{"ID":2636,"DIS_CODE":0,"TOWNNAME":"鹽水區","LI":"岸內里","LIN":"9鄰","STREET":"和平路","SECT":" ","MAREA":" ","LANE":"６３２巷","ALLEY":"２弄","HOUSE_NO":"１２號","E_COORD97":174684.53,"N_COORD97":2580592.6000000001,"ADDRESS":"和平路６３２巷２弄１２號","OBJECTID":2636},"geometry":{"x":174684.53000000119,"y":2580592.6000000015}},{"attributes":{"ID":2637,"DIS_CODE":0,"TOWNNAME":"鹽水區","LI":"岸內里","LIN":"9鄰","STREET":"和平路","SECT":" ","MAREA":" ","LANE":"６３２巷","ALLEY":"２弄","HOUSE_NO":"１３號","E_COORD97":174672.75,"N_COORD97":2580572.27,"ADDRESS":"和平路６３２巷２弄１３號","OBJECTID":2637},"geometry":{"x":174672.75000000093,"y":2580572.2699999996}},{"attributes":{"ID":2638,"DIS_CODE":0,"TOWNNAME":"鹽水區","LI":"岸內里","LIN":"9鄰","STREET":"和平路","SECT":" ","MAREA":" ","LANE":"６３２巷","ALLEY":"２弄","HOUSE_NO":"１５號","E_COORD97":174666.56,"N_COORD97":2580572.0699999998,"ADDRESS":"和平路６３２巷２弄１５號","OBJECTID":2638},"geometry":{"x":174666.56000000052,"y":2580572.0700000003}},{"attributes":{"ID":2639,"DIS_CODE":0,"TOWNNAME":"鹽水區","LI":"岸內里","LIN":"9鄰","STREET":"和平路","SECT":" ","MAREA":" ","LANE":"６３２巷","ALLEY":"２弄","HOUSE_NO":"１６號","E_COORD97":174678.38,"N_COORD97":2580592.4199999999,"ADDRESS":"和平路６３２巷２弄１６號","OBJECTID":2639},"geometry":{"x":174678.38000000082,"y":2580592.4199999999}},{"attributes":{"ID":2640,"DIS_CODE":0,"TOWNNAME":"鹽水區","LI":"岸內里","LIN":"9鄰","STREET":"和平路","SECT":" ","MAREA":" ","LANE":"６３２巷","ALLEY":"２弄","HOUSE_NO":"１７號","E_COORD97":174660.38,"N_COORD97":2580571.8799999999,"ADDRESS":"和平路６３２巷２弄１７號","OBJECTID":2640},"geometry":{"x":174660.37999999989,"y":2580571.879999999}},{"attributes":{"ID":2641,"DIS_CODE":0,"TOWNNAME":"鹽水區","LI":"岸內里","LIN":"9鄰","STREET":"和平路","SECT":" ","MAREA":" ","LANE":"６３２巷","ALLEY":"２弄","HOUSE_NO":"１８號","E_COORD97":174672.23000000001,"N_COORD97":2580592.23,"ADDRESS":"和平路６３２巷２弄１８號","OBJECTID":2641},"geometry":{"x":174672.23000000045,"y":2580592.2300000023}},{"attributes":{"ID":2642,"DIS_CODE":0,"TOWNNAME":"鹽水區","LI":"岸內里","LIN":"9鄰","STREET":"和平路","SECT":" ","MAREA":" ","LANE":"６３２巷","ALLEY":"２弄","HOUSE_NO":"２１號","E_COORD97":174648.01000000001,"N_COORD97":2580571.4900000002,"ADDRESS":"和平路６３２巷２弄２１號","OBJECTID":2642},"geometry":{"x":174648.01000000164,"y":2580571.4900000002}},{"attributes":{"ID":2643,"DIS_CODE":0,"TOWNNAME":"鹽水區","LI":"岸內里","LIN":"9鄰","STREET":"和平路","SECT":" ","MAREA":" ","LANE":"６３２巷","ALLEY":"２弄","HOUSE_NO":"２２號","E_COORD97":174659.92999999999,"N_COORD97":2580591.8700000001,"ADDRESS":"和平路６３２巷２弄２２號","OBJECTID":2643},"geometry":{"x":174659.9299999997,"y":2580591.8700000029}},{"attributes":{"ID":2644,"DIS_CODE":0,"TOWNNAME":"鹽水區","LI":"岸內里","LIN":"9鄰","STREET":"和平路","SECT":" ","MAREA":" ","LANE":"６３２巷","ALLEY":"２弄","HOUSE_NO":"２３號","E_COORD97":174641.82000000001,"N_COORD97":2580571.29,"ADDRESS":"和平路６３２巷２弄２３號","OBJECTID":2644},"geometry":{"x":174641.82000000123,"y":2580571.290000001}},{"attributes":{"ID":2645,"DIS_CODE":0,"TOWNNAME":"鹽水區","LI":"岸內里","LIN":"9鄰","STREET":"和平路","SECT":" ","MAREA":" ","LANE":"６３２巷","ALLEY":"２弄","HOUSE_NO":"２５號","E_COORD97":174635.64000000001,"N_COORD97":2580571.1000000001,"ADDRESS":"和平路６３２巷２弄２５號","OBJECTID":2645},"geometry":{"x":174635.6400000006,"y":2580571.0999999996}},{"attributes":{"ID":2646,"DIS_CODE":0,"TOWNNAME":"鹽水區","LI":"岸內里","LIN":"9鄰","STREET":"和平路","SECT":" ","MAREA":" ","LANE":"６３２巷","ALLEY":"２弄","HOUSE_NO":"２６號","E_COORD97":174653.78,"N_COORD97":2580591.6800000002,"ADDRESS":"和平路６３２巷２弄２６號","OBJECTID":2646},"geometry":{"x":174653.78000000119,"y":2580591.6800000016}},{"attributes":{"ID":2647,"DIS_CODE":0,"TOWNNAME":"鹽水區","LI":"岸內里","LIN":"9鄰","STREET":"和平路","SECT":" ","MAREA":" ","LANE":"６３２巷","ALLEY":"２弄","HOUSE_NO":"２８號","E_COORD97":174647.63,"N_COORD97":2580591.5,"ADDRESS":"和平路６３２巷２弄２８號","OBJECTID":2647},"geometry":{"x":174647.63000000082,"y":2580591.5}},{"attributes":{"ID":2648,"DIS_CODE":0,"TOWNNAME":"鹽水區","LI":"岸內里","LIN":"9鄰","STREET":"和平路","SECT":" ","MAREA":" ","LANE":"６３２巷","ALLEY":"２弄","HOUSE_NO":"２號","E_COORD97":174709.13,"N_COORD97":2580593.3300000001,"ADDRESS":"和平路６３２巷２弄２號","OBJECTID":2648},"geometry":{"x":174709.12999999989,"y":2580593.3300000001}},{"attributes":{"ID":2649,"DIS_CODE":0,"TOWNNAME":"鹽水區","LI":"岸內里","LIN":"9鄰","STREET":"和平路","SECT":" ","MAREA":" ","LANE":"６３２巷","ALLEY":"２弄","HOUSE_NO":"３０號","E_COORD97":174641.48999999999,"N_COORD97":2580591.3100000001,"ADDRESS":"和平路６３２巷２弄３０號","OBJECTID":2649},"geometry":{"x":174641.49000000022,"y":2580591.3100000042}},{"attributes":{"ID":2650,"DIS_CODE":0,"TOWNNAME":"鹽水區","LI":"岸內里","LIN":"9鄰","STREET":"和平路","SECT":" ","MAREA":" ","LANE":"６３２巷","ALLEY":"２弄","HOUSE_NO":"３２號","E_COORD97":174635.34,"N_COORD97":2580591.1299999999,"ADDRESS":"和平路６３２巷２弄３２號","OBJECTID":2650},"geometry":{"x":174635.33999999985,"y":2580591.1300000027}},{"attributes":{"ID":2651,"DIS_CODE":0,"TOWNNAME":"鹽水區","LI":"岸內里","LIN":"9鄰","STREET":"和平路","SECT":" ","MAREA":" ","LANE":"６３２巷","ALLEY":"２弄","HOUSE_NO":"３號","E_COORD97":174703.67000000001,"N_COORD97":2580573.2400000002,"ADDRESS":"和平路６３２巷２弄３號","OBJECTID":2651},"geometry":{"x":174703.67000000086,"y":2580573.2400000002}},{"attributes":{"ID":2652,"DIS_CODE":0,"TOWNNAME":"鹽水區","LI":"岸內里","LIN":"9鄰","STREET":"和平路","SECT":" ","MAREA":" ","LANE":"６３２巷","ALLEY":"２弄","HOUSE_NO":"５號","E_COORD97":174697.48000000001,"N_COORD97":2580573.0499999998,"ADDRESS":"和平路６３２巷２弄５號","OBJECTID":2652},"geometry":{"x":174697.48000000045,"y":2580573.0500000045}},{"attributes":{"ID":2653,"DIS_CODE":0,"TOWNNAME":"鹽水區","LI":"岸內里","LIN":"9鄰","STREET":"和平路","SECT":" ","MAREA":" ","LANE":"６３２巷","ALLEY":"２弄","HOUSE_NO":"８號","E_COORD97":174696.82999999999,"N_COORD97":2580592.9700000002,"ADDRESS":"和平路６３２巷２弄８號","OBJECTID":2653},"geometry":{"x":174696.82999999914,"y":2580592.9700000007}},{"attributes":{"ID":2654,"DIS_CODE":0,"TOWNNAME":"鹽水區","LI":"岸內里","LIN":"9鄰","STREET":"和平路","SECT":" ","MAREA":" ","LANE":"６３２巷","ALLEY":"２弄","HOUSE_NO":"９號","E_COORD97":174685.12,"N_COORD97":2580572.6600000001,"ADDRESS":"和平路６３２巷２弄９號","OBJECTID":2654},"geometry":{"x":174685.12000000104,"y":2580572.660000002}},{"attributes":{"ID":2655,"DIS_CODE":0,"TOWNNAME":"鹽水區","LI":"岸內里","LIN":"8鄰","STREET":"和平路","SECT":" ","MAREA":" ","LANE":"６３２巷","ALLEY":"３弄","HOUSE_NO":"１０號","E_COORD97":174740.85999999999,"N_COORD97":2580631.4700000002,"ADDRESS":"和平路６３２巷３弄１０號","OBJECTID":2655},"geometry":{"x":174740.86000000034,"y":2580631.4700000025}},{"attributes":{"ID":2656,"DIS_CODE":0,"TOWNNAME":"鹽水區","LI":"岸內里","LIN":"8鄰","STREET":"和平路","SECT":" ","MAREA":" ","LANE":"６３２巷","ALLEY":"３弄","HOUSE_NO":"１號","E_COORD97":174723.47,"N_COORD97":2580612.5899999999,"ADDRESS":"和平路６３２巷３弄１號","OBJECTID":2656},"geometry":{"x":174723.47000000067,"y":2580612.5900000036}},{"attributes":{"ID":2657,"DIS_CODE":0,"TOWNNAME":"鹽水區","LI":"岸內里","LIN":"8鄰","STREET":"和平路","SECT":" ","MAREA":" ","LANE":"６３２巷","ALLEY":"３弄","HOUSE_NO":"２號","E_COORD97":174721.78,"N_COORD97":2580630.46,"ADDRESS":"和平路６３２巷３弄２號","OBJECTID":2657},"geometry":{"x":174721.78000000119,"y":2580630.4600000009}},{"attributes":{"ID":2658,"DIS_CODE":0,"TOWNNAME":"鹽水區","LI":"岸內里","LIN":"8鄰","STREET":"和平路","SECT":" ","MAREA":" ","LANE":"６３２巷","ALLEY":"３弄","HOUSE_NO":"３號","E_COORD97":174730.29000000001,"N_COORD97":2580612.7400000002,"ADDRESS":"和平路６３２巷３弄３號","OBJECTID":2658},"geometry":{"x":174730.29000000004,"y":2580612.7400000021}},{"attributes":{"ID":2659,"DIS_CODE":0,"TOWNNAME":"鹽水區","LI":"岸內里","LIN":"8鄰","STREET":"和平路","SECT":" ","MAREA":" ","LANE":"６３２巷","ALLEY":"３弄","HOUSE_NO":"５號","E_COORD97":174736.88,"N_COORD97":2580612.9199999999,"ADDRESS":"和平路６３２巷３弄５號","OBJECTID":2659},"geometry":{"x":174736.87999999989,"y":2580612.9199999999}},{"attributes":{"ID":2660,"DIS_CODE":0,"TOWNNAME":"鹽水區","LI":"岸內里","LIN":"8鄰","STREET":"和平路","SECT":" ","MAREA":" ","LANE":"６３２巷","ALLEY":"３弄","HOUSE_NO":"６號","E_COORD97":174728.01999999999,"N_COORD97":2580631.1899999999,"ADDRESS":"和平路６３２巷３弄６號","OBJECTID":2660},"geometry":{"x":174728.02000000048,"y":2580631.1899999995}},{"attributes":{"ID":2661,"DIS_CODE":0,"TOWNNAME":"鹽水區","LI":"岸內里","LIN":"8鄰","STREET":"和平路","SECT":" ","MAREA":" ","LANE":"６３２巷","ALLEY":"３弄","HOUSE_NO":"７號","E_COORD97":174743.45000000001,"N_COORD97":2580613.04,"ADDRESS":"和平路６３２巷３弄７號","OBJECTID":2661},"geometry":{"x":174743.45000000019,"y":2580613.040000001}},{"attributes":{"ID":2662,"DIS_CODE":0,"TOWNNAME":"鹽水區","LI":"岸內里","LIN":"8鄰","STREET":"和平路","SECT":" ","MAREA":" ","LANE":"６３２巷","ALLEY":"３弄","HOUSE_NO":"８號","E_COORD97":174734.79000000001,"N_COORD97":2580631.6699999999,"ADDRESS":"和平路６３２巷３弄８號","OBJECTID":2662},"geometry":{"x":174734.79000000097,"y":2580631.6699999999}},{"attributes":{"ID":2663,"DIS_CODE":0,"TOWNNAME":"鹽水區","LI":"岸內里","LIN":"8鄰","STREET":"和平路","SECT":" ","MAREA":" ","LANE":"６３２巷","ALLEY":"５弄","HOUSE_NO":"１號","E_COORD97":174718.48000000001,"N_COORD97":2580649.73,"ADDRESS":"和平路６３２巷５弄１號","OBJECTID":2663},"geometry":{"x":174718.48000000231,"y":2580649.7300000023}},{"attributes":{"ID":2664,"DIS_CODE":0,"TOWNNAME":"鹽水區","LI":"岸內里","LIN":"8鄰","STREET":"和平路","SECT":" ","MAREA":" ","LANE":"６３２巷","ALLEY":"５弄","HOUSE_NO":"３號","E_COORD97":174725.60999999999,"N_COORD97":2580649.9900000002,"ADDRESS":"和平路６３２巷５弄３號","OBJECTID":2664},"geometry":{"x":174725.61000000034,"y":2580649.9900000002}},{"attributes":{"ID":2665,"DIS_CODE":0,"TOWNNAME":"鹽水區","LI":"岸內里","LIN":"9鄰","STREET":"和平路","SECT":" ","MAREA":" ","LANE":"６３２巷","ALLEY":"６弄","HOUSE_NO":"８號","E_COORD97":174695.13,"N_COORD97":2580631.1400000001,"ADDRESS":"和平路６３２巷６弄８號","OBJECTID":2665},"geometry":{"x":174695.13000000082,"y":2580631.1400000025}},{"attributes":{"ID":2666,"DIS_CODE":0,"TOWNNAME":"鹽水區","LI":"岸內里","LIN":"9鄰","STREET":"和平路","SECT":" ","MAREA":" ","LANE":"６３２巷","ALLEY":"６弄","HOUSE_NO":"９號","E_COORD97":174681.07999999999,"N_COORD97":2580609.8399999999,"ADDRESS":"和平路６３２巷６弄９號","OBJECTID":2666},"geometry":{"x":174681.08000000007,"y":2580609.8399999999}},{"attributes":{"ID":2667,"DIS_CODE":0,"TOWNNAME":"鹽水區","LI":"岸內里","LIN":"9鄰","STREET":"和平路","SECT":" ","MAREA":" ","LANE":"６３２巷","ALLEY":"８弄","HOUSE_NO":"１１號","E_COORD97":174686.35999999999,"N_COORD97":2580653.6099999999,"ADDRESS":"和平路６３２巷８弄１１號","OBJECTID":2667},"geometry":{"x":174686.36000000034,"y":2580653.6100000013}},{"attributes":{"ID":2668,"DIS_CODE":0,"TOWNNAME":"鹽水區","LI":"岸內里","LIN":"9鄰","STREET":"和平路","SECT":" ","MAREA":" ","LANE":"６３２巷","ALLEY":"８弄","HOUSE_NO":"１３號","E_COORD97":174681.98000000001,"N_COORD97":2580653.4399999999,"ADDRESS":"和平路６３２巷８弄１３號","OBJECTID":2668},"geometry":{"x":174681.98000000045,"y":2580653.4399999995}},{"attributes":{"ID":2669,"DIS_CODE":0,"TOWNNAME":"鹽水區","LI":"岸內里","LIN":"9鄰","STREET":"和平路","SECT":" ","MAREA":" ","LANE":"６３２巷","ALLEY":"８弄","HOUSE_NO":"１５號","E_COORD97":174677.59,"N_COORD97":2580653.2599999998,"ADDRESS":"和平路６３２巷８弄１５號","OBJECTID":2669},"geometry":{"x":174677.58999999985,"y":2580653.2600000016}},{"attributes":{"ID":2670,"DIS_CODE":0,"TOWNNAME":"鹽水區","LI":"岸內里","LIN":"9鄰","STREET":"和平路","SECT":" ","MAREA":" ","LANE":"６３２巷","ALLEY":"８弄","HOUSE_NO":"１７號","E_COORD97":174673.20999999999,"N_COORD97":2580653.0899999999,"ADDRESS":"和平路６３２巷８弄１７號","OBJECTID":2670},"geometry":{"x":174673.20999999996,"y":2580653.0900000036}},{"attributes":{"ID":2671,"DIS_CODE":0,"TOWNNAME":"鹽水區","LI":"岸內里","LIN":"9鄰","STREET":"和平路","SECT":" ","MAREA":" ","LANE":"６３２巷","ALLEY":"８弄","HOUSE_NO":"１９號","E_COORD97":174668.82999999999,"N_COORD97":2580652.9100000001,"ADDRESS":"和平路６３２巷８弄１９號","OBJECTID":2671},"geometry":{"x":174668.83000000101,"y":2580652.910000002}},{"attributes":{"ID":2672,"DIS_CODE":0,"TOWNNAME":"鹽水區","LI":"岸內里","LIN":"9鄰","STREET":"和平路","SECT":" ","MAREA":" ","LANE":"６３２巷","ALLEY":"８弄","HOUSE_NO":"１號","E_COORD97":174708.26999999999,"N_COORD97":2580654.48,"ADDRESS":"和平路６３２巷８弄１號","OBJECTID":2672},"geometry":{"x":174708.26999999955,"y":2580654.4800000042}},{"attributes":{"ID":2673,"DIS_CODE":0,"TOWNNAME":"鹽水區","LI":"岸內里","LIN":"9鄰","STREET":"和平路","SECT":" ","MAREA":" ","LANE":"６３２巷","ALLEY":"８弄","HOUSE_NO":"２１號","E_COORD97":174664.45000000001,"N_COORD97":2580652.7400000002,"ADDRESS":"和平路６３２巷８弄２１號","OBJECTID":2673},"geometry":{"x":174664.45000000112,"y":2580652.7400000039}},{"attributes":{"ID":2674,"DIS_CODE":0,"TOWNNAME":"鹽水區","LI":"岸內里","LIN":"9鄰","STREET":"和平路","SECT":" ","MAREA":" ","LANE":"６３２巷","ALLEY":"８弄","HOUSE_NO":"２３號","E_COORD97":174660.07000000001,"N_COORD97":2580652.5600000001,"ADDRESS":"和平路６３２巷８弄２３號","OBJECTID":2674},"geometry":{"x":174660.07000000216,"y":2580652.5600000005}},{"attributes":{"ID":2675,"DIS_CODE":0,"TOWNNAME":"鹽水區","LI":"岸內里","LIN":"9鄰","STREET":"和平路","SECT":" ","MAREA":" ","LANE":"６３２巷","ALLEY":"８弄","HOUSE_NO":"２５號","E_COORD97":174655.67999999999,"N_COORD97":2580652.3900000001,"ADDRESS":"和平路６３２巷８弄２５號","OBJECTID":2675},"geometry":{"x":174655.68000000063,"y":2580652.3900000025}},{"attributes":{"ID":2676,"DIS_CODE":0,"TOWNNAME":"鹽水區","LI":"岸內里","LIN":"9鄰","STREET":"和平路","SECT":" ","MAREA":" ","LANE":"６３２巷","ALLEY":"８弄","HOUSE_NO":"３１號","E_COORD97":174642.54000000001,"N_COORD97":2580651.8599999999,"ADDRESS":"和平路６３２巷８弄３１號","OBJECTID":2676},"geometry":{"x":174642.54000000004,"y":2580651.8600000013}},{"attributes":{"ID":2677,"DIS_CODE":0,"TOWNNAME":"鹽水區","LI":"岸內里","LIN":"9鄰","STREET":"和平路","SECT":" ","MAREA":" ","LANE":"６３２巷","ALLEY":"８弄","HOUSE_NO":"３３號","E_COORD97":174638.14999999999,"N_COORD97":2580651.6899999999,"ADDRESS":"和平路６３２巷８弄３３號","OBJECTID":2677},"geometry":{"x":174638.1500000013,"y":2580651.6899999995}},{"attributes":{"ID":2678,"DIS_CODE":0,"TOWNNAME":"鹽水區","LI":"岸內里","LIN":"9鄰","STREET":"和平路","SECT":" ","MAREA":" ","LANE":"６３２巷","ALLEY":"８弄","HOUSE_NO":"５號","E_COORD97":174699.5,"N_COORD97":2580654.1400000001,"ADDRESS":"和平路６３２巷８弄５號","OBJECTID":2678},"geometry":{"x":174699.50000000093,"y":2580654.1400000025}},{"attributes":{"ID":2679,"DIS_CODE":0,"TOWNNAME":"鹽水區","LI":"岸內里","LIN":"9鄰","STREET":"和平路","SECT":" ","MAREA":" ","LANE":"６３２巷","ALLEY":"８弄","HOUSE_NO":"９號","E_COORD97":174690.73999999999,"N_COORD97":2580653.79,"ADDRESS":"和平路６３２巷８弄９號","OBJECTID":2679},"geometry":{"x":174690.74000000022,"y":2580653.7899999991}},{"attributes":{"ID":2680,"DIS_CODE":0,"TOWNNAME":"鹽水區","LI":"岸內里","LIN":"12鄰","STREET":"和平路","SECT":" ","MAREA":" ","LANE":"６５巷","ALLEY":"２弄","HOUSE_NO":"１２號","E_COORD97":175661.45000000001,"N_COORD97":2580553.79,"ADDRESS":"和平路６５巷２弄１２號","OBJECTID":2680},"geometry":{"x":175661.45000000112,"y":2580553.790000001}},{"attributes":{"ID":2681,"DIS_CODE":0,"TOWNNAME":"鹽水區","LI":"岸內里","LIN":"12鄰","STREET":"和平路","SECT":" ","MAREA":" ","LANE":"６５巷","ALLEY":"２弄","HOUSE_NO":"１３號","E_COORD97":175650.42999999999,"N_COORD97":2580536.4700000002,"ADDRESS":"和平路６５巷２弄１３號","OBJECTID":2681},"geometry":{"x":175650.43000000063,"y":2580536.4700000025}},{"attributes":{"ID":2682,"DIS_CODE":0,"TOWNNAME":"鹽水區","LI":"岸內里","LIN":"12鄰","STREET":"和平路","SECT":" ","MAREA":" ","LANE":"６５巷","ALLEY":"２弄","HOUSE_NO":"１５號","E_COORD97":175646.03,"N_COORD97":2580536.27,"ADDRESS":"和平路６５巷２弄１５號","OBJECTID":2682},"geometry":{"x":175646.03000000026,"y":2580536.2700000033}},{"attributes":{"ID":2683,"DIS_CODE":0,"TOWNNAME":"鹽水區","LI":"岸內里","LIN":"12鄰","STREET":"和平路","SECT":" ","MAREA":" ","LANE":"６５巷","ALLEY":"２弄","HOUSE_NO":"１６號","E_COORD97":175656.69,"N_COORD97":2580553.52,"ADDRESS":"和平路６５巷２弄１６號","OBJECTID":2683},"geometry":{"x":175656.69000000134,"y":2580553.5199999996}},{"attributes":{"ID":2684,"DIS_CODE":0,"TOWNNAME":"鹽水區","LI":"岸內里","LIN":"12鄰","STREET":"和平路","SECT":" ","MAREA":" ","LANE":"６５巷","ALLEY":"２弄","HOUSE_NO":"１７號","E_COORD97":175640.73000000001,"N_COORD97":2580536.3199999998,"ADDRESS":"和平路６５巷２弄１７號","OBJECTID":2684},"geometry":{"x":175640.73000000138,"y":2580536.3200000003}},{"attributes":{"ID":2685,"DIS_CODE":0,"TOWNNAME":"鹽水區","LI":"岸內里","LIN":"12鄰","STREET":"和平路","SECT":" ","MAREA":" ","LANE":"６５巷","ALLEY":"２弄","HOUSE_NO":"１８號","E_COORD97":175651.44,"N_COORD97":2580553.2200000002,"ADDRESS":"和平路６５巷２弄１８號","OBJECTID":2685},"geometry":{"x":175651.44000000134,"y":2580553.2200000007}},{"attributes":{"ID":2686,"DIS_CODE":0,"TOWNNAME":"鹽水區","LI":"岸內里","LIN":"12鄰","STREET":"和平路","SECT":" ","MAREA":" ","LANE":"６５巷","ALLEY":"２弄","HOUSE_NO":"２１號","E_COORD97":175629.76999999999,"N_COORD97":2580535.8900000001,"ADDRESS":"和平路６５巷２弄２１號","OBJECTID":2686},"geometry":{"x":175629.77000000048,"y":2580535.8900000006}},{"attributes":{"ID":2687,"DIS_CODE":0,"TOWNNAME":"鹽水區","LI":"岸內里","LIN":"12鄰","STREET":"和平路","SECT":" ","MAREA":" ","LANE":"６５巷","ALLEY":"２弄","HOUSE_NO":"２２號","E_COORD97":175640.62,"N_COORD97":2580552.8399999999,"ADDRESS":"和平路６５巷２弄２２號","OBJECTID":2687},"geometry":{"x":175640.62000000011,"y":2580552.8399999999}},{"attributes":{"ID":2688,"DIS_CODE":0,"TOWNNAME":"鹽水區","LI":"岸內里","LIN":"12鄰","STREET":"和平路","SECT":" ","MAREA":" ","LANE":"６５巷","ALLEY":"２弄","HOUSE_NO":"２３號","E_COORD97":175624.89000000001,"N_COORD97":2580535.9300000002,"ADDRESS":"和平路６５巷２弄２３號","OBJECTID":2688},"geometry":{"x":175624.88999999966,"y":2580535.9300000016}},{"attributes":{"ID":2689,"DIS_CODE":0,"TOWNNAME":"鹽水區","LI":"岸內里","LIN":"12鄰","STREET":"和平路","SECT":" ","MAREA":" ","LANE":"６５巷","ALLEY":"２弄","HOUSE_NO":"２５號","E_COORD97":175619.51999999999,"N_COORD97":2580535.04,"ADDRESS":"和平路６５巷２弄２５號","OBJECTID":2689},"geometry":{"x":175619.52000000048,"y":2580535.040000001}},{"attributes":{"ID":2690,"DIS_CODE":0,"TOWNNAME":"鹽水區","LI":"岸內里","LIN":"12鄰","STREET":"和平路","SECT":" ","MAREA":" ","LANE":"６５巷","ALLEY":"２弄","HOUSE_NO":"２６號","E_COORD97":175634.97,"N_COORD97":2580552.8900000001,"ADDRESS":"和平路６５巷２弄２６號","OBJECTID":2690},"geometry":{"x":175634.97000000067,"y":2580552.8900000006}},{"attributes":{"ID":2691,"DIS_CODE":0,"TOWNNAME":"鹽水區","LI":"岸內里","LIN":"12鄰","STREET":"和平路","SECT":" ","MAREA":" ","LANE":"６５巷","ALLEY":"２弄","HOUSE_NO":"２７號","E_COORD97":175614.17000000001,"N_COORD97":2580534.6899999999,"ADDRESS":"和平路６５巷２弄２７號","OBJECTID":2691},"geometry":{"x":175614.16999999993,"y":2580534.6900000013}},{"attributes":{"ID":2692,"DIS_CODE":0,"TOWNNAME":"鹽水區","LI":"岸內里","LIN":"12鄰","STREET":"和平路","SECT":" ","MAREA":" ","LANE":"６５巷","ALLEY":"２弄","HOUSE_NO":"２８號","E_COORD97":175630.22,"N_COORD97":2580552.71,"ADDRESS":"和平路６５巷２弄２８號","OBJECTID":2692},"geometry":{"x":175630.22000000067,"y":2580552.7100000028}},{"attributes":{"ID":2693,"DIS_CODE":0,"TOWNNAME":"鹽水區","LI":"岸內里","LIN":"12鄰","STREET":"和平路","SECT":" ","MAREA":" ","LANE":"６５巷","ALLEY":"２弄","HOUSE_NO":"２９號","E_COORD97":175608.87,"N_COORD97":2580534.1200000001,"ADDRESS":"和平路６５巷２弄２９號","OBJECTID":2693},"geometry":{"x":175608.87000000104,"y":2580534.120000001}},{"attributes":{"ID":2694,"DIS_CODE":0,"TOWNNAME":"鹽水區","LI":"岸內里","LIN":"12鄰","STREET":"和平路","SECT":" ","MAREA":" ","LANE":"６５巷","ALLEY":"２弄","HOUSE_NO":"２號","E_COORD97":175682.35999999999,"N_COORD97":2580554.6899999999,"ADDRESS":"和平路６５巷２弄２號","OBJECTID":2694},"geometry":{"x":175682.36000000127,"y":2580554.6900000013}},{"attributes":{"ID":2695,"DIS_CODE":0,"TOWNNAME":"鹽水區","LI":"岸內里","LIN":"12鄰","STREET":"和平路","SECT":" ","MAREA":" ","LANE":"６５巷","ALLEY":"２弄","HOUSE_NO":"３０號","E_COORD97":175624.19,"N_COORD97":2580552.6800000002,"ADDRESS":"和平路６５巷２弄３０號","OBJECTID":2695},"geometry":{"x":175624.19000000134,"y":2580552.6799999997}},{"attributes":{"ID":2696,"DIS_CODE":0,"TOWNNAME":"鹽水區","LI":"岸內里","LIN":"12鄰","STREET":"和平路","SECT":" ","MAREA":" ","LANE":"６５巷","ALLEY":"２弄","HOUSE_NO":"３１號","E_COORD97":175604.26999999999,"N_COORD97":2580534.0600000001,"ADDRESS":"和平路６５巷２弄３１號","OBJECTID":2696},"geometry":{"x":175604.27000000048,"y":2580534.0600000005}},{"attributes":{"ID":2697,"DIS_CODE":0,"TOWNNAME":"鹽水區","LI":"岸內里","LIN":"12鄰","STREET":"和平路","SECT":" ","MAREA":" ","LANE":"６５巷","ALLEY":"２弄","HOUSE_NO":"３５號","E_COORD97":175593.22,"N_COORD97":2580533.7200000002,"ADDRESS":"和平路６５巷２弄３５號","OBJECTID":2697},"geometry":{"x":175593.22000000067,"y":2580533.7200000007}},{"attributes":{"ID":2698,"DIS_CODE":0,"TOWNNAME":"鹽水區","LI":"岸內里","LIN":"12鄰","STREET":"和平路","SECT":" ","MAREA":" ","LANE":"６５巷","ALLEY":"２弄","HOUSE_NO":"３６號","E_COORD97":175613.06,"N_COORD97":2580552.1899999999,"ADDRESS":"和平路６５巷２弄３６號","OBJECTID":2698},"geometry":{"x":175613.05999999959,"y":2580552.1899999995}},{"attributes":{"ID":2699,"DIS_CODE":0,"TOWNNAME":"鹽水區","LI":"岸內里","LIN":"12鄰","STREET":"和平路","SECT":" ","MAREA":" ","LANE":"６５巷","ALLEY":"２弄","HOUSE_NO":"３８號","E_COORD97":175608.12,"N_COORD97":2580551.6000000001,"ADDRESS":"和平路６５巷２弄３８號","OBJECTID":2699},"geometry":{"x":175608.12000000011,"y":2580551.6000000015}},{"attributes":{"ID":2700,"DIS_CODE":0,"TOWNNAME":"鹽水區","LI":"岸內里","LIN":"12鄰","STREET":"和平路","SECT":" ","MAREA":" ","LANE":"６５巷","ALLEY":"２弄","HOUSE_NO":"３號","E_COORD97":175676.60000000001,"N_COORD97":2580537.4500000002,"ADDRESS":"和平路６５巷２弄３號","OBJECTID":2700},"geometry":{"x":175676.60000000056,"y":2580537.4499999993}},{"attributes":{"ID":2701,"DIS_CODE":0,"TOWNNAME":"鹽水區","LI":"岸內里","LIN":"12鄰","STREET":"和平路","SECT":" ","MAREA":" ","LANE":"６５巷","ALLEY":"２弄","HOUSE_NO":"４０號","E_COORD97":175603.25,"N_COORD97":2580551.3399999999,"ADDRESS":"和平路６５巷２弄４０號","OBJECTID":2701},"geometry":{"x":175603.25000000093,"y":2580551.3400000017}},{"attributes":{"ID":2702,"DIS_CODE":0,"TOWNNAME":"鹽水區","LI":"岸內里","LIN":"12鄰","STREET":"和平路","SECT":" ","MAREA":" ","LANE":"６５巷","ALLEY":"２弄","HOUSE_NO":"４２號","E_COORD97":175597.76999999999,"N_COORD97":2580550.9199999999,"ADDRESS":"和平路６５巷２弄４２號","OBJECTID":2702},"geometry":{"x":175597.77000000048,"y":2580550.9200000018}},{"attributes":{"ID":2703,"DIS_CODE":0,"TOWNNAME":"鹽水區","LI":"岸內里","LIN":"12鄰","STREET":"和平路","SECT":" ","MAREA":" ","LANE":"６５巷","ALLEY":"２弄","HOUSE_NO":"４６號","E_COORD97":175592.95000000001,"N_COORD97":2580550.7400000002,"ADDRESS":"和平路６５巷２弄４６號","OBJECTID":2703},"geometry":{"x":175592.95000000205,"y":2580550.7400000039}},{"attributes":{"ID":2704,"DIS_CODE":0,"TOWNNAME":"鹽水區","LI":"岸內里","LIN":"12鄰","STREET":"和平路","SECT":" ","MAREA":" ","LANE":"６５巷","ALLEY":"２弄","HOUSE_NO":"５號","E_COORD97":175671.42000000001,"N_COORD97":2580536.9700000002,"ADDRESS":"和平路６５巷２弄５號","OBJECTID":2704},"geometry":{"x":175671.42000000086,"y":2580536.9700000025}},{"attributes":{"ID":2705,"DIS_CODE":0,"TOWNNAME":"鹽水區","LI":"岸內里","LIN":"12鄰","STREET":"和平路","SECT":" ","MAREA":" ","LANE":"６５巷","ALLEY":"２弄","HOUSE_NO":"６號","E_COORD97":175676.95999999999,"N_COORD97":2580554.5499999998,"ADDRESS":"和平路６５巷２弄６號","OBJECTID":2705},"geometry":{"x":175676.95999999996,"y":2580554.5500000007}},{"attributes":{"ID":2706,"DIS_CODE":0,"TOWNNAME":"鹽水區","LI":"岸內里","LIN":"12鄰","STREET":"和平路","SECT":" ","MAREA":" ","LANE":"６５巷","ALLEY":"２弄","HOUSE_NO":"７號","E_COORD97":175666.20000000001,"N_COORD97":2580536.9199999999,"ADDRESS":"和平路６５巷２弄７號","OBJECTID":2706},"geometry":{"x":175666.20000000112,"y":2580536.9200000018}},{"attributes":{"ID":2707,"DIS_CODE":0,"TOWNNAME":"鹽水區","LI":"岸內里","LIN":"12鄰","STREET":"和平路","SECT":" ","MAREA":" ","LANE":"６５巷","ALLEY":"２弄","HOUSE_NO":"８號","E_COORD97":175671.73999999999,"N_COORD97":2580554.4399999999,"ADDRESS":"和平路６５巷２弄８號","OBJECTID":2707},"geometry":{"x":175671.74000000022,"y":2580554.4399999995}},{"attributes":{"ID":2708,"DIS_CODE":0,"TOWNNAME":"鹽水區","LI":"岸內里","LIN":"12鄰","STREET":"和平路","SECT":" ","MAREA":" ","LANE":"６５巷","ALLEY":"２弄","HOUSE_NO":"９號","E_COORD97":175661.16,"N_COORD97":2580536.5299999998,"ADDRESS":"和平路６５巷２弄９號","OBJECTID":2708},"geometry":{"x":175661.16000000201,"y":2580536.5299999993}},{"attributes":{"ID":2709,"DIS_CODE":0,"TOWNNAME":"鹽水區","LI":"岸內里","LIN":"11鄰","STREET":"和平路","SECT":" ","MAREA":" ","LANE":"６５巷","ALLEY":"５弄","HOUSE_NO":"１０號","E_COORD97":175714.51000000001,"N_COORD97":2580488.6000000001,"ADDRESS":"和平路６５巷５弄１０號","OBJECTID":2709},"geometry":{"x":175714.51000000071,"y":2580488.5999999996}},{"attributes":{"ID":2710,"DIS_CODE":0,"TOWNNAME":"鹽水區","LI":"岸內里","LIN":"11鄰","STREET":"和平路","SECT":" ","MAREA":" ","LANE":"６５巷","ALLEY":"５弄","HOUSE_NO":"１２號","E_COORD97":175719.57000000001,"N_COORD97":2580489.1099999999,"ADDRESS":"和平路６５巷５弄１２號","OBJECTID":2710},"geometry":{"x":175719.57000000216,"y":2580489.1099999994}},{"attributes":{"ID":2711,"DIS_CODE":0,"TOWNNAME":"鹽水區","LI":"岸內里","LIN":"11鄰","STREET":"和平路","SECT":" ","MAREA":" ","LANE":"６５巷","ALLEY":"５弄","HOUSE_NO":"１號","E_COORD97":175698.87,"N_COORD97":2580509.1400000001,"ADDRESS":"和平路６５巷５弄１號","OBJECTID":2711},"geometry":{"x":175698.87000000104,"y":2580509.1400000025}},{"attributes":{"ID":2712,"DIS_CODE":0,"TOWNNAME":"鹽水區","LI":"岸內里","LIN":"11鄰","STREET":"和平路","SECT":" ","MAREA":" ","LANE":"６５巷","ALLEY":"５弄","HOUSE_NO":"２號","E_COORD97":175699.64000000001,"N_COORD97":2580488.25,"ADDRESS":"和平路６５巷５弄２號","OBJECTID":2712},"geometry":{"x":175699.64000000153,"y":2580488.25}},{"attributes":{"ID":2713,"DIS_CODE":0,"TOWNNAME":"鹽水區","LI":"岸內里","LIN":"11鄰","STREET":"和平路","SECT":" ","MAREA":" ","LANE":"６５巷","ALLEY":"５弄","HOUSE_NO":"３號","E_COORD97":175703.60000000001,"N_COORD97":2580509.3900000001,"ADDRESS":"和平路６５巷５弄３號","OBJECTID":2713},"geometry":{"x":175703.60000000056,"y":2580509.3900000043}},{"attributes":{"ID":2714,"DIS_CODE":0,"TOWNNAME":"鹽水區","LI":"岸內里","LIN":"11鄰","STREET":"和平路","SECT":" ","MAREA":" ","LANE":"６５巷","ALLEY":"５弄","HOUSE_NO":"５號","E_COORD97":175708.48000000001,"N_COORD97":2580509.8700000001,"ADDRESS":"和平路６５巷５弄５號","OBJECTID":2714},"geometry":{"x":175708.48000000138,"y":2580509.8699999992}},{"attributes":{"ID":2715,"DIS_CODE":0,"TOWNNAME":"鹽水區","LI":"岸內里","LIN":"11鄰","STREET":"和平路","SECT":" ","MAREA":" ","LANE":"６５巷","ALLEY":"５弄","HOUSE_NO":"６號","E_COORD97":175704.20999999999,"N_COORD97":2580488.4399999999,"ADDRESS":"和平路６５巷５弄６號","OBJECTID":2715},"geometry":{"x":175704.20999999996,"y":2580488.4400000013}},{"attributes":{"ID":2716,"DIS_CODE":0,"TOWNNAME":"鹽水區","LI":"岸內里","LIN":"11鄰","STREET":"和平路","SECT":" ","MAREA":" ","LANE":"６５巷","ALLEY":"５弄","HOUSE_NO":"７號","E_COORD97":175713.07000000001,"N_COORD97":2580509.8999999999,"ADDRESS":"和平路６５巷５弄７號","OBJECTID":2716},"geometry":{"x":175713.07000000123,"y":2580509.9000000022}},{"attributes":{"ID":2717,"DIS_CODE":0,"TOWNNAME":"鹽水區","LI":"岸內里","LIN":"11鄰","STREET":"和平路","SECT":" ","MAREA":" ","LANE":"６５巷","ALLEY":"７弄","HOUSE_NO":"１２號","E_COORD97":175721.64000000001,"N_COORD97":2580457.3100000001,"ADDRESS":"和平路６５巷７弄１２號","OBJECTID":2717},"geometry":{"x":175721.64000000153,"y":2580457.3100000024}},{"attributes":{"ID":2718,"DIS_CODE":0,"TOWNNAME":"鹽水區","LI":"岸內里","LIN":"11鄰","STREET":"和平路","SECT":" ","MAREA":" ","LANE":"６５巷","ALLEY":"７弄","HOUSE_NO":"１６號","E_COORD97":175726.48999999999,"N_COORD97":2580457.1400000001,"ADDRESS":"和平路６５巷７弄１６號","OBJECTID":2718},"geometry":{"x":175726.49000000022,"y":2580457.1400000043}},{"attributes":{"ID":2719,"DIS_CODE":0,"TOWNNAME":"鹽水區","LI":"岸內里","LIN":"11鄰","STREET":"和平路","SECT":" ","MAREA":" ","LANE":"６５巷","ALLEY":"７弄","HOUSE_NO":"１８號","E_COORD97":175731.92000000001,"N_COORD97":2580457.6000000001,"ADDRESS":"和平路６５巷７弄１８號","OBJECTID":2719},"geometry":{"x":175731.92000000179,"y":2580457.6000000015}},{"attributes":{"ID":2720,"DIS_CODE":0,"TOWNNAME":"鹽水區","LI":"岸內里","LIN":"11鄰","STREET":"和平路","SECT":" ","MAREA":" ","LANE":"６５巷","ALLEY":"７弄","HOUSE_NO":"１號","E_COORD97":175700.82000000001,"N_COORD97":2580472.8799999999,"ADDRESS":"和平路６５巷７弄１號","OBJECTID":2720},"geometry":{"x":175700.82000000216,"y":2580472.879999999}},{"attributes":{"ID":2721,"DIS_CODE":0,"TOWNNAME":"鹽水區","LI":"岸內里","LIN":"11鄰","STREET":"和平路","SECT":" ","MAREA":" ","LANE":"６５巷","ALLEY":"７弄","HOUSE_NO":"２號","E_COORD97":175702.01999999999,"N_COORD97":2580455.8300000001,"ADDRESS":"和平路６５巷７弄２號","OBJECTID":2721},"geometry":{"x":175702.02000000142,"y":2580455.8300000019}},{"attributes":{"ID":2722,"DIS_CODE":0,"TOWNNAME":"鹽水區","LI":"岸內里","LIN":"11鄰","STREET":"和平路","SECT":" ","MAREA":" ","LANE":"６５巷","ALLEY":"７弄","HOUSE_NO":"３號","E_COORD97":175705.76999999999,"N_COORD97":2580473.0299999998,"ADDRESS":"和平路６５巷７弄３號","OBJECTID":2722},"geometry":{"x":175705.77000000048,"y":2580473.0299999975}},{"attributes":{"ID":2723,"DIS_CODE":0,"TOWNNAME":"鹽水區","LI":"岸內里","LIN":"11鄰","STREET":"和平路","SECT":" ","MAREA":" ","LANE":"６５巷","ALLEY":"７弄","HOUSE_NO":"５號","E_COORD97":175710.72,"N_COORD97":2580473.1899999999,"ADDRESS":"和平路６５巷７弄５號","OBJECTID":2723},"geometry":{"x":175710.71999999974,"y":2580473.1900000013}},{"attributes":{"ID":2724,"DIS_CODE":0,"TOWNNAME":"鹽水區","LI":"岸內里","LIN":"11鄰","STREET":"和平路","SECT":" ","MAREA":" ","LANE":"６５巷","ALLEY":"７弄","HOUSE_NO":"６號","E_COORD97":175706.89000000001,"N_COORD97":2580455.98,"ADDRESS":"和平路６５巷７弄６號","OBJECTID":2724},"geometry":{"x":175706.8900000006,"y":2580455.9800000023}},{"attributes":{"ID":2725,"DIS_CODE":0,"TOWNNAME":"鹽水區","LI":"岸內里","LIN":"11鄰","STREET":"和平路","SECT":" ","MAREA":" ","LANE":"６５巷","ALLEY":"７弄","HOUSE_NO":"７號","E_COORD97":175715.66,"N_COORD97":2580473.3399999999,"ADDRESS":"和平路６５巷７弄７號","OBJECTID":2725},"geometry":{"x":175715.66000000108,"y":2580473.3400000017}},{"attributes":{"ID":2726,"DIS_CODE":0,"TOWNNAME":"鹽水區","LI":"岸內里","LIN":"12鄰","STREET":"和平路","SECT":" ","MAREA":" ","LANE":" ","ALLEY":" ","HOUSE_NO":"９７號","E_COORD97":175619.28,"N_COORD97":2580572.8700000001,"ADDRESS":"和平路９７號","OBJECTID":2726},"geometry":{"x":175619.28000000026,"y":2580572.870000001}},{"attributes":{"ID":2727,"DIS_CODE":0,"TOWNNAME":"鹽水區","LI":"岸內里","LIN":"10鄰","STREET":" ","SECT":" ","MAREA":"新岸內","LANE":" ","ALLEY":" ","HOUSE_NO":"１１３號","E_COORD97":174406.45999999999,"N_COORD97":2581133.23,"ADDRESS":"新岸內１１３號","OBJECTID":2727},"geometry":{"x":174406.46000000089,"y":2581133.2300000004}},{"attributes":{"ID":2728,"DIS_CODE":0,"TOWNNAME":"鹽水區","LI":"岸內里","LIN":"10鄰","STREET":" ","SECT":" ","MAREA":"新岸內","LANE":" ","ALLEY":" ","HOUSE_NO":"１１５號","E_COORD97":174419.60000000001,"N_COORD97":2581140.4100000001,"ADDRESS":"新岸內１１５號","OBJECTID":2728},"geometry":{"x":174419.59999999963,"y":2581140.410000002}},{"attributes":{"ID":2729,"DIS_CODE":0,"TOWNNAME":"鹽水區","LI":"岸內里","LIN":"10鄰","STREET":" ","SECT":" ","MAREA":"新岸內","LANE":" ","ALLEY":" ","HOUSE_NO":"１２６號","E_COORD97":174324.32999999999,"N_COORD97":2581069.54,"ADDRESS":"新岸內１２６號","OBJECTID":2729},"geometry":{"x":174324.33000000101,"y":2581069.5399999972}},{"attributes":{"ID":2730,"DIS_CODE":0,"TOWNNAME":"鹽水區","LI":"岸內里","LIN":"10鄰","STREET":" ","SECT":" ","MAREA":"新岸內","LANE":" ","ALLEY":" ","HOUSE_NO":"１３４號","E_COORD97":174334.03,"N_COORD97":2581043.0899999999,"ADDRESS":"新岸內１３４號","OBJECTID":2730},"geometry":{"x":174334.03000000026,"y":2581043.0900000036}},{"attributes":{"ID":2731,"DIS_CODE":0,"TOWNNAME":"新市區","LI":"大社里","LIN":"32鄰","STREET":" ","SECT":" ","MAREA":"大社","LANE":" ","ALLEY":" ","HOUSE_NO":"２８５之１０００號","E_COORD97":181181.420228,"N_COORD97":2554633.5087700002,"ADDRESS":"大社２８５之１０００號","OBJECTID":2731},"geometry":{"x":181181.42022800073,"y":2554633.5087659992}},{"attributes":{"ID":2732,"DIS_CODE":0,"TOWNNAME":"新市區","LI":"大社里","LIN":"12鄰","STREET":" ","SECT":" ","MAREA":"大社","LANE":" ","ALLEY":" ","HOUSE_NO":"３０２之１號","E_COORD97":180228.548365,"N_COORD97":2554609.1671099998,"ADDRESS":"大社３０２之１號","OBJECTID":2732},"geometry":{"x":180228.5483649997,"y":2554609.1671130024}},{"attributes":{"ID":2733,"DIS_CODE":0,"TOWNNAME":"新市區","LI":"大社里","LIN":"12鄰","STREET":" ","SECT":" ","MAREA":"大社","LANE":" ","ALLEY":" ","HOUSE_NO":"３１１號","E_COORD97":180166.478233,"N_COORD97":2554604.5104499999,"ADDRESS":"大社３１１號","OBJECTID":2733},"geometry":{"x":180166.47823300119,"y":2554604.5104480013}},{"attributes":{"ID":2734,"DIS_CODE":0,"TOWNNAME":"東區","LI":"德高里","LIN":"5鄰","STREET":"仁和路","SECT":" ","MAREA":" ","LANE":"２５２巷","ALLEY":" ","HOUSE_NO":"１１之１號","E_COORD97":171558.21129000001,"N_COORD97":2540853.1525400002,"ADDRESS":"仁和路２５２巷１１之１號","OBJECTID":2734},"geometry":{"x":171558.21129000001,"y":2540853.1525440011}},{"attributes":{"ID":2735,"DIS_CODE":0,"TOWNNAME":"新市區","LI":"大社里","LIN":"10鄰","STREET":" ","SECT":" ","MAREA":"大社","LANE":" ","ALLEY":" ","HOUSE_NO":"３５６號","E_COORD97":180014.58647499999,"N_COORD97":2554615.5171099999,"ADDRESS":"大社３５６號","OBJECTID":2735},"geometry":{"x":180014.58647499979,"y":2554615.5171090011}},{"attributes":{"ID":2736,"DIS_CODE":0,"TOWNNAME":"東區","LI":"德高里","LIN":"5鄰","STREET":"仁和路","SECT":" ","MAREA":" ","LANE":"２５２巷","ALLEY":" ","HOUSE_NO":"１１號","E_COORD97":171561.96801000001,"N_COORD97":2540857.5172100002,"ADDRESS":"仁和路２５２巷１１號","OBJECTID":2736},"geometry":{"x":171561.96800999995,"y":2540857.5172070004}},{"attributes":{"ID":2737,"DIS_CODE":0,"TOWNNAME":"東區","LI":"德高里","LIN":"5鄰","STREET":"仁和路","SECT":" ","MAREA":" ","LANE":"２５２巷","ALLEY":" ","HOUSE_NO":"５號","E_COORD97":171573.755068,"N_COORD97":2540869.8803500002,"ADDRESS":"仁和路２５２巷５號","OBJECTID":2737},"geometry":{"x":171573.75506800041,"y":2540869.8803489991}},{"attributes":{"ID":2738,"DIS_CODE":0,"TOWNNAME":"東區","LI":"德高里","LIN":"5鄰","STREET":"仁和路","SECT":" ","MAREA":" ","LANE":"２５２巷","ALLEY":" ","HOUSE_NO":"７號","E_COORD97":171570.67623300001,"N_COORD97":2540866.8050199999,"ADDRESS":"仁和路２５２巷７號","OBJECTID":2738},"geometry":{"x":171570.67623300105,"y":2540866.8050160017}},{"attributes":{"ID":2739,"DIS_CODE":0,"TOWNNAME":"東區","LI":"德高里","LIN":"5鄰","STREET":"仁和路","SECT":" ","MAREA":" ","LANE":"２５２巷","ALLEY":" ","HOUSE_NO":"９號","E_COORD97":171566.82769000001,"N_COORD97":2540862.9608499999,"ADDRESS":"仁和路２５２巷９號","OBJECTID":2739},"geometry":{"x":171566.82769000065,"y":2540862.9608490001}},{"attributes":{"ID":2740,"DIS_CODE":0,"TOWNNAME":"東區","LI":"虎尾里","LIN":"27鄰","STREET":"自由路","SECT":"三段","MAREA":" ","LANE":" ","ALLEY":" ","HOUSE_NO":"２５號","E_COORD97":171815.95671599999,"N_COORD97":2541952.1414299998,"ADDRESS":"自由路三段２５號","OBJECTID":2740},"geometry":{"x":171815.9567160001,"y":2541952.1414280012}},{"attributes":{"ID":2741,"DIS_CODE":0,"TOWNNAME":"東區","LI":"虎尾里","LIN":"27鄰","STREET":"自由路","SECT":"三段","MAREA":" ","LANE":" ","ALLEY":" ","HOUSE_NO":"２７號","E_COORD97":171819.54869,"N_COORD97":2541970.0808700002,"ADDRESS":"自由路三段２７號","OBJECTID":2741},"geometry":{"x":171819.54868999962,"y":2541970.0808729995}},{"attributes":{"ID":2742,"DIS_CODE":0,"TOWNNAME":"中西區","LI":"藥王里","LIN":"14鄰","STREET":"和真街","SECT":" ","MAREA":" ","LANE":" ","ALLEY":" ","HOUSE_NO":"４５號","E_COORD97":166924.032328,"N_COORD97":2544539.4122199998,"ADDRESS":"和真街４５號","OBJECTID":2742},"geometry":{"x":166924.03232800122,"y":2544539.4122160003}},{"attributes":{"ID":2743,"DIS_CODE":0,"TOWNNAME":"東區","LI":"德高里","LIN":"12鄰","STREET":"自由路","SECT":"一段","MAREA":" ","LANE":" ","ALLEY":" ","HOUSE_NO":"８號","E_COORD97":171348.27484599999,"N_COORD97":2540791.5756600001,"ADDRESS":"自由路一段８號","OBJECTID":2743},"geometry":{"x":171348.27484600153,"y":2540791.5756579991}},{"attributes":{"ID":2744,"DIS_CODE":0,"TOWNNAME":"東區","LI":"崇文里","LIN":"17鄰","STREET":"崇德二十街","SECT":" ","MAREA":" ","LANE":" ","ALLEY":" ","HOUSE_NO":"１１號","E_COORD97":170843.006261,"N_COORD97":2540879.2373199998,"ADDRESS":"崇德二十街１１號","OBJECTID":2744},"geometry":{"x":170843.00626100227,"y":2540879.2373210043}},{"attributes":{"ID":2745,"DIS_CODE":0,"TOWNNAME":"東區","LI":"小東里","LIN":"28鄰","STREET":"東和路","SECT":" ","MAREA":" ","LANE":" ","ALLEY":" ","HOUSE_NO":"１５３之１號","E_COORD97":170716.83839600001,"N_COORD97":2544307.5877299998,"ADDRESS":"東和路１５３之１號","OBJECTID":2745},"geometry":{"x":170716.83839600068,"y":2544307.5877300017}},{"attributes":{"ID":2746,"DIS_CODE":0,"TOWNNAME":"中西區","LI":"協進里","LIN":"2鄰","STREET":"西寧街","SECT":" ","MAREA":" ","LANE":" ","ALLEY":" ","HOUSE_NO":"１５號","E_COORD97":167172.06654999999,"N_COORD97":2544199.7228999999,"ADDRESS":"西寧街１５號","OBJECTID":2746},"geometry":{"x":167172.06654999964,"y":2544199.7228980009}},{"attributes":{"ID":2747,"DIS_CODE":0,"TOWNNAME":"中西區","LI":"協進里","LIN":"2鄰","STREET":"西寧街","SECT":" ","MAREA":" ","LANE":" ","ALLEY":" ","HOUSE_NO":"１３號","E_COORD97":167174.82092100001,"N_COORD97":2544200.1462300001,"ADDRESS":"西寧街１３號","OBJECTID":2747},"geometry":{"x":167174.82092100102,"y":2544200.1462309994}},{"attributes":{"ID":2748,"DIS_CODE":0,"TOWNNAME":"新市區","LI":"大社里","LIN":"10鄰","STREET":" ","SECT":" ","MAREA":"大社","LANE":" ","ALLEY":" ","HOUSE_NO":"３７９號","E_COORD97":180059.65737,"N_COORD97":2554651.2436000002,"ADDRESS":"大社３７９號","OBJECTID":2748},"geometry":{"x":180059.65737000108,"y":2554651.2435980011}},{"attributes":{"ID":2749,"DIS_CODE":0,"TOWNNAME":"新市區","LI":"大社里","LIN":"11鄰","STREET":" ","SECT":" ","MAREA":"大社","LANE":" ","ALLEY":" ","HOUSE_NO":"３９３號","E_COORD97":180136.34470099999,"N_COORD97":2554668.3885900001,"ADDRESS":"大社３９３號","OBJECTID":2749},"geometry":{"x":180136.34470100049,"y":2554668.3885880001}},{"attributes":{"ID":2750,"DIS_CODE":0,"TOWNNAME":"新市區","LI":"大洲里","LIN":"10鄰","STREET":" ","SECT":" ","MAREA":"大洲","LANE":" ","ALLEY":" ","HOUSE_NO":"１０１之７號","E_COORD97":174405.394512,"N_COORD97":2551329.5801599999,"ADDRESS":"大洲１０１之７號","OBJECTID":2750},"geometry":{"x":174405.39451200049,"y":2551329.5801599994}},{"attributes":{"ID":2751,"DIS_CODE":0,"TOWNNAME":"安南區","LI":"城西里","LIN":"7鄰","STREET":"城西街","SECT":"三段","MAREA":" ","LANE":"５０１巷","ALLEY":" ","HOUSE_NO":"３６２號之５２","E_COORD97":157742.841159,"N_COORD97":2549169.3442899999,"ADDRESS":"城西街三段５０１巷３６２號之５２","OBJECTID":2751},"geometry":{"x":157742.84115900006,"y":2549169.3442860004}},{"attributes":{"ID":2752,"DIS_CODE":0,"TOWNNAME":"新市區","LI":"大社里","LIN":"12鄰","STREET":" ","SECT":" ","MAREA":"大社","LANE":" ","ALLEY":" ","HOUSE_NO":"３９９之３號","E_COORD97":180149.47899500001,"N_COORD97":2554681.51192,"ADDRESS":"大社３９９之３號","OBJECTID":2752},"geometry":{"x":180149.47899500001,"y":2554681.5119150002}},{"attributes":{"ID":2753,"DIS_CODE":0,"TOWNNAME":"安南區","LI":"城西里","LIN":"7鄰","STREET":"城西街","SECT":"三段","MAREA":" ","LANE":"５０１巷","ALLEY":" ","HOUSE_NO":"３６２號之１００","E_COORD97":157782.87957200001,"N_COORD97":2549099.28266,"ADDRESS":"城西街三段５０１巷３６２號之１００","OBJECTID":2753},"geometry":{"x":157782.87957200222,"y":2549099.282657003}},{"attributes":{"ID":2754,"DIS_CODE":0,"TOWNNAME":"關廟區","LI":"埤頭里","LIN":"1鄰","STREET":"關新路","SECT":"一段","MAREA":" ","LANE":"５１５巷","ALLEY":" ","HOUSE_NO":"２號","E_COORD97":179190.70097100001,"N_COORD97":2543222.02642,"ADDRESS":"關新路一段５１５巷２號","OBJECTID":2754},"geometry":{"x":179190.7009709999,"y":2543222.026424}},{"attributes":{"ID":2755,"DIS_CODE":0,"TOWNNAME":"新市區","LI":"大社里","LIN":"12鄰","STREET":" ","SECT":" ","MAREA":"大社","LANE":" ","ALLEY":" ","HOUSE_NO":"４０５號","E_COORD97":180179.98445300001,"N_COORD97":2554746.07021,"ADDRESS":"大社４０５號","OBJECTID":2755},"geometry":{"x":180179.98445300199,"y":2554746.0702130012}},{"attributes":{"ID":2756,"DIS_CODE":0,"TOWNNAME":"新市區","LI":"大社里","LIN":"12鄰","STREET":" ","SECT":" ","MAREA":"大社","LANE":" ","ALLEY":" ","HOUSE_NO":"４０６號","E_COORD97":180181.25551300001,"N_COORD97":2554739.93188,"ADDRESS":"大社４０６號","OBJECTID":2756},"geometry":{"x":180181.25551300123,"y":2554739.9318829998}},{"attributes":{"ID":2757,"DIS_CODE":0,"TOWNNAME":"中西區","LI":"藥王里","LIN":"2鄰","STREET":"大福街","SECT":" ","MAREA":" ","LANE":"３９巷","ALLEY":" ","HOUSE_NO":"２２號","E_COORD97":167274.04869,"N_COORD97":2544455.6625999999,"ADDRESS":"大福街３９巷２２號","OBJECTID":2757},"geometry":{"x":167274.04869000055,"y":2544455.662595002}},{"attributes":{"ID":2758,"DIS_CODE":0,"TOWNNAME":"仁德區","LI":"後壁里","LIN":"5鄰","STREET":"德善路","SECT":" ","MAREA":" ","LANE":" ","ALLEY":" ","HOUSE_NO":"１３５號","E_COORD97":173467.66313100001,"N_COORD97":2538879.8045000001,"ADDRESS":"德善路１３５號","OBJECTID":2758},"geometry":{"x":173467.66313100141,"y":2538879.8045010008}},{"attributes":{"ID":2759,"DIS_CODE":0,"TOWNNAME":"安南區","LI":"城西里","LIN":"7鄰","STREET":"城西街","SECT":"三段","MAREA":" ","LANE":"５０１巷","ALLEY":" ","HOUSE_NO":"３６２號之８００","E_COORD97":157315.12922199999,"N_COORD97":2548240.5514500001,"ADDRESS":"城西街三段５０１巷３６２號之８００","OBJECTID":2759},"geometry":{"x":157315.12922200095,"y":2548240.5514540039}},{"attributes":{"ID":2760,"DIS_CODE":0,"TOWNNAME":"安南區","LI":"安和里","LIN":"1鄰","STREET":"府安路","SECT":"三段","MAREA":" ","LANE":" ","ALLEY":" ","HOUSE_NO":"３６６號","E_COORD97":169623.06562899999,"N_COORD97":2547406.1298000002,"ADDRESS":"府安路三段３６６號","OBJECTID":2760},"geometry":{"x":169623.06562899984,"y":2547406.1297970004}},{"attributes":{"ID":2761,"DIS_CODE":0,"TOWNNAME":"安南區","LI":"安和里","LIN":"1鄰","STREET":"府安路","SECT":"三段","MAREA":" ","LANE":" ","ALLEY":" ","HOUSE_NO":"３６５號","E_COORD97":169628.99415400001,"N_COORD97":2547410.7864600001,"ADDRESS":"府安路三段３６５號","OBJECTID":2761},"geometry":{"x":169628.99415400065,"y":2547410.7864610013}},{"attributes":{"ID":2762,"DIS_CODE":0,"TOWNNAME":"鹽水區","LI":"橋南里","LIN":"8鄰","STREET":"忠孝路","SECT":" ","MAREA":" ","LANE":" ","ALLEY":" ","HOUSE_NO":"２２３號","E_COORD97":175315.78744300001,"N_COORD97":2578909.2132600001,"ADDRESS":"忠孝路２２３號","OBJECTID":2762},"geometry":{"x":175315.78744300082,"y":2578909.2132600024}},{"attributes":{"ID":2763,"DIS_CODE":0,"TOWNNAME":"下營區","LI":"營前里","LIN":"18鄰","STREET":"健康路","SECT":" ","MAREA":" ","LANE":"２２１巷","ALLEY":" ","HOUSE_NO":"２５號","E_COORD97":174866.35197799999,"N_COORD97":2570307.40381,"ADDRESS":"健康路２２１巷２５號","OBJECTID":2763},"geometry":{"x":174866.35197800025,"y":2570307.4038060009}},{"attributes":{"ID":2764,"DIS_CODE":0,"TOWNNAME":"新市區","LI":"大社里","LIN":"33鄰","STREET":" ","SECT":" ","MAREA":"大社","LANE":" ","ALLEY":" ","HOUSE_NO":"４０８號","E_COORD97":180157.05239900001,"N_COORD97":2554898.2584600002,"ADDRESS":"大社４０８號","OBJECTID":2764},"geometry":{"x":180157.05239900015,"y":2554898.2584640011}},{"attributes":{"ID":2765,"DIS_CODE":0,"TOWNNAME":"下營區","LI":"營前里","LIN":"18鄰","STREET":"健康路","SECT":" ","MAREA":" ","LANE":"２２１巷","ALLEY":" ","HOUSE_NO":"３５號","E_COORD97":174866.56390099999,"N_COORD97":2570286.8721500002,"ADDRESS":"健康路２２１巷３５號","OBJECTID":2765},"geometry":{"x":174866.56390100066,"y":2570286.8721510023}},{"attributes":{"ID":2766,"DIS_CODE":0,"TOWNNAME":"關廟區","LI":"埤頭里","LIN":"2鄰","STREET":"保東路","SECT":" ","MAREA":" ","LANE":"８５巷","ALLEY":" ","HOUSE_NO":"１１２號","E_COORD97":179006.800051,"N_COORD97":2543873.6419099998,"ADDRESS":"保東路８５巷１１２號","OBJECTID":2766},"geometry":{"x":179006.8000510009,"y":2543873.6419050023}},{"attributes":{"ID":2767,"DIS_CODE":0,"TOWNNAME":"安南區","LI":"安和里","LIN":"1鄰","STREET":"府安路","SECT":"三段","MAREA":" ","LANE":" ","ALLEY":" ","HOUSE_NO":"３６３號","E_COORD97":169637.04001,"N_COORD97":2547415.44313,"ADDRESS":"府安路三段３６３號","OBJECTID":2767},"geometry":{"x":169637.04000999872,"y":2547415.4431260005}},{"attributes":{"ID":2768,"DIS_CODE":0,"TOWNNAME":"關廟區","LI":"埤頭里","LIN":"2鄰","STREET":"保東路","SECT":" ","MAREA":" ","LANE":"８５巷","ALLEY":" ","HOUSE_NO":"６３號","E_COORD97":178956.58747299999,"N_COORD97":2543865.1752399998,"ADDRESS":"保東路８５巷６３號","OBJECTID":2768},"geometry":{"x":178956.5874730004,"y":2543865.1752430014}},{"attributes":{"ID":2769,"DIS_CODE":0,"TOWNNAME":"安南區","LI":"安和里","LIN":"1鄰","STREET":"府安路","SECT":"三段","MAREA":" ","LANE":" ","ALLEY":" ","HOUSE_NO":"３５７號","E_COORD97":169687.644207,"N_COORD97":2547458.8347700001,"ADDRESS":"府安路三段３５７號","OBJECTID":2769},"geometry":{"x":169687.6442069998,"y":2547458.8347689994}},{"attributes":{"ID":2770,"DIS_CODE":0,"TOWNNAME":"關廟區","LI":"埤頭里","LIN":"3鄰","STREET":"保東路","SECT":" ","MAREA":" ","LANE":"８５巷","ALLEY":" ","HOUSE_NO":"７２號","E_COORD97":178947.17000000001,"N_COORD97":2543883.2999999998,"ADDRESS":"保東路８５巷７２號","OBJECTID":2770},"geometry":{"x":178947.16999999993,"y":2543883.3000000007}},{"attributes":{"ID":2771,"DIS_CODE":0,"TOWNNAME":"安南區","LI":"安和里","LIN":"1鄰","STREET":"府安路","SECT":"三段","MAREA":" ","LANE":" ","ALLEY":" ","HOUSE_NO":"３５５號","E_COORD97":169701.195122,"N_COORD97":2547473.2280899999,"ADDRESS":"府安路三段３５５號","OBJECTID":2771},"geometry":{"x":169701.19512200169,"y":2547473.2280940004}},{"attributes":{"ID":2772,"DIS_CODE":0,"TOWNNAME":"新市區","LI":"大社里","LIN":"13鄰","STREET":" ","SECT":" ","MAREA":"大社","LANE":" ","ALLEY":" ","HOUSE_NO":"４１７之１號","E_COORD97":180012.16140499999,"N_COORD97":2554747.5915700002,"ADDRESS":"大社４１７之１號","OBJECTID":2772},"geometry":{"x":180012.1614049999,"y":2554747.591566002}},{"attributes":{"ID":2773,"DIS_CODE":0,"TOWNNAME":"新市區","LI":"大社里","LIN":"13鄰","STREET":" ","SECT":" ","MAREA":"大社","LANE":" ","ALLEY":" ","HOUSE_NO":"４１７之５號","E_COORD97":179982.927008,"N_COORD97":2554744.2048999998,"ADDRESS":"大社４１７之５號","OBJECTID":2773},"geometry":{"x":179982.92700800113,"y":2554744.2049020007}},{"attributes":{"ID":2774,"DIS_CODE":0,"TOWNNAME":"關廟區","LI":"埤頭里","LIN":"3鄰","STREET":"保東路","SECT":" ","MAREA":" ","LANE":"８５巷","ALLEY":" ","HOUSE_NO":"４１號","E_COORD97":178955.26999999999,"N_COORD97":2543936.2999999998,"ADDRESS":"保東路８５巷４１號","OBJECTID":2774},"geometry":{"x":178955.27000000048,"y":2543936.3000000026}},{"attributes":{"ID":2775,"DIS_CODE":0,"TOWNNAME":"安南區","LI":"安和里","LIN":"1鄰","STREET":"府安路","SECT":"三段","MAREA":" ","LANE":" ","ALLEY":" ","HOUSE_NO":"３４８號","E_COORD97":169714.11083799999,"N_COORD97":2547487.6214200002,"ADDRESS":"府安路三段３４８號","OBJECTID":2775},"geometry":{"x":169714.11083800066,"y":2547487.6214199997}},{"attributes":{"ID":2776,"DIS_CODE":0,"TOWNNAME":"安南區","LI":"安和里","LIN":"1鄰","STREET":"府安路","SECT":"三段","MAREA":" ","LANE":" ","ALLEY":" ","HOUSE_NO":"３４５號","E_COORD97":169727.45001999999,"N_COORD97":2547502.4380800002,"ADDRESS":"府安路三段３４５號","OBJECTID":2776},"geometry":{"x":169727.45002000127,"y":2547502.4380789995}},{"attributes":{"ID":2777,"DIS_CODE":0,"TOWNNAME":"關廟區","LI":"埤頭里","LIN":"4鄰","STREET":"保東路","SECT":" ","MAREA":" ","LANE":"８５巷","ALLEY":" ","HOUSE_NO":"５６號","E_COORD97":178942.18048800001,"N_COORD97":2543931.3210399998,"ADDRESS":"保東路８５巷５６號","OBJECTID":2777},"geometry":{"x":178942.18048800062,"y":2543931.3210400008}},{"attributes":{"ID":2778,"DIS_CODE":0,"TOWNNAME":"安南區","LI":"安和里","LIN":"1鄰","STREET":"府安路","SECT":"三段","MAREA":" ","LANE":" ","ALLEY":" ","HOUSE_NO":"３４２號","E_COORD97":169736.13107500001,"N_COORD97":2547512.3864099998,"ADDRESS":"府安路三段３４２號","OBJECTID":2778},"geometry":{"x":169736.13107500039,"y":2547512.3864070009}},{"attributes":{"ID":2779,"DIS_CODE":0,"TOWNNAME":"安南區","LI":"安和里","LIN":"1鄰","STREET":"府安路","SECT":"三段","MAREA":" ","LANE":" ","ALLEY":" ","HOUSE_NO":"３４１號","E_COORD97":169741.00093499999,"N_COORD97":2547519.5830700002,"ADDRESS":"府安路三段３４１號","OBJECTID":2779},"geometry":{"x":169741.00093500037,"y":2547519.5830690004}},{"attributes":{"ID":2780,"DIS_CODE":0,"TOWNNAME":"仁德區","LI":"田厝里","LIN":"10鄰","STREET":"田厝二街","SECT":" ","MAREA":" ","LANE":"８６巷","ALLEY":" ","HOUSE_NO":"１６號","E_COORD97":172367.28749300001,"N_COORD97":2537744.4073399999,"ADDRESS":"田厝二街８６巷１６號","OBJECTID":2780},"geometry":{"x":172367.28749300074,"y":2537744.4073409997}},{"attributes":{"ID":2781,"DIS_CODE":0,"TOWNNAME":"安南區","LI":"安和里","LIN":"1鄰","STREET":"府安路","SECT":"三段","MAREA":" ","LANE":" ","ALLEY":" ","HOUSE_NO":"３４０號","E_COORD97":169749.681989,"N_COORD97":2547528.8964,"ADDRESS":"府安路三段３４０號","OBJECTID":2781},"geometry":{"x":169749.68198900018,"y":2547528.8963980023}},{"attributes":{"ID":2782,"DIS_CODE":0,"TOWNNAME":"新市區","LI":"新和里","LIN":"47鄰","STREET":"和平街","SECT":" ","MAREA":" ","LANE":"１６８巷","ALLEY":" ","HOUSE_NO":"１９號","E_COORD97":177392.72102699999,"N_COORD97":2553359.8202200001,"ADDRESS":"和平街１６８巷１９號","OBJECTID":2782},"geometry":{"x":177392.72102699988,"y":2553359.8202200029}},{"attributes":{"ID":2783,"DIS_CODE":0,"TOWNNAME":"關廟區","LI":"埤頭里","LIN":"4鄰","STREET":"保東路","SECT":" ","MAREA":" ","LANE":"８５巷","ALLEY":"１６弄","HOUSE_NO":"５號","E_COORD97":178898.47,"N_COORD97":2543957.2999999998,"ADDRESS":"保東路８５巷１６弄５號","OBJECTID":2783},"geometry":{"x":178898.47000000067,"y":2543957.3000000007}},{"attributes":{"ID":2784,"DIS_CODE":0,"TOWNNAME":"安南區","LI":"城西里","LIN":"4鄰","STREET":"城西街","SECT":"三段","MAREA":" ","LANE":" ","ALLEY":" ","HOUSE_NO":"１０７０之３０號","E_COORD97":155499.842653,"N_COORD97":2550831.13839,"ADDRESS":"城西街三段１０７０之３０號","OBJECTID":2784},"geometry":{"x":155499.84265300073,"y":2550831.1383890007}},{"attributes":{"ID":2785,"DIS_CODE":0,"TOWNNAME":"仁德區","LI":"田厝里","LIN":"10鄰","STREET":"田厝二街","SECT":" ","MAREA":" ","LANE":" ","ALLEY":" ","HOUSE_NO":"７４號","E_COORD97":172374.27801000001,"N_COORD97":2537675.4569600001,"ADDRESS":"田厝二街７４號","OBJECTID":2785},"geometry":{"x":172374.27801000047,"y":2537675.4569620024}},{"attributes":{"ID":2786,"DIS_CODE":0,"TOWNNAME":"新市區","LI":"新和里","LIN":"47鄰","STREET":"和平街","SECT":" ","MAREA":" ","LANE":"１６８巷","ALLEY":" ","HOUSE_NO":"２１號","E_COORD97":177386.53949,"N_COORD97":2553367.40423,"ADDRESS":"和平街１６８巷２１號","OBJECTID":2786},"geometry":{"x":177386.53949000128,"y":2553367.4042340014}},{"attributes":{"ID":2787,"DIS_CODE":0,"TOWNNAME":"關廟區","LI":"埤頭里","LIN":"4鄰","STREET":"保東路","SECT":" ","MAREA":" ","LANE":"８５巷","ALLEY":"１６弄","HOUSE_NO":"１１號","E_COORD97":178922.90055300001,"N_COORD97":2543959.2610200001,"ADDRESS":"保東路８５巷１６弄１１號","OBJECTID":2787},"geometry":{"x":178922.90055300016,"y":2543959.2610250004}},{"attributes":{"ID":2788,"DIS_CODE":0,"TOWNNAME":"安南區","LI":"安和里","LIN":"1鄰","STREET":"府安路","SECT":"三段","MAREA":" ","LANE":"３３９巷","ALLEY":" ","HOUSE_NO":"２號","E_COORD97":169745.29999999999,"N_COORD97":2547563.46,"ADDRESS":"府安路三段３３９巷２號","OBJECTID":2788},"geometry":{"x":169745.30000000168,"y":2547563.4600000009}},{"attributes":{"ID":2789,"DIS_CODE":0,"TOWNNAME":"仁德區","LI":"田厝里","LIN":"10鄰","STREET":"田厝二街","SECT":" ","MAREA":" ","LANE":"８６巷","ALLEY":" ","HOUSE_NO":"２８號﹒","E_COORD97":172393.02530800001,"N_COORD97":2537771.34191,"ADDRESS":"田厝二街８６巷２８號﹒","OBJECTID":2789},"geometry":{"x":172393.02530799992,"y":2537771.3419100028}},{"attributes":{"ID":2790,"DIS_CODE":0,"TOWNNAME":"新市區","LI":"新和里","LIN":"45鄰","STREET":"信義街","SECT":" ","MAREA":" ","LANE":"１５９巷","ALLEY":" ","HOUSE_NO":"１０號","E_COORD97":177216.028334,"N_COORD97":2553168.8410299998,"ADDRESS":"信義街１５９巷１０號","OBJECTID":2790},"geometry":{"x":177216.02833400108,"y":2553168.8410320021}},{"attributes":{"ID":2791,"DIS_CODE":0,"TOWNNAME":"新市區","LI":"新和里","LIN":"45鄰","STREET":"信義街","SECT":" ","MAREA":" ","LANE":"１５９巷","ALLEY":" ","HOUSE_NO":"１２號","E_COORD97":177209.17970199999,"N_COORD97":2553175.4384599999,"ADDRESS":"信義街１５９巷１２號","OBJECTID":2791},"geometry":{"x":177209.17970200069,"y":2553175.4384579994}},{"attributes":{"ID":2792,"DIS_CODE":0,"TOWNNAME":"仁德區","LI":"田厝里","LIN":"10鄰","STREET":"田厝二街","SECT":" ","MAREA":" ","LANE":"８６巷","ALLEY":" ","HOUSE_NO":"２６號","E_COORD97":172382.00994700001,"N_COORD97":2537786.2114800001,"ADDRESS":"田厝二街８６巷２６號","OBJECTID":2792},"geometry":{"x":172382.00994700193,"y":2537786.2114850003}},{"attributes":{"ID":2793,"DIS_CODE":0,"TOWNNAME":"仁德區","LI":"田厝里","LIN":"10鄰","STREET":"田厝二街","SECT":" ","MAREA":" ","LANE":"８６巷","ALLEY":" ","HOUSE_NO":"２４號","E_COORD97":172378.93835499999,"N_COORD97":2537776.1573200002,"ADDRESS":"田厝二街８６巷２４號","OBJECTID":2793},"geometry":{"x":172378.93835499976,"y":2537776.1573239993}},{"attributes":{"ID":2794,"DIS_CODE":0,"TOWNNAME":"關廟區","LI":"埤頭里","LIN":"4鄰","STREET":"保東路","SECT":" ","MAREA":" ","LANE":"８５巷","ALLEY":" ","HOUSE_NO":"２１號","E_COORD97":178952.98572699999,"N_COORD97":2543960.9543599999,"ADDRESS":"保東路８５巷２１號","OBJECTID":2794},"geometry":{"x":178952.98572700005,"y":2543960.9543580022}},{"attributes":{"ID":2795,"DIS_CODE":0,"TOWNNAME":"關廟區","LI":"埤頭里","LIN":"4鄰","STREET":"保東路","SECT":" ","MAREA":" ","LANE":"８５巷","ALLEY":" ","HOUSE_NO":"１９號","E_COORD97":178952.77385900001,"N_COORD97":2543966.24602,"ADDRESS":"保東路８５巷１９號","OBJECTID":2795},"geometry":{"x":178952.77385899983,"y":2543966.2460220028}},{"attributes":{"ID":2796,"DIS_CODE":0,"TOWNNAME":"新市區","LI":"大社里","LIN":"33鄰","STREET":" ","SECT":" ","MAREA":"大社","LANE":" ","ALLEY":" ","HOUSE_NO":"４７７號","E_COORD97":180749.58847399999,"N_COORD97":2555370.9495600001,"ADDRESS":"大社４７７號","OBJECTID":2796},"geometry":{"x":180749.58847400174,"y":2555370.9495630022}},{"attributes":{"ID":2797,"DIS_CODE":0,"TOWNNAME":"關廟區","LI":"埤頭里","LIN":"4鄰","STREET":"保東路","SECT":" ","MAREA":" ","LANE":"８５巷","ALLEY":" ","HOUSE_NO":"１７號","E_COORD97":178952.879793,"N_COORD97":2543970.9556,"ADDRESS":"保東路８５巷１７號","OBJECTID":2797},"geometry":{"x":178952.87979300041,"y":2543970.9556020033}},{"attributes":{"ID":2798,"DIS_CODE":0,"TOWNNAME":"下營區","LI":"後街里","LIN":"12鄰","STREET":"大同街","SECT":" ","MAREA":" ","LANE":"４８巷","ALLEY":" ","HOUSE_NO":"１號","E_COORD97":174573.190871,"N_COORD97":2570674.92869,"ADDRESS":"大同街４８巷１號","OBJECTID":2798},"geometry":{"x":174573.19087100029,"y":2570674.9286950026}},{"attributes":{"ID":2799,"DIS_CODE":0,"TOWNNAME":"安定區","LI":"六嘉里","LIN":"2鄰","STREET":" ","SECT":" ","MAREA":"六塊寮","LANE":" ","ALLEY":" ","HOUSE_NO":"１１之５號","E_COORD97":169964.18781800001,"N_COORD97":2553741.0454500001,"ADDRESS":"六塊寮１１之５號","OBJECTID":2799},"geometry":{"x":169964.18781800009,"y":2553741.0454460047}},{"attributes":{"ID":2800,"DIS_CODE":0,"TOWNNAME":"安定區","LI":"六嘉里","LIN":"2鄰","STREET":" ","SECT":" ","MAREA":"六塊寮","LANE":" ","ALLEY":" ","HOUSE_NO":"１１之８號","E_COORD97":169958.25619799999,"N_COORD97":2553719.4554599999,"ADDRESS":"六塊寮１１之８號","OBJECTID":2800},"geometry":{"x":169958.25619800109,"y":2553719.4554569982}}]}