{"displayFieldName":"TOWNNAME","fieldAliases":{"ID":"ID","DIS_CODE":"DIS_CODE","TOWNNAME":"TOWNNAME","LI":"LI","LIN":"LIN","STREET":"STREET","SECT":"SECT","MAREA":"MAREA","LANE":"LANE","ALLEY":"ALLEY","HOUSE_NO":"HOUSE_NO","E_COORD97":"E_COORD97","N_COORD97":"N_COORD97","ADDRESS":"ADDRESS","OBJECTID":"OBJECTID"},"geometryType":"esriGeometryPoint","spatialReference":{"wkid":102443,"latestWkid":3826},"fields":[{"name":"ID","type":"esriFieldTypeDouble","alias":"ID"},{"name":"DIS_CODE","type":"esriFieldTypeInteger","alias":"DIS_CODE"},{"name":"TOWNNAME","type":"esriFieldTypeString","alias":"TOWNNAME","length":8},{"name":"LI","type":"esriFieldTypeString","alias":"LI","length":8},{"name":"LIN","type":"esriFieldTypeString","alias":"LIN","length":12},{"name":"STREET","type":"esriFieldTypeString","alias":"STREET","length":20},{"name":"SECT","type":"esriFieldTypeString","alias":"SECT","length":8},{"name":"MAREA","type":"esriFieldTypeString","alias":"MAREA","length":12},{"name":"LANE","type":"esriFieldTypeString","alias":"LANE","length":10},{"name":"ALLEY","type":"esriFieldTypeString","alias":"ALLEY","length":10},{"name":"HOUSE_NO","type":"esriFieldTypeString","alias":"HOUSE_NO","length":20},{"name":"E_COORD97","type":"esriFieldTypeDouble","alias":"E_COORD97"},{"name":"N_COORD97","type":"esriFieldTypeDouble","alias":"N_COORD97"},{"name":"ADDRESS","type":"esriFieldTypeString","alias":"ADDRESS","length":50},{"name":"OBJECTID","type":"esriFieldTypeOID","alias":"OBJECTID"}],"features":[{"attributes":{"ID":493828,"DIS_CODE":0,"TOWNNAME":"仁德區","LI":"仁德里","LIN":"39鄰","STREET":"文宏路","SECT":" ","MAREA":" ","LANE":" ","ALLEY":" ","HOUSE_NO":"１２９號","E_COORD97":172397.84,"N_COORD97":2541804.5699999998,"ADDRESS":"文宏路１２９號","OBJECTID":493801},"geometry":{"x":172397.83999999892,"y":2541804.5700000022}},{"attributes":{"ID":493829,"DIS_CODE":0,"TOWNNAME":"永康區","LI":"復華里","LIN":"39鄰","STREET":"復國一路","SECT":" ","MAREA":" ","LANE":" ","ALLEY":" ","HOUSE_NO":"４１１號","E_COORD97":172727.79000000001,"N_COORD97":2545986.27,"ADDRESS":"復國一路４１１號","OBJECTID":493802},"geometry":{"x":172727.79000000097,"y":2545986.2700000014}},{"attributes":{"ID":493830,"DIS_CODE":0,"TOWNNAME":"永康區","LI":"埔園里","LIN":"39鄰","STREET":"聖龍街","SECT":" ","MAREA":" ","LANE":" ","ALLEY":" ","HOUSE_NO":"１８９號","E_COORD97":174333.37,"N_COORD97":2547851.4300000002,"ADDRESS":"聖龍街１８９號","OBJECTID":493803},"geometry":{"x":174333.37000000011,"y":2547851.4299999997}},{"attributes":{"ID":493831,"DIS_CODE":0,"TOWNNAME":"新市區","LI":"新和里","LIN":"39鄰","STREET":"中正路","SECT":" ","MAREA":" ","LANE":" ","ALLEY":" ","HOUSE_NO":"２２３號","E_COORD97":177434.31,"N_COORD97":2553044.75,"ADDRESS":"中正路２２３號","OBJECTID":493804},"geometry":{"x":177434.31000000145,"y":2553044.7500000019}},{"attributes":{"ID":493832,"DIS_CODE":0,"TOWNNAME":"仁德區","LI":"太子里","LIN":"39鄰","STREET":"長興一街","SECT":" ","MAREA":" ","LANE":" ","ALLEY":" ","HOUSE_NO":"２之３號","E_COORD97":174707.20999999999,"N_COORD97":2543673.04,"ADDRESS":"長興一街２之３號","OBJECTID":493805},"geometry":{"x":174707.20999999996,"y":2543673.0399999991}},{"attributes":{"ID":493833,"DIS_CODE":0,"TOWNNAME":"新市區","LI":"新和里","LIN":"39鄰","STREET":"中正路","SECT":" ","MAREA":" ","LANE":" ","ALLEY":" ","HOUSE_NO":"２０１號","E_COORD97":177424.51999999999,"N_COORD97":2552979.71,"ADDRESS":"中正路２０１號","OBJECTID":493806},"geometry":{"x":177424.52000000048,"y":2552979.7100000009}},{"attributes":{"ID":493834,"DIS_CODE":0,"TOWNNAME":"新市區","LI":"新和里","LIN":"39鄰","STREET":"中正路","SECT":" ","MAREA":" ","LANE":" ","ALLEY":" ","HOUSE_NO":"２２７號","E_COORD97":177435.01000000001,"N_COORD97":2553051.75,"ADDRESS":"中正路２２７號","OBJECTID":493807},"geometry":{"x":177435.01000000071,"y":2553051.7500000019}},{"attributes":{"ID":493835,"DIS_CODE":0,"TOWNNAME":"永康區","LI":"北灣里","LIN":"39鄰","STREET":"大同街","SECT":" ","MAREA":" ","LANE":" ","ALLEY":" ","HOUSE_NO":"６４６號","E_COORD97":174628.79999999999,"N_COORD97":2546349.1299999999,"ADDRESS":"大同街６４６號","OBJECTID":493808},"geometry":{"x":174628.79999999981,"y":2546349.1300000008}},{"attributes":{"ID":493836,"DIS_CODE":0,"TOWNNAME":"永康區","LI":"北灣里","LIN":"39鄰","STREET":"永大路","SECT":"二段","MAREA":" ","LANE":" ","ALLEY":" ","HOUSE_NO":"１０５６號","E_COORD97":174441.70999999999,"N_COORD97":2546454.6400000001,"ADDRESS":"永大路二段１０５６號","OBJECTID":493809},"geometry":{"x":174441.71000000183,"y":2546454.6399999987}},{"attributes":{"ID":493837,"DIS_CODE":0,"TOWNNAME":"永康區","LI":"北灣里","LIN":"39鄰","STREET":"大同街","SECT":" ","MAREA":" ","LANE":" ","ALLEY":" ","HOUSE_NO":"６２７號","E_COORD97":174576.39000000001,"N_COORD97":2546446.25,"ADDRESS":"大同街６２７號","OBJECTID":493810},"geometry":{"x":174576.3900000006,"y":2546446.25}},{"attributes":{"ID":493838,"DIS_CODE":0,"TOWNNAME":"永康區","LI":"北灣里","LIN":"39鄰","STREET":"永大路","SECT":"二段","MAREA":" ","LANE":" ","ALLEY":" ","HOUSE_NO":"９７２號","E_COORD97":174475.01999999999,"N_COORD97":2546333.4199999999,"ADDRESS":"永大路二段９７２號","OBJECTID":493811},"geometry":{"x":174475.02000000048,"y":2546333.4199999981}},{"attributes":{"ID":493839,"DIS_CODE":0,"TOWNNAME":"永康區","LI":"北灣里","LIN":"39鄰","STREET":"大同街","SECT":" ","MAREA":" ","LANE":" ","ALLEY":" ","HOUSE_NO":"６５１號","E_COORD97":174557.01000000001,"N_COORD97":2546509.9900000002,"ADDRESS":"大同街６５１號","OBJECTID":493812},"geometry":{"x":174557.01000000071,"y":2546509.9900000021}},{"attributes":{"ID":493840,"DIS_CODE":0,"TOWNNAME":"永康區","LI":"北灣里","LIN":"39鄰","STREET":"大同街","SECT":" ","MAREA":" ","LANE":" ","ALLEY":" ","HOUSE_NO":"６５５號","E_COORD97":174559.81,"N_COORD97":2546519.2400000002,"ADDRESS":"大同街６５５號","OBJECTID":493813},"geometry":{"x":174559.81000000052,"y":2546519.2400000021}},{"attributes":{"ID":493841,"DIS_CODE":0,"TOWNNAME":"永康區","LI":"北灣里","LIN":"39鄰","STREET":"大同街","SECT":" ","MAREA":" ","LANE":" ","ALLEY":" ","HOUSE_NO":"６５０號","E_COORD97":174624.76000000001,"N_COORD97":2546360.2000000002,"ADDRESS":"大同街６５０號","OBJECTID":493814},"geometry":{"x":174624.76000000071,"y":2546360.1999999993}},{"attributes":{"ID":493842,"DIS_CODE":0,"TOWNNAME":"歸仁區","LI":"看西里","LIN":"23鄰","STREET":"成功五街","SECT":" ","MAREA":" ","LANE":"８８巷","ALLEY":"９７弄","HOUSE_NO":"２號","E_COORD97":178340.635691,"N_COORD97":2539824.9080599998,"ADDRESS":"成功五街８８巷９７弄２號","OBJECTID":493815},"geometry":{"x":178340.63569100015,"y":2539824.9080640003}},{"attributes":{"ID":493843,"DIS_CODE":0,"TOWNNAME":"仁德區","LI":"仁德里","LIN":"22鄰","STREET":"中山路","SECT":" ","MAREA":" ","LANE":"８７５巷","ALLEY":"６弄","HOUSE_NO":"１０號","E_COORD97":172385.808307,"N_COORD97":2541561.9089100002,"ADDRESS":"中山路８７５巷６弄１０號","OBJECTID":493816},"geometry":{"x":172385.80830700044,"y":2541561.9089139998}},{"attributes":{"ID":493844,"DIS_CODE":0,"TOWNNAME":"安南區","LI":"幸福里","LIN":"1鄰","STREET":"國安街","SECT":" ","MAREA":" ","LANE":" ","ALLEY":" ","HOUSE_NO":"７號","E_COORD97":167131.07999999999,"N_COORD97":2547011.46,"ADDRESS":"國安街７號","OBJECTID":493817},"geometry":{"x":167131.08000000007,"y":2547011.4600000009}},{"attributes":{"ID":493845,"DIS_CODE":0,"TOWNNAME":"永康區","LI":"龍潭里","LIN":"1鄰","STREET":"龍潭街","SECT":" ","MAREA":" ","LANE":" ","ALLEY":" ","HOUSE_NO":"３５號","E_COORD97":174768.26000000001,"N_COORD97":2547909.6000000001,"ADDRESS":"龍潭街３５號","OBJECTID":493818},"geometry":{"x":174768.26000000164,"y":2547909.6000000015}},{"attributes":{"ID":493846,"DIS_CODE":0,"TOWNNAME":"永康區","LI":"龍潭里","LIN":"1鄰","STREET":"龍潭街","SECT":" ","MAREA":" ","LANE":" ","ALLEY":" ","HOUSE_NO":"４３號","E_COORD97":174774.60000000001,"N_COORD97":2547927.2000000002,"ADDRESS":"龍潭街４３號","OBJECTID":493819},"geometry":{"x":174774.60000000056,"y":2547927.1999999993}},{"attributes":{"ID":493847,"DIS_CODE":0,"TOWNNAME":"永康區","LI":"蔦松里","LIN":"1鄰","STREET":"蔦松二街","SECT":" ","MAREA":" ","LANE":" ","ALLEY":" ","HOUSE_NO":"５０號","E_COORD97":173684.29999999999,"N_COORD97":2549201.0499999998,"ADDRESS":"蔦松二街５０號","OBJECTID":493820},"geometry":{"x":173684.29999999981,"y":2549201.0500000007}},{"attributes":{"ID":493848,"DIS_CODE":0,"TOWNNAME":"永康區","LI":"蔦松里","LIN":"1鄰","STREET":"蔦松二街","SECT":" ","MAREA":" ","LANE":" ","ALLEY":" ","HOUSE_NO":"４０號","E_COORD97":173665.16,"N_COORD97":2549177.9399999999,"ADDRESS":"蔦松二街４０號","OBJECTID":493821},"geometry":{"x":173665.16000000015,"y":2549177.9400000013}},{"attributes":{"ID":493849,"DIS_CODE":0,"TOWNNAME":"永康區","LI":"復華里","LIN":"1鄰","STREET":"復國二路","SECT":" ","MAREA":" ","LANE":" ","ALLEY":" ","HOUSE_NO":"２５６號","E_COORD97":173005.53,"N_COORD97":2545985.6200000001,"ADDRESS":"復國二路２５６號","OBJECTID":493822},"geometry":{"x":173005.53000000026,"y":2545985.6200000029}},{"attributes":{"ID":493850,"DIS_CODE":0,"TOWNNAME":"永康區","LI":"復華里","LIN":"1鄰","STREET":"復國二路","SECT":" ","MAREA":" ","LANE":" ","ALLEY":" ","HOUSE_NO":"２２８號","E_COORD97":172981.67999999999,"N_COORD97":2545901.2799999998,"ADDRESS":"復國二路２２８號","OBJECTID":493823},"geometry":{"x":172981.6799999997,"y":2545901.2800000012}},{"attributes":{"ID":493851,"DIS_CODE":0,"TOWNNAME":"安南區","LI":"城北里","LIN":"1鄰","STREET":"城北路","SECT":" ","MAREA":" ","LANE":" ","ALLEY":" ","HOUSE_NO":"２０號","E_COORD97":160883.82999999999,"N_COORD97":2551490.02,"ADDRESS":"城北路２０號","OBJECTID":493824},"geometry":{"x":160883.83000000007,"y":2551490.0200000014}},{"attributes":{"ID":493852,"DIS_CODE":0,"TOWNNAME":"永康區","LI":"復華里","LIN":"1鄰","STREET":"復國二路","SECT":" ","MAREA":" ","LANE":" ","ALLEY":" ","HOUSE_NO":"２５４號","E_COORD97":173004.78,"N_COORD97":2545981.1200000001,"ADDRESS":"復國二路２５４號","OBJECTID":493825},"geometry":{"x":173004.78000000119,"y":2545981.1200000029}},{"attributes":{"ID":493853,"DIS_CODE":0,"TOWNNAME":"安南區","LI":"城北里","LIN":"1鄰","STREET":"城北路","SECT":" ","MAREA":" ","LANE":" ","ALLEY":" ","HOUSE_NO":"２８號","E_COORD97":160897.34,"N_COORD97":2551495.8700000001,"ADDRESS":"城北路２８號","OBJECTID":493826},"geometry":{"x":160897.33999999985,"y":2551495.8700000029}},{"attributes":{"ID":493854,"DIS_CODE":0,"TOWNNAME":"中西區","LI":"天后里","LIN":"1鄰","STREET":"永福路","SECT":"二段","MAREA":" ","LANE":" ","ALLEY":" ","HOUSE_NO":"２０７號","E_COORD97":168168.17000000001,"N_COORD97":2544055.8700000001,"ADDRESS":"永福路二段２０７號","OBJECTID":493827},"geometry":{"x":168168.17000000086,"y":2544055.870000001}},{"attributes":{"ID":493855,"DIS_CODE":0,"TOWNNAME":"中西區","LI":"天后里","LIN":"1鄰","STREET":"永福路","SECT":"二段","MAREA":" ","LANE":" ","ALLEY":" ","HOUSE_NO":"２０９號","E_COORD97":168165.85000000001,"N_COORD97":2544061.71,"ADDRESS":"永福路二段２０９號","OBJECTID":493828},"geometry":{"x":168165.84999999963,"y":2544061.7100000028}},{"attributes":{"ID":493856,"DIS_CODE":0,"TOWNNAME":"中西區","LI":"天后里","LIN":"1鄰","STREET":"永福路","SECT":"二段","MAREA":" ","LANE":" ","ALLEY":" ","HOUSE_NO":"２０９號之１","E_COORD97":168155.28,"N_COORD97":2544065.2200000002,"ADDRESS":"永福路二段２０９號之１","OBJECTID":493829},"geometry":{"x":168155.28000000026,"y":2544065.2200000025}},{"attributes":{"ID":493857,"DIS_CODE":0,"TOWNNAME":"中西區","LI":"天后里","LIN":"1鄰","STREET":"永福路","SECT":"二段","MAREA":" ","LANE":" ","ALLEY":" ","HOUSE_NO":"２１９號","E_COORD97":168177.54999999999,"N_COORD97":2544075.6400000001,"ADDRESS":"永福路二段２１９號","OBJECTID":493830},"geometry":{"x":168177.55000000075,"y":2544075.6400000025}},{"attributes":{"ID":493858,"DIS_CODE":0,"TOWNNAME":"中西區","LI":"天后里","LIN":"1鄰","STREET":"永福路","SECT":"二段","MAREA":" ","LANE":" ","ALLEY":" ","HOUSE_NO":"２２１號","E_COORD97":168179.60999999999,"N_COORD97":2544083.1800000002,"ADDRESS":"永福路二段２２１號","OBJECTID":493831},"geometry":{"x":168179.61000000127,"y":2544083.1799999997}},{"attributes":{"ID":493859,"DIS_CODE":0,"TOWNNAME":"中西區","LI":"天后里","LIN":"1鄰","STREET":"永福路","SECT":"二段","MAREA":" ","LANE":" ","ALLEY":" ","HOUSE_NO":"２２３號","E_COORD97":168180.04999999999,"N_COORD97":2544086.6899999999,"ADDRESS":"永福路二段２２３號","OBJECTID":493832},"geometry":{"x":168180.04999999981,"y":2544086.6900000032}},{"attributes":{"ID":493860,"DIS_CODE":0,"TOWNNAME":"中西區","LI":"天后里","LIN":"1鄰","STREET":"永福路","SECT":"二段","MAREA":" ","LANE":" ","ALLEY":" ","HOUSE_NO":"２２５號","E_COORD97":168181.37,"N_COORD97":2544090.0600000001,"ADDRESS":"永福路二段２２５號","OBJECTID":493833},"geometry":{"x":168181.37000000011,"y":2544090.0600000024}},{"attributes":{"ID":493861,"DIS_CODE":0,"TOWNNAME":"中西區","LI":"法華里","LIN":"1鄰","STREET":"府連路","SECT":" ","MAREA":" ","LANE":" ","ALLEY":" ","HOUSE_NO":"１１７號","E_COORD97":169044.54999999999,"N_COORD97":2542713.6099999999,"ADDRESS":"府連路１１７號","OBJECTID":493834},"geometry":{"x":169044.54999999981,"y":2542713.6099999994}},{"attributes":{"ID":493862,"DIS_CODE":0,"TOWNNAME":"中西區","LI":"法華里","LIN":"1鄰","STREET":"府連路","SECT":" ","MAREA":" ","LANE":" ","ALLEY":" ","HOUSE_NO":"１１９號","E_COORD97":169051.26999999999,"N_COORD97":2542720.5899999999,"ADDRESS":"府連路１１９號","OBJECTID":493835},"geometry":{"x":169051.26999999955,"y":2542720.5899999999}},{"attributes":{"ID":493863,"DIS_CODE":0,"TOWNNAME":"中西區","LI":"法華里","LIN":"1鄰","STREET":"府連路","SECT":" ","MAREA":" ","LANE":" ","ALLEY":" ","HOUSE_NO":"１２１號","E_COORD97":169053.51000000001,"N_COORD97":2542726.46,"ADDRESS":"府連路１２１號","OBJECTID":493836},"geometry":{"x":169053.50999999978,"y":2542726.4600000009}},{"attributes":{"ID":493864,"DIS_CODE":0,"TOWNNAME":"安南區","LI":"安順里","LIN":"1鄰","STREET":"安和路","SECT":"三段","MAREA":" ","LANE":" ","ALLEY":" ","HOUSE_NO":"２６３號","E_COORD97":169935.04999999999,"N_COORD97":2550060.8399999999,"ADDRESS":"安和路三段２６３號","OBJECTID":493837},"geometry":{"x":169935.05000000168,"y":2550060.8400000017}},{"attributes":{"ID":493865,"DIS_CODE":0,"TOWNNAME":"安南區","LI":"安順里","LIN":"1鄰","STREET":"總安街","SECT":"一段","MAREA":" ","LANE":" ","ALLEY":" ","HOUSE_NO":"６號","E_COORD97":169927.79000000001,"N_COORD97":2550109.73,"ADDRESS":"總安街一段６號","OBJECTID":493838},"geometry":{"x":169927.79000000004,"y":2550109.7300000023}},{"attributes":{"ID":493866,"DIS_CODE":0,"TOWNNAME":"安南區","LI":"安順里","LIN":"1鄰","STREET":"總安街","SECT":"一段","MAREA":" ","LANE":" ","ALLEY":" ","HOUSE_NO":"８號","E_COORD97":169923.84,"N_COORD97":2550111.25,"ADDRESS":"總安街一段８號","OBJECTID":493839},"geometry":{"x":169923.83999999985,"y":2550111.25}},{"attributes":{"ID":493867,"DIS_CODE":0,"TOWNNAME":"安南區","LI":"州南里","LIN":"1鄰","STREET":"安和路","SECT":"四段","MAREA":" ","LANE":" ","ALLEY":" ","HOUSE_NO":"３０６號","E_COORD97":169947.82999999999,"N_COORD97":2550826.9900000002,"ADDRESS":"安和路四段３０６號","OBJECTID":493840},"geometry":{"x":169947.83000000101,"y":2550826.9900000021}},{"attributes":{"ID":493868,"DIS_CODE":0,"TOWNNAME":"安南區","LI":"州南里","LIN":"1鄰","STREET":"安和路","SECT":"四段","MAREA":" ","LANE":" ","ALLEY":" ","HOUSE_NO":"３１０號","E_COORD97":169949.39000000001,"N_COORD97":2550844.3599999999,"ADDRESS":"安和路四段３１０號","OBJECTID":493841},"geometry":{"x":169949.38999999966,"y":2550844.3599999994}},{"attributes":{"ID":493869,"DIS_CODE":0,"TOWNNAME":"安南區","LI":"州南里","LIN":"1鄰","STREET":"安和路","SECT":"四段","MAREA":" ","LANE":" ","ALLEY":" ","HOUSE_NO":"３２２號","E_COORD97":169946.28,"N_COORD97":2550870.1499999999,"ADDRESS":"安和路四段３２２號","OBJECTID":493842},"geometry":{"x":169946.28000000119,"y":2550870.1500000022}},{"attributes":{"ID":493870,"DIS_CODE":0,"TOWNNAME":"安南區","LI":"州南里","LIN":"1鄰","STREET":"安和路","SECT":"四段","MAREA":" ","LANE":" ","ALLEY":" ","HOUSE_NO":"３２８號","E_COORD97":169951.19,"N_COORD97":2550891.1299999999,"ADDRESS":"安和路四段３２８號","OBJECTID":493843},"geometry":{"x":169951.19000000041,"y":2550891.1300000027}},{"attributes":{"ID":493871,"DIS_CODE":0,"TOWNNAME":"安南區","LI":"州南里","LIN":"1鄰","STREET":"安和路","SECT":"四段","MAREA":" ","LANE":" ","ALLEY":" ","HOUSE_NO":"３３８號","E_COORD97":169950.19,"N_COORD97":2550909.52,"ADDRESS":"安和路四段３３８號","OBJECTID":493844},"geometry":{"x":169950.19000000134,"y":2550909.5200000033}},{"attributes":{"ID":493872,"DIS_CODE":0,"TOWNNAME":"安南區","LI":"州南里","LIN":"1鄰","STREET":"安和路","SECT":"四段","MAREA":" ","LANE":" ","ALLEY":" ","HOUSE_NO":"３４０號","E_COORD97":169951.73999999999,"N_COORD97":2550914.54,"ADDRESS":"安和路四段３４０號","OBJECTID":493845},"geometry":{"x":169951.74000000115,"y":2550914.5399999991}},{"attributes":{"ID":493873,"DIS_CODE":0,"TOWNNAME":"安南區","LI":"州南里","LIN":"1鄰","STREET":"安和路","SECT":"四段","MAREA":" ","LANE":" ","ALLEY":" ","HOUSE_NO":"４１８號","E_COORD97":169967.03,"N_COORD97":2551094.54,"ADDRESS":"安和路四段４１８號","OBJECTID":493846},"geometry":{"x":169967.03000000119,"y":2551094.5399999991}},{"attributes":{"ID":493874,"DIS_CODE":0,"TOWNNAME":"安南區","LI":"州南里","LIN":"1鄰","STREET":"安和路","SECT":"四段","MAREA":" ","LANE":" ","ALLEY":" ","HOUSE_NO":"４１０號","E_COORD97":169960.07000000001,"N_COORD97":2551055.8700000001,"ADDRESS":"安和路四段４１０號","OBJECTID":493847},"geometry":{"x":169960.0700000003,"y":2551055.8700000029}},{"attributes":{"ID":493875,"DIS_CODE":0,"TOWNNAME":"安南區","LI":"城北里","LIN":"1鄰","STREET":"城北路","SECT":" ","MAREA":" ","LANE":" ","ALLEY":" ","HOUSE_NO":"２號","E_COORD97":160844.64000000001,"N_COORD97":2551478.0499999998,"ADDRESS":"城北路２號","OBJECTID":493848},"geometry":{"x":160844.64000000153,"y":2551478.0500000026}},{"attributes":{"ID":493876,"DIS_CODE":0,"TOWNNAME":"安南區","LI":"幸福里","LIN":"1鄰","STREET":"國安街","SECT":" ","MAREA":" ","LANE":" ","ALLEY":" ","HOUSE_NO":"１１號","E_COORD97":167114.48999999999,"N_COORD97":2547011.46,"ADDRESS":"國安街１１號","OBJECTID":493849},"geometry":{"x":167114.49000000022,"y":2547011.4600000009}},{"attributes":{"ID":493877,"DIS_CODE":0,"TOWNNAME":"安南區","LI":"幸福里","LIN":"1鄰","STREET":"國安街","SECT":" ","MAREA":" ","LANE":" ","ALLEY":" ","HOUSE_NO":"１９號","E_COORD97":167094.67999999999,"N_COORD97":2547010.8399999999,"ADDRESS":"國安街１９號","OBJECTID":493850},"geometry":{"x":167094.68000000156,"y":2547010.8399999999}},{"attributes":{"ID":493878,"DIS_CODE":0,"TOWNNAME":"安南區","LI":"長安里","LIN":"1鄰","STREET":"長溪路","SECT":"三段","MAREA":" ","LANE":" ","ALLEY":" ","HOUSE_NO":"３９５號","E_COORD97":167649.56,"N_COORD97":2552032.6800000002,"ADDRESS":"長溪路三段３９５號","OBJECTID":493851},"geometry":{"x":167649.55999999866,"y":2552032.6799999997}},{"attributes":{"ID":493879,"DIS_CODE":0,"TOWNNAME":"官田區","LI":"二鎮里","LIN":"1鄰","STREET":"富強路","SECT":" ","MAREA":" ","LANE":" ","ALLEY":" ","HOUSE_NO":"７號","E_COORD97":181466.26999999999,"N_COORD97":2567315.7599999998,"ADDRESS":"富強路７號","OBJECTID":493852},"geometry":{"x":181466.27000000048,"y":2567315.7600000016}},{"attributes":{"ID":493880,"DIS_CODE":0,"TOWNNAME":"官田區","LI":"二鎮里","LIN":"1鄰","STREET":"富強路","SECT":" ","MAREA":" ","LANE":" ","ALLEY":" ","HOUSE_NO":"８號之１","E_COORD97":180982.92999999999,"N_COORD97":2567234.3700000001,"ADDRESS":"富強路８號之１","OBJECTID":493853},"geometry":{"x":180982.9299999997,"y":2567234.3700000029}},{"attributes":{"ID":493881,"DIS_CODE":0,"TOWNNAME":"官田區","LI":"二鎮里","LIN":"1鄰","STREET":"富強路","SECT":" ","MAREA":" ","LANE":" ","ALLEY":" ","HOUSE_NO":"８號","E_COORD97":181061.85000000001,"N_COORD97":2567235.9500000002,"ADDRESS":"富強路８號","OBJECTID":493854},"geometry":{"x":181061.85000000149,"y":2567235.9500000011}},{"attributes":{"ID":493882,"DIS_CODE":0,"TOWNNAME":"官田區","LI":"二鎮里","LIN":"1鄰","STREET":"富強路","SECT":" ","MAREA":" ","LANE":" ","ALLEY":" ","HOUSE_NO":"９號","E_COORD97":181440.88,"N_COORD97":2567313.5699999998,"ADDRESS":"富強路９號","OBJECTID":493855},"geometry":{"x":181440.87999999989,"y":2567313.5700000022}},{"attributes":{"ID":493883,"DIS_CODE":0,"TOWNNAME":"官田區","LI":"二鎮里","LIN":"1鄰","STREET":"實踐街","SECT":" ","MAREA":" ","LANE":" ","ALLEY":" ","HOUSE_NO":"１０號","E_COORD97":180882.88,"N_COORD97":2567084.6099999999,"ADDRESS":"實踐街１０號","OBJECTID":493856},"geometry":{"x":180882.88000000082,"y":2567084.6100000013}},{"attributes":{"ID":493884,"DIS_CODE":0,"TOWNNAME":"官田區","LI":"二鎮里","LIN":"1鄰","STREET":"實踐街","SECT":" ","MAREA":" ","LANE":" ","ALLEY":" ","HOUSE_NO":"１１號","E_COORD97":180946.53,"N_COORD97":2567114.9100000001,"ADDRESS":"實踐街１１號","OBJECTID":493857},"geometry":{"x":180946.53000000119,"y":2567114.910000002}},{"attributes":{"ID":493885,"DIS_CODE":0,"TOWNNAME":"官田區","LI":"二鎮里","LIN":"1鄰","STREET":"實踐街","SECT":" ","MAREA":" ","LANE":" ","ALLEY":" ","HOUSE_NO":"１２號","E_COORD97":180861.85999999999,"N_COORD97":2567146.77,"ADDRESS":"實踐街１２號","OBJECTID":493858},"geometry":{"x":180861.86000000034,"y":2567146.7699999996}},{"attributes":{"ID":493886,"DIS_CODE":0,"TOWNNAME":"官田區","LI":"二鎮里","LIN":"1鄰","STREET":"實踐街","SECT":" ","MAREA":" ","LANE":" ","ALLEY":" ","HOUSE_NO":"１３號","E_COORD97":180944.57000000001,"N_COORD97":2567155.7999999998,"ADDRESS":"實踐街１３號","OBJECTID":493859},"geometry":{"x":180944.57000000123,"y":2567155.8000000045}},{"attributes":{"ID":493887,"DIS_CODE":0,"TOWNNAME":"官田區","LI":"二鎮里","LIN":"1鄰","STREET":"實踐街","SECT":" ","MAREA":" ","LANE":" ","ALLEY":" ","HOUSE_NO":"１５號","E_COORD97":180948.92000000001,"N_COORD97":2567180.2799999998,"ADDRESS":"實踐街１５號","OBJECTID":493860},"geometry":{"x":180948.91999999993,"y":2567180.2799999993}},{"attributes":{"ID":493888,"DIS_CODE":0,"TOWNNAME":"官田區","LI":"二鎮里","LIN":"1鄰","STREET":"實踐街","SECT":" ","MAREA":" ","LANE":" ","ALLEY":" ","HOUSE_NO":"１６號","E_COORD97":180888.63,"N_COORD97":2567209.0499999998,"ADDRESS":"實踐街１６號","OBJECTID":493861},"geometry":{"x":180888.62999999989,"y":2567209.0500000026}},{"attributes":{"ID":493889,"DIS_CODE":0,"TOWNNAME":"官田區","LI":"二鎮里","LIN":"1鄰","STREET":"實踐街","SECT":" ","MAREA":" ","LANE":" ","ALLEY":" ","HOUSE_NO":"１７號","E_COORD97":180932.19,"N_COORD97":2567207.0600000001,"ADDRESS":"實踐街１７號","OBJECTID":493862},"geometry":{"x":180932.19000000134,"y":2567207.0600000005}},{"attributes":{"ID":493890,"DIS_CODE":0,"TOWNNAME":"官田區","LI":"二鎮里","LIN":"1鄰","STREET":"實踐街","SECT":" ","MAREA":" ","LANE":" ","ALLEY":" ","HOUSE_NO":"１８號","E_COORD97":180892.28,"N_COORD97":2567187.6200000001,"ADDRESS":"實踐街１８號","OBJECTID":493863},"geometry":{"x":180892.28000000119,"y":2567187.6200000048}},{"attributes":{"ID":493891,"DIS_CODE":0,"TOWNNAME":"官田區","LI":"二鎮里","LIN":"1鄰","STREET":"實踐街","SECT":" ","MAREA":" ","LANE":" ","ALLEY":" ","HOUSE_NO":"１號","E_COORD97":181000.39999999999,"N_COORD97":2566975.0699999998,"ADDRESS":"實踐街１號","OBJECTID":493864},"geometry":{"x":181000.40000000037,"y":2566975.0700000022}},{"attributes":{"ID":493892,"DIS_CODE":0,"TOWNNAME":"官田區","LI":"二鎮里","LIN":"1鄰","STREET":"實踐街","SECT":" ","MAREA":" ","LANE":" ","ALLEY":" ","HOUSE_NO":"７號","E_COORD97":180958.22,"N_COORD97":2567060.3399999999,"ADDRESS":"實踐街７號","OBJECTID":493865},"geometry":{"x":180958.22000000067,"y":2567060.3400000017}},{"attributes":{"ID":493893,"DIS_CODE":0,"TOWNNAME":"官田區","LI":"二鎮里","LIN":"1鄰","STREET":"實踐街","SECT":" ","MAREA":" ","LANE":" ","ALLEY":" ","HOUSE_NO":"８號","E_COORD97":180874.31,"N_COORD97":2567063.8199999998,"ADDRESS":"實踐街８號","OBJECTID":493866},"geometry":{"x":180874.31000000052,"y":2567063.8200000022}},{"attributes":{"ID":493894,"DIS_CODE":0,"TOWNNAME":"官田區","LI":"二鎮里","LIN":"1鄰","STREET":"鎮中路","SECT":" ","MAREA":" ","LANE":" ","ALLEY":" ","HOUSE_NO":"１號","E_COORD97":181042.45999999999,"N_COORD97":2567739.79,"ADDRESS":"鎮中路１號","OBJECTID":493867},"geometry":{"x":181042.45999999996,"y":2567739.7899999991}},{"attributes":{"ID":493895,"DIS_CODE":0,"TOWNNAME":"官田區","LI":"二鎮里","LIN":"1鄰","STREET":"鎮中路","SECT":" ","MAREA":" ","LANE":" ","ALLEY":" ","HOUSE_NO":"３號","E_COORD97":181056.57999999999,"N_COORD97":2567830.2400000002,"ADDRESS":"鎮中路３號","OBJECTID":493868},"geometry":{"x":181056.58000000007,"y":2567830.2400000039}},{"attributes":{"ID":493896,"DIS_CODE":0,"TOWNNAME":"官田區","LI":"二鎮里","LIN":"1鄰","STREET":"鎮中路","SECT":" ","MAREA":" ","LANE":" ","ALLEY":" ","HOUSE_NO":"６號","E_COORD97":180962.82000000001,"N_COORD97":2567789.6400000001,"ADDRESS":"鎮中路６號","OBJECTID":493869},"geometry":{"x":180962.82000000123,"y":2567789.6400000006}},{"attributes":{"ID":493897,"DIS_CODE":0,"TOWNNAME":"永康區","LI":"六合里","LIN":"1鄰","STREET":"新興街","SECT":" ","MAREA":" ","LANE":" ","ALLEY":" ","HOUSE_NO":"６之１號地下一層之５","E_COORD97":170935.51999999999,"N_COORD97":2545719.7999999998,"ADDRESS":"新興街６之１號地下一層之５","OBJECTID":493870},"geometry":{"x":170935.52000000048,"y":2545719.8000000026}},{"attributes":{"ID":493898,"DIS_CODE":0,"TOWNNAME":"永康區","LI":"北灣里","LIN":"1鄰","STREET":"大同街","SECT":" ","MAREA":" ","LANE":" ","ALLEY":" ","HOUSE_NO":"６８號","E_COORD97":175212.54999999999,"N_COORD97":2545436.2799999998,"ADDRESS":"大同街６８號","OBJECTID":493871},"geometry":{"x":175212.55000000075,"y":2545436.2800000012}},{"attributes":{"ID":493899,"DIS_CODE":0,"TOWNNAME":"永康區","LI":"六合里","LIN":"1鄰","STREET":"新興街","SECT":" ","MAREA":" ","LANE":" ","ALLEY":" ","HOUSE_NO":"８之３號地下一層之１","E_COORD97":170949.64999999999,"N_COORD97":2545728.0499999998,"ADDRESS":"新興街８之３號地下一層之１","OBJECTID":493872},"geometry":{"x":170949.65000000037,"y":2545728.0500000026}},{"attributes":{"ID":493900,"DIS_CODE":0,"TOWNNAME":"永康區","LI":"六合里","LIN":"1鄰","STREET":"新興街","SECT":" ","MAREA":" ","LANE":" ","ALLEY":" ","HOUSE_NO":"６號地下一層之５","E_COORD97":170921.92999999999,"N_COORD97":2545737.29,"ADDRESS":"新興街６號地下一層之５","OBJECTID":493873},"geometry":{"x":170921.9299999997,"y":2545737.290000001}},{"attributes":{"ID":493901,"DIS_CODE":0,"TOWNNAME":"永康區","LI":"六合里","LIN":"1鄰","STREET":"新興街","SECT":" ","MAREA":" ","LANE":" ","ALLEY":" ","HOUSE_NO":"６號地下一層之１","E_COORD97":170921.76999999999,"N_COORD97":2545737.29,"ADDRESS":"新興街６號地下一層之１","OBJECTID":493874},"geometry":{"x":170921.77000000048,"y":2545737.290000001}},{"attributes":{"ID":493902,"DIS_CODE":0,"TOWNNAME":"永康區","LI":"六合里","LIN":"1鄰","STREET":"新興街","SECT":" ","MAREA":" ","LANE":" ","ALLEY":" ","HOUSE_NO":"６之１號地下一層之２","E_COORD97":170935.5,"N_COORD97":2545719.7999999998,"ADDRESS":"新興街６之１號地下一層之２","OBJECTID":493875},"geometry":{"x":170935.5,"y":2545719.8000000026}},{"attributes":{"ID":493903,"DIS_CODE":0,"TOWNNAME":"官田區","LI":"二鎮里","LIN":"1鄰","STREET":"工業西路","SECT":" ","MAREA":" ","LANE":" ","ALLEY":" ","HOUSE_NO":"８１號","E_COORD97":180508.10000000001,"N_COORD97":2568635.5299999998,"ADDRESS":"工業西路８１號","OBJECTID":493876},"geometry":{"x":180508.10000000056,"y":2568635.5300000012}},{"attributes":{"ID":493904,"DIS_CODE":0,"TOWNNAME":"永康區","LI":"六合里","LIN":"1鄰","STREET":"新興街","SECT":" ","MAREA":" ","LANE":" ","ALLEY":" ","HOUSE_NO":"６號地下一層之２","E_COORD97":170921.91,"N_COORD97":2545737.29,"ADDRESS":"新興街６號地下一層之２","OBJECTID":493877},"geometry":{"x":170921.91000000108,"y":2545737.290000001}},{"attributes":{"ID":493905,"DIS_CODE":0,"TOWNNAME":"永康區","LI":"北灣里","LIN":"1鄰","STREET":"大同街","SECT":" ","MAREA":" ","LANE":" ","ALLEY":" ","HOUSE_NO":"６０號","E_COORD97":175226.70000000001,"N_COORD97":2545438.7799999998,"ADDRESS":"大同街６０號","OBJECTID":493878},"geometry":{"x":175226.70000000019,"y":2545438.7800000031}},{"attributes":{"ID":493906,"DIS_CODE":0,"TOWNNAME":"永康區","LI":"六合里","LIN":"1鄰","STREET":"新興街","SECT":" ","MAREA":" ","LANE":" ","ALLEY":" ","HOUSE_NO":"１０之３號","E_COORD97":170926.35999999999,"N_COORD97":2545777.48,"ADDRESS":"新興街１０之３號","OBJECTID":493879},"geometry":{"x":170926.36000000034,"y":2545777.4799999986}},{"attributes":{"ID":493907,"DIS_CODE":0,"TOWNNAME":"永康區","LI":"北灣里","LIN":"1鄰","STREET":"大同街","SECT":" ","MAREA":" ","LANE":" ","ALLEY":" ","HOUSE_NO":"１０號","E_COORD97":175319.09,"N_COORD97":2545422.1400000001,"ADDRESS":"大同街１０號","OBJECTID":493880},"geometry":{"x":175319.09000000078,"y":2545422.1400000025}},{"attributes":{"ID":493908,"DIS_CODE":0,"TOWNNAME":"永康區","LI":"六合里","LIN":"1鄰","STREET":"新興街","SECT":" ","MAREA":" ","LANE":" ","ALLEY":" ","HOUSE_NO":"１０之１號","E_COORD97":170918.70000000001,"N_COORD97":2545773.98,"ADDRESS":"新興街１０之１號","OBJECTID":493881},"geometry":{"x":170918.70000000019,"y":2545773.9800000004}},{"attributes":{"ID":493909,"DIS_CODE":0,"TOWNNAME":"永康區","LI":"王行里","LIN":"1鄰","STREET":"王行路","SECT":" ","MAREA":" ","LANE":" ","ALLEY":" ","HOUSE_NO":"２９號","E_COORD97":175585.31,"N_COORD97":2547888.2599999998,"ADDRESS":"王行路２９號","OBJECTID":493882},"geometry":{"x":175585.31000000052,"y":2547888.2600000016}},{"attributes":{"ID":493910,"DIS_CODE":0,"TOWNNAME":"永康區","LI":"北灣里","LIN":"1鄰","STREET":"文賢街","SECT":" ","MAREA":" ","LANE":" ","ALLEY":" ","HOUSE_NO":"１７５號","E_COORD97":175352.17999999999,"N_COORD97":2545448.5499999998,"ADDRESS":"文賢街１７５號","OBJECTID":493883},"geometry":{"x":175352.18000000063,"y":2545448.5500000045}},{"attributes":{"ID":493911,"DIS_CODE":0,"TOWNNAME":"永康區","LI":"王行里","LIN":"1鄰","STREET":"王行路","SECT":" ","MAREA":" ","LANE":" ","ALLEY":" ","HOUSE_NO":"１３９號","E_COORD97":175629.89000000001,"N_COORD97":2548160.9700000002,"ADDRESS":"王行路１３９號","OBJECTID":493884},"geometry":{"x":175629.88999999966,"y":2548160.9700000007}},{"attributes":{"ID":493912,"DIS_CODE":0,"TOWNNAME":"永康區","LI":"北灣里","LIN":"1鄰","STREET":"文賢街","SECT":" ","MAREA":" ","LANE":" ","ALLEY":" ","HOUSE_NO":"１８７號","E_COORD97":175355.69,"N_COORD97":2545475.5600000001,"ADDRESS":"文賢街１８７號","OBJECTID":493885},"geometry":{"x":175355.69000000041,"y":2545475.5600000042}},{"attributes":{"ID":493913,"DIS_CODE":0,"TOWNNAME":"永康區","LI":"王行里","LIN":"1鄰","STREET":"王行路","SECT":" ","MAREA":" ","LANE":" ","ALLEY":" ","HOUSE_NO":"１２７號","E_COORD97":175615.87,"N_COORD97":2548133.2200000002,"ADDRESS":"王行路１２７號","OBJECTID":493886},"geometry":{"x":175615.87000000104,"y":2548133.2200000025}},{"attributes":{"ID":493914,"DIS_CODE":0,"TOWNNAME":"永康區","LI":"王行里","LIN":"1鄰","STREET":"王行路","SECT":" ","MAREA":" ","LANE":" ","ALLEY":" ","HOUSE_NO":"１７５號之１","E_COORD97":175532.70000000001,"N_COORD97":2548302.0499999998,"ADDRESS":"王行路１７５號之１","OBJECTID":493887},"geometry":{"x":175532.70000000112,"y":2548302.0500000007}},{"attributes":{"ID":493915,"DIS_CODE":0,"TOWNNAME":"永康區","LI":"王行里","LIN":"1鄰","STREET":"王行路","SECT":" ","MAREA":" ","LANE":" ","ALLEY":" ","HOUSE_NO":"２２８號","E_COORD97":175639.17000000001,"N_COORD97":2548194.1099999999,"ADDRESS":"王行路２２８號","OBJECTID":493888},"geometry":{"x":175639.17000000086,"y":2548194.1100000013}},{"attributes":{"ID":493916,"DIS_CODE":0,"TOWNNAME":"永康區","LI":"王行里","LIN":"1鄰","STREET":"王行路","SECT":" ","MAREA":" ","LANE":" ","ALLEY":" ","HOUSE_NO":"１１９號","E_COORD97":175630.04000000001,"N_COORD97":2548091.0499999998,"ADDRESS":"王行路１１９號","OBJECTID":493889},"geometry":{"x":175630.04000000097,"y":2548091.0500000026}},{"attributes":{"ID":493917,"DIS_CODE":0,"TOWNNAME":"新市區","LI":"港墘里","LIN":"1鄰","STREET":"民族路","SECT":" ","MAREA":" ","LANE":" ","ALLEY":" ","HOUSE_NO":"５號","E_COORD97":178654.54000000001,"N_COORD97":2553930.79,"ADDRESS":"民族路５號","OBJECTID":493890},"geometry":{"x":178654.54000000097,"y":2553930.7899999991}},{"attributes":{"ID":493918,"DIS_CODE":0,"TOWNNAME":"新市區","LI":"港墘里","LIN":"1鄰","STREET":"民族路","SECT":" ","MAREA":" ","LANE":" ","ALLEY":" ","HOUSE_NO":"３０號","E_COORD97":178591.13,"N_COORD97":2553907.29,"ADDRESS":"民族路３０號","OBJECTID":493891},"geometry":{"x":178591.12999999989,"y":2553907.2899999991}},{"attributes":{"ID":493919,"DIS_CODE":0,"TOWNNAME":"新市區","LI":"港墘里","LIN":"1鄰","STREET":"民族路","SECT":" ","MAREA":" ","LANE":" ","ALLEY":" ","HOUSE_NO":"３２號","E_COORD97":178589.88,"N_COORD97":2553892.29,"ADDRESS":"民族路３２號","OBJECTID":493892},"geometry":{"x":178589.87999999989,"y":2553892.290000001}},{"attributes":{"ID":493920,"DIS_CODE":0,"TOWNNAME":"新市區","LI":"新市里","LIN":"1鄰","STREET":"中興街","SECT":" ","MAREA":" ","LANE":" ","ALLEY":" ","HOUSE_NO":"３１號","E_COORD97":177725.01999999999,"N_COORD97":2553140,"ADDRESS":"中興街３１號","OBJECTID":493893},"geometry":{"x":177725.02000000048,"y":2553140}},{"attributes":{"ID":493921,"DIS_CODE":0,"TOWNNAME":"新市區","LI":"港墘里","LIN":"1鄰","STREET":"大同街","SECT":" ","MAREA":" ","LANE":" ","ALLEY":" ","HOUSE_NO":"１號","E_COORD97":178525.87,"N_COORD97":2553517.75,"ADDRESS":"大同街１號","OBJECTID":493894},"geometry":{"x":178525.87000000011,"y":2553517.75}},{"attributes":{"ID":493922,"DIS_CODE":0,"TOWNNAME":"新市區","LI":"港墘里","LIN":"1鄰","STREET":"民族路","SECT":" ","MAREA":" ","LANE":" ","ALLEY":" ","HOUSE_NO":"２之２２號","E_COORD97":178645.04000000001,"N_COORD97":2553947.0499999998,"ADDRESS":"民族路２之２２號","OBJECTID":493895},"geometry":{"x":178645.04000000004,"y":2553947.0500000007}},{"attributes":{"ID":493923,"DIS_CODE":0,"TOWNNAME":"新市區","LI":"港墘里","LIN":"1鄰","STREET":"大同街","SECT":" ","MAREA":" ","LANE":" ","ALLEY":" ","HOUSE_NO":"３５號","E_COORD97":178465.07000000001,"N_COORD97":2553617.75,"ADDRESS":"大同街３５號","OBJECTID":493896},"geometry":{"x":178465.0700000003,"y":2553617.7500000019}},{"attributes":{"ID":493924,"DIS_CODE":0,"TOWNNAME":"新市區","LI":"港墘里","LIN":"1鄰","STREET":"民族路","SECT":" ","MAREA":" ","LANE":" ","ALLEY":" ","HOUSE_NO":"２４號","E_COORD97":178605.98999999999,"N_COORD97":2553910.29,"ADDRESS":"民族路２４號","OBJECTID":493897},"geometry":{"x":178605.99000000022,"y":2553910.2899999991}},{"attributes":{"ID":493925,"DIS_CODE":0,"TOWNNAME":"新市區","LI":"港墘里","LIN":"1鄰","STREET":"大同街","SECT":" ","MAREA":" ","LANE":" ","ALLEY":" ","HOUSE_NO":"１之３號","E_COORD97":178519.32000000001,"N_COORD97":2553500.0499999998,"ADDRESS":"大同街１之３號","OBJECTID":493898},"geometry":{"x":178519.3200000003,"y":2553500.0500000007}},{"attributes":{"ID":493926,"DIS_CODE":0,"TOWNNAME":"新市區","LI":"港墘里","LIN":"1鄰","STREET":"民族路","SECT":" ","MAREA":" ","LANE":" ","ALLEY":" ","HOUSE_NO":"７１號","E_COORD97":178443.92999999999,"N_COORD97":2553730.79,"ADDRESS":"民族路７１號","OBJECTID":493899},"geometry":{"x":178443.93000000156,"y":2553730.7899999991}},{"attributes":{"ID":493927,"DIS_CODE":0,"TOWNNAME":"新市區","LI":"港墘里","LIN":"1鄰","STREET":"民族路","SECT":" ","MAREA":" ","LANE":" ","ALLEY":" ","HOUSE_NO":"６９號","E_COORD97":178458.42999999999,"N_COORD97":2553723.54,"ADDRESS":"民族路６９號","OBJECTID":493900},"geometry":{"x":178458.4299999997,"y":2553723.540000001}},{"attributes":{"ID":493928,"DIS_CODE":0,"TOWNNAME":"新市區","LI":"港墘里","LIN":"1鄰","STREET":"民族路","SECT":" ","MAREA":" ","LANE":" ","ALLEY":" ","HOUSE_NO":"２０號","E_COORD97":178611.88,"N_COORD97":2553916.79,"ADDRESS":"民族路２０號","OBJECTID":493901},"geometry":{"x":178611.87999999989,"y":2553916.7899999991}},{"attributes":{"ID":493929,"DIS_CODE":0,"TOWNNAME":"新市區","LI":"港墘里","LIN":"1鄰","STREET":"民族路","SECT":" ","MAREA":" ","LANE":" ","ALLEY":" ","HOUSE_NO":"１４號","E_COORD97":178622.79000000001,"N_COORD97":2553923.54,"ADDRESS":"民族路１４號","OBJECTID":493902},"geometry":{"x":178622.79000000004,"y":2553923.540000001}},{"attributes":{"ID":493930,"DIS_CODE":0,"TOWNNAME":"新市區","LI":"港墘里","LIN":"1鄰","STREET":"民族路","SECT":" ","MAREA":" ","LANE":" ","ALLEY":" ","HOUSE_NO":"３４號","E_COORD97":178586.23999999999,"N_COORD97":2553889.54,"ADDRESS":"民族路３４號","OBJECTID":493903},"geometry":{"x":178586.24000000022,"y":2553889.540000001}},{"attributes":{"ID":493931,"DIS_CODE":0,"TOWNNAME":"新市區","LI":"新市里","LIN":"1鄰","STREET":"中興街","SECT":" ","MAREA":" ","LANE":" ","ALLEY":" ","HOUSE_NO":"５３號","E_COORD97":177679.62,"N_COORD97":2553114.75,"ADDRESS":"中興街５３號","OBJECTID":493904},"geometry":{"x":177679.62000000011,"y":2553114.75}},{"attributes":{"ID":493932,"DIS_CODE":0,"TOWNNAME":"新市區","LI":"新市里","LIN":"1鄰","STREET":"中興街","SECT":" ","MAREA":" ","LANE":" ","ALLEY":" ","HOUSE_NO":"５１號","E_COORD97":177683.41,"N_COORD97":2553117.5,"ADDRESS":"中興街５１號","OBJECTID":493905},"geometry":{"x":177683.41000000201,"y":2553117.5000000037}},{"attributes":{"ID":493933,"DIS_CODE":0,"TOWNNAME":"新市區","LI":"港墘里","LIN":"1鄰","STREET":"民族路","SECT":" ","MAREA":" ","LANE":" ","ALLEY":" ","HOUSE_NO":"２３號","E_COORD97":178633.29000000001,"N_COORD97":2553898.54,"ADDRESS":"民族路２３號","OBJECTID":493906},"geometry":{"x":178633.28999999911,"y":2553898.5399999991}},{"attributes":{"ID":493934,"DIS_CODE":0,"TOWNNAME":"新市區","LI":"新市里","LIN":"1鄰","STREET":"中興街","SECT":" ","MAREA":" ","LANE":" ","ALLEY":" ","HOUSE_NO":"１５之１號","E_COORD97":177756.23000000001,"N_COORD97":2553157.7999999998,"ADDRESS":"中興街１５之１號","OBJECTID":493907},"geometry":{"x":177756.23000000231,"y":2553157.8000000026}},{"attributes":{"ID":493935,"DIS_CODE":0,"TOWNNAME":"新市區","LI":"港墘里","LIN":"1鄰","STREET":"民族路","SECT":" ","MAREA":" ","LANE":" ","ALLEY":" ","HOUSE_NO":"６０號","E_COORD97":178535.45999999999,"N_COORD97":2553856.29,"ADDRESS":"民族路６０號","OBJECTID":493908},"geometry":{"x":178535.45999999903,"y":2553856.2899999991}},{"attributes":{"ID":493936,"DIS_CODE":0,"TOWNNAME":"新市區","LI":"港墘里","LIN":"1鄰","STREET":"民族路","SECT":" ","MAREA":" ","LANE":" ","ALLEY":" ","HOUSE_NO":"２６號","E_COORD97":178603.29000000001,"N_COORD97":2553907.29,"ADDRESS":"民族路２６號","OBJECTID":493909},"geometry":{"x":178603.29000000097,"y":2553907.2899999991}},{"attributes":{"ID":493937,"DIS_CODE":0,"TOWNNAME":"新市區","LI":"港墘里","LIN":"1鄰","STREET":"民族路","SECT":" ","MAREA":" ","LANE":" ","ALLEY":" ","HOUSE_NO":"３８號","E_COORD97":178567.34,"N_COORD97":2553875.04,"ADDRESS":"民族路３８號","OBJECTID":493910},"geometry":{"x":178567.34000000078,"y":2553875.0399999991}},{"attributes":{"ID":493938,"DIS_CODE":0,"TOWNNAME":"新市區","LI":"港墘里","LIN":"1鄰","STREET":"民族路","SECT":" ","MAREA":" ","LANE":" ","ALLEY":" ","HOUSE_NO":"８１號","E_COORD97":178421.41,"N_COORD97":2553709.29,"ADDRESS":"民族路８１號","OBJECTID":493911},"geometry":{"x":178421.41000000108,"y":2553709.290000001}},{"attributes":{"ID":493939,"DIS_CODE":0,"TOWNNAME":"安南區","LI":"青草里","LIN":"1鄰","STREET":"青砂街","SECT":"二段","MAREA":" ","LANE":" ","ALLEY":" ","HOUSE_NO":"２８２號","E_COORD97":159641.35000000001,"N_COORD97":2553177.5800000001,"ADDRESS":"青砂街二段２８２號","OBJECTID":493912},"geometry":{"x":159641.35000000149,"y":2553177.5799999982}},{"attributes":{"ID":493940,"DIS_CODE":0,"TOWNNAME":"安南區","LI":"淵東里","LIN":"1鄰","STREET":"海佃路","SECT":"四段","MAREA":" ","LANE":" ","ALLEY":" ","HOUSE_NO":"２９號之１","E_COORD97":165690.60999999999,"N_COORD97":2550541.2799999998,"ADDRESS":"海佃路四段２９號之１","OBJECTID":493913},"geometry":{"x":165690.61000000127,"y":2550541.2800000031}},{"attributes":{"ID":493941,"DIS_CODE":0,"TOWNNAME":"安南區","LI":"淵東里","LIN":"1鄰","STREET":"海佃路","SECT":"四段","MAREA":" ","LANE":" ","ALLEY":" ","HOUSE_NO":"２９號之２","E_COORD97":165691.95000000001,"N_COORD97":2550580.79,"ADDRESS":"海佃路四段２９號之２","OBJECTID":493914},"geometry":{"x":165691.95000000112,"y":2550580.7899999991}},{"attributes":{"ID":493942,"DIS_CODE":0,"TOWNNAME":"安南區","LI":"鳳凰里","LIN":"1鄰","STREET":"怡安路","SECT":"二段","MAREA":" ","LANE":" ","ALLEY":" ","HOUSE_NO":"８１號","E_COORD97":168200.04999999999,"N_COORD97":2549280.4199999999,"ADDRESS":"怡安路二段８１號","OBJECTID":493915},"geometry":{"x":168200.05000000075,"y":2549280.4200000018}},{"attributes":{"ID":493943,"DIS_CODE":0,"TOWNNAME":"安南區","LI":"海西里","LIN":"1鄰","STREET":"海環街","SECT":" ","MAREA":" ","LANE":" ","ALLEY":" ","HOUSE_NO":"５３７之５號","E_COORD97":166212.76999999999,"N_COORD97":2549260,"ADDRESS":"海環街５３７之５號","OBJECTID":493916},"geometry":{"x":166212.77000000048,"y":2549260.0000000019}},{"attributes":{"ID":493944,"DIS_CODE":0,"TOWNNAME":"安南區","LI":"南興里","LIN":"1鄰","STREET":"安中路","SECT":"五段","MAREA":" ","LANE":" ","ALLEY":" ","HOUSE_NO":"４８８之１號","E_COORD97":162282.32999999999,"N_COORD97":2551256.1600000001,"ADDRESS":"安中路五段４８８之１號","OBJECTID":493917},"geometry":{"x":162282.33000000007,"y":2551256.160000002}},{"attributes":{"ID":493945,"DIS_CODE":0,"TOWNNAME":"安南區","LI":"南興里","LIN":"1鄰","STREET":"安中路","SECT":"五段","MAREA":" ","LANE":" ","ALLEY":" ","HOUSE_NO":"４８８之６號","E_COORD97":162287.54999999999,"N_COORD97":2551274.9700000002,"ADDRESS":"安中路五段４８８之６號","OBJECTID":493918},"geometry":{"x":162287.54999999981,"y":2551274.9700000025}},{"attributes":{"ID":493946,"DIS_CODE":0,"TOWNNAME":"安南區","LI":"理想里","LIN":"1鄰","STREET":"海佃路","SECT":"二段","MAREA":" ","LANE":" ","ALLEY":" ","HOUSE_NO":"４０６號","E_COORD97":166819.73999999999,"N_COORD97":2548742.0299999998,"ADDRESS":"海佃路二段４０６號","OBJECTID":493919},"geometry":{"x":166819.74000000022,"y":2548742.0299999993}},{"attributes":{"ID":493947,"DIS_CODE":0,"TOWNNAME":"安南區","LI":"理想里","LIN":"1鄰","STREET":"海佃路","SECT":"二段","MAREA":" ","LANE":" ","ALLEY":" ","HOUSE_NO":"４０８號","E_COORD97":166817.89999999999,"N_COORD97":2548746.7400000002,"ADDRESS":"海佃路二段４０８號","OBJECTID":493920},"geometry":{"x":166817.9000000013,"y":2548746.7400000021}},{"attributes":{"ID":493948,"DIS_CODE":0,"TOWNNAME":"安南區","LI":"理想里","LIN":"1鄰","STREET":"海佃路","SECT":"二段","MAREA":" ","LANE":" ","ALLEY":" ","HOUSE_NO":"４１０號","E_COORD97":166816.94,"N_COORD97":2548750.7400000002,"ADDRESS":"海佃路二段４１０號","OBJECTID":493921},"geometry":{"x":166816.94000000041,"y":2548750.7400000002}},{"attributes":{"ID":493949,"DIS_CODE":0,"TOWNNAME":"南區","LI":"田寮里","LIN":"17鄰","STREET":"西門路","SECT":"一段","MAREA":" ","LANE":" ","ALLEY":" ","HOUSE_NO":"２８３號","E_COORD97":167714.42999999999,"N_COORD97":2541943.46,"ADDRESS":"西門路一段２８３號","OBJECTID":493922},"geometry":{"x":167714.4299999997,"y":2541943.4600000009}},{"attributes":{"ID":493950,"DIS_CODE":0,"TOWNNAME":"南區","LI":"田寮里","LIN":"17鄰","STREET":"西門路","SECT":"一段","MAREA":" ","LANE":" ","ALLEY":" ","HOUSE_NO":"２８５號","E_COORD97":167714.06,"N_COORD97":2541948.1400000001,"ADDRESS":"西門路一段２８５號","OBJECTID":493923},"geometry":{"x":167714.06000000145,"y":2541948.1400000006}},{"attributes":{"ID":493951,"DIS_CODE":0,"TOWNNAME":"南區","LI":"田寮里","LIN":"17鄰","STREET":"西門路","SECT":"一段","MAREA":" ","LANE":" ","ALLEY":" ","HOUSE_NO":"２８７號","E_COORD97":167714.06,"N_COORD97":2541952.6200000001,"ADDRESS":"西門路一段２８７號","OBJECTID":493924},"geometry":{"x":167714.06000000145,"y":2541952.620000001}},{"attributes":{"ID":493952,"DIS_CODE":0,"TOWNNAME":"官田區","LI":"二鎮里","LIN":"1鄰","STREET":"工業路","SECT":" ","MAREA":" ","LANE":" ","ALLEY":" ","HOUSE_NO":"３號","E_COORD97":180569.70000000001,"N_COORD97":2566965.77,"ADDRESS":"工業路３號","OBJECTID":493925},"geometry":{"x":180569.70000000019,"y":2566965.7700000014}},{"attributes":{"ID":493953,"DIS_CODE":0,"TOWNNAME":"官田區","LI":"二鎮里","LIN":"1鄰","STREET":"工業路","SECT":" ","MAREA":" ","LANE":" ","ALLEY":" ","HOUSE_NO":"４０號","E_COORD97":180622.04999999999,"N_COORD97":2568183.7200000002,"ADDRESS":"工業路４０號","OBJECTID":493926},"geometry":{"x":180622.05000000075,"y":2568183.7200000025}},{"attributes":{"ID":493954,"DIS_CODE":0,"TOWNNAME":"官田區","LI":"二鎮里","LIN":"1鄰","STREET":"工業路","SECT":" ","MAREA":" ","LANE":" ","ALLEY":" ","HOUSE_NO":"４１號","E_COORD97":180828.23000000001,"N_COORD97":2568345.6400000001,"ADDRESS":"工業路４１號","OBJECTID":493927},"geometry":{"x":180828.23000000138,"y":2568345.6400000006}},{"attributes":{"ID":493955,"DIS_CODE":0,"TOWNNAME":"官田區","LI":"二鎮里","LIN":"1鄰","STREET":"工業路","SECT":" ","MAREA":" ","LANE":" ","ALLEY":" ","HOUSE_NO":"４３號","E_COORD97":180773.25,"N_COORD97":2568416.1200000001,"ADDRESS":"工業路４３號","OBJECTID":493928},"geometry":{"x":180773.25000000093,"y":2568416.1200000029}},{"attributes":{"ID":493956,"DIS_CODE":0,"TOWNNAME":"官田區","LI":"二鎮里","LIN":"1鄰","STREET":"工業路","SECT":" ","MAREA":" ","LANE":" ","ALLEY":" ","HOUSE_NO":"４８號","E_COORD97":180691.39999999999,"N_COORD97":2568390.8300000001,"ADDRESS":"工業路４８號","OBJECTID":493929},"geometry":{"x":180691.4000000013,"y":2568390.8300000001}},{"attributes":{"ID":493957,"DIS_CODE":0,"TOWNNAME":"官田區","LI":"二鎮里","LIN":"1鄰","STREET":"工業路","SECT":" ","MAREA":" ","LANE":" ","ALLEY":" ","HOUSE_NO":"５０號","E_COORD97":180708.70000000001,"N_COORD97":2568510.25,"ADDRESS":"工業路５０號","OBJECTID":493930},"geometry":{"x":180708.70000000019,"y":2568510.25}},{"attributes":{"ID":493958,"DIS_CODE":0,"TOWNNAME":"官田區","LI":"二鎮里","LIN":"1鄰","STREET":"工業路","SECT":" ","MAREA":" ","LANE":" ","ALLEY":" ","HOUSE_NO":"５１號之１","E_COORD97":180775.39999999999,"N_COORD97":2568516.6699999999,"ADDRESS":"工業路５１號之１","OBJECTID":493931},"geometry":{"x":180775.40000000037,"y":2568516.6700000018}},{"attributes":{"ID":493959,"DIS_CODE":0,"TOWNNAME":"官田區","LI":"二鎮里","LIN":"1鄰","STREET":"工業路","SECT":" ","MAREA":" ","LANE":" ","ALLEY":" ","HOUSE_NO":"５１號","E_COORD97":180777.01000000001,"N_COORD97":2568524.5499999998,"ADDRESS":"工業路５１號","OBJECTID":493932},"geometry":{"x":180777.00999999978,"y":2568524.5500000026}},{"attributes":{"ID":493960,"DIS_CODE":0,"TOWNNAME":"官田區","LI":"二鎮里","LIN":"1鄰","STREET":"工業路","SECT":" ","MAREA":" ","LANE":" ","ALLEY":" ","HOUSE_NO":"５２號","E_COORD97":180684.92000000001,"N_COORD97":2568629.2799999998,"ADDRESS":"工業路５２號","OBJECTID":493933},"geometry":{"x":180684.91999999993,"y":2568629.2800000031}},{"attributes":{"ID":493961,"DIS_CODE":0,"TOWNNAME":"官田區","LI":"二鎮里","LIN":"1鄰","STREET":"工業路","SECT":" ","MAREA":" ","LANE":" ","ALLEY":" ","HOUSE_NO":"５４號之１","E_COORD97":180687.78,"N_COORD97":2568690.48,"ADDRESS":"工業路５４號之１","OBJECTID":493934},"geometry":{"x":180687.78000000026,"y":2568690.4800000023}},{"attributes":{"ID":493962,"DIS_CODE":0,"TOWNNAME":"官田區","LI":"二鎮里","LIN":"1鄰","STREET":"工業西路","SECT":" ","MAREA":" ","LANE":" ","ALLEY":" ","HOUSE_NO":"２號","E_COORD97":180358.60000000001,"N_COORD97":2567009.6400000001,"ADDRESS":"工業西路２號","OBJECTID":493935},"geometry":{"x":180358.60000000056,"y":2567009.6400000006}},{"attributes":{"ID":493963,"DIS_CODE":0,"TOWNNAME":"官田區","LI":"二鎮里","LIN":"1鄰","STREET":"工業西路","SECT":" ","MAREA":" ","LANE":" ","ALLEY":" ","HOUSE_NO":"３１號","E_COORD97":180458,"N_COORD97":2567599.1000000001,"ADDRESS":"工業西路３１號","OBJECTID":493936},"geometry":{"x":180458.00000000093,"y":2567599.0999999996}},{"attributes":{"ID":493964,"DIS_CODE":0,"TOWNNAME":"官田區","LI":"二鎮里","LIN":"1鄰","STREET":"工業西路","SECT":" ","MAREA":" ","LANE":" ","ALLEY":" ","HOUSE_NO":"３２號","E_COORD97":180429.25,"N_COORD97":2568125.6899999999,"ADDRESS":"工業西路３２號","OBJECTID":493937},"geometry":{"x":180429.25000000093,"y":2568125.6900000013}},{"attributes":{"ID":493965,"DIS_CODE":0,"TOWNNAME":"官田區","LI":"二鎮里","LIN":"1鄰","STREET":"工業西路","SECT":" ","MAREA":" ","LANE":" ","ALLEY":" ","HOUSE_NO":"３３號","E_COORD97":180506.72,"N_COORD97":2567617.5,"ADDRESS":"工業西路３３號","OBJECTID":493938},"geometry":{"x":180506.7200000016,"y":2567617.5}},{"attributes":{"ID":493966,"DIS_CODE":0,"TOWNNAME":"官田區","LI":"二鎮里","LIN":"1鄰","STREET":"工業西路","SECT":" ","MAREA":" ","LANE":" ","ALLEY":" ","HOUSE_NO":"３５號","E_COORD97":180440.32000000001,"N_COORD97":2567694.8799999999,"ADDRESS":"工業西路３５號","OBJECTID":493939},"geometry":{"x":180440.3200000003,"y":2567694.879999999}},{"attributes":{"ID":493967,"DIS_CODE":0,"TOWNNAME":"官田區","LI":"二鎮里","LIN":"1鄰","STREET":"工業西路","SECT":" ","MAREA":" ","LANE":" ","ALLEY":" ","HOUSE_NO":"３９號","E_COORD97":180458.69,"N_COORD97":2567756.7799999998,"ADDRESS":"工業西路３９號","OBJECTID":493940},"geometry":{"x":180458.69000000134,"y":2567756.7799999993}},{"attributes":{"ID":493968,"DIS_CODE":0,"TOWNNAME":"官田區","LI":"二鎮里","LIN":"1鄰","STREET":"工業西路","SECT":" ","MAREA":" ","LANE":" ","ALLEY":" ","HOUSE_NO":"４３號","E_COORD97":180456.35000000001,"N_COORD97":2567803.1000000001,"ADDRESS":"工業西路４３號","OBJECTID":493941},"geometry":{"x":180456.34999999963,"y":2567803.0999999978}},{"attributes":{"ID":493969,"DIS_CODE":0,"TOWNNAME":"官田區","LI":"二鎮里","LIN":"1鄰","STREET":"工業西路","SECT":" ","MAREA":" ","LANE":" ","ALLEY":" ","HOUSE_NO":"４６號","E_COORD97":180383.35000000001,"N_COORD97":2568294.8100000001,"ADDRESS":"工業西路４６號","OBJECTID":493942},"geometry":{"x":180383.34999999963,"y":2568294.8100000024}},{"attributes":{"ID":493970,"DIS_CODE":0,"TOWNNAME":"南區","LI":"大忠里","LIN":"39鄰","STREET":"國民路","SECT":" ","MAREA":" ","LANE":" ","ALLEY":" ","HOUSE_NO":"４６３號","E_COORD97":168760.5,"N_COORD97":2541288.75,"ADDRESS":"國民路４６３號","OBJECTID":493943},"geometry":{"x":168760.5,"y":2541288.75}},{"attributes":{"ID":493971,"DIS_CODE":0,"TOWNNAME":"官田區","LI":"二鎮里","LIN":"1鄰","STREET":"工業西路","SECT":" ","MAREA":" ","LANE":" ","ALLEY":" ","HOUSE_NO":"５２號","E_COORD97":180467.45999999999,"N_COORD97":2568645.1499999999,"ADDRESS":"工業西路５２號","OBJECTID":493944},"geometry":{"x":180467.45999999996,"y":2568645.1500000022}},{"attributes":{"ID":493972,"DIS_CODE":0,"TOWNNAME":"官田區","LI":"二鎮里","LIN":"1鄰","STREET":"工業西路","SECT":" ","MAREA":" ","LANE":" ","ALLEY":" ","HOUSE_NO":"５４號","E_COORD97":180413.51999999999,"N_COORD97":2568580.8700000001,"ADDRESS":"工業西路５４號","OBJECTID":493945},"geometry":{"x":180413.52000000048,"y":2568580.8700000029}},{"attributes":{"ID":493973,"DIS_CODE":0,"TOWNNAME":"官田區","LI":"二鎮里","LIN":"1鄰","STREET":"工業西路","SECT":" ","MAREA":" ","LANE":" ","ALLEY":" ","HOUSE_NO":"５號","E_COORD97":180433.73999999999,"N_COORD97":2567176.1299999999,"ADDRESS":"工業西路５號","OBJECTID":493946},"geometry":{"x":180433.74000000022,"y":2567176.1300000008}},{"attributes":{"ID":493974,"DIS_CODE":0,"TOWNNAME":"官田區","LI":"二鎮里","LIN":"1鄰","STREET":"工業西路","SECT":" ","MAREA":" ","LANE":" ","ALLEY":" ","HOUSE_NO":"７３號","E_COORD97":180526.34,"N_COORD97":2568492.0099999998,"ADDRESS":"工業西路７３號","OBJECTID":493947},"geometry":{"x":180526.34000000171,"y":2568492.0099999998}},{"attributes":{"ID":493975,"DIS_CODE":0,"TOWNNAME":"官田區","LI":"二鎮里","LIN":"1鄰","STREET":"工業西路","SECT":" ","MAREA":" ","LANE":" ","ALLEY":" ","HOUSE_NO":"７７號","E_COORD97":180511.76999999999,"N_COORD97":2568606.2999999998,"ADDRESS":"工業西路７７號","OBJECTID":493948},"geometry":{"x":180511.77000000048,"y":2568606.3000000007}},{"attributes":{"ID":493976,"DIS_CODE":0,"TOWNNAME":"官田區","LI":"二鎮里","LIN":"1鄰","STREET":"工業西路","SECT":" ","MAREA":" ","LANE":" ","ALLEY":" ","HOUSE_NO":"７號","E_COORD97":180404.57000000001,"N_COORD97":2567231.6200000001,"ADDRESS":"工業西路７號","OBJECTID":493949},"geometry":{"x":180404.5700000003,"y":2567231.6200000048}},{"attributes":{"ID":493977,"DIS_CODE":0,"TOWNNAME":"官田區","LI":"二鎮里","LIN":"1鄰","STREET":"工業西路","SECT":" ","MAREA":" ","LANE":" ","ALLEY":" ","HOUSE_NO":"８號","E_COORD97":180342.89000000001,"N_COORD97":2567203.7599999998,"ADDRESS":"工業西路８號","OBJECTID":493950},"geometry":{"x":180342.89000000153,"y":2567203.7600000016}},{"attributes":{"ID":493978,"DIS_CODE":0,"TOWNNAME":"官田區","LI":"二鎮里","LIN":"1鄰","STREET":"工業西路","SECT":" ","MAREA":" ","LANE":" ","ALLEY":" ","HOUSE_NO":"９號","E_COORD97":180430.53,"N_COORD97":2567293.2599999998,"ADDRESS":"工業西路９號","OBJECTID":493951},"geometry":{"x":180430.52999999933,"y":2567293.2599999998}},{"attributes":{"ID":493979,"DIS_CODE":0,"TOWNNAME":"官田區","LI":"二鎮里","LIN":"1鄰","STREET":"工業南路","SECT":" ","MAREA":" ","LANE":" ","ALLEY":" ","HOUSE_NO":"１０號","E_COORD97":181281.76000000001,"N_COORD97":2566904.6600000001,"ADDRESS":"工業南路１０號","OBJECTID":493952},"geometry":{"x":181281.76000000071,"y":2566904.6600000001}},{"attributes":{"ID":493980,"DIS_CODE":0,"TOWNNAME":"官田區","LI":"二鎮里","LIN":"1鄰","STREET":"工業南路","SECT":" ","MAREA":" ","LANE":" ","ALLEY":" ","HOUSE_NO":"１２號","E_COORD97":181225.48999999999,"N_COORD97":2566834.1299999999,"ADDRESS":"工業南路１２號","OBJECTID":493953},"geometry":{"x":181225.49000000022,"y":2566834.1300000008}},{"attributes":{"ID":493981,"DIS_CODE":0,"TOWNNAME":"官田區","LI":"二鎮里","LIN":"1鄰","STREET":"工業南路","SECT":" ","MAREA":" ","LANE":" ","ALLEY":" ","HOUSE_NO":"１５號","E_COORD97":181025.88,"N_COORD97":2566932.75,"ADDRESS":"工業南路１５號","OBJECTID":493954},"geometry":{"x":181025.87999999989,"y":2566932.7500000019}},{"attributes":{"ID":493982,"DIS_CODE":0,"TOWNNAME":"官田區","LI":"二鎮里","LIN":"1鄰","STREET":"工業南路","SECT":" ","MAREA":" ","LANE":" ","ALLEY":" ","HOUSE_NO":"１６號","E_COORD97":181141.34,"N_COORD97":2566802.1600000001,"ADDRESS":"工業南路１６號","OBJECTID":493955},"geometry":{"x":181141.33999999985,"y":2566802.1600000001}},{"attributes":{"ID":493983,"DIS_CODE":0,"TOWNNAME":"官田區","LI":"二鎮里","LIN":"1鄰","STREET":"工業南路","SECT":" ","MAREA":" ","LANE":" ","ALLEY":" ","HOUSE_NO":"１號","E_COORD97":181204.29000000001,"N_COORD97":2567220.77,"ADDRESS":"工業南路１號","OBJECTID":493956},"geometry":{"x":181204.29000000004,"y":2567220.7699999996}},{"attributes":{"ID":493984,"DIS_CODE":0,"TOWNNAME":"官田區","LI":"二鎮里","LIN":"1鄰","STREET":"工業南路","SECT":" ","MAREA":" ","LANE":" ","ALLEY":" ","HOUSE_NO":"２０號","E_COORD97":180993.92000000001,"N_COORD97":2566869.5800000001,"ADDRESS":"工業南路２０號","OBJECTID":493957},"geometry":{"x":180993.92000000179,"y":2566869.5800000019}},{"attributes":{"ID":493985,"DIS_CODE":0,"TOWNNAME":"官田區","LI":"二鎮里","LIN":"1鄰","STREET":"工業南路","SECT":" ","MAREA":" ","LANE":" ","ALLEY":" ","HOUSE_NO":"２２號之１","E_COORD97":180978.95000000001,"N_COORD97":2566853.3399999999,"ADDRESS":"工業南路２２號之１","OBJECTID":493958},"geometry":{"x":180978.95000000112,"y":2566853.3400000017}},{"attributes":{"ID":493986,"DIS_CODE":0,"TOWNNAME":"官田區","LI":"二鎮里","LIN":"1鄰","STREET":"工業南路","SECT":" ","MAREA":" ","LANE":" ","ALLEY":" ","HOUSE_NO":"２２號","E_COORD97":180942.76000000001,"N_COORD97":2566839.7799999998,"ADDRESS":"工業南路２２號","OBJECTID":493959},"geometry":{"x":180942.76000000071,"y":2566839.7800000012}},{"attributes":{"ID":493987,"DIS_CODE":0,"TOWNNAME":"官田區","LI":"二鎮里","LIN":"1鄰","STREET":"工業南路","SECT":" ","MAREA":" ","LANE":" ","ALLEY":" ","HOUSE_NO":"２３號","E_COORD97":180978.41,"N_COORD97":2566924.54,"ADDRESS":"工業南路２３號","OBJECTID":493960},"geometry":{"x":180978.41000000015,"y":2566924.5399999991}},{"attributes":{"ID":493988,"DIS_CODE":0,"TOWNNAME":"安南區","LI":"淵中里","LIN":"1鄰","STREET":"本淵一街","SECT":" ","MAREA":" ","LANE":" ","ALLEY":" ","HOUSE_NO":"６０號","E_COORD97":165295.87,"N_COORD97":2549826.9700000002,"ADDRESS":"本淵一街６０號","OBJECTID":493961},"geometry":{"x":165295.87000000104,"y":2549826.9700000025}},{"attributes":{"ID":493989,"DIS_CODE":0,"TOWNNAME":"安南區","LI":"淵中里","LIN":"1鄰","STREET":"本淵一街","SECT":" ","MAREA":" ","LANE":" ","ALLEY":" ","HOUSE_NO":"６６號","E_COORD97":165279.04000000001,"N_COORD97":2549798.2400000002,"ADDRESS":"本淵一街６６號","OBJECTID":493962},"geometry":{"x":165279.04000000097,"y":2549798.2400000021}},{"attributes":{"ID":493990,"DIS_CODE":0,"TOWNNAME":"安南區","LI":"淵中里","LIN":"1鄰","STREET":"本淵一街","SECT":" ","MAREA":" ","LANE":" ","ALLEY":" ","HOUSE_NO":"７０號","E_COORD97":165265.87,"N_COORD97":2549769.3399999999,"ADDRESS":"本淵一街７０號","OBJECTID":493963},"geometry":{"x":165265.87000000011,"y":2549769.3400000017}},{"attributes":{"ID":493991,"DIS_CODE":0,"TOWNNAME":"安南區","LI":"布袋里","LIN":"1鄰","STREET":"工明南三路","SECT":" ","MAREA":" ","LANE":" ","ALLEY":" ","HOUSE_NO":"２０８號","E_COORD97":168656.34,"N_COORD97":2550949.1600000001,"ADDRESS":"工明南三路２０８號","OBJECTID":493964},"geometry":{"x":168656.33999999985,"y":2550949.1600000001}},{"attributes":{"ID":493992,"DIS_CODE":0,"TOWNNAME":"安南區","LI":"布袋里","LIN":"1鄰","STREET":"工明南三路","SECT":" ","MAREA":" ","LANE":" ","ALLEY":" ","HOUSE_NO":"２１０號","E_COORD97":168650.62,"N_COORD97":2550950.5600000001,"ADDRESS":"工明南三路２１０號","OBJECTID":493965},"geometry":{"x":168650.62000000104,"y":2550950.5600000005}},{"attributes":{"ID":493993,"DIS_CODE":0,"TOWNNAME":"安平區","LI":"億載里","LIN":"8鄰","STREET":"光州六街","SECT":" ","MAREA":" ","LANE":" ","ALLEY":" ","HOUSE_NO":"６０號","E_COORD97":164220.42999999999,"N_COORD97":2543553.7200000002,"ADDRESS":"光州六街６０號","OBJECTID":493966},"geometry":{"x":164220.43000000063,"y":2543553.7200000025}},{"attributes":{"ID":493994,"DIS_CODE":0,"TOWNNAME":"安南區","LI":"安順里","LIN":"1鄰","STREET":"安和路","SECT":"三段","MAREA":" ","LANE":" ","ALLEY":" ","HOUSE_NO":"２５３號","E_COORD97":169927.01999999999,"N_COORD97":2550038.77,"ADDRESS":"安和路三段２５３號","OBJECTID":493967},"geometry":{"x":169927.02000000048,"y":2550038.7699999996}},{"attributes":{"ID":493995,"DIS_CODE":0,"TOWNNAME":"安南區","LI":"安順里","LIN":"1鄰","STREET":"安和路","SECT":"三段","MAREA":" ","LANE":" ","ALLEY":" ","HOUSE_NO":"２５９號","E_COORD97":169930.26999999999,"N_COORD97":2550047.5499999998,"ADDRESS":"安和路三段２５９號","OBJECTID":493968},"geometry":{"x":169930.27000000048,"y":2550047.5500000026}},{"attributes":{"ID":493996,"DIS_CODE":0,"TOWNNAME":"安南區","LI":"安順里","LIN":"1鄰","STREET":"安和路","SECT":"三段","MAREA":" ","LANE":" ","ALLEY":" ","HOUSE_NO":"２６１號","E_COORD97":169934.67000000001,"N_COORD97":2550057.3999999999,"ADDRESS":"安和路三段２６１號","OBJECTID":493969},"geometry":{"x":169934.67000000086,"y":2550057.4000000022}},{"attributes":{"ID":493997,"DIS_CODE":0,"TOWNNAME":"安南區","LI":"安順里","LIN":"1鄰","STREET":"安和路","SECT":"三段","MAREA":" ","LANE":" ","ALLEY":" ","HOUSE_NO":"２６５號","E_COORD97":169938.29999999999,"N_COORD97":2550063.8900000001,"ADDRESS":"安和路三段２６５號","OBJECTID":493970},"geometry":{"x":169938.29999999981,"y":2550063.8900000043}},{"attributes":{"ID":493998,"DIS_CODE":0,"TOWNNAME":"安南區","LI":"安順里","LIN":"1鄰","STREET":"安和路","SECT":"三段","MAREA":" ","LANE":" ","ALLEY":" ","HOUSE_NO":"２６７號","E_COORD97":169931.60999999999,"N_COORD97":2550071.5299999998,"ADDRESS":"安和路三段２６７號","OBJECTID":493971},"geometry":{"x":169931.61000000034,"y":2550071.5299999975}},{"attributes":{"ID":493999,"DIS_CODE":0,"TOWNNAME":"安南區","LI":"安順里","LIN":"1鄰","STREET":"安和路","SECT":"三段","MAREA":" ","LANE":" ","ALLEY":" ","HOUSE_NO":"２６９號","E_COORD97":169931.60999999999,"N_COORD97":2550076.1099999999,"ADDRESS":"安和路三段２６９號","OBJECTID":493972},"geometry":{"x":169931.61000000034,"y":2550076.1100000013}},{"attributes":{"ID":494000,"DIS_CODE":0,"TOWNNAME":"安平區","LI":"育平里","LIN":"36鄰","STREET":"平豐路","SECT":" ","MAREA":" ","LANE":" ","ALLEY":" ","HOUSE_NO":"１６８號","E_COORD97":164343.35999999999,"N_COORD97":2543263.9300000002,"ADDRESS":"平豐路１６８號","OBJECTID":493973},"geometry":{"x":164343.36000000127,"y":2543263.9299999997}},{"attributes":{"ID":494001,"DIS_CODE":0,"TOWNNAME":"安平區","LI":"億載里","LIN":"13鄰","STREET":"光州五街","SECT":" ","MAREA":" ","LANE":" ","ALLEY":" ","HOUSE_NO":"１３８號","E_COORD97":164252.92999999999,"N_COORD97":2543305.9500000002,"ADDRESS":"光州五街１３８號","OBJECTID":493974},"geometry":{"x":164252.9299999997,"y":2543305.9500000011}},{"attributes":{"ID":494002,"DIS_CODE":0,"TOWNNAME":"安平區","LI":"億載里","LIN":"8鄰","STREET":"光州六街","SECT":" ","MAREA":" ","LANE":" ","ALLEY":" ","HOUSE_NO":"６２號","E_COORD97":164215.03,"N_COORD97":2543553.8700000001,"ADDRESS":"光州六街６２號","OBJECTID":493975},"geometry":{"x":164215.03000000119,"y":2543553.870000001}},{"attributes":{"ID":494003,"DIS_CODE":0,"TOWNNAME":"安平區","LI":"金城里","LIN":"15鄰","STREET":"州平三街","SECT":" ","MAREA":" ","LANE":" ","ALLEY":" ","HOUSE_NO":"１３之５號","E_COORD97":162697.47,"N_COORD97":2544373.4500000002,"ADDRESS":"州平三街１３之５號","OBJECTID":493976},"geometry":{"x":162697.47000000067,"y":2544373.4500000011}},{"attributes":{"ID":494004,"DIS_CODE":0,"TOWNNAME":"安平區","LI":"金城里","LIN":"15鄰","STREET":"州平三街","SECT":" ","MAREA":" ","LANE":" ","ALLEY":" ","HOUSE_NO":"１５之５號","E_COORD97":162693.17999999999,"N_COORD97":2544382.8100000001,"ADDRESS":"州平三街１５之５號","OBJECTID":493977},"geometry":{"x":162693.1799999997,"y":2544382.8100000024}},{"attributes":{"ID":494005,"DIS_CODE":0,"TOWNNAME":"安平區","LI":"億載里","LIN":"1鄰","STREET":"光州七街","SECT":" ","MAREA":" ","LANE":" ","ALLEY":" ","HOUSE_NO":"２２號","E_COORD97":164194.72,"N_COORD97":2543757.9199999999,"ADDRESS":"光州七街２２號","OBJECTID":493978},"geometry":{"x":164194.72000000067,"y":2543757.9200000018}},{"attributes":{"ID":494006,"DIS_CODE":0,"TOWNNAME":"安平區","LI":"億載里","LIN":"1鄰","STREET":"光州七街","SECT":" ","MAREA":" ","LANE":" ","ALLEY":" ","HOUSE_NO":"２６號","E_COORD97":164189.95999999999,"N_COORD97":2543758.2400000002,"ADDRESS":"光州七街２６號","OBJECTID":493979},"geometry":{"x":164189.96000000089,"y":2543758.2399999984}},{"attributes":{"ID":494007,"DIS_CODE":0,"TOWNNAME":"安南區","LI":"安順里","LIN":"1鄰","STREET":"安和路","SECT":"三段","MAREA":" ","LANE":" ","ALLEY":" ","HOUSE_NO":"２７１號","E_COORD97":169935.89999999999,"N_COORD97":2550078.52,"ADDRESS":"安和路三段２７１號","OBJECTID":493980},"geometry":{"x":169935.90000000037,"y":2550078.5199999996}},{"attributes":{"ID":494008,"DIS_CODE":0,"TOWNNAME":"安南區","LI":"安順里","LIN":"1鄰","STREET":"安和路","SECT":"三段","MAREA":" ","LANE":" ","ALLEY":" ","HOUSE_NO":"２７５號","E_COORD97":169940.60999999999,"N_COORD97":2550087.9199999999,"ADDRESS":"安和路三段２７５號","OBJECTID":493981},"geometry":{"x":169940.61000000127,"y":2550087.9200000018}},{"attributes":{"ID":494009,"DIS_CODE":0,"TOWNNAME":"安南區","LI":"州南里","LIN":"1鄰","STREET":"安和路","SECT":"四段","MAREA":" ","LANE":" ","ALLEY":" ","HOUSE_NO":"３３０號","E_COORD97":169950.35999999999,"N_COORD97":2550897.4399999999,"ADDRESS":"安和路四段３３０號","OBJECTID":493982},"geometry":{"x":169950.3599999994,"y":2550897.4400000013}},{"attributes":{"ID":494010,"DIS_CODE":0,"TOWNNAME":"麻豆區","LI":"東角里","LIN":"14鄰","STREET":"同仁街","SECT":" ","MAREA":" ","LANE":" ","ALLEY":" ","HOUSE_NO":"８號","E_COORD97":173773.23000000001,"N_COORD97":2564684.7200000002,"ADDRESS":"同仁街８號","OBJECTID":493983},"geometry":{"x":173773.23000000138,"y":2564684.7200000025}},{"attributes":{"ID":494011,"DIS_CODE":0,"TOWNNAME":"安南區","LI":"淵中里","LIN":"1鄰","STREET":"本淵一街","SECT":" ","MAREA":" ","LANE":" ","ALLEY":" ","HOUSE_NO":"５號","E_COORD97":165430.20822900001,"N_COORD97":2549779.5948299998,"ADDRESS":"本淵一街５號","OBJECTID":493984},"geometry":{"x":165430.20822900068,"y":2549779.5948319994}},{"attributes":{"ID":494012,"DIS_CODE":0,"TOWNNAME":"安南區","LI":"州南里","LIN":"1鄰","STREET":"安和路","SECT":"四段","MAREA":" ","LANE":" ","ALLEY":" ","HOUSE_NO":"３８４號","E_COORD97":169955.32999999999,"N_COORD97":2551003.5299999998,"ADDRESS":"安和路四段３８４號","OBJECTID":493985},"geometry":{"x":169955.33000000007,"y":2551003.5299999993}},{"attributes":{"ID":494013,"DIS_CODE":0,"TOWNNAME":"安南區","LI":"州南里","LIN":"1鄰","STREET":"安和路","SECT":"四段","MAREA":" ","LANE":" ","ALLEY":" ","HOUSE_NO":"４５０號","E_COORD97":169959.70999999999,"N_COORD97":2551178.4300000002,"ADDRESS":"安和路四段４５０號","OBJECTID":493986},"geometry":{"x":169959.71000000183,"y":2551178.4300000016}},{"attributes":{"ID":494014,"DIS_CODE":0,"TOWNNAME":"麻豆區","LI":"\u25A0江里","LIN":"1鄰","STREET":"興南路","SECT":" ","MAREA":" ","LANE":" ","ALLEY":" ","HOUSE_NO":"１０６號","E_COORD97":173341.97,"N_COORD97":2564737.8300000001,"ADDRESS":"興南路１０６號","OBJECTID":493987},"geometry":{"x":173341.97000000067,"y":2564737.8300000019}},{"attributes":{"ID":494015,"DIS_CODE":0,"TOWNNAME":"麻豆區","LI":"\u25A0江里","LIN":"1鄰","STREET":"興南路","SECT":" ","MAREA":" ","LANE":" ","ALLEY":" ","HOUSE_NO":"１０８號","E_COORD97":173346.51999999999,"N_COORD97":2564737.6000000001,"ADDRESS":"興南路１０８號","OBJECTID":493988},"geometry":{"x":173346.52000000048,"y":2564737.5999999996}},{"attributes":{"ID":494016,"DIS_CODE":0,"TOWNNAME":"麻豆區","LI":"巷口里","LIN":"1鄰","STREET":"興南路","SECT":" ","MAREA":" ","LANE":" ","ALLEY":" ","HOUSE_NO":"１６號","E_COORD97":173104.72,"N_COORD97":2564738.5099999998,"ADDRESS":"興南路１６號","OBJECTID":493989},"geometry":{"x":173104.71999999974,"y":2564738.5099999998}},{"attributes":{"ID":494017,"DIS_CODE":0,"TOWNNAME":"麻豆區","LI":"巷口里","LIN":"1鄰","STREET":"興南路","SECT":" ","MAREA":" ","LANE":" ","ALLEY":" ","HOUSE_NO":"２２號","E_COORD97":173129.17000000001,"N_COORD97":2564741.6000000001,"ADDRESS":"興南路２２號","OBJECTID":493990},"geometry":{"x":173129.16999999993,"y":2564741.5999999978}},{"attributes":{"ID":494018,"DIS_CODE":0,"TOWNNAME":"麻豆區","LI":"巷口里","LIN":"1鄰","STREET":"興南路","SECT":" ","MAREA":" ","LANE":" ","ALLEY":" ","HOUSE_NO":"２５號之７","E_COORD97":173161.26000000001,"N_COORD97":2564761.5499999998,"ADDRESS":"興南路２５號之７","OBJECTID":493991},"geometry":{"x":173161.26000000164,"y":2564761.5500000026}},{"attributes":{"ID":494019,"DIS_CODE":0,"TOWNNAME":"麻豆區","LI":"巷口里","LIN":"1鄰","STREET":"興南路","SECT":" ","MAREA":" ","LANE":" ","ALLEY":" ","HOUSE_NO":"２５號之８","E_COORD97":173165.35999999999,"N_COORD97":2564761.2999999998,"ADDRESS":"興南路２５號之８","OBJECTID":493992},"geometry":{"x":173165.36000000127,"y":2564761.3000000007}},{"attributes":{"ID":494020,"DIS_CODE":0,"TOWNNAME":"安平區","LI":"華平里","LIN":"12鄰","STREET":"永華路","SECT":"二段","MAREA":" ","LANE":" ","ALLEY":" ","HOUSE_NO":"５０６號","E_COORD97":165403.78,"N_COORD97":2543539.25,"ADDRESS":"永華路二段５０６號","OBJECTID":493993},"geometry":{"x":165403.78000000026,"y":2543539.2500000019}},{"attributes":{"ID":494021,"DIS_CODE":0,"TOWNNAME":"麻豆區","LI":"巷口里","LIN":"1鄰","STREET":"興南路","SECT":" ","MAREA":" ","LANE":" ","ALLEY":" ","HOUSE_NO":"２７號之２","E_COORD97":173112.03,"N_COORD97":2564768.1899999999,"ADDRESS":"興南路２７號之２","OBJECTID":493994},"geometry":{"x":173112.03000000026,"y":2564768.1900000032}},{"attributes":{"ID":494022,"DIS_CODE":0,"TOWNNAME":"麻豆區","LI":"巷口里","LIN":"1鄰","STREET":"興南路","SECT":" ","MAREA":" ","LANE":" ","ALLEY":" ","HOUSE_NO":"２７號之２","E_COORD97":173101.10999999999,"N_COORD97":2564768.8799999999,"ADDRESS":"興南路２７號之２","OBJECTID":493995},"geometry":{"x":173101.11000000034,"y":2564768.879999999}},{"attributes":{"ID":494023,"DIS_CODE":0,"TOWNNAME":"下營區","LI":"仁里里","LIN":"1鄰","STREET":"仁義街","SECT":" ","MAREA":" ","LANE":" ","ALLEY":" ","HOUSE_NO":"８號","E_COORD97":174608.89999999999,"N_COORD97":2569730.6000000001,"ADDRESS":"仁義街８號","OBJECTID":493996},"geometry":{"x":174608.9000000013,"y":2569730.6000000015}},{"attributes":{"ID":494024,"DIS_CODE":0,"TOWNNAME":"下營區","LI":"仁里里","LIN":"1鄰","STREET":"仁義街","SECT":" ","MAREA":" ","LANE":" ","ALLEY":" ","HOUSE_NO":"９號","E_COORD97":174585.53,"N_COORD97":2569712.29,"ADDRESS":"仁義街９號","OBJECTID":493997},"geometry":{"x":174585.53000000212,"y":2569712.2899999991}},{"attributes":{"ID":494025,"DIS_CODE":0,"TOWNNAME":"下營區","LI":"宅內里","LIN":"1鄰","STREET":"友愛街","SECT":" ","MAREA":" ","LANE":" ","ALLEY":" ","HOUSE_NO":"６６號","E_COORD97":174208.70000000001,"N_COORD97":2570445.1600000001,"ADDRESS":"友愛街６６號","OBJECTID":493998},"geometry":{"x":174208.70000000112,"y":2570445.160000002}},{"attributes":{"ID":494026,"DIS_CODE":0,"TOWNNAME":"下營區","LI":"宅內里","LIN":"1鄰","STREET":"友愛街","SECT":" ","MAREA":" ","LANE":" ","ALLEY":" ","HOUSE_NO":"６８號","E_COORD97":174208.37,"N_COORD97":2570450.25,"ADDRESS":"友愛街６８號","OBJECTID":493999},"geometry":{"x":174208.36999999918,"y":2570450.25}},{"attributes":{"ID":494027,"DIS_CODE":0,"TOWNNAME":"下營區","LI":"宅內里","LIN":"1鄰","STREET":"友愛街","SECT":" ","MAREA":" ","LANE":" ","ALLEY":" ","HOUSE_NO":"７０號","E_COORD97":174208.01999999999,"N_COORD97":2570454.4300000002,"ADDRESS":"友愛街７０號","OBJECTID":494000},"geometry":{"x":174208.01999999955,"y":2570454.4299999997}}]}