{"displayFieldName":"TOWNNAME","fieldAliases":{"ID":"ID","DIS_CODE":"DIS_CODE","TOWNNAME":"TOWNNAME","LI":"LI","LIN":"LIN","STREET":"STREET","SECT":"SECT","MAREA":"MAREA","LANE":"LANE","ALLEY":"ALLEY","HOUSE_NO":"HOUSE_NO","E_COORD97":"E_COORD97","N_COORD97":"N_COORD97","ADDRESS":"ADDRESS","OBJECTID":"OBJECTID"},"geometryType":"esriGeometryPoint","spatialReference":{"wkid":102443,"latestWkid":3826},"fields":[{"name":"ID","type":"esriFieldTypeDouble","alias":"ID"},{"name":"DIS_CODE","type":"esriFieldTypeInteger","alias":"DIS_CODE"},{"name":"TOWNNAME","type":"esriFieldTypeString","alias":"TOWNNAME","length":8},{"name":"LI","type":"esriFieldTypeString","alias":"LI","length":8},{"name":"LIN","type":"esriFieldTypeString","alias":"LIN","length":12},{"name":"STREET","type":"esriFieldTypeString","alias":"STREET","length":20},{"name":"SECT","type":"esriFieldTypeString","alias":"SECT","length":8},{"name":"MAREA","type":"esriFieldTypeString","alias":"MAREA","length":12},{"name":"LANE","type":"esriFieldTypeString","alias":"LANE","length":10},{"name":"ALLEY","type":"esriFieldTypeString","alias":"ALLEY","length":10},{"name":"HOUSE_NO","type":"esriFieldTypeString","alias":"HOUSE_NO","length":20},{"name":"E_COORD97","type":"esriFieldTypeDouble","alias":"E_COORD97"},{"name":"N_COORD97","type":"esriFieldTypeDouble","alias":"N_COORD97"},{"name":"ADDRESS","type":"esriFieldTypeString","alias":"ADDRESS","length":50},{"name":"OBJECTID","type":"esriFieldTypeOID","alias":"OBJECTID"}],"features":[{"attributes":{"ID":412225,"DIS_CODE":0,"TOWNNAME":"北區","LI":"大港里","LIN":"3鄰","STREET":"大興街","SECT":" ","MAREA":" ","LANE":"１７４巷","ALLEY":" ","HOUSE_NO":"３５號","E_COORD97":166860.48999999999,"N_COORD97":2545795.75,"ADDRESS":"大興街１７４巷３５號","OBJECTID":412201},"geometry":{"x":166860.49000000022,"y":2545795.7500000037}},{"attributes":{"ID":412226,"DIS_CODE":0,"TOWNNAME":"北區","LI":"大港里","LIN":"3鄰","STREET":"大興街","SECT":" ","MAREA":" ","LANE":"１７４巷","ALLEY":" ","HOUSE_NO":"３７號","E_COORD97":166860.23000000001,"N_COORD97":2545801.0699999998,"ADDRESS":"大興街１７４巷３７號","OBJECTID":412202},"geometry":{"x":166860.23000000138,"y":2545801.0700000022}},{"attributes":{"ID":412227,"DIS_CODE":0,"TOWNNAME":"北區","LI":"大港里","LIN":"3鄰","STREET":"大興街","SECT":" ","MAREA":" ","LANE":"１７４巷","ALLEY":" ","HOUSE_NO":"３９號","E_COORD97":166859.42999999999,"N_COORD97":2545804.52,"ADDRESS":"大興街１７４巷３９號","OBJECTID":412203},"geometry":{"x":166859.43000000063,"y":2545804.5200000014}},{"attributes":{"ID":412228,"DIS_CODE":0,"TOWNNAME":"北區","LI":"大港里","LIN":"3鄰","STREET":"大興街","SECT":" ","MAREA":" ","LANE":"１７４巷","ALLEY":" ","HOUSE_NO":"４９號","E_COORD97":166857.29999999999,"N_COORD97":2545830.29,"ADDRESS":"大興街１７４巷４９號","OBJECTID":412204},"geometry":{"x":166857.30000000075,"y":2545830.2899999991}},{"attributes":{"ID":412229,"DIS_CODE":0,"TOWNNAME":"北區","LI":"大港里","LIN":"3鄰","STREET":"大興街","SECT":" ","MAREA":" ","LANE":"１７４巷","ALLEY":" ","HOUSE_NO":"５號","E_COORD97":166867.67999999999,"N_COORD97":2545720.9500000002,"ADDRESS":"大興街１７４巷５號","OBJECTID":412205},"geometry":{"x":166867.68000000063,"y":2545720.9499999993}},{"attributes":{"ID":412230,"DIS_CODE":0,"TOWNNAME":"北區","LI":"賢北里","LIN":"3鄰","STREET":"大興街","SECT":" ","MAREA":" ","LANE":"３７３巷","ALLEY":" ","HOUSE_NO":"１０號","E_COORD97":166424.16,"N_COORD97":2545543.9199999999,"ADDRESS":"大興街３７３巷１０號","OBJECTID":412206},"geometry":{"x":166424.16000000108,"y":2545543.9200000018}},{"attributes":{"ID":412231,"DIS_CODE":0,"TOWNNAME":"北區","LI":"賢北里","LIN":"3鄰","STREET":"大興街","SECT":" ","MAREA":" ","LANE":"３７３巷","ALLEY":" ","HOUSE_NO":"１２號","E_COORD97":166425.32999999999,"N_COORD97":2545539.7400000002,"ADDRESS":"大興街３７３巷１２號","OBJECTID":412207},"geometry":{"x":166425.33000000007,"y":2545539.7400000021}},{"attributes":{"ID":412232,"DIS_CODE":0,"TOWNNAME":"北區","LI":"賢北里","LIN":"3鄰","STREET":"大興街","SECT":" ","MAREA":" ","LANE":"３７３巷","ALLEY":" ","HOUSE_NO":"１３號","E_COORD97":166442.20561599999,"N_COORD97":2545543.6315700002,"ADDRESS":"大興街３７３巷１３號","OBJECTID":412208},"geometry":{"x":166442.20561600104,"y":2545543.6315720025}},{"attributes":{"ID":412233,"DIS_CODE":0,"TOWNNAME":"北區","LI":"賢北里","LIN":"3鄰","STREET":"大興街","SECT":" ","MAREA":" ","LANE":"３７３巷","ALLEY":" ","HOUSE_NO":"１４號","E_COORD97":166426.84,"N_COORD97":2545535.5600000001,"ADDRESS":"大興街３７３巷１４號","OBJECTID":412209},"geometry":{"x":166426.83999999985,"y":2545535.5600000005}},{"attributes":{"ID":412234,"DIS_CODE":0,"TOWNNAME":"北區","LI":"賢北里","LIN":"3鄰","STREET":"大興街","SECT":" ","MAREA":" ","LANE":"３７３巷","ALLEY":" ","HOUSE_NO":"１５號","E_COORD97":166444.38,"N_COORD97":2545538.3300000001,"ADDRESS":"大興街３７３巷１５號","OBJECTID":412210},"geometry":{"x":166444.38000000082,"y":2545538.3300000019}},{"attributes":{"ID":412235,"DIS_CODE":0,"TOWNNAME":"北區","LI":"賢北里","LIN":"3鄰","STREET":"大興街","SECT":" ","MAREA":" ","LANE":"３７３巷","ALLEY":" ","HOUSE_NO":"１６號","E_COORD97":166427.51000000001,"N_COORD97":2545531.04,"ADDRESS":"大興街３７３巷１６號","OBJECTID":412211},"geometry":{"x":166427.50999999978,"y":2545531.0399999991}},{"attributes":{"ID":412236,"DIS_CODE":0,"TOWNNAME":"北區","LI":"賢北里","LIN":"3鄰","STREET":"大興街","SECT":" ","MAREA":" ","LANE":"３７３巷","ALLEY":" ","HOUSE_NO":"１７號","E_COORD97":166446.63,"N_COORD97":2545533.1899999999,"ADDRESS":"大興街３７３巷１７號","OBJECTID":412212},"geometry":{"x":166446.63000000082,"y":2545533.1899999995}},{"attributes":{"ID":412237,"DIS_CODE":0,"TOWNNAME":"北區","LI":"賢北里","LIN":"3鄰","STREET":"大興街","SECT":" ","MAREA":" ","LANE":"３７３巷","ALLEY":" ","HOUSE_NO":"１８號","E_COORD97":166430.19,"N_COORD97":2545527.3799999999,"ADDRESS":"大興街３７３巷１８號","OBJECTID":412213},"geometry":{"x":166430.19000000041,"y":2545527.3800000008}},{"attributes":{"ID":412238,"DIS_CODE":0,"TOWNNAME":"北區","LI":"賢北里","LIN":"3鄰","STREET":"大興街","SECT":" ","MAREA":" ","LANE":"３７３巷","ALLEY":" ","HOUSE_NO":"１９號","E_COORD97":166448.03,"N_COORD97":2545529.1800000002,"ADDRESS":"大興街３７３巷１９號","OBJECTID":412214},"geometry":{"x":166448.03000000026,"y":2545529.1800000016}},{"attributes":{"ID":412239,"DIS_CODE":0,"TOWNNAME":"北區","LI":"賢北里","LIN":"3鄰","STREET":"大興街","SECT":" ","MAREA":" ","LANE":"３７３巷","ALLEY":" ","HOUSE_NO":"１號","E_COORD97":166433.97,"N_COORD97":2545570.9500000002,"ADDRESS":"大興街３７３巷１號","OBJECTID":412215},"geometry":{"x":166433.97000000067,"y":2545570.9500000011}},{"attributes":{"ID":412240,"DIS_CODE":0,"TOWNNAME":"北區","LI":"賢北里","LIN":"3鄰","STREET":"大興街","SECT":" ","MAREA":" ","LANE":"３７３巷","ALLEY":" ","HOUSE_NO":"２０號","E_COORD97":166431.17000000001,"N_COORD97":2545523.25,"ADDRESS":"大興街３７３巷２０號","OBJECTID":412216},"geometry":{"x":166431.17000000086,"y":2545523.25}},{"attributes":{"ID":412241,"DIS_CODE":0,"TOWNNAME":"北區","LI":"賢北里","LIN":"3鄰","STREET":"大興街","SECT":" ","MAREA":" ","LANE":"３７３巷","ALLEY":" ","HOUSE_NO":"２１號","E_COORD97":166449.44,"N_COORD97":2545524.1699999999,"ADDRESS":"大興街３７３巷２１號","OBJECTID":412217},"geometry":{"x":166449.44000000227,"y":2545524.1699999999}},{"attributes":{"ID":412242,"DIS_CODE":0,"TOWNNAME":"北區","LI":"賢北里","LIN":"3鄰","STREET":"大興街","SECT":" ","MAREA":" ","LANE":"３７３巷","ALLEY":" ","HOUSE_NO":"２２號","E_COORD97":166432.14999999999,"N_COORD97":2545519.52,"ADDRESS":"大興街３７３巷２２號","OBJECTID":412218},"geometry":{"x":166432.15000000037,"y":2545519.5200000014}},{"attributes":{"ID":412243,"DIS_CODE":0,"TOWNNAME":"北區","LI":"賢北里","LIN":"3鄰","STREET":"大興街","SECT":" ","MAREA":" ","LANE":"３７３巷","ALLEY":" ","HOUSE_NO":"２４號","E_COORD97":166433.32999999999,"N_COORD97":2545515.3999999999,"ADDRESS":"大興街３７３巷２４號","OBJECTID":412219},"geometry":{"x":166433.33000000101,"y":2545515.4000000004}},{"attributes":{"ID":412244,"DIS_CODE":0,"TOWNNAME":"北區","LI":"賢北里","LIN":"3鄰","STREET":"大興街","SECT":" ","MAREA":" ","LANE":"３７３巷","ALLEY":" ","HOUSE_NO":"２６號","E_COORD97":166434.32000000001,"N_COORD97":2545511.2799999998,"ADDRESS":"大興街３７３巷２６號","OBJECTID":412220},"geometry":{"x":166434.3200000003,"y":2545511.2800000012}},{"attributes":{"ID":412245,"DIS_CODE":0,"TOWNNAME":"北區","LI":"賢北里","LIN":"3鄰","STREET":"大興街","SECT":" ","MAREA":" ","LANE":"３７３巷","ALLEY":" ","HOUSE_NO":"２８號","E_COORD97":166435.69,"N_COORD97":2545506.7599999998,"ADDRESS":"大興街３７３巷２８號","OBJECTID":412221},"geometry":{"x":166435.69000000041,"y":2545506.7599999998}},{"attributes":{"ID":412246,"DIS_CODE":0,"TOWNNAME":"北區","LI":"賢北里","LIN":"3鄰","STREET":"大興街","SECT":" ","MAREA":" ","LANE":"３７３巷","ALLEY":" ","HOUSE_NO":"２號","E_COORD97":166419.97,"N_COORD97":2545560.6499999999,"ADDRESS":"大興街３７３巷２號","OBJECTID":412222},"geometry":{"x":166419.97000000067,"y":2545560.6500000022}},{"attributes":{"ID":412247,"DIS_CODE":0,"TOWNNAME":"北區","LI":"賢北里","LIN":"3鄰","STREET":"大興街","SECT":" ","MAREA":" ","LANE":"３７３巷","ALLEY":" ","HOUSE_NO":"３０號","E_COORD97":166436.87,"N_COORD97":2545502.2400000002,"ADDRESS":"大興街３７３巷３０號","OBJECTID":412223},"geometry":{"x":166436.87000000104,"y":2545502.2400000021}},{"attributes":{"ID":412248,"DIS_CODE":0,"TOWNNAME":"北區","LI":"賢北里","LIN":"3鄰","STREET":"大興街","SECT":" ","MAREA":" ","LANE":"３７３巷","ALLEY":" ","HOUSE_NO":"３２號","E_COORD97":166437.66,"N_COORD97":2545498.71,"ADDRESS":"大興街３７３巷３２號","OBJECTID":412224},"geometry":{"x":166437.66000000108,"y":2545498.7100000046}},{"attributes":{"ID":412249,"DIS_CODE":0,"TOWNNAME":"北區","LI":"賢北里","LIN":"3鄰","STREET":"大興街","SECT":" ","MAREA":" ","LANE":"３７３巷","ALLEY":" ","HOUSE_NO":"３４號","E_COORD97":166438.45000000001,"N_COORD97":2545495.1699999999,"ADDRESS":"大興街３７３巷３４號","OBJECTID":412225},"geometry":{"x":166438.45000000019,"y":2545495.1700000018}},{"attributes":{"ID":412250,"DIS_CODE":0,"TOWNNAME":"北區","LI":"賢北里","LIN":"3鄰","STREET":"大興街","SECT":" ","MAREA":" ","LANE":"３７３巷","ALLEY":" ","HOUSE_NO":"３６號","E_COORD97":166439.42999999999,"N_COORD97":2545491.6400000001,"ADDRESS":"大興街３７３巷３６號","OBJECTID":412226},"geometry":{"x":166439.43000000063,"y":2545491.6400000006}},{"attributes":{"ID":412251,"DIS_CODE":0,"TOWNNAME":"北區","LI":"賢北里","LIN":"3鄰","STREET":"大興街","SECT":" ","MAREA":" ","LANE":"３７３巷","ALLEY":" ","HOUSE_NO":"３８號","E_COORD97":166439.82000000001,"N_COORD97":2545488.6899999999,"ADDRESS":"大興街３７３巷３８號","OBJECTID":412227},"geometry":{"x":166439.8200000003,"y":2545488.6900000013}},{"attributes":{"ID":412252,"DIS_CODE":0,"TOWNNAME":"北區","LI":"賢北里","LIN":"3鄰","STREET":"大興街","SECT":" ","MAREA":" ","LANE":"３７３巷","ALLEY":" ","HOUSE_NO":"３號","E_COORD97":166435.76999999999,"N_COORD97":2545566.7400000002,"ADDRESS":"大興街３７３巷３號","OBJECTID":412228},"geometry":{"x":166435.76999999955,"y":2545566.7400000021}},{"attributes":{"ID":412253,"DIS_CODE":0,"TOWNNAME":"北區","LI":"賢北里","LIN":"3鄰","STREET":"大興街","SECT":" ","MAREA":" ","LANE":"３７３巷","ALLEY":" ","HOUSE_NO":"６號","E_COORD97":166422.31,"N_COORD97":2545552.1200000001,"ADDRESS":"大興街３７３巷６號","OBJECTID":412229},"geometry":{"x":166422.31000000145,"y":2545552.120000001}},{"attributes":{"ID":412254,"DIS_CODE":0,"TOWNNAME":"北區","LI":"賢北里","LIN":"3鄰","STREET":"大興街","SECT":" ","MAREA":" ","LANE":"３７３巷","ALLEY":" ","HOUSE_NO":"７號","E_COORD97":166439.17999999999,"N_COORD97":2545556.73,"ADDRESS":"大興街３７３巷７號","OBJECTID":412230},"geometry":{"x":166439.18000000063,"y":2545556.7300000023}},{"attributes":{"ID":412255,"DIS_CODE":0,"TOWNNAME":"北區","LI":"賢北里","LIN":"3鄰","STREET":"大興街","SECT":" ","MAREA":" ","LANE":"３７３巷","ALLEY":" ","HOUSE_NO":"８號","E_COORD97":166423.14999999999,"N_COORD97":2545548.1099999999,"ADDRESS":"大興街３７３巷８號","OBJECTID":412231},"geometry":{"x":166423.1500000013,"y":2545548.1099999994}},{"attributes":{"ID":412256,"DIS_CODE":0,"TOWNNAME":"北區","LI":"賢北里","LIN":"3鄰","STREET":"中華北路","SECT":"一段","MAREA":" ","LANE":"１０５巷","ALLEY":" ","HOUSE_NO":"６號","E_COORD97":166484.25,"N_COORD97":2545506.3399999999,"ADDRESS":"中華北路一段１０５巷６號","OBJECTID":412232},"geometry":{"x":166484.25000000186,"y":2545506.3399999999}},{"attributes":{"ID":412257,"DIS_CODE":0,"TOWNNAME":"關廟區","LI":"北花里","LIN":"3鄰","STREET":"中正路","SECT":" ","MAREA":" ","LANE":"６５７巷","ALLEY":" ","HOUSE_NO":"１１號","E_COORD97":182033.10999999999,"N_COORD97":2540338.25,"ADDRESS":"中正路６５７巷１１號","OBJECTID":412233},"geometry":{"x":182033.11000000034,"y":2540338.2500000019}},{"attributes":{"ID":412258,"DIS_CODE":0,"TOWNNAME":"關廟區","LI":"香洋里","LIN":"3鄰","STREET":"忠孝街","SECT":" ","MAREA":" ","LANE":"１６０巷","ALLEY":" ","HOUSE_NO":"２８號","E_COORD97":181095.23000000001,"N_COORD97":2540380.7400000002,"ADDRESS":"忠孝街１６０巷２８號","OBJECTID":412234},"geometry":{"x":181095.23000000045,"y":2540380.7400000002}},{"attributes":{"ID":412259,"DIS_CODE":0,"TOWNNAME":"關廟區","LI":"深坑里","LIN":"3鄰","STREET":"深坑一街","SECT":" ","MAREA":" ","LANE":"１３巷","ALLEY":" ","HOUSE_NO":"２９號","E_COORD97":181819.47,"N_COORD97":2537622.2999999998,"ADDRESS":"深坑一街１３巷２９號","OBJECTID":412235},"geometry":{"x":181819.47000000067,"y":2537622.3000000026}},{"attributes":{"ID":412260,"DIS_CODE":0,"TOWNNAME":"關廟區","LI":"布袋里","LIN":"3鄰","STREET":"長文街","SECT":" ","MAREA":" ","LANE":"１１８巷","ALLEY":" ","HOUSE_NO":"１２號","E_COORD97":182886.34,"N_COORD97":2535460.25,"ADDRESS":"長文街１１８巷１２號","OBJECTID":412236},"geometry":{"x":182886.34000000078,"y":2535460.25}},{"attributes":{"ID":412261,"DIS_CODE":0,"TOWNNAME":"關廟區","LI":"深坑里","LIN":"3鄰","STREET":"深坑一街","SECT":" ","MAREA":" ","LANE":"１３巷","ALLEY":" ","HOUSE_NO":"１６號","E_COORD97":181836.57000000001,"N_COORD97":2537621.2799999998,"ADDRESS":"深坑一街１３巷１６號","OBJECTID":412237},"geometry":{"x":181836.5700000003,"y":2537621.2800000012}},{"attributes":{"ID":412262,"DIS_CODE":0,"TOWNNAME":"關廟區","LI":"深坑里","LIN":"3鄰","STREET":"南雄路","SECT":"一段","MAREA":" ","LANE":"４３３巷","ALLEY":" ","HOUSE_NO":"２５號","E_COORD97":181610.471009,"N_COORD97":2537532.1009900002,"ADDRESS":"南雄路一段４３３巷２５號","OBJECTID":412238},"geometry":{"x":181610.4710090002,"y":2537532.100990003}},{"attributes":{"ID":412263,"DIS_CODE":0,"TOWNNAME":"關廟區","LI":"香洋里","LIN":"3鄰","STREET":"忠孝街","SECT":" ","MAREA":" ","LANE":"１６０巷","ALLEY":" ","HOUSE_NO":"８號","E_COORD97":181125.07999999999,"N_COORD97":2540423.7400000002,"ADDRESS":"忠孝街１６０巷８號","OBJECTID":412239},"geometry":{"x":181125.08000000194,"y":2540423.7400000021}},{"attributes":{"ID":412264,"DIS_CODE":0,"TOWNNAME":"關廟區","LI":"香洋里","LIN":"3鄰","STREET":"忠孝街","SECT":" ","MAREA":" ","LANE":"１６０巷","ALLEY":" ","HOUSE_NO":"６號","E_COORD97":181106.98000000001,"N_COORD97":2540434.7400000002,"ADDRESS":"忠孝街１６０巷６號","OBJECTID":412240},"geometry":{"x":181106.98000000045,"y":2540434.7400000002}},{"attributes":{"ID":412265,"DIS_CODE":0,"TOWNNAME":"關廟區","LI":"南花里","LIN":"3鄰","STREET":"四維街","SECT":" ","MAREA":" ","LANE":"２８８巷","ALLEY":" ","HOUSE_NO":"１１號","E_COORD97":181901.81,"N_COORD97":2540104.25,"ADDRESS":"四維街２８８巷１１號","OBJECTID":412241},"geometry":{"x":181901.81000000052,"y":2540104.2500000019}},{"attributes":{"ID":412266,"DIS_CODE":0,"TOWNNAME":"東區","LI":"大智里","LIN":"40鄰","STREET":"文東街","SECT":" ","MAREA":" ","LANE":"２巷","ALLEY":" ","HOUSE_NO":"７號","E_COORD97":171332.32000000001,"N_COORD97":2540131.1699999999,"ADDRESS":"文東街２巷７號","OBJECTID":412242},"geometry":{"x":171332.32000000216,"y":2540131.1700000018}},{"attributes":{"ID":412267,"DIS_CODE":0,"TOWNNAME":"關廟區","LI":"香洋里","LIN":"3鄰","STREET":"忠孝街","SECT":" ","MAREA":" ","LANE":"１８０巷","ALLEY":" ","HOUSE_NO":"１６號","E_COORD97":181124.59,"N_COORD97":2540464.25,"ADDRESS":"忠孝街１８０巷１６號","OBJECTID":412243},"geometry":{"x":181124.58999999985,"y":2540464.2500000019}},{"attributes":{"ID":412268,"DIS_CODE":0,"TOWNNAME":"關廟區","LI":"香洋里","LIN":"3鄰","STREET":"忠孝街","SECT":" ","MAREA":" ","LANE":"１６０巷","ALLEY":" ","HOUSE_NO":"３號","E_COORD97":181100.34,"N_COORD97":2540455.25,"ADDRESS":"忠孝街１６０巷３號","OBJECTID":412244},"geometry":{"x":181100.33999999985,"y":2540455.25}},{"attributes":{"ID":412269,"DIS_CODE":0,"TOWNNAME":"關廟區","LI":"深坑里","LIN":"3鄰","STREET":"南雄路","SECT":"一段","MAREA":" ","LANE":"３９８巷","ALLEY":" ","HOUSE_NO":"８號","E_COORD97":181773.76999999999,"N_COORD97":2537615.2999999998,"ADDRESS":"南雄路一段３９８巷８號","OBJECTID":412245},"geometry":{"x":181773.76999999955,"y":2537615.3000000045}},{"attributes":{"ID":412270,"DIS_CODE":0,"TOWNNAME":"關廟區","LI":"五甲里","LIN":"3鄰","STREET":"南雄路","SECT":"一段","MAREA":" ","LANE":"７９０巷","ALLEY":" ","HOUSE_NO":"６號","E_COORD97":181520.79000000001,"N_COORD97":2538994.2799999998,"ADDRESS":"南雄路一段７９０巷６號","OBJECTID":412246},"geometry":{"x":181520.79000000097,"y":2538994.2800000012}},{"attributes":{"ID":412271,"DIS_CODE":0,"TOWNNAME":"關廟區","LI":"北花里","LIN":"3鄰","STREET":"中正路","SECT":" ","MAREA":" ","LANE":"６５７巷","ALLEY":" ","HOUSE_NO":"９號","E_COORD97":182037.56,"N_COORD97":2540340.25,"ADDRESS":"中正路６５７巷９號","OBJECTID":412247},"geometry":{"x":182037.56000000052,"y":2540340.25}},{"attributes":{"ID":412272,"DIS_CODE":0,"TOWNNAME":"關廟區","LI":"南花里","LIN":"3鄰","STREET":"四維街","SECT":" ","MAREA":" ","LANE":"３０２巷","ALLEY":" ","HOUSE_NO":"６號","E_COORD97":181885.56,"N_COORD97":2540124.25,"ADDRESS":"四維街３０２巷６號","OBJECTID":412248},"geometry":{"x":181885.55999999959,"y":2540124.2500000019}},{"attributes":{"ID":412273,"DIS_CODE":0,"TOWNNAME":"關廟區","LI":"埤頭里","LIN":"3鄰","STREET":"保東路","SECT":" ","MAREA":" ","LANE":"８５巷","ALLEY":" ","HOUSE_NO":"５１號","E_COORD97":178959.26999999999,"N_COORD97":2543898.25,"ADDRESS":"保東路８５巷５１號","OBJECTID":412249},"geometry":{"x":178959.27000000048,"y":2543898.2500000019}},{"attributes":{"ID":412274,"DIS_CODE":0,"TOWNNAME":"關廟區","LI":"北花里","LIN":"3鄰","STREET":"中正路","SECT":" ","MAREA":" ","LANE":"６５７巷","ALLEY":" ","HOUSE_NO":"２號","E_COORD97":182029.95999999999,"N_COORD97":2540353.25,"ADDRESS":"中正路６５７巷２號","OBJECTID":412250},"geometry":{"x":182029.96000000089,"y":2540353.25}},{"attributes":{"ID":412275,"DIS_CODE":0,"TOWNNAME":"關廟區","LI":"香洋里","LIN":"3鄰","STREET":"忠孝街","SECT":" ","MAREA":" ","LANE":"１６０巷","ALLEY":" ","HOUSE_NO":"２６號","E_COORD97":181111.73000000001,"N_COORD97":2540382.7400000002,"ADDRESS":"忠孝街１６０巷２６號","OBJECTID":412251},"geometry":{"x":181111.73000000138,"y":2540382.7400000021}},{"attributes":{"ID":412276,"DIS_CODE":0,"TOWNNAME":"關廟區","LI":"北花里","LIN":"3鄰","STREET":"旺萊路","SECT":" ","MAREA":" ","LANE":"５８１巷","ALLEY":" ","HOUSE_NO":"３號","E_COORD97":182201.64000000001,"N_COORD97":2540307.25,"ADDRESS":"旺萊路５８１巷３號","OBJECTID":412252},"geometry":{"x":182201.63999999966,"y":2540307.2500000019}},{"attributes":{"ID":412277,"DIS_CODE":0,"TOWNNAME":"關廟區","LI":"東勢里","LIN":"3鄰","STREET":"東安街","SECT":" ","MAREA":" ","LANE":"２４５巷","ALLEY":" ","HOUSE_NO":"８１號","E_COORD97":181653.92000000001,"N_COORD97":2539538.3199999998,"ADDRESS":"東安街２４５巷８１號","OBJECTID":412253},"geometry":{"x":181653.92000000086,"y":2539538.3200000022}},{"attributes":{"ID":412278,"DIS_CODE":0,"TOWNNAME":"關廟區","LI":"南花里","LIN":"3鄰","STREET":"四維街","SECT":" ","MAREA":" ","LANE":"２８８巷","ALLEY":" ","HOUSE_NO":"１號","E_COORD97":181877.16,"N_COORD97":2540092.25,"ADDRESS":"四維街２８８巷１號","OBJECTID":412254},"geometry":{"x":181877.16000000015,"y":2540092.25}},{"attributes":{"ID":412279,"DIS_CODE":0,"TOWNNAME":"關廟區","LI":"香洋里","LIN":"3鄰","STREET":"忠孝街","SECT":" ","MAREA":" ","LANE":"１６０巷","ALLEY":" ","HOUSE_NO":"１６號","E_COORD97":181120.13,"N_COORD97":2540405.7400000002,"ADDRESS":"忠孝街１６０巷１６號","OBJECTID":412255},"geometry":{"x":181120.13000000082,"y":2540405.7400000021}},{"attributes":{"ID":412280,"DIS_CODE":0,"TOWNNAME":"關廟區","LI":"北花里","LIN":"3鄰","STREET":"中正路","SECT":" ","MAREA":" ","LANE":"６５７巷","ALLEY":" ","HOUSE_NO":"１號","E_COORD97":182052.16,"N_COORD97":2540345.25,"ADDRESS":"中正路６５７巷１號","OBJECTID":412256},"geometry":{"x":182052.16000000108,"y":2540345.2500000019}},{"attributes":{"ID":412281,"DIS_CODE":0,"TOWNNAME":"關廟區","LI":"龜洞里","LIN":"3鄰","STREET":"中崙街","SECT":" ","MAREA":" ","LANE":"１１巷","ALLEY":" ","HOUSE_NO":"２８號","E_COORD97":183276.73999999999,"N_COORD97":2533530.25,"ADDRESS":"中崙街１１巷２８號","OBJECTID":412257},"geometry":{"x":183276.74000000022,"y":2533530.2500000019}},{"attributes":{"ID":412282,"DIS_CODE":0,"TOWNNAME":"關廟區","LI":"北花里","LIN":"3鄰","STREET":"旺萊路","SECT":" ","MAREA":" ","LANE":"５８１巷","ALLEY":" ","HOUSE_NO":"３６號","E_COORD97":182164.09,"N_COORD97":2540329.25,"ADDRESS":"旺萊路５８１巷３６號","OBJECTID":412258},"geometry":{"x":182164.09000000078,"y":2540329.25}},{"attributes":{"ID":412283,"DIS_CODE":0,"TOWNNAME":"關廟區","LI":"布袋里","LIN":"3鄰","STREET":"長文街","SECT":" ","MAREA":" ","LANE":"１３０巷","ALLEY":" ","HOUSE_NO":"３２號","E_COORD97":182823.23999999999,"N_COORD97":2535579.2999999998,"ADDRESS":"長文街１３０巷３２號","OBJECTID":412259},"geometry":{"x":182823.24000000115,"y":2535579.3000000007}},{"attributes":{"ID":412284,"DIS_CODE":0,"TOWNNAME":"關廟區","LI":"深坑里","LIN":"3鄰","STREET":"南雄路","SECT":"一段","MAREA":" ","LANE":"３９８巷","ALLEY":" ","HOUSE_NO":"６號","E_COORD97":181772.67000000001,"N_COORD97":2537624.2999999998,"ADDRESS":"南雄路一段３９８巷６號","OBJECTID":412260},"geometry":{"x":181772.67000000086,"y":2537624.3000000007}},{"attributes":{"ID":412285,"DIS_CODE":0,"TOWNNAME":"關廟區","LI":"布袋里","LIN":"3鄰","STREET":"長文街","SECT":" ","MAREA":" ","LANE":"１３０巷","ALLEY":" ","HOUSE_NO":"２５號","E_COORD97":182817.38,"N_COORD97":2535528.98,"ADDRESS":"長文街１３０巷２５號","OBJECTID":412261},"geometry":{"x":182817.37999999989,"y":2535528.9800000023}},{"attributes":{"ID":412286,"DIS_CODE":0,"TOWNNAME":"新營區","LI":"南紙里","LIN":"3鄰","STREET":"太子路","SECT":" ","MAREA":" ","LANE":"１５３巷","ALLEY":" ","HOUSE_NO":"７號","E_COORD97":177937.01999999999,"N_COORD97":2577831.75,"ADDRESS":"太子路１５３巷７號","OBJECTID":412262},"geometry":{"x":177937.02000000048,"y":2577831.7500000019}},{"attributes":{"ID":412287,"DIS_CODE":0,"TOWNNAME":"新營區","LI":"忠政里","LIN":"3鄰","STREET":"中正路","SECT":" ","MAREA":" ","LANE":"３７巷","ALLEY":" ","HOUSE_NO":"７號之１","E_COORD97":180055.54000000001,"N_COORD97":2579128.4399999999,"ADDRESS":"中正路３７巷７號之１","OBJECTID":412263},"geometry":{"x":180055.53999999911,"y":2579128.4400000013}},{"attributes":{"ID":412288,"DIS_CODE":0,"TOWNNAME":"新營區","LI":"新東里","LIN":"3鄰","STREET":"東大街","SECT":" ","MAREA":" ","LANE":"１２巷","ALLEY":" ","HOUSE_NO":"１９號","E_COORD97":181062.79000000001,"N_COORD97":2579056.1200000001,"ADDRESS":"東大街１２巷１９號","OBJECTID":412264},"geometry":{"x":181062.79000000097,"y":2579056.120000001}},{"attributes":{"ID":412289,"DIS_CODE":0,"TOWNNAME":"新化區","LI":"東榮里","LIN":"3鄰","STREET":"中興路","SECT":" ","MAREA":" ","LANE":"１０４巷","ALLEY":" ","HOUSE_NO":"９２號","E_COORD97":181883.85999999999,"N_COORD97":2547460.25,"ADDRESS":"中興路１０４巷９２號","OBJECTID":412265},"geometry":{"x":181883.86000000034,"y":2547460.2499999981}},{"attributes":{"ID":412290,"DIS_CODE":0,"TOWNNAME":"新化區","LI":"協興里","LIN":"3鄰","STREET":"忠孝路","SECT":" ","MAREA":" ","LANE":"２４３巷","ALLEY":" ","HOUSE_NO":"１號","E_COORD97":178496.12,"N_COORD97":2548572.25,"ADDRESS":"忠孝路２４３巷１號","OBJECTID":412266},"geometry":{"x":178496.12000000104,"y":2548572.2499999981}},{"attributes":{"ID":412291,"DIS_CODE":0,"TOWNNAME":"新化區","LI":"東榮里","LIN":"3鄰","STREET":"中興路","SECT":" ","MAREA":" ","LANE":"１０４巷","ALLEY":" ","HOUSE_NO":"８８號","E_COORD97":181891.66,"N_COORD97":2547461.25,"ADDRESS":"中興路１０４巷８８號","OBJECTID":412267},"geometry":{"x":181891.66000000108,"y":2547461.2500000019}},{"attributes":{"ID":412292,"DIS_CODE":0,"TOWNNAME":"新化區","LI":"太平里","LIN":"3鄰","STREET":"太平街","SECT":" ","MAREA":" ","LANE":"１巷","ALLEY":" ","HOUSE_NO":"１６號之３","E_COORD97":179057.32000000001,"N_COORD97":2548794.2599999998,"ADDRESS":"太平街１巷１６號之３","OBJECTID":412268},"geometry":{"x":179057.32000000216,"y":2548794.2599999998}},{"attributes":{"ID":412293,"DIS_CODE":0,"TOWNNAME":"新化區","LI":"協興里","LIN":"3鄰","STREET":"忠孝路","SECT":" ","MAREA":" ","LANE":"２４３巷","ALLEY":" ","HOUSE_NO":"１５號","E_COORD97":178495.87,"N_COORD97":2548540.25,"ADDRESS":"忠孝路２４３巷１５號","OBJECTID":412269},"geometry":{"x":178495.87000000104,"y":2548540.25}},{"attributes":{"ID":412294,"DIS_CODE":0,"TOWNNAME":"新化區","LI":"協興里","LIN":"3鄰","STREET":"忠孝路","SECT":" ","MAREA":" ","LANE":"２４３巷","ALLEY":" ","HOUSE_NO":"１０號","E_COORD97":178482.97,"N_COORD97":2548547.25,"ADDRESS":"忠孝路２４３巷１０號","OBJECTID":412270},"geometry":{"x":178482.97000000067,"y":2548547.25}},{"attributes":{"ID":412295,"DIS_CODE":0,"TOWNNAME":"新化區","LI":"東榮里","LIN":"3鄰","STREET":"中興路","SECT":" ","MAREA":" ","LANE":"１０４巷","ALLEY":" ","HOUSE_NO":"６８號","E_COORD97":181929.95999999999,"N_COORD97":2547463.25,"ADDRESS":"中興路１０４巷６８號","OBJECTID":412271},"geometry":{"x":181929.96000000089,"y":2547463.25}},{"attributes":{"ID":412296,"DIS_CODE":0,"TOWNNAME":"新化區","LI":"觀音里","LIN":"3鄰","STREET":"仁愛街","SECT":" ","MAREA":" ","LANE":"６５巷","ALLEY":" ","HOUSE_NO":"２４號","E_COORD97":178959.73000000001,"N_COORD97":2548506.25,"ADDRESS":"仁愛街６５巷２４號","OBJECTID":412272},"geometry":{"x":178959.73000000231,"y":2548506.2500000019}},{"attributes":{"ID":412297,"DIS_CODE":0,"TOWNNAME":"新化區","LI":"武安里","LIN":"3鄰","STREET":"中正路","SECT":" ","MAREA":" ","LANE":"３０７巷","ALLEY":" ","HOUSE_NO":"４號之２","E_COORD97":179102.66,"N_COORD97":2548129.2599999998,"ADDRESS":"中正路３０７巷４號之２","OBJECTID":412273},"geometry":{"x":179102.66000000108,"y":2548129.2600000016}},{"attributes":{"ID":412298,"DIS_CODE":0,"TOWNNAME":"南區","LI":"佛壇里","LIN":"3鄰","STREET":"興南街","SECT":" ","MAREA":" ","LANE":"１８４巷","ALLEY":" ","HOUSE_NO":"４１號","E_COORD97":165998.64999999999,"N_COORD97":2535941.2999999998,"ADDRESS":"興南街１８４巷４１號","OBJECTID":412274},"geometry":{"x":165998.64999999944,"y":2535941.3000000026}},{"attributes":{"ID":412299,"DIS_CODE":0,"TOWNNAME":"北區","LI":"玉皇里","LIN":"13鄰","STREET":"公園路","SECT":" ","MAREA":" ","LANE":" ","ALLEY":" ","HOUSE_NO":"２０５號之１","E_COORD97":168776.57000000001,"N_COORD97":2544441.7599999998,"ADDRESS":"公園路２０５號之１","OBJECTID":412275},"geometry":{"x":168776.57000000123,"y":2544441.7599999998}},{"attributes":{"ID":412300,"DIS_CODE":0,"TOWNNAME":"東區","LI":"大智里","LIN":"40鄰","STREET":"文東街","SECT":" ","MAREA":" ","LANE":"２巷","ALLEY":" ","HOUSE_NO":"８號","E_COORD97":171331.78,"N_COORD97":2540135.21,"ADDRESS":"文東街２巷８號","OBJECTID":412276},"geometry":{"x":171331.78000000026,"y":2540135.2100000046}},{"attributes":{"ID":412301,"DIS_CODE":0,"TOWNNAME":"南區","LI":"佛壇里","LIN":"3鄰","STREET":"興南街","SECT":" ","MAREA":" ","LANE":"１８４巷","ALLEY":" ","HOUSE_NO":"４３號","E_COORD97":165984.14000000001,"N_COORD97":2535934.4199999999,"ADDRESS":"興南街１８４巷４３號","OBJECTID":412277},"geometry":{"x":165984.13999999966,"y":2535934.4199999999}},{"attributes":{"ID":412302,"DIS_CODE":0,"TOWNNAME":"南區","LI":"佛壇里","LIN":"3鄰","STREET":"興南街","SECT":" ","MAREA":" ","LANE":"１８４巷","ALLEY":" ","HOUSE_NO":"４５號","E_COORD97":165969.26999999999,"N_COORD97":2535929.0299999998,"ADDRESS":"興南街１８４巷４５號","OBJECTID":412278},"geometry":{"x":165969.26999999955,"y":2535929.0299999993}},{"attributes":{"ID":412303,"DIS_CODE":0,"TOWNNAME":"南區","LI":"佛壇里","LIN":"3鄰","STREET":"興南街","SECT":" ","MAREA":" ","LANE":"１８４巷","ALLEY":" ","HOUSE_NO":"４７號","E_COORD97":165965.28,"N_COORD97":2535941.4399999999,"ADDRESS":"興南街１８４巷４７號","OBJECTID":412279},"geometry":{"x":165965.28000000026,"y":2535941.4400000032}},{"attributes":{"ID":412304,"DIS_CODE":0,"TOWNNAME":"南區","LI":"佛壇里","LIN":"3鄰","STREET":"興南街","SECT":" ","MAREA":" ","LANE":"１８４巷","ALLEY":" ","HOUSE_NO":"４９號","E_COORD97":165979.04000000001,"N_COORD97":2535948.9700000002,"ADDRESS":"興南街１８４巷４９號","OBJECTID":412280},"geometry":{"x":165979.04000000097,"y":2535948.9700000007}},{"attributes":{"ID":412305,"DIS_CODE":0,"TOWNNAME":"南區","LI":"佛壇里","LIN":"3鄰","STREET":"興南街","SECT":" ","MAREA":" ","LANE":"１８４巷","ALLEY":" ","HOUSE_NO":"５１號","E_COORD97":165986.34,"N_COORD97":2535954.3599999999,"ADDRESS":"興南街１８４巷５１號","OBJECTID":412281},"geometry":{"x":165986.33999999985,"y":2535954.3599999994}},{"attributes":{"ID":412306,"DIS_CODE":0,"TOWNNAME":"南區","LI":"佛壇里","LIN":"3鄰","STREET":"興南街","SECT":" ","MAREA":" ","LANE":"１８４巷","ALLEY":" ","HOUSE_NO":"５２號","E_COORD97":166009.26999999999,"N_COORD97":2535958.6000000001,"ADDRESS":"興南街１８４巷５２號","OBJECTID":412282},"geometry":{"x":166009.27000000048,"y":2535958.6000000015}},{"attributes":{"ID":412307,"DIS_CODE":0,"TOWNNAME":"南區","LI":"佛壇里","LIN":"3鄰","STREET":"興南街","SECT":" ","MAREA":" ","LANE":"１８４巷","ALLEY":" ","HOUSE_NO":"５４號","E_COORD97":166013.51999999999,"N_COORD97":2535959.48,"ADDRESS":"興南街１８４巷５４號","OBJECTID":412283},"geometry":{"x":166013.51999999955,"y":2535959.4800000023}},{"attributes":{"ID":412308,"DIS_CODE":0,"TOWNNAME":"南區","LI":"佛壇里","LIN":"3鄰","STREET":"興南街","SECT":" ","MAREA":" ","LANE":"１８４巷","ALLEY":" ","HOUSE_NO":"５６號","E_COORD97":166011.07000000001,"N_COORD97":2535965.7000000002,"ADDRESS":"興南街１８４巷５６號","OBJECTID":412284},"geometry":{"x":166011.07000000216,"y":2535965.6999999993}},{"attributes":{"ID":412309,"DIS_CODE":0,"TOWNNAME":"南區","LI":"佛壇里","LIN":"3鄰","STREET":"興南街","SECT":" ","MAREA":" ","LANE":"１８４巷","ALLEY":" ","HOUSE_NO":"５８號","E_COORD97":166001.76000000001,"N_COORD97":2535972.3399999999,"ADDRESS":"興南街１８４巷５８號","OBJECTID":412285},"geometry":{"x":166001.75999999978,"y":2535972.3399999999}},{"attributes":{"ID":412310,"DIS_CODE":0,"TOWNNAME":"南區","LI":"佛壇里","LIN":"3鄰","STREET":"興南街","SECT":" ","MAREA":" ","LANE":"１８４巷","ALLEY":" ","HOUSE_NO":"６０號","E_COORD97":166004.64000000001,"N_COORD97":2535975.4399999999,"ADDRESS":"興南街１８４巷６０號","OBJECTID":412286},"geometry":{"x":166004.63999999966,"y":2535975.4400000032}},{"attributes":{"ID":412311,"DIS_CODE":0,"TOWNNAME":"南區","LI":"佛壇里","LIN":"3鄰","STREET":"興南街","SECT":" ","MAREA":" ","LANE":"１８４巷","ALLEY":" ","HOUSE_NO":"６２號","E_COORD97":166007.97,"N_COORD97":2535977.8799999999,"ADDRESS":"興南街１８４巷６２號","OBJECTID":412287},"geometry":{"x":166007.97000000067,"y":2535977.879999999}},{"attributes":{"ID":412312,"DIS_CODE":0,"TOWNNAME":"南區","LI":"佛壇里","LIN":"3鄰","STREET":"興南街","SECT":" ","MAREA":" ","LANE":"１８４巷","ALLEY":" ","HOUSE_NO":"６４號","E_COORD97":166013.07000000001,"N_COORD97":2535987.8500000001,"ADDRESS":"興南街１８４巷６４號","OBJECTID":412288},"geometry":{"x":166013.07000000123,"y":2535987.8500000015}},{"attributes":{"ID":412313,"DIS_CODE":0,"TOWNNAME":"南區","LI":"佛壇里","LIN":"3鄰","STREET":"興南街","SECT":" ","MAREA":" ","LANE":"１８４巷","ALLEY":" ","HOUSE_NO":"６９號","E_COORD97":165971.20000000001,"N_COORD97":2536007.21,"ADDRESS":"興南街１８４巷６９號","OBJECTID":412289},"geometry":{"x":165971.20000000205,"y":2536007.2100000028}},{"attributes":{"ID":412314,"DIS_CODE":0,"TOWNNAME":"南區","LI":"佛壇里","LIN":"3鄰","STREET":"興南街","SECT":" ","MAREA":" ","LANE":"１８４巷","ALLEY":" ","HOUSE_NO":"７０號","E_COORD97":165993.45999999999,"N_COORD97":2536006.52,"ADDRESS":"興南街１８４巷７０號","OBJECTID":412290},"geometry":{"x":165993.46000000089,"y":2536006.5200000014}},{"attributes":{"ID":412315,"DIS_CODE":0,"TOWNNAME":"南區","LI":"佛壇里","LIN":"3鄰","STREET":"灣裡路","SECT":" ","MAREA":" ","LANE":"２８２巷","ALLEY":" ","HOUSE_NO":"１４６號","E_COORD97":166019.07999999999,"N_COORD97":2535994.04,"ADDRESS":"灣裡路２８２巷１４６號","OBJECTID":412291},"geometry":{"x":166019.08000000007,"y":2535994.0399999991}},{"attributes":{"ID":412316,"DIS_CODE":0,"TOWNNAME":"南區","LI":"佛壇里","LIN":"3鄰","STREET":"灣裡路","SECT":" ","MAREA":" ","LANE":"２８２巷","ALLEY":" ","HOUSE_NO":"１４８號","E_COORD97":166024.69,"N_COORD97":2535985.29,"ADDRESS":"灣裡路２８２巷１４８號","OBJECTID":412292},"geometry":{"x":166024.69000000134,"y":2535985.2899999991}},{"attributes":{"ID":412317,"DIS_CODE":0,"TOWNNAME":"南區","LI":"廣州里","LIN":"3鄰","STREET":"夏林路","SECT":" ","MAREA":" ","LANE":"１０４巷","ALLEY":" ","HOUSE_NO":"１號","E_COORD97":167427.04000000001,"N_COORD97":2542554.7599999998,"ADDRESS":"夏林路１０４巷１號","OBJECTID":412293},"geometry":{"x":167427.04000000097,"y":2542554.7600000016}},{"attributes":{"ID":412318,"DIS_CODE":0,"TOWNNAME":"南區","LI":"廣州里","LIN":"3鄰","STREET":"夏林路","SECT":" ","MAREA":" ","LANE":"１０４巷","ALLEY":" ","HOUSE_NO":"３號","E_COORD97":167422.39999999999,"N_COORD97":2542553.9199999999,"ADDRESS":"夏林路１０４巷３號","OBJECTID":412294},"geometry":{"x":167422.40000000037,"y":2542553.9200000018}},{"attributes":{"ID":412319,"DIS_CODE":0,"TOWNNAME":"南區","LI":"廣州里","LIN":"3鄰","STREET":"夏林路","SECT":" ","MAREA":" ","LANE":"１０４巷","ALLEY":" ","HOUSE_NO":"５號","E_COORD97":167418.17000000001,"N_COORD97":2542554.7599999998,"ADDRESS":"夏林路１０４巷５號","OBJECTID":412295},"geometry":{"x":167418.16999999993,"y":2542554.7600000016}},{"attributes":{"ID":412320,"DIS_CODE":0,"TOWNNAME":"南區","LI":"廣州里","LIN":"3鄰","STREET":"夏林路","SECT":" ","MAREA":" ","LANE":"１０４巷","ALLEY":" ","HOUSE_NO":"７號","E_COORD97":167413.95000000001,"N_COORD97":2542553.4900000002,"ADDRESS":"夏林路１０４巷７號","OBJECTID":412296},"geometry":{"x":167413.95000000112,"y":2542553.4900000021}},{"attributes":{"ID":412321,"DIS_CODE":0,"TOWNNAME":"南區","LI":"廣州里","LIN":"3鄰","STREET":"健康路","SECT":"二段","MAREA":" ","LANE":"１１６巷","ALLEY":" ","HOUSE_NO":"１０號","E_COORD97":167411.42000000001,"N_COORD97":2542513.02,"ADDRESS":"健康路二段１１６巷１０號","OBJECTID":412297},"geometry":{"x":167411.41999999993,"y":2542513.0200000014}},{"attributes":{"ID":412322,"DIS_CODE":0,"TOWNNAME":"南區","LI":"廣州里","LIN":"3鄰","STREET":"健康路","SECT":"二段","MAREA":" ","LANE":"１１６巷","ALLEY":" ","HOUSE_NO":"１２號","E_COORD97":167420.70999999999,"N_COORD97":2542518.5,"ADDRESS":"健康路二段１１６巷１２號","OBJECTID":412298},"geometry":{"x":167420.71000000089,"y":2542518.5}},{"attributes":{"ID":412323,"DIS_CODE":0,"TOWNNAME":"南區","LI":"廣州里","LIN":"3鄰","STREET":"健康路","SECT":"二段","MAREA":" ","LANE":"１１６巷","ALLEY":" ","HOUSE_NO":"１４號","E_COORD97":167428.31,"N_COORD97":2542515.1200000001,"ADDRESS":"健康路二段１１６巷１４號","OBJECTID":412299},"geometry":{"x":167428.31000000052,"y":2542515.120000001}},{"attributes":{"ID":412324,"DIS_CODE":0,"TOWNNAME":"南區","LI":"廣州里","LIN":"3鄰","STREET":"健康路","SECT":"二段","MAREA":" ","LANE":"１１６巷","ALLEY":" ","HOUSE_NO":"１６號","E_COORD97":167432.95000000001,"N_COORD97":2542512.1699999999,"ADDRESS":"健康路二段１１６巷１６號","OBJECTID":412300},"geometry":{"x":167432.95000000112,"y":2542512.1700000018}},{"attributes":{"ID":412325,"DIS_CODE":0,"TOWNNAME":"南區","LI":"廣州里","LIN":"3鄰","STREET":"健康路","SECT":"二段","MAREA":" ","LANE":"１１６巷","ALLEY":" ","HOUSE_NO":"３號","E_COORD97":167394.45000000001,"N_COORD97":2542505,"ADDRESS":"健康路二段１１６巷３號","OBJECTID":412301},"geometry":{"x":167394.45000000019,"y":2542505}},{"attributes":{"ID":412326,"DIS_CODE":0,"TOWNNAME":"南區","LI":"廣州里","LIN":"3鄰","STREET":"健康路","SECT":"二段","MAREA":" ","LANE":"１１６巷","ALLEY":" ","HOUSE_NO":"４號","E_COORD97":167413.95000000001,"N_COORD97":2542499.52,"ADDRESS":"健康路二段１１６巷４號","OBJECTID":412302},"geometry":{"x":167413.95000000112,"y":2542499.5200000014}},{"attributes":{"ID":412327,"DIS_CODE":0,"TOWNNAME":"南區","LI":"廣州里","LIN":"3鄰","STREET":"健康路","SECT":"二段","MAREA":" ","LANE":"１１６巷","ALLEY":" ","HOUSE_NO":"５號","E_COORD97":167396.14000000001,"N_COORD97":2542508.3799999999,"ADDRESS":"健康路二段１１６巷５號","OBJECTID":412303},"geometry":{"x":167396.13999999966,"y":2542508.3800000027}},{"attributes":{"ID":412328,"DIS_CODE":0,"TOWNNAME":"南區","LI":"廣州里","LIN":"3鄰","STREET":"健康路","SECT":"二段","MAREA":" ","LANE":"１１６巷","ALLEY":" ","HOUSE_NO":"６號","E_COORD97":167413.53,"N_COORD97":2542503.7400000002,"ADDRESS":"健康路二段１１６巷６號","OBJECTID":412304},"geometry":{"x":167413.53000000119,"y":2542503.7399999984}},{"attributes":{"ID":412329,"DIS_CODE":0,"TOWNNAME":"南區","LI":"廣州里","LIN":"3鄰","STREET":"健康路","SECT":"二段","MAREA":" ","LANE":"１１６巷","ALLEY":" ","HOUSE_NO":"８號","E_COORD97":167411.84,"N_COORD97":2542507.96,"ADDRESS":"健康路二段１１６巷８號","OBJECTID":412305},"geometry":{"x":167411.83999999985,"y":2542507.9600000028}},{"attributes":{"ID":412330,"DIS_CODE":0,"TOWNNAME":"南區","LI":"廣州里","LIN":"3鄰","STREET":"健康路","SECT":"二段","MAREA":" ","LANE":"１５０巷","ALLEY":" ","HOUSE_NO":"１０號","E_COORD97":167345.48000000001,"N_COORD97":2542508.7999999998,"ADDRESS":"健康路二段１５０巷１０號","OBJECTID":412306},"geometry":{"x":167345.48000000045,"y":2542508.8000000026}},{"attributes":{"ID":412331,"DIS_CODE":0,"TOWNNAME":"南區","LI":"廣州里","LIN":"3鄰","STREET":"健康路","SECT":"二段","MAREA":" ","LANE":"１５０巷","ALLEY":" ","HOUSE_NO":"１２號","E_COORD97":167348.42999999999,"N_COORD97":2542513.4399999999,"ADDRESS":"健康路二段１５０巷１２號","OBJECTID":412307},"geometry":{"x":167348.4299999997,"y":2542513.4400000013}},{"attributes":{"ID":412332,"DIS_CODE":0,"TOWNNAME":"北區","LI":"玉皇里","LIN":"13鄰","STREET":"公園路","SECT":" ","MAREA":" ","LANE":" ","ALLEY":" ","HOUSE_NO":"２０７號","E_COORD97":168778.53,"N_COORD97":2544448.02,"ADDRESS":"公園路２０７號","OBJECTID":412308},"geometry":{"x":168778.53000000119,"y":2544448.0200000014}},{"attributes":{"ID":412333,"DIS_CODE":0,"TOWNNAME":"南區","LI":"廣州里","LIN":"3鄰","STREET":"健康路","SECT":"二段","MAREA":" ","LANE":"１５０巷","ALLEY":" ","HOUSE_NO":"２號","E_COORD97":167338.29999999999,"N_COORD97":2542494.46,"ADDRESS":"健康路二段１５０巷２號","OBJECTID":412309},"geometry":{"x":167338.30000000075,"y":2542494.4600000028}},{"attributes":{"ID":412334,"DIS_CODE":0,"TOWNNAME":"南區","LI":"廣州里","LIN":"3鄰","STREET":"健康路","SECT":"二段","MAREA":" ","LANE":"１５０巷","ALLEY":" ","HOUSE_NO":"６號","E_COORD97":167343.37,"N_COORD97":2542500.79,"ADDRESS":"健康路二段１５０巷６號","OBJECTID":412310},"geometry":{"x":167343.37000000104,"y":2542500.7899999991}},{"attributes":{"ID":412335,"DIS_CODE":0,"TOWNNAME":"南區","LI":"廣州里","LIN":"3鄰","STREET":"健康路","SECT":"二段","MAREA":" ","LANE":"１５０巷","ALLEY":" ","HOUSE_NO":"８號","E_COORD97":167345.89999999999,"N_COORD97":2542504.5800000001,"ADDRESS":"健康路二段１５０巷８號","OBJECTID":412311},"geometry":{"x":167345.90000000037,"y":2542504.5800000001}},{"attributes":{"ID":412336,"DIS_CODE":0,"TOWNNAME":"歸仁區","LI":"文化里","LIN":"3鄰","STREET":"國光街","SECT":" ","MAREA":" ","LANE":"１４３巷","ALLEY":" ","HOUSE_NO":"２６號","E_COORD97":177256.64000000001,"N_COORD97":2541219.25,"ADDRESS":"國光街１４３巷２６號","OBJECTID":412312},"geometry":{"x":177256.6400000006,"y":2541219.2500000019}},{"attributes":{"ID":412337,"DIS_CODE":0,"TOWNNAME":"歸仁區","LI":"南興里","LIN":"3鄰","STREET":"文化十二街","SECT":" ","MAREA":" ","LANE":"７１巷","ALLEY":" ","HOUSE_NO":"１７號","E_COORD97":176412.84,"N_COORD97":2541337.3300000001,"ADDRESS":"文化十二街７１巷１７號","OBJECTID":412313},"geometry":{"x":176412.84000000078,"y":2541337.3300000019}},{"attributes":{"ID":412338,"DIS_CODE":0,"TOWNNAME":"歸仁區","LI":"西埔里","LIN":"3鄰","STREET":"保大路","SECT":"二段","MAREA":" ","LANE":"１１１巷","ALLEY":" ","HOUSE_NO":"３４號","E_COORD97":177020.01999999999,"N_COORD97":2544043.2799999998,"ADDRESS":"保大路二段１１１巷３４號","OBJECTID":412314},"geometry":{"x":177020.02000000048,"y":2544043.2800000012}},{"attributes":{"ID":412339,"DIS_CODE":0,"TOWNNAME":"歸仁區","LI":"南興里","LIN":"3鄰","STREET":"文化十二街","SECT":" ","MAREA":" ","LANE":"７１巷","ALLEY":" ","HOUSE_NO":"１３號","E_COORD97":176420.04000000001,"N_COORD97":2541337.3300000001,"ADDRESS":"文化十二街７１巷１３號","OBJECTID":412315},"geometry":{"x":176420.04000000097,"y":2541337.3300000019}},{"attributes":{"ID":412340,"DIS_CODE":0,"TOWNNAME":"歸仁區","LI":"大廟里","LIN":"3鄰","STREET":"大廟二街","SECT":" ","MAREA":" ","LANE":"９３巷","ALLEY":" ","HOUSE_NO":"１６號","E_COORD97":176068,"N_COORD97":2543904.1699999999,"ADDRESS":"大廟二街９３巷１６號","OBJECTID":412316},"geometry":{"x":176068,"y":2543904.1699999981}},{"attributes":{"ID":412341,"DIS_CODE":0,"TOWNNAME":"歸仁區","LI":"西埔里","LIN":"3鄰","STREET":"西埔三街","SECT":" ","MAREA":" ","LANE":"５１巷","ALLEY":" ","HOUSE_NO":"４７號","E_COORD97":177000.79000000001,"N_COORD97":2543992.25,"ADDRESS":"西埔三街５１巷４７號","OBJECTID":412317},"geometry":{"x":177000.79000000004,"y":2543992.2500000037}},{"attributes":{"ID":412342,"DIS_CODE":0,"TOWNNAME":"歸仁區","LI":"大廟里","LIN":"3鄰","STREET":"大廟二街","SECT":" ","MAREA":" ","LANE":"９３巷","ALLEY":" ","HOUSE_NO":"１４號","E_COORD97":176072.10000000001,"N_COORD97":2543906.1699999999,"ADDRESS":"大廟二街９３巷１４號","OBJECTID":412318},"geometry":{"x":176072.09999999963,"y":2543906.1699999999}},{"attributes":{"ID":412343,"DIS_CODE":0,"TOWNNAME":"歸仁區","LI":"南興里","LIN":"3鄰","STREET":"文化十二街","SECT":" ","MAREA":" ","LANE":"７１巷","ALLEY":" ","HOUSE_NO":"９號","E_COORD97":176425.98999999999,"N_COORD97":2541336.3300000001,"ADDRESS":"文化十二街７１巷９號","OBJECTID":412319},"geometry":{"x":176425.99000000022,"y":2541336.3300000001}},{"attributes":{"ID":412344,"DIS_CODE":0,"TOWNNAME":"歸仁區","LI":"南興里","LIN":"3鄰","STREET":"文化十二街","SECT":" ","MAREA":" ","LANE":"７１巷","ALLEY":" ","HOUSE_NO":"１５號","E_COORD97":176416.94,"N_COORD97":2541337.3300000001,"ADDRESS":"文化十二街７１巷１５號","OBJECTID":412320},"geometry":{"x":176416.94000000041,"y":2541337.3300000019}},{"attributes":{"ID":412345,"DIS_CODE":0,"TOWNNAME":"歸仁區","LI":"大廟里","LIN":"3鄰","STREET":"大廟二街","SECT":" ","MAREA":" ","LANE":"９３巷","ALLEY":" ","HOUSE_NO":"１８號","E_COORD97":176063.89999999999,"N_COORD97":2543902.1699999999,"ADDRESS":"大廟二街９３巷１８號","OBJECTID":412321},"geometry":{"x":176063.9000000013,"y":2543902.1700000018}},{"attributes":{"ID":412346,"DIS_CODE":0,"TOWNNAME":"歸仁區","LI":"西埔里","LIN":"3鄰","STREET":"保大路","SECT":"二段","MAREA":" ","LANE":"１４５巷","ALLEY":" ","HOUSE_NO":"２３號","E_COORD97":176952.22,"N_COORD97":2544020.2799999998,"ADDRESS":"保大路二段１４５巷２３號","OBJECTID":412322},"geometry":{"x":176952.22000000067,"y":2544020.2799999993}},{"attributes":{"ID":412347,"DIS_CODE":0,"TOWNNAME":"歸仁區","LI":"南興里","LIN":"3鄰","STREET":"文化十二街","SECT":" ","MAREA":" ","LANE":"７１巷","ALLEY":" ","HOUSE_NO":"２６號","E_COORD97":176422.14000000001,"N_COORD97":2541348.3300000001,"ADDRESS":"文化十二街７１巷２６號","OBJECTID":412323},"geometry":{"x":176422.1400000006,"y":2541348.3300000019}},{"attributes":{"ID":412348,"DIS_CODE":0,"TOWNNAME":"歸仁區","LI":"文化里","LIN":"3鄰","STREET":"國光街","SECT":" ","MAREA":" ","LANE":"１４３巷","ALLEY":" ","HOUSE_NO":"２１號","E_COORD97":177271.94,"N_COORD97":2541206.25,"ADDRESS":"國光街１４３巷２１號","OBJECTID":412324},"geometry":{"x":177271.94000000134,"y":2541206.2500000019}},{"attributes":{"ID":412349,"DIS_CODE":0,"TOWNNAME":"歸仁區","LI":"七甲里","LIN":"3鄰","STREET":"中正北路","SECT":"二段","MAREA":" ","LANE":"５０１巷","ALLEY":" ","HOUSE_NO":"７７號","E_COORD97":176998.10000000001,"N_COORD97":2543177.3900000001,"ADDRESS":"中正北路二段５０１巷７７號","OBJECTID":412325},"geometry":{"x":176998.09999999963,"y":2543177.3900000006}},{"attributes":{"ID":412350,"DIS_CODE":0,"TOWNNAME":"南區","LI":"新昌里","LIN":"3鄰","STREET":"大德街","SECT":" ","MAREA":" ","LANE":"１４１巷","ALLEY":" ","HOUSE_NO":"３５號之１","E_COORD97":167568.17999999999,"N_COORD97":2542917.0699999998,"ADDRESS":"大德街１４１巷３５號之１","OBJECTID":412326},"geometry":{"x":167568.18000000063,"y":2542917.0700000022}},{"attributes":{"ID":412351,"DIS_CODE":0,"TOWNNAME":"南區","LI":"興農里","LIN":"3鄰","STREET":"灣裡路","SECT":" ","MAREA":" ","LANE":"２６３巷","ALLEY":" ","HOUSE_NO":"４０號之２","E_COORD97":166326.39999999999,"N_COORD97":2536367.1099999999,"ADDRESS":"灣裡路２６３巷４０號之２","OBJECTID":412327},"geometry":{"x":166326.4000000013,"y":2536367.1099999994}},{"attributes":{"ID":412352,"DIS_CODE":0,"TOWNNAME":"南區","LI":"興農里","LIN":"3鄰","STREET":"灣裡路","SECT":" ","MAREA":" ","LANE":"２６３巷","ALLEY":" ","HOUSE_NO":"４０號之３","E_COORD97":166328.63,"N_COORD97":2536363.0099999998,"ADDRESS":"灣裡路２６３巷４０號之３","OBJECTID":412328},"geometry":{"x":166328.62999999989,"y":2536363.0100000016}},{"attributes":{"ID":412353,"DIS_CODE":0,"TOWNNAME":"南區","LI":"田寮里","LIN":"3鄰","STREET":"夏林路","SECT":" ","MAREA":" ","LANE":"３１０巷","ALLEY":" ","HOUSE_NO":"５號","E_COORD97":167472.95000000001,"N_COORD97":2541816.77,"ADDRESS":"夏林路３１０巷５號","OBJECTID":412329},"geometry":{"x":167472.94999999925,"y":2541816.7699999996}},{"attributes":{"ID":412354,"DIS_CODE":0,"TOWNNAME":"南區","LI":"田寮里","LIN":"3鄰","STREET":"夏林路","SECT":" ","MAREA":" ","LANE":"３１０巷","ALLEY":" ","HOUSE_NO":"７號","E_COORD97":167470.47,"N_COORD97":2541812.8500000001,"ADDRESS":"夏林路３１０巷７號","OBJECTID":412330},"geometry":{"x":167470.46999999974,"y":2541812.8499999996}},{"attributes":{"ID":412355,"DIS_CODE":0,"TOWNNAME":"南區","LI":"田寮里","LIN":"3鄰","STREET":"夏林路","SECT":" ","MAREA":" ","LANE":"３１０巷","ALLEY":" ","HOUSE_NO":"１１號","E_COORD97":167467.98999999999,"N_COORD97":2541805.0099999998,"ADDRESS":"夏林路３１０巷１１號","OBJECTID":412331},"geometry":{"x":167467.99000000115,"y":2541805.0099999998}},{"attributes":{"ID":412356,"DIS_CODE":0,"TOWNNAME":"南區","LI":"田寮里","LIN":"3鄰","STREET":"夏林路","SECT":" ","MAREA":" ","LANE":"３１０巷","ALLEY":" ","HOUSE_NO":"１３號","E_COORD97":167466.13,"N_COORD97":2541801.5,"ADDRESS":"夏林路３１０巷１３號","OBJECTID":412332},"geometry":{"x":167466.12999999989,"y":2541801.5000000019}},{"attributes":{"ID":412357,"DIS_CODE":0,"TOWNNAME":"南區","LI":"田寮里","LIN":"3鄰","STREET":"夏林路","SECT":" ","MAREA":" ","LANE":"３１０巷","ALLEY":" ","HOUSE_NO":"１５號","E_COORD97":167465.09,"N_COORD97":2541798.2000000002,"ADDRESS":"夏林路３１０巷１５號","OBJECTID":412333},"geometry":{"x":167465.09000000171,"y":2541798.200000003}},{"attributes":{"ID":412358,"DIS_CODE":0,"TOWNNAME":"南區","LI":"田寮里","LIN":"3鄰","STREET":"夏林路","SECT":" ","MAREA":" ","LANE":"３１０巷","ALLEY":" ","HOUSE_NO":"１７號","E_COORD97":167462.41,"N_COORD97":2541793.6600000001,"ADDRESS":"夏林路３１０巷１７號","OBJECTID":412334},"geometry":{"x":167462.41000000015,"y":2541793.660000002}},{"attributes":{"ID":412359,"DIS_CODE":0,"TOWNNAME":"南區","LI":"田寮里","LIN":"3鄰","STREET":"夏林路","SECT":" ","MAREA":" ","LANE":"３１０巷","ALLEY":" ","HOUSE_NO":"１９號","E_COORD97":167461.57999999999,"N_COORD97":2541790.1499999999,"ADDRESS":"夏林路３１０巷１９號","OBJECTID":412335},"geometry":{"x":167461.58000000007,"y":2541790.1500000022}},{"attributes":{"ID":412360,"DIS_CODE":0,"TOWNNAME":"南區","LI":"田寮里","LIN":"3鄰","STREET":"夏林路","SECT":" ","MAREA":" ","LANE":"３１０巷","ALLEY":" ","HOUSE_NO":"８號","E_COORD97":167455.84,"N_COORD97":2541827.5600000001,"ADDRESS":"夏林路３１０巷８號","OBJECTID":412336},"geometry":{"x":167455.83999999985,"y":2541827.5600000042}},{"attributes":{"ID":412361,"DIS_CODE":0,"TOWNNAME":"南區","LI":"田寮里","LIN":"3鄰","STREET":"夏林路","SECT":" ","MAREA":" ","LANE":"３１０巷","ALLEY":" ","HOUSE_NO":"１號","E_COORD97":167476.04999999999,"N_COORD97":2541824.6099999999,"ADDRESS":"夏林路３１０巷１號","OBJECTID":412337},"geometry":{"x":167476.05000000075,"y":2541824.6099999994}},{"attributes":{"ID":412362,"DIS_CODE":0,"TOWNNAME":"南區","LI":"田寮里","LIN":"3鄰","STREET":"夏林路","SECT":" ","MAREA":" ","LANE":"３１０巷","ALLEY":" ","HOUSE_NO":"１０號","E_COORD97":167454.85000000001,"N_COORD97":2541823.6699999999,"ADDRESS":"夏林路３１０巷１０號","OBJECTID":412338},"geometry":{"x":167454.85000000056,"y":2541823.6700000018}},{"attributes":{"ID":412363,"DIS_CODE":0,"TOWNNAME":"南區","LI":"田寮里","LIN":"3鄰","STREET":"夏林路","SECT":" ","MAREA":" ","LANE":"３１０巷","ALLEY":" ","HOUSE_NO":"３號","E_COORD97":167474.19,"N_COORD97":2541821.3100000001,"ADDRESS":"夏林路３１０巷３號","OBJECTID":412339},"geometry":{"x":167474.19000000134,"y":2541821.3100000005}},{"attributes":{"ID":412364,"DIS_CODE":0,"TOWNNAME":"南區","LI":"新興里","LIN":"3鄰","STREET":"五妃街","SECT":" ","MAREA":" ","LANE":"４１９巷","ALLEY":" ","HOUSE_NO":"１０號","E_COORD97":167568.57999999999,"N_COORD97":2542564.4199999999,"ADDRESS":"五妃街４１９巷１０號","OBJECTID":412340},"geometry":{"x":167568.57999999914,"y":2542564.4200000018}},{"attributes":{"ID":412365,"DIS_CODE":0,"TOWNNAME":"南區","LI":"新興里","LIN":"3鄰","STREET":"五妃街","SECT":" ","MAREA":" ","LANE":"４１９巷","ALLEY":" ","HOUSE_NO":"１２號","E_COORD97":167564.20000000001,"N_COORD97":2542565.2599999998,"ADDRESS":"五妃街４１９巷１２號","OBJECTID":412341},"geometry":{"x":167564.20000000019,"y":2542565.2600000016}},{"attributes":{"ID":412366,"DIS_CODE":0,"TOWNNAME":"南區","LI":"大忠里","LIN":"3鄰","STREET":"公英一街","SECT":" ","MAREA":" ","LANE":"１５巷","ALLEY":" ","HOUSE_NO":"１８號","E_COORD97":169452.89999999999,"N_COORD97":2541208.1000000001,"ADDRESS":"公英一街１５巷１８號","OBJECTID":412342},"geometry":{"x":169452.90000000037,"y":2541208.0999999996}},{"attributes":{"ID":412367,"DIS_CODE":0,"TOWNNAME":"安平區","LI":"漁光里","LIN":"3鄰","STREET":"漁光路","SECT":" ","MAREA":" ","LANE":"８９巷","ALLEY":" ","HOUSE_NO":"３９號之１","E_COORD97":163859.04999999999,"N_COORD97":2541981.1499999999,"ADDRESS":"漁光路８９巷３９號之１","OBJECTID":412343},"geometry":{"x":163859.04999999981,"y":2541981.1500000004}},{"attributes":{"ID":412368,"DIS_CODE":0,"TOWNNAME":"安平區","LI":"漁光里","LIN":"3鄰","STREET":"漁光路","SECT":" ","MAREA":" ","LANE":"８９巷","ALLEY":" ","HOUSE_NO":"１７號之１","E_COORD97":163969.76999999999,"N_COORD97":2541831.1000000001,"ADDRESS":"漁光路８９巷１７號之１","OBJECTID":412344},"geometry":{"x":163969.77000000142,"y":2541831.1000000015}},{"attributes":{"ID":412369,"DIS_CODE":0,"TOWNNAME":"安平區","LI":"文平里","LIN":"3鄰","STREET":"中華西路","SECT":"二段","MAREA":" ","LANE":"４９巷","ALLEY":" ","HOUSE_NO":"５６號","E_COORD97":166447.34,"N_COORD97":2543158.3500000001,"ADDRESS":"中華西路二段４９巷５６號","OBJECTID":412345},"geometry":{"x":166447.33999999985,"y":2543158.3500000015}},{"attributes":{"ID":412370,"DIS_CODE":0,"TOWNNAME":"南區","LI":"大忠里","LIN":"3鄰","STREET":"中華南路","SECT":"一段","MAREA":" ","LANE":"２７巷","ALLEY":" ","HOUSE_NO":"１２號","E_COORD97":169412.51000000001,"N_COORD97":2541368.23,"ADDRESS":"中華南路一段２７巷１２號","OBJECTID":412346},"geometry":{"x":169412.50999999978,"y":2541368.2299999986}},{"attributes":{"ID":412371,"DIS_CODE":0,"TOWNNAME":"南區","LI":"大忠里","LIN":"3鄰","STREET":"中華南路","SECT":"一段","MAREA":" ","LANE":"２７巷","ALLEY":" ","HOUSE_NO":"１４號","E_COORD97":169413.67000000001,"N_COORD97":2541361.0099999998,"ADDRESS":"中華南路一段２７巷１４號","OBJECTID":412347},"geometry":{"x":169413.66999999993,"y":2541361.0099999998}},{"attributes":{"ID":412372,"DIS_CODE":0,"TOWNNAME":"南區","LI":"大忠里","LIN":"3鄰","STREET":"中華南路","SECT":"一段","MAREA":" ","LANE":"２７巷","ALLEY":" ","HOUSE_NO":"１６號","E_COORD97":169414.54000000001,"N_COORD97":2541354.6499999999,"ADDRESS":"中華南路一段２７巷１６號","OBJECTID":412348},"geometry":{"x":169414.54000000004,"y":2541354.6500000004}},{"attributes":{"ID":412373,"DIS_CODE":0,"TOWNNAME":"南區","LI":"大忠里","LIN":"3鄰","STREET":"中華南路","SECT":"一段","MAREA":" ","LANE":"２７巷","ALLEY":" ","HOUSE_NO":"１８號","E_COORD97":169415.41,"N_COORD97":2541349.4500000002,"ADDRESS":"中華南路一段２７巷１８號","OBJECTID":412349},"geometry":{"x":169415.41000000015,"y":2541349.4500000011}},{"attributes":{"ID":412374,"DIS_CODE":0,"TOWNNAME":"南區","LI":"大忠里","LIN":"3鄰","STREET":"中華南路","SECT":"一段","MAREA":" ","LANE":"２７巷","ALLEY":" ","HOUSE_NO":"２０號","E_COORD97":169417.14999999999,"N_COORD97":2541345.1200000001,"ADDRESS":"中華南路一段２７巷２０號","OBJECTID":412350},"geometry":{"x":169417.15000000037,"y":2541345.120000001}},{"attributes":{"ID":412375,"DIS_CODE":0,"TOWNNAME":"南區","LI":"大忠里","LIN":"3鄰","STREET":"中華南路","SECT":"一段","MAREA":" ","LANE":"２７巷","ALLEY":" ","HOUSE_NO":"２２號","E_COORD97":169417.44,"N_COORD97":2541339.0499999998,"ADDRESS":"中華南路一段２７巷２２號","OBJECTID":412351},"geometry":{"x":169417.44000000041,"y":2541339.0500000007}},{"attributes":{"ID":412376,"DIS_CODE":0,"TOWNNAME":"南區","LI":"大忠里","LIN":"3鄰","STREET":"中華南路","SECT":"一段","MAREA":" ","LANE":"２７巷","ALLEY":" ","HOUSE_NO":"２４號","E_COORD97":169419.32000000001,"N_COORD97":2541328.46,"ADDRESS":"中華南路一段２７巷２４號","OBJECTID":412352},"geometry":{"x":169419.3200000003,"y":2541328.4600000009}},{"attributes":{"ID":412377,"DIS_CODE":0,"TOWNNAME":"南區","LI":"大忠里","LIN":"3鄰","STREET":"中華南路","SECT":"一段","MAREA":" ","LANE":"２７巷","ALLEY":" ","HOUSE_NO":"２６號","E_COORD97":169420.32999999999,"N_COORD97":2541320.7400000002,"ADDRESS":"中華南路一段２７巷２６號","OBJECTID":412353},"geometry":{"x":169420.33000000101,"y":2541320.7400000039}},{"attributes":{"ID":412378,"DIS_CODE":0,"TOWNNAME":"南區","LI":"大忠里","LIN":"3鄰","STREET":"中華南路","SECT":"一段","MAREA":" ","LANE":"２７巷","ALLEY":" ","HOUSE_NO":"２８號","E_COORD97":169422.35000000001,"N_COORD97":2541312.6899999999,"ADDRESS":"中華南路一段２７巷２８號","OBJECTID":412354},"geometry":{"x":169422.34999999963,"y":2541312.6899999995}},{"attributes":{"ID":412379,"DIS_CODE":0,"TOWNNAME":"南區","LI":"大忠里","LIN":"3鄰","STREET":"中華南路","SECT":"一段","MAREA":" ","LANE":"２７巷","ALLEY":" ","HOUSE_NO":"２號","E_COORD97":169407.01000000001,"N_COORD97":2541391.9300000002,"ADDRESS":"中華南路一段２７巷２號","OBJECTID":412355},"geometry":{"x":169407.01000000071,"y":2541391.9299999997}},{"attributes":{"ID":412380,"DIS_CODE":0,"TOWNNAME":"南區","LI":"大忠里","LIN":"3鄰","STREET":"中華南路","SECT":"一段","MAREA":" ","LANE":"２７巷","ALLEY":" ","HOUSE_NO":"３０號","E_COORD97":169424.37,"N_COORD97":2541305.6400000001,"ADDRESS":"中華南路一段２７巷３０號","OBJECTID":412356},"geometry":{"x":169424.37000000011,"y":2541305.6400000025}},{"attributes":{"ID":412381,"DIS_CODE":0,"TOWNNAME":"南區","LI":"大忠里","LIN":"3鄰","STREET":"中華南路","SECT":"一段","MAREA":" ","LANE":"２７巷","ALLEY":" ","HOUSE_NO":"３２號","E_COORD97":169425.72,"N_COORD97":2541300.27,"ADDRESS":"中華南路一段２７巷３２號","OBJECTID":412357},"geometry":{"x":169425.72000000067,"y":2541300.2700000014}},{"attributes":{"ID":412382,"DIS_CODE":0,"TOWNNAME":"南區","LI":"大忠里","LIN":"3鄰","STREET":"中華南路","SECT":"一段","MAREA":" ","LANE":"２７巷","ALLEY":" ","HOUSE_NO":"３４號","E_COORD97":169427.39999999999,"N_COORD97":2541294.8999999999,"ADDRESS":"中華南路一段２７巷３４號","OBJECTID":412358},"geometry":{"x":169427.40000000037,"y":2541294.9000000004}},{"attributes":{"ID":412383,"DIS_CODE":0,"TOWNNAME":"南區","LI":"大忠里","LIN":"3鄰","STREET":"中華南路","SECT":"一段","MAREA":" ","LANE":"２７巷","ALLEY":" ","HOUSE_NO":"４號","E_COORD97":169408.17000000001,"N_COORD97":2541386.73,"ADDRESS":"中華南路一段２７巷４號","OBJECTID":412359},"geometry":{"x":169408.16999999993,"y":2541386.7300000023}},{"attributes":{"ID":412384,"DIS_CODE":0,"TOWNNAME":"南區","LI":"大忠里","LIN":"3鄰","STREET":"中華南路","SECT":"一段","MAREA":" ","LANE":"３３巷","ALLEY":" ","HOUSE_NO":"２５號","E_COORD97":169416.57000000001,"N_COORD97":2541332.98,"ADDRESS":"中華南路一段３３巷２５號","OBJECTID":412360},"geometry":{"x":169416.5700000003,"y":2541332.9800000042}},{"attributes":{"ID":412385,"DIS_CODE":0,"TOWNNAME":"南區","LI":"大忠里","LIN":"3鄰","STREET":"公英一街","SECT":" ","MAREA":" ","LANE":"１５巷","ALLEY":" ","HOUSE_NO":"１號","E_COORD97":169474.47,"N_COORD97":2541262.1499999999,"ADDRESS":"公英一街１５巷１號","OBJECTID":412361},"geometry":{"x":169474.4700000016,"y":2541262.1500000022}},{"attributes":{"ID":412386,"DIS_CODE":0,"TOWNNAME":"南區","LI":"大忠里","LIN":"3鄰","STREET":"公英一街","SECT":" ","MAREA":" ","LANE":"１５巷","ALLEY":" ","HOUSE_NO":"１０號","E_COORD97":169448.14000000001,"N_COORD97":2541240.9399999999,"ADDRESS":"公英一街１５巷１０號","OBJECTID":412362},"geometry":{"x":169448.1400000006,"y":2541240.9400000013}},{"attributes":{"ID":412387,"DIS_CODE":0,"TOWNNAME":"南區","LI":"大忠里","LIN":"3鄰","STREET":"公英一街","SECT":" ","MAREA":" ","LANE":"１５巷","ALLEY":" ","HOUSE_NO":"１２號","E_COORD97":169449.45999999999,"N_COORD97":2541236.21,"ADDRESS":"公英一街１５巷１２號","OBJECTID":412363},"geometry":{"x":169449.46000000183,"y":2541236.2100000009}},{"attributes":{"ID":412388,"DIS_CODE":0,"TOWNNAME":"南區","LI":"大忠里","LIN":"3鄰","STREET":"公英一街","SECT":" ","MAREA":" ","LANE":"１５巷","ALLEY":" ","HOUSE_NO":"１６號","E_COORD97":169450.25,"N_COORD97":2541215.1800000002,"ADDRESS":"公英一街１５巷１６號","OBJECTID":412364},"geometry":{"x":169450.25,"y":2541215.1799999997}},{"attributes":{"ID":412389,"DIS_CODE":0,"TOWNNAME":"歸仁區","LI":"許厝里","LIN":"3鄰","STREET":"仁愛一街","SECT":" ","MAREA":" ","LANE":"１２巷","ALLEY":" ","HOUSE_NO":"１０號","E_COORD97":178330.56,"N_COORD97":2540598.8999999999,"ADDRESS":"仁愛一街１２巷１０號","OBJECTID":412365},"geometry":{"x":178330.55999999959,"y":2540598.9000000022}},{"attributes":{"ID":412390,"DIS_CODE":0,"TOWNNAME":"歸仁區","LI":"許厝里","LIN":"3鄰","STREET":"仁愛南街","SECT":" ","MAREA":" ","LANE":"３５巷","ALLEY":" ","HOUSE_NO":"１２號","E_COORD97":178308.85999999999,"N_COORD97":2540563.8999999999,"ADDRESS":"仁愛南街３５巷１２號","OBJECTID":412366},"geometry":{"x":178308.86000000034,"y":2540563.9000000041}},{"attributes":{"ID":412391,"DIS_CODE":0,"TOWNNAME":"歸仁區","LI":"許厝里","LIN":"3鄰","STREET":"仁愛南街","SECT":" ","MAREA":" ","LANE":"３５巷","ALLEY":" ","HOUSE_NO":"１０號","E_COORD97":178304.76000000001,"N_COORD97":2540565.8999999999,"ADDRESS":"仁愛南街３５巷１０號","OBJECTID":412367},"geometry":{"x":178304.76000000071,"y":2540565.9000000004}},{"attributes":{"ID":412392,"DIS_CODE":0,"TOWNNAME":"歸仁區","LI":"許厝里","LIN":"3鄰","STREET":"仁愛一街","SECT":" ","MAREA":" ","LANE":"１２巷","ALLEY":" ","HOUSE_NO":"６號","E_COORD97":178330.41,"N_COORD97":2540606.8999999999,"ADDRESS":"仁愛一街１２巷６號","OBJECTID":412368},"geometry":{"x":178330.41000000015,"y":2540606.9000000004}},{"attributes":{"ID":412393,"DIS_CODE":0,"TOWNNAME":"歸仁區","LI":"許厝里","LIN":"3鄰","STREET":"仁愛一街","SECT":" ","MAREA":" ","LANE":"１２巷","ALLEY":" ","HOUSE_NO":"８號","E_COORD97":178329.31,"N_COORD97":2540603.8999999999,"ADDRESS":"仁愛一街１２巷８號","OBJECTID":412369},"geometry":{"x":178329.31000000145,"y":2540603.9000000004}},{"attributes":{"ID":412394,"DIS_CODE":0,"TOWNNAME":"歸仁區","LI":"看東里","LIN":"3鄰","STREET":"忠孝南路","SECT":" ","MAREA":" ","LANE":"１５６巷","ALLEY":" ","HOUSE_NO":"１５號","E_COORD97":178487.01999999999,"N_COORD97":2540276.8300000001,"ADDRESS":"忠孝南路１５６巷１５號","OBJECTID":412370},"geometry":{"x":178487.01999999955,"y":2540276.8300000019}},{"attributes":{"ID":412395,"DIS_CODE":0,"TOWNNAME":"歸仁區","LI":"看東里","LIN":"3鄰","STREET":"忠孝南路","SECT":" ","MAREA":" ","LANE":"１５６巷","ALLEY":" ","HOUSE_NO":"９號","E_COORD97":178508.26999999999,"N_COORD97":2540272.8300000001,"ADDRESS":"忠孝南路１５６巷９號","OBJECTID":412371},"geometry":{"x":178508.27000000048,"y":2540272.8300000019}},{"attributes":{"ID":412396,"DIS_CODE":0,"TOWNNAME":"歸仁區","LI":"許厝里","LIN":"3鄰","STREET":"仁愛一街","SECT":" ","MAREA":" ","LANE":"１２巷","ALLEY":" ","HOUSE_NO":"１２號","E_COORD97":178330.56,"N_COORD97":2540594.8999999999,"ADDRESS":"仁愛一街１２巷１２號","OBJECTID":412372},"geometry":{"x":178330.55999999959,"y":2540594.9000000022}},{"attributes":{"ID":412397,"DIS_CODE":0,"TOWNNAME":"歸仁區","LI":"看東里","LIN":"3鄰","STREET":"忠孝南路","SECT":" ","MAREA":" ","LANE":"１５６巷","ALLEY":" ","HOUSE_NO":"１號","E_COORD97":178526.76999999999,"N_COORD97":2540268.8300000001,"ADDRESS":"忠孝南路１５６巷１號","OBJECTID":412373},"geometry":{"x":178526.77000000048,"y":2540268.8300000038}},{"attributes":{"ID":412398,"DIS_CODE":0,"TOWNNAME":"歸仁區","LI":"許厝里","LIN":"3鄰","STREET":"仁愛一街","SECT":" ","MAREA":" ","LANE":"１２巷","ALLEY":" ","HOUSE_NO":"１４號","E_COORD97":178330.56,"N_COORD97":2540590.8999999999,"ADDRESS":"仁愛一街１２巷１４號","OBJECTID":412374},"geometry":{"x":178330.55999999959,"y":2540590.9000000041}},{"attributes":{"ID":412399,"DIS_CODE":0,"TOWNNAME":"歸仁區","LI":"許厝里","LIN":"3鄰","STREET":"仁愛一街","SECT":" ","MAREA":" ","LANE":"１２巷","ALLEY":" ","HOUSE_NO":"２號","E_COORD97":178328.31,"N_COORD97":2540612.8999999999,"ADDRESS":"仁愛一街１２巷２號","OBJECTID":412375},"geometry":{"x":178328.31000000052,"y":2540612.9000000022}},{"attributes":{"ID":412400,"DIS_CODE":0,"TOWNNAME":"北區","LI":"仁愛里","LIN":"3鄰","STREET":"勝利路","SECT":" ","MAREA":" ","LANE":"２０６巷","ALLEY":" ","HOUSE_NO":"２號","E_COORD97":169941.66,"N_COORD97":2544973.2799999998,"ADDRESS":"勝利路２０６巷２號","OBJECTID":412376},"geometry":{"x":169941.66000000108,"y":2544973.2799999993}},{"attributes":{"ID":412401,"DIS_CODE":0,"TOWNNAME":"北區","LI":"仁愛里","LIN":"3鄰","STREET":"勝利路","SECT":" ","MAREA":" ","LANE":"２０６巷","ALLEY":" ","HOUSE_NO":"１號","E_COORD97":169945.69,"N_COORD97":2544985.8300000001,"ADDRESS":"勝利路２０６巷１號","OBJECTID":412377},"geometry":{"x":169945.69000000134,"y":2544985.8300000019}},{"attributes":{"ID":412402,"DIS_CODE":0,"TOWNNAME":"北區","LI":"仁愛里","LIN":"3鄰","STREET":"勝利路","SECT":" ","MAREA":" ","LANE":"２０６巷","ALLEY":" ","HOUSE_NO":"３號","E_COORD97":169954.57000000001,"N_COORD97":2544988.6499999999,"ADDRESS":"勝利路２０６巷３號","OBJECTID":412378},"geometry":{"x":169954.57000000123,"y":2544988.6500000004}},{"attributes":{"ID":412403,"DIS_CODE":0,"TOWNNAME":"北區","LI":"仁愛里","LIN":"3鄰","STREET":"勝利路","SECT":" ","MAREA":" ","LANE":"２０６巷","ALLEY":" ","HOUSE_NO":"４號","E_COORD97":169959.82999999999,"N_COORD97":2544991.3399999999,"ADDRESS":"勝利路２０６巷４號","OBJECTID":412379},"geometry":{"x":169959.83000000007,"y":2544991.3400000036}},{"attributes":{"ID":412404,"DIS_CODE":0,"TOWNNAME":"北區","LI":"仁愛里","LIN":"3鄰","STREET":"勝利路","SECT":" ","MAREA":" ","LANE":"２０６巷","ALLEY":" ","HOUSE_NO":"５號","E_COORD97":169960.22,"N_COORD97":2544971.7599999998,"ADDRESS":"勝利路２０６巷５號","OBJECTID":412380},"geometry":{"x":169960.21999999974,"y":2544971.7600000035}},{"attributes":{"ID":412405,"DIS_CODE":0,"TOWNNAME":"北區","LI":"仁愛里","LIN":"3鄰","STREET":"勝利路","SECT":" ","MAREA":" ","LANE":"２０６巷","ALLEY":" ","HOUSE_NO":"６號","E_COORD97":169965.29000000001,"N_COORD97":2544973.6099999999,"ADDRESS":"勝利路２０６巷６號","OBJECTID":412381},"geometry":{"x":169965.29000000004,"y":2544973.6100000013}},{"attributes":{"ID":412406,"DIS_CODE":0,"TOWNNAME":"北區","LI":"仁愛里","LIN":"3鄰","STREET":"勝利路","SECT":" ","MAREA":" ","LANE":"２０６巷","ALLEY":" ","HOUSE_NO":"８號","E_COORD97":169971.87,"N_COORD97":2544975.4700000002,"ADDRESS":"勝利路２０６巷８號","OBJECTID":412382},"geometry":{"x":169971.87000000011,"y":2544975.4700000025}},{"attributes":{"ID":412407,"DIS_CODE":0,"TOWNNAME":"北區","LI":"仁愛里","LIN":"3鄰","STREET":"勝利路","SECT":" ","MAREA":" ","LANE":"２０６巷","ALLEY":" ","HOUSE_NO":"１４號","E_COORD97":169988.41,"N_COORD97":2544980.02,"ADDRESS":"勝利路２０６巷１４號","OBJECTID":412383},"geometry":{"x":169988.41000000015,"y":2544980.0200000014}},{"attributes":{"ID":412408,"DIS_CODE":0,"TOWNNAME":"北區","LI":"六甲里","LIN":"3鄰","STREET":"公園路","SECT":" ","MAREA":" ","LANE":"４８７巷","ALLEY":" ","HOUSE_NO":"２號","E_COORD97":169024.16,"N_COORD97":2545514.27,"ADDRESS":"公園路４８７巷２號","OBJECTID":412384},"geometry":{"x":169024.16000000015,"y":2545514.2700000014}},{"attributes":{"ID":412409,"DIS_CODE":0,"TOWNNAME":"北區","LI":"六甲里","LIN":"3鄰","STREET":"公園路","SECT":" ","MAREA":" ","LANE":"４８７巷","ALLEY":" ","HOUSE_NO":"８號","E_COORD97":168994.60000000001,"N_COORD97":2545516.6099999999,"ADDRESS":"公園路４８７巷８號","OBJECTID":412385},"geometry":{"x":168994.59999999963,"y":2545516.6099999994}},{"attributes":{"ID":412410,"DIS_CODE":0,"TOWNNAME":"北區","LI":"六甲里","LIN":"3鄰","STREET":"公園路","SECT":" ","MAREA":" ","LANE":"４８７巷","ALLEY":" ","HOUSE_NO":"１０號","E_COORD97":168987.82999999999,"N_COORD97":2545517.4199999999,"ADDRESS":"公園路４８７巷１０號","OBJECTID":412386},"geometry":{"x":168987.83000000101,"y":2545517.4200000018}},{"attributes":{"ID":412411,"DIS_CODE":0,"TOWNNAME":"北區","LI":"六甲里","LIN":"3鄰","STREET":"公園路","SECT":" ","MAREA":" ","LANE":"４８７巷","ALLEY":" ","HOUSE_NO":"１２號","E_COORD97":168983.60000000001,"N_COORD97":2545517.5800000001,"ADDRESS":"公園路４８７巷１２號","OBJECTID":412387},"geometry":{"x":168983.60000000149,"y":2545517.5800000001}},{"attributes":{"ID":412412,"DIS_CODE":0,"TOWNNAME":"北區","LI":"六甲里","LIN":"3鄰","STREET":"公園路","SECT":" ","MAREA":" ","LANE":"４８７巷","ALLEY":" ","HOUSE_NO":"１４號","E_COORD97":168979.69,"N_COORD97":2545517.5800000001,"ADDRESS":"公園路４８７巷１４號","OBJECTID":412388},"geometry":{"x":168979.69000000041,"y":2545517.5800000001}},{"attributes":{"ID":412413,"DIS_CODE":0,"TOWNNAME":"北區","LI":"六甲里","LIN":"3鄰","STREET":"公園路","SECT":" ","MAREA":" ","LANE":"４８７巷","ALLEY":" ","HOUSE_NO":"１６號","E_COORD97":168976.56,"N_COORD97":2545518.0499999998,"ADDRESS":"公園路４８７巷１６號","OBJECTID":412389},"geometry":{"x":168976.55999999959,"y":2545518.0500000026}},{"attributes":{"ID":412414,"DIS_CODE":0,"TOWNNAME":"北區","LI":"六甲里","LIN":"3鄰","STREET":"公園路","SECT":" ","MAREA":" ","LANE":"４８７巷","ALLEY":" ","HOUSE_NO":"１８號","E_COORD97":168972.03,"N_COORD97":2545522.73,"ADDRESS":"公園路４８７巷１８號","OBJECTID":412390},"geometry":{"x":168972.03000000026,"y":2545522.7300000023}},{"attributes":{"ID":412415,"DIS_CODE":0,"TOWNNAME":"北區","LI":"六甲里","LIN":"3鄰","STREET":"公園路","SECT":" ","MAREA":" ","LANE":"４８７巷","ALLEY":" ","HOUSE_NO":"２０號","E_COORD97":168964.67999999999,"N_COORD97":2545524.4500000002,"ADDRESS":"公園路４８７巷２０號","OBJECTID":412391},"geometry":{"x":168964.68000000063,"y":2545524.4499999993}},{"attributes":{"ID":412416,"DIS_CODE":0,"TOWNNAME":"北區","LI":"六甲里","LIN":"3鄰","STREET":"公園路","SECT":" ","MAREA":" ","LANE":"４８７巷","ALLEY":" ","HOUSE_NO":"２４號","E_COORD97":168948.82000000001,"N_COORD97":2545527.5499999998,"ADDRESS":"公園路４８７巷２４號","OBJECTID":412392},"geometry":{"x":168948.82000000216,"y":2545527.5500000026}},{"attributes":{"ID":412417,"DIS_CODE":0,"TOWNNAME":"北區","LI":"六甲里","LIN":"3鄰","STREET":"公園路","SECT":" ","MAREA":" ","LANE":"４８７巷","ALLEY":" ","HOUSE_NO":"２６號","E_COORD97":168943.66,"N_COORD97":2545521.4500000002,"ADDRESS":"公園路４８７巷２６號","OBJECTID":412393},"geometry":{"x":168943.66000000108,"y":2545521.4499999993}},{"attributes":{"ID":412418,"DIS_CODE":0,"TOWNNAME":"北區","LI":"六甲里","LIN":"3鄰","STREET":"公園路","SECT":" ","MAREA":" ","LANE":"４８７巷","ALLEY":" ","HOUSE_NO":"２８號","E_COORD97":168936.94,"N_COORD97":2545524.73,"ADDRESS":"公園路４８７巷２８號","OBJECTID":412394},"geometry":{"x":168936.94000000134,"y":2545524.7300000004}},{"attributes":{"ID":412419,"DIS_CODE":0,"TOWNNAME":"北區","LI":"六甲里","LIN":"3鄰","STREET":"公園路","SECT":" ","MAREA":" ","LANE":"４８７巷","ALLEY":" ","HOUSE_NO":"３０號","E_COORD97":168939.28,"N_COORD97":2545532.8599999999,"ADDRESS":"公園路４８７巷３０號","OBJECTID":412395},"geometry":{"x":168939.28000000119,"y":2545532.8599999994}},{"attributes":{"ID":412420,"DIS_CODE":0,"TOWNNAME":"北區","LI":"六甲里","LIN":"3鄰","STREET":"公園路","SECT":" ","MAREA":" ","LANE":"４８７巷","ALLEY":" ","HOUSE_NO":"３２號","E_COORD97":168939.75,"N_COORD97":2545538.1699999999,"ADDRESS":"公園路４８７巷３２號","OBJECTID":412396},"geometry":{"x":168939.75,"y":2545538.1699999999}},{"attributes":{"ID":412421,"DIS_CODE":0,"TOWNNAME":"北區","LI":"六甲里","LIN":"3鄰","STREET":"公園路","SECT":" ","MAREA":" ","LANE":"５０９巷","ALLEY":" ","HOUSE_NO":"３號","E_COORD97":169021.97,"N_COORD97":2545548.0099999998,"ADDRESS":"公園路５０９巷３號","OBJECTID":412397},"geometry":{"x":169021.9700000016,"y":2545548.0099999998}},{"attributes":{"ID":412422,"DIS_CODE":0,"TOWNNAME":"北區","LI":"裕民里","LIN":"3鄰","STREET":"成功路","SECT":" ","MAREA":" ","LANE":"５０４巷","ALLEY":" ","HOUSE_NO":"１６號","E_COORD97":167710.76000000001,"N_COORD97":2544713.75,"ADDRESS":"成功路５０４巷１６號","OBJECTID":412398},"geometry":{"x":167710.75999999978,"y":2544713.75}},{"attributes":{"ID":412423,"DIS_CODE":0,"TOWNNAME":"北區","LI":"裕民里","LIN":"3鄰","STREET":"成功路","SECT":" ","MAREA":" ","LANE":"５０４巷","ALLEY":" ","HOUSE_NO":"１４號","E_COORD97":167709.79999999999,"N_COORD97":2544709.9199999999,"ADDRESS":"成功路５０４巷１４號","OBJECTID":412399},"geometry":{"x":167709.80000000075,"y":2544709.9200000018}},{"attributes":{"ID":412424,"DIS_CODE":0,"TOWNNAME":"北區","LI":"裕民里","LIN":"3鄰","STREET":"成功路","SECT":" ","MAREA":" ","LANE":"５０４巷","ALLEY":" ","HOUSE_NO":"１２號","E_COORD97":167707.89000000001,"N_COORD97":2544704.3799999999,"ADDRESS":"成功路５０４巷１２號","OBJECTID":412400},"geometry":{"x":167707.88999999966,"y":2544704.379999999}}]}