{"displayFieldName":"TOWNNAME","fieldAliases":{"ID":"ID","DIS_CODE":"DIS_CODE","TOWNNAME":"TOWNNAME","LI":"LI","LIN":"LIN","STREET":"STREET","SECT":"SECT","MAREA":"MAREA","LANE":"LANE","ALLEY":"ALLEY","HOUSE_NO":"HOUSE_NO","E_COORD97":"E_COORD97","N_COORD97":"N_COORD97","ADDRESS":"ADDRESS","OBJECTID":"OBJECTID"},"geometryType":"esriGeometryPoint","spatialReference":{"wkid":102443,"latestWkid":3826},"fields":[{"name":"ID","type":"esriFieldTypeDouble","alias":"ID"},{"name":"DIS_CODE","type":"esriFieldTypeInteger","alias":"DIS_CODE"},{"name":"TOWNNAME","type":"esriFieldTypeString","alias":"TOWNNAME","length":8},{"name":"LI","type":"esriFieldTypeString","alias":"LI","length":8},{"name":"LIN","type":"esriFieldTypeString","alias":"LIN","length":12},{"name":"STREET","type":"esriFieldTypeString","alias":"STREET","length":20},{"name":"SECT","type":"esriFieldTypeString","alias":"SECT","length":8},{"name":"MAREA","type":"esriFieldTypeString","alias":"MAREA","length":12},{"name":"LANE","type":"esriFieldTypeString","alias":"LANE","length":10},{"name":"ALLEY","type":"esriFieldTypeString","alias":"ALLEY","length":10},{"name":"HOUSE_NO","type":"esriFieldTypeString","alias":"HOUSE_NO","length":20},{"name":"E_COORD97","type":"esriFieldTypeDouble","alias":"E_COORD97"},{"name":"N_COORD97","type":"esriFieldTypeDouble","alias":"N_COORD97"},{"name":"ADDRESS","type":"esriFieldTypeString","alias":"ADDRESS","length":50},{"name":"OBJECTID","type":"esriFieldTypeOID","alias":"OBJECTID"}],"features":[{"attributes":{"ID":195202,"DIS_CODE":0,"TOWNNAME":"永康區","LI":"網寮里","LIN":"18鄰","STREET":"永二街","SECT":" ","MAREA":" ","LANE":"１９３巷","ALLEY":"２弄","HOUSE_NO":"１號","E_COORD97":173464.20000000001,"N_COORD97":2546304.5099999998,"ADDRESS":"永二街１９３巷２弄１號","OBJECTID":195201},"geometry":{"x":173464.20000000112,"y":2546304.5099999998}},{"attributes":{"ID":195203,"DIS_CODE":0,"TOWNNAME":"永康區","LI":"王行里","LIN":" ","STREET":"育樂街","SECT":" ","MAREA":" ","LANE":"１０４巷","ALLEY":"４９弄","HOUSE_NO":"１６之２號","E_COORD97":175175.85999999999,"N_COORD97":2548554.04,"ADDRESS":"育樂街１０４巷４９弄１６之２號","OBJECTID":195202},"geometry":{"x":175175.86000000127,"y":2548554.040000001}},{"attributes":{"ID":195204,"DIS_CODE":0,"TOWNNAME":"永康區","LI":"中華里","LIN":"5鄰","STREET":"小東路","SECT":" ","MAREA":" ","LANE":"６４７巷","ALLEY":"３６弄","HOUSE_NO":"２４號","E_COORD97":172014.97,"N_COORD97":2544466.4500000002,"ADDRESS":"小東路６４７巷３６弄２４號","OBJECTID":195203},"geometry":{"x":172014.96999999974,"y":2544466.4499999993}},{"attributes":{"ID":195205,"DIS_CODE":0,"TOWNNAME":"永康區","LI":"網寮里","LIN":"18鄰","STREET":"永二街","SECT":" ","MAREA":" ","LANE":"１９３巷","ALLEY":"１弄","HOUSE_NO":"２號","E_COORD97":173471.29000000001,"N_COORD97":2546307.7599999998,"ADDRESS":"永二街１９３巷１弄２號","OBJECTID":195204},"geometry":{"x":173471.29000000004,"y":2546307.7600000016}},{"attributes":{"ID":195206,"DIS_CODE":0,"TOWNNAME":"永康區","LI":"甲頂里","LIN":"18鄰","STREET":"中正南路","SECT":" ","MAREA":" ","LANE":"５２巷","ALLEY":"４６弄","HOUSE_NO":"５７號","E_COORD97":169898.91,"N_COORD97":2546625.5899999999,"ADDRESS":"中正南路５２巷４６弄５７號","OBJECTID":195205},"geometry":{"x":169898.91000000015,"y":2546625.5900000017}},{"attributes":{"ID":195207,"DIS_CODE":0,"TOWNNAME":"永康區","LI":"\u25A0行里","LIN":"41鄰","STREET":"永安路","SECT":" ","MAREA":" ","LANE":"１６５巷","ALLEY":"３０弄","HOUSE_NO":"７９號","E_COORD97":172362.01999999999,"N_COORD97":2549473.2400000002,"ADDRESS":"永安路１６５巷３０弄７９號","OBJECTID":195206},"geometry":{"x":172362.01999999955,"y":2549473.2400000002}},{"attributes":{"ID":195208,"DIS_CODE":0,"TOWNNAME":"永康區","LI":"二王里","LIN":"18鄰","STREET":"忠孝路","SECT":" ","MAREA":" ","LANE":"４６１巷","ALLEY":"２弄","HOUSE_NO":"１０號","E_COORD97":172450.14999999999,"N_COORD97":2546670.8999999999,"ADDRESS":"忠孝路４６１巷２弄１０號","OBJECTID":195207},"geometry":{"x":172450.15000000037,"y":2546670.9000000022}},{"attributes":{"ID":195209,"DIS_CODE":0,"TOWNNAME":"永康區","LI":"二王里","LIN":"18鄰","STREET":"忠孝路","SECT":" ","MAREA":" ","LANE":"４６１巷","ALLEY":"２弄","HOUSE_NO":"５號","E_COORD97":172438.82000000001,"N_COORD97":2546637.5499999998,"ADDRESS":"忠孝路４６１巷２弄５號","OBJECTID":195208},"geometry":{"x":172438.8200000003,"y":2546637.5500000007}},{"attributes":{"ID":195210,"DIS_CODE":0,"TOWNNAME":"永康區","LI":"甲頂里","LIN":" ","STREET":"大武街","SECT":" ","MAREA":" ","LANE":"５９７巷","ALLEY":"５４弄","HOUSE_NO":"４號","E_COORD97":170265.60000000001,"N_COORD97":2546580.04,"ADDRESS":"大武街５９７巷５４弄４號","OBJECTID":195209},"geometry":{"x":170265.60000000056,"y":2546580.040000001}},{"attributes":{"ID":195211,"DIS_CODE":0,"TOWNNAME":"永康區","LI":"甲頂里","LIN":" ","STREET":"大武街","SECT":" ","MAREA":" ","LANE":"５９７巷","ALLEY":"３４弄","HOUSE_NO":"２１號","E_COORD97":170301.60000000001,"N_COORD97":2546530.25,"ADDRESS":"大武街５９７巷３４弄２１號","OBJECTID":195210},"geometry":{"x":170301.59999999963,"y":2546530.25}},{"attributes":{"ID":195212,"DIS_CODE":0,"TOWNNAME":"安南區","LI":"幸福里","LIN":"18鄰","STREET":"府安路","SECT":"六段","MAREA":" ","LANE":"２７巷","ALLEY":"２２弄","HOUSE_NO":"１０號","E_COORD97":167083.59,"N_COORD97":2546782.4500000002,"ADDRESS":"府安路六段２７巷２２弄１０號","OBJECTID":195211},"geometry":{"x":167083.59000000171,"y":2546782.4499999993}},{"attributes":{"ID":195213,"DIS_CODE":0,"TOWNNAME":"安南區","LI":"幸福里","LIN":"18鄰","STREET":"府安路","SECT":"六段","MAREA":" ","LANE":"２７巷","ALLEY":"２２弄","HOUSE_NO":"１１號","E_COORD97":167081.64000000001,"N_COORD97":2546817.2599999998,"ADDRESS":"府安路六段２７巷２２弄１１號","OBJECTID":195212},"geometry":{"x":167081.6400000006,"y":2546817.2600000016}},{"attributes":{"ID":195214,"DIS_CODE":0,"TOWNNAME":"安南區","LI":"幸福里","LIN":"18鄰","STREET":"府安路","SECT":"六段","MAREA":" ","LANE":"２７巷","ALLEY":"２２弄","HOUSE_NO":"１２號","E_COORD97":167088.03,"N_COORD97":2546785.1899999999,"ADDRESS":"府安路六段２７巷２２弄１２號","OBJECTID":195213},"geometry":{"x":167088.03000000119,"y":2546785.1899999995}},{"attributes":{"ID":195215,"DIS_CODE":0,"TOWNNAME":"關廟區","LI":"北勢里","LIN":"21鄰","STREET":"仁愛路","SECT":" ","MAREA":" ","LANE":" ","ALLEY":" ","HOUSE_NO":"１７７號","E_COORD97":181390.39000000001,"N_COORD97":2540445.2799999998,"ADDRESS":"仁愛路１７７號","OBJECTID":195214},"geometry":{"x":181390.39000000153,"y":2540445.2800000012}},{"attributes":{"ID":195216,"DIS_CODE":0,"TOWNNAME":"東山區","LI":"東正里","LIN":"3鄰","STREET":" ","SECT":" ","MAREA":"東勢","LANE":" ","ALLEY":" ","HOUSE_NO":"１２號之８","E_COORD97":189336.84,"N_COORD97":2580027.8999999999,"ADDRESS":"東勢１２號之８","OBJECTID":195215},"geometry":{"x":189336.84000000078,"y":2580027.9000000041}},{"attributes":{"ID":195217,"DIS_CODE":0,"TOWNNAME":"東山區","LI":"東正里","LIN":"3鄰","STREET":" ","SECT":" ","MAREA":"東勢","LANE":" ","ALLEY":" ","HOUSE_NO":"１２號之９","E_COORD97":189341.98999999999,"N_COORD97":2580032.9199999999,"ADDRESS":"東勢１２號之９","OBJECTID":195216},"geometry":{"x":189341.99000000022,"y":2580032.9199999999}},{"attributes":{"ID":195218,"DIS_CODE":0,"TOWNNAME":"東山區","LI":"東正里","LIN":"3鄰","STREET":" ","SECT":" ","MAREA":"東勢","LANE":" ","ALLEY":" ","HOUSE_NO":"１４號","E_COORD97":189409.47,"N_COORD97":2580081.1299999999,"ADDRESS":"東勢１４號","OBJECTID":195217},"geometry":{"x":189409.46999999974,"y":2580081.129999999}},{"attributes":{"ID":195219,"DIS_CODE":0,"TOWNNAME":"東山區","LI":"東正里","LIN":"3鄰","STREET":" ","SECT":" ","MAREA":"東勢","LANE":" ","ALLEY":" ","HOUSE_NO":"１５號","E_COORD97":189389.39999999999,"N_COORD97":2580073.5899999999,"ADDRESS":"東勢１５號","OBJECTID":195218},"geometry":{"x":189389.4000000013,"y":2580073.5900000036}},{"attributes":{"ID":195220,"DIS_CODE":0,"TOWNNAME":"東山區","LI":"東正里","LIN":"3鄰","STREET":" ","SECT":" ","MAREA":"東勢","LANE":" ","ALLEY":" ","HOUSE_NO":"１６號","E_COORD97":189395.72,"N_COORD97":2580047.3700000001,"ADDRESS":"東勢１６號","OBJECTID":195219},"geometry":{"x":189395.71999999974,"y":2580047.370000001}},{"attributes":{"ID":195221,"DIS_CODE":0,"TOWNNAME":"東山區","LI":"東正里","LIN":"3鄰","STREET":" ","SECT":" ","MAREA":"東勢","LANE":" ","ALLEY":" ","HOUSE_NO":"１９號之２０","E_COORD97":189476,"N_COORD97":2579946.4500000002,"ADDRESS":"東勢１９號之２０","OBJECTID":195220},"geometry":{"x":189476.00000000186,"y":2579946.4500000011}},{"attributes":{"ID":195222,"DIS_CODE":0,"TOWNNAME":"東山區","LI":"東正里","LIN":"3鄰","STREET":" ","SECT":" ","MAREA":"東勢","LANE":" ","ALLEY":" ","HOUSE_NO":"１８號","E_COORD97":189387.89999999999,"N_COORD97":2580031.8700000001,"ADDRESS":"東勢１８號","OBJECTID":195221},"geometry":{"x":189387.9000000013,"y":2580031.8699999992}},{"attributes":{"ID":195223,"DIS_CODE":0,"TOWNNAME":"安南區","LI":"幸福里","LIN":"18鄰","STREET":"府安路","SECT":"六段","MAREA":" ","LANE":"２７巷","ALLEY":"２２弄","HOUSE_NO":"１號","E_COORD97":167058.82000000001,"N_COORD97":2546810.6699999999,"ADDRESS":"府安路六段２７巷２２弄１號","OBJECTID":195222},"geometry":{"x":167058.82000000216,"y":2546810.6700000018}},{"attributes":{"ID":195224,"DIS_CODE":0,"TOWNNAME":"柳營區","LI":"重溪里","LIN":"21鄰","STREET":"義士路","SECT":"一段","MAREA":" ","LANE":" ","ALLEY":" ","HOUSE_NO":"８３６號","E_COORD97":185303.32999999999,"N_COORD97":2575987.5899999999,"ADDRESS":"義士路一段８３６號","OBJECTID":195223},"geometry":{"x":185303.33000000007,"y":2575987.5899999999}},{"attributes":{"ID":195225,"DIS_CODE":0,"TOWNNAME":"柳營區","LI":"重溪里","LIN":"21鄰","STREET":"義士路","SECT":"一段","MAREA":" ","LANE":" ","ALLEY":" ","HOUSE_NO":"８４０號","E_COORD97":185293.42999999999,"N_COORD97":2575992.02,"ADDRESS":"義士路一段８４０號","OBJECTID":195224},"geometry":{"x":185293.4299999997,"y":2575992.0200000014}},{"attributes":{"ID":195226,"DIS_CODE":0,"TOWNNAME":"柳營區","LI":"重溪里","LIN":"21鄰","STREET":"義士路","SECT":"一段","MAREA":" ","LANE":" ","ALLEY":" ","HOUSE_NO":"８４６號","E_COORD97":185283.73999999999,"N_COORD97":2575994.4900000002,"ADDRESS":"義士路一段８４６號","OBJECTID":195225},"geometry":{"x":185283.74000000022,"y":2575994.4900000002}},{"attributes":{"ID":195227,"DIS_CODE":0,"TOWNNAME":"安南區","LI":"幸福里","LIN":"18鄰","STREET":"府安路","SECT":"六段","MAREA":" ","LANE":"２７巷","ALLEY":"２２弄","HOUSE_NO":"２號","E_COORD97":167065.26000000001,"N_COORD97":2546779.9500000002,"ADDRESS":"府安路六段２７巷２２弄２號","OBJECTID":195226},"geometry":{"x":167065.25999999885,"y":2546779.9499999974}},{"attributes":{"ID":195228,"DIS_CODE":0,"TOWNNAME":"安南區","LI":"幸福里","LIN":"18鄰","STREET":"府安路","SECT":"六段","MAREA":" ","LANE":"２７巷","ALLEY":"２２弄","HOUSE_NO":"３號","E_COORD97":167062.75,"N_COORD97":2546814.54,"ADDRESS":"府安路六段２７巷２２弄３號","OBJECTID":195227},"geometry":{"x":167062.75000000093,"y":2546814.540000001}},{"attributes":{"ID":195229,"DIS_CODE":0,"TOWNNAME":"安南區","LI":"幸福里","LIN":"18鄰","STREET":"府安路","SECT":"六段","MAREA":" ","LANE":"２７巷","ALLEY":"２２弄","HOUSE_NO":"５號","E_COORD97":167068.56,"N_COORD97":2546812.3599999999,"ADDRESS":"府安路六段２７巷２２弄５號","OBJECTID":195228},"geometry":{"x":167068.56000000052,"y":2546812.3600000013}},{"attributes":{"ID":195230,"DIS_CODE":0,"TOWNNAME":"安南區","LI":"幸福里","LIN":"18鄰","STREET":"府安路","SECT":"六段","MAREA":" ","LANE":"２７巷","ALLEY":"２２弄","HOUSE_NO":"６號","E_COORD97":167074.95000000001,"N_COORD97":2546779.9500000002,"ADDRESS":"府安路六段２７巷２２弄６號","OBJECTID":195229},"geometry":{"x":167074.95000000112,"y":2546779.9499999974}},{"attributes":{"ID":195231,"DIS_CODE":0,"TOWNNAME":"安南區","LI":"幸福里","LIN":"18鄰","STREET":"府安路","SECT":"六段","MAREA":" ","LANE":"２７巷","ALLEY":"２２弄","HOUSE_NO":"７號","E_COORD97":167073.22,"N_COORD97":2546810.9100000001,"ADDRESS":"府安路六段２７巷２２弄７號","OBJECTID":195230},"geometry":{"x":167073.21999999974,"y":2546810.9100000001}},{"attributes":{"ID":195232,"DIS_CODE":0,"TOWNNAME":"柳營區","LI":"重溪里","LIN":"21鄰","STREET":"義士路","SECT":"一段","MAREA":" ","LANE":" ","ALLEY":" ","HOUSE_NO":"８５２號","E_COORD97":185263.34,"N_COORD97":2575998.52,"ADDRESS":"義士路一段８５２號","OBJECTID":195231},"geometry":{"x":185263.34000000078,"y":2575998.5200000033}},{"attributes":{"ID":195233,"DIS_CODE":0,"TOWNNAME":"東山區","LI":"東正里","LIN":"3鄰","STREET":" ","SECT":" ","MAREA":"東勢","LANE":" ","ALLEY":" ","HOUSE_NO":"１９號之１０","E_COORD97":189332.13,"N_COORD97":2579955.5099999998,"ADDRESS":"東勢１９號之１０","OBJECTID":195232},"geometry":{"x":189332.12999999989,"y":2579955.5100000016}},{"attributes":{"ID":195234,"DIS_CODE":0,"TOWNNAME":"東山區","LI":"東正里","LIN":"3鄰","STREET":" ","SECT":" ","MAREA":"東勢","LANE":" ","ALLEY":" ","HOUSE_NO":"１９號之１１","E_COORD97":189328.98999999999,"N_COORD97":2579960.9500000002,"ADDRESS":"東勢１９號之１１","OBJECTID":195233},"geometry":{"x":189328.99000000209,"y":2579960.9499999993}},{"attributes":{"ID":195235,"DIS_CODE":0,"TOWNNAME":"東山區","LI":"東正里","LIN":"3鄰","STREET":" ","SECT":" ","MAREA":"東勢","LANE":" ","ALLEY":" ","HOUSE_NO":"１９號之１","E_COORD97":189398.64999999999,"N_COORD97":2579995.54,"ADDRESS":"東勢１９號之１","OBJECTID":195234},"geometry":{"x":189398.65000000037,"y":2579995.540000001}},{"attributes":{"ID":195236,"DIS_CODE":0,"TOWNNAME":"東山區","LI":"東正里","LIN":"3鄰","STREET":" ","SECT":" ","MAREA":"東勢","LANE":" ","ALLEY":" ","HOUSE_NO":"１９號之２１","E_COORD97":189471.42999999999,"N_COORD97":2579946.1899999999,"ADDRESS":"東勢１９號之２１","OBJECTID":195235},"geometry":{"x":189471.43000000063,"y":2579946.1899999995}},{"attributes":{"ID":195237,"DIS_CODE":0,"TOWNNAME":"東山區","LI":"東正里","LIN":"3鄰","STREET":" ","SECT":" ","MAREA":"東勢","LANE":" ","ALLEY":" ","HOUSE_NO":"１９號之２２","E_COORD97":189466.01999999999,"N_COORD97":2579947.2200000002,"ADDRESS":"東勢１９號之２２","OBJECTID":195236},"geometry":{"x":189466.02000000048,"y":2579947.2200000007}},{"attributes":{"ID":195238,"DIS_CODE":0,"TOWNNAME":"東山區","LI":"東正里","LIN":"3鄰","STREET":" ","SECT":" ","MAREA":"東勢","LANE":" ","ALLEY":" ","HOUSE_NO":"１９號之２３","E_COORD97":189461.23999999999,"N_COORD97":2579947.9399999999,"ADDRESS":"東勢１９號之２３","OBJECTID":195237},"geometry":{"x":189461.24000000209,"y":2579947.9399999995}},{"attributes":{"ID":195239,"DIS_CODE":0,"TOWNNAME":"東山區","LI":"東正里","LIN":"3鄰","STREET":" ","SECT":" ","MAREA":"東勢","LANE":" ","ALLEY":" ","HOUSE_NO":"１９號之２４","E_COORD97":189456.06,"N_COORD97":2579948.3900000001,"ADDRESS":"東勢１９號之２４","OBJECTID":195238},"geometry":{"x":189456.05999999959,"y":2579948.3900000006}},{"attributes":{"ID":195240,"DIS_CODE":0,"TOWNNAME":"東山區","LI":"東正里","LIN":"3鄰","STREET":" ","SECT":" ","MAREA":"東勢","LANE":" ","ALLEY":" ","HOUSE_NO":"１９號之２５","E_COORD97":189450.03,"N_COORD97":2579949.54,"ADDRESS":"東勢１９號之２５","OBJECTID":195239},"geometry":{"x":189450.03000000026,"y":2579949.5399999991}},{"attributes":{"ID":195241,"DIS_CODE":0,"TOWNNAME":"東山區","LI":"東正里","LIN":"3鄰","STREET":" ","SECT":" ","MAREA":"東勢","LANE":" ","ALLEY":" ","HOUSE_NO":"１９號之２６","E_COORD97":189445.38,"N_COORD97":2579950.2400000002,"ADDRESS":"東勢１９號之２６","OBJECTID":195240},"geometry":{"x":189445.38000000082,"y":2579950.2400000002}},{"attributes":{"ID":195242,"DIS_CODE":0,"TOWNNAME":"東山區","LI":"東正里","LIN":"3鄰","STREET":" ","SECT":" ","MAREA":"東勢","LANE":" ","ALLEY":" ","HOUSE_NO":"１９號之２７","E_COORD97":189439.92999999999,"N_COORD97":2579950.6000000001,"ADDRESS":"東勢１９號之２７","OBJECTID":195241},"geometry":{"x":189439.9299999997,"y":2579950.5999999996}},{"attributes":{"ID":195243,"DIS_CODE":0,"TOWNNAME":"東山區","LI":"東正里","LIN":"3鄰","STREET":" ","SECT":" ","MAREA":"東勢","LANE":" ","ALLEY":" ","HOUSE_NO":"１９號之２８","E_COORD97":189434.82999999999,"N_COORD97":2579951.2999999998,"ADDRESS":"東勢１９號之２８","OBJECTID":195242},"geometry":{"x":189434.82999999914,"y":2579951.3000000026}},{"attributes":{"ID":195244,"DIS_CODE":0,"TOWNNAME":"柳營區","LI":"重溪里","LIN":"21鄰","STREET":"義士路","SECT":"一段","MAREA":" ","LANE":" ","ALLEY":" ","HOUSE_NO":"８６０號","E_COORD97":185252.20000000001,"N_COORD97":2576001.29,"ADDRESS":"義士路一段８６０號","OBJECTID":195243},"geometry":{"x":185252.20000000205,"y":2576001.2899999991}},{"attributes":{"ID":195245,"DIS_CODE":0,"TOWNNAME":"柳營區","LI":"重溪里","LIN":"21鄰","STREET":"義士路","SECT":"一段","MAREA":" ","LANE":" ","ALLEY":" ","HOUSE_NO":"８６６號","E_COORD97":185254.44,"N_COORD97":2576027.21,"ADDRESS":"義士路一段８６６號","OBJECTID":195244},"geometry":{"x":185254.44000000134,"y":2576027.2100000028}},{"attributes":{"ID":195246,"DIS_CODE":0,"TOWNNAME":"安南區","LI":"幸福里","LIN":"18鄰","STREET":"府安路","SECT":"六段","MAREA":" ","LANE":"２７巷","ALLEY":"２２弄","HOUSE_NO":"８號","E_COORD97":167078.57999999999,"N_COORD97":2546783.8199999998,"ADDRESS":"府安路六段２７巷２２弄８號","OBJECTID":195245},"geometry":{"x":167078.58000000007,"y":2546783.8200000022}},{"attributes":{"ID":195247,"DIS_CODE":0,"TOWNNAME":"安南區","LI":"幸福里","LIN":"18鄰","STREET":"府安路","SECT":"六段","MAREA":" ","LANE":"２７巷","ALLEY":"４０弄","HOUSE_NO":"１０號","E_COORD97":167073.34,"N_COORD97":2546834.7000000002,"ADDRESS":"府安路六段２７巷４０弄１０號","OBJECTID":195246},"geometry":{"x":167073.34000000171,"y":2546834.6999999993}},{"attributes":{"ID":195248,"DIS_CODE":0,"TOWNNAME":"東山區","LI":"東正里","LIN":"3鄰","STREET":" ","SECT":" ","MAREA":"東勢","LANE":" ","ALLEY":" ","HOUSE_NO":"１９號之２９","E_COORD97":189430.59,"N_COORD97":2579951.9100000001,"ADDRESS":"東勢１９號之２９","OBJECTID":195247},"geometry":{"x":189430.58999999985,"y":2579951.9100000001}},{"attributes":{"ID":195249,"DIS_CODE":0,"TOWNNAME":"東山區","LI":"東正里","LIN":"3鄰","STREET":" ","SECT":" ","MAREA":"東勢","LANE":" ","ALLEY":" ","HOUSE_NO":"１９號之２","E_COORD97":189445.03,"N_COORD97":2579983.1000000001,"ADDRESS":"東勢１９號之２","OBJECTID":195248},"geometry":{"x":189445.03000000026,"y":2579983.1000000015}},{"attributes":{"ID":195250,"DIS_CODE":0,"TOWNNAME":"東山區","LI":"東正里","LIN":"3鄰","STREET":" ","SECT":" ","MAREA":"東勢","LANE":" ","ALLEY":" ","HOUSE_NO":"１９號之３０","E_COORD97":189425.79999999999,"N_COORD97":2579952.3100000001,"ADDRESS":"東勢１９號之３０","OBJECTID":195249},"geometry":{"x":189425.79999999981,"y":2579952.3100000005}},{"attributes":{"ID":195251,"DIS_CODE":0,"TOWNNAME":"東山區","LI":"東正里","LIN":"3鄰","STREET":" ","SECT":" ","MAREA":"東勢","LANE":" ","ALLEY":" ","HOUSE_NO":"１９號之３１","E_COORD97":189420.73000000001,"N_COORD97":2579952.8500000001,"ADDRESS":"東勢１９號之３１","OBJECTID":195250},"geometry":{"x":189420.73000000231,"y":2579952.8500000034}},{"attributes":{"ID":195252,"DIS_CODE":0,"TOWNNAME":"東山區","LI":"東正里","LIN":"3鄰","STREET":" ","SECT":" ","MAREA":"東勢","LANE":" ","ALLEY":" ","HOUSE_NO":"１９號之３２","E_COORD97":189404.79000000001,"N_COORD97":2579991.6400000001,"ADDRESS":"東勢１９號之３２","OBJECTID":195251},"geometry":{"x":189404.79000000097,"y":2579991.6400000006}},{"attributes":{"ID":195253,"DIS_CODE":0,"TOWNNAME":"東山區","LI":"東正里","LIN":"3鄰","STREET":" ","SECT":" ","MAREA":"東勢","LANE":" ","ALLEY":" ","HOUSE_NO":"１９號之３３","E_COORD97":189410.07000000001,"N_COORD97":2579990.8399999999,"ADDRESS":"東勢１９號之３３","OBJECTID":195252},"geometry":{"x":189410.07000000123,"y":2579990.8400000017}},{"attributes":{"ID":195254,"DIS_CODE":0,"TOWNNAME":"東山區","LI":"東正里","LIN":"3鄰","STREET":" ","SECT":" ","MAREA":"東勢","LANE":" ","ALLEY":" ","HOUSE_NO":"１９號之３４","E_COORD97":189414.5,"N_COORD97":2579990.3399999999,"ADDRESS":"東勢１９號之３４","OBJECTID":195253},"geometry":{"x":189414.5,"y":2579990.3400000036}},{"attributes":{"ID":195255,"DIS_CODE":0,"TOWNNAME":"東山區","LI":"東正里","LIN":"3鄰","STREET":" ","SECT":" ","MAREA":"東勢","LANE":" ","ALLEY":" ","HOUSE_NO":"１９號之３５","E_COORD97":189419.45000000001,"N_COORD97":2579989.8999999999,"ADDRESS":"東勢１９號之３５","OBJECTID":195254},"geometry":{"x":189419.45000000112,"y":2579989.9000000004}},{"attributes":{"ID":195256,"DIS_CODE":0,"TOWNNAME":"東山區","LI":"東正里","LIN":"3鄰","STREET":" ","SECT":" ","MAREA":"東勢","LANE":" ","ALLEY":" ","HOUSE_NO":"１９號之３６","E_COORD97":189394.31,"N_COORD97":2579997.5899999999,"ADDRESS":"東勢１９號之３６","OBJECTID":195255},"geometry":{"x":189394.31000000052,"y":2579997.5899999999}},{"attributes":{"ID":195257,"DIS_CODE":0,"TOWNNAME":"歸仁區","LI":"六甲里","LIN":"21鄰","STREET":"中正十八街","SECT":" ","MAREA":" ","LANE":" ","ALLEY":" ","HOUSE_NO":"７號","E_COORD97":176397.439705,"N_COORD97":2539663.5386999999,"ADDRESS":"中正十八街７號","OBJECTID":195256},"geometry":{"x":176397.43970500026,"y":2539663.5387000013}},{"attributes":{"ID":195258,"DIS_CODE":0,"TOWNNAME":"北區","LI":"成德里","LIN":"21鄰","STREET":"育成路","SECT":" ","MAREA":" ","LANE":" ","ALLEY":" ","HOUSE_NO":"２４０號","E_COORD97":168638.45000000001,"N_COORD97":2546612.9199999999,"ADDRESS":"育成路２４０號","OBJECTID":195257},"geometry":{"x":168638.45000000112,"y":2546612.9200000018}},{"attributes":{"ID":195259,"DIS_CODE":0,"TOWNNAME":"安南區","LI":"幸福里","LIN":"18鄰","STREET":"府安路","SECT":"六段","MAREA":" ","LANE":"２７巷","ALLEY":"４０弄","HOUSE_NO":"１１號","E_COORD97":167073.44,"N_COORD97":2546858.1699999999,"ADDRESS":"府安路六段２７巷４０弄１１號","OBJECTID":195258},"geometry":{"x":167073.44000000134,"y":2546858.1700000018}},{"attributes":{"ID":195260,"DIS_CODE":0,"TOWNNAME":"北區","LI":"成德里","LIN":"21鄰","STREET":"育成路","SECT":" ","MAREA":" ","LANE":" ","ALLEY":" ","HOUSE_NO":"２６３號","E_COORD97":168591.45999999999,"N_COORD97":2546630.2200000002,"ADDRESS":"育成路２６３號","OBJECTID":195259},"geometry":{"x":168591.45999999903,"y":2546630.2200000007}},{"attributes":{"ID":195261,"DIS_CODE":0,"TOWNNAME":"北區","LI":"成德里","LIN":"21鄰","STREET":"育成路","SECT":" ","MAREA":" ","LANE":" ","ALLEY":" ","HOUSE_NO":"２６５號","E_COORD97":168589.56,"N_COORD97":2546634.3500000001,"ADDRESS":"育成路２６５號","OBJECTID":195260},"geometry":{"x":168589.56000000052,"y":2546634.3499999996}},{"attributes":{"ID":195262,"DIS_CODE":0,"TOWNNAME":"北區","LI":"成德里","LIN":"21鄰","STREET":"育成路","SECT":" ","MAREA":" ","LANE":" ","ALLEY":" ","HOUSE_NO":"２６７號","E_COORD97":168586.85999999999,"N_COORD97":2546638.79,"ADDRESS":"育成路２６７號","OBJECTID":195261},"geometry":{"x":168586.86000000034,"y":2546638.7900000028}},{"attributes":{"ID":195263,"DIS_CODE":0,"TOWNNAME":"安南區","LI":"幸福里","LIN":"18鄰","STREET":"府安路","SECT":"六段","MAREA":" ","LANE":"２７巷","ALLEY":"４０弄","HOUSE_NO":"１號","E_COORD97":167051.22,"N_COORD97":2546849.2999999998,"ADDRESS":"府安路六段２７巷４０弄１號","OBJECTID":195262},"geometry":{"x":167051.21999999974,"y":2546849.3000000007}},{"attributes":{"ID":195264,"DIS_CODE":0,"TOWNNAME":"安南區","LI":"幸福里","LIN":"18鄰","STREET":"府安路","SECT":"六段","MAREA":" ","LANE":"２７巷","ALLEY":"４０弄","HOUSE_NO":"２號","E_COORD97":167054.76000000001,"N_COORD97":2546831.3700000001,"ADDRESS":"府安路六段２７巷４０弄２號","OBJECTID":195263},"geometry":{"x":167054.75999999978,"y":2546831.3700000029}},{"attributes":{"ID":195265,"DIS_CODE":0,"TOWNNAME":"安南區","LI":"幸福里","LIN":"18鄰","STREET":"府安路","SECT":"六段","MAREA":" ","LANE":"２７巷","ALLEY":"４０弄","HOUSE_NO":"３號","E_COORD97":167055.26999999999,"N_COORD97":2546853.7599999998,"ADDRESS":"府安路六段２７巷４０弄３號","OBJECTID":195264},"geometry":{"x":167055.27000000048,"y":2546853.7600000016}},{"attributes":{"ID":195266,"DIS_CODE":0,"TOWNNAME":"安南區","LI":"幸福里","LIN":"18鄰","STREET":"府安路","SECT":"六段","MAREA":" ","LANE":"２７巷","ALLEY":"４０弄","HOUSE_NO":"４號","E_COORD97":167060.03,"N_COORD97":2546829.1400000001,"ADDRESS":"府安路六段２７巷４０弄４號","OBJECTID":195265},"geometry":{"x":167060.03000000026,"y":2546829.1400000025}},{"attributes":{"ID":195267,"DIS_CODE":0,"TOWNNAME":"東山區","LI":"東正里","LIN":"3鄰","STREET":" ","SECT":" ","MAREA":"東勢","LANE":" ","ALLEY":" ","HOUSE_NO":"１９號之３","E_COORD97":189447.07000000001,"N_COORD97":2580004.3500000001,"ADDRESS":"東勢１９號之３","OBJECTID":195266},"geometry":{"x":189447.07000000216,"y":2580004.3500000015}},{"attributes":{"ID":195268,"DIS_CODE":0,"TOWNNAME":"安南區","LI":"幸福里","LIN":"18鄰","STREET":"府安路","SECT":"六段","MAREA":" ","LANE":"２７巷","ALLEY":"４０弄","HOUSE_NO":"５號","E_COORD97":167059.42000000001,"N_COORD97":2546855.7000000002,"ADDRESS":"府安路六段２７巷４０弄５號","OBJECTID":195267},"geometry":{"x":167059.42000000179,"y":2546855.6999999993}},{"attributes":{"ID":195269,"DIS_CODE":0,"TOWNNAME":"安南區","LI":"幸福里","LIN":"18鄰","STREET":"府安路","SECT":"六段","MAREA":" ","LANE":"２７巷","ALLEY":"４０弄","HOUSE_NO":"６號","E_COORD97":167063.95999999999,"N_COORD97":2546833.0099999998,"ADDRESS":"府安路六段２７巷４０弄６號","OBJECTID":195268},"geometry":{"x":167063.95999999996,"y":2546833.0099999998}},{"attributes":{"ID":195270,"DIS_CODE":0,"TOWNNAME":"安南區","LI":"幸福里","LIN":"18鄰","STREET":"府安路","SECT":"六段","MAREA":" ","LANE":"２７巷","ALLEY":"４０弄","HOUSE_NO":"７號","E_COORD97":167064.92000000001,"N_COORD97":2546852.6099999999,"ADDRESS":"府安路六段２７巷４０弄７號","OBJECTID":195269},"geometry":{"x":167064.92000000086,"y":2546852.6099999994}},{"attributes":{"ID":195271,"DIS_CODE":0,"TOWNNAME":"安南區","LI":"幸福里","LIN":"18鄰","STREET":"府安路","SECT":"六段","MAREA":" ","LANE":"２７巷","ALLEY":"４０弄","HOUSE_NO":"８號","E_COORD97":167069.35000000001,"N_COORD97":2546830.4100000001,"ADDRESS":"府安路六段２７巷４０弄８號","OBJECTID":195270},"geometry":{"x":167069.34999999963,"y":2546830.410000002}},{"attributes":{"ID":195272,"DIS_CODE":0,"TOWNNAME":"安南區","LI":"幸福里","LIN":"18鄰","STREET":"府安路","SECT":"六段","MAREA":" ","LANE":"２７巷","ALLEY":"４０弄","HOUSE_NO":"９號","E_COORD97":167069.04000000001,"N_COORD97":2546855.9700000002,"ADDRESS":"府安路六段２７巷４０弄９號","OBJECTID":195271},"geometry":{"x":167069.04000000097,"y":2546855.9699999988}},{"attributes":{"ID":195273,"DIS_CODE":0,"TOWNNAME":"安南區","LI":"幸福里","LIN":"18鄰","STREET":"府安路","SECT":"六段","MAREA":" ","LANE":"２７巷","ALLEY":"５８弄","HOUSE_NO":"１０號","E_COORD97":167065.37,"N_COORD97":2546875.6099999999,"ADDRESS":"府安路六段２７巷５８弄１０號","OBJECTID":195272},"geometry":{"x":167065.37000000104,"y":2546875.6100000013}},{"attributes":{"ID":195274,"DIS_CODE":0,"TOWNNAME":"安南區","LI":"幸福里","LIN":"18鄰","STREET":"府安路","SECT":"六段","MAREA":" ","LANE":"２７巷","ALLEY":"５８弄","HOUSE_NO":"１２號","E_COORD97":167070.98000000001,"N_COORD97":2546873.2400000002,"ADDRESS":"府安路六段２７巷５８弄１２號","OBJECTID":195273},"geometry":{"x":167070.98000000045,"y":2546873.2400000002}},{"attributes":{"ID":195275,"DIS_CODE":0,"TOWNNAME":"安南區","LI":"幸福里","LIN":"18鄰","STREET":"府安路","SECT":"六段","MAREA":" ","LANE":"２７巷","ALLEY":"５８弄","HOUSE_NO":"１號","E_COORD97":167042.54999999999,"N_COORD97":2546894.1699999999,"ADDRESS":"府安路六段２７巷５８弄１號","OBJECTID":195274},"geometry":{"x":167042.54999999981,"y":2546894.1699999999}},{"attributes":{"ID":195276,"DIS_CODE":0,"TOWNNAME":"安南區","LI":"幸福里","LIN":"18鄰","STREET":"府安路","SECT":"六段","MAREA":" ","LANE":"２７巷","ALLEY":"５８弄","HOUSE_NO":"３號","E_COORD97":167046.32999999999,"N_COORD97":2546897.7400000002,"ADDRESS":"府安路六段２７巷５８弄３號","OBJECTID":195275},"geometry":{"x":167046.33000000007,"y":2546897.7399999984}},{"attributes":{"ID":195277,"DIS_CODE":0,"TOWNNAME":"安南區","LI":"幸福里","LIN":"18鄰","STREET":"府安路","SECT":"六段","MAREA":" ","LANE":"２７巷","ALLEY":"５８弄","HOUSE_NO":"４號","E_COORD97":167052.42999999999,"N_COORD97":2546869.7999999998,"ADDRESS":"府安路六段２７巷５８弄４號","OBJECTID":195276},"geometry":{"x":167052.43000000063,"y":2546869.8000000007}},{"attributes":{"ID":195278,"DIS_CODE":0,"TOWNNAME":"東山區","LI":"東正里","LIN":"3鄰","STREET":" ","SECT":" ","MAREA":"東勢","LANE":" ","ALLEY":" ","HOUSE_NO":"１９號之４","E_COORD97":189358.72,"N_COORD97":2579951.0800000001,"ADDRESS":"東勢１９號之４","OBJECTID":195277},"geometry":{"x":189358.71999999974,"y":2579951.0800000001}},{"attributes":{"ID":195279,"DIS_CODE":0,"TOWNNAME":"東山區","LI":"東正里","LIN":"3鄰","STREET":" ","SECT":" ","MAREA":"東勢","LANE":" ","ALLEY":" ","HOUSE_NO":"１９號之５","E_COORD97":189354.70999999999,"N_COORD97":2579951.9300000002,"ADDRESS":"東勢１９號之５","OBJECTID":195278},"geometry":{"x":189354.71000000089,"y":2579951.9299999997}},{"attributes":{"ID":195280,"DIS_CODE":0,"TOWNNAME":"東山區","LI":"東正里","LIN":"3鄰","STREET":" ","SECT":" ","MAREA":"東勢","LANE":" ","ALLEY":" ","HOUSE_NO":"１９號之６","E_COORD97":189350.79000000001,"N_COORD97":2579952.73,"ADDRESS":"東勢１９號之６","OBJECTID":195279},"geometry":{"x":189350.79000000097,"y":2579952.7300000004}},{"attributes":{"ID":195281,"DIS_CODE":0,"TOWNNAME":"東山區","LI":"東正里","LIN":"3鄰","STREET":" ","SECT":" ","MAREA":"東勢","LANE":" ","ALLEY":" ","HOUSE_NO":"１９號之７","E_COORD97":189346.26000000001,"N_COORD97":2579953.3700000001,"ADDRESS":"東勢１９號之７","OBJECTID":195280},"geometry":{"x":189346.25999999978,"y":2579953.370000001}},{"attributes":{"ID":195282,"DIS_CODE":0,"TOWNNAME":"安南區","LI":"幸福里","LIN":"18鄰","STREET":"府安路","SECT":"六段","MAREA":" ","LANE":"２７巷","ALLEY":"５８弄","HOUSE_NO":"８號","E_COORD97":167063,"N_COORD97":2546870.3199999998,"ADDRESS":"府安路六段２７巷５８弄８號","OBJECTID":195281},"geometry":{"x":167063.00000000093,"y":2546870.320000004}},{"attributes":{"ID":195283,"DIS_CODE":0,"TOWNNAME":"安南區","LI":"幸福里","LIN":"18鄰","STREET":"府安路","SECT":"六段","MAREA":" ","LANE":"２７巷","ALLEY":"５８弄","HOUSE_NO":"２號","E_COORD97":167047.91,"N_COORD97":2546869.6899999999,"ADDRESS":"府安路六段２７巷５８弄２號","OBJECTID":195282},"geometry":{"x":167047.91000000201,"y":2546869.6899999995}},{"attributes":{"ID":195284,"DIS_CODE":0,"TOWNNAME":"東山區","LI":"東正里","LIN":"3鄰","STREET":" ","SECT":" ","MAREA":"東勢","LANE":" ","ALLEY":" ","HOUSE_NO":"１９號之８","E_COORD97":189340.97,"N_COORD97":2579954.1400000001,"ADDRESS":"東勢１９號之８","OBJECTID":195283},"geometry":{"x":189340.97000000067,"y":2579954.1400000006}},{"attributes":{"ID":195285,"DIS_CODE":0,"TOWNNAME":"東山區","LI":"東正里","LIN":"3鄰","STREET":" ","SECT":" ","MAREA":"東勢","LANE":" ","ALLEY":" ","HOUSE_NO":"１９號之９","E_COORD97":189336.73000000001,"N_COORD97":2579954.77,"ADDRESS":"東勢１９號之９","OBJECTID":195284},"geometry":{"x":189336.73000000138,"y":2579954.7700000014}},{"attributes":{"ID":195286,"DIS_CODE":0,"TOWNNAME":"東山區","LI":"東正里","LIN":"3鄰","STREET":" ","SECT":" ","MAREA":"東勢","LANE":" ","ALLEY":" ","HOUSE_NO":"１９號","E_COORD97":189380.39999999999,"N_COORD97":2580010.98,"ADDRESS":"東勢１９號","OBJECTID":195285},"geometry":{"x":189380.39999999944,"y":2580010.9800000023}},{"attributes":{"ID":195287,"DIS_CODE":0,"TOWNNAME":"東山區","LI":"東正里","LIN":"3鄰","STREET":" ","SECT":" ","MAREA":"東勢","LANE":" ","ALLEY":" ","HOUSE_NO":"２０號","E_COORD97":189429.48999999999,"N_COORD97":2580032.7400000002,"ADDRESS":"東勢２０號","OBJECTID":195286},"geometry":{"x":189429.49000000115,"y":2580032.7400000021}},{"attributes":{"ID":195288,"DIS_CODE":0,"TOWNNAME":"永康區","LI":"勝利里","LIN":" ","STREET":"勝利街","SECT":" ","MAREA":" ","LANE":"１９７巷","ALLEY":"２５弄","HOUSE_NO":"８號","E_COORD97":171261.54000000001,"N_COORD97":2545095.54,"ADDRESS":"勝利街１９７巷２５弄８號","OBJECTID":195287},"geometry":{"x":171261.54000000097,"y":2545095.540000001}},{"attributes":{"ID":195289,"DIS_CODE":0,"TOWNNAME":"永康區","LI":"復興里","LIN":" ","STREET":"復興路","SECT":" ","MAREA":" ","LANE":"２９６巷","ALLEY":"１１弄","HOUSE_NO":"２７號","E_COORD97":172358.63,"N_COORD97":2544398.02,"ADDRESS":"復興路２９６巷１１弄２７號","OBJECTID":195288},"geometry":{"x":172358.62999999896,"y":2544398.0200000014}},{"attributes":{"ID":195290,"DIS_CODE":0,"TOWNNAME":"將軍區","LI":"鯤溟里","LIN":"9鄰","STREET":" ","SECT":" ","MAREA":"鯤溟","LANE":" ","ALLEY":" ","HOUSE_NO":"７１號","E_COORD97":156547.64999999999,"N_COORD97":2565523.75,"ADDRESS":"鯤溟７１號","OBJECTID":195289},"geometry":{"x":156547.65000000037,"y":2565523.75}},{"attributes":{"ID":195291,"DIS_CODE":0,"TOWNNAME":"永康區","LI":"復興里","LIN":" ","STREET":"興國街","SECT":" ","MAREA":" ","LANE":"２３７巷","ALLEY":"１弄","HOUSE_NO":"２３５號","E_COORD97":172345.91,"N_COORD97":2544928.1600000001,"ADDRESS":"興國街２３７巷１弄２３５號","OBJECTID":195290},"geometry":{"x":172345.91000000108,"y":2544928.1600000001}},{"attributes":{"ID":195292,"DIS_CODE":0,"TOWNNAME":"永康區","LI":"神洲里","LIN":" ","STREET":"忠孝路","SECT":" ","MAREA":" ","LANE":"１５２巷","ALLEY":"５７弄","HOUSE_NO":"５１號","E_COORD97":172441.45999999999,"N_COORD97":2545321.9900000002,"ADDRESS":"忠孝路１５２巷５７弄５１號","OBJECTID":195291},"geometry":{"x":172441.46000000183,"y":2545321.9900000002}},{"attributes":{"ID":195293,"DIS_CODE":0,"TOWNNAME":"六甲區","LI":"甲東里","LIN":"21鄰","STREET":"裕農街","SECT":" ","MAREA":" ","LANE":" ","ALLEY":" ","HOUSE_NO":"８１號","E_COORD97":184246.16,"N_COORD97":2569729.3300000001,"ADDRESS":"裕農街８１號","OBJECTID":195292},"geometry":{"x":184246.16000000108,"y":2569729.3300000019}},{"attributes":{"ID":195294,"DIS_CODE":0,"TOWNNAME":"六甲區","LI":"甲東里","LIN":"21鄰","STREET":"裕農街","SECT":" ","MAREA":" ","LANE":" ","ALLEY":" ","HOUSE_NO":"８３號","E_COORD97":184252.38,"N_COORD97":2569730.5600000001,"ADDRESS":"裕農街８３號","OBJECTID":195293},"geometry":{"x":184252.38000000082,"y":2569730.5600000024}},{"attributes":{"ID":195295,"DIS_CODE":0,"TOWNNAME":"六甲區","LI":"甲東里","LIN":"21鄰","STREET":"裕農街","SECT":" ","MAREA":" ","LANE":" ","ALLEY":" ","HOUSE_NO":"８５號","E_COORD97":184256.75,"N_COORD97":2569731.8199999998,"ADDRESS":"裕農街８５號","OBJECTID":195294},"geometry":{"x":184256.75000000093,"y":2569731.820000004}},{"attributes":{"ID":195296,"DIS_CODE":0,"TOWNNAME":"六甲區","LI":"甲東里","LIN":"21鄰","STREET":"裕農街","SECT":" ","MAREA":" ","LANE":" ","ALLEY":" ","HOUSE_NO":"８９號","E_COORD97":184267.79999999999,"N_COORD97":2569746.7799999998,"ADDRESS":"裕農街８９號","OBJECTID":195295},"geometry":{"x":184267.79999999888,"y":2569746.7799999993}},{"attributes":{"ID":195297,"DIS_CODE":0,"TOWNNAME":"關廟區","LI":"山西里","LIN":"21鄰","STREET":"忠孝街","SECT":" ","MAREA":" ","LANE":" ","ALLEY":" ","HOUSE_NO":"２１７號","E_COORD97":181149.23999999999,"N_COORD97":2540665.25,"ADDRESS":"忠孝街２１７號","OBJECTID":195296},"geometry":{"x":181149.24000000022,"y":2540665.25}},{"attributes":{"ID":195298,"DIS_CODE":0,"TOWNNAME":"永康區","LI":"二王里","LIN":" ","STREET":"南工街","SECT":" ","MAREA":" ","LANE":"２１２巷","ALLEY":"１３弄","HOUSE_NO":"１８之５號","E_COORD97":172173.91,"N_COORD97":2545970.6099999999,"ADDRESS":"南工街２１２巷１３弄１８之５號","OBJECTID":195297},"geometry":{"x":172173.90999999922,"y":2545970.6100000013}},{"attributes":{"ID":195299,"DIS_CODE":0,"TOWNNAME":"新市區","LI":"港墘里","LIN":"18鄰","STREET":"光華街","SECT":" ","MAREA":" ","LANE":"８４巷","ALLEY":"１８弄","HOUSE_NO":"２號","E_COORD97":178061.56,"N_COORD97":2552681.25,"ADDRESS":"光華街８４巷１８弄２號","OBJECTID":195298},"geometry":{"x":178061.56000000145,"y":2552681.25}},{"attributes":{"ID":195300,"DIS_CODE":0,"TOWNNAME":"東山區","LI":"東正里","LIN":"3鄰","STREET":" ","SECT":" ","MAREA":"東勢","LANE":" ","ALLEY":" ","HOUSE_NO":"２１號之４","E_COORD97":189434.60999999999,"N_COORD97":2580065.02,"ADDRESS":"東勢２１號之４","OBJECTID":195299},"geometry":{"x":189434.61000000034,"y":2580065.0200000014}},{"attributes":{"ID":195301,"DIS_CODE":0,"TOWNNAME":"東山區","LI":"東正里","LIN":"3鄰","STREET":" ","SECT":" ","MAREA":"東勢","LANE":" ","ALLEY":" ","HOUSE_NO":"２１號之６","E_COORD97":189428,"N_COORD97":2580051.2599999998,"ADDRESS":"東勢２１號之６","OBJECTID":195300},"geometry":{"x":189428,"y":2580051.2599999998}},{"attributes":{"ID":195302,"DIS_CODE":0,"TOWNNAME":"東山區","LI":"林安里","LIN":"3鄰","STREET":" ","SECT":" ","MAREA":"林安","LANE":" ","ALLEY":" ","HOUSE_NO":"１６號之１","E_COORD97":192229.98000000001,"N_COORD97":2575185.8900000001,"ADDRESS":"林安１６號之１","OBJECTID":195301},"geometry":{"x":192229.98000000138,"y":2575185.8900000006}},{"attributes":{"ID":195303,"DIS_CODE":0,"TOWNNAME":"東山區","LI":"林安里","LIN":"3鄰","STREET":" ","SECT":" ","MAREA":"林安","LANE":" ","ALLEY":" ","HOUSE_NO":"１６號","E_COORD97":192193.54999999999,"N_COORD97":2575161.3999999999,"ADDRESS":"林安１６號","OBJECTID":195302},"geometry":{"x":192193.55000000075,"y":2575161.4000000004}},{"attributes":{"ID":195304,"DIS_CODE":0,"TOWNNAME":"東山區","LI":"林安里","LIN":"3鄰","STREET":" ","SECT":" ","MAREA":"林安","LANE":" ","ALLEY":" ","HOUSE_NO":"２１號","E_COORD97":192218.45999999999,"N_COORD97":2575121.7599999998,"ADDRESS":"林安２１號","OBJECTID":195303},"geometry":{"x":192218.45999999996,"y":2575121.7599999998}},{"attributes":{"ID":195305,"DIS_CODE":0,"TOWNNAME":"東山區","LI":"林安里","LIN":"3鄰","STREET":" ","SECT":" ","MAREA":"林安","LANE":" ","ALLEY":" ","HOUSE_NO":"２７號之１","E_COORD97":192174.70999999999,"N_COORD97":2575173.0699999998,"ADDRESS":"林安２７號之１","OBJECTID":195304},"geometry":{"x":192174.70999999996,"y":2575173.0700000022}},{"attributes":{"ID":195306,"DIS_CODE":0,"TOWNNAME":"東山區","LI":"林安里","LIN":"3鄰","STREET":" ","SECT":" ","MAREA":"林安","LANE":" ","ALLEY":" ","HOUSE_NO":"２７號之２","E_COORD97":192131.63,"N_COORD97":2575123.8399999999,"ADDRESS":"林安２７號之２","OBJECTID":195305},"geometry":{"x":192131.63000000082,"y":2575123.8399999999}},{"attributes":{"ID":195307,"DIS_CODE":0,"TOWNNAME":"仁德區","LI":"仁德里","LIN":"18鄰","STREET":"文華路","SECT":"三段","MAREA":" ","LANE":"１８９巷","ALLEY":"２７弄","HOUSE_NO":"３０號","E_COORD97":172136.82000000001,"N_COORD97":2540373.23,"ADDRESS":"文華路三段１８９巷２７弄３０號","OBJECTID":195306},"geometry":{"x":172136.8200000003,"y":2540373.2300000023}},{"attributes":{"ID":195308,"DIS_CODE":0,"TOWNNAME":"東山區","LI":"林安里","LIN":"3鄰","STREET":" ","SECT":" ","MAREA":"林安","LANE":" ","ALLEY":" ","HOUSE_NO":"２７號之３","E_COORD97":192150.76999999999,"N_COORD97":2575130.2000000002,"ADDRESS":"林安２７號之３","OBJECTID":195307},"geometry":{"x":192150.77000000048,"y":2575130.2000000011}},{"attributes":{"ID":195309,"DIS_CODE":0,"TOWNNAME":"東山區","LI":"林安里","LIN":"3鄰","STREET":" ","SECT":" ","MAREA":"林安","LANE":" ","ALLEY":" ","HOUSE_NO":"２７號","E_COORD97":192172.98000000001,"N_COORD97":2575138,"ADDRESS":"林安２７號","OBJECTID":195308},"geometry":{"x":192172.98000000045,"y":2575138.0000000037}},{"attributes":{"ID":195310,"DIS_CODE":0,"TOWNNAME":"東山區","LI":"林安里","LIN":"3鄰","STREET":" ","SECT":" ","MAREA":"林安","LANE":" ","ALLEY":" ","HOUSE_NO":"２８號","E_COORD97":192120.19,"N_COORD97":2575160.96,"ADDRESS":"林安２８號","OBJECTID":195309},"geometry":{"x":192120.19000000134,"y":2575160.9600000028}},{"attributes":{"ID":195311,"DIS_CODE":0,"TOWNNAME":"東山區","LI":"青山里","LIN":"3鄰","STREET":" ","SECT":" ","MAREA":"青山","LANE":" ","ALLEY":" ","HOUSE_NO":"１８號之２","E_COORD97":195566.23999999999,"N_COORD97":2575405.3300000001,"ADDRESS":"青山１８號之２","OBJECTID":195310},"geometry":{"x":195566.24000000115,"y":2575405.3300000001}},{"attributes":{"ID":195312,"DIS_CODE":0,"TOWNNAME":"東山區","LI":"青山里","LIN":"3鄰","STREET":" ","SECT":" ","MAREA":"青山","LANE":" ","ALLEY":" ","HOUSE_NO":"１８號","E_COORD97":195555.82000000001,"N_COORD97":2575391.8399999999,"ADDRESS":"青山１８號","OBJECTID":195311},"geometry":{"x":195555.8200000003,"y":2575391.8399999999}},{"attributes":{"ID":195313,"DIS_CODE":0,"TOWNNAME":"東山區","LI":"青山里","LIN":"3鄰","STREET":" ","SECT":" ","MAREA":"青山","LANE":" ","ALLEY":" ","HOUSE_NO":"１９號","E_COORD97":195602.19,"N_COORD97":2575387.6200000001,"ADDRESS":"青山１９號","OBJECTID":195312},"geometry":{"x":195602.19000000134,"y":2575387.620000001}},{"attributes":{"ID":195314,"DIS_CODE":0,"TOWNNAME":"東山區","LI":"青山里","LIN":"3鄰","STREET":" ","SECT":" ","MAREA":"青山","LANE":" ","ALLEY":" ","HOUSE_NO":"２３號之３","E_COORD97":195645.84,"N_COORD97":2575397.6499999999,"ADDRESS":"青山２３號之３","OBJECTID":195313},"geometry":{"x":195645.84000000171,"y":2575397.6500000004}},{"attributes":{"ID":195315,"DIS_CODE":0,"TOWNNAME":"東山區","LI":"青山里","LIN":"3鄰","STREET":" ","SECT":" ","MAREA":"青山","LANE":" ","ALLEY":" ","HOUSE_NO":"２４號之１","E_COORD97":195640.17999999999,"N_COORD97":2575393.4300000002,"ADDRESS":"青山２４號之１","OBJECTID":195314},"geometry":{"x":195640.18000000063,"y":2575393.4300000016}},{"attributes":{"ID":195316,"DIS_CODE":0,"TOWNNAME":"東山區","LI":"青山里","LIN":"3鄰","STREET":" ","SECT":" ","MAREA":"青山","LANE":" ","ALLEY":" ","HOUSE_NO":"２４號","E_COORD97":195643.17000000001,"N_COORD97":2575395.5299999998,"ADDRESS":"青山２４號","OBJECTID":195315},"geometry":{"x":195643.16999999993,"y":2575395.5300000012}},{"attributes":{"ID":195317,"DIS_CODE":0,"TOWNNAME":"東山區","LI":"青山里","LIN":"3鄰","STREET":" ","SECT":" ","MAREA":"青山","LANE":" ","ALLEY":" ","HOUSE_NO":"２５號之１","E_COORD97":195637.12,"N_COORD97":2575390.8199999998,"ADDRESS":"青山２５號之１","OBJECTID":195316},"geometry":{"x":195637.12000000011,"y":2575390.8200000022}},{"attributes":{"ID":195318,"DIS_CODE":0,"TOWNNAME":"東山區","LI":"青山里","LIN":"3鄰","STREET":" ","SECT":" ","MAREA":"青山","LANE":" ","ALLEY":" ","HOUSE_NO":"２５號","E_COORD97":195633.76999999999,"N_COORD97":2575389.0899999999,"ADDRESS":"青山２５號","OBJECTID":195317},"geometry":{"x":195633.76999999955,"y":2575389.0900000017}},{"attributes":{"ID":195319,"DIS_CODE":0,"TOWNNAME":"東山區","LI":"青山里","LIN":"3鄰","STREET":" ","SECT":" ","MAREA":"青山","LANE":" ","ALLEY":" ","HOUSE_NO":"３０號之１７","E_COORD97":195447.53,"N_COORD97":2575348.5600000001,"ADDRESS":"青山３０號之１７","OBJECTID":195318},"geometry":{"x":195447.53000000026,"y":2575348.5600000024}},{"attributes":{"ID":195320,"DIS_CODE":0,"TOWNNAME":"東山區","LI":"青山里","LIN":"3鄰","STREET":" ","SECT":" ","MAREA":"青山","LANE":" ","ALLEY":" ","HOUSE_NO":"３０號之１８","E_COORD97":195447.29000000001,"N_COORD97":2575355.4199999999,"ADDRESS":"青山３０號之１８","OBJECTID":195319},"geometry":{"x":195447.29000000004,"y":2575355.4200000037}},{"attributes":{"ID":195321,"DIS_CODE":0,"TOWNNAME":"東山區","LI":"青山里","LIN":"3鄰","STREET":" ","SECT":" ","MAREA":"青山","LANE":" ","ALLEY":" ","HOUSE_NO":"３０號之１９","E_COORD97":195447.04999999999,"N_COORD97":2575362.2799999998,"ADDRESS":"青山３０號之１９","OBJECTID":195320},"geometry":{"x":195447.04999999981,"y":2575362.2800000031}},{"attributes":{"ID":195322,"DIS_CODE":0,"TOWNNAME":"東山區","LI":"青山里","LIN":"3鄰","STREET":" ","SECT":" ","MAREA":"青山","LANE":" ","ALLEY":" ","HOUSE_NO":"３０號之２０","E_COORD97":195446.79999999999,"N_COORD97":2575369.1400000001,"ADDRESS":"青山３０號之２０","OBJECTID":195321},"geometry":{"x":195446.80000000075,"y":2575369.1400000025}},{"attributes":{"ID":195323,"DIS_CODE":0,"TOWNNAME":"關廟區","LI":"五甲里","LIN":"21鄰","STREET":"五權街","SECT":" ","MAREA":" ","LANE":" ","ALLEY":" ","HOUSE_NO":"５號","E_COORD97":181028.57000000001,"N_COORD97":2539165.25,"ADDRESS":"五權街５號","OBJECTID":195322},"geometry":{"x":181028.5700000003,"y":2539165.2500000019}},{"attributes":{"ID":195324,"DIS_CODE":0,"TOWNNAME":"關廟區","LI":"五甲里","LIN":"21鄰","STREET":"五權街","SECT":" ","MAREA":" ","LANE":" ","ALLEY":" ","HOUSE_NO":"１５號","E_COORD97":181043.62,"N_COORD97":2539147.25,"ADDRESS":"五權街１５號","OBJECTID":195323},"geometry":{"x":181043.62000000197,"y":2539147.2500000037}},{"attributes":{"ID":195325,"DIS_CODE":0,"TOWNNAME":"關廟區","LI":"五甲里","LIN":"21鄰","STREET":"五權街","SECT":" ","MAREA":" ","LANE":" ","ALLEY":" ","HOUSE_NO":"９號","E_COORD97":181033.57000000001,"N_COORD97":2539158.25,"ADDRESS":"五權街９號","OBJECTID":195324},"geometry":{"x":181033.5700000003,"y":2539158.2500000019}},{"attributes":{"ID":195326,"DIS_CODE":0,"TOWNNAME":"東山區","LI":"青山里","LIN":"3鄰","STREET":" ","SECT":" ","MAREA":"青山","LANE":" ","ALLEY":" ","HOUSE_NO":"３０號之３","E_COORD97":195524,"N_COORD97":2575314.46,"ADDRESS":"青山３０號之３","OBJECTID":195325},"geometry":{"x":195524,"y":2575314.4600000009}},{"attributes":{"ID":195327,"DIS_CODE":0,"TOWNNAME":"關廟區","LI":"五甲里","LIN":"21鄰","STREET":"五權街","SECT":" ","MAREA":" ","LANE":" ","ALLEY":" ","HOUSE_NO":"３０號","E_COORD97":181061.72,"N_COORD97":2539108.25,"ADDRESS":"五權街３０號","OBJECTID":195326},"geometry":{"x":181061.72000000067,"y":2539108.25}},{"attributes":{"ID":195328,"DIS_CODE":0,"TOWNNAME":"仁德區","LI":"仁德里","LIN":"18鄰","STREET":"文華路","SECT":"三段","MAREA":" ","LANE":"１８９巷","ALLEY":"９２弄","HOUSE_NO":"８１號","E_COORD97":172126.28,"N_COORD97":2540570.7799999998,"ADDRESS":"文華路三段１８９巷９２弄８１號","OBJECTID":195327},"geometry":{"x":172126.28000000119,"y":2540570.7800000012}},{"attributes":{"ID":195329,"DIS_CODE":0,"TOWNNAME":"東山區","LI":"青山里","LIN":"3鄰","STREET":" ","SECT":" ","MAREA":"青山","LANE":" ","ALLEY":" ","HOUSE_NO":"３０號","E_COORD97":195562.48999999999,"N_COORD97":2575344.8900000001,"ADDRESS":"青山３０號","OBJECTID":195328},"geometry":{"x":195562.49000000115,"y":2575344.8900000006}},{"attributes":{"ID":195330,"DIS_CODE":0,"TOWNNAME":"新化區","LI":"山\u25A0里","LIN":"3鄰","STREET":" ","SECT":" ","MAREA":"頂山\u25A0","LANE":" ","ALLEY":" ","HOUSE_NO":"９８號之２","E_COORD97":179647.63,"N_COORD97":2546664.2599999998,"ADDRESS":"頂山\u25A0９８號之２","OBJECTID":195329},"geometry":{"x":179647.62999999989,"y":2546664.2600000016}},{"attributes":{"ID":195331,"DIS_CODE":0,"TOWNNAME":"仁德區","LI":"成功里","LIN":"18鄰","STREET":"全福路","SECT":" ","MAREA":" ","LANE":"７５巷","ALLEY":"１４弄","HOUSE_NO":"１７號","E_COORD97":171094.45999999999,"N_COORD97":2539353.7400000002,"ADDRESS":"全福路７５巷１４弄１７號","OBJECTID":195330},"geometry":{"x":171094.46000000089,"y":2539353.7400000002}},{"attributes":{"ID":195332,"DIS_CODE":0,"TOWNNAME":"新化區","LI":"\u25A0拔里","LIN":"3鄰","STREET":" ","SECT":" ","MAREA":"\u25A0拔林","LANE":" ","ALLEY":" ","HOUSE_NO":"１５４號之４","E_COORD97":183952.16,"N_COORD97":2552186.2599999998,"ADDRESS":"\u25A0拔林１５４號之４","OBJECTID":195331},"geometry":{"x":183952.16000000201,"y":2552186.2600000035}},{"attributes":{"ID":195333,"DIS_CODE":0,"TOWNNAME":"新化區","LI":"\u25A0拔里","LIN":"3鄰","STREET":" ","SECT":" ","MAREA":"\u25A0拔林","LANE":" ","ALLEY":" ","HOUSE_NO":"１５２號","E_COORD97":183883.51999999999,"N_COORD97":2552157.25,"ADDRESS":"\u25A0拔林１５２號","OBJECTID":195332},"geometry":{"x":183883.52000000048,"y":2552157.2500000019}},{"attributes":{"ID":195334,"DIS_CODE":0,"TOWNNAME":"新化區","LI":"羊林里","LIN":"3鄰","STREET":" ","SECT":" ","MAREA":"\u25A0拔林","LANE":" ","ALLEY":" ","HOUSE_NO":"４２５號之１","E_COORD97":183765.35000000001,"N_COORD97":2551709.2599999998,"ADDRESS":"\u25A0拔林４２５號之１","OBJECTID":195333},"geometry":{"x":183765.34999999963,"y":2551709.2600000016}},{"attributes":{"ID":195335,"DIS_CODE":0,"TOWNNAME":"仁德區","LI":"成功里","LIN":"18鄰","STREET":"全福路","SECT":" ","MAREA":" ","LANE":"７５巷","ALLEY":"１４弄","HOUSE_NO":"１３號","E_COORD97":171086.07000000001,"N_COORD97":2539354.4900000002,"ADDRESS":"全福路７５巷１４弄１３號","OBJECTID":195334},"geometry":{"x":171086.0700000003,"y":2539354.4900000002}},{"attributes":{"ID":195336,"DIS_CODE":0,"TOWNNAME":"仁德區","LI":"成功里","LIN":"18鄰","STREET":"全福路","SECT":" ","MAREA":" ","LANE":"７５巷","ALLEY":"１４弄","HOUSE_NO":"１０號","E_COORD97":171074.72,"N_COORD97":2539338.7400000002,"ADDRESS":"全福路７５巷１４弄１０號","OBJECTID":195335},"geometry":{"x":171074.7200000016,"y":2539338.7400000021}},{"attributes":{"ID":195337,"DIS_CODE":0,"TOWNNAME":"仁德區","LI":"後壁里","LIN":"18鄰","STREET":"德南路","SECT":" ","MAREA":" ","LANE":"７０巷","ALLEY":"４１弄","HOUSE_NO":"３號","E_COORD97":173384.26999999999,"N_COORD97":2538602.5099999998,"ADDRESS":"德南路７０巷４１弄３號","OBJECTID":195336},"geometry":{"x":173384.26999999955,"y":2538602.5099999979}},{"attributes":{"ID":195338,"DIS_CODE":0,"TOWNNAME":"仁德區","LI":"後壁里","LIN":"18鄰","STREET":"德南路","SECT":" ","MAREA":" ","LANE":"７０巷","ALLEY":"４１弄","HOUSE_NO":"７號","E_COORD97":173399.37,"N_COORD97":2538614.5099999998,"ADDRESS":"德南路７０巷４１弄７號","OBJECTID":195337},"geometry":{"x":173399.37000000011,"y":2538614.5100000016}},{"attributes":{"ID":195339,"DIS_CODE":0,"TOWNNAME":"新化區","LI":"崙頂里","LIN":"3鄰","STREET":" ","SECT":" ","MAREA":"崙子頂","LANE":" ","ALLEY":" ","HOUSE_NO":"１６９號","E_COORD97":176678.23000000001,"N_COORD97":2546764.25,"ADDRESS":"崙子頂１６９號","OBJECTID":195338},"geometry":{"x":176678.23000000138,"y":2546764.25}},{"attributes":{"ID":195340,"DIS_CODE":0,"TOWNNAME":"新化區","LI":"北勢里","LIN":"3鄰","STREET":" ","SECT":" ","MAREA":"北勢","LANE":" ","ALLEY":" ","HOUSE_NO":"７４號之１","E_COORD97":177335.45999999999,"N_COORD97":2549691.2599999998,"ADDRESS":"北勢７４號之１","OBJECTID":195339},"geometry":{"x":177335.46000000183,"y":2549691.2600000016}},{"attributes":{"ID":195341,"DIS_CODE":0,"TOWNNAME":"新化區","LI":"全興里","LIN":"3鄰","STREET":" ","SECT":" ","MAREA":"竹子\u25A0","LANE":" ","ALLEY":" ","HOUSE_NO":"２３號","E_COORD97":177655.28,"N_COORD97":2547830.25,"ADDRESS":"竹子\u25A0２３號","OBJECTID":195340},"geometry":{"x":177655.28000000026,"y":2547830.2500000019}},{"attributes":{"ID":195342,"DIS_CODE":0,"TOWNNAME":"新化區","LI":"崙頂里","LIN":"3鄰","STREET":" ","SECT":" ","MAREA":"崙子頂","LANE":" ","ALLEY":" ","HOUSE_NO":"１５３號","E_COORD97":176727.32999999999,"N_COORD97":2546771.25,"ADDRESS":"崙子頂１５３號","OBJECTID":195341},"geometry":{"x":176727.33000000007,"y":2546771.25}},{"attributes":{"ID":195343,"DIS_CODE":0,"TOWNNAME":"安定區","LI":"大同里","LIN":"3鄰","STREET":" ","SECT":" ","MAREA":"大同","LANE":" ","ALLEY":" ","HOUSE_NO":"３２號","E_COORD97":170446.87,"N_COORD97":2553908.25,"ADDRESS":"大同３２號","OBJECTID":195342},"geometry":{"x":170446.87000000197,"y":2553908.25}},{"attributes":{"ID":195344,"DIS_CODE":0,"TOWNNAME":"新化區","LI":"全興里","LIN":"3鄰","STREET":" ","SECT":" ","MAREA":"竹子\u25A0","LANE":" ","ALLEY":" ","HOUSE_NO":"４０號","E_COORD97":177619.48000000001,"N_COORD97":2547837.25,"ADDRESS":"竹子\u25A0４０號","OBJECTID":195343},"geometry":{"x":177619.48000000138,"y":2547837.2500000019}},{"attributes":{"ID":195345,"DIS_CODE":0,"TOWNNAME":"新化區","LI":"\u25A0拔里","LIN":"3鄰","STREET":" ","SECT":" ","MAREA":"\u25A0拔林","LANE":" ","ALLEY":" ","HOUSE_NO":"１０５號","E_COORD97":183561.62,"N_COORD97":2551993.25,"ADDRESS":"\u25A0拔林１０５號","OBJECTID":195344},"geometry":{"x":183561.62000000104,"y":2551993.2500000037}},{"attributes":{"ID":195346,"DIS_CODE":0,"TOWNNAME":"新化區","LI":"北勢里","LIN":"3鄰","STREET":" ","SECT":" ","MAREA":"北勢","LANE":" ","ALLEY":" ","HOUSE_NO":"７５號","E_COORD97":177355.82999999999,"N_COORD97":2549681.2599999998,"ADDRESS":"北勢７５號","OBJECTID":195345},"geometry":{"x":177355.83000000101,"y":2549681.2600000016}},{"attributes":{"ID":195347,"DIS_CODE":0,"TOWNNAME":"仁德區","LI":"後壁里","LIN":"18鄰","STREET":"德南路","SECT":" ","MAREA":" ","LANE":"７０巷","ALLEY":"４１弄","HOUSE_NO":"１５號","E_COORD97":173413.73000000001,"N_COORD97":2538628.2599999998,"ADDRESS":"德南路７０巷４１弄１５號","OBJECTID":195346},"geometry":{"x":173413.73000000138,"y":2538628.2600000035}},{"attributes":{"ID":195348,"DIS_CODE":0,"TOWNNAME":"新化區","LI":"山\u25A0里","LIN":"3鄰","STREET":" ","SECT":" ","MAREA":"頂山\u25A0","LANE":" ","ALLEY":" ","HOUSE_NO":"１０４號","E_COORD97":179579.73000000001,"N_COORD97":2546631.25,"ADDRESS":"頂山\u25A0１０４號","OBJECTID":195347},"geometry":{"x":179579.73000000045,"y":2546631.2500000019}},{"attributes":{"ID":195349,"DIS_CODE":0,"TOWNNAME":"新化區","LI":"\u25A0拔里","LIN":"3鄰","STREET":" ","SECT":" ","MAREA":"\u25A0拔林","LANE":" ","ALLEY":" ","HOUSE_NO":"１１１號之１","E_COORD97":183573.45000000001,"N_COORD97":2552030.2599999998,"ADDRESS":"\u25A0拔林１１１號之１","OBJECTID":195348},"geometry":{"x":183573.45000000019,"y":2552030.2600000035}},{"attributes":{"ID":195350,"DIS_CODE":0,"TOWNNAME":"新化區","LI":"知義里","LIN":"3鄰","STREET":" ","SECT":" ","MAREA":"知母義","LANE":" ","ALLEY":" ","HOUSE_NO":"１２９號","E_COORD97":179803.22,"N_COORD97":2547165.25,"ADDRESS":"知母義１２９號","OBJECTID":195349},"geometry":{"x":179803.2200000016,"y":2547165.2499999981}},{"attributes":{"ID":195351,"DIS_CODE":0,"TOWNNAME":"官田區","LI":"隆本里","LIN":"18鄰","STREET":"興隆街","SECT":" ","MAREA":" ","LANE":"３１巷","ALLEY":"６弄","HOUSE_NO":"１號","E_COORD97":179978.28,"N_COORD97":2566336.8100000001,"ADDRESS":"興隆街３１巷６弄１號","OBJECTID":195350},"geometry":{"x":179978.28000000119,"y":2566336.8100000005}},{"attributes":{"ID":195352,"DIS_CODE":0,"TOWNNAME":"新化區","LI":"全興里","LIN":"3鄰","STREET":" ","SECT":" ","MAREA":"竹子\u25A0","LANE":" ","ALLEY":" ","HOUSE_NO":"４０號之３","E_COORD97":177607.63,"N_COORD97":2547827.2599999998,"ADDRESS":"竹子\u25A0４０號之３","OBJECTID":195351},"geometry":{"x":177607.63000000082,"y":2547827.2600000016}},{"attributes":{"ID":195353,"DIS_CODE":0,"TOWNNAME":"新化區","LI":"知義里","LIN":"3鄰","STREET":" ","SECT":" ","MAREA":"知母義","LANE":" ","ALLEY":" ","HOUSE_NO":"１０３號之１２","E_COORD97":179829.42999999999,"N_COORD97":2547224.2599999998,"ADDRESS":"知母義１０３號之１２","OBJECTID":195352},"geometry":{"x":179829.43000000063,"y":2547224.2600000016}},{"attributes":{"ID":195354,"DIS_CODE":0,"TOWNNAME":"新化區","LI":"北勢里","LIN":"3鄰","STREET":" ","SECT":" ","MAREA":"北勢","LANE":" ","ALLEY":" ","HOUSE_NO":"６２號之９","E_COORD97":177392.88,"N_COORD97":2549680.2599999998,"ADDRESS":"北勢６２號之９","OBJECTID":195353},"geometry":{"x":177392.87999999989,"y":2549680.2599999998}},{"attributes":{"ID":195355,"DIS_CODE":0,"TOWNNAME":"官田區","LI":"隆本里","LIN":"18鄰","STREET":"興隆街","SECT":" ","MAREA":" ","LANE":"３１巷","ALLEY":"６弄","HOUSE_NO":"２號","E_COORD97":179975.79000000001,"N_COORD97":2566347.7200000002,"ADDRESS":"興隆街３１巷６弄２號","OBJECTID":195354},"geometry":{"x":179975.79000000004,"y":2566347.7200000007}},{"attributes":{"ID":195356,"DIS_CODE":0,"TOWNNAME":"官田區","LI":"隆本里","LIN":"18鄰","STREET":"興隆街","SECT":" ","MAREA":" ","LANE":"３１巷","ALLEY":"６弄","HOUSE_NO":"３號","E_COORD97":179971.32000000001,"N_COORD97":2566335.5499999998,"ADDRESS":"興隆街３１巷６弄３號","OBJECTID":195355},"geometry":{"x":179971.32000000123,"y":2566335.5500000007}},{"attributes":{"ID":195357,"DIS_CODE":0,"TOWNNAME":"官田區","LI":"隆本里","LIN":"18鄰","STREET":"興隆街","SECT":" ","MAREA":" ","LANE":"３１巷","ALLEY":"６弄","HOUSE_NO":"６號","E_COORD97":179968.95000000001,"N_COORD97":2566346,"ADDRESS":"興隆街３１巷６弄６號","OBJECTID":195356},"geometry":{"x":179968.95000000112,"y":2566346}},{"attributes":{"ID":195358,"DIS_CODE":0,"TOWNNAME":"新化區","LI":"崙頂里","LIN":"3鄰","STREET":" ","SECT":" ","MAREA":"崙子頂","LANE":" ","ALLEY":" ","HOUSE_NO":"１０９號之１","E_COORD97":176796.95999999999,"N_COORD97":2546758.2599999998,"ADDRESS":"崙子頂１０９號之１","OBJECTID":195357},"geometry":{"x":176796.96000000089,"y":2546758.2600000035}},{"attributes":{"ID":195359,"DIS_CODE":0,"TOWNNAME":"北區","LI":"和順里","LIN":"26鄰","STREET":"民德路","SECT":" ","MAREA":" ","LANE":"５８巷","ALLEY":"５弄","HOUSE_NO":"２號","E_COORD97":168212.56,"N_COORD97":2545244,"ADDRESS":"民德路５８巷５弄２號","OBJECTID":195358},"geometry":{"x":168212.56000000145,"y":2545244}},{"attributes":{"ID":195360,"DIS_CODE":0,"TOWNNAME":"永康區","LI":"五王里","LIN":"18鄰","STREET":"成功路","SECT":" ","MAREA":" ","LANE":"１７２巷","ALLEY":"４３弄","HOUSE_NO":"４號","E_COORD97":171526.20000000001,"N_COORD97":2545725.02,"ADDRESS":"成功路１７２巷４３弄４號","OBJECTID":195359},"geometry":{"x":171526.20000000205,"y":2545725.0199999996}},{"attributes":{"ID":195361,"DIS_CODE":0,"TOWNNAME":"新化區","LI":"\u25A0拔里","LIN":"3鄰","STREET":" ","SECT":" ","MAREA":"\u25A0拔林","LANE":" ","ALLEY":" ","HOUSE_NO":"１３２號之２","E_COORD97":183726.67999999999,"N_COORD97":2552142.2599999998,"ADDRESS":"\u25A0拔林１３２號之２","OBJECTID":195360},"geometry":{"x":183726.68000000063,"y":2552142.2600000035}},{"attributes":{"ID":195362,"DIS_CODE":0,"TOWNNAME":"永康區","LI":"五王里","LIN":"18鄰","STREET":"成功路","SECT":" ","MAREA":" ","LANE":"１７２巷","ALLEY":"４３弄","HOUSE_NO":"７號","E_COORD97":171516.23999999999,"N_COORD97":2545734.7599999998,"ADDRESS":"成功路１７２巷４３弄７號","OBJECTID":195361},"geometry":{"x":171516.24000000115,"y":2545734.7600000016}},{"attributes":{"ID":195363,"DIS_CODE":0,"TOWNNAME":"新化區","LI":"\u25A0拔里","LIN":"3鄰","STREET":" ","SECT":" ","MAREA":"\u25A0拔林","LANE":" ","ALLEY":" ","HOUSE_NO":"１５６號之１３","E_COORD97":183969.32000000001,"N_COORD97":2552253.2599999998,"ADDRESS":"\u25A0拔林１５６號之１３","OBJECTID":195362},"geometry":{"x":183969.3200000003,"y":2552253.2599999998}},{"attributes":{"ID":195364,"DIS_CODE":0,"TOWNNAME":"新化區","LI":"北勢里","LIN":"3鄰","STREET":" ","SECT":" ","MAREA":"北勢","LANE":" ","ALLEY":" ","HOUSE_NO":"６８號之２","E_COORD97":177461.48999999999,"N_COORD97":2549918.2599999998,"ADDRESS":"北勢６８號之２","OBJECTID":195363},"geometry":{"x":177461.49000000115,"y":2549918.2600000035}},{"attributes":{"ID":195365,"DIS_CODE":0,"TOWNNAME":"新化區","LI":"北勢里","LIN":"3鄰","STREET":" ","SECT":" ","MAREA":"北勢","LANE":" ","ALLEY":" ","HOUSE_NO":"５９號之５","E_COORD97":177389.79000000001,"N_COORD97":2549589.2599999998,"ADDRESS":"北勢５９號之５","OBJECTID":195364},"geometry":{"x":177389.79000000097,"y":2549589.2600000035}},{"attributes":{"ID":195366,"DIS_CODE":0,"TOWNNAME":"新化區","LI":"礁坑里","LIN":"3鄰","STREET":" ","SECT":" ","MAREA":"九層嶺","LANE":" ","ALLEY":" ","HOUSE_NO":"８４號","E_COORD97":185115.88,"N_COORD97":2547402.25,"ADDRESS":"九層嶺８４號","OBJECTID":195365},"geometry":{"x":185115.88000000082,"y":2547402.25}},{"attributes":{"ID":195367,"DIS_CODE":0,"TOWNNAME":"新化區","LI":"\u25A0拔里","LIN":"3鄰","STREET":" ","SECT":" ","MAREA":"\u25A0拔林","LANE":" ","ALLEY":" ","HOUSE_NO":"１１７號","E_COORD97":183645.51999999999,"N_COORD97":2552121.25,"ADDRESS":"\u25A0拔林１１７號","OBJECTID":195366},"geometry":{"x":183645.51999999955,"y":2552121.25}},{"attributes":{"ID":195368,"DIS_CODE":0,"TOWNNAME":"新化區","LI":"\u25A0拔里","LIN":"3鄰","STREET":" ","SECT":" ","MAREA":"\u25A0拔林","LANE":" ","ALLEY":" ","HOUSE_NO":"１５６號之１０","E_COORD97":183984.81,"N_COORD97":2552252.2599999998,"ADDRESS":"\u25A0拔林１５６號之１０","OBJECTID":195367},"geometry":{"x":183984.81000000052,"y":2552252.2600000016}},{"attributes":{"ID":195369,"DIS_CODE":0,"TOWNNAME":"新化區","LI":"\u25A0拔里","LIN":"3鄰","STREET":" ","SECT":" ","MAREA":"\u25A0拔林","LANE":" ","ALLEY":" ","HOUSE_NO":"１３１號","E_COORD97":183694.72,"N_COORD97":2552125.25,"ADDRESS":"\u25A0拔林１３１號","OBJECTID":195368},"geometry":{"x":183694.71999999974,"y":2552125.25}},{"attributes":{"ID":195370,"DIS_CODE":0,"TOWNNAME":"安南區","LI":"州北里","LIN":"18鄰","STREET":"安昌街","SECT":" ","MAREA":" ","LANE":"８５巷","ALLEY":"９７弄","HOUSE_NO":"１４號","E_COORD97":169880.44,"N_COORD97":2552429.9300000002,"ADDRESS":"安昌街８５巷９７弄１４號","OBJECTID":195369},"geometry":{"x":169880.43999999948,"y":2552429.9300000016}},{"attributes":{"ID":195371,"DIS_CODE":0,"TOWNNAME":"安南區","LI":"州北里","LIN":"18鄰","STREET":"安昌街","SECT":" ","MAREA":" ","LANE":"８５巷","ALLEY":"９７弄","HOUSE_NO":"１６號","E_COORD97":169880.44,"N_COORD97":2552433.8300000001,"ADDRESS":"安昌街８５巷９７弄１６號","OBJECTID":195370},"geometry":{"x":169880.43999999948,"y":2552433.8300000038}},{"attributes":{"ID":195372,"DIS_CODE":0,"TOWNNAME":"安南區","LI":"州北里","LIN":"18鄰","STREET":"安昌街","SECT":" ","MAREA":" ","LANE":"８５巷","ALLEY":"９７弄","HOUSE_NO":"１８號","E_COORD97":169880.20999999999,"N_COORD97":2552438.9100000001,"ADDRESS":"安昌街８５巷９７弄１８號","OBJECTID":195371},"geometry":{"x":169880.21000000089,"y":2552438.9100000001}},{"attributes":{"ID":195373,"DIS_CODE":0,"TOWNNAME":"安南區","LI":"州北里","LIN":"18鄰","STREET":"安昌街","SECT":" ","MAREA":" ","LANE":"８５巷","ALLEY":"９７弄","HOUSE_NO":"２０號","E_COORD97":169879.98000000001,"N_COORD97":2552442.7599999998,"ADDRESS":"安昌街８５巷９７弄２０號","OBJECTID":195372},"geometry":{"x":169879.98000000045,"y":2552442.7599999998}},{"attributes":{"ID":195374,"DIS_CODE":0,"TOWNNAME":"安南區","LI":"州北里","LIN":"18鄰","STREET":"安昌街","SECT":" ","MAREA":" ","LANE":"８５巷","ALLEY":"９７弄","HOUSE_NO":"２２號","E_COORD97":169882.47,"N_COORD97":2552446.9399999999,"ADDRESS":"安昌街８５巷９７弄２２號","OBJECTID":195373},"geometry":{"x":169882.46999999974,"y":2552446.9400000013}},{"attributes":{"ID":195375,"DIS_CODE":0,"TOWNNAME":"新化區","LI":"\u25A0拔里","LIN":"3鄰","STREET":" ","SECT":" ","MAREA":"\u25A0拔林","LANE":" ","ALLEY":" ","HOUSE_NO":"１２０號之２","E_COORD97":183701.67999999999,"N_COORD97":2552193.2599999998,"ADDRESS":"\u25A0拔林１２０號之２","OBJECTID":195374},"geometry":{"x":183701.6799999997,"y":2552193.2600000035}},{"attributes":{"ID":195376,"DIS_CODE":0,"TOWNNAME":"安南區","LI":"州北里","LIN":"18鄰","STREET":"安昌街","SECT":" ","MAREA":" ","LANE":"８５巷","ALLEY":"９７弄","HOUSE_NO":"２４號","E_COORD97":169879.42000000001,"N_COORD97":2552450.8500000001,"ADDRESS":"安昌街８５巷９７弄２４號","OBJECTID":195375},"geometry":{"x":169879.41999999993,"y":2552450.8500000015}},{"attributes":{"ID":195377,"DIS_CODE":0,"TOWNNAME":"安南區","LI":"州北里","LIN":"18鄰","STREET":"安昌街","SECT":" ","MAREA":" ","LANE":"８５巷","ALLEY":"９７弄","HOUSE_NO":"２６號","E_COORD97":169879.07999999999,"N_COORD97":2552455.4900000002,"ADDRESS":"安昌街８５巷９７弄２６號","OBJECTID":195376},"geometry":{"x":169879.07999999914,"y":2552455.4900000002}},{"attributes":{"ID":195378,"DIS_CODE":0,"TOWNNAME":"安南區","LI":"州北里","LIN":"18鄰","STREET":"安昌街","SECT":" ","MAREA":" ","LANE":"８５巷","ALLEY":"９７弄","HOUSE_NO":"２８號","E_COORD97":169878.73999999999,"N_COORD97":2552459.8999999999,"ADDRESS":"安昌街８５巷９７弄２８號","OBJECTID":195377},"geometry":{"x":169878.74000000115,"y":2552459.9000000004}},{"attributes":{"ID":195379,"DIS_CODE":0,"TOWNNAME":"永康區","LI":"尚頂里","LIN":"18鄰","STREET":"南台街","SECT":" ","MAREA":" ","LANE":"５４巷","ALLEY":"１６弄","HOUSE_NO":"５號","E_COORD97":170417.25,"N_COORD97":2547096.7400000002,"ADDRESS":"南台街５４巷１６弄５號","OBJECTID":195378},"geometry":{"x":170417.25000000093,"y":2547096.7400000002}},{"attributes":{"ID":195380,"DIS_CODE":0,"TOWNNAME":"永康區","LI":"復興里","LIN":"18鄰","STREET":"復興路","SECT":" ","MAREA":" ","LANE":"３５６巷","ALLEY":"７１弄","HOUSE_NO":"３０號","E_COORD97":172313.59,"N_COORD97":2544528.27,"ADDRESS":"復興路３５６巷７１弄３０號","OBJECTID":195379},"geometry":{"x":172313.59000000078,"y":2544528.2700000014}},{"attributes":{"ID":195381,"DIS_CODE":0,"TOWNNAME":"安南區","LI":"州北里","LIN":"18鄰","STREET":"安昌街","SECT":" ","MAREA":" ","LANE":"８５巷","ALLEY":"９７弄","HOUSE_NO":"１７號","E_COORD97":169856.67999999999,"N_COORD97":2552392.8100000001,"ADDRESS":"安昌街８５巷９７弄１７號","OBJECTID":195380},"geometry":{"x":169856.68000000063,"y":2552392.8100000005}},{"attributes":{"ID":195382,"DIS_CODE":0,"TOWNNAME":"安南區","LI":"州北里","LIN":"18鄰","STREET":"安昌街","SECT":" ","MAREA":" ","LANE":"８５巷","ALLEY":"９７弄","HOUSE_NO":"１９號","E_COORD97":169856.85999999999,"N_COORD97":2552388.2799999998,"ADDRESS":"安昌街８５巷９７弄１９號","OBJECTID":195381},"geometry":{"x":169856.86000000034,"y":2552388.2799999993}},{"attributes":{"ID":195383,"DIS_CODE":0,"TOWNNAME":"安南區","LI":"州北里","LIN":"18鄰","STREET":"安昌街","SECT":" ","MAREA":" ","LANE":"８５巷","ALLEY":"９７弄","HOUSE_NO":"２１號","E_COORD97":169857.38,"N_COORD97":2552383.7400000002,"ADDRESS":"安昌街８５巷９７弄２１號","OBJECTID":195382},"geometry":{"x":169857.38000000082,"y":2552383.7400000039}},{"attributes":{"ID":195384,"DIS_CODE":0,"TOWNNAME":"安南區","LI":"州北里","LIN":"18鄰","STREET":"安昌街","SECT":" ","MAREA":" ","LANE":"８５巷","ALLEY":"９７弄","HOUSE_NO":"２３號","E_COORD97":169857.38,"N_COORD97":2552378.1600000001,"ADDRESS":"安昌街８５巷９７弄２３號","OBJECTID":195383},"geometry":{"x":169857.38000000082,"y":2552378.160000002}},{"attributes":{"ID":195385,"DIS_CODE":0,"TOWNNAME":"安南區","LI":"州北里","LIN":"18鄰","STREET":"安昌街","SECT":" ","MAREA":" ","LANE":"８５巷","ALLEY":"９７弄","HOUSE_NO":"２７號","E_COORD97":169857.89999999999,"N_COORD97":2552367.52,"ADDRESS":"安昌街８５巷９７弄２７號","OBJECTID":195384},"geometry":{"x":169857.90000000037,"y":2552367.5200000033}},{"attributes":{"ID":195386,"DIS_CODE":0,"TOWNNAME":"安南區","LI":"州北里","LIN":"18鄰","STREET":"安昌街","SECT":" ","MAREA":" ","LANE":"８５巷","ALLEY":"９７弄","HOUSE_NO":"２９號","E_COORD97":169842.35999999999,"N_COORD97":2552367.3500000001,"ADDRESS":"安昌街８５巷９７弄２９號","OBJECTID":195385},"geometry":{"x":169842.36000000127,"y":2552367.3499999996}},{"attributes":{"ID":195387,"DIS_CODE":0,"TOWNNAME":"安南區","LI":"州北里","LIN":"18鄰","STREET":"安昌街","SECT":" ","MAREA":" ","LANE":"８５巷","ALLEY":"９７弄","HOUSE_NO":"３１號","E_COORD97":169842.01000000001,"N_COORD97":2552372.4100000001,"ADDRESS":"安昌街８５巷９７弄３１號","OBJECTID":195386},"geometry":{"x":169842.01000000164,"y":2552372.410000002}},{"attributes":{"ID":195388,"DIS_CODE":0,"TOWNNAME":"北區","LI":"大豐里","LIN":"21鄰","STREET":"大興街","SECT":" ","MAREA":" ","LANE":"２８５巷","ALLEY":" ","HOUSE_NO":"７９號","E_COORD97":166716.32999999999,"N_COORD97":2545529.8500000001,"ADDRESS":"大興街２８５巷７９號","OBJECTID":195387},"geometry":{"x":166716.33000000101,"y":2545529.8499999996}},{"attributes":{"ID":195389,"DIS_CODE":0,"TOWNNAME":"安平區","LI":"文平里","LIN":"15鄰","STREET":"建平五街","SECT":" ","MAREA":" ","LANE":" ","ALLEY":" ","HOUSE_NO":"５３號","E_COORD97":166008.17999999999,"N_COORD97":2543115.2599999998,"ADDRESS":"建平五街５３號","OBJECTID":195388},"geometry":{"x":166008.18000000063,"y":2543115.2600000016}},{"attributes":{"ID":195390,"DIS_CODE":0,"TOWNNAME":"安平區","LI":"怡平里","LIN":"15鄰","STREET":"文平路","SECT":" ","MAREA":" ","LANE":" ","ALLEY":" ","HOUSE_NO":"４６３號","E_COORD97":165800.01000000001,"N_COORD97":2543878.0600000001,"ADDRESS":"文平路４６３號","OBJECTID":195389},"geometry":{"x":165800.00999999978,"y":2543878.0600000005}},{"attributes":{"ID":195391,"DIS_CODE":0,"TOWNNAME":"北區","LI":"文元里","LIN":"21鄰","STREET":"海安路","SECT":"三段","MAREA":" ","LANE":" ","ALLEY":" ","HOUSE_NO":"７６９號","E_COORD97":168021.32999999999,"N_COORD97":2545961.2400000002,"ADDRESS":"海安路三段７６９號","OBJECTID":195390},"geometry":{"x":168021.33000000194,"y":2545961.2400000002}},{"attributes":{"ID":195392,"DIS_CODE":0,"TOWNNAME":"北區","LI":"文元里","LIN":"21鄰","STREET":"海安路","SECT":"三段","MAREA":" ","LANE":" ","ALLEY":" ","HOUSE_NO":"７７１號","E_COORD97":168020.70000000001,"N_COORD97":2545968.54,"ADDRESS":"海安路三段７７１號","OBJECTID":195391},"geometry":{"x":168020.70000000205,"y":2545968.5399999991}},{"attributes":{"ID":195393,"DIS_CODE":0,"TOWNNAME":"安南區","LI":"州北里","LIN":"18鄰","STREET":"安昌街","SECT":" ","MAREA":" ","LANE":"８５巷","ALLEY":"９７弄","HOUSE_NO":"３３號","E_COORD97":169842.19,"N_COORD97":2552377.9900000002,"ADDRESS":"安昌街８５巷９７弄３３號","OBJECTID":195392},"geometry":{"x":169842.19000000134,"y":2552377.9900000002}},{"attributes":{"ID":195394,"DIS_CODE":0,"TOWNNAME":"安南區","LI":"州北里","LIN":"18鄰","STREET":"安昌街","SECT":" ","MAREA":" ","LANE":"８５巷","ALLEY":"９７弄","HOUSE_NO":"３５號","E_COORD97":169841.66,"N_COORD97":2552383.5699999998,"ADDRESS":"安昌街８５巷９７弄３５號","OBJECTID":195393},"geometry":{"x":169841.66000000108,"y":2552383.5700000003}},{"attributes":{"ID":195395,"DIS_CODE":0,"TOWNNAME":"安南區","LI":"州北里","LIN":"18鄰","STREET":"安昌街","SECT":" ","MAREA":" ","LANE":"８５巷","ALLEY":"９７弄","HOUSE_NO":"３７號","E_COORD97":169841.66,"N_COORD97":2552388.1000000001,"ADDRESS":"安昌街８５巷９７弄３７號","OBJECTID":195394},"geometry":{"x":169841.66000000108,"y":2552388.1000000015}},{"attributes":{"ID":195396,"DIS_CODE":0,"TOWNNAME":"安南區","LI":"州北里","LIN":"18鄰","STREET":"安昌街","SECT":" ","MAREA":" ","LANE":"８５巷","ALLEY":"９７弄","HOUSE_NO":"３９號","E_COORD97":169841.14000000001,"N_COORD97":2552393.3399999999,"ADDRESS":"安昌街８５巷９７弄３９號","OBJECTID":195395},"geometry":{"x":169841.14000000153,"y":2552393.3400000017}},{"attributes":{"ID":195397,"DIS_CODE":0,"TOWNNAME":"安南區","LI":"州北里","LIN":"18鄰","STREET":"安昌街","SECT":" ","MAREA":" ","LANE":"８５巷","ALLEY":"９７弄","HOUSE_NO":"２５號","E_COORD97":169857.20999999999,"N_COORD97":2552372.4100000001,"ADDRESS":"安昌街８５巷９７弄２５號","OBJECTID":195396},"geometry":{"x":169857.20999999996,"y":2552372.410000002}},{"attributes":{"ID":195398,"DIS_CODE":0,"TOWNNAME":"仁德區","LI":"後壁里","LIN":"18鄰","STREET":"德南路","SECT":" ","MAREA":" ","LANE":"２２巷","ALLEY":"９弄","HOUSE_NO":"３６號","E_COORD97":173349.62,"N_COORD97":2538680.3700000001,"ADDRESS":"德南路２２巷９弄３６號","OBJECTID":195397},"geometry":{"x":173349.62000000104,"y":2538680.3700000029}},{"attributes":{"ID":195399,"DIS_CODE":0,"TOWNNAME":"仁德區","LI":"後壁里","LIN":"18鄰","STREET":"德南路","SECT":" ","MAREA":" ","LANE":"２２巷","ALLEY":"９弄","HOUSE_NO":"３８號","E_COORD97":173353.37,"N_COORD97":2538677.3700000001,"ADDRESS":"德南路２２巷９弄３８號","OBJECTID":195398},"geometry":{"x":173353.37000000011,"y":2538677.3700000029}},{"attributes":{"ID":195400,"DIS_CODE":0,"TOWNNAME":"下營區","LI":"宅內里","LIN":"18鄰","STREET":"人和三街","SECT":" ","MAREA":" ","LANE":"７０巷","ALLEY":"５弄","HOUSE_NO":"１０號","E_COORD97":174303.19,"N_COORD97":2570771.7400000002,"ADDRESS":"人和三街７０巷５弄１０號","OBJECTID":195399},"geometry":{"x":174303.18999999948,"y":2570771.7400000002}},{"attributes":{"ID":195401,"DIS_CODE":0,"TOWNNAME":"下營區","LI":"宅內里","LIN":"18鄰","STREET":"人和三街","SECT":" ","MAREA":" ","LANE":"７０巷","ALLEY":"５弄","HOUSE_NO":"１２號","E_COORD97":174307.72,"N_COORD97":2570772.4100000001,"ADDRESS":"人和三街７０巷５弄１２號","OBJECTID":195400},"geometry":{"x":174307.72000000067,"y":2570772.410000002}}]}