{"displayFieldName":"TOWNNAME","fieldAliases":{"ID":"ID","DIS_CODE":"DIS_CODE","TOWNNAME":"TOWNNAME","LI":"LI","LIN":"LIN","STREET":"STREET","SECT":"SECT","MAREA":"MAREA","LANE":"LANE","ALLEY":"ALLEY","HOUSE_NO":"HOUSE_NO","E_COORD97":"E_COORD97","N_COORD97":"N_COORD97","ADDRESS":"ADDRESS","OBJECTID":"OBJECTID"},"geometryType":"esriGeometryPoint","spatialReference":{"wkid":102443,"latestWkid":3826},"fields":[{"name":"ID","type":"esriFieldTypeDouble","alias":"ID"},{"name":"DIS_CODE","type":"esriFieldTypeInteger","alias":"DIS_CODE"},{"name":"TOWNNAME","type":"esriFieldTypeString","alias":"TOWNNAME","length":8},{"name":"LI","type":"esriFieldTypeString","alias":"LI","length":8},{"name":"LIN","type":"esriFieldTypeString","alias":"LIN","length":12},{"name":"STREET","type":"esriFieldTypeString","alias":"STREET","length":20},{"name":"SECT","type":"esriFieldTypeString","alias":"SECT","length":8},{"name":"MAREA","type":"esriFieldTypeString","alias":"MAREA","length":12},{"name":"LANE","type":"esriFieldTypeString","alias":"LANE","length":10},{"name":"ALLEY","type":"esriFieldTypeString","alias":"ALLEY","length":10},{"name":"HOUSE_NO","type":"esriFieldTypeString","alias":"HOUSE_NO","length":20},{"name":"E_COORD97","type":"esriFieldTypeDouble","alias":"E_COORD97"},{"name":"N_COORD97","type":"esriFieldTypeDouble","alias":"N_COORD97"},{"name":"ADDRESS","type":"esriFieldTypeString","alias":"ADDRESS","length":50},{"name":"OBJECTID","type":"esriFieldTypeOID","alias":"OBJECTID"}],"features":[{"attributes":{"ID":482826,"DIS_CODE":0,"TOWNNAME":"南區","LI":"田寮里","LIN":"25鄰","STREET":"大成路","SECT":"二段","MAREA":" ","LANE":" ","ALLEY":" ","HOUSE_NO":"６６號","E_COORD97":167544.41,"N_COORD97":2541748.4199999999,"ADDRESS":"大成路二段６６號","OBJECTID":482801},"geometry":{"x":167544.41000000201,"y":2541748.4199999999}},{"attributes":{"ID":482827,"DIS_CODE":0,"TOWNNAME":"南區","LI":"田寮里","LIN":"25鄰","STREET":"大成路","SECT":"二段","MAREA":" ","LANE":" ","ALLEY":" ","HOUSE_NO":"６８號","E_COORD97":167540.14999999999,"N_COORD97":2541748.1800000002,"ADDRESS":"大成路二段６８號","OBJECTID":482802},"geometry":{"x":167540.1500000013,"y":2541748.1800000016}},{"attributes":{"ID":482828,"DIS_CODE":0,"TOWNNAME":"南區","LI":"田寮里","LIN":"25鄰","STREET":"大成路","SECT":"二段","MAREA":" ","LANE":" ","ALLEY":" ","HOUSE_NO":"７０號","E_COORD97":167535.64999999999,"N_COORD97":2541747.4700000002,"ADDRESS":"大成路二段７０號","OBJECTID":482803},"geometry":{"x":167535.65000000037,"y":2541747.4700000025}},{"attributes":{"ID":482829,"DIS_CODE":0,"TOWNNAME":"南區","LI":"田寮里","LIN":"25鄰","STREET":"大成路","SECT":"二段","MAREA":" ","LANE":" ","ALLEY":" ","HOUSE_NO":"７２號","E_COORD97":167531.85999999999,"N_COORD97":2541747.4700000002,"ADDRESS":"大成路二段７２號","OBJECTID":482804},"geometry":{"x":167531.86000000127,"y":2541747.4700000025}},{"attributes":{"ID":482830,"DIS_CODE":0,"TOWNNAME":"南區","LI":"田寮里","LIN":"25鄰","STREET":"大成路","SECT":"二段","MAREA":" ","LANE":" ","ALLEY":" ","HOUSE_NO":"７４號","E_COORD97":167527.59,"N_COORD97":2541748.1800000002,"ADDRESS":"大成路二段７４號","OBJECTID":482805},"geometry":{"x":167527.58999999892,"y":2541748.1800000016}},{"attributes":{"ID":482831,"DIS_CODE":0,"TOWNNAME":"南區","LI":"田寮里","LIN":"25鄰","STREET":"大成路","SECT":"二段","MAREA":" ","LANE":" ","ALLEY":" ","HOUSE_NO":"７６號","E_COORD97":167522.14000000001,"N_COORD97":2541747.71,"ADDRESS":"大成路二段７６號","OBJECTID":482806},"geometry":{"x":167522.14000000153,"y":2541747.7100000009}},{"attributes":{"ID":482832,"DIS_CODE":0,"TOWNNAME":"南區","LI":"田寮里","LIN":"25鄰","STREET":"大成路","SECT":"二段","MAREA":" ","LANE":" ","ALLEY":" ","HOUSE_NO":"７８號","E_COORD97":167519.29999999999,"N_COORD97":2541747.23,"ADDRESS":"大成路二段７８號","OBJECTID":482807},"geometry":{"x":167519.29999999888,"y":2541747.2300000004}},{"attributes":{"ID":482833,"DIS_CODE":0,"TOWNNAME":"玉井區","LI":"玉田里","LIN":"25鄰","STREET":"信義街","SECT":" ","MAREA":" ","LANE":" ","ALLEY":" ","HOUSE_NO":"５２號","E_COORD97":195197.32000000001,"N_COORD97":2557649.2599999998,"ADDRESS":"信義街５２號","OBJECTID":482808},"geometry":{"x":195197.32000000123,"y":2557649.2600000016}},{"attributes":{"ID":482834,"DIS_CODE":0,"TOWNNAME":"玉井區","LI":"玉田里","LIN":"25鄰","STREET":"信義街","SECT":" ","MAREA":" ","LANE":" ","ALLEY":" ","HOUSE_NO":"５６號","E_COORD97":195200.62,"N_COORD97":2557648.2599999998,"ADDRESS":"信義街５６號","OBJECTID":482809},"geometry":{"x":195200.62000000104,"y":2557648.2600000035}},{"attributes":{"ID":482835,"DIS_CODE":0,"TOWNNAME":"玉井區","LI":"玉田里","LIN":"25鄰","STREET":"信義街","SECT":" ","MAREA":" ","LANE":" ","ALLEY":" ","HOUSE_NO":"６８號","E_COORD97":195229.51000000001,"N_COORD97":2557639.27,"ADDRESS":"信義街６８號","OBJECTID":482810},"geometry":{"x":195229.51000000071,"y":2557639.2700000014}},{"attributes":{"ID":482836,"DIS_CODE":0,"TOWNNAME":"歸仁區","LI":"歸南里","LIN":"25鄰","STREET":"民生南街","SECT":"二段","MAREA":" ","LANE":" ","ALLEY":" ","HOUSE_NO":"１７６號","E_COORD97":176108.06,"N_COORD97":2540209.25,"ADDRESS":"民生南街二段１７６號","OBJECTID":482811},"geometry":{"x":176108.05999999959,"y":2540209.2500000019}},{"attributes":{"ID":482837,"DIS_CODE":0,"TOWNNAME":"歸仁區","LI":"歸南里","LIN":"25鄰","STREET":"民生南街","SECT":"二段","MAREA":" ","LANE":" ","ALLEY":" ","HOUSE_NO":"１８４號","E_COORD97":176098.76000000001,"N_COORD97":2540197.25,"ADDRESS":"民生南街二段１８４號","OBJECTID":482812},"geometry":{"x":176098.75999999978,"y":2540197.25}},{"attributes":{"ID":482838,"DIS_CODE":0,"TOWNNAME":"六甲區","LI":"六甲里","LIN":"25鄰","STREET":"民權街","SECT":" ","MAREA":" ","LANE":" ","ALLEY":" ","HOUSE_NO":"７０號","E_COORD97":183346.10999999999,"N_COORD97":2569687.9500000002,"ADDRESS":"民權街７０號","OBJECTID":482813},"geometry":{"x":183346.11000000127,"y":2569687.9499999993}},{"attributes":{"ID":482839,"DIS_CODE":0,"TOWNNAME":"六甲區","LI":"六甲里","LIN":"25鄰","STREET":"民權街","SECT":" ","MAREA":" ","LANE":" ","ALLEY":" ","HOUSE_NO":"７２號","E_COORD97":183342.14000000001,"N_COORD97":2569674.6499999999,"ADDRESS":"民權街７２號","OBJECTID":482814},"geometry":{"x":183342.1400000006,"y":2569674.6500000004}},{"attributes":{"ID":482840,"DIS_CODE":0,"TOWNNAME":"六甲區","LI":"六甲里","LIN":"25鄰","STREET":"民權街","SECT":" ","MAREA":" ","LANE":" ","ALLEY":" ","HOUSE_NO":"７４號","E_COORD97":183338.45000000001,"N_COORD97":2569676.0299999998,"ADDRESS":"民權街７４號","OBJECTID":482815},"geometry":{"x":183338.45000000205,"y":2569676.0300000012}},{"attributes":{"ID":482841,"DIS_CODE":0,"TOWNNAME":"六甲區","LI":"六甲里","LIN":"25鄰","STREET":"民權街","SECT":" ","MAREA":" ","LANE":" ","ALLEY":" ","HOUSE_NO":"７６號","E_COORD97":183334.45999999999,"N_COORD97":2569677.8399999999,"ADDRESS":"民權街７６號","OBJECTID":482816},"geometry":{"x":183334.45999999996,"y":2569677.8400000017}},{"attributes":{"ID":482842,"DIS_CODE":0,"TOWNNAME":"六甲區","LI":"二甲里","LIN":"25鄰","STREET":"光復街","SECT":" ","MAREA":" ","LANE":" ","ALLEY":" ","HOUSE_NO":"１７２號","E_COORD97":182916.04999999999,"N_COORD97":2569991.3799999999,"ADDRESS":"光復街１７２號","OBJECTID":482817},"geometry":{"x":182916.04999999981,"y":2569991.3800000008}},{"attributes":{"ID":482843,"DIS_CODE":0,"TOWNNAME":"六甲區","LI":"二甲里","LIN":"25鄰","STREET":"光復街","SECT":" ","MAREA":" ","LANE":" ","ALLEY":" ","HOUSE_NO":"１８８號","E_COORD97":182884.39999999999,"N_COORD97":2570002.4100000001,"ADDRESS":"光復街１８８號","OBJECTID":482818},"geometry":{"x":182884.40000000037,"y":2570002.410000002}},{"attributes":{"ID":482844,"DIS_CODE":0,"TOWNNAME":"六甲區","LI":"二甲里","LIN":"25鄰","STREET":"和平街","SECT":" ","MAREA":" ","LANE":" ","ALLEY":" ","HOUSE_NO":"４４８之１號","E_COORD97":182870.23000000001,"N_COORD97":2570011.6699999999,"ADDRESS":"和平街４４８之１號","OBJECTID":482819},"geometry":{"x":182870.23000000045,"y":2570011.6700000018}},{"attributes":{"ID":482845,"DIS_CODE":0,"TOWNNAME":"六甲區","LI":"二甲里","LIN":"25鄰","STREET":"和平街","SECT":" ","MAREA":" ","LANE":" ","ALLEY":" ","HOUSE_NO":"４４８之３號","E_COORD97":182872.84,"N_COORD97":2570020.1000000001,"ADDRESS":"和平街４４８之３號","OBJECTID":482820},"geometry":{"x":182872.84000000078,"y":2570020.0999999996}},{"attributes":{"ID":482846,"DIS_CODE":0,"TOWNNAME":"六甲區","LI":"二甲里","LIN":"25鄰","STREET":"和平街","SECT":" ","MAREA":" ","LANE":" ","ALLEY":" ","HOUSE_NO":"４４８號","E_COORD97":182868.84,"N_COORD97":2570006.0800000001,"ADDRESS":"和平街４４８號","OBJECTID":482821},"geometry":{"x":182868.83999999985,"y":2570006.0800000001}},{"attributes":{"ID":482847,"DIS_CODE":0,"TOWNNAME":"六甲區","LI":"二甲里","LIN":"25鄰","STREET":"和平街","SECT":" ","MAREA":" ","LANE":" ","ALLEY":" ","HOUSE_NO":"４５０號之１","E_COORD97":182875.28,"N_COORD97":2570030.1000000001,"ADDRESS":"和平街４５０號之１","OBJECTID":482822},"geometry":{"x":182875.28000000119,"y":2570030.0999999996}},{"attributes":{"ID":482848,"DIS_CODE":0,"TOWNNAME":"六甲區","LI":"二甲里","LIN":"25鄰","STREET":"和平街","SECT":" ","MAREA":" ","LANE":" ","ALLEY":" ","HOUSE_NO":"４５０號","E_COORD97":182874.20000000001,"N_COORD97":2570025.1699999999,"ADDRESS":"和平街４５０號","OBJECTID":482823},"geometry":{"x":182874.20000000112,"y":2570025.1700000018}},{"attributes":{"ID":482849,"DIS_CODE":0,"TOWNNAME":"六甲區","LI":"二甲里","LIN":"25鄰","STREET":"和平街","SECT":" ","MAREA":" ","LANE":" ","ALLEY":" ","HOUSE_NO":"４５２號","E_COORD97":182889.70000000001,"N_COORD97":2570034.3500000001,"ADDRESS":"和平街４５２號","OBJECTID":482824},"geometry":{"x":182889.70000000112,"y":2570034.3499999996}},{"attributes":{"ID":482850,"DIS_CODE":0,"TOWNNAME":"六甲區","LI":"二甲里","LIN":"25鄰","STREET":"和平街","SECT":" ","MAREA":" ","LANE":" ","ALLEY":" ","HOUSE_NO":"４５４號","E_COORD97":182880.64999999999,"N_COORD97":2570045.1699999999,"ADDRESS":"和平街４５４號","OBJECTID":482825},"geometry":{"x":182880.65000000037,"y":2570045.1700000018}},{"attributes":{"ID":482851,"DIS_CODE":0,"TOWNNAME":"六甲區","LI":"二甲里","LIN":"25鄰","STREET":"和平街","SECT":" ","MAREA":" ","LANE":" ","ALLEY":" ","HOUSE_NO":"４６２號","E_COORD97":182899.79000000001,"N_COORD97":2570056.75,"ADDRESS":"和平街４６２號","OBJECTID":482826},"geometry":{"x":182899.79000000004,"y":2570056.75}},{"attributes":{"ID":482852,"DIS_CODE":0,"TOWNNAME":"六甲區","LI":"二甲里","LIN":"25鄰","STREET":"和平街","SECT":" ","MAREA":" ","LANE":" ","ALLEY":" ","HOUSE_NO":"４７８號","E_COORD97":182888.51999999999,"N_COORD97":2570095.9100000001,"ADDRESS":"和平街４７８號","OBJECTID":482827},"geometry":{"x":182888.52000000048,"y":2570095.9100000001}},{"attributes":{"ID":482853,"DIS_CODE":0,"TOWNNAME":"六甲區","LI":"二甲里","LIN":"25鄰","STREET":"和平街","SECT":" ","MAREA":" ","LANE":" ","ALLEY":" ","HOUSE_NO":"４８２號","E_COORD97":182893.32000000001,"N_COORD97":2570104.0499999998,"ADDRESS":"和平街４８２號","OBJECTID":482828},"geometry":{"x":182893.3200000003,"y":2570104.0500000026}},{"attributes":{"ID":482854,"DIS_CODE":0,"TOWNNAME":"六甲區","LI":"甲東里","LIN":"25鄰","STREET":"忠孝街","SECT":" ","MAREA":" ","LANE":" ","ALLEY":" ","HOUSE_NO":"６８號","E_COORD97":183855.13,"N_COORD97":2569529.5600000001,"ADDRESS":"忠孝街６８號","OBJECTID":482829},"geometry":{"x":183855.12999999989,"y":2569529.5600000005}},{"attributes":{"ID":482855,"DIS_CODE":0,"TOWNNAME":"六甲區","LI":"甲東里","LIN":"25鄰","STREET":"忠孝街","SECT":" ","MAREA":" ","LANE":" ","ALLEY":" ","HOUSE_NO":"６８之３號","E_COORD97":183861.91,"N_COORD97":2569541.5800000001,"ADDRESS":"忠孝街６８之３號","OBJECTID":482830},"geometry":{"x":183861.91000000015,"y":2569541.5800000001}},{"attributes":{"ID":482856,"DIS_CODE":0,"TOWNNAME":"六甲區","LI":"甲東里","LIN":"25鄰","STREET":"忠孝街","SECT":" ","MAREA":" ","LANE":" ","ALLEY":" ","HOUSE_NO":"７０號","E_COORD97":183868.07999999999,"N_COORD97":2569546.7400000002,"ADDRESS":"忠孝街７０號","OBJECTID":482831},"geometry":{"x":183868.08000000101,"y":2569546.7400000021}},{"attributes":{"ID":482857,"DIS_CODE":0,"TOWNNAME":"六甲區","LI":"甲南里","LIN":"25鄰","STREET":"珊瑚路","SECT":" ","MAREA":" ","LANE":" ","ALLEY":" ","HOUSE_NO":"２０號","E_COORD97":183671.39000000001,"N_COORD97":2569490.8300000001,"ADDRESS":"珊瑚路２０號","OBJECTID":482832},"geometry":{"x":183671.38999999966,"y":2569490.8300000038}},{"attributes":{"ID":482858,"DIS_CODE":0,"TOWNNAME":"六甲區","LI":"甲南里","LIN":"25鄰","STREET":"珊瑚路","SECT":" ","MAREA":" ","LANE":" ","ALLEY":" ","HOUSE_NO":"２２號","E_COORD97":183676.75,"N_COORD97":2569481.3599999999,"ADDRESS":"珊瑚路２２號","OBJECTID":482833},"geometry":{"x":183676.74999999907,"y":2569481.3599999994}},{"attributes":{"ID":482859,"DIS_CODE":0,"TOWNNAME":"六甲區","LI":"甲南里","LIN":"25鄰","STREET":"珊瑚路","SECT":" ","MAREA":" ","LANE":" ","ALLEY":" ","HOUSE_NO":"２６號","E_COORD97":183682.53,"N_COORD97":2569473.9500000002,"ADDRESS":"珊瑚路２６號","OBJECTID":482834},"geometry":{"x":183682.53000000119,"y":2569473.9499999993}},{"attributes":{"ID":482860,"DIS_CODE":0,"TOWNNAME":"六甲區","LI":"甲南里","LIN":"25鄰","STREET":"珊瑚路","SECT":" ","MAREA":" ","LANE":" ","ALLEY":" ","HOUSE_NO":"２８號","E_COORD97":183685.07000000001,"N_COORD97":2569470.46,"ADDRESS":"珊瑚路２８號","OBJECTID":482835},"geometry":{"x":183685.07000000216,"y":2569470.4600000046}},{"attributes":{"ID":482861,"DIS_CODE":0,"TOWNNAME":"六甲區","LI":"甲南里","LIN":"25鄰","STREET":"珊瑚路","SECT":" ","MAREA":" ","LANE":" ","ALLEY":" ","HOUSE_NO":"３０號","E_COORD97":183688.20000000001,"N_COORD97":2569467.6800000002,"ADDRESS":"珊瑚路３０號","OBJECTID":482836},"geometry":{"x":183688.20000000112,"y":2569467.6800000034}},{"attributes":{"ID":482862,"DIS_CODE":0,"TOWNNAME":"六甲區","LI":"甲南里","LIN":"25鄰","STREET":"珊瑚路","SECT":" ","MAREA":" ","LANE":" ","ALLEY":" ","HOUSE_NO":"６６號","E_COORD97":183771.10000000001,"N_COORD97":2569344.48,"ADDRESS":"珊瑚路６６號","OBJECTID":482837},"geometry":{"x":183771.10000000056,"y":2569344.4800000023}},{"attributes":{"ID":482863,"DIS_CODE":0,"TOWNNAME":"六甲區","LI":"甲南里","LIN":"25鄰","STREET":"珊瑚路","SECT":" ","MAREA":" ","LANE":" ","ALLEY":" ","HOUSE_NO":"７０號","E_COORD97":183775.42999999999,"N_COORD97":2569337.1000000001,"ADDRESS":"珊瑚路７０號","OBJECTID":482838},"geometry":{"x":183775.43000000156,"y":2569337.1000000015}},{"attributes":{"ID":482864,"DIS_CODE":0,"TOWNNAME":"六甲區","LI":"甲南里","LIN":"25鄰","STREET":"珊瑚路","SECT":" ","MAREA":" ","LANE":" ","ALLEY":" ","HOUSE_NO":"８０號","E_COORD97":183785.48000000001,"N_COORD97":2569325.8100000001,"ADDRESS":"珊瑚路８０號","OBJECTID":482839},"geometry":{"x":183785.48000000045,"y":2569325.8100000024}},{"attributes":{"ID":482865,"DIS_CODE":0,"TOWNNAME":"六甲區","LI":"甲南里","LIN":"25鄰","STREET":"珊瑚路","SECT":" ","MAREA":" ","LANE":" ","ALLEY":" ","HOUSE_NO":"８２號","E_COORD97":183789.23000000001,"N_COORD97":2569323.1299999999,"ADDRESS":"珊瑚路８２號","OBJECTID":482840},"geometry":{"x":183789.22999999952,"y":2569323.129999999}},{"attributes":{"ID":482866,"DIS_CODE":0,"TOWNNAME":"新營區","LI":"南紙里","LIN":"25鄰","STREET":"建業路","SECT":" ","MAREA":" ","LANE":" ","ALLEY":" ","HOUSE_NO":"２４１號","E_COORD97":178079.13,"N_COORD97":2577501.0499999998,"ADDRESS":"建業路２４１號","OBJECTID":482841},"geometry":{"x":178079.13000000082,"y":2577501.0499999989}},{"attributes":{"ID":482867,"DIS_CODE":0,"TOWNNAME":"新營區","LI":"民生里","LIN":"25鄰","STREET":"民治路","SECT":" ","MAREA":" ","LANE":" ","ALLEY":" ","HOUSE_NO":"１１１號","E_COORD97":178963.13,"N_COORD97":2578623.0699999998,"ADDRESS":"民治路１１１號","OBJECTID":482842},"geometry":{"x":178963.13000000175,"y":2578623.070000004}},{"attributes":{"ID":482868,"DIS_CODE":0,"TOWNNAME":"新營區","LI":"民生里","LIN":"25鄰","STREET":"民治路","SECT":" ","MAREA":" ","LANE":" ","ALLEY":" ","HOUSE_NO":"１０９號","E_COORD97":178972.37,"N_COORD97":2578628.5600000001,"ADDRESS":"民治路１０９號","OBJECTID":482843},"geometry":{"x":178972.37000000104,"y":2578628.5600000005}},{"attributes":{"ID":482869,"DIS_CODE":0,"TOWNNAME":"新營區","LI":"民榮里","LIN":"25鄰","STREET":"新進路","SECT":"二段","MAREA":" ","LANE":" ","ALLEY":" ","HOUSE_NO":"１４５號","E_COORD97":179365.89999999999,"N_COORD97":2577715.2400000002,"ADDRESS":"新進路二段１４５號","OBJECTID":482844},"geometry":{"x":179365.9000000013,"y":2577715.2400000002}},{"attributes":{"ID":482870,"DIS_CODE":0,"TOWNNAME":"新營區","LI":"南紙里","LIN":"25鄰","STREET":"建業路","SECT":" ","MAREA":" ","LANE":" ","ALLEY":" ","HOUSE_NO":"２３３號","E_COORD97":178101.62,"N_COORD97":2577499.8300000001,"ADDRESS":"建業路２３３號","OBJECTID":482845},"geometry":{"x":178101.62000000011,"y":2577499.8300000019}},{"attributes":{"ID":482871,"DIS_CODE":0,"TOWNNAME":"歸仁區","LI":"八甲里","LIN":"25鄰","STREET":"大仁五街","SECT":" ","MAREA":" ","LANE":" ","ALLEY":" ","HOUSE_NO":"５５號","E_COORD97":178060.69,"N_COORD97":2541436.25,"ADDRESS":"大仁五街５５號","OBJECTID":482846},"geometry":{"x":178060.69000000041,"y":2541436.2500000019}},{"attributes":{"ID":482872,"DIS_CODE":0,"TOWNNAME":"北區","LI":"文元里","LIN":"25鄰","STREET":"文賢三街","SECT":" ","MAREA":" ","LANE":" ","ALLEY":" ","HOUSE_NO":"３０５號","E_COORD97":167794.45999999999,"N_COORD97":2546216.2799999998,"ADDRESS":"文賢三街３０５號","OBJECTID":482847},"geometry":{"x":167794.45999999996,"y":2546216.2800000012}},{"attributes":{"ID":482873,"DIS_CODE":0,"TOWNNAME":"北區","LI":"文元里","LIN":"25鄰","STREET":"文賢二街","SECT":" ","MAREA":" ","LANE":" ","ALLEY":" ","HOUSE_NO":"５０６號","E_COORD97":167695.28,"N_COORD97":2546230.8799999999,"ADDRESS":"文賢二街５０６號","OBJECTID":482848},"geometry":{"x":167695.28000000119,"y":2546230.8799999971}},{"attributes":{"ID":482874,"DIS_CODE":0,"TOWNNAME":"北區","LI":"文元里","LIN":"25鄰","STREET":"文賢二街","SECT":" ","MAREA":" ","LANE":" ","ALLEY":" ","HOUSE_NO":"４８８號","E_COORD97":167696.54999999999,"N_COORD97":2546179.7000000002,"ADDRESS":"文賢二街４８８號","OBJECTID":482849},"geometry":{"x":167696.55000000075,"y":2546179.7000000011}},{"attributes":{"ID":482875,"DIS_CODE":0,"TOWNNAME":"北區","LI":"文元里","LIN":"25鄰","STREET":"文賢二街","SECT":" ","MAREA":" ","LANE":" ","ALLEY":" ","HOUSE_NO":"４８６號","E_COORD97":167697.20000000001,"N_COORD97":2546175.48,"ADDRESS":"文賢二街４８６號","OBJECTID":482850},"geometry":{"x":167697.20000000112,"y":2546175.4800000023}},{"attributes":{"ID":482876,"DIS_CODE":0,"TOWNNAME":"北區","LI":"文元里","LIN":"25鄰","STREET":"文賢二街","SECT":" ","MAREA":" ","LANE":" ","ALLEY":" ","HOUSE_NO":"４８２號","E_COORD97":167697.85000000001,"N_COORD97":2546171.5800000001,"ADDRESS":"文賢二街４８２號","OBJECTID":482851},"geometry":{"x":167697.84999999963,"y":2546171.5800000019}},{"attributes":{"ID":482877,"DIS_CODE":0,"TOWNNAME":"北區","LI":"文元里","LIN":"25鄰","STREET":"文賢二街","SECT":" ","MAREA":" ","LANE":" ","ALLEY":" ","HOUSE_NO":"４８０號","E_COORD97":167698.13,"N_COORD97":2546166.0299999998,"ADDRESS":"文賢二街４８０號","OBJECTID":482852},"geometry":{"x":167698.12999999989,"y":2546166.0300000031}},{"attributes":{"ID":482878,"DIS_CODE":0,"TOWNNAME":"北區","LI":"文元里","LIN":"25鄰","STREET":"文賢二街","SECT":" ","MAREA":" ","LANE":" ","ALLEY":" ","HOUSE_NO":"４７６號","E_COORD97":167696.98999999999,"N_COORD97":2546153.8599999999,"ADDRESS":"文賢二街４７６號","OBJECTID":482853},"geometry":{"x":167696.99000000115,"y":2546153.8600000031}},{"attributes":{"ID":482879,"DIS_CODE":0,"TOWNNAME":"北區","LI":"文元里","LIN":"25鄰","STREET":"文賢二街","SECT":" ","MAREA":" ","LANE":" ","ALLEY":" ","HOUSE_NO":"４７２號","E_COORD97":167698.13,"N_COORD97":2546149.6099999999,"ADDRESS":"文賢二街４７２號","OBJECTID":482854},"geometry":{"x":167698.12999999989,"y":2546149.6100000013}},{"attributes":{"ID":482880,"DIS_CODE":0,"TOWNNAME":"北區","LI":"文元里","LIN":"25鄰","STREET":"文賢二街","SECT":" ","MAREA":" ","LANE":" ","ALLEY":" ","HOUSE_NO":"４７０號","E_COORD97":167697.84,"N_COORD97":2546144.23,"ADDRESS":"文賢二街４７０號","OBJECTID":482855},"geometry":{"x":167697.84000000078,"y":2546144.2300000004}},{"attributes":{"ID":482881,"DIS_CODE":0,"TOWNNAME":"柳營區","LI":"光福里","LIN":"25鄰","STREET":"柳營路","SECT":"一段","MAREA":" ","LANE":" ","ALLEY":" ","HOUSE_NO":"５７６號","E_COORD97":179790.84,"N_COORD97":2574295.2799999998,"ADDRESS":"柳營路一段５７６號","OBJECTID":482856},"geometry":{"x":179790.84000000078,"y":2574295.2800000012}},{"attributes":{"ID":482882,"DIS_CODE":0,"TOWNNAME":"柳營區","LI":"光福里","LIN":"25鄰","STREET":"柳營路","SECT":"一段","MAREA":" ","LANE":" ","ALLEY":" ","HOUSE_NO":"６４２號","E_COORD97":179791.06,"N_COORD97":2574425.21,"ADDRESS":"柳營路一段６４２號","OBJECTID":482857},"geometry":{"x":179791.06000000052,"y":2574425.2100000046}},{"attributes":{"ID":482883,"DIS_CODE":0,"TOWNNAME":"柳營區","LI":"光福里","LIN":"25鄰","STREET":"柳營路","SECT":"一段","MAREA":" ","LANE":" ","ALLEY":" ","HOUSE_NO":"６８０號","E_COORD97":179798.32999999999,"N_COORD97":2574513.5899999999,"ADDRESS":"柳營路一段６８０號","OBJECTID":482858},"geometry":{"x":179798.33000000101,"y":2574513.5900000017}},{"attributes":{"ID":482884,"DIS_CODE":0,"TOWNNAME":"柳營區","LI":"光福里","LIN":"25鄰","STREET":"柳營路","SECT":"一段","MAREA":" ","LANE":" ","ALLEY":" ","HOUSE_NO":"７２０號","E_COORD97":179803.23000000001,"N_COORD97":2574556.0499999998,"ADDRESS":"柳營路一段７２０號","OBJECTID":482859},"geometry":{"x":179803.23000000045,"y":2574556.0500000026}},{"attributes":{"ID":482885,"DIS_CODE":0,"TOWNNAME":"柳營區","LI":"光福里","LIN":"25鄰","STREET":"柳營路","SECT":"一段","MAREA":" ","LANE":" ","ALLEY":" ","HOUSE_NO":"７２２號","E_COORD97":179802.81,"N_COORD97":2574575.3399999999,"ADDRESS":"柳營路一段７２２號","OBJECTID":482860},"geometry":{"x":179802.81000000052,"y":2574575.3399999999}},{"attributes":{"ID":482886,"DIS_CODE":0,"TOWNNAME":"柳營區","LI":"光福里","LIN":"25鄰","STREET":"柳營路","SECT":"一段","MAREA":" ","LANE":" ","ALLEY":" ","HOUSE_NO":"７３８號","E_COORD97":179793.91,"N_COORD97":2574608.2000000002,"ADDRESS":"柳營路一段７３８號","OBJECTID":482861},"geometry":{"x":179793.91000000201,"y":2574608.2000000011}},{"attributes":{"ID":482887,"DIS_CODE":0,"TOWNNAME":"柳營區","LI":"光福里","LIN":"25鄰","STREET":"柳營路","SECT":"一段","MAREA":" ","LANE":" ","ALLEY":" ","HOUSE_NO":"７４０號","E_COORD97":179793.60999999999,"N_COORD97":2574613.75,"ADDRESS":"柳營路一段７４０號","OBJECTID":482862},"geometry":{"x":179793.61000000034,"y":2574613.7499999981}},{"attributes":{"ID":482888,"DIS_CODE":0,"TOWNNAME":"柳營區","LI":"光福里","LIN":"25鄰","STREET":"柳營路","SECT":"一段","MAREA":" ","LANE":" ","ALLEY":" ","HOUSE_NO":"７４２號","E_COORD97":179820.20000000001,"N_COORD97":2574626.77,"ADDRESS":"柳營路一段７４２號","OBJECTID":482863},"geometry":{"x":179820.20000000019,"y":2574626.7700000033}},{"attributes":{"ID":482889,"DIS_CODE":0,"TOWNNAME":"柳營區","LI":"光福里","LIN":"25鄰","STREET":"柳營路","SECT":"一段","MAREA":" ","LANE":" ","ALLEY":" ","HOUSE_NO":"７５２號","E_COORD97":179818.76999999999,"N_COORD97":2574636.0600000001,"ADDRESS":"柳營路一段７５２號","OBJECTID":482864},"geometry":{"x":179818.77000000048,"y":2574636.0600000042}},{"attributes":{"ID":482890,"DIS_CODE":0,"TOWNNAME":"柳營區","LI":"光福里","LIN":"25鄰","STREET":"柳營路","SECT":"一段","MAREA":" ","LANE":" ","ALLEY":" ","HOUSE_NO":"８３２號","E_COORD97":179791.67000000001,"N_COORD97":2574757.9199999999,"ADDRESS":"柳營路一段８３２號","OBJECTID":482865},"geometry":{"x":179791.66999999993,"y":2574757.9199999999}},{"attributes":{"ID":482891,"DIS_CODE":0,"TOWNNAME":"柳營區","LI":"光福里","LIN":"25鄰","STREET":"柳營路","SECT":"一段","MAREA":" ","LANE":" ","ALLEY":" ","HOUSE_NO":"８７６號","E_COORD97":179767.60000000001,"N_COORD97":2574823.9100000001,"ADDRESS":"柳營路一段８７６號","OBJECTID":482866},"geometry":{"x":179767.59999999963,"y":2574823.910000002}},{"attributes":{"ID":482892,"DIS_CODE":0,"TOWNNAME":"北區","LI":"文元里","LIN":"25鄰","STREET":"文賢二街","SECT":" ","MAREA":" ","LANE":" ","ALLEY":" ","HOUSE_NO":"４９６號","E_COORD97":167695.67999999999,"N_COORD97":2546194.2000000002,"ADDRESS":"文賢二街４９６號","OBJECTID":482867},"geometry":{"x":167695.6799999997,"y":2546194.1999999993}},{"attributes":{"ID":482893,"DIS_CODE":0,"TOWNNAME":"北區","LI":"文元里","LIN":"25鄰","STREET":"文賢二街","SECT":" ","MAREA":" ","LANE":" ","ALLEY":" ","HOUSE_NO":"４９２號","E_COORD97":167696.23000000001,"N_COORD97":2546189.4500000002,"ADDRESS":"文賢二街４９２號","OBJECTID":482868},"geometry":{"x":167696.23000000045,"y":2546189.4499999993}},{"attributes":{"ID":482894,"DIS_CODE":0,"TOWNNAME":"北區","LI":"文元里","LIN":"25鄰","STREET":"文賢二街","SECT":" ","MAREA":" ","LANE":" ","ALLEY":" ","HOUSE_NO":"４９０號","E_COORD97":167696.23000000001,"N_COORD97":2546184.5699999998,"ADDRESS":"文賢二街４９０號","OBJECTID":482869},"geometry":{"x":167696.23000000045,"y":2546184.5700000022}},{"attributes":{"ID":482895,"DIS_CODE":0,"TOWNNAME":"北區","LI":"文元里","LIN":"25鄰","STREET":"文成三路","SECT":" ","MAREA":" ","LANE":" ","ALLEY":" ","HOUSE_NO":"６８１號","E_COORD97":167743.88,"N_COORD97":2546242.5499999998,"ADDRESS":"文成三路６８１號","OBJECTID":482870},"geometry":{"x":167743.87999999989,"y":2546242.5500000026}},{"attributes":{"ID":482896,"DIS_CODE":0,"TOWNNAME":"北區","LI":"文元里","LIN":"25鄰","STREET":"文成三路","SECT":" ","MAREA":" ","LANE":" ","ALLEY":" ","HOUSE_NO":"６８３號","E_COORD97":167739.32999999999,"N_COORD97":2546244.5499999998,"ADDRESS":"文成三路６８３號","OBJECTID":482871},"geometry":{"x":167739.33000000007,"y":2546244.5500000007}},{"attributes":{"ID":482897,"DIS_CODE":0,"TOWNNAME":"北區","LI":"文元里","LIN":"25鄰","STREET":"文成三路","SECT":" ","MAREA":" ","LANE":" ","ALLEY":" ","HOUSE_NO":"６８５號","E_COORD97":167734.54999999999,"N_COORD97":2546242.4399999999,"ADDRESS":"文成三路６８５號","OBJECTID":482872},"geometry":{"x":167734.54999999981,"y":2546242.4400000013}},{"attributes":{"ID":482898,"DIS_CODE":0,"TOWNNAME":"北區","LI":"文元里","LIN":"25鄰","STREET":"文成三路","SECT":" ","MAREA":" ","LANE":" ","ALLEY":" ","HOUSE_NO":"６８７號","E_COORD97":167729.78,"N_COORD97":2546244.4399999999,"ADDRESS":"文成三路６８７號","OBJECTID":482873},"geometry":{"x":167729.78000000026,"y":2546244.4399999995}},{"attributes":{"ID":482899,"DIS_CODE":0,"TOWNNAME":"北區","LI":"文元里","LIN":"25鄰","STREET":"文成三路","SECT":" ","MAREA":" ","LANE":" ","ALLEY":" ","HOUSE_NO":"６８９號","E_COORD97":167725.54999999999,"N_COORD97":2546241.5600000001,"ADDRESS":"文成三路６８９號","OBJECTID":482874},"geometry":{"x":167725.54999999981,"y":2546241.5599999987}},{"attributes":{"ID":482900,"DIS_CODE":0,"TOWNNAME":"南區","LI":"金華里","LIN":"25鄰","STREET":"賢南街","SECT":" ","MAREA":" ","LANE":" ","ALLEY":" ","HOUSE_NO":"８５號","E_COORD97":166673.75,"N_COORD97":2542382.7400000002,"ADDRESS":"賢南街８５號","OBJECTID":482875},"geometry":{"x":166673.75,"y":2542382.7400000021}},{"attributes":{"ID":482901,"DIS_CODE":0,"TOWNNAME":"南區","LI":"金華里","LIN":"25鄰","STREET":"賢南街","SECT":" ","MAREA":" ","LANE":" ","ALLEY":" ","HOUSE_NO":"８９號","E_COORD97":166663.70999999999,"N_COORD97":2542381.6800000002,"ADDRESS":"賢南街８９號","OBJECTID":482876},"geometry":{"x":166663.70999999996,"y":2542381.6800000034}},{"attributes":{"ID":482902,"DIS_CODE":0,"TOWNNAME":"南區","LI":"金華里","LIN":"25鄰","STREET":"賢南街","SECT":" ","MAREA":" ","LANE":" ","ALLEY":" ","HOUSE_NO":"９１號","E_COORD97":166659.84,"N_COORD97":2542380.3700000001,"ADDRESS":"賢南街９１號","OBJECTID":482877},"geometry":{"x":166659.84000000171,"y":2542380.370000001}},{"attributes":{"ID":482903,"DIS_CODE":0,"TOWNNAME":"南區","LI":"金華里","LIN":"25鄰","STREET":"賢南街","SECT":" ","MAREA":" ","LANE":" ","ALLEY":" ","HOUSE_NO":"９３號","E_COORD97":166654.48000000001,"N_COORD97":2542379.75,"ADDRESS":"賢南街９３號","OBJECTID":482878},"geometry":{"x":166654.48000000138,"y":2542379.7500000019}},{"attributes":{"ID":482904,"DIS_CODE":0,"TOWNNAME":"南區","LI":"金華里","LIN":"25鄰","STREET":"賢南街","SECT":" ","MAREA":" ","LANE":" ","ALLEY":" ","HOUSE_NO":"９５號","E_COORD97":166649.10999999999,"N_COORD97":2542379.0699999998,"ADDRESS":"賢南街９５號","OBJECTID":482879},"geometry":{"x":166649.11000000034,"y":2542379.0700000003}},{"attributes":{"ID":482905,"DIS_CODE":0,"TOWNNAME":"南區","LI":"金華里","LIN":"25鄰","STREET":"賢南街","SECT":" ","MAREA":" ","LANE":" ","ALLEY":" ","HOUSE_NO":"９７號","E_COORD97":166644.69,"N_COORD97":2542379,"ADDRESS":"賢南街９７號","OBJECTID":482880},"geometry":{"x":166644.69000000134,"y":2542379}},{"attributes":{"ID":482906,"DIS_CODE":0,"TOWNNAME":"南區","LI":"金華里","LIN":"25鄰","STREET":"賢南街","SECT":" ","MAREA":" ","LANE":" ","ALLEY":" ","HOUSE_NO":"９９號","E_COORD97":166639.38,"N_COORD97":2542378.4399999999,"ADDRESS":"賢南街９９號","OBJECTID":482881},"geometry":{"x":166639.38000000082,"y":2542378.4399999995}},{"attributes":{"ID":482907,"DIS_CODE":0,"TOWNNAME":"六甲區","LI":"甲東里","LIN":"25鄰","STREET":"興東街","SECT":" ","MAREA":" ","LANE":" ","ALLEY":" ","HOUSE_NO":"８號","E_COORD97":183899.69,"N_COORD97":2569538.73,"ADDRESS":"興東街８號","OBJECTID":482882},"geometry":{"x":183899.69000000227,"y":2569538.7300000004}},{"attributes":{"ID":482908,"DIS_CODE":0,"TOWNNAME":"新營區","LI":"大宏里","LIN":"25鄰","STREET":"綠川北街","SECT":" ","MAREA":" ","LANE":" ","ALLEY":" ","HOUSE_NO":"５６號","E_COORD97":180562.10999999999,"N_COORD97":2578724.0099999998,"ADDRESS":"綠川北街５６號","OBJECTID":482883},"geometry":{"x":180562.11000000034,"y":2578724.0099999998}},{"attributes":{"ID":482909,"DIS_CODE":0,"TOWNNAME":"新營區","LI":"民榮里","LIN":"25鄰","STREET":"和平路","SECT":" ","MAREA":" ","LANE":" ","ALLEY":" ","HOUSE_NO":"５０號","E_COORD97":179410.57000000001,"N_COORD97":2577688.4500000002,"ADDRESS":"和平路５０號","OBJECTID":482884},"geometry":{"x":179410.57000000123,"y":2577688.4500000011}},{"attributes":{"ID":482910,"DIS_CODE":0,"TOWNNAME":"新營區","LI":"民榮里","LIN":"25鄰","STREET":"南昌街","SECT":" ","MAREA":" ","LANE":" ","ALLEY":" ","HOUSE_NO":"５６之４號","E_COORD97":179316.78,"N_COORD97":2577660.1600000001,"ADDRESS":"南昌街５６之４號","OBJECTID":482885},"geometry":{"x":179316.77999999933,"y":2577660.160000002}},{"attributes":{"ID":482911,"DIS_CODE":0,"TOWNNAME":"新營區","LI":"民榮里","LIN":"25鄰","STREET":"和平路","SECT":" ","MAREA":" ","LANE":" ","ALLEY":" ","HOUSE_NO":"４８號","E_COORD97":179409.63,"N_COORD97":2577693.9900000002,"ADDRESS":"和平路４８號","OBJECTID":482886},"geometry":{"x":179409.63000000082,"y":2577693.9900000002}},{"attributes":{"ID":482912,"DIS_CODE":0,"TOWNNAME":"新營區","LI":"民榮里","LIN":"25鄰","STREET":"和平路","SECT":" ","MAREA":" ","LANE":" ","ALLEY":" ","HOUSE_NO":"５０之３號","E_COORD97":179396.64999999999,"N_COORD97":2577677.4900000002,"ADDRESS":"和平路５０之３號","OBJECTID":482887},"geometry":{"x":179396.6500000013,"y":2577677.4900000039}},{"attributes":{"ID":482913,"DIS_CODE":0,"TOWNNAME":"新營區","LI":"民榮里","LIN":"25鄰","STREET":"南昌街","SECT":" ","MAREA":" ","LANE":" ","ALLEY":" ","HOUSE_NO":"５０之４號","E_COORD97":179392.45999999999,"N_COORD97":2577656.4700000002,"ADDRESS":"南昌街５０之４號","OBJECTID":482888},"geometry":{"x":179392.46000000089,"y":2577656.4700000007}},{"attributes":{"ID":482914,"DIS_CODE":0,"TOWNNAME":"新營區","LI":"三仙里","LIN":"25鄰","STREET":"民治路","SECT":" ","MAREA":" ","LANE":" ","ALLEY":" ","HOUSE_NO":"８２號之１１","E_COORD97":179463.85999999999,"N_COORD97":2578919.7400000002,"ADDRESS":"民治路８２號之１１","OBJECTID":482889},"geometry":{"x":179463.8600000022,"y":2578919.7400000002}},{"attributes":{"ID":482915,"DIS_CODE":0,"TOWNNAME":"北區","LI":"長德里","LIN":"4鄰","STREET":"長北街","SECT":" ","MAREA":" ","LANE":" ","ALLEY":" ","HOUSE_NO":"１１２號","E_COORD97":168476.14999999999,"N_COORD97":2544773.1899999999,"ADDRESS":"長北街１１２號","OBJECTID":482890},"geometry":{"x":168476.1500000013,"y":2544773.1900000013}},{"attributes":{"ID":482916,"DIS_CODE":0,"TOWNNAME":"新營區","LI":"民榮里","LIN":"25鄰","STREET":"南昌街","SECT":" ","MAREA":" ","LANE":" ","ALLEY":" ","HOUSE_NO":"５０號","E_COORD97":179412.48000000001,"N_COORD97":2577659.6400000001,"ADDRESS":"南昌街５０號","OBJECTID":482891},"geometry":{"x":179412.48000000138,"y":2577659.6399999987}},{"attributes":{"ID":482917,"DIS_CODE":0,"TOWNNAME":"關廟區","LI":"東勢里","LIN":"25鄰","STREET":"光復街","SECT":" ","MAREA":" ","LANE":" ","ALLEY":" ","HOUSE_NO":"１２２號","E_COORD97":181508.94,"N_COORD97":2539449.2799999998,"ADDRESS":"光復街１２２號","OBJECTID":482892},"geometry":{"x":181508.94000000041,"y":2539449.2800000012}},{"attributes":{"ID":482918,"DIS_CODE":0,"TOWNNAME":"歸仁區","LI":"新厝里","LIN":"25鄰","STREET":"大成六街","SECT":" ","MAREA":" ","LANE":" ","ALLEY":" ","HOUSE_NO":"７０號","E_COORD97":177551.23999999999,"N_COORD97":2540264.1800000002,"ADDRESS":"大成六街７０號","OBJECTID":482893},"geometry":{"x":177551.24000000115,"y":2540264.1800000016}},{"attributes":{"ID":482919,"DIS_CODE":0,"TOWNNAME":"歸仁區","LI":"媽廟里","LIN":"25鄰","STREET":"保大路","SECT":"一段","MAREA":" ","LANE":" ","ALLEY":" ","HOUSE_NO":"１１３號","E_COORD97":177840.13,"N_COORD97":2544006.7200000002,"ADDRESS":"保大路一段１１３號","OBJECTID":482894},"geometry":{"x":177840.13000000082,"y":2544006.7200000044}},{"attributes":{"ID":482920,"DIS_CODE":0,"TOWNNAME":"歸仁區","LI":"歸仁里","LIN":"25鄰","STREET":"忠孝北路","SECT":" ","MAREA":" ","LANE":" ","ALLEY":" ","HOUSE_NO":"１８２號","E_COORD97":178154.62,"N_COORD97":2541171.1099999999,"ADDRESS":"忠孝北路１８２號","OBJECTID":482895},"geometry":{"x":178154.62000000011,"y":2541171.1099999994}},{"attributes":{"ID":482921,"DIS_CODE":0,"TOWNNAME":"歸仁區","LI":"新厝里","LIN":"25鄰","STREET":"大成六街","SECT":" ","MAREA":" ","LANE":" ","ALLEY":" ","HOUSE_NO":"９０號","E_COORD97":177571.54000000001,"N_COORD97":2540230.1800000002,"ADDRESS":"大成六街９０號","OBJECTID":482896},"geometry":{"x":177571.54000000004,"y":2540230.1800000016}},{"attributes":{"ID":482922,"DIS_CODE":0,"TOWNNAME":"歸仁區","LI":"歸南里","LIN":"25鄰","STREET":"民生南街","SECT":"二段","MAREA":" ","LANE":" ","ALLEY":" ","HOUSE_NO":"１７８號","E_COORD97":176106.95999999999,"N_COORD97":2540207.25,"ADDRESS":"民生南街二段１７８號","OBJECTID":482897},"geometry":{"x":176106.96000000089,"y":2540207.25}},{"attributes":{"ID":482923,"DIS_CODE":0,"TOWNNAME":"歸仁區","LI":"新厝里","LIN":"25鄰","STREET":"大成六街","SECT":" ","MAREA":" ","LANE":" ","ALLEY":" ","HOUSE_NO":"１０４號","E_COORD97":177588.09,"N_COORD97":2540205.1800000002,"ADDRESS":"大成六街１０４號","OBJECTID":482898},"geometry":{"x":177588.08999999985,"y":2540205.1800000034}},{"attributes":{"ID":482924,"DIS_CODE":0,"TOWNNAME":"歸仁區","LI":"新厝里","LIN":"25鄰","STREET":"大成六街","SECT":" ","MAREA":" ","LANE":" ","ALLEY":" ","HOUSE_NO":"８０號","E_COORD97":177561.44,"N_COORD97":2540246.1800000002,"ADDRESS":"大成六街８０號","OBJECTID":482899},"geometry":{"x":177561.44000000227,"y":2540246.1800000016}},{"attributes":{"ID":482925,"DIS_CODE":0,"TOWNNAME":"歸仁區","LI":"南保里","LIN":"25鄰","STREET":"文化街","SECT":"三段","MAREA":" ","LANE":" ","ALLEY":" ","HOUSE_NO":"１９５號","E_COORD97":176549.04000000001,"N_COORD97":2541177.3300000001,"ADDRESS":"文化街三段１９５號","OBJECTID":482900},"geometry":{"x":176549.04000000097,"y":2541177.3299999982}},{"attributes":{"ID":482926,"DIS_CODE":0,"TOWNNAME":"歸仁區","LI":"後市里","LIN":"25鄰","STREET":"民族北街","SECT":" ","MAREA":" ","LANE":" ","ALLEY":" ","HOUSE_NO":"３０號","E_COORD97":177451.38,"N_COORD97":2540932.25,"ADDRESS":"民族北街３０號","OBJECTID":482901},"geometry":{"x":177451.38000000082,"y":2540932.25}},{"attributes":{"ID":482927,"DIS_CODE":0,"TOWNNAME":"歸仁區","LI":"南保里","LIN":"25鄰","STREET":"文化街","SECT":"三段","MAREA":" ","LANE":" ","ALLEY":" ","HOUSE_NO":"１９９號","E_COORD97":176539.84,"N_COORD97":2541175.3300000001,"ADDRESS":"文化街三段１９９號","OBJECTID":482902},"geometry":{"x":176539.84000000078,"y":2541175.3300000019}},{"attributes":{"ID":482928,"DIS_CODE":0,"TOWNNAME":"歸仁區","LI":"南保里","LIN":"25鄰","STREET":"保興街","SECT":" ","MAREA":" ","LANE":" ","ALLEY":" ","HOUSE_NO":"６２號","E_COORD97":176516.42000000001,"N_COORD97":2541137.25,"ADDRESS":"保興街６２號","OBJECTID":482903},"geometry":{"x":176516.41999999993,"y":2541137.2500000037}},{"attributes":{"ID":482929,"DIS_CODE":0,"TOWNNAME":"新營區","LI":"忠政里","LIN":"7鄰","STREET":"中正路","SECT":" ","MAREA":" ","LANE":"３５巷","ALLEY":" ","HOUSE_NO":"１７號三樓","E_COORD97":180019.13,"N_COORD97":2579095.3599999999,"ADDRESS":"中正路３５巷１７號三樓","OBJECTID":482904},"geometry":{"x":180019.12999999989,"y":2579095.3600000013}},{"attributes":{"ID":482930,"DIS_CODE":0,"TOWNNAME":"歸仁區","LI":"文化里","LIN":"25鄰","STREET":"文化北街","SECT":" ","MAREA":" ","LANE":" ","ALLEY":" ","HOUSE_NO":"１７４號","E_COORD97":177047.31,"N_COORD97":2541430.3399999999,"ADDRESS":"文化北街１７４號","OBJECTID":482905},"geometry":{"x":177047.30999999959,"y":2541430.3399999999}},{"attributes":{"ID":482931,"DIS_CODE":0,"TOWNNAME":"新營區","LI":"忠政里","LIN":"25鄰","STREET":"府西路","SECT":" ","MAREA":" ","LANE":" ","ALLEY":" ","HOUSE_NO":"１８９號","E_COORD97":179795.67999999999,"N_COORD97":2579474.0499999998,"ADDRESS":"府西路１８９號","OBJECTID":482906},"geometry":{"x":179795.68000000063,"y":2579474.0500000007}},{"attributes":{"ID":482932,"DIS_CODE":0,"TOWNNAME":"歸仁區","LI":"六甲里","LIN":"25鄰","STREET":"民生南街","SECT":"二段","MAREA":" ","LANE":" ","ALLEY":" ","HOUSE_NO":"５５７號","E_COORD97":176150.04000000001,"N_COORD97":2539453.4900000002,"ADDRESS":"民生南街二段５５７號","OBJECTID":482907},"geometry":{"x":176150.0400000019,"y":2539453.4900000002}},{"attributes":{"ID":482933,"DIS_CODE":0,"TOWNNAME":"關廟區","LI":"東勢里","LIN":"25鄰","STREET":"東興路","SECT":" ","MAREA":" ","LANE":" ","ALLEY":" ","HOUSE_NO":"１４６號","E_COORD97":181541.17000000001,"N_COORD97":2539553.25,"ADDRESS":"東興路１４６號","OBJECTID":482908},"geometry":{"x":181541.16999999993,"y":2539553.25}},{"attributes":{"ID":482934,"DIS_CODE":0,"TOWNNAME":"關廟區","LI":"東勢里","LIN":"25鄰","STREET":"東興路","SECT":" ","MAREA":" ","LANE":" ","ALLEY":" ","HOUSE_NO":"１５８號","E_COORD97":181569.57000000001,"N_COORD97":2539555.25,"ADDRESS":"東興路１５８號","OBJECTID":482909},"geometry":{"x":181569.57000000216,"y":2539555.2500000019}},{"attributes":{"ID":482935,"DIS_CODE":0,"TOWNNAME":"關廟區","LI":"香洋里","LIN":"25鄰","STREET":"中山路","SECT":"二段","MAREA":" ","LANE":" ","ALLEY":" ","HOUSE_NO":"１０７號","E_COORD97":180949.06,"N_COORD97":2540012.2799999998,"ADDRESS":"中山路二段１０７號","OBJECTID":482910},"geometry":{"x":180949.06000000052,"y":2540012.2800000012}},{"attributes":{"ID":482936,"DIS_CODE":0,"TOWNNAME":"北區","LI":"大道里","LIN":"25鄰","STREET":"旭日街","SECT":" ","MAREA":" ","LANE":" ","ALLEY":" ","HOUSE_NO":"９８號","E_COORD97":169417.70999999999,"N_COORD97":2545680.04,"ADDRESS":"旭日街９８號","OBJECTID":482911},"geometry":{"x":169417.71000000089,"y":2545680.0399999991}},{"attributes":{"ID":482937,"DIS_CODE":0,"TOWNNAME":"北區","LI":"大道里","LIN":"25鄰","STREET":"旭日街","SECT":" ","MAREA":" ","LANE":" ","ALLEY":" ","HOUSE_NO":"１０２號","E_COORD97":169420.17000000001,"N_COORD97":2545688.1800000002,"ADDRESS":"旭日街１０２號","OBJECTID":482912},"geometry":{"x":169420.16999999993,"y":2545688.1800000016}},{"attributes":{"ID":482938,"DIS_CODE":0,"TOWNNAME":"北區","LI":"大道里","LIN":"25鄰","STREET":"旭日街","SECT":" ","MAREA":" ","LANE":" ","ALLEY":" ","HOUSE_NO":"１０６號","E_COORD97":169420.79000000001,"N_COORD97":2545692.1800000002,"ADDRESS":"旭日街１０６號","OBJECTID":482913},"geometry":{"x":169420.79000000097,"y":2545692.1800000016}},{"attributes":{"ID":482939,"DIS_CODE":0,"TOWNNAME":"北區","LI":"大道里","LIN":"25鄰","STREET":"旭日街","SECT":" ","MAREA":" ","LANE":" ","ALLEY":" ","HOUSE_NO":"１０８號","E_COORD97":169422.01999999999,"N_COORD97":2545696.6299999999,"ADDRESS":"旭日街１０８號","OBJECTID":482914},"geometry":{"x":169422.02000000048,"y":2545696.629999999}},{"attributes":{"ID":482940,"DIS_CODE":0,"TOWNNAME":"北區","LI":"大道里","LIN":"25鄰","STREET":"旭日街","SECT":" ","MAREA":" ","LANE":" ","ALLEY":" ","HOUSE_NO":"１１０號","E_COORD97":169423.09,"N_COORD97":2545700.7799999998,"ADDRESS":"旭日街１１０號","OBJECTID":482915},"geometry":{"x":169423.09000000078,"y":2545700.7800000012}},{"attributes":{"ID":482941,"DIS_CODE":0,"TOWNNAME":"北區","LI":"大道里","LIN":"25鄰","STREET":"旭日街","SECT":" ","MAREA":" ","LANE":" ","ALLEY":" ","HOUSE_NO":"１１２號","E_COORD97":169424.01999999999,"N_COORD97":2545704.6200000001,"ADDRESS":"旭日街１１２號","OBJECTID":482916},"geometry":{"x":169424.01999999955,"y":2545704.620000001}},{"attributes":{"ID":482942,"DIS_CODE":0,"TOWNNAME":"北區","LI":"大道里","LIN":"25鄰","STREET":"旭日街","SECT":" ","MAREA":" ","LANE":" ","ALLEY":" ","HOUSE_NO":"１１６號","E_COORD97":169424.78,"N_COORD97":2545708.9199999999,"ADDRESS":"旭日街１１６號","OBJECTID":482917},"geometry":{"x":169424.78000000026,"y":2545708.9199999999}},{"attributes":{"ID":482943,"DIS_CODE":0,"TOWNNAME":"北區","LI":"大道里","LIN":"25鄰","STREET":"旭日街","SECT":" ","MAREA":" ","LANE":" ","ALLEY":" ","HOUSE_NO":"１１８號","E_COORD97":169425.85999999999,"N_COORD97":2545712.9199999999,"ADDRESS":"旭日街１１８號","OBJECTID":482918},"geometry":{"x":169425.86000000034,"y":2545712.9199999981}},{"attributes":{"ID":482944,"DIS_CODE":0,"TOWNNAME":"北區","LI":"長德里","LIN":"8鄰","STREET":"自強街","SECT":" ","MAREA":" ","LANE":" ","ALLEY":" ","HOUSE_NO":"１８５號","E_COORD97":168418.17999999999,"N_COORD97":2544813.1299999999,"ADDRESS":"自強街１８５號","OBJECTID":482919},"geometry":{"x":168418.1799999997,"y":2544813.1300000008}},{"attributes":{"ID":482945,"DIS_CODE":0,"TOWNNAME":"北區","LI":"長德里","LIN":"9鄰","STREET":"長北街","SECT":" ","MAREA":" ","LANE":" ","ALLEY":" ","HOUSE_NO":"１７７之１號","E_COORD97":168506.29999999999,"N_COORD97":2544943.5899999999,"ADDRESS":"長北街１７７之１號","OBJECTID":482920},"geometry":{"x":168506.30000000075,"y":2544943.5900000017}},{"attributes":{"ID":482946,"DIS_CODE":0,"TOWNNAME":"北區","LI":"長德里","LIN":"9鄰","STREET":"長北街","SECT":" ","MAREA":" ","LANE":" ","ALLEY":" ","HOUSE_NO":"１７７之２號","E_COORD97":168508.38,"N_COORD97":2544947.7400000002,"ADDRESS":"長北街１７７之２號","OBJECTID":482921},"geometry":{"x":168508.37999999989,"y":2544947.7400000002}},{"attributes":{"ID":482947,"DIS_CODE":0,"TOWNNAME":"北區","LI":"長德里","LIN":"9鄰","STREET":"長北街","SECT":" ","MAREA":" ","LANE":" ","ALLEY":" ","HOUSE_NO":"１７７之３號","E_COORD97":168509.42000000001,"N_COORD97":2544952.2400000002,"ADDRESS":"長北街１７７之３號","OBJECTID":482922},"geometry":{"x":168509.42000000086,"y":2544952.2400000021}},{"attributes":{"ID":482948,"DIS_CODE":0,"TOWNNAME":"北區","LI":"長德里","LIN":"9鄰","STREET":"長北街","SECT":" ","MAREA":" ","LANE":" ","ALLEY":" ","HOUSE_NO":"１７７之４號","E_COORD97":168510.79999999999,"N_COORD97":2544956.73,"ADDRESS":"長北街１７７之４號","OBJECTID":482923},"geometry":{"x":168510.79999999981,"y":2544956.7300000023}},{"attributes":{"ID":482949,"DIS_CODE":0,"TOWNNAME":"北區","LI":"大港里","LIN":"25鄰","STREET":"中華北路","SECT":"一段","MAREA":" ","LANE":" ","ALLEY":" ","HOUSE_NO":"２５７號","E_COORD97":166351.42000000001,"N_COORD97":2545842.6200000001,"ADDRESS":"中華北路一段２５７號","OBJECTID":482924},"geometry":{"x":166351.42000000086,"y":2545842.6200000029}},{"attributes":{"ID":482950,"DIS_CODE":0,"TOWNNAME":"北區","LI":"大港里","LIN":"25鄰","STREET":"中華北路","SECT":"一段","MAREA":" ","LANE":" ","ALLEY":" ","HOUSE_NO":"２６５號","E_COORD97":166314.04000000001,"N_COORD97":2545853.8500000001,"ADDRESS":"中華北路一段２６５號","OBJECTID":482925},"geometry":{"x":166314.04000000004,"y":2545853.8500000015}},{"attributes":{"ID":482951,"DIS_CODE":0,"TOWNNAME":"北區","LI":"長德里","LIN":"9鄰","STREET":"長北街","SECT":" ","MAREA":" ","LANE":" ","ALLEY":" ","HOUSE_NO":"１７１號","E_COORD97":168496.94,"N_COORD97":2544926.3900000001,"ADDRESS":"長北街１７１號","OBJECTID":482926},"geometry":{"x":168496.94000000041,"y":2544926.3900000006}},{"attributes":{"ID":482952,"DIS_CODE":0,"TOWNNAME":"北區","LI":"長德里","LIN":"9鄰","STREET":"長北街","SECT":" ","MAREA":" ","LANE":" ","ALLEY":" ","HOUSE_NO":"１７７號","E_COORD97":168505.26000000001,"N_COORD97":2544939.7799999998,"ADDRESS":"長北街１７７號","OBJECTID":482927},"geometry":{"x":168505.26000000071,"y":2544939.7799999993}},{"attributes":{"ID":482953,"DIS_CODE":0,"TOWNNAME":"北區","LI":"長德里","LIN":"9鄰","STREET":"長北街","SECT":" ","MAREA":" ","LANE":" ","ALLEY":" ","HOUSE_NO":"１８３之１號","E_COORD97":168510.48000000001,"N_COORD97":2544974.5600000001,"ADDRESS":"長北街１８３之１號","OBJECTID":482928},"geometry":{"x":168510.47999999952,"y":2544974.5600000024}},{"attributes":{"ID":482954,"DIS_CODE":0,"TOWNNAME":"北區","LI":"長德里","LIN":"9鄰","STREET":"長北街","SECT":" ","MAREA":" ","LANE":" ","ALLEY":" ","HOUSE_NO":"１８５號","E_COORD97":168513.5,"N_COORD97":2544978.5299999998,"ADDRESS":"長北街１８５號","OBJECTID":482929},"geometry":{"x":168513.50000000093,"y":2544978.5299999993}},{"attributes":{"ID":482955,"DIS_CODE":0,"TOWNNAME":"北區","LI":"五福里","LIN":"2鄰","STREET":"自強街","SECT":" ","MAREA":" ","LANE":" ","ALLEY":" ","HOUSE_NO":"１５１號","E_COORD97":168356.35999999999,"N_COORD97":2544723.98,"ADDRESS":"自強街１５１號","OBJECTID":482930},"geometry":{"x":168356.36000000034,"y":2544723.9800000023}},{"attributes":{"ID":482956,"DIS_CODE":0,"TOWNNAME":"北區","LI":"大和里","LIN":"25鄰","STREET":"大和路","SECT":" ","MAREA":" ","LANE":" ","ALLEY":" ","HOUSE_NO":"４８０號","E_COORD97":166881.16,"N_COORD97":2546190.5499999998,"ADDRESS":"大和路４８０號","OBJECTID":482931},"geometry":{"x":166881.16000000015,"y":2546190.5500000007}},{"attributes":{"ID":482957,"DIS_CODE":0,"TOWNNAME":"北區","LI":"大和里","LIN":"25鄰","STREET":"大和路","SECT":" ","MAREA":" ","LANE":" ","ALLEY":" ","HOUSE_NO":"４８２號","E_COORD97":166879.35999999999,"N_COORD97":2546194.1499999999,"ADDRESS":"大和路４８２號","OBJECTID":482932},"geometry":{"x":166879.36000000127,"y":2546194.1500000022}},{"attributes":{"ID":482958,"DIS_CODE":0,"TOWNNAME":"北區","LI":"大和里","LIN":"25鄰","STREET":"大和路","SECT":" ","MAREA":" ","LANE":" ","ALLEY":" ","HOUSE_NO":"４８６號","E_COORD97":166877.79999999999,"N_COORD97":2546198.1600000001,"ADDRESS":"大和路４８６號","OBJECTID":482933},"geometry":{"x":166877.80000000075,"y":2546198.160000002}},{"attributes":{"ID":482959,"DIS_CODE":0,"TOWNNAME":"北區","LI":"大和里","LIN":"25鄰","STREET":"大和路","SECT":" ","MAREA":" ","LANE":" ","ALLEY":" ","HOUSE_NO":"４８８號","E_COORD97":166875.19,"N_COORD97":2546202.0800000001,"ADDRESS":"大和路４８８號","OBJECTID":482934},"geometry":{"x":166875.19000000134,"y":2546202.0800000019}},{"attributes":{"ID":482960,"DIS_CODE":0,"TOWNNAME":"北區","LI":"大和里","LIN":"25鄰","STREET":"大和路","SECT":" ","MAREA":" ","LANE":" ","ALLEY":" ","HOUSE_NO":"４９０號","E_COORD97":166872.32000000001,"N_COORD97":2546205.4300000002,"ADDRESS":"大和路４９０號","OBJECTID":482935},"geometry":{"x":166872.32000000216,"y":2546205.4300000016}},{"attributes":{"ID":482961,"DIS_CODE":0,"TOWNNAME":"北區","LI":"大和里","LIN":"25鄰","STREET":"中華北路","SECT":"一段","MAREA":" ","LANE":" ","ALLEY":" ","HOUSE_NO":"４６６號","E_COORD97":166863.454761,"N_COORD97":2546223.9632700002,"ADDRESS":"中華北路一段４６６號","OBJECTID":482936},"geometry":{"x":166863.45476100128,"y":2546223.9632709995}},{"attributes":{"ID":482962,"DIS_CODE":0,"TOWNNAME":"北區","LI":"大和里","LIN":"25鄰","STREET":"中華北路","SECT":"一段","MAREA":" ","LANE":" ","ALLEY":" ","HOUSE_NO":"４６８號","E_COORD97":166872.13828899999,"N_COORD97":2546231.3716000002,"ADDRESS":"中華北路一段４６８號","OBJECTID":482937},"geometry":{"x":166872.13828899991,"y":2546231.3716010004}},{"attributes":{"ID":482963,"DIS_CODE":0,"TOWNNAME":"北區","LI":"大和里","LIN":"25鄰","STREET":"中華北路","SECT":"一段","MAREA":" ","LANE":" ","ALLEY":" ","HOUSE_NO":"４７０號","E_COORD97":166881.88078400001,"N_COORD97":2546240.0499300002,"ADDRESS":"中華北路一段４７０號","OBJECTID":482938},"geometry":{"x":166881.88078400027,"y":2546240.0499290023}},{"attributes":{"ID":482964,"DIS_CODE":0,"TOWNNAME":"北區","LI":"大和里","LIN":"25鄰","STREET":"中華北路","SECT":"一段","MAREA":" ","LANE":" ","ALLEY":" ","HOUSE_NO":"４７２號","E_COORD97":166888.234585,"N_COORD97":2546244.0715899998,"ADDRESS":"中華北路一段４７２號","OBJECTID":482939},"geometry":{"x":166888.23458500113,"y":2546244.0715940017}},{"attributes":{"ID":482965,"DIS_CODE":0,"TOWNNAME":"北區","LI":"大和里","LIN":"25鄰","STREET":"中華北路","SECT":"一段","MAREA":" ","LANE":" ","ALLEY":" ","HOUSE_NO":"４９０號","E_COORD97":166939.42000000001,"N_COORD97":2546280.9399999999,"ADDRESS":"中華北路一段４９０號","OBJECTID":482940},"geometry":{"x":166939.42000000086,"y":2546280.9399999995}},{"attributes":{"ID":482966,"DIS_CODE":0,"TOWNNAME":"北區","LI":"大和里","LIN":"25鄰","STREET":"中華北路","SECT":"一段","MAREA":" ","LANE":" ","ALLEY":" ","HOUSE_NO":"４９２號","E_COORD97":166943.51000000001,"N_COORD97":2546282.5,"ADDRESS":"中華北路一段４９２號","OBJECTID":482941},"geometry":{"x":166943.51000000071,"y":2546282.5000000037}},{"attributes":{"ID":482967,"DIS_CODE":0,"TOWNNAME":"關廟區","LI":"香洋里","LIN":"25鄰","STREET":"南雄路","SECT":"一段","MAREA":" ","LANE":" ","ALLEY":" ","HOUSE_NO":"１１４９號","E_COORD97":181046.82000000001,"N_COORD97":2539916.46,"ADDRESS":"南雄路一段１１４９號","OBJECTID":482942},"geometry":{"x":181046.8200000003,"y":2539916.4600000046}},{"attributes":{"ID":482968,"DIS_CODE":0,"TOWNNAME":"新營區","LI":"王公里","LIN":"25鄰","STREET":"中正路","SECT":" ","MAREA":" ","LANE":" ","ALLEY":" ","HOUSE_NO":"１３０之８號","E_COORD97":180100.26999999999,"N_COORD97":2579551.2999999998,"ADDRESS":"中正路１３０之８號","OBJECTID":482943},"geometry":{"x":180100.26999999955,"y":2579551.3000000026}},{"attributes":{"ID":482969,"DIS_CODE":0,"TOWNNAME":"新營區","LI":"王公里","LIN":"25鄰","STREET":"中正路","SECT":" ","MAREA":" ","LANE":" ","ALLEY":" ","HOUSE_NO":"１３４之１１號","E_COORD97":180147.76999999999,"N_COORD97":2579599.8100000001,"ADDRESS":"中正路１３４之１１號","OBJECTID":482944},"geometry":{"x":180147.76999999955,"y":2579599.8100000005}},{"attributes":{"ID":482970,"DIS_CODE":0,"TOWNNAME":"新營區","LI":"大宏里","LIN":"25鄰","STREET":"綠川北街","SECT":" ","MAREA":" ","LANE":" ","ALLEY":" ","HOUSE_NO":"７１號","E_COORD97":180494.56,"N_COORD97":2578712.1400000001,"ADDRESS":"綠川北街７１號","OBJECTID":482945},"geometry":{"x":180494.56000000052,"y":2578712.1400000025}},{"attributes":{"ID":482971,"DIS_CODE":0,"TOWNNAME":"新營區","LI":"王公里","LIN":"25鄰","STREET":"中正路","SECT":" ","MAREA":" ","LANE":" ","ALLEY":" ","HOUSE_NO":"１３８之１５號","E_COORD97":180137.67999999999,"N_COORD97":2579628.6499999999,"ADDRESS":"中正路１３８之１５號","OBJECTID":482946},"geometry":{"x":180137.68000000063,"y":2579628.6500000004}},{"attributes":{"ID":482972,"DIS_CODE":0,"TOWNNAME":"安平區","LI":"怡平里","LIN":"25鄰","STREET":"華平路","SECT":" ","MAREA":" ","LANE":" ","ALLEY":" ","HOUSE_NO":"４７８之１號","E_COORD97":165470.29999999999,"N_COORD97":2543702.5,"ADDRESS":"華平路４７８之１號","OBJECTID":482947},"geometry":{"x":165470.30000000075,"y":2543702.5000000019}},{"attributes":{"ID":482973,"DIS_CODE":0,"TOWNNAME":"南區","LI":"文南里","LIN":"25鄰","STREET":"中華西路","SECT":"一段","MAREA":" ","LANE":" ","ALLEY":" ","HOUSE_NO":"３１０號","E_COORD97":166582.85000000001,"N_COORD97":2542627.5299999998,"ADDRESS":"中華西路一段３１０號","OBJECTID":482948},"geometry":{"x":166582.84999999963,"y":2542627.5300000012}},{"attributes":{"ID":482974,"DIS_CODE":0,"TOWNNAME":"南區","LI":"文南里","LIN":"25鄰","STREET":"中華西路","SECT":"一段","MAREA":" ","LANE":" ","ALLEY":" ","HOUSE_NO":"３１２號","E_COORD97":166594.32000000001,"N_COORD97":2542721.4900000002,"ADDRESS":"中華西路一段３１２號","OBJECTID":482949},"geometry":{"x":166594.32000000216,"y":2542721.4900000002}},{"attributes":{"ID":482975,"DIS_CODE":0,"TOWNNAME":"南區","LI":"文南里","LIN":"25鄰","STREET":"中華西路","SECT":"一段","MAREA":" ","LANE":" ","ALLEY":" ","HOUSE_NO":"３１４號","E_COORD97":166592.20999999999,"N_COORD97":2542741.6600000001,"ADDRESS":"中華西路一段３１４號","OBJECTID":482950},"geometry":{"x":166592.20999999996,"y":2542741.6600000039}},{"attributes":{"ID":482976,"DIS_CODE":0,"TOWNNAME":"南區","LI":"文南里","LIN":"25鄰","STREET":"中華西路","SECT":"一段","MAREA":" ","LANE":" ","ALLEY":" ","HOUSE_NO":"３１６號","E_COORD97":166594.31,"N_COORD97":2542755.4500000002,"ADDRESS":"中華西路一段３１６號","OBJECTID":482951},"geometry":{"x":166594.31000000052,"y":2542755.4499999993}},{"attributes":{"ID":482977,"DIS_CODE":0,"TOWNNAME":"歸仁區","LI":"大廟里","LIN":"18鄰","STREET":"大廟五街","SECT":" ","MAREA":" ","LANE":" ","ALLEY":" ","HOUSE_NO":"９號","E_COORD97":175900.82000000001,"N_COORD97":2544187.25,"ADDRESS":"大廟五街９號","OBJECTID":482952},"geometry":{"x":175900.82000000216,"y":2544187.25}},{"attributes":{"ID":482978,"DIS_CODE":0,"TOWNNAME":"南區","LI":"文南里","LIN":"25鄰","STREET":"中華西路","SECT":"一段","MAREA":" ","LANE":" ","ALLEY":" ","HOUSE_NO":"３１８號","E_COORD97":166594.89000000001,"N_COORD97":2542759.4700000002,"ADDRESS":"中華西路一段３１８號","OBJECTID":482953},"geometry":{"x":166594.89000000153,"y":2542759.4700000007}},{"attributes":{"ID":482979,"DIS_CODE":0,"TOWNNAME":"南區","LI":"文南里","LIN":"25鄰","STREET":"中華西路","SECT":"一段","MAREA":" ","LANE":" ","ALLEY":" ","HOUSE_NO":"３２０號","E_COORD97":166595.47,"N_COORD97":2542764.4500000002,"ADDRESS":"中華西路一段３２０號","OBJECTID":482954},"geometry":{"x":166595.46999999974,"y":2542764.4499999993}},{"attributes":{"ID":482980,"DIS_CODE":0,"TOWNNAME":"南區","LI":"文南里","LIN":"25鄰","STREET":"中華西路","SECT":"一段","MAREA":" ","LANE":" ","ALLEY":" ","HOUSE_NO":"３２２號","E_COORD97":166596.60999999999,"N_COORD97":2542769.0499999998,"ADDRESS":"中華西路一段３２２號","OBJECTID":482955},"geometry":{"x":166596.61000000034,"y":2542769.0500000007}},{"attributes":{"ID":482981,"DIS_CODE":0,"TOWNNAME":"南區","LI":"文南里","LIN":"25鄰","STREET":"中華西路","SECT":"一段","MAREA":" ","LANE":" ","ALLEY":" ","HOUSE_NO":"３２４號","E_COORD97":166597.38,"N_COORD97":2542774.23,"ADDRESS":"中華西路一段３２４號","OBJECTID":482956},"geometry":{"x":166597.38000000082,"y":2542774.2300000004}},{"attributes":{"ID":482982,"DIS_CODE":0,"TOWNNAME":"南區","LI":"文南里","LIN":"25鄰","STREET":"中華西路","SECT":"一段","MAREA":" ","LANE":" ","ALLEY":" ","HOUSE_NO":"３２６號","E_COORD97":166597.57000000001,"N_COORD97":2542778.25,"ADDRESS":"中華西路一段３２６號","OBJECTID":482957},"geometry":{"x":166597.57000000216,"y":2542778.2500000037}},{"attributes":{"ID":482983,"DIS_CODE":0,"TOWNNAME":"南區","LI":"文南里","LIN":"25鄰","STREET":"中華西路","SECT":"一段","MAREA":" ","LANE":" ","ALLEY":" ","HOUSE_NO":"３２８號","E_COORD97":166598.14999999999,"N_COORD97":2542783.4199999999,"ADDRESS":"中華西路一段３２８號","OBJECTID":482958},"geometry":{"x":166598.15000000037,"y":2542783.4199999999}},{"attributes":{"ID":482984,"DIS_CODE":0,"TOWNNAME":"南區","LI":"文南里","LIN":"25鄰","STREET":"中華西路","SECT":"一段","MAREA":" ","LANE":" ","ALLEY":" ","HOUSE_NO":"３３０號","E_COORD97":166598.53,"N_COORD97":2542788.3999999999,"ADDRESS":"中華西路一段３３０號","OBJECTID":482959},"geometry":{"x":166598.53000000119,"y":2542788.4000000022}},{"attributes":{"ID":482985,"DIS_CODE":0,"TOWNNAME":"南區","LI":"文南里","LIN":"25鄰","STREET":"中華西路","SECT":"一段","MAREA":" ","LANE":" ","ALLEY":" ","HOUSE_NO":"３３２號","E_COORD97":166599.10999999999,"N_COORD97":2542793.1899999999,"ADDRESS":"中華西路一段３３２號","OBJECTID":482960},"geometry":{"x":166599.1100000022,"y":2542793.1900000013}},{"attributes":{"ID":482986,"DIS_CODE":0,"TOWNNAME":"南區","LI":"文南里","LIN":"25鄰","STREET":"智南街","SECT":" ","MAREA":" ","LANE":" ","ALLEY":" ","HOUSE_NO":"１２號","E_COORD97":166634.57999999999,"N_COORD97":2542786.29,"ADDRESS":"智南街１２號","OBJECTID":482961},"geometry":{"x":166634.58000000194,"y":2542786.2899999991}},{"attributes":{"ID":482987,"DIS_CODE":0,"TOWNNAME":"南區","LI":"文南里","LIN":"25鄰","STREET":"智南街","SECT":" ","MAREA":" ","LANE":" ","ALLEY":" ","HOUSE_NO":"１４號","E_COORD97":166634.38,"N_COORD97":2542782.46,"ADDRESS":"智南街１４號","OBJECTID":482962},"geometry":{"x":166634.38000000082,"y":2542782.4600000028}},{"attributes":{"ID":482988,"DIS_CODE":0,"TOWNNAME":"南區","LI":"文南里","LIN":"25鄰","STREET":"智南街","SECT":" ","MAREA":" ","LANE":" ","ALLEY":" ","HOUSE_NO":"１６號","E_COORD97":166633.23999999999,"N_COORD97":2542778.25,"ADDRESS":"智南街１６號","OBJECTID":482963},"geometry":{"x":166633.24000000022,"y":2542778.2500000037}},{"attributes":{"ID":482989,"DIS_CODE":0,"TOWNNAME":"南區","LI":"文南里","LIN":"25鄰","STREET":"智南街","SECT":" ","MAREA":" ","LANE":" ","ALLEY":" ","HOUSE_NO":"１８號","E_COORD97":166633.23999999999,"N_COORD97":2542774.2200000002,"ADDRESS":"智南街１８號","OBJECTID":482964},"geometry":{"x":166633.24000000022,"y":2542774.2200000007}},{"attributes":{"ID":482990,"DIS_CODE":0,"TOWNNAME":"南區","LI":"文南里","LIN":"25鄰","STREET":"智南街","SECT":" ","MAREA":" ","LANE":" ","ALLEY":" ","HOUSE_NO":"２０號","E_COORD97":166632.85999999999,"N_COORD97":2542770.0099999998,"ADDRESS":"智南街２０號","OBJECTID":482965},"geometry":{"x":166632.8599999994,"y":2542770.0100000016}},{"attributes":{"ID":482991,"DIS_CODE":0,"TOWNNAME":"南區","LI":"文南里","LIN":"25鄰","STREET":"智南街","SECT":" ","MAREA":" ","LANE":" ","ALLEY":" ","HOUSE_NO":"２２號","E_COORD97":166632.07999999999,"N_COORD97":2542766.1800000002,"ADDRESS":"智南街２２號","OBJECTID":482966},"geometry":{"x":166632.08000000007,"y":2542766.1800000016}},{"attributes":{"ID":482992,"DIS_CODE":0,"TOWNNAME":"南區","LI":"文南里","LIN":"25鄰","STREET":"智南街","SECT":" ","MAREA":" ","LANE":" ","ALLEY":" ","HOUSE_NO":"２４號","E_COORD97":166631.32000000001,"N_COORD97":2542761.5800000001,"ADDRESS":"智南街２４號","OBJECTID":482967},"geometry":{"x":166631.3200000003,"y":2542761.5800000001}},{"attributes":{"ID":482993,"DIS_CODE":0,"TOWNNAME":"南區","LI":"文南里","LIN":"25鄰","STREET":"智南街","SECT":" ","MAREA":" ","LANE":" ","ALLEY":" ","HOUSE_NO":"２６號","E_COORD97":166630.94,"N_COORD97":2542757.5600000001,"ADDRESS":"智南街２６號","OBJECTID":482968},"geometry":{"x":166630.94000000227,"y":2542757.5600000024}},{"attributes":{"ID":482994,"DIS_CODE":0,"TOWNNAME":"南區","LI":"文南里","LIN":"25鄰","STREET":"智南街","SECT":" ","MAREA":" ","LANE":" ","ALLEY":" ","HOUSE_NO":"２８號","E_COORD97":166630.17999999999,"N_COORD97":2542753.3399999999,"ADDRESS":"智南街２８號","OBJECTID":482969},"geometry":{"x":166630.18000000156,"y":2542753.3399999999}},{"attributes":{"ID":482995,"DIS_CODE":0,"TOWNNAME":"南區","LI":"文南里","LIN":"25鄰","STREET":"智南街","SECT":" ","MAREA":" ","LANE":" ","ALLEY":" ","HOUSE_NO":"３０號","E_COORD97":166629.22,"N_COORD97":2542749.5099999998,"ADDRESS":"智南街３０號","OBJECTID":482970},"geometry":{"x":166629.21999999974,"y":2542749.5100000016}},{"attributes":{"ID":482996,"DIS_CODE":0,"TOWNNAME":"南區","LI":"文南里","LIN":"25鄰","STREET":"智南街","SECT":" ","MAREA":" ","LANE":" ","ALLEY":" ","HOUSE_NO":"３２號","E_COORD97":166629.01999999999,"N_COORD97":2542745.4900000002,"ADDRESS":"智南街３２號","OBJECTID":482971},"geometry":{"x":166629.01999999955,"y":2542745.4900000002}},{"attributes":{"ID":482997,"DIS_CODE":0,"TOWNNAME":"南區","LI":"文南里","LIN":"25鄰","STREET":"智南街","SECT":" ","MAREA":" ","LANE":" ","ALLEY":" ","HOUSE_NO":"３４號","E_COORD97":166628.44,"N_COORD97":2542740.8900000001,"ADDRESS":"智南街３４號","OBJECTID":482972},"geometry":{"x":166628.44000000041,"y":2542740.8900000043}},{"attributes":{"ID":482998,"DIS_CODE":0,"TOWNNAME":"南區","LI":"文南里","LIN":"25鄰","STREET":"智南街","SECT":" ","MAREA":" ","LANE":" ","ALLEY":" ","HOUSE_NO":"３６號","E_COORD97":166627.87,"N_COORD97":2542737.25,"ADDRESS":"智南街３６號","OBJECTID":482973},"geometry":{"x":166627.87000000104,"y":2542737.25}},{"attributes":{"ID":482999,"DIS_CODE":0,"TOWNNAME":"南區","LI":"文南里","LIN":"25鄰","STREET":"智南街","SECT":" ","MAREA":" ","LANE":" ","ALLEY":" ","HOUSE_NO":"３８號","E_COORD97":166626.91,"N_COORD97":2542732.6600000001,"ADDRESS":"智南街３８號","OBJECTID":482974},"geometry":{"x":166626.91000000015,"y":2542732.660000002}},{"attributes":{"ID":483000,"DIS_CODE":0,"TOWNNAME":"南區","LI":"文南里","LIN":"25鄰","STREET":"智南街","SECT":" ","MAREA":" ","LANE":" ","ALLEY":" ","HOUSE_NO":"６號","E_COORD97":166636.67999999999,"N_COORD97":2542800.27,"ADDRESS":"智南街６號","OBJECTID":482975},"geometry":{"x":166636.6799999997,"y":2542800.2699999996}},{"attributes":{"ID":483001,"DIS_CODE":0,"TOWNNAME":"南區","LI":"文南里","LIN":"25鄰","STREET":"智南街","SECT":" ","MAREA":" ","LANE":" ","ALLEY":" ","HOUSE_NO":"８號","E_COORD97":166635.92000000001,"N_COORD97":2542794.9199999999,"ADDRESS":"智南街８號","OBJECTID":482976},"geometry":{"x":166635.92000000086,"y":2542794.9200000018}},{"attributes":{"ID":483002,"DIS_CODE":0,"TOWNNAME":"安平區","LI":"怡平里","LIN":"25鄰","STREET":"華平路","SECT":" ","MAREA":" ","LANE":" ","ALLEY":" ","HOUSE_NO":"４２０號","E_COORD97":165443.72,"N_COORD97":2543577.5499999998,"ADDRESS":"華平路４２０號","OBJECTID":482977},"geometry":{"x":165443.72000000067,"y":2543577.5500000026}},{"attributes":{"ID":483003,"DIS_CODE":0,"TOWNNAME":"安平區","LI":"怡平里","LIN":"25鄰","STREET":"永華路","SECT":"二段","MAREA":" ","LANE":" ","ALLEY":" ","HOUSE_NO":"４８０號","E_COORD97":165513.56,"N_COORD97":2543513.1099999999,"ADDRESS":"永華路二段４８０號","OBJECTID":482978},"geometry":{"x":165513.55999999959,"y":2543513.1099999994}},{"attributes":{"ID":483004,"DIS_CODE":0,"TOWNNAME":"安平區","LI":"怡平里","LIN":"25鄰","STREET":"永華路","SECT":"二段","MAREA":" ","LANE":" ","ALLEY":" ","HOUSE_NO":"４９２號","E_COORD97":165471.39999999999,"N_COORD97":2543514.5,"ADDRESS":"永華路二段４９２號","OBJECTID":482979},"geometry":{"x":165471.40000000037,"y":2543514.5}},{"attributes":{"ID":483005,"DIS_CODE":0,"TOWNNAME":"安平區","LI":"怡平里","LIN":"25鄰","STREET":"華平路","SECT":" ","MAREA":" ","LANE":" ","ALLEY":" ","HOUSE_NO":"４６６號","E_COORD97":165465.17999999999,"N_COORD97":2543667.4900000002,"ADDRESS":"華平路４６６號","OBJECTID":482980},"geometry":{"x":165465.1799999997,"y":2543667.4900000002}},{"attributes":{"ID":483006,"DIS_CODE":0,"TOWNNAME":"歸仁區","LI":"後市里","LIN":"39鄰","STREET":"民權三街","SECT":" ","MAREA":" ","LANE":" ","ALLEY":" ","HOUSE_NO":"６９號","E_COORD97":177329.23000000001,"N_COORD97":2541074.75,"ADDRESS":"民權三街６９號","OBJECTID":482981},"geometry":{"x":177329.23000000138,"y":2541074.75}},{"attributes":{"ID":483007,"DIS_CODE":0,"TOWNNAME":"南區","LI":"大忠里","LIN":"25鄰","STREET":"公英一街","SECT":" ","MAREA":" ","LANE":" ","ALLEY":" ","HOUSE_NO":"７９號","E_COORD97":169281.62,"N_COORD97":2541219.2400000002,"ADDRESS":"公英一街７９號","OBJECTID":482982},"geometry":{"x":169281.62000000011,"y":2541219.2400000039}},{"attributes":{"ID":483008,"DIS_CODE":0,"TOWNNAME":"南區","LI":"大忠里","LIN":"25鄰","STREET":"公英一街","SECT":" ","MAREA":" ","LANE":" ","ALLEY":" ","HOUSE_NO":"８１號","E_COORD97":169277.48999999999,"N_COORD97":2541218.0299999998,"ADDRESS":"公英一街８１號","OBJECTID":482983},"geometry":{"x":169277.49000000022,"y":2541218.0299999993}},{"attributes":{"ID":483009,"DIS_CODE":0,"TOWNNAME":"南區","LI":"大忠里","LIN":"25鄰","STREET":"公英一街","SECT":" ","MAREA":" ","LANE":" ","ALLEY":" ","HOUSE_NO":"８３號","E_COORD97":169273.85000000001,"N_COORD97":2541217.5499999998,"ADDRESS":"公英一街８３號","OBJECTID":482984},"geometry":{"x":169273.85000000056,"y":2541217.5500000045}},{"attributes":{"ID":483010,"DIS_CODE":0,"TOWNNAME":"南區","LI":"大忠里","LIN":"25鄰","STREET":"公英一街","SECT":" ","MAREA":" ","LANE":" ","ALLEY":" ","HOUSE_NO":"８５號","E_COORD97":169269.95999999999,"N_COORD97":2541217.0699999998,"ADDRESS":"公英一街８５號","OBJECTID":482985},"geometry":{"x":169269.96000000089,"y":2541217.070000004}},{"attributes":{"ID":483011,"DIS_CODE":0,"TOWNNAME":"南區","LI":"大忠里","LIN":"25鄰","STREET":"公英一街","SECT":" ","MAREA":" ","LANE":" ","ALLEY":" ","HOUSE_NO":"８７號","E_COORD97":169266.07999999999,"N_COORD97":2541216.5800000001,"ADDRESS":"公英一街８７號","OBJECTID":482986},"geometry":{"x":169266.08000000101,"y":2541216.5800000038}},{"attributes":{"ID":483012,"DIS_CODE":0,"TOWNNAME":"歸仁區","LI":"崙頂里","LIN":"25鄰","STREET":"崙頂街","SECT":" ","MAREA":" ","LANE":" ","ALLEY":" ","HOUSE_NO":"１２２號","E_COORD97":177839.73000000001,"N_COORD97":2539857.25,"ADDRESS":"崙頂街１２２號","OBJECTID":482987},"geometry":{"x":177839.73000000138,"y":2539857.2500000019}},{"attributes":{"ID":483013,"DIS_CODE":0,"TOWNNAME":"北區","LI":"大道里","LIN":"25鄰","STREET":"旭日街","SECT":" ","MAREA":" ","LANE":" ","ALLEY":" ","HOUSE_NO":"１５７號","E_COORD97":169415.10000000001,"N_COORD97":2545710.5899999999,"ADDRESS":"旭日街１５７號","OBJECTID":482988},"geometry":{"x":169415.09999999963,"y":2545710.5899999999}},{"attributes":{"ID":483014,"DIS_CODE":0,"TOWNNAME":"北區","LI":"大道里","LIN":"25鄰","STREET":"旭日街","SECT":" ","MAREA":" ","LANE":" ","ALLEY":" ","HOUSE_NO":"１６９號","E_COORD97":169417.25,"N_COORD97":2545724.8100000001,"ADDRESS":"旭日街１６９號","OBJECTID":482989},"geometry":{"x":169417.25000000093,"y":2545724.8100000042}},{"attributes":{"ID":483015,"DIS_CODE":0,"TOWNNAME":"北區","LI":"大道里","LIN":"25鄰","STREET":"旭日街","SECT":" ","MAREA":" ","LANE":" ","ALLEY":" ","HOUSE_NO":"１５１號","E_COORD97":169409.95000000001,"N_COORD97":2545690.4100000001,"ADDRESS":"旭日街１５１號","OBJECTID":482990},"geometry":{"x":169409.95000000019,"y":2545690.410000002}},{"attributes":{"ID":483016,"DIS_CODE":0,"TOWNNAME":"北區","LI":"大道里","LIN":"25鄰","STREET":"旭日街","SECT":" ","MAREA":" ","LANE":" ","ALLEY":" ","HOUSE_NO":"１５３號","E_COORD97":169412.64000000001,"N_COORD97":2545701.46,"ADDRESS":"旭日街１５３號","OBJECTID":482991},"geometry":{"x":169412.6400000006,"y":2545701.4600000028}},{"attributes":{"ID":483017,"DIS_CODE":0,"TOWNNAME":"北區","LI":"大道里","LIN":"25鄰","STREET":"旭日街","SECT":" ","MAREA":" ","LANE":" ","ALLEY":" ","HOUSE_NO":"１５５號","E_COORD97":169413.87,"N_COORD97":2545706.8300000001,"ADDRESS":"旭日街１５５號","OBJECTID":482992},"geometry":{"x":169413.87000000011,"y":2545706.8300000001}},{"attributes":{"ID":483018,"DIS_CODE":0,"TOWNNAME":"北區","LI":"大道里","LIN":"25鄰","STREET":"旭日街","SECT":" ","MAREA":" ","LANE":" ","ALLEY":" ","HOUSE_NO":"１６３號","E_COORD97":169415.95000000001,"N_COORD97":2545714.6899999999,"ADDRESS":"旭日街１６３號","OBJECTID":482993},"geometry":{"x":169415.95000000112,"y":2545714.6900000013}},{"attributes":{"ID":483019,"DIS_CODE":0,"TOWNNAME":"北區","LI":"大道里","LIN":"25鄰","STREET":"旭日街","SECT":" ","MAREA":" ","LANE":" ","ALLEY":" ","HOUSE_NO":"１６５號","E_COORD97":169416.56,"N_COORD97":2545717.9900000002,"ADDRESS":"旭日街１６５號","OBJECTID":482994},"geometry":{"x":169416.56000000052,"y":2545717.9900000021}},{"attributes":{"ID":483020,"DIS_CODE":0,"TOWNNAME":"北區","LI":"大道里","LIN":"25鄰","STREET":"旭日街","SECT":" ","MAREA":" ","LANE":" ","ALLEY":" ","HOUSE_NO":"１６７號","E_COORD97":169415.48999999999,"N_COORD97":2545721.8999999999,"ADDRESS":"旭日街１６７號","OBJECTID":482995},"geometry":{"x":169415.49000000209,"y":2545721.9000000022}},{"attributes":{"ID":483021,"DIS_CODE":0,"TOWNNAME":"北區","LI":"大道里","LIN":"25鄰","STREET":"旭日街","SECT":" ","MAREA":" ","LANE":" ","ALLEY":" ","HOUSE_NO":"１７１號","E_COORD97":169412.48999999999,"N_COORD97":2545729.8700000001,"ADDRESS":"旭日街１７１號","OBJECTID":482996},"geometry":{"x":169412.49000000115,"y":2545729.8700000029}},{"attributes":{"ID":483022,"DIS_CODE":0,"TOWNNAME":"北區","LI":"大道里","LIN":"25鄰","STREET":"旭日街","SECT":" ","MAREA":" ","LANE":" ","ALLEY":" ","HOUSE_NO":"１７７號","E_COORD97":169412.26000000001,"N_COORD97":2545734.1699999999,"ADDRESS":"旭日街１７７號","OBJECTID":482997},"geometry":{"x":169412.26000000071,"y":2545734.1699999999}},{"attributes":{"ID":483023,"DIS_CODE":0,"TOWNNAME":"北區","LI":"大道里","LIN":"25鄰","STREET":"旭日街","SECT":" ","MAREA":" ","LANE":" ","ALLEY":" ","HOUSE_NO":"１７３號","E_COORD97":169405.89999999999,"N_COORD97":2545737.0299999998,"ADDRESS":"旭日街１７３號","OBJECTID":482998},"geometry":{"x":169405.90000000037,"y":2545737.0300000012}},{"attributes":{"ID":483024,"DIS_CODE":0,"TOWNNAME":"北區","LI":"大道里","LIN":"25鄰","STREET":"旭日街","SECT":" ","MAREA":" ","LANE":" ","ALLEY":" ","HOUSE_NO":"１７５號","E_COORD97":169408.66,"N_COORD97":2545746.77,"ADDRESS":"旭日街１７５號","OBJECTID":482999},"geometry":{"x":169408.66000000015,"y":2545746.7699999996}},{"attributes":{"ID":483025,"DIS_CODE":0,"TOWNNAME":"北區","LI":"大道里","LIN":"25鄰","STREET":"旭日街","SECT":" ","MAREA":" ","LANE":" ","ALLEY":" ","HOUSE_NO":"１５９號","E_COORD97":169388.81,"N_COORD97":2545716.7400000002,"ADDRESS":"旭日街１５９號","OBJECTID":483000},"geometry":{"x":169388.80999999866,"y":2545716.7400000002}}]}