{"displayFieldName":"TOWNNAME","fieldAliases":{"ID":"ID","DIS_CODE":"DIS_CODE","TOWNNAME":"TOWNNAME","LI":"LI","LIN":"LIN","STREET":"STREET","SECT":"SECT","MAREA":"MAREA","LANE":"LANE","ALLEY":"ALLEY","HOUSE_NO":"HOUSE_NO","E_COORD97":"E_COORD97","N_COORD97":"N_COORD97","ADDRESS":"ADDRESS","OBJECTID":"OBJECTID"},"geometryType":"esriGeometryPoint","spatialReference":{"wkid":102443,"latestWkid":3826},"fields":[{"name":"ID","type":"esriFieldTypeDouble","alias":"ID"},{"name":"DIS_CODE","type":"esriFieldTypeInteger","alias":"DIS_CODE"},{"name":"TOWNNAME","type":"esriFieldTypeString","alias":"TOWNNAME","length":8},{"name":"LI","type":"esriFieldTypeString","alias":"LI","length":8},{"name":"LIN","type":"esriFieldTypeString","alias":"LIN","length":12},{"name":"STREET","type":"esriFieldTypeString","alias":"STREET","length":20},{"name":"SECT","type":"esriFieldTypeString","alias":"SECT","length":8},{"name":"MAREA","type":"esriFieldTypeString","alias":"MAREA","length":12},{"name":"LANE","type":"esriFieldTypeString","alias":"LANE","length":10},{"name":"ALLEY","type":"esriFieldTypeString","alias":"ALLEY","length":10},{"name":"HOUSE_NO","type":"esriFieldTypeString","alias":"HOUSE_NO","length":20},{"name":"E_COORD97","type":"esriFieldTypeDouble","alias":"E_COORD97"},{"name":"N_COORD97","type":"esriFieldTypeDouble","alias":"N_COORD97"},{"name":"ADDRESS","type":"esriFieldTypeString","alias":"ADDRESS","length":50},{"name":"OBJECTID","type":"esriFieldTypeOID","alias":"OBJECTID"}],"features":[{"attributes":{"ID":575428,"DIS_CODE":0,"TOWNNAME":"官田區","LI":"二鎮里","LIN":"23鄰","STREET":"工社北街","SECT":" ","MAREA":" ","LANE":" ","ALLEY":" ","HOUSE_NO":"７７號之１","E_COORD97":181055.29000000001,"N_COORD97":2568709.04,"ADDRESS":"工社北街７７號之１","OBJECTID":575401},"geometry":{"x":181055.29000000004,"y":2568709.040000001}},{"attributes":{"ID":575429,"DIS_CODE":0,"TOWNNAME":"官田區","LI":"二鎮里","LIN":"23鄰","STREET":"工社北街","SECT":" ","MAREA":" ","LANE":" ","ALLEY":" ","HOUSE_NO":"７７號","E_COORD97":181065.87,"N_COORD97":2568711.6099999999,"ADDRESS":"工社北街７７號","OBJECTID":575402},"geometry":{"x":181065.87000000104,"y":2568711.6100000031}},{"attributes":{"ID":575430,"DIS_CODE":0,"TOWNNAME":"官田區","LI":"二鎮里","LIN":"23鄰","STREET":"工社北街","SECT":" ","MAREA":" ","LANE":" ","ALLEY":" ","HOUSE_NO":"８２號","E_COORD97":181115.23000000001,"N_COORD97":2568744.7000000002,"ADDRESS":"工社北街８２號","OBJECTID":575403},"geometry":{"x":181115.23000000045,"y":2568744.700000003}},{"attributes":{"ID":575431,"DIS_CODE":0,"TOWNNAME":"官田區","LI":"二鎮里","LIN":"23鄰","STREET":"工社北街","SECT":" ","MAREA":" ","LANE":" ","ALLEY":" ","HOUSE_NO":"８８號","E_COORD97":181130.10999999999,"N_COORD97":2568749.1000000001,"ADDRESS":"工社北街８８號","OBJECTID":575404},"geometry":{"x":181130.11000000034,"y":2568749.1000000034}},{"attributes":{"ID":575432,"DIS_CODE":0,"TOWNNAME":"官田區","LI":"二鎮里","LIN":"23鄰","STREET":"工社北街","SECT":" ","MAREA":" ","LANE":" ","ALLEY":" ","HOUSE_NO":"９８號","E_COORD97":181146.48000000001,"N_COORD97":2568754.1299999999,"ADDRESS":"工社北街９８號","OBJECTID":575405},"geometry":{"x":181146.48000000231,"y":2568754.129999999}},{"attributes":{"ID":575433,"DIS_CODE":0,"TOWNNAME":"官田區","LI":"隆田里","LIN":"23鄰","STREET":"中山路","SECT":"二段","MAREA":" ","LANE":" ","ALLEY":" ","HOUSE_NO":"１號","E_COORD97":179127.76000000001,"N_COORD97":2565917.7400000002,"ADDRESS":"中山路二段１號","OBJECTID":575406},"geometry":{"x":179127.75999999978,"y":2565917.7399999984}},{"attributes":{"ID":575434,"DIS_CODE":0,"TOWNNAME":"安南區","LI":"海東里","LIN":"23鄰","STREET":"大安街","SECT":" ","MAREA":" ","LANE":" ","ALLEY":" ","HOUSE_NO":"７９６號","E_COORD97":166905.04999999999,"N_COORD97":2549110.6499999999,"ADDRESS":"大安街７９６號","OBJECTID":575407},"geometry":{"x":166905.04999999981,"y":2549110.6500000022}},{"attributes":{"ID":575435,"DIS_CODE":0,"TOWNNAME":"安南區","LI":"海東里","LIN":"23鄰","STREET":"大安街","SECT":" ","MAREA":" ","LANE":" ","ALLEY":" ","HOUSE_NO":"７９８號","E_COORD97":166901.72,"N_COORD97":2549112.8700000001,"ADDRESS":"大安街７９８號","OBJECTID":575408},"geometry":{"x":166901.72000000067,"y":2549112.8700000029}},{"attributes":{"ID":575436,"DIS_CODE":0,"TOWNNAME":"安南區","LI":"海東里","LIN":"23鄰","STREET":"大安街","SECT":" ","MAREA":" ","LANE":" ","ALLEY":" ","HOUSE_NO":"８００號","E_COORD97":166899.01999999999,"N_COORD97":2549116.3599999999,"ADDRESS":"大安街８００號","OBJECTID":575409},"geometry":{"x":166899.02000000142,"y":2549116.3599999994}},{"attributes":{"ID":575437,"DIS_CODE":0,"TOWNNAME":"安南區","LI":"海東里","LIN":"23鄰","STREET":"大安街","SECT":" ","MAREA":" ","LANE":" ","ALLEY":" ","HOUSE_NO":"８０２號","E_COORD97":166894.89000000001,"N_COORD97":2549121.6000000001,"ADDRESS":"大安街８０２號","OBJECTID":575410},"geometry":{"x":166894.89000000153,"y":2549121.5999999996}},{"attributes":{"ID":575438,"DIS_CODE":0,"TOWNNAME":"善化區","LI":"坐駕里","LIN":"9鄰","STREET":"青年路","SECT":" ","MAREA":" ","LANE":" ","ALLEY":" ","HOUSE_NO":"９６號","E_COORD97":177890.31,"N_COORD97":2558665.5,"ADDRESS":"青年路９６號","OBJECTID":575411},"geometry":{"x":177890.31000000145,"y":2558665.5000000019}},{"attributes":{"ID":575439,"DIS_CODE":0,"TOWNNAME":"永康區","LI":"北灣里","LIN":"23鄰","STREET":"大灣路","SECT":" ","MAREA":" ","LANE":" ","ALLEY":" ","HOUSE_NO":"１０號","E_COORD97":175338.51000000001,"N_COORD97":2545965.4399999999,"ADDRESS":"大灣路１０號","OBJECTID":575412},"geometry":{"x":175338.51000000071,"y":2545965.4399999995}},{"attributes":{"ID":575440,"DIS_CODE":0,"TOWNNAME":"永康區","LI":"甲頂里","LIN":"23鄰","STREET":"中正南路","SECT":" ","MAREA":" ","LANE":" ","ALLEY":" ","HOUSE_NO":"９４號","E_COORD97":169677.62,"N_COORD97":2546852.5600000001,"ADDRESS":"中正南路９４號","OBJECTID":575413},"geometry":{"x":169677.62000000104,"y":2546852.5600000024}},{"attributes":{"ID":575441,"DIS_CODE":0,"TOWNNAME":"永康區","LI":"北灣里","LIN":"23鄰","STREET":"大灣路","SECT":" ","MAREA":" ","LANE":" ","ALLEY":" ","HOUSE_NO":"３４號","E_COORD97":175307.76000000001,"N_COORD97":2545914.2999999998,"ADDRESS":"大灣路３４號","OBJECTID":575414},"geometry":{"x":175307.76000000071,"y":2545914.3000000007}},{"attributes":{"ID":575442,"DIS_CODE":0,"TOWNNAME":"永康區","LI":"甲頂里","LIN":"23鄰","STREET":"中正南路","SECT":" ","MAREA":" ","LANE":" ","ALLEY":" ","HOUSE_NO":"７８號","E_COORD97":169678.14000000001,"N_COORD97":2546805.9100000001,"ADDRESS":"中正南路７８號","OBJECTID":575415},"geometry":{"x":169678.13999999966,"y":2546805.910000002}},{"attributes":{"ID":575443,"DIS_CODE":0,"TOWNNAME":"永康區","LI":"北灣里","LIN":"23鄰","STREET":"大灣路","SECT":" ","MAREA":" ","LANE":" ","ALLEY":" ","HOUSE_NO":"２８號","E_COORD97":175314.07000000001,"N_COORD97":2545925.2999999998,"ADDRESS":"大灣路２８號","OBJECTID":575416},"geometry":{"x":175314.0700000003,"y":2545925.3000000026}},{"attributes":{"ID":575444,"DIS_CODE":0,"TOWNNAME":"永康區","LI":"永康里","LIN":"23鄰","STREET":"中山南路","SECT":" ","MAREA":" ","LANE":" ","ALLEY":" ","HOUSE_NO":"６０９號","E_COORD97":173552.29999999999,"N_COORD97":2547219.4900000002,"ADDRESS":"中山南路６０９號","OBJECTID":575417},"geometry":{"x":173552.29999999981,"y":2547219.4900000021}},{"attributes":{"ID":575445,"DIS_CODE":0,"TOWNNAME":"永康區","LI":"永康里","LIN":"23鄰","STREET":"中山南路","SECT":" ","MAREA":" ","LANE":" ","ALLEY":" ","HOUSE_NO":"５８９號","E_COORD97":173513.35000000001,"N_COORD97":2547194.7400000002,"ADDRESS":"中山南路５８９號","OBJECTID":575418},"geometry":{"x":173513.35000000056,"y":2547194.7400000002}},{"attributes":{"ID":575446,"DIS_CODE":0,"TOWNNAME":"永康區","LI":"永康里","LIN":"23鄰","STREET":"正強街","SECT":" ","MAREA":" ","LANE":" ","ALLEY":" ","HOUSE_NO":"３８號","E_COORD97":173375.54000000001,"N_COORD97":2547232.7999999998,"ADDRESS":"正強街３８號","OBJECTID":575419},"geometry":{"x":173375.54000000097,"y":2547232.8000000007}},{"attributes":{"ID":575447,"DIS_CODE":0,"TOWNNAME":"永康區","LI":"永康里","LIN":"23鄰","STREET":"中山南路","SECT":" ","MAREA":" ","LANE":" ","ALLEY":" ","HOUSE_NO":"５５３號","E_COORD97":173436.23999999999,"N_COORD97":2547147.8700000001,"ADDRESS":"中山南路５５３號","OBJECTID":575420},"geometry":{"x":173436.24000000022,"y":2547147.870000001}},{"attributes":{"ID":575448,"DIS_CODE":0,"TOWNNAME":"永康區","LI":"甲頂里","LIN":"23鄰","STREET":"中正南路","SECT":" ","MAREA":" ","LANE":" ","ALLEY":" ","HOUSE_NO":"８６號","E_COORD97":169671.67999999999,"N_COORD97":2546831.4100000001,"ADDRESS":"中正南路８６號","OBJECTID":575421},"geometry":{"x":169671.68000000063,"y":2546831.4100000001}},{"attributes":{"ID":575449,"DIS_CODE":0,"TOWNNAME":"永康區","LI":"永康里","LIN":"23鄰","STREET":"中山南路","SECT":" ","MAREA":" ","LANE":" ","ALLEY":" ","HOUSE_NO":"５５１號","E_COORD97":173433.10000000001,"N_COORD97":2547145.8700000001,"ADDRESS":"中山南路５５１號","OBJECTID":575422},"geometry":{"x":173433.09999999963,"y":2547145.8700000029}},{"attributes":{"ID":575450,"DIS_CODE":0,"TOWNNAME":"永康區","LI":"甲頂里","LIN":"23鄰","STREET":"中正南路","SECT":" ","MAREA":" ","LANE":" ","ALLEY":" ","HOUSE_NO":"８４號","E_COORD97":169675.60000000001,"N_COORD97":2546819.8700000001,"ADDRESS":"中正南路８４號","OBJECTID":575423},"geometry":{"x":169675.60000000056,"y":2546819.8700000048}},{"attributes":{"ID":575451,"DIS_CODE":0,"TOWNNAME":"永康區","LI":"永康里","LIN":"23鄰","STREET":"中山南路","SECT":" ","MAREA":" ","LANE":" ","ALLEY":" ","HOUSE_NO":"５７５號","E_COORD97":173481.63,"N_COORD97":2547176,"ADDRESS":"中山南路５７５號","OBJECTID":575424},"geometry":{"x":173481.63000000082,"y":2547176}},{"attributes":{"ID":575452,"DIS_CODE":0,"TOWNNAME":"永康區","LI":"正強里","LIN":"23鄰","STREET":"正強街","SECT":" ","MAREA":" ","LANE":" ","ALLEY":" ","HOUSE_NO":"１９７號","E_COORD97":173297.23999999999,"N_COORD97":2547664.5,"ADDRESS":"正強街１９７號","OBJECTID":575425},"geometry":{"x":173297.24000000022,"y":2547664.5}},{"attributes":{"ID":575453,"DIS_CODE":0,"TOWNNAME":"永康區","LI":"正強里","LIN":"23鄰","STREET":"自強路","SECT":" ","MAREA":" ","LANE":" ","ALLEY":" ","HOUSE_NO":"２８７號","E_COORD97":173354.92000000001,"N_COORD97":2547665.25,"ADDRESS":"自強路２８７號","OBJECTID":575426},"geometry":{"x":173354.91999999993,"y":2547665.2500000019}},{"attributes":{"ID":575454,"DIS_CODE":0,"TOWNNAME":"永康區","LI":"正強里","LIN":"23鄰","STREET":"正強街","SECT":" ","MAREA":" ","LANE":" ","ALLEY":" ","HOUSE_NO":"１８５號","E_COORD97":173300.57999999999,"N_COORD97":2547637.4900000002,"ADDRESS":"正強街１８５號","OBJECTID":575427},"geometry":{"x":173300.58000000101,"y":2547637.4900000002}},{"attributes":{"ID":575455,"DIS_CODE":0,"TOWNNAME":"新營區","LI":"民權里","LIN":"23鄰","STREET":"民治路","SECT":" ","MAREA":" ","LANE":" ","ALLEY":" ","HOUSE_NO":"４７號七樓","E_COORD97":179773.51999999999,"N_COORD97":2578834.0699999998,"ADDRESS":"民治路４７號七樓","OBJECTID":575428},"geometry":{"x":179773.51999999955,"y":2578834.0700000022}},{"attributes":{"ID":575456,"DIS_CODE":0,"TOWNNAME":"新營區","LI":"民權里","LIN":"23鄰","STREET":"民治路","SECT":" ","MAREA":" ","LANE":" ","ALLEY":" ","HOUSE_NO":"４７號六樓","E_COORD97":179773.51999999999,"N_COORD97":2578834.0699999998,"ADDRESS":"民治路４７號六樓","OBJECTID":575429},"geometry":{"x":179773.51999999955,"y":2578834.0700000022}},{"attributes":{"ID":575457,"DIS_CODE":0,"TOWNNAME":"新營區","LI":"民權里","LIN":"23鄰","STREET":"民治路","SECT":" ","MAREA":" ","LANE":" ","ALLEY":" ","HOUSE_NO":"４５之２號十三樓","E_COORD97":179777.26999999999,"N_COORD97":2578834.1099999999,"ADDRESS":"民治路４５之２號十三樓","OBJECTID":575430},"geometry":{"x":179777.27000000142,"y":2578834.1099999994}},{"attributes":{"ID":575458,"DIS_CODE":0,"TOWNNAME":"新營區","LI":"民權里","LIN":"23鄰","STREET":"民治路","SECT":" ","MAREA":" ","LANE":" ","ALLEY":" ","HOUSE_NO":"４５之２號二樓","E_COORD97":179776.01999999999,"N_COORD97":2578834.1099999999,"ADDRESS":"民治路４５之２號二樓","OBJECTID":575431},"geometry":{"x":179776.02000000048,"y":2578834.1099999994}},{"attributes":{"ID":575459,"DIS_CODE":0,"TOWNNAME":"新營區","LI":"民權里","LIN":"23鄰","STREET":"民治路","SECT":" ","MAREA":" ","LANE":" ","ALLEY":" ","HOUSE_NO":"４５之２號十樓","E_COORD97":179776.01999999999,"N_COORD97":2578834.1099999999,"ADDRESS":"民治路４５之２號十樓","OBJECTID":575432},"geometry":{"x":179776.02000000048,"y":2578834.1099999994}},{"attributes":{"ID":575460,"DIS_CODE":0,"TOWNNAME":"新營區","LI":"民權里","LIN":"23鄰","STREET":"民治路","SECT":" ","MAREA":" ","LANE":" ","ALLEY":" ","HOUSE_NO":"４５之２號三樓","E_COORD97":179776.01999999999,"N_COORD97":2578834.1099999999,"ADDRESS":"民治路４５之２號三樓","OBJECTID":575433},"geometry":{"x":179776.02000000048,"y":2578834.1099999994}},{"attributes":{"ID":575461,"DIS_CODE":0,"TOWNNAME":"新營區","LI":"民權里","LIN":"23鄰","STREET":"民治路","SECT":" ","MAREA":" ","LANE":" ","ALLEY":" ","HOUSE_NO":"４５之２號九樓","E_COORD97":179776.01999999999,"N_COORD97":2578834.1099999999,"ADDRESS":"民治路４５之２號九樓","OBJECTID":575434},"geometry":{"x":179776.02000000048,"y":2578834.1099999994}},{"attributes":{"ID":575462,"DIS_CODE":0,"TOWNNAME":"新營區","LI":"民權里","LIN":"23鄰","STREET":"民治路","SECT":" ","MAREA":" ","LANE":" ","ALLEY":" ","HOUSE_NO":"４５號九樓","E_COORD97":179773.51999999999,"N_COORD97":2578834.0699999998,"ADDRESS":"民治路４５號九樓","OBJECTID":575435},"geometry":{"x":179773.51999999955,"y":2578834.0700000022}},{"attributes":{"ID":575463,"DIS_CODE":0,"TOWNNAME":"新營區","LI":"民權里","LIN":"23鄰","STREET":"民治路","SECT":" ","MAREA":" ","LANE":" ","ALLEY":" ","HOUSE_NO":"４５之２號十二樓","E_COORD97":179777.26999999999,"N_COORD97":2578834.1099999999,"ADDRESS":"民治路４５之２號十二樓","OBJECTID":575436},"geometry":{"x":179777.27000000142,"y":2578834.1099999994}},{"attributes":{"ID":575464,"DIS_CODE":0,"TOWNNAME":"歸仁區","LI":"文化里","LIN":"23鄰","STREET":"大德路","SECT":" ","MAREA":" ","LANE":" ","ALLEY":" ","HOUSE_NO":"２５３號六樓之６","E_COORD97":177107.5,"N_COORD97":2541521.6400000001,"ADDRESS":"大德路２５３號六樓之６","OBJECTID":575437},"geometry":{"x":177107.5,"y":2541521.6399999987}},{"attributes":{"ID":575465,"DIS_CODE":0,"TOWNNAME":"歸仁區","LI":"南保里","LIN":"23鄰","STREET":"民權六街","SECT":" ","MAREA":" ","LANE":" ","ALLEY":" ","HOUSE_NO":"６０號六樓之１２","E_COORD97":176840.41,"N_COORD97":2541119.2999999998,"ADDRESS":"民權六街６０號六樓之１２","OBJECTID":575438},"geometry":{"x":176840.41000000015,"y":2541119.3000000007}},{"attributes":{"ID":575466,"DIS_CODE":0,"TOWNNAME":"北區","LI":"大道里","LIN":"23鄰","STREET":"旭日街","SECT":" ","MAREA":" ","LANE":" ","ALLEY":" ","HOUSE_NO":"９８之１號二樓之１","E_COORD97":169443.69,"N_COORD97":2545674.6699999999,"ADDRESS":"旭日街９８之１號二樓之１","OBJECTID":575439},"geometry":{"x":169443.69000000134,"y":2545674.6700000018}},{"attributes":{"ID":575467,"DIS_CODE":0,"TOWNNAME":"北區","LI":"大道里","LIN":"23鄰","STREET":"旭日街","SECT":" ","MAREA":" ","LANE":" ","ALLEY":" ","HOUSE_NO":"９８之１號三樓之５","E_COORD97":169427.91,"N_COORD97":2545692.98,"ADDRESS":"旭日街９８之１號三樓之５","OBJECTID":575440},"geometry":{"x":169427.91000000201,"y":2545692.9800000042}},{"attributes":{"ID":575468,"DIS_CODE":0,"TOWNNAME":"北區","LI":"大道里","LIN":"23鄰","STREET":"旭日街","SECT":" ","MAREA":" ","LANE":" ","ALLEY":" ","HOUSE_NO":"９８之１號三樓之３","E_COORD97":169427.91,"N_COORD97":2545692.98,"ADDRESS":"旭日街９８之１號三樓之３","OBJECTID":575441},"geometry":{"x":169427.91000000201,"y":2545692.9800000042}},{"attributes":{"ID":575469,"DIS_CODE":0,"TOWNNAME":"北區","LI":"大道里","LIN":"23鄰","STREET":"旭日街","SECT":" ","MAREA":" ","LANE":" ","ALLEY":" ","HOUSE_NO":"９８之１號三樓之１","E_COORD97":169443.69,"N_COORD97":2545674.6699999999,"ADDRESS":"旭日街９８之１號三樓之１","OBJECTID":575442},"geometry":{"x":169443.69000000134,"y":2545674.6700000018}},{"attributes":{"ID":575470,"DIS_CODE":0,"TOWNNAME":"北區","LI":"大道里","LIN":"23鄰","STREET":"旭日街","SECT":" ","MAREA":" ","LANE":" ","ALLEY":" ","HOUSE_NO":"９８之１號四樓之５","E_COORD97":169427.91,"N_COORD97":2545692.98,"ADDRESS":"旭日街９８之１號四樓之５","OBJECTID":575443},"geometry":{"x":169427.91000000201,"y":2545692.9800000042}},{"attributes":{"ID":575471,"DIS_CODE":0,"TOWNNAME":"北區","LI":"大道里","LIN":"23鄰","STREET":"旭日街","SECT":" ","MAREA":" ","LANE":" ","ALLEY":" ","HOUSE_NO":"９８之１號四樓之３","E_COORD97":169427.91,"N_COORD97":2545692.98,"ADDRESS":"旭日街９８之１號四樓之３","OBJECTID":575444},"geometry":{"x":169427.91000000201,"y":2545692.9800000042}},{"attributes":{"ID":575472,"DIS_CODE":0,"TOWNNAME":"北區","LI":"大道里","LIN":"23鄰","STREET":"旭日街","SECT":" ","MAREA":" ","LANE":" ","ALLEY":" ","HOUSE_NO":"９８之１號四樓之１","E_COORD97":169443.69,"N_COORD97":2545674.6699999999,"ADDRESS":"旭日街９８之１號四樓之１","OBJECTID":575445},"geometry":{"x":169443.69000000134,"y":2545674.6700000018}},{"attributes":{"ID":575473,"DIS_CODE":0,"TOWNNAME":"北區","LI":"大道里","LIN":"23鄰","STREET":"旭日街","SECT":" ","MAREA":" ","LANE":" ","ALLEY":" ","HOUSE_NO":"９８之１號五樓之５","E_COORD97":169427.91,"N_COORD97":2545692.98,"ADDRESS":"旭日街９８之１號五樓之５","OBJECTID":575446},"geometry":{"x":169427.91000000201,"y":2545692.9800000042}},{"attributes":{"ID":575474,"DIS_CODE":0,"TOWNNAME":"北區","LI":"大道里","LIN":"23鄰","STREET":"旭日街","SECT":" ","MAREA":" ","LANE":" ","ALLEY":" ","HOUSE_NO":"９８之１號五樓之３","E_COORD97":169427.91,"N_COORD97":2545692.98,"ADDRESS":"旭日街９８之１號五樓之３","OBJECTID":575447},"geometry":{"x":169427.91000000201,"y":2545692.9800000042}},{"attributes":{"ID":575475,"DIS_CODE":0,"TOWNNAME":"北區","LI":"大道里","LIN":"23鄰","STREET":"旭日街","SECT":" ","MAREA":" ","LANE":" ","ALLEY":" ","HOUSE_NO":"９８之１號五樓之１","E_COORD97":169443.69,"N_COORD97":2545674.6699999999,"ADDRESS":"旭日街９８之１號五樓之１","OBJECTID":575448},"geometry":{"x":169443.69000000134,"y":2545674.6700000018}},{"attributes":{"ID":575476,"DIS_CODE":0,"TOWNNAME":"北區","LI":"大道里","LIN":"23鄰","STREET":"旭日街","SECT":" ","MAREA":" ","LANE":" ","ALLEY":" ","HOUSE_NO":"９８之１號六樓之５","E_COORD97":169427.91,"N_COORD97":2545692.98,"ADDRESS":"旭日街９８之１號六樓之５","OBJECTID":575449},"geometry":{"x":169427.91000000201,"y":2545692.9800000042}},{"attributes":{"ID":575477,"DIS_CODE":0,"TOWNNAME":"北區","LI":"大道里","LIN":"23鄰","STREET":"旭日街","SECT":" ","MAREA":" ","LANE":" ","ALLEY":" ","HOUSE_NO":"９８之１號六樓之３","E_COORD97":169427.91,"N_COORD97":2545692.98,"ADDRESS":"旭日街９８之１號六樓之３","OBJECTID":575450},"geometry":{"x":169427.91000000201,"y":2545692.9800000042}},{"attributes":{"ID":575478,"DIS_CODE":0,"TOWNNAME":"北區","LI":"大道里","LIN":"23鄰","STREET":"旭日街","SECT":" ","MAREA":" ","LANE":" ","ALLEY":" ","HOUSE_NO":"９８之１號六樓之１","E_COORD97":169443.69,"N_COORD97":2545674.6699999999,"ADDRESS":"旭日街９８之１號六樓之１","OBJECTID":575451},"geometry":{"x":169443.69000000134,"y":2545674.6700000018}},{"attributes":{"ID":575479,"DIS_CODE":0,"TOWNNAME":"北區","LI":"大道里","LIN":"23鄰","STREET":"旭日街","SECT":" ","MAREA":" ","LANE":" ","ALLEY":" ","HOUSE_NO":"９８之１號七樓之５","E_COORD97":169427.91,"N_COORD97":2545692.98,"ADDRESS":"旭日街９８之１號七樓之５","OBJECTID":575452},"geometry":{"x":169427.91000000201,"y":2545692.9800000042}},{"attributes":{"ID":575480,"DIS_CODE":0,"TOWNNAME":"北區","LI":"大道里","LIN":"23鄰","STREET":"旭日街","SECT":" ","MAREA":" ","LANE":" ","ALLEY":" ","HOUSE_NO":"９８之１號七樓之３","E_COORD97":169427.91,"N_COORD97":2545692.98,"ADDRESS":"旭日街９８之１號七樓之３","OBJECTID":575453},"geometry":{"x":169427.91000000201,"y":2545692.9800000042}},{"attributes":{"ID":575481,"DIS_CODE":0,"TOWNNAME":"北區","LI":"大道里","LIN":"23鄰","STREET":"旭日街","SECT":" ","MAREA":" ","LANE":" ","ALLEY":" ","HOUSE_NO":"９８之１號七樓之１","E_COORD97":169443.69,"N_COORD97":2545674.6699999999,"ADDRESS":"旭日街９８之１號七樓之１","OBJECTID":575454},"geometry":{"x":169443.69000000134,"y":2545674.6700000018}},{"attributes":{"ID":575482,"DIS_CODE":0,"TOWNNAME":"北區","LI":"大道里","LIN":"23鄰","STREET":"旭日街","SECT":" ","MAREA":" ","LANE":" ","ALLEY":" ","HOUSE_NO":"９８之１號八樓之５","E_COORD97":169427.91,"N_COORD97":2545692.98,"ADDRESS":"旭日街９８之１號八樓之５","OBJECTID":575455},"geometry":{"x":169427.91000000201,"y":2545692.9800000042}},{"attributes":{"ID":575483,"DIS_CODE":0,"TOWNNAME":"北區","LI":"大道里","LIN":"23鄰","STREET":"旭日街","SECT":" ","MAREA":" ","LANE":" ","ALLEY":" ","HOUSE_NO":"９８之１號八樓之３","E_COORD97":169427.91,"N_COORD97":2545692.98,"ADDRESS":"旭日街９８之１號八樓之３","OBJECTID":575456},"geometry":{"x":169427.91000000201,"y":2545692.9800000042}},{"attributes":{"ID":575484,"DIS_CODE":0,"TOWNNAME":"北區","LI":"大道里","LIN":"23鄰","STREET":"旭日街","SECT":" ","MAREA":" ","LANE":" ","ALLEY":" ","HOUSE_NO":"９８之１號八樓之１","E_COORD97":169443.69,"N_COORD97":2545674.6699999999,"ADDRESS":"旭日街９８之１號八樓之１","OBJECTID":575457},"geometry":{"x":169443.69000000134,"y":2545674.6700000018}},{"attributes":{"ID":575485,"DIS_CODE":0,"TOWNNAME":"北區","LI":"大道里","LIN":"23鄰","STREET":"旭日街","SECT":" ","MAREA":" ","LANE":" ","ALLEY":" ","HOUSE_NO":"９８之１號九樓之５","E_COORD97":169427.91,"N_COORD97":2545692.98,"ADDRESS":"旭日街９８之１號九樓之５","OBJECTID":575458},"geometry":{"x":169427.91000000201,"y":2545692.9800000042}},{"attributes":{"ID":575486,"DIS_CODE":0,"TOWNNAME":"北區","LI":"大道里","LIN":"23鄰","STREET":"旭日街","SECT":" ","MAREA":" ","LANE":" ","ALLEY":" ","HOUSE_NO":"９８之１號九樓之３","E_COORD97":169427.91,"N_COORD97":2545692.98,"ADDRESS":"旭日街９８之１號九樓之３","OBJECTID":575459},"geometry":{"x":169427.91000000201,"y":2545692.9800000042}},{"attributes":{"ID":575487,"DIS_CODE":0,"TOWNNAME":"北區","LI":"大道里","LIN":"23鄰","STREET":"旭日街","SECT":" ","MAREA":" ","LANE":" ","ALLEY":" ","HOUSE_NO":"９８之１號九樓之１","E_COORD97":169443.69,"N_COORD97":2545674.6699999999,"ADDRESS":"旭日街９８之１號九樓之１","OBJECTID":575460},"geometry":{"x":169443.69000000134,"y":2545674.6700000018}},{"attributes":{"ID":575488,"DIS_CODE":0,"TOWNNAME":"北區","LI":"大道里","LIN":"23鄰","STREET":"旭日街","SECT":" ","MAREA":" ","LANE":" ","ALLEY":" ","HOUSE_NO":"９８之１號十樓之５","E_COORD97":169427.91,"N_COORD97":2545692.98,"ADDRESS":"旭日街９８之１號十樓之５","OBJECTID":575461},"geometry":{"x":169427.91000000201,"y":2545692.9800000042}},{"attributes":{"ID":575489,"DIS_CODE":0,"TOWNNAME":"北區","LI":"大道里","LIN":"23鄰","STREET":"旭日街","SECT":" ","MAREA":" ","LANE":" ","ALLEY":" ","HOUSE_NO":"９８之１號十樓之３","E_COORD97":169427.91,"N_COORD97":2545692.98,"ADDRESS":"旭日街９８之１號十樓之３","OBJECTID":575462},"geometry":{"x":169427.91000000201,"y":2545692.9800000042}},{"attributes":{"ID":575490,"DIS_CODE":0,"TOWNNAME":"北區","LI":"大道里","LIN":"23鄰","STREET":"旭日街","SECT":" ","MAREA":" ","LANE":" ","ALLEY":" ","HOUSE_NO":"９８之１號十樓之１","E_COORD97":169443.69,"N_COORD97":2545674.6699999999,"ADDRESS":"旭日街９８之１號十樓之１","OBJECTID":575463},"geometry":{"x":169443.69000000134,"y":2545674.6700000018}},{"attributes":{"ID":575491,"DIS_CODE":0,"TOWNNAME":"南區","LI":"文華里","LIN":"23鄰","STREET":"美南街","SECT":" ","MAREA":" ","LANE":" ","ALLEY":" ","HOUSE_NO":"１０９號四樓之４","E_COORD97":166751.57999999999,"N_COORD97":2542938.73,"ADDRESS":"美南街１０９號四樓之４","OBJECTID":575464},"geometry":{"x":166751.58000000194,"y":2542938.7300000023}},{"attributes":{"ID":575492,"DIS_CODE":0,"TOWNNAME":"南區","LI":"文華里","LIN":"23鄰","STREET":"美南街","SECT":" ","MAREA":" ","LANE":" ","ALLEY":" ","HOUSE_NO":"１０９號七樓之１","E_COORD97":166751.57999999999,"N_COORD97":2542938.73,"ADDRESS":"美南街１０９號七樓之１","OBJECTID":575465},"geometry":{"x":166751.58000000194,"y":2542938.7300000023}},{"attributes":{"ID":575493,"DIS_CODE":0,"TOWNNAME":"南區","LI":"文華里","LIN":"23鄰","STREET":"美南街","SECT":" ","MAREA":" ","LANE":" ","ALLEY":" ","HOUSE_NO":"１０９號七樓之２","E_COORD97":166751.57999999999,"N_COORD97":2542938.73,"ADDRESS":"美南街１０９號七樓之２","OBJECTID":575466},"geometry":{"x":166751.58000000194,"y":2542938.7300000023}},{"attributes":{"ID":575494,"DIS_CODE":0,"TOWNNAME":"南區","LI":"文華里","LIN":"23鄰","STREET":"美南街","SECT":" ","MAREA":" ","LANE":" ","ALLEY":" ","HOUSE_NO":"１０９號七樓之３","E_COORD97":166751.57999999999,"N_COORD97":2542938.73,"ADDRESS":"美南街１０９號七樓之３","OBJECTID":575467},"geometry":{"x":166751.58000000194,"y":2542938.7300000023}},{"attributes":{"ID":575495,"DIS_CODE":0,"TOWNNAME":"南區","LI":"文華里","LIN":"23鄰","STREET":"美南街","SECT":" ","MAREA":" ","LANE":" ","ALLEY":" ","HOUSE_NO":"１０９號七樓之４","E_COORD97":166751.57999999999,"N_COORD97":2542938.73,"ADDRESS":"美南街１０９號七樓之４","OBJECTID":575468},"geometry":{"x":166751.58000000194,"y":2542938.7300000023}},{"attributes":{"ID":575496,"DIS_CODE":0,"TOWNNAME":"關廟區","LI":"山西里","LIN":"16鄰","STREET":"慶中街","SECT":" ","MAREA":" ","LANE":" ","ALLEY":" ","HOUSE_NO":"９號","E_COORD97":180968.26999999999,"N_COORD97":2540307.2999999998,"ADDRESS":"慶中街９號","OBJECTID":575469},"geometry":{"x":180968.26999999955,"y":2540307.3000000045}},{"attributes":{"ID":575497,"DIS_CODE":0,"TOWNNAME":"南區","LI":"文華里","LIN":"23鄰","STREET":"美南街","SECT":" ","MAREA":" ","LANE":" ","ALLEY":" ","HOUSE_NO":"１０９號二樓之１","E_COORD97":166751.57999999999,"N_COORD97":2542938.73,"ADDRESS":"美南街１０９號二樓之１","OBJECTID":575470},"geometry":{"x":166751.58000000194,"y":2542938.7300000023}},{"attributes":{"ID":575498,"DIS_CODE":0,"TOWNNAME":"南區","LI":"文華里","LIN":"23鄰","STREET":"美南街","SECT":" ","MAREA":" ","LANE":" ","ALLEY":" ","HOUSE_NO":"１０９號二樓之２","E_COORD97":166751.57999999999,"N_COORD97":2542938.73,"ADDRESS":"美南街１０９號二樓之２","OBJECTID":575471},"geometry":{"x":166751.58000000194,"y":2542938.7300000023}},{"attributes":{"ID":575499,"DIS_CODE":0,"TOWNNAME":"南區","LI":"文華里","LIN":"23鄰","STREET":"美南街","SECT":" ","MAREA":" ","LANE":" ","ALLEY":" ","HOUSE_NO":"１０９號三樓之１","E_COORD97":166751.57999999999,"N_COORD97":2542938.73,"ADDRESS":"美南街１０９號三樓之１","OBJECTID":575472},"geometry":{"x":166751.58000000194,"y":2542938.7300000023}},{"attributes":{"ID":575500,"DIS_CODE":0,"TOWNNAME":"南區","LI":"文華里","LIN":"23鄰","STREET":"美南街","SECT":" ","MAREA":" ","LANE":" ","ALLEY":" ","HOUSE_NO":"１０９號三樓之２","E_COORD97":166751.57999999999,"N_COORD97":2542938.73,"ADDRESS":"美南街１０９號三樓之２","OBJECTID":575473},"geometry":{"x":166751.58000000194,"y":2542938.7300000023}},{"attributes":{"ID":575501,"DIS_CODE":0,"TOWNNAME":"南區","LI":"文華里","LIN":"23鄰","STREET":"美南街","SECT":" ","MAREA":" ","LANE":" ","ALLEY":" ","HOUSE_NO":"１０９號五樓之１","E_COORD97":166751.57999999999,"N_COORD97":2542938.73,"ADDRESS":"美南街１０９號五樓之１","OBJECTID":575474},"geometry":{"x":166751.58000000194,"y":2542938.7300000023}},{"attributes":{"ID":575502,"DIS_CODE":0,"TOWNNAME":"南區","LI":"文華里","LIN":"23鄰","STREET":"美南街","SECT":" ","MAREA":" ","LANE":" ","ALLEY":" ","HOUSE_NO":"１０９號五樓之２","E_COORD97":166751.57999999999,"N_COORD97":2542938.73,"ADDRESS":"美南街１０９號五樓之２","OBJECTID":575475},"geometry":{"x":166751.58000000194,"y":2542938.7300000023}},{"attributes":{"ID":575503,"DIS_CODE":0,"TOWNNAME":"南區","LI":"文華里","LIN":"23鄰","STREET":"美南街","SECT":" ","MAREA":" ","LANE":" ","ALLEY":" ","HOUSE_NO":"１０９號五樓之３","E_COORD97":166751.57999999999,"N_COORD97":2542938.73,"ADDRESS":"美南街１０９號五樓之３","OBJECTID":575476},"geometry":{"x":166751.58000000194,"y":2542938.7300000023}},{"attributes":{"ID":575504,"DIS_CODE":0,"TOWNNAME":"南區","LI":"文華里","LIN":"23鄰","STREET":"美南街","SECT":" ","MAREA":" ","LANE":" ","ALLEY":" ","HOUSE_NO":"１０９號五樓之４","E_COORD97":166751.57999999999,"N_COORD97":2542938.73,"ADDRESS":"美南街１０９號五樓之４","OBJECTID":575477},"geometry":{"x":166751.58000000194,"y":2542938.7300000023}},{"attributes":{"ID":575505,"DIS_CODE":0,"TOWNNAME":"南區","LI":"文華里","LIN":"23鄰","STREET":"美南街","SECT":" ","MAREA":" ","LANE":" ","ALLEY":" ","HOUSE_NO":"１０９號五樓之５","E_COORD97":166751.57999999999,"N_COORD97":2542938.73,"ADDRESS":"美南街１０９號五樓之５","OBJECTID":575478},"geometry":{"x":166751.58000000194,"y":2542938.7300000023}},{"attributes":{"ID":575506,"DIS_CODE":0,"TOWNNAME":"南區","LI":"文華里","LIN":"23鄰","STREET":"美南街","SECT":" ","MAREA":" ","LANE":" ","ALLEY":" ","HOUSE_NO":"１０９號五樓之６","E_COORD97":166751.57999999999,"N_COORD97":2542938.73,"ADDRESS":"美南街１０９號五樓之６","OBJECTID":575479},"geometry":{"x":166751.58000000194,"y":2542938.7300000023}},{"attributes":{"ID":575507,"DIS_CODE":0,"TOWNNAME":"南區","LI":"文華里","LIN":"23鄰","STREET":"美南街","SECT":" ","MAREA":" ","LANE":" ","ALLEY":" ","HOUSE_NO":"１０９號五樓之７","E_COORD97":166751.57999999999,"N_COORD97":2542938.73,"ADDRESS":"美南街１０９號五樓之７","OBJECTID":575480},"geometry":{"x":166751.58000000194,"y":2542938.7300000023}},{"attributes":{"ID":575508,"DIS_CODE":0,"TOWNNAME":"南區","LI":"文華里","LIN":"23鄰","STREET":"美南街","SECT":" ","MAREA":" ","LANE":" ","ALLEY":" ","HOUSE_NO":"１０９號六樓之１","E_COORD97":166751.57999999999,"N_COORD97":2542938.73,"ADDRESS":"美南街１０９號六樓之１","OBJECTID":575481},"geometry":{"x":166751.58000000194,"y":2542938.7300000023}},{"attributes":{"ID":575509,"DIS_CODE":0,"TOWNNAME":"南區","LI":"文華里","LIN":"23鄰","STREET":"美南街","SECT":" ","MAREA":" ","LANE":" ","ALLEY":" ","HOUSE_NO":"１０９號六樓之２","E_COORD97":166751.57999999999,"N_COORD97":2542938.73,"ADDRESS":"美南街１０９號六樓之２","OBJECTID":575482},"geometry":{"x":166751.58000000194,"y":2542938.7300000023}},{"attributes":{"ID":575510,"DIS_CODE":0,"TOWNNAME":"南區","LI":"文華里","LIN":"23鄰","STREET":"美南街","SECT":" ","MAREA":" ","LANE":" ","ALLEY":" ","HOUSE_NO":"１０９號六樓之３","E_COORD97":166751.57999999999,"N_COORD97":2542938.73,"ADDRESS":"美南街１０９號六樓之３","OBJECTID":575483},"geometry":{"x":166751.58000000194,"y":2542938.7300000023}},{"attributes":{"ID":575511,"DIS_CODE":0,"TOWNNAME":"南區","LI":"文華里","LIN":"23鄰","STREET":"美南街","SECT":" ","MAREA":" ","LANE":" ","ALLEY":" ","HOUSE_NO":"１０９號六樓之４","E_COORD97":166751.57999999999,"N_COORD97":2542938.73,"ADDRESS":"美南街１０９號六樓之４","OBJECTID":575484},"geometry":{"x":166751.58000000194,"y":2542938.7300000023}},{"attributes":{"ID":575512,"DIS_CODE":0,"TOWNNAME":"南區","LI":"文華里","LIN":"23鄰","STREET":"美南街","SECT":" ","MAREA":" ","LANE":" ","ALLEY":" ","HOUSE_NO":"１０９號六樓之５","E_COORD97":166751.57999999999,"N_COORD97":2542938.73,"ADDRESS":"美南街１０９號六樓之５","OBJECTID":575485},"geometry":{"x":166751.58000000194,"y":2542938.7300000023}},{"attributes":{"ID":575513,"DIS_CODE":0,"TOWNNAME":"南區","LI":"文華里","LIN":"23鄰","STREET":"美南街","SECT":" ","MAREA":" ","LANE":" ","ALLEY":" ","HOUSE_NO":"１０９號六樓之６","E_COORD97":166751.57999999999,"N_COORD97":2542938.73,"ADDRESS":"美南街１０９號六樓之６","OBJECTID":575486},"geometry":{"x":166751.58000000194,"y":2542938.7300000023}},{"attributes":{"ID":575514,"DIS_CODE":0,"TOWNNAME":"南區","LI":"文華里","LIN":"23鄰","STREET":"美南街","SECT":" ","MAREA":" ","LANE":" ","ALLEY":" ","HOUSE_NO":"１０９號六樓之７","E_COORD97":166751.57999999999,"N_COORD97":2542938.73,"ADDRESS":"美南街１０９號六樓之７","OBJECTID":575487},"geometry":{"x":166751.58000000194,"y":2542938.7300000023}},{"attributes":{"ID":575515,"DIS_CODE":0,"TOWNNAME":"南區","LI":"文華里","LIN":"23鄰","STREET":"美南街","SECT":" ","MAREA":" ","LANE":" ","ALLEY":" ","HOUSE_NO":"１０９號四樓之１","E_COORD97":166751.57999999999,"N_COORD97":2542938.73,"ADDRESS":"美南街１０９號四樓之１","OBJECTID":575488},"geometry":{"x":166751.58000000194,"y":2542938.7300000023}},{"attributes":{"ID":575516,"DIS_CODE":0,"TOWNNAME":"南區","LI":"文華里","LIN":"23鄰","STREET":"美南街","SECT":" ","MAREA":" ","LANE":" ","ALLEY":" ","HOUSE_NO":"１０９號四樓之２","E_COORD97":166751.57999999999,"N_COORD97":2542938.73,"ADDRESS":"美南街１０９號四樓之２","OBJECTID":575489},"geometry":{"x":166751.58000000194,"y":2542938.7300000023}},{"attributes":{"ID":575517,"DIS_CODE":0,"TOWNNAME":"南區","LI":"文華里","LIN":"23鄰","STREET":"美南街","SECT":" ","MAREA":" ","LANE":" ","ALLEY":" ","HOUSE_NO":"１０９號四樓之３","E_COORD97":166751.57999999999,"N_COORD97":2542938.73,"ADDRESS":"美南街１０９號四樓之３","OBJECTID":575490},"geometry":{"x":166751.58000000194,"y":2542938.7300000023}},{"attributes":{"ID":575518,"DIS_CODE":0,"TOWNNAME":"南區","LI":"文華里","LIN":"23鄰","STREET":"美南街","SECT":" ","MAREA":" ","LANE":" ","ALLEY":" ","HOUSE_NO":"１０９號四樓之５","E_COORD97":166751.57999999999,"N_COORD97":2542938.73,"ADDRESS":"美南街１０９號四樓之５","OBJECTID":575491},"geometry":{"x":166751.58000000194,"y":2542938.7300000023}},{"attributes":{"ID":575519,"DIS_CODE":0,"TOWNNAME":"南區","LI":"文華里","LIN":"23鄰","STREET":"美南街","SECT":" ","MAREA":" ","LANE":" ","ALLEY":" ","HOUSE_NO":"１０９號四樓之６","E_COORD97":166751.57999999999,"N_COORD97":2542938.73,"ADDRESS":"美南街１０９號四樓之６","OBJECTID":575492},"geometry":{"x":166751.58000000194,"y":2542938.7300000023}},{"attributes":{"ID":575520,"DIS_CODE":0,"TOWNNAME":"南區","LI":"文華里","LIN":"23鄰","STREET":"美南街","SECT":" ","MAREA":" ","LANE":" ","ALLEY":" ","HOUSE_NO":"１０９號四樓之７","E_COORD97":166751.57999999999,"N_COORD97":2542938.73,"ADDRESS":"美南街１０９號四樓之７","OBJECTID":575493},"geometry":{"x":166751.58000000194,"y":2542938.7300000023}},{"attributes":{"ID":575521,"DIS_CODE":0,"TOWNNAME":"南區","LI":"文華里","LIN":"23鄰","STREET":"美南街","SECT":" ","MAREA":" ","LANE":" ","ALLEY":" ","HOUSE_NO":"１０９號四樓之８","E_COORD97":166751.57999999999,"N_COORD97":2542938.73,"ADDRESS":"美南街１０９號四樓之８","OBJECTID":575494},"geometry":{"x":166751.58000000194,"y":2542938.7300000023}},{"attributes":{"ID":575522,"DIS_CODE":0,"TOWNNAME":"南區","LI":"文華里","LIN":"23鄰","STREET":"美南街","SECT":" ","MAREA":" ","LANE":" ","ALLEY":" ","HOUSE_NO":"１１１號六樓之３","E_COORD97":166765.92999999999,"N_COORD97":2542929.8500000001,"ADDRESS":"美南街１１１號六樓之３","OBJECTID":575495},"geometry":{"x":166765.93000000063,"y":2542929.8500000034}},{"attributes":{"ID":575523,"DIS_CODE":0,"TOWNNAME":"南區","LI":"文華里","LIN":"23鄰","STREET":"美南街","SECT":" ","MAREA":" ","LANE":" ","ALLEY":" ","HOUSE_NO":"１１１號二樓之１","E_COORD97":166765.92999999999,"N_COORD97":2542929.8500000001,"ADDRESS":"美南街１１１號二樓之１","OBJECTID":575496},"geometry":{"x":166765.93000000063,"y":2542929.8500000034}},{"attributes":{"ID":575524,"DIS_CODE":0,"TOWNNAME":"南區","LI":"文華里","LIN":"23鄰","STREET":"美南街","SECT":" ","MAREA":" ","LANE":" ","ALLEY":" ","HOUSE_NO":"１１１號二樓之２","E_COORD97":166765.92999999999,"N_COORD97":2542929.8500000001,"ADDRESS":"美南街１１１號二樓之２","OBJECTID":575497},"geometry":{"x":166765.93000000063,"y":2542929.8500000034}},{"attributes":{"ID":575525,"DIS_CODE":0,"TOWNNAME":"南區","LI":"文華里","LIN":"23鄰","STREET":"美南街","SECT":" ","MAREA":" ","LANE":" ","ALLEY":" ","HOUSE_NO":"１１１號三樓之１","E_COORD97":166765.92999999999,"N_COORD97":2542929.8500000001,"ADDRESS":"美南街１１１號三樓之１","OBJECTID":575498},"geometry":{"x":166765.93000000063,"y":2542929.8500000034}},{"attributes":{"ID":575526,"DIS_CODE":0,"TOWNNAME":"南區","LI":"文華里","LIN":"23鄰","STREET":"美南街","SECT":" ","MAREA":" ","LANE":" ","ALLEY":" ","HOUSE_NO":"１１１號三樓之２","E_COORD97":166765.92999999999,"N_COORD97":2542929.8500000001,"ADDRESS":"美南街１１１號三樓之２","OBJECTID":575499},"geometry":{"x":166765.93000000063,"y":2542929.8500000034}},{"attributes":{"ID":575527,"DIS_CODE":0,"TOWNNAME":"南區","LI":"文華里","LIN":"23鄰","STREET":"美南街","SECT":" ","MAREA":" ","LANE":" ","ALLEY":" ","HOUSE_NO":"１１１號三樓之３","E_COORD97":166765.92999999999,"N_COORD97":2542929.8500000001,"ADDRESS":"美南街１１１號三樓之３","OBJECTID":575500},"geometry":{"x":166765.93000000063,"y":2542929.8500000034}},{"attributes":{"ID":575528,"DIS_CODE":0,"TOWNNAME":"南區","LI":"文華里","LIN":"23鄰","STREET":"美南街","SECT":" ","MAREA":" ","LANE":" ","ALLEY":" ","HOUSE_NO":"１１１號三樓之４","E_COORD97":166765.92999999999,"N_COORD97":2542929.8500000001,"ADDRESS":"美南街１１１號三樓之４","OBJECTID":575501},"geometry":{"x":166765.93000000063,"y":2542929.8500000034}},{"attributes":{"ID":575529,"DIS_CODE":0,"TOWNNAME":"南區","LI":"文華里","LIN":"23鄰","STREET":"美南街","SECT":" ","MAREA":" ","LANE":" ","ALLEY":" ","HOUSE_NO":"１１１號三樓之５","E_COORD97":166765.92999999999,"N_COORD97":2542929.8500000001,"ADDRESS":"美南街１１１號三樓之５","OBJECTID":575502},"geometry":{"x":166765.93000000063,"y":2542929.8500000034}},{"attributes":{"ID":575530,"DIS_CODE":0,"TOWNNAME":"南區","LI":"文華里","LIN":"23鄰","STREET":"美南街","SECT":" ","MAREA":" ","LANE":" ","ALLEY":" ","HOUSE_NO":"１１１號三樓之６","E_COORD97":166765.92999999999,"N_COORD97":2542929.8500000001,"ADDRESS":"美南街１１１號三樓之６","OBJECTID":575503},"geometry":{"x":166765.93000000063,"y":2542929.8500000034}},{"attributes":{"ID":575531,"DIS_CODE":0,"TOWNNAME":"南區","LI":"文華里","LIN":"23鄰","STREET":"美南街","SECT":" ","MAREA":" ","LANE":" ","ALLEY":" ","HOUSE_NO":"１１１號三樓之７","E_COORD97":166765.92999999999,"N_COORD97":2542929.8500000001,"ADDRESS":"美南街１１１號三樓之７","OBJECTID":575504},"geometry":{"x":166765.93000000063,"y":2542929.8500000034}},{"attributes":{"ID":575532,"DIS_CODE":0,"TOWNNAME":"南區","LI":"文華里","LIN":"23鄰","STREET":"美南街","SECT":" ","MAREA":" ","LANE":" ","ALLEY":" ","HOUSE_NO":"１１１號五樓之１","E_COORD97":166765.92999999999,"N_COORD97":2542929.8500000001,"ADDRESS":"美南街１１１號五樓之１","OBJECTID":575505},"geometry":{"x":166765.93000000063,"y":2542929.8500000034}},{"attributes":{"ID":575533,"DIS_CODE":0,"TOWNNAME":"南區","LI":"文華里","LIN":"23鄰","STREET":"美南街","SECT":" ","MAREA":" ","LANE":" ","ALLEY":" ","HOUSE_NO":"１１１號五樓之２","E_COORD97":166765.92999999999,"N_COORD97":2542929.8500000001,"ADDRESS":"美南街１１１號五樓之２","OBJECTID":575506},"geometry":{"x":166765.93000000063,"y":2542929.8500000034}},{"attributes":{"ID":575534,"DIS_CODE":0,"TOWNNAME":"南區","LI":"文華里","LIN":"23鄰","STREET":"美南街","SECT":" ","MAREA":" ","LANE":" ","ALLEY":" ","HOUSE_NO":"１１１號五樓之３","E_COORD97":166765.92999999999,"N_COORD97":2542929.8500000001,"ADDRESS":"美南街１１１號五樓之３","OBJECTID":575507},"geometry":{"x":166765.93000000063,"y":2542929.8500000034}},{"attributes":{"ID":575535,"DIS_CODE":0,"TOWNNAME":"南區","LI":"文華里","LIN":"23鄰","STREET":"美南街","SECT":" ","MAREA":" ","LANE":" ","ALLEY":" ","HOUSE_NO":"１１１號五樓之４","E_COORD97":166765.92999999999,"N_COORD97":2542929.8500000001,"ADDRESS":"美南街１１１號五樓之４","OBJECTID":575508},"geometry":{"x":166765.93000000063,"y":2542929.8500000034}},{"attributes":{"ID":575536,"DIS_CODE":0,"TOWNNAME":"南區","LI":"文華里","LIN":"23鄰","STREET":"美南街","SECT":" ","MAREA":" ","LANE":" ","ALLEY":" ","HOUSE_NO":"１１１號五樓之５","E_COORD97":166765.92999999999,"N_COORD97":2542929.8500000001,"ADDRESS":"美南街１１１號五樓之５","OBJECTID":575509},"geometry":{"x":166765.93000000063,"y":2542929.8500000034}},{"attributes":{"ID":575537,"DIS_CODE":0,"TOWNNAME":"南區","LI":"文華里","LIN":"23鄰","STREET":"美南街","SECT":" ","MAREA":" ","LANE":" ","ALLEY":" ","HOUSE_NO":"１１１號五樓之６","E_COORD97":166765.92999999999,"N_COORD97":2542929.8500000001,"ADDRESS":"美南街１１１號五樓之６","OBJECTID":575510},"geometry":{"x":166765.93000000063,"y":2542929.8500000034}},{"attributes":{"ID":575538,"DIS_CODE":0,"TOWNNAME":"南區","LI":"文華里","LIN":"23鄰","STREET":"美南街","SECT":" ","MAREA":" ","LANE":" ","ALLEY":" ","HOUSE_NO":"１１１號六樓之１","E_COORD97":166765.92999999999,"N_COORD97":2542929.8500000001,"ADDRESS":"美南街１１１號六樓之１","OBJECTID":575511},"geometry":{"x":166765.93000000063,"y":2542929.8500000034}},{"attributes":{"ID":575539,"DIS_CODE":0,"TOWNNAME":"南區","LI":"文華里","LIN":"23鄰","STREET":"美南街","SECT":" ","MAREA":" ","LANE":" ","ALLEY":" ","HOUSE_NO":"１１１號六樓之２","E_COORD97":166765.92999999999,"N_COORD97":2542929.8500000001,"ADDRESS":"美南街１１１號六樓之２","OBJECTID":575512},"geometry":{"x":166765.93000000063,"y":2542929.8500000034}},{"attributes":{"ID":575540,"DIS_CODE":0,"TOWNNAME":"南區","LI":"文華里","LIN":"23鄰","STREET":"美南街","SECT":" ","MAREA":" ","LANE":" ","ALLEY":" ","HOUSE_NO":"１１１號四樓之２","E_COORD97":166765.92999999999,"N_COORD97":2542929.8500000001,"ADDRESS":"美南街１１１號四樓之２","OBJECTID":575513},"geometry":{"x":166765.93000000063,"y":2542929.8500000034}},{"attributes":{"ID":575541,"DIS_CODE":0,"TOWNNAME":"南區","LI":"文華里","LIN":"23鄰","STREET":"美南街","SECT":" ","MAREA":" ","LANE":" ","ALLEY":" ","HOUSE_NO":"１１１號六樓之４","E_COORD97":166765.92999999999,"N_COORD97":2542929.8500000001,"ADDRESS":"美南街１１１號六樓之４","OBJECTID":575514},"geometry":{"x":166765.93000000063,"y":2542929.8500000034}},{"attributes":{"ID":575542,"DIS_CODE":0,"TOWNNAME":"南區","LI":"文華里","LIN":"23鄰","STREET":"美南街","SECT":" ","MAREA":" ","LANE":" ","ALLEY":" ","HOUSE_NO":"１１１號六樓之５","E_COORD97":166765.92999999999,"N_COORD97":2542929.8500000001,"ADDRESS":"美南街１１１號六樓之５","OBJECTID":575515},"geometry":{"x":166765.93000000063,"y":2542929.8500000034}},{"attributes":{"ID":575543,"DIS_CODE":0,"TOWNNAME":"南區","LI":"文華里","LIN":"23鄰","STREET":"美南街","SECT":" ","MAREA":" ","LANE":" ","ALLEY":" ","HOUSE_NO":"１１１號六樓之６","E_COORD97":166765.92999999999,"N_COORD97":2542929.8500000001,"ADDRESS":"美南街１１１號六樓之６","OBJECTID":575516},"geometry":{"x":166765.93000000063,"y":2542929.8500000034}},{"attributes":{"ID":575544,"DIS_CODE":0,"TOWNNAME":"南區","LI":"文華里","LIN":"23鄰","STREET":"美南街","SECT":" ","MAREA":" ","LANE":" ","ALLEY":" ","HOUSE_NO":"１１１號四樓之１","E_COORD97":166765.92999999999,"N_COORD97":2542929.8500000001,"ADDRESS":"美南街１１１號四樓之１","OBJECTID":575517},"geometry":{"x":166765.93000000063,"y":2542929.8500000034}},{"attributes":{"ID":575545,"DIS_CODE":0,"TOWNNAME":"南區","LI":"文華里","LIN":"23鄰","STREET":"美南街","SECT":" ","MAREA":" ","LANE":" ","ALLEY":" ","HOUSE_NO":"１１１號四樓之３","E_COORD97":166765.92999999999,"N_COORD97":2542929.8500000001,"ADDRESS":"美南街１１１號四樓之３","OBJECTID":575518},"geometry":{"x":166765.93000000063,"y":2542929.8500000034}},{"attributes":{"ID":575546,"DIS_CODE":0,"TOWNNAME":"南區","LI":"文華里","LIN":"23鄰","STREET":"美南街","SECT":" ","MAREA":" ","LANE":" ","ALLEY":" ","HOUSE_NO":"１１１號四樓之５","E_COORD97":166765.92999999999,"N_COORD97":2542929.8500000001,"ADDRESS":"美南街１１１號四樓之５","OBJECTID":575519},"geometry":{"x":166765.93000000063,"y":2542929.8500000034}},{"attributes":{"ID":575547,"DIS_CODE":0,"TOWNNAME":"南區","LI":"文華里","LIN":"23鄰","STREET":"美南街","SECT":" ","MAREA":" ","LANE":" ","ALLEY":" ","HOUSE_NO":"１１１號四樓之６","E_COORD97":166765.92999999999,"N_COORD97":2542929.8500000001,"ADDRESS":"美南街１１１號四樓之６","OBJECTID":575520},"geometry":{"x":166765.93000000063,"y":2542929.8500000034}},{"attributes":{"ID":575548,"DIS_CODE":0,"TOWNNAME":"新營區","LI":"民權里","LIN":"23鄰","STREET":"民治路","SECT":" ","MAREA":" ","LANE":" ","ALLEY":" ","HOUSE_NO":"４５號十一樓","E_COORD97":179774.76999999999,"N_COORD97":2578834.0699999998,"ADDRESS":"民治路４５號十一樓","OBJECTID":575521},"geometry":{"x":179774.76999999955,"y":2578834.0700000022}},{"attributes":{"ID":575549,"DIS_CODE":0,"TOWNNAME":"新營區","LI":"民權里","LIN":"23鄰","STREET":"民治路","SECT":" ","MAREA":" ","LANE":" ","ALLEY":" ","HOUSE_NO":"４５之２號十一樓","E_COORD97":179777.26999999999,"N_COORD97":2578834.1099999999,"ADDRESS":"民治路４５之２號十一樓","OBJECTID":575522},"geometry":{"x":179777.27000000142,"y":2578834.1099999994}},{"attributes":{"ID":575550,"DIS_CODE":0,"TOWNNAME":"新營區","LI":"民權里","LIN":"23鄰","STREET":"民治路","SECT":" ","MAREA":" ","LANE":" ","ALLEY":" ","HOUSE_NO":"４５號六樓","E_COORD97":179773.51999999999,"N_COORD97":2578834.0699999998,"ADDRESS":"民治路４５號六樓","OBJECTID":575523},"geometry":{"x":179773.51999999955,"y":2578834.0700000022}},{"attributes":{"ID":575551,"DIS_CODE":0,"TOWNNAME":"新營區","LI":"民權里","LIN":"23鄰","STREET":"民治路","SECT":" ","MAREA":" ","LANE":" ","ALLEY":" ","HOUSE_NO":"４７號八樓","E_COORD97":179773.51999999999,"N_COORD97":2578834.0699999998,"ADDRESS":"民治路４７號八樓","OBJECTID":575524},"geometry":{"x":179773.51999999955,"y":2578834.0700000022}},{"attributes":{"ID":575552,"DIS_CODE":0,"TOWNNAME":"新營區","LI":"民權里","LIN":"23鄰","STREET":"民治路","SECT":" ","MAREA":" ","LANE":" ","ALLEY":" ","HOUSE_NO":"４７號五樓","E_COORD97":179773.51999999999,"N_COORD97":2578834.0699999998,"ADDRESS":"民治路４７號五樓","OBJECTID":575525},"geometry":{"x":179773.51999999955,"y":2578834.0700000022}},{"attributes":{"ID":575553,"DIS_CODE":0,"TOWNNAME":"新營區","LI":"民權里","LIN":"23鄰","STREET":"民治路","SECT":" ","MAREA":" ","LANE":" ","ALLEY":" ","HOUSE_NO":"４３號九樓","E_COORD97":179773.51999999999,"N_COORD97":2578834.0699999998,"ADDRESS":"民治路４３號九樓","OBJECTID":575526},"geometry":{"x":179773.51999999955,"y":2578834.0700000022}},{"attributes":{"ID":575554,"DIS_CODE":0,"TOWNNAME":"新營區","LI":"民權里","LIN":"23鄰","STREET":"民治路","SECT":" ","MAREA":" ","LANE":" ","ALLEY":" ","HOUSE_NO":"４７號十一樓","E_COORD97":179774.76999999999,"N_COORD97":2578834.0699999998,"ADDRESS":"民治路４７號十一樓","OBJECTID":575527},"geometry":{"x":179774.76999999955,"y":2578834.0700000022}},{"attributes":{"ID":575555,"DIS_CODE":0,"TOWNNAME":"新營區","LI":"民權里","LIN":"23鄰","STREET":"民治路","SECT":" ","MAREA":" ","LANE":" ","ALLEY":" ","HOUSE_NO":"４７號十三樓","E_COORD97":179774.76999999999,"N_COORD97":2578834.0699999998,"ADDRESS":"民治路４７號十三樓","OBJECTID":575528},"geometry":{"x":179774.76999999955,"y":2578834.0700000022}},{"attributes":{"ID":575556,"DIS_CODE":0,"TOWNNAME":"新營區","LI":"民權里","LIN":"23鄰","STREET":"民治路","SECT":" ","MAREA":" ","LANE":" ","ALLEY":" ","HOUSE_NO":"４１之２號五樓","E_COORD97":179776.01999999999,"N_COORD97":2578834.1099999999,"ADDRESS":"民治路４１之２號五樓","OBJECTID":575529},"geometry":{"x":179776.02000000048,"y":2578834.1099999994}},{"attributes":{"ID":575557,"DIS_CODE":0,"TOWNNAME":"新營區","LI":"民權里","LIN":"23鄰","STREET":"民治路","SECT":" ","MAREA":" ","LANE":" ","ALLEY":" ","HOUSE_NO":"４１號十二樓","E_COORD97":179774.76999999999,"N_COORD97":2578834.0699999998,"ADDRESS":"民治路４１號十二樓","OBJECTID":575530},"geometry":{"x":179774.76999999955,"y":2578834.0700000022}},{"attributes":{"ID":575558,"DIS_CODE":0,"TOWNNAME":"新營區","LI":"民權里","LIN":"23鄰","STREET":"民治路","SECT":" ","MAREA":" ","LANE":" ","ALLEY":" ","HOUSE_NO":"４５號十二樓","E_COORD97":179774.76999999999,"N_COORD97":2578834.0699999998,"ADDRESS":"民治路４５號十二樓","OBJECTID":575531},"geometry":{"x":179774.76999999955,"y":2578834.0700000022}},{"attributes":{"ID":575559,"DIS_CODE":0,"TOWNNAME":"新營區","LI":"民權里","LIN":"23鄰","STREET":"民治路","SECT":" ","MAREA":" ","LANE":" ","ALLEY":" ","HOUSE_NO":"４１號四樓","E_COORD97":179773.51999999999,"N_COORD97":2578834.0699999998,"ADDRESS":"民治路４１號四樓","OBJECTID":575532},"geometry":{"x":179773.51999999955,"y":2578834.0700000022}},{"attributes":{"ID":575560,"DIS_CODE":0,"TOWNNAME":"新營區","LI":"民權里","LIN":"23鄰","STREET":"民治路","SECT":" ","MAREA":" ","LANE":" ","ALLEY":" ","HOUSE_NO":"４１號十三樓","E_COORD97":179774.76999999999,"N_COORD97":2578834.0699999998,"ADDRESS":"民治路４１號十三樓","OBJECTID":575533},"geometry":{"x":179774.76999999955,"y":2578834.0700000022}},{"attributes":{"ID":575561,"DIS_CODE":0,"TOWNNAME":"新營區","LI":"民權里","LIN":"23鄰","STREET":"民治路","SECT":" ","MAREA":" ","LANE":" ","ALLEY":" ","HOUSE_NO":"４１之２號二樓","E_COORD97":179776.01999999999,"N_COORD97":2578834.1099999999,"ADDRESS":"民治路４１之２號二樓","OBJECTID":575534},"geometry":{"x":179776.02000000048,"y":2578834.1099999994}},{"attributes":{"ID":575562,"DIS_CODE":0,"TOWNNAME":"新營區","LI":"民權里","LIN":"23鄰","STREET":"民治路","SECT":" ","MAREA":" ","LANE":" ","ALLEY":" ","HOUSE_NO":"４１號十樓","E_COORD97":179773.51999999999,"N_COORD97":2578834.0699999998,"ADDRESS":"民治路４１號十樓","OBJECTID":575535},"geometry":{"x":179773.51999999955,"y":2578834.0700000022}},{"attributes":{"ID":575563,"DIS_CODE":0,"TOWNNAME":"新營區","LI":"民權里","LIN":"23鄰","STREET":"民治路","SECT":" ","MAREA":" ","LANE":" ","ALLEY":" ","HOUSE_NO":"４５號八樓","E_COORD97":179773.51999999999,"N_COORD97":2578834.0699999998,"ADDRESS":"民治路４５號八樓","OBJECTID":575536},"geometry":{"x":179773.51999999955,"y":2578834.0700000022}},{"attributes":{"ID":575564,"DIS_CODE":0,"TOWNNAME":"新營區","LI":"民權里","LIN":"23鄰","STREET":"民治路","SECT":" ","MAREA":" ","LANE":" ","ALLEY":" ","HOUSE_NO":"４３號四樓","E_COORD97":179773.51999999999,"N_COORD97":2578834.0699999998,"ADDRESS":"民治路４３號四樓","OBJECTID":575537},"geometry":{"x":179773.51999999955,"y":2578834.0700000022}},{"attributes":{"ID":575565,"DIS_CODE":0,"TOWNNAME":"新營區","LI":"民權里","LIN":"23鄰","STREET":"民治路","SECT":" ","MAREA":" ","LANE":" ","ALLEY":" ","HOUSE_NO":"４１號五樓","E_COORD97":179773.51999999999,"N_COORD97":2578834.0699999998,"ADDRESS":"民治路４１號五樓","OBJECTID":575538},"geometry":{"x":179773.51999999955,"y":2578834.0700000022}},{"attributes":{"ID":575566,"DIS_CODE":0,"TOWNNAME":"新營區","LI":"民權里","LIN":"23鄰","STREET":"民治路","SECT":" ","MAREA":" ","LANE":" ","ALLEY":" ","HOUSE_NO":"４３號十樓","E_COORD97":179773.51999999999,"N_COORD97":2578834.0699999998,"ADDRESS":"民治路４３號十樓","OBJECTID":575539},"geometry":{"x":179773.51999999955,"y":2578834.0700000022}},{"attributes":{"ID":575567,"DIS_CODE":0,"TOWNNAME":"新營區","LI":"民權里","LIN":"23鄰","STREET":"民治路","SECT":" ","MAREA":" ","LANE":" ","ALLEY":" ","HOUSE_NO":"４１號九樓","E_COORD97":179773.51999999999,"N_COORD97":2578834.0699999998,"ADDRESS":"民治路４１號九樓","OBJECTID":575540},"geometry":{"x":179773.51999999955,"y":2578834.0700000022}},{"attributes":{"ID":575568,"DIS_CODE":0,"TOWNNAME":"新營區","LI":"民權里","LIN":"23鄰","STREET":"民治路","SECT":" ","MAREA":" ","LANE":" ","ALLEY":" ","HOUSE_NO":"４３號五樓","E_COORD97":179773.51999999999,"N_COORD97":2578834.0699999998,"ADDRESS":"民治路４３號五樓","OBJECTID":575541},"geometry":{"x":179773.51999999955,"y":2578834.0700000022}},{"attributes":{"ID":575569,"DIS_CODE":0,"TOWNNAME":"新營區","LI":"民權里","LIN":"23鄰","STREET":"民治路","SECT":" ","MAREA":" ","LANE":" ","ALLEY":" ","HOUSE_NO":"４３號六樓","E_COORD97":179773.51999999999,"N_COORD97":2578834.0699999998,"ADDRESS":"民治路４３號六樓","OBJECTID":575542},"geometry":{"x":179773.51999999955,"y":2578834.0700000022}},{"attributes":{"ID":575570,"DIS_CODE":0,"TOWNNAME":"新營區","LI":"民權里","LIN":"23鄰","STREET":"民治路","SECT":" ","MAREA":" ","LANE":" ","ALLEY":" ","HOUSE_NO":"４１之２號八樓","E_COORD97":179776.01999999999,"N_COORD97":2578834.1099999999,"ADDRESS":"民治路４１之２號八樓","OBJECTID":575543},"geometry":{"x":179776.02000000048,"y":2578834.1099999994}},{"attributes":{"ID":575571,"DIS_CODE":0,"TOWNNAME":"新營區","LI":"民權里","LIN":"23鄰","STREET":"民治路","SECT":" ","MAREA":" ","LANE":" ","ALLEY":" ","HOUSE_NO":"４５之２號四樓","E_COORD97":179776.01999999999,"N_COORD97":2578834.1099999999,"ADDRESS":"民治路４５之２號四樓","OBJECTID":575544},"geometry":{"x":179776.02000000048,"y":2578834.1099999994}},{"attributes":{"ID":575572,"DIS_CODE":0,"TOWNNAME":"新營區","LI":"民權里","LIN":"23鄰","STREET":"民治路","SECT":" ","MAREA":" ","LANE":" ","ALLEY":" ","HOUSE_NO":"４１之２號十二樓","E_COORD97":179777.26999999999,"N_COORD97":2578834.1099999999,"ADDRESS":"民治路４１之２號十二樓","OBJECTID":575545},"geometry":{"x":179777.27000000142,"y":2578834.1099999994}},{"attributes":{"ID":575573,"DIS_CODE":0,"TOWNNAME":"新營區","LI":"民權里","LIN":"23鄰","STREET":"民治路","SECT":" ","MAREA":" ","LANE":" ","ALLEY":" ","HOUSE_NO":"４１號三樓","E_COORD97":179773.51999999999,"N_COORD97":2578834.0699999998,"ADDRESS":"民治路４１號三樓","OBJECTID":575546},"geometry":{"x":179773.51999999955,"y":2578834.0700000022}},{"attributes":{"ID":575574,"DIS_CODE":0,"TOWNNAME":"新營區","LI":"民權里","LIN":"23鄰","STREET":"民治路","SECT":" ","MAREA":" ","LANE":" ","ALLEY":" ","HOUSE_NO":"４１之２號四樓","E_COORD97":179776.01999999999,"N_COORD97":2578834.1099999999,"ADDRESS":"民治路４１之２號四樓","OBJECTID":575547},"geometry":{"x":179776.02000000048,"y":2578834.1099999994}},{"attributes":{"ID":575575,"DIS_CODE":0,"TOWNNAME":"新營區","LI":"民權里","LIN":"23鄰","STREET":"民治路","SECT":" ","MAREA":" ","LANE":" ","ALLEY":" ","HOUSE_NO":"４１之２號三樓","E_COORD97":179776.01999999999,"N_COORD97":2578834.1099999999,"ADDRESS":"民治路４１之２號三樓","OBJECTID":575548},"geometry":{"x":179776.02000000048,"y":2578834.1099999994}},{"attributes":{"ID":575576,"DIS_CODE":0,"TOWNNAME":"新營區","LI":"民權里","LIN":"23鄰","STREET":"民治路","SECT":" ","MAREA":" ","LANE":" ","ALLEY":" ","HOUSE_NO":"４１之２號七樓","E_COORD97":179776.01999999999,"N_COORD97":2578834.1099999999,"ADDRESS":"民治路４１之２號七樓","OBJECTID":575549},"geometry":{"x":179776.02000000048,"y":2578834.1099999994}},{"attributes":{"ID":575577,"DIS_CODE":0,"TOWNNAME":"新營區","LI":"民權里","LIN":"23鄰","STREET":"民治路","SECT":" ","MAREA":" ","LANE":" ","ALLEY":" ","HOUSE_NO":"４１之２號十樓","E_COORD97":179776.01999999999,"N_COORD97":2578834.1099999999,"ADDRESS":"民治路４１之２號十樓","OBJECTID":575550},"geometry":{"x":179776.02000000048,"y":2578834.1099999994}},{"attributes":{"ID":575578,"DIS_CODE":0,"TOWNNAME":"新營區","LI":"民權里","LIN":"23鄰","STREET":"民治路","SECT":" ","MAREA":" ","LANE":" ","ALLEY":" ","HOUSE_NO":"４１之２號十一樓","E_COORD97":179777.26999999999,"N_COORD97":2578834.1099999999,"ADDRESS":"民治路４１之２號十一樓","OBJECTID":575551},"geometry":{"x":179777.27000000142,"y":2578834.1099999994}},{"attributes":{"ID":575579,"DIS_CODE":0,"TOWNNAME":"新營區","LI":"民權里","LIN":"23鄰","STREET":"民治路","SECT":" ","MAREA":" ","LANE":" ","ALLEY":" ","HOUSE_NO":"４１號八樓","E_COORD97":179773.51999999999,"N_COORD97":2578834.0699999998,"ADDRESS":"民治路４１號八樓","OBJECTID":575552},"geometry":{"x":179773.51999999955,"y":2578834.0700000022}},{"attributes":{"ID":575580,"DIS_CODE":0,"TOWNNAME":"新營區","LI":"民權里","LIN":"23鄰","STREET":"民治路","SECT":" ","MAREA":" ","LANE":" ","ALLEY":" ","HOUSE_NO":"４１之２號十三樓","E_COORD97":179777.26999999999,"N_COORD97":2578834.1099999999,"ADDRESS":"民治路４１之２號十三樓","OBJECTID":575553},"geometry":{"x":179777.27000000142,"y":2578834.1099999994}},{"attributes":{"ID":575581,"DIS_CODE":0,"TOWNNAME":"新營區","LI":"民權里","LIN":"23鄰","STREET":"民治路","SECT":" ","MAREA":" ","LANE":" ","ALLEY":" ","HOUSE_NO":"４１之２號六樓","E_COORD97":179776.01999999999,"N_COORD97":2578834.1099999999,"ADDRESS":"民治路４１之２號六樓","OBJECTID":575554},"geometry":{"x":179776.02000000048,"y":2578834.1099999994}},{"attributes":{"ID":575582,"DIS_CODE":0,"TOWNNAME":"新營區","LI":"民權里","LIN":"23鄰","STREET":"民治路","SECT":" ","MAREA":" ","LANE":" ","ALLEY":" ","HOUSE_NO":"４５號十樓","E_COORD97":179773.51999999999,"N_COORD97":2578834.0699999998,"ADDRESS":"民治路４５號十樓","OBJECTID":575555},"geometry":{"x":179773.51999999955,"y":2578834.0700000022}},{"attributes":{"ID":575583,"DIS_CODE":0,"TOWNNAME":"新營區","LI":"民權里","LIN":"23鄰","STREET":"民治路","SECT":" ","MAREA":" ","LANE":" ","ALLEY":" ","HOUSE_NO":"４１號六樓","E_COORD97":179773.51999999999,"N_COORD97":2578834.0699999998,"ADDRESS":"民治路４１號六樓","OBJECTID":575556},"geometry":{"x":179773.51999999955,"y":2578834.0700000022}},{"attributes":{"ID":575584,"DIS_CODE":0,"TOWNNAME":"新營區","LI":"民權里","LIN":"23鄰","STREET":"民治路","SECT":" ","MAREA":" ","LANE":" ","ALLEY":" ","HOUSE_NO":"４３號十一樓","E_COORD97":179774.76999999999,"N_COORD97":2578834.0699999998,"ADDRESS":"民治路４３號十一樓","OBJECTID":575557},"geometry":{"x":179774.76999999955,"y":2578834.0700000022}},{"attributes":{"ID":575585,"DIS_CODE":0,"TOWNNAME":"新營區","LI":"民權里","LIN":"23鄰","STREET":"民治路","SECT":" ","MAREA":" ","LANE":" ","ALLEY":" ","HOUSE_NO":"４３號八樓","E_COORD97":179773.51999999999,"N_COORD97":2578834.0699999998,"ADDRESS":"民治路４３號八樓","OBJECTID":575558},"geometry":{"x":179773.51999999955,"y":2578834.0700000022}},{"attributes":{"ID":575586,"DIS_CODE":0,"TOWNNAME":"新營區","LI":"民權里","LIN":"23鄰","STREET":"民治路","SECT":" ","MAREA":" ","LANE":" ","ALLEY":" ","HOUSE_NO":"４３號十二樓","E_COORD97":179774.76999999999,"N_COORD97":2578834.0699999998,"ADDRESS":"民治路４３號十二樓","OBJECTID":575559},"geometry":{"x":179774.76999999955,"y":2578834.0700000022}},{"attributes":{"ID":575587,"DIS_CODE":0,"TOWNNAME":"歸仁區","LI":"文化里","LIN":"23鄰","STREET":"大德路","SECT":" ","MAREA":" ","LANE":" ","ALLEY":" ","HOUSE_NO":"２５３號四樓之１","E_COORD97":177107.48000000001,"N_COORD97":2541521.6400000001,"ADDRESS":"大德路２５３號四樓之１","OBJECTID":575560},"geometry":{"x":177107.48000000138,"y":2541521.6399999987}},{"attributes":{"ID":575588,"DIS_CODE":0,"TOWNNAME":"歸仁區","LI":"文化里","LIN":"23鄰","STREET":"大德路","SECT":" ","MAREA":" ","LANE":" ","ALLEY":" ","HOUSE_NO":"２５３號六樓之７","E_COORD97":177107.5,"N_COORD97":2541521.6400000001,"ADDRESS":"大德路２５３號六樓之７","OBJECTID":575561},"geometry":{"x":177107.5,"y":2541521.6399999987}},{"attributes":{"ID":575589,"DIS_CODE":0,"TOWNNAME":"歸仁區","LI":"文化里","LIN":"23鄰","STREET":"大德路","SECT":" ","MAREA":" ","LANE":" ","ALLEY":" ","HOUSE_NO":"２５３號四樓之８","E_COORD97":177107.51000000001,"N_COORD97":2541521.6400000001,"ADDRESS":"大德路２５３號四樓之８","OBJECTID":575562},"geometry":{"x":177107.50999999978,"y":2541521.6399999987}},{"attributes":{"ID":575590,"DIS_CODE":0,"TOWNNAME":"歸仁區","LI":"辜厝里","LIN":"23鄰","STREET":"大順街","SECT":" ","MAREA":" ","LANE":" ","ALLEY":" ","HOUSE_NO":"３９號三樓之１","E_COORD97":177415.20999999999,"N_COORD97":2540581.1600000001,"ADDRESS":"大順街３９號三樓之１","OBJECTID":575563},"geometry":{"x":177415.21000000089,"y":2540581.1600000001}},{"attributes":{"ID":575591,"DIS_CODE":0,"TOWNNAME":"歸仁區","LI":"南保里","LIN":"23鄰","STREET":"民權六街","SECT":" ","MAREA":" ","LANE":" ","ALLEY":" ","HOUSE_NO":"６０號五樓之６","E_COORD97":176828.45999999999,"N_COORD97":2541118.2599999998,"ADDRESS":"民權六街６０號五樓之６","OBJECTID":575564},"geometry":{"x":176828.46000000183,"y":2541118.2600000016}},{"attributes":{"ID":575592,"DIS_CODE":0,"TOWNNAME":"歸仁區","LI":"南保里","LIN":"23鄰","STREET":"民權六街","SECT":" ","MAREA":" ","LANE":" ","ALLEY":" ","HOUSE_NO":"６０號二樓之７","E_COORD97":176828.45999999999,"N_COORD97":2541118.2599999998,"ADDRESS":"民權六街６０號二樓之７","OBJECTID":575565},"geometry":{"x":176828.46000000183,"y":2541118.2600000016}},{"attributes":{"ID":575593,"DIS_CODE":0,"TOWNNAME":"南區","LI":"文南里","LIN":"23鄰","STREET":"中華西路","SECT":"一段","MAREA":" ","LANE":" ","ALLEY":" ","HOUSE_NO":"１１１號二樓","E_COORD97":166482.47,"N_COORD97":2542446.98,"ADDRESS":"中華西路一段１１１號二樓","OBJECTID":575566},"geometry":{"x":166482.4700000016,"y":2542446.9800000004}},{"attributes":{"ID":575594,"DIS_CODE":0,"TOWNNAME":"南區","LI":"文南里","LIN":"23鄰","STREET":"中華西路","SECT":"一段","MAREA":" ","LANE":" ","ALLEY":" ","HOUSE_NO":"１１１號三樓之１","E_COORD97":166482.47,"N_COORD97":2542446.98,"ADDRESS":"中華西路一段１１１號三樓之１","OBJECTID":575567},"geometry":{"x":166482.4700000016,"y":2542446.9800000004}},{"attributes":{"ID":575595,"DIS_CODE":0,"TOWNNAME":"南區","LI":"文南里","LIN":"23鄰","STREET":"中華西路","SECT":"一段","MAREA":" ","LANE":" ","ALLEY":" ","HOUSE_NO":"１１１號三樓之２","E_COORD97":166482.47,"N_COORD97":2542446.98,"ADDRESS":"中華西路一段１１１號三樓之２","OBJECTID":575568},"geometry":{"x":166482.4700000016,"y":2542446.9800000004}},{"attributes":{"ID":575596,"DIS_CODE":0,"TOWNNAME":"南區","LI":"文南里","LIN":"23鄰","STREET":"中華西路","SECT":"一段","MAREA":" ","LANE":" ","ALLEY":" ","HOUSE_NO":"１１１號三樓之３","E_COORD97":166482.47,"N_COORD97":2542446.98,"ADDRESS":"中華西路一段１１１號三樓之３","OBJECTID":575569},"geometry":{"x":166482.4700000016,"y":2542446.9800000004}},{"attributes":{"ID":575597,"DIS_CODE":0,"TOWNNAME":"東區","LI":"德光里","LIN":"23鄰","STREET":"崇學路","SECT":" ","MAREA":" ","LANE":" ","ALLEY":" ","HOUSE_NO":"１２１號六樓","E_COORD97":170259.89000000001,"N_COORD97":2542166.3799999999,"ADDRESS":"崇學路１２１號六樓","OBJECTID":575570},"geometry":{"x":170259.89000000153,"y":2542166.3800000008}},{"attributes":{"ID":575598,"DIS_CODE":0,"TOWNNAME":"南區","LI":"文南里","LIN":"23鄰","STREET":"中華西路","SECT":"一段","MAREA":" ","LANE":" ","ALLEY":" ","HOUSE_NO":"１１１號三樓之４","E_COORD97":166482.47,"N_COORD97":2542446.98,"ADDRESS":"中華西路一段１１１號三樓之４","OBJECTID":575571},"geometry":{"x":166482.4700000016,"y":2542446.9800000004}},{"attributes":{"ID":575599,"DIS_CODE":0,"TOWNNAME":"南區","LI":"文南里","LIN":"23鄰","STREET":"中華西路","SECT":"一段","MAREA":" ","LANE":" ","ALLEY":" ","HOUSE_NO":"１１１號三樓之５","E_COORD97":166482.47,"N_COORD97":2542446.98,"ADDRESS":"中華西路一段１１１號三樓之５","OBJECTID":575572},"geometry":{"x":166482.4700000016,"y":2542446.9800000004}},{"attributes":{"ID":575600,"DIS_CODE":0,"TOWNNAME":"南區","LI":"文南里","LIN":"23鄰","STREET":"中華西路","SECT":"一段","MAREA":" ","LANE":" ","ALLEY":" ","HOUSE_NO":"１１１號三樓之６","E_COORD97":166482.47,"N_COORD97":2542446.98,"ADDRESS":"中華西路一段１１１號三樓之６","OBJECTID":575573},"geometry":{"x":166482.4700000016,"y":2542446.9800000004}},{"attributes":{"ID":575601,"DIS_CODE":0,"TOWNNAME":"南區","LI":"文南里","LIN":"23鄰","STREET":"中華西路","SECT":"一段","MAREA":" ","LANE":" ","ALLEY":" ","HOUSE_NO":"１１１號三樓之７","E_COORD97":166482.47,"N_COORD97":2542446.98,"ADDRESS":"中華西路一段１１１號三樓之７","OBJECTID":575574},"geometry":{"x":166482.4700000016,"y":2542446.9800000004}},{"attributes":{"ID":575602,"DIS_CODE":0,"TOWNNAME":"南區","LI":"文南里","LIN":"23鄰","STREET":"中華西路","SECT":"一段","MAREA":" ","LANE":" ","ALLEY":" ","HOUSE_NO":"１１１號三樓之８","E_COORD97":166482.47,"N_COORD97":2542446.98,"ADDRESS":"中華西路一段１１１號三樓之８","OBJECTID":575575},"geometry":{"x":166482.4700000016,"y":2542446.9800000004}},{"attributes":{"ID":575603,"DIS_CODE":0,"TOWNNAME":"南區","LI":"文南里","LIN":"23鄰","STREET":"中華西路","SECT":"一段","MAREA":" ","LANE":" ","ALLEY":" ","HOUSE_NO":"１１１號三樓之９","E_COORD97":166482.47,"N_COORD97":2542446.98,"ADDRESS":"中華西路一段１１１號三樓之９","OBJECTID":575576},"geometry":{"x":166482.4700000016,"y":2542446.9800000004}},{"attributes":{"ID":575604,"DIS_CODE":0,"TOWNNAME":"南區","LI":"文南里","LIN":"23鄰","STREET":"中華西路","SECT":"一段","MAREA":" ","LANE":" ","ALLEY":" ","HOUSE_NO":"１１１號三樓之１０","E_COORD97":166482.47,"N_COORD97":2542446.98,"ADDRESS":"中華西路一段１１１號三樓之１０","OBJECTID":575577},"geometry":{"x":166482.4700000016,"y":2542446.9800000004}},{"attributes":{"ID":575605,"DIS_CODE":0,"TOWNNAME":"南區","LI":"文南里","LIN":"23鄰","STREET":"中華西路","SECT":"一段","MAREA":" ","LANE":" ","ALLEY":" ","HOUSE_NO":"１１１號四樓之１","E_COORD97":166482.47,"N_COORD97":2542446.98,"ADDRESS":"中華西路一段１１１號四樓之１","OBJECTID":575578},"geometry":{"x":166482.4700000016,"y":2542446.9800000004}},{"attributes":{"ID":575606,"DIS_CODE":0,"TOWNNAME":"南區","LI":"文南里","LIN":"23鄰","STREET":"中華西路","SECT":"一段","MAREA":" ","LANE":" ","ALLEY":" ","HOUSE_NO":"１１１號四樓之２","E_COORD97":166482.47,"N_COORD97":2542446.98,"ADDRESS":"中華西路一段１１１號四樓之２","OBJECTID":575579},"geometry":{"x":166482.4700000016,"y":2542446.9800000004}},{"attributes":{"ID":575607,"DIS_CODE":0,"TOWNNAME":"南區","LI":"文南里","LIN":"23鄰","STREET":"中華西路","SECT":"一段","MAREA":" ","LANE":" ","ALLEY":" ","HOUSE_NO":"１１１號四樓之３","E_COORD97":166482.47,"N_COORD97":2542446.98,"ADDRESS":"中華西路一段１１１號四樓之３","OBJECTID":575580},"geometry":{"x":166482.4700000016,"y":2542446.9800000004}},{"attributes":{"ID":575608,"DIS_CODE":0,"TOWNNAME":"南區","LI":"文南里","LIN":"23鄰","STREET":"中華西路","SECT":"一段","MAREA":" ","LANE":" ","ALLEY":" ","HOUSE_NO":"１１１號四樓之３之１","E_COORD97":166482.47,"N_COORD97":2542446.98,"ADDRESS":"中華西路一段１１１號四樓之３之１","OBJECTID":575581},"geometry":{"x":166482.4700000016,"y":2542446.9800000004}},{"attributes":{"ID":575609,"DIS_CODE":0,"TOWNNAME":"南區","LI":"文南里","LIN":"23鄰","STREET":"中華西路","SECT":"一段","MAREA":" ","LANE":" ","ALLEY":" ","HOUSE_NO":"１１１號四樓之５","E_COORD97":166482.47,"N_COORD97":2542446.98,"ADDRESS":"中華西路一段１１１號四樓之５","OBJECTID":575582},"geometry":{"x":166482.4700000016,"y":2542446.9800000004}},{"attributes":{"ID":575610,"DIS_CODE":0,"TOWNNAME":"南區","LI":"文南里","LIN":"23鄰","STREET":"中華西路","SECT":"一段","MAREA":" ","LANE":" ","ALLEY":" ","HOUSE_NO":"１１１號四樓之６","E_COORD97":166482.47,"N_COORD97":2542446.98,"ADDRESS":"中華西路一段１１１號四樓之６","OBJECTID":575583},"geometry":{"x":166482.4700000016,"y":2542446.9800000004}},{"attributes":{"ID":575611,"DIS_CODE":0,"TOWNNAME":"南區","LI":"文南里","LIN":"23鄰","STREET":"中華西路","SECT":"一段","MAREA":" ","LANE":" ","ALLEY":" ","HOUSE_NO":"１１１號四樓之７","E_COORD97":166482.47,"N_COORD97":2542446.98,"ADDRESS":"中華西路一段１１１號四樓之７","OBJECTID":575584},"geometry":{"x":166482.4700000016,"y":2542446.9800000004}},{"attributes":{"ID":575612,"DIS_CODE":0,"TOWNNAME":"南區","LI":"文南里","LIN":"23鄰","STREET":"中華西路","SECT":"一段","MAREA":" ","LANE":" ","ALLEY":" ","HOUSE_NO":"１１１號四樓之８","E_COORD97":166482.47,"N_COORD97":2542446.98,"ADDRESS":"中華西路一段１１１號四樓之８","OBJECTID":575585},"geometry":{"x":166482.4700000016,"y":2542446.9800000004}},{"attributes":{"ID":575613,"DIS_CODE":0,"TOWNNAME":"南區","LI":"文南里","LIN":"23鄰","STREET":"中華西路","SECT":"一段","MAREA":" ","LANE":" ","ALLEY":" ","HOUSE_NO":"１１１號四樓之９","E_COORD97":166482.47,"N_COORD97":2542446.98,"ADDRESS":"中華西路一段１１１號四樓之９","OBJECTID":575586},"geometry":{"x":166482.4700000016,"y":2542446.9800000004}},{"attributes":{"ID":575614,"DIS_CODE":0,"TOWNNAME":"南區","LI":"文南里","LIN":"23鄰","STREET":"中華西路","SECT":"一段","MAREA":" ","LANE":" ","ALLEY":" ","HOUSE_NO":"１１１號四樓之１０","E_COORD97":166482.47,"N_COORD97":2542446.98,"ADDRESS":"中華西路一段１１１號四樓之１０","OBJECTID":575587},"geometry":{"x":166482.4700000016,"y":2542446.9800000004}},{"attributes":{"ID":575615,"DIS_CODE":0,"TOWNNAME":"南區","LI":"文南里","LIN":"23鄰","STREET":"中華西路","SECT":"一段","MAREA":" ","LANE":" ","ALLEY":" ","HOUSE_NO":"１１１號五樓之１","E_COORD97":166482.47,"N_COORD97":2542446.98,"ADDRESS":"中華西路一段１１１號五樓之１","OBJECTID":575588},"geometry":{"x":166482.4700000016,"y":2542446.9800000004}},{"attributes":{"ID":575616,"DIS_CODE":0,"TOWNNAME":"南區","LI":"文南里","LIN":"23鄰","STREET":"中華西路","SECT":"一段","MAREA":" ","LANE":" ","ALLEY":" ","HOUSE_NO":"１１１號五樓之２","E_COORD97":166482.47,"N_COORD97":2542446.98,"ADDRESS":"中華西路一段１１１號五樓之２","OBJECTID":575589},"geometry":{"x":166482.4700000016,"y":2542446.9800000004}},{"attributes":{"ID":575617,"DIS_CODE":0,"TOWNNAME":"南區","LI":"文南里","LIN":"23鄰","STREET":"中華西路","SECT":"一段","MAREA":" ","LANE":" ","ALLEY":" ","HOUSE_NO":"１１１號五樓之３","E_COORD97":166482.47,"N_COORD97":2542446.98,"ADDRESS":"中華西路一段１１１號五樓之３","OBJECTID":575590},"geometry":{"x":166482.4700000016,"y":2542446.9800000004}},{"attributes":{"ID":575618,"DIS_CODE":0,"TOWNNAME":"南區","LI":"文南里","LIN":"23鄰","STREET":"中華西路","SECT":"一段","MAREA":" ","LANE":" ","ALLEY":" ","HOUSE_NO":"１１１號五樓之４","E_COORD97":166482.47,"N_COORD97":2542446.98,"ADDRESS":"中華西路一段１１１號五樓之４","OBJECTID":575591},"geometry":{"x":166482.4700000016,"y":2542446.9800000004}},{"attributes":{"ID":575619,"DIS_CODE":0,"TOWNNAME":"南區","LI":"文南里","LIN":"23鄰","STREET":"中華西路","SECT":"一段","MAREA":" ","LANE":" ","ALLEY":" ","HOUSE_NO":"１１１號五樓之５","E_COORD97":166482.47,"N_COORD97":2542446.98,"ADDRESS":"中華西路一段１１１號五樓之５","OBJECTID":575592},"geometry":{"x":166482.4700000016,"y":2542446.9800000004}},{"attributes":{"ID":575620,"DIS_CODE":0,"TOWNNAME":"南區","LI":"文南里","LIN":"23鄰","STREET":"中華西路","SECT":"一段","MAREA":" ","LANE":" ","ALLEY":" ","HOUSE_NO":"１１１號五樓之６","E_COORD97":166482.47,"N_COORD97":2542446.98,"ADDRESS":"中華西路一段１１１號五樓之６","OBJECTID":575593},"geometry":{"x":166482.4700000016,"y":2542446.9800000004}},{"attributes":{"ID":575621,"DIS_CODE":0,"TOWNNAME":"南區","LI":"文南里","LIN":"23鄰","STREET":"中華西路","SECT":"一段","MAREA":" ","LANE":" ","ALLEY":" ","HOUSE_NO":"１１１號五樓之７","E_COORD97":166482.47,"N_COORD97":2542446.98,"ADDRESS":"中華西路一段１１１號五樓之７","OBJECTID":575594},"geometry":{"x":166482.4700000016,"y":2542446.9800000004}},{"attributes":{"ID":575622,"DIS_CODE":0,"TOWNNAME":"南區","LI":"文南里","LIN":"23鄰","STREET":"中華西路","SECT":"一段","MAREA":" ","LANE":" ","ALLEY":" ","HOUSE_NO":"１１１號五樓之８","E_COORD97":166482.47,"N_COORD97":2542446.98,"ADDRESS":"中華西路一段１１１號五樓之８","OBJECTID":575595},"geometry":{"x":166482.4700000016,"y":2542446.9800000004}},{"attributes":{"ID":575623,"DIS_CODE":0,"TOWNNAME":"南區","LI":"文南里","LIN":"23鄰","STREET":"中華西路","SECT":"一段","MAREA":" ","LANE":" ","ALLEY":" ","HOUSE_NO":"１１１號五樓之９","E_COORD97":166482.47,"N_COORD97":2542446.98,"ADDRESS":"中華西路一段１１１號五樓之９","OBJECTID":575596},"geometry":{"x":166482.4700000016,"y":2542446.9800000004}},{"attributes":{"ID":575624,"DIS_CODE":0,"TOWNNAME":"南區","LI":"文南里","LIN":"23鄰","STREET":"中華西路","SECT":"一段","MAREA":" ","LANE":" ","ALLEY":" ","HOUSE_NO":"１１１號五樓之１０","E_COORD97":166482.47,"N_COORD97":2542446.98,"ADDRESS":"中華西路一段１１１號五樓之１０","OBJECTID":575597},"geometry":{"x":166482.4700000016,"y":2542446.9800000004}},{"attributes":{"ID":575625,"DIS_CODE":0,"TOWNNAME":"永康區","LI":"大灣里","LIN":"23鄰","STREET":"大灣路","SECT":" ","MAREA":" ","LANE":" ","ALLEY":" ","HOUSE_NO":"２３９號","E_COORD97":174933.60000000001,"N_COORD97":2545241.0800000001,"ADDRESS":"大灣路２３９號","OBJECTID":575598},"geometry":{"x":174933.60000000149,"y":2545241.0800000038}},{"attributes":{"ID":575626,"DIS_CODE":0,"TOWNNAME":"南區","LI":"文南里","LIN":"23鄰","STREET":"中華西路","SECT":"一段","MAREA":" ","LANE":" ","ALLEY":" ","HOUSE_NO":"１１１號六樓之１","E_COORD97":166482.47,"N_COORD97":2542446.98,"ADDRESS":"中華西路一段１１１號六樓之１","OBJECTID":575599},"geometry":{"x":166482.4700000016,"y":2542446.9800000004}},{"attributes":{"ID":575627,"DIS_CODE":0,"TOWNNAME":"南區","LI":"文南里","LIN":"23鄰","STREET":"中華西路","SECT":"一段","MAREA":" ","LANE":" ","ALLEY":" ","HOUSE_NO":"１１１號六樓之２","E_COORD97":166482.47,"N_COORD97":2542446.98,"ADDRESS":"中華西路一段１１１號六樓之２","OBJECTID":575600},"geometry":{"x":166482.4700000016,"y":2542446.9800000004}}]}