{"displayFieldName":"TOWNNAME","fieldAliases":{"ID":"ID","DIS_CODE":"DIS_CODE","TOWNNAME":"TOWNNAME","LI":"LI","LIN":"LIN","STREET":"STREET","SECT":"SECT","MAREA":"MAREA","LANE":"LANE","ALLEY":"ALLEY","HOUSE_NO":"HOUSE_NO","E_COORD97":"E_COORD97","N_COORD97":"N_COORD97","ADDRESS":"ADDRESS","OBJECTID":"OBJECTID"},"geometryType":"esriGeometryPoint","spatialReference":{"wkid":102443,"latestWkid":3826},"fields":[{"name":"ID","type":"esriFieldTypeDouble","alias":"ID"},{"name":"DIS_CODE","type":"esriFieldTypeInteger","alias":"DIS_CODE"},{"name":"TOWNNAME","type":"esriFieldTypeString","alias":"TOWNNAME","length":8},{"name":"LI","type":"esriFieldTypeString","alias":"LI","length":8},{"name":"LIN","type":"esriFieldTypeString","alias":"LIN","length":12},{"name":"STREET","type":"esriFieldTypeString","alias":"STREET","length":20},{"name":"SECT","type":"esriFieldTypeString","alias":"SECT","length":8},{"name":"MAREA","type":"esriFieldTypeString","alias":"MAREA","length":12},{"name":"LANE","type":"esriFieldTypeString","alias":"LANE","length":10},{"name":"ALLEY","type":"esriFieldTypeString","alias":"ALLEY","length":10},{"name":"HOUSE_NO","type":"esriFieldTypeString","alias":"HOUSE_NO","length":20},{"name":"E_COORD97","type":"esriFieldTypeDouble","alias":"E_COORD97"},{"name":"N_COORD97","type":"esriFieldTypeDouble","alias":"N_COORD97"},{"name":"ADDRESS","type":"esriFieldTypeString","alias":"ADDRESS","length":50},{"name":"OBJECTID","type":"esriFieldTypeOID","alias":"OBJECTID"}],"features":[{"attributes":{"ID":341010,"DIS_CODE":0,"TOWNNAME":"永康區","LI":"復華里","LIN":"5鄰","STREET":"國華街","SECT":" ","MAREA":" ","LANE":"１０２巷","ALLEY":" ","HOUSE_NO":"８８號七樓之２","E_COORD97":172989.14999999999,"N_COORD97":2546133.2799999998,"ADDRESS":"國華街１０２巷８８號七樓之２","OBJECTID":341001},"geometry":{"x":172989.15000000037,"y":2546133.2799999993}},{"attributes":{"ID":341011,"DIS_CODE":0,"TOWNNAME":"南區","LI":"文華里","LIN":"1鄰","STREET":"永華路","SECT":"一段","MAREA":" ","LANE":"２３３巷","ALLEY":" ","HOUSE_NO":"５號","E_COORD97":167085.69,"N_COORD97":2543182.2799999998,"ADDRESS":"永華路一段２３３巷５號","OBJECTID":341002},"geometry":{"x":167085.69000000134,"y":2543182.2800000012}},{"attributes":{"ID":341012,"DIS_CODE":0,"TOWNNAME":"南區","LI":"文華里","LIN":"1鄰","STREET":"永華路","SECT":"一段","MAREA":" ","LANE":"２３３巷","ALLEY":" ","HOUSE_NO":"６號","E_COORD97":167088.38,"N_COORD97":2543178.9700000002,"ADDRESS":"永華路一段２３３巷６號","OBJECTID":341003},"geometry":{"x":167088.38000000175,"y":2543178.9700000025}},{"attributes":{"ID":341013,"DIS_CODE":0,"TOWNNAME":"南區","LI":"文華里","LIN":"1鄰","STREET":"永華路","SECT":"一段","MAREA":" ","LANE":"２３３巷","ALLEY":" ","HOUSE_NO":"７號","E_COORD97":167090.63,"N_COORD97":2543175.6499999999,"ADDRESS":"永華路一段２３３巷７號","OBJECTID":341004},"geometry":{"x":167090.63000000082,"y":2543175.6500000004}},{"attributes":{"ID":341014,"DIS_CODE":0,"TOWNNAME":"南區","LI":"文華里","LIN":"1鄰","STREET":"永華路","SECT":"一段","MAREA":" ","LANE":"２３３巷","ALLEY":" ","HOUSE_NO":"８號","E_COORD97":167094.13,"N_COORD97":2543173.3199999998,"ADDRESS":"永華路一段２３３巷８號","OBJECTID":341005},"geometry":{"x":167094.13000000082,"y":2543173.3200000003}},{"attributes":{"ID":341015,"DIS_CODE":0,"TOWNNAME":"南區","LI":"日新里","LIN":"1鄰","STREET":"金華路","SECT":"一段","MAREA":" ","LANE":"３９３巷","ALLEY":" ","HOUSE_NO":"８號","E_COORD97":166942.23999999999,"N_COORD97":2541209.1899999999,"ADDRESS":"金華路一段３９３巷８號","OBJECTID":341006},"geometry":{"x":166942.24000000209,"y":2541209.1900000013}},{"attributes":{"ID":341016,"DIS_CODE":0,"TOWNNAME":"南區","LI":"田寮里","LIN":"1鄰","STREET":"新興路","SECT":" ","MAREA":" ","LANE":"２６７巷","ALLEY":" ","HOUSE_NO":"１６號","E_COORD97":167206.95999999999,"N_COORD97":2541770.71,"ADDRESS":"新興路２６７巷１６號","OBJECTID":341007},"geometry":{"x":167206.96000000089,"y":2541770.7100000028}},{"attributes":{"ID":341017,"DIS_CODE":0,"TOWNNAME":"南區","LI":"田寮里","LIN":"1鄰","STREET":"新興路","SECT":" ","MAREA":" ","LANE":"２６７巷","ALLEY":" ","HOUSE_NO":"１８號","E_COORD97":167202.25,"N_COORD97":2541766.4199999999,"ADDRESS":"新興路２６７巷１８號","OBJECTID":341008},"geometry":{"x":167202.25,"y":2541766.4199999999}},{"attributes":{"ID":341018,"DIS_CODE":0,"TOWNNAME":"南區","LI":"田寮里","LIN":"1鄰","STREET":"新興路","SECT":" ","MAREA":" ","LANE":"２６７巷","ALLEY":" ","HOUSE_NO":"２０號","E_COORD97":167202.85999999999,"N_COORD97":2541761.5099999998,"ADDRESS":"新興路２６７巷２０號","OBJECTID":341009},"geometry":{"x":167202.86000000127,"y":2541761.5099999998}},{"attributes":{"ID":341019,"DIS_CODE":0,"TOWNNAME":"東山區","LI":"科里里","LIN":"13鄰","STREET":" ","SECT":" ","MAREA":"枋子林","LANE":" ","ALLEY":" ","HOUSE_NO":"１號之１２","E_COORD97":187869.78515000001,"N_COORD97":2576889.0591199999,"ADDRESS":"枋子林１號之１２","OBJECTID":341010},"geometry":{"x":187869.78514999896,"y":2576889.0591199994}},{"attributes":{"ID":341020,"DIS_CODE":0,"TOWNNAME":"南區","LI":"田寮里","LIN":"1鄰","STREET":"新興路","SECT":" ","MAREA":" ","LANE":"３１３巷","ALLEY":" ","HOUSE_NO":"８號","E_COORD97":167160.48000000001,"N_COORD97":2541774.9199999999,"ADDRESS":"新興路３１３巷８號","OBJECTID":341011},"geometry":{"x":167160.48000000045,"y":2541774.9200000018}},{"attributes":{"ID":341021,"DIS_CODE":0,"TOWNNAME":"南區","LI":"田寮里","LIN":"1鄰","STREET":"新興路","SECT":" ","MAREA":" ","LANE":"３１３巷","ALLEY":" ","HOUSE_NO":"１０號","E_COORD97":167163.95999999999,"N_COORD97":2541770.2200000002,"ADDRESS":"新興路３１３巷１０號","OBJECTID":341012},"geometry":{"x":167163.95999999996,"y":2541770.2200000025}},{"attributes":{"ID":341022,"DIS_CODE":0,"TOWNNAME":"南區","LI":"田寮里","LIN":"1鄰","STREET":"新興路","SECT":" ","MAREA":" ","LANE":"３１３巷","ALLEY":" ","HOUSE_NO":"１２號","E_COORD97":167169.69,"N_COORD97":2541765.7200000002,"ADDRESS":"新興路３１３巷１２號","OBJECTID":341013},"geometry":{"x":167169.69000000041,"y":2541765.7200000044}},{"attributes":{"ID":341023,"DIS_CODE":0,"TOWNNAME":"南區","LI":"田寮里","LIN":"1鄰","STREET":"新興路","SECT":" ","MAREA":" ","LANE":"３１３巷","ALLEY":" ","HOUSE_NO":"１４號","E_COORD97":167173.57999999999,"N_COORD97":2541761.8399999999,"ADDRESS":"新興路３１３巷１４號","OBJECTID":341014},"geometry":{"x":167173.57999999914,"y":2541761.8400000017}},{"attributes":{"ID":341024,"DIS_CODE":0,"TOWNNAME":"南區","LI":"田寮里","LIN":"1鄰","STREET":"新興路","SECT":" ","MAREA":" ","LANE":"３１３巷","ALLEY":" ","HOUSE_NO":"１號","E_COORD97":167153.92000000001,"N_COORD97":2541809.0699999998,"ADDRESS":"新興路３１３巷１號","OBJECTID":341015},"geometry":{"x":167153.91999999993,"y":2541809.0700000003}},{"attributes":{"ID":341025,"DIS_CODE":0,"TOWNNAME":"南區","LI":"田寮里","LIN":"1鄰","STREET":"新興路","SECT":" ","MAREA":" ","LANE":"３１３巷","ALLEY":" ","HOUSE_NO":"３號","E_COORD97":167159.45000000001,"N_COORD97":2541802.1200000001,"ADDRESS":"新興路３１３巷３號","OBJECTID":341016},"geometry":{"x":167159.45000000205,"y":2541802.1200000029}},{"attributes":{"ID":341026,"DIS_CODE":0,"TOWNNAME":"南區","LI":"田寮里","LIN":"1鄰","STREET":"新興路","SECT":" ","MAREA":" ","LANE":"３１３巷","ALLEY":" ","HOUSE_NO":"７號","E_COORD97":167177.67999999999,"N_COORD97":2541779.4199999999,"ADDRESS":"新興路３１３巷７號","OBJECTID":341017},"geometry":{"x":167177.68000000156,"y":2541779.4199999999}},{"attributes":{"ID":341027,"DIS_CODE":0,"TOWNNAME":"南區","LI":"田寮里","LIN":"1鄰","STREET":"新興路","SECT":" ","MAREA":" ","LANE":"３１３巷","ALLEY":" ","HOUSE_NO":"９號","E_COORD97":167180.13,"N_COORD97":2541776.3500000001,"ADDRESS":"新興路３１３巷９號","OBJECTID":341018},"geometry":{"x":167180.13000000082,"y":2541776.3499999996}},{"attributes":{"ID":341028,"DIS_CODE":0,"TOWNNAME":"南區","LI":"田寮里","LIN":"1鄰","STREET":"新興路","SECT":" ","MAREA":" ","LANE":"３１３巷","ALLEY":" ","HOUSE_NO":"１１號","E_COORD97":167185.45999999999,"N_COORD97":2541770.2200000002,"ADDRESS":"新興路３１３巷１１號","OBJECTID":341019},"geometry":{"x":167185.45999999996,"y":2541770.2200000025}},{"attributes":{"ID":341029,"DIS_CODE":0,"TOWNNAME":"南區","LI":"田寮里","LIN":"1鄰","STREET":"新興路","SECT":" ","MAREA":" ","LANE":"３０１巷","ALLEY":" ","HOUSE_NO":"１０號","E_COORD97":167178.89999999999,"N_COORD97":2541808.4500000002,"ADDRESS":"新興路３０１巷１０號","OBJECTID":341020},"geometry":{"x":167178.9000000013,"y":2541808.4499999993}},{"attributes":{"ID":341030,"DIS_CODE":0,"TOWNNAME":"南區","LI":"田寮里","LIN":"1鄰","STREET":"新興路","SECT":" ","MAREA":" ","LANE":"３０１巷","ALLEY":" ","HOUSE_NO":"１２號","E_COORD97":167179.72,"N_COORD97":2541803.96,"ADDRESS":"新興路３０１巷１２號","OBJECTID":341021},"geometry":{"x":167179.72000000067,"y":2541803.9600000009}},{"attributes":{"ID":341031,"DIS_CODE":0,"TOWNNAME":"南區","LI":"田寮里","LIN":"1鄰","STREET":"新興路","SECT":" ","MAREA":" ","LANE":"３０１巷","ALLEY":" ","HOUSE_NO":"１６號","E_COORD97":167182.79999999999,"N_COORD97":2541795.7799999998,"ADDRESS":"新興路３０１巷１６號","OBJECTID":341022},"geometry":{"x":167182.80000000075,"y":2541795.7800000012}},{"attributes":{"ID":341032,"DIS_CODE":0,"TOWNNAME":"南區","LI":"田寮里","LIN":"1鄰","STREET":"新興路","SECT":" ","MAREA":" ","LANE":"３０１巷","ALLEY":" ","HOUSE_NO":"１８號","E_COORD97":167187.70999999999,"N_COORD97":2541791.6899999999,"ADDRESS":"新興路３０１巷１８號","OBJECTID":341023},"geometry":{"x":167187.70999999996,"y":2541791.6900000032}},{"attributes":{"ID":341033,"DIS_CODE":0,"TOWNNAME":"南區","LI":"田寮里","LIN":"1鄰","STREET":"新興路","SECT":" ","MAREA":" ","LANE":"３０１巷","ALLEY":" ","HOUSE_NO":"２０號","E_COORD97":167190.17000000001,"N_COORD97":2541788.4199999999,"ADDRESS":"新興路３０１巷２０號","OBJECTID":341024},"geometry":{"x":167190.17000000086,"y":2541788.4200000018}},{"attributes":{"ID":341034,"DIS_CODE":0,"TOWNNAME":"白河區","LI":"外角里","LIN":"8鄰","STREET":"光明街","SECT":" ","MAREA":" ","LANE":" ","ALLEY":" ","HOUSE_NO":"５８號","E_COORD97":190567.10999999999,"N_COORD97":2583378.8300000001,"ADDRESS":"光明街５８號","OBJECTID":341025},"geometry":{"x":190567.11000000034,"y":2583378.8300000019}},{"attributes":{"ID":341035,"DIS_CODE":0,"TOWNNAME":"白河區","LI":"外角里","LIN":"8鄰","STREET":"光明街","SECT":" ","MAREA":" ","LANE":" ","ALLEY":" ","HOUSE_NO":"６０號","E_COORD97":190568.07999999999,"N_COORD97":2583385.3900000001,"ADDRESS":"光明街６０號","OBJECTID":341026},"geometry":{"x":190568.08000000101,"y":2583385.3900000025}},{"attributes":{"ID":341036,"DIS_CODE":0,"TOWNNAME":"白河區","LI":"外角里","LIN":"8鄰","STREET":"光明街","SECT":" ","MAREA":" ","LANE":" ","ALLEY":" ","HOUSE_NO":"６４號","E_COORD97":190564.34,"N_COORD97":2583395.6000000001,"ADDRESS":"光明街６４號","OBJECTID":341027},"geometry":{"x":190564.34000000078,"y":2583395.6000000034}},{"attributes":{"ID":341037,"DIS_CODE":0,"TOWNNAME":"南區","LI":"田寮里","LIN":"1鄰","STREET":"新興路","SECT":" ","MAREA":" ","LANE":"３０１巷","ALLEY":" ","HOUSE_NO":"２２號","E_COORD97":167192.62,"N_COORD97":2541785.1499999999,"ADDRESS":"新興路３０１巷２２號","OBJECTID":341028},"geometry":{"x":167192.62000000104,"y":2541785.1500000004}},{"attributes":{"ID":341038,"DIS_CODE":0,"TOWNNAME":"南區","LI":"田寮里","LIN":"1鄰","STREET":"新興路","SECT":" ","MAREA":" ","LANE":"３０１巷","ALLEY":" ","HOUSE_NO":"２４號","E_COORD97":167195.07999999999,"N_COORD97":2541781.4700000002,"ADDRESS":"新興路３０１巷２４號","OBJECTID":341029},"geometry":{"x":167195.08000000007,"y":2541781.4700000025}},{"attributes":{"ID":341039,"DIS_CODE":0,"TOWNNAME":"南區","LI":"田寮里","LIN":"1鄰","STREET":"新興路","SECT":" ","MAREA":" ","LANE":"３０１巷","ALLEY":" ","HOUSE_NO":"２６號","E_COORD97":167197.73999999999,"N_COORD97":2541777.79,"ADDRESS":"新興路３０１巷２６號","OBJECTID":341030},"geometry":{"x":167197.74000000022,"y":2541777.790000001}},{"attributes":{"ID":341040,"DIS_CODE":0,"TOWNNAME":"南區","LI":"田寮里","LIN":"1鄰","STREET":"新興路","SECT":" ","MAREA":" ","LANE":"３０１巷","ALLEY":" ","HOUSE_NO":"２８號","E_COORD97":167201.01999999999,"N_COORD97":2541773.7000000002,"ADDRESS":"新興路３０１巷２８號","OBJECTID":341031},"geometry":{"x":167201.02000000048,"y":2541773.6999999993}},{"attributes":{"ID":341041,"DIS_CODE":0,"TOWNNAME":"佳里區","LI":"六安里","LIN":"1鄰","STREET":"進學路","SECT":" ","MAREA":" ","LANE":"１４８巷","ALLEY":" ","HOUSE_NO":"１１號","E_COORD97":166028.91,"N_COORD97":2562713.8500000001,"ADDRESS":"進學路１４８巷１１號","OBJECTID":341032},"geometry":{"x":166028.91000000201,"y":2562713.8500000015}},{"attributes":{"ID":341042,"DIS_CODE":0,"TOWNNAME":"佳里區","LI":"六安里","LIN":"1鄰","STREET":"進學路","SECT":" ","MAREA":" ","LANE":"１４８巷","ALLEY":" ","HOUSE_NO":"１２號","E_COORD97":166029.13,"N_COORD97":2562710,"ADDRESS":"進學路１４８巷１２號","OBJECTID":341033},"geometry":{"x":166029.13000000082,"y":2562710.0000000019}},{"attributes":{"ID":341043,"DIS_CODE":0,"TOWNNAME":"佳里區","LI":"六安里","LIN":"1鄰","STREET":"進學路","SECT":" ","MAREA":" ","LANE":"１４８巷","ALLEY":" ","HOUSE_NO":"１３號","E_COORD97":166029.13,"N_COORD97":2562705.7999999998,"ADDRESS":"進學路１４８巷１３號","OBJECTID":341034},"geometry":{"x":166029.13000000082,"y":2562705.8000000007}},{"attributes":{"ID":341044,"DIS_CODE":0,"TOWNNAME":"佳里區","LI":"六安里","LIN":"1鄰","STREET":"進學路","SECT":" ","MAREA":" ","LANE":"１４８巷","ALLEY":" ","HOUSE_NO":"１４號","E_COORD97":166029.17999999999,"N_COORD97":2562701.71,"ADDRESS":"進學路１４８巷１４號","OBJECTID":341035},"geometry":{"x":166029.18000000063,"y":2562701.7100000028}},{"attributes":{"ID":341045,"DIS_CODE":0,"TOWNNAME":"佳里區","LI":"六安里","LIN":"1鄰","STREET":"進學路","SECT":" ","MAREA":" ","LANE":"１４８巷","ALLEY":" ","HOUSE_NO":"１號","E_COORD97":166011.67000000001,"N_COORD97":2562694.3999999999,"ADDRESS":"進學路１４８巷１號","OBJECTID":341036},"geometry":{"x":166011.67000000179,"y":2562694.4000000022}},{"attributes":{"ID":341046,"DIS_CODE":0,"TOWNNAME":"佳里區","LI":"六安里","LIN":"1鄰","STREET":"進學路","SECT":" ","MAREA":" ","LANE":"１４８巷","ALLEY":" ","HOUSE_NO":"２號","E_COORD97":166011.39999999999,"N_COORD97":2562698.21,"ADDRESS":"進學路１４８巷２號","OBJECTID":341037},"geometry":{"x":166011.4000000013,"y":2562698.2100000046}},{"attributes":{"ID":341047,"DIS_CODE":0,"TOWNNAME":"佳里區","LI":"六安里","LIN":"1鄰","STREET":"進學路","SECT":" ","MAREA":" ","LANE":"１４８巷","ALLEY":" ","HOUSE_NO":"３號","E_COORD97":166010.98000000001,"N_COORD97":2562702.4900000002,"ADDRESS":"進學路１４８巷３號","OBJECTID":341038},"geometry":{"x":166010.98000000138,"y":2562702.4900000021}},{"attributes":{"ID":341048,"DIS_CODE":0,"TOWNNAME":"佳里區","LI":"六安里","LIN":"1鄰","STREET":"進學路","SECT":" ","MAREA":" ","LANE":"１４８巷","ALLEY":" ","HOUSE_NO":"４號","E_COORD97":166010.67999999999,"N_COORD97":2562706.2799999998,"ADDRESS":"進學路１４８巷４號","OBJECTID":341039},"geometry":{"x":166010.6799999997,"y":2562706.2800000031}},{"attributes":{"ID":341049,"DIS_CODE":0,"TOWNNAME":"佳里區","LI":"六安里","LIN":"1鄰","STREET":"進學路","SECT":" ","MAREA":" ","LANE":"１４８巷","ALLEY":" ","HOUSE_NO":"５號","E_COORD97":166010.57000000001,"N_COORD97":2562710.5800000001,"ADDRESS":"進學路１４８巷５號","OBJECTID":341040},"geometry":{"x":166010.5700000003,"y":2562710.5800000001}},{"attributes":{"ID":341050,"DIS_CODE":0,"TOWNNAME":"佳里區","LI":"六安里","LIN":"1鄰","STREET":"進學路","SECT":" ","MAREA":" ","LANE":"１４８巷","ALLEY":" ","HOUSE_NO":"６號","E_COORD97":166010.98000000001,"N_COORD97":2562714.6800000002,"ADDRESS":"進學路１４８巷６號","OBJECTID":341041},"geometry":{"x":166010.98000000138,"y":2562714.6800000016}},{"attributes":{"ID":341051,"DIS_CODE":0,"TOWNNAME":"佳里區","LI":"六安里","LIN":"1鄰","STREET":"進學路","SECT":" ","MAREA":" ","LANE":"１４８巷","ALLEY":" ","HOUSE_NO":"７號","E_COORD97":166010.63,"N_COORD97":2562718.5699999998,"ADDRESS":"進學路１４８巷７號","OBJECTID":341042},"geometry":{"x":166010.63000000082,"y":2562718.570000004}},{"attributes":{"ID":341052,"DIS_CODE":0,"TOWNNAME":"佳里區","LI":"六安里","LIN":"1鄰","STREET":"進學路","SECT":" ","MAREA":" ","LANE":"１４８巷","ALLEY":" ","HOUSE_NO":"８號","E_COORD97":166010.51000000001,"N_COORD97":2562723,"ADDRESS":"進學路１４８巷８號","OBJECTID":341043},"geometry":{"x":166010.50999999978,"y":2562723.0000000019}},{"attributes":{"ID":341053,"DIS_CODE":0,"TOWNNAME":"佳里區","LI":"六安里","LIN":"1鄰","STREET":"進學路","SECT":" ","MAREA":" ","LANE":"１４８巷","ALLEY":" ","HOUSE_NO":"９號","E_COORD97":166010.32999999999,"N_COORD97":2562726.7799999998,"ADDRESS":"進學路１４８巷９號","OBJECTID":341044},"geometry":{"x":166010.33000000007,"y":2562726.7800000012}},{"attributes":{"ID":341054,"DIS_CODE":0,"TOWNNAME":"永康區","LI":"西橋里","LIN":"1鄰","STREET":"中山南路","SECT":" ","MAREA":" ","LANE":"４３巷","ALLEY":" ","HOUSE_NO":"３號","E_COORD97":170746.79999999999,"N_COORD97":2545842.1600000001,"ADDRESS":"中山南路４３巷３號","OBJECTID":341045},"geometry":{"x":170746.79999999981,"y":2545842.160000002}},{"attributes":{"ID":341055,"DIS_CODE":0,"TOWNNAME":"永康區","LI":"西橋里","LIN":"1鄰","STREET":"中山南路","SECT":" ","MAREA":" ","LANE":"４３巷","ALLEY":" ","HOUSE_NO":"１號","E_COORD97":170749.10999999999,"N_COORD97":2545838.9100000001,"ADDRESS":"中山南路４３巷１號","OBJECTID":341046},"geometry":{"x":170749.11000000127,"y":2545838.9100000039}},{"attributes":{"ID":341056,"DIS_CODE":0,"TOWNNAME":"永康區","LI":"西橋里","LIN":"1鄰","STREET":"中山南路","SECT":" ","MAREA":" ","LANE":"４３巷","ALLEY":" ","HOUSE_NO":"５號之２","E_COORD97":170741.51999999999,"N_COORD97":2545852.21,"ADDRESS":"中山南路４３巷５號之２","OBJECTID":341047},"geometry":{"x":170741.51999999955,"y":2545852.2100000028}},{"attributes":{"ID":341057,"DIS_CODE":0,"TOWNNAME":"永康區","LI":"永康里","LIN":"1鄰","STREET":"中山北路","SECT":" ","MAREA":" ","LANE":"７９巷","ALLEY":" ","HOUSE_NO":"１０號之２","E_COORD97":174009.45999999999,"N_COORD97":2547465.2200000002,"ADDRESS":"中山北路７９巷１０號之２","OBJECTID":341048},"geometry":{"x":174009.46000000183,"y":2547465.2200000025}},{"attributes":{"ID":341058,"DIS_CODE":0,"TOWNNAME":"永康區","LI":"永康里","LIN":"1鄰","STREET":"中山北路","SECT":" ","MAREA":" ","LANE":"７９巷","ALLEY":" ","HOUSE_NO":"１０號之１","E_COORD97":174004.92999999999,"N_COORD97":2547463.2000000002,"ADDRESS":"中山北路７９巷１０號之１","OBJECTID":341049},"geometry":{"x":174004.93000000063,"y":2547463.1999999974}},{"attributes":{"ID":341059,"DIS_CODE":0,"TOWNNAME":"永康區","LI":"永康里","LIN":"1鄰","STREET":"中山北路","SECT":" ","MAREA":" ","LANE":"７９巷","ALLEY":" ","HOUSE_NO":"１２號","E_COORD97":174018.16,"N_COORD97":2547493.29,"ADDRESS":"中山北路７９巷１２號","OBJECTID":341050},"geometry":{"x":174018.16000000015,"y":2547493.2900000028}},{"attributes":{"ID":341060,"DIS_CODE":0,"TOWNNAME":"永康區","LI":"永康里","LIN":"1鄰","STREET":"中山北路","SECT":" ","MAREA":" ","LANE":"３５巷","ALLEY":" ","HOUSE_NO":"３２號","E_COORD97":173935.92000000001,"N_COORD97":2547488.5,"ADDRESS":"中山北路３５巷３２號","OBJECTID":341051},"geometry":{"x":173935.91999999993,"y":2547488.5}},{"attributes":{"ID":341061,"DIS_CODE":0,"TOWNNAME":"白河區","LI":"外角里","LIN":"8鄰","STREET":"光明街","SECT":" ","MAREA":" ","LANE":" ","ALLEY":" ","HOUSE_NO":"６６號","E_COORD97":190565.20000000001,"N_COORD97":2583401.5499999998,"ADDRESS":"光明街６６號","OBJECTID":341052},"geometry":{"x":190565.20000000112,"y":2583401.5500000026}},{"attributes":{"ID":341062,"DIS_CODE":0,"TOWNNAME":"東區","LI":"關聖里","LIN":"5鄰","STREET":"裕農路","SECT":" ","MAREA":" ","LANE":"６６８巷","ALLEY":" ","HOUSE_NO":"２８號二樓","E_COORD97":171730.23000000001,"N_COORD97":2543066.4399999999,"ADDRESS":"裕農路６６８巷２８號二樓","OBJECTID":341053},"geometry":{"x":171730.23000000138,"y":2543066.4399999995}},{"attributes":{"ID":341063,"DIS_CODE":0,"TOWNNAME":"永康區","LI":"永康里","LIN":"1鄰","STREET":"中山北路","SECT":" ","MAREA":" ","LANE":"７９巷","ALLEY":" ","HOUSE_NO":"１０號之５","E_COORD97":174018.20999999999,"N_COORD97":2547473.2000000002,"ADDRESS":"中山北路７９巷１０號之５","OBJECTID":341054},"geometry":{"x":174018.21000000089,"y":2547473.1999999993}},{"attributes":{"ID":341064,"DIS_CODE":0,"TOWNNAME":"中西區","LI":"元安里","LIN":"1鄰","STREET":"永華路","SECT":"一段","MAREA":" ","LANE":"２０巷","ALLEY":" ","HOUSE_NO":"１號","E_COORD97":167638.79000000001,"N_COORD97":2543156.7000000002,"ADDRESS":"永華路一段２０巷１號","OBJECTID":341055},"geometry":{"x":167638.79000000097,"y":2543156.6999999993}},{"attributes":{"ID":341065,"DIS_CODE":0,"TOWNNAME":"安南區","LI":"安順里","LIN":"1鄰","STREET":"安和路","SECT":"四段","MAREA":" ","LANE":"２５巷","ALLEY":" ","HOUSE_NO":"１３號","E_COORD97":169902.42999999999,"N_COORD97":2550146.0800000001,"ADDRESS":"安和路四段２５巷１３號","OBJECTID":341056},"geometry":{"x":169902.43000000063,"y":2550146.0800000001}},{"attributes":{"ID":341066,"DIS_CODE":0,"TOWNNAME":"安南區","LI":"安順里","LIN":"1鄰","STREET":"安和路","SECT":"四段","MAREA":" ","LANE":"２５巷","ALLEY":" ","HOUSE_NO":"１號","E_COORD97":169929.45999999999,"N_COORD97":2550142.5899999999,"ADDRESS":"安和路四段２５巷１號","OBJECTID":341057},"geometry":{"x":169929.46000000089,"y":2550142.5899999999}},{"attributes":{"ID":341067,"DIS_CODE":0,"TOWNNAME":"安南區","LI":"安順里","LIN":"1鄰","STREET":"安和路","SECT":"四段","MAREA":" ","LANE":"２５巷","ALLEY":" ","HOUSE_NO":"３號","E_COORD97":169923.07999999999,"N_COORD97":2550142.1299999999,"ADDRESS":"安和路四段２５巷３號","OBJECTID":341058},"geometry":{"x":169923.08000000007,"y":2550142.1300000027}},{"attributes":{"ID":341068,"DIS_CODE":0,"TOWNNAME":"安南區","LI":"安順里","LIN":"1鄰","STREET":"安和路","SECT":"四段","MAREA":" ","LANE":"２５巷","ALLEY":" ","HOUSE_NO":"７號","E_COORD97":169915.95000000001,"N_COORD97":2550141.98,"ADDRESS":"安和路四段２５巷７號","OBJECTID":341059},"geometry":{"x":169915.95000000112,"y":2550141.9800000023}},{"attributes":{"ID":341069,"DIS_CODE":0,"TOWNNAME":"安南區","LI":"安順里","LIN":"1鄰","STREET":"安和路","SECT":"四段","MAREA":" ","LANE":"２５巷","ALLEY":" ","HOUSE_NO":"９號","E_COORD97":169911.09,"N_COORD97":2550142.8900000001,"ADDRESS":"安和路四段２５巷９號","OBJECTID":341060},"geometry":{"x":169911.09000000171,"y":2550142.8900000025}},{"attributes":{"ID":341070,"DIS_CODE":0,"TOWNNAME":"安南區","LI":"新順里","LIN":"1鄰","STREET":"安生街","SECT":" ","MAREA":" ","LANE":"１６０巷","ALLEY":" ","HOUSE_NO":"８號","E_COORD97":169390.53,"N_COORD97":2549602.6299999999,"ADDRESS":"安生街１６０巷８號","OBJECTID":341061},"geometry":{"x":169390.53000000119,"y":2549602.6299999971}},{"attributes":{"ID":341071,"DIS_CODE":0,"TOWNNAME":"安南區","LI":"新順里","LIN":"1鄰","STREET":"安豐六街","SECT":" ","MAREA":" ","LANE":"７０巷","ALLEY":" ","HOUSE_NO":"１１號","E_COORD97":169432.79000000001,"N_COORD97":2549653.98,"ADDRESS":"安豐六街７０巷１１號","OBJECTID":341062},"geometry":{"x":169432.79000000004,"y":2549653.9800000023}},{"attributes":{"ID":341072,"DIS_CODE":0,"TOWNNAME":"安南區","LI":"新順里","LIN":"1鄰","STREET":"安豐六街","SECT":" ","MAREA":" ","LANE":"７０巷","ALLEY":" ","HOUSE_NO":"１３號","E_COORD97":169431.07000000001,"N_COORD97":2549650.5600000001,"ADDRESS":"安豐六街７０巷１３號","OBJECTID":341063},"geometry":{"x":169431.07000000123,"y":2549650.5600000024}},{"attributes":{"ID":341073,"DIS_CODE":0,"TOWNNAME":"安南區","LI":"新順里","LIN":"1鄰","STREET":"安豐六街","SECT":" ","MAREA":" ","LANE":"７０巷","ALLEY":" ","HOUSE_NO":"１５號","E_COORD97":169429.35999999999,"N_COORD97":2549646.5600000001,"ADDRESS":"安豐六街７０巷１５號","OBJECTID":341064},"geometry":{"x":169429.36000000034,"y":2549646.5600000024}},{"attributes":{"ID":341074,"DIS_CODE":0,"TOWNNAME":"安南區","LI":"新順里","LIN":"1鄰","STREET":"安豐六街","SECT":" ","MAREA":" ","LANE":"７０巷","ALLEY":" ","HOUSE_NO":"１７號","E_COORD97":169427.92999999999,"N_COORD97":2549642.5699999998,"ADDRESS":"安豐六街７０巷１７號","OBJECTID":341065},"geometry":{"x":169427.93000000063,"y":2549642.5700000022}},{"attributes":{"ID":341075,"DIS_CODE":0,"TOWNNAME":"安南區","LI":"新順里","LIN":"1鄰","STREET":"安豐六街","SECT":" ","MAREA":" ","LANE":"７０巷","ALLEY":" ","HOUSE_NO":"１號","E_COORD97":169438.78,"N_COORD97":2549673.3799999999,"ADDRESS":"安豐六街７０巷１號","OBJECTID":341066},"geometry":{"x":169438.78000000026,"y":2549673.3800000008}},{"attributes":{"ID":341076,"DIS_CODE":0,"TOWNNAME":"安南區","LI":"新順里","LIN":"1鄰","STREET":"安豐六街","SECT":" ","MAREA":" ","LANE":"７０巷","ALLEY":" ","HOUSE_NO":"３號","E_COORD97":169437.07000000001,"N_COORD97":2549669.1000000001,"ADDRESS":"安豐六街７０巷３號","OBJECTID":341067},"geometry":{"x":169437.07000000216,"y":2549669.1000000015}},{"attributes":{"ID":341077,"DIS_CODE":0,"TOWNNAME":"安南區","LI":"新順里","LIN":"1鄰","STREET":"安豐六街","SECT":" ","MAREA":" ","LANE":"７０巷","ALLEY":" ","HOUSE_NO":"５號","E_COORD97":169436.79000000001,"N_COORD97":2549665.1099999999,"ADDRESS":"安豐六街７０巷５號","OBJECTID":341068},"geometry":{"x":169436.79000000004,"y":2549665.1100000013}},{"attributes":{"ID":341078,"DIS_CODE":0,"TOWNNAME":"安南區","LI":"新順里","LIN":"1鄰","STREET":"安豐六街","SECT":" ","MAREA":" ","LANE":"７０巷","ALLEY":" ","HOUSE_NO":"７號","E_COORD97":169436.20999999999,"N_COORD97":2549661.1099999999,"ADDRESS":"安豐六街７０巷７號","OBJECTID":341069},"geometry":{"x":169436.21000000089,"y":2549661.1100000031}},{"attributes":{"ID":341079,"DIS_CODE":0,"TOWNNAME":"安南區","LI":"新順里","LIN":"1鄰","STREET":"安豐六街","SECT":" ","MAREA":" ","LANE":"７０巷","ALLEY":" ","HOUSE_NO":"９號","E_COORD97":169434.5,"N_COORD97":2549657.3999999999,"ADDRESS":"安豐六街７０巷９號","OBJECTID":341070},"geometry":{"x":169434.50000000093,"y":2549657.4000000022}},{"attributes":{"ID":341080,"DIS_CODE":0,"TOWNNAME":"安南區","LI":"溪頂里","LIN":"1鄰","STREET":"文安街","SECT":" ","MAREA":" ","LANE":"１４７巷","ALLEY":" ","HOUSE_NO":"１０號","E_COORD97":169049.04000000001,"N_COORD97":2547380.79,"ADDRESS":"文安街１４７巷１０號","OBJECTID":341071},"geometry":{"x":169049.04000000097,"y":2547380.7899999991}},{"attributes":{"ID":341081,"DIS_CODE":0,"TOWNNAME":"安南區","LI":"溪頂里","LIN":"1鄰","STREET":"文安街","SECT":" ","MAREA":" ","LANE":"１４７巷","ALLEY":" ","HOUSE_NO":"１１號","E_COORD97":169072.81,"N_COORD97":2547384.73,"ADDRESS":"文安街１４７巷１１號","OBJECTID":341072},"geometry":{"x":169072.80999999959,"y":2547384.7300000004}},{"attributes":{"ID":341082,"DIS_CODE":0,"TOWNNAME":"安南區","LI":"溪頂里","LIN":"1鄰","STREET":"文安街","SECT":" ","MAREA":" ","LANE":"１４７巷","ALLEY":" ","HOUSE_NO":"１２號","E_COORD97":169050.35000000001,"N_COORD97":2547371.0800000001,"ADDRESS":"文安街１４７巷１２號","OBJECTID":341073},"geometry":{"x":169050.35000000056,"y":2547371.0800000019}},{"attributes":{"ID":341083,"DIS_CODE":0,"TOWNNAME":"安南區","LI":"溪頂里","LIN":"1鄰","STREET":"文安街","SECT":" ","MAREA":" ","LANE":"１４７巷","ALLEY":" ","HOUSE_NO":"１３號","E_COORD97":169073.37,"N_COORD97":2547381.5600000001,"ADDRESS":"文安街１４７巷１３號","OBJECTID":341074},"geometry":{"x":169073.37000000011,"y":2547381.5600000024}},{"attributes":{"ID":341084,"DIS_CODE":0,"TOWNNAME":"安南區","LI":"溪頂里","LIN":"1鄰","STREET":"文安街","SECT":" ","MAREA":" ","LANE":"１４７巷","ALLEY":" ","HOUSE_NO":"１４號","E_COORD97":169051.01000000001,"N_COORD97":2547360.7799999998,"ADDRESS":"文安街１４７巷１４號","OBJECTID":341075},"geometry":{"x":169051.01000000071,"y":2547360.7799999993}},{"attributes":{"ID":341085,"DIS_CODE":0,"TOWNNAME":"安南區","LI":"溪頂里","LIN":"1鄰","STREET":"文安街","SECT":" ","MAREA":" ","LANE":"１４７巷","ALLEY":" ","HOUSE_NO":"１５號","E_COORD97":169074.20999999999,"N_COORD97":2547378.0099999998,"ADDRESS":"文安街１４７巷１５號","OBJECTID":341076},"geometry":{"x":169074.20999999996,"y":2547378.0100000016}},{"attributes":{"ID":341086,"DIS_CODE":0,"TOWNNAME":"安南區","LI":"溪頂里","LIN":"1鄰","STREET":"文安街","SECT":" ","MAREA":" ","LANE":"１４７巷","ALLEY":" ","HOUSE_NO":"１７號","E_COORD97":169074.01999999999,"N_COORD97":2547373.1499999999,"ADDRESS":"文安街１４７巷１７號","OBJECTID":341077},"geometry":{"x":169074.02000000048,"y":2547373.1499999985}},{"attributes":{"ID":341087,"DIS_CODE":0,"TOWNNAME":"安南區","LI":"溪頂里","LIN":"1鄰","STREET":"文安街","SECT":" ","MAREA":" ","LANE":"１４７巷","ALLEY":" ","HOUSE_NO":"１９號","E_COORD97":169073.45999999999,"N_COORD97":2547369.4100000001,"ADDRESS":"文安街１４７巷１９號","OBJECTID":341078},"geometry":{"x":169073.46000000089,"y":2547369.410000002}},{"attributes":{"ID":341088,"DIS_CODE":0,"TOWNNAME":"白河區","LI":"外角里","LIN":"8鄰","STREET":"光明街","SECT":" ","MAREA":" ","LANE":" ","ALLEY":" ","HOUSE_NO":"６８號","E_COORD97":190565.48999999999,"N_COORD97":2583405.9199999999,"ADDRESS":"光明街６８號","OBJECTID":341079},"geometry":{"x":190565.49000000115,"y":2583405.9199999999}},{"attributes":{"ID":341089,"DIS_CODE":0,"TOWNNAME":"安南區","LI":"溪頂里","LIN":"1鄰","STREET":"文安街","SECT":" ","MAREA":" ","LANE":"１４７巷","ALLEY":" ","HOUSE_NO":"１號","E_COORD97":169071.01000000001,"N_COORD97":2547405.6699999999,"ADDRESS":"文安街１４７巷１號","OBJECTID":341080},"geometry":{"x":169071.01000000071,"y":2547405.6699999999}},{"attributes":{"ID":341090,"DIS_CODE":0,"TOWNNAME":"安南區","LI":"溪頂里","LIN":"1鄰","STREET":"文安街","SECT":" ","MAREA":" ","LANE":"１４７巷","ALLEY":" ","HOUSE_NO":"２１號","E_COORD97":169068.78,"N_COORD97":2547362.4100000001,"ADDRESS":"文安街１４７巷２１號","OBJECTID":341081},"geometry":{"x":169068.78000000026,"y":2547362.410000002}},{"attributes":{"ID":341091,"DIS_CODE":0,"TOWNNAME":"安南區","LI":"溪頂里","LIN":"1鄰","STREET":"文安街","SECT":" ","MAREA":" ","LANE":"１４７巷","ALLEY":" ","HOUSE_NO":"３號","E_COORD97":169071.89999999999,"N_COORD97":2547401.8100000001,"ADDRESS":"文安街１４７巷３號","OBJECTID":341082},"geometry":{"x":169071.90000000037,"y":2547401.8100000005}},{"attributes":{"ID":341092,"DIS_CODE":0,"TOWNNAME":"安南區","LI":"溪頂里","LIN":"1鄰","STREET":"文安街","SECT":" ","MAREA":" ","LANE":"１４７巷","ALLEY":" ","HOUSE_NO":"４號","E_COORD97":169046.31,"N_COORD97":2547399.8700000001,"ADDRESS":"文安街１４７巷４號","OBJECTID":341083},"geometry":{"x":169046.30999999959,"y":2547399.8700000048}},{"attributes":{"ID":341093,"DIS_CODE":0,"TOWNNAME":"安南區","LI":"溪頂里","LIN":"1鄰","STREET":"文安街","SECT":" ","MAREA":" ","LANE":"１４７巷","ALLEY":" ","HOUSE_NO":"５號","E_COORD97":169072.48999999999,"N_COORD97":2547397.6699999999,"ADDRESS":"文安街１４７巷５號","OBJECTID":341084},"geometry":{"x":169072.49000000022,"y":2547397.6700000018}},{"attributes":{"ID":341094,"DIS_CODE":0,"TOWNNAME":"安南區","LI":"溪頂里","LIN":"1鄰","STREET":"文安街","SECT":" ","MAREA":" ","LANE":"１４７巷","ALLEY":" ","HOUSE_NO":"６號","E_COORD97":169046.23999999999,"N_COORD97":2547396.3100000001,"ADDRESS":"文安街１４７巷６號","OBJECTID":341085},"geometry":{"x":169046.24000000115,"y":2547396.3100000042}},{"attributes":{"ID":341095,"DIS_CODE":0,"TOWNNAME":"安南區","LI":"溪頂里","LIN":"1鄰","STREET":"文安街","SECT":" ","MAREA":" ","LANE":"１４７巷","ALLEY":" ","HOUSE_NO":"７號","E_COORD97":169072.12,"N_COORD97":2547393.5699999998,"ADDRESS":"文安街１４７巷７號","OBJECTID":341086},"geometry":{"x":169072.12000000197,"y":2547393.5700000003}},{"attributes":{"ID":341096,"DIS_CODE":0,"TOWNNAME":"安南區","LI":"溪頂里","LIN":"1鄰","STREET":"文安街","SECT":" ","MAREA":" ","LANE":"１４７巷","ALLEY":" ","HOUSE_NO":"８號","E_COORD97":169048.23000000001,"N_COORD97":2547388.0499999998,"ADDRESS":"文安街１４７巷８號","OBJECTID":341087},"geometry":{"x":169048.23000000138,"y":2547388.0500000045}},{"attributes":{"ID":341097,"DIS_CODE":0,"TOWNNAME":"安南區","LI":"溪頂里","LIN":"1鄰","STREET":"文安街","SECT":" ","MAREA":" ","LANE":"１４７巷","ALLEY":" ","HOUSE_NO":"９號","E_COORD97":169072.23999999999,"N_COORD97":2547389.5,"ADDRESS":"文安街１４７巷９號","OBJECTID":341088},"geometry":{"x":169072.24000000022,"y":2547389.5}},{"attributes":{"ID":341098,"DIS_CODE":0,"TOWNNAME":"安南區","LI":"淵中里","LIN":"1鄰","STREET":"安中路","SECT":"三段","MAREA":" ","LANE":"２６１巷","ALLEY":" ","HOUSE_NO":"１２號","E_COORD97":165718.57999999999,"N_COORD97":2549788.6600000001,"ADDRESS":"安中路三段２６１巷１２號","OBJECTID":341089},"geometry":{"x":165718.58000000007,"y":2549788.6600000001}},{"attributes":{"ID":341099,"DIS_CODE":0,"TOWNNAME":"安南區","LI":"淵中里","LIN":"1鄰","STREET":"安中路","SECT":"三段","MAREA":" ","LANE":"２６１巷","ALLEY":" ","HOUSE_NO":"１４號","E_COORD97":165716.26999999999,"N_COORD97":2549784.3300000001,"ADDRESS":"安中路三段２６１巷１４號","OBJECTID":341090},"geometry":{"x":165716.27000000048,"y":2549784.3300000001}},{"attributes":{"ID":341100,"DIS_CODE":0,"TOWNNAME":"安南區","LI":"淵中里","LIN":"1鄰","STREET":"安中路","SECT":"三段","MAREA":" ","LANE":"２６１巷","ALLEY":" ","HOUSE_NO":"１６號","E_COORD97":165716.26999999999,"N_COORD97":2549780.2799999998,"ADDRESS":"安中路三段２６１巷１６號","OBJECTID":341091},"geometry":{"x":165716.27000000048,"y":2549780.2799999993}},{"attributes":{"ID":341101,"DIS_CODE":0,"TOWNNAME":"安南區","LI":"淵中里","LIN":"1鄰","STREET":"安中路","SECT":"三段","MAREA":" ","LANE":"２６１巷","ALLEY":" ","HOUSE_NO":"１８號","E_COORD97":165712.79999999999,"N_COORD97":2549776.5299999998,"ADDRESS":"安中路三段２６１巷１８號","OBJECTID":341092},"geometry":{"x":165712.80000000075,"y":2549776.5299999993}},{"attributes":{"ID":341102,"DIS_CODE":0,"TOWNNAME":"安南區","LI":"淵中里","LIN":"1鄰","STREET":"安中路","SECT":"三段","MAREA":" ","LANE":"２６１巷","ALLEY":" ","HOUSE_NO":"２０號","E_COORD97":165711.35000000001,"N_COORD97":2549772.1899999999,"ADDRESS":"安中路三段２６１巷２０號","OBJECTID":341093},"geometry":{"x":165711.34999999963,"y":2549772.1899999995}},{"attributes":{"ID":341103,"DIS_CODE":0,"TOWNNAME":"安南區","LI":"新順里","LIN":"1鄰","STREET":"安豐六街","SECT":" ","MAREA":" ","LANE":"１１１巷","ALLEY":" ","HOUSE_NO":"２７號","E_COORD97":169564.39000000001,"N_COORD97":2549733.2999999998,"ADDRESS":"安豐六街１１１巷２７號","OBJECTID":341094},"geometry":{"x":169564.38999999966,"y":2549733.3000000026}},{"attributes":{"ID":341104,"DIS_CODE":0,"TOWNNAME":"安南區","LI":"長安里","LIN":"1鄰","STREET":"長溪路","SECT":"三段","MAREA":" ","LANE":"４０５巷","ALLEY":" ","HOUSE_NO":"２８號","E_COORD97":167580.92999999999,"N_COORD97":2552016.3900000001,"ADDRESS":"長溪路三段４０５巷２８號","OBJECTID":341095},"geometry":{"x":167580.9299999997,"y":2552016.3900000006}},{"attributes":{"ID":341105,"DIS_CODE":0,"TOWNNAME":"南區","LI":"同安里","LIN":"1鄰","STREET":"灣裡路","SECT":" ","MAREA":" ","LANE":"４００巷","ALLEY":" ","HOUSE_NO":"１４號","E_COORD97":166108.03,"N_COORD97":2536161.8199999998,"ADDRESS":"灣裡路４００巷１４號","OBJECTID":341096},"geometry":{"x":166108.03000000212,"y":2536161.8200000003}},{"attributes":{"ID":341106,"DIS_CODE":0,"TOWNNAME":"鹽水區","LI":"岸內里","LIN":"5鄰","STREET":" ","SECT":" ","MAREA":"岸內","LANE":" ","ALLEY":" ","HOUSE_NO":"６０號","E_COORD97":174851.26999999999,"N_COORD97":2581298.54,"ADDRESS":"岸內６０號","OBJECTID":341097},"geometry":{"x":174851.27000000048,"y":2581298.540000001}},{"attributes":{"ID":341107,"DIS_CODE":0,"TOWNNAME":"南區","LI":"同安里","LIN":"1鄰","STREET":"灣裡路","SECT":" ","MAREA":" ","LANE":"４００巷","ALLEY":" ","HOUSE_NO":"１６號","E_COORD97":166091.88,"N_COORD97":2536167.1400000001,"ADDRESS":"灣裡路４００巷１６號","OBJECTID":341098},"geometry":{"x":166091.88000000082,"y":2536167.1400000006}},{"attributes":{"ID":341108,"DIS_CODE":0,"TOWNNAME":"南區","LI":"竹溪里","LIN":"1鄰","STREET":"健康路","SECT":"一段","MAREA":" ","LANE":"１１３巷","ALLEY":" ","HOUSE_NO":"８號","E_COORD97":168935.10000000001,"N_COORD97":2542375.1699999999,"ADDRESS":"健康路一段１１３巷８號","OBJECTID":341099},"geometry":{"x":168935.10000000056,"y":2542375.1700000037}},{"attributes":{"ID":341109,"DIS_CODE":0,"TOWNNAME":"南區","LI":"竹溪里","LIN":"1鄰","STREET":"健康路","SECT":"一段","MAREA":" ","LANE":"１１３巷","ALLEY":" ","HOUSE_NO":"１０號","E_COORD97":168935.51999999999,"N_COORD97":2542370.1699999999,"ADDRESS":"健康路一段１１３巷１０號","OBJECTID":341100},"geometry":{"x":168935.52000000048,"y":2542370.1700000018}},{"attributes":{"ID":341110,"DIS_CODE":0,"TOWNNAME":"南區","LI":"竹溪里","LIN":"1鄰","STREET":"健康路","SECT":"一段","MAREA":" ","LANE":"１１３巷","ALLEY":" ","HOUSE_NO":"１２號","E_COORD97":168936.76999999999,"N_COORD97":2542365.5899999999,"ADDRESS":"健康路一段１１３巷１２號","OBJECTID":341101},"geometry":{"x":168936.77000000048,"y":2542365.5900000036}},{"attributes":{"ID":341111,"DIS_CODE":0,"TOWNNAME":"南區","LI":"竹溪里","LIN":"1鄰","STREET":"健康路","SECT":"一段","MAREA":" ","LANE":"１１３巷","ALLEY":" ","HOUSE_NO":"１４號","E_COORD97":168936.35999999999,"N_COORD97":2542360.1699999999,"ADDRESS":"健康路一段１１３巷１４號","OBJECTID":341102},"geometry":{"x":168936.36000000034,"y":2542360.1699999999}},{"attributes":{"ID":341112,"DIS_CODE":0,"TOWNNAME":"南區","LI":"竹溪里","LIN":"1鄰","STREET":"健康路","SECT":"一段","MAREA":" ","LANE":"１１３巷","ALLEY":" ","HOUSE_NO":"１６號","E_COORD97":168935.51999999999,"N_COORD97":2542356.0099999998,"ADDRESS":"健康路一段１１３巷１６號","OBJECTID":341103},"geometry":{"x":168935.52000000048,"y":2542356.0100000035}},{"attributes":{"ID":341113,"DIS_CODE":0,"TOWNNAME":"南區","LI":"竹溪里","LIN":"1鄰","STREET":"健康路","SECT":"一段","MAREA":" ","LANE":"１１３巷","ALLEY":" ","HOUSE_NO":"１８號","E_COORD97":168934.26999999999,"N_COORD97":2542350.5899999999,"ADDRESS":"健康路一段１１３巷１８號","OBJECTID":341104},"geometry":{"x":168934.26999999955,"y":2542350.5899999999}},{"attributes":{"ID":341114,"DIS_CODE":0,"TOWNNAME":"南區","LI":"竹溪里","LIN":"1鄰","STREET":"健康路","SECT":"一段","MAREA":" ","LANE":"１１３巷","ALLEY":" ","HOUSE_NO":"２０號","E_COORD97":168933.85000000001,"N_COORD97":2542345.1699999999,"ADDRESS":"健康路一段１１３巷２０號","OBJECTID":341105},"geometry":{"x":168933.84999999963,"y":2542345.1700000018}},{"attributes":{"ID":341115,"DIS_CODE":0,"TOWNNAME":"南區","LI":"竹溪里","LIN":"1鄰","STREET":"健康路","SECT":"一段","MAREA":" ","LANE":"１１３巷","ALLEY":" ","HOUSE_NO":"２２號","E_COORD97":168933.44,"N_COORD97":2542339.3399999999,"ADDRESS":"健康路一段１１３巷２２號","OBJECTID":341106},"geometry":{"x":168933.44000000134,"y":2542339.3399999999}},{"attributes":{"ID":341116,"DIS_CODE":0,"TOWNNAME":"南區","LI":"竹溪里","LIN":"1鄰","STREET":"健康路","SECT":"一段","MAREA":" ","LANE":"１１３巷","ALLEY":" ","HOUSE_NO":"２６號","E_COORD97":168933.44,"N_COORD97":2542328.0899999999,"ADDRESS":"健康路一段１１３巷２６號","OBJECTID":341107},"geometry":{"x":168933.44000000134,"y":2542328.089999998}},{"attributes":{"ID":341117,"DIS_CODE":0,"TOWNNAME":"南區","LI":"竹溪里","LIN":"1鄰","STREET":"健康路","SECT":"一段","MAREA":" ","LANE":"１１３巷","ALLEY":" ","HOUSE_NO":"２８號","E_COORD97":168931.76999999999,"N_COORD97":2542324.3399999999,"ADDRESS":"健康路一段１１３巷２８號","OBJECTID":341108},"geometry":{"x":168931.77000000048,"y":2542324.3400000017}},{"attributes":{"ID":341118,"DIS_CODE":0,"TOWNNAME":"南區","LI":"竹溪里","LIN":"1鄰","STREET":"健康路","SECT":"一段","MAREA":" ","LANE":"１１３巷","ALLEY":" ","HOUSE_NO":"３０號","E_COORD97":168933.01999999999,"N_COORD97":2542319.3399999999,"ADDRESS":"健康路一段１１３巷３０號","OBJECTID":341109},"geometry":{"x":168933.01999999862,"y":2542319.3399999999}},{"attributes":{"ID":341119,"DIS_CODE":0,"TOWNNAME":"南區","LI":"竹溪里","LIN":"1鄰","STREET":"健康路","SECT":"一段","MAREA":" ","LANE":"１１３巷","ALLEY":" ","HOUSE_NO":"３２號","E_COORD97":168932.17999999999,"N_COORD97":2542311.8500000001,"ADDRESS":"健康路一段１１３巷３２號","OBJECTID":341110},"geometry":{"x":168932.18000000156,"y":2542311.8499999996}},{"attributes":{"ID":341120,"DIS_CODE":0,"TOWNNAME":"南區","LI":"竹溪里","LIN":"1鄰","STREET":"健康路","SECT":"一段","MAREA":" ","LANE":"１１３巷","ALLEY":" ","HOUSE_NO":"３４號","E_COORD97":168930.51999999999,"N_COORD97":2542304.7599999998,"ADDRESS":"健康路一段１１３巷３４號","OBJECTID":341111},"geometry":{"x":168930.52000000048,"y":2542304.7600000016}},{"attributes":{"ID":341121,"DIS_CODE":0,"TOWNNAME":"南區","LI":"竹溪里","LIN":"1鄰","STREET":"健康路","SECT":"一段","MAREA":" ","LANE":"１１３巷","ALLEY":" ","HOUSE_NO":"３６號","E_COORD97":168929.67999999999,"N_COORD97":2542296.8500000001,"ADDRESS":"健康路一段１１３巷３６號","OBJECTID":341112},"geometry":{"x":168929.68000000063,"y":2542296.8500000015}},{"attributes":{"ID":341122,"DIS_CODE":0,"TOWNNAME":"南區","LI":"竹溪里","LIN":"1鄰","STREET":"健康路","SECT":"一段","MAREA":" ","LANE":"１１３巷","ALLEY":" ","HOUSE_NO":"３８號","E_COORD97":168930.10000000001,"N_COORD97":2542291.8500000001,"ADDRESS":"健康路一段１１３巷３８號","OBJECTID":341113},"geometry":{"x":168930.10000000056,"y":2542291.8499999996}},{"attributes":{"ID":341123,"DIS_CODE":0,"TOWNNAME":"南區","LI":"竹溪里","LIN":"1鄰","STREET":"健康路","SECT":"一段","MAREA":" ","LANE":"１１３巷","ALLEY":" ","HOUSE_NO":"４０號","E_COORD97":168931.35000000001,"N_COORD97":2542288.52,"ADDRESS":"健康路一段１１３巷４０號","OBJECTID":341114},"geometry":{"x":168931.35000000056,"y":2542288.5200000014}},{"attributes":{"ID":341124,"DIS_CODE":0,"TOWNNAME":"安南區","LI":"\u25A0田里","LIN":"1鄰","STREET":"\u25A0田路","SECT":" ","MAREA":" ","LANE":"３２３巷","ALLEY":" ","HOUSE_NO":"１０號","E_COORD97":162024.55012999999,"N_COORD97":2548103.5951999999,"ADDRESS":"\u25A0田路３２３巷１０號","OBJECTID":341115},"geometry":{"x":162024.55013000127,"y":2548103.5952030029}},{"attributes":{"ID":341125,"DIS_CODE":0,"TOWNNAME":"安南區","LI":"\u25A0田里","LIN":"1鄰","STREET":"\u25A0田路","SECT":" ","MAREA":" ","LANE":"３２３巷","ALLEY":" ","HOUSE_NO":"１２號","E_COORD97":162027.09151299999,"N_COORD97":2548093.6468799999,"ADDRESS":"\u25A0田路３２３巷１２號","OBJECTID":341116},"geometry":{"x":162027.09151300136,"y":2548093.6468750015}},{"attributes":{"ID":341126,"DIS_CODE":0,"TOWNNAME":"安南區","LI":"\u25A0田里","LIN":"1鄰","STREET":"\u25A0田路","SECT":" ","MAREA":" ","LANE":"３２３巷","ALLEY":" ","HOUSE_NO":"１６號","E_COORD97":162029.632896,"N_COORD97":2548085.39188,"ADDRESS":"\u25A0田路３２３巷１６號","OBJECTID":341117},"geometry":{"x":162029.63289599959,"y":2548085.3918800019}},{"attributes":{"ID":341127,"DIS_CODE":0,"TOWNNAME":"安南區","LI":"\u25A0田里","LIN":"1鄰","STREET":"\u25A0田路","SECT":" ","MAREA":" ","LANE":"３２３巷","ALLEY":" ","HOUSE_NO":"１８號","E_COORD97":162030.90358700001,"N_COORD97":2548077.5602199999,"ADDRESS":"\u25A0田路３２３巷１８號","OBJECTID":341118},"geometry":{"x":162030.90358700044,"y":2548077.5602170024}},{"attributes":{"ID":341128,"DIS_CODE":0,"TOWNNAME":"安南區","LI":"\u25A0田里","LIN":"1鄰","STREET":"\u25A0田路","SECT":" ","MAREA":" ","LANE":"３２３巷","ALLEY":" ","HOUSE_NO":"２２號","E_COORD97":162034.927444,"N_COORD97":2548060.62689,"ADDRESS":"\u25A0田路３２３巷２２號","OBJECTID":341119},"geometry":{"x":162034.9274439998,"y":2548060.6268930025}},{"attributes":{"ID":341129,"DIS_CODE":0,"TOWNNAME":"安南區","LI":"\u25A0田里","LIN":"1鄰","STREET":"\u25A0田路","SECT":" ","MAREA":" ","LANE":"３２３巷","ALLEY":" ","HOUSE_NO":"２６號","E_COORD97":162035.81493699999,"N_COORD97":2548052.4616800002,"ADDRESS":"\u25A0田路３２３巷２６號","OBJECTID":341120},"geometry":{"x":162035.81493700109,"y":2548052.4616829995}},{"attributes":{"ID":341130,"DIS_CODE":0,"TOWNNAME":"將軍區","LI":"嘉昌里","LIN":"20鄰","STREET":" ","SECT":" ","MAREA":"昌平","LANE":" ","ALLEY":" ","HOUSE_NO":"７７號","E_COORD97":163340.32999999999,"N_COORD97":2567235.7000000002,"ADDRESS":"昌平７７號","OBJECTID":341121},"geometry":{"x":163340.33000000007,"y":2567235.6999999993}},{"attributes":{"ID":341131,"DIS_CODE":0,"TOWNNAME":"安南區","LI":"\u25A0田里","LIN":"1鄰","STREET":"\u25A0田路","SECT":" ","MAREA":" ","LANE":"３２９巷","ALLEY":" ","HOUSE_NO":"１號","E_COORD97":162000.23999999999,"N_COORD97":2548129.6899999999,"ADDRESS":"\u25A0田路３２９巷１號","OBJECTID":341122},"geometry":{"x":162000.24000000022,"y":2548129.6900000013}},{"attributes":{"ID":341132,"DIS_CODE":0,"TOWNNAME":"安南區","LI":"\u25A0田里","LIN":"1鄰","STREET":"\u25A0田路","SECT":" ","MAREA":" ","LANE":"３２３巷","ALLEY":" ","HOUSE_NO":"８號","E_COORD97":162023.27943900001,"N_COORD97":2548113.1201999998,"ADDRESS":"\u25A0田路３２３巷８號","OBJECTID":341123},"geometry":{"x":162023.27943900134,"y":2548113.1201980021}},{"attributes":{"ID":341133,"DIS_CODE":0,"TOWNNAME":"安南區","LI":"\u25A0田里","LIN":"1鄰","STREET":"\u25A0田路","SECT":" ","MAREA":" ","LANE":"３２９巷","ALLEY":" ","HOUSE_NO":"１１號","E_COORD97":162004.87,"N_COORD97":2548087.2200000002,"ADDRESS":"\u25A0田路３２９巷１１號","OBJECTID":341124},"geometry":{"x":162004.87000000197,"y":2548087.2200000007}},{"attributes":{"ID":341134,"DIS_CODE":0,"TOWNNAME":"安南區","LI":"\u25A0田里","LIN":"1鄰","STREET":"\u25A0田路","SECT":" ","MAREA":" ","LANE":"３２９巷","ALLEY":" ","HOUSE_NO":"１３號","E_COORD97":162006.06,"N_COORD97":2548079.02,"ADDRESS":"\u25A0田路３２９巷１３號","OBJECTID":341125},"geometry":{"x":162006.05999999959,"y":2548079.0200000014}},{"attributes":{"ID":341135,"DIS_CODE":0,"TOWNNAME":"安南區","LI":"\u25A0田里","LIN":"1鄰","STREET":"\u25A0田路","SECT":" ","MAREA":" ","LANE":"３２９巷","ALLEY":" ","HOUSE_NO":"１７號","E_COORD97":162010.17000000001,"N_COORD97":2548063.6699999999,"ADDRESS":"\u25A0田路３２９巷１７號","OBJECTID":341126},"geometry":{"x":162010.17000000086,"y":2548063.6699999999}},{"attributes":{"ID":341136,"DIS_CODE":0,"TOWNNAME":"安南區","LI":"\u25A0田里","LIN":"1鄰","STREET":"\u25A0田路","SECT":" ","MAREA":" ","LANE":"３２９巷","ALLEY":" ","HOUSE_NO":"１９號","E_COORD97":162012.94,"N_COORD97":2548051.2400000002,"ADDRESS":"\u25A0田路３２９巷１９號","OBJECTID":341127},"geometry":{"x":162012.94000000041,"y":2548051.2400000021}},{"attributes":{"ID":341137,"DIS_CODE":0,"TOWNNAME":"安南區","LI":"\u25A0田里","LIN":"1鄰","STREET":"\u25A0田路","SECT":" ","MAREA":" ","LANE":"３２９巷","ALLEY":" ","HOUSE_NO":"７號","E_COORD97":162002.10000000001,"N_COORD97":2548104.1499999999,"ADDRESS":"\u25A0田路３２９巷７號","OBJECTID":341128},"geometry":{"x":162002.09999999963,"y":2548104.1500000004}},{"attributes":{"ID":341138,"DIS_CODE":0,"TOWNNAME":"安南區","LI":"\u25A0田里","LIN":"1鄰","STREET":"\u25A0田路","SECT":" ","MAREA":" ","LANE":"３２９巷","ALLEY":" ","HOUSE_NO":"１５號","E_COORD97":162008.17999999999,"N_COORD97":2548071.8799999999,"ADDRESS":"\u25A0田路３２９巷１５號","OBJECTID":341129},"geometry":{"x":162008.18000000063,"y":2548071.8799999971}},{"attributes":{"ID":341139,"DIS_CODE":0,"TOWNNAME":"仁德區","LI":"仁義里","LIN":"1鄰","STREET":"中山路","SECT":" ","MAREA":" ","LANE":"７７巷","ALLEY":" ","HOUSE_NO":"１號","E_COORD97":175054.921737,"N_COORD97":2541041.8215999999,"ADDRESS":"中山路７７巷１號","OBJECTID":341130},"geometry":{"x":175054.92173700221,"y":2541041.8215989992}},{"attributes":{"ID":341140,"DIS_CODE":0,"TOWNNAME":"仁德區","LI":"大甲里","LIN":"1鄰","STREET":"行大一街","SECT":" ","MAREA":" ","LANE":"７０巷","ALLEY":" ","HOUSE_NO":"４８號","E_COORD97":169953.56,"N_COORD97":2535060.25,"ADDRESS":"行大一街７０巷４８號","OBJECTID":341131},"geometry":{"x":169953.56000000052,"y":2535060.25}},{"attributes":{"ID":341141,"DIS_CODE":0,"TOWNNAME":"仁德區","LI":"田厝里","LIN":"1鄰","STREET":"保安路","SECT":"二段","MAREA":" ","LANE":"６３０巷","ALLEY":" ","HOUSE_NO":"５０號","E_COORD97":172780.32000000001,"N_COORD97":2537464.4199999999,"ADDRESS":"保安路二段６３０巷５０號","OBJECTID":341132},"geometry":{"x":172780.32000000123,"y":2537464.4200000037}},{"attributes":{"ID":341142,"DIS_CODE":0,"TOWNNAME":"仁德區","LI":"成功里","LIN":"1鄰","STREET":"保生東路","SECT":" ","MAREA":" ","LANE":"１３８巷","ALLEY":" ","HOUSE_NO":"９號","E_COORD97":171221.53,"N_COORD97":2539587.6899999999,"ADDRESS":"保生東路１３８巷９號","OBJECTID":341133},"geometry":{"x":171221.53000000026,"y":2539587.6900000032}},{"attributes":{"ID":341143,"DIS_CODE":0,"TOWNNAME":"仁德區","LI":"田厝里","LIN":"1鄰","STREET":"保安路","SECT":"二段","MAREA":" ","LANE":"６３０巷","ALLEY":" ","HOUSE_NO":"２９號","E_COORD97":172798.95000000001,"N_COORD97":2537506.8199999998,"ADDRESS":"保安路二段６３０巷２９號","OBJECTID":341134},"geometry":{"x":172798.95000000019,"y":2537506.8200000022}},{"attributes":{"ID":341144,"DIS_CODE":0,"TOWNNAME":"仁德區","LI":"保安里","LIN":"1鄰","STREET":"文賢路","SECT":"一段","MAREA":" ","LANE":"５２９巷","ALLEY":" ","HOUSE_NO":"３號","E_COORD97":171147.84,"N_COORD97":2537049.3199999998,"ADDRESS":"文賢路一段５２９巷３號","OBJECTID":341135},"geometry":{"x":171147.83999999985,"y":2537049.3200000022}},{"attributes":{"ID":341145,"DIS_CODE":0,"TOWNNAME":"仁德區","LI":"田厝里","LIN":"1鄰","STREET":"保安路","SECT":"二段","MAREA":" ","LANE":"６３０巷","ALLEY":" ","HOUSE_NO":"２１號","E_COORD97":172796.70999999999,"N_COORD97":2537522.3199999998,"ADDRESS":"保安路二段６３０巷２１號","OBJECTID":341136},"geometry":{"x":172796.70999999996,"y":2537522.3200000003}},{"attributes":{"ID":341146,"DIS_CODE":0,"TOWNNAME":"仁德區","LI":"成功里","LIN":"1鄰","STREET":"保生東路","SECT":" ","MAREA":" ","LANE":"１３８巷","ALLEY":" ","HOUSE_NO":"２６號","E_COORD97":171247.54000000001,"N_COORD97":2539573.8100000001,"ADDRESS":"保生東路１３８巷２６號","OBJECTID":341137},"geometry":{"x":171247.5400000019,"y":2539573.8100000005}},{"attributes":{"ID":341147,"DIS_CODE":0,"TOWNNAME":"仁德區","LI":"上崙里","LIN":"1鄰","STREET":"德崙路","SECT":" ","MAREA":" ","LANE":"２３１巷","ALLEY":" ","HOUSE_NO":"８１號","E_COORD97":173741.73999999999,"N_COORD97":2538340.77,"ADDRESS":"德崙路２３１巷８１號","OBJECTID":341138},"geometry":{"x":173741.74000000209,"y":2538340.7700000014}},{"attributes":{"ID":341148,"DIS_CODE":0,"TOWNNAME":"仁德區","LI":"仁德里","LIN":"1鄰","STREET":"中正路","SECT":"二段","MAREA":" ","LANE":"６７９巷","ALLEY":" ","HOUSE_NO":"１１號","E_COORD97":173379.38,"N_COORD97":2540040.02,"ADDRESS":"中正路二段６７９巷１１號","OBJECTID":341139},"geometry":{"x":173379.38000000082,"y":2540040.0200000033}},{"attributes":{"ID":341149,"DIS_CODE":0,"TOWNNAME":"仁德區","LI":"仁義里","LIN":"1鄰","STREET":"義林路","SECT":" ","MAREA":" ","LANE":"１６８巷","ALLEY":" ","HOUSE_NO":"５５號","E_COORD97":174605,"N_COORD97":2541015.2599999998,"ADDRESS":"義林路１６８巷５５號","OBJECTID":341140},"geometry":{"x":174605.00000000093,"y":2541015.2600000016}},{"attributes":{"ID":341150,"DIS_CODE":0,"TOWNNAME":"仁德區","LI":"仁義里","LIN":"1鄰","STREET":"中山路","SECT":" ","MAREA":" ","LANE":"１４３巷","ALLEY":" ","HOUSE_NO":"１號","E_COORD97":174644.73000000001,"N_COORD97":2541118.9900000002,"ADDRESS":"中山路１４３巷１號","OBJECTID":341141},"geometry":{"x":174644.73000000045,"y":2541118.9900000039}},{"attributes":{"ID":341151,"DIS_CODE":0,"TOWNNAME":"仁德區","LI":"仁義里","LIN":"1鄰","STREET":"中山路","SECT":" ","MAREA":" ","LANE":"９５巷","ALLEY":" ","HOUSE_NO":"８號之１","E_COORD97":174871.98999999999,"N_COORD97":2540911.79,"ADDRESS":"中山路９５巷８號之１","OBJECTID":341142},"geometry":{"x":174871.99000000022,"y":2540911.7899999991}},{"attributes":{"ID":341152,"DIS_CODE":0,"TOWNNAME":"仁德區","LI":"新田里","LIN":"1鄰","STREET":"新田二街","SECT":" ","MAREA":" ","LANE":"１３８巷","ALLEY":" ","HOUSE_NO":"３０號","E_COORD97":175020.87,"N_COORD97":2540020.6200000001,"ADDRESS":"新田二街１３８巷３０號","OBJECTID":341143},"geometry":{"x":175020.87000000104,"y":2540020.6200000048}},{"attributes":{"ID":341153,"DIS_CODE":0,"TOWNNAME":"仁德區","LI":"大甲里","LIN":"1鄰","STREET":"行大一街","SECT":" ","MAREA":" ","LANE":"７０巷","ALLEY":" ","HOUSE_NO":"７８號","E_COORD97":169892.5,"N_COORD97":2535053,"ADDRESS":"行大一街７０巷７８號","OBJECTID":341144},"geometry":{"x":169892.5,"y":2535053}},{"attributes":{"ID":341154,"DIS_CODE":0,"TOWNNAME":"永康區","LI":"永康里","LIN":"1鄰","STREET":"永埔街","SECT":" ","MAREA":" ","LANE":"３３巷","ALLEY":" ","HOUSE_NO":"２７號","E_COORD97":173929.25,"N_COORD97":2547501.2400000002,"ADDRESS":"永埔街３３巷２７號","OBJECTID":341145},"geometry":{"x":173929.25,"y":2547501.2399999984}},{"attributes":{"ID":341155,"DIS_CODE":0,"TOWNNAME":"永康區","LI":"東橋里","LIN":"1鄰","STREET":"中山南路","SECT":" ","MAREA":" ","LANE":"１９５巷","ALLEY":" ","HOUSE_NO":"９０號","E_COORD97":171322.09,"N_COORD97":2546576.7799999998,"ADDRESS":"中山南路１９５巷９０號","OBJECTID":341146},"geometry":{"x":171322.09000000078,"y":2546576.7799999993}},{"attributes":{"ID":341156,"DIS_CODE":0,"TOWNNAME":"永康區","LI":"烏竹里","LIN":"1鄰","STREET":"烏竹北街","SECT":" ","MAREA":" ","LANE":"９８巷","ALLEY":" ","HOUSE_NO":"２９號","E_COORD97":174467.76999999999,"N_COORD97":2549575.98,"ADDRESS":"烏竹北街９８巷２９號","OBJECTID":341147},"geometry":{"x":174467.76999999955,"y":2549575.9800000023}},{"attributes":{"ID":341157,"DIS_CODE":0,"TOWNNAME":"永康區","LI":"新樹里","LIN":"1鄰","STREET":"富強路","SECT":"二段","MAREA":" ","LANE":"２９８巷","ALLEY":" ","HOUSE_NO":"２９號","E_COORD97":175712.35999999999,"N_COORD97":2547509.0499999998,"ADDRESS":"富強路二段２９８巷２９號","OBJECTID":341148},"geometry":{"x":175712.3599999994,"y":2547509.0500000007}},{"attributes":{"ID":341158,"DIS_CODE":0,"TOWNNAME":"永康區","LI":"王行里","LIN":"1鄰","STREET":"王行路","SECT":" ","MAREA":" ","LANE":"２２４巷","ALLEY":" ","HOUSE_NO":"１４號","E_COORD97":175692.48000000001,"N_COORD97":2548170.3700000001,"ADDRESS":"王行路２２４巷１４號","OBJECTID":341149},"geometry":{"x":175692.48000000045,"y":2548170.3700000029}},{"attributes":{"ID":341159,"DIS_CODE":0,"TOWNNAME":"永康區","LI":"三民里","LIN":"1鄰","STREET":"三民街","SECT":" ","MAREA":" ","LANE":"７１巷","ALLEY":" ","HOUSE_NO":"１６號","E_COORD97":172833.22,"N_COORD97":2550223.1200000001,"ADDRESS":"三民街７１巷１６號","OBJECTID":341150},"geometry":{"x":172833.22000000067,"y":2550223.1200000029}},{"attributes":{"ID":341160,"DIS_CODE":0,"TOWNNAME":"永康區","LI":"尚頂里","LIN":"1鄰","STREET":"中正南路","SECT":" ","MAREA":" ","LANE":"３０６巷","ALLEY":" ","HOUSE_NO":"３５號","E_COORD97":170799.48999999999,"N_COORD97":2547681.9100000001,"ADDRESS":"中正南路３０６巷３５號","OBJECTID":341151},"geometry":{"x":170799.49000000115,"y":2547681.9100000001}},{"attributes":{"ID":341161,"DIS_CODE":0,"TOWNNAME":"永康區","LI":"尚頂里","LIN":"1鄰","STREET":"尚頂路","SECT":" ","MAREA":" ","LANE":"１７７巷","ALLEY":" ","HOUSE_NO":"２號","E_COORD97":170752.26000000001,"N_COORD97":2547868.7799999998,"ADDRESS":"尚頂路１７７巷２號","OBJECTID":341152},"geometry":{"x":170752.25999999885,"y":2547868.7799999993}},{"attributes":{"ID":341162,"DIS_CODE":0,"TOWNNAME":"永康區","LI":"建國里","LIN":"1鄰","STREET":"復興路","SECT":" ","MAREA":" ","LANE":"２６巷","ALLEY":" ","HOUSE_NO":"２７號","E_COORD97":173059.76999999999,"N_COORD97":2544558.7200000002,"ADDRESS":"復興路２６巷２７號","OBJECTID":341153},"geometry":{"x":173059.77000000048,"y":2544558.7200000007}},{"attributes":{"ID":341163,"DIS_CODE":0,"TOWNNAME":"永康區","LI":"二王里","LIN":"1鄰","STREET":"中山南路","SECT":" ","MAREA":" ","LANE":"９０２巷","ALLEY":" ","HOUSE_NO":"５號","E_COORD97":173034.42000000001,"N_COORD97":2546846.23,"ADDRESS":"中山南路９０２巷５號","OBJECTID":341154},"geometry":{"x":173034.41999999993,"y":2546846.2300000004}},{"attributes":{"ID":341164,"DIS_CODE":0,"TOWNNAME":"永康區","LI":"建國里","LIN":"1鄰","STREET":"復興路","SECT":" ","MAREA":" ","LANE":"２６巷","ALLEY":" ","HOUSE_NO":"７４之１２號","E_COORD97":173176.72,"N_COORD97":2544967,"ADDRESS":"復興路２６巷７４之１２號","OBJECTID":341155},"geometry":{"x":173176.7200000016,"y":2544967.0000000037}},{"attributes":{"ID":341165,"DIS_CODE":0,"TOWNNAME":"永康區","LI":"北灣里","LIN":"1鄰","STREET":"大灣路","SECT":" ","MAREA":" ","LANE":"１１９巷","ALLEY":" ","HOUSE_NO":"２８號","E_COORD97":175202.07999999999,"N_COORD97":2545494.8100000001,"ADDRESS":"大灣路１１９巷２８號","OBJECTID":341156},"geometry":{"x":175202.08000000194,"y":2545494.8100000024}},{"attributes":{"ID":341166,"DIS_CODE":0,"TOWNNAME":"永康區","LI":"建國里","LIN":"1鄰","STREET":"復興路","SECT":" ","MAREA":" ","LANE":"２６巷","ALLEY":" ","HOUSE_NO":"５４號","E_COORD97":173129.85999999999,"N_COORD97":2544613.27,"ADDRESS":"復興路２６巷５４號","OBJECTID":341157},"geometry":{"x":173129.86000000034,"y":2544613.2700000014}},{"attributes":{"ID":341167,"DIS_CODE":0,"TOWNNAME":"永康區","LI":"勝利里","LIN":"1鄰","STREET":"勝利街","SECT":" ","MAREA":" ","LANE":"２巷","ALLEY":" ","HOUSE_NO":"１號之５","E_COORD97":171119.03,"N_COORD97":2544657.2999999998,"ADDRESS":"勝利街２巷１號之５","OBJECTID":341158},"geometry":{"x":171119.03000000212,"y":2544657.3000000026}},{"attributes":{"ID":341168,"DIS_CODE":0,"TOWNNAME":"永康區","LI":"西灣里","LIN":"1鄰","STREET":"大灣路","SECT":" ","MAREA":" ","LANE":"４０６巷","ALLEY":" ","HOUSE_NO":"４６號","E_COORD97":174689.29000000001,"N_COORD97":2545058.5,"ADDRESS":"大灣路４０６巷４６號","OBJECTID":341159},"geometry":{"x":174689.29000000097,"y":2545058.5000000037}},{"attributes":{"ID":341169,"DIS_CODE":0,"TOWNNAME":"永康區","LI":"王行里","LIN":"1鄰","STREET":"中山北路","SECT":" ","MAREA":" ","LANE":"４９９巷","ALLEY":" ","HOUSE_NO":"２２號","E_COORD97":175232.89000000001,"N_COORD97":2548162.23,"ADDRESS":"中山北路４９９巷２２號","OBJECTID":341160},"geometry":{"x":175232.88999999966,"y":2548162.2300000004}},{"attributes":{"ID":341170,"DIS_CODE":0,"TOWNNAME":"永康區","LI":"新樹里","LIN":"1鄰","STREET":"富強路","SECT":"二段","MAREA":" ","LANE":"２７８巷","ALLEY":" ","HOUSE_NO":"１１號","E_COORD97":175681.34,"N_COORD97":2547437.6099999999,"ADDRESS":"富強路二段２７８巷１１號","OBJECTID":341161},"geometry":{"x":175681.33999999985,"y":2547437.6100000013}},{"attributes":{"ID":341171,"DIS_CODE":0,"TOWNNAME":"永康區","LI":"建國里","LIN":"1鄰","STREET":"復興路","SECT":" ","MAREA":" ","LANE":"２６巷","ALLEY":" ","HOUSE_NO":"７４之１４號","E_COORD97":173177.06,"N_COORD97":2544953.7400000002,"ADDRESS":"復興路２６巷７４之１４號","OBJECTID":341162},"geometry":{"x":173177.05999999959,"y":2544953.7400000002}},{"attributes":{"ID":341172,"DIS_CODE":0,"TOWNNAME":"永康區","LI":"尚頂里","LIN":"1鄰","STREET":"中正南路","SECT":" ","MAREA":" ","LANE":"３０６巷","ALLEY":" ","HOUSE_NO":"５號","E_COORD97":170709.28,"N_COORD97":2547858.5299999998,"ADDRESS":"中正南路３０６巷５號","OBJECTID":341163},"geometry":{"x":170709.28000000119,"y":2547858.5300000012}},{"attributes":{"ID":341173,"DIS_CODE":0,"TOWNNAME":"永康區","LI":"東橋里","LIN":"1鄰","STREET":"中山南路","SECT":" ","MAREA":" ","LANE":"１９５巷","ALLEY":" ","HOUSE_NO":"７８號","E_COORD97":171358.70999999999,"N_COORD97":2546549.79,"ADDRESS":"中山南路１９５巷７８號","OBJECTID":341164},"geometry":{"x":171358.71000000089,"y":2546549.7899999991}},{"attributes":{"ID":341174,"DIS_CODE":0,"TOWNNAME":"永康區","LI":"神洲里","LIN":"1鄰","STREET":"忠孝路","SECT":" ","MAREA":" ","LANE":"６巷","ALLEY":" ","HOUSE_NO":"１０號","E_COORD97":172130.59,"N_COORD97":2544568,"ADDRESS":"忠孝路６巷１０號","OBJECTID":341165},"geometry":{"x":172130.59000000078,"y":2544568.0000000019}},{"attributes":{"ID":341175,"DIS_CODE":0,"TOWNNAME":"永康區","LI":"埔園里","LIN":"1鄰","STREET":"埔聖街","SECT":" ","MAREA":" ","LANE":"８１巷","ALLEY":" ","HOUSE_NO":"２７號","E_COORD97":174067.5,"N_COORD97":2547696.8900000001,"ADDRESS":"埔聖街８１巷２７號","OBJECTID":341166},"geometry":{"x":174067.50000000093,"y":2547696.8900000006}},{"attributes":{"ID":341176,"DIS_CODE":0,"TOWNNAME":"永康區","LI":"烏竹里","LIN":"1鄰","STREET":"烏竹北街","SECT":" ","MAREA":" ","LANE":"９８巷","ALLEY":" ","HOUSE_NO":"５１號","E_COORD97":174499.35000000001,"N_COORD97":2549598.4900000002,"ADDRESS":"烏竹北街９８巷５１號","OBJECTID":341167},"geometry":{"x":174499.34999999963,"y":2549598.4900000039}},{"attributes":{"ID":341177,"DIS_CODE":0,"TOWNNAME":"永康區","LI":"神洲里","LIN":"1鄰","STREET":"忠孝路","SECT":" ","MAREA":" ","LANE":"６巷","ALLEY":" ","HOUSE_NO":"１４號","E_COORD97":172147.09,"N_COORD97":2544567.5,"ADDRESS":"忠孝路６巷１４號","OBJECTID":341168},"geometry":{"x":172147.09000000171,"y":2544567.5000000019}},{"attributes":{"ID":341178,"DIS_CODE":0,"TOWNNAME":"永康區","LI":"埔園里","LIN":"1鄰","STREET":"埔聖街","SECT":" ","MAREA":" ","LANE":"８１巷","ALLEY":" ","HOUSE_NO":"１７號","E_COORD97":174078.09,"N_COORD97":2547678.1400000001,"ADDRESS":"埔聖街８１巷１７號","OBJECTID":341169},"geometry":{"x":174078.09000000078,"y":2547678.1400000006}},{"attributes":{"ID":341179,"DIS_CODE":0,"TOWNNAME":"南區","LI":"明亮里","LIN":"1鄰","STREET":"金華路","SECT":"一段","MAREA":" ","LANE":"２７２巷","ALLEY":" ","HOUSE_NO":"１號","E_COORD97":167012.92000000001,"N_COORD97":2540977.2999999998,"ADDRESS":"金華路一段２７２巷１號","OBJECTID":341170},"geometry":{"x":167012.91999999993,"y":2540977.3000000007}},{"attributes":{"ID":341180,"DIS_CODE":0,"TOWNNAME":"南區","LI":"明亮里","LIN":"1鄰","STREET":"金華路","SECT":"一段","MAREA":" ","LANE":"２７２巷","ALLEY":" ","HOUSE_NO":"２號","E_COORD97":167012.14000000001,"N_COORD97":2540967.9199999999,"ADDRESS":"金華路一段２７２巷２號","OBJECTID":341171},"geometry":{"x":167012.1400000006,"y":2540967.9200000018}},{"attributes":{"ID":341181,"DIS_CODE":0,"TOWNNAME":"南區","LI":"明亮里","LIN":"1鄰","STREET":"金華路","SECT":"一段","MAREA":" ","LANE":"２７２巷","ALLEY":" ","HOUSE_NO":"３號","E_COORD97":167012.14000000001,"N_COORD97":2540981.4700000002,"ADDRESS":"金華路一段２７２巷３號","OBJECTID":341172},"geometry":{"x":167012.1400000006,"y":2540981.4700000025}},{"attributes":{"ID":341182,"DIS_CODE":0,"TOWNNAME":"南區","LI":"明亮里","LIN":"1鄰","STREET":"金華路","SECT":"一段","MAREA":" ","LANE":"２７２巷","ALLEY":" ","HOUSE_NO":"４號","E_COORD97":167012.14000000001,"N_COORD97":2540964.5299999998,"ADDRESS":"金華路一段２７２巷４號","OBJECTID":341173},"geometry":{"x":167012.1400000006,"y":2540964.5299999993}},{"attributes":{"ID":341183,"DIS_CODE":0,"TOWNNAME":"南區","LI":"明亮里","LIN":"1鄰","STREET":"金華路","SECT":"一段","MAREA":" ","LANE":"２７２巷","ALLEY":" ","HOUSE_NO":"５號","E_COORD97":167013.17999999999,"N_COORD97":2540985.1200000001,"ADDRESS":"金華路一段２７２巷５號","OBJECTID":341174},"geometry":{"x":167013.17999999877,"y":2540985.120000001}},{"attributes":{"ID":341184,"DIS_CODE":0,"TOWNNAME":"南區","LI":"明亮里","LIN":"1鄰","STREET":"金華路","SECT":"一段","MAREA":" ","LANE":"２７２巷","ALLEY":" ","HOUSE_NO":"６號","E_COORD97":167011.35000000001,"N_COORD97":2540960.6200000001,"ADDRESS":"金華路一段２７２巷６號","OBJECTID":341175},"geometry":{"x":167011.34999999963,"y":2540960.6200000029}},{"attributes":{"ID":341185,"DIS_CODE":0,"TOWNNAME":"南區","LI":"明亮里","LIN":"1鄰","STREET":"金華路","SECT":"一段","MAREA":" ","LANE":"２７２巷","ALLEY":" ","HOUSE_NO":"７號","E_COORD97":167013.70000000001,"N_COORD97":2540988.25,"ADDRESS":"金華路一段２７２巷７號","OBJECTID":341176},"geometry":{"x":167013.70000000205,"y":2540988.2500000037}},{"attributes":{"ID":341186,"DIS_CODE":0,"TOWNNAME":"南區","LI":"明亮里","LIN":"1鄰","STREET":"金華路","SECT":"一段","MAREA":" ","LANE":"２７２巷","ALLEY":" ","HOUSE_NO":"８號","E_COORD97":167010.04999999999,"N_COORD97":2540956.9700000002,"ADDRESS":"金華路一段２７２巷８號","OBJECTID":341177},"geometry":{"x":167010.04999999981,"y":2540956.9700000044}},{"attributes":{"ID":341187,"DIS_CODE":0,"TOWNNAME":"南區","LI":"明亮里","LIN":"1鄰","STREET":"金華路","SECT":"一段","MAREA":" ","LANE":"２７２巷","ALLEY":" ","HOUSE_NO":"９號","E_COORD97":167013.95999999999,"N_COORD97":2540993.2000000002,"ADDRESS":"金華路一段２７２巷９號","OBJECTID":341178},"geometry":{"x":167013.96000000089,"y":2540993.1999999993}},{"attributes":{"ID":341188,"DIS_CODE":0,"TOWNNAME":"南區","LI":"明亮里","LIN":"1鄰","STREET":"金華路","SECT":"一段","MAREA":" ","LANE":"２７２巷","ALLEY":" ","HOUSE_NO":"１１號","E_COORD97":167013.44,"N_COORD97":2540996.8500000001,"ADDRESS":"金華路一段２７２巷１１號","OBJECTID":341179},"geometry":{"x":167013.44000000041,"y":2540996.8499999996}},{"attributes":{"ID":341189,"DIS_CODE":0,"TOWNNAME":"南區","LI":"明亮里","LIN":"1鄰","STREET":"金華路","SECT":"一段","MAREA":" ","LANE":"２７２巷","ALLEY":" ","HOUSE_NO":"１３號","E_COORD97":167014.22,"N_COORD97":2541000.4900000002,"ADDRESS":"金華路一段２７２巷１３號","OBJECTID":341180},"geometry":{"x":167014.21999999974,"y":2541000.4900000039}},{"attributes":{"ID":341190,"DIS_CODE":0,"TOWNNAME":"南區","LI":"明亮里","LIN":"1鄰","STREET":"金華路","SECT":"一段","MAREA":" ","LANE":"２７２巷","ALLEY":" ","HOUSE_NO":"１４號","E_COORD97":167009.53,"N_COORD97":2540945.5,"ADDRESS":"金華路一段２７２巷１４號","OBJECTID":341181},"geometry":{"x":167009.53000000026,"y":2540945.5}},{"attributes":{"ID":341191,"DIS_CODE":0,"TOWNNAME":"南區","LI":"明亮里","LIN":"1鄰","STREET":"金華路","SECT":"一段","MAREA":" ","LANE":"２７２巷","ALLEY":" ","HOUSE_NO":"１５號","E_COORD97":167038.56,"N_COORD97":2541001.7799999998,"ADDRESS":"金華路一段２７２巷１５號","OBJECTID":341182},"geometry":{"x":167038.55999999959,"y":2541001.7800000012}},{"attributes":{"ID":341192,"DIS_CODE":0,"TOWNNAME":"南區","LI":"明亮里","LIN":"1鄰","STREET":"金華路","SECT":"一段","MAREA":" ","LANE":"２７２巷","ALLEY":" ","HOUSE_NO":"１５號之２","E_COORD97":167045,"N_COORD97":2541003.8300000001,"ADDRESS":"金華路一段２７２巷１５號之２","OBJECTID":341183},"geometry":{"x":167045,"y":2541003.8300000001}},{"attributes":{"ID":341193,"DIS_CODE":0,"TOWNNAME":"南區","LI":"明亮里","LIN":"1鄰","STREET":"金華路","SECT":"一段","MAREA":" ","LANE":"２７２巷","ALLEY":" ","HOUSE_NO":"１５號之３","E_COORD97":167051.95999999999,"N_COORD97":2541013.0899999999,"ADDRESS":"金華路一段２７２巷１５號之３","OBJECTID":341184},"geometry":{"x":167051.95999999996,"y":2541013.0900000036}},{"attributes":{"ID":341194,"DIS_CODE":0,"TOWNNAME":"南區","LI":"明亮里","LIN":"1鄰","STREET":"金華路","SECT":"一段","MAREA":" ","LANE":"２７２巷","ALLEY":" ","HOUSE_NO":"１６號","E_COORD97":167008.73999999999,"N_COORD97":2540941.6000000001,"ADDRESS":"金華路一段２７２巷１６號","OBJECTID":341185},"geometry":{"x":167008.74000000115,"y":2540941.6000000015}},{"attributes":{"ID":341195,"DIS_CODE":0,"TOWNNAME":"南區","LI":"明亮里","LIN":"1鄰","STREET":"金華路","SECT":"一段","MAREA":" ","LANE":"２７２巷","ALLEY":" ","HOUSE_NO":"１７號","E_COORD97":167038.31,"N_COORD97":2540997.6600000001,"ADDRESS":"金華路一段２７２巷１７號","OBJECTID":341186},"geometry":{"x":167038.31000000052,"y":2540997.6600000001}},{"attributes":{"ID":341196,"DIS_CODE":0,"TOWNNAME":"南區","LI":"明亮里","LIN":"1鄰","STREET":"金華路","SECT":"一段","MAREA":" ","LANE":"２７２巷","ALLEY":" ","HOUSE_NO":"１９號","E_COORD97":167038.31,"N_COORD97":2540993.7999999998,"ADDRESS":"金華路一段２７２巷１９號","OBJECTID":341187},"geometry":{"x":167038.31000000052,"y":2540993.8000000007}},{"attributes":{"ID":341197,"DIS_CODE":0,"TOWNNAME":"南區","LI":"明亮里","LIN":"1鄰","STREET":"金華路","SECT":"一段","MAREA":" ","LANE":"２７２巷","ALLEY":" ","HOUSE_NO":"２１號","E_COORD97":167037.79000000001,"N_COORD97":2540989.6899999999,"ADDRESS":"金華路一段２７２巷２１號","OBJECTID":341188},"geometry":{"x":167037.79000000004,"y":2540989.6900000013}},{"attributes":{"ID":341198,"DIS_CODE":0,"TOWNNAME":"南區","LI":"明亮里","LIN":"1鄰","STREET":"金華路","SECT":"一段","MAREA":" ","LANE":"２７２巷","ALLEY":" ","HOUSE_NO":"２３號","E_COORD97":167036.67000000001,"N_COORD97":2540985.8999999999,"ADDRESS":"金華路一段２７２巷２３號","OBJECTID":341189},"geometry":{"x":167036.66999999993,"y":2540985.9000000004}},{"attributes":{"ID":341199,"DIS_CODE":0,"TOWNNAME":"南區","LI":"明亮里","LIN":"1鄰","STREET":"金華路","SECT":"一段","MAREA":" ","LANE":"２７２巷","ALLEY":" ","HOUSE_NO":"２５號","E_COORD97":167035.88,"N_COORD97":2540982.5099999998,"ADDRESS":"金華路一段２７２巷２５號","OBJECTID":341190},"geometry":{"x":167035.88000000175,"y":2540982.5099999979}},{"attributes":{"ID":341200,"DIS_CODE":0,"TOWNNAME":"南區","LI":"明亮里","LIN":"1鄰","STREET":"金華路","SECT":"一段","MAREA":" ","LANE":"２７２巷","ALLEY":" ","HOUSE_NO":"２７號","E_COORD97":167034.06,"N_COORD97":2540978.8599999999,"ADDRESS":"金華路一段２７２巷２７號","OBJECTID":341191},"geometry":{"x":167034.05999999959,"y":2540978.8599999994}},{"attributes":{"ID":341201,"DIS_CODE":0,"TOWNNAME":"南區","LI":"明亮里","LIN":"1鄰","STREET":"金華路","SECT":"一段","MAREA":" ","LANE":"２７２巷","ALLEY":" ","HOUSE_NO":"２９號","E_COORD97":167035.88,"N_COORD97":2540973.6499999999,"ADDRESS":"金華路一段２７２巷２９號","OBJECTID":341192},"geometry":{"x":167035.88000000175,"y":2540973.6500000022}},{"attributes":{"ID":341202,"DIS_CODE":0,"TOWNNAME":"南區","LI":"明亮里","LIN":"1鄰","STREET":"金華路","SECT":"一段","MAREA":" ","LANE":"２７２巷","ALLEY":" ","HOUSE_NO":"３１號","E_COORD97":167036.14999999999,"N_COORD97":2540970.52,"ADDRESS":"金華路一段２７２巷３１號","OBJECTID":341193},"geometry":{"x":167036.15000000224,"y":2540970.5200000014}},{"attributes":{"ID":341203,"DIS_CODE":0,"TOWNNAME":"南區","LI":"明亮里","LIN":"1鄰","STREET":"金華路","SECT":"一段","MAREA":" ","LANE":"２７２巷","ALLEY":" ","HOUSE_NO":"３３號","E_COORD97":167035.88,"N_COORD97":2540965.8300000001,"ADDRESS":"金華路一段２７２巷３３號","OBJECTID":341194},"geometry":{"x":167035.88000000175,"y":2540965.8300000001}},{"attributes":{"ID":341204,"DIS_CODE":0,"TOWNNAME":"南區","LI":"明亮里","LIN":"1鄰","STREET":"金華路","SECT":"一段","MAREA":" ","LANE":"２７２巷","ALLEY":" ","HOUSE_NO":"３５號","E_COORD97":167035.62,"N_COORD97":2540962.71,"ADDRESS":"金華路一段２７２巷３５號","OBJECTID":341195},"geometry":{"x":167035.62000000011,"y":2540962.7100000028}},{"attributes":{"ID":341205,"DIS_CODE":0,"TOWNNAME":"南區","LI":"明亮里","LIN":"1鄰","STREET":"金華路","SECT":"一段","MAREA":" ","LANE":"２７２巷","ALLEY":" ","HOUSE_NO":"３７號","E_COORD97":167036.41,"N_COORD97":2540957.75,"ADDRESS":"金華路一段２７２巷３７號","OBJECTID":341196},"geometry":{"x":167036.41000000108,"y":2540957.7500000037}},{"attributes":{"ID":341206,"DIS_CODE":0,"TOWNNAME":"南區","LI":"明亮里","LIN":"1鄰","STREET":"金華路","SECT":"一段","MAREA":" ","LANE":"２７２巷","ALLEY":" ","HOUSE_NO":"３９號","E_COORD97":167036.92999999999,"N_COORD97":2540954.3700000001,"ADDRESS":"金華路一段２７２巷３９號","OBJECTID":341197},"geometry":{"x":167036.92999999877,"y":2540954.3699999992}},{"attributes":{"ID":341207,"DIS_CODE":0,"TOWNNAME":"南區","LI":"明亮里","LIN":"1鄰","STREET":"金華路","SECT":"一段","MAREA":" ","LANE":"２７２巷","ALLEY":" ","HOUSE_NO":"４１號","E_COORD97":167037.45000000001,"N_COORD97":2540950.46,"ADDRESS":"金華路一段２７２巷４１號","OBJECTID":341198},"geometry":{"x":167037.45000000205,"y":2540950.4600000046}},{"attributes":{"ID":341208,"DIS_CODE":0,"TOWNNAME":"南區","LI":"明亮里","LIN":"1鄰","STREET":"金華路","SECT":"一段","MAREA":" ","LANE":"２７２巷","ALLEY":" ","HOUSE_NO":"４３號","E_COORD97":167037.70999999999,"N_COORD97":2540947.0699999998,"ADDRESS":"金華路一段２７２巷４３號","OBJECTID":341199},"geometry":{"x":167037.71000000089,"y":2540947.0700000022}},{"attributes":{"ID":341209,"DIS_CODE":0,"TOWNNAME":"南區","LI":"明亮里","LIN":"1鄰","STREET":"金華路","SECT":"一段","MAREA":" ","LANE":"２７２巷","ALLEY":" ","HOUSE_NO":"４５號","E_COORD97":167032.23000000001,"N_COORD97":2540943.9399999999,"ADDRESS":"金華路一段２７２巷４５號","OBJECTID":341200},"geometry":{"x":167032.22999999952,"y":2540943.9400000013}}]}