{"displayFieldName":"TOWNNAME","fieldAliases":{"ID":"ID","DIS_CODE":"DIS_CODE","TOWNNAME":"TOWNNAME","LI":"LI","LIN":"LIN","STREET":"STREET","SECT":"SECT","MAREA":"MAREA","LANE":"LANE","ALLEY":"ALLEY","HOUSE_NO":"HOUSE_NO","E_COORD97":"E_COORD97","N_COORD97":"N_COORD97","ADDRESS":"ADDRESS","OBJECTID":"OBJECTID"},"geometryType":"esriGeometryPoint","spatialReference":{"wkid":102443,"latestWkid":3826},"fields":[{"name":"ID","type":"esriFieldTypeDouble","alias":"ID"},{"name":"DIS_CODE","type":"esriFieldTypeInteger","alias":"DIS_CODE"},{"name":"TOWNNAME","type":"esriFieldTypeString","alias":"TOWNNAME","length":8},{"name":"LI","type":"esriFieldTypeString","alias":"LI","length":8},{"name":"LIN","type":"esriFieldTypeString","alias":"LIN","length":12},{"name":"STREET","type":"esriFieldTypeString","alias":"STREET","length":20},{"name":"SECT","type":"esriFieldTypeString","alias":"SECT","length":8},{"name":"MAREA","type":"esriFieldTypeString","alias":"MAREA","length":12},{"name":"LANE","type":"esriFieldTypeString","alias":"LANE","length":10},{"name":"ALLEY","type":"esriFieldTypeString","alias":"ALLEY","length":10},{"name":"HOUSE_NO","type":"esriFieldTypeString","alias":"HOUSE_NO","length":20},{"name":"E_COORD97","type":"esriFieldTypeDouble","alias":"E_COORD97"},{"name":"N_COORD97","type":"esriFieldTypeDouble","alias":"N_COORD97"},{"name":"ADDRESS","type":"esriFieldTypeString","alias":"ADDRESS","length":50},{"name":"OBJECTID","type":"esriFieldTypeOID","alias":"OBJECTID"}],"features":[{"attributes":{"ID":571228,"DIS_CODE":0,"TOWNNAME":"新營區","LI":"王公里","LIN":"22鄰","STREET":"大德街","SECT":" ","MAREA":" ","LANE":" ","ALLEY":" ","HOUSE_NO":"１２２號","E_COORD97":180456.03,"N_COORD97":2579482.3799999999,"ADDRESS":"大德街１２２號","OBJECTID":571201},"geometry":{"x":180456.03000000212,"y":2579482.379999999}},{"attributes":{"ID":571229,"DIS_CODE":0,"TOWNNAME":"善化區","LI":"光文里","LIN":"29鄰","STREET":"中正路","SECT":" ","MAREA":" ","LANE":" ","ALLEY":" ","HOUSE_NO":"７００號（該建物係為","E_COORD97":177813.56,"N_COORD97":2559925.75,"ADDRESS":"中正路７００號（該建物係為農業設施不得設籍）","OBJECTID":571202},"geometry":{"x":177813.55999999959,"y":2559925.75}},{"attributes":{"ID":571230,"DIS_CODE":0,"TOWNNAME":"善化區","LI":"光文里","LIN":"29鄰","STREET":"中正路","SECT":" ","MAREA":" ","LANE":" ","ALLEY":" ","HOUSE_NO":"５６２號","E_COORD97":177668.07999999999,"N_COORD97":2559318,"ADDRESS":"中正路５６２號","OBJECTID":571203},"geometry":{"x":177668.08000000007,"y":2559317.9999999981}},{"attributes":{"ID":571231,"DIS_CODE":0,"TOWNNAME":"善化區","LI":"光文里","LIN":"29鄰","STREET":"中正路","SECT":" ","MAREA":" ","LANE":" ","ALLEY":" ","HOUSE_NO":"６３４號","E_COORD97":177661.95000000001,"N_COORD97":2559456.5,"ADDRESS":"中正路６３４號","OBJECTID":571204},"geometry":{"x":177661.95000000112,"y":2559456.5}},{"attributes":{"ID":571232,"DIS_CODE":0,"TOWNNAME":"善化區","LI":"光文里","LIN":"29鄰","STREET":"中正路","SECT":" ","MAREA":" ","LANE":" ","ALLEY":" ","HOUSE_NO":"５４２之１號","E_COORD97":177675.60999999999,"N_COORD97":2559273.75,"ADDRESS":"中正路５４２之１號","OBJECTID":571205},"geometry":{"x":177675.61000000127,"y":2559273.7500000019}},{"attributes":{"ID":571233,"DIS_CODE":0,"TOWNNAME":"善化區","LI":"光文里","LIN":"29鄰","STREET":"中正路","SECT":" ","MAREA":" ","LANE":" ","ALLEY":" ","HOUSE_NO":"５３４號","E_COORD97":177677.10999999999,"N_COORD97":2559250.25,"ADDRESS":"中正路５３４號","OBJECTID":571206},"geometry":{"x":177677.1100000022,"y":2559250.2500000019}},{"attributes":{"ID":571234,"DIS_CODE":0,"TOWNNAME":"善化區","LI":"光文里","LIN":"29鄰","STREET":"中正路","SECT":" ","MAREA":" ","LANE":" ","ALLEY":" ","HOUSE_NO":"５２６號","E_COORD97":177678.57999999999,"N_COORD97":2559232.5,"ADDRESS":"中正路５２６號","OBJECTID":571207},"geometry":{"x":177678.58000000007,"y":2559232.5}},{"attributes":{"ID":571235,"DIS_CODE":0,"TOWNNAME":"仁德區","LI":"上崙里","LIN":"29鄰","STREET":"中正路","SECT":"一段","MAREA":" ","LANE":" ","ALLEY":" ","HOUSE_NO":"６１６號","E_COORD97":172813.42999999999,"N_COORD97":2537364.77,"ADDRESS":"中正路一段６１６號","OBJECTID":571208},"geometry":{"x":172813.4299999997,"y":2537364.7700000014}},{"attributes":{"ID":571236,"DIS_CODE":0,"TOWNNAME":"仁德區","LI":"上崙里","LIN":"29鄰","STREET":"中正路","SECT":"一段","MAREA":" ","LANE":" ","ALLEY":" ","HOUSE_NO":"３１７號","E_COORD97":172702.85000000001,"N_COORD97":2537097.7799999998,"ADDRESS":"中正路一段３１７號","OBJECTID":571209},"geometry":{"x":172702.85000000149,"y":2537097.7799999993}},{"attributes":{"ID":571237,"DIS_CODE":0,"TOWNNAME":"仁德區","LI":"後壁里","LIN":"29鄰","STREET":"德洋一街","SECT":" ","MAREA":" ","LANE":" ","ALLEY":" ","HOUSE_NO":"４０號","E_COORD97":173144.07000000001,"N_COORD97":2539182.77,"ADDRESS":"德洋一街４０號","OBJECTID":571210},"geometry":{"x":173144.0700000003,"y":2539182.7699999996}},{"attributes":{"ID":571238,"DIS_CODE":0,"TOWNNAME":"仁德區","LI":"土庫里","LIN":"15鄰","STREET":"土庫二街","SECT":" ","MAREA":" ","LANE":" ","ALLEY":" ","HOUSE_NO":"２號","E_COORD97":174404.94,"N_COORD97":2543041.2400000002,"ADDRESS":"土庫二街２號","OBJECTID":571211},"geometry":{"x":174404.94000000227,"y":2543041.2400000021}},{"attributes":{"ID":571239,"DIS_CODE":0,"TOWNNAME":"新營區","LI":"王公里","LIN":"22鄰","STREET":"大德街","SECT":" ","MAREA":" ","LANE":" ","ALLEY":" ","HOUSE_NO":"１２６號","E_COORD97":180451.25,"N_COORD97":2579498.6000000001,"ADDRESS":"大德街１２６號","OBJECTID":571212},"geometry":{"x":180451.25000000093,"y":2579498.5999999996}},{"attributes":{"ID":571240,"DIS_CODE":0,"TOWNNAME":"新營區","LI":"王公里","LIN":"22鄰","STREET":"大德街","SECT":" ","MAREA":" ","LANE":" ","ALLEY":" ","HOUSE_NO":"１２８號","E_COORD97":180455.57999999999,"N_COORD97":2579498.2799999998,"ADDRESS":"大德街１２８號","OBJECTID":571213},"geometry":{"x":180455.58000000194,"y":2579498.2799999993}},{"attributes":{"ID":571241,"DIS_CODE":0,"TOWNNAME":"新營區","LI":"王公里","LIN":"22鄰","STREET":"大德街","SECT":" ","MAREA":" ","LANE":" ","ALLEY":" ","HOUSE_NO":"１３０號","E_COORD97":180459.87,"N_COORD97":2579497.6800000002,"ADDRESS":"大德街１３０號","OBJECTID":571214},"geometry":{"x":180459.87000000011,"y":2579497.6800000016}},{"attributes":{"ID":571242,"DIS_CODE":0,"TOWNNAME":"新營區","LI":"王公里","LIN":"22鄰","STREET":"大德街","SECT":" ","MAREA":" ","LANE":" ","ALLEY":" ","HOUSE_NO":"８６號","E_COORD97":180406.81,"N_COORD97":2579504.1099999999,"ADDRESS":"大德街８６號","OBJECTID":571215},"geometry":{"x":180406.80999999959,"y":2579504.1100000013}},{"attributes":{"ID":571243,"DIS_CODE":0,"TOWNNAME":"新營區","LI":"王公里","LIN":"22鄰","STREET":"大德街","SECT":" ","MAREA":" ","LANE":" ","ALLEY":" ","HOUSE_NO":"８８號","E_COORD97":180411.98000000001,"N_COORD97":2579503.5,"ADDRESS":"大德街８８號","OBJECTID":571216},"geometry":{"x":180411.98000000045,"y":2579503.5}},{"attributes":{"ID":571244,"DIS_CODE":0,"TOWNNAME":"仁德區","LI":"仁義里","LIN":"52鄰","STREET":"仁義三街","SECT":" ","MAREA":" ","LANE":" ","ALLEY":" ","HOUSE_NO":"１８號","E_COORD97":173406.20999999999,"N_COORD97":2541054.77,"ADDRESS":"仁義三街１８號","OBJECTID":571217},"geometry":{"x":173406.21000000089,"y":2541054.7699999996}},{"attributes":{"ID":571245,"DIS_CODE":0,"TOWNNAME":"新化區","LI":"東榮里","LIN":"29鄰","STREET":"信義路","SECT":" ","MAREA":" ","LANE":" ","ALLEY":" ","HOUSE_NO":"１５７號之１","E_COORD97":179315.66,"N_COORD97":2548379.2599999998,"ADDRESS":"信義路１５７號之１","OBJECTID":571218},"geometry":{"x":179315.66000000015,"y":2548379.2600000016}},{"attributes":{"ID":571246,"DIS_CODE":0,"TOWNNAME":"官田區","LI":"隆本里","LIN":"29鄰","STREET":"中山路","SECT":"二段","MAREA":" ","LANE":" ","ALLEY":" ","HOUSE_NO":"５６號","E_COORD97":179049.10000000001,"N_COORD97":2565986.8799999999,"ADDRESS":"中山路二段５６號","OBJECTID":571219},"geometry":{"x":179049.09999999963,"y":2565986.8800000027}},{"attributes":{"ID":571247,"DIS_CODE":0,"TOWNNAME":"新營區","LI":"王公里","LIN":"22鄰","STREET":"大德街","SECT":" ","MAREA":" ","LANE":" ","ALLEY":" ","HOUSE_NO":"９６號","E_COORD97":180425.42999999999,"N_COORD97":2579501.73,"ADDRESS":"大德街９６號","OBJECTID":571220},"geometry":{"x":180425.4299999997,"y":2579501.7300000023}},{"attributes":{"ID":571248,"DIS_CODE":0,"TOWNNAME":"新營區","LI":"王公里","LIN":"22鄰","STREET":"大德街","SECT":" ","MAREA":" ","LANE":" ","ALLEY":" ","HOUSE_NO":"９８號","E_COORD97":180430.19,"N_COORD97":2579501.4199999999,"ADDRESS":"大德街９８號","OBJECTID":571221},"geometry":{"x":180430.19000000134,"y":2579501.4199999981}},{"attributes":{"ID":571249,"DIS_CODE":0,"TOWNNAME":"新營區","LI":"王公里","LIN":"22鄰","STREET":"民族路","SECT":" ","MAREA":" ","LANE":" ","ALLEY":" ","HOUSE_NO":"２３８號","E_COORD97":180389.26000000001,"N_COORD97":2579506.1099999999,"ADDRESS":"民族路２３８號","OBJECTID":571222},"geometry":{"x":180389.25999999978,"y":2579506.1099999994}},{"attributes":{"ID":571250,"DIS_CODE":0,"TOWNNAME":"永康區","LI":"西勢里","LIN":"29鄰","STREET":"西勢路","SECT":" ","MAREA":" ","LANE":" ","ALLEY":" ","HOUSE_NO":"１７０號","E_COORD97":175896.81,"N_COORD97":2546771.2799999998,"ADDRESS":"西勢路１７０號","OBJECTID":571223},"geometry":{"x":175896.81000000145,"y":2546771.2800000031}},{"attributes":{"ID":571251,"DIS_CODE":0,"TOWNNAME":"永康區","LI":"西勢里","LIN":"29鄰","STREET":"西勢路","SECT":" ","MAREA":" ","LANE":" ","ALLEY":" ","HOUSE_NO":"１５６號","E_COORD97":175938.26000000001,"N_COORD97":2546781.6600000001,"ADDRESS":"西勢路１５６號","OBJECTID":571224},"geometry":{"x":175938.26000000071,"y":2546781.6600000001}},{"attributes":{"ID":571252,"DIS_CODE":0,"TOWNNAME":"永康區","LI":"尚頂里","LIN":"29鄰","STREET":"南台街","SECT":" ","MAREA":" ","LANE":" ","ALLEY":" ","HOUSE_NO":"１０７號","E_COORD97":170149.42999999999,"N_COORD97":2547030.3599999999,"ADDRESS":"南台街１０７號","OBJECTID":571225},"geometry":{"x":170149.43000000156,"y":2547030.3599999994}},{"attributes":{"ID":571253,"DIS_CODE":0,"TOWNNAME":"永康區","LI":"西勢里","LIN":"29鄰","STREET":"西勢路","SECT":" ","MAREA":" ","LANE":" ","ALLEY":" ","HOUSE_NO":"１６２號","E_COORD97":175915.60000000001,"N_COORD97":2546773.5299999998,"ADDRESS":"西勢路１６２號","OBJECTID":571226},"geometry":{"x":175915.60000000056,"y":2546773.5300000012}},{"attributes":{"ID":571254,"DIS_CODE":0,"TOWNNAME":"永康區","LI":"西勢里","LIN":"29鄰","STREET":"西勢路","SECT":" ","MAREA":" ","LANE":" ","ALLEY":" ","HOUSE_NO":"１５０號","E_COORD97":175953.82000000001,"N_COORD97":2546785.71,"ADDRESS":"西勢路１５０號","OBJECTID":571227},"geometry":{"x":175953.82000000123,"y":2546785.7100000009}},{"attributes":{"ID":571255,"DIS_CODE":0,"TOWNNAME":"永康區","LI":"西勢里","LIN":"29鄰","STREET":"西勢路","SECT":" ","MAREA":" ","LANE":" ","ALLEY":" ","HOUSE_NO":"１６４號","E_COORD97":175910.95000000001,"N_COORD97":2546772.7799999998,"ADDRESS":"西勢路１６４號","OBJECTID":571228},"geometry":{"x":175910.95000000019,"y":2546772.7800000012}},{"attributes":{"ID":571256,"DIS_CODE":0,"TOWNNAME":"永康區","LI":"西勢里","LIN":"29鄰","STREET":"西勢路","SECT":" ","MAREA":" ","LANE":" ","ALLEY":" ","HOUSE_NO":"１４８號","E_COORD97":175959.41,"N_COORD97":2546785.96,"ADDRESS":"西勢路１４８號","OBJECTID":571229},"geometry":{"x":175959.41000000201,"y":2546785.9600000028}},{"attributes":{"ID":571257,"DIS_CODE":0,"TOWNNAME":"永康區","LI":"西勢里","LIN":"29鄰","STREET":"西勢路","SECT":" ","MAREA":" ","LANE":" ","ALLEY":" ","HOUSE_NO":"１５４號","E_COORD97":175942.92000000001,"N_COORD97":2546780.8199999998,"ADDRESS":"西勢路１５４號","OBJECTID":571230},"geometry":{"x":175942.92000000086,"y":2546780.8200000003}},{"attributes":{"ID":571258,"DIS_CODE":0,"TOWNNAME":"永康區","LI":"尚頂里","LIN":"29鄰","STREET":"南台街","SECT":" ","MAREA":" ","LANE":" ","ALLEY":" ","HOUSE_NO":"９９號","E_COORD97":170165.87,"N_COORD97":2547012.1000000001,"ADDRESS":"南台街９９號","OBJECTID":571231},"geometry":{"x":170165.87000000104,"y":2547012.0999999996}},{"attributes":{"ID":571259,"DIS_CODE":0,"TOWNNAME":"永康區","LI":"西灣里","LIN":"29鄰","STREET":"大勇路","SECT":" ","MAREA":" ","LANE":" ","ALLEY":" ","HOUSE_NO":"１６２號","E_COORD97":174303.41,"N_COORD97":2545930.54,"ADDRESS":"大勇路１６２號","OBJECTID":571232},"geometry":{"x":174303.41000000108,"y":2545930.5399999991}},{"attributes":{"ID":571260,"DIS_CODE":0,"TOWNNAME":"東區","LI":"崇文里","LIN":"29鄰","STREET":"崇德路","SECT":" ","MAREA":" ","LANE":" ","ALLEY":" ","HOUSE_NO":"７５５號","E_COORD97":170810.48000000001,"N_COORD97":2540895.0499999998,"ADDRESS":"崇德路７５５號","OBJECTID":571233},"geometry":{"x":170810.48000000045,"y":2540895.0500000007}},{"attributes":{"ID":571261,"DIS_CODE":0,"TOWNNAME":"東區","LI":"後甲里","LIN":"29鄰","STREET":"裕農路","SECT":" ","MAREA":" ","LANE":" ","ALLEY":" ","HOUSE_NO":"６７３號","E_COORD97":171782.07000000001,"N_COORD97":2543250.6899999999,"ADDRESS":"裕農路６７３號","OBJECTID":571234},"geometry":{"x":171782.07000000123,"y":2543250.6900000013}},{"attributes":{"ID":571262,"DIS_CODE":0,"TOWNNAME":"仁德區","LI":"仁義里","LIN":"45鄰","STREET":"仁義路","SECT":" ","MAREA":" ","LANE":" ","ALLEY":" ","HOUSE_NO":"９４號","E_COORD97":173603.59,"N_COORD97":2540955.52,"ADDRESS":"仁義路９４號","OBJECTID":571235},"geometry":{"x":173603.59000000078,"y":2540955.5200000033}},{"attributes":{"ID":571263,"DIS_CODE":0,"TOWNNAME":"西港區","LI":"慶安里","LIN":"29鄰","STREET":"慶安路","SECT":" ","MAREA":" ","LANE":" ","ALLEY":" ","HOUSE_NO":"１５９號","E_COORD97":168012.06,"N_COORD97":2557868.4700000002,"ADDRESS":"慶安路１５９號","OBJECTID":571236},"geometry":{"x":168012.05999999959,"y":2557868.4700000025}},{"attributes":{"ID":571264,"DIS_CODE":0,"TOWNNAME":"西港區","LI":"慶安里","LIN":"29鄰","STREET":"慶安路","SECT":" ","MAREA":" ","LANE":" ","ALLEY":" ","HOUSE_NO":"１６１號之１","E_COORD97":168003.39999999999,"N_COORD97":2557864.5,"ADDRESS":"慶安路１６１號之１","OBJECTID":571237},"geometry":{"x":168003.40000000037,"y":2557864.5000000019}},{"attributes":{"ID":571265,"DIS_CODE":0,"TOWNNAME":"西港區","LI":"慶安里","LIN":"29鄰","STREET":"慶安路","SECT":" ","MAREA":" ","LANE":" ","ALLEY":" ","HOUSE_NO":"１６１號之２","E_COORD97":168000,"N_COORD97":2557864.3199999998,"ADDRESS":"慶安路１６１號之２","OBJECTID":571238},"geometry":{"x":168000.00000000093,"y":2557864.3200000003}},{"attributes":{"ID":571266,"DIS_CODE":0,"TOWNNAME":"西港區","LI":"慶安里","LIN":"29鄰","STREET":"慶安路","SECT":" ","MAREA":" ","LANE":" ","ALLEY":" ","HOUSE_NO":"１６１號之３","E_COORD97":167995.47,"N_COORD97":2557864.4900000002,"ADDRESS":"慶安路１６１號之３","OBJECTID":571239},"geometry":{"x":167995.46999999974,"y":2557864.4900000021}},{"attributes":{"ID":571267,"DIS_CODE":0,"TOWNNAME":"西港區","LI":"慶安里","LIN":"29鄰","STREET":"慶安路","SECT":" ","MAREA":" ","LANE":" ","ALLEY":" ","HOUSE_NO":"１６１號","E_COORD97":168008.28,"N_COORD97":2557868.1699999999,"ADDRESS":"慶安路１６１號","OBJECTID":571240},"geometry":{"x":168008.28000000212,"y":2557868.1699999999}},{"attributes":{"ID":571268,"DIS_CODE":0,"TOWNNAME":"西港區","LI":"慶安里","LIN":"29鄰","STREET":"慶安路","SECT":" ","MAREA":" ","LANE":" ","ALLEY":" ","HOUSE_NO":"１６７號","E_COORD97":167971.07000000001,"N_COORD97":2557864.6299999999,"ADDRESS":"慶安路１６７號","OBJECTID":571241},"geometry":{"x":167971.07000000123,"y":2557864.629999999}},{"attributes":{"ID":571269,"DIS_CODE":0,"TOWNNAME":"西港區","LI":"慶安里","LIN":"29鄰","STREET":"慶安路","SECT":" ","MAREA":" ","LANE":" ","ALLEY":" ","HOUSE_NO":"１６９號","E_COORD97":167964.82000000001,"N_COORD97":2557863.8700000001,"ADDRESS":"慶安路１６９號","OBJECTID":571242},"geometry":{"x":167964.8200000003,"y":2557863.8700000029}},{"attributes":{"ID":571270,"DIS_CODE":0,"TOWNNAME":"西港區","LI":"慶安里","LIN":"29鄰","STREET":"慶安路","SECT":" ","MAREA":" ","LANE":" ","ALLEY":" ","HOUSE_NO":"１７５號","E_COORD97":167939.23999999999,"N_COORD97":2557864.4399999999,"ADDRESS":"慶安路１７５號","OBJECTID":571243},"geometry":{"x":167939.24000000115,"y":2557864.4400000013}},{"attributes":{"ID":571271,"DIS_CODE":0,"TOWNNAME":"南區","LI":"府南里","LIN":"29鄰","STREET":"大成路","SECT":"二段","MAREA":" ","LANE":" ","ALLEY":" ","HOUSE_NO":"３之５號","E_COORD97":167684.64000000001,"N_COORD97":2541726.0099999998,"ADDRESS":"大成路二段３之５號","OBJECTID":571244},"geometry":{"x":167684.63999999966,"y":2541726.0100000016}},{"attributes":{"ID":571272,"DIS_CODE":0,"TOWNNAME":"東區","LI":"後甲里","LIN":"29鄰","STREET":"裕農路","SECT":" ","MAREA":" ","LANE":" ","ALLEY":" ","HOUSE_NO":"６７１號","E_COORD97":171778.57999999999,"N_COORD97":2543250.4100000001,"ADDRESS":"裕農路６７１號","OBJECTID":571245},"geometry":{"x":171778.58000000101,"y":2543250.4100000001}},{"attributes":{"ID":571273,"DIS_CODE":0,"TOWNNAME":"東區","LI":"後甲里","LIN":"29鄰","STREET":"裕農路","SECT":" ","MAREA":" ","LANE":" ","ALLEY":" ","HOUSE_NO":"７０１號","E_COORD97":171845.92999999999,"N_COORD97":2543261.4100000001,"ADDRESS":"裕農路７０１號","OBJECTID":571246},"geometry":{"x":171845.9299999997,"y":2543261.4100000001}},{"attributes":{"ID":571274,"DIS_CODE":0,"TOWNNAME":"東區","LI":"後甲里","LIN":"29鄰","STREET":"裕農路","SECT":" ","MAREA":" ","LANE":" ","ALLEY":" ","HOUSE_NO":"６８５號","E_COORD97":171811.75,"N_COORD97":2543258.5,"ADDRESS":"裕農路６８５號","OBJECTID":571247},"geometry":{"x":171811.75,"y":2543258.5000000019}},{"attributes":{"ID":571275,"DIS_CODE":0,"TOWNNAME":"東區","LI":"後甲里","LIN":"29鄰","STREET":"裕農路","SECT":" ","MAREA":" ","LANE":" ","ALLEY":" ","HOUSE_NO":"６９５號","E_COORD97":171833.20999999999,"N_COORD97":2543260.8799999999,"ADDRESS":"裕農路６９５號","OBJECTID":571248},"geometry":{"x":171833.21000000089,"y":2543260.8799999971}},{"attributes":{"ID":571276,"DIS_CODE":0,"TOWNNAME":"善化區","LI":"光文里","LIN":"29鄰","STREET":"中山路","SECT":" ","MAREA":" ","LANE":" ","ALLEY":" ","HOUSE_NO":"３０４之２號","E_COORD97":177802.64000000001,"N_COORD97":2559118.52,"ADDRESS":"中山路３０４之２號","OBJECTID":571249},"geometry":{"x":177802.63999999966,"y":2559118.5200000014}},{"attributes":{"ID":571277,"DIS_CODE":0,"TOWNNAME":"官田區","LI":"隆本里","LIN":"29鄰","STREET":"和平街","SECT":"二段","MAREA":" ","LANE":" ","ALLEY":" ","HOUSE_NO":"１０號","E_COORD97":179482.69,"N_COORD97":2565912.8300000001,"ADDRESS":"和平街二段１０號","OBJECTID":571250},"geometry":{"x":179482.69000000134,"y":2565912.8300000001}},{"attributes":{"ID":571278,"DIS_CODE":0,"TOWNNAME":"仁德區","LI":"土庫里","LIN":"1鄰","STREET":"大發路","SECT":" ","MAREA":" ","LANE":" ","ALLEY":" ","HOUSE_NO":"７號","E_COORD97":173205.84,"N_COORD97":2542566.7599999998,"ADDRESS":"大發路７號","OBJECTID":571251},"geometry":{"x":173205.83999999985,"y":2542566.7599999998}},{"attributes":{"ID":571279,"DIS_CODE":0,"TOWNNAME":"官田區","LI":"隆本里","LIN":"29鄰","STREET":"和平街","SECT":"二段","MAREA":" ","LANE":" ","ALLEY":" ","HOUSE_NO":"１２號","E_COORD97":179483.12,"N_COORD97":2565917.2999999998,"ADDRESS":"和平街二段１２號","OBJECTID":571252},"geometry":{"x":179483.12000000011,"y":2565917.3000000007}},{"attributes":{"ID":571280,"DIS_CODE":0,"TOWNNAME":"官田區","LI":"隆本里","LIN":"29鄰","STREET":"和平街","SECT":"二段","MAREA":" ","LANE":" ","ALLEY":" ","HOUSE_NO":"１６號","E_COORD97":179483.22,"N_COORD97":2565921.9399999999,"ADDRESS":"和平街二段１６號","OBJECTID":571253},"geometry":{"x":179483.22000000067,"y":2565921.9399999995}},{"attributes":{"ID":571281,"DIS_CODE":0,"TOWNNAME":"官田區","LI":"隆本里","LIN":"29鄰","STREET":"和平街","SECT":"二段","MAREA":" ","LANE":" ","ALLEY":" ","HOUSE_NO":"１８號","E_COORD97":179483.51999999999,"N_COORD97":2565925.9100000001,"ADDRESS":"和平街二段１８號","OBJECTID":571254},"geometry":{"x":179483.51999999955,"y":2565925.9100000001}},{"attributes":{"ID":571282,"DIS_CODE":0,"TOWNNAME":"官田區","LI":"隆本里","LIN":"29鄰","STREET":"和平街","SECT":"二段","MAREA":" ","LANE":" ","ALLEY":" ","HOUSE_NO":"２０號","E_COORD97":179483.70999999999,"N_COORD97":2565930.25,"ADDRESS":"和平街二段２０號","OBJECTID":571255},"geometry":{"x":179483.71000000089,"y":2565930.25}},{"attributes":{"ID":571283,"DIS_CODE":0,"TOWNNAME":"官田區","LI":"隆本里","LIN":"29鄰","STREET":"和平街","SECT":"二段","MAREA":" ","LANE":" ","ALLEY":" ","HOUSE_NO":"２２號","E_COORD97":179483.76999999999,"N_COORD97":2565935.7599999998,"ADDRESS":"和平街二段２２號","OBJECTID":571256},"geometry":{"x":179483.76999999955,"y":2565935.7600000016}},{"attributes":{"ID":571284,"DIS_CODE":0,"TOWNNAME":"官田區","LI":"隆本里","LIN":"29鄰","STREET":"和平街","SECT":"二段","MAREA":" ","LANE":" ","ALLEY":" ","HOUSE_NO":"２號","E_COORD97":179481.69,"N_COORD97":2565898.75,"ADDRESS":"和平街二段２號","OBJECTID":571257},"geometry":{"x":179481.69000000041,"y":2565898.7500000019}},{"attributes":{"ID":571285,"DIS_CODE":0,"TOWNNAME":"官田區","LI":"隆本里","LIN":"29鄰","STREET":"和平街","SECT":"二段","MAREA":" ","LANE":" ","ALLEY":" ","HOUSE_NO":"６號","E_COORD97":179481.88,"N_COORD97":2565904.0099999998,"ADDRESS":"和平街二段６號","OBJECTID":571258},"geometry":{"x":179481.88000000175,"y":2565904.0099999998}},{"attributes":{"ID":571286,"DIS_CODE":0,"TOWNNAME":"官田區","LI":"隆本里","LIN":"29鄰","STREET":"和平街","SECT":"二段","MAREA":" ","LANE":" ","ALLEY":" ","HOUSE_NO":"８號","E_COORD97":179482.51000000001,"N_COORD97":2565908.5699999998,"ADDRESS":"和平街二段８號","OBJECTID":571259},"geometry":{"x":179482.50999999885,"y":2565908.5700000003}},{"attributes":{"ID":571287,"DIS_CODE":0,"TOWNNAME":"善化區","LI":"光文里","LIN":"29鄰","STREET":"中山路","SECT":" ","MAREA":" ","LANE":" ","ALLEY":" ","HOUSE_NO":"３２４號","E_COORD97":177710.81,"N_COORD97":2559097,"ADDRESS":"中山路３２４號","OBJECTID":571260},"geometry":{"x":177710.81000000052,"y":2559097}},{"attributes":{"ID":571288,"DIS_CODE":0,"TOWNNAME":"仁德區","LI":"上崙里","LIN":"29鄰","STREET":"中正路","SECT":"一段","MAREA":" ","LANE":" ","ALLEY":" ","HOUSE_NO":"６２０號","E_COORD97":172822.12,"N_COORD97":2537403.2799999998,"ADDRESS":"中正路一段６２０號","OBJECTID":571261},"geometry":{"x":172822.12000000104,"y":2537403.2799999993}},{"attributes":{"ID":571289,"DIS_CODE":0,"TOWNNAME":"仁德區","LI":"上崙里","LIN":"29鄰","STREET":"中正路","SECT":"一段","MAREA":" ","LANE":" ","ALLEY":" ","HOUSE_NO":"３９１號","E_COORD97":172719.76999999999,"N_COORD97":2537150.27,"ADDRESS":"中正路一段３９１號","OBJECTID":571262},"geometry":{"x":172719.76999999955,"y":2537150.2700000014}},{"attributes":{"ID":571290,"DIS_CODE":0,"TOWNNAME":"仁德區","LI":"上崙里","LIN":"29鄰","STREET":"中正路","SECT":"一段","MAREA":" ","LANE":" ","ALLEY":" ","HOUSE_NO":"２９５號","E_COORD97":172632.59,"N_COORD97":2536927.02,"ADDRESS":"中正路一段２９５號","OBJECTID":571263},"geometry":{"x":172632.59000000078,"y":2536927.0199999996}},{"attributes":{"ID":571291,"DIS_CODE":0,"TOWNNAME":"仁德區","LI":"上崙里","LIN":"29鄰","STREET":"中正路","SECT":"一段","MAREA":" ","LANE":" ","ALLEY":" ","HOUSE_NO":"２９７號","E_COORD97":172663.79000000001,"N_COORD97":2536969.77,"ADDRESS":"中正路一段２９７號","OBJECTID":571264},"geometry":{"x":172663.79000000097,"y":2536969.7699999977}},{"attributes":{"ID":571292,"DIS_CODE":0,"TOWNNAME":"仁德區","LI":"上崙里","LIN":"29鄰","STREET":"中正路","SECT":"一段","MAREA":" ","LANE":" ","ALLEY":" ","HOUSE_NO":"６１２號","E_COORD97":172802.98999999999,"N_COORD97":2537323.0299999998,"ADDRESS":"中正路一段６１２號","OBJECTID":571265},"geometry":{"x":172802.99000000115,"y":2537323.0299999993}},{"attributes":{"ID":571293,"DIS_CODE":0,"TOWNNAME":"仁德區","LI":"上崙里","LIN":"29鄰","STREET":"中正路","SECT":"一段","MAREA":" ","LANE":" ","ALLEY":" ","HOUSE_NO":"５３４號","E_COORD97":172740.42999999999,"N_COORD97":2537108.2799999998,"ADDRESS":"中正路一段５３４號","OBJECTID":571266},"geometry":{"x":172740.43000000063,"y":2537108.2799999993}},{"attributes":{"ID":571294,"DIS_CODE":0,"TOWNNAME":"東區","LI":"崇文里","LIN":"29鄰","STREET":"崇德路","SECT":" ","MAREA":" ","LANE":" ","ALLEY":" ","HOUSE_NO":"７５１號","E_COORD97":170808.23000000001,"N_COORD97":2540906.6699999999,"ADDRESS":"崇德路７５１號","OBJECTID":571267},"geometry":{"x":170808.23000000138,"y":2540906.6699999999}},{"attributes":{"ID":571295,"DIS_CODE":0,"TOWNNAME":"東區","LI":"崇文里","LIN":"29鄰","STREET":"崇德路","SECT":" ","MAREA":" ","LANE":" ","ALLEY":" ","HOUSE_NO":"７５３號","E_COORD97":170807.84,"N_COORD97":2540900.98,"ADDRESS":"崇德路７５３號","OBJECTID":571268},"geometry":{"x":170807.84000000171,"y":2540900.9800000004}},{"attributes":{"ID":571296,"DIS_CODE":0,"TOWNNAME":"東區","LI":"後甲里","LIN":"29鄰","STREET":"裕農路","SECT":" ","MAREA":" ","LANE":" ","ALLEY":" ","HOUSE_NO":"６６９號","E_COORD97":171768.13,"N_COORD97":2543250.8199999998,"ADDRESS":"裕農路６６９號","OBJECTID":571269},"geometry":{"x":171768.12999999989,"y":2543250.8200000022}},{"attributes":{"ID":571297,"DIS_CODE":0,"TOWNNAME":"東區","LI":"後甲里","LIN":"29鄰","STREET":"裕農路","SECT":" ","MAREA":" ","LANE":" ","ALLEY":" ","HOUSE_NO":"６６９號之１","E_COORD97":171772.10999999999,"N_COORD97":2543249.5,"ADDRESS":"裕農路６６９號之１","OBJECTID":571270},"geometry":{"x":171772.11000000034,"y":2543249.5000000019}},{"attributes":{"ID":571298,"DIS_CODE":0,"TOWNNAME":"東區","LI":"後甲里","LIN":"29鄰","STREET":"裕農路","SECT":" ","MAREA":" ","LANE":" ","ALLEY":" ","HOUSE_NO":"６８９號","E_COORD97":171819.70000000001,"N_COORD97":2543257.1800000002,"ADDRESS":"裕農路６８９號","OBJECTID":571271},"geometry":{"x":171819.70000000112,"y":2543257.1800000016}},{"attributes":{"ID":571299,"DIS_CODE":0,"TOWNNAME":"東區","LI":"後甲里","LIN":"29鄰","STREET":"裕農路","SECT":" ","MAREA":" ","LANE":" ","ALLEY":" ","HOUSE_NO":"６９１號","E_COORD97":171824.47,"N_COORD97":2543258.23,"ADDRESS":"裕農路６９１號","OBJECTID":571272},"geometry":{"x":171824.47000000067,"y":2543258.2300000023}},{"attributes":{"ID":571300,"DIS_CODE":0,"TOWNNAME":"東區","LI":"後甲里","LIN":"29鄰","STREET":"裕農路","SECT":" ","MAREA":" ","LANE":" ","ALLEY":" ","HOUSE_NO":"６９９號","E_COORD97":171840.63,"N_COORD97":2543260.6200000001,"ADDRESS":"裕農路６９９號","OBJECTID":571273},"geometry":{"x":171840.63000000082,"y":2543260.620000001}},{"attributes":{"ID":571301,"DIS_CODE":0,"TOWNNAME":"永康區","LI":"尚頂里","LIN":"29鄰","STREET":"南台街","SECT":" ","MAREA":" ","LANE":" ","ALLEY":" ","HOUSE_NO":"１１１號","E_COORD97":170133.62,"N_COORD97":2547029.3599999999,"ADDRESS":"南台街１１１號","OBJECTID":571274},"geometry":{"x":170133.62000000104,"y":2547029.3600000013}},{"attributes":{"ID":571302,"DIS_CODE":0,"TOWNNAME":"永康區","LI":"甲頂里","LIN":"29鄰","STREET":"中央路","SECT":" ","MAREA":" ","LANE":" ","ALLEY":" ","HOUSE_NO":"３３號","E_COORD97":169625.62,"N_COORD97":2547030.8999999999,"ADDRESS":"中央路３３號","OBJECTID":571275},"geometry":{"x":169625.62000000011,"y":2547030.9000000004}},{"attributes":{"ID":571303,"DIS_CODE":0,"TOWNNAME":"永康區","LI":"甲頂里","LIN":"29鄰","STREET":"中央路","SECT":" ","MAREA":" ","LANE":" ","ALLEY":" ","HOUSE_NO":"５９號","E_COORD97":169603.39999999999,"N_COORD97":2547096.6899999999,"ADDRESS":"中央路５９號","OBJECTID":571276},"geometry":{"x":169603.4000000013,"y":2547096.6899999995}},{"attributes":{"ID":571304,"DIS_CODE":0,"TOWNNAME":"永康區","LI":"尚頂里","LIN":"29鄰","STREET":"南台街","SECT":" ","MAREA":" ","LANE":" ","ALLEY":" ","HOUSE_NO":"１０３號","E_COORD97":170164.20000000001,"N_COORD97":2547028.6099999999,"ADDRESS":"南台街１０３號","OBJECTID":571277},"geometry":{"x":170164.20000000019,"y":2547028.6099999994}},{"attributes":{"ID":571305,"DIS_CODE":0,"TOWNNAME":"永康區","LI":"甲頂里","LIN":"29鄰","STREET":"中央路","SECT":" ","MAREA":" ","LANE":" ","ALLEY":" ","HOUSE_NO":"４５號","E_COORD97":169617.10000000001,"N_COORD97":2547060.1000000001,"ADDRESS":"中央路４５號","OBJECTID":571278},"geometry":{"x":169617.09999999963,"y":2547060.0999999996}},{"attributes":{"ID":571306,"DIS_CODE":0,"TOWNNAME":"永康區","LI":"尚頂里","LIN":"29鄰","STREET":"南台街","SECT":" ","MAREA":" ","LANE":" ","ALLEY":" ","HOUSE_NO":"１０９號","E_COORD97":170142.23000000001,"N_COORD97":2547030.3599999999,"ADDRESS":"南台街１０９號","OBJECTID":571279},"geometry":{"x":170142.23000000045,"y":2547030.3599999994}},{"attributes":{"ID":571307,"DIS_CODE":0,"TOWNNAME":"永康區","LI":"甲頂里","LIN":"29鄰","STREET":"中央路","SECT":" ","MAREA":" ","LANE":" ","ALLEY":" ","HOUSE_NO":"４１號","E_COORD97":169613.67999999999,"N_COORD97":2547045.77,"ADDRESS":"中央路４１號","OBJECTID":571280},"geometry":{"x":169613.68000000156,"y":2547045.7699999996}},{"attributes":{"ID":571308,"DIS_CODE":0,"TOWNNAME":"永康區","LI":"西勢里","LIN":"29鄰","STREET":"西勢路","SECT":" ","MAREA":" ","LANE":" ","ALLEY":" ","HOUSE_NO":"１６６號","E_COORD97":175906.22,"N_COORD97":2546772.5299999998,"ADDRESS":"西勢路１６６號","OBJECTID":571281},"geometry":{"x":175906.22000000067,"y":2546772.5299999993}},{"attributes":{"ID":571309,"DIS_CODE":0,"TOWNNAME":"善化區","LI":"光文里","LIN":"29鄰","STREET":"中正路","SECT":" ","MAREA":" ","LANE":" ","ALLEY":" ","HOUSE_NO":"６５０號","E_COORD97":177657.35999999999,"N_COORD97":2559502.25,"ADDRESS":"中正路６５０號","OBJECTID":571282},"geometry":{"x":177657.36000000127,"y":2559502.25}},{"attributes":{"ID":571310,"DIS_CODE":0,"TOWNNAME":"善化區","LI":"光文里","LIN":"29鄰","STREET":"中正路","SECT":" ","MAREA":" ","LANE":" ","ALLEY":" ","HOUSE_NO":"６７０號之１","E_COORD97":178008.82999999999,"N_COORD97":2560380.02,"ADDRESS":"中正路６７０號之１","OBJECTID":571283},"geometry":{"x":178008.83000000007,"y":2560380.0200000014}},{"attributes":{"ID":571311,"DIS_CODE":0,"TOWNNAME":"善化區","LI":"光文里","LIN":"29鄰","STREET":"中正路","SECT":" ","MAREA":" ","LANE":" ","ALLEY":" ","HOUSE_NO":"６３６號","E_COORD97":177661.20000000001,"N_COORD97":2559464,"ADDRESS":"中正路６３６號","OBJECTID":571284},"geometry":{"x":177661.20000000205,"y":2559464.0000000037}},{"attributes":{"ID":571312,"DIS_CODE":0,"TOWNNAME":"善化區","LI":"光文里","LIN":"29鄰","STREET":"中正路","SECT":" ","MAREA":" ","LANE":" ","ALLEY":" ","HOUSE_NO":"６２６之１號","E_COORD97":177664.78,"N_COORD97":2559431.52,"ADDRESS":"中正路６２６之１號","OBJECTID":571285},"geometry":{"x":177664.78000000119,"y":2559431.5199999996}},{"attributes":{"ID":571313,"DIS_CODE":0,"TOWNNAME":"仁德區","LI":"仁義里","LIN":"1鄰","STREET":"義林五街","SECT":" ","MAREA":" ","LANE":" ","ALLEY":" ","HOUSE_NO":"７６號","E_COORD97":174235.28,"N_COORD97":2541045.27,"ADDRESS":"義林五街７６號","OBJECTID":571286},"geometry":{"x":174235.28000000119,"y":2541045.2700000033}},{"attributes":{"ID":571314,"DIS_CODE":0,"TOWNNAME":"東區","LI":"崇誨里","LIN":"29鄰","STREET":"裕豐街","SECT":" ","MAREA":" ","LANE":" ","ALLEY":" ","HOUSE_NO":"２３３號","E_COORD97":170801.92999999999,"N_COORD97":2543342.9100000001,"ADDRESS":"裕豐街２３３號","OBJECTID":571287},"geometry":{"x":170801.92999999877,"y":2543342.9100000001}},{"attributes":{"ID":571315,"DIS_CODE":0,"TOWNNAME":"東區","LI":"崇誨里","LIN":"29鄰","STREET":"裕豐街","SECT":" ","MAREA":" ","LANE":" ","ALLEY":" ","HOUSE_NO":"２３５號","E_COORD97":170804.22,"N_COORD97":2543346.9100000001,"ADDRESS":"裕豐街２３５號","OBJECTID":571288},"geometry":{"x":170804.22000000067,"y":2543346.9100000039}},{"attributes":{"ID":571316,"DIS_CODE":0,"TOWNNAME":"東區","LI":"崇誨里","LIN":"29鄰","STREET":"裕豐街","SECT":" ","MAREA":" ","LANE":" ","ALLEY":" ","HOUSE_NO":"２３７號","E_COORD97":170805.23000000001,"N_COORD97":2543351.9199999999,"ADDRESS":"裕豐街２３７號","OBJECTID":571289},"geometry":{"x":170805.23000000045,"y":2543351.9199999999}},{"attributes":{"ID":571317,"DIS_CODE":0,"TOWNNAME":"東區","LI":"崇誨里","LIN":"29鄰","STREET":"裕豐街","SECT":" ","MAREA":" ","LANE":" ","ALLEY":" ","HOUSE_NO":"２３９號","E_COORD97":170804.94,"N_COORD97":2543356.6299999999,"ADDRESS":"裕豐街２３９號","OBJECTID":571290},"geometry":{"x":170804.94000000134,"y":2543356.629999999}},{"attributes":{"ID":571318,"DIS_CODE":0,"TOWNNAME":"永康區","LI":"尚頂里","LIN":"29鄰","STREET":"南台街","SECT":" ","MAREA":" ","LANE":" ","ALLEY":" ","HOUSE_NO":"１１９號","E_COORD97":170092.76999999999,"N_COORD97":2547033.3599999999,"ADDRESS":"南台街１１９號","OBJECTID":571291},"geometry":{"x":170092.77000000142,"y":2547033.3600000013}},{"attributes":{"ID":571319,"DIS_CODE":0,"TOWNNAME":"永康區","LI":"尚頂里","LIN":"29鄰","STREET":"南台街","SECT":" ","MAREA":" ","LANE":" ","ALLEY":" ","HOUSE_NO":"９３號","E_COORD97":170185.67999999999,"N_COORD97":2547016.5699999998,"ADDRESS":"南台街９３號","OBJECTID":571292},"geometry":{"x":170185.68000000063,"y":2547016.5700000003}},{"attributes":{"ID":571320,"DIS_CODE":0,"TOWNNAME":"永康區","LI":"尚頂里","LIN":"29鄰","STREET":"南台街","SECT":" ","MAREA":" ","LANE":" ","ALLEY":" ","HOUSE_NO":"９１號","E_COORD97":170191.28,"N_COORD97":2547014.6800000002,"ADDRESS":"南台街９１號","OBJECTID":571293},"geometry":{"x":170191.28000000026,"y":2547014.6800000016}},{"attributes":{"ID":571321,"DIS_CODE":0,"TOWNNAME":"仁德區","LI":"大甲里","LIN":"2鄰","STREET":"行大一街","SECT":" ","MAREA":" ","LANE":" ","ALLEY":" ","HOUSE_NO":"１１２號","E_COORD97":169957.20000000001,"N_COORD97":2535017.5,"ADDRESS":"行大一街１１２號","OBJECTID":571294},"geometry":{"x":169957.20000000112,"y":2535017.5000000019}},{"attributes":{"ID":571322,"DIS_CODE":0,"TOWNNAME":"仁德區","LI":"仁義里","LIN":"47鄰","STREET":"仁義路","SECT":" ","MAREA":" ","LANE":" ","ALLEY":" ","HOUSE_NO":"３９號","E_COORD97":173483.28,"N_COORD97":2540962.77,"ADDRESS":"仁義路３９號","OBJECTID":571295},"geometry":{"x":173483.28000000026,"y":2540962.7699999996}},{"attributes":{"ID":571323,"DIS_CODE":0,"TOWNNAME":"永康區","LI":"\u25A0行里","LIN":"29鄰","STREET":"竹林街","SECT":" ","MAREA":" ","LANE":" ","ALLEY":" ","HOUSE_NO":"３１號","E_COORD97":172775.78,"N_COORD97":2548861.7400000002,"ADDRESS":"竹林街３１號","OBJECTID":571296},"geometry":{"x":172775.78000000119,"y":2548861.7400000021}},{"attributes":{"ID":571324,"DIS_CODE":0,"TOWNNAME":"永康區","LI":"\u25A0行里","LIN":"29鄰","STREET":"竹林街","SECT":" ","MAREA":" ","LANE":" ","ALLEY":" ","HOUSE_NO":"３５號","E_COORD97":172822.29999999999,"N_COORD97":2548785.7400000002,"ADDRESS":"竹林街３５號","OBJECTID":571297},"geometry":{"x":172822.30000000075,"y":2548785.7400000002}},{"attributes":{"ID":571325,"DIS_CODE":0,"TOWNNAME":"永康區","LI":"\u25A0行里","LIN":"29鄰","STREET":"竹林街","SECT":" ","MAREA":" ","LANE":" ","ALLEY":" ","HOUSE_NO":"３３號","E_COORD97":172770.89999999999,"N_COORD97":2548824.75,"ADDRESS":"竹林街３３號","OBJECTID":571298},"geometry":{"x":172770.90000000037,"y":2548824.7500000019}},{"attributes":{"ID":571326,"DIS_CODE":0,"TOWNNAME":"永康區","LI":"\u25A0行里","LIN":"29鄰","STREET":"竹林街","SECT":" ","MAREA":" ","LANE":" ","ALLEY":" ","HOUSE_NO":"３５號之１","E_COORD97":172782.70000000001,"N_COORD97":2548816.0499999998,"ADDRESS":"竹林街３５號之１","OBJECTID":571299},"geometry":{"x":172782.70000000112,"y":2548816.0500000026}},{"attributes":{"ID":571327,"DIS_CODE":0,"TOWNNAME":"永康區","LI":"\u25A0行里","LIN":"29鄰","STREET":"竹林街","SECT":" ","MAREA":" ","LANE":" ","ALLEY":" ","HOUSE_NO":"６號","E_COORD97":172767.76000000001,"N_COORD97":2549020.75,"ADDRESS":"竹林街６號","OBJECTID":571300},"geometry":{"x":172767.75999999978,"y":2549020.7500000019}},{"attributes":{"ID":571328,"DIS_CODE":0,"TOWNNAME":"永康區","LI":"\u25A0行里","LIN":"29鄰","STREET":"竹林街","SECT":" ","MAREA":" ","LANE":" ","ALLEY":" ","HOUSE_NO":"６之１號","E_COORD97":172770.28,"N_COORD97":2549033.0499999998,"ADDRESS":"竹林街６之１號","OBJECTID":571301},"geometry":{"x":172770.28000000119,"y":2549033.0500000026}},{"attributes":{"ID":571329,"DIS_CODE":0,"TOWNNAME":"永康區","LI":"\u25A0行里","LIN":"29鄰","STREET":"竹林街","SECT":" ","MAREA":" ","LANE":" ","ALLEY":" ","HOUSE_NO":"１０號","E_COORD97":172770.01000000001,"N_COORD97":2549011.25,"ADDRESS":"竹林街１０號","OBJECTID":571302},"geometry":{"x":172770.01000000071,"y":2549011.2500000019}},{"attributes":{"ID":571330,"DIS_CODE":0,"TOWNNAME":"永康區","LI":"\u25A0行里","LIN":"29鄰","STREET":"竹林街","SECT":" ","MAREA":" ","LANE":" ","ALLEY":" ","HOUSE_NO":"２６號","E_COORD97":172751.45000000001,"N_COORD97":2548924.77,"ADDRESS":"竹林街２６號","OBJECTID":571303},"geometry":{"x":172751.45000000019,"y":2548924.7700000014}},{"attributes":{"ID":571331,"DIS_CODE":0,"TOWNNAME":"永康區","LI":"龍潭里","LIN":"29鄰","STREET":"龍潭街","SECT":" ","MAREA":" ","LANE":" ","ALLEY":" ","HOUSE_NO":"１８號","E_COORD97":174728.44,"N_COORD97":2547745.52,"ADDRESS":"龍潭街１８號","OBJECTID":571304},"geometry":{"x":174728.44000000041,"y":2547745.5199999996}},{"attributes":{"ID":571332,"DIS_CODE":0,"TOWNNAME":"永康區","LI":"龍潭里","LIN":"29鄰","STREET":"龍潭街","SECT":" ","MAREA":" ","LANE":" ","ALLEY":" ","HOUSE_NO":"２８號","E_COORD97":174738.14999999999,"N_COORD97":2547767.4500000002,"ADDRESS":"龍潭街２８號","OBJECTID":571305},"geometry":{"x":174738.1500000013,"y":2547767.4500000011}},{"attributes":{"ID":571333,"DIS_CODE":0,"TOWNNAME":"永康區","LI":"龍潭里","LIN":"29鄰","STREET":"龍潭街","SECT":" ","MAREA":" ","LANE":" ","ALLEY":" ","HOUSE_NO":"４號","E_COORD97":174715.47,"N_COORD97":2547709.4300000002,"ADDRESS":"龍潭街４號","OBJECTID":571306},"geometry":{"x":174715.46999999974,"y":2547709.4299999997}},{"attributes":{"ID":571334,"DIS_CODE":0,"TOWNNAME":"仁德區","LI":"仁義里","LIN":"13鄰","STREET":"中山路","SECT":" ","MAREA":" ","LANE":" ","ALLEY":" ","HOUSE_NO":"１３８號","E_COORD97":174606.70999999999,"N_COORD97":2541178.9900000002,"ADDRESS":"中山路１３８號","OBJECTID":571307},"geometry":{"x":174606.71000000089,"y":2541178.9900000002}},{"attributes":{"ID":571335,"DIS_CODE":0,"TOWNNAME":"仁德區","LI":"仁義里","LIN":"17鄰","STREET":"中山路","SECT":" ","MAREA":" ","LANE":" ","ALLEY":" ","HOUSE_NO":"２５６號","E_COORD97":174159.60000000001,"N_COORD97":2541240.25,"ADDRESS":"中山路２５６號","OBJECTID":571308},"geometry":{"x":174159.60000000056,"y":2541240.2500000019}},{"attributes":{"ID":571336,"DIS_CODE":0,"TOWNNAME":"仁德區","LI":"土庫里","LIN":"8鄰","STREET":"土庫路","SECT":" ","MAREA":" ","LANE":" ","ALLEY":" ","HOUSE_NO":"３６號","E_COORD97":174219.14999999999,"N_COORD97":2543297.5,"ADDRESS":"土庫路３６號","OBJECTID":571309},"geometry":{"x":174219.1500000013,"y":2543297.5}},{"attributes":{"ID":571337,"DIS_CODE":0,"TOWNNAME":"永康區","LI":"龍潭里","LIN":"29鄰","STREET":"中山北路","SECT":" ","MAREA":" ","LANE":" ","ALLEY":" ","HOUSE_NO":"３４５號","E_COORD97":174750.92000000001,"N_COORD97":2547698.75,"ADDRESS":"中山北路３４５號","OBJECTID":571310},"geometry":{"x":174750.92000000086,"y":2547698.7500000019}},{"attributes":{"ID":571338,"DIS_CODE":0,"TOWNNAME":"仁德區","LI":"上崙里","LIN":"29鄰","STREET":"中正路","SECT":"一段","MAREA":" ","LANE":" ","ALLEY":" ","HOUSE_NO":"３８９號","E_COORD97":172719.57000000001,"N_COORD97":2537145.27,"ADDRESS":"中正路一段３８９號","OBJECTID":571311},"geometry":{"x":172719.57000000123,"y":2537145.2699999996}},{"attributes":{"ID":571339,"DIS_CODE":0,"TOWNNAME":"仁德區","LI":"上崙里","LIN":"29鄰","STREET":"中正路","SECT":"一段","MAREA":" ","LANE":" ","ALLEY":" ","HOUSE_NO":"６５０號","E_COORD97":172857.29000000001,"N_COORD97":2537519.0299999998,"ADDRESS":"中正路一段６５０號","OBJECTID":571312},"geometry":{"x":172857.29000000004,"y":2537519.0299999993}},{"attributes":{"ID":571340,"DIS_CODE":0,"TOWNNAME":"仁德區","LI":"仁德里","LIN":"39鄰","STREET":"文山路","SECT":" ","MAREA":" ","LANE":" ","ALLEY":" ","HOUSE_NO":"２５２號","E_COORD97":172627.89999999999,"N_COORD97":2541825.0699999998,"ADDRESS":"文山路２５２號","OBJECTID":571313},"geometry":{"x":172627.90000000037,"y":2541825.0700000022}},{"attributes":{"ID":571341,"DIS_CODE":0,"TOWNNAME":"仁德區","LI":"仁義里","LIN":"17鄰","STREET":"義林九街","SECT":" ","MAREA":" ","LANE":" ","ALLEY":" ","HOUSE_NO":"３號","E_COORD97":174311.42999999999,"N_COORD97":2541323.0099999998,"ADDRESS":"義林九街３號","OBJECTID":571314},"geometry":{"x":174311.43000000063,"y":2541323.0100000016}},{"attributes":{"ID":571342,"DIS_CODE":0,"TOWNNAME":"仁德區","LI":"仁義里","LIN":"1鄰","STREET":"義林五街","SECT":" ","MAREA":" ","LANE":" ","ALLEY":" ","HOUSE_NO":"８６號","E_COORD97":174210.47,"N_COORD97":2541047.27,"ADDRESS":"義林五街８６號","OBJECTID":571315},"geometry":{"x":174210.46999999974,"y":2541047.2699999996}},{"attributes":{"ID":571343,"DIS_CODE":0,"TOWNNAME":"仁德區","LI":"仁義里","LIN":"44鄰","STREET":"仁義路","SECT":" ","MAREA":" ","LANE":" ","ALLEY":" ","HOUSE_NO":"１２號","E_COORD97":173423.81,"N_COORD97":2540937.02,"ADDRESS":"仁義路１２號","OBJECTID":571316},"geometry":{"x":173423.81000000052,"y":2540937.0199999996}},{"attributes":{"ID":571344,"DIS_CODE":0,"TOWNNAME":"東區","LI":"東光里","LIN":"29鄰","STREET":"凱旋路","SECT":" ","MAREA":" ","LANE":" ","ALLEY":" ","HOUSE_NO":"３３４號","E_COORD97":170664.07000000001,"N_COORD97":2543804.1600000001,"ADDRESS":"凱旋路３３４號","OBJECTID":571317},"geometry":{"x":170664.0700000003,"y":2543804.160000002}},{"attributes":{"ID":571345,"DIS_CODE":0,"TOWNNAME":"東區","LI":"東光里","LIN":"29鄰","STREET":"凱旋路","SECT":" ","MAREA":" ","LANE":" ","ALLEY":" ","HOUSE_NO":"３３６號","E_COORD97":170658.97,"N_COORD97":2543801.7599999998,"ADDRESS":"凱旋路３３６號","OBJECTID":571318},"geometry":{"x":170658.96999999974,"y":2543801.7600000035}},{"attributes":{"ID":571346,"DIS_CODE":0,"TOWNNAME":"東區","LI":"東光里","LIN":"29鄰","STREET":"凱旋路","SECT":" ","MAREA":" ","LANE":" ","ALLEY":" ","HOUSE_NO":"３３８號","E_COORD97":170655.85999999999,"N_COORD97":2543806.2799999998,"ADDRESS":"凱旋路３３８號","OBJECTID":571319},"geometry":{"x":170655.86000000127,"y":2543806.2800000012}},{"attributes":{"ID":571347,"DIS_CODE":0,"TOWNNAME":"東區","LI":"東光里","LIN":"29鄰","STREET":"凱旋路","SECT":" ","MAREA":" ","LANE":" ","ALLEY":" ","HOUSE_NO":"３４０號","E_COORD97":170650.60999999999,"N_COORD97":2543804.1600000001,"ADDRESS":"凱旋路３４０號","OBJECTID":571320},"geometry":{"x":170650.6100000022,"y":2543804.160000002}},{"attributes":{"ID":571348,"DIS_CODE":0,"TOWNNAME":"永康區","LI":"\u25A0行里","LIN":"29鄰","STREET":"竹林街","SECT":" ","MAREA":" ","LANE":" ","ALLEY":" ","HOUSE_NO":"２３號","E_COORD97":172775.37,"N_COORD97":2548914.3700000001,"ADDRESS":"竹林街２３號","OBJECTID":571321},"geometry":{"x":172775.37000000011,"y":2548914.370000001}},{"attributes":{"ID":571349,"DIS_CODE":0,"TOWNNAME":"永康區","LI":"\u25A0行里","LIN":"29鄰","STREET":"竹林街","SECT":" ","MAREA":" ","LANE":" ","ALLEY":" ","HOUSE_NO":"２７號","E_COORD97":172774.69,"N_COORD97":2548883.9900000002,"ADDRESS":"竹林街２７號","OBJECTID":571322},"geometry":{"x":172774.69000000134,"y":2548883.9900000021}},{"attributes":{"ID":571350,"DIS_CODE":0,"TOWNNAME":"永康區","LI":"\u25A0行里","LIN":"29鄰","STREET":"竹林街","SECT":" ","MAREA":" ","LANE":" ","ALLEY":" ","HOUSE_NO":"２５號","E_COORD97":172770.38,"N_COORD97":2548904.1200000001,"ADDRESS":"竹林街２５號","OBJECTID":571323},"geometry":{"x":172770.37999999989,"y":2548904.1200000029}},{"attributes":{"ID":571351,"DIS_CODE":0,"TOWNNAME":"仁德區","LI":"仁義里","LIN":"16鄰","STREET":"林頂街","SECT":" ","MAREA":" ","LANE":" ","ALLEY":" ","HOUSE_NO":"２號","E_COORD97":174432.87,"N_COORD97":2541219.3599999999,"ADDRESS":"林頂街２號","OBJECTID":571324},"geometry":{"x":174432.87000000104,"y":2541219.3599999994}},{"attributes":{"ID":571352,"DIS_CODE":0,"TOWNNAME":"永康區","LI":"\u25A0洲里","LIN":"29鄰","STREET":"洲尾街","SECT":" ","MAREA":" ","LANE":" ","ALLEY":" ","HOUSE_NO":"１６４號","E_COORD97":171081.39999999999,"N_COORD97":2549139.2799999998,"ADDRESS":"洲尾街１６４號","OBJECTID":571325},"geometry":{"x":171081.4000000013,"y":2549139.2800000012}},{"attributes":{"ID":571353,"DIS_CODE":0,"TOWNNAME":"永康區","LI":"\u25A0洲里","LIN":"29鄰","STREET":"洲尾街","SECT":" ","MAREA":" ","LANE":" ","ALLEY":" ","HOUSE_NO":"１８４號","E_COORD97":171128.07000000001,"N_COORD97":2549142.1200000001,"ADDRESS":"洲尾街１８４號","OBJECTID":571326},"geometry":{"x":171128.0700000003,"y":2549142.1200000029}},{"attributes":{"ID":571354,"DIS_CODE":0,"TOWNNAME":"永康區","LI":"\u25A0洲里","LIN":"29鄰","STREET":"洲尾街","SECT":" ","MAREA":" ","LANE":" ","ALLEY":" ","HOUSE_NO":"１５６號","E_COORD97":171063.67000000001,"N_COORD97":2549132.6499999999,"ADDRESS":"洲尾街１５６號","OBJECTID":571327},"geometry":{"x":171063.67000000086,"y":2549132.6500000004}},{"attributes":{"ID":571355,"DIS_CODE":0,"TOWNNAME":"永康區","LI":"\u25A0洲里","LIN":"29鄰","STREET":"洲尾街","SECT":" ","MAREA":" ","LANE":" ","ALLEY":" ","HOUSE_NO":"１７２號","E_COORD97":171097.51000000001,"N_COORD97":2549145.6200000001,"ADDRESS":"洲尾街１７２號","OBJECTID":571328},"geometry":{"x":171097.50999999978,"y":2549145.6200000029}},{"attributes":{"ID":571356,"DIS_CODE":0,"TOWNNAME":"永康區","LI":"\u25A0洲里","LIN":"29鄰","STREET":"洲尾街","SECT":" ","MAREA":" ","LANE":" ","ALLEY":" ","HOUSE_NO":"１７６號","E_COORD97":171104.76000000001,"N_COORD97":2549148.3599999999,"ADDRESS":"洲尾街１７６號","OBJECTID":571329},"geometry":{"x":171104.75999999978,"y":2549148.3600000013}},{"attributes":{"ID":571357,"DIS_CODE":0,"TOWNNAME":"永康區","LI":"\u25A0洲里","LIN":"29鄰","STREET":"洲尾街","SECT":" ","MAREA":" ","LANE":" ","ALLEY":" ","HOUSE_NO":"１７０號","E_COORD97":171092.67000000001,"N_COORD97":2549143.3700000001,"ADDRESS":"洲尾街１７０號","OBJECTID":571330},"geometry":{"x":171092.67000000086,"y":2549143.3700000029}},{"attributes":{"ID":571358,"DIS_CODE":0,"TOWNNAME":"永康區","LI":"\u25A0洲里","LIN":"29鄰","STREET":"洲尾街","SECT":" ","MAREA":" ","LANE":" ","ALLEY":" ","HOUSE_NO":"１５８號","E_COORD97":171069.76999999999,"N_COORD97":2549135.6499999999,"ADDRESS":"洲尾街１５８號","OBJECTID":571331},"geometry":{"x":171069.77000000048,"y":2549135.6500000004}},{"attributes":{"ID":571359,"DIS_CODE":0,"TOWNNAME":"永康區","LI":"\u25A0洲里","LIN":"29鄰","STREET":"洲尾街","SECT":" ","MAREA":" ","LANE":" ","ALLEY":" ","HOUSE_NO":"１６８號","E_COORD97":171088.98000000001,"N_COORD97":2549142.0299999998,"ADDRESS":"洲尾街１６８號","OBJECTID":571332},"geometry":{"x":171088.98000000231,"y":2549142.0299999993}},{"attributes":{"ID":571360,"DIS_CODE":0,"TOWNNAME":"永康區","LI":"西勢里","LIN":"29鄰","STREET":"西勢路","SECT":" ","MAREA":" ","LANE":" ","ALLEY":" ","HOUSE_NO":"１６０號","E_COORD97":175920.26999999999,"N_COORD97":2546774.5299999998,"ADDRESS":"西勢路１６０號","OBJECTID":571333},"geometry":{"x":175920.26999999955,"y":2546774.5300000012}},{"attributes":{"ID":571361,"DIS_CODE":0,"TOWNNAME":"永康區","LI":"甲頂里","LIN":"29鄰","STREET":"中華路","SECT":" ","MAREA":" ","LANE":" ","ALLEY":" ","HOUSE_NO":"１０６２號","E_COORD97":169419.39000000001,"N_COORD97":2547065.1800000002,"ADDRESS":"中華路１０６２號","OBJECTID":571334},"geometry":{"x":169419.3900000006,"y":2547065.1800000016}},{"attributes":{"ID":571362,"DIS_CODE":0,"TOWNNAME":"永康區","LI":"\u25A0洲里","LIN":"29鄰","STREET":"洲尾街","SECT":" ","MAREA":" ","LANE":" ","ALLEY":" ","HOUSE_NO":"１７８號","E_COORD97":171117.85999999999,"N_COORD97":2549153.04,"ADDRESS":"洲尾街１７８號","OBJECTID":571335},"geometry":{"x":171117.86000000034,"y":2549153.040000001}},{"attributes":{"ID":571363,"DIS_CODE":0,"TOWNNAME":"永康區","LI":"甲頂里","LIN":"29鄰","STREET":"中華路","SECT":" ","MAREA":" ","LANE":" ","ALLEY":" ","HOUSE_NO":"１０６６號","E_COORD97":169402.60000000001,"N_COORD97":2547062.9300000002,"ADDRESS":"中華路１０６６號","OBJECTID":571336},"geometry":{"x":169402.60000000056,"y":2547062.9300000016}},{"attributes":{"ID":571364,"DIS_CODE":0,"TOWNNAME":"永康區","LI":"\u25A0洲里","LIN":"29鄰","STREET":"洲尾街","SECT":" ","MAREA":" ","LANE":" ","ALLEY":" ","HOUSE_NO":"１８６號","E_COORD97":171130.70999999999,"N_COORD97":2549138.8700000001,"ADDRESS":"洲尾街１８６號","OBJECTID":571337},"geometry":{"x":171130.70999999996,"y":2549138.8700000048}},{"attributes":{"ID":571365,"DIS_CODE":0,"TOWNNAME":"安南區","LI":"\u25A0南里","LIN":"29鄰","STREET":"環福街","SECT":" ","MAREA":" ","LANE":" ","ALLEY":" ","HOUSE_NO":"２５８號","E_COORD97":170198.89999999999,"N_COORD97":2552691.5499999998,"ADDRESS":"環福街２５８號","OBJECTID":571338},"geometry":{"x":170198.90000000037,"y":2552691.5500000026}},{"attributes":{"ID":571366,"DIS_CODE":0,"TOWNNAME":"安南區","LI":"\u25A0南里","LIN":"29鄰","STREET":"安昌街","SECT":" ","MAREA":" ","LANE":" ","ALLEY":" ","HOUSE_NO":"２８０號","E_COORD97":170153.04000000001,"N_COORD97":2552709.5600000001,"ADDRESS":"安昌街２８０號","OBJECTID":571339},"geometry":{"x":170153.04000000097,"y":2552709.5600000005}},{"attributes":{"ID":571367,"DIS_CODE":0,"TOWNNAME":"安南區","LI":"\u25A0南里","LIN":"29鄰","STREET":"安昌街","SECT":" ","MAREA":" ","LANE":" ","ALLEY":" ","HOUSE_NO":"２８２號","E_COORD97":170153.35000000001,"N_COORD97":2552718.1099999999,"ADDRESS":"安昌街２８２號","OBJECTID":571340},"geometry":{"x":170153.35000000149,"y":2552718.1099999994}},{"attributes":{"ID":571368,"DIS_CODE":0,"TOWNNAME":"安南區","LI":"\u25A0南里","LIN":"29鄰","STREET":"安昌街","SECT":" ","MAREA":" ","LANE":" ","ALLEY":" ","HOUSE_NO":"２９４號","E_COORD97":170161.88,"N_COORD97":2552753.7400000002,"ADDRESS":"安昌街２９４號","OBJECTID":571341},"geometry":{"x":170161.88000000175,"y":2552753.7400000021}},{"attributes":{"ID":571369,"DIS_CODE":0,"TOWNNAME":"善化區","LI":"光文里","LIN":"29鄰","STREET":"中正路","SECT":" ","MAREA":" ","LANE":" ","ALLEY":" ","HOUSE_NO":"５３６號","E_COORD97":177676.94,"N_COORD97":2559255,"ADDRESS":"中正路５３６號","OBJECTID":571342},"geometry":{"x":177676.94000000134,"y":2559255.0000000019}},{"attributes":{"ID":571370,"DIS_CODE":0,"TOWNNAME":"善化區","LI":"光文里","LIN":"29鄰","STREET":"中山路","SECT":" ","MAREA":" ","LANE":" ","ALLEY":" ","HOUSE_NO":"３２０之２號","E_COORD97":177716.29000000001,"N_COORD97":2559096.27,"ADDRESS":"中山路３２０之２號","OBJECTID":571343},"geometry":{"x":177716.2900000019,"y":2559096.2700000014}},{"attributes":{"ID":571371,"DIS_CODE":0,"TOWNNAME":"善化區","LI":"光文里","LIN":"29鄰","STREET":"中正路","SECT":" ","MAREA":" ","LANE":" ","ALLEY":" ","HOUSE_NO":"５５２號","E_COORD97":177673.92000000001,"N_COORD97":2559292,"ADDRESS":"中正路５５２號","OBJECTID":571344},"geometry":{"x":177673.91999999993,"y":2559292.0000000019}},{"attributes":{"ID":571372,"DIS_CODE":0,"TOWNNAME":"善化區","LI":"光文里","LIN":"29鄰","STREET":"中山路","SECT":" ","MAREA":" ","LANE":" ","ALLEY":" ","HOUSE_NO":"３１８號","E_COORD97":177728.69,"N_COORD97":2559096,"ADDRESS":"中山路３１８號","OBJECTID":571345},"geometry":{"x":177728.69000000041,"y":2559096.0000000019}},{"attributes":{"ID":571373,"DIS_CODE":0,"TOWNNAME":"善化區","LI":"光文里","LIN":"29鄰","STREET":"中山路","SECT":" ","MAREA":" ","LANE":" ","ALLEY":" ","HOUSE_NO":"３１０號","E_COORD97":177751.54000000001,"N_COORD97":2559095,"ADDRESS":"中山路３１０號","OBJECTID":571346},"geometry":{"x":177751.54000000004,"y":2559095.0000000019}},{"attributes":{"ID":571374,"DIS_CODE":0,"TOWNNAME":"善化區","LI":"光文里","LIN":"29鄰","STREET":"中正路","SECT":" ","MAREA":" ","LANE":" ","ALLEY":" ","HOUSE_NO":"５３０號","E_COORD97":177677.69,"N_COORD97":2559241,"ADDRESS":"中正路５３０號","OBJECTID":571347},"geometry":{"x":177677.69000000041,"y":2559241.0000000019}},{"attributes":{"ID":571375,"DIS_CODE":0,"TOWNNAME":"善化區","LI":"光文里","LIN":"29鄰","STREET":"中正路","SECT":" ","MAREA":" ","LANE":" ","ALLEY":" ","HOUSE_NO":"５４６號","E_COORD97":177675.01999999999,"N_COORD97":2559278,"ADDRESS":"中正路５４６號","OBJECTID":571348},"geometry":{"x":177675.01999999955,"y":2559278.0000000019}},{"attributes":{"ID":571376,"DIS_CODE":0,"TOWNNAME":"善化區","LI":"光文里","LIN":"29鄰","STREET":"中山路","SECT":" ","MAREA":" ","LANE":" ","ALLEY":" ","HOUSE_NO":"３０４號之１","E_COORD97":177801.37,"N_COORD97":2559093.5099999998,"ADDRESS":"中山路３０４號之１","OBJECTID":571349},"geometry":{"x":177801.37000000104,"y":2559093.5099999998}},{"attributes":{"ID":571377,"DIS_CODE":0,"TOWNNAME":"善化區","LI":"光文里","LIN":"29鄰","STREET":"中正路","SECT":" ","MAREA":" ","LANE":" ","ALLEY":" ","HOUSE_NO":"５１８號","E_COORD97":177679.92000000001,"N_COORD97":2559214.25,"ADDRESS":"中正路５１８號","OBJECTID":571350},"geometry":{"x":177679.92000000086,"y":2559214.25}},{"attributes":{"ID":571378,"DIS_CODE":0,"TOWNNAME":"善化區","LI":"光文里","LIN":"29鄰","STREET":"中正路","SECT":" ","MAREA":" ","LANE":" ","ALLEY":" ","HOUSE_NO":"６３２號","E_COORD97":177662.44,"N_COORD97":2559451.75,"ADDRESS":"中正路６３２號","OBJECTID":571351},"geometry":{"x":177662.44000000041,"y":2559451.75}},{"attributes":{"ID":571379,"DIS_CODE":0,"TOWNNAME":"善化區","LI":"光文里","LIN":"29鄰","STREET":"中正路","SECT":" ","MAREA":" ","LANE":" ","ALLEY":" ","HOUSE_NO":"５４８號","E_COORD97":177674.37,"N_COORD97":2559283.25,"ADDRESS":"中正路５４８號","OBJECTID":571352},"geometry":{"x":177674.37000000011,"y":2559283.2500000019}},{"attributes":{"ID":571380,"DIS_CODE":0,"TOWNNAME":"善化區","LI":"光文里","LIN":"29鄰","STREET":"中山路","SECT":" ","MAREA":" ","LANE":" ","ALLEY":" ","HOUSE_NO":"３３０號","E_COORD97":177697.54000000001,"N_COORD97":2559097.75,"ADDRESS":"中山路３３０號","OBJECTID":571353},"geometry":{"x":177697.53999999911,"y":2559097.7500000019}},{"attributes":{"ID":571381,"DIS_CODE":0,"TOWNNAME":"善化區","LI":"光文里","LIN":"29鄰","STREET":"中山路","SECT":" ","MAREA":" ","LANE":" ","ALLEY":" ","HOUSE_NO":"３２６號","E_COORD97":177706.45000000001,"N_COORD97":2559097.5,"ADDRESS":"中山路３２６號","OBJECTID":571354},"geometry":{"x":177706.45000000019,"y":2559097.5}},{"attributes":{"ID":571382,"DIS_CODE":0,"TOWNNAME":"永康區","LI":"龍潭里","LIN":"29鄰","STREET":"中山北路","SECT":" ","MAREA":" ","LANE":" ","ALLEY":" ","HOUSE_NO":"３３７號","E_COORD97":174728.47,"N_COORD97":2547695.2599999998,"ADDRESS":"中山北路３３７號","OBJECTID":571355},"geometry":{"x":174728.47000000067,"y":2547695.2600000016}},{"attributes":{"ID":571383,"DIS_CODE":0,"TOWNNAME":"永康區","LI":"龍潭里","LIN":"29鄰","STREET":"中山北路","SECT":" ","MAREA":" ","LANE":" ","ALLEY":" ","HOUSE_NO":"３４７號","E_COORD97":174758.5,"N_COORD97":2547716.3999999999,"ADDRESS":"中山北路３４７號","OBJECTID":571356},"geometry":{"x":174758.50000000186,"y":2547716.4000000004}},{"attributes":{"ID":571384,"DIS_CODE":0,"TOWNNAME":"永康區","LI":"龍潭里","LIN":"29鄰","STREET":"龍潭街","SECT":" ","MAREA":" ","LANE":" ","ALLEY":" ","HOUSE_NO":"５４號","E_COORD97":174763.85000000001,"N_COORD97":2547843.6800000002,"ADDRESS":"龍潭街５４號","OBJECTID":571357},"geometry":{"x":174763.84999999963,"y":2547843.6800000034}},{"attributes":{"ID":571385,"DIS_CODE":0,"TOWNNAME":"永康區","LI":"龍潭里","LIN":"29鄰","STREET":"龍潭街","SECT":" ","MAREA":" ","LANE":" ","ALLEY":" ","HOUSE_NO":"２２號","E_COORD97":174731.75,"N_COORD97":2547753.7799999998,"ADDRESS":"龍潭街２２號","OBJECTID":571358},"geometry":{"x":174731.75000000093,"y":2547753.7799999993}},{"attributes":{"ID":571386,"DIS_CODE":0,"TOWNNAME":"永康區","LI":"龍潭里","LIN":"29鄰","STREET":"龍潭街","SECT":" ","MAREA":" ","LANE":" ","ALLEY":" ","HOUSE_NO":"４４號","E_COORD97":174772.09,"N_COORD97":2547809.4399999999,"ADDRESS":"龍潭街４４號","OBJECTID":571359},"geometry":{"x":174772.08999999985,"y":2547809.4400000013}},{"attributes":{"ID":571387,"DIS_CODE":0,"TOWNNAME":"永康區","LI":"龍潭里","LIN":"29鄰","STREET":"龍潭街","SECT":" ","MAREA":" ","LANE":" ","ALLEY":" ","HOUSE_NO":"４２號","E_COORD97":174765.01999999999,"N_COORD97":2547800.8999999999,"ADDRESS":"龍潭街４２號","OBJECTID":571360},"geometry":{"x":174765.02000000048,"y":2547800.9000000004}},{"attributes":{"ID":571388,"DIS_CODE":0,"TOWNNAME":"永康區","LI":"龍潭里","LIN":"29鄰","STREET":"龍潭街","SECT":" ","MAREA":" ","LANE":" ","ALLEY":" ","HOUSE_NO":"３０號","E_COORD97":174739.56,"N_COORD97":2547771.4500000002,"ADDRESS":"龍潭街３０號","OBJECTID":571361},"geometry":{"x":174739.56000000052,"y":2547771.4500000011}},{"attributes":{"ID":571389,"DIS_CODE":0,"TOWNNAME":"永康區","LI":"龍潭里","LIN":"29鄰","STREET":"龍潭街","SECT":" ","MAREA":" ","LANE":" ","ALLEY":" ","HOUSE_NO":"２號","E_COORD97":174713.45000000001,"N_COORD97":2547703.4300000002,"ADDRESS":"龍潭街２號","OBJECTID":571362},"geometry":{"x":174713.45000000112,"y":2547703.4300000016}},{"attributes":{"ID":571390,"DIS_CODE":0,"TOWNNAME":"永康區","LI":"龍潭里","LIN":"29鄰","STREET":"龍潭街","SECT":" ","MAREA":" ","LANE":" ","ALLEY":" ","HOUSE_NO":"１６號","E_COORD97":174727.12,"N_COORD97":2547741.02,"ADDRESS":"龍潭街１６號","OBJECTID":571363},"geometry":{"x":174727.11999999918,"y":2547741.0200000014}},{"attributes":{"ID":571391,"DIS_CODE":0,"TOWNNAME":"永康區","LI":"龍潭里","LIN":"29鄰","STREET":"龍潭街","SECT":" ","MAREA":" ","LANE":" ","ALLEY":" ","HOUSE_NO":"２０號","E_COORD97":174730,"N_COORD97":2547749.52,"ADDRESS":"龍潭街２０號","OBJECTID":571364},"geometry":{"x":174730.00000000093,"y":2547749.5199999977}},{"attributes":{"ID":571392,"DIS_CODE":0,"TOWNNAME":"東區","LI":"崇文里","LIN":"29鄰","STREET":"崇德路","SECT":" ","MAREA":" ","LANE":" ","ALLEY":" ","HOUSE_NO":"７４７號","E_COORD97":170808.98999999999,"N_COORD97":2540911.6200000001,"ADDRESS":"崇德路７４７號","OBJECTID":571365},"geometry":{"x":170808.99000000209,"y":2540911.620000001}},{"attributes":{"ID":571393,"DIS_CODE":0,"TOWNNAME":"東區","LI":"崇文里","LIN":"29鄰","STREET":"崇德路","SECT":" ","MAREA":" ","LANE":" ","ALLEY":" ","HOUSE_NO":"７６１號","E_COORD97":170809.29000000001,"N_COORD97":2540873.4900000002,"ADDRESS":"崇德路７６１號","OBJECTID":571366},"geometry":{"x":170809.29000000004,"y":2540873.4900000002}},{"attributes":{"ID":571394,"DIS_CODE":0,"TOWNNAME":"永康區","LI":"復華里","LIN":"29鄰","STREET":"復國一路","SECT":" ","MAREA":" ","LANE":" ","ALLEY":" ","HOUSE_NO":"５００號","E_COORD97":172606.82000000001,"N_COORD97":2546166.1899999999,"ADDRESS":"復國一路５００號","OBJECTID":571367},"geometry":{"x":172606.8200000003,"y":2546166.1900000013}},{"attributes":{"ID":571395,"DIS_CODE":0,"TOWNNAME":"仁德區","LI":"仁義里","LIN":"44鄰","STREET":"仁義路","SECT":" ","MAREA":" ","LANE":" ","ALLEY":" ","HOUSE_NO":"５８號","E_COORD97":173521.76000000001,"N_COORD97":2540946.02,"ADDRESS":"仁義路５８號","OBJECTID":571368},"geometry":{"x":173521.75999999978,"y":2540946.0200000014}},{"attributes":{"ID":571396,"DIS_CODE":0,"TOWNNAME":"永康區","LI":"龍潭里","LIN":"29鄰","STREET":"中山北路","SECT":" ","MAREA":" ","LANE":" ","ALLEY":" ","HOUSE_NO":"３５３號","E_COORD97":174786.04000000001,"N_COORD97":2547701.6499999999,"ADDRESS":"中山北路３５３號","OBJECTID":571369},"geometry":{"x":174786.04000000097,"y":2547701.6500000004}},{"attributes":{"ID":571397,"DIS_CODE":0,"TOWNNAME":"永康區","LI":"埔園里","LIN":"29鄰","STREET":"埔東街","SECT":" ","MAREA":" ","LANE":" ","ALLEY":" ","HOUSE_NO":"７２號","E_COORD97":173817.70999999999,"N_COORD97":2548252.9100000001,"ADDRESS":"埔東街７２號","OBJECTID":571370},"geometry":{"x":173817.70999999903,"y":2548252.9100000039}},{"attributes":{"ID":571398,"DIS_CODE":0,"TOWNNAME":"永康區","LI":"埔園里","LIN":"29鄰","STREET":"埔東街","SECT":" ","MAREA":" ","LANE":" ","ALLEY":" ","HOUSE_NO":"９６號","E_COORD97":173848.63,"N_COORD97":2548314.6899999999,"ADDRESS":"埔東街９６號","OBJECTID":571371},"geometry":{"x":173848.62999999989,"y":2548314.6900000032}},{"attributes":{"ID":571399,"DIS_CODE":0,"TOWNNAME":"永康區","LI":"\u25A0洲里","LIN":"29鄰","STREET":"洲尾街","SECT":" ","MAREA":" ","LANE":" ","ALLEY":" ","HOUSE_NO":"１７４號","E_COORD97":171101.10000000001,"N_COORD97":2549146.8700000001,"ADDRESS":"洲尾街１７４號","OBJECTID":571372},"geometry":{"x":171101.10000000056,"y":2549146.8700000029}},{"attributes":{"ID":571400,"DIS_CODE":0,"TOWNNAME":"永康區","LI":"\u25A0洲里","LIN":"29鄰","STREET":"洲尾街","SECT":" ","MAREA":" ","LANE":" ","ALLEY":" ","HOUSE_NO":"１８２號","E_COORD97":171125.06,"N_COORD97":2549145.6200000001,"ADDRESS":"洲尾街１８２號","OBJECTID":571373},"geometry":{"x":171125.06000000052,"y":2549145.6200000029}},{"attributes":{"ID":571401,"DIS_CODE":0,"TOWNNAME":"永康區","LI":"\u25A0洲里","LIN":"29鄰","STREET":"洲尾街","SECT":" ","MAREA":" ","LANE":" ","ALLEY":" ","HOUSE_NO":"１６６號","E_COORD97":171085.31,"N_COORD97":2549140.6099999999,"ADDRESS":"洲尾街１６６號","OBJECTID":571374},"geometry":{"x":171085.30999999959,"y":2549140.6100000013}},{"attributes":{"ID":571402,"DIS_CODE":0,"TOWNNAME":"永康區","LI":"西灣里","LIN":"29鄰","STREET":"大勇路","SECT":" ","MAREA":" ","LANE":" ","ALLEY":" ","HOUSE_NO":"１５２號之６","E_COORD97":174320.70999999999,"N_COORD97":2545827.29,"ADDRESS":"大勇路１５２號之６","OBJECTID":571375},"geometry":{"x":174320.70999999996,"y":2545827.2899999991}},{"attributes":{"ID":571403,"DIS_CODE":0,"TOWNNAME":"東區","LI":"裕農里","LIN":"29鄰","STREET":"東寧路","SECT":" ","MAREA":" ","LANE":" ","ALLEY":" ","HOUSE_NO":"５５８號","E_COORD97":171255.13,"N_COORD97":2543232.3300000001,"ADDRESS":"東寧路５５８號","OBJECTID":571376},"geometry":{"x":171255.13000000175,"y":2543232.3300000038}},{"attributes":{"ID":571404,"DIS_CODE":0,"TOWNNAME":"東區","LI":"裕農里","LIN":"29鄰","STREET":"東寧路","SECT":" ","MAREA":" ","LANE":" ","ALLEY":" ","HOUSE_NO":"５６０號","E_COORD97":171243.23999999999,"N_COORD97":2543206.9300000002,"ADDRESS":"東寧路５６０號","OBJECTID":571377},"geometry":{"x":171243.24000000115,"y":2543206.9299999997}},{"attributes":{"ID":571405,"DIS_CODE":0,"TOWNNAME":"東區","LI":"裕農里","LIN":"29鄰","STREET":"東寧路","SECT":" ","MAREA":" ","LANE":" ","ALLEY":" ","HOUSE_NO":"５６４號","E_COORD97":171281.53,"N_COORD97":2543224.6299999999,"ADDRESS":"東寧路５６４號","OBJECTID":571378},"geometry":{"x":171281.53000000026,"y":2543224.629999999}},{"attributes":{"ID":571406,"DIS_CODE":0,"TOWNNAME":"東區","LI":"裕農里","LIN":"29鄰","STREET":"東寧路","SECT":" ","MAREA":" ","LANE":" ","ALLEY":" ","HOUSE_NO":"５７６號","E_COORD97":171293.45000000001,"N_COORD97":2543215.8399999999,"ADDRESS":"東寧路５７６號","OBJECTID":571379},"geometry":{"x":171293.45000000019,"y":2543215.8400000017}},{"attributes":{"ID":571407,"DIS_CODE":0,"TOWNNAME":"歸仁區","LI":"南興里","LIN":"29鄰","STREET":"保興一街","SECT":" ","MAREA":" ","LANE":" ","ALLEY":" ","HOUSE_NO":"２號","E_COORD97":176473.57999999999,"N_COORD97":2541132.25,"ADDRESS":"保興一街２號","OBJECTID":571380},"geometry":{"x":176473.58000000194,"y":2541132.2500000019}},{"attributes":{"ID":571408,"DIS_CODE":0,"TOWNNAME":"新營區","LI":"新南里","LIN":"29鄰","STREET":"明清一街","SECT":" ","MAREA":" ","LANE":" ","ALLEY":" ","HOUSE_NO":"７６號","E_COORD97":178007.94,"N_COORD97":2578695.2200000002,"ADDRESS":"明清一街７６號","OBJECTID":571381},"geometry":{"x":178007.94000000134,"y":2578695.2200000007}},{"attributes":{"ID":571409,"DIS_CODE":0,"TOWNNAME":"新營區","LI":"三仙里","LIN":"29鄰","STREET":"三興街","SECT":" ","MAREA":" ","LANE":" ","ALLEY":" ","HOUSE_NO":"９０號","E_COORD97":179445.78,"N_COORD97":2579075.9100000001,"ADDRESS":"三興街９０號","OBJECTID":571382},"geometry":{"x":179445.78000000212,"y":2579075.910000002}},{"attributes":{"ID":571410,"DIS_CODE":0,"TOWNNAME":"新營區","LI":"新南里","LIN":"29鄰","STREET":"明清一街","SECT":" ","MAREA":" ","LANE":" ","ALLEY":" ","HOUSE_NO":"５５號","E_COORD97":178035.35999999999,"N_COORD97":2578658.5499999998,"ADDRESS":"明清一街５５號","OBJECTID":571383},"geometry":{"x":178035.36000000127,"y":2578658.5500000026}},{"attributes":{"ID":571411,"DIS_CODE":0,"TOWNNAME":"歸仁區","LI":"許厝里","LIN":"29鄰","STREET":"復興路","SECT":" ","MAREA":" ","LANE":" ","ALLEY":" ","HOUSE_NO":"８號","E_COORD97":177993.92999999999,"N_COORD97":2540647.3900000001,"ADDRESS":"復興路８號","OBJECTID":571384},"geometry":{"x":177993.9299999997,"y":2540647.3900000006}},{"attributes":{"ID":571412,"DIS_CODE":0,"TOWNNAME":"歸仁區","LI":"許厝里","LIN":"29鄰","STREET":"中山路","SECT":"一段","MAREA":" ","LANE":" ","ALLEY":" ","HOUSE_NO":"５１１號","E_COORD97":177970.85999999999,"N_COORD97":2540717.8199999998,"ADDRESS":"中山路一段５１１號","OBJECTID":571385},"geometry":{"x":177970.86000000127,"y":2540717.8200000022}},{"attributes":{"ID":571413,"DIS_CODE":0,"TOWNNAME":"仁德區","LI":"仁義里","LIN":"33鄰","STREET":"正義二街","SECT":" ","MAREA":" ","LANE":" ","ALLEY":" ","HOUSE_NO":"３６號","E_COORD97":173483.42000000001,"N_COORD97":2541555.27,"ADDRESS":"正義二街３６號","OBJECTID":571386},"geometry":{"x":173483.41999999993,"y":2541555.2700000014}},{"attributes":{"ID":571414,"DIS_CODE":0,"TOWNNAME":"歸仁區","LI":"許厝里","LIN":"29鄰","STREET":"大智街","SECT":" ","MAREA":" ","LANE":" ","ALLEY":" ","HOUSE_NO":"２１號","E_COORD97":177931.07000000001,"N_COORD97":2540675.5299999998,"ADDRESS":"大智街２１號","OBJECTID":571387},"geometry":{"x":177931.0700000003,"y":2540675.5299999993}},{"attributes":{"ID":571415,"DIS_CODE":0,"TOWNNAME":"玉井區","LI":"玉田里","LIN":"29鄰","STREET":"仁愛街","SECT":" ","MAREA":" ","LANE":" ","ALLEY":" ","HOUSE_NO":"１５８號","E_COORD97":195388.09,"N_COORD97":2557822.2799999998,"ADDRESS":"仁愛街１５８號","OBJECTID":571388},"geometry":{"x":195388.09000000171,"y":2557822.2799999993}},{"attributes":{"ID":571416,"DIS_CODE":0,"TOWNNAME":"玉井區","LI":"玉田里","LIN":"29鄰","STREET":"仁愛街","SECT":" ","MAREA":" ","LANE":" ","ALLEY":" ","HOUSE_NO":"１５２號","E_COORD97":195387.89000000001,"N_COORD97":2557812.2799999998,"ADDRESS":"仁愛街１５２號","OBJECTID":571389},"geometry":{"x":195387.8900000006,"y":2557812.2799999993}},{"attributes":{"ID":571417,"DIS_CODE":0,"TOWNNAME":"新營區","LI":"大宏里","LIN":"29鄰","STREET":"綠川路","SECT":" ","MAREA":" ","LANE":" ","ALLEY":" ","HOUSE_NO":"５２號","E_COORD97":180766.78,"N_COORD97":2578744.0899999999,"ADDRESS":"綠川路５２號","OBJECTID":571390},"geometry":{"x":180766.78000000119,"y":2578744.089999998}},{"attributes":{"ID":571418,"DIS_CODE":0,"TOWNNAME":"新營區","LI":"新南里","LIN":"29鄰","STREET":"長榮路","SECT":"二段","MAREA":" ","LANE":" ","ALLEY":" ","HOUSE_NO":"１１５３號","E_COORD97":177806.14000000001,"N_COORD97":2578547.8199999998,"ADDRESS":"長榮路二段１１５３號","OBJECTID":571391},"geometry":{"x":177806.13999999966,"y":2578547.8200000022}},{"attributes":{"ID":571419,"DIS_CODE":0,"TOWNNAME":"新營區","LI":"大宏里","LIN":"29鄰","STREET":"新東街","SECT":" ","MAREA":" ","LANE":" ","ALLEY":" ","HOUSE_NO":"４５號","E_COORD97":180814.78,"N_COORD97":2578715.0699999998,"ADDRESS":"新東街４５號","OBJECTID":571392},"geometry":{"x":180814.78000000026,"y":2578715.0700000022}},{"attributes":{"ID":571420,"DIS_CODE":0,"TOWNNAME":"新營區","LI":"新北里","LIN":"29鄰","STREET":"金華路","SECT":"二段","MAREA":" ","LANE":" ","ALLEY":" ","HOUSE_NO":"１１５號","E_COORD97":178823.29000000001,"N_COORD97":2578896.1699999999,"ADDRESS":"金華路二段１１５號","OBJECTID":571393},"geometry":{"x":178823.2900000019,"y":2578896.1699999999}},{"attributes":{"ID":571421,"DIS_CODE":0,"TOWNNAME":"新營區","LI":"大宏里","LIN":"29鄰","STREET":"綠川路","SECT":" ","MAREA":" ","LANE":" ","ALLEY":" ","HOUSE_NO":"３５號","E_COORD97":180804.73999999999,"N_COORD97":2578753.8799999999,"ADDRESS":"綠川路３５號","OBJECTID":571394},"geometry":{"x":180804.74000000022,"y":2578753.879999999}},{"attributes":{"ID":571422,"DIS_CODE":0,"TOWNNAME":"新營區","LI":"三仙里","LIN":"29鄰","STREET":"三興街","SECT":" ","MAREA":" ","LANE":" ","ALLEY":" ","HOUSE_NO":"９６號之１","E_COORD97":179477.84,"N_COORD97":2579132.2999999998,"ADDRESS":"三興街９６號之１","OBJECTID":571395},"geometry":{"x":179477.84000000078,"y":2579132.3000000007}},{"attributes":{"ID":571423,"DIS_CODE":0,"TOWNNAME":"北區","LI":"文元里","LIN":"29鄰","STREET":"文賢三街","SECT":" ","MAREA":" ","LANE":" ","ALLEY":" ","HOUSE_NO":"１４２號","E_COORD97":167834.39999999999,"N_COORD97":2545920.4900000002,"ADDRESS":"文賢三街１４２號","OBJECTID":571396},"geometry":{"x":167834.40000000037,"y":2545920.4900000021}},{"attributes":{"ID":571424,"DIS_CODE":0,"TOWNNAME":"北區","LI":"文元里","LIN":"29鄰","STREET":"文賢三街","SECT":" ","MAREA":" ","LANE":" ","ALLEY":" ","HOUSE_NO":"１４６號","E_COORD97":167835.04999999999,"N_COORD97":2545926.3399999999,"ADDRESS":"文賢三街１４６號","OBJECTID":571397},"geometry":{"x":167835.05000000075,"y":2545926.3399999999}},{"attributes":{"ID":571425,"DIS_CODE":0,"TOWNNAME":"北區","LI":"文元里","LIN":"29鄰","STREET":"文賢三街","SECT":" ","MAREA":" ","LANE":" ","ALLEY":" ","HOUSE_NO":"１５２號","E_COORD97":167832.12,"N_COORD97":2545943.8799999999,"ADDRESS":"文賢三街１５２號","OBJECTID":571398},"geometry":{"x":167832.12000000011,"y":2545943.8800000008}},{"attributes":{"ID":571426,"DIS_CODE":0,"TOWNNAME":"北區","LI":"成德里","LIN":"29鄰","STREET":"立賢路","SECT":"一段","MAREA":" ","LANE":" ","ALLEY":" ","HOUSE_NO":"５８２號","E_COORD97":168473.20999999999,"N_COORD97":2545589.77,"ADDRESS":"立賢路一段５８２號","OBJECTID":571399},"geometry":{"x":168473.21000000089,"y":2545589.7700000014}},{"attributes":{"ID":571427,"DIS_CODE":0,"TOWNNAME":"北區","LI":"成德里","LIN":"29鄰","STREET":"立賢路","SECT":"一段","MAREA":" ","LANE":" ","ALLEY":" ","HOUSE_NO":"５８６號","E_COORD97":168463.69,"N_COORD97":2545589.77,"ADDRESS":"立賢路一段５８６號","OBJECTID":571400},"geometry":{"x":168463.69000000134,"y":2545589.7700000014}}]}