{"displayFieldName":"TOWNNAME","fieldAliases":{"ID":"ID","DIS_CODE":"DIS_CODE","TOWNNAME":"TOWNNAME","LI":"LI","LIN":"LIN","STREET":"STREET","SECT":"SECT","MAREA":"MAREA","LANE":"LANE","ALLEY":"ALLEY","HOUSE_NO":"HOUSE_NO","E_COORD97":"E_COORD97","N_COORD97":"N_COORD97","ADDRESS":"ADDRESS","OBJECTID":"OBJECTID"},"geometryType":"esriGeometryPoint","spatialReference":{"wkid":102443,"latestWkid":3826},"fields":[{"name":"ID","type":"esriFieldTypeDouble","alias":"ID"},{"name":"DIS_CODE","type":"esriFieldTypeInteger","alias":"DIS_CODE"},{"name":"TOWNNAME","type":"esriFieldTypeString","alias":"TOWNNAME","length":8},{"name":"LI","type":"esriFieldTypeString","alias":"LI","length":8},{"name":"LIN","type":"esriFieldTypeString","alias":"LIN","length":12},{"name":"STREET","type":"esriFieldTypeString","alias":"STREET","length":20},{"name":"SECT","type":"esriFieldTypeString","alias":"SECT","length":8},{"name":"MAREA","type":"esriFieldTypeString","alias":"MAREA","length":12},{"name":"LANE","type":"esriFieldTypeString","alias":"LANE","length":10},{"name":"ALLEY","type":"esriFieldTypeString","alias":"ALLEY","length":10},{"name":"HOUSE_NO","type":"esriFieldTypeString","alias":"HOUSE_NO","length":20},{"name":"E_COORD97","type":"esriFieldTypeDouble","alias":"E_COORD97"},{"name":"N_COORD97","type":"esriFieldTypeDouble","alias":"N_COORD97"},{"name":"ADDRESS","type":"esriFieldTypeString","alias":"ADDRESS","length":50},{"name":"OBJECTID","type":"esriFieldTypeOID","alias":"OBJECTID"}],"features":[{"attributes":{"ID":617428,"DIS_CODE":0,"TOWNNAME":"安南區","LI":"\u25A0南里","LIN":"2鄰","STREET":"安昌街","SECT":" ","MAREA":" ","LANE":" ","ALLEY":" ","HOUSE_NO":"１６３號","E_COORD97":170065.94,"N_COORD97":2552433.73,"ADDRESS":"安昌街１６３號","OBJECTID":617401},"geometry":{"x":170065.94000000134,"y":2552433.7300000004}},{"attributes":{"ID":617429,"DIS_CODE":0,"TOWNNAME":"安南區","LI":"\u25A0南里","LIN":"2鄰","STREET":"安昌街","SECT":" ","MAREA":" ","LANE":" ","ALLEY":" ","HOUSE_NO":"１６８號","E_COORD97":170098.23999999999,"N_COORD97":2552440.6800000002,"ADDRESS":"安昌街１６８號","OBJECTID":617402},"geometry":{"x":170098.24000000022,"y":2552440.6799999997}},{"attributes":{"ID":617430,"DIS_CODE":0,"TOWNNAME":"安南區","LI":"\u25A0南里","LIN":"2鄰","STREET":"安昌街","SECT":" ","MAREA":" ","LANE":" ","ALLEY":" ","HOUSE_NO":"１６２號","E_COORD97":170093.07999999999,"N_COORD97":2552422.5299999998,"ADDRESS":"安昌街１６２號","OBJECTID":617403},"geometry":{"x":170093.08000000101,"y":2552422.5300000012}},{"attributes":{"ID":617431,"DIS_CODE":0,"TOWNNAME":"安南區","LI":"\u25A0南里","LIN":"2鄰","STREET":"安昌街","SECT":" ","MAREA":" ","LANE":" ","ALLEY":" ","HOUSE_NO":"１５０號","E_COORD97":170068.41,"N_COORD97":2552376.7400000002,"ADDRESS":"安昌街１５０號","OBJECTID":617404},"geometry":{"x":170068.41000000015,"y":2552376.7400000039}},{"attributes":{"ID":617432,"DIS_CODE":0,"TOWNNAME":"安南區","LI":"大安里","LIN":"2鄰","STREET":"理安街","SECT":" ","MAREA":" ","LANE":" ","ALLEY":" ","HOUSE_NO":"１５號","E_COORD97":167272.10000000001,"N_COORD97":2547914.0299999998,"ADDRESS":"理安街１５號","OBJECTID":617405},"geometry":{"x":167272.10000000056,"y":2547914.0299999993}},{"attributes":{"ID":617433,"DIS_CODE":0,"TOWNNAME":"安南區","LI":"大安里","LIN":"2鄰","STREET":"理安街","SECT":" ","MAREA":" ","LANE":" ","ALLEY":" ","HOUSE_NO":"２１號","E_COORD97":167279.39000000001,"N_COORD97":2547925.0800000001,"ADDRESS":"理安街２１號","OBJECTID":617406},"geometry":{"x":167279.38999999966,"y":2547925.0800000001}},{"attributes":{"ID":617434,"DIS_CODE":0,"TOWNNAME":"安南區","LI":"公親里","LIN":"2鄰","STREET":"公學路","SECT":"一段","MAREA":" ","LANE":" ","ALLEY":" ","HOUSE_NO":"２４４號","E_COORD97":167971.89000000001,"N_COORD97":2553041.2200000002,"ADDRESS":"公學路一段２４４號","OBJECTID":617407},"geometry":{"x":167971.8900000006,"y":2553041.2200000007}},{"attributes":{"ID":617435,"DIS_CODE":0,"TOWNNAME":"安南區","LI":"公親里","LIN":"2鄰","STREET":"公學路","SECT":"一段","MAREA":" ","LANE":" ","ALLEY":" ","HOUSE_NO":"２４６號","E_COORD97":167967.23000000001,"N_COORD97":2553039.1600000001,"ADDRESS":"公學路一段２４６號","OBJECTID":617408},"geometry":{"x":167967.23000000138,"y":2553039.160000002}},{"attributes":{"ID":617436,"DIS_CODE":0,"TOWNNAME":"安南區","LI":"公親里","LIN":"2鄰","STREET":"公學路","SECT":"一段","MAREA":" ","LANE":" ","ALLEY":" ","HOUSE_NO":"２４８號","E_COORD97":167963.09,"N_COORD97":2553036.0499999998,"ADDRESS":"公學路一段２４８號","OBJECTID":617409},"geometry":{"x":167963.08999999985,"y":2553036.0499999989}},{"attributes":{"ID":617437,"DIS_CODE":0,"TOWNNAME":"安南區","LI":"安西里","LIN":"2鄰","STREET":"安和路","SECT":"一段","MAREA":" ","LANE":" ","ALLEY":" ","HOUSE_NO":"２４１號","E_COORD97":169292.23581099999,"N_COORD97":2548001.48178,"ADDRESS":"安和路一段２４１號","OBJECTID":617410},"geometry":{"x":169292.23581099976,"y":2548001.4817779996}},{"attributes":{"ID":617438,"DIS_CODE":0,"TOWNNAME":"善化區","LI":"南關里","LIN":"2鄰","STREET":"平等路","SECT":" ","MAREA":" ","LANE":" ","ALLEY":" ","HOUSE_NO":"５８號","E_COORD97":177179.20000000001,"N_COORD97":2558974,"ADDRESS":"平等路５８號","OBJECTID":617411},"geometry":{"x":177179.20000000019,"y":2558974.0000000019}},{"attributes":{"ID":617439,"DIS_CODE":0,"TOWNNAME":"善化區","LI":"北關里","LIN":"2鄰","STREET":"中山路","SECT":" ","MAREA":" ","LANE":" ","ALLEY":" ","HOUSE_NO":"５２０號","E_COORD97":177096.87,"N_COORD97":2559167.2400000002,"ADDRESS":"中山路５２０號","OBJECTID":617412},"geometry":{"x":177096.87000000011,"y":2559167.2400000002}},{"attributes":{"ID":617440,"DIS_CODE":0,"TOWNNAME":"善化區","LI":"南關里","LIN":"2鄰","STREET":"中華路","SECT":" ","MAREA":" ","LANE":" ","ALLEY":" ","HOUSE_NO":"１３３號","E_COORD97":177208.12,"N_COORD97":2558996,"ADDRESS":"中華路１３３號","OBJECTID":617413},"geometry":{"x":177208.12000000104,"y":2558995.9999999981}},{"attributes":{"ID":617441,"DIS_CODE":0,"TOWNNAME":"善化區","LI":"坐駕里","LIN":"2鄰","STREET":"中山路","SECT":" ","MAREA":" ","LANE":" ","ALLEY":" ","HOUSE_NO":"３０７號","E_COORD97":177817.04000000001,"N_COORD97":2559069.25,"ADDRESS":"中山路３０７號","OBJECTID":617414},"geometry":{"x":177817.04000000097,"y":2559069.2500000037}},{"attributes":{"ID":617442,"DIS_CODE":0,"TOWNNAME":"善化區","LI":"東關里","LIN":"2鄰","STREET":"中山路","SECT":" ","MAREA":" ","LANE":" ","ALLEY":" ","HOUSE_NO":"３９２號","E_COORD97":177470.92000000001,"N_COORD97":2559115.75,"ADDRESS":"中山路３９２號","OBJECTID":617415},"geometry":{"x":177470.91999999993,"y":2559115.75}},{"attributes":{"ID":617443,"DIS_CODE":0,"TOWNNAME":"善化區","LI":"坐駕里","LIN":"2鄰","STREET":"青年路","SECT":" ","MAREA":" ","LANE":" ","ALLEY":" ","HOUSE_NO":"２１０號","E_COORD97":177822.06,"N_COORD97":2559051,"ADDRESS":"青年路２１０號","OBJECTID":617416},"geometry":{"x":177822.05999999959,"y":2559051.0000000019}},{"attributes":{"ID":617444,"DIS_CODE":0,"TOWNNAME":"善化區","LI":"東關里","LIN":"2鄰","STREET":"中山路","SECT":" ","MAREA":" ","LANE":" ","ALLEY":" ","HOUSE_NO":"３９８號","E_COORD97":177457.32999999999,"N_COORD97":2559116.5,"ADDRESS":"中山路３９８號","OBJECTID":617417},"geometry":{"x":177457.33000000101,"y":2559116.5000000019}},{"attributes":{"ID":617445,"DIS_CODE":0,"TOWNNAME":"善化區","LI":"南關里","LIN":"2鄰","STREET":"平等路","SECT":" ","MAREA":" ","LANE":" ","ALLEY":" ","HOUSE_NO":"６０號","E_COORD97":177173.45000000001,"N_COORD97":2558975,"ADDRESS":"平等路６０號","OBJECTID":617418},"geometry":{"x":177173.45000000112,"y":2558975}},{"attributes":{"ID":617446,"DIS_CODE":0,"TOWNNAME":"善化區","LI":"南關里","LIN":"2鄰","STREET":"平等路","SECT":" ","MAREA":" ","LANE":" ","ALLEY":" ","HOUSE_NO":"５２號","E_COORD97":177195.35999999999,"N_COORD97":2558971.75,"ADDRESS":"平等路５２號","OBJECTID":617419},"geometry":{"x":177195.36000000034,"y":2558971.7500000019}},{"attributes":{"ID":617447,"DIS_CODE":0,"TOWNNAME":"善化區","LI":"南關里","LIN":"2鄰","STREET":"平等路","SECT":" ","MAREA":" ","LANE":" ","ALLEY":" ","HOUSE_NO":"６４號","E_COORD97":177163.22,"N_COORD97":2558974.75,"ADDRESS":"平等路６４號","OBJECTID":617420},"geometry":{"x":177163.21999999974,"y":2558974.7500000019}},{"attributes":{"ID":617448,"DIS_CODE":0,"TOWNNAME":"善化區","LI":"東關里","LIN":"2鄰","STREET":"中山路","SECT":" ","MAREA":" ","LANE":" ","ALLEY":" ","HOUSE_NO":"３９６號","E_COORD97":177461.78,"N_COORD97":2559116.25,"ADDRESS":"中山路３９６號","OBJECTID":617421},"geometry":{"x":177461.78000000026,"y":2559116.2499999981}},{"attributes":{"ID":617449,"DIS_CODE":0,"TOWNNAME":"善化區","LI":"坐駕里","LIN":"2鄰","STREET":"青年路","SECT":" ","MAREA":" ","LANE":" ","ALLEY":" ","HOUSE_NO":"１７７號","E_COORD97":177792.07000000001,"N_COORD97":2559053,"ADDRESS":"青年路１７７號","OBJECTID":617422},"geometry":{"x":177792.0700000003,"y":2559053}},{"attributes":{"ID":617450,"DIS_CODE":0,"TOWNNAME":"善化區","LI":"坐駕里","LIN":"2鄰","STREET":"青年路","SECT":" ","MAREA":" ","LANE":" ","ALLEY":" ","HOUSE_NO":"２０８號","E_COORD97":177816.25,"N_COORD97":2559043,"ADDRESS":"青年路２０８號","OBJECTID":617423},"geometry":{"x":177816.25,"y":2559043}},{"attributes":{"ID":617451,"DIS_CODE":0,"TOWNNAME":"善化區","LI":"坐駕里","LIN":"2鄰","STREET":"青年路","SECT":" ","MAREA":" ","LANE":" ","ALLEY":" ","HOUSE_NO":"１６５號","E_COORD97":177795.45999999999,"N_COORD97":2559021.5,"ADDRESS":"青年路１６５號","OBJECTID":617424},"geometry":{"x":177795.46000000089,"y":2559021.5000000019}},{"attributes":{"ID":617452,"DIS_CODE":0,"TOWNNAME":"善化區","LI":"坐駕里","LIN":"2鄰","STREET":"青年路","SECT":" ","MAREA":" ","LANE":" ","ALLEY":" ","HOUSE_NO":"１６７號","E_COORD97":177796.16,"N_COORD97":2559025.5,"ADDRESS":"青年路１６７號","OBJECTID":617425},"geometry":{"x":177796.16000000015,"y":2559025.5}},{"attributes":{"ID":617453,"DIS_CODE":0,"TOWNNAME":"善化區","LI":"東關里","LIN":"2鄰","STREET":"中山路","SECT":" ","MAREA":" ","LANE":" ","ALLEY":" ","HOUSE_NO":"３９０號","E_COORD97":177475.72,"N_COORD97":2559115.75,"ADDRESS":"中山路３９０號","OBJECTID":617426},"geometry":{"x":177475.7200000016,"y":2559115.75}},{"attributes":{"ID":617454,"DIS_CODE":0,"TOWNNAME":"善化區","LI":"南關里","LIN":"2鄰","STREET":"平等路","SECT":" ","MAREA":" ","LANE":" ","ALLEY":" ","HOUSE_NO":"５６號","E_COORD97":177186.48999999999,"N_COORD97":2558971.75,"ADDRESS":"平等路５６號","OBJECTID":617427},"geometry":{"x":177186.49000000115,"y":2558971.7500000019}},{"attributes":{"ID":617455,"DIS_CODE":0,"TOWNNAME":"善化區","LI":"坐駕里","LIN":"2鄰","STREET":"中山路","SECT":" ","MAREA":" ","LANE":" ","ALLEY":" ","HOUSE_NO":"３２３號","E_COORD97":177777.22,"N_COORD97":2559071,"ADDRESS":"中山路３２３號","OBJECTID":617428},"geometry":{"x":177777.21999999974,"y":2559071.0000000037}},{"attributes":{"ID":617456,"DIS_CODE":0,"TOWNNAME":"善化區","LI":"北關里","LIN":"2鄰","STREET":"三民路","SECT":" ","MAREA":" ","LANE":" ","ALLEY":" ","HOUSE_NO":"８５號之１","E_COORD97":177118.95000000001,"N_COORD97":2559189.02,"ADDRESS":"三民路８５號之１","OBJECTID":617429},"geometry":{"x":177118.95000000112,"y":2559189.0200000033}},{"attributes":{"ID":617457,"DIS_CODE":0,"TOWNNAME":"善化區","LI":"北關里","LIN":"2鄰","STREET":"三民路","SECT":" ","MAREA":" ","LANE":" ","ALLEY":" ","HOUSE_NO":"８７號之２","E_COORD97":177121.56,"N_COORD97":2559197.77,"ADDRESS":"三民路８７號之２","OBJECTID":617430},"geometry":{"x":177121.55999999959,"y":2559197.7700000014}},{"attributes":{"ID":617458,"DIS_CODE":0,"TOWNNAME":"善化區","LI":"坐駕里","LIN":"2鄰","STREET":"中山路","SECT":" ","MAREA":" ","LANE":" ","ALLEY":" ","HOUSE_NO":"３１７號","E_COORD97":177790.35999999999,"N_COORD97":2559070.25,"ADDRESS":"中山路３１７號","OBJECTID":617431},"geometry":{"x":177790.36000000034,"y":2559070.2500000019}},{"attributes":{"ID":617459,"DIS_CODE":0,"TOWNNAME":"善化區","LI":"坐駕里","LIN":"2鄰","STREET":"中興路","SECT":" ","MAREA":" ","LANE":" ","ALLEY":" ","HOUSE_NO":"６號","E_COORD97":177783.95000000001,"N_COORD97":2559008,"ADDRESS":"中興路６號","OBJECTID":617432},"geometry":{"x":177783.95000000112,"y":2559008.0000000019}},{"attributes":{"ID":617460,"DIS_CODE":0,"TOWNNAME":"善化區","LI":"坐駕里","LIN":"2鄰","STREET":"中山路","SECT":" ","MAREA":" ","LANE":" ","ALLEY":" ","HOUSE_NO":"３３３號","E_COORD97":177757.20000000001,"N_COORD97":2559062.5,"ADDRESS":"中山路３３３號","OBJECTID":617433},"geometry":{"x":177757.20000000019,"y":2559062.5}},{"attributes":{"ID":617461,"DIS_CODE":0,"TOWNNAME":"善化區","LI":"坐駕里","LIN":"2鄰","STREET":"中山路","SECT":" ","MAREA":" ","LANE":" ","ALLEY":" ","HOUSE_NO":"３２９號","E_COORD97":177761.17000000001,"N_COORD97":2559077.5,"ADDRESS":"中山路３２９號","OBJECTID":617434},"geometry":{"x":177761.17000000179,"y":2559077.5000000037}},{"attributes":{"ID":617462,"DIS_CODE":0,"TOWNNAME":"善化區","LI":"北關里","LIN":"2鄰","STREET":"中山路","SECT":" ","MAREA":" ","LANE":" ","ALLEY":" ","HOUSE_NO":"５１８號之２","E_COORD97":177107.38,"N_COORD97":2559165.02,"ADDRESS":"中山路５１８號之２","OBJECTID":617435},"geometry":{"x":177107.38000000082,"y":2559165.0200000033}},{"attributes":{"ID":617463,"DIS_CODE":0,"TOWNNAME":"永康區","LI":"龍潭里","LIN":"2鄰","STREET":"龍潭街","SECT":" ","MAREA":" ","LANE":" ","ALLEY":" ","HOUSE_NO":"７９號之２","E_COORD97":174820.48000000001,"N_COORD97":2548059.1000000001,"ADDRESS":"龍潭街７９號之２","OBJECTID":617436},"geometry":{"x":174820.48000000138,"y":2548059.1000000015}},{"attributes":{"ID":617464,"DIS_CODE":0,"TOWNNAME":"東區","LI":"富裕里","LIN":"2鄰","STREET":"東門路","SECT":"二段","MAREA":" ","LANE":" ","ALLEY":" ","HOUSE_NO":"２０９號","E_COORD97":170522.79000000001,"N_COORD97":2542795.4199999999,"ADDRESS":"東門路二段２０９號","OBJECTID":617437},"geometry":{"x":170522.79000000004,"y":2542795.4200000018}},{"attributes":{"ID":617465,"DIS_CODE":0,"TOWNNAME":"東區","LI":"富裕里","LIN":"2鄰","STREET":"東門路","SECT":"二段","MAREA":" ","LANE":" ","ALLEY":" ","HOUSE_NO":"２１１號","E_COORD97":170526.56,"N_COORD97":2542792.9199999999,"ADDRESS":"東門路二段２１１號","OBJECTID":617438},"geometry":{"x":170526.56000000052,"y":2542792.9199999999}},{"attributes":{"ID":617466,"DIS_CODE":0,"TOWNNAME":"東區","LI":"富裕里","LIN":"2鄰","STREET":"東門路","SECT":"二段","MAREA":" ","LANE":" ","ALLEY":" ","HOUSE_NO":"２１３號","E_COORD97":170530.22,"N_COORD97":2542790.1400000001,"ADDRESS":"東門路二段２１３號","OBJECTID":617439},"geometry":{"x":170530.21999999974,"y":2542790.1400000025}},{"attributes":{"ID":617467,"DIS_CODE":0,"TOWNNAME":"東區","LI":"富裕里","LIN":"2鄰","STREET":"東門路","SECT":"二段","MAREA":" ","LANE":" ","ALLEY":" ","HOUSE_NO":"２１５號","E_COORD97":170534.35000000001,"N_COORD97":2542787.52,"ADDRESS":"東門路二段２１５號","OBJECTID":617440},"geometry":{"x":170534.34999999963,"y":2542787.5200000014}},{"attributes":{"ID":617468,"DIS_CODE":0,"TOWNNAME":"東區","LI":"富裕里","LIN":"2鄰","STREET":"東門路","SECT":"二段","MAREA":" ","LANE":" ","ALLEY":" ","HOUSE_NO":"２１７號","E_COORD97":170537.72,"N_COORD97":2542783.5299999998,"ADDRESS":"東門路二段２１７號","OBJECTID":617441},"geometry":{"x":170537.72000000067,"y":2542783.5300000012}},{"attributes":{"ID":617469,"DIS_CODE":0,"TOWNNAME":"東區","LI":"富裕里","LIN":"2鄰","STREET":"東門路","SECT":"二段","MAREA":" ","LANE":" ","ALLEY":" ","HOUSE_NO":"２１９號","E_COORD97":170541.44,"N_COORD97":2542781.4399999999,"ADDRESS":"東門路二段２１９號","OBJECTID":617442},"geometry":{"x":170541.44000000041,"y":2542781.4400000013}},{"attributes":{"ID":617470,"DIS_CODE":0,"TOWNNAME":"東區","LI":"富裕里","LIN":"2鄰","STREET":"東門路","SECT":"二段","MAREA":" ","LANE":" ","ALLEY":" ","HOUSE_NO":"２２１號","E_COORD97":170545.20999999999,"N_COORD97":2542778.3599999999,"ADDRESS":"東門路二段２２１號","OBJECTID":617443},"geometry":{"x":170545.21000000089,"y":2542778.3600000013}},{"attributes":{"ID":617471,"DIS_CODE":0,"TOWNNAME":"東區","LI":"富裕里","LIN":"2鄰","STREET":"東門路","SECT":"二段","MAREA":" ","LANE":" ","ALLEY":" ","HOUSE_NO":"２２３號","E_COORD97":170549.57000000001,"N_COORD97":2542775.3399999999,"ADDRESS":"東門路二段２２３號","OBJECTID":617444},"geometry":{"x":170549.57000000123,"y":2542775.3400000017}},{"attributes":{"ID":617472,"DIS_CODE":0,"TOWNNAME":"東區","LI":"富裕里","LIN":"2鄰","STREET":"東門路","SECT":"二段","MAREA":" ","LANE":" ","ALLEY":" ","HOUSE_NO":"２２５號","E_COORD97":170552.64999999999,"N_COORD97":2542773.0800000001,"ADDRESS":"東門路二段２２５號","OBJECTID":617445},"geometry":{"x":170552.6500000013,"y":2542773.0800000019}},{"attributes":{"ID":617473,"DIS_CODE":0,"TOWNNAME":"東區","LI":"富裕里","LIN":"2鄰","STREET":"東門路","SECT":"二段","MAREA":" ","LANE":" ","ALLEY":" ","HOUSE_NO":"２２９號","E_COORD97":170560.88,"N_COORD97":2542765.9100000001,"ADDRESS":"東門路二段２２９號","OBJECTID":617446},"geometry":{"x":170560.88000000082,"y":2542765.9100000001}},{"attributes":{"ID":617474,"DIS_CODE":0,"TOWNNAME":"東區","LI":"富裕里","LIN":"2鄰","STREET":"東門路","SECT":"二段","MAREA":" ","LANE":" ","ALLEY":" ","HOUSE_NO":"２３１號","E_COORD97":170564.31,"N_COORD97":2542763.4100000001,"ADDRESS":"東門路二段２３１號","OBJECTID":617447},"geometry":{"x":170564.31000000052,"y":2542763.4100000001}},{"attributes":{"ID":617475,"DIS_CODE":0,"TOWNNAME":"東區","LI":"富裕里","LIN":"2鄰","STREET":"東門路","SECT":"二段","MAREA":" ","LANE":" ","ALLEY":" ","HOUSE_NO":"２３３號","E_COORD97":170568.42999999999,"N_COORD97":2542760.5099999998,"ADDRESS":"東門路二段２３３號","OBJECTID":617448},"geometry":{"x":170568.43000000063,"y":2542760.5100000016}},{"attributes":{"ID":617476,"DIS_CODE":0,"TOWNNAME":"東區","LI":"富裕里","LIN":"2鄰","STREET":"東門路","SECT":"二段","MAREA":" ","LANE":" ","ALLEY":" ","HOUSE_NO":"２３５號","E_COORD97":170571.57000000001,"N_COORD97":2542757.7799999998,"ADDRESS":"東門路二段２３５號","OBJECTID":617449},"geometry":{"x":170571.57000000123,"y":2542757.7800000012}},{"attributes":{"ID":617477,"DIS_CODE":0,"TOWNNAME":"東區","LI":"富裕里","LIN":"2鄰","STREET":"東門路","SECT":"二段","MAREA":" ","LANE":" ","ALLEY":" ","HOUSE_NO":"２３７號","E_COORD97":170574.94,"N_COORD97":2542754.9300000002,"ADDRESS":"東門路二段２３７號","OBJECTID":617450},"geometry":{"x":170574.94000000041,"y":2542754.9299999997}},{"attributes":{"ID":617478,"DIS_CODE":0,"TOWNNAME":"東區","LI":"富裕里","LIN":"2鄰","STREET":"東門路","SECT":"二段","MAREA":" ","LANE":" ","ALLEY":" ","HOUSE_NO":"２６３號","E_COORD97":170634.54000000001,"N_COORD97":2542706.5099999998,"ADDRESS":"東門路二段２６３號","OBJECTID":617451},"geometry":{"x":170634.54000000097,"y":2542706.5100000016}},{"attributes":{"ID":617479,"DIS_CODE":0,"TOWNNAME":"東區","LI":"富裕里","LIN":"2鄰","STREET":"東門路","SECT":"二段","MAREA":" ","LANE":" ","ALLEY":" ","HOUSE_NO":"２６７號","E_COORD97":170641.70000000001,"N_COORD97":2542703.5,"ADDRESS":"東門路二段２６７號","OBJECTID":617452},"geometry":{"x":170641.70000000112,"y":2542703.5000000019}},{"attributes":{"ID":617480,"DIS_CODE":0,"TOWNNAME":"東區","LI":"東安里","LIN":"2鄰","STREET":"東門路","SECT":"二段","MAREA":" ","LANE":" ","ALLEY":" ","HOUSE_NO":"４５號","E_COORD97":170063.60000000001,"N_COORD97":2542981.52,"ADDRESS":"東門路二段４５號","OBJECTID":617453},"geometry":{"x":170063.60000000056,"y":2542981.5199999996}},{"attributes":{"ID":617481,"DIS_CODE":0,"TOWNNAME":"東區","LI":"中西里","LIN":"2鄰","STREET":"東門路","SECT":"一段","MAREA":" ","LANE":" ","ALLEY":" ","HOUSE_NO":"２６９號","E_COORD97":169838.5,"N_COORD97":2543061.21,"ADDRESS":"東門路一段２６９號","OBJECTID":617454},"geometry":{"x":169838.5,"y":2543061.2100000028}},{"attributes":{"ID":617482,"DIS_CODE":0,"TOWNNAME":"東區","LI":"中西里","LIN":"2鄰","STREET":"東門路","SECT":"一段","MAREA":" ","LANE":" ","ALLEY":" ","HOUSE_NO":"２７３號","E_COORD97":169844.53,"N_COORD97":2543051.1899999999,"ADDRESS":"東門路一段２７３號","OBJECTID":617455},"geometry":{"x":169844.53000000119,"y":2543051.1899999995}},{"attributes":{"ID":617483,"DIS_CODE":0,"TOWNNAME":"東區","LI":"中西里","LIN":"2鄰","STREET":"東門路","SECT":"一段","MAREA":" ","LANE":" ","ALLEY":" ","HOUSE_NO":"２７７號","E_COORD97":169852.42000000001,"N_COORD97":2543047.98,"ADDRESS":"東門路一段２７７號","OBJECTID":617456},"geometry":{"x":169852.41999999993,"y":2543047.9800000004}},{"attributes":{"ID":617484,"DIS_CODE":0,"TOWNNAME":"東區","LI":"中西里","LIN":"2鄰","STREET":"東門路","SECT":"一段","MAREA":" ","LANE":" ","ALLEY":" ","HOUSE_NO":"２７９號","E_COORD97":169857.48000000001,"N_COORD97":2543046.4300000002,"ADDRESS":"東門路一段２７９號","OBJECTID":617457},"geometry":{"x":169857.48000000045,"y":2543046.4299999997}},{"attributes":{"ID":617485,"DIS_CODE":0,"TOWNNAME":"東區","LI":"東安里","LIN":"2鄰","STREET":"東門路","SECT":"二段","MAREA":" ","LANE":" ","ALLEY":" ","HOUSE_NO":"４７號","E_COORD97":170065.67999999999,"N_COORD97":2542978.1299999999,"ADDRESS":"東門路二段４７號","OBJECTID":617458},"geometry":{"x":170065.6799999997,"y":2542978.1300000027}},{"attributes":{"ID":617486,"DIS_CODE":0,"TOWNNAME":"東區","LI":"東安里","LIN":"2鄰","STREET":"東門路","SECT":"二段","MAREA":" ","LANE":" ","ALLEY":" ","HOUSE_NO":"４９號","E_COORD97":170071,"N_COORD97":2542975.1899999999,"ADDRESS":"東門路二段４９號","OBJECTID":617459},"geometry":{"x":170071,"y":2542975.1900000013}},{"attributes":{"ID":617487,"DIS_CODE":0,"TOWNNAME":"東區","LI":"東安里","LIN":"2鄰","STREET":"東門路","SECT":"二段","MAREA":" ","LANE":" ","ALLEY":" ","HOUSE_NO":"５１號","E_COORD97":170077.37,"N_COORD97":2542972.0499999998,"ADDRESS":"東門路二段５１號","OBJECTID":617460},"geometry":{"x":170077.37000000197,"y":2542972.0500000007}},{"attributes":{"ID":617488,"DIS_CODE":0,"TOWNNAME":"東區","LI":"東安里","LIN":"2鄰","STREET":"東門路","SECT":"二段","MAREA":" ","LANE":" ","ALLEY":" ","HOUSE_NO":"５５號","E_COORD97":170080.778861,"N_COORD97":2542971.9855499999,"ADDRESS":"東門路二段５５號","OBJECTID":617461},"geometry":{"x":170080.77886100207,"y":2542971.985553002}},{"attributes":{"ID":617489,"DIS_CODE":0,"TOWNNAME":"東區","LI":"東安里","LIN":"2鄰","STREET":"東門路","SECT":"二段","MAREA":" ","LANE":" ","ALLEY":" ","HOUSE_NO":"５７號","E_COORD97":170086.605388,"N_COORD97":2542970.5038899998,"ADDRESS":"東門路二段５７號","OBJECTID":617462},"geometry":{"x":170086.60538800061,"y":2542970.5038870014}},{"attributes":{"ID":617490,"DIS_CODE":0,"TOWNNAME":"東區","LI":"東安里","LIN":"2鄰","STREET":"東門路","SECT":"二段","MAREA":" ","LANE":" ","ALLEY":" ","HOUSE_NO":"５９號","E_COORD97":170093.23999999999,"N_COORD97":2542966.4500000002,"ADDRESS":"東門路二段５９號","OBJECTID":617463},"geometry":{"x":170093.24000000022,"y":2542966.4500000011}},{"attributes":{"ID":617491,"DIS_CODE":0,"TOWNNAME":"東區","LI":"東安里","LIN":"2鄰","STREET":"東門路","SECT":"二段","MAREA":" ","LANE":" ","ALLEY":" ","HOUSE_NO":"６１號","E_COORD97":170099.04000000001,"N_COORD97":2542964.46,"ADDRESS":"東門路二段６１號","OBJECTID":617464},"geometry":{"x":170099.04000000004,"y":2542964.4600000046}},{"attributes":{"ID":617492,"DIS_CODE":0,"TOWNNAME":"東區","LI":"東安里","LIN":"2鄰","STREET":"東門路","SECT":"二段","MAREA":" ","LANE":" ","ALLEY":" ","HOUSE_NO":"６３號","E_COORD97":170105.5,"N_COORD97":2542961.3199999998,"ADDRESS":"東門路二段６３號","OBJECTID":617465},"geometry":{"x":170105.50000000093,"y":2542961.320000004}},{"attributes":{"ID":617493,"DIS_CODE":0,"TOWNNAME":"東區","LI":"東安里","LIN":"2鄰","STREET":"東門路","SECT":"二段","MAREA":" ","LANE":" ","ALLEY":" ","HOUSE_NO":"６５號","E_COORD97":170110.63,"N_COORD97":2542959.71,"ADDRESS":"東門路二段６５號","OBJECTID":617466},"geometry":{"x":170110.62999999989,"y":2542959.7100000028}},{"attributes":{"ID":617494,"DIS_CODE":0,"TOWNNAME":"東區","LI":"東安里","LIN":"2鄰","STREET":"東門路","SECT":"二段","MAREA":" ","LANE":" ","ALLEY":" ","HOUSE_NO":"６７號","E_COORD97":170113.95999999999,"N_COORD97":2542958.6699999999,"ADDRESS":"東門路二段６７號","OBJECTID":617467},"geometry":{"x":170113.96000000183,"y":2542958.6700000037}},{"attributes":{"ID":617495,"DIS_CODE":0,"TOWNNAME":"東區","LI":"東安里","LIN":"2鄰","STREET":"東門路","SECT":"二段","MAREA":" ","LANE":" ","ALLEY":" ","HOUSE_NO":"６９號","E_COORD97":170118.14000000001,"N_COORD97":2542956.6699999999,"ADDRESS":"東門路二段６９號","OBJECTID":617468},"geometry":{"x":170118.1400000006,"y":2542956.6700000018}},{"attributes":{"ID":617496,"DIS_CODE":0,"TOWNNAME":"東區","LI":"和平里","LIN":"2鄰","STREET":"東門路","SECT":"三段","MAREA":" ","LANE":" ","ALLEY":" ","HOUSE_NO":"１３０號","E_COORD97":171302.69,"N_COORD97":2542119.1899999999,"ADDRESS":"東門路三段１３０號","OBJECTID":617469},"geometry":{"x":171302.68999999948,"y":2542119.1899999995}},{"attributes":{"ID":617497,"DIS_CODE":0,"TOWNNAME":"東區","LI":"和平里","LIN":"2鄰","STREET":"東門路","SECT":"三段","MAREA":" ","LANE":" ","ALLEY":" ","HOUSE_NO":"１４２號","E_COORD97":171349.76999999999,"N_COORD97":2542091.1099999999,"ADDRESS":"東門路三段１４２號","OBJECTID":617470},"geometry":{"x":171349.76999999955,"y":2542091.1100000013}},{"attributes":{"ID":617498,"DIS_CODE":0,"TOWNNAME":"麻豆區","LI":"大埕里","LIN":"2鄰","STREET":"中正路","SECT":" ","MAREA":" ","LANE":" ","ALLEY":" ","HOUSE_NO":"５３號之４","E_COORD97":173093.20999999999,"N_COORD97":2564995.25,"ADDRESS":"中正路５３號之４","OBJECTID":617471},"geometry":{"x":173093.20999999996,"y":2564995.2499999981}},{"attributes":{"ID":617499,"DIS_CODE":0,"TOWNNAME":"麻豆區","LI":"大埕里","LIN":"2鄰","STREET":"中正路","SECT":" ","MAREA":" ","LANE":" ","ALLEY":" ","HOUSE_NO":"５３號之６","E_COORD97":173095.39999999999,"N_COORD97":2565002.4100000001,"ADDRESS":"中正路５３號之６","OBJECTID":617472},"geometry":{"x":173095.4000000013,"y":2565002.410000002}},{"attributes":{"ID":617500,"DIS_CODE":0,"TOWNNAME":"中西區","LI":"郡西里","LIN":"2鄰","STREET":"郡西路","SECT":" ","MAREA":" ","LANE":" ","ALLEY":" ","HOUSE_NO":"２２號","E_COORD97":167378.5,"N_COORD97":2543212.5499999998,"ADDRESS":"郡西路２２號","OBJECTID":617473},"geometry":{"x":167378.5,"y":2543212.5500000026}},{"attributes":{"ID":617501,"DIS_CODE":0,"TOWNNAME":"中西區","LI":"郡西里","LIN":"2鄰","STREET":"郡西路","SECT":" ","MAREA":" ","LANE":" ","ALLEY":" ","HOUSE_NO":"２４號","E_COORD97":167379.10999999999,"N_COORD97":2543215.7200000002,"ADDRESS":"郡西路２４號","OBJECTID":617474},"geometry":{"x":167379.11000000127,"y":2543215.7200000007}},{"attributes":{"ID":617502,"DIS_CODE":0,"TOWNNAME":"東區","LI":"崇明里","LIN":"2鄰","STREET":"大同路","SECT":"二段","MAREA":" ","LANE":" ","ALLEY":" ","HOUSE_NO":"３８９號","E_COORD97":169511.42999999999,"N_COORD97":2541427.3700000001,"ADDRESS":"大同路二段３８９號","OBJECTID":617475},"geometry":{"x":169511.4299999997,"y":2541427.3700000029}},{"attributes":{"ID":617503,"DIS_CODE":0,"TOWNNAME":"東區","LI":"崇明里","LIN":"2鄰","STREET":"大同路","SECT":"二段","MAREA":" ","LANE":" ","ALLEY":" ","HOUSE_NO":"３９１號","E_COORD97":169514.14000000001,"N_COORD97":2541420.2599999998,"ADDRESS":"大同路二段３９１號","OBJECTID":617476},"geometry":{"x":169514.1400000006,"y":2541420.2599999998}},{"attributes":{"ID":617504,"DIS_CODE":0,"TOWNNAME":"東區","LI":"崇明里","LIN":"2鄰","STREET":"大同路","SECT":"二段","MAREA":" ","LANE":" ","ALLEY":" ","HOUSE_NO":"３９３號","E_COORD97":169515.39999999999,"N_COORD97":2541414.1400000001,"ADDRESS":"大同路二段３９３號","OBJECTID":617477},"geometry":{"x":169515.4000000013,"y":2541414.1400000025}},{"attributes":{"ID":617505,"DIS_CODE":0,"TOWNNAME":"東區","LI":"崇明里","LIN":"2鄰","STREET":"大同路","SECT":"二段","MAREA":" ","LANE":" ","ALLEY":" ","HOUSE_NO":"３９５號","E_COORD97":169516.81,"N_COORD97":2541408.8100000001,"ADDRESS":"大同路二段３９５號","OBJECTID":617478},"geometry":{"x":169516.81000000052,"y":2541408.8100000042}},{"attributes":{"ID":617506,"DIS_CODE":0,"TOWNNAME":"東區","LI":"崇明里","LIN":"2鄰","STREET":"大同路","SECT":"二段","MAREA":" ","LANE":" ","ALLEY":" ","HOUSE_NO":"３９７號","E_COORD97":169521.98999999999,"N_COORD97":2541402.3700000001,"ADDRESS":"大同路二段３９７號","OBJECTID":617479},"geometry":{"x":169521.99000000022,"y":2541402.3700000029}},{"attributes":{"ID":617507,"DIS_CODE":0,"TOWNNAME":"東區","LI":"崇明里","LIN":"2鄰","STREET":"大同路","SECT":"二段","MAREA":" ","LANE":" ","ALLEY":" ","HOUSE_NO":"３９９號","E_COORD97":169524.51000000001,"N_COORD97":2541394.0499999998,"ADDRESS":"大同路二段３９９號","OBJECTID":617480},"geometry":{"x":169524.50999999978,"y":2541394.0500000026}},{"attributes":{"ID":617508,"DIS_CODE":0,"TOWNNAME":"東區","LI":"崇明里","LIN":"2鄰","STREET":"大同路","SECT":"二段","MAREA":" ","LANE":" ","ALLEY":" ","HOUSE_NO":"４０１號","E_COORD97":169521.85999999999,"N_COORD97":2541388.6499999999,"ADDRESS":"大同路二段４０１號","OBJECTID":617481},"geometry":{"x":169521.86000000127,"y":2541388.6500000004}},{"attributes":{"ID":617509,"DIS_CODE":0,"TOWNNAME":"中西區","LI":"保安里","LIN":"2鄰","STREET":"府前路","SECT":"二段","MAREA":" ","LANE":" ","ALLEY":" ","HOUSE_NO":"１２號","E_COORD97":167701.89999999999,"N_COORD97":2543485.8999999999,"ADDRESS":"府前路二段１２號","OBJECTID":617482},"geometry":{"x":167701.90000000037,"y":2543485.9000000004}},{"attributes":{"ID":617510,"DIS_CODE":0,"TOWNNAME":"中西區","LI":"保安里","LIN":"2鄰","STREET":"府前路","SECT":"二段","MAREA":" ","LANE":" ","ALLEY":" ","HOUSE_NO":"１２號底層","E_COORD97":167701.89999999999,"N_COORD97":2543485.8999999999,"ADDRESS":"府前路二段１２號底層","OBJECTID":617483},"geometry":{"x":167701.90000000037,"y":2543485.9000000004}},{"attributes":{"ID":617511,"DIS_CODE":0,"TOWNNAME":"中西區","LI":"保安里","LIN":"2鄰","STREET":"府前路","SECT":"二段","MAREA":" ","LANE":" ","ALLEY":" ","HOUSE_NO":"１４號","E_COORD97":167697.60000000001,"N_COORD97":2543483.8300000001,"ADDRESS":"府前路二段１４號","OBJECTID":617484},"geometry":{"x":167697.60000000056,"y":2543483.8300000019}},{"attributes":{"ID":617512,"DIS_CODE":0,"TOWNNAME":"六甲區","LI":"甲東里","LIN":"2鄰","STREET":"忠孝街","SECT":" ","MAREA":" ","LANE":" ","ALLEY":" ","HOUSE_NO":"１８５號","E_COORD97":184008.41453899999,"N_COORD97":2569994.9204000002,"ADDRESS":"忠孝街１８５號","OBJECTID":617485},"geometry":{"x":184008.41453900095,"y":2569994.9204040002}},{"attributes":{"ID":617513,"DIS_CODE":0,"TOWNNAME":"下營區","LI":"仁里里","LIN":"2鄰","STREET":"仁里街","SECT":" ","MAREA":" ","LANE":" ","ALLEY":" ","HOUSE_NO":"２號","E_COORD97":174285.88,"N_COORD97":2570307.48,"ADDRESS":"仁里街２號","OBJECTID":617486},"geometry":{"x":174285.87999999989,"y":2570307.4800000023}},{"attributes":{"ID":617514,"DIS_CODE":0,"TOWNNAME":"中西區","LI":"水仙里","LIN":"2鄰","STREET":"民生路","SECT":"二段","MAREA":" ","LANE":" ","ALLEY":" ","HOUSE_NO":"５８號","E_COORD97":167747.60000000001,"N_COORD97":2543967.1899999999,"ADDRESS":"民生路二段５８號","OBJECTID":617487},"geometry":{"x":167747.59999999963,"y":2543967.1899999995}},{"attributes":{"ID":617515,"DIS_CODE":0,"TOWNNAME":"中西區","LI":"水仙里","LIN":"2鄰","STREET":"民生路","SECT":"二段","MAREA":" ","LANE":" ","ALLEY":" ","HOUSE_NO":"６０號","E_COORD97":167741.17999999999,"N_COORD97":2543969.27,"ADDRESS":"民生路二段６０號","OBJECTID":617488},"geometry":{"x":167741.18000000063,"y":2543969.2700000014}},{"attributes":{"ID":617516,"DIS_CODE":0,"TOWNNAME":"中西區","LI":"水仙里","LIN":"2鄰","STREET":"國華街","SECT":"三段","MAREA":" ","LANE":" ","ALLEY":" ","HOUSE_NO":"６１號","E_COORD97":167767.64999999999,"N_COORD97":2543965.7000000002,"ADDRESS":"國華街三段６１號","OBJECTID":617489},"geometry":{"x":167767.6500000013,"y":2543965.7000000011}},{"attributes":{"ID":617517,"DIS_CODE":0,"TOWNNAME":"中西區","LI":"水仙里","LIN":"2鄰","STREET":"國華街","SECT":"三段","MAREA":" ","LANE":" ","ALLEY":" ","HOUSE_NO":"６３號","E_COORD97":167770.51000000001,"N_COORD97":2543973.7599999998,"ADDRESS":"國華街三段６３號","OBJECTID":617490},"geometry":{"x":167770.51000000164,"y":2543973.7599999998}},{"attributes":{"ID":617518,"DIS_CODE":0,"TOWNNAME":"中西區","LI":"水仙里","LIN":"2鄰","STREET":"國華街","SECT":"三段","MAREA":" ","LANE":" ","ALLEY":" ","HOUSE_NO":"６５號","E_COORD97":167772.25,"N_COORD97":2543978.6200000001,"ADDRESS":"國華街三段６５號","OBJECTID":617491},"geometry":{"x":167772.25,"y":2543978.6200000029}},{"attributes":{"ID":617519,"DIS_CODE":0,"TOWNNAME":"中西區","LI":"水仙里","LIN":"2鄰","STREET":"國華街","SECT":"三段","MAREA":" ","LANE":" ","ALLEY":" ","HOUSE_NO":"６７號","E_COORD97":167773.54999999999,"N_COORD97":2543982.8199999998,"ADDRESS":"國華街三段６７號","OBJECTID":617492},"geometry":{"x":167773.54999999981,"y":2543982.8200000022}},{"attributes":{"ID":617520,"DIS_CODE":0,"TOWNNAME":"中西區","LI":"水仙里","LIN":"2鄰","STREET":"國華街","SECT":"三段","MAREA":" ","LANE":" ","ALLEY":" ","HOUSE_NO":"６９號","E_COORD97":167774.76000000001,"N_COORD97":2543986.46,"ADDRESS":"國華街三段６９號","OBJECTID":617493},"geometry":{"x":167774.76000000071,"y":2543986.4600000028}},{"attributes":{"ID":617521,"DIS_CODE":0,"TOWNNAME":"中西區","LI":"水仙里","LIN":"2鄰","STREET":"國華街","SECT":"三段","MAREA":" ","LANE":" ","ALLEY":" ","HOUSE_NO":"７１號","E_COORD97":167776.23999999999,"N_COORD97":2543990.6200000001,"ADDRESS":"國華街三段７１號","OBJECTID":617494},"geometry":{"x":167776.24000000209,"y":2543990.6200000048}},{"attributes":{"ID":617522,"DIS_CODE":0,"TOWNNAME":"東區","LI":"成大里","LIN":"2鄰","STREET":"東寧路","SECT":"西段","MAREA":" ","LANE":" ","ALLEY":" ","HOUSE_NO":"５８號","E_COORD97":169572.64999999999,"N_COORD97":2543704.52,"ADDRESS":"東寧路西段５８號","OBJECTID":617495},"geometry":{"x":169572.6500000013,"y":2543704.5199999996}},{"attributes":{"ID":617523,"DIS_CODE":0,"TOWNNAME":"中西區","LI":"水仙里","LIN":"2鄰","STREET":"國華街","SECT":"三段","MAREA":" ","LANE":" ","ALLEY":" ","HOUSE_NO":"７３號","E_COORD97":167777.45000000001,"N_COORD97":2543994.6099999999,"ADDRESS":"國華街三段７３號","OBJECTID":617496},"geometry":{"x":167777.45000000019,"y":2543994.6099999994}},{"attributes":{"ID":617524,"DIS_CODE":0,"TOWNNAME":"中西區","LI":"水仙里","LIN":"2鄰","STREET":"國華街","SECT":"三段","MAREA":" ","LANE":" ","ALLEY":" ","HOUSE_NO":"７５號","E_COORD97":167778.48999999999,"N_COORD97":2543998.3300000001,"ADDRESS":"國華街三段７５號","OBJECTID":617497},"geometry":{"x":167778.49000000115,"y":2543998.3300000038}},{"attributes":{"ID":617525,"DIS_CODE":0,"TOWNNAME":"中西區","LI":"郡西里","LIN":"2鄰","STREET":"郡西路","SECT":" ","MAREA":" ","LANE":" ","ALLEY":" ","HOUSE_NO":"３４號","E_COORD97":167382.41,"N_COORD97":2543232.9199999999,"ADDRESS":"郡西路３４號","OBJECTID":617498},"geometry":{"x":167382.41000000108,"y":2543232.9200000018}},{"attributes":{"ID":617526,"DIS_CODE":0,"TOWNNAME":"中西區","LI":"郡西里","LIN":"2鄰","STREET":"郡西路","SECT":" ","MAREA":" ","LANE":" ","ALLEY":" ","HOUSE_NO":"３６號","E_COORD97":167382.53,"N_COORD97":2543237.5600000001,"ADDRESS":"郡西路３６號","OBJECTID":617499},"geometry":{"x":167382.53000000026,"y":2543237.5599999987}},{"attributes":{"ID":617527,"DIS_CODE":0,"TOWNNAME":"中西區","LI":"郡西里","LIN":"2鄰","STREET":"郡西路","SECT":" ","MAREA":" ","LANE":" ","ALLEY":" ","HOUSE_NO":"３８號","E_COORD97":167383.87,"N_COORD97":2543241.9500000002,"ADDRESS":"郡西路３８號","OBJECTID":617500},"geometry":{"x":167383.87000000104,"y":2543241.9500000011}},{"attributes":{"ID":617528,"DIS_CODE":0,"TOWNNAME":"中西區","LI":"郡西里","LIN":"2鄰","STREET":"郡西路","SECT":" ","MAREA":" ","LANE":" ","ALLEY":" ","HOUSE_NO":"４號","E_COORD97":167375.92999999999,"N_COORD97":2543176.75,"ADDRESS":"郡西路４號","OBJECTID":617501},"geometry":{"x":167375.92999999877,"y":2543176.75}},{"attributes":{"ID":617529,"DIS_CODE":0,"TOWNNAME":"中西區","LI":"郡西里","LIN":"2鄰","STREET":"郡西路","SECT":" ","MAREA":" ","LANE":" ","ALLEY":" ","HOUSE_NO":"６號","E_COORD97":167375.45000000001,"N_COORD97":2543180.4100000001,"ADDRESS":"郡西路６號","OBJECTID":617502},"geometry":{"x":167375.45000000112,"y":2543180.4100000001}},{"attributes":{"ID":617530,"DIS_CODE":0,"TOWNNAME":"中西區","LI":"郡西里","LIN":"2鄰","STREET":"郡西路","SECT":" ","MAREA":" ","LANE":" ","ALLEY":" ","HOUSE_NO":"８號","E_COORD97":167375.81,"N_COORD97":2543183.9500000002,"ADDRESS":"郡西路８號","OBJECTID":617503},"geometry":{"x":167375.81000000052,"y":2543183.9500000011}},{"attributes":{"ID":617531,"DIS_CODE":0,"TOWNNAME":"下營區","LI":"仁里里","LIN":"2鄰","STREET":"公園路","SECT":" ","MAREA":" ","LANE":" ","ALLEY":" ","HOUSE_NO":"３號","E_COORD97":174292.28,"N_COORD97":2570322.0600000001,"ADDRESS":"公園路３號","OBJECTID":617504},"geometry":{"x":174292.28000000212,"y":2570322.0600000005}},{"attributes":{"ID":617532,"DIS_CODE":0,"TOWNNAME":"永康區","LI":"永康里","LIN":"2鄰","STREET":"中山北路","SECT":" ","MAREA":" ","LANE":" ","ALLEY":" ","HOUSE_NO":"３９號","E_COORD97":173964.39999999999,"N_COORD97":2547383.3300000001,"ADDRESS":"中山北路３９號","OBJECTID":617505},"geometry":{"x":173964.40000000224,"y":2547383.3300000019}},{"attributes":{"ID":617533,"DIS_CODE":0,"TOWNNAME":"佳里區","LI":"六安里","LIN":"2鄰","STREET":"延平路","SECT":" ","MAREA":" ","LANE":" ","ALLEY":" ","HOUSE_NO":"４４８號","E_COORD97":165874.37,"N_COORD97":2562753.7200000002,"ADDRESS":"延平路４４８號","OBJECTID":617506},"geometry":{"x":165874.37000000011,"y":2562753.7200000007}},{"attributes":{"ID":617534,"DIS_CODE":0,"TOWNNAME":"佳里區","LI":"六安里","LIN":"2鄰","STREET":"延平路","SECT":" ","MAREA":" ","LANE":" ","ALLEY":" ","HOUSE_NO":"４５０號","E_COORD97":165874.13,"N_COORD97":2562758.21,"ADDRESS":"延平路４５０號","OBJECTID":617507},"geometry":{"x":165874.12999999989,"y":2562758.2100000009}},{"attributes":{"ID":617535,"DIS_CODE":0,"TOWNNAME":"佳里區","LI":"六安里","LIN":"2鄰","STREET":"延平路","SECT":" ","MAREA":" ","LANE":" ","ALLEY":" ","HOUSE_NO":"４５８號","E_COORD97":165881.95000000001,"N_COORD97":2562771.02,"ADDRESS":"延平路４５８號","OBJECTID":617508},"geometry":{"x":165881.95000000112,"y":2562771.0199999996}},{"attributes":{"ID":617536,"DIS_CODE":0,"TOWNNAME":"東區","LI":"成大里","LIN":"2鄰","STREET":"育樂街","SECT":" ","MAREA":" ","LANE":" ","ALLEY":" ","HOUSE_NO":"１９９號","E_COORD97":169512.48999999999,"N_COORD97":2543771.2400000002,"ADDRESS":"育樂街１９９號","OBJECTID":617509},"geometry":{"x":169512.49000000115,"y":2543771.2400000002}},{"attributes":{"ID":617537,"DIS_CODE":0,"TOWNNAME":"東區","LI":"成大里","LIN":"2鄰","STREET":"育樂街","SECT":" ","MAREA":" ","LANE":" ","ALLEY":" ","HOUSE_NO":"２０１號","E_COORD97":169497.23999999999,"N_COORD97":2543749.2400000002,"ADDRESS":"育樂街２０１號","OBJECTID":617510},"geometry":{"x":169497.24000000115,"y":2543749.2400000021}},{"attributes":{"ID":617538,"DIS_CODE":0,"TOWNNAME":"東區","LI":"成大里","LIN":"2鄰","STREET":"育樂街","SECT":" ","MAREA":" ","LANE":" ","ALLEY":" ","HOUSE_NO":"２０１號之１","E_COORD97":169502.81,"N_COORD97":2543747.1299999999,"ADDRESS":"育樂街２０１號之１","OBJECTID":617511},"geometry":{"x":169502.81000000052,"y":2543747.129999999}},{"attributes":{"ID":617539,"DIS_CODE":0,"TOWNNAME":"東區","LI":"成大里","LIN":"2鄰","STREET":"育樂街","SECT":" ","MAREA":" ","LANE":" ","ALLEY":" ","HOUSE_NO":"２０１號之２","E_COORD97":169509.34,"N_COORD97":2543745.98,"ADDRESS":"育樂街２０１號之２","OBJECTID":617512},"geometry":{"x":169509.34000000171,"y":2543745.9800000004}},{"attributes":{"ID":617540,"DIS_CODE":0,"TOWNNAME":"東區","LI":"成大里","LIN":"2鄰","STREET":"育樂街","SECT":" ","MAREA":" ","LANE":" ","ALLEY":" ","HOUSE_NO":"２０１號之３","E_COORD97":169493.97,"N_COORD97":2543736.77,"ADDRESS":"育樂街２０１號之３","OBJECTID":617513},"geometry":{"x":169493.96999999974,"y":2543736.7699999996}},{"attributes":{"ID":617541,"DIS_CODE":0,"TOWNNAME":"東區","LI":"成大里","LIN":"2鄰","STREET":"東寧路","SECT":"西段","MAREA":" ","LANE":" ","ALLEY":" ","HOUSE_NO":"２８號","E_COORD97":169630.23000000001,"N_COORD97":2543698.75,"ADDRESS":"東寧路西段２８號","OBJECTID":617514},"geometry":{"x":169630.23000000138,"y":2543698.7500000019}},{"attributes":{"ID":617542,"DIS_CODE":0,"TOWNNAME":"東區","LI":"成大里","LIN":"2鄰","STREET":"東寧路","SECT":"西段","MAREA":" ","LANE":" ","ALLEY":" ","HOUSE_NO":"３０號","E_COORD97":169626.82000000001,"N_COORD97":2543700.1699999999,"ADDRESS":"東寧路西段３０號","OBJECTID":617515},"geometry":{"x":169626.81999999937,"y":2543700.1699999999}},{"attributes":{"ID":617543,"DIS_CODE":0,"TOWNNAME":"東區","LI":"成大里","LIN":"2鄰","STREET":"東寧路","SECT":"西段","MAREA":" ","LANE":" ","ALLEY":" ","HOUSE_NO":"３２號","E_COORD97":169621.97,"N_COORD97":2543699.2200000002,"ADDRESS":"東寧路西段３２號","OBJECTID":617516},"geometry":{"x":169621.9700000016,"y":2543699.2200000025}},{"attributes":{"ID":617544,"DIS_CODE":0,"TOWNNAME":"東區","LI":"成大里","LIN":"2鄰","STREET":"東寧路","SECT":"西段","MAREA":" ","LANE":" ","ALLEY":" ","HOUSE_NO":"３４號","E_COORD97":169617.26000000001,"N_COORD97":2543700.5699999998,"ADDRESS":"東寧路西段３４號","OBJECTID":617517},"geometry":{"x":169617.26000000071,"y":2543700.5700000003}},{"attributes":{"ID":617545,"DIS_CODE":0,"TOWNNAME":"東區","LI":"成大里","LIN":"2鄰","STREET":"東寧路","SECT":"西段","MAREA":" ","LANE":" ","ALLEY":" ","HOUSE_NO":"３６號","E_COORD97":169609.29999999999,"N_COORD97":2543702.9900000002,"ADDRESS":"東寧路西段３６號","OBJECTID":617518},"geometry":{"x":169609.29999999981,"y":2543702.9900000021}},{"attributes":{"ID":617546,"DIS_CODE":0,"TOWNNAME":"東區","LI":"成大里","LIN":"2鄰","STREET":"東寧路","SECT":"西段","MAREA":" ","LANE":" ","ALLEY":" ","HOUSE_NO":"３８號","E_COORD97":169605.12,"N_COORD97":2543703.9300000002,"ADDRESS":"東寧路西段３８號","OBJECTID":617519},"geometry":{"x":169605.12000000104,"y":2543703.9300000016}},{"attributes":{"ID":617547,"DIS_CODE":0,"TOWNNAME":"東區","LI":"成大里","LIN":"2鄰","STREET":"東寧路","SECT":"西段","MAREA":" ","LANE":" ","ALLEY":" ","HOUSE_NO":"４０號","E_COORD97":169599.19,"N_COORD97":2543704.8799999999,"ADDRESS":"東寧路西段４０號","OBJECTID":617520},"geometry":{"x":169599.19000000227,"y":2543704.879999999}},{"attributes":{"ID":617548,"DIS_CODE":0,"TOWNNAME":"東區","LI":"成大里","LIN":"2鄰","STREET":"東寧路","SECT":"西段","MAREA":" ","LANE":" ","ALLEY":" ","HOUSE_NO":"４２號","E_COORD97":169595.42000000001,"N_COORD97":2543702.9900000002,"ADDRESS":"東寧路西段４２號","OBJECTID":617521},"geometry":{"x":169595.42000000179,"y":2543702.9900000021}},{"attributes":{"ID":617549,"DIS_CODE":0,"TOWNNAME":"東區","LI":"成大里","LIN":"2鄰","STREET":"東寧路","SECT":"西段","MAREA":" ","LANE":" ","ALLEY":" ","HOUSE_NO":"４４號","E_COORD97":169595.01999999999,"N_COORD97":2543695.0499999998,"ADDRESS":"東寧路西段４４號","OBJECTID":617522},"geometry":{"x":169595.02000000048,"y":2543695.0500000007}},{"attributes":{"ID":617550,"DIS_CODE":0,"TOWNNAME":"東區","LI":"成大里","LIN":"2鄰","STREET":"東寧路","SECT":"西段","MAREA":" ","LANE":" ","ALLEY":" ","HOUSE_NO":"４６號","E_COORD97":169604.17999999999,"N_COORD97":2543693.4399999999,"ADDRESS":"東寧路西段４６號","OBJECTID":617523},"geometry":{"x":169604.18000000063,"y":2543693.4400000013}},{"attributes":{"ID":617551,"DIS_CODE":0,"TOWNNAME":"東區","LI":"成大里","LIN":"2鄰","STREET":"東寧路","SECT":"西段","MAREA":" ","LANE":" ","ALLEY":" ","HOUSE_NO":"４８號","E_COORD97":169606.20000000001,"N_COORD97":2543684.6899999999,"ADDRESS":"東寧路西段４８號","OBJECTID":617524},"geometry":{"x":169606.20000000112,"y":2543684.6900000013}},{"attributes":{"ID":617552,"DIS_CODE":0,"TOWNNAME":"東區","LI":"成大里","LIN":"2鄰","STREET":"東寧路","SECT":"西段","MAREA":" ","LANE":" ","ALLEY":" ","HOUSE_NO":"５０號","E_COORD97":169601.62,"N_COORD97":2543685.0899999999,"ADDRESS":"東寧路西段５０號","OBJECTID":617525},"geometry":{"x":169601.62000000104,"y":2543685.0900000017}},{"attributes":{"ID":617553,"DIS_CODE":0,"TOWNNAME":"東區","LI":"成大里","LIN":"2鄰","STREET":"東寧路","SECT":"西段","MAREA":" ","LANE":" ","ALLEY":" ","HOUSE_NO":"５２號","E_COORD97":169596.76999999999,"N_COORD97":2543685.7599999998,"ADDRESS":"東寧路西段５２號","OBJECTID":617526},"geometry":{"x":169596.77000000048,"y":2543685.7599999998}},{"attributes":{"ID":617554,"DIS_CODE":0,"TOWNNAME":"東區","LI":"成大里","LIN":"2鄰","STREET":"東寧路","SECT":"西段","MAREA":" ","LANE":" ","ALLEY":" ","HOUSE_NO":"５４號","E_COORD97":169592.85999999999,"N_COORD97":2543687.2400000002,"ADDRESS":"東寧路西段５４號","OBJECTID":617527},"geometry":{"x":169592.8600000022,"y":2543687.2400000039}},{"attributes":{"ID":617555,"DIS_CODE":0,"TOWNNAME":"東區","LI":"成大里","LIN":"2鄰","STREET":"東寧路","SECT":"西段","MAREA":" ","LANE":" ","ALLEY":" ","HOUSE_NO":"５４號之１","E_COORD97":169581.67000000001,"N_COORD97":2543687.9199999999,"ADDRESS":"東寧路西段５４號之１","OBJECTID":617528},"geometry":{"x":169581.66999999899,"y":2543687.9199999999}},{"attributes":{"ID":617556,"DIS_CODE":0,"TOWNNAME":"東區","LI":"成大里","LIN":"2鄰","STREET":"東寧路","SECT":"西段","MAREA":" ","LANE":" ","ALLEY":" ","HOUSE_NO":"５４號之２","E_COORD97":169584.76999999999,"N_COORD97":2543686.8399999999,"ADDRESS":"東寧路西段５４號之２","OBJECTID":617529},"geometry":{"x":169584.77000000048,"y":2543686.8400000017}},{"attributes":{"ID":617557,"DIS_CODE":0,"TOWNNAME":"東區","LI":"成大里","LIN":"2鄰","STREET":"東寧路","SECT":"西段","MAREA":" ","LANE":" ","ALLEY":" ","HOUSE_NO":"５４號之３","E_COORD97":169588.67999999999,"N_COORD97":2543686.1699999999,"ADDRESS":"東寧路西段５４號之３","OBJECTID":617530},"geometry":{"x":169588.68000000063,"y":2543686.1699999999}},{"attributes":{"ID":617558,"DIS_CODE":0,"TOWNNAME":"東區","LI":"成大里","LIN":"2鄰","STREET":"東寧路","SECT":"西段","MAREA":" ","LANE":" ","ALLEY":" ","HOUSE_NO":"５６號","E_COORD97":169571.85000000001,"N_COORD97":2543690.8599999999,"ADDRESS":"東寧路西段５６號","OBJECTID":617531},"geometry":{"x":169571.85000000149,"y":2543690.8599999994}},{"attributes":{"ID":617559,"DIS_CODE":0,"TOWNNAME":"東區","LI":"成大里","LIN":"2鄰","STREET":"東寧路","SECT":"西段","MAREA":" ","LANE":" ","ALLEY":" ","HOUSE_NO":"７８號","E_COORD97":169514.92000000001,"N_COORD97":2543715.6699999999,"ADDRESS":"東寧路西段７８號","OBJECTID":617532},"geometry":{"x":169514.91999999993,"y":2543715.6700000018}},{"attributes":{"ID":617560,"DIS_CODE":0,"TOWNNAME":"東區","LI":"成大里","LIN":"2鄰","STREET":"東寧路","SECT":"西段","MAREA":" ","LANE":" ","ALLEY":" ","HOUSE_NO":"８２號","E_COORD97":169509.14999999999,"N_COORD97":2543696.8700000001,"ADDRESS":"東寧路西段８２號","OBJECTID":617533},"geometry":{"x":169509.15000000037,"y":2543696.870000001}},{"attributes":{"ID":617561,"DIS_CODE":0,"TOWNNAME":"東區","LI":"成大里","LIN":"2鄰","STREET":"東寧路","SECT":"西段","MAREA":" ","LANE":" ","ALLEY":" ","HOUSE_NO":"８４號","E_COORD97":169501.85000000001,"N_COORD97":2543697.25,"ADDRESS":"東寧路西段８４號","OBJECTID":617534},"geometry":{"x":169501.84999999963,"y":2543697.2500000037}},{"attributes":{"ID":617562,"DIS_CODE":0,"TOWNNAME":"東區","LI":"成大里","LIN":"2鄰","STREET":"東寧路","SECT":"西段","MAREA":" ","LANE":" ","ALLEY":" ","HOUSE_NO":"８８號","E_COORD97":169501.47,"N_COORD97":2543713.75,"ADDRESS":"東寧路西段８８號","OBJECTID":617535},"geometry":{"x":169501.46999999881,"y":2543713.75}},{"attributes":{"ID":617563,"DIS_CODE":0,"TOWNNAME":"東區","LI":"成大里","LIN":"2鄰","STREET":"東寧路","SECT":"西段","MAREA":" ","LANE":" ","ALLEY":" ","HOUSE_NO":"９０號","E_COORD97":169502.04000000001,"N_COORD97":2543707.04,"ADDRESS":"東寧路西段９０號","OBJECTID":617536},"geometry":{"x":169502.04000000097,"y":2543707.0399999991}},{"attributes":{"ID":617564,"DIS_CODE":0,"TOWNNAME":"下營區","LI":"下營里","LIN":"2鄰","STREET":"復興街","SECT":" ","MAREA":" ","LANE":" ","ALLEY":" ","HOUSE_NO":"５０號","E_COORD97":174650.28,"N_COORD97":2570454.9100000001,"ADDRESS":"復興街５０號","OBJECTID":617537},"geometry":{"x":174650.28000000119,"y":2570454.9100000001}},{"attributes":{"ID":617565,"DIS_CODE":0,"TOWNNAME":"永康區","LI":"蔦松里","LIN":"2鄰","STREET":"中正北路","SECT":" ","MAREA":" ","LANE":" ","ALLEY":" ","HOUSE_NO":"５４１號","E_COORD97":173908.34,"N_COORD97":2549209.2400000002,"ADDRESS":"中正北路５４１號","OBJECTID":617538},"geometry":{"x":173908.34000000171,"y":2549209.2400000002}},{"attributes":{"ID":617566,"DIS_CODE":0,"TOWNNAME":"永康區","LI":"\u25A0行里","LIN":"2鄰","STREET":"中正路","SECT":" ","MAREA":" ","LANE":" ","ALLEY":" ","HOUSE_NO":"９５２號","E_COORD97":171962.32000000001,"N_COORD97":2548942.7400000002,"ADDRESS":"中正路９５２號","OBJECTID":617539},"geometry":{"x":171962.3200000003,"y":2548942.7400000021}},{"attributes":{"ID":617567,"DIS_CODE":0,"TOWNNAME":"永康區","LI":"\u25A0行里","LIN":"2鄰","STREET":"中正路","SECT":" ","MAREA":" ","LANE":" ","ALLEY":" ","HOUSE_NO":"９６２號","E_COORD97":171949.73999999999,"N_COORD97":2548954.7999999998,"ADDRESS":"中正路９６２號","OBJECTID":617540},"geometry":{"x":171949.74000000209,"y":2548954.8000000007}},{"attributes":{"ID":617568,"DIS_CODE":0,"TOWNNAME":"永康區","LI":"\u25A0行里","LIN":"2鄰","STREET":"中正路","SECT":" ","MAREA":" ","LANE":" ","ALLEY":" ","HOUSE_NO":"９３６號之１","E_COORD97":171989.81,"N_COORD97":2548915.6600000001,"ADDRESS":"中正路９３６號之１","OBJECTID":617541},"geometry":{"x":171989.81000000052,"y":2548915.6600000039}},{"attributes":{"ID":617569,"DIS_CODE":0,"TOWNNAME":"東區","LI":"路東里","LIN":"2鄰","STREET":"大同路","SECT":"二段","MAREA":" ","LANE":" ","ALLEY":" ","HOUSE_NO":"８１號","E_COORD97":169345.16,"N_COORD97":2542179.79,"ADDRESS":"大同路二段８１號","OBJECTID":617542},"geometry":{"x":169345.16000000108,"y":2542179.7899999991}},{"attributes":{"ID":617570,"DIS_CODE":0,"TOWNNAME":"歸仁區","LI":"南保里","LIN":"2鄰","STREET":"民權二街","SECT":" ","MAREA":" ","LANE":" ","ALLEY":" ","HOUSE_NO":"３９號","E_COORD97":176942.51000000001,"N_COORD97":2541371.25,"ADDRESS":"民權二街３９號","OBJECTID":617543},"geometry":{"x":176942.50999999978,"y":2541371.2500000037}},{"attributes":{"ID":617571,"DIS_CODE":0,"TOWNNAME":"歸仁區","LI":"辜厝里","LIN":"2鄰","STREET":"中山路","SECT":"二段","MAREA":" ","LANE":" ","ALLEY":" ","HOUSE_NO":"５９號","E_COORD97":177458.14000000001,"N_COORD97":2540781.5499999998,"ADDRESS":"中山路二段５９號","OBJECTID":617544},"geometry":{"x":177458.1400000006,"y":2540781.5500000026}},{"attributes":{"ID":617572,"DIS_CODE":0,"TOWNNAME":"歸仁區","LI":"許厝里","LIN":"2鄰","STREET":"仁愛一街","SECT":" ","MAREA":" ","LANE":" ","ALLEY":" ","HOUSE_NO":"３７號","E_COORD97":178362.26999999999,"N_COORD97":2540627.0099999998,"ADDRESS":"仁愛一街３７號","OBJECTID":617545},"geometry":{"x":178362.27000000048,"y":2540627.0100000035}},{"attributes":{"ID":617573,"DIS_CODE":0,"TOWNNAME":"北區","LI":"永祥里","LIN":"2鄰","STREET":"大武街","SECT":" ","MAREA":" ","LANE":" ","ALLEY":" ","HOUSE_NO":"５０１號","E_COORD97":170001.39000000001,"N_COORD97":2546445.6099999999,"ADDRESS":"大武街５０１號","OBJECTID":617546},"geometry":{"x":170001.38999999966,"y":2546445.6099999994}},{"attributes":{"ID":617574,"DIS_CODE":0,"TOWNNAME":"北區","LI":"永祥里","LIN":"2鄰","STREET":"大武街","SECT":" ","MAREA":" ","LANE":" ","ALLEY":" ","HOUSE_NO":"５０３號","E_COORD97":170006.17999999999,"N_COORD97":2546444.1600000001,"ADDRESS":"大武街５０３號","OBJECTID":617547},"geometry":{"x":170006.1799999997,"y":2546444.1600000039}},{"attributes":{"ID":617575,"DIS_CODE":0,"TOWNNAME":"北區","LI":"永祥里","LIN":"2鄰","STREET":"大武街","SECT":" ","MAREA":" ","LANE":" ","ALLEY":" ","HOUSE_NO":"５０５號","E_COORD97":170010.44,"N_COORD97":2546442.6299999999,"ADDRESS":"大武街５０５號","OBJECTID":617548},"geometry":{"x":170010.44000000041,"y":2546442.629999999}},{"attributes":{"ID":617576,"DIS_CODE":0,"TOWNNAME":"北區","LI":"永祥里","LIN":"2鄰","STREET":"大武街","SECT":" ","MAREA":" ","LANE":" ","ALLEY":" ","HOUSE_NO":"５０７號","E_COORD97":170014.45999999999,"N_COORD97":2546441.79,"ADDRESS":"大武街５０７號","OBJECTID":617549},"geometry":{"x":170014.46000000089,"y":2546441.7899999991}},{"attributes":{"ID":617577,"DIS_CODE":0,"TOWNNAME":"北區","LI":"永祥里","LIN":"2鄰","STREET":"大武街","SECT":" ","MAREA":" ","LANE":" ","ALLEY":" ","HOUSE_NO":"５０９號","E_COORD97":170018.89000000001,"N_COORD97":2546440.1600000001,"ADDRESS":"大武街５０９號","OBJECTID":617550},"geometry":{"x":170018.88999999966,"y":2546440.1600000001}},{"attributes":{"ID":617578,"DIS_CODE":0,"TOWNNAME":"北區","LI":"永祥里","LIN":"2鄰","STREET":"大武街","SECT":" ","MAREA":" ","LANE":" ","ALLEY":" ","HOUSE_NO":"５１１號","E_COORD97":170022.97,"N_COORD97":2546438.2599999998,"ADDRESS":"大武街５１１號","OBJECTID":617551},"geometry":{"x":170022.96999999974,"y":2546438.2599999998}},{"attributes":{"ID":617579,"DIS_CODE":0,"TOWNNAME":"北區","LI":"永祥里","LIN":"2鄰","STREET":"大武街","SECT":" ","MAREA":" ","LANE":" ","ALLEY":" ","HOUSE_NO":"５１３號","E_COORD97":170027.39999999999,"N_COORD97":2546437,"ADDRESS":"大武街５１３號","OBJECTID":617552},"geometry":{"x":170027.40000000037,"y":2546437}},{"attributes":{"ID":617580,"DIS_CODE":0,"TOWNNAME":"北區","LI":"永祥里","LIN":"2鄰","STREET":"大武街","SECT":" ","MAREA":" ","LANE":" ","ALLEY":" ","HOUSE_NO":"５１５號","E_COORD97":170031.56,"N_COORD97":2546435.46,"ADDRESS":"大武街５１５號","OBJECTID":617553},"geometry":{"x":170031.56000000052,"y":2546435.4600000009}},{"attributes":{"ID":617581,"DIS_CODE":0,"TOWNNAME":"北區","LI":"永祥里","LIN":"2鄰","STREET":"大武街","SECT":" ","MAREA":" ","LANE":" ","ALLEY":" ","HOUSE_NO":"５１７號","E_COORD97":170035.54000000001,"N_COORD97":2546433.9300000002,"ADDRESS":"大武街５１７號","OBJECTID":617554},"geometry":{"x":170035.54000000097,"y":2546433.9299999997}},{"attributes":{"ID":617582,"DIS_CODE":0,"TOWNNAME":"北區","LI":"永祥里","LIN":"2鄰","STREET":"大武街","SECT":" ","MAREA":" ","LANE":" ","ALLEY":" ","HOUSE_NO":"５１９號","E_COORD97":170039.70000000001,"N_COORD97":2546432.75,"ADDRESS":"大武街５１９號","OBJECTID":617555},"geometry":{"x":170039.70000000112,"y":2546432.75}},{"attributes":{"ID":617583,"DIS_CODE":0,"TOWNNAME":"北區","LI":"永祥里","LIN":"2鄰","STREET":"大武街","SECT":" ","MAREA":" ","LANE":" ","ALLEY":" ","HOUSE_NO":"５２１號","E_COORD97":170043.85999999999,"N_COORD97":2546431.3999999999,"ADDRESS":"大武街５２１號","OBJECTID":617556},"geometry":{"x":170043.86000000127,"y":2546431.4000000004}},{"attributes":{"ID":617584,"DIS_CODE":0,"TOWNNAME":"安平區","LI":"國平里","LIN":"2鄰","STREET":"華平路","SECT":" ","MAREA":" ","LANE":" ","ALLEY":" ","HOUSE_NO":"１７２號","E_COORD97":165404.59,"N_COORD97":2543288.8300000001,"ADDRESS":"華平路１７２號","OBJECTID":617557},"geometry":{"x":165404.58999999985,"y":2543288.8300000001}},{"attributes":{"ID":617585,"DIS_CODE":0,"TOWNNAME":"安平區","LI":"國平里","LIN":"2鄰","STREET":"華平路","SECT":" ","MAREA":" ","LANE":" ","ALLEY":" ","HOUSE_NO":"１８０號","E_COORD97":165407.54000000001,"N_COORD97":2543310.5499999998,"ADDRESS":"華平路１８０號","OBJECTID":617558},"geometry":{"x":165407.5400000019,"y":2543310.5500000026}},{"attributes":{"ID":617586,"DIS_CODE":0,"TOWNNAME":"新營區","LI":"三仙里","LIN":"2鄰","STREET":"復興路","SECT":" ","MAREA":" ","LANE":" ","ALLEY":" ","HOUSE_NO":"１０之１號","E_COORD97":179727.5,"N_COORD97":2577992.6499999999,"ADDRESS":"復興路１０之１號","OBJECTID":617559},"geometry":{"x":179727.50000000093,"y":2577992.6500000022}},{"attributes":{"ID":617587,"DIS_CODE":0,"TOWNNAME":"新營區","LI":"中營里","LIN":"2鄰","STREET":"中山路","SECT":" ","MAREA":" ","LANE":" ","ALLEY":" ","HOUSE_NO":"１０８號","E_COORD97":180339.26999999999,"N_COORD97":2578274.3199999998,"ADDRESS":"中山路１０８號","OBJECTID":617560},"geometry":{"x":180339.26999999955,"y":2578274.3200000003}},{"attributes":{"ID":617588,"DIS_CODE":0,"TOWNNAME":"新營區","LI":"新北里","LIN":"2鄰","STREET":"三興街","SECT":" ","MAREA":" ","LANE":" ","ALLEY":" ","HOUSE_NO":"７１號之３","E_COORD97":179427.23000000001,"N_COORD97":2578997.4300000002,"ADDRESS":"三興街７１號之３","OBJECTID":617561},"geometry":{"x":179427.23000000045,"y":2578997.4300000016}},{"attributes":{"ID":617589,"DIS_CODE":0,"TOWNNAME":"新營區","LI":"民權里","LIN":"2鄰","STREET":"博愛街","SECT":" ","MAREA":" ","LANE":" ","ALLEY":" ","HOUSE_NO":"１７號","E_COORD97":180009.09,"N_COORD97":2578149.6299999999,"ADDRESS":"博愛街１７號","OBJECTID":617562},"geometry":{"x":180009.08999999985,"y":2578149.6299999971}},{"attributes":{"ID":617590,"DIS_CODE":0,"TOWNNAME":"新營區","LI":"民榮里","LIN":"2鄰","STREET":"復興路","SECT":" ","MAREA":" ","LANE":" ","ALLEY":" ","HOUSE_NO":"１３９之３號","E_COORD97":179298.26000000001,"N_COORD97":2578021.29,"ADDRESS":"復興路１３９之３號","OBJECTID":617563},"geometry":{"x":179298.26000000071,"y":2578021.290000001}},{"attributes":{"ID":617591,"DIS_CODE":0,"TOWNNAME":"新營區","LI":"中營里","LIN":"2鄰","STREET":"中山路","SECT":" ","MAREA":" ","LANE":" ","ALLEY":" ","HOUSE_NO":"７６號","E_COORD97":180411.85000000001,"N_COORD97":2578307.21,"ADDRESS":"中山路７６號","OBJECTID":617564},"geometry":{"x":180411.84999999963,"y":2578307.2100000046}},{"attributes":{"ID":617592,"DIS_CODE":0,"TOWNNAME":"北區","LI":"仁愛里","LIN":"2鄰","STREET":"勝利路","SECT":" ","MAREA":" ","LANE":" ","ALLEY":" ","HOUSE_NO":"２２２之４號","E_COORD97":169965.62,"N_COORD97":2545022.2000000002,"ADDRESS":"勝利路２２２之４號","OBJECTID":617565},"geometry":{"x":169965.62000000104,"y":2545022.200000003}},{"attributes":{"ID":617593,"DIS_CODE":0,"TOWNNAME":"北區","LI":"仁愛里","LIN":"2鄰","STREET":"勝利路","SECT":" ","MAREA":" ","LANE":" ","ALLEY":" ","HOUSE_NO":"２２２號","E_COORD97":169936,"N_COORD97":2545018.3500000001,"ADDRESS":"勝利路２２２號","OBJECTID":617566},"geometry":{"x":169936.00000000093,"y":2545018.3500000034}},{"attributes":{"ID":617594,"DIS_CODE":0,"TOWNNAME":"北區","LI":"仁愛里","LIN":"2鄰","STREET":"勝利路","SECT":" ","MAREA":" ","LANE":" ","ALLEY":" ","HOUSE_NO":"２２２號之１","E_COORD97":169948.78,"N_COORD97":2545018.4900000002,"ADDRESS":"勝利路２２２號之１","OBJECTID":617567},"geometry":{"x":169948.78000000026,"y":2545018.4900000021}},{"attributes":{"ID":617595,"DIS_CODE":0,"TOWNNAME":"北區","LI":"仁愛里","LIN":"2鄰","STREET":"勝利路","SECT":" ","MAREA":" ","LANE":" ","ALLEY":" ","HOUSE_NO":"２２２號之２","E_COORD97":169953.35999999999,"N_COORD97":2545019.3700000001,"ADDRESS":"勝利路２２２號之２","OBJECTID":617568},"geometry":{"x":169953.36000000034,"y":2545019.3699999992}},{"attributes":{"ID":617596,"DIS_CODE":0,"TOWNNAME":"北區","LI":"仁愛里","LIN":"2鄰","STREET":"勝利路","SECT":" ","MAREA":" ","LANE":" ","ALLEY":" ","HOUSE_NO":"２２２號之３","E_COORD97":169959.62,"N_COORD97":2545020.75,"ADDRESS":"勝利路２２２號之３","OBJECTID":617569},"geometry":{"x":169959.62000000011,"y":2545020.7500000019}},{"attributes":{"ID":617597,"DIS_CODE":0,"TOWNNAME":"北區","LI":"仁愛里","LIN":"2鄰","STREET":"勝利路","SECT":" ","MAREA":" ","LANE":" ","ALLEY":" ","HOUSE_NO":"２２４號","E_COORD97":169936.26999999999,"N_COORD97":2545024.8799999999,"ADDRESS":"勝利路２２４號","OBJECTID":617570},"geometry":{"x":169936.26999999955,"y":2545024.8800000008}},{"attributes":{"ID":617598,"DIS_CODE":0,"TOWNNAME":"北區","LI":"仁愛里","LIN":"2鄰","STREET":"勝利路","SECT":" ","MAREA":" ","LANE":" ","ALLEY":" ","HOUSE_NO":"２２６號","E_COORD97":169937.62,"N_COORD97":2545030.2599999998,"ADDRESS":"勝利路２２６號","OBJECTID":617571},"geometry":{"x":169937.62000000011,"y":2545030.2600000016}},{"attributes":{"ID":617599,"DIS_CODE":0,"TOWNNAME":"北區","LI":"延平里","LIN":"2鄰","STREET":"公園路","SECT":" ","MAREA":" ","LANE":" ","ALLEY":" ","HOUSE_NO":"６７４號之２","E_COORD97":169032.85000000001,"N_COORD97":2545418.7999999998,"ADDRESS":"公園路６７４號之２","OBJECTID":617572},"geometry":{"x":169032.85000000056,"y":2545418.8000000007}},{"attributes":{"ID":617600,"DIS_CODE":0,"TOWNNAME":"北區","LI":"延平里","LIN":"2鄰","STREET":"公園路","SECT":" ","MAREA":" ","LANE":" ","ALLEY":" ","HOUSE_NO":"６３８號","E_COORD97":169012.09,"N_COORD97":2545338.9300000002,"ADDRESS":"公園路６３８號","OBJECTID":617573},"geometry":{"x":169012.08999999985,"y":2545338.9299999997}},{"attributes":{"ID":617601,"DIS_CODE":0,"TOWNNAME":"北區","LI":"延平里","LIN":"2鄰","STREET":"公園路","SECT":" ","MAREA":" ","LANE":" ","ALLEY":" ","HOUSE_NO":"６４０號","E_COORD97":169013.32000000001,"N_COORD97":2545342.4100000001,"ADDRESS":"公園路６４０號","OBJECTID":617574},"geometry":{"x":169013.32000000216,"y":2545342.4100000001}},{"attributes":{"ID":617602,"DIS_CODE":0,"TOWNNAME":"北區","LI":"延平里","LIN":"2鄰","STREET":"公園路","SECT":" ","MAREA":" ","LANE":" ","ALLEY":" ","HOUSE_NO":"６４２號","E_COORD97":169013.60999999999,"N_COORD97":2545346.2799999998,"ADDRESS":"公園路６４２號","OBJECTID":617575},"geometry":{"x":169013.61000000127,"y":2545346.2799999993}},{"attributes":{"ID":617603,"DIS_CODE":0,"TOWNNAME":"北區","LI":"延平里","LIN":"2鄰","STREET":"公園路","SECT":" ","MAREA":" ","LANE":" ","ALLEY":" ","HOUSE_NO":"６４４號","E_COORD97":169012.37,"N_COORD97":2545349.2999999998,"ADDRESS":"公園路６４４號","OBJECTID":617576},"geometry":{"x":169012.37000000011,"y":2545349.3000000026}},{"attributes":{"ID":617604,"DIS_CODE":0,"TOWNNAME":"北區","LI":"延平里","LIN":"2鄰","STREET":"公園路","SECT":" ","MAREA":" ","LANE":" ","ALLEY":" ","HOUSE_NO":"６４６號","E_COORD97":169013.48999999999,"N_COORD97":2545353.6400000001,"ADDRESS":"公園路６４６號","OBJECTID":617577},"geometry":{"x":169013.49000000022,"y":2545353.6400000025}},{"attributes":{"ID":617605,"DIS_CODE":0,"TOWNNAME":"北區","LI":"延平里","LIN":"2鄰","STREET":"公園路","SECT":" ","MAREA":" ","LANE":" ","ALLEY":" ","HOUSE_NO":"６４８號","E_COORD97":169015.51999999999,"N_COORD97":2545357.1800000002,"ADDRESS":"公園路６４８號","OBJECTID":617578},"geometry":{"x":169015.51999999955,"y":2545357.1799999997}},{"attributes":{"ID":617606,"DIS_CODE":0,"TOWNNAME":"北區","LI":"延平里","LIN":"2鄰","STREET":"公園路","SECT":" ","MAREA":" ","LANE":" ","ALLEY":" ","HOUSE_NO":"６５０號","E_COORD97":169015.32999999999,"N_COORD97":2545360.5800000001,"ADDRESS":"公園路６５０號","OBJECTID":617579},"geometry":{"x":169015.33000000101,"y":2545360.5800000019}},{"attributes":{"ID":617607,"DIS_CODE":0,"TOWNNAME":"北區","LI":"延平里","LIN":"2鄰","STREET":"公園路","SECT":" ","MAREA":" ","LANE":" ","ALLEY":" ","HOUSE_NO":"６５０號之１","E_COORD97":169015.51999999999,"N_COORD97":2545363.8700000001,"ADDRESS":"公園路６５０號之１","OBJECTID":617580},"geometry":{"x":169015.51999999955,"y":2545363.870000001}},{"attributes":{"ID":617608,"DIS_CODE":0,"TOWNNAME":"北區","LI":"延平里","LIN":"2鄰","STREET":"公園路","SECT":" ","MAREA":" ","LANE":" ","ALLEY":" ","HOUSE_NO":"６５２號","E_COORD97":169016.63,"N_COORD97":2545367.0899999999,"ADDRESS":"公園路６５２號","OBJECTID":617581},"geometry":{"x":169016.63000000082,"y":2545367.0900000017}},{"attributes":{"ID":617609,"DIS_CODE":0,"TOWNNAME":"北區","LI":"延平里","LIN":"2鄰","STREET":"公園路","SECT":" ","MAREA":" ","LANE":" ","ALLEY":" ","HOUSE_NO":"６５４號","E_COORD97":169017.69,"N_COORD97":2545369.8799999999,"ADDRESS":"公園路６５４號","OBJECTID":617582},"geometry":{"x":169017.69000000227,"y":2545369.8800000027}},{"attributes":{"ID":617610,"DIS_CODE":0,"TOWNNAME":"北區","LI":"延平里","LIN":"2鄰","STREET":"公園路","SECT":" ","MAREA":" ","LANE":" ","ALLEY":" ","HOUSE_NO":"６５６號","E_COORD97":169019.51999999999,"N_COORD97":2545374.9500000002,"ADDRESS":"公園路６５６號","OBJECTID":617583},"geometry":{"x":169019.51999999862,"y":2545374.9499999993}},{"attributes":{"ID":617611,"DIS_CODE":0,"TOWNNAME":"北區","LI":"延平里","LIN":"2鄰","STREET":"公園路","SECT":" ","MAREA":" ","LANE":" ","ALLEY":" ","HOUSE_NO":"６５８號","E_COORD97":169020.79000000001,"N_COORD97":2545380.5600000001,"ADDRESS":"公園路６５８號","OBJECTID":617584},"geometry":{"x":169020.79000000097,"y":2545380.5600000042}},{"attributes":{"ID":617612,"DIS_CODE":0,"TOWNNAME":"北區","LI":"延平里","LIN":"2鄰","STREET":"公園路","SECT":" ","MAREA":" ","LANE":" ","ALLEY":" ","HOUSE_NO":"６６０號","E_COORD97":169022.04999999999,"N_COORD97":2545386.02,"ADDRESS":"公園路６６０號","OBJECTID":617585},"geometry":{"x":169022.05000000075,"y":2545386.0199999996}},{"attributes":{"ID":617613,"DIS_CODE":0,"TOWNNAME":"北區","LI":"延平里","LIN":"2鄰","STREET":"公園路","SECT":" ","MAREA":" ","LANE":" ","ALLEY":" ","HOUSE_NO":"６６６號","E_COORD97":169036.92000000001,"N_COORD97":2545388.6899999999,"ADDRESS":"公園路６６６號","OBJECTID":617586},"geometry":{"x":169036.91999999993,"y":2545388.6900000032}},{"attributes":{"ID":617614,"DIS_CODE":0,"TOWNNAME":"北區","LI":"延平里","LIN":"2鄰","STREET":"公園路","SECT":" ","MAREA":" ","LANE":" ","ALLEY":" ","HOUSE_NO":"６６８號","E_COORD97":169027.10000000001,"N_COORD97":2545401.5800000001,"ADDRESS":"公園路６６８號","OBJECTID":617587},"geometry":{"x":169027.09999999963,"y":2545401.5800000019}},{"attributes":{"ID":617615,"DIS_CODE":0,"TOWNNAME":"北區","LI":"延平里","LIN":"2鄰","STREET":"公園路","SECT":" ","MAREA":" ","LANE":" ","ALLEY":" ","HOUSE_NO":"６７０號","E_COORD97":169028.64000000001,"N_COORD97":2545405.79,"ADDRESS":"公園路６７０號","OBJECTID":617588},"geometry":{"x":169028.63999999966,"y":2545405.790000001}},{"attributes":{"ID":617616,"DIS_CODE":0,"TOWNNAME":"北區","LI":"延平里","LIN":"2鄰","STREET":"公園路","SECT":" ","MAREA":" ","LANE":" ","ALLEY":" ","HOUSE_NO":"６７４號","E_COORD97":169029.76000000001,"N_COORD97":2545409.1200000001,"ADDRESS":"公園路６７４號","OBJECTID":617589},"geometry":{"x":169029.75999999978,"y":2545409.1200000029}},{"attributes":{"ID":617617,"DIS_CODE":0,"TOWNNAME":"北區","LI":"延平里","LIN":"2鄰","STREET":"公園路","SECT":" ","MAREA":" ","LANE":" ","ALLEY":" ","HOUSE_NO":"６７４號之１","E_COORD97":169031.45000000001,"N_COORD97":2545414.8700000001,"ADDRESS":"公園路６７４號之１","OBJECTID":617590},"geometry":{"x":169031.45000000112,"y":2545414.870000001}},{"attributes":{"ID":617618,"DIS_CODE":0,"TOWNNAME":"北區","LI":"延平里","LIN":"2鄰","STREET":"公園路","SECT":" ","MAREA":" ","LANE":" ","ALLEY":" ","HOUSE_NO":"６７８號","E_COORD97":169052.20999999999,"N_COORD97":2545411.6499999999,"ADDRESS":"公園路６７８號","OBJECTID":617591},"geometry":{"x":169052.20999999996,"y":2545411.6500000022}},{"attributes":{"ID":617619,"DIS_CODE":0,"TOWNNAME":"北區","LI":"延平里","LIN":"2鄰","STREET":"公園路","SECT":" ","MAREA":" ","LANE":" ","ALLEY":" ","HOUSE_NO":"６７８號之１","E_COORD97":169055.57999999999,"N_COORD97":2545410.25,"ADDRESS":"公園路６７８號之１","OBJECTID":617592},"geometry":{"x":169055.58000000101,"y":2545410.2500000019}},{"attributes":{"ID":617620,"DIS_CODE":0,"TOWNNAME":"北區","LI":"延平里","LIN":"2鄰","STREET":"公園路","SECT":" ","MAREA":" ","LANE":" ","ALLEY":" ","HOUSE_NO":"６７８號之２","E_COORD97":169058.23999999999,"N_COORD97":2545409.2599999998,"ADDRESS":"公園路６７８號之２","OBJECTID":617593},"geometry":{"x":169058.24000000115,"y":2545409.2600000016}},{"attributes":{"ID":617621,"DIS_CODE":0,"TOWNNAME":"北區","LI":"延平里","LIN":"2鄰","STREET":"公園路","SECT":" ","MAREA":" ","LANE":" ","ALLEY":" ","HOUSE_NO":"６７８號之３","E_COORD97":169062.45000000001,"N_COORD97":2545407.5800000001,"ADDRESS":"公園路６７８號之３","OBJECTID":617594},"geometry":{"x":169062.45000000019,"y":2545407.5800000019}},{"attributes":{"ID":617622,"DIS_CODE":0,"TOWNNAME":"安平區","LI":"國平里","LIN":"2鄰","STREET":"華平路","SECT":" ","MAREA":" ","LANE":" ","ALLEY":" ","HOUSE_NO":"１６８號","E_COORD97":165402.69,"N_COORD97":2543278.5099999998,"ADDRESS":"華平路１６８號","OBJECTID":617595},"geometry":{"x":165402.69000000041,"y":2543278.5100000016}},{"attributes":{"ID":617623,"DIS_CODE":0,"TOWNNAME":"安平區","LI":"國平里","LIN":"2鄰","STREET":"華平路","SECT":" ","MAREA":" ","LANE":" ","ALLEY":" ","HOUSE_NO":"１７０號","E_COORD97":165403.45000000001,"N_COORD97":2543283.29,"ADDRESS":"華平路１７０號","OBJECTID":617596},"geometry":{"x":165403.45000000112,"y":2543283.290000001}},{"attributes":{"ID":617624,"DIS_CODE":0,"TOWNNAME":"安平區","LI":"華平里","LIN":"2鄰","STREET":"慶平路","SECT":" ","MAREA":" ","LANE":" ","ALLEY":" ","HOUSE_NO":"４４３號","E_COORD97":165380.01999999999,"N_COORD97":2544169.0299999998,"ADDRESS":"慶平路４４３號","OBJECTID":617597},"geometry":{"x":165380.02000000142,"y":2544169.0300000031}},{"attributes":{"ID":617625,"DIS_CODE":0,"TOWNNAME":"安平區","LI":"華平里","LIN":"2鄰","STREET":"慶平路","SECT":" ","MAREA":" ","LANE":" ","ALLEY":" ","HOUSE_NO":"４４５號","E_COORD97":165375.62,"N_COORD97":2544170.29,"ADDRESS":"慶平路４４５號","OBJECTID":617598},"geometry":{"x":165375.62000000104,"y":2544170.2899999972}},{"attributes":{"ID":617626,"DIS_CODE":0,"TOWNNAME":"安平區","LI":"華平里","LIN":"2鄰","STREET":"慶平路","SECT":" ","MAREA":" ","LANE":" ","ALLEY":" ","HOUSE_NO":"４４７號","E_COORD97":165371.22,"N_COORD97":2544170.6699999999,"ADDRESS":"慶平路４４７號","OBJECTID":617599},"geometry":{"x":165371.22000000067,"y":2544170.6699999999}},{"attributes":{"ID":617627,"DIS_CODE":0,"TOWNNAME":"安平區","LI":"華平里","LIN":"2鄰","STREET":"慶平路","SECT":" ","MAREA":" ","LANE":" ","ALLEY":" ","HOUSE_NO":"４４９號","E_COORD97":165366.19,"N_COORD97":2544170.54,"ADDRESS":"慶平路４４９號","OBJECTID":617600},"geometry":{"x":165366.19000000227,"y":2544170.5399999991}}]}