{"displayFieldName":"TOWNNAME","fieldAliases":{"ID":"ID","DIS_CODE":"DIS_CODE","TOWNNAME":"TOWNNAME","LI":"LI","LIN":"LIN","STREET":"STREET","SECT":"SECT","MAREA":"MAREA","LANE":"LANE","ALLEY":"ALLEY","HOUSE_NO":"HOUSE_NO","E_COORD97":"E_COORD97","N_COORD97":"N_COORD97","ADDRESS":"ADDRESS","OBJECTID":"OBJECTID"},"geometryType":"esriGeometryPoint","spatialReference":{"wkid":102443,"latestWkid":3826},"fields":[{"name":"ID","type":"esriFieldTypeDouble","alias":"ID"},{"name":"DIS_CODE","type":"esriFieldTypeInteger","alias":"DIS_CODE"},{"name":"TOWNNAME","type":"esriFieldTypeString","alias":"TOWNNAME","length":8},{"name":"LI","type":"esriFieldTypeString","alias":"LI","length":8},{"name":"LIN","type":"esriFieldTypeString","alias":"LIN","length":12},{"name":"STREET","type":"esriFieldTypeString","alias":"STREET","length":20},{"name":"SECT","type":"esriFieldTypeString","alias":"SECT","length":8},{"name":"MAREA","type":"esriFieldTypeString","alias":"MAREA","length":12},{"name":"LANE","type":"esriFieldTypeString","alias":"LANE","length":10},{"name":"ALLEY","type":"esriFieldTypeString","alias":"ALLEY","length":10},{"name":"HOUSE_NO","type":"esriFieldTypeString","alias":"HOUSE_NO","length":20},{"name":"E_COORD97","type":"esriFieldTypeDouble","alias":"E_COORD97"},{"name":"N_COORD97","type":"esriFieldTypeDouble","alias":"N_COORD97"},{"name":"ADDRESS","type":"esriFieldTypeString","alias":"ADDRESS","length":50},{"name":"OBJECTID","type":"esriFieldTypeOID","alias":"OBJECTID"}],"features":[{"attributes":{"ID":61401,"DIS_CODE":0,"TOWNNAME":"安定區","LI":"港南里","LIN":"1鄰","STREET":" ","SECT":" ","MAREA":"港口","LANE":" ","ALLEY":" ","HOUSE_NO":"７之７號","E_COORD97":171173.39000000001,"N_COORD97":2554307.2999999998,"ADDRESS":"港口７之７號","OBJECTID":61401},"geometry":{"x":171173.38999999873,"y":2554307.3000000026}},{"attributes":{"ID":61402,"DIS_CODE":0,"TOWNNAME":"安定區","LI":"蘇林里","LIN":"1鄰","STREET":" ","SECT":" ","MAREA":"蘇厝","LANE":" ","ALLEY":" ","HOUSE_NO":"２號之１３","E_COORD97":173849.10000000001,"N_COORD97":2558533.2999999998,"ADDRESS":"蘇厝２號之１３","OBJECTID":61402},"geometry":{"x":173849.10000000056,"y":2558533.3000000007}},{"attributes":{"ID":61403,"DIS_CODE":0,"TOWNNAME":"東區","LI":"大智里","LIN":"35鄰","STREET":"崇善十五街","SECT":" ","MAREA":" ","LANE":"７巷","ALLEY":"６６弄","HOUSE_NO":"２０號","E_COORD97":171426.75,"N_COORD97":2540463.8799999999,"ADDRESS":"崇善十五街７巷６６弄２０號","OBJECTID":61403},"geometry":{"x":171426.75,"y":2540463.8799999971}},{"attributes":{"ID":61404,"DIS_CODE":0,"TOWNNAME":"安定區","LI":"海寮里","LIN":"1鄰","STREET":" ","SECT":" ","MAREA":"海寮","LANE":" ","ALLEY":" ","HOUSE_NO":"１１之１６號","E_COORD97":169097.64000000001,"N_COORD97":2555182.2999999998,"ADDRESS":"海寮１１之１６號","OBJECTID":61404},"geometry":{"x":169097.6400000006,"y":2555182.3000000026}},{"attributes":{"ID":61405,"DIS_CODE":0,"TOWNNAME":"安定區","LI":"港南里","LIN":"1鄰","STREET":" ","SECT":" ","MAREA":"港口","LANE":" ","ALLEY":" ","HOUSE_NO":"７之１８號","E_COORD97":171173.48701700001,"N_COORD97":2554336.5248400001,"ADDRESS":"港口７之１８號","OBJECTID":61405},"geometry":{"x":171173.48701700196,"y":2554336.5248420015}},{"attributes":{"ID":61406,"DIS_CODE":0,"TOWNNAME":"安定區","LI":"海寮里","LIN":"1鄰","STREET":" ","SECT":" ","MAREA":"海寮","LANE":" ","ALLEY":" ","HOUSE_NO":"１１之２１號","E_COORD97":169081.04000000001,"N_COORD97":2555147.2999999998,"ADDRESS":"海寮１１之２１號","OBJECTID":61406},"geometry":{"x":169081.0400000019,"y":2555147.3000000026}},{"attributes":{"ID":61407,"DIS_CODE":0,"TOWNNAME":"東區","LI":"大智里","LIN":"35鄰","STREET":"崇善十五街","SECT":" ","MAREA":" ","LANE":"７巷","ALLEY":"６６弄","HOUSE_NO":"２１號","E_COORD97":171434.69,"N_COORD97":2540448.5299999998,"ADDRESS":"崇善十五街７巷６６弄２１號","OBJECTID":61407},"geometry":{"x":171434.69000000041,"y":2540448.5299999993}},{"attributes":{"ID":61408,"DIS_CODE":0,"TOWNNAME":"東區","LI":"大智里","LIN":"35鄰","STREET":"崇善十五街","SECT":" ","MAREA":" ","LANE":"７巷","ALLEY":"６６弄","HOUSE_NO":"２２號","E_COORD97":171419.34,"N_COORD97":2540464.4100000001,"ADDRESS":"崇善十五街７巷６６弄２２號","OBJECTID":61408},"geometry":{"x":171419.33999999985,"y":2540464.4100000001}},{"attributes":{"ID":61409,"DIS_CODE":0,"TOWNNAME":"南區","LI":"再興里","LIN":"8鄰","STREET":"三官路","SECT":" ","MAREA":" ","LANE":"７０巷","ALLEY":" ","HOUSE_NO":"２１號之１","E_COORD97":167272.48000000001,"N_COORD97":2542240.0299999998,"ADDRESS":"三官路７０巷２１號之１","OBJECTID":61409},"geometry":{"x":167272.48000000045,"y":2542240.0300000031}},{"attributes":{"ID":61410,"DIS_CODE":0,"TOWNNAME":"安定區","LI":"蘇林里","LIN":"1鄰","STREET":" ","SECT":" ","MAREA":"蘇厝","LANE":" ","ALLEY":" ","HOUSE_NO":"２之２５號","E_COORD97":173877.17000000001,"N_COORD97":2558548.2999999998,"ADDRESS":"蘇厝２之２５號","OBJECTID":61410},"geometry":{"x":173877.16999999993,"y":2558548.3000000026}},{"attributes":{"ID":61411,"DIS_CODE":0,"TOWNNAME":"新營區","LI":"三仙里","LIN":"24鄰","STREET":"民治路","SECT":" ","MAREA":" ","LANE":" ","ALLEY":" ","HOUSE_NO":"８４號之１","E_COORD97":179480.51000000001,"N_COORD97":2578812.23,"ADDRESS":"民治路８４號之１","OBJECTID":61411},"geometry":{"x":179480.50999999978,"y":2578812.2300000023}},{"attributes":{"ID":61412,"DIS_CODE":0,"TOWNNAME":"南區","LI":"新昌里","LIN":"8鄰","STREET":"五妃街","SECT":" ","MAREA":" ","LANE":" ","ALLEY":" ","HOUSE_NO":"４１８號","E_COORD97":167517.73999999999,"N_COORD97":2542608.2799999998,"ADDRESS":"五妃街４１８號","OBJECTID":61412},"geometry":{"x":167517.74000000022,"y":2542608.2800000012}},{"attributes":{"ID":61413,"DIS_CODE":0,"TOWNNAME":"安定區","LI":"海寮里","LIN":"1鄰","STREET":" ","SECT":" ","MAREA":"海寮","LANE":" ","ALLEY":" ","HOUSE_NO":"１８之１９號","E_COORD97":169297.04000000001,"N_COORD97":2554968.2999999998,"ADDRESS":"海寮１８之１９號","OBJECTID":61413},"geometry":{"x":169297.04000000097,"y":2554968.3000000026}},{"attributes":{"ID":61414,"DIS_CODE":0,"TOWNNAME":"歸仁區","LI":"許厝里","LIN":"8鄰","STREET":"仁愛南街","SECT":" ","MAREA":" ","LANE":" ","ALLEY":" ","HOUSE_NO":"４６號","E_COORD97":178258.32999999999,"N_COORD97":2540542.25,"ADDRESS":"仁愛南街４６號","OBJECTID":61414},"geometry":{"x":178258.33000000007,"y":2540542.2500000019}},{"attributes":{"ID":61415,"DIS_CODE":0,"TOWNNAME":"歸仁區","LI":"辜厝里","LIN":"8鄰","STREET":"中正六街","SECT":" ","MAREA":" ","LANE":" ","ALLEY":" ","HOUSE_NO":"１號","E_COORD97":177573.41,"N_COORD97":2540648.1099999999,"ADDRESS":"中正六街１號","OBJECTID":61415},"geometry":{"x":177573.41000000108,"y":2540648.1099999994}},{"attributes":{"ID":61416,"DIS_CODE":0,"TOWNNAME":"歸仁區","LI":"歸仁里","LIN":"8鄰","STREET":"和平北街","SECT":" ","MAREA":" ","LANE":" ","ALLEY":" ","HOUSE_NO":"３２號","E_COORD97":177850.39999999999,"N_COORD97":2540889.48,"ADDRESS":"和平北街３２號","OBJECTID":61416},"geometry":{"x":177850.4000000013,"y":2540889.4800000023}},{"attributes":{"ID":61417,"DIS_CODE":0,"TOWNNAME":"歸仁區","LI":"看西里","LIN":"8鄰","STREET":"信義南路","SECT":" ","MAREA":" ","LANE":" ","ALLEY":" ","HOUSE_NO":"１９１號","E_COORD97":178130.66,"N_COORD97":2540227.4900000002,"ADDRESS":"信義南路１９１號","OBJECTID":61417},"geometry":{"x":178130.66000000015,"y":2540227.4900000039}},{"attributes":{"ID":61418,"DIS_CODE":0,"TOWNNAME":"歸仁區","LI":"看東里","LIN":"8鄰","STREET":"成功一街","SECT":" ","MAREA":" ","LANE":" ","ALLEY":" ","HOUSE_NO":"７７號","E_COORD97":178592.54999999999,"N_COORD97":2540047.4500000002,"ADDRESS":"成功一街７７號","OBJECTID":61418},"geometry":{"x":178592.55000000075,"y":2540047.4500000011}},{"attributes":{"ID":61419,"DIS_CODE":0,"TOWNNAME":"歸仁區","LI":"崙頂里","LIN":"8鄰","STREET":"崙頂三街","SECT":" ","MAREA":" ","LANE":" ","ALLEY":" ","HOUSE_NO":"８０號","E_COORD97":178013.32999999999,"N_COORD97":2539923.25,"ADDRESS":"崙頂三街８０號","OBJECTID":61419},"geometry":{"x":178013.33000000101,"y":2539923.25}},{"attributes":{"ID":61420,"DIS_CODE":0,"TOWNNAME":"新營區","LI":"埤寮里","LIN":"4鄰","STREET":" ","SECT":" ","MAREA":"許丑","LANE":" ","ALLEY":" ","HOUSE_NO":"４５號之５","E_COORD97":179724.37,"N_COORD97":2580978.3599999999,"ADDRESS":"許丑４５號之５","OBJECTID":61420},"geometry":{"x":179724.37000000011,"y":2580978.3599999994}},{"attributes":{"ID":61421,"DIS_CODE":0,"TOWNNAME":"東區","LI":"大智里","LIN":"35鄰","STREET":"崇善十五街","SECT":" ","MAREA":" ","LANE":"７巷","ALLEY":"６６弄","HOUSE_NO":"２３號","E_COORD97":171428.07000000001,"N_COORD97":2540449.8599999999,"ADDRESS":"崇善十五街７巷６６弄２３號","OBJECTID":61421},"geometry":{"x":171428.0700000003,"y":2540449.8599999994}},{"attributes":{"ID":61422,"DIS_CODE":0,"TOWNNAME":"東區","LI":"大智里","LIN":"35鄰","STREET":"崇善十五街","SECT":" ","MAREA":" ","LANE":"７巷","ALLEY":"６６弄","HOUSE_NO":"２５號","E_COORD97":171421.98999999999,"N_COORD97":2540449.0600000001,"ADDRESS":"崇善十五街７巷６６弄２５號","OBJECTID":61422},"geometry":{"x":171421.99000000022,"y":2540449.0600000024}},{"attributes":{"ID":61423,"DIS_CODE":0,"TOWNNAME":"東區","LI":"大智里","LIN":"35鄰","STREET":"崇善十五街","SECT":" ","MAREA":" ","LANE":"７巷","ALLEY":"６６弄","HOUSE_NO":"２６號","E_COORD97":171412.20000000001,"N_COORD97":2540464.4100000001,"ADDRESS":"崇善十五街７巷６６弄２６號","OBJECTID":61423},"geometry":{"x":171412.20000000019,"y":2540464.4100000001}},{"attributes":{"ID":61424,"DIS_CODE":0,"TOWNNAME":"東區","LI":"大智里","LIN":"35鄰","STREET":"崇善十五街","SECT":" ","MAREA":" ","LANE":"７巷","ALLEY":"６６弄","HOUSE_NO":"２７號","E_COORD97":171416.70000000001,"N_COORD97":2540449.8599999999,"ADDRESS":"崇善十五街７巷６６弄２７號","OBJECTID":61424},"geometry":{"x":171416.70000000112,"y":2540449.8599999994}},{"attributes":{"ID":61425,"DIS_CODE":0,"TOWNNAME":"新營區","LI":"嘉芳里","LIN":" ","STREET":" ","SECT":" ","MAREA":"茄苳腳","LANE":" ","ALLEY":" ","HOUSE_NO":"５７之２４號","E_COORD97":176878.20000000001,"N_COORD97":2578454.9700000002,"ADDRESS":"茄苳腳５７之２４號","OBJECTID":61425},"geometry":{"x":176878.20000000112,"y":2578454.9700000025}},{"attributes":{"ID":61426,"DIS_CODE":0,"TOWNNAME":"東區","LI":"大智里","LIN":"35鄰","STREET":"崇善十五街","SECT":" ","MAREA":" ","LANE":"７巷","ALLEY":"６６弄","HOUSE_NO":"２８號","E_COORD97":171405.04999999999,"N_COORD97":2540464.6699999999,"ADDRESS":"崇善十五街７巷６６弄２８號","OBJECTID":61426},"geometry":{"x":171405.05000000075,"y":2540464.6700000018}},{"attributes":{"ID":61427,"DIS_CODE":0,"TOWNNAME":"東區","LI":"大智里","LIN":"35鄰","STREET":"崇善十五街","SECT":" ","MAREA":" ","LANE":"７巷","ALLEY":"６６弄","HOUSE_NO":"２９號","E_COORD97":171411.39999999999,"N_COORD97":2540449.5899999999,"ADDRESS":"崇善十五街７巷６６弄２９號","OBJECTID":61427},"geometry":{"x":171411.39999999944,"y":2540449.5899999999}},{"attributes":{"ID":61428,"DIS_CODE":0,"TOWNNAME":"東區","LI":"大智里","LIN":"35鄰","STREET":"崇善十五街","SECT":" ","MAREA":" ","LANE":"７巷","ALLEY":"６６弄","HOUSE_NO":"３１號","E_COORD97":171405.85000000001,"N_COORD97":2540449.5899999999,"ADDRESS":"崇善十五街７巷６６弄３１號","OBJECTID":61428},"geometry":{"x":171405.8499999987,"y":2540449.5899999999}},{"attributes":{"ID":61429,"DIS_CODE":0,"TOWNNAME":"安定區","LI":"海寮里","LIN":"1鄰","STREET":" ","SECT":" ","MAREA":"海寮","LANE":" ","ALLEY":" ","HOUSE_NO":"１２之５號","E_COORD97":169135.89000000001,"N_COORD97":2555165.2999999998,"ADDRESS":"海寮１２之５號","OBJECTID":61429},"geometry":{"x":169135.89000000153,"y":2555165.3000000026}},{"attributes":{"ID":61430,"DIS_CODE":0,"TOWNNAME":"東區","LI":"大智里","LIN":"35鄰","STREET":"崇善十五街","SECT":" ","MAREA":" ","LANE":"７巷","ALLEY":"６６弄","HOUSE_NO":"３號","E_COORD97":171475.17000000001,"N_COORD97":2540454.6200000001,"ADDRESS":"崇善十五街７巷６６弄３號","OBJECTID":61430},"geometry":{"x":171475.16999999993,"y":2540454.6200000048}},{"attributes":{"ID":61431,"DIS_CODE":0,"TOWNNAME":"安定區","LI":"六嘉里","LIN":"1鄰","STREET":" ","SECT":" ","MAREA":"六塊寮","LANE":" ","ALLEY":" ","HOUSE_NO":"２之１２號","E_COORD97":170499.42000000001,"N_COORD97":2553696.2999999998,"ADDRESS":"六塊寮２之１２號","OBJECTID":61431},"geometry":{"x":170499.42000000086,"y":2553696.3000000026}},{"attributes":{"ID":61432,"DIS_CODE":0,"TOWNNAME":"東區","LI":"大智里","LIN":"35鄰","STREET":"崇善十五街","SECT":" ","MAREA":" ","LANE":"７巷","ALLEY":"６６弄","HOUSE_NO":"５號","E_COORD97":171471.73000000001,"N_COORD97":2540453.0299999998,"ADDRESS":"崇善十五街７巷６６弄５號","OBJECTID":61432},"geometry":{"x":171471.73000000045,"y":2540453.0299999975}},{"attributes":{"ID":61433,"DIS_CODE":0,"TOWNNAME":"安定區","LI":"海寮里","LIN":"1鄰","STREET":" ","SECT":" ","MAREA":"海寮","LANE":" ","ALLEY":" ","HOUSE_NO":"１８號之１４","E_COORD97":169286.89999999999,"N_COORD97":2555113.2999999998,"ADDRESS":"海寮１８號之１４","OBJECTID":61433},"geometry":{"x":169286.90000000037,"y":2555113.3000000026}},{"attributes":{"ID":61434,"DIS_CODE":0,"TOWNNAME":"安定區","LI":"六嘉里","LIN":"1鄰","STREET":" ","SECT":" ","MAREA":"六塊寮","LANE":" ","ALLEY":" ","HOUSE_NO":"３號之１","E_COORD97":170497.5,"N_COORD97":2553594.2999999998,"ADDRESS":"六塊寮３號之１","OBJECTID":61434},"geometry":{"x":170497.50000000093,"y":2553594.3000000045}},{"attributes":{"ID":61435,"DIS_CODE":0,"TOWNNAME":"安定區","LI":"港南里","LIN":"1鄰","STREET":" ","SECT":" ","MAREA":"港口","LANE":" ","ALLEY":" ","HOUSE_NO":"９號","E_COORD97":171206.19,"N_COORD97":2554313.25,"ADDRESS":"港口９號","OBJECTID":61435},"geometry":{"x":171206.19000000227,"y":2554313.2500000019}},{"attributes":{"ID":61436,"DIS_CODE":0,"TOWNNAME":"佳里區","LI":"蚶寮里","LIN":"6鄰","STREET":" ","SECT":" ","MAREA":"蚶寮","LANE":" ","ALLEY":" ","HOUSE_NO":"６２號","E_COORD97":163479.78,"N_COORD97":2558714.0099999998,"ADDRESS":"蚶寮６２號","OBJECTID":61436},"geometry":{"x":163479.78000000026,"y":2558714.0099999998}},{"attributes":{"ID":61437,"DIS_CODE":0,"TOWNNAME":"安定區","LI":"海寮里","LIN":"1鄰","STREET":" ","SECT":" ","MAREA":"海寮","LANE":" ","ALLEY":" ","HOUSE_NO":"１１之２６號","E_COORD97":169078.84,"N_COORD97":2555169.2999999998,"ADDRESS":"海寮１１之２６號","OBJECTID":61437},"geometry":{"x":169078.84000000171,"y":2555169.3000000007}},{"attributes":{"ID":61438,"DIS_CODE":0,"TOWNNAME":"安定區","LI":"港南里","LIN":"1鄰","STREET":" ","SECT":" ","MAREA":"港口","LANE":" ","ALLEY":" ","HOUSE_NO":"７號之１１","E_COORD97":171168.28,"N_COORD97":2554313.2999999998,"ADDRESS":"港口７號之１１","OBJECTID":61438},"geometry":{"x":171168.28000000119,"y":2554313.3000000026}},{"attributes":{"ID":61439,"DIS_CODE":0,"TOWNNAME":"安定區","LI":"中榮里","LIN":"1鄰","STREET":" ","SECT":" ","MAREA":"許中營","LANE":" ","ALLEY":" ","HOUSE_NO":"１之３９號","E_COORD97":172113.617115,"N_COORD97":2554963.0995900002,"ADDRESS":"許中營１之３９號","OBJECTID":61439},"geometry":{"x":172113.61711500026,"y":2554963.0995889977}},{"attributes":{"ID":61440,"DIS_CODE":0,"TOWNNAME":"安定區","LI":"蘇厝里","LIN":"1鄰","STREET":" ","SECT":" ","MAREA":"蘇厝","LANE":" ","ALLEY":" ","HOUSE_NO":"２８２號","E_COORD97":173331.32000000001,"N_COORD97":2558568.2400000002,"ADDRESS":"蘇厝２８２號","OBJECTID":61440},"geometry":{"x":173331.32000000123,"y":2558568.2400000021}},{"attributes":{"ID":61441,"DIS_CODE":0,"TOWNNAME":"安定區","LI":"中沙里","LIN":"1鄰","STREET":" ","SECT":" ","MAREA":"中崙","LANE":" ","ALLEY":" ","HOUSE_NO":"１６號","E_COORD97":169241.06,"N_COORD97":2553232.25,"ADDRESS":"中崙１６號","OBJECTID":61441},"geometry":{"x":169241.05999999959,"y":2553232.2500000019}},{"attributes":{"ID":61442,"DIS_CODE":0,"TOWNNAME":"東區","LI":"大智里","LIN":"35鄰","STREET":"崇善十五街","SECT":" ","MAREA":" ","LANE":"７巷","ALLEY":"６６弄","HOUSE_NO":"６號","E_COORD97":171465.12,"N_COORD97":2540463.6099999999,"ADDRESS":"崇善十五街７巷６６弄６號","OBJECTID":61442},"geometry":{"x":171465.12000000011,"y":2540463.6100000013}},{"attributes":{"ID":61443,"DIS_CODE":0,"TOWNNAME":"東區","LI":"大智里","LIN":"35鄰","STREET":"崇善十五街","SECT":" ","MAREA":" ","LANE":"７巷","ALLEY":"６６弄","HOUSE_NO":"７號","E_COORD97":171468.29000000001,"N_COORD97":2540451.4399999999,"ADDRESS":"崇善十五街７巷６６弄７號","OBJECTID":61443},"geometry":{"x":171468.29000000097,"y":2540451.4400000013}},{"attributes":{"ID":61444,"DIS_CODE":0,"TOWNNAME":"安定區","LI":"六嘉里","LIN":"1鄰","STREET":" ","SECT":" ","MAREA":"六塊寮","LANE":" ","ALLEY":" ","HOUSE_NO":"１之１０號","E_COORD97":170468.51999999999,"N_COORD97":2553683.2999999998,"ADDRESS":"六塊寮１之１０號","OBJECTID":61444},"geometry":{"x":170468.51999999955,"y":2553683.3000000026}},{"attributes":{"ID":61445,"DIS_CODE":0,"TOWNNAME":"東區","LI":"大智里","LIN":"35鄰","STREET":"崇善十五街","SECT":" ","MAREA":" ","LANE":"７巷","ALLEY":"６６弄","HOUSE_NO":"８號","E_COORD97":171459.29000000001,"N_COORD97":2540462.8199999998,"ADDRESS":"崇善十五街７巷６６弄８號","OBJECTID":61445},"geometry":{"x":171459.28999999911,"y":2540462.8200000022}},{"attributes":{"ID":61446,"DIS_CODE":0,"TOWNNAME":"安定區","LI":"海寮里","LIN":"1鄰","STREET":" ","SECT":" ","MAREA":"海寮","LANE":" ","ALLEY":" ","HOUSE_NO":"７之６６號","E_COORD97":169061.641947,"N_COORD97":2554987.8109499998,"ADDRESS":"海寮７之６６號","OBJECTID":61446},"geometry":{"x":169061.64194700029,"y":2554987.8109459989}},{"attributes":{"ID":61447,"DIS_CODE":0,"TOWNNAME":"安定區","LI":"蘇林里","LIN":"1鄰","STREET":" ","SECT":" ","MAREA":"蘇厝","LANE":" ","ALLEY":" ","HOUSE_NO":"１０號之６","E_COORD97":173642.51000000001,"N_COORD97":2558564.2999999998,"ADDRESS":"蘇厝１０號之６","OBJECTID":61447},"geometry":{"x":173642.50999999978,"y":2558564.3000000045}},{"attributes":{"ID":61448,"DIS_CODE":0,"TOWNNAME":"安定區","LI":"蘇林里","LIN":"1鄰","STREET":" ","SECT":" ","MAREA":"蘇厝","LANE":" ","ALLEY":" ","HOUSE_NO":"８號之１６","E_COORD97":173656.10999999999,"N_COORD97":2558555.2999999998,"ADDRESS":"蘇厝８號之１６","OBJECTID":61448},"geometry":{"x":173656.1100000022,"y":2558555.3000000026}},{"attributes":{"ID":61449,"DIS_CODE":0,"TOWNNAME":"安定區","LI":"安加里","LIN":"1鄰","STREET":" ","SECT":" ","MAREA":"安定","LANE":" ","ALLEY":" ","HOUSE_NO":"１０７之６號","E_COORD97":172030.30278,"N_COORD97":2557663.3774700002,"ADDRESS":"安定１０７之６號","OBJECTID":61449},"geometry":{"x":172030.30277999956,"y":2557663.377471}},{"attributes":{"ID":61450,"DIS_CODE":0,"TOWNNAME":"歸仁區","LI":"西埔里","LIN":"8鄰","STREET":"保大路","SECT":"二段","MAREA":" ","LANE":" ","ALLEY":" ","HOUSE_NO":"３４２號","E_COORD97":176560.47,"N_COORD97":2544134.2799999998,"ADDRESS":"保大路二段３４２號","OBJECTID":61450},"geometry":{"x":176560.4700000016,"y":2544134.2800000012}},{"attributes":{"ID":61451,"DIS_CODE":0,"TOWNNAME":"安定區","LI":"六嘉里","LIN":"1鄰","STREET":" ","SECT":" ","MAREA":"六塊寮","LANE":" ","ALLEY":" ","HOUSE_NO":"２號之１５","E_COORD97":170508.01000000001,"N_COORD97":2553705.2999999998,"ADDRESS":"六塊寮２號之１５","OBJECTID":61451},"geometry":{"x":170508.00999999978,"y":2553705.3000000007}},{"attributes":{"ID":61452,"DIS_CODE":0,"TOWNNAME":"歸仁區","LI":"沙崙里","LIN":"8鄰","STREET":" ","SECT":" ","MAREA":"沙崙","LANE":" ","ALLEY":" ","HOUSE_NO":"２２２號","E_COORD97":179410.20000000001,"N_COORD97":2537637.25,"ADDRESS":"沙崙２２２號","OBJECTID":61452},"geometry":{"x":179410.20000000019,"y":2537637.25}},{"attributes":{"ID":61453,"DIS_CODE":0,"TOWNNAME":"歸仁區","LI":"沙崙里","LIN":"8鄰","STREET":" ","SECT":" ","MAREA":"沙崙","LANE":" ","ALLEY":" ","HOUSE_NO":"２４２號","E_COORD97":179455.20000000001,"N_COORD97":2537614.25,"ADDRESS":"沙崙２４２號","OBJECTID":61453},"geometry":{"x":179455.20000000112,"y":2537614.25}},{"attributes":{"ID":61454,"DIS_CODE":0,"TOWNNAME":"東區","LI":"大智里","LIN":"35鄰","STREET":"崇善十五街","SECT":" ","MAREA":" ","LANE":"７巷","ALLEY":"６６弄","HOUSE_NO":"９號","E_COORD97":171464.59,"N_COORD97":2540449.5899999999,"ADDRESS":"崇善十五街７巷６６弄９號","OBJECTID":61454},"geometry":{"x":171464.59000000078,"y":2540449.5899999999}},{"attributes":{"ID":61455,"DIS_CODE":0,"TOWNNAME":"歸仁區","LI":"沙崙里","LIN":"8鄰","STREET":" ","SECT":" ","MAREA":"沙崙","LANE":" ","ALLEY":" ","HOUSE_NO":"２４５號","E_COORD97":179451.20000000001,"N_COORD97":2537626.25,"ADDRESS":"沙崙２４５號","OBJECTID":61455},"geometry":{"x":179451.20000000205,"y":2537626.2500000019}},{"attributes":{"ID":61456,"DIS_CODE":0,"TOWNNAME":"玉井區","LI":"望明里","LIN":"8鄰","STREET":" ","SECT":" ","MAREA":"望明","LANE":" ","ALLEY":" ","HOUSE_NO":"８９之５號","E_COORD97":193543.42999999999,"N_COORD97":2556624.29,"ADDRESS":"望明８９之５號","OBJECTID":61456},"geometry":{"x":193543.43000000063,"y":2556624.290000001}},{"attributes":{"ID":61457,"DIS_CODE":0,"TOWNNAME":"玉井區","LI":"望明里","LIN":"8鄰","STREET":" ","SECT":" ","MAREA":"望明","LANE":" ","ALLEY":" ","HOUSE_NO":"８９之２１號","E_COORD97":193538.59,"N_COORD97":2556444.29,"ADDRESS":"望明８９之２１號","OBJECTID":61457},"geometry":{"x":193538.58999999892,"y":2556444.290000001}},{"attributes":{"ID":61458,"DIS_CODE":0,"TOWNNAME":"仁德區","LI":"後壁里","LIN":"35鄰","STREET":"德洋路","SECT":" ","MAREA":" ","LANE":"２０５巷","ALLEY":"１７弄","HOUSE_NO":"３號","E_COORD97":172441.95000000001,"N_COORD97":2539486.02,"ADDRESS":"德洋路２０５巷１７弄３號","OBJECTID":61458},"geometry":{"x":172441.95000000112,"y":2539486.0199999996}},{"attributes":{"ID":61459,"DIS_CODE":0,"TOWNNAME":"玉井區","LI":"豐里里","LIN":"8鄰","STREET":" ","SECT":" ","MAREA":"豐里","LANE":" ","ALLEY":" ","HOUSE_NO":"７５號","E_COORD97":192769.07000000001,"N_COORD97":2559601.25,"ADDRESS":"豐里７５號","OBJECTID":61459},"geometry":{"x":192769.0700000003,"y":2559601.2500000037}},{"attributes":{"ID":61460,"DIS_CODE":0,"TOWNNAME":"永康區","LI":"東灣里","LIN":"35鄰","STREET":"民族路","SECT":" ","MAREA":" ","LANE":"２７３巷","ALLEY":"１３弄","HOUSE_NO":"１３號","E_COORD97":175131.66,"N_COORD97":2544973.3599999999,"ADDRESS":"民族路２７３巷１３弄１３號","OBJECTID":61460},"geometry":{"x":175131.66000000015,"y":2544973.3599999994}},{"attributes":{"ID":61461,"DIS_CODE":0,"TOWNNAME":"玉井區","LI":"三和里","LIN":"8鄰","STREET":" ","SECT":" ","MAREA":"三和","LANE":" ","ALLEY":" ","HOUSE_NO":"１００號之２","E_COORD97":195245.06,"N_COORD97":2554871.29,"ADDRESS":"三和１００號之２","OBJECTID":61461},"geometry":{"x":195245.05999999959,"y":2554871.290000001}},{"attributes":{"ID":61462,"DIS_CODE":0,"TOWNNAME":"永康區","LI":"東灣里","LIN":"35鄰","STREET":"民族路","SECT":" ","MAREA":" ","LANE":"２７３巷","ALLEY":"２３弄","HOUSE_NO":"５號","E_COORD97":175091.13,"N_COORD97":2544946.3599999999,"ADDRESS":"民族路２７３巷２３弄５號","OBJECTID":61462},"geometry":{"x":175091.12999999989,"y":2544946.3599999994}},{"attributes":{"ID":61463,"DIS_CODE":0,"TOWNNAME":"永康區","LI":"東灣里","LIN":"35鄰","STREET":"民族路","SECT":" ","MAREA":" ","LANE":"２７３巷","ALLEY":"２３弄","HOUSE_NO":"１１號","E_COORD97":175105.14999999999,"N_COORD97":2544936.1099999999,"ADDRESS":"民族路２７３巷２３弄１１號","OBJECTID":61463},"geometry":{"x":175105.15000000037,"y":2544936.1100000013}},{"attributes":{"ID":61464,"DIS_CODE":0,"TOWNNAME":"永康區","LI":"東灣里","LIN":"35鄰","STREET":"民族路","SECT":" ","MAREA":" ","LANE":"２７３巷","ALLEY":"１３弄","HOUSE_NO":"８號","E_COORD97":175093.75,"N_COORD97":2544993.6200000001,"ADDRESS":"民族路２７３巷１３弄８號","OBJECTID":61464},"geometry":{"x":175093.75,"y":2544993.620000001}},{"attributes":{"ID":61465,"DIS_CODE":0,"TOWNNAME":"永康區","LI":"龍潭里","LIN":"35鄰","STREET":"自強路","SECT":" ","MAREA":" ","LANE":"８０２巷","ALLEY":"１弄","HOUSE_NO":"５號","E_COORD97":174607.26999999999,"N_COORD97":2548594.77,"ADDRESS":"自強路８０２巷１弄５號","OBJECTID":61465},"geometry":{"x":174607.27000000048,"y":2548594.7699999996}},{"attributes":{"ID":61466,"DIS_CODE":0,"TOWNNAME":"永康區","LI":"龍潭里","LIN":"35鄰","STREET":"自強路","SECT":" ","MAREA":" ","LANE":"７５０巷","ALLEY":"４５弄","HOUSE_NO":"９號","E_COORD97":174520.88,"N_COORD97":2548525.7400000002,"ADDRESS":"自強路７５０巷４５弄９號","OBJECTID":61466},"geometry":{"x":174520.88000000082,"y":2548525.7400000021}},{"attributes":{"ID":61467,"DIS_CODE":0,"TOWNNAME":"歸仁區","LI":"武東里","LIN":"8鄰","STREET":"武東一街","SECT":" ","MAREA":" ","LANE":"４８巷","ALLEY":" ","HOUSE_NO":"５號","E_COORD97":175634.73999999999,"N_COORD97":2535423.25,"ADDRESS":"武東一街４８巷５號","OBJECTID":61467},"geometry":{"x":175634.74000000022,"y":2535423.25}},{"attributes":{"ID":61468,"DIS_CODE":0,"TOWNNAME":"歸仁區","LI":"武東里","LIN":"8鄰","STREET":"武東一街","SECT":" ","MAREA":" ","LANE":" ","ALLEY":" ","HOUSE_NO":"６９號","E_COORD97":175730.94,"N_COORD97":2535481.25,"ADDRESS":"武東一街６９號","OBJECTID":61468},"geometry":{"x":175730.94000000134,"y":2535481.25}},{"attributes":{"ID":61469,"DIS_CODE":0,"TOWNNAME":"歸仁區","LI":"文化里","LIN":"8鄰","STREET":"文化北街","SECT":" ","MAREA":" ","LANE":" ","ALLEY":" ","HOUSE_NO":"１１７號","E_COORD97":177175.41,"N_COORD97":2541402.3399999999,"ADDRESS":"文化北街１１７號","OBJECTID":61469},"geometry":{"x":177175.41000000108,"y":2541402.3400000017}},{"attributes":{"ID":61470,"DIS_CODE":0,"TOWNNAME":"永康區","LI":"\u25A0行里","LIN":"35鄰","STREET":"中正北路","SECT":" ","MAREA":" ","LANE":"１７７巷","ALLEY":"１８弄","HOUSE_NO":"２０號","E_COORD97":172443.17999999999,"N_COORD97":2549202.48,"ADDRESS":"中正北路１７７巷１８弄２０號","OBJECTID":61470},"geometry":{"x":172443.18000000063,"y":2549202.4800000023}},{"attributes":{"ID":61471,"DIS_CODE":0,"TOWNNAME":"永康區","LI":"\u25A0行里","LIN":"35鄰","STREET":"中正北路","SECT":" ","MAREA":" ","LANE":"１７７巷","ALLEY":"１８弄","HOUSE_NO":"１２號","E_COORD97":172426.35000000001,"N_COORD97":2549201.98,"ADDRESS":"中正北路１７７巷１８弄１２號","OBJECTID":61471},"geometry":{"x":172426.3499999987,"y":2549201.9800000042}},{"attributes":{"ID":61472,"DIS_CODE":0,"TOWNNAME":"永康區","LI":"\u25A0行里","LIN":"35鄰","STREET":"中正北路","SECT":" ","MAREA":" ","LANE":"１７７巷","ALLEY":"１８弄","HOUSE_NO":"２２號","E_COORD97":172447.37,"N_COORD97":2549202.48,"ADDRESS":"中正北路１７７巷１８弄２２號","OBJECTID":61472},"geometry":{"x":172447.37000000104,"y":2549202.4800000023}},{"attributes":{"ID":61473,"DIS_CODE":0,"TOWNNAME":"永康區","LI":"\u25A0行里","LIN":"35鄰","STREET":"中正北路","SECT":" ","MAREA":" ","LANE":"１７７巷","ALLEY":"１８弄","HOUSE_NO":"９號","E_COORD97":172409.53,"N_COORD97":2549214.3799999999,"ADDRESS":"中正北路１７７巷１８弄９號","OBJECTID":61473},"geometry":{"x":172409.53000000119,"y":2549214.3799999971}},{"attributes":{"ID":61474,"DIS_CODE":0,"TOWNNAME":"玉井區","LI":"望明里","LIN":"8鄰","STREET":" ","SECT":" ","MAREA":"望明","LANE":" ","ALLEY":" ","HOUSE_NO":"８９之２３號","E_COORD97":193536.79000000001,"N_COORD97":2556440.29,"ADDRESS":"望明８９之２３號","OBJECTID":61474},"geometry":{"x":193536.79000000004,"y":2556440.2900000028}},{"attributes":{"ID":61475,"DIS_CODE":0,"TOWNNAME":"永康區","LI":"\u25A0行里","LIN":"35鄰","STREET":"中正北路","SECT":" ","MAREA":" ","LANE":"１７７巷","ALLEY":"１８弄","HOUSE_NO":"１６號","E_COORD97":172434.63,"N_COORD97":2549202.23,"ADDRESS":"中正北路１７７巷１８弄１６號","OBJECTID":61475},"geometry":{"x":172434.62999999989,"y":2549202.2300000004}},{"attributes":{"ID":61476,"DIS_CODE":0,"TOWNNAME":"玉井區","LI":"望明里","LIN":"8鄰","STREET":" ","SECT":" ","MAREA":"劉陳","LANE":" ","ALLEY":" ","HOUSE_NO":"１４９之１號","E_COORD97":193563.06,"N_COORD97":2556325.29,"ADDRESS":"劉陳１４９之１號","OBJECTID":61476},"geometry":{"x":193563.06000000052,"y":2556325.2900000028}},{"attributes":{"ID":61477,"DIS_CODE":0,"TOWNNAME":"玉井區","LI":"望明里","LIN":"8鄰","STREET":" ","SECT":" ","MAREA":"望明","LANE":" ","ALLEY":" ","HOUSE_NO":"８９之１２號","E_COORD97":193541.29000000001,"N_COORD97":2556482.2999999998,"ADDRESS":"望明８９之１２號","OBJECTID":61477},"geometry":{"x":193541.29000000097,"y":2556482.3000000007}},{"attributes":{"ID":61478,"DIS_CODE":0,"TOWNNAME":"永康區","LI":"\u25A0行里","LIN":"35鄰","STREET":"中正北路","SECT":" ","MAREA":" ","LANE":"１７７巷","ALLEY":"１８弄","HOUSE_NO":"１９號","E_COORD97":172431.85999999999,"N_COORD97":2549215.3799999999,"ADDRESS":"中正北路１７７巷１８弄１９號","OBJECTID":61478},"geometry":{"x":172431.86000000034,"y":2549215.3800000008}},{"attributes":{"ID":61479,"DIS_CODE":0,"TOWNNAME":"玉井區","LI":"望明里","LIN":"8鄰","STREET":" ","SECT":" ","MAREA":"劉陳","LANE":" ","ALLEY":" ","HOUSE_NO":"１５０號","E_COORD97":193543.45000000001,"N_COORD97":2556265.25,"ADDRESS":"劉陳１５０號","OBJECTID":61479},"geometry":{"x":193543.45000000205,"y":2556265.2500000037}},{"attributes":{"ID":61480,"DIS_CODE":0,"TOWNNAME":"永康區","LI":"\u25A0行里","LIN":"35鄰","STREET":"中正北路","SECT":" ","MAREA":" ","LANE":"１７７巷","ALLEY":"１８弄","HOUSE_NO":"２９號","E_COORD97":172452.88,"N_COORD97":2549215.8799999999,"ADDRESS":"中正北路１７７巷１８弄２９號","OBJECTID":61480},"geometry":{"x":172452.87999999989,"y":2549215.8800000008}},{"attributes":{"ID":61481,"DIS_CODE":0,"TOWNNAME":"永康區","LI":"\u25A0行里","LIN":"35鄰","STREET":"中正北路","SECT":" ","MAREA":" ","LANE":"１７７巷","ALLEY":"１８弄","HOUSE_NO":"１４號","E_COORD97":172430.63,"N_COORD97":2549201.98,"ADDRESS":"中正北路１７７巷１８弄１４號","OBJECTID":61481},"geometry":{"x":172430.63000000082,"y":2549201.9800000042}},{"attributes":{"ID":61482,"DIS_CODE":0,"TOWNNAME":"玉井區","LI":"豐里里","LIN":"8鄰","STREET":" ","SECT":" ","MAREA":"豐里","LANE":" ","ALLEY":" ","HOUSE_NO":"７８號","E_COORD97":192727.87,"N_COORD97":2559549.2400000002,"ADDRESS":"豐里７８號","OBJECTID":61482},"geometry":{"x":192727.87000000011,"y":2559549.2400000002}},{"attributes":{"ID":61483,"DIS_CODE":0,"TOWNNAME":"永康區","LI":"\u25A0行里","LIN":"35鄰","STREET":"中正北路","SECT":" ","MAREA":" ","LANE":"１７７巷","ALLEY":"１８弄","HOUSE_NO":"４號","E_COORD97":172408.69,"N_COORD97":2549201.73,"ADDRESS":"中正北路１７７巷１８弄４號","OBJECTID":61483},"geometry":{"x":172408.69000000134,"y":2549201.7300000023}},{"attributes":{"ID":61484,"DIS_CODE":0,"TOWNNAME":"玉井區","LI":"豐里里","LIN":"8鄰","STREET":" ","SECT":" ","MAREA":"豐里","LANE":" ","ALLEY":" ","HOUSE_NO":"７４之１號","E_COORD97":192919.57000000001,"N_COORD97":2559549.29,"ADDRESS":"豐里７４之１號","OBJECTID":61484},"geometry":{"x":192919.57000000123,"y":2559549.2900000028}},{"attributes":{"ID":61485,"DIS_CODE":0,"TOWNNAME":"永康區","LI":"\u25A0行里","LIN":"35鄰","STREET":"中正北路","SECT":" ","MAREA":" ","LANE":"１７７巷","ALLEY":"１８弄","HOUSE_NO":"２３號","E_COORD97":172440.29999999999,"N_COORD97":2549215.6299999999,"ADDRESS":"中正北路１７７巷１８弄２３號","OBJECTID":61485},"geometry":{"x":172440.29999999981,"y":2549215.629999999}},{"attributes":{"ID":61486,"DIS_CODE":0,"TOWNNAME":"玉井區","LI":"望明里","LIN":"8鄰","STREET":" ","SECT":" ","MAREA":"公\u25A0","LANE":" ","ALLEY":" ","HOUSE_NO":"３７號","E_COORD97":193920.76000000001,"N_COORD97":2556593.25,"ADDRESS":"公\u25A0３７號","OBJECTID":61486},"geometry":{"x":193920.76000000071,"y":2556593.25}},{"attributes":{"ID":61487,"DIS_CODE":0,"TOWNNAME":"玉井區","LI":"望明里","LIN":"8鄰","STREET":" ","SECT":" ","MAREA":"望明","LANE":" ","ALLEY":" ","HOUSE_NO":"８７號之４","E_COORD97":193803.89000000001,"N_COORD97":2556212.29,"ADDRESS":"望明８７號之４","OBJECTID":61487},"geometry":{"x":193803.88999999966,"y":2556212.2899999991}},{"attributes":{"ID":61488,"DIS_CODE":0,"TOWNNAME":"玉井區","LI":"望明里","LIN":"8鄰","STREET":" ","SECT":" ","MAREA":"公\u25A0","LANE":" ","ALLEY":" ","HOUSE_NO":"１４４號","E_COORD97":194139.41,"N_COORD97":2556745.2400000002,"ADDRESS":"公\u25A0１４４號","OBJECTID":61488},"geometry":{"x":194139.41000000108,"y":2556745.2400000021}},{"attributes":{"ID":61489,"DIS_CODE":0,"TOWNNAME":"玉井區","LI":"望明里","LIN":"8鄰","STREET":" ","SECT":" ","MAREA":"望明","LANE":" ","ALLEY":" ","HOUSE_NO":"８９號之９","E_COORD97":193551.23000000001,"N_COORD97":2556477.2999999998,"ADDRESS":"望明８９之９號","OBJECTID":61489},"geometry":{"x":193551.23000000045,"y":2556477.3000000026}},{"attributes":{"ID":61490,"DIS_CODE":0,"TOWNNAME":"玉井區","LI":"望明里","LIN":"8鄰","STREET":" ","SECT":" ","MAREA":"望明","LANE":" ","ALLEY":" ","HOUSE_NO":"８７號之３","E_COORD97":193824.37,"N_COORD97":2556287.2999999998,"ADDRESS":"望明８７號之３","OBJECTID":61490},"geometry":{"x":193824.37000000104,"y":2556287.3000000026}},{"attributes":{"ID":61491,"DIS_CODE":0,"TOWNNAME":"玉井區","LI":"三和里","LIN":"8鄰","STREET":" ","SECT":" ","MAREA":"三和","LANE":" ","ALLEY":" ","HOUSE_NO":"９３號","E_COORD97":195041.23000000001,"N_COORD97":2555580.2400000002,"ADDRESS":"三和９３號","OBJECTID":61491},"geometry":{"x":195041.23000000045,"y":2555580.2400000002}},{"attributes":{"ID":61492,"DIS_CODE":0,"TOWNNAME":"永康區","LI":"\u25A0行里","LIN":"35鄰","STREET":"中正北路","SECT":" ","MAREA":" ","LANE":"１７７巷","ALLEY":"１８弄","HOUSE_NO":"６號","E_COORD97":172412.94,"N_COORD97":2549201.73,"ADDRESS":"中正北路１７７巷１８弄６號","OBJECTID":61492},"geometry":{"x":172412.94000000041,"y":2549201.7300000023}},{"attributes":{"ID":61493,"DIS_CODE":0,"TOWNNAME":"玉井區","LI":"三和里","LIN":"8鄰","STREET":" ","SECT":" ","MAREA":"三和","LANE":" ","ALLEY":" ","HOUSE_NO":"９９號之５","E_COORD97":195077.42000000001,"N_COORD97":2555502.29,"ADDRESS":"三和９９號之５","OBJECTID":61493},"geometry":{"x":195077.42000000179,"y":2555502.290000001}},{"attributes":{"ID":61494,"DIS_CODE":0,"TOWNNAME":"玉井區","LI":"三和里","LIN":"8鄰","STREET":" ","SECT":" ","MAREA":"三和","LANE":" ","ALLEY":" ","HOUSE_NO":"９１之６號","E_COORD97":195042.84,"N_COORD97":2555502.29,"ADDRESS":"三和９１之６號","OBJECTID":61494},"geometry":{"x":195042.84000000078,"y":2555502.290000001}},{"attributes":{"ID":61495,"DIS_CODE":0,"TOWNNAME":"玉井區","LI":"三和里","LIN":"8鄰","STREET":" ","SECT":" ","MAREA":"三和","LANE":" ","ALLEY":" ","HOUSE_NO":"９９之３號","E_COORD97":195085.44,"N_COORD97":2555522.2999999998,"ADDRESS":"三和９９之３號","OBJECTID":61495},"geometry":{"x":195085.44000000041,"y":2555522.3000000007}},{"attributes":{"ID":61496,"DIS_CODE":0,"TOWNNAME":"玉井區","LI":"三和里","LIN":"8鄰","STREET":" ","SECT":" ","MAREA":"三和","LANE":" ","ALLEY":" ","HOUSE_NO":"８９號","E_COORD97":195032.13,"N_COORD97":2555625.25,"ADDRESS":"三和８９號","OBJECTID":61496},"geometry":{"x":195032.13000000082,"y":2555625.2500000019}},{"attributes":{"ID":61497,"DIS_CODE":0,"TOWNNAME":"新營區","LI":"護鎮里","LIN":" ","STREET":" ","SECT":" ","MAREA":"後鎮","LANE":" ","ALLEY":" ","HOUSE_NO":"９６之８號","E_COORD97":179122.66,"N_COORD97":2580923.6499999999,"ADDRESS":"後鎮９６之８號","OBJECTID":61497},"geometry":{"x":179122.66000000201,"y":2580923.6500000004}},{"attributes":{"ID":61498,"DIS_CODE":0,"TOWNNAME":"玉井區","LI":"中正里","LIN":"8鄰","STREET":"健康街","SECT":" ","MAREA":" ","LANE":" ","ALLEY":" ","HOUSE_NO":"５５號","E_COORD97":195577.84,"N_COORD97":2558831.29,"ADDRESS":"健康街５５號","OBJECTID":61498},"geometry":{"x":195577.83999999985,"y":2558831.290000001}},{"attributes":{"ID":61499,"DIS_CODE":0,"TOWNNAME":"新營區","LI":"嘉芳里","LIN":"4鄰","STREET":" ","SECT":" ","MAREA":"茄苳腳","LANE":" ","ALLEY":" ","HOUSE_NO":"５１號之７","E_COORD97":176949.98000000001,"N_COORD97":2578329.4700000002,"ADDRESS":"茄苳腳５１之７號","OBJECTID":61499},"geometry":{"x":176949.98000000138,"y":2578329.4700000025}},{"attributes":{"ID":61500,"DIS_CODE":0,"TOWNNAME":"玉井區","LI":"三和里","LIN":"8鄰","STREET":" ","SECT":" ","MAREA":"三和","LANE":" ","ALLEY":" ","HOUSE_NO":"８９之１號","E_COORD97":195045.64000000001,"N_COORD97":2555615.29,"ADDRESS":"三和８９之１號","OBJECTID":61500},"geometry":{"x":195045.6400000006,"y":2555615.2899999991}},{"attributes":{"ID":61501,"DIS_CODE":0,"TOWNNAME":"玉井區","LI":"三和里","LIN":"8鄰","STREET":" ","SECT":" ","MAREA":"三和","LANE":" ","ALLEY":" ","HOUSE_NO":"９１之１號","E_COORD97":195023.04999999999,"N_COORD97":2555507.29,"ADDRESS":"三和９１之１號","OBJECTID":61501},"geometry":{"x":195023.04999999981,"y":2555507.2899999991}},{"attributes":{"ID":61502,"DIS_CODE":0,"TOWNNAME":"玉井區","LI":"中正里","LIN":"8鄰","STREET":"健康街","SECT":" ","MAREA":" ","LANE":" ","ALLEY":" ","HOUSE_NO":"９號","E_COORD97":195675.98000000001,"N_COORD97":2558859.2999999998,"ADDRESS":"健康街９號","OBJECTID":61502},"geometry":{"x":195675.98000000231,"y":2558859.3000000045}},{"attributes":{"ID":61503,"DIS_CODE":0,"TOWNNAME":"新營區","LI":"嘉芳里","LIN":" ","STREET":" ","SECT":" ","MAREA":"茄苳腳","LANE":" ","ALLEY":" ","HOUSE_NO":"１３號","E_COORD97":177123.53,"N_COORD97":2578359.5600000001,"ADDRESS":"茄苳腳１３號","OBJECTID":61503},"geometry":{"x":177123.53000000119,"y":2578359.5600000024}},{"attributes":{"ID":61504,"DIS_CODE":0,"TOWNNAME":"新營區","LI":"護鎮里","LIN":" ","STREET":" ","SECT":" ","MAREA":"後鎮","LANE":" ","ALLEY":" ","HOUSE_NO":"８５之８號","E_COORD97":179280.23999999999,"N_COORD97":2580921.79,"ADDRESS":"後鎮８５之８號","OBJECTID":61504},"geometry":{"x":179280.24000000115,"y":2580921.7899999991}},{"attributes":{"ID":61505,"DIS_CODE":0,"TOWNNAME":"永康區","LI":"\u25A0行里","LIN":"35鄰","STREET":"中正北路","SECT":" ","MAREA":" ","LANE":"１７７巷","ALLEY":"１８弄","HOUSE_NO":"１號","E_COORD97":172392.53,"N_COORD97":2549213.8799999999,"ADDRESS":"中正北路１７７巷１８弄１號","OBJECTID":61505},"geometry":{"x":172392.53000000119,"y":2549213.879999999}},{"attributes":{"ID":61506,"DIS_CODE":0,"TOWNNAME":"新營區","LI":"嘉芳里","LIN":" ","STREET":" ","SECT":" ","MAREA":"茄苳腳","LANE":" ","ALLEY":" ","HOUSE_NO":"１８號","E_COORD97":177111.5,"N_COORD97":2578407.2400000002,"ADDRESS":"茄苳腳１８號","OBJECTID":61506},"geometry":{"x":177111.50000000093,"y":2578407.2400000002}},{"attributes":{"ID":61507,"DIS_CODE":0,"TOWNNAME":"永康區","LI":"\u25A0行里","LIN":"35鄰","STREET":"中正北路","SECT":" ","MAREA":" ","LANE":"１７７巷","ALLEY":"１８弄","HOUSE_NO":"２７號","E_COORD97":172448.60000000001,"N_COORD97":2549215.6299999999,"ADDRESS":"中正北路１７７巷１８弄２７號","OBJECTID":61507},"geometry":{"x":172448.60000000149,"y":2549215.629999999}},{"attributes":{"ID":61508,"DIS_CODE":0,"TOWNNAME":"玉井區","LI":"三埔里","LIN":"8鄰","STREET":" ","SECT":" ","MAREA":"三埔","LANE":" ","ALLEY":" ","HOUSE_NO":"９６號之１","E_COORD97":198648.17999999999,"N_COORD97":2555440.2999999998,"ADDRESS":"三埔９６號之１","OBJECTID":61508},"geometry":{"x":198648.1799999997,"y":2555440.3000000007}},{"attributes":{"ID":61509,"DIS_CODE":0,"TOWNNAME":"玉井區","LI":"三埔里","LIN":"8鄰","STREET":" ","SECT":" ","MAREA":"三埔","LANE":" ","ALLEY":" ","HOUSE_NO":"８９號之１","E_COORD97":198483.17999999999,"N_COORD97":2554744.29,"ADDRESS":"三埔８９號之１","OBJECTID":61509},"geometry":{"x":198483.18000000063,"y":2554744.2899999991}},{"attributes":{"ID":61510,"DIS_CODE":0,"TOWNNAME":"玉井區","LI":"三埔里","LIN":"8鄰","STREET":" ","SECT":" ","MAREA":"三埔","LANE":" ","ALLEY":" ","HOUSE_NO":"８７號之１","E_COORD97":198288.76999999999,"N_COORD97":2555006.2999999998,"ADDRESS":"三埔８７號之１","OBJECTID":61510},"geometry":{"x":198288.77000000142,"y":2555006.3000000007}},{"attributes":{"ID":61511,"DIS_CODE":0,"TOWNNAME":"玉井區","LI":"三埔里","LIN":"8鄰","STREET":" ","SECT":" ","MAREA":"三埔","LANE":" ","ALLEY":" ","HOUSE_NO":"９５之５號","E_COORD97":198709.92999999999,"N_COORD97":2555061.29,"ADDRESS":"三埔９５之５號","OBJECTID":61511},"geometry":{"x":198709.93000000156,"y":2555061.290000001}},{"attributes":{"ID":61512,"DIS_CODE":0,"TOWNNAME":"玉井區","LI":"三埔里","LIN":"8鄰","STREET":" ","SECT":" ","MAREA":"三埔","LANE":" ","ALLEY":" ","HOUSE_NO":"９５號之３","E_COORD97":198868.35999999999,"N_COORD97":2555153.2999999998,"ADDRESS":"三埔９５號之３","OBJECTID":61512},"geometry":{"x":198868.36000000034,"y":2555153.3000000007}},{"attributes":{"ID":61513,"DIS_CODE":0,"TOWNNAME":"永康區","LI":"\u25A0行里","LIN":"35鄰","STREET":"中正北路","SECT":" ","MAREA":" ","LANE":"１７７巷","ALLEY":"１８弄","HOUSE_NO":"１５號","E_COORD97":172423.07000000001,"N_COORD97":2549214.8799999999,"ADDRESS":"中正北路１７７巷１８弄１５號","OBJECTID":61513},"geometry":{"x":172423.07000000123,"y":2549214.8800000027}},{"attributes":{"ID":61514,"DIS_CODE":0,"TOWNNAME":"永康區","LI":"龍潭里","LIN":"35鄰","STREET":"自強路","SECT":" ","MAREA":" ","LANE":"８０２巷","ALLEY":"１弄","HOUSE_NO":"７號","E_COORD97":174611.95999999999,"N_COORD97":2548598.73,"ADDRESS":"自強路８０２巷１弄７號","OBJECTID":61514},"geometry":{"x":174611.96000000089,"y":2548598.7300000004}},{"attributes":{"ID":61515,"DIS_CODE":0,"TOWNNAME":"玉井區","LI":"豐里里","LIN":"8鄰","STREET":" ","SECT":" ","MAREA":"豐里","LANE":" ","ALLEY":" ","HOUSE_NO":"７４之２０號","E_COORD97":192914.51000000001,"N_COORD97":2558966.96,"ADDRESS":"豐里７４之２０號","OBJECTID":61515},"geometry":{"x":192914.50999999978,"y":2558966.9600000046}},{"attributes":{"ID":61516,"DIS_CODE":0,"TOWNNAME":"安定區","LI":"海寮里","LIN":"1鄰","STREET":" ","SECT":" ","MAREA":"海寮","LANE":" ","ALLEY":" ","HOUSE_NO":"１１之１４號","E_COORD97":169098.64000000001,"N_COORD97":2555172.2999999998,"ADDRESS":"海寮１１之１４號","OBJECTID":61516},"geometry":{"x":169098.64000000153,"y":2555172.3000000007}},{"attributes":{"ID":61517,"DIS_CODE":0,"TOWNNAME":"永康區","LI":"龍潭里","LIN":"35鄰","STREET":"自強路","SECT":" ","MAREA":" ","LANE":"７５０巷","ALLEY":"４５弄","HOUSE_NO":"１號","E_COORD97":174508.01999999999,"N_COORD97":2548514.9900000002,"ADDRESS":"自強路７５０巷４５弄１號","OBJECTID":61517},"geometry":{"x":174508.01999999955,"y":2548514.9900000021}},{"attributes":{"ID":61518,"DIS_CODE":0,"TOWNNAME":"安定區","LI":"新吉里","LIN":"1鄰","STREET":" ","SECT":" ","MAREA":"新吉","LANE":" ","ALLEY":" ","HOUSE_NO":"１號之８","E_COORD97":169116.10000000001,"N_COORD97":2554118.2999999998,"ADDRESS":"新吉１號之８","OBJECTID":61518},"geometry":{"x":169116.10000000056,"y":2554118.3000000007}},{"attributes":{"ID":61519,"DIS_CODE":0,"TOWNNAME":"安定區","LI":"中沙里","LIN":"1鄰","STREET":" ","SECT":" ","MAREA":"中崙","LANE":" ","ALLEY":" ","HOUSE_NO":"６６號","E_COORD97":169102.00206599999,"N_COORD97":2553254.6327900002,"ADDRESS":"中崙６６號","OBJECTID":61519},"geometry":{"x":169102.00206600036,"y":2553254.6327860001}},{"attributes":{"ID":61520,"DIS_CODE":0,"TOWNNAME":"永康區","LI":"龍潭里","LIN":"35鄰","STREET":"自強路","SECT":" ","MAREA":" ","LANE":"７５０巷","ALLEY":"６９弄","HOUSE_NO":"１９號","E_COORD97":174565.85000000001,"N_COORD97":2548528.8500000001,"ADDRESS":"自強路７５０巷６９弄１９號","OBJECTID":61520},"geometry":{"x":174565.85000000149,"y":2548528.8500000015}},{"attributes":{"ID":61521,"DIS_CODE":0,"TOWNNAME":"安定區","LI":"蘇林里","LIN":"1鄰","STREET":" ","SECT":" ","MAREA":"蘇厝","LANE":" ","ALLEY":" ","HOUSE_NO":"１之２８號","E_COORD97":174362.26999999999,"N_COORD97":2558651.2999999998,"ADDRESS":"蘇厝１之２８號","OBJECTID":61521},"geometry":{"x":174362.26999999955,"y":2558651.3000000007}},{"attributes":{"ID":61522,"DIS_CODE":0,"TOWNNAME":"永康區","LI":"龍潭里","LIN":"35鄰","STREET":"自強路","SECT":" ","MAREA":" ","LANE":"７５０巷","ALLEY":"６９弄","HOUSE_NO":"２７號","E_COORD97":174567.14999999999,"N_COORD97":2548559.98,"ADDRESS":"自強路７５０巷６９弄２７號","OBJECTID":61522},"geometry":{"x":174567.15000000037,"y":2548559.9800000004}},{"attributes":{"ID":61523,"DIS_CODE":0,"TOWNNAME":"永康區","LI":"龍潭里","LIN":"35鄰","STREET":"自強路","SECT":" ","MAREA":" ","LANE":"８０２巷","ALLEY":"１弄","HOUSE_NO":"１７號","E_COORD97":174632.04999999999,"N_COORD97":2548613.8399999999,"ADDRESS":"自強路８０２巷１弄１７號","OBJECTID":61523},"geometry":{"x":174632.04999999981,"y":2548613.8400000017}},{"attributes":{"ID":61524,"DIS_CODE":0,"TOWNNAME":"永康區","LI":"龍潭里","LIN":"35鄰","STREET":"自強路","SECT":" ","MAREA":" ","LANE":"７５０巷","ALLEY":"６９弄","HOUSE_NO":"２９號","E_COORD97":174572.89999999999,"N_COORD97":2548560.98,"ADDRESS":"自強路７５０巷６９弄２９號","OBJECTID":61524},"geometry":{"x":174572.89999999944,"y":2548560.9799999986}},{"attributes":{"ID":61525,"DIS_CODE":0,"TOWNNAME":"安定區","LI":"新吉里","LIN":"1鄰","STREET":" ","SECT":" ","MAREA":"新吉","LANE":" ","ALLEY":" ","HOUSE_NO":"７之４號","E_COORD97":169284.82000000001,"N_COORD97":2554158.2999999998,"ADDRESS":"新吉７之４號","OBJECTID":61525},"geometry":{"x":169284.82000000123,"y":2554158.3000000026}},{"attributes":{"ID":61526,"DIS_CODE":0,"TOWNNAME":"玉井區","LI":"玉井里","LIN":"8鄰","STREET":"富強街","SECT":" ","MAREA":" ","LANE":" ","ALLEY":" ","HOUSE_NO":"６６號","E_COORD97":194821.01000000001,"N_COORD97":2558252.25,"ADDRESS":"富強街６６號","OBJECTID":61526},"geometry":{"x":194821.01000000071,"y":2558252.2500000019}},{"attributes":{"ID":61527,"DIS_CODE":0,"TOWNNAME":"玉井區","LI":"玉井里","LIN":"8鄰","STREET":"富強街","SECT":" ","MAREA":" ","LANE":" ","ALLEY":" ","HOUSE_NO":"７２號","E_COORD97":194806.51000000001,"N_COORD97":2558252.25,"ADDRESS":"富強街７２號","OBJECTID":61527},"geometry":{"x":194806.50999999978,"y":2558252.2500000019}},{"attributes":{"ID":61528,"DIS_CODE":0,"TOWNNAME":"新營區","LI":"護鎮里","LIN":" ","STREET":" ","SECT":" ","MAREA":"後鎮","LANE":" ","ALLEY":" ","HOUSE_NO":"８５之１４號","E_COORD97":179246.67999999999,"N_COORD97":2580913.1000000001,"ADDRESS":"後鎮８５之１４號","OBJECTID":61528},"geometry":{"x":179246.6799999997,"y":2580913.0999999996}},{"attributes":{"ID":61529,"DIS_CODE":0,"TOWNNAME":"安定區","LI":"港口里","LIN":"1鄰","STREET":" ","SECT":" ","MAREA":"港口","LANE":" ","ALLEY":" ","HOUSE_NO":"２３６之５號","E_COORD97":171604.09,"N_COORD97":2554530.2999999998,"ADDRESS":"港口２３６之５號","OBJECTID":61529},"geometry":{"x":171604.08999999985,"y":2554530.3000000026}},{"attributes":{"ID":61530,"DIS_CODE":0,"TOWNNAME":"安定區","LI":"六嘉里","LIN":"1鄰","STREET":" ","SECT":" ","MAREA":"六塊寮","LANE":" ","ALLEY":" ","HOUSE_NO":"９之５號","E_COORD97":170381.26999999999,"N_COORD97":2553557.2999999998,"ADDRESS":"六塊寮９之５號","OBJECTID":61530},"geometry":{"x":170381.27000000048,"y":2553557.3000000026}},{"attributes":{"ID":61531,"DIS_CODE":0,"TOWNNAME":"安定區","LI":"海寮里","LIN":"1鄰","STREET":" ","SECT":" ","MAREA":"海寮","LANE":" ","ALLEY":" ","HOUSE_NO":"１８之１７號","E_COORD97":169297.04000000001,"N_COORD97":2555036.2999999998,"ADDRESS":"海寮１８之１７號","OBJECTID":61531},"geometry":{"x":169297.04000000097,"y":2555036.3000000026}},{"attributes":{"ID":61532,"DIS_CODE":0,"TOWNNAME":"永康區","LI":"龍潭里","LIN":"35鄰","STREET":"自強路","SECT":" ","MAREA":" ","LANE":"７５０巷","ALLEY":"６９弄","HOUSE_NO":"２５號","E_COORD97":174557.64000000001,"N_COORD97":2548551.8300000001,"ADDRESS":"自強路７５０巷６９弄２５號","OBJECTID":61532},"geometry":{"x":174557.6400000006,"y":2548551.8300000038}},{"attributes":{"ID":61533,"DIS_CODE":0,"TOWNNAME":"永康區","LI":"龍潭里","LIN":"35鄰","STREET":"自強路","SECT":" ","MAREA":" ","LANE":"７５０巷","ALLEY":"６９弄","HOUSE_NO":"１１號","E_COORD97":174563.54999999999,"N_COORD97":2548511.8599999999,"ADDRESS":"自強路７５０巷６９弄１１號","OBJECTID":61533},"geometry":{"x":174563.55000000075,"y":2548511.8599999994}},{"attributes":{"ID":61534,"DIS_CODE":0,"TOWNNAME":"永康區","LI":"龍潭里","LIN":"35鄰","STREET":"自強路","SECT":" ","MAREA":" ","LANE":"７５０巷","ALLEY":"６９弄","HOUSE_NO":"１７號","E_COORD97":174565.32000000001,"N_COORD97":2548524.8599999999,"ADDRESS":"自強路７５０巷６９弄１７號","OBJECTID":61534},"geometry":{"x":174565.32000000123,"y":2548524.8600000013}},{"attributes":{"ID":61535,"DIS_CODE":0,"TOWNNAME":"安定區","LI":"港南里","LIN":"1鄰","STREET":" ","SECT":" ","MAREA":"港口","LANE":" ","ALLEY":" ","HOUSE_NO":"１之２５號","E_COORD97":171213.04858500001,"N_COORD97":2554031.4034500001,"ADDRESS":"港口１之２５號","OBJECTID":61535},"geometry":{"x":171213.04858500045,"y":2554031.4034480006}},{"attributes":{"ID":61536,"DIS_CODE":0,"TOWNNAME":"永康區","LI":"龍潭里","LIN":"35鄰","STREET":"自強路","SECT":" ","MAREA":" ","LANE":"８０２巷","ALLEY":"１弄","HOUSE_NO":"９號","E_COORD97":174616.04999999999,"N_COORD97":2548601.7999999998,"ADDRESS":"自強路８０２巷１弄９號","OBJECTID":61536},"geometry":{"x":174616.05000000075,"y":2548601.8000000007}},{"attributes":{"ID":61537,"DIS_CODE":0,"TOWNNAME":"永康區","LI":"龍潭里","LIN":"35鄰","STREET":"自強路","SECT":" ","MAREA":" ","LANE":"８０２巷","ALLEY":"１弄","HOUSE_NO":"２之１號","E_COORD97":174621.76999999999,"N_COORD97":2548580,"ADDRESS":"自強路８０２巷１弄２之１號","OBJECTID":61537},"geometry":{"x":174621.76999999955,"y":2548580}},{"attributes":{"ID":61538,"DIS_CODE":0,"TOWNNAME":"永康區","LI":"龍潭里","LIN":"35鄰","STREET":"自強路","SECT":" ","MAREA":" ","LANE":"８０２巷","ALLEY":"１弄","HOUSE_NO":"１號","E_COORD97":174598.78,"N_COORD97":2548587.9900000002,"ADDRESS":"自強路８０２巷１弄１號","OBJECTID":61538},"geometry":{"x":174598.78000000026,"y":2548587.9900000039}},{"attributes":{"ID":61539,"DIS_CODE":0,"TOWNNAME":"仁德區","LI":"仁德里","LIN":"35鄰","STREET":"中山路","SECT":" ","MAREA":" ","LANE":"７５８巷","ALLEY":"２弄","HOUSE_NO":"５９號","E_COORD97":172829.41,"N_COORD97":2541578.6200000001,"ADDRESS":"中山路７５８巷２弄５９號","OBJECTID":61539},"geometry":{"x":172829.41000000015,"y":2541578.620000001}},{"attributes":{"ID":61540,"DIS_CODE":0,"TOWNNAME":"仁德區","LI":"仁德里","LIN":"35鄰","STREET":"中山路","SECT":" ","MAREA":" ","LANE":"７５８巷","ALLEY":"２弄","HOUSE_NO":"１９號","E_COORD97":172743.54000000001,"N_COORD97":2541540.3900000001,"ADDRESS":"中山路７５８巷２弄１９號","OBJECTID":61540},"geometry":{"x":172743.54000000004,"y":2541540.3900000043}},{"attributes":{"ID":61541,"DIS_CODE":0,"TOWNNAME":"仁德區","LI":"仁德里","LIN":"35鄰","STREET":"中山路","SECT":" ","MAREA":" ","LANE":"７５８巷","ALLEY":"２弄","HOUSE_NO":"２７號","E_COORD97":172751.42999999999,"N_COORD97":2541558.75,"ADDRESS":"中山路７５８巷２弄２７號","OBJECTID":61541},"geometry":{"x":172751.43000000156,"y":2541558.7500000019}},{"attributes":{"ID":61542,"DIS_CODE":0,"TOWNNAME":"仁德區","LI":"仁德里","LIN":"35鄰","STREET":"中山路","SECT":" ","MAREA":" ","LANE":"７５８巷","ALLEY":"２弄","HOUSE_NO":"１３號","E_COORD97":172732.42000000001,"N_COORD97":2541544.3900000001,"ADDRESS":"中山路７５８巷２弄１３號","OBJECTID":61542},"geometry":{"x":172732.41999999993,"y":2541544.3900000025}},{"attributes":{"ID":61543,"DIS_CODE":0,"TOWNNAME":"仁德區","LI":"仁德里","LIN":"35鄰","STREET":"中山路","SECT":" ","MAREA":" ","LANE":"７５８巷","ALLEY":"２弄","HOUSE_NO":"５７號","E_COORD97":172826.20999999999,"N_COORD97":2541577.8700000001,"ADDRESS":"中山路７５８巷２弄５７號","OBJECTID":61543},"geometry":{"x":172826.21000000183,"y":2541577.870000001}},{"attributes":{"ID":61544,"DIS_CODE":0,"TOWNNAME":"安南區","LI":"安富里","LIN":"35鄰","STREET":"海佃路","SECT":"一段","MAREA":" ","LANE":"１５８巷","ALLEY":"１２２弄","HOUSE_NO":"４９號","E_COORD97":167619.04000000001,"N_COORD97":2547151.48,"ADDRESS":"海佃路一段１５８巷１２２弄４９號","OBJECTID":61544},"geometry":{"x":167619.04000000004,"y":2547151.4800000023}},{"attributes":{"ID":61545,"DIS_CODE":0,"TOWNNAME":"安定區","LI":"海寮里","LIN":"1鄰","STREET":" ","SECT":" ","MAREA":"海寮","LANE":" ","ALLEY":" ","HOUSE_NO":"７之２２號","E_COORD97":169089.39000000001,"N_COORD97":2554740.2999999998,"ADDRESS":"海寮７之２２號","OBJECTID":61545},"geometry":{"x":169089.38999999966,"y":2554740.3000000026}},{"attributes":{"ID":61546,"DIS_CODE":0,"TOWNNAME":"安定區","LI":"海寮里","LIN":"1鄰","STREET":" ","SECT":" ","MAREA":"海寮","LANE":" ","ALLEY":" ","HOUSE_NO":"１０號之１１","E_COORD97":169051.07999999999,"N_COORD97":2555156.29,"ADDRESS":"海寮１０號之１１","OBJECTID":61546},"geometry":{"x":169051.08000000101,"y":2555156.290000001}},{"attributes":{"ID":61547,"DIS_CODE":0,"TOWNNAME":"安定區","LI":"港南里","LIN":"1鄰","STREET":" ","SECT":" ","MAREA":"港口","LANE":" ","ALLEY":" ","HOUSE_NO":"７之５號","E_COORD97":171176.39000000001,"N_COORD97":2554304.2999999998,"ADDRESS":"港口７之５號","OBJECTID":61547},"geometry":{"x":171176.38999999966,"y":2554304.3000000026}},{"attributes":{"ID":61548,"DIS_CODE":0,"TOWNNAME":"安南區","LI":"安富里","LIN":"35鄰","STREET":"海佃路","SECT":"一段","MAREA":" ","LANE":"１５８巷","ALLEY":"１２２弄","HOUSE_NO":"４７號","E_COORD97":167618.26000000001,"N_COORD97":2547155.71,"ADDRESS":"海佃路一段１５８巷１２２弄４７號","OBJECTID":61548},"geometry":{"x":167618.26000000071,"y":2547155.7100000009}},{"attributes":{"ID":61549,"DIS_CODE":0,"TOWNNAME":"安南區","LI":"安富里","LIN":"35鄰","STREET":"海佃路","SECT":"一段","MAREA":" ","LANE":"１５８巷","ALLEY":"１２２弄","HOUSE_NO":"４５號","E_COORD97":167617.48999999999,"N_COORD97":2547159.9399999999,"ADDRESS":"海佃路一段１５８巷１２２弄４５號","OBJECTID":61549},"geometry":{"x":167617.49000000115,"y":2547159.9399999976}},{"attributes":{"ID":61550,"DIS_CODE":0,"TOWNNAME":"安南區","LI":"安富里","LIN":"35鄰","STREET":"海佃路","SECT":"一段","MAREA":" ","LANE":"１５８巷","ALLEY":"１２２弄","HOUSE_NO":"４３號","E_COORD97":167616.70999999999,"N_COORD97":2547164.1699999999,"ADDRESS":"海佃路一段１５８巷１２２弄４３號","OBJECTID":61550},"geometry":{"x":167616.70999999903,"y":2547164.1700000018}},{"attributes":{"ID":61551,"DIS_CODE":0,"TOWNNAME":"安南區","LI":"安富里","LIN":"35鄰","STREET":"海佃路","SECT":"一段","MAREA":" ","LANE":"１５８巷","ALLEY":"１２２弄","HOUSE_NO":"４１號","E_COORD97":167615.94,"N_COORD97":2547168.3999999999,"ADDRESS":"海佃路一段１５８巷１２２弄４１號","OBJECTID":61551},"geometry":{"x":167615.94000000134,"y":2547168.4000000041}},{"attributes":{"ID":61552,"DIS_CODE":0,"TOWNNAME":"安南區","LI":"安富里","LIN":"35鄰","STREET":"海佃路","SECT":"一段","MAREA":" ","LANE":"１５８巷","ALLEY":"１２２弄","HOUSE_NO":"３９號","E_COORD97":167615.16,"N_COORD97":2547172.6299999999,"ADDRESS":"海佃路一段１５８巷１２２弄３９號","OBJECTID":61552},"geometry":{"x":167615.16000000015,"y":2547172.6300000008}},{"attributes":{"ID":61553,"DIS_CODE":0,"TOWNNAME":"安南區","LI":"安富里","LIN":"35鄰","STREET":"海佃路","SECT":"一段","MAREA":" ","LANE":"１５８巷","ALLEY":"１２２弄","HOUSE_NO":"３７號","E_COORD97":167614.32000000001,"N_COORD97":2547177.2000000002,"ADDRESS":"海佃路一段１５８巷１２２弄３７號","OBJECTID":61553},"geometry":{"x":167614.3200000003,"y":2547177.1999999993}},{"attributes":{"ID":61554,"DIS_CODE":0,"TOWNNAME":"安南區","LI":"安富里","LIN":"35鄰","STREET":"海佃路","SECT":"一段","MAREA":" ","LANE":"１５８巷","ALLEY":"１２２弄","HOUSE_NO":"３８之１號","E_COORD97":167633.41,"N_COORD97":2547193.25,"ADDRESS":"海佃路一段１５８巷１２２弄３８之１號","OBJECTID":61554},"geometry":{"x":167633.41000000108,"y":2547193.2500000019}},{"attributes":{"ID":61555,"DIS_CODE":0,"TOWNNAME":"安定區","LI":"安加里","LIN":"1鄰","STREET":" ","SECT":" ","MAREA":"安定","LANE":" ","ALLEY":" ","HOUSE_NO":"１５６之２號","E_COORD97":172047.42000000001,"N_COORD97":2557637.3199999998,"ADDRESS":"安定１５６之２號","OBJECTID":61555},"geometry":{"x":172047.42000000086,"y":2557637.3200000003}},{"attributes":{"ID":61556,"DIS_CODE":0,"TOWNNAME":"安定區","LI":"海寮里","LIN":"1鄰","STREET":" ","SECT":" ","MAREA":"海寮","LANE":" ","ALLEY":" ","HOUSE_NO":"７之４０號","E_COORD97":169098.19,"N_COORD97":2554649.2999999998,"ADDRESS":"海寮７之４０號","OBJECTID":61556},"geometry":{"x":169098.19000000041,"y":2554649.3000000026}},{"attributes":{"ID":61557,"DIS_CODE":0,"TOWNNAME":"安定區","LI":"海寮里","LIN":"1鄰","STREET":" ","SECT":" ","MAREA":"海寮","LANE":" ","ALLEY":" ","HOUSE_NO":"１６號之２","E_COORD97":169196.16,"N_COORD97":2555143.2999999998,"ADDRESS":"海寮１６號之２","OBJECTID":61557},"geometry":{"x":169196.16000000108,"y":2555143.2999999989}},{"attributes":{"ID":61558,"DIS_CODE":0,"TOWNNAME":"東山區","LI":"南溪里","LIN":"8鄰","STREET":" ","SECT":" ","MAREA":"二重溪","LANE":" ","ALLEY":" ","HOUSE_NO":"７６號","E_COORD97":188404.19,"N_COORD97":2574914,"ADDRESS":"二重溪７６號","OBJECTID":61558},"geometry":{"x":188404.19000000134,"y":2574914.0000000037}},{"attributes":{"ID":61559,"DIS_CODE":0,"TOWNNAME":"西港區","LI":"慶安里","LIN":"1鄰","STREET":" ","SECT":" ","MAREA":"中州","LANE":" ","ALLEY":" ","HOUSE_NO":"９號之１","E_COORD97":167022.42000000001,"N_COORD97":2559695.3500000001,"ADDRESS":"中州９號之１","OBJECTID":61559},"geometry":{"x":167022.42000000086,"y":2559695.3500000034}},{"attributes":{"ID":61560,"DIS_CODE":0,"TOWNNAME":"東山區","LI":"南溪里","LIN":"8鄰","STREET":" ","SECT":" ","MAREA":"二重溪","LANE":" ","ALLEY":" ","HOUSE_NO":"８１號","E_COORD97":188475.26999999999,"N_COORD97":2574832.8300000001,"ADDRESS":"二重溪８１號","OBJECTID":61560},"geometry":{"x":188475.27000000142,"y":2574832.8300000001}},{"attributes":{"ID":61561,"DIS_CODE":0,"TOWNNAME":"東山區","LI":"南溪里","LIN":"8鄰","STREET":" ","SECT":" ","MAREA":"二重溪","LANE":" ","ALLEY":" ","HOUSE_NO":"８３號","E_COORD97":188564.26999999999,"N_COORD97":2575084.3599999999,"ADDRESS":"二重溪８３號","OBJECTID":61561},"geometry":{"x":188564.27000000048,"y":2575084.3600000013}},{"attributes":{"ID":61562,"DIS_CODE":0,"TOWNNAME":"南區","LI":"文南里","LIN":"8鄰","STREET":"健康路","SECT":"二段","MAREA":" ","LANE":" ","ALLEY":" ","HOUSE_NO":"２６２號","E_COORD97":166979.04000000001,"N_COORD97":2542497.79,"ADDRESS":"健康路二段２６２號","OBJECTID":61562},"geometry":{"x":166979.0400000019,"y":2542497.7899999991}},{"attributes":{"ID":61563,"DIS_CODE":0,"TOWNNAME":"東山區","LI":"南溪里","LIN":"8鄰","STREET":" ","SECT":" ","MAREA":"二重溪","LANE":" ","ALLEY":" ","HOUSE_NO":"８４號之１","E_COORD97":188522.07999999999,"N_COORD97":2574848.1000000001,"ADDRESS":"二重溪８４號之１","OBJECTID":61563},"geometry":{"x":188522.08000000007,"y":2574848.0999999996}},{"attributes":{"ID":61564,"DIS_CODE":0,"TOWNNAME":"東山區","LI":"南溪里","LIN":"8鄰","STREET":" ","SECT":" ","MAREA":"二重溪","LANE":" ","ALLEY":" ","HOUSE_NO":"８４號之２","E_COORD97":188563.76999999999,"N_COORD97":2574873.2000000002,"ADDRESS":"二重溪８４號之２","OBJECTID":61564},"geometry":{"x":188563.77000000048,"y":2574873.1999999993}},{"attributes":{"ID":61565,"DIS_CODE":0,"TOWNNAME":"東山區","LI":"南溪里","LIN":"8鄰","STREET":" ","SECT":" ","MAREA":"二重溪","LANE":" ","ALLEY":" ","HOUSE_NO":"８４號之３","E_COORD97":188512.81,"N_COORD97":2574839.4399999999,"ADDRESS":"二重溪８４號之３","OBJECTID":61565},"geometry":{"x":188512.81000000052,"y":2574839.4400000032}},{"attributes":{"ID":61566,"DIS_CODE":0,"TOWNNAME":"東山區","LI":"南溪里","LIN":"8鄰","STREET":" ","SECT":" ","MAREA":"二重溪","LANE":" ","ALLEY":" ","HOUSE_NO":"８４號之５","E_COORD97":188572.76000000001,"N_COORD97":2574894.6699999999,"ADDRESS":"二重溪８４號之５","OBJECTID":61566},"geometry":{"x":188572.76000000071,"y":2574894.6699999999}},{"attributes":{"ID":61567,"DIS_CODE":0,"TOWNNAME":"東山區","LI":"南溪里","LIN":"8鄰","STREET":" ","SECT":" ","MAREA":"二重溪","LANE":" ","ALLEY":" ","HOUSE_NO":"８４號","E_COORD97":188546.94,"N_COORD97":2574891.6299999999,"ADDRESS":"二重溪８４號","OBJECTID":61567},"geometry":{"x":188546.94000000134,"y":2574891.6300000027}},{"attributes":{"ID":61568,"DIS_CODE":0,"TOWNNAME":"東山區","LI":"南溪里","LIN":"8鄰","STREET":" ","SECT":" ","MAREA":"二重溪","LANE":" ","ALLEY":" ","HOUSE_NO":"８５號之１","E_COORD97":188612.98000000001,"N_COORD97":2574932.52,"ADDRESS":"二重溪８５號之１","OBJECTID":61568},"geometry":{"x":188612.98000000045,"y":2574932.5199999996}},{"attributes":{"ID":61569,"DIS_CODE":0,"TOWNNAME":"東山區","LI":"南溪里","LIN":"8鄰","STREET":" ","SECT":" ","MAREA":"二重溪","LANE":" ","ALLEY":" ","HOUSE_NO":"８５號之２","E_COORD97":188599.32999999999,"N_COORD97":2574954.8399999999,"ADDRESS":"二重溪８５號之２","OBJECTID":61569},"geometry":{"x":188599.33000000101,"y":2574954.8399999999}},{"attributes":{"ID":61570,"DIS_CODE":0,"TOWNNAME":"東山區","LI":"南溪里","LIN":"8鄰","STREET":" ","SECT":" ","MAREA":"二重溪","LANE":" ","ALLEY":" ","HOUSE_NO":"８５號之３","E_COORD97":188587.85000000001,"N_COORD97":2574926.8599999999,"ADDRESS":"二重溪８５號之３","OBJECTID":61570},"geometry":{"x":188587.84999999963,"y":2574926.8599999994}},{"attributes":{"ID":61571,"DIS_CODE":0,"TOWNNAME":"東山區","LI":"南溪里","LIN":"8鄰","STREET":" ","SECT":" ","MAREA":"二重溪","LANE":" ","ALLEY":" ","HOUSE_NO":"８５號之４","E_COORD97":188606.48999999999,"N_COORD97":2574916.6600000001,"ADDRESS":"二重溪８５號之４","OBJECTID":61571},"geometry":{"x":188606.49000000022,"y":2574916.6600000039}},{"attributes":{"ID":61572,"DIS_CODE":0,"TOWNNAME":"東山區","LI":"南溪里","LIN":"8鄰","STREET":" ","SECT":" ","MAREA":"二重溪","LANE":" ","ALLEY":" ","HOUSE_NO":"８５號之５","E_COORD97":188626.85999999999,"N_COORD97":2574931.79,"ADDRESS":"二重溪８５號之５","OBJECTID":61572},"geometry":{"x":188626.86000000127,"y":2574931.790000001}},{"attributes":{"ID":61573,"DIS_CODE":0,"TOWNNAME":"東山區","LI":"南溪里","LIN":"8鄰","STREET":" ","SECT":" ","MAREA":"二重溪","LANE":" ","ALLEY":" ","HOUSE_NO":"８５號之６","E_COORD97":188598.79000000001,"N_COORD97":2574904.0699999998,"ADDRESS":"二重溪８５號之６","OBJECTID":61573},"geometry":{"x":188598.79000000004,"y":2574904.0700000022}},{"attributes":{"ID":61574,"DIS_CODE":0,"TOWNNAME":"東山區","LI":"南溪里","LIN":"8鄰","STREET":" ","SECT":" ","MAREA":"二重溪","LANE":" ","ALLEY":" ","HOUSE_NO":"８５號","E_COORD97":188573.64000000001,"N_COORD97":2574937.8599999999,"ADDRESS":"二重溪８５號","OBJECTID":61574},"geometry":{"x":188573.6400000006,"y":2574937.8599999975}},{"attributes":{"ID":61575,"DIS_CODE":0,"TOWNNAME":"東山區","LI":"南溪里","LIN":"8鄰","STREET":" ","SECT":" ","MAREA":"二重溪","LANE":" ","ALLEY":" ","HOUSE_NO":"８６號","E_COORD97":188555.79999999999,"N_COORD97":2574968.48,"ADDRESS":"二重溪８６號","OBJECTID":61575},"geometry":{"x":188555.80000000075,"y":2574968.4800000004}},{"attributes":{"ID":61576,"DIS_CODE":0,"TOWNNAME":"新營區","LI":"嘉芳里","LIN":"1鄰","STREET":" ","SECT":" ","MAREA":"茄苳腳","LANE":" ","ALLEY":" ","HOUSE_NO":"１１號之１６","E_COORD97":177166.03,"N_COORD97":2578335.0600000001,"ADDRESS":"茄苳腳１１之１６號","OBJECTID":61576},"geometry":{"x":177166.03000000119,"y":2578335.0600000042}},{"attributes":{"ID":61577,"DIS_CODE":0,"TOWNNAME":"安定區","LI":"南安里","LIN":"1鄰","STREET":" ","SECT":" ","MAREA":"油車","LANE":" ","ALLEY":" ","HOUSE_NO":"６號之５","E_COORD97":170799.28,"N_COORD97":2555956.2999999998,"ADDRESS":"油車６號之５","OBJECTID":61577},"geometry":{"x":170799.28000000119,"y":2555956.3000000007}},{"attributes":{"ID":61578,"DIS_CODE":0,"TOWNNAME":"安定區","LI":"海寮里","LIN":"1鄰","STREET":" ","SECT":" ","MAREA":"海寮","LANE":" ","ALLEY":" ","HOUSE_NO":"５之４１號","E_COORD97":169039.98999999999,"N_COORD97":2554831.2999999998,"ADDRESS":"海寮５之４１號","OBJECTID":61578},"geometry":{"x":169039.99000000115,"y":2554831.2999999989}},{"attributes":{"ID":61579,"DIS_CODE":0,"TOWNNAME":"安定區","LI":"新吉里","LIN":"1鄰","STREET":" ","SECT":" ","MAREA":"新吉","LANE":" ","ALLEY":" ","HOUSE_NO":"２之１６號","E_COORD97":169172.17000000001,"N_COORD97":2554141.2999999998,"ADDRESS":"新吉２之１６號","OBJECTID":61579},"geometry":{"x":169172.17000000086,"y":2554141.3000000026}},{"attributes":{"ID":61580,"DIS_CODE":0,"TOWNNAME":"安定區","LI":"港南里","LIN":"1鄰","STREET":" ","SECT":" ","MAREA":"港口","LANE":" ","ALLEY":" ","HOUSE_NO":"４號","E_COORD97":171098.69,"N_COORD97":2554324.25,"ADDRESS":"港口４號","OBJECTID":61580},"geometry":{"x":171098.69000000041,"y":2554324.25}},{"attributes":{"ID":61581,"DIS_CODE":0,"TOWNNAME":"新營區","LI":"嘉芳里","LIN":"4鄰","STREET":" ","SECT":" ","MAREA":"茄苳腳","LANE":" ","ALLEY":" ","HOUSE_NO":"５０號之２３","E_COORD97":176859.38,"N_COORD97":2578374.2200000002,"ADDRESS":"茄苳腳５０之２３號","OBJECTID":61581},"geometry":{"x":176859.37999999896,"y":2578374.2200000007}},{"attributes":{"ID":61582,"DIS_CODE":0,"TOWNNAME":"新營區","LI":"埤寮里","LIN":"4鄰","STREET":" ","SECT":" ","MAREA":"許丑","LANE":" ","ALLEY":" ","HOUSE_NO":"４４號","E_COORD97":179761.70999999999,"N_COORD97":2580968.1600000001,"ADDRESS":"許丑４４號","OBJECTID":61582},"geometry":{"x":179761.71000000089,"y":2580968.1600000039}},{"attributes":{"ID":61583,"DIS_CODE":0,"TOWNNAME":"新營區","LI":"太南里","LIN":"14鄰","STREET":" ","SECT":" ","MAREA":"太子宮","LANE":" ","ALLEY":" ","HOUSE_NO":"２８８號","E_COORD97":176235.01999999999,"N_COORD97":2576729.3500000001,"ADDRESS":"太子宮２８８號","OBJECTID":61583},"geometry":{"x":176235.02000000048,"y":2576729.3500000015}},{"attributes":{"ID":61584,"DIS_CODE":0,"TOWNNAME":"安定區","LI":"港尾里","LIN":"1鄰","STREET":" ","SECT":" ","MAREA":"下洲子","LANE":" ","ALLEY":" ","HOUSE_NO":"５之１號","E_COORD97":172440.14000000001,"N_COORD97":2556493.2999999998,"ADDRESS":"下洲子５之１號","OBJECTID":61584},"geometry":{"x":172440.1400000006,"y":2556493.3000000026}},{"attributes":{"ID":61585,"DIS_CODE":0,"TOWNNAME":"安定區","LI":"保西里","LIN":"1鄰","STREET":" ","SECT":" ","MAREA":"安定","LANE":" ","ALLEY":" ","HOUSE_NO":"３３１號","E_COORD97":171671.32000000001,"N_COORD97":2557548.3199999998,"ADDRESS":"安定３３１號","OBJECTID":61585},"geometry":{"x":171671.32000000216,"y":2557548.3200000003}},{"attributes":{"ID":61586,"DIS_CODE":0,"TOWNNAME":"安定區","LI":"海寮里","LIN":"1鄰","STREET":" ","SECT":" ","MAREA":"海寮","LANE":" ","ALLEY":" ","HOUSE_NO":"１２之１６號","E_COORD97":169123.34,"N_COORD97":2555173.2999999998,"ADDRESS":"海寮１２之１６號","OBJECTID":61586},"geometry":{"x":169123.34000000078,"y":2555173.3000000007}},{"attributes":{"ID":61587,"DIS_CODE":0,"TOWNNAME":"安定區","LI":"港南里","LIN":"1鄰","STREET":" ","SECT":" ","MAREA":"港口","LANE":" ","ALLEY":" ","HOUSE_NO":"１０之７號","E_COORD97":171242.04000000001,"N_COORD97":2554180.2999999998,"ADDRESS":"港口１０之７號","OBJECTID":61587},"geometry":{"x":171242.04000000004,"y":2554180.3000000007}},{"attributes":{"ID":61588,"DIS_CODE":0,"TOWNNAME":"安定區","LI":"港口里","LIN":"1鄰","STREET":" ","SECT":" ","MAREA":"港口","LANE":" ","ALLEY":" ","HOUSE_NO":"２３５號","E_COORD97":171603.19,"N_COORD97":2554590.25,"ADDRESS":"港口２３５號","OBJECTID":61588},"geometry":{"x":171603.19000000134,"y":2554590.2500000037}},{"attributes":{"ID":61589,"DIS_CODE":0,"TOWNNAME":"安定區","LI":"蘇林里","LIN":"1鄰","STREET":" ","SECT":" ","MAREA":"蘇厝","LANE":" ","ALLEY":" ","HOUSE_NO":"２之２２號","E_COORD97":174023.47,"N_COORD97":2558710.2999999998,"ADDRESS":"蘇厝２之２２號","OBJECTID":61589},"geometry":{"x":174023.47000000067,"y":2558710.3000000045}},{"attributes":{"ID":61590,"DIS_CODE":0,"TOWNNAME":"安定區","LI":"中榮里","LIN":"1鄰","STREET":" ","SECT":" ","MAREA":"許中營","LANE":" ","ALLEY":" ","HOUSE_NO":"１之２９號","E_COORD97":172227.84,"N_COORD97":2554901.2999999998,"ADDRESS":"許中營１之２９號","OBJECTID":61590},"geometry":{"x":172227.83999999985,"y":2554901.3000000007}},{"attributes":{"ID":61591,"DIS_CODE":0,"TOWNNAME":"安定區","LI":"海寮里","LIN":"1鄰","STREET":" ","SECT":" ","MAREA":"海寮","LANE":" ","ALLEY":" ","HOUSE_NO":"５之１６號","E_COORD97":169025.79000000001,"N_COORD97":2555023.2999999998,"ADDRESS":"海寮５之１６號","OBJECTID":61591},"geometry":{"x":169025.79000000097,"y":2555023.3000000007}},{"attributes":{"ID":61592,"DIS_CODE":0,"TOWNNAME":"安定區","LI":"安加里","LIN":"1鄰","STREET":" ","SECT":" ","MAREA":"安定","LANE":" ","ALLEY":" ","HOUSE_NO":"１５９之１８號","E_COORD97":171967.37,"N_COORD97":2557563.3199999998,"ADDRESS":"安定１５９之１８號","OBJECTID":61592},"geometry":{"x":171967.36999999918,"y":2557563.3199999984}},{"attributes":{"ID":61593,"DIS_CODE":0,"TOWNNAME":"安定區","LI":"港南里","LIN":"1鄰","STREET":" ","SECT":" ","MAREA":"港口","LANE":" ","ALLEY":" ","HOUSE_NO":"１之６１號","E_COORD97":171076.54000000001,"N_COORD97":2554249.2999999998,"ADDRESS":"港口１之６１號","OBJECTID":61593},"geometry":{"x":171076.54000000097,"y":2554249.3000000026}},{"attributes":{"ID":61594,"DIS_CODE":0,"TOWNNAME":"安定區","LI":"港南里","LIN":"1鄰","STREET":" ","SECT":" ","MAREA":"港口","LANE":" ","ALLEY":" ","HOUSE_NO":"１之２３號","E_COORD97":170969.64000000001,"N_COORD97":2554201.2999999998,"ADDRESS":"港口１之２３號","OBJECTID":61594},"geometry":{"x":170969.63999999966,"y":2554201.3000000026}},{"attributes":{"ID":61595,"DIS_CODE":0,"TOWNNAME":"安定區","LI":"港南里","LIN":"1鄰","STREET":" ","SECT":" ","MAREA":"港口","LANE":" ","ALLEY":" ","HOUSE_NO":"２之１號","E_COORD97":171158.29000000001,"N_COORD97":2554265.2999999998,"ADDRESS":"港口２之１號","OBJECTID":61595},"geometry":{"x":171158.29000000097,"y":2554265.3000000045}},{"attributes":{"ID":61596,"DIS_CODE":0,"TOWNNAME":"安定區","LI":"港南里","LIN":"1鄰","STREET":" ","SECT":" ","MAREA":"港口","LANE":" ","ALLEY":" ","HOUSE_NO":"１之４５號","E_COORD97":170994.23999999999,"N_COORD97":2554040.2999999998,"ADDRESS":"港口１之４５號","OBJECTID":61596},"geometry":{"x":170994.24000000115,"y":2554040.3000000007}},{"attributes":{"ID":61597,"DIS_CODE":0,"TOWNNAME":"安定區","LI":"港南里","LIN":"1鄰","STREET":" ","SECT":" ","MAREA":"港口","LANE":" ","ALLEY":" ","HOUSE_NO":"１之３７號","E_COORD97":170746.73999999999,"N_COORD97":2554018.2999999998,"ADDRESS":"港口１之３７號","OBJECTID":61597},"geometry":{"x":170746.74000000115,"y":2554018.3000000026}},{"attributes":{"ID":61598,"DIS_CODE":0,"TOWNNAME":"安定區","LI":"港南里","LIN":"1鄰","STREET":" ","SECT":" ","MAREA":"港口","LANE":" ","ALLEY":" ","HOUSE_NO":"１之１６號","E_COORD97":170777.44,"N_COORD97":2554123.2999999998,"ADDRESS":"港口１之１６號","OBJECTID":61598},"geometry":{"x":170777.44000000134,"y":2554123.3000000026}},{"attributes":{"ID":61599,"DIS_CODE":0,"TOWNNAME":"安南區","LI":"安富里","LIN":"35鄰","STREET":"海佃路","SECT":"一段","MAREA":" ","LANE":"１５８巷","ALLEY":"１２２弄","HOUSE_NO":"８８號","E_COORD97":167652.16,"N_COORD97":2547117.6099999999,"ADDRESS":"海佃路一段１５８巷１２２弄８８號","OBJECTID":61599},"geometry":{"x":167652.16000000015,"y":2547117.6099999994}},{"attributes":{"ID":61600,"DIS_CODE":0,"TOWNNAME":"安南區","LI":"安富里","LIN":"35鄰","STREET":"海佃路","SECT":"一段","MAREA":" ","LANE":"１５８巷","ALLEY":"１２２弄","HOUSE_NO":"６７號","E_COORD97":167630.06,"N_COORD97":2547112.8599999999,"ADDRESS":"海佃路一段１５８巷１２２弄６７號","OBJECTID":61600},"geometry":{"x":167630.06000000052,"y":2547112.8599999994}}]}