{"displayFieldName":"TOWNNAME","fieldAliases":{"ID":"ID","DIS_CODE":"DIS_CODE","TOWNNAME":"TOWNNAME","LI":"LI","LIN":"LIN","STREET":"STREET","SECT":"SECT","MAREA":"MAREA","LANE":"LANE","ALLEY":"ALLEY","HOUSE_NO":"HOUSE_NO","E_COORD97":"E_COORD97","N_COORD97":"N_COORD97","ADDRESS":"ADDRESS","OBJECTID":"OBJECTID"},"geometryType":"esriGeometryPoint","spatialReference":{"wkid":102443,"latestWkid":3826},"fields":[{"name":"ID","type":"esriFieldTypeDouble","alias":"ID"},{"name":"DIS_CODE","type":"esriFieldTypeInteger","alias":"DIS_CODE"},{"name":"TOWNNAME","type":"esriFieldTypeString","alias":"TOWNNAME","length":8},{"name":"LI","type":"esriFieldTypeString","alias":"LI","length":8},{"name":"LIN","type":"esriFieldTypeString","alias":"LIN","length":12},{"name":"STREET","type":"esriFieldTypeString","alias":"STREET","length":20},{"name":"SECT","type":"esriFieldTypeString","alias":"SECT","length":8},{"name":"MAREA","type":"esriFieldTypeString","alias":"MAREA","length":12},{"name":"LANE","type":"esriFieldTypeString","alias":"LANE","length":10},{"name":"ALLEY","type":"esriFieldTypeString","alias":"ALLEY","length":10},{"name":"HOUSE_NO","type":"esriFieldTypeString","alias":"HOUSE_NO","length":20},{"name":"E_COORD97","type":"esriFieldTypeDouble","alias":"E_COORD97"},{"name":"N_COORD97","type":"esriFieldTypeDouble","alias":"N_COORD97"},{"name":"ADDRESS","type":"esriFieldTypeString","alias":"ADDRESS","length":50},{"name":"OBJECTID","type":"esriFieldTypeOID","alias":"OBJECTID"}],"features":[{"attributes":{"ID":174602,"DIS_CODE":0,"TOWNNAME":"後壁區","LI":"平安里","LIN":"10鄰","STREET":" ","SECT":" ","MAREA":"魚寮","LANE":" ","ALLEY":" ","HOUSE_NO":"１３號","E_COORD97":182353.81,"N_COORD97":2585437.3100000001,"ADDRESS":"魚寮１３號","OBJECTID":174601},"geometry":{"x":182353.81000000145,"y":2585437.3100000024}},{"attributes":{"ID":174603,"DIS_CODE":0,"TOWNNAME":"北區","LI":"裕民里","LIN":"4鄰","STREET":"康樂街","SECT":" ","MAREA":" ","LANE":" ","ALLEY":" ","HOUSE_NO":"４９５號","E_COORD97":167790.44,"N_COORD97":2544792.5099999998,"ADDRESS":"康樂街４９５號","OBJECTID":174602},"geometry":{"x":167790.44000000227,"y":2544792.5099999998}},{"attributes":{"ID":174604,"DIS_CODE":0,"TOWNNAME":"後壁區","LI":"新東里","LIN":"10鄰","STREET":" ","SECT":" ","MAREA":"新港東","LANE":" ","ALLEY":" ","HOUSE_NO":"１１３號","E_COORD97":181574.62,"N_COORD97":2582006.9199999999,"ADDRESS":"新港東１１３號","OBJECTID":174603},"geometry":{"x":181574.62000000104,"y":2582006.9199999981}},{"attributes":{"ID":174605,"DIS_CODE":0,"TOWNNAME":"後壁區","LI":"菁豊里","LIN":"10鄰","STREET":" ","SECT":" ","MAREA":"前菁寮","LANE":" ","ALLEY":" ","HOUSE_NO":"１１０號","E_COORD97":183158.92999999999,"N_COORD97":2586067.4399999999,"ADDRESS":"前菁寮１１０號","OBJECTID":174604},"geometry":{"x":183158.93000000063,"y":2586067.4399999995}},{"attributes":{"ID":174606,"DIS_CODE":0,"TOWNNAME":"後壁區","LI":"頂安里","LIN":"10鄰","STREET":" ","SECT":" ","MAREA":"頂寮","LANE":" ","ALLEY":" ","HOUSE_NO":"２９０號","E_COORD97":183779.64000000001,"N_COORD97":2582569.8799999999,"ADDRESS":"頂寮２９０號","OBJECTID":174605},"geometry":{"x":183779.6400000006,"y":2582569.8800000008}},{"attributes":{"ID":174607,"DIS_CODE":0,"TOWNNAME":"佳里區","LI":"子龍里","LIN":"10鄰","STREET":" ","SECT":" ","MAREA":"子良廟","LANE":" ","ALLEY":" ","HOUSE_NO":"１０４號","E_COORD97":169016.16,"N_COORD97":2563830.0899999999,"ADDRESS":"子良廟１０４號","OBJECTID":174606},"geometry":{"x":169016.16000000108,"y":2563830.0900000036}},{"attributes":{"ID":174608,"DIS_CODE":0,"TOWNNAME":"佳里區","LI":"子龍里","LIN":"10鄰","STREET":" ","SECT":" ","MAREA":"子良廟","LANE":" ","ALLEY":" ","HOUSE_NO":"１０５號","E_COORD97":169035.07999999999,"N_COORD97":2563812.2599999998,"ADDRESS":"子良廟１０５號","OBJECTID":174607},"geometry":{"x":169035.08000000194,"y":2563812.2600000016}},{"attributes":{"ID":174609,"DIS_CODE":0,"TOWNNAME":"佳里區","LI":"子龍里","LIN":"10鄰","STREET":" ","SECT":" ","MAREA":"子良廟","LANE":" ","ALLEY":" ","HOUSE_NO":"１０６號之１","E_COORD97":168970.88,"N_COORD97":2563837.9199999999,"ADDRESS":"子良廟１０６號之１","OBJECTID":174608},"geometry":{"x":168970.88000000082,"y":2563837.9199999981}},{"attributes":{"ID":174610,"DIS_CODE":0,"TOWNNAME":"佳里區","LI":"子龍里","LIN":"10鄰","STREET":" ","SECT":" ","MAREA":"子良廟","LANE":" ","ALLEY":" ","HOUSE_NO":"１０６號","E_COORD97":168987.19,"N_COORD97":2563835.5299999998,"ADDRESS":"子良廟１０６號","OBJECTID":174609},"geometry":{"x":168987.19000000227,"y":2563835.5299999993}},{"attributes":{"ID":174611,"DIS_CODE":0,"TOWNNAME":"佳里區","LI":"子龍里","LIN":"10鄰","STREET":" ","SECT":" ","MAREA":"子良廟","LANE":" ","ALLEY":" ","HOUSE_NO":"１０７號","E_COORD97":168961.57999999999,"N_COORD97":2563812.6699999999,"ADDRESS":"子良廟１０７號","OBJECTID":174610},"geometry":{"x":168961.58000000007,"y":2563812.6700000037}},{"attributes":{"ID":174612,"DIS_CODE":0,"TOWNNAME":"佳里區","LI":"子龍里","LIN":"10鄰","STREET":" ","SECT":" ","MAREA":"子良廟","LANE":" ","ALLEY":" ","HOUSE_NO":"１０９號之１","E_COORD97":168997.70000000001,"N_COORD97":2563811.8399999999,"ADDRESS":"子良廟１０９號之１","OBJECTID":174611},"geometry":{"x":168997.70000000112,"y":2563811.8400000017}},{"attributes":{"ID":174613,"DIS_CODE":0,"TOWNNAME":"佳里區","LI":"子龍里","LIN":"10鄰","STREET":" ","SECT":" ","MAREA":"子良廟","LANE":" ","ALLEY":" ","HOUSE_NO":"１０９號","E_COORD97":168973.54999999999,"N_COORD97":2563777.0800000001,"ADDRESS":"子良廟１０９號","OBJECTID":174612},"geometry":{"x":168973.54999999981,"y":2563777.0800000019}},{"attributes":{"ID":174614,"DIS_CODE":0,"TOWNNAME":"佳里區","LI":"子龍里","LIN":"10鄰","STREET":" ","SECT":" ","MAREA":"子良廟","LANE":" ","ALLEY":" ","HOUSE_NO":"１１０號","E_COORD97":168959.42000000001,"N_COORD97":2563795.9199999999,"ADDRESS":"子良廟１１０號","OBJECTID":174613},"geometry":{"x":168959.41999999993,"y":2563795.9199999999}},{"attributes":{"ID":174615,"DIS_CODE":0,"TOWNNAME":"北區","LI":"力行里","LIN":"19鄰","STREET":"南園街","SECT":" ","MAREA":" ","LANE":"１２７巷","ALLEY":"１５１弄","HOUSE_NO":"２８號","E_COORD97":170904.07000000001,"N_COORD97":2545534.79,"ADDRESS":"南園街１２７巷１５１弄２８號","OBJECTID":174614},"geometry":{"x":170904.07000000123,"y":2545534.790000001}},{"attributes":{"ID":174616,"DIS_CODE":0,"TOWNNAME":"北區","LI":"力行里","LIN":"19鄰","STREET":"南園街","SECT":" ","MAREA":" ","LANE":"１２７巷","ALLEY":"１５１弄","HOUSE_NO":"３０號","E_COORD97":170908.39000000001,"N_COORD97":2545536.5600000001,"ADDRESS":"南園街１２７巷１５１弄３０號","OBJECTID":174615},"geometry":{"x":170908.38999999966,"y":2545536.5600000042}},{"attributes":{"ID":174617,"DIS_CODE":0,"TOWNNAME":"佳里區","LI":"子龍里","LIN":"10鄰","STREET":" ","SECT":" ","MAREA":"子良廟","LANE":" ","ALLEY":" ","HOUSE_NO":"１１１號","E_COORD97":168952.29999999999,"N_COORD97":2563786.29,"ADDRESS":"子良廟１１１號","OBJECTID":174616},"geometry":{"x":168952.30000000075,"y":2563786.2899999991}},{"attributes":{"ID":174618,"DIS_CODE":0,"TOWNNAME":"北區","LI":"力行里","LIN":"19鄰","STREET":"南園街","SECT":" ","MAREA":" ","LANE":"１２７巷","ALLEY":"１５１弄","HOUSE_NO":"３２號","E_COORD97":170913.10000000001,"N_COORD97":2545538.3199999998,"ADDRESS":"南園街１２７巷１５１弄３２號","OBJECTID":174617},"geometry":{"x":170913.10000000056,"y":2545538.3200000022}},{"attributes":{"ID":174619,"DIS_CODE":0,"TOWNNAME":"北區","LI":"力行里","LIN":"19鄰","STREET":"南園街","SECT":" ","MAREA":" ","LANE":"１２７巷","ALLEY":"１５１弄","HOUSE_NO":"３４號","E_COORD97":170916.84,"N_COORD97":2545539.8900000001,"ADDRESS":"南園街１２７巷１５１弄３４號","OBJECTID":174618},"geometry":{"x":170916.84000000078,"y":2545539.8900000006}},{"attributes":{"ID":174620,"DIS_CODE":0,"TOWNNAME":"北區","LI":"力行里","LIN":"19鄰","STREET":"南園街","SECT":" ","MAREA":" ","LANE":"１２７巷","ALLEY":"１５１弄","HOUSE_NO":"３６號","E_COORD97":170921.35000000001,"N_COORD97":2545541.46,"ADDRESS":"南園街１２７巷１５１弄３６號","OBJECTID":174619},"geometry":{"x":170921.35000000056,"y":2545541.4600000028}},{"attributes":{"ID":174621,"DIS_CODE":0,"TOWNNAME":"學甲區","LI":"明宜里","LIN":"15鄰","STREET":"重信路","SECT":" ","MAREA":" ","LANE":" ","ALLEY":" ","HOUSE_NO":"１號八樓之４","E_COORD97":166124.82999999999,"N_COORD97":2570564.8900000001,"ADDRESS":"重信路１號八樓之４","OBJECTID":174620},"geometry":{"x":166124.83000000101,"y":2570564.8900000006}},{"attributes":{"ID":174622,"DIS_CODE":0,"TOWNNAME":"學甲區","LI":"明宜里","LIN":"15鄰","STREET":"重信路","SECT":" ","MAREA":" ","LANE":" ","ALLEY":" ","HOUSE_NO":"１號八樓之５","E_COORD97":166124.82999999999,"N_COORD97":2570564.8900000001,"ADDRESS":"重信路１號八樓之５","OBJECTID":174621},"geometry":{"x":166124.83000000101,"y":2570564.8900000006}},{"attributes":{"ID":174623,"DIS_CODE":0,"TOWNNAME":"佳里區","LI":"建南里","LIN":"10鄰","STREET":"中和街","SECT":" ","MAREA":" ","LANE":" ","ALLEY":" ","HOUSE_NO":"３５號","E_COORD97":165600.89000000001,"N_COORD97":2562153.4700000002,"ADDRESS":"中和街３５號","OBJECTID":174622},"geometry":{"x":165600.88999999966,"y":2562153.4700000044}},{"attributes":{"ID":174624,"DIS_CODE":0,"TOWNNAME":"北區","LI":"力行里","LIN":"19鄰","STREET":"南園街","SECT":" ","MAREA":" ","LANE":"１２７巷","ALLEY":"１５１弄","HOUSE_NO":"３８號","E_COORD97":170924.69,"N_COORD97":2545543.0299999998,"ADDRESS":"南園街１２７巷１５１弄３８號","OBJECTID":174623},"geometry":{"x":170924.69000000227,"y":2545543.0300000012}},{"attributes":{"ID":174625,"DIS_CODE":0,"TOWNNAME":"北區","LI":"力行里","LIN":"19鄰","STREET":"南園街","SECT":" ","MAREA":" ","LANE":"１２７巷","ALLEY":"１５１弄","HOUSE_NO":"４０號","E_COORD97":170929.01999999999,"N_COORD97":2545544.3999999999,"ADDRESS":"南園街１２７巷１５１弄４０號","OBJECTID":174624},"geometry":{"x":170929.02000000048,"y":2545544.4000000041}},{"attributes":{"ID":174626,"DIS_CODE":0,"TOWNNAME":"北區","LI":"力行里","LIN":"19鄰","STREET":"南園街","SECT":" ","MAREA":" ","LANE":"１２７巷","ALLEY":"１５１弄","HOUSE_NO":"４２號","E_COORD97":170933.14000000001,"N_COORD97":2545546.7599999998,"ADDRESS":"南園街１２７巷１５１弄４２號","OBJECTID":174625},"geometry":{"x":170933.1400000006,"y":2545546.7599999998}},{"attributes":{"ID":174627,"DIS_CODE":0,"TOWNNAME":"北區","LI":"力行里","LIN":"19鄰","STREET":"南園街","SECT":" ","MAREA":" ","LANE":"１２７巷","ALLEY":"１５１弄","HOUSE_NO":"４６號","E_COORD97":170936.87,"N_COORD97":2545548.3300000001,"ADDRESS":"南園街１２７巷１５１弄４６號","OBJECTID":174626},"geometry":{"x":170936.87000000197,"y":2545548.3300000019}},{"attributes":{"ID":174628,"DIS_CODE":0,"TOWNNAME":"北區","LI":"大山里","LIN":"10鄰","STREET":"精忠街","SECT":" ","MAREA":" ","LANE":"２８巷","ALLEY":"７６弄","HOUSE_NO":"１號","E_COORD97":169357.26000000001,"N_COORD97":2545552.23,"ADDRESS":"精忠街２８巷７６弄１號","OBJECTID":174627},"geometry":{"x":169357.26000000164,"y":2545552.2300000042}},{"attributes":{"ID":174629,"DIS_CODE":0,"TOWNNAME":"北區","LI":"大山里","LIN":"10鄰","STREET":"精忠街","SECT":" ","MAREA":" ","LANE":"２８巷","ALLEY":"７６弄","HOUSE_NO":"２號","E_COORD97":169359.39999999999,"N_COORD97":2545558.2000000002,"ADDRESS":"精忠街２８巷７６弄２號","OBJECTID":174628},"geometry":{"x":169359.4000000013,"y":2545558.200000003}},{"attributes":{"ID":174630,"DIS_CODE":0,"TOWNNAME":"北區","LI":"大山里","LIN":"10鄰","STREET":"精忠街","SECT":" ","MAREA":" ","LANE":"２８巷","ALLEY":"７６弄","HOUSE_NO":"３號","E_COORD97":169360.78,"N_COORD97":2545563.5600000001,"ADDRESS":"精忠街２８巷７６弄３號","OBJECTID":174629},"geometry":{"x":169360.78000000026,"y":2545563.5600000042}},{"attributes":{"ID":174631,"DIS_CODE":0,"TOWNNAME":"北區","LI":"大山里","LIN":"10鄰","STREET":"精忠街","SECT":" ","MAREA":" ","LANE":"２８巷","ALLEY":"７６弄","HOUSE_NO":"４號","E_COORD97":169360.23000000001,"N_COORD97":2545569.4199999999,"ADDRESS":"精忠街２８巷７６弄４號","OBJECTID":174630},"geometry":{"x":169360.23000000138,"y":2545569.4199999999}},{"attributes":{"ID":174632,"DIS_CODE":0,"TOWNNAME":"安平區","LI":"平安里","LIN":"19鄰","STREET":"安平路","SECT":" ","MAREA":" ","LANE":"６０６巷","ALLEY":"３５弄","HOUSE_NO":"１１號","E_COORD97":164831.51999999999,"N_COORD97":2544531.0800000001,"ADDRESS":"安平路６０６巷３５弄１１號","OBJECTID":174631},"geometry":{"x":164831.52000000048,"y":2544531.0800000001}},{"attributes":{"ID":174633,"DIS_CODE":0,"TOWNNAME":"安平區","LI":"平安里","LIN":"19鄰","STREET":"安平路","SECT":" ","MAREA":" ","LANE":"６０６巷","ALLEY":"３５弄","HOUSE_NO":"１３號","E_COORD97":164827.85000000001,"N_COORD97":2544531.6899999999,"ADDRESS":"安平路６０６巷３５弄１３號","OBJECTID":174632},"geometry":{"x":164827.84999999963,"y":2544531.6900000013}},{"attributes":{"ID":174634,"DIS_CODE":0,"TOWNNAME":"佳里區","LI":"建南里","LIN":"10鄰","STREET":"中和街","SECT":" ","MAREA":" ","LANE":" ","ALLEY":" ","HOUSE_NO":"３號","E_COORD97":165607.38,"N_COORD97":2562080.6899999999,"ADDRESS":"中和街３號","OBJECTID":174633},"geometry":{"x":165607.38000000082,"y":2562080.6900000013}},{"attributes":{"ID":174635,"DIS_CODE":0,"TOWNNAME":"新化區","LI":"唪口里","LIN":"10鄰","STREET":" ","SECT":" ","MAREA":"唪口","LANE":" ","ALLEY":" ","HOUSE_NO":"１４９號","E_COORD97":177683.75,"N_COORD97":2548990.25,"ADDRESS":"唪口１４９號","OBJECTID":174634},"geometry":{"x":177683.75,"y":2548990.2500000019}},{"attributes":{"ID":174636,"DIS_CODE":0,"TOWNNAME":"新化區","LI":"唪口里","LIN":"10鄰","STREET":" ","SECT":" ","MAREA":"唪口","LANE":" ","ALLEY":" ","HOUSE_NO":"１５１號之４","E_COORD97":177625.78,"N_COORD97":2548981.2599999998,"ADDRESS":"唪口１５１號之４","OBJECTID":174635},"geometry":{"x":177625.78000000119,"y":2548981.2599999998}},{"attributes":{"ID":174637,"DIS_CODE":0,"TOWNNAME":"新化區","LI":"\u25A0拔里","LIN":"10鄰","STREET":" ","SECT":" ","MAREA":"牧場","LANE":" ","ALLEY":" ","HOUSE_NO":"９３號之１","E_COORD97":181857.95999999999,"N_COORD97":2551269.2599999998,"ADDRESS":"牧場９３號之１","OBJECTID":174636},"geometry":{"x":181857.95999999996,"y":2551269.2599999998}},{"attributes":{"ID":174638,"DIS_CODE":0,"TOWNNAME":"新化區","LI":"\u25A0拔里","LIN":"10鄰","STREET":" ","SECT":" ","MAREA":"牧場","LANE":" ","ALLEY":" ","HOUSE_NO":"９７號","E_COORD97":181867.42999999999,"N_COORD97":2551211.25,"ADDRESS":"牧場９７號","OBJECTID":174637},"geometry":{"x":181867.4299999997,"y":2551211.2500000019}},{"attributes":{"ID":174639,"DIS_CODE":0,"TOWNNAME":"佳里區","LI":"鎮山里","LIN":"10鄰","STREET":"中興街","SECT":" ","MAREA":" ","LANE":" ","ALLEY":" ","HOUSE_NO":"３３２號","E_COORD97":166179.25,"N_COORD97":2561594.4399999999,"ADDRESS":"中興街３３２號","OBJECTID":174638},"geometry":{"x":166179.25000000093,"y":2561594.4400000013}},{"attributes":{"ID":174640,"DIS_CODE":0,"TOWNNAME":"佳里區","LI":"鎮山里","LIN":"10鄰","STREET":"中興街","SECT":" ","MAREA":" ","LANE":" ","ALLEY":" ","HOUSE_NO":"３３６號","E_COORD97":166178.32999999999,"N_COORD97":2561598.1200000001,"ADDRESS":"中興街３３６號","OBJECTID":174639},"geometry":{"x":166178.33000000007,"y":2561598.1200000029}},{"attributes":{"ID":174641,"DIS_CODE":0,"TOWNNAME":"新化區","LI":"\u25A0拔里","LIN":"10鄰","STREET":" ","SECT":" ","MAREA":"牧場","LANE":" ","ALLEY":" ","HOUSE_NO":"８８號","E_COORD97":181901.92999999999,"N_COORD97":2551296.25,"ADDRESS":"牧場８８號","OBJECTID":174640},"geometry":{"x":181901.9299999997,"y":2551296.2500000019}},{"attributes":{"ID":174642,"DIS_CODE":0,"TOWNNAME":"安平區","LI":"平安里","LIN":"19鄰","STREET":"安平路","SECT":" ","MAREA":" ","LANE":"６０６巷","ALLEY":"３５弄","HOUSE_NO":"１５號","E_COORD97":164824.64000000001,"N_COORD97":2544533.2200000002,"ADDRESS":"安平路６０６巷３５弄１５號","OBJECTID":174641},"geometry":{"x":164824.63999999966,"y":2544533.2200000025}},{"attributes":{"ID":174643,"DIS_CODE":0,"TOWNNAME":"安平區","LI":"平安里","LIN":"19鄰","STREET":"安平路","SECT":" ","MAREA":" ","LANE":"６０６巷","ALLEY":"３５弄","HOUSE_NO":"１７號","E_COORD97":164821.12,"N_COORD97":2544534.1400000001,"ADDRESS":"安平路６０６巷３５弄１７號","OBJECTID":174642},"geometry":{"x":164821.12000000104,"y":2544534.1400000025}},{"attributes":{"ID":174644,"DIS_CODE":0,"TOWNNAME":"新化區","LI":"\u25A0拔里","LIN":"10鄰","STREET":" ","SECT":" ","MAREA":"牧場","LANE":" ","ALLEY":" ","HOUSE_NO":"１０１號","E_COORD97":181867.17999999999,"N_COORD97":2551184.25,"ADDRESS":"牧場１０１號","OBJECTID":174643},"geometry":{"x":181867.18000000063,"y":2551184.2500000019}},{"attributes":{"ID":174645,"DIS_CODE":0,"TOWNNAME":"安平區","LI":"平安里","LIN":"19鄰","STREET":"安平路","SECT":" ","MAREA":" ","LANE":"６０６巷","ALLEY":"３５弄","HOUSE_NO":"１９號","E_COORD97":164817.44,"N_COORD97":2544535.52,"ADDRESS":"安平路６０６巷３５弄１９號","OBJECTID":174644},"geometry":{"x":164817.44000000134,"y":2544535.5200000033}},{"attributes":{"ID":174646,"DIS_CODE":0,"TOWNNAME":"安平區","LI":"平安里","LIN":"19鄰","STREET":"安平路","SECT":" ","MAREA":" ","LANE":"６０６巷","ALLEY":"３５弄","HOUSE_NO":"２１號","E_COORD97":164814.07999999999,"N_COORD97":2544536.7400000002,"ADDRESS":"安平路６０６巷３５弄２１號","OBJECTID":174645},"geometry":{"x":164814.08000000194,"y":2544536.7400000002}},{"attributes":{"ID":174647,"DIS_CODE":0,"TOWNNAME":"新化區","LI":"\u25A0拔里","LIN":"10鄰","STREET":" ","SECT":" ","MAREA":"牧場","LANE":" ","ALLEY":" ","HOUSE_NO":"６２號","E_COORD97":181761.03,"N_COORD97":2551252.25,"ADDRESS":"牧場６２號","OBJECTID":174646},"geometry":{"x":181761.03000000026,"y":2551252.2500000019}},{"attributes":{"ID":174648,"DIS_CODE":0,"TOWNNAME":"新化區","LI":"山\u25A0里","LIN":"10鄰","STREET":" ","SECT":" ","MAREA":"五甲勢","LANE":" ","ALLEY":" ","HOUSE_NO":"３２號","E_COORD97":181893.28,"N_COORD97":2545745.2599999998,"ADDRESS":"五甲勢３２號","OBJECTID":174647},"geometry":{"x":181893.28000000026,"y":2545745.2600000016}},{"attributes":{"ID":174649,"DIS_CODE":0,"TOWNNAME":"新化區","LI":"唪口里","LIN":"10鄰","STREET":" ","SECT":" ","MAREA":"唪口","LANE":" ","ALLEY":" ","HOUSE_NO":"１４２號之７","E_COORD97":177624.59,"N_COORD97":2549162.2599999998,"ADDRESS":"唪口１４２號之７","OBJECTID":174648},"geometry":{"x":177624.59000000078,"y":2549162.2600000035}},{"attributes":{"ID":174650,"DIS_CODE":0,"TOWNNAME":"新化區","LI":"山\u25A0里","LIN":"10鄰","STREET":" ","SECT":" ","MAREA":"五甲勢","LANE":" ","ALLEY":" ","HOUSE_NO":"３１號","E_COORD97":181885.07999999999,"N_COORD97":2545731.2599999998,"ADDRESS":"五甲勢３１號","OBJECTID":174649},"geometry":{"x":181885.08000000101,"y":2545731.2600000035}},{"attributes":{"ID":174651,"DIS_CODE":0,"TOWNNAME":"永康區","LI":"西勢里","LIN":"24鄰","STREET":"廣興街","SECT":" ","MAREA":" ","LANE":" ","ALLEY":" ","HOUSE_NO":"６２號","E_COORD97":176082.95000000001,"N_COORD97":2546573.1899999999,"ADDRESS":"廣興街６２號","OBJECTID":174650},"geometry":{"x":176082.95000000205,"y":2546573.1900000013}},{"attributes":{"ID":174652,"DIS_CODE":0,"TOWNNAME":"新化區","LI":"唪口里","LIN":"10鄰","STREET":" ","SECT":" ","MAREA":"唪口","LANE":" ","ALLEY":" ","HOUSE_NO":"１５３號","E_COORD97":177605.85000000001,"N_COORD97":2548972.25,"ADDRESS":"唪口１５３號","OBJECTID":174651},"geometry":{"x":177605.85000000056,"y":2548972.2499999981}},{"attributes":{"ID":174653,"DIS_CODE":0,"TOWNNAME":"新化區","LI":"唪口里","LIN":"10鄰","STREET":" ","SECT":" ","MAREA":"唪口","LANE":" ","ALLEY":" ","HOUSE_NO":"１４５號之１","E_COORD97":177759.17999999999,"N_COORD97":2549012.2599999998,"ADDRESS":"唪口１４５號之１","OBJECTID":174652},"geometry":{"x":177759.18000000156,"y":2549012.2599999998}},{"attributes":{"ID":174654,"DIS_CODE":0,"TOWNNAME":"新化區","LI":"\u25A0拔里","LIN":"10鄰","STREET":" ","SECT":" ","MAREA":"牧場","LANE":" ","ALLEY":" ","HOUSE_NO":"１０７號","E_COORD97":181915.17999999999,"N_COORD97":2551100.25,"ADDRESS":"牧場１０７號","OBJECTID":174653},"geometry":{"x":181915.1799999997,"y":2551100.25}},{"attributes":{"ID":174655,"DIS_CODE":0,"TOWNNAME":"永康區","LI":"西勢里","LIN":"13鄰","STREET":"西勢路","SECT":" ","MAREA":" ","LANE":" ","ALLEY":" ","HOUSE_NO":"９９號","E_COORD97":176085.23000000001,"N_COORD97":2546752.54,"ADDRESS":"西勢路９９號","OBJECTID":174654},"geometry":{"x":176085.23000000138,"y":2546752.5400000028}},{"attributes":{"ID":174656,"DIS_CODE":0,"TOWNNAME":"新化區","LI":"太平里","LIN":"10鄰","STREET":"中正路","SECT":" ","MAREA":" ","LANE":" ","ALLEY":" ","HOUSE_NO":"８５５號之９","E_COORD97":178553.85000000001,"N_COORD97":2549522.2599999998,"ADDRESS":"中正路８５５號之９","OBJECTID":174655},"geometry":{"x":178553.84999999963,"y":2549522.2600000016}},{"attributes":{"ID":174657,"DIS_CODE":0,"TOWNNAME":"新化區","LI":"武安里","LIN":"10鄰","STREET":"和平街","SECT":" ","MAREA":" ","LANE":" ","ALLEY":" ","HOUSE_NO":"１３１號","E_COORD97":178909.22,"N_COORD97":2548151.25,"ADDRESS":"和平街１３１號","OBJECTID":174656},"geometry":{"x":178909.21999999974,"y":2548151.25}},{"attributes":{"ID":174658,"DIS_CODE":0,"TOWNNAME":"安平區","LI":"平安里","LIN":"19鄰","STREET":"安平路","SECT":" ","MAREA":" ","LANE":"６０６巷","ALLEY":"３５弄","HOUSE_NO":"２２號","E_COORD97":164810.25,"N_COORD97":2544551.1299999999,"ADDRESS":"安平路６０６巷３５弄２２號","OBJECTID":174657},"geometry":{"x":164810.25,"y":2544551.1300000027}},{"attributes":{"ID":174659,"DIS_CODE":0,"TOWNNAME":"安平區","LI":"平安里","LIN":"19鄰","STREET":"安平路","SECT":" ","MAREA":" ","LANE":"６０６巷","ALLEY":"３５弄","HOUSE_NO":"２３號","E_COORD97":164810.56,"N_COORD97":2544537.2000000002,"ADDRESS":"安平路６０６巷３５弄２３號","OBJECTID":174658},"geometry":{"x":164810.56000000052,"y":2544537.1999999974}},{"attributes":{"ID":174660,"DIS_CODE":0,"TOWNNAME":"安平區","LI":"平安里","LIN":"19鄰","STREET":"安平路","SECT":" ","MAREA":" ","LANE":"６０６巷","ALLEY":"３５弄","HOUSE_NO":"２４號","E_COORD97":164805.66,"N_COORD97":2544552.2000000002,"ADDRESS":"安平路６０６巷３５弄２４號","OBJECTID":174659},"geometry":{"x":164805.66000000108,"y":2544552.2000000011}},{"attributes":{"ID":174661,"DIS_CODE":0,"TOWNNAME":"安平區","LI":"平安里","LIN":"19鄰","STREET":"安平路","SECT":" ","MAREA":" ","LANE":"６０６巷","ALLEY":"３５弄","HOUSE_NO":"２５號","E_COORD97":164806.73000000001,"N_COORD97":2544538.4300000002,"ADDRESS":"安平路６０６巷３５弄２５號","OBJECTID":174660},"geometry":{"x":164806.73000000138,"y":2544538.4299999997}},{"attributes":{"ID":174662,"DIS_CODE":0,"TOWNNAME":"安平區","LI":"平安里","LIN":"19鄰","STREET":"安平路","SECT":" ","MAREA":" ","LANE":"６０６巷","ALLEY":"３５弄","HOUSE_NO":"２６號","E_COORD97":164801.07000000001,"N_COORD97":2544553.8799999999,"ADDRESS":"安平路６０６巷３５弄２６號","OBJECTID":174661},"geometry":{"x":164801.07000000123,"y":2544553.8800000008}},{"attributes":{"ID":174663,"DIS_CODE":0,"TOWNNAME":"安平區","LI":"平安里","LIN":"19鄰","STREET":"安平路","SECT":" ","MAREA":" ","LANE":"６０６巷","ALLEY":"３５弄","HOUSE_NO":"２７號","E_COORD97":164803.37,"N_COORD97":2544539.5,"ADDRESS":"安平路６０６巷３５弄２７號","OBJECTID":174662},"geometry":{"x":164803.37000000011,"y":2544539.5000000037}},{"attributes":{"ID":174664,"DIS_CODE":0,"TOWNNAME":"安平區","LI":"平安里","LIN":"19鄰","STREET":"安平路","SECT":" ","MAREA":" ","LANE":"６０６巷","ALLEY":"３５弄","HOUSE_NO":"２８號","E_COORD97":164796.32999999999,"N_COORD97":2544555.7200000002,"ADDRESS":"安平路６０６巷３５弄２８號","OBJECTID":174663},"geometry":{"x":164796.33000000007,"y":2544555.7200000044}},{"attributes":{"ID":174665,"DIS_CODE":0,"TOWNNAME":"安平區","LI":"平安里","LIN":"19鄰","STREET":"安平路","SECT":" ","MAREA":" ","LANE":"６０６巷","ALLEY":"３５弄","HOUSE_NO":"２９之１號","E_COORD97":164791.89000000001,"N_COORD97":2544542.25,"ADDRESS":"安平路６０６巷３５弄２９之１號","OBJECTID":174664},"geometry":{"x":164791.8900000006,"y":2544542.2500000019}},{"attributes":{"ID":174666,"DIS_CODE":0,"TOWNNAME":"新化區","LI":"全興里","LIN":"10鄰","STREET":" ","SECT":" ","MAREA":"竹子\u25A0","LANE":" ","ALLEY":" ","HOUSE_NO":"１６１號之２","E_COORD97":177389.98999999999,"N_COORD97":2547359.2599999998,"ADDRESS":"竹子\u25A0１６１號之２","OBJECTID":174665},"geometry":{"x":177389.99000000115,"y":2547359.2600000016}},{"attributes":{"ID":174667,"DIS_CODE":0,"TOWNNAME":"新化區","LI":"山\u25A0里","LIN":"10鄰","STREET":" ","SECT":" ","MAREA":"五甲勢","LANE":" ","ALLEY":" ","HOUSE_NO":"３７號之１","E_COORD97":181841.60999999999,"N_COORD97":2545725.2599999998,"ADDRESS":"五甲勢３７號之１","OBJECTID":174666},"geometry":{"x":181841.61000000034,"y":2545725.2600000016}},{"attributes":{"ID":174668,"DIS_CODE":0,"TOWNNAME":"新化區","LI":"山\u25A0里","LIN":"10鄰","STREET":" ","SECT":" ","MAREA":"五甲勢","LANE":" ","ALLEY":" ","HOUSE_NO":"５６號","E_COORD97":181905.17999999999,"N_COORD97":2545574.2599999998,"ADDRESS":"五甲勢５６號","OBJECTID":174667},"geometry":{"x":181905.1799999997,"y":2545574.2599999998}},{"attributes":{"ID":174669,"DIS_CODE":0,"TOWNNAME":"新化區","LI":"全興里","LIN":"10鄰","STREET":" ","SECT":" ","MAREA":"竹子\u25A0","LANE":" ","ALLEY":" ","HOUSE_NO":"１６６號之２０","E_COORD97":177249.99450299999,"N_COORD97":2547315.3417000002,"ADDRESS":"竹子\u25A0１６６號之２０","OBJECTID":174668},"geometry":{"x":177249.99450300075,"y":2547315.3417039998}},{"attributes":{"ID":174670,"DIS_CODE":0,"TOWNNAME":"新化區","LI":"\u25A0拔里","LIN":"10鄰","STREET":" ","SECT":" ","MAREA":"牧場","LANE":" ","ALLEY":" ","HOUSE_NO":"９０號之３","E_COORD97":181926.88,"N_COORD97":2551258.2599999998,"ADDRESS":"牧場９０號之３","OBJECTID":174669},"geometry":{"x":181926.88000000082,"y":2551258.2600000016}},{"attributes":{"ID":174671,"DIS_CODE":0,"TOWNNAME":"新化區","LI":"唪口里","LIN":"10鄰","STREET":" ","SECT":" ","MAREA":"唪口","LANE":" ","ALLEY":" ","HOUSE_NO":"１５７號","E_COORD97":177553.54999999999,"N_COORD97":2548913.25,"ADDRESS":"唪口１５７號","OBJECTID":174670},"geometry":{"x":177553.55000000075,"y":2548913.25}},{"attributes":{"ID":174672,"DIS_CODE":0,"TOWNNAME":"新化區","LI":"\u25A0拔里","LIN":"10鄰","STREET":" ","SECT":" ","MAREA":"牧場","LANE":" ","ALLEY":" ","HOUSE_NO":"９１號","E_COORD97":181899.03,"N_COORD97":2551263.25,"ADDRESS":"牧場９１號","OBJECTID":174671},"geometry":{"x":181899.03000000119,"y":2551263.25}},{"attributes":{"ID":174673,"DIS_CODE":0,"TOWNNAME":"新化區","LI":"唪口里","LIN":"10鄰","STREET":" ","SECT":" ","MAREA":"唪口","LANE":" ","ALLEY":" ","HOUSE_NO":"１４５號","E_COORD97":177717.64999999999,"N_COORD97":2549004.25,"ADDRESS":"唪口１４５號","OBJECTID":174672},"geometry":{"x":177717.65000000224,"y":2549004.2500000019}},{"attributes":{"ID":174674,"DIS_CODE":0,"TOWNNAME":"新化區","LI":"礁坑里","LIN":"10鄰","STREET":" ","SECT":" ","MAREA":"蔡厝仔","LANE":" ","ALLEY":" ","HOUSE_NO":"８號","E_COORD97":184478.72,"N_COORD97":2548761.25,"ADDRESS":"蔡厝仔８號","OBJECTID":174673},"geometry":{"x":184478.72000000067,"y":2548761.25}},{"attributes":{"ID":174675,"DIS_CODE":0,"TOWNNAME":"永康區","LI":"西勢里","LIN":"8鄰","STREET":"富強路","SECT":"一段","MAREA":" ","LANE":" ","ALLEY":" ","HOUSE_NO":"３０２號","E_COORD97":175738.54000000001,"N_COORD97":2546635.5299999998,"ADDRESS":"富強路一段３０２號","OBJECTID":174674},"geometry":{"x":175738.54000000097,"y":2546635.5300000012}},{"attributes":{"ID":174676,"DIS_CODE":0,"TOWNNAME":"東區","LI":"崇文里","LIN":"25鄰","STREET":"崇德二十二街","SECT":" ","MAREA":" ","LANE":" ","ALLEY":" ","HOUSE_NO":"１１１號","E_COORD97":171078.79999999999,"N_COORD97":2540824.73,"ADDRESS":"崇德二十二街１１１號","OBJECTID":174675},"geometry":{"x":171078.79999999981,"y":2540824.7300000004}},{"attributes":{"ID":174677,"DIS_CODE":0,"TOWNNAME":"安平區","LI":"平安里","LIN":"19鄰","STREET":"安平路","SECT":" ","MAREA":" ","LANE":"６０６巷","ALLEY":"３５弄","HOUSE_NO":"７號","E_COORD97":164839.48000000001,"N_COORD97":2544528.6299999999,"ADDRESS":"安平路６０６巷３５弄７號","OBJECTID":174676},"geometry":{"x":164839.48000000138,"y":2544528.6300000008}},{"attributes":{"ID":174678,"DIS_CODE":0,"TOWNNAME":"安平區","LI":"石門里","LIN":"1鄰","STREET":"安北路","SECT":" ","MAREA":" ","LANE":"１６巷","ALLEY":"４５弄","HOUSE_NO":"１０號","E_COORD97":164749.13,"N_COORD97":2544632.1400000001,"ADDRESS":"安北路１６巷４５弄１０號","OBJECTID":174677},"geometry":{"x":164749.13000000175,"y":2544632.1400000025}},{"attributes":{"ID":174679,"DIS_CODE":0,"TOWNNAME":"安平區","LI":"石門里","LIN":"1鄰","STREET":"安北路","SECT":" ","MAREA":" ","LANE":"１６巷","ALLEY":"４５弄","HOUSE_NO":"１１號","E_COORD97":164740.35999999999,"N_COORD97":2544616.6899999999,"ADDRESS":"安北路１６巷４５弄１１號","OBJECTID":174678},"geometry":{"x":164740.36000000034,"y":2544616.6900000013}},{"attributes":{"ID":174680,"DIS_CODE":0,"TOWNNAME":"安平區","LI":"石門里","LIN":"1鄰","STREET":"安北路","SECT":" ","MAREA":" ","LANE":"１６巷","ALLEY":"４５弄","HOUSE_NO":"１２號","E_COORD97":164745.78,"N_COORD97":2544633.9500000002,"ADDRESS":"安北路１６巷４５弄１２號","OBJECTID":174679},"geometry":{"x":164745.78000000119,"y":2544633.950000003}},{"attributes":{"ID":174681,"DIS_CODE":0,"TOWNNAME":"安平區","LI":"石門里","LIN":"1鄰","STREET":"安北路","SECT":" ","MAREA":" ","LANE":"１６巷","ALLEY":"４５弄","HOUSE_NO":"１號","E_COORD97":164759.45000000001,"N_COORD97":2544610.7599999998,"ADDRESS":"安北路１６巷４５弄１號","OBJECTID":174680},"geometry":{"x":164759.45000000112,"y":2544610.7599999998}},{"attributes":{"ID":174682,"DIS_CODE":0,"TOWNNAME":"安平區","LI":"石門里","LIN":"1鄰","STREET":"安北路","SECT":" ","MAREA":" ","LANE":"１６巷","ALLEY":"４５弄","HOUSE_NO":"２號","E_COORD97":164765.38,"N_COORD97":2544628.54,"ADDRESS":"安北路１６巷４５弄２號","OBJECTID":174681},"geometry":{"x":164765.37999999989,"y":2544628.5399999991}},{"attributes":{"ID":174683,"DIS_CODE":0,"TOWNNAME":"東區","LI":"崇文里","LIN":"25鄰","STREET":"崇德二十二街","SECT":" ","MAREA":" ","LANE":" ","ALLEY":" ","HOUSE_NO":"１２９號","E_COORD97":171125.95999999999,"N_COORD97":2540817.5299999998,"ADDRESS":"崇德二十二街１２９號","OBJECTID":174682},"geometry":{"x":171125.96000000183,"y":2540817.5300000012}},{"attributes":{"ID":174684,"DIS_CODE":0,"TOWNNAME":"東區","LI":"崇文里","LIN":"25鄰","STREET":"崇德二十二街","SECT":" ","MAREA":" ","LANE":" ","ALLEY":" ","HOUSE_NO":"１３１號","E_COORD97":171131.85000000001,"N_COORD97":2540817.8500000001,"ADDRESS":"崇德二十二街１３１號","OBJECTID":174683},"geometry":{"x":171131.85000000056,"y":2540817.8500000015}},{"attributes":{"ID":174685,"DIS_CODE":0,"TOWNNAME":"東區","LI":"崇文里","LIN":"25鄰","STREET":"崇德二十二街","SECT":" ","MAREA":" ","LANE":" ","ALLEY":" ","HOUSE_NO":"１３３號","E_COORD97":171137.73999999999,"N_COORD97":2540818.1800000002,"ADDRESS":"崇德二十二街１３３號","OBJECTID":174684},"geometry":{"x":171137.73999999929,"y":2540818.1799999997}},{"attributes":{"ID":174686,"DIS_CODE":0,"TOWNNAME":"東區","LI":"崇文里","LIN":"25鄰","STREET":"崇德二十二街","SECT":" ","MAREA":" ","LANE":" ","ALLEY":" ","HOUSE_NO":"１３５號","E_COORD97":171143.97,"N_COORD97":2540817.5299999998,"ADDRESS":"崇德二十二街１３５號","OBJECTID":174685},"geometry":{"x":171143.96999999974,"y":2540817.5300000012}},{"attributes":{"ID":174687,"DIS_CODE":0,"TOWNNAME":"東區","LI":"崇文里","LIN":"25鄰","STREET":"崇德二十二街","SECT":" ","MAREA":" ","LANE":" ","ALLEY":" ","HOUSE_NO":"１３７號","E_COORD97":171151.17000000001,"N_COORD97":2540817.8500000001,"ADDRESS":"崇德二十二街１３７號","OBJECTID":174686},"geometry":{"x":171151.16999999993,"y":2540817.8500000015}},{"attributes":{"ID":174688,"DIS_CODE":0,"TOWNNAME":"安平區","LI":"石門里","LIN":"1鄰","STREET":"安北路","SECT":" ","MAREA":" ","LANE":"１６巷","ALLEY":"４５弄","HOUSE_NO":"３號","E_COORD97":164754.79999999999,"N_COORD97":2544611.2799999998,"ADDRESS":"安北路１６巷４５弄３號","OBJECTID":174687},"geometry":{"x":164754.80000000075,"y":2544611.2799999993}},{"attributes":{"ID":174689,"DIS_CODE":0,"TOWNNAME":"安平區","LI":"石門里","LIN":"1鄰","STREET":"安北路","SECT":" ","MAREA":" ","LANE":"１６巷","ALLEY":"４５弄","HOUSE_NO":"５號","E_COORD97":164751.45000000001,"N_COORD97":2544612.3100000001,"ADDRESS":"安北路１６巷４５弄５號","OBJECTID":174688},"geometry":{"x":164751.45000000019,"y":2544612.3100000005}},{"attributes":{"ID":174690,"DIS_CODE":0,"TOWNNAME":"安平區","LI":"石門里","LIN":"1鄰","STREET":"安北路","SECT":" ","MAREA":" ","LANE":"１６巷","ALLEY":"４５弄","HOUSE_NO":"６號","E_COORD97":164757.13,"N_COORD97":2544630.6000000001,"ADDRESS":"安北路１６巷４５弄６號","OBJECTID":174689},"geometry":{"x":164757.12999999989,"y":2544630.6000000015}},{"attributes":{"ID":174691,"DIS_CODE":0,"TOWNNAME":"安平區","LI":"石門里","LIN":"1鄰","STREET":"安北路","SECT":" ","MAREA":" ","LANE":"１６巷","ALLEY":"４５弄","HOUSE_NO":"７號","E_COORD97":164747.84,"N_COORD97":2544613.3399999999,"ADDRESS":"安北路１６巷４５弄７號","OBJECTID":174690},"geometry":{"x":164747.84000000078,"y":2544613.3400000017}},{"attributes":{"ID":174692,"DIS_CODE":0,"TOWNNAME":"安平區","LI":"石門里","LIN":"1鄰","STREET":"安北路","SECT":" ","MAREA":" ","LANE":"１６巷","ALLEY":"４５弄","HOUSE_NO":"８號","E_COORD97":164754.03,"N_COORD97":2544631.6299999999,"ADDRESS":"安北路１６巷４５弄８號","OBJECTID":174691},"geometry":{"x":164754.03000000119,"y":2544631.629999999}},{"attributes":{"ID":174693,"DIS_CODE":0,"TOWNNAME":"安平區","LI":"石門里","LIN":"1鄰","STREET":"安北路","SECT":" ","MAREA":" ","LANE":"１６巷","ALLEY":"４５弄","HOUSE_NO":"９號","E_COORD97":164743.97,"N_COORD97":2544615.6600000001,"ADDRESS":"安北路１６巷４５弄９號","OBJECTID":174692},"geometry":{"x":164743.97000000067,"y":2544615.6600000001}},{"attributes":{"ID":174694,"DIS_CODE":0,"TOWNNAME":"安平區","LI":"西門里","LIN":"7鄰","STREET":"安北路","SECT":" ","MAREA":" ","LANE":"２３３巷","ALLEY":"４弄","HOUSE_NO":"１號","E_COORD97":163803.32000000001,"N_COORD97":2544719.4399999999,"ADDRESS":"安北路２３３巷４弄１號","OBJECTID":174693},"geometry":{"x":163803.3200000003,"y":2544719.4400000013}},{"attributes":{"ID":174695,"DIS_CODE":0,"TOWNNAME":"安平區","LI":"石門里","LIN":"1鄰","STREET":"安北路","SECT":" ","MAREA":" ","LANE":"１６巷","ALLEY":"３５弄","HOUSE_NO":"１０號","E_COORD97":164735.70999999999,"N_COORD97":2544595.5600000001,"ADDRESS":"安北路１６巷３５弄１０號","OBJECTID":174694},"geometry":{"x":164735.71000000089,"y":2544595.5600000024}},{"attributes":{"ID":174696,"DIS_CODE":0,"TOWNNAME":"東區","LI":"崇文里","LIN":"25鄰","STREET":"崇德二十二街","SECT":" ","MAREA":" ","LANE":" ","ALLEY":" ","HOUSE_NO":"１３９號","E_COORD97":171155.75,"N_COORD97":2540817.2000000002,"ADDRESS":"崇德二十二街１３９號","OBJECTID":174695},"geometry":{"x":171155.75,"y":2540817.1999999993}},{"attributes":{"ID":174697,"DIS_CODE":0,"TOWNNAME":"東區","LI":"崇文里","LIN":"25鄰","STREET":"崇德二十二街","SECT":" ","MAREA":" ","LANE":" ","ALLEY":" ","HOUSE_NO":"１４１號","E_COORD97":171161.64999999999,"N_COORD97":2540818.5099999998,"ADDRESS":"崇德二十二街１４１號","OBJECTID":174696},"geometry":{"x":171161.65000000037,"y":2540818.5099999998}},{"attributes":{"ID":174698,"DIS_CODE":0,"TOWNNAME":"東區","LI":"崇文里","LIN":"25鄰","STREET":"崇德二十二街","SECT":" ","MAREA":" ","LANE":" ","ALLEY":" ","HOUSE_NO":"１４５號","E_COORD97":171170.16,"N_COORD97":2540824.0699999998,"ADDRESS":"崇德二十二街１４５號","OBJECTID":174697},"geometry":{"x":171170.16000000015,"y":2540824.0700000022}},{"attributes":{"ID":174699,"DIS_CODE":0,"TOWNNAME":"東區","LI":"崇文里","LIN":"25鄰","STREET":"崇德二十二街","SECT":" ","MAREA":" ","LANE":" ","ALLEY":" ","HOUSE_NO":"１４７號","E_COORD97":171179.32999999999,"N_COORD97":2540830.9500000002,"ADDRESS":"崇德二十二街１４７號","OBJECTID":174698},"geometry":{"x":171179.32999999914,"y":2540830.9500000011}},{"attributes":{"ID":174700,"DIS_CODE":0,"TOWNNAME":"東區","LI":"崇文里","LIN":"4鄰","STREET":"崇德十六街","SECT":" ","MAREA":" ","LANE":" ","ALLEY":" ","HOUSE_NO":"２之６號","E_COORD97":170847.17999999999,"N_COORD97":2541120.0099999998,"ADDRESS":"崇德十六街２之６號","OBJECTID":174699},"geometry":{"x":170847.1799999997,"y":2541120.0100000016}},{"attributes":{"ID":174701,"DIS_CODE":0,"TOWNNAME":"東區","LI":"崇文里","LIN":"4鄰","STREET":"崇德十六街","SECT":" ","MAREA":" ","LANE":" ","ALLEY":" ","HOUSE_NO":"２之１號","E_COORD97":170829.85999999999,"N_COORD97":2541120.0099999998,"ADDRESS":"崇德十六街２之１號","OBJECTID":174700},"geometry":{"x":170829.86000000034,"y":2541120.0100000016}},{"attributes":{"ID":174702,"DIS_CODE":0,"TOWNNAME":"安平區","LI":"石門里","LIN":"3鄰","STREET":"安北路","SECT":" ","MAREA":" ","LANE":"１６巷","ALLEY":"２５弄","HOUSE_NO":"１５號","E_COORD97":164685.88,"N_COORD97":2544603.6899999999,"ADDRESS":"安北路１６巷２５弄１５號","OBJECTID":174701},"geometry":{"x":164685.87999999989,"y":2544603.6900000013}},{"attributes":{"ID":174703,"DIS_CODE":0,"TOWNNAME":"安平區","LI":"石門里","LIN":"3鄰","STREET":"安北路","SECT":" ","MAREA":" ","LANE":"１６巷","ALLEY":"２５弄","HOUSE_NO":"１６號","E_COORD97":164683.29999999999,"N_COORD97":2544606.52,"ADDRESS":"安北路１６巷２５弄１６號","OBJECTID":174702},"geometry":{"x":164683.29999999888,"y":2544606.5199999977}},{"attributes":{"ID":174704,"DIS_CODE":0,"TOWNNAME":"東區","LI":"崇文里","LIN":"4鄰","STREET":"崇德十六街","SECT":" ","MAREA":" ","LANE":" ","ALLEY":" ","HOUSE_NO":"２之２號","E_COORD97":170833.26000000001,"N_COORD97":2541121.3700000001,"ADDRESS":"崇德十六街２之２號","OBJECTID":174703},"geometry":{"x":170833.25999999978,"y":2541121.3700000029}},{"attributes":{"ID":174705,"DIS_CODE":0,"TOWNNAME":"下營區","LI":"大屯里","LIN":"10鄰","STREET":" ","SECT":" ","MAREA":"大屯寮","LANE":" ","ALLEY":" ","HOUSE_NO":"７９號","E_COORD97":172090.16,"N_COORD97":2570644.1099999999,"ADDRESS":"大屯寮７９號","OBJECTID":174704},"geometry":{"x":172090.16000000015,"y":2570644.1100000031}},{"attributes":{"ID":174706,"DIS_CODE":0,"TOWNNAME":"永康區","LI":"西勢里","LIN":"14鄰","STREET":"西勢路","SECT":" ","MAREA":" ","LANE":" ","ALLEY":" ","HOUSE_NO":"７３號","E_COORD97":176149.89999999999,"N_COORD97":2546749.9100000001,"ADDRESS":"西勢路７３號","OBJECTID":174705},"geometry":{"x":176149.9000000013,"y":2546749.9100000001}},{"attributes":{"ID":174707,"DIS_CODE":0,"TOWNNAME":"安平區","LI":"石門里","LIN":"4鄰","STREET":"安北路","SECT":" ","MAREA":" ","LANE":"１６巷","ALLEY":"５弄","HOUSE_NO":"１０號","E_COORD97":164695.07999999999,"N_COORD97":2544526.52,"ADDRESS":"安北路１６巷５弄１０號","OBJECTID":174706},"geometry":{"x":164695.08000000007,"y":2544526.5200000014}},{"attributes":{"ID":174708,"DIS_CODE":0,"TOWNNAME":"安平區","LI":"石門里","LIN":"4鄰","STREET":"安北路","SECT":" ","MAREA":" ","LANE":"１６巷","ALLEY":"５弄","HOUSE_NO":"１１號","E_COORD97":164679.60999999999,"N_COORD97":2544520.5899999999,"ADDRESS":"安北路１６巷５弄１１號","OBJECTID":174707},"geometry":{"x":164679.61000000034,"y":2544520.5899999999}},{"attributes":{"ID":174709,"DIS_CODE":0,"TOWNNAME":"安平區","LI":"石門里","LIN":"4鄰","STREET":"安北路","SECT":" ","MAREA":" ","LANE":"１６巷","ALLEY":"５弄","HOUSE_NO":"１２號","E_COORD97":164692.25,"N_COORD97":2544528.8399999999,"ADDRESS":"安北路１６巷５弄１２號","OBJECTID":174708},"geometry":{"x":164692.25,"y":2544528.8399999999}},{"attributes":{"ID":174710,"DIS_CODE":0,"TOWNNAME":"安平區","LI":"石門里","LIN":"4鄰","STREET":"安北路","SECT":" ","MAREA":" ","LANE":"１６巷","ALLEY":"５弄","HOUSE_NO":"１３號","E_COORD97":164677.54000000001,"N_COORD97":2544523.4300000002,"ADDRESS":"安北路１６巷５弄１３號","OBJECTID":174709},"geometry":{"x":164677.54000000097,"y":2544523.4300000016}},{"attributes":{"ID":174711,"DIS_CODE":0,"TOWNNAME":"安平區","LI":"石門里","LIN":"4鄰","STREET":"安北路","SECT":" ","MAREA":" ","LANE":"１６巷","ALLEY":"５弄","HOUSE_NO":"１４號","E_COORD97":164688.63,"N_COORD97":2544531.9300000002,"ADDRESS":"安北路１６巷５弄１４號","OBJECTID":174710},"geometry":{"x":164688.63000000082,"y":2544531.9299999997}},{"attributes":{"ID":174712,"DIS_CODE":0,"TOWNNAME":"安平區","LI":"石門里","LIN":"4鄰","STREET":"安北路","SECT":" ","MAREA":" ","LANE":"１６巷","ALLEY":"５弄","HOUSE_NO":"１５號","E_COORD97":164674.95999999999,"N_COORD97":2544526,"ADDRESS":"安北路１６巷５弄１５號","OBJECTID":174711},"geometry":{"x":164674.95999999996,"y":2544526.0000000037}},{"attributes":{"ID":174713,"DIS_CODE":0,"TOWNNAME":"安平區","LI":"石門里","LIN":"4鄰","STREET":"安北路","SECT":" ","MAREA":" ","LANE":"１６巷","ALLEY":"５弄","HOUSE_NO":"２１號","E_COORD97":164662.07000000001,"N_COORD97":2544545.2599999998,"ADDRESS":"安北路１６巷５弄２１號","OBJECTID":174712},"geometry":{"x":164662.07000000123,"y":2544545.2600000016}},{"attributes":{"ID":174714,"DIS_CODE":0,"TOWNNAME":"安平區","LI":"石門里","LIN":"4鄰","STREET":"安北路","SECT":" ","MAREA":" ","LANE":"１６巷","ALLEY":"５弄","HOUSE_NO":"２３號","E_COORD97":164657.94,"N_COORD97":2544551.1899999999,"ADDRESS":"安北路１６巷５弄２３號","OBJECTID":174713},"geometry":{"x":164657.94000000134,"y":2544551.1900000032}},{"attributes":{"ID":174715,"DIS_CODE":0,"TOWNNAME":"安平區","LI":"石門里","LIN":"4鄰","STREET":"安北路","SECT":" ","MAREA":" ","LANE":"１６巷","ALLEY":"５弄","HOUSE_NO":"２號","E_COORD97":164705.92000000001,"N_COORD97":2544515.4399999999,"ADDRESS":"安北路１６巷５弄２號","OBJECTID":174714},"geometry":{"x":164705.91999999993,"y":2544515.4399999976}},{"attributes":{"ID":174716,"DIS_CODE":0,"TOWNNAME":"安平區","LI":"海頭里","LIN":"4鄰","STREET":"安北路","SECT":" ","MAREA":" ","LANE":"１２１巷","ALLEY":"１５弄","HOUSE_NO":"１號","E_COORD97":164223.07000000001,"N_COORD97":2544747.7799999998,"ADDRESS":"安北路１２１巷１５弄１號","OBJECTID":174715},"geometry":{"x":164223.07000000123,"y":2544747.7800000012}},{"attributes":{"ID":174717,"DIS_CODE":0,"TOWNNAME":"安平區","LI":"海頭里","LIN":"6鄰","STREET":"安北路","SECT":" ","MAREA":" ","LANE":"１２１巷","ALLEY":"１５弄","HOUSE_NO":"１０號","E_COORD97":164292.10999999999,"N_COORD97":2544735.4500000002,"ADDRESS":"安北路１２１巷１５弄１０號","OBJECTID":174716},"geometry":{"x":164292.11000000127,"y":2544735.4499999993}},{"attributes":{"ID":174718,"DIS_CODE":0,"TOWNNAME":"安平區","LI":"海頭里","LIN":"6鄰","STREET":"安北路","SECT":" ","MAREA":" ","LANE":"１２１巷","ALLEY":"１５弄","HOUSE_NO":"１１號","E_COORD97":164290.01000000001,"N_COORD97":2544747.6899999999,"ADDRESS":"安北路１２１巷１５弄１１號","OBJECTID":174717},"geometry":{"x":164290.00999999978,"y":2544747.6899999976}},{"attributes":{"ID":174719,"DIS_CODE":0,"TOWNNAME":"安平區","LI":"海頭里","LIN":"6鄰","STREET":"安北路","SECT":" ","MAREA":" ","LANE":"１２１巷","ALLEY":"１５弄","HOUSE_NO":"１２號","E_COORD97":164301.14000000001,"N_COORD97":2544732.1600000001,"ADDRESS":"安北路１２１巷１５弄１２號","OBJECTID":174718},"geometry":{"x":164301.14000000153,"y":2544732.1600000039}},{"attributes":{"ID":174720,"DIS_CODE":0,"TOWNNAME":"安平區","LI":"西門里","LIN":"4鄰","STREET":"安平路","SECT":" ","MAREA":" ","LANE":"８５０巷","ALLEY":"４弄","HOUSE_NO":"１１號","E_COORD97":163802.59,"N_COORD97":2544599.98,"ADDRESS":"安平路８５０巷４弄１１號","OBJECTID":174719},"geometry":{"x":163802.58999999985,"y":2544599.9800000004}},{"attributes":{"ID":174721,"DIS_CODE":0,"TOWNNAME":"安平區","LI":"西門里","LIN":"4鄰","STREET":"安平路","SECT":" ","MAREA":" ","LANE":"８５０巷","ALLEY":"４弄","HOUSE_NO":"１３號","E_COORD97":163800.16,"N_COORD97":2544605.52,"ADDRESS":"安平路８５０巷４弄１３號","OBJECTID":174720},"geometry":{"x":163800.16000000108,"y":2544605.5199999996}},{"attributes":{"ID":174722,"DIS_CODE":0,"TOWNNAME":"安南區","LI":"長安里","LIN":"10鄰","STREET":"公學路","SECT":"二段","MAREA":" ","LANE":" ","ALLEY":" ","HOUSE_NO":"１３１號","E_COORD97":167692.95000000001,"N_COORD97":2552246.8900000001,"ADDRESS":"公學路二段１３１號","OBJECTID":174721},"geometry":{"x":167692.95000000019,"y":2552246.8900000006}},{"attributes":{"ID":174723,"DIS_CODE":0,"TOWNNAME":"安南區","LI":"長安里","LIN":"10鄰","STREET":"公學路","SECT":"二段","MAREA":" ","LANE":" ","ALLEY":" ","HOUSE_NO":"１３３號","E_COORD97":167690.26999999999,"N_COORD97":2552242.9500000002,"ADDRESS":"公學路二段１３３號","OBJECTID":174722},"geometry":{"x":167690.26999999955,"y":2552242.9500000011}},{"attributes":{"ID":174724,"DIS_CODE":0,"TOWNNAME":"安南區","LI":"長安里","LIN":"10鄰","STREET":"公學路","SECT":"二段","MAREA":" ","LANE":" ","ALLEY":" ","HOUSE_NO":"１３５號","E_COORD97":167688.29999999999,"N_COORD97":2552238.9399999999,"ADDRESS":"公學路二段１３５號","OBJECTID":174723},"geometry":{"x":167688.29999999981,"y":2552238.9400000032}},{"attributes":{"ID":174725,"DIS_CODE":0,"TOWNNAME":"安平區","LI":"西門里","LIN":"4鄰","STREET":"安平路","SECT":" ","MAREA":" ","LANE":"８５０巷","ALLEY":"４弄","HOUSE_NO":"１５號","E_COORD97":163800.23999999999,"N_COORD97":2544609.04,"ADDRESS":"安平路８５０巷４弄１５號","OBJECTID":174724},"geometry":{"x":163800.24000000022,"y":2544609.0399999991}},{"attributes":{"ID":174726,"DIS_CODE":0,"TOWNNAME":"安平區","LI":"西門里","LIN":"4鄰","STREET":"安平路","SECT":" ","MAREA":" ","LANE":"８５０巷","ALLEY":"４弄","HOUSE_NO":"１７號","E_COORD97":163798.56,"N_COORD97":2544613.48,"ADDRESS":"安平路８５０巷４弄１７號","OBJECTID":174725},"geometry":{"x":163798.56000000052,"y":2544613.4800000004}},{"attributes":{"ID":174727,"DIS_CODE":0,"TOWNNAME":"安南區","LI":"長安里","LIN":"10鄰","STREET":"公學路","SECT":"二段","MAREA":" ","LANE":" ","ALLEY":" ","HOUSE_NO":"１３７號","E_COORD97":167685.69,"N_COORD97":2552235.0800000001,"ADDRESS":"公學路二段１３７號","OBJECTID":174726},"geometry":{"x":167685.69000000134,"y":2552235.0799999982}},{"attributes":{"ID":174728,"DIS_CODE":0,"TOWNNAME":"安平區","LI":"西門里","LIN":"4鄰","STREET":"安平路","SECT":" ","MAREA":" ","LANE":"８５０巷","ALLEY":"４弄","HOUSE_NO":"１９號","E_COORD97":163799.39999999999,"N_COORD97":2544624.0899999999,"ADDRESS":"安平路８５０巷４弄１９號","OBJECTID":174727},"geometry":{"x":163799.40000000037,"y":2544624.0900000017}},{"attributes":{"ID":174729,"DIS_CODE":0,"TOWNNAME":"安平區","LI":"西門里","LIN":"4鄰","STREET":"安平路","SECT":" ","MAREA":" ","LANE":"８５０巷","ALLEY":"４弄","HOUSE_NO":"１號","E_COORD97":163762.75,"N_COORD97":2544587.5,"ADDRESS":"安平路８５０巷４弄１號","OBJECTID":174728},"geometry":{"x":163762.75,"y":2544587.5000000019}},{"attributes":{"ID":174730,"DIS_CODE":0,"TOWNNAME":"安平區","LI":"西門里","LIN":"4鄰","STREET":"安平路","SECT":" ","MAREA":" ","LANE":"８５０巷","ALLEY":"４弄","HOUSE_NO":"３號","E_COORD97":163777.35000000001,"N_COORD97":2544583.1200000001,"ADDRESS":"安平路８５０巷４弄３號","OBJECTID":174729},"geometry":{"x":163777.34999999963,"y":2544583.120000001}},{"attributes":{"ID":174731,"DIS_CODE":0,"TOWNNAME":"安平區","LI":"西門里","LIN":"4鄰","STREET":"安平路","SECT":" ","MAREA":" ","LANE":"８５０巷","ALLEY":"４弄","HOUSE_NO":"５號","E_COORD97":163789.94,"N_COORD97":2544578.7599999998,"ADDRESS":"安平路８５０巷４弄５號","OBJECTID":174730},"geometry":{"x":163789.94000000134,"y":2544578.7600000016}},{"attributes":{"ID":174732,"DIS_CODE":0,"TOWNNAME":"永康區","LI":"永康里","LIN":"10鄰","STREET":"永康街","SECT":" ","MAREA":" ","LANE":" ","ALLEY":" ","HOUSE_NO":"３２號","E_COORD97":173771.92999999999,"N_COORD97":2547259.2799999998,"ADDRESS":"永康街３２號","OBJECTID":174731},"geometry":{"x":173771.93000000156,"y":2547259.2799999975}},{"attributes":{"ID":174733,"DIS_CODE":0,"TOWNNAME":"安平區","LI":"西門里","LIN":"4鄰","STREET":"安平路","SECT":" ","MAREA":" ","LANE":"８５０巷","ALLEY":"４弄","HOUSE_NO":"９號","E_COORD97":163803.10000000001,"N_COORD97":2544593.7799999998,"ADDRESS":"安平路８５０巷４弄９號","OBJECTID":174732},"geometry":{"x":163803.10000000149,"y":2544593.7799999993}},{"attributes":{"ID":174734,"DIS_CODE":0,"TOWNNAME":"東區","LI":"仁和里","LIN":"10鄰","STREET":"仁和路","SECT":" ","MAREA":" ","LANE":" ","ALLEY":" ","HOUSE_NO":"１３３號之２","E_COORD97":171499.60000000001,"N_COORD97":2541110.6000000001,"ADDRESS":"仁和路１３３號之２","OBJECTID":174733},"geometry":{"x":171499.60000000056,"y":2541110.5999999978}},{"attributes":{"ID":174735,"DIS_CODE":0,"TOWNNAME":"安平區","LI":"西門里","LIN":"8鄰","STREET":"古堡街","SECT":" ","MAREA":" ","LANE":"８９巷","ALLEY":"２弄","HOUSE_NO":"５號","E_COORD97":163748.01000000001,"N_COORD97":2544826.8500000001,"ADDRESS":"古堡街８９巷２弄５號","OBJECTID":174734},"geometry":{"x":163748.01000000071,"y":2544826.8499999996}},{"attributes":{"ID":174736,"DIS_CODE":0,"TOWNNAME":"安平區","LI":"西門里","LIN":"8鄰","STREET":"古堡街","SECT":" ","MAREA":" ","LANE":"８９巷","ALLEY":"２弄","HOUSE_NO":"６號","E_COORD97":163739.64000000001,"N_COORD97":2544843.0600000001,"ADDRESS":"古堡街８９巷２弄６號","OBJECTID":174735},"geometry":{"x":163739.63999999966,"y":2544843.0600000024}},{"attributes":{"ID":174737,"DIS_CODE":0,"TOWNNAME":"仁德區","LI":"新田里","LIN":"10鄰","STREET":"北保一街","SECT":" ","MAREA":" ","LANE":" ","ALLEY":" ","HOUSE_NO":"１２號","E_COORD97":173274.32000000001,"N_COORD97":2539444.9900000002,"ADDRESS":"北保一街１２號","OBJECTID":174736},"geometry":{"x":173274.3200000003,"y":2539444.9900000021}},{"attributes":{"ID":174738,"DIS_CODE":0,"TOWNNAME":"安平區","LI":"西門里","LIN":"8鄰","STREET":"古堡街","SECT":" ","MAREA":" ","LANE":"８９巷","ALLEY":"２弄","HOUSE_NO":"７號","E_COORD97":163729.5,"N_COORD97":2544837.9100000001,"ADDRESS":"古堡街８９巷２弄７號","OBJECTID":174737},"geometry":{"x":163729.50000000186,"y":2544837.9100000001}},{"attributes":{"ID":174739,"DIS_CODE":0,"TOWNNAME":"安平區","LI":"西門里","LIN":"8鄰","STREET":"古堡街","SECT":" ","MAREA":" ","LANE":"８９巷","ALLEY":"４弄","HOUSE_NO":"４號之１","E_COORD97":163754.85999999999,"N_COORD97":2544813.7599999998,"ADDRESS":"古堡街８９巷４弄４號之１","OBJECTID":174738},"geometry":{"x":163754.86000000127,"y":2544813.7600000016}},{"attributes":{"ID":174740,"DIS_CODE":0,"TOWNNAME":"東區","LI":"仁和里","LIN":"10鄰","STREET":"仁和路","SECT":" ","MAREA":" ","LANE":" ","ALLEY":" ","HOUSE_NO":"１３３號之３","E_COORD97":171500.23999999999,"N_COORD97":2541105.4399999999,"ADDRESS":"仁和路１３３號之３","OBJECTID":174739},"geometry":{"x":171500.24000000022,"y":2541105.4400000013}},{"attributes":{"ID":174741,"DIS_CODE":0,"TOWNNAME":"東區","LI":"仁和里","LIN":"10鄰","STREET":"仁和路","SECT":" ","MAREA":" ","LANE":" ","ALLEY":" ","HOUSE_NO":"１３３號之４","E_COORD97":171501.85999999999,"N_COORD97":2541102.54,"ADDRESS":"仁和路１３３號之４","OBJECTID":174740},"geometry":{"x":171501.86000000127,"y":2541102.5399999991}},{"attributes":{"ID":174742,"DIS_CODE":0,"TOWNNAME":"安平區","LI":"西門里","LIN":"7鄰","STREET":"安北路","SECT":" ","MAREA":" ","LANE":"２３３巷","ALLEY":"４弄","HOUSE_NO":"１０號","E_COORD97":163843.57000000001,"N_COORD97":2544681.4100000001,"ADDRESS":"安北路２３３巷４弄１０號","OBJECTID":174741},"geometry":{"x":163843.57000000123,"y":2544681.4100000001}},{"attributes":{"ID":174743,"DIS_CODE":0,"TOWNNAME":"歸仁區","LI":"看東里","LIN":"13鄰","STREET":"忠孝南路","SECT":" ","MAREA":" ","LANE":"２５巷","ALLEY":"５９弄","HOUSE_NO":"８號","E_COORD97":178614.70004699999,"N_COORD97":2540467.38784,"ADDRESS":"忠孝南路２５巷５９弄８號","OBJECTID":174742},"geometry":{"x":178614.70004700124,"y":2540467.3878390025}},{"attributes":{"ID":174744,"DIS_CODE":0,"TOWNNAME":"安平區","LI":"西門里","LIN":"7鄰","STREET":"安北路","SECT":" ","MAREA":" ","LANE":"２３３巷","ALLEY":"４弄","HOUSE_NO":"２號","E_COORD97":163824.76000000001,"N_COORD97":2544701.4900000002,"ADDRESS":"安北路２３３巷４弄２號","OBJECTID":174743},"geometry":{"x":163824.76000000071,"y":2544701.4900000002}},{"attributes":{"ID":174745,"DIS_CODE":0,"TOWNNAME":"安平區","LI":"西門里","LIN":"7鄰","STREET":"安北路","SECT":" ","MAREA":" ","LANE":"２３３巷","ALLEY":"４弄","HOUSE_NO":"３號","E_COORD97":163801.67000000001,"N_COORD97":2544709.3799999999,"ADDRESS":"安北路２３３巷４弄３號","OBJECTID":174744},"geometry":{"x":163801.67000000086,"y":2544709.3800000008}},{"attributes":{"ID":174746,"DIS_CODE":0,"TOWNNAME":"東區","LI":"仁和里","LIN":"10鄰","STREET":"仁和路","SECT":" ","MAREA":" ","LANE":" ","ALLEY":" ","HOUSE_NO":"１３３號之５","E_COORD97":171503.79000000001,"N_COORD97":2541099,"ADDRESS":"仁和路１３３號之５","OBJECTID":174745},"geometry":{"x":171503.79000000097,"y":2541099.0000000019}},{"attributes":{"ID":174747,"DIS_CODE":0,"TOWNNAME":"東區","LI":"仁和里","LIN":"10鄰","STREET":"仁和路","SECT":" ","MAREA":" ","LANE":" ","ALLEY":" ","HOUSE_NO":"１３３號之６","E_COORD97":171506.38,"N_COORD97":2541095.1299999999,"ADDRESS":"仁和路１３３號之６","OBJECTID":174746},"geometry":{"x":171506.38000000082,"y":2541095.129999999}},{"attributes":{"ID":174748,"DIS_CODE":0,"TOWNNAME":"東區","LI":"仁和里","LIN":"10鄰","STREET":"仁和路","SECT":" ","MAREA":" ","LANE":" ","ALLEY":" ","HOUSE_NO":"１３５號","E_COORD97":171508.63,"N_COORD97":2541090.9399999999,"ADDRESS":"仁和路１３５號","OBJECTID":174747},"geometry":{"x":171508.62999999989,"y":2541090.9399999995}},{"attributes":{"ID":174749,"DIS_CODE":0,"TOWNNAME":"永康區","LI":"永康里","LIN":"10鄰","STREET":"永康街","SECT":" ","MAREA":" ","LANE":" ","ALLEY":" ","HOUSE_NO":"６號","E_COORD97":173763.63,"N_COORD97":2547306.02,"ADDRESS":"永康街６號","OBJECTID":174748},"geometry":{"x":173763.62999999989,"y":2547306.0200000014}},{"attributes":{"ID":174750,"DIS_CODE":0,"TOWNNAME":"永康區","LI":"西勢里","LIN":"10鄰","STREET":"西勢路","SECT":" ","MAREA":" ","LANE":" ","ALLEY":" ","HOUSE_NO":"１６５號","E_COORD97":175899.57999999999,"N_COORD97":2546740.77,"ADDRESS":"西勢路１６５號","OBJECTID":174749},"geometry":{"x":175899.58000000101,"y":2546740.7699999977}},{"attributes":{"ID":174751,"DIS_CODE":0,"TOWNNAME":"永康區","LI":"西橋里","LIN":"10鄰","STREET":"中華西街","SECT":" ","MAREA":" ","LANE":" ","ALLEY":" ","HOUSE_NO":"９５號","E_COORD97":170705.87,"N_COORD97":2546117.75,"ADDRESS":"中華西街９５號","OBJECTID":174750},"geometry":{"x":170705.87000000011,"y":2546117.7500000037}},{"attributes":{"ID":174752,"DIS_CODE":0,"TOWNNAME":"永康區","LI":"復興里","LIN":"10鄰","STREET":"復興路","SECT":" ","MAREA":" ","LANE":" ","ALLEY":" ","HOUSE_NO":"４００號","E_COORD97":172128.22,"N_COORD97":2544341.0499999998,"ADDRESS":"復興路４００號","OBJECTID":174751},"geometry":{"x":172128.22000000067,"y":2544341.0500000026}},{"attributes":{"ID":174753,"DIS_CODE":0,"TOWNNAME":"安平區","LI":"西門里","LIN":"7鄰","STREET":"安北路","SECT":" ","MAREA":" ","LANE":"２３３巷","ALLEY":"４弄","HOUSE_NO":"４號","E_COORD97":163828.73000000001,"N_COORD97":2544695.1299999999,"ADDRESS":"安北路２３３巷４弄４號","OBJECTID":174752},"geometry":{"x":163828.73000000138,"y":2544695.1300000008}},{"attributes":{"ID":174754,"DIS_CODE":0,"TOWNNAME":"安南區","LI":"長安里","LIN":"10鄰","STREET":"公學路","SECT":"二段","MAREA":" ","LANE":" ","ALLEY":" ","HOUSE_NO":"１８５號","E_COORD97":167608.85999999999,"N_COORD97":2552171.5699999998,"ADDRESS":"公學路二段１８５號","OBJECTID":174753},"geometry":{"x":167608.86000000034,"y":2552171.5700000022}},{"attributes":{"ID":174755,"DIS_CODE":0,"TOWNNAME":"安南區","LI":"長安里","LIN":"10鄰","STREET":"公學路","SECT":"二段","MAREA":" ","LANE":" ","ALLEY":" ","HOUSE_NO":"１９３號","E_COORD97":167594.75,"N_COORD97":2552160.48,"ADDRESS":"公學路二段１９３號","OBJECTID":174754},"geometry":{"x":167594.75000000093,"y":2552160.4800000004}},{"attributes":{"ID":174756,"DIS_CODE":0,"TOWNNAME":"安平區","LI":"西門里","LIN":"7鄰","STREET":"安北路","SECT":" ","MAREA":" ","LANE":"２３３巷","ALLEY":"４弄","HOUSE_NO":"５號","E_COORD97":163817.67999999999,"N_COORD97":2544711.2799999998,"ADDRESS":"安北路２３３巷４弄５號","OBJECTID":174755},"geometry":{"x":163817.6799999997,"y":2544711.2800000012}},{"attributes":{"ID":174757,"DIS_CODE":0,"TOWNNAME":"安南區","LI":"頂安里","LIN":"10鄰","STREET":"怡安路","SECT":"一段","MAREA":" ","LANE":" ","ALLEY":" ","HOUSE_NO":"４４９號","E_COORD97":168558.94,"N_COORD97":2549183.6800000002,"ADDRESS":"怡安路一段４４９號","OBJECTID":174756},"geometry":{"x":168558.94000000134,"y":2549183.6800000016}},{"attributes":{"ID":174758,"DIS_CODE":0,"TOWNNAME":"歸仁區","LI":"南保里","LIN":"59鄰","STREET":"中山路","SECT":"三段","MAREA":" ","LANE":"８１巷","ALLEY":"２３弄","HOUSE_NO":"１０號","E_COORD97":176796.23999999999,"N_COORD97":2540784.02,"ADDRESS":"中山路三段８１巷２３弄１０號","OBJECTID":174757},"geometry":{"x":176796.23999999929,"y":2540784.0200000014}},{"attributes":{"ID":174759,"DIS_CODE":0,"TOWNNAME":"歸仁區","LI":"大潭里","LIN":"20鄰","STREET":"長榮路","SECT":"二段","MAREA":" ","LANE":"７５巷","ALLEY":"５６弄","HOUSE_NO":"１５號","E_COORD97":176963.42000000001,"N_COORD97":2534616.2799999998,"ADDRESS":"長榮路二段７５巷５６弄１５號","OBJECTID":174758},"geometry":{"x":176963.42000000086,"y":2534616.2799999993}},{"attributes":{"ID":174760,"DIS_CODE":0,"TOWNNAME":"歸仁區","LI":"南保里","LIN":"46鄰","STREET":"民權十街","SECT":" ","MAREA":" ","LANE":"６３巷","ALLEY":"１７弄","HOUSE_NO":"２２號","E_COORD97":176813.56,"N_COORD97":2540659.2999999998,"ADDRESS":"民權十街６３巷１７弄２２號","OBJECTID":174759},"geometry":{"x":176813.55999999959,"y":2540659.3000000007}},{"attributes":{"ID":174761,"DIS_CODE":0,"TOWNNAME":"歸仁區","LI":"南保里","LIN":"59鄰","STREET":"中山路","SECT":"三段","MAREA":" ","LANE":"８１巷","ALLEY":"２３弄","HOUSE_NO":"３號","E_COORD97":176820.85999999999,"N_COORD97":2540815.2799999998,"ADDRESS":"中山路三段８１巷２３弄３號","OBJECTID":174760},"geometry":{"x":176820.86000000034,"y":2540815.2800000012}},{"attributes":{"ID":174762,"DIS_CODE":0,"TOWNNAME":"歸仁區","LI":"西埔里","LIN":"5鄰","STREET":"保大路","SECT":"二段","MAREA":" ","LANE":"１２２巷","ALLEY":"２３弄","HOUSE_NO":"２０號","E_COORD97":176984.57000000001,"N_COORD97":2544214.2799999998,"ADDRESS":"保大路二段１２２巷２３弄２０號","OBJECTID":174761},"geometry":{"x":176984.57000000123,"y":2544214.2799999993}},{"attributes":{"ID":174763,"DIS_CODE":0,"TOWNNAME":"歸仁區","LI":"大潭里","LIN":"20鄰","STREET":"長榮路","SECT":"二段","MAREA":" ","LANE":"１４５巷","ALLEY":"２５弄","HOUSE_NO":"１３號","E_COORD97":177009.67000000001,"N_COORD97":2534577.2799999998,"ADDRESS":"長榮路二段１４５巷２５弄１３號","OBJECTID":174762},"geometry":{"x":177009.66999999993,"y":2534577.2800000012}},{"attributes":{"ID":174764,"DIS_CODE":0,"TOWNNAME":"歸仁區","LI":"後市里","LIN":"32鄰","STREET":"民族北街","SECT":" ","MAREA":" ","LANE":"３１巷","ALLEY":"１０弄","HOUSE_NO":"１３號","E_COORD97":177395.92999999999,"N_COORD97":2540977.75,"ADDRESS":"民族北街３１巷１０弄１３號","OBJECTID":174763},"geometry":{"x":177395.9299999997,"y":2540977.7499999981}},{"attributes":{"ID":174765,"DIS_CODE":0,"TOWNNAME":"歸仁區","LI":"看西里","LIN":"20鄰","STREET":"成功路","SECT":"二段","MAREA":" ","LANE":"６５巷","ALLEY":"５１弄","HOUSE_NO":"３０號","E_COORD97":178206.57999999999,"N_COORD97":2539847.1800000002,"ADDRESS":"成功路二段６５巷５１弄３０號","OBJECTID":174764},"geometry":{"x":178206.58000000101,"y":2539847.1800000016}},{"attributes":{"ID":174766,"DIS_CODE":0,"TOWNNAME":"歸仁區","LI":"媽廟里","LIN":"25鄰","STREET":"保大路","SECT":"一段","MAREA":" ","LANE":"１１７巷","ALLEY":"２６弄","HOUSE_NO":"１６號","E_COORD97":177782.17999999999,"N_COORD97":2543950.7200000002,"ADDRESS":"保大路一段１１７巷２６弄１６號","OBJECTID":174765},"geometry":{"x":177782.1799999997,"y":2543950.7200000007}},{"attributes":{"ID":174767,"DIS_CODE":0,"TOWNNAME":"歸仁區","LI":"辜厝里","LIN":"4鄰","STREET":"民族南街","SECT":" ","MAREA":" ","LANE":"１８巷","ALLEY":"５５弄","HOUSE_NO":"３３號","E_COORD97":177295.79000000001,"N_COORD97":2540682.5499999998,"ADDRESS":"民族南街１８巷５５弄３３號","OBJECTID":174766},"geometry":{"x":177295.78999999911,"y":2540682.5500000026}},{"attributes":{"ID":174768,"DIS_CODE":0,"TOWNNAME":"歸仁區","LI":"歸南里","LIN":"20鄰","STREET":"民生八街","SECT":" ","MAREA":" ","LANE":"２８巷","ALLEY":"１弄","HOUSE_NO":"３８號","E_COORD97":176025.35999999999,"N_COORD97":2540392.25,"ADDRESS":"民生八街２８巷１弄３８號","OBJECTID":174767},"geometry":{"x":176025.36000000034,"y":2540392.2500000019}},{"attributes":{"ID":174769,"DIS_CODE":0,"TOWNNAME":"歸仁區","LI":"歸南里","LIN":"24鄰","STREET":"民生八街","SECT":" ","MAREA":" ","LANE":"２１巷","ALLEY":"１弄","HOUSE_NO":"３號","E_COORD97":176125.20999999999,"N_COORD97":2540309.25,"ADDRESS":"民生八街２１巷１弄３號","OBJECTID":174768},"geometry":{"x":176125.21000000089,"y":2540309.25}},{"attributes":{"ID":174770,"DIS_CODE":0,"TOWNNAME":"歸仁區","LI":"辜厝里","LIN":"4鄰","STREET":"民族南街","SECT":" ","MAREA":" ","LANE":"１８巷","ALLEY":"２７弄","HOUSE_NO":"１８號","E_COORD97":177338.98999999999,"N_COORD97":2540701.5499999998,"ADDRESS":"民族南街１８巷２７弄１８號","OBJECTID":174769},"geometry":{"x":177338.99000000115,"y":2540701.5500000007}},{"attributes":{"ID":174771,"DIS_CODE":0,"TOWNNAME":"歸仁區","LI":"歸南里","LIN":"20鄰","STREET":"民生八街","SECT":" ","MAREA":" ","LANE":"２８巷","ALLEY":"１弄","HOUSE_NO":"４２號","E_COORD97":176016.06,"N_COORD97":2540391.25,"ADDRESS":"民生八街２８巷１弄４２號","OBJECTID":174770},"geometry":{"x":176016.06000000052,"y":2540391.2499999981}},{"attributes":{"ID":174772,"DIS_CODE":0,"TOWNNAME":"歸仁區","LI":"歸南里","LIN":"20鄰","STREET":"民生八街","SECT":" ","MAREA":" ","LANE":"２８巷","ALLEY":"１弄","HOUSE_NO":"５４號","E_COORD97":175995.56,"N_COORD97":2540392.25,"ADDRESS":"民生八街２８巷１弄５４號","OBJECTID":174771},"geometry":{"x":175995.56000000052,"y":2540392.2500000019}},{"attributes":{"ID":174773,"DIS_CODE":0,"TOWNNAME":"歸仁區","LI":"歸南里","LIN":"20鄰","STREET":"民生八街","SECT":" ","MAREA":" ","LANE":"２８巷","ALLEY":"１弄","HOUSE_NO":"１８號","E_COORD97":176067.35999999999,"N_COORD97":2540391.25,"ADDRESS":"民生八街２８巷１弄１８號","OBJECTID":174772},"geometry":{"x":176067.36000000127,"y":2540391.2499999981}},{"attributes":{"ID":174774,"DIS_CODE":0,"TOWNNAME":"歸仁區","LI":"歸南里","LIN":"18鄰","STREET":"民生八街","SECT":" ","MAREA":" ","LANE":"２８巷","ALLEY":"２弄","HOUSE_NO":"１６號","E_COORD97":176149.35999999999,"N_COORD97":2540374.25,"ADDRESS":"民生八街２８巷２弄１６號","OBJECTID":174773},"geometry":{"x":176149.36000000034,"y":2540374.2499999981}},{"attributes":{"ID":174775,"DIS_CODE":0,"TOWNNAME":"歸仁區","LI":"辜厝里","LIN":"4鄰","STREET":"民族南街","SECT":" ","MAREA":" ","LANE":"１８巷","ALLEY":"５５弄","HOUSE_NO":"２９號","E_COORD97":177296.89000000001,"N_COORD97":2540692.5499999998,"ADDRESS":"民族南街１８巷５５弄２９號","OBJECTID":174774},"geometry":{"x":177296.8900000006,"y":2540692.5500000026}},{"attributes":{"ID":174776,"DIS_CODE":0,"TOWNNAME":"歸仁區","LI":"新厝里","LIN":"4鄰","STREET":"復興路","SECT":" ","MAREA":" ","LANE":"１１６巷","ALLEY":"８弄","HOUSE_NO":"３號","E_COORD97":177757.57000000001,"N_COORD97":2540662.25,"ADDRESS":"復興路１１６巷８弄３號","OBJECTID":174775},"geometry":{"x":177757.57000000123,"y":2540662.25}},{"attributes":{"ID":174777,"DIS_CODE":0,"TOWNNAME":"歸仁區","LI":"歸南里","LIN":"20鄰","STREET":"民生八街","SECT":" ","MAREA":" ","LANE":"２８巷","ALLEY":"１弄","HOUSE_NO":"４６號","E_COORD97":176013.06,"N_COORD97":2540392.25,"ADDRESS":"民生八街２８巷１弄４６號","OBJECTID":174776},"geometry":{"x":176013.05999999959,"y":2540392.2500000019}},{"attributes":{"ID":174778,"DIS_CODE":0,"TOWNNAME":"歸仁區","LI":"歸南里","LIN":"20鄰","STREET":"民生八街","SECT":" ","MAREA":" ","LANE":"２８巷","ALLEY":"１弄","HOUSE_NO":"６號","E_COORD97":176091.70999999999,"N_COORD97":2540391.25,"ADDRESS":"民生八街２８巷１弄６號","OBJECTID":174777},"geometry":{"x":176091.71000000089,"y":2540391.2499999981}},{"attributes":{"ID":174779,"DIS_CODE":0,"TOWNNAME":"歸仁區","LI":"新厝里","LIN":"4鄰","STREET":"復興路","SECT":" ","MAREA":" ","LANE":"１１６巷","ALLEY":"８弄","HOUSE_NO":"１９號","E_COORD97":177791.62,"N_COORD97":2540658.25,"ADDRESS":"復興路１１６巷８弄１９號","OBJECTID":174778},"geometry":{"x":177791.62000000011,"y":2540658.25}},{"attributes":{"ID":174780,"DIS_CODE":0,"TOWNNAME":"歸仁區","LI":"新厝里","LIN":"4鄰","STREET":"復興路","SECT":" ","MAREA":" ","LANE":"１１６巷","ALLEY":"８弄","HOUSE_NO":"１７號","E_COORD97":177785.51999999999,"N_COORD97":2540660.25,"ADDRESS":"復興路１１６巷８弄１７號","OBJECTID":174779},"geometry":{"x":177785.52000000142,"y":2540660.2500000019}},{"attributes":{"ID":174781,"DIS_CODE":0,"TOWNNAME":"歸仁區","LI":"新厝里","LIN":"4鄰","STREET":"復興路","SECT":" ","MAREA":" ","LANE":"１１６巷","ALLEY":"８弄","HOUSE_NO":"１１號","E_COORD97":177774.22,"N_COORD97":2540661.25,"ADDRESS":"復興路１１６巷８弄１１號","OBJECTID":174780},"geometry":{"x":177774.2200000016,"y":2540661.25}},{"attributes":{"ID":174782,"DIS_CODE":0,"TOWNNAME":"歸仁區","LI":"歸南里","LIN":"18鄰","STREET":"民生八街","SECT":" ","MAREA":" ","LANE":"２８巷","ALLEY":"２弄","HOUSE_NO":"２號","E_COORD97":176123.41,"N_COORD97":2540374.25,"ADDRESS":"民生八街２８巷２弄２號","OBJECTID":174781},"geometry":{"x":176123.41000000015,"y":2540374.2499999981}},{"attributes":{"ID":174783,"DIS_CODE":0,"TOWNNAME":"歸仁區","LI":"歸南里","LIN":"20鄰","STREET":"民生八街","SECT":" ","MAREA":" ","LANE":"２８巷","ALLEY":"１弄","HOUSE_NO":"１６號","E_COORD97":176071.45999999999,"N_COORD97":2540391.25,"ADDRESS":"民生八街２８巷１弄１６號","OBJECTID":174782},"geometry":{"x":176071.46000000089,"y":2540391.2499999981}},{"attributes":{"ID":174784,"DIS_CODE":0,"TOWNNAME":"歸仁區","LI":"歸南里","LIN":"20鄰","STREET":"民生八街","SECT":" ","MAREA":" ","LANE":"２８巷","ALLEY":"１弄","HOUSE_NO":"２２號","E_COORD97":176059.16,"N_COORD97":2540391.25,"ADDRESS":"民生八街２８巷１弄２２號","OBJECTID":174783},"geometry":{"x":176059.16000000015,"y":2540391.2499999981}},{"attributes":{"ID":174785,"DIS_CODE":0,"TOWNNAME":"東區","LI":"崇文里","LIN":"4鄰","STREET":"崇德十六街","SECT":" ","MAREA":" ","LANE":" ","ALLEY":" ","HOUSE_NO":"２之３號","E_COORD97":170838.35000000001,"N_COORD97":2541121.3700000001,"ADDRESS":"崇德十六街２之３號","OBJECTID":174784},"geometry":{"x":170838.35000000056,"y":2541121.3700000029}},{"attributes":{"ID":174786,"DIS_CODE":0,"TOWNNAME":"東區","LI":"崇文里","LIN":"4鄰","STREET":"崇德十六街","SECT":" ","MAREA":" ","LANE":" ","ALLEY":" ","HOUSE_NO":"２之５號","E_COORD97":170842.76000000001,"N_COORD97":2541122.3900000001,"ADDRESS":"崇德十六街２之５號","OBJECTID":174785},"geometry":{"x":170842.76000000071,"y":2541122.3900000006}},{"attributes":{"ID":174787,"DIS_CODE":0,"TOWNNAME":"歸仁區","LI":"媽廟里","LIN":"4鄰","STREET":"和順路","SECT":"一段","MAREA":" ","LANE":"６３巷","ALLEY":"４５弄","HOUSE_NO":"２號","E_COORD97":177414.92000000001,"N_COORD97":2543647.7200000002,"ADDRESS":"和順路一段６３巷４５弄２號","OBJECTID":174786},"geometry":{"x":177414.91999999993,"y":2543647.7200000025}},{"attributes":{"ID":174788,"DIS_CODE":0,"TOWNNAME":"歸仁區","LI":"歸南里","LIN":"20鄰","STREET":"民生八街","SECT":" ","MAREA":" ","LANE":"２８巷","ALLEY":"１弄","HOUSE_NO":"１４號","E_COORD97":176075.56,"N_COORD97":2540391.25,"ADDRESS":"民生八街２８巷１弄１４號","OBJECTID":174787},"geometry":{"x":176075.56000000052,"y":2540391.2499999981}},{"attributes":{"ID":174789,"DIS_CODE":0,"TOWNNAME":"歸仁區","LI":"媽廟里","LIN":"26鄰","STREET":"保大路","SECT":"一段","MAREA":" ","LANE":"２６０巷","ALLEY":"５８弄","HOUSE_NO":"３８號","E_COORD97":177546.92999999999,"N_COORD97":2544231.25,"ADDRESS":"保大路一段２６０巷５８弄３８號","OBJECTID":174788},"geometry":{"x":177546.9299999997,"y":2544231.25}},{"attributes":{"ID":174790,"DIS_CODE":0,"TOWNNAME":"歸仁區","LI":"許厝里","LIN":"24鄰","STREET":"大仁街","SECT":" ","MAREA":" ","LANE":"１２６巷","ALLEY":"１７弄","HOUSE_NO":"１５號","E_COORD97":178263.73000000001,"N_COORD97":2540941.25,"ADDRESS":"大仁街１２６巷１７弄１５號","OBJECTID":174789},"geometry":{"x":178263.73000000138,"y":2540941.2500000019}},{"attributes":{"ID":174791,"DIS_CODE":0,"TOWNNAME":"歸仁區","LI":"許厝里","LIN":"24鄰","STREET":"大仁街","SECT":" ","MAREA":" ","LANE":"１２６巷","ALLEY":"１７弄","HOUSE_NO":"１１號","E_COORD97":178254.53,"N_COORD97":2540941.25,"ADDRESS":"大仁街１２６巷１７弄１１號","OBJECTID":174790},"geometry":{"x":178254.53000000119,"y":2540941.2500000019}},{"attributes":{"ID":174792,"DIS_CODE":0,"TOWNNAME":"歸仁區","LI":"新厝里","LIN":"4鄰","STREET":"復興路","SECT":" ","MAREA":" ","LANE":"１１６巷","ALLEY":"８弄","HOUSE_NO":"１號","E_COORD97":177754.47,"N_COORD97":2540663.25,"ADDRESS":"復興路１１６巷８弄１號","OBJECTID":174791},"geometry":{"x":177754.47000000067,"y":2540663.2500000019}},{"attributes":{"ID":174793,"DIS_CODE":0,"TOWNNAME":"歸仁區","LI":"新厝里","LIN":"4鄰","STREET":"復興路","SECT":" ","MAREA":" ","LANE":"１１６巷","ALLEY":"８弄","HOUSE_NO":"７號","E_COORD97":177764.76999999999,"N_COORD97":2540661.25,"ADDRESS":"復興路１１６巷８弄７號","OBJECTID":174792},"geometry":{"x":177764.76999999955,"y":2540661.25}},{"attributes":{"ID":174794,"DIS_CODE":0,"TOWNNAME":"歸仁區","LI":"歸南里","LIN":"20鄰","STREET":"民生八街","SECT":" ","MAREA":" ","LANE":"２８巷","ALLEY":"１弄","HOUSE_NO":"２號","E_COORD97":176095.81,"N_COORD97":2540391.25,"ADDRESS":"民生八街２８巷１弄２號","OBJECTID":174793},"geometry":{"x":176095.81000000052,"y":2540391.2499999981}},{"attributes":{"ID":174795,"DIS_CODE":0,"TOWNNAME":"歸仁區","LI":"新厝里","LIN":"4鄰","STREET":"復興路","SECT":" ","MAREA":" ","LANE":"１１６巷","ALLEY":"８弄","HOUSE_NO":"９號","E_COORD97":177769.87,"N_COORD97":2540661.25,"ADDRESS":"復興路１１６巷８弄９號","OBJECTID":174794},"geometry":{"x":177769.87000000011,"y":2540661.25}},{"attributes":{"ID":174796,"DIS_CODE":0,"TOWNNAME":"歸仁區","LI":"新厝里","LIN":"4鄰","STREET":"復興路","SECT":" ","MAREA":" ","LANE":"１１６巷","ALLEY":"８弄","HOUSE_NO":"１５號","E_COORD97":177781.42000000001,"N_COORD97":2540660.25,"ADDRESS":"復興路１１６巷８弄１５號","OBJECTID":174795},"geometry":{"x":177781.42000000179,"y":2540660.2500000019}},{"attributes":{"ID":174797,"DIS_CODE":0,"TOWNNAME":"歸仁區","LI":"歸南里","LIN":"18鄰","STREET":"民生八街","SECT":" ","MAREA":" ","LANE":"２８巷","ALLEY":"２弄","HOUSE_NO":"２６號","E_COORD97":176171.85999999999,"N_COORD97":2540373.25,"ADDRESS":"民生八街２８巷２弄２６號","OBJECTID":174796},"geometry":{"x":176171.8600000022,"y":2540373.25}},{"attributes":{"ID":174798,"DIS_CODE":0,"TOWNNAME":"歸仁區","LI":"媽廟里","LIN":"4鄰","STREET":"和順路","SECT":"一段","MAREA":" ","LANE":"６３巷","ALLEY":"４５弄","HOUSE_NO":"３號","E_COORD97":177402.72,"N_COORD97":2543668.7200000002,"ADDRESS":"和順路一段６３巷４５弄３號","OBJECTID":174797},"geometry":{"x":177402.71999999881,"y":2543668.7200000025}},{"attributes":{"ID":174799,"DIS_CODE":0,"TOWNNAME":"歸仁區","LI":"辜厝里","LIN":"4鄰","STREET":"民族南街","SECT":" ","MAREA":" ","LANE":"１８巷","ALLEY":"２７弄","HOUSE_NO":"２０號","E_COORD97":177318.48999999999,"N_COORD97":2540705.5499999998,"ADDRESS":"民族南街１８巷２７弄２０號","OBJECTID":174798},"geometry":{"x":177318.49000000209,"y":2540705.5500000045}},{"attributes":{"ID":174800,"DIS_CODE":0,"TOWNNAME":"歸仁區","LI":"歸南里","LIN":"24鄰","STREET":"民生八街","SECT":" ","MAREA":" ","LANE":"２１巷","ALLEY":"１弄","HOUSE_NO":"１３號","E_COORD97":176147.95999999999,"N_COORD97":2540311.25,"ADDRESS":"民生八街２１巷１弄１３號","OBJECTID":174799},"geometry":{"x":176147.95999999996,"y":2540311.2500000019}},{"attributes":{"ID":174801,"DIS_CODE":0,"TOWNNAME":"歸仁區","LI":"辜厝里","LIN":"4鄰","STREET":"民族南街","SECT":" ","MAREA":" ","LANE":"１８巷","ALLEY":"５５弄","HOUSE_NO":"３５號","E_COORD97":177295.79000000001,"N_COORD97":2540677.5499999998,"ADDRESS":"民族南街１８巷５５弄３５號","OBJECTID":174800},"geometry":{"x":177295.78999999911,"y":2540677.5500000007}}]}