{"displayFieldName":"TOWNNAME","fieldAliases":{"ID":"ID","DIS_CODE":"DIS_CODE","TOWNNAME":"TOWNNAME","LI":"LI","LIN":"LIN","STREET":"STREET","SECT":"SECT","MAREA":"MAREA","LANE":"LANE","ALLEY":"ALLEY","HOUSE_NO":"HOUSE_NO","E_COORD97":"E_COORD97","N_COORD97":"N_COORD97","ADDRESS":"ADDRESS","OBJECTID":"OBJECTID"},"geometryType":"esriGeometryPoint","spatialReference":{"wkid":102443,"latestWkid":3826},"fields":[{"name":"ID","type":"esriFieldTypeDouble","alias":"ID"},{"name":"DIS_CODE","type":"esriFieldTypeInteger","alias":"DIS_CODE"},{"name":"TOWNNAME","type":"esriFieldTypeString","alias":"TOWNNAME","length":8},{"name":"LI","type":"esriFieldTypeString","alias":"LI","length":8},{"name":"LIN","type":"esriFieldTypeString","alias":"LIN","length":12},{"name":"STREET","type":"esriFieldTypeString","alias":"STREET","length":20},{"name":"SECT","type":"esriFieldTypeString","alias":"SECT","length":8},{"name":"MAREA","type":"esriFieldTypeString","alias":"MAREA","length":12},{"name":"LANE","type":"esriFieldTypeString","alias":"LANE","length":10},{"name":"ALLEY","type":"esriFieldTypeString","alias":"ALLEY","length":10},{"name":"HOUSE_NO","type":"esriFieldTypeString","alias":"HOUSE_NO","length":20},{"name":"E_COORD97","type":"esriFieldTypeDouble","alias":"E_COORD97"},{"name":"N_COORD97","type":"esriFieldTypeDouble","alias":"N_COORD97"},{"name":"ADDRESS","type":"esriFieldTypeString","alias":"ADDRESS","length":50},{"name":"OBJECTID","type":"esriFieldTypeOID","alias":"OBJECTID"}],"features":[{"attributes":{"ID":481826,"DIS_CODE":0,"TOWNNAME":"東區","LI":"東光里","LIN":"26鄰","STREET":"東平路","SECT":" ","MAREA":" ","LANE":" ","ALLEY":" ","HOUSE_NO":"２２３號","E_COORD97":170905.44,"N_COORD97":2543983.9700000002,"ADDRESS":"東平路２２３號","OBJECTID":481801},"geometry":{"x":170905.44000000041,"y":2543983.9700000007}},{"attributes":{"ID":481827,"DIS_CODE":0,"TOWNNAME":"東區","LI":"東光里","LIN":"26鄰","STREET":"東平路","SECT":" ","MAREA":" ","LANE":" ","ALLEY":" ","HOUSE_NO":"２２５號","E_COORD97":170896.94,"N_COORD97":2543984.4300000002,"ADDRESS":"東平路２２５號","OBJECTID":481802},"geometry":{"x":170896.94000000041,"y":2543984.4300000016}},{"attributes":{"ID":481828,"DIS_CODE":0,"TOWNNAME":"東區","LI":"東光里","LIN":"26鄰","STREET":"東平路","SECT":" ","MAREA":" ","LANE":" ","ALLEY":" ","HOUSE_NO":"２２７號","E_COORD97":170892,"N_COORD97":2543987.21,"ADDRESS":"東平路２２７號","OBJECTID":481803},"geometry":{"x":170892.00000000093,"y":2543987.2100000028}},{"attributes":{"ID":481829,"DIS_CODE":0,"TOWNNAME":"東區","LI":"東光里","LIN":"26鄰","STREET":"東平路","SECT":" ","MAREA":" ","LANE":" ","ALLEY":" ","HOUSE_NO":"２５７號","E_COORD97":170818.04999999999,"N_COORD97":2543990.6200000001,"ADDRESS":"東平路２５７號","OBJECTID":481804},"geometry":{"x":170818.04999999981,"y":2543990.6200000048}},{"attributes":{"ID":481830,"DIS_CODE":0,"TOWNNAME":"東區","LI":"東光里","LIN":"26鄰","STREET":"東平路","SECT":" ","MAREA":" ","LANE":" ","ALLEY":" ","HOUSE_NO":"２５９號","E_COORD97":170813.42999999999,"N_COORD97":2543993.0899999999,"ADDRESS":"東平路２５９號","OBJECTID":481805},"geometry":{"x":170813.4299999997,"y":2543993.0900000036}},{"attributes":{"ID":481831,"DIS_CODE":0,"TOWNNAME":"東區","LI":"東光里","LIN":"26鄰","STREET":"東平路","SECT":" ","MAREA":" ","LANE":" ","ALLEY":" ","HOUSE_NO":"２６１號","E_COORD97":170808.42999999999,"N_COORD97":2543991.3300000001,"ADDRESS":"東平路２６１號","OBJECTID":481806},"geometry":{"x":170808.4299999997,"y":2543991.3299999982}},{"attributes":{"ID":481832,"DIS_CODE":0,"TOWNNAME":"東區","LI":"東光里","LIN":"26鄰","STREET":"東平路","SECT":" ","MAREA":" ","LANE":" ","ALLEY":" ","HOUSE_NO":"２６３號","E_COORD97":170804.14000000001,"N_COORD97":2543993.9199999999,"ADDRESS":"東平路２６３號","OBJECTID":481807},"geometry":{"x":170804.1400000006,"y":2543993.9199999999}},{"attributes":{"ID":481833,"DIS_CODE":0,"TOWNNAME":"東區","LI":"東光里","LIN":"26鄰","STREET":"東平路","SECT":" ","MAREA":" ","LANE":" ","ALLEY":" ","HOUSE_NO":"２６５號","E_COORD97":170799.10000000001,"N_COORD97":2543992.1299999999,"ADDRESS":"東平路２６５號","OBJECTID":481808},"geometry":{"x":170799.10000000149,"y":2543992.1300000008}},{"attributes":{"ID":481834,"DIS_CODE":0,"TOWNNAME":"東區","LI":"東光里","LIN":"26鄰","STREET":"東平路","SECT":" ","MAREA":" ","LANE":" ","ALLEY":" ","HOUSE_NO":"２６７號","E_COORD97":170794.79000000001,"N_COORD97":2543994.98,"ADDRESS":"東平路２６７號","OBJECTID":481809},"geometry":{"x":170794.7900000019,"y":2543994.9800000023}},{"attributes":{"ID":481835,"DIS_CODE":0,"TOWNNAME":"東區","LI":"東光里","LIN":"26鄰","STREET":"東平路","SECT":" ","MAREA":" ","LANE":" ","ALLEY":" ","HOUSE_NO":"２６９號","E_COORD97":170789.98999999999,"N_COORD97":2543992.29,"ADDRESS":"東平路２６９號","OBJECTID":481810},"geometry":{"x":170789.99000000022,"y":2543992.290000001}},{"attributes":{"ID":481836,"DIS_CODE":0,"TOWNNAME":"仁德區","LI":"太子里","LIN":"26鄰","STREET":"長興五街","SECT":" ","MAREA":" ","LANE":" ","ALLEY":" ","HOUSE_NO":"１２號","E_COORD97":173578.14999999999,"N_COORD97":2543588.5,"ADDRESS":"長興五街１２號","OBJECTID":481811},"geometry":{"x":173578.1500000013,"y":2543588.5000000019}},{"attributes":{"ID":481837,"DIS_CODE":0,"TOWNNAME":"仁德區","LI":"太子里","LIN":"26鄰","STREET":"長興五街","SECT":" ","MAREA":" ","LANE":" ","ALLEY":" ","HOUSE_NO":"２號","E_COORD97":173575.92999999999,"N_COORD97":2543567.75,"ADDRESS":"長興五街２號","OBJECTID":481812},"geometry":{"x":173575.93000000063,"y":2543567.75}},{"attributes":{"ID":481838,"DIS_CODE":0,"TOWNNAME":"安平區","LI":"國平里","LIN":"18鄰","STREET":"永華路","SECT":"二段","MAREA":" ","LANE":" ","ALLEY":" ","HOUSE_NO":"６７１之１號","E_COORD97":165226.13,"N_COORD97":2543482.5,"ADDRESS":"永華路二段６７１之１號","OBJECTID":481813},"geometry":{"x":165226.13000000082,"y":2543482.5000000019}},{"attributes":{"ID":481839,"DIS_CODE":0,"TOWNNAME":"新市區","LI":"新和里","LIN":"26鄰","STREET":"永福街","SECT":" ","MAREA":" ","LANE":" ","ALLEY":" ","HOUSE_NO":"１０號","E_COORD97":177807.03,"N_COORD97":2552688.5,"ADDRESS":"永福街１０號","OBJECTID":481814},"geometry":{"x":177807.03000000119,"y":2552688.5}},{"attributes":{"ID":481840,"DIS_CODE":0,"TOWNNAME":"東區","LI":"大同里","LIN":"26鄰","STREET":"大同路","SECT":"一段","MAREA":" ","LANE":" ","ALLEY":" ","HOUSE_NO":"２７７號","E_COORD97":169171.31,"N_COORD97":2542552.1400000001,"ADDRESS":"大同路一段２７７號","OBJECTID":481815},"geometry":{"x":169171.30999999959,"y":2542552.1400000006}},{"attributes":{"ID":481841,"DIS_CODE":0,"TOWNNAME":"東區","LI":"大同里","LIN":"26鄰","STREET":"大同路","SECT":"一段","MAREA":" ","LANE":" ","ALLEY":" ","HOUSE_NO":"２７９號","E_COORD97":169172.17000000001,"N_COORD97":2542548.3799999999,"ADDRESS":"大同路一段２７９號","OBJECTID":481816},"geometry":{"x":169172.17000000086,"y":2542548.379999999}},{"attributes":{"ID":481842,"DIS_CODE":0,"TOWNNAME":"中西區","LI":"西賢里","LIN":"26鄰","STREET":"西賢五街","SECT":" ","MAREA":" ","LANE":" ","ALLEY":" ","HOUSE_NO":"５９號","E_COORD97":165201.19,"N_COORD97":2544690.1800000002,"ADDRESS":"西賢五街５９號","OBJECTID":481817},"geometry":{"x":165201.19000000041,"y":2544690.1799999997}},{"attributes":{"ID":481843,"DIS_CODE":0,"TOWNNAME":"東區","LI":"大同里","LIN":"26鄰","STREET":"大同路","SECT":"一段","MAREA":" ","LANE":" ","ALLEY":" ","HOUSE_NO":"２８１號","E_COORD97":169176.95000000001,"N_COORD97":2542543.5899999999,"ADDRESS":"大同路一段２８１號","OBJECTID":481818},"geometry":{"x":169176.95000000112,"y":2542543.5899999999}},{"attributes":{"ID":481844,"DIS_CODE":0,"TOWNNAME":"東區","LI":"大同里","LIN":"26鄰","STREET":"大同路","SECT":"一段","MAREA":" ","LANE":" ","ALLEY":" ","HOUSE_NO":"２８３號","E_COORD97":169179.35000000001,"N_COORD97":2542538.98,"ADDRESS":"大同路一段２８３號","OBJECTID":481819},"geometry":{"x":169179.34999999963,"y":2542538.9800000004}},{"attributes":{"ID":481845,"DIS_CODE":0,"TOWNNAME":"東區","LI":"大同里","LIN":"26鄰","STREET":"大同路","SECT":"一段","MAREA":" ","LANE":" ","ALLEY":" ","HOUSE_NO":"２８５號","E_COORD97":169181.06,"N_COORD97":2542534.3700000001,"ADDRESS":"大同路一段２８５號","OBJECTID":481820},"geometry":{"x":169181.06000000052,"y":2542534.3700000048}},{"attributes":{"ID":481846,"DIS_CODE":0,"TOWNNAME":"東區","LI":"大同里","LIN":"26鄰","STREET":"大同路","SECT":"一段","MAREA":" ","LANE":" ","ALLEY":" ","HOUSE_NO":"２８７號","E_COORD97":169182.76999999999,"N_COORD97":2542530.7799999998,"ADDRESS":"大同路一段２８７號","OBJECTID":481821},"geometry":{"x":169182.77000000048,"y":2542530.7800000012}},{"attributes":{"ID":481847,"DIS_CODE":0,"TOWNNAME":"東區","LI":"大同里","LIN":"26鄰","STREET":"大同路","SECT":"一段","MAREA":" ","LANE":" ","ALLEY":" ","HOUSE_NO":"２８９號","E_COORD97":169183.45000000001,"N_COORD97":2542526.6800000002,"ADDRESS":"大同路一段２８９號","OBJECTID":481822},"geometry":{"x":169183.45000000205,"y":2542526.6799999997}},{"attributes":{"ID":481848,"DIS_CODE":0,"TOWNNAME":"東區","LI":"大同里","LIN":"26鄰","STREET":"大同路","SECT":"一段","MAREA":" ","LANE":" ","ALLEY":" ","HOUSE_NO":"２９１號","E_COORD97":169185.32999999999,"N_COORD97":2542522.5800000001,"ADDRESS":"大同路一段２９１號","OBJECTID":481823},"geometry":{"x":169185.33000000007,"y":2542522.5800000019}},{"attributes":{"ID":481849,"DIS_CODE":0,"TOWNNAME":"安平區","LI":"國平里","LIN":"1鄰","STREET":"永華路","SECT":"二段","MAREA":" ","LANE":" ","ALLEY":" ","HOUSE_NO":"４３３號","E_COORD97":165731.04000000001,"N_COORD97":2543407.9300000002,"ADDRESS":"永華路二段４３３號","OBJECTID":481824},"geometry":{"x":165731.04000000004,"y":2543407.9300000016}},{"attributes":{"ID":481850,"DIS_CODE":0,"TOWNNAME":"東區","LI":"大同里","LIN":"26鄰","STREET":"大同路","SECT":"一段","MAREA":" ","LANE":" ","ALLEY":" ","HOUSE_NO":"２９３號","E_COORD97":169188.75,"N_COORD97":2542517.1200000001,"ADDRESS":"大同路一段２９３號","OBJECTID":481825},"geometry":{"x":169188.75000000093,"y":2542517.1200000029}},{"attributes":{"ID":481851,"DIS_CODE":0,"TOWNNAME":"東區","LI":"大同里","LIN":"26鄰","STREET":"大同路","SECT":"一段","MAREA":" ","LANE":" ","ALLEY":" ","HOUSE_NO":"２９５號","E_COORD97":169191.14000000001,"N_COORD97":2542509.2599999998,"ADDRESS":"大同路一段２９５號","OBJECTID":481826},"geometry":{"x":169191.13999999966,"y":2542509.2599999998}},{"attributes":{"ID":481852,"DIS_CODE":0,"TOWNNAME":"安平區","LI":"國平里","LIN":"18鄰","STREET":"永華路","SECT":"二段","MAREA":" ","LANE":" ","ALLEY":" ","HOUSE_NO":"６７３號","E_COORD97":165192.23000000001,"N_COORD97":2543450.1200000001,"ADDRESS":"永華路二段６７３號","OBJECTID":481827},"geometry":{"x":165192.23000000138,"y":2543450.120000001}},{"attributes":{"ID":481853,"DIS_CODE":0,"TOWNNAME":"東區","LI":"大同里","LIN":"26鄰","STREET":"大同路","SECT":"一段","MAREA":" ","LANE":" ","ALLEY":" ","HOUSE_NO":"２９７號","E_COORD97":169194.89999999999,"N_COORD97":2542506.3599999999,"ADDRESS":"大同路一段２９７號","OBJECTID":481828},"geometry":{"x":169194.9000000013,"y":2542506.3600000013}},{"attributes":{"ID":481854,"DIS_CODE":0,"TOWNNAME":"東區","LI":"大同里","LIN":"26鄰","STREET":"大同路","SECT":"一段","MAREA":" ","LANE":" ","ALLEY":" ","HOUSE_NO":"２９９號","E_COORD97":169196.10000000001,"N_COORD97":2542502.6600000001,"ADDRESS":"大同路一段２９９號","OBJECTID":481829},"geometry":{"x":169196.10000000056,"y":2542502.660000002}},{"attributes":{"ID":481855,"DIS_CODE":0,"TOWNNAME":"中西區","LI":"西賢里","LIN":"26鄰","STREET":"西賢五街","SECT":" ","MAREA":" ","LANE":" ","ALLEY":" ","HOUSE_NO":"２５號","E_COORD97":165187.87,"N_COORD97":2544622.52,"ADDRESS":"西賢五街２５號","OBJECTID":481830},"geometry":{"x":165187.87000000011,"y":2544622.5199999996}},{"attributes":{"ID":481856,"DIS_CODE":0,"TOWNNAME":"中西區","LI":"西賢里","LIN":"26鄰","STREET":"西賢五街","SECT":" ","MAREA":" ","LANE":" ","ALLEY":" ","HOUSE_NO":"２７號","E_COORD97":165189.01999999999,"N_COORD97":2544627.1099999999,"ADDRESS":"西賢五街２７號","OBJECTID":481831},"geometry":{"x":165189.02000000048,"y":2544627.1100000013}},{"attributes":{"ID":481857,"DIS_CODE":0,"TOWNNAME":"中西區","LI":"西賢里","LIN":"26鄰","STREET":"西賢五街","SECT":" ","MAREA":" ","LANE":" ","ALLEY":" ","HOUSE_NO":"２９號","E_COORD97":165189.84,"N_COORD97":2544630.5499999998,"ADDRESS":"西賢五街２９號","OBJECTID":481832},"geometry":{"x":165189.83999999985,"y":2544630.5500000007}},{"attributes":{"ID":481858,"DIS_CODE":0,"TOWNNAME":"中西區","LI":"西賢里","LIN":"26鄰","STREET":"西賢五街","SECT":" ","MAREA":" ","LANE":" ","ALLEY":" ","HOUSE_NO":"３１號","E_COORD97":165190.34,"N_COORD97":2544634.6499999999,"ADDRESS":"西賢五街３１號","OBJECTID":481833},"geometry":{"x":165190.34000000078,"y":2544634.6500000022}},{"attributes":{"ID":481859,"DIS_CODE":0,"TOWNNAME":"中西區","LI":"西賢里","LIN":"26鄰","STREET":"西賢五街","SECT":" ","MAREA":" ","LANE":" ","ALLEY":" ","HOUSE_NO":"３３號","E_COORD97":165191.48999999999,"N_COORD97":2544638.4199999999,"ADDRESS":"西賢五街３３號","OBJECTID":481834},"geometry":{"x":165191.49000000115,"y":2544638.4200000037}},{"attributes":{"ID":481860,"DIS_CODE":0,"TOWNNAME":"中西區","LI":"西賢里","LIN":"26鄰","STREET":"西賢五街","SECT":" ","MAREA":" ","LANE":" ","ALLEY":" ","HOUSE_NO":"３５號","E_COORD97":165192.14000000001,"N_COORD97":2544642.6800000002,"ADDRESS":"西賢五街３５號","OBJECTID":481835},"geometry":{"x":165192.13999999966,"y":2544642.6799999997}},{"attributes":{"ID":481861,"DIS_CODE":0,"TOWNNAME":"中西區","LI":"西賢里","LIN":"26鄰","STREET":"西賢五街","SECT":" ","MAREA":" ","LANE":" ","ALLEY":" ","HOUSE_NO":"３７號","E_COORD97":165193.45999999999,"N_COORD97":2544646.9500000002,"ADDRESS":"西賢五街３７號","OBJECTID":481836},"geometry":{"x":165193.46000000089,"y":2544646.9499999993}},{"attributes":{"ID":481862,"DIS_CODE":0,"TOWNNAME":"中西區","LI":"西賢里","LIN":"26鄰","STREET":"西賢五街","SECT":" ","MAREA":" ","LANE":" ","ALLEY":" ","HOUSE_NO":"３８號","E_COORD97":165210.09,"N_COORD97":2544621.5899999999,"ADDRESS":"西賢五街３８號","OBJECTID":481837},"geometry":{"x":165210.08999999985,"y":2544621.5900000017}},{"attributes":{"ID":481863,"DIS_CODE":0,"TOWNNAME":"中西區","LI":"西賢里","LIN":"26鄰","STREET":"西賢五街","SECT":" ","MAREA":" ","LANE":" ","ALLEY":" ","HOUSE_NO":"３９號","E_COORD97":165193.78,"N_COORD97":2544650.8799999999,"ADDRESS":"西賢五街３９號","OBJECTID":481838},"geometry":{"x":165193.78000000026,"y":2544650.879999999}},{"attributes":{"ID":481864,"DIS_CODE":0,"TOWNNAME":"中西區","LI":"西賢里","LIN":"26鄰","STREET":"西賢五街","SECT":" ","MAREA":" ","LANE":" ","ALLEY":" ","HOUSE_NO":"４０號","E_COORD97":165210.34,"N_COORD97":2544626.4199999999,"ADDRESS":"西賢五街４０號","OBJECTID":481839},"geometry":{"x":165210.34000000171,"y":2544626.4200000018}},{"attributes":{"ID":481865,"DIS_CODE":0,"TOWNNAME":"中西區","LI":"西賢里","LIN":"26鄰","STREET":"西賢五街","SECT":" ","MAREA":" ","LANE":" ","ALLEY":" ","HOUSE_NO":"４１號","E_COORD97":165195.12,"N_COORD97":2544654.4300000002,"ADDRESS":"西賢五街４１號","OBJECTID":481840},"geometry":{"x":165195.12000000197,"y":2544654.4299999997}},{"attributes":{"ID":481866,"DIS_CODE":0,"TOWNNAME":"中西區","LI":"西賢里","LIN":"26鄰","STREET":"西賢五街","SECT":" ","MAREA":" ","LANE":" ","ALLEY":" ","HOUSE_NO":"４２號","E_COORD97":165213.01000000001,"N_COORD97":2544630.6099999999,"ADDRESS":"西賢五街４２號","OBJECTID":481841},"geometry":{"x":165213.01000000071,"y":2544630.6100000013}},{"attributes":{"ID":481867,"DIS_CODE":0,"TOWNNAME":"中西區","LI":"西賢里","LIN":"26鄰","STREET":"西賢五街","SECT":" ","MAREA":" ","LANE":" ","ALLEY":" ","HOUSE_NO":"４３號","E_COORD97":165195.60999999999,"N_COORD97":2544660.0099999998,"ADDRESS":"西賢五街４３號","OBJECTID":481842},"geometry":{"x":165195.6100000022,"y":2544660.0099999998}},{"attributes":{"ID":481868,"DIS_CODE":0,"TOWNNAME":"中西區","LI":"西賢里","LIN":"26鄰","STREET":"西賢五街","SECT":" ","MAREA":" ","LANE":" ","ALLEY":" ","HOUSE_NO":"４５號","E_COORD97":165196.60000000001,"N_COORD97":2544663.7799999998,"ADDRESS":"西賢五街４５號","OBJECTID":481843},"geometry":{"x":165196.60000000149,"y":2544663.7800000012}},{"attributes":{"ID":481869,"DIS_CODE":0,"TOWNNAME":"中西區","LI":"西賢里","LIN":"26鄰","STREET":"西賢五街","SECT":" ","MAREA":" ","LANE":" ","ALLEY":" ","HOUSE_NO":"４６號","E_COORD97":165212.76999999999,"N_COORD97":2544634.1099999999,"ADDRESS":"西賢五街４６號","OBJECTID":481844},"geometry":{"x":165212.77000000048,"y":2544634.1100000013}},{"attributes":{"ID":481870,"DIS_CODE":0,"TOWNNAME":"中西區","LI":"西賢里","LIN":"26鄰","STREET":"西賢五街","SECT":" ","MAREA":" ","LANE":" ","ALLEY":" ","HOUSE_NO":"４７號","E_COORD97":165196.92999999999,"N_COORD97":2544667.2200000002,"ADDRESS":"西賢五街４７號","OBJECTID":481845},"geometry":{"x":165196.9299999997,"y":2544667.2200000007}},{"attributes":{"ID":481871,"DIS_CODE":0,"TOWNNAME":"中西區","LI":"西賢里","LIN":"26鄰","STREET":"西賢五街","SECT":" ","MAREA":" ","LANE":" ","ALLEY":" ","HOUSE_NO":"４８號","E_COORD97":165214.17000000001,"N_COORD97":2544638.2999999998,"ADDRESS":"西賢五街４８號","OBJECTID":481846},"geometry":{"x":165214.16999999993,"y":2544638.3000000026}},{"attributes":{"ID":481872,"DIS_CODE":0,"TOWNNAME":"中西區","LI":"西賢里","LIN":"26鄰","STREET":"西賢五街","SECT":" ","MAREA":" ","LANE":" ","ALLEY":" ","HOUSE_NO":"４９號","E_COORD97":165198.57000000001,"N_COORD97":2544671.1600000001,"ADDRESS":"西賢五街４９號","OBJECTID":481847},"geometry":{"x":165198.5700000003,"y":2544671.160000002}},{"attributes":{"ID":481873,"DIS_CODE":0,"TOWNNAME":"中西區","LI":"西賢里","LIN":"26鄰","STREET":"西賢五街","SECT":" ","MAREA":" ","LANE":" ","ALLEY":" ","HOUSE_NO":"５０號","E_COORD97":165214.79999999999,"N_COORD97":2544642.2400000002,"ADDRESS":"西賢五街５０號","OBJECTID":481848},"geometry":{"x":165214.80000000075,"y":2544642.2400000002}},{"attributes":{"ID":481874,"DIS_CODE":0,"TOWNNAME":"中西區","LI":"西賢里","LIN":"26鄰","STREET":"西賢五街","SECT":" ","MAREA":" ","LANE":" ","ALLEY":" ","HOUSE_NO":"５１號","E_COORD97":165198.57000000001,"N_COORD97":2544675.0899999999,"ADDRESS":"西賢五街５１號","OBJECTID":481849},"geometry":{"x":165198.5700000003,"y":2544675.0900000017}},{"attributes":{"ID":481875,"DIS_CODE":0,"TOWNNAME":"中西區","LI":"西賢里","LIN":"26鄰","STREET":"西賢五街","SECT":" ","MAREA":" ","LANE":" ","ALLEY":" ","HOUSE_NO":"５２號","E_COORD97":165215.82000000001,"N_COORD97":2544646.8100000001,"ADDRESS":"西賢五街５２號","OBJECTID":481850},"geometry":{"x":165215.8200000003,"y":2544646.8100000024}},{"attributes":{"ID":481876,"DIS_CODE":0,"TOWNNAME":"中西區","LI":"西賢里","LIN":"26鄰","STREET":"西賢五街","SECT":" ","MAREA":" ","LANE":" ","ALLEY":" ","HOUSE_NO":"５３號","E_COORD97":165199.54999999999,"N_COORD97":2544679.1899999999,"ADDRESS":"西賢五街５３號","OBJECTID":481851},"geometry":{"x":165199.55000000075,"y":2544679.1899999995}},{"attributes":{"ID":481877,"DIS_CODE":0,"TOWNNAME":"中西區","LI":"西賢里","LIN":"26鄰","STREET":"西賢五街","SECT":" ","MAREA":" ","LANE":" ","ALLEY":" ","HOUSE_NO":"５５號","E_COORD97":165200.37,"N_COORD97":2544683.29,"ADDRESS":"西賢五街５５號","OBJECTID":481852},"geometry":{"x":165200.37000000197,"y":2544683.290000001}},{"attributes":{"ID":481878,"DIS_CODE":0,"TOWNNAME":"中西區","LI":"西賢里","LIN":"26鄰","STREET":"西賢五街","SECT":" ","MAREA":" ","LANE":" ","ALLEY":" ","HOUSE_NO":"５６號","E_COORD97":165216.84,"N_COORD97":2544651.1299999999,"ADDRESS":"西賢五街５６號","OBJECTID":481853},"geometry":{"x":165216.83999999985,"y":2544651.1300000008}},{"attributes":{"ID":481879,"DIS_CODE":0,"TOWNNAME":"中西區","LI":"西賢里","LIN":"26鄰","STREET":"西賢五街","SECT":" ","MAREA":" ","LANE":" ","ALLEY":" ","HOUSE_NO":"５７號","E_COORD97":165200.70000000001,"N_COORD97":2544686.73,"ADDRESS":"西賢五街５７號","OBJECTID":481854},"geometry":{"x":165200.70000000019,"y":2544686.7300000004}},{"attributes":{"ID":481880,"DIS_CODE":0,"TOWNNAME":"中西區","LI":"西賢里","LIN":"26鄰","STREET":"西賢五街","SECT":" ","MAREA":" ","LANE":" ","ALLEY":" ","HOUSE_NO":"５８號","E_COORD97":165217.60999999999,"N_COORD97":2544654.6099999999,"ADDRESS":"西賢五街５８號","OBJECTID":481855},"geometry":{"x":165217.6100000022,"y":2544654.6100000013}},{"attributes":{"ID":481881,"DIS_CODE":0,"TOWNNAME":"中西區","LI":"西賢里","LIN":"26鄰","STREET":"西賢五街","SECT":" ","MAREA":" ","LANE":" ","ALLEY":" ","HOUSE_NO":"６０號","E_COORD97":165217.73999999999,"N_COORD97":2544659.0499999998,"ADDRESS":"西賢五街６０號","OBJECTID":481856},"geometry":{"x":165217.74000000022,"y":2544659.0500000026}},{"attributes":{"ID":481882,"DIS_CODE":0,"TOWNNAME":"中西區","LI":"西賢里","LIN":"26鄰","STREET":"西賢五街","SECT":" ","MAREA":" ","LANE":" ","ALLEY":" ","HOUSE_NO":"６１號","E_COORD97":165202.17999999999,"N_COORD97":2544695.75,"ADDRESS":"西賢五街６１號","OBJECTID":481857},"geometry":{"x":165202.1799999997,"y":2544695.75}},{"attributes":{"ID":481883,"DIS_CODE":0,"TOWNNAME":"中西區","LI":"西賢里","LIN":"26鄰","STREET":"西賢五街","SECT":" ","MAREA":" ","LANE":" ","ALLEY":" ","HOUSE_NO":"６６號","E_COORD97":165219.39000000001,"N_COORD97":2544667.3100000001,"ADDRESS":"西賢五街６６號","OBJECTID":481858},"geometry":{"x":165219.38999999966,"y":2544667.3100000024}},{"attributes":{"ID":481884,"DIS_CODE":0,"TOWNNAME":"中西區","LI":"西賢里","LIN":"26鄰","STREET":"西賢五街","SECT":" ","MAREA":" ","LANE":" ","ALLEY":" ","HOUSE_NO":"６８號","E_COORD97":165220.16,"N_COORD97":2544671.5,"ADDRESS":"西賢五街６８號","OBJECTID":481859},"geometry":{"x":165220.16000000015,"y":2544671.5}},{"attributes":{"ID":481885,"DIS_CODE":0,"TOWNNAME":"中西區","LI":"西賢里","LIN":"26鄰","STREET":"西賢五街","SECT":" ","MAREA":" ","LANE":" ","ALLEY":" ","HOUSE_NO":"７０號","E_COORD97":165221.67999999999,"N_COORD97":2544675.9399999999,"ADDRESS":"西賢五街７０號","OBJECTID":481860},"geometry":{"x":165221.68000000063,"y":2544675.9400000013}},{"attributes":{"ID":481886,"DIS_CODE":0,"TOWNNAME":"安平區","LI":"國平里","LIN":"18鄰","STREET":"健康二街","SECT":" ","MAREA":" ","LANE":" ","ALLEY":" ","HOUSE_NO":"３２３號","E_COORD97":165264.14000000001,"N_COORD97":2543404.02,"ADDRESS":"健康二街３２３號","OBJECTID":481861},"geometry":{"x":165264.14000000153,"y":2543404.0200000014}},{"attributes":{"ID":481887,"DIS_CODE":0,"TOWNNAME":"中西區","LI":"西賢里","LIN":"26鄰","STREET":"西賢五街","SECT":" ","MAREA":" ","LANE":" ","ALLEY":" ","HOUSE_NO":"７６號","E_COORD97":165222.45000000001,"N_COORD97":2544683.3100000001,"ADDRESS":"西賢五街７６號","OBJECTID":481862},"geometry":{"x":165222.45000000112,"y":2544683.3100000005}},{"attributes":{"ID":481888,"DIS_CODE":0,"TOWNNAME":"中西區","LI":"西賢里","LIN":"26鄰","STREET":"西賢五街","SECT":" ","MAREA":" ","LANE":" ","ALLEY":" ","HOUSE_NO":"７８號","E_COORD97":165223.97,"N_COORD97":2544687.3700000001,"ADDRESS":"西賢五街７８號","OBJECTID":481863},"geometry":{"x":165223.96999999974,"y":2544687.3700000048}},{"attributes":{"ID":481889,"DIS_CODE":0,"TOWNNAME":"中西區","LI":"西賢里","LIN":"26鄰","STREET":"西賢五街","SECT":" ","MAREA":" ","LANE":" ","ALLEY":" ","HOUSE_NO":"８０號","E_COORD97":165223.35000000001,"N_COORD97":2544690.9199999999,"ADDRESS":"西賢五街８０號","OBJECTID":481864},"geometry":{"x":165223.34999999963,"y":2544690.9200000018}},{"attributes":{"ID":481890,"DIS_CODE":0,"TOWNNAME":"中西區","LI":"西賢里","LIN":"26鄰","STREET":"西賢五街","SECT":" ","MAREA":" ","LANE":" ","ALLEY":" ","HOUSE_NO":"８２號","E_COORD97":165223.70000000001,"N_COORD97":2544693.2599999998,"ADDRESS":"西賢五街８２號","OBJECTID":481865},"geometry":{"x":165223.70000000112,"y":2544693.2599999998}},{"attributes":{"ID":481891,"DIS_CODE":0,"TOWNNAME":"中西區","LI":"西賢里","LIN":"26鄰","STREET":"西賢五街","SECT":" ","MAREA":" ","LANE":" ","ALLEY":" ","HOUSE_NO":"８６號","E_COORD97":165225.13,"N_COORD97":2544697.3199999998,"ADDRESS":"西賢五街８６號","OBJECTID":481866},"geometry":{"x":165225.12999999989,"y":2544697.320000004}},{"attributes":{"ID":481892,"DIS_CODE":0,"TOWNNAME":"永康區","LI":"永康里","LIN":"26鄰","STREET":"中山北路","SECT":" ","MAREA":" ","LANE":" ","ALLEY":" ","HOUSE_NO":"１２２號","E_COORD97":174162.32000000001,"N_COORD97":2547474.2000000002,"ADDRESS":"中山北路１２２號","OBJECTID":481867},"geometry":{"x":174162.32000000123,"y":2547474.2000000011}},{"attributes":{"ID":481893,"DIS_CODE":0,"TOWNNAME":"安平區","LI":"華平里","LIN":"22鄰","STREET":"建平八街","SECT":" ","MAREA":" ","LANE":" ","ALLEY":" ","HOUSE_NO":"４０７號","E_COORD97":165275.47,"N_COORD97":2543570.1000000001,"ADDRESS":"建平八街４０７號","OBJECTID":481868},"geometry":{"x":165275.4700000016,"y":2543570.1000000015}},{"attributes":{"ID":481894,"DIS_CODE":0,"TOWNNAME":"安平區","LI":"建平里","LIN":"28鄰","STREET":"建平九街","SECT":" ","MAREA":" ","LANE":" ","ALLEY":" ","HOUSE_NO":"４６號","E_COORD97":166048.67000000001,"N_COORD97":2543534.3599999999,"ADDRESS":"建平九街４６號","OBJECTID":481869},"geometry":{"x":166048.66999999993,"y":2543534.3600000013}},{"attributes":{"ID":481895,"DIS_CODE":0,"TOWNNAME":"永康區","LI":"甲頂里","LIN":"26鄰","STREET":"中央路","SECT":" ","MAREA":" ","LANE":" ","ALLEY":" ","HOUSE_NO":"１１號","E_COORD97":169638.64999999999,"N_COORD97":2546982.0600000001,"ADDRESS":"中央路１１號","OBJECTID":481870},"geometry":{"x":169638.6500000013,"y":2546982.0600000024}},{"attributes":{"ID":481896,"DIS_CODE":0,"TOWNNAME":"仁德區","LI":"仁義里","LIN":"26鄰","STREET":"中山路","SECT":" ","MAREA":" ","LANE":" ","ALLEY":" ","HOUSE_NO":"５９２號","E_COORD97":173286.63,"N_COORD97":2541348.25,"ADDRESS":"中山路５９２號","OBJECTID":481871},"geometry":{"x":173286.63000000082,"y":2541348.2500000019}},{"attributes":{"ID":481897,"DIS_CODE":0,"TOWNNAME":"仁德區","LI":"上崙里","LIN":"26鄰","STREET":"中正路","SECT":"一段","MAREA":" ","LANE":" ","ALLEY":" ","HOUSE_NO":"７３０號","E_COORD97":172932.64000000001,"N_COORD97":2537750.9199999999,"ADDRESS":"中正路一段７３０號","OBJECTID":481872},"geometry":{"x":172932.63999999966,"y":2537750.9199999999}},{"attributes":{"ID":481898,"DIS_CODE":0,"TOWNNAME":"仁德區","LI":"上崙里","LIN":"26鄰","STREET":"中正路","SECT":"一段","MAREA":" ","LANE":" ","ALLEY":" ","HOUSE_NO":"７３２號","E_COORD97":172934.41,"N_COORD97":2537757.9399999999,"ADDRESS":"中正路一段７３２號","OBJECTID":481873},"geometry":{"x":172934.41000000015,"y":2537757.9399999995}},{"attributes":{"ID":481899,"DIS_CODE":0,"TOWNNAME":"仁德區","LI":"上崙里","LIN":"26鄰","STREET":"中正路","SECT":"一段","MAREA":" ","LANE":" ","ALLEY":" ","HOUSE_NO":"７４０號","E_COORD97":172943.16,"N_COORD97":2537786.52,"ADDRESS":"中正路一段７４０號","OBJECTID":481874},"geometry":{"x":172943.16000000015,"y":2537786.5200000014}},{"attributes":{"ID":481900,"DIS_CODE":0,"TOWNNAME":"新市區","LI":"新和里","LIN":"26鄰","STREET":"永福街","SECT":" ","MAREA":" ","LANE":" ","ALLEY":" ","HOUSE_NO":"１３號","E_COORD97":177794.79000000001,"N_COORD97":2552675.75,"ADDRESS":"永福街１３號","OBJECTID":481875},"geometry":{"x":177794.79000000097,"y":2552675.7500000019}},{"attributes":{"ID":481901,"DIS_CODE":0,"TOWNNAME":"佳里區","LI":"建南里","LIN":"26鄰","STREET":"公園路","SECT":" ","MAREA":" ","LANE":" ","ALLEY":" ","HOUSE_NO":"７３號","E_COORD97":165326.92000000001,"N_COORD97":2561583.6899999999,"ADDRESS":"公園路７３號","OBJECTID":481876},"geometry":{"x":165326.92000000179,"y":2561583.6899999995}},{"attributes":{"ID":481902,"DIS_CODE":0,"TOWNNAME":"佳里區","LI":"建南里","LIN":"26鄰","STREET":"公園路","SECT":" ","MAREA":" ","LANE":" ","ALLEY":" ","HOUSE_NO":"６９號","E_COORD97":165330.59,"N_COORD97":2561576.7000000002,"ADDRESS":"公園路６９號","OBJECTID":481877},"geometry":{"x":165330.58999999892,"y":2561576.6999999993}},{"attributes":{"ID":481903,"DIS_CODE":0,"TOWNNAME":"佳里區","LI":"建南里","LIN":"26鄰","STREET":"公園路","SECT":" ","MAREA":" ","LANE":" ","ALLEY":" ","HOUSE_NO":"１２號","E_COORD97":165458.14000000001,"N_COORD97":2561557.8599999999,"ADDRESS":"公園路１２號","OBJECTID":481878},"geometry":{"x":165458.1400000006,"y":2561557.8600000013}},{"attributes":{"ID":481904,"DIS_CODE":0,"TOWNNAME":"佳里區","LI":"建南里","LIN":"26鄰","STREET":"公園路","SECT":" ","MAREA":" ","LANE":" ","ALLEY":" ","HOUSE_NO":"１號","E_COORD97":165443.51999999999,"N_COORD97":2561481.27,"ADDRESS":"公園路１號","OBJECTID":481879},"geometry":{"x":165443.52000000048,"y":2561481.2699999996}},{"attributes":{"ID":481905,"DIS_CODE":0,"TOWNNAME":"佳里區","LI":"建南里","LIN":"26鄰","STREET":"公園路","SECT":" ","MAREA":" ","LANE":" ","ALLEY":" ","HOUSE_NO":"８６號","E_COORD97":165409.85000000001,"N_COORD97":2561631.6200000001,"ADDRESS":"公園路８６號","OBJECTID":481880},"geometry":{"x":165409.84999999963,"y":2561631.6200000029}},{"attributes":{"ID":481906,"DIS_CODE":0,"TOWNNAME":"佳里區","LI":"建南里","LIN":"26鄰","STREET":"公園路","SECT":" ","MAREA":" ","LANE":" ","ALLEY":" ","HOUSE_NO":"８８號","E_COORD97":165458.66,"N_COORD97":2561640.8100000001,"ADDRESS":"公園路８８號","OBJECTID":481881},"geometry":{"x":165458.66000000015,"y":2561640.8100000005}},{"attributes":{"ID":481907,"DIS_CODE":0,"TOWNNAME":"佳里區","LI":"建南里","LIN":"26鄰","STREET":"公園路","SECT":" ","MAREA":" ","LANE":" ","ALLEY":" ","HOUSE_NO":"９０號","E_COORD97":165442.76999999999,"N_COORD97":2561654.8300000001,"ADDRESS":"公園路９０號","OBJECTID":481882},"geometry":{"x":165442.77000000142,"y":2561654.8300000001}},{"attributes":{"ID":481908,"DIS_CODE":0,"TOWNNAME":"永康區","LI":"東灣里","LIN":"26鄰","STREET":"大灣東路","SECT":" ","MAREA":" ","LANE":" ","ALLEY":" ","HOUSE_NO":"２４２號","E_COORD97":174829.17000000001,"N_COORD97":2544497.2400000002,"ADDRESS":"大灣東路２４２號","OBJECTID":481883},"geometry":{"x":174829.17000000086,"y":2544497.2399999984}},{"attributes":{"ID":481909,"DIS_CODE":0,"TOWNNAME":"永康區","LI":"尚頂里","LIN":"26鄰","STREET":"南台街","SECT":" ","MAREA":" ","LANE":" ","ALLEY":" ","HOUSE_NO":"１２號地下一層","E_COORD97":170470,"N_COORD97":2546964.75,"ADDRESS":"南台街１２號地下一層","OBJECTID":481884},"geometry":{"x":170470.00000000093,"y":2546964.75}},{"attributes":{"ID":481910,"DIS_CODE":0,"TOWNNAME":"永康區","LI":"東灣里","LIN":"26鄰","STREET":"大灣東路","SECT":" ","MAREA":" ","LANE":" ","ALLEY":" ","HOUSE_NO":"４０８號","E_COORD97":175198.70999999999,"N_COORD97":2544673,"ADDRESS":"大灣東路４０８號","OBJECTID":481885},"geometry":{"x":175198.70999999996,"y":2544673.0000000019}},{"attributes":{"ID":481911,"DIS_CODE":0,"TOWNNAME":"新市區","LI":"港墘里","LIN":"26鄰","STREET":"華美街","SECT":" ","MAREA":" ","LANE":" ","ALLEY":" ","HOUSE_NO":"３４號","E_COORD97":178164.32000000001,"N_COORD97":2552923.7999999998,"ADDRESS":"華美街３４號","OBJECTID":481886},"geometry":{"x":178164.32000000123,"y":2552923.8000000026}},{"attributes":{"ID":481912,"DIS_CODE":0,"TOWNNAME":"東區","LI":"大福里","LIN":"26鄰","STREET":"榮譽街","SECT":" ","MAREA":" ","LANE":" ","ALLEY":" ","HOUSE_NO":"３２號","E_COORD97":169640.85999999999,"N_COORD97":2541635.4300000002,"ADDRESS":"榮譽街３２號","OBJECTID":481887},"geometry":{"x":169640.86000000127,"y":2541635.4300000016}},{"attributes":{"ID":481913,"DIS_CODE":0,"TOWNNAME":"東區","LI":"大福里","LIN":"26鄰","STREET":"榮譽街","SECT":" ","MAREA":" ","LANE":" ","ALLEY":" ","HOUSE_NO":"３２號之１","E_COORD97":169644.67000000001,"N_COORD97":2541637.46,"ADDRESS":"榮譽街３２號之１","OBJECTID":481888},"geometry":{"x":169644.67000000086,"y":2541637.4600000009}},{"attributes":{"ID":481914,"DIS_CODE":0,"TOWNNAME":"東區","LI":"大福里","LIN":"26鄰","STREET":"榮譽街","SECT":" ","MAREA":" ","LANE":" ","ALLEY":" ","HOUSE_NO":"３２號之２","E_COORD97":169648.48000000001,"N_COORD97":2541639.23,"ADDRESS":"榮譽街３２號之２","OBJECTID":481889},"geometry":{"x":169648.48000000138,"y":2541639.2300000004}},{"attributes":{"ID":481915,"DIS_CODE":0,"TOWNNAME":"東區","LI":"大福里","LIN":"26鄰","STREET":"榮譽街","SECT":" ","MAREA":" ","LANE":" ","ALLEY":" ","HOUSE_NO":"３２號之３","E_COORD97":169652.79999999999,"N_COORD97":2541640.7599999998,"ADDRESS":"榮譽街３２號之３","OBJECTID":481890},"geometry":{"x":169652.80000000075,"y":2541640.7599999998}},{"attributes":{"ID":481916,"DIS_CODE":0,"TOWNNAME":"東區","LI":"大福里","LIN":"26鄰","STREET":"榮譽街","SECT":" ","MAREA":" ","LANE":" ","ALLEY":" ","HOUSE_NO":"３２號之４","E_COORD97":169656.60999999999,"N_COORD97":2541631.1200000001,"ADDRESS":"榮譽街３２號之４","OBJECTID":481891},"geometry":{"x":169656.61000000034,"y":2541631.1200000048}},{"attributes":{"ID":481917,"DIS_CODE":0,"TOWNNAME":"東區","LI":"大福里","LIN":"26鄰","STREET":"榮譽街","SECT":" ","MAREA":" ","LANE":" ","ALLEY":" ","HOUSE_NO":"３２號之５","E_COORD97":169652.54000000001,"N_COORD97":2541629.8500000001,"ADDRESS":"榮譽街３２號之５","OBJECTID":481892},"geometry":{"x":169652.54000000097,"y":2541629.8499999996}},{"attributes":{"ID":481918,"DIS_CODE":0,"TOWNNAME":"東區","LI":"大福里","LIN":"26鄰","STREET":"榮譽街","SECT":" ","MAREA":" ","LANE":" ","ALLEY":" ","HOUSE_NO":"３２號之６","E_COORD97":169648.23000000001,"N_COORD97":2541628.3300000001,"ADDRESS":"榮譽街３２號之６","OBJECTID":481893},"geometry":{"x":169648.23000000138,"y":2541628.3299999982}},{"attributes":{"ID":481919,"DIS_CODE":0,"TOWNNAME":"東區","LI":"大福里","LIN":"26鄰","STREET":"榮譽街","SECT":" ","MAREA":" ","LANE":" ","ALLEY":" ","HOUSE_NO":"３２號之７","E_COORD97":169644.67000000001,"N_COORD97":2541626.5499999998,"ADDRESS":"榮譽街３２號之７","OBJECTID":481894},"geometry":{"x":169644.67000000086,"y":2541626.5500000007}},{"attributes":{"ID":481920,"DIS_CODE":0,"TOWNNAME":"東區","LI":"大福里","LIN":"26鄰","STREET":"榮譽街","SECT":" ","MAREA":" ","LANE":" ","ALLEY":" ","HOUSE_NO":"３４號","E_COORD97":169652.13,"N_COORD97":2541621.6899999999,"ADDRESS":"榮譽街３４號","OBJECTID":481895},"geometry":{"x":169652.13000000082,"y":2541621.6899999995}},{"attributes":{"ID":481921,"DIS_CODE":0,"TOWNNAME":"東區","LI":"大福里","LIN":"26鄰","STREET":"榮譽街","SECT":" ","MAREA":" ","LANE":" ","ALLEY":" ","HOUSE_NO":"３４號之１","E_COORD97":169654.17000000001,"N_COORD97":2541617.8799999999,"ADDRESS":"榮譽街３４號之１","OBJECTID":481896},"geometry":{"x":169654.16999999993,"y":2541617.8800000008}},{"attributes":{"ID":481922,"DIS_CODE":0,"TOWNNAME":"東區","LI":"大福里","LIN":"26鄰","STREET":"榮譽街","SECT":" ","MAREA":" ","LANE":" ","ALLEY":" ","HOUSE_NO":"３４號之２","E_COORD97":169656.70000000001,"N_COORD97":2541613.0600000001,"ADDRESS":"榮譽街３４號之２","OBJECTID":481897},"geometry":{"x":169656.70000000112,"y":2541613.0600000005}},{"attributes":{"ID":481923,"DIS_CODE":0,"TOWNNAME":"東區","LI":"大福里","LIN":"26鄰","STREET":"榮譽街","SECT":" ","MAREA":" ","LANE":" ","ALLEY":" ","HOUSE_NO":"３４號之３","E_COORD97":169660.26000000001,"N_COORD97":2541609.5099999998,"ADDRESS":"榮譽街３４號之３","OBJECTID":481898},"geometry":{"x":169660.25999999978,"y":2541609.5099999998}},{"attributes":{"ID":481924,"DIS_CODE":0,"TOWNNAME":"東區","LI":"大福里","LIN":"26鄰","STREET":"榮譽街","SECT":" ","MAREA":" ","LANE":" ","ALLEY":" ","HOUSE_NO":"３６號","E_COORD97":169662.99053000001,"N_COORD97":2541603.2970799999,"ADDRESS":"榮譽街３６號","OBJECTID":481899},"geometry":{"x":169662.990530001,"y":2541603.297077002}},{"attributes":{"ID":481925,"DIS_CODE":0,"TOWNNAME":"東區","LI":"大福里","LIN":"26鄰","STREET":"榮譽街","SECT":" ","MAREA":" ","LANE":" ","ALLEY":" ","HOUSE_NO":"４６號","E_COORD97":169668.71111999999,"N_COORD97":2541582.1304199998,"ADDRESS":"榮譽街４６號","OBJECTID":481900},"geometry":{"x":169668.71112000104,"y":2541582.1304220036}},{"attributes":{"ID":481926,"DIS_CODE":0,"TOWNNAME":"東區","LI":"大福里","LIN":"26鄰","STREET":"榮譽街","SECT":" ","MAREA":" ","LANE":" ","ALLEY":" ","HOUSE_NO":"４８號","E_COORD97":169670.40611000001,"N_COORD97":2541577.2620899999,"ADDRESS":"榮譽街４８號","OBJECTID":481901},"geometry":{"x":169670.4061100008,"y":2541577.2620910015}},{"attributes":{"ID":481927,"DIS_CODE":0,"TOWNNAME":"東區","LI":"大福里","LIN":"26鄰","STREET":"榮譽街","SECT":" ","MAREA":" ","LANE":" ","ALLEY":" ","HOUSE_NO":"４８號之１","E_COORD97":169671.69,"N_COORD97":2541571.71,"ADDRESS":"榮譽街４８號之１","OBJECTID":481902},"geometry":{"x":169671.69000000041,"y":2541571.7100000009}},{"attributes":{"ID":481928,"DIS_CODE":0,"TOWNNAME":"東區","LI":"大福里","LIN":"26鄰","STREET":"榮譽街","SECT":" ","MAREA":" ","LANE":" ","ALLEY":" ","HOUSE_NO":"５０號之１４","E_COORD97":169696.98999999999,"N_COORD97":2541579.1200000001,"ADDRESS":"榮譽街５０號之１４","OBJECTID":481903},"geometry":{"x":169696.99000000209,"y":2541579.120000001}},{"attributes":{"ID":481929,"DIS_CODE":0,"TOWNNAME":"東區","LI":"大福里","LIN":"26鄰","STREET":"榮譽街","SECT":" ","MAREA":" ","LANE":" ","ALLEY":" ","HOUSE_NO":"５０號之１５","E_COORD97":169698.51000000001,"N_COORD97":2541574.8100000001,"ADDRESS":"榮譽街５０號之１５","OBJECTID":481904},"geometry":{"x":169698.51000000071,"y":2541574.8100000042}},{"attributes":{"ID":481930,"DIS_CODE":0,"TOWNNAME":"東區","LI":"大福里","LIN":"26鄰","STREET":"榮譽街","SECT":" ","MAREA":" ","LANE":" ","ALLEY":" ","HOUSE_NO":"５０號之１６","E_COORD97":169699.01999999999,"N_COORD97":2541568.98,"ADDRESS":"榮譽街５０號之１６","OBJECTID":481905},"geometry":{"x":169699.01999999955,"y":2541568.9800000004}},{"attributes":{"ID":481931,"DIS_CODE":0,"TOWNNAME":"東區","LI":"大福里","LIN":"26鄰","STREET":"榮譽街","SECT":" ","MAREA":" ","LANE":" ","ALLEY":" ","HOUSE_NO":"５０號之２","E_COORD97":169679.97,"N_COORD97":2541626.8100000001,"ADDRESS":"榮譽街５０號之２","OBJECTID":481906},"geometry":{"x":169679.97000000067,"y":2541626.8100000024}},{"attributes":{"ID":481932,"DIS_CODE":0,"TOWNNAME":"東區","LI":"大福里","LIN":"26鄰","STREET":"榮譽街","SECT":" ","MAREA":" ","LANE":" ","ALLEY":" ","HOUSE_NO":"５０號之３","E_COORD97":169681.75,"N_COORD97":2541623.5099999998,"ADDRESS":"榮譽街５０號之３","OBJECTID":481907},"geometry":{"x":169681.75000000093,"y":2541623.5100000035}},{"attributes":{"ID":481933,"DIS_CODE":0,"TOWNNAME":"東區","LI":"大福里","LIN":"26鄰","STREET":"榮譽街","SECT":" ","MAREA":" ","LANE":" ","ALLEY":" ","HOUSE_NO":"５０號之４","E_COORD97":169682.51000000001,"N_COORD97":2541618.6899999999,"ADDRESS":"榮譽街５０號之４","OBJECTID":481908},"geometry":{"x":169682.50999999978,"y":2541618.6900000032}},{"attributes":{"ID":481934,"DIS_CODE":0,"TOWNNAME":"東區","LI":"大福里","LIN":"26鄰","STREET":"榮譽街","SECT":" ","MAREA":" ","LANE":" ","ALLEY":" ","HOUSE_NO":"５０號之５","E_COORD97":169684.03,"N_COORD97":2541615.3900000001,"ADDRESS":"榮譽街５０號之５","OBJECTID":481909},"geometry":{"x":169684.03000000026,"y":2541615.3900000025}},{"attributes":{"ID":481935,"DIS_CODE":0,"TOWNNAME":"東區","LI":"大福里","LIN":"26鄰","STREET":"榮譽街","SECT":" ","MAREA":" ","LANE":" ","ALLEY":" ","HOUSE_NO":"５０號之６","E_COORD97":169686.32000000001,"N_COORD97":2541611.0800000001,"ADDRESS":"榮譽街５０號之６","OBJECTID":481910},"geometry":{"x":169686.32000000216,"y":2541611.0800000019}},{"attributes":{"ID":481936,"DIS_CODE":0,"TOWNNAME":"東區","LI":"大福里","LIN":"26鄰","STREET":"榮譽街","SECT":" ","MAREA":" ","LANE":" ","ALLEY":" ","HOUSE_NO":"５０號之７","E_COORD97":169687.07999999999,"N_COORD97":2541606.77,"ADDRESS":"榮譽街５０號之７","OBJECTID":481911},"geometry":{"x":169687.08000000007,"y":2541606.7699999996}},{"attributes":{"ID":481937,"DIS_CODE":0,"TOWNNAME":"東區","LI":"大福里","LIN":"26鄰","STREET":"榮譽街","SECT":" ","MAREA":" ","LANE":" ","ALLEY":" ","HOUSE_NO":"５０號之８","E_COORD97":169688.10000000001,"N_COORD97":2541602.96,"ADDRESS":"榮譽街５０號之８","OBJECTID":481912},"geometry":{"x":169688.09999999963,"y":2541602.9600000028}},{"attributes":{"ID":481938,"DIS_CODE":0,"TOWNNAME":"東區","LI":"大福里","LIN":"26鄰","STREET":"榮譽街","SECT":" ","MAREA":" ","LANE":" ","ALLEY":" ","HOUSE_NO":"５０號之９","E_COORD97":169691.14999999999,"N_COORD97":2541599.4100000001,"ADDRESS":"榮譽街５０號之９","OBJECTID":481913},"geometry":{"x":169691.1500000013,"y":2541599.4100000001}},{"attributes":{"ID":481939,"DIS_CODE":0,"TOWNNAME":"永康區","LI":"東灣里","LIN":"26鄰","STREET":"大灣東路","SECT":" ","MAREA":" ","LANE":" ","ALLEY":" ","HOUSE_NO":"２３６號","E_COORD97":174809.25,"N_COORD97":2544473.1099999999,"ADDRESS":"大灣東路２３６號","OBJECTID":481914},"geometry":{"x":174809.25000000186,"y":2544473.1099999994}},{"attributes":{"ID":481940,"DIS_CODE":0,"TOWNNAME":"永康區","LI":"正強里","LIN":"26鄰","STREET":"正強街","SECT":" ","MAREA":" ","LANE":" ","ALLEY":" ","HOUSE_NO":"２５７號","E_COORD97":173278.67999999999,"N_COORD97":2547834.2000000002,"ADDRESS":"正強街２５７號","OBJECTID":481915},"geometry":{"x":173278.68000000156,"y":2547834.2000000011}},{"attributes":{"ID":481941,"DIS_CODE":0,"TOWNNAME":"永康區","LI":"正強里","LIN":"26鄰","STREET":"正強街","SECT":" ","MAREA":" ","LANE":" ","ALLEY":" ","HOUSE_NO":"２６７號","E_COORD97":173274.82000000001,"N_COORD97":2547867.0099999998,"ADDRESS":"正強街２６７號","OBJECTID":481916},"geometry":{"x":173274.8200000003,"y":2547867.0099999998}},{"attributes":{"ID":481942,"DIS_CODE":0,"TOWNNAME":"永康區","LI":"永康里","LIN":"26鄰","STREET":"永大路","SECT":"二段","MAREA":" ","LANE":" ","ALLEY":" ","HOUSE_NO":"１１２９號地下一層之","E_COORD97":174201.07000000001,"N_COORD97":2547482.3599999999,"ADDRESS":"永大路二段１１２９號地下一層之２","OBJECTID":481917},"geometry":{"x":174201.07000000123,"y":2547482.3599999994}},{"attributes":{"ID":481943,"DIS_CODE":0,"TOWNNAME":"永康區","LI":"永康里","LIN":"26鄰","STREET":"永大路","SECT":"二段","MAREA":" ","LANE":" ","ALLEY":" ","HOUSE_NO":"１１２９號地下一層之","E_COORD97":174202.29000000001,"N_COORD97":2547482.3599999999,"ADDRESS":"永大路二段１１２９號地下一層之１６","OBJECTID":481918},"geometry":{"x":174202.2900000019,"y":2547482.3599999994}},{"attributes":{"ID":481944,"DIS_CODE":0,"TOWNNAME":"永康區","LI":"永康里","LIN":"26鄰","STREET":"中山北路","SECT":" ","MAREA":" ","LANE":" ","ALLEY":" ","HOUSE_NO":"９０號","E_COORD97":174084.85999999999,"N_COORD97":2547435.1499999999,"ADDRESS":"中山北路９０號","OBJECTID":481919},"geometry":{"x":174084.86000000034,"y":2547435.1500000022}},{"attributes":{"ID":481945,"DIS_CODE":0,"TOWNNAME":"永康區","LI":"永康里","LIN":"26鄰","STREET":"永明街","SECT":" ","MAREA":" ","LANE":" ","ALLEY":" ","HOUSE_NO":"５９號","E_COORD97":174130.78,"N_COORD97":2547302.9700000002,"ADDRESS":"永明街５９號","OBJECTID":481920},"geometry":{"x":174130.78000000026,"y":2547302.9700000007}},{"attributes":{"ID":481946,"DIS_CODE":0,"TOWNNAME":"永康區","LI":"永康里","LIN":"26鄰","STREET":"永大路","SECT":"二段","MAREA":" ","LANE":" ","ALLEY":" ","HOUSE_NO":"１１２９號地下一層之","E_COORD97":174202.23999999999,"N_COORD97":2547482.3599999999,"ADDRESS":"永大路二段１１２９號地下一層之２０","OBJECTID":481921},"geometry":{"x":174202.24000000022,"y":2547482.3599999994}},{"attributes":{"ID":481947,"DIS_CODE":0,"TOWNNAME":"永康區","LI":"永康里","LIN":"26鄰","STREET":"永大路","SECT":"二段","MAREA":" ","LANE":" ","ALLEY":" ","HOUSE_NO":"１１２１號","E_COORD97":174211.45999999999,"N_COORD97":2547461.8700000001,"ADDRESS":"永大路二段１１２１號","OBJECTID":481922},"geometry":{"x":174211.46000000089,"y":2547461.8700000029}},{"attributes":{"ID":481948,"DIS_CODE":0,"TOWNNAME":"永康區","LI":"永康里","LIN":"26鄰","STREET":"永大路","SECT":"二段","MAREA":" ","LANE":" ","ALLEY":" ","HOUSE_NO":"１１２５號","E_COORD97":174210.42999999999,"N_COORD97":2547470.8700000001,"ADDRESS":"永大路二段１１２５號","OBJECTID":481923},"geometry":{"x":174210.4299999997,"y":2547470.8700000048}},{"attributes":{"ID":481949,"DIS_CODE":0,"TOWNNAME":"永康區","LI":"永康里","LIN":"26鄰","STREET":"中山北路","SECT":" ","MAREA":" ","LANE":" ","ALLEY":" ","HOUSE_NO":"１０８號","E_COORD97":174137.39999999999,"N_COORD97":2547467.3799999999,"ADDRESS":"中山北路１０８號","OBJECTID":481924},"geometry":{"x":174137.40000000224,"y":2547467.379999999}},{"attributes":{"ID":481950,"DIS_CODE":0,"TOWNNAME":"佳里區","LI":"建南里","LIN":"26鄰","STREET":"安南路","SECT":" ","MAREA":" ","LANE":" ","ALLEY":" ","HOUSE_NO":"３７６號之１","E_COORD97":165233.29999999999,"N_COORD97":2561539.7799999998,"ADDRESS":"安南路３７６號之１","OBJECTID":481925},"geometry":{"x":165233.30000000075,"y":2561539.7800000031}},{"attributes":{"ID":481951,"DIS_CODE":0,"TOWNNAME":"佳里區","LI":"建南里","LIN":"26鄰","STREET":"成功路","SECT":" ","MAREA":" ","LANE":" ","ALLEY":" ","HOUSE_NO":"１１２號","E_COORD97":165437.57000000001,"N_COORD97":2561402.27,"ADDRESS":"成功路１１２號","OBJECTID":481926},"geometry":{"x":165437.5700000003,"y":2561402.2700000014}},{"attributes":{"ID":481952,"DIS_CODE":0,"TOWNNAME":"佳里區","LI":"建南里","LIN":"26鄰","STREET":"成功路","SECT":" ","MAREA":" ","LANE":" ","ALLEY":" ","HOUSE_NO":"１１４號","E_COORD97":165436.19,"N_COORD97":2561398.1200000001,"ADDRESS":"成功路１１４號","OBJECTID":481927},"geometry":{"x":165436.19000000134,"y":2561398.1200000029}},{"attributes":{"ID":481953,"DIS_CODE":0,"TOWNNAME":"佳里區","LI":"建南里","LIN":"26鄰","STREET":"成功路","SECT":" ","MAREA":" ","LANE":" ","ALLEY":" ","HOUSE_NO":"１１６號","E_COORD97":165434.87,"N_COORD97":2561393.98,"ADDRESS":"成功路１１６號","OBJECTID":481928},"geometry":{"x":165434.87000000104,"y":2561393.9800000042}},{"attributes":{"ID":481954,"DIS_CODE":0,"TOWNNAME":"佳里區","LI":"建南里","LIN":"26鄰","STREET":"成功路","SECT":" ","MAREA":" ","LANE":" ","ALLEY":" ","HOUSE_NO":"１１８號","E_COORD97":165433.34,"N_COORD97":2561390.2400000002,"ADDRESS":"成功路１１８號","OBJECTID":481929},"geometry":{"x":165433.33999999985,"y":2561390.2400000002}},{"attributes":{"ID":481955,"DIS_CODE":0,"TOWNNAME":"佳里區","LI":"建南里","LIN":"26鄰","STREET":"成功路","SECT":" ","MAREA":" ","LANE":" ","ALLEY":" ","HOUSE_NO":"１２０號","E_COORD97":165431.66,"N_COORD97":2561386.0099999998,"ADDRESS":"成功路１２０號","OBJECTID":481930},"geometry":{"x":165431.66000000015,"y":2561386.0100000035}},{"attributes":{"ID":481956,"DIS_CODE":0,"TOWNNAME":"佳里區","LI":"建南里","LIN":"26鄰","STREET":"成功路","SECT":" ","MAREA":" ","LANE":" ","ALLEY":" ","HOUSE_NO":"１２２號","E_COORD97":165430.26999999999,"N_COORD97":2561381.9399999999,"ADDRESS":"成功路１２２號","OBJECTID":481931},"geometry":{"x":165430.26999999955,"y":2561381.9399999995}},{"attributes":{"ID":481957,"DIS_CODE":0,"TOWNNAME":"佳里區","LI":"建南里","LIN":"26鄰","STREET":"成功路","SECT":" ","MAREA":" ","LANE":" ","ALLEY":" ","HOUSE_NO":"１２號之１","E_COORD97":165508.98999999999,"N_COORD97":2561663.5800000001,"ADDRESS":"成功路１２號之１","OBJECTID":481932},"geometry":{"x":165508.99000000022,"y":2561663.5800000001}},{"attributes":{"ID":481958,"DIS_CODE":0,"TOWNNAME":"佳里區","LI":"建南里","LIN":"26鄰","STREET":"成功路","SECT":" ","MAREA":" ","LANE":" ","ALLEY":" ","HOUSE_NO":"１４號","E_COORD97":165528.48000000001,"N_COORD97":2561663.5600000001,"ADDRESS":"成功路１４號","OBJECTID":481933},"geometry":{"x":165528.48000000045,"y":2561663.5600000005}},{"attributes":{"ID":481959,"DIS_CODE":0,"TOWNNAME":"佳里區","LI":"建南里","LIN":"26鄰","STREET":"成功路","SECT":" ","MAREA":" ","LANE":" ","ALLEY":" ","HOUSE_NO":"５８號","E_COORD97":165492.76999999999,"N_COORD97":2561558.1000000001,"ADDRESS":"成功路５８號","OBJECTID":481934},"geometry":{"x":165492.76999999955,"y":2561558.1000000034}},{"attributes":{"ID":481960,"DIS_CODE":0,"TOWNNAME":"佳里區","LI":"建南里","LIN":"26鄰","STREET":"成功路","SECT":" ","MAREA":" ","LANE":" ","ALLEY":" ","HOUSE_NO":"２２號","E_COORD97":165518.07000000001,"N_COORD97":2561648.8999999999,"ADDRESS":"成功路２２號","OBJECTID":481935},"geometry":{"x":165518.07000000123,"y":2561648.9000000022}},{"attributes":{"ID":481961,"DIS_CODE":0,"TOWNNAME":"佳里區","LI":"建南里","LIN":"26鄰","STREET":"成功路","SECT":" ","MAREA":" ","LANE":" ","ALLEY":" ","HOUSE_NO":"２４號","E_COORD97":165515.53,"N_COORD97":2561640.6099999999,"ADDRESS":"成功路２４號","OBJECTID":481936},"geometry":{"x":165515.53000000026,"y":2561640.6100000013}},{"attributes":{"ID":481962,"DIS_CODE":0,"TOWNNAME":"佳里區","LI":"建南里","LIN":"26鄰","STREET":"成功路","SECT":" ","MAREA":" ","LANE":" ","ALLEY":" ","HOUSE_NO":"２號","E_COORD97":165527.39000000001,"N_COORD97":2561683.1000000001,"ADDRESS":"成功路２號","OBJECTID":481937},"geometry":{"x":165527.3900000006,"y":2561683.0999999996}},{"attributes":{"ID":481963,"DIS_CODE":0,"TOWNNAME":"佳里區","LI":"建南里","LIN":"26鄰","STREET":"成功路","SECT":" ","MAREA":" ","LANE":" ","ALLEY":" ","HOUSE_NO":"３０號","E_COORD97":165512.87,"N_COORD97":2561627.0299999998,"ADDRESS":"成功路３０號","OBJECTID":481938},"geometry":{"x":165512.87000000104,"y":2561627.0300000012}},{"attributes":{"ID":481964,"DIS_CODE":0,"TOWNNAME":"佳里區","LI":"建南里","LIN":"26鄰","STREET":"成功路","SECT":" ","MAREA":" ","LANE":" ","ALLEY":" ","HOUSE_NO":"３８號","E_COORD97":165507.60999999999,"N_COORD97":2561607.3500000001,"ADDRESS":"成功路３８號","OBJECTID":481939},"geometry":{"x":165507.61000000127,"y":2561607.3500000034}},{"attributes":{"ID":481965,"DIS_CODE":0,"TOWNNAME":"佳里區","LI":"建南里","LIN":"26鄰","STREET":"成功路","SECT":" ","MAREA":" ","LANE":" ","ALLEY":" ","HOUSE_NO":"４０號","E_COORD97":165506.32999999999,"N_COORD97":2561602.96,"ADDRESS":"成功路４０號","OBJECTID":481940},"geometry":{"x":165506.33000000101,"y":2561602.9600000009}},{"attributes":{"ID":481966,"DIS_CODE":0,"TOWNNAME":"佳里區","LI":"安西里","LIN":"26鄰","STREET":"佳北路","SECT":" ","MAREA":" ","LANE":" ","ALLEY":" ","HOUSE_NO":"４２２號","E_COORD97":165177.17999999999,"N_COORD97":2563392.96,"ADDRESS":"佳北路４２２號","OBJECTID":481941},"geometry":{"x":165177.1799999997,"y":2563392.9600000028}},{"attributes":{"ID":481967,"DIS_CODE":0,"TOWNNAME":"佳里區","LI":"安西里","LIN":"26鄰","STREET":"佳北路","SECT":" ","MAREA":" ","LANE":" ","ALLEY":" ","HOUSE_NO":"３８６號","E_COORD97":165242.98999999999,"N_COORD97":2563424.0600000001,"ADDRESS":"佳北路３８６號","OBJECTID":481942},"geometry":{"x":165242.99000000022,"y":2563424.0600000042}},{"attributes":{"ID":481968,"DIS_CODE":0,"TOWNNAME":"佳里區","LI":"安西里","LIN":"26鄰","STREET":"佳北路","SECT":" ","MAREA":" ","LANE":" ","ALLEY":" ","HOUSE_NO":"３８８號","E_COORD97":165239.34,"N_COORD97":2563422.27,"ADDRESS":"佳北路３８８號","OBJECTID":481943},"geometry":{"x":165239.34000000078,"y":2563422.2700000014}},{"attributes":{"ID":481969,"DIS_CODE":0,"TOWNNAME":"佳里區","LI":"安西里","LIN":"26鄰","STREET":"佳北路","SECT":" ","MAREA":" ","LANE":" ","ALLEY":" ","HOUSE_NO":"３９０號","E_COORD97":165235.59,"N_COORD97":2563419.98,"ADDRESS":"佳北路３９０號","OBJECTID":481944},"geometry":{"x":165235.58999999985,"y":2563419.9800000004}},{"attributes":{"ID":481970,"DIS_CODE":0,"TOWNNAME":"佳里區","LI":"安西里","LIN":"26鄰","STREET":"佳北路","SECT":" ","MAREA":" ","LANE":" ","ALLEY":" ","HOUSE_NO":"３９２號","E_COORD97":165231.73000000001,"N_COORD97":2563418.1600000001,"ADDRESS":"佳北路３９２號","OBJECTID":481945},"geometry":{"x":165231.73000000045,"y":2563418.1600000001}},{"attributes":{"ID":481971,"DIS_CODE":0,"TOWNNAME":"佳里區","LI":"安西里","LIN":"26鄰","STREET":"佳北路","SECT":" ","MAREA":" ","LANE":" ","ALLEY":" ","HOUSE_NO":"３９４號","E_COORD97":165227.67000000001,"N_COORD97":2563416.5,"ADDRESS":"佳北路３９４號","OBJECTID":481946},"geometry":{"x":165227.67000000086,"y":2563416.5}},{"attributes":{"ID":481972,"DIS_CODE":0,"TOWNNAME":"佳里區","LI":"安西里","LIN":"26鄰","STREET":"佳北路","SECT":" ","MAREA":" ","LANE":" ","ALLEY":" ","HOUSE_NO":"３９６號","E_COORD97":165223.87,"N_COORD97":2563414.52,"ADDRESS":"佳北路３９６號","OBJECTID":481947},"geometry":{"x":165223.86999999918,"y":2563414.5200000014}},{"attributes":{"ID":481973,"DIS_CODE":0,"TOWNNAME":"佳里區","LI":"安西里","LIN":"26鄰","STREET":"佳北路","SECT":" ","MAREA":" ","LANE":" ","ALLEY":" ","HOUSE_NO":"３９８號","E_COORD97":165219.79999999999,"N_COORD97":2563412.71,"ADDRESS":"佳北路３９８號","OBJECTID":481948},"geometry":{"x":165219.80000000075,"y":2563412.7100000009}},{"attributes":{"ID":481974,"DIS_CODE":0,"TOWNNAME":"佳里區","LI":"安西里","LIN":"26鄰","STREET":"佳北路","SECT":" ","MAREA":" ","LANE":" ","ALLEY":" ","HOUSE_NO":"４００號","E_COORD97":165215.92000000001,"N_COORD97":2563410.9500000002,"ADDRESS":"佳北路４００號","OBJECTID":481949},"geometry":{"x":165215.91999999993,"y":2563410.9500000011}},{"attributes":{"ID":481975,"DIS_CODE":0,"TOWNNAME":"佳里區","LI":"安西里","LIN":"26鄰","STREET":"佳北路","SECT":" ","MAREA":" ","LANE":" ","ALLEY":" ","HOUSE_NO":"４０２號","E_COORD97":165211.92000000001,"N_COORD97":2563408.5800000001,"ADDRESS":"佳北路４０２號","OBJECTID":481950},"geometry":{"x":165211.92000000086,"y":2563408.5800000001}},{"attributes":{"ID":481976,"DIS_CODE":0,"TOWNNAME":"佳里區","LI":"安西里","LIN":"26鄰","STREET":"佳北路","SECT":" ","MAREA":" ","LANE":" ","ALLEY":" ","HOUSE_NO":"４０６號","E_COORD97":165208.25,"N_COORD97":2563406.9300000002,"ADDRESS":"佳北路４０６號","OBJECTID":481951},"geometry":{"x":165208.25000000093,"y":2563406.9299999978}},{"attributes":{"ID":481977,"DIS_CODE":0,"TOWNNAME":"佳里區","LI":"安西里","LIN":"26鄰","STREET":"佳北路","SECT":" ","MAREA":" ","LANE":" ","ALLEY":" ","HOUSE_NO":"４０８號","E_COORD97":165204.45000000001,"N_COORD97":2563405.5800000001,"ADDRESS":"佳北路４０８號","OBJECTID":481952},"geometry":{"x":165204.45000000019,"y":2563405.5800000001}},{"attributes":{"ID":481978,"DIS_CODE":0,"TOWNNAME":"佳里區","LI":"安西里","LIN":"26鄰","STREET":"佳北路","SECT":" ","MAREA":" ","LANE":" ","ALLEY":" ","HOUSE_NO":"４１０號","E_COORD97":165201.09,"N_COORD97":2563403.6099999999,"ADDRESS":"佳北路４１０號","OBJECTID":481953},"geometry":{"x":165201.08999999985,"y":2563403.6100000013}},{"attributes":{"ID":481979,"DIS_CODE":0,"TOWNNAME":"佳里區","LI":"安西里","LIN":"26鄰","STREET":"佳北路","SECT":" ","MAREA":" ","LANE":" ","ALLEY":" ","HOUSE_NO":"４１２號","E_COORD97":165196.56,"N_COORD97":2563401.1000000001,"ADDRESS":"佳北路４１２號","OBJECTID":481954},"geometry":{"x":165196.55999999959,"y":2563401.0999999996}},{"attributes":{"ID":481980,"DIS_CODE":0,"TOWNNAME":"佳里區","LI":"安西里","LIN":"26鄰","STREET":"佳北路","SECT":" ","MAREA":" ","LANE":" ","ALLEY":" ","HOUSE_NO":"４１４號","E_COORD97":165192.76999999999,"N_COORD97":2563399.3300000001,"ADDRESS":"佳北路４１４號","OBJECTID":481955},"geometry":{"x":165192.76999999955,"y":2563399.3300000019}},{"attributes":{"ID":481981,"DIS_CODE":0,"TOWNNAME":"佳里區","LI":"安西里","LIN":"26鄰","STREET":"佳北路","SECT":" ","MAREA":" ","LANE":" ","ALLEY":" ","HOUSE_NO":"４１６號","E_COORD97":165188.73000000001,"N_COORD97":2563398.1400000001,"ADDRESS":"佳北路４１６號","OBJECTID":481956},"geometry":{"x":165188.73000000138,"y":2563398.1400000025}},{"attributes":{"ID":481982,"DIS_CODE":0,"TOWNNAME":"佳里區","LI":"安西里","LIN":"26鄰","STREET":"佳北路","SECT":" ","MAREA":" ","LANE":" ","ALLEY":" ","HOUSE_NO":"４１８號","E_COORD97":165184.28,"N_COORD97":2563396.2200000002,"ADDRESS":"佳北路４１８號","OBJECTID":481957},"geometry":{"x":165184.28000000119,"y":2563396.2200000044}},{"attributes":{"ID":481983,"DIS_CODE":0,"TOWNNAME":"佳里區","LI":"安西里","LIN":"26鄰","STREET":"佳北路","SECT":" ","MAREA":" ","LANE":" ","ALLEY":" ","HOUSE_NO":"４２０號","E_COORD97":165180.69,"N_COORD97":2563395.0800000001,"ADDRESS":"佳北路４２０號","OBJECTID":481958},"geometry":{"x":165180.69000000041,"y":2563395.0800000001}},{"attributes":{"ID":481984,"DIS_CODE":0,"TOWNNAME":"佳里區","LI":"安西里","LIN":"26鄰","STREET":"佳北路","SECT":" ","MAREA":" ","LANE":" ","ALLEY":" ","HOUSE_NO":"４２４號","E_COORD97":165172.97,"N_COORD97":2563391.3300000001,"ADDRESS":"佳北路４２４號","OBJECTID":481959},"geometry":{"x":165172.96999999974,"y":2563391.3300000038}},{"attributes":{"ID":481985,"DIS_CODE":0,"TOWNNAME":"佳里區","LI":"安西里","LIN":"26鄰","STREET":"佳北路","SECT":" ","MAREA":" ","LANE":" ","ALLEY":" ","HOUSE_NO":"４２６號","E_COORD97":165169.10999999999,"N_COORD97":2563389.6299999999,"ADDRESS":"佳北路４２６號","OBJECTID":481960},"geometry":{"x":165169.11000000127,"y":2563389.6300000008}},{"attributes":{"ID":481986,"DIS_CODE":0,"TOWNNAME":"佳里區","LI":"安西里","LIN":"26鄰","STREET":"佳北路","SECT":" ","MAREA":" ","LANE":" ","ALLEY":" ","HOUSE_NO":"４２８號","E_COORD97":165151.13,"N_COORD97":2563384.8500000001,"ADDRESS":"佳北路４２８號","OBJECTID":481961},"geometry":{"x":165151.13000000082,"y":2563384.8500000015}},{"attributes":{"ID":481987,"DIS_CODE":0,"TOWNNAME":"佳里區","LI":"安西里","LIN":"26鄰","STREET":"佳北路","SECT":" ","MAREA":" ","LANE":" ","ALLEY":" ","HOUSE_NO":"４３０號","E_COORD97":165148.78,"N_COORD97":2563381.0099999998,"ADDRESS":"佳北路４３０號","OBJECTID":481962},"geometry":{"x":165148.78000000119,"y":2563381.0100000016}},{"attributes":{"ID":481988,"DIS_CODE":0,"TOWNNAME":"佳里區","LI":"安西里","LIN":"26鄰","STREET":"佳北路","SECT":" ","MAREA":" ","LANE":" ","ALLEY":" ","HOUSE_NO":"４３２號","E_COORD97":165144.91,"N_COORD97":2563378.9700000002,"ADDRESS":"佳北路４３２號","OBJECTID":481963},"geometry":{"x":165144.91000000108,"y":2563378.9700000025}},{"attributes":{"ID":481989,"DIS_CODE":0,"TOWNNAME":"佳里區","LI":"安西里","LIN":"26鄰","STREET":"佳北路","SECT":" ","MAREA":" ","LANE":" ","ALLEY":" ","HOUSE_NO":"４３４號","E_COORD97":165141.14999999999,"N_COORD97":2563377.1299999999,"ADDRESS":"佳北路４３４號","OBJECTID":481964},"geometry":{"x":165141.1500000013,"y":2563377.129999999}},{"attributes":{"ID":481990,"DIS_CODE":0,"TOWNNAME":"佳里區","LI":"安西里","LIN":"26鄰","STREET":"佳北路","SECT":" ","MAREA":" ","LANE":" ","ALLEY":" ","HOUSE_NO":"４３６號","E_COORD97":165137.12,"N_COORD97":2563374.9199999999,"ADDRESS":"佳北路４３６號","OBJECTID":481965},"geometry":{"x":165137.12000000011,"y":2563374.9200000018}},{"attributes":{"ID":481991,"DIS_CODE":0,"TOWNNAME":"佳里區","LI":"安西里","LIN":"26鄰","STREET":"佳北路","SECT":" ","MAREA":" ","LANE":" ","ALLEY":" ","HOUSE_NO":"４３８號","E_COORD97":165133.17999999999,"N_COORD97":2563372.6499999999,"ADDRESS":"佳北路４３８號","OBJECTID":481966},"geometry":{"x":165133.17999999877,"y":2563372.6500000041}},{"attributes":{"ID":481992,"DIS_CODE":0,"TOWNNAME":"佳里區","LI":"安西里","LIN":"26鄰","STREET":"佳北路","SECT":" ","MAREA":" ","LANE":" ","ALLEY":" ","HOUSE_NO":"４５４號","E_COORD97":165100.20000000001,"N_COORD97":2563409.8900000001,"ADDRESS":"佳北路４５４號","OBJECTID":481967},"geometry":{"x":165100.20000000112,"y":2563409.8900000025}},{"attributes":{"ID":481993,"DIS_CODE":0,"TOWNNAME":"佳里區","LI":"安西里","LIN":"26鄰","STREET":"佳北路","SECT":" ","MAREA":" ","LANE":" ","ALLEY":" ","HOUSE_NO":"４５６號","E_COORD97":165070.85999999999,"N_COORD97":2563430.75,"ADDRESS":"佳北路４５６號","OBJECTID":481968},"geometry":{"x":165070.86000000127,"y":2563430.7500000019}},{"attributes":{"ID":481994,"DIS_CODE":0,"TOWNNAME":"佳里區","LI":"安西里","LIN":"26鄰","STREET":"佳北路","SECT":" ","MAREA":" ","LANE":" ","ALLEY":" ","HOUSE_NO":"４５８號","E_COORD97":165107.62,"N_COORD97":2563357.8100000001,"ADDRESS":"佳北路４５８號","OBJECTID":481969},"geometry":{"x":165107.62000000104,"y":2563357.8099999987}},{"attributes":{"ID":481995,"DIS_CODE":0,"TOWNNAME":"佳里區","LI":"安西里","LIN":"26鄰","STREET":"佳北路","SECT":" ","MAREA":" ","LANE":" ","ALLEY":" ","HOUSE_NO":"４６０號","E_COORD97":165104.62,"N_COORD97":2563355.3300000001,"ADDRESS":"佳北路４６０號","OBJECTID":481970},"geometry":{"x":165104.62000000011,"y":2563355.3300000019}},{"attributes":{"ID":481996,"DIS_CODE":0,"TOWNNAME":"佳里區","LI":"安西里","LIN":"26鄰","STREET":"佳北路","SECT":" ","MAREA":" ","LANE":" ","ALLEY":" ","HOUSE_NO":"４６２號","E_COORD97":165101.41,"N_COORD97":2563353.1600000001,"ADDRESS":"佳北路４６２號","OBJECTID":481971},"geometry":{"x":165101.41000000015,"y":2563353.160000002}},{"attributes":{"ID":481997,"DIS_CODE":0,"TOWNNAME":"佳里區","LI":"安西里","LIN":"26鄰","STREET":"佳北路","SECT":" ","MAREA":" ","LANE":" ","ALLEY":" ","HOUSE_NO":"４６４號","E_COORD97":165097.63,"N_COORD97":2563350.7200000002,"ADDRESS":"佳北路４６４號","OBJECTID":481972},"geometry":{"x":165097.62999999989,"y":2563350.7200000007}},{"attributes":{"ID":481998,"DIS_CODE":0,"TOWNNAME":"永康區","LI":"永康里","LIN":"26鄰","STREET":"永明街","SECT":" ","MAREA":" ","LANE":" ","ALLEY":" ","HOUSE_NO":"１５號","E_COORD97":174058.12,"N_COORD97":2547363.8900000001,"ADDRESS":"永明街１５號","OBJECTID":481973},"geometry":{"x":174058.12000000104,"y":2547363.8900000006}},{"attributes":{"ID":481999,"DIS_CODE":0,"TOWNNAME":"永康區","LI":"永康里","LIN":"26鄰","STREET":"永大路","SECT":"二段","MAREA":" ","LANE":" ","ALLEY":" ","HOUSE_NO":"１１２９號地下一層之","E_COORD97":174202.34,"N_COORD97":2547482.3599999999,"ADDRESS":"永大路二段１１２９號地下一層之２８","OBJECTID":481974},"geometry":{"x":174202.34000000078,"y":2547482.3599999994}},{"attributes":{"ID":482000,"DIS_CODE":0,"TOWNNAME":"永康區","LI":"永康里","LIN":"26鄰","STREET":"永大路","SECT":"二段","MAREA":" ","LANE":" ","ALLEY":" ","HOUSE_NO":"１１２９號地下一層之","E_COORD97":174201.01999999999,"N_COORD97":2547482.3599999999,"ADDRESS":"永大路二段１１２９號地下一層之７","OBJECTID":481975},"geometry":{"x":174201.01999999955,"y":2547482.3599999994}},{"attributes":{"ID":482001,"DIS_CODE":0,"TOWNNAME":"永康區","LI":"永康里","LIN":"26鄰","STREET":"永明街","SECT":" ","MAREA":" ","LANE":" ","ALLEY":" ","HOUSE_NO":"７７號","E_COORD97":174189.44,"N_COORD97":2547254.98,"ADDRESS":"永明街７７號","OBJECTID":481976},"geometry":{"x":174189.44000000041,"y":2547254.9800000004}},{"attributes":{"ID":482002,"DIS_CODE":0,"TOWNNAME":"永康區","LI":"永康里","LIN":"26鄰","STREET":"中山北路","SECT":" ","MAREA":" ","LANE":" ","ALLEY":" ","HOUSE_NO":"９８號","E_COORD97":174117.07999999999,"N_COORD97":2547458.46,"ADDRESS":"中山北路９８號","OBJECTID":481977},"geometry":{"x":174117.07999999914,"y":2547458.4600000009}},{"attributes":{"ID":482003,"DIS_CODE":0,"TOWNNAME":"永康區","LI":"永康里","LIN":"26鄰","STREET":"永明街","SECT":" ","MAREA":" ","LANE":" ","ALLEY":" ","HOUSE_NO":"７１號","E_COORD97":174179.59,"N_COORD97":2547266.1099999999,"ADDRESS":"永明街７１號","OBJECTID":481978},"geometry":{"x":174179.59000000171,"y":2547266.1099999994}},{"attributes":{"ID":482004,"DIS_CODE":0,"TOWNNAME":"北區","LI":"中樓里","LIN":"5鄰","STREET":"開元路","SECT":" ","MAREA":" ","LANE":" ","ALLEY":" ","HOUSE_NO":"４０號","E_COORD97":169617.31,"N_COORD97":2545125.6699999999,"ADDRESS":"開元路４０號","OBJECTID":481979},"geometry":{"x":169617.30999999959,"y":2545125.6700000018}},{"attributes":{"ID":482005,"DIS_CODE":0,"TOWNNAME":"安平區","LI":"國平里","LIN":"26鄰","STREET":"健康三街","SECT":" ","MAREA":" ","LANE":" ","ALLEY":" ","HOUSE_NO":"１８８號四樓之１","E_COORD97":164771.44,"N_COORD97":2543283.9399999999,"ADDRESS":"健康三街１８８號四樓之１","OBJECTID":481980},"geometry":{"x":164771.44000000134,"y":2543283.9399999995}},{"attributes":{"ID":482006,"DIS_CODE":0,"TOWNNAME":"安平區","LI":"國平里","LIN":"26鄰","STREET":"郡平路","SECT":" ","MAREA":" ","LANE":" ","ALLEY":" ","HOUSE_NO":"１４７號七樓之１","E_COORD97":164786.14000000001,"N_COORD97":2543300.96,"ADDRESS":"郡平路１４７號七樓之１","OBJECTID":481981},"geometry":{"x":164786.14000000153,"y":2543300.9600000028}},{"attributes":{"ID":482007,"DIS_CODE":0,"TOWNNAME":"安平區","LI":"國平里","LIN":"26鄰","STREET":"郡平路","SECT":" ","MAREA":" ","LANE":" ","ALLEY":" ","HOUSE_NO":"１４７號七樓之２","E_COORD97":164786.14000000001,"N_COORD97":2543300.96,"ADDRESS":"郡平路１４７號七樓之２","OBJECTID":481982},"geometry":{"x":164786.14000000153,"y":2543300.9600000028}},{"attributes":{"ID":482008,"DIS_CODE":0,"TOWNNAME":"安平區","LI":"國平里","LIN":"26鄰","STREET":"郡平路","SECT":" ","MAREA":" ","LANE":" ","ALLEY":" ","HOUSE_NO":"１４７號二樓之１","E_COORD97":164786.14000000001,"N_COORD97":2543300.96,"ADDRESS":"郡平路１４７號二樓之１","OBJECTID":481983},"geometry":{"x":164786.14000000153,"y":2543300.9600000028}},{"attributes":{"ID":482009,"DIS_CODE":0,"TOWNNAME":"安平區","LI":"國平里","LIN":"26鄰","STREET":"郡平路","SECT":" ","MAREA":" ","LANE":" ","ALLEY":" ","HOUSE_NO":"１４７號二樓之２","E_COORD97":164786.14000000001,"N_COORD97":2543300.96,"ADDRESS":"郡平路１４７號二樓之２","OBJECTID":481984},"geometry":{"x":164786.14000000153,"y":2543300.9600000028}},{"attributes":{"ID":482010,"DIS_CODE":0,"TOWNNAME":"安平區","LI":"國平里","LIN":"26鄰","STREET":"郡平路","SECT":" ","MAREA":" ","LANE":" ","ALLEY":" ","HOUSE_NO":"１４７號三樓之１","E_COORD97":164786.14000000001,"N_COORD97":2543300.96,"ADDRESS":"郡平路１４７號三樓之１","OBJECTID":481985},"geometry":{"x":164786.14000000153,"y":2543300.9600000028}},{"attributes":{"ID":482011,"DIS_CODE":0,"TOWNNAME":"安平區","LI":"國平里","LIN":"26鄰","STREET":"郡平路","SECT":" ","MAREA":" ","LANE":" ","ALLEY":" ","HOUSE_NO":"１４７號三樓之２","E_COORD97":164786.14000000001,"N_COORD97":2543300.96,"ADDRESS":"郡平路１４７號三樓之２","OBJECTID":481986},"geometry":{"x":164786.14000000153,"y":2543300.9600000028}},{"attributes":{"ID":482012,"DIS_CODE":0,"TOWNNAME":"安平區","LI":"國平里","LIN":"26鄰","STREET":"郡平路","SECT":" ","MAREA":" ","LANE":" ","ALLEY":" ","HOUSE_NO":"１４７號五樓之１","E_COORD97":164786.14000000001,"N_COORD97":2543300.96,"ADDRESS":"郡平路１４７號五樓之１","OBJECTID":481987},"geometry":{"x":164786.14000000153,"y":2543300.9600000028}},{"attributes":{"ID":482013,"DIS_CODE":0,"TOWNNAME":"安平區","LI":"國平里","LIN":"26鄰","STREET":"郡平路","SECT":" ","MAREA":" ","LANE":" ","ALLEY":" ","HOUSE_NO":"１４７號五樓之２","E_COORD97":164786.14000000001,"N_COORD97":2543300.96,"ADDRESS":"郡平路１４７號五樓之２","OBJECTID":481988},"geometry":{"x":164786.14000000153,"y":2543300.9600000028}},{"attributes":{"ID":482014,"DIS_CODE":0,"TOWNNAME":"安平區","LI":"國平里","LIN":"26鄰","STREET":"郡平路","SECT":" ","MAREA":" ","LANE":" ","ALLEY":" ","HOUSE_NO":"１４７號六樓之１","E_COORD97":164786.14000000001,"N_COORD97":2543300.96,"ADDRESS":"郡平路１４７號六樓之１","OBJECTID":481989},"geometry":{"x":164786.14000000153,"y":2543300.9600000028}},{"attributes":{"ID":482015,"DIS_CODE":0,"TOWNNAME":"安平區","LI":"國平里","LIN":"26鄰","STREET":"郡平路","SECT":" ","MAREA":" ","LANE":" ","ALLEY":" ","HOUSE_NO":"１４７號六樓之２","E_COORD97":164786.14000000001,"N_COORD97":2543300.96,"ADDRESS":"郡平路１４７號六樓之２","OBJECTID":481990},"geometry":{"x":164786.14000000153,"y":2543300.9600000028}},{"attributes":{"ID":482016,"DIS_CODE":0,"TOWNNAME":"安平區","LI":"國平里","LIN":"26鄰","STREET":"郡平路","SECT":" ","MAREA":" ","LANE":" ","ALLEY":" ","HOUSE_NO":"１４７號四樓之１","E_COORD97":164786.14000000001,"N_COORD97":2543300.96,"ADDRESS":"郡平路１４７號四樓之１","OBJECTID":481991},"geometry":{"x":164786.14000000153,"y":2543300.9600000028}},{"attributes":{"ID":482017,"DIS_CODE":0,"TOWNNAME":"安平區","LI":"國平里","LIN":"26鄰","STREET":"郡平路","SECT":" ","MAREA":" ","LANE":" ","ALLEY":" ","HOUSE_NO":"１４７號四樓之２","E_COORD97":164786.14000000001,"N_COORD97":2543300.96,"ADDRESS":"郡平路１４７號四樓之２","OBJECTID":481992},"geometry":{"x":164786.14000000153,"y":2543300.9600000028}},{"attributes":{"ID":482018,"DIS_CODE":0,"TOWNNAME":"安平區","LI":"國平里","LIN":"26鄰","STREET":"健康三街","SECT":" ","MAREA":" ","LANE":" ","ALLEY":" ","HOUSE_NO":"１８２號七樓之１","E_COORD97":164770.07999999999,"N_COORD97":2543272.96,"ADDRESS":"健康三街１８２號七樓之１","OBJECTID":481993},"geometry":{"x":164770.08000000101,"y":2543272.9600000046}},{"attributes":{"ID":482019,"DIS_CODE":0,"TOWNNAME":"安平區","LI":"國平里","LIN":"26鄰","STREET":"健康三街","SECT":" ","MAREA":" ","LANE":" ","ALLEY":" ","HOUSE_NO":"１８２號七樓之２","E_COORD97":164770.07999999999,"N_COORD97":2543272.96,"ADDRESS":"健康三街１８２號七樓之２","OBJECTID":481994},"geometry":{"x":164770.08000000101,"y":2543272.9600000046}},{"attributes":{"ID":482020,"DIS_CODE":0,"TOWNNAME":"安平區","LI":"國平里","LIN":"26鄰","STREET":"健康三街","SECT":" ","MAREA":" ","LANE":" ","ALLEY":" ","HOUSE_NO":"１８２號二樓之１","E_COORD97":164770.07999999999,"N_COORD97":2543272.96,"ADDRESS":"健康三街１８２號二樓之１","OBJECTID":481995},"geometry":{"x":164770.08000000101,"y":2543272.9600000046}},{"attributes":{"ID":482021,"DIS_CODE":0,"TOWNNAME":"安平區","LI":"國平里","LIN":"26鄰","STREET":"健康三街","SECT":" ","MAREA":" ","LANE":" ","ALLEY":" ","HOUSE_NO":"１８２號二樓之２","E_COORD97":164770.07999999999,"N_COORD97":2543272.96,"ADDRESS":"健康三街１８２號二樓之２","OBJECTID":481996},"geometry":{"x":164770.08000000101,"y":2543272.9600000046}},{"attributes":{"ID":482022,"DIS_CODE":0,"TOWNNAME":"安平區","LI":"國平里","LIN":"26鄰","STREET":"健康三街","SECT":" ","MAREA":" ","LANE":" ","ALLEY":" ","HOUSE_NO":"１８２號三樓之１","E_COORD97":164770.07999999999,"N_COORD97":2543272.96,"ADDRESS":"健康三街１８２號三樓之１","OBJECTID":481997},"geometry":{"x":164770.08000000101,"y":2543272.9600000046}},{"attributes":{"ID":482023,"DIS_CODE":0,"TOWNNAME":"安平區","LI":"國平里","LIN":"26鄰","STREET":"健康三街","SECT":" ","MAREA":" ","LANE":" ","ALLEY":" ","HOUSE_NO":"１８２號三樓之２","E_COORD97":164770.07999999999,"N_COORD97":2543272.96,"ADDRESS":"健康三街１８２號三樓之２","OBJECTID":481998},"geometry":{"x":164770.08000000101,"y":2543272.9600000046}},{"attributes":{"ID":482024,"DIS_CODE":0,"TOWNNAME":"安平區","LI":"國平里","LIN":"26鄰","STREET":"健康三街","SECT":" ","MAREA":" ","LANE":" ","ALLEY":" ","HOUSE_NO":"１８２號五樓之１","E_COORD97":164770.07999999999,"N_COORD97":2543272.96,"ADDRESS":"健康三街１８２號五樓之１","OBJECTID":481999},"geometry":{"x":164770.08000000101,"y":2543272.9600000046}},{"attributes":{"ID":482025,"DIS_CODE":0,"TOWNNAME":"安平區","LI":"國平里","LIN":"26鄰","STREET":"健康三街","SECT":" ","MAREA":" ","LANE":" ","ALLEY":" ","HOUSE_NO":"１８２號五樓之２","E_COORD97":164770.07999999999,"N_COORD97":2543272.96,"ADDRESS":"健康三街１８２號五樓之２","OBJECTID":482000},"geometry":{"x":164770.08000000101,"y":2543272.9600000046}}]}