{"displayFieldName":"TOWNNAME","fieldAliases":{"ID":"ID","DIS_CODE":"DIS_CODE","TOWNNAME":"TOWNNAME","LI":"LI","LIN":"LIN","STREET":"STREET","SECT":"SECT","MAREA":"MAREA","LANE":"LANE","ALLEY":"ALLEY","HOUSE_NO":"HOUSE_NO","E_COORD97":"E_COORD97","N_COORD97":"N_COORD97","ADDRESS":"ADDRESS","OBJECTID":"OBJECTID"},"geometryType":"esriGeometryPoint","spatialReference":{"wkid":102443,"latestWkid":3826},"fields":[{"name":"ID","type":"esriFieldTypeDouble","alias":"ID"},{"name":"DIS_CODE","type":"esriFieldTypeInteger","alias":"DIS_CODE"},{"name":"TOWNNAME","type":"esriFieldTypeString","alias":"TOWNNAME","length":8},{"name":"LI","type":"esriFieldTypeString","alias":"LI","length":8},{"name":"LIN","type":"esriFieldTypeString","alias":"LIN","length":12},{"name":"STREET","type":"esriFieldTypeString","alias":"STREET","length":20},{"name":"SECT","type":"esriFieldTypeString","alias":"SECT","length":8},{"name":"MAREA","type":"esriFieldTypeString","alias":"MAREA","length":12},{"name":"LANE","type":"esriFieldTypeString","alias":"LANE","length":10},{"name":"ALLEY","type":"esriFieldTypeString","alias":"ALLEY","length":10},{"name":"HOUSE_NO","type":"esriFieldTypeString","alias":"HOUSE_NO","length":20},{"name":"E_COORD97","type":"esriFieldTypeDouble","alias":"E_COORD97"},{"name":"N_COORD97","type":"esriFieldTypeDouble","alias":"N_COORD97"},{"name":"ADDRESS","type":"esriFieldTypeString","alias":"ADDRESS","length":50},{"name":"OBJECTID","type":"esriFieldTypeOID","alias":"OBJECTID"}],"features":[{"attributes":{"ID":471426,"DIS_CODE":0,"TOWNNAME":"永康區","LI":"甲頂里","LIN":" ","STREET":"中正南路","SECT":" ","MAREA":" ","LANE":" ","ALLEY":" ","HOUSE_NO":"８之２號","E_COORD97":170945.81,"N_COORD97":2547957.54,"ADDRESS":"中正南路８之２號","OBJECTID":471401},"geometry":{"x":170945.81000000052,"y":2547957.540000001}},{"attributes":{"ID":471427,"DIS_CODE":0,"TOWNNAME":"安南區","LI":"幸福里","LIN":"18鄰","STREET":"府安路","SECT":"六段","MAREA":" ","LANE":" ","ALLEY":" ","HOUSE_NO":"１４號","E_COORD97":167111.41,"N_COORD97":2546717.8900000001,"ADDRESS":"府安路六段１４號","OBJECTID":471402},"geometry":{"x":167111.41000000015,"y":2546717.8900000025}},{"attributes":{"ID":471428,"DIS_CODE":0,"TOWNNAME":"下營區","LI":"營前里","LIN":"13鄰","STREET":"復興街","SECT":" ","MAREA":" ","LANE":" ","ALLEY":" ","HOUSE_NO":"６５號","E_COORD97":174619.57999999999,"N_COORD97":2570402.2799999998,"ADDRESS":"復興街６５號","OBJECTID":471403},"geometry":{"x":174619.58000000101,"y":2570402.2800000031}},{"attributes":{"ID":471429,"DIS_CODE":0,"TOWNNAME":"永康區","LI":"\u25A0洲里","LIN":"40鄰","STREET":"洲工街","SECT":" ","MAREA":" ","LANE":" ","ALLEY":" ","HOUSE_NO":"１７７號","E_COORD97":170769.28,"N_COORD97":2548719.75,"ADDRESS":"洲工街１７７號","OBJECTID":471404},"geometry":{"x":170769.28000000026,"y":2548719.7500000019}},{"attributes":{"ID":471430,"DIS_CODE":0,"TOWNNAME":"永康區","LI":"六合里","LIN":" ","STREET":"新興街","SECT":" ","MAREA":" ","LANE":" ","ALLEY":" ","HOUSE_NO":"１２９號","E_COORD97":171151.10000000001,"N_COORD97":2545844.4900000002,"ADDRESS":"新興街１２９號","OBJECTID":471405},"geometry":{"x":171151.09999999963,"y":2545844.4900000002}},{"attributes":{"ID":471431,"DIS_CODE":0,"TOWNNAME":"永康區","LI":"崑山里","LIN":" ","STREET":"大仁街","SECT":" ","MAREA":" ","LANE":" ","ALLEY":" ","HOUSE_NO":"３５之２號","E_COORD97":173789.82000000001,"N_COORD97":2544617.9399999999,"ADDRESS":"大仁街３５之２號","OBJECTID":471406},"geometry":{"x":173789.8200000003,"y":2544617.9400000013}},{"attributes":{"ID":471432,"DIS_CODE":0,"TOWNNAME":"安南區","LI":"安順里","LIN":"18鄰","STREET":"育安二街","SECT":" ","MAREA":" ","LANE":" ","ALLEY":" ","HOUSE_NO":"１２９號","E_COORD97":169655.45999999999,"N_COORD97":2549995.1800000002,"ADDRESS":"育安二街１２９號","OBJECTID":471407},"geometry":{"x":169655.45999999996,"y":2549995.1799999997}},{"attributes":{"ID":471433,"DIS_CODE":0,"TOWNNAME":"安南區","LI":"安順里","LIN":"18鄰","STREET":"安豐二街","SECT":" ","MAREA":" ","LANE":" ","ALLEY":" ","HOUSE_NO":"６號","E_COORD97":169653.92999999999,"N_COORD97":2549983.54,"ADDRESS":"安豐二街６號","OBJECTID":471408},"geometry":{"x":169653.9299999997,"y":2549983.5400000028}},{"attributes":{"ID":471434,"DIS_CODE":0,"TOWNNAME":"安南區","LI":"頂安里","LIN":"18鄰","STREET":"長溪路","SECT":"一段","MAREA":" ","LANE":" ","ALLEY":" ","HOUSE_NO":"５４６號","E_COORD97":168432.51000000001,"N_COORD97":2549223.4100000001,"ADDRESS":"長溪路一段５４６號","OBJECTID":471409},"geometry":{"x":168432.51000000071,"y":2549223.410000002}},{"attributes":{"ID":471435,"DIS_CODE":0,"TOWNNAME":"中西區","LI":"西湖里","LIN":"18鄰","STREET":"湖美二街","SECT":" ","MAREA":" ","LANE":" ","ALLEY":" ","HOUSE_NO":"１１５號","E_COORD97":166121.70000000001,"N_COORD97":2544882.23,"ADDRESS":"湖美二街１１５號","OBJECTID":471410},"geometry":{"x":166121.70000000019,"y":2544882.2300000023}},{"attributes":{"ID":471436,"DIS_CODE":0,"TOWNNAME":"永康區","LI":"\u25A0洲里","LIN":"39鄰","STREET":"\u25A0洲一街","SECT":" ","MAREA":" ","LANE":" ","ALLEY":" ","HOUSE_NO":"４７號","E_COORD97":171592.79000000001,"N_COORD97":2549085.25,"ADDRESS":"\u25A0洲一街４７號","OBJECTID":471411},"geometry":{"x":171592.79000000004,"y":2549085.2500000019}},{"attributes":{"ID":471437,"DIS_CODE":0,"TOWNNAME":"永康區","LI":"\u25A0洲里","LIN":"36鄰","STREET":"\u25A0洲二街","SECT":" ","MAREA":" ","LANE":" ","ALLEY":" ","HOUSE_NO":"１８９號","E_COORD97":171744.20999999999,"N_COORD97":2549428,"ADDRESS":"\u25A0洲二街１８９號","OBJECTID":471412},"geometry":{"x":171744.20999999996,"y":2549428}},{"attributes":{"ID":471438,"DIS_CODE":0,"TOWNNAME":"中西區","LI":"西湖里","LIN":"18鄰","STREET":"湖美二街","SECT":" ","MAREA":" ","LANE":" ","ALLEY":" ","HOUSE_NO":"１１３號","E_COORD97":166122.19,"N_COORD97":2544867.1600000001,"ADDRESS":"湖美二街１１３號","OBJECTID":471413},"geometry":{"x":166122.18999999948,"y":2544867.1600000001}},{"attributes":{"ID":471439,"DIS_CODE":0,"TOWNNAME":"仁德區","LI":"仁義里","LIN":"18鄰","STREET":"正義路","SECT":" ","MAREA":" ","LANE":" ","ALLEY":" ","HOUSE_NO":"２３５號","E_COORD97":173993.01000000001,"N_COORD97":2541397.0099999998,"ADDRESS":"正義路２３５號","OBJECTID":471414},"geometry":{"x":173993.00999999978,"y":2541397.0100000016}},{"attributes":{"ID":471440,"DIS_CODE":0,"TOWNNAME":"仁德區","LI":"大甲里","LIN":"18鄰","STREET":"行大街","SECT":" ","MAREA":" ","LANE":" ","ALLEY":" ","HOUSE_NO":"５３３號","E_COORD97":169215.60000000001,"N_COORD97":2535363.5,"ADDRESS":"行大街５３３號","OBJECTID":471415},"geometry":{"x":169215.59999999963,"y":2535363.5000000019}},{"attributes":{"ID":471441,"DIS_CODE":0,"TOWNNAME":"仁德區","LI":"大甲里","LIN":"18鄰","STREET":"行大街","SECT":" ","MAREA":" ","LANE":" ","ALLEY":" ","HOUSE_NO":"５３７號","E_COORD97":169207.29999999999,"N_COORD97":2535374.4900000002,"ADDRESS":"行大街５３７號","OBJECTID":471416},"geometry":{"x":169207.29999999981,"y":2535374.4900000002}},{"attributes":{"ID":471442,"DIS_CODE":0,"TOWNNAME":"仁德區","LI":"大甲里","LIN":"18鄰","STREET":"行大街","SECT":" ","MAREA":" ","LANE":" ","ALLEY":" ","HOUSE_NO":"４７３號","E_COORD97":169327.37,"N_COORD97":2535325.5,"ADDRESS":"行大街４７３號","OBJECTID":471417},"geometry":{"x":169327.37000000011,"y":2535325.5000000019}},{"attributes":{"ID":471443,"DIS_CODE":0,"TOWNNAME":"仁德區","LI":"大甲里","LIN":"18鄰","STREET":"行大街","SECT":" ","MAREA":" ","LANE":" ","ALLEY":" ","HOUSE_NO":"５１９號","E_COORD97":169251.47,"N_COORD97":2535368.75,"ADDRESS":"行大街５１９號","OBJECTID":471418},"geometry":{"x":169251.47000000067,"y":2535368.75}},{"attributes":{"ID":471444,"DIS_CODE":0,"TOWNNAME":"仁德區","LI":"大甲里","LIN":"18鄰","STREET":"行大街","SECT":" ","MAREA":" ","LANE":" ","ALLEY":" ","HOUSE_NO":"５３５號","E_COORD97":169211.64999999999,"N_COORD97":2535370.25,"ADDRESS":"行大街５３５號","OBJECTID":471419},"geometry":{"x":169211.6500000013,"y":2535370.2500000037}},{"attributes":{"ID":471445,"DIS_CODE":0,"TOWNNAME":"仁德區","LI":"大甲里","LIN":"18鄰","STREET":"行大街","SECT":" ","MAREA":" ","LANE":" ","ALLEY":" ","HOUSE_NO":"５１０號","E_COORD97":169238.48999999999,"N_COORD97":2535460,"ADDRESS":"行大街５１０號","OBJECTID":471420},"geometry":{"x":169238.49000000022,"y":2535459.9999999981}},{"attributes":{"ID":471446,"DIS_CODE":0,"TOWNNAME":"仁德區","LI":"大甲里","LIN":"18鄰","STREET":"行大街","SECT":" ","MAREA":" ","LANE":" ","ALLEY":" ","HOUSE_NO":"４９７號","E_COORD97":169288.91,"N_COORD97":2535351,"ADDRESS":"行大街４９７號","OBJECTID":471421},"geometry":{"x":169288.91000000201,"y":2535351}},{"attributes":{"ID":471447,"DIS_CODE":0,"TOWNNAME":"仁德區","LI":"太子里","LIN":"18鄰","STREET":"太子路","SECT":" ","MAREA":" ","LANE":" ","ALLEY":" ","HOUSE_NO":"２９４號","E_COORD97":174015.47,"N_COORD97":2543521.5099999998,"ADDRESS":"太子路２９４號","OBJECTID":471422},"geometry":{"x":174015.46999999974,"y":2543521.5099999998}},{"attributes":{"ID":471448,"DIS_CODE":0,"TOWNNAME":"永康區","LI":"\u25A0洲里","LIN":"25鄰","STREET":"中正南路","SECT":" ","MAREA":" ","LANE":" ","ALLEY":" ","HOUSE_NO":"４６１號","E_COORD97":170847.26999999999,"N_COORD97":2548109.4100000001,"ADDRESS":"中正南路４６１號","OBJECTID":471423},"geometry":{"x":170847.27000000048,"y":2548109.4100000001}},{"attributes":{"ID":471449,"DIS_CODE":0,"TOWNNAME":"永康區","LI":"埔園里","LIN":" ","STREET":"中山路","SECT":" ","MAREA":" ","LANE":" ","ALLEY":" ","HOUSE_NO":"４２８號","E_COORD97":173630.51999999999,"N_COORD97":2548418,"ADDRESS":"中山路４２８號","OBJECTID":471424},"geometry":{"x":173630.52000000142,"y":2548417.9999999981}},{"attributes":{"ID":471450,"DIS_CODE":0,"TOWNNAME":"東區","LI":"莊敬里","LIN":"18鄰","STREET":"小東路","SECT":" ","MAREA":" ","LANE":" ","ALLEY":" ","HOUSE_NO":"３２４號","E_COORD97":171253.85999999999,"N_COORD97":2544321.98,"ADDRESS":"小東路３２４號","OBJECTID":471425},"geometry":{"x":171253.86000000034,"y":2544321.9800000004}},{"attributes":{"ID":471451,"DIS_CODE":0,"TOWNNAME":"東區","LI":"莊敬里","LIN":"18鄰","STREET":"小東路","SECT":" ","MAREA":" ","LANE":" ","ALLEY":" ","HOUSE_NO":"３２６號","E_COORD97":171260,"N_COORD97":2544319.0099999998,"ADDRESS":"小東路３２６號","OBJECTID":471426},"geometry":{"x":171260.00000000093,"y":2544319.0100000035}},{"attributes":{"ID":471452,"DIS_CODE":0,"TOWNNAME":"東區","LI":"莊敬里","LIN":"18鄰","STREET":"小東路","SECT":" ","MAREA":" ","LANE":" ","ALLEY":" ","HOUSE_NO":"３２８號","E_COORD97":171264.56,"N_COORD97":2544320.3100000001,"ADDRESS":"小東路３２８號","OBJECTID":471427},"geometry":{"x":171264.56000000052,"y":2544320.3100000005}},{"attributes":{"ID":471453,"DIS_CODE":0,"TOWNNAME":"永康區","LI":"\u25A0行里","LIN":"13鄰","STREET":"中正南路","SECT":" ","MAREA":" ","LANE":" ","ALLEY":" ","HOUSE_NO":"７７６號","E_COORD97":171787.17999999999,"N_COORD97":2549002.75,"ADDRESS":"中正南路７７６號","OBJECTID":471428},"geometry":{"x":171787.18000000063,"y":2549002.7499999981}},{"attributes":{"ID":471454,"DIS_CODE":0,"TOWNNAME":"東區","LI":"莊敬里","LIN":"18鄰","STREET":"小東路","SECT":" ","MAREA":" ","LANE":" ","ALLEY":" ","HOUSE_NO":"３３０號","E_COORD97":171268.45999999999,"N_COORD97":2544317.7999999998,"ADDRESS":"小東路３３０號","OBJECTID":471429},"geometry":{"x":171268.46000000089,"y":2544317.7999999989}},{"attributes":{"ID":471455,"DIS_CODE":0,"TOWNNAME":"東區","LI":"莊敬里","LIN":"18鄰","STREET":"小東路","SECT":" ","MAREA":" ","LANE":" ","ALLEY":" ","HOUSE_NO":"３３２號","E_COORD97":171272.92000000001,"N_COORD97":2544319.8399999999,"ADDRESS":"小東路３３２號","OBJECTID":471430},"geometry":{"x":171272.91999999993,"y":2544319.8399999999}},{"attributes":{"ID":471456,"DIS_CODE":0,"TOWNNAME":"東區","LI":"莊敬里","LIN":"18鄰","STREET":"小東路","SECT":" ","MAREA":" ","LANE":" ","ALLEY":" ","HOUSE_NO":"３３６號","E_COORD97":171281.29000000001,"N_COORD97":2544316.96,"ADDRESS":"小東路３３６號","OBJECTID":471431},"geometry":{"x":171281.28999999911,"y":2544316.9600000046}},{"attributes":{"ID":471457,"DIS_CODE":0,"TOWNNAME":"東區","LI":"莊敬里","LIN":"18鄰","STREET":"東光路","SECT":"二段","MAREA":" ","LANE":" ","ALLEY":" ","HOUSE_NO":"１４８號","E_COORD97":171250.31,"N_COORD97":2544285.25,"ADDRESS":"東光路二段１４８號","OBJECTID":471432},"geometry":{"x":171250.31000000145,"y":2544285.2500000019}},{"attributes":{"ID":471458,"DIS_CODE":0,"TOWNNAME":"東區","LI":"莊敬里","LIN":"18鄰","STREET":"東光路","SECT":"二段","MAREA":" ","LANE":" ","ALLEY":" ","HOUSE_NO":"１５０號","E_COORD97":171249.38,"N_COORD97":2544289.4300000002,"ADDRESS":"東光路二段１５０號","OBJECTID":471433},"geometry":{"x":171249.37999999989,"y":2544289.4300000016}},{"attributes":{"ID":471459,"DIS_CODE":0,"TOWNNAME":"東區","LI":"莊敬里","LIN":"18鄰","STREET":"東光路","SECT":"二段","MAREA":" ","LANE":" ","ALLEY":" ","HOUSE_NO":"１５２號","E_COORD97":171248.64000000001,"N_COORD97":2544293.0699999998,"ADDRESS":"東光路二段１５２號","OBJECTID":471434},"geometry":{"x":171248.6400000006,"y":2544293.0700000022}},{"attributes":{"ID":471460,"DIS_CODE":0,"TOWNNAME":"東區","LI":"莊敬里","LIN":"18鄰","STREET":"東光路","SECT":"二段","MAREA":" ","LANE":" ","ALLEY":" ","HOUSE_NO":"１５４號","E_COORD97":171249.29999999999,"N_COORD97":2544297.8100000001,"ADDRESS":"東光路二段１５４號","OBJECTID":471435},"geometry":{"x":171249.30000000075,"y":2544297.8100000024}},{"attributes":{"ID":471461,"DIS_CODE":0,"TOWNNAME":"東區","LI":"莊敬里","LIN":"18鄰","STREET":"東光路","SECT":"二段","MAREA":" ","LANE":" ","ALLEY":" ","HOUSE_NO":"１５８號","E_COORD97":171250.41,"N_COORD97":2544306.46,"ADDRESS":"東光路二段１５８號","OBJECTID":471436},"geometry":{"x":171250.41000000108,"y":2544306.4600000009}},{"attributes":{"ID":471462,"DIS_CODE":0,"TOWNNAME":"東區","LI":"莊敬里","LIN":"18鄰","STREET":"東光路","SECT":"二段","MAREA":" ","LANE":" ","ALLEY":" ","HOUSE_NO":"１６０號","E_COORD97":171251.07000000001,"N_COORD97":2544310.0800000001,"ADDRESS":"東光路二段１６０號","OBJECTID":471437},"geometry":{"x":171251.07000000123,"y":2544310.0800000019}},{"attributes":{"ID":471463,"DIS_CODE":0,"TOWNNAME":"東區","LI":"莊敬里","LIN":"18鄰","STREET":"小東路","SECT":" ","MAREA":" ","LANE":" ","ALLEY":" ","HOUSE_NO":"３３４號","E_COORD97":171277.10999999999,"N_COORD97":2544316.1299999999,"ADDRESS":"小東路３３４號","OBJECTID":471438},"geometry":{"x":171277.11000000034,"y":2544316.129999999}},{"attributes":{"ID":471464,"DIS_CODE":0,"TOWNNAME":"東區","LI":"莊敬里","LIN":"18鄰","STREET":"東光路","SECT":"二段","MAREA":" ","LANE":" ","ALLEY":" ","HOUSE_NO":"１５６號","E_COORD97":171249.67000000001,"N_COORD97":2544301.0699999998,"ADDRESS":"東光路二段１５６號","OBJECTID":471439},"geometry":{"x":171249.66999999993,"y":2544301.0700000003}},{"attributes":{"ID":471465,"DIS_CODE":0,"TOWNNAME":"永康區","LI":"勝利里","LIN":" ","STREET":"勝華街","SECT":" ","MAREA":" ","LANE":" ","ALLEY":" ","HOUSE_NO":"２２７號","E_COORD97":171387.07999999999,"N_COORD97":2545219,"ADDRESS":"勝華街２２７號","OBJECTID":471440},"geometry":{"x":171387.08000000101,"y":2545219.0000000019}},{"attributes":{"ID":471466,"DIS_CODE":0,"TOWNNAME":"永康區","LI":"中華里","LIN":"14鄰","STREET":"忠義街","SECT":" ","MAREA":" ","LANE":" ","ALLEY":" ","HOUSE_NO":"２０號","E_COORD97":171729.12,"N_COORD97":2544398.8900000001,"ADDRESS":"忠義街２０號","OBJECTID":471441},"geometry":{"x":171729.12000000104,"y":2544398.8900000025}},{"attributes":{"ID":471467,"DIS_CODE":0,"TOWNNAME":"安南區","LI":"頂安里","LIN":"18鄰","STREET":"長溪路","SECT":"一段","MAREA":" ","LANE":" ","ALLEY":" ","HOUSE_NO":"５１２號","E_COORD97":168454.10999999999,"N_COORD97":2549136.9399999999,"ADDRESS":"長溪路一段５１２號","OBJECTID":471442},"geometry":{"x":168454.11000000127,"y":2549136.9400000032}},{"attributes":{"ID":471468,"DIS_CODE":0,"TOWNNAME":"安南區","LI":"頂安里","LIN":"18鄰","STREET":"長溪路","SECT":"一段","MAREA":" ","LANE":" ","ALLEY":" ","HOUSE_NO":"５２６號","E_COORD97":168439.60999999999,"N_COORD97":2549184.4700000002,"ADDRESS":"長溪路一段５２６號","OBJECTID":471443},"geometry":{"x":168439.61000000034,"y":2549184.4700000007}},{"attributes":{"ID":471469,"DIS_CODE":0,"TOWNNAME":"安南區","LI":"頂安里","LIN":"18鄰","STREET":"長溪路","SECT":"一段","MAREA":" ","LANE":" ","ALLEY":" ","HOUSE_NO":"５３０號","E_COORD97":168438.31,"N_COORD97":2549191.3599999999,"ADDRESS":"長溪路一段５３０號","OBJECTID":471444},"geometry":{"x":168438.31000000052,"y":2549191.3599999975}},{"attributes":{"ID":471470,"DIS_CODE":0,"TOWNNAME":"安南區","LI":"頂安里","LIN":"18鄰","STREET":"長溪路","SECT":"一段","MAREA":" ","LANE":" ","ALLEY":" ","HOUSE_NO":"５３２號","E_COORD97":168441.32000000001,"N_COORD97":2549208.1000000001,"ADDRESS":"長溪路一段５３２號","OBJECTID":471445},"geometry":{"x":168441.3200000003,"y":2549208.1000000015}},{"attributes":{"ID":471471,"DIS_CODE":0,"TOWNNAME":"善化區","LI":"坐駕里","LIN":"18鄰","STREET":"興華路","SECT":" ","MAREA":" ","LANE":" ","ALLEY":" ","HOUSE_NO":"２０７號","E_COORD97":178286.31,"N_COORD97":2558572,"ADDRESS":"興華路２０７號","OBJECTID":471446},"geometry":{"x":178286.30999999959,"y":2558572}},{"attributes":{"ID":471472,"DIS_CODE":0,"TOWNNAME":"善化區","LI":"坐駕里","LIN":"18鄰","STREET":"興華路","SECT":" ","MAREA":" ","LANE":" ","ALLEY":" ","HOUSE_NO":"２２８號","E_COORD97":178243.51999999999,"N_COORD97":2558593.5,"ADDRESS":"興華路２２８號","OBJECTID":471447},"geometry":{"x":178243.52000000048,"y":2558593.5000000019}},{"attributes":{"ID":471473,"DIS_CODE":0,"TOWNNAME":"善化區","LI":"東關里","LIN":"18鄰","STREET":"中興路","SECT":" ","MAREA":" ","LANE":" ","ALLEY":" ","HOUSE_NO":"６８號","E_COORD97":177582.28,"N_COORD97":2559022.75,"ADDRESS":"中興路６８號","OBJECTID":471448},"geometry":{"x":177582.28000000026,"y":2559022.7500000019}},{"attributes":{"ID":471474,"DIS_CODE":0,"TOWNNAME":"永康區","LI":"網寮里","LIN":"18鄰","STREET":"永大一路","SECT":" ","MAREA":" ","LANE":" ","ALLEY":" ","HOUSE_NO":"３２２號","E_COORD97":173581.14999999999,"N_COORD97":2546274.9900000002,"ADDRESS":"永大一路３２２號","OBJECTID":471449},"geometry":{"x":173581.15000000037,"y":2546274.9900000002}},{"attributes":{"ID":471475,"DIS_CODE":0,"TOWNNAME":"永康區","LI":"\u25A0洲里","LIN":"25鄰","STREET":"中正南路","SECT":" ","MAREA":" ","LANE":" ","ALLEY":" ","HOUSE_NO":"４２１號","E_COORD97":170778.48999999999,"N_COORD97":2548039.4900000002,"ADDRESS":"中正南路４２１號","OBJECTID":471450},"geometry":{"x":170778.49000000209,"y":2548039.4900000021}},{"attributes":{"ID":471476,"DIS_CODE":0,"TOWNNAME":"永康區","LI":"烏竹里","LIN":" ","STREET":"龍橋街","SECT":" ","MAREA":" ","LANE":" ","ALLEY":" ","HOUSE_NO":"２２０之１號","E_COORD97":174596.82999999999,"N_COORD97":2548809.0699999998,"ADDRESS":"龍橋街２２０之１號","OBJECTID":471451},"geometry":{"x":174596.82999999914,"y":2548809.0700000022}},{"attributes":{"ID":471477,"DIS_CODE":0,"TOWNNAME":"永康區","LI":"龍潭里","LIN":"18鄰","STREET":"龍橋街","SECT":" ","MAREA":" ","LANE":" ","ALLEY":" ","HOUSE_NO":"４２之２號","E_COORD97":174857.42000000001,"N_COORD97":2548395.3599999999,"ADDRESS":"龍橋街４２之２號","OBJECTID":471452},"geometry":{"x":174857.42000000086,"y":2548395.3600000013}},{"attributes":{"ID":471478,"DIS_CODE":0,"TOWNNAME":"永康區","LI":"網寮里","LIN":"18鄰","STREET":"永勝街","SECT":" ","MAREA":" ","LANE":" ","ALLEY":" ","HOUSE_NO":"９１號","E_COORD97":173493.38,"N_COORD97":2546357.71,"ADDRESS":"永勝街９１號","OBJECTID":471453},"geometry":{"x":173493.38000000082,"y":2546357.7100000028}},{"attributes":{"ID":471479,"DIS_CODE":0,"TOWNNAME":"善化區","LI":"坐駕里","LIN":"18鄰","STREET":"興華路","SECT":" ","MAREA":" ","LANE":" ","ALLEY":" ","HOUSE_NO":"２０８號","E_COORD97":178285.54000000001,"N_COORD97":2558600.5,"ADDRESS":"興華路２０８號","OBJECTID":471454},"geometry":{"x":178285.54000000004,"y":2558600.5000000019}},{"attributes":{"ID":471480,"DIS_CODE":0,"TOWNNAME":"善化區","LI":"東關里","LIN":"18鄰","STREET":"中興路","SECT":" ","MAREA":" ","LANE":" ","ALLEY":" ","HOUSE_NO":"５６號","E_COORD97":177613.03,"N_COORD97":2559020.25,"ADDRESS":"中興路５６號","OBJECTID":471455},"geometry":{"x":177613.03000000026,"y":2559020.25}},{"attributes":{"ID":471481,"DIS_CODE":0,"TOWNNAME":"善化區","LI":"東關里","LIN":"18鄰","STREET":"中興路","SECT":" ","MAREA":" ","LANE":" ","ALLEY":" ","HOUSE_NO":"５２號","E_COORD97":177622.03,"N_COORD97":2559020.5,"ADDRESS":"中興路５２號","OBJECTID":471456},"geometry":{"x":177622.03000000119,"y":2559020.5000000019}},{"attributes":{"ID":471482,"DIS_CODE":0,"TOWNNAME":"善化區","LI":"坐駕里","LIN":"18鄰","STREET":"興華路","SECT":" ","MAREA":" ","LANE":" ","ALLEY":" ","HOUSE_NO":"２３４號","E_COORD97":178230.91,"N_COORD97":2558591.75,"ADDRESS":"興華路２３４號","OBJECTID":471457},"geometry":{"x":178230.91000000201,"y":2558591.7500000019}},{"attributes":{"ID":471483,"DIS_CODE":0,"TOWNNAME":"善化區","LI":"東關里","LIN":"18鄰","STREET":"中興路","SECT":" ","MAREA":" ","LANE":" ","ALLEY":" ","HOUSE_NO":"４１號","E_COORD97":177645.67000000001,"N_COORD97":2559000.75,"ADDRESS":"中興路４１號","OBJECTID":471458},"geometry":{"x":177645.66999999899,"y":2559000.75}},{"attributes":{"ID":471484,"DIS_CODE":0,"TOWNNAME":"善化區","LI":"東關里","LIN":"18鄰","STREET":"中興路","SECT":" ","MAREA":" ","LANE":" ","ALLEY":" ","HOUSE_NO":"５８號","E_COORD97":177608.09,"N_COORD97":2559020.5,"ADDRESS":"中興路５８號","OBJECTID":471459},"geometry":{"x":177608.09000000078,"y":2559020.5000000019}},{"attributes":{"ID":471485,"DIS_CODE":0,"TOWNNAME":"善化區","LI":"坐駕里","LIN":"18鄰","STREET":"興華路","SECT":" ","MAREA":" ","LANE":" ","ALLEY":" ","HOUSE_NO":"２０１號","E_COORD97":178299.45999999999,"N_COORD97":2558574.25,"ADDRESS":"興華路２０１號","OBJECTID":471460},"geometry":{"x":178299.45999999996,"y":2558574.2500000037}},{"attributes":{"ID":471486,"DIS_CODE":0,"TOWNNAME":"善化區","LI":"坐駕里","LIN":"18鄰","STREET":"興華路","SECT":" ","MAREA":" ","LANE":" ","ALLEY":" ","HOUSE_NO":"２０４號","E_COORD97":178294.12,"N_COORD97":2558602.25,"ADDRESS":"興華路２０４號","OBJECTID":471461},"geometry":{"x":178294.12000000104,"y":2558602.2500000019}},{"attributes":{"ID":471487,"DIS_CODE":0,"TOWNNAME":"善化區","LI":"坐駕里","LIN":"18鄰","STREET":"興華路","SECT":" ","MAREA":" ","LANE":" ","ALLEY":" ","HOUSE_NO":"２１０號","E_COORD97":178281.45999999999,"N_COORD97":2558600,"ADDRESS":"興華路２１０號","OBJECTID":471462},"geometry":{"x":178281.46000000089,"y":2558600.0000000019}},{"attributes":{"ID":471488,"DIS_CODE":0,"TOWNNAME":"善化區","LI":"坐駕里","LIN":"18鄰","STREET":"興華路","SECT":" ","MAREA":" ","LANE":" ","ALLEY":" ","HOUSE_NO":"２１４號","E_COORD97":178272.76999999999,"N_COORD97":2558598.5,"ADDRESS":"興華路２１４號","OBJECTID":471463},"geometry":{"x":178272.77000000048,"y":2558598.5}},{"attributes":{"ID":471489,"DIS_CODE":0,"TOWNNAME":"善化區","LI":"坐駕里","LIN":"18鄰","STREET":"興華路","SECT":" ","MAREA":" ","LANE":" ","ALLEY":" ","HOUSE_NO":"２０９號","E_COORD97":178282.07999999999,"N_COORD97":2558571.5,"ADDRESS":"興華路２０９號","OBJECTID":471464},"geometry":{"x":178282.08000000007,"y":2558571.5}},{"attributes":{"ID":471490,"DIS_CODE":0,"TOWNNAME":"善化區","LI":"坐駕里","LIN":"18鄰","STREET":"信義路","SECT":" ","MAREA":" ","LANE":" ","ALLEY":" ","HOUSE_NO":"３９號","E_COORD97":178295.28,"N_COORD97":2558617.5,"ADDRESS":"信義路３９號","OBJECTID":471465},"geometry":{"x":178295.28000000119,"y":2558617.5000000019}},{"attributes":{"ID":471491,"DIS_CODE":0,"TOWNNAME":"永康區","LI":"二王里","LIN":"18鄰","STREET":"中山南路","SECT":" ","MAREA":" ","LANE":" ","ALLEY":" ","HOUSE_NO":"６３６號","E_COORD97":172375.98000000001,"N_COORD97":2546677.7799999998,"ADDRESS":"中山南路６３６號","OBJECTID":471466},"geometry":{"x":172375.98000000138,"y":2546677.7800000012}},{"attributes":{"ID":471492,"DIS_CODE":0,"TOWNNAME":"永康區","LI":"二王里","LIN":"18鄰","STREET":"中山南路","SECT":" ","MAREA":" ","LANE":" ","ALLEY":" ","HOUSE_NO":"６３０號","E_COORD97":172365.29000000001,"N_COORD97":2546672.2799999998,"ADDRESS":"中山南路６３０號","OBJECTID":471467},"geometry":{"x":172365.29000000097,"y":2546672.2799999993}},{"attributes":{"ID":471493,"DIS_CODE":0,"TOWNNAME":"永康區","LI":"二王里","LIN":"18鄰","STREET":"中山南路","SECT":" ","MAREA":" ","LANE":" ","ALLEY":" ","HOUSE_NO":"６２６號","E_COORD97":172358,"N_COORD97":2546669.2799999998,"ADDRESS":"中山南路６２６號","OBJECTID":471468},"geometry":{"x":172358.00000000186,"y":2546669.2799999975}},{"attributes":{"ID":471494,"DIS_CODE":0,"TOWNNAME":"永康區","LI":"二王里","LIN":"18鄰","STREET":"中山南路","SECT":" ","MAREA":" ","LANE":" ","ALLEY":" ","HOUSE_NO":"６８０號","E_COORD97":172473.14999999999,"N_COORD97":2546701.4500000002,"ADDRESS":"中山南路６８０號","OBJECTID":471469},"geometry":{"x":172473.1500000013,"y":2546701.4499999993}},{"attributes":{"ID":471495,"DIS_CODE":0,"TOWNNAME":"永康區","LI":"二王里","LIN":"18鄰","STREET":"中山南路","SECT":" ","MAREA":" ","LANE":" ","ALLEY":" ","HOUSE_NO":"６６０號","E_COORD97":172431.34,"N_COORD97":2546695.1499999999,"ADDRESS":"中山南路６６０號","OBJECTID":471470},"geometry":{"x":172431.33999999985,"y":2546695.1500000041}},{"attributes":{"ID":471496,"DIS_CODE":0,"TOWNNAME":"永康區","LI":"二王里","LIN":"18鄰","STREET":"中山南路","SECT":" ","MAREA":" ","LANE":" ","ALLEY":" ","HOUSE_NO":"６５８號","E_COORD97":172426.73999999999,"N_COORD97":2546694.1499999999,"ADDRESS":"中山南路６５８號","OBJECTID":471471},"geometry":{"x":172426.74000000115,"y":2546694.1500000004}},{"attributes":{"ID":471497,"DIS_CODE":0,"TOWNNAME":"永康區","LI":"二王里","LIN":"18鄰","STREET":"中山南路","SECT":" ","MAREA":" ","LANE":" ","ALLEY":" ","HOUSE_NO":"６２８號","E_COORD97":172361.54999999999,"N_COORD97":2546670.7799999998,"ADDRESS":"中山南路６２８號","OBJECTID":471472},"geometry":{"x":172361.55000000075,"y":2546670.7800000012}},{"attributes":{"ID":471498,"DIS_CODE":0,"TOWNNAME":"永康區","LI":"二王里","LIN":"18鄰","STREET":"中山南路","SECT":" ","MAREA":" ","LANE":" ","ALLEY":" ","HOUSE_NO":"６４０號","E_COORD97":172383.17000000001,"N_COORD97":2546680.7799999998,"ADDRESS":"中山南路６４０號","OBJECTID":471473},"geometry":{"x":172383.16999999993,"y":2546680.7800000012}},{"attributes":{"ID":471499,"DIS_CODE":0,"TOWNNAME":"永康區","LI":"二王里","LIN":"18鄰","STREET":"中山南路","SECT":" ","MAREA":" ","LANE":" ","ALLEY":" ","HOUSE_NO":"６３４號","E_COORD97":172372.57999999999,"N_COORD97":2546676.2799999998,"ADDRESS":"中山南路６３４號","OBJECTID":471474},"geometry":{"x":172372.58000000007,"y":2546676.2800000031}},{"attributes":{"ID":471500,"DIS_CODE":0,"TOWNNAME":"永康區","LI":"二王里","LIN":"18鄰","STREET":"中山南路","SECT":" ","MAREA":" ","LANE":" ","ALLEY":" ","HOUSE_NO":"６７０號","E_COORD97":172453.59,"N_COORD97":2546699.7000000002,"ADDRESS":"中山南路６７０號","OBJECTID":471475},"geometry":{"x":172453.58999999985,"y":2546699.6999999993}},{"attributes":{"ID":471501,"DIS_CODE":0,"TOWNNAME":"永康區","LI":"永康里","LIN":"18鄰","STREET":"永中街","SECT":" ","MAREA":" ","LANE":" ","ALLEY":" ","HOUSE_NO":"１２８號","E_COORD97":173980.09,"N_COORD97":2547263.8300000001,"ADDRESS":"永中街１２８號","OBJECTID":471476},"geometry":{"x":173980.09000000078,"y":2547263.8300000019}},{"attributes":{"ID":471502,"DIS_CODE":0,"TOWNNAME":"安南區","LI":"幸福里","LIN":"18鄰","STREET":"府安路","SECT":"六段","MAREA":" ","LANE":" ","ALLEY":" ","HOUSE_NO":"１０號","E_COORD97":167133,"N_COORD97":2546729.9700000002,"ADDRESS":"府安路六段１０號","OBJECTID":471477},"geometry":{"x":167133,"y":2546729.9700000007}},{"attributes":{"ID":471503,"DIS_CODE":0,"TOWNNAME":"安南區","LI":"幸福里","LIN":"18鄰","STREET":"府安路","SECT":"六段","MAREA":" ","LANE":" ","ALLEY":" ","HOUSE_NO":"１９號","E_COORD97":167095.82000000001,"N_COORD97":2546700.0600000001,"ADDRESS":"府安路六段１９號","OBJECTID":471478},"geometry":{"x":167095.8200000003,"y":2546700.0600000024}},{"attributes":{"ID":471504,"DIS_CODE":0,"TOWNNAME":"安南區","LI":"幸福里","LIN":"18鄰","STREET":"府安路","SECT":"六段","MAREA":" ","LANE":" ","ALLEY":" ","HOUSE_NO":"２３號","E_COORD97":167082.29000000001,"N_COORD97":2546698.4900000002,"ADDRESS":"府安路六段２３號","OBJECTID":471479},"geometry":{"x":167082.28999999911,"y":2546698.4900000002}},{"attributes":{"ID":471505,"DIS_CODE":0,"TOWNNAME":"安南區","LI":"幸福里","LIN":"18鄰","STREET":"府安路","SECT":"六段","MAREA":" ","LANE":" ","ALLEY":" ","HOUSE_NO":"２５號","E_COORD97":167063.17000000001,"N_COORD97":2546699.6099999999,"ADDRESS":"府安路六段２５號","OBJECTID":471480},"geometry":{"x":167063.17000000086,"y":2546699.6099999994}},{"attributes":{"ID":471506,"DIS_CODE":0,"TOWNNAME":"永康區","LI":"正強里","LIN":" ","STREET":"正強街","SECT":" ","MAREA":" ","LANE":" ","ALLEY":" ","HOUSE_NO":"１８３號","E_COORD97":173300.79999999999,"N_COORD97":2547632.7799999998,"ADDRESS":"正強街１８３號","OBJECTID":471481},"geometry":{"x":173300.80000000075,"y":2547632.7800000012}},{"attributes":{"ID":471507,"DIS_CODE":0,"TOWNNAME":"永康區","LI":"\u25A0洲里","LIN":"39鄰","STREET":"\u25A0洲一街","SECT":" ","MAREA":" ","LANE":" ","ALLEY":" ","HOUSE_NO":"８０號","E_COORD97":171606.23999999999,"N_COORD97":2549066.7400000002,"ADDRESS":"\u25A0洲一街８０號","OBJECTID":471482},"geometry":{"x":171606.24000000115,"y":2549066.7400000002}},{"attributes":{"ID":471508,"DIS_CODE":0,"TOWNNAME":"永康區","LI":"三合里","LIN":" ","STREET":"中山東路","SECT":" ","MAREA":" ","LANE":" ","ALLEY":" ","HOUSE_NO":"１４３號","E_COORD97":171789.60999999999,"N_COORD97":2545792.1200000001,"ADDRESS":"中山東路１４３號","OBJECTID":471483},"geometry":{"x":171789.61000000034,"y":2545792.1200000029}},{"attributes":{"ID":471509,"DIS_CODE":0,"TOWNNAME":"安南區","LI":"幸福里","LIN":"18鄰","STREET":"府安路","SECT":"六段","MAREA":" ","LANE":" ","ALLEY":" ","HOUSE_NO":"８號","E_COORD97":167146.04000000001,"N_COORD97":2546735.8599999999,"ADDRESS":"府安路六段８號","OBJECTID":471484},"geometry":{"x":167146.04000000004,"y":2546735.8599999994}},{"attributes":{"ID":471510,"DIS_CODE":0,"TOWNNAME":"安南區","LI":"幸福里","LIN":"18鄰","STREET":"府安路","SECT":"六段","MAREA":" ","LANE":" ","ALLEY":" ","HOUSE_NO":"９號","E_COORD97":167139.72,"N_COORD97":2546733.2799999998,"ADDRESS":"府安路六段９號","OBJECTID":471485},"geometry":{"x":167139.71999999974,"y":2546733.2799999993}},{"attributes":{"ID":471511,"DIS_CODE":0,"TOWNNAME":"永康區","LI":"五王里","LIN":" ","STREET":"成功路","SECT":" ","MAREA":" ","LANE":" ","ALLEY":" ","HOUSE_NO":"１８０號","E_COORD97":171441.70000000001,"N_COORD97":2545647.2599999998,"ADDRESS":"成功路１８０號","OBJECTID":471486},"geometry":{"x":171441.70000000112,"y":2545647.2600000016}},{"attributes":{"ID":471512,"DIS_CODE":0,"TOWNNAME":"永康區","LI":"東橋里","LIN":" ","STREET":"自強路","SECT":" ","MAREA":" ","LANE":" ","ALLEY":" ","HOUSE_NO":"１１９之１號","E_COORD97":172885.60999999999,"N_COORD97":2547340.7999999998,"ADDRESS":"自強路１１９之１號","OBJECTID":471487},"geometry":{"x":172885.61000000127,"y":2547340.8000000007}},{"attributes":{"ID":471513,"DIS_CODE":0,"TOWNNAME":"東區","LI":"東明里","LIN":"18鄰","STREET":"怡東路","SECT":" ","MAREA":" ","LANE":" ","ALLEY":" ","HOUSE_NO":"６５號","E_COORD97":170830.98000000001,"N_COORD97":2543622.0299999998,"ADDRESS":"怡東路６５號","OBJECTID":471488},"geometry":{"x":170830.98000000045,"y":2543622.0299999993}},{"attributes":{"ID":471514,"DIS_CODE":0,"TOWNNAME":"永康區","LI":"\u25A0洲里","LIN":"40鄰","STREET":"正南六街","SECT":" ","MAREA":" ","LANE":" ","ALLEY":" ","HOUSE_NO":"９７號","E_COORD97":170842.10999999999,"N_COORD97":2548647.8199999998,"ADDRESS":"正南六街９７號","OBJECTID":471489},"geometry":{"x":170842.1100000022,"y":2548647.8200000022}},{"attributes":{"ID":471515,"DIS_CODE":0,"TOWNNAME":"麻豆區","LI":"中興里","LIN":"18鄰","STREET":"中興街","SECT":" ","MAREA":" ","LANE":" ","ALLEY":" ","HOUSE_NO":"１９９號","E_COORD97":172602.25,"N_COORD97":2564538.3799999999,"ADDRESS":"中興街１９９號","OBJECTID":471490},"geometry":{"x":172602.25000000186,"y":2564538.379999999}},{"attributes":{"ID":471516,"DIS_CODE":0,"TOWNNAME":"永康區","LI":"王行里","LIN":" ","STREET":"龍國街","SECT":" ","MAREA":" ","LANE":" ","ALLEY":" ","HOUSE_NO":"３９９號","E_COORD97":174948.25,"N_COORD97":2548015.2400000002,"ADDRESS":"龍國街３９９號","OBJECTID":471491},"geometry":{"x":174948.25000000186,"y":2548015.2400000002}},{"attributes":{"ID":471517,"DIS_CODE":0,"TOWNNAME":"永康區","LI":"復國里","LIN":" ","STREET":"復國一路","SECT":" ","MAREA":" ","LANE":" ","ALLEY":" ","HOUSE_NO":"２６１號","E_COORD97":172731.76000000001,"N_COORD97":2545461.27,"ADDRESS":"復國一路２６１號","OBJECTID":471492},"geometry":{"x":172731.75999999978,"y":2545461.2699999996}},{"attributes":{"ID":471518,"DIS_CODE":0,"TOWNNAME":"麻豆區","LI":"中興里","LIN":"18鄰","STREET":"中興街","SECT":" ","MAREA":" ","LANE":" ","ALLEY":" ","HOUSE_NO":"２０３號","E_COORD97":172593.06,"N_COORD97":2564536.9399999999,"ADDRESS":"中興街２０３號","OBJECTID":471493},"geometry":{"x":172593.06000000052,"y":2564536.9400000013}},{"attributes":{"ID":471519,"DIS_CODE":0,"TOWNNAME":"麻豆區","LI":"中興里","LIN":"18鄰","STREET":"中興街","SECT":" ","MAREA":" ","LANE":" ","ALLEY":" ","HOUSE_NO":"２０５號","E_COORD97":172587.39999999999,"N_COORD97":2564536.4199999999,"ADDRESS":"中興街２０５號","OBJECTID":471494},"geometry":{"x":172587.40000000037,"y":2564536.4200000037}},{"attributes":{"ID":471520,"DIS_CODE":0,"TOWNNAME":"麻豆區","LI":"中興里","LIN":"18鄰","STREET":"中興街","SECT":" ","MAREA":" ","LANE":" ","ALLEY":" ","HOUSE_NO":"２１４號","E_COORD97":172602.44,"N_COORD97":2564562.8599999999,"ADDRESS":"中興街２１４號","OBJECTID":471495},"geometry":{"x":172602.44000000041,"y":2564562.8599999994}},{"attributes":{"ID":471521,"DIS_CODE":0,"TOWNNAME":"麻豆區","LI":"中興里","LIN":"18鄰","STREET":"中興街","SECT":" ","MAREA":" ","LANE":" ","ALLEY":" ","HOUSE_NO":"２１６號","E_COORD97":172598.16,"N_COORD97":2564562.4199999999,"ADDRESS":"中興街２１６號","OBJECTID":471496},"geometry":{"x":172598.16000000108,"y":2564562.4199999999}},{"attributes":{"ID":471522,"DIS_CODE":0,"TOWNNAME":"麻豆區","LI":"中興里","LIN":"18鄰","STREET":"中興街","SECT":" ","MAREA":" ","LANE":" ","ALLEY":" ","HOUSE_NO":"２１８號","E_COORD97":172593.70000000001,"N_COORD97":2564562.1299999999,"ADDRESS":"中興街２１８號","OBJECTID":471497},"geometry":{"x":172593.70000000019,"y":2564562.1300000008}},{"attributes":{"ID":471523,"DIS_CODE":0,"TOWNNAME":"麻豆區","LI":"中興里","LIN":"18鄰","STREET":"中興街","SECT":" ","MAREA":" ","LANE":" ","ALLEY":" ","HOUSE_NO":"２２０號","E_COORD97":172589.38,"N_COORD97":2564561.9700000002,"ADDRESS":"中興街２２０號","OBJECTID":471498},"geometry":{"x":172589.38000000175,"y":2564561.9700000025}},{"attributes":{"ID":471524,"DIS_CODE":0,"TOWNNAME":"麻豆區","LI":"中興里","LIN":"18鄰","STREET":"中興街","SECT":" ","MAREA":" ","LANE":" ","ALLEY":" ","HOUSE_NO":"２２２號","E_COORD97":172584.76999999999,"N_COORD97":2564561.3100000001,"ADDRESS":"中興街２２２號","OBJECTID":471499},"geometry":{"x":172584.77000000048,"y":2564561.3100000005}},{"attributes":{"ID":471525,"DIS_CODE":0,"TOWNNAME":"麻豆區","LI":"中興里","LIN":"18鄰","STREET":"中興街","SECT":" ","MAREA":" ","LANE":" ","ALLEY":" ","HOUSE_NO":"２２４號","E_COORD97":172580.60999999999,"N_COORD97":2564560.7999999998,"ADDRESS":"中興街２２４號","OBJECTID":471500},"geometry":{"x":172580.61000000034,"y":2564560.8000000007}},{"attributes":{"ID":471526,"DIS_CODE":0,"TOWNNAME":"麻豆區","LI":"中興里","LIN":"18鄰","STREET":"中興街","SECT":" ","MAREA":" ","LANE":" ","ALLEY":" ","HOUSE_NO":"２２６號","E_COORD97":172576.23000000001,"N_COORD97":2564560.2599999998,"ADDRESS":"中興街２２６號","OBJECTID":471501},"geometry":{"x":172576.23000000138,"y":2564560.2599999998}},{"attributes":{"ID":471527,"DIS_CODE":0,"TOWNNAME":"麻豆區","LI":"中興里","LIN":"18鄰","STREET":"中興街","SECT":" ","MAREA":" ","LANE":" ","ALLEY":" ","HOUSE_NO":"２２８號","E_COORD97":172571.84,"N_COORD97":2564559.8100000001,"ADDRESS":"中興街２２８號","OBJECTID":471502},"geometry":{"x":172571.83999999985,"y":2564559.8100000024}},{"attributes":{"ID":471528,"DIS_CODE":0,"TOWNNAME":"麻豆區","LI":"中興里","LIN":"18鄰","STREET":"中興街","SECT":" ","MAREA":" ","LANE":" ","ALLEY":" ","HOUSE_NO":"２３２號","E_COORD97":172561.88,"N_COORD97":2564559.3900000001,"ADDRESS":"中興街２３２號","OBJECTID":471503},"geometry":{"x":172561.87999999989,"y":2564559.3900000025}},{"attributes":{"ID":471529,"DIS_CODE":0,"TOWNNAME":"麻豆區","LI":"中興里","LIN":"18鄰","STREET":"中興街","SECT":" ","MAREA":" ","LANE":" ","ALLEY":" ","HOUSE_NO":"２３４號","E_COORD97":172557.66,"N_COORD97":2564558.9100000001,"ADDRESS":"中興街２３４號","OBJECTID":471504},"geometry":{"x":172557.66000000108,"y":2564558.9100000001}},{"attributes":{"ID":471530,"DIS_CODE":0,"TOWNNAME":"永康區","LI":"\u25A0洲里","LIN":"26鄰","STREET":"洲尾街","SECT":" ","MAREA":" ","LANE":" ","ALLEY":" ","HOUSE_NO":"２３５號","E_COORD97":170913.79000000001,"N_COORD97":2549109.2599999998,"ADDRESS":"洲尾街２３５號","OBJECTID":471505},"geometry":{"x":170913.79000000097,"y":2549109.2600000016}},{"attributes":{"ID":471531,"DIS_CODE":0,"TOWNNAME":"永康區","LI":"復國里","LIN":" ","STREET":"復國一路","SECT":" ","MAREA":" ","LANE":" ","ALLEY":" ","HOUSE_NO":"２５３號","E_COORD97":172730.60000000001,"N_COORD97":2545444.02,"ADDRESS":"復國一路２５３號","OBJECTID":471506},"geometry":{"x":172730.60000000056,"y":2545444.0199999977}},{"attributes":{"ID":471532,"DIS_CODE":0,"TOWNNAME":"永康區","LI":"成功里","LIN":" ","STREET":"中華路","SECT":" ","MAREA":" ","LANE":" ","ALLEY":" ","HOUSE_NO":"１８８之３號","E_COORD97":169927.17000000001,"N_COORD97":2547093.7599999998,"ADDRESS":"中華路１８８之３號","OBJECTID":471507},"geometry":{"x":169927.16999999993,"y":2547093.7599999979}},{"attributes":{"ID":471533,"DIS_CODE":0,"TOWNNAME":"永康區","LI":"\u25A0洲里","LIN":"25鄰","STREET":"中正南路","SECT":" ","MAREA":" ","LANE":" ","ALLEY":" ","HOUSE_NO":"４３７號","E_COORD97":170810.41,"N_COORD97":2548082.1800000002,"ADDRESS":"中正南路４３７號","OBJECTID":471508},"geometry":{"x":170810.41000000015,"y":2548082.1800000016}},{"attributes":{"ID":471534,"DIS_CODE":0,"TOWNNAME":"永康區","LI":"\u25A0洲里","LIN":"4鄰","STREET":"\u25A0洲二街","SECT":" ","MAREA":" ","LANE":" ","ALLEY":" ","HOUSE_NO":"１２３號","E_COORD97":171630.06,"N_COORD97":2549322.75,"ADDRESS":"\u25A0洲二街１２３號","OBJECTID":471509},"geometry":{"x":171630.06000000145,"y":2549322.7500000019}},{"attributes":{"ID":471535,"DIS_CODE":0,"TOWNNAME":"麻豆區","LI":"大埕里","LIN":"18鄰","STREET":"平等路","SECT":" ","MAREA":" ","LANE":" ","ALLEY":" ","HOUSE_NO":"１１號","E_COORD97":173017.5,"N_COORD97":2564946.1400000001,"ADDRESS":"平等路１１號","OBJECTID":471510},"geometry":{"x":173017.50000000186,"y":2564946.1400000043}},{"attributes":{"ID":471536,"DIS_CODE":0,"TOWNNAME":"麻豆區","LI":"大埕里","LIN":"18鄰","STREET":"平等路","SECT":" ","MAREA":" ","LANE":" ","ALLEY":" ","HOUSE_NO":"１３號","E_COORD97":173017.85000000001,"N_COORD97":2564949.5899999999,"ADDRESS":"平等路１３號","OBJECTID":471511},"geometry":{"x":173017.84999999963,"y":2564949.5900000017}},{"attributes":{"ID":471537,"DIS_CODE":0,"TOWNNAME":"麻豆區","LI":"大埕里","LIN":"18鄰","STREET":"平等路","SECT":" ","MAREA":" ","LANE":" ","ALLEY":" ","HOUSE_NO":"１５號","E_COORD97":173018.57999999999,"N_COORD97":2564953.73,"ADDRESS":"平等路１５號","OBJECTID":471512},"geometry":{"x":173018.57999999914,"y":2564953.7300000004}},{"attributes":{"ID":471538,"DIS_CODE":0,"TOWNNAME":"麻豆區","LI":"大埕里","LIN":"18鄰","STREET":"平等路","SECT":" ","MAREA":" ","LANE":" ","ALLEY":" ","HOUSE_NO":"１７號","E_COORD97":173019.10999999999,"N_COORD97":2564958.1200000001,"ADDRESS":"平等路１７號","OBJECTID":471513},"geometry":{"x":173019.11000000127,"y":2564958.1200000029}},{"attributes":{"ID":471539,"DIS_CODE":0,"TOWNNAME":"麻豆區","LI":"大埕里","LIN":"18鄰","STREET":"平等路","SECT":" ","MAREA":" ","LANE":" ","ALLEY":" ","HOUSE_NO":"１號","E_COORD97":173018.38,"N_COORD97":2564931.5899999999,"ADDRESS":"平等路１號","OBJECTID":471514},"geometry":{"x":173018.38000000082,"y":2564931.5899999999}},{"attributes":{"ID":471540,"DIS_CODE":0,"TOWNNAME":"永康區","LI":"\u25A0洲里","LIN":"36鄰","STREET":"\u25A0洲二街","SECT":" ","MAREA":" ","LANE":" ","ALLEY":" ","HOUSE_NO":"１９１號","E_COORD97":171747.01000000001,"N_COORD97":2549431,"ADDRESS":"\u25A0洲二街１９１號","OBJECTID":471515},"geometry":{"x":171747.00999999978,"y":2549431}},{"attributes":{"ID":471541,"DIS_CODE":0,"TOWNNAME":"永康區","LI":"中華里","LIN":"18鄰","STREET":"忠義街","SECT":" ","MAREA":" ","LANE":" ","ALLEY":" ","HOUSE_NO":"３１號","E_COORD97":171707.45999999999,"N_COORD97":2544481.27,"ADDRESS":"忠義街３１號","OBJECTID":471516},"geometry":{"x":171707.46000000089,"y":2544481.2700000014}},{"attributes":{"ID":471542,"DIS_CODE":0,"TOWNNAME":"永康區","LI":"大橋里","LIN":" ","STREET":"大橋三街","SECT":" ","MAREA":" ","LANE":" ","ALLEY":" ","HOUSE_NO":"１０１號","E_COORD97":170971.92000000001,"N_COORD97":2546941.5,"ADDRESS":"大橋三街１０１號","OBJECTID":471517},"geometry":{"x":170971.92000000179,"y":2546941.5000000019}},{"attributes":{"ID":471543,"DIS_CODE":0,"TOWNNAME":"永康區","LI":"\u25A0洲里","LIN":"40鄰","STREET":"正南六街","SECT":" ","MAREA":" ","LANE":" ","ALLEY":" ","HOUSE_NO":"１０７號","E_COORD97":170814.13,"N_COORD97":2548676.73,"ADDRESS":"正南六街１０７號","OBJECTID":471518},"geometry":{"x":170814.12999999989,"y":2548676.7300000004}},{"attributes":{"ID":471544,"DIS_CODE":0,"TOWNNAME":"永康區","LI":"\u25A0洲里","LIN":"24鄰","STREET":"正南二街","SECT":" ","MAREA":" ","LANE":" ","ALLEY":" ","HOUSE_NO":"１１２號","E_COORD97":170680.01000000001,"N_COORD97":2548434.5899999999,"ADDRESS":"正南二街１１２號","OBJECTID":471519},"geometry":{"x":170680.01000000071,"y":2548434.5900000036}},{"attributes":{"ID":471545,"DIS_CODE":0,"TOWNNAME":"永康區","LI":"中華里","LIN":"6鄰","STREET":"華興街","SECT":" ","MAREA":" ","LANE":" ","ALLEY":" ","HOUSE_NO":"４７號","E_COORD97":171969.84,"N_COORD97":2544562.8300000001,"ADDRESS":"華興街４７號","OBJECTID":471520},"geometry":{"x":171969.84000000078,"y":2544562.8300000019}},{"attributes":{"ID":471546,"DIS_CODE":0,"TOWNNAME":"中西區","LI":"郡王里","LIN":"18鄰","STREET":"府前路","SECT":"一段","MAREA":" ","LANE":" ","ALLEY":" ","HOUSE_NO":"１５７號之８","E_COORD97":168552.29000000001,"N_COORD97":2543209.4300000002,"ADDRESS":"府前路一段１５７號之８","OBJECTID":471521},"geometry":{"x":168552.29000000097,"y":2543209.4299999997}},{"attributes":{"ID":471547,"DIS_CODE":0,"TOWNNAME":"中西區","LI":"郡王里","LIN":"18鄰","STREET":"府前路","SECT":"一段","MAREA":" ","LANE":" ","ALLEY":" ","HOUSE_NO":"１５９號","E_COORD97":168612.95000000001,"N_COORD97":2543252.25,"ADDRESS":"府前路一段１５９號","OBJECTID":471522},"geometry":{"x":168612.95000000112,"y":2543252.25}},{"attributes":{"ID":471548,"DIS_CODE":0,"TOWNNAME":"中西區","LI":"郡王里","LIN":"18鄰","STREET":"府前路","SECT":"一段","MAREA":" ","LANE":" ","ALLEY":" ","HOUSE_NO":"１６１號","E_COORD97":168595.22,"N_COORD97":2543258,"ADDRESS":"府前路一段１６１號","OBJECTID":471523},"geometry":{"x":168595.22000000067,"y":2543258.0000000037}},{"attributes":{"ID":471549,"DIS_CODE":0,"TOWNNAME":"中西區","LI":"郡王里","LIN":"18鄰","STREET":"府前路","SECT":"一段","MAREA":" ","LANE":" ","ALLEY":" ","HOUSE_NO":"１６３號","E_COORD97":168594.29999999999,"N_COORD97":2543240.9900000002,"ADDRESS":"府前路一段１６３號","OBJECTID":471524},"geometry":{"x":168594.30000000168,"y":2543240.9900000002}},{"attributes":{"ID":471550,"DIS_CODE":0,"TOWNNAME":"中西區","LI":"郡王里","LIN":"18鄰","STREET":"府前路","SECT":"一段","MAREA":" ","LANE":" ","ALLEY":" ","HOUSE_NO":"１６５號","E_COORD97":168584.17000000001,"N_COORD97":2543259.3799999999,"ADDRESS":"府前路一段１６５號","OBJECTID":471525},"geometry":{"x":168584.16999999993,"y":2543259.3800000008}},{"attributes":{"ID":471551,"DIS_CODE":0,"TOWNNAME":"中西區","LI":"郡王里","LIN":"18鄰","STREET":"府前路","SECT":"一段","MAREA":" ","LANE":" ","ALLEY":" ","HOUSE_NO":"１６７號","E_COORD97":168583.23999999999,"N_COORD97":2543241.6800000002,"ADDRESS":"府前路一段１６７號","OBJECTID":471526},"geometry":{"x":168583.24000000209,"y":2543241.6799999997}},{"attributes":{"ID":471552,"DIS_CODE":0,"TOWNNAME":"中西區","LI":"郡王里","LIN":"18鄰","STREET":"府前路","SECT":"一段","MAREA":" ","LANE":" ","ALLEY":" ","HOUSE_NO":"１６９號","E_COORD97":168557.34,"N_COORD97":2543242.6299999999,"ADDRESS":"府前路一段１６９號","OBJECTID":471527},"geometry":{"x":168557.34000000078,"y":2543242.6300000027}},{"attributes":{"ID":471553,"DIS_CODE":0,"TOWNNAME":"中西區","LI":"郡王里","LIN":"18鄰","STREET":"府前路","SECT":"一段","MAREA":" ","LANE":" ","ALLEY":" ","HOUSE_NO":"１７１號","E_COORD97":168568.76000000001,"N_COORD97":2543259.79,"ADDRESS":"府前路一段１７１號","OBJECTID":471528},"geometry":{"x":168568.75999999978,"y":2543259.790000001}},{"attributes":{"ID":471554,"DIS_CODE":0,"TOWNNAME":"中西區","LI":"郡王里","LIN":"18鄰","STREET":"府前路","SECT":"一段","MAREA":" ","LANE":" ","ALLEY":" ","HOUSE_NO":"１７３號","E_COORD97":168561.37,"N_COORD97":2543259.6299999999,"ADDRESS":"府前路一段１７３號","OBJECTID":471529},"geometry":{"x":168561.37000000011,"y":2543259.6300000027}},{"attributes":{"ID":471555,"DIS_CODE":0,"TOWNNAME":"中西區","LI":"郡王里","LIN":"18鄰","STREET":"府前路","SECT":"一段","MAREA":" ","LANE":" ","ALLEY":" ","HOUSE_NO":"１７５號","E_COORD97":168554.35000000001,"N_COORD97":2543260.1000000001,"ADDRESS":"府前路一段１７５號","OBJECTID":471530},"geometry":{"x":168554.34999999963,"y":2543260.0999999978}},{"attributes":{"ID":471556,"DIS_CODE":0,"TOWNNAME":"中西區","LI":"郡王里","LIN":"18鄰","STREET":"府前路","SECT":"一段","MAREA":" ","LANE":" ","ALLEY":" ","HOUSE_NO":"１７７號","E_COORD97":168538.97,"N_COORD97":2543259.4700000002,"ADDRESS":"府前路一段１７７號","OBJECTID":471531},"geometry":{"x":168538.97000000067,"y":2543259.4700000025}},{"attributes":{"ID":471557,"DIS_CODE":0,"TOWNNAME":"永康區","LI":"永康里","LIN":"36鄰","STREET":"永大路","SECT":"二段","MAREA":" ","LANE":" ","ALLEY":" ","HOUSE_NO":"１２５０號","E_COORD97":174330.35999999999,"N_COORD97":2546809.52,"ADDRESS":"永大路二段１２５０號","OBJECTID":471532},"geometry":{"x":174330.36000000034,"y":2546809.5199999996}},{"attributes":{"ID":471558,"DIS_CODE":0,"TOWNNAME":"中西區","LI":"郡王里","LIN":"18鄰","STREET":"府前路","SECT":"一段","MAREA":" ","LANE":" ","ALLEY":" ","HOUSE_NO":"１７９號","E_COORD97":168523.29999999999,"N_COORD97":2543259.4700000002,"ADDRESS":"府前路一段１７９號","OBJECTID":471533},"geometry":{"x":168523.30000000075,"y":2543259.4700000025}},{"attributes":{"ID":471559,"DIS_CODE":0,"TOWNNAME":"中西區","LI":"郡王里","LIN":"18鄰","STREET":"府前路","SECT":"一段","MAREA":" ","LANE":" ","ALLEY":" ","HOUSE_NO":"１８１號","E_COORD97":168511.07999999999,"N_COORD97":2543262.9700000002,"ADDRESS":"府前路一段１８１號","OBJECTID":471534},"geometry":{"x":168511.07999999914,"y":2543262.9700000025}},{"attributes":{"ID":471560,"DIS_CODE":0,"TOWNNAME":"中西區","LI":"郡王里","LIN":"18鄰","STREET":"大埔街","SECT":" ","MAREA":" ","LANE":" ","ALLEY":" ","HOUSE_NO":"５０號","E_COORD97":168714.07999999999,"N_COORD97":2543101.7799999998,"ADDRESS":"大埔街５０號","OBJECTID":471535},"geometry":{"x":168714.08000000007,"y":2543101.7799999993}},{"attributes":{"ID":471561,"DIS_CODE":0,"TOWNNAME":"中西區","LI":"郡王里","LIN":"18鄰","STREET":"大埔街","SECT":" ","MAREA":" ","LANE":" ","ALLEY":" ","HOUSE_NO":"５２號","E_COORD97":168693.38,"N_COORD97":2543118.0800000001,"ADDRESS":"大埔街５２號","OBJECTID":471536},"geometry":{"x":168693.37999999989,"y":2543118.0800000001}},{"attributes":{"ID":471562,"DIS_CODE":0,"TOWNNAME":"中西區","LI":"郡王里","LIN":"18鄰","STREET":"大埔街","SECT":" ","MAREA":" ","LANE":" ","ALLEY":" ","HOUSE_NO":"５４號","E_COORD97":168679.82000000001,"N_COORD97":2543133,"ADDRESS":"大埔街５４號","OBJECTID":471537},"geometry":{"x":168679.82000000123,"y":2543133.0000000019}},{"attributes":{"ID":471563,"DIS_CODE":0,"TOWNNAME":"中西區","LI":"郡王里","LIN":"18鄰","STREET":"府前路","SECT":"一段","MAREA":" ","LANE":" ","ALLEY":" ","HOUSE_NO":"１４１號","E_COORD97":168749.22,"N_COORD97":2543269.6600000001,"ADDRESS":"府前路一段１４１號","OBJECTID":471538},"geometry":{"x":168749.22000000067,"y":2543269.6600000001}},{"attributes":{"ID":471564,"DIS_CODE":0,"TOWNNAME":"中西區","LI":"郡王里","LIN":"18鄰","STREET":"府前路","SECT":"一段","MAREA":" ","LANE":" ","ALLEY":" ","HOUSE_NO":"１４３號","E_COORD97":168745.31,"N_COORD97":2543273.1499999999,"ADDRESS":"府前路一段１４３號","OBJECTID":471539},"geometry":{"x":168745.31000000052,"y":2543273.1500000004}},{"attributes":{"ID":471565,"DIS_CODE":0,"TOWNNAME":"中西區","LI":"郡王里","LIN":"18鄰","STREET":"府前路","SECT":"一段","MAREA":" ","LANE":" ","ALLEY":" ","HOUSE_NO":"１４５號","E_COORD97":168742.37,"N_COORD97":2543270.0800000001,"ADDRESS":"府前路一段１４５號","OBJECTID":471540},"geometry":{"x":168742.37000000011,"y":2543270.0800000001}},{"attributes":{"ID":471566,"DIS_CODE":0,"TOWNNAME":"中西區","LI":"郡王里","LIN":"18鄰","STREET":"府前路","SECT":"一段","MAREA":" ","LANE":" ","ALLEY":" ","HOUSE_NO":"１４７號","E_COORD97":168738.81,"N_COORD97":2543272.2400000002,"ADDRESS":"府前路一段１４７號","OBJECTID":471541},"geometry":{"x":168738.81000000052,"y":2543272.2400000002}},{"attributes":{"ID":471567,"DIS_CODE":0,"TOWNNAME":"中西區","LI":"郡王里","LIN":"18鄰","STREET":"府前路","SECT":"一段","MAREA":" ","LANE":" ","ALLEY":" ","HOUSE_NO":"１４９號","E_COORD97":168734.69,"N_COORD97":2543271.2000000002,"ADDRESS":"府前路一段１４９號","OBJECTID":471542},"geometry":{"x":168734.69000000227,"y":2543271.1999999993}},{"attributes":{"ID":471568,"DIS_CODE":0,"TOWNNAME":"中西區","LI":"郡王里","LIN":"18鄰","STREET":"府前路","SECT":"一段","MAREA":" ","LANE":" ","ALLEY":" ","HOUSE_NO":"１５１號","E_COORD97":168730.29000000001,"N_COORD97":2543273.0800000001,"ADDRESS":"府前路一段１５１號","OBJECTID":471543},"geometry":{"x":168730.29000000097,"y":2543273.0800000001}},{"attributes":{"ID":471569,"DIS_CODE":0,"TOWNNAME":"中西區","LI":"郡王里","LIN":"18鄰","STREET":"建業街","SECT":" ","MAREA":" ","LANE":" ","ALLEY":" ","HOUSE_NO":"１０號","E_COORD97":168735.57999999999,"N_COORD97":2543235.6699999999,"ADDRESS":"建業街１０號","OBJECTID":471544},"geometry":{"x":168735.58000000101,"y":2543235.6699999999}},{"attributes":{"ID":471570,"DIS_CODE":0,"TOWNNAME":"永康區","LI":"永康里","LIN":"4鄰","STREET":"永中街","SECT":" ","MAREA":" ","LANE":" ","ALLEY":" ","HOUSE_NO":"１１１號","E_COORD97":173990.38,"N_COORD97":2547319.7400000002,"ADDRESS":"永中街１１１號","OBJECTID":471545},"geometry":{"x":173990.37999999989,"y":2547319.7400000021}},{"attributes":{"ID":471571,"DIS_CODE":0,"TOWNNAME":"中西區","LI":"郡王里","LIN":"18鄰","STREET":"建業街","SECT":" ","MAREA":" ","LANE":" ","ALLEY":" ","HOUSE_NO":"８號","E_COORD97":168738.14000000001,"N_COORD97":2543239.7799999998,"ADDRESS":"建業街８號","OBJECTID":471546},"geometry":{"x":168738.1400000006,"y":2543239.7800000012}},{"attributes":{"ID":471572,"DIS_CODE":0,"TOWNNAME":"中西區","LI":"郡王里","LIN":"18鄰","STREET":"開山路","SECT":" ","MAREA":" ","LANE":" ","ALLEY":" ","HOUSE_NO":"１３４號","E_COORD97":168766.45000000001,"N_COORD97":2543260.1699999999,"ADDRESS":"開山路１３４號","OBJECTID":471547},"geometry":{"x":168766.45000000205,"y":2543260.1700000037}},{"attributes":{"ID":471573,"DIS_CODE":0,"TOWNNAME":"中西區","LI":"郡王里","LIN":"18鄰","STREET":"開山路","SECT":" ","MAREA":" ","LANE":" ","ALLEY":" ","HOUSE_NO":"１３６號","E_COORD97":168783.66,"N_COORD97":2543231.9399999999,"ADDRESS":"開山路１３６號","OBJECTID":471548},"geometry":{"x":168783.66000000201,"y":2543231.9400000013}},{"attributes":{"ID":471574,"DIS_CODE":0,"TOWNNAME":"中西區","LI":"郡王里","LIN":"18鄰","STREET":"開山路","SECT":" ","MAREA":" ","LANE":" ","ALLEY":" ","HOUSE_NO":"１３８號","E_COORD97":168774.09,"N_COORD97":2543231.5899999999,"ADDRESS":"開山路１３８號","OBJECTID":471549},"geometry":{"x":168774.09000000078,"y":2543231.5900000017}},{"attributes":{"ID":471575,"DIS_CODE":0,"TOWNNAME":"中西區","LI":"郡王里","LIN":"18鄰","STREET":"開山路","SECT":" ","MAREA":" ","LANE":" ","ALLEY":" ","HOUSE_NO":"１４０號","E_COORD97":168765.04000000001,"N_COORD97":2543231.5,"ADDRESS":"開山路１４０號","OBJECTID":471550},"geometry":{"x":168765.04000000004,"y":2543231.5000000019}},{"attributes":{"ID":471576,"DIS_CODE":0,"TOWNNAME":"中西區","LI":"郡王里","LIN":"18鄰","STREET":"開山路","SECT":" ","MAREA":" ","LANE":" ","ALLEY":" ","HOUSE_NO":"１４２號","E_COORD97":168757.10999999999,"N_COORD97":2543230.8799999999,"ADDRESS":"開山路１４２號","OBJECTID":471551},"geometry":{"x":168757.1100000022,"y":2543230.8800000027}},{"attributes":{"ID":471577,"DIS_CODE":0,"TOWNNAME":"永康區","LI":"永康里","LIN":"26鄰","STREET":"永大路","SECT":"二段","MAREA":" ","LANE":" ","ALLEY":" ","HOUSE_NO":"１１２９號地下一層之","E_COORD97":174201.09,"N_COORD97":2547482.3599999999,"ADDRESS":"永大路二段１１２９號地下一層之５","OBJECTID":471552},"geometry":{"x":174201.08999999985,"y":2547482.3599999994}},{"attributes":{"ID":471578,"DIS_CODE":0,"TOWNNAME":"中西區","LI":"郡王里","LIN":"18鄰","STREET":"開山路","SECT":" ","MAREA":" ","LANE":" ","ALLEY":" ","HOUSE_NO":"１４４號","E_COORD97":168756.79999999999,"N_COORD97":2543224,"ADDRESS":"開山路１４４號","OBJECTID":471553},"geometry":{"x":168756.79999999888,"y":2543224.0000000037}},{"attributes":{"ID":471579,"DIS_CODE":0,"TOWNNAME":"中西區","LI":"郡王里","LIN":"18鄰","STREET":"開山路","SECT":" ","MAREA":" ","LANE":" ","ALLEY":" ","HOUSE_NO":"１４６號","E_COORD97":168765.06,"N_COORD97":2543224.1699999999,"ADDRESS":"開山路１４６號","OBJECTID":471554},"geometry":{"x":168765.06000000145,"y":2543224.1700000018}},{"attributes":{"ID":471580,"DIS_CODE":0,"TOWNNAME":"中西區","LI":"郡王里","LIN":"18鄰","STREET":"開山路","SECT":" ","MAREA":" ","LANE":" ","ALLEY":" ","HOUSE_NO":"１４８號","E_COORD97":168774.20000000001,"N_COORD97":2543224.2599999998,"ADDRESS":"開山路１４８號","OBJECTID":471555},"geometry":{"x":168774.20000000019,"y":2543224.2599999998}},{"attributes":{"ID":471581,"DIS_CODE":0,"TOWNNAME":"中西區","LI":"郡王里","LIN":"18鄰","STREET":"開山路","SECT":" ","MAREA":" ","LANE":" ","ALLEY":" ","HOUSE_NO":"１５０號","E_COORD97":168784.39000000001,"N_COORD97":2543224.2599999998,"ADDRESS":"開山路１５０號","OBJECTID":471556},"geometry":{"x":168784.38999999966,"y":2543224.2599999998}},{"attributes":{"ID":471582,"DIS_CODE":0,"TOWNNAME":"中西區","LI":"郡王里","LIN":"18鄰","STREET":"開山路","SECT":" ","MAREA":" ","LANE":" ","ALLEY":" ","HOUSE_NO":"１５２之１號","E_COORD97":168820.23000000001,"N_COORD97":2543109.1499999999,"ADDRESS":"開山路１５２之１號","OBJECTID":471557},"geometry":{"x":168820.23000000045,"y":2543109.1500000022}},{"attributes":{"ID":471583,"DIS_CODE":0,"TOWNNAME":"中西區","LI":"郡王里","LIN":"18鄰","STREET":"開山路","SECT":" ","MAREA":" ","LANE":" ","ALLEY":" ","HOUSE_NO":"１５２號","E_COORD97":168763.01000000001,"N_COORD97":2543153.1499999999,"ADDRESS":"開山路１５２號","OBJECTID":471558},"geometry":{"x":168763.01000000071,"y":2543153.1500000022}},{"attributes":{"ID":471584,"DIS_CODE":0,"TOWNNAME":"仁德區","LI":"保安里","LIN":"18鄰","STREET":"中正路","SECT":"一段","MAREA":" ","LANE":" ","ALLEY":" ","HOUSE_NO":"６９號","E_COORD97":170853.22,"N_COORD97":2535542.2799999998,"ADDRESS":"中正路一段６９號","OBJECTID":471559},"geometry":{"x":170853.22000000067,"y":2535542.2800000031}},{"attributes":{"ID":471585,"DIS_CODE":0,"TOWNNAME":"仁德區","LI":"保安里","LIN":"18鄰","STREET":"中正路","SECT":"一段","MAREA":" ","LANE":" ","ALLEY":" ","HOUSE_NO":"４３號","E_COORD97":170799.17000000001,"N_COORD97":2535542.7799999998,"ADDRESS":"中正路一段４３號","OBJECTID":471560},"geometry":{"x":170799.17000000086,"y":2535542.7800000012}},{"attributes":{"ID":471586,"DIS_CODE":0,"TOWNNAME":"仁德區","LI":"後壁里","LIN":"18鄰","STREET":"中正路","SECT":"二段","MAREA":" ","LANE":" ","ALLEY":" ","HOUSE_NO":"１９６號","E_COORD97":173231.67999999999,"N_COORD97":2538730.02,"ADDRESS":"中正路二段１９６號","OBJECTID":471561},"geometry":{"x":173231.68000000063,"y":2538730.0199999996}},{"attributes":{"ID":471587,"DIS_CODE":0,"TOWNNAME":"仁德區","LI":"新田里","LIN":"18鄰","STREET":"民安路","SECT":"二段","MAREA":" ","LANE":" ","ALLEY":" ","HOUSE_NO":"１１１號","E_COORD97":173597.26000000001,"N_COORD97":2539138.8100000001,"ADDRESS":"民安路二段１１１號","OBJECTID":471562},"geometry":{"x":173597.26000000071,"y":2539138.8100000024}},{"attributes":{"ID":471588,"DIS_CODE":0,"TOWNNAME":"仁德區","LI":"新田里","LIN":"18鄰","STREET":"民安路","SECT":"二段","MAREA":" ","LANE":" ","ALLEY":" ","HOUSE_NO":"１０３號","E_COORD97":173585.89000000001,"N_COORD97":2539150.3100000001,"ADDRESS":"民安路二段１０３號","OBJECTID":471563},"geometry":{"x":173585.8900000006,"y":2539150.3100000005}},{"attributes":{"ID":471589,"DIS_CODE":0,"TOWNNAME":"仁德區","LI":"新田里","LIN":"18鄰","STREET":"民安路","SECT":"二段","MAREA":" ","LANE":" ","ALLEY":" ","HOUSE_NO":"１７１號","E_COORD97":173701.64999999999,"N_COORD97":2539052.8199999998,"ADDRESS":"民安路二段１７１號","OBJECTID":471564},"geometry":{"x":173701.65000000224,"y":2539052.8200000022}},{"attributes":{"ID":471590,"DIS_CODE":0,"TOWNNAME":"仁德區","LI":"成功里","LIN":"18鄰","STREET":"全福路","SECT":" ","MAREA":" ","LANE":" ","ALLEY":" ","HOUSE_NO":"１０１號","E_COORD97":171096.42000000001,"N_COORD97":2539310.9900000002,"ADDRESS":"全福路１０１號","OBJECTID":471565},"geometry":{"x":171096.42000000086,"y":2539310.9900000002}},{"attributes":{"ID":471591,"DIS_CODE":0,"TOWNNAME":"官田區","LI":"隆本里","LIN":"18鄰","STREET":"興隆街","SECT":" ","MAREA":" ","LANE":" ","ALLEY":" ","HOUSE_NO":"２５號","E_COORD97":179989.25,"N_COORD97":2566384.9500000002,"ADDRESS":"興隆街２５號","OBJECTID":471566},"geometry":{"x":179989.25,"y":2566384.9500000011}},{"attributes":{"ID":471592,"DIS_CODE":0,"TOWNNAME":"官田區","LI":"隆本里","LIN":"18鄰","STREET":"興隆街","SECT":" ","MAREA":" ","LANE":" ","ALLEY":" ","HOUSE_NO":"２９號","E_COORD97":179978.81,"N_COORD97":2566377.1299999999,"ADDRESS":"興隆街２９號","OBJECTID":471567},"geometry":{"x":179978.81000000145,"y":2566377.129999999}},{"attributes":{"ID":471593,"DIS_CODE":0,"TOWNNAME":"官田區","LI":"隆本里","LIN":"18鄰","STREET":"興隆街","SECT":" ","MAREA":" ","LANE":" ","ALLEY":" ","HOUSE_NO":"３３號","E_COORD97":179967.98999999999,"N_COORD97":2566375.3199999998,"ADDRESS":"興隆街３３號","OBJECTID":471568},"geometry":{"x":179967.99000000209,"y":2566375.320000004}},{"attributes":{"ID":471594,"DIS_CODE":0,"TOWNNAME":"永康區","LI":"北灣里","LIN":"18鄰","STREET":"文賢街","SECT":" ","MAREA":" ","LANE":" ","ALLEY":" ","HOUSE_NO":"４１２號","E_COORD97":174738.32999999999,"N_COORD97":2545813.7000000002,"ADDRESS":"文賢街４１２號","OBJECTID":471569},"geometry":{"x":174738.33000000101,"y":2545813.7000000011}},{"attributes":{"ID":471595,"DIS_CODE":0,"TOWNNAME":"永康區","LI":"北灣里","LIN":"18鄰","STREET":"文賢街","SECT":" ","MAREA":" ","LANE":" ","ALLEY":" ","HOUSE_NO":"４６８號","E_COORD97":174610.22,"N_COORD97":2545846.27,"ADDRESS":"文賢街４６８號","OBJECTID":471570},"geometry":{"x":174610.21999999974,"y":2545846.2700000014}},{"attributes":{"ID":471596,"DIS_CODE":0,"TOWNNAME":"永康區","LI":"北灣里","LIN":"18鄰","STREET":"文賢街","SECT":" ","MAREA":" ","LANE":" ","ALLEY":" ","HOUSE_NO":"４６６號","E_COORD97":174614.22,"N_COORD97":2545847.52,"ADDRESS":"文賢街４６６號","OBJECTID":471571},"geometry":{"x":174614.2200000016,"y":2545847.5199999977}},{"attributes":{"ID":471597,"DIS_CODE":0,"TOWNNAME":"永康區","LI":"北灣里","LIN":"18鄰","STREET":"文賢街","SECT":" ","MAREA":" ","LANE":" ","ALLEY":" ","HOUSE_NO":"４５８號","E_COORD97":174629.95999999999,"N_COORD97":2545838.4199999999,"ADDRESS":"文賢街４５８號","OBJECTID":471572},"geometry":{"x":174629.96000000183,"y":2545838.4199999981}},{"attributes":{"ID":471598,"DIS_CODE":0,"TOWNNAME":"永康區","LI":"北灣里","LIN":"18鄰","STREET":"文賢街","SECT":" ","MAREA":" ","LANE":" ","ALLEY":" ","HOUSE_NO":"４３２號","E_COORD97":174680.73000000001,"N_COORD97":2545825.3300000001,"ADDRESS":"文賢街４３２號","OBJECTID":471573},"geometry":{"x":174680.73000000045,"y":2545825.3300000001}},{"attributes":{"ID":471599,"DIS_CODE":0,"TOWNNAME":"永康區","LI":"西灣里","LIN":"18鄰","STREET":"大安街","SECT":" ","MAREA":" ","LANE":" ","ALLEY":" ","HOUSE_NO":"２７１號","E_COORD97":174687.26999999999,"N_COORD97":2545483.3599999999,"ADDRESS":"大安街２７１號","OBJECTID":471574},"geometry":{"x":174687.27000000048,"y":2545483.3600000013}},{"attributes":{"ID":471600,"DIS_CODE":0,"TOWNNAME":"新市區","LI":"新和里","LIN":"18鄰","STREET":"銘傳街","SECT":" ","MAREA":" ","LANE":" ","ALLEY":" ","HOUSE_NO":"３６號","E_COORD97":177477.95000000001,"N_COORD97":2552669,"ADDRESS":"銘傳街３６號","OBJECTID":471575},"geometry":{"x":177477.94999999925,"y":2552669}},{"attributes":{"ID":471601,"DIS_CODE":0,"TOWNNAME":"新市區","LI":"社內里","LIN":"18鄰","STREET":"大業一路","SECT":" ","MAREA":" ","LANE":" ","ALLEY":" ","HOUSE_NO":"９號","E_COORD97":177219.64999999999,"N_COORD97":2554476.8500000001,"ADDRESS":"大業一路９號","OBJECTID":471576},"geometry":{"x":177219.6500000013,"y":2554476.8499999996}},{"attributes":{"ID":471602,"DIS_CODE":0,"TOWNNAME":"東區","LI":"崇善里","LIN":"18鄰","STREET":"崇善十一街","SECT":" ","MAREA":" ","LANE":" ","ALLEY":" ","HOUSE_NO":"５２之２號","E_COORD97":171269.07000000001,"N_COORD97":2541235.5299999998,"ADDRESS":"崇善十一街５２之２號","OBJECTID":471577},"geometry":{"x":171269.0700000003,"y":2541235.5299999993}},{"attributes":{"ID":471603,"DIS_CODE":0,"TOWNNAME":"東區","LI":"崇善里","LIN":"18鄰","STREET":"崇善十一街","SECT":" ","MAREA":" ","LANE":" ","ALLEY":" ","HOUSE_NO":"５２之３號","E_COORD97":171273.97,"N_COORD97":2541238.3199999998,"ADDRESS":"崇善十一街５２之３號","OBJECTID":471578},"geometry":{"x":171273.96999999974,"y":2541238.3200000003}},{"attributes":{"ID":471604,"DIS_CODE":0,"TOWNNAME":"東區","LI":"崇善里","LIN":"18鄰","STREET":"崇善十一街","SECT":" ","MAREA":" ","LANE":" ","ALLEY":" ","HOUSE_NO":"５２之５號","E_COORD97":171279.56,"N_COORD97":2541240.9399999999,"ADDRESS":"崇善十一街５２之５號","OBJECTID":471579},"geometry":{"x":171279.56000000052,"y":2541240.9400000013}},{"attributes":{"ID":471605,"DIS_CODE":0,"TOWNNAME":"東區","LI":"崇善里","LIN":"18鄰","STREET":"崇善十一街","SECT":" ","MAREA":" ","LANE":" ","ALLEY":" ","HOUSE_NO":"５２之６號","E_COORD97":171282.70999999999,"N_COORD97":2541244.0800000001,"ADDRESS":"崇善十一街５２之６號","OBJECTID":471580},"geometry":{"x":171282.70999999996,"y":2541244.0800000019}},{"attributes":{"ID":471606,"DIS_CODE":0,"TOWNNAME":"東區","LI":"崇善里","LIN":"18鄰","STREET":"崇善十一街","SECT":" ","MAREA":" ","LANE":" ","ALLEY":" ","HOUSE_NO":"５２之７號","E_COORD97":171288.13,"N_COORD97":2541245.1299999999,"ADDRESS":"崇善十一街５２之７號","OBJECTID":471581},"geometry":{"x":171288.13000000082,"y":2541245.129999999}},{"attributes":{"ID":471607,"DIS_CODE":0,"TOWNNAME":"麻豆區","LI":"大埕里","LIN":"18鄰","STREET":"平等路","SECT":" ","MAREA":" ","LANE":" ","ALLEY":" ","HOUSE_NO":"３號","E_COORD97":173019.42000000001,"N_COORD97":2564935.8799999999,"ADDRESS":"平等路３號","OBJECTID":471582},"geometry":{"x":173019.41999999993,"y":2564935.8800000027}},{"attributes":{"ID":471608,"DIS_CODE":0,"TOWNNAME":"永康區","LI":"大橋里","LIN":"18鄰","STREET":"大橋二街","SECT":" ","MAREA":" ","LANE":" ","ALLEY":" ","HOUSE_NO":"１３６號","E_COORD97":171001.19,"N_COORD97":2546695.7000000002,"ADDRESS":"大橋二街１３６號","OBJECTID":471583},"geometry":{"x":171001.19000000134,"y":2546695.6999999993}},{"attributes":{"ID":471609,"DIS_CODE":0,"TOWNNAME":"永康區","LI":"大橋里","LIN":"18鄰","STREET":"大橋二街","SECT":" ","MAREA":" ","LANE":" ","ALLEY":" ","HOUSE_NO":"１３８號","E_COORD97":171003.20999999999,"N_COORD97":2546703.48,"ADDRESS":"大橋二街１３８號","OBJECTID":471584},"geometry":{"x":171003.20999999996,"y":2546703.4800000042}},{"attributes":{"ID":471610,"DIS_CODE":0,"TOWNNAME":"佳里區","LI":"建南里","LIN":"18鄰","STREET":"中山路","SECT":" ","MAREA":" ","LANE":" ","ALLEY":" ","HOUSE_NO":"１２７號","E_COORD97":165745.64999999999,"N_COORD97":2561920.4500000002,"ADDRESS":"中山路１２７號","OBJECTID":471585},"geometry":{"x":165745.65000000037,"y":2561920.4499999993}},{"attributes":{"ID":471611,"DIS_CODE":0,"TOWNNAME":"佳里區","LI":"建南里","LIN":"18鄰","STREET":"中山路","SECT":" ","MAREA":" ","LANE":" ","ALLEY":" ","HOUSE_NO":"１２９號","E_COORD97":165744.48000000001,"N_COORD97":2561924.3799999999,"ADDRESS":"中山路１２９號","OBJECTID":471586},"geometry":{"x":165744.48000000138,"y":2561924.379999999}},{"attributes":{"ID":471612,"DIS_CODE":0,"TOWNNAME":"佳里區","LI":"建南里","LIN":"18鄰","STREET":"中山路","SECT":" ","MAREA":" ","LANE":" ","ALLEY":" ","HOUSE_NO":"１３１號","E_COORD97":165743.34,"N_COORD97":2561928.6200000001,"ADDRESS":"中山路１３１號","OBJECTID":471587},"geometry":{"x":165743.34000000078,"y":2561928.620000001}},{"attributes":{"ID":471613,"DIS_CODE":0,"TOWNNAME":"佳里區","LI":"建南里","LIN":"18鄰","STREET":"中山路","SECT":" ","MAREA":" ","LANE":" ","ALLEY":" ","HOUSE_NO":"１３３號","E_COORD97":165742.38,"N_COORD97":2561932.96,"ADDRESS":"中山路１３３號","OBJECTID":471588},"geometry":{"x":165742.38000000175,"y":2561932.9600000009}},{"attributes":{"ID":471614,"DIS_CODE":0,"TOWNNAME":"佳里區","LI":"建南里","LIN":"18鄰","STREET":"中山路","SECT":" ","MAREA":" ","LANE":" ","ALLEY":" ","HOUSE_NO":"１３７號","E_COORD97":165740.76999999999,"N_COORD97":2561941.5899999999,"ADDRESS":"中山路１３７號","OBJECTID":471589},"geometry":{"x":165740.76999999955,"y":2561941.5900000036}},{"attributes":{"ID":471615,"DIS_CODE":0,"TOWNNAME":"佳里區","LI":"建南里","LIN":"18鄰","STREET":"中山路","SECT":" ","MAREA":" ","LANE":" ","ALLEY":" ","HOUSE_NO":"１３９號","E_COORD97":165739.78,"N_COORD97":2561946.48,"ADDRESS":"中山路１３９號","OBJECTID":471590},"geometry":{"x":165739.78000000026,"y":2561946.4800000042}},{"attributes":{"ID":471616,"DIS_CODE":0,"TOWNNAME":"佳里區","LI":"建南里","LIN":"18鄰","STREET":"中山路","SECT":" ","MAREA":" ","LANE":" ","ALLEY":" ","HOUSE_NO":"１４１號","E_COORD97":165740.23000000001,"N_COORD97":2561951.8799999999,"ADDRESS":"中山路１４１號","OBJECTID":471591},"geometry":{"x":165740.23000000045,"y":2561951.879999999}},{"attributes":{"ID":471617,"DIS_CODE":0,"TOWNNAME":"佳里區","LI":"建南里","LIN":"18鄰","STREET":"中山路","SECT":" ","MAREA":" ","LANE":" ","ALLEY":" ","HOUSE_NO":"１４３號","E_COORD97":165739.85000000001,"N_COORD97":2561956.4300000002,"ADDRESS":"中山路１４３號","OBJECTID":471592},"geometry":{"x":165739.84999999963,"y":2561956.4300000016}},{"attributes":{"ID":471618,"DIS_CODE":0,"TOWNNAME":"佳里區","LI":"建南里","LIN":"18鄰","STREET":"中山路","SECT":" ","MAREA":" ","LANE":" ","ALLEY":" ","HOUSE_NO":"１４５號","E_COORD97":165739.59,"N_COORD97":2561960.8199999998,"ADDRESS":"中山路１４５號","OBJECTID":471593},"geometry":{"x":165739.59000000078,"y":2561960.820000004}},{"attributes":{"ID":471619,"DIS_CODE":0,"TOWNNAME":"佳里區","LI":"建南里","LIN":"18鄰","STREET":"中山路","SECT":" ","MAREA":" ","LANE":" ","ALLEY":" ","HOUSE_NO":"１４７號","E_COORD97":165739.01000000001,"N_COORD97":2561967.5600000001,"ADDRESS":"中山路１４７號","OBJECTID":471594},"geometry":{"x":165739.00999999978,"y":2561967.5600000024}},{"attributes":{"ID":471620,"DIS_CODE":0,"TOWNNAME":"佳里區","LI":"建南里","LIN":"18鄰","STREET":"中山路","SECT":" ","MAREA":" ","LANE":" ","ALLEY":" ","HOUSE_NO":"７９號","E_COORD97":165775.89999999999,"N_COORD97":2561798.1699999999,"ADDRESS":"中山路７９號","OBJECTID":471595},"geometry":{"x":165775.90000000037,"y":2561798.1699999999}},{"attributes":{"ID":471621,"DIS_CODE":0,"TOWNNAME":"佳里區","LI":"建南里","LIN":"18鄰","STREET":"中山路","SECT":" ","MAREA":" ","LANE":" ","ALLEY":" ","HOUSE_NO":"８１號","E_COORD97":165770.10999999999,"N_COORD97":2561806.4300000002,"ADDRESS":"中山路８１號","OBJECTID":471596},"geometry":{"x":165770.1100000022,"y":2561806.4299999997}},{"attributes":{"ID":471622,"DIS_CODE":0,"TOWNNAME":"佳里區","LI":"建南里","LIN":"18鄰","STREET":"中山路","SECT":" ","MAREA":" ","LANE":" ","ALLEY":" ","HOUSE_NO":"８３號","E_COORD97":165768.97,"N_COORD97":2561810.6600000001,"ADDRESS":"中山路８３號","OBJECTID":471597},"geometry":{"x":165768.97000000067,"y":2561810.660000002}},{"attributes":{"ID":471623,"DIS_CODE":0,"TOWNNAME":"佳里區","LI":"建南里","LIN":"18鄰","STREET":"中山路","SECT":" ","MAREA":" ","LANE":" ","ALLEY":" ","HOUSE_NO":"８９號","E_COORD97":165765.78,"N_COORD97":2561825.7200000002,"ADDRESS":"中山路８９號","OBJECTID":471598},"geometry":{"x":165765.78000000119,"y":2561825.7200000007}},{"attributes":{"ID":471624,"DIS_CODE":0,"TOWNNAME":"佳里區","LI":"建南里","LIN":"18鄰","STREET":"中山路","SECT":" ","MAREA":" ","LANE":" ","ALLEY":" ","HOUSE_NO":"９３號","E_COORD97":165765.76999999999,"N_COORD97":2561832.6499999999,"ADDRESS":"中山路９３號","OBJECTID":471599},"geometry":{"x":165765.76999999955,"y":2561832.6500000004}},{"attributes":{"ID":471625,"DIS_CODE":0,"TOWNNAME":"佳里區","LI":"建南里","LIN":"18鄰","STREET":"中山路","SECT":" ","MAREA":" ","LANE":" ","ALLEY":" ","HOUSE_NO":"９５號","E_COORD97":165764.81,"N_COORD97":2561837.0600000001,"ADDRESS":"中山路９５號","OBJECTID":471600},"geometry":{"x":165764.81000000052,"y":2561837.0600000005}}]}