{"displayFieldName":"TOWNNAME","fieldAliases":{"ID":"ID","DIS_CODE":"DIS_CODE","TOWNNAME":"TOWNNAME","LI":"LI","LIN":"LIN","STREET":"STREET","SECT":"SECT","MAREA":"MAREA","LANE":"LANE","ALLEY":"ALLEY","HOUSE_NO":"HOUSE_NO","E_COORD97":"E_COORD97","N_COORD97":"N_COORD97","ADDRESS":"ADDRESS","OBJECTID":"OBJECTID"},"geometryType":"esriGeometryPoint","spatialReference":{"wkid":102443,"latestWkid":3826},"fields":[{"name":"ID","type":"esriFieldTypeDouble","alias":"ID"},{"name":"DIS_CODE","type":"esriFieldTypeInteger","alias":"DIS_CODE"},{"name":"TOWNNAME","type":"esriFieldTypeString","alias":"TOWNNAME","length":8},{"name":"LI","type":"esriFieldTypeString","alias":"LI","length":8},{"name":"LIN","type":"esriFieldTypeString","alias":"LIN","length":12},{"name":"STREET","type":"esriFieldTypeString","alias":"STREET","length":20},{"name":"SECT","type":"esriFieldTypeString","alias":"SECT","length":8},{"name":"MAREA","type":"esriFieldTypeString","alias":"MAREA","length":12},{"name":"LANE","type":"esriFieldTypeString","alias":"LANE","length":10},{"name":"ALLEY","type":"esriFieldTypeString","alias":"ALLEY","length":10},{"name":"HOUSE_NO","type":"esriFieldTypeString","alias":"HOUSE_NO","length":20},{"name":"E_COORD97","type":"esriFieldTypeDouble","alias":"E_COORD97"},{"name":"N_COORD97","type":"esriFieldTypeDouble","alias":"N_COORD97"},{"name":"ADDRESS","type":"esriFieldTypeString","alias":"ADDRESS","length":50},{"name":"OBJECTID","type":"esriFieldTypeOID","alias":"OBJECTID"}],"features":[{"attributes":{"ID":229605,"DIS_CODE":0,"TOWNNAME":"中西區","LI":"三民里","LIN":"23鄰","STREET":"忠義路","SECT":"二段","MAREA":" ","LANE":"１５８巷","ALLEY":" ","HOUSE_NO":"９號","E_COORD97":168448.51999999999,"N_COORD97":2544039.9300000002,"ADDRESS":"忠義路二段１５８巷９號","OBJECTID":229601},"geometry":{"x":168448.52000000048,"y":2544039.9299999997}},{"attributes":{"ID":229606,"DIS_CODE":0,"TOWNNAME":"中西區","LI":"赤嵌里","LIN":"23鄰","STREET":"忠義路","SECT":"二段","MAREA":" ","LANE":"２３３巷","ALLEY":" ","HOUSE_NO":"２號","E_COORD97":168407.88,"N_COORD97":2544304.1800000002,"ADDRESS":"忠義路二段２３３巷２號","OBJECTID":229602},"geometry":{"x":168407.88000000082,"y":2544304.1800000034}},{"attributes":{"ID":229607,"DIS_CODE":0,"TOWNNAME":"中西區","LI":"赤嵌里","LIN":"23鄰","STREET":"忠義路","SECT":"二段","MAREA":" ","LANE":"２３３巷","ALLEY":" ","HOUSE_NO":"４號","E_COORD97":168402.87,"N_COORD97":2544305.3599999999,"ADDRESS":"忠義路二段２３３巷４號","OBJECTID":229603},"geometry":{"x":168402.87000000104,"y":2544305.3599999994}},{"attributes":{"ID":229608,"DIS_CODE":0,"TOWNNAME":"永康區","LI":"五王里","LIN":"3鄰","STREET":"成功路","SECT":" ","MAREA":" ","LANE":"１７２巷","ALLEY":" ","HOUSE_NO":"２０號","E_COORD97":171515.89999999999,"N_COORD97":2545660.0800000001,"ADDRESS":"成功路１７２巷２０號","OBJECTID":229604},"geometry":{"x":171515.90000000037,"y":2545660.0800000001}},{"attributes":{"ID":229609,"DIS_CODE":0,"TOWNNAME":"永康區","LI":"大橋里","LIN":"3鄰","STREET":"大橋三街","SECT":" ","MAREA":" ","LANE":"１２４巷","ALLEY":" ","HOUSE_NO":"９號","E_COORD97":170807.03,"N_COORD97":2546681.4900000002,"ADDRESS":"大橋三街１２４巷９號","OBJECTID":229605},"geometry":{"x":170807.03000000212,"y":2546681.4900000002}},{"attributes":{"ID":229610,"DIS_CODE":0,"TOWNNAME":"永康區","LI":"大灣里","LIN":"3鄰","STREET":"大同街","SECT":" ","MAREA":" ","LANE":"２１８巷","ALLEY":" ","HOUSE_NO":"１０號","E_COORD97":174860.53,"N_COORD97":2545653.7400000002,"ADDRESS":"大同街２１８巷１０號","OBJECTID":229606},"geometry":{"x":174860.53000000119,"y":2545653.7400000039}},{"attributes":{"ID":229611,"DIS_CODE":0,"TOWNNAME":"永康區","LI":"五王里","LIN":"3鄰","STREET":"中華二路","SECT":" ","MAREA":" ","LANE":"２０６巷","ALLEY":" ","HOUSE_NO":"４５號","E_COORD97":171592.75,"N_COORD97":2545589.7200000002,"ADDRESS":"中華二路２０６巷４５號","OBJECTID":229607},"geometry":{"x":171592.75,"y":2545589.7200000044}},{"attributes":{"ID":229612,"DIS_CODE":0,"TOWNNAME":"永康區","LI":"五王里","LIN":"3鄰","STREET":"中華二路","SECT":" ","MAREA":" ","LANE":"２０６巷","ALLEY":" ","HOUSE_NO":"３９號","E_COORD97":171596.69,"N_COORD97":2545575.46,"ADDRESS":"中華二路２０６巷３９號","OBJECTID":229608},"geometry":{"x":171596.69000000134,"y":2545575.4600000028}},{"attributes":{"ID":229613,"DIS_CODE":0,"TOWNNAME":"永康區","LI":"龍潭里","LIN":"34鄰","STREET":"龍埔街","SECT":" ","MAREA":" ","LANE":" ","ALLEY":" ","HOUSE_NO":"１７９號","E_COORD97":174454.81,"N_COORD97":2548250.3500000001,"ADDRESS":"龍埔街１７９號","OBJECTID":229609},"geometry":{"x":174454.81000000052,"y":2548250.3500000015}},{"attributes":{"ID":229614,"DIS_CODE":0,"TOWNNAME":"永康區","LI":"龍潭里","LIN":"34鄰","STREET":"龍埔街","SECT":" ","MAREA":" ","LANE":" ","ALLEY":" ","HOUSE_NO":"１６９號","E_COORD97":174477.29000000001,"N_COORD97":2548247.98,"ADDRESS":"龍埔街１６９號","OBJECTID":229610},"geometry":{"x":174477.29000000097,"y":2548247.9800000004}},{"attributes":{"ID":229615,"DIS_CODE":0,"TOWNNAME":"永康區","LI":"龍潭里","LIN":"34鄰","STREET":"龍埔街","SECT":" ","MAREA":" ","LANE":" ","ALLEY":" ","HOUSE_NO":"１７３號","E_COORD97":174469.70000000001,"N_COORD97":2548248.98,"ADDRESS":"龍埔街１７３號","OBJECTID":229611},"geometry":{"x":174469.70000000112,"y":2548248.9800000004}},{"attributes":{"ID":229616,"DIS_CODE":0,"TOWNNAME":"仁德區","LI":"仁義里","LIN":"34鄰","STREET":"正義三街","SECT":" ","MAREA":" ","LANE":" ","ALLEY":" ","HOUSE_NO":"４０號","E_COORD97":173497.75,"N_COORD97":2541595.0099999998,"ADDRESS":"正義三街４０號","OBJECTID":229612},"geometry":{"x":173497.75000000093,"y":2541595.0099999998}},{"attributes":{"ID":229617,"DIS_CODE":0,"TOWNNAME":"永康區","LI":"網寮里","LIN":"23鄰","STREET":"永春街","SECT":" ","MAREA":" ","LANE":"２０巷","ALLEY":" ","HOUSE_NO":"４０號","E_COORD97":173865.12,"N_COORD97":2546310.3900000001,"ADDRESS":"永春街２０巷４０號","OBJECTID":229613},"geometry":{"x":173865.12000000104,"y":2546310.3900000006}},{"attributes":{"ID":229618,"DIS_CODE":0,"TOWNNAME":"永康區","LI":"復國里","LIN":"15鄰","STREET":"復國二路","SECT":" ","MAREA":" ","LANE":"１６９巷","ALLEY":" ","HOUSE_NO":"８號","E_COORD97":172905.60999999999,"N_COORD97":2545775.77,"ADDRESS":"復國二路１６９巷８號","OBJECTID":229614},"geometry":{"x":172905.61000000127,"y":2545775.7700000014}},{"attributes":{"ID":229619,"DIS_CODE":0,"TOWNNAME":"永康區","LI":"網寮里","LIN":"6鄰","STREET":"永二街","SECT":" ","MAREA":" ","LANE":"１９６巷","ALLEY":" ","HOUSE_NO":"４號","E_COORD97":173366.23000000001,"N_COORD97":2546267.2400000002,"ADDRESS":"永二街１９６巷４號","OBJECTID":229615},"geometry":{"x":173366.23000000138,"y":2546267.2400000039}},{"attributes":{"ID":229620,"DIS_CODE":0,"TOWNNAME":"永康區","LI":"復華里","LIN":"33鄰","STREET":"復華十街","SECT":" ","MAREA":" ","LANE":"２４巷","ALLEY":" ","HOUSE_NO":"１１號","E_COORD97":172538.5,"N_COORD97":2546136.8500000001,"ADDRESS":"復華十街２４巷１１號","OBJECTID":229616},"geometry":{"x":172538.50000000093,"y":2546136.8499999978}},{"attributes":{"ID":229621,"DIS_CODE":0,"TOWNNAME":"永康區","LI":"三民里","LIN":"3鄰","STREET":"三民街","SECT":" ","MAREA":" ","LANE":"４１巷","ALLEY":" ","HOUSE_NO":"７號","E_COORD97":173012.42999999999,"N_COORD97":2550175.79,"ADDRESS":"三民街４１巷７號","OBJECTID":229617},"geometry":{"x":173012.42999999877,"y":2550175.790000001}},{"attributes":{"ID":229622,"DIS_CODE":0,"TOWNNAME":"永康區","LI":"大橋里","LIN":"3鄰","STREET":"大橋一街","SECT":" ","MAREA":" ","LANE":"１０３巷","ALLEY":" ","HOUSE_NO":"１３９號","E_COORD97":170834.16,"N_COORD97":2546681.7400000002,"ADDRESS":"大橋一街１０３巷１３９號","OBJECTID":229618},"geometry":{"x":170834.16000000015,"y":2546681.7400000021}},{"attributes":{"ID":229623,"DIS_CODE":0,"TOWNNAME":"永康區","LI":"二王里","LIN":"3鄰","STREET":"二王路","SECT":" ","MAREA":" ","LANE":"１３５巷","ALLEY":" ","HOUSE_NO":"１２號","E_COORD97":173054.29000000001,"N_COORD97":2546577.2400000002,"ADDRESS":"二王路１３５巷１２號","OBJECTID":229619},"geometry":{"x":173054.29000000004,"y":2546577.2400000021}},{"attributes":{"ID":229624,"DIS_CODE":0,"TOWNNAME":"永康區","LI":"三合里","LIN":"3鄰","STREET":"中華二路","SECT":" ","MAREA":" ","LANE":"８８巷","ALLEY":" ","HOUSE_NO":"３８號","E_COORD97":172083.91,"N_COORD97":2545541.2400000002,"ADDRESS":"中華二路８８巷３８號","OBJECTID":229620},"geometry":{"x":172083.91000000015,"y":2545541.2400000002}},{"attributes":{"ID":229625,"DIS_CODE":0,"TOWNNAME":"永康區","LI":"正強里","LIN":"3鄰","STREET":"中正路","SECT":" ","MAREA":" ","LANE":"１巷","ALLEY":" ","HOUSE_NO":"２２號","E_COORD97":173655.97,"N_COORD97":2547630.1800000002,"ADDRESS":"中正路１巷２２號","OBJECTID":229621},"geometry":{"x":173655.96999999974,"y":2547630.1800000034}},{"attributes":{"ID":229626,"DIS_CODE":0,"TOWNNAME":"永康區","LI":"烏竹里","LIN":"3鄰","STREET":"竹園二街","SECT":" ","MAREA":" ","LANE":"２０６巷","ALLEY":" ","HOUSE_NO":"３２號","E_COORD97":174716.42000000001,"N_COORD97":2549364.9900000002,"ADDRESS":"竹園二街２０６巷３２號","OBJECTID":229622},"geometry":{"x":174716.41999999899,"y":2549364.9900000021}},{"attributes":{"ID":229627,"DIS_CODE":0,"TOWNNAME":"安南區","LI":"國安里","LIN":"3鄰","STREET":"國安街","SECT":" ","MAREA":" ","LANE":"１５６巷","ALLEY":" ","HOUSE_NO":"１０３號","E_COORD97":166666.60000000001,"N_COORD97":2547249.6299999999,"ADDRESS":"國安街１５６巷１０３號","OBJECTID":229623},"geometry":{"x":166666.60000000056,"y":2547249.629999999}},{"attributes":{"ID":229628,"DIS_CODE":0,"TOWNNAME":"安南區","LI":"國安里","LIN":"3鄰","STREET":"國安街","SECT":" ","MAREA":" ","LANE":"１５６巷","ALLEY":" ","HOUSE_NO":"１１３號","E_COORD97":166663.95999999999,"N_COORD97":2547270.1000000001,"ADDRESS":"國安街１５６巷１１３號","OBJECTID":229624},"geometry":{"x":166663.95999999996,"y":2547270.0999999996}},{"attributes":{"ID":229629,"DIS_CODE":0,"TOWNNAME":"安南區","LI":"國安里","LIN":"3鄰","STREET":"國安街","SECT":" ","MAREA":" ","LANE":"１５６巷","ALLEY":" ","HOUSE_NO":"１１５號","E_COORD97":166663.45999999999,"N_COORD97":2547273.7599999998,"ADDRESS":"國安街１５６巷１１５號","OBJECTID":229625},"geometry":{"x":166663.45999999996,"y":2547273.7600000035}},{"attributes":{"ID":229630,"DIS_CODE":0,"TOWNNAME":"安南區","LI":"淵中里","LIN":"3鄰","STREET":"安中路","SECT":"三段","MAREA":" ","LANE":"４３９巷","ALLEY":" ","HOUSE_NO":"５６號","E_COORD97":165246.92999999999,"N_COORD97":2550043.9500000002,"ADDRESS":"安中路三段４３９巷５６號","OBJECTID":229626},"geometry":{"x":165246.93000000156,"y":2550043.9499999993}},{"attributes":{"ID":229631,"DIS_CODE":0,"TOWNNAME":"安南區","LI":"溪頂里","LIN":"14鄰","STREET":"惠安街","SECT":" ","MAREA":" ","LANE":"１６１巷","ALLEY":" ","HOUSE_NO":"４２號","E_COORD97":168876.94,"N_COORD97":2547334.6800000002,"ADDRESS":"惠安街１６１巷４２號","OBJECTID":229627},"geometry":{"x":168876.94000000227,"y":2547334.6799999997}},{"attributes":{"ID":229632,"DIS_CODE":0,"TOWNNAME":"永康區","LI":"復國里","LIN":"8鄰","STREET":"復國二路","SECT":" ","MAREA":" ","LANE":"６３巷","ALLEY":" ","HOUSE_NO":"３號","E_COORD97":172821.76999999999,"N_COORD97":2545127.02,"ADDRESS":"復國二路６３巷３號","OBJECTID":229628},"geometry":{"x":172821.76999999955,"y":2545127.0200000014}},{"attributes":{"ID":229633,"DIS_CODE":0,"TOWNNAME":"永康區","LI":"建國里","LIN":"1鄰","STREET":"復興路","SECT":" ","MAREA":" ","LANE":"２６巷","ALLEY":" ","HOUSE_NO":"６０號","E_COORD97":173149.16,"N_COORD97":2544680.6099999999,"ADDRESS":"復興路２６巷６０號","OBJECTID":229629},"geometry":{"x":173149.16000000108,"y":2544680.6100000031}},{"attributes":{"ID":229634,"DIS_CODE":0,"TOWNNAME":"仁德區","LI":"仁義里","LIN":"34鄰","STREET":"正義二街","SECT":" ","MAREA":" ","LANE":" ","ALLEY":" ","HOUSE_NO":"５７號","E_COORD97":173540.37,"N_COORD97":2541571.77,"ADDRESS":"正義二街５７號","OBJECTID":229630},"geometry":{"x":173540.37000000011,"y":2541571.7700000014}},{"attributes":{"ID":229635,"DIS_CODE":0,"TOWNNAME":"仁德區","LI":"仁義里","LIN":"34鄰","STREET":"正義二街","SECT":" ","MAREA":" ","LANE":" ","ALLEY":" ","HOUSE_NO":"１１７號","E_COORD97":173679.28,"N_COORD97":2541584.52,"ADDRESS":"正義二街１１７號","OBJECTID":229631},"geometry":{"x":173679.28000000119,"y":2541584.5199999996}},{"attributes":{"ID":229636,"DIS_CODE":0,"TOWNNAME":"仁德區","LI":"仁義里","LIN":"34鄰","STREET":"正義二街","SECT":" ","MAREA":" ","LANE":" ","ALLEY":" ","HOUSE_NO":"１１９號","E_COORD97":173683.59,"N_COORD97":2541585.02,"ADDRESS":"正義二街１１９號","OBJECTID":229632},"geometry":{"x":173683.59000000078,"y":2541585.0199999996}},{"attributes":{"ID":229637,"DIS_CODE":0,"TOWNNAME":"仁德區","LI":"仁義里","LIN":"34鄰","STREET":"正義二街","SECT":" ","MAREA":" ","LANE":" ","ALLEY":" ","HOUSE_NO":"１２３號","E_COORD97":173692.84,"N_COORD97":2541586.02,"ADDRESS":"正義二街１２３號","OBJECTID":229633},"geometry":{"x":173692.83999999985,"y":2541586.0200000033}},{"attributes":{"ID":229638,"DIS_CODE":0,"TOWNNAME":"永康區","LI":"網寮里","LIN":"6鄰","STREET":"永二街","SECT":" ","MAREA":" ","LANE":"１９６巷","ALLEY":" ","HOUSE_NO":"１６號","E_COORD97":173341.89000000001,"N_COORD97":2546286.9900000002,"ADDRESS":"永二街１９６巷１６號","OBJECTID":229634},"geometry":{"x":173341.8900000006,"y":2546286.9900000021}},{"attributes":{"ID":229639,"DIS_CODE":0,"TOWNNAME":"永康區","LI":"復國里","LIN":"33鄰","STREET":"復華一街","SECT":" ","MAREA":" ","LANE":"６６巷","ALLEY":" ","HOUSE_NO":"６３號","E_COORD97":172533.70000000001,"N_COORD97":2545213.8399999999,"ADDRESS":"復華一街６６巷６３號","OBJECTID":229635},"geometry":{"x":172533.70000000112,"y":2545213.8399999999}},{"attributes":{"ID":229640,"DIS_CODE":0,"TOWNNAME":"永康區","LI":"新樹里","LIN":"12鄰","STREET":"富強路","SECT":"二段","MAREA":" ","LANE":"１２１巷","ALLEY":" ","HOUSE_NO":"１１１號","E_COORD97":175536.19,"N_COORD97":2546928.6400000001,"ADDRESS":"富強路二段１２１巷１１１號","OBJECTID":229636},"geometry":{"x":175536.19000000134,"y":2546928.6400000006}},{"attributes":{"ID":229641,"DIS_CODE":0,"TOWNNAME":"永康區","LI":"蔦松里","LIN":"9鄰","STREET":"正北一路","SECT":" ","MAREA":" ","LANE":"１３６巷","ALLEY":" ","HOUSE_NO":"１１號","E_COORD97":174248.78,"N_COORD97":2550009.29,"ADDRESS":"正北一路１３６巷１１號","OBJECTID":229637},"geometry":{"x":174248.78000000119,"y":2550009.290000001}},{"attributes":{"ID":229642,"DIS_CODE":0,"TOWNNAME":"永康區","LI":"復興里","LIN":"4鄰","STREET":"復興路","SECT":" ","MAREA":" ","LANE":"４２３巷","ALLEY":" ","HOUSE_NO":"４９號","E_COORD97":172207.04000000001,"N_COORD97":2544280.52,"ADDRESS":"復興路４２３巷４９號","OBJECTID":229638},"geometry":{"x":172207.0400000019,"y":2544280.5199999996}},{"attributes":{"ID":229643,"DIS_CODE":0,"TOWNNAME":"永康區","LI":"王行里","LIN":"10鄰","STREET":"王行路","SECT":" ","MAREA":" ","LANE":"１０１８巷","ALLEY":" ","HOUSE_NO":"４８號","E_COORD97":175798.38,"N_COORD97":2550213.2400000002,"ADDRESS":"王行路１０１８巷４８號","OBJECTID":229639},"geometry":{"x":175798.38000000175,"y":2550213.2400000002}},{"attributes":{"ID":229644,"DIS_CODE":0,"TOWNNAME":"安南區","LI":"淵西里","LIN":"3鄰","STREET":"安中路","SECT":"四段","MAREA":" ","LANE":"２９０巷","ALLEY":" ","HOUSE_NO":"２６５號","E_COORD97":165066.13,"N_COORD97":2550283.46,"ADDRESS":"安中路四段２９０巷２６５號","OBJECTID":229640},"geometry":{"x":165066.13000000175,"y":2550283.4600000009}},{"attributes":{"ID":229645,"DIS_CODE":0,"TOWNNAME":"安南區","LI":"淵西里","LIN":"3鄰","STREET":"安中路","SECT":"四段","MAREA":" ","LANE":"２９０巷","ALLEY":" ","HOUSE_NO":"２６７號","E_COORD97":165069.75,"N_COORD97":2550286.1299999999,"ADDRESS":"安中路四段２９０巷２６７號","OBJECTID":229641},"geometry":{"x":165069.75,"y":2550286.129999999}},{"attributes":{"ID":229646,"DIS_CODE":0,"TOWNNAME":"安南區","LI":"淵西里","LIN":"3鄰","STREET":"安中路","SECT":"四段","MAREA":" ","LANE":"２９０巷","ALLEY":" ","HOUSE_NO":"２６９號","E_COORD97":165073.67999999999,"N_COORD97":2550286.9100000001,"ADDRESS":"安中路四段２９０巷２６９號","OBJECTID":229642},"geometry":{"x":165073.6799999997,"y":2550286.9100000039}},{"attributes":{"ID":229647,"DIS_CODE":0,"TOWNNAME":"安南區","LI":"淵西里","LIN":"3鄰","STREET":"安中路","SECT":"四段","MAREA":" ","LANE":"２９０巷","ALLEY":" ","HOUSE_NO":"２７１號","E_COORD97":165078.07999999999,"N_COORD97":2550289.1099999999,"ADDRESS":"安中路四段２９０巷２７１號","OBJECTID":229643},"geometry":{"x":165078.08000000007,"y":2550289.1100000013}},{"attributes":{"ID":229648,"DIS_CODE":0,"TOWNNAME":"安南區","LI":"淵西里","LIN":"3鄰","STREET":"安中路","SECT":"四段","MAREA":" ","LANE":"２９０巷","ALLEY":" ","HOUSE_NO":"２７３號","E_COORD97":165082.48000000001,"N_COORD97":2550291.9399999999,"ADDRESS":"安中路四段２９０巷２７３號","OBJECTID":229644},"geometry":{"x":165082.48000000045,"y":2550291.9399999995}},{"attributes":{"ID":229649,"DIS_CODE":0,"TOWNNAME":"安南區","LI":"頂安里","LIN":"3鄰","STREET":"怡安路","SECT":"一段","MAREA":" ","LANE":"３８５巷","ALLEY":" ","HOUSE_NO":"４６號","E_COORD97":168671.67000000001,"N_COORD97":2549037.7000000002,"ADDRESS":"怡安路一段３８５巷４６號","OBJECTID":229645},"geometry":{"x":168671.67000000086,"y":2549037.7000000011}},{"attributes":{"ID":229650,"DIS_CODE":0,"TOWNNAME":"永康區","LI":"甲頂里","LIN":"4鄰","STREET":"中正南路","SECT":" ","MAREA":" ","LANE":"１６８巷","ALLEY":" ","HOUSE_NO":"１４號","E_COORD97":169888.45999999999,"N_COORD97":2546959.2200000002,"ADDRESS":"中正南路１６８巷１４號","OBJECTID":229646},"geometry":{"x":169888.46000000183,"y":2546959.2200000007}},{"attributes":{"ID":229651,"DIS_CODE":0,"TOWNNAME":"永康區","LI":"南灣里","LIN":"34鄰","STREET":"南灣街","SECT":" ","MAREA":" ","LANE":"９９巷","ALLEY":" ","HOUSE_NO":"２７號","E_COORD97":174272.75,"N_COORD97":2544894.7799999998,"ADDRESS":"南灣街９９巷２７號","OBJECTID":229647},"geometry":{"x":174272.75000000093,"y":2544894.7799999993}},{"attributes":{"ID":229652,"DIS_CODE":0,"TOWNNAME":"安南區","LI":"溪北里","LIN":"3鄰","STREET":"安和路","SECT":"一段","MAREA":" ","LANE":"９１巷","ALLEY":" ","HOUSE_NO":"２５號","E_COORD97":169407.19,"N_COORD97":2547547.3900000001,"ADDRESS":"安和路一段９１巷２５號","OBJECTID":229648},"geometry":{"x":169407.19000000041,"y":2547547.3900000006}},{"attributes":{"ID":229653,"DIS_CODE":0,"TOWNNAME":"永康區","LI":"東橋里","LIN":"13鄰","STREET":"中山南路","SECT":" ","MAREA":" ","LANE":"２３１巷","ALLEY":" ","HOUSE_NO":"１８號地下室之６","E_COORD97":171615.48000000001,"N_COORD97":2546285.8799999999,"ADDRESS":"中山南路２３１巷１８號地下室之６","OBJECTID":229649},"geometry":{"x":171615.48000000045,"y":2546285.8800000008}},{"attributes":{"ID":229654,"DIS_CODE":0,"TOWNNAME":"永康區","LI":"烏竹里","LIN":"3鄰","STREET":"竹園二街","SECT":" ","MAREA":" ","LANE":"２０６巷","ALLEY":" ","HOUSE_NO":"１８號","E_COORD97":174688.54000000001,"N_COORD97":2549364.3199999998,"ADDRESS":"竹園二街２０６巷１８號","OBJECTID":229650},"geometry":{"x":174688.54000000004,"y":2549364.3200000003}},{"attributes":{"ID":229655,"DIS_CODE":0,"TOWNNAME":"永康區","LI":"復國里","LIN":"3鄰","STREET":"復國一路","SECT":" ","MAREA":" ","LANE":"４４巷","ALLEY":" ","HOUSE_NO":"２２號","E_COORD97":172781.87,"N_COORD97":2544801.3700000001,"ADDRESS":"復國一路４４巷２２號","OBJECTID":229651},"geometry":{"x":172781.87000000104,"y":2544801.370000001}},{"attributes":{"ID":229656,"DIS_CODE":0,"TOWNNAME":"仁德區","LI":"仁德里","LIN":"34鄰","STREET":"中山路","SECT":" ","MAREA":" ","LANE":" ","ALLEY":" ","HOUSE_NO":"７１８號","E_COORD97":172763.20999999999,"N_COORD97":2541508.4900000002,"ADDRESS":"中山路７１８號","OBJECTID":229652},"geometry":{"x":172763.20999999996,"y":2541508.4900000002}},{"attributes":{"ID":229657,"DIS_CODE":0,"TOWNNAME":"仁德區","LI":"仁德里","LIN":"34鄰","STREET":"中山路","SECT":" ","MAREA":" ","LANE":" ","ALLEY":" ","HOUSE_NO":"７２２號","E_COORD97":172756.42999999999,"N_COORD97":2541510.7400000002,"ADDRESS":"中山路７２２號","OBJECTID":229653},"geometry":{"x":172756.4299999997,"y":2541510.7400000039}},{"attributes":{"ID":229658,"DIS_CODE":0,"TOWNNAME":"仁德區","LI":"太子里","LIN":"34鄰","STREET":"太子二街","SECT":" ","MAREA":" ","LANE":" ","ALLEY":" ","HOUSE_NO":"２４號","E_COORD97":174286.26000000001,"N_COORD97":2543405.2599999998,"ADDRESS":"太子二街２４號","OBJECTID":229654},"geometry":{"x":174286.25999999978,"y":2543405.2600000035}},{"attributes":{"ID":229659,"DIS_CODE":0,"TOWNNAME":"東區","LI":"虎尾里","LIN":"34鄰","STREET":"富農街","SECT":"一段","MAREA":" ","LANE":" ","ALLEY":" ","HOUSE_NO":"１０８號","E_COORD97":171510.45999999999,"N_COORD97":2542316.0099999998,"ADDRESS":"富農街一段１０８號","OBJECTID":229655},"geometry":{"x":171510.45999999996,"y":2542316.0100000016}},{"attributes":{"ID":229660,"DIS_CODE":0,"TOWNNAME":"東區","LI":"虎尾里","LIN":"34鄰","STREET":"富農街","SECT":"一段","MAREA":" ","LANE":" ","ALLEY":" ","HOUSE_NO":"１１４號","E_COORD97":171549.06,"N_COORD97":2542320.21,"ADDRESS":"富農街一段１１４號","OBJECTID":229656},"geometry":{"x":171549.06000000052,"y":2542320.2100000009}},{"attributes":{"ID":229661,"DIS_CODE":0,"TOWNNAME":"永康區","LI":"復華里","LIN":"12鄰","STREET":"國華街","SECT":" ","MAREA":" ","LANE":"９８巷","ALLEY":" ","HOUSE_NO":"２２號","E_COORD97":172887.42999999999,"N_COORD97":2545957.9900000002,"ADDRESS":"國華街９８巷２２號","OBJECTID":229657},"geometry":{"x":172887.43000000063,"y":2545957.9900000021}},{"attributes":{"ID":229662,"DIS_CODE":0,"TOWNNAME":"永康區","LI":"網寮里","LIN":"21鄰","STREET":"文化路","SECT":" ","MAREA":" ","LANE":"２４２巷","ALLEY":" ","HOUSE_NO":"２８之６號","E_COORD97":173612.07999999999,"N_COORD97":2546182.3300000001,"ADDRESS":"文化路２４２巷２８之６號","OBJECTID":229658},"geometry":{"x":173612.08000000194,"y":2546182.3300000019}},{"attributes":{"ID":229663,"DIS_CODE":0,"TOWNNAME":"永康區","LI":"復華里","LIN":"37鄰","STREET":"復華七街","SECT":" ","MAREA":" ","LANE":"３２巷","ALLEY":" ","HOUSE_NO":"３３號","E_COORD97":172733.54000000001,"N_COORD97":2545936.2799999998,"ADDRESS":"復華七街３２巷３３號","OBJECTID":229659},"geometry":{"x":172733.54000000004,"y":2545936.2799999993}},{"attributes":{"ID":229664,"DIS_CODE":0,"TOWNNAME":"東區","LI":"後甲里","LIN":"23鄰","STREET":"中華東路","SECT":"一段","MAREA":" ","LANE":"２１７巷","ALLEY":" ","HOUSE_NO":"３２號","E_COORD97":171482.85999999999,"N_COORD97":2543307.5099999998,"ADDRESS":"中華東路一段２１７巷３２號","OBJECTID":229660},"geometry":{"x":171482.8599999994,"y":2543307.5099999998}},{"attributes":{"ID":229665,"DIS_CODE":0,"TOWNNAME":"東區","LI":"後甲里","LIN":"23鄰","STREET":"中華東路","SECT":"一段","MAREA":" ","LANE":"２１７巷","ALLEY":" ","HOUSE_NO":"１８號","E_COORD97":171479,"N_COORD97":2543328.23,"ADDRESS":"中華東路一段２１７巷１８號","OBJECTID":229661},"geometry":{"x":171479.00000000093,"y":2543328.2300000042}},{"attributes":{"ID":229666,"DIS_CODE":0,"TOWNNAME":"永康區","LI":"崑山里","LIN":"3鄰","STREET":"大灣路","SECT":" ","MAREA":" ","LANE":"８７９巷","ALLEY":" ","HOUSE_NO":"１６號","E_COORD97":173637.87,"N_COORD97":2544364.3599999999,"ADDRESS":"大灣路８７９巷１６號","OBJECTID":229662},"geometry":{"x":173637.87000000104,"y":2544364.3600000013}},{"attributes":{"ID":229667,"DIS_CODE":0,"TOWNNAME":"永康區","LI":"烏竹里","LIN":"3鄰","STREET":"竹園二街","SECT":" ","MAREA":" ","LANE":"２０６巷","ALLEY":" ","HOUSE_NO":"４６號","E_COORD97":174715.70000000001,"N_COORD97":2549385.7400000002,"ADDRESS":"竹園二街２０６巷４６號","OBJECTID":229663},"geometry":{"x":174715.70000000112,"y":2549385.7400000002}},{"attributes":{"ID":229668,"DIS_CODE":0,"TOWNNAME":"永康區","LI":"烏竹里","LIN":"3鄰","STREET":"竹園二街","SECT":" ","MAREA":" ","LANE":"２０６巷","ALLEY":" ","HOUSE_NO":"６號","E_COORD97":174687.56,"N_COORD97":2549342.52,"ADDRESS":"竹園二街２０６巷６號","OBJECTID":229664},"geometry":{"x":174687.55999999959,"y":2549342.5199999996}},{"attributes":{"ID":229669,"DIS_CODE":0,"TOWNNAME":"永康區","LI":"西灣里","LIN":"10鄰","STREET":"大灣五街","SECT":" ","MAREA":" ","LANE":"９３巷","ALLEY":" ","HOUSE_NO":"５２號","E_COORD97":174541.72,"N_COORD97":2545229.1699999999,"ADDRESS":"大灣五街９３巷５２號","OBJECTID":229665},"geometry":{"x":174541.72000000067,"y":2545229.1699999999}},{"attributes":{"ID":229670,"DIS_CODE":0,"TOWNNAME":"永康區","LI":"永康里","LIN":"33鄰","STREET":"永大路","SECT":"二段","MAREA":" ","LANE":"１３１０巷","ALLEY":" ","HOUSE_NO":"４１號","E_COORD97":174325.70999999999,"N_COORD97":2547006.2999999998,"ADDRESS":"永大路二段１３１０巷４１號","OBJECTID":229666},"geometry":{"x":174325.70999999996,"y":2547006.2999999989}},{"attributes":{"ID":229671,"DIS_CODE":0,"TOWNNAME":"永康區","LI":"正強里","LIN":"9鄰","STREET":"自強路","SECT":" ","MAREA":" ","LANE":"３３０巷","ALLEY":" ","HOUSE_NO":"１０號","E_COORD97":173420.28,"N_COORD97":2547646.5499999998,"ADDRESS":"自強路３３０巷１０號","OBJECTID":229667},"geometry":{"x":173420.28000000026,"y":2547646.5500000026}},{"attributes":{"ID":229672,"DIS_CODE":0,"TOWNNAME":"永康區","LI":"尚頂里","LIN":"11鄰","STREET":"正南一街","SECT":" ","MAREA":" ","LANE":"５７巷","ALLEY":" ","HOUSE_NO":"２５號","E_COORD97":171243.32999999999,"N_COORD97":2547285.0699999998,"ADDRESS":"正南一街５７巷２５號","OBJECTID":229668},"geometry":{"x":171243.33000000007,"y":2547285.0700000003}},{"attributes":{"ID":229673,"DIS_CODE":0,"TOWNNAME":"永康區","LI":"尚頂里","LIN":"26鄰","STREET":"南台街","SECT":" ","MAREA":" ","LANE":"５４巷","ALLEY":" ","HOUSE_NO":"８號","E_COORD97":170361.54000000001,"N_COORD97":2547014.4900000002,"ADDRESS":"南台街５４巷８號","OBJECTID":229669},"geometry":{"x":170361.54000000097,"y":2547014.4900000002}},{"attributes":{"ID":229674,"DIS_CODE":0,"TOWNNAME":"永康區","LI":"西勢里","LIN":"24鄰","STREET":"廣興街","SECT":" ","MAREA":" ","LANE":"３８巷","ALLEY":" ","HOUSE_NO":"３３號","E_COORD97":176032.34,"N_COORD97":2546463.8999999999,"ADDRESS":"廣興街３８巷３３號","OBJECTID":229670},"geometry":{"x":176032.33999999892,"y":2546463.9000000022}},{"attributes":{"ID":229675,"DIS_CODE":0,"TOWNNAME":"永康區","LI":"東橋里","LIN":"2鄰","STREET":"大橋一街","SECT":" ","MAREA":" ","LANE":"３２４巷","ALLEY":" ","HOUSE_NO":"１４號之４","E_COORD97":171339.60000000001,"N_COORD97":2546613.5800000001,"ADDRESS":"大橋一街３２４巷１４號之４","OBJECTID":229671},"geometry":{"x":171339.59999999963,"y":2546613.5800000001}},{"attributes":{"ID":229676,"DIS_CODE":0,"TOWNNAME":"永康區","LI":"西灣里","LIN":"25鄰","STREET":"國光七街","SECT":" ","MAREA":" ","LANE":"２０巷","ALLEY":" ","HOUSE_NO":"２９號","E_COORD97":174320.32000000001,"N_COORD97":2545601.1499999999,"ADDRESS":"國光七街２０巷２９號","OBJECTID":229672},"geometry":{"x":174320.3200000003,"y":2545601.1500000022}},{"attributes":{"ID":229677,"DIS_CODE":0,"TOWNNAME":"永康區","LI":"正強里","LIN":"43鄰","STREET":"中正路","SECT":" ","MAREA":" ","LANE":"２５６巷","ALLEY":" ","HOUSE_NO":"３號之１２","E_COORD97":173149.26999999999,"N_COORD97":2547954.29,"ADDRESS":"中正路２５６巷３號之１２","OBJECTID":229673},"geometry":{"x":173149.27000000048,"y":2547954.2900000028}},{"attributes":{"ID":229678,"DIS_CODE":0,"TOWNNAME":"安南區","LI":"東和里","LIN":"3鄰","STREET":"長和路","SECT":"一段","MAREA":" ","LANE":"９４９巷","ALLEY":" ","HOUSE_NO":"３２０號","E_COORD97":170756.13,"N_COORD97":2550413.5,"ADDRESS":"長和路一段９４９巷３２０號","OBJECTID":229674},"geometry":{"x":170756.12999999989,"y":2550413.5}},{"attributes":{"ID":229679,"DIS_CODE":0,"TOWNNAME":"安南區","LI":"淵中里","LIN":"3鄰","STREET":"本淵路","SECT":" ","MAREA":" ","LANE":"５７巷","ALLEY":" ","HOUSE_NO":"６２號","E_COORD97":165144.88,"N_COORD97":2549860.79,"ADDRESS":"本淵路５７巷６２號","OBJECTID":229675},"geometry":{"x":165144.87999999989,"y":2549860.790000001}},{"attributes":{"ID":229680,"DIS_CODE":0,"TOWNNAME":"安南區","LI":"淵中里","LIN":"3鄰","STREET":"安中路","SECT":"四段","MAREA":" ","LANE":"１１９巷","ALLEY":" ","HOUSE_NO":"２９之７號","E_COORD97":165062.32999999999,"N_COORD97":2549850.1499999999,"ADDRESS":"安中路四段１１９巷２９之７號","OBJECTID":229676},"geometry":{"x":165062.33000000007,"y":2549850.1500000004}},{"attributes":{"ID":229681,"DIS_CODE":0,"TOWNNAME":"永康區","LI":"勝利里","LIN":"35鄰","STREET":"勝利街","SECT":" ","MAREA":" ","LANE":"２巷","ALLEY":" ","HOUSE_NO":"３１號","E_COORD97":171057.26999999999,"N_COORD97":2544692.2599999998,"ADDRESS":"勝利街２巷３１號","OBJECTID":229677},"geometry":{"x":171057.27000000142,"y":2544692.2599999998}},{"attributes":{"ID":229682,"DIS_CODE":0,"TOWNNAME":"安南區","LI":"鳳凰里","LIN":"3鄰","STREET":"安中路","SECT":"一段","MAREA":" ","LANE":"５１６巷","ALLEY":" ","HOUSE_NO":"１號","E_COORD97":168109.914911,"N_COORD97":2548963.2553099999,"ADDRESS":"安中路一段５１６巷１號","OBJECTID":229678},"geometry":{"x":168109.91491100192,"y":2548963.2553049996}},{"attributes":{"ID":229683,"DIS_CODE":0,"TOWNNAME":"東區","LI":"虎尾里","LIN":"34鄰","STREET":"富農街","SECT":"一段","MAREA":" ","LANE":" ","ALLEY":" ","HOUSE_NO":"１１６號","E_COORD97":171558.07000000001,"N_COORD97":2542324.2000000002,"ADDRESS":"富農街一段１１６號","OBJECTID":229679},"geometry":{"x":171558.07000000123,"y":2542324.2000000011}},{"attributes":{"ID":229684,"DIS_CODE":0,"TOWNNAME":"東區","LI":"小東里","LIN":"34鄰","STREET":"東興路","SECT":" ","MAREA":" ","LANE":" ","ALLEY":" ","HOUSE_NO":"２５９號","E_COORD97":171031.76000000001,"N_COORD97":2544004.5299999998,"ADDRESS":"東興路２５９號","OBJECTID":229680},"geometry":{"x":171031.75999999978,"y":2544004.5300000012}},{"attributes":{"ID":229685,"DIS_CODE":0,"TOWNNAME":"東區","LI":"小東里","LIN":"34鄰","STREET":"東興路","SECT":" ","MAREA":" ","LANE":" ","ALLEY":" ","HOUSE_NO":"２６９號","E_COORD97":171038.75,"N_COORD97":2544031.3399999999,"ADDRESS":"東興路２６９號","OBJECTID":229681},"geometry":{"x":171038.75,"y":2544031.3399999999}},{"attributes":{"ID":229686,"DIS_CODE":0,"TOWNNAME":"東區","LI":"小東里","LIN":"34鄰","STREET":"東興路","SECT":" ","MAREA":" ","LANE":" ","ALLEY":" ","HOUSE_NO":"２７１號","E_COORD97":171040.04999999999,"N_COORD97":2544036.77,"ADDRESS":"東興路２７１號","OBJECTID":229682},"geometry":{"x":171040.04999999981,"y":2544036.7700000014}},{"attributes":{"ID":229687,"DIS_CODE":0,"TOWNNAME":"東區","LI":"小東里","LIN":"34鄰","STREET":"東興路","SECT":" ","MAREA":" ","LANE":" ","ALLEY":" ","HOUSE_NO":"２９３號","E_COORD97":171055.76000000001,"N_COORD97":2544101.71,"ADDRESS":"東興路２９３號","OBJECTID":229683},"geometry":{"x":171055.75999999885,"y":2544101.7100000046}},{"attributes":{"ID":229688,"DIS_CODE":0,"TOWNNAME":"東區","LI":"小東里","LIN":"34鄰","STREET":"東興路","SECT":" ","MAREA":" ","LANE":" ","ALLEY":" ","HOUSE_NO":"２９５號","E_COORD97":171055.29000000001,"N_COORD97":2544107.1899999999,"ADDRESS":"東興路２９５號","OBJECTID":229684},"geometry":{"x":171055.29000000004,"y":2544107.1900000032}},{"attributes":{"ID":229689,"DIS_CODE":0,"TOWNNAME":"南區","LI":"大恩里","LIN":"23鄰","STREET":"機場路","SECT":" ","MAREA":" ","LANE":" ","ALLEY":" ","HOUSE_NO":"９０５號","E_COORD97":169664.142448,"N_COORD97":2539503.4621199998,"ADDRESS":"機場路９０５號","OBJECTID":229685},"geometry":{"x":169664.14244799968,"y":2539503.4621200021}},{"attributes":{"ID":229690,"DIS_CODE":0,"TOWNNAME":"仁德區","LI":"仁德里","LIN":"23鄰","STREET":"文善街","SECT":" ","MAREA":" ","LANE":" ","ALLEY":" ","HOUSE_NO":"１６９號","E_COORD97":172315.69227699999,"N_COORD97":2541551.0710200001,"ADDRESS":"文善街１６９號","OBJECTID":229686},"geometry":{"x":172315.69227700122,"y":2541551.0710199997}},{"attributes":{"ID":229691,"DIS_CODE":0,"TOWNNAME":"仁德區","LI":"太子里","LIN":"23鄰","STREET":"中正路","SECT":"三段","MAREA":" ","LANE":" ","ALLEY":" ","HOUSE_NO":"７０３號","E_COORD97":173693.00366700001,"N_COORD97":2543578.0331600001,"ADDRESS":"中正路三段７０３號","OBJECTID":229687},"geometry":{"x":173693.00366699975,"y":2543578.0331619997}},{"attributes":{"ID":229692,"DIS_CODE":0,"TOWNNAME":"仁德區","LI":"太子里","LIN":"23鄰","STREET":"中正路","SECT":"三段","MAREA":" ","LANE":" ","ALLEY":" ","HOUSE_NO":"７０９之１號","E_COORD97":173711.42783100001,"N_COORD97":2543621.90105,"ADDRESS":"中正路三段７０９之１號","OBJECTID":229688},"geometry":{"x":173711.42783100158,"y":2543621.9010550007}},{"attributes":{"ID":229693,"DIS_CODE":0,"TOWNNAME":"仁德區","LI":"太子里","LIN":"23鄰","STREET":"中正路","SECT":"三段","MAREA":" ","LANE":" ","ALLEY":" ","HOUSE_NO":"７１１之１號","E_COORD97":173713.863209,"N_COORD97":2543632.8018800002,"ADDRESS":"中正路三段７１１之１號","OBJECTID":229689},"geometry":{"x":173713.86320900172,"y":2543632.8018830027}},{"attributes":{"ID":229694,"DIS_CODE":0,"TOWNNAME":"仁德區","LI":"太子里","LIN":"23鄰","STREET":"中正路","SECT":"三段","MAREA":" ","LANE":" ","ALLEY":" ","HOUSE_NO":"７１１號","E_COORD97":173717.67510399999,"N_COORD97":2543642.64438,"ADDRESS":"中正路三段７１１號","OBJECTID":229690},"geometry":{"x":173717.67510400061,"y":2543642.6443770006}},{"attributes":{"ID":229695,"DIS_CODE":0,"TOWNNAME":"仁德區","LI":"太子里","LIN":"23鄰","STREET":"中正路","SECT":"三段","MAREA":" ","LANE":" ","ALLEY":" ","HOUSE_NO":"７１３號","E_COORD97":173721.48699999999,"N_COORD97":2543651.6402099999,"ADDRESS":"中正路三段７１３號","OBJECTID":229691},"geometry":{"x":173721.48699999973,"y":2543651.6402060036}},{"attributes":{"ID":229696,"DIS_CODE":0,"TOWNNAME":"仁德區","LI":"太子里","LIN":"23鄰","STREET":"中正路","SECT":"三段","MAREA":" ","LANE":" ","ALLEY":" ","HOUSE_NO":"７１３之１號","E_COORD97":173723.18117600001,"N_COORD97":2543657.1435400001,"ADDRESS":"中正路三段７１３之１號","OBJECTID":229692},"geometry":{"x":173723.18117600027,"y":2543657.1435360014}},{"attributes":{"ID":229697,"DIS_CODE":0,"TOWNNAME":"永康區","LI":"北灣里","LIN":"23鄰","STREET":"大灣路","SECT":" ","MAREA":" ","LANE":"１２巷","ALLEY":" ","HOUSE_NO":"２０號","E_COORD97":175287.60000000001,"N_COORD97":2546016.0099999998,"ADDRESS":"大灣路１２巷２０號","OBJECTID":229693},"geometry":{"x":175287.59999999963,"y":2546016.0099999998}},{"attributes":{"ID":229698,"DIS_CODE":0,"TOWNNAME":"永康區","LI":"網寮里","LIN":"25鄰","STREET":"永大一路","SECT":" ","MAREA":" ","LANE":"１６０巷","ALLEY":" ","HOUSE_NO":"２９號","E_COORD97":173813.23000000001,"N_COORD97":2546523.3399999999,"ADDRESS":"永大一路１６０巷２９號","OBJECTID":229694},"geometry":{"x":173813.23000000231,"y":2546523.3399999999}},{"attributes":{"ID":229699,"DIS_CODE":0,"TOWNNAME":"永康區","LI":"復華里","LIN":"34鄰","STREET":"復國一路","SECT":" ","MAREA":" ","LANE":"４７５巷","ALLEY":" ","HOUSE_NO":"４０號","E_COORD97":172543.28,"N_COORD97":2546034.2799999998,"ADDRESS":"復國一路４７５巷４０號","OBJECTID":229695},"geometry":{"x":172543.28000000119,"y":2546034.2799999993}},{"attributes":{"ID":229700,"DIS_CODE":0,"TOWNNAME":"永康區","LI":"復國里","LIN":"14鄰","STREET":"復國二路","SECT":" ","MAREA":" ","LANE":"１７８巷","ALLEY":" ","HOUSE_NO":"８號之７","E_COORD97":172953.34,"N_COORD97":2545656.6099999999,"ADDRESS":"復國二路１７８巷８號之７","OBJECTID":229696},"geometry":{"x":172953.33999999985,"y":2545656.6099999994}},{"attributes":{"ID":229701,"DIS_CODE":0,"TOWNNAME":"永康區","LI":"復國里","LIN":"15鄰","STREET":"復國二路","SECT":" ","MAREA":" ","LANE":"１６９巷","ALLEY":" ","HOUSE_NO":"１２號","E_COORD97":172895.04999999999,"N_COORD97":2545776.02,"ADDRESS":"復國二路１６９巷１２號","OBJECTID":229697},"geometry":{"x":172895.05000000075,"y":2545776.0199999996}},{"attributes":{"ID":229702,"DIS_CODE":0,"TOWNNAME":"東區","LI":"小東里","LIN":"34鄰","STREET":"東興路","SECT":" ","MAREA":" ","LANE":" ","ALLEY":" ","HOUSE_NO":"２９７號","E_COORD97":171055.29000000001,"N_COORD97":2544111.2599999998,"ADDRESS":"東興路２９７號","OBJECTID":229698},"geometry":{"x":171055.29000000004,"y":2544111.2600000016}},{"attributes":{"ID":229703,"DIS_CODE":0,"TOWNNAME":"東區","LI":"小東里","LIN":"34鄰","STREET":"東興路","SECT":" ","MAREA":" ","LANE":" ","ALLEY":" ","HOUSE_NO":"２９９號","E_COORD97":171054.66,"N_COORD97":2544116.1200000001,"ADDRESS":"東興路２９９號","OBJECTID":229699},"geometry":{"x":171054.66000000015,"y":2544116.1200000048}},{"attributes":{"ID":229704,"DIS_CODE":0,"TOWNNAME":"東區","LI":"小東里","LIN":"34鄰","STREET":"東興路","SECT":" ","MAREA":" ","LANE":" ","ALLEY":" ","HOUSE_NO":"３０１號","E_COORD97":171054.35000000001,"N_COORD97":2544120.0299999998,"ADDRESS":"東興路３０１號","OBJECTID":229700},"geometry":{"x":171054.34999999963,"y":2544120.0299999993}},{"attributes":{"ID":229705,"DIS_CODE":0,"TOWNNAME":"東區","LI":"小東里","LIN":"34鄰","STREET":"東興路","SECT":" ","MAREA":" ","LANE":" ","ALLEY":" ","HOUSE_NO":"３０３號","E_COORD97":171054.19,"N_COORD97":2544124.8900000001,"ADDRESS":"東興路３０３號","OBJECTID":229701},"geometry":{"x":171054.19000000134,"y":2544124.8900000025}},{"attributes":{"ID":229706,"DIS_CODE":0,"TOWNNAME":"東區","LI":"小東里","LIN":"34鄰","STREET":"東興路","SECT":" ","MAREA":" ","LANE":" ","ALLEY":" ","HOUSE_NO":"３０５號","E_COORD97":171054.51000000001,"N_COORD97":2544128.3300000001,"ADDRESS":"東興路３０５號","OBJECTID":229702},"geometry":{"x":171054.51000000071,"y":2544128.3300000019}},{"attributes":{"ID":229707,"DIS_CODE":0,"TOWNNAME":"東區","LI":"小東里","LIN":"34鄰","STREET":"東興路","SECT":" ","MAREA":" ","LANE":" ","ALLEY":" ","HOUSE_NO":"３０７號","E_COORD97":171053.41,"N_COORD97":2544132.71,"ADDRESS":"東興路３０７號","OBJECTID":229703},"geometry":{"x":171053.40999999922,"y":2544132.7100000028}},{"attributes":{"ID":229708,"DIS_CODE":0,"TOWNNAME":"東區","LI":"小東里","LIN":"34鄰","STREET":"東興路","SECT":" ","MAREA":" ","LANE":" ","ALLEY":" ","HOUSE_NO":"３１１號","E_COORD97":171052.44,"N_COORD97":2544140.8100000001,"ADDRESS":"東興路３１１號","OBJECTID":229704},"geometry":{"x":171052.44000000134,"y":2544140.8100000005}},{"attributes":{"ID":229709,"DIS_CODE":0,"TOWNNAME":"東區","LI":"小東里","LIN":"34鄰","STREET":"東興路","SECT":" ","MAREA":" ","LANE":" ","ALLEY":" ","HOUSE_NO":"３１３號","E_COORD97":171051.66,"N_COORD97":2544145.2000000002,"ADDRESS":"東興路３１３號","OBJECTID":229705},"geometry":{"x":171051.66000000015,"y":2544145.2000000011}},{"attributes":{"ID":229710,"DIS_CODE":0,"TOWNNAME":"東區","LI":"崇誨里","LIN":"34鄰","STREET":"東寧路","SECT":" ","MAREA":" ","LANE":" ","ALLEY":" ","HOUSE_NO":"２２４號","E_COORD97":170531.54999999999,"N_COORD97":2543477.1000000001,"ADDRESS":"東寧路２２４號","OBJECTID":229706},"geometry":{"x":170531.54999999981,"y":2543477.0999999978}},{"attributes":{"ID":229711,"DIS_CODE":0,"TOWNNAME":"東區","LI":"崇誨里","LIN":"34鄰","STREET":"東寧路","SECT":" ","MAREA":" ","LANE":" ","ALLEY":" ","HOUSE_NO":"２１４號","E_COORD97":170509.89999999999,"N_COORD97":2543485.1000000001,"ADDRESS":"東寧路２１４號","OBJECTID":229707},"geometry":{"x":170509.9000000013,"y":2543485.1000000015}},{"attributes":{"ID":229712,"DIS_CODE":0,"TOWNNAME":"東區","LI":"崇誨里","LIN":"34鄰","STREET":"東寧路","SECT":" ","MAREA":" ","LANE":" ","ALLEY":" ","HOUSE_NO":"２１６號","E_COORD97":170516.28,"N_COORD97":2543484.0600000001,"ADDRESS":"東寧路２１６號","OBJECTID":229708},"geometry":{"x":170516.28000000119,"y":2543484.0600000005}},{"attributes":{"ID":229713,"DIS_CODE":0,"TOWNNAME":"永康區","LI":"網寮里","LIN":"23鄰","STREET":"永春街","SECT":" ","MAREA":" ","LANE":"１２巷","ALLEY":" ","HOUSE_NO":"２７號","E_COORD97":173841.20000000001,"N_COORD97":2546273.8900000001,"ADDRESS":"永春街１２巷２７號","OBJECTID":229709},"geometry":{"x":173841.20000000019,"y":2546273.8900000025}},{"attributes":{"ID":229714,"DIS_CODE":0,"TOWNNAME":"永康區","LI":"網寮里","LIN":"23鄰","STREET":"永春街","SECT":" ","MAREA":" ","LANE":"２０巷","ALLEY":" ","HOUSE_NO":"７號","E_COORD97":173786.89000000001,"N_COORD97":2546302.8999999999,"ADDRESS":"永春街２０巷７號","OBJECTID":229710},"geometry":{"x":173786.88999999966,"y":2546302.9000000004}},{"attributes":{"ID":229715,"DIS_CODE":0,"TOWNNAME":"永康區","LI":"網寮里","LIN":"23鄰","STREET":"永春街","SECT":" ","MAREA":" ","LANE":"１２巷","ALLEY":" ","HOUSE_NO":"２０號","E_COORD97":173842.53,"N_COORD97":2546249.6400000001,"ADDRESS":"永春街１２巷２０號","OBJECTID":229711},"geometry":{"x":173842.53000000026,"y":2546249.6400000025}},{"attributes":{"ID":229716,"DIS_CODE":0,"TOWNNAME":"永康區","LI":"復興里","LIN":"5鄰","STREET":"復興路","SECT":" ","MAREA":" ","LANE":"４２３巷","ALLEY":" ","HOUSE_NO":"２７號","E_COORD97":172146.22,"N_COORD97":2544284.02,"ADDRESS":"復興路４２３巷２７號","OBJECTID":229712},"geometry":{"x":172146.22000000067,"y":2544284.0199999996}},{"attributes":{"ID":229717,"DIS_CODE":0,"TOWNNAME":"永康區","LI":"網寮里","LIN":"13鄰","STREET":"永和街","SECT":" ","MAREA":" ","LANE":"２４９巷","ALLEY":" ","HOUSE_NO":"３號","E_COORD97":173318.53,"N_COORD97":2546582.1800000002,"ADDRESS":"永和街２４９巷３號","OBJECTID":229713},"geometry":{"x":173318.53000000026,"y":2546582.1799999978}},{"attributes":{"ID":229718,"DIS_CODE":0,"TOWNNAME":"永康區","LI":"埔園里","LIN":"23鄰","STREET":"自強路","SECT":" ","MAREA":" ","LANE":"３７９巷","ALLEY":" ","HOUSE_NO":"２９號","E_COORD97":173597.25,"N_COORD97":2547964.1099999999,"ADDRESS":"自強路３７９巷２９號","OBJECTID":229714},"geometry":{"x":173597.25000000186,"y":2547964.1100000013}},{"attributes":{"ID":229719,"DIS_CODE":0,"TOWNNAME":"永康區","LI":"龍潭里","LIN":"23鄰","STREET":"自強路","SECT":" ","MAREA":" ","LANE":"７５０巷","ALLEY":" ","HOUSE_NO":"７２之１號","E_COORD97":174592,"N_COORD97":2548456.1899999999,"ADDRESS":"自強路７５０巷７２之１號","OBJECTID":229715},"geometry":{"x":174592,"y":2548456.1899999995}},{"attributes":{"ID":229720,"DIS_CODE":0,"TOWNNAME":"永康區","LI":"埔園里","LIN":"23鄰","STREET":"中正路","SECT":" ","MAREA":" ","LANE":"１４８巷","ALLEY":" ","HOUSE_NO":"４３號","E_COORD97":173571.69,"N_COORD97":2547954.4300000002,"ADDRESS":"中正路１４８巷４３號","OBJECTID":229716},"geometry":{"x":173571.69000000134,"y":2547954.4300000016}},{"attributes":{"ID":229721,"DIS_CODE":0,"TOWNNAME":"安南區","LI":"鳳凰里","LIN":"3鄰","STREET":"安中路","SECT":"一段","MAREA":" ","LANE":"５１６巷","ALLEY":" ","HOUSE_NO":"３號","E_COORD97":168113.09090700001,"N_COORD97":2548968.7586300001,"ADDRESS":"安中路一段５１６巷３號","OBJECTID":229717},"geometry":{"x":168113.09090700187,"y":2548968.7586350031}},{"attributes":{"ID":229722,"DIS_CODE":0,"TOWNNAME":"安南區","LI":"鳳凰里","LIN":"3鄰","STREET":"安中路","SECT":"一段","MAREA":" ","LANE":"５１６巷","ALLEY":" ","HOUSE_NO":"５號","E_COORD97":168116.47863500001,"N_COORD97":2548973.8386300001,"ADDRESS":"安中路一段５１６巷５號","OBJECTID":229718},"geometry":{"x":168116.47863500006,"y":2548973.8386330009}},{"attributes":{"ID":229723,"DIS_CODE":0,"TOWNNAME":"安南區","LI":"鳳凰里","LIN":"3鄰","STREET":"安中路","SECT":"一段","MAREA":" ","LANE":"５１６巷","ALLEY":" ","HOUSE_NO":"７號","E_COORD97":168119.86636399999,"N_COORD97":2548979.55363,"ADDRESS":"安中路一段５１６巷７號","OBJECTID":229719},"geometry":{"x":168119.86636400037,"y":2548979.55363}},{"attributes":{"ID":229724,"DIS_CODE":0,"TOWNNAME":"東區","LI":"崇誨里","LIN":"34鄰","STREET":"東寧路","SECT":" ","MAREA":" ","LANE":" ","ALLEY":" ","HOUSE_NO":"２２０號","E_COORD97":170524.28,"N_COORD97":2543481.9900000002,"ADDRESS":"東寧路２２０號","OBJECTID":229720},"geometry":{"x":170524.28000000119,"y":2543481.9900000039}},{"attributes":{"ID":229725,"DIS_CODE":0,"TOWNNAME":"永康區","LI":"\u25A0行里","LIN":"34鄰","STREET":"新行街","SECT":" ","MAREA":" ","LANE":" ","ALLEY":" ","HOUSE_NO":"１６１號","E_COORD97":172326.26000000001,"N_COORD97":2549167.2999999998,"ADDRESS":"新行街１６１號","OBJECTID":229721},"geometry":{"x":172326.26000000071,"y":2549167.3000000026}},{"attributes":{"ID":229726,"DIS_CODE":0,"TOWNNAME":"永康區","LI":"\u25A0行里","LIN":"34鄰","STREET":"新行街","SECT":" ","MAREA":" ","LANE":" ","ALLEY":" ","HOUSE_NO":"１８７號","E_COORD97":172321.67999999999,"N_COORD97":2549236.1200000001,"ADDRESS":"新行街１８７號","OBJECTID":229722},"geometry":{"x":172321.68000000063,"y":2549236.1200000029}},{"attributes":{"ID":229727,"DIS_CODE":0,"TOWNNAME":"永康區","LI":"\u25A0行里","LIN":"34鄰","STREET":"新行街","SECT":" ","MAREA":" ","LANE":" ","ALLEY":" ","HOUSE_NO":"１５８號","E_COORD97":172419.14999999999,"N_COORD97":2549061.6699999999,"ADDRESS":"新行街１５８號","OBJECTID":229723},"geometry":{"x":172419.1500000013,"y":2549061.6700000018}},{"attributes":{"ID":229728,"DIS_CODE":0,"TOWNNAME":"永康區","LI":"\u25A0行里","LIN":"34鄰","STREET":"中正北路","SECT":" ","MAREA":" ","LANE":" ","ALLEY":" ","HOUSE_NO":"１４３號","E_COORD97":172253.45999999999,"N_COORD97":2549103.25,"ADDRESS":"中正北路１４３號","OBJECTID":229724},"geometry":{"x":172253.46000000089,"y":2549103.25}},{"attributes":{"ID":229729,"DIS_CODE":0,"TOWNNAME":"永康區","LI":"\u25A0行里","LIN":"34鄰","STREET":"中正北路","SECT":" ","MAREA":" ","LANE":" ","ALLEY":" ","HOUSE_NO":"３０９號","E_COORD97":172860.12,"N_COORD97":2549138.75,"ADDRESS":"中正北路３０９號","OBJECTID":229725},"geometry":{"x":172860.12000000011,"y":2549138.7500000037}},{"attributes":{"ID":229730,"DIS_CODE":0,"TOWNNAME":"永康區","LI":"\u25A0行里","LIN":"34鄰","STREET":"中正七街","SECT":" ","MAREA":" ","LANE":" ","ALLEY":" ","HOUSE_NO":"１０１號","E_COORD97":172142.38,"N_COORD97":2549121.2200000002,"ADDRESS":"中正七街１０１號","OBJECTID":229726},"geometry":{"x":172142.38000000082,"y":2549121.2200000007}},{"attributes":{"ID":229731,"DIS_CODE":0,"TOWNNAME":"麻豆區","LI":"大埕里","LIN":"7鄰","STREET":" ","SECT":" ","MAREA":"大埕","LANE":" ","ALLEY":" ","HOUSE_NO":"９號","E_COORD97":173253.17000000001,"N_COORD97":2565132.0699999998,"ADDRESS":"大埕９號","OBJECTID":229727},"geometry":{"x":173253.16999999993,"y":2565132.0700000003}},{"attributes":{"ID":229732,"DIS_CODE":0,"TOWNNAME":"永康區","LI":"網寮里","LIN":"25鄰","STREET":"永大一路","SECT":" ","MAREA":" ","LANE":"１６０巷","ALLEY":" ","HOUSE_NO":"７０號","E_COORD97":173819.26000000001,"N_COORD97":2546571.4900000002,"ADDRESS":"永大一路１６０巷７０號","OBJECTID":229728},"geometry":{"x":173819.26000000071,"y":2546571.4900000021}},{"attributes":{"ID":229733,"DIS_CODE":0,"TOWNNAME":"永康區","LI":"復興里","LIN":"14鄰","STREET":"復興路","SECT":" ","MAREA":" ","LANE":"２８２巷","ALLEY":" ","HOUSE_NO":"１１號","E_COORD97":172368.79999999999,"N_COORD97":2544374.3199999998,"ADDRESS":"復興路２８２巷１１號","OBJECTID":229729},"geometry":{"x":172368.79999999981,"y":2544374.3200000003}},{"attributes":{"ID":229734,"DIS_CODE":0,"TOWNNAME":"永康區","LI":"網寮里","LIN":"19鄰","STREET":"永二街","SECT":" ","MAREA":" ","LANE":"２１５巷","ALLEY":" ","HOUSE_NO":"３號","E_COORD97":173428.22,"N_COORD97":2546277.4199999999,"ADDRESS":"永二街２１５巷３號","OBJECTID":229730},"geometry":{"x":173428.22000000067,"y":2546277.4200000018}},{"attributes":{"ID":229735,"DIS_CODE":0,"TOWNNAME":"東區","LI":"莊敬里","LIN":"23鄰","STREET":"東平路","SECT":" ","MAREA":" ","LANE":"１２巷","ALLEY":" ","HOUSE_NO":"１號","E_COORD97":171428.67999999999,"N_COORD97":2543936,"ADDRESS":"東平路１２巷１號","OBJECTID":229731},"geometry":{"x":171428.6799999997,"y":2543936.0000000037}},{"attributes":{"ID":229736,"DIS_CODE":0,"TOWNNAME":"東區","LI":"莊敬里","LIN":"23鄰","STREET":"東平路","SECT":" ","MAREA":" ","LANE":"１２巷","ALLEY":" ","HOUSE_NO":"３號","E_COORD97":171428.67999999999,"N_COORD97":2543939.6299999999,"ADDRESS":"東平路１２巷３號","OBJECTID":229732},"geometry":{"x":171428.6799999997,"y":2543939.629999999}},{"attributes":{"ID":229737,"DIS_CODE":0,"TOWNNAME":"東區","LI":"莊敬里","LIN":"23鄰","STREET":"東平路","SECT":" ","MAREA":" ","LANE":"１２巷","ALLEY":" ","HOUSE_NO":"５號","E_COORD97":171429.64999999999,"N_COORD97":2543944.0499999998,"ADDRESS":"東平路１２巷５號","OBJECTID":229733},"geometry":{"x":171429.65000000037,"y":2543944.0500000026}},{"attributes":{"ID":229738,"DIS_CODE":0,"TOWNNAME":"東區","LI":"莊敬里","LIN":"23鄰","STREET":"東平路","SECT":" ","MAREA":" ","LANE":"１２巷","ALLEY":" ","HOUSE_NO":"７號","E_COORD97":171429.82999999999,"N_COORD97":2543947.8500000001,"ADDRESS":"東平路１２巷７號","OBJECTID":229734},"geometry":{"x":171429.83000000007,"y":2543947.8500000015}},{"attributes":{"ID":229739,"DIS_CODE":0,"TOWNNAME":"永康區","LI":"復華里","LIN":"23鄰","STREET":"國華街","SECT":" ","MAREA":" ","LANE":"９９巷","ALLEY":" ","HOUSE_NO":"７號","E_COORD97":172704.60999999999,"N_COORD97":2546104.75,"ADDRESS":"國華街９９巷７號","OBJECTID":229735},"geometry":{"x":172704.61000000034,"y":2546104.7500000019}},{"attributes":{"ID":229740,"DIS_CODE":0,"TOWNNAME":"永康區","LI":"崑山里","LIN":"23鄰","STREET":"崑山街","SECT":" ","MAREA":" ","LANE":"６３巷","ALLEY":" ","HOUSE_NO":"２３號","E_COORD97":173874.87,"N_COORD97":2544671.5,"ADDRESS":"崑山街６３巷２３號","OBJECTID":229736},"geometry":{"x":173874.87000000104,"y":2544671.5}},{"attributes":{"ID":229741,"DIS_CODE":0,"TOWNNAME":"永康區","LI":"崑山里","LIN":"23鄰","STREET":"崑山街","SECT":" ","MAREA":" ","LANE":"６３巷","ALLEY":" ","HOUSE_NO":"１８號","E_COORD97":173888.98999999999,"N_COORD97":2544680.1899999999,"ADDRESS":"崑山街６３巷１８號","OBJECTID":229737},"geometry":{"x":173888.98999999929,"y":2544680.1900000032}},{"attributes":{"ID":229742,"DIS_CODE":0,"TOWNNAME":"永康區","LI":"中華里","LIN":"23鄰","STREET":"忠勇街","SECT":" ","MAREA":" ","LANE":"６３巷","ALLEY":" ","HOUSE_NO":"４號","E_COORD97":171877.09,"N_COORD97":2544628.5699999998,"ADDRESS":"忠勇街６３巷４號","OBJECTID":229738},"geometry":{"x":171877.08999999985,"y":2544628.5700000022}},{"attributes":{"ID":229743,"DIS_CODE":0,"TOWNNAME":"永康區","LI":"中華里","LIN":"23鄰","STREET":"忠勇街","SECT":" ","MAREA":" ","LANE":"６５巷","ALLEY":" ","HOUSE_NO":"７號","E_COORD97":171863.01000000001,"N_COORD97":2544649.0299999998,"ADDRESS":"忠勇街６５巷７號","OBJECTID":229739},"geometry":{"x":171863.01000000071,"y":2544649.0299999993}},{"attributes":{"ID":229744,"DIS_CODE":0,"TOWNNAME":"永康區","LI":"中華里","LIN":"23鄰","STREET":"忠勇街","SECT":" ","MAREA":" ","LANE":"６５巷","ALLEY":" ","HOUSE_NO":"１５號","E_COORD97":171838.12,"N_COORD97":2544648.77,"ADDRESS":"忠勇街６５巷１５號","OBJECTID":229740},"geometry":{"x":171838.12000000011,"y":2544648.7699999996}},{"attributes":{"ID":229745,"DIS_CODE":0,"TOWNNAME":"歸仁區","LI":"歸仁里","LIN":"23鄰","STREET":"文化二街","SECT":" ","MAREA":" ","LANE":"２６巷","ALLEY":" ","HOUSE_NO":"２１號","E_COORD97":178069.22,"N_COORD97":2541223.1299999999,"ADDRESS":"文化二街２６巷２１號","OBJECTID":229741},"geometry":{"x":178069.22000000067,"y":2541223.1300000008}},{"attributes":{"ID":229746,"DIS_CODE":0,"TOWNNAME":"永康區","LI":"龍潭里","LIN":"34鄰","STREET":"龍埔街","SECT":" ","MAREA":" ","LANE":" ","ALLEY":" ","HOUSE_NO":"１５９號","E_COORD97":174498.38,"N_COORD97":2548244.23,"ADDRESS":"龍埔街１５９號","OBJECTID":229742},"geometry":{"x":174498.38000000082,"y":2548244.2300000042}},{"attributes":{"ID":229747,"DIS_CODE":0,"TOWNNAME":"永康區","LI":"\u25A0行里","LIN":"34鄰","STREET":"中正北路","SECT":" ","MAREA":" ","LANE":" ","ALLEY":" ","HOUSE_NO":"１７９號","E_COORD97":172447.84,"N_COORD97":2549110,"ADDRESS":"中正北路１７９號","OBJECTID":229743},"geometry":{"x":172447.84000000078,"y":2549110.0000000037}},{"attributes":{"ID":229748,"DIS_CODE":0,"TOWNNAME":"永康區","LI":"\u25A0行里","LIN":"34鄰","STREET":"中正北路","SECT":" ","MAREA":" ","LANE":" ","ALLEY":" ","HOUSE_NO":"３０３號","E_COORD97":172845.48000000001,"N_COORD97":2549138.25,"ADDRESS":"中正北路３０３號","OBJECTID":229744},"geometry":{"x":172845.48000000138,"y":2549138.25}},{"attributes":{"ID":229749,"DIS_CODE":0,"TOWNNAME":"永康區","LI":"龍潭里","LIN":"34鄰","STREET":"龍埔街","SECT":" ","MAREA":" ","LANE":" ","ALLEY":" ","HOUSE_NO":"１３７號","E_COORD97":174563.04000000001,"N_COORD97":2548218.8700000001,"ADDRESS":"龍埔街１３７號","OBJECTID":229745},"geometry":{"x":174563.04000000004,"y":2548218.870000001}},{"attributes":{"ID":229750,"DIS_CODE":0,"TOWNNAME":"永康區","LI":"\u25A0行里","LIN":"34鄰","STREET":"中正北路","SECT":" ","MAREA":" ","LANE":" ","ALLEY":" ","HOUSE_NO":"１４７號","E_COORD97":172263.07000000001,"N_COORD97":2549107.75,"ADDRESS":"中正北路１４７號","OBJECTID":229746},"geometry":{"x":172263.07000000216,"y":2549107.75}},{"attributes":{"ID":229751,"DIS_CODE":0,"TOWNNAME":"永康區","LI":"\u25A0行里","LIN":"34鄰","STREET":"中正北路","SECT":" ","MAREA":" ","LANE":" ","ALLEY":" ","HOUSE_NO":"３１１之１號","E_COORD97":172872.82000000001,"N_COORD97":2549139.2999999998,"ADDRESS":"中正北路３１１之１號","OBJECTID":229747},"geometry":{"x":172872.8200000003,"y":2549139.3000000045}},{"attributes":{"ID":229752,"DIS_CODE":0,"TOWNNAME":"永康區","LI":"\u25A0行里","LIN":"34鄰","STREET":"中正北路","SECT":" ","MAREA":" ","LANE":" ","ALLEY":" ","HOUSE_NO":"１２３之３號","E_COORD97":172194.32999999999,"N_COORD97":2549101.5499999998,"ADDRESS":"中正北路１２３之３號","OBJECTID":229748},"geometry":{"x":172194.33000000007,"y":2549101.5500000026}},{"attributes":{"ID":229753,"DIS_CODE":0,"TOWNNAME":"永康區","LI":"\u25A0行里","LIN":"34鄰","STREET":"中正北路","SECT":" ","MAREA":" ","LANE":" ","ALLEY":" ","HOUSE_NO":"１６９號","E_COORD97":172400.89999999999,"N_COORD97":2549108.5,"ADDRESS":"中正北路１６９號","OBJECTID":229749},"geometry":{"x":172400.90000000037,"y":2549108.5}},{"attributes":{"ID":229754,"DIS_CODE":0,"TOWNNAME":"永康區","LI":"\u25A0行里","LIN":"34鄰","STREET":"中正北路","SECT":" ","MAREA":" ","LANE":" ","ALLEY":" ","HOUSE_NO":"３０７號","E_COORD97":172855.23000000001,"N_COORD97":2549138.75,"ADDRESS":"中正北路３０７號","OBJECTID":229750},"geometry":{"x":172855.22999999952,"y":2549138.7500000037}},{"attributes":{"ID":229755,"DIS_CODE":0,"TOWNNAME":"永康區","LI":"龍潭里","LIN":"34鄰","STREET":"龍埔街","SECT":" ","MAREA":" ","LANE":" ","ALLEY":" ","HOUSE_NO":"１６５號","E_COORD97":174485.60999999999,"N_COORD97":2548246.48,"ADDRESS":"龍埔街１６５號","OBJECTID":229751},"geometry":{"x":174485.61000000127,"y":2548246.4800000023}},{"attributes":{"ID":229756,"DIS_CODE":0,"TOWNNAME":"南區","LI":"郡南里","LIN":"17鄰","STREET":"永成路","SECT":"三段","MAREA":" ","LANE":"２５巷","ALLEY":" ","HOUSE_NO":"２１號","E_COORD97":167439.672659,"N_COORD97":2540401.2440599999,"ADDRESS":"永成路三段２５巷２１號","OBJECTID":229752},"geometry":{"x":167439.67265900224,"y":2540401.2440550029}},{"attributes":{"ID":229757,"DIS_CODE":0,"TOWNNAME":"永康區","LI":"埔園里","LIN":"34鄰","STREET":"永大路","SECT":"三段","MAREA":" ","LANE":" ","ALLEY":" ","HOUSE_NO":"５５０號","E_COORD97":174083.38,"N_COORD97":2548620.2799999998,"ADDRESS":"永大路三段５５０號","OBJECTID":229753},"geometry":{"x":174083.38000000082,"y":2548620.2800000012}},{"attributes":{"ID":229758,"DIS_CODE":0,"TOWNNAME":"永康區","LI":"\u25A0行里","LIN":"34鄰","STREET":"中正北路","SECT":" ","MAREA":" ","LANE":" ","ALLEY":" ","HOUSE_NO":"７７號","E_COORD97":172096.85999999999,"N_COORD97":2549098.25,"ADDRESS":"中正北路７７號","OBJECTID":229754},"geometry":{"x":172096.86000000127,"y":2549098.2500000019}},{"attributes":{"ID":229759,"DIS_CODE":0,"TOWNNAME":"永康區","LI":"\u25A0行里","LIN":"34鄰","STREET":"中正北路","SECT":" ","MAREA":" ","LANE":" ","ALLEY":" ","HOUSE_NO":"１２３號","E_COORD97":172177.98000000001,"N_COORD97":2549101,"ADDRESS":"中正北路１２３號","OBJECTID":229755},"geometry":{"x":172177.98000000138,"y":2549101.0000000019}},{"attributes":{"ID":229760,"DIS_CODE":0,"TOWNNAME":"永康區","LI":"\u25A0行里","LIN":"34鄰","STREET":"中正北路","SECT":" ","MAREA":" ","LANE":" ","ALLEY":" ","HOUSE_NO":"９１號","E_COORD97":172138.51000000001,"N_COORD97":2549099.71,"ADDRESS":"中正北路９１號","OBJECTID":229756},"geometry":{"x":172138.50999999978,"y":2549099.7100000028}},{"attributes":{"ID":229761,"DIS_CODE":0,"TOWNNAME":"永康區","LI":"復國里","LIN":"29鄰","STREET":"復華二街","SECT":" ","MAREA":" ","LANE":"３巷","ALLEY":" ","HOUSE_NO":"１０號","E_COORD97":172652.48000000001,"N_COORD97":2545309.0299999998,"ADDRESS":"復華二街３巷１０號","OBJECTID":229757},"geometry":{"x":172652.48000000138,"y":2545309.0300000012}},{"attributes":{"ID":229762,"DIS_CODE":0,"TOWNNAME":"歸仁區","LI":"看西里","LIN":"23鄰","STREET":"成功五街","SECT":" ","MAREA":" ","LANE":"９８巷","ALLEY":" ","HOUSE_NO":"２６號","E_COORD97":178435.20999999999,"N_COORD97":2539849.3599999999,"ADDRESS":"成功五街９８巷２６號","OBJECTID":229758},"geometry":{"x":178435.20999999996,"y":2539849.3599999994}},{"attributes":{"ID":229763,"DIS_CODE":0,"TOWNNAME":"歸仁區","LI":"崙頂里","LIN":"23鄰","STREET":"崙頂二街","SECT":" ","MAREA":" ","LANE":"５０巷","ALLEY":" ","HOUSE_NO":"４１號","E_COORD97":177740.14000000001,"N_COORD97":2540014.48,"ADDRESS":"崙頂二街５０巷４１號","OBJECTID":229759},"geometry":{"x":177740.13999999966,"y":2540014.4800000023}},{"attributes":{"ID":229764,"DIS_CODE":0,"TOWNNAME":"歸仁區","LI":"看西里","LIN":"23鄰","STREET":"成功五街","SECT":" ","MAREA":" ","LANE":"８８巷","ALLEY":" ","HOUSE_NO":"５３號","E_COORD97":178403.41,"N_COORD97":2539838.3599999999,"ADDRESS":"成功五街８８巷５３號","OBJECTID":229760},"geometry":{"x":178403.41000000015,"y":2539838.3600000013}},{"attributes":{"ID":229765,"DIS_CODE":0,"TOWNNAME":"安南區","LI":"鳳凰里","LIN":"3鄰","STREET":"安中路","SECT":"一段","MAREA":" ","LANE":"５１６巷","ALLEY":" ","HOUSE_NO":"１０號","E_COORD97":168128.14999999999,"N_COORD97":2548972.8500000001,"ADDRESS":"安中路一段５１６巷１０號","OBJECTID":229761},"geometry":{"x":168128.1500000013,"y":2548972.8500000015}},{"attributes":{"ID":229766,"DIS_CODE":0,"TOWNNAME":"安南區","LI":"布袋里","LIN":"3鄰","STREET":"長和路","SECT":"四段","MAREA":" ","LANE":"２３１巷","ALLEY":" ","HOUSE_NO":"９３之１５號","E_COORD97":168854,"N_COORD97":2551448.23,"ADDRESS":"長和路四段２３１巷９３之１５號","OBJECTID":229762},"geometry":{"x":168853.99999999907,"y":2551448.2300000042}},{"attributes":{"ID":229767,"DIS_CODE":0,"TOWNNAME":"安南區","LI":"布袋里","LIN":"3鄰","STREET":"長和路","SECT":"四段","MAREA":" ","LANE":"２３１巷","ALLEY":" ","HOUSE_NO":"１３２號","E_COORD97":168825.26999999999,"N_COORD97":2551397.1099999999,"ADDRESS":"長和路四段２３１巷１３２號","OBJECTID":229763},"geometry":{"x":168825.27000000048,"y":2551397.1100000031}},{"attributes":{"ID":229768,"DIS_CODE":0,"TOWNNAME":"安南區","LI":"州南里","LIN":"3鄰","STREET":"長和一街","SECT":" ","MAREA":" ","LANE":"１５巷","ALLEY":" ","HOUSE_NO":"１０７號","E_COORD97":169626.81,"N_COORD97":2551257.5899999999,"ADDRESS":"長和一街１５巷１０７號","OBJECTID":229764},"geometry":{"x":169626.81000000052,"y":2551257.5899999999}},{"attributes":{"ID":229769,"DIS_CODE":0,"TOWNNAME":"安南區","LI":"溪心里","LIN":"3鄰","STREET":"安中路","SECT":"二段","MAREA":" ","LANE":"３３６巷","ALLEY":" ","HOUSE_NO":"４１號","E_COORD97":166477.37,"N_COORD97":2549848.6600000001,"ADDRESS":"安中路二段３３６巷４１號","OBJECTID":229765},"geometry":{"x":166477.37000000104,"y":2549848.660000002}},{"attributes":{"ID":229770,"DIS_CODE":0,"TOWNNAME":"安南區","LI":"溪心里","LIN":"3鄰","STREET":"安中路","SECT":"二段","MAREA":" ","LANE":"３３６巷","ALLEY":" ","HOUSE_NO":"３９號","E_COORD97":166472.60999999999,"N_COORD97":2549844.5299999998,"ADDRESS":"安中路二段３３６巷３９號","OBJECTID":229766},"geometry":{"x":166472.61000000127,"y":2549844.5300000031}},{"attributes":{"ID":229771,"DIS_CODE":0,"TOWNNAME":"安南區","LI":"溪心里","LIN":"3鄰","STREET":"安中路","SECT":"二段","MAREA":" ","LANE":"３３６巷","ALLEY":" ","HOUSE_NO":"４３號","E_COORD97":166480.87,"N_COORD97":2549852.1499999999,"ADDRESS":"安中路二段３３６巷４３號","OBJECTID":229767},"geometry":{"x":166480.87000000104,"y":2549852.1500000022}},{"attributes":{"ID":229772,"DIS_CODE":0,"TOWNNAME":"永康區","LI":"\u25A0行里","LIN":"34鄰","STREET":"中正北路","SECT":" ","MAREA":" ","LANE":" ","ALLEY":" ","HOUSE_NO":"１２３之１號","E_COORD97":172186.07000000001,"N_COORD97":2549101.0499999998,"ADDRESS":"中正北路１２３之１號","OBJECTID":229768},"geometry":{"x":172186.0700000003,"y":2549101.0500000026}},{"attributes":{"ID":229773,"DIS_CODE":0,"TOWNNAME":"永康區","LI":"永康里","LIN":"34鄰","STREET":"大同街","SECT":" ","MAREA":" ","LANE":" ","ALLEY":" ","HOUSE_NO":"７９１號","E_COORD97":174426.87,"N_COORD97":2546965.25,"ADDRESS":"大同街７９１號","OBJECTID":229769},"geometry":{"x":174426.87000000011,"y":2546965.2499999981}},{"attributes":{"ID":229774,"DIS_CODE":0,"TOWNNAME":"永康區","LI":"永康里","LIN":"34鄰","STREET":"大同街","SECT":" ","MAREA":" ","LANE":" ","ALLEY":" ","HOUSE_NO":"７８９號","E_COORD97":174427.78,"N_COORD97":2546960.75,"ADDRESS":"大同街７８９號","OBJECTID":229770},"geometry":{"x":174427.78000000026,"y":2546960.75}},{"attributes":{"ID":229775,"DIS_CODE":0,"TOWNNAME":"仁德區","LI":"太子里","LIN":"34鄰","STREET":"太子二街","SECT":" ","MAREA":" ","LANE":" ","ALLEY":" ","HOUSE_NO":"１４號","E_COORD97":174282.12,"N_COORD97":2543426.5099999998,"ADDRESS":"太子二街１４號","OBJECTID":229771},"geometry":{"x":174282.12000000104,"y":2543426.5099999998}},{"attributes":{"ID":229776,"DIS_CODE":0,"TOWNNAME":"歸仁區","LI":"八甲里","LIN":"23鄰","STREET":"大德路","SECT":" ","MAREA":" ","LANE":"１１４巷","ALLEY":" ","HOUSE_NO":"４２號","E_COORD97":178143.44,"N_COORD97":2541432.25,"ADDRESS":"大德路１１４巷４２號","OBJECTID":229772},"geometry":{"x":178143.44000000134,"y":2541432.2500000037}},{"attributes":{"ID":229777,"DIS_CODE":0,"TOWNNAME":"學甲區","LI":"新達里","LIN":"23鄰","STREET":" ","SECT":" ","MAREA":"瓦寮","LANE":" ","ALLEY":" ","HOUSE_NO":"１號之１","E_COORD97":168835.23999999999,"N_COORD97":2570968.04,"ADDRESS":"瓦寮１號之１","OBJECTID":229773},"geometry":{"x":168835.24000000022,"y":2570968.040000001}},{"attributes":{"ID":229778,"DIS_CODE":0,"TOWNNAME":"新營區","LI":"民榮里","LIN":"23鄰","STREET":"裕民路","SECT":" ","MAREA":" ","LANE":"１６巷","ALLEY":" ","HOUSE_NO":"７號","E_COORD97":179101.48000000001,"N_COORD97":2577911.4100000001,"ADDRESS":"裕民路１６巷７號","OBJECTID":229774},"geometry":{"x":179101.48000000045,"y":2577911.4100000001}},{"attributes":{"ID":229779,"DIS_CODE":0,"TOWNNAME":"永康區","LI":"網寮里","LIN":"20鄰","STREET":"文化路","SECT":" ","MAREA":" ","LANE":"３２３巷","ALLEY":" ","HOUSE_NO":"２０號","E_COORD97":173379.70999999999,"N_COORD97":2546140.0800000001,"ADDRESS":"文化路３２３巷２０號","OBJECTID":229775},"geometry":{"x":173379.70999999996,"y":2546140.0800000019}},{"attributes":{"ID":229780,"DIS_CODE":0,"TOWNNAME":"永康區","LI":"復華里","LIN":"32鄰","STREET":"復華十街","SECT":" ","MAREA":" ","LANE":"４５巷","ALLEY":" ","HOUSE_NO":"９號","E_COORD97":172602.38,"N_COORD97":2546372.3300000001,"ADDRESS":"復華十街４５巷９號","OBJECTID":229776},"geometry":{"x":172602.37999999989,"y":2546372.3300000019}},{"attributes":{"ID":229781,"DIS_CODE":0,"TOWNNAME":"南區","LI":"彰南里","LIN":"18鄰","STREET":"新和一路","SECT":" ","MAREA":" ","LANE":"１巷","ALLEY":" ","HOUSE_NO":"１號之１","E_COORD97":166049.16820499999,"N_COORD97":2540821.6975500002,"ADDRESS":"新和一路１巷１號之１","OBJECTID":229777},"geometry":{"x":166049.16820500139,"y":2540821.6975540016}},{"attributes":{"ID":229782,"DIS_CODE":0,"TOWNNAME":"永康區","LI":"復國里","LIN":"14鄰","STREET":"復國二路","SECT":" ","MAREA":" ","LANE":"１４０巷","ALLEY":" ","HOUSE_NO":"９號","E_COORD97":172935.72,"N_COORD97":2545608.8300000001,"ADDRESS":"復國二路１４０巷９號","OBJECTID":229778},"geometry":{"x":172935.71999999974,"y":2545608.8300000038}},{"attributes":{"ID":229783,"DIS_CODE":0,"TOWNNAME":"安南區","LI":"溪心里","LIN":"3鄰","STREET":"安中路","SECT":"二段","MAREA":" ","LANE":"３３６巷","ALLEY":" ","HOUSE_NO":"４５號","E_COORD97":166482.98000000001,"N_COORD97":2549855.27,"ADDRESS":"安中路二段３３６巷４５號","OBJECTID":229779},"geometry":{"x":166482.98000000045,"y":2549855.2699999996}},{"attributes":{"ID":229784,"DIS_CODE":0,"TOWNNAME":"永康區","LI":"正強里","LIN":"32鄰","STREET":"四維街","SECT":" ","MAREA":" ","LANE":"５１巷","ALLEY":" ","HOUSE_NO":"１５號","E_COORD97":173356.07000000001,"N_COORD97":2548038.4900000002,"ADDRESS":"四維街５１巷１５號","OBJECTID":229780},"geometry":{"x":173356.0700000003,"y":2548038.4899999984}},{"attributes":{"ID":229785,"DIS_CODE":0,"TOWNNAME":"永康區","LI":"正強里","LIN":"35鄰","STREET":"正強街","SECT":" ","MAREA":" ","LANE":"３１５巷","ALLEY":" ","HOUSE_NO":"１５號","E_COORD97":173199.23999999999,"N_COORD97":2548289.0800000001,"ADDRESS":"正強街３１５巷１５號","OBJECTID":229781},"geometry":{"x":173199.24000000209,"y":2548289.0800000038}},{"attributes":{"ID":229786,"DIS_CODE":0,"TOWNNAME":"東區","LI":"文聖里","LIN":"3鄰","STREET":"裕農一街","SECT":" ","MAREA":" ","LANE":"１６０巷","ALLEY":" ","HOUSE_NO":"７號","E_COORD97":171878.23999999999,"N_COORD97":2542744.5699999998,"ADDRESS":"裕農一街１６０巷７號","OBJECTID":229782},"geometry":{"x":171878.24000000022,"y":2542744.5700000003}},{"attributes":{"ID":229787,"DIS_CODE":0,"TOWNNAME":"永康區","LI":"勝利里","LIN":"26鄰","STREET":"勝利街","SECT":" ","MAREA":" ","LANE":"７４巷","ALLEY":" ","HOUSE_NO":"１０號","E_COORD97":171388.59,"N_COORD97":2544703,"ADDRESS":"勝利街７４巷１０號","OBJECTID":229783},"geometry":{"x":171388.58999999985,"y":2544703.0000000019}},{"attributes":{"ID":229788,"DIS_CODE":0,"TOWNNAME":"歸仁區","LI":"南保里","LIN":"34鄰","STREET":"民權八街","SECT":" ","MAREA":" ","LANE":" ","ALLEY":" ","HOUSE_NO":"１０９號","E_COORD97":176722.95999999999,"N_COORD97":2541089.25,"ADDRESS":"民權八街１０９號","OBJECTID":229784},"geometry":{"x":176722.95999999996,"y":2541089.25}},{"attributes":{"ID":229789,"DIS_CODE":0,"TOWNNAME":"北區","LI":"成德里","LIN":"34鄰","STREET":"育德三街","SECT":" ","MAREA":" ","LANE":" ","ALLEY":" ","HOUSE_NO":"９７號","E_COORD97":168166.20999999999,"N_COORD97":2546001.3500000001,"ADDRESS":"育德三街９７號","OBJECTID":229785},"geometry":{"x":168166.21000000089,"y":2546001.3500000034}},{"attributes":{"ID":229790,"DIS_CODE":0,"TOWNNAME":"南區","LI":"郡南里","LIN":"17鄰","STREET":"永成路","SECT":"三段","MAREA":" ","LANE":"２５巷","ALLEY":" ","HOUSE_NO":"４１號","E_COORD97":167403.03574699999,"N_COORD97":2540403.5723899999,"ADDRESS":"永成路三段２５巷４１號","OBJECTID":229786},"geometry":{"x":167403.03574700002,"y":2540403.5723870005}},{"attributes":{"ID":229791,"DIS_CODE":0,"TOWNNAME":"北區","LI":"成德里","LIN":"34鄰","STREET":"育德三街","SECT":" ","MAREA":" ","LANE":" ","ALLEY":" ","HOUSE_NO":"９５號","E_COORD97":168166.85000000001,"N_COORD97":2545994.75,"ADDRESS":"育德三街９５號","OBJECTID":229787},"geometry":{"x":168166.85000000056,"y":2545994.75}},{"attributes":{"ID":229792,"DIS_CODE":0,"TOWNNAME":"玉井區","LI":"玉田里","LIN":"34鄰","STREET":"大勇街","SECT":" ","MAREA":" ","LANE":" ","ALLEY":" ","HOUSE_NO":"２７號","E_COORD97":195589.91,"N_COORD97":2558186.25,"ADDRESS":"大勇街２７號","OBJECTID":229788},"geometry":{"x":195589.91000000108,"y":2558186.25}},{"attributes":{"ID":229793,"DIS_CODE":0,"TOWNNAME":"永康區","LI":"網寮里","LIN":"22鄰","STREET":"永春街","SECT":" ","MAREA":" ","LANE":"１３巷","ALLEY":" ","HOUSE_NO":"２３號","E_COORD97":173720.37,"N_COORD97":2546214.3799999999,"ADDRESS":"永春街１３巷２３號","OBJECTID":229789},"geometry":{"x":173720.37000000197,"y":2546214.3800000027}},{"attributes":{"ID":229794,"DIS_CODE":0,"TOWNNAME":"永康區","LI":"復興里","LIN":"3鄰","STREET":"復興路","SECT":" ","MAREA":" ","LANE":"２７７巷","ALLEY":" ","HOUSE_NO":"５４號","E_COORD97":172342.20999999999,"N_COORD97":2544165.0899999999,"ADDRESS":"復興路２７７巷５４號","OBJECTID":229790},"geometry":{"x":172342.20999999996,"y":2544165.0899999999}},{"attributes":{"ID":229795,"DIS_CODE":0,"TOWNNAME":"永康區","LI":"復華里","LIN":"34鄰","STREET":"復國一路","SECT":" ","MAREA":" ","LANE":"４７５巷","ALLEY":" ","HOUSE_NO":"５６號","E_COORD97":172543.28,"N_COORD97":2546004.2799999998,"ADDRESS":"復國一路４７５巷５６號","OBJECTID":229791},"geometry":{"x":172543.28000000119,"y":2546004.2799999993}},{"attributes":{"ID":229796,"DIS_CODE":0,"TOWNNAME":"永康區","LI":"復國里","LIN":"35鄰","STREET":"復國一路","SECT":" ","MAREA":" ","LANE":"６７巷","ALLEY":" ","HOUSE_NO":"８號","E_COORD97":172667.44,"N_COORD97":2544927.8799999999,"ADDRESS":"復國一路６７巷８號","OBJECTID":229792},"geometry":{"x":172667.44000000227,"y":2544927.879999999}},{"attributes":{"ID":229797,"DIS_CODE":0,"TOWNNAME":"永康區","LI":"網寮里","LIN":"19鄰","STREET":"永大一路","SECT":" ","MAREA":" ","LANE":"３８０巷","ALLEY":" ","HOUSE_NO":"９號","E_COORD97":173477.23000000001,"N_COORD97":2546185.1200000001,"ADDRESS":"永大一路３８０巷９號","OBJECTID":229793},"geometry":{"x":173477.23000000045,"y":2546185.1200000029}},{"attributes":{"ID":229798,"DIS_CODE":0,"TOWNNAME":"永康區","LI":"復華里","LIN":"12鄰","STREET":"國華街","SECT":" ","MAREA":" ","LANE":"９８巷","ALLEY":" ","HOUSE_NO":"１６號","E_COORD97":172873.73000000001,"N_COORD97":2545957.9900000002,"ADDRESS":"國華街９８巷１６號","OBJECTID":229794},"geometry":{"x":172873.73000000045,"y":2545957.9900000021}},{"attributes":{"ID":229799,"DIS_CODE":0,"TOWNNAME":"新營區","LI":"民榮里","LIN":"23鄰","STREET":"裕民路","SECT":" ","MAREA":" ","LANE":"３４巷","ALLEY":" ","HOUSE_NO":"４號","E_COORD97":179109.56,"N_COORD97":2577881.46,"ADDRESS":"裕民路３４巷４號","OBJECTID":229795},"geometry":{"x":179109.56000000052,"y":2577881.4600000009}},{"attributes":{"ID":229800,"DIS_CODE":0,"TOWNNAME":"新營區","LI":"新北里","LIN":"23鄰","STREET":"民生路","SECT":" ","MAREA":" ","LANE":"３８６巷","ALLEY":" ","HOUSE_NO":"２５號","E_COORD97":178891.76999999999,"N_COORD97":2579344.3599999999,"ADDRESS":"民生路３８６巷２５號","OBJECTID":229796},"geometry":{"x":178891.76999999955,"y":2579344.3599999994}},{"attributes":{"ID":229801,"DIS_CODE":0,"TOWNNAME":"歸仁區","LI":"歸仁里","LIN":"23鄰","STREET":"忠孝北路","SECT":" ","MAREA":" ","LANE":"２１９巷","ALLEY":" ","HOUSE_NO":"６號","E_COORD97":178037.89999999999,"N_COORD97":2541247.25,"ADDRESS":"忠孝北路２１９巷６號","OBJECTID":229797},"geometry":{"x":178037.89999999944,"y":2541247.2500000019}},{"attributes":{"ID":229802,"DIS_CODE":0,"TOWNNAME":"歸仁區","LI":"看西里","LIN":"23鄰","STREET":"成功五街","SECT":" ","MAREA":" ","LANE":"８８巷","ALLEY":" ","HOUSE_NO":"３號","E_COORD97":178418.66,"N_COORD97":2539863.3599999999,"ADDRESS":"成功五街８８巷３號","OBJECTID":229798},"geometry":{"x":178418.66000000015,"y":2539863.3599999994}},{"attributes":{"ID":229803,"DIS_CODE":0,"TOWNNAME":"永康區","LI":"網寮里","LIN":"26鄰","STREET":"永大二路","SECT":" ","MAREA":" ","LANE":" ","ALLEY":" ","HOUSE_NO":"１１８號","E_COORD97":174044.95000000001,"N_COORD97":2546505.4900000002,"ADDRESS":"永大二路１１８號","OBJECTID":229799},"geometry":{"x":174044.95000000019,"y":2546505.4900000002}},{"attributes":{"ID":229804,"DIS_CODE":0,"TOWNNAME":"永康區","LI":"復國里","LIN":"15鄰","STREET":"復國二路","SECT":" ","MAREA":" ","LANE":" ","ALLEY":" ","HOUSE_NO":"１４３號","E_COORD97":172895.73999999999,"N_COORD97":2545654.52,"ADDRESS":"復國二路１４３號","OBJECTID":229800},"geometry":{"x":172895.74000000209,"y":2545654.5200000033}}]}