{"displayFieldName":"TOWNNAME","fieldAliases":{"ID":"ID","DIS_CODE":"DIS_CODE","TOWNNAME":"TOWNNAME","LI":"LI","LIN":"LIN","STREET":"STREET","SECT":"SECT","MAREA":"MAREA","LANE":"LANE","ALLEY":"ALLEY","HOUSE_NO":"HOUSE_NO","E_COORD97":"E_COORD97","N_COORD97":"N_COORD97","ADDRESS":"ADDRESS","OBJECTID":"OBJECTID"},"geometryType":"esriGeometryPoint","spatialReference":{"wkid":102443,"latestWkid":3826},"fields":[{"name":"ID","type":"esriFieldTypeDouble","alias":"ID"},{"name":"DIS_CODE","type":"esriFieldTypeInteger","alias":"DIS_CODE"},{"name":"TOWNNAME","type":"esriFieldTypeString","alias":"TOWNNAME","length":8},{"name":"LI","type":"esriFieldTypeString","alias":"LI","length":8},{"name":"LIN","type":"esriFieldTypeString","alias":"LIN","length":12},{"name":"STREET","type":"esriFieldTypeString","alias":"STREET","length":20},{"name":"SECT","type":"esriFieldTypeString","alias":"SECT","length":8},{"name":"MAREA","type":"esriFieldTypeString","alias":"MAREA","length":12},{"name":"LANE","type":"esriFieldTypeString","alias":"LANE","length":10},{"name":"ALLEY","type":"esriFieldTypeString","alias":"ALLEY","length":10},{"name":"HOUSE_NO","type":"esriFieldTypeString","alias":"HOUSE_NO","length":20},{"name":"E_COORD97","type":"esriFieldTypeDouble","alias":"E_COORD97"},{"name":"N_COORD97","type":"esriFieldTypeDouble","alias":"N_COORD97"},{"name":"ADDRESS","type":"esriFieldTypeString","alias":"ADDRESS","length":50},{"name":"OBJECTID","type":"esriFieldTypeOID","alias":"OBJECTID"}],"features":[{"attributes":{"ID":345210,"DIS_CODE":0,"TOWNNAME":"永康區","LI":"埔園里","LIN":"5鄰","STREET":"中山路","SECT":" ","MAREA":" ","LANE":"１５８巷","ALLEY":" ","HOUSE_NO":"１８號","E_COORD97":173820.54000000001,"N_COORD97":2547817.2400000002,"ADDRESS":"中山路１５８巷１８號","OBJECTID":345201},"geometry":{"x":173820.54000000004,"y":2547817.2400000021}},{"attributes":{"ID":345211,"DIS_CODE":0,"TOWNNAME":"安南區","LI":"淵中里","LIN":"5鄰","STREET":"安中路","SECT":"四段","MAREA":" ","LANE":"４巷","ALLEY":" ","HOUSE_NO":"３９號","E_COORD97":165204.39999999999,"N_COORD97":2550171.3599999999,"ADDRESS":"安中路四段４巷３９號","OBJECTID":345202},"geometry":{"x":165204.4000000013,"y":2550171.3600000031}},{"attributes":{"ID":345212,"DIS_CODE":0,"TOWNNAME":"安南區","LI":"淵東里","LIN":"5鄰","STREET":"本原街","SECT":"三段","MAREA":" ","LANE":"１３４巷","ALLEY":" ","HOUSE_NO":"７號","E_COORD97":165566.67999999999,"N_COORD97":2550409,"ADDRESS":"本原街三段１３４巷７號","OBJECTID":345203},"geometry":{"x":165566.6799999997,"y":2550409.0000000019}},{"attributes":{"ID":345213,"DIS_CODE":0,"TOWNNAME":"東區","LI":"虎尾里","LIN":"31鄰","STREET":"自由路","SECT":"三段","MAREA":" ","LANE":" ","ALLEY":" ","HOUSE_NO":"１０號十三樓","E_COORD97":171835.88,"N_COORD97":2541863.52,"ADDRESS":"自由路三段１０號十三樓","OBJECTID":345204},"geometry":{"x":171835.87999999989,"y":2541863.5199999996}},{"attributes":{"ID":345214,"DIS_CODE":0,"TOWNNAME":"東區","LI":"虎尾里","LIN":"31鄰","STREET":"自由路","SECT":"三段","MAREA":" ","LANE":" ","ALLEY":" ","HOUSE_NO":"１０號十三樓之１","E_COORD97":171835.88,"N_COORD97":2541863.52,"ADDRESS":"自由路三段１０號十三樓之１","OBJECTID":345205},"geometry":{"x":171835.87999999989,"y":2541863.5199999996}},{"attributes":{"ID":345215,"DIS_CODE":0,"TOWNNAME":"東區","LI":"虎尾里","LIN":"31鄰","STREET":"自由路","SECT":"三段","MAREA":" ","LANE":" ","ALLEY":" ","HOUSE_NO":"１０號十三樓之２","E_COORD97":171835.88,"N_COORD97":2541863.52,"ADDRESS":"自由路三段１０號十三樓之２","OBJECTID":345206},"geometry":{"x":171835.87999999989,"y":2541863.5199999996}},{"attributes":{"ID":345216,"DIS_CODE":0,"TOWNNAME":"東區","LI":"虎尾里","LIN":"31鄰","STREET":"自由路","SECT":"三段","MAREA":" ","LANE":" ","ALLEY":" ","HOUSE_NO":"１０號十四樓","E_COORD97":171835.88,"N_COORD97":2541863.52,"ADDRESS":"自由路三段１０號十四樓","OBJECTID":345207},"geometry":{"x":171835.87999999989,"y":2541863.5199999996}},{"attributes":{"ID":345217,"DIS_CODE":0,"TOWNNAME":"東區","LI":"虎尾里","LIN":"31鄰","STREET":"自由路","SECT":"三段","MAREA":" ","LANE":" ","ALLEY":" ","HOUSE_NO":"１０號十四樓之１","E_COORD97":171835.88,"N_COORD97":2541863.52,"ADDRESS":"自由路三段１０號十四樓之１","OBJECTID":345208},"geometry":{"x":171835.87999999989,"y":2541863.5199999996}},{"attributes":{"ID":345218,"DIS_CODE":0,"TOWNNAME":"東區","LI":"虎尾里","LIN":"31鄰","STREET":"自由路","SECT":"三段","MAREA":" ","LANE":" ","ALLEY":" ","HOUSE_NO":"１０號十四樓之２","E_COORD97":171835.88,"N_COORD97":2541863.52,"ADDRESS":"自由路三段１０號十四樓之２","OBJECTID":345209},"geometry":{"x":171835.87999999989,"y":2541863.5199999996}},{"attributes":{"ID":345219,"DIS_CODE":0,"TOWNNAME":"東區","LI":"虎尾里","LIN":"31鄰","STREET":"自由路","SECT":"三段","MAREA":" ","LANE":" ","ALLEY":" ","HOUSE_NO":"１０號十樓","E_COORD97":171835.88,"N_COORD97":2541863.52,"ADDRESS":"自由路三段１０號十樓","OBJECTID":345210},"geometry":{"x":171835.87999999989,"y":2541863.5199999996}},{"attributes":{"ID":345220,"DIS_CODE":0,"TOWNNAME":"東區","LI":"中西里","LIN":"8鄰","STREET":"勝利路","SECT":" ","MAREA":" ","LANE":" ","ALLEY":" ","HOUSE_NO":"２０號之１１五樓","E_COORD97":169867.04000000001,"N_COORD97":2543420.9100000001,"ADDRESS":"勝利路２０號之１１五樓","OBJECTID":345211},"geometry":{"x":169867.04000000004,"y":2543420.9100000001}},{"attributes":{"ID":345221,"DIS_CODE":0,"TOWNNAME":"東區","LI":"中西里","LIN":"8鄰","STREET":"勝利路","SECT":" ","MAREA":" ","LANE":" ","ALLEY":" ","HOUSE_NO":"２０號之１２三樓","E_COORD97":169873.47,"N_COORD97":2543423.1099999999,"ADDRESS":"勝利路２０號之１２三樓","OBJECTID":345212},"geometry":{"x":169873.47000000067,"y":2543423.1100000013}},{"attributes":{"ID":345222,"DIS_CODE":0,"TOWNNAME":"東區","LI":"中西里","LIN":"8鄰","STREET":"勝利路","SECT":" ","MAREA":" ","LANE":" ","ALLEY":" ","HOUSE_NO":"２０號之１２四樓","E_COORD97":169873.47,"N_COORD97":2543423.1099999999,"ADDRESS":"勝利路２０號之１２四樓","OBJECTID":345213},"geometry":{"x":169873.47000000067,"y":2543423.1100000013}},{"attributes":{"ID":345223,"DIS_CODE":0,"TOWNNAME":"東區","LI":"中西里","LIN":"8鄰","STREET":"勝利路","SECT":" ","MAREA":" ","LANE":" ","ALLEY":" ","HOUSE_NO":"２０號之１２五樓","E_COORD97":169873.47,"N_COORD97":2543423.1099999999,"ADDRESS":"勝利路２０號之１２五樓","OBJECTID":345214},"geometry":{"x":169873.47000000067,"y":2543423.1100000013}},{"attributes":{"ID":345224,"DIS_CODE":0,"TOWNNAME":"東區","LI":"虎尾里","LIN":"31鄰","STREET":"自由路","SECT":"三段","MAREA":" ","LANE":" ","ALLEY":" ","HOUSE_NO":"１０號十樓之１","E_COORD97":171835.88,"N_COORD97":2541863.52,"ADDRESS":"自由路三段１０號十樓之１","OBJECTID":345215},"geometry":{"x":171835.87999999989,"y":2541863.5199999996}},{"attributes":{"ID":345225,"DIS_CODE":0,"TOWNNAME":"東區","LI":"虎尾里","LIN":"31鄰","STREET":"自由路","SECT":"三段","MAREA":" ","LANE":" ","ALLEY":" ","HOUSE_NO":"１０號十樓之２","E_COORD97":171835.88,"N_COORD97":2541863.52,"ADDRESS":"自由路三段１０號十樓之２","OBJECTID":345216},"geometry":{"x":171835.87999999989,"y":2541863.5199999996}},{"attributes":{"ID":345226,"DIS_CODE":0,"TOWNNAME":"東區","LI":"虎尾里","LIN":"31鄰","STREET":"自由路","SECT":"三段","MAREA":" ","LANE":" ","ALLEY":" ","HOUSE_NO":"１０號三樓","E_COORD97":171835.88,"N_COORD97":2541863.52,"ADDRESS":"自由路三段１０號三樓","OBJECTID":345217},"geometry":{"x":171835.87999999989,"y":2541863.5199999996}},{"attributes":{"ID":345227,"DIS_CODE":0,"TOWNNAME":"新市區","LI":"豐華里","LIN":"5鄰","STREET":" ","SECT":" ","MAREA":"豐華","LANE":" ","ALLEY":" ","HOUSE_NO":"３７之５０號","E_COORD97":173566.20000000001,"N_COORD97":2554214.2999999998,"ADDRESS":"豐華３７之５０號","OBJECTID":345218},"geometry":{"x":173566.20000000112,"y":2554214.2999999989}},{"attributes":{"ID":345228,"DIS_CODE":0,"TOWNNAME":"新市區","LI":"豐華里","LIN":"5鄰","STREET":" ","SECT":" ","MAREA":"豐華","LANE":" ","ALLEY":" ","HOUSE_NO":"４２之１０號","E_COORD97":173862.70999999999,"N_COORD97":2554369.7999999998,"ADDRESS":"豐華４２之１０號","OBJECTID":345219},"geometry":{"x":173862.71000000089,"y":2554369.8000000007}},{"attributes":{"ID":345229,"DIS_CODE":0,"TOWNNAME":"新市區","LI":"豐華里","LIN":"5鄰","STREET":" ","SECT":" ","MAREA":"豐華","LANE":" ","ALLEY":" ","HOUSE_NO":"４２之８號","E_COORD97":173856.45999999999,"N_COORD97":2554376.5499999998,"ADDRESS":"豐華４２之８號","OBJECTID":345220},"geometry":{"x":173856.45999999996,"y":2554376.5500000026}},{"attributes":{"ID":345230,"DIS_CODE":0,"TOWNNAME":"東區","LI":"虎尾里","LIN":"31鄰","STREET":"自由路","SECT":"三段","MAREA":" ","LANE":" ","ALLEY":" ","HOUSE_NO":"１０號三樓之１","E_COORD97":171835.88,"N_COORD97":2541863.52,"ADDRESS":"自由路三段１０號三樓之１","OBJECTID":345221},"geometry":{"x":171835.87999999989,"y":2541863.5199999996}},{"attributes":{"ID":345231,"DIS_CODE":0,"TOWNNAME":"東區","LI":"虎尾里","LIN":"31鄰","STREET":"自由路","SECT":"三段","MAREA":" ","LANE":" ","ALLEY":" ","HOUSE_NO":"１０號三樓之２","E_COORD97":171835.88,"N_COORD97":2541863.52,"ADDRESS":"自由路三段１０號三樓之２","OBJECTID":345222},"geometry":{"x":171835.87999999989,"y":2541863.5199999996}},{"attributes":{"ID":345232,"DIS_CODE":0,"TOWNNAME":"東區","LI":"虎尾里","LIN":"31鄰","STREET":"自由路","SECT":"三段","MAREA":" ","LANE":" ","ALLEY":" ","HOUSE_NO":"１０號五樓","E_COORD97":171835.88,"N_COORD97":2541863.52,"ADDRESS":"自由路三段１０號五樓","OBJECTID":345223},"geometry":{"x":171835.87999999989,"y":2541863.5199999996}},{"attributes":{"ID":345233,"DIS_CODE":0,"TOWNNAME":"東區","LI":"虎尾里","LIN":"31鄰","STREET":"自由路","SECT":"三段","MAREA":" ","LANE":" ","ALLEY":" ","HOUSE_NO":"１０號五樓之１","E_COORD97":171835.88,"N_COORD97":2541863.52,"ADDRESS":"自由路三段１０號五樓之１","OBJECTID":345224},"geometry":{"x":171835.87999999989,"y":2541863.5199999996}},{"attributes":{"ID":345234,"DIS_CODE":0,"TOWNNAME":"東區","LI":"虎尾里","LIN":"31鄰","STREET":"自由路","SECT":"三段","MAREA":" ","LANE":" ","ALLEY":" ","HOUSE_NO":"１０號五樓之２","E_COORD97":171835.88,"N_COORD97":2541863.52,"ADDRESS":"自由路三段１０號五樓之２","OBJECTID":345225},"geometry":{"x":171835.87999999989,"y":2541863.5199999996}},{"attributes":{"ID":345235,"DIS_CODE":0,"TOWNNAME":"東區","LI":"虎尾里","LIN":"31鄰","STREET":"自由路","SECT":"三段","MAREA":" ","LANE":" ","ALLEY":" ","HOUSE_NO":"１０號六樓","E_COORD97":171835.88,"N_COORD97":2541863.52,"ADDRESS":"自由路三段１０號六樓","OBJECTID":345226},"geometry":{"x":171835.87999999989,"y":2541863.5199999996}},{"attributes":{"ID":345236,"DIS_CODE":0,"TOWNNAME":"東區","LI":"虎尾里","LIN":"31鄰","STREET":"自由路","SECT":"三段","MAREA":" ","LANE":" ","ALLEY":" ","HOUSE_NO":"１０號六樓之１","E_COORD97":171835.88,"N_COORD97":2541863.52,"ADDRESS":"自由路三段１０號六樓之１","OBJECTID":345227},"geometry":{"x":171835.87999999989,"y":2541863.5199999996}},{"attributes":{"ID":345237,"DIS_CODE":0,"TOWNNAME":"東區","LI":"虎尾里","LIN":"31鄰","STREET":"自由路","SECT":"三段","MAREA":" ","LANE":" ","ALLEY":" ","HOUSE_NO":"１０號六樓之２","E_COORD97":171835.88,"N_COORD97":2541863.52,"ADDRESS":"自由路三段１０號六樓之２","OBJECTID":345228},"geometry":{"x":171835.87999999989,"y":2541863.5199999996}},{"attributes":{"ID":345238,"DIS_CODE":0,"TOWNNAME":"東區","LI":"虎尾里","LIN":"31鄰","STREET":"自由路","SECT":"三段","MAREA":" ","LANE":" ","ALLEY":" ","HOUSE_NO":"１０號四樓","E_COORD97":171835.88,"N_COORD97":2541863.52,"ADDRESS":"自由路三段１０號四樓","OBJECTID":345229},"geometry":{"x":171835.87999999989,"y":2541863.5199999996}},{"attributes":{"ID":345239,"DIS_CODE":0,"TOWNNAME":"東區","LI":"虎尾里","LIN":"31鄰","STREET":"自由路","SECT":"三段","MAREA":" ","LANE":" ","ALLEY":" ","HOUSE_NO":"１０號四樓之１","E_COORD97":171835.88,"N_COORD97":2541863.52,"ADDRESS":"自由路三段１０號四樓之１","OBJECTID":345230},"geometry":{"x":171835.87999999989,"y":2541863.5199999996}},{"attributes":{"ID":345240,"DIS_CODE":0,"TOWNNAME":"東區","LI":"虎尾里","LIN":"31鄰","STREET":"自由路","SECT":"三段","MAREA":" ","LANE":" ","ALLEY":" ","HOUSE_NO":"１０號四樓之２","E_COORD97":171835.88,"N_COORD97":2541863.52,"ADDRESS":"自由路三段１０號四樓之２","OBJECTID":345231},"geometry":{"x":171835.87999999989,"y":2541863.5199999996}},{"attributes":{"ID":345241,"DIS_CODE":0,"TOWNNAME":"東區","LI":"虎尾里","LIN":"31鄰","STREET":"自由路","SECT":"三段","MAREA":" ","LANE":" ","ALLEY":" ","HOUSE_NO":"１６號二樓","E_COORD97":171848.25,"N_COORD97":2541867.5800000001,"ADDRESS":"自由路三段１６號二樓","OBJECTID":345232},"geometry":{"x":171848.25000000093,"y":2541867.5800000038}},{"attributes":{"ID":345242,"DIS_CODE":0,"TOWNNAME":"佳里區","LI":"鎮山里","LIN":"1鄰","STREET":"四安街","SECT":" ","MAREA":" ","LANE":" ","ALLEY":" ","HOUSE_NO":"６號","E_COORD97":165893.87,"N_COORD97":2561869.9700000002,"ADDRESS":"四安街６號","OBJECTID":345233},"geometry":{"x":165893.87000000104,"y":2561869.9700000025}},{"attributes":{"ID":345243,"DIS_CODE":0,"TOWNNAME":"東區","LI":"虎尾里","LIN":"31鄰","STREET":"自由路","SECT":"三段","MAREA":" ","LANE":" ","ALLEY":" ","HOUSE_NO":"１０號七樓","E_COORD97":171835.88,"N_COORD97":2541863.52,"ADDRESS":"自由路三段１０號七樓","OBJECTID":345234},"geometry":{"x":171835.87999999989,"y":2541863.5199999996}},{"attributes":{"ID":345244,"DIS_CODE":0,"TOWNNAME":"山上區","LI":"玉\u25A0里","LIN":"5鄰","STREET":" ","SECT":" ","MAREA":"中坑","LANE":" ","ALLEY":" ","HOUSE_NO":"１１之３號","E_COORD97":187663.06,"N_COORD97":2554718.2999999998,"ADDRESS":"中坑１１之３號","OBJECTID":345235},"geometry":{"x":187663.06000000145,"y":2554718.3000000007}},{"attributes":{"ID":345245,"DIS_CODE":0,"TOWNNAME":"山上區","LI":"平陽里","LIN":"5鄰","STREET":" ","SECT":" ","MAREA":"卓猴","LANE":" ","ALLEY":" ","HOUSE_NO":"３號","E_COORD97":187182.859402,"N_COORD97":2553375.2579700002,"ADDRESS":"卓猴３號","OBJECTID":345236},"geometry":{"x":187182.85940199997,"y":2553375.2579730023}},{"attributes":{"ID":345246,"DIS_CODE":0,"TOWNNAME":"東區","LI":"大學里","LIN":"5鄰","STREET":"東寧路","SECT":" ","MAREA":" ","LANE":"３巷","ALLEY":" ","HOUSE_NO":"３４號","E_COORD97":170005.54999999999,"N_COORD97":2543779.9700000002,"ADDRESS":"東寧路３巷３４號","OBJECTID":345237},"geometry":{"x":170005.54999999981,"y":2543779.9700000007}},{"attributes":{"ID":345247,"DIS_CODE":0,"TOWNNAME":"東區","LI":"虎尾里","LIN":"31鄰","STREET":"自由路","SECT":"三段","MAREA":" ","LANE":" ","ALLEY":" ","HOUSE_NO":"１０號七樓之１","E_COORD97":171835.88,"N_COORD97":2541863.52,"ADDRESS":"自由路三段１０號七樓之１","OBJECTID":345238},"geometry":{"x":171835.87999999989,"y":2541863.5199999996}},{"attributes":{"ID":345248,"DIS_CODE":0,"TOWNNAME":"東區","LI":"虎尾里","LIN":"31鄰","STREET":"自由路","SECT":"三段","MAREA":" ","LANE":" ","ALLEY":" ","HOUSE_NO":"１０號七樓之２","E_COORD97":171835.88,"N_COORD97":2541863.52,"ADDRESS":"自由路三段１０號七樓之２","OBJECTID":345239},"geometry":{"x":171835.87999999989,"y":2541863.5199999996}},{"attributes":{"ID":345249,"DIS_CODE":0,"TOWNNAME":"東區","LI":"虎尾里","LIN":"31鄰","STREET":"自由路","SECT":"三段","MAREA":" ","LANE":" ","ALLEY":" ","HOUSE_NO":"１０號九樓","E_COORD97":171835.88,"N_COORD97":2541863.52,"ADDRESS":"自由路三段１０號九樓","OBJECTID":345240},"geometry":{"x":171835.87999999989,"y":2541863.5199999996}},{"attributes":{"ID":345250,"DIS_CODE":0,"TOWNNAME":"東區","LI":"虎尾里","LIN":"31鄰","STREET":"自由路","SECT":"三段","MAREA":" ","LANE":" ","ALLEY":" ","HOUSE_NO":"１０號九樓之１","E_COORD97":171835.88,"N_COORD97":2541863.52,"ADDRESS":"自由路三段１０號九樓之１","OBJECTID":345241},"geometry":{"x":171835.87999999989,"y":2541863.5199999996}},{"attributes":{"ID":345251,"DIS_CODE":0,"TOWNNAME":"東區","LI":"虎尾里","LIN":"31鄰","STREET":"自由路","SECT":"三段","MAREA":" ","LANE":" ","ALLEY":" ","HOUSE_NO":"１０號九樓之２","E_COORD97":171835.88,"N_COORD97":2541863.52,"ADDRESS":"自由路三段１０號九樓之２","OBJECTID":345242},"geometry":{"x":171835.87999999989,"y":2541863.5199999996}},{"attributes":{"ID":345252,"DIS_CODE":0,"TOWNNAME":"東區","LI":"虎尾里","LIN":"31鄰","STREET":"自由路","SECT":"三段","MAREA":" ","LANE":" ","ALLEY":" ","HOUSE_NO":"１０號八樓","E_COORD97":171835.88,"N_COORD97":2541863.52,"ADDRESS":"自由路三段１０號八樓","OBJECTID":345243},"geometry":{"x":171835.87999999989,"y":2541863.5199999996}},{"attributes":{"ID":345253,"DIS_CODE":0,"TOWNNAME":"山上區","LI":"山上里","LIN":"5鄰","STREET":" ","SECT":" ","MAREA":"山上","LANE":" ","ALLEY":" ","HOUSE_NO":"８８號","E_COORD97":184300.76000000001,"N_COORD97":2555691.25,"ADDRESS":"山上８８號","OBJECTID":345244},"geometry":{"x":184300.76000000071,"y":2555691.25}},{"attributes":{"ID":345254,"DIS_CODE":0,"TOWNNAME":"東區","LI":"虎尾里","LIN":"31鄰","STREET":"自由路","SECT":"三段","MAREA":" ","LANE":" ","ALLEY":" ","HOUSE_NO":"２號七樓","E_COORD97":171833.85000000001,"N_COORD97":2541839.73,"ADDRESS":"自由路三段２號七樓","OBJECTID":345245},"geometry":{"x":171833.85000000056,"y":2541839.7300000042}},{"attributes":{"ID":345255,"DIS_CODE":0,"TOWNNAME":"東區","LI":"虎尾里","LIN":"31鄰","STREET":"自由路","SECT":"三段","MAREA":" ","LANE":" ","ALLEY":" ","HOUSE_NO":"２號七樓之１","E_COORD97":171833.85000000001,"N_COORD97":2541839.73,"ADDRESS":"自由路三段２號七樓之１","OBJECTID":345246},"geometry":{"x":171833.85000000056,"y":2541839.7300000042}},{"attributes":{"ID":345256,"DIS_CODE":0,"TOWNNAME":"東區","LI":"虎尾里","LIN":"31鄰","STREET":"自由路","SECT":"三段","MAREA":" ","LANE":" ","ALLEY":" ","HOUSE_NO":"２號九樓","E_COORD97":171833.85000000001,"N_COORD97":2541839.73,"ADDRESS":"自由路三段２號九樓","OBJECTID":345247},"geometry":{"x":171833.85000000056,"y":2541839.7300000042}},{"attributes":{"ID":345257,"DIS_CODE":0,"TOWNNAME":"東區","LI":"虎尾里","LIN":"31鄰","STREET":"自由路","SECT":"三段","MAREA":" ","LANE":" ","ALLEY":" ","HOUSE_NO":"２號九樓之１","E_COORD97":171833.85000000001,"N_COORD97":2541839.73,"ADDRESS":"自由路三段２號九樓之１","OBJECTID":345248},"geometry":{"x":171833.85000000056,"y":2541839.7300000042}},{"attributes":{"ID":345258,"DIS_CODE":0,"TOWNNAME":"山上區","LI":"玉\u25A0里","LIN":"5鄰","STREET":" ","SECT":" ","MAREA":"中坑","LANE":" ","ALLEY":" ","HOUSE_NO":"２號","E_COORD97":187721.366515,"N_COORD97":2554890.1143,"ADDRESS":"中坑２號","OBJECTID":345249},"geometry":{"x":187721.36651500035,"y":2554890.1142989993}},{"attributes":{"ID":345259,"DIS_CODE":0,"TOWNNAME":"山上區","LI":"明和里","LIN":"5鄰","STREET":" ","SECT":" ","MAREA":"明和","LANE":" ","ALLEY":" ","HOUSE_NO":"１４３號","E_COORD97":183212.73999999999,"N_COORD97":2556120.25,"ADDRESS":"明和１４３號","OBJECTID":345250},"geometry":{"x":183212.74000000209,"y":2556120.2500000019}},{"attributes":{"ID":345260,"DIS_CODE":0,"TOWNNAME":"山上區","LI":"明和里","LIN":"5鄰","STREET":" ","SECT":" ","MAREA":"明和","LANE":" ","ALLEY":" ","HOUSE_NO":"１３９之７號","E_COORD97":183153.84,"N_COORD97":2556094.2999999998,"ADDRESS":"明和１３９之７號","OBJECTID":345251},"geometry":{"x":183153.83999999892,"y":2556094.3000000026}},{"attributes":{"ID":345261,"DIS_CODE":0,"TOWNNAME":"山上區","LI":"明和里","LIN":"5鄰","STREET":" ","SECT":" ","MAREA":"明和","LANE":" ","ALLEY":" ","HOUSE_NO":"１３９之９號","E_COORD97":183162.23999999999,"N_COORD97":2556096.2999999998,"ADDRESS":"明和１３９之９號","OBJECTID":345252},"geometry":{"x":183162.24000000115,"y":2556096.3000000045}},{"attributes":{"ID":345262,"DIS_CODE":0,"TOWNNAME":"山上區","LI":"新莊里","LIN":"5鄰","STREET":" ","SECT":" ","MAREA":"新庄","LANE":" ","ALLEY":" ","HOUSE_NO":"５７之２號","E_COORD97":184841.95999999999,"N_COORD97":2555161.2999999998,"ADDRESS":"新庄５７之２號","OBJECTID":345253},"geometry":{"x":184841.96000000089,"y":2555161.3000000026}},{"attributes":{"ID":345263,"DIS_CODE":0,"TOWNNAME":"山上區","LI":"明和里","LIN":"5鄰","STREET":" ","SECT":" ","MAREA":"明和","LANE":" ","ALLEY":" ","HOUSE_NO":"１３８號","E_COORD97":183150.44,"N_COORD97":2556139.25,"ADDRESS":"明和１３８號","OBJECTID":345254},"geometry":{"x":183150.44000000227,"y":2556139.25}},{"attributes":{"ID":345264,"DIS_CODE":0,"TOWNNAME":"山上區","LI":"玉\u25A0里","LIN":"5鄰","STREET":" ","SECT":" ","MAREA":"中坑","LANE":" ","ALLEY":" ","HOUSE_NO":"１３號","E_COORD97":187670.228699,"N_COORD97":2554773.5143599999,"ADDRESS":"中坑１３號","OBJECTID":345255},"geometry":{"x":187670.22869900055,"y":2554773.514357999}},{"attributes":{"ID":345265,"DIS_CODE":0,"TOWNNAME":"山上區","LI":"南洲里","LIN":"5鄰","STREET":" ","SECT":" ","MAREA":"南洲","LANE":" ","ALLEY":" ","HOUSE_NO":"１８６之２號","E_COORD97":183854.434324,"N_COORD97":2555523.9095100001,"ADDRESS":"南洲１８６之２號","OBJECTID":345256},"geometry":{"x":183854.43432400096,"y":2555523.9095090013}},{"attributes":{"ID":345266,"DIS_CODE":0,"TOWNNAME":"山上區","LI":"新莊里","LIN":"5鄰","STREET":" ","SECT":" ","MAREA":"新庄","LANE":" ","ALLEY":" ","HOUSE_NO":"５３之２號","E_COORD97":184868.85000000001,"N_COORD97":2555242.6499999999,"ADDRESS":"新庄５３之２號","OBJECTID":345257},"geometry":{"x":184868.84999999963,"y":2555242.6500000041}},{"attributes":{"ID":345267,"DIS_CODE":0,"TOWNNAME":"善化區","LI":"小新里","LIN":"5鄰","STREET":" ","SECT":" ","MAREA":"小新營","LANE":" ","ALLEY":" ","HOUSE_NO":"４２號之１","E_COORD97":179745.35000000001,"N_COORD97":2558292.27,"ADDRESS":"小新營４２號之１","OBJECTID":345258},"geometry":{"x":179745.35000000056,"y":2558292.2700000033}},{"attributes":{"ID":345268,"DIS_CODE":0,"TOWNNAME":"善化區","LI":"田寮里","LIN":"5鄰","STREET":" ","SECT":" ","MAREA":"六分寮","LANE":" ","ALLEY":" ","HOUSE_NO":"５８號之１","E_COORD97":178468.04999999999,"N_COORD97":2561220.27,"ADDRESS":"六分寮５８號之１","OBJECTID":345259},"geometry":{"x":178468.04999999981,"y":2561220.2699999996}},{"attributes":{"ID":345269,"DIS_CODE":0,"TOWNNAME":"善化區","LI":"六分里","LIN":"5鄰","STREET":" ","SECT":" ","MAREA":"東勢宅","LANE":" ","ALLEY":" ","HOUSE_NO":"３２號","E_COORD97":177759.47,"N_COORD97":2561097.2599999998,"ADDRESS":"東勢宅３２號","OBJECTID":345260},"geometry":{"x":177759.47000000067,"y":2561097.2600000016}},{"attributes":{"ID":345270,"DIS_CODE":0,"TOWNNAME":"善化區","LI":"六德里","LIN":"5鄰","STREET":" ","SECT":" ","MAREA":"六分寮","LANE":" ","ALLEY":" ","HOUSE_NO":"２３５號","E_COORD97":178854.44,"N_COORD97":2561716.25,"ADDRESS":"六分寮２３５號","OBJECTID":345261},"geometry":{"x":178854.44000000041,"y":2561716.25}},{"attributes":{"ID":345271,"DIS_CODE":0,"TOWNNAME":"善化區","LI":"嘉南里","LIN":"5鄰","STREET":" ","SECT":" ","MAREA":"茄拔","LANE":" ","ALLEY":" ","HOUSE_NO":"９１號","E_COORD97":180952.59,"N_COORD97":2559454.0099999998,"ADDRESS":"茄拔９１號","OBJECTID":345262},"geometry":{"x":180952.59000000078,"y":2559454.0100000016}},{"attributes":{"ID":345272,"DIS_CODE":0,"TOWNNAME":"善化區","LI":"牛庄里","LIN":"5鄰","STREET":" ","SECT":" ","MAREA":"牛庄","LANE":" ","ALLEY":" ","HOUSE_NO":"４９號","E_COORD97":180235.04764400001,"N_COORD97":2559892.4160500001,"ADDRESS":"牛庄４９號","OBJECTID":345263},"geometry":{"x":180235.04764399957,"y":2559892.416050002}},{"attributes":{"ID":345273,"DIS_CODE":0,"TOWNNAME":"仁德區","LI":"新田里","LIN":"5鄰","STREET":"勝利二街","SECT":" ","MAREA":" ","LANE":"３９巷","ALLEY":" ","HOUSE_NO":"１號","E_COORD97":174875.89000000001,"N_COORD97":2539288.5099999998,"ADDRESS":"勝利二街３９巷１號","OBJECTID":345264},"geometry":{"x":174875.89000000153,"y":2539288.5100000016}},{"attributes":{"ID":345274,"DIS_CODE":0,"TOWNNAME":"仁德區","LI":"上崙里","LIN":"5鄰","STREET":"德崙路","SECT":" ","MAREA":" ","LANE":"３２３巷","ALLEY":" ","HOUSE_NO":"７號","E_COORD97":173967.54000000001,"N_COORD97":2538171.2599999998,"ADDRESS":"德崙路３２３巷７號","OBJECTID":345265},"geometry":{"x":173967.54000000004,"y":2538171.2600000016}},{"attributes":{"ID":345275,"DIS_CODE":0,"TOWNNAME":"仁德區","LI":"一甲里","LIN":"5鄰","STREET":"中正路","SECT":"三段","MAREA":" ","LANE":"１６２巷","ALLEY":" ","HOUSE_NO":"９０號","E_COORD97":173686.92000000001,"N_COORD97":2541704.0600000001,"ADDRESS":"中正路三段１６２巷９０號","OBJECTID":345266},"geometry":{"x":173686.91999999993,"y":2541704.0600000005}},{"attributes":{"ID":345276,"DIS_CODE":0,"TOWNNAME":"東區","LI":"虎尾里","LIN":"31鄰","STREET":"自由路","SECT":"三段","MAREA":" ","LANE":" ","ALLEY":" ","HOUSE_NO":"２號八樓","E_COORD97":171833.85000000001,"N_COORD97":2541839.73,"ADDRESS":"自由路三段２號八樓","OBJECTID":345267},"geometry":{"x":171833.85000000056,"y":2541839.7300000042}},{"attributes":{"ID":345277,"DIS_CODE":0,"TOWNNAME":"東區","LI":"虎尾里","LIN":"31鄰","STREET":"自由路","SECT":"三段","MAREA":" ","LANE":" ","ALLEY":" ","HOUSE_NO":"２號八樓之１","E_COORD97":171833.85000000001,"N_COORD97":2541839.73,"ADDRESS":"自由路三段２號八樓之１","OBJECTID":345268},"geometry":{"x":171833.85000000056,"y":2541839.7300000042}},{"attributes":{"ID":345278,"DIS_CODE":0,"TOWNNAME":"東區","LI":"虎尾里","LIN":"31鄰","STREET":"自由路","SECT":"三段","MAREA":" ","LANE":" ","ALLEY":" ","HOUSE_NO":"２號十一樓","E_COORD97":171833.85000000001,"N_COORD97":2541839.73,"ADDRESS":"自由路三段２號十一樓","OBJECTID":345269},"geometry":{"x":171833.85000000056,"y":2541839.7300000042}},{"attributes":{"ID":345279,"DIS_CODE":0,"TOWNNAME":"善化區","LI":"光文里","LIN":"5鄰","STREET":" ","SECT":" ","MAREA":"北子店","LANE":" ","ALLEY":" ","HOUSE_NO":"２８９號","E_COORD97":179201.81,"N_COORD97":2559674,"ADDRESS":"北子店２８９號","OBJECTID":345270},"geometry":{"x":179201.80999999959,"y":2559673.9999999981}},{"attributes":{"ID":345280,"DIS_CODE":0,"TOWNNAME":"善化區","LI":"胡厝里","LIN":"5鄰","STREET":" ","SECT":" ","MAREA":"胡厝寮","LANE":" ","ALLEY":" ","HOUSE_NO":"９７之３號","E_COORD97":175323.42000000001,"N_COORD97":2560444.52,"ADDRESS":"胡厝寮９７之３號","OBJECTID":345271},"geometry":{"x":175323.42000000179,"y":2560444.5200000014}},{"attributes":{"ID":345281,"DIS_CODE":0,"TOWNNAME":"東區","LI":"虎尾里","LIN":"31鄰","STREET":"自由路","SECT":"三段","MAREA":" ","LANE":" ","ALLEY":" ","HOUSE_NO":"２號十一樓之１","E_COORD97":171833.85000000001,"N_COORD97":2541839.73,"ADDRESS":"自由路三段２號十一樓之１","OBJECTID":345272},"geometry":{"x":171833.85000000056,"y":2541839.7300000042}},{"attributes":{"ID":345282,"DIS_CODE":0,"TOWNNAME":"東區","LI":"虎尾里","LIN":"31鄰","STREET":"自由路","SECT":"三段","MAREA":" ","LANE":" ","ALLEY":" ","HOUSE_NO":"２號十二樓","E_COORD97":171833.85000000001,"N_COORD97":2541839.73,"ADDRESS":"自由路三段２號十二樓","OBJECTID":345273},"geometry":{"x":171833.85000000056,"y":2541839.7300000042}},{"attributes":{"ID":345283,"DIS_CODE":0,"TOWNNAME":"善化區","LI":"六分里","LIN":"5鄰","STREET":" ","SECT":" ","MAREA":"東勢宅","LANE":" ","ALLEY":" ","HOUSE_NO":"２３號之１","E_COORD97":177792.67999999999,"N_COORD97":2561004.77,"ADDRESS":"東勢宅２３號之１","OBJECTID":345274},"geometry":{"x":177792.6799999997,"y":2561004.7700000014}},{"attributes":{"ID":345284,"DIS_CODE":0,"TOWNNAME":"東區","LI":"虎尾里","LIN":"31鄰","STREET":"自由路","SECT":"三段","MAREA":" ","LANE":" ","ALLEY":" ","HOUSE_NO":"２號十二樓之１","E_COORD97":171833.85000000001,"N_COORD97":2541839.73,"ADDRESS":"自由路三段２號十二樓之１","OBJECTID":345275},"geometry":{"x":171833.85000000056,"y":2541839.7300000042}},{"attributes":{"ID":345285,"DIS_CODE":0,"TOWNNAME":"仁德區","LI":"中生里","LIN":"5鄰","STREET":" ","SECT":" ","MAREA":"中洲","LANE":" ","ALLEY":" ","HOUSE_NO":"１２５號之６","E_COORD97":172925.51000000001,"N_COORD97":2534260.29,"ADDRESS":"中洲１２５號之６","OBJECTID":345276},"geometry":{"x":172925.50999999885,"y":2534260.2899999972}},{"attributes":{"ID":345286,"DIS_CODE":0,"TOWNNAME":"仁德區","LI":"中生里","LIN":"5鄰","STREET":" ","SECT":" ","MAREA":"中洲","LANE":" ","ALLEY":" ","HOUSE_NO":"１２６之９號","E_COORD97":172933.87,"N_COORD97":2534243.54,"ADDRESS":"中洲１２６之９號","OBJECTID":345277},"geometry":{"x":172933.87000000104,"y":2534243.5399999991}},{"attributes":{"ID":345287,"DIS_CODE":0,"TOWNNAME":"東區","LI":"虎尾里","LIN":"31鄰","STREET":"自由路","SECT":"三段","MAREA":" ","LANE":" ","ALLEY":" ","HOUSE_NO":"２號十三樓","E_COORD97":171833.85000000001,"N_COORD97":2541839.73,"ADDRESS":"自由路三段２號十三樓","OBJECTID":345278},"geometry":{"x":171833.85000000056,"y":2541839.7300000042}},{"attributes":{"ID":345288,"DIS_CODE":0,"TOWNNAME":"仁德區","LI":"三甲里","LIN":"5鄰","STREET":" ","SECT":" ","MAREA":"三甲子","LANE":" ","ALLEY":" ","HOUSE_NO":"４６號之２","E_COORD97":171864.94,"N_COORD97":2536729.04,"ADDRESS":"三甲子４６號之２","OBJECTID":345279},"geometry":{"x":171864.94000000041,"y":2536729.0399999991}},{"attributes":{"ID":345289,"DIS_CODE":0,"TOWNNAME":"東區","LI":"中西里","LIN":"8鄰","STREET":"勝利路","SECT":" ","MAREA":" ","LANE":" ","ALLEY":" ","HOUSE_NO":"２０號之１０四樓","E_COORD97":169859.51999999999,"N_COORD97":2543415.0499999998,"ADDRESS":"勝利路２０號之１０四樓","OBJECTID":345280},"geometry":{"x":169859.52000000048,"y":2543415.0500000026}},{"attributes":{"ID":345290,"DIS_CODE":0,"TOWNNAME":"東區","LI":"中西里","LIN":"8鄰","STREET":"勝利路","SECT":" ","MAREA":" ","LANE":" ","ALLEY":" ","HOUSE_NO":"３８號三樓","E_COORD97":169810.51000000001,"N_COORD97":2543481.5,"ADDRESS":"勝利路３８號三樓","OBJECTID":345281},"geometry":{"x":169810.51000000071,"y":2543481.5}},{"attributes":{"ID":345291,"DIS_CODE":0,"TOWNNAME":"仁德區","LI":"三甲里","LIN":"5鄰","STREET":" ","SECT":" ","MAREA":"三甲子","LANE":" ","ALLEY":" ","HOUSE_NO":"４７之１號","E_COORD97":171943.39999999999,"N_COORD97":2536637.04,"ADDRESS":"三甲子４７之１號","OBJECTID":345282},"geometry":{"x":171943.40000000037,"y":2536637.040000001}},{"attributes":{"ID":345292,"DIS_CODE":0,"TOWNNAME":"東區","LI":"中西里","LIN":"8鄰","STREET":"勝利路","SECT":" ","MAREA":" ","LANE":" ","ALLEY":" ","HOUSE_NO":"３８號四樓","E_COORD97":169810.51000000001,"N_COORD97":2543481.5,"ADDRESS":"勝利路３８號四樓","OBJECTID":345283},"geometry":{"x":169810.51000000071,"y":2543481.5}},{"attributes":{"ID":345293,"DIS_CODE":0,"TOWNNAME":"仁德區","LI":"三甲里","LIN":"5鄰","STREET":" ","SECT":" ","MAREA":"三甲子","LANE":" ","ALLEY":" ","HOUSE_NO":"４７號之５","E_COORD97":171917.14000000001,"N_COORD97":2536694.2999999998,"ADDRESS":"三甲子４７號之５","OBJECTID":345284},"geometry":{"x":171917.13999999966,"y":2536694.3000000026}},{"attributes":{"ID":345294,"DIS_CODE":0,"TOWNNAME":"仁德區","LI":"三甲里","LIN":"5鄰","STREET":" ","SECT":" ","MAREA":"三甲子","LANE":" ","ALLEY":" ","HOUSE_NO":"４６號之１","E_COORD97":171867.17000000001,"N_COORD97":2536687.2999999998,"ADDRESS":"三甲子４６號之１","OBJECTID":345285},"geometry":{"x":171867.17000000086,"y":2536687.3000000026}},{"attributes":{"ID":345295,"DIS_CODE":0,"TOWNNAME":"仁德區","LI":"三甲里","LIN":"5鄰","STREET":" ","SECT":" ","MAREA":"三甲子","LANE":" ","ALLEY":" ","HOUSE_NO":"４６號之８","E_COORD97":171905.17999999999,"N_COORD97":2536721.29,"ADDRESS":"三甲子４６號之８","OBJECTID":345286},"geometry":{"x":171905.1799999997,"y":2536721.2899999991}},{"attributes":{"ID":345296,"DIS_CODE":0,"TOWNNAME":"東區","LI":"虎尾里","LIN":"31鄰","STREET":"自由路","SECT":"三段","MAREA":" ","LANE":" ","ALLEY":" ","HOUSE_NO":"２號十三樓之１","E_COORD97":171833.85000000001,"N_COORD97":2541839.73,"ADDRESS":"自由路三段２號十三樓之１","OBJECTID":345287},"geometry":{"x":171833.85000000056,"y":2541839.7300000042}},{"attributes":{"ID":345297,"DIS_CODE":0,"TOWNNAME":"東區","LI":"虎尾里","LIN":"31鄰","STREET":"自由路","SECT":"三段","MAREA":" ","LANE":" ","ALLEY":" ","HOUSE_NO":"２號十樓","E_COORD97":171833.85000000001,"N_COORD97":2541839.73,"ADDRESS":"自由路三段２號十樓","OBJECTID":345288},"geometry":{"x":171833.85000000056,"y":2541839.7300000042}},{"attributes":{"ID":345298,"DIS_CODE":0,"TOWNNAME":"仁德區","LI":"三甲里","LIN":"5鄰","STREET":" ","SECT":" ","MAREA":"三甲子","LANE":" ","ALLEY":" ","HOUSE_NO":"４７號之８","E_COORD97":171900.23999999999,"N_COORD97":2536698.5499999998,"ADDRESS":"三甲子４７號之８","OBJECTID":345289},"geometry":{"x":171900.24000000022,"y":2536698.5500000026}},{"attributes":{"ID":345299,"DIS_CODE":0,"TOWNNAME":"仁德區","LI":"三甲里","LIN":"5鄰","STREET":" ","SECT":" ","MAREA":"三甲子","LANE":" ","ALLEY":" ","HOUSE_NO":"５０號之１１","E_COORD97":171923.79000000001,"N_COORD97":2536279.0499999998,"ADDRESS":"三甲子５０號之１１","OBJECTID":345290},"geometry":{"x":171923.7900000019,"y":2536279.0500000026}},{"attributes":{"ID":345300,"DIS_CODE":0,"TOWNNAME":"仁德區","LI":"三甲里","LIN":"5鄰","STREET":" ","SECT":" ","MAREA":"三甲子","LANE":" ","ALLEY":" ","HOUSE_NO":"５０號之１２","E_COORD97":171993.85000000001,"N_COORD97":2536312.54,"ADDRESS":"三甲子５０號之１２","OBJECTID":345291},"geometry":{"x":171993.84999999963,"y":2536312.5399999991}},{"attributes":{"ID":345301,"DIS_CODE":0,"TOWNNAME":"東區","LI":"虎尾里","LIN":"31鄰","STREET":"自由路","SECT":"三段","MAREA":" ","LANE":" ","ALLEY":" ","HOUSE_NO":"２號十樓之１","E_COORD97":171833.85000000001,"N_COORD97":2541839.73,"ADDRESS":"自由路三段２號十樓之１","OBJECTID":345292},"geometry":{"x":171833.85000000056,"y":2541839.7300000042}},{"attributes":{"ID":345302,"DIS_CODE":0,"TOWNNAME":"仁德區","LI":"三甲里","LIN":"5鄰","STREET":" ","SECT":" ","MAREA":"三甲子","LANE":" ","ALLEY":" ","HOUSE_NO":"４７號之３","E_COORD97":171910.85000000001,"N_COORD97":2536709.7999999998,"ADDRESS":"三甲子４７號之３","OBJECTID":345293},"geometry":{"x":171910.84999999963,"y":2536709.7999999989}},{"attributes":{"ID":345303,"DIS_CODE":0,"TOWNNAME":"仁德區","LI":"三甲里","LIN":"5鄰","STREET":" ","SECT":" ","MAREA":"三甲子","LANE":" ","ALLEY":" ","HOUSE_NO":"４８之７號","E_COORD97":171734.41,"N_COORD97":2536560.29,"ADDRESS":"三甲子４８之７號","OBJECTID":345294},"geometry":{"x":171734.41000000015,"y":2536560.290000001}},{"attributes":{"ID":345304,"DIS_CODE":0,"TOWNNAME":"仁德區","LI":"三甲里","LIN":"5鄰","STREET":" ","SECT":" ","MAREA":"三甲子","LANE":" ","ALLEY":" ","HOUSE_NO":"４６號之７","E_COORD97":171868.60000000001,"N_COORD97":2536697.0499999998,"ADDRESS":"三甲子４６號之７","OBJECTID":345295},"geometry":{"x":171868.59999999963,"y":2536697.0500000007}},{"attributes":{"ID":345305,"DIS_CODE":0,"TOWNNAME":"仁德區","LI":"三甲里","LIN":"5鄰","STREET":" ","SECT":" ","MAREA":"三甲子","LANE":" ","ALLEY":" ","HOUSE_NO":"４７號之１６","E_COORD97":171901.14999999999,"N_COORD97":2536665.04,"ADDRESS":"三甲子４７號之１６","OBJECTID":345296},"geometry":{"x":171901.15000000037,"y":2536665.0399999991}},{"attributes":{"ID":345306,"DIS_CODE":0,"TOWNNAME":"仁德區","LI":"三甲里","LIN":"5鄰","STREET":" ","SECT":" ","MAREA":"三甲子","LANE":" ","ALLEY":" ","HOUSE_NO":"５０號","E_COORD97":171919.39999999999,"N_COORD97":2536645.4900000002,"ADDRESS":"三甲子５０號","OBJECTID":345297},"geometry":{"x":171919.40000000037,"y":2536645.4900000002}},{"attributes":{"ID":345307,"DIS_CODE":0,"TOWNNAME":"東區","LI":"虎尾里","LIN":"31鄰","STREET":"自由路","SECT":"三段","MAREA":" ","LANE":" ","ALLEY":" ","HOUSE_NO":"２號三樓","E_COORD97":171833.85000000001,"N_COORD97":2541839.73,"ADDRESS":"自由路三段２號三樓","OBJECTID":345298},"geometry":{"x":171833.85000000056,"y":2541839.7300000042}},{"attributes":{"ID":345308,"DIS_CODE":0,"TOWNNAME":"仁德區","LI":"三甲里","LIN":"5鄰","STREET":" ","SECT":" ","MAREA":"三甲子","LANE":" ","ALLEY":" ","HOUSE_NO":"４７號之６","E_COORD97":171917.48000000001,"N_COORD97":2536689.5499999998,"ADDRESS":"三甲子４７號之６","OBJECTID":345299},"geometry":{"x":171917.48000000045,"y":2536689.5500000026}},{"attributes":{"ID":345309,"DIS_CODE":0,"TOWNNAME":"東區","LI":"虎尾里","LIN":"31鄰","STREET":"自由路","SECT":"三段","MAREA":" ","LANE":" ","ALLEY":" ","HOUSE_NO":"２號三樓之１","E_COORD97":171833.85000000001,"N_COORD97":2541839.73,"ADDRESS":"自由路三段２號三樓之１","OBJECTID":345300},"geometry":{"x":171833.85000000056,"y":2541839.7300000042}},{"attributes":{"ID":345310,"DIS_CODE":0,"TOWNNAME":"仁德區","LI":"三甲里","LIN":"5鄰","STREET":" ","SECT":" ","MAREA":"三甲子","LANE":" ","ALLEY":" ","HOUSE_NO":"５０號之１０","E_COORD97":172067.67000000001,"N_COORD97":2536192.0499999998,"ADDRESS":"三甲子５０號之１０","OBJECTID":345301},"geometry":{"x":172067.67000000086,"y":2536192.0500000007}},{"attributes":{"ID":345311,"DIS_CODE":0,"TOWNNAME":"東區","LI":"虎尾里","LIN":"31鄰","STREET":"自由路","SECT":"三段","MAREA":" ","LANE":" ","ALLEY":" ","HOUSE_NO":"２號五樓","E_COORD97":171833.85000000001,"N_COORD97":2541839.73,"ADDRESS":"自由路三段２號五樓","OBJECTID":345302},"geometry":{"x":171833.85000000056,"y":2541839.7300000042}},{"attributes":{"ID":345312,"DIS_CODE":0,"TOWNNAME":"仁德區","LI":"三甲里","LIN":"5鄰","STREET":" ","SECT":" ","MAREA":"三甲子","LANE":" ","ALLEY":" ","HOUSE_NO":"４７號之１２","E_COORD97":171895.20000000001,"N_COORD97":2536707.2999999998,"ADDRESS":"三甲子４７號之１２","OBJECTID":345303},"geometry":{"x":171895.20000000019,"y":2536707.3000000026}},{"attributes":{"ID":345313,"DIS_CODE":0,"TOWNNAME":"東區","LI":"虎尾里","LIN":"31鄰","STREET":"自由路","SECT":"三段","MAREA":" ","LANE":" ","ALLEY":" ","HOUSE_NO":"２號五樓之１","E_COORD97":171833.85000000001,"N_COORD97":2541839.73,"ADDRESS":"自由路三段２號五樓之１","OBJECTID":345304},"geometry":{"x":171833.85000000056,"y":2541839.7300000042}},{"attributes":{"ID":345314,"DIS_CODE":0,"TOWNNAME":"新化區","LI":"豐榮里","LIN":"5鄰","STREET":" ","SECT":" ","MAREA":"洋子","LANE":" ","ALLEY":" ","HOUSE_NO":"１０５號","E_COORD97":177957.38,"N_COORD97":2548218.25,"ADDRESS":"洋子１０５號","OBJECTID":345305},"geometry":{"x":177957.37999999989,"y":2548218.25}},{"attributes":{"ID":345315,"DIS_CODE":0,"TOWNNAME":"新化區","LI":"山\u25A0里","LIN":"5鄰","STREET":" ","SECT":" ","MAREA":"頂山\u25A0","LANE":" ","ALLEY":" ","HOUSE_NO":"１６號之１","E_COORD97":179605.10999999999,"N_COORD97":2546801.2599999998,"ADDRESS":"頂山\u25A0１６號之１","OBJECTID":345306},"geometry":{"x":179605.11000000127,"y":2546801.2599999998}},{"attributes":{"ID":345316,"DIS_CODE":0,"TOWNNAME":"新化區","LI":"唪口里","LIN":"5鄰","STREET":" ","SECT":" ","MAREA":"唪口","LANE":" ","ALLEY":" ","HOUSE_NO":"５５號","E_COORD97":178109.39999999999,"N_COORD97":2549102.25,"ADDRESS":"唪口５５號","OBJECTID":345307},"geometry":{"x":178109.4000000013,"y":2549102.2500000019}},{"attributes":{"ID":345317,"DIS_CODE":0,"TOWNNAME":"新化區","LI":"\u25A0拔里","LIN":"5鄰","STREET":" ","SECT":" ","MAREA":"\u25A0拔林","LANE":" ","ALLEY":" ","HOUSE_NO":"２４８號之２","E_COORD97":183692.67999999999,"N_COORD97":2551849.2599999998,"ADDRESS":"\u25A0拔林２４８號之２","OBJECTID":345308},"geometry":{"x":183692.68000000063,"y":2551849.2599999998}},{"attributes":{"ID":345318,"DIS_CODE":0,"TOWNNAME":"新化區","LI":"唪口里","LIN":"5鄰","STREET":" ","SECT":" ","MAREA":"唪口","LANE":" ","ALLEY":" ","HOUSE_NO":"４６號之７","E_COORD97":178129.14000000001,"N_COORD97":2548970.2599999998,"ADDRESS":"唪口４６號之７","OBJECTID":345309},"geometry":{"x":178129.1400000006,"y":2548970.2600000016}},{"attributes":{"ID":345319,"DIS_CODE":0,"TOWNNAME":"新化區","LI":"唪口里","LIN":"5鄰","STREET":" ","SECT":" ","MAREA":"唪口","LANE":" ","ALLEY":" ","HOUSE_NO":"５２號","E_COORD97":178123,"N_COORD97":2549032.25,"ADDRESS":"唪口５２號","OBJECTID":345310},"geometry":{"x":178123,"y":2549032.25}},{"attributes":{"ID":345320,"DIS_CODE":0,"TOWNNAME":"新化區","LI":"\u25A0拔里","LIN":"5鄰","STREET":" ","SECT":" ","MAREA":"\u25A0拔林","LANE":" ","ALLEY":" ","HOUSE_NO":"２５１號","E_COORD97":183653.51999999999,"N_COORD97":2551858.25,"ADDRESS":"\u25A0拔林２５１號","OBJECTID":345311},"geometry":{"x":183653.51999999955,"y":2551858.2500000019}},{"attributes":{"ID":345321,"DIS_CODE":0,"TOWNNAME":"新化區","LI":"\u25A0拔里","LIN":"5鄰","STREET":" ","SECT":" ","MAREA":"\u25A0拔林","LANE":" ","ALLEY":" ","HOUSE_NO":"２６０號","E_COORD97":183617.42000000001,"N_COORD97":2551882.25,"ADDRESS":"\u25A0拔林２６０號","OBJECTID":345312},"geometry":{"x":183617.41999999993,"y":2551882.2500000019}},{"attributes":{"ID":345322,"DIS_CODE":0,"TOWNNAME":"新化區","LI":"唪口里","LIN":"5鄰","STREET":" ","SECT":" ","MAREA":"唪口","LANE":" ","ALLEY":" ","HOUSE_NO":"５６號之７","E_COORD97":178104.14000000001,"N_COORD97":2549136.2599999998,"ADDRESS":"唪口５６號之７","OBJECTID":345313},"geometry":{"x":178104.1400000006,"y":2549136.2600000016}},{"attributes":{"ID":345323,"DIS_CODE":0,"TOWNNAME":"新化區","LI":"武安里","LIN":"5鄰","STREET":"中正路","SECT":" ","MAREA":" ","LANE":"３６９巷","ALLEY":" ","HOUSE_NO":"１９號","E_COORD97":179068.56,"N_COORD97":2548265.25,"ADDRESS":"中正路３６９巷１９號","OBJECTID":345314},"geometry":{"x":179068.56000000145,"y":2548265.2500000019}},{"attributes":{"ID":345324,"DIS_CODE":0,"TOWNNAME":"新化區","LI":"太平里","LIN":"5鄰","STREET":"民生路","SECT":" ","MAREA":" ","LANE":"２３４巷","ALLEY":" ","HOUSE_NO":"２號","E_COORD97":179081.01000000001,"N_COORD97":2549011.25,"ADDRESS":"民生路２３４巷２號","OBJECTID":345315},"geometry":{"x":179081.01000000071,"y":2549011.2500000019}},{"attributes":{"ID":345325,"DIS_CODE":0,"TOWNNAME":"新化區","LI":"唪口里","LIN":"5鄰","STREET":"中正路","SECT":" ","MAREA":" ","LANE":"７０７巷","ALLEY":" ","HOUSE_NO":"３２號","E_COORD97":178597.56,"N_COORD97":2549131.25,"ADDRESS":"中正路７０７巷３２號","OBJECTID":345316},"geometry":{"x":178597.56000000052,"y":2549131.25}},{"attributes":{"ID":345326,"DIS_CODE":0,"TOWNNAME":"新化區","LI":"太平里","LIN":"5鄰","STREET":"民生路","SECT":" ","MAREA":" ","LANE":"２３４巷","ALLEY":" ","HOUSE_NO":"１２號","E_COORD97":179089.76000000001,"N_COORD97":2549027.25,"ADDRESS":"民生路２３４巷１２號","OBJECTID":345317},"geometry":{"x":179089.76000000071,"y":2549027.2500000019}},{"attributes":{"ID":345327,"DIS_CODE":0,"TOWNNAME":"安南區","LI":"淵東里","LIN":"5鄰","STREET":"海佃路","SECT":"四段","MAREA":" ","LANE":"５５巷","ALLEY":" ","HOUSE_NO":"１３９號","E_COORD97":165381.59,"N_COORD97":2550435.4399999999,"ADDRESS":"海佃路四段５５巷１３９號","OBJECTID":345318},"geometry":{"x":165381.59000000171,"y":2550435.4400000032}},{"attributes":{"ID":345328,"DIS_CODE":0,"TOWNNAME":"東區","LI":"富強里","LIN":"31鄰","STREET":"裕農路","SECT":" ","MAREA":" ","LANE":"３５０巷","ALLEY":" ","HOUSE_NO":"３號五樓","E_COORD97":171031.23000000001,"N_COORD97":2543034,"ADDRESS":"裕農路３５０巷３號五樓","OBJECTID":345319},"geometry":{"x":171031.22999999952,"y":2543033.9999999981}},{"attributes":{"ID":345329,"DIS_CODE":0,"TOWNNAME":"安南區","LI":"淵東里","LIN":"5鄰","STREET":"海佃路","SECT":"四段","MAREA":" ","LANE":"５５巷","ALLEY":" ","HOUSE_NO":"１６７號","E_COORD97":165355.48000000001,"N_COORD97":2550429.1499999999,"ADDRESS":"海佃路四段５５巷１６７號","OBJECTID":345320},"geometry":{"x":165355.48000000045,"y":2550429.1500000022}},{"attributes":{"ID":345330,"DIS_CODE":0,"TOWNNAME":"安南區","LI":"淵東里","LIN":"5鄰","STREET":"海佃路","SECT":"四段","MAREA":" ","LANE":"５５巷","ALLEY":" ","HOUSE_NO":"１７７號","E_COORD97":165338.82000000001,"N_COORD97":2550419.71,"ADDRESS":"海佃路四段５５巷１７７號","OBJECTID":345321},"geometry":{"x":165338.82000000123,"y":2550419.7100000028}},{"attributes":{"ID":345331,"DIS_CODE":0,"TOWNNAME":"南區","LI":"新昌里","LIN":"5鄰","STREET":"大德街","SECT":" ","MAREA":" ","LANE":"１４１巷","ALLEY":" ","HOUSE_NO":"６４號","E_COORD97":167527.06,"N_COORD97":2542806.5600000001,"ADDRESS":"大德街１４１巷６４號","OBJECTID":345322},"geometry":{"x":167527.05999999959,"y":2542806.5600000005}},{"attributes":{"ID":345332,"DIS_CODE":0,"TOWNNAME":"南區","LI":"新昌里","LIN":"5鄰","STREET":"大德街","SECT":" ","MAREA":" ","LANE":"１４１巷","ALLEY":" ","HOUSE_NO":"６６號","E_COORD97":167527.70999999999,"N_COORD97":2542795.7799999998,"ADDRESS":"大德街１４１巷６６號","OBJECTID":345323},"geometry":{"x":167527.71000000089,"y":2542795.7800000012}},{"attributes":{"ID":345333,"DIS_CODE":0,"TOWNNAME":"東區","LI":"中西里","LIN":"8鄰","STREET":"勝利路","SECT":" ","MAREA":" ","LANE":" ","ALLEY":" ","HOUSE_NO":"３８號五樓","E_COORD97":169810.51000000001,"N_COORD97":2543481.5,"ADDRESS":"勝利路３８號五樓","OBJECTID":345324},"geometry":{"x":169810.51000000071,"y":2543481.5}},{"attributes":{"ID":345334,"DIS_CODE":0,"TOWNNAME":"東區","LI":"中西里","LIN":"8鄰","STREET":"勝利路","SECT":" ","MAREA":" ","LANE":" ","ALLEY":" ","HOUSE_NO":"３８號之１二樓之１","E_COORD97":169817.12,"N_COORD97":2543480.77,"ADDRESS":"勝利路３８號之１二樓之１","OBJECTID":345325},"geometry":{"x":169817.12000000011,"y":2543480.7700000014}},{"attributes":{"ID":345335,"DIS_CODE":0,"TOWNNAME":"東區","LI":"中西里","LIN":"8鄰","STREET":"勝利路","SECT":" ","MAREA":" ","LANE":" ","ALLEY":" ","HOUSE_NO":"３８號之１三樓","E_COORD97":169817.12,"N_COORD97":2543480.77,"ADDRESS":"勝利路３８號之１三樓","OBJECTID":345326},"geometry":{"x":169817.12000000011,"y":2543480.7700000014}},{"attributes":{"ID":345336,"DIS_CODE":0,"TOWNNAME":"東區","LI":"中西里","LIN":"8鄰","STREET":"勝利路","SECT":" ","MAREA":" ","LANE":" ","ALLEY":" ","HOUSE_NO":"３８號之１四樓之１","E_COORD97":169817.12,"N_COORD97":2543480.77,"ADDRESS":"勝利路３８號之１四樓之１","OBJECTID":345327},"geometry":{"x":169817.12000000011,"y":2543480.7700000014}},{"attributes":{"ID":345337,"DIS_CODE":0,"TOWNNAME":"東區","LI":"中西里","LIN":"8鄰","STREET":"勝利路","SECT":" ","MAREA":" ","LANE":" ","ALLEY":" ","HOUSE_NO":"３８號之１五樓之１","E_COORD97":169817.12,"N_COORD97":2543480.77,"ADDRESS":"勝利路３８號之１五樓之１","OBJECTID":345328},"geometry":{"x":169817.12000000011,"y":2543480.7700000014}},{"attributes":{"ID":345338,"DIS_CODE":0,"TOWNNAME":"東區","LI":"中西里","LIN":"8鄰","STREET":"勝利路","SECT":" ","MAREA":" ","LANE":" ","ALLEY":" ","HOUSE_NO":"３８號之２二樓","E_COORD97":169826.48000000001,"N_COORD97":2543477.1000000001,"ADDRESS":"勝利路３８號之２二樓","OBJECTID":345329},"geometry":{"x":169826.48000000138,"y":2543477.0999999978}},{"attributes":{"ID":345339,"DIS_CODE":0,"TOWNNAME":"東區","LI":"中西里","LIN":"8鄰","STREET":"勝利路","SECT":" ","MAREA":" ","LANE":" ","ALLEY":" ","HOUSE_NO":"３８號之２三樓","E_COORD97":169826.48000000001,"N_COORD97":2543477.1000000001,"ADDRESS":"勝利路３８號之２三樓","OBJECTID":345330},"geometry":{"x":169826.48000000138,"y":2543477.0999999978}},{"attributes":{"ID":345340,"DIS_CODE":0,"TOWNNAME":"東區","LI":"中西里","LIN":"8鄰","STREET":"勝利路","SECT":" ","MAREA":" ","LANE":" ","ALLEY":" ","HOUSE_NO":"３８號之２四樓","E_COORD97":169826.48000000001,"N_COORD97":2543477.1000000001,"ADDRESS":"勝利路３８號之２四樓","OBJECTID":345331},"geometry":{"x":169826.48000000138,"y":2543477.0999999978}},{"attributes":{"ID":345341,"DIS_CODE":0,"TOWNNAME":"東區","LI":"中西里","LIN":"8鄰","STREET":"勝利路","SECT":" ","MAREA":" ","LANE":" ","ALLEY":" ","HOUSE_NO":"３８號之２五樓","E_COORD97":169826.48000000001,"N_COORD97":2543477.1000000001,"ADDRESS":"勝利路３８號之２五樓","OBJECTID":345332},"geometry":{"x":169826.48000000138,"y":2543477.0999999978}},{"attributes":{"ID":345342,"DIS_CODE":0,"TOWNNAME":"南區","LI":"新昌里","LIN":"5鄰","STREET":"大德街","SECT":" ","MAREA":" ","LANE":"１４１巷","ALLEY":" ","HOUSE_NO":"７０號","E_COORD97":167529.64999999999,"N_COORD97":2542780.2200000002,"ADDRESS":"大德街１４１巷７０號","OBJECTID":345333},"geometry":{"x":167529.65000000224,"y":2542780.2200000025}},{"attributes":{"ID":345343,"DIS_CODE":0,"TOWNNAME":"東區","LI":"虎尾里","LIN":"31鄰","STREET":"自由路","SECT":"三段","MAREA":" ","LANE":" ","ALLEY":" ","HOUSE_NO":"２號六樓","E_COORD97":171833.85000000001,"N_COORD97":2541839.73,"ADDRESS":"自由路三段２號六樓","OBJECTID":345334},"geometry":{"x":171833.85000000056,"y":2541839.7300000042}},{"attributes":{"ID":345344,"DIS_CODE":0,"TOWNNAME":"東區","LI":"虎尾里","LIN":"31鄰","STREET":"自由路","SECT":"三段","MAREA":" ","LANE":" ","ALLEY":" ","HOUSE_NO":"２號六樓之１","E_COORD97":171833.85000000001,"N_COORD97":2541839.73,"ADDRESS":"自由路三段２號六樓之１","OBJECTID":345335},"geometry":{"x":171833.85000000056,"y":2541839.7300000042}},{"attributes":{"ID":345345,"DIS_CODE":0,"TOWNNAME":"東區","LI":"虎尾里","LIN":"31鄰","STREET":"自由路","SECT":"三段","MAREA":" ","LANE":" ","ALLEY":" ","HOUSE_NO":"２號四樓","E_COORD97":171833.85000000001,"N_COORD97":2541839.73,"ADDRESS":"自由路三段２號四樓","OBJECTID":345336},"geometry":{"x":171833.85000000056,"y":2541839.7300000042}},{"attributes":{"ID":345346,"DIS_CODE":0,"TOWNNAME":"東區","LI":"虎尾里","LIN":"31鄰","STREET":"自由路","SECT":"三段","MAREA":" ","LANE":" ","ALLEY":" ","HOUSE_NO":"２號四樓之１","E_COORD97":171833.85000000001,"N_COORD97":2541839.73,"ADDRESS":"自由路三段２號四樓之１","OBJECTID":345337},"geometry":{"x":171833.85000000056,"y":2541839.7300000042}},{"attributes":{"ID":345347,"DIS_CODE":0,"TOWNNAME":"中西區","LI":"西湖里","LIN":"31鄰","STREET":"湖美二街","SECT":" ","MAREA":" ","LANE":"９２巷","ALLEY":" ","HOUSE_NO":"７號二樓","E_COORD97":166148.95999999999,"N_COORD97":2544769.8300000001,"ADDRESS":"湖美二街９２巷７號二樓","OBJECTID":345338},"geometry":{"x":166148.96000000089,"y":2544769.8300000001}},{"attributes":{"ID":345348,"DIS_CODE":0,"TOWNNAME":"中西區","LI":"西湖里","LIN":"31鄰","STREET":"湖美二街","SECT":" ","MAREA":" ","LANE":"９２巷","ALLEY":" ","HOUSE_NO":"７號三樓","E_COORD97":166148.95999999999,"N_COORD97":2544769.8300000001,"ADDRESS":"湖美二街９２巷７號三樓","OBJECTID":345339},"geometry":{"x":166148.96000000089,"y":2544769.8300000001}},{"attributes":{"ID":345349,"DIS_CODE":0,"TOWNNAME":"中西區","LI":"西湖里","LIN":"31鄰","STREET":"湖美二街","SECT":" ","MAREA":" ","LANE":"９２巷","ALLEY":" ","HOUSE_NO":"７號四樓","E_COORD97":166148.95999999999,"N_COORD97":2544769.8300000001,"ADDRESS":"湖美二街９２巷７號四樓","OBJECTID":345340},"geometry":{"x":166148.96000000089,"y":2544769.8300000001}},{"attributes":{"ID":345350,"DIS_CODE":0,"TOWNNAME":"中西區","LI":"西湖里","LIN":"31鄰","STREET":"湖美二街","SECT":" ","MAREA":" ","LANE":"９２巷","ALLEY":" ","HOUSE_NO":"９號三樓","E_COORD97":166153.01999999999,"N_COORD97":2544769.8900000001,"ADDRESS":"湖美二街９２巷９號三樓","OBJECTID":345341},"geometry":{"x":166153.02000000142,"y":2544769.8900000006}},{"attributes":{"ID":345351,"DIS_CODE":0,"TOWNNAME":"中西區","LI":"西湖里","LIN":"31鄰","STREET":"湖美二街","SECT":" ","MAREA":" ","LANE":"９２巷","ALLEY":" ","HOUSE_NO":"９號四樓","E_COORD97":166152.89999999999,"N_COORD97":2544769.8900000001,"ADDRESS":"湖美二街９２巷９號四樓","OBJECTID":345342},"geometry":{"x":166152.89999999944,"y":2544769.8900000006}},{"attributes":{"ID":345352,"DIS_CODE":0,"TOWNNAME":"東區","LI":"富強里","LIN":"31鄰","STREET":"裕農路","SECT":" ","MAREA":" ","LANE":"３５０巷","ALLEY":" ","HOUSE_NO":"３號四樓","E_COORD97":171031.23000000001,"N_COORD97":2543034,"ADDRESS":"裕農路３５０巷３號四樓","OBJECTID":345343},"geometry":{"x":171031.22999999952,"y":2543033.9999999981}},{"attributes":{"ID":345353,"DIS_CODE":0,"TOWNNAME":"東區","LI":"富強里","LIN":"31鄰","STREET":"裕農路","SECT":" ","MAREA":" ","LANE":"３５０巷","ALLEY":" ","HOUSE_NO":"３號四樓之１","E_COORD97":171031.23000000001,"N_COORD97":2543034,"ADDRESS":"裕農路３５０巷３號四樓之１","OBJECTID":345344},"geometry":{"x":171031.22999999952,"y":2543033.9999999981}},{"attributes":{"ID":345354,"DIS_CODE":0,"TOWNNAME":"東區","LI":"富強里","LIN":"31鄰","STREET":"裕農路","SECT":" ","MAREA":" ","LANE":"３５０巷","ALLEY":" ","HOUSE_NO":"３號七樓","E_COORD97":171031.23000000001,"N_COORD97":2543034,"ADDRESS":"裕農路３５０巷３號七樓","OBJECTID":345345},"geometry":{"x":171031.22999999952,"y":2543033.9999999981}},{"attributes":{"ID":345355,"DIS_CODE":0,"TOWNNAME":"東區","LI":"富強里","LIN":"31鄰","STREET":"裕農路","SECT":" ","MAREA":" ","LANE":"３５０巷","ALLEY":" ","HOUSE_NO":"３號七樓之１","E_COORD97":171031.23000000001,"N_COORD97":2543034,"ADDRESS":"裕農路３５０巷３號七樓之１","OBJECTID":345346},"geometry":{"x":171031.22999999952,"y":2543033.9999999981}},{"attributes":{"ID":345356,"DIS_CODE":0,"TOWNNAME":"東區","LI":"富強里","LIN":"31鄰","STREET":"裕農路","SECT":" ","MAREA":" ","LANE":"３５０巷","ALLEY":" ","HOUSE_NO":"３號二樓","E_COORD97":171031.23000000001,"N_COORD97":2543034,"ADDRESS":"裕農路３５０巷３號二樓","OBJECTID":345347},"geometry":{"x":171031.22999999952,"y":2543033.9999999981}},{"attributes":{"ID":345357,"DIS_CODE":0,"TOWNNAME":"東區","LI":"富強里","LIN":"31鄰","STREET":"裕農路","SECT":" ","MAREA":" ","LANE":"３５０巷","ALLEY":" ","HOUSE_NO":"３號二樓之１","E_COORD97":171031.23000000001,"N_COORD97":2543034,"ADDRESS":"裕農路３５０巷３號二樓之１","OBJECTID":345348},"geometry":{"x":171031.22999999952,"y":2543033.9999999981}},{"attributes":{"ID":345358,"DIS_CODE":0,"TOWNNAME":"東區","LI":"富強里","LIN":"31鄰","STREET":"裕農路","SECT":" ","MAREA":" ","LANE":"３５０巷","ALLEY":" ","HOUSE_NO":"３號三樓","E_COORD97":171031.23000000001,"N_COORD97":2543034,"ADDRESS":"裕農路３５０巷３號三樓","OBJECTID":345349},"geometry":{"x":171031.22999999952,"y":2543033.9999999981}},{"attributes":{"ID":345359,"DIS_CODE":0,"TOWNNAME":"東區","LI":"富強里","LIN":"31鄰","STREET":"裕農路","SECT":" ","MAREA":" ","LANE":"３５０巷","ALLEY":" ","HOUSE_NO":"３號三樓之１","E_COORD97":171031.23000000001,"N_COORD97":2543034,"ADDRESS":"裕農路３５０巷３號三樓之１","OBJECTID":345350},"geometry":{"x":171031.22999999952,"y":2543033.9999999981}},{"attributes":{"ID":345360,"DIS_CODE":0,"TOWNNAME":"東區","LI":"富強里","LIN":"31鄰","STREET":"裕農路","SECT":" ","MAREA":" ","LANE":"３５０巷","ALLEY":" ","HOUSE_NO":"３號五樓之１","E_COORD97":171031.23000000001,"N_COORD97":2543034,"ADDRESS":"裕農路３５０巷３號五樓之１","OBJECTID":345351},"geometry":{"x":171031.22999999952,"y":2543033.9999999981}},{"attributes":{"ID":345361,"DIS_CODE":0,"TOWNNAME":"東區","LI":"富強里","LIN":"31鄰","STREET":"裕農路","SECT":" ","MAREA":" ","LANE":"３５０巷","ALLEY":" ","HOUSE_NO":"３號五樓之２","E_COORD97":171031.23000000001,"N_COORD97":2543034,"ADDRESS":"裕農路３５０巷３號五樓之２","OBJECTID":345352},"geometry":{"x":171031.22999999952,"y":2543033.9999999981}},{"attributes":{"ID":345362,"DIS_CODE":0,"TOWNNAME":"東區","LI":"富強里","LIN":"31鄰","STREET":"裕農路","SECT":" ","MAREA":" ","LANE":"３５０巷","ALLEY":" ","HOUSE_NO":"３號六樓","E_COORD97":171031.23000000001,"N_COORD97":2543034,"ADDRESS":"裕農路３５０巷３號六樓","OBJECTID":345353},"geometry":{"x":171031.22999999952,"y":2543033.9999999981}},{"attributes":{"ID":345363,"DIS_CODE":0,"TOWNNAME":"東區","LI":"富強里","LIN":"31鄰","STREET":"裕農路","SECT":" ","MAREA":" ","LANE":"３５０巷","ALLEY":" ","HOUSE_NO":"３號六樓之１","E_COORD97":171031.23000000001,"N_COORD97":2543034,"ADDRESS":"裕農路３５０巷３號六樓之１","OBJECTID":345354},"geometry":{"x":171031.22999999952,"y":2543033.9999999981}},{"attributes":{"ID":345364,"DIS_CODE":0,"TOWNNAME":"東區","LI":"富強里","LIN":"31鄰","STREET":"裕農路","SECT":" ","MAREA":" ","LANE":"３５０巷","ALLEY":" ","HOUSE_NO":"３號六樓之２","E_COORD97":171031.23000000001,"N_COORD97":2543034,"ADDRESS":"裕農路３５０巷３號六樓之２","OBJECTID":345355},"geometry":{"x":171031.22999999952,"y":2543033.9999999981}},{"attributes":{"ID":345365,"DIS_CODE":0,"TOWNNAME":"東區","LI":"富強里","LIN":"31鄰","STREET":"裕農路","SECT":" ","MAREA":" ","LANE":"３５０巷","ALLEY":" ","HOUSE_NO":"３號四樓之２","E_COORD97":171031.23000000001,"N_COORD97":2543034,"ADDRESS":"裕農路３５０巷３號四樓之２","OBJECTID":345356},"geometry":{"x":171031.22999999952,"y":2543033.9999999981}},{"attributes":{"ID":345366,"DIS_CODE":0,"TOWNNAME":"北區","LI":"和順里","LIN":"31鄰","STREET":"臨安路","SECT":"二段","MAREA":" ","LANE":"１６９巷","ALLEY":" ","HOUSE_NO":"２號八樓","E_COORD97":167850.51999999999,"N_COORD97":2544917.5600000001,"ADDRESS":"臨安路二段１６９巷２號八樓","OBJECTID":345357},"geometry":{"x":167850.52000000048,"y":2544917.5600000024}},{"attributes":{"ID":345367,"DIS_CODE":0,"TOWNNAME":"北區","LI":"和順里","LIN":"31鄰","STREET":"臨安路","SECT":"二段","MAREA":" ","LANE":"１６９巷","ALLEY":" ","HOUSE_NO":"２號七樓","E_COORD97":167850.51999999999,"N_COORD97":2544917.5600000001,"ADDRESS":"臨安路二段１６９巷２號七樓","OBJECTID":345358},"geometry":{"x":167850.52000000048,"y":2544917.5600000024}},{"attributes":{"ID":345368,"DIS_CODE":0,"TOWNNAME":"北區","LI":"和順里","LIN":"31鄰","STREET":"臨安路","SECT":"二段","MAREA":" ","LANE":"１６９巷","ALLEY":" ","HOUSE_NO":"２號五樓","E_COORD97":167850.51999999999,"N_COORD97":2544917.5600000001,"ADDRESS":"臨安路二段１６９巷２號五樓","OBJECTID":345359},"geometry":{"x":167850.52000000048,"y":2544917.5600000024}},{"attributes":{"ID":345369,"DIS_CODE":0,"TOWNNAME":"北區","LI":"和順里","LIN":"31鄰","STREET":"臨安路","SECT":"二段","MAREA":" ","LANE":"１６９巷","ALLEY":" ","HOUSE_NO":"２號六樓","E_COORD97":167850.51999999999,"N_COORD97":2544917.5600000001,"ADDRESS":"臨安路二段１６９巷２號六樓","OBJECTID":345360},"geometry":{"x":167850.52000000048,"y":2544917.5600000024}},{"attributes":{"ID":345370,"DIS_CODE":0,"TOWNNAME":"東區","LI":"中西里","LIN":"8鄰","STREET":"勝利路","SECT":" ","MAREA":" ","LANE":" ","ALLEY":" ","HOUSE_NO":"３８號之１四樓之２","E_COORD97":169817.12,"N_COORD97":2543480.77,"ADDRESS":"勝利路３８號之１四樓之２","OBJECTID":345361},"geometry":{"x":169817.12000000011,"y":2543480.7700000014}},{"attributes":{"ID":345371,"DIS_CODE":0,"TOWNNAME":"南區","LI":"鯤鯓里","LIN":"5鄰","STREET":"鯤鯓路","SECT":" ","MAREA":" ","LANE":"１１９巷","ALLEY":" ","HOUSE_NO":"３號","E_COORD97":165015.29000000001,"N_COORD97":2539864.8300000001,"ADDRESS":"鯤鯓路１１９巷３號","OBJECTID":345362},"geometry":{"x":165015.29000000004,"y":2539864.8300000001}},{"attributes":{"ID":345372,"DIS_CODE":0,"TOWNNAME":"南區","LI":"大恩里","LIN":"5鄰","STREET":"大同路","SECT":"二段","MAREA":" ","LANE":"６８６巷","ALLEY":" ","HOUSE_NO":"２號","E_COORD97":169561.14999999999,"N_COORD97":2540927.8199999998,"ADDRESS":"大同路二段６８６巷２號","OBJECTID":345363},"geometry":{"x":169561.1500000013,"y":2540927.8200000022}},{"attributes":{"ID":345373,"DIS_CODE":0,"TOWNNAME":"安南區","LI":"大安里","LIN":"5鄰","STREET":"大安街","SECT":" ","MAREA":" ","LANE":"１１０巷","ALLEY":" ","HOUSE_NO":"１０號","E_COORD97":167294.97,"N_COORD97":2548055.27,"ADDRESS":"大安街１１０巷１０號","OBJECTID":345364},"geometry":{"x":167294.97000000067,"y":2548055.2699999996}},{"attributes":{"ID":345374,"DIS_CODE":0,"TOWNNAME":"安南區","LI":"大安里","LIN":"5鄰","STREET":"大安街","SECT":" ","MAREA":" ","LANE":"１１０巷","ALLEY":" ","HOUSE_NO":"１１號","E_COORD97":167306.32999999999,"N_COORD97":2548073.2200000002,"ADDRESS":"大安街１１０巷１１號","OBJECTID":345365},"geometry":{"x":167306.33000000101,"y":2548073.2200000025}},{"attributes":{"ID":345375,"DIS_CODE":0,"TOWNNAME":"安南區","LI":"大安里","LIN":"5鄰","STREET":"大安街","SECT":" ","MAREA":" ","LANE":"１１０巷","ALLEY":" ","HOUSE_NO":"１２號","E_COORD97":167303.41,"N_COORD97":2548049.52,"ADDRESS":"大安街１１０巷１２號","OBJECTID":345366},"geometry":{"x":167303.41000000015,"y":2548049.5200000014}},{"attributes":{"ID":345376,"DIS_CODE":0,"TOWNNAME":"安南區","LI":"大安里","LIN":"5鄰","STREET":"大安街","SECT":" ","MAREA":" ","LANE":"１１０巷","ALLEY":" ","HOUSE_NO":"１３號","E_COORD97":167313.42999999999,"N_COORD97":2548066.5099999998,"ADDRESS":"大安街１１０巷１３號","OBJECTID":345367},"geometry":{"x":167313.43000000156,"y":2548066.5100000016}},{"attributes":{"ID":345377,"DIS_CODE":0,"TOWNNAME":"安南區","LI":"大安里","LIN":"5鄰","STREET":"大安街","SECT":" ","MAREA":" ","LANE":"１１０巷","ALLEY":" ","HOUSE_NO":"１４號","E_COORD97":167308.59,"N_COORD97":2548045.8799999999,"ADDRESS":"大安街１１０巷１４號","OBJECTID":345368},"geometry":{"x":167308.58999999985,"y":2548045.8800000008}},{"attributes":{"ID":345378,"DIS_CODE":0,"TOWNNAME":"安南區","LI":"大安里","LIN":"5鄰","STREET":"大安街","SECT":" ","MAREA":" ","LANE":"１１０巷","ALLEY":" ","HOUSE_NO":"１５號","E_COORD97":167319.95999999999,"N_COORD97":2548063.6299999999,"ADDRESS":"大安街１１０巷１５號","OBJECTID":345369},"geometry":{"x":167319.95999999996,"y":2548063.6300000027}},{"attributes":{"ID":345379,"DIS_CODE":0,"TOWNNAME":"安南區","LI":"大安里","LIN":"5鄰","STREET":"大安街","SECT":" ","MAREA":" ","LANE":"１１０巷","ALLEY":" ","HOUSE_NO":"１６號","E_COORD97":167316.26999999999,"N_COORD97":2548042.6200000001,"ADDRESS":"大安街１１０巷１６號","OBJECTID":345370},"geometry":{"x":167316.27000000048,"y":2548042.6200000029}},{"attributes":{"ID":345380,"DIS_CODE":0,"TOWNNAME":"安南區","LI":"大安里","LIN":"5鄰","STREET":"大安街","SECT":" ","MAREA":" ","LANE":"１１０巷","ALLEY":" ","HOUSE_NO":"１７號","E_COORD97":167325.32999999999,"N_COORD97":2548060.7599999998,"ADDRESS":"大安街１１０巷１７號","OBJECTID":345371},"geometry":{"x":167325.33000000101,"y":2548060.7600000016}},{"attributes":{"ID":345381,"DIS_CODE":0,"TOWNNAME":"安南區","LI":"大安里","LIN":"5鄰","STREET":"大安街","SECT":" ","MAREA":" ","LANE":"１１０巷","ALLEY":" ","HOUSE_NO":"１８號","E_COORD97":167320.88,"N_COORD97":2548038.5899999999,"ADDRESS":"大安街１１０巷１８號","OBJECTID":345372},"geometry":{"x":167320.88000000082,"y":2548038.5900000017}},{"attributes":{"ID":345382,"DIS_CODE":0,"TOWNNAME":"安南區","LI":"大安里","LIN":"5鄰","STREET":"大安街","SECT":" ","MAREA":" ","LANE":"１１０巷","ALLEY":" ","HOUSE_NO":"１９號","E_COORD97":167331.09,"N_COORD97":2548058.8399999999,"ADDRESS":"大安街１１０巷１９號","OBJECTID":345373},"geometry":{"x":167331.09000000171,"y":2548058.8399999999}},{"attributes":{"ID":345383,"DIS_CODE":0,"TOWNNAME":"安南區","LI":"大安里","LIN":"5鄰","STREET":"大安街","SECT":" ","MAREA":" ","LANE":"１１０巷","ALLEY":" ","HOUSE_NO":"１號","E_COORD97":167283.48999999999,"N_COORD97":2548087.6000000001,"ADDRESS":"大安街１１０巷１號","OBJECTID":345374},"geometry":{"x":167283.49000000115,"y":2548087.5999999996}},{"attributes":{"ID":345384,"DIS_CODE":0,"TOWNNAME":"安南區","LI":"大安里","LIN":"5鄰","STREET":"大安街","SECT":" ","MAREA":" ","LANE":"１１０巷","ALLEY":" ","HOUSE_NO":"２０號","E_COORD97":167327.01999999999,"N_COORD97":2548033.0299999998,"ADDRESS":"大安街１１０巷２０號","OBJECTID":345375},"geometry":{"x":167327.01999999955,"y":2548033.0299999993}},{"attributes":{"ID":345385,"DIS_CODE":0,"TOWNNAME":"中西區","LI":"天后里","LIN":"8鄰","STREET":"西門路","SECT":"二段","MAREA":" ","LANE":" ","ALLEY":" ","HOUSE_NO":"３１２號一樓","E_COORD97":168014.67999999999,"N_COORD97":2544174.9199999999,"ADDRESS":"西門路二段３１２號一樓","OBJECTID":345376},"geometry":{"x":168014.6799999997,"y":2544174.9200000018}},{"attributes":{"ID":345386,"DIS_CODE":0,"TOWNNAME":"中西區","LI":"天后里","LIN":"8鄰","STREET":"西門路","SECT":"二段","MAREA":" ","LANE":" ","ALLEY":" ","HOUSE_NO":"３１２號二樓","E_COORD97":168014.67999999999,"N_COORD97":2544174.9199999999,"ADDRESS":"西門路二段３１２號二樓","OBJECTID":345377},"geometry":{"x":168014.6799999997,"y":2544174.9200000018}},{"attributes":{"ID":345387,"DIS_CODE":0,"TOWNNAME":"中西區","LI":"天后里","LIN":"8鄰","STREET":"西門路","SECT":"二段","MAREA":" ","LANE":" ","ALLEY":" ","HOUSE_NO":"３１２號三樓","E_COORD97":168014.67999999999,"N_COORD97":2544174.9199999999,"ADDRESS":"西門路二段３１２號三樓","OBJECTID":345378},"geometry":{"x":168014.6799999997,"y":2544174.9200000018}},{"attributes":{"ID":345388,"DIS_CODE":0,"TOWNNAME":"中西區","LI":"天后里","LIN":"8鄰","STREET":"西門路","SECT":"二段","MAREA":" ","LANE":" ","ALLEY":" ","HOUSE_NO":"３１２號五樓","E_COORD97":168014.67999999999,"N_COORD97":2544174.9199999999,"ADDRESS":"西門路二段３１２號五樓","OBJECTID":345379},"geometry":{"x":168014.6799999997,"y":2544174.9200000018}},{"attributes":{"ID":345389,"DIS_CODE":0,"TOWNNAME":"中西區","LI":"天后里","LIN":"8鄰","STREET":"西門路","SECT":"二段","MAREA":" ","LANE":" ","ALLEY":" ","HOUSE_NO":"３１２號六樓","E_COORD97":168014.67999999999,"N_COORD97":2544174.9199999999,"ADDRESS":"西門路二段３１２號六樓","OBJECTID":345380},"geometry":{"x":168014.6799999997,"y":2544174.9200000018}},{"attributes":{"ID":345390,"DIS_CODE":0,"TOWNNAME":"中西區","LI":"天后里","LIN":"8鄰","STREET":"西門路","SECT":"二段","MAREA":" ","LANE":" ","ALLEY":" ","HOUSE_NO":"３１２號四樓","E_COORD97":168014.67999999999,"N_COORD97":2544174.9199999999,"ADDRESS":"西門路二段３１２號四樓","OBJECTID":345381},"geometry":{"x":168014.6799999997,"y":2544174.9200000018}},{"attributes":{"ID":345391,"DIS_CODE":0,"TOWNNAME":"白河區","LI":"詔安里","LIN":"5鄰","STREET":" ","SECT":" ","MAREA":"詔安厝","LANE":" ","ALLEY":" ","HOUSE_NO":"６０號","E_COORD97":189773.62,"N_COORD97":2587968.1099999999,"ADDRESS":"詔安厝６０號","OBJECTID":345382},"geometry":{"x":189773.61999999918,"y":2587968.1099999994}},{"attributes":{"ID":345392,"DIS_CODE":0,"TOWNNAME":"中西區","LI":"法華里","LIN":"8鄰","STREET":"五妃街","SECT":" ","MAREA":" ","LANE":" ","ALLEY":" ","HOUSE_NO":"１１之１號七樓之１","E_COORD97":169067.39999999999,"N_COORD97":2542552.1200000001,"ADDRESS":"五妃街１１之１號七樓之１","OBJECTID":345383},"geometry":{"x":169067.4000000013,"y":2542552.120000001}},{"attributes":{"ID":345393,"DIS_CODE":0,"TOWNNAME":"中西區","LI":"法華里","LIN":"8鄰","STREET":"五妃街","SECT":" ","MAREA":" ","LANE":" ","ALLEY":" ","HOUSE_NO":"１１之１號七樓之２","E_COORD97":169067.39999999999,"N_COORD97":2542552.1200000001,"ADDRESS":"五妃街１１之１號七樓之２","OBJECTID":345384},"geometry":{"x":169067.4000000013,"y":2542552.120000001}},{"attributes":{"ID":345394,"DIS_CODE":0,"TOWNNAME":"中西區","LI":"法華里","LIN":"8鄰","STREET":"五妃街","SECT":" ","MAREA":" ","LANE":" ","ALLEY":" ","HOUSE_NO":"１１之１號八樓之１","E_COORD97":169067.39999999999,"N_COORD97":2542552.1200000001,"ADDRESS":"五妃街１１之１號八樓之１","OBJECTID":345385},"geometry":{"x":169067.4000000013,"y":2542552.120000001}},{"attributes":{"ID":345395,"DIS_CODE":0,"TOWNNAME":"中西區","LI":"法華里","LIN":"8鄰","STREET":"五妃街","SECT":" ","MAREA":" ","LANE":" ","ALLEY":" ","HOUSE_NO":"１１之１號八樓之２","E_COORD97":169067.39999999999,"N_COORD97":2542552.1200000001,"ADDRESS":"五妃街１１之１號八樓之２","OBJECTID":345386},"geometry":{"x":169067.4000000013,"y":2542552.120000001}},{"attributes":{"ID":345396,"DIS_CODE":0,"TOWNNAME":"中西區","LI":"法華里","LIN":"8鄰","STREET":"五妃街","SECT":" ","MAREA":" ","LANE":" ","ALLEY":" ","HOUSE_NO":"１１之１號三樓之１","E_COORD97":169067.39999999999,"N_COORD97":2542552.1200000001,"ADDRESS":"五妃街１１之１號三樓之１","OBJECTID":345387},"geometry":{"x":169067.4000000013,"y":2542552.120000001}},{"attributes":{"ID":345397,"DIS_CODE":0,"TOWNNAME":"中西區","LI":"法華里","LIN":"8鄰","STREET":"五妃街","SECT":" ","MAREA":" ","LANE":" ","ALLEY":" ","HOUSE_NO":"１１之１號三樓之２","E_COORD97":169067.39999999999,"N_COORD97":2542552.1200000001,"ADDRESS":"五妃街１１之１號三樓之２","OBJECTID":345388},"geometry":{"x":169067.4000000013,"y":2542552.120000001}},{"attributes":{"ID":345398,"DIS_CODE":0,"TOWNNAME":"北區","LI":"和順里","LIN":"31鄰","STREET":"臨安路","SECT":"二段","MAREA":" ","LANE":"１６９巷","ALLEY":" ","HOUSE_NO":"２號四樓","E_COORD97":167850.51999999999,"N_COORD97":2544917.5600000001,"ADDRESS":"臨安路二段１６９巷２號四樓","OBJECTID":345389},"geometry":{"x":167850.52000000048,"y":2544917.5600000024}},{"attributes":{"ID":345399,"DIS_CODE":0,"TOWNNAME":"北區","LI":"和順里","LIN":"31鄰","STREET":"臨安路","SECT":"二段","MAREA":" ","LANE":"１６９巷","ALLEY":" ","HOUSE_NO":"４號七樓","E_COORD97":167860.22,"N_COORD97":2544943.52,"ADDRESS":"臨安路二段１６９巷４號七樓","OBJECTID":345390},"geometry":{"x":167860.21999999974,"y":2544943.5200000014}},{"attributes":{"ID":345400,"DIS_CODE":0,"TOWNNAME":"北區","LI":"和順里","LIN":"31鄰","STREET":"臨安路","SECT":"二段","MAREA":" ","LANE":"１６９巷","ALLEY":" ","HOUSE_NO":"４號七樓之１","E_COORD97":167860.22,"N_COORD97":2544943.52,"ADDRESS":"臨安路二段１６９巷４號七樓之１","OBJECTID":345391},"geometry":{"x":167860.21999999974,"y":2544943.5200000014}},{"attributes":{"ID":345401,"DIS_CODE":0,"TOWNNAME":"北區","LI":"和順里","LIN":"31鄰","STREET":"臨安路","SECT":"二段","MAREA":" ","LANE":"１６９巷","ALLEY":" ","HOUSE_NO":"４號七樓之２","E_COORD97":167860.22,"N_COORD97":2544943.52,"ADDRESS":"臨安路二段１６９巷４號七樓之２","OBJECTID":345392},"geometry":{"x":167860.21999999974,"y":2544943.5200000014}},{"attributes":{"ID":345402,"DIS_CODE":0,"TOWNNAME":"北區","LI":"和順里","LIN":"31鄰","STREET":"臨安路","SECT":"二段","MAREA":" ","LANE":"１６９巷","ALLEY":" ","HOUSE_NO":"４號八樓","E_COORD97":167860.22,"N_COORD97":2544943.52,"ADDRESS":"臨安路二段１６９巷４號八樓","OBJECTID":345393},"geometry":{"x":167860.21999999974,"y":2544943.5200000014}},{"attributes":{"ID":345403,"DIS_CODE":0,"TOWNNAME":"北區","LI":"和順里","LIN":"31鄰","STREET":"臨安路","SECT":"二段","MAREA":" ","LANE":"１６９巷","ALLEY":" ","HOUSE_NO":"４號八樓之１","E_COORD97":167860.22,"N_COORD97":2544943.52,"ADDRESS":"臨安路二段１６９巷４號八樓之１","OBJECTID":345394},"geometry":{"x":167860.21999999974,"y":2544943.5200000014}},{"attributes":{"ID":345404,"DIS_CODE":0,"TOWNNAME":"北區","LI":"和順里","LIN":"31鄰","STREET":"臨安路","SECT":"二段","MAREA":" ","LANE":"１６９巷","ALLEY":" ","HOUSE_NO":"４號八樓之２","E_COORD97":167860.22,"N_COORD97":2544943.52,"ADDRESS":"臨安路二段１６９巷４號八樓之２","OBJECTID":345395},"geometry":{"x":167860.21999999974,"y":2544943.5200000014}},{"attributes":{"ID":345405,"DIS_CODE":0,"TOWNNAME":"北區","LI":"和順里","LIN":"31鄰","STREET":"臨安路","SECT":"二段","MAREA":" ","LANE":"１６９巷","ALLEY":" ","HOUSE_NO":"４號三樓","E_COORD97":167860.22,"N_COORD97":2544943.52,"ADDRESS":"臨安路二段１６９巷４號三樓","OBJECTID":345396},"geometry":{"x":167860.21999999974,"y":2544943.5200000014}},{"attributes":{"ID":345406,"DIS_CODE":0,"TOWNNAME":"北區","LI":"和順里","LIN":"31鄰","STREET":"臨安路","SECT":"二段","MAREA":" ","LANE":"１６９巷","ALLEY":" ","HOUSE_NO":"４號五樓","E_COORD97":167860.22,"N_COORD97":2544943.52,"ADDRESS":"臨安路二段１６９巷４號五樓","OBJECTID":345397},"geometry":{"x":167860.21999999974,"y":2544943.5200000014}},{"attributes":{"ID":345407,"DIS_CODE":0,"TOWNNAME":"北區","LI":"和順里","LIN":"31鄰","STREET":"臨安路","SECT":"二段","MAREA":" ","LANE":"１６９巷","ALLEY":" ","HOUSE_NO":"４號六樓","E_COORD97":167860.22,"N_COORD97":2544943.52,"ADDRESS":"臨安路二段１６９巷４號六樓","OBJECTID":345398},"geometry":{"x":167860.21999999974,"y":2544943.5200000014}},{"attributes":{"ID":345408,"DIS_CODE":0,"TOWNNAME":"北區","LI":"和順里","LIN":"31鄰","STREET":"臨安路","SECT":"二段","MAREA":" ","LANE":"１６９巷","ALLEY":" ","HOUSE_NO":"４號六樓之１","E_COORD97":167860.22,"N_COORD97":2544943.52,"ADDRESS":"臨安路二段１６９巷４號六樓之１","OBJECTID":345399},"geometry":{"x":167860.21999999974,"y":2544943.5200000014}},{"attributes":{"ID":345409,"DIS_CODE":0,"TOWNNAME":"北區","LI":"和順里","LIN":"31鄰","STREET":"臨安路","SECT":"二段","MAREA":" ","LANE":"１６９巷","ALLEY":" ","HOUSE_NO":"４號四樓","E_COORD97":167860.22,"N_COORD97":2544943.52,"ADDRESS":"臨安路二段１６９巷４號四樓","OBJECTID":345400},"geometry":{"x":167860.21999999974,"y":2544943.5200000014}}]}