{"displayFieldName":"TOWNNAME","fieldAliases":{"ID":"ID","DIS_CODE":"DIS_CODE","TOWNNAME":"TOWNNAME","LI":"LI","LIN":"LIN","STREET":"STREET","SECT":"SECT","MAREA":"MAREA","LANE":"LANE","ALLEY":"ALLEY","HOUSE_NO":"HOUSE_NO","E_COORD97":"E_COORD97","N_COORD97":"N_COORD97","ADDRESS":"ADDRESS","OBJECTID":"OBJECTID"},"geometryType":"esriGeometryPoint","spatialReference":{"wkid":102443,"latestWkid":3826},"fields":[{"name":"ID","type":"esriFieldTypeDouble","alias":"ID"},{"name":"DIS_CODE","type":"esriFieldTypeInteger","alias":"DIS_CODE"},{"name":"TOWNNAME","type":"esriFieldTypeString","alias":"TOWNNAME","length":8},{"name":"LI","type":"esriFieldTypeString","alias":"LI","length":8},{"name":"LIN","type":"esriFieldTypeString","alias":"LIN","length":12},{"name":"STREET","type":"esriFieldTypeString","alias":"STREET","length":20},{"name":"SECT","type":"esriFieldTypeString","alias":"SECT","length":8},{"name":"MAREA","type":"esriFieldTypeString","alias":"MAREA","length":12},{"name":"LANE","type":"esriFieldTypeString","alias":"LANE","length":10},{"name":"ALLEY","type":"esriFieldTypeString","alias":"ALLEY","length":10},{"name":"HOUSE_NO","type":"esriFieldTypeString","alias":"HOUSE_NO","length":20},{"name":"E_COORD97","type":"esriFieldTypeDouble","alias":"E_COORD97"},{"name":"N_COORD97","type":"esriFieldTypeDouble","alias":"N_COORD97"},{"name":"ADDRESS","type":"esriFieldTypeString","alias":"ADDRESS","length":50},{"name":"OBJECTID","type":"esriFieldTypeOID","alias":"OBJECTID"}],"features":[{"attributes":{"ID":29401,"DIS_CODE":0,"TOWNNAME":"新營區","LI":"延平里","LIN":" ","STREET":"復興路","SECT":" ","MAREA":" ","LANE":" ","ALLEY":" ","HOUSE_NO":"１之１４６號","E_COORD97":179715.17999999999,"N_COORD97":2577935.1299999999,"ADDRESS":"復興路１之１４６號","OBJECTID":29401},"geometry":{"x":179715.1799999997,"y":2577935.129999999}},{"attributes":{"ID":29402,"DIS_CODE":0,"TOWNNAME":"新營區","LI":"興安里","LIN":"5鄰","STREET":"工業街","SECT":" ","MAREA":" ","LANE":" ","ALLEY":" ","HOUSE_NO":"６７號","E_COORD97":180617.26000000001,"N_COORD97":2577834.46,"ADDRESS":"工業街６７號","OBJECTID":29402},"geometry":{"x":180617.26000000071,"y":2577834.4600000046}},{"attributes":{"ID":29403,"DIS_CODE":0,"TOWNNAME":"新營區","LI":"王公里","LIN":"25鄰","STREET":"中正路","SECT":" ","MAREA":" ","LANE":" ","ALLEY":" ","HOUSE_NO":"１３６之１０號","E_COORD97":180096.84,"N_COORD97":2579644.3399999999,"ADDRESS":"中正路１３６之１０號","OBJECTID":29403},"geometry":{"x":180096.83999999985,"y":2579644.339999998}},{"attributes":{"ID":29404,"DIS_CODE":0,"TOWNNAME":"新營區","LI":"三仙里","LIN":"32鄰","STREET":"三興街","SECT":" ","MAREA":" ","LANE":" ","ALLEY":" ","HOUSE_NO":"１３８號","E_COORD97":179453.07999999999,"N_COORD97":2579266.3700000001,"ADDRESS":"三興街１３８號","OBJECTID":29404},"geometry":{"x":179453.08000000007,"y":2579266.3700000029}},{"attributes":{"ID":29405,"DIS_CODE":0,"TOWNNAME":"新營區","LI":"民生里","LIN":" ","STREET":"進修街","SECT":" ","MAREA":" ","LANE":" ","ALLEY":" ","HOUSE_NO":"１３之３號","E_COORD97":179031.04000000001,"N_COORD97":2578445.6000000001,"ADDRESS":"進修街１３之３號","OBJECTID":29405},"geometry":{"x":179031.04000000004,"y":2578445.6000000034}},{"attributes":{"ID":29406,"DIS_CODE":0,"TOWNNAME":"新營區","LI":"忠政里","LIN":"32鄰","STREET":"府西路","SECT":" ","MAREA":" ","LANE":" ","ALLEY":" ","HOUSE_NO":"１５號","E_COORD97":179815.26000000001,"N_COORD97":2578906.9300000002,"ADDRESS":"府西路１５號","OBJECTID":29406},"geometry":{"x":179815.26000000071,"y":2578906.9299999997}},{"attributes":{"ID":29407,"DIS_CODE":0,"TOWNNAME":"新營區","LI":"民生里","LIN":" ","STREET":"民生路","SECT":" ","MAREA":" ","LANE":" ","ALLEY":" ","HOUSE_NO":"１０５之１１號","E_COORD97":179173.06,"N_COORD97":2578531.3199999998,"ADDRESS":"民生路１０５之１１號","OBJECTID":29407},"geometry":{"x":179173.05999999959,"y":2578531.3200000022}},{"attributes":{"ID":29408,"DIS_CODE":0,"TOWNNAME":"新營區","LI":"興業里","LIN":"18鄰","STREET":"同濟街","SECT":" ","MAREA":" ","LANE":" ","ALLEY":" ","HOUSE_NO":"３號","E_COORD97":180502.19,"N_COORD97":2578192.7000000002,"ADDRESS":"同濟街３號","OBJECTID":29408},"geometry":{"x":180502.19000000041,"y":2578192.6999999993}},{"attributes":{"ID":29409,"DIS_CODE":0,"TOWNNAME":"新營區","LI":"新南里","LIN":"20鄰","STREET":"民治路","SECT":" ","MAREA":" ","LANE":" ","ALLEY":" ","HOUSE_NO":"３３８號","E_COORD97":178736.23999999999,"N_COORD97":2578340.79,"ADDRESS":"民治路３３８號","OBJECTID":29409},"geometry":{"x":178736.24000000115,"y":2578340.7899999991}},{"attributes":{"ID":29410,"DIS_CODE":0,"TOWNNAME":"新營區","LI":"埤寮里","LIN":"1鄰","STREET":"中正路","SECT":" ","MAREA":" ","LANE":" ","ALLEY":" ","HOUSE_NO":"４９５號","E_COORD97":180055.01000000001,"N_COORD97":2580600.4900000002,"ADDRESS":"中正路４９５號","OBJECTID":29410},"geometry":{"x":180055.00999999978,"y":2580600.4900000021}},{"attributes":{"ID":29411,"DIS_CODE":0,"TOWNNAME":"鹽水區","LI":"歡雅里","LIN":"8鄰","STREET":" ","SECT":" ","MAREA":"歡雅","LANE":" ","ALLEY":" ","HOUSE_NO":"１１０之２號","E_COORD97":172343.79999999999,"N_COORD97":2576408.9700000002,"ADDRESS":"歡雅１１０之２號","OBJECTID":29411},"geometry":{"x":172343.79999999981,"y":2576408.9700000007}},{"attributes":{"ID":29412,"DIS_CODE":0,"TOWNNAME":"鹽水區","LI":"歡雅里","LIN":"8鄰","STREET":" ","SECT":" ","MAREA":"歡雅","LANE":" ","ALLEY":" ","HOUSE_NO":"１１０號","E_COORD97":172314.84,"N_COORD97":2576424.5099999998,"ADDRESS":"歡雅１１０號","OBJECTID":29412},"geometry":{"x":172314.84000000171,"y":2576424.5099999998}},{"attributes":{"ID":29413,"DIS_CODE":0,"TOWNNAME":"鹽水區","LI":"歡雅里","LIN":"8鄰","STREET":" ","SECT":" ","MAREA":"歡雅","LANE":" ","ALLEY":" ","HOUSE_NO":"１１２號","E_COORD97":172375.48000000001,"N_COORD97":2576488.1499999999,"ADDRESS":"歡雅１１２號","OBJECTID":29413},"geometry":{"x":172375.47999999952,"y":2576488.1500000022}},{"attributes":{"ID":29414,"DIS_CODE":0,"TOWNNAME":"東區","LI":"崇信里","LIN":"17鄰","STREET":"崇善路","SECT":" ","MAREA":" ","LANE":"２０５巷","ALLEY":"６弄","HOUSE_NO":"１０號","E_COORD97":170555,"N_COORD97":2542240.7999999998,"ADDRESS":"崇善路２０５巷６弄１０號","OBJECTID":29414},"geometry":{"x":170555.00000000093,"y":2542240.8000000026}},{"attributes":{"ID":29415,"DIS_CODE":0,"TOWNNAME":"東區","LI":"崇信里","LIN":"17鄰","STREET":"崇善路","SECT":" ","MAREA":" ","LANE":"２０５巷","ALLEY":"６弄","HOUSE_NO":"１２號","E_COORD97":170558.09,"N_COORD97":2542237.5099999998,"ADDRESS":"崇善路２０５巷６弄１２號","OBJECTID":29415},"geometry":{"x":170558.08999999985,"y":2542237.5100000016}},{"attributes":{"ID":29416,"DIS_CODE":0,"TOWNNAME":"東區","LI":"崇信里","LIN":"17鄰","STREET":"崇善路","SECT":" ","MAREA":" ","LANE":"２０５巷","ALLEY":"６弄","HOUSE_NO":"１４號","E_COORD97":170561.79000000001,"N_COORD97":2542235.46,"ADDRESS":"崇善路２０５巷６弄１４號","OBJECTID":29416},"geometry":{"x":170561.79000000004,"y":2542235.4600000046}},{"attributes":{"ID":29417,"DIS_CODE":0,"TOWNNAME":"東區","LI":"崇信里","LIN":"17鄰","STREET":"崇善路","SECT":" ","MAREA":" ","LANE":"２０５巷","ALLEY":"６弄","HOUSE_NO":"１６號","E_COORD97":170566.73999999999,"N_COORD97":2542231.7599999998,"ADDRESS":"崇善路２０５巷６弄１６號","OBJECTID":29417},"geometry":{"x":170566.74000000115,"y":2542231.7599999998}},{"attributes":{"ID":29418,"DIS_CODE":0,"TOWNNAME":"東區","LI":"崇信里","LIN":"17鄰","STREET":"崇善路","SECT":" ","MAREA":" ","LANE":"２０５巷","ALLEY":"６弄","HOUSE_NO":"２０號","E_COORD97":170575.59,"N_COORD97":2542225.1800000002,"ADDRESS":"崇善路２０５巷６弄２０號","OBJECTID":29418},"geometry":{"x":170575.59000000171,"y":2542225.1799999997}},{"attributes":{"ID":29419,"DIS_CODE":0,"TOWNNAME":"東區","LI":"崇信里","LIN":"17鄰","STREET":"崇善路","SECT":" ","MAREA":" ","LANE":"２０５巷","ALLEY":"６弄","HOUSE_NO":"２２號","E_COORD97":170578.88,"N_COORD97":2542221.6800000002,"ADDRESS":"崇善路２０５巷６弄２２號","OBJECTID":29419},"geometry":{"x":170578.88000000175,"y":2542221.6799999997}},{"attributes":{"ID":29420,"DIS_CODE":0,"TOWNNAME":"東區","LI":"崇信里","LIN":"17鄰","STREET":"崇善路","SECT":" ","MAREA":" ","LANE":"２０５巷","ALLEY":"６弄","HOUSE_NO":"２４號","E_COORD97":170582.59,"N_COORD97":2542218.7999999998,"ADDRESS":"崇善路２０５巷６弄２４號","OBJECTID":29420},"geometry":{"x":170582.59000000078,"y":2542218.8000000007}},{"attributes":{"ID":29421,"DIS_CODE":0,"TOWNNAME":"東區","LI":"崇信里","LIN":"17鄰","STREET":"崇善路","SECT":" ","MAREA":" ","LANE":"２０５巷","ALLEY":"６弄","HOUSE_NO":"２６號","E_COORD97":170585.88,"N_COORD97":2542216.3300000001,"ADDRESS":"崇善路２０５巷６弄２６號","OBJECTID":29421},"geometry":{"x":170585.88000000082,"y":2542216.3300000019}},{"attributes":{"ID":29422,"DIS_CODE":0,"TOWNNAME":"東區","LI":"崇信里","LIN":"17鄰","STREET":"崇善路","SECT":" ","MAREA":" ","LANE":"２０５巷","ALLEY":"６弄","HOUSE_NO":"２８號","E_COORD97":170589.17999999999,"N_COORD97":2542213.8700000001,"ADDRESS":"崇善路２０５巷６弄２８號","OBJECTID":29422},"geometry":{"x":170589.18000000063,"y":2542213.8700000029}},{"attributes":{"ID":29423,"DIS_CODE":0,"TOWNNAME":"東區","LI":"崇信里","LIN":"17鄰","STREET":"崇善路","SECT":" ","MAREA":" ","LANE":"２０５巷","ALLEY":"６弄","HOUSE_NO":"２號","E_COORD97":170539.14000000001,"N_COORD97":2542258.8999999999,"ADDRESS":"崇善路２０５巷６弄２號","OBJECTID":29423},"geometry":{"x":170539.13999999966,"y":2542258.9000000041}},{"attributes":{"ID":29424,"DIS_CODE":0,"TOWNNAME":"東區","LI":"崇信里","LIN":"17鄰","STREET":"崇善路","SECT":" ","MAREA":" ","LANE":"２０５巷","ALLEY":"６弄","HOUSE_NO":"３０號","E_COORD97":170592.26999999999,"N_COORD97":2542211.1899999999,"ADDRESS":"崇善路２０５巷６弄３０號","OBJECTID":29424},"geometry":{"x":170592.26999999955,"y":2542211.1899999995}},{"attributes":{"ID":29425,"DIS_CODE":0,"TOWNNAME":"東區","LI":"崇信里","LIN":"17鄰","STREET":"崇善路","SECT":" ","MAREA":" ","LANE":"２０５巷","ALLEY":"６弄","HOUSE_NO":"３４號","E_COORD97":170598.64999999999,"N_COORD97":2542205.4399999999,"ADDRESS":"崇善路２０５巷６弄３４號","OBJECTID":29425},"geometry":{"x":170598.6500000013,"y":2542205.4399999995}},{"attributes":{"ID":29426,"DIS_CODE":0,"TOWNNAME":"安南區","LI":"溪頂里","LIN":"14鄰","STREET":"惠安街","SECT":" ","MAREA":" ","LANE":" ","ALLEY":" ","HOUSE_NO":"１６７號","E_COORD97":168743.76000000001,"N_COORD97":2547322.9199999999,"ADDRESS":"惠安街１６７號","OBJECTID":29426},"geometry":{"x":168743.76000000071,"y":2547322.9199999999}},{"attributes":{"ID":29427,"DIS_CODE":0,"TOWNNAME":"安南區","LI":"學東里","LIN":"14鄰","STREET":"公學路","SECT":"七段","MAREA":" ","LANE":" ","ALLEY":" ","HOUSE_NO":"１３５號之１","E_COORD97":161682.92999999999,"N_COORD97":2553431.5299999998,"ADDRESS":"公學路七段１３５號之１","OBJECTID":29427},"geometry":{"x":161682.9299999997,"y":2553431.5300000031}},{"attributes":{"ID":29428,"DIS_CODE":0,"TOWNNAME":"安南區","LI":"學東里","LIN":"14鄰","STREET":"公學路","SECT":"七段","MAREA":" ","LANE":" ","ALLEY":" ","HOUSE_NO":"１３５號之２","E_COORD97":161681.87,"N_COORD97":2553434.2799999998,"ADDRESS":"公學路七段１３５號之２","OBJECTID":29428},"geometry":{"x":161681.87000000104,"y":2553434.2800000012}},{"attributes":{"ID":29429,"DIS_CODE":0,"TOWNNAME":"中西區","LI":"天后里","LIN":"14鄰","STREET":"郡緯街","SECT":" ","MAREA":" ","LANE":" ","ALLEY":" ","HOUSE_NO":"１７號","E_COORD97":168175.45000000001,"N_COORD97":2544274.0600000001,"ADDRESS":"郡緯街１７號","OBJECTID":29429},"geometry":{"x":168175.45000000112,"y":2544274.0600000005}},{"attributes":{"ID":29430,"DIS_CODE":0,"TOWNNAME":"東區","LI":"崇信里","LIN":"17鄰","STREET":"崇善路","SECT":" ","MAREA":" ","LANE":"２０５巷","ALLEY":"６弄","HOUSE_NO":"３６號","E_COORD97":170602.14999999999,"N_COORD97":2542201.3199999998,"ADDRESS":"崇善路２０５巷６弄３６號","OBJECTID":29430},"geometry":{"x":170602.15000000037,"y":2542201.3200000003}},{"attributes":{"ID":29431,"DIS_CODE":0,"TOWNNAME":"東區","LI":"崇信里","LIN":"17鄰","STREET":"崇善路","SECT":" ","MAREA":" ","LANE":"２０５巷","ALLEY":"６弄","HOUSE_NO":"６號","E_COORD97":170548.20999999999,"N_COORD97":2542247.79,"ADDRESS":"崇善路２０５巷６弄６號","OBJECTID":29431},"geometry":{"x":170548.21000000089,"y":2542247.7899999991}},{"attributes":{"ID":29432,"DIS_CODE":0,"TOWNNAME":"東區","LI":"崇信里","LIN":"17鄰","STREET":"崇善路","SECT":" ","MAREA":" ","LANE":"２０５巷","ALLEY":"６弄","HOUSE_NO":"８號","E_COORD97":170551.70999999999,"N_COORD97":2542244.5,"ADDRESS":"崇善路２０５巷６弄８號","OBJECTID":29432},"geometry":{"x":170551.71000000089,"y":2542244.5000000037}},{"attributes":{"ID":29433,"DIS_CODE":0,"TOWNNAME":"東區","LI":"崇學里","LIN":"17鄰","STREET":"崇德路","SECT":" ","MAREA":" ","LANE":"３３３巷","ALLEY":"２３弄","HOUSE_NO":"２６號","E_COORD97":170373.23999999999,"N_COORD97":2542091.8100000001,"ADDRESS":"崇德路３３３巷２３弄２６號","OBJECTID":29433},"geometry":{"x":170373.24000000209,"y":2542091.8100000024}},{"attributes":{"ID":29434,"DIS_CODE":0,"TOWNNAME":"東區","LI":"崇學里","LIN":"17鄰","STREET":"崇德路","SECT":" ","MAREA":" ","LANE":"３３３巷","ALLEY":"２３弄","HOUSE_NO":"２８號","E_COORD97":170377.23999999999,"N_COORD97":2542097.3300000001,"ADDRESS":"崇德路３３３巷２３弄２８號","OBJECTID":29434},"geometry":{"x":170377.24000000115,"y":2542097.3300000019}},{"attributes":{"ID":29435,"DIS_CODE":0,"TOWNNAME":"東區","LI":"崇學里","LIN":"17鄰","STREET":"崇德路","SECT":" ","MAREA":" ","LANE":"３３３巷","ALLEY":"２３弄","HOUSE_NO":"３０號","E_COORD97":170366.76000000001,"N_COORD97":2542103.6699999999,"ADDRESS":"崇德路３３３巷２３弄３０號","OBJECTID":29435},"geometry":{"x":170366.75999999978,"y":2542103.6699999999}},{"attributes":{"ID":29436,"DIS_CODE":0,"TOWNNAME":"東區","LI":"崇學里","LIN":"17鄰","STREET":"崇德路","SECT":" ","MAREA":" ","LANE":"３３３巷","ALLEY":"２３弄","HOUSE_NO":"３２號","E_COORD97":170358.20000000001,"N_COORD97":2542110.4199999999,"ADDRESS":"崇德路３３３巷２３弄３２號","OBJECTID":29436},"geometry":{"x":170358.20000000205,"y":2542110.4200000018}},{"attributes":{"ID":29437,"DIS_CODE":0,"TOWNNAME":"鹽水區","LI":"歡雅里","LIN":"8鄰","STREET":" ","SECT":" ","MAREA":"歡雅","LANE":" ","ALLEY":" ","HOUSE_NO":"１１３號","E_COORD97":172398.45999999999,"N_COORD97":2576501.1600000001,"ADDRESS":"歡雅１１３號","OBJECTID":29437},"geometry":{"x":172398.45999999996,"y":2576501.160000002}},{"attributes":{"ID":29438,"DIS_CODE":0,"TOWNNAME":"鹽水區","LI":"歡雅里","LIN":"8鄰","STREET":" ","SECT":" ","MAREA":"歡雅","LANE":" ","ALLEY":" ","HOUSE_NO":"９６號之１","E_COORD97":172356.57000000001,"N_COORD97":2576545.4900000002,"ADDRESS":"歡雅９６號之１","OBJECTID":29438},"geometry":{"x":172356.57000000123,"y":2576545.4900000021}},{"attributes":{"ID":29439,"DIS_CODE":0,"TOWNNAME":"鹽水區","LI":"歡雅里","LIN":"8鄰","STREET":" ","SECT":" ","MAREA":"歡雅","LANE":" ","ALLEY":" ","HOUSE_NO":"９６號","E_COORD97":172350.32000000001,"N_COORD97":2576520.4700000002,"ADDRESS":"歡雅９６號","OBJECTID":29439},"geometry":{"x":172350.3200000003,"y":2576520.4700000007}},{"attributes":{"ID":29440,"DIS_CODE":0,"TOWNNAME":"鹽水區","LI":"歡雅里","LIN":"8鄰","STREET":" ","SECT":" ","MAREA":"歡雅","LANE":" ","ALLEY":" ","HOUSE_NO":"９７號","E_COORD97":172346.20999999999,"N_COORD97":2576490.8900000001,"ADDRESS":"歡雅９７號","OBJECTID":29440},"geometry":{"x":172346.20999999996,"y":2576490.8900000006}},{"attributes":{"ID":29441,"DIS_CODE":0,"TOWNNAME":"鹽水區","LI":"歡雅里","LIN":"8鄰","STREET":" ","SECT":" ","MAREA":"歡雅","LANE":" ","ALLEY":" ","HOUSE_NO":"９８之１號","E_COORD97":172333.37,"N_COORD97":2576447.75,"ADDRESS":"歡雅９８之１號","OBJECTID":29441},"geometry":{"x":172333.37000000011,"y":2576447.75}},{"attributes":{"ID":29442,"DIS_CODE":0,"TOWNNAME":"鹽水區","LI":"歡雅里","LIN":"8鄰","STREET":" ","SECT":" ","MAREA":"歡雅","LANE":" ","ALLEY":" ","HOUSE_NO":"９８號","E_COORD97":172330.63,"N_COORD97":2576475.8700000001,"ADDRESS":"歡雅９８號","OBJECTID":29442},"geometry":{"x":172330.63000000082,"y":2576475.8700000029}},{"attributes":{"ID":29443,"DIS_CODE":0,"TOWNNAME":"鹽水區","LI":"歡雅里","LIN":"8鄰","STREET":" ","SECT":" ","MAREA":"歡雅","LANE":" ","ALLEY":" ","HOUSE_NO":"９９號之１１","E_COORD97":172313.62,"N_COORD97":2576405.9300000002,"ADDRESS":"歡雅９９號之１１","OBJECTID":29443},"geometry":{"x":172313.62000000104,"y":2576405.9300000034}},{"attributes":{"ID":29444,"DIS_CODE":0,"TOWNNAME":"鹽水區","LI":"歡雅里","LIN":"8鄰","STREET":" ","SECT":" ","MAREA":"歡雅","LANE":" ","ALLEY":" ","HOUSE_NO":"９９之１５號","E_COORD97":172323.12,"N_COORD97":2576372.7999999998,"ADDRESS":"歡雅９９之１５號","OBJECTID":29444},"geometry":{"x":172323.12000000011,"y":2576372.8000000007}},{"attributes":{"ID":29445,"DIS_CODE":0,"TOWNNAME":"東區","LI":"崇學里","LIN":"17鄰","STREET":"崇德路","SECT":" ","MAREA":" ","LANE":"３３３巷","ALLEY":"２３弄","HOUSE_NO":"３４號","E_COORD97":170351.44,"N_COORD97":2542116.6299999999,"ADDRESS":"崇德路３３３巷２３弄３４號","OBJECTID":29445},"geometry":{"x":170351.44000000041,"y":2542116.6299999971}},{"attributes":{"ID":29446,"DIS_CODE":0,"TOWNNAME":"東區","LI":"崇學里","LIN":"17鄰","STREET":"崇德路","SECT":" ","MAREA":" ","LANE":"３３３巷","ALLEY":"２３弄","HOUSE_NO":"３６號","E_COORD97":170346.47,"N_COORD97":2542111.7999999998,"ADDRESS":"崇德路３３３巷２３弄３６號","OBJECTID":29446},"geometry":{"x":170346.47000000067,"y":2542111.8000000026}},{"attributes":{"ID":29447,"DIS_CODE":0,"TOWNNAME":"東區","LI":"崇學里","LIN":"17鄰","STREET":"崇德路","SECT":" ","MAREA":" ","LANE":"３３３巷","ALLEY":"２３弄","HOUSE_NO":"３８號","E_COORD97":170349.51000000001,"N_COORD97":2542091.8100000001,"ADDRESS":"崇德路３３３巷２３弄３８號","OBJECTID":29447},"geometry":{"x":170349.51000000071,"y":2542091.8100000024}},{"attributes":{"ID":29448,"DIS_CODE":0,"TOWNNAME":"東區","LI":"崇學里","LIN":"17鄰","STREET":"崇德路","SECT":" ","MAREA":" ","LANE":"３３３巷","ALLEY":"２３弄","HOUSE_NO":"４０號","E_COORD97":170346.06,"N_COORD97":2542094.71,"ADDRESS":"崇德路３３３巷２３弄４０號","OBJECTID":29448},"geometry":{"x":170346.05999999959,"y":2542094.7100000046}},{"attributes":{"ID":29449,"DIS_CODE":0,"TOWNNAME":"東區","LI":"崇學里","LIN":"17鄰","STREET":"崇德路","SECT":" ","MAREA":" ","LANE":"３３３巷","ALLEY":"２３弄","HOUSE_NO":"４２號","E_COORD97":170343.01999999999,"N_COORD97":2542097.3300000001,"ADDRESS":"崇德路３３３巷２３弄４２號","OBJECTID":29449},"geometry":{"x":170343.01999999955,"y":2542097.3300000019}},{"attributes":{"ID":29450,"DIS_CODE":0,"TOWNNAME":"東區","LI":"崇學里","LIN":"17鄰","STREET":"崇德路","SECT":" ","MAREA":" ","LANE":"３３３巷","ALLEY":"２３弄","HOUSE_NO":"４２號之１","E_COORD97":170339.57000000001,"N_COORD97":2542100.0800000001,"ADDRESS":"崇德路３３３巷２３弄４２號之１","OBJECTID":29450},"geometry":{"x":170339.57000000123,"y":2542100.0800000001}},{"attributes":{"ID":29451,"DIS_CODE":0,"TOWNNAME":"東區","LI":"崇學里","LIN":"17鄰","STREET":"崇德路","SECT":" ","MAREA":" ","LANE":"３３３巷","ALLEY":"２３弄","HOUSE_NO":"４６號","E_COORD97":170336.26000000001,"N_COORD97":2542102.4300000002,"ADDRESS":"崇德路３３３巷２３弄４６號","OBJECTID":29451},"geometry":{"x":170336.25999999978,"y":2542102.4300000016}},{"attributes":{"ID":29452,"DIS_CODE":0,"TOWNNAME":"東區","LI":"崇學里","LIN":"17鄰","STREET":"崇德路","SECT":" ","MAREA":" ","LANE":"３３３巷","ALLEY":"２３弄","HOUSE_NO":"４８號","E_COORD97":170332.81,"N_COORD97":2542104.9100000001,"ADDRESS":"崇德路３３３巷２３弄４８號","OBJECTID":29452},"geometry":{"x":170332.80999999959,"y":2542104.9100000001}},{"attributes":{"ID":29453,"DIS_CODE":0,"TOWNNAME":"永康區","LI":"東灣里","LIN":"14鄰","STREET":"大灣路","SECT":" ","MAREA":" ","LANE":" ","ALLEY":" ","HOUSE_NO":"３３１號","E_COORD97":174786.28,"N_COORD97":2544954.46,"ADDRESS":"大灣路３３１號","OBJECTID":29453},"geometry":{"x":174786.28000000119,"y":2544954.4600000046}},{"attributes":{"ID":29454,"DIS_CODE":0,"TOWNNAME":"中西區","LI":"銀同里","LIN":"14鄰","STREET":"友愛東街","SECT":" ","MAREA":" ","LANE":" ","ALLEY":" ","HOUSE_NO":"１２號","E_COORD97":168730.66,"N_COORD97":2543610.46,"ADDRESS":"友愛東街１２號","OBJECTID":29454},"geometry":{"x":168730.66000000015,"y":2543610.4600000009}},{"attributes":{"ID":29455,"DIS_CODE":0,"TOWNNAME":"中西區","LI":"天后里","LIN":"14鄰","STREET":"赤嵌街","SECT":" ","MAREA":" ","LANE":" ","ALLEY":" ","HOUSE_NO":"１７號","E_COORD97":168206.70000000001,"N_COORD97":2544255.02,"ADDRESS":"赤嵌街１７號","OBJECTID":29455},"geometry":{"x":168206.70000000019,"y":2544255.0200000014}},{"attributes":{"ID":29456,"DIS_CODE":0,"TOWNNAME":"中西區","LI":"天后里","LIN":"14鄰","STREET":"赤嵌街","SECT":" ","MAREA":" ","LANE":" ","ALLEY":" ","HOUSE_NO":"１７號之１","E_COORD97":168208.60000000001,"N_COORD97":2544258.54,"ADDRESS":"赤嵌街１７號之１","OBJECTID":29456},"geometry":{"x":168208.59999999963,"y":2544258.540000001}},{"attributes":{"ID":29457,"DIS_CODE":0,"TOWNNAME":"中西區","LI":"天后里","LIN":"14鄰","STREET":"赤嵌街","SECT":" ","MAREA":" ","LANE":" ","ALLEY":" ","HOUSE_NO":"１９號","E_COORD97":168211.57000000001,"N_COORD97":2544262.5899999999,"ADDRESS":"赤嵌街１９號","OBJECTID":29457},"geometry":{"x":168211.57000000216,"y":2544262.5899999999}},{"attributes":{"ID":29458,"DIS_CODE":0,"TOWNNAME":"鹽水區","LI":"歡雅里","LIN":"8鄰","STREET":" ","SECT":" ","MAREA":"歡雅","LANE":" ","ALLEY":" ","HOUSE_NO":"９９之１６號","E_COORD97":172323.48999999999,"N_COORD97":2576377.9700000002,"ADDRESS":"歡雅９９之１６號","OBJECTID":29458},"geometry":{"x":172323.49000000115,"y":2576377.9700000007}},{"attributes":{"ID":29459,"DIS_CODE":0,"TOWNNAME":"鹽水區","LI":"歡雅里","LIN":"8鄰","STREET":" ","SECT":" ","MAREA":"歡雅","LANE":" ","ALLEY":" ","HOUSE_NO":"９９之１７號","E_COORD97":172333.26000000001,"N_COORD97":2576372.0899999999,"ADDRESS":"歡雅９９之１７號","OBJECTID":29459},"geometry":{"x":172333.25999999978,"y":2576372.0900000017}},{"attributes":{"ID":29460,"DIS_CODE":0,"TOWNNAME":"中西區","LI":"天后里","LIN":"14鄰","STREET":"赤嵌街","SECT":" ","MAREA":" ","LANE":" ","ALLEY":" ","HOUSE_NO":"２１號","E_COORD97":168212.64999999999,"N_COORD97":2544267.98,"ADDRESS":"赤嵌街２１號","OBJECTID":29460},"geometry":{"x":168212.65000000224,"y":2544267.9800000004}},{"attributes":{"ID":29461,"DIS_CODE":0,"TOWNNAME":"中西區","LI":"天后里","LIN":"14鄰","STREET":"赤嵌街","SECT":" ","MAREA":" ","LANE":" ","ALLEY":" ","HOUSE_NO":"２３號","E_COORD97":168215.89999999999,"N_COORD97":2544273.25,"ADDRESS":"赤嵌街２３號","OBJECTID":29461},"geometry":{"x":168215.90000000037,"y":2544273.2499999981}},{"attributes":{"ID":29462,"DIS_CODE":0,"TOWNNAME":"中西區","LI":"天后里","LIN":"14鄰","STREET":"郡緯街","SECT":" ","MAREA":" ","LANE":" ","ALLEY":" ","HOUSE_NO":"１號","E_COORD97":168209.95000000001,"N_COORD97":2544274.77,"ADDRESS":"郡緯街１號","OBJECTID":29462},"geometry":{"x":168209.95000000019,"y":2544274.7699999996}},{"attributes":{"ID":29463,"DIS_CODE":0,"TOWNNAME":"中西區","LI":"天后里","LIN":"14鄰","STREET":"郡緯街","SECT":" ","MAREA":" ","LANE":" ","ALLEY":" ","HOUSE_NO":"１１號","E_COORD97":168181.72,"N_COORD97":2544285.3500000001,"ADDRESS":"郡緯街１１號","OBJECTID":29463},"geometry":{"x":168181.72000000067,"y":2544285.3499999996}},{"attributes":{"ID":29464,"DIS_CODE":0,"TOWNNAME":"下營區","LI":"甲中里","LIN":"14鄰","STREET":" ","SECT":" ","MAREA":"十六甲","LANE":" ","ALLEY":" ","HOUSE_NO":"４７號","E_COORD97":175869.29000000001,"N_COORD97":2572155.73,"ADDRESS":"十六甲４７號","OBJECTID":29464},"geometry":{"x":175869.29000000097,"y":2572155.7300000004}},{"attributes":{"ID":29465,"DIS_CODE":0,"TOWNNAME":"下營區","LI":"甲中里","LIN":"14鄰","STREET":" ","SECT":" ","MAREA":"十六甲","LANE":" ","ALLEY":" ","HOUSE_NO":"４８號之１","E_COORD97":175855.67999999999,"N_COORD97":2572171.0800000001,"ADDRESS":"十六甲４８號之１","OBJECTID":29465},"geometry":{"x":175855.68000000063,"y":2572171.0800000019}},{"attributes":{"ID":29466,"DIS_CODE":0,"TOWNNAME":"佳里區","LI":"六安里","LIN":"17鄰","STREET":"延平路","SECT":" ","MAREA":" ","LANE":"５７７巷","ALLEY":"７０弄","HOUSE_NO":"１２號","E_COORD97":165723.60000000001,"N_COORD97":2563591.4300000002,"ADDRESS":"延平路５７７巷７０弄１２號","OBJECTID":29466},"geometry":{"x":165723.5999999987,"y":2563591.4300000016}},{"attributes":{"ID":29467,"DIS_CODE":0,"TOWNNAME":"下營區","LI":"甲中里","LIN":"14鄰","STREET":" ","SECT":" ","MAREA":"十六甲","LANE":" ","ALLEY":" ","HOUSE_NO":"４８號之２","E_COORD97":175859.70000000001,"N_COORD97":2572169.73,"ADDRESS":"十六甲４８號之２","OBJECTID":29467},"geometry":{"x":175859.70000000112,"y":2572169.7300000004}},{"attributes":{"ID":29468,"DIS_CODE":0,"TOWNNAME":"佳里區","LI":"六安里","LIN":"17鄰","STREET":"延平路","SECT":" ","MAREA":" ","LANE":"５７７巷","ALLEY":"７０弄","HOUSE_NO":"１６號","E_COORD97":165724.42999999999,"N_COORD97":2563596.73,"ADDRESS":"延平路５７７巷７０弄１６號","OBJECTID":29468},"geometry":{"x":165724.4299999997,"y":2563596.7300000023}},{"attributes":{"ID":29469,"DIS_CODE":0,"TOWNNAME":"佳里區","LI":"六安里","LIN":"17鄰","STREET":"延平路","SECT":" ","MAREA":" ","LANE":"５７７巷","ALLEY":"７０弄","HOUSE_NO":"１８號","E_COORD97":165725.5,"N_COORD97":2563603.3399999999,"ADDRESS":"延平路５７７巷７０弄１８號","OBJECTID":29469},"geometry":{"x":165725.50000000093,"y":2563603.3399999999}},{"attributes":{"ID":29470,"DIS_CODE":0,"TOWNNAME":"下營區","LI":"甲中里","LIN":"14鄰","STREET":" ","SECT":" ","MAREA":"十六甲","LANE":" ","ALLEY":" ","HOUSE_NO":"４８號","E_COORD97":175849.42000000001,"N_COORD97":2572171.71,"ADDRESS":"十六甲４８號","OBJECTID":29470},"geometry":{"x":175849.42000000086,"y":2572171.7100000028}},{"attributes":{"ID":29471,"DIS_CODE":0,"TOWNNAME":"佳里區","LI":"六安里","LIN":"17鄰","STREET":"延平路","SECT":" ","MAREA":" ","LANE":"５７７巷","ALLEY":"７０弄","HOUSE_NO":"１號","E_COORD97":165691.82999999999,"N_COORD97":2563569.9500000002,"ADDRESS":"延平路５７７巷７０弄１號","OBJECTID":29471},"geometry":{"x":165691.83000000007,"y":2563569.9500000011}},{"attributes":{"ID":29472,"DIS_CODE":0,"TOWNNAME":"佳里區","LI":"六安里","LIN":"17鄰","STREET":"延平路","SECT":" ","MAREA":" ","LANE":"５７７巷","ALLEY":"７０弄","HOUSE_NO":"２０號","E_COORD97":165726.56,"N_COORD97":2563609.9500000002,"ADDRESS":"延平路５７７巷７０弄２０號","OBJECTID":29472},"geometry":{"x":165726.55999999959,"y":2563609.950000003}},{"attributes":{"ID":29473,"DIS_CODE":0,"TOWNNAME":"佳里區","LI":"六安里","LIN":"17鄰","STREET":"延平路","SECT":" ","MAREA":" ","LANE":"５７７巷","ALLEY":"７０弄","HOUSE_NO":"２號","E_COORD97":165721.53,"N_COORD97":2563565.1099999999,"ADDRESS":"延平路５７７巷７０弄２號","OBJECTID":29473},"geometry":{"x":165721.53000000212,"y":2563565.1100000031}},{"attributes":{"ID":29474,"DIS_CODE":0,"TOWNNAME":"下營區","LI":"甲中里","LIN":"14鄰","STREET":" ","SECT":" ","MAREA":"十六甲","LANE":" ","ALLEY":" ","HOUSE_NO":"４９號之１","E_COORD97":175868.76000000001,"N_COORD97":2572177.1699999999,"ADDRESS":"十六甲４９號之１","OBJECTID":29474},"geometry":{"x":175868.76000000071,"y":2572177.1700000018}},{"attributes":{"ID":29475,"DIS_CODE":0,"TOWNNAME":"下營區","LI":"甲中里","LIN":"14鄰","STREET":" ","SECT":" ","MAREA":"十六甲","LANE":" ","ALLEY":" ","HOUSE_NO":"４９號","E_COORD97":175880.51999999999,"N_COORD97":2572176.2999999998,"ADDRESS":"十六甲４９號","OBJECTID":29475},"geometry":{"x":175880.52000000048,"y":2572176.3000000007}},{"attributes":{"ID":29476,"DIS_CODE":0,"TOWNNAME":"佳里區","LI":"六安里","LIN":"17鄰","STREET":"延平路","SECT":" ","MAREA":" ","LANE":"５７７巷","ALLEY":"７０弄","HOUSE_NO":"３號","E_COORD97":165692.66,"N_COORD97":2563575.8999999999,"ADDRESS":"延平路５７７巷７０弄３號","OBJECTID":29476},"geometry":{"x":165692.66000000015,"y":2563575.9000000022}},{"attributes":{"ID":29477,"DIS_CODE":0,"TOWNNAME":"佳里區","LI":"六安里","LIN":"17鄰","STREET":"延平路","SECT":" ","MAREA":" ","LANE":"５７７巷","ALLEY":"７０弄","HOUSE_NO":"５號","E_COORD97":165693.70000000001,"N_COORD97":2563582.4500000002,"ADDRESS":"延平路５７７巷７０弄５號","OBJECTID":29477},"geometry":{"x":165693.70000000112,"y":2563582.4499999993}},{"attributes":{"ID":29478,"DIS_CODE":0,"TOWNNAME":"下營區","LI":"甲中里","LIN":"14鄰","STREET":" ","SECT":" ","MAREA":"十六甲","LANE":" ","ALLEY":" ","HOUSE_NO":"５０號","E_COORD97":175874.67999999999,"N_COORD97":2572206.75,"ADDRESS":"十六甲５０號","OBJECTID":29478},"geometry":{"x":175874.68000000063,"y":2572206.7500000037}},{"attributes":{"ID":29479,"DIS_CODE":0,"TOWNNAME":"佳里區","LI":"六安里","LIN":"17鄰","STREET":"延平路","SECT":" ","MAREA":" ","LANE":"５７７巷","ALLEY":"７０弄","HOUSE_NO":"６號","E_COORD97":165722.60000000001,"N_COORD97":2563571.71,"ADDRESS":"延平路５７７巷７０弄６號","OBJECTID":29479},"geometry":{"x":165722.60000000056,"y":2563571.7100000009}},{"attributes":{"ID":29480,"DIS_CODE":0,"TOWNNAME":"佳里區","LI":"六安里","LIN":"17鄰","STREET":"延平路","SECT":" ","MAREA":" ","LANE":"５７７巷","ALLEY":"７０弄","HOUSE_NO":"７號","E_COORD97":165694.95999999999,"N_COORD97":2563589.1400000001,"ADDRESS":"延平路５７７巷７０弄７號","OBJECTID":29480},"geometry":{"x":165694.96000000089,"y":2563589.1400000006}},{"attributes":{"ID":29481,"DIS_CODE":0,"TOWNNAME":"下營區","LI":"甲中里","LIN":"14鄰","STREET":" ","SECT":" ","MAREA":"十六甲","LANE":" ","ALLEY":" ","HOUSE_NO":"５２號之１","E_COORD97":175871.76000000001,"N_COORD97":2572225.3900000001,"ADDRESS":"十六甲５２號之１","OBJECTID":29481},"geometry":{"x":175871.75999999885,"y":2572225.3900000006}},{"attributes":{"ID":29482,"DIS_CODE":0,"TOWNNAME":"下營區","LI":"甲中里","LIN":"14鄰","STREET":" ","SECT":" ","MAREA":"十六甲","LANE":" ","ALLEY":" ","HOUSE_NO":"５２號","E_COORD97":175864.09,"N_COORD97":2572227.6299999999,"ADDRESS":"十六甲５２號","OBJECTID":29482},"geometry":{"x":175864.08999999985,"y":2572227.6300000008}},{"attributes":{"ID":29483,"DIS_CODE":0,"TOWNNAME":"下營區","LI":"甲中里","LIN":"14鄰","STREET":" ","SECT":" ","MAREA":"十六甲","LANE":" ","ALLEY":" ","HOUSE_NO":"５３號","E_COORD97":175732.07000000001,"N_COORD97":2572122.5,"ADDRESS":"十六甲５３號","OBJECTID":29483},"geometry":{"x":175732.07000000123,"y":2572122.5}},{"attributes":{"ID":29484,"DIS_CODE":0,"TOWNNAME":"鹽水區","LI":"歡雅里","LIN":"8鄰","STREET":" ","SECT":" ","MAREA":"歡雅","LANE":" ","ALLEY":" ","HOUSE_NO":"９９之１８號","E_COORD97":172337.37,"N_COORD97":2576371.6299999999,"ADDRESS":"歡雅９９之１８號","OBJECTID":29484},"geometry":{"x":172337.37000000104,"y":2576371.629999999}},{"attributes":{"ID":29485,"DIS_CODE":0,"TOWNNAME":"鹽水區","LI":"歡雅里","LIN":"8鄰","STREET":" ","SECT":" ","MAREA":"歡雅","LANE":" ","ALLEY":" ","HOUSE_NO":"９９之１９號","E_COORD97":172341.60999999999,"N_COORD97":2576371.1600000001,"ADDRESS":"歡雅９９之１９號","OBJECTID":29485},"geometry":{"x":172341.61000000034,"y":2576371.1600000039}},{"attributes":{"ID":29486,"DIS_CODE":0,"TOWNNAME":"鹽水區","LI":"歡雅里","LIN":"8鄰","STREET":" ","SECT":" ","MAREA":"歡雅","LANE":" ","ALLEY":" ","HOUSE_NO":"９９之２０號","E_COORD97":172345.39999999999,"N_COORD97":2576370.5499999998,"ADDRESS":"歡雅９９之２０號","OBJECTID":29486},"geometry":{"x":172345.40000000037,"y":2576370.5500000026}},{"attributes":{"ID":29487,"DIS_CODE":0,"TOWNNAME":"鹽水區","LI":"歡雅里","LIN":"8鄰","STREET":" ","SECT":" ","MAREA":"歡雅","LANE":" ","ALLEY":" ","HOUSE_NO":"９９之２１號","E_COORD97":172349.22,"N_COORD97":2576370.04,"ADDRESS":"歡雅９９之２１號","OBJECTID":29487},"geometry":{"x":172349.21999999974,"y":2576370.0399999991}},{"attributes":{"ID":29488,"DIS_CODE":0,"TOWNNAME":"鹽水區","LI":"歡雅里","LIN":"8鄰","STREET":" ","SECT":" ","MAREA":"歡雅","LANE":" ","ALLEY":" ","HOUSE_NO":"９９號之２１","E_COORD97":172349.22,"N_COORD97":2576370.04,"ADDRESS":"歡雅９９號之２１","OBJECTID":29488},"geometry":{"x":172349.21999999974,"y":2576370.0399999991}},{"attributes":{"ID":29489,"DIS_CODE":0,"TOWNNAME":"鹽水區","LI":"歡雅里","LIN":"8鄰","STREET":" ","SECT":" ","MAREA":"歡雅","LANE":" ","ALLEY":" ","HOUSE_NO":"９９號之２２","E_COORD97":172353.32999999999,"N_COORD97":2576369.8100000001,"ADDRESS":"歡雅９９號之２２","OBJECTID":29489},"geometry":{"x":172353.33000000101,"y":2576369.8100000005}},{"attributes":{"ID":29490,"DIS_CODE":0,"TOWNNAME":"鹽水區","LI":"歡雅里","LIN":"8鄰","STREET":" ","SECT":" ","MAREA":"歡雅","LANE":" ","ALLEY":" ","HOUSE_NO":"９９號之２３","E_COORD97":172359.13,"N_COORD97":2576367.7599999998,"ADDRESS":"歡雅９９號之２３","OBJECTID":29490},"geometry":{"x":172359.13000000082,"y":2576367.7600000016}},{"attributes":{"ID":29491,"DIS_CODE":0,"TOWNNAME":"鹽水區","LI":"歡雅里","LIN":"8鄰","STREET":" ","SECT":" ","MAREA":"歡雅","LANE":" ","ALLEY":" ","HOUSE_NO":"９９之２４號","E_COORD97":172363.10999999999,"N_COORD97":2576367.1899999999,"ADDRESS":"歡雅９９之２４號","OBJECTID":29491},"geometry":{"x":172363.11000000127,"y":2576367.1900000013}},{"attributes":{"ID":29492,"DIS_CODE":0,"TOWNNAME":"鹽水區","LI":"歡雅里","LIN":"8鄰","STREET":" ","SECT":" ","MAREA":"歡雅","LANE":" ","ALLEY":" ","HOUSE_NO":"９９之２５號","E_COORD97":172367.59,"N_COORD97":2576366.5800000001,"ADDRESS":"歡雅９９之２５號","OBJECTID":29492},"geometry":{"x":172367.59000000078,"y":2576366.5800000001}},{"attributes":{"ID":29493,"DIS_CODE":0,"TOWNNAME":"鹽水區","LI":"歡雅里","LIN":"8鄰","STREET":" ","SECT":" ","MAREA":"歡雅","LANE":" ","ALLEY":" ","HOUSE_NO":"９９之２６號","E_COORD97":172371.41,"N_COORD97":2576366.1400000001,"ADDRESS":"歡雅９９之２６號","OBJECTID":29493},"geometry":{"x":172371.41000000108,"y":2576366.1400000025}},{"attributes":{"ID":29494,"DIS_CODE":0,"TOWNNAME":"鹽水區","LI":"歡雅里","LIN":"8鄰","STREET":" ","SECT":" ","MAREA":"歡雅","LANE":" ","ALLEY":" ","HOUSE_NO":"９９號之２７","E_COORD97":172376.06,"N_COORD97":2576366.3500000001,"ADDRESS":"歡雅９９號之２７","OBJECTID":29494},"geometry":{"x":172376.06000000052,"y":2576366.3500000015}},{"attributes":{"ID":29495,"DIS_CODE":0,"TOWNNAME":"鹽水區","LI":"歡雅里","LIN":"8鄰","STREET":" ","SECT":" ","MAREA":"歡雅","LANE":" ","ALLEY":" ","HOUSE_NO":"９９之２８號","E_COORD97":172379.81,"N_COORD97":2576365.9300000002,"ADDRESS":"歡雅９９之２８號","OBJECTID":29495},"geometry":{"x":172379.81000000052,"y":2576365.9300000016}},{"attributes":{"ID":29496,"DIS_CODE":0,"TOWNNAME":"鹽水區","LI":"歡雅里","LIN":"8鄰","STREET":" ","SECT":" ","MAREA":"歡雅","LANE":" ","ALLEY":" ","HOUSE_NO":"９９之２９號","E_COORD97":172384.10000000001,"N_COORD97":2576365.5499999998,"ADDRESS":"歡雅９９之２９號","OBJECTID":29496},"geometry":{"x":172384.10000000149,"y":2576365.5500000045}},{"attributes":{"ID":29497,"DIS_CODE":0,"TOWNNAME":"鹽水區","LI":"歡雅里","LIN":"8鄰","STREET":" ","SECT":" ","MAREA":"歡雅","LANE":" ","ALLEY":" ","HOUSE_NO":"９９之３０號","E_COORD97":172387.92999999999,"N_COORD97":2576365.23,"ADDRESS":"歡雅９９之３０號","OBJECTID":29497},"geometry":{"x":172387.9299999997,"y":2576365.2300000023}},{"attributes":{"ID":29498,"DIS_CODE":0,"TOWNNAME":"鹽水區","LI":"歡雅里","LIN":"8鄰","STREET":" ","SECT":" ","MAREA":"歡雅","LANE":" ","ALLEY":" ","HOUSE_NO":"９９之３１號","E_COORD97":172392.01999999999,"N_COORD97":2576364.79,"ADDRESS":"歡雅９９之３１號","OBJECTID":29498},"geometry":{"x":172392.02000000048,"y":2576364.7899999991}},{"attributes":{"ID":29499,"DIS_CODE":0,"TOWNNAME":"鹽水區","LI":"歡雅里","LIN":"8鄰","STREET":" ","SECT":" ","MAREA":"歡雅","LANE":" ","ALLEY":" ","HOUSE_NO":"９９之３２號","E_COORD97":172396.14000000001,"N_COORD97":2576364.6000000001,"ADDRESS":"歡雅９９之３２號","OBJECTID":29499},"geometry":{"x":172396.1400000006,"y":2576364.6000000015}},{"attributes":{"ID":29500,"DIS_CODE":0,"TOWNNAME":"鹽水區","LI":"歡雅里","LIN":"8鄰","STREET":" ","SECT":" ","MAREA":"歡雅","LANE":" ","ALLEY":" ","HOUSE_NO":"９９之３３號","E_COORD97":172400.32000000001,"N_COORD97":2576365.77,"ADDRESS":"歡雅９９之３３號","OBJECTID":29500},"geometry":{"x":172400.32000000216,"y":2576365.7699999996}},{"attributes":{"ID":29501,"DIS_CODE":0,"TOWNNAME":"鹽水區","LI":"歡雅里","LIN":"8鄰","STREET":" ","SECT":" ","MAREA":"歡雅","LANE":" ","ALLEY":" ","HOUSE_NO":"９９之３４號","E_COORD97":172404.79999999999,"N_COORD97":2576365.23,"ADDRESS":"歡雅９９之３４號","OBJECTID":29501},"geometry":{"x":172404.79999999981,"y":2576365.2300000023}},{"attributes":{"ID":29502,"DIS_CODE":0,"TOWNNAME":"鹽水區","LI":"歡雅里","LIN":"8鄰","STREET":" ","SECT":" ","MAREA":"歡雅","LANE":" ","ALLEY":" ","HOUSE_NO":"９９之３５號","E_COORD97":172325.56,"N_COORD97":2576392.8900000001,"ADDRESS":"歡雅９９之３５號","OBJECTID":29502},"geometry":{"x":172325.56000000052,"y":2576392.8900000006}},{"attributes":{"ID":29503,"DIS_CODE":0,"TOWNNAME":"鹽水區","LI":"歡雅里","LIN":"8鄰","STREET":" ","SECT":" ","MAREA":"歡雅","LANE":" ","ALLEY":" ","HOUSE_NO":"９９之３６號","E_COORD97":172327.22,"N_COORD97":2576400,"ADDRESS":"歡雅９９之３６號","OBJECTID":29503},"geometry":{"x":172327.21999999974,"y":2576400.0000000019}},{"attributes":{"ID":29504,"DIS_CODE":0,"TOWNNAME":"佳里區","LI":"六安里","LIN":"17鄰","STREET":"延平路","SECT":" ","MAREA":" ","LANE":"５７７巷","ALLEY":"７０弄","HOUSE_NO":"８號","E_COORD97":165723.35000000001,"N_COORD97":2563577.9399999999,"ADDRESS":"延平路５７７巷７０弄８號","OBJECTID":29504},"geometry":{"x":165723.34999999963,"y":2563577.9400000013}},{"attributes":{"ID":29505,"DIS_CODE":0,"TOWNNAME":"佳里區","LI":"六安里","LIN":"17鄰","STREET":"延平路","SECT":" ","MAREA":" ","LANE":"５７７巷","ALLEY":"７０弄","HOUSE_NO":"９號","E_COORD97":165695.82000000001,"N_COORD97":2563595.3700000001,"ADDRESS":"延平路５７７巷７０弄９號","OBJECTID":29505},"geometry":{"x":165695.82000000216,"y":2563595.3700000048}},{"attributes":{"ID":29506,"DIS_CODE":0,"TOWNNAME":"佳里區","LI":"六安里","LIN":"17鄰","STREET":"延平路","SECT":" ","MAREA":" ","LANE":"５７７巷","ALLEY":"７２弄","HOUSE_NO":"１０號","E_COORD97":165680.25,"N_COORD97":2563588.23,"ADDRESS":"延平路５７７巷７２弄１０號","OBJECTID":29506},"geometry":{"x":165680.25,"y":2563588.2300000004}},{"attributes":{"ID":29507,"DIS_CODE":0,"TOWNNAME":"佳里區","LI":"六安里","LIN":"17鄰","STREET":"延平路","SECT":" ","MAREA":" ","LANE":"５７７巷","ALLEY":"７２弄","HOUSE_NO":"１１號","E_COORD97":165654.26000000001,"N_COORD97":2563604.0800000001,"ADDRESS":"延平路５７７巷７２弄１１號","OBJECTID":29507},"geometry":{"x":165654.25999999978,"y":2563604.0800000019}},{"attributes":{"ID":29508,"DIS_CODE":0,"TOWNNAME":"佳里區","LI":"六安里","LIN":"17鄰","STREET":"延平路","SECT":" ","MAREA":" ","LANE":"５７７巷","ALLEY":"７２弄","HOUSE_NO":"１２號","E_COORD97":165681.12,"N_COORD97":2563593.7200000002,"ADDRESS":"延平路５７７巷７２弄１２號","OBJECTID":29508},"geometry":{"x":165681.12000000011,"y":2563593.7200000025}},{"attributes":{"ID":29509,"DIS_CODE":0,"TOWNNAME":"佳里區","LI":"六安里","LIN":"17鄰","STREET":"延平路","SECT":" ","MAREA":" ","LANE":"５７７巷","ALLEY":"７２弄","HOUSE_NO":"１３號","E_COORD97":165655.17000000001,"N_COORD97":2563609.5299999998,"ADDRESS":"延平路５７７巷７２弄１３號","OBJECTID":29509},"geometry":{"x":165655.16999999993,"y":2563609.5300000031}},{"attributes":{"ID":29510,"DIS_CODE":0,"TOWNNAME":"佳里區","LI":"六安里","LIN":"17鄰","STREET":"延平路","SECT":" ","MAREA":" ","LANE":"５７７巷","ALLEY":"７２弄","HOUSE_NO":"１５號","E_COORD97":165656.07999999999,"N_COORD97":2563614.9900000002,"ADDRESS":"延平路５７７巷７２弄１５號","OBJECTID":29510},"geometry":{"x":165656.08000000007,"y":2563614.9900000021}},{"attributes":{"ID":29511,"DIS_CODE":0,"TOWNNAME":"佳里區","LI":"六安里","LIN":"17鄰","STREET":"延平路","SECT":" ","MAREA":" ","LANE":"５７７巷","ALLEY":"７２弄","HOUSE_NO":"１６號","E_COORD97":165681.98999999999,"N_COORD97":2563599.21,"ADDRESS":"延平路５７７巷７２弄１６號","OBJECTID":29511},"geometry":{"x":165681.99000000022,"y":2563599.2100000009}},{"attributes":{"ID":29512,"DIS_CODE":0,"TOWNNAME":"佳里區","LI":"六安里","LIN":"17鄰","STREET":"延平路","SECT":" ","MAREA":" ","LANE":"５７７巷","ALLEY":"７２弄","HOUSE_NO":"１７號","E_COORD97":165656.98999999999,"N_COORD97":2563620.4399999999,"ADDRESS":"延平路５７７巷７２弄１７號","OBJECTID":29512},"geometry":{"x":165656.99000000022,"y":2563620.4400000032}},{"attributes":{"ID":29513,"DIS_CODE":0,"TOWNNAME":"佳里區","LI":"六安里","LIN":"17鄰","STREET":"延平路","SECT":" ","MAREA":" ","LANE":"５７７巷","ALLEY":"７２弄","HOUSE_NO":"１８號","E_COORD97":165682.85999999999,"N_COORD97":2563604.7000000002,"ADDRESS":"延平路５７７巷７２弄１８號","OBJECTID":29513},"geometry":{"x":165682.86000000034,"y":2563604.6999999974}},{"attributes":{"ID":29514,"DIS_CODE":0,"TOWNNAME":"中西區","LI":"青年里","LIN":"14鄰","STREET":"民權路","SECT":"一段","MAREA":" ","LANE":" ","ALLEY":" ","HOUSE_NO":"２２９號","E_COORD97":168731.70000000001,"N_COORD97":2543674.2400000002,"ADDRESS":"民權路一段２２９號","OBJECTID":29514},"geometry":{"x":168731.70000000112,"y":2543674.2400000021}},{"attributes":{"ID":29515,"DIS_CODE":0,"TOWNNAME":"中西區","LI":"青年里","LIN":"14鄰","STREET":"民權路","SECT":"一段","MAREA":" ","LANE":" ","ALLEY":" ","HOUSE_NO":"２３１號","E_COORD97":168721.34,"N_COORD97":2543674.8199999998,"ADDRESS":"民權路一段２３１號","OBJECTID":29515},"geometry":{"x":168721.34000000078,"y":2543674.8200000022}},{"attributes":{"ID":29516,"DIS_CODE":0,"TOWNNAME":"中西區","LI":"青年里","LIN":"14鄰","STREET":"民權路","SECT":"一段","MAREA":" ","LANE":" ","ALLEY":" ","HOUSE_NO":"２３３號","E_COORD97":168721.84,"N_COORD97":2543679.9399999999,"ADDRESS":"民權路一段２３３號","OBJECTID":29516},"geometry":{"x":168721.84000000078,"y":2543679.9400000013}},{"attributes":{"ID":29517,"DIS_CODE":0,"TOWNNAME":"中西區","LI":"青年里","LIN":"14鄰","STREET":"民權路","SECT":"一段","MAREA":" ","LANE":" ","ALLEY":" ","HOUSE_NO":"２３５號","E_COORD97":168720.19,"N_COORD97":2543685.1499999999,"ADDRESS":"民權路一段２３５號","OBJECTID":29517},"geometry":{"x":168720.19000000041,"y":2543685.1500000022}},{"attributes":{"ID":29518,"DIS_CODE":0,"TOWNNAME":"中西區","LI":"青年里","LIN":"14鄰","STREET":"民權路","SECT":"一段","MAREA":" ","LANE":" ","ALLEY":" ","HOUSE_NO":"２３７號","E_COORD97":168718.03,"N_COORD97":2543688.54,"ADDRESS":"民權路一段２３７號","OBJECTID":29518},"geometry":{"x":168718.03000000026,"y":2543688.540000001}},{"attributes":{"ID":29519,"DIS_CODE":0,"TOWNNAME":"中西區","LI":"青年里","LIN":"14鄰","STREET":"民權路","SECT":"一段","MAREA":" ","LANE":" ","ALLEY":" ","HOUSE_NO":"２３９號","E_COORD97":168713.98000000001,"N_COORD97":2543690.77,"ADDRESS":"民權路一段２３９號","OBJECTID":29519},"geometry":{"x":168713.98000000231,"y":2543690.7700000014}},{"attributes":{"ID":29520,"DIS_CODE":0,"TOWNNAME":"中西區","LI":"青年里","LIN":"14鄰","STREET":"民權路","SECT":"一段","MAREA":" ","LANE":" ","ALLEY":" ","HOUSE_NO":"２４１號","E_COORD97":168707.85000000001,"N_COORD97":2543691.9300000002,"ADDRESS":"民權路一段２４１號","OBJECTID":29520},"geometry":{"x":168707.85000000056,"y":2543691.9299999978}},{"attributes":{"ID":29521,"DIS_CODE":0,"TOWNNAME":"中西區","LI":"協和里","LIN":"14鄰","STREET":"西和路","SECT":" ","MAREA":" ","LANE":" ","ALLEY":" ","HOUSE_NO":"２１０號","E_COORD97":167118.48999999999,"N_COORD97":2544733.6099999999,"ADDRESS":"西和路２１０號","OBJECTID":29521},"geometry":{"x":167118.49000000209,"y":2544733.6099999994}},{"attributes":{"ID":29522,"DIS_CODE":0,"TOWNNAME":"佳里區","LI":"六安里","LIN":"17鄰","STREET":"延平路","SECT":" ","MAREA":" ","LANE":"５７７巷","ALLEY":"７２弄","HOUSE_NO":"１９號","E_COORD97":165657.91,"N_COORD97":2563625.8999999999,"ADDRESS":"延平路５７７巷７２弄１９號","OBJECTID":29522},"geometry":{"x":165657.91000000108,"y":2563625.9000000022}},{"attributes":{"ID":29523,"DIS_CODE":0,"TOWNNAME":"佳里區","LI":"六安里","LIN":"17鄰","STREET":"延平路","SECT":" ","MAREA":" ","LANE":"５７７巷","ALLEY":"７２弄","HOUSE_NO":"１號","E_COORD97":165649.70999999999,"N_COORD97":2563576.8100000001,"ADDRESS":"延平路５７７巷７２弄１號","OBJECTID":29523},"geometry":{"x":165649.70999999996,"y":2563576.8100000005}},{"attributes":{"ID":29524,"DIS_CODE":0,"TOWNNAME":"佳里區","LI":"六安里","LIN":"17鄰","STREET":"延平路","SECT":" ","MAREA":" ","LANE":"５７７巷","ALLEY":"７２弄","HOUSE_NO":"２０號","E_COORD97":165683.72,"N_COORD97":2563610.1899999999,"ADDRESS":"延平路５７７巷７２弄２０號","OBJECTID":29524},"geometry":{"x":165683.71999999974,"y":2563610.1900000013}},{"attributes":{"ID":29525,"DIS_CODE":0,"TOWNNAME":"佳里區","LI":"六安里","LIN":"17鄰","STREET":"延平路","SECT":" ","MAREA":" ","LANE":"５７７巷","ALLEY":"７２弄","HOUSE_NO":"２２號","E_COORD97":165684.59,"N_COORD97":2563615.6800000002,"ADDRESS":"延平路５７７巷７２弄２２號","OBJECTID":29525},"geometry":{"x":165684.58999999985,"y":2563615.6800000034}},{"attributes":{"ID":29526,"DIS_CODE":0,"TOWNNAME":"佳里區","LI":"六安里","LIN":"17鄰","STREET":"延平路","SECT":" ","MAREA":" ","LANE":"５７７巷","ALLEY":"７２弄","HOUSE_NO":"２６號","E_COORD97":165685.45999999999,"N_COORD97":2563621.1600000001,"ADDRESS":"延平路５７７巷７２弄２６號","OBJECTID":29526},"geometry":{"x":165685.45999999996,"y":2563621.160000002}},{"attributes":{"ID":29527,"DIS_CODE":0,"TOWNNAME":"佳里區","LI":"六安里","LIN":"17鄰","STREET":"延平路","SECT":" ","MAREA":" ","LANE":"５７７巷","ALLEY":"７２弄","HOUSE_NO":"２號","E_COORD97":165679.53,"N_COORD97":2563571.46,"ADDRESS":"延平路５７７巷７２弄２號","OBJECTID":29527},"geometry":{"x":165679.53000000119,"y":2563571.4600000028}},{"attributes":{"ID":29528,"DIS_CODE":0,"TOWNNAME":"佳里區","LI":"六安里","LIN":"17鄰","STREET":"延平路","SECT":" ","MAREA":" ","LANE":"５７７巷","ALLEY":"７２弄","HOUSE_NO":"３號","E_COORD97":165650.62,"N_COORD97":2563582.27,"ADDRESS":"延平路５７７巷７２弄３號","OBJECTID":29528},"geometry":{"x":165650.62000000011,"y":2563582.2700000014}},{"attributes":{"ID":29529,"DIS_CODE":0,"TOWNNAME":"佳里區","LI":"安西里","LIN":"14鄰","STREET":"文化路","SECT":" ","MAREA":" ","LANE":" ","ALLEY":" ","HOUSE_NO":"３０１號","E_COORD97":165442.84,"N_COORD97":2562572.8199999998,"ADDRESS":"文化路３０１號","OBJECTID":29529},"geometry":{"x":165442.84000000078,"y":2562572.8200000022}},{"attributes":{"ID":29530,"DIS_CODE":0,"TOWNNAME":"新市區","LI":"永就里","LIN":"14鄰","STREET":"永華二街","SECT":" ","MAREA":" ","LANE":" ","ALLEY":" ","HOUSE_NO":"４３號","E_COORD97":177717.82000000001,"N_COORD97":2551101,"ADDRESS":"永華二街４３號","OBJECTID":29530},"geometry":{"x":177717.8200000003,"y":2551101.0000000019}},{"attributes":{"ID":29531,"DIS_CODE":0,"TOWNNAME":"新市區","LI":"永就里","LIN":"14鄰","STREET":"永華二街","SECT":" ","MAREA":" ","LANE":" ","ALLEY":" ","HOUSE_NO":"５３號","E_COORD97":177759.89000000001,"N_COORD97":2551116.25,"ADDRESS":"永華二街５３號","OBJECTID":29531},"geometry":{"x":177759.8900000006,"y":2551116.2500000019}},{"attributes":{"ID":29532,"DIS_CODE":0,"TOWNNAME":"新市區","LI":"潭頂里","LIN":"14鄰","STREET":" ","SECT":" ","MAREA":"潭頂","LANE":" ","ALLEY":" ","HOUSE_NO":"５４９之３號","E_COORD97":180088.57999999999,"N_COORD97":2552950.7999999998,"ADDRESS":"潭頂５４９之３號","OBJECTID":29532},"geometry":{"x":180088.58000000007,"y":2552950.8000000026}},{"attributes":{"ID":29533,"DIS_CODE":0,"TOWNNAME":"新市區","LI":"潭頂里","LIN":"14鄰","STREET":" ","SECT":" ","MAREA":"潭頂","LANE":" ","ALLEY":" ","HOUSE_NO":"５５１之１２號","E_COORD97":179751.75,"N_COORD97":2552933.2999999998,"ADDRESS":"潭頂５５１之１２號","OBJECTID":29533},"geometry":{"x":179751.75,"y":2552933.3000000026}},{"attributes":{"ID":29534,"DIS_CODE":0,"TOWNNAME":"新市區","LI":"潭頂里","LIN":"14鄰","STREET":" ","SECT":" ","MAREA":"潭頂","LANE":" ","ALLEY":" ","HOUSE_NO":"５３７之７號","E_COORD97":180185.82999999999,"N_COORD97":2552850.7999999998,"ADDRESS":"潭頂５３７之７號","OBJECTID":29534},"geometry":{"x":180185.82999999914,"y":2552850.8000000007}},{"attributes":{"ID":29535,"DIS_CODE":0,"TOWNNAME":"新市區","LI":"潭頂里","LIN":"14鄰","STREET":" ","SECT":" ","MAREA":"潭頂","LANE":" ","ALLEY":" ","HOUSE_NO":"５４４之６號","E_COORD97":179824.56,"N_COORD97":2552852.5499999998,"ADDRESS":"潭頂５４４之６號","OBJECTID":29535},"geometry":{"x":179824.56000000145,"y":2552852.5500000007}},{"attributes":{"ID":29536,"DIS_CODE":0,"TOWNNAME":"新市區","LI":"潭頂里","LIN":"14鄰","STREET":" ","SECT":" ","MAREA":"潭頂","LANE":" ","ALLEY":" ","HOUSE_NO":"５３７之１３號","E_COORD97":180205.45000000001,"N_COORD97":2552840.7999999998,"ADDRESS":"潭頂５３７之１３號","OBJECTID":29536},"geometry":{"x":180205.45000000019,"y":2552840.8000000007}},{"attributes":{"ID":29537,"DIS_CODE":0,"TOWNNAME":"新市區","LI":"新和里","LIN":"14鄰","STREET":"忠孝街","SECT":" ","MAREA":" ","LANE":" ","ALLEY":" ","HOUSE_NO":"１２８號","E_COORD97":177710.54000000001,"N_COORD97":2552648.5,"ADDRESS":"忠孝街１２８號","OBJECTID":29537},"geometry":{"x":177710.54000000004,"y":2552648.5}},{"attributes":{"ID":29538,"DIS_CODE":0,"TOWNNAME":"新市區","LI":"永就里","LIN":"14鄰","STREET":"永華二街","SECT":" ","MAREA":" ","LANE":" ","ALLEY":" ","HOUSE_NO":"４７號","E_COORD97":177734.81,"N_COORD97":2551106.5,"ADDRESS":"永華二街４７號","OBJECTID":29538},"geometry":{"x":177734.81000000052,"y":2551106.4999999981}},{"attributes":{"ID":29539,"DIS_CODE":0,"TOWNNAME":"新市區","LI":"永就里","LIN":"14鄰","STREET":"永華二街","SECT":" ","MAREA":" ","LANE":" ","ALLEY":" ","HOUSE_NO":"５７號","E_COORD97":177777.14999999999,"N_COORD97":2551122.5,"ADDRESS":"永華二街５７號","OBJECTID":29539},"geometry":{"x":177777.1500000013,"y":2551122.5}},{"attributes":{"ID":29540,"DIS_CODE":0,"TOWNNAME":"新市區","LI":"永就里","LIN":"14鄰","STREET":"永華二街","SECT":" ","MAREA":" ","LANE":" ","ALLEY":" ","HOUSE_NO":"５９號","E_COORD97":177786.20000000001,"N_COORD97":2551125.5,"ADDRESS":"永華二街５９號","OBJECTID":29540},"geometry":{"x":177786.20000000019,"y":2551125.5}},{"attributes":{"ID":29541,"DIS_CODE":0,"TOWNNAME":"下營區","LI":"新興里","LIN":"15鄰","STREET":"裕農街","SECT":" ","MAREA":" ","LANE":" ","ALLEY":" ","HOUSE_NO":"３１號","E_COORD97":175101.67999999999,"N_COORD97":2570308.8199999998,"ADDRESS":"裕農街３１號","OBJECTID":29541},"geometry":{"x":175101.68000000063,"y":2570308.8200000022}},{"attributes":{"ID":29542,"DIS_CODE":0,"TOWNNAME":"新市區","LI":"潭頂里","LIN":"14鄰","STREET":" ","SECT":" ","MAREA":"潭頂","LANE":" ","ALLEY":" ","HOUSE_NO":"５４５之１號","E_COORD97":180228.53,"N_COORD97":2552978.7999999998,"ADDRESS":"潭頂５４５之１號","OBJECTID":29542},"geometry":{"x":180228.53000000026,"y":2552978.8000000007}},{"attributes":{"ID":29543,"DIS_CODE":0,"TOWNNAME":"佳里區","LI":"六安里","LIN":"17鄰","STREET":"延平路","SECT":" ","MAREA":" ","LANE":"５７７巷","ALLEY":"７２弄","HOUSE_NO":"５號","E_COORD97":165651.53,"N_COORD97":2563587.7200000002,"ADDRESS":"延平路５７７巷７２弄５號","OBJECTID":29543},"geometry":{"x":165651.53000000026,"y":2563587.7200000007}},{"attributes":{"ID":29544,"DIS_CODE":0,"TOWNNAME":"佳里區","LI":"六安里","LIN":"17鄰","STREET":"延平路","SECT":" ","MAREA":" ","LANE":"５７７巷","ALLEY":"７２弄","HOUSE_NO":"６號","E_COORD97":165680.39000000001,"N_COORD97":2563576.9500000002,"ADDRESS":"延平路５７７巷７２弄６號","OBJECTID":29544},"geometry":{"x":165680.38999999966,"y":2563576.9500000011}},{"attributes":{"ID":29545,"DIS_CODE":0,"TOWNNAME":"佳里區","LI":"六安里","LIN":"17鄰","STREET":"延平路","SECT":" ","MAREA":" ","LANE":"５７７巷","ALLEY":"７２弄","HOUSE_NO":"７號","E_COORD97":165652.44,"N_COORD97":2563593.1699999999,"ADDRESS":"延平路５７７巷７２弄７號","OBJECTID":29545},"geometry":{"x":165652.44000000041,"y":2563593.1700000018}},{"attributes":{"ID":29546,"DIS_CODE":0,"TOWNNAME":"佳里區","LI":"六安里","LIN":"17鄰","STREET":"延平路","SECT":" ","MAREA":" ","LANE":"５７７巷","ALLEY":"７２弄","HOUSE_NO":"８號","E_COORD97":165681.26000000001,"N_COORD97":2563582.4399999999,"ADDRESS":"延平路５７７巷７２弄８號","OBJECTID":29546},"geometry":{"x":165681.25999999978,"y":2563582.4399999995}},{"attributes":{"ID":29547,"DIS_CODE":0,"TOWNNAME":"佳里區","LI":"六安里","LIN":"17鄰","STREET":"延平路","SECT":" ","MAREA":" ","LANE":"５７７巷","ALLEY":"７２弄","HOUSE_NO":"９號","E_COORD97":165653.35000000001,"N_COORD97":2563598.6299999999,"ADDRESS":"延平路５７７巷７２弄９號","OBJECTID":29547},"geometry":{"x":165653.34999999963,"y":2563598.6300000008}},{"attributes":{"ID":29548,"DIS_CODE":0,"TOWNNAME":"佳里區","LI":"六安里","LIN":"17鄰","STREET":"延平路","SECT":" ","MAREA":" ","LANE":"５７７巷","ALLEY":"７６弄","HOUSE_NO":"２號","E_COORD97":165634.73999999999,"N_COORD97":2563579,"ADDRESS":"延平路５７７巷７６弄２號","OBJECTID":29548},"geometry":{"x":165634.74000000022,"y":2563579}},{"attributes":{"ID":29549,"DIS_CODE":0,"TOWNNAME":"佳里區","LI":"六安里","LIN":"17鄰","STREET":"延平路","SECT":" ","MAREA":" ","LANE":"５７７巷","ALLEY":"７６弄","HOUSE_NO":"６號","E_COORD97":165635.64999999999,"N_COORD97":2563584.4500000002,"ADDRESS":"延平路５７７巷７６弄６號","OBJECTID":29549},"geometry":{"x":165635.65000000037,"y":2563584.4500000011}},{"attributes":{"ID":29550,"DIS_CODE":0,"TOWNNAME":"佳里區","LI":"六安里","LIN":"17鄰","STREET":"延平路","SECT":" ","MAREA":" ","LANE":"５７７巷","ALLEY":"７６弄","HOUSE_NO":"８號","E_COORD97":165636.56,"N_COORD97":2563589.9100000001,"ADDRESS":"延平路５７７巷７６弄８號","OBJECTID":29550},"geometry":{"x":165636.56000000052,"y":2563589.9100000001}},{"attributes":{"ID":29551,"DIS_CODE":0,"TOWNNAME":"永康區","LI":"安康里","LIN":"17鄰","STREET":"中華路","SECT":" ","MAREA":" ","LANE":"６１９巷","ALLEY":"２２弄","HOUSE_NO":"１８號","E_COORD97":171003.54999999999,"N_COORD97":2546140.5,"ADDRESS":"中華路６１９巷２２弄１８號","OBJECTID":29551},"geometry":{"x":171003.55000000075,"y":2546140.5000000019}},{"attributes":{"ID":29552,"DIS_CODE":0,"TOWNNAME":"永康區","LI":"安康里","LIN":"17鄰","STREET":"中華路","SECT":" ","MAREA":" ","LANE":"６１９巷","ALLEY":"２２弄","HOUSE_NO":"３２號","E_COORD97":170970.14999999999,"N_COORD97":2546155.7400000002,"ADDRESS":"中華路６１９巷２２弄３２號","OBJECTID":29552},"geometry":{"x":170970.15000000037,"y":2546155.7400000021}},{"attributes":{"ID":29553,"DIS_CODE":0,"TOWNNAME":"永康區","LI":"安康里","LIN":"17鄰","STREET":"中華路","SECT":" ","MAREA":" ","LANE":"６１９巷","ALLEY":"２２弄","HOUSE_NO":"２號","E_COORD97":171001.16,"N_COORD97":2546102.75,"ADDRESS":"中華路６１９巷２２弄２號","OBJECTID":29553},"geometry":{"x":171001.16000000108,"y":2546102.75}},{"attributes":{"ID":29554,"DIS_CODE":0,"TOWNNAME":"永康區","LI":"安康里","LIN":"17鄰","STREET":"中華路","SECT":" ","MAREA":" ","LANE":"６１９巷","ALLEY":"２２弄","HOUSE_NO":"１６號","E_COORD97":171013.45999999999,"N_COORD97":2546132,"ADDRESS":"中華路６１９巷２２弄１６號","OBJECTID":29554},"geometry":{"x":171013.45999999996,"y":2546132}},{"attributes":{"ID":29555,"DIS_CODE":0,"TOWNNAME":"安南區","LI":"安慶里","LIN":"17鄰","STREET":"安中路","SECT":"一段","MAREA":" ","LANE":"１８９巷","ALLEY":"４８弄","HOUSE_NO":"２６號","E_COORD97":168688.69,"N_COORD97":2548359.3999999999,"ADDRESS":"安中路一段１８９巷４８弄２６號","OBJECTID":29555},"geometry":{"x":168688.68999999948,"y":2548359.4000000022}},{"attributes":{"ID":29556,"DIS_CODE":0,"TOWNNAME":"佳里區","LI":"安西里","LIN":"14鄰","STREET":"文化路","SECT":" ","MAREA":" ","LANE":" ","ALLEY":" ","HOUSE_NO":"３０５號","E_COORD97":165432.73000000001,"N_COORD97":2562572.5800000001,"ADDRESS":"文化路３０５號","OBJECTID":29556},"geometry":{"x":165432.73000000138,"y":2562572.5800000038}},{"attributes":{"ID":29557,"DIS_CODE":0,"TOWNNAME":"安南區","LI":"安慶里","LIN":"17鄰","STREET":"安中路","SECT":"一段","MAREA":" ","LANE":"１８９巷","ALLEY":"４８弄","HOUSE_NO":"１６號","E_COORD97":168708.01000000001,"N_COORD97":2548361.7599999998,"ADDRESS":"安中路一段１８９巷４８弄１６號","OBJECTID":29557},"geometry":{"x":168708.01000000164,"y":2548361.7599999979}},{"attributes":{"ID":29558,"DIS_CODE":0,"TOWNNAME":"新市區","LI":"潭頂里","LIN":"14鄰","STREET":" ","SECT":" ","MAREA":"潭頂","LANE":" ","ALLEY":" ","HOUSE_NO":"５０８號","E_COORD97":180477.84,"N_COORD97":2552939.75,"ADDRESS":"潭頂５０８號","OBJECTID":29558},"geometry":{"x":180477.84000000078,"y":2552939.7500000019}},{"attributes":{"ID":29559,"DIS_CODE":0,"TOWNNAME":"安南區","LI":"安慶里","LIN":"17鄰","STREET":"安中路","SECT":"一段","MAREA":" ","LANE":"１８９巷","ALLEY":"４８弄","HOUSE_NO":"１８號","E_COORD97":168704.23999999999,"N_COORD97":2548361.1699999999,"ADDRESS":"安中路一段１８９巷４８弄１８號","OBJECTID":29559},"geometry":{"x":168704.24000000115,"y":2548361.1699999999}},{"attributes":{"ID":29560,"DIS_CODE":0,"TOWNNAME":"新市區","LI":"新和里","LIN":"14鄰","STREET":"忠孝街","SECT":" ","MAREA":" ","LANE":" ","ALLEY":" ","HOUSE_NO":"８０號","E_COORD97":177684.01000000001,"N_COORD97":2552535,"ADDRESS":"忠孝街８０號","OBJECTID":29560},"geometry":{"x":177684.01000000164,"y":2552535.0000000019}},{"attributes":{"ID":29561,"DIS_CODE":0,"TOWNNAME":"新市區","LI":"潭頂里","LIN":"14鄰","STREET":" ","SECT":" ","MAREA":"潭頂","LANE":" ","ALLEY":" ","HOUSE_NO":"５４８號","E_COORD97":180120.28,"N_COORD97":2552970.5,"ADDRESS":"潭頂５４８號","OBJECTID":29561},"geometry":{"x":180120.27999999933,"y":2552970.5}},{"attributes":{"ID":29562,"DIS_CODE":0,"TOWNNAME":"新市區","LI":"永就里","LIN":"14鄰","STREET":"永華二街","SECT":" ","MAREA":" ","LANE":" ","ALLEY":" ","HOUSE_NO":"５１號","E_COORD97":177751.89000000001,"N_COORD97":2551113.25,"ADDRESS":"永華二街５１號","OBJECTID":29562},"geometry":{"x":177751.88999999966,"y":2551113.2500000019}},{"attributes":{"ID":29563,"DIS_CODE":0,"TOWNNAME":"新市區","LI":"潭頂里","LIN":"14鄰","STREET":" ","SECT":" ","MAREA":"潭頂","LANE":" ","ALLEY":" ","HOUSE_NO":"５４２之１號","E_COORD97":180108.89000000001,"N_COORD97":2552868.2999999998,"ADDRESS":"潭頂５４２之１號","OBJECTID":29563},"geometry":{"x":180108.89000000153,"y":2552868.2999999989}},{"attributes":{"ID":29564,"DIS_CODE":0,"TOWNNAME":"新市區","LI":"潭頂里","LIN":"14鄰","STREET":" ","SECT":" ","MAREA":"潭頂","LANE":" ","ALLEY":" ","HOUSE_NO":"５４０之２號","E_COORD97":180137.92000000001,"N_COORD97":2552850.7999999998,"ADDRESS":"潭頂５４０之２號","OBJECTID":29564},"geometry":{"x":180137.92000000086,"y":2552850.8000000007}},{"attributes":{"ID":29565,"DIS_CODE":0,"TOWNNAME":"新市區","LI":"社內里","LIN":"14鄰","STREET":" ","SECT":" ","MAREA":"社內","LANE":" ","ALLEY":" ","HOUSE_NO":"１５２之３號","E_COORD97":176300.89000000001,"N_COORD97":2553058.2999999998,"ADDRESS":"社內１５２之３號","OBJECTID":29565},"geometry":{"x":176300.88999999966,"y":2553058.3000000045}},{"attributes":{"ID":29566,"DIS_CODE":0,"TOWNNAME":"安南區","LI":"安慶里","LIN":"17鄰","STREET":"安中路","SECT":"一段","MAREA":" ","LANE":"１８９巷","ALLEY":"４８弄","HOUSE_NO":"２０號","E_COORD97":168700.44,"N_COORD97":2548361.1600000001,"ADDRESS":"安中路一段１８９巷４８弄２０號","OBJECTID":29566},"geometry":{"x":168700.44000000041,"y":2548361.160000002}},{"attributes":{"ID":29567,"DIS_CODE":0,"TOWNNAME":"安南區","LI":"安慶里","LIN":"17鄰","STREET":"安中路","SECT":"一段","MAREA":" ","LANE":"１８９巷","ALLEY":"４８弄","HOUSE_NO":"２２號","E_COORD97":168696.32999999999,"N_COORD97":2548360.2200000002,"ADDRESS":"安中路一段１８９巷４８弄２２號","OBJECTID":29567},"geometry":{"x":168696.33000000101,"y":2548360.2200000025}},{"attributes":{"ID":29568,"DIS_CODE":0,"TOWNNAME":"安南區","LI":"安慶里","LIN":"17鄰","STREET":"安中路","SECT":"一段","MAREA":" ","LANE":"１８９巷","ALLEY":"４８弄","HOUSE_NO":"２４號","E_COORD97":168692.32999999999,"N_COORD97":2548359.75,"ADDRESS":"安中路一段１８９巷４８弄２４號","OBJECTID":29568},"geometry":{"x":168692.33000000007,"y":2548359.7500000019}},{"attributes":{"ID":29569,"DIS_CODE":0,"TOWNNAME":"安南區","LI":"安慶里","LIN":"17鄰","STREET":"安中路","SECT":"一段","MAREA":" ","LANE":"１８９巷","ALLEY":"４８弄","HOUSE_NO":"２８號","E_COORD97":168684.69,"N_COORD97":2548359.52,"ADDRESS":"安中路一段１８９巷４８弄２８號","OBJECTID":29569},"geometry":{"x":168684.69000000041,"y":2548359.5199999996}},{"attributes":{"ID":29570,"DIS_CODE":0,"TOWNNAME":"安南區","LI":"安慶里","LIN":"17鄰","STREET":"安中路","SECT":"一段","MAREA":" ","LANE":"１８９巷","ALLEY":"４８弄","HOUSE_NO":"２號","E_COORD97":168736.57999999999,"N_COORD97":2548364.46,"ADDRESS":"安中路一段１８９巷４８弄２號","OBJECTID":29570},"geometry":{"x":168736.57999999914,"y":2548364.4600000009}},{"attributes":{"ID":29571,"DIS_CODE":0,"TOWNNAME":"安南區","LI":"安慶里","LIN":"17鄰","STREET":"安中路","SECT":"一段","MAREA":" ","LANE":"１８９巷","ALLEY":"４８弄","HOUSE_NO":"３４號","E_COORD97":168672.45999999999,"N_COORD97":2548357.52,"ADDRESS":"安中路一段１８９巷４８弄３４號","OBJECTID":29571},"geometry":{"x":168672.45999999996,"y":2548357.5200000014}},{"attributes":{"ID":29572,"DIS_CODE":0,"TOWNNAME":"安南區","LI":"安慶里","LIN":"17鄰","STREET":"安中路","SECT":"一段","MAREA":" ","LANE":"１８９巷","ALLEY":"４８弄","HOUSE_NO":"３６號","E_COORD97":168668.57999999999,"N_COORD97":2548356.9300000002,"ADDRESS":"安中路一段１８９巷４８弄３６號","OBJECTID":29572},"geometry":{"x":168668.58000000007,"y":2548356.9299999997}},{"attributes":{"ID":29573,"DIS_CODE":0,"TOWNNAME":"安南區","LI":"安慶里","LIN":"17鄰","STREET":"安中路","SECT":"一段","MAREA":" ","LANE":"１８９巷","ALLEY":"４８弄","HOUSE_NO":"３８號","E_COORD97":168664.10999999999,"N_COORD97":2548356.3399999999,"ADDRESS":"安中路一段１８９巷４８弄３８號","OBJECTID":29573},"geometry":{"x":168664.11000000127,"y":2548356.3400000017}},{"attributes":{"ID":29574,"DIS_CODE":0,"TOWNNAME":"安南區","LI":"安慶里","LIN":"17鄰","STREET":"安中路","SECT":"一段","MAREA":" ","LANE":"１８９巷","ALLEY":"４８弄","HOUSE_NO":"４０號","E_COORD97":168660.35000000001,"N_COORD97":2548355.8700000001,"ADDRESS":"安中路一段１８９巷４８弄４０號","OBJECTID":29574},"geometry":{"x":168660.35000000056,"y":2548355.8700000048}},{"attributes":{"ID":29575,"DIS_CODE":0,"TOWNNAME":"安南區","LI":"安慶里","LIN":"17鄰","STREET":"安中路","SECT":"一段","MAREA":" ","LANE":"１８９巷","ALLEY":"４８弄","HOUSE_NO":"４２號","E_COORD97":168656.10999999999,"N_COORD97":2548355.29,"ADDRESS":"安中路一段１８９巷４８弄４２號","OBJECTID":29575},"geometry":{"x":168656.11000000127,"y":2548355.290000001}},{"attributes":{"ID":29576,"DIS_CODE":0,"TOWNNAME":"安南區","LI":"安慶里","LIN":"17鄰","STREET":"安中路","SECT":"一段","MAREA":" ","LANE":"１８９巷","ALLEY":"４８弄","HOUSE_NO":"４４號","E_COORD97":168652,"N_COORD97":2548354.5800000001,"ADDRESS":"安中路一段１８９巷４８弄４４號","OBJECTID":29576},"geometry":{"x":168652,"y":2548354.5800000019}},{"attributes":{"ID":29577,"DIS_CODE":0,"TOWNNAME":"安南區","LI":"安慶里","LIN":"17鄰","STREET":"安中路","SECT":"一段","MAREA":" ","LANE":"１８９巷","ALLEY":"４８弄","HOUSE_NO":"４６號","E_COORD97":168648,"N_COORD97":2548354.7000000002,"ADDRESS":"安中路一段１８９巷４８弄４６號","OBJECTID":29577},"geometry":{"x":168648.00000000093,"y":2548354.6999999993}},{"attributes":{"ID":29578,"DIS_CODE":0,"TOWNNAME":"安南區","LI":"安慶里","LIN":"17鄰","STREET":"安中路","SECT":"一段","MAREA":" ","LANE":"１８９巷","ALLEY":"４８弄","HOUSE_NO":"４８號","E_COORD97":168644.23999999999,"N_COORD97":2548354.23,"ADDRESS":"安中路一段１８９巷４８弄４８號","OBJECTID":29578},"geometry":{"x":168644.24000000209,"y":2548354.2300000023}},{"attributes":{"ID":29579,"DIS_CODE":0,"TOWNNAME":"安南區","LI":"安慶里","LIN":"17鄰","STREET":"安中路","SECT":"一段","MAREA":" ","LANE":"１８９巷","ALLEY":"４８弄","HOUSE_NO":"４號","E_COORD97":168732.23000000001,"N_COORD97":2548363.9900000002,"ADDRESS":"安中路一段１８９巷４８弄４號","OBJECTID":29579},"geometry":{"x":168732.23000000045,"y":2548363.9899999984}},{"attributes":{"ID":29580,"DIS_CODE":0,"TOWNNAME":"安南區","LI":"安慶里","LIN":"17鄰","STREET":"安中路","SECT":"一段","MAREA":" ","LANE":"１８９巷","ALLEY":"４８弄","HOUSE_NO":"５０號","E_COORD97":168640.23999999999,"N_COORD97":2548353.9900000002,"ADDRESS":"安中路一段１８９巷４８弄５０號","OBJECTID":29580},"geometry":{"x":168640.24000000022,"y":2548353.9900000039}},{"attributes":{"ID":29581,"DIS_CODE":0,"TOWNNAME":"安南區","LI":"安慶里","LIN":"17鄰","STREET":"安中路","SECT":"一段","MAREA":" ","LANE":"１８９巷","ALLEY":"４８弄","HOUSE_NO":"５２號","E_COORD97":168635.54000000001,"N_COORD97":2548353.7599999998,"ADDRESS":"安中路一段１８９巷４８弄５２號","OBJECTID":29581},"geometry":{"x":168635.54000000097,"y":2548353.7599999998}},{"attributes":{"ID":29582,"DIS_CODE":0,"TOWNNAME":"安南區","LI":"安慶里","LIN":"17鄰","STREET":"安中路","SECT":"一段","MAREA":" ","LANE":"１８９巷","ALLEY":"４８弄","HOUSE_NO":"５４號","E_COORD97":168631.78,"N_COORD97":2548353.4100000001,"ADDRESS":"安中路一段１８９巷４８弄５４號","OBJECTID":29582},"geometry":{"x":168631.78000000026,"y":2548353.4100000001}},{"attributes":{"ID":29583,"DIS_CODE":0,"TOWNNAME":"安南區","LI":"安慶里","LIN":"17鄰","STREET":"安中路","SECT":"一段","MAREA":" ","LANE":"１８９巷","ALLEY":"４８弄","HOUSE_NO":"５６號","E_COORD97":168628.45000000001,"N_COORD97":2548353.2799999998,"ADDRESS":"安中路一段１８９巷４８弄５６號","OBJECTID":29583},"geometry":{"x":168628.45000000019,"y":2548353.2799999993}},{"attributes":{"ID":29584,"DIS_CODE":0,"TOWNNAME":"安南區","LI":"安慶里","LIN":"17鄰","STREET":"安中路","SECT":"一段","MAREA":" ","LANE":"１８９巷","ALLEY":"４８弄","HOUSE_NO":"６號","E_COORD97":168728.47,"N_COORD97":2548363.2799999998,"ADDRESS":"安中路一段１８９巷４８弄６號","OBJECTID":29584},"geometry":{"x":168728.46999999881,"y":2548363.2799999993}},{"attributes":{"ID":29585,"DIS_CODE":0,"TOWNNAME":"安南區","LI":"安慶里","LIN":"17鄰","STREET":"安中路","SECT":"一段","MAREA":" ","LANE":"１８９巷","ALLEY":"４８弄","HOUSE_NO":"８號","E_COORD97":168724.47,"N_COORD97":2548363.2799999998,"ADDRESS":"安中路一段１８９巷４８弄８號","OBJECTID":29585},"geometry":{"x":168724.46999999974,"y":2548363.2799999993}},{"attributes":{"ID":29586,"DIS_CODE":0,"TOWNNAME":"安南區","LI":"安慶里","LIN":"17鄰","STREET":"安中路","SECT":"一段","MAREA":" ","LANE":"１８９巷","ALLEY":"４８弄","HOUSE_NO":"１４號","E_COORD97":168712.35999999999,"N_COORD97":2548361.8700000001,"ADDRESS":"安中路一段１８９巷４８弄１４號","OBJECTID":29586},"geometry":{"x":168712.36000000034,"y":2548361.870000001}},{"attributes":{"ID":29587,"DIS_CODE":0,"TOWNNAME":"永康區","LI":"復華里","LIN":"31鄰","STREET":"復華八街","SECT":" ","MAREA":" ","LANE":"５１巷","ALLEY":"６１弄","HOUSE_NO":"９號","E_COORD97":172618.85320899999,"N_COORD97":2546413.5422800002,"ADDRESS":"復華八街５１巷６１弄９號","OBJECTID":29587},"geometry":{"x":172618.85320900008,"y":2546413.5422830004}},{"attributes":{"ID":29588,"DIS_CODE":0,"TOWNNAME":"安南區","LI":"安東里","LIN":"17鄰","STREET":"安和路","SECT":"一段","MAREA":" ","LANE":"４７８巷","ALLEY":"１２弄","HOUSE_NO":"１０號","E_COORD97":169457.66,"N_COORD97":2548381.3900000001,"ADDRESS":"安和路一段４７８巷１２弄１０號","OBJECTID":29588},"geometry":{"x":169457.66000000015,"y":2548381.3900000006}},{"attributes":{"ID":29589,"DIS_CODE":0,"TOWNNAME":"安南區","LI":"安東里","LIN":"17鄰","STREET":"安和路","SECT":"一段","MAREA":" ","LANE":"４７８巷","ALLEY":"１２弄","HOUSE_NO":"１１號","E_COORD97":169457.94,"N_COORD97":2548376.3599999999,"ADDRESS":"安和路一段４７８巷１２弄１１號","OBJECTID":29589},"geometry":{"x":169457.94000000041,"y":2548376.3599999994}},{"attributes":{"ID":29590,"DIS_CODE":0,"TOWNNAME":"安南區","LI":"安東里","LIN":"17鄰","STREET":"安和路","SECT":"一段","MAREA":" ","LANE":"４７８巷","ALLEY":"１２弄","HOUSE_NO":"１２號","E_COORD97":169458.07999999999,"N_COORD97":2548372.1699999999,"ADDRESS":"安和路一段４７８巷１２弄１２號","OBJECTID":29590},"geometry":{"x":169458.08000000007,"y":2548372.1699999999}},{"attributes":{"ID":29591,"DIS_CODE":0,"TOWNNAME":"安南區","LI":"安東里","LIN":"17鄰","STREET":"安和路","SECT":"一段","MAREA":" ","LANE":"４７８巷","ALLEY":"１２弄","HOUSE_NO":"１３號","E_COORD97":169458.07999999999,"N_COORD97":2548368.54,"ADDRESS":"安和路一段４７８巷１２弄１３號","OBJECTID":29591},"geometry":{"x":169458.08000000007,"y":2548368.5399999991}},{"attributes":{"ID":29592,"DIS_CODE":0,"TOWNNAME":"安南區","LI":"安東里","LIN":"17鄰","STREET":"安和路","SECT":"一段","MAREA":" ","LANE":"４７８巷","ALLEY":"１２弄","HOUSE_NO":"１４號","E_COORD97":169457.94,"N_COORD97":2548364.9100000001,"ADDRESS":"安和路一段４７８巷１２弄１４號","OBJECTID":29592},"geometry":{"x":169457.94000000041,"y":2548364.9100000039}},{"attributes":{"ID":29593,"DIS_CODE":0,"TOWNNAME":"安南區","LI":"新順里","LIN":"14鄰","STREET":"永安路","SECT":" ","MAREA":" ","LANE":" ","ALLEY":" ","HOUSE_NO":"１６號","E_COORD97":169927.67999999999,"N_COORD97":2549568.0800000001,"ADDRESS":"永安路１６號","OBJECTID":29593},"geometry":{"x":169927.68000000063,"y":2549568.0800000019}},{"attributes":{"ID":29594,"DIS_CODE":0,"TOWNNAME":"安南區","LI":"安東里","LIN":"17鄰","STREET":"安和路","SECT":"一段","MAREA":" ","LANE":"４７８巷","ALLEY":"１２弄","HOUSE_NO":"１５號","E_COORD97":169458.92000000001,"N_COORD97":2548360.4399999999,"ADDRESS":"安和路一段４７８巷１２弄１５號","OBJECTID":29594},"geometry":{"x":169458.91999999993,"y":2548360.4400000032}},{"attributes":{"ID":29595,"DIS_CODE":0,"TOWNNAME":"安南區","LI":"安東里","LIN":"17鄰","STREET":"安和路","SECT":"一段","MAREA":" ","LANE":"４７８巷","ALLEY":"１２弄","HOUSE_NO":"１號","E_COORD97":169454.45000000001,"N_COORD97":2548416.9900000002,"ADDRESS":"安和路一段４７８巷１２弄１號","OBJECTID":29595},"geometry":{"x":169454.45000000019,"y":2548416.9900000002}},{"attributes":{"ID":29596,"DIS_CODE":0,"TOWNNAME":"安南區","LI":"安東里","LIN":"17鄰","STREET":"安和路","SECT":"一段","MAREA":" ","LANE":"４７８巷","ALLEY":"１２弄","HOUSE_NO":"２號","E_COORD97":169455.01000000001,"N_COORD97":2548411.8300000001,"ADDRESS":"安和路一段４７８巷１２弄２號","OBJECTID":29596},"geometry":{"x":169455.00999999978,"y":2548411.8300000001}},{"attributes":{"ID":29597,"DIS_CODE":0,"TOWNNAME":"安南區","LI":"安東里","LIN":"17鄰","STREET":"安和路","SECT":"一段","MAREA":" ","LANE":"４７８巷","ALLEY":"１２弄","HOUSE_NO":"３號","E_COORD97":169455.70999999999,"N_COORD97":2548408.75,"ADDRESS":"安和路一段４７８巷１２弄３號","OBJECTID":29597},"geometry":{"x":169455.70999999996,"y":2548408.75}},{"attributes":{"ID":29598,"DIS_CODE":0,"TOWNNAME":"安南區","LI":"安東里","LIN":"17鄰","STREET":"安和路","SECT":"一段","MAREA":" ","LANE":"４７８巷","ALLEY":"１２弄","HOUSE_NO":"４號","E_COORD97":169455.42999999999,"N_COORD97":2548404.7000000002,"ADDRESS":"安和路一段４７８巷１２弄４號","OBJECTID":29598},"geometry":{"x":169455.4299999997,"y":2548404.6999999993}},{"attributes":{"ID":29599,"DIS_CODE":0,"TOWNNAME":"安南區","LI":"安東里","LIN":"17鄰","STREET":"安和路","SECT":"一段","MAREA":" ","LANE":"４７８巷","ALLEY":"１２弄","HOUSE_NO":"５號","E_COORD97":169455.01000000001,"N_COORD97":2548399.8199999998,"ADDRESS":"安和路一段４７８巷１２弄５號","OBJECTID":29599},"geometry":{"x":169455.00999999978,"y":2548399.8200000022}},{"attributes":{"ID":29600,"DIS_CODE":0,"TOWNNAME":"安南區","LI":"安東里","LIN":"17鄰","STREET":"安和路","SECT":"一段","MAREA":" ","LANE":"４７８巷","ALLEY":"１２弄","HOUSE_NO":"６號","E_COORD97":169456.82000000001,"N_COORD97":2548396.6099999999,"ADDRESS":"安和路一段４７８巷１２弄６號","OBJECTID":29600},"geometry":{"x":169456.8200000003,"y":2548396.6100000031}}]}