{"displayFieldName":"TOWNNAME","fieldAliases":{"ID":"ID","DIS_CODE":"DIS_CODE","TOWNNAME":"TOWNNAME","LI":"LI","LIN":"LIN","STREET":"STREET","SECT":"SECT","MAREA":"MAREA","LANE":"LANE","ALLEY":"ALLEY","HOUSE_NO":"HOUSE_NO","E_COORD97":"E_COORD97","N_COORD97":"N_COORD97","ADDRESS":"ADDRESS","OBJECTID":"OBJECTID"},"geometryType":"esriGeometryPoint","spatialReference":{"wkid":102443,"latestWkid":3826},"fields":[{"name":"ID","type":"esriFieldTypeDouble","alias":"ID"},{"name":"DIS_CODE","type":"esriFieldTypeInteger","alias":"DIS_CODE"},{"name":"TOWNNAME","type":"esriFieldTypeString","alias":"TOWNNAME","length":8},{"name":"LI","type":"esriFieldTypeString","alias":"LI","length":8},{"name":"LIN","type":"esriFieldTypeString","alias":"LIN","length":12},{"name":"STREET","type":"esriFieldTypeString","alias":"STREET","length":20},{"name":"SECT","type":"esriFieldTypeString","alias":"SECT","length":8},{"name":"MAREA","type":"esriFieldTypeString","alias":"MAREA","length":12},{"name":"LANE","type":"esriFieldTypeString","alias":"LANE","length":10},{"name":"ALLEY","type":"esriFieldTypeString","alias":"ALLEY","length":10},{"name":"HOUSE_NO","type":"esriFieldTypeString","alias":"HOUSE_NO","length":20},{"name":"E_COORD97","type":"esriFieldTypeDouble","alias":"E_COORD97"},{"name":"N_COORD97","type":"esriFieldTypeDouble","alias":"N_COORD97"},{"name":"ADDRESS","type":"esriFieldTypeString","alias":"ADDRESS","length":50},{"name":"OBJECTID","type":"esriFieldTypeOID","alias":"OBJECTID"}],"features":[{"attributes":{"ID":271806,"DIS_CODE":0,"TOWNNAME":"永康區","LI":"王行里","LIN":"7鄰","STREET":"王行路","SECT":" ","MAREA":" ","LANE":"３５１巷","ALLEY":" ","HOUSE_NO":"６４號","E_COORD97":175341.84,"N_COORD97":2548689.5,"ADDRESS":"王行路３５１巷６４號","OBJECTID":271801},"geometry":{"x":175341.83999999985,"y":2548689.5000000037}},{"attributes":{"ID":271807,"DIS_CODE":0,"TOWNNAME":"仁德區","LI":"三甲里","LIN":"3鄰","STREET":" ","SECT":" ","MAREA":"三甲子","LANE":" ","ALLEY":" ","HOUSE_NO":"２３之６號","E_COORD97":171753.67000000001,"N_COORD97":2536890.2999999998,"ADDRESS":"三甲子２３之６號","OBJECTID":271802},"geometry":{"x":171753.67000000086,"y":2536890.3000000026}},{"attributes":{"ID":271808,"DIS_CODE":0,"TOWNNAME":"仁德區","LI":"三甲里","LIN":"3鄰","STREET":" ","SECT":" ","MAREA":"三甲子","LANE":" ","ALLEY":" ","HOUSE_NO":"２６號之２７","E_COORD97":171865.35999999999,"N_COORD97":2536905.7999999998,"ADDRESS":"三甲子２６號之２７","OBJECTID":271803},"geometry":{"x":171865.36000000034,"y":2536905.8000000007}},{"attributes":{"ID":271809,"DIS_CODE":0,"TOWNNAME":"仁德區","LI":"三甲里","LIN":"3鄰","STREET":" ","SECT":" ","MAREA":"三甲子","LANE":" ","ALLEY":" ","HOUSE_NO":"２６號之１９","E_COORD97":171880.5,"N_COORD97":2536872.79,"ADDRESS":"三甲子２６號之１９","OBJECTID":271804},"geometry":{"x":171880.50000000093,"y":2536872.7899999991}},{"attributes":{"ID":271810,"DIS_CODE":0,"TOWNNAME":"仁德區","LI":"三甲里","LIN":"3鄰","STREET":" ","SECT":" ","MAREA":"三甲子","LANE":" ","ALLEY":" ","HOUSE_NO":"２９號之２","E_COORD97":171802.20000000001,"N_COORD97":2536845.29,"ADDRESS":"三甲子２９號之２","OBJECTID":271805},"geometry":{"x":171802.20000000019,"y":2536845.290000001}},{"attributes":{"ID":271811,"DIS_CODE":0,"TOWNNAME":"仁德區","LI":"三甲里","LIN":"3鄰","STREET":" ","SECT":" ","MAREA":"三甲子","LANE":" ","ALLEY":" ","HOUSE_NO":"３１號之７","E_COORD97":171790.38,"N_COORD97":2536849.04,"ADDRESS":"三甲子３１號之７","OBJECTID":271806},"geometry":{"x":171790.37999999989,"y":2536849.0400000028}},{"attributes":{"ID":271812,"DIS_CODE":0,"TOWNNAME":"仁德區","LI":"三甲里","LIN":"3鄰","STREET":" ","SECT":" ","MAREA":"三甲子","LANE":" ","ALLEY":" ","HOUSE_NO":"２３號之３","E_COORD97":171754.26999999999,"N_COORD97":2536886.2999999998,"ADDRESS":"三甲子２３號之３","OBJECTID":271807},"geometry":{"x":171754.27000000048,"y":2536886.3000000045}},{"attributes":{"ID":271813,"DIS_CODE":0,"TOWNNAME":"仁德區","LI":"三甲里","LIN":"3鄰","STREET":" ","SECT":" ","MAREA":"三甲子","LANE":" ","ALLEY":" ","HOUSE_NO":"２７號之３","E_COORD97":171893.62,"N_COORD97":2536842.79,"ADDRESS":"三甲子２７號之３","OBJECTID":271808},"geometry":{"x":171893.62000000104,"y":2536842.7899999991}},{"attributes":{"ID":271814,"DIS_CODE":0,"TOWNNAME":"仁德區","LI":"仁愛里","LIN":"3鄰","STREET":" ","SECT":" ","MAREA":"仁愛","LANE":" ","ALLEY":" ","HOUSE_NO":"３６號","E_COORD97":170345.06849999999,"N_COORD97":2540092.86784,"ADDRESS":"仁愛３６號","OBJECTID":271809},"geometry":{"x":170345.06850000005,"y":2540092.8678360004}},{"attributes":{"ID":271815,"DIS_CODE":0,"TOWNNAME":"東區","LI":"崇明里","LIN":"7鄰","STREET":"大同路","SECT":"二段","MAREA":" ","LANE":"４４９巷","ALLEY":" ","HOUSE_NO":"３０號","E_COORD97":169731.03,"N_COORD97":2541363.04,"ADDRESS":"大同路二段４４９巷３０號","OBJECTID":271810},"geometry":{"x":169731.03000000119,"y":2541363.040000001}},{"attributes":{"ID":271816,"DIS_CODE":0,"TOWNNAME":"東區","LI":"崇明里","LIN":"7鄰","STREET":"大同路","SECT":"二段","MAREA":" ","LANE":"４４９巷","ALLEY":" ","HOUSE_NO":"３２號","E_COORD97":169735.88,"N_COORD97":2541364.8799999999,"ADDRESS":"大同路二段４４９巷３２號","OBJECTID":271811},"geometry":{"x":169735.87999999989,"y":2541364.879999999}},{"attributes":{"ID":271817,"DIS_CODE":0,"TOWNNAME":"仁德區","LI":"仁愛里","LIN":"3鄰","STREET":" ","SECT":" ","MAREA":"仁愛","LANE":" ","ALLEY":" ","HOUSE_NO":"４２號之３","E_COORD97":170341.68667600001,"N_COORD97":2540060.0595200001,"ADDRESS":"仁愛４２號之３","OBJECTID":271812},"geometry":{"x":170341.68667600118,"y":2540060.0595200025}},{"attributes":{"ID":271818,"DIS_CODE":0,"TOWNNAME":"仁德區","LI":"仁愛里","LIN":"3鄰","STREET":" ","SECT":" ","MAREA":"仁愛","LANE":" ","ALLEY":" ","HOUSE_NO":"４５號","E_COORD97":170328.76353500001,"N_COORD97":2540059.2128499998,"ADDRESS":"仁愛４５號","OBJECTID":271813},"geometry":{"x":170328.76353500038,"y":2540059.2128540017}},{"attributes":{"ID":271819,"DIS_CODE":0,"TOWNNAME":"永康區","LI":"王行里","LIN":"7鄰","STREET":"王行路","SECT":" ","MAREA":" ","LANE":"３５１巷","ALLEY":" ","HOUSE_NO":"７７之１號","E_COORD97":175327.32999999999,"N_COORD97":2548751.52,"ADDRESS":"王行路３５１巷７７之１號","OBJECTID":271814},"geometry":{"x":175327.33000000007,"y":2548751.5200000014}},{"attributes":{"ID":271820,"DIS_CODE":0,"TOWNNAME":"新化區","LI":"護國里","LIN":"7鄰","STREET":"復興路","SECT":" ","MAREA":" ","LANE":"２９０巷","ALLEY":" ","HOUSE_NO":"１號之４","E_COORD97":179372.26000000001,"N_COORD97":2548457.2599999998,"ADDRESS":"復興路２９０巷１號之４","OBJECTID":271815},"geometry":{"x":179372.25999999978,"y":2548457.2600000016}},{"attributes":{"ID":271821,"DIS_CODE":0,"TOWNNAME":"仁德區","LI":"三甲里","LIN":"3鄰","STREET":" ","SECT":" ","MAREA":"三甲子","LANE":" ","ALLEY":" ","HOUSE_NO":"２６號之１７","E_COORD97":171851.10999999999,"N_COORD97":2536898.5499999998,"ADDRESS":"三甲子２６號之１７","OBJECTID":271816},"geometry":{"x":171851.11000000127,"y":2536898.5500000026}},{"attributes":{"ID":271822,"DIS_CODE":0,"TOWNNAME":"仁德區","LI":"三甲里","LIN":"3鄰","STREET":" ","SECT":" ","MAREA":"三甲子","LANE":" ","ALLEY":" ","HOUSE_NO":"２６號之１４","E_COORD97":171852.95000000001,"N_COORD97":2536886.2999999998,"ADDRESS":"三甲子２６號之１４","OBJECTID":271817},"geometry":{"x":171852.95000000019,"y":2536886.3000000045}},{"attributes":{"ID":271823,"DIS_CODE":0,"TOWNNAME":"仁德區","LI":"三甲里","LIN":"3鄰","STREET":" ","SECT":" ","MAREA":"三甲子","LANE":" ","ALLEY":" ","HOUSE_NO":"２９號之１","E_COORD97":171814.39000000001,"N_COORD97":2536848.04,"ADDRESS":"三甲子２９號之１","OBJECTID":271818},"geometry":{"x":171814.39000000153,"y":2536848.0399999991}},{"attributes":{"ID":271824,"DIS_CODE":0,"TOWNNAME":"新化區","LI":"護國里","LIN":"7鄰","STREET":"復興路","SECT":" ","MAREA":" ","LANE":"２９０巷","ALLEY":" ","HOUSE_NO":"１號之１","E_COORD97":179362.14999999999,"N_COORD97":2548461.2599999998,"ADDRESS":"復興路２９０巷１號之１","OBJECTID":271819},"geometry":{"x":179362.1500000013,"y":2548461.2600000016}},{"attributes":{"ID":271825,"DIS_CODE":0,"TOWNNAME":"新化區","LI":"太平里","LIN":"7鄰","STREET":"民生路","SECT":" ","MAREA":" ","LANE":"３１４巷","ALLEY":" ","HOUSE_NO":"６７號之３６９","E_COORD97":179381.60999999999,"N_COORD97":2550504.2599999998,"ADDRESS":"民生路３１４巷６７號之３６９","OBJECTID":271820},"geometry":{"x":179381.61000000127,"y":2550504.2599999998}},{"attributes":{"ID":271826,"DIS_CODE":0,"TOWNNAME":"安南區","LI":"淵東里","LIN":"7鄰","STREET":"本原街","SECT":"三段","MAREA":" ","LANE":"２３１巷","ALLEY":" ","HOUSE_NO":"１號","E_COORD97":165406.48999999999,"N_COORD97":2550282.2400000002,"ADDRESS":"本原街三段２３１巷１號","OBJECTID":271821},"geometry":{"x":165406.49000000209,"y":2550282.2400000021}},{"attributes":{"ID":271827,"DIS_CODE":0,"TOWNNAME":"安南區","LI":"淵東里","LIN":"7鄰","STREET":"本原街","SECT":"三段","MAREA":" ","LANE":"２３１巷","ALLEY":" ","HOUSE_NO":"３號","E_COORD97":165409.32999999999,"N_COORD97":2550278.1600000001,"ADDRESS":"本原街三段２３１巷３號","OBJECTID":271822},"geometry":{"x":165409.33000000101,"y":2550278.1600000001}},{"attributes":{"ID":271828,"DIS_CODE":0,"TOWNNAME":"仁德區","LI":"三甲里","LIN":"3鄰","STREET":" ","SECT":" ","MAREA":"三甲子","LANE":" ","ALLEY":" ","HOUSE_NO":"２７號之６","E_COORD97":171883.32999999999,"N_COORD97":2536823.04,"ADDRESS":"三甲子２７號之６","OBJECTID":271823},"geometry":{"x":171883.33000000101,"y":2536823.040000001}},{"attributes":{"ID":271829,"DIS_CODE":0,"TOWNNAME":"仁德區","LI":"三甲里","LIN":"3鄰","STREET":" ","SECT":" ","MAREA":"三甲子","LANE":" ","ALLEY":" ","HOUSE_NO":"２７號之７","E_COORD97":171901.85000000001,"N_COORD97":2536870.04,"ADDRESS":"三甲子２７號之７","OBJECTID":271824},"geometry":{"x":171901.84999999963,"y":2536870.040000001}},{"attributes":{"ID":271830,"DIS_CODE":0,"TOWNNAME":"仁德區","LI":"三甲里","LIN":"3鄰","STREET":" ","SECT":" ","MAREA":"三甲子","LANE":" ","ALLEY":" ","HOUSE_NO":"２６號之２０","E_COORD97":171870.25,"N_COORD97":2536877.5499999998,"ADDRESS":"三甲子２６號之２０","OBJECTID":271825},"geometry":{"x":171870.25000000093,"y":2536877.5499999989}},{"attributes":{"ID":271831,"DIS_CODE":0,"TOWNNAME":"新化區","LI":"礁坑里","LIN":"3鄰","STREET":" ","SECT":" ","MAREA":"九層嶺","LANE":" ","ALLEY":" ","HOUSE_NO":"３４號","E_COORD97":185415.846005,"N_COORD97":2548372.0345800002,"ADDRESS":"九層嶺３４號","OBJECTID":271826},"geometry":{"x":185415.84600500017,"y":2548372.0345770027}},{"attributes":{"ID":271832,"DIS_CODE":0,"TOWNNAME":"安南區","LI":"海西里","LIN":"7鄰","STREET":"海中街","SECT":" ","MAREA":" ","LANE":"７７巷","ALLEY":" ","HOUSE_NO":"２２號","E_COORD97":166353.62,"N_COORD97":2548936.8300000001,"ADDRESS":"海中街７７巷２２號","OBJECTID":271827},"geometry":{"x":166353.62000000104,"y":2548936.8300000001}},{"attributes":{"ID":271833,"DIS_CODE":0,"TOWNNAME":"安南區","LI":"海西里","LIN":"7鄰","STREET":"海中街","SECT":" ","MAREA":" ","LANE":"７７巷","ALLEY":" ","HOUSE_NO":"２４號","E_COORD97":166348.60000000001,"N_COORD97":2548937.6600000001,"ADDRESS":"海中街７７巷２４號","OBJECTID":271828},"geometry":{"x":166348.59999999963,"y":2548937.660000002}},{"attributes":{"ID":271834,"DIS_CODE":0,"TOWNNAME":"安南區","LI":"公親里","LIN":"7鄰","STREET":"公學路","SECT":"一段","MAREA":" ","LANE":"４２巷","ALLEY":" ","HOUSE_NO":"２９號","E_COORD97":168529.60999999999,"N_COORD97":2553153.25,"ADDRESS":"公學路一段４２巷２９號","OBJECTID":271829},"geometry":{"x":168529.61000000034,"y":2553153.2500000019}},{"attributes":{"ID":271835,"DIS_CODE":0,"TOWNNAME":"安南區","LI":"公親里","LIN":"7鄰","STREET":"公學路","SECT":"一段","MAREA":" ","LANE":"４２巷","ALLEY":" ","HOUSE_NO":"３６號","E_COORD97":168545.82000000001,"N_COORD97":2553172.6800000002,"ADDRESS":"公學路一段４２巷３６號","OBJECTID":271830},"geometry":{"x":168545.82000000123,"y":2553172.6799999997}},{"attributes":{"ID":271836,"DIS_CODE":0,"TOWNNAME":"安南區","LI":"公親里","LIN":"7鄰","STREET":"公學路","SECT":"一段","MAREA":" ","LANE":"４２巷","ALLEY":" ","HOUSE_NO":"４６號","E_COORD97":168495.23999999999,"N_COORD97":2553170.0899999999,"ADDRESS":"公學路一段４２巷４６號","OBJECTID":271831},"geometry":{"x":168495.24000000115,"y":2553170.0899999999}},{"attributes":{"ID":271837,"DIS_CODE":0,"TOWNNAME":"東區","LI":"復興里","LIN":"7鄰","STREET":"富農街","SECT":"一段","MAREA":" ","LANE":"１８８巷","ALLEY":" ","HOUSE_NO":"４５號","E_COORD97":171635.10999999999,"N_COORD97":2542496.52,"ADDRESS":"富農街一段１８８巷４５號","OBJECTID":271832},"geometry":{"x":171635.11000000034,"y":2542496.5199999996}},{"attributes":{"ID":271838,"DIS_CODE":0,"TOWNNAME":"善化區","LI":"光文里","LIN":"15鄰","STREET":"大成路","SECT":" ","MAREA":" ","LANE":" ","ALLEY":" ","HOUSE_NO":"２３８號","E_COORD97":178278.66,"N_COORD97":2558863.25,"ADDRESS":"大成路２３８號","OBJECTID":271833},"geometry":{"x":178278.66000000108,"y":2558863.2500000019}},{"attributes":{"ID":271839,"DIS_CODE":0,"TOWNNAME":"南區","LI":"松安里","LIN":"3鄰","STREET":"省躬三街","SECT":" ","MAREA":" ","LANE":" ","ALLEY":" ","HOUSE_NO":"３０５號","E_COORD97":165831.48999999999,"N_COORD97":2536272.29,"ADDRESS":"省躬三街３０５號","OBJECTID":271834},"geometry":{"x":165831.49000000022,"y":2536272.290000001}},{"attributes":{"ID":271840,"DIS_CODE":0,"TOWNNAME":"永康區","LI":"蔦松里","LIN":"7鄰","STREET":"蔦松一街","SECT":" ","MAREA":" ","LANE":"２２巷","ALLEY":" ","HOUSE_NO":"１０號","E_COORD97":174053.19,"N_COORD97":2549401.0499999998,"ADDRESS":"蔦松一街２２巷１０號","OBJECTID":271835},"geometry":{"x":174053.19000000134,"y":2549401.0500000007}},{"attributes":{"ID":271841,"DIS_CODE":0,"TOWNNAME":"安南區","LI":"城東里","LIN":"7鄰","STREET":"城北路","SECT":" ","MAREA":" ","LANE":"９８巷","ALLEY":" ","HOUSE_NO":"１０６號之１","E_COORD97":161179.28,"N_COORD97":2551528.3500000001,"ADDRESS":"城北路９８巷１０６號之１","OBJECTID":271836},"geometry":{"x":161179.28000000026,"y":2551528.3500000015}},{"attributes":{"ID":271842,"DIS_CODE":0,"TOWNNAME":"安南區","LI":"海西里","LIN":"7鄰","STREET":"海中街","SECT":" ","MAREA":" ","LANE":"１０１巷","ALLEY":" ","HOUSE_NO":"３６號","E_COORD97":166307.97,"N_COORD97":2548974.8900000001,"ADDRESS":"海中街１０１巷３６號","OBJECTID":271837},"geometry":{"x":166307.9700000016,"y":2548974.8900000006}},{"attributes":{"ID":271843,"DIS_CODE":0,"TOWNNAME":"中西區","LI":"赤嵌里","LIN":"7鄰","STREET":"民族路","SECT":"二段","MAREA":" ","LANE":"１０６巷","ALLEY":" ","HOUSE_NO":"２３號","E_COORD97":168655.79999999999,"N_COORD97":2544089.6899999999,"ADDRESS":"民族路二段１０６巷２３號","OBJECTID":271838},"geometry":{"x":168655.80000000075,"y":2544089.6899999995}},{"attributes":{"ID":271844,"DIS_CODE":0,"TOWNNAME":"中西區","LI":"赤嵌里","LIN":"7鄰","STREET":"公園路","SECT":" ","MAREA":" ","LANE":"８４巷","ALLEY":" ","HOUSE_NO":"４號","E_COORD97":168638.94,"N_COORD97":2544078.1299999999,"ADDRESS":"公園路８４巷４號","OBJECTID":271839},"geometry":{"x":168638.94000000041,"y":2544078.1300000008}},{"attributes":{"ID":271845,"DIS_CODE":0,"TOWNNAME":"仁德區","LI":"新田里","LIN":"7鄰","STREET":"新田一街","SECT":" ","MAREA":" ","LANE":"６１巷","ALLEY":" ","HOUSE_NO":"４６號","E_COORD97":173910.39999999999,"N_COORD97":2539061,"ADDRESS":"新田一街６１巷４６號","OBJECTID":271840},"geometry":{"x":173910.4000000013,"y":2539061.0000000037}},{"attributes":{"ID":271846,"DIS_CODE":0,"TOWNNAME":"仁德區","LI":"後壁里","LIN":"7鄰","STREET":"德善二街","SECT":" ","MAREA":" ","LANE":"５１巷","ALLEY":" ","HOUSE_NO":"６號","E_COORD97":173636.17999999999,"N_COORD97":2539005.0099999998,"ADDRESS":"德善二街５１巷６號","OBJECTID":271841},"geometry":{"x":173636.1799999997,"y":2539005.0099999998}},{"attributes":{"ID":271847,"DIS_CODE":0,"TOWNNAME":"善化區","LI":"文昌里","LIN":"13鄰","STREET":"大信路","SECT":" ","MAREA":" ","LANE":" ","ALLEY":" ","HOUSE_NO":"４９號","E_COORD97":177562.32000000001,"N_COORD97":2558845.25,"ADDRESS":"大信路４９號","OBJECTID":271842},"geometry":{"x":177562.32000000123,"y":2558845.2500000037}},{"attributes":{"ID":271848,"DIS_CODE":0,"TOWNNAME":"善化區","LI":"文正里","LIN":"13鄰","STREET":"中山路","SECT":" ","MAREA":" ","LANE":" ","ALLEY":" ","HOUSE_NO":"５６０之１３號","E_COORD97":176781.38,"N_COORD97":2559255.02,"ADDRESS":"中山路５６０之１３號","OBJECTID":271843},"geometry":{"x":176781.37999999896,"y":2559255.0199999996}},{"attributes":{"ID":271849,"DIS_CODE":0,"TOWNNAME":"善化區","LI":"光文里","LIN":"14鄰","STREET":"大成路","SECT":" ","MAREA":" ","LANE":" ","ALLEY":" ","HOUSE_NO":"１５４號","E_COORD97":178497.48000000001,"N_COORD97":2558896.75,"ADDRESS":"大成路１５４號","OBJECTID":271844},"geometry":{"x":178497.48000000138,"y":2558896.7500000019}},{"attributes":{"ID":271850,"DIS_CODE":0,"TOWNNAME":"仁德區","LI":"後壁里","LIN":"7鄰","STREET":"德善二街","SECT":" ","MAREA":" ","LANE":"５１巷","ALLEY":" ","HOUSE_NO":"２３號","E_COORD97":173597.25,"N_COORD97":2539031.5099999998,"ADDRESS":"德善二街５１巷２３號","OBJECTID":271845},"geometry":{"x":173597.25000000186,"y":2539031.5100000016}},{"attributes":{"ID":271851,"DIS_CODE":0,"TOWNNAME":"善化區","LI":"南關里","LIN":"4鄰","STREET":"自由路","SECT":" ","MAREA":" ","LANE":" ","ALLEY":" ","HOUSE_NO":"１１４號","E_COORD97":177123.41,"N_COORD97":2558890,"ADDRESS":"自由路１１４號","OBJECTID":271846},"geometry":{"x":177123.41000000015,"y":2558890}},{"attributes":{"ID":271852,"DIS_CODE":0,"TOWNNAME":"下營區","LI":"宅內里","LIN":"7鄰","STREET":"人和三街","SECT":" ","MAREA":" ","LANE":"７６巷","ALLEY":" ","HOUSE_NO":"１６號","E_COORD97":174269.98999999999,"N_COORD97":2570767.5299999998,"ADDRESS":"人和三街７６巷１６號","OBJECTID":271847},"geometry":{"x":174269.99000000022,"y":2570767.5300000012}},{"attributes":{"ID":271853,"DIS_CODE":0,"TOWNNAME":"新市區","LI":"新和里","LIN":"7鄰","STREET":"富強路","SECT":" ","MAREA":" ","LANE":"５１巷","ALLEY":" ","HOUSE_NO":"５號","E_COORD97":177291.29000000001,"N_COORD97":2552390,"ADDRESS":"富強路５１巷５號","OBJECTID":271848},"geometry":{"x":177291.29000000097,"y":2552390.0000000019}},{"attributes":{"ID":271854,"DIS_CODE":0,"TOWNNAME":"新市區","LI":"新和里","LIN":"7鄰","STREET":"富強路","SECT":" ","MAREA":" ","LANE":"５１巷","ALLEY":" ","HOUSE_NO":"１號","E_COORD97":177288.13,"N_COORD97":2552402,"ADDRESS":"富強路５１巷１號","OBJECTID":271849},"geometry":{"x":177288.12999999989,"y":2552402.0000000037}},{"attributes":{"ID":271855,"DIS_CODE":0,"TOWNNAME":"善化區","LI":"光文里","LIN":"20鄰","STREET":"民生路","SECT":" ","MAREA":" ","LANE":" ","ALLEY":" ","HOUSE_NO":"３１６號","E_COORD97":178113.82000000001,"N_COORD97":2558915.2599999998,"ADDRESS":"民生路３１６號","OBJECTID":271850},"geometry":{"x":178113.82000000123,"y":2558915.2599999998}},{"attributes":{"ID":271856,"DIS_CODE":0,"TOWNNAME":"善化區","LI":"文昌里","LIN":"13鄰","STREET":"文昌路","SECT":" ","MAREA":" ","LANE":" ","ALLEY":" ","HOUSE_NO":"２４號之１","E_COORD97":177485.92999999999,"N_COORD97":2558807.2799999998,"ADDRESS":"文昌路２４號之１","OBJECTID":271851},"geometry":{"x":177485.9299999997,"y":2558807.2800000031}},{"attributes":{"ID":271857,"DIS_CODE":0,"TOWNNAME":"安南區","LI":"淵中里","LIN":"7鄰","STREET":"安中路","SECT":"四段","MAREA":" ","LANE":"１５４巷","ALLEY":" ","HOUSE_NO":"１５號","E_COORD97":164963.62,"N_COORD97":2550105.5099999998,"ADDRESS":"安中路四段１５４巷１５號","OBJECTID":271852},"geometry":{"x":164963.62000000104,"y":2550105.5099999998}},{"attributes":{"ID":271858,"DIS_CODE":0,"TOWNNAME":"安南區","LI":"淵中里","LIN":"7鄰","STREET":"安中路","SECT":"四段","MAREA":" ","LANE":"１５４巷","ALLEY":" ","HOUSE_NO":"１７號","E_COORD97":164966.51000000001,"N_COORD97":2550102.8999999999,"ADDRESS":"安中路四段１５４巷１７號","OBJECTID":271853},"geometry":{"x":164966.50999999978,"y":2550102.9000000004}},{"attributes":{"ID":271859,"DIS_CODE":0,"TOWNNAME":"安南區","LI":"淵中里","LIN":"7鄰","STREET":"安中路","SECT":"四段","MAREA":" ","LANE":"１５４巷","ALLEY":" ","HOUSE_NO":"１９號","E_COORD97":164971.29000000001,"N_COORD97":2550099.8399999999,"ADDRESS":"安中路四段１５４巷１９號","OBJECTID":271854},"geometry":{"x":164971.29000000004,"y":2550099.8399999999}},{"attributes":{"ID":271860,"DIS_CODE":0,"TOWNNAME":"安南區","LI":"淵中里","LIN":"7鄰","STREET":"安中路","SECT":"四段","MAREA":" ","LANE":"１５４巷","ALLEY":" ","HOUSE_NO":"２１號","E_COORD97":164975.89000000001,"N_COORD97":2550096.6800000002,"ADDRESS":"安中路四段１５４巷２１號","OBJECTID":271855},"geometry":{"x":164975.89000000153,"y":2550096.6799999997}},{"attributes":{"ID":271861,"DIS_CODE":0,"TOWNNAME":"善化區","LI":"坐駕里","LIN":"13鄰","STREET":"自強路","SECT":" ","MAREA":" ","LANE":" ","ALLEY":" ","HOUSE_NO":"９７號","E_COORD97":178047.14000000001,"N_COORD97":2558708.75,"ADDRESS":"自強路９７號","OBJECTID":271856},"geometry":{"x":178047.13999999966,"y":2558708.75}},{"attributes":{"ID":271862,"DIS_CODE":0,"TOWNNAME":"善化區","LI":"文正里","LIN":"13鄰","STREET":"中山路","SECT":" ","MAREA":" ","LANE":" ","ALLEY":" ","HOUSE_NO":"５６６號","E_COORD97":176793.28,"N_COORD97":2559246.5,"ADDRESS":"中山路５６６號","OBJECTID":271857},"geometry":{"x":176793.28000000119,"y":2559246.5}},{"attributes":{"ID":271863,"DIS_CODE":0,"TOWNNAME":"善化區","LI":"文正里","LIN":"13鄰","STREET":"陽明路","SECT":" ","MAREA":" ","LANE":" ","ALLEY":" ","HOUSE_NO":"１０２號","E_COORD97":176452.22,"N_COORD97":2559404.25,"ADDRESS":"陽明路１０２號","OBJECTID":271858},"geometry":{"x":176452.22000000067,"y":2559404.25}},{"attributes":{"ID":271864,"DIS_CODE":0,"TOWNNAME":"善化區","LI":"文正里","LIN":"13鄰","STREET":"陽明路","SECT":" ","MAREA":" ","LANE":" ","ALLEY":" ","HOUSE_NO":"９６號之１","E_COORD97":176474.31,"N_COORD97":2559401.77,"ADDRESS":"陽明路９６號之１","OBJECTID":271859},"geometry":{"x":176474.30999999959,"y":2559401.7700000014}},{"attributes":{"ID":271865,"DIS_CODE":0,"TOWNNAME":"安南區","LI":"淵中里","LIN":"7鄰","STREET":"安中路","SECT":"四段","MAREA":" ","LANE":"１５４巷","ALLEY":" ","HOUSE_NO":"２３號","E_COORD97":164985.26000000001,"N_COORD97":2550096.9500000002,"ADDRESS":"安中路四段１５４巷２３號","OBJECTID":271860},"geometry":{"x":164985.25999999885,"y":2550096.9500000011}},{"attributes":{"ID":271866,"DIS_CODE":0,"TOWNNAME":"安南區","LI":"淵中里","LIN":"7鄰","STREET":"安中路","SECT":"四段","MAREA":" ","LANE":"１５４巷","ALLEY":" ","HOUSE_NO":"２５號","E_COORD97":164988.32999999999,"N_COORD97":2550100.3799999999,"ADDRESS":"安中路四段１５４巷２５號","OBJECTID":271861},"geometry":{"x":164988.33000000007,"y":2550100.3800000008}},{"attributes":{"ID":271867,"DIS_CODE":0,"TOWNNAME":"善化區","LI":"文正里","LIN":"13鄰","STREET":"陽明路","SECT":" ","MAREA":" ","LANE":" ","ALLEY":" ","HOUSE_NO":"９６號之９","E_COORD97":176507.42000000001,"N_COORD97":2559407.02,"ADDRESS":"陽明路９６號之９","OBJECTID":271862},"geometry":{"x":176507.42000000086,"y":2559407.0200000014}},{"attributes":{"ID":271868,"DIS_CODE":0,"TOWNNAME":"善化區","LI":"文正里","LIN":"14鄰","STREET":"陽明路","SECT":" ","MAREA":" ","LANE":" ","ALLEY":" ","HOUSE_NO":"２１７號","E_COORD97":176137.92000000001,"N_COORD97":2559661.5099999998,"ADDRESS":"陽明路２１７號","OBJECTID":271863},"geometry":{"x":176137.92000000086,"y":2559661.5100000016}},{"attributes":{"ID":271869,"DIS_CODE":0,"TOWNNAME":"安南區","LI":"淵中里","LIN":"7鄰","STREET":"安中路","SECT":"四段","MAREA":" ","LANE":"１５４巷","ALLEY":" ","HOUSE_NO":"２７號","E_COORD97":164992.03,"N_COORD97":2550102.1800000002,"ADDRESS":"安中路四段１５４巷２７號","OBJECTID":271864},"geometry":{"x":164992.03000000026,"y":2550102.1800000016}},{"attributes":{"ID":271870,"DIS_CODE":0,"TOWNNAME":"安南區","LI":"淵中里","LIN":"7鄰","STREET":"安中路","SECT":"四段","MAREA":" ","LANE":"１５４巷","ALLEY":" ","HOUSE_NO":"２７之１號","E_COORD97":164996.26000000001,"N_COORD97":2550104.52,"ADDRESS":"安中路四段１５４巷２７之１號","OBJECTID":271865},"geometry":{"x":164996.26000000071,"y":2550104.5199999996}},{"attributes":{"ID":271871,"DIS_CODE":0,"TOWNNAME":"安南區","LI":"城南里","LIN":"7鄰","STREET":"城西街","SECT":"一段","MAREA":" ","LANE":"１８１巷","ALLEY":" ","HOUSE_NO":"４９號之１","E_COORD97":160487,"N_COORD97":2551131.29,"ADDRESS":"城西街一段１８１巷４９號之１","OBJECTID":271866},"geometry":{"x":160487.00000000093,"y":2551131.290000001}},{"attributes":{"ID":271872,"DIS_CODE":0,"TOWNNAME":"安南區","LI":"新順里","LIN":"7鄰","STREET":"北安路","SECT":"三段","MAREA":" ","LANE":"７４５巷","ALLEY":" ","HOUSE_NO":"７２號","E_COORD97":169178.60999999999,"N_COORD97":2550130.7000000002,"ADDRESS":"北安路三段７４５巷７２號","OBJECTID":271867},"geometry":{"x":169178.61000000034,"y":2550130.6999999993}},{"attributes":{"ID":271873,"DIS_CODE":0,"TOWNNAME":"安南區","LI":"淵西里","LIN":"7鄰","STREET":"安中路","SECT":"四段","MAREA":" ","LANE":"３２０巷","ALLEY":" ","HOUSE_NO":"１０５號","E_COORD97":164667.41,"N_COORD97":2550421.6400000001,"ADDRESS":"安中路四段３２０巷１０５號","OBJECTID":271868},"geometry":{"x":164667.41000000015,"y":2550421.6400000043}},{"attributes":{"ID":271874,"DIS_CODE":0,"TOWNNAME":"安南區","LI":"理想里","LIN":"7鄰","STREET":"海佃路","SECT":"二段","MAREA":" ","LANE":"２０６巷","ALLEY":" ","HOUSE_NO":"６之１號","E_COORD97":166988.84,"N_COORD97":2548255.7400000002,"ADDRESS":"海佃路二段２０６巷６之１號","OBJECTID":271869},"geometry":{"x":166988.84000000078,"y":2548255.7400000021}},{"attributes":{"ID":271875,"DIS_CODE":0,"TOWNNAME":"安南區","LI":"國安里","LIN":"7鄰","STREET":"國安街","SECT":" ","MAREA":" ","LANE":"２１０巷","ALLEY":" ","HOUSE_NO":"１６８號","E_COORD97":166538.97,"N_COORD97":2547381.3999999999,"ADDRESS":"國安街２１０巷１６８號","OBJECTID":271870},"geometry":{"x":166538.97000000067,"y":2547381.4000000004}},{"attributes":{"ID":271876,"DIS_CODE":0,"TOWNNAME":"東區","LI":"自強里","LIN":"7鄰","STREET":"東門路","SECT":"三段","MAREA":" ","LANE":"３７巷","ALLEY":" ","HOUSE_NO":"４３號","E_COORD97":171218.73000000001,"N_COORD97":2542309.2400000002,"ADDRESS":"東門路三段３７巷４３號","OBJECTID":271871},"geometry":{"x":171218.73000000045,"y":2542309.2400000002}},{"attributes":{"ID":271877,"DIS_CODE":0,"TOWNNAME":"東區","LI":"自強里","LIN":"7鄰","STREET":"東門路","SECT":"三段","MAREA":" ","LANE":"３７巷","ALLEY":" ","HOUSE_NO":"１１號","E_COORD97":171152.10000000001,"N_COORD97":2542312.3900000001,"ADDRESS":"東門路三段３７巷１１號","OBJECTID":271872},"geometry":{"x":171152.10000000056,"y":2542312.3900000006}},{"attributes":{"ID":271878,"DIS_CODE":0,"TOWNNAME":"東區","LI":"自強里","LIN":"7鄰","STREET":"東門路","SECT":"三段","MAREA":" ","LANE":"３７巷","ALLEY":" ","HOUSE_NO":"１３號","E_COORD97":171156.84,"N_COORD97":2542311.9300000002,"ADDRESS":"東門路三段３７巷１３號","OBJECTID":271873},"geometry":{"x":171156.83999999985,"y":2542311.9299999997}},{"attributes":{"ID":271879,"DIS_CODE":0,"TOWNNAME":"東區","LI":"自強里","LIN":"7鄰","STREET":"東門路","SECT":"三段","MAREA":" ","LANE":"３７巷","ALLEY":" ","HOUSE_NO":"１５號","E_COORD97":171161.10999999999,"N_COORD97":2542311.77,"ADDRESS":"東門路三段３７巷１５號","OBJECTID":271874},"geometry":{"x":171161.11000000127,"y":2542311.7699999996}},{"attributes":{"ID":271880,"DIS_CODE":0,"TOWNNAME":"東區","LI":"自強里","LIN":"7鄰","STREET":"東門路","SECT":"三段","MAREA":" ","LANE":"３７巷","ALLEY":" ","HOUSE_NO":"１７號","E_COORD97":171165.70000000001,"N_COORD97":2542311.29,"ADDRESS":"東門路三段３７巷１７號","OBJECTID":271875},"geometry":{"x":171165.70000000112,"y":2542311.2899999991}},{"attributes":{"ID":271881,"DIS_CODE":0,"TOWNNAME":"永康區","LI":"烏竹里","LIN":"7鄰","STREET":"龍橋街","SECT":" ","MAREA":" ","LANE":"４５９巷","ALLEY":" ","HOUSE_NO":"４號","E_COORD97":174375.57000000001,"N_COORD97":2549340.5899999999,"ADDRESS":"龍橋街４５９巷４號","OBJECTID":271876},"geometry":{"x":174375.57000000123,"y":2549340.5900000017}},{"attributes":{"ID":271882,"DIS_CODE":0,"TOWNNAME":"永康區","LI":"南灣里","LIN":"7鄰","STREET":"南興路","SECT":" ","MAREA":" ","LANE":"１１２巷","ALLEY":" ","HOUSE_NO":"２號","E_COORD97":174336.26999999999,"N_COORD97":2544443.1200000001,"ADDRESS":"南興路１１２巷２號","OBJECTID":271877},"geometry":{"x":174336.27000000048,"y":2544443.1200000029}},{"attributes":{"ID":271883,"DIS_CODE":0,"TOWNNAME":"永康區","LI":"東橋里","LIN":"7鄰","STREET":"大橋一街","SECT":" ","MAREA":" ","LANE":"３２４巷","ALLEY":" ","HOUSE_NO":"９７號","E_COORD97":171501.73999999999,"N_COORD97":2546425.2400000002,"ADDRESS":"大橋一街３２４巷９７號","OBJECTID":271878},"geometry":{"x":171501.74000000022,"y":2546425.2400000002}},{"attributes":{"ID":271884,"DIS_CODE":0,"TOWNNAME":"安南區","LI":"新順里","LIN":"7鄰","STREET":"北安路","SECT":"三段","MAREA":" ","LANE":"７４５巷","ALLEY":" ","HOUSE_NO":"１３號","E_COORD97":169039.04000000001,"N_COORD97":2549928.5899999999,"ADDRESS":"北安路三段７４５巷１３號","OBJECTID":271879},"geometry":{"x":169039.04000000097,"y":2549928.5899999999}},{"attributes":{"ID":271885,"DIS_CODE":0,"TOWNNAME":"安南區","LI":"城西里","LIN":"7鄰","STREET":"城西街","SECT":"三段","MAREA":" ","LANE":"５０１巷","ALLEY":" ","HOUSE_NO":"３００之１號","E_COORD97":157306.14999999999,"N_COORD97":2550142.04,"ADDRESS":"城西街三段５０１巷３００之１號","OBJECTID":271880},"geometry":{"x":157306.1500000013,"y":2550142.0399999991}},{"attributes":{"ID":271886,"DIS_CODE":0,"TOWNNAME":"安南區","LI":"新順里","LIN":"7鄰","STREET":"北安路","SECT":"三段","MAREA":" ","LANE":"７４５巷","ALLEY":" ","HOUSE_NO":"３６之２號","E_COORD97":169084.25,"N_COORD97":2550007.79,"ADDRESS":"北安路三段７４５巷３６之２號","OBJECTID":271881},"geometry":{"x":169084.25,"y":2550007.7899999991}},{"attributes":{"ID":271887,"DIS_CODE":0,"TOWNNAME":"安南區","LI":"學東里","LIN":"7鄰","STREET":"公學路","SECT":"六段","MAREA":" ","LANE":"４５１巷","ALLEY":" ","HOUSE_NO":"１５號","E_COORD97":162732.03,"N_COORD97":2553154.52,"ADDRESS":"公學路六段４５１巷１５號","OBJECTID":271882},"geometry":{"x":162732.03000000026,"y":2553154.5200000014}},{"attributes":{"ID":271888,"DIS_CODE":0,"TOWNNAME":"新市區","LI":"新和里","LIN":"7鄰","STREET":"富強路","SECT":" ","MAREA":" ","LANE":"５１巷","ALLEY":" ","HOUSE_NO":"１１號","E_COORD97":177297.38,"N_COORD97":2552371.75,"ADDRESS":"富強路５１巷１１號","OBJECTID":271883},"geometry":{"x":177297.38000000082,"y":2552371.75}},{"attributes":{"ID":271889,"DIS_CODE":0,"TOWNNAME":"中西區","LI":"民生里","LIN":"7鄰","STREET":"武英街","SECT":" ","MAREA":" ","LANE":"６巷","ALLEY":" ","HOUSE_NO":"１１號","E_COORD97":167221.73000000001,"N_COORD97":2543345.3199999998,"ADDRESS":"武英街６巷１１號","OBJECTID":271884},"geometry":{"x":167221.73000000045,"y":2543345.3200000022}},{"attributes":{"ID":271890,"DIS_CODE":0,"TOWNNAME":"中西區","LI":"三合里","LIN":"7鄰","STREET":"信義街","SECT":" ","MAREA":" ","LANE":"４６巷","ALLEY":" ","HOUSE_NO":"８號","E_COORD97":167595.47,"N_COORD97":2544506.8999999999,"ADDRESS":"信義街４６巷８號","OBJECTID":271885},"geometry":{"x":167595.46999999974,"y":2544506.9000000041}},{"attributes":{"ID":271891,"DIS_CODE":0,"TOWNNAME":"北區","LI":"成功里","LIN":"18鄰","STREET":"北成路","SECT":" ","MAREA":" ","LANE":"１２８巷","ALLEY":" ","HOUSE_NO":"４１號","E_COORD97":168953.97,"N_COORD97":2546794.6899999999,"ADDRESS":"北成路１２８巷４１號","OBJECTID":271886},"geometry":{"x":168953.9700000016,"y":2546794.6899999995}},{"attributes":{"ID":271892,"DIS_CODE":0,"TOWNNAME":"北區","LI":"成功里","LIN":"18鄰","STREET":"北成路","SECT":" ","MAREA":" ","LANE":"１２８巷","ALLEY":" ","HOUSE_NO":"４３號","E_COORD97":168955.26000000001,"N_COORD97":2546798.2200000002,"ADDRESS":"北成路１２８巷４３號","OBJECTID":271887},"geometry":{"x":168955.25999999978,"y":2546798.2200000025}},{"attributes":{"ID":271893,"DIS_CODE":0,"TOWNNAME":"北區","LI":"成功里","LIN":"17鄰","STREET":"北成路","SECT":" ","MAREA":" ","LANE":"１２８巷","ALLEY":" ","HOUSE_NO":"４２號","E_COORD97":168977.42999999999,"N_COORD97":2546786.9199999999,"ADDRESS":"北成路１２８巷４２號","OBJECTID":271888},"geometry":{"x":168977.4299999997,"y":2546786.9199999999}},{"attributes":{"ID":271894,"DIS_CODE":0,"TOWNNAME":"下營區","LI":"下營里","LIN":"7鄰","STREET":"中山路","SECT":"一段","MAREA":" ","LANE":"１２巷","ALLEY":" ","HOUSE_NO":"１號","E_COORD97":174429.09,"N_COORD97":2570455.3500000001,"ADDRESS":"中山路一段１２巷１號","OBJECTID":271889},"geometry":{"x":174429.09000000078,"y":2570455.3499999996}},{"attributes":{"ID":271895,"DIS_CODE":0,"TOWNNAME":"下營區","LI":"下營里","LIN":"7鄰","STREET":"中山路","SECT":"一段","MAREA":" ","LANE":"１２巷","ALLEY":" ","HOUSE_NO":"２１號","E_COORD97":174439.07999999999,"N_COORD97":2570412.23,"ADDRESS":"中山路一段１２巷２１號","OBJECTID":271890},"geometry":{"x":174439.08000000007,"y":2570412.2300000004}},{"attributes":{"ID":271896,"DIS_CODE":0,"TOWNNAME":"北區","LI":"成功里","LIN":"24鄰","STREET":"北成路","SECT":" ","MAREA":" ","LANE":"１８６巷","ALLEY":" ","HOUSE_NO":"１８號","E_COORD97":168837.16,"N_COORD97":2546796.4100000001,"ADDRESS":"北成路１８６巷１８號","OBJECTID":271891},"geometry":{"x":168837.16000000015,"y":2546796.410000002}},{"attributes":{"ID":271897,"DIS_CODE":0,"TOWNNAME":"下營區","LI":"下營里","LIN":"7鄰","STREET":"中山路","SECT":"一段","MAREA":" ","LANE":"１２巷","ALLEY":" ","HOUSE_NO":"３號","E_COORD97":174430.12,"N_COORD97":2570452.0499999998,"ADDRESS":"中山路一段１２巷３號","OBJECTID":271892},"geometry":{"x":174430.12000000011,"y":2570452.0500000007}},{"attributes":{"ID":271898,"DIS_CODE":0,"TOWNNAME":"下營區","LI":"下營里","LIN":"7鄰","STREET":"中山路","SECT":"一段","MAREA":" ","LANE":"１２巷","ALLEY":" ","HOUSE_NO":"５號","E_COORD97":174431.12,"N_COORD97":2570447.8799999999,"ADDRESS":"中山路一段１２巷５號","OBJECTID":271893},"geometry":{"x":174431.12000000104,"y":2570447.879999999}},{"attributes":{"ID":271899,"DIS_CODE":0,"TOWNNAME":"新化區","LI":"\u25A0拔里","LIN":"3鄰","STREET":" ","SECT":" ","MAREA":"\u25A0拔林","LANE":" ","ALLEY":" ","HOUSE_NO":"１５７號之１","E_COORD97":183988.14999999999,"N_COORD97":2552205.2599999998,"ADDRESS":"\u25A0拔林１５７號之１","OBJECTID":271894},"geometry":{"x":183988.15000000224,"y":2552205.2599999998}},{"attributes":{"ID":271900,"DIS_CODE":0,"TOWNNAME":"新化區","LI":"\u25A0拔里","LIN":"3鄰","STREET":" ","SECT":" ","MAREA":"\u25A0拔林","LANE":" ","ALLEY":" ","HOUSE_NO":"１１５號之１","E_COORD97":183611.45000000001,"N_COORD97":2552066.2599999998,"ADDRESS":"\u25A0拔林１１５號之１","OBJECTID":271895},"geometry":{"x":183611.45000000112,"y":2552066.2599999998}},{"attributes":{"ID":271901,"DIS_CODE":0,"TOWNNAME":"白河區","LI":"詔安里","LIN":"3鄰","STREET":" ","SECT":" ","MAREA":"詔安厝","LANE":" ","ALLEY":" ","HOUSE_NO":"２５之１０號","E_COORD97":189646.26000000001,"N_COORD97":2588132.96,"ADDRESS":"詔安厝２５之１０號","OBJECTID":271896},"geometry":{"x":189646.25999999978,"y":2588132.9600000009}},{"attributes":{"ID":271902,"DIS_CODE":0,"TOWNNAME":"白河區","LI":"詔安里","LIN":"3鄰","STREET":" ","SECT":" ","MAREA":"詔安厝","LANE":" ","ALLEY":" ","HOUSE_NO":"２５之１１號","E_COORD97":189616.5,"N_COORD97":2588165.7400000002,"ADDRESS":"詔安厝２５之１１號","OBJECTID":271897},"geometry":{"x":189616.5,"y":2588165.7400000039}},{"attributes":{"ID":271903,"DIS_CODE":0,"TOWNNAME":"白河區","LI":"詔安里","LIN":"3鄰","STREET":" ","SECT":" ","MAREA":"詔安厝","LANE":" ","ALLEY":" ","HOUSE_NO":"２５之１２號","E_COORD97":189704.54000000001,"N_COORD97":2588106.29,"ADDRESS":"詔安厝２５之１２號","OBJECTID":271898},"geometry":{"x":189704.54000000004,"y":2588106.2899999972}},{"attributes":{"ID":271904,"DIS_CODE":0,"TOWNNAME":"白河區","LI":"詔安里","LIN":"3鄰","STREET":" ","SECT":" ","MAREA":"詔安厝","LANE":" ","ALLEY":" ","HOUSE_NO":"２５之１３號","E_COORD97":189700.32999999999,"N_COORD97":2588108.1499999999,"ADDRESS":"詔安厝２５之１３號","OBJECTID":271899},"geometry":{"x":189700.33000000007,"y":2588108.1500000004}},{"attributes":{"ID":271905,"DIS_CODE":0,"TOWNNAME":"白河區","LI":"詔安里","LIN":"3鄰","STREET":" ","SECT":" ","MAREA":"詔安厝","LANE":" ","ALLEY":" ","HOUSE_NO":"２５之１４號","E_COORD97":189695.82999999999,"N_COORD97":2588110.1200000001,"ADDRESS":"詔安厝２５之１４號","OBJECTID":271900},"geometry":{"x":189695.83000000007,"y":2588110.1200000029}},{"attributes":{"ID":271906,"DIS_CODE":0,"TOWNNAME":"白河區","LI":"詔安里","LIN":"3鄰","STREET":" ","SECT":" ","MAREA":"詔安厝","LANE":" ","ALLEY":" ","HOUSE_NO":"２５之２１號","E_COORD97":189538.54000000001,"N_COORD97":2588214.21,"ADDRESS":"詔安厝２５之２１號","OBJECTID":271901},"geometry":{"x":189538.5400000019,"y":2588214.2100000046}},{"attributes":{"ID":271907,"DIS_CODE":0,"TOWNNAME":"安南區","LI":"大安里","LIN":"3鄰","STREET":"理安街","SECT":" ","MAREA":" ","LANE":" ","ALLEY":" ","HOUSE_NO":"５號","E_COORD97":167258.32999999999,"N_COORD97":2547892.73,"ADDRESS":"理安街５號","OBJECTID":271902},"geometry":{"x":167258.32999999914,"y":2547892.7300000023}},{"attributes":{"ID":271908,"DIS_CODE":0,"TOWNNAME":"下營區","LI":"下營里","LIN":"7鄰","STREET":"中山路","SECT":"一段","MAREA":" ","LANE":"１２巷","ALLEY":" ","HOUSE_NO":"７號","E_COORD97":174432.09,"N_COORD97":2570443.6600000001,"ADDRESS":"中山路一段１２巷７號","OBJECTID":271903},"geometry":{"x":174432.08999999892,"y":2570443.6600000001}},{"attributes":{"ID":271909,"DIS_CODE":0,"TOWNNAME":"下營區","LI":"下營里","LIN":"7鄰","STREET":"中山路","SECT":"一段","MAREA":" ","LANE":"１２巷","ALLEY":" ","HOUSE_NO":"９號","E_COORD97":174433.04999999999,"N_COORD97":2570439.9500000002,"ADDRESS":"中山路一段１２巷９號","OBJECTID":271904},"geometry":{"x":174433.05000000075,"y":2570439.9499999993}},{"attributes":{"ID":271910,"DIS_CODE":0,"TOWNNAME":"下營區","LI":"新興里","LIN":"7鄰","STREET":"中山路","SECT":"一段","MAREA":" ","LANE":"１５１巷","ALLEY":" ","HOUSE_NO":"１０號","E_COORD97":174759.63,"N_COORD97":2570648.5,"ADDRESS":"中山路一段１５１巷１０號","OBJECTID":271905},"geometry":{"x":174759.63000000082,"y":2570648.5}},{"attributes":{"ID":271911,"DIS_CODE":0,"TOWNNAME":"下營區","LI":"新興里","LIN":"7鄰","STREET":"中山路","SECT":"一段","MAREA":" ","LANE":"１５１巷","ALLEY":" ","HOUSE_NO":"１２號","E_COORD97":174758.23999999999,"N_COORD97":2570652.48,"ADDRESS":"中山路一段１５１巷１２號","OBJECTID":271906},"geometry":{"x":174758.24000000022,"y":2570652.4800000004}},{"attributes":{"ID":271912,"DIS_CODE":0,"TOWNNAME":"下營區","LI":"新興里","LIN":"7鄰","STREET":"中山路","SECT":"一段","MAREA":" ","LANE":"１５１巷","ALLEY":" ","HOUSE_NO":"１６號","E_COORD97":174757.10999999999,"N_COORD97":2570656.98,"ADDRESS":"中山路一段１５１巷１６號","OBJECTID":271907},"geometry":{"x":174757.11000000127,"y":2570656.9800000023}},{"attributes":{"ID":271913,"DIS_CODE":0,"TOWNNAME":"白河區","LI":"外角里","LIN":"3鄰","STREET":"開明街","SECT":" ","MAREA":" ","LANE":" ","ALLEY":" ","HOUSE_NO":"１３８號","E_COORD97":190592.60000000001,"N_COORD97":2583206.3199999998,"ADDRESS":"開明街１３８號","OBJECTID":271908},"geometry":{"x":190592.60000000056,"y":2583206.3200000022}},{"attributes":{"ID":271914,"DIS_CODE":0,"TOWNNAME":"白河區","LI":"白河里","LIN":"3鄰","STREET":"新起街","SECT":" ","MAREA":" ","LANE":" ","ALLEY":" ","HOUSE_NO":"１５４號","E_COORD97":190159.98000000001,"N_COORD97":2582663.0600000001,"ADDRESS":"新起街１５４號","OBJECTID":271909},"geometry":{"x":190159.98000000138,"y":2582663.0600000005}},{"attributes":{"ID":271915,"DIS_CODE":0,"TOWNNAME":"白河區","LI":"白河里","LIN":"3鄰","STREET":"新起街","SECT":" ","MAREA":" ","LANE":" ","ALLEY":" ","HOUSE_NO":"１５８號","E_COORD97":190160.89999999999,"N_COORD97":2582677.46,"ADDRESS":"新起街１５８號","OBJECTID":271910},"geometry":{"x":190160.9000000013,"y":2582677.4600000028}},{"attributes":{"ID":271916,"DIS_CODE":0,"TOWNNAME":"白河區","LI":"河東里","LIN":"3鄰","STREET":" ","SECT":" ","MAREA":"糞箕湖","LANE":" ","ALLEY":" ","HOUSE_NO":"２８之１號","E_COORD97":192118.45999999999,"N_COORD97":2582329.4100000001,"ADDRESS":"糞箕湖２８之１號","OBJECTID":271911},"geometry":{"x":192118.45999999996,"y":2582329.4100000039}},{"attributes":{"ID":271917,"DIS_CODE":0,"TOWNNAME":"白河區","LI":"河東里","LIN":"3鄰","STREET":" ","SECT":" ","MAREA":"糞箕湖","LANE":" ","ALLEY":" ","HOUSE_NO":"２８號","E_COORD97":192135.12,"N_COORD97":2582336.0899999999,"ADDRESS":"糞箕湖２８號","OBJECTID":271912},"geometry":{"x":192135.12000000197,"y":2582336.0900000017}},{"attributes":{"ID":271918,"DIS_CODE":0,"TOWNNAME":"白河區","LI":"河東里","LIN":"3鄰","STREET":" ","SECT":" ","MAREA":"糞箕湖","LANE":" ","ALLEY":" ","HOUSE_NO":"２９之３號","E_COORD97":192142.04000000001,"N_COORD97":2582297.98,"ADDRESS":"糞箕湖２９之３號","OBJECTID":271913},"geometry":{"x":192142.04000000004,"y":2582297.9800000004}},{"attributes":{"ID":271919,"DIS_CODE":0,"TOWNNAME":"白河區","LI":"河東里","LIN":"3鄰","STREET":" ","SECT":" ","MAREA":"糞箕湖","LANE":" ","ALLEY":" ","HOUSE_NO":"２９號","E_COORD97":192112,"N_COORD97":2582309.4500000002,"ADDRESS":"糞箕湖２９號","OBJECTID":271914},"geometry":{"x":192111.99999999907,"y":2582309.4500000011}},{"attributes":{"ID":271920,"DIS_CODE":0,"TOWNNAME":"白河區","LI":"河東里","LIN":"3鄰","STREET":" ","SECT":" ","MAREA":"糞箕湖","LANE":" ","ALLEY":" ","HOUSE_NO":"３０號","E_COORD97":192105.23999999999,"N_COORD97":2582252.1800000002,"ADDRESS":"糞箕湖３０號","OBJECTID":271915},"geometry":{"x":192105.24000000022,"y":2582252.1799999997}},{"attributes":{"ID":271921,"DIS_CODE":0,"TOWNNAME":"白河區","LI":"河東里","LIN":"3鄰","STREET":" ","SECT":" ","MAREA":"糞箕湖","LANE":" ","ALLEY":" ","HOUSE_NO":"３１之１號","E_COORD97":192104.66,"N_COORD97":2582269.8300000001,"ADDRESS":"糞箕湖３１之１號","OBJECTID":271916},"geometry":{"x":192104.66000000108,"y":2582269.8300000019}},{"attributes":{"ID":271922,"DIS_CODE":0,"TOWNNAME":"下營區","LI":"新興里","LIN":"7鄰","STREET":"中山路","SECT":"一段","MAREA":" ","LANE":"１５１巷","ALLEY":" ","HOUSE_NO":"２號","E_COORD97":174765.81,"N_COORD97":2570627.96,"ADDRESS":"中山路一段１５１巷２號","OBJECTID":271917},"geometry":{"x":174765.80999999959,"y":2570627.9600000028}},{"attributes":{"ID":271923,"DIS_CODE":0,"TOWNNAME":"白河區","LI":"河東里","LIN":"3鄰","STREET":" ","SECT":" ","MAREA":"糞箕湖","LANE":" ","ALLEY":" ","HOUSE_NO":"３８之８號","E_COORD97":192087.20999999999,"N_COORD97":2582403.6299999999,"ADDRESS":"糞箕湖３８之８號","OBJECTID":271918},"geometry":{"x":192087.21000000089,"y":2582403.629999999}},{"attributes":{"ID":271924,"DIS_CODE":0,"TOWNNAME":"白河區","LI":"河東里","LIN":"3鄰","STREET":" ","SECT":" ","MAREA":"糞箕湖","LANE":" ","ALLEY":" ","HOUSE_NO":"３８號","E_COORD97":192123.07000000001,"N_COORD97":2582392.6299999999,"ADDRESS":"糞箕湖３８號","OBJECTID":271919},"geometry":{"x":192123.0700000003,"y":2582392.6300000008}},{"attributes":{"ID":271925,"DIS_CODE":0,"TOWNNAME":"白河區","LI":"河東里","LIN":"3鄰","STREET":" ","SECT":" ","MAREA":"糞箕湖","LANE":" ","ALLEY":" ","HOUSE_NO":"３９號","E_COORD97":192141.10999999999,"N_COORD97":2582388.71,"ADDRESS":"糞箕湖３９號","OBJECTID":271920},"geometry":{"x":192141.11000000127,"y":2582388.7100000009}},{"attributes":{"ID":271926,"DIS_CODE":0,"TOWNNAME":"永康區","LI":"南灣里","LIN":"3鄰","STREET":"大灣路","SECT":" ","MAREA":" ","LANE":" ","ALLEY":" ","HOUSE_NO":"５２５號","E_COORD97":174505.62,"N_COORD97":2544581.9100000001,"ADDRESS":"大灣路５２５號","OBJECTID":271921},"geometry":{"x":174505.62000000104,"y":2544581.910000002}},{"attributes":{"ID":271927,"DIS_CODE":0,"TOWNNAME":"永康區","LI":"南灣里","LIN":"3鄰","STREET":"大灣路","SECT":" ","MAREA":" ","LANE":" ","ALLEY":" ","HOUSE_NO":"５２９號","E_COORD97":174493.75,"N_COORD97":2544580.79,"ADDRESS":"大灣路５２９號","OBJECTID":271922},"geometry":{"x":174493.75,"y":2544580.7900000028}},{"attributes":{"ID":271928,"DIS_CODE":0,"TOWNNAME":"永康區","LI":"六合里","LIN":"3鄰","STREET":"中華路","SECT":" ","MAREA":" ","LANE":" ","ALLEY":" ","HOUSE_NO":"５９３號","E_COORD97":171152.14999999999,"N_COORD97":2545939.4900000002,"ADDRESS":"中華路５９３號","OBJECTID":271923},"geometry":{"x":171152.15000000224,"y":2545939.4900000002}},{"attributes":{"ID":271929,"DIS_CODE":0,"TOWNNAME":"永康區","LI":"六合里","LIN":"3鄰","STREET":"中華路","SECT":" ","MAREA":" ","LANE":" ","ALLEY":" ","HOUSE_NO":"５９１號","E_COORD97":171155.57999999999,"N_COORD97":2545934.75,"ADDRESS":"中華路５９１號","OBJECTID":271924},"geometry":{"x":171155.57999999914,"y":2545934.7500000037}},{"attributes":{"ID":271930,"DIS_CODE":0,"TOWNNAME":"下營區","LI":"新興里","LIN":"7鄰","STREET":"中山路","SECT":"一段","MAREA":" ","LANE":"１５１巷","ALLEY":" ","HOUSE_NO":"６號","E_COORD97":174764.35000000001,"N_COORD97":2570633.6299999999,"ADDRESS":"中山路一段１５１巷６號","OBJECTID":271925},"geometry":{"x":174764.35000000056,"y":2570633.6300000008}},{"attributes":{"ID":271931,"DIS_CODE":0,"TOWNNAME":"永康區","LI":"西勢里","LIN":"3鄰","STREET":"西勢路","SECT":" ","MAREA":" ","LANE":" ","ALLEY":" ","HOUSE_NO":"２９３號","E_COORD97":175613.72,"N_COORD97":2546788.1899999999,"ADDRESS":"西勢路２９３號","OBJECTID":271926},"geometry":{"x":175613.71999999974,"y":2546788.1899999995}},{"attributes":{"ID":271932,"DIS_CODE":0,"TOWNNAME":"下營區","LI":"營前里","LIN":"7鄰","STREET":"中山路","SECT":"二段","MAREA":" ","LANE":"１１１巷","ALLEY":" ","HOUSE_NO":"５號","E_COORD97":174540.23999999999,"N_COORD97":2570212.3100000001,"ADDRESS":"中山路二段１１１巷５號","OBJECTID":271927},"geometry":{"x":174540.24000000115,"y":2570212.3100000005}},{"attributes":{"ID":271933,"DIS_CODE":0,"TOWNNAME":"下營區","LI":"營前里","LIN":"7鄰","STREET":"中山路","SECT":"二段","MAREA":" ","LANE":"１１１巷","ALLEY":" ","HOUSE_NO":"７號","E_COORD97":174556.32000000001,"N_COORD97":2570208.8799999999,"ADDRESS":"中山路二段１１１巷７號","OBJECTID":271928},"geometry":{"x":174556.3200000003,"y":2570208.8800000008}},{"attributes":{"ID":271934,"DIS_CODE":0,"TOWNNAME":"永康區","LI":"西灣里","LIN":"3鄰","STREET":"大安街","SECT":" ","MAREA":" ","LANE":" ","ALLEY":" ","HOUSE_NO":"１８２號","E_COORD97":174637.59,"N_COORD97":2545208.8199999998,"ADDRESS":"大安街１８２號","OBJECTID":271929},"geometry":{"x":174637.59000000078,"y":2545208.8199999984}},{"attributes":{"ID":271935,"DIS_CODE":0,"TOWNNAME":"永康區","LI":"西勢里","LIN":"3鄰","STREET":"西勢路","SECT":" ","MAREA":" ","LANE":" ","ALLEY":" ","HOUSE_NO":"３０１號","E_COORD97":175579.88,"N_COORD97":2546788.77,"ADDRESS":"西勢路３０１號","OBJECTID":271930},"geometry":{"x":175579.88000000082,"y":2546788.7700000014}},{"attributes":{"ID":271936,"DIS_CODE":0,"TOWNNAME":"永康區","LI":"西勢里","LIN":"3鄰","STREET":"西勢路","SECT":" ","MAREA":" ","LANE":" ","ALLEY":" ","HOUSE_NO":"５５３號","E_COORD97":174885.73999999999,"N_COORD97":2546760.04,"ADDRESS":"西勢路５５３號","OBJECTID":271931},"geometry":{"x":174885.73999999929,"y":2546760.040000001}},{"attributes":{"ID":271937,"DIS_CODE":0,"TOWNNAME":"下營區","LI":"後街里","LIN":"7鄰","STREET":"中正北路","SECT":" ","MAREA":" ","LANE":"１３３巷","ALLEY":" ","HOUSE_NO":"５號","E_COORD97":174378.03,"N_COORD97":2570835.9199999999,"ADDRESS":"中正北路１３３巷５號","OBJECTID":271932},"geometry":{"x":174378.03000000026,"y":2570835.9200000037}},{"attributes":{"ID":271938,"DIS_CODE":0,"TOWNNAME":"永康區","LI":"南灣里","LIN":"7鄰","STREET":"南興路","SECT":" ","MAREA":" ","LANE":"１１２巷","ALLEY":" ","HOUSE_NO":"１５號","E_COORD97":174351.82000000001,"N_COORD97":2544470.6200000001,"ADDRESS":"南興路１１２巷１５號","OBJECTID":271933},"geometry":{"x":174351.82000000123,"y":2544470.620000001}},{"attributes":{"ID":271939,"DIS_CODE":0,"TOWNNAME":"永康區","LI":"西勢里","LIN":"3鄰","STREET":"西勢路","SECT":" ","MAREA":" ","LANE":" ","ALLEY":" ","HOUSE_NO":"２９９號","E_COORD97":175591.14999999999,"N_COORD97":2546783.3999999999,"ADDRESS":"西勢路２９９號","OBJECTID":271934},"geometry":{"x":175591.15000000037,"y":2546783.4000000004}},{"attributes":{"ID":271940,"DIS_CODE":0,"TOWNNAME":"安南區","LI":"州南里","LIN":"7鄰","STREET":"長和一街","SECT":" ","MAREA":" ","LANE":"１５巷","ALLEY":" ","HOUSE_NO":"２３號之１","E_COORD97":169584.31,"N_COORD97":2551453.3199999998,"ADDRESS":"長和一街１５巷２３號之１","OBJECTID":271935},"geometry":{"x":169584.31000000052,"y":2551453.3200000003}},{"attributes":{"ID":271941,"DIS_CODE":0,"TOWNNAME":"安南區","LI":"淵東里","LIN":"7鄰","STREET":"本原街","SECT":"三段","MAREA":" ","LANE":"２５１巷","ALLEY":" ","HOUSE_NO":"１５號","E_COORD97":165415.07000000001,"N_COORD97":2550261.4399999999,"ADDRESS":"本原街三段２５１巷１５號","OBJECTID":271936},"geometry":{"x":165415.07000000123,"y":2550261.4399999995}},{"attributes":{"ID":271942,"DIS_CODE":0,"TOWNNAME":"永康區","LI":"尚頂里","LIN":"3鄰","STREET":"中正二街","SECT":" ","MAREA":" ","LANE":" ","ALLEY":" ","HOUSE_NO":"１５６號","E_COORD97":171328.79999999999,"N_COORD97":2547675.8999999999,"ADDRESS":"中正二街１５６號","OBJECTID":271937},"geometry":{"x":171328.80000000075,"y":2547675.9000000004}},{"attributes":{"ID":271943,"DIS_CODE":0,"TOWNNAME":"安南區","LI":"州南里","LIN":"7鄰","STREET":"北安路","SECT":"四段","MAREA":" ","LANE":"１７５巷","ALLEY":" ","HOUSE_NO":"３０之１０號","E_COORD97":169283.26999999999,"N_COORD97":2551345.3900000001,"ADDRESS":"北安路四段１７５巷３０之１０號","OBJECTID":271938},"geometry":{"x":169283.26999999955,"y":2551345.3900000043}},{"attributes":{"ID":271944,"DIS_CODE":0,"TOWNNAME":"安南區","LI":"城西里","LIN":"7鄰","STREET":"城西街","SECT":"三段","MAREA":" ","LANE":"５０１巷","ALLEY":" ","HOUSE_NO":"３６２之１８０號","E_COORD97":157958.75,"N_COORD97":2548542.71,"ADDRESS":"城西街三段５０１巷３６２之１８０號","OBJECTID":271939},"geometry":{"x":157958.75,"y":2548542.7100000009}},{"attributes":{"ID":271945,"DIS_CODE":0,"TOWNNAME":"安南區","LI":"城西里","LIN":"7鄰","STREET":"城西街","SECT":"三段","MAREA":" ","LANE":"５０１巷","ALLEY":" ","HOUSE_NO":"３６２之８２０號","E_COORD97":157250.70000000001,"N_COORD97":2548244.5600000001,"ADDRESS":"城西街三段５０１巷３６２之８２０號","OBJECTID":271940},"geometry":{"x":157250.70000000019,"y":2548244.5600000005}},{"attributes":{"ID":271946,"DIS_CODE":0,"TOWNNAME":"安南區","LI":"城西里","LIN":"7鄰","STREET":"城西街","SECT":"三段","MAREA":" ","LANE":"５０１巷","ALLEY":" ","HOUSE_NO":"３９７號","E_COORD97":157414.42999999999,"N_COORD97":2549915.4700000002,"ADDRESS":"城西街三段５０１巷３９７號","OBJECTID":271941},"geometry":{"x":157414.4299999997,"y":2549915.4700000025}},{"attributes":{"ID":271947,"DIS_CODE":0,"TOWNNAME":"永康區","LI":"東橋里","LIN":"3鄰","STREET":"大橋一街","SECT":" ","MAREA":" ","LANE":"３３０巷","ALLEY":" ","HOUSE_NO":"６號","E_COORD97":171345.91,"N_COORD97":2546653.29,"ADDRESS":"大橋一街３３０巷６號","OBJECTID":271942},"geometry":{"x":171345.91000000108,"y":2546653.290000001}},{"attributes":{"ID":271948,"DIS_CODE":0,"TOWNNAME":"善化區","LI":"文正里","LIN":"13鄰","STREET":"陽明路","SECT":" ","MAREA":" ","LANE":" ","ALLEY":" ","HOUSE_NO":"６２號","E_COORD97":176545.56,"N_COORD97":2559317.5099999998,"ADDRESS":"陽明路６２號","OBJECTID":271943},"geometry":{"x":176545.55999999959,"y":2559317.5099999998}},{"attributes":{"ID":271949,"DIS_CODE":0,"TOWNNAME":"善化區","LI":"文昌里","LIN":"8鄰","STREET":"光復路","SECT":" ","MAREA":" ","LANE":" ","ALLEY":" ","HOUSE_NO":"１３６號","E_COORD97":177402.03,"N_COORD97":2558655.8300000001,"ADDRESS":"光復路１３６號","OBJECTID":271944},"geometry":{"x":177402.03000000119,"y":2558655.8300000019}},{"attributes":{"ID":271950,"DIS_CODE":0,"TOWNNAME":"白河區","LI":"仙草里","LIN":"3鄰","STREET":" ","SECT":" ","MAREA":"仙草","LANE":" ","ALLEY":" ","HOUSE_NO":"２８號","E_COORD97":196284.17000000001,"N_COORD97":2582512.8999999999,"ADDRESS":"仙草２８號","OBJECTID":271945},"geometry":{"x":196284.16999999993,"y":2582512.9000000041}},{"attributes":{"ID":271951,"DIS_CODE":0,"TOWNNAME":"永康區","LI":"尚頂里","LIN":"3鄰","STREET":"中正二街","SECT":" ","MAREA":" ","LANE":" ","ALLEY":" ","HOUSE_NO":"１６０號","E_COORD97":171343.79999999999,"N_COORD97":2547684.6499999999,"ADDRESS":"中正二街１６０號","OBJECTID":271946},"geometry":{"x":171343.80000000168,"y":2547684.6500000004}},{"attributes":{"ID":271952,"DIS_CODE":0,"TOWNNAME":"東區","LI":"裕聖里","LIN":"3鄰","STREET":"裕敬三街","SECT":" ","MAREA":" ","LANE":" ","ALLEY":" ","HOUSE_NO":"１１號","E_COORD97":172761.59,"N_COORD97":2542286.96,"ADDRESS":"裕敬三街１１號","OBJECTID":271947},"geometry":{"x":172761.58999999985,"y":2542286.9600000028}},{"attributes":{"ID":271953,"DIS_CODE":0,"TOWNNAME":"安南區","LI":"原佃里","LIN":"7鄰","STREET":"安中路","SECT":"二段","MAREA":" ","LANE":"２巷","ALLEY":" ","HOUSE_NO":"１１３號","E_COORD97":167258.07000000001,"N_COORD97":2549782.0800000001,"ADDRESS":"安中路二段２巷１１３號","OBJECTID":271948},"geometry":{"x":167258.0700000003,"y":2549782.0800000019}},{"attributes":{"ID":271954,"DIS_CODE":0,"TOWNNAME":"安南區","LI":"東和里","LIN":"7鄰","STREET":"長和路","SECT":"一段","MAREA":" ","LANE":"２１７巷","ALLEY":" ","HOUSE_NO":"１８５號","E_COORD97":171215.35999999999,"N_COORD97":2550169.46,"ADDRESS":"長和路一段２１７巷１８５號","OBJECTID":271949},"geometry":{"x":171215.36000000127,"y":2550169.4600000028}},{"attributes":{"ID":271955,"DIS_CODE":0,"TOWNNAME":"安南區","LI":"新順里","LIN":"7鄰","STREET":"北安路","SECT":"三段","MAREA":" ","LANE":"７４５巷","ALLEY":" ","HOUSE_NO":"８之１號","E_COORD97":169103.97,"N_COORD97":2549898.6299999999,"ADDRESS":"北安路三段７４５巷８之１號","OBJECTID":271950},"geometry":{"x":169103.97000000067,"y":2549898.6300000008}},{"attributes":{"ID":271956,"DIS_CODE":0,"TOWNNAME":"永康區","LI":"永康里","LIN":"7鄰","STREET":"中山南路","SECT":" ","MAREA":" ","LANE":"１１１６巷","ALLEY":" ","HOUSE_NO":"９號","E_COORD97":173893.51999999999,"N_COORD97":2547296.4900000002,"ADDRESS":"中山南路１１１６巷９號","OBJECTID":271951},"geometry":{"x":173893.52000000048,"y":2547296.4900000039}},{"attributes":{"ID":271957,"DIS_CODE":0,"TOWNNAME":"永康區","LI":"永康里","LIN":"7鄰","STREET":"中山南路","SECT":" ","MAREA":" ","LANE":"１１１６巷","ALLEY":" ","HOUSE_NO":"２７號","E_COORD97":173921.01000000001,"N_COORD97":2547262.75,"ADDRESS":"中山南路１１１６巷２７號","OBJECTID":271952},"geometry":{"x":173921.01000000071,"y":2547262.75}},{"attributes":{"ID":271958,"DIS_CODE":0,"TOWNNAME":"永康區","LI":"正強里","LIN":"7鄰","STREET":"自強路","SECT":" ","MAREA":" ","LANE":"３３０巷","ALLEY":" ","HOUSE_NO":"３５號","E_COORD97":173445.64999999999,"N_COORD97":2547604.29,"ADDRESS":"自強路３３０巷３５號","OBJECTID":271953},"geometry":{"x":173445.64999999944,"y":2547604.2899999991}},{"attributes":{"ID":271959,"DIS_CODE":0,"TOWNNAME":"永康區","LI":"正強里","LIN":"7鄰","STREET":"自強路","SECT":" ","MAREA":" ","LANE":"３３０巷","ALLEY":" ","HOUSE_NO":"２７號","E_COORD97":173441.23000000001,"N_COORD97":2547620.54,"ADDRESS":"自強路３３０巷２７號","OBJECTID":271954},"geometry":{"x":173441.23000000045,"y":2547620.540000001}},{"attributes":{"ID":271960,"DIS_CODE":0,"TOWNNAME":"永康區","LI":"正強里","LIN":"7鄰","STREET":"自強路","SECT":" ","MAREA":" ","LANE":"３３０巷","ALLEY":" ","HOUSE_NO":"２５號","E_COORD97":173440.35999999999,"N_COORD97":2547624.54,"ADDRESS":"自強路３３０巷２５號","OBJECTID":271955},"geometry":{"x":173440.36000000034,"y":2547624.540000001}},{"attributes":{"ID":271961,"DIS_CODE":0,"TOWNNAME":"永康區","LI":"正強里","LIN":"7鄰","STREET":"自強路","SECT":" ","MAREA":" ","LANE":"３３０巷","ALLEY":" ","HOUSE_NO":"３１號","E_COORD97":173443.23000000001,"N_COORD97":2547612.29,"ADDRESS":"自強路３３０巷３１號","OBJECTID":271956},"geometry":{"x":173443.23000000045,"y":2547612.290000001}},{"attributes":{"ID":271962,"DIS_CODE":0,"TOWNNAME":"永康區","LI":"正強里","LIN":"7鄰","STREET":"自強路","SECT":" ","MAREA":" ","LANE":"３３０巷","ALLEY":" ","HOUSE_NO":"３３號","E_COORD97":173444.32000000001,"N_COORD97":2547608.54,"ADDRESS":"自強路３３０巷３３號","OBJECTID":271957},"geometry":{"x":173444.3200000003,"y":2547608.5399999991}},{"attributes":{"ID":271963,"DIS_CODE":0,"TOWNNAME":"南區","LI":"開南里","LIN":"7鄰","STREET":"中華西路","SECT":"一段","MAREA":" ","LANE":"８巷","ALLEY":" ","HOUSE_NO":"３號十四樓之３","E_COORD97":166376.82999999999,"N_COORD97":2540577.8799999999,"ADDRESS":"中華西路一段８巷３號十四樓之３","OBJECTID":271958},"geometry":{"x":166376.82999999914,"y":2540577.879999999}},{"attributes":{"ID":271964,"DIS_CODE":0,"TOWNNAME":"南區","LI":"開南里","LIN":"7鄰","STREET":"中華西路","SECT":"一段","MAREA":" ","LANE":"８巷","ALLEY":" ","HOUSE_NO":"３號十五樓","E_COORD97":166376.82999999999,"N_COORD97":2540577.8799999999,"ADDRESS":"中華西路一段８巷３號十五樓","OBJECTID":271959},"geometry":{"x":166376.82999999914,"y":2540577.879999999}},{"attributes":{"ID":271965,"DIS_CODE":0,"TOWNNAME":"東區","LI":"大智里","LIN":"7鄰","STREET":"長東街","SECT":" ","MAREA":" ","LANE":"１０３巷","ALLEY":" ","HOUSE_NO":"２號二樓之１","E_COORD97":171051.97,"N_COORD97":2540308.1800000002,"ADDRESS":"長東街１０３巷２號二樓之１","OBJECTID":271960},"geometry":{"x":171051.96999999974,"y":2540308.1800000016}},{"attributes":{"ID":271966,"DIS_CODE":0,"TOWNNAME":"仁德區","LI":"太子里","LIN":"7鄰","STREET":"太子路","SECT":" ","MAREA":" ","LANE":"１９０巷","ALLEY":" ","HOUSE_NO":"１０號二樓","E_COORD97":174329.20999999999,"N_COORD97":2543613.7599999998,"ADDRESS":"太子路１９０巷１０號二樓","OBJECTID":271961},"geometry":{"x":174329.20999999996,"y":2543613.7599999998}},{"attributes":{"ID":271967,"DIS_CODE":0,"TOWNNAME":"西港區","LI":"劉厝里","LIN":"3鄰","STREET":" ","SECT":" ","MAREA":"劉厝","LANE":" ","ALLEY":" ","HOUSE_NO":"１３號","E_COORD97":165843.98000000001,"N_COORD97":2558596.9500000002,"ADDRESS":"劉厝１３號","OBJECTID":271962},"geometry":{"x":165843.98000000231,"y":2558596.9500000011}},{"attributes":{"ID":271968,"DIS_CODE":0,"TOWNNAME":"仁德區","LI":"太子里","LIN":"7鄰","STREET":"太子路","SECT":" ","MAREA":" ","LANE":"１９０巷","ALLEY":" ","HOUSE_NO":"１２號一樓","E_COORD97":174328.78,"N_COORD97":2543621.2599999998,"ADDRESS":"太子路１９０巷１２號一樓","OBJECTID":271963},"geometry":{"x":174328.78000000026,"y":2543621.2599999998}},{"attributes":{"ID":271969,"DIS_CODE":0,"TOWNNAME":"西港區","LI":"劉厝里","LIN":"3鄰","STREET":" ","SECT":" ","MAREA":"劉厝","LANE":" ","ALLEY":" ","HOUSE_NO":"１５號之６","E_COORD97":165866.23000000001,"N_COORD97":2558563.02,"ADDRESS":"劉厝１５號之６","OBJECTID":271964},"geometry":{"x":165866.23000000138,"y":2558563.0200000014}},{"attributes":{"ID":271970,"DIS_CODE":0,"TOWNNAME":"西港區","LI":"劉厝里","LIN":"3鄰","STREET":" ","SECT":" ","MAREA":"劉厝","LANE":" ","ALLEY":" ","HOUSE_NO":"１５號","E_COORD97":165850.76000000001,"N_COORD97":2558597.5800000001,"ADDRESS":"劉厝１５號","OBJECTID":271965},"geometry":{"x":165850.75999999978,"y":2558597.5800000001}},{"attributes":{"ID":271971,"DIS_CODE":0,"TOWNNAME":"西港區","LI":"劉厝里","LIN":"3鄰","STREET":" ","SECT":" ","MAREA":"劉厝","LANE":" ","ALLEY":" ","HOUSE_NO":"１７號","E_COORD97":165876.42000000001,"N_COORD97":2558596.48,"ADDRESS":"劉厝１７號","OBJECTID":271966},"geometry":{"x":165876.42000000086,"y":2558596.4799999986}},{"attributes":{"ID":271972,"DIS_CODE":0,"TOWNNAME":"西港區","LI":"劉厝里","LIN":"3鄰","STREET":" ","SECT":" ","MAREA":"劉厝","LANE":" ","ALLEY":" ","HOUSE_NO":"１８號之１","E_COORD97":165901.28,"N_COORD97":2558573.23,"ADDRESS":"劉厝１８號之１","OBJECTID":271967},"geometry":{"x":165901.28000000119,"y":2558573.2300000004}},{"attributes":{"ID":271973,"DIS_CODE":0,"TOWNNAME":"西港區","LI":"劉厝里","LIN":"3鄰","STREET":" ","SECT":" ","MAREA":"劉厝","LANE":" ","ALLEY":" ","HOUSE_NO":"１８號","E_COORD97":165892.98999999999,"N_COORD97":2558596.9300000002,"ADDRESS":"劉厝１８號","OBJECTID":271968},"geometry":{"x":165892.99000000209,"y":2558596.9300000016}},{"attributes":{"ID":271974,"DIS_CODE":0,"TOWNNAME":"西港區","LI":"劉厝里","LIN":"3鄰","STREET":" ","SECT":" ","MAREA":"劉厝","LANE":" ","ALLEY":" ","HOUSE_NO":"１９號","E_COORD97":165917.10999999999,"N_COORD97":2558621.4100000001,"ADDRESS":"劉厝１９號","OBJECTID":271969},"geometry":{"x":165917.11000000034,"y":2558621.410000002}},{"attributes":{"ID":271975,"DIS_CODE":0,"TOWNNAME":"西港區","LI":"劉厝里","LIN":"3鄰","STREET":" ","SECT":" ","MAREA":"劉厝","LANE":" ","ALLEY":" ","HOUSE_NO":"２０號之１","E_COORD97":165992.62,"N_COORD97":2558622.6899999999,"ADDRESS":"劉厝２０號之１","OBJECTID":271970},"geometry":{"x":165992.62000000104,"y":2558622.6900000013}},{"attributes":{"ID":271976,"DIS_CODE":0,"TOWNNAME":"西港區","LI":"劉厝里","LIN":"3鄰","STREET":" ","SECT":" ","MAREA":"劉厝","LANE":" ","ALLEY":" ","HOUSE_NO":"２０號之２","E_COORD97":165977.91,"N_COORD97":2558612.1299999999,"ADDRESS":"劉厝２０號之２","OBJECTID":271971},"geometry":{"x":165977.91000000015,"y":2558612.1300000008}},{"attributes":{"ID":271977,"DIS_CODE":0,"TOWNNAME":"西港區","LI":"劉厝里","LIN":"3鄰","STREET":" ","SECT":" ","MAREA":"劉厝","LANE":" ","ALLEY":" ","HOUSE_NO":"２０之５號","E_COORD97":165980.51000000001,"N_COORD97":2558582.3300000001,"ADDRESS":"劉厝２０之５號","OBJECTID":271972},"geometry":{"x":165980.51000000164,"y":2558582.3300000001}},{"attributes":{"ID":271978,"DIS_CODE":0,"TOWNNAME":"西港區","LI":"劉厝里","LIN":"3鄰","STREET":" ","SECT":" ","MAREA":"劉厝","LANE":" ","ALLEY":" ","HOUSE_NO":"２０之６號","E_COORD97":165974.04999999999,"N_COORD97":2558582.6000000001,"ADDRESS":"劉厝２０之６號","OBJECTID":271973},"geometry":{"x":165974.05000000075,"y":2558582.6000000015}},{"attributes":{"ID":271979,"DIS_CODE":0,"TOWNNAME":"西港區","LI":"劉厝里","LIN":"3鄰","STREET":" ","SECT":" ","MAREA":"劉厝","LANE":" ","ALLEY":" ","HOUSE_NO":"２０號","E_COORD97":165949.95999999999,"N_COORD97":2558615.2200000002,"ADDRESS":"劉厝２０號","OBJECTID":271974},"geometry":{"x":165949.95999999996,"y":2558615.2200000007}},{"attributes":{"ID":271980,"DIS_CODE":0,"TOWNNAME":"仁德區","LI":"太子里","LIN":"7鄰","STREET":"太子路","SECT":" ","MAREA":" ","LANE":"１９０巷","ALLEY":" ","HOUSE_NO":"１２號五樓","E_COORD97":174328.78,"N_COORD97":2543621.2599999998,"ADDRESS":"太子路１９０巷１２號五樓","OBJECTID":271975},"geometry":{"x":174328.78000000026,"y":2543621.2599999998}},{"attributes":{"ID":271981,"DIS_CODE":0,"TOWNNAME":"官田區","LI":"社子里","LIN":"2鄰","STREET":" ","SECT":" ","MAREA":"社子","LANE":" ","ALLEY":" ","HOUSE_NO":"３號","E_COORD97":184282.39000000001,"N_COORD97":2564583.7000000002,"ADDRESS":"社子３號","OBJECTID":271976},"geometry":{"x":184282.39000000153,"y":2564583.6999999993}},{"attributes":{"ID":271982,"DIS_CODE":0,"TOWNNAME":"東區","LI":"忠孝里","LIN":"7鄰","STREET":"榮譽街","SECT":" ","MAREA":" ","LANE":"８４巷","ALLEY":" ","HOUSE_NO":"１０１號之１五樓","E_COORD97":169847.41,"N_COORD97":2541620.1099999999,"ADDRESS":"榮譽街８４巷１０１號之１五樓","OBJECTID":271977},"geometry":{"x":169847.41000000015,"y":2541620.1100000013}},{"attributes":{"ID":271983,"DIS_CODE":0,"TOWNNAME":"東區","LI":"忠孝里","LIN":"7鄰","STREET":"榮譽街","SECT":" ","MAREA":" ","LANE":"８４巷","ALLEY":" ","HOUSE_NO":"１０１號三樓","E_COORD97":169853.92999999999,"N_COORD97":2541623.8500000001,"ADDRESS":"榮譽街８４巷１０１號三樓","OBJECTID":271978},"geometry":{"x":169853.9299999997,"y":2541623.8499999996}},{"attributes":{"ID":271984,"DIS_CODE":0,"TOWNNAME":"東區","LI":"忠孝里","LIN":"7鄰","STREET":"榮譽街","SECT":" ","MAREA":" ","LANE":"８４巷","ALLEY":" ","HOUSE_NO":"１０１號之１二樓","E_COORD97":169847.41,"N_COORD97":2541620.1099999999,"ADDRESS":"榮譽街８４巷１０１號之１二樓","OBJECTID":271979},"geometry":{"x":169847.41000000015,"y":2541620.1100000013}},{"attributes":{"ID":271985,"DIS_CODE":0,"TOWNNAME":"東區","LI":"忠孝里","LIN":"7鄰","STREET":"榮譽街","SECT":" ","MAREA":" ","LANE":"８４巷","ALLEY":" ","HOUSE_NO":"１０１號之１三樓","E_COORD97":169847.41,"N_COORD97":2541620.1099999999,"ADDRESS":"榮譽街８４巷１０１號之１三樓","OBJECTID":271980},"geometry":{"x":169847.41000000015,"y":2541620.1100000013}},{"attributes":{"ID":271986,"DIS_CODE":0,"TOWNNAME":"東區","LI":"忠孝里","LIN":"7鄰","STREET":"榮譽街","SECT":" ","MAREA":" ","LANE":"８４巷","ALLEY":" ","HOUSE_NO":"１０１號五樓","E_COORD97":169853.92999999999,"N_COORD97":2541623.8500000001,"ADDRESS":"榮譽街８４巷１０１號五樓","OBJECTID":271981},"geometry":{"x":169853.9299999997,"y":2541623.8499999996}},{"attributes":{"ID":271987,"DIS_CODE":0,"TOWNNAME":"西港區","LI":"西港里","LIN":"3鄰","STREET":" ","SECT":" ","MAREA":"堀子頭","LANE":" ","ALLEY":" ","HOUSE_NO":"１８８號","E_COORD97":168712.59,"N_COORD97":2557411.3500000001,"ADDRESS":"堀子頭１８８號","OBJECTID":271982},"geometry":{"x":168712.59000000171,"y":2557411.3500000015}},{"attributes":{"ID":271988,"DIS_CODE":0,"TOWNNAME":"白河區","LI":"關嶺里","LIN":"3鄰","STREET":" ","SECT":" ","MAREA":"關子嶺","LANE":" ","ALLEY":" ","HOUSE_NO":"６５號","E_COORD97":199169.76000000001,"N_COORD97":2581324.5499999998,"ADDRESS":"關子嶺６５號","OBJECTID":271983},"geometry":{"x":199169.75999999978,"y":2581324.5500000007}},{"attributes":{"ID":271989,"DIS_CODE":0,"TOWNNAME":"白河區","LI":"關嶺里","LIN":"3鄰","STREET":" ","SECT":" ","MAREA":"關子嶺","LANE":" ","ALLEY":" ","HOUSE_NO":"２２５號","E_COORD97":199021.76000000001,"N_COORD97":2581558.2200000002,"ADDRESS":"關子嶺２２５號","OBJECTID":271984},"geometry":{"x":199021.76000000071,"y":2581558.2200000044}},{"attributes":{"ID":271990,"DIS_CODE":0,"TOWNNAME":"白河區","LI":"關嶺里","LIN":"3鄰","STREET":" ","SECT":" ","MAREA":"關子嶺","LANE":" ","ALLEY":" ","HOUSE_NO":"２２６號","E_COORD97":199056.42999999999,"N_COORD97":2581593.5499999998,"ADDRESS":"關子嶺２２６號","OBJECTID":271985},"geometry":{"x":199056.43000000063,"y":2581593.5500000045}},{"attributes":{"ID":271991,"DIS_CODE":0,"TOWNNAME":"白河區","LI":"關嶺里","LIN":"3鄰","STREET":" ","SECT":" ","MAREA":"關子嶺","LANE":" ","ALLEY":" ","HOUSE_NO":"２３３之１號","E_COORD97":198996.29000000001,"N_COORD97":2581575.8500000001,"ADDRESS":"關子嶺２３３之１號","OBJECTID":271986},"geometry":{"x":198996.29000000097,"y":2581575.8499999996}},{"attributes":{"ID":271992,"DIS_CODE":0,"TOWNNAME":"白河區","LI":"關嶺里","LIN":"3鄰","STREET":" ","SECT":" ","MAREA":"關子嶺","LANE":" ","ALLEY":" ","HOUSE_NO":"２３３之２號","E_COORD97":198986.60999999999,"N_COORD97":2581568.1699999999,"ADDRESS":"關子嶺２３３之２號","OBJECTID":271987},"geometry":{"x":198986.61000000034,"y":2581568.1700000037}},{"attributes":{"ID":271993,"DIS_CODE":0,"TOWNNAME":"白河區","LI":"關嶺里","LIN":"3鄰","STREET":" ","SECT":" ","MAREA":"關子嶺","LANE":" ","ALLEY":" ","HOUSE_NO":"２３３號","E_COORD97":199005.20000000001,"N_COORD97":2581584.4900000002,"ADDRESS":"關子嶺２３３號","OBJECTID":271988},"geometry":{"x":199005.20000000205,"y":2581584.4900000021}},{"attributes":{"ID":271994,"DIS_CODE":0,"TOWNNAME":"白河區","LI":"關嶺里","LIN":"3鄰","STREET":" ","SECT":" ","MAREA":"關子嶺","LANE":" ","ALLEY":" ","HOUSE_NO":"２３６之１號","E_COORD97":199013.98999999999,"N_COORD97":2581612.4100000001,"ADDRESS":"關子嶺２３６之１號","OBJECTID":271989},"geometry":{"x":199013.99000000115,"y":2581612.410000002}},{"attributes":{"ID":271995,"DIS_CODE":0,"TOWNNAME":"白河區","LI":"關嶺里","LIN":"3鄰","STREET":" ","SECT":" ","MAREA":"關子嶺","LANE":" ","ALLEY":" ","HOUSE_NO":"２３６號","E_COORD97":199026.10000000001,"N_COORD97":2581602.4500000002,"ADDRESS":"關子嶺２３６號","OBJECTID":271990},"geometry":{"x":199026.10000000056,"y":2581602.4499999993}},{"attributes":{"ID":271996,"DIS_CODE":0,"TOWNNAME":"白河區","LI":"關嶺里","LIN":"3鄰","STREET":" ","SECT":" ","MAREA":"關子嶺","LANE":" ","ALLEY":" ","HOUSE_NO":"２９０號","E_COORD97":198919.92999999999,"N_COORD97":2581692.2200000002,"ADDRESS":"關子嶺２９０號","OBJECTID":271991},"geometry":{"x":198919.9299999997,"y":2581692.2200000025}},{"attributes":{"ID":271997,"DIS_CODE":0,"TOWNNAME":"麻豆區","LI":"\u25A0江里","LIN":"15鄰","STREET":"信義路","SECT":" ","MAREA":" ","LANE":" ","ALLEY":" ","HOUSE_NO":"１６號之３","E_COORD97":173416.88,"N_COORD97":2564608.73,"ADDRESS":"信義路１６號之３","OBJECTID":271992},"geometry":{"x":173416.88000000082,"y":2564608.7300000004}},{"attributes":{"ID":271998,"DIS_CODE":0,"TOWNNAME":"東區","LI":"小東里","LIN":"7鄰","STREET":"光明街","SECT":" ","MAREA":" ","LANE":" ","ALLEY":" ","HOUSE_NO":"１８７之２號","E_COORD97":170929.20000000001,"N_COORD97":2544118.1899999999,"ADDRESS":"光明街１８７之２號","OBJECTID":271993},"geometry":{"x":170929.20000000019,"y":2544118.1900000013}},{"attributes":{"ID":271999,"DIS_CODE":0,"TOWNNAME":"東區","LI":"龍山里","LIN":"10鄰","STREET":"府東街","SECT":" ","MAREA":" ","LANE":" ","ALLEY":" ","HOUSE_NO":"７２號","E_COORD97":169948.556491,"N_COORD97":2542964.8153499998,"ADDRESS":"府東街７２號","OBJECTID":271994},"geometry":{"x":169948.55649099965,"y":2542964.8153479993}},{"attributes":{"ID":272000,"DIS_CODE":0,"TOWNNAME":"東區","LI":"忠孝里","LIN":"7鄰","STREET":"榮譽街","SECT":" ","MAREA":" ","LANE":"８４巷","ALLEY":" ","HOUSE_NO":"１０１號四樓","E_COORD97":169853.92999999999,"N_COORD97":2541623.8500000001,"ADDRESS":"榮譽街８４巷１０１號四樓","OBJECTID":271995},"geometry":{"x":169853.9299999997,"y":2541623.8499999996}},{"attributes":{"ID":272001,"DIS_CODE":0,"TOWNNAME":"仁德區","LI":"成功里","LIN":"7鄰","STREET":"保華路","SECT":" ","MAREA":" ","LANE":"１１７巷","ALLEY":" ","HOUSE_NO":"２０號","E_COORD97":171136.13,"N_COORD97":2539983.25,"ADDRESS":"保華路１１７巷２０號","OBJECTID":271996},"geometry":{"x":171136.12999999989,"y":2539983.25}},{"attributes":{"ID":272002,"DIS_CODE":0,"TOWNNAME":"白河區","LI":"關嶺里","LIN":"3鄰","STREET":" ","SECT":" ","MAREA":"關子嶺","LANE":" ","ALLEY":" ","HOUSE_NO":"５６之１號","E_COORD97":199405.64999999999,"N_COORD97":2581181.96,"ADDRESS":"關子嶺５６之１號","OBJECTID":271997},"geometry":{"x":199405.65000000037,"y":2581181.9600000028}},{"attributes":{"ID":272003,"DIS_CODE":0,"TOWNNAME":"白河區","LI":"關嶺里","LIN":"3鄰","STREET":" ","SECT":" ","MAREA":"關子嶺","LANE":" ","ALLEY":" ","HOUSE_NO":"５６號","E_COORD97":199477.85000000001,"N_COORD97":2581150.8700000001,"ADDRESS":"關子嶺５６號","OBJECTID":271998},"geometry":{"x":199477.84999999963,"y":2581150.8700000048}},{"attributes":{"ID":272004,"DIS_CODE":0,"TOWNNAME":"白河區","LI":"關嶺里","LIN":"3鄰","STREET":" ","SECT":" ","MAREA":"關子嶺","LANE":" ","ALLEY":" ","HOUSE_NO":"５７號","E_COORD97":199229.95999999999,"N_COORD97":2581446.3100000001,"ADDRESS":"關子嶺５７號","OBJECTID":271999},"geometry":{"x":199229.95999999996,"y":2581446.3100000024}},{"attributes":{"ID":272005,"DIS_CODE":0,"TOWNNAME":"白河區","LI":"關嶺里","LIN":"3鄰","STREET":" ","SECT":" ","MAREA":"關子嶺","LANE":" ","ALLEY":" ","HOUSE_NO":"５８號","E_COORD97":199220.69,"N_COORD97":2581458.1800000002,"ADDRESS":"關子嶺５８號","OBJECTID":272000},"geometry":{"x":199220.69000000041,"y":2581458.1799999997}}]}