{"displayFieldName":"TOWNNAME","fieldAliases":{"ID":"ID","DIS_CODE":"DIS_CODE","TOWNNAME":"TOWNNAME","LI":"LI","LIN":"LIN","STREET":"STREET","SECT":"SECT","MAREA":"MAREA","LANE":"LANE","ALLEY":"ALLEY","HOUSE_NO":"HOUSE_NO","E_COORD97":"E_COORD97","N_COORD97":"N_COORD97","ADDRESS":"ADDRESS","OBJECTID":"OBJECTID"},"geometryType":"esriGeometryPoint","spatialReference":{"wkid":102443,"latestWkid":3826},"fields":[{"name":"ID","type":"esriFieldTypeDouble","alias":"ID"},{"name":"DIS_CODE","type":"esriFieldTypeInteger","alias":"DIS_CODE"},{"name":"TOWNNAME","type":"esriFieldTypeString","alias":"TOWNNAME","length":8},{"name":"LI","type":"esriFieldTypeString","alias":"LI","length":8},{"name":"LIN","type":"esriFieldTypeString","alias":"LIN","length":12},{"name":"STREET","type":"esriFieldTypeString","alias":"STREET","length":20},{"name":"SECT","type":"esriFieldTypeString","alias":"SECT","length":8},{"name":"MAREA","type":"esriFieldTypeString","alias":"MAREA","length":12},{"name":"LANE","type":"esriFieldTypeString","alias":"LANE","length":10},{"name":"ALLEY","type":"esriFieldTypeString","alias":"ALLEY","length":10},{"name":"HOUSE_NO","type":"esriFieldTypeString","alias":"HOUSE_NO","length":20},{"name":"E_COORD97","type":"esriFieldTypeDouble","alias":"E_COORD97"},{"name":"N_COORD97","type":"esriFieldTypeDouble","alias":"N_COORD97"},{"name":"ADDRESS","type":"esriFieldTypeString","alias":"ADDRESS","length":50},{"name":"OBJECTID","type":"esriFieldTypeOID","alias":"OBJECTID"}],"features":[{"attributes":{"ID":190002,"DIS_CODE":0,"TOWNNAME":"下營區","LI":"仁里里","LIN":"5鄰","STREET":"仁南街","SECT":" ","MAREA":" ","LANE":"８７巷","ALLEY":"１弄","HOUSE_NO":"１號","E_COORD97":174389.56,"N_COORD97":2569665.0899999999,"ADDRESS":"仁南街８７巷１弄１號","OBJECTID":190001},"geometry":{"x":174389.55999999959,"y":2569665.0900000036}},{"attributes":{"ID":190003,"DIS_CODE":0,"TOWNNAME":"下營區","LI":"仁里里","LIN":"5鄰","STREET":"仁南街","SECT":" ","MAREA":" ","LANE":"８７巷","ALLEY":"１弄","HOUSE_NO":"２號","E_COORD97":174393.89000000001,"N_COORD97":2569664.7200000002,"ADDRESS":"仁南街８７巷１弄２號","OBJECTID":190002},"geometry":{"x":174393.88999999966,"y":2569664.7199999988}},{"attributes":{"ID":190004,"DIS_CODE":0,"TOWNNAME":"下營區","LI":"仁里里","LIN":"5鄰","STREET":"仁南街","SECT":" ","MAREA":" ","LANE":"８７巷","ALLEY":"３弄","HOUSE_NO":"１號","E_COORD97":174388.60000000001,"N_COORD97":2569656.7599999998,"ADDRESS":"仁南街８７巷３弄１號","OBJECTID":190003},"geometry":{"x":174388.60000000056,"y":2569656.7599999979}},{"attributes":{"ID":190005,"DIS_CODE":0,"TOWNNAME":"下營區","LI":"仁里里","LIN":"5鄰","STREET":"仁南街","SECT":" ","MAREA":" ","LANE":"８７巷","ALLEY":"３弄","HOUSE_NO":"２號","E_COORD97":174392.79000000001,"N_COORD97":2569656.5,"ADDRESS":"仁南街８７巷３弄２號","OBJECTID":190004},"geometry":{"x":174392.79000000097,"y":2569656.5000000019}},{"attributes":{"ID":190006,"DIS_CODE":0,"TOWNNAME":"下營區","LI":"宅內里","LIN":"5鄰","STREET":"友愛街","SECT":" ","MAREA":" ","LANE":"２０６巷","ALLEY":"１６弄","HOUSE_NO":"１３號","E_COORD97":174241.04999999999,"N_COORD97":2570776.0299999998,"ADDRESS":"友愛街２０６巷１６弄１３號","OBJECTID":190005},"geometry":{"x":174241.05000000075,"y":2570776.0299999993}},{"attributes":{"ID":190007,"DIS_CODE":0,"TOWNNAME":"下營區","LI":"宅內里","LIN":"5鄰","STREET":"友愛街","SECT":" ","MAREA":" ","LANE":"２０６巷","ALLEY":"１６弄","HOUSE_NO":"１號","E_COORD97":174212.64000000001,"N_COORD97":2570794.3599999999,"ADDRESS":"友愛街２０６巷１６弄１號","OBJECTID":190006},"geometry":{"x":174212.63999999966,"y":2570794.3599999994}},{"attributes":{"ID":190008,"DIS_CODE":0,"TOWNNAME":"下營區","LI":"宅內里","LIN":"5鄰","STREET":"友愛街","SECT":" ","MAREA":" ","LANE":"２０６巷","ALLEY":"１６弄","HOUSE_NO":"５號","E_COORD97":174225.53,"N_COORD97":2570797.1699999999,"ADDRESS":"友愛街２０６巷１６弄５號","OBJECTID":190007},"geometry":{"x":174225.53000000026,"y":2570797.1700000018}},{"attributes":{"ID":190009,"DIS_CODE":0,"TOWNNAME":"下營區","LI":"宅內里","LIN":"5鄰","STREET":"友愛街","SECT":" ","MAREA":" ","LANE":"２０６巷","ALLEY":"１６弄","HOUSE_NO":"７號","E_COORD97":174236.98999999999,"N_COORD97":2570788.3100000001,"ADDRESS":"友愛街２０６巷１６弄７號","OBJECTID":190008},"geometry":{"x":174236.99000000115,"y":2570788.3100000005}},{"attributes":{"ID":190010,"DIS_CODE":0,"TOWNNAME":"下營區","LI":"宅內里","LIN":"5鄰","STREET":"友愛街","SECT":" ","MAREA":" ","LANE":"２０６巷","ALLEY":"２２弄","HOUSE_NO":"１號","E_COORD97":174219.28,"N_COORD97":2570775.7400000002,"ADDRESS":"友愛街２０６巷２２弄１號","OBJECTID":190009},"geometry":{"x":174219.28000000026,"y":2570775.7400000002}},{"attributes":{"ID":190011,"DIS_CODE":0,"TOWNNAME":"下營區","LI":"宅內里","LIN":"5鄰","STREET":"友愛街","SECT":" ","MAREA":" ","LANE":"２０６巷","ALLEY":"２２弄","HOUSE_NO":"３號","E_COORD97":174235.73000000001,"N_COORD97":2570769.1600000001,"ADDRESS":"友愛街２０６巷２２弄３號","OBJECTID":190010},"geometry":{"x":174235.73000000138,"y":2570769.1600000001}},{"attributes":{"ID":190012,"DIS_CODE":0,"TOWNNAME":"安南區","LI":"佃東里","LIN":"5鄰","STREET":"十二佃路","SECT":" ","MAREA":" ","LANE":"１００巷","ALLEY":"７弄","HOUSE_NO":"９號","E_COORD97":165516.72,"N_COORD97":2552156.0099999998,"ADDRESS":"十二佃路１００巷７弄９號","OBJECTID":190011},"geometry":{"x":165516.72000000067,"y":2552156.0099999998}},{"attributes":{"ID":190013,"DIS_CODE":0,"TOWNNAME":"安南區","LI":"佃東里","LIN":"5鄰","STREET":"十二佃路","SECT":" ","MAREA":" ","LANE":"１４６巷","ALLEY":"３０弄","HOUSE_NO":"３７號","E_COORD97":165496.60000000001,"N_COORD97":2552188.1099999999,"ADDRESS":"十二佃路１４６巷３０弄３７號","OBJECTID":190012},"geometry":{"x":165496.60000000149,"y":2552188.1100000013}},{"attributes":{"ID":190014,"DIS_CODE":0,"TOWNNAME":"安南區","LI":"佃東里","LIN":"5鄰","STREET":"十二佃路","SECT":" ","MAREA":" ","LANE":"４５巷","ALLEY":"２４弄","HOUSE_NO":"６號","E_COORD97":165448.47,"N_COORD97":2552088.6499999999,"ADDRESS":"十二佃路４５巷２４弄６號","OBJECTID":190013},"geometry":{"x":165448.4700000016,"y":2552088.6500000004}},{"attributes":{"ID":190015,"DIS_CODE":0,"TOWNNAME":"仁德區","LI":"一甲里","LIN":"17鄰","STREET":"中清路","SECT":" ","MAREA":" ","LANE":" ","ALLEY":" ","HOUSE_NO":"２６２號","E_COORD97":173755.04999999999,"N_COORD97":2541770.5499999998,"ADDRESS":"中清路２６２號","OBJECTID":190014},"geometry":{"x":173755.05000000075,"y":2541770.5500000026}},{"attributes":{"ID":190016,"DIS_CODE":0,"TOWNNAME":"永康區","LI":"甲頂里","LIN":"27鄰","STREET":"小北路","SECT":" ","MAREA":" ","LANE":" ","ALLEY":" ","HOUSE_NO":"３之１號","E_COORD97":169439.31,"N_COORD97":2546768.04,"ADDRESS":"小北路３之１號","OBJECTID":190015},"geometry":{"x":169439.30999999959,"y":2546768.0399999991}},{"attributes":{"ID":190017,"DIS_CODE":0,"TOWNNAME":"安南區","LI":"安西里","LIN":"5鄰","STREET":"安通路","SECT":"四段","MAREA":" ","LANE":"１１９巷","ALLEY":"４５弄","HOUSE_NO":"１０號","E_COORD97":168682.23000000001,"N_COORD97":2547898.1299999999,"ADDRESS":"安通路四段１１９巷４５弄１０號","OBJECTID":190016},"geometry":{"x":168682.23000000138,"y":2547898.1300000008}},{"attributes":{"ID":190018,"DIS_CODE":0,"TOWNNAME":"安南區","LI":"安西里","LIN":"5鄰","STREET":"安通路","SECT":"四段","MAREA":" ","LANE":"１１９巷","ALLEY":"４５弄","HOUSE_NO":"１１號","E_COORD97":168675.67999999999,"N_COORD97":2547873.4700000002,"ADDRESS":"安通路四段１１９巷４５弄１１號","OBJECTID":190017},"geometry":{"x":168675.6799999997,"y":2547873.4700000044}},{"attributes":{"ID":190019,"DIS_CODE":0,"TOWNNAME":"安南區","LI":"安西里","LIN":"5鄰","STREET":"安通路","SECT":"四段","MAREA":" ","LANE":"１１９巷","ALLEY":"４５弄","HOUSE_NO":"１３號","E_COORD97":168669.12,"N_COORD97":2547874.1200000001,"ADDRESS":"安通路四段１１９巷４５弄１３號","OBJECTID":190018},"geometry":{"x":168669.12000000104,"y":2547874.1200000029}},{"attributes":{"ID":190020,"DIS_CODE":0,"TOWNNAME":"安南區","LI":"安西里","LIN":"5鄰","STREET":"安通路","SECT":"四段","MAREA":" ","LANE":"１１９巷","ALLEY":"４５弄","HOUSE_NO":"１４號","E_COORD97":168670.42999999999,"N_COORD97":2547896.8199999998,"ADDRESS":"安通路四段１１９巷４５弄１４號","OBJECTID":190019},"geometry":{"x":168670.4299999997,"y":2547896.8200000003}},{"attributes":{"ID":190021,"DIS_CODE":0,"TOWNNAME":"安南區","LI":"安西里","LIN":"5鄰","STREET":"安通路","SECT":"四段","MAREA":" ","LANE":"１１９巷","ALLEY":"４５弄","HOUSE_NO":"１５號","E_COORD97":168663.23000000001,"N_COORD97":2547874.4500000002,"ADDRESS":"安通路四段１１９巷４５弄１５號","OBJECTID":190020},"geometry":{"x":168663.23000000231,"y":2547874.4499999993}},{"attributes":{"ID":190022,"DIS_CODE":0,"TOWNNAME":"安南區","LI":"安西里","LIN":"5鄰","STREET":"安通路","SECT":"四段","MAREA":" ","LANE":"１１９巷","ALLEY":"４５弄","HOUSE_NO":"１６號","E_COORD97":168665.51999999999,"N_COORD97":2547896.1600000001,"ADDRESS":"安通路四段１１９巷４５弄１６號","OBJECTID":190021},"geometry":{"x":168665.52000000048,"y":2547896.160000002}},{"attributes":{"ID":190023,"DIS_CODE":0,"TOWNNAME":"安定區","LI":"港南里","LIN":"22鄰","STREET":" ","SECT":" ","MAREA":"港口","LANE":" ","ALLEY":" ","HOUSE_NO":"１９８號","E_COORD97":171330.22229199999,"N_COORD97":2554508.15038,"ADDRESS":"港口１９８號","OBJECTID":190022},"geometry":{"x":171330.22229200043,"y":2554508.1503829993}},{"attributes":{"ID":190024,"DIS_CODE":0,"TOWNNAME":"六甲區","LI":"中社里","LIN":"22鄰","STREET":" ","SECT":" ","MAREA":"林鳳營","LANE":" ","ALLEY":" ","HOUSE_NO":"２４２號","E_COORD97":180374.42999999999,"N_COORD97":2571160.1299999999,"ADDRESS":"林鳳營２４２號","OBJECTID":190023},"geometry":{"x":180374.4299999997,"y":2571160.1300000008}},{"attributes":{"ID":190025,"DIS_CODE":0,"TOWNNAME":"安南區","LI":"安西里","LIN":"5鄰","STREET":"安通路","SECT":"四段","MAREA":" ","LANE":"１１９巷","ALLEY":"４５弄","HOUSE_NO":"１７號","E_COORD97":168657,"N_COORD97":2547875.4300000002,"ADDRESS":"安通路四段１１９巷４５弄１７號","OBJECTID":190024},"geometry":{"x":168657,"y":2547875.4299999997}},{"attributes":{"ID":190026,"DIS_CODE":0,"TOWNNAME":"安南區","LI":"安西里","LIN":"5鄰","STREET":"安通路","SECT":"四段","MAREA":" ","LANE":"１１９巷","ALLEY":"４５弄","HOUSE_NO":"１９號","E_COORD97":168650.78,"N_COORD97":2547876.0800000001,"ADDRESS":"安通路四段１１９巷４５弄１９號","OBJECTID":190025},"geometry":{"x":168650.78000000212,"y":2547876.0800000019}},{"attributes":{"ID":190027,"DIS_CODE":0,"TOWNNAME":"安南區","LI":"安西里","LIN":"5鄰","STREET":"安通路","SECT":"四段","MAREA":" ","LANE":"１１９巷","ALLEY":"４５弄","HOUSE_NO":"１號","E_COORD97":168705.17000000001,"N_COORD97":2547871.1800000002,"ADDRESS":"安通路四段１１９巷４５弄１號","OBJECTID":190026},"geometry":{"x":168705.16999999993,"y":2547871.1800000016}},{"attributes":{"ID":190028,"DIS_CODE":0,"TOWNNAME":"安南區","LI":"安西里","LIN":"5鄰","STREET":"安通路","SECT":"四段","MAREA":" ","LANE":"１１９巷","ALLEY":"４５弄","HOUSE_NO":"２０號","E_COORD97":168653.07000000001,"N_COORD97":2547897.1400000001,"ADDRESS":"安通路四段１１９巷４５弄２０號","OBJECTID":190027},"geometry":{"x":168653.0700000003,"y":2547897.1400000025}},{"attributes":{"ID":190029,"DIS_CODE":0,"TOWNNAME":"安南區","LI":"安西里","LIN":"5鄰","STREET":"安通路","SECT":"四段","MAREA":" ","LANE":"１１９巷","ALLEY":"４５弄","HOUSE_NO":"２號","E_COORD97":168707.45999999999,"N_COORD97":2547893.8700000001,"ADDRESS":"安通路四段１１９巷４５弄２號","OBJECTID":190028},"geometry":{"x":168707.46000000089,"y":2547893.870000001}},{"attributes":{"ID":190030,"DIS_CODE":0,"TOWNNAME":"安南區","LI":"安西里","LIN":"5鄰","STREET":"安通路","SECT":"四段","MAREA":" ","LANE":"１１９巷","ALLEY":"４５弄","HOUSE_NO":"３號","E_COORD97":168699.60000000001,"N_COORD97":2547871.8300000001,"ADDRESS":"安通路四段１１９巷４５弄３號","OBJECTID":190029},"geometry":{"x":168699.59999999963,"y":2547871.8300000019}},{"attributes":{"ID":190031,"DIS_CODE":0,"TOWNNAME":"安南區","LI":"安西里","LIN":"5鄰","STREET":"安通路","SECT":"四段","MAREA":" ","LANE":"１１９巷","ALLEY":"４５弄","HOUSE_NO":"４號","E_COORD97":168701.23000000001,"N_COORD97":2547894.5299999998,"ADDRESS":"安通路四段１１９巷４５弄４號","OBJECTID":190030},"geometry":{"x":168701.23000000138,"y":2547894.5299999993}},{"attributes":{"ID":190032,"DIS_CODE":0,"TOWNNAME":"安南區","LI":"安西里","LIN":"5鄰","STREET":"安通路","SECT":"四段","MAREA":" ","LANE":"１１９巷","ALLEY":"４５弄","HOUSE_NO":"５號","E_COORD97":168693.70000000001,"N_COORD97":2547872.48,"ADDRESS":"安通路四段１１９巷４５弄５號","OBJECTID":190031},"geometry":{"x":168693.70000000205,"y":2547872.4800000004}},{"attributes":{"ID":190033,"DIS_CODE":0,"TOWNNAME":"安南區","LI":"安西里","LIN":"5鄰","STREET":"安通路","SECT":"四段","MAREA":" ","LANE":"１１９巷","ALLEY":"４５弄","HOUSE_NO":"６號","E_COORD97":168693.70000000001,"N_COORD97":2547894.5299999998,"ADDRESS":"安通路四段１１９巷４５弄６號","OBJECTID":190032},"geometry":{"x":168693.70000000205,"y":2547894.5299999993}},{"attributes":{"ID":190034,"DIS_CODE":0,"TOWNNAME":"安南區","LI":"安西里","LIN":"5鄰","STREET":"安通路","SECT":"四段","MAREA":" ","LANE":"１１９巷","ALLEY":"４５弄","HOUSE_NO":"７號","E_COORD97":168687.14000000001,"N_COORD97":2547872.8100000001,"ADDRESS":"安通路四段１１９巷４５弄７號","OBJECTID":190033},"geometry":{"x":168687.1400000006,"y":2547872.8100000005}},{"attributes":{"ID":190035,"DIS_CODE":0,"TOWNNAME":"安南區","LI":"安西里","LIN":"5鄰","STREET":"安通路","SECT":"四段","MAREA":" ","LANE":"１１９巷","ALLEY":"４５弄","HOUSE_NO":"８號","E_COORD97":168688.13,"N_COORD97":2547894.8500000001,"ADDRESS":"安通路四段１１９巷４５弄８號","OBJECTID":190034},"geometry":{"x":168688.12999999989,"y":2547894.8500000015}},{"attributes":{"ID":190036,"DIS_CODE":0,"TOWNNAME":"安南區","LI":"安西里","LIN":"5鄰","STREET":"安通路","SECT":"四段","MAREA":" ","LANE":"１１９巷","ALLEY":"４５弄","HOUSE_NO":"９號","E_COORD97":168681.57000000001,"N_COORD97":2547873.1400000001,"ADDRESS":"安通路四段１１９巷４５弄９號","OBJECTID":190035},"geometry":{"x":168681.57000000123,"y":2547873.1400000025}},{"attributes":{"ID":190037,"DIS_CODE":0,"TOWNNAME":"安南區","LI":"安西里","LIN":"5鄰","STREET":"安通路","SECT":"四段","MAREA":" ","LANE":"１１９巷","ALLEY":"７３弄","HOUSE_NO":"１號","E_COORD97":168730.72,"N_COORD97":2547951.04,"ADDRESS":"安通路四段１１９巷７３弄１號","OBJECTID":190036},"geometry":{"x":168730.72000000067,"y":2547951.0399999991}},{"attributes":{"ID":190038,"DIS_CODE":0,"TOWNNAME":"安南區","LI":"安西里","LIN":"5鄰","STREET":"安通路","SECT":"四段","MAREA":" ","LANE":"１１９巷","ALLEY":"７３弄","HOUSE_NO":"２號","E_COORD97":168732.35999999999,"N_COORD97":2547973.9500000002,"ADDRESS":"安通路四段１１９巷７３弄２號","OBJECTID":190037},"geometry":{"x":168732.36000000127,"y":2547973.9500000011}},{"attributes":{"ID":190039,"DIS_CODE":0,"TOWNNAME":"安南區","LI":"安西里","LIN":"5鄰","STREET":"安通路","SECT":"四段","MAREA":" ","LANE":"１１９巷","ALLEY":"７３弄","HOUSE_NO":"３號","E_COORD97":168726.79000000001,"N_COORD97":2547951.3700000001,"ADDRESS":"安通路四段１１９巷７３弄３號","OBJECTID":190038},"geometry":{"x":168726.7900000019,"y":2547951.370000001}},{"attributes":{"ID":190040,"DIS_CODE":0,"TOWNNAME":"安南區","LI":"安西里","LIN":"5鄰","STREET":"安通路","SECT":"四段","MAREA":" ","LANE":"１１９巷","ALLEY":"７３弄","HOUSE_NO":"４號","E_COORD97":168728.10000000001,"N_COORD97":2547973.9500000002,"ADDRESS":"安通路四段１１９巷７３弄４號","OBJECTID":190039},"geometry":{"x":168728.10000000056,"y":2547973.9500000011}},{"attributes":{"ID":190041,"DIS_CODE":0,"TOWNNAME":"安南區","LI":"安西里","LIN":"5鄰","STREET":"安通路","SECT":"四段","MAREA":" ","LANE":"１１９巷","ALLEY":"７３弄","HOUSE_NO":"５號","E_COORD97":168721.88,"N_COORD97":2547952.02,"ADDRESS":"安通路四段１１９巷７３弄５號","OBJECTID":190040},"geometry":{"x":168721.87999999989,"y":2547952.0199999996}},{"attributes":{"ID":190042,"DIS_CODE":0,"TOWNNAME":"安南區","LI":"安西里","LIN":"5鄰","STREET":"安通路","SECT":"四段","MAREA":" ","LANE":"１１９巷","ALLEY":"７３弄","HOUSE_NO":"６號","E_COORD97":168723.51000000001,"N_COORD97":2547975.5800000001,"ADDRESS":"安通路四段１１９巷７３弄６號","OBJECTID":190041},"geometry":{"x":168723.51000000071,"y":2547975.5800000001}},{"attributes":{"ID":190043,"DIS_CODE":0,"TOWNNAME":"安定區","LI":"蘇厝里","LIN":"22鄰","STREET":" ","SECT":" ","MAREA":"蘇厝","LANE":" ","ALLEY":" ","HOUSE_NO":"４９６號","E_COORD97":172984.51999999999,"N_COORD97":2558956.25,"ADDRESS":"蘇厝４９６號","OBJECTID":190042},"geometry":{"x":172984.51999999862,"y":2558956.25}},{"attributes":{"ID":190044,"DIS_CODE":0,"TOWNNAME":"安定區","LI":"港南里","LIN":"22鄰","STREET":" ","SECT":" ","MAREA":"港口","LANE":" ","ALLEY":" ","HOUSE_NO":"１９２號","E_COORD97":171349.29000000001,"N_COORD97":2554529.25,"ADDRESS":"港口１９２號","OBJECTID":190043},"geometry":{"x":171349.2900000019,"y":2554529.2500000037}},{"attributes":{"ID":190045,"DIS_CODE":0,"TOWNNAME":"安南區","LI":"安西里","LIN":"5鄰","STREET":"安通路","SECT":"四段","MAREA":" ","LANE":"１１９巷","ALLEY":"７３弄","HOUSE_NO":"７號","E_COORD97":168717.62,"N_COORD97":2547952.02,"ADDRESS":"安通路四段１１９巷７３弄７號","OBJECTID":190044},"geometry":{"x":168717.62000000011,"y":2547952.0199999996}},{"attributes":{"ID":190046,"DIS_CODE":0,"TOWNNAME":"安南區","LI":"安西里","LIN":"5鄰","STREET":"安通路","SECT":"四段","MAREA":" ","LANE":"１１９巷","ALLEY":"７３弄","HOUSE_NO":"８號","E_COORD97":168718.60000000001,"N_COORD97":2547974.9300000002,"ADDRESS":"安通路四段１１９巷７３弄８號","OBJECTID":190045},"geometry":{"x":168718.59999999963,"y":2547974.9300000016}},{"attributes":{"ID":190047,"DIS_CODE":0,"TOWNNAME":"安南區","LI":"城中里","LIN":"5鄰","STREET":"城西街","SECT":"一段","MAREA":" ","LANE":"６１巷","ALLEY":"７３弄","HOUSE_NO":"１１號","E_COORD97":160818.57000000001,"N_COORD97":2551223.73,"ADDRESS":"城西街一段６１巷７３弄１１號","OBJECTID":190046},"geometry":{"x":160818.5700000003,"y":2551223.7300000004}},{"attributes":{"ID":190048,"DIS_CODE":0,"TOWNNAME":"安定區","LI":"港口里","LIN":"22鄰","STREET":" ","SECT":" ","MAREA":"港口","LANE":" ","ALLEY":" ","HOUSE_NO":"４１６之３號","E_COORD97":171737.5,"N_COORD97":2554918.3100000001,"ADDRESS":"港口４１６之３號","OBJECTID":190047},"geometry":{"x":171737.49999999907,"y":2554918.3100000005}},{"attributes":{"ID":190049,"DIS_CODE":0,"TOWNNAME":"安定區","LI":"港口里","LIN":"22鄰","STREET":" ","SECT":" ","MAREA":"港口","LANE":" ","ALLEY":" ","HOUSE_NO":"４１６之５號","E_COORD97":171736.067221,"N_COORD97":2554943.1061,"ADDRESS":"港口４１６之５號","OBJECTID":190048},"geometry":{"x":171736.06722100079,"y":2554943.106103003}},{"attributes":{"ID":190050,"DIS_CODE":0,"TOWNNAME":"新市區","LI":"大營里","LIN":"22鄰","STREET":" ","SECT":" ","MAREA":"大營","LANE":" ","ALLEY":" ","HOUSE_NO":"１３３之４５號","E_COORD97":179512.73000000001,"N_COORD97":2555085.7999999998,"ADDRESS":"大營１３３之４５號","OBJECTID":190049},"geometry":{"x":179512.73000000138,"y":2555085.8000000045}},{"attributes":{"ID":190051,"DIS_CODE":0,"TOWNNAME":"安南區","LI":"城中里","LIN":"5鄰","STREET":"城西街","SECT":"一段","MAREA":" ","LANE":"６１巷","ALLEY":"７３弄","HOUSE_NO":"１３號","E_COORD97":160826.26000000001,"N_COORD97":2551222.2599999998,"ADDRESS":"城西街一段６１巷７３弄１３號","OBJECTID":190050},"geometry":{"x":160826.25999999978,"y":2551222.2599999998}},{"attributes":{"ID":190052,"DIS_CODE":0,"TOWNNAME":"安南區","LI":"城中里","LIN":"5鄰","STREET":"城西街","SECT":"一段","MAREA":" ","LANE":"６１巷","ALLEY":"７３弄","HOUSE_NO":"１５號","E_COORD97":160831.92000000001,"N_COORD97":2551221.0299999998,"ADDRESS":"城西街一段６１巷７３弄１５號","OBJECTID":190051},"geometry":{"x":160831.92000000086,"y":2551221.0300000031}},{"attributes":{"ID":190053,"DIS_CODE":0,"TOWNNAME":"安南區","LI":"城中里","LIN":"5鄰","STREET":"城西街","SECT":"一段","MAREA":" ","LANE":"６１巷","ALLEY":"７３弄","HOUSE_NO":"９號","E_COORD97":160811.87,"N_COORD97":2551223.3999999999,"ADDRESS":"城西街一段６１巷７３弄９號","OBJECTID":190052},"geometry":{"x":160811.87000000104,"y":2551223.4000000022}},{"attributes":{"ID":190054,"DIS_CODE":0,"TOWNNAME":"柳營區","LI":"太康里","LIN":"22鄰","STREET":" ","SECT":" ","MAREA":"太康","LANE":" ","ALLEY":" ","HOUSE_NO":"３０之３５號","E_COORD97":181293.54000000001,"N_COORD97":2576619.2000000002,"ADDRESS":"太康３０之３５號","OBJECTID":190053},"geometry":{"x":181293.54000000097,"y":2576619.1999999993}},{"attributes":{"ID":190055,"DIS_CODE":0,"TOWNNAME":"安南區","LI":"城中里","LIN":"5鄰","STREET":"城西街","SECT":"一段","MAREA":" ","LANE":"６１巷","ALLEY":"４１弄","HOUSE_NO":"１１號","E_COORD97":160796.38,"N_COORD97":2551329.3599999999,"ADDRESS":"城西街一段６１巷４１弄１１號","OBJECTID":190054},"geometry":{"x":160796.38000000082,"y":2551329.3599999994}},{"attributes":{"ID":190056,"DIS_CODE":0,"TOWNNAME":"安南區","LI":"砂崙里","LIN":"5鄰","STREET":"青砂街","SECT":"一段","MAREA":" ","LANE":"６３３巷","ALLEY":"２０弄","HOUSE_NO":"１６號","E_COORD97":159884.82000000001,"N_COORD97":2552738.75,"ADDRESS":"青砂街一段６３３巷２０弄１６號","OBJECTID":190055},"geometry":{"x":159884.82000000123,"y":2552738.75}},{"attributes":{"ID":190057,"DIS_CODE":0,"TOWNNAME":"安南區","LI":"砂崙里","LIN":"5鄰","STREET":"青砂街","SECT":"一段","MAREA":" ","LANE":"６３３巷","ALLEY":"２０弄","HOUSE_NO":"３９號","E_COORD97":159781.82000000001,"N_COORD97":2552722.8799999999,"ADDRESS":"青砂街一段６３３巷２０弄３９號","OBJECTID":190056},"geometry":{"x":159781.82000000123,"y":2552722.879999999}},{"attributes":{"ID":190058,"DIS_CODE":0,"TOWNNAME":"佳里區","LI":"鎮山里","LIN":"20鄰","STREET":"鎮山街","SECT":" ","MAREA":" ","LANE":"１６０巷","ALLEY":"３５弄","HOUSE_NO":"５號","E_COORD97":166191.22,"N_COORD97":2560928.5899999999,"ADDRESS":"鎮山街１６０巷３５弄５號","OBJECTID":190057},"geometry":{"x":166191.22000000067,"y":2560928.5900000017}},{"attributes":{"ID":190059,"DIS_CODE":0,"TOWNNAME":"安南區","LI":"城中里","LIN":"5鄰","STREET":"安中路","SECT":"六段","MAREA":" ","LANE":"５１９巷","ALLEY":"４６弄","HOUSE_NO":"９號","E_COORD97":160836.10861900001,"N_COORD97":2551239.4132400001,"ADDRESS":"安中路六段５１９巷４６弄９號","OBJECTID":190058},"geometry":{"x":160836.10861900076,"y":2551239.4132420029}},{"attributes":{"ID":190060,"DIS_CODE":0,"TOWNNAME":"安南區","LI":"砂崙里","LIN":"5鄰","STREET":"青砂街","SECT":"一段","MAREA":" ","LANE":"６３３巷","ALLEY":"２０弄","HOUSE_NO":"６７號","E_COORD97":159856.16,"N_COORD97":2552743.79,"ADDRESS":"青砂街一段６３３巷２０弄６７號","OBJECTID":190059},"geometry":{"x":159856.16000000015,"y":2552743.7899999991}},{"attributes":{"ID":190061,"DIS_CODE":0,"TOWNNAME":"柳營區","LI":"太康里","LIN":"22鄰","STREET":" ","SECT":" ","MAREA":"太康","LANE":" ","ALLEY":" ","HOUSE_NO":"１３之１９號","E_COORD97":181266.48000000001,"N_COORD97":2576551.1899999999,"ADDRESS":"太康１３之１９號","OBJECTID":190060},"geometry":{"x":181266.48000000045,"y":2576551.1900000013}},{"attributes":{"ID":190062,"DIS_CODE":0,"TOWNNAME":"柳營區","LI":"太康里","LIN":"22鄰","STREET":" ","SECT":" ","MAREA":"太康","LANE":" ","ALLEY":" ","HOUSE_NO":"１３號之１","E_COORD97":181328.76000000001,"N_COORD97":2576531.4700000002,"ADDRESS":"太康１３號之１","OBJECTID":190061},"geometry":{"x":181328.76000000164,"y":2576531.4700000007}},{"attributes":{"ID":190063,"DIS_CODE":0,"TOWNNAME":"柳營區","LI":"太康里","LIN":"22鄰","STREET":" ","SECT":" ","MAREA":"太康","LANE":" ","ALLEY":" ","HOUSE_NO":"１３之２號","E_COORD97":181301.04000000001,"N_COORD97":2576524.4700000002,"ADDRESS":"太康１３之２號","OBJECTID":190062},"geometry":{"x":181301.04000000004,"y":2576524.4700000007}},{"attributes":{"ID":190064,"DIS_CODE":0,"TOWNNAME":"柳營區","LI":"太康里","LIN":"22鄰","STREET":" ","SECT":" ","MAREA":"太康","LANE":" ","ALLEY":" ","HOUSE_NO":"１３之３０號","E_COORD97":181301.38,"N_COORD97":2576478.7999999998,"ADDRESS":"太康１３之３０號","OBJECTID":190063},"geometry":{"x":181301.38000000082,"y":2576478.8000000007}},{"attributes":{"ID":190065,"DIS_CODE":0,"TOWNNAME":"柳營區","LI":"太康里","LIN":"22鄰","STREET":" ","SECT":" ","MAREA":"太康","LANE":" ","ALLEY":" ","HOUSE_NO":"１３之３１號","E_COORD97":181299.63,"N_COORD97":2576492.8900000001,"ADDRESS":"太康１３之３１號","OBJECTID":190064},"geometry":{"x":181299.63000000082,"y":2576492.8900000025}},{"attributes":{"ID":190066,"DIS_CODE":0,"TOWNNAME":"柳營區","LI":"太康里","LIN":"22鄰","STREET":" ","SECT":" ","MAREA":"太康","LANE":" ","ALLEY":" ","HOUSE_NO":"１３之３２號","E_COORD97":181269.20000000001,"N_COORD97":2576637.5099999998,"ADDRESS":"太康１３之３２號","OBJECTID":190065},"geometry":{"x":181269.20000000112,"y":2576637.5100000016}},{"attributes":{"ID":190067,"DIS_CODE":0,"TOWNNAME":"柳營區","LI":"太康里","LIN":"22鄰","STREET":" ","SECT":" ","MAREA":"太康","LANE":" ","ALLEY":" ","HOUSE_NO":"１３之３３號","E_COORD97":181269.73000000001,"N_COORD97":2576623.2599999998,"ADDRESS":"太康１３之３３號","OBJECTID":190066},"geometry":{"x":181269.73000000045,"y":2576623.2599999998}},{"attributes":{"ID":190068,"DIS_CODE":0,"TOWNNAME":"柳營區","LI":"太康里","LIN":"22鄰","STREET":" ","SECT":" ","MAREA":"太康","LANE":" ","ALLEY":" ","HOUSE_NO":"１３之３號","E_COORD97":181299.67999999999,"N_COORD97":2576634.0600000001,"ADDRESS":"太康１３之３號","OBJECTID":190067},"geometry":{"x":181299.6799999997,"y":2576634.0600000024}},{"attributes":{"ID":190069,"DIS_CODE":0,"TOWNNAME":"柳營區","LI":"太康里","LIN":"22鄰","STREET":" ","SECT":" ","MAREA":"太康","LANE":" ","ALLEY":" ","HOUSE_NO":"１３之４號","E_COORD97":181241.26999999999,"N_COORD97":2576585.0800000001,"ADDRESS":"太康１３之４號","OBJECTID":190068},"geometry":{"x":181241.26999999955,"y":2576585.0800000038}},{"attributes":{"ID":190070,"DIS_CODE":0,"TOWNNAME":"柳營區","LI":"太康里","LIN":"22鄰","STREET":" ","SECT":" ","MAREA":"太康","LANE":" ","ALLEY":" ","HOUSE_NO":"１３之５號","E_COORD97":181265.89999999999,"N_COORD97":2576591.25,"ADDRESS":"太康１３之５號","OBJECTID":190069},"geometry":{"x":181265.9000000013,"y":2576591.2500000019}},{"attributes":{"ID":190071,"DIS_CODE":0,"TOWNNAME":"柳營區","LI":"太康里","LIN":"22鄰","STREET":" ","SECT":" ","MAREA":"太康","LANE":" ","ALLEY":" ","HOUSE_NO":"１３之９號","E_COORD97":181224.34,"N_COORD97":2576635.48,"ADDRESS":"太康１３之９號","OBJECTID":190070},"geometry":{"x":181224.33999999985,"y":2576635.4800000004}},{"attributes":{"ID":190072,"DIS_CODE":0,"TOWNNAME":"柳營區","LI":"太康里","LIN":"22鄰","STREET":" ","SECT":" ","MAREA":"太康","LANE":" ","ALLEY":" ","HOUSE_NO":"１４之１號","E_COORD97":181258.87,"N_COORD97":2576450.8999999999,"ADDRESS":"太康１４之１號","OBJECTID":190071},"geometry":{"x":181258.87000000197,"y":2576450.9000000041}},{"attributes":{"ID":190073,"DIS_CODE":0,"TOWNNAME":"柳營區","LI":"太康里","LIN":"22鄰","STREET":" ","SECT":" ","MAREA":"太康","LANE":" ","ALLEY":" ","HOUSE_NO":"１４之２０號","E_COORD97":181143.19,"N_COORD97":2576498.8700000001,"ADDRESS":"太康１４之２０號","OBJECTID":190072},"geometry":{"x":181143.19000000041,"y":2576498.870000001}},{"attributes":{"ID":190074,"DIS_CODE":0,"TOWNNAME":"柳營區","LI":"太康里","LIN":"22鄰","STREET":" ","SECT":" ","MAREA":"太康","LANE":" ","ALLEY":" ","HOUSE_NO":"１４之２１號","E_COORD97":181092.73000000001,"N_COORD97":2576538.8799999999,"ADDRESS":"太康１４之２１號","OBJECTID":190073},"geometry":{"x":181092.73000000138,"y":2576538.8800000008}},{"attributes":{"ID":190075,"DIS_CODE":0,"TOWNNAME":"柳營區","LI":"太康里","LIN":"22鄰","STREET":" ","SECT":" ","MAREA":"太康","LANE":" ","ALLEY":" ","HOUSE_NO":"１４之３０號","E_COORD97":181207.35999999999,"N_COORD97":2576481.23,"ADDRESS":"太康１４之３０號","OBJECTID":190074},"geometry":{"x":181207.36000000127,"y":2576481.2300000004}},{"attributes":{"ID":190076,"DIS_CODE":0,"TOWNNAME":"柳營區","LI":"太康里","LIN":"22鄰","STREET":" ","SECT":" ","MAREA":"太康","LANE":" ","ALLEY":" ","HOUSE_NO":"１４之３２號","E_COORD97":181232.70999999999,"N_COORD97":2576494.6099999999,"ADDRESS":"太康１４之３２號","OBJECTID":190075},"geometry":{"x":181232.71000000183,"y":2576494.6099999994}},{"attributes":{"ID":190077,"DIS_CODE":0,"TOWNNAME":"柳營區","LI":"太康里","LIN":"22鄰","STREET":" ","SECT":" ","MAREA":"太康","LANE":" ","ALLEY":" ","HOUSE_NO":"１４之３３號","E_COORD97":181238.76999999999,"N_COORD97":2576494.6699999999,"ADDRESS":"太康１４之３３號","OBJECTID":190076},"geometry":{"x":181238.77000000048,"y":2576494.6699999999}},{"attributes":{"ID":190078,"DIS_CODE":0,"TOWNNAME":"柳營區","LI":"太康里","LIN":"22鄰","STREET":" ","SECT":" ","MAREA":"太康","LANE":" ","ALLEY":" ","HOUSE_NO":"１４之３５號","E_COORD97":181247.95000000001,"N_COORD97":2576483.02,"ADDRESS":"太康１４之３５號","OBJECTID":190077},"geometry":{"x":181247.95000000019,"y":2576483.0200000033}},{"attributes":{"ID":190079,"DIS_CODE":0,"TOWNNAME":"柳營區","LI":"太康里","LIN":"22鄰","STREET":" ","SECT":" ","MAREA":"太康","LANE":" ","ALLEY":" ","HOUSE_NO":"１４之３６號","E_COORD97":181095.04999999999,"N_COORD97":2576491.71,"ADDRESS":"太康１４之３６號","OBJECTID":190078},"geometry":{"x":181095.05000000075,"y":2576491.7100000028}},{"attributes":{"ID":190080,"DIS_CODE":0,"TOWNNAME":"柳營區","LI":"太康里","LIN":"22鄰","STREET":" ","SECT":" ","MAREA":"太康","LANE":" ","ALLEY":" ","HOUSE_NO":"１４之３號","E_COORD97":181261.56,"N_COORD97":2576403.5,"ADDRESS":"太康１４之３號","OBJECTID":190079},"geometry":{"x":181261.55999999959,"y":2576403.5000000019}},{"attributes":{"ID":190081,"DIS_CODE":0,"TOWNNAME":"柳營區","LI":"太康里","LIN":"22鄰","STREET":" ","SECT":" ","MAREA":"太康","LANE":" ","ALLEY":" ","HOUSE_NO":"１６之１號","E_COORD97":181296.14999999999,"N_COORD97":2576330.0600000001,"ADDRESS":"太康１６之１號","OBJECTID":190080},"geometry":{"x":181296.15000000224,"y":2576330.0600000005}},{"attributes":{"ID":190082,"DIS_CODE":0,"TOWNNAME":"柳營區","LI":"太康里","LIN":"22鄰","STREET":" ","SECT":" ","MAREA":"太康","LANE":" ","ALLEY":" ","HOUSE_NO":"１６之２號","E_COORD97":181293.13,"N_COORD97":2576347.5600000001,"ADDRESS":"太康１６之２號","OBJECTID":190081},"geometry":{"x":181293.13000000082,"y":2576347.5600000005}},{"attributes":{"ID":190083,"DIS_CODE":0,"TOWNNAME":"柳營區","LI":"太康里","LIN":"22鄰","STREET":" ","SECT":" ","MAREA":"太康","LANE":" ","ALLEY":" ","HOUSE_NO":"１６之５１號","E_COORD97":181103.29999999999,"N_COORD97":2576328.3500000001,"ADDRESS":"太康１６之５１號","OBJECTID":190082},"geometry":{"x":181103.30000000075,"y":2576328.3500000034}},{"attributes":{"ID":190084,"DIS_CODE":0,"TOWNNAME":"柳營區","LI":"太康里","LIN":"22鄰","STREET":" ","SECT":" ","MAREA":"太康","LANE":" ","ALLEY":" ","HOUSE_NO":"２００號","E_COORD97":181035.5,"N_COORD97":2576732.73,"ADDRESS":"太康２００號","OBJECTID":190083},"geometry":{"x":181035.5,"y":2576732.7300000004}},{"attributes":{"ID":190085,"DIS_CODE":0,"TOWNNAME":"柳營區","LI":"太康里","LIN":"22鄰","STREET":" ","SECT":" ","MAREA":"太康","LANE":" ","ALLEY":" ","HOUSE_NO":"２０１之１０號","E_COORD97":180986.63,"N_COORD97":2576327.52,"ADDRESS":"太康２０１之１０號","OBJECTID":190084},"geometry":{"x":180986.62999999989,"y":2576327.5200000014}},{"attributes":{"ID":190086,"DIS_CODE":0,"TOWNNAME":"柳營區","LI":"太康里","LIN":"22鄰","STREET":" ","SECT":" ","MAREA":"太康","LANE":" ","ALLEY":" ","HOUSE_NO":"２０１號","E_COORD97":180921.26999999999,"N_COORD97":2576476.2999999998,"ADDRESS":"太康２０１號","OBJECTID":190085},"geometry":{"x":180921.26999999955,"y":2576476.3000000026}},{"attributes":{"ID":190087,"DIS_CODE":0,"TOWNNAME":"官田區","LI":"二鎮里","LIN":"9鄰","STREET":" ","SECT":" ","MAREA":"二鎮","LANE":" ","ALLEY":" ","HOUSE_NO":"８５號","E_COORD97":181541.06,"N_COORD97":2568386.4700000002,"ADDRESS":"二鎮８５號","OBJECTID":190086},"geometry":{"x":181541.05999999959,"y":2568386.4700000025}},{"attributes":{"ID":190088,"DIS_CODE":0,"TOWNNAME":"六甲區","LI":"中社里","LIN":"22鄰","STREET":" ","SECT":" ","MAREA":"林鳳營","LANE":" ","ALLEY":" ","HOUSE_NO":"２４３號","E_COORD97":180372.98999999999,"N_COORD97":2571142.79,"ADDRESS":"林鳳營２４３號","OBJECTID":190087},"geometry":{"x":180372.99000000022,"y":2571142.7899999991}},{"attributes":{"ID":190089,"DIS_CODE":0,"TOWNNAME":"左鎮區","LI":"睦光里","LIN":"3鄰","STREET":" ","SECT":" ","MAREA":"睦光","LANE":" ","ALLEY":" ","HOUSE_NO":"３５號","E_COORD97":190535.73999999999,"N_COORD97":2550325.25,"ADDRESS":"睦光３５號","OBJECTID":190088},"geometry":{"x":190535.73999999929,"y":2550325.2500000037}},{"attributes":{"ID":190090,"DIS_CODE":0,"TOWNNAME":"六甲區","LI":"中社里","LIN":"22鄰","STREET":" ","SECT":" ","MAREA":"林鳳營","LANE":" ","ALLEY":" ","HOUSE_NO":"２４５號","E_COORD97":180416.41,"N_COORD97":2571106.77,"ADDRESS":"林鳳營２４５號","OBJECTID":190089},"geometry":{"x":180416.41000000108,"y":2571106.7699999996}},{"attributes":{"ID":190091,"DIS_CODE":0,"TOWNNAME":"六甲區","LI":"中社里","LIN":"22鄰","STREET":" ","SECT":" ","MAREA":"林鳳營","LANE":" ","ALLEY":" ","HOUSE_NO":"２４７號","E_COORD97":180394.70000000001,"N_COORD97":2571144.9700000002,"ADDRESS":"林鳳營２４７號","OBJECTID":190090},"geometry":{"x":180394.70000000019,"y":2571144.9700000044}},{"attributes":{"ID":190092,"DIS_CODE":0,"TOWNNAME":"六甲區","LI":"中社里","LIN":"22鄰","STREET":" ","SECT":" ","MAREA":"林鳳營","LANE":" ","ALLEY":" ","HOUSE_NO":"２４８號","E_COORD97":180394.17000000001,"N_COORD97":2571167.8300000001,"ADDRESS":"林鳳營２４８號","OBJECTID":190091},"geometry":{"x":180394.17000000086,"y":2571167.8300000001}},{"attributes":{"ID":190093,"DIS_CODE":0,"TOWNNAME":"六甲區","LI":"中社里","LIN":"22鄰","STREET":" ","SECT":" ","MAREA":"林鳳營","LANE":" ","ALLEY":" ","HOUSE_NO":"２５０號","E_COORD97":180427.76999999999,"N_COORD97":2571193.9399999999,"ADDRESS":"林鳳營２５０號","OBJECTID":190092},"geometry":{"x":180427.76999999955,"y":2571193.9399999995}},{"attributes":{"ID":190094,"DIS_CODE":0,"TOWNNAME":"六甲區","LI":"中社里","LIN":"22鄰","STREET":" ","SECT":" ","MAREA":"林鳳營","LANE":" ","ALLEY":" ","HOUSE_NO":"２５１號","E_COORD97":180441.98000000001,"N_COORD97":2571177.6600000001,"ADDRESS":"林鳳營２５１號","OBJECTID":190093},"geometry":{"x":180441.98000000138,"y":2571177.660000002}},{"attributes":{"ID":190095,"DIS_CODE":0,"TOWNNAME":"六甲區","LI":"中社里","LIN":"22鄰","STREET":" ","SECT":" ","MAREA":"林鳳營","LANE":" ","ALLEY":" ","HOUSE_NO":"２５２號","E_COORD97":180442.38,"N_COORD97":2571173.71,"ADDRESS":"林鳳營２５２號","OBJECTID":190094},"geometry":{"x":180442.37999999989,"y":2571173.709999999}},{"attributes":{"ID":190096,"DIS_CODE":0,"TOWNNAME":"六甲區","LI":"中社里","LIN":"22鄰","STREET":" ","SECT":" ","MAREA":"林鳳營","LANE":" ","ALLEY":" ","HOUSE_NO":"２５３號","E_COORD97":180443.16,"N_COORD97":2571169.2599999998,"ADDRESS":"林鳳營２５３號","OBJECTID":190095},"geometry":{"x":180443.16000000201,"y":2571169.2600000035}},{"attributes":{"ID":190097,"DIS_CODE":0,"TOWNNAME":"六甲區","LI":"中社里","LIN":"22鄰","STREET":" ","SECT":" ","MAREA":"林鳳營","LANE":" ","ALLEY":" ","HOUSE_NO":"２５４號","E_COORD97":180443.82000000001,"N_COORD97":2571165.0499999998,"ADDRESS":"林鳳營２５４號","OBJECTID":190096},"geometry":{"x":180443.81999999937,"y":2571165.0500000026}},{"attributes":{"ID":190098,"DIS_CODE":0,"TOWNNAME":"安南區","LI":"砂崙里","LIN":"5鄰","STREET":"青砂街","SECT":"一段","MAREA":" ","LANE":"６３３巷","ALLEY":"２０弄","HOUSE_NO":"７１號","E_COORD97":159834.07999999999,"N_COORD97":2552743.3199999998,"ADDRESS":"青砂街一段６３３巷２０弄７１號","OBJECTID":190097},"geometry":{"x":159834.08000000101,"y":2552743.3200000022}},{"attributes":{"ID":190099,"DIS_CODE":0,"TOWNNAME":"安南區","LI":"砂崙里","LIN":"5鄰","STREET":"青砂街","SECT":"一段","MAREA":" ","LANE":"６３３巷","ALLEY":"２０弄","HOUSE_NO":"７５號","E_COORD97":159816.5,"N_COORD97":2552741.73,"ADDRESS":"青砂街一段６３３巷２０弄７５號","OBJECTID":190098},"geometry":{"x":159816.5,"y":2552741.7300000004}},{"attributes":{"ID":190100,"DIS_CODE":0,"TOWNNAME":"新市區","LI":"港墘里","LIN":"5鄰","STREET":"民族路","SECT":" ","MAREA":" ","LANE":"９９巷","ALLEY":"８弄","HOUSE_NO":"２號","E_COORD97":178332.39999999999,"N_COORD97":2553587.29,"ADDRESS":"民族路９９巷８弄２號","OBJECTID":190099},"geometry":{"x":178332.40000000037,"y":2553587.2899999991}},{"attributes":{"ID":190101,"DIS_CODE":0,"TOWNNAME":"安南區","LI":"州北里","LIN":"5鄰","STREET":"安和路","SECT":"五段","MAREA":" ","LANE":"１７１巷","ALLEY":"４７弄","HOUSE_NO":"４５號","E_COORD97":169708.63,"N_COORD97":2551710.6800000002,"ADDRESS":"安和路五段１７１巷４７弄４５號","OBJECTID":190100},"geometry":{"x":169708.62999999989,"y":2551710.6799999997}},{"attributes":{"ID":190102,"DIS_CODE":0,"TOWNNAME":"安南區","LI":"州北里","LIN":"5鄰","STREET":"安和路","SECT":"五段","MAREA":" ","LANE":"８１巷","ALLEY":"６４弄","HOUSE_NO":"１２號","E_COORD97":169729.98999999999,"N_COORD97":2551670.9500000002,"ADDRESS":"安和路五段８１巷６４弄１２號","OBJECTID":190101},"geometry":{"x":169729.99000000022,"y":2551670.9499999993}},{"attributes":{"ID":190103,"DIS_CODE":0,"TOWNNAME":"安南區","LI":"安東里","LIN":"5鄰","STREET":"安和路","SECT":"一段","MAREA":" ","LANE":"２２０巷","ALLEY":"９３弄","HOUSE_NO":"１１號","E_COORD97":169484.65835799999,"N_COORD97":2548118.8109800001,"ADDRESS":"安和路一段２２０巷９３弄１１號","OBJECTID":190102},"geometry":{"x":169484.65835800022,"y":2548118.8109840006}},{"attributes":{"ID":190104,"DIS_CODE":0,"TOWNNAME":"安南區","LI":"安東里","LIN":"5鄰","STREET":"安和路","SECT":"一段","MAREA":" ","LANE":"２２０巷","ALLEY":"９３弄","HOUSE_NO":"１５號","E_COORD97":169494.72141100001,"N_COORD97":2548126.8543099998,"ADDRESS":"安和路一段２２０巷９３弄１５號","OBJECTID":190103},"geometry":{"x":169494.72141100094,"y":2548126.854313001}},{"attributes":{"ID":190105,"DIS_CODE":0,"TOWNNAME":"安南區","LI":"安東里","LIN":"5鄰","STREET":"安和路","SECT":"一段","MAREA":" ","LANE":"２２０巷","ALLEY":"９３弄","HOUSE_NO":"１９號","E_COORD97":169495.78067899999,"N_COORD97":2548142.5176400002,"ADDRESS":"安和路一段２２０巷９３弄１９號","OBJECTID":190104},"geometry":{"x":169495.78067900147,"y":2548142.5176370014}},{"attributes":{"ID":190106,"DIS_CODE":0,"TOWNNAME":"永康區","LI":"復國里","LIN":"15鄰","STREET":"復國二路","SECT":" ","MAREA":" ","LANE":" ","ALLEY":" ","HOUSE_NO":"１４１號","E_COORD97":172894.73999999999,"N_COORD97":2545650.27,"ADDRESS":"復國二路１４１號","OBJECTID":190105},"geometry":{"x":172894.74000000115,"y":2545650.2700000014}},{"attributes":{"ID":190107,"DIS_CODE":0,"TOWNNAME":"東區","LI":"崇明里","LIN":"15鄰","STREET":"崇明路","SECT":" ","MAREA":" ","LANE":" ","ALLEY":" ","HOUSE_NO":"４７８號","E_COORD97":170355.16,"N_COORD97":2541619.2799999998,"ADDRESS":"崇明路４７８號","OBJECTID":190106},"geometry":{"x":170355.16000000201,"y":2541619.2800000012}},{"attributes":{"ID":190108,"DIS_CODE":0,"TOWNNAME":"東區","LI":"崇明里","LIN":"15鄰","STREET":"崇明路","SECT":" ","MAREA":" ","LANE":" ","ALLEY":" ","HOUSE_NO":"４８０號","E_COORD97":170357.17000000001,"N_COORD97":2541609.0299999998,"ADDRESS":"崇明路４８０號","OBJECTID":190107},"geometry":{"x":170357.17000000086,"y":2541609.0299999993}},{"attributes":{"ID":190109,"DIS_CODE":0,"TOWNNAME":"東區","LI":"崇明里","LIN":"15鄰","STREET":"崇明路","SECT":" ","MAREA":" ","LANE":" ","ALLEY":" ","HOUSE_NO":"４８２號","E_COORD97":170360.84,"N_COORD97":2541606.3399999999,"ADDRESS":"崇明路４８２號","OBJECTID":190108},"geometry":{"x":170360.84000000078,"y":2541606.3399999999}},{"attributes":{"ID":190110,"DIS_CODE":0,"TOWNNAME":"安南區","LI":"州北里","LIN":"5鄰","STREET":"安和路","SECT":"五段","MAREA":" ","LANE":"１７１巷","ALLEY":"４７弄","HOUSE_NO":"５５號","E_COORD97":169676.94,"N_COORD97":2551701.0699999998,"ADDRESS":"安和路五段１７１巷４７弄５５號","OBJECTID":190109},"geometry":{"x":169676.94000000041,"y":2551701.0700000022}},{"attributes":{"ID":190111,"DIS_CODE":0,"TOWNNAME":"安南區","LI":"州北里","LIN":"5鄰","STREET":"安和路","SECT":"五段","MAREA":" ","LANE":"１７１巷","ALLEY":"４７弄","HOUSE_NO":"５７號","E_COORD97":169674.32999999999,"N_COORD97":2551698.4700000002,"ADDRESS":"安和路五段１７１巷４７弄５７號","OBJECTID":190110},"geometry":{"x":169674.33000000101,"y":2551698.4700000025}},{"attributes":{"ID":190112,"DIS_CODE":0,"TOWNNAME":"新營區","LI":"南紙里","LIN":"5鄰","STREET":"南紙街","SECT":" ","MAREA":" ","LANE":"２９巷","ALLEY":"６弄","HOUSE_NO":"２２號","E_COORD97":177893.57999999999,"N_COORD97":2577678.0299999998,"ADDRESS":"南紙街２９巷６弄２２號","OBJECTID":190111},"geometry":{"x":177893.58000000007,"y":2577678.0299999993}},{"attributes":{"ID":190113,"DIS_CODE":0,"TOWNNAME":"安平區","LI":"文平里","LIN":"5鄰","STREET":"建平六街","SECT":" ","MAREA":" ","LANE":"８０巷","ALLEY":"１１６弄","HOUSE_NO":"５號","E_COORD97":166466.32999999999,"N_COORD97":2543183.52,"ADDRESS":"建平六街８０巷１１６弄５號","OBJECTID":190112},"geometry":{"x":166466.33000000007,"y":2543183.5200000014}},{"attributes":{"ID":190114,"DIS_CODE":0,"TOWNNAME":"安平區","LI":"文平里","LIN":"5鄰","STREET":"建平六街","SECT":" ","MAREA":" ","LANE":"８０巷","ALLEY":"１１６弄","HOUSE_NO":"６號","E_COORD97":166464.91,"N_COORD97":2543168.29,"ADDRESS":"建平六街８０巷１１６弄６號","OBJECTID":190113},"geometry":{"x":166464.91000000108,"y":2543168.290000001}},{"attributes":{"ID":190115,"DIS_CODE":0,"TOWNNAME":"安平區","LI":"文平里","LIN":"5鄰","STREET":"建平六街","SECT":" ","MAREA":" ","LANE":"８０巷","ALLEY":"１１６弄","HOUSE_NO":"７號","E_COORD97":166473.53,"N_COORD97":2543182.6600000001,"ADDRESS":"建平六街８０巷１１６弄７號","OBJECTID":190114},"geometry":{"x":166473.53000000026,"y":2543182.6600000039}},{"attributes":{"ID":190116,"DIS_CODE":0,"TOWNNAME":"安平區","LI":"文平里","LIN":"5鄰","STREET":"建平六街","SECT":" ","MAREA":" ","LANE":"８０巷","ALLEY":"１１６弄","HOUSE_NO":"８號","E_COORD97":166471,"N_COORD97":2543167.1699999999,"ADDRESS":"建平六街８０巷１１６弄８號","OBJECTID":190115},"geometry":{"x":166471.00000000093,"y":2543167.1699999999}},{"attributes":{"ID":190117,"DIS_CODE":0,"TOWNNAME":"安平區","LI":"文平里","LIN":"5鄰","STREET":"建平六街","SECT":" ","MAREA":" ","LANE":"８０巷","ALLEY":"１１６弄","HOUSE_NO":"９號","E_COORD97":166482.35999999999,"N_COORD97":2543181.8900000001,"ADDRESS":"建平六街８０巷１１６弄９號","OBJECTID":190116},"geometry":{"x":166482.36000000127,"y":2543181.8900000025}},{"attributes":{"ID":190118,"DIS_CODE":0,"TOWNNAME":"新營區","LI":"南紙里","LIN":"5鄰","STREET":"南紙街","SECT":" ","MAREA":" ","LANE":"２９巷","ALLEY":"６弄","HOUSE_NO":"５號","E_COORD97":177861.60999999999,"N_COORD97":2577680.3900000001,"ADDRESS":"南紙街２９巷６弄５號","OBJECTID":190117},"geometry":{"x":177861.61000000034,"y":2577680.3900000006}},{"attributes":{"ID":190119,"DIS_CODE":0,"TOWNNAME":"六甲區","LI":"水林里","LIN":"5鄰","STREET":"民族街","SECT":" ","MAREA":" ","LANE":"２７５巷","ALLEY":"４３弄","HOUSE_NO":"１號","E_COORD97":183072.59,"N_COORD97":2570191.3100000001,"ADDRESS":"民族街２７５巷４３弄１號","OBJECTID":190118},"geometry":{"x":183072.59000000171,"y":2570191.3100000024}},{"attributes":{"ID":190120,"DIS_CODE":0,"TOWNNAME":"六甲區","LI":"水林里","LIN":"5鄰","STREET":"民族街","SECT":" ","MAREA":" ","LANE":"２７５巷","ALLEY":"４３弄","HOUSE_NO":"３號","E_COORD97":183072.42000000001,"N_COORD97":2570186.8700000001,"ADDRESS":"民族街２７５巷４３弄３號","OBJECTID":190119},"geometry":{"x":183072.42000000086,"y":2570186.8700000029}},{"attributes":{"ID":190121,"DIS_CODE":0,"TOWNNAME":"六甲區","LI":"水林里","LIN":"5鄰","STREET":"民族街","SECT":" ","MAREA":" ","LANE":"２７５巷","ALLEY":"４３弄","HOUSE_NO":"５號","E_COORD97":183073.07999999999,"N_COORD97":2570181.6099999999,"ADDRESS":"民族街２７５巷４３弄５號","OBJECTID":190120},"geometry":{"x":183073.08000000101,"y":2570181.6099999994}},{"attributes":{"ID":190122,"DIS_CODE":0,"TOWNNAME":"六甲區","LI":"水林里","LIN":"5鄰","STREET":"民族街","SECT":" ","MAREA":" ","LANE":"２７５巷","ALLEY":"４３弄","HOUSE_NO":"７號","E_COORD97":183073.17999999999,"N_COORD97":2570177.4300000002,"ADDRESS":"民族街２７５巷４３弄７號","OBJECTID":190121},"geometry":{"x":183073.1799999997,"y":2570177.4299999997}},{"attributes":{"ID":190123,"DIS_CODE":0,"TOWNNAME":"六甲區","LI":"水林里","LIN":"5鄰","STREET":"民族街","SECT":" ","MAREA":" ","LANE":"２７５巷","ALLEY":"４３弄","HOUSE_NO":"８號","E_COORD97":183053.76000000001,"N_COORD97":2570180.02,"ADDRESS":"民族街２７５巷４３弄８號","OBJECTID":190122},"geometry":{"x":183053.75999999978,"y":2570180.0199999996}},{"attributes":{"ID":190124,"DIS_CODE":0,"TOWNNAME":"北區","LI":"國姓里","LIN":"5鄰","STREET":"小北路","SECT":" ","MAREA":" ","LANE":"２７巷","ALLEY":"６１弄","HOUSE_NO":"１０號","E_COORD97":168865.26999999999,"N_COORD97":2545482.5299999998,"ADDRESS":"小北路２７巷６１弄１０號","OBJECTID":190123},"geometry":{"x":168865.26999999862,"y":2545482.5300000012}},{"attributes":{"ID":190125,"DIS_CODE":0,"TOWNNAME":"北區","LI":"國姓里","LIN":"5鄰","STREET":"小北路","SECT":" ","MAREA":" ","LANE":"２７巷","ALLEY":"６１弄","HOUSE_NO":"１２號","E_COORD97":168861.10999999999,"N_COORD97":2545485.2999999998,"ADDRESS":"小北路２７巷６１弄１２號","OBJECTID":190124},"geometry":{"x":168861.11000000127,"y":2545485.3000000026}},{"attributes":{"ID":190126,"DIS_CODE":0,"TOWNNAME":"北區","LI":"國姓里","LIN":"5鄰","STREET":"小北路","SECT":" ","MAREA":" ","LANE":"２７巷","ALLEY":"６１弄","HOUSE_NO":"１４號","E_COORD97":168858.06,"N_COORD97":2545487.79,"ADDRESS":"小北路２７巷６１弄１４號","OBJECTID":190125},"geometry":{"x":168858.05999999959,"y":2545487.7899999991}},{"attributes":{"ID":190127,"DIS_CODE":0,"TOWNNAME":"北區","LI":"國姓里","LIN":"5鄰","STREET":"小北路","SECT":" ","MAREA":" ","LANE":"２７巷","ALLEY":"６１弄","HOUSE_NO":"１６號","E_COORD97":168853.34,"N_COORD97":2545488.0699999998,"ADDRESS":"小北路２７巷６１弄１６號","OBJECTID":190126},"geometry":{"x":168853.34000000171,"y":2545488.0700000003}},{"attributes":{"ID":190128,"DIS_CODE":0,"TOWNNAME":"北區","LI":"國姓里","LIN":"5鄰","STREET":"小北路","SECT":" ","MAREA":" ","LANE":"２７巷","ALLEY":"６１弄","HOUSE_NO":"１８號","E_COORD97":168846.95999999999,"N_COORD97":2545490.0099999998,"ADDRESS":"小北路２７巷６１弄１８號","OBJECTID":190127},"geometry":{"x":168846.95999999996,"y":2545490.0100000016}},{"attributes":{"ID":190129,"DIS_CODE":0,"TOWNNAME":"北區","LI":"國姓里","LIN":"5鄰","STREET":"小北路","SECT":" ","MAREA":" ","LANE":"２７巷","ALLEY":"６１弄","HOUSE_NO":"２０號","E_COORD97":168833.64000000001,"N_COORD97":2545499.3999999999,"ADDRESS":"小北路２７巷６１弄２０號","OBJECTID":190128},"geometry":{"x":168833.63999999966,"y":2545499.4000000004}},{"attributes":{"ID":190130,"DIS_CODE":0,"TOWNNAME":"北區","LI":"國姓里","LIN":"5鄰","STREET":"小北路","SECT":" ","MAREA":" ","LANE":"２７巷","ALLEY":"６１弄","HOUSE_NO":"２２號","E_COORD97":168833.09,"N_COORD97":2545503.0099999998,"ADDRESS":"小北路２７巷６１弄２２號","OBJECTID":190129},"geometry":{"x":168833.09000000171,"y":2545503.0100000016}},{"attributes":{"ID":190131,"DIS_CODE":0,"TOWNNAME":"北區","LI":"國姓里","LIN":"5鄰","STREET":"小北路","SECT":" ","MAREA":" ","LANE":"２７巷","ALLEY":"６１弄","HOUSE_NO":"２號","E_COORD97":168895.79000000001,"N_COORD97":2545467.0099999998,"ADDRESS":"小北路２７巷６１弄２號","OBJECTID":190130},"geometry":{"x":168895.79000000004,"y":2545467.0099999998}},{"attributes":{"ID":190132,"DIS_CODE":0,"TOWNNAME":"北區","LI":"國姓里","LIN":"5鄰","STREET":"小北路","SECT":" ","MAREA":" ","LANE":"２７巷","ALLEY":"６１弄","HOUSE_NO":"４號","E_COORD97":168885.81,"N_COORD97":2545472.5499999998,"ADDRESS":"小北路２７巷６１弄４號","OBJECTID":190131},"geometry":{"x":168885.81000000052,"y":2545472.5500000045}},{"attributes":{"ID":190133,"DIS_CODE":0,"TOWNNAME":"北區","LI":"國姓里","LIN":"5鄰","STREET":"小北路","SECT":" ","MAREA":" ","LANE":"２７巷","ALLEY":"６１弄","HOUSE_NO":"６號","E_COORD97":168877.76000000001,"N_COORD97":2545476.9900000002,"ADDRESS":"小北路２７巷６１弄６號","OBJECTID":190132},"geometry":{"x":168877.76000000071,"y":2545476.9900000021}},{"attributes":{"ID":190134,"DIS_CODE":0,"TOWNNAME":"北區","LI":"國姓里","LIN":"5鄰","STREET":"小北路","SECT":" ","MAREA":" ","LANE":"２７巷","ALLEY":"６１弄","HOUSE_NO":"８號","E_COORD97":168871.92999999999,"N_COORD97":2545480.3100000001,"ADDRESS":"小北路２７巷６１弄８號","OBJECTID":190133},"geometry":{"x":168871.93000000063,"y":2545480.3099999987}},{"attributes":{"ID":190135,"DIS_CODE":0,"TOWNNAME":"南區","LI":"文南里","LIN":"5鄰","STREET":"金華路","SECT":"二段","MAREA":" ","LANE":"２８９巷","ALLEY":"２３弄","HOUSE_NO":"２０號","E_COORD97":167016.92999999999,"N_COORD97":2542714.2000000002,"ADDRESS":"金華路二段２８９巷２３弄２０號","OBJECTID":190134},"geometry":{"x":167016.93000000063,"y":2542714.2000000011}},{"attributes":{"ID":190136,"DIS_CODE":0,"TOWNNAME":"南區","LI":"文南里","LIN":"5鄰","STREET":"金華路","SECT":"二段","MAREA":" ","LANE":"２８９巷","ALLEY":"２３弄","HOUSE_NO":"６號","E_COORD97":167018.89000000001,"N_COORD97":2542749.8900000001,"ADDRESS":"金華路二段２８９巷２３弄６號","OBJECTID":190135},"geometry":{"x":167018.8900000006,"y":2542749.8900000006}},{"attributes":{"ID":190137,"DIS_CODE":0,"TOWNNAME":"歸仁區","LI":"西埔里","LIN":"5鄰","STREET":"保大路","SECT":"二段","MAREA":" ","LANE":"１２２巷","ALLEY":"２３弄","HOUSE_NO":"２４號","E_COORD97":176983.966843,"N_COORD97":2544227.5407500002,"ADDRESS":"保大路二段１２２巷２３弄２４號","OBJECTID":190136},"geometry":{"x":176983.96684299968,"y":2544227.5407470018}},{"attributes":{"ID":190138,"DIS_CODE":0,"TOWNNAME":"歸仁區","LI":"媽廟里","LIN":"5鄰","STREET":"中正北路","SECT":"三段","MAREA":" ","LANE":"２０５巷","ALLEY":"１１弄","HOUSE_NO":"４３號","E_COORD97":177541.35999999999,"N_COORD97":2543774.7200000002,"ADDRESS":"中正北路三段２０５巷１１弄４３號","OBJECTID":190137},"geometry":{"x":177541.36000000034,"y":2543774.7200000007}},{"attributes":{"ID":190139,"DIS_CODE":0,"TOWNNAME":"東區","LI":"崇明里","LIN":"15鄰","STREET":"崇明路","SECT":" ","MAREA":" ","LANE":" ","ALLEY":" ","HOUSE_NO":"４８４號","E_COORD97":170364.64999999999,"N_COORD97":2541604.23,"ADDRESS":"崇明路４８４號","OBJECTID":190138},"geometry":{"x":170364.6500000013,"y":2541604.2300000004}},{"attributes":{"ID":190140,"DIS_CODE":0,"TOWNNAME":"東區","LI":"崇明里","LIN":"15鄰","STREET":"崇明路","SECT":" ","MAREA":" ","LANE":" ","ALLEY":" ","HOUSE_NO":"４８６號","E_COORD97":170369.44,"N_COORD97":2541602.0699999998,"ADDRESS":"崇明路４８６號","OBJECTID":190139},"geometry":{"x":170369.44000000134,"y":2541602.0700000003}},{"attributes":{"ID":190141,"DIS_CODE":0,"TOWNNAME":"仁德區","LI":"上崙里","LIN":"4鄰","STREET":"德崙路","SECT":" ","MAREA":" ","LANE":" ","ALLEY":" ","HOUSE_NO":"２４５號","E_COORD97":173770.01000000001,"N_COORD97":2538190.2599999998,"ADDRESS":"德崙路２４５號","OBJECTID":190140},"geometry":{"x":173770.01000000071,"y":2538190.2599999998}},{"attributes":{"ID":190142,"DIS_CODE":0,"TOWNNAME":"仁德區","LI":"一甲里","LIN":"20鄰","STREET":"太乙七街","SECT":" ","MAREA":" ","LANE":" ","ALLEY":" ","HOUSE_NO":"１９號","E_COORD97":173139.51000000001,"N_COORD97":2542421.5,"ADDRESS":"太乙七街１９號","OBJECTID":190141},"geometry":{"x":173139.51000000071,"y":2542421.5000000019}},{"attributes":{"ID":190143,"DIS_CODE":0,"TOWNNAME":"南區","LI":"文南里","LIN":"5鄰","STREET":"金華路","SECT":"二段","MAREA":" ","LANE":"２８９巷","ALLEY":"２３弄","HOUSE_NO":"８號","E_COORD97":167018.89000000001,"N_COORD97":2542744.46,"ADDRESS":"金華路二段２８９巷２３弄８號","OBJECTID":190142},"geometry":{"x":167018.8900000006,"y":2542744.4600000028}},{"attributes":{"ID":190144,"DIS_CODE":0,"TOWNNAME":"南區","LI":"文南里","LIN":"5鄰","STREET":"金華路","SECT":"二段","MAREA":" ","LANE":"２８９巷","ALLEY":"２３弄","HOUSE_NO":"１４號","E_COORD97":167018.47,"N_COORD97":2542728.5699999998,"ADDRESS":"金華路二段２８９巷２３弄１４號","OBJECTID":190143},"geometry":{"x":167018.47000000067,"y":2542728.5700000003}},{"attributes":{"ID":190145,"DIS_CODE":0,"TOWNNAME":"南區","LI":"文南里","LIN":"5鄰","STREET":"金華路","SECT":"二段","MAREA":" ","LANE":"２８９巷","ALLEY":"２３弄","HOUSE_NO":"１６號","E_COORD97":167018.19,"N_COORD97":2542724.9399999999,"ADDRESS":"金華路二段２８９巷２３弄１６號","OBJECTID":190144},"geometry":{"x":167018.19000000041,"y":2542724.9399999995}},{"attributes":{"ID":190146,"DIS_CODE":0,"TOWNNAME":"南區","LI":"文南里","LIN":"5鄰","STREET":"金華路","SECT":"二段","MAREA":" ","LANE":"２８９巷","ALLEY":"２３弄","HOUSE_NO":"１８號","E_COORD97":167017.48999999999,"N_COORD97":2542720.48,"ADDRESS":"金華路二段２８９巷２３弄１８號","OBJECTID":190145},"geometry":{"x":167017.49000000115,"y":2542720.4800000023}},{"attributes":{"ID":190147,"DIS_CODE":0,"TOWNNAME":"南區","LI":"文南里","LIN":"5鄰","STREET":"金華路","SECT":"二段","MAREA":" ","LANE":"２８９巷","ALLEY":"２３弄","HOUSE_NO":"３０號","E_COORD97":167015.39999999999,"N_COORD97":2542694.54,"ADDRESS":"金華路二段２８９巷２３弄３０號","OBJECTID":190146},"geometry":{"x":167015.40000000037,"y":2542694.540000001}},{"attributes":{"ID":190148,"DIS_CODE":0,"TOWNNAME":"南區","LI":"文南里","LIN":"5鄰","STREET":"金華路","SECT":"二段","MAREA":" ","LANE":"２８９巷","ALLEY":"２３弄","HOUSE_NO":"３２號","E_COORD97":167014.98000000001,"N_COORD97":2542689.1099999999,"ADDRESS":"金華路二段２８９巷２３弄３２號","OBJECTID":190147},"geometry":{"x":167014.98000000045,"y":2542689.1099999994}},{"attributes":{"ID":190149,"DIS_CODE":0,"TOWNNAME":"南區","LI":"文南里","LIN":"5鄰","STREET":"金華路","SECT":"二段","MAREA":" ","LANE":"２８９巷","ALLEY":"２３弄","HOUSE_NO":"３４號","E_COORD97":167015.26000000001,"N_COORD97":2542684.0899999999,"ADDRESS":"金華路二段２８９巷２３弄３４號","OBJECTID":190148},"geometry":{"x":167015.26000000071,"y":2542684.089999998}},{"attributes":{"ID":190150,"DIS_CODE":0,"TOWNNAME":"東山區","LI":"聖賢里","LIN":"22鄰","STREET":" ","SECT":" ","MAREA":"北勢寮","LANE":" ","ALLEY":" ","HOUSE_NO":"８５號之９","E_COORD97":184927.37,"N_COORD97":2578649.6299999999,"ADDRESS":"北勢寮８５號之９","OBJECTID":190149},"geometry":{"x":184927.37000000104,"y":2578649.6300000008}},{"attributes":{"ID":190151,"DIS_CODE":0,"TOWNNAME":"南區","LI":"文南里","LIN":"5鄰","STREET":"金華路","SECT":"二段","MAREA":" ","LANE":"２８９巷","ALLEY":"２３弄","HOUSE_NO":"３６號","E_COORD97":167014.84,"N_COORD97":2542679.0699999998,"ADDRESS":"金華路二段２８９巷２３弄３６號","OBJECTID":190150},"geometry":{"x":167014.84000000078,"y":2542679.0700000022}},{"attributes":{"ID":190152,"DIS_CODE":0,"TOWNNAME":"南區","LI":"文南里","LIN":"5鄰","STREET":"金華路","SECT":"二段","MAREA":" ","LANE":"２８９巷","ALLEY":"２３弄","HOUSE_NO":"３８號","E_COORD97":167014.42000000001,"N_COORD97":2542673.3599999999,"ADDRESS":"金華路二段２８９巷２３弄３８號","OBJECTID":190151},"geometry":{"x":167014.42000000086,"y":2542673.3600000013}},{"attributes":{"ID":190153,"DIS_CODE":0,"TOWNNAME":"北區","LI":"元寶里","LIN":"5鄰","STREET":"北園街","SECT":" ","MAREA":" ","LANE":"８巷","ALLEY":"９弄","HOUSE_NO":"８號","E_COORD97":170397.98999999999,"N_COORD97":2545727.6200000001,"ADDRESS":"北園街８巷９弄８號","OBJECTID":190152},"geometry":{"x":170397.99000000022,"y":2545727.6200000029}},{"attributes":{"ID":190154,"DIS_CODE":0,"TOWNNAME":"南區","LI":"文南里","LIN":"5鄰","STREET":"金華路","SECT":"二段","MAREA":" ","LANE":"２８９巷","ALLEY":"２３弄","HOUSE_NO":"４０號","E_COORD97":167014.57999999999,"N_COORD97":2542669.71,"ADDRESS":"金華路二段２８９巷２３弄４０號","OBJECTID":190153},"geometry":{"x":167014.58000000101,"y":2542669.7100000009}},{"attributes":{"ID":190155,"DIS_CODE":0,"TOWNNAME":"南區","LI":"文南里","LIN":"5鄰","STREET":"金華路","SECT":"二段","MAREA":" ","LANE":"２８９巷","ALLEY":"２３弄","HOUSE_NO":"４２號","E_COORD97":167014.57999999999,"N_COORD97":2542665.1099999999,"ADDRESS":"金華路二段２８９巷２３弄４２號","OBJECTID":190154},"geometry":{"x":167014.58000000101,"y":2542665.1099999994}},{"attributes":{"ID":190156,"DIS_CODE":0,"TOWNNAME":"南區","LI":"文南里","LIN":"5鄰","STREET":"金華路","SECT":"二段","MAREA":" ","LANE":"２８９巷","ALLEY":"２３弄","HOUSE_NO":"４６號","E_COORD97":167012.89999999999,"N_COORD97":2542655.7799999998,"ADDRESS":"金華路二段２８９巷２３弄４６號","OBJECTID":190155},"geometry":{"x":167012.9000000013,"y":2542655.7800000012}},{"attributes":{"ID":190157,"DIS_CODE":0,"TOWNNAME":"南區","LI":"文南里","LIN":"5鄰","STREET":"金華路","SECT":"二段","MAREA":" ","LANE":"２８９巷","ALLEY":"２３弄","HOUSE_NO":"４８號","E_COORD97":167012.62,"N_COORD97":2542651.1800000002,"ADDRESS":"金華路二段２８９巷２３弄４８號","OBJECTID":190156},"geometry":{"x":167012.62000000104,"y":2542651.1800000016}},{"attributes":{"ID":190158,"DIS_CODE":0,"TOWNNAME":"南區","LI":"文南里","LIN":"5鄰","STREET":"金華路","SECT":"二段","MAREA":" ","LANE":"２８９巷","ALLEY":"２３弄","HOUSE_NO":"５０號","E_COORD97":167012.76000000001,"N_COORD97":2542646.02,"ADDRESS":"金華路二段２８９巷２３弄５０號","OBJECTID":190157},"geometry":{"x":167012.76000000164,"y":2542646.0199999996}},{"attributes":{"ID":190159,"DIS_CODE":0,"TOWNNAME":"六甲區","LI":"甲東里","LIN":"5鄰","STREET":"忠孝街","SECT":" ","MAREA":" ","LANE":"２１７巷","ALLEY":"１４弄","HOUSE_NO":"３之１號","E_COORD97":183916.06,"N_COORD97":2570084.6000000001,"ADDRESS":"忠孝街２１７巷１４弄３之１號","OBJECTID":190158},"geometry":{"x":183916.05999999959,"y":2570084.5999999996}},{"attributes":{"ID":190160,"DIS_CODE":0,"TOWNNAME":"六甲區","LI":"甲東里","LIN":"5鄰","STREET":"忠孝街","SECT":" ","MAREA":" ","LANE":"２１７巷","ALLEY":"１４弄","HOUSE_NO":"３號","E_COORD97":183929.85999999999,"N_COORD97":2570075.7799999998,"ADDRESS":"忠孝街２１７巷１４弄３號","OBJECTID":190159},"geometry":{"x":183929.86000000034,"y":2570075.7799999993}},{"attributes":{"ID":190161,"DIS_CODE":0,"TOWNNAME":"仁德區","LI":"一甲里","LIN":"13鄰","STREET":"忠義路","SECT":" ","MAREA":" ","LANE":" ","ALLEY":" ","HOUSE_NO":"２９７號","E_COORD97":173693.88,"N_COORD97":2541855.52,"ADDRESS":"忠義路２９７號","OBJECTID":190160},"geometry":{"x":173693.87999999989,"y":2541855.5199999996}},{"attributes":{"ID":190162,"DIS_CODE":0,"TOWNNAME":"仁德區","LI":"一甲里","LIN":"14鄰","STREET":"忠義路","SECT":" ","MAREA":" ","LANE":" ","ALLEY":" ","HOUSE_NO":"２５３號","E_COORD97":173826.98000000001,"N_COORD97":2541845.7599999998,"ADDRESS":"忠義路２５３號","OBJECTID":190161},"geometry":{"x":173826.98000000138,"y":2541845.7600000035}},{"attributes":{"ID":190163,"DIS_CODE":0,"TOWNNAME":"六甲區","LI":"甲東里","LIN":"5鄰","STREET":"忠孝街","SECT":" ","MAREA":" ","LANE":"２１７巷","ALLEY":"１４弄","HOUSE_NO":"５號","E_COORD97":183917.84,"N_COORD97":2570101.5800000001,"ADDRESS":"忠孝街２１７巷１４弄５號","OBJECTID":190162},"geometry":{"x":183917.83999999985,"y":2570101.5800000001}},{"attributes":{"ID":190164,"DIS_CODE":0,"TOWNNAME":"六甲區","LI":"二甲里","LIN":"5鄰","STREET":"建工街","SECT":" ","MAREA":" ","LANE":"１８１巷","ALLEY":"１弄","HOUSE_NO":"１１號","E_COORD97":182972.42000000001,"N_COORD97":2569419.1699999999,"ADDRESS":"建工街１８１巷１弄１１號","OBJECTID":190163},"geometry":{"x":182972.42000000086,"y":2569419.1699999999}},{"attributes":{"ID":190165,"DIS_CODE":0,"TOWNNAME":"六甲區","LI":"二甲里","LIN":"5鄰","STREET":"建工街","SECT":" ","MAREA":" ","LANE":"１８１巷","ALLEY":"１弄","HOUSE_NO":"１３號","E_COORD97":182971.60000000001,"N_COORD97":2569413.5899999999,"ADDRESS":"建工街１８１巷１弄１３號","OBJECTID":190164},"geometry":{"x":182971.59999999963,"y":2569413.5899999999}},{"attributes":{"ID":190166,"DIS_CODE":0,"TOWNNAME":"六甲區","LI":"二甲里","LIN":"5鄰","STREET":"建工街","SECT":" ","MAREA":" ","LANE":"１８１巷","ALLEY":"１弄","HOUSE_NO":"１５號","E_COORD97":182970.88,"N_COORD97":2569408.6499999999,"ADDRESS":"建工街１８１巷１弄１５號","OBJECTID":190165},"geometry":{"x":182970.88000000082,"y":2569408.6500000022}},{"attributes":{"ID":190167,"DIS_CODE":0,"TOWNNAME":"六甲區","LI":"二甲里","LIN":"5鄰","STREET":"建工街","SECT":" ","MAREA":" ","LANE":"１８１巷","ALLEY":"１弄","HOUSE_NO":"１７號","E_COORD97":182969.95999999999,"N_COORD97":2569403.8199999998,"ADDRESS":"建工街１８１巷１弄１７號","OBJECTID":190166},"geometry":{"x":182969.95999999996,"y":2569403.8200000022}},{"attributes":{"ID":190168,"DIS_CODE":0,"TOWNNAME":"六甲區","LI":"二甲里","LIN":"5鄰","STREET":"建工街","SECT":" ","MAREA":" ","LANE":"１８１巷","ALLEY":"１弄","HOUSE_NO":"１９號","E_COORD97":182969.04000000001,"N_COORD97":2569398.98,"ADDRESS":"建工街１８１巷１弄１９號","OBJECTID":190167},"geometry":{"x":182969.04000000004,"y":2569398.9800000023}},{"attributes":{"ID":190169,"DIS_CODE":0,"TOWNNAME":"仁德區","LI":"一甲里","LIN":"20鄰","STREET":"太乙六街","SECT":" ","MAREA":" ","LANE":" ","ALLEY":" ","HOUSE_NO":"７８號","E_COORD97":173184.37,"N_COORD97":2542239.25,"ADDRESS":"太乙六街７８號","OBJECTID":190168},"geometry":{"x":173184.37000000011,"y":2542239.2500000037}},{"attributes":{"ID":190170,"DIS_CODE":0,"TOWNNAME":"六甲區","LI":"二甲里","LIN":"5鄰","STREET":"建工街","SECT":" ","MAREA":" ","LANE":"１８１巷","ALLEY":"１弄","HOUSE_NO":"１號","E_COORD97":182976.35999999999,"N_COORD97":2569443.6000000001,"ADDRESS":"建工街１８１巷１弄１號","OBJECTID":190169},"geometry":{"x":182976.3600000022,"y":2569443.5999999996}},{"attributes":{"ID":190171,"DIS_CODE":0,"TOWNNAME":"六甲區","LI":"二甲里","LIN":"5鄰","STREET":"建工街","SECT":" ","MAREA":" ","LANE":"１８１巷","ALLEY":"１弄","HOUSE_NO":"２１號","E_COORD97":182967.98999999999,"N_COORD97":2569393.7400000002,"ADDRESS":"建工街１８１巷１弄２１號","OBJECTID":190170},"geometry":{"x":182967.99000000022,"y":2569393.7400000021}},{"attributes":{"ID":190172,"DIS_CODE":0,"TOWNNAME":"仁德區","LI":"一甲里","LIN":"20鄰","STREET":"太乙七街","SECT":" ","MAREA":" ","LANE":" ","ALLEY":" ","HOUSE_NO":"６６號","E_COORD97":173054.45000000001,"N_COORD97":2542024,"ADDRESS":"太乙七街６６號","OBJECTID":190171},"geometry":{"x":173054.45000000112,"y":2542024.0000000037}},{"attributes":{"ID":190173,"DIS_CODE":0,"TOWNNAME":"六甲區","LI":"二甲里","LIN":"5鄰","STREET":"建工街","SECT":" ","MAREA":" ","LANE":"１８１巷","ALLEY":"１弄","HOUSE_NO":"２３號","E_COORD97":182967.07000000001,"N_COORD97":2569388.9100000001,"ADDRESS":"建工街１８１巷１弄２３號","OBJECTID":190172},"geometry":{"x":182967.07000000123,"y":2569388.910000002}},{"attributes":{"ID":190174,"DIS_CODE":0,"TOWNNAME":"六甲區","LI":"二甲里","LIN":"5鄰","STREET":"建工街","SECT":" ","MAREA":" ","LANE":"１８１巷","ALLEY":"１弄","HOUSE_NO":"２５號","E_COORD97":182966.14999999999,"N_COORD97":2569384.0699999998,"ADDRESS":"建工街１８１巷１弄２５號","OBJECTID":190173},"geometry":{"x":182966.1500000013,"y":2569384.070000004}},{"attributes":{"ID":190175,"DIS_CODE":0,"TOWNNAME":"六甲區","LI":"二甲里","LIN":"5鄰","STREET":"建工街","SECT":" ","MAREA":" ","LANE":"１８１巷","ALLEY":"１弄","HOUSE_NO":"２７號","E_COORD97":182965.23000000001,"N_COORD97":2569379.2400000002,"ADDRESS":"建工街１８１巷１弄２７號","OBJECTID":190174},"geometry":{"x":182965.23000000045,"y":2569379.2399999984}},{"attributes":{"ID":190176,"DIS_CODE":0,"TOWNNAME":"六甲區","LI":"二甲里","LIN":"5鄰","STREET":"建工街","SECT":" ","MAREA":" ","LANE":"１８１巷","ALLEY":"１弄","HOUSE_NO":"２９號","E_COORD97":182964.31,"N_COORD97":2569374.4100000001,"ADDRESS":"建工街１８１巷１弄２９號","OBJECTID":190175},"geometry":{"x":182964.31000000052,"y":2569374.4100000001}},{"attributes":{"ID":190177,"DIS_CODE":0,"TOWNNAME":"六甲區","LI":"二甲里","LIN":"5鄰","STREET":"建工街","SECT":" ","MAREA":" ","LANE":"１８１巷","ALLEY":"１弄","HOUSE_NO":"３１號","E_COORD97":182963.39000000001,"N_COORD97":2569369.5699999998,"ADDRESS":"建工街１８１巷１弄３１號","OBJECTID":190176},"geometry":{"x":182963.38999999966,"y":2569369.5700000003}},{"attributes":{"ID":190178,"DIS_CODE":0,"TOWNNAME":"六甲區","LI":"二甲里","LIN":"5鄰","STREET":"建工街","SECT":" ","MAREA":" ","LANE":"１８１巷","ALLEY":"１弄","HOUSE_NO":"３３號","E_COORD97":182962.47,"N_COORD97":2569364.7400000002,"ADDRESS":"建工街１８１巷１弄３３號","OBJECTID":190177},"geometry":{"x":182962.46999999974,"y":2569364.7400000002}},{"attributes":{"ID":190179,"DIS_CODE":0,"TOWNNAME":"六甲區","LI":"二甲里","LIN":"5鄰","STREET":"建工街","SECT":" ","MAREA":" ","LANE":"１８１巷","ALLEY":"１弄","HOUSE_NO":"３５號","E_COORD97":182961.54999999999,"N_COORD97":2569359.9100000001,"ADDRESS":"建工街１８１巷１弄３５號","OBJECTID":190178},"geometry":{"x":182961.55000000075,"y":2569359.9100000001}},{"attributes":{"ID":190180,"DIS_CODE":0,"TOWNNAME":"六甲區","LI":"二甲里","LIN":"5鄰","STREET":"建工街","SECT":" ","MAREA":" ","LANE":"１８１巷","ALLEY":"１弄","HOUSE_NO":"３７號","E_COORD97":182960.62,"N_COORD97":2569355.0699999998,"ADDRESS":"建工街１８１巷１弄３７號","OBJECTID":190179},"geometry":{"x":182960.61999999918,"y":2569355.0700000022}},{"attributes":{"ID":190181,"DIS_CODE":0,"TOWNNAME":"六甲區","LI":"二甲里","LIN":"5鄰","STREET":"建工街","SECT":" ","MAREA":" ","LANE":"１８１巷","ALLEY":"１弄","HOUSE_NO":"３９號","E_COORD97":182959.70000000001,"N_COORD97":2569350.2400000002,"ADDRESS":"建工街１８１巷１弄３９號","OBJECTID":190180},"geometry":{"x":182959.70000000019,"y":2569350.2400000021}},{"attributes":{"ID":190182,"DIS_CODE":0,"TOWNNAME":"六甲區","LI":"二甲里","LIN":"5鄰","STREET":"建工街","SECT":" ","MAREA":" ","LANE":"１８１巷","ALLEY":"１弄","HOUSE_NO":"３號","E_COORD97":182975.54999999999,"N_COORD97":2569438.8199999998,"ADDRESS":"建工街１８１巷１弄３號","OBJECTID":190181},"geometry":{"x":182975.54999999981,"y":2569438.8200000003}},{"attributes":{"ID":190183,"DIS_CODE":0,"TOWNNAME":"六甲區","LI":"二甲里","LIN":"5鄰","STREET":"建工街","SECT":" ","MAREA":" ","LANE":"１８１巷","ALLEY":"１弄","HOUSE_NO":"４１號","E_COORD97":182958.75,"N_COORD97":2569345.23,"ADDRESS":"建工街１８１巷１弄４１號","OBJECTID":190182},"geometry":{"x":182958.75000000093,"y":2569345.2300000004}},{"attributes":{"ID":190184,"DIS_CODE":0,"TOWNNAME":"永康區","LI":"\u25A0行里","LIN":"42鄰","STREET":"永安二街","SECT":" ","MAREA":" ","LANE":" ","ALLEY":" ","HOUSE_NO":"９號","E_COORD97":172471.38,"N_COORD97":2549597.0800000001,"ADDRESS":"永安二街９號","OBJECTID":190183},"geometry":{"x":172471.38000000082,"y":2549597.0800000001}},{"attributes":{"ID":190185,"DIS_CODE":0,"TOWNNAME":"南區","LI":"新昌里","LIN":"4鄰","STREET":"夏林路","SECT":" ","MAREA":" ","LANE":" ","ALLEY":" ","HOUSE_NO":"９號","E_COORD97":167482.59,"N_COORD97":2542843.7599999998,"ADDRESS":"夏林路９號","OBJECTID":190184},"geometry":{"x":167482.59000000078,"y":2542843.7600000016}},{"attributes":{"ID":190186,"DIS_CODE":0,"TOWNNAME":"六甲區","LI":"二甲里","LIN":"5鄰","STREET":"建工街","SECT":" ","MAREA":" ","LANE":"１８１巷","ALLEY":"１弄","HOUSE_NO":"４３號","E_COORD97":182957.82999999999,"N_COORD97":2569340.3999999999,"ADDRESS":"建工街１８１巷１弄４３號","OBJECTID":190185},"geometry":{"x":182957.83000000101,"y":2569340.4000000004}},{"attributes":{"ID":190187,"DIS_CODE":0,"TOWNNAME":"永康區","LI":"西橋里","LIN":"4鄰","STREET":"中華西街","SECT":" ","MAREA":" ","LANE":" ","ALLEY":" ","HOUSE_NO":"１７號","E_COORD97":170806.09,"N_COORD97":2545948.4900000002,"ADDRESS":"中華西街１７號","OBJECTID":190186},"geometry":{"x":170806.08999999892,"y":2545948.4900000021}},{"attributes":{"ID":190188,"DIS_CODE":0,"TOWNNAME":"六甲區","LI":"二甲里","LIN":"5鄰","STREET":"建工街","SECT":" ","MAREA":" ","LANE":"１８１巷","ALLEY":"１弄","HOUSE_NO":"５號","E_COORD97":182974.63,"N_COORD97":2569433.6600000001,"ADDRESS":"建工街１８１巷１弄５號","OBJECTID":190187},"geometry":{"x":182974.63000000082,"y":2569433.6600000001}},{"attributes":{"ID":190189,"DIS_CODE":0,"TOWNNAME":"六甲區","LI":"二甲里","LIN":"5鄰","STREET":"建工街","SECT":" ","MAREA":" ","LANE":"１８１巷","ALLEY":"１弄","HOUSE_NO":"７號","E_COORD97":182973.78,"N_COORD97":2569428.4900000002,"ADDRESS":"建工街１８１巷１弄７號","OBJECTID":190188},"geometry":{"x":182973.78000000119,"y":2569428.4899999984}},{"attributes":{"ID":190190,"DIS_CODE":0,"TOWNNAME":"六甲區","LI":"二甲里","LIN":"5鄰","STREET":"建工街","SECT":" ","MAREA":" ","LANE":"１８１巷","ALLEY":"１弄","HOUSE_NO":"９號","E_COORD97":182973.34,"N_COORD97":2569423.8199999998,"ADDRESS":"建工街１８１巷１弄９號","OBJECTID":190189},"geometry":{"x":182973.34000000078,"y":2569423.8200000022}},{"attributes":{"ID":190191,"DIS_CODE":0,"TOWNNAME":"六甲區","LI":"甲南里","LIN":"5鄰","STREET":"珊瑚路","SECT":" ","MAREA":" ","LANE":"１７巷","ALLEY":"１１弄","HOUSE_NO":"１０號","E_COORD97":183686.48000000001,"N_COORD97":2569586.46,"ADDRESS":"珊瑚路１７巷１１弄１０號","OBJECTID":190190},"geometry":{"x":183686.48000000138,"y":2569586.4600000028}},{"attributes":{"ID":190192,"DIS_CODE":0,"TOWNNAME":"永康區","LI":"西灣里","LIN":"5鄰","STREET":"大灣五街","SECT":" ","MAREA":" ","LANE":" ","ALLEY":" ","HOUSE_NO":"７１號","E_COORD97":174687.34,"N_COORD97":2545259.5800000001,"ADDRESS":"大灣五街７１號","OBJECTID":190191},"geometry":{"x":174687.33999999985,"y":2545259.5800000001}},{"attributes":{"ID":190193,"DIS_CODE":0,"TOWNNAME":"六甲區","LI":"甲南里","LIN":"5鄰","STREET":"珊瑚路","SECT":" ","MAREA":" ","LANE":"１７巷","ALLEY":"１１弄","HOUSE_NO":"１號","E_COORD97":183696.26000000001,"N_COORD97":2569554.8199999998,"ADDRESS":"珊瑚路１７巷１１弄１號","OBJECTID":190192},"geometry":{"x":183696.25999999978,"y":2569554.8200000003}},{"attributes":{"ID":190194,"DIS_CODE":0,"TOWNNAME":"六甲區","LI":"甲南里","LIN":"5鄰","STREET":"珊瑚路","SECT":" ","MAREA":" ","LANE":"１７巷","ALLEY":"１１弄","HOUSE_NO":"２號","E_COORD97":183705.76999999999,"N_COORD97":2569576.1200000001,"ADDRESS":"珊瑚路１７巷１１弄２號","OBJECTID":190193},"geometry":{"x":183705.77000000048,"y":2569576.1200000029}},{"attributes":{"ID":190195,"DIS_CODE":0,"TOWNNAME":"仁德區","LI":"一甲里","LIN":"20鄰","STREET":"太乙六街","SECT":" ","MAREA":" ","LANE":" ","ALLEY":" ","HOUSE_NO":"６０號","E_COORD97":173191.57000000001,"N_COORD97":2542309.0099999998,"ADDRESS":"太乙六街６０號","OBJECTID":190194},"geometry":{"x":173191.5700000003,"y":2542309.0100000016}},{"attributes":{"ID":190196,"DIS_CODE":0,"TOWNNAME":"六甲區","LI":"甲南里","LIN":"5鄰","STREET":"珊瑚路","SECT":" ","MAREA":" ","LANE":"１７巷","ALLEY":"１１弄","HOUSE_NO":"３號","E_COORD97":183689.10000000001,"N_COORD97":2569558.6499999999,"ADDRESS":"珊瑚路１７巷１１弄３號","OBJECTID":190195},"geometry":{"x":183689.09999999963,"y":2569558.6500000004}},{"attributes":{"ID":190197,"DIS_CODE":0,"TOWNNAME":"六甲區","LI":"甲南里","LIN":"5鄰","STREET":"珊瑚路","SECT":" ","MAREA":" ","LANE":"１７巷","ALLEY":"１１弄","HOUSE_NO":"５號","E_COORD97":183682.70000000001,"N_COORD97":2569562.02,"ADDRESS":"珊瑚路１７巷１１弄５號","OBJECTID":190196},"geometry":{"x":183682.70000000112,"y":2569562.0199999996}},{"attributes":{"ID":190198,"DIS_CODE":0,"TOWNNAME":"六甲區","LI":"甲南里","LIN":"5鄰","STREET":"珊瑚路","SECT":" ","MAREA":" ","LANE":"１７巷","ALLEY":"１１弄","HOUSE_NO":"６號","E_COORD97":183699.45000000001,"N_COORD97":2569579.9199999999,"ADDRESS":"珊瑚路１７巷１１弄６號","OBJECTID":190197},"geometry":{"x":183699.45000000205,"y":2569579.9199999999}},{"attributes":{"ID":190199,"DIS_CODE":0,"TOWNNAME":"六甲區","LI":"甲南里","LIN":"5鄰","STREET":"珊瑚路","SECT":" ","MAREA":" ","LANE":"１７巷","ALLEY":"１１弄","HOUSE_NO":"７號","E_COORD97":183676.14999999999,"N_COORD97":2569565.2599999998,"ADDRESS":"珊瑚路１７巷１１弄７號","OBJECTID":190198},"geometry":{"x":183676.15000000224,"y":2569565.2600000035}},{"attributes":{"ID":190200,"DIS_CODE":0,"TOWNNAME":"六甲區","LI":"甲南里","LIN":"5鄰","STREET":"珊瑚路","SECT":" ","MAREA":" ","LANE":"１７巷","ALLEY":"１１弄","HOUSE_NO":"８號","E_COORD97":183692.84,"N_COORD97":2569583.48,"ADDRESS":"珊瑚路１７巷１１弄８號","OBJECTID":190199},"geometry":{"x":183692.83999999985,"y":2569583.4800000004}},{"attributes":{"ID":190201,"DIS_CODE":0,"TOWNNAME":"歸仁區","LI":"大廟里","LIN":"5鄰","STREET":"和順路","SECT":"二段","MAREA":" ","LANE":"１５１巷","ALLEY":"４２弄","HOUSE_NO":"１號","E_COORD97":176176.45000000001,"N_COORD97":2543464.98,"ADDRESS":"和順路二段１５１巷４２弄１號","OBJECTID":190200},"geometry":{"x":176176.45000000112,"y":2543464.9800000004}}]}