{"displayFieldName":"TOWNNAME","fieldAliases":{"ID":"ID","DIS_CODE":"DIS_CODE","TOWNNAME":"TOWNNAME","LI":"LI","LIN":"LIN","STREET":"STREET","SECT":"SECT","MAREA":"MAREA","LANE":"LANE","ALLEY":"ALLEY","HOUSE_NO":"HOUSE_NO","E_COORD97":"E_COORD97","N_COORD97":"N_COORD97","ADDRESS":"ADDRESS","OBJECTID":"OBJECTID"},"geometryType":"esriGeometryPoint","spatialReference":{"wkid":102443,"latestWkid":3826},"fields":[{"name":"ID","type":"esriFieldTypeDouble","alias":"ID"},{"name":"DIS_CODE","type":"esriFieldTypeInteger","alias":"DIS_CODE"},{"name":"TOWNNAME","type":"esriFieldTypeString","alias":"TOWNNAME","length":8},{"name":"LI","type":"esriFieldTypeString","alias":"LI","length":8},{"name":"LIN","type":"esriFieldTypeString","alias":"LIN","length":12},{"name":"STREET","type":"esriFieldTypeString","alias":"STREET","length":20},{"name":"SECT","type":"esriFieldTypeString","alias":"SECT","length":8},{"name":"MAREA","type":"esriFieldTypeString","alias":"MAREA","length":12},{"name":"LANE","type":"esriFieldTypeString","alias":"LANE","length":10},{"name":"ALLEY","type":"esriFieldTypeString","alias":"ALLEY","length":10},{"name":"HOUSE_NO","type":"esriFieldTypeString","alias":"HOUSE_NO","length":20},{"name":"E_COORD97","type":"esriFieldTypeDouble","alias":"E_COORD97"},{"name":"N_COORD97","type":"esriFieldTypeDouble","alias":"N_COORD97"},{"name":"ADDRESS","type":"esriFieldTypeString","alias":"ADDRESS","length":50},{"name":"OBJECTID","type":"esriFieldTypeOID","alias":"OBJECTID"}],"features":[{"attributes":{"ID":257005,"DIS_CODE":0,"TOWNNAME":"永康區","LI":"五王里","LIN":"27鄰","STREET":"五福街","SECT":" ","MAREA":" ","LANE":"１１０巷","ALLEY":" ","HOUSE_NO":"２５號","E_COORD97":171587.60999999999,"N_COORD97":2545913.1000000001,"ADDRESS":"五福街１１０巷２５號","OBJECTID":257001},"geometry":{"x":171587.61000000034,"y":2545913.1000000015}},{"attributes":{"ID":257006,"DIS_CODE":0,"TOWNNAME":"南區","LI":"開南里","LIN":"17鄰","STREET":"新建路","SECT":" ","MAREA":" ","LANE":"２４巷","ALLEY":" ","HOUSE_NO":"１號七樓","E_COORD97":166424.38,"N_COORD97":2541098.9300000002,"ADDRESS":"新建路２４巷１號七樓","OBJECTID":257002},"geometry":{"x":166424.38000000082,"y":2541098.9300000016}},{"attributes":{"ID":257007,"DIS_CODE":0,"TOWNNAME":"南區","LI":"開南里","LIN":"17鄰","STREET":"新建路","SECT":" ","MAREA":" ","LANE":"２４巷","ALLEY":" ","HOUSE_NO":"１號七樓之１","E_COORD97":166424.38,"N_COORD97":2541098.9300000002,"ADDRESS":"新建路２４巷１號七樓之１","OBJECTID":257003},"geometry":{"x":166424.38000000082,"y":2541098.9300000016}},{"attributes":{"ID":257008,"DIS_CODE":0,"TOWNNAME":"南區","LI":"開南里","LIN":"17鄰","STREET":"新建路","SECT":" ","MAREA":" ","LANE":"２４巷","ALLEY":" ","HOUSE_NO":"１號七樓之２","E_COORD97":166424.38,"N_COORD97":2541098.9300000002,"ADDRESS":"新建路２４巷１號七樓之２","OBJECTID":257004},"geometry":{"x":166424.38000000082,"y":2541098.9300000016}},{"attributes":{"ID":257009,"DIS_CODE":0,"TOWNNAME":"南區","LI":"開南里","LIN":"17鄰","STREET":"新建路","SECT":" ","MAREA":" ","LANE":"２４巷","ALLEY":" ","HOUSE_NO":"１號九樓之１","E_COORD97":166424.38,"N_COORD97":2541098.9300000002,"ADDRESS":"新建路２４巷１號九樓之１","OBJECTID":257005},"geometry":{"x":166424.38000000082,"y":2541098.9300000016}},{"attributes":{"ID":257010,"DIS_CODE":0,"TOWNNAME":"南區","LI":"開南里","LIN":"17鄰","STREET":"新建路","SECT":" ","MAREA":" ","LANE":"２４巷","ALLEY":" ","HOUSE_NO":"１號九樓之２","E_COORD97":166424.38,"N_COORD97":2541098.9300000002,"ADDRESS":"新建路２４巷１號九樓之２","OBJECTID":257006},"geometry":{"x":166424.38000000082,"y":2541098.9300000016}},{"attributes":{"ID":257011,"DIS_CODE":0,"TOWNNAME":"南區","LI":"開南里","LIN":"17鄰","STREET":"新建路","SECT":" ","MAREA":" ","LANE":"２４巷","ALLEY":" ","HOUSE_NO":"１號九樓之３","E_COORD97":166424.38,"N_COORD97":2541098.9300000002,"ADDRESS":"新建路２４巷１號九樓之３","OBJECTID":257007},"geometry":{"x":166424.38000000082,"y":2541098.9300000016}},{"attributes":{"ID":257012,"DIS_CODE":0,"TOWNNAME":"南區","LI":"開南里","LIN":"17鄰","STREET":"新建路","SECT":" ","MAREA":" ","LANE":"２４巷","ALLEY":" ","HOUSE_NO":"１號二樓","E_COORD97":166424.38,"N_COORD97":2541098.9300000002,"ADDRESS":"新建路２４巷１號二樓","OBJECTID":257008},"geometry":{"x":166424.38000000082,"y":2541098.9300000016}},{"attributes":{"ID":257013,"DIS_CODE":0,"TOWNNAME":"新營區","LI":"民榮里","LIN":"24鄰","STREET":"裕民路","SECT":" ","MAREA":" ","LANE":" ","ALLEY":" ","HOUSE_NO":"１４之２號五樓之６","E_COORD97":179132.57000000001,"N_COORD97":2577936.8199999998,"ADDRESS":"裕民路１４之２號五樓之６","OBJECTID":257009},"geometry":{"x":179132.57000000123,"y":2577936.8200000022}},{"attributes":{"ID":257014,"DIS_CODE":0,"TOWNNAME":"新營區","LI":"民榮里","LIN":"24鄰","STREET":"裕民路","SECT":" ","MAREA":" ","LANE":" ","ALLEY":" ","HOUSE_NO":"１４之２號四樓之５","E_COORD97":179132.62,"N_COORD97":2577936.8199999998,"ADDRESS":"裕民路１４之２號四樓之５","OBJECTID":257010},"geometry":{"x":179132.62000000011,"y":2577936.8200000022}},{"attributes":{"ID":257015,"DIS_CODE":0,"TOWNNAME":"新營區","LI":"民榮里","LIN":"24鄰","STREET":"裕民路","SECT":" ","MAREA":" ","LANE":" ","ALLEY":" ","HOUSE_NO":"１４之２號七樓之６","E_COORD97":179132.57000000001,"N_COORD97":2577936.8199999998,"ADDRESS":"裕民路１４之２號七樓之６","OBJECTID":257011},"geometry":{"x":179132.57000000123,"y":2577936.8200000022}},{"attributes":{"ID":257016,"DIS_CODE":0,"TOWNNAME":"新營區","LI":"民榮里","LIN":"24鄰","STREET":"裕民路","SECT":" ","MAREA":" ","LANE":" ","ALLEY":" ","HOUSE_NO":"１４之２號六樓之３","E_COORD97":179132.56,"N_COORD97":2577936.8199999998,"ADDRESS":"裕民路１４之２號六樓之３","OBJECTID":257012},"geometry":{"x":179132.55999999959,"y":2577936.8200000022}},{"attributes":{"ID":257017,"DIS_CODE":0,"TOWNNAME":"新營區","LI":"民榮里","LIN":"24鄰","STREET":"裕民路","SECT":" ","MAREA":" ","LANE":" ","ALLEY":" ","HOUSE_NO":"１４之２號四樓之２","E_COORD97":179132.60000000001,"N_COORD97":2577936.8199999998,"ADDRESS":"裕民路１４之２號四樓之２","OBJECTID":257013},"geometry":{"x":179132.60000000149,"y":2577936.8200000022}},{"attributes":{"ID":257018,"DIS_CODE":0,"TOWNNAME":"新營區","LI":"民榮里","LIN":"24鄰","STREET":"裕民路","SECT":" ","MAREA":" ","LANE":" ","ALLEY":" ","HOUSE_NO":"１４之２號四樓之７","E_COORD97":179132.48999999999,"N_COORD97":2577936.8199999998,"ADDRESS":"裕民路１４之２號四樓之７","OBJECTID":257014},"geometry":{"x":179132.49000000115,"y":2577936.8200000022}},{"attributes":{"ID":257019,"DIS_CODE":0,"TOWNNAME":"新營區","LI":"民榮里","LIN":"24鄰","STREET":"裕民路","SECT":" ","MAREA":" ","LANE":" ","ALLEY":" ","HOUSE_NO":"１４之３號三樓","E_COORD97":179126.82000000001,"N_COORD97":2577939.0699999998,"ADDRESS":"裕民路１４之３號三樓","OBJECTID":257015},"geometry":{"x":179126.82000000216,"y":2577939.0700000022}},{"attributes":{"ID":257020,"DIS_CODE":0,"TOWNNAME":"關廟區","LI":"下湖里","LIN":"1鄰","STREET":"關新路","SECT":"一段","MAREA":" ","LANE":" ","ALLEY":" ","HOUSE_NO":"４５號","E_COORD97":179989.35678,"N_COORD97":2541787.2237499999,"ADDRESS":"關新路一段４５號","OBJECTID":257016},"geometry":{"x":179989.35678000096,"y":2541787.2237470001}},{"attributes":{"ID":257021,"DIS_CODE":0,"TOWNNAME":"永康區","LI":"二王里","LIN":"27鄰","STREET":"中山南路","SECT":" ","MAREA":" ","LANE":"５４４巷","ALLEY":" ","HOUSE_NO":"６８號","E_COORD97":172322.04999999999,"N_COORD97":2546307.75,"ADDRESS":"中山南路５４４巷６８號","OBJECTID":257017},"geometry":{"x":172322.05000000075,"y":2546307.7500000037}},{"attributes":{"ID":257022,"DIS_CODE":0,"TOWNNAME":"永康區","LI":"二王里","LIN":"27鄰","STREET":"中山南路","SECT":" ","MAREA":" ","LANE":"５４４巷","ALLEY":" ","HOUSE_NO":"８８號","E_COORD97":172316.14999999999,"N_COORD97":2546252.46,"ADDRESS":"中山南路５４４巷８８號","OBJECTID":257018},"geometry":{"x":172316.15000000037,"y":2546252.4600000009}},{"attributes":{"ID":257023,"DIS_CODE":0,"TOWNNAME":"永康區","LI":"二王里","LIN":"27鄰","STREET":"中山南路","SECT":" ","MAREA":" ","LANE":"５４４巷","ALLEY":" ","HOUSE_NO":"８４號","E_COORD97":172317.01999999999,"N_COORD97":2546260.96,"ADDRESS":"中山南路５４４巷８４號","OBJECTID":257019},"geometry":{"x":172317.02000000048,"y":2546260.9600000028}},{"attributes":{"ID":257024,"DIS_CODE":0,"TOWNNAME":"東區","LI":"虎尾里","LIN":"27鄰","STREET":"自由路","SECT":"三段","MAREA":" ","LANE":" ","ALLEY":" ","HOUSE_NO":"９０號","E_COORD97":171870.04999999999,"N_COORD97":2542019.5600000001,"ADDRESS":"自由路三段９０號","OBJECTID":257020},"geometry":{"x":171870.05000000075,"y":2542019.5600000005}},{"attributes":{"ID":257025,"DIS_CODE":0,"TOWNNAME":"東區","LI":"虎尾里","LIN":"27鄰","STREET":"自由路","SECT":"三段","MAREA":" ","LANE":" ","ALLEY":" ","HOUSE_NO":"９２號","E_COORD97":171870.76999999999,"N_COORD97":2542024.3799999999,"ADDRESS":"自由路三段９２號","OBJECTID":257021},"geometry":{"x":171870.76999999955,"y":2542024.3800000008}},{"attributes":{"ID":257026,"DIS_CODE":0,"TOWNNAME":"東區","LI":"忠孝里","LIN":"27鄰","STREET":"榮譽街","SECT":" ","MAREA":" ","LANE":"８４巷","ALLEY":" ","HOUSE_NO":"２５號","E_COORD97":169755.89000000001,"N_COORD97":2541651.25,"ADDRESS":"榮譽街８４巷２５號","OBJECTID":257022},"geometry":{"x":169755.88999999966,"y":2541651.25}},{"attributes":{"ID":257027,"DIS_CODE":0,"TOWNNAME":"東區","LI":"東明里","LIN":"27鄰","STREET":"東安路","SECT":" ","MAREA":" ","LANE":"１２巷","ALLEY":" ","HOUSE_NO":"２２號","E_COORD97":170711.48000000001,"N_COORD97":2543473.75,"ADDRESS":"東安路１２巷２２號","OBJECTID":257023},"geometry":{"x":170711.48000000138,"y":2543473.7500000019}},{"attributes":{"ID":257028,"DIS_CODE":0,"TOWNNAME":"東區","LI":"東明里","LIN":"27鄰","STREET":"東安路","SECT":" ","MAREA":" ","LANE":"１２巷","ALLEY":" ","HOUSE_NO":"２４號","E_COORD97":170721.04999999999,"N_COORD97":2543471.1600000001,"ADDRESS":"東安路１２巷２４號","OBJECTID":257024},"geometry":{"x":170721.04999999981,"y":2543471.160000002}},{"attributes":{"ID":257029,"DIS_CODE":0,"TOWNNAME":"東區","LI":"東明里","LIN":"27鄰","STREET":"東安路","SECT":" ","MAREA":" ","LANE":"１２巷","ALLEY":" ","HOUSE_NO":"３４號","E_COORD97":170765.01000000001,"N_COORD97":2543456.9500000002,"ADDRESS":"東安路１２巷３４號","OBJECTID":257025},"geometry":{"x":170765.01000000071,"y":2543456.9499999993}},{"attributes":{"ID":257030,"DIS_CODE":0,"TOWNNAME":"新市區","LI":"新市里","LIN":"27鄰","STREET":"復興路","SECT":" ","MAREA":" ","LANE":"６巷","ALLEY":" ","HOUSE_NO":"１３號","E_COORD97":177864.53,"N_COORD97":2553348.0299999998,"ADDRESS":"復興路６巷１３號","OBJECTID":257026},"geometry":{"x":177864.53000000119,"y":2553348.0300000012}},{"attributes":{"ID":257031,"DIS_CODE":0,"TOWNNAME":"南區","LI":"開南里","LIN":"17鄰","STREET":"新建路","SECT":" ","MAREA":" ","LANE":"２４巷","ALLEY":" ","HOUSE_NO":"１號二樓之１","E_COORD97":166424.38,"N_COORD97":2541098.9300000002,"ADDRESS":"新建路２４巷１號二樓之１","OBJECTID":257027},"geometry":{"x":166424.38000000082,"y":2541098.9300000016}},{"attributes":{"ID":257032,"DIS_CODE":0,"TOWNNAME":"新營區","LI":"新北里","LIN":"26鄰","STREET":"民治路","SECT":" ","MAREA":" ","LANE":"１５６巷","ALLEY":" ","HOUSE_NO":"１８號","E_COORD97":179151.79000000001,"N_COORD97":2578763.9100000001,"ADDRESS":"民治路１５６巷１８號","OBJECTID":257028},"geometry":{"x":179151.79000000004,"y":2578763.910000002}},{"attributes":{"ID":257033,"DIS_CODE":0,"TOWNNAME":"南區","LI":"開南里","LIN":"17鄰","STREET":"新建路","SECT":" ","MAREA":" ","LANE":"２４巷","ALLEY":" ","HOUSE_NO":"１號二樓之２","E_COORD97":166424.38,"N_COORD97":2541098.9300000002,"ADDRESS":"新建路２４巷１號二樓之２","OBJECTID":257029},"geometry":{"x":166424.38000000082,"y":2541098.9300000016}},{"attributes":{"ID":257034,"DIS_CODE":0,"TOWNNAME":"南區","LI":"開南里","LIN":"17鄰","STREET":"新建路","SECT":" ","MAREA":" ","LANE":"２４巷","ALLEY":" ","HOUSE_NO":"１號二樓之３","E_COORD97":166424.38,"N_COORD97":2541098.9300000002,"ADDRESS":"新建路２４巷１號二樓之３","OBJECTID":257030},"geometry":{"x":166424.38000000082,"y":2541098.9300000016}},{"attributes":{"ID":257035,"DIS_CODE":0,"TOWNNAME":"南區","LI":"開南里","LIN":"17鄰","STREET":"新建路","SECT":" ","MAREA":" ","LANE":"２４巷","ALLEY":" ","HOUSE_NO":"１號八樓之１","E_COORD97":166424.38,"N_COORD97":2541098.9300000002,"ADDRESS":"新建路２４巷１號八樓之１","OBJECTID":257031},"geometry":{"x":166424.38000000082,"y":2541098.9300000016}},{"attributes":{"ID":257036,"DIS_CODE":0,"TOWNNAME":"南區","LI":"開南里","LIN":"17鄰","STREET":"新建路","SECT":" ","MAREA":" ","LANE":"２４巷","ALLEY":" ","HOUSE_NO":"１號八樓之２","E_COORD97":166424.38,"N_COORD97":2541098.9300000002,"ADDRESS":"新建路２４巷１號八樓之２","OBJECTID":257032},"geometry":{"x":166424.38000000082,"y":2541098.9300000016}},{"attributes":{"ID":257037,"DIS_CODE":0,"TOWNNAME":"南區","LI":"開南里","LIN":"17鄰","STREET":"新建路","SECT":" ","MAREA":" ","LANE":"２４巷","ALLEY":" ","HOUSE_NO":"１號八樓之３","E_COORD97":166424.38,"N_COORD97":2541098.9300000002,"ADDRESS":"新建路２４巷１號八樓之３","OBJECTID":257033},"geometry":{"x":166424.38000000082,"y":2541098.9300000016}},{"attributes":{"ID":257038,"DIS_CODE":0,"TOWNNAME":"南區","LI":"開南里","LIN":"17鄰","STREET":"新建路","SECT":" ","MAREA":" ","LANE":"２４巷","ALLEY":" ","HOUSE_NO":"１號十一樓","E_COORD97":166424.38,"N_COORD97":2541098.9300000002,"ADDRESS":"新建路２４巷１號十一樓","OBJECTID":257034},"geometry":{"x":166424.38000000082,"y":2541098.9300000016}},{"attributes":{"ID":257039,"DIS_CODE":0,"TOWNNAME":"新營區","LI":"民榮里","LIN":"24鄰","STREET":"裕民路","SECT":" ","MAREA":" ","LANE":" ","ALLEY":" ","HOUSE_NO":"１４之３號四樓","E_COORD97":179126.82000000001,"N_COORD97":2577939.0699999998,"ADDRESS":"裕民路１４之３號四樓","OBJECTID":257035},"geometry":{"x":179126.82000000216,"y":2577939.0700000022}},{"attributes":{"ID":257040,"DIS_CODE":0,"TOWNNAME":"南區","LI":"文華里","LIN":"24鄰","STREET":"文南二街","SECT":" ","MAREA":" ","LANE":" ","ALLEY":" ","HOUSE_NO":"６２號五樓","E_COORD97":166818.88,"N_COORD97":2542905.75,"ADDRESS":"文南二街６２號五樓","OBJECTID":257036},"geometry":{"x":166818.88000000175,"y":2542905.75}},{"attributes":{"ID":257041,"DIS_CODE":0,"TOWNNAME":"東區","LI":"泉南里","LIN":"24鄰","STREET":"長榮路","SECT":"一段","MAREA":" ","LANE":" ","ALLEY":" ","HOUSE_NO":"１號十二樓之１","E_COORD97":169592.67999999999,"N_COORD97":2542569.48,"ADDRESS":"長榮路一段１號十二樓之１","OBJECTID":257037},"geometry":{"x":169592.6799999997,"y":2542569.4800000004}},{"attributes":{"ID":257042,"DIS_CODE":0,"TOWNNAME":"東區","LI":"泉南里","LIN":"24鄰","STREET":"長榮路","SECT":"一段","MAREA":" ","LANE":" ","ALLEY":" ","HOUSE_NO":"１號十三樓之１","E_COORD97":169592.67999999999,"N_COORD97":2542569.48,"ADDRESS":"長榮路一段１號十三樓之１","OBJECTID":257038},"geometry":{"x":169592.6799999997,"y":2542569.4800000004}},{"attributes":{"ID":257043,"DIS_CODE":0,"TOWNNAME":"東區","LI":"泉南里","LIN":"24鄰","STREET":"長榮路","SECT":"一段","MAREA":" ","LANE":" ","ALLEY":" ","HOUSE_NO":"１號十四樓之１","E_COORD97":169592.67999999999,"N_COORD97":2542569.48,"ADDRESS":"長榮路一段１號十四樓之１","OBJECTID":257039},"geometry":{"x":169592.6799999997,"y":2542569.4800000004}},{"attributes":{"ID":257044,"DIS_CODE":0,"TOWNNAME":"東區","LI":"泉南里","LIN":"24鄰","STREET":"長榮路","SECT":"一段","MAREA":" ","LANE":" ","ALLEY":" ","HOUSE_NO":"１號三樓之２","E_COORD97":169592.67999999999,"N_COORD97":2542569.48,"ADDRESS":"長榮路一段１號三樓之２","OBJECTID":257040},"geometry":{"x":169592.6799999997,"y":2542569.4800000004}},{"attributes":{"ID":257045,"DIS_CODE":0,"TOWNNAME":"東區","LI":"泉南里","LIN":"24鄰","STREET":"長榮路","SECT":"一段","MAREA":" ","LANE":" ","ALLEY":" ","HOUSE_NO":"１號四樓之２","E_COORD97":169592.67999999999,"N_COORD97":2542569.48,"ADDRESS":"長榮路一段１號四樓之２","OBJECTID":257041},"geometry":{"x":169592.6799999997,"y":2542569.4800000004}},{"attributes":{"ID":257046,"DIS_CODE":0,"TOWNNAME":"東區","LI":"泉南里","LIN":"24鄰","STREET":"長榮路","SECT":"一段","MAREA":" ","LANE":" ","ALLEY":" ","HOUSE_NO":"１號五樓之２","E_COORD97":169592.67999999999,"N_COORD97":2542569.48,"ADDRESS":"長榮路一段１號五樓之２","OBJECTID":257042},"geometry":{"x":169592.6799999997,"y":2542569.4800000004}},{"attributes":{"ID":257047,"DIS_CODE":0,"TOWNNAME":"東區","LI":"泉南里","LIN":"24鄰","STREET":"長榮路","SECT":"一段","MAREA":" ","LANE":" ","ALLEY":" ","HOUSE_NO":"１號六樓之２","E_COORD97":169592.67999999999,"N_COORD97":2542569.48,"ADDRESS":"長榮路一段１號六樓之２","OBJECTID":257043},"geometry":{"x":169592.6799999997,"y":2542569.4800000004}},{"attributes":{"ID":257048,"DIS_CODE":0,"TOWNNAME":"東區","LI":"泉南里","LIN":"24鄰","STREET":"長榮路","SECT":"一段","MAREA":" ","LANE":" ","ALLEY":" ","HOUSE_NO":"１號七樓之２","E_COORD97":169592.67999999999,"N_COORD97":2542569.48,"ADDRESS":"長榮路一段１號七樓之２","OBJECTID":257044},"geometry":{"x":169592.6799999997,"y":2542569.4800000004}},{"attributes":{"ID":257049,"DIS_CODE":0,"TOWNNAME":"仁德區","LI":"仁德里","LIN":"27鄰","STREET":"淨修街","SECT":" ","MAREA":" ","LANE":"１７５巷","ALLEY":" ","HOUSE_NO":"３６號","E_COORD97":171989.98999999999,"N_COORD97":2541260.6899999999,"ADDRESS":"淨修街１７５巷３６號","OBJECTID":257045},"geometry":{"x":171989.99000000022,"y":2541260.6900000013}},{"attributes":{"ID":257050,"DIS_CODE":0,"TOWNNAME":"仁德區","LI":"太子里","LIN":"27鄰","STREET":"太子四街","SECT":" ","MAREA":" ","LANE":"５巷","ALLEY":" ","HOUSE_NO":"１４號","E_COORD97":173262.87,"N_COORD97":2543305.0099999998,"ADDRESS":"太子四街５巷１４號","OBJECTID":257046},"geometry":{"x":173262.87000000104,"y":2543305.0099999979}},{"attributes":{"ID":257051,"DIS_CODE":0,"TOWNNAME":"仁德區","LI":"成功里","LIN":"27鄰","STREET":"成功一街","SECT":" ","MAREA":" ","LANE":"２４巷","ALLEY":" ","HOUSE_NO":"２號","E_COORD97":170516.26999999999,"N_COORD97":2540134.77,"ADDRESS":"成功一街２４巷２號","OBJECTID":257047},"geometry":{"x":170516.26999999955,"y":2540134.7700000014}},{"attributes":{"ID":257052,"DIS_CODE":0,"TOWNNAME":"仁德區","LI":"太子里","LIN":"27鄰","STREET":"太子四街","SECT":" ","MAREA":" ","LANE":"５巷","ALLEY":" ","HOUSE_NO":"１０號","E_COORD97":173216.26000000001,"N_COORD97":2543314.7599999998,"ADDRESS":"太子四街５巷１０號","OBJECTID":257048},"geometry":{"x":173216.26000000071,"y":2543314.7600000016}},{"attributes":{"ID":257053,"DIS_CODE":0,"TOWNNAME":"仁德區","LI":"成功里","LIN":"27鄰","STREET":"成功一街","SECT":" ","MAREA":" ","LANE":"２８巷","ALLEY":" ","HOUSE_NO":"８號","E_COORD97":170508.70000000001,"N_COORD97":2540108.77,"ADDRESS":"成功一街２８巷８號","OBJECTID":257049},"geometry":{"x":170508.70000000019,"y":2540108.7699999996}},{"attributes":{"ID":257054,"DIS_CODE":0,"TOWNNAME":"仁德區","LI":"仁德里","LIN":"27鄰","STREET":"淨修街","SECT":" ","MAREA":" ","LANE":"１７５巷","ALLEY":" ","HOUSE_NO":"３２號","E_COORD97":171981.72,"N_COORD97":2541259.6899999999,"ADDRESS":"淨修街１７５巷３２號","OBJECTID":257050},"geometry":{"x":171981.7200000016,"y":2541259.6900000013}},{"attributes":{"ID":257055,"DIS_CODE":0,"TOWNNAME":"仁德區","LI":"成功里","LIN":"27鄰","STREET":"成功一街","SECT":" ","MAREA":" ","LANE":"２８巷","ALLEY":" ","HOUSE_NO":"４號","E_COORD97":170521.57999999999,"N_COORD97":2540109.52,"ADDRESS":"成功一街２８巷４號","OBJECTID":257051},"geometry":{"x":170521.57999999914,"y":2540109.5199999996}},{"attributes":{"ID":257056,"DIS_CODE":0,"TOWNNAME":"南區","LI":"開南里","LIN":"17鄰","STREET":"新建路","SECT":" ","MAREA":" ","LANE":"２４巷","ALLEY":" ","HOUSE_NO":"１號十一樓之１","E_COORD97":166424.38,"N_COORD97":2541098.9300000002,"ADDRESS":"新建路２４巷１號十一樓之１","OBJECTID":257052},"geometry":{"x":166424.38000000082,"y":2541098.9300000016}},{"attributes":{"ID":257057,"DIS_CODE":0,"TOWNNAME":"永康區","LI":"六合里","LIN":"17鄰","STREET":"中華路","SECT":" ","MAREA":" ","LANE":"５０５巷","ALLEY":" ","HOUSE_NO":"５號","E_COORD97":171199.45999999999,"N_COORD97":2545804.25,"ADDRESS":"中華路５０５巷５號","OBJECTID":257053},"geometry":{"x":171199.46000000089,"y":2545804.25}},{"attributes":{"ID":257058,"DIS_CODE":0,"TOWNNAME":"南區","LI":"開南里","LIN":"17鄰","STREET":"新建路","SECT":" ","MAREA":" ","LANE":"２４巷","ALLEY":" ","HOUSE_NO":"１號十二樓","E_COORD97":166424.38,"N_COORD97":2541098.9300000002,"ADDRESS":"新建路２４巷１號十二樓","OBJECTID":257054},"geometry":{"x":166424.38000000082,"y":2541098.9300000016}},{"attributes":{"ID":257059,"DIS_CODE":0,"TOWNNAME":"南區","LI":"開南里","LIN":"17鄰","STREET":"新建路","SECT":" ","MAREA":" ","LANE":"２４巷","ALLEY":" ","HOUSE_NO":"１號十二樓之１","E_COORD97":166424.38,"N_COORD97":2541098.9300000002,"ADDRESS":"新建路２４巷１號十二樓之１","OBJECTID":257055},"geometry":{"x":166424.38000000082,"y":2541098.9300000016}},{"attributes":{"ID":257060,"DIS_CODE":0,"TOWNNAME":"南區","LI":"開南里","LIN":"17鄰","STREET":"新建路","SECT":" ","MAREA":" ","LANE":"２４巷","ALLEY":" ","HOUSE_NO":"１號十二樓之２","E_COORD97":166424.38,"N_COORD97":2541098.9300000002,"ADDRESS":"新建路２４巷１號十二樓之２","OBJECTID":257056},"geometry":{"x":166424.38000000082,"y":2541098.9300000016}},{"attributes":{"ID":257061,"DIS_CODE":0,"TOWNNAME":"南區","LI":"開南里","LIN":"17鄰","STREET":"新建路","SECT":" ","MAREA":" ","LANE":"２４巷","ALLEY":" ","HOUSE_NO":"１號十二樓之３","E_COORD97":166424.38,"N_COORD97":2541098.9300000002,"ADDRESS":"新建路２４巷１號十二樓之３","OBJECTID":257057},"geometry":{"x":166424.38000000082,"y":2541098.9300000016}},{"attributes":{"ID":257062,"DIS_CODE":0,"TOWNNAME":"南區","LI":"開南里","LIN":"17鄰","STREET":"新建路","SECT":" ","MAREA":" ","LANE":"２４巷","ALLEY":" ","HOUSE_NO":"１號十三樓","E_COORD97":166424.38,"N_COORD97":2541098.9300000002,"ADDRESS":"新建路２４巷１號十三樓","OBJECTID":257058},"geometry":{"x":166424.38000000082,"y":2541098.9300000016}},{"attributes":{"ID":257063,"DIS_CODE":0,"TOWNNAME":"南區","LI":"開南里","LIN":"17鄰","STREET":"新建路","SECT":" ","MAREA":" ","LANE":"２４巷","ALLEY":" ","HOUSE_NO":"１號十三樓之１","E_COORD97":166424.38,"N_COORD97":2541098.9300000002,"ADDRESS":"新建路２４巷１號十三樓之１","OBJECTID":257059},"geometry":{"x":166424.38000000082,"y":2541098.9300000016}},{"attributes":{"ID":257064,"DIS_CODE":0,"TOWNNAME":"歸仁區","LI":"崙頂里","LIN":"21鄰","STREET":"崙頂二街","SECT":" ","MAREA":" ","LANE":"５０巷","ALLEY":" ","HOUSE_NO":"１０號","E_COORD97":177784.49428700001,"N_COORD97":2540006.9527199999,"ADDRESS":"崙頂二街５０巷１０號","OBJECTID":257060},"geometry":{"x":177784.49428700004,"y":2540006.9527240023}},{"attributes":{"ID":257065,"DIS_CODE":0,"TOWNNAME":"東區","LI":"泉南里","LIN":"24鄰","STREET":"長榮路","SECT":"一段","MAREA":" ","LANE":" ","ALLEY":" ","HOUSE_NO":"１號八樓之２","E_COORD97":169592.67999999999,"N_COORD97":2542569.48,"ADDRESS":"長榮路一段１號八樓之２","OBJECTID":257061},"geometry":{"x":169592.6799999997,"y":2542569.4800000004}},{"attributes":{"ID":257066,"DIS_CODE":0,"TOWNNAME":"東區","LI":"泉南里","LIN":"24鄰","STREET":"長榮路","SECT":"一段","MAREA":" ","LANE":" ","ALLEY":" ","HOUSE_NO":"１號九樓之２","E_COORD97":169592.67999999999,"N_COORD97":2542569.48,"ADDRESS":"長榮路一段１號九樓之２","OBJECTID":257062},"geometry":{"x":169592.6799999997,"y":2542569.4800000004}},{"attributes":{"ID":257067,"DIS_CODE":0,"TOWNNAME":"東區","LI":"泉南里","LIN":"24鄰","STREET":"長榮路","SECT":"一段","MAREA":" ","LANE":" ","ALLEY":" ","HOUSE_NO":"１號十樓之２","E_COORD97":169592.67999999999,"N_COORD97":2542569.48,"ADDRESS":"長榮路一段１號十樓之２","OBJECTID":257063},"geometry":{"x":169592.6799999997,"y":2542569.4800000004}},{"attributes":{"ID":257068,"DIS_CODE":0,"TOWNNAME":"東區","LI":"泉南里","LIN":"24鄰","STREET":"長榮路","SECT":"一段","MAREA":" ","LANE":" ","ALLEY":" ","HOUSE_NO":"１號十一樓之２","E_COORD97":169592.67999999999,"N_COORD97":2542569.48,"ADDRESS":"長榮路一段１號十一樓之２","OBJECTID":257064},"geometry":{"x":169592.6799999997,"y":2542569.4800000004}},{"attributes":{"ID":257069,"DIS_CODE":0,"TOWNNAME":"東區","LI":"泉南里","LIN":"24鄰","STREET":"長榮路","SECT":"一段","MAREA":" ","LANE":" ","ALLEY":" ","HOUSE_NO":"１號十二樓之２","E_COORD97":169592.67999999999,"N_COORD97":2542569.48,"ADDRESS":"長榮路一段１號十二樓之２","OBJECTID":257065},"geometry":{"x":169592.6799999997,"y":2542569.4800000004}},{"attributes":{"ID":257070,"DIS_CODE":0,"TOWNNAME":"東區","LI":"泉南里","LIN":"24鄰","STREET":"長榮路","SECT":"一段","MAREA":" ","LANE":" ","ALLEY":" ","HOUSE_NO":"１號十三樓之２","E_COORD97":169592.67999999999,"N_COORD97":2542569.48,"ADDRESS":"長榮路一段１號十三樓之２","OBJECTID":257066},"geometry":{"x":169592.6799999997,"y":2542569.4800000004}},{"attributes":{"ID":257071,"DIS_CODE":0,"TOWNNAME":"東區","LI":"泉南里","LIN":"24鄰","STREET":"長榮路","SECT":"一段","MAREA":" ","LANE":" ","ALLEY":" ","HOUSE_NO":"１號十四樓之２","E_COORD97":169592.67999999999,"N_COORD97":2542569.48,"ADDRESS":"長榮路一段１號十四樓之２","OBJECTID":257067},"geometry":{"x":169592.6799999997,"y":2542569.4800000004}},{"attributes":{"ID":257072,"DIS_CODE":0,"TOWNNAME":"仁德區","LI":"仁愛里","LIN":"27鄰","STREET":"大同路","SECT":"三段","MAREA":" ","LANE":" ","ALLEY":" ","HOUSE_NO":"１５３號","E_COORD97":169763.443443,"N_COORD97":2539801.59821,"ADDRESS":"大同路三段１５３號","OBJECTID":257068},"geometry":{"x":169763.44344300032,"y":2539801.598209003}},{"attributes":{"ID":257073,"DIS_CODE":0,"TOWNNAME":"仁德區","LI":"仁愛里","LIN":"27鄰","STREET":"大同路","SECT":"三段","MAREA":" ","LANE":" ","ALLEY":" ","HOUSE_NO":"１７９號","E_COORD97":169770.43506799999,"N_COORD97":2539740.2149100001,"ADDRESS":"大同路三段１７９號","OBJECTID":257069},"geometry":{"x":169770.43506800011,"y":2539740.2149090022}},{"attributes":{"ID":257074,"DIS_CODE":0,"TOWNNAME":"仁德區","LI":"仁愛里","LIN":"27鄰","STREET":"大同路","SECT":"三段","MAREA":" ","LANE":" ","ALLEY":" ","HOUSE_NO":"１９５號","E_COORD97":169774.460548,"N_COORD97":2539697.9874300002,"ADDRESS":"大同路三段１９５號","OBJECTID":257070},"geometry":{"x":169774.46054800134,"y":2539697.987432003}},{"attributes":{"ID":257075,"DIS_CODE":0,"TOWNNAME":"仁德區","LI":"仁愛里","LIN":"27鄰","STREET":"大同路","SECT":"三段","MAREA":" ","LANE":" ","ALLEY":" ","HOUSE_NO":"２４３號","E_COORD97":169787.38446100001,"N_COORD97":2539581.9941599998,"ADDRESS":"大同路三段２４３號","OBJECTID":257071},"geometry":{"x":169787.38446099963,"y":2539581.9941610005}},{"attributes":{"ID":257076,"DIS_CODE":0,"TOWNNAME":"仁德區","LI":"仁愛里","LIN":"27鄰","STREET":"大同路","SECT":"三段","MAREA":" ","LANE":" ","ALLEY":" ","HOUSE_NO":"２５５號","E_COORD97":169790.76201000001,"N_COORD97":2539553.63069,"ADDRESS":"大同路三段２５５號","OBJECTID":257072},"geometry":{"x":169790.76200999971,"y":2539553.6306919996}},{"attributes":{"ID":257077,"DIS_CODE":0,"TOWNNAME":"仁德區","LI":"仁愛里","LIN":"27鄰","STREET":"大同路","SECT":"三段","MAREA":" ","LANE":" ","ALLEY":" ","HOUSE_NO":"３３５號","E_COORD97":169807.350699,"N_COORD97":2539384.6991900001,"ADDRESS":"大同路三段３３５號","OBJECTID":257073},"geometry":{"x":169807.35069900099,"y":2539384.6991920043}},{"attributes":{"ID":257078,"DIS_CODE":0,"TOWNNAME":"仁德區","LI":"仁愛里","LIN":"27鄰","STREET":"大同路","SECT":"三段","MAREA":" ","LANE":" ","ALLEY":" ","HOUSE_NO":"３１９號","E_COORD97":169803.53731300001,"N_COORD97":2539422.79917,"ADDRESS":"大同路三段３１９號","OBJECTID":257074},"geometry":{"x":169803.53731300123,"y":2539422.7991710026}},{"attributes":{"ID":257079,"DIS_CODE":0,"TOWNNAME":"仁德區","LI":"仁愛里","LIN":"27鄰","STREET":"大同路","SECT":"三段","MAREA":" ","LANE":" ","ALLEY":" ","HOUSE_NO":"３４１號","E_COORD97":169809.257392,"N_COORD97":2539370.7291999999,"ADDRESS":"大同路三段３４１號","OBJECTID":257075},"geometry":{"x":169809.25739200134,"y":2539370.7291990016}},{"attributes":{"ID":257080,"DIS_CODE":0,"TOWNNAME":"仁德區","LI":"仁愛里","LIN":"27鄰","STREET":"亞航街","SECT":" ","MAREA":" ","LANE":" ","ALLEY":" ","HOUSE_NO":"３１號","E_COORD97":169887.54485899999,"N_COORD97":2539272.69618,"ADDRESS":"亞航街３１號","OBJECTID":257076},"geometry":{"x":169887.54485899862,"y":2539272.6961850021}},{"attributes":{"ID":257081,"DIS_CODE":0,"TOWNNAME":"仁德區","LI":"後壁里","LIN":"27鄰","STREET":"中正路","SECT":"二段","MAREA":" ","LANE":"３０１巷","ALLEY":" ","HOUSE_NO":"１６號","E_COORD97":173215.98999999999,"N_COORD97":2539105.6400000001,"ADDRESS":"中正路二段３０１巷１６號","OBJECTID":257077},"geometry":{"x":173215.98999999929,"y":2539105.6400000025}},{"attributes":{"ID":257082,"DIS_CODE":0,"TOWNNAME":"仁德區","LI":"後壁里","LIN":"27鄰","STREET":"中正路","SECT":"二段","MAREA":" ","LANE":"３０１巷","ALLEY":" ","HOUSE_NO":"１３號","E_COORD97":173189.64000000001,"N_COORD97":2539107.3500000001,"ADDRESS":"中正路二段３０１巷１３號","OBJECTID":257078},"geometry":{"x":173189.6400000006,"y":2539107.3499999996}},{"attributes":{"ID":257083,"DIS_CODE":0,"TOWNNAME":"仁德區","LI":"後壁里","LIN":"27鄰","STREET":"中正路","SECT":"二段","MAREA":" ","LANE":"３０１巷","ALLEY":" ","HOUSE_NO":"３６號","E_COORD97":173178.82000000001,"N_COORD97":2539132.52,"ADDRESS":"中正路二段３０１巷３６號","OBJECTID":257079},"geometry":{"x":173178.82000000123,"y":2539132.5200000014}},{"attributes":{"ID":257084,"DIS_CODE":0,"TOWNNAME":"南區","LI":"開南里","LIN":"17鄰","STREET":"新建路","SECT":" ","MAREA":" ","LANE":"２４巷","ALLEY":" ","HOUSE_NO":"１號十三樓之２","E_COORD97":166424.38,"N_COORD97":2541098.9300000002,"ADDRESS":"新建路２４巷１號十三樓之２","OBJECTID":257080},"geometry":{"x":166424.38000000082,"y":2541098.9300000016}},{"attributes":{"ID":257085,"DIS_CODE":0,"TOWNNAME":"南區","LI":"開南里","LIN":"17鄰","STREET":"新建路","SECT":" ","MAREA":" ","LANE":"２４巷","ALLEY":" ","HOUSE_NO":"１號十五樓","E_COORD97":166424.38,"N_COORD97":2541098.9300000002,"ADDRESS":"新建路２４巷１號十五樓","OBJECTID":257081},"geometry":{"x":166424.38000000082,"y":2541098.9300000016}},{"attributes":{"ID":257086,"DIS_CODE":0,"TOWNNAME":"南區","LI":"開南里","LIN":"17鄰","STREET":"新建路","SECT":" ","MAREA":" ","LANE":"２４巷","ALLEY":" ","HOUSE_NO":"１號十五樓之１","E_COORD97":166424.38,"N_COORD97":2541098.9300000002,"ADDRESS":"新建路２４巷１號十五樓之１","OBJECTID":257082},"geometry":{"x":166424.38000000082,"y":2541098.9300000016}},{"attributes":{"ID":257087,"DIS_CODE":0,"TOWNNAME":"東區","LI":"泉南里","LIN":"24鄰","STREET":"長榮路","SECT":"一段","MAREA":" ","LANE":" ","ALLEY":" ","HOUSE_NO":"１號三樓之３","E_COORD97":169592.67999999999,"N_COORD97":2542569.48,"ADDRESS":"長榮路一段１號三樓之３","OBJECTID":257083},"geometry":{"x":169592.6799999997,"y":2542569.4800000004}},{"attributes":{"ID":257088,"DIS_CODE":0,"TOWNNAME":"東區","LI":"泉南里","LIN":"24鄰","STREET":"長榮路","SECT":"一段","MAREA":" ","LANE":" ","ALLEY":" ","HOUSE_NO":"１號四樓之３","E_COORD97":169592.67999999999,"N_COORD97":2542569.48,"ADDRESS":"長榮路一段１號四樓之３","OBJECTID":257084},"geometry":{"x":169592.6799999997,"y":2542569.4800000004}},{"attributes":{"ID":257089,"DIS_CODE":0,"TOWNNAME":"東區","LI":"泉南里","LIN":"24鄰","STREET":"長榮路","SECT":"一段","MAREA":" ","LANE":" ","ALLEY":" ","HOUSE_NO":"１號五樓之３","E_COORD97":169592.67999999999,"N_COORD97":2542569.48,"ADDRESS":"長榮路一段１號五樓之３","OBJECTID":257085},"geometry":{"x":169592.6799999997,"y":2542569.4800000004}},{"attributes":{"ID":257090,"DIS_CODE":0,"TOWNNAME":"東區","LI":"泉南里","LIN":"24鄰","STREET":"長榮路","SECT":"一段","MAREA":" ","LANE":" ","ALLEY":" ","HOUSE_NO":"１號六樓之３","E_COORD97":169592.67999999999,"N_COORD97":2542569.48,"ADDRESS":"長榮路一段１號六樓之３","OBJECTID":257086},"geometry":{"x":169592.6799999997,"y":2542569.4800000004}},{"attributes":{"ID":257091,"DIS_CODE":0,"TOWNNAME":"東區","LI":"泉南里","LIN":"24鄰","STREET":"長榮路","SECT":"一段","MAREA":" ","LANE":" ","ALLEY":" ","HOUSE_NO":"１號七樓之３","E_COORD97":169592.67999999999,"N_COORD97":2542569.48,"ADDRESS":"長榮路一段１號七樓之３","OBJECTID":257087},"geometry":{"x":169592.6799999997,"y":2542569.4800000004}},{"attributes":{"ID":257092,"DIS_CODE":0,"TOWNNAME":"東區","LI":"泉南里","LIN":"24鄰","STREET":"長榮路","SECT":"一段","MAREA":" ","LANE":" ","ALLEY":" ","HOUSE_NO":"１號八樓之３","E_COORD97":169592.67999999999,"N_COORD97":2542569.48,"ADDRESS":"長榮路一段１號八樓之３","OBJECTID":257088},"geometry":{"x":169592.6799999997,"y":2542569.4800000004}},{"attributes":{"ID":257093,"DIS_CODE":0,"TOWNNAME":"東區","LI":"泉南里","LIN":"24鄰","STREET":"長榮路","SECT":"一段","MAREA":" ","LANE":" ","ALLEY":" ","HOUSE_NO":"１號九樓之３","E_COORD97":169592.67999999999,"N_COORD97":2542569.48,"ADDRESS":"長榮路一段１號九樓之３","OBJECTID":257089},"geometry":{"x":169592.6799999997,"y":2542569.4800000004}},{"attributes":{"ID":257094,"DIS_CODE":0,"TOWNNAME":"東區","LI":"泉南里","LIN":"24鄰","STREET":"長榮路","SECT":"一段","MAREA":" ","LANE":" ","ALLEY":" ","HOUSE_NO":"１號十樓之３","E_COORD97":169592.67999999999,"N_COORD97":2542569.48,"ADDRESS":"長榮路一段１號十樓之３","OBJECTID":257090},"geometry":{"x":169592.6799999997,"y":2542569.4800000004}},{"attributes":{"ID":257095,"DIS_CODE":0,"TOWNNAME":"東區","LI":"泉南里","LIN":"24鄰","STREET":"長榮路","SECT":"一段","MAREA":" ","LANE":" ","ALLEY":" ","HOUSE_NO":"１號十一樓之３","E_COORD97":169592.67999999999,"N_COORD97":2542569.48,"ADDRESS":"長榮路一段１號十一樓之３","OBJECTID":257091},"geometry":{"x":169592.6799999997,"y":2542569.4800000004}},{"attributes":{"ID":257096,"DIS_CODE":0,"TOWNNAME":"東區","LI":"泉南里","LIN":"24鄰","STREET":"長榮路","SECT":"一段","MAREA":" ","LANE":" ","ALLEY":" ","HOUSE_NO":"１號十二樓之３","E_COORD97":169592.67999999999,"N_COORD97":2542569.48,"ADDRESS":"長榮路一段１號十二樓之３","OBJECTID":257092},"geometry":{"x":169592.6799999997,"y":2542569.4800000004}},{"attributes":{"ID":257097,"DIS_CODE":0,"TOWNNAME":"官田區","LI":"隆本里","LIN":"27鄰","STREET":"勝利路","SECT":" ","MAREA":" ","LANE":"４８巷","ALLEY":" ","HOUSE_NO":"１１號","E_COORD97":179894.20999999999,"N_COORD97":2565950.71,"ADDRESS":"勝利路４８巷１１號","OBJECTID":257093},"geometry":{"x":179894.21000000089,"y":2565950.7100000028}},{"attributes":{"ID":257098,"DIS_CODE":0,"TOWNNAME":"官田區","LI":"隆本里","LIN":"27鄰","STREET":"勝利路","SECT":" ","MAREA":" ","LANE":"４８巷","ALLEY":" ","HOUSE_NO":"１５號","E_COORD97":179893.81,"N_COORD97":2565962.46,"ADDRESS":"勝利路４８巷１５號","OBJECTID":257094},"geometry":{"x":179893.80999999959,"y":2565962.4600000028}},{"attributes":{"ID":257099,"DIS_CODE":0,"TOWNNAME":"官田區","LI":"隆本里","LIN":"27鄰","STREET":"勝利路","SECT":" ","MAREA":" ","LANE":"４８巷","ALLEY":" ","HOUSE_NO":"１９號","E_COORD97":179889.23999999999,"N_COORD97":2565996.0800000001,"ADDRESS":"勝利路４８巷１９號","OBJECTID":257095},"geometry":{"x":179889.24000000022,"y":2565996.0800000001}},{"attributes":{"ID":257100,"DIS_CODE":0,"TOWNNAME":"官田區","LI":"隆本里","LIN":"27鄰","STREET":"勝利路","SECT":" ","MAREA":" ","LANE":"４８巷","ALLEY":" ","HOUSE_NO":"１號","E_COORD97":179906.25,"N_COORD97":2565915.7999999998,"ADDRESS":"勝利路４８巷１號","OBJECTID":257096},"geometry":{"x":179906.25,"y":2565915.8000000026}},{"attributes":{"ID":257101,"DIS_CODE":0,"TOWNNAME":"官田區","LI":"隆本里","LIN":"27鄰","STREET":"勝利路","SECT":" ","MAREA":" ","LANE":"４８巷","ALLEY":" ","HOUSE_NO":"２１號","E_COORD97":179888.79999999999,"N_COORD97":2566000.5800000001,"ADDRESS":"勝利路４８巷２１號","OBJECTID":257097},"geometry":{"x":179888.79999999981,"y":2566000.5800000019}},{"attributes":{"ID":257102,"DIS_CODE":0,"TOWNNAME":"官田區","LI":"隆本里","LIN":"27鄰","STREET":"勝利路","SECT":" ","MAREA":" ","LANE":"４８巷","ALLEY":" ","HOUSE_NO":"２３號","E_COORD97":179890.04999999999,"N_COORD97":2566007.4399999999,"ADDRESS":"勝利路４８巷２３號","OBJECTID":257098},"geometry":{"x":179890.05000000075,"y":2566007.4400000032}},{"attributes":{"ID":257103,"DIS_CODE":0,"TOWNNAME":"官田區","LI":"隆本里","LIN":"27鄰","STREET":"勝利路","SECT":" ","MAREA":" ","LANE":"４８巷","ALLEY":" ","HOUSE_NO":"２５號","E_COORD97":179889.60000000001,"N_COORD97":2566011.7400000002,"ADDRESS":"勝利路４８巷２５號","OBJECTID":257099},"geometry":{"x":179889.59999999963,"y":2566011.7400000002}},{"attributes":{"ID":257104,"DIS_CODE":0,"TOWNNAME":"官田區","LI":"隆本里","LIN":"27鄰","STREET":"勝利路","SECT":" ","MAREA":" ","LANE":"４８巷","ALLEY":" ","HOUSE_NO":"３號","E_COORD97":179903.51999999999,"N_COORD97":2565924.3999999999,"ADDRESS":"勝利路４８巷３號","OBJECTID":257100},"geometry":{"x":179903.52000000048,"y":2565924.4000000022}},{"attributes":{"ID":257105,"DIS_CODE":0,"TOWNNAME":"官田區","LI":"隆本里","LIN":"27鄰","STREET":"勝利路","SECT":" ","MAREA":" ","LANE":"４８巷","ALLEY":" ","HOUSE_NO":"５號","E_COORD97":179901.51999999999,"N_COORD97":2565930.3900000001,"ADDRESS":"勝利路４８巷５號","OBJECTID":257101},"geometry":{"x":179901.52000000048,"y":2565930.3900000006}},{"attributes":{"ID":257106,"DIS_CODE":0,"TOWNNAME":"官田區","LI":"隆本里","LIN":"27鄰","STREET":"勝利路","SECT":" ","MAREA":" ","LANE":"４８巷","ALLEY":" ","HOUSE_NO":"７號","E_COORD97":179899.64999999999,"N_COORD97":2565939.1099999999,"ADDRESS":"勝利路４８巷７號","OBJECTID":257102},"geometry":{"x":179899.6500000013,"y":2565939.1100000013}},{"attributes":{"ID":257107,"DIS_CODE":0,"TOWNNAME":"南區","LI":"開南里","LIN":"17鄰","STREET":"新建路","SECT":" ","MAREA":" ","LANE":"２４巷","ALLEY":" ","HOUSE_NO":"１號十五樓之２","E_COORD97":166424.38,"N_COORD97":2541098.9300000002,"ADDRESS":"新建路２４巷１號十五樓之２","OBJECTID":257103},"geometry":{"x":166424.38000000082,"y":2541098.9300000016}},{"attributes":{"ID":257108,"DIS_CODE":0,"TOWNNAME":"南區","LI":"開南里","LIN":"17鄰","STREET":"新建路","SECT":" ","MAREA":" ","LANE":"２４巷","ALLEY":" ","HOUSE_NO":"１號十五樓之３","E_COORD97":166424.38,"N_COORD97":2541098.9300000002,"ADDRESS":"新建路２４巷１號十五樓之３","OBJECTID":257104},"geometry":{"x":166424.38000000082,"y":2541098.9300000016}},{"attributes":{"ID":257109,"DIS_CODE":0,"TOWNNAME":"南區","LI":"開南里","LIN":"17鄰","STREET":"新建路","SECT":" ","MAREA":" ","LANE":"２４巷","ALLEY":" ","HOUSE_NO":"１號十六樓","E_COORD97":166424.38,"N_COORD97":2541098.9300000002,"ADDRESS":"新建路２４巷１號十六樓","OBJECTID":257105},"geometry":{"x":166424.38000000082,"y":2541098.9300000016}},{"attributes":{"ID":257110,"DIS_CODE":0,"TOWNNAME":"南區","LI":"開南里","LIN":"17鄰","STREET":"新建路","SECT":" ","MAREA":" ","LANE":"２４巷","ALLEY":" ","HOUSE_NO":"１號十六樓之１","E_COORD97":166424.38,"N_COORD97":2541098.9300000002,"ADDRESS":"新建路２４巷１號十六樓之１","OBJECTID":257106},"geometry":{"x":166424.38000000082,"y":2541098.9300000016}},{"attributes":{"ID":257111,"DIS_CODE":0,"TOWNNAME":"南區","LI":"開南里","LIN":"17鄰","STREET":"新建路","SECT":" ","MAREA":" ","LANE":"２４巷","ALLEY":" ","HOUSE_NO":"１號十六樓之２","E_COORD97":166424.38,"N_COORD97":2541098.9300000002,"ADDRESS":"新建路２４巷１號十六樓之２","OBJECTID":257107},"geometry":{"x":166424.38000000082,"y":2541098.9300000016}},{"attributes":{"ID":257112,"DIS_CODE":0,"TOWNNAME":"南區","LI":"開南里","LIN":"17鄰","STREET":"新建路","SECT":" ","MAREA":" ","LANE":"２４巷","ALLEY":" ","HOUSE_NO":"１號十六樓之３","E_COORD97":166424.38,"N_COORD97":2541098.9300000002,"ADDRESS":"新建路２４巷１號十六樓之３","OBJECTID":257108},"geometry":{"x":166424.38000000082,"y":2541098.9300000016}},{"attributes":{"ID":257113,"DIS_CODE":0,"TOWNNAME":"東區","LI":"泉南里","LIN":"24鄰","STREET":"長榮路","SECT":"一段","MAREA":" ","LANE":" ","ALLEY":" ","HOUSE_NO":"１號十三樓之３","E_COORD97":169592.67999999999,"N_COORD97":2542569.48,"ADDRESS":"長榮路一段１號十三樓之３","OBJECTID":257109},"geometry":{"x":169592.6799999997,"y":2542569.4800000004}},{"attributes":{"ID":257114,"DIS_CODE":0,"TOWNNAME":"東區","LI":"泉南里","LIN":"24鄰","STREET":"長榮路","SECT":"一段","MAREA":" ","LANE":" ","ALLEY":" ","HOUSE_NO":"１號十四樓之３","E_COORD97":169592.67999999999,"N_COORD97":2542569.48,"ADDRESS":"長榮路一段１號十四樓之３","OBJECTID":257110},"geometry":{"x":169592.6799999997,"y":2542569.4800000004}},{"attributes":{"ID":257115,"DIS_CODE":0,"TOWNNAME":"東區","LI":"泉南里","LIN":"24鄰","STREET":"長榮路","SECT":"一段","MAREA":" ","LANE":" ","ALLEY":" ","HOUSE_NO":"３號二樓之１","E_COORD97":169571.70999999999,"N_COORD97":2542585.8599999999,"ADDRESS":"長榮路一段３號二樓之１","OBJECTID":257111},"geometry":{"x":169571.71000000089,"y":2542585.8599999994}},{"attributes":{"ID":257116,"DIS_CODE":0,"TOWNNAME":"東區","LI":"泉南里","LIN":"24鄰","STREET":"長榮路","SECT":"一段","MAREA":" ","LANE":" ","ALLEY":" ","HOUSE_NO":"３號三樓之１","E_COORD97":169571.70999999999,"N_COORD97":2542585.8599999999,"ADDRESS":"長榮路一段３號三樓之１","OBJECTID":257112},"geometry":{"x":169571.71000000089,"y":2542585.8599999994}},{"attributes":{"ID":257117,"DIS_CODE":0,"TOWNNAME":"東區","LI":"泉南里","LIN":"24鄰","STREET":"長榮路","SECT":"一段","MAREA":" ","LANE":" ","ALLEY":" ","HOUSE_NO":"３號四樓之１","E_COORD97":169571.70999999999,"N_COORD97":2542585.8599999999,"ADDRESS":"長榮路一段３號四樓之１","OBJECTID":257113},"geometry":{"x":169571.71000000089,"y":2542585.8599999994}},{"attributes":{"ID":257118,"DIS_CODE":0,"TOWNNAME":"東區","LI":"泉南里","LIN":"24鄰","STREET":"長榮路","SECT":"一段","MAREA":" ","LANE":" ","ALLEY":" ","HOUSE_NO":"３號五樓之１","E_COORD97":169571.70999999999,"N_COORD97":2542585.8599999999,"ADDRESS":"長榮路一段３號五樓之１","OBJECTID":257114},"geometry":{"x":169571.71000000089,"y":2542585.8599999994}},{"attributes":{"ID":257119,"DIS_CODE":0,"TOWNNAME":"東區","LI":"泉南里","LIN":"24鄰","STREET":"長榮路","SECT":"一段","MAREA":" ","LANE":" ","ALLEY":" ","HOUSE_NO":"３號六樓之１","E_COORD97":169571.70999999999,"N_COORD97":2542585.8599999999,"ADDRESS":"長榮路一段３號六樓之１","OBJECTID":257115},"geometry":{"x":169571.71000000089,"y":2542585.8599999994}},{"attributes":{"ID":257120,"DIS_CODE":0,"TOWNNAME":"東區","LI":"泉南里","LIN":"24鄰","STREET":"長榮路","SECT":"一段","MAREA":" ","LANE":" ","ALLEY":" ","HOUSE_NO":"３號七樓之１","E_COORD97":169571.70999999999,"N_COORD97":2542585.8599999999,"ADDRESS":"長榮路一段３號七樓之１","OBJECTID":257116},"geometry":{"x":169571.71000000089,"y":2542585.8599999994}},{"attributes":{"ID":257121,"DIS_CODE":0,"TOWNNAME":"東區","LI":"泉南里","LIN":"24鄰","STREET":"長榮路","SECT":"一段","MAREA":" ","LANE":" ","ALLEY":" ","HOUSE_NO":"３號八樓之１","E_COORD97":169571.70999999999,"N_COORD97":2542585.8599999999,"ADDRESS":"長榮路一段３號八樓之１","OBJECTID":257117},"geometry":{"x":169571.71000000089,"y":2542585.8599999994}},{"attributes":{"ID":257122,"DIS_CODE":0,"TOWNNAME":"南區","LI":"建南里","LIN":"22鄰","STREET":"永成路","SECT":"二段","MAREA":" ","LANE":"８４５巷","ALLEY":" ","HOUSE_NO":"７號","E_COORD97":167454.920392,"N_COORD97":2540151.3002499999,"ADDRESS":"永成路二段８４５巷７號","OBJECTID":257118},"geometry":{"x":167454.92039200105,"y":2540151.3002470024}},{"attributes":{"ID":257123,"DIS_CODE":0,"TOWNNAME":"新市區","LI":"新和里","LIN":"27鄰","STREET":"忠孝街","SECT":" ","MAREA":" ","LANE":"１９４巷","ALLEY":" ","HOUSE_NO":"４號","E_COORD97":177763.81,"N_COORD97":2552855.75,"ADDRESS":"忠孝街１９４巷４號","OBJECTID":257119},"geometry":{"x":177763.81000000052,"y":2552855.7500000019}},{"attributes":{"ID":257124,"DIS_CODE":0,"TOWNNAME":"新市區","LI":"新和里","LIN":"27鄰","STREET":"忠孝街","SECT":" ","MAREA":" ","LANE":"１９４巷","ALLEY":" ","HOUSE_NO":"８號","E_COORD97":177771.95000000001,"N_COORD97":2552857.25,"ADDRESS":"忠孝街１９４巷８號","OBJECTID":257120},"geometry":{"x":177771.95000000112,"y":2552857.25}},{"attributes":{"ID":257125,"DIS_CODE":0,"TOWNNAME":"新市區","LI":"新和里","LIN":"27鄰","STREET":"忠孝街","SECT":" ","MAREA":" ","LANE":"１９４巷","ALLEY":" ","HOUSE_NO":"６號","E_COORD97":177767.81,"N_COORD97":2552856.75,"ADDRESS":"忠孝街１９４巷６號","OBJECTID":257121},"geometry":{"x":177767.80999999959,"y":2552856.75}},{"attributes":{"ID":257126,"DIS_CODE":0,"TOWNNAME":"新市區","LI":"新和里","LIN":"27鄰","STREET":"永福街","SECT":" ","MAREA":" ","LANE":"１６巷","ALLEY":" ","HOUSE_NO":"４９號","E_COORD97":177790.51000000001,"N_COORD97":2552815.75,"ADDRESS":"永福街１６巷４９號","OBJECTID":257122},"geometry":{"x":177790.50999999978,"y":2552815.75}},{"attributes":{"ID":257127,"DIS_CODE":0,"TOWNNAME":"永康區","LI":"中興里","LIN":"27鄰","STREET":"中興街","SECT":" ","MAREA":" ","LANE":"９１巷","ALLEY":" ","HOUSE_NO":"１７號","E_COORD97":172011.34,"N_COORD97":2545341.4900000002,"ADDRESS":"中興街９１巷１７號","OBJECTID":257123},"geometry":{"x":172011.33999999892,"y":2545341.4900000021}},{"attributes":{"ID":257128,"DIS_CODE":0,"TOWNNAME":"永康區","LI":"北灣里","LIN":"27鄰","STREET":"文賢街","SECT":" ","MAREA":" ","LANE":"１０８巷","ALLEY":" ","HOUSE_NO":"９號","E_COORD97":175412.92999999999,"N_COORD97":2545464.8199999998,"ADDRESS":"文賢街１０８巷９號","OBJECTID":257124},"geometry":{"x":175412.93000000156,"y":2545464.8200000022}},{"attributes":{"ID":257129,"DIS_CODE":0,"TOWNNAME":"南區","LI":"開南里","LIN":"17鄰","STREET":"新建路","SECT":" ","MAREA":" ","LANE":"２４巷","ALLEY":" ","HOUSE_NO":"１號十四樓","E_COORD97":166424.38,"N_COORD97":2541098.9300000002,"ADDRESS":"新建路２４巷１號十四樓","OBJECTID":257125},"geometry":{"x":166424.38000000082,"y":2541098.9300000016}},{"attributes":{"ID":257130,"DIS_CODE":0,"TOWNNAME":"南區","LI":"開南里","LIN":"17鄰","STREET":"新建路","SECT":" ","MAREA":" ","LANE":"２４巷","ALLEY":" ","HOUSE_NO":"１號十四樓之１","E_COORD97":166424.38,"N_COORD97":2541098.9300000002,"ADDRESS":"新建路２４巷１號十四樓之１","OBJECTID":257126},"geometry":{"x":166424.38000000082,"y":2541098.9300000016}},{"attributes":{"ID":257131,"DIS_CODE":0,"TOWNNAME":"南區","LI":"開南里","LIN":"17鄰","STREET":"新建路","SECT":" ","MAREA":" ","LANE":"２４巷","ALLEY":" ","HOUSE_NO":"１號十四樓之３","E_COORD97":166424.38,"N_COORD97":2541098.9300000002,"ADDRESS":"新建路２４巷１號十四樓之３","OBJECTID":257127},"geometry":{"x":166424.38000000082,"y":2541098.9300000016}},{"attributes":{"ID":257132,"DIS_CODE":0,"TOWNNAME":"南區","LI":"開南里","LIN":"17鄰","STREET":"新建路","SECT":" ","MAREA":" ","LANE":"２４巷","ALLEY":" ","HOUSE_NO":"１號十樓","E_COORD97":166424.38,"N_COORD97":2541098.9300000002,"ADDRESS":"新建路２４巷１號十樓","OBJECTID":257128},"geometry":{"x":166424.38000000082,"y":2541098.9300000016}},{"attributes":{"ID":257133,"DIS_CODE":0,"TOWNNAME":"新營區","LI":"新北里","LIN":" ","STREET":"民生路","SECT":" ","MAREA":" ","LANE":"３８５巷","ALLEY":" ","HOUSE_NO":"１號","E_COORD97":178883.37,"N_COORD97":2579149.48,"ADDRESS":"民生路３８５巷１號","OBJECTID":257129},"geometry":{"x":178883.37000000011,"y":2579149.4800000023}},{"attributes":{"ID":257134,"DIS_CODE":0,"TOWNNAME":"南區","LI":"開南里","LIN":"17鄰","STREET":"新建路","SECT":" ","MAREA":" ","LANE":"２４巷","ALLEY":" ","HOUSE_NO":"１號十樓之１","E_COORD97":166424.38,"N_COORD97":2541098.9300000002,"ADDRESS":"新建路２４巷１號十樓之１","OBJECTID":257130},"geometry":{"x":166424.38000000082,"y":2541098.9300000016}},{"attributes":{"ID":257135,"DIS_CODE":0,"TOWNNAME":"東區","LI":"泉南里","LIN":"24鄰","STREET":"長榮路","SECT":"一段","MAREA":" ","LANE":" ","ALLEY":" ","HOUSE_NO":"３號九樓之１","E_COORD97":169571.70999999999,"N_COORD97":2542585.8599999999,"ADDRESS":"長榮路一段３號九樓之１","OBJECTID":257131},"geometry":{"x":169571.71000000089,"y":2542585.8599999994}},{"attributes":{"ID":257136,"DIS_CODE":0,"TOWNNAME":"東區","LI":"泉南里","LIN":"24鄰","STREET":"長榮路","SECT":"一段","MAREA":" ","LANE":" ","ALLEY":" ","HOUSE_NO":"３號十樓之１","E_COORD97":169571.70999999999,"N_COORD97":2542585.8599999999,"ADDRESS":"長榮路一段３號十樓之１","OBJECTID":257132},"geometry":{"x":169571.71000000089,"y":2542585.8599999994}},{"attributes":{"ID":257137,"DIS_CODE":0,"TOWNNAME":"東區","LI":"泉南里","LIN":"24鄰","STREET":"長榮路","SECT":"一段","MAREA":" ","LANE":" ","ALLEY":" ","HOUSE_NO":"３號十一樓之１","E_COORD97":169571.70999999999,"N_COORD97":2542585.8599999999,"ADDRESS":"長榮路一段３號十一樓之１","OBJECTID":257133},"geometry":{"x":169571.71000000089,"y":2542585.8599999994}},{"attributes":{"ID":257138,"DIS_CODE":0,"TOWNNAME":"東區","LI":"泉南里","LIN":"24鄰","STREET":"長榮路","SECT":"一段","MAREA":" ","LANE":" ","ALLEY":" ","HOUSE_NO":"３號十二樓之１","E_COORD97":169571.70999999999,"N_COORD97":2542585.8599999999,"ADDRESS":"長榮路一段３號十二樓之１","OBJECTID":257134},"geometry":{"x":169571.71000000089,"y":2542585.8599999994}},{"attributes":{"ID":257139,"DIS_CODE":0,"TOWNNAME":"東區","LI":"泉南里","LIN":"24鄰","STREET":"長榮路","SECT":"一段","MAREA":" ","LANE":" ","ALLEY":" ","HOUSE_NO":"３號十三樓之１","E_COORD97":169571.70999999999,"N_COORD97":2542585.8599999999,"ADDRESS":"長榮路一段３號十三樓之１","OBJECTID":257135},"geometry":{"x":169571.71000000089,"y":2542585.8599999994}},{"attributes":{"ID":257140,"DIS_CODE":0,"TOWNNAME":"東區","LI":"泉南里","LIN":"24鄰","STREET":"長榮路","SECT":"一段","MAREA":" ","LANE":" ","ALLEY":" ","HOUSE_NO":"３號十四樓之１","E_COORD97":169571.70999999999,"N_COORD97":2542585.8599999999,"ADDRESS":"長榮路一段３號十四樓之１","OBJECTID":257136},"geometry":{"x":169571.71000000089,"y":2542585.8599999994}},{"attributes":{"ID":257141,"DIS_CODE":0,"TOWNNAME":"東區","LI":"泉南里","LIN":"24鄰","STREET":"長榮路","SECT":"一段","MAREA":" ","LANE":" ","ALLEY":" ","HOUSE_NO":"３號二樓之２","E_COORD97":169571.70999999999,"N_COORD97":2542585.8599999999,"ADDRESS":"長榮路一段３號二樓之２","OBJECTID":257137},"geometry":{"x":169571.71000000089,"y":2542585.8599999994}},{"attributes":{"ID":257142,"DIS_CODE":0,"TOWNNAME":"永康區","LI":"中興里","LIN":"27鄰","STREET":"中興街","SECT":" ","MAREA":" ","LANE":"９１巷","ALLEY":" ","HOUSE_NO":"１５號","E_COORD97":172015.76000000001,"N_COORD97":2545341.4900000002,"ADDRESS":"中興街９１巷１５號","OBJECTID":257138},"geometry":{"x":172015.76000000071,"y":2545341.4900000021}},{"attributes":{"ID":257143,"DIS_CODE":0,"TOWNNAME":"永康區","LI":"中興里","LIN":"27鄰","STREET":"中興街","SECT":" ","MAREA":" ","LANE":"９１巷","ALLEY":" ","HOUSE_NO":"１９號","E_COORD97":172006.45999999999,"N_COORD97":2545341.4900000002,"ADDRESS":"中興街９１巷１９號","OBJECTID":257139},"geometry":{"x":172006.46000000089,"y":2545341.4900000021}},{"attributes":{"ID":257144,"DIS_CODE":0,"TOWNNAME":"永康區","LI":"北灣里","LIN":"27鄰","STREET":"文賢街","SECT":" ","MAREA":" ","LANE":"１２２巷","ALLEY":" ","HOUSE_NO":"２號","E_COORD97":175388.17999999999,"N_COORD97":2545509.8300000001,"ADDRESS":"文賢街１２２巷２號","OBJECTID":257140},"geometry":{"x":175388.18000000063,"y":2545509.8300000001}},{"attributes":{"ID":257145,"DIS_CODE":0,"TOWNNAME":"永康區","LI":"北灣里","LIN":"27鄰","STREET":"文賢街","SECT":" ","MAREA":" ","LANE":"１０８巷","ALLEY":" ","HOUSE_NO":"１２號","E_COORD97":175414.04999999999,"N_COORD97":2545452.0699999998,"ADDRESS":"文賢街１０８巷１２號","OBJECTID":257141},"geometry":{"x":175414.05000000168,"y":2545452.0700000022}},{"attributes":{"ID":257146,"DIS_CODE":0,"TOWNNAME":"永康區","LI":"北灣里","LIN":"27鄰","STREET":"文賢街","SECT":" ","MAREA":" ","LANE":"１０８巷","ALLEY":" ","HOUSE_NO":"１０號","E_COORD97":175408.14999999999,"N_COORD97":2545451.8199999998,"ADDRESS":"文賢街１０８巷１０號","OBJECTID":257142},"geometry":{"x":175408.15000000037,"y":2545451.8200000003}},{"attributes":{"ID":257147,"DIS_CODE":0,"TOWNNAME":"永康區","LI":"北灣里","LIN":"27鄰","STREET":"文賢街","SECT":" ","MAREA":" ","LANE":"１０８巷","ALLEY":" ","HOUSE_NO":"７號","E_COORD97":175406.29000000001,"N_COORD97":2545464.8199999998,"ADDRESS":"文賢街１０８巷７號","OBJECTID":257143},"geometry":{"x":175406.29000000097,"y":2545464.8200000022}},{"attributes":{"ID":257148,"DIS_CODE":0,"TOWNNAME":"永康區","LI":"北灣里","LIN":"27鄰","STREET":"文賢街","SECT":" ","MAREA":" ","LANE":"１０８巷","ALLEY":" ","HOUSE_NO":"２號","E_COORD97":175387.92000000001,"N_COORD97":2545450.3199999998,"ADDRESS":"文賢街１０８巷２號","OBJECTID":257144},"geometry":{"x":175387.92000000179,"y":2545450.3200000022}},{"attributes":{"ID":257149,"DIS_CODE":0,"TOWNNAME":"永康區","LI":"北灣里","LIN":"27鄰","STREET":"文賢街","SECT":" ","MAREA":" ","LANE":"１２２巷","ALLEY":" ","HOUSE_NO":"２２號","E_COORD97":175438.39999999999,"N_COORD97":2545509.3300000001,"ADDRESS":"文賢街１２２巷２２號","OBJECTID":257145},"geometry":{"x":175438.4000000013,"y":2545509.3300000001}},{"attributes":{"ID":257150,"DIS_CODE":0,"TOWNNAME":"新市區","LI":"新和里","LIN":"27鄰","STREET":"忠孝街","SECT":" ","MAREA":" ","LANE":"１８０巷","ALLEY":" ","HOUSE_NO":"１１號","E_COORD97":177774.48999999999,"N_COORD97":2552778,"ADDRESS":"忠孝街１８０巷１１號","OBJECTID":257146},"geometry":{"x":177774.49000000209,"y":2552777.9999999981}},{"attributes":{"ID":257151,"DIS_CODE":0,"TOWNNAME":"南區","LI":"開南里","LIN":"17鄰","STREET":"新建路","SECT":" ","MAREA":" ","LANE":"２４巷","ALLEY":" ","HOUSE_NO":"１號十樓之２","E_COORD97":166424.38,"N_COORD97":2541098.9300000002,"ADDRESS":"新建路２４巷１號十樓之２","OBJECTID":257147},"geometry":{"x":166424.38000000082,"y":2541098.9300000016}},{"attributes":{"ID":257152,"DIS_CODE":0,"TOWNNAME":"南區","LI":"開南里","LIN":"17鄰","STREET":"新建路","SECT":" ","MAREA":" ","LANE":"２４巷","ALLEY":" ","HOUSE_NO":"１號十樓之３","E_COORD97":166424.38,"N_COORD97":2541098.9300000002,"ADDRESS":"新建路２４巷１號十樓之３","OBJECTID":257148},"geometry":{"x":166424.38000000082,"y":2541098.9300000016}},{"attributes":{"ID":257153,"DIS_CODE":0,"TOWNNAME":"南區","LI":"開南里","LIN":"17鄰","STREET":"新建路","SECT":" ","MAREA":" ","LANE":"２４巷","ALLEY":" ","HOUSE_NO":"１號三樓","E_COORD97":166424.38,"N_COORD97":2541098.9300000002,"ADDRESS":"新建路２４巷１號三樓","OBJECTID":257149},"geometry":{"x":166424.38000000082,"y":2541098.9300000016}},{"attributes":{"ID":257154,"DIS_CODE":0,"TOWNNAME":"南區","LI":"開南里","LIN":"17鄰","STREET":"新建路","SECT":" ","MAREA":" ","LANE":"２４巷","ALLEY":" ","HOUSE_NO":"１號三樓之２","E_COORD97":166424.38,"N_COORD97":2541098.9300000002,"ADDRESS":"新建路２４巷１號三樓之２","OBJECTID":257150},"geometry":{"x":166424.38000000082,"y":2541098.9300000016}},{"attributes":{"ID":257155,"DIS_CODE":0,"TOWNNAME":"南區","LI":"開南里","LIN":"17鄰","STREET":"新建路","SECT":" ","MAREA":" ","LANE":"２４巷","ALLEY":" ","HOUSE_NO":"１號三樓之３","E_COORD97":166424.38,"N_COORD97":2541098.9300000002,"ADDRESS":"新建路２４巷１號三樓之３","OBJECTID":257151},"geometry":{"x":166424.38000000082,"y":2541098.9300000016}},{"attributes":{"ID":257156,"DIS_CODE":0,"TOWNNAME":"南區","LI":"開南里","LIN":"17鄰","STREET":"新建路","SECT":" ","MAREA":" ","LANE":"２４巷","ALLEY":" ","HOUSE_NO":"１號五樓","E_COORD97":166424.38,"N_COORD97":2541098.9300000002,"ADDRESS":"新建路２４巷１號五樓","OBJECTID":257152},"geometry":{"x":166424.38000000082,"y":2541098.9300000016}},{"attributes":{"ID":257157,"DIS_CODE":0,"TOWNNAME":"南區","LI":"開南里","LIN":"17鄰","STREET":"新建路","SECT":" ","MAREA":" ","LANE":"２４巷","ALLEY":" ","HOUSE_NO":"１號五樓之１","E_COORD97":166424.38,"N_COORD97":2541098.9300000002,"ADDRESS":"新建路２４巷１號五樓之１","OBJECTID":257153},"geometry":{"x":166424.38000000082,"y":2541098.9300000016}},{"attributes":{"ID":257158,"DIS_CODE":0,"TOWNNAME":"南區","LI":"開南里","LIN":"17鄰","STREET":"新建路","SECT":" ","MAREA":" ","LANE":"２４巷","ALLEY":" ","HOUSE_NO":"１號五樓之２","E_COORD97":166424.38,"N_COORD97":2541098.9300000002,"ADDRESS":"新建路２４巷１號五樓之２","OBJECTID":257154},"geometry":{"x":166424.38000000082,"y":2541098.9300000016}},{"attributes":{"ID":257159,"DIS_CODE":0,"TOWNNAME":"南區","LI":"開南里","LIN":"17鄰","STREET":"新建路","SECT":" ","MAREA":" ","LANE":"２４巷","ALLEY":" ","HOUSE_NO":"１號五樓之３","E_COORD97":166424.38,"N_COORD97":2541098.9300000002,"ADDRESS":"新建路２４巷１號五樓之３","OBJECTID":257155},"geometry":{"x":166424.38000000082,"y":2541098.9300000016}},{"attributes":{"ID":257160,"DIS_CODE":0,"TOWNNAME":"南區","LI":"開南里","LIN":"17鄰","STREET":"新建路","SECT":" ","MAREA":" ","LANE":"２４巷","ALLEY":" ","HOUSE_NO":"１號六樓","E_COORD97":166424.38,"N_COORD97":2541098.9300000002,"ADDRESS":"新建路２４巷１號六樓","OBJECTID":257156},"geometry":{"x":166424.38000000082,"y":2541098.9300000016}},{"attributes":{"ID":257161,"DIS_CODE":0,"TOWNNAME":"南區","LI":"開南里","LIN":"17鄰","STREET":"新建路","SECT":" ","MAREA":" ","LANE":"２４巷","ALLEY":" ","HOUSE_NO":"１號六樓之１","E_COORD97":166424.38,"N_COORD97":2541098.9300000002,"ADDRESS":"新建路２４巷１號六樓之１","OBJECTID":257157},"geometry":{"x":166424.38000000082,"y":2541098.9300000016}},{"attributes":{"ID":257162,"DIS_CODE":0,"TOWNNAME":"南區","LI":"開南里","LIN":"17鄰","STREET":"新建路","SECT":" ","MAREA":" ","LANE":"２４巷","ALLEY":" ","HOUSE_NO":"１號六樓之２","E_COORD97":166424.38,"N_COORD97":2541098.9300000002,"ADDRESS":"新建路２４巷１號六樓之２","OBJECTID":257158},"geometry":{"x":166424.38000000082,"y":2541098.9300000016}},{"attributes":{"ID":257163,"DIS_CODE":0,"TOWNNAME":"南區","LI":"開南里","LIN":"17鄰","STREET":"新建路","SECT":" ","MAREA":" ","LANE":"２４巷","ALLEY":" ","HOUSE_NO":"１號六樓之３","E_COORD97":166424.38,"N_COORD97":2541098.9300000002,"ADDRESS":"新建路２４巷１號六樓之３","OBJECTID":257159},"geometry":{"x":166424.38000000082,"y":2541098.9300000016}},{"attributes":{"ID":257164,"DIS_CODE":0,"TOWNNAME":"南區","LI":"開南里","LIN":"17鄰","STREET":"新建路","SECT":" ","MAREA":" ","LANE":"２４巷","ALLEY":" ","HOUSE_NO":"１號四樓","E_COORD97":166424.38,"N_COORD97":2541098.9300000002,"ADDRESS":"新建路２４巷１號四樓","OBJECTID":257160},"geometry":{"x":166424.38000000082,"y":2541098.9300000016}},{"attributes":{"ID":257165,"DIS_CODE":0,"TOWNNAME":"南區","LI":"開南里","LIN":"17鄰","STREET":"新建路","SECT":" ","MAREA":" ","LANE":"２４巷","ALLEY":" ","HOUSE_NO":"１號四樓之１","E_COORD97":166424.38,"N_COORD97":2541098.9300000002,"ADDRESS":"新建路２４巷１號四樓之１","OBJECTID":257161},"geometry":{"x":166424.38000000082,"y":2541098.9300000016}},{"attributes":{"ID":257166,"DIS_CODE":0,"TOWNNAME":"東區","LI":"泉南里","LIN":"24鄰","STREET":"長榮路","SECT":"一段","MAREA":" ","LANE":" ","ALLEY":" ","HOUSE_NO":"３號三樓之２","E_COORD97":169571.70999999999,"N_COORD97":2542585.8599999999,"ADDRESS":"長榮路一段３號三樓之２","OBJECTID":257162},"geometry":{"x":169571.71000000089,"y":2542585.8599999994}},{"attributes":{"ID":257167,"DIS_CODE":0,"TOWNNAME":"東區","LI":"泉南里","LIN":"24鄰","STREET":"長榮路","SECT":"一段","MAREA":" ","LANE":" ","ALLEY":" ","HOUSE_NO":"３號四樓之２","E_COORD97":169571.70999999999,"N_COORD97":2542585.8599999999,"ADDRESS":"長榮路一段３號四樓之２","OBJECTID":257163},"geometry":{"x":169571.71000000089,"y":2542585.8599999994}},{"attributes":{"ID":257168,"DIS_CODE":0,"TOWNNAME":"東區","LI":"泉南里","LIN":"24鄰","STREET":"長榮路","SECT":"一段","MAREA":" ","LANE":" ","ALLEY":" ","HOUSE_NO":"３號五樓之２","E_COORD97":169571.70999999999,"N_COORD97":2542585.8599999999,"ADDRESS":"長榮路一段３號五樓之２","OBJECTID":257164},"geometry":{"x":169571.71000000089,"y":2542585.8599999994}},{"attributes":{"ID":257169,"DIS_CODE":0,"TOWNNAME":"安平區","LI":"文平里","LIN":"6鄰","STREET":"永華二街","SECT":" ","MAREA":" ","LANE":" ","ALLEY":" ","HOUSE_NO":"１４６號","E_COORD97":166394.48000000001,"N_COORD97":2543128.9199999999,"ADDRESS":"永華二街１４６號","OBJECTID":257165},"geometry":{"x":166394.48000000045,"y":2543128.9199999999}},{"attributes":{"ID":257170,"DIS_CODE":0,"TOWNNAME":"東區","LI":"泉南里","LIN":"24鄰","STREET":"長榮路","SECT":"一段","MAREA":" ","LANE":" ","ALLEY":" ","HOUSE_NO":"３號六樓之２","E_COORD97":169571.70999999999,"N_COORD97":2542585.8599999999,"ADDRESS":"長榮路一段３號六樓之２","OBJECTID":257166},"geometry":{"x":169571.71000000089,"y":2542585.8599999994}},{"attributes":{"ID":257171,"DIS_CODE":0,"TOWNNAME":"安平區","LI":"華平里","LIN":"5鄰","STREET":"健康二街","SECT":" ","MAREA":" ","LANE":" ","ALLEY":" ","HOUSE_NO":"５２２號","E_COORD97":165384.54999999999,"N_COORD97":2544085.3399999999,"ADDRESS":"健康二街５２２號","OBJECTID":257167},"geometry":{"x":165384.54999999981,"y":2544085.3399999999}},{"attributes":{"ID":257172,"DIS_CODE":0,"TOWNNAME":"安平區","LI":"建平里","LIN":"13鄰","STREET":"建平十四街","SECT":" ","MAREA":" ","LANE":" ","ALLEY":" ","HOUSE_NO":"９１號","E_COORD97":166141.31,"N_COORD97":2544053.75,"ADDRESS":"建平十四街９１號","OBJECTID":257168},"geometry":{"x":166141.31000000052,"y":2544053.7500000019}},{"attributes":{"ID":257173,"DIS_CODE":0,"TOWNNAME":"東區","LI":"泉南里","LIN":"24鄰","STREET":"長榮路","SECT":"一段","MAREA":" ","LANE":" ","ALLEY":" ","HOUSE_NO":"３號七樓之２","E_COORD97":169571.70999999999,"N_COORD97":2542585.8599999999,"ADDRESS":"長榮路一段３號七樓之２","OBJECTID":257169},"geometry":{"x":169571.71000000089,"y":2542585.8599999994}},{"attributes":{"ID":257174,"DIS_CODE":0,"TOWNNAME":"東區","LI":"泉南里","LIN":"24鄰","STREET":"長榮路","SECT":"一段","MAREA":" ","LANE":" ","ALLEY":" ","HOUSE_NO":"３號八樓之２","E_COORD97":169571.70999999999,"N_COORD97":2542585.8599999999,"ADDRESS":"長榮路一段３號八樓之２","OBJECTID":257170},"geometry":{"x":169571.71000000089,"y":2542585.8599999994}},{"attributes":{"ID":257175,"DIS_CODE":0,"TOWNNAME":"新市區","LI":"新和里","LIN":"27鄰","STREET":"忠孝街","SECT":" ","MAREA":" ","LANE":"１８０巷","ALLEY":" ","HOUSE_NO":"７號","E_COORD97":177764.73999999999,"N_COORD97":2552778.75,"ADDRESS":"忠孝街１８０巷７號","OBJECTID":257171},"geometry":{"x":177764.74000000115,"y":2552778.75}},{"attributes":{"ID":257176,"DIS_CODE":0,"TOWNNAME":"新市區","LI":"新市里","LIN":"27鄰","STREET":"復興路","SECT":" ","MAREA":" ","LANE":"６巷","ALLEY":" ","HOUSE_NO":"９號","E_COORD97":177855.73000000001,"N_COORD97":2553345.0299999998,"ADDRESS":"復興路６巷９號","OBJECTID":257172},"geometry":{"x":177855.73000000045,"y":2553345.0300000012}},{"attributes":{"ID":257177,"DIS_CODE":0,"TOWNNAME":"新市區","LI":"新和里","LIN":"27鄰","STREET":"忠孝街","SECT":" ","MAREA":" ","LANE":"１８０巷","ALLEY":" ","HOUSE_NO":"３號","E_COORD97":177756.45999999999,"N_COORD97":2552779.5,"ADDRESS":"忠孝街１８０巷３號","OBJECTID":257173},"geometry":{"x":177756.46000000089,"y":2552779.5000000019}},{"attributes":{"ID":257178,"DIS_CODE":0,"TOWNNAME":"新市區","LI":"新和里","LIN":"27鄰","STREET":"忠孝街","SECT":" ","MAREA":" ","LANE":"１８０巷","ALLEY":" ","HOUSE_NO":"１號","E_COORD97":177752.29000000001,"N_COORD97":2552780,"ADDRESS":"忠孝街１８０巷１號","OBJECTID":257174},"geometry":{"x":177752.29000000097,"y":2552780}},{"attributes":{"ID":257179,"DIS_CODE":0,"TOWNNAME":"新市區","LI":"新和里","LIN":"27鄰","STREET":"忠孝街","SECT":" ","MAREA":" ","LANE":"１８０巷","ALLEY":" ","HOUSE_NO":"５號","E_COORD97":177760.62,"N_COORD97":2552779,"ADDRESS":"忠孝街１８０巷５號","OBJECTID":257175},"geometry":{"x":177760.62000000104,"y":2552779.0000000019}},{"attributes":{"ID":257180,"DIS_CODE":0,"TOWNNAME":"新市區","LI":"新和里","LIN":"27鄰","STREET":"永福街","SECT":" ","MAREA":" ","LANE":"１６巷","ALLEY":" ","HOUSE_NO":"６１號","E_COORD97":177789.5,"N_COORD97":2552847.25,"ADDRESS":"永福街１６巷６１號","OBJECTID":257176},"geometry":{"x":177789.50000000186,"y":2552847.25}},{"attributes":{"ID":257181,"DIS_CODE":0,"TOWNNAME":"新市區","LI":"新和里","LIN":"27鄰","STREET":"忠孝街","SECT":" ","MAREA":" ","LANE":"１８０巷","ALLEY":" ","HOUSE_NO":"１０號","E_COORD97":177771.67999999999,"N_COORD97":2552766,"ADDRESS":"忠孝街１８０巷１０號","OBJECTID":257177},"geometry":{"x":177771.68000000063,"y":2552766.0000000019}},{"attributes":{"ID":257182,"DIS_CODE":0,"TOWNNAME":"新市區","LI":"新和里","LIN":"27鄰","STREET":"永福街","SECT":" ","MAREA":" ","LANE":"１６巷","ALLEY":" ","HOUSE_NO":"６９號","E_COORD97":177788.25,"N_COORD97":2552865.75,"ADDRESS":"永福街１６巷６９號","OBJECTID":257178},"geometry":{"x":177788.25000000093,"y":2552865.7500000019}},{"attributes":{"ID":257183,"DIS_CODE":0,"TOWNNAME":"新市區","LI":"新和里","LIN":"27鄰","STREET":"永福街","SECT":" ","MAREA":" ","LANE":"１６巷","ALLEY":" ","HOUSE_NO":"５９號","E_COORD97":177790,"N_COORD97":2552842.75,"ADDRESS":"永福街１６巷５９號","OBJECTID":257179},"geometry":{"x":177790.00000000093,"y":2552842.75}},{"attributes":{"ID":257184,"DIS_CODE":0,"TOWNNAME":"新市區","LI":"新和里","LIN":"27鄰","STREET":"忠孝街","SECT":" ","MAREA":" ","LANE":"１８０巷","ALLEY":" ","HOUSE_NO":"２號","E_COORD97":177753.64000000001,"N_COORD97":2552768,"ADDRESS":"忠孝街１８０巷２號","OBJECTID":257180},"geometry":{"x":177753.63999999966,"y":2552768.0000000037}},{"attributes":{"ID":257185,"DIS_CODE":0,"TOWNNAME":"新市區","LI":"新市里","LIN":"27鄰","STREET":"復興路","SECT":" ","MAREA":" ","LANE":"６巷","ALLEY":" ","HOUSE_NO":"７號","E_COORD97":177852.14000000001,"N_COORD97":2553343.7799999998,"ADDRESS":"復興路６巷７號","OBJECTID":257181},"geometry":{"x":177852.13999999966,"y":2553343.7799999993}},{"attributes":{"ID":257186,"DIS_CODE":0,"TOWNNAME":"南區","LI":"開南里","LIN":"17鄰","STREET":"新建路","SECT":" ","MAREA":" ","LANE":"２４巷","ALLEY":" ","HOUSE_NO":"１號四樓之２","E_COORD97":166424.38,"N_COORD97":2541098.9300000002,"ADDRESS":"新建路２４巷１號四樓之２","OBJECTID":257182},"geometry":{"x":166424.38000000082,"y":2541098.9300000016}},{"attributes":{"ID":257187,"DIS_CODE":0,"TOWNNAME":"東區","LI":"泉南里","LIN":"24鄰","STREET":"長榮路","SECT":"一段","MAREA":" ","LANE":" ","ALLEY":" ","HOUSE_NO":"３號九樓之２","E_COORD97":169571.70999999999,"N_COORD97":2542585.8599999999,"ADDRESS":"長榮路一段３號九樓之２","OBJECTID":257183},"geometry":{"x":169571.71000000089,"y":2542585.8599999994}},{"attributes":{"ID":257188,"DIS_CODE":0,"TOWNNAME":"東區","LI":"泉南里","LIN":"24鄰","STREET":"長榮路","SECT":"一段","MAREA":" ","LANE":" ","ALLEY":" ","HOUSE_NO":"３號十樓之２","E_COORD97":169571.70999999999,"N_COORD97":2542585.8599999999,"ADDRESS":"長榮路一段３號十樓之２","OBJECTID":257184},"geometry":{"x":169571.71000000089,"y":2542585.8599999994}},{"attributes":{"ID":257189,"DIS_CODE":0,"TOWNNAME":"東區","LI":"泉南里","LIN":"24鄰","STREET":"長榮路","SECT":"一段","MAREA":" ","LANE":" ","ALLEY":" ","HOUSE_NO":"３號十一樓之２","E_COORD97":169571.70999999999,"N_COORD97":2542585.8599999999,"ADDRESS":"長榮路一段３號十一樓之２","OBJECTID":257185},"geometry":{"x":169571.71000000089,"y":2542585.8599999994}},{"attributes":{"ID":257190,"DIS_CODE":0,"TOWNNAME":"東區","LI":"泉南里","LIN":"24鄰","STREET":"長榮路","SECT":"一段","MAREA":" ","LANE":" ","ALLEY":" ","HOUSE_NO":"３號十二樓之２","E_COORD97":169571.70999999999,"N_COORD97":2542585.8599999999,"ADDRESS":"長榮路一段３號十二樓之２","OBJECTID":257186},"geometry":{"x":169571.71000000089,"y":2542585.8599999994}},{"attributes":{"ID":257191,"DIS_CODE":0,"TOWNNAME":"東區","LI":"泉南里","LIN":"24鄰","STREET":"長榮路","SECT":"一段","MAREA":" ","LANE":" ","ALLEY":" ","HOUSE_NO":"３號十三樓之２","E_COORD97":169571.70999999999,"N_COORD97":2542585.8599999999,"ADDRESS":"長榮路一段３號十三樓之２","OBJECTID":257187},"geometry":{"x":169571.71000000089,"y":2542585.8599999994}},{"attributes":{"ID":257192,"DIS_CODE":0,"TOWNNAME":"東區","LI":"泉南里","LIN":"24鄰","STREET":"長榮路","SECT":"一段","MAREA":" ","LANE":" ","ALLEY":" ","HOUSE_NO":"３號十四樓之２","E_COORD97":169571.70999999999,"N_COORD97":2542585.8599999999,"ADDRESS":"長榮路一段３號十四樓之２","OBJECTID":257188},"geometry":{"x":169571.71000000089,"y":2542585.8599999994}},{"attributes":{"ID":257193,"DIS_CODE":0,"TOWNNAME":"東區","LI":"泉南里","LIN":"24鄰","STREET":"長榮路","SECT":"一段","MAREA":" ","LANE":" ","ALLEY":" ","HOUSE_NO":"３號二樓之３","E_COORD97":169571.70999999999,"N_COORD97":2542585.8599999999,"ADDRESS":"長榮路一段３號二樓之３","OBJECTID":257189},"geometry":{"x":169571.71000000089,"y":2542585.8599999994}},{"attributes":{"ID":257194,"DIS_CODE":0,"TOWNNAME":"東區","LI":"泉南里","LIN":"24鄰","STREET":"長榮路","SECT":"一段","MAREA":" ","LANE":" ","ALLEY":" ","HOUSE_NO":"３號三樓之３","E_COORD97":169571.70999999999,"N_COORD97":2542585.8599999999,"ADDRESS":"長榮路一段３號三樓之３","OBJECTID":257190},"geometry":{"x":169571.71000000089,"y":2542585.8599999994}},{"attributes":{"ID":257195,"DIS_CODE":0,"TOWNNAME":"東區","LI":"泉南里","LIN":"24鄰","STREET":"長榮路","SECT":"一段","MAREA":" ","LANE":" ","ALLEY":" ","HOUSE_NO":"３號四樓之３","E_COORD97":169571.70999999999,"N_COORD97":2542585.8599999999,"ADDRESS":"長榮路一段３號四樓之３","OBJECTID":257191},"geometry":{"x":169571.71000000089,"y":2542585.8599999994}},{"attributes":{"ID":257196,"DIS_CODE":0,"TOWNNAME":"歸仁區","LI":"崙頂里","LIN":"21鄰","STREET":"崙頂二街","SECT":" ","MAREA":" ","LANE":"５０巷","ALLEY":" ","HOUSE_NO":"１２號","E_COORD97":177780.04399599999,"N_COORD97":2540007.5877200002,"ADDRESS":"崙頂二街５０巷１２號","OBJECTID":257192},"geometry":{"x":177780.0439959988,"y":2540007.5877240021}},{"attributes":{"ID":257197,"DIS_CODE":0,"TOWNNAME":"東區","LI":"泉南里","LIN":"24鄰","STREET":"長榮路","SECT":"一段","MAREA":" ","LANE":" ","ALLEY":" ","HOUSE_NO":"３號五樓之３","E_COORD97":169571.70999999999,"N_COORD97":2542585.8599999999,"ADDRESS":"長榮路一段３號五樓之３","OBJECTID":257193},"geometry":{"x":169571.71000000089,"y":2542585.8599999994}},{"attributes":{"ID":257198,"DIS_CODE":0,"TOWNNAME":"東區","LI":"泉南里","LIN":"24鄰","STREET":"長榮路","SECT":"一段","MAREA":" ","LANE":" ","ALLEY":" ","HOUSE_NO":"３號六樓之３","E_COORD97":169571.70999999999,"N_COORD97":2542585.8599999999,"ADDRESS":"長榮路一段３號六樓之３","OBJECTID":257194},"geometry":{"x":169571.71000000089,"y":2542585.8599999994}},{"attributes":{"ID":257199,"DIS_CODE":0,"TOWNNAME":"南區","LI":"開南里","LIN":"17鄰","STREET":"新建路","SECT":" ","MAREA":" ","LANE":"２４巷","ALLEY":" ","HOUSE_NO":"１號四樓之３","E_COORD97":166424.38,"N_COORD97":2541098.9300000002,"ADDRESS":"新建路２４巷１號四樓之３","OBJECTID":257195},"geometry":{"x":166424.38000000082,"y":2541098.9300000016}},{"attributes":{"ID":257200,"DIS_CODE":0,"TOWNNAME":"南區","LI":"開南里","LIN":"17鄰","STREET":"新建路","SECT":" ","MAREA":" ","LANE":"２４巷","ALLEY":" ","HOUSE_NO":"２號七樓","E_COORD97":166424.95999999999,"N_COORD97":2541140.1800000002,"ADDRESS":"新建路２４巷２號七樓","OBJECTID":257196},"geometry":{"x":166424.95999999996,"y":2541140.1799999997}},{"attributes":{"ID":257201,"DIS_CODE":0,"TOWNNAME":"南區","LI":"開南里","LIN":"17鄰","STREET":"新建路","SECT":" ","MAREA":" ","LANE":"２４巷","ALLEY":" ","HOUSE_NO":"２號七樓之１","E_COORD97":166424.95999999999,"N_COORD97":2541140.1800000002,"ADDRESS":"新建路２４巷２號七樓之１","OBJECTID":257197},"geometry":{"x":166424.95999999996,"y":2541140.1799999997}},{"attributes":{"ID":257202,"DIS_CODE":0,"TOWNNAME":"南區","LI":"開南里","LIN":"17鄰","STREET":"新建路","SECT":" ","MAREA":" ","LANE":"２４巷","ALLEY":" ","HOUSE_NO":"２號七樓之２","E_COORD97":166424.95999999999,"N_COORD97":2541140.1800000002,"ADDRESS":"新建路２４巷２號七樓之２","OBJECTID":257198},"geometry":{"x":166424.95999999996,"y":2541140.1799999997}},{"attributes":{"ID":257203,"DIS_CODE":0,"TOWNNAME":"南區","LI":"開南里","LIN":"17鄰","STREET":"新建路","SECT":" ","MAREA":" ","LANE":"２４巷","ALLEY":" ","HOUSE_NO":"２號七樓之３","E_COORD97":166424.95999999999,"N_COORD97":2541140.1800000002,"ADDRESS":"新建路２４巷２號七樓之３","OBJECTID":257199},"geometry":{"x":166424.95999999996,"y":2541140.1799999997}},{"attributes":{"ID":257204,"DIS_CODE":0,"TOWNNAME":"南區","LI":"開南里","LIN":"17鄰","STREET":"新建路","SECT":" ","MAREA":" ","LANE":"２４巷","ALLEY":" ","HOUSE_NO":"２號九樓","E_COORD97":166424.95999999999,"N_COORD97":2541140.1800000002,"ADDRESS":"新建路２４巷２號九樓","OBJECTID":257200},"geometry":{"x":166424.95999999996,"y":2541140.1799999997}}]}