{"displayFieldName":"TOWNNAME","fieldAliases":{"ID":"ID","DIS_CODE":"DIS_CODE","TOWNNAME":"TOWNNAME","LI":"LI","LIN":"LIN","STREET":"STREET","SECT":"SECT","MAREA":"MAREA","LANE":"LANE","ALLEY":"ALLEY","HOUSE_NO":"HOUSE_NO","E_COORD97":"E_COORD97","N_COORD97":"N_COORD97","ADDRESS":"ADDRESS","OBJECTID":"OBJECTID"},"geometryType":"esriGeometryPoint","spatialReference":{"wkid":102443,"latestWkid":3826},"fields":[{"name":"ID","type":"esriFieldTypeDouble","alias":"ID"},{"name":"DIS_CODE","type":"esriFieldTypeInteger","alias":"DIS_CODE"},{"name":"TOWNNAME","type":"esriFieldTypeString","alias":"TOWNNAME","length":8},{"name":"LI","type":"esriFieldTypeString","alias":"LI","length":8},{"name":"LIN","type":"esriFieldTypeString","alias":"LIN","length":12},{"name":"STREET","type":"esriFieldTypeString","alias":"STREET","length":20},{"name":"SECT","type":"esriFieldTypeString","alias":"SECT","length":8},{"name":"MAREA","type":"esriFieldTypeString","alias":"MAREA","length":12},{"name":"LANE","type":"esriFieldTypeString","alias":"LANE","length":10},{"name":"ALLEY","type":"esriFieldTypeString","alias":"ALLEY","length":10},{"name":"HOUSE_NO","type":"esriFieldTypeString","alias":"HOUSE_NO","length":20},{"name":"E_COORD97","type":"esriFieldTypeDouble","alias":"E_COORD97"},{"name":"N_COORD97","type":"esriFieldTypeDouble","alias":"N_COORD97"},{"name":"ADDRESS","type":"esriFieldTypeString","alias":"ADDRESS","length":50},{"name":"OBJECTID","type":"esriFieldTypeOID","alias":"OBJECTID"}],"features":[{"attributes":{"ID":335010,"DIS_CODE":0,"TOWNNAME":"東山區","LI":"東中里","LIN":"20鄰","STREET":" ","SECT":" ","MAREA":"東山市場","LANE":" ","ALLEY":" ","HOUSE_NO":"１２號","E_COORD97":188923.70999999999,"N_COORD97":2580158.3700000001,"ADDRESS":"東山市場１２號","OBJECTID":335001},"geometry":{"x":188923.71000000183,"y":2580158.3700000029}},{"attributes":{"ID":335011,"DIS_CODE":0,"TOWNNAME":"東山區","LI":"東中里","LIN":"20鄰","STREET":" ","SECT":" ","MAREA":"東山市場","LANE":" ","ALLEY":" ","HOUSE_NO":"１４號","E_COORD97":188918.10999999999,"N_COORD97":2580156.8799999999,"ADDRESS":"東山市場１４號","OBJECTID":335002},"geometry":{"x":188918.11000000127,"y":2580156.8800000008}},{"attributes":{"ID":335012,"DIS_CODE":0,"TOWNNAME":"東山區","LI":"東中里","LIN":"20鄰","STREET":" ","SECT":" ","MAREA":"東山市場","LANE":" ","ALLEY":" ","HOUSE_NO":"１５號","E_COORD97":188918.69,"N_COORD97":2580163.27,"ADDRESS":"東山市場１５號","OBJECTID":335003},"geometry":{"x":188918.69000000041,"y":2580163.2700000033}},{"attributes":{"ID":335013,"DIS_CODE":0,"TOWNNAME":"中西區","LI":"赤嵌里","LIN":"17鄰","STREET":"忠義路","SECT":"二段","MAREA":" ","LANE":" ","ALLEY":" ","HOUSE_NO":"１８７號","E_COORD97":168418.48999999999,"N_COORD97":2544176.6600000001,"ADDRESS":"忠義路二段１８７號","OBJECTID":335004},"geometry":{"x":168418.49000000022,"y":2544176.660000002}},{"attributes":{"ID":335014,"DIS_CODE":0,"TOWNNAME":"中西區","LI":"大涼里","LIN":"1鄰","STREET":"金華路","SECT":"三段","MAREA":" ","LANE":"１８３巷","ALLEY":" ","HOUSE_NO":"１４號","E_COORD97":167263.67999999999,"N_COORD97":2543822.23,"ADDRESS":"金華路三段１８３巷１４號","OBJECTID":335005},"geometry":{"x":167263.6799999997,"y":2543822.2300000004}},{"attributes":{"ID":335015,"DIS_CODE":0,"TOWNNAME":"中西區","LI":"大涼里","LIN":"1鄰","STREET":"金華路","SECT":"三段","MAREA":" ","LANE":"１８３巷","ALLEY":" ","HOUSE_NO":"１６號","E_COORD97":167260.29999999999,"N_COORD97":2543822.8300000001,"ADDRESS":"金華路三段１８３巷１６號","OBJECTID":335006},"geometry":{"x":167260.30000000075,"y":2543822.8300000019}},{"attributes":{"ID":335016,"DIS_CODE":0,"TOWNNAME":"南區","LI":"郡南里","LIN":"11鄰","STREET":"永成路","SECT":"三段","MAREA":" ","LANE":" ","ALLEY":" ","HOUSE_NO":"１０１號","E_COORD97":167481.63966300001,"N_COORD97":2540651.3294199998,"ADDRESS":"永成路三段１０１號","OBJECTID":335007},"geometry":{"x":167481.63966299966,"y":2540651.3294170015}},{"attributes":{"ID":335017,"DIS_CODE":0,"TOWNNAME":"南區","LI":"郡南里","LIN":"11鄰","STREET":"永成路","SECT":"三段","MAREA":" ","LANE":" ","ALLEY":" ","HOUSE_NO":"９９號","E_COORD97":167481.21611499999,"N_COORD97":2540647.3077500002,"ADDRESS":"永成路三段９９號","OBJECTID":335008},"geometry":{"x":167481.21611500066,"y":2540647.307752002}},{"attributes":{"ID":335018,"DIS_CODE":0,"TOWNNAME":"南區","LI":"郡南里","LIN":"11鄰","STREET":"永成路","SECT":"三段","MAREA":" ","LANE":" ","ALLEY":" ","HOUSE_NO":"９７號","E_COORD97":167480.58079199999,"N_COORD97":2540643.4977500001,"ADDRESS":"永成路三段９７號","OBJECTID":335009},"geometry":{"x":167480.58079199959,"y":2540643.497754002}},{"attributes":{"ID":335019,"DIS_CODE":0,"TOWNNAME":"南區","LI":"郡南里","LIN":"11鄰","STREET":"永成路","SECT":"三段","MAREA":" ","LANE":" ","ALLEY":" ","HOUSE_NO":"９３號","E_COORD97":167481.180375,"N_COORD97":2540632.20799,"ADDRESS":"永成路三段９３號","OBJECTID":335010},"geometry":{"x":167481.18037500046,"y":2540632.2079850007}},{"attributes":{"ID":335020,"DIS_CODE":0,"TOWNNAME":"南區","LI":"郡南里","LIN":"11鄰","STREET":"永成路","SECT":"三段","MAREA":" ","LANE":" ","ALLEY":" ","HOUSE_NO":"９５號","E_COORD97":167480.756827,"N_COORD97":2540638.5050599999,"ADDRESS":"永成路三段９５號","OBJECTID":335011},"geometry":{"x":167480.75682700146,"y":2540638.5050640013}},{"attributes":{"ID":335021,"DIS_CODE":0,"TOWNNAME":"南區","LI":"郡南里","LIN":"11鄰","STREET":"永成路","SECT":"三段","MAREA":" ","LANE":" ","ALLEY":" ","HOUSE_NO":"９１號","E_COORD97":167481.180375,"N_COORD97":2540626.7575699999,"ADDRESS":"永成路三段９１號","OBJECTID":335012},"geometry":{"x":167481.18037500046,"y":2540626.7575710006}},{"attributes":{"ID":335022,"DIS_CODE":0,"TOWNNAME":"南區","LI":"郡南里","LIN":"7鄰","STREET":"永成路","SECT":"三段","MAREA":" ","LANE":" ","ALLEY":" ","HOUSE_NO":"６９號","E_COORD97":167480.968601,"N_COORD97":2540565.00385,"ADDRESS":"永成路三段６９號","OBJECTID":335013},"geometry":{"x":167480.96860099956,"y":2540565.0038539991}},{"attributes":{"ID":335023,"DIS_CODE":0,"TOWNNAME":"南區","LI":"郡南里","LIN":"13鄰","STREET":"永成路","SECT":"三段","MAREA":" ","LANE":" ","ALLEY":" ","HOUSE_NO":"６７號","E_COORD97":167480.12150499999,"N_COORD97":2540559.5005199998,"ADDRESS":"永成路三段６７號","OBJECTID":335014},"geometry":{"x":167480.1215049997,"y":2540559.5005240012}},{"attributes":{"ID":335024,"DIS_CODE":0,"TOWNNAME":"南區","LI":"郡南里","LIN":"13鄰","STREET":"永成路","SECT":"三段","MAREA":" ","LANE":" ","ALLEY":" ","HOUSE_NO":"６５號","E_COORD97":167480.33327900001,"N_COORD97":2540552.72719,"ADDRESS":"永成路三段６５號","OBJECTID":335015},"geometry":{"x":167480.33327899966,"y":2540552.727194}},{"attributes":{"ID":335025,"DIS_CODE":0,"TOWNNAME":"中西區","LI":"大涼里","LIN":"1鄰","STREET":"金華路","SECT":"三段","MAREA":" ","LANE":"１８３巷","ALLEY":" ","HOUSE_NO":"１８號","E_COORD97":167256.63,"N_COORD97":2543823.5800000001,"ADDRESS":"金華路三段１８３巷１８號","OBJECTID":335016},"geometry":{"x":167256.63000000082,"y":2543823.5799999982}},{"attributes":{"ID":335026,"DIS_CODE":0,"TOWNNAME":"中西區","LI":"大涼里","LIN":"1鄰","STREET":"金華路","SECT":"三段","MAREA":" ","LANE":"１８３巷","ALLEY":" ","HOUSE_NO":"２２號","E_COORD97":167248.92000000001,"N_COORD97":2543825.1499999999,"ADDRESS":"金華路三段１８３巷２２號","OBJECTID":335017},"geometry":{"x":167248.91999999993,"y":2543825.1500000022}},{"attributes":{"ID":335027,"DIS_CODE":0,"TOWNNAME":"中西區","LI":"大涼里","LIN":"1鄰","STREET":"金華路","SECT":"三段","MAREA":" ","LANE":"１８３巷","ALLEY":" ","HOUSE_NO":"２４號","E_COORD97":167244.95000000001,"N_COORD97":2543826.5699999998,"ADDRESS":"金華路三段１８３巷２４號","OBJECTID":335018},"geometry":{"x":167244.95000000112,"y":2543826.5700000003}},{"attributes":{"ID":335028,"DIS_CODE":0,"TOWNNAME":"中西區","LI":"大涼里","LIN":"1鄰","STREET":"金華路","SECT":"三段","MAREA":" ","LANE":"１８３巷","ALLEY":" ","HOUSE_NO":"６號","E_COORD97":167277.84,"N_COORD97":2543819.6899999999,"ADDRESS":"金華路三段１８３巷６號","OBJECTID":335019},"geometry":{"x":167277.83999999985,"y":2543819.6900000013}},{"attributes":{"ID":335029,"DIS_CODE":0,"TOWNNAME":"中西區","LI":"大涼里","LIN":"1鄰","STREET":"金華路","SECT":"三段","MAREA":" ","LANE":"１８３巷","ALLEY":" ","HOUSE_NO":"８號","E_COORD97":167274.47,"N_COORD97":2543820.21,"ADDRESS":"金華路三段１８３巷８號","OBJECTID":335020},"geometry":{"x":167274.47000000067,"y":2543820.2100000046}},{"attributes":{"ID":335030,"DIS_CODE":0,"TOWNNAME":"中西區","LI":"大涼里","LIN":"1鄰","STREET":"金華路","SECT":"三段","MAREA":" ","LANE":"１８９巷","ALLEY":" ","HOUSE_NO":"１１號","E_COORD97":167268.62,"N_COORD97":2543830.6200000001,"ADDRESS":"金華路三段１８９巷１１號","OBJECTID":335021},"geometry":{"x":167268.62000000104,"y":2543830.620000001}},{"attributes":{"ID":335031,"DIS_CODE":0,"TOWNNAME":"中西區","LI":"大涼里","LIN":"1鄰","STREET":"金華路","SECT":"三段","MAREA":" ","LANE":"１８９巷","ALLEY":" ","HOUSE_NO":"１３號","E_COORD97":167264.85000000001,"N_COORD97":2543831.77,"ADDRESS":"金華路三段１８９巷１３號","OBJECTID":335022},"geometry":{"x":167264.85000000056,"y":2543831.7699999996}},{"attributes":{"ID":335032,"DIS_CODE":0,"TOWNNAME":"中西區","LI":"大涼里","LIN":"1鄰","STREET":"金華路","SECT":"三段","MAREA":" ","LANE":"１８９巷","ALLEY":" ","HOUSE_NO":"１５號","E_COORD97":167260.92999999999,"N_COORD97":2543832.4199999999,"ADDRESS":"金華路三段１８９巷１５號","OBJECTID":335023},"geometry":{"x":167260.93000000063,"y":2543832.4200000018}},{"attributes":{"ID":335033,"DIS_CODE":0,"TOWNNAME":"中西區","LI":"大涼里","LIN":"1鄰","STREET":"金華路","SECT":"三段","MAREA":" ","LANE":"１８９巷","ALLEY":" ","HOUSE_NO":"１６號","E_COORD97":167266.45999999999,"N_COORD97":2543855.5099999998,"ADDRESS":"金華路三段１８９巷１６號","OBJECTID":335024},"geometry":{"x":167266.46000000089,"y":2543855.5100000016}},{"attributes":{"ID":335034,"DIS_CODE":0,"TOWNNAME":"中西區","LI":"大涼里","LIN":"1鄰","STREET":"金華路","SECT":"三段","MAREA":" ","LANE":"１８９巷","ALLEY":" ","HOUSE_NO":"１７號","E_COORD97":167257.01000000001,"N_COORD97":2543833.5099999998,"ADDRESS":"金華路三段１８９巷１７號","OBJECTID":335025},"geometry":{"x":167257.01000000164,"y":2543833.5099999998}},{"attributes":{"ID":335035,"DIS_CODE":0,"TOWNNAME":"中西區","LI":"大涼里","LIN":"1鄰","STREET":"金華路","SECT":"三段","MAREA":" ","LANE":"１８９巷","ALLEY":" ","HOUSE_NO":"１９號","E_COORD97":167253.31,"N_COORD97":2543834.27,"ADDRESS":"金華路三段１８９巷１９號","OBJECTID":335026},"geometry":{"x":167253.31000000052,"y":2543834.2699999996}},{"attributes":{"ID":335036,"DIS_CODE":0,"TOWNNAME":"東區","LI":"裕聖里","LIN":"1鄰","STREET":"裕忠一街","SECT":" ","MAREA":" ","LANE":" ","ALLEY":" ","HOUSE_NO":"１９號","E_COORD97":172310.84,"N_COORD97":2542423.3500000001,"ADDRESS":"裕忠一街１９號","OBJECTID":335027},"geometry":{"x":172310.83999999985,"y":2542423.3499999996}},{"attributes":{"ID":335037,"DIS_CODE":0,"TOWNNAME":"仁德區","LI":"保安里","LIN":"9鄰","STREET":"文賢路","SECT":"一段","MAREA":" ","LANE":" ","ALLEY":" ","HOUSE_NO":"７８９之１號","E_COORD97":171537.93239100001,"N_COORD97":2536110.69514,"ADDRESS":"文賢路一段７８９之１號","OBJECTID":335028},"geometry":{"x":171537.93239100091,"y":2536110.6951400023}},{"attributes":{"ID":335038,"DIS_CODE":0,"TOWNNAME":"南區","LI":"郡南里","LIN":"24鄰","STREET":"永成路","SECT":"三段","MAREA":" ","LANE":" ","ALLEY":" ","HOUSE_NO":"１００號","E_COORD97":167506.275601,"N_COORD97":2540593.89634,"ADDRESS":"永成路三段１００號","OBJECTID":335029},"geometry":{"x":167506.27560100146,"y":2540593.8963390011}},{"attributes":{"ID":335039,"DIS_CODE":0,"TOWNNAME":"仁德區","LI":"保安里","LIN":"12鄰","STREET":"民生路","SECT":" ","MAREA":" ","LANE":" ","ALLEY":" ","HOUSE_NO":"１５號","E_COORD97":173008.524855,"N_COORD97":2535971.1107399999,"ADDRESS":"民生路１５號","OBJECTID":335030},"geometry":{"x":173008.5248550009,"y":2535971.1107410025}},{"attributes":{"ID":335040,"DIS_CODE":0,"TOWNNAME":"仁德區","LI":"保安里","LIN":"12鄰","STREET":"永德路","SECT":" ","MAREA":" ","LANE":" ","ALLEY":" ","HOUSE_NO":"２３號","E_COORD97":172417.08743399999,"N_COORD97":2535813.2652599998,"ADDRESS":"永德路２３號","OBJECTID":335031},"geometry":{"x":172417.0874339994,"y":2535813.2652560007}},{"attributes":{"ID":335041,"DIS_CODE":0,"TOWNNAME":"仁德區","LI":"保安里","LIN":"12鄰","STREET":"永德路","SECT":" ","MAREA":" ","LANE":" ","ALLEY":" ","HOUSE_NO":"２６號","E_COORD97":172434.880825,"N_COORD97":2535755.4802899999,"ADDRESS":"永德路２６號","OBJECTID":335032},"geometry":{"x":172434.88082500175,"y":2535755.4802880008}},{"attributes":{"ID":335042,"DIS_CODE":0,"TOWNNAME":"仁德區","LI":"保安里","LIN":"12鄰","STREET":"永德路","SECT":" ","MAREA":" ","LANE":" ","ALLEY":" ","HOUSE_NO":"３０號","E_COORD97":172444.62482500001,"N_COORD97":2535743.4152899999,"ADDRESS":"永德路３０號","OBJECTID":335033},"geometry":{"x":172444.62482500076,"y":2535743.415293999}},{"attributes":{"ID":335043,"DIS_CODE":0,"TOWNNAME":"永康區","LI":"\u25A0行里","LIN":"18鄰","STREET":"中正南路","SECT":" ","MAREA":" ","LANE":" ","ALLEY":" ","HOUSE_NO":"６８４號之１","E_COORD97":171612.47290699999,"N_COORD97":2548845.4273999999,"ADDRESS":"中正南路６８４號之１","OBJECTID":335034},"geometry":{"x":171612.47290700022,"y":2548845.4274040032}},{"attributes":{"ID":335044,"DIS_CODE":0,"TOWNNAME":"仁德區","LI":"保安里","LIN":"11鄰","STREET":"中正路","SECT":"一段","MAREA":" ","LANE":" ","ALLEY":" ","HOUSE_NO":"２１７號","E_COORD97":171698.28473300001,"N_COORD97":2535912.63301,"ADDRESS":"中正路一段２１７號","OBJECTID":335035},"geometry":{"x":171698.28473300207,"y":2535912.6330100019}},{"attributes":{"ID":335045,"DIS_CODE":0,"TOWNNAME":"仁德區","LI":"保安里","LIN":"11鄰","STREET":"文賢二街","SECT":" ","MAREA":" ","LANE":" ","ALLEY":" ","HOUSE_NO":"６號","E_COORD97":171628.80577899999,"N_COORD97":2536047.25294,"ADDRESS":"文賢二街６號","OBJECTID":335036},"geometry":{"x":171628.80577900074,"y":2536047.2529370002}},{"attributes":{"ID":335046,"DIS_CODE":0,"TOWNNAME":"仁德區","LI":"保安里","LIN":"12鄰","STREET":"民生路","SECT":" ","MAREA":" ","LANE":" ","ALLEY":" ","HOUSE_NO":"１１號","E_COORD97":172946.19018100001,"N_COORD97":2536020.5829500002,"ADDRESS":"民生路１１號","OBJECTID":335037},"geometry":{"x":172946.19018100016,"y":2536020.5829520002}},{"attributes":{"ID":335047,"DIS_CODE":0,"TOWNNAME":"仁德區","LI":"保安里","LIN":"12鄰","STREET":"民生路","SECT":" ","MAREA":" ","LANE":" ","ALLEY":" ","HOUSE_NO":"１２號","E_COORD97":172936.40816799999,"N_COORD97":2535972.3229800002,"ADDRESS":"民生路１２號","OBJECTID":335038},"geometry":{"x":172936.40816800203,"y":2535972.3229780048}},{"attributes":{"ID":335048,"DIS_CODE":0,"TOWNNAME":"東區","LI":"龍山里","LIN":"20鄰","STREET":"崇學路","SECT":" ","MAREA":" ","LANE":"２０３巷","ALLEY":" ","HOUSE_NO":"２０號","E_COORD97":170368.53,"N_COORD97":2542425.5899999999,"ADDRESS":"崇學路２０３巷２０號","OBJECTID":335039},"geometry":{"x":170368.53000000119,"y":2542425.5899999999}},{"attributes":{"ID":335049,"DIS_CODE":0,"TOWNNAME":"東區","LI":"龍山里","LIN":"20鄰","STREET":"崇學路","SECT":" ","MAREA":" ","LANE":"２０３巷","ALLEY":" ","HOUSE_NO":"２２號","E_COORD97":170363.78,"N_COORD97":2542426.6400000001,"ADDRESS":"崇學路２０３巷２２號","OBJECTID":335040},"geometry":{"x":170363.78000000026,"y":2542426.6400000006}},{"attributes":{"ID":335050,"DIS_CODE":0,"TOWNNAME":"東區","LI":"龍山里","LIN":"20鄰","STREET":"崇學路","SECT":" ","MAREA":" ","LANE":"２０３巷","ALLEY":" ","HOUSE_NO":"２４號","E_COORD97":170361.14000000001,"N_COORD97":2542429.8100000001,"ADDRESS":"崇學路２０３巷２４號","OBJECTID":335041},"geometry":{"x":170361.13999999966,"y":2542429.8100000024}},{"attributes":{"ID":335051,"DIS_CODE":0,"TOWNNAME":"東區","LI":"龍山里","LIN":"20鄰","STREET":"崇學路","SECT":" ","MAREA":" ","LANE":"２０３巷","ALLEY":" ","HOUSE_NO":"２５號","E_COORD97":170338.20000000001,"N_COORD97":2542414.52,"ADDRESS":"崇學路２０３巷２５號","OBJECTID":335042},"geometry":{"x":170338.20000000112,"y":2542414.5200000014}},{"attributes":{"ID":335052,"DIS_CODE":0,"TOWNNAME":"中西區","LI":"大涼里","LIN":"1鄰","STREET":"金華路","SECT":"三段","MAREA":" ","LANE":"１８９巷","ALLEY":" ","HOUSE_NO":"１號","E_COORD97":167286.60000000001,"N_COORD97":2543826.3500000001,"ADDRESS":"金華路三段１８９巷１號","OBJECTID":335043},"geometry":{"x":167286.60000000149,"y":2543826.3500000015}},{"attributes":{"ID":335053,"DIS_CODE":0,"TOWNNAME":"中西區","LI":"赤嵌里","LIN":"17鄰","STREET":"忠義路","SECT":"二段","MAREA":" ","LANE":" ","ALLEY":" ","HOUSE_NO":"１８９號","E_COORD97":168416.13,"N_COORD97":2544185.4900000002,"ADDRESS":"忠義路二段１８９號","OBJECTID":335044},"geometry":{"x":168416.13000000082,"y":2544185.4900000021}},{"attributes":{"ID":335054,"DIS_CODE":0,"TOWNNAME":"中西區","LI":"赤嵌里","LIN":"17鄰","STREET":"民族路","SECT":"二段","MAREA":" ","LANE":" ","ALLEY":" ","HOUSE_NO":"１７２號","E_COORD97":168365.29999999999,"N_COORD97":2544122.0600000001,"ADDRESS":"民族路二段１７２號","OBJECTID":335045},"geometry":{"x":168365.30000000168,"y":2544122.0600000005}},{"attributes":{"ID":335055,"DIS_CODE":0,"TOWNNAME":"中西區","LI":"赤嵌里","LIN":"17鄰","STREET":"民族路","SECT":"二段","MAREA":" ","LANE":" ","ALLEY":" ","HOUSE_NO":"１７４號","E_COORD97":168361.47,"N_COORD97":2544123.5299999998,"ADDRESS":"民族路二段１７４號","OBJECTID":335046},"geometry":{"x":168361.47000000067,"y":2544123.5299999993}},{"attributes":{"ID":335056,"DIS_CODE":0,"TOWNNAME":"東區","LI":"崇成里","LIN":"17鄰","STREET":"崇明十八街","SECT":" ","MAREA":" ","LANE":" ","ALLEY":" ","HOUSE_NO":"４９號","E_COORD97":170744.14999999999,"N_COORD97":2541198.4199999999,"ADDRESS":"崇明十八街４９號","OBJECTID":335047},"geometry":{"x":170744.1500000013,"y":2541198.4200000018}},{"attributes":{"ID":335057,"DIS_CODE":0,"TOWNNAME":"永康區","LI":"網寮里","LIN":"17鄰","STREET":"永勝街","SECT":" ","MAREA":" ","LANE":" ","ALLEY":" ","HOUSE_NO":"２７３號","E_COORD97":173429.60000000001,"N_COORD97":2546789,"ADDRESS":"永勝街２７３號","OBJECTID":335048},"geometry":{"x":173429.59999999963,"y":2546789.0000000019}},{"attributes":{"ID":335058,"DIS_CODE":0,"TOWNNAME":"永康區","LI":"龍潭里","LIN":"17鄰","STREET":"龍潭街","SECT":" ","MAREA":" ","LANE":" ","ALLEY":" ","HOUSE_NO":"２５８號","E_COORD97":174947.45999999999,"N_COORD97":2548355.21,"ADDRESS":"龍潭街２５８號","OBJECTID":335049},"geometry":{"x":174947.46000000089,"y":2548355.2100000009}},{"attributes":{"ID":335059,"DIS_CODE":0,"TOWNNAME":"永康區","LI":"網寮里","LIN":"17鄰","STREET":"永勝街","SECT":" ","MAREA":" ","LANE":" ","ALLEY":" ","HOUSE_NO":"２６７號","E_COORD97":173423.60000000001,"N_COORD97":2546777.25,"ADDRESS":"永勝街２６７號","OBJECTID":335050},"geometry":{"x":173423.60000000056,"y":2546777.25}},{"attributes":{"ID":335060,"DIS_CODE":0,"TOWNNAME":"永康區","LI":"網寮里","LIN":"17鄰","STREET":"永勝街","SECT":" ","MAREA":" ","LANE":" ","ALLEY":" ","HOUSE_NO":"２６９號","E_COORD97":173425.66,"N_COORD97":2546781,"ADDRESS":"永勝街２６９號","OBJECTID":335051},"geometry":{"x":173425.66000000108,"y":2546781.0000000019}},{"attributes":{"ID":335061,"DIS_CODE":0,"TOWNNAME":"永康區","LI":"網寮里","LIN":"17鄰","STREET":"永勝街","SECT":" ","MAREA":" ","LANE":" ","ALLEY":" ","HOUSE_NO":"２６５號","E_COORD97":173422.04000000001,"N_COORD97":2546773,"ADDRESS":"永勝街２６５號","OBJECTID":335052},"geometry":{"x":173422.04000000004,"y":2546773}},{"attributes":{"ID":335062,"DIS_CODE":0,"TOWNNAME":"東區","LI":"崇文里","LIN":"17鄰","STREET":"崇德二十街","SECT":" ","MAREA":" ","LANE":" ","ALLEY":" ","HOUSE_NO":"３１號","E_COORD97":170898.98000000001,"N_COORD97":2540932.3900000001,"ADDRESS":"崇德二十街３１號","OBJECTID":335053},"geometry":{"x":170898.97999999952,"y":2540932.3900000006}},{"attributes":{"ID":335063,"DIS_CODE":0,"TOWNNAME":"東區","LI":"崇文里","LIN":"17鄰","STREET":"崇德二十街","SECT":" ","MAREA":" ","LANE":" ","ALLEY":" ","HOUSE_NO":"３３號","E_COORD97":170903.26000000001,"N_COORD97":2540932.3900000001,"ADDRESS":"崇德二十街３３號","OBJECTID":335054},"geometry":{"x":170903.26000000164,"y":2540932.3900000006}},{"attributes":{"ID":335064,"DIS_CODE":0,"TOWNNAME":"下營區","LI":"大屯里","LIN":"11鄰","STREET":" ","SECT":" ","MAREA":"大屯寮","LANE":" ","ALLEY":" ","HOUSE_NO":"８９之５號","E_COORD97":172164.53821900001,"N_COORD97":2570711.2179399999,"ADDRESS":"大屯寮８９之５號","OBJECTID":335055},"geometry":{"x":172164.53821900114,"y":2570711.2179360036}},{"attributes":{"ID":335065,"DIS_CODE":0,"TOWNNAME":"安定區","LI":"港口里","LIN":"20鄰","STREET":" ","SECT":" ","MAREA":"港口","LANE":" ","ALLEY":" ","HOUSE_NO":"３９３號之４","E_COORD97":171555.45000000001,"N_COORD97":2554994.2999999998,"ADDRESS":"港口３９３號之４","OBJECTID":335056},"geometry":{"x":171555.45000000112,"y":2554994.3000000045}},{"attributes":{"ID":335066,"DIS_CODE":0,"TOWNNAME":"安定區","LI":"港口里","LIN":"20鄰","STREET":" ","SECT":" ","MAREA":"港口","LANE":" ","ALLEY":" ","HOUSE_NO":"３９３號之１４","E_COORD97":171538.79999999999,"N_COORD97":2554974.2999999998,"ADDRESS":"港口３９３號之１４","OBJECTID":335057},"geometry":{"x":171538.80000000168,"y":2554974.3000000026}},{"attributes":{"ID":335067,"DIS_CODE":0,"TOWNNAME":"安定區","LI":"港口里","LIN":"20鄰","STREET":" ","SECT":" ","MAREA":"港口","LANE":" ","ALLEY":" ","HOUSE_NO":"３９３號之９","E_COORD97":171534.81,"N_COORD97":2555015.2999999998,"ADDRESS":"港口３９３號之９","OBJECTID":335058},"geometry":{"x":171534.80999999959,"y":2555015.3000000026}},{"attributes":{"ID":335068,"DIS_CODE":0,"TOWNNAME":"永康區","LI":"復國里","LIN":"24鄰","STREET":"復國一路","SECT":" ","MAREA":" ","LANE":"３１５巷","ALLEY":" ","HOUSE_NO":"１號","E_COORD97":172730.17153600001,"N_COORD97":2545614.49407,"ADDRESS":"復國一路３１５巷１號","OBJECTID":335059},"geometry":{"x":172730.17153600138,"y":2545614.4940680023}},{"attributes":{"ID":335069,"DIS_CODE":0,"TOWNNAME":"永康區","LI":"復國里","LIN":"18鄰","STREET":"復國一路","SECT":" ","MAREA":" ","LANE":"３２２巷","ALLEY":" ","HOUSE_NO":"６號","E_COORD97":172794.57923199999,"N_COORD97":2545617.7749000001,"ADDRESS":"復國一路３２２巷６號","OBJECTID":335060},"geometry":{"x":172794.57923200075,"y":2545617.7748990022}},{"attributes":{"ID":335070,"DIS_CODE":0,"TOWNNAME":"安南區","LI":"州北里","LIN":"24鄰","STREET":"長和路","SECT":"二段","MAREA":" ","LANE":"１４０巷","ALLEY":" ","HOUSE_NO":"２３１號","E_COORD97":170361.14999999999,"N_COORD97":2552018.1000000001,"ADDRESS":"長和路二段１４０巷２３１號","OBJECTID":335061},"geometry":{"x":170361.1500000013,"y":2552018.1000000015}},{"attributes":{"ID":335071,"DIS_CODE":0,"TOWNNAME":"南區","LI":"郡南里","LIN":"17鄰","STREET":"永成路","SECT":"三段","MAREA":" ","LANE":"２５巷","ALLEY":" ","HOUSE_NO":"１６號","E_COORD97":167462.86191899999,"N_COORD97":2540424.1397600002,"ADDRESS":"永成路三段２５巷１６號","OBJECTID":335062},"geometry":{"x":167462.86191900168,"y":2540424.1397640016}},{"attributes":{"ID":335072,"DIS_CODE":0,"TOWNNAME":"仁德區","LI":"保安里","LIN":"12鄰","STREET":"永德路","SECT":" ","MAREA":" ","LANE":" ","ALLEY":" ","HOUSE_NO":"１０號","E_COORD97":172075.238549,"N_COORD97":2536043.0389899998,"ADDRESS":"永德路１０號","OBJECTID":335063},"geometry":{"x":172075.23854900058,"y":2536043.0389919989}},{"attributes":{"ID":335073,"DIS_CODE":0,"TOWNNAME":"仁德區","LI":"保安里","LIN":"12鄰","STREET":"開發一路","SECT":" ","MAREA":" ","LANE":" ","ALLEY":" ","HOUSE_NO":"１６號","E_COORD97":172550.65347700001,"N_COORD97":2535992.6429699999,"ADDRESS":"開發一路１６號","OBJECTID":335064},"geometry":{"x":172550.653477001,"y":2535992.6429670006}},{"attributes":{"ID":335074,"DIS_CODE":0,"TOWNNAME":"永康區","LI":"復國里","LIN":"18鄰","STREET":"復國一路","SECT":" ","MAREA":" ","LANE":" ","ALLEY":" ","HOUSE_NO":"３４６之１號","E_COORD97":172779.96038,"N_COORD97":2545693.0223599998,"ADDRESS":"復國一路３４６之１號","OBJECTID":335065},"geometry":{"x":172779.96038000006,"y":2545693.0223590005}},{"attributes":{"ID":335075,"DIS_CODE":0,"TOWNNAME":"安定區","LI":"港口里","LIN":"20鄰","STREET":" ","SECT":" ","MAREA":"港口","LANE":" ","ALLEY":" ","HOUSE_NO":"３９３之１８號","E_COORD97":171531.23999999999,"N_COORD97":2555005.2999999998,"ADDRESS":"港口３９３之１８號","OBJECTID":335066},"geometry":{"x":171531.24000000115,"y":2555005.3000000026}},{"attributes":{"ID":335076,"DIS_CODE":0,"TOWNNAME":"安定區","LI":"蘇林里","LIN":"20鄰","STREET":" ","SECT":" ","MAREA":"蘇厝","LANE":" ","ALLEY":" ","HOUSE_NO":"２２７之６號","E_COORD97":173346.01999999999,"N_COORD97":2558823.2999999998,"ADDRESS":"蘇厝２２７之６號","OBJECTID":335067},"geometry":{"x":173346.02000000048,"y":2558823.3000000026}},{"attributes":{"ID":335077,"DIS_CODE":0,"TOWNNAME":"安定區","LI":"港南里","LIN":"20鄰","STREET":" ","SECT":" ","MAREA":"港口","LANE":" ","ALLEY":" ","HOUSE_NO":"２０６之３號","E_COORD97":171400.29000000001,"N_COORD97":2554606.2999999998,"ADDRESS":"港口２０６之３號","OBJECTID":335068},"geometry":{"x":171400.29000000097,"y":2554606.3000000007}},{"attributes":{"ID":335078,"DIS_CODE":0,"TOWNNAME":"安定區","LI":"港口里","LIN":"20鄰","STREET":" ","SECT":" ","MAREA":"港口","LANE":" ","ALLEY":" ","HOUSE_NO":"３９９之３９號","E_COORD97":171534.64000000001,"N_COORD97":2554905.2999999998,"ADDRESS":"港口３９９之３９號","OBJECTID":335069},"geometry":{"x":171534.64000000153,"y":2554905.3000000007}},{"attributes":{"ID":335079,"DIS_CODE":0,"TOWNNAME":"新營區","LI":"新南里","LIN":"29鄰","STREET":"明清一街","SECT":" ","MAREA":" ","LANE":" ","ALLEY":" ","HOUSE_NO":"７號","E_COORD97":178147.06415699999,"N_COORD97":2578649.3890999998,"ADDRESS":"明清一街７號","OBJECTID":335070},"geometry":{"x":178147.06415700167,"y":2578649.3890980016}},{"attributes":{"ID":335080,"DIS_CODE":0,"TOWNNAME":"新營區","LI":"新南里","LIN":"29鄰","STREET":"明清一街","SECT":" ","MAREA":" ","LANE":" ","ALLEY":" ","HOUSE_NO":"９號","E_COORD97":178143.885924,"N_COORD97":2578649.8124299999,"ADDRESS":"明清一街９號","OBJECTID":335071},"geometry":{"x":178143.88592400029,"y":2578649.8124310002}},{"attributes":{"ID":335081,"DIS_CODE":0,"TOWNNAME":"新營區","LI":"新南里","LIN":"29鄰","STREET":"明清一街","SECT":" ","MAREA":" ","LANE":" ","ALLEY":" ","HOUSE_NO":"１１號","E_COORD97":178139.22451500001,"N_COORD97":2578648.7541,"ADDRESS":"明清一街１１號","OBJECTID":335072},"geometry":{"x":178139.22451500129,"y":2578648.7540990021}},{"attributes":{"ID":335082,"DIS_CODE":0,"TOWNNAME":"中西區","LI":"大涼里","LIN":"1鄰","STREET":"金華路","SECT":"三段","MAREA":" ","LANE":"１８９巷","ALLEY":" ","HOUSE_NO":"２１號","E_COORD97":167249.72,"N_COORD97":2543835.25,"ADDRESS":"金華路三段１８９巷２１號","OBJECTID":335073},"geometry":{"x":167249.71999999974,"y":2543835.25}},{"attributes":{"ID":335083,"DIS_CODE":0,"TOWNNAME":"中西區","LI":"大涼里","LIN":"1鄰","STREET":"金華路","SECT":"三段","MAREA":" ","LANE":"１８９巷","ALLEY":" ","HOUSE_NO":"２３號","E_COORD97":167247.12,"N_COORD97":2543835.3999999999,"ADDRESS":"金華路三段１８９巷２３號","OBJECTID":335074},"geometry":{"x":167247.12000000104,"y":2543835.4000000041}},{"attributes":{"ID":335084,"DIS_CODE":0,"TOWNNAME":"中西區","LI":"藥王里","LIN":"1鄰","STREET":"民權路","SECT":"三段","MAREA":" ","LANE":"２３４巷","ALLEY":" ","HOUSE_NO":"２號","E_COORD97":167375.01000000001,"N_COORD97":2544322.5899999999,"ADDRESS":"民權路三段２３４巷２號","OBJECTID":335075},"geometry":{"x":167375.00999999978,"y":2544322.5900000017}},{"attributes":{"ID":335085,"DIS_CODE":0,"TOWNNAME":"中西區","LI":"藥王里","LIN":"1鄰","STREET":"民權路","SECT":"三段","MAREA":" ","LANE":"２３４巷","ALLEY":" ","HOUSE_NO":"４號","E_COORD97":167372.84,"N_COORD97":2544313.6400000001,"ADDRESS":"民權路三段２３４巷４號","OBJECTID":335076},"geometry":{"x":167372.83999999985,"y":2544313.6400000025}},{"attributes":{"ID":335086,"DIS_CODE":0,"TOWNNAME":"永康區","LI":"中華里","LIN":"1鄰","STREET":"小東路","SECT":" ","MAREA":" ","LANE":"６８５巷","ALLEY":" ","HOUSE_NO":"６號之８","E_COORD97":172051.09,"N_COORD97":2544383.3599999999,"ADDRESS":"小東路６８５巷６號之８","OBJECTID":335077},"geometry":{"x":172051.09000000078,"y":2544383.3599999994}},{"attributes":{"ID":335087,"DIS_CODE":0,"TOWNNAME":"永康區","LI":"中華里","LIN":"1鄰","STREET":"小東路","SECT":" ","MAREA":" ","LANE":"６８５巷","ALLEY":" ","HOUSE_NO":"８號之２８","E_COORD97":172049.89000000001,"N_COORD97":2544401.7400000002,"ADDRESS":"小東路６８５巷８號之２８","OBJECTID":335078},"geometry":{"x":172049.89000000153,"y":2544401.7400000002}},{"attributes":{"ID":335088,"DIS_CODE":0,"TOWNNAME":"永康區","LI":"中華里","LIN":"1鄰","STREET":"小東路","SECT":" ","MAREA":" ","LANE":"６８５巷","ALLEY":" ","HOUSE_NO":"８號之３４","E_COORD97":172049.76999999999,"N_COORD97":2544401.7400000002,"ADDRESS":"小東路６８５巷８號之３４","OBJECTID":335079},"geometry":{"x":172049.76999999955,"y":2544401.7400000002}},{"attributes":{"ID":335089,"DIS_CODE":0,"TOWNNAME":"永康區","LI":"中華里","LIN":"1鄰","STREET":"小東路","SECT":" ","MAREA":" ","LANE":"６８５巷","ALLEY":" ","HOUSE_NO":"６號之２","E_COORD97":172051.07999999999,"N_COORD97":2544383.3599999999,"ADDRESS":"小東路６８５巷６號之２","OBJECTID":335080},"geometry":{"x":172051.08000000101,"y":2544383.3599999994}},{"attributes":{"ID":335090,"DIS_CODE":0,"TOWNNAME":"北區","LI":"文元里","LIN":"23鄰","STREET":"文賢三街","SECT":" ","MAREA":" ","LANE":"３２０巷","ALLEY":" ","HOUSE_NO":"２７號","E_COORD97":167868.791662,"N_COORD97":2546347.165,"ADDRESS":"文賢三街３２０巷２７號","OBJECTID":335081},"geometry":{"x":167868.79166200012,"y":2546347.1650050022}},{"attributes":{"ID":335091,"DIS_CODE":0,"TOWNNAME":"仁德區","LI":"保安里","LIN":"12鄰","STREET":"開發一路","SECT":" ","MAREA":" ","LANE":" ","ALLEY":" ","HOUSE_NO":"２４之１號","E_COORD97":172660.37938599999,"N_COORD97":2536124.7228999999,"ADDRESS":"開發一路２４之１號","OBJECTID":335082},"geometry":{"x":172660.37938600034,"y":2536124.7228960004}},{"attributes":{"ID":335092,"DIS_CODE":0,"TOWNNAME":"仁德區","LI":"保安里","LIN":"12鄰","STREET":"開發一路","SECT":" ","MAREA":" ","LANE":" ","ALLEY":" ","HOUSE_NO":"４號","E_COORD97":172441.81327899999,"N_COORD97":2535887.98355,"ADDRESS":"開發一路４號","OBJECTID":335083},"geometry":{"x":172441.81327900197,"y":2535887.9835489988}},{"attributes":{"ID":335093,"DIS_CODE":0,"TOWNNAME":"永康區","LI":"\u25A0行里","LIN":"7鄰","STREET":"中正路","SECT":" ","MAREA":" ","LANE":" ","ALLEY":" ","HOUSE_NO":"５５２之１號","E_COORD97":172567.11539600001,"N_COORD97":2548335.0183999999,"ADDRESS":"中正路５５２之１號","OBJECTID":335084},"geometry":{"x":172567.11539600044,"y":2548335.018399002}},{"attributes":{"ID":335094,"DIS_CODE":0,"TOWNNAME":"新營區","LI":"新南里","LIN":"28鄰","STREET":"秦漢街","SECT":" ","MAREA":" ","LANE":" ","ALLEY":" ","HOUSE_NO":"５７號","E_COORD97":178465.523135,"N_COORD97":2578727.8115599998,"ADDRESS":"秦漢街５７號","OBJECTID":335085},"geometry":{"x":178465.52313499991,"y":2578727.8115560003}},{"attributes":{"ID":335095,"DIS_CODE":0,"TOWNNAME":"新營區","LI":"新南里","LIN":"28鄰","STREET":"秦漢街","SECT":" ","MAREA":" ","LANE":" ","ALLEY":" ","HOUSE_NO":"５９號","E_COORD97":178461.49737299999,"N_COORD97":2578730.1398900002,"ADDRESS":"秦漢街５９號","OBJECTID":335086},"geometry":{"x":178461.49737299979,"y":2578730.1398880016}},{"attributes":{"ID":335096,"DIS_CODE":0,"TOWNNAME":"新營區","LI":"新南里","LIN":"28鄰","STREET":"秦漢街","SECT":" ","MAREA":" ","LANE":" ","ALLEY":" ","HOUSE_NO":"５９之１號","E_COORD97":178460.01419700001,"N_COORD97":2578728.0232199999,"ADDRESS":"秦漢街５９之１號","OBJECTID":335087},"geometry":{"x":178460.0141970003,"y":2578728.0232220013}},{"attributes":{"ID":335097,"DIS_CODE":0,"TOWNNAME":"永康區","LI":"中華里","LIN":"1鄰","STREET":"小東路","SECT":" ","MAREA":" ","LANE":"６８５巷","ALLEY":" ","HOUSE_NO":"６號之３","E_COORD97":172051.04000000001,"N_COORD97":2544383.3599999999,"ADDRESS":"小東路６８５巷６號之３","OBJECTID":335088},"geometry":{"x":172051.0400000019,"y":2544383.3599999994}},{"attributes":{"ID":335098,"DIS_CODE":0,"TOWNNAME":"新營區","LI":"新南里","LIN":"28鄰","STREET":"秦漢街","SECT":" ","MAREA":" ","LANE":" ","ALLEY":" ","HOUSE_NO":"５９之２號","E_COORD97":178457.25972900001,"N_COORD97":2578726.7532199998,"ADDRESS":"秦漢街５９之２號","OBJECTID":335089},"geometry":{"x":178457.25972900167,"y":2578726.753223002}},{"attributes":{"ID":335099,"DIS_CODE":0,"TOWNNAME":"永康區","LI":"中華里","LIN":"1鄰","STREET":"小東路","SECT":" ","MAREA":" ","LANE":"６８５巷","ALLEY":" ","HOUSE_NO":"８號之２２","E_COORD97":172049.88,"N_COORD97":2544401.7400000002,"ADDRESS":"小東路６８５巷８號之２２","OBJECTID":335090},"geometry":{"x":172049.87999999989,"y":2544401.7400000002}},{"attributes":{"ID":335100,"DIS_CODE":0,"TOWNNAME":"永康區","LI":"中華里","LIN":"1鄰","STREET":"小東路","SECT":" ","MAREA":" ","LANE":"６８５巷","ALLEY":" ","HOUSE_NO":"８號之２","E_COORD97":172048.63,"N_COORD97":2544401.7400000002,"ADDRESS":"小東路６８５巷８號之２","OBJECTID":335091},"geometry":{"x":172048.63000000175,"y":2544401.7400000002}},{"attributes":{"ID":335101,"DIS_CODE":0,"TOWNNAME":"永康區","LI":"中華里","LIN":"1鄰","STREET":"小東路","SECT":" ","MAREA":" ","LANE":"６８５巷","ALLEY":" ","HOUSE_NO":"８號之１６","E_COORD97":172049.85000000001,"N_COORD97":2544401.7400000002,"ADDRESS":"小東路６８５巷８號之１６","OBJECTID":335092},"geometry":{"x":172049.84999999963,"y":2544401.7400000002}},{"attributes":{"ID":335102,"DIS_CODE":0,"TOWNNAME":"永康區","LI":"中華里","LIN":"1鄰","STREET":"小東路","SECT":" ","MAREA":" ","LANE":"６８５巷","ALLEY":" ","HOUSE_NO":"８號之１７","E_COORD97":172049.82000000001,"N_COORD97":2544401.7400000002,"ADDRESS":"小東路６８５巷８號之１７","OBJECTID":335093},"geometry":{"x":172049.82000000123,"y":2544401.7400000002}},{"attributes":{"ID":335103,"DIS_CODE":0,"TOWNNAME":"南化區","LI":"中坑里","LIN":"4鄰","STREET":" ","SECT":" ","MAREA":"中坑","LANE":" ","ALLEY":" ","HOUSE_NO":"２５號","E_COORD97":193902.92459000001,"N_COORD97":2549461.0871000001,"ADDRESS":"中坑２５號","OBJECTID":335094},"geometry":{"x":193902.92459000181,"y":2549461.0871050004}},{"attributes":{"ID":335104,"DIS_CODE":0,"TOWNNAME":"安定區","LI":"港口里","LIN":"20鄰","STREET":" ","SECT":" ","MAREA":"港口","LANE":" ","ALLEY":" ","HOUSE_NO":"３９９號之２","E_COORD97":171708.215196,"N_COORD97":2554976.01835,"ADDRESS":"港口３９９號之２","OBJECTID":335095},"geometry":{"x":171708.21519600041,"y":2554976.018352}},{"attributes":{"ID":335105,"DIS_CODE":0,"TOWNNAME":"安定區","LI":"港口里","LIN":"20鄰","STREET":" ","SECT":" ","MAREA":"港口","LANE":" ","ALLEY":" ","HOUSE_NO":"３９３號之３３","E_COORD97":171505.07000000001,"N_COORD97":2555007.2999999998,"ADDRESS":"港口３９３號之３３","OBJECTID":335096},"geometry":{"x":171505.06999999937,"y":2555007.3000000007}},{"attributes":{"ID":335106,"DIS_CODE":0,"TOWNNAME":"南化區","LI":"中坑里","LIN":"3鄰","STREET":" ","SECT":" ","MAREA":"中坑","LANE":" ","ALLEY":" ","HOUSE_NO":"２２號","E_COORD97":194190.24003099999,"N_COORD97":2549603.8032800001,"ADDRESS":"中坑２２號","OBJECTID":335097},"geometry":{"x":194190.24003100116,"y":2549603.8032770008}},{"attributes":{"ID":335107,"DIS_CODE":0,"TOWNNAME":"南化區","LI":"中坑里","LIN":"1鄰","STREET":" ","SECT":" ","MAREA":"中坑","LANE":" ","ALLEY":" ","HOUSE_NO":"１０之２號","E_COORD97":195181.936166,"N_COORD97":2549919.8082099999,"ADDRESS":"中坑１０之２號","OBJECTID":335098},"geometry":{"x":195181.93616599962,"y":2549919.8082110006}},{"attributes":{"ID":335108,"DIS_CODE":0,"TOWNNAME":"南化區","LI":"中坑里","LIN":"1鄰","STREET":" ","SECT":" ","MAREA":"中坑","LANE":" ","ALLEY":" ","HOUSE_NO":"１號","E_COORD97":195733.10489399999,"N_COORD97":2550419.7778400001,"ADDRESS":"中坑１號","OBJECTID":335099},"geometry":{"x":195733.10489400104,"y":2550419.7778370008}},{"attributes":{"ID":335109,"DIS_CODE":0,"TOWNNAME":"安定區","LI":"港口里","LIN":"20鄰","STREET":" ","SECT":" ","MAREA":"港口","LANE":" ","ALLEY":" ","HOUSE_NO":"３９９之４９號","E_COORD97":171610.94,"N_COORD97":2554964.2999999998,"ADDRESS":"港口３９９之４９號","OBJECTID":335100},"geometry":{"x":171610.94000000041,"y":2554964.3000000026}},{"attributes":{"ID":335110,"DIS_CODE":0,"TOWNNAME":"新化區","LI":"全興里","LIN":"20鄰","STREET":" ","SECT":" ","MAREA":"竹子\u25A0","LANE":" ","ALLEY":" ","HOUSE_NO":"２４７號之４５１","E_COORD97":178415.66,"N_COORD97":2546660.2599999998,"ADDRESS":"竹子\u25A0２４７號之４５１","OBJECTID":335101},"geometry":{"x":178415.66000000201,"y":2546660.2600000016}},{"attributes":{"ID":335111,"DIS_CODE":0,"TOWNNAME":"新化區","LI":"全興里","LIN":"20鄰","STREET":" ","SECT":" ","MAREA":"竹子\u25A0","LANE":" ","ALLEY":" ","HOUSE_NO":"２４７號之４６１","E_COORD97":178392.45999999999,"N_COORD97":2546660.2599999998,"ADDRESS":"竹子\u25A0２４７號之４６１","OBJECTID":335102},"geometry":{"x":178392.45999999996,"y":2546660.2600000016}},{"attributes":{"ID":335112,"DIS_CODE":0,"TOWNNAME":"新化區","LI":"全興里","LIN":"20鄰","STREET":" ","SECT":" ","MAREA":"竹子\u25A0","LANE":" ","ALLEY":" ","HOUSE_NO":"２４７號之３６８","E_COORD97":178378.79000000001,"N_COORD97":2546676.2599999998,"ADDRESS":"竹子\u25A0２４７號之３６８","OBJECTID":335103},"geometry":{"x":178378.79000000004,"y":2546676.2599999998}},{"attributes":{"ID":335113,"DIS_CODE":0,"TOWNNAME":"下營區","LI":"後街里","LIN":"5鄰","STREET":"人和二街","SECT":" ","MAREA":" ","LANE":"１２０巷","ALLEY":" ","HOUSE_NO":"１號","E_COORD97":174503.920854,"N_COORD97":2570819.2936999998,"ADDRESS":"人和二街１２０巷１號","OBJECTID":335104},"geometry":{"x":174503.92085400037,"y":2570819.2937040012}},{"attributes":{"ID":335114,"DIS_CODE":0,"TOWNNAME":"新化區","LI":"全興里","LIN":"20鄰","STREET":" ","SECT":" ","MAREA":"竹子\u25A0","LANE":" ","ALLEY":" ","HOUSE_NO":"２４７號之４１７","E_COORD97":178512.17999999999,"N_COORD97":2546656.2599999998,"ADDRESS":"竹子\u25A0２４７號之４１７","OBJECTID":335105},"geometry":{"x":178512.18000000063,"y":2546656.2599999998}},{"attributes":{"ID":335115,"DIS_CODE":0,"TOWNNAME":"新化區","LI":"全興里","LIN":"20鄰","STREET":" ","SECT":" ","MAREA":"竹子\u25A0","LANE":" ","ALLEY":" ","HOUSE_NO":"２４７號之３５４","E_COORD97":178411.47,"N_COORD97":2546675.2599999998,"ADDRESS":"竹子\u25A0２４７號之３５４","OBJECTID":335106},"geometry":{"x":178411.4700000016,"y":2546675.2599999998}},{"attributes":{"ID":335116,"DIS_CODE":0,"TOWNNAME":"安南區","LI":"城西里","LIN":"4鄰","STREET":"城西街","SECT":"三段","MAREA":" ","LANE":"７６５巷","ALLEY":" ","HOUSE_NO":"１０號之１００","E_COORD97":156512.13142799999,"N_COORD97":2550544.48,"ADDRESS":"城西街三段７６５巷１０號之１００","OBJECTID":335107},"geometry":{"x":156512.13142800052,"y":2550544.4800040014}},{"attributes":{"ID":335117,"DIS_CODE":0,"TOWNNAME":"永康區","LI":"復國里","LIN":"6鄰","STREET":"復華三街","SECT":" ","MAREA":" ","LANE":"７６巷","ALLEY":" ","HOUSE_NO":"１號","E_COORD97":172663.07999999999,"N_COORD97":2545569.27,"ADDRESS":"復華三街７６巷１號","OBJECTID":335108},"geometry":{"x":172663.08000000101,"y":2545569.2700000014}},{"attributes":{"ID":335118,"DIS_CODE":0,"TOWNNAME":"永康區","LI":"復國里","LIN":"6鄰","STREET":"復華三街","SECT":" ","MAREA":" ","LANE":"７６巷","ALLEY":" ","HOUSE_NO":"５號","E_COORD97":172664.07999999999,"N_COORD97":2545579.0299999998,"ADDRESS":"復華三街７６巷５號","OBJECTID":335109},"geometry":{"x":172664.08000000007,"y":2545579.0299999993}},{"attributes":{"ID":335119,"DIS_CODE":0,"TOWNNAME":"永康區","LI":"復國里","LIN":"6鄰","STREET":"復華三街","SECT":" ","MAREA":" ","LANE":"７６巷","ALLEY":" ","HOUSE_NO":"７號","E_COORD97":172664.37,"N_COORD97":2545584.0299999998,"ADDRESS":"復華三街７６巷７號","OBJECTID":335110},"geometry":{"x":172664.37000000104,"y":2545584.0300000012}},{"attributes":{"ID":335120,"DIS_CODE":0,"TOWNNAME":"永康區","LI":"復國里","LIN":"6鄰","STREET":"復華三街","SECT":" ","MAREA":" ","LANE":"７６巷","ALLEY":" ","HOUSE_NO":"１１號","E_COORD97":172666.41,"N_COORD97":2545594.2799999998,"ADDRESS":"復華三街７６巷１１號","OBJECTID":335111},"geometry":{"x":172666.41000000108,"y":2545594.2799999993}},{"attributes":{"ID":335121,"DIS_CODE":0,"TOWNNAME":"關廟區","LI":"田中里","LIN":"5鄰","STREET":"中大街","SECT":" ","MAREA":" ","LANE":"１３８巷","ALLEY":" ","HOUSE_NO":"５號","E_COORD97":183960.62795200001,"N_COORD97":2533235.7820000001,"ADDRESS":"中大街１３８巷５號","OBJECTID":335112},"geometry":{"x":183960.62795200106,"y":2533235.7820000015}},{"attributes":{"ID":335122,"DIS_CODE":0,"TOWNNAME":"永康區","LI":"中華里","LIN":"1鄰","STREET":"小東路","SECT":" ","MAREA":" ","LANE":"６８５巷","ALLEY":" ","HOUSE_NO":"６號之２２","E_COORD97":172052.32999999999,"N_COORD97":2544383.3599999999,"ADDRESS":"小東路６８５巷６號之２２","OBJECTID":335113},"geometry":{"x":172052.32999999914,"y":2544383.3599999994}},{"attributes":{"ID":335123,"DIS_CODE":0,"TOWNNAME":"永康區","LI":"中華里","LIN":"1鄰","STREET":"小東路","SECT":" ","MAREA":" ","LANE":"６８５巷","ALLEY":" ","HOUSE_NO":"６號之４","E_COORD97":172050.97,"N_COORD97":2544383.3599999999,"ADDRESS":"小東路６８５巷６號之４","OBJECTID":335114},"geometry":{"x":172050.96999999974,"y":2544383.3599999994}},{"attributes":{"ID":335124,"DIS_CODE":0,"TOWNNAME":"永康區","LI":"中華里","LIN":"1鄰","STREET":"小東路","SECT":" ","MAREA":" ","LANE":"６８５巷","ALLEY":" ","HOUSE_NO":"６號之６","E_COORD97":172051.04999999999,"N_COORD97":2544383.3599999999,"ADDRESS":"小東路６８５巷６號之６","OBJECTID":335115},"geometry":{"x":172051.05000000075,"y":2544383.3599999994}},{"attributes":{"ID":335125,"DIS_CODE":0,"TOWNNAME":"永康區","LI":"中華里","LIN":"1鄰","STREET":"小東路","SECT":" ","MAREA":" ","LANE":"６８５巷","ALLEY":" ","HOUSE_NO":"８號之１３","E_COORD97":172049.84,"N_COORD97":2544401.7400000002,"ADDRESS":"小東路６８５巷８號之１３","OBJECTID":335116},"geometry":{"x":172049.83999999985,"y":2544401.7400000002}},{"attributes":{"ID":335126,"DIS_CODE":0,"TOWNNAME":"東區","LI":"崇文里","LIN":"17鄰","STREET":"崇德二十街","SECT":" ","MAREA":" ","LANE":" ","ALLEY":" ","HOUSE_NO":"３５號","E_COORD97":170907.64000000001,"N_COORD97":2540932.3900000001,"ADDRESS":"崇德二十街３５號","OBJECTID":335117},"geometry":{"x":170907.6400000006,"y":2540932.3900000006}},{"attributes":{"ID":335127,"DIS_CODE":0,"TOWNNAME":"東區","LI":"崇文里","LIN":"17鄰","STREET":"崇德二十街","SECT":" ","MAREA":" ","LANE":" ","ALLEY":" ","HOUSE_NO":"３７號","E_COORD97":170911.72,"N_COORD97":2540932.6899999999,"ADDRESS":"崇德二十街３７號","OBJECTID":335118},"geometry":{"x":170911.71999999974,"y":2540932.6899999995}},{"attributes":{"ID":335128,"DIS_CODE":0,"TOWNNAME":"東區","LI":"崇文里","LIN":"17鄰","STREET":"崇德二十街","SECT":" ","MAREA":" ","LANE":" ","ALLEY":" ","HOUSE_NO":"３９號","E_COORD97":170915.31,"N_COORD97":2540932.79,"ADDRESS":"崇德二十街３９號","OBJECTID":335119},"geometry":{"x":170915.31000000052,"y":2540932.7900000028}},{"attributes":{"ID":335129,"DIS_CODE":0,"TOWNNAME":"中西區","LI":"郡王里","LIN":"8鄰","STREET":"建業街","SECT":" ","MAREA":" ","LANE":" ","ALLEY":" ","HOUSE_NO":"９號","E_COORD97":168635.89000000001,"N_COORD97":2543136.9900000002,"ADDRESS":"建業街９號","OBJECTID":335120},"geometry":{"x":168635.89000000153,"y":2543136.9900000021}},{"attributes":{"ID":335130,"DIS_CODE":0,"TOWNNAME":"東區","LI":"崇文里","LIN":"17鄰","STREET":"崇德二十街","SECT":" ","MAREA":" ","LANE":" ","ALLEY":" ","HOUSE_NO":"４１號","E_COORD97":170919.48999999999,"N_COORD97":2540932.8900000001,"ADDRESS":"崇德二十街４１號","OBJECTID":335121},"geometry":{"x":170919.49000000115,"y":2540932.8900000006}},{"attributes":{"ID":335131,"DIS_CODE":0,"TOWNNAME":"東區","LI":"崇文里","LIN":"17鄰","STREET":"崇德二十街","SECT":" ","MAREA":" ","LANE":" ","ALLEY":" ","HOUSE_NO":"４３號","E_COORD97":170923.76999999999,"N_COORD97":2540932.8900000001,"ADDRESS":"崇德二十街４３號","OBJECTID":335122},"geometry":{"x":170923.77000000048,"y":2540932.8900000006}},{"attributes":{"ID":335132,"DIS_CODE":0,"TOWNNAME":"東區","LI":"崇文里","LIN":"17鄰","STREET":"崇德二十街","SECT":" ","MAREA":" ","LANE":" ","ALLEY":" ","HOUSE_NO":"４５號","E_COORD97":170928.04999999999,"N_COORD97":2540932.6899999999,"ADDRESS":"崇德二十街４５號","OBJECTID":335123},"geometry":{"x":170928.04999999981,"y":2540932.6899999995}},{"attributes":{"ID":335133,"DIS_CODE":0,"TOWNNAME":"東區","LI":"崇文里","LIN":"17鄰","STREET":"崇德二十街","SECT":" ","MAREA":" ","LANE":" ","ALLEY":" ","HOUSE_NO":"４７號","E_COORD97":170932.23000000001,"N_COORD97":2540932.9900000002,"ADDRESS":"崇德二十街４７號","OBJECTID":335124},"geometry":{"x":170932.23000000045,"y":2540932.9900000021}},{"attributes":{"ID":335134,"DIS_CODE":0,"TOWNNAME":"新營區","LI":"新南里","LIN":"17鄰","STREET":"隋唐街","SECT":" ","MAREA":" ","LANE":"１１５巷","ALLEY":" ","HOUSE_NO":"２０號","E_COORD97":178497.093586,"N_COORD97":2578521.01333,"ADDRESS":"隋唐街１１５巷２０號","OBJECTID":335125},"geometry":{"x":178497.09358600155,"y":2578521.0133340005}},{"attributes":{"ID":335135,"DIS_CODE":0,"TOWNNAME":"新營區","LI":"新南里","LIN":"17鄰","STREET":"隋唐街","SECT":" ","MAREA":" ","LANE":"１１５巷","ALLEY":" ","HOUSE_NO":"２２號","E_COORD97":178496.45793900001,"N_COORD97":2578517.8383399998,"ADDRESS":"隋唐街１１５巷２２號","OBJECTID":335126},"geometry":{"x":178496.4579390008,"y":2578517.8383360021}},{"attributes":{"ID":335136,"DIS_CODE":0,"TOWNNAME":"永康區","LI":"復國里","LIN":"24鄰","STREET":"復華三街","SECT":" ","MAREA":" ","LANE":"９０巷","ALLEY":" ","HOUSE_NO":"３０號","E_COORD97":172619.36487600001,"N_COORD97":2545619.6798999999,"ADDRESS":"復華三街９０巷３０號","OBJECTID":335127},"geometry":{"x":172619.36487600207,"y":2545619.6798980013}},{"attributes":{"ID":335137,"DIS_CODE":0,"TOWNNAME":"新營區","LI":"新南里","LIN":"17鄰","STREET":"隋唐街","SECT":" ","MAREA":" ","LANE":"１１５巷","ALLEY":" ","HOUSE_NO":"２６號","E_COORD97":178495.18664599999,"N_COORD97":2578514.2400000002,"ADDRESS":"隋唐街１１５巷２６號","OBJECTID":335128},"geometry":{"x":178495.18664600048,"y":2578514.2400039993}},{"attributes":{"ID":335138,"DIS_CODE":0,"TOWNNAME":"安南區","LI":"城西里","LIN":"5鄰","STREET":"城西街","SECT":"三段","MAREA":" ","LANE":"５０１巷","ALLEY":" ","HOUSE_NO":"６號","E_COORD97":157149.88097500001,"N_COORD97":2550824.0282600001,"ADDRESS":"城西街三段５０１巷６號","OBJECTID":335129},"geometry":{"x":157149.88097499963,"y":2550824.0282589998}},{"attributes":{"ID":335139,"DIS_CODE":0,"TOWNNAME":"永康區","LI":"復國里","LIN":"24鄰","STREET":"復華三街","SECT":" ","MAREA":" ","LANE":"９０巷","ALLEY":" ","HOUSE_NO":"３０之１號","E_COORD97":172621.05981499999,"N_COORD97":2545623.2782299998,"ADDRESS":"復華三街９０巷３０之１號","OBJECTID":335130},"geometry":{"x":172621.05981500074,"y":2545623.2782300003}},{"attributes":{"ID":335140,"DIS_CODE":0,"TOWNNAME":"安南區","LI":"海西里","LIN":"8鄰","STREET":"海環街","SECT":" ","MAREA":" ","LANE":" ","ALLEY":" ","HOUSE_NO":"２６０號","E_COORD97":166136.62852299999,"N_COORD97":2548773.9856599998,"ADDRESS":"海環街２６０號","OBJECTID":335131},"geometry":{"x":166136.62852299958,"y":2548773.9856550023}},{"attributes":{"ID":335141,"DIS_CODE":0,"TOWNNAME":"新營區","LI":"新南里","LIN":"30鄰","STREET":"明清三街","SECT":" ","MAREA":" ","LANE":" ","ALLEY":" ","HOUSE_NO":"４９號","E_COORD97":178218.25658300001,"N_COORD97":2578815.7590100002,"ADDRESS":"明清三街４９號","OBJECTID":335132},"geometry":{"x":178218.25658300053,"y":2578815.7590080015}},{"attributes":{"ID":335142,"DIS_CODE":0,"TOWNNAME":"永康區","LI":"中華里","LIN":"1鄰","STREET":"小東路","SECT":" ","MAREA":" ","LANE":"６８５巷","ALLEY":" ","HOUSE_NO":"８號之２６","E_COORD97":172049.85000000001,"N_COORD97":2544401.7400000002,"ADDRESS":"小東路６８５巷８號之２６","OBJECTID":335133},"geometry":{"x":172049.84999999963,"y":2544401.7400000002}},{"attributes":{"ID":335143,"DIS_CODE":0,"TOWNNAME":"永康區","LI":"中華里","LIN":"1鄰","STREET":"小東路","SECT":" ","MAREA":" ","LANE":"６８５巷","ALLEY":" ","HOUSE_NO":"８號之２０","E_COORD97":172049.79000000001,"N_COORD97":2544401.7400000002,"ADDRESS":"小東路６８５巷８號之２０","OBJECTID":335134},"geometry":{"x":172049.79000000097,"y":2544401.7400000002}},{"attributes":{"ID":335144,"DIS_CODE":0,"TOWNNAME":"永康區","LI":"新樹里","LIN":"1鄰","STREET":"富強路","SECT":"二段","MAREA":" ","LANE":"１８９巷","ALLEY":" ","HOUSE_NO":"４０號","E_COORD97":175501.85000000001,"N_COORD97":2547249.2999999998,"ADDRESS":"富強路二段１８９巷４０號","OBJECTID":335135},"geometry":{"x":175501.85000000056,"y":2547249.3000000007}},{"attributes":{"ID":335145,"DIS_CODE":0,"TOWNNAME":"東區","LI":"崇文里","LIN":"17鄰","STREET":"崇德二十街","SECT":" ","MAREA":" ","LANE":" ","ALLEY":" ","HOUSE_NO":"４９號","E_COORD97":170936.41,"N_COORD97":2540933.0899999999,"ADDRESS":"崇德二十街４９號","OBJECTID":335136},"geometry":{"x":170936.40999999922,"y":2540933.0900000017}},{"attributes":{"ID":335146,"DIS_CODE":0,"TOWNNAME":"東區","LI":"崇文里","LIN":"17鄰","STREET":"崇德二十街","SECT":" ","MAREA":" ","LANE":" ","ALLEY":" ","HOUSE_NO":"５１號","E_COORD97":170940.89000000001,"N_COORD97":2540924.3300000001,"ADDRESS":"崇德二十街５１號","OBJECTID":335137},"geometry":{"x":170940.88999999966,"y":2540924.3300000019}},{"attributes":{"ID":335147,"DIS_CODE":0,"TOWNNAME":"新化區","LI":"全興里","LIN":"20鄰","STREET":" ","SECT":" ","MAREA":"竹子\u25A0","LANE":" ","ALLEY":" ","HOUSE_NO":"２４７號之３５６","E_COORD97":178406.78,"N_COORD97":2546675.2599999998,"ADDRESS":"竹子\u25A0２４７號之３５６","OBJECTID":335138},"geometry":{"x":178406.78000000119,"y":2546675.2599999998}},{"attributes":{"ID":335148,"DIS_CODE":0,"TOWNNAME":"新化區","LI":"全興里","LIN":"20鄰","STREET":" ","SECT":" ","MAREA":"竹子\u25A0","LANE":" ","ALLEY":" ","HOUSE_NO":"２４７號之４３５","E_COORD97":178470.79000000001,"N_COORD97":2546657.2599999998,"ADDRESS":"竹子\u25A0２４７號之４３５","OBJECTID":335139},"geometry":{"x":178470.7900000019,"y":2546657.2600000016}},{"attributes":{"ID":335149,"DIS_CODE":0,"TOWNNAME":"新化區","LI":"全興里","LIN":"20鄰","STREET":" ","SECT":" ","MAREA":"竹子\u25A0","LANE":" ","ALLEY":" ","HOUSE_NO":"２４７號之４５９","E_COORD97":178396.88,"N_COORD97":2546660.2599999998,"ADDRESS":"竹子\u25A0２４７號之４５９","OBJECTID":335140},"geometry":{"x":178396.87999999896,"y":2546660.2600000016}},{"attributes":{"ID":335150,"DIS_CODE":0,"TOWNNAME":"新化區","LI":"全興里","LIN":"20鄰","STREET":" ","SECT":" ","MAREA":"竹子\u25A0","LANE":" ","ALLEY":" ","HOUSE_NO":"２４７號之４４１","E_COORD97":178440.95999999999,"N_COORD97":2546659.2599999998,"ADDRESS":"竹子\u25A0２４７號之４４１","OBJECTID":335141},"geometry":{"x":178440.96000000089,"y":2546659.2599999998}},{"attributes":{"ID":335151,"DIS_CODE":0,"TOWNNAME":"南化區","LI":"中坑里","LIN":"2鄰","STREET":" ","SECT":" ","MAREA":"中坑","LANE":" ","ALLEY":" ","HOUSE_NO":"２之２號","E_COORD97":195726.420293,"N_COORD97":2550454.6137100002,"ADDRESS":"中坑２之２號","OBJECTID":335142},"geometry":{"x":195726.4202929996,"y":2550454.6137120016}},{"attributes":{"ID":335152,"DIS_CODE":0,"TOWNNAME":"南化區","LI":"中坑里","LIN":"4鄰","STREET":" ","SECT":" ","MAREA":"中坑","LANE":" ","ALLEY":" ","HOUSE_NO":"３４之１號","E_COORD97":193748.877022,"N_COORD97":2549328.4418199998,"ADDRESS":"中坑３４之１號","OBJECTID":335143},"geometry":{"x":193748.87702200003,"y":2549328.4418200031}},{"attributes":{"ID":335153,"DIS_CODE":0,"TOWNNAME":"山上區","LI":"明和里","LIN":"20鄰","STREET":" ","SECT":" ","MAREA":"明和","LANE":" ","ALLEY":" ","HOUSE_NO":"７０之２號","E_COORD97":183168.06721199999,"N_COORD97":2555987.03095,"ADDRESS":"明和７０之２號","OBJECTID":335144},"geometry":{"x":183168.06721200049,"y":2555987.0309529994}},{"attributes":{"ID":335154,"DIS_CODE":0,"TOWNNAME":"山上區","LI":"明和里","LIN":"13鄰","STREET":" ","SECT":" ","MAREA":"明和","LANE":" ","ALLEY":" ","HOUSE_NO":"２３８之３號","E_COORD97":183507.35180400001,"N_COORD97":2556328.2374399998,"ADDRESS":"明和２３８之３號","OBJECTID":335145},"geometry":{"x":183507.35180400219,"y":2556328.2374350019}},{"attributes":{"ID":335155,"DIS_CODE":0,"TOWNNAME":"南化區","LI":"中坑里","LIN":"5鄰","STREET":" ","SECT":" ","MAREA":"中坑","LANE":" ","ALLEY":" ","HOUSE_NO":"４１之１號","E_COORD97":193548.22466199999,"N_COORD97":2549482.6144500002,"ADDRESS":"中坑４１之１號","OBJECTID":335146},"geometry":{"x":193548.22466200031,"y":2549482.6144450009}},{"attributes":{"ID":335156,"DIS_CODE":0,"TOWNNAME":"山上區","LI":"明和里","LIN":"13鄰","STREET":" ","SECT":" ","MAREA":"明和","LANE":" ","ALLEY":" ","HOUSE_NO":"２３８之２０號","E_COORD97":183434.68579399999,"N_COORD97":2556366.3374100002,"ADDRESS":"明和２３８之２０號","OBJECTID":335147},"geometry":{"x":183434.68579399958,"y":2556366.3374140002}},{"attributes":{"ID":335157,"DIS_CODE":0,"TOWNNAME":"山上區","LI":"明和里","LIN":"15鄰","STREET":" ","SECT":" ","MAREA":"明和","LANE":" ","ALLEY":" ","HOUSE_NO":"１號","E_COORD97":183597.49578999999,"N_COORD97":2555908.2909900001,"ADDRESS":"明和１號","OBJECTID":335148},"geometry":{"x":183597.495790001,"y":2555908.2909949999}},{"attributes":{"ID":335158,"DIS_CODE":0,"TOWNNAME":"南化區","LI":"中坑里","LIN":"5鄰","STREET":" ","SECT":" ","MAREA":"中坑","LANE":" ","ALLEY":" ","HOUSE_NO":"４２號","E_COORD97":193535.30922900001,"N_COORD97":2549473.7244500001,"ADDRESS":"中坑４２號","OBJECTID":335149},"geometry":{"x":193535.30922899954,"y":2549473.7244500034}},{"attributes":{"ID":335159,"DIS_CODE":0,"TOWNNAME":"下營區","LI":"後街里","LIN":"4鄰","STREET":"人和二街","SECT":" ","MAREA":" ","LANE":"１２０巷","ALLEY":" ","HOUSE_NO":"２號","E_COORD97":174522.350492,"N_COORD97":2570826.5962,"ADDRESS":"人和二街１２０巷２號","OBJECTID":335150},"geometry":{"x":174522.35049200058,"y":2570826.5962000024}},{"attributes":{"ID":335160,"DIS_CODE":0,"TOWNNAME":"安南區","LI":"海西里","LIN":"4鄰","STREET":"海中街","SECT":" ","MAREA":" ","LANE":" ","ALLEY":" ","HOUSE_NO":"１４１號","E_COORD97":166356.20657899999,"N_COORD97":2549096.3417199999,"ADDRESS":"海中街１４１號","OBJECTID":335151},"geometry":{"x":166356.20657900069,"y":2549096.3417189997}},{"attributes":{"ID":335161,"DIS_CODE":0,"TOWNNAME":"新營區","LI":"新南里","LIN":"6鄰","STREET":"秦漢街","SECT":" ","MAREA":" ","LANE":" ","ALLEY":" ","HOUSE_NO":"３８號","E_COORD97":178515.52733899999,"N_COORD97":2578698.4957400002,"ADDRESS":"秦漢街３８號","OBJECTID":335152},"geometry":{"x":178515.52733900119,"y":2578698.4957379997}},{"attributes":{"ID":335162,"DIS_CODE":0,"TOWNNAME":"新營區","LI":"新南里","LIN":"6鄰","STREET":"秦漢街","SECT":" ","MAREA":" ","LANE":" ","ALLEY":" ","HOUSE_NO":"１８０號","E_COORD97":178264.87067199999,"N_COORD97":2578971.2280899999,"ADDRESS":"秦漢街１８０號","OBJECTID":335153},"geometry":{"x":178264.87067200057,"y":2578971.2280909996}},{"attributes":{"ID":335163,"DIS_CODE":0,"TOWNNAME":"新營區","LI":"新南里","LIN":"7鄰","STREET":"新北街","SECT":" ","MAREA":" ","LANE":" ","ALLEY":" ","HOUSE_NO":"２０９號","E_COORD97":178640.32596799999,"N_COORD97":2579072.8280400001,"ADDRESS":"新北街２０９號","OBJECTID":335154},"geometry":{"x":178640.32596800011,"y":2579072.828036001}},{"attributes":{"ID":335164,"DIS_CODE":0,"TOWNNAME":"新營區","LI":"新南里","LIN":"7鄰","STREET":"秦漢街","SECT":" ","MAREA":" ","LANE":" ","ALLEY":" ","HOUSE_NO":"２０９之２號","E_COORD97":178637.57149900001,"N_COORD97":2579080.6597000002,"ADDRESS":"秦漢街２０９之２號","OBJECTID":335155},"geometry":{"x":178637.5714990003,"y":2579080.6596990004}},{"attributes":{"ID":335165,"DIS_CODE":0,"TOWNNAME":"永康區","LI":"\u25A0洲里","LIN":"32鄰","STREET":"正南八街","SECT":" ","MAREA":" ","LANE":" ","ALLEY":" ","HOUSE_NO":"８９號","E_COORD97":171223.85167800001,"N_COORD97":2548934.43817,"ADDRESS":"正南八街８９號","OBJECTID":335156},"geometry":{"x":171223.85167799983,"y":2548934.4381670039}},{"attributes":{"ID":335166,"DIS_CODE":0,"TOWNNAME":"永康區","LI":"中華里","LIN":"1鄰","STREET":"小東路","SECT":" ","MAREA":" ","LANE":"６８５巷","ALLEY":" ","HOUSE_NO":"８號之１","E_COORD97":172048.48999999999,"N_COORD97":2544401.7400000002,"ADDRESS":"小東路６８５巷８號之１","OBJECTID":335157},"geometry":{"x":172048.49000000115,"y":2544401.7400000002}},{"attributes":{"ID":335167,"DIS_CODE":0,"TOWNNAME":"永康區","LI":"中華里","LIN":"1鄰","STREET":"小東路","SECT":" ","MAREA":" ","LANE":"６８５巷","ALLEY":" ","HOUSE_NO":"６號之９","E_COORD97":172051.03,"N_COORD97":2544383.3599999999,"ADDRESS":"小東路６８５巷６號之９","OBJECTID":335158},"geometry":{"x":172051.03000000026,"y":2544383.3599999994}},{"attributes":{"ID":335168,"DIS_CODE":0,"TOWNNAME":"永康區","LI":"中華里","LIN":"1鄰","STREET":"小東路","SECT":" ","MAREA":" ","LANE":"６８５巷","ALLEY":" ","HOUSE_NO":"６號之１５","E_COORD97":172052.35000000001,"N_COORD97":2544383.3599999999,"ADDRESS":"小東路６８５巷６號之１５","OBJECTID":335159},"geometry":{"x":172052.35000000056,"y":2544383.3599999994}},{"attributes":{"ID":335169,"DIS_CODE":0,"TOWNNAME":"永康區","LI":"中華里","LIN":"1鄰","STREET":"小東路","SECT":" ","MAREA":" ","LANE":"６８５巷","ALLEY":" ","HOUSE_NO":"６號之１１","E_COORD97":172052.19,"N_COORD97":2544383.3599999999,"ADDRESS":"小東路６８５巷６號之１１","OBJECTID":335160},"geometry":{"x":172052.19000000134,"y":2544383.3599999994}},{"attributes":{"ID":335170,"DIS_CODE":0,"TOWNNAME":"永康區","LI":"中華里","LIN":"1鄰","STREET":"小東路","SECT":" ","MAREA":" ","LANE":"６８５巷","ALLEY":" ","HOUSE_NO":"８號之９","E_COORD97":172048.57999999999,"N_COORD97":2544401.7400000002,"ADDRESS":"小東路６８５巷８號之９","OBJECTID":335161},"geometry":{"x":172048.58000000007,"y":2544401.7400000002}},{"attributes":{"ID":335171,"DIS_CODE":0,"TOWNNAME":"永康區","LI":"中華里","LIN":"1鄰","STREET":"小東路","SECT":" ","MAREA":" ","LANE":"６８５巷","ALLEY":" ","HOUSE_NO":"８號之２４","E_COORD97":172049.76999999999,"N_COORD97":2544401.7400000002,"ADDRESS":"小東路６８５巷８號之２４","OBJECTID":335162},"geometry":{"x":172049.76999999955,"y":2544401.7400000002}},{"attributes":{"ID":335172,"DIS_CODE":0,"TOWNNAME":"永康區","LI":"中華里","LIN":"1鄰","STREET":"小東路","SECT":" ","MAREA":" ","LANE":"６８５巷","ALLEY":" ","HOUSE_NO":"８號之３０","E_COORD97":172049.79000000001,"N_COORD97":2544401.7400000002,"ADDRESS":"小東路６８５巷８號之３０","OBJECTID":335163},"geometry":{"x":172049.79000000097,"y":2544401.7400000002}},{"attributes":{"ID":335173,"DIS_CODE":0,"TOWNNAME":"永康區","LI":"二王里","LIN":"1鄰","STREET":"中山南路","SECT":" ","MAREA":" ","LANE":"９０２巷","ALLEY":" ","HOUSE_NO":"１６號之１","E_COORD97":173024.87,"N_COORD97":2546850.8900000001,"ADDRESS":"中山南路９０２巷１６號之１","OBJECTID":335164},"geometry":{"x":173024.87000000011,"y":2546850.8900000025}},{"attributes":{"ID":335174,"DIS_CODE":0,"TOWNNAME":"永康區","LI":"大橋里","LIN":"1鄰","STREET":"大橋一街","SECT":" ","MAREA":" ","LANE":"７３巷","ALLEY":" ","HOUSE_NO":"１９３號","E_COORD97":170577.73999999999,"N_COORD97":2546693.4900000002,"ADDRESS":"大橋一街７３巷１９３號","OBJECTID":335165},"geometry":{"x":170577.74000000022,"y":2546693.4900000021}},{"attributes":{"ID":335175,"DIS_CODE":0,"TOWNNAME":"永康區","LI":"大橋里","LIN":"1鄰","STREET":"大橋一街","SECT":" ","MAREA":" ","LANE":"７３巷","ALLEY":" ","HOUSE_NO":"１９９號","E_COORD97":170569.09,"N_COORD97":2546681.2400000002,"ADDRESS":"大橋一街７３巷１９９號","OBJECTID":335166},"geometry":{"x":170569.09000000078,"y":2546681.2400000021}},{"attributes":{"ID":335176,"DIS_CODE":0,"TOWNNAME":"中西區","LI":"西湖里","LIN":"1鄰","STREET":"頂美二街","SECT":" ","MAREA":" ","LANE":"１８巷","ALLEY":" ","HOUSE_NO":"１２號","E_COORD97":166471.56,"N_COORD97":2544465.3799999999,"ADDRESS":"頂美二街１８巷１２號","OBJECTID":335167},"geometry":{"x":166471.56000000145,"y":2544465.3800000008}},{"attributes":{"ID":335177,"DIS_CODE":0,"TOWNNAME":"中西區","LI":"西湖里","LIN":"1鄰","STREET":"頂美二街","SECT":" ","MAREA":" ","LANE":"１８巷","ALLEY":" ","HOUSE_NO":"１４號","E_COORD97":166476.13,"N_COORD97":2544465.6299999999,"ADDRESS":"頂美二街１８巷１４號","OBJECTID":335168},"geometry":{"x":166476.12999999989,"y":2544465.629999999}},{"attributes":{"ID":335178,"DIS_CODE":0,"TOWNNAME":"中西區","LI":"西湖里","LIN":"1鄰","STREET":"頂美二街","SECT":" ","MAREA":" ","LANE":"１８巷","ALLEY":" ","HOUSE_NO":"２３號","E_COORD97":166497.98000000001,"N_COORD97":2544492.5499999998,"ADDRESS":"頂美二街１８巷２３號","OBJECTID":335169},"geometry":{"x":166497.98000000045,"y":2544492.5500000045}},{"attributes":{"ID":335179,"DIS_CODE":0,"TOWNNAME":"官田區","LI":"南\u25A0里","LIN":"5鄰","STREET":" ","SECT":" ","MAREA":"南\u25A0","LANE":" ","ALLEY":" ","HOUSE_NO":"６０號","E_COORD97":178913.14000000001,"N_COORD97":2568006.4300000002,"ADDRESS":"南\u25A0６０號","OBJECTID":335170},"geometry":{"x":178913.13999999966,"y":2568006.4299999997}},{"attributes":{"ID":335180,"DIS_CODE":0,"TOWNNAME":"中西區","LI":"西湖里","LIN":"1鄰","STREET":"頂美二街","SECT":" ","MAREA":" ","LANE":"１８巷","ALLEY":" ","HOUSE_NO":"２８號","E_COORD97":166507.88,"N_COORD97":2544466.8999999999,"ADDRESS":"頂美二街１８巷２８號","OBJECTID":335171},"geometry":{"x":166507.87999999989,"y":2544466.9000000022}},{"attributes":{"ID":335181,"DIS_CODE":0,"TOWNNAME":"仁德區","LI":"太子里","LIN":"23鄰","STREET":"中正路","SECT":"三段","MAREA":" ","LANE":"７０４巷","ALLEY":" ","HOUSE_NO":"５號","E_COORD97":173796.66605900001,"N_COORD97":2543600.8402300002,"ADDRESS":"中正路三段７０４巷５號","OBJECTID":335172},"geometry":{"x":173796.66605900135,"y":2543600.8402330037}},{"attributes":{"ID":335182,"DIS_CODE":0,"TOWNNAME":"永康區","LI":"復國里","LIN":"30鄰","STREET":"復國一路","SECT":" ","MAREA":" ","LANE":"１７３巷","ALLEY":" ","HOUSE_NO":"４８號","E_COORD97":172594.78825499999,"N_COORD97":2545225.4509399999,"ADDRESS":"復國一路１７３巷４８號","OBJECTID":335173},"geometry":{"x":172594.78825499956,"y":2545225.450943999}},{"attributes":{"ID":335183,"DIS_CODE":0,"TOWNNAME":"永康區","LI":"大橋里","LIN":"1鄰","STREET":"大橋一街","SECT":" ","MAREA":" ","LANE":"７３巷","ALLEY":" ","HOUSE_NO":"１９５號","E_COORD97":170574.88,"N_COORD97":2546689.4900000002,"ADDRESS":"大橋一街７３巷１９５號","OBJECTID":335174},"geometry":{"x":170574.87999999989,"y":2546689.4900000039}},{"attributes":{"ID":335184,"DIS_CODE":0,"TOWNNAME":"安南區","LI":"新順里","LIN":"7鄰","STREET":"北安路","SECT":"三段","MAREA":" ","LANE":"７４５巷","ALLEY":" ","HOUSE_NO":"２６號","E_COORD97":169073.28735200001,"N_COORD97":2549945.1436600001,"ADDRESS":"北安路三段７４５巷２６號","OBJECTID":335175},"geometry":{"x":169073.28735200036,"y":2549945.1436590012}},{"attributes":{"ID":335185,"DIS_CODE":0,"TOWNNAME":"永康區","LI":"復華里","LIN":"3鄰","STREET":"復國二路","SECT":" ","MAREA":" ","LANE":"３４６巷","ALLEY":" ","HOUSE_NO":"８號","E_COORD97":173075.94539899999,"N_COORD97":2546227.8480099998,"ADDRESS":"復國二路３４６巷８號","OBJECTID":335176},"geometry":{"x":173075.94539899938,"y":2546227.848007001}},{"attributes":{"ID":335186,"DIS_CODE":0,"TOWNNAME":"仁德區","LI":"保安里","LIN":"12鄰","STREET":"開發三路","SECT":" ","MAREA":" ","LANE":" ","ALLEY":" ","HOUSE_NO":"１８號","E_COORD97":172776.532041,"N_COORD97":2535929.86222,"ADDRESS":"開發三路１８號","OBJECTID":335177},"geometry":{"x":172776.53204100113,"y":2535929.862222001}},{"attributes":{"ID":335187,"DIS_CODE":0,"TOWNNAME":"仁德區","LI":"保安里","LIN":"12鄰","STREET":"開發三路","SECT":" ","MAREA":" ","LANE":" ","ALLEY":" ","HOUSE_NO":"１２號","E_COORD97":172718.06804300001,"N_COORD97":2535879.6972500002,"ADDRESS":"開發三路１２號","OBJECTID":335178},"geometry":{"x":172718.06804300006,"y":2535879.6972490009}},{"attributes":{"ID":335188,"DIS_CODE":0,"TOWNNAME":"安南區","LI":"新順里","LIN":"7鄰","STREET":"北安路","SECT":"三段","MAREA":" ","LANE":" ","ALLEY":" ","HOUSE_NO":"２４之２號","E_COORD97":169085.14440300001,"N_COORD97":2549948.1069899998,"ADDRESS":"北安路三段２４之２號","OBJECTID":335179},"geometry":{"x":169085.14440300129,"y":2549948.1069900002}},{"attributes":{"ID":335189,"DIS_CODE":0,"TOWNNAME":"新營區","LI":"新南里","LIN":"23鄰","STREET":"復興路","SECT":" ","MAREA":" ","LANE":" ","ALLEY":" ","HOUSE_NO":"６２８號","E_COORD97":177997.89415199999,"N_COORD97":2578347.9114399999,"ADDRESS":"復興路６２８號","OBJECTID":335180},"geometry":{"x":177997.89415199962,"y":2578347.9114440009}},{"attributes":{"ID":335190,"DIS_CODE":0,"TOWNNAME":"安南區","LI":"新順里","LIN":"7鄰","STREET":"北安路","SECT":"三段","MAREA":" ","LANE":" ","ALLEY":" ","HOUSE_NO":"７５５號","E_COORD97":169144.81430299999,"N_COORD97":2549872.1923799999,"ADDRESS":"北安路三段７５５號","OBJECTID":335181},"geometry":{"x":169144.81430299953,"y":2549872.1923760027}},{"attributes":{"ID":335191,"DIS_CODE":0,"TOWNNAME":"仁德區","LI":"保安里","LIN":"12鄰","STREET":"開發三路","SECT":" ","MAREA":" ","LANE":" ","ALLEY":" ","HOUSE_NO":"１９號","E_COORD97":172770.759781,"N_COORD97":2535981.3284999998,"ADDRESS":"開發三路１９號","OBJECTID":335182},"geometry":{"x":172770.7597810002,"y":2535981.3284990024}},{"attributes":{"ID":335192,"DIS_CODE":0,"TOWNNAME":"中西區","LI":"西湖里","LIN":"1鄰","STREET":"頂美二街","SECT":" ","MAREA":" ","LANE":"１８巷","ALLEY":" ","HOUSE_NO":"２０號","E_COORD97":166489.85000000001,"N_COORD97":2544465.6299999999,"ADDRESS":"頂美二街１８巷２０號","OBJECTID":335183},"geometry":{"x":166489.8499999987,"y":2544465.629999999}},{"attributes":{"ID":335193,"DIS_CODE":0,"TOWNNAME":"中西區","LI":"西湖里","LIN":"1鄰","STREET":"頂美二街","SECT":" ","MAREA":" ","LANE":"１８巷","ALLEY":" ","HOUSE_NO":"２２號","E_COORD97":166494.17000000001,"N_COORD97":2544465.8799999999,"ADDRESS":"頂美二街１８巷２２號","OBJECTID":335184},"geometry":{"x":166494.16999999993,"y":2544465.8800000008}},{"attributes":{"ID":335194,"DIS_CODE":0,"TOWNNAME":"仁德區","LI":"仁德里","LIN":"1鄰","STREET":"中正路","SECT":"二段","MAREA":" ","LANE":"６７９巷","ALLEY":" ","HOUSE_NO":"５１號","E_COORD97":173327.76999999999,"N_COORD97":2540073.5600000001,"ADDRESS":"中正路二段６７９巷５１號","OBJECTID":335185},"geometry":{"x":173327.77000000048,"y":2540073.5600000005}},{"attributes":{"ID":335195,"DIS_CODE":0,"TOWNNAME":"仁德區","LI":"仁義里","LIN":"1鄰","STREET":"義林七街","SECT":" ","MAREA":" ","LANE":"８７巷","ALLEY":" ","HOUSE_NO":"６號","E_COORD97":174252.87,"N_COORD97":2541105.0099999998,"ADDRESS":"義林七街８７巷６號","OBJECTID":335186},"geometry":{"x":174252.87000000104,"y":2541105.0100000035}},{"attributes":{"ID":335196,"DIS_CODE":0,"TOWNNAME":"歸仁區","LI":"南保里","LIN":"60鄰","STREET":"中山七街","SECT":" ","MAREA":" ","LANE":"１１巷","ALLEY":" ","HOUSE_NO":"３６號","E_COORD97":176705.79000000001,"N_COORD97":2540790.2599999998,"ADDRESS":"中山七街１１巷３６號","OBJECTID":335187},"geometry":{"x":176705.79000000004,"y":2540790.2599999998}},{"attributes":{"ID":335197,"DIS_CODE":0,"TOWNNAME":"仁德區","LI":"大甲里","LIN":"1鄰","STREET":"行大一街","SECT":" ","MAREA":" ","LANE":"７０巷","ALLEY":" ","HOUSE_NO":"８０號","E_COORD97":169881.29000000001,"N_COORD97":2535058.25,"ADDRESS":"行大一街７０巷８０號","OBJECTID":335188},"geometry":{"x":169881.29000000097,"y":2535058.2499999981}},{"attributes":{"ID":335198,"DIS_CODE":0,"TOWNNAME":"仁德區","LI":"仁義里","LIN":"1鄰","STREET":"中山路","SECT":" ","MAREA":" ","LANE":"７７巷","ALLEY":" ","HOUSE_NO":"１８號","E_COORD97":175050.37,"N_COORD97":2540993.2400000002,"ADDRESS":"中山路７７巷１８號","OBJECTID":335189},"geometry":{"x":175050.37000000011,"y":2540993.2400000021}},{"attributes":{"ID":335199,"DIS_CODE":0,"TOWNNAME":"歸仁區","LI":"武東里","LIN":"8鄰","STREET":"武東一街","SECT":" ","MAREA":" ","LANE":"４９巷","ALLEY":" ","HOUSE_NO":"５６號","E_COORD97":175802.79000000001,"N_COORD97":2535562.25,"ADDRESS":"武東一街４９巷５６號","OBJECTID":335190},"geometry":{"x":175802.79000000097,"y":2535562.25}},{"attributes":{"ID":335200,"DIS_CODE":0,"TOWNNAME":"東區","LI":"崇文里","LIN":"17鄰","STREET":"崇德二十街","SECT":" ","MAREA":" ","LANE":" ","ALLEY":" ","HOUSE_NO":"５３號","E_COORD97":170946.57000000001,"N_COORD97":2540924.5299999998,"ADDRESS":"崇德二十街５３號","OBJECTID":335191},"geometry":{"x":170946.57000000123,"y":2540924.5300000031}},{"attributes":{"ID":335201,"DIS_CODE":0,"TOWNNAME":"東區","LI":"崇成里","LIN":"17鄰","STREET":"崇明十八街","SECT":" ","MAREA":" ","LANE":" ","ALLEY":" ","HOUSE_NO":"４８號","E_COORD97":170743.01999999999,"N_COORD97":2541169.0699999998,"ADDRESS":"崇明十八街４８號","OBJECTID":335192},"geometry":{"x":170743.01999999955,"y":2541169.0700000003}},{"attributes":{"ID":335202,"DIS_CODE":0,"TOWNNAME":"中西區","LI":"安海里","LIN":"17鄰","STREET":"民生路","SECT":"二段","MAREA":" ","LANE":" ","ALLEY":" ","HOUSE_NO":"３０５號之１","E_COORD97":167073.28,"N_COORD97":2544140.7200000002,"ADDRESS":"民生路二段３０５號之１","OBJECTID":335193},"geometry":{"x":167073.28000000119,"y":2544140.7200000007}},{"attributes":{"ID":335203,"DIS_CODE":0,"TOWNNAME":"東區","LI":"崇善里","LIN":"17鄰","STREET":"崇善路","SECT":" ","MAREA":" ","LANE":" ","ALLEY":" ","HOUSE_NO":"７５７號","E_COORD97":171202.04999999999,"N_COORD97":2540958.7799999998,"ADDRESS":"崇善路７５７號","OBJECTID":335194},"geometry":{"x":171202.05000000075,"y":2540958.7799999993}},{"attributes":{"ID":335204,"DIS_CODE":0,"TOWNNAME":"南化區","LI":"中坑里","LIN":"6鄰","STREET":" ","SECT":" ","MAREA":"中坑","LANE":" ","ALLEY":" ","HOUSE_NO":"４９號","E_COORD97":193742.379606,"N_COORD97":2550324.8356599999,"ADDRESS":"中坑４９號","OBJECTID":335195},"geometry":{"x":193742.37960600108,"y":2550324.8356570024}},{"attributes":{"ID":335205,"DIS_CODE":0,"TOWNNAME":"大內區","LI":"曲溪里","LIN":"1鄰","STREET":" ","SECT":" ","MAREA":"二重溪","LANE":" ","ALLEY":" ","HOUSE_NO":"３號","E_COORD97":187401.18895400001,"N_COORD97":2557658.7916999999,"ADDRESS":"二重溪３號","OBJECTID":335196},"geometry":{"x":187401.18895400036,"y":2557658.7916960046}},{"attributes":{"ID":335206,"DIS_CODE":0,"TOWNNAME":"南化區","LI":"中坑里","LIN":"6鄰","STREET":" ","SECT":" ","MAREA":"中坑","LANE":" ","ALLEY":" ","HOUSE_NO":"５１號","E_COORD97":193731.369729,"N_COORD97":2550315.31066,"ADDRESS":"中坑５１號","OBJECTID":335197},"geometry":{"x":193731.36972900014,"y":2550315.3106619995}},{"attributes":{"ID":335207,"DIS_CODE":0,"TOWNNAME":"南化區","LI":"中坑里","LIN":"6鄰","STREET":" ","SECT":" ","MAREA":"中坑","LANE":" ","ALLEY":" ","HOUSE_NO":"５１之１號","E_COORD97":193743.86170499999,"N_COORD97":2550308.5373300002,"ADDRESS":"中坑５１之１號","OBJECTID":335198},"geometry":{"x":193743.86170499958,"y":2550308.5373320039}},{"attributes":{"ID":335208,"DIS_CODE":0,"TOWNNAME":"大內區","LI":"曲溪里","LIN":"1鄰","STREET":" ","SECT":" ","MAREA":"二重溪","LANE":" ","ALLEY":" ","HOUSE_NO":"４號","E_COORD97":187413.052371,"N_COORD97":2557662.4958600001,"ADDRESS":"二重溪４號","OBJECTID":335199},"geometry":{"x":187413.05237100087,"y":2557662.4958610032}},{"attributes":{"ID":335209,"DIS_CODE":0,"TOWNNAME":"南化區","LI":"中坑里","LIN":"7鄰","STREET":" ","SECT":" ","MAREA":"中坑","LANE":" ","ALLEY":" ","HOUSE_NO":"５５號","E_COORD97":193699.61046900001,"N_COORD97":2550384.3139599999,"ADDRESS":"中坑５５號","OBJECTID":335200},"geometry":{"x":193699.61046900135,"y":2550384.3139580004}}]}