{"displayFieldName":"TOWNNAME","fieldAliases":{"ID":"ID","DIS_CODE":"DIS_CODE","TOWNNAME":"TOWNNAME","LI":"LI","LIN":"LIN","STREET":"STREET","SECT":"SECT","MAREA":"MAREA","LANE":"LANE","ALLEY":"ALLEY","HOUSE_NO":"HOUSE_NO","E_COORD97":"E_COORD97","N_COORD97":"N_COORD97","ADDRESS":"ADDRESS","OBJECTID":"OBJECTID"},"geometryType":"esriGeometryPoint","spatialReference":{"wkid":102443,"latestWkid":3826},"fields":[{"name":"ID","type":"esriFieldTypeDouble","alias":"ID"},{"name":"DIS_CODE","type":"esriFieldTypeInteger","alias":"DIS_CODE"},{"name":"TOWNNAME","type":"esriFieldTypeString","alias":"TOWNNAME","length":8},{"name":"LI","type":"esriFieldTypeString","alias":"LI","length":8},{"name":"LIN","type":"esriFieldTypeString","alias":"LIN","length":12},{"name":"STREET","type":"esriFieldTypeString","alias":"STREET","length":20},{"name":"SECT","type":"esriFieldTypeString","alias":"SECT","length":8},{"name":"MAREA","type":"esriFieldTypeString","alias":"MAREA","length":12},{"name":"LANE","type":"esriFieldTypeString","alias":"LANE","length":10},{"name":"ALLEY","type":"esriFieldTypeString","alias":"ALLEY","length":10},{"name":"HOUSE_NO","type":"esriFieldTypeString","alias":"HOUSE_NO","length":20},{"name":"E_COORD97","type":"esriFieldTypeDouble","alias":"E_COORD97"},{"name":"N_COORD97","type":"esriFieldTypeDouble","alias":"N_COORD97"},{"name":"ADDRESS","type":"esriFieldTypeString","alias":"ADDRESS","length":50},{"name":"OBJECTID","type":"esriFieldTypeOID","alias":"OBJECTID"}],"features":[{"attributes":{"ID":484426,"DIS_CODE":0,"TOWNNAME":"東區","LI":"大智里","LIN":"25鄰","STREET":"文東街","SECT":" ","MAREA":" ","LANE":" ","ALLEY":" ","HOUSE_NO":"５８號","E_COORD97":171384.73000000001,"N_COORD97":2540197.6099999999,"ADDRESS":"文東街５８號","OBJECTID":484401},"geometry":{"x":171384.73000000138,"y":2540197.6099999994}},{"attributes":{"ID":484427,"DIS_CODE":0,"TOWNNAME":"東區","LI":"大智里","LIN":"25鄰","STREET":"文東街","SECT":" ","MAREA":" ","LANE":" ","ALLEY":" ","HOUSE_NO":"５９號","E_COORD97":171330.17000000001,"N_COORD97":2540232.6299999999,"ADDRESS":"文東街５９號","OBJECTID":484402},"geometry":{"x":171330.17000000086,"y":2540232.6300000008}},{"attributes":{"ID":484428,"DIS_CODE":0,"TOWNNAME":"東區","LI":"大智里","LIN":"25鄰","STREET":"文東街","SECT":" ","MAREA":" ","LANE":" ","ALLEY":" ","HOUSE_NO":"６０號","E_COORD97":171389,"N_COORD97":2540194.3700000001,"ADDRESS":"文東街６０號","OBJECTID":484403},"geometry":{"x":171389.00000000093,"y":2540194.370000001}},{"attributes":{"ID":484429,"DIS_CODE":0,"TOWNNAME":"東區","LI":"大智里","LIN":"25鄰","STREET":"文東街","SECT":" ","MAREA":" ","LANE":" ","ALLEY":" ","HOUSE_NO":"６１號","E_COORD97":171331.45999999999,"N_COORD97":2540228.02,"ADDRESS":"文東街６１號","OBJECTID":484404},"geometry":{"x":171331.46000000089,"y":2540228.0200000014}},{"attributes":{"ID":484430,"DIS_CODE":0,"TOWNNAME":"東區","LI":"大智里","LIN":"25鄰","STREET":"文東街","SECT":" ","MAREA":" ","LANE":" ","ALLEY":" ","HOUSE_NO":"６２號","E_COORD97":171393.62,"N_COORD97":2540196.25,"ADDRESS":"文東街６２號","OBJECTID":484405},"geometry":{"x":171393.62000000104,"y":2540196.2500000019}},{"attributes":{"ID":484431,"DIS_CODE":0,"TOWNNAME":"東區","LI":"大智里","LIN":"25鄰","STREET":"文東街","SECT":" ","MAREA":" ","LANE":" ","ALLEY":" ","HOUSE_NO":"７７號","E_COORD97":171361.45000000001,"N_COORD97":2540214.0499999998,"ADDRESS":"文東街７７號","OBJECTID":484406},"geometry":{"x":171361.45000000019,"y":2540214.0500000045}},{"attributes":{"ID":484432,"DIS_CODE":0,"TOWNNAME":"東區","LI":"大智里","LIN":"25鄰","STREET":"文東街","SECT":" ","MAREA":" ","LANE":" ","ALLEY":" ","HOUSE_NO":"７９號","E_COORD97":171364.91,"N_COORD97":2540217.0699999998,"ADDRESS":"文東街７９號","OBJECTID":484407},"geometry":{"x":171364.91000000015,"y":2540217.0700000022}},{"attributes":{"ID":484433,"DIS_CODE":0,"TOWNNAME":"東區","LI":"大智里","LIN":"25鄰","STREET":"文東街","SECT":" ","MAREA":" ","LANE":" ","ALLEY":" ","HOUSE_NO":"５６號","E_COORD97":171381.48000000001,"N_COORD97":2540194.71,"ADDRESS":"文東街５６號","OBJECTID":484408},"geometry":{"x":171381.48000000045,"y":2540194.7100000009}},{"attributes":{"ID":484434,"DIS_CODE":0,"TOWNNAME":"東區","LI":"大智里","LIN":"25鄰","STREET":"文東街","SECT":" ","MAREA":" ","LANE":" ","ALLEY":" ","HOUSE_NO":"８６號","E_COORD97":171442.31,"N_COORD97":2540191.8100000001,"ADDRESS":"文東街８６號","OBJECTID":484409},"geometry":{"x":171442.31000000052,"y":2540191.8100000042}},{"attributes":{"ID":484435,"DIS_CODE":0,"TOWNNAME":"東區","LI":"崇善里","LIN":"25鄰","STREET":"崇善東路","SECT":" ","MAREA":" ","LANE":" ","ALLEY":" ","HOUSE_NO":"３７號","E_COORD97":171334.92000000001,"N_COORD97":2540963.1499999999,"ADDRESS":"崇善東路３７號","OBJECTID":484410},"geometry":{"x":171334.92000000086,"y":2540963.1500000022}},{"attributes":{"ID":484436,"DIS_CODE":0,"TOWNNAME":"東區","LI":"崇善里","LIN":"25鄰","STREET":"崇善東路","SECT":" ","MAREA":" ","LANE":" ","ALLEY":" ","HOUSE_NO":"３９號","E_COORD97":171337.54000000001,"N_COORD97":2540965.5,"ADDRESS":"崇善東路３９號","OBJECTID":484411},"geometry":{"x":171337.54000000097,"y":2540965.5}},{"attributes":{"ID":484437,"DIS_CODE":0,"TOWNNAME":"東區","LI":"崇善里","LIN":"25鄰","STREET":"崇善東路","SECT":" ","MAREA":" ","LANE":" ","ALLEY":" ","HOUSE_NO":"３號","E_COORD97":171286.73000000001,"N_COORD97":2540878.8100000001,"ADDRESS":"崇善東路３號","OBJECTID":484412},"geometry":{"x":171286.73000000045,"y":2540878.8100000005}},{"attributes":{"ID":484438,"DIS_CODE":0,"TOWNNAME":"東區","LI":"崇善里","LIN":"25鄰","STREET":"崇善東路","SECT":" ","MAREA":" ","LANE":" ","ALLEY":" ","HOUSE_NO":"５７號","E_COORD97":171372.39000000001,"N_COORD97":2541023.0800000001,"ADDRESS":"崇善東路５７號","OBJECTID":484413},"geometry":{"x":171372.3900000006,"y":2541023.0799999982}},{"attributes":{"ID":484439,"DIS_CODE":0,"TOWNNAME":"東區","LI":"崇善里","LIN":"25鄰","STREET":"崇善東路","SECT":" ","MAREA":" ","LANE":" ","ALLEY":" ","HOUSE_NO":"５號","E_COORD97":171289.53,"N_COORD97":2540883.4700000002,"ADDRESS":"崇善東路５號","OBJECTID":484414},"geometry":{"x":171289.53000000026,"y":2540883.4700000025}},{"attributes":{"ID":484440,"DIS_CODE":0,"TOWNNAME":"東區","LI":"崇善里","LIN":"25鄰","STREET":"崇善東路","SECT":" ","MAREA":" ","LANE":" ","ALLEY":" ","HOUSE_NO":"６３號","E_COORD97":171382.70999999999,"N_COORD97":2541035.4399999999,"ADDRESS":"崇善東路６３號","OBJECTID":484415},"geometry":{"x":171382.70999999996,"y":2541035.4400000013}},{"attributes":{"ID":484441,"DIS_CODE":0,"TOWNNAME":"東區","LI":"崇善里","LIN":"25鄰","STREET":"崇善東路","SECT":" ","MAREA":" ","LANE":" ","ALLEY":" ","HOUSE_NO":"６７號","E_COORD97":171386.82999999999,"N_COORD97":2541044.9199999999,"ADDRESS":"崇善東路６７號","OBJECTID":484416},"geometry":{"x":171386.83000000101,"y":2541044.9200000018}},{"attributes":{"ID":484442,"DIS_CODE":0,"TOWNNAME":"東區","LI":"崇善里","LIN":"25鄰","STREET":"崇善東路","SECT":" ","MAREA":" ","LANE":" ","ALLEY":" ","HOUSE_NO":"６９號","E_COORD97":171389.92999999999,"N_COORD97":2541048.6299999999,"ADDRESS":"崇善東路６９號","OBJECTID":484417},"geometry":{"x":171389.9299999997,"y":2541048.6299999971}},{"attributes":{"ID":484443,"DIS_CODE":0,"TOWNNAME":"東區","LI":"崇善里","LIN":"25鄰","STREET":"崇善東路","SECT":" ","MAREA":" ","LANE":" ","ALLEY":" ","HOUSE_NO":"７３號","E_COORD97":171399.95999999999,"N_COORD97":2541063.6800000002,"ADDRESS":"崇善東路７３號","OBJECTID":484418},"geometry":{"x":171399.95999999996,"y":2541063.6800000016}},{"attributes":{"ID":484444,"DIS_CODE":0,"TOWNNAME":"東區","LI":"崇善里","LIN":"25鄰","STREET":"崇善東路","SECT":" ","MAREA":" ","LANE":" ","ALLEY":" ","HOUSE_NO":"６１號","E_COORD97":171379.82000000001,"N_COORD97":2541031.73,"ADDRESS":"崇善東路６１號","OBJECTID":484419},"geometry":{"x":171379.82000000216,"y":2541031.7300000004}},{"attributes":{"ID":484445,"DIS_CODE":0,"TOWNNAME":"東區","LI":"崇善里","LIN":"25鄰","STREET":"崇善東路","SECT":" ","MAREA":" ","LANE":" ","ALLEY":" ","HOUSE_NO":"２５號","E_COORD97":171523.60999999999,"N_COORD97":2540875.8199999998,"ADDRESS":"崇善東路２５號","OBJECTID":484420},"geometry":{"x":171523.6100000022,"y":2540875.8200000003}},{"attributes":{"ID":484446,"DIS_CODE":0,"TOWNNAME":"東區","LI":"崇善里","LIN":"25鄰","STREET":"崇善東路","SECT":" ","MAREA":" ","LANE":" ","ALLEY":" ","HOUSE_NO":"２９號","E_COORD97":171326.54000000001,"N_COORD97":2540947.1800000002,"ADDRESS":"崇善東路２９號","OBJECTID":484421},"geometry":{"x":171326.54000000004,"y":2540947.1799999997}},{"attributes":{"ID":484447,"DIS_CODE":0,"TOWNNAME":"東區","LI":"崇善里","LIN":"25鄰","STREET":"崇善東路","SECT":" ","MAREA":" ","LANE":" ","ALLEY":" ","HOUSE_NO":"４１號","E_COORD97":171340.16,"N_COORD97":2540969.6899999999,"ADDRESS":"崇善東路４１號","OBJECTID":484422},"geometry":{"x":171340.16000000108,"y":2540969.6899999995}},{"attributes":{"ID":484448,"DIS_CODE":0,"TOWNNAME":"東區","LI":"崇善里","LIN":"25鄰","STREET":"崇善東路","SECT":" ","MAREA":" ","LANE":" ","ALLEY":" ","HOUSE_NO":"４３號","E_COORD97":171342.78,"N_COORD97":2540973.8799999999,"ADDRESS":"崇善東路４３號","OBJECTID":484423},"geometry":{"x":171342.78000000212,"y":2540973.8800000008}},{"attributes":{"ID":484449,"DIS_CODE":0,"TOWNNAME":"東區","LI":"崇善里","LIN":"25鄰","STREET":"崇善東路","SECT":" ","MAREA":" ","LANE":" ","ALLEY":" ","HOUSE_NO":"４７號","E_COORD97":171355.07000000001,"N_COORD97":2540987.2200000002,"ADDRESS":"崇善東路４７號","OBJECTID":484424},"geometry":{"x":171355.07000000123,"y":2540987.2200000025}},{"attributes":{"ID":484450,"DIS_CODE":0,"TOWNNAME":"東區","LI":"崇善里","LIN":"25鄰","STREET":"崇善東路","SECT":" ","MAREA":" ","LANE":" ","ALLEY":" ","HOUSE_NO":"４９號","E_COORD97":171360.01999999999,"N_COORD97":2541007.6200000001,"ADDRESS":"崇善東路４９號","OBJECTID":484425},"geometry":{"x":171360.01999999955,"y":2541007.6200000029}},{"attributes":{"ID":484451,"DIS_CODE":0,"TOWNNAME":"東區","LI":"崇善里","LIN":"25鄰","STREET":"崇善東路","SECT":" ","MAREA":" ","LANE":" ","ALLEY":" ","HOUSE_NO":"５１號","E_COORD97":171364.56,"N_COORD97":2541011.9500000002,"ADDRESS":"崇善東路５１號","OBJECTID":484426},"geometry":{"x":171364.56000000052,"y":2541011.9499999993}},{"attributes":{"ID":484452,"DIS_CODE":0,"TOWNNAME":"東區","LI":"忠孝里","LIN":"25鄰","STREET":"崇明三街","SECT":" ","MAREA":" ","LANE":" ","ALLEY":" ","HOUSE_NO":"３２號","E_COORD97":169612.42000000001,"N_COORD97":2542339.1800000002,"ADDRESS":"崇明三街３２號","OBJECTID":484427},"geometry":{"x":169612.42000000179,"y":2542339.1800000016}},{"attributes":{"ID":484453,"DIS_CODE":0,"TOWNNAME":"東區","LI":"忠孝里","LIN":"25鄰","STREET":"崇明三街","SECT":" ","MAREA":" ","LANE":" ","ALLEY":" ","HOUSE_NO":"３０號","E_COORD97":169607.84,"N_COORD97":2542337.5099999998,"ADDRESS":"崇明三街３０號","OBJECTID":484428},"geometry":{"x":169607.84000000078,"y":2542337.5099999998}},{"attributes":{"ID":484454,"DIS_CODE":0,"TOWNNAME":"中西區","LI":"萬昌里","LIN":"15鄰","STREET":"青年路","SECT":" ","MAREA":" ","LANE":" ","ALLEY":" ","HOUSE_NO":"８４號","E_COORD97":168806.94,"N_COORD97":2543608.3700000001,"ADDRESS":"青年路８４號","OBJECTID":484429},"geometry":{"x":168806.94000000041,"y":2543608.370000001}},{"attributes":{"ID":484455,"DIS_CODE":0,"TOWNNAME":"安南區","LI":"溪頂里","LIN":"25鄰","STREET":"郡安路","SECT":"四段","MAREA":" ","LANE":" ","ALLEY":" ","HOUSE_NO":"１２１號","E_COORD97":168856.92999999999,"N_COORD97":2547611.5299999998,"ADDRESS":"郡安路四段１２１號","OBJECTID":484430},"geometry":{"x":168856.9299999997,"y":2547611.5300000012}},{"attributes":{"ID":484456,"DIS_CODE":0,"TOWNNAME":"安南區","LI":"溪頂里","LIN":"25鄰","STREET":"郡安路","SECT":"四段","MAREA":" ","LANE":" ","ALLEY":" ","HOUSE_NO":"１２２號","E_COORD97":168852.07000000001,"N_COORD97":2547612.9700000002,"ADDRESS":"郡安路四段１２２號","OBJECTID":484431},"geometry":{"x":168852.0700000003,"y":2547612.9700000025}},{"attributes":{"ID":484457,"DIS_CODE":0,"TOWNNAME":"安南區","LI":"溪頂里","LIN":"25鄰","STREET":"郡安路","SECT":"四段","MAREA":" ","LANE":" ","ALLEY":" ","HOUSE_NO":"１２３號","E_COORD97":168847.75,"N_COORD97":2547613.4100000001,"ADDRESS":"郡安路四段１２３號","OBJECTID":484432},"geometry":{"x":168847.75000000093,"y":2547613.410000002}},{"attributes":{"ID":484458,"DIS_CODE":0,"TOWNNAME":"安南區","LI":"溪頂里","LIN":"25鄰","STREET":"郡安路","SECT":"四段","MAREA":" ","LANE":" ","ALLEY":" ","HOUSE_NO":"１２４號","E_COORD97":168843.10999999999,"N_COORD97":2547613.4100000001,"ADDRESS":"郡安路四段１２４號","OBJECTID":484433},"geometry":{"x":168843.11000000034,"y":2547613.410000002}},{"attributes":{"ID":484459,"DIS_CODE":0,"TOWNNAME":"安南區","LI":"溪頂里","LIN":"25鄰","STREET":"郡安路","SECT":"四段","MAREA":" ","LANE":" ","ALLEY":" ","HOUSE_NO":"１２６號","E_COORD97":168834.04000000001,"N_COORD97":2547614.7400000002,"ADDRESS":"郡安路四段１２６號","OBJECTID":484434},"geometry":{"x":168834.04000000097,"y":2547614.7400000021}},{"attributes":{"ID":484460,"DIS_CODE":0,"TOWNNAME":"安南區","LI":"溪頂里","LIN":"25鄰","STREET":"郡安路","SECT":"四段","MAREA":" ","LANE":" ","ALLEY":" ","HOUSE_NO":"１２７號","E_COORD97":168829.84,"N_COORD97":2547614.96,"ADDRESS":"郡安路四段１２７號","OBJECTID":484435},"geometry":{"x":168829.84000000078,"y":2547614.9600000009}},{"attributes":{"ID":484461,"DIS_CODE":0,"TOWNNAME":"安南區","LI":"溪頂里","LIN":"25鄰","STREET":"郡安路","SECT":"四段","MAREA":" ","LANE":" ","ALLEY":" ","HOUSE_NO":"１２８號","E_COORD97":168824.92000000001,"N_COORD97":2547617.0699999998,"ADDRESS":"郡安路四段１２８號","OBJECTID":484436},"geometry":{"x":168824.91999999993,"y":2547617.0700000003}},{"attributes":{"ID":484462,"DIS_CODE":0,"TOWNNAME":"安南區","LI":"溪頂里","LIN":"25鄰","STREET":"郡安路","SECT":"四段","MAREA":" ","LANE":" ","ALLEY":" ","HOUSE_NO":"１２９號","E_COORD97":168820.35000000001,"N_COORD97":2547617.7200000002,"ADDRESS":"郡安路四段１２９號","OBJECTID":484437},"geometry":{"x":168820.34999999963,"y":2547617.7200000025}},{"attributes":{"ID":484463,"DIS_CODE":0,"TOWNNAME":"安南區","LI":"溪頂里","LIN":"25鄰","STREET":"郡安路","SECT":"四段","MAREA":" ","LANE":" ","ALLEY":" ","HOUSE_NO":"１３０號","E_COORD97":168816.10999999999,"N_COORD97":2547617.9700000002,"ADDRESS":"郡安路四段１３０號","OBJECTID":484438},"geometry":{"x":168816.11000000034,"y":2547617.9700000007}},{"attributes":{"ID":484464,"DIS_CODE":0,"TOWNNAME":"安南區","LI":"溪頂里","LIN":"25鄰","STREET":"郡安路","SECT":"四段","MAREA":" ","LANE":" ","ALLEY":" ","HOUSE_NO":"１３１號","E_COORD97":168811.38,"N_COORD97":2547618.0499999998,"ADDRESS":"郡安路四段１３１號","OBJECTID":484439},"geometry":{"x":168811.38000000082,"y":2547618.0500000007}},{"attributes":{"ID":484465,"DIS_CODE":0,"TOWNNAME":"安南區","LI":"溪頂里","LIN":"25鄰","STREET":"郡安路","SECT":"四段","MAREA":" ","LANE":" ","ALLEY":" ","HOUSE_NO":"１３２號","E_COORD97":168806.97,"N_COORD97":2547618.0499999998,"ADDRESS":"郡安路四段１３２號","OBJECTID":484440},"geometry":{"x":168806.97000000067,"y":2547618.0500000007}},{"attributes":{"ID":484466,"DIS_CODE":0,"TOWNNAME":"安南區","LI":"溪頂里","LIN":"25鄰","STREET":"郡安路","SECT":"四段","MAREA":" ","LANE":" ","ALLEY":" ","HOUSE_NO":"１３３號","E_COORD97":168802.57000000001,"N_COORD97":2547618.1299999999,"ADDRESS":"郡安路四段１３３號","OBJECTID":484441},"geometry":{"x":168802.5700000003,"y":2547618.129999999}},{"attributes":{"ID":484467,"DIS_CODE":0,"TOWNNAME":"安南區","LI":"溪頂里","LIN":"25鄰","STREET":"郡安路","SECT":"四段","MAREA":" ","LANE":" ","ALLEY":" ","HOUSE_NO":"１３４號","E_COORD97":168798.16,"N_COORD97":2547618.7000000002,"ADDRESS":"郡安路四段１３４號","OBJECTID":484442},"geometry":{"x":168798.16000000015,"y":2547618.6999999993}},{"attributes":{"ID":484468,"DIS_CODE":0,"TOWNNAME":"安南區","LI":"溪頂里","LIN":"25鄰","STREET":"郡安路","SECT":"四段","MAREA":" ","LANE":" ","ALLEY":" ","HOUSE_NO":"１３５號","E_COORD97":168792.19,"N_COORD97":2547618.3100000001,"ADDRESS":"郡安路四段１３５號","OBJECTID":484443},"geometry":{"x":168792.19000000227,"y":2547618.3100000005}},{"attributes":{"ID":484469,"DIS_CODE":0,"TOWNNAME":"安南區","LI":"溪墘里","LIN":"25鄰","STREET":"安寧街","SECT":" ","MAREA":" ","LANE":" ","ALLEY":" ","HOUSE_NO":"１號","E_COORD97":167418.32999999999,"N_COORD97":2546862.6200000001,"ADDRESS":"安寧街１號","OBJECTID":484444},"geometry":{"x":167418.33000000101,"y":2546862.6200000029}},{"attributes":{"ID":484470,"DIS_CODE":0,"TOWNNAME":"安南區","LI":"溪墘里","LIN":"25鄰","STREET":"府安路","SECT":"五段","MAREA":" ","LANE":" ","ALLEY":" ","HOUSE_NO":"２４５號","E_COORD97":167411.63,"N_COORD97":2546859.96,"ADDRESS":"府安路五段２４５號","OBJECTID":484445},"geometry":{"x":167411.62999999989,"y":2546859.9600000046}},{"attributes":{"ID":484471,"DIS_CODE":0,"TOWNNAME":"安南區","LI":"溪墘里","LIN":"25鄰","STREET":"府安路","SECT":"五段","MAREA":" ","LANE":" ","ALLEY":" ","HOUSE_NO":"２４６號","E_COORD97":167405.73000000001,"N_COORD97":2546858.1000000001,"ADDRESS":"府安路五段２４６號","OBJECTID":484446},"geometry":{"x":167405.73000000138,"y":2546858.1000000015}},{"attributes":{"ID":484472,"DIS_CODE":0,"TOWNNAME":"安南區","LI":"溪墘里","LIN":"25鄰","STREET":"府安路","SECT":"五段","MAREA":" ","LANE":" ","ALLEY":" ","HOUSE_NO":"２５１號","E_COORD97":167379.51999999999,"N_COORD97":2546852.5299999998,"ADDRESS":"府安路五段２５１號","OBJECTID":484447},"geometry":{"x":167379.51999999955,"y":2546852.5300000012}},{"attributes":{"ID":484473,"DIS_CODE":0,"TOWNNAME":"安南區","LI":"溪墘里","LIN":"25鄰","STREET":"府安路","SECT":"五段","MAREA":" ","LANE":" ","ALLEY":" ","HOUSE_NO":"２５３號","E_COORD97":167369.26999999999,"N_COORD97":2546850.3500000001,"ADDRESS":"府安路五段２５３號","OBJECTID":484448},"geometry":{"x":167369.27000000048,"y":2546850.3500000015}},{"attributes":{"ID":484474,"DIS_CODE":0,"TOWNNAME":"安南區","LI":"溪墘里","LIN":"25鄰","STREET":"府安路","SECT":"五段","MAREA":" ","LANE":" ","ALLEY":" ","HOUSE_NO":"２５４號","E_COORD97":167363.78,"N_COORD97":2546849.46,"ADDRESS":"府安路五段２５４號","OBJECTID":484449},"geometry":{"x":167363.78000000026,"y":2546849.459999999}},{"attributes":{"ID":484475,"DIS_CODE":0,"TOWNNAME":"安南區","LI":"溪墘里","LIN":"25鄰","STREET":"府安路","SECT":"五段","MAREA":" ","LANE":" ","ALLEY":" ","HOUSE_NO":"２５５號","E_COORD97":167357.79999999999,"N_COORD97":2546847.9300000002,"ADDRESS":"府安路五段２５５號","OBJECTID":484450},"geometry":{"x":167357.79999999981,"y":2546847.9299999997}},{"attributes":{"ID":484476,"DIS_CODE":0,"TOWNNAME":"安南區","LI":"溪墘里","LIN":"25鄰","STREET":"府安路","SECT":"五段","MAREA":" ","LANE":" ","ALLEY":" ","HOUSE_NO":"２５８號","E_COORD97":167340.60000000001,"N_COORD97":2546844.8399999999,"ADDRESS":"府安路五段２５８號","OBJECTID":484451},"geometry":{"x":167340.59999999963,"y":2546844.8399999999}},{"attributes":{"ID":484477,"DIS_CODE":0,"TOWNNAME":"安南區","LI":"溪墘里","LIN":"25鄰","STREET":"府安路","SECT":"五段","MAREA":" ","LANE":" ","ALLEY":" ","HOUSE_NO":"２６０號","E_COORD97":167329.98000000001,"N_COORD97":2546843.3100000001,"ADDRESS":"府安路五段２６０號","OBJECTID":484452},"geometry":{"x":167329.98000000045,"y":2546843.3099999987}},{"attributes":{"ID":484478,"DIS_CODE":0,"TOWNNAME":"安南區","LI":"溪墘里","LIN":"25鄰","STREET":"府安路","SECT":"五段","MAREA":" ","LANE":" ","ALLEY":" ","HOUSE_NO":"２６５號","E_COORD97":167324.76000000001,"N_COORD97":2546819.9399999999,"ADDRESS":"府安路五段２６５號","OBJECTID":484453},"geometry":{"x":167324.76000000164,"y":2546819.9399999995}},{"attributes":{"ID":484479,"DIS_CODE":0,"TOWNNAME":"安南區","LI":"新順里","LIN":"25鄰","STREET":"慶安路","SECT":" ","MAREA":" ","LANE":" ","ALLEY":" ","HOUSE_NO":"６９號","E_COORD97":169471.07000000001,"N_COORD97":2549165.4100000001,"ADDRESS":"慶安路６９號","OBJECTID":484454},"geometry":{"x":169471.07000000216,"y":2549165.410000002}},{"attributes":{"ID":484480,"DIS_CODE":0,"TOWNNAME":"安南區","LI":"新順里","LIN":"25鄰","STREET":"慶安路","SECT":" ","MAREA":" ","LANE":" ","ALLEY":" ","HOUSE_NO":"７１號","E_COORD97":169472.13,"N_COORD97":2549169.6600000001,"ADDRESS":"慶安路７１號","OBJECTID":484455},"geometry":{"x":169472.13000000082,"y":2549169.6599999983}},{"attributes":{"ID":484481,"DIS_CODE":0,"TOWNNAME":"安南區","LI":"新順里","LIN":"25鄰","STREET":"慶安路","SECT":" ","MAREA":" ","LANE":" ","ALLEY":" ","HOUSE_NO":"７３號","E_COORD97":169470.26999999999,"N_COORD97":2549174.4399999999,"ADDRESS":"慶安路７３號","OBJECTID":484456},"geometry":{"x":169470.26999999955,"y":2549174.4400000013}},{"attributes":{"ID":484482,"DIS_CODE":0,"TOWNNAME":"安南區","LI":"新順里","LIN":"25鄰","STREET":"慶安路","SECT":" ","MAREA":" ","LANE":" ","ALLEY":" ","HOUSE_NO":"７５號","E_COORD97":169469.47,"N_COORD97":2549178.96,"ADDRESS":"慶安路７５號","OBJECTID":484457},"geometry":{"x":169469.4700000016,"y":2549178.9600000046}},{"attributes":{"ID":484483,"DIS_CODE":0,"TOWNNAME":"安南區","LI":"新順里","LIN":"25鄰","STREET":"慶安路","SECT":" ","MAREA":" ","LANE":" ","ALLEY":" ","HOUSE_NO":"７７號","E_COORD97":169468.67000000001,"N_COORD97":2549182.9399999999,"ADDRESS":"慶安路７７號","OBJECTID":484458},"geometry":{"x":169468.67000000086,"y":2549182.9399999995}},{"attributes":{"ID":484484,"DIS_CODE":0,"TOWNNAME":"安南區","LI":"新順里","LIN":"25鄰","STREET":"慶安路","SECT":" ","MAREA":" ","LANE":" ","ALLEY":" ","HOUSE_NO":"７９號","E_COORD97":169467.88,"N_COORD97":2549187.46,"ADDRESS":"慶安路７９號","OBJECTID":484459},"geometry":{"x":169467.87999999989,"y":2549187.4600000009}},{"attributes":{"ID":484485,"DIS_CODE":0,"TOWNNAME":"安南區","LI":"新順里","LIN":"25鄰","STREET":"興安路","SECT":" ","MAREA":" ","LANE":" ","ALLEY":" ","HOUSE_NO":"１４３號","E_COORD97":169262.73999999999,"N_COORD97":2549135.4199999999,"ADDRESS":"興安路１４３號","OBJECTID":484460},"geometry":{"x":169262.74000000022,"y":2549135.4200000018}},{"attributes":{"ID":484486,"DIS_CODE":0,"TOWNNAME":"安南區","LI":"新順里","LIN":"25鄰","STREET":"興安路","SECT":" ","MAREA":" ","LANE":" ","ALLEY":" ","HOUSE_NO":"１４１號","E_COORD97":169268.32999999999,"N_COORD97":2549133.77,"ADDRESS":"興安路１４１號","OBJECTID":484461},"geometry":{"x":169268.33000000007,"y":2549133.7699999996}},{"attributes":{"ID":484487,"DIS_CODE":0,"TOWNNAME":"安南區","LI":"新順里","LIN":"25鄰","STREET":"興安路","SECT":" ","MAREA":" ","LANE":" ","ALLEY":" ","HOUSE_NO":"１３９號","E_COORD97":169273.79000000001,"N_COORD97":2549132.25,"ADDRESS":"興安路１３９號","OBJECTID":484462},"geometry":{"x":169273.79000000004,"y":2549132.2500000019}},{"attributes":{"ID":484488,"DIS_CODE":0,"TOWNNAME":"安南區","LI":"新順里","LIN":"25鄰","STREET":"興安路","SECT":" ","MAREA":" ","LANE":" ","ALLEY":" ","HOUSE_NO":"１３７號","E_COORD97":169280.14000000001,"N_COORD97":2549131.3599999999,"ADDRESS":"興安路１３７號","OBJECTID":484463},"geometry":{"x":169280.1400000006,"y":2549131.3600000013}},{"attributes":{"ID":484489,"DIS_CODE":0,"TOWNNAME":"安南區","LI":"新順里","LIN":"25鄰","STREET":"興安路","SECT":" ","MAREA":" ","LANE":" ","ALLEY":" ","HOUSE_NO":"１３５號","E_COORD97":169285.47,"N_COORD97":2549129.8300000001,"ADDRESS":"興安路１３５號","OBJECTID":484464},"geometry":{"x":169285.46999999974,"y":2549129.8300000001}},{"attributes":{"ID":484490,"DIS_CODE":0,"TOWNNAME":"安南區","LI":"新順里","LIN":"25鄰","STREET":"興安路","SECT":" ","MAREA":" ","LANE":" ","ALLEY":" ","HOUSE_NO":"１３３號","E_COORD97":169291.06,"N_COORD97":2549128.4399999999,"ADDRESS":"興安路１３３號","OBJECTID":484465},"geometry":{"x":169291.06000000052,"y":2549128.4399999995}},{"attributes":{"ID":484491,"DIS_CODE":0,"TOWNNAME":"安南區","LI":"新順里","LIN":"25鄰","STREET":"興安路","SECT":" ","MAREA":" ","LANE":" ","ALLEY":" ","HOUSE_NO":"１７２號","E_COORD97":169265.28,"N_COORD97":2549158.1600000001,"ADDRESS":"興安路１７２號","OBJECTID":484466},"geometry":{"x":169265.28000000026,"y":2549158.1600000001}},{"attributes":{"ID":484492,"DIS_CODE":0,"TOWNNAME":"永康區","LI":"復華里","LIN":"25鄰","STREET":"復華十街","SECT":" ","MAREA":" ","LANE":" ","ALLEY":" ","HOUSE_NO":"７０號","E_COORD97":172659.12,"N_COORD97":2546392.1000000001,"ADDRESS":"復華十街７０號","OBJECTID":484467},"geometry":{"x":172659.12000000197,"y":2546392.0999999996}},{"attributes":{"ID":484493,"DIS_CODE":0,"TOWNNAME":"永康區","LI":"復華里","LIN":"25鄰","STREET":"復華十街","SECT":" ","MAREA":" ","LANE":" ","ALLEY":" ","HOUSE_NO":"７２號","E_COORD97":172658.76999999999,"N_COORD97":2546398.1600000001,"ADDRESS":"復華十街７２號","OBJECTID":484468},"geometry":{"x":172658.76999999955,"y":2546398.160000002}},{"attributes":{"ID":484494,"DIS_CODE":0,"TOWNNAME":"永康區","LI":"復華里","LIN":"25鄰","STREET":"復華十街","SECT":" ","MAREA":" ","LANE":" ","ALLEY":" ","HOUSE_NO":"７６號","E_COORD97":172658.60000000001,"N_COORD97":2546404.8300000001,"ADDRESS":"復華十街７６號","OBJECTID":484469},"geometry":{"x":172658.5999999987,"y":2546404.8300000001}},{"attributes":{"ID":484495,"DIS_CODE":0,"TOWNNAME":"永康區","LI":"復華里","LIN":"25鄰","STREET":"復華十街","SECT":" ","MAREA":" ","LANE":" ","ALLEY":" ","HOUSE_NO":"７８號","E_COORD97":172658.29999999999,"N_COORD97":2546410.71,"ADDRESS":"復華十街７８號","OBJECTID":484470},"geometry":{"x":172658.30000000075,"y":2546410.7100000046}},{"attributes":{"ID":484496,"DIS_CODE":0,"TOWNNAME":"永康區","LI":"復華里","LIN":"25鄰","STREET":"復華十街","SECT":" ","MAREA":" ","LANE":" ","ALLEY":" ","HOUSE_NO":"８０號","E_COORD97":172658.29999999999,"N_COORD97":2546416.9900000002,"ADDRESS":"復華十街８０號","OBJECTID":484471},"geometry":{"x":172658.30000000075,"y":2546416.9900000002}},{"attributes":{"ID":484497,"DIS_CODE":0,"TOWNNAME":"永康區","LI":"永康里","LIN":"25鄰","STREET":"永大路","SECT":"三段","MAREA":" ","LANE":" ","ALLEY":" ","HOUSE_NO":"１７７號","E_COORD97":174134,"N_COORD97":2547852.9500000002,"ADDRESS":"永大路三段１７７號","OBJECTID":484472},"geometry":{"x":174134,"y":2547852.9500000011}},{"attributes":{"ID":484498,"DIS_CODE":0,"TOWNNAME":"永康區","LI":"\u25A0洲里","LIN":"25鄰","STREET":"正南二街","SECT":" ","MAREA":" ","LANE":" ","ALLEY":" ","HOUSE_NO":"８５號","E_COORD97":170678.81,"N_COORD97":2548386.8700000001,"ADDRESS":"正南二街８５號","OBJECTID":484473},"geometry":{"x":170678.80999999959,"y":2548386.8700000029}},{"attributes":{"ID":484499,"DIS_CODE":0,"TOWNNAME":"中西區","LI":"大涼里","LIN":"25鄰","STREET":"永華一街","SECT":" ","MAREA":" ","LANE":" ","ALLEY":" ","HOUSE_NO":"７２號","E_COORD97":166886.04000000001,"N_COORD97":2543424.8900000001,"ADDRESS":"永華一街７２號","OBJECTID":484474},"geometry":{"x":166886.04000000097,"y":2543424.8900000006}},{"attributes":{"ID":484500,"DIS_CODE":0,"TOWNNAME":"中西區","LI":"大涼里","LIN":"25鄰","STREET":"永華一街","SECT":" ","MAREA":" ","LANE":" ","ALLEY":" ","HOUSE_NO":"７４號","E_COORD97":166888.42999999999,"N_COORD97":2543429.5299999998,"ADDRESS":"永華一街７４號","OBJECTID":484475},"geometry":{"x":166888.43000000063,"y":2543429.5299999993}},{"attributes":{"ID":484501,"DIS_CODE":0,"TOWNNAME":"中西區","LI":"大涼里","LIN":"25鄰","STREET":"永華一街","SECT":" ","MAREA":" ","LANE":" ","ALLEY":" ","HOUSE_NO":"７６號","E_COORD97":166889.73999999999,"N_COORD97":2543434.1800000002,"ADDRESS":"永華一街７６號","OBJECTID":484476},"geometry":{"x":166889.74000000209,"y":2543434.1800000016}},{"attributes":{"ID":484502,"DIS_CODE":0,"TOWNNAME":"中西區","LI":"大涼里","LIN":"25鄰","STREET":"永華一街","SECT":" ","MAREA":" ","LANE":" ","ALLEY":" ","HOUSE_NO":"７８號","E_COORD97":166891.04999999999,"N_COORD97":2543438.3500000001,"ADDRESS":"永華一街７８號","OBJECTID":484477},"geometry":{"x":166891.05000000075,"y":2543438.3500000034}},{"attributes":{"ID":484503,"DIS_CODE":0,"TOWNNAME":"中西區","LI":"大涼里","LIN":"25鄰","STREET":"永華一街","SECT":" ","MAREA":" ","LANE":" ","ALLEY":" ","HOUSE_NO":"８０號","E_COORD97":166891.89000000001,"N_COORD97":2543443.1200000001,"ADDRESS":"永華一街８０號","OBJECTID":484478},"geometry":{"x":166891.8900000006,"y":2543443.120000001}},{"attributes":{"ID":484504,"DIS_CODE":0,"TOWNNAME":"中西區","LI":"大涼里","LIN":"25鄰","STREET":"永華一街","SECT":" ","MAREA":" ","LANE":" ","ALLEY":" ","HOUSE_NO":"８２號","E_COORD97":166892.95999999999,"N_COORD97":2543447.4100000001,"ADDRESS":"永華一街８２號","OBJECTID":484479},"geometry":{"x":166892.96000000183,"y":2543447.4100000001}},{"attributes":{"ID":484505,"DIS_CODE":0,"TOWNNAME":"中西區","LI":"大涼里","LIN":"25鄰","STREET":"永華一街","SECT":" ","MAREA":" ","LANE":" ","ALLEY":" ","HOUSE_NO":"８４號","E_COORD97":166894.03,"N_COORD97":2543452.6499999999,"ADDRESS":"永華一街８４號","OBJECTID":484480},"geometry":{"x":166894.03000000026,"y":2543452.6500000004}},{"attributes":{"ID":484506,"DIS_CODE":0,"TOWNNAME":"中西區","LI":"大涼里","LIN":"25鄰","STREET":"永華一街","SECT":" ","MAREA":" ","LANE":" ","ALLEY":" ","HOUSE_NO":"８６號","E_COORD97":166894.26999999999,"N_COORD97":2543457.5299999998,"ADDRESS":"永華一街８６號","OBJECTID":484481},"geometry":{"x":166894.27000000048,"y":2543457.5300000012}},{"attributes":{"ID":484507,"DIS_CODE":0,"TOWNNAME":"中西區","LI":"大涼里","LIN":"25鄰","STREET":"永華一街","SECT":" ","MAREA":" ","LANE":" ","ALLEY":" ","HOUSE_NO":"８８號","E_COORD97":166895.70000000001,"N_COORD97":2543461.5800000001,"ADDRESS":"永華一街８８號","OBJECTID":484482},"geometry":{"x":166895.70000000112,"y":2543461.5800000019}},{"attributes":{"ID":484508,"DIS_CODE":0,"TOWNNAME":"中西區","LI":"大涼里","LIN":"25鄰","STREET":"永華一街","SECT":" ","MAREA":" ","LANE":" ","ALLEY":" ","HOUSE_NO":"９０號","E_COORD97":166897.25,"N_COORD97":2543465.2799999998,"ADDRESS":"永華一街９０號","OBJECTID":484483},"geometry":{"x":166897.25,"y":2543465.2799999993}},{"attributes":{"ID":484509,"DIS_CODE":0,"TOWNNAME":"歸仁區","LI":"南保里","LIN":"25鄰","STREET":"文化街","SECT":"三段","MAREA":" ","LANE":" ","ALLEY":" ","HOUSE_NO":"１８７號","E_COORD97":176555.51999999999,"N_COORD97":2541179.2599999998,"ADDRESS":"文化街三段１８７號","OBJECTID":484484},"geometry":{"x":176555.52000000048,"y":2541179.2600000016}},{"attributes":{"ID":484510,"DIS_CODE":0,"TOWNNAME":"歸仁區","LI":"歸南里","LIN":"25鄰","STREET":"民生十街","SECT":" ","MAREA":" ","LANE":" ","ALLEY":" ","HOUSE_NO":"６號","E_COORD97":176070.06,"N_COORD97":2540194.25,"ADDRESS":"民生十街６號","OBJECTID":484485},"geometry":{"x":176070.06000000052,"y":2540194.25}},{"attributes":{"ID":484511,"DIS_CODE":0,"TOWNNAME":"安平區","LI":"怡平里","LIN":"25鄰","STREET":"華平路","SECT":" ","MAREA":" ","LANE":" ","ALLEY":" ","HOUSE_NO":"４１８號","E_COORD97":165443.26000000001,"N_COORD97":2543575.4700000002,"ADDRESS":"華平路４１８號","OBJECTID":484486},"geometry":{"x":165443.26000000071,"y":2543575.4700000025}},{"attributes":{"ID":484512,"DIS_CODE":0,"TOWNNAME":"安平區","LI":"怡平里","LIN":"25鄰","STREET":"華平路","SECT":" ","MAREA":" ","LANE":" ","ALLEY":" ","HOUSE_NO":"４１６號","E_COORD97":165442.78,"N_COORD97":2543573.3700000001,"ADDRESS":"華平路４１６號","OBJECTID":484487},"geometry":{"x":165442.78000000026,"y":2543573.3700000029}},{"attributes":{"ID":484513,"DIS_CODE":0,"TOWNNAME":"安平區","LI":"怡平里","LIN":"25鄰","STREET":"華平路","SECT":" ","MAREA":" ","LANE":" ","ALLEY":" ","HOUSE_NO":"４１２號","E_COORD97":165442.13,"N_COORD97":2543571.8399999999,"ADDRESS":"華平路４１２號","OBJECTID":484488},"geometry":{"x":165442.12999999989,"y":2543571.8400000017}},{"attributes":{"ID":484514,"DIS_CODE":0,"TOWNNAME":"安平區","LI":"怡平里","LIN":"25鄰","STREET":"華平路","SECT":" ","MAREA":" ","LANE":" ","ALLEY":" ","HOUSE_NO":"４１０號","E_COORD97":165442.25,"N_COORD97":2543569.8999999999,"ADDRESS":"華平路４１０號","OBJECTID":484489},"geometry":{"x":165442.25000000093,"y":2543569.9000000004}},{"attributes":{"ID":484515,"DIS_CODE":0,"TOWNNAME":"安平區","LI":"怡平里","LIN":"25鄰","STREET":"華平路","SECT":" ","MAREA":" ","LANE":" ","ALLEY":" ","HOUSE_NO":"４０８號","E_COORD97":165441.56,"N_COORD97":2543567.3900000001,"ADDRESS":"華平路４０８號","OBJECTID":484490},"geometry":{"x":165441.56000000052,"y":2543567.3900000006}},{"attributes":{"ID":484516,"DIS_CODE":0,"TOWNNAME":"安平區","LI":"怡平里","LIN":"25鄰","STREET":"建平八街","SECT":" ","MAREA":" ","LANE":" ","ALLEY":" ","HOUSE_NO":"３５７號","E_COORD97":165463.98000000001,"N_COORD97":2543542.8100000001,"ADDRESS":"建平八街３５７號","OBJECTID":484491},"geometry":{"x":165463.98000000045,"y":2543542.8100000024}},{"attributes":{"ID":484517,"DIS_CODE":0,"TOWNNAME":"新營區","LI":"新北里","LIN":"25鄰","STREET":"民治路","SECT":" ","MAREA":" ","LANE":" ","ALLEY":" ","HOUSE_NO":"１７６號","E_COORD97":179040.13,"N_COORD97":2578682.5,"ADDRESS":"民治路１７６號","OBJECTID":484492},"geometry":{"x":179040.13000000082,"y":2578682.5}},{"attributes":{"ID":484518,"DIS_CODE":0,"TOWNNAME":"安平區","LI":"怡平里","LIN":"25鄰","STREET":"華平路","SECT":" ","MAREA":" ","LANE":" ","ALLEY":" ","HOUSE_NO":"４７０號","E_COORD97":165466.41,"N_COORD97":2543676.8700000001,"ADDRESS":"華平路４７０號","OBJECTID":484493},"geometry":{"x":165466.41000000108,"y":2543676.8699999992}},{"attributes":{"ID":484519,"DIS_CODE":0,"TOWNNAME":"安平區","LI":"怡平里","LIN":"25鄰","STREET":"華平路","SECT":" ","MAREA":" ","LANE":" ","ALLEY":" ","HOUSE_NO":"４７２號","E_COORD97":165467.03,"N_COORD97":2543681.1699999999,"ADDRESS":"華平路４７２號","OBJECTID":484494},"geometry":{"x":165467.03000000026,"y":2543681.1700000018}},{"attributes":{"ID":484520,"DIS_CODE":0,"TOWNNAME":"安平區","LI":"怡平里","LIN":"25鄰","STREET":"永華路","SECT":"二段","MAREA":" ","LANE":" ","ALLEY":" ","HOUSE_NO":"４５６號","E_COORD97":165600.39000000001,"N_COORD97":2543501.6400000001,"ADDRESS":"永華路二段４５６號","OBJECTID":484495},"geometry":{"x":165600.3900000006,"y":2543501.6399999987}},{"attributes":{"ID":484521,"DIS_CODE":0,"TOWNNAME":"歸仁區","LI":"後市里","LIN":"25鄰","STREET":"文化街","SECT":"二段","MAREA":" ","LANE":" ","ALLEY":" ","HOUSE_NO":"４１號","E_COORD97":177491.23999999999,"N_COORD97":2541074.2599999998,"ADDRESS":"文化街二段４１號","OBJECTID":484496},"geometry":{"x":177491.24000000022,"y":2541074.2600000016}},{"attributes":{"ID":484522,"DIS_CODE":0,"TOWNNAME":"新營區","LI":"民榮里","LIN":"25鄰","STREET":"南昌街","SECT":" ","MAREA":" ","LANE":" ","ALLEY":" ","HOUSE_NO":"５６號","E_COORD97":179331.67000000001,"N_COORD97":2577658.9199999999,"ADDRESS":"南昌街５６號","OBJECTID":484497},"geometry":{"x":179331.66999999993,"y":2577658.9200000018}},{"attributes":{"ID":484523,"DIS_CODE":0,"TOWNNAME":"學甲區","LI":"慈福里","LIN":"25鄰","STREET":"綿和路","SECT":" ","MAREA":" ","LANE":" ","ALLEY":" ","HOUSE_NO":"５２號","E_COORD97":166273.72,"N_COORD97":2570408.5099999998,"ADDRESS":"綿和路５２號","OBJECTID":484498},"geometry":{"x":166273.71999999974,"y":2570408.5100000016}},{"attributes":{"ID":484524,"DIS_CODE":0,"TOWNNAME":"學甲區","LI":"慈福里","LIN":"25鄰","STREET":"綿和路","SECT":" ","MAREA":" ","LANE":" ","ALLEY":" ","HOUSE_NO":"５４號之１","E_COORD97":166263.38,"N_COORD97":2570382.4700000002,"ADDRESS":"綿和路５４號之１","OBJECTID":484499},"geometry":{"x":166263.38000000082,"y":2570382.4700000025}},{"attributes":{"ID":484525,"DIS_CODE":0,"TOWNNAME":"學甲區","LI":"慈福里","LIN":"25鄰","STREET":"綿和路","SECT":" ","MAREA":" ","LANE":" ","ALLEY":" ","HOUSE_NO":"５４號","E_COORD97":166268.04999999999,"N_COORD97":2570381.6299999999,"ADDRESS":"綿和路５４號","OBJECTID":484500},"geometry":{"x":166268.04999999981,"y":2570381.629999999}},{"attributes":{"ID":484526,"DIS_CODE":0,"TOWNNAME":"學甲區","LI":"慈福里","LIN":"25鄰","STREET":"綿和路","SECT":" ","MAREA":" ","LANE":" ","ALLEY":" ","HOUSE_NO":"５６號","E_COORD97":166256.16,"N_COORD97":2570403.7000000002,"ADDRESS":"綿和路５６號","OBJECTID":484501},"geometry":{"x":166256.16000000201,"y":2570403.7000000011}},{"attributes":{"ID":484527,"DIS_CODE":0,"TOWNNAME":"學甲區","LI":"慈福里","LIN":"25鄰","STREET":"綿和路","SECT":" ","MAREA":" ","LANE":" ","ALLEY":" ","HOUSE_NO":"５８號之１","E_COORD97":166234.45000000001,"N_COORD97":2570390.1299999999,"ADDRESS":"綿和路５８號之１","OBJECTID":484502},"geometry":{"x":166234.45000000112,"y":2570390.1300000008}},{"attributes":{"ID":484528,"DIS_CODE":0,"TOWNNAME":"學甲區","LI":"慈福里","LIN":"25鄰","STREET":"綿和路","SECT":" ","MAREA":" ","LANE":" ","ALLEY":" ","HOUSE_NO":"５８號之３","E_COORD97":166228.64000000001,"N_COORD97":2570398.9100000001,"ADDRESS":"綿和路５８號之３","OBJECTID":484503},"geometry":{"x":166228.64000000153,"y":2570398.9100000039}},{"attributes":{"ID":484529,"DIS_CODE":0,"TOWNNAME":"學甲區","LI":"慈福里","LIN":"25鄰","STREET":"綿和路","SECT":" ","MAREA":" ","LANE":" ","ALLEY":" ","HOUSE_NO":"５８號","E_COORD97":166239.85999999999,"N_COORD97":2570388.9300000002,"ADDRESS":"綿和路５８號","OBJECTID":484504},"geometry":{"x":166239.86000000127,"y":2570388.9300000016}},{"attributes":{"ID":484530,"DIS_CODE":0,"TOWNNAME":"學甲區","LI":"慈福里","LIN":"25鄰","STREET":"綿和路","SECT":" ","MAREA":" ","LANE":" ","ALLEY":" ","HOUSE_NO":"６０號","E_COORD97":166223.98000000001,"N_COORD97":2570399.73,"ADDRESS":"綿和路６０號","OBJECTID":484505},"geometry":{"x":166223.98000000138,"y":2570399.7300000004}},{"attributes":{"ID":484531,"DIS_CODE":0,"TOWNNAME":"學甲區","LI":"慈福里","LIN":"25鄰","STREET":"綿和路","SECT":" ","MAREA":" ","LANE":" ","ALLEY":" ","HOUSE_NO":"６４號","E_COORD97":166204.78,"N_COORD97":2570395.8500000001,"ADDRESS":"綿和路６４號","OBJECTID":484506},"geometry":{"x":166204.78000000119,"y":2570395.8500000015}},{"attributes":{"ID":484532,"DIS_CODE":0,"TOWNNAME":"北區","LI":"文元里","LIN":"25鄰","STREET":"文成三路","SECT":" ","MAREA":" ","LANE":" ","ALLEY":" ","HOUSE_NO":"６９７號","E_COORD97":167707.48000000001,"N_COORD97":2546241.8399999999,"ADDRESS":"文成三路６９７號","OBJECTID":484507},"geometry":{"x":167707.48000000138,"y":2546241.8399999999}},{"attributes":{"ID":484533,"DIS_CODE":0,"TOWNNAME":"東區","LI":"崇德里","LIN":"25鄰","STREET":"崇道路","SECT":" ","MAREA":" ","LANE":" ","ALLEY":" ","HOUSE_NO":"２１號六樓","E_COORD97":170653.98999999999,"N_COORD97":2541424.1299999999,"ADDRESS":"崇道路２１號六樓","OBJECTID":484508},"geometry":{"x":170653.99000000022,"y":2541424.129999999}},{"attributes":{"ID":484534,"DIS_CODE":0,"TOWNNAME":"北區","LI":"大豐里","LIN":"25鄰","STREET":"和緯路","SECT":"四段","MAREA":" ","LANE":" ","ALLEY":" ","HOUSE_NO":"９１號","E_COORD97":167127.89999999999,"N_COORD97":2545496.0499999998,"ADDRESS":"和緯路四段９１號","OBJECTID":484509},"geometry":{"x":167127.9000000013,"y":2545496.0500000045}},{"attributes":{"ID":484535,"DIS_CODE":0,"TOWNNAME":"玉井區","LI":"玉田里","LIN":"36鄰","STREET":"中正路","SECT":" ","MAREA":" ","LANE":" ","ALLEY":" ","HOUSE_NO":"２９５號","E_COORD97":195214.26000000001,"N_COORD97":2558368.2400000002,"ADDRESS":"中正路２９５號","OBJECTID":484510},"geometry":{"x":195214.26000000071,"y":2558368.2400000021}},{"attributes":{"ID":484536,"DIS_CODE":0,"TOWNNAME":"東區","LI":"泉南里","LIN":"25鄰","STREET":"樹林街","SECT":"一段","MAREA":" ","LANE":" ","ALLEY":" ","HOUSE_NO":"７１號五樓","E_COORD97":169540.5,"N_COORD97":2542944.52,"ADDRESS":"樹林街一段７１號五樓","OBJECTID":484511},"geometry":{"x":169540.49999999907,"y":2542944.5199999996}},{"attributes":{"ID":484537,"DIS_CODE":0,"TOWNNAME":"東區","LI":"泉南里","LIN":"25鄰","STREET":"樹林街","SECT":"一段","MAREA":" ","LANE":" ","ALLEY":" ","HOUSE_NO":"７１號六樓","E_COORD97":169540.5,"N_COORD97":2542944.52,"ADDRESS":"樹林街一段７１號六樓","OBJECTID":484512},"geometry":{"x":169540.49999999907,"y":2542944.5199999996}},{"attributes":{"ID":484538,"DIS_CODE":0,"TOWNNAME":"東區","LI":"泉南里","LIN":"25鄰","STREET":"樹林街","SECT":"一段","MAREA":" ","LANE":" ","ALLEY":" ","HOUSE_NO":"７１號七樓","E_COORD97":169540.5,"N_COORD97":2542944.52,"ADDRESS":"樹林街一段７１號七樓","OBJECTID":484513},"geometry":{"x":169540.49999999907,"y":2542944.5199999996}},{"attributes":{"ID":484539,"DIS_CODE":0,"TOWNNAME":"東區","LI":"泉南里","LIN":"25鄰","STREET":"樹林街","SECT":"一段","MAREA":" ","LANE":" ","ALLEY":" ","HOUSE_NO":"７３號三樓","E_COORD97":169536.07000000001,"N_COORD97":2542946.1600000001,"ADDRESS":"樹林街一段７３號三樓","OBJECTID":484514},"geometry":{"x":169536.07000000123,"y":2542946.160000002}},{"attributes":{"ID":484540,"DIS_CODE":0,"TOWNNAME":"東區","LI":"泉南里","LIN":"25鄰","STREET":"樹林街","SECT":"一段","MAREA":" ","LANE":" ","ALLEY":" ","HOUSE_NO":"７３號四樓","E_COORD97":169536.07000000001,"N_COORD97":2542946.1600000001,"ADDRESS":"樹林街一段７３號四樓","OBJECTID":484515},"geometry":{"x":169536.07000000123,"y":2542946.160000002}},{"attributes":{"ID":484541,"DIS_CODE":0,"TOWNNAME":"東區","LI":"泉南里","LIN":"25鄰","STREET":"樹林街","SECT":"一段","MAREA":" ","LANE":" ","ALLEY":" ","HOUSE_NO":"７３號五樓","E_COORD97":169536.07000000001,"N_COORD97":2542946.1600000001,"ADDRESS":"樹林街一段７３號五樓","OBJECTID":484516},"geometry":{"x":169536.07000000123,"y":2542946.160000002}},{"attributes":{"ID":484542,"DIS_CODE":0,"TOWNNAME":"東區","LI":"泉南里","LIN":"25鄰","STREET":"樹林街","SECT":"一段","MAREA":" ","LANE":" ","ALLEY":" ","HOUSE_NO":"７３號六樓","E_COORD97":169536.07000000001,"N_COORD97":2542946.1600000001,"ADDRESS":"樹林街一段７３號六樓","OBJECTID":484517},"geometry":{"x":169536.07000000123,"y":2542946.160000002}},{"attributes":{"ID":484543,"DIS_CODE":0,"TOWNNAME":"東區","LI":"泉南里","LIN":"25鄰","STREET":"樹林街","SECT":"一段","MAREA":" ","LANE":" ","ALLEY":" ","HOUSE_NO":"７３號七樓","E_COORD97":169536.07000000001,"N_COORD97":2542946.1600000001,"ADDRESS":"樹林街一段７３號七樓","OBJECTID":484518},"geometry":{"x":169536.07000000123,"y":2542946.160000002}},{"attributes":{"ID":484544,"DIS_CODE":0,"TOWNNAME":"東區","LI":"泉南里","LIN":"25鄰","STREET":"樹林街","SECT":"一段","MAREA":" ","LANE":" ","ALLEY":" ","HOUSE_NO":"７５號三樓","E_COORD97":169529.51000000001,"N_COORD97":2542947.1499999999,"ADDRESS":"樹林街一段７５號三樓","OBJECTID":484519},"geometry":{"x":169529.50999999978,"y":2542947.1500000022}},{"attributes":{"ID":484545,"DIS_CODE":0,"TOWNNAME":"東區","LI":"泉南里","LIN":"25鄰","STREET":"樹林街","SECT":"一段","MAREA":" ","LANE":" ","ALLEY":" ","HOUSE_NO":"７５號四樓","E_COORD97":169529.51000000001,"N_COORD97":2542947.1499999999,"ADDRESS":"樹林街一段７５號四樓","OBJECTID":484520},"geometry":{"x":169529.50999999978,"y":2542947.1500000022}},{"attributes":{"ID":484546,"DIS_CODE":0,"TOWNNAME":"東區","LI":"泉南里","LIN":"25鄰","STREET":"樹林街","SECT":"一段","MAREA":" ","LANE":" ","ALLEY":" ","HOUSE_NO":"７５號五樓","E_COORD97":169529.51000000001,"N_COORD97":2542947.1499999999,"ADDRESS":"樹林街一段７５號五樓","OBJECTID":484521},"geometry":{"x":169529.50999999978,"y":2542947.1500000022}},{"attributes":{"ID":484547,"DIS_CODE":0,"TOWNNAME":"東區","LI":"泉南里","LIN":"25鄰","STREET":"樹林街","SECT":"一段","MAREA":" ","LANE":" ","ALLEY":" ","HOUSE_NO":"７５號六樓","E_COORD97":169529.51000000001,"N_COORD97":2542947.1499999999,"ADDRESS":"樹林街一段７５號六樓","OBJECTID":484522},"geometry":{"x":169529.50999999978,"y":2542947.1500000022}},{"attributes":{"ID":484548,"DIS_CODE":0,"TOWNNAME":"東區","LI":"泉南里","LIN":"25鄰","STREET":"樹林街","SECT":"一段","MAREA":" ","LANE":" ","ALLEY":" ","HOUSE_NO":"７５號七樓","E_COORD97":169529.51000000001,"N_COORD97":2542947.1499999999,"ADDRESS":"樹林街一段７５號七樓","OBJECTID":484523},"geometry":{"x":169529.50999999978,"y":2542947.1500000022}},{"attributes":{"ID":484549,"DIS_CODE":0,"TOWNNAME":"東區","LI":"泉南里","LIN":"25鄰","STREET":"樹林街","SECT":"一段","MAREA":" ","LANE":" ","ALLEY":" ","HOUSE_NO":"７７號四樓","E_COORD97":169523.60999999999,"N_COORD97":2542949.1099999999,"ADDRESS":"樹林街一段７７號四樓","OBJECTID":484524},"geometry":{"x":169523.61000000127,"y":2542949.1100000013}},{"attributes":{"ID":484550,"DIS_CODE":0,"TOWNNAME":"東區","LI":"泉南里","LIN":"25鄰","STREET":"樹林街","SECT":"一段","MAREA":" ","LANE":" ","ALLEY":" ","HOUSE_NO":"７７號五樓","E_COORD97":169523.60999999999,"N_COORD97":2542949.1099999999,"ADDRESS":"樹林街一段７７號五樓","OBJECTID":484525},"geometry":{"x":169523.61000000127,"y":2542949.1100000013}},{"attributes":{"ID":484551,"DIS_CODE":0,"TOWNNAME":"東區","LI":"泉南里","LIN":"25鄰","STREET":"樹林街","SECT":"一段","MAREA":" ","LANE":" ","ALLEY":" ","HOUSE_NO":"７７號六樓","E_COORD97":169523.60999999999,"N_COORD97":2542949.1099999999,"ADDRESS":"樹林街一段７７號六樓","OBJECTID":484526},"geometry":{"x":169523.61000000127,"y":2542949.1100000013}},{"attributes":{"ID":484552,"DIS_CODE":0,"TOWNNAME":"東區","LI":"泉南里","LIN":"25鄰","STREET":"樹林街","SECT":"一段","MAREA":" ","LANE":" ","ALLEY":" ","HOUSE_NO":"７７號七樓","E_COORD97":169523.60999999999,"N_COORD97":2542949.1099999999,"ADDRESS":"樹林街一段７７號七樓","OBJECTID":484527},"geometry":{"x":169523.61000000127,"y":2542949.1100000013}},{"attributes":{"ID":484553,"DIS_CODE":0,"TOWNNAME":"玉井區","LI":"玉田里","LIN":"12鄰","STREET":"太子街","SECT":" ","MAREA":" ","LANE":" ","ALLEY":" ","HOUSE_NO":"８號","E_COORD97":194806.23000000001,"N_COORD97":2557937.2599999998,"ADDRESS":"太子街８號","OBJECTID":484528},"geometry":{"x":194806.22999999952,"y":2557937.2600000016}},{"attributes":{"ID":484554,"DIS_CODE":0,"TOWNNAME":"東區","LI":"崇善里","LIN":"25鄰","STREET":"崇善東路","SECT":" ","MAREA":" ","LANE":" ","ALLEY":" ","HOUSE_NO":"７３號七樓","E_COORD97":171399.95999999999,"N_COORD97":2541063.6800000002,"ADDRESS":"崇善東路７３號七樓","OBJECTID":484529},"geometry":{"x":171399.95999999996,"y":2541063.6800000016}},{"attributes":{"ID":484555,"DIS_CODE":0,"TOWNNAME":"東區","LI":"崇善里","LIN":"25鄰","STREET":"崇善東路","SECT":" ","MAREA":" ","LANE":" ","ALLEY":" ","HOUSE_NO":"７３號七樓之１","E_COORD97":171399.95999999999,"N_COORD97":2541063.6800000002,"ADDRESS":"崇善東路７３號七樓之１","OBJECTID":484530},"geometry":{"x":171399.95999999996,"y":2541063.6800000016}},{"attributes":{"ID":484556,"DIS_CODE":0,"TOWNNAME":"東區","LI":"崇善里","LIN":"25鄰","STREET":"崇善東路","SECT":" ","MAREA":" ","LANE":" ","ALLEY":" ","HOUSE_NO":"７３號七樓之２","E_COORD97":171399.95999999999,"N_COORD97":2541063.6800000002,"ADDRESS":"崇善東路７３號七樓之２","OBJECTID":484531},"geometry":{"x":171399.95999999996,"y":2541063.6800000016}},{"attributes":{"ID":484557,"DIS_CODE":0,"TOWNNAME":"東區","LI":"崇善里","LIN":"25鄰","STREET":"崇善東路","SECT":" ","MAREA":" ","LANE":" ","ALLEY":" ","HOUSE_NO":"７３號三樓之２","E_COORD97":171399.95999999999,"N_COORD97":2541063.6800000002,"ADDRESS":"崇善東路７３號三樓之２","OBJECTID":484532},"geometry":{"x":171399.95999999996,"y":2541063.6800000016}},{"attributes":{"ID":484558,"DIS_CODE":0,"TOWNNAME":"東區","LI":"崇善里","LIN":"25鄰","STREET":"崇善東路","SECT":" ","MAREA":" ","LANE":" ","ALLEY":" ","HOUSE_NO":"７３號五樓之１","E_COORD97":171399.95999999999,"N_COORD97":2541063.6800000002,"ADDRESS":"崇善東路７３號五樓之１","OBJECTID":484533},"geometry":{"x":171399.95999999996,"y":2541063.6800000016}},{"attributes":{"ID":484559,"DIS_CODE":0,"TOWNNAME":"東區","LI":"崇善里","LIN":"25鄰","STREET":"崇善東路","SECT":" ","MAREA":" ","LANE":" ","ALLEY":" ","HOUSE_NO":"７３號五樓之２","E_COORD97":171399.95999999999,"N_COORD97":2541063.6800000002,"ADDRESS":"崇善東路７３號五樓之２","OBJECTID":484534},"geometry":{"x":171399.95999999996,"y":2541063.6800000016}},{"attributes":{"ID":484560,"DIS_CODE":0,"TOWNNAME":"東區","LI":"崇善里","LIN":"25鄰","STREET":"崇善東路","SECT":" ","MAREA":" ","LANE":" ","ALLEY":" ","HOUSE_NO":"７３號六樓","E_COORD97":171399.95999999999,"N_COORD97":2541063.6800000002,"ADDRESS":"崇善東路７３號六樓","OBJECTID":484535},"geometry":{"x":171399.95999999996,"y":2541063.6800000016}},{"attributes":{"ID":484561,"DIS_CODE":0,"TOWNNAME":"東區","LI":"崇善里","LIN":"25鄰","STREET":"崇善東路","SECT":" ","MAREA":" ","LANE":" ","ALLEY":" ","HOUSE_NO":"７３號六樓之１","E_COORD97":171399.95999999999,"N_COORD97":2541063.6800000002,"ADDRESS":"崇善東路７３號六樓之１","OBJECTID":484536},"geometry":{"x":171399.95999999996,"y":2541063.6800000016}},{"attributes":{"ID":484562,"DIS_CODE":0,"TOWNNAME":"東區","LI":"崇善里","LIN":"25鄰","STREET":"崇善東路","SECT":" ","MAREA":" ","LANE":" ","ALLEY":" ","HOUSE_NO":"７３號六樓之２","E_COORD97":171399.95999999999,"N_COORD97":2541063.6800000002,"ADDRESS":"崇善東路７３號六樓之２","OBJECTID":484537},"geometry":{"x":171399.95999999996,"y":2541063.6800000016}},{"attributes":{"ID":484563,"DIS_CODE":0,"TOWNNAME":"東區","LI":"崇善里","LIN":"25鄰","STREET":"崇善東路","SECT":" ","MAREA":" ","LANE":" ","ALLEY":" ","HOUSE_NO":"７３號四樓之１","E_COORD97":171399.95999999999,"N_COORD97":2541063.6800000002,"ADDRESS":"崇善東路７３號四樓之１","OBJECTID":484538},"geometry":{"x":171399.95999999996,"y":2541063.6800000016}},{"attributes":{"ID":484564,"DIS_CODE":0,"TOWNNAME":"東區","LI":"崇善里","LIN":"25鄰","STREET":"崇善東路","SECT":" ","MAREA":" ","LANE":" ","ALLEY":" ","HOUSE_NO":"７３號四樓之２","E_COORD97":171399.95999999999,"N_COORD97":2541063.6800000002,"ADDRESS":"崇善東路７３號四樓之２","OBJECTID":484539},"geometry":{"x":171399.95999999996,"y":2541063.6800000016}},{"attributes":{"ID":484565,"DIS_CODE":0,"TOWNNAME":"東區","LI":"崇善里","LIN":"25鄰","STREET":"崇善東路","SECT":" ","MAREA":" ","LANE":" ","ALLEY":" ","HOUSE_NO":"７３號二樓","E_COORD97":171399.95999999999,"N_COORD97":2541063.6800000002,"ADDRESS":"崇善東路７３號二樓","OBJECTID":484540},"geometry":{"x":171399.95999999996,"y":2541063.6800000016}},{"attributes":{"ID":484566,"DIS_CODE":0,"TOWNNAME":"東區","LI":"崇善里","LIN":"25鄰","STREET":"崇善東路","SECT":" ","MAREA":" ","LANE":" ","ALLEY":" ","HOUSE_NO":"７３號三樓之１","E_COORD97":171399.95999999999,"N_COORD97":2541063.6800000002,"ADDRESS":"崇善東路７３號三樓之１","OBJECTID":484541},"geometry":{"x":171399.95999999996,"y":2541063.6800000016}},{"attributes":{"ID":484567,"DIS_CODE":0,"TOWNNAME":"東區","LI":"崇善里","LIN":"25鄰","STREET":"崇善東路","SECT":" ","MAREA":" ","LANE":" ","ALLEY":" ","HOUSE_NO":"７３號四樓","E_COORD97":171399.95999999999,"N_COORD97":2541063.6800000002,"ADDRESS":"崇善東路７３號四樓","OBJECTID":484542},"geometry":{"x":171399.95999999996,"y":2541063.6800000016}},{"attributes":{"ID":484568,"DIS_CODE":0,"TOWNNAME":"東區","LI":"崇善里","LIN":"25鄰","STREET":"崇善東路","SECT":" ","MAREA":" ","LANE":" ","ALLEY":" ","HOUSE_NO":"７３號五樓","E_COORD97":171399.95999999999,"N_COORD97":2541063.6800000002,"ADDRESS":"崇善東路７３號五樓","OBJECTID":484543},"geometry":{"x":171399.95999999996,"y":2541063.6800000016}},{"attributes":{"ID":484569,"DIS_CODE":0,"TOWNNAME":"東區","LI":"崇善里","LIN":"25鄰","STREET":"崇善東路","SECT":" ","MAREA":" ","LANE":" ","ALLEY":" ","HOUSE_NO":"７３號三樓","E_COORD97":171399.95999999999,"N_COORD97":2541063.6800000002,"ADDRESS":"崇善東路７３號三樓","OBJECTID":484544},"geometry":{"x":171399.95999999996,"y":2541063.6800000016}},{"attributes":{"ID":484570,"DIS_CODE":0,"TOWNNAME":"玉井區","LI":"玉田里","LIN":"38鄰","STREET":"大智街","SECT":" ","MAREA":" ","LANE":" ","ALLEY":" ","HOUSE_NO":"１７號","E_COORD97":195197.51000000001,"N_COORD97":2558058.2400000002,"ADDRESS":"大智街１７號","OBJECTID":484545},"geometry":{"x":195197.51000000071,"y":2558058.2400000002}},{"attributes":{"ID":484571,"DIS_CODE":0,"TOWNNAME":"東區","LI":"崇德里","LIN":"25鄰","STREET":"崇道路","SECT":" ","MAREA":" ","LANE":" ","ALLEY":" ","HOUSE_NO":"２１號三樓之１","E_COORD97":170653.98999999999,"N_COORD97":2541424.1299999999,"ADDRESS":"崇道路２１號三樓之１","OBJECTID":484546},"geometry":{"x":170653.99000000022,"y":2541424.129999999}},{"attributes":{"ID":484572,"DIS_CODE":0,"TOWNNAME":"東區","LI":"崇德里","LIN":"25鄰","STREET":"崇道路","SECT":" ","MAREA":" ","LANE":" ","ALLEY":" ","HOUSE_NO":"２１號四樓","E_COORD97":170653.98999999999,"N_COORD97":2541424.1299999999,"ADDRESS":"崇道路２１號四樓","OBJECTID":484547},"geometry":{"x":170653.99000000022,"y":2541424.129999999}},{"attributes":{"ID":484573,"DIS_CODE":0,"TOWNNAME":"東區","LI":"崇德里","LIN":"25鄰","STREET":"崇道路","SECT":" ","MAREA":" ","LANE":" ","ALLEY":" ","HOUSE_NO":"２１號四樓之１","E_COORD97":170653.98999999999,"N_COORD97":2541424.1299999999,"ADDRESS":"崇道路２１號四樓之１","OBJECTID":484548},"geometry":{"x":170653.99000000022,"y":2541424.129999999}},{"attributes":{"ID":484574,"DIS_CODE":0,"TOWNNAME":"東區","LI":"崇德里","LIN":"25鄰","STREET":"崇道路","SECT":" ","MAREA":" ","LANE":" ","ALLEY":" ","HOUSE_NO":"２１號四樓之２","E_COORD97":170653.98999999999,"N_COORD97":2541424.1299999999,"ADDRESS":"崇道路２１號四樓之２","OBJECTID":484549},"geometry":{"x":170653.99000000022,"y":2541424.129999999}},{"attributes":{"ID":484575,"DIS_CODE":0,"TOWNNAME":"東區","LI":"崇德里","LIN":"25鄰","STREET":"崇道路","SECT":" ","MAREA":" ","LANE":" ","ALLEY":" ","HOUSE_NO":"２１號五樓","E_COORD97":170653.98999999999,"N_COORD97":2541424.1299999999,"ADDRESS":"崇道路２１號五樓","OBJECTID":484550},"geometry":{"x":170653.99000000022,"y":2541424.129999999}},{"attributes":{"ID":484576,"DIS_CODE":0,"TOWNNAME":"東區","LI":"崇德里","LIN":"25鄰","STREET":"崇道路","SECT":" ","MAREA":" ","LANE":" ","ALLEY":" ","HOUSE_NO":"２１號五樓之１","E_COORD97":170653.98999999999,"N_COORD97":2541424.1299999999,"ADDRESS":"崇道路２１號五樓之１","OBJECTID":484551},"geometry":{"x":170653.99000000022,"y":2541424.129999999}},{"attributes":{"ID":484577,"DIS_CODE":0,"TOWNNAME":"東區","LI":"崇德里","LIN":"25鄰","STREET":"崇道路","SECT":" ","MAREA":" ","LANE":" ","ALLEY":" ","HOUSE_NO":"２１號六樓之１","E_COORD97":170653.98999999999,"N_COORD97":2541424.1299999999,"ADDRESS":"崇道路２１號六樓之１","OBJECTID":484552},"geometry":{"x":170653.99000000022,"y":2541424.129999999}},{"attributes":{"ID":484578,"DIS_CODE":0,"TOWNNAME":"東區","LI":"崇德里","LIN":"25鄰","STREET":"崇道路","SECT":" ","MAREA":" ","LANE":" ","ALLEY":" ","HOUSE_NO":"２１號六樓之２","E_COORD97":170653.98999999999,"N_COORD97":2541424.1299999999,"ADDRESS":"崇道路２１號六樓之２","OBJECTID":484553},"geometry":{"x":170653.99000000022,"y":2541424.129999999}},{"attributes":{"ID":484579,"DIS_CODE":0,"TOWNNAME":"東區","LI":"崇德里","LIN":"25鄰","STREET":"崇道路","SECT":" ","MAREA":" ","LANE":" ","ALLEY":" ","HOUSE_NO":"２１號七樓","E_COORD97":170653.98999999999,"N_COORD97":2541424.1299999999,"ADDRESS":"崇道路２１號七樓","OBJECTID":484554},"geometry":{"x":170653.99000000022,"y":2541424.129999999}},{"attributes":{"ID":484580,"DIS_CODE":0,"TOWNNAME":"東區","LI":"崇德里","LIN":"25鄰","STREET":"崇道路","SECT":" ","MAREA":" ","LANE":" ","ALLEY":" ","HOUSE_NO":"２１號七樓之１","E_COORD97":170653.98999999999,"N_COORD97":2541424.1299999999,"ADDRESS":"崇道路２１號七樓之１","OBJECTID":484555},"geometry":{"x":170653.99000000022,"y":2541424.129999999}},{"attributes":{"ID":484581,"DIS_CODE":0,"TOWNNAME":"東區","LI":"崇德里","LIN":"25鄰","STREET":"崇道路","SECT":" ","MAREA":" ","LANE":" ","ALLEY":" ","HOUSE_NO":"２１號七樓之２","E_COORD97":170653.98999999999,"N_COORD97":2541424.1299999999,"ADDRESS":"崇道路２１號七樓之２","OBJECTID":484556},"geometry":{"x":170653.99000000022,"y":2541424.129999999}},{"attributes":{"ID":484582,"DIS_CODE":0,"TOWNNAME":"東區","LI":"崇德里","LIN":"25鄰","STREET":"崇道路","SECT":" ","MAREA":" ","LANE":" ","ALLEY":" ","HOUSE_NO":"２１號八樓","E_COORD97":170653.98999999999,"N_COORD97":2541424.1299999999,"ADDRESS":"崇道路２１號八樓","OBJECTID":484557},"geometry":{"x":170653.99000000022,"y":2541424.129999999}},{"attributes":{"ID":484583,"DIS_CODE":0,"TOWNNAME":"東區","LI":"崇德里","LIN":"25鄰","STREET":"崇道路","SECT":" ","MAREA":" ","LANE":" ","ALLEY":" ","HOUSE_NO":"２１號八樓之１","E_COORD97":170653.98999999999,"N_COORD97":2541424.1299999999,"ADDRESS":"崇道路２１號八樓之１","OBJECTID":484558},"geometry":{"x":170653.99000000022,"y":2541424.129999999}},{"attributes":{"ID":484584,"DIS_CODE":0,"TOWNNAME":"東區","LI":"崇德里","LIN":"25鄰","STREET":"崇道路","SECT":" ","MAREA":" ","LANE":" ","ALLEY":" ","HOUSE_NO":"２１號八樓之２","E_COORD97":170653.98999999999,"N_COORD97":2541424.1299999999,"ADDRESS":"崇道路２１號八樓之２","OBJECTID":484559},"geometry":{"x":170653.99000000022,"y":2541424.129999999}},{"attributes":{"ID":484585,"DIS_CODE":0,"TOWNNAME":"東區","LI":"崇德里","LIN":"25鄰","STREET":"崇道路","SECT":" ","MAREA":" ","LANE":" ","ALLEY":" ","HOUSE_NO":"２１號九樓","E_COORD97":170653.98999999999,"N_COORD97":2541424.1299999999,"ADDRESS":"崇道路２１號九樓","OBJECTID":484560},"geometry":{"x":170653.99000000022,"y":2541424.129999999}},{"attributes":{"ID":484586,"DIS_CODE":0,"TOWNNAME":"東區","LI":"崇德里","LIN":"25鄰","STREET":"崇道路","SECT":" ","MAREA":" ","LANE":" ","ALLEY":" ","HOUSE_NO":"２１號九樓之１","E_COORD97":170653.98999999999,"N_COORD97":2541424.1299999999,"ADDRESS":"崇道路２１號九樓之１","OBJECTID":484561},"geometry":{"x":170653.99000000022,"y":2541424.129999999}},{"attributes":{"ID":484587,"DIS_CODE":0,"TOWNNAME":"東區","LI":"崇德里","LIN":"25鄰","STREET":"崇道路","SECT":" ","MAREA":" ","LANE":" ","ALLEY":" ","HOUSE_NO":"２１號九樓之２","E_COORD97":170653.98999999999,"N_COORD97":2541424.1299999999,"ADDRESS":"崇道路２１號九樓之２","OBJECTID":484562},"geometry":{"x":170653.99000000022,"y":2541424.129999999}},{"attributes":{"ID":484588,"DIS_CODE":0,"TOWNNAME":"東區","LI":"衛國里","LIN":"25鄰","STREET":"林森路","SECT":"二段","MAREA":" ","LANE":" ","ALLEY":" ","HOUSE_NO":"９０號七樓","E_COORD97":170384.75,"N_COORD97":2543098.96,"ADDRESS":"林森路二段９０號七樓","OBJECTID":484563},"geometry":{"x":170384.74999999907,"y":2543098.9600000009}},{"attributes":{"ID":484589,"DIS_CODE":0,"TOWNNAME":"東區","LI":"衛國里","LIN":"25鄰","STREET":"林森路","SECT":"二段","MAREA":" ","LANE":" ","ALLEY":" ","HOUSE_NO":"９０號七樓之１","E_COORD97":170384.75,"N_COORD97":2543098.96,"ADDRESS":"林森路二段９０號七樓之１","OBJECTID":484564},"geometry":{"x":170384.74999999907,"y":2543098.9600000009}},{"attributes":{"ID":484590,"DIS_CODE":0,"TOWNNAME":"東區","LI":"衛國里","LIN":"25鄰","STREET":"林森路","SECT":"二段","MAREA":" ","LANE":" ","ALLEY":" ","HOUSE_NO":"９０號七樓之２","E_COORD97":170384.75,"N_COORD97":2543098.96,"ADDRESS":"林森路二段９０號七樓之２","OBJECTID":484565},"geometry":{"x":170384.74999999907,"y":2543098.9600000009}},{"attributes":{"ID":484591,"DIS_CODE":0,"TOWNNAME":"東區","LI":"衛國里","LIN":"25鄰","STREET":"林森路","SECT":"二段","MAREA":" ","LANE":" ","ALLEY":" ","HOUSE_NO":"９０號七樓之３","E_COORD97":170384.75,"N_COORD97":2543098.96,"ADDRESS":"林森路二段９０號七樓之３","OBJECTID":484566},"geometry":{"x":170384.74999999907,"y":2543098.9600000009}},{"attributes":{"ID":484592,"DIS_CODE":0,"TOWNNAME":"東區","LI":"衛國里","LIN":"25鄰","STREET":"林森路","SECT":"二段","MAREA":" ","LANE":" ","ALLEY":" ","HOUSE_NO":"９０號七樓之４","E_COORD97":170384.75,"N_COORD97":2543098.96,"ADDRESS":"林森路二段９０號七樓之４","OBJECTID":484567},"geometry":{"x":170384.74999999907,"y":2543098.9600000009}},{"attributes":{"ID":484593,"DIS_CODE":0,"TOWNNAME":"東區","LI":"衛國里","LIN":"25鄰","STREET":"林森路","SECT":"二段","MAREA":" ","LANE":" ","ALLEY":" ","HOUSE_NO":"９０號七樓之５","E_COORD97":170384.75,"N_COORD97":2543098.96,"ADDRESS":"林森路二段９０號七樓之５","OBJECTID":484568},"geometry":{"x":170384.74999999907,"y":2543098.9600000009}},{"attributes":{"ID":484594,"DIS_CODE":0,"TOWNNAME":"東區","LI":"衛國里","LIN":"25鄰","STREET":"林森路","SECT":"二段","MAREA":" ","LANE":" ","ALLEY":" ","HOUSE_NO":"９０號七樓之６","E_COORD97":170384.75,"N_COORD97":2543098.96,"ADDRESS":"林森路二段９０號七樓之６","OBJECTID":484569},"geometry":{"x":170384.74999999907,"y":2543098.9600000009}},{"attributes":{"ID":484595,"DIS_CODE":0,"TOWNNAME":"東區","LI":"衛國里","LIN":"25鄰","STREET":"林森路","SECT":"二段","MAREA":" ","LANE":" ","ALLEY":" ","HOUSE_NO":"９０號七樓之７","E_COORD97":170384.75,"N_COORD97":2543098.96,"ADDRESS":"林森路二段９０號七樓之７","OBJECTID":484570},"geometry":{"x":170384.74999999907,"y":2543098.9600000009}},{"attributes":{"ID":484596,"DIS_CODE":0,"TOWNNAME":"東區","LI":"衛國里","LIN":"25鄰","STREET":"林森路","SECT":"二段","MAREA":" ","LANE":" ","ALLEY":" ","HOUSE_NO":"９０號九樓","E_COORD97":170384.75,"N_COORD97":2543098.96,"ADDRESS":"林森路二段９０號九樓","OBJECTID":484571},"geometry":{"x":170384.74999999907,"y":2543098.9600000009}},{"attributes":{"ID":484597,"DIS_CODE":0,"TOWNNAME":"東區","LI":"衛國里","LIN":"25鄰","STREET":"林森路","SECT":"二段","MAREA":" ","LANE":" ","ALLEY":" ","HOUSE_NO":"９０號九樓之１","E_COORD97":170384.75,"N_COORD97":2543098.96,"ADDRESS":"林森路二段９０號九樓之１","OBJECTID":484572},"geometry":{"x":170384.74999999907,"y":2543098.9600000009}},{"attributes":{"ID":484598,"DIS_CODE":0,"TOWNNAME":"東區","LI":"衛國里","LIN":"25鄰","STREET":"林森路","SECT":"二段","MAREA":" ","LANE":" ","ALLEY":" ","HOUSE_NO":"９０號九樓之２","E_COORD97":170384.75,"N_COORD97":2543098.96,"ADDRESS":"林森路二段９０號九樓之２","OBJECTID":484573},"geometry":{"x":170384.74999999907,"y":2543098.9600000009}},{"attributes":{"ID":484599,"DIS_CODE":0,"TOWNNAME":"東區","LI":"衛國里","LIN":"25鄰","STREET":"林森路","SECT":"二段","MAREA":" ","LANE":" ","ALLEY":" ","HOUSE_NO":"９０號九樓之３","E_COORD97":170384.75,"N_COORD97":2543098.96,"ADDRESS":"林森路二段９０號九樓之３","OBJECTID":484574},"geometry":{"x":170384.74999999907,"y":2543098.9600000009}},{"attributes":{"ID":484600,"DIS_CODE":0,"TOWNNAME":"東區","LI":"衛國里","LIN":"25鄰","STREET":"林森路","SECT":"二段","MAREA":" ","LANE":" ","ALLEY":" ","HOUSE_NO":"９０號九樓之４","E_COORD97":170384.75,"N_COORD97":2543098.96,"ADDRESS":"林森路二段９０號九樓之４","OBJECTID":484575},"geometry":{"x":170384.74999999907,"y":2543098.9600000009}},{"attributes":{"ID":484601,"DIS_CODE":0,"TOWNNAME":"東區","LI":"衛國里","LIN":"25鄰","STREET":"林森路","SECT":"二段","MAREA":" ","LANE":" ","ALLEY":" ","HOUSE_NO":"９０號九樓之５","E_COORD97":170384.75,"N_COORD97":2543098.96,"ADDRESS":"林森路二段９０號九樓之５","OBJECTID":484576},"geometry":{"x":170384.74999999907,"y":2543098.9600000009}},{"attributes":{"ID":484602,"DIS_CODE":0,"TOWNNAME":"東區","LI":"衛國里","LIN":"25鄰","STREET":"林森路","SECT":"二段","MAREA":" ","LANE":" ","ALLEY":" ","HOUSE_NO":"９０號九樓之６","E_COORD97":170384.75,"N_COORD97":2543098.96,"ADDRESS":"林森路二段９０號九樓之６","OBJECTID":484577},"geometry":{"x":170384.74999999907,"y":2543098.9600000009}},{"attributes":{"ID":484603,"DIS_CODE":0,"TOWNNAME":"東區","LI":"衛國里","LIN":"25鄰","STREET":"林森路","SECT":"二段","MAREA":" ","LANE":" ","ALLEY":" ","HOUSE_NO":"９０號九樓之７","E_COORD97":170384.75,"N_COORD97":2543098.96,"ADDRESS":"林森路二段９０號九樓之７","OBJECTID":484578},"geometry":{"x":170384.74999999907,"y":2543098.9600000009}},{"attributes":{"ID":484604,"DIS_CODE":0,"TOWNNAME":"東區","LI":"衛國里","LIN":"25鄰","STREET":"林森路","SECT":"二段","MAREA":" ","LANE":" ","ALLEY":" ","HOUSE_NO":"９０號八樓","E_COORD97":170384.75,"N_COORD97":2543098.96,"ADDRESS":"林森路二段９０號八樓","OBJECTID":484579},"geometry":{"x":170384.74999999907,"y":2543098.9600000009}},{"attributes":{"ID":484605,"DIS_CODE":0,"TOWNNAME":"東區","LI":"衛國里","LIN":"25鄰","STREET":"林森路","SECT":"二段","MAREA":" ","LANE":" ","ALLEY":" ","HOUSE_NO":"９０號八樓之１","E_COORD97":170384.75,"N_COORD97":2543098.96,"ADDRESS":"林森路二段９０號八樓之１","OBJECTID":484580},"geometry":{"x":170384.74999999907,"y":2543098.9600000009}},{"attributes":{"ID":484606,"DIS_CODE":0,"TOWNNAME":"東區","LI":"衛國里","LIN":"25鄰","STREET":"林森路","SECT":"二段","MAREA":" ","LANE":" ","ALLEY":" ","HOUSE_NO":"９０號八樓之２","E_COORD97":170384.75,"N_COORD97":2543098.96,"ADDRESS":"林森路二段９０號八樓之２","OBJECTID":484581},"geometry":{"x":170384.74999999907,"y":2543098.9600000009}},{"attributes":{"ID":484607,"DIS_CODE":0,"TOWNNAME":"東區","LI":"衛國里","LIN":"25鄰","STREET":"林森路","SECT":"二段","MAREA":" ","LANE":" ","ALLEY":" ","HOUSE_NO":"９０號八樓之３","E_COORD97":170384.75,"N_COORD97":2543098.96,"ADDRESS":"林森路二段９０號八樓之３","OBJECTID":484582},"geometry":{"x":170384.74999999907,"y":2543098.9600000009}},{"attributes":{"ID":484608,"DIS_CODE":0,"TOWNNAME":"東區","LI":"衛國里","LIN":"25鄰","STREET":"林森路","SECT":"二段","MAREA":" ","LANE":" ","ALLEY":" ","HOUSE_NO":"９０號八樓之４","E_COORD97":170384.75,"N_COORD97":2543098.96,"ADDRESS":"林森路二段９０號八樓之４","OBJECTID":484583},"geometry":{"x":170384.74999999907,"y":2543098.9600000009}},{"attributes":{"ID":484609,"DIS_CODE":0,"TOWNNAME":"東區","LI":"衛國里","LIN":"25鄰","STREET":"林森路","SECT":"二段","MAREA":" ","LANE":" ","ALLEY":" ","HOUSE_NO":"９０號八樓之５","E_COORD97":170384.75,"N_COORD97":2543098.96,"ADDRESS":"林森路二段９０號八樓之５","OBJECTID":484584},"geometry":{"x":170384.74999999907,"y":2543098.9600000009}},{"attributes":{"ID":484610,"DIS_CODE":0,"TOWNNAME":"東區","LI":"衛國里","LIN":"25鄰","STREET":"林森路","SECT":"二段","MAREA":" ","LANE":" ","ALLEY":" ","HOUSE_NO":"９０號八樓之６","E_COORD97":170384.75,"N_COORD97":2543098.96,"ADDRESS":"林森路二段９０號八樓之６","OBJECTID":484585},"geometry":{"x":170384.74999999907,"y":2543098.9600000009}},{"attributes":{"ID":484611,"DIS_CODE":0,"TOWNNAME":"東區","LI":"衛國里","LIN":"25鄰","STREET":"林森路","SECT":"二段","MAREA":" ","LANE":" ","ALLEY":" ","HOUSE_NO":"９０號八樓之７","E_COORD97":170384.75,"N_COORD97":2543098.96,"ADDRESS":"林森路二段９０號八樓之７","OBJECTID":484586},"geometry":{"x":170384.74999999907,"y":2543098.9600000009}},{"attributes":{"ID":484612,"DIS_CODE":0,"TOWNNAME":"東區","LI":"衛國里","LIN":"25鄰","STREET":"林森路","SECT":"二段","MAREA":" ","LANE":" ","ALLEY":" ","HOUSE_NO":"９０號十一樓","E_COORD97":170384.75,"N_COORD97":2543098.96,"ADDRESS":"林森路二段９０號十一樓","OBJECTID":484587},"geometry":{"x":170384.74999999907,"y":2543098.9600000009}},{"attributes":{"ID":484613,"DIS_CODE":0,"TOWNNAME":"東區","LI":"仁和里","LIN":"25鄰","STREET":"利東街","SECT":" ","MAREA":" ","LANE":" ","ALLEY":" ","HOUSE_NO":"３３號三樓","E_COORD97":171666.67000000001,"N_COORD97":2541143.0299999998,"ADDRESS":"利東街３３號三樓","OBJECTID":484588},"geometry":{"x":171666.66999999993,"y":2541143.0300000012}},{"attributes":{"ID":484614,"DIS_CODE":0,"TOWNNAME":"東區","LI":"衛國里","LIN":"25鄰","STREET":"林森路","SECT":"二段","MAREA":" ","LANE":" ","ALLEY":" ","HOUSE_NO":"９０號十一樓之１","E_COORD97":170384.75,"N_COORD97":2543098.96,"ADDRESS":"林森路二段９０號十一樓之１","OBJECTID":484589},"geometry":{"x":170384.74999999907,"y":2543098.9600000009}},{"attributes":{"ID":484615,"DIS_CODE":0,"TOWNNAME":"東區","LI":"衛國里","LIN":"25鄰","STREET":"林森路","SECT":"二段","MAREA":" ","LANE":" ","ALLEY":" ","HOUSE_NO":"９０號十一樓之２","E_COORD97":170384.75,"N_COORD97":2543098.96,"ADDRESS":"林森路二段９０號十一樓之２","OBJECTID":484590},"geometry":{"x":170384.74999999907,"y":2543098.9600000009}},{"attributes":{"ID":484616,"DIS_CODE":0,"TOWNNAME":"東區","LI":"衛國里","LIN":"25鄰","STREET":"林森路","SECT":"二段","MAREA":" ","LANE":" ","ALLEY":" ","HOUSE_NO":"９０號十一樓之３","E_COORD97":170384.75,"N_COORD97":2543098.96,"ADDRESS":"林森路二段９０號十一樓之３","OBJECTID":484591},"geometry":{"x":170384.74999999907,"y":2543098.9600000009}},{"attributes":{"ID":484617,"DIS_CODE":0,"TOWNNAME":"東區","LI":"衛國里","LIN":"25鄰","STREET":"林森路","SECT":"二段","MAREA":" ","LANE":" ","ALLEY":" ","HOUSE_NO":"９０號十一樓之４","E_COORD97":170384.75,"N_COORD97":2543098.96,"ADDRESS":"林森路二段９０號十一樓之４","OBJECTID":484592},"geometry":{"x":170384.74999999907,"y":2543098.9600000009}},{"attributes":{"ID":484618,"DIS_CODE":0,"TOWNNAME":"東區","LI":"衛國里","LIN":"25鄰","STREET":"林森路","SECT":"二段","MAREA":" ","LANE":" ","ALLEY":" ","HOUSE_NO":"９０號十一樓之５","E_COORD97":170384.75,"N_COORD97":2543098.96,"ADDRESS":"林森路二段９０號十一樓之５","OBJECTID":484593},"geometry":{"x":170384.74999999907,"y":2543098.9600000009}},{"attributes":{"ID":484619,"DIS_CODE":0,"TOWNNAME":"東區","LI":"衛國里","LIN":"25鄰","STREET":"林森路","SECT":"二段","MAREA":" ","LANE":" ","ALLEY":" ","HOUSE_NO":"９０號十一樓之６","E_COORD97":170384.75,"N_COORD97":2543098.96,"ADDRESS":"林森路二段９０號十一樓之６","OBJECTID":484594},"geometry":{"x":170384.74999999907,"y":2543098.9600000009}},{"attributes":{"ID":484620,"DIS_CODE":0,"TOWNNAME":"東區","LI":"衛國里","LIN":"25鄰","STREET":"林森路","SECT":"二段","MAREA":" ","LANE":" ","ALLEY":" ","HOUSE_NO":"９０號十一樓之７","E_COORD97":170384.75,"N_COORD97":2543098.96,"ADDRESS":"林森路二段９０號十一樓之７","OBJECTID":484595},"geometry":{"x":170384.74999999907,"y":2543098.9600000009}},{"attributes":{"ID":484621,"DIS_CODE":0,"TOWNNAME":"東區","LI":"衛國里","LIN":"25鄰","STREET":"林森路","SECT":"二段","MAREA":" ","LANE":" ","ALLEY":" ","HOUSE_NO":"９０號十二樓","E_COORD97":170384.75,"N_COORD97":2543098.96,"ADDRESS":"林森路二段９０號十二樓","OBJECTID":484596},"geometry":{"x":170384.74999999907,"y":2543098.9600000009}},{"attributes":{"ID":484622,"DIS_CODE":0,"TOWNNAME":"東區","LI":"衛國里","LIN":"25鄰","STREET":"林森路","SECT":"二段","MAREA":" ","LANE":" ","ALLEY":" ","HOUSE_NO":"９０號十二樓之１","E_COORD97":170384.75,"N_COORD97":2543098.96,"ADDRESS":"林森路二段９０號十二樓之１","OBJECTID":484597},"geometry":{"x":170384.74999999907,"y":2543098.9600000009}},{"attributes":{"ID":484623,"DIS_CODE":0,"TOWNNAME":"東區","LI":"衛國里","LIN":"25鄰","STREET":"林森路","SECT":"二段","MAREA":" ","LANE":" ","ALLEY":" ","HOUSE_NO":"９０號十二樓之２","E_COORD97":170384.75,"N_COORD97":2543098.96,"ADDRESS":"林森路二段９０號十二樓之２","OBJECTID":484598},"geometry":{"x":170384.74999999907,"y":2543098.9600000009}},{"attributes":{"ID":484624,"DIS_CODE":0,"TOWNNAME":"東區","LI":"衛國里","LIN":"25鄰","STREET":"林森路","SECT":"二段","MAREA":" ","LANE":" ","ALLEY":" ","HOUSE_NO":"９０號十二樓之３","E_COORD97":170384.75,"N_COORD97":2543098.96,"ADDRESS":"林森路二段９０號十二樓之３","OBJECTID":484599},"geometry":{"x":170384.74999999907,"y":2543098.9600000009}},{"attributes":{"ID":484625,"DIS_CODE":0,"TOWNNAME":"東區","LI":"衛國里","LIN":"25鄰","STREET":"林森路","SECT":"二段","MAREA":" ","LANE":" ","ALLEY":" ","HOUSE_NO":"９０號十二樓之４","E_COORD97":170384.75,"N_COORD97":2543098.96,"ADDRESS":"林森路二段９０號十二樓之４","OBJECTID":484600},"geometry":{"x":170384.74999999907,"y":2543098.9600000009}}]}