{"displayFieldName":"TOWNNAME","fieldAliases":{"ID":"ID","DIS_CODE":"DIS_CODE","TOWNNAME":"TOWNNAME","LI":"LI","LIN":"LIN","STREET":"STREET","SECT":"SECT","MAREA":"MAREA","LANE":"LANE","ALLEY":"ALLEY","HOUSE_NO":"HOUSE_NO","E_COORD97":"E_COORD97","N_COORD97":"N_COORD97","ADDRESS":"ADDRESS","OBJECTID":"OBJECTID"},"geometryType":"esriGeometryPoint","spatialReference":{"wkid":102443,"latestWkid":3826},"fields":[{"name":"ID","type":"esriFieldTypeDouble","alias":"ID"},{"name":"DIS_CODE","type":"esriFieldTypeInteger","alias":"DIS_CODE"},{"name":"TOWNNAME","type":"esriFieldTypeString","alias":"TOWNNAME","length":8},{"name":"LI","type":"esriFieldTypeString","alias":"LI","length":8},{"name":"LIN","type":"esriFieldTypeString","alias":"LIN","length":12},{"name":"STREET","type":"esriFieldTypeString","alias":"STREET","length":20},{"name":"SECT","type":"esriFieldTypeString","alias":"SECT","length":8},{"name":"MAREA","type":"esriFieldTypeString","alias":"MAREA","length":12},{"name":"LANE","type":"esriFieldTypeString","alias":"LANE","length":10},{"name":"ALLEY","type":"esriFieldTypeString","alias":"ALLEY","length":10},{"name":"HOUSE_NO","type":"esriFieldTypeString","alias":"HOUSE_NO","length":20},{"name":"E_COORD97","type":"esriFieldTypeDouble","alias":"E_COORD97"},{"name":"N_COORD97","type":"esriFieldTypeDouble","alias":"N_COORD97"},{"name":"ADDRESS","type":"esriFieldTypeString","alias":"ADDRESS","length":50},{"name":"OBJECTID","type":"esriFieldTypeOID","alias":"OBJECTID"}],"features":[{"attributes":{"ID":301809,"DIS_CODE":0,"TOWNNAME":"新營區","LI":"大宏里","LIN":"13鄰","STREET":"文昌街","SECT":" ","MAREA":" ","LANE":" ","ALLEY":" ","HOUSE_NO":"５６號","E_COORD97":180242.64094000001,"N_COORD97":2578301.32302,"ADDRESS":"文昌街５６號","OBJECTID":301801},"geometry":{"x":180242.64094000217,"y":2578301.3230210003}},{"attributes":{"ID":301810,"DIS_CODE":0,"TOWNNAME":"新營區","LI":"大宏里","LIN":"13鄰","STREET":"文昌街","SECT":" ","MAREA":" ","LANE":" ","ALLEY":" ","HOUSE_NO":"５８號之２","E_COORD97":180235.53820000001,"N_COORD97":2578338.9467500001,"ADDRESS":"文昌街５８號之２","OBJECTID":301802},"geometry":{"x":180235.53820000123,"y":2578338.946750002}},{"attributes":{"ID":301811,"DIS_CODE":0,"TOWNNAME":"北門區","LI":"三光里","LIN":"4鄰","STREET":" ","SECT":" ","MAREA":"三寮灣","LANE":" ","ALLEY":" ","HOUSE_NO":"１１０之３號","E_COORD97":158706.14000000001,"N_COORD97":2570856.04,"ADDRESS":"三寮灣１１０之３號","OBJECTID":301803},"geometry":{"x":158706.1400000006,"y":2570856.040000001}},{"attributes":{"ID":301812,"DIS_CODE":0,"TOWNNAME":"新營區","LI":"大宏里","LIN":"13鄰","STREET":"文昌街","SECT":" ","MAREA":" ","LANE":" ","ALLEY":" ","HOUSE_NO":"５８號之７","E_COORD97":180234.26607000001,"N_COORD97":2578362.23007,"ADDRESS":"文昌街５８號之７","OBJECTID":301804},"geometry":{"x":180234.2660699999,"y":2578362.2300700024}},{"attributes":{"ID":301813,"DIS_CODE":0,"TOWNNAME":"新營區","LI":"大宏里","LIN":"15鄰","STREET":"綠川北街","SECT":" ","MAREA":" ","LANE":" ","ALLEY":" ","HOUSE_NO":"３３號","E_COORD97":180664.24669299999,"N_COORD97":2578756.4061099999,"ADDRESS":"綠川北街３３號","OBJECTID":301805},"geometry":{"x":180664.24669300113,"y":2578756.4061090034}},{"attributes":{"ID":301814,"DIS_CODE":0,"TOWNNAME":"新營區","LI":"大宏里","LIN":"15鄰","STREET":"綠川北街","SECT":" ","MAREA":" ","LANE":" ","ALLEY":" ","HOUSE_NO":"３６號","E_COORD97":180655.235758,"N_COORD97":2578751.4848600002,"ADDRESS":"綠川北街３６號","OBJECTID":301806},"geometry":{"x":180655.23575800098,"y":2578751.4848610032}},{"attributes":{"ID":301815,"DIS_CODE":0,"TOWNNAME":"新營區","LI":"大宏里","LIN":"15鄰","STREET":"綠川北街","SECT":" ","MAREA":" ","LANE":" ","ALLEY":" ","HOUSE_NO":"３８號","E_COORD97":180647.17892199999,"N_COORD97":2578745.5581999999,"ADDRESS":"綠川北街３８號","OBJECTID":301807},"geometry":{"x":180647.17892200127,"y":2578745.5581980012}},{"attributes":{"ID":301816,"DIS_CODE":0,"TOWNNAME":"新營區","LI":"大宏里","LIN":"15鄰","STREET":"綠川北街","SECT":" ","MAREA":" ","LANE":" ","ALLEY":" ","HOUSE_NO":"４３號","E_COORD97":180637.42590999999,"N_COORD97":2578745.5581999999,"ADDRESS":"綠川北街４３號","OBJECTID":301808},"geometry":{"x":180637.42591000069,"y":2578745.5581980012}},{"attributes":{"ID":301817,"DIS_CODE":0,"TOWNNAME":"新營區","LI":"大宏里","LIN":"15鄰","STREET":"綠川北街","SECT":" ","MAREA":" ","LANE":" ","ALLEY":" ","HOUSE_NO":"４５號","E_COORD97":180633.079459,"N_COORD97":2578744.0765300002,"ADDRESS":"綠川北街４５號","OBJECTID":301809},"geometry":{"x":180633.07945899945,"y":2578744.0765320007}},{"attributes":{"ID":301818,"DIS_CODE":0,"TOWNNAME":"南區","LI":"新生里","LIN":"8鄰","STREET":"大同路","SECT":"二段","MAREA":" ","LANE":"１６４巷","ALLEY":" ","HOUSE_NO":"９號一樓之１","E_COORD97":169247,"N_COORD97":2542003.5099999998,"ADDRESS":"大同路二段１６４巷９號一樓之１","OBJECTID":301810},"geometry":{"x":169247,"y":2542003.5100000035}},{"attributes":{"ID":301819,"DIS_CODE":0,"TOWNNAME":"南區","LI":"新生里","LIN":"8鄰","STREET":"大同路","SECT":"二段","MAREA":" ","LANE":"１６４巷","ALLEY":" ","HOUSE_NO":"９號一樓之２","E_COORD97":169247,"N_COORD97":2542003.5099999998,"ADDRESS":"大同路二段１６４巷９號一樓之２","OBJECTID":301811},"geometry":{"x":169247,"y":2542003.5100000035}},{"attributes":{"ID":301820,"DIS_CODE":0,"TOWNNAME":"南區","LI":"新生里","LIN":"8鄰","STREET":"大同路","SECT":"二段","MAREA":" ","LANE":"１６４巷","ALLEY":" ","HOUSE_NO":"９號一樓之３","E_COORD97":169247,"N_COORD97":2542003.5099999998,"ADDRESS":"大同路二段１６４巷９號一樓之３","OBJECTID":301812},"geometry":{"x":169247,"y":2542003.5100000035}},{"attributes":{"ID":301821,"DIS_CODE":0,"TOWNNAME":"南區","LI":"新生里","LIN":"8鄰","STREET":"大同路","SECT":"二段","MAREA":" ","LANE":"１６４巷","ALLEY":" ","HOUSE_NO":"９號一樓之５","E_COORD97":169247,"N_COORD97":2542003.5099999998,"ADDRESS":"大同路二段１６４巷９號一樓之５","OBJECTID":301813},"geometry":{"x":169247,"y":2542003.5100000035}},{"attributes":{"ID":301822,"DIS_CODE":0,"TOWNNAME":"南區","LI":"新生里","LIN":"8鄰","STREET":"大同路","SECT":"二段","MAREA":" ","LANE":"１６４巷","ALLEY":" ","HOUSE_NO":"９號九樓之１","E_COORD97":169247,"N_COORD97":2542003.5099999998,"ADDRESS":"大同路二段１６４巷９號九樓之１","OBJECTID":301814},"geometry":{"x":169247,"y":2542003.5100000035}},{"attributes":{"ID":301823,"DIS_CODE":0,"TOWNNAME":"南區","LI":"新生里","LIN":"8鄰","STREET":"大同路","SECT":"二段","MAREA":" ","LANE":"１６４巷","ALLEY":" ","HOUSE_NO":"９號九樓之２","E_COORD97":169247,"N_COORD97":2542003.5099999998,"ADDRESS":"大同路二段１６４巷９號九樓之２","OBJECTID":301815},"geometry":{"x":169247,"y":2542003.5100000035}},{"attributes":{"ID":301824,"DIS_CODE":0,"TOWNNAME":"南區","LI":"新生里","LIN":"8鄰","STREET":"大同路","SECT":"二段","MAREA":" ","LANE":"１６４巷","ALLEY":" ","HOUSE_NO":"９號九樓之３","E_COORD97":169247,"N_COORD97":2542003.5099999998,"ADDRESS":"大同路二段１６４巷９號九樓之３","OBJECTID":301816},"geometry":{"x":169247,"y":2542003.5100000035}},{"attributes":{"ID":301825,"DIS_CODE":0,"TOWNNAME":"南區","LI":"新生里","LIN":"8鄰","STREET":"大同路","SECT":"二段","MAREA":" ","LANE":"１６４巷","ALLEY":" ","HOUSE_NO":"９號九樓之５","E_COORD97":169247,"N_COORD97":2542003.5099999998,"ADDRESS":"大同路二段１６４巷９號九樓之５","OBJECTID":301817},"geometry":{"x":169247,"y":2542003.5100000035}},{"attributes":{"ID":301826,"DIS_CODE":0,"TOWNNAME":"南區","LI":"新生里","LIN":"8鄰","STREET":"大同路","SECT":"二段","MAREA":" ","LANE":"１６４巷","ALLEY":" ","HOUSE_NO":"９號四樓之１","E_COORD97":169247,"N_COORD97":2542003.5099999998,"ADDRESS":"大同路二段１６４巷９號四樓之１","OBJECTID":301818},"geometry":{"x":169247,"y":2542003.5100000035}},{"attributes":{"ID":301827,"DIS_CODE":0,"TOWNNAME":"南區","LI":"新生里","LIN":"8鄰","STREET":"大同路","SECT":"二段","MAREA":" ","LANE":"１６４巷","ALLEY":" ","HOUSE_NO":"９號四樓之２","E_COORD97":169247,"N_COORD97":2542003.5099999998,"ADDRESS":"大同路二段１６４巷９號四樓之２","OBJECTID":301819},"geometry":{"x":169247,"y":2542003.5100000035}},{"attributes":{"ID":301828,"DIS_CODE":0,"TOWNNAME":"仁德區","LI":"仁愛里","LIN":"30鄰","STREET":"亞航街","SECT":" ","MAREA":" ","LANE":"１９８巷","ALLEY":" ","HOUSE_NO":"３號","E_COORD97":170043.152,"N_COORD97":2539104.1179999998,"ADDRESS":"亞航街１９８巷３號","OBJECTID":301820},"geometry":{"x":170043.1520000007,"y":2539104.1180000026}},{"attributes":{"ID":301829,"DIS_CODE":0,"TOWNNAME":"仁德區","LI":"仁愛里","LIN":"30鄰","STREET":"亞航街","SECT":" ","MAREA":" ","LANE":"１９８巷","ALLEY":" ","HOUSE_NO":"２９號","E_COORD97":170056.21599999999,"N_COORD97":2539056.5600000001,"ADDRESS":"亞航街１９８巷２９號","OBJECTID":301821},"geometry":{"x":170056.21600000001,"y":2539056.5600000005}},{"attributes":{"ID":301830,"DIS_CODE":0,"TOWNNAME":"仁德區","LI":"仁愛里","LIN":"30鄰","STREET":"亞航街","SECT":" ","MAREA":" ","LANE":"１９８巷","ALLEY":" ","HOUSE_NO":"３３號","E_COORD97":170058.19200000001,"N_COORD97":2539049.2429999998,"ADDRESS":"亞航街１９８巷３３號","OBJECTID":301822},"geometry":{"x":170058.19200000074,"y":2539049.2430000007}},{"attributes":{"ID":301831,"DIS_CODE":0,"TOWNNAME":"南區","LI":"府南里","LIN":"20鄰","STREET":"永成路","SECT":"三段","MAREA":" ","LANE":"４６１巷","ALLEY":" ","HOUSE_NO":"１８號","E_COORD97":167420.29533299999,"N_COORD97":2541511.8267299999,"ADDRESS":"永成路三段４６１巷１８號","OBJECTID":301823},"geometry":{"x":167420.2953329999,"y":2541511.8267250024}},{"attributes":{"ID":301832,"DIS_CODE":0,"TOWNNAME":"仁德區","LI":"仁愛里","LIN":"30鄰","STREET":"亞航街","SECT":" ","MAREA":" ","LANE":"１９８巷","ALLEY":" ","HOUSE_NO":"３１號","E_COORD97":170057.204,"N_COORD97":2539052.9079999998,"ADDRESS":"亞航街１９８巷３１號","OBJECTID":301824},"geometry":{"x":170057.20400000177,"y":2539052.9080000035}},{"attributes":{"ID":301833,"DIS_CODE":0,"TOWNNAME":"南區","LI":"府南里","LIN":"20鄰","STREET":"永成路","SECT":"三段","MAREA":" ","LANE":"４６１巷","ALLEY":" ","HOUSE_NO":"２０號","E_COORD97":167415.84807800001,"N_COORD97":2541515.9542200002,"ADDRESS":"永成路三段４６１巷２０號","OBJECTID":301825},"geometry":{"x":167415.84807800036,"y":2541515.9542229995}},{"attributes":{"ID":301834,"DIS_CODE":0,"TOWNNAME":"仁德區","LI":"仁愛里","LIN":"30鄰","STREET":"亞航街","SECT":" ","MAREA":" ","LANE":"１９８巷","ALLEY":" ","HOUSE_NO":"２１號","E_COORD97":170052.264,"N_COORD97":2539071.2239999999,"ADDRESS":"亞航街１９８巷２１號","OBJECTID":301826},"geometry":{"x":170052.26400000229,"y":2539071.2239999995}},{"attributes":{"ID":301835,"DIS_CODE":0,"TOWNNAME":"南區","LI":"府南里","LIN":"20鄰","STREET":"永成路","SECT":"三段","MAREA":" ","LANE":"４６１巷","ALLEY":" ","HOUSE_NO":"２３號","E_COORD97":167413.095015,"N_COORD97":2541509.7987000002,"ADDRESS":"永成路三段４６１巷２３號","OBJECTID":301827},"geometry":{"x":167413.09501500055,"y":2541509.7986980006}},{"attributes":{"ID":301836,"DIS_CODE":0,"TOWNNAME":"南區","LI":"府南里","LIN":"27鄰","STREET":"永成路","SECT":"三段","MAREA":" ","LANE":" ","ALLEY":" ","HOUSE_NO":"４６５號","E_COORD97":167486.15706600001,"N_COORD97":2541519.0763099999,"ADDRESS":"永成路三段４６５號","OBJECTID":301828},"geometry":{"x":167486.15706599969,"y":2541519.0763050001}},{"attributes":{"ID":301837,"DIS_CODE":0,"TOWNNAME":"南區","LI":"府南里","LIN":"11鄰","STREET":"永成路","SECT":"三段","MAREA":" ","LANE":" ","ALLEY":" ","HOUSE_NO":"６１６號","E_COORD97":167510.08753399999,"N_COORD97":2541594.6412599999,"ADDRESS":"永成路三段６１６號","OBJECTID":301829},"geometry":{"x":167510.0875340011,"y":2541594.6412640009}},{"attributes":{"ID":301838,"DIS_CODE":0,"TOWNNAME":"南區","LI":"府南里","LIN":"11鄰","STREET":"永成路","SECT":"三段","MAREA":" ","LANE":" ","ALLEY":" ","HOUSE_NO":"６１２號","E_COORD97":167510.29930799999,"N_COORD97":2541589.77293,"ADDRESS":"永成路三段６１２號","OBJECTID":301830},"geometry":{"x":167510.2993079992,"y":2541589.7729329988}},{"attributes":{"ID":301839,"DIS_CODE":0,"TOWNNAME":"關廟區","LI":"龜洞里","LIN":"7鄰","STREET":"南雄南路","SECT":" ","MAREA":" ","LANE":" ","ALLEY":" ","HOUSE_NO":"７３９號","E_COORD97":183262.90166199999,"N_COORD97":2533383.8692100001,"ADDRESS":"南雄南路７３９號","OBJECTID":301831},"geometry":{"x":183262.90166199952,"y":2533383.8692120016}},{"attributes":{"ID":301840,"DIS_CODE":0,"TOWNNAME":"南區","LI":"府南里","LIN":"27鄰","STREET":"永成路","SECT":"三段","MAREA":" ","LANE":" ","ALLEY":" ","HOUSE_NO":"４６３號","E_COORD97":167485.73351699999,"N_COORD97":2541515.2663099999,"ADDRESS":"永成路三段４６３號","OBJECTID":301832},"geometry":{"x":167485.73351700138,"y":2541515.2663070001}},{"attributes":{"ID":301841,"DIS_CODE":0,"TOWNNAME":"南區","LI":"府南里","LIN":"11鄰","STREET":"永成路","SECT":"三段","MAREA":" ","LANE":" ","ALLEY":" ","HOUSE_NO":"６１０號","E_COORD97":167510.51108200001,"N_COORD97":2541585.1162700001,"ADDRESS":"永成路三段６１０號","OBJECTID":301833},"geometry":{"x":167510.5110820001,"y":2541585.1162690017}},{"attributes":{"ID":301842,"DIS_CODE":0,"TOWNNAME":"南區","LI":"府南里","LIN":"11鄰","STREET":"永成路","SECT":"三段","MAREA":" ","LANE":" ","ALLEY":" ","HOUSE_NO":"６０８號","E_COORD97":167510.51108200001,"N_COORD97":2541580.4596099998,"ADDRESS":"永成路三段６０８號","OBJECTID":301834},"geometry":{"x":167510.5110820001,"y":2541580.4596050009}},{"attributes":{"ID":301843,"DIS_CODE":0,"TOWNNAME":"安南區","LI":"顯宮里","LIN":"3鄰","STREET":"北汕尾三路","SECT":" ","MAREA":" ","LANE":" ","ALLEY":" ","HOUSE_NO":"５７２號","E_COORD97":162225.19753899999,"N_COORD97":2551184.6502700001,"ADDRESS":"北汕尾三路５７２號","OBJECTID":301835},"geometry":{"x":162225.19753900077,"y":2551184.6502679996}},{"attributes":{"ID":301844,"DIS_CODE":0,"TOWNNAME":"南區","LI":"新生里","LIN":"8鄰","STREET":"大同路","SECT":"二段","MAREA":" ","LANE":"１６４巷","ALLEY":" ","HOUSE_NO":"９號四樓之３","E_COORD97":169247,"N_COORD97":2542003.5099999998,"ADDRESS":"大同路二段１６４巷９號四樓之３","OBJECTID":301836},"geometry":{"x":169247,"y":2542003.5100000035}},{"attributes":{"ID":301845,"DIS_CODE":0,"TOWNNAME":"南區","LI":"新生里","LIN":"8鄰","STREET":"大同路","SECT":"二段","MAREA":" ","LANE":"１６４巷","ALLEY":" ","HOUSE_NO":"９號四樓之５","E_COORD97":169247,"N_COORD97":2542003.5099999998,"ADDRESS":"大同路二段１６４巷９號四樓之５","OBJECTID":301837},"geometry":{"x":169247,"y":2542003.5100000035}},{"attributes":{"ID":301846,"DIS_CODE":0,"TOWNNAME":"南區","LI":"新生里","LIN":"8鄰","STREET":"大同路","SECT":"二段","MAREA":" ","LANE":"１６４巷","ALLEY":" ","HOUSE_NO":"９號十一樓之１","E_COORD97":169247,"N_COORD97":2542003.5099999998,"ADDRESS":"大同路二段１６４巷９號十一樓之１","OBJECTID":301838},"geometry":{"x":169247,"y":2542003.5100000035}},{"attributes":{"ID":301847,"DIS_CODE":0,"TOWNNAME":"南區","LI":"新生里","LIN":"8鄰","STREET":"大同路","SECT":"二段","MAREA":" ","LANE":"１６４巷","ALLEY":" ","HOUSE_NO":"９號十一樓之２","E_COORD97":169247,"N_COORD97":2542003.5099999998,"ADDRESS":"大同路二段１６４巷９號十一樓之２","OBJECTID":301839},"geometry":{"x":169247,"y":2542003.5100000035}},{"attributes":{"ID":301848,"DIS_CODE":0,"TOWNNAME":"南區","LI":"新生里","LIN":"8鄰","STREET":"大同路","SECT":"二段","MAREA":" ","LANE":"１６４巷","ALLEY":" ","HOUSE_NO":"９號十一樓之３","E_COORD97":169247,"N_COORD97":2542003.5099999998,"ADDRESS":"大同路二段１６４巷９號十一樓之３","OBJECTID":301840},"geometry":{"x":169247,"y":2542003.5100000035}},{"attributes":{"ID":301849,"DIS_CODE":0,"TOWNNAME":"南區","LI":"新生里","LIN":"8鄰","STREET":"大同路","SECT":"二段","MAREA":" ","LANE":"１６４巷","ALLEY":" ","HOUSE_NO":"９號十一樓之５","E_COORD97":169247,"N_COORD97":2542003.5099999998,"ADDRESS":"大同路二段１６４巷９號十一樓之５","OBJECTID":301841},"geometry":{"x":169247,"y":2542003.5100000035}},{"attributes":{"ID":301850,"DIS_CODE":0,"TOWNNAME":"南區","LI":"新生里","LIN":"8鄰","STREET":"大同路","SECT":"二段","MAREA":" ","LANE":"１６４巷","ALLEY":" ","HOUSE_NO":"１１號五樓之１","E_COORD97":169249.92999999999,"N_COORD97":2541970.1299999999,"ADDRESS":"大同路二段１６４巷１１號五樓之１","OBJECTID":301842},"geometry":{"x":169249.93000000063,"y":2541970.129999999}},{"attributes":{"ID":301851,"DIS_CODE":0,"TOWNNAME":"南區","LI":"新生里","LIN":"8鄰","STREET":"大同路","SECT":"二段","MAREA":" ","LANE":"１６４巷","ALLEY":" ","HOUSE_NO":"１１號六樓之１","E_COORD97":169249.92999999999,"N_COORD97":2541970.1299999999,"ADDRESS":"大同路二段１６４巷１１號六樓之１","OBJECTID":301843},"geometry":{"x":169249.93000000063,"y":2541970.129999999}},{"attributes":{"ID":301852,"DIS_CODE":0,"TOWNNAME":"南區","LI":"新生里","LIN":"8鄰","STREET":"大同路","SECT":"二段","MAREA":" ","LANE":"１６４巷","ALLEY":" ","HOUSE_NO":"１１號六樓之５","E_COORD97":169249.92999999999,"N_COORD97":2541970.1299999999,"ADDRESS":"大同路二段１６４巷１１號六樓之５","OBJECTID":301844},"geometry":{"x":169249.93000000063,"y":2541970.129999999}},{"attributes":{"ID":301853,"DIS_CODE":0,"TOWNNAME":"南區","LI":"新生里","LIN":"8鄰","STREET":"大同路","SECT":"二段","MAREA":" ","LANE":"１６４巷","ALLEY":" ","HOUSE_NO":"１１號七樓之１","E_COORD97":169249.92999999999,"N_COORD97":2541970.1299999999,"ADDRESS":"大同路二段１６４巷１１號七樓之１","OBJECTID":301845},"geometry":{"x":169249.93000000063,"y":2541970.129999999}},{"attributes":{"ID":301854,"DIS_CODE":0,"TOWNNAME":"南區","LI":"新生里","LIN":"8鄰","STREET":"大同路","SECT":"二段","MAREA":" ","LANE":"１６４巷","ALLEY":" ","HOUSE_NO":"１１號七樓之５","E_COORD97":169249.92999999999,"N_COORD97":2541970.1299999999,"ADDRESS":"大同路二段１６４巷１１號七樓之５","OBJECTID":301846},"geometry":{"x":169249.93000000063,"y":2541970.129999999}},{"attributes":{"ID":301855,"DIS_CODE":0,"TOWNNAME":"南區","LI":"新生里","LIN":"8鄰","STREET":"大同路","SECT":"二段","MAREA":" ","LANE":"１６４巷","ALLEY":" ","HOUSE_NO":"１１號二樓之１","E_COORD97":169249.92999999999,"N_COORD97":2541970.1299999999,"ADDRESS":"大同路二段１６４巷１１號二樓之１","OBJECTID":301847},"geometry":{"x":169249.93000000063,"y":2541970.129999999}},{"attributes":{"ID":301856,"DIS_CODE":0,"TOWNNAME":"南區","LI":"新生里","LIN":"8鄰","STREET":"大同路","SECT":"二段","MAREA":" ","LANE":"１６４巷","ALLEY":" ","HOUSE_NO":"１１號二樓之５","E_COORD97":169249.92999999999,"N_COORD97":2541970.1299999999,"ADDRESS":"大同路二段１６４巷１１號二樓之５","OBJECTID":301848},"geometry":{"x":169249.93000000063,"y":2541970.129999999}},{"attributes":{"ID":301857,"DIS_CODE":0,"TOWNNAME":"南區","LI":"新生里","LIN":"8鄰","STREET":"大同路","SECT":"二段","MAREA":" ","LANE":"１６４巷","ALLEY":" ","HOUSE_NO":"１１號十樓之１","E_COORD97":169249.92999999999,"N_COORD97":2541970.1299999999,"ADDRESS":"大同路二段１６４巷１１號十樓之１","OBJECTID":301849},"geometry":{"x":169249.93000000063,"y":2541970.129999999}},{"attributes":{"ID":301858,"DIS_CODE":0,"TOWNNAME":"南區","LI":"新生里","LIN":"8鄰","STREET":"大同路","SECT":"二段","MAREA":" ","LANE":"１６４巷","ALLEY":" ","HOUSE_NO":"１１號十樓之５","E_COORD97":169249.92999999999,"N_COORD97":2541970.1299999999,"ADDRESS":"大同路二段１６４巷１１號十樓之５","OBJECTID":301850},"geometry":{"x":169249.93000000063,"y":2541970.129999999}},{"attributes":{"ID":301859,"DIS_CODE":0,"TOWNNAME":"南區","LI":"新生里","LIN":"8鄰","STREET":"大同路","SECT":"二段","MAREA":" ","LANE":"１６４巷","ALLEY":" ","HOUSE_NO":"１１號三樓之１","E_COORD97":169249.92999999999,"N_COORD97":2541970.1299999999,"ADDRESS":"大同路二段１６４巷１１號三樓之１","OBJECTID":301851},"geometry":{"x":169249.93000000063,"y":2541970.129999999}},{"attributes":{"ID":301860,"DIS_CODE":0,"TOWNNAME":"仁德區","LI":"仁愛里","LIN":"30鄰","STREET":"亞航街","SECT":" ","MAREA":" ","LANE":"１９８巷","ALLEY":" ","HOUSE_NO":"１５號","E_COORD97":170049.29999999999,"N_COORD97":2539082.2220000001,"ADDRESS":"亞航街１９８巷１５號","OBJECTID":301852},"geometry":{"x":170049.30000000075,"y":2539082.2219999991}},{"attributes":{"ID":301861,"DIS_CODE":0,"TOWNNAME":"仁德區","LI":"仁愛里","LIN":"30鄰","STREET":"亞航街","SECT":" ","MAREA":" ","LANE":"１９８巷","ALLEY":" ","HOUSE_NO":"９號","E_COORD97":170046.33600000001,"N_COORD97":2539093.2200000002,"ADDRESS":"亞航街１９８巷９號","OBJECTID":301853},"geometry":{"x":170046.33600000106,"y":2539093.2200000007}},{"attributes":{"ID":301862,"DIS_CODE":0,"TOWNNAME":"仁德區","LI":"仁愛里","LIN":"30鄰","STREET":"亞航街","SECT":" ","MAREA":" ","LANE":"１９８巷","ALLEY":" ","HOUSE_NO":"５號","E_COORD97":170044.35999999999,"N_COORD97":2539100.5520000001,"ADDRESS":"亞航街１９８巷５號","OBJECTID":301854},"geometry":{"x":170044.36000000127,"y":2539100.5520000029}},{"attributes":{"ID":301863,"DIS_CODE":0,"TOWNNAME":"安南區","LI":"顯宮里","LIN":"7鄰","STREET":"顯宮二街","SECT":" ","MAREA":" ","LANE":"５５巷","ALLEY":" ","HOUSE_NO":"１２號","E_COORD97":160427.45928400001,"N_COORD97":2548774.4105500001,"ADDRESS":"顯宮二街５５巷１２號","OBJECTID":301855},"geometry":{"x":160427.4592840001,"y":2548774.410550002}},{"attributes":{"ID":301864,"DIS_CODE":0,"TOWNNAME":"安南區","LI":"顯宮里","LIN":"7鄰","STREET":"顯宮二街","SECT":" ","MAREA":" ","LANE":"５５巷","ALLEY":" ","HOUSE_NO":"８號","E_COORD97":160430.42402000001,"N_COORD97":2548776.7388800001,"ADDRESS":"顯宮二街５５巷８號","OBJECTID":301856},"geometry":{"x":160430.42402000073,"y":2548776.738880001}},{"attributes":{"ID":301865,"DIS_CODE":0,"TOWNNAME":"永康區","LI":"復華里","LIN":"4鄰","STREET":"國華街","SECT":" ","MAREA":" ","LANE":"１０２巷","ALLEY":" ","HOUSE_NO":"１１０號","E_COORD97":172957.76165599999,"N_COORD97":2546214.0465600002,"ADDRESS":"國華街１０２巷１１０號","OBJECTID":301857},"geometry":{"x":172957.76165600121,"y":2546214.0465570018}},{"attributes":{"ID":301866,"DIS_CODE":0,"TOWNNAME":"永康區","LI":"龍潭里","LIN":"11鄰","STREET":"龍橋街","SECT":" ","MAREA":" ","LANE":"３巷","ALLEY":" ","HOUSE_NO":"３３號","E_COORD97":174807.15972900001,"N_COORD97":2548277.8684299998,"ADDRESS":"龍橋街３巷３３號","OBJECTID":301858},"geometry":{"x":174807.15972900111,"y":2548277.8684300035}},{"attributes":{"ID":301867,"DIS_CODE":0,"TOWNNAME":"永康區","LI":"復華里","LIN":"29鄰","STREET":"國華街","SECT":" ","MAREA":" ","LANE":"１０３巷","ALLEY":" ","HOUSE_NO":"９號","E_COORD97":172607.19867400001,"N_COORD97":2546201.34656,"ADDRESS":"國華街１０３巷９號","OBJECTID":301859},"geometry":{"x":172607.19867399987,"y":2546201.3465640005}},{"attributes":{"ID":301868,"DIS_CODE":0,"TOWNNAME":"安南區","LI":"顯宮里","LIN":"6鄰","STREET":"媽祖宮路","SECT":" ","MAREA":" ","LANE":" ","ALLEY":" ","HOUSE_NO":"１７６號","E_COORD97":160644.46780899999,"N_COORD97":2548856.8546699998,"ADDRESS":"媽祖宮路１７６號","OBJECTID":301860},"geometry":{"x":160644.46780900098,"y":2548856.8546720017}},{"attributes":{"ID":301869,"DIS_CODE":0,"TOWNNAME":"安南區","LI":"顯宮里","LIN":"6鄰","STREET":"媽祖宮路","SECT":" ","MAREA":" ","LANE":" ","ALLEY":" ","HOUSE_NO":"１７８號","E_COORD97":160642.561904,"N_COORD97":2548855.7963399999,"ADDRESS":"媽祖宮路１７８號","OBJECTID":301861},"geometry":{"x":160642.56190400012,"y":2548855.7963389978}},{"attributes":{"ID":301870,"DIS_CODE":0,"TOWNNAME":"安南區","LI":"顯宮里","LIN":"6鄰","STREET":"媽祖宮路","SECT":" ","MAREA":" ","LANE":" ","ALLEY":" ","HOUSE_NO":"１８０號","E_COORD97":160639.80892899999,"N_COORD97":2548853.8913400001,"ADDRESS":"媽祖宮路１８０號","OBJECTID":301862},"geometry":{"x":160639.80892900005,"y":2548853.8913400024}},{"attributes":{"ID":301871,"DIS_CODE":0,"TOWNNAME":"安南區","LI":"顯宮里","LIN":"6鄰","STREET":"媽祖宮二街","SECT":" ","MAREA":" ","LANE":" ","ALLEY":" ","HOUSE_NO":"１２２號","E_COORD97":160630.06763400001,"N_COORD97":2548907.0196400001,"ADDRESS":"媽祖宮二街１２２號","OBJECTID":301863},"geometry":{"x":160630.06763400137,"y":2548907.0196450017}},{"attributes":{"ID":301872,"DIS_CODE":0,"TOWNNAME":"安南區","LI":"顯宮里","LIN":"6鄰","STREET":"媽祖宮二街","SECT":" ","MAREA":" ","LANE":" ","ALLEY":" ","HOUSE_NO":"１１０號","E_COORD97":160648.06785299999,"N_COORD97":2548918.2379700001,"ADDRESS":"媽祖宮二街１１０號","OBJECTID":301864},"geometry":{"x":160648.06785300002,"y":2548918.2379720025}},{"attributes":{"ID":301873,"DIS_CODE":0,"TOWNNAME":"安南區","LI":"顯宮里","LIN":"6鄰","STREET":"媽祖宮二街","SECT":" ","MAREA":" ","LANE":" ","ALLEY":" ","HOUSE_NO":"９７號","E_COORD97":160646.37371499999,"N_COORD97":2548901.72798,"ADDRESS":"媽祖宮二街９７號","OBJECTID":301865},"geometry":{"x":160646.3737149993,"y":2548901.7279810011}},{"attributes":{"ID":301874,"DIS_CODE":0,"TOWNNAME":"安南區","LI":"顯宮里","LIN":"6鄰","STREET":"媽祖宮二街","SECT":" ","MAREA":" ","LANE":" ","ALLEY":" ","HOUSE_NO":"１１６號","E_COORD97":160642.561904,"N_COORD97":2548916.1213099998,"ADDRESS":"媽祖宮二街１１６號","OBJECTID":301866},"geometry":{"x":160642.56190400012,"y":2548916.1213070005}},{"attributes":{"ID":301875,"DIS_CODE":0,"TOWNNAME":"安南區","LI":"顯宮里","LIN":"7鄰","STREET":"媽祖宮路","SECT":" ","MAREA":" ","LANE":" ","ALLEY":" ","HOUSE_NO":"１８８號","E_COORD97":160509.148514,"N_COORD97":2548807.7480299999,"ADDRESS":"媽祖宮路１８８號","OBJECTID":301867},"geometry":{"x":160509.1485140007,"y":2548807.7480319981}},{"attributes":{"ID":301876,"DIS_CODE":0,"TOWNNAME":"新營區","LI":"王公里","LIN":"24鄰","STREET":"中正路","SECT":" ","MAREA":" ","LANE":" ","ALLEY":" ","HOUSE_NO":"１１２號之１","E_COORD97":180104.95999999999,"N_COORD97":2579462.6800000002,"ADDRESS":"中正路１１２號之１","OBJECTID":301868},"geometry":{"x":180104.95999999996,"y":2579462.6800000016}},{"attributes":{"ID":301877,"DIS_CODE":0,"TOWNNAME":"關廟區","LI":"新光里","LIN":"9鄰","STREET":"北寮街","SECT":" ","MAREA":" ","LANE":" ","ALLEY":" ","HOUSE_NO":"１５８號","E_COORD97":184366.62082499999,"N_COORD97":2541919.1822600001,"ADDRESS":"北寮街１５８號","OBJECTID":301869},"geometry":{"x":184366.62082500104,"y":2541919.1822640039}},{"attributes":{"ID":301878,"DIS_CODE":0,"TOWNNAME":"新營區","LI":"王公里","LIN":"25鄰","STREET":"中正路","SECT":" ","MAREA":" ","LANE":" ","ALLEY":" ","HOUSE_NO":"１３０之５號","E_COORD97":180100.815351,"N_COORD97":2579539.3659799998,"ADDRESS":"中正路１３０之５號","OBJECTID":301870},"geometry":{"x":180100.81535100099,"y":2579539.3659840021}},{"attributes":{"ID":301879,"DIS_CODE":0,"TOWNNAME":"新營區","LI":"王公里","LIN":"25鄰","STREET":"中正路","SECT":" ","MAREA":" ","LANE":" ","ALLEY":" ","HOUSE_NO":"１３０之６號","E_COORD97":180100.60346899999,"N_COORD97":2579543.0172299999,"ADDRESS":"中正路１３０之６號","OBJECTID":301871},"geometry":{"x":180100.60346900113,"y":2579543.0172320027}},{"attributes":{"ID":301880,"DIS_CODE":0,"TOWNNAME":"關廟區","LI":"新光里","LIN":"10鄰","STREET":"新光街","SECT":" ","MAREA":" ","LANE":" ","ALLEY":" ","HOUSE_NO":"２７６號","E_COORD97":184367.89205900001,"N_COORD97":2541868.9114600001,"ADDRESS":"新光街２７６號","OBJECTID":301872},"geometry":{"x":184367.89205900021,"y":2541868.9114580024}},{"attributes":{"ID":301881,"DIS_CODE":0,"TOWNNAME":"關廟區","LI":"新光里","LIN":"9鄰","STREET":"北寮街","SECT":" ","MAREA":" ","LANE":" ","ALLEY":" ","HOUSE_NO":"１６１號","E_COORD97":184383.57060599999,"N_COORD97":2541928.4955899999,"ADDRESS":"北寮街１６１號","OBJECTID":301873},"geometry":{"x":184383.57060599979,"y":2541928.4955930002}},{"attributes":{"ID":301882,"DIS_CODE":0,"TOWNNAME":"南區","LI":"新生里","LIN":"8鄰","STREET":"大同路","SECT":"二段","MAREA":" ","LANE":"１６４巷","ALLEY":" ","HOUSE_NO":"１１號三樓之５","E_COORD97":169249.92999999999,"N_COORD97":2541970.1299999999,"ADDRESS":"大同路二段１６４巷１１號三樓之５","OBJECTID":301874},"geometry":{"x":169249.93000000063,"y":2541970.129999999}},{"attributes":{"ID":301883,"DIS_CODE":0,"TOWNNAME":"南區","LI":"新生里","LIN":"8鄰","STREET":"大同路","SECT":"二段","MAREA":" ","LANE":"１６４巷","ALLEY":" ","HOUSE_NO":"１１號八樓之１","E_COORD97":169249.92999999999,"N_COORD97":2541970.1299999999,"ADDRESS":"大同路二段１６４巷１１號八樓之１","OBJECTID":301875},"geometry":{"x":169249.93000000063,"y":2541970.129999999}},{"attributes":{"ID":301884,"DIS_CODE":0,"TOWNNAME":"南區","LI":"新生里","LIN":"8鄰","STREET":"大同路","SECT":"二段","MAREA":" ","LANE":"１６４巷","ALLEY":" ","HOUSE_NO":"１１號八樓之５","E_COORD97":169249.92999999999,"N_COORD97":2541970.1299999999,"ADDRESS":"大同路二段１６４巷１１號八樓之５","OBJECTID":301876},"geometry":{"x":169249.93000000063,"y":2541970.129999999}},{"attributes":{"ID":301885,"DIS_CODE":0,"TOWNNAME":"安平區","LI":"怡平里","LIN":"8鄰","STREET":"慶平路","SECT":" ","MAREA":" ","LANE":"１９３巷","ALLEY":" ","HOUSE_NO":"６號七樓之２","E_COORD97":165789.95999999999,"N_COORD97":2544149.1499999999,"ADDRESS":"慶平路１９３巷６號七樓之２","OBJECTID":301877},"geometry":{"x":165789.96000000089,"y":2544149.1500000041}},{"attributes":{"ID":301886,"DIS_CODE":0,"TOWNNAME":"南區","LI":"新生里","LIN":"8鄰","STREET":"大同路","SECT":"二段","MAREA":" ","LANE":"１６４巷","ALLEY":" ","HOUSE_NO":"１１號一樓之１","E_COORD97":169249.92999999999,"N_COORD97":2541970.1299999999,"ADDRESS":"大同路二段１６４巷１１號一樓之１","OBJECTID":301878},"geometry":{"x":169249.93000000063,"y":2541970.129999999}},{"attributes":{"ID":301887,"DIS_CODE":0,"TOWNNAME":"南區","LI":"新生里","LIN":"8鄰","STREET":"大同路","SECT":"二段","MAREA":" ","LANE":"１６４巷","ALLEY":" ","HOUSE_NO":"１１號九樓之１","E_COORD97":169249.92999999999,"N_COORD97":2541970.1299999999,"ADDRESS":"大同路二段１６４巷１１號九樓之１","OBJECTID":301879},"geometry":{"x":169249.93000000063,"y":2541970.129999999}},{"attributes":{"ID":301888,"DIS_CODE":0,"TOWNNAME":"南區","LI":"新生里","LIN":"8鄰","STREET":"大同路","SECT":"二段","MAREA":" ","LANE":"１６４巷","ALLEY":" ","HOUSE_NO":"１１號九樓之５","E_COORD97":169249.92999999999,"N_COORD97":2541970.1299999999,"ADDRESS":"大同路二段１６４巷１１號九樓之５","OBJECTID":301880},"geometry":{"x":169249.93000000063,"y":2541970.129999999}},{"attributes":{"ID":301889,"DIS_CODE":0,"TOWNNAME":"北門區","LI":"慈安里","LIN":"8鄰","STREET":" ","SECT":" ","MAREA":"三寮灣","LANE":" ","ALLEY":" ","HOUSE_NO":"４６８號","E_COORD97":158974.98000000001,"N_COORD97":2571104.1899999999,"ADDRESS":"三寮灣４６８號","OBJECTID":301881},"geometry":{"x":158974.98000000045,"y":2571104.1899999995}},{"attributes":{"ID":301890,"DIS_CODE":0,"TOWNNAME":"南區","LI":"新生里","LIN":"8鄰","STREET":"大同路","SECT":"二段","MAREA":" ","LANE":"１６４巷","ALLEY":" ","HOUSE_NO":"１１號四樓之１","E_COORD97":169249.92999999999,"N_COORD97":2541970.1299999999,"ADDRESS":"大同路二段１６４巷１１號四樓之１","OBJECTID":301882},"geometry":{"x":169249.93000000063,"y":2541970.129999999}},{"attributes":{"ID":301891,"DIS_CODE":0,"TOWNNAME":"南區","LI":"新生里","LIN":"8鄰","STREET":"大同路","SECT":"二段","MAREA":" ","LANE":"１６４巷","ALLEY":" ","HOUSE_NO":"１１號四樓之５","E_COORD97":169249.92999999999,"N_COORD97":2541970.1299999999,"ADDRESS":"大同路二段１６４巷１１號四樓之５","OBJECTID":301883},"geometry":{"x":169249.93000000063,"y":2541970.129999999}},{"attributes":{"ID":301892,"DIS_CODE":0,"TOWNNAME":"南區","LI":"新生里","LIN":"8鄰","STREET":"大同路","SECT":"二段","MAREA":" ","LANE":"１６４巷","ALLEY":" ","HOUSE_NO":"１１號十一樓之１","E_COORD97":169249.92999999999,"N_COORD97":2541970.1299999999,"ADDRESS":"大同路二段１６４巷１１號十一樓之１","OBJECTID":301884},"geometry":{"x":169249.93000000063,"y":2541970.129999999}},{"attributes":{"ID":301893,"DIS_CODE":0,"TOWNNAME":"南區","LI":"新生里","LIN":"8鄰","STREET":"大同路","SECT":"二段","MAREA":" ","LANE":"１６４巷","ALLEY":" ","HOUSE_NO":"１１號十一樓之５","E_COORD97":169249.92999999999,"N_COORD97":2541970.1299999999,"ADDRESS":"大同路二段１６４巷１１號十一樓之５","OBJECTID":301885},"geometry":{"x":169249.93000000063,"y":2541970.129999999}},{"attributes":{"ID":301894,"DIS_CODE":0,"TOWNNAME":"北區","LI":"六甲里","LIN":"8鄰","STREET":"西門路","SECT":"四段","MAREA":" ","LANE":"２００巷","ALLEY":" ","HOUSE_NO":"１１號二樓","E_COORD97":168941.29999999999,"N_COORD97":2545680.29,"ADDRESS":"西門路四段２００巷１１號二樓","OBJECTID":301886},"geometry":{"x":168941.29999999981,"y":2545680.290000001}},{"attributes":{"ID":301895,"DIS_CODE":0,"TOWNNAME":"北區","LI":"六甲里","LIN":"8鄰","STREET":"西門路","SECT":"四段","MAREA":" ","LANE":"２００巷","ALLEY":" ","HOUSE_NO":"１１號八樓","E_COORD97":168941.29999999999,"N_COORD97":2545680.29,"ADDRESS":"西門路四段２００巷１１號八樓","OBJECTID":301887},"geometry":{"x":168941.29999999981,"y":2545680.290000001}},{"attributes":{"ID":301896,"DIS_CODE":0,"TOWNNAME":"關廟區","LI":"新光里","LIN":"11鄰","STREET":"新光街","SECT":" ","MAREA":" ","LANE":"２０６巷","ALLEY":" ","HOUSE_NO":"１３號","E_COORD97":184324.77605399999,"N_COORD97":2541818.9052400002,"ADDRESS":"新光街２０６巷１３號","OBJECTID":301888},"geometry":{"x":184324.77605399862,"y":2541818.905235}},{"attributes":{"ID":301897,"DIS_CODE":0,"TOWNNAME":"關廟區","LI":"新光里","LIN":"11鄰","STREET":"新光街","SECT":" ","MAREA":" ","LANE":"２０６巷","ALLEY":" ","HOUSE_NO":"１１號","E_COORD97":184315.453675,"N_COORD97":2541814.6719,"ADDRESS":"新光街２０６巷１１號","OBJECTID":301889},"geometry":{"x":184315.45367500093,"y":2541814.6719040032}},{"attributes":{"ID":301898,"DIS_CODE":0,"TOWNNAME":"關廟區","LI":"新光里","LIN":"10鄰","STREET":"新光街","SECT":" ","MAREA":" ","LANE":"２０６巷","ALLEY":" ","HOUSE_NO":"１７號","E_COORD97":184335.68747500001,"N_COORD97":2541820.2281499999,"ADDRESS":"新光街２０６巷１７號","OBJECTID":301890},"geometry":{"x":184335.68747500144,"y":2541820.2281510029}},{"attributes":{"ID":301899,"DIS_CODE":0,"TOWNNAME":"永康區","LI":"復華里","LIN":"3鄰","STREET":"復國二路","SECT":" ","MAREA":" ","LANE":"３４８巷","ALLEY":" ","HOUSE_NO":"１號","E_COORD97":173068.29444299999,"N_COORD97":2546254.1573700001,"ADDRESS":"復國二路３４８巷１號","OBJECTID":301891},"geometry":{"x":173068.29444300104,"y":2546254.1573690008}},{"attributes":{"ID":301900,"DIS_CODE":0,"TOWNNAME":"新營區","LI":"王公里","LIN":"25鄰","STREET":"中正路","SECT":" ","MAREA":" ","LANE":" ","ALLEY":" ","HOUSE_NO":"１３６號之１","E_COORD97":180098.272765,"N_COORD97":2579594.6638699998,"ADDRESS":"中正路１３６號之１","OBJECTID":301892},"geometry":{"x":180098.27276500221,"y":2579594.6638709996}},{"attributes":{"ID":301901,"DIS_CODE":0,"TOWNNAME":"關廟區","LI":"新光里","LIN":"9鄰","STREET":"北寮街","SECT":" ","MAREA":" ","LANE":" ","ALLEY":" ","HOUSE_NO":"１５７號","E_COORD97":184378.061927,"N_COORD97":2541931.6705900002,"ADDRESS":"北寮街１５７號","OBJECTID":301893},"geometry":{"x":184378.06192700006,"y":2541931.6705910042}},{"attributes":{"ID":301902,"DIS_CODE":0,"TOWNNAME":"安南區","LI":"總頭里","LIN":"4鄰","STREET":"長溪路","SECT":"二段","MAREA":" ","LANE":" ","ALLEY":" ","HOUSE_NO":"５４６號","E_COORD97":168283.919455,"N_COORD97":2550548.6027899999,"ADDRESS":"長溪路二段５４６號","OBJECTID":301894},"geometry":{"x":168283.91945500113,"y":2550548.6027899999}},{"attributes":{"ID":301903,"DIS_CODE":0,"TOWNNAME":"新營區","LI":"王公里","LIN":"25鄰","STREET":"中正路","SECT":" ","MAREA":" ","LANE":" ","ALLEY":" ","HOUSE_NO":"１３６之２號","E_COORD97":180096.153942,"N_COORD97":2579610.43303,"ADDRESS":"中正路１３６之２號","OBJECTID":301895},"geometry":{"x":180096.15394200012,"y":2579610.4330290016}},{"attributes":{"ID":301904,"DIS_CODE":0,"TOWNNAME":"安南區","LI":"總頭里","LIN":"4鄰","STREET":"長溪路","SECT":"二段","MAREA":" ","LANE":" ","ALLEY":" ","HOUSE_NO":"５８４號","E_COORD97":168270.78367500001,"N_COORD97":2550659.7277299999,"ADDRESS":"長溪路二段５８４號","OBJECTID":301896},"geometry":{"x":168270.78367500007,"y":2550659.7277300023}},{"attributes":{"ID":301905,"DIS_CODE":0,"TOWNNAME":"北區","LI":"六甲里","LIN":"8鄰","STREET":"西門路","SECT":"四段","MAREA":" ","LANE":"２００巷","ALLEY":" ","HOUSE_NO":"１１號三樓","E_COORD97":168941.29999999999,"N_COORD97":2545680.29,"ADDRESS":"西門路四段２００巷１１號三樓","OBJECTID":301897},"geometry":{"x":168941.29999999981,"y":2545680.290000001}},{"attributes":{"ID":301906,"DIS_CODE":0,"TOWNNAME":"北區","LI":"六甲里","LIN":"8鄰","STREET":"西門路","SECT":"四段","MAREA":" ","LANE":"２００巷","ALLEY":" ","HOUSE_NO":"１１號五樓","E_COORD97":168941.29999999999,"N_COORD97":2545680.29,"ADDRESS":"西門路四段２００巷１１號五樓","OBJECTID":301898},"geometry":{"x":168941.29999999981,"y":2545680.290000001}},{"attributes":{"ID":301907,"DIS_CODE":0,"TOWNNAME":"北區","LI":"六甲里","LIN":"8鄰","STREET":"西門路","SECT":"四段","MAREA":" ","LANE":"２００巷","ALLEY":" ","HOUSE_NO":"１１號六樓","E_COORD97":168941.29999999999,"N_COORD97":2545680.29,"ADDRESS":"西門路四段２００巷１１號六樓","OBJECTID":301899},"geometry":{"x":168941.29999999981,"y":2545680.290000001}},{"attributes":{"ID":301908,"DIS_CODE":0,"TOWNNAME":"北區","LI":"六甲里","LIN":"8鄰","STREET":"西門路","SECT":"四段","MAREA":" ","LANE":"２００巷","ALLEY":" ","HOUSE_NO":"１１號四樓","E_COORD97":168941.29999999999,"N_COORD97":2545680.29,"ADDRESS":"西門路四段２００巷１１號四樓","OBJECTID":301900},"geometry":{"x":168941.29999999981,"y":2545680.290000001}},{"attributes":{"ID":301909,"DIS_CODE":0,"TOWNNAME":"北區","LI":"六甲里","LIN":"8鄰","STREET":"西門路","SECT":"四段","MAREA":" ","LANE":"２００巷","ALLEY":" ","HOUSE_NO":"１３號七樓","E_COORD97":168939.19,"N_COORD97":2545673.1200000001,"ADDRESS":"西門路四段２００巷１３號七樓","OBJECTID":301901},"geometry":{"x":168939.19000000041,"y":2545673.1200000029}},{"attributes":{"ID":301910,"DIS_CODE":0,"TOWNNAME":"北區","LI":"六甲里","LIN":"8鄰","STREET":"西門路","SECT":"四段","MAREA":" ","LANE":"２００巷","ALLEY":" ","HOUSE_NO":"１３號二樓","E_COORD97":168939.19,"N_COORD97":2545673.1200000001,"ADDRESS":"西門路四段２００巷１３號二樓","OBJECTID":301902},"geometry":{"x":168939.19000000041,"y":2545673.1200000029}},{"attributes":{"ID":301911,"DIS_CODE":0,"TOWNNAME":"北區","LI":"六甲里","LIN":"8鄰","STREET":"西門路","SECT":"四段","MAREA":" ","LANE":"２００巷","ALLEY":" ","HOUSE_NO":"１３號八樓","E_COORD97":168939.19,"N_COORD97":2545673.1200000001,"ADDRESS":"西門路四段２００巷１３號八樓","OBJECTID":301903},"geometry":{"x":168939.19000000041,"y":2545673.1200000029}},{"attributes":{"ID":301912,"DIS_CODE":0,"TOWNNAME":"北區","LI":"六甲里","LIN":"8鄰","STREET":"西門路","SECT":"四段","MAREA":" ","LANE":"２００巷","ALLEY":" ","HOUSE_NO":"１３號三樓","E_COORD97":168939.19,"N_COORD97":2545673.1200000001,"ADDRESS":"西門路四段２００巷１３號三樓","OBJECTID":301904},"geometry":{"x":168939.19000000041,"y":2545673.1200000029}},{"attributes":{"ID":301913,"DIS_CODE":0,"TOWNNAME":"北區","LI":"六甲里","LIN":"8鄰","STREET":"西門路","SECT":"四段","MAREA":" ","LANE":"２００巷","ALLEY":" ","HOUSE_NO":"１３號五樓","E_COORD97":168939.19,"N_COORD97":2545673.1200000001,"ADDRESS":"西門路四段２００巷１３號五樓","OBJECTID":301905},"geometry":{"x":168939.19000000041,"y":2545673.1200000029}},{"attributes":{"ID":301914,"DIS_CODE":0,"TOWNNAME":"北區","LI":"六甲里","LIN":"8鄰","STREET":"西門路","SECT":"四段","MAREA":" ","LANE":"２００巷","ALLEY":" ","HOUSE_NO":"１３號六樓","E_COORD97":168939.19,"N_COORD97":2545673.1200000001,"ADDRESS":"西門路四段２００巷１３號六樓","OBJECTID":301906},"geometry":{"x":168939.19000000041,"y":2545673.1200000029}},{"attributes":{"ID":301915,"DIS_CODE":0,"TOWNNAME":"新營區","LI":"南興里","LIN":"8鄰","STREET":"建業路","SECT":" ","MAREA":" ","LANE":"７８巷","ALLEY":" ","HOUSE_NO":"１號四樓之１","E_COORD97":179327.14999999999,"N_COORD97":2577506.1800000002,"ADDRESS":"建業路７８巷１號四樓之１","OBJECTID":301907},"geometry":{"x":179327.1500000013,"y":2577506.1800000034}},{"attributes":{"ID":301916,"DIS_CODE":0,"TOWNNAME":"東區","LI":"裕農里","LIN":"14鄰","STREET":"裕豐街","SECT":" ","MAREA":" ","LANE":" ","ALLEY":" ","HOUSE_NO":"２３８號","E_COORD97":170807.92999999999,"N_COORD97":2543247.1499999999,"ADDRESS":"裕豐街２３８號","OBJECTID":301908},"geometry":{"x":170807.93000000063,"y":2543247.1500000041}},{"attributes":{"ID":301917,"DIS_CODE":0,"TOWNNAME":"永康區","LI":"復華里","LIN":"33鄰","STREET":"復華十街","SECT":" ","MAREA":" ","LANE":"２４巷","ALLEY":" ","HOUSE_NO":"２５號","E_COORD97":172545.74749199999,"N_COORD97":2546161.1299200002,"ADDRESS":"復華十街２４巷２５號","OBJECTID":301909},"geometry":{"x":172545.74749200139,"y":2546161.129919}},{"attributes":{"ID":301918,"DIS_CODE":0,"TOWNNAME":"仁德區","LI":"仁愛里","LIN":"1鄰","STREET":" ","SECT":" ","MAREA":"仁愛","LANE":" ","ALLEY":" ","HOUSE_NO":"７之１號","E_COORD97":170307.00706599999,"N_COORD97":2540204.1503499998,"ADDRESS":"仁愛７之１號","OBJECTID":301910},"geometry":{"x":170307.00706600025,"y":2540204.1503509991}},{"attributes":{"ID":301919,"DIS_CODE":0,"TOWNNAME":"永康區","LI":"龍潭里","LIN":"39鄰","STREET":"永明街","SECT":" ","MAREA":" ","LANE":"２３１巷","ALLEY":" ","HOUSE_NO":"２８號","E_COORD97":174582.74518900001,"N_COORD97":2547297.6406299998,"ADDRESS":"永明街２３１巷２８號","OBJECTID":301911},"geometry":{"x":174582.74518899992,"y":2547297.6406260002}},{"attributes":{"ID":301920,"DIS_CODE":0,"TOWNNAME":"新營區","LI":"王公里","LIN":"15鄰","STREET":"大勇街","SECT":" ","MAREA":" ","LANE":"４巷","ALLEY":" ","HOUSE_NO":"１號","E_COORD97":180188.99974699999,"N_COORD97":2579421.5735499999,"ADDRESS":"大勇街４巷１號","OBJECTID":301912},"geometry":{"x":180188.9997469997,"y":2579421.5735480022}},{"attributes":{"ID":301921,"DIS_CODE":0,"TOWNNAME":"永康區","LI":"龍潭里","LIN":"39鄰","STREET":"永明街","SECT":" ","MAREA":" ","LANE":"２３１巷","ALLEY":" ","HOUSE_NO":"２６號","E_COORD97":174551.170339,"N_COORD97":2547292.9839599999,"ADDRESS":"永明街２３１巷２６號","OBJECTID":301913},"geometry":{"x":174551.17033900041,"y":2547292.9839619994}},{"attributes":{"ID":301922,"DIS_CODE":0,"TOWNNAME":"新營區","LI":"王公里","LIN":"15鄰","STREET":"大勇街","SECT":" ","MAREA":" ","LANE":"４巷","ALLEY":" ","HOUSE_NO":"２號","E_COORD97":180189.42351200001,"N_COORD97":2579417.5518800002,"ADDRESS":"大勇街４巷２號","OBJECTID":301914},"geometry":{"x":180189.42351199966,"y":2579417.5518830009}},{"attributes":{"ID":301923,"DIS_CODE":0,"TOWNNAME":"永康區","LI":"龍潭里","LIN":"39鄰","STREET":"永明街","SECT":" ","MAREA":" ","LANE":"２３１巷","ALLEY":" ","HOUSE_NO":"２６號","E_COORD97":174582.74518900001,"N_COORD97":2547292.9839599999,"ADDRESS":"永明街２３１巷２６號","OBJECTID":301915},"geometry":{"x":174582.74518899992,"y":2547292.9839619994}},{"attributes":{"ID":301924,"DIS_CODE":0,"TOWNNAME":"北門區","LI":"慈安里","LIN":"8鄰","STREET":" ","SECT":" ","MAREA":"三寮灣","LANE":" ","ALLEY":" ","HOUSE_NO":"４７２號","E_COORD97":159014.98999999999,"N_COORD97":2571090.8700000001,"ADDRESS":"三寮灣４７２號","OBJECTID":301916},"geometry":{"x":159014.99000000022,"y":2571090.870000001}},{"attributes":{"ID":301925,"DIS_CODE":0,"TOWNNAME":"關廟區","LI":"新光里","LIN":"6鄰","STREET":"北寮街","SECT":" ","MAREA":" ","LANE":" ","ALLEY":" ","HOUSE_NO":"８０號","E_COORD97":184206.26368100001,"N_COORD97":2541864.1754200002,"ADDRESS":"北寮街８０號","OBJECTID":301917},"geometry":{"x":184206.26368100103,"y":2541864.1754190009}},{"attributes":{"ID":301926,"DIS_CODE":0,"TOWNNAME":"新營區","LI":"南興里","LIN":"8鄰","STREET":"建業路","SECT":" ","MAREA":" ","LANE":"７８巷","ALLEY":" ","HOUSE_NO":"１號六樓之２","E_COORD97":179327.28,"N_COORD97":2577506.1800000002,"ADDRESS":"建業路７８巷１號六樓之２","OBJECTID":301918},"geometry":{"x":179327.28000000119,"y":2577506.1800000034}},{"attributes":{"ID":301927,"DIS_CODE":0,"TOWNNAME":"新營區","LI":"南興里","LIN":"8鄰","STREET":"建業路","SECT":" ","MAREA":" ","LANE":"７８巷","ALLEY":" ","HOUSE_NO":"１１號六樓之１","E_COORD97":179329.5,"N_COORD97":2577522.7799999998,"ADDRESS":"建業路７８巷１１號六樓之１","OBJECTID":301919},"geometry":{"x":179329.50000000093,"y":2577522.7800000012}},{"attributes":{"ID":301928,"DIS_CODE":0,"TOWNNAME":"新營區","LI":"南興里","LIN":"8鄰","STREET":"建業路","SECT":" ","MAREA":" ","LANE":"７８巷","ALLEY":" ","HOUSE_NO":"１１號十二樓之１","E_COORD97":179330.75,"N_COORD97":2577522.7799999998,"ADDRESS":"建業路７８巷１１號十二樓之１","OBJECTID":301920},"geometry":{"x":179330.75000000093,"y":2577522.7800000012}},{"attributes":{"ID":301929,"DIS_CODE":0,"TOWNNAME":"安平區","LI":"怡平里","LIN":"8鄰","STREET":"慶平路","SECT":" ","MAREA":" ","LANE":"１９３巷","ALLEY":" ","HOUSE_NO":"６號七樓之１","E_COORD97":165789.95999999999,"N_COORD97":2544149.1499999999,"ADDRESS":"慶平路１９３巷６號七樓之１","OBJECTID":301921},"geometry":{"x":165789.96000000089,"y":2544149.1500000041}},{"attributes":{"ID":301930,"DIS_CODE":0,"TOWNNAME":"安平區","LI":"怡平里","LIN":"8鄰","STREET":"慶平路","SECT":" ","MAREA":" ","LANE":"１９３巷","ALLEY":" ","HOUSE_NO":"６號七樓之１０","E_COORD97":165789.95999999999,"N_COORD97":2544149.1499999999,"ADDRESS":"慶平路１９３巷６號七樓之１０","OBJECTID":301922},"geometry":{"x":165789.96000000089,"y":2544149.1500000041}},{"attributes":{"ID":301931,"DIS_CODE":0,"TOWNNAME":"安平區","LI":"怡平里","LIN":"8鄰","STREET":"慶平路","SECT":" ","MAREA":" ","LANE":"１９３巷","ALLEY":" ","HOUSE_NO":"６號七樓之１１","E_COORD97":165789.95999999999,"N_COORD97":2544149.1499999999,"ADDRESS":"慶平路１９３巷６號七樓之１１","OBJECTID":301923},"geometry":{"x":165789.96000000089,"y":2544149.1500000041}},{"attributes":{"ID":301932,"DIS_CODE":0,"TOWNNAME":"安平區","LI":"怡平里","LIN":"8鄰","STREET":"慶平路","SECT":" ","MAREA":" ","LANE":"１９３巷","ALLEY":" ","HOUSE_NO":"６號七樓之１２","E_COORD97":165789.95999999999,"N_COORD97":2544149.1499999999,"ADDRESS":"慶平路１９３巷６號七樓之１２","OBJECTID":301924},"geometry":{"x":165789.96000000089,"y":2544149.1500000041}},{"attributes":{"ID":301933,"DIS_CODE":0,"TOWNNAME":"安平區","LI":"怡平里","LIN":"8鄰","STREET":"慶平路","SECT":" ","MAREA":" ","LANE":"１９３巷","ALLEY":" ","HOUSE_NO":"６號七樓之１３","E_COORD97":165789.95999999999,"N_COORD97":2544149.1499999999,"ADDRESS":"慶平路１９３巷６號七樓之１３","OBJECTID":301925},"geometry":{"x":165789.96000000089,"y":2544149.1500000041}},{"attributes":{"ID":301934,"DIS_CODE":0,"TOWNNAME":"安平區","LI":"怡平里","LIN":"8鄰","STREET":"慶平路","SECT":" ","MAREA":" ","LANE":"１９３巷","ALLEY":" ","HOUSE_NO":"６號七樓之３","E_COORD97":165789.95999999999,"N_COORD97":2544149.1499999999,"ADDRESS":"慶平路１９３巷６號七樓之３","OBJECTID":301926},"geometry":{"x":165789.96000000089,"y":2544149.1500000041}},{"attributes":{"ID":301935,"DIS_CODE":0,"TOWNNAME":"安平區","LI":"怡平里","LIN":"8鄰","STREET":"慶平路","SECT":" ","MAREA":" ","LANE":"１９３巷","ALLEY":" ","HOUSE_NO":"６號七樓之４","E_COORD97":165789.95999999999,"N_COORD97":2544149.1499999999,"ADDRESS":"慶平路１９３巷６號七樓之４","OBJECTID":301927},"geometry":{"x":165789.96000000089,"y":2544149.1500000041}},{"attributes":{"ID":301936,"DIS_CODE":0,"TOWNNAME":"安平區","LI":"怡平里","LIN":"8鄰","STREET":"慶平路","SECT":" ","MAREA":" ","LANE":"１９３巷","ALLEY":" ","HOUSE_NO":"６號七樓之５","E_COORD97":165789.95999999999,"N_COORD97":2544149.1499999999,"ADDRESS":"慶平路１９３巷６號七樓之５","OBJECTID":301928},"geometry":{"x":165789.96000000089,"y":2544149.1500000041}},{"attributes":{"ID":301937,"DIS_CODE":0,"TOWNNAME":"永康區","LI":"龍潭里","LIN":"39鄰","STREET":"永明街","SECT":" ","MAREA":" ","LANE":"２３１巷","ALLEY":" ","HOUSE_NO":"８號","E_COORD97":174582.53327700001,"N_COORD97":2547227.3673299998,"ADDRESS":"永明街２３１巷８號","OBJECTID":301929},"geometry":{"x":174582.53327700123,"y":2547227.367331}},{"attributes":{"ID":301938,"DIS_CODE":0,"TOWNNAME":"永康區","LI":"復華里","LIN":"31鄰","STREET":"復華八街","SECT":" ","MAREA":" ","LANE":"５１巷","ALLEY":" ","HOUSE_NO":"６３號","E_COORD97":172583.889605,"N_COORD97":2546408.3564499998,"ADDRESS":"復華八街５１巷６３號","OBJECTID":301930},"geometry":{"x":172583.88960500062,"y":2546408.3564520013}},{"attributes":{"ID":301939,"DIS_CODE":0,"TOWNNAME":"永康區","LI":"復華里","LIN":"31鄰","STREET":"復華八街","SECT":" ","MAREA":" ","LANE":"５１巷","ALLEY":" ","HOUSE_NO":"６５號","E_COORD97":172578.16828799999,"N_COORD97":2546407.50979,"ADDRESS":"復華八街５１巷６５號","OBJECTID":301931},"geometry":{"x":172578.16828800086,"y":2546407.5097860042}},{"attributes":{"ID":301940,"DIS_CODE":0,"TOWNNAME":"永康區","LI":"復華里","LIN":"31鄰","STREET":"復華八街","SECT":" ","MAREA":" ","LANE":"５１巷","ALLEY":" ","HOUSE_NO":"６７號","E_COORD97":172574.354077,"N_COORD97":2546407.50979,"ADDRESS":"復華八街５１巷６７號","OBJECTID":301932},"geometry":{"x":172574.3540770011,"y":2546407.5097860042}},{"attributes":{"ID":301941,"DIS_CODE":0,"TOWNNAME":"永康區","LI":"復華里","LIN":"31鄰","STREET":"復華八街","SECT":" ","MAREA":" ","LANE":"５１巷","ALLEY":" ","HOUSE_NO":"６９號","E_COORD97":172569.26846200001,"N_COORD97":2546407.2981199999,"ADDRESS":"復華八街５１巷６９號","OBJECTID":301933},"geometry":{"x":172569.26846200041,"y":2546407.298119003}},{"attributes":{"ID":301942,"DIS_CODE":0,"TOWNNAME":"新營區","LI":"王公里","LIN":"26鄰","STREET":"大公街","SECT":" ","MAREA":" ","LANE":" ","ALLEY":" ","HOUSE_NO":"２０號","E_COORD97":180162.938234,"N_COORD97":2579659.5396699999,"ADDRESS":"大公街２０號","OBJECTID":301934},"geometry":{"x":180162.9382340014,"y":2579659.5396689996}},{"attributes":{"ID":301943,"DIS_CODE":0,"TOWNNAME":"新營區","LI":"王公里","LIN":"26鄰","STREET":"大公街","SECT":" ","MAREA":" ","LANE":" ","ALLEY":" ","HOUSE_NO":"３０號","E_COORD97":180189.63539400001,"N_COORD97":2579656.36467,"ADDRESS":"大公街３０號","OBJECTID":301935},"geometry":{"x":180189.63539400138,"y":2579656.3646709993}},{"attributes":{"ID":301944,"DIS_CODE":0,"TOWNNAME":"新營區","LI":"王公里","LIN":"26鄰","STREET":"中正路","SECT":" ","MAREA":" ","LANE":" ","ALLEY":" ","HOUSE_NO":"１４０號","E_COORD97":180094.50027700001,"N_COORD97":2579660.8096699999,"ADDRESS":"中正路１４０號","OBJECTID":301936},"geometry":{"x":180094.50027699955,"y":2579660.8096680045}},{"attributes":{"ID":301945,"DIS_CODE":0,"TOWNNAME":"新營區","LI":"王公里","LIN":"26鄰","STREET":"中正路","SECT":" ","MAREA":" ","LANE":" ","ALLEY":" ","HOUSE_NO":"１４０號之１","E_COORD97":180095.34780600001,"N_COORD97":2579669.4879999999,"ADDRESS":"中正路１４０號之１","OBJECTID":301937},"geometry":{"x":180095.34780600201,"y":2579669.487997001}},{"attributes":{"ID":301946,"DIS_CODE":0,"TOWNNAME":"新營區","LI":"王公里","LIN":"25鄰","STREET":"公正街","SECT":" ","MAREA":" ","LANE":" ","ALLEY":" ","HOUSE_NO":"１２２號","E_COORD97":180157.853061,"N_COORD97":2579559.9505599998,"ADDRESS":"公正街１２２號","OBJECTID":301938},"geometry":{"x":180157.85306100082,"y":2579559.9505560026}},{"attributes":{"ID":301947,"DIS_CODE":0,"TOWNNAME":"新營區","LI":"王公里","LIN":"25鄰","STREET":"公正街","SECT":" ","MAREA":" ","LANE":" ","ALLEY":" ","HOUSE_NO":"１１１號","E_COORD97":180146.835185,"N_COORD97":2579534.55057,"ADDRESS":"公正街１１１號","OBJECTID":301939},"geometry":{"x":180146.83518500067,"y":2579534.5505700037}},{"attributes":{"ID":301948,"DIS_CODE":0,"TOWNNAME":"永康區","LI":"復華里","LIN":"30鄰","STREET":"復華十街","SECT":" ","MAREA":" ","LANE":" ","ALLEY":" ","HOUSE_NO":"４６號","E_COORD97":172641.10277500001,"N_COORD97":2546329.29899,"ADDRESS":"復華十街４６號","OBJECTID":301940},"geometry":{"x":172641.10277500097,"y":2546329.2989949975}},{"attributes":{"ID":301949,"DIS_CODE":0,"TOWNNAME":"安平區","LI":"怡平里","LIN":"8鄰","STREET":"慶平路","SECT":" ","MAREA":" ","LANE":"１９３巷","ALLEY":" ","HOUSE_NO":"６號七樓之６","E_COORD97":165789.95999999999,"N_COORD97":2544149.1499999999,"ADDRESS":"慶平路１９３巷６號七樓之６","OBJECTID":301941},"geometry":{"x":165789.96000000089,"y":2544149.1500000041}},{"attributes":{"ID":301950,"DIS_CODE":0,"TOWNNAME":"安平區","LI":"怡平里","LIN":"8鄰","STREET":"慶平路","SECT":" ","MAREA":" ","LANE":"１９３巷","ALLEY":" ","HOUSE_NO":"６號七樓之７","E_COORD97":165789.95999999999,"N_COORD97":2544149.1499999999,"ADDRESS":"慶平路１９３巷６號七樓之７","OBJECTID":301942},"geometry":{"x":165789.96000000089,"y":2544149.1500000041}},{"attributes":{"ID":301951,"DIS_CODE":0,"TOWNNAME":"安平區","LI":"怡平里","LIN":"8鄰","STREET":"慶平路","SECT":" ","MAREA":" ","LANE":"１９３巷","ALLEY":" ","HOUSE_NO":"６號七樓之８","E_COORD97":165789.95999999999,"N_COORD97":2544149.1499999999,"ADDRESS":"慶平路１９３巷６號七樓之８","OBJECTID":301943},"geometry":{"x":165789.96000000089,"y":2544149.1500000041}},{"attributes":{"ID":301952,"DIS_CODE":0,"TOWNNAME":"安平區","LI":"怡平里","LIN":"8鄰","STREET":"慶平路","SECT":" ","MAREA":" ","LANE":"１９３巷","ALLEY":" ","HOUSE_NO":"６號七樓之９","E_COORD97":165789.95999999999,"N_COORD97":2544149.1499999999,"ADDRESS":"慶平路１９３巷６號七樓之９","OBJECTID":301944},"geometry":{"x":165789.96000000089,"y":2544149.1500000041}},{"attributes":{"ID":301953,"DIS_CODE":0,"TOWNNAME":"安平區","LI":"怡平里","LIN":"8鄰","STREET":"慶平路","SECT":" ","MAREA":" ","LANE":"１９３巷","ALLEY":" ","HOUSE_NO":"６號二樓之１","E_COORD97":165789.95999999999,"N_COORD97":2544149.1499999999,"ADDRESS":"慶平路１９３巷６號二樓之１","OBJECTID":301945},"geometry":{"x":165789.96000000089,"y":2544149.1500000041}},{"attributes":{"ID":301954,"DIS_CODE":0,"TOWNNAME":"安平區","LI":"怡平里","LIN":"8鄰","STREET":"慶平路","SECT":" ","MAREA":" ","LANE":"１９３巷","ALLEY":" ","HOUSE_NO":"６號二樓之１０","E_COORD97":165789.95999999999,"N_COORD97":2544149.1499999999,"ADDRESS":"慶平路１９３巷６號二樓之１０","OBJECTID":301946},"geometry":{"x":165789.96000000089,"y":2544149.1500000041}},{"attributes":{"ID":301955,"DIS_CODE":0,"TOWNNAME":"安平區","LI":"怡平里","LIN":"8鄰","STREET":"慶平路","SECT":" ","MAREA":" ","LANE":"１９３巷","ALLEY":" ","HOUSE_NO":"６號二樓之１１","E_COORD97":165789.95999999999,"N_COORD97":2544149.1499999999,"ADDRESS":"慶平路１９３巷６號二樓之１１","OBJECTID":301947},"geometry":{"x":165789.96000000089,"y":2544149.1500000041}},{"attributes":{"ID":301956,"DIS_CODE":0,"TOWNNAME":"安平區","LI":"怡平里","LIN":"8鄰","STREET":"慶平路","SECT":" ","MAREA":" ","LANE":"１９３巷","ALLEY":" ","HOUSE_NO":"６號二樓之２","E_COORD97":165789.95999999999,"N_COORD97":2544149.1499999999,"ADDRESS":"慶平路１９３巷６號二樓之２","OBJECTID":301948},"geometry":{"x":165789.96000000089,"y":2544149.1500000041}},{"attributes":{"ID":301957,"DIS_CODE":0,"TOWNNAME":"安平區","LI":"怡平里","LIN":"8鄰","STREET":"慶平路","SECT":" ","MAREA":" ","LANE":"１９３巷","ALLEY":" ","HOUSE_NO":"６號二樓之３","E_COORD97":165789.95999999999,"N_COORD97":2544149.1499999999,"ADDRESS":"慶平路１９３巷６號二樓之３","OBJECTID":301949},"geometry":{"x":165789.96000000089,"y":2544149.1500000041}},{"attributes":{"ID":301958,"DIS_CODE":0,"TOWNNAME":"歸仁區","LI":"七甲里","LIN":"13鄰","STREET":"南丁路","SECT":" ","MAREA":" ","LANE":"４３７巷","ALLEY":" ","HOUSE_NO":"７９號","E_COORD97":175812.97276900001,"N_COORD97":2542769.3722100002,"ADDRESS":"南丁路４３７巷７９號","OBJECTID":301950},"geometry":{"x":175812.97276899964,"y":2542769.3722120021}},{"attributes":{"ID":301959,"DIS_CODE":0,"TOWNNAME":"安平區","LI":"怡平里","LIN":"8鄰","STREET":"慶平路","SECT":" ","MAREA":" ","LANE":"１９３巷","ALLEY":" ","HOUSE_NO":"６號二樓之４","E_COORD97":165789.95999999999,"N_COORD97":2544149.1499999999,"ADDRESS":"慶平路１９３巷６號二樓之４","OBJECTID":301951},"geometry":{"x":165789.96000000089,"y":2544149.1500000041}},{"attributes":{"ID":301960,"DIS_CODE":0,"TOWNNAME":"安平區","LI":"怡平里","LIN":"8鄰","STREET":"慶平路","SECT":" ","MAREA":" ","LANE":"１９３巷","ALLEY":" ","HOUSE_NO":"６號二樓之５","E_COORD97":165789.95999999999,"N_COORD97":2544149.1499999999,"ADDRESS":"慶平路１９３巷６號二樓之５","OBJECTID":301952},"geometry":{"x":165789.96000000089,"y":2544149.1500000041}},{"attributes":{"ID":301961,"DIS_CODE":0,"TOWNNAME":"安平區","LI":"怡平里","LIN":"8鄰","STREET":"慶平路","SECT":" ","MAREA":" ","LANE":"１９３巷","ALLEY":" ","HOUSE_NO":"６號二樓之６","E_COORD97":165789.95999999999,"N_COORD97":2544149.1499999999,"ADDRESS":"慶平路１９３巷６號二樓之６","OBJECTID":301953},"geometry":{"x":165789.96000000089,"y":2544149.1500000041}},{"attributes":{"ID":301962,"DIS_CODE":0,"TOWNNAME":"仁德區","LI":"中生里","LIN":"12鄰","STREET":" ","SECT":" ","MAREA":"中洲","LANE":" ","ALLEY":" ","HOUSE_NO":"２０１號","E_COORD97":173107.705338,"N_COORD97":2534122.5219299998,"ADDRESS":"中洲２０１號","OBJECTID":301954},"geometry":{"x":173107.70533800218,"y":2534122.5219300017}},{"attributes":{"ID":301963,"DIS_CODE":0,"TOWNNAME":"北門區","LI":"三光里","LIN":"4鄰","STREET":" ","SECT":" ","MAREA":"三寮灣","LANE":" ","ALLEY":" ","HOUSE_NO":"９２號","E_COORD97":159151.45999999999,"N_COORD97":2571012.29,"ADDRESS":"三寮灣９２號","OBJECTID":301955},"geometry":{"x":159151.46000000089,"y":2571012.2900000028}},{"attributes":{"ID":301964,"DIS_CODE":0,"TOWNNAME":"北門區","LI":"三光里","LIN":"4鄰","STREET":" ","SECT":" ","MAREA":"三寮灣","LANE":" ","ALLEY":" ","HOUSE_NO":"９３號","E_COORD97":159147.10000000001,"N_COORD97":2571012.0699999998,"ADDRESS":"三寮灣９３號","OBJECTID":301956},"geometry":{"x":159147.10000000056,"y":2571012.0700000022}},{"attributes":{"ID":301965,"DIS_CODE":0,"TOWNNAME":"北門區","LI":"三光里","LIN":"4鄰","STREET":" ","SECT":" ","MAREA":"三寮灣","LANE":" ","ALLEY":" ","HOUSE_NO":"９５號","E_COORD97":159135.32999999999,"N_COORD97":2571004.8399999999,"ADDRESS":"三寮灣９５號","OBJECTID":301957},"geometry":{"x":159135.33000000101,"y":2571004.8399999999}},{"attributes":{"ID":301966,"DIS_CODE":0,"TOWNNAME":"新營區","LI":"大宏里","LIN":"16鄰","STREET":"開元路","SECT":" ","MAREA":" ","LANE":"５９巷","ALLEY":" ","HOUSE_NO":"７６號","E_COORD97":180798.403616,"N_COORD97":2578872.9151400002,"ADDRESS":"開元路５９巷７６號","OBJECTID":301958},"geometry":{"x":180798.40361599997,"y":2578872.9151370004}},{"attributes":{"ID":301967,"DIS_CODE":0,"TOWNNAME":"關廟區","LI":"東勢里","LIN":"20鄰","STREET":"東榮街","SECT":" ","MAREA":" ","LANE":"７２巷","ALLEY":" ","HOUSE_NO":"１０號","E_COORD97":182030.06104199999,"N_COORD97":2539290.65986,"ADDRESS":"東榮街７２巷１０號","OBJECTID":301959},"geometry":{"x":182030.06104199961,"y":2539290.6598629989}},{"attributes":{"ID":301968,"DIS_CODE":0,"TOWNNAME":"關廟區","LI":"東勢里","LIN":"17鄰","STREET":"東仁街","SECT":" ","MAREA":" ","LANE":"２９巷","ALLEY":" ","HOUSE_NO":"３之１號","E_COORD97":181880.75953899999,"N_COORD97":2539279.81929,"ADDRESS":"東仁街２９巷３之１號","OBJECTID":301960},"geometry":{"x":181880.75953899976,"y":2539279.8192870021}},{"attributes":{"ID":301969,"DIS_CODE":0,"TOWNNAME":"仁德區","LI":"田厝里","LIN":"12鄰","STREET":"田厝一街","SECT":" ","MAREA":" ","LANE":" ","ALLEY":" ","HOUSE_NO":"２０６號","E_COORD97":172267.51373999999,"N_COORD97":2537834.98263,"ADDRESS":"田厝一街２０６號","OBJECTID":301961},"geometry":{"x":172267.51374000218,"y":2537834.9826270044}},{"attributes":{"ID":301970,"DIS_CODE":0,"TOWNNAME":"新營區","LI":"大宏里","LIN":"16鄰","STREET":"民治東路","SECT":" ","MAREA":" ","LANE":" ","ALLEY":" ","HOUSE_NO":"４７號","E_COORD97":180834.8714,"N_COORD97":2578892.91763,"ADDRESS":"民治東路４７號","OBJECTID":301962},"geometry":{"x":180834.87140000053,"y":2578892.9176260028}},{"attributes":{"ID":301971,"DIS_CODE":0,"TOWNNAME":"新營區","LI":"大宏里","LIN":"17鄰","STREET":"三民路","SECT":" ","MAREA":" ","LANE":" ","ALLEY":" ","HOUSE_NO":"４８號之２","E_COORD97":180306.51256,"N_COORD97":2578503.2395000001,"ADDRESS":"三民路４８號之２","OBJECTID":301963},"geometry":{"x":180306.51255999971,"y":2578503.2395000011}},{"attributes":{"ID":301972,"DIS_CODE":0,"TOWNNAME":"新營區","LI":"大宏里","LIN":"19鄰","STREET":"三民路","SECT":" ","MAREA":" ","LANE":" ","ALLEY":" ","HOUSE_NO":"３６號之４３","E_COORD97":180401.35320000001,"N_COORD97":2578536.66976,"ADDRESS":"三民路３６號之４３","OBJECTID":301964},"geometry":{"x":180401.35319999978,"y":2578536.66976}},{"attributes":{"ID":301973,"DIS_CODE":0,"TOWNNAME":"新營區","LI":"大宏里","LIN":"19鄰","STREET":"三民路","SECT":" ","MAREA":" ","LANE":" ","ALLEY":" ","HOUSE_NO":"３６號之４５","E_COORD97":180401.24718999999,"N_COORD97":2578532.85977,"ADDRESS":"三民路３６號之４５","OBJECTID":301965},"geometry":{"x":180401.24719000049,"y":2578532.85977}},{"attributes":{"ID":301974,"DIS_CODE":0,"TOWNNAME":"新營區","LI":"大宏里","LIN":"19鄰","STREET":"三民路","SECT":" ","MAREA":" ","LANE":" ","ALLEY":" ","HOUSE_NO":"３６之５１號","E_COORD97":180402.638404,"N_COORD97":2578522.26339,"ADDRESS":"三民路３６之５１號","OBJECTID":301966},"geometry":{"x":180402.63840399962,"y":2578522.263394}},{"attributes":{"ID":301975,"DIS_CODE":0,"TOWNNAME":"安平區","LI":"怡平里","LIN":"8鄰","STREET":"慶平路","SECT":" ","MAREA":" ","LANE":"１９３巷","ALLEY":" ","HOUSE_NO":"６號二樓之７","E_COORD97":165789.95999999999,"N_COORD97":2544149.1499999999,"ADDRESS":"慶平路１９３巷６號二樓之７","OBJECTID":301967},"geometry":{"x":165789.96000000089,"y":2544149.1500000041}},{"attributes":{"ID":301976,"DIS_CODE":0,"TOWNNAME":"安平區","LI":"怡平里","LIN":"8鄰","STREET":"慶平路","SECT":" ","MAREA":" ","LANE":"１９３巷","ALLEY":" ","HOUSE_NO":"６號二樓之８","E_COORD97":165789.95999999999,"N_COORD97":2544149.1499999999,"ADDRESS":"慶平路１９３巷６號二樓之８","OBJECTID":301968},"geometry":{"x":165789.96000000089,"y":2544149.1500000041}},{"attributes":{"ID":301977,"DIS_CODE":0,"TOWNNAME":"安平區","LI":"怡平里","LIN":"8鄰","STREET":"慶平路","SECT":" ","MAREA":" ","LANE":"１９３巷","ALLEY":" ","HOUSE_NO":"６號二樓之９","E_COORD97":165789.95999999999,"N_COORD97":2544149.1499999999,"ADDRESS":"慶平路１９３巷６號二樓之９","OBJECTID":301969},"geometry":{"x":165789.96000000089,"y":2544149.1500000041}},{"attributes":{"ID":301978,"DIS_CODE":0,"TOWNNAME":"安平區","LI":"怡平里","LIN":"8鄰","STREET":"慶平路","SECT":" ","MAREA":" ","LANE":"１９３巷","ALLEY":" ","HOUSE_NO":"６號八樓之１","E_COORD97":165789.95999999999,"N_COORD97":2544149.1499999999,"ADDRESS":"慶平路１９３巷６號八樓之１","OBJECTID":301970},"geometry":{"x":165789.96000000089,"y":2544149.1500000041}},{"attributes":{"ID":301979,"DIS_CODE":0,"TOWNNAME":"安平區","LI":"怡平里","LIN":"8鄰","STREET":"慶平路","SECT":" ","MAREA":" ","LANE":"１９３巷","ALLEY":" ","HOUSE_NO":"６號八樓之２","E_COORD97":165789.95999999999,"N_COORD97":2544149.1499999999,"ADDRESS":"慶平路１９３巷６號八樓之２","OBJECTID":301971},"geometry":{"x":165789.96000000089,"y":2544149.1500000041}},{"attributes":{"ID":301980,"DIS_CODE":0,"TOWNNAME":"安平區","LI":"怡平里","LIN":"8鄰","STREET":"慶平路","SECT":" ","MAREA":" ","LANE":"１９３巷","ALLEY":" ","HOUSE_NO":"６號八樓之４","E_COORD97":165789.95999999999,"N_COORD97":2544149.1499999999,"ADDRESS":"慶平路１９３巷６號八樓之４","OBJECTID":301972},"geometry":{"x":165789.96000000089,"y":2544149.1500000041}},{"attributes":{"ID":301981,"DIS_CODE":0,"TOWNNAME":"安平區","LI":"怡平里","LIN":"8鄰","STREET":"慶平路","SECT":" ","MAREA":" ","LANE":"１９３巷","ALLEY":" ","HOUSE_NO":"６號八樓之５","E_COORD97":165789.95999999999,"N_COORD97":2544149.1499999999,"ADDRESS":"慶平路１９３巷６號八樓之５","OBJECTID":301973},"geometry":{"x":165789.96000000089,"y":2544149.1500000041}},{"attributes":{"ID":301982,"DIS_CODE":0,"TOWNNAME":"北門區","LI":"三光里","LIN":"4鄰","STREET":" ","SECT":" ","MAREA":"三寮灣","LANE":" ","ALLEY":" ","HOUSE_NO":"９６號","E_COORD97":159116.64999999999,"N_COORD97":2570971.3799999999,"ADDRESS":"三寮灣９６號","OBJECTID":301974},"geometry":{"x":159116.6500000013,"y":2570971.3800000008}},{"attributes":{"ID":301983,"DIS_CODE":0,"TOWNNAME":"北門區","LI":"三光里","LIN":"4鄰","STREET":" ","SECT":" ","MAREA":"三寮灣","LANE":" ","ALLEY":" ","HOUSE_NO":"９７號","E_COORD97":159106.82000000001,"N_COORD97":2570969.5899999999,"ADDRESS":"三寮灣９７號","OBJECTID":301975},"geometry":{"x":159106.82000000123,"y":2570969.5899999999}},{"attributes":{"ID":301984,"DIS_CODE":0,"TOWNNAME":"安南區","LI":"安富里","LIN":"35鄰","STREET":"海佃路","SECT":"一段","MAREA":" ","LANE":"１５８巷","ALLEY":" ","HOUSE_NO":"１１２之１１號","E_COORD97":167540.445461,"N_COORD97":2547252.45988,"ADDRESS":"海佃路一段１５８巷１１２之１１號","OBJECTID":301976},"geometry":{"x":167540.44546100032,"y":2547252.4598800037}},{"attributes":{"ID":301985,"DIS_CODE":0,"TOWNNAME":"永康區","LI":"復華里","LIN":"30鄰","STREET":"復華八街","SECT":" ","MAREA":" ","LANE":"４７巷","ALLEY":" ","HOUSE_NO":"５３號","E_COORD97":172669.33877500001,"N_COORD97":2546359.0381499999,"ADDRESS":"復華八街４７巷５３號","OBJECTID":301977},"geometry":{"x":172669.3387749996,"y":2546359.038145002}},{"attributes":{"ID":301986,"DIS_CODE":0,"TOWNNAME":"永康區","LI":"復華里","LIN":"30鄰","STREET":"復華八街","SECT":" ","MAREA":" ","LANE":"４７巷","ALLEY":" ","HOUSE_NO":"５５號","E_COORD97":172668.70307300001,"N_COORD97":2546352.0531500001,"ADDRESS":"復華八街４７巷５５號","OBJECTID":301978},"geometry":{"x":172668.7030729996,"y":2546352.0531490035}},{"attributes":{"ID":301987,"DIS_CODE":0,"TOWNNAME":"南區","LI":"府南里","LIN":"10鄰","STREET":"永成路","SECT":"三段","MAREA":" ","LANE":" ","ALLEY":" ","HOUSE_NO":"３８５號","E_COORD97":167483.086342,"N_COORD97":2541357.98086,"ADDRESS":"永成路三段３８５號","OBJECTID":301979},"geometry":{"x":167483.08634200133,"y":2541357.9808630012}},{"attributes":{"ID":301988,"DIS_CODE":0,"TOWNNAME":"南區","LI":"府南里","LIN":"10鄰","STREET":"永成路","SECT":"三段","MAREA":" ","LANE":" ","ALLEY":" ","HOUSE_NO":"３９１號","E_COORD97":167473.98005700001,"N_COORD97":2541352.6891999999,"ADDRESS":"永成路三段３９１號","OBJECTID":301980},"geometry":{"x":167473.98005700111,"y":2541352.6891990025}},{"attributes":{"ID":301989,"DIS_CODE":0,"TOWNNAME":"仁德區","LI":"田厝里","LIN":"8鄰","STREET":"田厝二街","SECT":" ","MAREA":" ","LANE":" ","ALLEY":" ","HOUSE_NO":"３２號","E_COORD97":172442.417545,"N_COORD97":2537598.2695900002,"ADDRESS":"田厝二街３２號","OBJECTID":301981},"geometry":{"x":172442.41754500102,"y":2537598.2695860025}},{"attributes":{"ID":301990,"DIS_CODE":0,"TOWNNAME":"南區","LI":"府南里","LIN":"10鄰","STREET":"永成路","SECT":"三段","MAREA":" ","LANE":" ","ALLEY":" ","HOUSE_NO":"３９９號","E_COORD97":167486.051179,"N_COORD97":2541380.8408499998,"ADDRESS":"永成路三段３９９號","OBJECTID":301982},"geometry":{"x":167486.05117900111,"y":2541380.8408510033}},{"attributes":{"ID":301991,"DIS_CODE":0,"TOWNNAME":"仁德區","LI":"田厝里","LIN":"8鄰","STREET":"田厝二街","SECT":" ","MAREA":" ","LANE":" ","ALLEY":" ","HOUSE_NO":"４２號","E_COORD97":172425.78858600001,"N_COORD97":2537608.4824999999,"ADDRESS":"田厝二街４２號","OBJECTID":301983},"geometry":{"x":172425.78858600091,"y":2537608.4824969992}},{"attributes":{"ID":301992,"DIS_CODE":0,"TOWNNAME":"關廟區","LI":"東勢里","LIN":"25鄰","STREET":"光復街","SECT":" ","MAREA":" ","LANE":" ","ALLEY":" ","HOUSE_NO":"１５８之１號","E_COORD97":181523.21041900001,"N_COORD97":2539501.01083,"ADDRESS":"光復街１５８之１號","OBJECTID":301984},"geometry":{"x":181523.21041900013,"y":2539501.010834001}},{"attributes":{"ID":301993,"DIS_CODE":0,"TOWNNAME":"南區","LI":"府南里","LIN":"10鄰","STREET":"永成路","SECT":"三段","MAREA":" ","LANE":" ","ALLEY":" ","HOUSE_NO":"３６３號","E_COORD97":167484.56875999999,"N_COORD97":2541306.79195,"ADDRESS":"永成路三段３６３號","OBJECTID":301985},"geometry":{"x":167484.5687600011,"y":2541306.791948}},{"attributes":{"ID":301994,"DIS_CODE":0,"TOWNNAME":"仁德區","LI":"大甲里","LIN":"13鄰","STREET":"行大一街","SECT":" ","MAREA":" ","LANE":" ","ALLEY":" ","HOUSE_NO":"３４６號","E_COORD97":169524.70237000001,"N_COORD97":2535158.9882800002,"ADDRESS":"行大一街３４６號","OBJECTID":301986},"geometry":{"x":169524.70236999914,"y":2535158.988280002}},{"attributes":{"ID":301995,"DIS_CODE":0,"TOWNNAME":"南區","LI":"府南里","LIN":"10鄰","STREET":"永成路","SECT":"三段","MAREA":" ","LANE":" ","ALLEY":" ","HOUSE_NO":"３６１號","E_COORD97":167485.20408200001,"N_COORD97":2541295.3619499998,"ADDRESS":"永成路三段３６１號","OBJECTID":301987},"geometry":{"x":167485.204082001,"y":2541295.3619540017}},{"attributes":{"ID":301996,"DIS_CODE":0,"TOWNNAME":"南區","LI":"府南里","LIN":"10鄰","STREET":"永成路","SECT":"三段","MAREA":" ","LANE":" ","ALLEY":" ","HOUSE_NO":"３５９號","E_COORD97":167485.41585600001,"N_COORD97":2541288.37696,"ADDRESS":"永成路三段３５９號","OBJECTID":301988},"geometry":{"x":167485.4158560019,"y":2541288.3769580014}},{"attributes":{"ID":301997,"DIS_CODE":0,"TOWNNAME":"關廟區","LI":"新光里","LIN":"5鄰","STREET":"北寮街","SECT":" ","MAREA":" ","LANE":" ","ALLEY":" ","HOUSE_NO":"３７號","E_COORD97":184027.762349,"N_COORD97":2541816.1527800001,"ADDRESS":"北寮街３７號","OBJECTID":301989},"geometry":{"x":184027.7623490002,"y":2541816.1527840029}},{"attributes":{"ID":301998,"DIS_CODE":0,"TOWNNAME":"關廟區","LI":"新光里","LIN":"5鄰","STREET":"北寮街","SECT":" ","MAREA":" ","LANE":" ","ALLEY":" ","HOUSE_NO":"２７號","E_COORD97":184031.36417700001,"N_COORD97":2541893.62274,"ADDRESS":"北寮街２７號","OBJECTID":301990},"geometry":{"x":184031.36417699978,"y":2541893.6227420047}},{"attributes":{"ID":301999,"DIS_CODE":0,"TOWNNAME":"安平區","LI":"怡平里","LIN":"8鄰","STREET":"慶平路","SECT":" ","MAREA":" ","LANE":"１９３巷","ALLEY":" ","HOUSE_NO":"６號八樓之６","E_COORD97":165789.95999999999,"N_COORD97":2544149.1499999999,"ADDRESS":"慶平路１９３巷６號八樓之６","OBJECTID":301991},"geometry":{"x":165789.96000000089,"y":2544149.1500000041}},{"attributes":{"ID":302000,"DIS_CODE":0,"TOWNNAME":"南區","LI":"金華里","LIN":"18鄰","STREET":"惠南街","SECT":" ","MAREA":" ","LANE":"８４巷","ALLEY":" ","HOUSE_NO":"１２號","E_COORD97":166799.26000000001,"N_COORD97":2542286,"ADDRESS":"惠南街８４巷１２號","OBJECTID":301992},"geometry":{"x":166799.26000000164,"y":2542286.0000000019}},{"attributes":{"ID":302001,"DIS_CODE":0,"TOWNNAME":"南區","LI":"金華里","LIN":"18鄰","STREET":"惠南街","SECT":" ","MAREA":" ","LANE":"８４巷","ALLEY":" ","HOUSE_NO":"１４號","E_COORD97":166803.39999999999,"N_COORD97":2542286.4900000002,"ADDRESS":"惠南街８４巷１４號","OBJECTID":301993},"geometry":{"x":166803.40000000037,"y":2542286.4900000021}},{"attributes":{"ID":302002,"DIS_CODE":0,"TOWNNAME":"南區","LI":"金華里","LIN":"18鄰","STREET":"惠南街","SECT":" ","MAREA":" ","LANE":"８４巷","ALLEY":" ","HOUSE_NO":"１８號","E_COORD97":166812.17999999999,"N_COORD97":2542289.6600000001,"ADDRESS":"惠南街８４巷１８號","OBJECTID":301994},"geometry":{"x":166812.18000000063,"y":2542289.6600000001}},{"attributes":{"ID":302003,"DIS_CODE":0,"TOWNNAME":"南區","LI":"金華里","LIN":"18鄰","STREET":"惠南街","SECT":" ","MAREA":" ","LANE":"８４巷","ALLEY":" ","HOUSE_NO":"２０號","E_COORD97":166819.01000000001,"N_COORD97":2542289.6600000001,"ADDRESS":"惠南街８４巷２０號","OBJECTID":301995},"geometry":{"x":166819.00999999978,"y":2542289.6600000001}},{"attributes":{"ID":302004,"DIS_CODE":0,"TOWNNAME":"南區","LI":"金華里","LIN":"18鄰","STREET":"惠南街","SECT":" ","MAREA":" ","LANE":"８４巷","ALLEY":" ","HOUSE_NO":"６號","E_COORD97":166783.41,"N_COORD97":2542281.8599999999,"ADDRESS":"惠南街８４巷６號","OBJECTID":301996},"geometry":{"x":166783.41000000201,"y":2542281.8600000031}},{"attributes":{"ID":302005,"DIS_CODE":0,"TOWNNAME":"南區","LI":"金華里","LIN":"18鄰","STREET":"惠南街","SECT":" ","MAREA":" ","LANE":"８４巷","ALLEY":" ","HOUSE_NO":"８號","E_COORD97":166787.54999999999,"N_COORD97":2542283.5699999998,"ADDRESS":"惠南街８４巷８號","OBJECTID":301997},"geometry":{"x":166787.55000000075,"y":2542283.5700000003}},{"attributes":{"ID":302006,"DIS_CODE":0,"TOWNNAME":"安平區","LI":"怡平里","LIN":"8鄰","STREET":"慶平路","SECT":" ","MAREA":" ","LANE":"１９３巷","ALLEY":" ","HOUSE_NO":"６號八樓之７","E_COORD97":165789.95999999999,"N_COORD97":2544149.1499999999,"ADDRESS":"慶平路１９３巷６號八樓之７","OBJECTID":301998},"geometry":{"x":165789.96000000089,"y":2544149.1500000041}},{"attributes":{"ID":302007,"DIS_CODE":0,"TOWNNAME":"安平區","LI":"怡平里","LIN":"8鄰","STREET":"慶平路","SECT":" ","MAREA":" ","LANE":"１９３巷","ALLEY":" ","HOUSE_NO":"６號八樓之８","E_COORD97":165789.95999999999,"N_COORD97":2544149.1499999999,"ADDRESS":"慶平路１９３巷６號八樓之８","OBJECTID":301999},"geometry":{"x":165789.96000000089,"y":2544149.1500000041}},{"attributes":{"ID":302008,"DIS_CODE":0,"TOWNNAME":"安平區","LI":"怡平里","LIN":"8鄰","STREET":"慶平路","SECT":" ","MAREA":" ","LANE":"１９３巷","ALLEY":" ","HOUSE_NO":"６號八樓之９","E_COORD97":165789.95999999999,"N_COORD97":2544149.1499999999,"ADDRESS":"慶平路１９３巷６號八樓之９","OBJECTID":302000},"geometry":{"x":165789.96000000089,"y":2544149.1500000041}}]}