{"displayFieldName":"TOWNNAME","fieldAliases":{"ID":"ID","DIS_CODE":"DIS_CODE","TOWNNAME":"TOWNNAME","LI":"LI","LIN":"LIN","STREET":"STREET","SECT":"SECT","MAREA":"MAREA","LANE":"LANE","ALLEY":"ALLEY","HOUSE_NO":"HOUSE_NO","E_COORD97":"E_COORD97","N_COORD97":"N_COORD97","ADDRESS":"ADDRESS","OBJECTID":"OBJECTID"},"geometryType":"esriGeometryPoint","spatialReference":{"wkid":102443,"latestWkid":3826},"fields":[{"name":"ID","type":"esriFieldTypeDouble","alias":"ID"},{"name":"DIS_CODE","type":"esriFieldTypeInteger","alias":"DIS_CODE"},{"name":"TOWNNAME","type":"esriFieldTypeString","alias":"TOWNNAME","length":8},{"name":"LI","type":"esriFieldTypeString","alias":"LI","length":8},{"name":"LIN","type":"esriFieldTypeString","alias":"LIN","length":12},{"name":"STREET","type":"esriFieldTypeString","alias":"STREET","length":20},{"name":"SECT","type":"esriFieldTypeString","alias":"SECT","length":8},{"name":"MAREA","type":"esriFieldTypeString","alias":"MAREA","length":12},{"name":"LANE","type":"esriFieldTypeString","alias":"LANE","length":10},{"name":"ALLEY","type":"esriFieldTypeString","alias":"ALLEY","length":10},{"name":"HOUSE_NO","type":"esriFieldTypeString","alias":"HOUSE_NO","length":20},{"name":"E_COORD97","type":"esriFieldTypeDouble","alias":"E_COORD97"},{"name":"N_COORD97","type":"esriFieldTypeDouble","alias":"N_COORD97"},{"name":"ADDRESS","type":"esriFieldTypeString","alias":"ADDRESS","length":50},{"name":"OBJECTID","type":"esriFieldTypeOID","alias":"OBJECTID"}],"features":[{"attributes":{"ID":62801,"DIS_CODE":0,"TOWNNAME":"永康區","LI":"正強里","LIN":"31鄰","STREET":"自強路","SECT":" ","MAREA":" ","LANE":"２５５巷","ALLEY":"３５弄","HOUSE_NO":"２號之１９","E_COORD97":173129.66,"N_COORD97":2547586.5499999998,"ADDRESS":"自強路２５５巷３５弄２號之１９","OBJECTID":62801},"geometry":{"x":173129.66000000015,"y":2547586.5500000007}},{"attributes":{"ID":62802,"DIS_CODE":0,"TOWNNAME":"永康區","LI":"北灣里","LIN":"31鄰","STREET":"大同街","SECT":" ","MAREA":" ","LANE":"３３巷","ALLEY":"１６弄","HOUSE_NO":"１號","E_COORD97":175239.82000000001,"N_COORD97":2545358.71,"ADDRESS":"大同街３３巷１６弄１號","OBJECTID":62802},"geometry":{"x":175239.82000000216,"y":2545358.7100000009}},{"attributes":{"ID":62803,"DIS_CODE":0,"TOWNNAME":"新營區","LI":"鐵線里","LIN":"8鄰","STREET":" ","SECT":" ","MAREA":"鐵線橋","LANE":" ","ALLEY":" ","HOUSE_NO":"９５號","E_COORD97":175983.23000000001,"N_COORD97":2573897.73,"ADDRESS":"鐵線橋９５號","OBJECTID":62803},"geometry":{"x":175983.23000000138,"y":2573897.7300000004}},{"attributes":{"ID":62804,"DIS_CODE":0,"TOWNNAME":"新營區","LI":"鐵線里","LIN":"8鄰","STREET":" ","SECT":" ","MAREA":"鐵線橋","LANE":" ","ALLEY":" ","HOUSE_NO":"９２號","E_COORD97":175980.98000000001,"N_COORD97":2573856.77,"ADDRESS":"鐵線橋９２號","OBJECTID":62804},"geometry":{"x":175980.98000000045,"y":2573856.7699999996}},{"attributes":{"ID":62805,"DIS_CODE":0,"TOWNNAME":"新營區","LI":"角帶里","LIN":"8鄰","STREET":" ","SECT":" ","MAREA":"角帶圍","LANE":" ","ALLEY":" ","HOUSE_NO":"９３號","E_COORD97":174841.94,"N_COORD97":2575631.1000000001,"ADDRESS":"角帶圍９３號","OBJECTID":62805},"geometry":{"x":174841.94000000041,"y":2575631.0999999996}},{"attributes":{"ID":62806,"DIS_CODE":0,"TOWNNAME":"永康區","LI":"北灣里","LIN":"31鄰","STREET":"大同街","SECT":" ","MAREA":" ","LANE":"３３巷","ALLEY":"１６弄","HOUSE_NO":"８號","E_COORD97":175231.85000000001,"N_COORD97":2545372.8100000001,"ADDRESS":"大同街３３巷１６弄８號","OBJECTID":62806},"geometry":{"x":175231.84999999963,"y":2545372.8100000024}},{"attributes":{"ID":62807,"DIS_CODE":0,"TOWNNAME":"新營區","LI":"角帶里","LIN":"8鄰","STREET":" ","SECT":" ","MAREA":"角帶圍","LANE":" ","ALLEY":" ","HOUSE_NO":"９６號","E_COORD97":174895.39999999999,"N_COORD97":2575680.6600000001,"ADDRESS":"角帶圍９６號","OBJECTID":62807},"geometry":{"x":174895.4000000013,"y":2575680.660000002}},{"attributes":{"ID":62808,"DIS_CODE":0,"TOWNNAME":"新營區","LI":"鐵線里","LIN":"8鄰","STREET":" ","SECT":" ","MAREA":"鐵線橋","LANE":" ","ALLEY":" ","HOUSE_NO":"８６號","E_COORD97":175959.42000000001,"N_COORD97":2573821.4300000002,"ADDRESS":"鐵線橋８６號","OBJECTID":62808},"geometry":{"x":175959.42000000086,"y":2573821.4299999997}},{"attributes":{"ID":62809,"DIS_CODE":0,"TOWNNAME":"永康區","LI":"正強里","LIN":"31鄰","STREET":"自強路","SECT":" ","MAREA":" ","LANE":"２５５巷","ALLEY":"３５弄","HOUSE_NO":"９號","E_COORD97":173149.56,"N_COORD97":2547577.7400000002,"ADDRESS":"自強路２５５巷３５弄９號","OBJECTID":62809},"geometry":{"x":173149.56000000052,"y":2547577.7400000002}},{"attributes":{"ID":62810,"DIS_CODE":0,"TOWNNAME":"永康區","LI":"正強里","LIN":"31鄰","STREET":"自強路","SECT":" ","MAREA":" ","LANE":"２５５巷","ALLEY":"３５弄","HOUSE_NO":"１１號","E_COORD97":173150.91,"N_COORD97":2547573.25,"ADDRESS":"自強路２５５巷３５弄１１號","OBJECTID":62810},"geometry":{"x":173150.91000000108,"y":2547573.2500000019}},{"attributes":{"ID":62811,"DIS_CODE":0,"TOWNNAME":"新營區","LI":"舊部里","LIN":"8鄰","STREET":" ","SECT":" ","MAREA":"舊部","LANE":" ","ALLEY":" ","HOUSE_NO":"３５之２號","E_COORD97":177095.25,"N_COORD97":2575409.5,"ADDRESS":"舊部３５之２號","OBJECTID":62811},"geometry":{"x":177095.25,"y":2575409.5000000019}},{"attributes":{"ID":62812,"DIS_CODE":0,"TOWNNAME":"永康區","LI":"正強里","LIN":"31鄰","STREET":"自強路","SECT":" ","MAREA":" ","LANE":"２５５巷","ALLEY":"３５弄","HOUSE_NO":"２號之７","E_COORD97":173128.39999999999,"N_COORD97":2547586.5499999998,"ADDRESS":"自強路２５５巷３５弄２號之７","OBJECTID":62812},"geometry":{"x":173128.40000000037,"y":2547586.5500000007}},{"attributes":{"ID":62813,"DIS_CODE":0,"TOWNNAME":"麻豆區","LI":"大埕里","LIN":"8鄰","STREET":" ","SECT":" ","MAREA":"大埕","LANE":" ","ALLEY":" ","HOUSE_NO":"２１號之１８","E_COORD97":173166.76000000001,"N_COORD97":2565168.5,"ADDRESS":"大埕２１號之１８","OBJECTID":62813},"geometry":{"x":173166.76000000071,"y":2565168.5}},{"attributes":{"ID":62814,"DIS_CODE":0,"TOWNNAME":"新市區","LI":"大社里","LIN":"1鄰","STREET":" ","SECT":" ","MAREA":"大社","LANE":" ","ALLEY":" ","HOUSE_NO":"１２１之１號","E_COORD97":180273.01000000001,"N_COORD97":2554331.5499999998,"ADDRESS":"大社１２１之１號","OBJECTID":62814},"geometry":{"x":180273.01000000071,"y":2554331.5500000045}},{"attributes":{"ID":62815,"DIS_CODE":0,"TOWNNAME":"東山區","LI":"高原里","LIN":"8鄰","STREET":" ","SECT":" ","MAREA":"高原","LANE":" ","ALLEY":" ","HOUSE_NO":"６１號","E_COORD97":197023.35000000001,"N_COORD97":2575741.04,"ADDRESS":"高原６１號","OBJECTID":62815},"geometry":{"x":197023.34999999963,"y":2575741.040000001}},{"attributes":{"ID":62816,"DIS_CODE":0,"TOWNNAME":"東山區","LI":"高原里","LIN":"8鄰","STREET":" ","SECT":" ","MAREA":"高原","LANE":" ","ALLEY":" ","HOUSE_NO":"６２號","E_COORD97":197016.16,"N_COORD97":2575756.8100000001,"ADDRESS":"高原６２號","OBJECTID":62816},"geometry":{"x":197016.16000000108,"y":2575756.8100000042}},{"attributes":{"ID":62817,"DIS_CODE":0,"TOWNNAME":"永康區","LI":"正強里","LIN":"31鄰","STREET":"自強路","SECT":" ","MAREA":" ","LANE":"２５５巷","ALLEY":"３５弄","HOUSE_NO":"２號之２５","E_COORD97":173129.73000000001,"N_COORD97":2547586.5499999998,"ADDRESS":"自強路２５５巷３５弄２號之２５","OBJECTID":62817},"geometry":{"x":173129.73000000045,"y":2547586.5500000007}},{"attributes":{"ID":62818,"DIS_CODE":0,"TOWNNAME":"永康區","LI":"正強里","LIN":"31鄰","STREET":"自強路","SECT":" ","MAREA":" ","LANE":"２５５巷","ALLEY":"４２弄","HOUSE_NO":"１號之１１","E_COORD97":173120.95999999999,"N_COORD97":2547625.29,"ADDRESS":"自強路２５５巷４２弄１號之１１","OBJECTID":62818},"geometry":{"x":173120.95999999996,"y":2547625.2900000028}},{"attributes":{"ID":62819,"DIS_CODE":0,"TOWNNAME":"永康區","LI":"正強里","LIN":"31鄰","STREET":"自強路","SECT":" ","MAREA":" ","LANE":"２５５巷","ALLEY":"４２弄","HOUSE_NO":"１號之１６","E_COORD97":173121.07000000001,"N_COORD97":2547625.29,"ADDRESS":"自強路２５５巷４２弄１號之１６","OBJECTID":62819},"geometry":{"x":173121.07000000123,"y":2547625.2900000028}},{"attributes":{"ID":62820,"DIS_CODE":0,"TOWNNAME":"東山區","LI":"高原里","LIN":"8鄰","STREET":" ","SECT":" ","MAREA":"高原","LANE":" ","ALLEY":" ","HOUSE_NO":"６３號","E_COORD97":197039.29000000001,"N_COORD97":2575762.4300000002,"ADDRESS":"高原６３號","OBJECTID":62820},"geometry":{"x":197039.29000000004,"y":2575762.4300000016}},{"attributes":{"ID":62821,"DIS_CODE":0,"TOWNNAME":"永康區","LI":"北灣里","LIN":"31鄰","STREET":"大同街","SECT":" ","MAREA":" ","LANE":"３３巷","ALLEY":"１６弄","HOUSE_NO":"２０號","E_COORD97":175213.14999999999,"N_COORD97":2545376.5600000001,"ADDRESS":"大同街３３巷１６弄２０號","OBJECTID":62821},"geometry":{"x":175213.15000000037,"y":2545376.5600000005}},{"attributes":{"ID":62822,"DIS_CODE":0,"TOWNNAME":"永康區","LI":"正強里","LIN":"31鄰","STREET":"自強路","SECT":" ","MAREA":" ","LANE":"２５５巷","ALLEY":"３５弄","HOUSE_NO":"２號之２４","E_COORD97":173129.60000000001,"N_COORD97":2547586.5499999998,"ADDRESS":"自強路２５５巷３５弄２號之２４","OBJECTID":62822},"geometry":{"x":173129.59999999963,"y":2547586.5500000007}},{"attributes":{"ID":62823,"DIS_CODE":0,"TOWNNAME":"永康區","LI":"正強里","LIN":"31鄰","STREET":"自強路","SECT":" ","MAREA":" ","LANE":"２５５巷","ALLEY":"４２弄","HOUSE_NO":"１號之５","E_COORD97":173119.87,"N_COORD97":2547625.29,"ADDRESS":"自強路２５５巷４２弄１號之５","OBJECTID":62823},"geometry":{"x":173119.87000000011,"y":2547625.2900000028}},{"attributes":{"ID":62824,"DIS_CODE":0,"TOWNNAME":"永康區","LI":"正強里","LIN":"31鄰","STREET":"自強路","SECT":" ","MAREA":" ","LANE":"２５５巷","ALLEY":"３５弄","HOUSE_NO":"２號之１４","E_COORD97":173129.60000000001,"N_COORD97":2547586.5499999998,"ADDRESS":"自強路２５５巷３５弄２號之１４","OBJECTID":62824},"geometry":{"x":173129.59999999963,"y":2547586.5500000007}},{"attributes":{"ID":62825,"DIS_CODE":0,"TOWNNAME":"永康區","LI":"北灣里","LIN":"31鄰","STREET":"大同街","SECT":" ","MAREA":" ","LANE":"３３巷","ALLEY":"１６弄","HOUSE_NO":"２號","E_COORD97":175239.95000000001,"N_COORD97":2545371.5600000001,"ADDRESS":"大同街３３巷１６弄２號","OBJECTID":62825},"geometry":{"x":175239.95000000019,"y":2545371.5600000024}},{"attributes":{"ID":62826,"DIS_CODE":0,"TOWNNAME":"永康區","LI":"北灣里","LIN":"31鄰","STREET":"大同街","SECT":" ","MAREA":" ","LANE":"３３巷","ALLEY":"１６弄","HOUSE_NO":"１３號","E_COORD97":175217.32999999999,"N_COORD97":2545363.2000000002,"ADDRESS":"大同街３３巷１６弄１３號","OBJECTID":62826},"geometry":{"x":175217.33000000194,"y":2545363.1999999993}},{"attributes":{"ID":62827,"DIS_CODE":0,"TOWNNAME":"永康區","LI":"正強里","LIN":"31鄰","STREET":"自強路","SECT":" ","MAREA":" ","LANE":"２５５巷","ALLEY":"４２弄","HOUSE_NO":"１號之２０","E_COORD97":173121.01999999999,"N_COORD97":2547625.29,"ADDRESS":"自強路２５５巷４２弄１號之２０","OBJECTID":62827},"geometry":{"x":173121.02000000048,"y":2547625.2900000028}},{"attributes":{"ID":62828,"DIS_CODE":0,"TOWNNAME":"東山區","LI":"高原里","LIN":"8鄰","STREET":" ","SECT":" ","MAREA":"高原","LANE":" ","ALLEY":" ","HOUSE_NO":"６４號","E_COORD97":197060.14999999999,"N_COORD97":2575784.3799999999,"ADDRESS":"高原６４號","OBJECTID":62828},"geometry":{"x":197060.1500000013,"y":2575784.379999999}},{"attributes":{"ID":62829,"DIS_CODE":0,"TOWNNAME":"永康區","LI":"正強里","LIN":"31鄰","STREET":"自強路","SECT":" ","MAREA":" ","LANE":"２５５巷","ALLEY":"４２弄","HOUSE_NO":"１號之３","E_COORD97":173119.81,"N_COORD97":2547625.29,"ADDRESS":"自強路２５５巷４２弄１號之３","OBJECTID":62829},"geometry":{"x":173119.80999999959,"y":2547625.2900000028}},{"attributes":{"ID":62830,"DIS_CODE":0,"TOWNNAME":"東山區","LI":"高原里","LIN":"8鄰","STREET":" ","SECT":" ","MAREA":"高原","LANE":" ","ALLEY":" ","HOUSE_NO":"６６號","E_COORD97":197102.82999999999,"N_COORD97":2575814.9700000002,"ADDRESS":"高原６６號","OBJECTID":62830},"geometry":{"x":197102.83000000101,"y":2575814.9700000025}},{"attributes":{"ID":62831,"DIS_CODE":0,"TOWNNAME":"永康區","LI":"正強里","LIN":"31鄰","STREET":"自強路","SECT":" ","MAREA":" ","LANE":"２５５巷","ALLEY":"４２弄","HOUSE_NO":"１號","E_COORD97":173117.57999999999,"N_COORD97":2547625.2400000002,"ADDRESS":"自強路２５５巷４２弄１號","OBJECTID":62831},"geometry":{"x":173117.58000000101,"y":2547625.2400000002}},{"attributes":{"ID":62832,"DIS_CODE":0,"TOWNNAME":"永康區","LI":"正強里","LIN":"31鄰","STREET":"自強路","SECT":" ","MAREA":" ","LANE":"２５５巷","ALLEY":"３５弄","HOUSE_NO":"２號之６","E_COORD97":173128.42999999999,"N_COORD97":2547586.5499999998,"ADDRESS":"自強路２５５巷３５弄２號之６","OBJECTID":62832},"geometry":{"x":173128.43000000063,"y":2547586.5500000007}},{"attributes":{"ID":62833,"DIS_CODE":0,"TOWNNAME":"麻豆區","LI":"大埕里","LIN":"8鄰","STREET":" ","SECT":" ","MAREA":"大埕","LANE":" ","ALLEY":" ","HOUSE_NO":"２１號之１９","E_COORD97":173169.39999999999,"N_COORD97":2565174.4300000002,"ADDRESS":"大埕２１號之１９","OBJECTID":62833},"geometry":{"x":173169.40000000224,"y":2565174.4300000016}},{"attributes":{"ID":62834,"DIS_CODE":0,"TOWNNAME":"永康區","LI":"正強里","LIN":"31鄰","STREET":"自強路","SECT":" ","MAREA":" ","LANE":"２５５巷","ALLEY":"３５弄","HOUSE_NO":"７號","E_COORD97":173149.44,"N_COORD97":2547582.5,"ADDRESS":"自強路２５５巷３５弄７號","OBJECTID":62834},"geometry":{"x":173149.44000000134,"y":2547582.5}},{"attributes":{"ID":62835,"DIS_CODE":0,"TOWNNAME":"麻豆區","LI":"大埕里","LIN":"8鄰","STREET":" ","SECT":" ","MAREA":"大埕","LANE":" ","ALLEY":" ","HOUSE_NO":"２１號之２０","E_COORD97":173172.03,"N_COORD97":2565180.1499999999,"ADDRESS":"大埕２１號之２０","OBJECTID":62835},"geometry":{"x":173172.03000000119,"y":2565180.1500000022}},{"attributes":{"ID":62836,"DIS_CODE":0,"TOWNNAME":"歸仁區","LI":"歸仁里","LIN":"8鄰","STREET":"和平北街","SECT":" ","MAREA":" ","LANE":" ","ALLEY":" ","HOUSE_NO":"１６號","E_COORD97":177848.48999999999,"N_COORD97":2540829.1699999999,"ADDRESS":"和平北街１６號","OBJECTID":62836},"geometry":{"x":177848.49000000022,"y":2540829.1700000037}},{"attributes":{"ID":62837,"DIS_CODE":0,"TOWNNAME":"歸仁區","LI":"媽廟里","LIN":"8鄰","STREET":"和順路","SECT":"一段","MAREA":" ","LANE":" ","ALLEY":" ","HOUSE_NO":"２２號","E_COORD97":177470.47,"N_COORD97":2543722.7200000002,"ADDRESS":"和順路一段２２號","OBJECTID":62837},"geometry":{"x":177470.46999999974,"y":2543722.7200000025}},{"attributes":{"ID":62838,"DIS_CODE":0,"TOWNNAME":"新市區","LI":"永就里","LIN":"1鄰","STREET":" ","SECT":" ","MAREA":"永就","LANE":" ","ALLEY":" ","HOUSE_NO":"３之４號","E_COORD97":178441.64000000001,"N_COORD97":2551268.0499999998,"ADDRESS":"永就３之４號","OBJECTID":62838},"geometry":{"x":178441.63999999966,"y":2551268.0500000026}},{"attributes":{"ID":62839,"DIS_CODE":0,"TOWNNAME":"新市區","LI":"社內里","LIN":"1鄰","STREET":" ","SECT":" ","MAREA":"社內","LANE":" ","ALLEY":" ","HOUSE_NO":"９之２號","E_COORD97":176792.64000000001,"N_COORD97":2553011.7999999998,"ADDRESS":"社內９之２號","OBJECTID":62839},"geometry":{"x":176792.63999999966,"y":2553011.8000000026}},{"attributes":{"ID":62840,"DIS_CODE":0,"TOWNNAME":"新市區","LI":"社內里","LIN":"1鄰","STREET":" ","SECT":" ","MAREA":"社內","LANE":" ","ALLEY":" ","HOUSE_NO":"６之１號","E_COORD97":176835.37,"N_COORD97":2553013.2999999998,"ADDRESS":"社內６之１號","OBJECTID":62840},"geometry":{"x":176835.37000000011,"y":2553013.3000000007}},{"attributes":{"ID":62841,"DIS_CODE":0,"TOWNNAME":"新市區","LI":"永就里","LIN":"1鄰","STREET":" ","SECT":" ","MAREA":"永就","LANE":" ","ALLEY":" ","HOUSE_NO":"１５之２號","E_COORD97":178281.79000000001,"N_COORD97":2551354.0499999998,"ADDRESS":"永就１５之２號","OBJECTID":62841},"geometry":{"x":178281.79000000004,"y":2551354.0500000007}},{"attributes":{"ID":62842,"DIS_CODE":0,"TOWNNAME":"新市區","LI":"社內里","LIN":"1鄰","STREET":" ","SECT":" ","MAREA":"社內","LANE":" ","ALLEY":" ","HOUSE_NO":"８之９號","E_COORD97":176797.89000000001,"N_COORD97":2553045.7999999998,"ADDRESS":"社內８之９號","OBJECTID":62842},"geometry":{"x":176797.88999999966,"y":2553045.8000000026}},{"attributes":{"ID":62843,"DIS_CODE":0,"TOWNNAME":"永康區","LI":"正強里","LIN":"31鄰","STREET":"自強路","SECT":" ","MAREA":" ","LANE":"２５５巷","ALLEY":"４２弄","HOUSE_NO":"１號之９","E_COORD97":173119.79999999999,"N_COORD97":2547625.29,"ADDRESS":"自強路２５５巷４２弄１號之９","OBJECTID":62843},"geometry":{"x":173119.79999999981,"y":2547625.2900000028}},{"attributes":{"ID":62844,"DIS_CODE":0,"TOWNNAME":"新市區","LI":"永就里","LIN":"1鄰","STREET":" ","SECT":" ","MAREA":"永就","LANE":" ","ALLEY":" ","HOUSE_NO":"１４之３號","E_COORD97":178352.76000000001,"N_COORD97":2551327.2999999998,"ADDRESS":"永就１４之３號","OBJECTID":62844},"geometry":{"x":178352.76000000071,"y":2551327.3000000026}},{"attributes":{"ID":62845,"DIS_CODE":0,"TOWNNAME":"新市區","LI":"社內里","LIN":"1鄰","STREET":" ","SECT":" ","MAREA":"社內","LANE":" ","ALLEY":" ","HOUSE_NO":"２之８號","E_COORD97":177060.5,"N_COORD97":2553008.7999999998,"ADDRESS":"社內２之８號","OBJECTID":62845},"geometry":{"x":177060.50000000186,"y":2553008.8000000026}},{"attributes":{"ID":62846,"DIS_CODE":0,"TOWNNAME":"永康區","LI":"正強里","LIN":"31鄰","STREET":"自強路","SECT":" ","MAREA":" ","LANE":"２５５巷","ALLEY":"２６弄","HOUSE_NO":"５號","E_COORD97":173173.84,"N_COORD97":2547641.7400000002,"ADDRESS":"自強路２５５巷２６弄５號","OBJECTID":62846},"geometry":{"x":173173.83999999985,"y":2547641.7400000021}},{"attributes":{"ID":62847,"DIS_CODE":0,"TOWNNAME":"新市區","LI":"社內里","LIN":"1鄰","STREET":" ","SECT":" ","MAREA":"社內","LANE":" ","ALLEY":" ","HOUSE_NO":"３之２號","E_COORD97":176918.31,"N_COORD97":2552953.7999999998,"ADDRESS":"社內３之２號","OBJECTID":62847},"geometry":{"x":176918.30999999959,"y":2552953.8000000026}},{"attributes":{"ID":62848,"DIS_CODE":0,"TOWNNAME":"永康區","LI":"正強里","LIN":"31鄰","STREET":"自強路","SECT":" ","MAREA":" ","LANE":"２５５巷","ALLEY":"４２弄","HOUSE_NO":"１號之１４","E_COORD97":173120.98999999999,"N_COORD97":2547625.29,"ADDRESS":"自強路２５５巷４２弄１號之１４","OBJECTID":62848},"geometry":{"x":173120.99000000022,"y":2547625.2900000028}},{"attributes":{"ID":62849,"DIS_CODE":0,"TOWNNAME":"永康區","LI":"正強里","LIN":"31鄰","STREET":"自強路","SECT":" ","MAREA":" ","LANE":"２５５巷","ALLEY":"３５弄","HOUSE_NO":"２號之２９","E_COORD97":173129.66,"N_COORD97":2547586.5499999998,"ADDRESS":"自強路２５５巷３５弄２號之２９","OBJECTID":62849},"geometry":{"x":173129.66000000015,"y":2547586.5500000007}},{"attributes":{"ID":62850,"DIS_CODE":0,"TOWNNAME":"新市區","LI":"永就里","LIN":"1鄰","STREET":" ","SECT":" ","MAREA":"永就","LANE":" ","ALLEY":" ","HOUSE_NO":"１４號","E_COORD97":178357.42000000001,"N_COORD97":2551312.25,"ADDRESS":"永就１４號","OBJECTID":62850},"geometry":{"x":178357.41999999993,"y":2551312.2500000019}},{"attributes":{"ID":62851,"DIS_CODE":0,"TOWNNAME":"永康區","LI":"北灣里","LIN":"31鄰","STREET":"大同街","SECT":" ","MAREA":" ","LANE":"３３巷","ALLEY":"１６弄","HOUSE_NO":"１１號","E_COORD97":175221.32999999999,"N_COORD97":2545362.4500000002,"ADDRESS":"大同街３３巷１６弄１１號","OBJECTID":62851},"geometry":{"x":175221.33000000101,"y":2545362.4499999993}},{"attributes":{"ID":62852,"DIS_CODE":0,"TOWNNAME":"新市區","LI":"社內里","LIN":"1鄰","STREET":" ","SECT":" ","MAREA":"社內","LANE":" ","ALLEY":" ","HOUSE_NO":"１４之２５號","E_COORD97":176818.54000000001,"N_COORD97":2552961.0499999998,"ADDRESS":"社內１４之２５號","OBJECTID":62852},"geometry":{"x":176818.54000000097,"y":2552961.0500000007}},{"attributes":{"ID":62853,"DIS_CODE":0,"TOWNNAME":"永康區","LI":"正強里","LIN":"31鄰","STREET":"自強路","SECT":" ","MAREA":" ","LANE":"２５５巷","ALLEY":"３５弄","HOUSE_NO":"５號","E_COORD97":173149.14000000001,"N_COORD97":2547587.25,"ADDRESS":"自強路２５５巷３５弄５號","OBJECTID":62853},"geometry":{"x":173149.1400000006,"y":2547587.2500000019}},{"attributes":{"ID":62854,"DIS_CODE":0,"TOWNNAME":"永康區","LI":"正強里","LIN":"31鄰","STREET":"自強路","SECT":" ","MAREA":" ","LANE":"２５５巷","ALLEY":"３５弄","HOUSE_NO":"２號之５","E_COORD97":173128.48000000001,"N_COORD97":2547586.5499999998,"ADDRESS":"自強路２５５巷３５弄２號之５","OBJECTID":62854},"geometry":{"x":173128.48000000138,"y":2547586.5500000007}},{"attributes":{"ID":62855,"DIS_CODE":0,"TOWNNAME":"永康區","LI":"正強里","LIN":"31鄰","STREET":"自強路","SECT":" ","MAREA":" ","LANE":"２５５巷","ALLEY":"４２弄","HOUSE_NO":"１號之１０","E_COORD97":173121.01999999999,"N_COORD97":2547625.29,"ADDRESS":"自強路２５５巷４２弄１號之１０","OBJECTID":62855},"geometry":{"x":173121.02000000048,"y":2547625.2900000028}},{"attributes":{"ID":62856,"DIS_CODE":0,"TOWNNAME":"新市區","LI":"永就里","LIN":"1鄰","STREET":" ","SECT":" ","MAREA":"永就","LANE":" ","ALLEY":" ","HOUSE_NO":"６之２號","E_COORD97":178552.01000000001,"N_COORD97":2551222.2999999998,"ADDRESS":"永就６之２號","OBJECTID":62856},"geometry":{"x":178552.01000000164,"y":2551222.3000000026}},{"attributes":{"ID":62857,"DIS_CODE":0,"TOWNNAME":"東區","LI":"忠孝里","LIN":"31鄰","STREET":"中華東路","SECT":"三段","MAREA":" ","LANE":"４５２巷","ALLEY":"８弄","HOUSE_NO":"３０號二樓","E_COORD97":169988.57000000001,"N_COORD97":2541617.6099999999,"ADDRESS":"中華東路三段４５２巷８弄３０號二樓","OBJECTID":62857},"geometry":{"x":169988.57000000123,"y":2541617.6099999994}},{"attributes":{"ID":62858,"DIS_CODE":0,"TOWNNAME":"新市區","LI":"社內里","LIN":"1鄰","STREET":" ","SECT":" ","MAREA":"社內","LANE":" ","ALLEY":" ","HOUSE_NO":"１３之８號","E_COORD97":176892.92000000001,"N_COORD97":2552991.2999999998,"ADDRESS":"社內１３之８號","OBJECTID":62858},"geometry":{"x":176892.91999999993,"y":2552991.3000000026}},{"attributes":{"ID":62859,"DIS_CODE":0,"TOWNNAME":"新市區","LI":"永就里","LIN":"1鄰","STREET":" ","SECT":" ","MAREA":"永就","LANE":" ","ALLEY":" ","HOUSE_NO":"６之２０號","E_COORD97":178639.70000000001,"N_COORD97":2551047.5499999998,"ADDRESS":"永就６之２０號","OBJECTID":62859},"geometry":{"x":178639.70000000112,"y":2551047.5500000026}},{"attributes":{"ID":62860,"DIS_CODE":0,"TOWNNAME":"新市區","LI":"永就里","LIN":"1鄰","STREET":" ","SECT":" ","MAREA":"永就","LANE":" ","ALLEY":" ","HOUSE_NO":"１３之３號","E_COORD97":178367.34,"N_COORD97":2551255.5499999998,"ADDRESS":"永就１３之３號","OBJECTID":62860},"geometry":{"x":178367.34000000078,"y":2551255.5500000007}},{"attributes":{"ID":62861,"DIS_CODE":0,"TOWNNAME":"東區","LI":"忠孝里","LIN":"31鄰","STREET":"中華東路","SECT":"三段","MAREA":" ","LANE":"４５２巷","ALLEY":"８弄","HOUSE_NO":"３０號三樓","E_COORD97":169988.57000000001,"N_COORD97":2541617.6099999999,"ADDRESS":"中華東路三段４５２巷８弄３０號三樓","OBJECTID":62861},"geometry":{"x":169988.57000000123,"y":2541617.6099999994}},{"attributes":{"ID":62862,"DIS_CODE":0,"TOWNNAME":"東區","LI":"忠孝里","LIN":"31鄰","STREET":"中華東路","SECT":"三段","MAREA":" ","LANE":"４５２巷","ALLEY":"８弄","HOUSE_NO":"３０號四樓","E_COORD97":169988.57000000001,"N_COORD97":2541617.6099999999,"ADDRESS":"中華東路三段４５２巷８弄３０號四樓","OBJECTID":62862},"geometry":{"x":169988.57000000123,"y":2541617.6099999994}},{"attributes":{"ID":62863,"DIS_CODE":0,"TOWNNAME":"新市區","LI":"社內里","LIN":"1鄰","STREET":" ","SECT":" ","MAREA":"社內","LANE":" ","ALLEY":" ","HOUSE_NO":"１４之５號","E_COORD97":176856.23000000001,"N_COORD97":2552932.2999999998,"ADDRESS":"社內１４之５號","OBJECTID":62863},"geometry":{"x":176856.23000000138,"y":2552932.3000000007}},{"attributes":{"ID":62864,"DIS_CODE":0,"TOWNNAME":"新市區","LI":"社內里","LIN":"1鄰","STREET":" ","SECT":" ","MAREA":"社內","LANE":" ","ALLEY":" ","HOUSE_NO":"１４之２３號","E_COORD97":176823,"N_COORD97":2552961.0499999998,"ADDRESS":"社內１４之２３號","OBJECTID":62864},"geometry":{"x":176823,"y":2552961.0500000007}},{"attributes":{"ID":62865,"DIS_CODE":0,"TOWNNAME":"新市區","LI":"社內里","LIN":"1鄰","STREET":" ","SECT":" ","MAREA":"社內","LANE":" ","ALLEY":" ","HOUSE_NO":"１４之９號","E_COORD97":176834.89000000001,"N_COORD97":2552926.0499999998,"ADDRESS":"社內１４之９號","OBJECTID":62865},"geometry":{"x":176834.88999999966,"y":2552926.0500000026}},{"attributes":{"ID":62866,"DIS_CODE":0,"TOWNNAME":"東區","LI":"忠孝里","LIN":"31鄰","STREET":"中華東路","SECT":"三段","MAREA":" ","LANE":"４５２巷","ALLEY":"８弄","HOUSE_NO":"３０號五樓","E_COORD97":169988.57000000001,"N_COORD97":2541617.6099999999,"ADDRESS":"中華東路三段４５２巷８弄３０號五樓","OBJECTID":62866},"geometry":{"x":169988.57000000123,"y":2541617.6099999994}},{"attributes":{"ID":62867,"DIS_CODE":0,"TOWNNAME":"新市區","LI":"社內里","LIN":"1鄰","STREET":" ","SECT":" ","MAREA":"社內","LANE":" ","ALLEY":" ","HOUSE_NO":"１４之１５號","E_COORD97":176856.84,"N_COORD97":2552963.7999999998,"ADDRESS":"社內１４之１５號","OBJECTID":62867},"geometry":{"x":176856.84000000078,"y":2552963.8000000026}},{"attributes":{"ID":62868,"DIS_CODE":0,"TOWNNAME":"新市區","LI":"社內里","LIN":"1鄰","STREET":" ","SECT":" ","MAREA":"社內","LANE":" ","ALLEY":" ","HOUSE_NO":"１４之３１號","E_COORD97":176837.95000000001,"N_COORD97":2552976.2999999998,"ADDRESS":"社內１４之３１號","OBJECTID":62868},"geometry":{"x":176837.95000000112,"y":2552976.3000000007}},{"attributes":{"ID":62869,"DIS_CODE":0,"TOWNNAME":"關廟區","LI":"新埔里","LIN":"8鄰","STREET":"新埔三街","SECT":" ","MAREA":" ","LANE":" ","ALLEY":" ","HOUSE_NO":"１２９號","E_COORD97":181230.42000000001,"N_COORD97":2541107.25,"ADDRESS":"新埔三街１２９號","OBJECTID":62869},"geometry":{"x":181230.41999999993,"y":2541107.2500000019}},{"attributes":{"ID":62870,"DIS_CODE":0,"TOWNNAME":"關廟區","LI":"深坑里","LIN":"8鄰","STREET":"深坑三街","SECT":" ","MAREA":" ","LANE":" ","ALLEY":" ","HOUSE_NO":"６號","E_COORD97":181720.51999999999,"N_COORD97":2537837.2999999998,"ADDRESS":"深坑三街６號","OBJECTID":62870},"geometry":{"x":181720.52000000048,"y":2537837.3000000007}},{"attributes":{"ID":62871,"DIS_CODE":0,"TOWNNAME":"新市區","LI":"社內里","LIN":"1鄰","STREET":" ","SECT":" ","MAREA":"社內","LANE":" ","ALLEY":" ","HOUSE_NO":"１３之４號","E_COORD97":176890.20000000001,"N_COORD97":2552956.0499999998,"ADDRESS":"社內１３之４號","OBJECTID":62871},"geometry":{"x":176890.20000000112,"y":2552956.0500000026}},{"attributes":{"ID":62872,"DIS_CODE":0,"TOWNNAME":"新化區","LI":"崙頂里","LIN":"8鄰","STREET":" ","SECT":" ","MAREA":"崙子頂","LANE":" ","ALLEY":" ","HOUSE_NO":"３３２號","E_COORD97":176740.53,"N_COORD97":2546888.25,"ADDRESS":"崙子頂３３２號","OBJECTID":62872},"geometry":{"x":176740.53000000119,"y":2546888.2500000019}},{"attributes":{"ID":62873,"DIS_CODE":0,"TOWNNAME":"麻豆區","LI":"大埕里","LIN":"8鄰","STREET":" ","SECT":" ","MAREA":"大埕","LANE":" ","ALLEY":" ","HOUSE_NO":"２１號之２１","E_COORD97":173174.25,"N_COORD97":2565184.7999999998,"ADDRESS":"大埕２１號之２１","OBJECTID":62873},"geometry":{"x":173174.25000000093,"y":2565184.8000000007}},{"attributes":{"ID":62874,"DIS_CODE":0,"TOWNNAME":"東區","LI":"忠孝里","LIN":"31鄰","STREET":"中華東路","SECT":"三段","MAREA":" ","LANE":"４５２巷","ALLEY":"８弄","HOUSE_NO":"３２號二樓","E_COORD97":169997.29000000001,"N_COORD97":2541619.4199999999,"ADDRESS":"中華東路三段４５２巷８弄３２號二樓","OBJECTID":62874},"geometry":{"x":169997.29000000004,"y":2541619.4199999999}},{"attributes":{"ID":62875,"DIS_CODE":0,"TOWNNAME":"東區","LI":"忠孝里","LIN":"31鄰","STREET":"中華東路","SECT":"三段","MAREA":" ","LANE":"４５２巷","ALLEY":"８弄","HOUSE_NO":"３２號三樓","E_COORD97":169997.29000000001,"N_COORD97":2541619.4199999999,"ADDRESS":"中華東路三段４５２巷８弄３２號三樓","OBJECTID":62875},"geometry":{"x":169997.29000000004,"y":2541619.4199999999}},{"attributes":{"ID":62876,"DIS_CODE":0,"TOWNNAME":"東區","LI":"忠孝里","LIN":"31鄰","STREET":"中華東路","SECT":"三段","MAREA":" ","LANE":"４５２巷","ALLEY":"８弄","HOUSE_NO":"３２號四樓","E_COORD97":169997.29000000001,"N_COORD97":2541619.4199999999,"ADDRESS":"中華東路三段４５２巷８弄３２號四樓","OBJECTID":62876},"geometry":{"x":169997.29000000004,"y":2541619.4199999999}},{"attributes":{"ID":62877,"DIS_CODE":0,"TOWNNAME":"新市區","LI":"社內里","LIN":"1鄰","STREET":" ","SECT":" ","MAREA":"社內","LANE":" ","ALLEY":" ","HOUSE_NO":"１４之１號","E_COORD97":176876.54000000001,"N_COORD97":2552946.2999999998,"ADDRESS":"社內１４之１號","OBJECTID":62877},"geometry":{"x":176876.54000000004,"y":2552946.2999999989}},{"attributes":{"ID":62878,"DIS_CODE":0,"TOWNNAME":"東區","LI":"忠孝里","LIN":"31鄰","STREET":"中華東路","SECT":"三段","MAREA":" ","LANE":"４５２巷","ALLEY":"８弄","HOUSE_NO":"３２號五樓","E_COORD97":169997.29000000001,"N_COORD97":2541619.4199999999,"ADDRESS":"中華東路三段４５２巷８弄３２號五樓","OBJECTID":62878},"geometry":{"x":169997.29000000004,"y":2541619.4199999999}},{"attributes":{"ID":62879,"DIS_CODE":0,"TOWNNAME":"永康區","LI":"勝利里","LIN":"31鄰","STREET":"勝利街","SECT":" ","MAREA":" ","LANE":"３０巷","ALLEY":"７弄","HOUSE_NO":"１號","E_COORD97":171366.73000000001,"N_COORD97":2544516.75,"ADDRESS":"勝利街３０巷７弄１號","OBJECTID":62879},"geometry":{"x":171366.73000000045,"y":2544516.75}},{"attributes":{"ID":62880,"DIS_CODE":0,"TOWNNAME":"新市區","LI":"社內里","LIN":"1鄰","STREET":" ","SECT":" ","MAREA":"社內","LANE":" ","ALLEY":" ","HOUSE_NO":"１４之１３號","E_COORD97":176818.54000000001,"N_COORD97":2552928.5499999998,"ADDRESS":"社內１４之１３號","OBJECTID":62880},"geometry":{"x":176818.54000000097,"y":2552928.5500000026}},{"attributes":{"ID":62881,"DIS_CODE":0,"TOWNNAME":"東區","LI":"泉南里","LIN":"31鄰","STREET":"府連路","SECT":" ","MAREA":" ","LANE":"３４４巷","ALLEY":"１弄","HOUSE_NO":"４０號","E_COORD97":169643.89000000001,"N_COORD97":2542685.2799999998,"ADDRESS":"府連路３４４巷１弄４０號","OBJECTID":62881},"geometry":{"x":169643.88999999966,"y":2542685.2799999993}},{"attributes":{"ID":62882,"DIS_CODE":0,"TOWNNAME":"東區","LI":"泉南里","LIN":"31鄰","STREET":"府連路","SECT":" ","MAREA":" ","LANE":"３４４巷","ALLEY":"１弄","HOUSE_NO":"４２號","E_COORD97":169644.81,"N_COORD97":2542689.52,"ADDRESS":"府連路３４４巷１弄４２號","OBJECTID":62882},"geometry":{"x":169644.80999999866,"y":2542689.5200000014}},{"attributes":{"ID":62883,"DIS_CODE":0,"TOWNNAME":"東區","LI":"泉南里","LIN":"31鄰","STREET":"府連路","SECT":" ","MAREA":" ","LANE":"３４４巷","ALLEY":"１弄","HOUSE_NO":"４４號","E_COORD97":169645.17999999999,"N_COORD97":2542692.8300000001,"ADDRESS":"府連路３４４巷１弄４４號","OBJECTID":62883},"geometry":{"x":169645.1799999997,"y":2542692.8299999982}},{"attributes":{"ID":62884,"DIS_CODE":0,"TOWNNAME":"新市區","LI":"社內里","LIN":"1鄰","STREET":" ","SECT":" ","MAREA":"社內","LANE":" ","ALLEY":" ","HOUSE_NO":"１４之２１號","E_COORD97":176831.59,"N_COORD97":2552962.5499999998,"ADDRESS":"社內１４之２１號","OBJECTID":62884},"geometry":{"x":176831.59000000078,"y":2552962.5500000026}},{"attributes":{"ID":62885,"DIS_CODE":0,"TOWNNAME":"新市區","LI":"社內里","LIN":"1鄰","STREET":" ","SECT":" ","MAREA":"社內","LANE":" ","ALLEY":" ","HOUSE_NO":"１４之２８號","E_COORD97":176850.95000000001,"N_COORD97":2552977.0499999998,"ADDRESS":"社內１４之２８號","OBJECTID":62885},"geometry":{"x":176850.95000000205,"y":2552977.0500000007}},{"attributes":{"ID":62886,"DIS_CODE":0,"TOWNNAME":"新市區","LI":"社內里","LIN":"1鄰","STREET":" ","SECT":" ","MAREA":"社內","LANE":" ","ALLEY":" ","HOUSE_NO":"１４之１９號","E_COORD97":176840.10999999999,"N_COORD97":2552963.0499999998,"ADDRESS":"社內１４之１９號","OBJECTID":62886},"geometry":{"x":176840.11000000127,"y":2552963.0500000026}},{"attributes":{"ID":62887,"DIS_CODE":0,"TOWNNAME":"東區","LI":"泉南里","LIN":"31鄰","STREET":"府連路","SECT":" ","MAREA":" ","LANE":"３４４巷","ALLEY":"１弄","HOUSE_NO":"４６號","E_COORD97":169645.17999999999,"N_COORD97":2542696.8900000001,"ADDRESS":"府連路３４４巷１弄４６號","OBJECTID":62887},"geometry":{"x":169645.1799999997,"y":2542696.8900000025}},{"attributes":{"ID":62888,"DIS_CODE":0,"TOWNNAME":"東區","LI":"泉南里","LIN":"31鄰","STREET":"府連路","SECT":" ","MAREA":" ","LANE":"３４４巷","ALLEY":"１弄","HOUSE_NO":"５０號","E_COORD97":169646.79000000001,"N_COORD97":2542706.5,"ADDRESS":"府連路３４４巷１弄５０號","OBJECTID":62888},"geometry":{"x":169646.79000000004,"y":2542706.5000000019}},{"attributes":{"ID":62889,"DIS_CODE":0,"TOWNNAME":"新市區","LI":"社內里","LIN":"1鄰","STREET":" ","SECT":" ","MAREA":"社內","LANE":" ","ALLEY":" ","HOUSE_NO":"１４之２７號","E_COORD97":176855.31,"N_COORD97":2552977.0499999998,"ADDRESS":"社內１４之２７號","OBJECTID":62889},"geometry":{"x":176855.31000000052,"y":2552977.0500000007}},{"attributes":{"ID":62890,"DIS_CODE":0,"TOWNNAME":"新市區","LI":"社內里","LIN":"1鄰","STREET":" ","SECT":" ","MAREA":"社內","LANE":" ","ALLEY":" ","HOUSE_NO":"１４之２０號","E_COORD97":176835.95000000001,"N_COORD97":2552962.7999999998,"ADDRESS":"社內１４之２０號","OBJECTID":62890},"geometry":{"x":176835.95000000112,"y":2552962.8000000007}},{"attributes":{"ID":62891,"DIS_CODE":0,"TOWNNAME":"東區","LI":"泉南里","LIN":"31鄰","STREET":"府連路","SECT":" ","MAREA":" ","LANE":"３４４巷","ALLEY":"１弄","HOUSE_NO":"５２號","E_COORD97":169647.23000000001,"N_COORD97":2542711.6499999999,"ADDRESS":"府連路３４４巷１弄５２號","OBJECTID":62891},"geometry":{"x":169647.23000000045,"y":2542711.6500000041}},{"attributes":{"ID":62892,"DIS_CODE":0,"TOWNNAME":"山上區","LI":"南洲里","LIN":"1鄰","STREET":" ","SECT":" ","MAREA":"南洲","LANE":" ","ALLEY":" ","HOUSE_NO":"７２號","E_COORD97":183959.59,"N_COORD97":2555715.25,"ADDRESS":"南洲７２號","OBJECTID":62892},"geometry":{"x":183959.59000000078,"y":2555715.25}},{"attributes":{"ID":62893,"DIS_CODE":0,"TOWNNAME":"東區","LI":"泉南里","LIN":"31鄰","STREET":"府連路","SECT":" ","MAREA":" ","LANE":"３４４巷","ALLEY":"１弄","HOUSE_NO":"５４號","E_COORD97":169646.67999999999,"N_COORD97":2542715.0699999998,"ADDRESS":"府連路３４４巷１弄５４號","OBJECTID":62893},"geometry":{"x":169646.68000000063,"y":2542715.0700000003}},{"attributes":{"ID":62894,"DIS_CODE":0,"TOWNNAME":"山上區","LI":"南洲里","LIN":"1鄰","STREET":" ","SECT":" ","MAREA":"南洲","LANE":" ","ALLEY":" ","HOUSE_NO":"７８號","E_COORD97":183939.48999999999,"N_COORD97":2555741.25,"ADDRESS":"南洲７８號","OBJECTID":62894},"geometry":{"x":183939.49000000022,"y":2555741.2500000019}},{"attributes":{"ID":62895,"DIS_CODE":0,"TOWNNAME":"東區","LI":"泉南里","LIN":"31鄰","STREET":"府連路","SECT":" ","MAREA":" ","LANE":"３４４巷","ALLEY":"１弄","HOUSE_NO":"５６號","E_COORD97":169647.26999999999,"N_COORD97":2542719.5499999998,"ADDRESS":"府連路３４４巷１弄５６號","OBJECTID":62895},"geometry":{"x":169647.27000000048,"y":2542719.5500000045}},{"attributes":{"ID":62896,"DIS_CODE":0,"TOWNNAME":"東區","LI":"泉南里","LIN":"31鄰","STREET":"府連路","SECT":" ","MAREA":" ","LANE":"３４４巷","ALLEY":"１弄","HOUSE_NO":"５８號","E_COORD97":169647.72,"N_COORD97":2542723.6400000001,"ADDRESS":"府連路３４４巷１弄５８號","OBJECTID":62896},"geometry":{"x":169647.72000000067,"y":2542723.6400000025}},{"attributes":{"ID":62897,"DIS_CODE":0,"TOWNNAME":"山上區","LI":"豐德里","LIN":"1鄰","STREET":" ","SECT":" ","MAREA":"隙子口","LANE":" ","ALLEY":" ","HOUSE_NO":"２之３１號","E_COORD97":185333.66,"N_COORD97":2553122.2999999998,"ADDRESS":"隙子口２之３１號","OBJECTID":62897},"geometry":{"x":185333.65999999922,"y":2553122.3000000007}},{"attributes":{"ID":62898,"DIS_CODE":0,"TOWNNAME":"山上區","LI":"豐德里","LIN":"1鄰","STREET":" ","SECT":" ","MAREA":"隙子口","LANE":" ","ALLEY":" ","HOUSE_NO":"２號之２６","E_COORD97":185374.003475,"N_COORD97":2553168.84356,"ADDRESS":"隙子口２號之２６","OBJECTID":62898},"geometry":{"x":185374.00347500201,"y":2553168.8435640018}},{"attributes":{"ID":62899,"DIS_CODE":0,"TOWNNAME":"關廟區","LI":"香洋里","LIN":"8鄰","STREET":"中央路","SECT":" ","MAREA":" ","LANE":" ","ALLEY":" ","HOUSE_NO":"２２９號","E_COORD97":181086.66,"N_COORD97":2540111.3199999998,"ADDRESS":"中央路２２９號","OBJECTID":62899},"geometry":{"x":181086.66000000015,"y":2540111.3200000022}},{"attributes":{"ID":62900,"DIS_CODE":0,"TOWNNAME":"山上區","LI":"山上里","LIN":"1鄰","STREET":" ","SECT":" ","MAREA":"山上","LANE":" ","ALLEY":" ","HOUSE_NO":"４０之１０號","E_COORD97":184047.01000000001,"N_COORD97":2555373.2999999998,"ADDRESS":"山上４０之１０號","OBJECTID":62900},"geometry":{"x":184047.00999999978,"y":2555373.3000000007}},{"attributes":{"ID":62901,"DIS_CODE":0,"TOWNNAME":"東山區","LI":"東中里","LIN":" ","STREET":"東仁街","SECT":" ","MAREA":" ","LANE":" ","ALLEY":" ","HOUSE_NO":"７９之８號","E_COORD97":188770.72,"N_COORD97":2579859.02,"ADDRESS":"東仁街７９之８號","OBJECTID":62901},"geometry":{"x":188770.71999999881,"y":2579859.0199999996}},{"attributes":{"ID":62902,"DIS_CODE":0,"TOWNNAME":"東山區","LI":"東中里","LIN":" ","STREET":"東仁街","SECT":" ","MAREA":" ","LANE":" ","ALLEY":" ","HOUSE_NO":"７９之９號","E_COORD97":188766.39999999999,"N_COORD97":2579860.4700000002,"ADDRESS":"東仁街７９之９號","OBJECTID":62902},"geometry":{"x":188766.40000000037,"y":2579860.4700000007}},{"attributes":{"ID":62903,"DIS_CODE":0,"TOWNNAME":"東山區","LI":"東中里","LIN":" ","STREET":"青葉路","SECT":"二段","MAREA":" ","LANE":" ","ALLEY":" ","HOUSE_NO":"４３號","E_COORD97":189117.82999999999,"N_COORD97":2580125.5899999999,"ADDRESS":"青葉路二段４３號","OBJECTID":62903},"geometry":{"x":189117.82999999914,"y":2580125.5900000017}},{"attributes":{"ID":62904,"DIS_CODE":0,"TOWNNAME":"東山區","LI":"東中里","LIN":" ","STREET":"達雲路","SECT":"一段","MAREA":" ","LANE":" ","ALLEY":" ","HOUSE_NO":"２６號","E_COORD97":189031.37,"N_COORD97":2580049.0099999998,"ADDRESS":"達雲路一段２６號","OBJECTID":62904},"geometry":{"x":189031.37000000104,"y":2580049.0099999998}},{"attributes":{"ID":62905,"DIS_CODE":0,"TOWNNAME":"東山區","LI":"東中里","LIN":" ","STREET":"達雲路","SECT":"一段","MAREA":" ","LANE":" ","ALLEY":" ","HOUSE_NO":"３２號","E_COORD97":189037.98999999999,"N_COORD97":2580039.1699999999,"ADDRESS":"達雲路一段３２號","OBJECTID":62905},"geometry":{"x":189037.99000000115,"y":2580039.1700000037}},{"attributes":{"ID":62906,"DIS_CODE":0,"TOWNNAME":"東山區","LI":"東中里","LIN":" ","STREET":"達雲路","SECT":"一段","MAREA":" ","LANE":" ","ALLEY":" ","HOUSE_NO":"４號","E_COORD97":189006.32000000001,"N_COORD97":2580089.2400000002,"ADDRESS":"達雲路一段４號","OBJECTID":62906},"geometry":{"x":189006.32000000216,"y":2580089.2400000002}},{"attributes":{"ID":62907,"DIS_CODE":0,"TOWNNAME":"東山區","LI":"東中里","LIN":" ","STREET":"達雲路","SECT":"一段","MAREA":" ","LANE":" ","ALLEY":" ","HOUSE_NO":"５０號","E_COORD97":189068.76000000001,"N_COORD97":2579988.79,"ADDRESS":"達雲路一段５０號","OBJECTID":62907},"geometry":{"x":189068.75999999978,"y":2579988.7899999991}},{"attributes":{"ID":62908,"DIS_CODE":0,"TOWNNAME":"東山區","LI":"東中里","LIN":" ","STREET":"達雲路","SECT":"一段","MAREA":" ","LANE":" ","ALLEY":" ","HOUSE_NO":"５１號","E_COORD97":189062.42000000001,"N_COORD97":2580038.8500000001,"ADDRESS":"達雲路一段５１號","OBJECTID":62908},"geometry":{"x":189062.41999999993,"y":2580038.8500000015}},{"attributes":{"ID":62909,"DIS_CODE":0,"TOWNNAME":"東山區","LI":"東中里","LIN":" ","STREET":"達雲路","SECT":"一段","MAREA":" ","LANE":" ","ALLEY":" ","HOUSE_NO":"５９號","E_COORD97":189072.67000000001,"N_COORD97":2580023.2400000002,"ADDRESS":"達雲路一段５９號","OBJECTID":62909},"geometry":{"x":189072.66999999993,"y":2580023.2400000021}},{"attributes":{"ID":62910,"DIS_CODE":0,"TOWNNAME":"東山區","LI":"東中里","LIN":" ","STREET":"鳳安一街","SECT":" ","MAREA":" ","LANE":" ","ALLEY":" ","HOUSE_NO":"２之２號","E_COORD97":188916.19,"N_COORD97":2579708.04,"ADDRESS":"鳳安一街２之２號","OBJECTID":62910},"geometry":{"x":188916.19000000134,"y":2579708.040000001}},{"attributes":{"ID":62911,"DIS_CODE":0,"TOWNNAME":"東山區","LI":"東中里","LIN":" ","STREET":"鳳安一街","SECT":" ","MAREA":" ","LANE":" ","ALLEY":" ","HOUSE_NO":"３之１號","E_COORD97":188845.10999999999,"N_COORD97":2579765.9700000002,"ADDRESS":"鳳安一街３之１號","OBJECTID":62911},"geometry":{"x":188845.1100000022,"y":2579765.9700000007}},{"attributes":{"ID":62912,"DIS_CODE":0,"TOWNNAME":"麻豆區","LI":"大埕里","LIN":"8鄰","STREET":" ","SECT":" ","MAREA":"大埕","LANE":" ","ALLEY":" ","HOUSE_NO":"２１號之２２","E_COORD97":173176.48999999999,"N_COORD97":2565189.3599999999,"ADDRESS":"大埕２１號之２２","OBJECTID":62912},"geometry":{"x":173176.49000000022,"y":2565189.3599999994}},{"attributes":{"ID":62913,"DIS_CODE":0,"TOWNNAME":"東區","LI":"泉南里","LIN":"31鄰","STREET":"府連路","SECT":" ","MAREA":" ","LANE":"３４４巷","ALLEY":"１弄","HOUSE_NO":"６０號","E_COORD97":169647.38,"N_COORD97":2542728.9700000002,"ADDRESS":"府連路３４４巷１弄６０號","OBJECTID":62913},"geometry":{"x":169647.37999999989,"y":2542728.9700000007}},{"attributes":{"ID":62914,"DIS_CODE":0,"TOWNNAME":"東區","LI":"泉南里","LIN":"31鄰","STREET":"府連路","SECT":" ","MAREA":" ","LANE":"３４４巷","ALLEY":"１弄","HOUSE_NO":"６２號","E_COORD97":169647.75,"N_COORD97":2542732.8100000001,"ADDRESS":"府連路３４４巷１弄６２號","OBJECTID":62914},"geometry":{"x":169647.75000000093,"y":2542732.8100000005}},{"attributes":{"ID":62915,"DIS_CODE":0,"TOWNNAME":"東區","LI":"泉南里","LIN":"31鄰","STREET":"府連路","SECT":" ","MAREA":" ","LANE":"３４４巷","ALLEY":"１弄","HOUSE_NO":"６４號","E_COORD97":169647.91,"N_COORD97":2542737.1600000001,"ADDRESS":"府連路３４４巷１弄６４號","OBJECTID":62915},"geometry":{"x":169647.91000000015,"y":2542737.1600000001}},{"attributes":{"ID":62916,"DIS_CODE":0,"TOWNNAME":"東區","LI":"泉南里","LIN":"31鄰","STREET":"府連路","SECT":" ","MAREA":" ","LANE":"３４４巷","ALLEY":"１弄","HOUSE_NO":"６６號","E_COORD97":169647.95000000001,"N_COORD97":2542741.1200000001,"ADDRESS":"府連路３４４巷１弄６６號","OBJECTID":62916},"geometry":{"x":169647.95000000205,"y":2542741.1200000029}},{"attributes":{"ID":62917,"DIS_CODE":0,"TOWNNAME":"東區","LI":"泉南里","LIN":"31鄰","STREET":"府連路","SECT":" ","MAREA":" ","LANE":"３４４巷","ALLEY":"１弄","HOUSE_NO":"６８號","E_COORD97":169647.82999999999,"N_COORD97":2542744.9500000002,"ADDRESS":"府連路３４４巷１弄６８號","OBJECTID":62917},"geometry":{"x":169647.83000000007,"y":2542744.9499999993}},{"attributes":{"ID":62918,"DIS_CODE":0,"TOWNNAME":"東區","LI":"泉南里","LIN":"31鄰","STREET":"府連路","SECT":" ","MAREA":" ","LANE":"３４４巷","ALLEY":"１弄","HOUSE_NO":"７０號","E_COORD97":169648.12,"N_COORD97":2542758.9399999999,"ADDRESS":"府連路３４４巷１弄７０號","OBJECTID":62918},"geometry":{"x":169648.12000000011,"y":2542758.9399999995}},{"attributes":{"ID":62919,"DIS_CODE":0,"TOWNNAME":"東區","LI":"泉南里","LIN":"31鄰","STREET":"府連路","SECT":" ","MAREA":" ","LANE":"３４４巷","ALLEY":"１弄","HOUSE_NO":"７２號","E_COORD97":169654.94,"N_COORD97":2542755.8100000001,"ADDRESS":"府連路３４４巷１弄７２號","OBJECTID":62919},"geometry":{"x":169654.93999999948,"y":2542755.8100000024}},{"attributes":{"ID":62920,"DIS_CODE":0,"TOWNNAME":"永康區","LI":"大灣里","LIN":"31鄰","STREET":"文賢街","SECT":" ","MAREA":" ","LANE":"６８巷","ALLEY":"３６弄","HOUSE_NO":"１１號","E_COORD97":175428.07999999999,"N_COORD97":2545051.0499999998,"ADDRESS":"文賢街６８巷３６弄１１號","OBJECTID":62920},"geometry":{"x":175428.08000000101,"y":2545051.0500000007}},{"attributes":{"ID":62921,"DIS_CODE":0,"TOWNNAME":"永康區","LI":"大灣里","LIN":"31鄰","STREET":"文賢街","SECT":" ","MAREA":" ","LANE":"６８巷","ALLEY":"３６弄","HOUSE_NO":"９號","E_COORD97":175426.42000000001,"N_COORD97":2545056.2599999998,"ADDRESS":"文賢街６８巷３６弄９號","OBJECTID":62921},"geometry":{"x":175426.41999999993,"y":2545056.2600000035}},{"attributes":{"ID":62922,"DIS_CODE":0,"TOWNNAME":"永康區","LI":"埔園里","LIN":"31鄰","STREET":"永大路","SECT":"三段","MAREA":" ","LANE":"４６９巷","ALLEY":"１６６弄","HOUSE_NO":"１１號","E_COORD97":173704.95000000001,"N_COORD97":2548843.2200000002,"ADDRESS":"永大路三段４６９巷１６６弄１１號","OBJECTID":62922},"geometry":{"x":173704.95000000112,"y":2548843.2200000007}},{"attributes":{"ID":62923,"DIS_CODE":0,"TOWNNAME":"關廟區","LI":"關廟里","LIN":"8鄰","STREET":"大仁街","SECT":" ","MAREA":" ","LANE":" ","ALLEY":" ","HOUSE_NO":"３７３號","E_COORD97":180907.07000000001,"N_COORD97":2539765.25,"ADDRESS":"大仁街３７３號","OBJECTID":62923},"geometry":{"x":180907.07000000123,"y":2539765.2500000019}},{"attributes":{"ID":62924,"DIS_CODE":0,"TOWNNAME":"新化區","LI":"武安里","LIN":"8鄰","STREET":"大同街","SECT":" ","MAREA":" ","LANE":" ","ALLEY":" ","HOUSE_NO":"４７號","E_COORD97":179001.28,"N_COORD97":2548176.2400000002,"ADDRESS":"大同街４７號","OBJECTID":62924},"geometry":{"x":179001.28000000026,"y":2548176.2400000039}},{"attributes":{"ID":62925,"DIS_CODE":0,"TOWNNAME":"新化區","LI":"協興里","LIN":"8鄰","STREET":"太平街","SECT":" ","MAREA":" ","LANE":" ","ALLEY":" ","HOUSE_NO":"１２４號之１","E_COORD97":178439.95000000001,"N_COORD97":2548709.2599999998,"ADDRESS":"太平街１２４號之１","OBJECTID":62925},"geometry":{"x":178439.95000000112,"y":2548709.2600000016}},{"attributes":{"ID":62926,"DIS_CODE":0,"TOWNNAME":"麻豆區","LI":"大埕里","LIN":"8鄰","STREET":" ","SECT":" ","MAREA":"大埕","LANE":" ","ALLEY":" ","HOUSE_NO":"２１號之２３","E_COORD97":173176.98000000001,"N_COORD97":2565192.4500000002,"ADDRESS":"大埕２１號之２３","OBJECTID":62926},"geometry":{"x":173176.98000000045,"y":2565192.4499999993}},{"attributes":{"ID":62927,"DIS_CODE":0,"TOWNNAME":"新化區","LI":"豐榮里","LIN":"8鄰","STREET":" ","SECT":" ","MAREA":"洋子","LANE":" ","ALLEY":" ","HOUSE_NO":"１８號之１","E_COORD97":178160.76000000001,"N_COORD97":2548253.2599999998,"ADDRESS":"洋子１８號之１","OBJECTID":62927},"geometry":{"x":178160.76000000071,"y":2548253.2599999979}},{"attributes":{"ID":62928,"DIS_CODE":0,"TOWNNAME":"永康區","LI":"埔園里","LIN":"31鄰","STREET":"永大路","SECT":"三段","MAREA":" ","LANE":"４６９巷","ALLEY":"１６６弄","HOUSE_NO":"９號","E_COORD97":173707.95000000001,"N_COORD97":2548842.7200000002,"ADDRESS":"永大路三段４６９巷１６６弄９號","OBJECTID":62928},"geometry":{"x":173707.95000000205,"y":2548842.7200000025}},{"attributes":{"ID":62929,"DIS_CODE":0,"TOWNNAME":"永康區","LI":"埔園里","LIN":"31鄰","STREET":"永大路","SECT":"三段","MAREA":" ","LANE":"４６９巷","ALLEY":"１６６弄","HOUSE_NO":"３１號","E_COORD97":173725.85999999999,"N_COORD97":2548860.6200000001,"ADDRESS":"永大路三段４６９巷１６６弄３１號","OBJECTID":62929},"geometry":{"x":173725.86000000127,"y":2548860.6200000029}},{"attributes":{"ID":62930,"DIS_CODE":0,"TOWNNAME":"永康區","LI":"埔園里","LIN":"31鄰","STREET":"永大路","SECT":"三段","MAREA":" ","LANE":"４６９巷","ALLEY":"１６６弄","HOUSE_NO":"２５號","E_COORD97":173710.16,"N_COORD97":2548854.0499999998,"ADDRESS":"永大路三段４６９巷１６６弄２５號","OBJECTID":62930},"geometry":{"x":173710.16000000108,"y":2548854.0500000026}},{"attributes":{"ID":62931,"DIS_CODE":0,"TOWNNAME":"安南區","LI":"\u25A0南里","LIN":"31鄰","STREET":"安昌街","SECT":" ","MAREA":" ","LANE":"１７４巷","ALLEY":"１９１弄","HOUSE_NO":"１０號","E_COORD97":170153.97,"N_COORD97":2552022.1299999999,"ADDRESS":"安昌街１７４巷１９１弄１０號","OBJECTID":62931},"geometry":{"x":170153.96999999974,"y":2552022.129999999}},{"attributes":{"ID":62932,"DIS_CODE":0,"TOWNNAME":"安南區","LI":"\u25A0南里","LIN":"31鄰","STREET":"安昌街","SECT":" ","MAREA":" ","LANE":"１７４巷","ALLEY":"１９１弄","HOUSE_NO":"１２號","E_COORD97":170158.35000000001,"N_COORD97":2552024.0699999998,"ADDRESS":"安昌街１７４巷１９１弄１２號","OBJECTID":62932},"geometry":{"x":170158.35000000149,"y":2552024.0700000003}},{"attributes":{"ID":62933,"DIS_CODE":0,"TOWNNAME":"安南區","LI":"\u25A0南里","LIN":"31鄰","STREET":"安昌街","SECT":" ","MAREA":" ","LANE":"１７４巷","ALLEY":"１９１弄","HOUSE_NO":"１４號","E_COORD97":170166.39000000001,"N_COORD97":2552025.0499999998,"ADDRESS":"安昌街１７４巷１９１弄１４號","OBJECTID":62933},"geometry":{"x":170166.38999999966,"y":2552025.0500000007}},{"attributes":{"ID":62934,"DIS_CODE":0,"TOWNNAME":"安南區","LI":"\u25A0南里","LIN":"31鄰","STREET":"安昌街","SECT":" ","MAREA":" ","LANE":"１７４巷","ALLEY":"１９１弄","HOUSE_NO":"１６號","E_COORD97":170172.97,"N_COORD97":2552024.7999999998,"ADDRESS":"安昌街１７４巷１９１弄１６號","OBJECTID":62934},"geometry":{"x":170172.9700000016,"y":2552024.8000000026}},{"attributes":{"ID":62935,"DIS_CODE":0,"TOWNNAME":"安南區","LI":"\u25A0南里","LIN":"31鄰","STREET":"安昌街","SECT":" ","MAREA":" ","LANE":"１７４巷","ALLEY":"１９１弄","HOUSE_NO":"１８號","E_COORD97":170179.54999999999,"N_COORD97":2552024.7999999998,"ADDRESS":"安昌街１７４巷１９１弄１８號","OBJECTID":62935},"geometry":{"x":170179.55000000075,"y":2552024.8000000026}},{"attributes":{"ID":62936,"DIS_CODE":0,"TOWNNAME":"安南區","LI":"\u25A0南里","LIN":"31鄰","STREET":"安昌街","SECT":" ","MAREA":" ","LANE":"１７４巷","ALLEY":"１９１弄","HOUSE_NO":"２號","E_COORD97":170128.39000000001,"N_COORD97":2552022.3700000001,"ADDRESS":"安昌街１７４巷１９１弄２號","OBJECTID":62936},"geometry":{"x":170128.3900000006,"y":2552022.3700000029}},{"attributes":{"ID":62937,"DIS_CODE":0,"TOWNNAME":"安南區","LI":"\u25A0南里","LIN":"31鄰","STREET":"安昌街","SECT":" ","MAREA":" ","LANE":"１７４巷","ALLEY":"１９１弄","HOUSE_NO":"５３號","E_COORD97":170171.88,"N_COORD97":2552128.52,"ADDRESS":"安昌街１７４巷１９１弄５３號","OBJECTID":62937},"geometry":{"x":170171.88000000175,"y":2552128.5199999996}},{"attributes":{"ID":62938,"DIS_CODE":0,"TOWNNAME":"安南區","LI":"\u25A0南里","LIN":"31鄰","STREET":"安昌街","SECT":" ","MAREA":" ","LANE":"１７４巷","ALLEY":"１９１弄","HOUSE_NO":"４７號","E_COORD97":170172.09,"N_COORD97":2552146.29,"ADDRESS":"安昌街１７４巷１９１弄４７號","OBJECTID":62938},"geometry":{"x":170172.08999999892,"y":2552146.290000001}},{"attributes":{"ID":62939,"DIS_CODE":0,"TOWNNAME":"安南區","LI":"\u25A0南里","LIN":"31鄰","STREET":"安昌街","SECT":" ","MAREA":" ","LANE":"１７４巷","ALLEY":"１９１弄","HOUSE_NO":"４９號","E_COORD97":170171.88,"N_COORD97":2552140.6400000001,"ADDRESS":"安昌街１７４巷１９１弄４９號","OBJECTID":62939},"geometry":{"x":170171.88000000175,"y":2552140.6400000043}},{"attributes":{"ID":62940,"DIS_CODE":0,"TOWNNAME":"安南區","LI":"\u25A0南里","LIN":"31鄰","STREET":"安昌街","SECT":" ","MAREA":" ","LANE":"１７４巷","ALLEY":"１９１弄","HOUSE_NO":"４號","E_COORD97":170133.5,"N_COORD97":2552022.8599999999,"ADDRESS":"安昌街１７４巷１９１弄４號","OBJECTID":62940},"geometry":{"x":170133.5,"y":2552022.8600000013}},{"attributes":{"ID":62941,"DIS_CODE":0,"TOWNNAME":"安南區","LI":"\u25A0南里","LIN":"31鄰","STREET":"安昌街","SECT":" ","MAREA":" ","LANE":"１７４巷","ALLEY":"１９１弄","HOUSE_NO":"５１號","E_COORD97":170171.88,"N_COORD97":2552134.3799999999,"ADDRESS":"安昌街１７４巷１９１弄５１號","OBJECTID":62941},"geometry":{"x":170171.88000000175,"y":2552134.3800000008}},{"attributes":{"ID":62942,"DIS_CODE":0,"TOWNNAME":"安南區","LI":"\u25A0南里","LIN":"31鄰","STREET":"安昌街","SECT":" ","MAREA":" ","LANE":"１７４巷","ALLEY":"１９１弄","HOUSE_NO":"５５號","E_COORD97":170172.69,"N_COORD97":2552122.6699999999,"ADDRESS":"安昌街１７４巷１９１弄５５號","OBJECTID":62942},"geometry":{"x":170172.69000000134,"y":2552122.6700000037}},{"attributes":{"ID":62943,"DIS_CODE":0,"TOWNNAME":"安南區","LI":"\u25A0南里","LIN":"31鄰","STREET":"安昌街","SECT":" ","MAREA":" ","LANE":"１７４巷","ALLEY":"１９１弄","HOUSE_NO":"５７號","E_COORD97":170173.91,"N_COORD97":2552117.4199999999,"ADDRESS":"安昌街１７４巷１９１弄５７號","OBJECTID":62943},"geometry":{"x":170173.91000000108,"y":2552117.4200000037}},{"attributes":{"ID":62944,"DIS_CODE":0,"TOWNNAME":"安南區","LI":"\u25A0南里","LIN":"31鄰","STREET":"安昌街","SECT":" ","MAREA":" ","LANE":"１７４巷","ALLEY":"１９１弄","HOUSE_NO":"５９號","E_COORD97":170173.70000000001,"N_COORD97":2552110.1499999999,"ADDRESS":"安昌街１７４巷１９１弄５９號","OBJECTID":62944},"geometry":{"x":170173.70000000112,"y":2552110.1500000022}},{"attributes":{"ID":62945,"DIS_CODE":0,"TOWNNAME":"安南區","LI":"\u25A0南里","LIN":"31鄰","STREET":"安昌街","SECT":" ","MAREA":" ","LANE":"１７４巷","ALLEY":"１９１弄","HOUSE_NO":"６１號","E_COORD97":170172.29000000001,"N_COORD97":2552105.1000000001,"ADDRESS":"安昌街１７４巷１９１弄６１號","OBJECTID":62945},"geometry":{"x":170172.29000000004,"y":2552105.0999999996}},{"attributes":{"ID":62946,"DIS_CODE":0,"TOWNNAME":"安南區","LI":"\u25A0南里","LIN":"31鄰","STREET":"安昌街","SECT":" ","MAREA":" ","LANE":"１７４巷","ALLEY":"１９１弄","HOUSE_NO":"６９號","E_COORD97":170170.42000000001,"N_COORD97":2552083,"ADDRESS":"安昌街１７４巷１９１弄６９號","OBJECTID":62946},"geometry":{"x":170170.42000000086,"y":2552082.9999999981}},{"attributes":{"ID":62947,"DIS_CODE":0,"TOWNNAME":"安南區","LI":"\u25A0南里","LIN":"31鄰","STREET":"安昌街","SECT":" ","MAREA":" ","LANE":"１７４巷","ALLEY":"１９１弄","HOUSE_NO":"６號","E_COORD97":170140.32000000001,"N_COORD97":2552022.6099999999,"ADDRESS":"安昌街１７４巷１９１弄６號","OBJECTID":62947},"geometry":{"x":170140.3200000003,"y":2552022.6099999994}},{"attributes":{"ID":62948,"DIS_CODE":0,"TOWNNAME":"安南區","LI":"\u25A0南里","LIN":"31鄰","STREET":"安昌街","SECT":" ","MAREA":" ","LANE":"１７４巷","ALLEY":"１９１弄","HOUSE_NO":"７１號","E_COORD97":170170.79999999999,"N_COORD97":2552078.9300000002,"ADDRESS":"安昌街１７４巷１９１弄７１號","OBJECTID":62948},"geometry":{"x":170170.80000000168,"y":2552078.9299999997}},{"attributes":{"ID":62949,"DIS_CODE":0,"TOWNNAME":"安南區","LI":"\u25A0南里","LIN":"31鄰","STREET":"安昌街","SECT":" ","MAREA":" ","LANE":"１７４巷","ALLEY":"１９１弄","HOUSE_NO":"７３號","E_COORD97":170170.79000000001,"N_COORD97":2552074.48,"ADDRESS":"安昌街１７４巷１９１弄７３號","OBJECTID":62949},"geometry":{"x":170170.79000000004,"y":2552074.4800000023}},{"attributes":{"ID":62950,"DIS_CODE":0,"TOWNNAME":"安南區","LI":"\u25A0南里","LIN":"31鄰","STREET":"安昌街","SECT":" ","MAREA":" ","LANE":"１７４巷","ALLEY":"１９１弄","HOUSE_NO":"７５號","E_COORD97":170170.79000000001,"N_COORD97":2552070.6000000001,"ADDRESS":"安昌街１７４巷１９１弄７５號","OBJECTID":62950},"geometry":{"x":170170.79000000004,"y":2552070.5999999996}},{"attributes":{"ID":62951,"DIS_CODE":0,"TOWNNAME":"安南區","LI":"\u25A0南里","LIN":"31鄰","STREET":"安昌街","SECT":" ","MAREA":" ","LANE":"１７４巷","ALLEY":"１９１弄","HOUSE_NO":"７７號","E_COORD97":170170.98000000001,"N_COORD97":2552066.8900000001,"ADDRESS":"安昌街１７４巷１９１弄７７號","OBJECTID":62951},"geometry":{"x":170170.98000000138,"y":2552066.8900000006}},{"attributes":{"ID":62952,"DIS_CODE":0,"TOWNNAME":"安南區","LI":"\u25A0南里","LIN":"31鄰","STREET":"安昌街","SECT":" ","MAREA":" ","LANE":"１７４巷","ALLEY":"１９１弄","HOUSE_NO":"７９號","E_COORD97":170171.17000000001,"N_COORD97":2552062.0800000001,"ADDRESS":"安昌街１７４巷１９１弄７９號","OBJECTID":62952},"geometry":{"x":170171.16999999993,"y":2552062.0800000001}},{"attributes":{"ID":62953,"DIS_CODE":0,"TOWNNAME":"安南區","LI":"\u25A0南里","LIN":"31鄰","STREET":"安昌街","SECT":" ","MAREA":" ","LANE":"１７４巷","ALLEY":"１９１弄","HOUSE_NO":"８１號","E_COORD97":170171.35000000001,"N_COORD97":2552058.0099999998,"ADDRESS":"安昌街１７４巷１９１弄８１號","OBJECTID":62953},"geometry":{"x":170171.34999999963,"y":2552058.0099999998}},{"attributes":{"ID":62954,"DIS_CODE":0,"TOWNNAME":"安南區","LI":"\u25A0南里","LIN":"31鄰","STREET":"安昌街","SECT":" ","MAREA":" ","LANE":"１７４巷","ALLEY":"１９１弄","HOUSE_NO":"８３號","E_COORD97":170167.64000000001,"N_COORD97":2552050.25,"ADDRESS":"安昌街１７４巷１９１弄８３號","OBJECTID":62954},"geometry":{"x":170167.63999999966,"y":2552050.25}},{"attributes":{"ID":62955,"DIS_CODE":0,"TOWNNAME":"北區","LI":"裕民里","LIN":"8鄰","STREET":"成功路","SECT":" ","MAREA":" ","LANE":"５７２巷","ALLEY":" ","HOUSE_NO":"５號","E_COORD97":167567.64000000001,"N_COORD97":2544739.4300000002,"ADDRESS":"成功路５７２巷５號","OBJECTID":62955},"geometry":{"x":167567.63999999966,"y":2544739.4299999997}},{"attributes":{"ID":62956,"DIS_CODE":0,"TOWNNAME":"麻豆區","LI":"\u25A0江里","LIN":"8鄰","STREET":"民權路","SECT":" ","MAREA":" ","LANE":" ","ALLEY":" ","HOUSE_NO":"７０號之２３","E_COORD97":173467.91,"N_COORD97":2564263.8500000001,"ADDRESS":"民權路７０號之２３","OBJECTID":62956},"geometry":{"x":173467.91000000108,"y":2564263.8499999996}},{"attributes":{"ID":62957,"DIS_CODE":0,"TOWNNAME":"仁德區","LI":"仁義里","LIN":" ","STREET":"中清一街","SECT":" ","MAREA":" ","LANE":" ","ALLEY":" ","HOUSE_NO":"５２之３號","E_COORD97":173660.92999999999,"N_COORD97":2541535.8100000001,"ADDRESS":"中清一街５２之３號","OBJECTID":62957},"geometry":{"x":173660.93000000063,"y":2541535.8100000024}},{"attributes":{"ID":62958,"DIS_CODE":0,"TOWNNAME":"安南區","LI":"\u25A0南里","LIN":"31鄰","STREET":"安昌街","SECT":" ","MAREA":" ","LANE":"１７４巷","ALLEY":"１９１弄","HOUSE_NO":"８５號","E_COORD97":170171.48000000001,"N_COORD97":2552050.6499999999,"ADDRESS":"安昌街１７４巷１９１弄８５號","OBJECTID":62958},"geometry":{"x":170171.48000000045,"y":2552050.6500000004}},{"attributes":{"ID":62959,"DIS_CODE":0,"TOWNNAME":"安南區","LI":"\u25A0南里","LIN":"31鄰","STREET":"安昌街","SECT":" ","MAREA":" ","LANE":"１７４巷","ALLEY":"１９１弄","HOUSE_NO":"８９號","E_COORD97":170179.35999999999,"N_COORD97":2552051.2599999998,"ADDRESS":"安昌街１７４巷１９１弄８９號","OBJECTID":62959},"geometry":{"x":170179.3600000022,"y":2552051.2600000016}},{"attributes":{"ID":62960,"DIS_CODE":0,"TOWNNAME":"安南區","LI":"\u25A0南里","LIN":"31鄰","STREET":"安昌街","SECT":" ","MAREA":" ","LANE":"１７４巷","ALLEY":"１９１弄","HOUSE_NO":"８號","E_COORD97":170146.89999999999,"N_COORD97":2552022.8599999999,"ADDRESS":"安昌街１７４巷１９１弄８號","OBJECTID":62960},"geometry":{"x":170146.90000000224,"y":2552022.8600000013}},{"attributes":{"ID":62961,"DIS_CODE":0,"TOWNNAME":"安南區","LI":"州北里","LIN":"31鄰","STREET":"安昌街","SECT":" ","MAREA":" ","LANE":"８５巷","ALLEY":"７５弄","HOUSE_NO":"３號之１０","E_COORD97":169890.92999999999,"N_COORD97":2552245.4700000002,"ADDRESS":"安昌街８５巷７５弄３號之１０","OBJECTID":62961},"geometry":{"x":169890.9299999997,"y":2552245.4700000007}},{"attributes":{"ID":62962,"DIS_CODE":0,"TOWNNAME":"安南區","LI":"州北里","LIN":"31鄰","STREET":"安昌街","SECT":" ","MAREA":" ","LANE":"８５巷","ALLEY":"７５弄","HOUSE_NO":"３號之１１","E_COORD97":169890.60000000001,"N_COORD97":2552238.04,"ADDRESS":"安昌街８５巷７５弄３號之１１","OBJECTID":62962},"geometry":{"x":169890.60000000149,"y":2552238.0400000028}},{"attributes":{"ID":62963,"DIS_CODE":0,"TOWNNAME":"安南區","LI":"州北里","LIN":"31鄰","STREET":"安昌街","SECT":" ","MAREA":" ","LANE":"８５巷","ALLEY":"７５弄","HOUSE_NO":"３號之１２","E_COORD97":169891.14000000001,"N_COORD97":2552232.4700000002,"ADDRESS":"安昌街８５巷７５弄３號之１２","OBJECTID":62963},"geometry":{"x":169891.13999999966,"y":2552232.4700000007}},{"attributes":{"ID":62964,"DIS_CODE":0,"TOWNNAME":"安南區","LI":"州北里","LIN":"31鄰","STREET":"安昌街","SECT":" ","MAREA":" ","LANE":"８５巷","ALLEY":"７５弄","HOUSE_NO":"３號之７","E_COORD97":169890.22,"N_COORD97":2552265.6600000001,"ADDRESS":"安昌街８５巷７５弄３號之７","OBJECTID":62964},"geometry":{"x":169890.22000000067,"y":2552265.660000002}},{"attributes":{"ID":62965,"DIS_CODE":0,"TOWNNAME":"鹽水區","LI":"桐寮里","LIN":"8鄰","STREET":" ","SECT":" ","MAREA":"桐寮","LANE":" ","ALLEY":" ","HOUSE_NO":"３０號","E_COORD97":173865.17000000001,"N_COORD97":2576337.0600000001,"ADDRESS":"桐寮３０號","OBJECTID":62965},"geometry":{"x":173865.16999999993,"y":2576337.0600000005}},{"attributes":{"ID":62966,"DIS_CODE":0,"TOWNNAME":"安南區","LI":"州北里","LIN":"31鄰","STREET":"安昌街","SECT":" ","MAREA":" ","LANE":"８５巷","ALLEY":"７５弄","HOUSE_NO":"３號之８","E_COORD97":169890.48000000001,"N_COORD97":2552257.6499999999,"ADDRESS":"安昌街８５巷７５弄３號之８","OBJECTID":62966},"geometry":{"x":169890.48000000231,"y":2552257.6500000004}},{"attributes":{"ID":62967,"DIS_CODE":0,"TOWNNAME":"安南區","LI":"州北里","LIN":"31鄰","STREET":"安昌街","SECT":" ","MAREA":" ","LANE":"８５巷","ALLEY":"７５弄","HOUSE_NO":"３號之９","E_COORD97":169890.67999999999,"N_COORD97":2552250.3199999998,"ADDRESS":"安昌街８５巷７５弄３號之９","OBJECTID":62967},"geometry":{"x":169890.68000000063,"y":2552250.3200000003}},{"attributes":{"ID":62968,"DIS_CODE":0,"TOWNNAME":"仁德區","LI":"仁德里","LIN":"31鄰","STREET":"淨修街","SECT":" ","MAREA":" ","LANE":"１７５巷","ALLEY":"４７弄","HOUSE_NO":"６號","E_COORD97":172033.66,"N_COORD97":2541242.4399999999,"ADDRESS":"淨修街１７５巷４７弄６號","OBJECTID":62968},"geometry":{"x":172033.66000000108,"y":2541242.4399999995}},{"attributes":{"ID":62969,"DIS_CODE":0,"TOWNNAME":"仁德區","LI":"仁德里","LIN":"31鄰","STREET":"淨修街","SECT":" ","MAREA":" ","LANE":"１７５巷","ALLEY":"４７弄","HOUSE_NO":"１０號","E_COORD97":172043.07999999999,"N_COORD97":2541243.4399999999,"ADDRESS":"淨修街１７５巷４７弄１０號","OBJECTID":62969},"geometry":{"x":172043.08000000101,"y":2541243.4399999995}},{"attributes":{"ID":62970,"DIS_CODE":0,"TOWNNAME":"永康區","LI":"埔園里","LIN":"31鄰","STREET":"永大路","SECT":"三段","MAREA":" ","LANE":"４６９巷","ALLEY":"１６６弄","HOUSE_NO":"７號","E_COORD97":173716.20999999999,"N_COORD97":2548842.2200000002,"ADDRESS":"永大路三段４６９巷１６６弄７號","OBJECTID":62970},"geometry":{"x":173716.21000000183,"y":2548842.2200000025}},{"attributes":{"ID":62971,"DIS_CODE":0,"TOWNNAME":"安南區","LI":"安富里","LIN":"31鄰","STREET":"海佃路","SECT":"一段","MAREA":" ","LANE":"１５８巷","ALLEY":"１０２弄","HOUSE_NO":"１５號","E_COORD97":167470.57999999999,"N_COORD97":2547198.6000000001,"ADDRESS":"海佃路一段１５８巷１０２弄１５號","OBJECTID":62971},"geometry":{"x":167470.58000000101,"y":2547198.5999999996}},{"attributes":{"ID":62972,"DIS_CODE":0,"TOWNNAME":"安南區","LI":"安富里","LIN":"31鄰","STREET":"海佃路","SECT":"一段","MAREA":" ","LANE":"１５８巷","ALLEY":"１０２弄","HOUSE_NO":"１６號","E_COORD97":167445.64000000001,"N_COORD97":2547189.9700000002,"ADDRESS":"海佃路一段１５８巷１０２弄１６號","OBJECTID":62972},"geometry":{"x":167445.63999999873,"y":2547189.9700000025}},{"attributes":{"ID":62973,"DIS_CODE":0,"TOWNNAME":"安南區","LI":"安富里","LIN":"31鄰","STREET":"海佃路","SECT":"一段","MAREA":" ","LANE":"１５８巷","ALLEY":"１０２弄","HOUSE_NO":"１７號","E_COORD97":167471.22,"N_COORD97":2547195.0899999999,"ADDRESS":"海佃路一段１５８巷１０２弄１７號","OBJECTID":62973},"geometry":{"x":167471.22000000067,"y":2547195.0900000017}},{"attributes":{"ID":62974,"DIS_CODE":0,"TOWNNAME":"安南區","LI":"安富里","LIN":"31鄰","STREET":"海佃路","SECT":"一段","MAREA":" ","LANE":"１５８巷","ALLEY":"９０弄","HOUSE_NO":"１０號","E_COORD97":167401.26999999999,"N_COORD97":2547189.5600000001,"ADDRESS":"海佃路一段１５８巷９０弄１０號","OBJECTID":62974},"geometry":{"x":167401.27000000048,"y":2547189.5600000005}},{"attributes":{"ID":62975,"DIS_CODE":0,"TOWNNAME":"安南區","LI":"安富里","LIN":"31鄰","STREET":"海佃路","SECT":"一段","MAREA":" ","LANE":"１５８巷","ALLEY":"９０弄","HOUSE_NO":"１２號","E_COORD97":167401.64999999999,"N_COORD97":2547186.48,"ADDRESS":"海佃路一段１５８巷９０弄１２號","OBJECTID":62975},"geometry":{"x":167401.65000000037,"y":2547186.4800000004}},{"attributes":{"ID":62976,"DIS_CODE":0,"TOWNNAME":"安南區","LI":"安富里","LIN":"31鄰","STREET":"海佃路","SECT":"一段","MAREA":" ","LANE":"１５８巷","ALLEY":"９０弄","HOUSE_NO":"１４號","E_COORD97":167402.81,"N_COORD97":2547181.8700000001,"ADDRESS":"海佃路一段１５８巷９０弄１４號","OBJECTID":62976},"geometry":{"x":167402.81000000052,"y":2547181.870000001}},{"attributes":{"ID":62977,"DIS_CODE":0,"TOWNNAME":"安南區","LI":"安富里","LIN":"31鄰","STREET":"海佃路","SECT":"一段","MAREA":" ","LANE":"１５８巷","ALLEY":"９０弄","HOUSE_NO":"１６號","E_COORD97":167404.35000000001,"N_COORD97":2547178.79,"ADDRESS":"海佃路一段１５８巷９０弄１６號","OBJECTID":62977},"geometry":{"x":167404.35000000056,"y":2547178.790000001}},{"attributes":{"ID":62978,"DIS_CODE":0,"TOWNNAME":"安南區","LI":"安富里","LIN":"31鄰","STREET":"海佃路","SECT":"一段","MAREA":" ","LANE":"１５８巷","ALLEY":"９０弄","HOUSE_NO":"１８號","E_COORD97":167403.57999999999,"N_COORD97":2547174.1699999999,"ADDRESS":"海佃路一段１５８巷９０弄１８號","OBJECTID":62978},"geometry":{"x":167403.58000000007,"y":2547174.1700000018}},{"attributes":{"ID":62979,"DIS_CODE":0,"TOWNNAME":"安南區","LI":"安富里","LIN":"31鄰","STREET":"海佃路","SECT":"一段","MAREA":" ","LANE":"１５８巷","ALLEY":"９０弄","HOUSE_NO":"２０號","E_COORD97":167406.66,"N_COORD97":2547169.5600000001,"ADDRESS":"海佃路一段１５８巷９０弄２０號","OBJECTID":62979},"geometry":{"x":167406.66000000015,"y":2547169.5600000005}},{"attributes":{"ID":62980,"DIS_CODE":0,"TOWNNAME":"安南區","LI":"安富里","LIN":"31鄰","STREET":"海佃路","SECT":"一段","MAREA":" ","LANE":"１５８巷","ALLEY":"９０弄","HOUSE_NO":"２２號","E_COORD97":167406.66,"N_COORD97":2547165.71,"ADDRESS":"海佃路一段１５８巷９０弄２２號","OBJECTID":62980},"geometry":{"x":167406.66000000015,"y":2547165.7100000009}},{"attributes":{"ID":62981,"DIS_CODE":0,"TOWNNAME":"安南區","LI":"安富里","LIN":"31鄰","STREET":"海佃路","SECT":"一段","MAREA":" ","LANE":"１５８巷","ALLEY":"９０弄","HOUSE_NO":"２４號","E_COORD97":167407.42999999999,"N_COORD97":2547161.0899999999,"ADDRESS":"海佃路一段１５８巷９０弄２４號","OBJECTID":62981},"geometry":{"x":167407.4299999997,"y":2547161.0900000017}},{"attributes":{"ID":62982,"DIS_CODE":0,"TOWNNAME":"安南區","LI":"安富里","LIN":"31鄰","STREET":"海佃路","SECT":"一段","MAREA":" ","LANE":"１５８巷","ALLEY":"９０弄","HOUSE_NO":"２６號","E_COORD97":167407.82000000001,"N_COORD97":2547157.6299999999,"ADDRESS":"海佃路一段１５８巷９０弄２６號","OBJECTID":62982},"geometry":{"x":167407.81999999937,"y":2547157.629999999}},{"attributes":{"ID":62983,"DIS_CODE":0,"TOWNNAME":"安南區","LI":"安富里","LIN":"31鄰","STREET":"海佃路","SECT":"一段","MAREA":" ","LANE":"１５８巷","ALLEY":"９０弄","HOUSE_NO":"２８號","E_COORD97":167409.73999999999,"N_COORD97":2547152.25,"ADDRESS":"海佃路一段１５８巷９０弄２８號","OBJECTID":62983},"geometry":{"x":167409.74000000022,"y":2547152.2500000019}},{"attributes":{"ID":62984,"DIS_CODE":0,"TOWNNAME":"安南區","LI":"安富里","LIN":"31鄰","STREET":"海佃路","SECT":"一段","MAREA":" ","LANE":"１５８巷","ALLEY":"９０弄","HOUSE_NO":"２號","E_COORD97":167396.64000000001,"N_COORD97":2547207.2599999998,"ADDRESS":"海佃路一段１５８巷９０弄２號","OBJECTID":62984},"geometry":{"x":167396.64000000153,"y":2547207.2600000016}},{"attributes":{"ID":62985,"DIS_CODE":0,"TOWNNAME":"東山區","LI":"東中里","LIN":"17鄰","STREET":"民有街","SECT":" ","MAREA":" ","LANE":" ","ALLEY":" ","HOUSE_NO":"４０號","E_COORD97":189058.73999999999,"N_COORD97":2579955.3100000001,"ADDRESS":"民有街４０號","OBJECTID":62985},"geometry":{"x":189058.74000000022,"y":2579955.3100000024}},{"attributes":{"ID":62986,"DIS_CODE":0,"TOWNNAME":"山上區","LI":"平陽里","LIN":"1鄰","STREET":" ","SECT":" ","MAREA":"石子崎","LANE":" ","ALLEY":" ","HOUSE_NO":"５號之１","E_COORD97":186469.79999999999,"N_COORD97":2554119.2999999998,"ADDRESS":"石子崎５號之１","OBJECTID":62986},"geometry":{"x":186469.79999999981,"y":2554119.2999999989}},{"attributes":{"ID":62987,"DIS_CODE":0,"TOWNNAME":"安南區","LI":"安富里","LIN":"31鄰","STREET":"海佃路","SECT":"一段","MAREA":" ","LANE":"１５８巷","ALLEY":"９０弄","HOUSE_NO":"３０號","E_COORD97":167408.59,"N_COORD97":2547148.3999999999,"ADDRESS":"海佃路一段１５８巷９０弄３０號","OBJECTID":62987},"geometry":{"x":167408.58999999985,"y":2547148.4000000022}},{"attributes":{"ID":62988,"DIS_CODE":0,"TOWNNAME":"安南區","LI":"安富里","LIN":"31鄰","STREET":"海佃路","SECT":"一段","MAREA":" ","LANE":"１５８巷","ALLEY":"９０弄","HOUSE_NO":"３２號","E_COORD97":167410.89999999999,"N_COORD97":2547144.9399999999,"ADDRESS":"海佃路一段１５８巷９０弄３２號","OBJECTID":62988},"geometry":{"x":167410.90000000224,"y":2547144.9400000013}},{"attributes":{"ID":62989,"DIS_CODE":0,"TOWNNAME":"安南區","LI":"安富里","LIN":"31鄰","STREET":"海佃路","SECT":"一段","MAREA":" ","LANE":"１５８巷","ALLEY":"９０弄","HOUSE_NO":"６號","E_COORD97":167400.10999999999,"N_COORD97":2547199.1800000002,"ADDRESS":"海佃路一段１５８巷９０弄６號","OBJECTID":62989},"geometry":{"x":167400.11000000034,"y":2547199.1799999997}},{"attributes":{"ID":62990,"DIS_CODE":0,"TOWNNAME":"安南區","LI":"安富里","LIN":"31鄰","STREET":"海佃路","SECT":"一段","MAREA":" ","LANE":"１５８巷","ALLEY":"９０弄","HOUSE_NO":"８號","E_COORD97":167400.5,"N_COORD97":2547195.3300000001,"ADDRESS":"海佃路一段１５８巷９０弄８號","OBJECTID":62990},"geometry":{"x":167400.5,"y":2547195.3299999982}},{"attributes":{"ID":62991,"DIS_CODE":0,"TOWNNAME":"永康區","LI":"埔園里","LIN":"31鄰","STREET":"永大路","SECT":"三段","MAREA":" ","LANE":"４６９巷","ALLEY":"１６６弄","HOUSE_NO":"２號","E_COORD97":173720.92000000001,"N_COORD97":2548823.4399999999,"ADDRESS":"永大路三段４６９巷１６６弄２號","OBJECTID":62991},"geometry":{"x":173720.91999999993,"y":2548823.4399999995}},{"attributes":{"ID":62992,"DIS_CODE":0,"TOWNNAME":"永康區","LI":"埔園里","LIN":"31鄰","STREET":"永大路","SECT":"三段","MAREA":" ","LANE":"４６９巷","ALLEY":"１６６弄","HOUSE_NO":"２７號","E_COORD97":173714.88,"N_COORD97":2548853.5499999998,"ADDRESS":"永大路三段４６９巷１６６弄２７號","OBJECTID":62992},"geometry":{"x":173714.88000000175,"y":2548853.5500000026}},{"attributes":{"ID":62993,"DIS_CODE":0,"TOWNNAME":"永康區","LI":"埔園里","LIN":"31鄰","STREET":"八德街","SECT":" ","MAREA":" ","LANE":"１４０巷","ALLEY":"１弄","HOUSE_NO":"１０號","E_COORD97":173968.25,"N_COORD97":2548585.0299999998,"ADDRESS":"八德街１４０巷１弄１０號","OBJECTID":62993},"geometry":{"x":173968.25,"y":2548585.0300000012}},{"attributes":{"ID":62994,"DIS_CODE":0,"TOWNNAME":"永康區","LI":"埔園里","LIN":"31鄰","STREET":"八德街","SECT":" ","MAREA":" ","LANE":"１４０巷","ALLEY":"１弄","HOUSE_NO":"１１號","E_COORD97":173956.28,"N_COORD97":2548578.2400000002,"ADDRESS":"八德街１４０巷１弄１１號","OBJECTID":62994},"geometry":{"x":173956.28000000026,"y":2548578.2400000002}},{"attributes":{"ID":62995,"DIS_CODE":0,"TOWNNAME":"永康區","LI":"埔園里","LIN":"31鄰","STREET":"八德街","SECT":" ","MAREA":" ","LANE":"１４０巷","ALLEY":"１弄","HOUSE_NO":"１２號","E_COORD97":173962.98999999999,"N_COORD97":2548586.27,"ADDRESS":"八德街１４０巷１弄１２號","OBJECTID":62995},"geometry":{"x":173962.99000000022,"y":2548586.2700000014}},{"attributes":{"ID":62996,"DIS_CODE":0,"TOWNNAME":"永康區","LI":"埔園里","LIN":"31鄰","STREET":"八德街","SECT":" ","MAREA":" ","LANE":"１４０巷","ALLEY":"１弄","HOUSE_NO":"１６號","E_COORD97":173957.22,"N_COORD97":2548587.6600000001,"ADDRESS":"八德街１４０巷１弄１６號","OBJECTID":62996},"geometry":{"x":173957.22000000067,"y":2548587.660000002}},{"attributes":{"ID":62997,"DIS_CODE":0,"TOWNNAME":"永康區","LI":"埔園里","LIN":"31鄰","STREET":"八德街","SECT":" ","MAREA":" ","LANE":"１４０巷","ALLEY":"１弄","HOUSE_NO":"１號","E_COORD97":173986,"N_COORD97":2548573.7000000002,"ADDRESS":"八德街１４０巷１弄１號","OBJECTID":62997},"geometry":{"x":173986.00000000093,"y":2548573.6999999993}},{"attributes":{"ID":62998,"DIS_CODE":0,"TOWNNAME":"永康區","LI":"埔園里","LIN":"31鄰","STREET":"八德街","SECT":" ","MAREA":" ","LANE":"１４０巷","ALLEY":"１弄","HOUSE_NO":"２號","E_COORD97":173986.54999999999,"N_COORD97":2548581.8900000001,"ADDRESS":"八德街１４０巷１弄２號","OBJECTID":62998},"geometry":{"x":173986.55000000168,"y":2548581.8900000006}},{"attributes":{"ID":62999,"DIS_CODE":0,"TOWNNAME":"永康區","LI":"埔園里","LIN":"31鄰","STREET":"八德街","SECT":" ","MAREA":" ","LANE":"１４０巷","ALLEY":"１弄","HOUSE_NO":"３號","E_COORD97":173979.20999999999,"N_COORD97":2548574.7200000002,"ADDRESS":"八德街１４０巷１弄３號","OBJECTID":62999},"geometry":{"x":173979.21000000089,"y":2548574.7200000025}},{"attributes":{"ID":63000,"DIS_CODE":0,"TOWNNAME":"永康區","LI":"埔園里","LIN":"31鄰","STREET":"八德街","SECT":" ","MAREA":" ","LANE":"１４０巷","ALLEY":"１弄","HOUSE_NO":"５號","E_COORD97":173972.98999999999,"N_COORD97":2548575.8599999999,"ADDRESS":"八德街１４０巷１弄５號","OBJECTID":63000},"geometry":{"x":173972.99000000115,"y":2548575.8600000013}}]}