{"displayFieldName":"TOWNNAME","fieldAliases":{"ID":"ID","DIS_CODE":"DIS_CODE","TOWNNAME":"TOWNNAME","LI":"LI","LIN":"LIN","STREET":"STREET","SECT":"SECT","MAREA":"MAREA","LANE":"LANE","ALLEY":"ALLEY","HOUSE_NO":"HOUSE_NO","E_COORD97":"E_COORD97","N_COORD97":"N_COORD97","ADDRESS":"ADDRESS","OBJECTID":"OBJECTID"},"geometryType":"esriGeometryPoint","spatialReference":{"wkid":102443,"latestWkid":3826},"fields":[{"name":"ID","type":"esriFieldTypeDouble","alias":"ID"},{"name":"DIS_CODE","type":"esriFieldTypeInteger","alias":"DIS_CODE"},{"name":"TOWNNAME","type":"esriFieldTypeString","alias":"TOWNNAME","length":8},{"name":"LI","type":"esriFieldTypeString","alias":"LI","length":8},{"name":"LIN","type":"esriFieldTypeString","alias":"LIN","length":12},{"name":"STREET","type":"esriFieldTypeString","alias":"STREET","length":20},{"name":"SECT","type":"esriFieldTypeString","alias":"SECT","length":8},{"name":"MAREA","type":"esriFieldTypeString","alias":"MAREA","length":12},{"name":"LANE","type":"esriFieldTypeString","alias":"LANE","length":10},{"name":"ALLEY","type":"esriFieldTypeString","alias":"ALLEY","length":10},{"name":"HOUSE_NO","type":"esriFieldTypeString","alias":"HOUSE_NO","length":20},{"name":"E_COORD97","type":"esriFieldTypeDouble","alias":"E_COORD97"},{"name":"N_COORD97","type":"esriFieldTypeDouble","alias":"N_COORD97"},{"name":"ADDRESS","type":"esriFieldTypeString","alias":"ADDRESS","length":50},{"name":"OBJECTID","type":"esriFieldTypeOID","alias":"OBJECTID"}],"features":[{"attributes":{"ID":496628,"DIS_CODE":0,"TOWNNAME":"東區","LI":"德高里","LIN":"7鄰","STREET":"仁和路","SECT":" ","MAREA":" ","LANE":" ","ALLEY":" ","HOUSE_NO":"２２６號","E_COORD97":171566.22,"N_COORD97":2540925.3100000001,"ADDRESS":"仁和路２２６號","OBJECTID":496601},"geometry":{"x":171566.21999999881,"y":2540925.3100000024}},{"attributes":{"ID":496629,"DIS_CODE":0,"TOWNNAME":"東區","LI":"德高里","LIN":"7鄰","STREET":"仁和路","SECT":" ","MAREA":" ","LANE":" ","ALLEY":" ","HOUSE_NO":"２２８號","E_COORD97":171568.97,"N_COORD97":2540922.8500000001,"ADDRESS":"仁和路２２８號","OBJECTID":496602},"geometry":{"x":171568.96999999974,"y":2540922.8500000034}},{"attributes":{"ID":496630,"DIS_CODE":0,"TOWNNAME":"東區","LI":"德高里","LIN":"7鄰","STREET":"仁和路","SECT":" ","MAREA":" ","LANE":" ","ALLEY":" ","HOUSE_NO":"２３０號","E_COORD97":171571.44,"N_COORD97":2540921.2599999998,"ADDRESS":"仁和路２３０號","OBJECTID":496603},"geometry":{"x":171571.44000000134,"y":2540921.2600000016}},{"attributes":{"ID":496631,"DIS_CODE":0,"TOWNNAME":"東區","LI":"德高里","LIN":"7鄰","STREET":"仁和路","SECT":" ","MAREA":" ","LANE":" ","ALLEY":" ","HOUSE_NO":"２４２號","E_COORD97":171544.63,"N_COORD97":2540883.0299999998,"ADDRESS":"仁和路２４２號","OBJECTID":496604},"geometry":{"x":171544.62999999989,"y":2540883.0299999993}},{"attributes":{"ID":496632,"DIS_CODE":0,"TOWNNAME":"東區","LI":"東聖里","LIN":"7鄰","STREET":"富農街","SECT":"二段","MAREA":" ","LANE":" ","ALLEY":" ","HOUSE_NO":"６７號","E_COORD97":171620.59,"N_COORD97":2543021.2400000002,"ADDRESS":"富農街二段６７號","OBJECTID":496605},"geometry":{"x":171620.59000000078,"y":2543021.2400000002}},{"attributes":{"ID":496633,"DIS_CODE":0,"TOWNNAME":"東區","LI":"東聖里","LIN":"7鄰","STREET":"富農街","SECT":"二段","MAREA":" ","LANE":" ","ALLEY":" ","HOUSE_NO":"６９號","E_COORD97":171620.59,"N_COORD97":2543025.7200000002,"ADDRESS":"富農街二段６９號","OBJECTID":496606},"geometry":{"x":171620.59000000078,"y":2543025.7200000007}},{"attributes":{"ID":496634,"DIS_CODE":0,"TOWNNAME":"東區","LI":"德高里","LIN":"7鄰","STREET":"仁和路","SECT":" ","MAREA":" ","LANE":" ","ALLEY":" ","HOUSE_NO":"２１０號","E_COORD97":171544.10000000001,"N_COORD97":2540978.79,"ADDRESS":"仁和路２１０號","OBJECTID":496607},"geometry":{"x":171544.10000000056,"y":2540978.7899999991}},{"attributes":{"ID":496635,"DIS_CODE":0,"TOWNNAME":"安南區","LI":"新順里","LIN":"7鄰","STREET":"北安路","SECT":"三段","MAREA":" ","LANE":" ","ALLEY":" ","HOUSE_NO":"７９１號之７","E_COORD97":169262.29000000001,"N_COORD97":2549960.73,"ADDRESS":"北安路三段７９１號之７","OBJECTID":496608},"geometry":{"x":169262.28999999911,"y":2549960.7300000023}},{"attributes":{"ID":496636,"DIS_CODE":0,"TOWNNAME":"安南區","LI":"城中里","LIN":"7鄰","STREET":"安中路","SECT":"六段","MAREA":" ","LANE":" ","ALLEY":" ","HOUSE_NO":"６０３號","E_COORD97":160820.59,"N_COORD97":2551452.5699999998,"ADDRESS":"安中路六段６０３號","OBJECTID":496609},"geometry":{"x":160820.59000000078,"y":2551452.570000004}},{"attributes":{"ID":496637,"DIS_CODE":0,"TOWNNAME":"安南區","LI":"城北里","LIN":"7鄰","STREET":"安中路","SECT":"六段","MAREA":" ","LANE":" ","ALLEY":" ","HOUSE_NO":"２１８號之１０","E_COORD97":161488.64000000001,"N_COORD97":2551303.3700000001,"ADDRESS":"安中路六段２１８號之１０","OBJECTID":496610},"geometry":{"x":161488.63999999966,"y":2551303.3700000029}},{"attributes":{"ID":496638,"DIS_CODE":0,"TOWNNAME":"中西區","LI":"公正里","LIN":"7鄰","STREET":"北門路","SECT":"一段","MAREA":" ","LANE":" ","ALLEY":" ","HOUSE_NO":"１０９號","E_COORD97":169165.29000000001,"N_COORD97":2543766.3100000001,"ADDRESS":"北門路一段１０９號","OBJECTID":496611},"geometry":{"x":169165.29000000004,"y":2543766.3100000024}},{"attributes":{"ID":496639,"DIS_CODE":0,"TOWNNAME":"中西區","LI":"公正里","LIN":"7鄰","STREET":"北門路","SECT":"一段","MAREA":" ","LANE":" ","ALLEY":" ","HOUSE_NO":"１０９號之１","E_COORD97":169175.92000000001,"N_COORD97":2543869.4100000001,"ADDRESS":"北門路一段１０９號之１","OBJECTID":496612},"geometry":{"x":169175.91999999993,"y":2543869.410000002}},{"attributes":{"ID":496640,"DIS_CODE":0,"TOWNNAME":"中西區","LI":"公正里","LIN":"7鄰","STREET":"北門路","SECT":"一段","MAREA":" ","LANE":" ","ALLEY":" ","HOUSE_NO":"１０９號之２","E_COORD97":169176.26999999999,"N_COORD97":2543874.7400000002,"ADDRESS":"北門路一段１０９號之２","OBJECTID":496613},"geometry":{"x":169176.27000000048,"y":2543874.7400000021}},{"attributes":{"ID":496641,"DIS_CODE":0,"TOWNNAME":"中西區","LI":"公正里","LIN":"7鄰","STREET":"衛民街","SECT":" ","MAREA":" ","LANE":" ","ALLEY":" ","HOUSE_NO":"２６號","E_COORD97":169142.47,"N_COORD97":2543725.6000000001,"ADDRESS":"衛民街２６號","OBJECTID":496614},"geometry":{"x":169142.47000000067,"y":2543725.6000000015}},{"attributes":{"ID":496642,"DIS_CODE":0,"TOWNNAME":"中西區","LI":"公正里","LIN":"7鄰","STREET":"民族路","SECT":"二段","MAREA":" ","LANE":" ","ALLEY":" ","HOUSE_NO":"１１號","E_COORD97":169143.17000000001,"N_COORD97":2543872.8900000001,"ADDRESS":"民族路二段１１號","OBJECTID":496615},"geometry":{"x":169143.17000000086,"y":2543872.8899999987}},{"attributes":{"ID":496643,"DIS_CODE":0,"TOWNNAME":"中西區","LI":"公正里","LIN":"7鄰","STREET":"民族路","SECT":"二段","MAREA":" ","LANE":" ","ALLEY":" ","HOUSE_NO":"１３號","E_COORD97":169138.82000000001,"N_COORD97":2543873.0899999999,"ADDRESS":"民族路二段１３號","OBJECTID":496616},"geometry":{"x":169138.82000000216,"y":2543873.0899999999}},{"attributes":{"ID":496644,"DIS_CODE":0,"TOWNNAME":"中西區","LI":"公正里","LIN":"7鄰","STREET":"民族路","SECT":"二段","MAREA":" ","LANE":" ","ALLEY":" ","HOUSE_NO":"１５號","E_COORD97":169134.45999999999,"N_COORD97":2543872.8900000001,"ADDRESS":"民族路二段１５號","OBJECTID":496617},"geometry":{"x":169134.46000000089,"y":2543872.8899999987}},{"attributes":{"ID":496645,"DIS_CODE":0,"TOWNNAME":"中西區","LI":"公正里","LIN":"7鄰","STREET":"民族路","SECT":"二段","MAREA":" ","LANE":" ","ALLEY":" ","HOUSE_NO":"１７號","E_COORD97":169130.5,"N_COORD97":2543872.8900000001,"ADDRESS":"民族路二段１７號","OBJECTID":496618},"geometry":{"x":169130.50000000186,"y":2543872.8899999987}},{"attributes":{"ID":496646,"DIS_CODE":0,"TOWNNAME":"中西區","LI":"公正里","LIN":"7鄰","STREET":"民族路","SECT":"二段","MAREA":" ","LANE":" ","ALLEY":" ","HOUSE_NO":"１９號","E_COORD97":169126.54000000001,"N_COORD97":2543872.8900000001,"ADDRESS":"民族路二段１９號","OBJECTID":496619},"geometry":{"x":169126.54000000004,"y":2543872.8899999987}},{"attributes":{"ID":496647,"DIS_CODE":0,"TOWNNAME":"新營區","LI":"王公里","LIN":"28鄰","STREET":"大公街","SECT":" ","MAREA":" ","LANE":"４６巷","ALLEY":"４弄","HOUSE_NO":"８號","E_COORD97":180216.26000000001,"N_COORD97":2579600.5099999998,"ADDRESS":"大公街４６巷４弄８號","OBJECTID":496620},"geometry":{"x":180216.25999999978,"y":2579600.5100000016}},{"attributes":{"ID":496648,"DIS_CODE":0,"TOWNNAME":"中西區","LI":"公正里","LIN":"7鄰","STREET":"民族路","SECT":"二段","MAREA":" ","LANE":" ","ALLEY":" ","HOUSE_NO":"１號","E_COORD97":169123.38,"N_COORD97":2543872.8900000001,"ADDRESS":"民族路二段１號","OBJECTID":496621},"geometry":{"x":169123.38000000082,"y":2543872.8899999987}},{"attributes":{"ID":496649,"DIS_CODE":0,"TOWNNAME":"中西區","LI":"公正里","LIN":"7鄰","STREET":"民族路","SECT":"二段","MAREA":" ","LANE":" ","ALLEY":" ","HOUSE_NO":"２１號","E_COORD97":169119.42000000001,"N_COORD97":2543873.0899999999,"ADDRESS":"民族路二段２１號","OBJECTID":496622},"geometry":{"x":169119.42000000086,"y":2543873.0899999999}},{"attributes":{"ID":496650,"DIS_CODE":0,"TOWNNAME":"中西區","LI":"公正里","LIN":"7鄰","STREET":"民族路","SECT":"二段","MAREA":" ","LANE":" ","ALLEY":" ","HOUSE_NO":"２３號","E_COORD97":169116.25,"N_COORD97":2543872.8900000001,"ADDRESS":"民族路二段２３號","OBJECTID":496623},"geometry":{"x":169116.25,"y":2543872.8899999987}},{"attributes":{"ID":496651,"DIS_CODE":0,"TOWNNAME":"中西區","LI":"公正里","LIN":"7鄰","STREET":"民族路","SECT":"二段","MAREA":" ","LANE":" ","ALLEY":" ","HOUSE_NO":"２５號","E_COORD97":169113.07999999999,"N_COORD97":2543872.8900000001,"ADDRESS":"民族路二段２５號","OBJECTID":496624},"geometry":{"x":169113.08000000194,"y":2543872.8899999987}},{"attributes":{"ID":496652,"DIS_CODE":0,"TOWNNAME":"中西區","LI":"公正里","LIN":"7鄰","STREET":"民族路","SECT":"二段","MAREA":" ","LANE":" ","ALLEY":" ","HOUSE_NO":"２７號","E_COORD97":169109.13,"N_COORD97":2543872.8900000001,"ADDRESS":"民族路二段２７號","OBJECTID":496625},"geometry":{"x":169109.13000000175,"y":2543872.8899999987}},{"attributes":{"ID":496653,"DIS_CODE":0,"TOWNNAME":"中西區","LI":"公正里","LIN":"7鄰","STREET":"民族路","SECT":"二段","MAREA":" ","LANE":" ","ALLEY":" ","HOUSE_NO":"２９號","E_COORD97":169105.37,"N_COORD97":2543873.0899999999,"ADDRESS":"民族路二段２９號","OBJECTID":496626},"geometry":{"x":169105.37000000011,"y":2543873.0899999999}},{"attributes":{"ID":496654,"DIS_CODE":0,"TOWNNAME":"中西區","LI":"公正里","LIN":"7鄰","STREET":"民族路","SECT":"二段","MAREA":" ","LANE":" ","ALLEY":" ","HOUSE_NO":"３號","E_COORD97":169167.70999999999,"N_COORD97":2543872.1000000001,"ADDRESS":"民族路二段３號","OBJECTID":496627},"geometry":{"x":169167.70999999996,"y":2543872.1000000015}},{"attributes":{"ID":496655,"DIS_CODE":0,"TOWNNAME":"中西區","LI":"公正里","LIN":"7鄰","STREET":"民族路","SECT":"二段","MAREA":" ","LANE":" ","ALLEY":" ","HOUSE_NO":"３號之１","E_COORD97":169161.38,"N_COORD97":2543873.0899999999,"ADDRESS":"民族路二段３號之１","OBJECTID":496628},"geometry":{"x":169161.37999999989,"y":2543873.0899999999}},{"attributes":{"ID":496656,"DIS_CODE":0,"TOWNNAME":"中西區","LI":"公正里","LIN":"7鄰","STREET":"民族路","SECT":"二段","MAREA":" ","LANE":" ","ALLEY":" ","HOUSE_NO":"５號","E_COORD97":169155.04999999999,"N_COORD97":2543873.0899999999,"ADDRESS":"民族路二段５號","OBJECTID":496629},"geometry":{"x":169155.04999999981,"y":2543873.0899999999}},{"attributes":{"ID":496657,"DIS_CODE":0,"TOWNNAME":"中西區","LI":"公正里","LIN":"7鄰","STREET":"民族路","SECT":"二段","MAREA":" ","LANE":" ","ALLEY":" ","HOUSE_NO":"９號","E_COORD97":169149.89999999999,"N_COORD97":2543873.0899999999,"ADDRESS":"民族路二段９號","OBJECTID":496630},"geometry":{"x":169149.90000000037,"y":2543873.0899999999}},{"attributes":{"ID":496658,"DIS_CODE":0,"TOWNNAME":"中西區","LI":"公正里","LIN":"7鄰","STREET":"衛民街","SECT":" ","MAREA":" ","LANE":" ","ALLEY":" ","HOUSE_NO":"２８號","E_COORD97":169129.31,"N_COORD97":2543719.6899999999,"ADDRESS":"衛民街２８號","OBJECTID":496631},"geometry":{"x":169129.30999999959,"y":2543719.6899999995}},{"attributes":{"ID":496659,"DIS_CODE":0,"TOWNNAME":"中西區","LI":"公正里","LIN":"7鄰","STREET":"衛民街","SECT":" ","MAREA":" ","LANE":" ","ALLEY":" ","HOUSE_NO":"３０號","E_COORD97":169119.42999999999,"N_COORD97":2543728.29,"ADDRESS":"衛民街３０號","OBJECTID":496632},"geometry":{"x":169119.43000000063,"y":2543728.2899999991}},{"attributes":{"ID":496660,"DIS_CODE":0,"TOWNNAME":"中西區","LI":"公正里","LIN":"7鄰","STREET":"衛民街","SECT":" ","MAREA":" ","LANE":" ","ALLEY":" ","HOUSE_NO":"３２號","E_COORD97":169111.81,"N_COORD97":2543716.52,"ADDRESS":"衛民街３２號","OBJECTID":496633},"geometry":{"x":169111.80999999959,"y":2543716.5200000014}},{"attributes":{"ID":496661,"DIS_CODE":0,"TOWNNAME":"中西區","LI":"公正里","LIN":"7鄰","STREET":"衛民街","SECT":" ","MAREA":" ","LANE":" ","ALLEY":" ","HOUSE_NO":"３４號","E_COORD97":169105.32000000001,"N_COORD97":2543716.5899999999,"ADDRESS":"衛民街３４號","OBJECTID":496634},"geometry":{"x":169105.32000000123,"y":2543716.5900000017}},{"attributes":{"ID":496662,"DIS_CODE":0,"TOWNNAME":"中西區","LI":"公正里","LIN":"7鄰","STREET":"衛民街","SECT":" ","MAREA":" ","LANE":" ","ALLEY":" ","HOUSE_NO":"４０號","E_COORD97":169099.60000000001,"N_COORD97":2543727.73,"ADDRESS":"衛民街４０號","OBJECTID":496635},"geometry":{"x":169099.60000000056,"y":2543727.7300000004}},{"attributes":{"ID":496663,"DIS_CODE":0,"TOWNNAME":"中西區","LI":"公正里","LIN":"7鄰","STREET":"衛民街","SECT":" ","MAREA":" ","LANE":" ","ALLEY":" ","HOUSE_NO":"４２號","E_COORD97":169094.87,"N_COORD97":2543717.6499999999,"ADDRESS":"衛民街４２號","OBJECTID":496636},"geometry":{"x":169094.87000000104,"y":2543717.6500000004}},{"attributes":{"ID":496664,"DIS_CODE":0,"TOWNNAME":"中西區","LI":"公正里","LIN":"7鄰","STREET":"衛民街","SECT":" ","MAREA":" ","LANE":" ","ALLEY":" ","HOUSE_NO":"５０號","E_COORD97":169089.92999999999,"N_COORD97":2543720.04,"ADDRESS":"衛民街５０號","OBJECTID":496637},"geometry":{"x":169089.93000000156,"y":2543720.0399999991}},{"attributes":{"ID":496665,"DIS_CODE":0,"TOWNNAME":"中西區","LI":"公正里","LIN":"7鄰","STREET":"衛民街","SECT":" ","MAREA":" ","LANE":" ","ALLEY":" ","HOUSE_NO":"５４號","E_COORD97":169070.17000000001,"N_COORD97":2543723.29,"ADDRESS":"衛民街５４號","OBJECTID":496638},"geometry":{"x":169070.17000000086,"y":2543723.290000001}},{"attributes":{"ID":496666,"DIS_CODE":0,"TOWNNAME":"中西區","LI":"公正里","LIN":"7鄰","STREET":"衛民街","SECT":" ","MAREA":" ","LANE":" ","ALLEY":" ","HOUSE_NO":"５６號","E_COORD97":169063.47,"N_COORD97":2543724.3399999999,"ADDRESS":"衛民街５６號","OBJECTID":496639},"geometry":{"x":169063.46999999974,"y":2543724.3400000017}},{"attributes":{"ID":496667,"DIS_CODE":0,"TOWNNAME":"中西區","LI":"公正里","LIN":"7鄰","STREET":"衛民街","SECT":" ","MAREA":" ","LANE":" ","ALLEY":" ","HOUSE_NO":"５８號","E_COORD97":169058.95000000001,"N_COORD97":2543725.75,"ADDRESS":"衛民街５８號","OBJECTID":496640},"geometry":{"x":169058.95000000019,"y":2543725.7500000019}},{"attributes":{"ID":496668,"DIS_CODE":0,"TOWNNAME":"中西區","LI":"福安里","LIN":"7鄰","STREET":"西門路","SECT":"二段","MAREA":" ","LANE":" ","ALLEY":" ","HOUSE_NO":"５２號","E_COORD97":167810.42999999999,"N_COORD97":2543565.9100000001,"ADDRESS":"西門路二段５２號","OBJECTID":496641},"geometry":{"x":167810.43000000063,"y":2543565.9100000001}},{"attributes":{"ID":496669,"DIS_CODE":0,"TOWNNAME":"中西區","LI":"福安里","LIN":"7鄰","STREET":"西門路","SECT":"二段","MAREA":" ","LANE":" ","ALLEY":" ","HOUSE_NO":"５４號","E_COORD97":167811.35999999999,"N_COORD97":2543570.96,"ADDRESS":"西門路二段５４號","OBJECTID":496642},"geometry":{"x":167811.36000000127,"y":2543570.959999999}},{"attributes":{"ID":496670,"DIS_CODE":0,"TOWNNAME":"中西區","LI":"福安里","LIN":"7鄰","STREET":"西門路","SECT":"二段","MAREA":" ","LANE":" ","ALLEY":" ","HOUSE_NO":"５６號","E_COORD97":167812.56,"N_COORD97":2543575.0699999998,"ADDRESS":"西門路二段５６號","OBJECTID":496643},"geometry":{"x":167812.56000000052,"y":2543575.0700000003}},{"attributes":{"ID":496671,"DIS_CODE":0,"TOWNNAME":"中西區","LI":"福安里","LIN":"7鄰","STREET":"西門路","SECT":"二段","MAREA":" ","LANE":" ","ALLEY":" ","HOUSE_NO":"５６號之１","E_COORD97":167813.75,"N_COORD97":2543578.1299999999,"ADDRESS":"西門路二段５６號之１","OBJECTID":496644},"geometry":{"x":167813.75000000093,"y":2543578.1300000027}},{"attributes":{"ID":496672,"DIS_CODE":0,"TOWNNAME":"中西區","LI":"福安里","LIN":"7鄰","STREET":"西門路","SECT":"二段","MAREA":" ","LANE":" ","ALLEY":" ","HOUSE_NO":"５８號","E_COORD97":167814.82000000001,"N_COORD97":2543581.8500000001,"ADDRESS":"西門路二段５８號","OBJECTID":496645},"geometry":{"x":167814.82000000216,"y":2543581.8500000015}},{"attributes":{"ID":496673,"DIS_CODE":0,"TOWNNAME":"中西區","LI":"福安里","LIN":"7鄰","STREET":"西門路","SECT":"二段","MAREA":" ","LANE":" ","ALLEY":" ","HOUSE_NO":"２６號","E_COORD97":167792.87,"N_COORD97":2543515.8300000001,"ADDRESS":"西門路二段２６號","OBJECTID":496646},"geometry":{"x":167792.87000000104,"y":2543515.8300000001}},{"attributes":{"ID":496674,"DIS_CODE":0,"TOWNNAME":"中西區","LI":"福安里","LIN":"7鄰","STREET":"西門路","SECT":"二段","MAREA":" ","LANE":" ","ALLEY":" ","HOUSE_NO":"２８號","E_COORD97":167795.13,"N_COORD97":2543520.8799999999,"ADDRESS":"西門路二段２８號","OBJECTID":496647},"geometry":{"x":167795.12999999989,"y":2543520.879999999}},{"attributes":{"ID":496675,"DIS_CODE":0,"TOWNNAME":"中西區","LI":"福安里","LIN":"7鄰","STREET":"西門路","SECT":"二段","MAREA":" ","LANE":" ","ALLEY":" ","HOUSE_NO":"３０號","E_COORD97":167796.85999999999,"N_COORD97":2543525.5299999998,"ADDRESS":"西門路二段３０號","OBJECTID":496648},"geometry":{"x":167796.86000000034,"y":2543525.5300000012}},{"attributes":{"ID":496676,"DIS_CODE":0,"TOWNNAME":"中西區","LI":"福安里","LIN":"7鄰","STREET":"西門路","SECT":"二段","MAREA":" ","LANE":" ","ALLEY":" ","HOUSE_NO":"３２號","E_COORD97":167798.20000000001,"N_COORD97":2543530.4500000002,"ADDRESS":"西門路二段３２號","OBJECTID":496649},"geometry":{"x":167798.20000000019,"y":2543530.4500000011}},{"attributes":{"ID":496677,"DIS_CODE":0,"TOWNNAME":"中西區","LI":"福安里","LIN":"7鄰","STREET":"西門路","SECT":"二段","MAREA":" ","LANE":" ","ALLEY":" ","HOUSE_NO":"３４號","E_COORD97":167799.39000000001,"N_COORD97":2543534.1699999999,"ADDRESS":"西門路二段３４號","OBJECTID":496650},"geometry":{"x":167799.38999999966,"y":2543534.1699999999}},{"attributes":{"ID":496678,"DIS_CODE":0,"TOWNNAME":"中西區","LI":"福安里","LIN":"7鄰","STREET":"西門路","SECT":"二段","MAREA":" ","LANE":" ","ALLEY":" ","HOUSE_NO":"３６號","E_COORD97":167800.85999999999,"N_COORD97":2543537.8900000001,"ADDRESS":"西門路二段３６號","OBJECTID":496651},"geometry":{"x":167800.8599999994,"y":2543537.8900000025}},{"attributes":{"ID":496679,"DIS_CODE":0,"TOWNNAME":"中西區","LI":"福安里","LIN":"7鄰","STREET":"西門路","SECT":"二段","MAREA":" ","LANE":" ","ALLEY":" ","HOUSE_NO":"３８號","E_COORD97":167802.19,"N_COORD97":2543542.6699999999,"ADDRESS":"西門路二段３８號","OBJECTID":496652},"geometry":{"x":167802.19000000227,"y":2543542.6700000018}},{"attributes":{"ID":496680,"DIS_CODE":0,"TOWNNAME":"白河區","LI":"永安里","LIN":"7鄰","STREET":"中正路","SECT":" ","MAREA":" ","LANE":" ","ALLEY":" ","HOUSE_NO":"１３６之１號","E_COORD97":189812.79000000001,"N_COORD97":2583138.0899999999,"ADDRESS":"中正路１３６之１號","OBJECTID":496653},"geometry":{"x":189812.79000000004,"y":2583138.089999998}},{"attributes":{"ID":496681,"DIS_CODE":0,"TOWNNAME":"白河區","LI":"永安里","LIN":"7鄰","STREET":"中正路","SECT":" ","MAREA":" ","LANE":" ","ALLEY":" ","HOUSE_NO":"１３６之２號","E_COORD97":189810.38,"N_COORD97":2583144.2999999998,"ADDRESS":"中正路１３６之２號","OBJECTID":496654},"geometry":{"x":189810.37999999989,"y":2583144.3000000007}},{"attributes":{"ID":496682,"DIS_CODE":0,"TOWNNAME":"白河區","LI":"永安里","LIN":"7鄰","STREET":"中正路","SECT":" ","MAREA":" ","LANE":" ","ALLEY":" ","HOUSE_NO":"１８５號","E_COORD97":189686.56,"N_COORD97":2583055.4199999999,"ADDRESS":"中正路１８５號","OBJECTID":496655},"geometry":{"x":189686.55999999959,"y":2583055.4200000018}},{"attributes":{"ID":496683,"DIS_CODE":0,"TOWNNAME":"白河區","LI":"永安里","LIN":"7鄰","STREET":"中正路","SECT":" ","MAREA":" ","LANE":" ","ALLEY":" ","HOUSE_NO":"１８７號","E_COORD97":189682.20000000001,"N_COORD97":2583055.2799999998,"ADDRESS":"中正路１８７號","OBJECTID":496656},"geometry":{"x":189682.20000000112,"y":2583055.2800000031}},{"attributes":{"ID":496684,"DIS_CODE":0,"TOWNNAME":"白河區","LI":"永安里","LIN":"7鄰","STREET":"中正路","SECT":" ","MAREA":" ","LANE":" ","ALLEY":" ","HOUSE_NO":"１８９號","E_COORD97":189678.06,"N_COORD97":2583055.1699999999,"ADDRESS":"中正路１８９號","OBJECTID":496657},"geometry":{"x":189678.05999999959,"y":2583055.1699999999}},{"attributes":{"ID":496685,"DIS_CODE":0,"TOWNNAME":"白河區","LI":"永安里","LIN":"7鄰","STREET":"中正路","SECT":" ","MAREA":" ","LANE":" ","ALLEY":" ","HOUSE_NO":"１９１號","E_COORD97":189674.01999999999,"N_COORD97":2583055.1800000002,"ADDRESS":"中正路１９１號","OBJECTID":496658},"geometry":{"x":189674.02000000048,"y":2583055.1799999997}},{"attributes":{"ID":496686,"DIS_CODE":0,"TOWNNAME":"白河區","LI":"永安里","LIN":"7鄰","STREET":"中正路","SECT":" ","MAREA":" ","LANE":" ","ALLEY":" ","HOUSE_NO":"１９３號","E_COORD97":189669.42999999999,"N_COORD97":2583054.7200000002,"ADDRESS":"中正路１９３號","OBJECTID":496659},"geometry":{"x":189669.43000000156,"y":2583054.7200000025}},{"attributes":{"ID":496687,"DIS_CODE":0,"TOWNNAME":"白河區","LI":"永安里","LIN":"7鄰","STREET":"中正路","SECT":" ","MAREA":" ","LANE":" ","ALLEY":" ","HOUSE_NO":"１９５號","E_COORD97":189665.09,"N_COORD97":2583054.9500000002,"ADDRESS":"中正路１９５號","OBJECTID":496660},"geometry":{"x":189665.09000000171,"y":2583054.9500000011}},{"attributes":{"ID":496688,"DIS_CODE":0,"TOWNNAME":"白河區","LI":"永安里","LIN":"7鄰","STREET":"中正路","SECT":" ","MAREA":" ","LANE":" ","ALLEY":" ","HOUSE_NO":"１９７號","E_COORD97":189656.39999999999,"N_COORD97":2583053.4500000002,"ADDRESS":"中正路１９７號","OBJECTID":496661},"geometry":{"x":189656.40000000037,"y":2583053.4499999993}},{"attributes":{"ID":496689,"DIS_CODE":0,"TOWNNAME":"白河區","LI":"永安里","LIN":"7鄰","STREET":"中正路","SECT":" ","MAREA":" ","LANE":" ","ALLEY":" ","HOUSE_NO":"１９９號","E_COORD97":189652.44,"N_COORD97":2583053.1200000001,"ADDRESS":"中正路１９９號","OBJECTID":496662},"geometry":{"x":189652.44000000041,"y":2583053.120000001}},{"attributes":{"ID":496690,"DIS_CODE":0,"TOWNNAME":"白河區","LI":"永安里","LIN":"7鄰","STREET":"中正路","SECT":" ","MAREA":" ","LANE":" ","ALLEY":" ","HOUSE_NO":"２０３號","E_COORD97":189644.45999999999,"N_COORD97":2583052.6200000001,"ADDRESS":"中正路２０３號","OBJECTID":496663},"geometry":{"x":189644.46000000089,"y":2583052.6200000029}},{"attributes":{"ID":496691,"DIS_CODE":0,"TOWNNAME":"白河區","LI":"永安里","LIN":"7鄰","STREET":"中正路","SECT":" ","MAREA":" ","LANE":" ","ALLEY":" ","HOUSE_NO":"２０５號","E_COORD97":189639.12,"N_COORD97":2583052.6099999999,"ADDRESS":"中正路２０５號","OBJECTID":496664},"geometry":{"x":189639.12000000011,"y":2583052.6099999994}},{"attributes":{"ID":496692,"DIS_CODE":0,"TOWNNAME":"白河區","LI":"永安里","LIN":"7鄰","STREET":"中正路","SECT":" ","MAREA":" ","LANE":" ","ALLEY":" ","HOUSE_NO":"２０７號","E_COORD97":189633.48000000001,"N_COORD97":2583052.46,"ADDRESS":"中正路２０７號","OBJECTID":496665},"geometry":{"x":189633.48000000045,"y":2583052.4600000028}},{"attributes":{"ID":496693,"DIS_CODE":0,"TOWNNAME":"白河區","LI":"永安里","LIN":"7鄰","STREET":"中正路","SECT":" ","MAREA":" ","LANE":" ","ALLEY":" ","HOUSE_NO":"２０９號","E_COORD97":189629.76999999999,"N_COORD97":2583052.1200000001,"ADDRESS":"中正路２０９號","OBJECTID":496666},"geometry":{"x":189629.77000000142,"y":2583052.1200000029}},{"attributes":{"ID":496694,"DIS_CODE":0,"TOWNNAME":"白河區","LI":"永安里","LIN":"7鄰","STREET":"中正路","SECT":" ","MAREA":" ","LANE":" ","ALLEY":" ","HOUSE_NO":"２１１號","E_COORD97":189625.64999999999,"N_COORD97":2583052.1000000001,"ADDRESS":"中正路２１１號","OBJECTID":496667},"geometry":{"x":189625.65000000037,"y":2583052.0999999996}},{"attributes":{"ID":496695,"DIS_CODE":0,"TOWNNAME":"白河區","LI":"永安里","LIN":"7鄰","STREET":"中正路","SECT":" ","MAREA":" ","LANE":" ","ALLEY":" ","HOUSE_NO":"２１３號","E_COORD97":189621.64999999999,"N_COORD97":2583052.2799999998,"ADDRESS":"中正路２１３號","OBJECTID":496668},"geometry":{"x":189621.6500000013,"y":2583052.2800000012}},{"attributes":{"ID":496696,"DIS_CODE":0,"TOWNNAME":"白河區","LI":"永安里","LIN":"7鄰","STREET":"中正路","SECT":" ","MAREA":" ","LANE":" ","ALLEY":" ","HOUSE_NO":"２１５號","E_COORD97":189617.73999999999,"N_COORD97":2583052,"ADDRESS":"中正路２１５號","OBJECTID":496669},"geometry":{"x":189617.74000000115,"y":2583052.0000000019}},{"attributes":{"ID":496697,"DIS_CODE":0,"TOWNNAME":"白河區","LI":"永安里","LIN":"7鄰","STREET":"中正路","SECT":" ","MAREA":" ","LANE":" ","ALLEY":" ","HOUSE_NO":"２７１號","E_COORD97":189591.01999999999,"N_COORD97":2583051.0600000001,"ADDRESS":"中正路２７１號","OBJECTID":496670},"geometry":{"x":189591.02000000048,"y":2583051.0600000042}},{"attributes":{"ID":496698,"DIS_CODE":0,"TOWNNAME":"安南區","LI":"海東里","LIN":"7鄰","STREET":"海中街","SECT":" ","MAREA":" ","LANE":" ","ALLEY":" ","HOUSE_NO":"１０４號","E_COORD97":166407.23000000001,"N_COORD97":2549027.02,"ADDRESS":"海中街１０４號","OBJECTID":496671},"geometry":{"x":166407.23000000138,"y":2549027.0199999996}},{"attributes":{"ID":496699,"DIS_CODE":0,"TOWNNAME":"永康區","LI":"\u25A0行里","LIN":"7鄰","STREET":"中正路","SECT":" ","MAREA":" ","LANE":" ","ALLEY":" ","HOUSE_NO":"５６０號","E_COORD97":172528.60999999999,"N_COORD97":2548371.2400000002,"ADDRESS":"中正路５６０號","OBJECTID":496672},"geometry":{"x":172528.61000000034,"y":2548371.2400000002}},{"attributes":{"ID":496700,"DIS_CODE":0,"TOWNNAME":"永康區","LI":"東灣里","LIN":"7鄰","STREET":"大灣路","SECT":" ","MAREA":" ","LANE":" ","ALLEY":" ","HOUSE_NO":"４１８號","E_COORD97":174777.03,"N_COORD97":2545013.6800000002,"ADDRESS":"大灣路４１８號","OBJECTID":496673},"geometry":{"x":174777.02999999933,"y":2545013.6800000016}},{"attributes":{"ID":496701,"DIS_CODE":0,"TOWNNAME":"安南區","LI":"新順里","LIN":"7鄰","STREET":"北安路","SECT":"三段","MAREA":" ","LANE":" ","ALLEY":" ","HOUSE_NO":"７５３號之６","E_COORD97":169159.87,"N_COORD97":2549886.9100000001,"ADDRESS":"北安路三段７５３號之６","OBJECTID":496674},"geometry":{"x":169159.87000000011,"y":2549886.9100000039}},{"attributes":{"ID":496702,"DIS_CODE":0,"TOWNNAME":"安南區","LI":"新順里","LIN":"7鄰","STREET":"北安路","SECT":"三段","MAREA":" ","LANE":" ","ALLEY":" ","HOUSE_NO":"７７９號","E_COORD97":169190.23000000001,"N_COORD97":2549905.5299999998,"ADDRESS":"北安路三段７７９號","OBJECTID":496675},"geometry":{"x":169190.22999999952,"y":2549905.5300000031}},{"attributes":{"ID":496703,"DIS_CODE":0,"TOWNNAME":"安南區","LI":"新順里","LIN":"7鄰","STREET":"北安路","SECT":"三段","MAREA":" ","LANE":" ","ALLEY":" ","HOUSE_NO":"７８１號","E_COORD97":169192.95000000001,"N_COORD97":2549908.46,"ADDRESS":"北安路三段７８１號","OBJECTID":496676},"geometry":{"x":169192.95000000019,"y":2549908.4600000028}},{"attributes":{"ID":496704,"DIS_CODE":0,"TOWNNAME":"安南區","LI":"新順里","LIN":"7鄰","STREET":"北安路","SECT":"三段","MAREA":" ","LANE":" ","ALLEY":" ","HOUSE_NO":"７８３號","E_COORD97":169196.92999999999,"N_COORD97":2549911.3799999999,"ADDRESS":"北安路三段７８３號","OBJECTID":496677},"geometry":{"x":169196.93000000063,"y":2549911.379999999}},{"attributes":{"ID":496705,"DIS_CODE":0,"TOWNNAME":"安南區","LI":"新順里","LIN":"7鄰","STREET":"北安路","SECT":"三段","MAREA":" ","LANE":" ","ALLEY":" ","HOUSE_NO":"７８５號","E_COORD97":169201.32000000001,"N_COORD97":2549913.6800000002,"ADDRESS":"北安路三段７８５號","OBJECTID":496678},"geometry":{"x":169201.31999999937,"y":2549913.6799999997}},{"attributes":{"ID":496706,"DIS_CODE":0,"TOWNNAME":"安南區","LI":"溪東里","LIN":"7鄰","STREET":"府安路","SECT":"五段","MAREA":" ","LANE":" ","ALLEY":" ","HOUSE_NO":"４８號","E_COORD97":168315.35999999999,"N_COORD97":2547193.2999999998,"ADDRESS":"府安路五段４８號","OBJECTID":496679},"geometry":{"x":168315.36000000127,"y":2547193.3000000026}},{"attributes":{"ID":496707,"DIS_CODE":0,"TOWNNAME":"安南區","LI":"溪墘里","LIN":"7鄰","STREET":"安富街","SECT":" ","MAREA":" ","LANE":" ","ALLEY":" ","HOUSE_NO":"３８９號","E_COORD97":167224.10999999999,"N_COORD97":2547365.21,"ADDRESS":"安富街３８９號","OBJECTID":496680},"geometry":{"x":167224.11000000034,"y":2547365.2100000009}},{"attributes":{"ID":496708,"DIS_CODE":0,"TOWNNAME":"安南區","LI":"溪墘里","LIN":"7鄰","STREET":"安富街","SECT":" ","MAREA":" ","LANE":" ","ALLEY":" ","HOUSE_NO":"３９５號","E_COORD97":167209.67000000001,"N_COORD97":2547361.8999999999,"ADDRESS":"安富街３９５號","OBJECTID":496681},"geometry":{"x":167209.66999999993,"y":2547361.9000000022}},{"attributes":{"ID":496709,"DIS_CODE":0,"TOWNNAME":"安南區","LI":"溪墘里","LIN":"7鄰","STREET":"安富街","SECT":" ","MAREA":" ","LANE":" ","ALLEY":" ","HOUSE_NO":"３９７號","E_COORD97":167205.07999999999,"N_COORD97":2547360.6099999999,"ADDRESS":"安富街３９７號","OBJECTID":496682},"geometry":{"x":167205.08000000007,"y":2547360.6100000013}},{"attributes":{"ID":496710,"DIS_CODE":0,"TOWNNAME":"安南區","LI":"溪墘里","LIN":"7鄰","STREET":"安富街","SECT":" ","MAREA":" ","LANE":" ","ALLEY":" ","HOUSE_NO":"３５５號","E_COORD97":167303.81,"N_COORD97":2547384.5899999999,"ADDRESS":"安富街３５５號","OBJECTID":496683},"geometry":{"x":167303.81000000145,"y":2547384.5900000017}},{"attributes":{"ID":496711,"DIS_CODE":0,"TOWNNAME":"安南區","LI":"溪墘里","LIN":"7鄰","STREET":"安富街","SECT":" ","MAREA":" ","LANE":" ","ALLEY":" ","HOUSE_NO":"３８１號","E_COORD97":167242.28,"N_COORD97":2547370.8799999999,"ADDRESS":"安富街３８１號","OBJECTID":496684},"geometry":{"x":167242.28000000119,"y":2547370.8800000008}},{"attributes":{"ID":496712,"DIS_CODE":0,"TOWNNAME":"安南區","LI":"溪墘里","LIN":"7鄰","STREET":"安富街","SECT":" ","MAREA":" ","LANE":" ","ALLEY":" ","HOUSE_NO":"３７９號","E_COORD97":167246.85999999999,"N_COORD97":2547371.8399999999,"ADDRESS":"安富街３７９號","OBJECTID":496685},"geometry":{"x":167246.86000000127,"y":2547371.8400000017}},{"attributes":{"ID":496713,"DIS_CODE":0,"TOWNNAME":"永康區","LI":"復國里","LIN":"7鄰","STREET":"復國一路","SECT":" ","MAREA":" ","LANE":" ","ALLEY":" ","HOUSE_NO":"１２６號","E_COORD97":172726.25,"N_COORD97":2545021.02,"ADDRESS":"復國一路１２６號","OBJECTID":496686},"geometry":{"x":172726.25000000093,"y":2545021.0200000014}},{"attributes":{"ID":496714,"DIS_CODE":0,"TOWNNAME":"永康區","LI":"崑山里","LIN":"7鄰","STREET":"大灣路","SECT":" ","MAREA":" ","LANE":" ","ALLEY":" ","HOUSE_NO":"９０１號","E_COORD97":173596,"N_COORD97":2544395.0099999998,"ADDRESS":"大灣路９０１號","OBJECTID":496687},"geometry":{"x":173596.00000000093,"y":2544395.0100000016}},{"attributes":{"ID":496715,"DIS_CODE":0,"TOWNNAME":"安平區","LI":"石門里","LIN":"8鄰","STREET":"安北路","SECT":" ","MAREA":" ","LANE":" ","ALLEY":" ","HOUSE_NO":"８４號","E_COORD97":164486.89999999999,"N_COORD97":2544690.0499999998,"ADDRESS":"安北路８４號","OBJECTID":496688},"geometry":{"x":164486.9000000013,"y":2544690.0500000026}},{"attributes":{"ID":496716,"DIS_CODE":0,"TOWNNAME":"安平區","LI":"平安里","LIN":"8鄰","STREET":"安平路","SECT":" ","MAREA":" ","LANE":" ","ALLEY":" ","HOUSE_NO":"４０８之３號","E_COORD97":165382.35999999999,"N_COORD97":2544327.5499999998,"ADDRESS":"安平路４０８之３號","OBJECTID":496689},"geometry":{"x":165382.36000000127,"y":2544327.5500000026}},{"attributes":{"ID":496717,"DIS_CODE":0,"TOWNNAME":"永康區","LI":"二王里","LIN":"45鄰","STREET":"南工街","SECT":" ","MAREA":" ","LANE":"２１２巷","ALLEY":"１３弄","HOUSE_NO":"９號","E_COORD97":172111.60000000001,"N_COORD97":2545982.1200000001,"ADDRESS":"南工街２１２巷１３弄９號","OBJECTID":496690},"geometry":{"x":172111.60000000056,"y":2545982.1200000029}},{"attributes":{"ID":496718,"DIS_CODE":0,"TOWNNAME":"安平區","LI":"平安里","LIN":"8鄰","STREET":"安平路","SECT":" ","MAREA":" ","LANE":" ","ALLEY":" ","HOUSE_NO":"４０８號","E_COORD97":165390.57000000001,"N_COORD97":2544328.6499999999,"ADDRESS":"安平路４０８號","OBJECTID":496691},"geometry":{"x":165390.56999999937,"y":2544328.6500000041}},{"attributes":{"ID":496719,"DIS_CODE":0,"TOWNNAME":"安平區","LI":"平安里","LIN":"8鄰","STREET":"安平路","SECT":" ","MAREA":" ","LANE":" ","ALLEY":" ","HOUSE_NO":"４１０號","E_COORD97":165376.63,"N_COORD97":2544325.75,"ADDRESS":"安平路４１０號","OBJECTID":496692},"geometry":{"x":165376.63000000082,"y":2544325.7500000019}},{"attributes":{"ID":496720,"DIS_CODE":0,"TOWNNAME":"安平區","LI":"平安里","LIN":"8鄰","STREET":"安平路","SECT":" ","MAREA":" ","LANE":" ","ALLEY":" ","HOUSE_NO":"４１２號","E_COORD97":165371.31,"N_COORD97":2544326.3700000001,"ADDRESS":"安平路４１２號","OBJECTID":496693},"geometry":{"x":165371.31000000145,"y":2544326.370000001}},{"attributes":{"ID":496721,"DIS_CODE":0,"TOWNNAME":"安平區","LI":"平安里","LIN":"8鄰","STREET":"安平路","SECT":" ","MAREA":" ","LANE":" ","ALLEY":" ","HOUSE_NO":"４１６號","E_COORD97":165365.56,"N_COORD97":2544337.96,"ADDRESS":"安平路４１６號","OBJECTID":496694},"geometry":{"x":165365.55999999959,"y":2544337.9600000028}},{"attributes":{"ID":496722,"DIS_CODE":0,"TOWNNAME":"安平區","LI":"平安里","LIN":"8鄰","STREET":"安平路","SECT":" ","MAREA":" ","LANE":" ","ALLEY":" ","HOUSE_NO":"４１８號","E_COORD97":165352.51000000001,"N_COORD97":2544323.6800000002,"ADDRESS":"安平路４１８號","OBJECTID":496695},"geometry":{"x":165352.50999999978,"y":2544323.6799999997}},{"attributes":{"ID":496723,"DIS_CODE":0,"TOWNNAME":"永康區","LI":"埔園里","LIN":"7鄰","STREET":"中山路","SECT":" ","MAREA":" ","LANE":" ","ALLEY":" ","HOUSE_NO":"７５號","E_COORD97":173759,"N_COORD97":2547759,"ADDRESS":"中山路７５號","OBJECTID":496696},"geometry":{"x":173759.00000000093,"y":2547759}},{"attributes":{"ID":496724,"DIS_CODE":0,"TOWNNAME":"永康區","LI":"崑山里","LIN":"7鄰","STREET":"大灣路","SECT":" ","MAREA":" ","LANE":" ","ALLEY":" ","HOUSE_NO":"９１５號","E_COORD97":173556.44,"N_COORD97":2544387.8900000001,"ADDRESS":"大灣路９１５號","OBJECTID":496697},"geometry":{"x":173556.44000000134,"y":2544387.8900000006}},{"attributes":{"ID":496725,"DIS_CODE":0,"TOWNNAME":"永康區","LI":"崑山里","LIN":"7鄰","STREET":"大灣路","SECT":" ","MAREA":" ","LANE":" ","ALLEY":" ","HOUSE_NO":"９３９號","E_COORD97":173480.13,"N_COORD97":2544370.77,"ADDRESS":"大灣路９３９號","OBJECTID":496698},"geometry":{"x":173480.12999999989,"y":2544370.7699999996}},{"attributes":{"ID":496726,"DIS_CODE":0,"TOWNNAME":"永康區","LI":"崑山里","LIN":"7鄰","STREET":"大灣路","SECT":" ","MAREA":" ","LANE":" ","ALLEY":" ","HOUSE_NO":"９３３號","E_COORD97":173497.10999999999,"N_COORD97":2544373.5600000001,"ADDRESS":"大灣路９３３號","OBJECTID":496699},"geometry":{"x":173497.11000000127,"y":2544373.5600000042}},{"attributes":{"ID":496727,"DIS_CODE":0,"TOWNNAME":"永康區","LI":"勝利里","LIN":"7鄰","STREET":"勝利街","SECT":" ","MAREA":" ","LANE":" ","ALLEY":" ","HOUSE_NO":"１６號","E_COORD97":171216.89999999999,"N_COORD97":2544574.7599999998,"ADDRESS":"勝利街１６號","OBJECTID":496700},"geometry":{"x":171216.9000000013,"y":2544574.7600000035}},{"attributes":{"ID":496728,"DIS_CODE":0,"TOWNNAME":"永康區","LI":"勝利里","LIN":"7鄰","STREET":"勝利街","SECT":" ","MAREA":" ","LANE":" ","ALLEY":" ","HOUSE_NO":"２０號","E_COORD97":171224.82999999999,"N_COORD97":2544576.7599999998,"ADDRESS":"勝利街２０號","OBJECTID":496701},"geometry":{"x":171224.83000000007,"y":2544576.7599999998}},{"attributes":{"ID":496729,"DIS_CODE":0,"TOWNNAME":"永康區","LI":"勝利里","LIN":"7鄰","STREET":"勝利街","SECT":" ","MAREA":" ","LANE":" ","ALLEY":" ","HOUSE_NO":"２０號之５","E_COORD97":171247.45999999999,"N_COORD97":2544580.7999999998,"ADDRESS":"勝利街２０號之５","OBJECTID":496702},"geometry":{"x":171247.45999999996,"y":2544580.8000000007}},{"attributes":{"ID":496730,"DIS_CODE":0,"TOWNNAME":"永康區","LI":"勝利里","LIN":"7鄰","STREET":"勝利街","SECT":" ","MAREA":" ","LANE":" ","ALLEY":" ","HOUSE_NO":"１８號","E_COORD97":171220.70999999999,"N_COORD97":2544575.5099999998,"ADDRESS":"勝利街１８號","OBJECTID":496703},"geometry":{"x":171220.70999999903,"y":2544575.5099999998}},{"attributes":{"ID":496731,"DIS_CODE":0,"TOWNNAME":"安平區","LI":"平安里","LIN":"8鄰","STREET":"安平路","SECT":" ","MAREA":" ","LANE":" ","ALLEY":" ","HOUSE_NO":"４２０號","E_COORD97":165342.62,"N_COORD97":2544345.21,"ADDRESS":"安平路４２０號","OBJECTID":496704},"geometry":{"x":165342.62000000197,"y":2544345.2100000009}},{"attributes":{"ID":496732,"DIS_CODE":0,"TOWNNAME":"安平區","LI":"平安里","LIN":"8鄰","STREET":"安平路","SECT":" ","MAREA":" ","LANE":" ","ALLEY":" ","HOUSE_NO":"４２２號","E_COORD97":165338.20000000001,"N_COORD97":2544324.79,"ADDRESS":"安平路４２２號","OBJECTID":496705},"geometry":{"x":165338.20000000019,"y":2544324.7899999991}},{"attributes":{"ID":496733,"DIS_CODE":0,"TOWNNAME":"永康區","LI":"勝利里","LIN":"7鄰","STREET":"勝利街","SECT":" ","MAREA":" ","LANE":" ","ALLEY":" ","HOUSE_NO":"２０號之３","E_COORD97":171239.29999999999,"N_COORD97":2544579.0499999998,"ADDRESS":"勝利街２０號之３","OBJECTID":496706},"geometry":{"x":171239.30000000075,"y":2544579.0500000007}},{"attributes":{"ID":496734,"DIS_CODE":0,"TOWNNAME":"永康區","LI":"埔園里","LIN":"7鄰","STREET":"中山路","SECT":" ","MAREA":" ","LANE":" ","ALLEY":" ","HOUSE_NO":"６９號","E_COORD97":173762.13,"N_COORD97":2547745.7400000002,"ADDRESS":"中山路６９號","OBJECTID":496707},"geometry":{"x":173762.12999999989,"y":2547745.7400000039}},{"attributes":{"ID":496735,"DIS_CODE":0,"TOWNNAME":"永康區","LI":"崑山里","LIN":"7鄰","STREET":"大灣路","SECT":" ","MAREA":" ","LANE":" ","ALLEY":" ","HOUSE_NO":"９２９號","E_COORD97":173505.37,"N_COORD97":2544373.02,"ADDRESS":"大灣路９２９號","OBJECTID":496708},"geometry":{"x":173505.37000000104,"y":2544373.0200000033}},{"attributes":{"ID":496736,"DIS_CODE":0,"TOWNNAME":"永康區","LI":"勝利里","LIN":"7鄰","STREET":"勝利街","SECT":" ","MAREA":" ","LANE":" ","ALLEY":" ","HOUSE_NO":"２０號之１","E_COORD97":171230.63,"N_COORD97":2544577.2999999998,"ADDRESS":"勝利街２０號之１","OBJECTID":496709},"geometry":{"x":171230.62999999989,"y":2544577.3000000026}},{"attributes":{"ID":496737,"DIS_CODE":0,"TOWNNAME":"永康區","LI":"崑山里","LIN":"7鄰","STREET":"大灣路","SECT":" ","MAREA":" ","LANE":" ","ALLEY":" ","HOUSE_NO":"９４７號","E_COORD97":173465.39000000001,"N_COORD97":2544367.77,"ADDRESS":"大灣路９４７號","OBJECTID":496710},"geometry":{"x":173465.39000000153,"y":2544367.7700000033}},{"attributes":{"ID":496738,"DIS_CODE":0,"TOWNNAME":"安平區","LI":"平安里","LIN":"8鄰","STREET":"安平路","SECT":" ","MAREA":" ","LANE":" ","ALLEY":" ","HOUSE_NO":"４３６號","E_COORD97":165298.75,"N_COORD97":2544325.3599999999,"ADDRESS":"安平路４３６號","OBJECTID":496711},"geometry":{"x":165298.75,"y":2544325.3599999994}},{"attributes":{"ID":496739,"DIS_CODE":0,"TOWNNAME":"安平區","LI":"平安里","LIN":"8鄰","STREET":"安平路","SECT":" ","MAREA":" ","LANE":" ","ALLEY":" ","HOUSE_NO":"４４２號","E_COORD97":165288.67000000001,"N_COORD97":2544337.8500000001,"ADDRESS":"安平路４４２號","OBJECTID":496712},"geometry":{"x":165288.67000000086,"y":2544337.8500000015}},{"attributes":{"ID":496740,"DIS_CODE":0,"TOWNNAME":"安平區","LI":"平安里","LIN":"17鄰","STREET":"安平路","SECT":" ","MAREA":" ","LANE":" ","ALLEY":" ","HOUSE_NO":"５５４號","E_COORD97":164980.73000000001,"N_COORD97":2544368.1000000001,"ADDRESS":"安平路５５４號","OBJECTID":496713},"geometry":{"x":164980.73000000045,"y":2544368.0999999996}},{"attributes":{"ID":496741,"DIS_CODE":0,"TOWNNAME":"安南區","LI":"東和里","LIN":"7鄰","STREET":"長和路","SECT":"一段","MAREA":" ","LANE":" ","ALLEY":" ","HOUSE_NO":"２５０號","E_COORD97":171522.98000000001,"N_COORD97":2551041.3300000001,"ADDRESS":"長和路一段２５０號","OBJECTID":496714},"geometry":{"x":171522.98000000231,"y":2551041.3300000019}},{"attributes":{"ID":496742,"DIS_CODE":0,"TOWNNAME":"安南區","LI":"\u25A0田里","LIN":"7鄰","STREET":"\u25A0田路","SECT":" ","MAREA":" ","LANE":" ","ALLEY":" ","HOUSE_NO":"２號","E_COORD97":162726.13,"N_COORD97":2548435.5800000001,"ADDRESS":"\u25A0田路２號","OBJECTID":496715},"geometry":{"x":162726.12999999989,"y":2548435.5800000019}},{"attributes":{"ID":496743,"DIS_CODE":0,"TOWNNAME":"安南區","LI":"\u25A0田里","LIN":"7鄰","STREET":"\u25A0田路","SECT":" ","MAREA":" ","LANE":" ","ALLEY":" ","HOUSE_NO":"６號","E_COORD97":162715.34,"N_COORD97":2548429.23,"ADDRESS":"\u25A0田路６號","OBJECTID":496716},"geometry":{"x":162715.34000000078,"y":2548429.2300000004}},{"attributes":{"ID":496744,"DIS_CODE":0,"TOWNNAME":"安南區","LI":"\u25A0田里","LIN":"7鄰","STREET":"\u25A0田路","SECT":" ","MAREA":" ","LANE":" ","ALLEY":" ","HOUSE_NO":"８號","E_COORD97":162705.17999999999,"N_COORD97":2548422.5699999998,"ADDRESS":"\u25A0田路８號","OBJECTID":496717},"geometry":{"x":162705.1799999997,"y":2548422.5700000022}},{"attributes":{"ID":496745,"DIS_CODE":0,"TOWNNAME":"安南區","LI":"鹿耳里","LIN":"7鄰","STREET":"媽祖宮一街","SECT":" ","MAREA":" ","LANE":" ","ALLEY":" ","HOUSE_NO":"２５７號","E_COORD97":160138.53,"N_COORD97":2548603.5800000001,"ADDRESS":"媽祖宮一街２５７號","OBJECTID":496718},"geometry":{"x":160138.53000000026,"y":2548603.5800000001}},{"attributes":{"ID":496746,"DIS_CODE":0,"TOWNNAME":"安南區","LI":"新順里","LIN":"7鄰","STREET":"北安路","SECT":"三段","MAREA":" ","LANE":" ","ALLEY":" ","HOUSE_NO":"７４７之１號","E_COORD97":169124.89000000001,"N_COORD97":2549862.3599999999,"ADDRESS":"北安路三段７４７之１號","OBJECTID":496719},"geometry":{"x":169124.88999999966,"y":2549862.3599999994}},{"attributes":{"ID":496747,"DIS_CODE":0,"TOWNNAME":"白河區","LI":"秀祐里","LIN":"7鄰","STREET":"中正路","SECT":" ","MAREA":" ","LANE":" ","ALLEY":" ","HOUSE_NO":"７９１號","E_COORD97":188518.38,"N_COORD97":2582904.8700000001,"ADDRESS":"中正路７９１號","OBJECTID":496720},"geometry":{"x":188518.37999999989,"y":2582904.8700000029}},{"attributes":{"ID":496748,"DIS_CODE":0,"TOWNNAME":"白河區","LI":"秀祐里","LIN":"7鄰","STREET":"中正路","SECT":" ","MAREA":" ","LANE":" ","ALLEY":" ","HOUSE_NO":"７９３號","E_COORD97":188513.26000000001,"N_COORD97":2582903.6699999999,"ADDRESS":"中正路７９３號","OBJECTID":496721},"geometry":{"x":188513.26000000071,"y":2582903.6699999981}},{"attributes":{"ID":496749,"DIS_CODE":0,"TOWNNAME":"白河區","LI":"秀祐里","LIN":"7鄰","STREET":"中正路","SECT":" ","MAREA":" ","LANE":" ","ALLEY":" ","HOUSE_NO":"９５７號","E_COORD97":187710.73000000001,"N_COORD97":2582589.3199999998,"ADDRESS":"中正路９５７號","OBJECTID":496722},"geometry":{"x":187710.73000000138,"y":2582589.3200000022}},{"attributes":{"ID":496750,"DIS_CODE":0,"TOWNNAME":"白河區","LI":"永安里","LIN":"7鄰","STREET":"五福街","SECT":" ","MAREA":" ","LANE":" ","ALLEY":" ","HOUSE_NO":"１４６號","E_COORD97":189755.81,"N_COORD97":2583051.9300000002,"ADDRESS":"五福街１４６號","OBJECTID":496723},"geometry":{"x":189755.80999999959,"y":2583051.9300000016}},{"attributes":{"ID":496751,"DIS_CODE":0,"TOWNNAME":"白河區","LI":"永安里","LIN":"7鄰","STREET":"五福街","SECT":" ","MAREA":" ","LANE":" ","ALLEY":" ","HOUSE_NO":"１４８號","E_COORD97":189743.57999999999,"N_COORD97":2583047.6099999999,"ADDRESS":"五福街１４８號","OBJECTID":496724},"geometry":{"x":189743.58000000101,"y":2583047.6100000013}},{"attributes":{"ID":496752,"DIS_CODE":0,"TOWNNAME":"東區","LI":"仁和里","LIN":"7鄰","STREET":"仁和路","SECT":" ","MAREA":" ","LANE":" ","ALLEY":" ","HOUSE_NO":"１２１號","E_COORD97":171462.57999999999,"N_COORD97":2541165.0699999998,"ADDRESS":"仁和路１２１號","OBJECTID":496725},"geometry":{"x":171462.58000000194,"y":2541165.0700000003}},{"attributes":{"ID":496753,"DIS_CODE":0,"TOWNNAME":"東區","LI":"仁和里","LIN":"7鄰","STREET":"仁和路","SECT":" ","MAREA":" ","LANE":" ","ALLEY":" ","HOUSE_NO":"１２３號","E_COORD97":171464.12,"N_COORD97":2541161.3799999999,"ADDRESS":"仁和路１２３號","OBJECTID":496726},"geometry":{"x":171464.12000000104,"y":2541161.379999999}},{"attributes":{"ID":496754,"DIS_CODE":0,"TOWNNAME":"東區","LI":"仁和里","LIN":"7鄰","STREET":"仁和路","SECT":" ","MAREA":" ","LANE":" ","ALLEY":" ","HOUSE_NO":"１２５號","E_COORD97":171466.89000000001,"N_COORD97":2541157.2400000002,"ADDRESS":"仁和路１２５號","OBJECTID":496727},"geometry":{"x":171466.89000000153,"y":2541157.2400000002}},{"attributes":{"ID":496755,"DIS_CODE":0,"TOWNNAME":"東區","LI":"仁和里","LIN":"7鄰","STREET":"仁和路","SECT":" ","MAREA":" ","LANE":" ","ALLEY":" ","HOUSE_NO":"１２５之１號","E_COORD97":171469.64999999999,"N_COORD97":2541152.4700000002,"ADDRESS":"仁和路１２５之１號","OBJECTID":496728},"geometry":{"x":171469.6500000013,"y":2541152.4700000007}},{"attributes":{"ID":496756,"DIS_CODE":0,"TOWNNAME":"東區","LI":"仁和里","LIN":"7鄰","STREET":"仁和路","SECT":" ","MAREA":" ","LANE":" ","ALLEY":" ","HOUSE_NO":"１２５之２號","E_COORD97":171471.35000000001,"N_COORD97":2541149.1000000001,"ADDRESS":"仁和路１２５之２號","OBJECTID":496729},"geometry":{"x":171471.34999999963,"y":2541149.1000000015}},{"attributes":{"ID":496757,"DIS_CODE":0,"TOWNNAME":"東區","LI":"仁和里","LIN":"7鄰","STREET":"仁和路","SECT":" ","MAREA":" ","LANE":" ","ALLEY":" ","HOUSE_NO":"１２５之３號","E_COORD97":171473.19,"N_COORD97":2541146.3300000001,"ADDRESS":"仁和路１２５之３號","OBJECTID":496730},"geometry":{"x":171473.19000000041,"y":2541146.3300000001}},{"attributes":{"ID":496758,"DIS_CODE":0,"TOWNNAME":"安平區","LI":"平安里","LIN":"17鄰","STREET":"安平路","SECT":" ","MAREA":" ","LANE":" ","ALLEY":" ","HOUSE_NO":"５６４號","E_COORD97":164959.73000000001,"N_COORD97":2544372.46,"ADDRESS":"安平路５６４號","OBJECTID":496731},"geometry":{"x":164959.73000000138,"y":2544372.4600000028}},{"attributes":{"ID":496759,"DIS_CODE":0,"TOWNNAME":"東區","LI":"仁和里","LIN":"7鄰","STREET":"仁和路","SECT":" ","MAREA":" ","LANE":" ","ALLEY":" ","HOUSE_NO":"１２５之５號","E_COORD97":171474.26999999999,"N_COORD97":2541143.5699999998,"ADDRESS":"仁和路１２５之５號","OBJECTID":496732},"geometry":{"x":171474.27000000142,"y":2541143.5700000022}},{"attributes":{"ID":496760,"DIS_CODE":0,"TOWNNAME":"東區","LI":"崇德里","LIN":"7鄰","STREET":"崇德六街","SECT":" ","MAREA":" ","LANE":" ","ALLEY":" ","HOUSE_NO":"７８號","E_COORD97":170835.82000000001,"N_COORD97":2541851.4100000001,"ADDRESS":"崇德六街７８號","OBJECTID":496733},"geometry":{"x":170835.82000000123,"y":2541851.4100000001}},{"attributes":{"ID":496761,"DIS_CODE":0,"TOWNNAME":"白河區","LI":"永安里","LIN":"7鄰","STREET":"六合街","SECT":" ","MAREA":" ","LANE":" ","ALLEY":" ","HOUSE_NO":"１２６之１號","E_COORD97":189749.82000000001,"N_COORD97":2582999,"ADDRESS":"六合街１２６之１號","OBJECTID":496734},"geometry":{"x":189749.8200000003,"y":2582999}},{"attributes":{"ID":496762,"DIS_CODE":0,"TOWNNAME":"白河區","LI":"永安里","LIN":"7鄰","STREET":"六合街","SECT":" ","MAREA":" ","LANE":" ","ALLEY":" ","HOUSE_NO":"１２６之２號","E_COORD97":189750.26000000001,"N_COORD97":2583004.25,"ADDRESS":"六合街１２６之２號","OBJECTID":496735},"geometry":{"x":189750.25999999885,"y":2583004.25}},{"attributes":{"ID":496763,"DIS_CODE":0,"TOWNNAME":"白河區","LI":"永安里","LIN":"7鄰","STREET":"六合街","SECT":" ","MAREA":" ","LANE":" ","ALLEY":" ","HOUSE_NO":"１２６之３號","E_COORD97":189751.25,"N_COORD97":2583010.25,"ADDRESS":"六合街１２６之３號","OBJECTID":496736},"geometry":{"x":189751.25000000093,"y":2583010.25}},{"attributes":{"ID":496764,"DIS_CODE":0,"TOWNNAME":"白河區","LI":"永安里","LIN":"7鄰","STREET":"六合街","SECT":" ","MAREA":" ","LANE":" ","ALLEY":" ","HOUSE_NO":"１２６之５號","E_COORD97":189770.25,"N_COORD97":2583006.0499999998,"ADDRESS":"六合街１２６之５號","OBJECTID":496737},"geometry":{"x":189770.25,"y":2583006.0500000007}},{"attributes":{"ID":496765,"DIS_CODE":0,"TOWNNAME":"白河區","LI":"永安里","LIN":"7鄰","STREET":"六合街","SECT":" ","MAREA":" ","LANE":" ","ALLEY":" ","HOUSE_NO":"１２６號","E_COORD97":189752.64000000001,"N_COORD97":2582979.77,"ADDRESS":"六合街１２６號","OBJECTID":496738},"geometry":{"x":189752.63999999873,"y":2582979.7699999996}},{"attributes":{"ID":496766,"DIS_CODE":0,"TOWNNAME":"白河區","LI":"永安里","LIN":"7鄰","STREET":"六合街","SECT":" ","MAREA":" ","LANE":" ","ALLEY":" ","HOUSE_NO":"１３０號","E_COORD97":189705.25,"N_COORD97":2582975.7599999998,"ADDRESS":"六合街１３０號","OBJECTID":496739},"geometry":{"x":189705.25000000093,"y":2582975.7600000016}},{"attributes":{"ID":496767,"DIS_CODE":0,"TOWNNAME":"白河區","LI":"永安里","LIN":"7鄰","STREET":"六合街","SECT":" ","MAREA":" ","LANE":" ","ALLEY":" ","HOUSE_NO":"１３２號","E_COORD97":189700.01000000001,"N_COORD97":2582974.0600000001,"ADDRESS":"六合街１３２號","OBJECTID":496740},"geometry":{"x":189700.01000000071,"y":2582974.0600000024}},{"attributes":{"ID":496768,"DIS_CODE":0,"TOWNNAME":"白河區","LI":"白河里","LIN":"7鄰","STREET":"文明街","SECT":" ","MAREA":" ","LANE":" ","ALLEY":" ","HOUSE_NO":"１１之１號","E_COORD97":190253.79999999999,"N_COORD97":2582955.77,"ADDRESS":"文明街１１之１號","OBJECTID":496741},"geometry":{"x":190253.80000000075,"y":2582955.7699999996}},{"attributes":{"ID":496769,"DIS_CODE":0,"TOWNNAME":"白河區","LI":"白河里","LIN":"7鄰","STREET":"文明街","SECT":" ","MAREA":" ","LANE":" ","ALLEY":" ","HOUSE_NO":"１１號","E_COORD97":190251.42000000001,"N_COORD97":2582959.1899999999,"ADDRESS":"文明街１１號","OBJECTID":496742},"geometry":{"x":190251.42000000086,"y":2582959.1900000013}},{"attributes":{"ID":496770,"DIS_CODE":0,"TOWNNAME":"白河區","LI":"白河里","LIN":"7鄰","STREET":"文明街","SECT":" ","MAREA":" ","LANE":" ","ALLEY":" ","HOUSE_NO":"１５號","E_COORD97":190233.45000000001,"N_COORD97":2582986.0899999999,"ADDRESS":"文明街１５號","OBJECTID":496743},"geometry":{"x":190233.45000000112,"y":2582986.0900000017}},{"attributes":{"ID":496771,"DIS_CODE":0,"TOWNNAME":"白河區","LI":"白河里","LIN":"7鄰","STREET":"文明街","SECT":" ","MAREA":" ","LANE":" ","ALLEY":" ","HOUSE_NO":"１７號","E_COORD97":190231.37,"N_COORD97":2582989.0699999998,"ADDRESS":"文明街１７號","OBJECTID":496744},"geometry":{"x":190231.37000000197,"y":2582989.0700000003}},{"attributes":{"ID":496772,"DIS_CODE":0,"TOWNNAME":"白河區","LI":"白河里","LIN":"7鄰","STREET":"文明街","SECT":" ","MAREA":" ","LANE":" ","ALLEY":" ","HOUSE_NO":"１之１號","E_COORD97":190268.04000000001,"N_COORD97":2582932.8799999999,"ADDRESS":"文明街１之１號","OBJECTID":496745},"geometry":{"x":190268.04000000097,"y":2582932.8800000008}},{"attributes":{"ID":496773,"DIS_CODE":0,"TOWNNAME":"白河區","LI":"白河里","LIN":"7鄰","STREET":"文明街","SECT":" ","MAREA":" ","LANE":" ","ALLEY":" ","HOUSE_NO":"１號","E_COORD97":190266.23000000001,"N_COORD97":2582937.6099999999,"ADDRESS":"文明街１號","OBJECTID":496746},"geometry":{"x":190266.23000000045,"y":2582937.6100000031}},{"attributes":{"ID":496774,"DIS_CODE":0,"TOWNNAME":"白河區","LI":"白河里","LIN":"7鄰","STREET":"文明街","SECT":" ","MAREA":" ","LANE":" ","ALLEY":" ","HOUSE_NO":"２１號","E_COORD97":190226.91,"N_COORD97":2582995.6699999999,"ADDRESS":"文明街２１號","OBJECTID":496747},"geometry":{"x":190226.91000000108,"y":2582995.6700000037}},{"attributes":{"ID":496775,"DIS_CODE":0,"TOWNNAME":"白河區","LI":"白河里","LIN":"7鄰","STREET":"文明街","SECT":" ","MAREA":" ","LANE":" ","ALLEY":" ","HOUSE_NO":"２３號","E_COORD97":190224.73000000001,"N_COORD97":2582999.0299999998,"ADDRESS":"文明街２３號","OBJECTID":496748},"geometry":{"x":190224.73000000138,"y":2582999.0300000031}},{"attributes":{"ID":496776,"DIS_CODE":0,"TOWNNAME":"白河區","LI":"白河里","LIN":"7鄰","STREET":"文明街","SECT":" ","MAREA":" ","LANE":" ","ALLEY":" ","HOUSE_NO":"２５號","E_COORD97":190222.19,"N_COORD97":2583002.4300000002,"ADDRESS":"文明街２５號","OBJECTID":496749},"geometry":{"x":190222.19000000041,"y":2583002.4299999997}},{"attributes":{"ID":496777,"DIS_CODE":0,"TOWNNAME":"白河區","LI":"白河里","LIN":"7鄰","STREET":"文明街","SECT":" ","MAREA":" ","LANE":" ","ALLEY":" ","HOUSE_NO":"２７號","E_COORD97":190220.10999999999,"N_COORD97":2583005.75,"ADDRESS":"文明街２７號","OBJECTID":496750},"geometry":{"x":190220.11000000127,"y":2583005.7500000019}},{"attributes":{"ID":496778,"DIS_CODE":0,"TOWNNAME":"白河區","LI":"白河里","LIN":"7鄰","STREET":"文明街","SECT":" ","MAREA":" ","LANE":" ","ALLEY":" ","HOUSE_NO":"２９號","E_COORD97":190218.10999999999,"N_COORD97":2583009.2400000002,"ADDRESS":"文明街２９號","OBJECTID":496751},"geometry":{"x":190218.1100000022,"y":2583009.2400000021}},{"attributes":{"ID":496779,"DIS_CODE":0,"TOWNNAME":"白河區","LI":"白河里","LIN":"7鄰","STREET":"文明街","SECT":" ","MAREA":" ","LANE":" ","ALLEY":" ","HOUSE_NO":"３３號","E_COORD97":190216.64000000001,"N_COORD97":2583014.3799999999,"ADDRESS":"文明街３３號","OBJECTID":496752},"geometry":{"x":190216.63999999966,"y":2583014.3800000008}},{"attributes":{"ID":496780,"DIS_CODE":0,"TOWNNAME":"白河區","LI":"白河里","LIN":"7鄰","STREET":"文明街","SECT":" ","MAREA":" ","LANE":" ","ALLEY":" ","HOUSE_NO":"３５號","E_COORD97":190213.23000000001,"N_COORD97":2583019.6000000001,"ADDRESS":"文明街３５號","OBJECTID":496753},"geometry":{"x":190213.23000000138,"y":2583019.6000000015}},{"attributes":{"ID":496781,"DIS_CODE":0,"TOWNNAME":"白河區","LI":"白河里","LIN":"7鄰","STREET":"文明街","SECT":" ","MAREA":" ","LANE":" ","ALLEY":" ","HOUSE_NO":"３７號","E_COORD97":190209.81,"N_COORD97":2583024.8399999999,"ADDRESS":"文明街３７號","OBJECTID":496754},"geometry":{"x":190209.81000000052,"y":2583024.8400000036}},{"attributes":{"ID":496782,"DIS_CODE":0,"TOWNNAME":"白河區","LI":"白河里","LIN":"7鄰","STREET":"文明街","SECT":" ","MAREA":" ","LANE":" ","ALLEY":" ","HOUSE_NO":"３９號","E_COORD97":190206.39999999999,"N_COORD97":2583030.0699999998,"ADDRESS":"文明街３９號","OBJECTID":496755},"geometry":{"x":190206.4000000013,"y":2583030.0700000003}},{"attributes":{"ID":496783,"DIS_CODE":0,"TOWNNAME":"白河區","LI":"白河里","LIN":"7鄰","STREET":"文明街","SECT":" ","MAREA":" ","LANE":" ","ALLEY":" ","HOUSE_NO":"３號","E_COORD97":190263.88,"N_COORD97":2582940.7200000002,"ADDRESS":"文明街３號","OBJECTID":496756},"geometry":{"x":190263.88000000082,"y":2582940.7200000007}},{"attributes":{"ID":496784,"DIS_CODE":0,"TOWNNAME":"白河區","LI":"白河里","LIN":"7鄰","STREET":"文明街","SECT":" ","MAREA":" ","LANE":" ","ALLEY":" ","HOUSE_NO":"４１號","E_COORD97":190199.23000000001,"N_COORD97":2583039.54,"ADDRESS":"文明街４１號","OBJECTID":496757},"geometry":{"x":190199.23000000138,"y":2583039.5400000028}},{"attributes":{"ID":496785,"DIS_CODE":0,"TOWNNAME":"白河區","LI":"白河里","LIN":"7鄰","STREET":"文明街","SECT":" ","MAREA":" ","LANE":" ","ALLEY":" ","HOUSE_NO":"５號","E_COORD97":190261.69,"N_COORD97":2582944.1499999999,"ADDRESS":"文明街５號","OBJECTID":496758},"geometry":{"x":190261.68999999948,"y":2582944.1500000004}},{"attributes":{"ID":496786,"DIS_CODE":0,"TOWNNAME":"白河區","LI":"白河里","LIN":"7鄰","STREET":"文明街","SECT":" ","MAREA":" ","LANE":" ","ALLEY":" ","HOUSE_NO":"７號","E_COORD97":190258.98000000001,"N_COORD97":2582948.0699999998,"ADDRESS":"文明街７號","OBJECTID":496759},"geometry":{"x":190258.98000000138,"y":2582948.0700000003}},{"attributes":{"ID":496787,"DIS_CODE":0,"TOWNNAME":"白河區","LI":"白河里","LIN":"7鄰","STREET":"文明街","SECT":" ","MAREA":" ","LANE":" ","ALLEY":" ","HOUSE_NO":"９號","E_COORD97":190256.06,"N_COORD97":2582951.96,"ADDRESS":"文明街９號","OBJECTID":496760},"geometry":{"x":190256.05999999959,"y":2582951.9600000028}},{"attributes":{"ID":496788,"DIS_CODE":0,"TOWNNAME":"仁德區","LI":"成功里","LIN":"7鄰","STREET":"保生東路","SECT":" ","MAREA":" ","LANE":" ","ALLEY":" ","HOUSE_NO":"２３８號","E_COORD97":171136.79000000001,"N_COORD97":2539778.75,"ADDRESS":"保生東路２３８號","OBJECTID":496761},"geometry":{"x":171136.79000000004,"y":2539778.7500000019}},{"attributes":{"ID":496789,"DIS_CODE":0,"TOWNNAME":"仁德區","LI":"後壁里","LIN":"7鄰","STREET":"德安路","SECT":" ","MAREA":" ","LANE":" ","ALLEY":" ","HOUSE_NO":"８３號","E_COORD97":173572.23000000001,"N_COORD97":2538948.3199999998,"ADDRESS":"德安路８３號","OBJECTID":496762},"geometry":{"x":173572.23000000045,"y":2538948.3200000022}},{"attributes":{"ID":496790,"DIS_CODE":0,"TOWNNAME":"仁德區","LI":"成功里","LIN":"7鄰","STREET":"保生東路","SECT":" ","MAREA":" ","LANE":" ","ALLEY":" ","HOUSE_NO":"２４０號","E_COORD97":171131.09,"N_COORD97":2539780,"ADDRESS":"保生東路２４０號","OBJECTID":496763},"geometry":{"x":171131.08999999985,"y":2539780.0000000019}},{"attributes":{"ID":496791,"DIS_CODE":0,"TOWNNAME":"仁德區","LI":"新田里","LIN":"7鄰","STREET":"新田路","SECT":" ","MAREA":" ","LANE":" ","ALLEY":" ","HOUSE_NO":"６號","E_COORD97":174410.66,"N_COORD97":2538919.7400000002,"ADDRESS":"新田路６號","OBJECTID":496764},"geometry":{"x":174410.66000000108,"y":2538919.7400000002}},{"attributes":{"ID":496792,"DIS_CODE":0,"TOWNNAME":"仁德區","LI":"田厝里","LIN":"7鄰","STREET":"保安路","SECT":"二段","MAREA":" ","LANE":" ","ALLEY":" ","HOUSE_NO":"６１３號","E_COORD97":172747.70000000001,"N_COORD97":2537601.0699999998,"ADDRESS":"保安路二段６１３號","OBJECTID":496765},"geometry":{"x":172747.70000000019,"y":2537601.0700000003}},{"attributes":{"ID":496793,"DIS_CODE":0,"TOWNNAME":"仁德區","LI":"田厝里","LIN":"7鄰","STREET":"保安路","SECT":"二段","MAREA":" ","LANE":" ","ALLEY":" ","HOUSE_NO":"６１１號","E_COORD97":172740.98000000001,"N_COORD97":2537601.3199999998,"ADDRESS":"保安路二段６１１號","OBJECTID":496766},"geometry":{"x":172740.98000000045,"y":2537601.3200000022}},{"attributes":{"ID":496794,"DIS_CODE":0,"TOWNNAME":"仁德區","LI":"保安里","LIN":"7鄰","STREET":"文賢二街","SECT":" ","MAREA":" ","LANE":" ","ALLEY":" ","HOUSE_NO":"２１號","E_COORD97":171645.39999999999,"N_COORD97":2536118.5699999998,"ADDRESS":"文賢二街２１號","OBJECTID":496767},"geometry":{"x":171645.40000000224,"y":2536118.5700000022}},{"attributes":{"ID":496795,"DIS_CODE":0,"TOWNNAME":"仁德區","LI":"新田里","LIN":"7鄰","STREET":"新田路","SECT":" ","MAREA":" ","LANE":" ","ALLEY":" ","HOUSE_NO":"１０號","E_COORD97":174441.76999999999,"N_COORD97":2538931.4900000002,"ADDRESS":"新田路１０號","OBJECTID":496768},"geometry":{"x":174441.76999999955,"y":2538931.4900000002}},{"attributes":{"ID":496796,"DIS_CODE":0,"TOWNNAME":"仁德區","LI":"田厝里","LIN":"7鄰","STREET":"田厝二街","SECT":" ","MAREA":" ","LANE":" ","ALLEY":" ","HOUSE_NO":"１５號","E_COORD97":172461.76999999999,"N_COORD97":2537569.7400000002,"ADDRESS":"田厝二街１５號","OBJECTID":496769},"geometry":{"x":172461.76999999955,"y":2537569.7400000002}},{"attributes":{"ID":496797,"DIS_CODE":0,"TOWNNAME":"仁德區","LI":"後壁里","LIN":"7鄰","STREET":"德安路","SECT":" ","MAREA":" ","LANE":" ","ALLEY":" ","HOUSE_NO":"８１號","E_COORD97":173567.04000000001,"N_COORD97":2538956.0699999998,"ADDRESS":"德安路８１號","OBJECTID":496770},"geometry":{"x":173567.04000000097,"y":2538956.0700000022}},{"attributes":{"ID":496798,"DIS_CODE":0,"TOWNNAME":"仁德區","LI":"後壁里","LIN":"7鄰","STREET":"德安路","SECT":" ","MAREA":" ","LANE":" ","ALLEY":" ","HOUSE_NO":"７５號之１","E_COORD97":173526.81,"N_COORD97":2539022.0600000001,"ADDRESS":"德安路７５號之１","OBJECTID":496771},"geometry":{"x":173526.80999999866,"y":2539022.0600000005}},{"attributes":{"ID":496799,"DIS_CODE":0,"TOWNNAME":"永康區","LI":"蔦松里","LIN":"7鄰","STREET":"蔦松一街","SECT":" ","MAREA":" ","LANE":" ","ALLEY":" ","HOUSE_NO":"４２號","E_COORD97":173973.45999999999,"N_COORD97":2549405.6499999999,"ADDRESS":"蔦松一街４２號","OBJECTID":496772},"geometry":{"x":173973.45999999996,"y":2549405.6500000022}},{"attributes":{"ID":496800,"DIS_CODE":0,"TOWNNAME":"永康區","LI":"蔦松里","LIN":"7鄰","STREET":"蔦松一街","SECT":" ","MAREA":" ","LANE":" ","ALLEY":" ","HOUSE_NO":"４６之１號","E_COORD97":173960.57000000001,"N_COORD97":2549418.5099999998,"ADDRESS":"蔦松一街４６之１號","OBJECTID":496773},"geometry":{"x":173960.57000000123,"y":2549418.5100000016}},{"attributes":{"ID":496801,"DIS_CODE":0,"TOWNNAME":"永康區","LI":"蔦松里","LIN":"7鄰","STREET":"蔦松一街","SECT":" ","MAREA":" ","LANE":" ","ALLEY":" ","HOUSE_NO":"４６之２號","E_COORD97":173955.13,"N_COORD97":2549421.46,"ADDRESS":"蔦松一街４６之２號","OBJECTID":496774},"geometry":{"x":173955.12999999989,"y":2549421.4600000009}},{"attributes":{"ID":496802,"DIS_CODE":0,"TOWNNAME":"永康區","LI":"烏竹里","LIN":"7鄰","STREET":"龍橋街","SECT":" ","MAREA":" ","LANE":" ","ALLEY":" ","HOUSE_NO":"５０９號","E_COORD97":174363.73000000001,"N_COORD97":2549447.8599999999,"ADDRESS":"龍橋街５０９號","OBJECTID":496775},"geometry":{"x":174363.73000000045,"y":2549447.8599999994}},{"attributes":{"ID":496803,"DIS_CODE":0,"TOWNNAME":"永康區","LI":"烏竹里","LIN":"7鄰","STREET":"龍橋街","SECT":" ","MAREA":" ","LANE":" ","ALLEY":" ","HOUSE_NO":"５１３號","E_COORD97":174358.92999999999,"N_COORD97":2549457.5499999998,"ADDRESS":"龍橋街５１３號","OBJECTID":496776},"geometry":{"x":174358.93000000063,"y":2549457.5500000026}},{"attributes":{"ID":496804,"DIS_CODE":0,"TOWNNAME":"永康區","LI":"烏竹里","LIN":"7鄰","STREET":"龍橋街","SECT":" ","MAREA":" ","LANE":" ","ALLEY":" ","HOUSE_NO":"５１５號","E_COORD97":174356.60000000001,"N_COORD97":2549461.77,"ADDRESS":"龍橋街５１５號","OBJECTID":496777},"geometry":{"x":174356.59999999963,"y":2549461.7700000014}},{"attributes":{"ID":496805,"DIS_CODE":0,"TOWNNAME":"永康區","LI":"烏竹里","LIN":"7鄰","STREET":"龍橋街","SECT":" ","MAREA":" ","LANE":" ","ALLEY":" ","HOUSE_NO":"５１７號","E_COORD97":174355.14000000001,"N_COORD97":2549466.21,"ADDRESS":"龍橋街５１７號","OBJECTID":496778},"geometry":{"x":174355.13999999966,"y":2549466.2100000028}},{"attributes":{"ID":496806,"DIS_CODE":0,"TOWNNAME":"永康區","LI":"烏竹里","LIN":"7鄰","STREET":"龍橋街","SECT":" ","MAREA":" ","LANE":" ","ALLEY":" ","HOUSE_NO":"５１９號","E_COORD97":174353.23999999999,"N_COORD97":2549470.4300000002,"ADDRESS":"龍橋街５１９號","OBJECTID":496779},"geometry":{"x":174353.24000000022,"y":2549470.4300000016}},{"attributes":{"ID":496807,"DIS_CODE":0,"TOWNNAME":"永康區","LI":"六合里","LIN":"7鄰","STREET":"六合路","SECT":" ","MAREA":" ","LANE":" ","ALLEY":" ","HOUSE_NO":"５５之１號","E_COORD97":171156.98000000001,"N_COORD97":2545621.2999999998,"ADDRESS":"六合路５５之１號","OBJECTID":496780},"geometry":{"x":171156.98000000138,"y":2545621.3000000026}},{"attributes":{"ID":496808,"DIS_CODE":0,"TOWNNAME":"安平區","LI":"石門里","LIN":"18鄰","STREET":"\u25A0忠街","SECT":" ","MAREA":" ","LANE":" ","ALLEY":" ","HOUSE_NO":"３號","E_COORD97":164389.85000000001,"N_COORD97":2544592.3900000001,"ADDRESS":"\u25A0忠街３號","OBJECTID":496781},"geometry":{"x":164389.85000000056,"y":2544592.3900000025}},{"attributes":{"ID":496809,"DIS_CODE":0,"TOWNNAME":"安平區","LI":"平安里","LIN":"17鄰","STREET":"安平路","SECT":" ","MAREA":" ","LANE":" ","ALLEY":" ","HOUSE_NO":"５６８號","E_COORD97":164947.10000000001,"N_COORD97":2544374.8700000001,"ADDRESS":"安平路５６８號","OBJECTID":496782},"geometry":{"x":164947.09999999963,"y":2544374.870000001}},{"attributes":{"ID":496810,"DIS_CODE":0,"TOWNNAME":"仁德區","LI":"後壁里","LIN":"7鄰","STREET":"德安路","SECT":" ","MAREA":" ","LANE":" ","ALLEY":" ","HOUSE_NO":"７７號","E_COORD97":173553.92999999999,"N_COORD97":2538975.3199999998,"ADDRESS":"德安路７７號","OBJECTID":496783},"geometry":{"x":173553.93000000063,"y":2538975.3200000022}},{"attributes":{"ID":496811,"DIS_CODE":0,"TOWNNAME":"安平區","LI":"平安里","LIN":"17鄰","STREET":"安平路","SECT":" ","MAREA":" ","LANE":" ","ALLEY":" ","HOUSE_NO":"５９２號","E_COORD97":164877.04000000001,"N_COORD97":2544389.7000000002,"ADDRESS":"安平路５９２號","OBJECTID":496784},"geometry":{"x":164877.0400000019,"y":2544389.7000000011}},{"attributes":{"ID":496812,"DIS_CODE":0,"TOWNNAME":"安平區","LI":"平安里","LIN":"17鄰","STREET":"安平路","SECT":" ","MAREA":" ","LANE":" ","ALLEY":" ","HOUSE_NO":"５９４號","E_COORD97":164873.98999999999,"N_COORD97":2544390.5099999998,"ADDRESS":"安平路５９４號","OBJECTID":496785},"geometry":{"x":164873.98999999929,"y":2544390.5100000016}},{"attributes":{"ID":496813,"DIS_CODE":0,"TOWNNAME":"安平區","LI":"平安里","LIN":"17鄰","STREET":"安平路","SECT":" ","MAREA":" ","LANE":" ","ALLEY":" ","HOUSE_NO":"６００號","E_COORD97":164856.69,"N_COORD97":2544395.6899999999,"ADDRESS":"安平路６００號","OBJECTID":496786},"geometry":{"x":164856.69000000134,"y":2544395.6900000013}},{"attributes":{"ID":496814,"DIS_CODE":0,"TOWNNAME":"安平區","LI":"石門里","LIN":"8鄰","STREET":"安北路","SECT":" ","MAREA":" ","LANE":" ","ALLEY":" ","HOUSE_NO":"６６號","E_COORD97":164541.10000000001,"N_COORD97":2544647.54,"ADDRESS":"安北路６６號","OBJECTID":496787},"geometry":{"x":164541.10000000056,"y":2544647.540000001}},{"attributes":{"ID":496815,"DIS_CODE":0,"TOWNNAME":"新化區","LI":"東榮里","LIN":"29鄰","STREET":"復興路","SECT":" ","MAREA":" ","LANE":" ","ALLEY":" ","HOUSE_NO":"２９５號","E_COORD97":179332.62,"N_COORD97":2548366.25,"ADDRESS":"復興路２９５號","OBJECTID":496788},"geometry":{"x":179332.62000000011,"y":2548366.2500000019}},{"attributes":{"ID":496816,"DIS_CODE":0,"TOWNNAME":"佳里區","LI":"鎮山里","LIN":"7鄰","STREET":"崇德街","SECT":" ","MAREA":" ","LANE":" ","ALLEY":" ","HOUSE_NO":"５０號","E_COORD97":166129.67000000001,"N_COORD97":2561664.7999999998,"ADDRESS":"崇德街５０號","OBJECTID":496789},"geometry":{"x":166129.66999999993,"y":2561664.8000000026}},{"attributes":{"ID":496817,"DIS_CODE":0,"TOWNNAME":"佳里區","LI":"鎮山里","LIN":"7鄰","STREET":"崇德街","SECT":" ","MAREA":" ","LANE":" ","ALLEY":" ","HOUSE_NO":"１０號","E_COORD97":166265.85999999999,"N_COORD97":2561685.7400000002,"ADDRESS":"崇德街１０號","OBJECTID":496790},"geometry":{"x":166265.86000000127,"y":2561685.7400000002}},{"attributes":{"ID":496818,"DIS_CODE":0,"TOWNNAME":"佳里區","LI":"鎮山里","LIN":"7鄰","STREET":"崇德街","SECT":" ","MAREA":" ","LANE":" ","ALLEY":" ","HOUSE_NO":"２號之１","E_COORD97":166282.09,"N_COORD97":2561688.4900000002,"ADDRESS":"崇德街２號之１","OBJECTID":496791},"geometry":{"x":166282.09000000078,"y":2561688.4900000039}},{"attributes":{"ID":496819,"DIS_CODE":0,"TOWNNAME":"佳里區","LI":"鎮山里","LIN":"7鄰","STREET":"崇德街","SECT":" ","MAREA":" ","LANE":" ","ALLEY":" ","HOUSE_NO":"２號","E_COORD97":166288.73999999999,"N_COORD97":2561689.6000000001,"ADDRESS":"崇德街２號","OBJECTID":496792},"geometry":{"x":166288.74000000022,"y":2561689.5999999996}},{"attributes":{"ID":496820,"DIS_CODE":0,"TOWNNAME":"佳里區","LI":"鎮山里","LIN":"7鄰","STREET":"崇德街","SECT":" ","MAREA":" ","LANE":" ","ALLEY":" ","HOUSE_NO":"３０號","E_COORD97":166215.07000000001,"N_COORD97":2561676.3700000001,"ADDRESS":"崇德街３０號","OBJECTID":496793},"geometry":{"x":166215.07000000123,"y":2561676.3699999992}},{"attributes":{"ID":496821,"DIS_CODE":0,"TOWNNAME":"佳里區","LI":"鎮山里","LIN":"7鄰","STREET":"崇德街","SECT":" ","MAREA":" ","LANE":" ","ALLEY":" ","HOUSE_NO":"３３號","E_COORD97":166220.29000000001,"N_COORD97":2561660.6499999999,"ADDRESS":"崇德街３３號","OBJECTID":496794},"geometry":{"x":166220.29000000097,"y":2561660.6500000022}},{"attributes":{"ID":496822,"DIS_CODE":0,"TOWNNAME":"佳里區","LI":"鎮山里","LIN":"7鄰","STREET":"崇德街","SECT":" ","MAREA":" ","LANE":" ","ALLEY":" ","HOUSE_NO":"３號","E_COORD97":166300.04999999999,"N_COORD97":2561671.1699999999,"ADDRESS":"崇德街３號","OBJECTID":496795},"geometry":{"x":166300.04999999981,"y":2561671.1700000018}},{"attributes":{"ID":496823,"DIS_CODE":0,"TOWNNAME":"佳里區","LI":"鎮山里","LIN":"7鄰","STREET":"崇德街","SECT":" ","MAREA":" ","LANE":" ","ALLEY":" ","HOUSE_NO":"４０號","E_COORD97":166187.04999999999,"N_COORD97":2561671.3900000001,"ADDRESS":"崇德街４０號","OBJECTID":496796},"geometry":{"x":166187.05000000168,"y":2561671.3900000006}},{"attributes":{"ID":496824,"DIS_CODE":0,"TOWNNAME":"佳里區","LI":"鎮山里","LIN":"7鄰","STREET":"崇德街","SECT":" ","MAREA":" ","LANE":" ","ALLEY":" ","HOUSE_NO":"４２號","E_COORD97":166182.53,"N_COORD97":2561670.8999999999,"ADDRESS":"崇德街４２號","OBJECTID":496797},"geometry":{"x":166182.53000000212,"y":2561670.9000000004}},{"attributes":{"ID":496825,"DIS_CODE":0,"TOWNNAME":"佳里區","LI":"鎮山里","LIN":"7鄰","STREET":"崇德街","SECT":" ","MAREA":" ","LANE":" ","ALLEY":" ","HOUSE_NO":"４５號","E_COORD97":166197.88,"N_COORD97":2561656.5699999998,"ADDRESS":"崇德街４５號","OBJECTID":496798},"geometry":{"x":166197.87999999989,"y":2561656.5700000003}},{"attributes":{"ID":496826,"DIS_CODE":0,"TOWNNAME":"佳里區","LI":"鎮山里","LIN":"7鄰","STREET":"崇德街","SECT":" ","MAREA":" ","LANE":" ","ALLEY":" ","HOUSE_NO":"４７號","E_COORD97":166193.14999999999,"N_COORD97":2561655.7999999998,"ADDRESS":"崇德街４７號","OBJECTID":496799},"geometry":{"x":166193.15000000037,"y":2561655.8000000007}},{"attributes":{"ID":496827,"DIS_CODE":0,"TOWNNAME":"佳里區","LI":"鎮山里","LIN":"7鄰","STREET":"崇德街","SECT":" ","MAREA":" ","LANE":" ","ALLEY":" ","HOUSE_NO":"４８號","E_COORD97":166133.76000000001,"N_COORD97":2561665.8399999999,"ADDRESS":"崇德街４８號","OBJECTID":496800},"geometry":{"x":166133.76000000071,"y":2561665.8400000017}}]}