{"displayFieldName":"TOWNNAME","fieldAliases":{"ID":"ID","DIS_CODE":"DIS_CODE","TOWNNAME":"TOWNNAME","LI":"LI","LIN":"LIN","STREET":"STREET","SECT":"SECT","MAREA":"MAREA","LANE":"LANE","ALLEY":"ALLEY","HOUSE_NO":"HOUSE_NO","E_COORD97":"E_COORD97","N_COORD97":"N_COORD97","ADDRESS":"ADDRESS","OBJECTID":"OBJECTID"},"geometryType":"esriGeometryPoint","spatialReference":{"wkid":102443,"latestWkid":3826},"fields":[{"name":"ID","type":"esriFieldTypeDouble","alias":"ID"},{"name":"DIS_CODE","type":"esriFieldTypeInteger","alias":"DIS_CODE"},{"name":"TOWNNAME","type":"esriFieldTypeString","alias":"TOWNNAME","length":8},{"name":"LI","type":"esriFieldTypeString","alias":"LI","length":8},{"name":"LIN","type":"esriFieldTypeString","alias":"LIN","length":12},{"name":"STREET","type":"esriFieldTypeString","alias":"STREET","length":20},{"name":"SECT","type":"esriFieldTypeString","alias":"SECT","length":8},{"name":"MAREA","type":"esriFieldTypeString","alias":"MAREA","length":12},{"name":"LANE","type":"esriFieldTypeString","alias":"LANE","length":10},{"name":"ALLEY","type":"esriFieldTypeString","alias":"ALLEY","length":10},{"name":"HOUSE_NO","type":"esriFieldTypeString","alias":"HOUSE_NO","length":20},{"name":"E_COORD97","type":"esriFieldTypeDouble","alias":"E_COORD97"},{"name":"N_COORD97","type":"esriFieldTypeDouble","alias":"N_COORD97"},{"name":"ADDRESS","type":"esriFieldTypeString","alias":"ADDRESS","length":50},{"name":"OBJECTID","type":"esriFieldTypeOID","alias":"OBJECTID"}],"features":[{"attributes":{"ID":422626,"DIS_CODE":0,"TOWNNAME":"安南區","LI":"梅花里","LIN":"20鄰","STREET":"安中路","SECT":"一段","MAREA":" ","LANE":"７５７巷","ALLEY":" ","HOUSE_NO":"２２號","E_COORD97":167382.03,"N_COORD97":2549280.9900000002,"ADDRESS":"安中路一段７５７巷２２號","OBJECTID":422601},"geometry":{"x":167382.03000000026,"y":2549280.9900000021}},{"attributes":{"ID":422627,"DIS_CODE":0,"TOWNNAME":"安南區","LI":"溪北里","LIN":"1鄰","STREET":"安和路","SECT":"一段","MAREA":" ","LANE":"１０１巷","ALLEY":" ","HOUSE_NO":"３８號","E_COORD97":169379.82000000001,"N_COORD97":2547582.7599999998,"ADDRESS":"安和路一段１０１巷３８號","OBJECTID":422602},"geometry":{"x":169379.82000000123,"y":2547582.7600000016}},{"attributes":{"ID":422628,"DIS_CODE":0,"TOWNNAME":"安南區","LI":"青草里","LIN":"1鄰","STREET":"青砂街","SECT":"二段","MAREA":" ","LANE":"２９９巷","ALLEY":" ","HOUSE_NO":"６號之１","E_COORD97":159209.26000000001,"N_COORD97":2553011.7599999998,"ADDRESS":"青砂街二段２９９巷６號之１","OBJECTID":422603},"geometry":{"x":159209.25999999978,"y":2553011.7600000016}},{"attributes":{"ID":422629,"DIS_CODE":0,"TOWNNAME":"安南區","LI":"溪心里","LIN":"4鄰","STREET":"本原街","SECT":"二段","MAREA":" ","LANE":"１０６巷","ALLEY":" ","HOUSE_NO":"７５號","E_COORD97":166981.39000000001,"N_COORD97":2550942.8399999999,"ADDRESS":"本原街二段１０６巷７５號","OBJECTID":422604},"geometry":{"x":166981.39000000153,"y":2550942.8400000017}},{"attributes":{"ID":422630,"DIS_CODE":0,"TOWNNAME":"安南區","LI":"梅花里","LIN":"20鄰","STREET":"安中路","SECT":"一段","MAREA":" ","LANE":"７５７巷","ALLEY":" ","HOUSE_NO":"２６號","E_COORD97":167377.98999999999,"N_COORD97":2549271.4199999999,"ADDRESS":"安中路一段７５７巷２６號","OBJECTID":422605},"geometry":{"x":167377.99000000209,"y":2549271.4199999999}},{"attributes":{"ID":422631,"DIS_CODE":0,"TOWNNAME":"安南區","LI":"海南里","LIN":"15鄰","STREET":"府安路","SECT":"七段","MAREA":" ","LANE":"８４巷","ALLEY":" ","HOUSE_NO":"２２號","E_COORD97":165807.20999999999,"N_COORD97":2545937.3300000001,"ADDRESS":"府安路七段８４巷２２號","OBJECTID":422606},"geometry":{"x":165807.21000000089,"y":2545937.3300000001}},{"attributes":{"ID":422632,"DIS_CODE":0,"TOWNNAME":"安南區","LI":"溪東里","LIN":"8鄰","STREET":"府安路","SECT":"五段","MAREA":" ","LANE":"３５巷","ALLEY":" ","HOUSE_NO":"１０號","E_COORD97":168371.60999999999,"N_COORD97":2547243.1699999999,"ADDRESS":"府安路五段３５巷１０號","OBJECTID":422607},"geometry":{"x":168371.61000000034,"y":2547243.1699999999}},{"attributes":{"ID":422633,"DIS_CODE":0,"TOWNNAME":"中西區","LI":"西賢里","LIN":"5鄰","STREET":"湖美街","SECT":" ","MAREA":" ","LANE":"１９３巷","ALLEY":" ","HOUSE_NO":"１１號","E_COORD97":165884.54000000001,"N_COORD97":2544875.4399999999,"ADDRESS":"湖美街１９３巷１１號","OBJECTID":422608},"geometry":{"x":165884.54000000097,"y":2544875.4400000013}},{"attributes":{"ID":422634,"DIS_CODE":0,"TOWNNAME":"中西區","LI":"西賢里","LIN":"5鄰","STREET":"湖美街","SECT":" ","MAREA":" ","LANE":"１９３巷","ALLEY":" ","HOUSE_NO":"１３號","E_COORD97":165879,"N_COORD97":2544875.8399999999,"ADDRESS":"湖美街１９３巷１３號","OBJECTID":422609},"geometry":{"x":165879.00000000186,"y":2544875.8399999999}},{"attributes":{"ID":422635,"DIS_CODE":0,"TOWNNAME":"中西區","LI":"公正里","LIN":"11鄰","STREET":"衛民街","SECT":" ","MAREA":" ","LANE":"７０巷","ALLEY":" ","HOUSE_NO":"２之１號","E_COORD97":169017.92000000001,"N_COORD97":2543750.5899999999,"ADDRESS":"衛民街７０巷２之１號","OBJECTID":422610},"geometry":{"x":169017.92000000086,"y":2543750.5899999999}},{"attributes":{"ID":422636,"DIS_CODE":0,"TOWNNAME":"中西區","LI":"民主里","LIN":"11鄰","STREET":"尊王路","SECT":" ","MAREA":" ","LANE":"１５０巷","ALLEY":" ","HOUSE_NO":"５號","E_COORD97":167311.78,"N_COORD97":2543675.3100000001,"ADDRESS":"尊王路１５０巷５號","OBJECTID":422611},"geometry":{"x":167311.78000000119,"y":2543675.3100000005}},{"attributes":{"ID":422637,"DIS_CODE":0,"TOWNNAME":"中西區","LI":"光賢里","LIN":"4鄰","STREET":"武聖路","SECT":" ","MAREA":" ","LANE":"６９巷","ALLEY":" ","HOUSE_NO":"９號","E_COORD97":167143.54000000001,"N_COORD97":2545086.5299999998,"ADDRESS":"武聖路６９巷９號","OBJECTID":422612},"geometry":{"x":167143.5400000019,"y":2545086.5299999993}},{"attributes":{"ID":422638,"DIS_CODE":0,"TOWNNAME":"安南區","LI":"海佃里","LIN":"4鄰","STREET":"國安街","SECT":" ","MAREA":" ","LANE":"１４０巷","ALLEY":" ","HOUSE_NO":"１號","E_COORD97":166770.26999999999,"N_COORD97":2546996.02,"ADDRESS":"國安街１４０巷１號","OBJECTID":422613},"geometry":{"x":166770.27000000048,"y":2546996.0199999996}},{"attributes":{"ID":422639,"DIS_CODE":0,"TOWNNAME":"永康區","LI":"西灣里","LIN":"18鄰","STREET":"大安街","SECT":" ","MAREA":" ","LANE":"２９３巷","ALLEY":" ","HOUSE_NO":"４１之２號","E_COORD97":174538.98999999999,"N_COORD97":2545575.3100000001,"ADDRESS":"大安街２９３巷４１之２號","OBJECTID":422614},"geometry":{"x":174538.99000000115,"y":2545575.3099999987}},{"attributes":{"ID":422640,"DIS_CODE":0,"TOWNNAME":"永康區","LI":"\u25A0洲里","LIN":"25鄰","STREET":"國聖街","SECT":" ","MAREA":" ","LANE":"１６７巷","ALLEY":" ","HOUSE_NO":"１９號","E_COORD97":170601.34,"N_COORD97":2548289,"ADDRESS":"國聖街１６７巷１９號","OBJECTID":422615},"geometry":{"x":170601.34000000078,"y":2548289}},{"attributes":{"ID":422641,"DIS_CODE":0,"TOWNNAME":"永康區","LI":"\u25A0洲里","LIN":"4鄰","STREET":"\u25A0洲二街","SECT":" ","MAREA":" ","LANE":"１５３巷","ALLEY":" ","HOUSE_NO":"２８號","E_COORD97":171648.70000000001,"N_COORD97":2549425.4199999999,"ADDRESS":"\u25A0洲二街１５３巷２８號","OBJECTID":422616},"geometry":{"x":171648.70000000112,"y":2549425.4199999981}},{"attributes":{"ID":422642,"DIS_CODE":0,"TOWNNAME":"永康區","LI":"\u25A0洲里","LIN":"4鄰","STREET":"\u25A0洲二街","SECT":" ","MAREA":" ","LANE":"１３３巷","ALLEY":" ","HOUSE_NO":"８號","E_COORD97":171633.92000000001,"N_COORD97":2549393.1000000001,"ADDRESS":"\u25A0洲二街１３３巷８號","OBJECTID":422617},"geometry":{"x":171633.91999999993,"y":2549393.0999999996}},{"attributes":{"ID":422643,"DIS_CODE":0,"TOWNNAME":"永康區","LI":"西灣里","LIN":" ","STREET":"大灣路","SECT":" ","MAREA":" ","LANE":"４０６巷","ALLEY":" ","HOUSE_NO":"６７號","E_COORD97":174641.39000000001,"N_COORD97":2545112.1299999999,"ADDRESS":"大灣路４０６巷６７號","OBJECTID":422618},"geometry":{"x":174641.38999999966,"y":2545112.1300000008}},{"attributes":{"ID":422644,"DIS_CODE":0,"TOWNNAME":"永康區","LI":"大橋里","LIN":" ","STREET":"大橋一街","SECT":" ","MAREA":" ","LANE":"１３７巷","ALLEY":" ","HOUSE_NO":"２３號","E_COORD97":171004.06,"N_COORD97":2546537.25,"ADDRESS":"大橋一街１３７巷２３號","OBJECTID":422619},"geometry":{"x":171004.05999999959,"y":2546537.25}},{"attributes":{"ID":422645,"DIS_CODE":0,"TOWNNAME":"永康區","LI":"永康里","LIN":" ","STREET":"中山南路","SECT":" ","MAREA":" ","LANE":"６２１巷","ALLEY":" ","HOUSE_NO":"１８號","E_COORD97":173557.38,"N_COORD97":2547307.4100000001,"ADDRESS":"中山南路６２１巷１８號","OBJECTID":422620},"geometry":{"x":173557.38000000082,"y":2547307.410000002}},{"attributes":{"ID":422646,"DIS_CODE":0,"TOWNNAME":"永康區","LI":"東橋里","LIN":" ","STREET":"大橋一街","SECT":" ","MAREA":" ","LANE":"３２４巷","ALLEY":" ","HOUSE_NO":"３２６號","E_COORD97":171323.38,"N_COORD97":2546655.29,"ADDRESS":"大橋一街３２４巷３２６號","OBJECTID":422621},"geometry":{"x":171323.38000000082,"y":2546655.2899999991}},{"attributes":{"ID":422647,"DIS_CODE":0,"TOWNNAME":"永康區","LI":"東橋里","LIN":" ","STREET":"自強路","SECT":" ","MAREA":" ","LANE":"１１８巷","ALLEY":" ","HOUSE_NO":"６號","E_COORD97":172912.98999999999,"N_COORD97":2547308.3500000001,"ADDRESS":"自強路１１８巷６號","OBJECTID":422622},"geometry":{"x":172912.99000000115,"y":2547308.3500000015}},{"attributes":{"ID":422648,"DIS_CODE":0,"TOWNNAME":"永康區","LI":"永康里","LIN":" ","STREET":"中山南路","SECT":" ","MAREA":" ","LANE":"６２１巷","ALLEY":" ","HOUSE_NO":"２８號","E_COORD97":173551.26000000001,"N_COORD97":2547327.2400000002,"ADDRESS":"中山南路６２１巷２８號","OBJECTID":422623},"geometry":{"x":173551.26000000164,"y":2547327.2400000002}},{"attributes":{"ID":422649,"DIS_CODE":0,"TOWNNAME":"永康區","LI":"尚頂里","LIN":" ","STREET":"國聖街","SECT":" ","MAREA":" ","LANE":"４３巷","ALLEY":" ","HOUSE_NO":"７７號","E_COORD97":170235.54999999999,"N_COORD97":2547603.98,"ADDRESS":"國聖街４３巷７７號","OBJECTID":422624},"geometry":{"x":170235.55000000075,"y":2547603.9800000004}},{"attributes":{"ID":422650,"DIS_CODE":0,"TOWNNAME":"永康區","LI":"三民里","LIN":" ","STREET":"三民街","SECT":" ","MAREA":" ","LANE":"９０巷","ALLEY":" ","HOUSE_NO":"８６號","E_COORD97":172910.87,"N_COORD97":2550290.6200000001,"ADDRESS":"三民街９０巷８６號","OBJECTID":422625},"geometry":{"x":172910.87000000011,"y":2550290.6200000029}},{"attributes":{"ID":422651,"DIS_CODE":0,"TOWNNAME":"永康區","LI":"埔園里","LIN":" ","STREET":"中山路","SECT":" ","MAREA":" ","LANE":"９４巷","ALLEY":" ","HOUSE_NO":"５號","E_COORD97":173868.17999999999,"N_COORD97":2547671.25,"ADDRESS":"中山路９４巷５號","OBJECTID":422626},"geometry":{"x":173868.1799999997,"y":2547671.2500000019}},{"attributes":{"ID":422652,"DIS_CODE":0,"TOWNNAME":"永康區","LI":"\u25A0洲里","LIN":"4鄰","STREET":"\u25A0洲二街","SECT":" ","MAREA":" ","LANE":"１１１巷","ALLEY":" ","HOUSE_NO":"２號","E_COORD97":171608.12,"N_COORD97":2549327.25,"ADDRESS":"\u25A0洲二街１１１巷２號","OBJECTID":422627},"geometry":{"x":171608.12000000197,"y":2549327.25}},{"attributes":{"ID":422653,"DIS_CODE":0,"TOWNNAME":"永康區","LI":"\u25A0洲里","LIN":"32鄰","STREET":"洲尾街","SECT":" ","MAREA":" ","LANE":"７４巷","ALLEY":" ","HOUSE_NO":"１８號","E_COORD97":170960.72,"N_COORD97":2549001.2599999998,"ADDRESS":"洲尾街７４巷１８號","OBJECTID":422628},"geometry":{"x":170960.71999999974,"y":2549001.2599999998}},{"attributes":{"ID":422654,"DIS_CODE":0,"TOWNNAME":"永康區","LI":"\u25A0洲里","LIN":"32鄰","STREET":"洲尾街","SECT":" ","MAREA":" ","LANE":"７４巷","ALLEY":" ","HOUSE_NO":"２號","E_COORD97":170959.09,"N_COORD97":2548952.5099999998,"ADDRESS":"洲尾街７４巷２號","OBJECTID":422629},"geometry":{"x":170959.09000000078,"y":2548952.5099999998}},{"attributes":{"ID":422655,"DIS_CODE":0,"TOWNNAME":"永康區","LI":"東橋里","LIN":" ","STREET":"自強路","SECT":" ","MAREA":" ","LANE":"１３９巷","ALLEY":" ","HOUSE_NO":"１之９號","E_COORD97":172930.04999999999,"N_COORD97":2547540.29,"ADDRESS":"自強路１３９巷１之９號","OBJECTID":422630},"geometry":{"x":172930.04999999981,"y":2547540.2899999972}},{"attributes":{"ID":422656,"DIS_CODE":0,"TOWNNAME":"永康區","LI":"新樹里","LIN":" ","STREET":"富強路","SECT":"二段","MAREA":" ","LANE":"３９８巷","ALLEY":" ","HOUSE_NO":"１４６之７號","E_COORD97":176118.85999999999,"N_COORD97":2547583.1400000001,"ADDRESS":"富強路二段３９８巷１４６之７號","OBJECTID":422631},"geometry":{"x":176118.86000000034,"y":2547583.1400000006}},{"attributes":{"ID":422657,"DIS_CODE":0,"TOWNNAME":"永康區","LI":"永康里","LIN":" ","STREET":"永信路","SECT":" ","MAREA":" ","LANE":"５８巷","ALLEY":" ","HOUSE_NO":"６２之１５號","E_COORD97":174146.60999999999,"N_COORD97":2546473.21,"ADDRESS":"永信路５８巷６２之１５號","OBJECTID":422632},"geometry":{"x":174146.61000000127,"y":2546473.2100000028}},{"attributes":{"ID":422658,"DIS_CODE":0,"TOWNNAME":"永康區","LI":"\u25A0洲里","LIN":"38鄰","STREET":"\u25A0行路","SECT":" ","MAREA":" ","LANE":"２０４巷","ALLEY":" ","HOUSE_NO":"１５號","E_COORD97":171251.14999999999,"N_COORD97":2549216.04,"ADDRESS":"\u25A0行路２０４巷１５號","OBJECTID":422633},"geometry":{"x":171251.1500000013,"y":2549216.0399999991}},{"attributes":{"ID":422659,"DIS_CODE":0,"TOWNNAME":"永康區","LI":"\u25A0洲里","LIN":"25鄰","STREET":"國聖街","SECT":" ","MAREA":" ","LANE":"１６７巷","ALLEY":" ","HOUSE_NO":"１５號","E_COORD97":170616.95000000001,"N_COORD97":2548280.5,"ADDRESS":"國聖街１６７巷１５號","OBJECTID":422634},"geometry":{"x":170616.95000000019,"y":2548280.5000000019}},{"attributes":{"ID":422660,"DIS_CODE":0,"TOWNNAME":"永康區","LI":"中華里","LIN":"14鄰","STREET":"忠義街","SECT":" ","MAREA":" ","LANE":"１０巷","ALLEY":" ","HOUSE_NO":"１號","E_COORD97":171747.29000000001,"N_COORD97":2544383.54,"ADDRESS":"忠義街１０巷１號","OBJECTID":422635},"geometry":{"x":171747.29000000004,"y":2544383.540000001}},{"attributes":{"ID":422661,"DIS_CODE":0,"TOWNNAME":"永康區","LI":"五王里","LIN":" ","STREET":"中華二路","SECT":" ","MAREA":" ","LANE":"２０６巷","ALLEY":" ","HOUSE_NO":"８４號","E_COORD97":171586.22,"N_COORD97":2545692.7200000002,"ADDRESS":"中華二路２０６巷８４號","OBJECTID":422636},"geometry":{"x":171586.21999999974,"y":2545692.7200000025}},{"attributes":{"ID":422662,"DIS_CODE":0,"TOWNNAME":"永康區","LI":"復興里","LIN":" ","STREET":"復興路","SECT":" ","MAREA":" ","LANE":"２９６巷","ALLEY":" ","HOUSE_NO":"１２號","E_COORD97":172343.28,"N_COORD97":2544361.5299999998,"ADDRESS":"復興路２９６巷１２號","OBJECTID":422637},"geometry":{"x":172343.28000000119,"y":2544361.5299999993}},{"attributes":{"ID":422663,"DIS_CODE":0,"TOWNNAME":"永康區","LI":"龍潭里","LIN":" ","STREET":"龍國街","SECT":" ","MAREA":" ","LANE":"６５巷","ALLEY":" ","HOUSE_NO":"２８之１號","E_COORD97":174689.91,"N_COORD97":2548035.3100000001,"ADDRESS":"龍國街６５巷２８之１號","OBJECTID":422638},"geometry":{"x":174689.91000000108,"y":2548035.3100000005}},{"attributes":{"ID":422664,"DIS_CODE":0,"TOWNNAME":"永康區","LI":"三合里","LIN":" ","STREET":"南工街","SECT":" ","MAREA":" ","LANE":"１５８巷","ALLEY":" ","HOUSE_NO":"１６號","E_COORD97":171972.19,"N_COORD97":2545851.6600000001,"ADDRESS":"南工街１５８巷１６號","OBJECTID":422639},"geometry":{"x":171972.19000000041,"y":2545851.660000002}},{"attributes":{"ID":422665,"DIS_CODE":0,"TOWNNAME":"永康區","LI":"中華里","LIN":"5鄰","STREET":"忠勇街","SECT":" ","MAREA":" ","LANE":"３２巷","ALLEY":" ","HOUSE_NO":"１１號","E_COORD97":171967.41,"N_COORD97":2544432.9300000002,"ADDRESS":"忠勇街３２巷１１號","OBJECTID":422640},"geometry":{"x":171967.41000000108,"y":2544432.9300000016}},{"attributes":{"ID":422666,"DIS_CODE":0,"TOWNNAME":"永康區","LI":"\u25A0洲里","LIN":"38鄰","STREET":"\u25A0行路","SECT":" ","MAREA":" ","LANE":"２０４巷","ALLEY":" ","HOUSE_NO":"９號","E_COORD97":171261.69,"N_COORD97":2549201,"ADDRESS":"\u25A0行路２０４巷９號","OBJECTID":422641},"geometry":{"x":171261.69000000041,"y":2549201}},{"attributes":{"ID":422667,"DIS_CODE":0,"TOWNNAME":"永康區","LI":"中華里","LIN":"13鄰","STREET":"忠義街","SECT":" ","MAREA":" ","LANE":"１０巷","ALLEY":" ","HOUSE_NO":"５號之７","E_COORD97":171799.07000000001,"N_COORD97":2544419.1600000001,"ADDRESS":"忠義街１０巷５號之７","OBJECTID":422642},"geometry":{"x":171799.07000000123,"y":2544419.1600000001}},{"attributes":{"ID":422668,"DIS_CODE":0,"TOWNNAME":"永康區","LI":"中華里","LIN":"13鄰","STREET":"忠義街","SECT":" ","MAREA":" ","LANE":"４４巷","ALLEY":" ","HOUSE_NO":"２４號","E_COORD97":171794.35999999999,"N_COORD97":2544463.8900000001,"ADDRESS":"忠義街４４巷２４號","OBJECTID":422643},"geometry":{"x":171794.36000000034,"y":2544463.8900000025}},{"attributes":{"ID":422669,"DIS_CODE":0,"TOWNNAME":"永康區","LI":"新樹里","LIN":" ","STREET":"富強路","SECT":"二段","MAREA":" ","LANE":"３９８巷","ALLEY":" ","HOUSE_NO":"１４６之６號","E_COORD97":176118.32999999999,"N_COORD97":2547592.1400000001,"ADDRESS":"富強路二段３９８巷１４６之６號","OBJECTID":422644},"geometry":{"x":176118.33000000101,"y":2547592.1400000025}},{"attributes":{"ID":422670,"DIS_CODE":0,"TOWNNAME":"永康區","LI":"大橋里","LIN":" ","STREET":"大橋一街","SECT":" ","MAREA":" ","LANE":"１９７巷","ALLEY":" ","HOUSE_NO":"２９２號","E_COORD97":171185.20000000001,"N_COORD97":2546572.2400000002,"ADDRESS":"大橋一街１９７巷２９２號","OBJECTID":422645},"geometry":{"x":171185.20000000019,"y":2546572.2399999984}},{"attributes":{"ID":422671,"DIS_CODE":0,"TOWNNAME":"永康區","LI":"中華里","LIN":"13鄰","STREET":"忠義街","SECT":" ","MAREA":" ","LANE":"１０巷","ALLEY":" ","HOUSE_NO":"７號之２","E_COORD97":171812.03,"N_COORD97":2544399.23,"ADDRESS":"忠義街１０巷７號之２","OBJECTID":422646},"geometry":{"x":171812.03000000026,"y":2544399.2299999986}},{"attributes":{"ID":422672,"DIS_CODE":0,"TOWNNAME":"永康區","LI":"\u25A0洲里","LIN":"34鄰","STREET":"洲尾街","SECT":" ","MAREA":" ","LANE":"１９１巷","ALLEY":" ","HOUSE_NO":"９號","E_COORD97":170847.82000000001,"N_COORD97":2548976.1600000001,"ADDRESS":"洲尾街１９１巷９號","OBJECTID":422647},"geometry":{"x":170847.82000000123,"y":2548976.1600000001}},{"attributes":{"ID":422673,"DIS_CODE":0,"TOWNNAME":"永康區","LI":"東灣里","LIN":" ","STREET":"民族路","SECT":" ","MAREA":" ","LANE":"３巷","ALLEY":" ","HOUSE_NO":"３０號","E_COORD97":175356.60000000001,"N_COORD97":2544547.29,"ADDRESS":"民族路３巷３０號","OBJECTID":422648},"geometry":{"x":175356.60000000056,"y":2544547.290000001}},{"attributes":{"ID":422674,"DIS_CODE":0,"TOWNNAME":"永康區","LI":"新樹里","LIN":" ","STREET":"富強路","SECT":"二段","MAREA":" ","LANE":"３９８巷","ALLEY":" ","HOUSE_NO":"１４６之５號","E_COORD97":176118.32999999999,"N_COORD97":2547601.6299999999,"ADDRESS":"富強路二段３９８巷１４６之５號","OBJECTID":422649},"geometry":{"x":176118.33000000101,"y":2547601.629999999}},{"attributes":{"ID":422675,"DIS_CODE":0,"TOWNNAME":"永康區","LI":"\u25A0洲里","LIN":"25鄰","STREET":"國聖街","SECT":" ","MAREA":" ","LANE":"１６７巷","ALLEY":" ","HOUSE_NO":"３８號","E_COORD97":170572.70999999999,"N_COORD97":2548322.9900000002,"ADDRESS":"國聖街１６７巷３８號","OBJECTID":422650},"geometry":{"x":170572.70999999996,"y":2548322.9900000002}},{"attributes":{"ID":422676,"DIS_CODE":0,"TOWNNAME":"永康區","LI":"中華里","LIN":"4鄰","STREET":"小東路","SECT":" ","MAREA":" ","LANE":"６４７巷","ALLEY":" ","HOUSE_NO":"１２號","E_COORD97":171951.89000000001,"N_COORD97":2544390.5899999999,"ADDRESS":"小東路６４７巷１２號","OBJECTID":422651},"geometry":{"x":171951.8900000006,"y":2544390.5900000017}},{"attributes":{"ID":422677,"DIS_CODE":0,"TOWNNAME":"永康區","LI":"西灣里","LIN":" ","STREET":"大灣路","SECT":" ","MAREA":" ","LANE":"４０６巷","ALLEY":" ","HOUSE_NO":"６９號","E_COORD97":174628.54999999999,"N_COORD97":2545121.3700000001,"ADDRESS":"大灣路４０６巷６９號","OBJECTID":422652},"geometry":{"x":174628.54999999981,"y":2545121.3700000048}},{"attributes":{"ID":422678,"DIS_CODE":0,"TOWNNAME":"永康區","LI":"中華里","LIN":"4鄰","STREET":"小東路","SECT":" ","MAREA":" ","LANE":"６８５巷","ALLEY":" ","HOUSE_NO":"１５號","E_COORD97":172028.57999999999,"N_COORD97":2544414.8700000001,"ADDRESS":"小東路６８５巷１５號","OBJECTID":422653},"geometry":{"x":172028.57999999914,"y":2544414.870000001}},{"attributes":{"ID":422679,"DIS_CODE":0,"TOWNNAME":"永康區","LI":"\u25A0洲里","LIN":"38鄰","STREET":"\u25A0行路","SECT":" ","MAREA":" ","LANE":"２０４巷","ALLEY":" ","HOUSE_NO":"２號","E_COORD97":171289.23000000001,"N_COORD97":2549198.9100000001,"ADDRESS":"\u25A0行路２０４巷２號","OBJECTID":422654},"geometry":{"x":171289.23000000138,"y":2549198.9100000039}},{"attributes":{"ID":422680,"DIS_CODE":0,"TOWNNAME":"永康區","LI":"\u25A0洲里","LIN":"38鄰","STREET":"\u25A0行路","SECT":" ","MAREA":" ","LANE":"２０４巷","ALLEY":" ","HOUSE_NO":"７號","E_COORD97":171264.60000000001,"N_COORD97":2549197.7400000002,"ADDRESS":"\u25A0行路２０４巷７號","OBJECTID":422655},"geometry":{"x":171264.59999999963,"y":2549197.7400000021}},{"attributes":{"ID":422681,"DIS_CODE":0,"TOWNNAME":"永康區","LI":"中華里","LIN":"18鄰","STREET":"中華路","SECT":" ","MAREA":" ","LANE":"１０巷","ALLEY":" ","HOUSE_NO":"１５號","E_COORD97":171643.26999999999,"N_COORD97":2544482.0899999999,"ADDRESS":"中華路１０巷１５號","OBJECTID":422656},"geometry":{"x":171643.26999999955,"y":2544482.0900000017}},{"attributes":{"ID":422682,"DIS_CODE":0,"TOWNNAME":"永康區","LI":"西灣里","LIN":" ","STREET":"國光路","SECT":" ","MAREA":" ","LANE":"４０５巷","ALLEY":" ","HOUSE_NO":"１２號","E_COORD97":174378.42999999999,"N_COORD97":2545684.8700000001,"ADDRESS":"國光路４０５巷１２號","OBJECTID":422657},"geometry":{"x":174378.4299999997,"y":2545684.8700000029}},{"attributes":{"ID":422683,"DIS_CODE":0,"TOWNNAME":"永康區","LI":"\u25A0洲里","LIN":"38鄰","STREET":"\u25A0行路","SECT":" ","MAREA":" ","LANE":"２０４巷","ALLEY":" ","HOUSE_NO":"８號","E_COORD97":171280.48999999999,"N_COORD97":2549208.1600000001,"ADDRESS":"\u25A0行路２０４巷８號","OBJECTID":422658},"geometry":{"x":171280.49000000115,"y":2549208.160000002}},{"attributes":{"ID":422684,"DIS_CODE":0,"TOWNNAME":"永康區","LI":"中華里","LIN":"18鄰","STREET":"中華路","SECT":" ","MAREA":" ","LANE":"１０巷","ALLEY":" ","HOUSE_NO":"２７號","E_COORD97":171667.32999999999,"N_COORD97":2544482.8300000001,"ADDRESS":"中華路１０巷２７號","OBJECTID":422659},"geometry":{"x":171667.33000000007,"y":2544482.8300000001}},{"attributes":{"ID":422685,"DIS_CODE":0,"TOWNNAME":"永康區","LI":"中華里","LIN":"25鄰","STREET":"忠義街","SECT":" ","MAREA":" ","LANE":"８１巷","ALLEY":" ","HOUSE_NO":"６號","E_COORD97":171687.81,"N_COORD97":2544646.8599999999,"ADDRESS":"忠義街８１巷６號","OBJECTID":422660},"geometry":{"x":171687.81000000052,"y":2544646.8599999994}},{"attributes":{"ID":422686,"DIS_CODE":0,"TOWNNAME":"永康區","LI":"中華里","LIN":"7鄰","STREET":"小東路","SECT":" ","MAREA":" ","LANE":"６４７巷","ALLEY":" ","HOUSE_NO":"１號","E_COORD97":171928.66,"N_COORD97":2544364.6299999999,"ADDRESS":"小東路６４７巷１號","OBJECTID":422661},"geometry":{"x":171928.66000000108,"y":2544364.6300000027}},{"attributes":{"ID":422687,"DIS_CODE":0,"TOWNNAME":"永康區","LI":"南灣里","LIN":" ","STREET":"大灣東路","SECT":" ","MAREA":" ","LANE":"２２巷","ALLEY":" ","HOUSE_NO":"１４０之２號","E_COORD97":173882.56,"N_COORD97":2543857.4399999999,"ADDRESS":"大灣東路２２巷１４０之２號","OBJECTID":422662},"geometry":{"x":173882.55999999959,"y":2543857.4399999995}},{"attributes":{"ID":422688,"DIS_CODE":0,"TOWNNAME":"永康區","LI":"中華里","LIN":"4鄰","STREET":"忠勇街","SECT":" ","MAREA":" ","LANE":"３２巷","ALLEY":" ","HOUSE_NO":"２２號","E_COORD97":171988.56,"N_COORD97":2544419.6499999999,"ADDRESS":"忠勇街３２巷２２號","OBJECTID":422663},"geometry":{"x":171988.55999999959,"y":2544419.6500000004}},{"attributes":{"ID":422689,"DIS_CODE":0,"TOWNNAME":"永康區","LI":"中華里","LIN":"4鄰","STREET":"小東路","SECT":" ","MAREA":" ","LANE":"６４７巷","ALLEY":" ","HOUSE_NO":"１６號","E_COORD97":171950.42999999999,"N_COORD97":2544402.1099999999,"ADDRESS":"小東路６４７巷１６號","OBJECTID":422664},"geometry":{"x":171950.43000000063,"y":2544402.1099999994}},{"attributes":{"ID":422690,"DIS_CODE":0,"TOWNNAME":"永康區","LI":"中華里","LIN":" ","STREET":"忠義街","SECT":" ","MAREA":" ","LANE":"７１巷","ALLEY":" ","HOUSE_NO":"２１號","E_COORD97":171649.42999999999,"N_COORD97":2544612.0499999998,"ADDRESS":"忠義街７１巷２１號","OBJECTID":422665},"geometry":{"x":171649.4299999997,"y":2544612.0500000026}},{"attributes":{"ID":422691,"DIS_CODE":0,"TOWNNAME":"永康區","LI":"中華里","LIN":"20鄰","STREET":"小東路","SECT":" ","MAREA":" ","LANE":"４７７巷","ALLEY":" ","HOUSE_NO":"１７號","E_COORD97":171606.85999999999,"N_COORD97":2544421.1499999999,"ADDRESS":"小東路４７７巷１７號","OBJECTID":422666},"geometry":{"x":171606.86000000127,"y":2544421.1500000022}},{"attributes":{"ID":422692,"DIS_CODE":0,"TOWNNAME":"永康區","LI":"中華里","LIN":"25鄰","STREET":"忠義街","SECT":" ","MAREA":" ","LANE":"７１巷","ALLEY":" ","HOUSE_NO":"１７號","E_COORD97":171660.85999999999,"N_COORD97":2544612.8199999998,"ADDRESS":"忠義街７１巷１７號","OBJECTID":422667},"geometry":{"x":171660.8600000022,"y":2544612.8200000022}},{"attributes":{"ID":422693,"DIS_CODE":0,"TOWNNAME":"永康區","LI":"中華里","LIN":"25鄰","STREET":"忠義街","SECT":" ","MAREA":" ","LANE":"８１巷","ALLEY":" ","HOUSE_NO":"５號","E_COORD97":171693.42000000001,"N_COORD97":2544650.9199999999,"ADDRESS":"忠義街８１巷５號","OBJECTID":422668},"geometry":{"x":171693.41999999993,"y":2544650.9199999999}},{"attributes":{"ID":422694,"DIS_CODE":0,"TOWNNAME":"北區","LI":"五福里","LIN":"13鄰","STREET":"成功路","SECT":" ","MAREA":" ","LANE":" ","ALLEY":" ","HOUSE_NO":"２８８號","E_COORD97":168166.95999999999,"N_COORD97":2544467.5600000001,"ADDRESS":"成功路２８８號","OBJECTID":422669},"geometry":{"x":168166.95999999996,"y":2544467.5600000005}},{"attributes":{"ID":422695,"DIS_CODE":0,"TOWNNAME":"仁德區","LI":"仁義里","LIN":"24鄰","STREET":"中清路","SECT":" ","MAREA":" ","LANE":"１５５巷","ALLEY":" ","HOUSE_NO":"２號","E_COORD97":173701.10000000001,"N_COORD97":2541506.54,"ADDRESS":"中清路１５５巷２號","OBJECTID":422670},"geometry":{"x":173701.09999999963,"y":2541506.5399999991}},{"attributes":{"ID":422696,"DIS_CODE":0,"TOWNNAME":"永康區","LI":"\u25A0洲里","LIN":"38鄰","STREET":"\u25A0行路","SECT":" ","MAREA":" ","LANE":"２０４巷","ALLEY":" ","HOUSE_NO":"１８號","E_COORD97":171267.48000000001,"N_COORD97":2549223.1299999999,"ADDRESS":"\u25A0行路２０４巷１８號","OBJECTID":422671},"geometry":{"x":171267.48000000138,"y":2549223.1300000027}},{"attributes":{"ID":422697,"DIS_CODE":0,"TOWNNAME":"永康區","LI":"大灣里","LIN":"13鄰","STREET":"民族路","SECT":" ","MAREA":" ","LANE":"３４５巷","ALLEY":" ","HOUSE_NO":"３號","E_COORD97":174985.14999999999,"N_COORD97":2545170.3199999998,"ADDRESS":"民族路３４５巷３號","OBJECTID":422672},"geometry":{"x":174985.1500000013,"y":2545170.3200000003}},{"attributes":{"ID":422698,"DIS_CODE":0,"TOWNNAME":"永康區","LI":"大灣里","LIN":"13鄰","STREET":"民族路","SECT":" ","MAREA":" ","LANE":"３４５巷","ALLEY":" ","HOUSE_NO":"５號","E_COORD97":174979.51000000001,"N_COORD97":2545165.5699999998,"ADDRESS":"民族路３４５巷５號","OBJECTID":422673},"geometry":{"x":174979.50999999978,"y":2545165.5700000003}},{"attributes":{"ID":422699,"DIS_CODE":0,"TOWNNAME":"永康區","LI":"\u25A0行里","LIN":" ","STREET":"中正北路","SECT":" ","MAREA":" ","LANE":"７１巷","ALLEY":" ","HOUSE_NO":"６號","E_COORD97":172086.23000000001,"N_COORD97":2549150.2400000002,"ADDRESS":"中正北路７１巷６號","OBJECTID":422674},"geometry":{"x":172086.23000000138,"y":2549150.2400000021}},{"attributes":{"ID":422700,"DIS_CODE":0,"TOWNNAME":"永康區","LI":"\u25A0洲里","LIN":" ","STREET":"洲尾街","SECT":" ","MAREA":" ","LANE":"１４６巷","ALLEY":" ","HOUSE_NO":"２１號","E_COORD97":171026.04999999999,"N_COORD97":2549075.5899999999,"ADDRESS":"洲尾街１４６巷２１號","OBJECTID":422675},"geometry":{"x":171026.04999999981,"y":2549075.5900000017}},{"attributes":{"ID":422701,"DIS_CODE":0,"TOWNNAME":"永康區","LI":"二王里","LIN":"13鄰","STREET":"永二街","SECT":" ","MAREA":" ","LANE":"４５９巷","ALLEY":" ","HOUSE_NO":"２９號","E_COORD97":172635.16,"N_COORD97":2546600.6400000001,"ADDRESS":"永二街４５９巷２９號","OBJECTID":422676},"geometry":{"x":172635.16000000201,"y":2546600.6400000043}},{"attributes":{"ID":422702,"DIS_CODE":0,"TOWNNAME":"永康區","LI":"大灣里","LIN":"26鄰","STREET":"民族路","SECT":" ","MAREA":" ","LANE":"１９０巷","ALLEY":" ","HOUSE_NO":"３號","E_COORD97":175172.45999999999,"N_COORD97":2545128.1099999999,"ADDRESS":"民族路１９０巷３號","OBJECTID":422677},"geometry":{"x":175172.46000000089,"y":2545128.1100000031}},{"attributes":{"ID":422703,"DIS_CODE":0,"TOWNNAME":"永康區","LI":"三合里","LIN":"24鄰","STREET":"南工街","SECT":" ","MAREA":" ","LANE":"２６７巷","ALLEY":" ","HOUSE_NO":"３８號","E_COORD97":171868.12,"N_COORD97":2545851.9900000002,"ADDRESS":"南工街２６７巷３８號","OBJECTID":422678},"geometry":{"x":171868.12000000104,"y":2545851.9900000039}},{"attributes":{"ID":422704,"DIS_CODE":0,"TOWNNAME":"永康區","LI":"三合里","LIN":"24鄰","STREET":"南工街","SECT":" ","MAREA":" ","LANE":"２６７巷","ALLEY":" ","HOUSE_NO":"４２號","E_COORD97":171867.66,"N_COORD97":2545843.4900000002,"ADDRESS":"南工街２６７巷４２號","OBJECTID":422679},"geometry":{"x":171867.66000000108,"y":2545843.4900000002}},{"attributes":{"ID":422705,"DIS_CODE":0,"TOWNNAME":"永康區","LI":"二王里","LIN":"20鄰","STREET":"中山南路","SECT":" ","MAREA":" ","LANE":"６４４巷","ALLEY":" ","HOUSE_NO":"１０號","E_COORD97":172392.85999999999,"N_COORD97":2546628.2200000002,"ADDRESS":"中山南路６４４巷１０號","OBJECTID":422680},"geometry":{"x":172392.86000000034,"y":2546628.2200000025}},{"attributes":{"ID":422706,"DIS_CODE":0,"TOWNNAME":"永康區","LI":"二王里","LIN":"34鄰","STREET":"中山南路","SECT":" ","MAREA":" ","LANE":"４９０巷","ALLEY":" ","HOUSE_NO":"１０號之１３","E_COORD97":172148.89000000001,"N_COORD97":2546354.98,"ADDRESS":"中山南路４９０巷１０號之１３","OBJECTID":422681},"geometry":{"x":172148.8900000006,"y":2546354.9800000023}},{"attributes":{"ID":422707,"DIS_CODE":0,"TOWNNAME":"中西區","LI":"西湖里","LIN":"4鄰","STREET":"頂美一街","SECT":" ","MAREA":" ","LANE":"３６巷","ALLEY":" ","HOUSE_NO":"１號","E_COORD97":166329.39000000001,"N_COORD97":2544524.77,"ADDRESS":"頂美一街３６巷１號","OBJECTID":422682},"geometry":{"x":166329.3900000006,"y":2544524.7700000014}},{"attributes":{"ID":422708,"DIS_CODE":0,"TOWNNAME":"中西區","LI":"西湖里","LIN":"4鄰","STREET":"頂美一街","SECT":" ","MAREA":" ","LANE":"４８巷","ALLEY":" ","HOUSE_NO":"６號","E_COORD97":166352.98999999999,"N_COORD97":2544556.1200000001,"ADDRESS":"頂美一街４８巷６號","OBJECTID":422683},"geometry":{"x":166352.99000000115,"y":2544556.120000001}},{"attributes":{"ID":422709,"DIS_CODE":0,"TOWNNAME":"中西區","LI":"西湖里","LIN":"4鄰","STREET":"頂美一街","SECT":" ","MAREA":" ","LANE":"４８巷","ALLEY":" ","HOUSE_NO":"８號","E_COORD97":166360.78,"N_COORD97":2544557.3399999999,"ADDRESS":"頂美一街４８巷８號","OBJECTID":422684},"geometry":{"x":166360.78000000119,"y":2544557.3400000036}},{"attributes":{"ID":422710,"DIS_CODE":0,"TOWNNAME":"中西區","LI":"西湖里","LIN":"6鄰","STREET":"頂美一街","SECT":" ","MAREA":" ","LANE":"７０巷","ALLEY":" ","HOUSE_NO":"１１號","E_COORD97":166344.95999999999,"N_COORD97":2544658.4300000002,"ADDRESS":"頂美一街７０巷１１號","OBJECTID":422685},"geometry":{"x":166344.95999999996,"y":2544658.4300000034}},{"attributes":{"ID":422711,"DIS_CODE":0,"TOWNNAME":"中西區","LI":"西湖里","LIN":"6鄰","STREET":"頂美一街","SECT":" ","MAREA":" ","LANE":"７０巷","ALLEY":" ","HOUSE_NO":"１７號","E_COORD97":166362.97,"N_COORD97":2544659.3999999999,"ADDRESS":"頂美一街７０巷１７號","OBJECTID":422686},"geometry":{"x":166362.96999999974,"y":2544659.4000000041}},{"attributes":{"ID":422712,"DIS_CODE":0,"TOWNNAME":"中西區","LI":"西湖里","LIN":"6鄰","STREET":"頂美一街","SECT":" ","MAREA":" ","LANE":"７０巷","ALLEY":" ","HOUSE_NO":"１９號","E_COORD97":166368.81,"N_COORD97":2544659.3999999999,"ADDRESS":"頂美一街７０巷１９號","OBJECTID":422687},"geometry":{"x":166368.81000000052,"y":2544659.4000000041}},{"attributes":{"ID":422713,"DIS_CODE":0,"TOWNNAME":"中西區","LI":"西湖里","LIN":"6鄰","STREET":"頂美一街","SECT":" ","MAREA":" ","LANE":"７０巷","ALLEY":" ","HOUSE_NO":"１號","E_COORD97":166309.19,"N_COORD97":2544657.2200000002,"ADDRESS":"頂美一街７０巷１號","OBJECTID":422688},"geometry":{"x":166309.19000000134,"y":2544657.2199999988}},{"attributes":{"ID":422714,"DIS_CODE":0,"TOWNNAME":"中西區","LI":"西湖里","LIN":"6鄰","STREET":"頂美一街","SECT":" ","MAREA":" ","LANE":"７０巷","ALLEY":" ","HOUSE_NO":"２１號","E_COORD97":166379.03,"N_COORD97":2544658.9199999999,"ADDRESS":"頂美一街７０巷２１號","OBJECTID":422689},"geometry":{"x":166379.03000000026,"y":2544658.9200000037}},{"attributes":{"ID":422715,"DIS_CODE":0,"TOWNNAME":"中西區","LI":"西湖里","LIN":"6鄰","STREET":"頂美一街","SECT":" ","MAREA":" ","LANE":"７０巷","ALLEY":" ","HOUSE_NO":"２３號","E_COORD97":166385.84,"N_COORD97":2544659.1600000001,"ADDRESS":"頂美一街７０巷２３號","OBJECTID":422690},"geometry":{"x":166385.84000000078,"y":2544659.1600000001}},{"attributes":{"ID":422716,"DIS_CODE":0,"TOWNNAME":"中西區","LI":"西湖里","LIN":"6鄰","STREET":"頂美一街","SECT":" ","MAREA":" ","LANE":"７０巷","ALLEY":" ","HOUSE_NO":"２５號","E_COORD97":166391.44,"N_COORD97":2544659.3999999999,"ADDRESS":"頂美一街７０巷２５號","OBJECTID":422691},"geometry":{"x":166391.44000000041,"y":2544659.4000000041}},{"attributes":{"ID":422717,"DIS_CODE":0,"TOWNNAME":"中西區","LI":"西湖里","LIN":"6鄰","STREET":"頂美一街","SECT":" ","MAREA":" ","LANE":"７０巷","ALLEY":" ","HOUSE_NO":"２９號","E_COORD97":166403.12,"N_COORD97":2544659.3999999999,"ADDRESS":"頂美一街７０巷２９號","OBJECTID":422692},"geometry":{"x":166403.12000000011,"y":2544659.4000000041}},{"attributes":{"ID":422718,"DIS_CODE":0,"TOWNNAME":"中西區","LI":"西湖里","LIN":"6鄰","STREET":"頂美一街","SECT":" ","MAREA":" ","LANE":"７０巷","ALLEY":" ","HOUSE_NO":"３號","E_COORD97":166315.03,"N_COORD97":2544657.9500000002,"ADDRESS":"頂美一街７０巷３號","OBJECTID":422693},"geometry":{"x":166315.03000000119,"y":2544657.950000003}},{"attributes":{"ID":422719,"DIS_CODE":0,"TOWNNAME":"中西區","LI":"西湖里","LIN":"6鄰","STREET":"頂美一街","SECT":" ","MAREA":" ","LANE":"７０巷","ALLEY":" ","HOUSE_NO":"５號","E_COORD97":166321.84,"N_COORD97":2544657.9500000002,"ADDRESS":"頂美一街７０巷５號","OBJECTID":422694},"geometry":{"x":166321.83999999985,"y":2544657.950000003}},{"attributes":{"ID":422720,"DIS_CODE":0,"TOWNNAME":"中西區","LI":"西湖里","LIN":"6鄰","STREET":"頂美一街","SECT":" ","MAREA":" ","LANE":"７０巷","ALLEY":" ","HOUSE_NO":"７號","E_COORD97":166327.20000000001,"N_COORD97":2544657.2200000002,"ADDRESS":"頂美一街７０巷７號","OBJECTID":422695},"geometry":{"x":166327.20000000205,"y":2544657.2199999988}},{"attributes":{"ID":422721,"DIS_CODE":0,"TOWNNAME":"中西區","LI":"西湖里","LIN":"6鄰","STREET":"頂美一街","SECT":" ","MAREA":" ","LANE":"７０巷","ALLEY":" ","HOUSE_NO":"９號","E_COORD97":166338.39000000001,"N_COORD97":2544658.9199999999,"ADDRESS":"頂美一街７０巷９號","OBJECTID":422696},"geometry":{"x":166338.38999999966,"y":2544658.9200000037}},{"attributes":{"ID":422722,"DIS_CODE":0,"TOWNNAME":"中西區","LI":"西湖里","LIN":"8鄰","STREET":"民權路","SECT":"四段","MAREA":" ","LANE":"１１２巷","ALLEY":" ","HOUSE_NO":"５９號","E_COORD97":166259.42000000001,"N_COORD97":2544617.0499999998,"ADDRESS":"民權路四段１１２巷５９號","OBJECTID":422697},"geometry":{"x":166259.42000000086,"y":2544617.0500000007}},{"attributes":{"ID":422723,"DIS_CODE":0,"TOWNNAME":"中西區","LI":"西湖里","LIN":"8鄰","STREET":"民權路","SECT":"四段","MAREA":" ","LANE":"１１２巷","ALLEY":" ","HOUSE_NO":"５號","E_COORD97":166264.78,"N_COORD97":2544459.6899999999,"ADDRESS":"民權路四段１１２巷５號","OBJECTID":422698},"geometry":{"x":166264.78000000026,"y":2544459.6900000032}},{"attributes":{"ID":422724,"DIS_CODE":0,"TOWNNAME":"中西區","LI":"西湖里","LIN":"8鄰","STREET":"民權路","SECT":"四段","MAREA":" ","LANE":"１１２巷","ALLEY":" ","HOUSE_NO":"６１號","E_COORD97":166258.94,"N_COORD97":2544624.5800000001,"ADDRESS":"民權路四段１１２巷６１號","OBJECTID":422699},"geometry":{"x":166258.94000000041,"y":2544624.5800000019}},{"attributes":{"ID":422725,"DIS_CODE":0,"TOWNNAME":"中西區","LI":"西湖里","LIN":"8鄰","STREET":"民權路","SECT":"四段","MAREA":" ","LANE":"１１２巷","ALLEY":" ","HOUSE_NO":"６３號","E_COORD97":166258.94,"N_COORD97":2544631.3799999999,"ADDRESS":"民權路四段１１２巷６３號","OBJECTID":422700},"geometry":{"x":166258.94000000041,"y":2544631.3800000008}},{"attributes":{"ID":422726,"DIS_CODE":0,"TOWNNAME":"中西區","LI":"西湖里","LIN":"8鄰","STREET":"民權路","SECT":"四段","MAREA":" ","LANE":"１１２巷","ALLEY":" ","HOUSE_NO":"６５號","E_COORD97":166258.94,"N_COORD97":2544636,"ADDRESS":"民權路四段１１２巷６５號","OBJECTID":422701},"geometry":{"x":166258.94000000041,"y":2544636.0000000019}},{"attributes":{"ID":422727,"DIS_CODE":0,"TOWNNAME":"中西區","LI":"西湖里","LIN":"8鄰","STREET":"民權路","SECT":"四段","MAREA":" ","LANE":"１１２巷","ALLEY":" ","HOUSE_NO":"６７號","E_COORD97":166258.20999999999,"N_COORD97":2544640.6200000001,"ADDRESS":"民權路四段１１２巷６７號","OBJECTID":422702},"geometry":{"x":166258.20999999996,"y":2544640.620000001}},{"attributes":{"ID":422728,"DIS_CODE":0,"TOWNNAME":"北區","LI":"五福里","LIN":"13鄰","STREET":"成功路","SECT":" ","MAREA":" ","LANE":" ","ALLEY":" ","HOUSE_NO":"２９０號","E_COORD97":168163.14000000001,"N_COORD97":2544468.5099999998,"ADDRESS":"成功路２９０號","OBJECTID":422703},"geometry":{"x":168163.1400000006,"y":2544468.5100000016}},{"attributes":{"ID":422729,"DIS_CODE":0,"TOWNNAME":"中西區","LI":"西湖里","LIN":"8鄰","STREET":"民權路","SECT":"四段","MAREA":" ","LANE":"１１２巷","ALLEY":" ","HOUSE_NO":"６９號","E_COORD97":166258.69,"N_COORD97":2544645.2400000002,"ADDRESS":"民權路四段１１２巷６９號","OBJECTID":422704},"geometry":{"x":166258.69000000134,"y":2544645.2400000002}},{"attributes":{"ID":422730,"DIS_CODE":0,"TOWNNAME":"中西區","LI":"西湖里","LIN":"8鄰","STREET":"民權路","SECT":"四段","MAREA":" ","LANE":"１１２巷","ALLEY":" ","HOUSE_NO":"７１號","E_COORD97":166258.45000000001,"N_COORD97":2544649.3700000001,"ADDRESS":"民權路四段１１２巷７１號","OBJECTID":422705},"geometry":{"x":166258.45000000019,"y":2544649.370000001}},{"attributes":{"ID":422731,"DIS_CODE":0,"TOWNNAME":"中西區","LI":"西湖里","LIN":"8鄰","STREET":"民權路","SECT":"四段","MAREA":" ","LANE":"１１２巷","ALLEY":" ","HOUSE_NO":"７３號","E_COORD97":166259.17999999999,"N_COORD97":2544653.7400000002,"ADDRESS":"民權路四段１１２巷７３號","OBJECTID":422706},"geometry":{"x":166259.18000000063,"y":2544653.7400000021}},{"attributes":{"ID":422732,"DIS_CODE":0,"TOWNNAME":"中西區","LI":"西湖里","LIN":"8鄰","STREET":"民權路","SECT":"四段","MAREA":" ","LANE":"１１２巷","ALLEY":" ","HOUSE_NO":"７５號","E_COORD97":166258.20999999999,"N_COORD97":2544658.3599999999,"ADDRESS":"民權路四段１１２巷７５號","OBJECTID":422707},"geometry":{"x":166258.20999999996,"y":2544658.3599999975}},{"attributes":{"ID":422733,"DIS_CODE":0,"TOWNNAME":"永康區","LI":"網寮里","LIN":"20鄰","STREET":"文化路","SECT":" ","MAREA":" ","LANE":"３２３巷","ALLEY":" ","HOUSE_NO":"９號","E_COORD97":173454.07999999999,"N_COORD97":2546111.1099999999,"ADDRESS":"文化路３２３巷９號","OBJECTID":422708},"geometry":{"x":173454.08000000007,"y":2546111.1099999975}},{"attributes":{"ID":422734,"DIS_CODE":0,"TOWNNAME":"中西區","LI":"西湖里","LIN":"8鄰","STREET":"民權路","SECT":"四段","MAREA":" ","LANE":"１１２巷","ALLEY":" ","HOUSE_NO":"７７號","E_COORD97":166257.72,"N_COORD97":2544663.2200000002,"ADDRESS":"民權路四段１１２巷７７號","OBJECTID":422709},"geometry":{"x":166257.72000000067,"y":2544663.2200000007}},{"attributes":{"ID":422735,"DIS_CODE":0,"TOWNNAME":"中西區","LI":"西湖里","LIN":"8鄰","STREET":"民權路","SECT":"四段","MAREA":" ","LANE":"１１２巷","ALLEY":" ","HOUSE_NO":"７號","E_COORD97":166263.79999999999,"N_COORD97":2544465.5299999998,"ADDRESS":"民權路四段１１２巷７號","OBJECTID":422710},"geometry":{"x":166263.80000000075,"y":2544465.5300000012}},{"attributes":{"ID":422736,"DIS_CODE":0,"TOWNNAME":"中西區","LI":"西湖里","LIN":"8鄰","STREET":"民權路","SECT":"四段","MAREA":" ","LANE":"１１２巷","ALLEY":" ","HOUSE_NO":"８１號","E_COORD97":166257.48000000001,"N_COORD97":2544673.4300000002,"ADDRESS":"民權路四段１１２巷８１號","OBJECTID":422711},"geometry":{"x":166257.48000000045,"y":2544673.4300000016}},{"attributes":{"ID":422737,"DIS_CODE":0,"TOWNNAME":"中西區","LI":"西湖里","LIN":"8鄰","STREET":"民權路","SECT":"四段","MAREA":" ","LANE":"１１２巷","ALLEY":" ","HOUSE_NO":"８３號","E_COORD97":166257.95999999999,"N_COORD97":2544677.5600000001,"ADDRESS":"民權路四段１１２巷８３號","OBJECTID":422712},"geometry":{"x":166257.96000000089,"y":2544677.5600000005}},{"attributes":{"ID":422738,"DIS_CODE":0,"TOWNNAME":"中西區","LI":"西湖里","LIN":"8鄰","STREET":"民權路","SECT":"四段","MAREA":" ","LANE":"１１２巷","ALLEY":" ","HOUSE_NO":"８５號","E_COORD97":166257.48000000001,"N_COORD97":2544683.1499999999,"ADDRESS":"民權路四段１１２巷８５號","OBJECTID":422713},"geometry":{"x":166257.48000000045,"y":2544683.1500000004}},{"attributes":{"ID":422739,"DIS_CODE":0,"TOWNNAME":"中西區","LI":"西湖里","LIN":"8鄰","STREET":"民權路","SECT":"四段","MAREA":" ","LANE":"１１２巷","ALLEY":" ","HOUSE_NO":"８７號","E_COORD97":166257.23000000001,"N_COORD97":2544688.25,"ADDRESS":"民權路四段１１２巷８７號","OBJECTID":422714},"geometry":{"x":166257.23000000045,"y":2544688.2500000019}},{"attributes":{"ID":422740,"DIS_CODE":0,"TOWNNAME":"仁德區","LI":"仁德里","LIN":"5鄰","STREET":"仁德四街","SECT":" ","MAREA":" ","LANE":"７巷","ALLEY":" ","HOUSE_NO":"１號","E_COORD97":173352.28,"N_COORD97":2540822.27,"ADDRESS":"仁德四街７巷１號","OBJECTID":422715},"geometry":{"x":173352.28000000119,"y":2540822.2700000014}},{"attributes":{"ID":422741,"DIS_CODE":0,"TOWNNAME":"仁德區","LI":"太子里","LIN":"38鄰","STREET":"長興一街","SECT":" ","MAREA":" ","LANE":"９７巷","ALLEY":" ","HOUSE_NO":"２號","E_COORD97":174253.57999999999,"N_COORD97":2543847.2599999998,"ADDRESS":"長興一街９７巷２號","OBJECTID":422716},"geometry":{"x":174253.58000000101,"y":2543847.2600000016}},{"attributes":{"ID":422742,"DIS_CODE":0,"TOWNNAME":"仁德區","LI":"仁義里","LIN":"39鄰","STREET":"仁義五街","SECT":" ","MAREA":" ","LANE":"４４巷","ALLEY":" ","HOUSE_NO":"２０號","E_COORD97":173588.89000000001,"N_COORD97":2540387.1699999999,"ADDRESS":"仁義五街４４巷２０號","OBJECTID":422717},"geometry":{"x":173588.88999999966,"y":2540387.1699999999}},{"attributes":{"ID":422743,"DIS_CODE":0,"TOWNNAME":"仁德區","LI":"仁義里","LIN":"18鄰","STREET":"中山路","SECT":" ","MAREA":" ","LANE":"３２８巷","ALLEY":" ","HOUSE_NO":"２４號","E_COORD97":173975.63,"N_COORD97":2541361,"ADDRESS":"中山路３２８巷２４號","OBJECTID":422718},"geometry":{"x":173975.62999999989,"y":2541361.0000000019}},{"attributes":{"ID":422744,"DIS_CODE":0,"TOWNNAME":"仁德區","LI":"仁義里","LIN":"39鄰","STREET":"仁義五街","SECT":" ","MAREA":" ","LANE":"４４巷","ALLEY":" ","HOUSE_NO":"２８號","E_COORD97":173585.75,"N_COORD97":2540371.1699999999,"ADDRESS":"仁義五街４４巷２８號","OBJECTID":422719},"geometry":{"x":173585.75000000093,"y":2540371.1699999999}},{"attributes":{"ID":422745,"DIS_CODE":0,"TOWNNAME":"仁德區","LI":"仁德里","LIN":"18鄰","STREET":"文華路","SECT":"三段","MAREA":" ","LANE":"１８９巷","ALLEY":" ","HOUSE_NO":"３２號","E_COORD97":172163.22,"N_COORD97":2540476.3199999998,"ADDRESS":"文華路三段１８９巷３２號","OBJECTID":422720},"geometry":{"x":172163.22000000067,"y":2540476.320000004}},{"attributes":{"ID":422746,"DIS_CODE":0,"TOWNNAME":"仁德區","LI":"仁義里","LIN":"18鄰","STREET":"正義三街","SECT":" ","MAREA":" ","LANE":"２８６巷","ALLEY":" ","HOUSE_NO":"１０號","E_COORD97":174006.76000000001,"N_COORD97":2541522.0800000001,"ADDRESS":"正義三街２８６巷１０號","OBJECTID":422721},"geometry":{"x":174006.75999999978,"y":2541522.0800000019}},{"attributes":{"ID":422747,"DIS_CODE":0,"TOWNNAME":"仁德區","LI":"仁義里","LIN":"18鄰","STREET":"正義路","SECT":" ","MAREA":" ","LANE":"２０５巷","ALLEY":" ","HOUSE_NO":"３３號","E_COORD97":174032.76000000001,"N_COORD97":2541441.52,"ADDRESS":"正義路２０５巷３３號","OBJECTID":422722},"geometry":{"x":174032.76000000071,"y":2541441.5200000014}},{"attributes":{"ID":422748,"DIS_CODE":0,"TOWNNAME":"仁德區","LI":"土庫里","LIN":"5鄰","STREET":"土庫六街","SECT":" ","MAREA":" ","LANE":"７５巷","ALLEY":" ","HOUSE_NO":"６１號","E_COORD97":174138.17999999999,"N_COORD97":2543146.7400000002,"ADDRESS":"土庫六街７５巷６１號","OBJECTID":422723},"geometry":{"x":174138.18000000156,"y":2543146.7400000002}},{"attributes":{"ID":422749,"DIS_CODE":0,"TOWNNAME":"仁德區","LI":"仁義里","LIN":"4鄰","STREET":"仁義三街","SECT":" ","MAREA":" ","LANE":"２２０巷","ALLEY":" ","HOUSE_NO":"６號","E_COORD97":173880.20000000001,"N_COORD97":2541087.5099999998,"ADDRESS":"仁義三街２２０巷６號","OBJECTID":422724},"geometry":{"x":173880.20000000019,"y":2541087.5099999998}},{"attributes":{"ID":422750,"DIS_CODE":0,"TOWNNAME":"仁德區","LI":"仁義里","LIN":"42鄰","STREET":"中正路","SECT":"二段","MAREA":" ","LANE":"９９４巷","ALLEY":" ","HOUSE_NO":"１３０號","E_COORD97":173658.78,"N_COORD97":2540789.0800000001,"ADDRESS":"中正路二段９９４巷１３０號","OBJECTID":422725},"geometry":{"x":173658.78000000119,"y":2540789.0800000001}},{"attributes":{"ID":422751,"DIS_CODE":0,"TOWNNAME":"仁德區","LI":"仁義里","LIN":"50鄰","STREET":"中清路","SECT":" ","MAREA":" ","LANE":"２３巷","ALLEY":" ","HOUSE_NO":"１號","E_COORD97":173671.14999999999,"N_COORD97":2541043.5499999998,"ADDRESS":"中清路２３巷１號","OBJECTID":422726},"geometry":{"x":173671.15000000224,"y":2541043.5500000007}},{"attributes":{"ID":422752,"DIS_CODE":0,"TOWNNAME":"仁德區","LI":"仁德里","LIN":"38鄰","STREET":"中山路","SECT":" ","MAREA":" ","LANE":"８４０巷","ALLEY":" ","HOUSE_NO":"１１號","E_COORD97":172404.38,"N_COORD97":2541663.75,"ADDRESS":"中山路８４０巷１１號","OBJECTID":422727},"geometry":{"x":172404.37999999896,"y":2541663.7500000019}},{"attributes":{"ID":422753,"DIS_CODE":0,"TOWNNAME":"仁德區","LI":"仁義里","LIN":"42鄰","STREET":"中正路","SECT":"二段","MAREA":" ","LANE":"９９４巷","ALLEY":" ","HOUSE_NO":"４８號","E_COORD97":173546.06,"N_COORD97":2540788.3999999999,"ADDRESS":"中正路二段９９４巷４８號","OBJECTID":422728},"geometry":{"x":173546.06000000052,"y":2540788.4000000022}},{"attributes":{"ID":422754,"DIS_CODE":0,"TOWNNAME":"仁德區","LI":"仁義里","LIN":"4鄰","STREET":"仁義三街","SECT":" ","MAREA":" ","LANE":"１７０巷","ALLEY":" ","HOUSE_NO":"１３號","E_COORD97":173810.22,"N_COORD97":2541091.5099999998,"ADDRESS":"仁義三街１７０巷１３號","OBJECTID":422729},"geometry":{"x":173810.21999999974,"y":2541091.5100000035}},{"attributes":{"ID":422755,"DIS_CODE":0,"TOWNNAME":"仁德區","LI":"土庫里","LIN":"5鄰","STREET":"土庫六街","SECT":" ","MAREA":" ","LANE":"７５巷","ALLEY":" ","HOUSE_NO":"１００號","E_COORD97":174122.31,"N_COORD97":2543144,"ADDRESS":"土庫六街７５巷１００號","OBJECTID":422730},"geometry":{"x":174122.31000000052,"y":2543144.0000000019}},{"attributes":{"ID":422756,"DIS_CODE":0,"TOWNNAME":"仁德區","LI":"仁義里","LIN":"50鄰","STREET":"仁義路","SECT":" ","MAREA":" ","LANE":"９５巷","ALLEY":" ","HOUSE_NO":"５２號","E_COORD97":173637.57999999999,"N_COORD97":2541113.0099999998,"ADDRESS":"仁義路９５巷５２號","OBJECTID":422731},"geometry":{"x":173637.58000000194,"y":2541113.0100000016}},{"attributes":{"ID":422757,"DIS_CODE":0,"TOWNNAME":"仁德區","LI":"大甲里","LIN":"4鄰","STREET":"行大街","SECT":" ","MAREA":" ","LANE":"２８５巷","ALLEY":" ","HOUSE_NO":"１９號","E_COORD97":169748.35000000001,"N_COORD97":2535071.7400000002,"ADDRESS":"行大街２８５巷１９號","OBJECTID":422732},"geometry":{"x":169748.35000000056,"y":2535071.7400000002}},{"attributes":{"ID":422758,"DIS_CODE":0,"TOWNNAME":"仁德區","LI":"大甲里","LIN":"5鄰","STREET":"行大街","SECT":" ","MAREA":" ","LANE":"２８５巷","ALLEY":" ","HOUSE_NO":"２號","E_COORD97":169745.98999999999,"N_COORD97":2535116.5,"ADDRESS":"行大街２８５巷２號","OBJECTID":422733},"geometry":{"x":169745.99000000209,"y":2535116.5}},{"attributes":{"ID":422759,"DIS_CODE":0,"TOWNNAME":"仁德區","LI":"仁義里","LIN":"4鄰","STREET":"仁義三街","SECT":" ","MAREA":" ","LANE":"１７０巷","ALLEY":" ","HOUSE_NO":"３號","E_COORD97":173786.23000000001,"N_COORD97":2541092.7599999998,"ADDRESS":"仁義三街１７０巷３號","OBJECTID":422734},"geometry":{"x":173786.23000000138,"y":2541092.7599999979}},{"attributes":{"ID":422760,"DIS_CODE":0,"TOWNNAME":"仁德區","LI":"仁德里","LIN":"32鄰","STREET":"中山路","SECT":" ","MAREA":" ","LANE":"６４０巷","ALLEY":" ","HOUSE_NO":"４號","E_COORD97":173130.09,"N_COORD97":2541431.2400000002,"ADDRESS":"中山路６４０巷４號","OBJECTID":422735},"geometry":{"x":173130.08999999985,"y":2541431.2400000002}},{"attributes":{"ID":422761,"DIS_CODE":0,"TOWNNAME":"仁德區","LI":"仁德里","LIN":"36鄰","STREET":"中山路","SECT":" ","MAREA":" ","LANE":"７５８巷","ALLEY":" ","HOUSE_NO":"２０號","E_COORD97":172690.79000000001,"N_COORD97":2541602.2400000002,"ADDRESS":"中山路７５８巷２０號","OBJECTID":422736},"geometry":{"x":172690.79000000097,"y":2541602.2400000039}},{"attributes":{"ID":422762,"DIS_CODE":0,"TOWNNAME":"仁德區","LI":"土庫里","LIN":"5鄰","STREET":"土庫六街","SECT":" ","MAREA":" ","LANE":"７５巷","ALLEY":" ","HOUSE_NO":"９０號","E_COORD97":174121.82999999999,"N_COORD97":2543155.75,"ADDRESS":"土庫六街７５巷９０號","OBJECTID":422737},"geometry":{"x":174121.83000000007,"y":2543155.7500000019}},{"attributes":{"ID":422763,"DIS_CODE":0,"TOWNNAME":"仁德區","LI":"仁義里","LIN":"4鄰","STREET":"仁義三街","SECT":" ","MAREA":" ","LANE":"２０５巷","ALLEY":" ","HOUSE_NO":"７號","E_COORD97":173854.85999999999,"N_COORD97":2541150.02,"ADDRESS":"仁義三街２０５巷７號","OBJECTID":422738},"geometry":{"x":173854.86000000127,"y":2541150.0200000014}},{"attributes":{"ID":422764,"DIS_CODE":0,"TOWNNAME":"仁德區","LI":"土庫里","LIN":"5鄰","STREET":"土庫六街","SECT":" ","MAREA":" ","LANE":"７５巷","ALLEY":" ","HOUSE_NO":"６６號","E_COORD97":174112.34,"N_COORD97":2543170.25,"ADDRESS":"土庫六街７５巷６６號","OBJECTID":422739},"geometry":{"x":174112.34000000078,"y":2543170.25}},{"attributes":{"ID":422765,"DIS_CODE":0,"TOWNNAME":"仁德區","LI":"仁義里","LIN":"50鄰","STREET":"中清路","SECT":" ","MAREA":" ","LANE":"２３巷","ALLEY":" ","HOUSE_NO":"１２號","E_COORD97":173650.32000000001,"N_COORD97":2541059.7999999998,"ADDRESS":"中清路２３巷１２號","OBJECTID":422740},"geometry":{"x":173650.32000000123,"y":2541059.8000000045}},{"attributes":{"ID":422766,"DIS_CODE":0,"TOWNNAME":"仁德區","LI":"仁義里","LIN":"43鄰","STREET":"仁義路","SECT":" ","MAREA":" ","LANE":"７０巷","ALLEY":" ","HOUSE_NO":"３２號","E_COORD97":173543.62,"N_COORD97":2540847.77,"ADDRESS":"仁義路７０巷３２號","OBJECTID":422741},"geometry":{"x":173543.62000000011,"y":2540847.7699999996}},{"attributes":{"ID":422767,"DIS_CODE":0,"TOWNNAME":"仁德區","LI":"仁義里","LIN":"41鄰","STREET":"中正路","SECT":"二段","MAREA":" ","LANE":"８９２巷","ALLEY":" ","HOUSE_NO":"８號","E_COORD97":173474.59,"N_COORD97":2540563.27,"ADDRESS":"中正路二段８９２巷８號","OBJECTID":422742},"geometry":{"x":173474.59000000078,"y":2540563.2699999996}},{"attributes":{"ID":422768,"DIS_CODE":0,"TOWNNAME":"仁德區","LI":"仁德里","LIN":"18鄰","STREET":"文華路","SECT":"三段","MAREA":" ","LANE":"１８９巷","ALLEY":" ","HOUSE_NO":"９５號","E_COORD97":172053.92999999999,"N_COORD97":2540468.8199999998,"ADDRESS":"文華路三段１８９巷９５號","OBJECTID":422743},"geometry":{"x":172053.9299999997,"y":2540468.8200000003}},{"attributes":{"ID":422769,"DIS_CODE":0,"TOWNNAME":"仁德區","LI":"大甲里","LIN":"4鄰","STREET":"行大街","SECT":" ","MAREA":" ","LANE":"２７１巷","ALLEY":" ","HOUSE_NO":"２之２號","E_COORD97":169760.79000000001,"N_COORD97":2535104.79,"ADDRESS":"行大街２７１巷２之２號","OBJECTID":422744},"geometry":{"x":169760.7900000019,"y":2535104.7900000028}},{"attributes":{"ID":422770,"DIS_CODE":0,"TOWNNAME":"仁德區","LI":"土庫里","LIN":"5鄰","STREET":"土庫六街","SECT":" ","MAREA":" ","LANE":"７５巷","ALLEY":" ","HOUSE_NO":"６０號","E_COORD97":174121.10999999999,"N_COORD97":2543170.5,"ADDRESS":"土庫六街７５巷６０號","OBJECTID":422745},"geometry":{"x":174121.11000000127,"y":2543170.5000000019}},{"attributes":{"ID":422771,"DIS_CODE":0,"TOWNNAME":"仁德區","LI":"仁義里","LIN":"50鄰","STREET":"中清路","SECT":" ","MAREA":" ","LANE":"２３巷","ALLEY":" ","HOUSE_NO":"１１號","E_COORD97":173650.63,"N_COORD97":2541044.5499999998,"ADDRESS":"中清路２３巷１１號","OBJECTID":422746},"geometry":{"x":173650.63000000082,"y":2541044.5500000045}},{"attributes":{"ID":422772,"DIS_CODE":0,"TOWNNAME":"仁德區","LI":"仁義里","LIN":"4鄰","STREET":"仁義三街","SECT":" ","MAREA":" ","LANE":"１９８巷","ALLEY":" ","HOUSE_NO":"３號","E_COORD97":173842.82999999999,"N_COORD97":2541090.5099999998,"ADDRESS":"仁義三街１９８巷３號","OBJECTID":422747},"geometry":{"x":173842.83000000101,"y":2541090.5099999998}},{"attributes":{"ID":422773,"DIS_CODE":0,"TOWNNAME":"仁德區","LI":"仁義里","LIN":"18鄰","STREET":"正義路","SECT":" ","MAREA":" ","LANE":"２０５巷","ALLEY":" ","HOUSE_NO":"４５號","E_COORD97":174098.60000000001,"N_COORD97":2541461.27,"ADDRESS":"正義路２０５巷４５號","OBJECTID":422748},"geometry":{"x":174098.60000000056,"y":2541461.2699999996}},{"attributes":{"ID":422774,"DIS_CODE":0,"TOWNNAME":"仁德區","LI":"仁義里","LIN":"4鄰","STREET":"仁義三街","SECT":" ","MAREA":" ","LANE":"１７０巷","ALLEY":" ","HOUSE_NO":"１５號","E_COORD97":173814.54999999999,"N_COORD97":2541091.0099999998,"ADDRESS":"仁義三街１７０巷１５號","OBJECTID":422749},"geometry":{"x":173814.54999999981,"y":2541091.0099999979}},{"attributes":{"ID":422775,"DIS_CODE":0,"TOWNNAME":"仁德區","LI":"仁德里","LIN":"36鄰","STREET":"中山路","SECT":" ","MAREA":" ","LANE":"７５８巷","ALLEY":" ","HOUSE_NO":"７號","E_COORD97":172672.42999999999,"N_COORD97":2541562.75,"ADDRESS":"中山路７５８巷７號","OBJECTID":422750},"geometry":{"x":172672.43000000063,"y":2541562.7500000019}},{"attributes":{"ID":422776,"DIS_CODE":0,"TOWNNAME":"仁德區","LI":"土庫里","LIN":"5鄰","STREET":"土庫六街","SECT":" ","MAREA":" ","LANE":"７５巷","ALLEY":" ","HOUSE_NO":"８０號","E_COORD97":174103.79000000001,"N_COORD97":2543155.25,"ADDRESS":"土庫六街７５巷８０號","OBJECTID":422751},"geometry":{"x":174103.7900000019,"y":2543155.2500000019}},{"attributes":{"ID":422777,"DIS_CODE":0,"TOWNNAME":"仁德區","LI":"仁義里","LIN":"18鄰","STREET":"正義三街","SECT":" ","MAREA":" ","LANE":"２８６巷","ALLEY":" ","HOUSE_NO":"３５號","E_COORD97":174013.89000000001,"N_COORD97":2541444.27,"ADDRESS":"正義三街２８６巷３５號","OBJECTID":422752},"geometry":{"x":174013.88999999966,"y":2541444.2699999996}},{"attributes":{"ID":422778,"DIS_CODE":0,"TOWNNAME":"仁德區","LI":"仁義里","LIN":"46鄰","STREET":"中正路","SECT":"二段","MAREA":" ","LANE":"９９４巷","ALLEY":" ","HOUSE_NO":"６７號","E_COORD97":173663.48999999999,"N_COORD97":2540813.0299999998,"ADDRESS":"中正路二段９９４巷６７號","OBJECTID":422753},"geometry":{"x":173663.49000000022,"y":2540813.0300000012}},{"attributes":{"ID":422779,"DIS_CODE":0,"TOWNNAME":"仁德區","LI":"仁德里","LIN":"32鄰","STREET":"中山路","SECT":" ","MAREA":" ","LANE":"６４０巷","ALLEY":" ","HOUSE_NO":"１２號","E_COORD97":173132.82000000001,"N_COORD97":2541461.75,"ADDRESS":"中山路６４０巷１２號","OBJECTID":422754},"geometry":{"x":173132.82000000123,"y":2541461.75}},{"attributes":{"ID":422780,"DIS_CODE":0,"TOWNNAME":"仁德區","LI":"仁義里","LIN":"18鄰","STREET":"正義路","SECT":" ","MAREA":" ","LANE":"２０５巷","ALLEY":" ","HOUSE_NO":"３５號","E_COORD97":174053.26000000001,"N_COORD97":2541446.52,"ADDRESS":"正義路２０５巷３５號","OBJECTID":422755},"geometry":{"x":174053.26000000071,"y":2541446.5199999996}},{"attributes":{"ID":422781,"DIS_CODE":0,"TOWNNAME":"仁德區","LI":"仁義里","LIN":"46鄰","STREET":"仁義路","SECT":" ","MAREA":" ","LANE":"１２６巷","ALLEY":" ","HOUSE_NO":"５２號","E_COORD97":173675.53,"N_COORD97":2540825.3999999999,"ADDRESS":"仁義路１２６巷５２號","OBJECTID":422756},"geometry":{"x":173675.53000000119,"y":2540825.4000000022}},{"attributes":{"ID":422782,"DIS_CODE":0,"TOWNNAME":"仁德區","LI":"仁義里","LIN":"26鄰","STREET":"中山路","SECT":" ","MAREA":" ","LANE":"５７４巷","ALLEY":" ","HOUSE_NO":"１號","E_COORD97":173322.07000000001,"N_COORD97":2541361.25,"ADDRESS":"中山路５７４巷１號","OBJECTID":422757},"geometry":{"x":173322.0700000003,"y":2541361.2500000037}},{"attributes":{"ID":422783,"DIS_CODE":0,"TOWNNAME":"仁德區","LI":"仁義里","LIN":"46鄰","STREET":"仁義路","SECT":" ","MAREA":" ","LANE":"１２６巷","ALLEY":" ","HOUSE_NO":"６號","E_COORD97":173683.25,"N_COORD97":2540934.3999999999,"ADDRESS":"仁義路１２６巷６號","OBJECTID":422758},"geometry":{"x":173683.25,"y":2540934.4000000022}},{"attributes":{"ID":422784,"DIS_CODE":0,"TOWNNAME":"新市區","LI":"社內里","LIN":"4鄰","STREET":" ","SECT":" ","MAREA":"社內","LANE":" ","ALLEY":" ","HOUSE_NO":"５０之９６號","E_COORD97":176395.736706,"N_COORD97":2551876.2913799998,"ADDRESS":"社內５０之９６號","OBJECTID":422759},"geometry":{"x":176395.73670599889,"y":2551876.2913750019}},{"attributes":{"ID":422785,"DIS_CODE":0,"TOWNNAME":"仁德區","LI":"仁義里","LIN":"41鄰","STREET":"中正路","SECT":"二段","MAREA":" ","LANE":"９３６巷","ALLEY":" ","HOUSE_NO":"４號","E_COORD97":173466.25,"N_COORD97":2540666.6499999999,"ADDRESS":"中正路二段９３６巷４號","OBJECTID":422760},"geometry":{"x":173466.25,"y":2540666.6500000004}},{"attributes":{"ID":422786,"DIS_CODE":0,"TOWNNAME":"仁德區","LI":"仁義里","LIN":"50鄰","STREET":"中清路","SECT":" ","MAREA":" ","LANE":"２３巷","ALLEY":" ","HOUSE_NO":"１０號","E_COORD97":173654.98999999999,"N_COORD97":2541059.2999999998,"ADDRESS":"中清路２３巷１０號","OBJECTID":422761},"geometry":{"x":173654.99000000022,"y":2541059.3000000007}},{"attributes":{"ID":422787,"DIS_CODE":0,"TOWNNAME":"仁德區","LI":"土庫里","LIN":"18鄰","STREET":"土庫一街","SECT":" ","MAREA":" ","LANE":"５６巷","ALLEY":" ","HOUSE_NO":"２號","E_COORD97":174572.59,"N_COORD97":2543093.75,"ADDRESS":"土庫一街５６巷２號","OBJECTID":422762},"geometry":{"x":174572.58999999985,"y":2543093.7500000037}},{"attributes":{"ID":422788,"DIS_CODE":0,"TOWNNAME":"仁德區","LI":"仁義里","LIN":"4鄰","STREET":"仁義三街","SECT":" ","MAREA":" ","LANE":"１９８巷","ALLEY":" ","HOUSE_NO":"７號","E_COORD97":173840.45000000001,"N_COORD97":2541081.7599999998,"ADDRESS":"仁義三街１９８巷７號","OBJECTID":422763},"geometry":{"x":173840.45000000112,"y":2541081.7599999998}},{"attributes":{"ID":422789,"DIS_CODE":0,"TOWNNAME":"仁德區","LI":"仁德里","LIN":"4鄰","STREET":"仁中二街","SECT":" ","MAREA":" ","LANE":"７６巷","ALLEY":" ","HOUSE_NO":"１８號","E_COORD97":173288.64000000001,"N_COORD97":2540578.7400000002,"ADDRESS":"仁中二街７６巷１８號","OBJECTID":422764},"geometry":{"x":173288.63999999966,"y":2540578.7400000021}},{"attributes":{"ID":422790,"DIS_CODE":0,"TOWNNAME":"仁德區","LI":"仁義里","LIN":"20鄰","STREET":"中山路","SECT":" ","MAREA":" ","LANE":"３２８巷","ALLEY":" ","HOUSE_NO":"１２號","E_COORD97":173958.45000000001,"N_COORD97":2541299.4900000002,"ADDRESS":"中山路３２８巷１２號","OBJECTID":422765},"geometry":{"x":173958.45000000019,"y":2541299.4900000021}},{"attributes":{"ID":422791,"DIS_CODE":0,"TOWNNAME":"仁德區","LI":"仁義里","LIN":"39鄰","STREET":"仁義五街","SECT":" ","MAREA":" ","LANE":"４４巷","ALLEY":" ","HOUSE_NO":"２６號","E_COORD97":173586.35999999999,"N_COORD97":2540375.1699999999,"ADDRESS":"仁義五街４４巷２６號","OBJECTID":422766},"geometry":{"x":173586.36000000034,"y":2540375.1700000037}},{"attributes":{"ID":422792,"DIS_CODE":0,"TOWNNAME":"仁德區","LI":"仁義里","LIN":"46鄰","STREET":"仁義路","SECT":" ","MAREA":" ","LANE":"１２６巷","ALLEY":" ","HOUSE_NO":"５４號","E_COORD97":173677.39999999999,"N_COORD97":2540818.6499999999,"ADDRESS":"仁義路１２６巷５４號","OBJECTID":422767},"geometry":{"x":173677.40000000037,"y":2540818.6500000004}},{"attributes":{"ID":422793,"DIS_CODE":0,"TOWNNAME":"仁德區","LI":"仁德里","LIN":"18鄰","STREET":"文華路","SECT":"三段","MAREA":" ","LANE":"１８９巷","ALLEY":" ","HOUSE_NO":"６０號","E_COORD97":172119.87,"N_COORD97":2540482.5699999998,"ADDRESS":"文華路三段１８９巷６０號","OBJECTID":422768},"geometry":{"x":172119.87000000011,"y":2540482.5700000022}},{"attributes":{"ID":422794,"DIS_CODE":0,"TOWNNAME":"仁德區","LI":"仁義里","LIN":"18鄰","STREET":"正義三街","SECT":" ","MAREA":" ","LANE":"２８６巷","ALLEY":" ","HOUSE_NO":"５８號","E_COORD97":173984.42000000001,"N_COORD97":2541431.9900000002,"ADDRESS":"正義三街２８６巷５８號","OBJECTID":422769},"geometry":{"x":173984.42000000086,"y":2541431.9900000021}},{"attributes":{"ID":422795,"DIS_CODE":0,"TOWNNAME":"仁德區","LI":"仁義里","LIN":"39鄰","STREET":"仁義五街","SECT":" ","MAREA":" ","LANE":"４４巷","ALLEY":" ","HOUSE_NO":"１１號","E_COORD97":173610.37,"N_COORD97":2540404.02,"ADDRESS":"仁義五街４４巷１１號","OBJECTID":422770},"geometry":{"x":173610.37000000104,"y":2540404.0200000014}},{"attributes":{"ID":422796,"DIS_CODE":0,"TOWNNAME":"仁德區","LI":"田厝里","LIN":"4鄰","STREET":"保安路","SECT":"二段","MAREA":" ","LANE":"４８２巷","ALLEY":" ","HOUSE_NO":"７號","E_COORD97":172472.95000000001,"N_COORD97":2537490.5600000001,"ADDRESS":"保安路二段４８２巷７號","OBJECTID":422771},"geometry":{"x":172472.95000000112,"y":2537490.5600000005}},{"attributes":{"ID":422797,"DIS_CODE":0,"TOWNNAME":"仁德區","LI":"仁德里","LIN":"39鄰","STREET":"文華路","SECT":"三段","MAREA":" ","LANE":"６１８巷","ALLEY":" ","HOUSE_NO":"４２號","E_COORD97":172645.73000000001,"N_COORD97":2541852.5800000001,"ADDRESS":"文華路三段６１８巷４２號","OBJECTID":422772},"geometry":{"x":172645.73000000138,"y":2541852.5800000001}},{"attributes":{"ID":422798,"DIS_CODE":0,"TOWNNAME":"安南區","LI":"國安里","LIN":"7鄰","STREET":"國安街","SECT":" ","MAREA":" ","LANE":"２１０巷","ALLEY":" ","HOUSE_NO":"７０號","E_COORD97":166589.75,"N_COORD97":2547141.04,"ADDRESS":"國安街２１０巷７０號","OBJECTID":422773},"geometry":{"x":166589.75000000093,"y":2547141.0399999991}},{"attributes":{"ID":422799,"DIS_CODE":0,"TOWNNAME":"東區","LI":"關聖里","LIN":"4鄰","STREET":"裕農路","SECT":" ","MAREA":" ","LANE":"６６８巷","ALLEY":" ","HOUSE_NO":"６３號之３","E_COORD97":171763.17999999999,"N_COORD97":2542959.6800000002,"ADDRESS":"裕農路６６８巷６３號之３","OBJECTID":422774},"geometry":{"x":171763.18000000156,"y":2542959.6800000016}},{"attributes":{"ID":422800,"DIS_CODE":0,"TOWNNAME":"東區","LI":"關聖里","LIN":"4鄰","STREET":"裕農路","SECT":" ","MAREA":" ","LANE":"６６８巷","ALLEY":" ","HOUSE_NO":"６３號之４","E_COORD97":171763.97,"N_COORD97":2542954.9399999999,"ADDRESS":"裕農路６６８巷６３號之４","OBJECTID":422775},"geometry":{"x":171763.96999999974,"y":2542954.9399999995}},{"attributes":{"ID":422801,"DIS_CODE":0,"TOWNNAME":"東區","LI":"關聖里","LIN":"4鄰","STREET":"裕農路","SECT":" ","MAREA":" ","LANE":"６６８巷","ALLEY":" ","HOUSE_NO":"６３號之５","E_COORD97":171764.56,"N_COORD97":2542951.3900000001,"ADDRESS":"裕農路６６８巷６３號之５","OBJECTID":422776},"geometry":{"x":171764.56000000052,"y":2542951.3900000025}},{"attributes":{"ID":422802,"DIS_CODE":0,"TOWNNAME":"東區","LI":"莊敬里","LIN":"15鄰","STREET":"東光路","SECT":"二段","MAREA":" ","LANE":"５５巷","ALLEY":" ","HOUSE_NO":"１０號","E_COORD97":171170.57999999999,"N_COORD97":2544106,"ADDRESS":"東光路二段５５巷１０號","OBJECTID":422777},"geometry":{"x":171170.58000000007,"y":2544106.0000000019}},{"attributes":{"ID":422803,"DIS_CODE":0,"TOWNNAME":"東區","LI":"莊敬里","LIN":"15鄰","STREET":"東光路","SECT":"二段","MAREA":" ","LANE":"５５巷","ALLEY":" ","HOUSE_NO":"１２號","E_COORD97":171165.39999999999,"N_COORD97":2544106.0699999998,"ADDRESS":"東光路二段５５巷１２號","OBJECTID":422778},"geometry":{"x":171165.40000000037,"y":2544106.0700000022}},{"attributes":{"ID":422804,"DIS_CODE":0,"TOWNNAME":"東區","LI":"莊敬里","LIN":"15鄰","STREET":"東光路","SECT":"二段","MAREA":" ","LANE":"５５巷","ALLEY":" ","HOUSE_NO":"１４號","E_COORD97":171160.22,"N_COORD97":2544104.98,"ADDRESS":"東光路二段５５巷１４號","OBJECTID":422779},"geometry":{"x":171160.22000000067,"y":2544104.9800000004}},{"attributes":{"ID":422805,"DIS_CODE":0,"TOWNNAME":"東區","LI":"莊敬里","LIN":"15鄰","STREET":"東光路","SECT":"二段","MAREA":" ","LANE":"５５巷","ALLEY":" ","HOUSE_NO":"１６號","E_COORD97":171154.89999999999,"N_COORD97":2544105.1299999999,"ADDRESS":"東光路二段５５巷１６號","OBJECTID":422780},"geometry":{"x":171154.90000000037,"y":2544105.1300000008}},{"attributes":{"ID":422806,"DIS_CODE":0,"TOWNNAME":"東區","LI":"莊敬里","LIN":"15鄰","STREET":"東光路","SECT":"二段","MAREA":" ","LANE":"５５巷","ALLEY":" ","HOUSE_NO":"２號","E_COORD97":171189.45999999999,"N_COORD97":2544105.8500000001,"ADDRESS":"東光路二段５５巷２號","OBJECTID":422781},"geometry":{"x":171189.45999999996,"y":2544105.8499999996}},{"attributes":{"ID":422807,"DIS_CODE":0,"TOWNNAME":"東區","LI":"莊敬里","LIN":"17鄰","STREET":"莊敬路","SECT":" ","MAREA":" ","LANE":"１５８巷","ALLEY":" ","HOUSE_NO":"１３號","E_COORD97":171426.87,"N_COORD97":2544095.75,"ADDRESS":"莊敬路１５８巷１３號","OBJECTID":422782},"geometry":{"x":171426.87000000104,"y":2544095.75}},{"attributes":{"ID":422808,"DIS_CODE":0,"TOWNNAME":"東區","LI":"莊敬里","LIN":"17鄰","STREET":"莊敬路","SECT":" ","MAREA":" ","LANE":"１５８巷","ALLEY":" ","HOUSE_NO":"１５號","E_COORD97":171430.60999999999,"N_COORD97":2544092.6699999999,"ADDRESS":"莊敬路１５８巷１５號","OBJECTID":422783},"geometry":{"x":171430.61000000127,"y":2544092.6699999999}},{"attributes":{"ID":422809,"DIS_CODE":0,"TOWNNAME":"東區","LI":"莊敬里","LIN":"17鄰","STREET":"莊敬路","SECT":" ","MAREA":" ","LANE":"１５８巷","ALLEY":" ","HOUSE_NO":"１７號","E_COORD97":171435.64999999999,"N_COORD97":2544093.5600000001,"ADDRESS":"莊敬路１５８巷１７號","OBJECTID":422784},"geometry":{"x":171435.6500000013,"y":2544093.5600000024}},{"attributes":{"ID":422810,"DIS_CODE":0,"TOWNNAME":"東區","LI":"莊敬里","LIN":"17鄰","STREET":"莊敬路","SECT":" ","MAREA":" ","LANE":"１５８巷","ALLEY":" ","HOUSE_NO":"１９號","E_COORD97":171439.47,"N_COORD97":2544092.4199999999,"ADDRESS":"莊敬路１５８巷１９號","OBJECTID":422785},"geometry":{"x":171439.47000000067,"y":2544092.4200000037}},{"attributes":{"ID":422811,"DIS_CODE":0,"TOWNNAME":"東區","LI":"莊敬里","LIN":"17鄰","STREET":"莊敬路","SECT":" ","MAREA":" ","LANE":"１５８巷","ALLEY":" ","HOUSE_NO":"１號","E_COORD97":171399.47,"N_COORD97":2544097.54,"ADDRESS":"莊敬路１５８巷１號","OBJECTID":422786},"geometry":{"x":171399.46999999974,"y":2544097.5400000028}},{"attributes":{"ID":422812,"DIS_CODE":0,"TOWNNAME":"東區","LI":"莊敬里","LIN":"17鄰","STREET":"莊敬路","SECT":" ","MAREA":" ","LANE":"１５８巷","ALLEY":" ","HOUSE_NO":"２３號","E_COORD97":171449.63,"N_COORD97":2544091.8599999999,"ADDRESS":"莊敬路１５８巷２３號","OBJECTID":422787},"geometry":{"x":171449.62999999989,"y":2544091.8599999994}},{"attributes":{"ID":422813,"DIS_CODE":0,"TOWNNAME":"東區","LI":"莊敬里","LIN":"17鄰","STREET":"莊敬路","SECT":" ","MAREA":" ","LANE":"１５８巷","ALLEY":" ","HOUSE_NO":"３號","E_COORD97":171404.01999999999,"N_COORD97":2544098.7599999998,"ADDRESS":"莊敬路１５８巷３號","OBJECTID":422788},"geometry":{"x":171404.01999999955,"y":2544098.7599999998}},{"attributes":{"ID":422814,"DIS_CODE":0,"TOWNNAME":"東區","LI":"莊敬里","LIN":"17鄰","STREET":"莊敬路","SECT":" ","MAREA":" ","LANE":"１５８巷","ALLEY":" ","HOUSE_NO":"５號","E_COORD97":171408.57000000001,"N_COORD97":2544096.8900000001,"ADDRESS":"莊敬路１５８巷５號","OBJECTID":422789},"geometry":{"x":171408.57000000216,"y":2544096.8900000043}},{"attributes":{"ID":422815,"DIS_CODE":0,"TOWNNAME":"東區","LI":"莊敬里","LIN":"17鄰","STREET":"莊敬路","SECT":" ","MAREA":" ","LANE":"１５８巷","ALLEY":" ","HOUSE_NO":"７號","E_COORD97":171413.39000000001,"N_COORD97":2544097.8599999999,"ADDRESS":"莊敬路１５８巷７號","OBJECTID":422790},"geometry":{"x":171413.38999999966,"y":2544097.8599999994}},{"attributes":{"ID":422816,"DIS_CODE":0,"TOWNNAME":"東區","LI":"崇學里","LIN":"12鄰","STREET":"崇明十街","SECT":" ","MAREA":" ","LANE":"７０巷","ALLEY":" ","HOUSE_NO":"１２號","E_COORD97":170228.20999999999,"N_COORD97":2541849.7000000002,"ADDRESS":"崇明十街７０巷１２號","OBJECTID":422791},"geometry":{"x":170228.21000000089,"y":2541849.7000000011}},{"attributes":{"ID":422817,"DIS_CODE":0,"TOWNNAME":"東區","LI":"大學里","LIN":"11鄰","STREET":"長榮路","SECT":"三段","MAREA":" ","LANE":"６６巷","ALLEY":" ","HOUSE_NO":"３３號","E_COORD97":170323.79000000001,"N_COORD97":2543825.75,"ADDRESS":"長榮路三段６６巷３３號","OBJECTID":422792},"geometry":{"x":170323.79000000097,"y":2543825.7499999981}},{"attributes":{"ID":422818,"DIS_CODE":0,"TOWNNAME":"東區","LI":"大學里","LIN":"11鄰","STREET":"長榮路","SECT":"三段","MAREA":" ","LANE":"６６巷","ALLEY":" ","HOUSE_NO":"３３號之３","E_COORD97":170342.66,"N_COORD97":2543824.4700000002,"ADDRESS":"長榮路三段６６巷３３號之３","OBJECTID":422793},"geometry":{"x":170342.66000000015,"y":2543824.4700000007}},{"attributes":{"ID":422819,"DIS_CODE":0,"TOWNNAME":"東區","LI":"虎尾里","LIN":"24鄰","STREET":"東成街","SECT":" ","MAREA":" ","LANE":"２２２巷","ALLEY":" ","HOUSE_NO":"１１號之１０","E_COORD97":171925.98000000001,"N_COORD97":2542203.8700000001,"ADDRESS":"東成街２２２巷１１號之１０","OBJECTID":422794},"geometry":{"x":171925.98000000045,"y":2542203.8700000029}},{"attributes":{"ID":422820,"DIS_CODE":0,"TOWNNAME":"東區","LI":"虎尾里","LIN":"24鄰","STREET":"東成街","SECT":" ","MAREA":" ","LANE":"２２２巷","ALLEY":" ","HOUSE_NO":"１１號之１１","E_COORD97":171925.42999999999,"N_COORD97":2542198.1899999999,"ADDRESS":"東成街２２２巷１１號之１１","OBJECTID":422795},"geometry":{"x":171925.4299999997,"y":2542198.1899999976}},{"attributes":{"ID":422821,"DIS_CODE":0,"TOWNNAME":"東區","LI":"自強里","LIN":"1鄰","STREET":"東成街","SECT":" ","MAREA":" ","LANE":"７１巷","ALLEY":" ","HOUSE_NO":"５號","E_COORD97":171419.67000000001,"N_COORD97":2542311.8199999998,"ADDRESS":"東成街７１巷５號","OBJECTID":422796},"geometry":{"x":171419.67000000086,"y":2542311.8200000022}},{"attributes":{"ID":422822,"DIS_CODE":0,"TOWNNAME":"東區","LI":"裕農里","LIN":"23鄰","STREET":"裕農路","SECT":" ","MAREA":" ","LANE":"３４５巷","ALLEY":" ","HOUSE_NO":"３２號","E_COORD97":170984.20999999999,"N_COORD97":2543150.7599999998,"ADDRESS":"裕農路３４５巷３２號","OBJECTID":422797},"geometry":{"x":170984.21000000089,"y":2543150.7599999979}},{"attributes":{"ID":422823,"DIS_CODE":0,"TOWNNAME":"東區","LI":"莊敬里","LIN":"4鄰","STREET":"小東路","SECT":" ","MAREA":" ","LANE":"２５８巷","ALLEY":" ","HOUSE_NO":"２４號","E_COORD97":171175.73000000001,"N_COORD97":2544296.2799999998,"ADDRESS":"小東路２５８巷２４號","OBJECTID":422798},"geometry":{"x":171175.73000000138,"y":2544296.2800000031}},{"attributes":{"ID":422824,"DIS_CODE":0,"TOWNNAME":"東區","LI":"莊敬里","LIN":"4鄰","STREET":"小東路","SECT":" ","MAREA":" ","LANE":"２５８巷","ALLEY":" ","HOUSE_NO":"２６號","E_COORD97":171179.42000000001,"N_COORD97":2544292.8799999999,"ADDRESS":"小東路２５８巷２６號","OBJECTID":422799},"geometry":{"x":171179.42000000086,"y":2544292.8800000008}},{"attributes":{"ID":422825,"DIS_CODE":0,"TOWNNAME":"東區","LI":"莊敬里","LIN":"4鄰","STREET":"小東路","SECT":" ","MAREA":" ","LANE":"２５８巷","ALLEY":" ","HOUSE_NO":"３０號","E_COORD97":171185.88,"N_COORD97":2544286.1899999999,"ADDRESS":"小東路２５８巷３０號","OBJECTID":422800},"geometry":{"x":171185.88000000082,"y":2544286.1899999995}}]}