{"displayFieldName":"TOWNNAME","fieldAliases":{"ID":"ID","DIS_CODE":"DIS_CODE","TOWNNAME":"TOWNNAME","LI":"LI","LIN":"LIN","STREET":"STREET","SECT":"SECT","MAREA":"MAREA","LANE":"LANE","ALLEY":"ALLEY","HOUSE_NO":"HOUSE_NO","E_COORD97":"E_COORD97","N_COORD97":"N_COORD97","ADDRESS":"ADDRESS","OBJECTID":"OBJECTID"},"geometryType":"esriGeometryPoint","spatialReference":{"wkid":102443,"latestWkid":3826},"fields":[{"name":"ID","type":"esriFieldTypeDouble","alias":"ID"},{"name":"DIS_CODE","type":"esriFieldTypeInteger","alias":"DIS_CODE"},{"name":"TOWNNAME","type":"esriFieldTypeString","alias":"TOWNNAME","length":8},{"name":"LI","type":"esriFieldTypeString","alias":"LI","length":8},{"name":"LIN","type":"esriFieldTypeString","alias":"LIN","length":12},{"name":"STREET","type":"esriFieldTypeString","alias":"STREET","length":20},{"name":"SECT","type":"esriFieldTypeString","alias":"SECT","length":8},{"name":"MAREA","type":"esriFieldTypeString","alias":"MAREA","length":12},{"name":"LANE","type":"esriFieldTypeString","alias":"LANE","length":10},{"name":"ALLEY","type":"esriFieldTypeString","alias":"ALLEY","length":10},{"name":"HOUSE_NO","type":"esriFieldTypeString","alias":"HOUSE_NO","length":20},{"name":"E_COORD97","type":"esriFieldTypeDouble","alias":"E_COORD97"},{"name":"N_COORD97","type":"esriFieldTypeDouble","alias":"N_COORD97"},{"name":"ADDRESS","type":"esriFieldTypeString","alias":"ADDRESS","length":50},{"name":"OBJECTID","type":"esriFieldTypeOID","alias":"OBJECTID"}],"features":[{"attributes":{"ID":397625,"DIS_CODE":0,"TOWNNAME":"安平區","LI":"怡平里","LIN":"16鄰","STREET":"永華六街","SECT":" ","MAREA":" ","LANE":"１５４巷","ALLEY":" ","HOUSE_NO":"３０號","E_COORD97":165735.85999999999,"N_COORD97":2543935.2799999998,"ADDRESS":"永華六街１５４巷３０號","OBJECTID":397601},"geometry":{"x":165735.86000000034,"y":2543935.2799999993}},{"attributes":{"ID":397626,"DIS_CODE":0,"TOWNNAME":"安平區","LI":"怡平里","LIN":"16鄰","STREET":"永華六街","SECT":" ","MAREA":" ","LANE":"１５４巷","ALLEY":" ","HOUSE_NO":"３２號","E_COORD97":165731.76999999999,"N_COORD97":2543936.7400000002,"ADDRESS":"永華六街１５４巷３２號","OBJECTID":397602},"geometry":{"x":165731.77000000048,"y":2543936.7400000002}},{"attributes":{"ID":397627,"DIS_CODE":0,"TOWNNAME":"安平區","LI":"怡平里","LIN":"16鄰","STREET":"永華六街","SECT":" ","MAREA":" ","LANE":"１５４巷","ALLEY":" ","HOUSE_NO":"３４號","E_COORD97":165727.67999999999,"N_COORD97":2543937.0299999998,"ADDRESS":"永華六街１５４巷３４號","OBJECTID":397603},"geometry":{"x":165727.6799999997,"y":2543937.0299999993}},{"attributes":{"ID":397628,"DIS_CODE":0,"TOWNNAME":"安平區","LI":"怡平里","LIN":"16鄰","STREET":"永華六街","SECT":" ","MAREA":" ","LANE":"１５４巷","ALLEY":" ","HOUSE_NO":"３６號","E_COORD97":165722.72,"N_COORD97":2543937.3199999998,"ADDRESS":"永華六街１５４巷３６號","OBJECTID":397604},"geometry":{"x":165722.71999999974,"y":2543937.3200000003}},{"attributes":{"ID":397629,"DIS_CODE":0,"TOWNNAME":"永康區","LI":"大橋里","LIN":"17鄰","STREET":"大橋一街","SECT":" ","MAREA":" ","LANE":"１０３巷","ALLEY":" ","HOUSE_NO":"４６號","E_COORD97":170960.59,"N_COORD97":2546536,"ADDRESS":"大橋一街１０３巷４６號","OBJECTID":397605},"geometry":{"x":170960.59000000078,"y":2546536}},{"attributes":{"ID":397630,"DIS_CODE":0,"TOWNNAME":"永康區","LI":"中興里","LIN":"17鄰","STREET":"中華路","SECT":" ","MAREA":" ","LANE":"２８６巷","ALLEY":" ","HOUSE_NO":"２３號","E_COORD97":171621.26000000001,"N_COORD97":2545322.25,"ADDRESS":"中華路２８６巷２３號","OBJECTID":397606},"geometry":{"x":171621.25999999978,"y":2545322.2500000019}},{"attributes":{"ID":397631,"DIS_CODE":0,"TOWNNAME":"永康區","LI":"五王里","LIN":"18鄰","STREET":"成功路","SECT":" ","MAREA":" ","LANE":"１８８巷","ALLEY":" ","HOUSE_NO":"１號","E_COORD97":171429.60000000001,"N_COORD97":2545674.8599999999,"ADDRESS":"成功路１８８巷１號","OBJECTID":397607},"geometry":{"x":171429.5999999987,"y":2545674.8599999994}},{"attributes":{"ID":397632,"DIS_CODE":0,"TOWNNAME":"永康區","LI":"中興里","LIN":"5鄰","STREET":"中華路","SECT":" ","MAREA":" ","LANE":"２１４巷","ALLEY":" ","HOUSE_NO":"２９號","E_COORD97":171774.22,"N_COORD97":2545066.7200000002,"ADDRESS":"中華路２１４巷２９號","OBJECTID":397608},"geometry":{"x":171774.21999999974,"y":2545066.7200000007}},{"attributes":{"ID":397633,"DIS_CODE":0,"TOWNNAME":"永康區","LI":"三合里","LIN":"24鄰","STREET":"南工街","SECT":" ","MAREA":" ","LANE":"２６７巷","ALLEY":" ","HOUSE_NO":"５２號","E_COORD97":171833.70999999999,"N_COORD97":2545845.4900000002,"ADDRESS":"南工街２６７巷５２號","OBJECTID":397609},"geometry":{"x":171833.70999999996,"y":2545845.4900000021}},{"attributes":{"ID":397634,"DIS_CODE":0,"TOWNNAME":"永康區","LI":"三合里","LIN":"6鄰","STREET":"南工街","SECT":" ","MAREA":" ","LANE":"９８巷","ALLEY":" ","HOUSE_NO":"７號","E_COORD97":172131.01000000001,"N_COORD97":2545728.04,"ADDRESS":"南工街９８巷７號","OBJECTID":397610},"geometry":{"x":172131.01000000071,"y":2545728.0399999991}},{"attributes":{"ID":397635,"DIS_CODE":0,"TOWNNAME":"永康區","LI":"五王里","LIN":"37鄰","STREET":"中華路","SECT":" ","MAREA":" ","LANE":"５７８巷","ALLEY":" ","HOUSE_NO":"１５號之８３","E_COORD97":171276.04999999999,"N_COORD97":2545965.79,"ADDRESS":"中華路５７８巷１５號之８３","OBJECTID":397611},"geometry":{"x":171276.05000000168,"y":2545965.7899999991}},{"attributes":{"ID":397636,"DIS_CODE":0,"TOWNNAME":"永康區","LI":"五王里","LIN":"37鄰","STREET":"中華路","SECT":" ","MAREA":" ","LANE":"５７８巷","ALLEY":" ","HOUSE_NO":"１５號之５５","E_COORD97":171276.10000000001,"N_COORD97":2545965.79,"ADDRESS":"中華路５７８巷１５號之５５","OBJECTID":397612},"geometry":{"x":171276.10000000056,"y":2545965.7899999991}},{"attributes":{"ID":397637,"DIS_CODE":0,"TOWNNAME":"東區","LI":"崇成里","LIN":"13鄰","STREET":"崇明十五街","SECT":" ","MAREA":" ","LANE":" ","ALLEY":" ","HOUSE_NO":"５５號","E_COORD97":170722.42999999999,"N_COORD97":2541365.8799999999,"ADDRESS":"崇明十五街５５號","OBJECTID":397613},"geometry":{"x":170722.43000000156,"y":2541365.8800000027}},{"attributes":{"ID":397638,"DIS_CODE":0,"TOWNNAME":"南區","LI":"建南里","LIN":"16鄰","STREET":"中華南路","SECT":"二段","MAREA":" ","LANE":"２３３巷","ALLEY":" ","HOUSE_NO":"４２之１號","E_COORD97":166927.54000000001,"N_COORD97":2540038.8399999999,"ADDRESS":"中華南路二段２３３巷４２之１號","OBJECTID":397614},"geometry":{"x":166927.54000000004,"y":2540038.8400000017}},{"attributes":{"ID":397639,"DIS_CODE":0,"TOWNNAME":"南區","LI":"同安里","LIN":"16鄰","STREET":"明興路","SECT":" ","MAREA":" ","LANE":"１４２５巷","ALLEY":" ","HOUSE_NO":"２９號","E_COORD97":166430.10000000001,"N_COORD97":2535761.6400000001,"ADDRESS":"明興路１４２５巷２９號","OBJECTID":397615},"geometry":{"x":166430.09999999963,"y":2535761.6400000043}},{"attributes":{"ID":397640,"DIS_CODE":0,"TOWNNAME":"南區","LI":"建南里","LIN":"16鄰","STREET":"中華南路","SECT":"二段","MAREA":" ","LANE":"２３３巷","ALLEY":" ","HOUSE_NO":"６２號","E_COORD97":166941.53,"N_COORD97":2539998.2200000002,"ADDRESS":"中華南路二段２３３巷６２號","OBJECTID":397616},"geometry":{"x":166941.53000000026,"y":2539998.2200000007}},{"attributes":{"ID":397641,"DIS_CODE":0,"TOWNNAME":"永康區","LI":"中興里","LIN":"5鄰","STREET":"中華路","SECT":" ","MAREA":" ","LANE":"２１４巷","ALLEY":" ","HOUSE_NO":"６５號","E_COORD97":171877.56,"N_COORD97":2545074.25,"ADDRESS":"中華路２１４巷６５號","OBJECTID":397617},"geometry":{"x":171877.56000000145,"y":2545074.2500000019}},{"attributes":{"ID":397642,"DIS_CODE":0,"TOWNNAME":"永康區","LI":"大灣里","LIN":"18鄰","STREET":"大灣路","SECT":" ","MAREA":" ","LANE":"３５６巷","ALLEY":" ","HOUSE_NO":"３４號","E_COORD97":174789.89000000001,"N_COORD97":2545138.6699999999,"ADDRESS":"大灣路３５６巷３４號","OBJECTID":397618},"geometry":{"x":174789.8900000006,"y":2545138.6700000037}},{"attributes":{"ID":397643,"DIS_CODE":0,"TOWNNAME":"永康區","LI":"中興里","LIN":"18鄰","STREET":"中華路","SECT":" ","MAREA":" ","LANE":"２８６巷","ALLEY":" ","HOUSE_NO":"４２號之１","E_COORD97":171706.76000000001,"N_COORD97":2545288.0499999998,"ADDRESS":"中華路２８６巷４２號之１","OBJECTID":397619},"geometry":{"x":171706.76000000164,"y":2545288.0500000007}},{"attributes":{"ID":397644,"DIS_CODE":0,"TOWNNAME":"永康區","LI":"大橋里","LIN":"14鄰","STREET":"大橋一街","SECT":" ","MAREA":" ","LANE":"７３巷","ALLEY":" ","HOUSE_NO":"３３號","E_COORD97":170863.25,"N_COORD97":2546500.9900000002,"ADDRESS":"大橋一街７３巷３３號","OBJECTID":397620},"geometry":{"x":170863.25000000093,"y":2546500.9900000021}},{"attributes":{"ID":397645,"DIS_CODE":0,"TOWNNAME":"北區","LI":"文成里","LIN":"16鄰","STREET":"文賢路","SECT":" ","MAREA":" ","LANE":"２４２巷","ALLEY":" ","HOUSE_NO":"３１號","E_COORD97":167477.48999999999,"N_COORD97":2545056.3500000001,"ADDRESS":"文賢路２４２巷３１號","OBJECTID":397621},"geometry":{"x":167477.49000000022,"y":2545056.3500000015}},{"attributes":{"ID":397646,"DIS_CODE":0,"TOWNNAME":"北區","LI":"文成里","LIN":"16鄰","STREET":"文賢路","SECT":" ","MAREA":" ","LANE":"２４２巷","ALLEY":" ","HOUSE_NO":"３２號","E_COORD97":167453.07000000001,"N_COORD97":2545022.2799999998,"ADDRESS":"文賢路２４２巷３２號","OBJECTID":397622},"geometry":{"x":167453.0700000003,"y":2545022.2800000012}},{"attributes":{"ID":397647,"DIS_CODE":0,"TOWNNAME":"北區","LI":"文成里","LIN":"16鄰","STREET":"文賢路","SECT":" ","MAREA":" ","LANE":"２４２巷","ALLEY":" ","HOUSE_NO":"３３號","E_COORD97":167481.54000000001,"N_COORD97":2545057.6299999999,"ADDRESS":"文賢路２４２巷３３號","OBJECTID":397623},"geometry":{"x":167481.54000000097,"y":2545057.6300000008}},{"attributes":{"ID":397648,"DIS_CODE":0,"TOWNNAME":"北區","LI":"文成里","LIN":"16鄰","STREET":"文賢路","SECT":" ","MAREA":" ","LANE":"２４２巷","ALLEY":" ","HOUSE_NO":"３４號","E_COORD97":167457.10999999999,"N_COORD97":2545023.6200000001,"ADDRESS":"文賢路２４２巷３４號","OBJECTID":397624},"geometry":{"x":167457.11000000127,"y":2545023.620000001}},{"attributes":{"ID":397649,"DIS_CODE":0,"TOWNNAME":"北區","LI":"文成里","LIN":"16鄰","STREET":"文賢路","SECT":" ","MAREA":" ","LANE":"２４２巷","ALLEY":" ","HOUSE_NO":"３５號","E_COORD97":167486.88,"N_COORD97":2545058.9100000001,"ADDRESS":"文賢路２４２巷３５號","OBJECTID":397625},"geometry":{"x":167486.88000000175,"y":2545058.9099999983}},{"attributes":{"ID":397650,"DIS_CODE":0,"TOWNNAME":"北區","LI":"文成里","LIN":"16鄰","STREET":"文賢路","SECT":" ","MAREA":" ","LANE":"２４２巷","ALLEY":" ","HOUSE_NO":"３６號","E_COORD97":167461.39000000001,"N_COORD97":2545025.4199999999,"ADDRESS":"文賢路２４２巷３６號","OBJECTID":397626},"geometry":{"x":167461.3900000006,"y":2545025.4200000018}},{"attributes":{"ID":397651,"DIS_CODE":0,"TOWNNAME":"北區","LI":"文成里","LIN":"16鄰","STREET":"文賢路","SECT":" ","MAREA":" ","LANE":"２４２巷","ALLEY":" ","HOUSE_NO":"４０號","E_COORD97":167469.92999999999,"N_COORD97":2545028.5600000001,"ADDRESS":"文賢路２４２巷４０號","OBJECTID":397627},"geometry":{"x":167469.93000000063,"y":2545028.5600000024}},{"attributes":{"ID":397652,"DIS_CODE":0,"TOWNNAME":"北區","LI":"文成里","LIN":"16鄰","STREET":"文賢路","SECT":" ","MAREA":" ","LANE":"２４２巷","ALLEY":" ","HOUSE_NO":"４１之２號","E_COORD97":167530.25,"N_COORD97":2545084.4300000002,"ADDRESS":"文賢路２４２巷４１之２號","OBJECTID":397628},"geometry":{"x":167530.25000000186,"y":2545084.4299999997}},{"attributes":{"ID":397653,"DIS_CODE":0,"TOWNNAME":"北區","LI":"文成里","LIN":"16鄰","STREET":"文賢路","SECT":" ","MAREA":" ","LANE":"２４２巷","ALLEY":" ","HOUSE_NO":"４１之３號","E_COORD97":167531.45000000001,"N_COORD97":2545089.21,"ADDRESS":"文賢路２４２巷４１之３號","OBJECTID":397629},"geometry":{"x":167531.45000000112,"y":2545089.2100000028}},{"attributes":{"ID":397654,"DIS_CODE":0,"TOWNNAME":"北區","LI":"文成里","LIN":"16鄰","STREET":"文賢路","SECT":" ","MAREA":" ","LANE":"２４２巷","ALLEY":" ","HOUSE_NO":"４１號","E_COORD97":167516.12,"N_COORD97":2545071.27,"ADDRESS":"文賢路２４２巷４１號","OBJECTID":397630},"geometry":{"x":167516.12000000104,"y":2545071.2699999996}},{"attributes":{"ID":397655,"DIS_CODE":0,"TOWNNAME":"北區","LI":"文成里","LIN":"16鄰","STREET":"文賢路","SECT":" ","MAREA":" ","LANE":"２４２巷","ALLEY":" ","HOUSE_NO":"４２號","E_COORD97":167473.98000000001,"N_COORD97":2545030.5800000001,"ADDRESS":"文賢路２４２巷４２號","OBJECTID":397631},"geometry":{"x":167473.98000000045,"y":2545030.5799999982}},{"attributes":{"ID":397656,"DIS_CODE":0,"TOWNNAME":"永康區","LI":"大橋里","LIN":"16鄰","STREET":"大橋一街","SECT":" ","MAREA":" ","LANE":"１３９巷","ALLEY":" ","HOUSE_NO":"４７號","E_COORD97":170956.92000000001,"N_COORD97":2546613.5,"ADDRESS":"大橋一街１３９巷４７號","OBJECTID":397632},"geometry":{"x":170956.92000000086,"y":2546613.5}},{"attributes":{"ID":397657,"DIS_CODE":0,"TOWNNAME":"北區","LI":"文成里","LIN":"16鄰","STREET":"文賢路","SECT":" ","MAREA":" ","LANE":"２４２巷","ALLEY":" ","HOUSE_NO":"４４號","E_COORD97":167477.57000000001,"N_COORD97":2545032.6000000001,"ADDRESS":"文賢路２４２巷４４號","OBJECTID":397633},"geometry":{"x":167477.57000000123,"y":2545032.5999999996}},{"attributes":{"ID":397658,"DIS_CODE":0,"TOWNNAME":"北區","LI":"文成里","LIN":"16鄰","STREET":"文賢路","SECT":" ","MAREA":" ","LANE":"２４２巷","ALLEY":" ","HOUSE_NO":"４８號","E_COORD97":167486.34,"N_COORD97":2545035.75,"ADDRESS":"文賢路２４２巷４８號","OBJECTID":397634},"geometry":{"x":167486.33999999985,"y":2545035.75}},{"attributes":{"ID":397659,"DIS_CODE":0,"TOWNNAME":"北區","LI":"文成里","LIN":"16鄰","STREET":"文賢路","SECT":" ","MAREA":" ","LANE":"２４２巷","ALLEY":" ","HOUSE_NO":"５０號","E_COORD97":167490.60999999999,"N_COORD97":2545037.77,"ADDRESS":"文賢路２４２巷５０號","OBJECTID":397635},"geometry":{"x":167490.61000000034,"y":2545037.7699999996}},{"attributes":{"ID":397660,"DIS_CODE":0,"TOWNNAME":"北區","LI":"文成里","LIN":"16鄰","STREET":"文賢路","SECT":" ","MAREA":" ","LANE":"２４２巷","ALLEY":" ","HOUSE_NO":"５２號","E_COORD97":167494.66,"N_COORD97":2545039.1200000001,"ADDRESS":"文賢路２４２巷５２號","OBJECTID":397636},"geometry":{"x":167494.66000000015,"y":2545039.1200000029}},{"attributes":{"ID":397661,"DIS_CODE":0,"TOWNNAME":"北區","LI":"文成里","LIN":"16鄰","STREET":"文賢路","SECT":" ","MAREA":" ","LANE":"２４２巷","ALLEY":" ","HOUSE_NO":"５４號","E_COORD97":167498.92999999999,"N_COORD97":2545041.5899999999,"ADDRESS":"文賢路２４２巷５４號","OBJECTID":397637},"geometry":{"x":167498.93000000063,"y":2545041.5900000017}},{"attributes":{"ID":397662,"DIS_CODE":0,"TOWNNAME":"北區","LI":"文成里","LIN":"16鄰","STREET":"文賢路","SECT":" ","MAREA":" ","LANE":"２４２巷","ALLEY":" ","HOUSE_NO":"５６號","E_COORD97":167503.20000000001,"N_COORD97":2545043.1600000001,"ADDRESS":"文賢路２４２巷５６號","OBJECTID":397638},"geometry":{"x":167503.20000000019,"y":2545043.1600000001}},{"attributes":{"ID":397663,"DIS_CODE":0,"TOWNNAME":"北區","LI":"文成里","LIN":"16鄰","STREET":"文賢路","SECT":" ","MAREA":" ","LANE":"２４２巷","ALLEY":" ","HOUSE_NO":"５８號","E_COORD97":167506.57999999999,"N_COORD97":2545044.9500000002,"ADDRESS":"文賢路２４２巷５８號","OBJECTID":397639},"geometry":{"x":167506.58000000101,"y":2545044.9500000011}},{"attributes":{"ID":397664,"DIS_CODE":0,"TOWNNAME":"北區","LI":"文成里","LIN":"16鄰","STREET":"文賢路","SECT":" ","MAREA":" ","LANE":"２４２巷","ALLEY":" ","HOUSE_NO":"６０號","E_COORD97":167511.07000000001,"N_COORD97":2545046.0800000001,"ADDRESS":"文賢路２４２巷６０號","OBJECTID":397640},"geometry":{"x":167511.0700000003,"y":2545046.0800000001}},{"attributes":{"ID":397665,"DIS_CODE":0,"TOWNNAME":"北區","LI":"文成里","LIN":"16鄰","STREET":"文賢路","SECT":" ","MAREA":" ","LANE":"２４２巷","ALLEY":" ","HOUSE_NO":"６２號","E_COORD97":167515.12,"N_COORD97":2545047.6499999999,"ADDRESS":"文賢路２４２巷６２號","OBJECTID":397641},"geometry":{"x":167515.12000000011,"y":2545047.6500000041}},{"attributes":{"ID":397666,"DIS_CODE":0,"TOWNNAME":"北區","LI":"文成里","LIN":"16鄰","STREET":"文賢路","SECT":" ","MAREA":" ","LANE":"２４２巷","ALLEY":" ","HOUSE_NO":"６６號","E_COORD97":167523.44,"N_COORD97":2545051.2400000002,"ADDRESS":"文賢路２４２巷６６號","OBJECTID":397642},"geometry":{"x":167523.44000000041,"y":2545051.2400000021}},{"attributes":{"ID":397667,"DIS_CODE":0,"TOWNNAME":"北區","LI":"文成里","LIN":"16鄰","STREET":"文賢路","SECT":" ","MAREA":" ","LANE":"２４２巷","ALLEY":" ","HOUSE_NO":"６８號","E_COORD97":167528.16,"N_COORD97":2545052.8100000001,"ADDRESS":"文賢路２４２巷６８號","OBJECTID":397643},"geometry":{"x":167528.16000000108,"y":2545052.8100000005}},{"attributes":{"ID":397668,"DIS_CODE":0,"TOWNNAME":"北區","LI":"文元里","LIN":"16鄰","STREET":"文賢路","SECT":" ","MAREA":" ","LANE":"１０８０巷","ALLEY":" ","HOUSE_NO":"３２號","E_COORD97":167497.31,"N_COORD97":2546212.77,"ADDRESS":"文賢路１０８０巷３２號","OBJECTID":397644},"geometry":{"x":167497.31000000052,"y":2546212.7700000014}},{"attributes":{"ID":397669,"DIS_CODE":0,"TOWNNAME":"南區","LI":"明興里","LIN":"16鄰","STREET":"德興路","SECT":" ","MAREA":" ","LANE":"１６４巷","ALLEY":" ","HOUSE_NO":"１７號","E_COORD97":167137.48999999999,"N_COORD97":2540341.1400000001,"ADDRESS":"德興路１６４巷１７號","OBJECTID":397645},"geometry":{"x":167137.49000000115,"y":2540341.1400000006}},{"attributes":{"ID":397670,"DIS_CODE":0,"TOWNNAME":"南區","LI":"明興里","LIN":"16鄰","STREET":"德興路","SECT":" ","MAREA":" ","LANE":"１６４巷","ALLEY":" ","HOUSE_NO":"１９號","E_COORD97":167132.95000000001,"N_COORD97":2540340.1499999999,"ADDRESS":"德興路１６４巷１９號","OBJECTID":397646},"geometry":{"x":167132.95000000112,"y":2540340.1500000004}},{"attributes":{"ID":397671,"DIS_CODE":0,"TOWNNAME":"南區","LI":"明興里","LIN":"16鄰","STREET":"德興路","SECT":" ","MAREA":" ","LANE":"１６４巷","ALLEY":" ","HOUSE_NO":"１號","E_COORD97":167169.04000000001,"N_COORD97":2540346.6600000001,"ADDRESS":"德興路１６４巷１號","OBJECTID":397647},"geometry":{"x":167169.04000000097,"y":2540346.6600000001}},{"attributes":{"ID":397672,"DIS_CODE":0,"TOWNNAME":"南區","LI":"明興里","LIN":"16鄰","STREET":"德興路","SECT":" ","MAREA":" ","LANE":"１６４巷","ALLEY":" ","HOUSE_NO":"２１號","E_COORD97":167129.23000000001,"N_COORD97":2540339.2400000002,"ADDRESS":"德興路１６４巷２１號","OBJECTID":397648},"geometry":{"x":167129.23000000138,"y":2540339.2400000002}},{"attributes":{"ID":397673,"DIS_CODE":0,"TOWNNAME":"南區","LI":"明興里","LIN":"16鄰","STREET":"德興路","SECT":" ","MAREA":" ","LANE":"１６４巷","ALLEY":" ","HOUSE_NO":"２３號","E_COORD97":167124.76999999999,"N_COORD97":2540338.5800000001,"ADDRESS":"德興路１６４巷２３號","OBJECTID":397649},"geometry":{"x":167124.77000000048,"y":2540338.5800000038}},{"attributes":{"ID":397674,"DIS_CODE":0,"TOWNNAME":"南區","LI":"明興里","LIN":"16鄰","STREET":"德興路","SECT":" ","MAREA":" ","LANE":"１６４巷","ALLEY":" ","HOUSE_NO":"２３號之１","E_COORD97":167120.79999999999,"N_COORD97":2540337.8399999999,"ADDRESS":"德興路１６４巷２３號之１","OBJECTID":397650},"geometry":{"x":167120.79999999981,"y":2540337.8400000017}},{"attributes":{"ID":397675,"DIS_CODE":0,"TOWNNAME":"南區","LI":"明興里","LIN":"16鄰","STREET":"德興路","SECT":" ","MAREA":" ","LANE":"１６４巷","ALLEY":" ","HOUSE_NO":"２９號","E_COORD97":167105.94,"N_COORD97":2540334.8599999999,"ADDRESS":"德興路１６４巷２９號","OBJECTID":397651},"geometry":{"x":167105.94000000134,"y":2540334.8599999994}},{"attributes":{"ID":397676,"DIS_CODE":0,"TOWNNAME":"南區","LI":"明興里","LIN":"16鄰","STREET":"德興路","SECT":" ","MAREA":" ","LANE":"１６４巷","ALLEY":" ","HOUSE_NO":"３１號","E_COORD97":167100.98000000001,"N_COORD97":2540334.2000000002,"ADDRESS":"德興路１６４巷３１號","OBJECTID":397652},"geometry":{"x":167100.98000000138,"y":2540334.2000000011}},{"attributes":{"ID":397677,"DIS_CODE":0,"TOWNNAME":"南區","LI":"明興里","LIN":"16鄰","STREET":"德興路","SECT":" ","MAREA":" ","LANE":"１６４巷","ALLEY":" ","HOUSE_NO":"３３號","E_COORD97":167097.51000000001,"N_COORD97":2540332.6400000001,"ADDRESS":"德興路１６４巷３３號","OBJECTID":397653},"geometry":{"x":167097.51000000164,"y":2540332.6400000025}},{"attributes":{"ID":397678,"DIS_CODE":0,"TOWNNAME":"南區","LI":"明興里","LIN":"16鄰","STREET":"德興路","SECT":" ","MAREA":" ","LANE":"１６４巷","ALLEY":" ","HOUSE_NO":"３７號","E_COORD97":167080.57999999999,"N_COORD97":2540323.1000000001,"ADDRESS":"德興路１６４巷３７號","OBJECTID":397654},"geometry":{"x":167080.58000000194,"y":2540323.0999999996}},{"attributes":{"ID":397679,"DIS_CODE":0,"TOWNNAME":"永康區","LI":"大橋里","LIN":"18鄰","STREET":"大橋二街","SECT":" ","MAREA":" ","LANE":"１４８巷","ALLEY":" ","HOUSE_NO":"１０號","E_COORD97":171047.42000000001,"N_COORD97":2546678.6600000001,"ADDRESS":"大橋二街１４８巷１０號","OBJECTID":397655},"geometry":{"x":171047.41999999993,"y":2546678.660000002}},{"attributes":{"ID":397680,"DIS_CODE":0,"TOWNNAME":"永康區","LI":"大灣里","LIN":"13鄰","STREET":"大灣路","SECT":" ","MAREA":" ","LANE":"２１８巷","ALLEY":" ","HOUSE_NO":"３號","E_COORD97":174993.29000000001,"N_COORD97":2545418.1299999999,"ADDRESS":"大灣路２１８巷３號","OBJECTID":397656},"geometry":{"x":174993.29000000004,"y":2545418.129999999}},{"attributes":{"ID":397681,"DIS_CODE":0,"TOWNNAME":"永康區","LI":"大灣里","LIN":"31鄰","STREET":"文賢街","SECT":" ","MAREA":" ","LANE":"６８巷","ALLEY":" ","HOUSE_NO":"２２號","E_COORD97":175379.13,"N_COORD97":2545088.0800000001,"ADDRESS":"文賢街６８巷２２號","OBJECTID":397657},"geometry":{"x":175379.12999999989,"y":2545088.0800000001}},{"attributes":{"ID":397682,"DIS_CODE":0,"TOWNNAME":"南區","LI":"明興里","LIN":"16鄰","STREET":"德興路","SECT":" ","MAREA":" ","LANE":"１６４巷","ALLEY":" ","HOUSE_NO":"５號","E_COORD97":167156.48999999999,"N_COORD97":2540344.7599999998,"ADDRESS":"德興路１６４巷５號","OBJECTID":397658},"geometry":{"x":167156.49000000115,"y":2540344.7600000016}},{"attributes":{"ID":397683,"DIS_CODE":0,"TOWNNAME":"南區","LI":"明興里","LIN":"16鄰","STREET":"德興路","SECT":" ","MAREA":" ","LANE":"１６４巷","ALLEY":" ","HOUSE_NO":"７號","E_COORD97":167152.26999999999,"N_COORD97":2540343.8599999999,"ADDRESS":"德興路１６４巷７號","OBJECTID":397659},"geometry":{"x":167152.27000000048,"y":2540343.8600000013}},{"attributes":{"ID":397684,"DIS_CODE":0,"TOWNNAME":"南區","LI":"建南里","LIN":"16鄰","STREET":"中華南路","SECT":"二段","MAREA":" ","LANE":"２３３巷","ALLEY":" ","HOUSE_NO":"１４２號之１","E_COORD97":167025.29000000001,"N_COORD97":2539804.3700000001,"ADDRESS":"中華南路二段２３３巷１４２號之１","OBJECTID":397660},"geometry":{"x":167025.29000000097,"y":2539804.370000001}},{"attributes":{"ID":397685,"DIS_CODE":0,"TOWNNAME":"北區","LI":"文元里","LIN":"16鄰","STREET":"文賢路","SECT":" ","MAREA":" ","LANE":"１０８０巷","ALLEY":" ","HOUSE_NO":"４２號之１","E_COORD97":167539.35000000001,"N_COORD97":2546218.1000000001,"ADDRESS":"文賢路１０８０巷４２號之１","OBJECTID":397661},"geometry":{"x":167539.35000000149,"y":2546218.1000000015}},{"attributes":{"ID":397686,"DIS_CODE":0,"TOWNNAME":"北區","LI":"大豐里","LIN":"16鄰","STREET":"和緯路","SECT":"四段","MAREA":" ","LANE":"１９７巷","ALLEY":" ","HOUSE_NO":"１１號","E_COORD97":166907.98000000001,"N_COORD97":2545350.8500000001,"ADDRESS":"和緯路四段１９７巷１１號","OBJECTID":397662},"geometry":{"x":166907.98000000045,"y":2545350.8500000015}},{"attributes":{"ID":397687,"DIS_CODE":0,"TOWNNAME":"北區","LI":"大豐里","LIN":"16鄰","STREET":"和緯路","SECT":"四段","MAREA":" ","LANE":"１９７巷","ALLEY":" ","HOUSE_NO":"１３號","E_COORD97":166907.62,"N_COORD97":2545347.1499999999,"ADDRESS":"和緯路四段１９７巷１３號","OBJECTID":397663},"geometry":{"x":166907.62000000104,"y":2545347.1500000022}},{"attributes":{"ID":397688,"DIS_CODE":0,"TOWNNAME":"北區","LI":"大豐里","LIN":"16鄰","STREET":"和緯路","SECT":"四段","MAREA":" ","LANE":"１９７巷","ALLEY":" ","HOUSE_NO":"１５號","E_COORD97":166906.76999999999,"N_COORD97":2545343.3199999998,"ADDRESS":"和緯路四段１９７巷１５號","OBJECTID":397664},"geometry":{"x":166906.76999999955,"y":2545343.3200000003}},{"attributes":{"ID":397689,"DIS_CODE":0,"TOWNNAME":"永康區","LI":"三合里","LIN":"4鄰","STREET":"中華二路","SECT":" ","MAREA":" ","LANE":"８８巷","ALLEY":" ","HOUSE_NO":"５號","E_COORD97":172073.67000000001,"N_COORD97":2545470.7999999998,"ADDRESS":"中華二路８８巷５號","OBJECTID":397665},"geometry":{"x":172073.67000000179,"y":2545470.8000000045}},{"attributes":{"ID":397690,"DIS_CODE":0,"TOWNNAME":"永康區","LI":"大橋里","LIN":"13鄰","STREET":"大橋一街","SECT":" ","MAREA":" ","LANE":"２４７巷","ALLEY":" ","HOUSE_NO":"９１號","E_COORD97":171127.60000000001,"N_COORD97":2546854.1499999999,"ADDRESS":"大橋一街２４７巷９１號","OBJECTID":397666},"geometry":{"x":171127.59999999963,"y":2546854.1500000004}},{"attributes":{"ID":397691,"DIS_CODE":0,"TOWNNAME":"永康區","LI":"三民里","LIN":"1鄰","STREET":"三民街","SECT":" ","MAREA":" ","LANE":"７９巷","ALLEY":" ","HOUSE_NO":"１５號","E_COORD97":172817.89000000001,"N_COORD97":2550240.2000000002,"ADDRESS":"三民街７９巷１５號","OBJECTID":397667},"geometry":{"x":172817.89000000153,"y":2550240.200000003}},{"attributes":{"ID":397692,"DIS_CODE":0,"TOWNNAME":"北區","LI":"大豐里","LIN":"16鄰","STREET":"和緯路","SECT":"四段","MAREA":" ","LANE":"１９７巷","ALLEY":" ","HOUSE_NO":"１８號","E_COORD97":166881.35999999999,"N_COORD97":2545358.6099999999,"ADDRESS":"和緯路四段１９７巷１８號","OBJECTID":397668},"geometry":{"x":166881.36000000034,"y":2545358.6100000031}},{"attributes":{"ID":397693,"DIS_CODE":0,"TOWNNAME":"北區","LI":"大豐里","LIN":"16鄰","STREET":"和緯路","SECT":"四段","MAREA":" ","LANE":"１９７巷","ALLEY":" ","HOUSE_NO":"１９號","E_COORD97":166905.70999999999,"N_COORD97":2545335.4100000001,"ADDRESS":"和緯路四段１９７巷１９號","OBJECTID":397669},"geometry":{"x":166905.70999999996,"y":2545335.4100000001}},{"attributes":{"ID":397694,"DIS_CODE":0,"TOWNNAME":"北區","LI":"大豐里","LIN":"16鄰","STREET":"和緯路","SECT":"四段","MAREA":" ","LANE":"１９７巷","ALLEY":" ","HOUSE_NO":"１號","E_COORD97":166907.82999999999,"N_COORD97":2545372.3999999999,"ADDRESS":"和緯路四段１９７巷１號","OBJECTID":397670},"geometry":{"x":166907.83000000101,"y":2545372.4000000022}},{"attributes":{"ID":397695,"DIS_CODE":0,"TOWNNAME":"北區","LI":"大豐里","LIN":"16鄰","STREET":"和緯路","SECT":"四段","MAREA":" ","LANE":"１９７巷","ALLEY":" ","HOUSE_NO":"２０號","E_COORD97":166881,"N_COORD97":2545354.9199999999,"ADDRESS":"和緯路四段１９７巷２０號","OBJECTID":397671},"geometry":{"x":166881.00000000186,"y":2545354.9200000018}},{"attributes":{"ID":397696,"DIS_CODE":0,"TOWNNAME":"北區","LI":"正覺里","LIN":"11鄰","STREET":"正覺街","SECT":" ","MAREA":" ","LANE":"７７巷","ALLEY":" ","HOUSE_NO":"９號","E_COORD97":169272.82999999999,"N_COORD97":2546388.54,"ADDRESS":"正覺街７７巷９號","OBJECTID":397672},"geometry":{"x":169272.83000000101,"y":2546388.5399999991}},{"attributes":{"ID":397697,"DIS_CODE":0,"TOWNNAME":"北區","LI":"大豐里","LIN":"16鄰","STREET":"和緯路","SECT":"四段","MAREA":" ","LANE":"１９７巷","ALLEY":" ","HOUSE_NO":"２１號","E_COORD97":166903.72,"N_COORD97":2545330.79,"ADDRESS":"和緯路四段１９７巷２１號","OBJECTID":397673},"geometry":{"x":166903.71999999974,"y":2545330.790000001}},{"attributes":{"ID":397698,"DIS_CODE":0,"TOWNNAME":"北區","LI":"大豐里","LIN":"16鄰","STREET":"和緯路","SECT":"四段","MAREA":" ","LANE":"１９７巷","ALLEY":" ","HOUSE_NO":"２２號","E_COORD97":166880.42999999999,"N_COORD97":2545350.7000000002,"ADDRESS":"和緯路四段１９７巷２２號","OBJECTID":397674},"geometry":{"x":166880.4299999997,"y":2545350.6999999993}},{"attributes":{"ID":397699,"DIS_CODE":0,"TOWNNAME":"北區","LI":"大豐里","LIN":"16鄰","STREET":"和緯路","SECT":"四段","MAREA":" ","LANE":"１９７巷","ALLEY":" ","HOUSE_NO":"２４號","E_COORD97":166879.72,"N_COORD97":2545347,"ADDRESS":"和緯路四段１９７巷２４號","OBJECTID":397675},"geometry":{"x":166879.72000000067,"y":2545347.0000000019}},{"attributes":{"ID":397700,"DIS_CODE":0,"TOWNNAME":"北區","LI":"大豐里","LIN":"16鄰","STREET":"和緯路","SECT":"四段","MAREA":" ","LANE":"１９７巷","ALLEY":" ","HOUSE_NO":"９號","E_COORD97":166908.54000000001,"N_COORD97":2545354.75,"ADDRESS":"和緯路四段１９７巷９號","OBJECTID":397676},"geometry":{"x":166908.54000000097,"y":2545354.7499999981}},{"attributes":{"ID":397701,"DIS_CODE":0,"TOWNNAME":"北區","LI":"大豐里","LIN":"16鄰","STREET":"和緯路","SECT":"四段","MAREA":" ","LANE":"２０５巷","ALLEY":" ","HOUSE_NO":"１０號","E_COORD97":166857.59,"N_COORD97":2545345.1000000001,"ADDRESS":"和緯路四段２０５巷１０號","OBJECTID":397677},"geometry":{"x":166857.58999999985,"y":2545345.0999999996}},{"attributes":{"ID":397702,"DIS_CODE":0,"TOWNNAME":"北區","LI":"大豐里","LIN":"16鄰","STREET":"和緯路","SECT":"四段","MAREA":" ","LANE":"２０５巷","ALLEY":" ","HOUSE_NO":"１２號","E_COORD97":166857.66,"N_COORD97":2545340.6899999999,"ADDRESS":"和緯路四段２０５巷１２號","OBJECTID":397678},"geometry":{"x":166857.66000000015,"y":2545340.6899999995}},{"attributes":{"ID":397703,"DIS_CODE":0,"TOWNNAME":"北區","LI":"大豐里","LIN":"16鄰","STREET":"和緯路","SECT":"四段","MAREA":" ","LANE":"２０５巷","ALLEY":" ","HOUSE_NO":"４號","E_COORD97":166857.16,"N_COORD97":2545356.8900000001,"ADDRESS":"和緯路四段２０５巷４號","OBJECTID":397679},"geometry":{"x":166857.16000000015,"y":2545356.8900000006}},{"attributes":{"ID":397704,"DIS_CODE":0,"TOWNNAME":"北區","LI":"大豐里","LIN":"16鄰","STREET":"和緯路","SECT":"四段","MAREA":" ","LANE":"２０５巷","ALLEY":" ","HOUSE_NO":"６號","E_COORD97":166857.09,"N_COORD97":2545353.1299999999,"ADDRESS":"和緯路四段２０５巷６號","OBJECTID":397680},"geometry":{"x":166857.09000000078,"y":2545353.129999999}},{"attributes":{"ID":397705,"DIS_CODE":0,"TOWNNAME":"北區","LI":"大豐里","LIN":"16鄰","STREET":"和緯路","SECT":"四段","MAREA":" ","LANE":"２０５巷","ALLEY":" ","HOUSE_NO":"８號","E_COORD97":166857.38,"N_COORD97":2545348.8599999999,"ADDRESS":"和緯路四段２０５巷８號","OBJECTID":397681},"geometry":{"x":166857.37999999989,"y":2545348.8599999994}},{"attributes":{"ID":397706,"DIS_CODE":0,"TOWNNAME":"東區","LI":"富強里","LIN":"16鄰","STREET":"裕農路","SECT":" ","MAREA":" ","LANE":"２８８巷","ALLEY":" ","HOUSE_NO":"９０號四樓","E_COORD97":170954.98000000001,"N_COORD97":2542930.96,"ADDRESS":"裕農路２８８巷９０號四樓","OBJECTID":397682},"geometry":{"x":170954.98000000231,"y":2542930.9600000028}},{"attributes":{"ID":397707,"DIS_CODE":0,"TOWNNAME":"永康區","LI":"二王里","LIN":"43鄰","STREET":"中山南路","SECT":" ","MAREA":" ","LANE":"３１６巷","ALLEY":" ","HOUSE_NO":"４６號","E_COORD97":172083.32000000001,"N_COORD97":2546124.29,"ADDRESS":"中山南路３１６巷４６號","OBJECTID":397683},"geometry":{"x":172083.32000000216,"y":2546124.290000001}},{"attributes":{"ID":397708,"DIS_CODE":0,"TOWNNAME":"永康區","LI":"大橋里","LIN":"14鄰","STREET":"大橋一街","SECT":" ","MAREA":" ","LANE":"７３巷","ALLEY":" ","HOUSE_NO":"４１號","E_COORD97":170838.07000000001,"N_COORD97":2546505.7400000002,"ADDRESS":"大橋一街７３巷４１號","OBJECTID":397684},"geometry":{"x":170838.07000000123,"y":2546505.7400000021}},{"attributes":{"ID":397709,"DIS_CODE":0,"TOWNNAME":"永康區","LI":"大橋里","LIN":"7鄰","STREET":"大橋三街","SECT":" ","MAREA":" ","LANE":"１９９巷","ALLEY":" ","HOUSE_NO":"１１３號","E_COORD97":171003.91,"N_COORD97":2546937.0800000001,"ADDRESS":"大橋三街１９９巷１１３號","OBJECTID":397685},"geometry":{"x":171003.91000000015,"y":2546937.0800000019}},{"attributes":{"ID":397710,"DIS_CODE":0,"TOWNNAME":"永康區","LI":"二王里","LIN":"10鄰","STREET":"永二街","SECT":" ","MAREA":" ","LANE":"３１９巷","ALLEY":" ","HOUSE_NO":"８號","E_COORD97":173087.07999999999,"N_COORD97":2546431.8799999999,"ADDRESS":"永二街３１９巷８號","OBJECTID":397686},"geometry":{"x":173087.08000000101,"y":2546431.8800000008}},{"attributes":{"ID":397711,"DIS_CODE":0,"TOWNNAME":"東區","LI":"富強里","LIN":"16鄰","STREET":"裕農路","SECT":" ","MAREA":" ","LANE":"２８８巷","ALLEY":" ","HOUSE_NO":"８８號三樓","E_COORD97":170948.70999999999,"N_COORD97":2542930.6699999999,"ADDRESS":"裕農路２８８巷８８號三樓","OBJECTID":397687},"geometry":{"x":170948.71000000089,"y":2542930.6699999999}},{"attributes":{"ID":397712,"DIS_CODE":0,"TOWNNAME":"中西區","LI":"開山里","LIN":"16鄰","STREET":"大同路","SECT":"一段","MAREA":" ","LANE":"７０巷","ALLEY":" ","HOUSE_NO":"１０號三樓","E_COORD97":169086.73000000001,"N_COORD97":2543057.7200000002,"ADDRESS":"大同路一段７０巷１０號三樓","OBJECTID":397688},"geometry":{"x":169086.73000000045,"y":2543057.7200000025}},{"attributes":{"ID":397713,"DIS_CODE":0,"TOWNNAME":"中西區","LI":"開山里","LIN":"16鄰","STREET":"大同路","SECT":"一段","MAREA":" ","LANE":"７０巷","ALLEY":" ","HOUSE_NO":"１０號五樓","E_COORD97":169086.73000000001,"N_COORD97":2543057.7200000002,"ADDRESS":"大同路一段７０巷１０號五樓","OBJECTID":397689},"geometry":{"x":169086.73000000045,"y":2543057.7200000025}},{"attributes":{"ID":397714,"DIS_CODE":0,"TOWNNAME":"中西區","LI":"開山里","LIN":"16鄰","STREET":"大同路","SECT":"一段","MAREA":" ","LANE":"７０巷","ALLEY":" ","HOUSE_NO":"１０號四樓","E_COORD97":169086.73000000001,"N_COORD97":2543057.7200000002,"ADDRESS":"大同路一段７０巷１０號四樓","OBJECTID":397690},"geometry":{"x":169086.73000000045,"y":2543057.7200000025}},{"attributes":{"ID":397715,"DIS_CODE":0,"TOWNNAME":"永康區","LI":"三合里","LIN":"7鄰","STREET":"南工街","SECT":" ","MAREA":" ","LANE":"７１巷","ALLEY":" ","HOUSE_NO":"４號","E_COORD97":172073.23000000001,"N_COORD97":2545658.4900000002,"ADDRESS":"南工街７１巷４號","OBJECTID":397691},"geometry":{"x":172073.23000000045,"y":2545658.4899999984}},{"attributes":{"ID":397716,"DIS_CODE":0,"TOWNNAME":"永康區","LI":"大灣里","LIN":"10鄰","STREET":"大灣路","SECT":" ","MAREA":" ","LANE":"２１８巷","ALLEY":" ","HOUSE_NO":"８號","E_COORD97":174986.64000000001,"N_COORD97":2545496.5299999998,"ADDRESS":"大灣路２１８巷８號","OBJECTID":397692},"geometry":{"x":174986.6400000006,"y":2545496.5299999993}},{"attributes":{"ID":397717,"DIS_CODE":0,"TOWNNAME":"東區","LI":"東聖里","LIN":"16鄰","STREET":"中華東路","SECT":"二段","MAREA":" ","LANE":"７３巷","ALLEY":" ","HOUSE_NO":"２號之１三樓","E_COORD97":171458.04000000001,"N_COORD97":2542978.1200000001,"ADDRESS":"中華東路二段７３巷２號之１三樓","OBJECTID":397693},"geometry":{"x":171458.04000000097,"y":2542978.1200000029}},{"attributes":{"ID":397718,"DIS_CODE":0,"TOWNNAME":"東區","LI":"東聖里","LIN":"16鄰","STREET":"中華東路","SECT":"二段","MAREA":" ","LANE":"７３巷","ALLEY":" ","HOUSE_NO":"２號之１四樓","E_COORD97":171458.04000000001,"N_COORD97":2542978.1200000001,"ADDRESS":"中華東路二段７３巷２號之１四樓","OBJECTID":397694},"geometry":{"x":171458.04000000097,"y":2542978.1200000029}},{"attributes":{"ID":397719,"DIS_CODE":0,"TOWNNAME":"東區","LI":"東聖里","LIN":"16鄰","STREET":"中華東路","SECT":"二段","MAREA":" ","LANE":"７３巷","ALLEY":" ","HOUSE_NO":"２號之１五樓","E_COORD97":171458.04000000001,"N_COORD97":2542978.1200000001,"ADDRESS":"中華東路二段７３巷２號之１五樓","OBJECTID":397695},"geometry":{"x":171458.04000000097,"y":2542978.1200000029}},{"attributes":{"ID":397720,"DIS_CODE":0,"TOWNNAME":"東區","LI":"東聖里","LIN":"16鄰","STREET":"中華東路","SECT":"二段","MAREA":" ","LANE":"７３巷","ALLEY":" ","HOUSE_NO":"２號之１六樓","E_COORD97":171458.04000000001,"N_COORD97":2542978.1200000001,"ADDRESS":"中華東路二段７３巷２號之１六樓","OBJECTID":397696},"geometry":{"x":171458.04000000097,"y":2542978.1200000029}},{"attributes":{"ID":397721,"DIS_CODE":0,"TOWNNAME":"東區","LI":"東聖里","LIN":"16鄰","STREET":"中華東路","SECT":"二段","MAREA":" ","LANE":"７３巷","ALLEY":" ","HOUSE_NO":"２號之１七樓","E_COORD97":171458.04000000001,"N_COORD97":2542978.1200000001,"ADDRESS":"中華東路二段７３巷２號之１七樓","OBJECTID":397697},"geometry":{"x":171458.04000000097,"y":2542978.1200000029}},{"attributes":{"ID":397722,"DIS_CODE":0,"TOWNNAME":"東區","LI":"東聖里","LIN":"16鄰","STREET":"中華東路","SECT":"二段","MAREA":" ","LANE":"７３巷","ALLEY":" ","HOUSE_NO":"２號之１八樓","E_COORD97":171458.04000000001,"N_COORD97":2542978.1200000001,"ADDRESS":"中華東路二段７３巷２號之１八樓","OBJECTID":397698},"geometry":{"x":171458.04000000097,"y":2542978.1200000029}},{"attributes":{"ID":397723,"DIS_CODE":0,"TOWNNAME":"東區","LI":"東聖里","LIN":"16鄰","STREET":"中華東路","SECT":"二段","MAREA":" ","LANE":"７３巷","ALLEY":" ","HOUSE_NO":"２號之１九樓","E_COORD97":171458.04000000001,"N_COORD97":2542978.1200000001,"ADDRESS":"中華東路二段７３巷２號之１九樓","OBJECTID":397699},"geometry":{"x":171458.04000000097,"y":2542978.1200000029}},{"attributes":{"ID":397724,"DIS_CODE":0,"TOWNNAME":"東區","LI":"東聖里","LIN":"16鄰","STREET":"中華東路","SECT":"二段","MAREA":" ","LANE":"７３巷","ALLEY":" ","HOUSE_NO":"２號之１十樓","E_COORD97":171458.04000000001,"N_COORD97":2542978.1200000001,"ADDRESS":"中華東路二段７３巷２號之１十樓","OBJECTID":397700},"geometry":{"x":171458.04000000097,"y":2542978.1200000029}},{"attributes":{"ID":397725,"DIS_CODE":0,"TOWNNAME":"東區","LI":"東聖里","LIN":"16鄰","STREET":"中華東路","SECT":"二段","MAREA":" ","LANE":"７３巷","ALLEY":" ","HOUSE_NO":"２號之１十一樓","E_COORD97":171458.04000000001,"N_COORD97":2542978.1200000001,"ADDRESS":"中華東路二段７３巷２號之１十一樓","OBJECTID":397701},"geometry":{"x":171458.04000000097,"y":2542978.1200000029}},{"attributes":{"ID":397726,"DIS_CODE":0,"TOWNNAME":"東區","LI":"東聖里","LIN":"16鄰","STREET":"中華東路","SECT":"二段","MAREA":" ","LANE":"７３巷","ALLEY":" ","HOUSE_NO":"２號三樓","E_COORD97":171454.13,"N_COORD97":2542990.02,"ADDRESS":"中華東路二段７３巷２號三樓","OBJECTID":397702},"geometry":{"x":171454.13000000082,"y":2542990.0200000014}},{"attributes":{"ID":397727,"DIS_CODE":0,"TOWNNAME":"東區","LI":"東聖里","LIN":"16鄰","STREET":"中華東路","SECT":"二段","MAREA":" ","LANE":"７３巷","ALLEY":" ","HOUSE_NO":"２號四樓","E_COORD97":171454.13,"N_COORD97":2542990.02,"ADDRESS":"中華東路二段７３巷２號四樓","OBJECTID":397703},"geometry":{"x":171454.13000000082,"y":2542990.0200000014}},{"attributes":{"ID":397728,"DIS_CODE":0,"TOWNNAME":"東區","LI":"東聖里","LIN":"16鄰","STREET":"中華東路","SECT":"二段","MAREA":" ","LANE":"７３巷","ALLEY":" ","HOUSE_NO":"２號五樓","E_COORD97":171454.13,"N_COORD97":2542990.02,"ADDRESS":"中華東路二段７３巷２號五樓","OBJECTID":397704},"geometry":{"x":171454.13000000082,"y":2542990.0200000014}},{"attributes":{"ID":397729,"DIS_CODE":0,"TOWNNAME":"東區","LI":"東聖里","LIN":"16鄰","STREET":"中華東路","SECT":"二段","MAREA":" ","LANE":"７３巷","ALLEY":" ","HOUSE_NO":"２號六樓","E_COORD97":171454.13,"N_COORD97":2542990.02,"ADDRESS":"中華東路二段７３巷２號六樓","OBJECTID":397705},"geometry":{"x":171454.13000000082,"y":2542990.0200000014}},{"attributes":{"ID":397730,"DIS_CODE":0,"TOWNNAME":"東區","LI":"東聖里","LIN":"16鄰","STREET":"中華東路","SECT":"二段","MAREA":" ","LANE":"７３巷","ALLEY":" ","HOUSE_NO":"２號九樓","E_COORD97":171454.13,"N_COORD97":2542990.02,"ADDRESS":"中華東路二段７３巷２號九樓","OBJECTID":397706},"geometry":{"x":171454.13000000082,"y":2542990.0200000014}},{"attributes":{"ID":397731,"DIS_CODE":0,"TOWNNAME":"東區","LI":"東聖里","LIN":"16鄰","STREET":"中華東路","SECT":"二段","MAREA":" ","LANE":"７３巷","ALLEY":" ","HOUSE_NO":"２號十樓","E_COORD97":171454.13,"N_COORD97":2542990.02,"ADDRESS":"中華東路二段７３巷２號十樓","OBJECTID":397707},"geometry":{"x":171454.13000000082,"y":2542990.0200000014}},{"attributes":{"ID":397732,"DIS_CODE":0,"TOWNNAME":"東區","LI":"東聖里","LIN":"16鄰","STREET":"中華東路","SECT":"二段","MAREA":" ","LANE":"７３巷","ALLEY":" ","HOUSE_NO":"２號十一樓","E_COORD97":171454.13,"N_COORD97":2542990.02,"ADDRESS":"中華東路二段７３巷２號十一樓","OBJECTID":397708},"geometry":{"x":171454.13000000082,"y":2542990.0200000014}},{"attributes":{"ID":397733,"DIS_CODE":0,"TOWNNAME":"東區","LI":"東聖里","LIN":"16鄰","STREET":"中華東路","SECT":"二段","MAREA":" ","LANE":"７３巷","ALLEY":" ","HOUSE_NO":"６號三樓","E_COORD97":171471.89000000001,"N_COORD97":2542985.8399999999,"ADDRESS":"中華東路二段７３巷６號三樓","OBJECTID":397709},"geometry":{"x":171471.89000000153,"y":2542985.8400000017}},{"attributes":{"ID":397734,"DIS_CODE":0,"TOWNNAME":"東區","LI":"東聖里","LIN":"16鄰","STREET":"中華東路","SECT":"二段","MAREA":" ","LANE":"７３巷","ALLEY":" ","HOUSE_NO":"６號四樓","E_COORD97":171471.89000000001,"N_COORD97":2542985.8399999999,"ADDRESS":"中華東路二段７３巷６號四樓","OBJECTID":397710},"geometry":{"x":171471.89000000153,"y":2542985.8400000017}},{"attributes":{"ID":397735,"DIS_CODE":0,"TOWNNAME":"善化區","LI":"光文里","LIN":"9鄰","STREET":"民生路","SECT":" ","MAREA":" ","LANE":"３６巷","ALLEY":" ","HOUSE_NO":"９號","E_COORD97":178800.59,"N_COORD97":2559058.6200000001,"ADDRESS":"民生路３６巷９號","OBJECTID":397711},"geometry":{"x":178800.58999999892,"y":2559058.6200000029}},{"attributes":{"ID":397736,"DIS_CODE":0,"TOWNNAME":"東區","LI":"東聖里","LIN":"16鄰","STREET":"中華東路","SECT":"二段","MAREA":" ","LANE":"７３巷","ALLEY":" ","HOUSE_NO":"６號五樓","E_COORD97":171471.89000000001,"N_COORD97":2542985.8399999999,"ADDRESS":"中華東路二段７３巷６號五樓","OBJECTID":397712},"geometry":{"x":171471.89000000153,"y":2542985.8400000017}},{"attributes":{"ID":397737,"DIS_CODE":0,"TOWNNAME":"東區","LI":"東聖里","LIN":"16鄰","STREET":"中華東路","SECT":"二段","MAREA":" ","LANE":"７３巷","ALLEY":" ","HOUSE_NO":"６號六樓","E_COORD97":171471.89000000001,"N_COORD97":2542985.8399999999,"ADDRESS":"中華東路二段７３巷６號六樓","OBJECTID":397713},"geometry":{"x":171471.89000000153,"y":2542985.8400000017}},{"attributes":{"ID":397738,"DIS_CODE":0,"TOWNNAME":"東區","LI":"東聖里","LIN":"16鄰","STREET":"中華東路","SECT":"二段","MAREA":" ","LANE":"７３巷","ALLEY":" ","HOUSE_NO":"６號七樓","E_COORD97":171471.89000000001,"N_COORD97":2542985.8399999999,"ADDRESS":"中華東路二段７３巷６號七樓","OBJECTID":397714},"geometry":{"x":171471.89000000153,"y":2542985.8400000017}},{"attributes":{"ID":397739,"DIS_CODE":0,"TOWNNAME":"東區","LI":"東聖里","LIN":"16鄰","STREET":"中華東路","SECT":"二段","MAREA":" ","LANE":"７３巷","ALLEY":" ","HOUSE_NO":"６號八樓","E_COORD97":171471.89000000001,"N_COORD97":2542985.8399999999,"ADDRESS":"中華東路二段７３巷６號八樓","OBJECTID":397715},"geometry":{"x":171471.89000000153,"y":2542985.8400000017}},{"attributes":{"ID":397740,"DIS_CODE":0,"TOWNNAME":"東區","LI":"東聖里","LIN":"16鄰","STREET":"中華東路","SECT":"二段","MAREA":" ","LANE":"７３巷","ALLEY":" ","HOUSE_NO":"６號九樓","E_COORD97":171471.89000000001,"N_COORD97":2542985.8399999999,"ADDRESS":"中華東路二段７３巷６號九樓","OBJECTID":397716},"geometry":{"x":171471.89000000153,"y":2542985.8400000017}},{"attributes":{"ID":397741,"DIS_CODE":0,"TOWNNAME":"東區","LI":"東聖里","LIN":"16鄰","STREET":"中華東路","SECT":"二段","MAREA":" ","LANE":"７３巷","ALLEY":" ","HOUSE_NO":"６號十樓","E_COORD97":171471.89000000001,"N_COORD97":2542985.8399999999,"ADDRESS":"中華東路二段７３巷６號十樓","OBJECTID":397717},"geometry":{"x":171471.89000000153,"y":2542985.8400000017}},{"attributes":{"ID":397742,"DIS_CODE":0,"TOWNNAME":"永康區","LI":"大灣里","LIN":"27鄰","STREET":"大灣六街","SECT":" ","MAREA":" ","LANE":"８０巷","ALLEY":" ","HOUSE_NO":"４２號","E_COORD97":175270.66,"N_COORD97":2545301.3799999999,"ADDRESS":"大灣六街８０巷４２號","OBJECTID":397718},"geometry":{"x":175270.66000000015,"y":2545301.379999999}},{"attributes":{"ID":397743,"DIS_CODE":0,"TOWNNAME":"永康區","LI":"三民里","LIN":"7鄰","STREET":"三民街","SECT":" ","MAREA":" ","LANE":"１３６巷","ALLEY":" ","HOUSE_NO":"１３號","E_COORD97":172779.81,"N_COORD97":2550417.5699999998,"ADDRESS":"三民街１３６巷１３號","OBJECTID":397719},"geometry":{"x":172779.81000000052,"y":2550417.5700000003}},{"attributes":{"ID":397744,"DIS_CODE":0,"TOWNNAME":"永康區","LI":"三合里","LIN":"23鄰","STREET":"南工街","SECT":" ","MAREA":" ","LANE":"３２３巷","ALLEY":" ","HOUSE_NO":"１５號","E_COORD97":171790.48999999999,"N_COORD97":2545998.75,"ADDRESS":"南工街３２３巷１５號","OBJECTID":397720},"geometry":{"x":171790.49000000209,"y":2545998.75}},{"attributes":{"ID":397745,"DIS_CODE":0,"TOWNNAME":"東區","LI":"東聖里","LIN":"16鄰","STREET":"中華東路","SECT":"二段","MAREA":" ","LANE":"７３巷","ALLEY":" ","HOUSE_NO":"６號十一樓","E_COORD97":171471.89000000001,"N_COORD97":2542985.8399999999,"ADDRESS":"中華東路二段７３巷６號十一樓","OBJECTID":397721},"geometry":{"x":171471.89000000153,"y":2542985.8400000017}},{"attributes":{"ID":397746,"DIS_CODE":0,"TOWNNAME":"東區","LI":"東聖里","LIN":"16鄰","STREET":"中華東路","SECT":"二段","MAREA":" ","LANE":"７３巷","ALLEY":" ","HOUSE_NO":"８號三樓","E_COORD97":171470.88,"N_COORD97":2542977.1899999999,"ADDRESS":"中華東路二段７３巷８號三樓","OBJECTID":397722},"geometry":{"x":171470.88000000082,"y":2542977.1899999995}},{"attributes":{"ID":397747,"DIS_CODE":0,"TOWNNAME":"東區","LI":"東聖里","LIN":"16鄰","STREET":"中華東路","SECT":"二段","MAREA":" ","LANE":"７３巷","ALLEY":" ","HOUSE_NO":"８號四樓","E_COORD97":171470.88,"N_COORD97":2542977.1899999999,"ADDRESS":"中華東路二段７３巷８號四樓","OBJECTID":397723},"geometry":{"x":171470.88000000082,"y":2542977.1899999995}},{"attributes":{"ID":397748,"DIS_CODE":0,"TOWNNAME":"東區","LI":"東聖里","LIN":"16鄰","STREET":"中華東路","SECT":"二段","MAREA":" ","LANE":"７３巷","ALLEY":" ","HOUSE_NO":"８號五樓","E_COORD97":171470.88,"N_COORD97":2542977.1899999999,"ADDRESS":"中華東路二段７３巷８號五樓","OBJECTID":397724},"geometry":{"x":171470.88000000082,"y":2542977.1899999995}},{"attributes":{"ID":397749,"DIS_CODE":0,"TOWNNAME":"東區","LI":"東聖里","LIN":"16鄰","STREET":"中華東路","SECT":"二段","MAREA":" ","LANE":"７３巷","ALLEY":" ","HOUSE_NO":"８號六樓","E_COORD97":171470.88,"N_COORD97":2542977.1899999999,"ADDRESS":"中華東路二段７３巷８號六樓","OBJECTID":397725},"geometry":{"x":171470.88000000082,"y":2542977.1899999995}},{"attributes":{"ID":397750,"DIS_CODE":0,"TOWNNAME":"東區","LI":"東聖里","LIN":"16鄰","STREET":"中華東路","SECT":"二段","MAREA":" ","LANE":"７３巷","ALLEY":" ","HOUSE_NO":"８號七樓","E_COORD97":171470.88,"N_COORD97":2542977.1899999999,"ADDRESS":"中華東路二段７３巷８號七樓","OBJECTID":397726},"geometry":{"x":171470.88000000082,"y":2542977.1899999995}},{"attributes":{"ID":397751,"DIS_CODE":0,"TOWNNAME":"東區","LI":"東聖里","LIN":"16鄰","STREET":"中華東路","SECT":"二段","MAREA":" ","LANE":"７３巷","ALLEY":" ","HOUSE_NO":"８號八樓","E_COORD97":171470.88,"N_COORD97":2542977.1899999999,"ADDRESS":"中華東路二段７３巷８號八樓","OBJECTID":397727},"geometry":{"x":171470.88000000082,"y":2542977.1899999995}},{"attributes":{"ID":397752,"DIS_CODE":0,"TOWNNAME":"東區","LI":"東聖里","LIN":"16鄰","STREET":"中華東路","SECT":"二段","MAREA":" ","LANE":"７３巷","ALLEY":" ","HOUSE_NO":"８號九樓","E_COORD97":171470.88,"N_COORD97":2542977.1899999999,"ADDRESS":"中華東路二段７３巷８號九樓","OBJECTID":397728},"geometry":{"x":171470.88000000082,"y":2542977.1899999995}},{"attributes":{"ID":397753,"DIS_CODE":0,"TOWNNAME":"東區","LI":"東聖里","LIN":"16鄰","STREET":"中華東路","SECT":"二段","MAREA":" ","LANE":"７３巷","ALLEY":" ","HOUSE_NO":"８號十樓","E_COORD97":171470.88,"N_COORD97":2542977.1899999999,"ADDRESS":"中華東路二段７３巷８號十樓","OBJECTID":397729},"geometry":{"x":171470.88000000082,"y":2542977.1899999995}},{"attributes":{"ID":397754,"DIS_CODE":0,"TOWNNAME":"東區","LI":"東聖里","LIN":"16鄰","STREET":"中華東路","SECT":"二段","MAREA":" ","LANE":"７３巷","ALLEY":" ","HOUSE_NO":"８號十一樓","E_COORD97":171470.88,"N_COORD97":2542977.1899999999,"ADDRESS":"中華東路二段７３巷８號十一樓","OBJECTID":397730},"geometry":{"x":171470.88000000082,"y":2542977.1899999995}},{"attributes":{"ID":397755,"DIS_CODE":0,"TOWNNAME":"東區","LI":"東聖里","LIN":"16鄰","STREET":"中華東路","SECT":"二段","MAREA":" ","LANE":"７３巷","ALLEY":" ","HOUSE_NO":"１０號三樓","E_COORD97":171483.89999999999,"N_COORD97":2542975.1400000001,"ADDRESS":"中華東路二段７３巷１０號三樓","OBJECTID":397731},"geometry":{"x":171483.90000000037,"y":2542975.1400000006}},{"attributes":{"ID":397756,"DIS_CODE":0,"TOWNNAME":"東區","LI":"東聖里","LIN":"16鄰","STREET":"中華東路","SECT":"二段","MAREA":" ","LANE":"７３巷","ALLEY":" ","HOUSE_NO":"１０號四樓","E_COORD97":171483.89999999999,"N_COORD97":2542975.1400000001,"ADDRESS":"中華東路二段７３巷１０號四樓","OBJECTID":397732},"geometry":{"x":171483.90000000037,"y":2542975.1400000006}},{"attributes":{"ID":397757,"DIS_CODE":0,"TOWNNAME":"東區","LI":"東聖里","LIN":"16鄰","STREET":"中華東路","SECT":"二段","MAREA":" ","LANE":"７３巷","ALLEY":" ","HOUSE_NO":"１０號五樓","E_COORD97":171483.89999999999,"N_COORD97":2542975.1400000001,"ADDRESS":"中華東路二段７３巷１０號五樓","OBJECTID":397733},"geometry":{"x":171483.90000000037,"y":2542975.1400000006}},{"attributes":{"ID":397758,"DIS_CODE":0,"TOWNNAME":"東區","LI":"東聖里","LIN":"16鄰","STREET":"中華東路","SECT":"二段","MAREA":" ","LANE":"７３巷","ALLEY":" ","HOUSE_NO":"１０號六樓","E_COORD97":171483.89999999999,"N_COORD97":2542975.1400000001,"ADDRESS":"中華東路二段７３巷１０號六樓","OBJECTID":397734},"geometry":{"x":171483.90000000037,"y":2542975.1400000006}},{"attributes":{"ID":397759,"DIS_CODE":0,"TOWNNAME":"仁德區","LI":"仁德里","LIN":"43鄰","STREET":"中山路","SECT":" ","MAREA":" ","LANE":"９１０巷","ALLEY":" ","HOUSE_NO":"１９號","E_COORD97":171986.57000000001,"N_COORD97":2541803.2400000002,"ADDRESS":"中山路９１０巷１９號","OBJECTID":397735},"geometry":{"x":171986.57000000216,"y":2541803.2400000021}},{"attributes":{"ID":397760,"DIS_CODE":0,"TOWNNAME":"東區","LI":"東聖里","LIN":"16鄰","STREET":"中華東路","SECT":"二段","MAREA":" ","LANE":"７３巷","ALLEY":" ","HOUSE_NO":"１０號七樓","E_COORD97":171483.89999999999,"N_COORD97":2542975.1400000001,"ADDRESS":"中華東路二段７３巷１０號七樓","OBJECTID":397736},"geometry":{"x":171483.90000000037,"y":2542975.1400000006}},{"attributes":{"ID":397761,"DIS_CODE":0,"TOWNNAME":"東區","LI":"東聖里","LIN":"16鄰","STREET":"中華東路","SECT":"二段","MAREA":" ","LANE":"７３巷","ALLEY":" ","HOUSE_NO":"１０號八樓","E_COORD97":171483.89999999999,"N_COORD97":2542975.1400000001,"ADDRESS":"中華東路二段７３巷１０號八樓","OBJECTID":397737},"geometry":{"x":171483.90000000037,"y":2542975.1400000006}},{"attributes":{"ID":397762,"DIS_CODE":0,"TOWNNAME":"東區","LI":"東聖里","LIN":"16鄰","STREET":"中華東路","SECT":"二段","MAREA":" ","LANE":"７３巷","ALLEY":" ","HOUSE_NO":"１０號九樓","E_COORD97":171483.89999999999,"N_COORD97":2542975.1400000001,"ADDRESS":"中華東路二段７３巷１０號九樓","OBJECTID":397738},"geometry":{"x":171483.90000000037,"y":2542975.1400000006}},{"attributes":{"ID":397763,"DIS_CODE":0,"TOWNNAME":"東區","LI":"東聖里","LIN":"16鄰","STREET":"中華東路","SECT":"二段","MAREA":" ","LANE":"７３巷","ALLEY":" ","HOUSE_NO":"１０號十樓","E_COORD97":171483.89999999999,"N_COORD97":2542975.1400000001,"ADDRESS":"中華東路二段７３巷１０號十樓","OBJECTID":397739},"geometry":{"x":171483.90000000037,"y":2542975.1400000006}},{"attributes":{"ID":397764,"DIS_CODE":0,"TOWNNAME":"東區","LI":"東聖里","LIN":"16鄰","STREET":"中華東路","SECT":"二段","MAREA":" ","LANE":"７３巷","ALLEY":" ","HOUSE_NO":"１０號十一樓","E_COORD97":171483.89999999999,"N_COORD97":2542975.1400000001,"ADDRESS":"中華東路二段７３巷１０號十一樓","OBJECTID":397740},"geometry":{"x":171483.90000000037,"y":2542975.1400000006}},{"attributes":{"ID":397765,"DIS_CODE":0,"TOWNNAME":"東區","LI":"東聖里","LIN":"16鄰","STREET":"中華東路","SECT":"二段","MAREA":" ","LANE":"７３巷","ALLEY":" ","HOUSE_NO":"１０號之１二樓","E_COORD97":171489.67000000001,"N_COORD97":2542985.9300000002,"ADDRESS":"中華東路二段７３巷１０號之１二樓","OBJECTID":397741},"geometry":{"x":171489.67000000086,"y":2542985.9299999997}},{"attributes":{"ID":397766,"DIS_CODE":0,"TOWNNAME":"永康區","LI":"大橋里","LIN":"26鄰","STREET":"大橋一街","SECT":" ","MAREA":" ","LANE":"２４７巷","ALLEY":" ","HOUSE_NO":"６２號","E_COORD97":171215.95000000001,"N_COORD97":2546806.9900000002,"ADDRESS":"大橋一街２４７巷６２號","OBJECTID":397742},"geometry":{"x":171215.94999999925,"y":2546806.9900000002}},{"attributes":{"ID":397767,"DIS_CODE":0,"TOWNNAME":"東區","LI":"東聖里","LIN":"16鄰","STREET":"中華東路","SECT":"二段","MAREA":" ","LANE":"７３巷","ALLEY":" ","HOUSE_NO":"１０號之１三樓","E_COORD97":171489.67000000001,"N_COORD97":2542985.9300000002,"ADDRESS":"中華東路二段７３巷１０號之１三樓","OBJECTID":397743},"geometry":{"x":171489.67000000086,"y":2542985.9299999997}},{"attributes":{"ID":397768,"DIS_CODE":0,"TOWNNAME":"東區","LI":"東聖里","LIN":"16鄰","STREET":"中華東路","SECT":"二段","MAREA":" ","LANE":"７３巷","ALLEY":" ","HOUSE_NO":"１０號之１四樓","E_COORD97":171489.67000000001,"N_COORD97":2542985.9300000002,"ADDRESS":"中華東路二段７３巷１０號之１四樓","OBJECTID":397744},"geometry":{"x":171489.67000000086,"y":2542985.9299999997}},{"attributes":{"ID":397769,"DIS_CODE":0,"TOWNNAME":"東區","LI":"東聖里","LIN":"16鄰","STREET":"中華東路","SECT":"二段","MAREA":" ","LANE":"７３巷","ALLEY":" ","HOUSE_NO":"１０號之１五樓","E_COORD97":171489.67000000001,"N_COORD97":2542985.9300000002,"ADDRESS":"中華東路二段７３巷１０號之１五樓","OBJECTID":397745},"geometry":{"x":171489.67000000086,"y":2542985.9299999997}},{"attributes":{"ID":397770,"DIS_CODE":0,"TOWNNAME":"永康區","LI":"大橋里","LIN":"8鄰","STREET":"大橋三街","SECT":" ","MAREA":" ","LANE":"１９９巷","ALLEY":" ","HOUSE_NO":"７４號","E_COORD97":170966.26999999999,"N_COORD97":2546886.4199999999,"ADDRESS":"大橋三街１９９巷７４號","OBJECTID":397746},"geometry":{"x":170966.27000000048,"y":2546886.4200000037}},{"attributes":{"ID":397771,"DIS_CODE":0,"TOWNNAME":"永康區","LI":"二王里","LIN":"1鄰","STREET":"二王路","SECT":" ","MAREA":" ","LANE":"２７巷","ALLEY":" ","HOUSE_NO":"２７號","E_COORD97":173076.91,"N_COORD97":2546822.21,"ADDRESS":"二王路２７巷２７號","OBJECTID":397747},"geometry":{"x":173076.91000000015,"y":2546822.2100000028}},{"attributes":{"ID":397772,"DIS_CODE":0,"TOWNNAME":"東區","LI":"東聖里","LIN":"16鄰","STREET":"中華東路","SECT":"二段","MAREA":" ","LANE":"７３巷","ALLEY":" ","HOUSE_NO":"１０號之１六樓","E_COORD97":171489.67000000001,"N_COORD97":2542985.9300000002,"ADDRESS":"中華東路二段７３巷１０號之１六樓","OBJECTID":397748},"geometry":{"x":171489.67000000086,"y":2542985.9299999997}},{"attributes":{"ID":397773,"DIS_CODE":0,"TOWNNAME":"東區","LI":"東聖里","LIN":"16鄰","STREET":"中華東路","SECT":"二段","MAREA":" ","LANE":"７３巷","ALLEY":" ","HOUSE_NO":"１０號之１七樓","E_COORD97":171489.67000000001,"N_COORD97":2542985.9300000002,"ADDRESS":"中華東路二段７３巷１０號之１七樓","OBJECTID":397749},"geometry":{"x":171489.67000000086,"y":2542985.9299999997}},{"attributes":{"ID":397774,"DIS_CODE":0,"TOWNNAME":"東區","LI":"東聖里","LIN":"16鄰","STREET":"中華東路","SECT":"二段","MAREA":" ","LANE":"７３巷","ALLEY":" ","HOUSE_NO":"１０號之１八樓","E_COORD97":171489.67000000001,"N_COORD97":2542985.9300000002,"ADDRESS":"中華東路二段７３巷１０號之１八樓","OBJECTID":397750},"geometry":{"x":171489.67000000086,"y":2542985.9299999997}},{"attributes":{"ID":397775,"DIS_CODE":0,"TOWNNAME":"東區","LI":"東聖里","LIN":"16鄰","STREET":"中華東路","SECT":"二段","MAREA":" ","LANE":"７３巷","ALLEY":" ","HOUSE_NO":"１０號之１九樓","E_COORD97":171489.67000000001,"N_COORD97":2542985.9300000002,"ADDRESS":"中華東路二段７３巷１０號之１九樓","OBJECTID":397751},"geometry":{"x":171489.67000000086,"y":2542985.9299999997}},{"attributes":{"ID":397776,"DIS_CODE":0,"TOWNNAME":"東區","LI":"東聖里","LIN":"16鄰","STREET":"中華東路","SECT":"二段","MAREA":" ","LANE":"７３巷","ALLEY":" ","HOUSE_NO":"１０號之１十樓","E_COORD97":171489.67000000001,"N_COORD97":2542985.9300000002,"ADDRESS":"中華東路二段７３巷１０號之１十樓","OBJECTID":397752},"geometry":{"x":171489.67000000086,"y":2542985.9299999997}},{"attributes":{"ID":397777,"DIS_CODE":0,"TOWNNAME":"東區","LI":"東聖里","LIN":"16鄰","STREET":"中華東路","SECT":"二段","MAREA":" ","LANE":"７３巷","ALLEY":" ","HOUSE_NO":"１０號之１十一樓","E_COORD97":171489.67000000001,"N_COORD97":2542985.9300000002,"ADDRESS":"中華東路二段７３巷１０號之１十一樓","OBJECTID":397753},"geometry":{"x":171489.67000000086,"y":2542985.9299999997}},{"attributes":{"ID":397778,"DIS_CODE":0,"TOWNNAME":"東區","LI":"東聖里","LIN":"16鄰","STREET":"中華東路","SECT":"二段","MAREA":" ","LANE":"７３巷","ALLEY":" ","HOUSE_NO":"１０號之１十二樓","E_COORD97":171489.67000000001,"N_COORD97":2542985.9300000002,"ADDRESS":"中華東路二段７３巷１０號之１十二樓","OBJECTID":397754},"geometry":{"x":171489.67000000086,"y":2542985.9299999997}},{"attributes":{"ID":397779,"DIS_CODE":0,"TOWNNAME":"東區","LI":"東聖里","LIN":"16鄰","STREET":"中華東路","SECT":"二段","MAREA":" ","LANE":"７３巷","ALLEY":" ","HOUSE_NO":"１０號之２二樓","E_COORD97":171490.04000000001,"N_COORD97":2542996.7599999998,"ADDRESS":"中華東路二段７３巷１０號之２二樓","OBJECTID":397755},"geometry":{"x":171490.04000000097,"y":2542996.7599999998}},{"attributes":{"ID":397780,"DIS_CODE":0,"TOWNNAME":"東區","LI":"東聖里","LIN":"16鄰","STREET":"中華東路","SECT":"二段","MAREA":" ","LANE":"７３巷","ALLEY":" ","HOUSE_NO":"１０號之２三樓","E_COORD97":171490.04000000001,"N_COORD97":2542996.7599999998,"ADDRESS":"中華東路二段７３巷１０號之２三樓","OBJECTID":397756},"geometry":{"x":171490.04000000097,"y":2542996.7599999998}},{"attributes":{"ID":397781,"DIS_CODE":0,"TOWNNAME":"東區","LI":"東聖里","LIN":"16鄰","STREET":"中華東路","SECT":"二段","MAREA":" ","LANE":"７３巷","ALLEY":" ","HOUSE_NO":"１０號之２四樓","E_COORD97":171490.04000000001,"N_COORD97":2542996.7599999998,"ADDRESS":"中華東路二段７３巷１０號之２四樓","OBJECTID":397757},"geometry":{"x":171490.04000000097,"y":2542996.7599999998}},{"attributes":{"ID":397782,"DIS_CODE":0,"TOWNNAME":"東區","LI":"東聖里","LIN":"16鄰","STREET":"中華東路","SECT":"二段","MAREA":" ","LANE":"７３巷","ALLEY":" ","HOUSE_NO":"１０號之２五樓","E_COORD97":171490.04000000001,"N_COORD97":2542996.7599999998,"ADDRESS":"中華東路二段７３巷１０號之２五樓","OBJECTID":397758},"geometry":{"x":171490.04000000097,"y":2542996.7599999998}},{"attributes":{"ID":397783,"DIS_CODE":0,"TOWNNAME":"東區","LI":"東聖里","LIN":"16鄰","STREET":"中華東路","SECT":"二段","MAREA":" ","LANE":"７３巷","ALLEY":" ","HOUSE_NO":"１０號之２六樓","E_COORD97":171490.04000000001,"N_COORD97":2542996.7599999998,"ADDRESS":"中華東路二段７３巷１０號之２六樓","OBJECTID":397759},"geometry":{"x":171490.04000000097,"y":2542996.7599999998}},{"attributes":{"ID":397784,"DIS_CODE":0,"TOWNNAME":"東區","LI":"東聖里","LIN":"16鄰","STREET":"中華東路","SECT":"二段","MAREA":" ","LANE":"７３巷","ALLEY":" ","HOUSE_NO":"１０號之２七樓","E_COORD97":171490.04000000001,"N_COORD97":2542996.7599999998,"ADDRESS":"中華東路二段７３巷１０號之２七樓","OBJECTID":397760},"geometry":{"x":171490.04000000097,"y":2542996.7599999998}},{"attributes":{"ID":397785,"DIS_CODE":0,"TOWNNAME":"東區","LI":"東聖里","LIN":"16鄰","STREET":"中華東路","SECT":"二段","MAREA":" ","LANE":"７３巷","ALLEY":" ","HOUSE_NO":"１０號之２八樓","E_COORD97":171490.04000000001,"N_COORD97":2542996.7599999998,"ADDRESS":"中華東路二段７３巷１０號之２八樓","OBJECTID":397761},"geometry":{"x":171490.04000000097,"y":2542996.7599999998}},{"attributes":{"ID":397786,"DIS_CODE":0,"TOWNNAME":"東區","LI":"東聖里","LIN":"16鄰","STREET":"中華東路","SECT":"二段","MAREA":" ","LANE":"７３巷","ALLEY":" ","HOUSE_NO":"１０號之２九樓","E_COORD97":171490.04000000001,"N_COORD97":2542996.7599999998,"ADDRESS":"中華東路二段７３巷１０號之２九樓","OBJECTID":397762},"geometry":{"x":171490.04000000097,"y":2542996.7599999998}},{"attributes":{"ID":397787,"DIS_CODE":0,"TOWNNAME":"東區","LI":"東聖里","LIN":"16鄰","STREET":"中華東路","SECT":"二段","MAREA":" ","LANE":"７３巷","ALLEY":" ","HOUSE_NO":"１０號之２十樓","E_COORD97":171490.04000000001,"N_COORD97":2542996.7599999998,"ADDRESS":"中華東路二段７３巷１０號之２十樓","OBJECTID":397763},"geometry":{"x":171490.04000000097,"y":2542996.7599999998}},{"attributes":{"ID":397788,"DIS_CODE":0,"TOWNNAME":"六甲區","LI":"龍湖里","LIN":"11鄰","STREET":"珊瑚路","SECT":" ","MAREA":" ","LANE":"３１５巷","ALLEY":" ","HOUSE_NO":"４號","E_COORD97":185021.07000000001,"N_COORD97":2568306.5499999998,"ADDRESS":"珊瑚路３１５巷４號","OBJECTID":397764},"geometry":{"x":185021.07000000216,"y":2568306.5500000045}},{"attributes":{"ID":397789,"DIS_CODE":0,"TOWNNAME":"東區","LI":"東聖里","LIN":"16鄰","STREET":"中華東路","SECT":"二段","MAREA":" ","LANE":"７３巷","ALLEY":" ","HOUSE_NO":"１０號之２十一樓","E_COORD97":171490.04000000001,"N_COORD97":2542996.7599999998,"ADDRESS":"中華東路二段７３巷１０號之２十一樓","OBJECTID":397765},"geometry":{"x":171490.04000000097,"y":2542996.7599999998}},{"attributes":{"ID":397790,"DIS_CODE":0,"TOWNNAME":"東區","LI":"東聖里","LIN":"16鄰","STREET":"中華東路","SECT":"二段","MAREA":" ","LANE":"７３巷","ALLEY":" ","HOUSE_NO":"１０號之３二樓","E_COORD97":171487.62,"N_COORD97":2543006.7999999998,"ADDRESS":"中華東路二段７３巷１０號之３二樓","OBJECTID":397766},"geometry":{"x":171487.61999999918,"y":2543006.8000000026}},{"attributes":{"ID":397791,"DIS_CODE":0,"TOWNNAME":"東區","LI":"東聖里","LIN":"16鄰","STREET":"中華東路","SECT":"二段","MAREA":" ","LANE":"７３巷","ALLEY":" ","HOUSE_NO":"１０號之３三樓","E_COORD97":171487.62,"N_COORD97":2543006.7999999998,"ADDRESS":"中華東路二段７３巷１０號之３三樓","OBJECTID":397767},"geometry":{"x":171487.61999999918,"y":2543006.8000000026}},{"attributes":{"ID":397792,"DIS_CODE":0,"TOWNNAME":"東區","LI":"崇成里","LIN":"13鄰","STREET":"崇明十五街","SECT":" ","MAREA":" ","LANE":" ","ALLEY":" ","HOUSE_NO":"５７號","E_COORD97":170727.51000000001,"N_COORD97":2541365.96,"ADDRESS":"崇明十五街５７號","OBJECTID":397768},"geometry":{"x":170727.51000000071,"y":2541365.9600000009}},{"attributes":{"ID":397793,"DIS_CODE":0,"TOWNNAME":"東區","LI":"東聖里","LIN":"16鄰","STREET":"中華東路","SECT":"二段","MAREA":" ","LANE":"７３巷","ALLEY":" ","HOUSE_NO":"１０號之３四樓","E_COORD97":171487.62,"N_COORD97":2543006.7999999998,"ADDRESS":"中華東路二段７３巷１０號之３四樓","OBJECTID":397769},"geometry":{"x":171487.61999999918,"y":2543006.8000000026}},{"attributes":{"ID":397794,"DIS_CODE":0,"TOWNNAME":"東區","LI":"東聖里","LIN":"16鄰","STREET":"中華東路","SECT":"二段","MAREA":" ","LANE":"７３巷","ALLEY":" ","HOUSE_NO":"１０號之３五樓","E_COORD97":171487.62,"N_COORD97":2543006.7999999998,"ADDRESS":"中華東路二段７３巷１０號之３五樓","OBJECTID":397770},"geometry":{"x":171487.61999999918,"y":2543006.8000000026}},{"attributes":{"ID":397795,"DIS_CODE":0,"TOWNNAME":"永康區","LI":"大橋里","LIN":"25鄰","STREET":"大橋一街","SECT":" ","MAREA":" ","LANE":"２４７巷","ALLEY":" ","HOUSE_NO":"１１號","E_COORD97":171256.03,"N_COORD97":2546677.4900000002,"ADDRESS":"大橋一街２４７巷１１號","OBJECTID":397771},"geometry":{"x":171256.03000000026,"y":2546677.4900000021}},{"attributes":{"ID":397796,"DIS_CODE":0,"TOWNNAME":"永康區","LI":"大橋里","LIN":"7鄰","STREET":"大橋三街","SECT":" ","MAREA":" ","LANE":"１９９巷","ALLEY":" ","HOUSE_NO":"３７號","E_COORD97":170881.04999999999,"N_COORD97":2546866.8999999999,"ADDRESS":"大橋三街１９９巷３７號","OBJECTID":397772},"geometry":{"x":170881.05000000168,"y":2546866.9000000022}},{"attributes":{"ID":397797,"DIS_CODE":0,"TOWNNAME":"永康區","LI":"中興里","LIN":"19鄰","STREET":"中山東路","SECT":" ","MAREA":" ","LANE":"３６６巷","ALLEY":" ","HOUSE_NO":"１１號","E_COORD97":171853.87,"N_COORD97":2545286.2400000002,"ADDRESS":"中山東路３６６巷１１號","OBJECTID":397773},"geometry":{"x":171853.87000000197,"y":2545286.2400000002}},{"attributes":{"ID":397798,"DIS_CODE":0,"TOWNNAME":"東區","LI":"東聖里","LIN":"16鄰","STREET":"中華東路","SECT":"二段","MAREA":" ","LANE":"７３巷","ALLEY":" ","HOUSE_NO":"１０號之３六樓","E_COORD97":171487.62,"N_COORD97":2543006.7999999998,"ADDRESS":"中華東路二段７３巷１０號之３六樓","OBJECTID":397774},"geometry":{"x":171487.61999999918,"y":2543006.8000000026}},{"attributes":{"ID":397799,"DIS_CODE":0,"TOWNNAME":"東區","LI":"東聖里","LIN":"16鄰","STREET":"中華東路","SECT":"二段","MAREA":" ","LANE":"７３巷","ALLEY":" ","HOUSE_NO":"１０號之３七樓","E_COORD97":171487.62,"N_COORD97":2543006.7999999998,"ADDRESS":"中華東路二段７３巷１０號之３七樓","OBJECTID":397775},"geometry":{"x":171487.61999999918,"y":2543006.8000000026}},{"attributes":{"ID":397800,"DIS_CODE":0,"TOWNNAME":"東區","LI":"東聖里","LIN":"16鄰","STREET":"中華東路","SECT":"二段","MAREA":" ","LANE":"７３巷","ALLEY":" ","HOUSE_NO":"１０號之３八樓","E_COORD97":171487.62,"N_COORD97":2543006.7999999998,"ADDRESS":"中華東路二段７３巷１０號之３八樓","OBJECTID":397776},"geometry":{"x":171487.61999999918,"y":2543006.8000000026}},{"attributes":{"ID":397801,"DIS_CODE":0,"TOWNNAME":"東區","LI":"東聖里","LIN":"16鄰","STREET":"中華東路","SECT":"二段","MAREA":" ","LANE":"７３巷","ALLEY":" ","HOUSE_NO":"１０號之３九樓","E_COORD97":171487.62,"N_COORD97":2543006.7999999998,"ADDRESS":"中華東路二段７３巷１０號之３九樓","OBJECTID":397777},"geometry":{"x":171487.61999999918,"y":2543006.8000000026}},{"attributes":{"ID":397802,"DIS_CODE":0,"TOWNNAME":"東區","LI":"東聖里","LIN":"16鄰","STREET":"中華東路","SECT":"二段","MAREA":" ","LANE":"７３巷","ALLEY":" ","HOUSE_NO":"１０號之３十樓","E_COORD97":171487.62,"N_COORD97":2543006.7999999998,"ADDRESS":"中華東路二段７３巷１０號之３十樓","OBJECTID":397778},"geometry":{"x":171487.61999999918,"y":2543006.8000000026}},{"attributes":{"ID":397803,"DIS_CODE":0,"TOWNNAME":"東區","LI":"東聖里","LIN":"16鄰","STREET":"中華東路","SECT":"二段","MAREA":" ","LANE":"７３巷","ALLEY":" ","HOUSE_NO":"１０號之３十一樓","E_COORD97":171487.62,"N_COORD97":2543006.7999999998,"ADDRESS":"中華東路二段７３巷１０號之３十一樓","OBJECTID":397779},"geometry":{"x":171487.61999999918,"y":2543006.8000000026}},{"attributes":{"ID":397804,"DIS_CODE":0,"TOWNNAME":"東區","LI":"東聖里","LIN":"16鄰","STREET":"中華東路","SECT":"二段","MAREA":" ","LANE":"７３巷","ALLEY":" ","HOUSE_NO":"１０號之３十二樓","E_COORD97":171487.62,"N_COORD97":2543006.7999999998,"ADDRESS":"中華東路二段７３巷１０號之３十二樓","OBJECTID":397780},"geometry":{"x":171487.61999999918,"y":2543006.8000000026}},{"attributes":{"ID":397805,"DIS_CODE":0,"TOWNNAME":"永康區","LI":"大橋里","LIN":"27鄰","STREET":"大橋一街","SECT":" ","MAREA":" ","LANE":"２４７巷","ALLEY":" ","HOUSE_NO":"３０號","E_COORD97":171262.13,"N_COORD97":2546736,"ADDRESS":"大橋一街２４７巷３０號","OBJECTID":397781},"geometry":{"x":171262.13000000082,"y":2546736}},{"attributes":{"ID":397806,"DIS_CODE":0,"TOWNNAME":"永康區","LI":"大橋里","LIN":"1鄰","STREET":"大橋一街","SECT":" ","MAREA":" ","LANE":"７３巷","ALLEY":" ","HOUSE_NO":"１４３號","E_COORD97":170619.88,"N_COORD97":2546652,"ADDRESS":"大橋一街７３巷１４３號","OBJECTID":397782},"geometry":{"x":170619.88000000082,"y":2546652.0000000037}},{"attributes":{"ID":397807,"DIS_CODE":0,"TOWNNAME":"永康區","LI":"中興里","LIN":"19鄰","STREET":"中山東路","SECT":" ","MAREA":" ","LANE":"３６６巷","ALLEY":" ","HOUSE_NO":"６號","E_COORD97":171878.89999999999,"N_COORD97":2545301.5,"ADDRESS":"中山東路３６６巷６號","OBJECTID":397783},"geometry":{"x":171878.90000000037,"y":2545301.5}},{"attributes":{"ID":397808,"DIS_CODE":0,"TOWNNAME":"永康區","LI":"大橋里","LIN":"7鄰","STREET":"大橋三街","SECT":" ","MAREA":" ","LANE":"１９９巷","ALLEY":" ","HOUSE_NO":"８９號","E_COORD97":170967.95000000001,"N_COORD97":2546915.8700000001,"ADDRESS":"大橋三街１９９巷８９號","OBJECTID":397784},"geometry":{"x":170967.95000000019,"y":2546915.8700000029}},{"attributes":{"ID":397809,"DIS_CODE":0,"TOWNNAME":"永康區","LI":"二王里","LIN":"34鄰","STREET":"中山南路","SECT":" ","MAREA":" ","LANE":"４９０巷","ALLEY":" ","HOUSE_NO":"１０號之１０","E_COORD97":172137.73000000001,"N_COORD97":2546362.29,"ADDRESS":"中山南路４９０巷１０號之１０","OBJECTID":397785},"geometry":{"x":172137.73000000045,"y":2546362.290000001}},{"attributes":{"ID":397810,"DIS_CODE":0,"TOWNNAME":"永康區","LI":"大灣里","LIN":"6鄰","STREET":"大灣路","SECT":" ","MAREA":" ","LANE":"２１８巷","ALLEY":" ","HOUSE_NO":"３０號","E_COORD97":174874.14999999999,"N_COORD97":2545539.2200000002,"ADDRESS":"大灣路２１８巷３０號","OBJECTID":397786},"geometry":{"x":174874.15000000037,"y":2545539.2200000044}},{"attributes":{"ID":397811,"DIS_CODE":0,"TOWNNAME":"永康區","LI":"崑山里","LIN":"23鄰","STREET":"崑山街","SECT":" ","MAREA":" ","LANE":"６３巷","ALLEY":" ","HOUSE_NO":"２１號","E_COORD97":173879.28,"N_COORD97":2544670,"ADDRESS":"崑山街６３巷２１號","OBJECTID":397787},"geometry":{"x":173879.28000000119,"y":2544670.0000000019}},{"attributes":{"ID":397812,"DIS_CODE":0,"TOWNNAME":"中西區","LI":"藥王里","LIN":"16鄰","STREET":"民權路","SECT":"三段","MAREA":" ","LANE":"４００巷","ALLEY":" ","HOUSE_NO":"１０號七樓","E_COORD97":166822.95999999999,"N_COORD97":2544440.6200000001,"ADDRESS":"民權路三段４００巷１０號七樓","OBJECTID":397788},"geometry":{"x":166822.95999999996,"y":2544440.620000001}},{"attributes":{"ID":397813,"DIS_CODE":0,"TOWNNAME":"中西區","LI":"藥王里","LIN":"16鄰","STREET":"民權路","SECT":"三段","MAREA":" ","LANE":"４００巷","ALLEY":" ","HOUSE_NO":"１０號九樓","E_COORD97":166822.95999999999,"N_COORD97":2544440.6200000001,"ADDRESS":"民權路三段４００巷１０號九樓","OBJECTID":397789},"geometry":{"x":166822.95999999996,"y":2544440.620000001}},{"attributes":{"ID":397814,"DIS_CODE":0,"TOWNNAME":"中西區","LI":"藥王里","LIN":"16鄰","STREET":"民權路","SECT":"三段","MAREA":" ","LANE":"４００巷","ALLEY":" ","HOUSE_NO":"１０號二樓","E_COORD97":166822.95999999999,"N_COORD97":2544440.6200000001,"ADDRESS":"民權路三段４００巷１０號二樓","OBJECTID":397790},"geometry":{"x":166822.95999999996,"y":2544440.620000001}},{"attributes":{"ID":397815,"DIS_CODE":0,"TOWNNAME":"中西區","LI":"藥王里","LIN":"16鄰","STREET":"民權路","SECT":"三段","MAREA":" ","LANE":"４００巷","ALLEY":" ","HOUSE_NO":"１０號八樓","E_COORD97":166822.95999999999,"N_COORD97":2544440.6200000001,"ADDRESS":"民權路三段４００巷１０號八樓","OBJECTID":397791},"geometry":{"x":166822.95999999996,"y":2544440.620000001}},{"attributes":{"ID":397816,"DIS_CODE":0,"TOWNNAME":"中西區","LI":"藥王里","LIN":"16鄰","STREET":"民權路","SECT":"三段","MAREA":" ","LANE":"４００巷","ALLEY":" ","HOUSE_NO":"１０號十樓","E_COORD97":166822.95999999999,"N_COORD97":2544440.6200000001,"ADDRESS":"民權路三段４００巷１０號十樓","OBJECTID":397792},"geometry":{"x":166822.95999999996,"y":2544440.620000001}},{"attributes":{"ID":397817,"DIS_CODE":0,"TOWNNAME":"中西區","LI":"藥王里","LIN":"16鄰","STREET":"民權路","SECT":"三段","MAREA":" ","LANE":"４００巷","ALLEY":" ","HOUSE_NO":"１０號三樓","E_COORD97":166822.95999999999,"N_COORD97":2544440.6200000001,"ADDRESS":"民權路三段４００巷１０號三樓","OBJECTID":397793},"geometry":{"x":166822.95999999996,"y":2544440.620000001}},{"attributes":{"ID":397818,"DIS_CODE":0,"TOWNNAME":"中西區","LI":"藥王里","LIN":"16鄰","STREET":"民權路","SECT":"三段","MAREA":" ","LANE":"４００巷","ALLEY":" ","HOUSE_NO":"１０號五樓","E_COORD97":166822.95999999999,"N_COORD97":2544440.6200000001,"ADDRESS":"民權路三段４００巷１０號五樓","OBJECTID":397794},"geometry":{"x":166822.95999999996,"y":2544440.620000001}},{"attributes":{"ID":397819,"DIS_CODE":0,"TOWNNAME":"中西區","LI":"藥王里","LIN":"16鄰","STREET":"民權路","SECT":"三段","MAREA":" ","LANE":"４００巷","ALLEY":" ","HOUSE_NO":"１０號六樓","E_COORD97":166822.95999999999,"N_COORD97":2544440.6200000001,"ADDRESS":"民權路三段４００巷１０號六樓","OBJECTID":397795},"geometry":{"x":166822.95999999996,"y":2544440.620000001}},{"attributes":{"ID":397820,"DIS_CODE":0,"TOWNNAME":"中西區","LI":"藥王里","LIN":"16鄰","STREET":"民權路","SECT":"三段","MAREA":" ","LANE":"４００巷","ALLEY":" ","HOUSE_NO":"３２號四樓","E_COORD97":166816.34,"N_COORD97":2544492.29,"ADDRESS":"民權路三段４００巷３２號四樓","OBJECTID":397796},"geometry":{"x":166816.34000000078,"y":2544492.2899999991}},{"attributes":{"ID":397821,"DIS_CODE":0,"TOWNNAME":"中西區","LI":"藥王里","LIN":"16鄰","STREET":"民權路","SECT":"三段","MAREA":" ","LANE":"４００巷","ALLEY":" ","HOUSE_NO":"１２號七樓","E_COORD97":166818.76999999999,"N_COORD97":2544443.04,"ADDRESS":"民權路三段４００巷１２號七樓","OBJECTID":397797},"geometry":{"x":166818.76999999955,"y":2544443.0399999991}},{"attributes":{"ID":397822,"DIS_CODE":0,"TOWNNAME":"中西區","LI":"藥王里","LIN":"16鄰","STREET":"民權路","SECT":"三段","MAREA":" ","LANE":"４００巷","ALLEY":" ","HOUSE_NO":"１２號九樓","E_COORD97":166818.76999999999,"N_COORD97":2544443.04,"ADDRESS":"民權路三段４００巷１２號九樓","OBJECTID":397798},"geometry":{"x":166818.76999999955,"y":2544443.0399999991}},{"attributes":{"ID":397823,"DIS_CODE":0,"TOWNNAME":"中西區","LI":"藥王里","LIN":"16鄰","STREET":"民權路","SECT":"三段","MAREA":" ","LANE":"４００巷","ALLEY":" ","HOUSE_NO":"１２號二樓","E_COORD97":166818.76999999999,"N_COORD97":2544443.04,"ADDRESS":"民權路三段４００巷１２號二樓","OBJECTID":397799},"geometry":{"x":166818.76999999955,"y":2544443.0399999991}},{"attributes":{"ID":397824,"DIS_CODE":0,"TOWNNAME":"中西區","LI":"藥王里","LIN":"16鄰","STREET":"民權路","SECT":"三段","MAREA":" ","LANE":"４００巷","ALLEY":" ","HOUSE_NO":"１２號八樓","E_COORD97":166818.76999999999,"N_COORD97":2544443.04,"ADDRESS":"民權路三段４００巷１２號八樓","OBJECTID":397800},"geometry":{"x":166818.76999999955,"y":2544443.0399999991}}]}