{"displayFieldName":"TOWNNAME","fieldAliases":{"ID":"ID","DIS_CODE":"DIS_CODE","TOWNNAME":"TOWNNAME","LI":"LI","LIN":"LIN","STREET":"STREET","SECT":"SECT","MAREA":"MAREA","LANE":"LANE","ALLEY":"ALLEY","HOUSE_NO":"HOUSE_NO","E_COORD97":"E_COORD97","N_COORD97":"N_COORD97","ADDRESS":"ADDRESS","OBJECTID":"OBJECTID"},"geometryType":"esriGeometryPoint","spatialReference":{"wkid":102443,"latestWkid":3826},"fields":[{"name":"ID","type":"esriFieldTypeDouble","alias":"ID"},{"name":"DIS_CODE","type":"esriFieldTypeInteger","alias":"DIS_CODE"},{"name":"TOWNNAME","type":"esriFieldTypeString","alias":"TOWNNAME","length":8},{"name":"LI","type":"esriFieldTypeString","alias":"LI","length":8},{"name":"LIN","type":"esriFieldTypeString","alias":"LIN","length":12},{"name":"STREET","type":"esriFieldTypeString","alias":"STREET","length":20},{"name":"SECT","type":"esriFieldTypeString","alias":"SECT","length":8},{"name":"MAREA","type":"esriFieldTypeString","alias":"MAREA","length":12},{"name":"LANE","type":"esriFieldTypeString","alias":"LANE","length":10},{"name":"ALLEY","type":"esriFieldTypeString","alias":"ALLEY","length":10},{"name":"HOUSE_NO","type":"esriFieldTypeString","alias":"HOUSE_NO","length":20},{"name":"E_COORD97","type":"esriFieldTypeDouble","alias":"E_COORD97"},{"name":"N_COORD97","type":"esriFieldTypeDouble","alias":"N_COORD97"},{"name":"ADDRESS","type":"esriFieldTypeString","alias":"ADDRESS","length":50},{"name":"OBJECTID","type":"esriFieldTypeOID","alias":"OBJECTID"}],"features":[{"attributes":{"ID":10001,"DIS_CODE":0,"TOWNNAME":"官田區","LI":"官田里","LIN":"13鄰","STREET":" ","SECT":" ","MAREA":"官田","LANE":" ","ALLEY":" ","HOUSE_NO":"１２９號","E_COORD97":182362.88,"N_COORD97":2565015.3700000001,"ADDRESS":"官田１２９號","OBJECTID":10001},"geometry":{"x":182362.88000000082,"y":2565015.370000001}},{"attributes":{"ID":10002,"DIS_CODE":0,"TOWNNAME":"官田區","LI":"官田里","LIN":"13鄰","STREET":" ","SECT":" ","MAREA":"官田","LANE":" ","ALLEY":" ","HOUSE_NO":"１３０號","E_COORD97":182363.10999999999,"N_COORD97":2565009.3100000001,"ADDRESS":"官田１３０號","OBJECTID":10002},"geometry":{"x":182363.11000000127,"y":2565009.3100000042}},{"attributes":{"ID":10003,"DIS_CODE":0,"TOWNNAME":"官田區","LI":"官田里","LIN":"13鄰","STREET":" ","SECT":" ","MAREA":"官田","LANE":" ","ALLEY":" ","HOUSE_NO":"１３１號","E_COORD97":182362.95000000001,"N_COORD97":2565005.4199999999,"ADDRESS":"官田１３１號","OBJECTID":10003},"geometry":{"x":182362.95000000019,"y":2565005.4200000018}},{"attributes":{"ID":10004,"DIS_CODE":0,"TOWNNAME":"官田區","LI":"官田里","LIN":"13鄰","STREET":" ","SECT":" ","MAREA":"官田","LANE":" ","ALLEY":" ","HOUSE_NO":"１３２號","E_COORD97":182362.78,"N_COORD97":2565001.5299999998,"ADDRESS":"官田１３２號","OBJECTID":10004},"geometry":{"x":182362.78000000026,"y":2565001.5299999993}},{"attributes":{"ID":10005,"DIS_CODE":0,"TOWNNAME":"官田區","LI":"官田里","LIN":"13鄰","STREET":" ","SECT":" ","MAREA":"官田","LANE":" ","ALLEY":" ","HOUSE_NO":"１３３號","E_COORD97":182362.62,"N_COORD97":2564997.6299999999,"ADDRESS":"官田１３３號","OBJECTID":10005},"geometry":{"x":182362.62000000104,"y":2564997.629999999}},{"attributes":{"ID":10006,"DIS_CODE":0,"TOWNNAME":"官田區","LI":"官田里","LIN":"13鄰","STREET":" ","SECT":" ","MAREA":"官田","LANE":" ","ALLEY":" ","HOUSE_NO":"１４０號","E_COORD97":182404.70000000001,"N_COORD97":2564990.0499999998,"ADDRESS":"官田１４０號","OBJECTID":10006},"geometry":{"x":182404.70000000112,"y":2564990.0500000007}},{"attributes":{"ID":10007,"DIS_CODE":0,"TOWNNAME":"官田區","LI":"官田里","LIN":"13鄰","STREET":" ","SECT":" ","MAREA":"官田","LANE":" ","ALLEY":" ","HOUSE_NO":"１４２號","E_COORD97":182415.69,"N_COORD97":2565031.4900000002,"ADDRESS":"官田１４２號","OBJECTID":10007},"geometry":{"x":182415.69000000041,"y":2565031.4900000039}},{"attributes":{"ID":10008,"DIS_CODE":0,"TOWNNAME":"官田區","LI":"官田里","LIN":"13鄰","STREET":" ","SECT":" ","MAREA":"官田","LANE":" ","ALLEY":" ","HOUSE_NO":"１４４號","E_COORD97":182429.13,"N_COORD97":2565037.6099999999,"ADDRESS":"官田１４４號","OBJECTID":10008},"geometry":{"x":182429.12999999989,"y":2565037.6100000013}},{"attributes":{"ID":10009,"DIS_CODE":0,"TOWNNAME":"官田區","LI":"官田里","LIN":"13鄰","STREET":" ","SECT":" ","MAREA":"官田","LANE":" ","ALLEY":" ","HOUSE_NO":"１４５號","E_COORD97":182440.54999999999,"N_COORD97":2565037.75,"ADDRESS":"官田１４５號","OBJECTID":10009},"geometry":{"x":182440.55000000168,"y":2565037.7500000019}},{"attributes":{"ID":10010,"DIS_CODE":0,"TOWNNAME":"官田區","LI":"官田里","LIN":"13鄰","STREET":" ","SECT":" ","MAREA":"官田","LANE":" ","ALLEY":" ","HOUSE_NO":"１４７號","E_COORD97":182441.97,"N_COORD97":2565002.5600000001,"ADDRESS":"官田１４７號","OBJECTID":10010},"geometry":{"x":182441.96999999974,"y":2565002.5600000005}},{"attributes":{"ID":10011,"DIS_CODE":0,"TOWNNAME":"仁德區","LI":"中生里","LIN":"13鄰","STREET":" ","SECT":" ","MAREA":"中洲","LANE":" ","ALLEY":" ","HOUSE_NO":"２２６之２５號","E_COORD97":172889.32999999999,"N_COORD97":2533977.5499999998,"ADDRESS":"中洲２２６之２５號","OBJECTID":10011},"geometry":{"x":172889.33000000007,"y":2533977.5500000007}},{"attributes":{"ID":10012,"DIS_CODE":0,"TOWNNAME":"仁德區","LI":"中生里","LIN":"13鄰","STREET":" ","SECT":" ","MAREA":"中洲","LANE":" ","ALLEY":" ","HOUSE_NO":"２１８號之１","E_COORD97":173083.54000000001,"N_COORD97":2534045.04,"ADDRESS":"中洲２１８號之１","OBJECTID":10012},"geometry":{"x":173083.54000000097,"y":2534045.0400000028}},{"attributes":{"ID":10013,"DIS_CODE":0,"TOWNNAME":"仁德區","LI":"中洲里","LIN":"13鄰","STREET":" ","SECT":" ","MAREA":"中洲","LANE":" ","ALLEY":" ","HOUSE_NO":"３５０號","E_COORD97":173326.07000000001,"N_COORD97":2534132.4900000002,"ADDRESS":"中洲３５０號","OBJECTID":10013},"geometry":{"x":173326.07000000123,"y":2534132.4900000021}},{"attributes":{"ID":10014,"DIS_CODE":0,"TOWNNAME":"仁德區","LI":"中洲里","LIN":"13鄰","STREET":" ","SECT":" ","MAREA":"中洲","LANE":" ","ALLEY":" ","HOUSE_NO":"３５４號之１","E_COORD97":173344.01999999999,"N_COORD97":2534157.29,"ADDRESS":"中洲３５４號之１","OBJECTID":10014},"geometry":{"x":173344.02000000142,"y":2534157.2899999991}},{"attributes":{"ID":10015,"DIS_CODE":0,"TOWNNAME":"善化區","LI":"田寮里","LIN":"13鄰","STREET":" ","SECT":" ","MAREA":"六分寮","LANE":" ","ALLEY":" ","HOUSE_NO":"１４３之１６號","E_COORD97":178768.51000000001,"N_COORD97":2561233.27,"ADDRESS":"六分寮１４３之１６號","OBJECTID":10015},"geometry":{"x":178768.50999999978,"y":2561233.2699999996}},{"attributes":{"ID":10016,"DIS_CODE":0,"TOWNNAME":"善化區","LI":"小新里","LIN":"13鄰","STREET":" ","SECT":" ","MAREA":"小新營","LANE":" ","ALLEY":" ","HOUSE_NO":"１０６之２９號","E_COORD97":179669.29999999999,"N_COORD97":2558126.77,"ADDRESS":"小新營１０６之２９號","OBJECTID":10016},"geometry":{"x":179669.30000000075,"y":2558126.7700000014}},{"attributes":{"ID":10017,"DIS_CODE":0,"TOWNNAME":"善化區","LI":"小新里","LIN":"13鄰","STREET":" ","SECT":" ","MAREA":"小新營","LANE":" ","ALLEY":" ","HOUSE_NO":"１０６之２１號","E_COORD97":179626.98000000001,"N_COORD97":2558125.27,"ADDRESS":"小新營１０６之２１號","OBJECTID":10017},"geometry":{"x":179626.98000000045,"y":2558125.2699999996}},{"attributes":{"ID":10018,"DIS_CODE":0,"TOWNNAME":"善化區","LI":"小新里","LIN":"13鄰","STREET":" ","SECT":" ","MAREA":"小新營","LANE":" ","ALLEY":" ","HOUSE_NO":"１０６之４０號","E_COORD97":179609.76999999999,"N_COORD97":2558177.52,"ADDRESS":"小新營１０６之４０號","OBJECTID":10018},"geometry":{"x":179609.77000000048,"y":2558177.5199999996}},{"attributes":{"ID":10019,"DIS_CODE":0,"TOWNNAME":"善化區","LI":"六德里","LIN":"13鄰","STREET":" ","SECT":" ","MAREA":"六分寮","LANE":" ","ALLEY":" ","HOUSE_NO":"３０６號之１６","E_COORD97":178570.67999999999,"N_COORD97":2561534.02,"ADDRESS":"六分寮３０６號之１６","OBJECTID":10019},"geometry":{"x":178570.6799999997,"y":2561534.0199999996}},{"attributes":{"ID":10020,"DIS_CODE":0,"TOWNNAME":"麻豆區","LI":"油車里","LIN":"13鄰","STREET":" ","SECT":" ","MAREA":"油車","LANE":" ","ALLEY":" ","HOUSE_NO":"９９號之１","E_COORD97":172273.10999999999,"N_COORD97":2565663.77,"ADDRESS":"油車９９號之１","OBJECTID":10020},"geometry":{"x":172273.11000000127,"y":2565663.7700000014}},{"attributes":{"ID":10021,"DIS_CODE":0,"TOWNNAME":"南區","LI":"同安里","LIN":"13鄰","STREET":"明興路","SECT":" ","MAREA":" ","LANE":"１２８５巷","ALLEY":"３０弄","HOUSE_NO":"４２號之１","E_COORD97":166441.69,"N_COORD97":2535945.1800000002,"ADDRESS":"明興路１２８５巷３０弄４２號之１","OBJECTID":10021},"geometry":{"x":166441.69000000134,"y":2535945.1799999997}},{"attributes":{"ID":10022,"DIS_CODE":0,"TOWNNAME":"南區","LI":"同安里","LIN":"13鄰","STREET":"明興路","SECT":" ","MAREA":" ","LANE":"１２８５巷","ALLEY":"３０弄","HOUSE_NO":"４８號","E_COORD97":166440.20999999999,"N_COORD97":2535937.0899999999,"ADDRESS":"明興路１２８５巷３０弄４８號","OBJECTID":10022},"geometry":{"x":166440.20999999996,"y":2535937.0899999999}},{"attributes":{"ID":10023,"DIS_CODE":0,"TOWNNAME":"南區","LI":"同安里","LIN":"13鄰","STREET":"明興路","SECT":" ","MAREA":" ","LANE":"１２８５巷","ALLEY":"３０弄","HOUSE_NO":"５０號","E_COORD97":166429.39000000001,"N_COORD97":2535944.2799999998,"ADDRESS":"明興路１２８５巷３０弄５０號","OBJECTID":10023},"geometry":{"x":166429.3900000006,"y":2535944.2799999993}},{"attributes":{"ID":10024,"DIS_CODE":0,"TOWNNAME":"南區","LI":"同安里","LIN":"13鄰","STREET":"明興路","SECT":" ","MAREA":" ","LANE":"１２８５巷","ALLEY":"３０弄","HOUSE_NO":"５２號","E_COORD97":166425.41,"N_COORD97":2535945.8399999999,"ADDRESS":"明興路１２８５巷３０弄５２號","OBJECTID":10024},"geometry":{"x":166425.41000000015,"y":2535945.8400000036}},{"attributes":{"ID":10025,"DIS_CODE":0,"TOWNNAME":"南區","LI":"同安里","LIN":"13鄰","STREET":"明興路","SECT":" ","MAREA":" ","LANE":"１２８５巷","ALLEY":"３０弄","HOUSE_NO":"５４號","E_COORD97":166421.17000000001,"N_COORD97":2535946.8700000001,"ADDRESS":"明興路１２８５巷３０弄５４號","OBJECTID":10025},"geometry":{"x":166421.16999999993,"y":2535946.8700000048}},{"attributes":{"ID":10026,"DIS_CODE":0,"TOWNNAME":"南區","LI":"同安里","LIN":"13鄰","STREET":"明興路","SECT":" ","MAREA":" ","LANE":"１２８５巷","ALLEY":"３０弄","HOUSE_NO":"５６號","E_COORD97":166416.48999999999,"N_COORD97":2535947.2200000002,"ADDRESS":"明興路１２８５巷３０弄５６號","OBJECTID":10026},"geometry":{"x":166416.49000000022,"y":2535947.2200000007}},{"attributes":{"ID":10027,"DIS_CODE":0,"TOWNNAME":"南區","LI":"同安里","LIN":"13鄰","STREET":"明興路","SECT":" ","MAREA":" ","LANE":"１２８５巷","ALLEY":"３０弄","HOUSE_NO":"５８號","E_COORD97":166412.16,"N_COORD97":2535948,"ADDRESS":"明興路１２８５巷３０弄５８號","OBJECTID":10027},"geometry":{"x":166412.16000000201,"y":2535948}},{"attributes":{"ID":10028,"DIS_CODE":0,"TOWNNAME":"南區","LI":"同安里","LIN":"13鄰","STREET":"明興路","SECT":" ","MAREA":" ","LANE":"１２８５巷","ALLEY":"３０弄","HOUSE_NO":"６０號","E_COORD97":166406.88,"N_COORD97":2535947.3100000001,"ADDRESS":"明興路１２８５巷３０弄６０號","OBJECTID":10028},"geometry":{"x":166406.88000000175,"y":2535947.3100000024}},{"attributes":{"ID":10029,"DIS_CODE":0,"TOWNNAME":"南區","LI":"同安里","LIN":"13鄰","STREET":"明興路","SECT":" ","MAREA":" ","LANE":"１２８５巷","ALLEY":"３０弄","HOUSE_NO":"６２號","E_COORD97":166403.42000000001,"N_COORD97":2535929.6299999999,"ADDRESS":"明興路１２８５巷３０弄６２號","OBJECTID":10029},"geometry":{"x":166403.42000000179,"y":2535929.6300000027}},{"attributes":{"ID":10030,"DIS_CODE":0,"TOWNNAME":"南區","LI":"同安里","LIN":"13鄰","STREET":"明興路","SECT":" ","MAREA":" ","LANE":"１２８５巷","ALLEY":"３０弄","HOUSE_NO":"６６號","E_COORD97":166412.60000000001,"N_COORD97":2535928.0699999998,"ADDRESS":"明興路１２８５巷３０弄６６號","OBJECTID":10030},"geometry":{"x":166412.60000000056,"y":2535928.070000004}},{"attributes":{"ID":10031,"DIS_CODE":0,"TOWNNAME":"南區","LI":"同安里","LIN":"13鄰","STREET":"明興路","SECT":" ","MAREA":" ","LANE":"１２８５巷","ALLEY":"３０弄","HOUSE_NO":"６８號","E_COORD97":166417.26999999999,"N_COORD97":2535926.6000000001,"ADDRESS":"明興路１２８５巷３０弄６８號","OBJECTID":10031},"geometry":{"x":166417.26999999955,"y":2535926.5999999996}},{"attributes":{"ID":10032,"DIS_CODE":0,"TOWNNAME":"南區","LI":"同安里","LIN":"13鄰","STREET":"明興路","SECT":" ","MAREA":" ","LANE":"１２８５巷","ALLEY":"３０弄","HOUSE_NO":"７０號","E_COORD97":166421.85999999999,"N_COORD97":2535926.6899999999,"ADDRESS":"明興路１２８５巷３０弄７０號","OBJECTID":10032},"geometry":{"x":166421.86000000127,"y":2535926.6900000013}},{"attributes":{"ID":10033,"DIS_CODE":0,"TOWNNAME":"南區","LI":"同安里","LIN":"13鄰","STREET":"明興路","SECT":" ","MAREA":" ","LANE":"１２８５巷","ALLEY":"３０弄","HOUSE_NO":"７２號","E_COORD97":166425.48999999999,"N_COORD97":2535924.7000000002,"ADDRESS":"明興路１２８５巷３０弄７２號","OBJECTID":10033},"geometry":{"x":166425.49000000115,"y":2535924.6999999993}},{"attributes":{"ID":10034,"DIS_CODE":0,"TOWNNAME":"北區","LI":"大港里","LIN":"13鄰","STREET":"大興街","SECT":" ","MAREA":" ","LANE":"２８０巷","ALLEY":"３５弄","HOUSE_NO":"８號","E_COORD97":166567.41,"N_COORD97":2545773.1299999999,"ADDRESS":"大興街２８０巷３５弄８號","OBJECTID":10034},"geometry":{"x":166567.41000000015,"y":2545773.1300000008}},{"attributes":{"ID":10035,"DIS_CODE":0,"TOWNNAME":"南區","LI":"同安里","LIN":"13鄰","STREET":"明興路","SECT":" ","MAREA":" ","LANE":"１２８５巷","ALLEY":"３０弄","HOUSE_NO":"７４號","E_COORD97":166436.14999999999,"N_COORD97":2535927.8999999999,"ADDRESS":"明興路１２８５巷３０弄７４號","OBJECTID":10035},"geometry":{"x":166436.15000000224,"y":2535927.9000000004}},{"attributes":{"ID":10036,"DIS_CODE":0,"TOWNNAME":"南區","LI":"同安里","LIN":"13鄰","STREET":"明興路","SECT":" ","MAREA":" ","LANE":"１２８５巷","ALLEY":"３０弄","HOUSE_NO":"７６號","E_COORD97":166436.41,"N_COORD97":2535923.1400000001,"ADDRESS":"明興路１２８５巷３０弄７６號","OBJECTID":10036},"geometry":{"x":166436.41000000108,"y":2535923.1400000006}},{"attributes":{"ID":10037,"DIS_CODE":0,"TOWNNAME":"南區","LI":"同安里","LIN":"13鄰","STREET":"明興路","SECT":" ","MAREA":" ","LANE":"１２８５巷","ALLEY":"３０弄","HOUSE_NO":"７８號","E_COORD97":166437.01000000001,"N_COORD97":2535919.9500000002,"ADDRESS":"明興路１２８５巷３０弄７８號","OBJECTID":10037},"geometry":{"x":166437.01000000071,"y":2535919.9499999993}},{"attributes":{"ID":10038,"DIS_CODE":0,"TOWNNAME":"南區","LI":"同安里","LIN":"13鄰","STREET":"明興路","SECT":" ","MAREA":" ","LANE":"１２８５巷","ALLEY":"３０弄","HOUSE_NO":"８０號","E_COORD97":166436.14999999999,"N_COORD97":2535915.4500000002,"ADDRESS":"明興路１２８５巷３０弄８０號","OBJECTID":10038},"geometry":{"x":166436.15000000224,"y":2535915.4500000011}},{"attributes":{"ID":10039,"DIS_CODE":0,"TOWNNAME":"南區","LI":"府南里","LIN":"13鄰","STREET":"永成路","SECT":"三段","MAREA":" ","LANE":"３７２巷","ALLEY":"５１弄","HOUSE_NO":"２１號","E_COORD97":167617.57000000001,"N_COORD97":2541077.9900000002,"ADDRESS":"永成路三段３７２巷５１弄２１號","OBJECTID":10039},"geometry":{"x":167617.5700000003,"y":2541077.9900000002}},{"attributes":{"ID":10040,"DIS_CODE":0,"TOWNNAME":"南區","LI":"府南里","LIN":"13鄰","STREET":"永成路","SECT":"三段","MAREA":" ","LANE":"３７２巷","ALLEY":"５１弄","HOUSE_NO":"２３號","E_COORD97":167613.35999999999,"N_COORD97":2541077.3199999998,"ADDRESS":"永成路三段３７２巷５１弄２３號","OBJECTID":10040},"geometry":{"x":167613.36000000127,"y":2541077.3200000022}},{"attributes":{"ID":10041,"DIS_CODE":0,"TOWNNAME":"南區","LI":"府南里","LIN":"13鄰","STREET":"永成路","SECT":"三段","MAREA":" ","LANE":"３７２巷","ALLEY":"５１弄","HOUSE_NO":"２５號","E_COORD97":167608.38,"N_COORD97":2541076.2200000002,"ADDRESS":"永成路三段３７２巷５１弄２５號","OBJECTID":10041},"geometry":{"x":167608.37999999989,"y":2541076.2200000007}},{"attributes":{"ID":10042,"DIS_CODE":0,"TOWNNAME":"南區","LI":"府南里","LIN":"13鄰","STREET":"永成路","SECT":"三段","MAREA":" ","LANE":"３７２巷","ALLEY":"５１弄","HOUSE_NO":"２７號","E_COORD97":167602.51000000001,"N_COORD97":2541074.6699999999,"ADDRESS":"永成路三段３７２巷５１弄２７號","OBJECTID":10042},"geometry":{"x":167602.50999999978,"y":2541074.6700000018}},{"attributes":{"ID":10043,"DIS_CODE":0,"TOWNNAME":"南區","LI":"府南里","LIN":"13鄰","STREET":"永成路","SECT":"三段","MAREA":" ","LANE":"３７２巷","ALLEY":"５１弄","HOUSE_NO":"２８號","E_COORD97":167631.32999999999,"N_COORD97":2541082.6299999999,"ADDRESS":"永成路三段３７２巷５１弄２８號","OBJECTID":10043},"geometry":{"x":167631.33000000194,"y":2541082.6299999971}},{"attributes":{"ID":10044,"DIS_CODE":0,"TOWNNAME":"南區","LI":"府南里","LIN":"13鄰","STREET":"永成路","SECT":"三段","MAREA":" ","LANE":"３７２巷","ALLEY":"５１弄","HOUSE_NO":"２９號","E_COORD97":167598.19,"N_COORD97":2541073.4500000002,"ADDRESS":"永成路三段３７２巷５１弄２９號","OBJECTID":10044},"geometry":{"x":167598.19000000041,"y":2541073.4499999993}},{"attributes":{"ID":10045,"DIS_CODE":0,"TOWNNAME":"南區","LI":"府南里","LIN":"13鄰","STREET":"永成路","SECT":"三段","MAREA":" ","LANE":"３７２巷","ALLEY":"５１弄","HOUSE_NO":"３０號","E_COORD97":167635.98000000001,"N_COORD97":2541083.52,"ADDRESS":"永成路三段３７２巷５１弄３０號","OBJECTID":10045},"geometry":{"x":167635.98000000231,"y":2541083.5199999996}},{"attributes":{"ID":10046,"DIS_CODE":0,"TOWNNAME":"南區","LI":"府南里","LIN":"13鄰","STREET":"永成路","SECT":"三段","MAREA":" ","LANE":"３７２巷","ALLEY":"５１弄","HOUSE_NO":"３２號","E_COORD97":167640.41,"N_COORD97":2541084.3999999999,"ADDRESS":"永成路三段３７２巷５１弄３２號","OBJECTID":10046},"geometry":{"x":167640.41000000015,"y":2541084.4000000004}},{"attributes":{"ID":10047,"DIS_CODE":0,"TOWNNAME":"南區","LI":"府南里","LIN":"13鄰","STREET":"永成路","SECT":"三段","MAREA":" ","LANE":"３７２巷","ALLEY":"５１弄","HOUSE_NO":"３３號","E_COORD97":167601.39999999999,"N_COORD97":2541084.8399999999,"ADDRESS":"永成路三段３７２巷５１弄３３號","OBJECTID":10047},"geometry":{"x":167601.4000000013,"y":2541084.8399999999}},{"attributes":{"ID":10048,"DIS_CODE":0,"TOWNNAME":"南區","LI":"府南里","LIN":"13鄰","STREET":"永成路","SECT":"三段","MAREA":" ","LANE":"３７２巷","ALLEY":"５１弄","HOUSE_NO":"３５號","E_COORD97":167605.82999999999,"N_COORD97":2541085.8399999999,"ADDRESS":"永成路三段３７２巷５１弄３５號","OBJECTID":10048},"geometry":{"x":167605.82999999914,"y":2541085.8400000036}},{"attributes":{"ID":10049,"DIS_CODE":0,"TOWNNAME":"南區","LI":"府南里","LIN":"13鄰","STREET":"永成路","SECT":"三段","MAREA":" ","LANE":"３７２巷","ALLEY":"５１弄","HOUSE_NO":"３７號","E_COORD97":167611.26000000001,"N_COORD97":2541087.3900000001,"ADDRESS":"永成路三段３７２巷５１弄３７號","OBJECTID":10049},"geometry":{"x":167611.26000000164,"y":2541087.3900000025}},{"attributes":{"ID":10050,"DIS_CODE":0,"TOWNNAME":"南區","LI":"日新里","LIN":"12鄰","STREET":"新興路","SECT":" ","MAREA":" ","LANE":"４３９巷","ALLEY":"２弄","HOUSE_NO":"２號之１","E_COORD97":166916.87,"N_COORD97":2541723.3599999999,"ADDRESS":"新興路４３９巷２弄２號之１","OBJECTID":10050},"geometry":{"x":166916.87000000011,"y":2541723.3600000013}},{"attributes":{"ID":10051,"DIS_CODE":0,"TOWNNAME":"歸仁區","LI":"後市里","LIN":"13鄰","STREET":"中山路","SECT":"二段","MAREA":" ","LANE":" ","ALLEY":" ","HOUSE_NO":"２２３號二樓","E_COORD97":177091.98999999999,"N_COORD97":2540825.25,"ADDRESS":"中山路二段２２３號二樓","OBJECTID":10051},"geometry":{"x":177091.99000000115,"y":2540825.2499999981}},{"attributes":{"ID":10052,"DIS_CODE":0,"TOWNNAME":"永康區","LI":"北灣里","LIN":"13鄰","STREET":"文賢街","SECT":" ","MAREA":" ","LANE":" ","ALLEY":" ","HOUSE_NO":"２８３號","E_COORD97":175187.89000000001,"N_COORD97":2545809.46,"ADDRESS":"文賢街２８３號","OBJECTID":10052},"geometry":{"x":175187.8900000006,"y":2545809.4600000028}},{"attributes":{"ID":10053,"DIS_CODE":0,"TOWNNAME":"永康區","LI":"北灣里","LIN":"13鄰","STREET":"文賢街","SECT":" ","MAREA":" ","LANE":" ","ALLEY":" ","HOUSE_NO":"３０３號","E_COORD97":175139.67999999999,"N_COORD97":2545817.0600000001,"ADDRESS":"文賢街３０３號","OBJECTID":10053},"geometry":{"x":175139.6799999997,"y":2545817.0600000005}},{"attributes":{"ID":10054,"DIS_CODE":0,"TOWNNAME":"善化區","LI":"小新里","LIN":"13鄰","STREET":" ","SECT":" ","MAREA":"小新營","LANE":" ","ALLEY":" ","HOUSE_NO":"１０６之８號","E_COORD97":179662.79000000001,"N_COORD97":2558087.77,"ADDRESS":"小新營１０６之８號","OBJECTID":10054},"geometry":{"x":179662.79000000097,"y":2558087.7699999996}},{"attributes":{"ID":10055,"DIS_CODE":0,"TOWNNAME":"善化區","LI":"小新里","LIN":"13鄰","STREET":" ","SECT":" ","MAREA":"小新營","LANE":" ","ALLEY":" ","HOUSE_NO":"１０６號之３","E_COORD97":179672.85000000001,"N_COORD97":2558061.02,"ADDRESS":"小新營１０６號之３","OBJECTID":10055},"geometry":{"x":179672.84999999963,"y":2558061.0200000014}},{"attributes":{"ID":10056,"DIS_CODE":0,"TOWNNAME":"永康區","LI":"正強里","LIN":"13鄰","STREET":"正強街","SECT":" ","MAREA":" ","LANE":" ","ALLEY":" ","HOUSE_NO":"１２１號","E_COORD97":173322.59,"N_COORD97":2547439.3100000001,"ADDRESS":"正強街１２１號","OBJECTID":10056},"geometry":{"x":173322.59000000078,"y":2547439.3100000005}},{"attributes":{"ID":10057,"DIS_CODE":0,"TOWNNAME":"善化區","LI":"田寮里","LIN":"13鄰","STREET":" ","SECT":" ","MAREA":"六分寮","LANE":" ","ALLEY":" ","HOUSE_NO":"１４１號之１６","E_COORD97":178678.39999999999,"N_COORD97":2561254.77,"ADDRESS":"六分寮１４１號之１６","OBJECTID":10057},"geometry":{"x":178678.40000000037,"y":2561254.7699999996}},{"attributes":{"ID":10058,"DIS_CODE":0,"TOWNNAME":"善化區","LI":"田寮里","LIN":"13鄰","STREET":" ","SECT":" ","MAREA":"六分寮","LANE":" ","ALLEY":" ","HOUSE_NO":"１４３號","E_COORD97":178743.76000000001,"N_COORD97":2561258.25,"ADDRESS":"六分寮１４３號","OBJECTID":10058},"geometry":{"x":178743.76000000071,"y":2561258.25}},{"attributes":{"ID":10059,"DIS_CODE":0,"TOWNNAME":"東區","LI":"崇成里","LIN":"13鄰","STREET":"崇道路","SECT":" ","MAREA":" ","LANE":" ","ALLEY":" ","HOUSE_NO":"２２號","E_COORD97":170669.17000000001,"N_COORD97":2541386.25,"ADDRESS":"崇道路２２號","OBJECTID":10059},"geometry":{"x":170669.17000000086,"y":2541386.2500000019}},{"attributes":{"ID":10060,"DIS_CODE":0,"TOWNNAME":"善化區","LI":"小新里","LIN":"13鄰","STREET":" ","SECT":" ","MAREA":"小新營","LANE":" ","ALLEY":" ","HOUSE_NO":"１０３之６號","E_COORD97":179697.23999999999,"N_COORD97":2558191.02,"ADDRESS":"小新營１０３之６號","OBJECTID":10060},"geometry":{"x":179697.24000000115,"y":2558191.0199999996}},{"attributes":{"ID":10061,"DIS_CODE":0,"TOWNNAME":"善化區","LI":"田寮里","LIN":"13鄰","STREET":" ","SECT":" ","MAREA":"六分寮","LANE":" ","ALLEY":" ","HOUSE_NO":"１４３號之３","E_COORD97":178736.51000000001,"N_COORD97":2561294.52,"ADDRESS":"六分寮１４３號之３","OBJECTID":10061},"geometry":{"x":178736.50999999978,"y":2561294.5200000014}},{"attributes":{"ID":10062,"DIS_CODE":0,"TOWNNAME":"東區","LI":"關聖里","LIN":"20鄰","STREET":"裕信路","SECT":" ","MAREA":" ","LANE":" ","ALLEY":" ","HOUSE_NO":"２３８之１１號","E_COORD97":172539.66,"N_COORD97":2542857.0299999998,"ADDRESS":"裕信路２３８之１１號","OBJECTID":10062},"geometry":{"x":172539.66000000015,"y":2542857.0300000031}},{"attributes":{"ID":10063,"DIS_CODE":0,"TOWNNAME":"東區","LI":"關聖里","LIN":"20鄰","STREET":"裕信路","SECT":" ","MAREA":" ","LANE":" ","ALLEY":" ","HOUSE_NO":"２３８之１２號","E_COORD97":172534.34,"N_COORD97":2542857.0299999998,"ADDRESS":"裕信路２３８之１２號","OBJECTID":10063},"geometry":{"x":172534.34000000078,"y":2542857.0300000031}},{"attributes":{"ID":10064,"DIS_CODE":0,"TOWNNAME":"東區","LI":"關聖里","LIN":"20鄰","STREET":"裕信路","SECT":" ","MAREA":" ","LANE":" ","ALLEY":" ","HOUSE_NO":"２３８之１３號","E_COORD97":172528.88,"N_COORD97":2542857.3300000001,"ADDRESS":"裕信路２３８之１３號","OBJECTID":10064},"geometry":{"x":172528.88000000082,"y":2542857.3300000019}},{"attributes":{"ID":10065,"DIS_CODE":0,"TOWNNAME":"東區","LI":"關聖里","LIN":"20鄰","STREET":"裕信路","SECT":" ","MAREA":" ","LANE":" ","ALLEY":" ","HOUSE_NO":"２３８之１５號","E_COORD97":172522.53,"N_COORD97":2542857.6200000001,"ADDRESS":"裕信路２３８之１５號","OBJECTID":10065},"geometry":{"x":172522.53000000212,"y":2542857.620000001}},{"attributes":{"ID":10066,"DIS_CODE":0,"TOWNNAME":"安平區","LI":"港仔里","LIN":"13鄰","STREET":"運河路","SECT":" ","MAREA":" ","LANE":"１３巷","ALLEY":"６弄","HOUSE_NO":"２號","E_COORD97":164195.06,"N_COORD97":2544446.29,"ADDRESS":"運河路１３巷６弄２號","OBJECTID":10066},"geometry":{"x":164195.06000000052,"y":2544446.290000001}},{"attributes":{"ID":10067,"DIS_CODE":0,"TOWNNAME":"安平區","LI":"港仔里","LIN":"13鄰","STREET":"運河路","SECT":" ","MAREA":" ","LANE":"１３巷","ALLEY":"６弄","HOUSE_NO":"３號","E_COORD97":164210.37,"N_COORD97":2544447.2400000002,"ADDRESS":"運河路１３巷６弄３號","OBJECTID":10067},"geometry":{"x":164210.37000000197,"y":2544447.2400000021}},{"attributes":{"ID":10068,"DIS_CODE":0,"TOWNNAME":"安平區","LI":"港仔里","LIN":"13鄰","STREET":"運河路","SECT":" ","MAREA":" ","LANE":"１３巷","ALLEY":"６弄","HOUSE_NO":"３號之１","E_COORD97":164217.26000000001,"N_COORD97":2544447.2400000002,"ADDRESS":"運河路１３巷６弄３號之１","OBJECTID":10068},"geometry":{"x":164217.25999999978,"y":2544447.2400000021}},{"attributes":{"ID":10069,"DIS_CODE":0,"TOWNNAME":"安平區","LI":"港仔里","LIN":"13鄰","STREET":"運河路","SECT":" ","MAREA":" ","LANE":"１３巷","ALLEY":"６弄","HOUSE_NO":"５號","E_COORD97":164210.84,"N_COORD97":2544429.27,"ADDRESS":"運河路１３巷６弄５號","OBJECTID":10069},"geometry":{"x":164210.84000000078,"y":2544429.2700000014}},{"attributes":{"ID":10070,"DIS_CODE":0,"TOWNNAME":"安平區","LI":"文平里","LIN":"13鄰","STREET":"建平五街","SECT":" ","MAREA":" ","LANE":"２２巷","ALLEY":"３６弄","HOUSE_NO":"１號","E_COORD97":166091.51999999999,"N_COORD97":2543199.04,"ADDRESS":"建平五街２２巷３６弄１號","OBJECTID":10070},"geometry":{"x":166091.51999999955,"y":2543199.0400000028}},{"attributes":{"ID":10071,"DIS_CODE":0,"TOWNNAME":"北區","LI":"成德里","LIN":"13鄰","STREET":"海安路","SECT":"三段","MAREA":" ","LANE":"５００巷","ALLEY":"７１弄","HOUSE_NO":"２號","E_COORD97":168229.17000000001,"N_COORD97":2545722.7999999998,"ADDRESS":"海安路三段５００巷７１弄２號","OBJECTID":10071},"geometry":{"x":168229.17000000086,"y":2545722.8000000026}},{"attributes":{"ID":10072,"DIS_CODE":0,"TOWNNAME":"北區","LI":"成德里","LIN":"13鄰","STREET":"海安路","SECT":"三段","MAREA":" ","LANE":"５００巷","ALLEY":"７１弄","HOUSE_NO":"６號","E_COORD97":168234.09,"N_COORD97":2545723.4300000002,"ADDRESS":"海安路三段５００巷７１弄６號","OBJECTID":10072},"geometry":{"x":168234.08999999985,"y":2545723.4300000016}},{"attributes":{"ID":10073,"DIS_CODE":0,"TOWNNAME":"北區","LI":"成德里","LIN":"13鄰","STREET":"海安路","SECT":"三段","MAREA":" ","LANE":"５００巷","ALLEY":"７１弄","HOUSE_NO":"８號","E_COORD97":168239.32999999999,"N_COORD97":2545723.27,"ADDRESS":"海安路三段５００巷７１弄８號","OBJECTID":10073},"geometry":{"x":168239.33000000007,"y":2545723.2699999996}},{"attributes":{"ID":10074,"DIS_CODE":0,"TOWNNAME":"北區","LI":"成德里","LIN":"13鄰","STREET":"海安路","SECT":"三段","MAREA":" ","LANE":"５００巷","ALLEY":"７１弄","HOUSE_NO":"１０號","E_COORD97":168243.92999999999,"N_COORD97":2545723.5899999999,"ADDRESS":"海安路三段５００巷７１弄１０號","OBJECTID":10074},"geometry":{"x":168243.93000000156,"y":2545723.5900000017}},{"attributes":{"ID":10075,"DIS_CODE":0,"TOWNNAME":"東區","LI":"關聖里","LIN":"20鄰","STREET":"裕信路","SECT":" ","MAREA":" ","LANE":" ","ALLEY":" ","HOUSE_NO":"２３８之１號","E_COORD97":172585.57000000001,"N_COORD97":2542857.0299999998,"ADDRESS":"裕信路２３８之１號","OBJECTID":10075},"geometry":{"x":172585.57000000123,"y":2542857.0300000031}},{"attributes":{"ID":10076,"DIS_CODE":0,"TOWNNAME":"東區","LI":"關聖里","LIN":"20鄰","STREET":"裕信路","SECT":" ","MAREA":" ","LANE":" ","ALLEY":" ","HOUSE_NO":"２３８之２號","E_COORD97":172581.29000000001,"N_COORD97":2542857.0299999998,"ADDRESS":"裕信路２３８之２號","OBJECTID":10076},"geometry":{"x":172581.29000000004,"y":2542857.0300000031}},{"attributes":{"ID":10077,"DIS_CODE":0,"TOWNNAME":"東區","LI":"關聖里","LIN":"20鄰","STREET":"裕信路","SECT":" ","MAREA":" ","LANE":" ","ALLEY":" ","HOUSE_NO":"２３８之３號","E_COORD97":172576.57000000001,"N_COORD97":2542857.3300000001,"ADDRESS":"裕信路２３８之３號","OBJECTID":10077},"geometry":{"x":172576.57000000216,"y":2542857.3300000019}},{"attributes":{"ID":10078,"DIS_CODE":0,"TOWNNAME":"東區","LI":"關聖里","LIN":"20鄰","STREET":"裕信路","SECT":" ","MAREA":" ","LANE":" ","ALLEY":" ","HOUSE_NO":"２３８之５號","E_COORD97":172571.54999999999,"N_COORD97":2542857.1800000002,"ADDRESS":"裕信路２３８之５號","OBJECTID":10078},"geometry":{"x":172571.55000000075,"y":2542857.1800000016}},{"attributes":{"ID":10079,"DIS_CODE":0,"TOWNNAME":"東區","LI":"關聖里","LIN":"20鄰","STREET":"裕信路","SECT":" ","MAREA":" ","LANE":" ","ALLEY":" ","HOUSE_NO":"２３８之６號","E_COORD97":172566.67000000001,"N_COORD97":2542857.48,"ADDRESS":"裕信路２３８之６號","OBJECTID":10079},"geometry":{"x":172566.66999999993,"y":2542857.4800000004}},{"attributes":{"ID":10080,"DIS_CODE":0,"TOWNNAME":"善化區","LI":"六德里","LIN":"13鄰","STREET":" ","SECT":" ","MAREA":"六分寮","LANE":" ","ALLEY":" ","HOUSE_NO":"３０６號之１","E_COORD97":178586.32000000001,"N_COORD97":2561518.02,"ADDRESS":"六分寮３０６號之１","OBJECTID":10080},"geometry":{"x":178586.32000000123,"y":2561518.0200000033}},{"attributes":{"ID":10081,"DIS_CODE":0,"TOWNNAME":"善化區","LI":"小新里","LIN":"13鄰","STREET":" ","SECT":" ","MAREA":"小新營","LANE":" ","ALLEY":" ","HOUSE_NO":"１０６之７號","E_COORD97":179655.01000000001,"N_COORD97":2558086.52,"ADDRESS":"小新營１０６之７號","OBJECTID":10081},"geometry":{"x":179655.00999999978,"y":2558086.5199999996}},{"attributes":{"ID":10082,"DIS_CODE":0,"TOWNNAME":"北區","LI":"成德里","LIN":"13鄰","STREET":"海安路","SECT":"三段","MAREA":" ","LANE":"５００巷","ALLEY":"７１弄","HOUSE_NO":"１２號","E_COORD97":168249.81,"N_COORD97":2545723.5899999999,"ADDRESS":"海安路三段５００巷７１弄１２號","OBJECTID":10082},"geometry":{"x":168249.81000000145,"y":2545723.5900000017}},{"attributes":{"ID":10083,"DIS_CODE":0,"TOWNNAME":"北區","LI":"成德里","LIN":"13鄰","STREET":"海安路","SECT":"三段","MAREA":" ","LANE":"５００巷","ALLEY":"７１弄","HOUSE_NO":"１６號","E_COORD97":168256.47,"N_COORD97":2545722.96,"ADDRESS":"海安路三段５００巷７１弄１６號","OBJECTID":10083},"geometry":{"x":168256.46999999974,"y":2545722.9600000009}},{"attributes":{"ID":10084,"DIS_CODE":0,"TOWNNAME":"北區","LI":"成德里","LIN":"13鄰","STREET":"海安路","SECT":"三段","MAREA":" ","LANE":"５００巷","ALLEY":"７１弄","HOUSE_NO":"３０號","E_COORD97":168229.48999999999,"N_COORD97":2545746.1299999999,"ADDRESS":"海安路三段５００巷７１弄３０號","OBJECTID":10084},"geometry":{"x":168229.49000000115,"y":2545746.1300000008}},{"attributes":{"ID":10085,"DIS_CODE":0,"TOWNNAME":"北區","LI":"成德里","LIN":"13鄰","STREET":"海安路","SECT":"三段","MAREA":" ","LANE":"５００巷","ALLEY":"７１弄","HOUSE_NO":"２８號","E_COORD97":168233.45000000001,"N_COORD97":2545745.8199999998,"ADDRESS":"海安路三段５００巷７１弄２８號","OBJECTID":10085},"geometry":{"x":168233.45000000019,"y":2545745.8200000022}},{"attributes":{"ID":10086,"DIS_CODE":0,"TOWNNAME":"北區","LI":"成德里","LIN":"13鄰","STREET":"海安路","SECT":"三段","MAREA":" ","LANE":"５００巷","ALLEY":"７１弄","HOUSE_NO":"２６號","E_COORD97":168238.38,"N_COORD97":2545746.1299999999,"ADDRESS":"海安路三段５００巷７１弄２６號","OBJECTID":10086},"geometry":{"x":168238.38000000082,"y":2545746.1300000008}},{"attributes":{"ID":10087,"DIS_CODE":0,"TOWNNAME":"北區","LI":"成德里","LIN":"13鄰","STREET":"海安路","SECT":"三段","MAREA":" ","LANE":"５００巷","ALLEY":"７１弄","HOUSE_NO":"２２號","E_COORD97":168243.29999999999,"N_COORD97":2545746.77,"ADDRESS":"海安路三段５００巷７１弄２２號","OBJECTID":10087},"geometry":{"x":168243.30000000168,"y":2545746.7699999996}},{"attributes":{"ID":10088,"DIS_CODE":0,"TOWNNAME":"北區","LI":"成德里","LIN":"13鄰","STREET":"海安路","SECT":"三段","MAREA":" ","LANE":"５００巷","ALLEY":"７１弄","HOUSE_NO":"２０號","E_COORD97":168249.01000000001,"N_COORD97":2545747.3999999999,"ADDRESS":"海安路三段５００巷７１弄２０號","OBJECTID":10088},"geometry":{"x":168249.01000000071,"y":2545747.3999999985}},{"attributes":{"ID":10089,"DIS_CODE":0,"TOWNNAME":"安南區","LI":"總頭里","LIN":"13鄰","STREET":"長溪路","SECT":"二段","MAREA":" ","LANE":" ","ALLEY":" ","HOUSE_NO":"４７５號","E_COORD97":168236.39000000001,"N_COORD97":2550383.77,"ADDRESS":"長溪路二段４７５號","OBJECTID":10089},"geometry":{"x":168236.3900000006,"y":2550383.7700000014}},{"attributes":{"ID":10090,"DIS_CODE":0,"TOWNNAME":"北區","LI":"成德里","LIN":"13鄰","STREET":"海安路","SECT":"三段","MAREA":" ","LANE":"５００巷","ALLEY":"７１弄","HOUSE_NO":"１８號","E_COORD97":168255.35999999999,"N_COORD97":2545748.04,"ADDRESS":"海安路三段５００巷７１弄１８號","OBJECTID":10090},"geometry":{"x":168255.3600000022,"y":2545748.0399999991}},{"attributes":{"ID":10091,"DIS_CODE":0,"TOWNNAME":"南區","LI":"新生里","LIN":"18鄰","STREET":"大同路","SECT":"二段","MAREA":" ","LANE":"１００巷","ALLEY":"２１弄","HOUSE_NO":"１０之１號","E_COORD97":169196.59,"N_COORD97":2542297.9500000002,"ADDRESS":"大同路二段１００巷２１弄１０之１號","OBJECTID":10091},"geometry":{"x":169196.59000000078,"y":2542297.9499999974}},{"attributes":{"ID":10092,"DIS_CODE":0,"TOWNNAME":"北區","LI":"文成里","LIN":"13鄰","STREET":"海安路","SECT":"三段","MAREA":" ","LANE":"２１９巷","ALLEY":"２６弄","HOUSE_NO":"５６號","E_COORD97":167933.25,"N_COORD97":2545355.7200000002,"ADDRESS":"海安路三段２１９巷２６弄５６號","OBJECTID":10092},"geometry":{"x":167933.25,"y":2545355.7199999988}},{"attributes":{"ID":10093,"DIS_CODE":0,"TOWNNAME":"北區","LI":"文成里","LIN":"13鄰","STREET":"海安路","SECT":"三段","MAREA":" ","LANE":"２１９巷","ALLEY":"２６弄","HOUSE_NO":"５２號","E_COORD97":167933,"N_COORD97":2545350.6400000001,"ADDRESS":"海安路三段２１９巷２６弄５２號","OBJECTID":10093},"geometry":{"x":167933,"y":2545350.6400000025}},{"attributes":{"ID":10094,"DIS_CODE":0,"TOWNNAME":"北區","LI":"文成里","LIN":"13鄰","STREET":"海安路","SECT":"三段","MAREA":" ","LANE":"２１９巷","ALLEY":"２６弄","HOUSE_NO":"５０號","E_COORD97":167933.25,"N_COORD97":2545346.7000000002,"ADDRESS":"海安路三段２１９巷２６弄５０號","OBJECTID":10094},"geometry":{"x":167933.25,"y":2545346.6999999993}},{"attributes":{"ID":10095,"DIS_CODE":0,"TOWNNAME":"北區","LI":"文成里","LIN":"13鄰","STREET":"海安路","SECT":"三段","MAREA":" ","LANE":"２１９巷","ALLEY":"２６弄","HOUSE_NO":"４８號","E_COORD97":167932.87,"N_COORD97":2545340.8599999999,"ADDRESS":"海安路三段２１９巷２６弄４８號","OBJECTID":10095},"geometry":{"x":167932.87000000197,"y":2545340.8600000013}},{"attributes":{"ID":10096,"DIS_CODE":0,"TOWNNAME":"北區","LI":"文成里","LIN":"13鄰","STREET":"海安路","SECT":"三段","MAREA":" ","LANE":"２１９巷","ALLEY":"２６弄","HOUSE_NO":"４６號","E_COORD97":167932.35999999999,"N_COORD97":2545335.7799999998,"ADDRESS":"海安路三段２１９巷２６弄４６號","OBJECTID":10096},"geometry":{"x":167932.36000000034,"y":2545335.7799999993}},{"attributes":{"ID":10097,"DIS_CODE":0,"TOWNNAME":"善化區","LI":"六德里","LIN":"13鄰","STREET":" ","SECT":" ","MAREA":"六分寮","LANE":" ","ALLEY":" ","HOUSE_NO":"３０６之１７號","E_COORD97":178569.67999999999,"N_COORD97":2561538.02,"ADDRESS":"六分寮３０６之１７號","OBJECTID":10097},"geometry":{"x":178569.68000000063,"y":2561538.0199999996}},{"attributes":{"ID":10098,"DIS_CODE":0,"TOWNNAME":"善化區","LI":"六德里","LIN":"13鄰","STREET":" ","SECT":" ","MAREA":"六分寮","LANE":" ","ALLEY":" ","HOUSE_NO":"３０６號之８","E_COORD97":178579.10000000001,"N_COORD97":2561545.02,"ADDRESS":"六分寮３０６號之８","OBJECTID":10098},"geometry":{"x":178579.10000000056,"y":2561545.0200000033}},{"attributes":{"ID":10099,"DIS_CODE":0,"TOWNNAME":"善化區","LI":"牛庄里","LIN":"13鄰","STREET":" ","SECT":" ","MAREA":"牛庄","LANE":" ","ALLEY":" ","HOUSE_NO":"１號之３１","E_COORD97":180352.17000000001,"N_COORD97":2559367.77,"ADDRESS":"牛庄１號之３１","OBJECTID":10099},"geometry":{"x":180352.16999999993,"y":2559367.7700000014}},{"attributes":{"ID":10100,"DIS_CODE":0,"TOWNNAME":"善化區","LI":"田寮里","LIN":"13鄰","STREET":" ","SECT":" ","MAREA":"六分寮","LANE":" ","ALLEY":" ","HOUSE_NO":"１４３號之１３","E_COORD97":178760.25,"N_COORD97":2561228.77,"ADDRESS":"六分寮１４３號之１３","OBJECTID":10100},"geometry":{"x":178760.25,"y":2561228.7700000014}},{"attributes":{"ID":10101,"DIS_CODE":0,"TOWNNAME":"北區","LI":"文成里","LIN":"13鄰","STREET":"海安路","SECT":"三段","MAREA":" ","LANE":"２１９巷","ALLEY":"２６弄","HOUSE_NO":"４２號","E_COORD97":167932.48999999999,"N_COORD97":2545330.7000000002,"ADDRESS":"海安路三段２１９巷２６弄４２號","OBJECTID":10101},"geometry":{"x":167932.49000000115,"y":2545330.700000003}},{"attributes":{"ID":10102,"DIS_CODE":0,"TOWNNAME":"北區","LI":"文成里","LIN":"13鄰","STREET":"海安路","SECT":"三段","MAREA":" ","LANE":"２１９巷","ALLEY":"２６弄","HOUSE_NO":"４０號","E_COORD97":167932.23999999999,"N_COORD97":2545326.6400000001,"ADDRESS":"海安路三段２１９巷２６弄４０號","OBJECTID":10102},"geometry":{"x":167932.24000000209,"y":2545326.6400000025}},{"attributes":{"ID":10103,"DIS_CODE":0,"TOWNNAME":"北區","LI":"文成里","LIN":"13鄰","STREET":"海安路","SECT":"三段","MAREA":" ","LANE":"２１９巷","ALLEY":"２６弄","HOUSE_NO":"３８號","E_COORD97":167932.23999999999,"N_COORD97":2545321.5600000001,"ADDRESS":"海安路三段２１９巷２６弄３８號","OBJECTID":10103},"geometry":{"x":167932.24000000209,"y":2545321.5600000005}},{"attributes":{"ID":10104,"DIS_CODE":0,"TOWNNAME":"南區","LI":"明亮里","LIN":"13鄰","STREET":"金華路","SECT":"一段","MAREA":" ","LANE":"３５２巷","ALLEY":"１９３弄","HOUSE_NO":"２４號","E_COORD97":167413.94,"N_COORD97":2540937.7599999998,"ADDRESS":"金華路一段３５２巷１９３弄２４號","OBJECTID":10104},"geometry":{"x":167413.93999999948,"y":2540937.7600000016}},{"attributes":{"ID":10105,"DIS_CODE":0,"TOWNNAME":"南區","LI":"明亮里","LIN":"13鄰","STREET":"金華路","SECT":"一段","MAREA":" ","LANE":"３５２巷","ALLEY":"１９３弄","HOUSE_NO":"２６號","E_COORD97":167409.94,"N_COORD97":2540943.0800000001,"ADDRESS":"金華路一段３５２巷１９３弄２６號","OBJECTID":10105},"geometry":{"x":167409.94000000041,"y":2540943.0800000019}},{"attributes":{"ID":10106,"DIS_CODE":0,"TOWNNAME":"善化區","LI":"田寮里","LIN":"13鄰","STREET":" ","SECT":" ","MAREA":"六分寮","LANE":" ","ALLEY":" ","HOUSE_NO":"１４３號之２","E_COORD97":178758.66,"N_COORD97":2561301.02,"ADDRESS":"六分寮１４３號之２","OBJECTID":10106},"geometry":{"x":178758.66000000108,"y":2561301.0200000033}},{"attributes":{"ID":10107,"DIS_CODE":0,"TOWNNAME":"南區","LI":"喜北里","LIN":"14鄰","STREET":"喜樹路","SECT":" ","MAREA":" ","LANE":"２２２巷","ALLEY":"８弄","HOUSE_NO":"１６號","E_COORD97":165572.91,"N_COORD97":2538102.0299999998,"ADDRESS":"喜樹路２２２巷８弄１６號","OBJECTID":10107},"geometry":{"x":165572.91000000201,"y":2538102.0300000012}},{"attributes":{"ID":10108,"DIS_CODE":0,"TOWNNAME":"官田區","LI":"二鎮里","LIN":"14鄰","STREET":" ","SECT":" ","MAREA":"程泰","LANE":" ","ALLEY":" ","HOUSE_NO":"１３號","E_COORD97":181629.45000000001,"N_COORD97":2566336.3900000001,"ADDRESS":"程泰１３號","OBJECTID":10108},"geometry":{"x":181629.44999999925,"y":2566336.3900000006}},{"attributes":{"ID":10109,"DIS_CODE":0,"TOWNNAME":"南區","LI":"同安里","LIN":"13鄰","STREET":"明興路","SECT":" ","MAREA":" ","LANE":"１２８５巷","ALLEY":"３０弄","HOUSE_NO":"１０號","E_COORD97":166436.81,"N_COORD97":2535980.8199999998,"ADDRESS":"明興路１２８５巷３０弄１０號","OBJECTID":10109},"geometry":{"x":166436.80999999959,"y":2535980.8200000022}},{"attributes":{"ID":10110,"DIS_CODE":0,"TOWNNAME":"南區","LI":"同安里","LIN":"13鄰","STREET":"明興路","SECT":" ","MAREA":" ","LANE":"１２８５巷","ALLEY":"３０弄","HOUSE_NO":"１１號","E_COORD97":166485.12,"N_COORD97":2535958.54,"ADDRESS":"明興路１２８５巷３０弄１１號","OBJECTID":10110},"geometry":{"x":166485.11999999918,"y":2535958.540000001}},{"attributes":{"ID":10111,"DIS_CODE":0,"TOWNNAME":"南區","LI":"同安里","LIN":"13鄰","STREET":"明興路","SECT":" ","MAREA":" ","LANE":"１２８５巷","ALLEY":"３０弄","HOUSE_NO":"１２號","E_COORD97":166432.57000000001,"N_COORD97":2535982.46,"ADDRESS":"明興路１２８５巷３０弄１２號","OBJECTID":10111},"geometry":{"x":166432.5700000003,"y":2535982.4600000009}},{"attributes":{"ID":10112,"DIS_CODE":0,"TOWNNAME":"南區","LI":"同安里","LIN":"13鄰","STREET":"明興路","SECT":" ","MAREA":" ","LANE":"１２８５巷","ALLEY":"３０弄","HOUSE_NO":"１３號","E_COORD97":166458.63,"N_COORD97":2535943.9399999999,"ADDRESS":"明興路１２８５巷３０弄１３號","OBJECTID":10112},"geometry":{"x":166458.62999999989,"y":2535943.9399999995}},{"attributes":{"ID":10113,"DIS_CODE":0,"TOWNNAME":"南區","LI":"同安里","LIN":"13鄰","STREET":"明興路","SECT":" ","MAREA":" ","LANE":"１２８５巷","ALLEY":"３０弄","HOUSE_NO":"１４號","E_COORD97":166428.59,"N_COORD97":2535984.8799999999,"ADDRESS":"明興路１２８５巷３０弄１４號","OBJECTID":10113},"geometry":{"x":166428.58999999985,"y":2535984.879999999}},{"attributes":{"ID":10114,"DIS_CODE":0,"TOWNNAME":"南區","LI":"同安里","LIN":"13鄰","STREET":"明興路","SECT":" ","MAREA":" ","LANE":"１２８５巷","ALLEY":"３０弄","HOUSE_NO":"１５號","E_COORD97":166463.82000000001,"N_COORD97":2535942.8999999999,"ADDRESS":"明興路１２８５巷３０弄１５號","OBJECTID":10114},"geometry":{"x":166463.82000000216,"y":2535942.9000000041}},{"attributes":{"ID":10115,"DIS_CODE":0,"TOWNNAME":"南區","LI":"同安里","LIN":"13鄰","STREET":"明興路","SECT":" ","MAREA":" ","LANE":"１２８５巷","ALLEY":"３０弄","HOUSE_NO":"１６號","E_COORD97":166424.37,"N_COORD97":2535987.3700000001,"ADDRESS":"明興路１２８５巷３０弄１６號","OBJECTID":10115},"geometry":{"x":166424.37000000104,"y":2535987.3699999992}},{"attributes":{"ID":10116,"DIS_CODE":0,"TOWNNAME":"南區","LI":"同安里","LIN":"13鄰","STREET":"明興路","SECT":" ","MAREA":" ","LANE":"１２８５巷","ALLEY":"３０弄","HOUSE_NO":"１７號","E_COORD97":166468.76000000001,"N_COORD97":2535944.6299999999,"ADDRESS":"明興路１２８５巷３０弄１７號","OBJECTID":10116},"geometry":{"x":166468.76000000164,"y":2535944.6300000008}},{"attributes":{"ID":10117,"DIS_CODE":0,"TOWNNAME":"善化區","LI":"田寮里","LIN":"13鄰","STREET":" ","SECT":" ","MAREA":"六分寮","LANE":" ","ALLEY":" ","HOUSE_NO":"１４３之２１號","E_COORD97":178740.60999999999,"N_COORD97":2561274.02,"ADDRESS":"六分寮１４３之２１號","OBJECTID":10117},"geometry":{"x":178740.61000000127,"y":2561274.0200000033}},{"attributes":{"ID":10118,"DIS_CODE":0,"TOWNNAME":"善化區","LI":"小新里","LIN":"13鄰","STREET":" ","SECT":" ","MAREA":"小新營","LANE":" ","ALLEY":" ","HOUSE_NO":"１０３號","E_COORD97":179694.64999999999,"N_COORD97":2558174.25,"ADDRESS":"小新營１０３號","OBJECTID":10118},"geometry":{"x":179694.6500000013,"y":2558174.2500000037}},{"attributes":{"ID":10119,"DIS_CODE":0,"TOWNNAME":"東山區","LI":"青山里","LIN":"16鄰","STREET":" ","SECT":" ","MAREA":"青山","LANE":" ","ALLEY":" ","HOUSE_NO":"４０號之２","E_COORD97":195720.17999999999,"N_COORD97":2575295.8700000001,"ADDRESS":"青山４０號之２","OBJECTID":10119},"geometry":{"x":195720.18000000063,"y":2575295.8700000048}},{"attributes":{"ID":10120,"DIS_CODE":0,"TOWNNAME":"佳里區","LI":"佳化里","LIN":"13鄰","STREET":" ","SECT":" ","MAREA":"佳里興","LANE":" ","ALLEY":" ","HOUSE_NO":"１２６號","E_COORD97":167360.79999999999,"N_COORD97":2565026.3100000001,"ADDRESS":"佳里興１２６號","OBJECTID":10120},"geometry":{"x":167360.80000000075,"y":2565026.3100000042}},{"attributes":{"ID":10121,"DIS_CODE":0,"TOWNNAME":"佳里區","LI":"佳化里","LIN":"13鄰","STREET":" ","SECT":" ","MAREA":"佳里興","LANE":" ","ALLEY":" ","HOUSE_NO":"１２７號","E_COORD97":167378.85999999999,"N_COORD97":2565048.9500000002,"ADDRESS":"佳里興１２７號","OBJECTID":10121},"geometry":{"x":167378.8600000022,"y":2565048.9500000011}},{"attributes":{"ID":10122,"DIS_CODE":0,"TOWNNAME":"佳里區","LI":"佳化里","LIN":"13鄰","STREET":" ","SECT":" ","MAREA":"佳里興","LANE":" ","ALLEY":" ","HOUSE_NO":"１２８號","E_COORD97":167395.28,"N_COORD97":2565061.8500000001,"ADDRESS":"佳里興１２８號","OBJECTID":10122},"geometry":{"x":167395.28000000119,"y":2565061.8499999996}},{"attributes":{"ID":10123,"DIS_CODE":0,"TOWNNAME":"佳里區","LI":"佳化里","LIN":"13鄰","STREET":" ","SECT":" ","MAREA":"佳里興","LANE":" ","ALLEY":" ","HOUSE_NO":"１２９號之１","E_COORD97":167419.76000000001,"N_COORD97":2565072.3900000001,"ADDRESS":"佳里興１２９號之１","OBJECTID":10123},"geometry":{"x":167419.76000000164,"y":2565072.3900000006}},{"attributes":{"ID":10124,"DIS_CODE":0,"TOWNNAME":"佳里區","LI":"佳化里","LIN":"13鄰","STREET":" ","SECT":" ","MAREA":"佳里興","LANE":" ","ALLEY":" ","HOUSE_NO":"１２９號","E_COORD97":167433.23999999999,"N_COORD97":2565077.4100000001,"ADDRESS":"佳里興１２９號","OBJECTID":10124},"geometry":{"x":167433.24000000022,"y":2565077.410000002}},{"attributes":{"ID":10125,"DIS_CODE":0,"TOWNNAME":"佳里區","LI":"佳化里","LIN":"13鄰","STREET":" ","SECT":" ","MAREA":"佳里興","LANE":" ","ALLEY":" ","HOUSE_NO":"１３１號","E_COORD97":167398.07000000001,"N_COORD97":2565080.7400000002,"ADDRESS":"佳里興１３１號","OBJECTID":10125},"geometry":{"x":167398.07000000123,"y":2565080.7400000039}},{"attributes":{"ID":10126,"DIS_CODE":0,"TOWNNAME":"佳里區","LI":"佳化里","LIN":"13鄰","STREET":" ","SECT":" ","MAREA":"佳里興","LANE":" ","ALLEY":" ","HOUSE_NO":"１３２號","E_COORD97":167381.17999999999,"N_COORD97":2565080.75,"ADDRESS":"佳里興１３２號","OBJECTID":10126},"geometry":{"x":167381.18000000156,"y":2565080.7500000019}},{"attributes":{"ID":10127,"DIS_CODE":0,"TOWNNAME":"佳里區","LI":"佳化里","LIN":"13鄰","STREET":" ","SECT":" ","MAREA":"佳里興","LANE":" ","ALLEY":" ","HOUSE_NO":"１３３號","E_COORD97":167376.32999999999,"N_COORD97":2565099.46,"ADDRESS":"佳里興１３３號","OBJECTID":10127},"geometry":{"x":167376.33000000007,"y":2565099.4600000009}},{"attributes":{"ID":10128,"DIS_CODE":0,"TOWNNAME":"佳里區","LI":"佳化里","LIN":"13鄰","STREET":" ","SECT":" ","MAREA":"佳里興","LANE":" ","ALLEY":" ","HOUSE_NO":"１３４號","E_COORD97":167404.60000000001,"N_COORD97":2565095.8300000001,"ADDRESS":"佳里興１３４號","OBJECTID":10128},"geometry":{"x":167404.59999999963,"y":2565095.8300000001}},{"attributes":{"ID":10129,"DIS_CODE":0,"TOWNNAME":"佳里區","LI":"興化里","LIN":"13鄰","STREET":" ","SECT":" ","MAREA":"佳里興","LANE":" ","ALLEY":" ","HOUSE_NO":"５３４號","E_COORD97":166557.89999999999,"N_COORD97":2565433.46,"ADDRESS":"佳里興５３４號","OBJECTID":10129},"geometry":{"x":166557.90000000037,"y":2565433.4600000028}},{"attributes":{"ID":10130,"DIS_CODE":0,"TOWNNAME":"佳里區","LI":"興化里","LIN":"13鄰","STREET":" ","SECT":" ","MAREA":"佳里興","LANE":" ","ALLEY":" ","HOUSE_NO":"５３５號之１","E_COORD97":166574.76000000001,"N_COORD97":2565421.2999999998,"ADDRESS":"佳里興５３５號之１","OBJECTID":10130},"geometry":{"x":166574.75999999978,"y":2565421.3000000026}},{"attributes":{"ID":10131,"DIS_CODE":0,"TOWNNAME":"佳里區","LI":"興化里","LIN":"13鄰","STREET":" ","SECT":" ","MAREA":"佳里興","LANE":" ","ALLEY":" ","HOUSE_NO":"５３５號之２","E_COORD97":166523.54000000001,"N_COORD97":2565421.29,"ADDRESS":"佳里興５３５號之２","OBJECTID":10131},"geometry":{"x":166523.54000000097,"y":2565421.2900000028}},{"attributes":{"ID":10132,"DIS_CODE":0,"TOWNNAME":"佳里區","LI":"興化里","LIN":"13鄰","STREET":" ","SECT":" ","MAREA":"佳里興","LANE":" ","ALLEY":" ","HOUSE_NO":"５３５號","E_COORD97":166556.60999999999,"N_COORD97":2565419.75,"ADDRESS":"佳里興５３５號","OBJECTID":10132},"geometry":{"x":166556.6099999994,"y":2565419.7500000019}},{"attributes":{"ID":10133,"DIS_CODE":0,"TOWNNAME":"佳里區","LI":"興化里","LIN":"13鄰","STREET":" ","SECT":" ","MAREA":"佳里興","LANE":" ","ALLEY":" ","HOUSE_NO":"５３７號","E_COORD97":166481.38,"N_COORD97":2565322.2200000002,"ADDRESS":"佳里興５３７號","OBJECTID":10133},"geometry":{"x":166481.37999999896,"y":2565322.2200000025}},{"attributes":{"ID":10134,"DIS_CODE":0,"TOWNNAME":"善化區","LI":"小新里","LIN":"13鄰","STREET":" ","SECT":" ","MAREA":"小新營","LANE":" ","ALLEY":" ","HOUSE_NO":"１０３號之２","E_COORD97":179696.66,"N_COORD97":2558183.52,"ADDRESS":"小新營１０３號之２","OBJECTID":10134},"geometry":{"x":179696.66000000015,"y":2558183.5200000014}},{"attributes":{"ID":10135,"DIS_CODE":0,"TOWNNAME":"善化區","LI":"田寮里","LIN":"13鄰","STREET":" ","SECT":" ","MAREA":"六分寮","LANE":" ","ALLEY":" ","HOUSE_NO":"１４４號","E_COORD97":178719.37,"N_COORD97":2561335.25,"ADDRESS":"六分寮１４４號","OBJECTID":10135},"geometry":{"x":178719.37000000197,"y":2561335.2500000019}},{"attributes":{"ID":10136,"DIS_CODE":0,"TOWNNAME":"善化區","LI":"田寮里","LIN":"13鄰","STREET":" ","SECT":" ","MAREA":"六分寮","LANE":" ","ALLEY":" ","HOUSE_NO":"１４２之７號","E_COORD97":178720.39999999999,"N_COORD97":2561194.77,"ADDRESS":"六分寮１４２之７號","OBJECTID":10136},"geometry":{"x":178720.40000000037,"y":2561194.7700000014}},{"attributes":{"ID":10137,"DIS_CODE":0,"TOWNNAME":"善化區","LI":"田寮里","LIN":"13鄰","STREET":" ","SECT":" ","MAREA":"六分寮","LANE":" ","ALLEY":" ","HOUSE_NO":"１４５號之２","E_COORD97":178725.79999999999,"N_COORD97":2561389.77,"ADDRESS":"六分寮１４５號之２","OBJECTID":10137},"geometry":{"x":178725.79999999981,"y":2561389.7699999996}},{"attributes":{"ID":10138,"DIS_CODE":0,"TOWNNAME":"善化區","LI":"田寮里","LIN":"13鄰","STREET":" ","SECT":" ","MAREA":"六分寮","LANE":" ","ALLEY":" ","HOUSE_NO":"１４４號之１","E_COORD97":178766.67999999999,"N_COORD97":2561345.77,"ADDRESS":"六分寮１４４號之１","OBJECTID":10138},"geometry":{"x":178766.68000000063,"y":2561345.7699999996}},{"attributes":{"ID":10139,"DIS_CODE":0,"TOWNNAME":"善化區","LI":"田寮里","LIN":"13鄰","STREET":" ","SECT":" ","MAREA":"六分寮","LANE":" ","ALLEY":" ","HOUSE_NO":"１４２號之５","E_COORD97":178722.45000000001,"N_COORD97":2561214.02,"ADDRESS":"六分寮１４２號之５","OBJECTID":10139},"geometry":{"x":178722.45000000205,"y":2561214.0200000014}},{"attributes":{"ID":10140,"DIS_CODE":0,"TOWNNAME":"善化區","LI":"小新里","LIN":"13鄰","STREET":" ","SECT":" ","MAREA":"小新營","LANE":" ","ALLEY":" ","HOUSE_NO":"１０７號之２","E_COORD97":179736.26999999999,"N_COORD97":2558072.52,"ADDRESS":"小新營１０７號之２","OBJECTID":10140},"geometry":{"x":179736.26999999955,"y":2558072.5199999996}},{"attributes":{"ID":10141,"DIS_CODE":0,"TOWNNAME":"大內區","LI":"石城里","LIN":"13鄰","STREET":" ","SECT":" ","MAREA":"石子瀨","LANE":" ","ALLEY":" ","HOUSE_NO":"１１５號之４","E_COORD97":183994.63,"N_COORD97":2558000.2999999998,"ADDRESS":"石子瀨１１５號之４","OBJECTID":10141},"geometry":{"x":183994.63000000175,"y":2558000.3000000007}},{"attributes":{"ID":10142,"DIS_CODE":0,"TOWNNAME":"大內區","LI":"石城里","LIN":"13鄰","STREET":" ","SECT":" ","MAREA":"石子瀨","LANE":" ","ALLEY":" ","HOUSE_NO":"１１４號之１５","E_COORD97":183936.01000000001,"N_COORD97":2557922.2999999998,"ADDRESS":"石子瀨１１４號之１５","OBJECTID":10142},"geometry":{"x":183936.01000000164,"y":2557922.3000000007}},{"attributes":{"ID":10143,"DIS_CODE":0,"TOWNNAME":"大內區","LI":"石城里","LIN":"13鄰","STREET":" ","SECT":" ","MAREA":"石子瀨","LANE":" ","ALLEY":" ","HOUSE_NO":"１１５號","E_COORD97":183982.17000000001,"N_COORD97":2558012.25,"ADDRESS":"石子瀨１１５號","OBJECTID":10143},"geometry":{"x":183982.16999999993,"y":2558012.2500000019}},{"attributes":{"ID":10144,"DIS_CODE":0,"TOWNNAME":"大內區","LI":"石城里","LIN":"13鄰","STREET":" ","SECT":" ","MAREA":"石子瀨","LANE":" ","ALLEY":" ","HOUSE_NO":"１１７號之４","E_COORD97":183981.13,"N_COORD97":2557995.2999999998,"ADDRESS":"石子瀨１１７號之４","OBJECTID":10144},"geometry":{"x":183981.13000000082,"y":2557995.3000000026}},{"attributes":{"ID":10145,"DIS_CODE":0,"TOWNNAME":"大內區","LI":"石城里","LIN":"13鄰","STREET":" ","SECT":" ","MAREA":"石子瀨","LANE":" ","ALLEY":" ","HOUSE_NO":"１１７號之１７","E_COORD97":183993.53,"N_COORD97":2557946.2999999998,"ADDRESS":"石子瀨１１７號之１７","OBJECTID":10145},"geometry":{"x":183993.53000000026,"y":2557946.3000000007}},{"attributes":{"ID":10146,"DIS_CODE":0,"TOWNNAME":"大內區","LI":"石城里","LIN":"13鄰","STREET":" ","SECT":" ","MAREA":"石子瀨","LANE":" ","ALLEY":" ","HOUSE_NO":"１２１號之４","E_COORD97":183853.03,"N_COORD97":2558052.2999999998,"ADDRESS":"石子瀨１２１號之４","OBJECTID":10146},"geometry":{"x":183853.03000000026,"y":2558052.3000000045}},{"attributes":{"ID":10147,"DIS_CODE":0,"TOWNNAME":"大內區","LI":"石湖里","LIN":"13鄰","STREET":" ","SECT":" ","MAREA":"新厝子","LANE":" ","ALLEY":" ","HOUSE_NO":"１０號","E_COORD97":184837.82000000001,"N_COORD97":2561134.25,"ADDRESS":"新厝子１０號","OBJECTID":10147},"geometry":{"x":184837.82000000216,"y":2561134.2500000019}},{"attributes":{"ID":10148,"DIS_CODE":0,"TOWNNAME":"大內區","LI":"石城里","LIN":"13鄰","STREET":" ","SECT":" ","MAREA":"石子瀨","LANE":" ","ALLEY":" ","HOUSE_NO":"１１７號之２５","E_COORD97":183965.81,"N_COORD97":2557978.2999999998,"ADDRESS":"石子瀨１１７號之２５","OBJECTID":10148},"geometry":{"x":183965.81000000145,"y":2557978.3000000026}},{"attributes":{"ID":10149,"DIS_CODE":0,"TOWNNAME":"大內區","LI":"頭社里","LIN":"13鄰","STREET":" ","SECT":" ","MAREA":"頭社","LANE":" ","ALLEY":" ","HOUSE_NO":"１７４之５號","E_COORD97":187186.98999999999,"N_COORD97":2561824.2999999998,"ADDRESS":"頭社１７４之５號","OBJECTID":10149},"geometry":{"x":187186.99000000115,"y":2561824.3000000007}},{"attributes":{"ID":10150,"DIS_CODE":0,"TOWNNAME":"大內區","LI":"石城里","LIN":"13鄰","STREET":" ","SECT":" ","MAREA":"石子瀨","LANE":" ","ALLEY":" ","HOUSE_NO":"１１７號之２０","E_COORD97":183956.20000000001,"N_COORD97":2557951.2999999998,"ADDRESS":"石子瀨１１７號之２０","OBJECTID":10150},"geometry":{"x":183956.20000000112,"y":2557951.3000000026}},{"attributes":{"ID":10151,"DIS_CODE":0,"TOWNNAME":"大內區","LI":"石城里","LIN":"13鄰","STREET":" ","SECT":" ","MAREA":"石子瀨","LANE":" ","ALLEY":" ","HOUSE_NO":"１１４號之２４","E_COORD97":183905.28,"N_COORD97":2557909.2999999998,"ADDRESS":"石子瀨１１４號之２４","OBJECTID":10151},"geometry":{"x":183905.28000000026,"y":2557909.3000000007}},{"attributes":{"ID":10152,"DIS_CODE":0,"TOWNNAME":"大內區","LI":"石湖里","LIN":"13鄰","STREET":" ","SECT":" ","MAREA":"新厝子","LANE":" ","ALLEY":" ","HOUSE_NO":"７號之２","E_COORD97":184919.54000000001,"N_COORD97":2561111.2999999998,"ADDRESS":"新厝子７號之２","OBJECTID":10152},"geometry":{"x":184919.54000000097,"y":2561111.3000000026}},{"attributes":{"ID":10153,"DIS_CODE":0,"TOWNNAME":"大內區","LI":"石城里","LIN":"13鄰","STREET":" ","SECT":" ","MAREA":"石子瀨","LANE":" ","ALLEY":" ","HOUSE_NO":"１１４號之６１","E_COORD97":183887.95000000001,"N_COORD97":2557937.2999999998,"ADDRESS":"石子瀨１１４號之６１","OBJECTID":10153},"geometry":{"x":183887.95000000112,"y":2557937.3000000045}},{"attributes":{"ID":10154,"DIS_CODE":0,"TOWNNAME":"大內區","LI":"石城里","LIN":"13鄰","STREET":" ","SECT":" ","MAREA":"石子瀨","LANE":" ","ALLEY":" ","HOUSE_NO":"１１７號之１４","E_COORD97":184006.88,"N_COORD97":2557957.2999999998,"ADDRESS":"石子瀨１１７號之１４","OBJECTID":10154},"geometry":{"x":184006.88000000082,"y":2557957.2999999989}},{"attributes":{"ID":10155,"DIS_CODE":0,"TOWNNAME":"大內區","LI":"石城里","LIN":"13鄰","STREET":" ","SECT":" ","MAREA":"石子瀨","LANE":" ","ALLEY":" ","HOUSE_NO":"１１７號之３０","E_COORD97":183936.60000000001,"N_COORD97":2557958.2999999998,"ADDRESS":"石子瀨１１７號之３０","OBJECTID":10155},"geometry":{"x":183936.59999999963,"y":2557958.3000000026}},{"attributes":{"ID":10156,"DIS_CODE":0,"TOWNNAME":"大內區","LI":"石城里","LIN":"13鄰","STREET":" ","SECT":" ","MAREA":"石子瀨","LANE":" ","ALLEY":" ","HOUSE_NO":"１１５號之２","E_COORD97":183989.14000000001,"N_COORD97":2558006.2999999998,"ADDRESS":"石子瀨１１５號之２","OBJECTID":10156},"geometry":{"x":183989.14000000153,"y":2558006.3000000026}},{"attributes":{"ID":10157,"DIS_CODE":0,"TOWNNAME":"南區","LI":"同安里","LIN":"13鄰","STREET":"明興路","SECT":" ","MAREA":" ","LANE":"１２８５巷","ALLEY":"３０弄","HOUSE_NO":"１８號","E_COORD97":166420.20999999999,"N_COORD97":2535990.2200000002,"ADDRESS":"明興路１２８５巷３０弄１８號","OBJECTID":10157},"geometry":{"x":166420.21000000089,"y":2535990.2200000007}},{"attributes":{"ID":10158,"DIS_CODE":0,"TOWNNAME":"南區","LI":"同安里","LIN":"13鄰","STREET":"明興路","SECT":" ","MAREA":" ","LANE":"１２８５巷","ALLEY":"３０弄","HOUSE_NO":"１９號","E_COORD97":166473.60000000001,"N_COORD97":2535942.8999999999,"ADDRESS":"明興路１２８５巷３０弄１９號","OBJECTID":10158},"geometry":{"x":166473.60000000056,"y":2535942.9000000041}},{"attributes":{"ID":10159,"DIS_CODE":0,"TOWNNAME":"南區","LI":"同安里","LIN":"13鄰","STREET":"明興路","SECT":" ","MAREA":" ","LANE":"１２８５巷","ALLEY":"３０弄","HOUSE_NO":"１號","E_COORD97":166462.87,"N_COORD97":2535965.2799999998,"ADDRESS":"明興路１２８５巷３０弄１號","OBJECTID":10159},"geometry":{"x":166462.87000000011,"y":2535965.2799999993}},{"attributes":{"ID":10160,"DIS_CODE":0,"TOWNNAME":"南區","LI":"同安里","LIN":"13鄰","STREET":"明興路","SECT":" ","MAREA":" ","LANE":"１２８５巷","ALLEY":"３０弄","HOUSE_NO":"２０號","E_COORD97":166415.45000000001,"N_COORD97":2535991.52,"ADDRESS":"明興路１２８５巷３０弄２０號","OBJECTID":10160},"geometry":{"x":166415.45000000112,"y":2535991.5199999996}},{"attributes":{"ID":10161,"DIS_CODE":0,"TOWNNAME":"南區","LI":"同安里","LIN":"13鄰","STREET":"明興路","SECT":" ","MAREA":" ","LANE":"１２８５巷","ALLEY":"３０弄","HOUSE_NO":"２１號","E_COORD97":166478.19,"N_COORD97":2535941.0800000001,"ADDRESS":"明興路１２８５巷３０弄２１號","OBJECTID":10161},"geometry":{"x":166478.18999999948,"y":2535941.0800000038}},{"attributes":{"ID":10162,"DIS_CODE":0,"TOWNNAME":"南區","LI":"同安里","LIN":"13鄰","STREET":"明興路","SECT":" ","MAREA":" ","LANE":"１２８５巷","ALLEY":"３０弄","HOUSE_NO":"２２號","E_COORD97":166410.87,"N_COORD97":2535967.79,"ADDRESS":"明興路１２８５巷３０弄２２號","OBJECTID":10162},"geometry":{"x":166410.87000000104,"y":2535967.7899999991}},{"attributes":{"ID":10163,"DIS_CODE":0,"TOWNNAME":"南區","LI":"同安里","LIN":"13鄰","STREET":"明興路","SECT":" ","MAREA":" ","LANE":"１２８５巷","ALLEY":"３０弄","HOUSE_NO":"２３號","E_COORD97":166483.04000000001,"N_COORD97":2535942.21,"ADDRESS":"明興路１２８５巷３０弄２３號","OBJECTID":10163},"geometry":{"x":166483.04000000097,"y":2535942.2100000028}},{"attributes":{"ID":10164,"DIS_CODE":0,"TOWNNAME":"南區","LI":"同安里","LIN":"13鄰","STREET":"明興路","SECT":" ","MAREA":" ","LANE":"１２８５巷","ALLEY":"３０弄","HOUSE_NO":"２４號","E_COORD97":166416.06,"N_COORD97":2535966.0600000001,"ADDRESS":"明興路１２８５巷３０弄２４號","OBJECTID":10164},"geometry":{"x":166416.06000000052,"y":2535966.0600000024}},{"attributes":{"ID":10165,"DIS_CODE":0,"TOWNNAME":"南區","LI":"同安里","LIN":"13鄰","STREET":"明興路","SECT":" ","MAREA":" ","LANE":"１２８５巷","ALLEY":"３０弄","HOUSE_NO":"２５號","E_COORD97":166480.88,"N_COORD97":2535922.54,"ADDRESS":"明興路１２８５巷３０弄２５號","OBJECTID":10165},"geometry":{"x":166480.87999999989,"y":2535922.5399999991}},{"attributes":{"ID":10166,"DIS_CODE":0,"TOWNNAME":"南區","LI":"同安里","LIN":"13鄰","STREET":"明興路","SECT":" ","MAREA":" ","LANE":"１２８５巷","ALLEY":"３０弄","HOUSE_NO":"２６號","E_COORD97":166420.20999999999,"N_COORD97":2535965.2799999998,"ADDRESS":"明興路１２８５巷３０弄２６號","OBJECTID":10166},"geometry":{"x":166420.21000000089,"y":2535965.2799999993}},{"attributes":{"ID":10167,"DIS_CODE":0,"TOWNNAME":"南區","LI":"同安里","LIN":"13鄰","STREET":"明興路","SECT":" ","MAREA":" ","LANE":"１２８５巷","ALLEY":"３０弄","HOUSE_NO":"２７號","E_COORD97":166475.60000000001,"N_COORD97":2535924.8700000001,"ADDRESS":"明興路１２８５巷３０弄２７號","OBJECTID":10167},"geometry":{"x":166475.59999999963,"y":2535924.8700000029}},{"attributes":{"ID":10168,"DIS_CODE":0,"TOWNNAME":"大內區","LI":"石城里","LIN":"13鄰","STREET":" ","SECT":" ","MAREA":"石子瀨","LANE":" ","ALLEY":" ","HOUSE_NO":"１２１號之１４","E_COORD97":183865.67999999999,"N_COORD97":2558025.2999999998,"ADDRESS":"石子瀨１２１號之１４","OBJECTID":10168},"geometry":{"x":183865.68000000063,"y":2558025.3000000045}},{"attributes":{"ID":10169,"DIS_CODE":0,"TOWNNAME":"大內區","LI":"石城里","LIN":"13鄰","STREET":" ","SECT":" ","MAREA":"石子瀨","LANE":" ","ALLEY":" ","HOUSE_NO":"１１７號之１１","E_COORD97":183999.54999999999,"N_COORD97":2557972.2999999998,"ADDRESS":"石子瀨１１７號之１１","OBJECTID":10169},"geometry":{"x":183999.54999999981,"y":2557972.3000000026}},{"attributes":{"ID":10170,"DIS_CODE":0,"TOWNNAME":"大內區","LI":"石城里","LIN":"13鄰","STREET":" ","SECT":" ","MAREA":"石子瀨","LANE":" ","ALLEY":" ","HOUSE_NO":"１１５號之５","E_COORD97":183997.45999999999,"N_COORD97":2557997.2999999998,"ADDRESS":"石子瀨１１５號之５","OBJECTID":10170},"geometry":{"x":183997.46000000183,"y":2557997.3000000007}},{"attributes":{"ID":10171,"DIS_CODE":0,"TOWNNAME":"南區","LI":"同安里","LIN":"13鄰","STREET":"明興路","SECT":" ","MAREA":" ","LANE":"１２８５巷","ALLEY":"３０弄","HOUSE_NO":"２８號","E_COORD97":166424.63,"N_COORD97":2535963.3799999999,"ADDRESS":"明興路１２８５巷３０弄２８號","OBJECTID":10171},"geometry":{"x":166424.63000000082,"y":2535963.379999999}},{"attributes":{"ID":10172,"DIS_CODE":0,"TOWNNAME":"南區","LI":"同安里","LIN":"13鄰","STREET":"明興路","SECT":" ","MAREA":" ","LANE":"１２８５巷","ALLEY":"３０弄","HOUSE_NO":"２９號","E_COORD97":166471.44,"N_COORD97":2535928.0699999998,"ADDRESS":"明興路１２８５巷３０弄２９號","OBJECTID":10172},"geometry":{"x":166471.44000000227,"y":2535928.070000004}},{"attributes":{"ID":10173,"DIS_CODE":0,"TOWNNAME":"南區","LI":"同安里","LIN":"13鄰","STREET":"明興路","SECT":" ","MAREA":" ","LANE":"１２８５巷","ALLEY":"３０弄","HOUSE_NO":"２號","E_COORD97":166449.89000000001,"N_COORD97":2535986.75,"ADDRESS":"明興路１２８５巷３０弄２號","OBJECTID":10173},"geometry":{"x":166449.88999999966,"y":2535986.75}},{"attributes":{"ID":10174,"DIS_CODE":0,"TOWNNAME":"南區","LI":"同安里","LIN":"13鄰","STREET":"明興路","SECT":" ","MAREA":" ","LANE":"１２８５巷","ALLEY":"３０弄","HOUSE_NO":"３０號","E_COORD97":166429.13,"N_COORD97":2535964.23,"ADDRESS":"明興路１２８５巷３０弄３０號","OBJECTID":10174},"geometry":{"x":166429.13000000082,"y":2535964.2300000042}},{"attributes":{"ID":10175,"DIS_CODE":0,"TOWNNAME":"南區","LI":"同安里","LIN":"13鄰","STREET":"明興路","SECT":" ","MAREA":" ","LANE":"１２８５巷","ALLEY":"３０弄","HOUSE_NO":"３１號","E_COORD97":166465.73000000001,"N_COORD97":2535926,"ADDRESS":"明興路１２８５巷３０弄３１號","OBJECTID":10175},"geometry":{"x":166465.73000000045,"y":2535926.0000000019}},{"attributes":{"ID":10176,"DIS_CODE":0,"TOWNNAME":"南區","LI":"同安里","LIN":"13鄰","STREET":"明興路","SECT":" ","MAREA":" ","LANE":"１２８５巷","ALLEY":"３０弄","HOUSE_NO":"３２號","E_COORD97":166433.45999999999,"N_COORD97":2535962.5,"ADDRESS":"明興路１２８５巷３０弄３２號","OBJECTID":10176},"geometry":{"x":166433.45999999903,"y":2535962.5000000019}},{"attributes":{"ID":10177,"DIS_CODE":0,"TOWNNAME":"南區","LI":"同安里","LIN":"13鄰","STREET":"明興路","SECT":" ","MAREA":" ","LANE":"１２８５巷","ALLEY":"３０弄","HOUSE_NO":"３３號","E_COORD97":166460.35999999999,"N_COORD97":2535926.9500000002,"ADDRESS":"明興路１２８５巷３０弄３３號","OBJECTID":10177},"geometry":{"x":166460.36000000127,"y":2535926.9499999993}},{"attributes":{"ID":10178,"DIS_CODE":0,"TOWNNAME":"南區","LI":"同安里","LIN":"13鄰","STREET":"明興路","SECT":" ","MAREA":" ","LANE":"１２８５巷","ALLEY":"３０弄","HOUSE_NO":"３４號","E_COORD97":166444.37,"N_COORD97":2535964.5899999999,"ADDRESS":"明興路１２８５巷３０弄３４號","OBJECTID":10178},"geometry":{"x":166444.37000000011,"y":2535964.5900000036}},{"attributes":{"ID":10179,"DIS_CODE":0,"TOWNNAME":"大內區","LI":"石城里","LIN":"13鄰","STREET":" ","SECT":" ","MAREA":"石子瀨","LANE":" ","ALLEY":" ","HOUSE_NO":"１１７號之１９","E_COORD97":183972.64000000001,"N_COORD97":2557963.2999999998,"ADDRESS":"石子瀨１１７號之１９","OBJECTID":10179},"geometry":{"x":183972.6400000006,"y":2557963.3000000007}},{"attributes":{"ID":10180,"DIS_CODE":0,"TOWNNAME":"大內區","LI":"頭社里","LIN":"13鄰","STREET":" ","SECT":" ","MAREA":"頭社","LANE":" ","ALLEY":" ","HOUSE_NO":"１７７號","E_COORD97":187440.48999999999,"N_COORD97":2561683.25,"ADDRESS":"頭社１７７號","OBJECTID":10180},"geometry":{"x":187440.49000000209,"y":2561683.2500000037}},{"attributes":{"ID":10181,"DIS_CODE":0,"TOWNNAME":"大內區","LI":"石城里","LIN":"13鄰","STREET":" ","SECT":" ","MAREA":"石子瀨","LANE":" ","ALLEY":" ","HOUSE_NO":"１１７號之５","E_COORD97":183983.95999999999,"N_COORD97":2557992.2999999998,"ADDRESS":"石子瀨１１７號之５","OBJECTID":10181},"geometry":{"x":183983.96000000183,"y":2557992.3000000026}},{"attributes":{"ID":10182,"DIS_CODE":0,"TOWNNAME":"大內區","LI":"石城里","LIN":"13鄰","STREET":" ","SECT":" ","MAREA":"石子瀨","LANE":" ","ALLEY":" ","HOUSE_NO":"１１５號之３","E_COORD97":183991.70000000001,"N_COORD97":2558003.2999999998,"ADDRESS":"石子瀨１１５號之３","OBJECTID":10182},"geometry":{"x":183991.70000000112,"y":2558003.3000000007}},{"attributes":{"ID":10183,"DIS_CODE":0,"TOWNNAME":"大內區","LI":"石城里","LIN":"13鄰","STREET":" ","SECT":" ","MAREA":"石子瀨","LANE":" ","ALLEY":" ","HOUSE_NO":"１１７號之２１","E_COORD97":183950.95000000001,"N_COORD97":2557961.2999999998,"ADDRESS":"石子瀨１１７號之２１","OBJECTID":10183},"geometry":{"x":183950.95000000112,"y":2557961.3000000026}},{"attributes":{"ID":10184,"DIS_CODE":0,"TOWNNAME":"大內區","LI":"石城里","LIN":"13鄰","STREET":" ","SECT":" ","MAREA":"石子瀨","LANE":" ","ALLEY":" ","HOUSE_NO":"１１７號之１６","E_COORD97":183998.45999999999,"N_COORD97":2557950.2999999998,"ADDRESS":"石子瀨１１７號之１６","OBJECTID":10184},"geometry":{"x":183998.45999999996,"y":2557950.3000000007}},{"attributes":{"ID":10185,"DIS_CODE":0,"TOWNNAME":"大內區","LI":"石城里","LIN":"13鄰","STREET":" ","SECT":" ","MAREA":"石子瀨","LANE":" ","ALLEY":" ","HOUSE_NO":"１１４號之３９","E_COORD97":183958.54000000001,"N_COORD97":2557945.2999999998,"ADDRESS":"石子瀨１１４號之３９","OBJECTID":10185},"geometry":{"x":183958.54000000097,"y":2557945.3000000026}},{"attributes":{"ID":10186,"DIS_CODE":0,"TOWNNAME":"大內區","LI":"石城里","LIN":"13鄰","STREET":" ","SECT":" ","MAREA":"石子瀨","LANE":" ","ALLEY":" ","HOUSE_NO":"１２１號之１０","E_COORD97":183877.39999999999,"N_COORD97":2558034.2999999998,"ADDRESS":"石子瀨１２１號之１０","OBJECTID":10186},"geometry":{"x":183877.40000000037,"y":2558034.3000000007}},{"attributes":{"ID":10187,"DIS_CODE":0,"TOWNNAME":"大內區","LI":"石城里","LIN":"13鄰","STREET":" ","SECT":" ","MAREA":"石子瀨","LANE":" ","ALLEY":" ","HOUSE_NO":"１１４號之１８","E_COORD97":183918.70000000001,"N_COORD97":2557889.2999999998,"ADDRESS":"石子瀨１１４號之１８","OBJECTID":10187},"geometry":{"x":183918.70000000112,"y":2557889.3000000007}},{"attributes":{"ID":10188,"DIS_CODE":0,"TOWNNAME":"大內區","LI":"石湖里","LIN":"13鄰","STREET":" ","SECT":" ","MAREA":"新厝子","LANE":" ","ALLEY":" ","HOUSE_NO":"６號之１","E_COORD97":184947.79999999999,"N_COORD97":2561109.2999999998,"ADDRESS":"新厝子６號之１","OBJECTID":10188},"geometry":{"x":184947.80000000168,"y":2561109.3000000007}},{"attributes":{"ID":10189,"DIS_CODE":0,"TOWNNAME":"大內區","LI":"石林里","LIN":"13鄰","STREET":" ","SECT":" ","MAREA":"石子瀨","LANE":" ","ALLEY":" ","HOUSE_NO":"２３９號","E_COORD97":184012.97,"N_COORD97":2558291.25,"ADDRESS":"石子瀨２３９號","OBJECTID":10189},"geometry":{"x":184012.97000000067,"y":2558291.25}},{"attributes":{"ID":10190,"DIS_CODE":0,"TOWNNAME":"大內區","LI":"石城里","LIN":"13鄰","STREET":" ","SECT":" ","MAREA":"石子瀨","LANE":" ","ALLEY":" ","HOUSE_NO":"１１４號之１１","E_COORD97":183945.25,"N_COORD97":2557909.2999999998,"ADDRESS":"石子瀨１１４號之１１","OBJECTID":10190},"geometry":{"x":183945.25000000093,"y":2557909.3000000007}},{"attributes":{"ID":10191,"DIS_CODE":0,"TOWNNAME":"大內區","LI":"石城里","LIN":"13鄰","STREET":" ","SECT":" ","MAREA":"石子瀨","LANE":" ","ALLEY":" ","HOUSE_NO":"１１４號之２２","E_COORD97":183910.09,"N_COORD97":2557903.2999999998,"ADDRESS":"石子瀨１１４號之２２","OBJECTID":10191},"geometry":{"x":183910.09000000171,"y":2557903.3000000045}},{"attributes":{"ID":10192,"DIS_CODE":0,"TOWNNAME":"大內區","LI":"石城里","LIN":"13鄰","STREET":" ","SECT":" ","MAREA":"石子瀨","LANE":" ","ALLEY":" ","HOUSE_NO":"１２１號之１９","E_COORD97":183889.84,"N_COORD97":2558022.2999999998,"ADDRESS":"石子瀨１２１號之１９","OBJECTID":10192},"geometry":{"x":183889.84000000078,"y":2558022.3000000026}},{"attributes":{"ID":10193,"DIS_CODE":0,"TOWNNAME":"大內區","LI":"石城里","LIN":"13鄰","STREET":" ","SECT":" ","MAREA":"石子瀨","LANE":" ","ALLEY":" ","HOUSE_NO":"１１６號","E_COORD97":183982.26999999999,"N_COORD97":2558021.25,"ADDRESS":"石子瀨１１６號","OBJECTID":10193},"geometry":{"x":183982.26999999955,"y":2558021.2499999981}},{"attributes":{"ID":10194,"DIS_CODE":0,"TOWNNAME":"大內區","LI":"石城里","LIN":"13鄰","STREET":" ","SECT":" ","MAREA":"石子瀨","LANE":" ","ALLEY":" ","HOUSE_NO":"１２１號之５","E_COORD97":183850.26000000001,"N_COORD97":2558050.2999999998,"ADDRESS":"石子瀨１２１號之５","OBJECTID":10194},"geometry":{"x":183850.26000000071,"y":2558050.3000000026}},{"attributes":{"ID":10195,"DIS_CODE":0,"TOWNNAME":"大內區","LI":"石城里","LIN":"13鄰","STREET":" ","SECT":" ","MAREA":"石子瀨","LANE":" ","ALLEY":" ","HOUSE_NO":"１１７號之２","E_COORD97":183976.84,"N_COORD97":2558001.2999999998,"ADDRESS":"石子瀨１１７號之２","OBJECTID":10195},"geometry":{"x":183976.84000000078,"y":2558001.2999999989}},{"attributes":{"ID":10196,"DIS_CODE":0,"TOWNNAME":"下營區","LI":"賀建里","LIN":"13鄰","STREET":" ","SECT":" ","MAREA":"洲子","LANE":" ","ALLEY":" ","HOUSE_NO":"１７號","E_COORD97":177421.76000000001,"N_COORD97":2572182.21,"ADDRESS":"洲子１７號","OBJECTID":10196},"geometry":{"x":177421.76000000071,"y":2572182.2100000028}},{"attributes":{"ID":10197,"DIS_CODE":0,"TOWNNAME":"下營區","LI":"賀建里","LIN":"13鄰","STREET":" ","SECT":" ","MAREA":"洲子","LANE":" ","ALLEY":" ","HOUSE_NO":"１８號","E_COORD97":177404.75,"N_COORD97":2572177.46,"ADDRESS":"洲子１８號","OBJECTID":10197},"geometry":{"x":177404.75000000186,"y":2572177.4600000028}},{"attributes":{"ID":10198,"DIS_CODE":0,"TOWNNAME":"將軍區","LI":"仁和里","LIN":"13鄰","STREET":" ","SECT":" ","MAREA":"和巷","LANE":" ","ALLEY":" ","HOUSE_NO":"１２號","E_COORD97":163663.10999999999,"N_COORD97":2569469.1200000001,"ADDRESS":"和巷１２號","OBJECTID":10198},"geometry":{"x":163663.1100000022,"y":2569469.1199999992}},{"attributes":{"ID":10199,"DIS_CODE":0,"TOWNNAME":"將軍區","LI":"仁和里","LIN":"13鄰","STREET":" ","SECT":" ","MAREA":"和巷","LANE":" ","ALLEY":" ","HOUSE_NO":"１５號","E_COORD97":163731.16,"N_COORD97":2569478.6899999999,"ADDRESS":"和巷１５號","OBJECTID":10199},"geometry":{"x":163731.16000000015,"y":2569478.6900000013}},{"attributes":{"ID":10200,"DIS_CODE":0,"TOWNNAME":"將軍區","LI":"仁和里","LIN":"13鄰","STREET":" ","SECT":" ","MAREA":"和巷","LANE":" ","ALLEY":" ","HOUSE_NO":"１６號","E_COORD97":163748.17999999999,"N_COORD97":2569480.75,"ADDRESS":"和巷１６號","OBJECTID":10200},"geometry":{"x":163748.1799999997,"y":2569480.7499999981}}]}