{"displayFieldName":"TOWNNAME","fieldAliases":{"ID":"ID","DIS_CODE":"DIS_CODE","TOWNNAME":"TOWNNAME","LI":"LI","LIN":"LIN","STREET":"STREET","SECT":"SECT","MAREA":"MAREA","LANE":"LANE","ALLEY":"ALLEY","HOUSE_NO":"HOUSE_NO","E_COORD97":"E_COORD97","N_COORD97":"N_COORD97","ADDRESS":"ADDRESS","OBJECTID":"OBJECTID"},"geometryType":"esriGeometryPoint","spatialReference":{"wkid":102443,"latestWkid":3826},"fields":[{"name":"ID","type":"esriFieldTypeDouble","alias":"ID"},{"name":"DIS_CODE","type":"esriFieldTypeInteger","alias":"DIS_CODE"},{"name":"TOWNNAME","type":"esriFieldTypeString","alias":"TOWNNAME","length":8},{"name":"LI","type":"esriFieldTypeString","alias":"LI","length":8},{"name":"LIN","type":"esriFieldTypeString","alias":"LIN","length":12},{"name":"STREET","type":"esriFieldTypeString","alias":"STREET","length":20},{"name":"SECT","type":"esriFieldTypeString","alias":"SECT","length":8},{"name":"MAREA","type":"esriFieldTypeString","alias":"MAREA","length":12},{"name":"LANE","type":"esriFieldTypeString","alias":"LANE","length":10},{"name":"ALLEY","type":"esriFieldTypeString","alias":"ALLEY","length":10},{"name":"HOUSE_NO","type":"esriFieldTypeString","alias":"HOUSE_NO","length":20},{"name":"E_COORD97","type":"esriFieldTypeDouble","alias":"E_COORD97"},{"name":"N_COORD97","type":"esriFieldTypeDouble","alias":"N_COORD97"},{"name":"ADDRESS","type":"esriFieldTypeString","alias":"ADDRESS","length":50},{"name":"OBJECTID","type":"esriFieldTypeOID","alias":"OBJECTID"}],"features":[{"attributes":{"ID":243605,"DIS_CODE":0,"TOWNNAME":"北區","LI":"成德里","LIN":"24鄰","STREET":"育德三街","SECT":" ","MAREA":" ","LANE":"１２５巷","ALLEY":" ","HOUSE_NO":"７號","E_COORD97":168136.42000000001,"N_COORD97":2546139.3799999999,"ADDRESS":"育德三街１２５巷７號","OBJECTID":243601},"geometry":{"x":168136.42000000086,"y":2546139.3799999971}},{"attributes":{"ID":243606,"DIS_CODE":0,"TOWNNAME":"北區","LI":"成德里","LIN":"24鄰","STREET":"育德三街","SECT":" ","MAREA":" ","LANE":"１２５巷","ALLEY":" ","HOUSE_NO":"９號","E_COORD97":168129.91,"N_COORD97":2546138.8999999999,"ADDRESS":"育德三街１２５巷９號","OBJECTID":243602},"geometry":{"x":168129.91000000108,"y":2546138.9000000022}},{"attributes":{"ID":243607,"DIS_CODE":0,"TOWNNAME":"北區","LI":"成德里","LIN":"24鄰","STREET":"育德三街","SECT":" ","MAREA":" ","LANE":"１２５巷","ALLEY":" ","HOUSE_NO":"１１號","E_COORD97":168123.88,"N_COORD97":2546138.4199999999,"ADDRESS":"育德三街１２５巷１１號","OBJECTID":243603},"geometry":{"x":168123.87999999989,"y":2546138.4200000018}},{"attributes":{"ID":243608,"DIS_CODE":0,"TOWNNAME":"北區","LI":"成德里","LIN":"24鄰","STREET":"育德三街","SECT":" ","MAREA":" ","LANE":"１２５巷","ALLEY":" ","HOUSE_NO":"１３號","E_COORD97":168117.85000000001,"N_COORD97":2546137.79,"ADDRESS":"育德三街１２５巷１３號","OBJECTID":243604},"geometry":{"x":168117.85000000056,"y":2546137.790000001}},{"attributes":{"ID":243609,"DIS_CODE":0,"TOWNNAME":"北區","LI":"成德里","LIN":"24鄰","STREET":"育德三街","SECT":" ","MAREA":" ","LANE":"１２５巷","ALLEY":" ","HOUSE_NO":"１５號","E_COORD97":168111.5,"N_COORD97":2546137.4700000002,"ADDRESS":"育德三街１２５巷１５號","OBJECTID":243605},"geometry":{"x":168111.49999999907,"y":2546137.4700000044}},{"attributes":{"ID":243610,"DIS_CODE":0,"TOWNNAME":"北區","LI":"成德里","LIN":"24鄰","STREET":"育德三街","SECT":" ","MAREA":" ","LANE":"１５９巷","ALLEY":" ","HOUSE_NO":"１０號","E_COORD97":168122.60999999999,"N_COORD97":2546239.3900000001,"ADDRESS":"育德三街１５９巷１０號","OBJECTID":243606},"geometry":{"x":168122.61000000034,"y":2546239.3899999987}},{"attributes":{"ID":243611,"DIS_CODE":0,"TOWNNAME":"北區","LI":"興北里","LIN":"11鄰","STREET":"公園路","SECT":" ","MAREA":" ","LANE":"６２４巷","ALLEY":" ","HOUSE_NO":"８號","E_COORD97":169055.76999999999,"N_COORD97":2545320.0299999998,"ADDRESS":"公園路６２４巷８號","OBJECTID":243607},"geometry":{"x":169055.77000000048,"y":2545320.0300000012}},{"attributes":{"ID":243612,"DIS_CODE":0,"TOWNNAME":"北區","LI":"成德里","LIN":"24鄰","STREET":"育德三街","SECT":" ","MAREA":" ","LANE":"１５９巷","ALLEY":" ","HOUSE_NO":"１２號","E_COORD97":168106.73999999999,"N_COORD97":2546238.4399999999,"ADDRESS":"育德三街１５９巷１２號","OBJECTID":243608},"geometry":{"x":168106.73999999929,"y":2546238.4400000013}},{"attributes":{"ID":243613,"DIS_CODE":0,"TOWNNAME":"北區","LI":"成德里","LIN":"24鄰","STREET":"育德三街","SECT":" ","MAREA":" ","LANE":"１５９巷","ALLEY":" ","HOUSE_NO":"１６號","E_COORD97":168107.69,"N_COORD97":2546226.6899999999,"ADDRESS":"育德三街１５９巷１６號","OBJECTID":243609},"geometry":{"x":168107.69000000134,"y":2546226.6900000013}},{"attributes":{"ID":243614,"DIS_CODE":0,"TOWNNAME":"北區","LI":"成德里","LIN":"24鄰","STREET":"育德三街","SECT":" ","MAREA":" ","LANE":"１５９巷","ALLEY":" ","HOUSE_NO":"８號","E_COORD97":168123.41,"N_COORD97":2546227.7999999998,"ADDRESS":"育德三街１５９巷８號","OBJECTID":243610},"geometry":{"x":168123.41000000015,"y":2546227.8000000026}},{"attributes":{"ID":243615,"DIS_CODE":0,"TOWNNAME":"六甲區","LI":"甲東里","LIN":"24鄰","STREET":"裕農街","SECT":" ","MAREA":" ","LANE":"２巷","ALLEY":" ","HOUSE_NO":"１３號","E_COORD97":183939.89999999999,"N_COORD97":2569560.2200000002,"ADDRESS":"裕農街２巷１３號","OBJECTID":243611},"geometry":{"x":183939.90000000037,"y":2569560.2200000025}},{"attributes":{"ID":243616,"DIS_CODE":0,"TOWNNAME":"六甲區","LI":"甲東里","LIN":"24鄰","STREET":"裕農街","SECT":" ","MAREA":" ","LANE":"２巷","ALLEY":" ","HOUSE_NO":"１９號","E_COORD97":183900.19,"N_COORD97":2569567.5,"ADDRESS":"裕農街２巷１９號","OBJECTID":243612},"geometry":{"x":183900.19000000134,"y":2569567.5000000037}},{"attributes":{"ID":243617,"DIS_CODE":0,"TOWNNAME":"六甲區","LI":"甲東里","LIN":"24鄰","STREET":"裕農街","SECT":" ","MAREA":" ","LANE":"２巷","ALLEY":" ","HOUSE_NO":"２１號","E_COORD97":183898.17999999999,"N_COORD97":2569563.79,"ADDRESS":"裕農街２巷２１號","OBJECTID":243613},"geometry":{"x":183898.18000000063,"y":2569563.7899999991}},{"attributes":{"ID":243618,"DIS_CODE":0,"TOWNNAME":"新營區","LI":"南紙里","LIN":"24鄰","STREET":"南紙街","SECT":" ","MAREA":" ","LANE":"１１７巷","ALLEY":" ","HOUSE_NO":"６６號","E_COORD97":177972.26000000001,"N_COORD97":2577461.6899999999,"ADDRESS":"南紙街１１７巷６６號","OBJECTID":243614},"geometry":{"x":177972.26000000164,"y":2577461.6900000032}},{"attributes":{"ID":243619,"DIS_CODE":0,"TOWNNAME":"新營區","LI":"新北里","LIN":"24鄰","STREET":"民生路","SECT":" ","MAREA":" ","LANE":"４２０巷","ALLEY":" ","HOUSE_NO":"４３號","E_COORD97":178923.82000000001,"N_COORD97":2579413.9700000002,"ADDRESS":"民生路４２０巷４３號","OBJECTID":243615},"geometry":{"x":178923.82000000123,"y":2579413.9700000044}},{"attributes":{"ID":243620,"DIS_CODE":0,"TOWNNAME":"鹽水區","LI":"岸內里","LIN":"24鄰","STREET":"北門路","SECT":" ","MAREA":" ","LANE":"９巷","ALLEY":" ","HOUSE_NO":"１５號","E_COORD97":175372.87,"N_COORD97":2580395.1200000001,"ADDRESS":"北門路９巷１５號","OBJECTID":243616},"geometry":{"x":175372.87000000011,"y":2580395.120000001}},{"attributes":{"ID":243621,"DIS_CODE":0,"TOWNNAME":"鹽水區","LI":"岸內里","LIN":"24鄰","STREET":"北門路","SECT":" ","MAREA":" ","LANE":"９巷","ALLEY":" ","HOUSE_NO":"１７號","E_COORD97":175401.97,"N_COORD97":2580382.8599999999,"ADDRESS":"北門路９巷１７號","OBJECTID":243617},"geometry":{"x":175401.96999999974,"y":2580382.8600000031}},{"attributes":{"ID":243622,"DIS_CODE":0,"TOWNNAME":"鹽水區","LI":"橋南里","LIN":"24鄰","STREET":"月津路","SECT":" ","MAREA":" ","LANE":"５５巷","ALLEY":" ","HOUSE_NO":"１１號","E_COORD97":175002.20000000001,"N_COORD97":2579301.4700000002,"ADDRESS":"月津路５５巷１１號","OBJECTID":243618},"geometry":{"x":175002.20000000112,"y":2579301.4700000007}},{"attributes":{"ID":243623,"DIS_CODE":0,"TOWNNAME":"鹽水區","LI":"橋南里","LIN":"24鄰","STREET":"月津路","SECT":" ","MAREA":" ","LANE":"５５巷","ALLEY":" ","HOUSE_NO":"１３號","E_COORD97":175011.17999999999,"N_COORD97":2579307.2000000002,"ADDRESS":"月津路５５巷１３號","OBJECTID":243619},"geometry":{"x":175011.18000000156,"y":2579307.2000000011}},{"attributes":{"ID":243624,"DIS_CODE":0,"TOWNNAME":"鹽水區","LI":"橋南里","LIN":"24鄰","STREET":"月津路","SECT":" ","MAREA":" ","LANE":"５５巷","ALLEY":" ","HOUSE_NO":"１５號","E_COORD97":175022.17000000001,"N_COORD97":2579292.1499999999,"ADDRESS":"月津路５５巷１５號","OBJECTID":243620},"geometry":{"x":175022.17000000086,"y":2579292.1500000004}},{"attributes":{"ID":243625,"DIS_CODE":0,"TOWNNAME":"鹽水區","LI":"橋南里","LIN":"24鄰","STREET":"月津路","SECT":" ","MAREA":" ","LANE":"５５巷","ALLEY":" ","HOUSE_NO":"１７號","E_COORD97":175014.76999999999,"N_COORD97":2579283.4900000002,"ADDRESS":"月津路５５巷１７號","OBJECTID":243621},"geometry":{"x":175014.76999999955,"y":2579283.4900000002}},{"attributes":{"ID":243626,"DIS_CODE":0,"TOWNNAME":"鹽水區","LI":"橋南里","LIN":"24鄰","STREET":"月津路","SECT":" ","MAREA":" ","LANE":"５５巷","ALLEY":" ","HOUSE_NO":"１９號","E_COORD97":175009.35999999999,"N_COORD97":2579279.2400000002,"ADDRESS":"月津路５５巷１９號","OBJECTID":243622},"geometry":{"x":175009.36000000127,"y":2579279.2399999984}},{"attributes":{"ID":243627,"DIS_CODE":0,"TOWNNAME":"鹽水區","LI":"橋南里","LIN":"24鄰","STREET":"月津路","SECT":" ","MAREA":" ","LANE":"５５巷","ALLEY":" ","HOUSE_NO":"２１號","E_COORD97":174991.75,"N_COORD97":2579274.5899999999,"ADDRESS":"月津路５５巷２１號","OBJECTID":243623},"geometry":{"x":174991.75,"y":2579274.5900000017}},{"attributes":{"ID":243628,"DIS_CODE":0,"TOWNNAME":"鹽水區","LI":"橋南里","LIN":"24鄰","STREET":"月津路","SECT":" ","MAREA":" ","LANE":"５５巷","ALLEY":" ","HOUSE_NO":"２３號","E_COORD97":174994.34,"N_COORD97":2579271.1800000002,"ADDRESS":"月津路５５巷２３號","OBJECTID":243624},"geometry":{"x":174994.33999999985,"y":2579271.1799999997}},{"attributes":{"ID":243629,"DIS_CODE":0,"TOWNNAME":"鹽水區","LI":"橋南里","LIN":"24鄰","STREET":"月津路","SECT":" ","MAREA":" ","LANE":"５５巷","ALLEY":" ","HOUSE_NO":"２７號","E_COORD97":174999.51000000001,"N_COORD97":2579264.3399999999,"ADDRESS":"月津路５５巷２７號","OBJECTID":243625},"geometry":{"x":174999.51000000071,"y":2579264.3399999999}},{"attributes":{"ID":243630,"DIS_CODE":0,"TOWNNAME":"鹽水區","LI":"橋南里","LIN":"24鄰","STREET":"月津路","SECT":" ","MAREA":" ","LANE":"５５巷","ALLEY":" ","HOUSE_NO":"２９號","E_COORD97":175002.10000000001,"N_COORD97":2579260.9300000002,"ADDRESS":"月津路５５巷２９號","OBJECTID":243626},"geometry":{"x":175002.10000000056,"y":2579260.9300000016}},{"attributes":{"ID":243631,"DIS_CODE":0,"TOWNNAME":"鹽水區","LI":"橋南里","LIN":"24鄰","STREET":"月津路","SECT":" ","MAREA":" ","LANE":"５５巷","ALLEY":" ","HOUSE_NO":"３１號","E_COORD97":175004.69,"N_COORD97":2579257.5099999998,"ADDRESS":"月津路５５巷３１號","OBJECTID":243627},"geometry":{"x":175004.69000000041,"y":2579257.5100000016}},{"attributes":{"ID":243632,"DIS_CODE":0,"TOWNNAME":"北區","LI":"正覺里","LIN":"11鄰","STREET":"正覺街","SECT":" ","MAREA":" ","LANE":"７７巷","ALLEY":" ","HOUSE_NO":"１１號","E_COORD97":169269.48999999999,"N_COORD97":2546388.73,"ADDRESS":"正覺街７７巷１１號","OBJECTID":243628},"geometry":{"x":169269.49000000022,"y":2546388.7300000004}},{"attributes":{"ID":243633,"DIS_CODE":0,"TOWNNAME":"北區","LI":"正覺里","LIN":"11鄰","STREET":"正覺街","SECT":" ","MAREA":" ","LANE":"７７巷","ALLEY":" ","HOUSE_NO":"１３號","E_COORD97":169265.76999999999,"N_COORD97":2546389.0099999998,"ADDRESS":"正覺街７７巷１３號","OBJECTID":243629},"geometry":{"x":169265.77000000048,"y":2546389.0099999998}},{"attributes":{"ID":243634,"DIS_CODE":0,"TOWNNAME":"鹽水區","LI":"橋南里","LIN":"24鄰","STREET":"月津路","SECT":" ","MAREA":" ","LANE":"５５巷","ALLEY":" ","HOUSE_NO":"３５號","E_COORD97":175009.87,"N_COORD97":2579250.6800000002,"ADDRESS":"月津路５５巷３５號","OBJECTID":243630},"geometry":{"x":175009.87000000011,"y":2579250.6799999997}},{"attributes":{"ID":243635,"DIS_CODE":0,"TOWNNAME":"鹽水區","LI":"橋南里","LIN":"24鄰","STREET":"月津路","SECT":" ","MAREA":" ","LANE":"５５巷","ALLEY":" ","HOUSE_NO":"３７號","E_COORD97":175052.70000000001,"N_COORD97":2579190.0299999998,"ADDRESS":"月津路５５巷３７號","OBJECTID":243631},"geometry":{"x":175052.70000000112,"y":2579190.0300000012}},{"attributes":{"ID":243636,"DIS_CODE":0,"TOWNNAME":"鹽水區","LI":"橋南里","LIN":"24鄰","STREET":"月津路","SECT":" ","MAREA":" ","LANE":"５５巷","ALLEY":" ","HOUSE_NO":"５號","E_COORD97":174982.57999999999,"N_COORD97":2579286.2799999998,"ADDRESS":"月津路５５巷５號","OBJECTID":243632},"geometry":{"x":174982.58000000007,"y":2579286.2800000012}},{"attributes":{"ID":243637,"DIS_CODE":0,"TOWNNAME":"鹽水區","LI":"橋南里","LIN":"24鄰","STREET":"月津路","SECT":" ","MAREA":" ","LANE":"５５巷","ALLEY":" ","HOUSE_NO":"７號","E_COORD97":174985.20999999999,"N_COORD97":2579282.6099999999,"ADDRESS":"月津路５５巷７號","OBJECTID":243633},"geometry":{"x":174985.20999999996,"y":2579282.6099999975}},{"attributes":{"ID":243638,"DIS_CODE":0,"TOWNNAME":"六甲區","LI":"王爺里","LIN":"11鄰","STREET":" ","SECT":" ","MAREA":"東高蚋","LANE":" ","ALLEY":" ","HOUSE_NO":"１號","E_COORD97":188535.45000000001,"N_COORD97":2568550.5899999999,"ADDRESS":"東高蚋１號","OBJECTID":243634},"geometry":{"x":188535.45000000019,"y":2568550.5900000017}},{"attributes":{"ID":243639,"DIS_CODE":0,"TOWNNAME":"鹽水區","LI":"橋南里","LIN":"24鄰","STREET":"月津路","SECT":" ","MAREA":" ","LANE":"５５巷","ALLEY":" ","HOUSE_NO":"９號","E_COORD97":174996.70000000001,"N_COORD97":2579297.25,"ADDRESS":"月津路５５巷９號","OBJECTID":243635},"geometry":{"x":174996.70000000112,"y":2579297.2500000019}},{"attributes":{"ID":243640,"DIS_CODE":0,"TOWNNAME":"鹽水區","LI":"岸內里","LIN":"24鄰","STREET":"北門路","SECT":" ","MAREA":" ","LANE":"７巷","ALLEY":" ","HOUSE_NO":"５６號","E_COORD97":175363.95999999999,"N_COORD97":2580447.2999999998,"ADDRESS":"北門路７巷５６號","OBJECTID":243636},"geometry":{"x":175363.96000000183,"y":2580447.3000000026}},{"attributes":{"ID":243641,"DIS_CODE":0,"TOWNNAME":"鹽水區","LI":"岸內里","LIN":"24鄰","STREET":"北門路","SECT":" ","MAREA":" ","LANE":"７巷","ALLEY":" ","HOUSE_NO":"５８號","E_COORD97":175362.44,"N_COORD97":2580453.1299999999,"ADDRESS":"北門路７巷５８號","OBJECTID":243637},"geometry":{"x":175362.44000000041,"y":2580453.1300000008}},{"attributes":{"ID":243642,"DIS_CODE":0,"TOWNNAME":"鹽水區","LI":"岸內里","LIN":"24鄰","STREET":"北門路","SECT":" ","MAREA":" ","LANE":"９巷","ALLEY":" ","HOUSE_NO":"１９號","E_COORD97":175406.41,"N_COORD97":2580384.1000000001,"ADDRESS":"北門路９巷１９號","OBJECTID":243638},"geometry":{"x":175406.41000000015,"y":2580384.0999999996}},{"attributes":{"ID":243643,"DIS_CODE":0,"TOWNNAME":"鹽水區","LI":"岸內里","LIN":"24鄰","STREET":"北門路","SECT":" ","MAREA":" ","LANE":"９巷","ALLEY":" ","HOUSE_NO":"２１號","E_COORD97":175412.48000000001,"N_COORD97":2580376.73,"ADDRESS":"北門路９巷２１號","OBJECTID":243639},"geometry":{"x":175412.48000000138,"y":2580376.7300000004}},{"attributes":{"ID":243644,"DIS_CODE":0,"TOWNNAME":"鹽水區","LI":"岸內里","LIN":"24鄰","STREET":"北門路","SECT":" ","MAREA":" ","LANE":"９巷","ALLEY":" ","HOUSE_NO":"２３號","E_COORD97":175415.85999999999,"N_COORD97":2580377.2200000002,"ADDRESS":"北門路９巷２３號","OBJECTID":243640},"geometry":{"x":175415.8600000022,"y":2580377.2200000007}},{"attributes":{"ID":243645,"DIS_CODE":0,"TOWNNAME":"鹽水區","LI":"岸內里","LIN":"24鄰","STREET":"北門路","SECT":" ","MAREA":" ","LANE":"９巷","ALLEY":" ","HOUSE_NO":"２７號","E_COORD97":175411.98000000001,"N_COORD97":2580393.2400000002,"ADDRESS":"北門路９巷２７號","OBJECTID":243641},"geometry":{"x":175411.98000000138,"y":2580393.2400000002}},{"attributes":{"ID":243646,"DIS_CODE":0,"TOWNNAME":"鹽水區","LI":"岸內里","LIN":"24鄰","STREET":"北門路","SECT":" ","MAREA":" ","LANE":"９巷","ALLEY":" ","HOUSE_NO":"２９號","E_COORD97":175412.14999999999,"N_COORD97":2580397.25,"ADDRESS":"北門路９巷２９號","OBJECTID":243642},"geometry":{"x":175412.15000000224,"y":2580397.25}},{"attributes":{"ID":243647,"DIS_CODE":0,"TOWNNAME":"中西區","LI":"公正里","LIN":"14鄰","STREET":"西華南街","SECT":" ","MAREA":" ","LANE":" ","ALLEY":" ","HOUSE_NO":"３５號四樓之３","E_COORD97":168935.84,"N_COORD97":2543824.9199999999,"ADDRESS":"西華南街３５號四樓之３","OBJECTID":243643},"geometry":{"x":168935.83999999985,"y":2543824.9200000037}},{"attributes":{"ID":243648,"DIS_CODE":0,"TOWNNAME":"安南區","LI":"四草里","LIN":"7鄰","STREET":"四草大道","SECT":" ","MAREA":" ","LANE":"４３８巷","ALLEY":" ","HOUSE_NO":"５８號","E_COORD97":161302.00636,"N_COORD97":2545482.1303900001,"ADDRESS":"四草大道４３８巷５８號","OBJECTID":243644},"geometry":{"x":161302.00636000093,"y":2545482.1303900015}},{"attributes":{"ID":243649,"DIS_CODE":0,"TOWNNAME":"中西區","LI":"公正里","LIN":"14鄰","STREET":"西華南街","SECT":" ","MAREA":" ","LANE":" ","ALLEY":" ","HOUSE_NO":"３５號四樓之５","E_COORD97":168935.84,"N_COORD97":2543824.9199999999,"ADDRESS":"西華南街３５號四樓之５","OBJECTID":243645},"geometry":{"x":168935.83999999985,"y":2543824.9200000037}},{"attributes":{"ID":243650,"DIS_CODE":0,"TOWNNAME":"關廟區","LI":"東勢里","LIN":"24鄰","STREET":"東安街","SECT":" ","MAREA":" ","LANE":"２４１巷","ALLEY":" ","HOUSE_NO":"１５號","E_COORD97":181637.12,"N_COORD97":2539398.3199999998,"ADDRESS":"東安街２４１巷１５號","OBJECTID":243646},"geometry":{"x":181637.12000000104,"y":2539398.3200000022}},{"attributes":{"ID":243651,"DIS_CODE":0,"TOWNNAME":"關廟區","LI":"東勢里","LIN":"24鄰","STREET":"東安街","SECT":" ","MAREA":" ","LANE":"２４１巷","ALLEY":" ","HOUSE_NO":"２０號","E_COORD97":181651.32000000001,"N_COORD97":2539393.3199999998,"ADDRESS":"東安街２４１巷２０號","OBJECTID":243647},"geometry":{"x":181651.32000000123,"y":2539393.3200000003}},{"attributes":{"ID":243652,"DIS_CODE":0,"TOWNNAME":"關廟區","LI":"東勢里","LIN":"24鄰","STREET":"東安街","SECT":" ","MAREA":" ","LANE":"２４１巷","ALLEY":" ","HOUSE_NO":"１７號","E_COORD97":181637.42000000001,"N_COORD97":2539403.3199999998,"ADDRESS":"東安街２４１巷１７號","OBJECTID":243648},"geometry":{"x":181637.41999999993,"y":2539403.3200000003}},{"attributes":{"ID":243653,"DIS_CODE":0,"TOWNNAME":"關廟區","LI":"東勢里","LIN":"24鄰","STREET":"東安街","SECT":" ","MAREA":" ","LANE":"２４１巷","ALLEY":" ","HOUSE_NO":"２５號","E_COORD97":181636.32000000001,"N_COORD97":2539422.3199999998,"ADDRESS":"東安街２４１巷２５號","OBJECTID":243649},"geometry":{"x":181636.32000000123,"y":2539422.3200000022}},{"attributes":{"ID":243654,"DIS_CODE":0,"TOWNNAME":"關廟區","LI":"北勢里","LIN":"24鄰","STREET":"北美街","SECT":" ","MAREA":" ","LANE":"３巷","ALLEY":" ","HOUSE_NO":"８號","E_COORD97":181449.89000000001,"N_COORD97":2540288.2999999998,"ADDRESS":"北美街３巷８號","OBJECTID":243650},"geometry":{"x":181449.8900000006,"y":2540288.3000000026}},{"attributes":{"ID":243655,"DIS_CODE":0,"TOWNNAME":"關廟區","LI":"東勢里","LIN":"24鄰","STREET":"東安街","SECT":" ","MAREA":" ","LANE":"２４１巷","ALLEY":" ","HOUSE_NO":"２６號","E_COORD97":181651.32000000001,"N_COORD97":2539402.3199999998,"ADDRESS":"東安街２４１巷２６號","OBJECTID":243651},"geometry":{"x":181651.32000000123,"y":2539402.3200000022}},{"attributes":{"ID":243656,"DIS_CODE":0,"TOWNNAME":"關廟區","LI":"北勢里","LIN":"24鄰","STREET":"北美街","SECT":" ","MAREA":" ","LANE":"３巷","ALLEY":" ","HOUSE_NO":"１０號","E_COORD97":181444.23999999999,"N_COORD97":2540290.2999999998,"ADDRESS":"北美街３巷１０號","OBJECTID":243652},"geometry":{"x":181444.24000000022,"y":2540290.3000000045}},{"attributes":{"ID":243657,"DIS_CODE":0,"TOWNNAME":"六甲區","LI":"王爺里","LIN":"11鄰","STREET":" ","SECT":" ","MAREA":"東高蚋","LANE":" ","ALLEY":" ","HOUSE_NO":"１０號","E_COORD97":188515.06,"N_COORD97":2568490.7799999998,"ADDRESS":"東高蚋１０號","OBJECTID":243653},"geometry":{"x":188515.05999999959,"y":2568490.7800000012}},{"attributes":{"ID":243658,"DIS_CODE":0,"TOWNNAME":"關廟區","LI":"北勢里","LIN":"24鄰","STREET":"北美街","SECT":" ","MAREA":" ","LANE":"３巷","ALLEY":" ","HOUSE_NO":"６號","E_COORD97":181455.59,"N_COORD97":2540287.2999999998,"ADDRESS":"北美街３巷６號","OBJECTID":243654},"geometry":{"x":181455.59000000078,"y":2540287.3000000026}},{"attributes":{"ID":243659,"DIS_CODE":0,"TOWNNAME":"關廟區","LI":"東勢里","LIN":"24鄰","STREET":"東安街","SECT":" ","MAREA":" ","LANE":"２４１巷","ALLEY":" ","HOUSE_NO":"３號","E_COORD97":181634.67000000001,"N_COORD97":2539369.3199999998,"ADDRESS":"東安街２４１巷３號","OBJECTID":243655},"geometry":{"x":181634.67000000179,"y":2539369.3200000003}},{"attributes":{"ID":243660,"DIS_CODE":0,"TOWNNAME":"六甲區","LI":"王爺里","LIN":"11鄰","STREET":" ","SECT":" ","MAREA":"東高蚋","LANE":" ","ALLEY":" ","HOUSE_NO":"１１號","E_COORD97":188514.76999999999,"N_COORD97":2568478.71,"ADDRESS":"東高蚋１１號","OBJECTID":243656},"geometry":{"x":188514.77000000048,"y":2568478.7100000046}},{"attributes":{"ID":243661,"DIS_CODE":0,"TOWNNAME":"六甲區","LI":"王爺里","LIN":"11鄰","STREET":" ","SECT":" ","MAREA":"東高蚋","LANE":" ","ALLEY":" ","HOUSE_NO":"１２號","E_COORD97":188527.95000000001,"N_COORD97":2568481.8799999999,"ADDRESS":"東高蚋１２號","OBJECTID":243657},"geometry":{"x":188527.95000000112,"y":2568481.8799999971}},{"attributes":{"ID":243662,"DIS_CODE":0,"TOWNNAME":"六甲區","LI":"王爺里","LIN":"11鄰","STREET":" ","SECT":" ","MAREA":"東高蚋","LANE":" ","ALLEY":" ","HOUSE_NO":"１３號","E_COORD97":188541.38,"N_COORD97":2568487.96,"ADDRESS":"東高蚋１３號","OBJECTID":243658},"geometry":{"x":188541.38000000082,"y":2568487.9600000028}},{"attributes":{"ID":243663,"DIS_CODE":0,"TOWNNAME":"關廟區","LI":"東勢里","LIN":"24鄰","STREET":"東安街","SECT":" ","MAREA":" ","LANE":"２４１巷","ALLEY":" ","HOUSE_NO":"１９號","E_COORD97":181636.32000000001,"N_COORD97":2539410.3199999998,"ADDRESS":"東安街２４１巷１９號","OBJECTID":243659},"geometry":{"x":181636.32000000123,"y":2539410.3200000003}},{"attributes":{"ID":243664,"DIS_CODE":0,"TOWNNAME":"北區","LI":"成功里","LIN":"24鄰","STREET":"北成路","SECT":" ","MAREA":" ","LANE":"１８６巷","ALLEY":" ","HOUSE_NO":"８號","E_COORD97":168830.42999999999,"N_COORD97":2546776.5499999998,"ADDRESS":"北成路１８６巷８號","OBJECTID":243660},"geometry":{"x":168830.42999999877,"y":2546776.5500000007}},{"attributes":{"ID":243665,"DIS_CODE":0,"TOWNNAME":"六甲區","LI":"王爺里","LIN":"11鄰","STREET":" ","SECT":" ","MAREA":"東高蚋","LANE":" ","ALLEY":" ","HOUSE_NO":"１４號","E_COORD97":188537,"N_COORD97":2568467.8900000001,"ADDRESS":"東高蚋１４號","OBJECTID":243661},"geometry":{"x":188537.00000000186,"y":2568467.8900000025}},{"attributes":{"ID":243666,"DIS_CODE":0,"TOWNNAME":"六甲區","LI":"王爺里","LIN":"11鄰","STREET":" ","SECT":" ","MAREA":"東高蚋","LANE":" ","ALLEY":" ","HOUSE_NO":"１５號","E_COORD97":188540.73999999999,"N_COORD97":2568454.04,"ADDRESS":"東高蚋１５號","OBJECTID":243662},"geometry":{"x":188540.74000000209,"y":2568454.0400000028}},{"attributes":{"ID":243667,"DIS_CODE":0,"TOWNNAME":"北區","LI":"成德里","LIN":"24鄰","STREET":"育德三街","SECT":" ","MAREA":" ","LANE":"１５９巷","ALLEY":" ","HOUSE_NO":"２號","E_COORD97":168133.72,"N_COORD97":2546232.7999999998,"ADDRESS":"育德三街１５９巷２號","OBJECTID":243663},"geometry":{"x":168133.72000000067,"y":2546232.8000000007}},{"attributes":{"ID":243668,"DIS_CODE":0,"TOWNNAME":"北區","LI":"成德里","LIN":"24鄰","STREET":"育德三街","SECT":" ","MAREA":" ","LANE":"１５９巷","ALLEY":" ","HOUSE_NO":"６號","E_COORD97":168129.98000000001,"N_COORD97":2546232.3700000001,"ADDRESS":"育德三街１５９巷６號","OBJECTID":243664},"geometry":{"x":168129.98000000138,"y":2546232.370000001}},{"attributes":{"ID":243669,"DIS_CODE":0,"TOWNNAME":"北區","LI":"成德里","LIN":"24鄰","STREET":"育德三街","SECT":" ","MAREA":" ","LANE":"１７１巷","ALLEY":" ","HOUSE_NO":"１０號","E_COORD97":168135.45000000001,"N_COORD97":2546255.54,"ADDRESS":"育德三街１７１巷１０號","OBJECTID":243665},"geometry":{"x":168135.45000000019,"y":2546255.540000001}},{"attributes":{"ID":243670,"DIS_CODE":0,"TOWNNAME":"北區","LI":"成德里","LIN":"24鄰","STREET":"育德三街","SECT":" ","MAREA":" ","LANE":"１７１巷","ALLEY":" ","HOUSE_NO":"１２號","E_COORD97":168131.42000000001,"N_COORD97":2546255.3900000001,"ADDRESS":"育德三街１７１巷１２號","OBJECTID":243666},"geometry":{"x":168131.42000000086,"y":2546255.3900000006}},{"attributes":{"ID":243671,"DIS_CODE":0,"TOWNNAME":"北區","LI":"成德里","LIN":"24鄰","STREET":"育德三街","SECT":" ","MAREA":" ","LANE":"１７１巷","ALLEY":" ","HOUSE_NO":"１６號","E_COORD97":168127.10000000001,"N_COORD97":2546254.8199999998,"ADDRESS":"育德三街１７１巷１６號","OBJECTID":243667},"geometry":{"x":168127.09999999963,"y":2546254.8200000022}},{"attributes":{"ID":243672,"DIS_CODE":0,"TOWNNAME":"北區","LI":"成德里","LIN":"24鄰","STREET":"育德三街","SECT":" ","MAREA":" ","LANE":"１７１巷","ALLEY":" ","HOUSE_NO":"１８號","E_COORD97":168123.06,"N_COORD97":2546255.54,"ADDRESS":"育德三街１７１巷１８號","OBJECTID":243668},"geometry":{"x":168123.06000000052,"y":2546255.540000001}},{"attributes":{"ID":243673,"DIS_CODE":0,"TOWNNAME":"北區","LI":"成德里","LIN":"24鄰","STREET":"育德三街","SECT":" ","MAREA":" ","LANE":"１７１巷","ALLEY":" ","HOUSE_NO":"２０號","E_COORD97":168118.73999999999,"N_COORD97":2546254.6699999999,"ADDRESS":"育德三街１７１巷２０號","OBJECTID":243669},"geometry":{"x":168118.74000000209,"y":2546254.6700000018}},{"attributes":{"ID":243674,"DIS_CODE":0,"TOWNNAME":"北區","LI":"成德里","LIN":"24鄰","STREET":"育德三街","SECT":" ","MAREA":" ","LANE":"１７１巷","ALLEY":" ","HOUSE_NO":"２２號","E_COORD97":168114.70999999999,"N_COORD97":2546254.6699999999,"ADDRESS":"育德三街１７１巷２２號","OBJECTID":243670},"geometry":{"x":168114.70999999996,"y":2546254.6700000018}},{"attributes":{"ID":243675,"DIS_CODE":0,"TOWNNAME":"北區","LI":"成德里","LIN":"24鄰","STREET":"育德三街","SECT":" ","MAREA":" ","LANE":"１７１巷","ALLEY":" ","HOUSE_NO":"２６號","E_COORD97":168110.67999999999,"N_COORD97":2546253.9500000002,"ADDRESS":"育德三街１７１巷２６號","OBJECTID":243671},"geometry":{"x":168110.68000000063,"y":2546253.9499999993}},{"attributes":{"ID":243676,"DIS_CODE":0,"TOWNNAME":"北區","LI":"成德里","LIN":"24鄰","STREET":"育德三街","SECT":" ","MAREA":" ","LANE":"１７１巷","ALLEY":" ","HOUSE_NO":"２８號","E_COORD97":168106.35999999999,"N_COORD97":2546253.9500000002,"ADDRESS":"育德三街１７１巷２８號","OBJECTID":243672},"geometry":{"x":168106.36000000127,"y":2546253.9499999993}},{"attributes":{"ID":243677,"DIS_CODE":0,"TOWNNAME":"北區","LI":"成德里","LIN":"24鄰","STREET":"育德三街","SECT":" ","MAREA":" ","LANE":"１７１巷","ALLEY":" ","HOUSE_NO":"２號","E_COORD97":168148.42000000001,"N_COORD97":2546255.9700000002,"ADDRESS":"育德三街１７１巷２號","OBJECTID":243673},"geometry":{"x":168148.42000000086,"y":2546255.9700000044}},{"attributes":{"ID":243678,"DIS_CODE":0,"TOWNNAME":"北區","LI":"成德里","LIN":"24鄰","STREET":"育德三街","SECT":" ","MAREA":" ","LANE":"１７１巷","ALLEY":" ","HOUSE_NO":"３０號","E_COORD97":168102.17999999999,"N_COORD97":2546254.1000000001,"ADDRESS":"育德三街１７１巷３０號","OBJECTID":243674},"geometry":{"x":168102.18000000063,"y":2546254.1000000034}},{"attributes":{"ID":243679,"DIS_CODE":0,"TOWNNAME":"北區","LI":"成德里","LIN":"24鄰","STREET":"育德三街","SECT":" ","MAREA":" ","LANE":"１７１巷","ALLEY":" ","HOUSE_NO":"６號","E_COORD97":168143.81,"N_COORD97":2546255.8199999998,"ADDRESS":"育德三街１７１巷６號","OBJECTID":243675},"geometry":{"x":168143.80999999959,"y":2546255.8200000003}},{"attributes":{"ID":243680,"DIS_CODE":0,"TOWNNAME":"北區","LI":"成德里","LIN":"24鄰","STREET":"育德三街","SECT":" ","MAREA":" ","LANE":"１７１巷","ALLEY":" ","HOUSE_NO":"８號","E_COORD97":168139.76999999999,"N_COORD97":2546255.6800000002,"ADDRESS":"育德三街１７１巷８號","OBJECTID":243676},"geometry":{"x":168139.77000000142,"y":2546255.6799999997}},{"attributes":{"ID":243681,"DIS_CODE":0,"TOWNNAME":"歸仁區","LI":"後市里","LIN":"24鄰","STREET":"文化街","SECT":"二段","MAREA":" ","LANE":"３５巷","ALLEY":" ","HOUSE_NO":"１１號","E_COORD97":177528.79000000001,"N_COORD97":2541034.2599999998,"ADDRESS":"文化街二段３５巷１１號","OBJECTID":243677},"geometry":{"x":177528.79000000097,"y":2541034.2599999998}},{"attributes":{"ID":243682,"DIS_CODE":0,"TOWNNAME":"歸仁區","LI":"後市里","LIN":"24鄰","STREET":"文化街","SECT":"二段","MAREA":" ","LANE":"３５巷","ALLEY":" ","HOUSE_NO":"２７號","E_COORD97":177561.59,"N_COORD97":2541029.2599999998,"ADDRESS":"文化街二段３５巷２７號","OBJECTID":243678},"geometry":{"x":177561.59000000171,"y":2541029.2600000016}},{"attributes":{"ID":243683,"DIS_CODE":0,"TOWNNAME":"歸仁區","LI":"南興里","LIN":"24鄰","STREET":"文化二十街","SECT":" ","MAREA":" ","LANE":"１１２巷","ALLEY":" ","HOUSE_NO":"１０號","E_COORD97":175501.59,"N_COORD97":2541347.3300000001,"ADDRESS":"文化二十街１１２巷１０號","OBJECTID":243679},"geometry":{"x":175501.58999999985,"y":2541347.3300000038}},{"attributes":{"ID":243684,"DIS_CODE":0,"TOWNNAME":"歸仁區","LI":"南興里","LIN":"24鄰","STREET":"文化二十街","SECT":" ","MAREA":" ","LANE":"１１２巷","ALLEY":" ","HOUSE_NO":"６號","E_COORD97":175490.04000000001,"N_COORD97":2541339.3300000001,"ADDRESS":"文化二十街１１２巷６號","OBJECTID":243680},"geometry":{"x":175490.04000000004,"y":2541339.3300000001}},{"attributes":{"ID":243685,"DIS_CODE":0,"TOWNNAME":"歸仁區","LI":"後市里","LIN":"24鄰","STREET":"文化街","SECT":"二段","MAREA":" ","LANE":"３５巷","ALLEY":" ","HOUSE_NO":"３號","E_COORD97":177530.64000000001,"N_COORD97":2541048.2599999998,"ADDRESS":"文化街二段３５巷３號","OBJECTID":243681},"geometry":{"x":177530.6400000006,"y":2541048.2599999998}},{"attributes":{"ID":243686,"DIS_CODE":0,"TOWNNAME":"歸仁區","LI":"南興里","LIN":"24鄰","STREET":"文化二十街","SECT":" ","MAREA":" ","LANE":"１１２巷","ALLEY":" ","HOUSE_NO":"１２號","E_COORD97":175515.89000000001,"N_COORD97":2541345.3300000001,"ADDRESS":"文化二十街１１２巷１２號","OBJECTID":243682},"geometry":{"x":175515.88999999966,"y":2541345.3300000019}},{"attributes":{"ID":243687,"DIS_CODE":0,"TOWNNAME":"歸仁區","LI":"後市里","LIN":"24鄰","STREET":"文化街","SECT":"二段","MAREA":" ","LANE":"３５巷","ALLEY":" ","HOUSE_NO":"１號","E_COORD97":177525.54000000001,"N_COORD97":2541048.2599999998,"ADDRESS":"文化街二段３５巷１號","OBJECTID":243683},"geometry":{"x":177525.54000000097,"y":2541048.2599999998}},{"attributes":{"ID":243688,"DIS_CODE":0,"TOWNNAME":"歸仁區","LI":"後市里","LIN":"24鄰","STREET":"民族北街","SECT":" ","MAREA":" ","LANE":"５８巷","ALLEY":" ","HOUSE_NO":"２１號","E_COORD97":177533.42999999999,"N_COORD97":2541000.25,"ADDRESS":"民族北街５８巷２１號","OBJECTID":243684},"geometry":{"x":177533.4299999997,"y":2541000.25}},{"attributes":{"ID":243689,"DIS_CODE":0,"TOWNNAME":"歸仁區","LI":"南興里","LIN":"24鄰","STREET":"文化二十街","SECT":" ","MAREA":" ","LANE":"１１２巷","ALLEY":" ","HOUSE_NO":"８號","E_COORD97":175500.23999999999,"N_COORD97":2541339.3300000001,"ADDRESS":"文化二十街１１２巷８號","OBJECTID":243685},"geometry":{"x":175500.24000000115,"y":2541339.3300000001}},{"attributes":{"ID":243690,"DIS_CODE":0,"TOWNNAME":"六甲區","LI":"甲東里","LIN":"11鄰","STREET":"裕農街","SECT":" ","MAREA":" ","LANE":"２００巷","ALLEY":" ","HOUSE_NO":"２５號","E_COORD97":185043.04999999999,"N_COORD97":2570177.2400000002,"ADDRESS":"裕農街２００巷２５號","OBJECTID":243686},"geometry":{"x":185043.05000000075,"y":2570177.2400000021}},{"attributes":{"ID":243691,"DIS_CODE":0,"TOWNNAME":"六甲區","LI":"甲東里","LIN":"11鄰","STREET":"裕農街","SECT":" ","MAREA":" ","LANE":"２００巷","ALLEY":" ","HOUSE_NO":"２６號","E_COORD97":184848.64000000001,"N_COORD97":2569971.0499999998,"ADDRESS":"裕農街２００巷２６號","OBJECTID":243687},"geometry":{"x":184848.64000000153,"y":2569971.0499999989}},{"attributes":{"ID":243692,"DIS_CODE":0,"TOWNNAME":"歸仁區","LI":"後市里","LIN":"24鄰","STREET":"文化街","SECT":"二段","MAREA":" ","LANE":"３５巷","ALLEY":" ","HOUSE_NO":"１９號","E_COORD97":177528.69,"N_COORD97":2541017.2599999998,"ADDRESS":"文化街二段３５巷１９號","OBJECTID":243688},"geometry":{"x":177528.69000000041,"y":2541017.2599999998}},{"attributes":{"ID":243693,"DIS_CODE":0,"TOWNNAME":"新營區","LI":"南紙里","LIN":"24鄰","STREET":"南紙街","SECT":" ","MAREA":" ","LANE":"１１７巷","ALLEY":" ","HOUSE_NO":"５０號","E_COORD97":177933.41,"N_COORD97":2577465.2000000002,"ADDRESS":"南紙街１１７巷５０號","OBJECTID":243689},"geometry":{"x":177933.41000000108,"y":2577465.2000000011}},{"attributes":{"ID":243694,"DIS_CODE":0,"TOWNNAME":"關廟區","LI":"東勢里","LIN":"24鄰","STREET":"東安街","SECT":" ","MAREA":" ","LANE":"２４１巷","ALLEY":" ","HOUSE_NO":"２１號","E_COORD97":181636.32000000001,"N_COORD97":2539414.3199999998,"ADDRESS":"東安街２４１巷２１號","OBJECTID":243690},"geometry":{"x":181636.32000000123,"y":2539414.3200000003}},{"attributes":{"ID":243695,"DIS_CODE":0,"TOWNNAME":"關廟區","LI":"東勢里","LIN":"24鄰","STREET":"東安街","SECT":" ","MAREA":" ","LANE":"２４１巷","ALLEY":" ","HOUSE_NO":"９號","E_COORD97":181634.67000000001,"N_COORD97":2539383.3199999998,"ADDRESS":"東安街２４１巷９號","OBJECTID":243691},"geometry":{"x":181634.67000000179,"y":2539383.3200000003}},{"attributes":{"ID":243696,"DIS_CODE":0,"TOWNNAME":"關廟區","LI":"東勢里","LIN":"24鄰","STREET":"東安街","SECT":" ","MAREA":" ","LANE":"２４１巷","ALLEY":" ","HOUSE_NO":"５號","E_COORD97":181635.07000000001,"N_COORD97":2539374.3199999998,"ADDRESS":"東安街２４１巷５號","OBJECTID":243692},"geometry":{"x":181635.0700000003,"y":2539374.320000004}},{"attributes":{"ID":243697,"DIS_CODE":0,"TOWNNAME":"關廟區","LI":"東勢里","LIN":"24鄰","STREET":"東安街","SECT":" ","MAREA":" ","LANE":"２４２巷","ALLEY":" ","HOUSE_NO":"６號","E_COORD97":181588.26999999999,"N_COORD97":2539335.3199999998,"ADDRESS":"東安街２４２巷６號","OBJECTID":243693},"geometry":{"x":181588.27000000048,"y":2539335.3200000003}},{"attributes":{"ID":243698,"DIS_CODE":0,"TOWNNAME":"中西區","LI":"公正里","LIN":"14鄰","STREET":"西華南街","SECT":" ","MAREA":" ","LANE":" ","ALLEY":" ","HOUSE_NO":"３５號五樓之１","E_COORD97":168935.84,"N_COORD97":2543824.9199999999,"ADDRESS":"西華南街３５號五樓之１","OBJECTID":243694},"geometry":{"x":168935.83999999985,"y":2543824.9200000037}},{"attributes":{"ID":243699,"DIS_CODE":0,"TOWNNAME":"中西區","LI":"公正里","LIN":"14鄰","STREET":"西華南街","SECT":" ","MAREA":" ","LANE":" ","ALLEY":" ","HOUSE_NO":"３５號五樓之２","E_COORD97":168935.84,"N_COORD97":2543824.9199999999,"ADDRESS":"西華南街３５號五樓之２","OBJECTID":243695},"geometry":{"x":168935.83999999985,"y":2543824.9200000037}},{"attributes":{"ID":243700,"DIS_CODE":0,"TOWNNAME":"新營區","LI":"姑爺里","LIN":"11鄰","STREET":" ","SECT":" ","MAREA":"挖仔","LANE":" ","ALLEY":" ","HOUSE_NO":"４３之５７號","E_COORD97":173949.29999999999,"N_COORD97":2575573.7000000002,"ADDRESS":"挖仔４３之５７號","OBJECTID":243696},"geometry":{"x":173949.30000000168,"y":2575573.7000000011}},{"attributes":{"ID":243701,"DIS_CODE":0,"TOWNNAME":"新營區","LI":"姑爺里","LIN":"11鄰","STREET":" ","SECT":" ","MAREA":"挖仔","LANE":" ","ALLEY":" ","HOUSE_NO":"４３之５６號","E_COORD97":173939.06,"N_COORD97":2575570.4300000002,"ADDRESS":"挖仔４３之５６號","OBJECTID":243697},"geometry":{"x":173939.06000000052,"y":2575570.4299999997}},{"attributes":{"ID":243702,"DIS_CODE":0,"TOWNNAME":"新營區","LI":"姑爺里","LIN":"11鄰","STREET":" ","SECT":" ","MAREA":"挖仔","LANE":" ","ALLEY":" ","HOUSE_NO":"４５之１號","E_COORD97":173857.76000000001,"N_COORD97":2575522.1200000001,"ADDRESS":"挖仔４５之１號","OBJECTID":243698},"geometry":{"x":173857.75999999978,"y":2575522.1200000029}},{"attributes":{"ID":243703,"DIS_CODE":0,"TOWNNAME":"新營區","LI":"民生里","LIN":"11鄰","STREET":"三民路","SECT":" ","MAREA":" ","LANE":"１８６巷","ALLEY":" ","HOUSE_NO":"１６號","E_COORD97":179177,"N_COORD97":2578263.2200000002,"ADDRESS":"三民路１８６巷１６號","OBJECTID":243699},"geometry":{"x":179177,"y":2578263.2200000025}},{"attributes":{"ID":243704,"DIS_CODE":0,"TOWNNAME":"新營區","LI":"姑爺里","LIN":"11鄰","STREET":" ","SECT":" ","MAREA":"挖仔","LANE":" ","ALLEY":" ","HOUSE_NO":"４３之５９號","E_COORD97":173945.29000000001,"N_COORD97":2575590.3300000001,"ADDRESS":"挖仔４３之５９號","OBJECTID":243700},"geometry":{"x":173945.29000000097,"y":2575590.3300000019}},{"attributes":{"ID":243705,"DIS_CODE":0,"TOWNNAME":"新營區","LI":"姑爺里","LIN":"11鄰","STREET":" ","SECT":" ","MAREA":"挖仔","LANE":" ","ALLEY":" ","HOUSE_NO":"４８號","E_COORD97":173867.62,"N_COORD97":2575539.7200000002,"ADDRESS":"挖仔４８號","OBJECTID":243701},"geometry":{"x":173867.62000000011,"y":2575539.7200000007}},{"attributes":{"ID":243706,"DIS_CODE":0,"TOWNNAME":"新營區","LI":"新東里","LIN":"11鄰","STREET":"東泰八街","SECT":" ","MAREA":" ","LANE":"９巷","ALLEY":" ","HOUSE_NO":"５１號","E_COORD97":181219.69,"N_COORD97":2579800.7000000002,"ADDRESS":"東泰八街９巷５１號","OBJECTID":243702},"geometry":{"x":181219.69000000227,"y":2579800.700000003}},{"attributes":{"ID":243707,"DIS_CODE":0,"TOWNNAME":"新營區","LI":"新東里","LIN":"11鄰","STREET":"東泰八街","SECT":" ","MAREA":" ","LANE":"９巷","ALLEY":" ","HOUSE_NO":"５０號","E_COORD97":181228.79999999999,"N_COORD97":2579780.73,"ADDRESS":"東泰八街９巷５０號","OBJECTID":243703},"geometry":{"x":181228.80000000075,"y":2579780.7300000004}},{"attributes":{"ID":243708,"DIS_CODE":0,"TOWNNAME":"新營區","LI":"延平里","LIN":"11鄰","STREET":"成功街","SECT":" ","MAREA":" ","LANE":"５７巷","ALLEY":" ","HOUSE_NO":"１１號","E_COORD97":179598.75612199999,"N_COORD97":2577924.3498499999,"ADDRESS":"成功街５７巷１１號","OBJECTID":243704},"geometry":{"x":179598.75612199958,"y":2577924.3498449996}},{"attributes":{"ID":243709,"DIS_CODE":0,"TOWNNAME":"永康區","LI":"永康里","LIN":"11鄰","STREET":"中山南路","SECT":" ","MAREA":" ","LANE":"１０５４巷","ALLEY":" ","HOUSE_NO":"４２號","E_COORD97":173725.39999999999,"N_COORD97":2547127.9500000002,"ADDRESS":"中山南路１０５４巷４２號","OBJECTID":243705},"geometry":{"x":173725.40000000224,"y":2547127.9499999993}},{"attributes":{"ID":243710,"DIS_CODE":0,"TOWNNAME":"新營區","LI":"南興里","LIN":"11鄰","STREET":"和平路","SECT":" ","MAREA":" ","LANE":"１０２巷","ALLEY":" ","HOUSE_NO":"３５之２號","E_COORD97":179305.29000000001,"N_COORD97":2577594.8799999999,"ADDRESS":"和平路１０２巷３５之２號","OBJECTID":243706},"geometry":{"x":179305.29000000097,"y":2577594.879999999}},{"attributes":{"ID":243711,"DIS_CODE":0,"TOWNNAME":"關廟區","LI":"東勢里","LIN":"24鄰","STREET":"東安街","SECT":" ","MAREA":" ","LANE":"２４１巷","ALLEY":" ","HOUSE_NO":"２２號","E_COORD97":181650.92000000001,"N_COORD97":2539398.3199999998,"ADDRESS":"東安街２４１巷２２號","OBJECTID":243707},"geometry":{"x":181650.91999999993,"y":2539398.3200000022}},{"attributes":{"ID":243712,"DIS_CODE":0,"TOWNNAME":"關廟區","LI":"東勢里","LIN":"24鄰","STREET":"東安街","SECT":" ","MAREA":" ","LANE":"２４２巷","ALLEY":" ","HOUSE_NO":"２號","E_COORD97":181589.76999999999,"N_COORD97":2539339.3199999998,"ADDRESS":"東安街２４２巷２號","OBJECTID":243708},"geometry":{"x":181589.77000000048,"y":2539339.3200000003}},{"attributes":{"ID":243713,"DIS_CODE":0,"TOWNNAME":"新化區","LI":"東榮里","LIN":"24鄰","STREET":"中正路","SECT":" ","MAREA":" ","LANE":"２４４巷","ALLEY":" ","HOUSE_NO":"１２號","E_COORD97":179190.16,"N_COORD97":2547746.25,"ADDRESS":"中正路２４４巷１２號","OBJECTID":243709},"geometry":{"x":179190.16000000015,"y":2547746.2500000019}},{"attributes":{"ID":243714,"DIS_CODE":0,"TOWNNAME":"南區","LI":"大忠里","LIN":"24鄰","STREET":"中華南路","SECT":"一段","MAREA":" ","LANE":"９７巷","ALLEY":" ","HOUSE_NO":"１８號","E_COORD97":169245.85000000001,"N_COORD97":2541233.3100000001,"ADDRESS":"中華南路一段９７巷１８號","OBJECTID":243710},"geometry":{"x":169245.84999999963,"y":2541233.3100000024}},{"attributes":{"ID":243715,"DIS_CODE":0,"TOWNNAME":"南區","LI":"大忠里","LIN":"24鄰","STREET":"中華南路","SECT":"一段","MAREA":" ","LANE":"９７巷","ALLEY":" ","HOUSE_NO":"２０號","E_COORD97":169246.39999999999,"N_COORD97":2541229.21,"ADDRESS":"中華南路一段９７巷２０號","OBJECTID":243711},"geometry":{"x":169246.40000000037,"y":2541229.2100000009}},{"attributes":{"ID":243716,"DIS_CODE":0,"TOWNNAME":"中西區","LI":"公正里","LIN":"14鄰","STREET":"西華南街","SECT":" ","MAREA":" ","LANE":" ","ALLEY":" ","HOUSE_NO":"３５號五樓之３","E_COORD97":168935.84,"N_COORD97":2543824.9199999999,"ADDRESS":"西華南街３５號五樓之３","OBJECTID":243712},"geometry":{"x":168935.83999999985,"y":2543824.9200000037}},{"attributes":{"ID":243717,"DIS_CODE":0,"TOWNNAME":"中西區","LI":"公正里","LIN":"14鄰","STREET":"西華南街","SECT":" ","MAREA":" ","LANE":" ","ALLEY":" ","HOUSE_NO":"３５號五樓之５","E_COORD97":168935.84,"N_COORD97":2543824.9199999999,"ADDRESS":"西華南街３５號五樓之５","OBJECTID":243713},"geometry":{"x":168935.83999999985,"y":2543824.9200000037}},{"attributes":{"ID":243718,"DIS_CODE":0,"TOWNNAME":"中西區","LI":"公正里","LIN":"14鄰","STREET":"西華南街","SECT":" ","MAREA":" ","LANE":" ","ALLEY":" ","HOUSE_NO":"３５號六樓之１","E_COORD97":168935.84,"N_COORD97":2543824.9199999999,"ADDRESS":"西華南街３５號六樓之１","OBJECTID":243714},"geometry":{"x":168935.83999999985,"y":2543824.9200000037}},{"attributes":{"ID":243719,"DIS_CODE":0,"TOWNNAME":"中西區","LI":"公正里","LIN":"14鄰","STREET":"西華南街","SECT":" ","MAREA":" ","LANE":" ","ALLEY":" ","HOUSE_NO":"３５號六樓之２","E_COORD97":168935.84,"N_COORD97":2543824.9199999999,"ADDRESS":"西華南街３５號六樓之２","OBJECTID":243715},"geometry":{"x":168935.83999999985,"y":2543824.9200000037}},{"attributes":{"ID":243720,"DIS_CODE":0,"TOWNNAME":"中西區","LI":"公正里","LIN":"14鄰","STREET":"西華南街","SECT":" ","MAREA":" ","LANE":" ","ALLEY":" ","HOUSE_NO":"３５號六樓之３","E_COORD97":168935.84,"N_COORD97":2543824.9199999999,"ADDRESS":"西華南街３５號六樓之３","OBJECTID":243716},"geometry":{"x":168935.83999999985,"y":2543824.9200000037}},{"attributes":{"ID":243721,"DIS_CODE":0,"TOWNNAME":"麻豆區","LI":"興農里","LIN":"1鄰","STREET":"仁愛路","SECT":" ","MAREA":" ","LANE":" ","ALLEY":" ","HOUSE_NO":"３３號","E_COORD97":172541.26999999999,"N_COORD97":2564704.1099999999,"ADDRESS":"仁愛路３３號","OBJECTID":243717},"geometry":{"x":172541.27000000048,"y":2564704.1100000031}},{"attributes":{"ID":243722,"DIS_CODE":0,"TOWNNAME":"新營區","LI":"土庫里","LIN":"11鄰","STREET":" ","SECT":" ","MAREA":"土庫","LANE":" ","ALLEY":" ","HOUSE_NO":"８９號","E_COORD97":183204.85000000001,"N_COORD97":2579784.9700000002,"ADDRESS":"土庫８９號","OBJECTID":243718},"geometry":{"x":183204.85000000056,"y":2579784.9700000025}},{"attributes":{"ID":243723,"DIS_CODE":0,"TOWNNAME":"新營區","LI":"姑爺里","LIN":"11鄰","STREET":" ","SECT":" ","MAREA":"挖仔","LANE":" ","ALLEY":" ","HOUSE_NO":"４３之５２號","E_COORD97":173934.03,"N_COORD97":2575589.2799999998,"ADDRESS":"挖仔４３之５２號","OBJECTID":243719},"geometry":{"x":173934.03000000026,"y":2575589.2799999975}},{"attributes":{"ID":243724,"DIS_CODE":0,"TOWNNAME":"新營區","LI":"太南里","LIN":"11鄰","STREET":" ","SECT":" ","MAREA":"太子宮","LANE":" ","ALLEY":" ","HOUSE_NO":"２６２號","E_COORD97":176125.04000000001,"N_COORD97":2576830.6800000002,"ADDRESS":"太子宮２６２號","OBJECTID":243720},"geometry":{"x":176125.04000000097,"y":2576830.6799999997}},{"attributes":{"ID":243725,"DIS_CODE":0,"TOWNNAME":"新營區","LI":"姑爺里","LIN":"11鄰","STREET":" ","SECT":" ","MAREA":"挖仔","LANE":" ","ALLEY":" ","HOUSE_NO":"４２號","E_COORD97":173862.14000000001,"N_COORD97":2575466.6600000001,"ADDRESS":"挖仔４２號","OBJECTID":243721},"geometry":{"x":173862.14000000153,"y":2575466.660000002}},{"attributes":{"ID":243726,"DIS_CODE":0,"TOWNNAME":"新營區","LI":"新東里","LIN":"11鄰","STREET":"東泰八街","SECT":" ","MAREA":" ","LANE":"９巷","ALLEY":" ","HOUSE_NO":"５２號","E_COORD97":181234.94,"N_COORD97":2579779.5899999999,"ADDRESS":"東泰八街９巷５２號","OBJECTID":243722},"geometry":{"x":181234.94000000227,"y":2579779.5900000017}},{"attributes":{"ID":243727,"DIS_CODE":0,"TOWNNAME":"新營區","LI":"新東里","LIN":"11鄰","STREET":"東泰八街","SECT":" ","MAREA":" ","LANE":"２巷","ALLEY":" ","HOUSE_NO":"１３號","E_COORD97":181155.85999999999,"N_COORD97":2579714.6099999999,"ADDRESS":"東泰八街２巷１３號","OBJECTID":243723},"geometry":{"x":181155.86000000127,"y":2579714.6100000013}},{"attributes":{"ID":243728,"DIS_CODE":0,"TOWNNAME":"新營區","LI":"延平里","LIN":"11鄰","STREET":"長春街","SECT":" ","MAREA":" ","LANE":"７０巷","ALLEY":" ","HOUSE_NO":"２號","E_COORD97":179613.33751099999,"N_COORD97":2577889.6365299998,"ADDRESS":"長春街７０巷２號","OBJECTID":243724},"geometry":{"x":179613.33751100022,"y":2577889.6365300026}},{"attributes":{"ID":243729,"DIS_CODE":0,"TOWNNAME":"南區","LI":"大忠里","LIN":"24鄰","STREET":"中華南路","SECT":"一段","MAREA":" ","LANE":"９７巷","ALLEY":" ","HOUSE_NO":"２號","E_COORD97":169242.06,"N_COORD97":2541263.3700000001,"ADDRESS":"中華南路一段９７巷２號","OBJECTID":243725},"geometry":{"x":169242.06000000052,"y":2541263.3700000029}},{"attributes":{"ID":243730,"DIS_CODE":0,"TOWNNAME":"南區","LI":"大忠里","LIN":"24鄰","STREET":"中華南路","SECT":"一段","MAREA":" ","LANE":"９７巷","ALLEY":" ","HOUSE_NO":"４號","E_COORD97":169242.79000000001,"N_COORD97":2541259.3999999999,"ADDRESS":"中華南路一段９７巷４號","OBJECTID":243726},"geometry":{"x":169242.79000000097,"y":2541259.4000000022}},{"attributes":{"ID":243731,"DIS_CODE":0,"TOWNNAME":"南區","LI":"大忠里","LIN":"24鄰","STREET":"中華南路","SECT":"一段","MAREA":" ","LANE":"９７巷","ALLEY":" ","HOUSE_NO":"６號","E_COORD97":169243.14999999999,"N_COORD97":2541255.96,"ADDRESS":"中華南路一段９７巷６號","OBJECTID":243727},"geometry":{"x":169243.15000000037,"y":2541255.9600000028}},{"attributes":{"ID":243732,"DIS_CODE":0,"TOWNNAME":"南區","LI":"大忠里","LIN":"24鄰","STREET":"中華南路","SECT":"一段","MAREA":" ","LANE":"９７巷","ALLEY":" ","HOUSE_NO":"８號","E_COORD97":169243.66,"N_COORD97":2541251.6200000001,"ADDRESS":"中華南路一段９７巷８號","OBJECTID":243728},"geometry":{"x":169243.66000000108,"y":2541251.6200000029}},{"attributes":{"ID":243733,"DIS_CODE":0,"TOWNNAME":"北區","LI":"文元里","LIN":"24鄰","STREET":"文成三路","SECT":" ","MAREA":" ","LANE":"６８２巷","ALLEY":" ","HOUSE_NO":"２９號","E_COORD97":167925.32000000001,"N_COORD97":2546387.1200000001,"ADDRESS":"文成三路６８２巷２９號","OBJECTID":243729},"geometry":{"x":167925.32000000123,"y":2546387.120000001}},{"attributes":{"ID":243734,"DIS_CODE":0,"TOWNNAME":"北區","LI":"文元里","LIN":"24鄰","STREET":"文成三路","SECT":" ","MAREA":" ","LANE":"６８２巷","ALLEY":" ","HOUSE_NO":"３１號","E_COORD97":167924.39999999999,"N_COORD97":2546394.1699999999,"ADDRESS":"文成三路６８２巷３１號","OBJECTID":243730},"geometry":{"x":167924.39999999944,"y":2546394.1700000018}},{"attributes":{"ID":243735,"DIS_CODE":0,"TOWNNAME":"北區","LI":"大道里","LIN":"24鄰","STREET":"旭日街","SECT":" ","MAREA":" ","LANE":"１２０巷","ALLEY":" ","HOUSE_NO":"２２號","E_COORD97":169474.70000000001,"N_COORD97":2545729.3999999999,"ADDRESS":"旭日街１２０巷２２號","OBJECTID":243731},"geometry":{"x":169474.70000000019,"y":2545729.4000000004}},{"attributes":{"ID":243736,"DIS_CODE":0,"TOWNNAME":"中西區","LI":"公正里","LIN":"14鄰","STREET":"西華南街","SECT":" ","MAREA":" ","LANE":" ","ALLEY":" ","HOUSE_NO":"３５號六樓之５","E_COORD97":168935.84,"N_COORD97":2543824.9199999999,"ADDRESS":"西華南街３５號六樓之５","OBJECTID":243732},"geometry":{"x":168935.83999999985,"y":2543824.9200000037}},{"attributes":{"ID":243737,"DIS_CODE":0,"TOWNNAME":"中西區","LI":"公正里","LIN":"14鄰","STREET":"西華南街","SECT":" ","MAREA":" ","LANE":" ","ALLEY":" ","HOUSE_NO":"３５號七樓之１","E_COORD97":168935.84,"N_COORD97":2543824.9199999999,"ADDRESS":"西華南街３５號七樓之１","OBJECTID":243733},"geometry":{"x":168935.83999999985,"y":2543824.9200000037}},{"attributes":{"ID":243738,"DIS_CODE":0,"TOWNNAME":"歸仁區","LI":"大廟里","LIN":"11鄰","STREET":"大廟六街","SECT":" ","MAREA":" ","LANE":" ","ALLEY":" ","HOUSE_NO":"２號","E_COORD97":175986.13,"N_COORD97":2544230.0899999999,"ADDRESS":"大廟六街２號","OBJECTID":243734},"geometry":{"x":175986.12999999989,"y":2544230.089999998}},{"attributes":{"ID":243739,"DIS_CODE":0,"TOWNNAME":"歸仁區","LI":"七甲里","LIN":"11鄰","STREET":"丁厝街","SECT":" ","MAREA":" ","LANE":"４１巷","ALLEY":" ","HOUSE_NO":"１３號","E_COORD97":175928.23999999999,"N_COORD97":2541928.25,"ADDRESS":"丁厝街４１巷１３號","OBJECTID":243735},"geometry":{"x":175928.24000000022,"y":2541928.2500000019}},{"attributes":{"ID":243740,"DIS_CODE":0,"TOWNNAME":"北區","LI":"大道里","LIN":"24鄰","STREET":"旭日街","SECT":" ","MAREA":" ","LANE":"１２０巷","ALLEY":" ","HOUSE_NO":"２號","E_COORD97":169439.31,"N_COORD97":2545739.7799999998,"ADDRESS":"旭日街１２０巷２號","OBJECTID":243736},"geometry":{"x":169439.30999999959,"y":2545739.7799999993}},{"attributes":{"ID":243741,"DIS_CODE":0,"TOWNNAME":"北區","LI":"大道里","LIN":"24鄰","STREET":"旭日街","SECT":" ","MAREA":" ","LANE":"１２０巷","ALLEY":" ","HOUSE_NO":"６號","E_COORD97":169443.88,"N_COORD97":2545738.0499999998,"ADDRESS":"旭日街１２０巷６號","OBJECTID":243737},"geometry":{"x":169443.87999999989,"y":2545738.0500000026}},{"attributes":{"ID":243742,"DIS_CODE":0,"TOWNNAME":"北區","LI":"大道里","LIN":"24鄰","STREET":"旭日街","SECT":" ","MAREA":" ","LANE":"１２０巷","ALLEY":" ","HOUSE_NO":"８號","E_COORD97":169447.72,"N_COORD97":2545736.6899999999,"ADDRESS":"旭日街１２０巷８號","OBJECTID":243738},"geometry":{"x":169447.72000000067,"y":2545736.6899999995}},{"attributes":{"ID":243743,"DIS_CODE":0,"TOWNNAME":"北區","LI":"大道里","LIN":"24鄰","STREET":"旭日街","SECT":" ","MAREA":" ","LANE":"１２０巷","ALLEY":" ","HOUSE_NO":"１０號","E_COORD97":169452.17999999999,"N_COORD97":2545735.3300000001,"ADDRESS":"旭日街１２０巷１０號","OBJECTID":243739},"geometry":{"x":169452.1799999997,"y":2545735.3300000019}},{"attributes":{"ID":243744,"DIS_CODE":0,"TOWNNAME":"北區","LI":"大道里","LIN":"24鄰","STREET":"旭日街","SECT":" ","MAREA":" ","LANE":"１２０巷","ALLEY":" ","HOUSE_NO":"１２號","E_COORD97":169457.37,"N_COORD97":2545734.2200000002,"ADDRESS":"旭日街１２０巷１２號","OBJECTID":243740},"geometry":{"x":169457.37000000104,"y":2545734.2200000007}},{"attributes":{"ID":243745,"DIS_CODE":0,"TOWNNAME":"北區","LI":"大道里","LIN":"24鄰","STREET":"旭日街","SECT":" ","MAREA":" ","LANE":"１２０巷","ALLEY":" ","HOUSE_NO":"１６號","E_COORD97":169461.57999999999,"N_COORD97":2545732.98,"ADDRESS":"旭日街１２０巷１６號","OBJECTID":243741},"geometry":{"x":169461.58000000007,"y":2545732.9800000004}},{"attributes":{"ID":243746,"DIS_CODE":0,"TOWNNAME":"北區","LI":"大道里","LIN":"24鄰","STREET":"旭日街","SECT":" ","MAREA":" ","LANE":"１２０巷","ALLEY":" ","HOUSE_NO":"１８號","E_COORD97":169465.67000000001,"N_COORD97":2545731.7400000002,"ADDRESS":"旭日街１２０巷１８號","OBJECTID":243742},"geometry":{"x":169465.66999999993,"y":2545731.7400000039}},{"attributes":{"ID":243747,"DIS_CODE":0,"TOWNNAME":"北區","LI":"大道里","LIN":"24鄰","STREET":"旭日街","SECT":" ","MAREA":" ","LANE":"１２０巷","ALLEY":" ","HOUSE_NO":"２０號","E_COORD97":169470.23999999999,"N_COORD97":2545729.8900000001,"ADDRESS":"旭日街１２０巷２０號","OBJECTID":243743},"geometry":{"x":169470.24000000115,"y":2545729.8900000006}},{"attributes":{"ID":243748,"DIS_CODE":0,"TOWNNAME":"北區","LI":"大道里","LIN":"24鄰","STREET":"旭日街","SECT":" ","MAREA":" ","LANE":"１２０巷","ALLEY":" ","HOUSE_NO":"２６號","E_COORD97":169478.41,"N_COORD97":2545728.5299999998,"ADDRESS":"旭日街１２０巷２６號","OBJECTID":243744},"geometry":{"x":169478.41000000015,"y":2545728.5299999975}},{"attributes":{"ID":243749,"DIS_CODE":0,"TOWNNAME":"鹽水區","LI":"橋南里","LIN":"24鄰","STREET":"行昌路","SECT":" ","MAREA":" ","LANE":"２９巷","ALLEY":" ","HOUSE_NO":"８號","E_COORD97":175030.41,"N_COORD97":2579306.2000000002,"ADDRESS":"行昌路２９巷８號","OBJECTID":243745},"geometry":{"x":175030.41000000201,"y":2579306.2000000011}},{"attributes":{"ID":243750,"DIS_CODE":0,"TOWNNAME":"中西區","LI":"公正里","LIN":"14鄰","STREET":"西華南街","SECT":" ","MAREA":" ","LANE":" ","ALLEY":" ","HOUSE_NO":"３５號七樓之２","E_COORD97":168935.84,"N_COORD97":2543824.9199999999,"ADDRESS":"西華南街３５號七樓之２","OBJECTID":243746},"geometry":{"x":168935.83999999985,"y":2543824.9200000037}},{"attributes":{"ID":243751,"DIS_CODE":0,"TOWNNAME":"歸仁區","LI":"大廟里","LIN":"11鄰","STREET":"大廟五街","SECT":" ","MAREA":" ","LANE":"２６巷","ALLEY":" ","HOUSE_NO":"１６號","E_COORD97":175985.42999999999,"N_COORD97":2544180.9900000002,"ADDRESS":"大廟五街２６巷１６號","OBJECTID":243747},"geometry":{"x":175985.4299999997,"y":2544180.9900000021}},{"attributes":{"ID":243752,"DIS_CODE":0,"TOWNNAME":"柳營區","LI":"東昇里","LIN":"11鄰","STREET":" ","SECT":" ","MAREA":"柳營","LANE":" ","ALLEY":" ","HOUSE_NO":"４５１號","E_COORD97":180174.81,"N_COORD97":2575480.46,"ADDRESS":"柳營４５１號","OBJECTID":243748},"geometry":{"x":180174.80999999959,"y":2575480.4600000009}},{"attributes":{"ID":243753,"DIS_CODE":0,"TOWNNAME":"柳營區","LI":"中埕里","LIN":"11鄰","STREET":" ","SECT":" ","MAREA":"柳營","LANE":" ","ALLEY":" ","HOUSE_NO":"３６５之１號","E_COORD97":180039.57999999999,"N_COORD97":2575197.1899999999,"ADDRESS":"柳營３６５之１號","OBJECTID":243749},"geometry":{"x":180039.58000000007,"y":2575197.1900000032}},{"attributes":{"ID":243754,"DIS_CODE":0,"TOWNNAME":"柳營區","LI":"中埕里","LIN":"11鄰","STREET":" ","SECT":" ","MAREA":"柳營","LANE":" ","ALLEY":" ","HOUSE_NO":"３６５號","E_COORD97":180025.10000000001,"N_COORD97":2575191.3599999999,"ADDRESS":"柳營３６５號","OBJECTID":243750},"geometry":{"x":180025.10000000056,"y":2575191.3599999994}},{"attributes":{"ID":243755,"DIS_CODE":0,"TOWNNAME":"柳營區","LI":"中埕里","LIN":"11鄰","STREET":" ","SECT":" ","MAREA":"柳營","LANE":" ","ALLEY":" ","HOUSE_NO":"３６７號","E_COORD97":180028.35000000001,"N_COORD97":2575212.71,"ADDRESS":"柳營３６７號","OBJECTID":243751},"geometry":{"x":180028.35000000056,"y":2575212.7100000028}},{"attributes":{"ID":243756,"DIS_CODE":0,"TOWNNAME":"柳營區","LI":"中埕里","LIN":"11鄰","STREET":" ","SECT":" ","MAREA":"柳營","LANE":" ","ALLEY":" ","HOUSE_NO":"３６８號之１","E_COORD97":180012.07999999999,"N_COORD97":2575212.1400000001,"ADDRESS":"柳營３６８號之１","OBJECTID":243752},"geometry":{"x":180012.08000000101,"y":2575212.1400000043}},{"attributes":{"ID":243757,"DIS_CODE":0,"TOWNNAME":"歸仁區","LI":"大廟里","LIN":"11鄰","STREET":"大廟五街","SECT":" ","MAREA":" ","LANE":"２６巷","ALLEY":" ","HOUSE_NO":"９號","E_COORD97":175986.28,"N_COORD97":2544194.9900000002,"ADDRESS":"大廟五街２６巷９號","OBJECTID":243753},"geometry":{"x":175986.28000000119,"y":2544194.9900000021}},{"attributes":{"ID":243758,"DIS_CODE":0,"TOWNNAME":"北區","LI":"重興里","LIN":"11鄰","STREET":"東豐路","SECT":" ","MAREA":" ","LANE":"４５１巷","ALLEY":" ","HOUSE_NO":"３號之２","E_COORD97":170818.76999999999,"N_COORD97":2544789.0499999998,"ADDRESS":"東豐路４５１巷３號之２","OBJECTID":243754},"geometry":{"x":170818.77000000048,"y":2544789.0500000026}},{"attributes":{"ID":243759,"DIS_CODE":0,"TOWNNAME":"安平區","LI":"文平里","LIN":"24鄰","STREET":"永華二街","SECT":" ","MAREA":" ","LANE":"４０巷","ALLEY":" ","HOUSE_NO":"１號","E_COORD97":166315.13,"N_COORD97":2542900.8500000001,"ADDRESS":"永華二街４０巷１號","OBJECTID":243755},"geometry":{"x":166315.12999999989,"y":2542900.8500000015}},{"attributes":{"ID":243760,"DIS_CODE":0,"TOWNNAME":"柳營區","LI":"中埕里","LIN":"11鄰","STREET":" ","SECT":" ","MAREA":"柳營","LANE":" ","ALLEY":" ","HOUSE_NO":"３６８號之２","E_COORD97":180012.10000000001,"N_COORD97":2575216.6899999999,"ADDRESS":"柳營３６８號之２","OBJECTID":243756},"geometry":{"x":180012.09999999963,"y":2575216.6899999995}},{"attributes":{"ID":243761,"DIS_CODE":0,"TOWNNAME":"中西區","LI":"公正里","LIN":"14鄰","STREET":"西華南街","SECT":" ","MAREA":" ","LANE":" ","ALLEY":" ","HOUSE_NO":"３５號七樓之３","E_COORD97":168935.84,"N_COORD97":2543824.9199999999,"ADDRESS":"西華南街３５號七樓之３","OBJECTID":243757},"geometry":{"x":168935.83999999985,"y":2543824.9200000037}},{"attributes":{"ID":243762,"DIS_CODE":0,"TOWNNAME":"中西區","LI":"公正里","LIN":"14鄰","STREET":"西華南街","SECT":" ","MAREA":" ","LANE":" ","ALLEY":" ","HOUSE_NO":"３５號七樓之５","E_COORD97":168935.84,"N_COORD97":2543824.9199999999,"ADDRESS":"西華南街３５號七樓之５","OBJECTID":243758},"geometry":{"x":168935.83999999985,"y":2543824.9200000037}},{"attributes":{"ID":243763,"DIS_CODE":0,"TOWNNAME":"中西區","LI":"公正里","LIN":"14鄰","STREET":"西華南街","SECT":" ","MAREA":" ","LANE":" ","ALLEY":" ","HOUSE_NO":"３５號八樓之１","E_COORD97":168935.84,"N_COORD97":2543824.9199999999,"ADDRESS":"西華南街３５號八樓之１","OBJECTID":243759},"geometry":{"x":168935.83999999985,"y":2543824.9200000037}},{"attributes":{"ID":243764,"DIS_CODE":0,"TOWNNAME":"柳營區","LI":"士林里","LIN":"11鄰","STREET":" ","SECT":" ","MAREA":"柳營","LANE":" ","ALLEY":" ","HOUSE_NO":"９１號之３７","E_COORD97":179487.34,"N_COORD97":2575438.0699999998,"ADDRESS":"柳營９１號之３７","OBJECTID":243760},"geometry":{"x":179487.34000000171,"y":2575438.0700000003}},{"attributes":{"ID":243765,"DIS_CODE":0,"TOWNNAME":"柳營區","LI":"士林里","LIN":"11鄰","STREET":" ","SECT":" ","MAREA":"柳營","LANE":" ","ALLEY":" ","HOUSE_NO":"９１之３８號","E_COORD97":179491.62,"N_COORD97":2575437.8199999998,"ADDRESS":"柳營９１之３８號","OBJECTID":243761},"geometry":{"x":179491.62000000011,"y":2575437.820000004}},{"attributes":{"ID":243766,"DIS_CODE":0,"TOWNNAME":"柳營區","LI":"士林里","LIN":"11鄰","STREET":" ","SECT":" ","MAREA":"柳營","LANE":" ","ALLEY":" ","HOUSE_NO":"９１號之３８","E_COORD97":179491.62,"N_COORD97":2575437.8199999998,"ADDRESS":"柳營９１號之３８","OBJECTID":243762},"geometry":{"x":179491.62000000011,"y":2575437.820000004}},{"attributes":{"ID":243767,"DIS_CODE":0,"TOWNNAME":"柳營區","LI":"士林里","LIN":"11鄰","STREET":" ","SECT":" ","MAREA":"柳營","LANE":" ","ALLEY":" ","HOUSE_NO":"９１之３９號","E_COORD97":179495.91,"N_COORD97":2575437.5699999998,"ADDRESS":"柳營９１之３９號","OBJECTID":243763},"geometry":{"x":179495.91000000108,"y":2575437.5700000022}},{"attributes":{"ID":243768,"DIS_CODE":0,"TOWNNAME":"柳營區","LI":"士林里","LIN":"11鄰","STREET":" ","SECT":" ","MAREA":"柳營","LANE":" ","ALLEY":" ","HOUSE_NO":"９１號之３９","E_COORD97":179495.91,"N_COORD97":2575437.5699999998,"ADDRESS":"柳營９１號之３９","OBJECTID":243764},"geometry":{"x":179495.91000000108,"y":2575437.5700000022}},{"attributes":{"ID":243769,"DIS_CODE":0,"TOWNNAME":"柳營區","LI":"士林里","LIN":"11鄰","STREET":" ","SECT":" ","MAREA":"柳營","LANE":" ","ALLEY":" ","HOUSE_NO":"９１之４０號","E_COORD97":179500.19,"N_COORD97":2575437.3199999998,"ADDRESS":"柳營９１之４０號","OBJECTID":243765},"geometry":{"x":179500.19000000041,"y":2575437.3200000003}},{"attributes":{"ID":243770,"DIS_CODE":0,"TOWNNAME":"柳營區","LI":"士林里","LIN":"11鄰","STREET":" ","SECT":" ","MAREA":"柳營","LANE":" ","ALLEY":" ","HOUSE_NO":"９１號之４０","E_COORD97":179500.19,"N_COORD97":2575437.3199999998,"ADDRESS":"柳營９１號之４０","OBJECTID":243766},"geometry":{"x":179500.19000000041,"y":2575437.3200000003}},{"attributes":{"ID":243771,"DIS_CODE":0,"TOWNNAME":"柳營區","LI":"士林里","LIN":"11鄰","STREET":" ","SECT":" ","MAREA":"柳營","LANE":" ","ALLEY":" ","HOUSE_NO":"９１之４１號","E_COORD97":179504.48000000001,"N_COORD97":2575437.0699999998,"ADDRESS":"柳營９１之４１號","OBJECTID":243767},"geometry":{"x":179504.48000000138,"y":2575437.0700000022}},{"attributes":{"ID":243772,"DIS_CODE":0,"TOWNNAME":"柳營區","LI":"士林里","LIN":"11鄰","STREET":" ","SECT":" ","MAREA":"柳營","LANE":" ","ALLEY":" ","HOUSE_NO":"９１之４２號","E_COORD97":179508.76000000001,"N_COORD97":2575436.8199999998,"ADDRESS":"柳營９１之４２號","OBJECTID":243768},"geometry":{"x":179508.76000000071,"y":2575436.8200000003}},{"attributes":{"ID":243773,"DIS_CODE":0,"TOWNNAME":"柳營區","LI":"士林里","LIN":"11鄰","STREET":" ","SECT":" ","MAREA":"柳營","LANE":" ","ALLEY":" ","HOUSE_NO":"９１號之４２","E_COORD97":179508.76000000001,"N_COORD97":2575436.8199999998,"ADDRESS":"柳營９１號之４２","OBJECTID":243769},"geometry":{"x":179508.76000000071,"y":2575436.8200000003}},{"attributes":{"ID":243774,"DIS_CODE":0,"TOWNNAME":"柳營區","LI":"士林里","LIN":"11鄰","STREET":" ","SECT":" ","MAREA":"柳營","LANE":" ","ALLEY":" ","HOUSE_NO":"９１之５號","E_COORD97":179491.39999999999,"N_COORD97":2575349.3199999998,"ADDRESS":"柳營９１之５號","OBJECTID":243770},"geometry":{"x":179491.4000000013,"y":2575349.3199999984}},{"attributes":{"ID":243775,"DIS_CODE":0,"TOWNNAME":"柳營區","LI":"士林里","LIN":"11鄰","STREET":" ","SECT":" ","MAREA":"柳營","LANE":" ","ALLEY":" ","HOUSE_NO":"９１號","E_COORD97":179487.82000000001,"N_COORD97":2575377.4500000002,"ADDRESS":"柳營９１號","OBJECTID":243771},"geometry":{"x":179487.82000000216,"y":2575377.4499999993}},{"attributes":{"ID":243776,"DIS_CODE":0,"TOWNNAME":"柳營區","LI":"旭山里","LIN":"11鄰","STREET":" ","SECT":" ","MAREA":"桶頭\u25A0","LANE":" ","ALLEY":" ","HOUSE_NO":"２號之１","E_COORD97":190071.37,"N_COORD97":2572074.04,"ADDRESS":"桶頭\u25A0２號之１","OBJECTID":243772},"geometry":{"x":190071.37000000011,"y":2572074.0399999991}},{"attributes":{"ID":243777,"DIS_CODE":0,"TOWNNAME":"鹽水區","LI":"橋南里","LIN":"24鄰","STREET":"南門路","SECT":" ","MAREA":" ","LANE":"８０巷","ALLEY":" ","HOUSE_NO":"２６號","E_COORD97":175066.16,"N_COORD97":2579191.0899999999,"ADDRESS":"南門路８０巷２６號","OBJECTID":243773},"geometry":{"x":175066.16000000201,"y":2579191.0899999999}},{"attributes":{"ID":243778,"DIS_CODE":0,"TOWNNAME":"鹽水區","LI":"橋南里","LIN":"24鄰","STREET":"南門路","SECT":" ","MAREA":" ","LANE":"８０巷","ALLEY":" ","HOUSE_NO":"２７號","E_COORD97":175118.20999999999,"N_COORD97":2579206.0899999999,"ADDRESS":"南門路８０巷２７號","OBJECTID":243774},"geometry":{"x":175118.21000000089,"y":2579206.0900000017}},{"attributes":{"ID":243779,"DIS_CODE":0,"TOWNNAME":"柳營區","LI":"人和里","LIN":"11鄰","STREET":" ","SECT":" ","MAREA":"橋南","LANE":" ","ALLEY":" ","HOUSE_NO":"１８４號","E_COORD97":179633.89000000001,"N_COORD97":2576839.8500000001,"ADDRESS":"橋南１８４號","OBJECTID":243775},"geometry":{"x":179633.88999999966,"y":2576839.8499999996}},{"attributes":{"ID":243780,"DIS_CODE":0,"TOWNNAME":"善化區","LI":"胡厝里","LIN":"11鄰","STREET":" ","SECT":" ","MAREA":"百二甲","LANE":" ","ALLEY":" ","HOUSE_NO":"１６號","E_COORD97":175249.84,"N_COORD97":2559925.75,"ADDRESS":"百二甲１６號","OBJECTID":243776},"geometry":{"x":175249.84000000078,"y":2559925.75}},{"attributes":{"ID":243781,"DIS_CODE":0,"TOWNNAME":"鹽水區","LI":"橋南里","LIN":"24鄰","STREET":"南門路","SECT":" ","MAREA":" ","LANE":"８０巷","ALLEY":" ","HOUSE_NO":"２９號","E_COORD97":175114.75,"N_COORD97":2579203.1899999999,"ADDRESS":"南門路８０巷２９號","OBJECTID":243777},"geometry":{"x":175114.75000000093,"y":2579203.1899999995}},{"attributes":{"ID":243782,"DIS_CODE":0,"TOWNNAME":"鹽水區","LI":"橋南里","LIN":"24鄰","STREET":"南門路","SECT":" ","MAREA":" ","LANE":"８０巷","ALLEY":" ","HOUSE_NO":"３１號","E_COORD97":175111.29999999999,"N_COORD97":2579200.2799999998,"ADDRESS":"南門路８０巷３１號","OBJECTID":243778},"geometry":{"x":175111.30000000075,"y":2579200.2800000031}},{"attributes":{"ID":243783,"DIS_CODE":0,"TOWNNAME":"鹽水區","LI":"橋南里","LIN":"24鄰","STREET":"南門路","SECT":" ","MAREA":" ","LANE":"８０巷","ALLEY":" ","HOUSE_NO":"３３號","E_COORD97":175107.84,"N_COORD97":2579197.3700000001,"ADDRESS":"南門路８０巷３３號","OBJECTID":243779},"geometry":{"x":175107.83999999985,"y":2579197.370000001}},{"attributes":{"ID":243784,"DIS_CODE":0,"TOWNNAME":"鹽水區","LI":"橋南里","LIN":"24鄰","STREET":"南門路","SECT":" ","MAREA":" ","LANE":"８０巷","ALLEY":" ","HOUSE_NO":"３５號","E_COORD97":175104.39000000001,"N_COORD97":2579194.46,"ADDRESS":"南門路８０巷３５號","OBJECTID":243780},"geometry":{"x":175104.38999999966,"y":2579194.4600000028}},{"attributes":{"ID":243785,"DIS_CODE":0,"TOWNNAME":"鹽水區","LI":"橋南里","LIN":"24鄰","STREET":"南門路","SECT":" ","MAREA":" ","LANE":"８０巷","ALLEY":" ","HOUSE_NO":"３７號","E_COORD97":175100.92999999999,"N_COORD97":2579191.5600000001,"ADDRESS":"南門路８０巷３７號","OBJECTID":243781},"geometry":{"x":175100.92999999877,"y":2579191.5600000005}},{"attributes":{"ID":243786,"DIS_CODE":0,"TOWNNAME":"鹽水區","LI":"橋南里","LIN":"24鄰","STREET":"南門路","SECT":" ","MAREA":" ","LANE":"８０巷","ALLEY":" ","HOUSE_NO":"３９號","E_COORD97":175097.47,"N_COORD97":2579188.6499999999,"ADDRESS":"南門路８０巷３９號","OBJECTID":243782},"geometry":{"x":175097.4700000016,"y":2579188.6500000041}},{"attributes":{"ID":243787,"DIS_CODE":0,"TOWNNAME":"鹽水區","LI":"橋南里","LIN":"24鄰","STREET":"南門路","SECT":" ","MAREA":" ","LANE":"８０巷","ALLEY":" ","HOUSE_NO":"４１號","E_COORD97":175094.01999999999,"N_COORD97":2579185.7400000002,"ADDRESS":"南門路８０巷４１號","OBJECTID":243783},"geometry":{"x":175094.02000000048,"y":2579185.7400000021}},{"attributes":{"ID":243788,"DIS_CODE":0,"TOWNNAME":"鹽水區","LI":"橋南里","LIN":"24鄰","STREET":"南門路","SECT":" ","MAREA":" ","LANE":"８０巷","ALLEY":" ","HOUSE_NO":"４３號","E_COORD97":175090.56,"N_COORD97":2579182.8300000001,"ADDRESS":"南門路８０巷４３號","OBJECTID":243784},"geometry":{"x":175090.56000000052,"y":2579182.8300000001}},{"attributes":{"ID":243789,"DIS_CODE":0,"TOWNNAME":"鹽水區","LI":"橋南里","LIN":"24鄰","STREET":"南門路","SECT":" ","MAREA":" ","LANE":"８０巷","ALLEY":" ","HOUSE_NO":"４５號","E_COORD97":175087.10999999999,"N_COORD97":2579179.9199999999,"ADDRESS":"南門路８０巷４５號","OBJECTID":243785},"geometry":{"x":175087.11000000127,"y":2579179.9200000018}},{"attributes":{"ID":243790,"DIS_CODE":0,"TOWNNAME":"鹽水區","LI":"橋南里","LIN":"24鄰","STREET":"南門路","SECT":" ","MAREA":" ","LANE":"８０巷","ALLEY":" ","HOUSE_NO":"４７號","E_COORD97":175083.64999999999,"N_COORD97":2579177.02,"ADDRESS":"南門路８０巷４７號","OBJECTID":243786},"geometry":{"x":175083.6500000013,"y":2579177.0199999996}},{"attributes":{"ID":243791,"DIS_CODE":0,"TOWNNAME":"鹽水區","LI":"橋南里","LIN":"24鄰","STREET":"南門路","SECT":" ","MAREA":" ","LANE":"８０巷","ALLEY":" ","HOUSE_NO":"４９號","E_COORD97":175080.20000000001,"N_COORD97":2579174.1099999999,"ADDRESS":"南門路８０巷４９號","OBJECTID":243787},"geometry":{"x":175080.20000000112,"y":2579174.1099999975}},{"attributes":{"ID":243792,"DIS_CODE":0,"TOWNNAME":"鹽水區","LI":"橋南里","LIN":"24鄰","STREET":"南門路","SECT":" ","MAREA":" ","LANE":"８０巷","ALLEY":" ","HOUSE_NO":"５１號","E_COORD97":175076.73999999999,"N_COORD97":2579171.2000000002,"ADDRESS":"南門路８０巷５１號","OBJECTID":243788},"geometry":{"x":175076.74000000022,"y":2579171.2000000011}},{"attributes":{"ID":243793,"DIS_CODE":0,"TOWNNAME":"鹽水區","LI":"橋南里","LIN":"24鄰","STREET":"南門路","SECT":" ","MAREA":" ","LANE":"８０巷","ALLEY":" ","HOUSE_NO":"５３號","E_COORD97":175073.29000000001,"N_COORD97":2579168.29,"ADDRESS":"南門路８０巷５３號","OBJECTID":243789},"geometry":{"x":175073.29000000004,"y":2579168.2899999991}},{"attributes":{"ID":243794,"DIS_CODE":0,"TOWNNAME":"鹽水區","LI":"橋南里","LIN":"24鄰","STREET":"南門路","SECT":" ","MAREA":" ","LANE":"８０巷","ALLEY":" ","HOUSE_NO":"９號","E_COORD97":175149.44,"N_COORD97":2579232.3199999998,"ADDRESS":"南門路８０巷９號","OBJECTID":243790},"geometry":{"x":175149.44000000134,"y":2579232.3200000022}},{"attributes":{"ID":243795,"DIS_CODE":0,"TOWNNAME":"北區","LI":"大港里","LIN":"24鄰","STREET":"中華北路","SECT":"一段","MAREA":" ","LANE":"２０３巷","ALLEY":" ","HOUSE_NO":"１８號","E_COORD97":166375.44,"N_COORD97":2545716.3500000001,"ADDRESS":"中華北路一段２０３巷１８號","OBJECTID":243791},"geometry":{"x":166375.44000000134,"y":2545716.3499999996}},{"attributes":{"ID":243796,"DIS_CODE":0,"TOWNNAME":"北區","LI":"大港里","LIN":"24鄰","STREET":"中華北路","SECT":"一段","MAREA":" ","LANE":"２０３巷","ALLEY":" ","HOUSE_NO":"５０號","E_COORD97":166312.06,"N_COORD97":2545694.7200000002,"ADDRESS":"中華北路一段２０３巷５０號","OBJECTID":243792},"geometry":{"x":166312.05999999866,"y":2545694.7199999988}},{"attributes":{"ID":243797,"DIS_CODE":0,"TOWNNAME":"北區","LI":"大港里","LIN":"24鄰","STREET":"中華北路","SECT":"一段","MAREA":" ","LANE":"２０３巷","ALLEY":" ","HOUSE_NO":"５２號","E_COORD97":166307.82000000001,"N_COORD97":2545693.7599999998,"ADDRESS":"中華北路一段２０３巷５２號","OBJECTID":243793},"geometry":{"x":166307.82000000216,"y":2545693.7600000035}},{"attributes":{"ID":243798,"DIS_CODE":0,"TOWNNAME":"北區","LI":"大港里","LIN":"24鄰","STREET":"中華北路","SECT":"一段","MAREA":" ","LANE":"２０３巷","ALLEY":" ","HOUSE_NO":"５４號","E_COORD97":166303.57999999999,"N_COORD97":2545692.48,"ADDRESS":"中華北路一段２０３巷５４號","OBJECTID":243794},"geometry":{"x":166303.58000000007,"y":2545692.4800000004}},{"attributes":{"ID":243799,"DIS_CODE":0,"TOWNNAME":"北區","LI":"大港里","LIN":"24鄰","STREET":"中華北路","SECT":"一段","MAREA":" ","LANE":"２０３巷","ALLEY":" ","HOUSE_NO":"５６號","E_COORD97":166299.98999999999,"N_COORD97":2545691.04,"ADDRESS":"中華北路一段２０３巷５６號","OBJECTID":243795},"geometry":{"x":166299.99000000115,"y":2545691.0400000028}},{"attributes":{"ID":243800,"DIS_CODE":0,"TOWNNAME":"北區","LI":"大港里","LIN":"24鄰","STREET":"中華北路","SECT":"一段","MAREA":" ","LANE":"２０３巷","ALLEY":" ","HOUSE_NO":"５８號","E_COORD97":166296.56,"N_COORD97":2545689.6000000001,"ADDRESS":"中華北路一段２０３巷５８號","OBJECTID":243796},"geometry":{"x":166296.55999999959,"y":2545689.5999999996}},{"attributes":{"ID":243801,"DIS_CODE":0,"TOWNNAME":"北區","LI":"大港里","LIN":"24鄰","STREET":"中華北路","SECT":"一段","MAREA":" ","LANE":"２０３巷","ALLEY":" ","HOUSE_NO":"６０號","E_COORD97":166292,"N_COORD97":2545688.6499999999,"ADDRESS":"中華北路一段２０３巷６０號","OBJECTID":243797},"geometry":{"x":166292,"y":2545688.6500000022}},{"attributes":{"ID":243802,"DIS_CODE":0,"TOWNNAME":"北區","LI":"大港里","LIN":"24鄰","STREET":"中華北路","SECT":"一段","MAREA":" ","LANE":"２０３巷","ALLEY":" ","HOUSE_NO":"６２號","E_COORD97":166287.26999999999,"N_COORD97":2545687.21,"ADDRESS":"中華北路一段２０３巷６２號","OBJECTID":243798},"geometry":{"x":166287.27000000048,"y":2545687.2100000009}},{"attributes":{"ID":243803,"DIS_CODE":0,"TOWNNAME":"中西區","LI":"公正里","LIN":"14鄰","STREET":"西華南街","SECT":" ","MAREA":" ","LANE":" ","ALLEY":" ","HOUSE_NO":"３５號八樓之２","E_COORD97":168935.84,"N_COORD97":2543824.9199999999,"ADDRESS":"西華南街３５號八樓之２","OBJECTID":243799},"geometry":{"x":168935.83999999985,"y":2543824.9200000037}},{"attributes":{"ID":243804,"DIS_CODE":0,"TOWNNAME":"北區","LI":"興南里","LIN":"11鄰","STREET":"西門路","SECT":"四段","MAREA":" ","LANE":"１６巷","ALLEY":" ","HOUSE_NO":"４１號","E_COORD97":168808.81,"N_COORD97":2545116.4399999999,"ADDRESS":"西門路四段１６巷４１號","OBJECTID":243800},"geometry":{"x":168808.80999999959,"y":2545116.4400000013}}]}