{"displayFieldName":"TOWNNAME","fieldAliases":{"ID":"ID","DIS_CODE":"DIS_CODE","TOWNNAME":"TOWNNAME","LI":"LI","LIN":"LIN","STREET":"STREET","SECT":"SECT","MAREA":"MAREA","LANE":"LANE","ALLEY":"ALLEY","HOUSE_NO":"HOUSE_NO","E_COORD97":"E_COORD97","N_COORD97":"N_COORD97","ADDRESS":"ADDRESS","OBJECTID":"OBJECTID"},"geometryType":"esriGeometryPoint","spatialReference":{"wkid":102443,"latestWkid":3826},"fields":[{"name":"ID","type":"esriFieldTypeDouble","alias":"ID"},{"name":"DIS_CODE","type":"esriFieldTypeInteger","alias":"DIS_CODE"},{"name":"TOWNNAME","type":"esriFieldTypeString","alias":"TOWNNAME","length":8},{"name":"LI","type":"esriFieldTypeString","alias":"LI","length":8},{"name":"LIN","type":"esriFieldTypeString","alias":"LIN","length":12},{"name":"STREET","type":"esriFieldTypeString","alias":"STREET","length":20},{"name":"SECT","type":"esriFieldTypeString","alias":"SECT","length":8},{"name":"MAREA","type":"esriFieldTypeString","alias":"MAREA","length":12},{"name":"LANE","type":"esriFieldTypeString","alias":"LANE","length":10},{"name":"ALLEY","type":"esriFieldTypeString","alias":"ALLEY","length":10},{"name":"HOUSE_NO","type":"esriFieldTypeString","alias":"HOUSE_NO","length":20},{"name":"E_COORD97","type":"esriFieldTypeDouble","alias":"E_COORD97"},{"name":"N_COORD97","type":"esriFieldTypeDouble","alias":"N_COORD97"},{"name":"ADDRESS","type":"esriFieldTypeString","alias":"ADDRESS","length":50},{"name":"OBJECTID","type":"esriFieldTypeOID","alias":"OBJECTID"}],"features":[{"attributes":{"ID":501428,"DIS_CODE":0,"TOWNNAME":"北區","LI":"大和里","LIN":"8鄰","STREET":"文賢路","SECT":" ","MAREA":" ","LANE":" ","ALLEY":" ","HOUSE_NO":"７４１號","E_COORD97":167329.20999999999,"N_COORD97":2546180.2599999998,"ADDRESS":"文賢路７４１號","OBJECTID":501401},"geometry":{"x":167329.21000000089,"y":2546180.2599999998}},{"attributes":{"ID":501429,"DIS_CODE":0,"TOWNNAME":"北區","LI":"大和里","LIN":"8鄰","STREET":"文賢路","SECT":" ","MAREA":" ","LANE":" ","ALLEY":" ","HOUSE_NO":"７４１號之１","E_COORD97":167329.42000000001,"N_COORD97":2546184.3300000001,"ADDRESS":"文賢路７４１號之１","OBJECTID":501402},"geometry":{"x":167329.42000000086,"y":2546184.3300000001}},{"attributes":{"ID":501430,"DIS_CODE":0,"TOWNNAME":"北區","LI":"大和里","LIN":"8鄰","STREET":"文賢路","SECT":" ","MAREA":" ","LANE":" ","ALLEY":" ","HOUSE_NO":"７４３號","E_COORD97":167328.57000000001,"N_COORD97":2546187.71,"ADDRESS":"文賢路７４３號","OBJECTID":501403},"geometry":{"x":167328.57000000123,"y":2546187.7100000028}},{"attributes":{"ID":501431,"DIS_CODE":0,"TOWNNAME":"北區","LI":"大和里","LIN":"8鄰","STREET":"文賢路","SECT":" ","MAREA":" ","LANE":" ","ALLEY":" ","HOUSE_NO":"７４５號","E_COORD97":167328.07999999999,"N_COORD97":2546191.2799999998,"ADDRESS":"文賢路７４５號","OBJECTID":501404},"geometry":{"x":167328.08000000194,"y":2546191.2799999975}},{"attributes":{"ID":501432,"DIS_CODE":0,"TOWNNAME":"北區","LI":"大和里","LIN":"8鄰","STREET":"文賢路","SECT":" ","MAREA":" ","LANE":" ","ALLEY":" ","HOUSE_NO":"７４７號","E_COORD97":167328.14999999999,"N_COORD97":2546195.8799999999,"ADDRESS":"文賢路７４７號","OBJECTID":501405},"geometry":{"x":167328.1500000013,"y":2546195.879999999}},{"attributes":{"ID":501433,"DIS_CODE":0,"TOWNNAME":"北區","LI":"大和里","LIN":"8鄰","STREET":"文賢路","SECT":" ","MAREA":" ","LANE":" ","ALLEY":" ","HOUSE_NO":"７４９號","E_COORD97":167328.01000000001,"N_COORD97":2546199.1200000001,"ADDRESS":"文賢路７４９號","OBJECTID":501406},"geometry":{"x":167328.00999999885,"y":2546199.1200000029}},{"attributes":{"ID":501434,"DIS_CODE":0,"TOWNNAME":"安平區","LI":"國平里","LIN":"8鄰","STREET":"建平三街","SECT":" ","MAREA":" ","LANE":" ","ALLEY":" ","HOUSE_NO":"１９９號","E_COORD97":165448.38,"N_COORD97":2542950.8900000001,"ADDRESS":"建平三街１９９號","OBJECTID":501407},"geometry":{"x":165448.37999999989,"y":2542950.8900000043}},{"attributes":{"ID":501435,"DIS_CODE":0,"TOWNNAME":"安平區","LI":"國平里","LIN":"8鄰","STREET":"建平三街","SECT":" ","MAREA":" ","LANE":" ","ALLEY":" ","HOUSE_NO":"１９７號","E_COORD97":165452.82000000001,"N_COORD97":2542949.1400000001,"ADDRESS":"建平三街１９７號","OBJECTID":501408},"geometry":{"x":165452.8200000003,"y":2542949.1400000043}},{"attributes":{"ID":501436,"DIS_CODE":0,"TOWNNAME":"安平區","LI":"國平里","LIN":"8鄰","STREET":"建平三街","SECT":" ","MAREA":" ","LANE":" ","ALLEY":" ","HOUSE_NO":"１７３號","E_COORD97":165515.04000000001,"N_COORD97":2542943.9199999999,"ADDRESS":"建平三街１７３號","OBJECTID":501409},"geometry":{"x":165515.04000000097,"y":2542943.9200000018}},{"attributes":{"ID":501437,"DIS_CODE":0,"TOWNNAME":"安平區","LI":"國平里","LIN":"8鄰","STREET":"建平三街","SECT":" ","MAREA":" ","LANE":" ","ALLEY":" ","HOUSE_NO":"１７１號","E_COORD97":165520.91,"N_COORD97":2542943.7599999998,"ADDRESS":"建平三街１７１號","OBJECTID":501410},"geometry":{"x":165520.91000000108,"y":2542943.7599999998}},{"attributes":{"ID":501438,"DIS_CODE":0,"TOWNNAME":"安平區","LI":"國平里","LIN":"8鄰","STREET":"建平三街","SECT":" ","MAREA":" ","LANE":" ","ALLEY":" ","HOUSE_NO":"１６９號","E_COORD97":165525.67000000001,"N_COORD97":2542942.8100000001,"ADDRESS":"建平三街１６９號","OBJECTID":501411},"geometry":{"x":165525.67000000086,"y":2542942.8100000024}},{"attributes":{"ID":501439,"DIS_CODE":0,"TOWNNAME":"安平區","LI":"國平里","LIN":"8鄰","STREET":"建平三街","SECT":" ","MAREA":" ","LANE":" ","ALLEY":" ","HOUSE_NO":"１６７號","E_COORD97":165530.44,"N_COORD97":2542942.4900000002,"ADDRESS":"建平三街１６７號","OBJECTID":501412},"geometry":{"x":165530.44000000041,"y":2542942.4900000002}},{"attributes":{"ID":501440,"DIS_CODE":0,"TOWNNAME":"安平區","LI":"國平里","LIN":"8鄰","STREET":"建平三街","SECT":" ","MAREA":" ","LANE":" ","ALLEY":" ","HOUSE_NO":"１６５號","E_COORD97":165535.20000000001,"N_COORD97":2542941.7000000002,"ADDRESS":"建平三街１６５號","OBJECTID":501413},"geometry":{"x":165535.20000000019,"y":2542941.7000000011}},{"attributes":{"ID":501441,"DIS_CODE":0,"TOWNNAME":"安平區","LI":"國平里","LIN":"8鄰","STREET":"建平三街","SECT":" ","MAREA":" ","LANE":" ","ALLEY":" ","HOUSE_NO":"１６３號","E_COORD97":165541.23000000001,"N_COORD97":2542941.0600000001,"ADDRESS":"建平三街１６３號","OBJECTID":501414},"geometry":{"x":165541.23000000138,"y":2542941.0600000024}},{"attributes":{"ID":501442,"DIS_CODE":0,"TOWNNAME":"安平區","LI":"國平里","LIN":"8鄰","STREET":"建平三街","SECT":" ","MAREA":" ","LANE":" ","ALLEY":" ","HOUSE_NO":"１６１號","E_COORD97":165545.98999999999,"N_COORD97":2542940.5899999999,"ADDRESS":"建平三街１６１號","OBJECTID":501415},"geometry":{"x":165545.99000000115,"y":2542940.5899999999}},{"attributes":{"ID":501443,"DIS_CODE":0,"TOWNNAME":"安平區","LI":"國平里","LIN":"8鄰","STREET":"建平三街","SECT":" ","MAREA":" ","LANE":" ","ALLEY":" ","HOUSE_NO":"１５９號","E_COORD97":165551.07000000001,"N_COORD97":2542940.1099999999,"ADDRESS":"建平三街１５９號","OBJECTID":501416},"geometry":{"x":165551.0700000003,"y":2542940.1099999994}},{"attributes":{"ID":501444,"DIS_CODE":0,"TOWNNAME":"安平區","LI":"國平里","LIN":"8鄰","STREET":"建平三街","SECT":" ","MAREA":" ","LANE":" ","ALLEY":" ","HOUSE_NO":"１５７號","E_COORD97":165555.51999999999,"N_COORD97":2542938.6800000002,"ADDRESS":"建平三街１５７號","OBJECTID":501417},"geometry":{"x":165555.51999999955,"y":2542938.6800000016}},{"attributes":{"ID":501445,"DIS_CODE":0,"TOWNNAME":"安平區","LI":"國平里","LIN":"8鄰","STREET":"建平三街","SECT":" ","MAREA":" ","LANE":" ","ALLEY":" ","HOUSE_NO":"１５５號","E_COORD97":165560.76000000001,"N_COORD97":2542937.5699999998,"ADDRESS":"建平三街１５５號","OBJECTID":501418},"geometry":{"x":165560.76000000071,"y":2542937.5700000003}},{"attributes":{"ID":501446,"DIS_CODE":0,"TOWNNAME":"安平區","LI":"國平里","LIN":"8鄰","STREET":"建平三街","SECT":" ","MAREA":" ","LANE":" ","ALLEY":" ","HOUSE_NO":"１５３號","E_COORD97":165565.84,"N_COORD97":2542936.7799999998,"ADDRESS":"建平三街１５３號","OBJECTID":501419},"geometry":{"x":165565.83999999985,"y":2542936.7800000031}},{"attributes":{"ID":501447,"DIS_CODE":0,"TOWNNAME":"安平區","LI":"國平里","LIN":"8鄰","STREET":"建平三街","SECT":" ","MAREA":" ","LANE":" ","ALLEY":" ","HOUSE_NO":"１５１號","E_COORD97":165570.76000000001,"N_COORD97":2542936.1400000001,"ADDRESS":"建平三街１５１號","OBJECTID":501420},"geometry":{"x":165570.76000000071,"y":2542936.1400000025}},{"attributes":{"ID":501448,"DIS_CODE":0,"TOWNNAME":"安平區","LI":"國平里","LIN":"8鄰","STREET":"建平三街","SECT":" ","MAREA":" ","LANE":" ","ALLEY":" ","HOUSE_NO":"１４７號","E_COORD97":165581.23999999999,"N_COORD97":2542934.3999999999,"ADDRESS":"建平三街１４７號","OBJECTID":501421},"geometry":{"x":165581.24000000115,"y":2542934.4000000022}},{"attributes":{"ID":501449,"DIS_CODE":0,"TOWNNAME":"安平區","LI":"國平里","LIN":"8鄰","STREET":"建平三街","SECT":" ","MAREA":" ","LANE":" ","ALLEY":" ","HOUSE_NO":"１４５號","E_COORD97":165586.16,"N_COORD97":2542933.4399999999,"ADDRESS":"建平三街１４５號","OBJECTID":501422},"geometry":{"x":165586.16000000015,"y":2542933.4400000013}},{"attributes":{"ID":501450,"DIS_CODE":0,"TOWNNAME":"安平區","LI":"國平里","LIN":"8鄰","STREET":"建平三街","SECT":" ","MAREA":" ","LANE":" ","ALLEY":" ","HOUSE_NO":"１４３號","E_COORD97":165591.56,"N_COORD97":2542932.1699999999,"ADDRESS":"建平三街１４３號","OBJECTID":501423},"geometry":{"x":165591.55999999959,"y":2542932.1700000018}},{"attributes":{"ID":501451,"DIS_CODE":0,"TOWNNAME":"安平區","LI":"億載里","LIN":"8鄰","STREET":"光州六街","SECT":" ","MAREA":" ","LANE":" ","ALLEY":" ","HOUSE_NO":"８８號","E_COORD97":164176.10999999999,"N_COORD97":2543550.21,"ADDRESS":"光州六街８８號","OBJECTID":501424},"geometry":{"x":164176.11000000034,"y":2543550.2100000028}},{"attributes":{"ID":501452,"DIS_CODE":0,"TOWNNAME":"安平區","LI":"億載里","LIN":"8鄰","STREET":"光州六街","SECT":" ","MAREA":" ","LANE":" ","ALLEY":" ","HOUSE_NO":"８６號","E_COORD97":164181.04999999999,"N_COORD97":2543555.75,"ADDRESS":"光州六街８６號","OBJECTID":501425},"geometry":{"x":164181.04999999981,"y":2543555.7500000019}},{"attributes":{"ID":501453,"DIS_CODE":0,"TOWNNAME":"安平區","LI":"億載里","LIN":"8鄰","STREET":"光州六街","SECT":" ","MAREA":" ","LANE":" ","ALLEY":" ","HOUSE_NO":"１０８號","E_COORD97":164141.82999999999,"N_COORD97":2543550.0800000001,"ADDRESS":"光州六街１０８號","OBJECTID":501426},"geometry":{"x":164141.83000000101,"y":2543550.0800000019}},{"attributes":{"ID":501454,"DIS_CODE":0,"TOWNNAME":"安平區","LI":"億載里","LIN":"8鄰","STREET":"光州六街","SECT":" ","MAREA":" ","LANE":" ","ALLEY":" ","HOUSE_NO":"１１０號","E_COORD97":164138.03,"N_COORD97":2543550.21,"ADDRESS":"光州六街１１０號","OBJECTID":501427},"geometry":{"x":164138.02999999933,"y":2543550.2100000028}},{"attributes":{"ID":501455,"DIS_CODE":0,"TOWNNAME":"安平區","LI":"億載里","LIN":"8鄰","STREET":"光州六街","SECT":" ","MAREA":" ","LANE":" ","ALLEY":" ","HOUSE_NO":"１０１號","E_COORD97":164032.23000000001,"N_COORD97":2543532.3799999999,"ADDRESS":"光州六街１０１號","OBJECTID":501428},"geometry":{"x":164032.23000000138,"y":2543532.3800000027}},{"attributes":{"ID":501456,"DIS_CODE":0,"TOWNNAME":"安平區","LI":"億載里","LIN":"8鄰","STREET":"光州六街","SECT":" ","MAREA":" ","LANE":" ","ALLEY":" ","HOUSE_NO":"１０３號","E_COORD97":164025.23999999999,"N_COORD97":2543532.2200000002,"ADDRESS":"光州六街１０３號","OBJECTID":501429},"geometry":{"x":164025.24000000115,"y":2543532.2200000025}},{"attributes":{"ID":501457,"DIS_CODE":0,"TOWNNAME":"安平區","LI":"億載里","LIN":"8鄰","STREET":"郡平路","SECT":" ","MAREA":" ","LANE":" ","ALLEY":" ","HOUSE_NO":"３１０號","E_COORD97":164263.56,"N_COORD97":2543419.9500000002,"ADDRESS":"郡平路３１０號","OBJECTID":501430},"geometry":{"x":164263.55999999959,"y":2543419.9499999993}},{"attributes":{"ID":501458,"DIS_CODE":0,"TOWNNAME":"安平區","LI":"億載里","LIN":"8鄰","STREET":"光州六街","SECT":" ","MAREA":" ","LANE":" ","ALLEY":" ","HOUSE_NO":"６６號","E_COORD97":164210.10999999999,"N_COORD97":2543554.1899999999,"ADDRESS":"光州六街６６號","OBJECTID":501431},"geometry":{"x":164210.11000000034,"y":2543554.1899999995}},{"attributes":{"ID":501459,"DIS_CODE":0,"TOWNNAME":"安平區","LI":"建平里","LIN":"8鄰","STREET":"府前三街","SECT":" ","MAREA":" ","LANE":" ","ALLEY":" ","HOUSE_NO":"１２８號","E_COORD97":166524.07000000001,"N_COORD97":2543945.29,"ADDRESS":"府前三街１２８號","OBJECTID":501432},"geometry":{"x":166524.0700000003,"y":2543945.2899999991}},{"attributes":{"ID":501460,"DIS_CODE":0,"TOWNNAME":"安平區","LI":"建平里","LIN":"8鄰","STREET":"府前三街","SECT":" ","MAREA":" ","LANE":" ","ALLEY":" ","HOUSE_NO":"１３０號","E_COORD97":166524.07000000001,"N_COORD97":2543949.7400000002,"ADDRESS":"府前三街１３０號","OBJECTID":501433},"geometry":{"x":166524.0700000003,"y":2543949.7400000021}},{"attributes":{"ID":501461,"DIS_CODE":0,"TOWNNAME":"安平區","LI":"建平里","LIN":"8鄰","STREET":"府前三街","SECT":" ","MAREA":" ","LANE":" ","ALLEY":" ","HOUSE_NO":"１２６號","E_COORD97":166524.22,"N_COORD97":2543941.6400000001,"ADDRESS":"府前三街１２６號","OBJECTID":501434},"geometry":{"x":166524.21999999974,"y":2543941.6400000006}},{"attributes":{"ID":501462,"DIS_CODE":0,"TOWNNAME":"安平區","LI":"億載里","LIN":"8鄰","STREET":"光州六街","SECT":" ","MAREA":" ","LANE":" ","ALLEY":" ","HOUSE_NO":"４０號","E_COORD97":164245.03,"N_COORD97":2543550.7599999998,"ADDRESS":"光州六街４０號","OBJECTID":501435},"geometry":{"x":164245.03000000212,"y":2543550.7599999979}},{"attributes":{"ID":501463,"DIS_CODE":0,"TOWNNAME":"安平區","LI":"億載里","LIN":"8鄰","STREET":"光州六街","SECT":" ","MAREA":" ","LANE":" ","ALLEY":" ","HOUSE_NO":"７８號","E_COORD97":164199.95000000001,"N_COORD97":2543555.29,"ADDRESS":"光州六街７８號","OBJECTID":501436},"geometry":{"x":164199.95000000112,"y":2543555.2899999991}},{"attributes":{"ID":501464,"DIS_CODE":0,"TOWNNAME":"安平區","LI":"億載里","LIN":"8鄰","STREET":"光州六街","SECT":" ","MAREA":" ","LANE":" ","ALLEY":" ","HOUSE_NO":"７６號","E_COORD97":164195.17999999999,"N_COORD97":2543556.0800000001,"ADDRESS":"光州六街７６號","OBJECTID":501437},"geometry":{"x":164195.1799999997,"y":2543556.0800000038}},{"attributes":{"ID":501465,"DIS_CODE":0,"TOWNNAME":"安平區","LI":"港仔里","LIN":"8鄰","STREET":"平生路","SECT":" ","MAREA":" ","LANE":" ","ALLEY":" ","HOUSE_NO":"２３號","E_COORD97":164276.72,"N_COORD97":2544482.98,"ADDRESS":"平生路２３號","OBJECTID":501438},"geometry":{"x":164276.71999999974,"y":2544482.9800000023}},{"attributes":{"ID":501466,"DIS_CODE":0,"TOWNNAME":"安平區","LI":"港仔里","LIN":"8鄰","STREET":"平生路","SECT":" ","MAREA":" ","LANE":" ","ALLEY":" ","HOUSE_NO":"２１號","E_COORD97":164274.84,"N_COORD97":2544477.5299999998,"ADDRESS":"平生路２１號","OBJECTID":501439},"geometry":{"x":164274.84000000078,"y":2544477.5300000031}},{"attributes":{"ID":501467,"DIS_CODE":0,"TOWNNAME":"安平區","LI":"億載里","LIN":"8鄰","STREET":"永華十一街","SECT":" ","MAREA":" ","LANE":" ","ALLEY":" ","HOUSE_NO":"２１號","E_COORD97":164096.98000000001,"N_COORD97":2543441.75,"ADDRESS":"永華十一街２１號","OBJECTID":501440},"geometry":{"x":164096.98000000138,"y":2543441.75}},{"attributes":{"ID":501468,"DIS_CODE":0,"TOWNNAME":"南區","LI":"松安里","LIN":"8鄰","STREET":"灣裡路","SECT":" ","MAREA":" ","LANE":" ","ALLEY":" ","HOUSE_NO":"２８６號","E_COORD97":166109.76999999999,"N_COORD97":2536397.9399999999,"ADDRESS":"灣裡路２８６號","OBJECTID":501441},"geometry":{"x":166109.77000000048,"y":2536397.9399999995}},{"attributes":{"ID":501469,"DIS_CODE":0,"TOWNNAME":"中西區","LI":"小西里","LIN":"8鄰","STREET":"西門路","SECT":"一段","MAREA":" ","LANE":" ","ALLEY":" ","HOUSE_NO":"６９８號","E_COORD97":167751.20999999999,"N_COORD97":2543352.4399999999,"ADDRESS":"西門路一段６９８號","OBJECTID":501442},"geometry":{"x":167751.21000000089,"y":2543352.4399999995}},{"attributes":{"ID":501470,"DIS_CODE":0,"TOWNNAME":"中西區","LI":"小西里","LIN":"8鄰","STREET":"西門路","SECT":"一段","MAREA":" ","LANE":" ","ALLEY":" ","HOUSE_NO":"７００號","E_COORD97":167751.70000000001,"N_COORD97":2543355.48,"ADDRESS":"西門路一段７００號","OBJECTID":501443},"geometry":{"x":167751.70000000112,"y":2543355.4800000004}},{"attributes":{"ID":501471,"DIS_CODE":0,"TOWNNAME":"中西區","LI":"五妃里","LIN":"8鄰","STREET":"南寧街","SECT":" ","MAREA":" ","LANE":" ","ALLEY":" ","HOUSE_NO":"１９號","E_COORD97":168497.78,"N_COORD97":2542760.1400000001,"ADDRESS":"南寧街１９號","OBJECTID":501444},"geometry":{"x":168497.78000000026,"y":2542760.1400000025}},{"attributes":{"ID":501472,"DIS_CODE":0,"TOWNNAME":"中西區","LI":"小西里","LIN":"8鄰","STREET":"西門路","SECT":"一段","MAREA":" ","LANE":" ","ALLEY":" ","HOUSE_NO":"６７８號","E_COORD97":167748.35999999999,"N_COORD97":2543312.3100000001,"ADDRESS":"西門路一段６７８號","OBJECTID":501445},"geometry":{"x":167748.3599999994,"y":2543312.3100000024}},{"attributes":{"ID":501473,"DIS_CODE":0,"TOWNNAME":"安南區","LI":"溪心里","LIN":"8鄰","STREET":"安中路","SECT":"二段","MAREA":" ","LANE":" ","ALLEY":" ","HOUSE_NO":"３０１號","E_COORD97":166464.45999999999,"N_COORD97":2549698.9700000002,"ADDRESS":"安中路二段３０１號","OBJECTID":501446},"geometry":{"x":166464.46000000089,"y":2549698.9700000007}},{"attributes":{"ID":501474,"DIS_CODE":0,"TOWNNAME":"安南區","LI":"溪心里","LIN":"8鄰","STREET":"海佃路","SECT":"二段","MAREA":" ","LANE":" ","ALLEY":" ","HOUSE_NO":"７８０號","E_COORD97":166478.10000000001,"N_COORD97":2549620.6800000002,"ADDRESS":"海佃路二段７８０號","OBJECTID":501447},"geometry":{"x":166478.10000000149,"y":2549620.6800000016}},{"attributes":{"ID":501475,"DIS_CODE":0,"TOWNNAME":"安南區","LI":"溪心里","LIN":"8鄰","STREET":"海佃路","SECT":"二段","MAREA":" ","LANE":" ","ALLEY":" ","HOUSE_NO":"７８２號","E_COORD97":166471.48999999999,"N_COORD97":2549625.9100000001,"ADDRESS":"海佃路二段７８２號","OBJECTID":501448},"geometry":{"x":166471.49000000115,"y":2549625.9100000039}},{"attributes":{"ID":501476,"DIS_CODE":0,"TOWNNAME":"安南區","LI":"溪心里","LIN":"8鄰","STREET":"海佃路","SECT":"二段","MAREA":" ","LANE":" ","ALLEY":" ","HOUSE_NO":"７８４號","E_COORD97":166473.5,"N_COORD97":2549635.4300000002,"ADDRESS":"海佃路二段７８４號","OBJECTID":501449},"geometry":{"x":166473.5,"y":2549635.4300000034}},{"attributes":{"ID":501477,"DIS_CODE":0,"TOWNNAME":"安南區","LI":"溪心里","LIN":"8鄰","STREET":"海佃路","SECT":"二段","MAREA":" ","LANE":" ","ALLEY":" ","HOUSE_NO":"８１２號","E_COORD97":166432.72,"N_COORD97":2549687.8500000001,"ADDRESS":"海佃路二段８１２號","OBJECTID":501450},"geometry":{"x":166432.71999999974,"y":2549687.8500000015}},{"attributes":{"ID":501478,"DIS_CODE":0,"TOWNNAME":"安南區","LI":"溪墘里","LIN":"8鄰","STREET":"安富街","SECT":" ","MAREA":" ","LANE":" ","ALLEY":" ","HOUSE_NO":"３５４號","E_COORD97":167294.48999999999,"N_COORD97":2547405.7599999998,"ADDRESS":"安富街３５４號","OBJECTID":501451},"geometry":{"x":167294.49000000022,"y":2547405.7600000035}},{"attributes":{"ID":501479,"DIS_CODE":0,"TOWNNAME":"安南區","LI":"溪墘里","LIN":"8鄰","STREET":"安富街","SECT":" ","MAREA":" ","LANE":" ","ALLEY":" ","HOUSE_NO":"３５６號","E_COORD97":167290.32000000001,"N_COORD97":2547404.7400000002,"ADDRESS":"安富街３５６號","OBJECTID":501452},"geometry":{"x":167290.3200000003,"y":2547404.7400000021}},{"attributes":{"ID":501480,"DIS_CODE":0,"TOWNNAME":"安南區","LI":"溪墘里","LIN":"8鄰","STREET":"安富街","SECT":" ","MAREA":" ","LANE":" ","ALLEY":" ","HOUSE_NO":"３５８號","E_COORD97":167284.94,"N_COORD97":2547403.8100000001,"ADDRESS":"安富街３５８號","OBJECTID":501453},"geometry":{"x":167284.94000000041,"y":2547403.8100000024}},{"attributes":{"ID":501481,"DIS_CODE":0,"TOWNNAME":"安南區","LI":"溪墘里","LIN":"8鄰","STREET":"安富街","SECT":" ","MAREA":" ","LANE":" ","ALLEY":" ","HOUSE_NO":"３６０號","E_COORD97":167279.84,"N_COORD97":2547402.8900000001,"ADDRESS":"安富街３６０號","OBJECTID":501454},"geometry":{"x":167279.83999999985,"y":2547402.8900000025}},{"attributes":{"ID":501482,"DIS_CODE":0,"TOWNNAME":"安南區","LI":"溪墘里","LIN":"8鄰","STREET":"安富街","SECT":" ","MAREA":" ","LANE":" ","ALLEY":" ","HOUSE_NO":"３６２號","E_COORD97":167275.10999999999,"N_COORD97":2547402.0499999998,"ADDRESS":"安富街３６２號","OBJECTID":501455},"geometry":{"x":167275.11000000034,"y":2547402.0500000026}},{"attributes":{"ID":501483,"DIS_CODE":0,"TOWNNAME":"安南區","LI":"溪墘里","LIN":"8鄰","STREET":"安富街","SECT":" ","MAREA":" ","LANE":" ","ALLEY":" ","HOUSE_NO":"３６４號","E_COORD97":167270.84,"N_COORD97":2547400.48,"ADDRESS":"安富街３６４號","OBJECTID":501456},"geometry":{"x":167270.84000000078,"y":2547400.4800000004}},{"attributes":{"ID":501484,"DIS_CODE":0,"TOWNNAME":"安南區","LI":"溪墘里","LIN":"8鄰","STREET":"安富街","SECT":" ","MAREA":" ","LANE":" ","ALLEY":" ","HOUSE_NO":"３６６號","E_COORD97":167265.84,"N_COORD97":2547400.3900000001,"ADDRESS":"安富街３６６號","OBJECTID":501457},"geometry":{"x":167265.83999999985,"y":2547400.3900000025}},{"attributes":{"ID":501485,"DIS_CODE":0,"TOWNNAME":"安南區","LI":"溪墘里","LIN":"8鄰","STREET":"安富街","SECT":" ","MAREA":" ","LANE":" ","ALLEY":" ","HOUSE_NO":"３６８號","E_COORD97":167261.01999999999,"N_COORD97":2547399.3700000001,"ADDRESS":"安富街３６８號","OBJECTID":501458},"geometry":{"x":167261.01999999955,"y":2547399.370000001}},{"attributes":{"ID":501486,"DIS_CODE":0,"TOWNNAME":"安南區","LI":"溪墘里","LIN":"8鄰","STREET":"安富街","SECT":" ","MAREA":" ","LANE":" ","ALLEY":" ","HOUSE_NO":"３７０號","E_COORD97":167256.29000000001,"N_COORD97":2547398.2599999998,"ADDRESS":"安富街３７０號","OBJECTID":501459},"geometry":{"x":167256.29000000004,"y":2547398.2599999998}},{"attributes":{"ID":501487,"DIS_CODE":0,"TOWNNAME":"安南區","LI":"溪墘里","LIN":"8鄰","STREET":"安富街","SECT":" ","MAREA":" ","LANE":" ","ALLEY":" ","HOUSE_NO":"３７２號","E_COORD97":167251.38,"N_COORD97":2547397.7000000002,"ADDRESS":"安富街３７２號","OBJECTID":501460},"geometry":{"x":167251.38000000082,"y":2547397.6999999993}},{"attributes":{"ID":501488,"DIS_CODE":0,"TOWNNAME":"安南區","LI":"溪墘里","LIN":"8鄰","STREET":"安富街","SECT":" ","MAREA":" ","LANE":" ","ALLEY":" ","HOUSE_NO":"３７４號","E_COORD97":167246.92999999999,"N_COORD97":2547396.6800000002,"ADDRESS":"安富街３７４號","OBJECTID":501461},"geometry":{"x":167246.9299999997,"y":2547396.6800000016}},{"attributes":{"ID":501489,"DIS_CODE":0,"TOWNNAME":"安南區","LI":"溪墘里","LIN":"8鄰","STREET":"安富街","SECT":" ","MAREA":" ","LANE":" ","ALLEY":" ","HOUSE_NO":"３７６號","E_COORD97":167241.45000000001,"N_COORD97":2547396.04,"ADDRESS":"安富街３７６號","OBJECTID":501462},"geometry":{"x":167241.45000000112,"y":2547396.0399999991}},{"attributes":{"ID":501490,"DIS_CODE":0,"TOWNNAME":"安南區","LI":"溪墘里","LIN":"8鄰","STREET":"安富街","SECT":" ","MAREA":" ","LANE":" ","ALLEY":" ","HOUSE_NO":"３７８號","E_COORD97":167237.10000000001,"N_COORD97":2547394.9199999999,"ADDRESS":"安富街３７８號","OBJECTID":501463},"geometry":{"x":167237.09999999963,"y":2547394.9200000037}},{"attributes":{"ID":501491,"DIS_CODE":0,"TOWNNAME":"安南區","LI":"溪墘里","LIN":"8鄰","STREET":"安富街","SECT":" ","MAREA":" ","LANE":" ","ALLEY":" ","HOUSE_NO":"３８０號","E_COORD97":167232.44,"N_COORD97":2547393.9100000001,"ADDRESS":"安富街３８０號","OBJECTID":501464},"geometry":{"x":167232.44000000041,"y":2547393.9100000001}},{"attributes":{"ID":501492,"DIS_CODE":0,"TOWNNAME":"安南區","LI":"溪墘里","LIN":"8鄰","STREET":"安富街","SECT":" ","MAREA":" ","LANE":" ","ALLEY":" ","HOUSE_NO":"３８２號","E_COORD97":167226.88,"N_COORD97":2547393.9100000001,"ADDRESS":"安富街３８２號","OBJECTID":501465},"geometry":{"x":167226.87999999989,"y":2547393.9100000001}},{"attributes":{"ID":501493,"DIS_CODE":0,"TOWNNAME":"安南區","LI":"溪墘里","LIN":"8鄰","STREET":"安富街","SECT":" ","MAREA":" ","LANE":" ","ALLEY":" ","HOUSE_NO":"３８４號","E_COORD97":167223.26000000001,"N_COORD97":2547389.54,"ADDRESS":"安富街３８４號","OBJECTID":501466},"geometry":{"x":167223.26000000071,"y":2547389.5399999972}},{"attributes":{"ID":501494,"DIS_CODE":0,"TOWNNAME":"安南區","LI":"溪墘里","LIN":"8鄰","STREET":"安富街","SECT":" ","MAREA":" ","LANE":" ","ALLEY":" ","HOUSE_NO":"３９２號","E_COORD97":167204.42000000001,"N_COORD97":2547386.0099999998,"ADDRESS":"安富街３９２號","OBJECTID":501467},"geometry":{"x":167204.41999999993,"y":2547386.0099999998}},{"attributes":{"ID":501495,"DIS_CODE":0,"TOWNNAME":"安南區","LI":"溪墘里","LIN":"8鄰","STREET":"安富街","SECT":" ","MAREA":" ","LANE":" ","ALLEY":" ","HOUSE_NO":"３９８號","E_COORD97":167189.82999999999,"N_COORD97":2547382.6899999999,"ADDRESS":"安富街３９８號","OBJECTID":501468},"geometry":{"x":167189.83000000007,"y":2547382.6900000013}},{"attributes":{"ID":501496,"DIS_CODE":0,"TOWNNAME":"安南區","LI":"溪墘里","LIN":"8鄰","STREET":"安富街","SECT":" ","MAREA":" ","LANE":" ","ALLEY":" ","HOUSE_NO":"４００號","E_COORD97":167185.59,"N_COORD97":2547381.2799999998,"ADDRESS":"安富街４００號","OBJECTID":501469},"geometry":{"x":167185.59000000078,"y":2547381.2799999975}},{"attributes":{"ID":501497,"DIS_CODE":0,"TOWNNAME":"安南區","LI":"溪墘里","LIN":"8鄰","STREET":"安富街","SECT":" ","MAREA":" ","LANE":" ","ALLEY":" ","HOUSE_NO":"４０４號","E_COORD97":167175.92000000001,"N_COORD97":2547379.5499999998,"ADDRESS":"安富街４０４號","OBJECTID":501470},"geometry":{"x":167175.91999999993,"y":2547379.5500000007}},{"attributes":{"ID":501498,"DIS_CODE":0,"TOWNNAME":"安南區","LI":"溪墘里","LIN":"8鄰","STREET":"安富街","SECT":" ","MAREA":" ","LANE":" ","ALLEY":" ","HOUSE_NO":"４０６號","E_COORD97":167170.94,"N_COORD97":2547378.6299999999,"ADDRESS":"安富街４０６號","OBJECTID":501471},"geometry":{"x":167170.94000000041,"y":2547378.6300000027}},{"attributes":{"ID":501499,"DIS_CODE":0,"TOWNNAME":"安南區","LI":"溪墘里","LIN":"8鄰","STREET":"安富街","SECT":" ","MAREA":" ","LANE":" ","ALLEY":" ","HOUSE_NO":"４０８號","E_COORD97":167166.56,"N_COORD97":2547377.71,"ADDRESS":"安富街４０８號","OBJECTID":501472},"geometry":{"x":167166.56000000145,"y":2547377.7100000028}},{"attributes":{"ID":501500,"DIS_CODE":0,"TOWNNAME":"安南區","LI":"溪墘里","LIN":"8鄰","STREET":"安富街","SECT":" ","MAREA":" ","LANE":" ","ALLEY":" ","HOUSE_NO":"４１０號","E_COORD97":167162.26000000001,"N_COORD97":2547375.5600000001,"ADDRESS":"安富街４１０號","OBJECTID":501473},"geometry":{"x":167162.26000000071,"y":2547375.5600000024}},{"attributes":{"ID":501501,"DIS_CODE":0,"TOWNNAME":"安南區","LI":"溪心里","LIN":"8鄰","STREET":"安中路","SECT":"二段","MAREA":" ","LANE":" ","ALLEY":" ","HOUSE_NO":"３０９號","E_COORD97":166439.95000000001,"N_COORD97":2549700.7000000002,"ADDRESS":"安中路二段３０９號","OBJECTID":501474},"geometry":{"x":166439.95000000019,"y":2549700.6999999993}},{"attributes":{"ID":501502,"DIS_CODE":0,"TOWNNAME":"安南區","LI":"溪墘里","LIN":"8鄰","STREET":"安富街","SECT":" ","MAREA":" ","LANE":" ","ALLEY":" ","HOUSE_NO":"３９６號","E_COORD97":167194.82000000001,"N_COORD97":2547383.98,"ADDRESS":"安富街３９６號","OBJECTID":501475},"geometry":{"x":167194.82000000123,"y":2547383.9800000004}},{"attributes":{"ID":501503,"DIS_CODE":0,"TOWNNAME":"安南區","LI":"溪墘里","LIN":"8鄰","STREET":"安富街","SECT":" ","MAREA":" ","LANE":" ","ALLEY":" ","HOUSE_NO":"３９４號","E_COORD97":167199.75,"N_COORD97":2547385.3399999999,"ADDRESS":"安富街３９４號","OBJECTID":501476},"geometry":{"x":167199.75000000093,"y":2547385.3400000017}},{"attributes":{"ID":501504,"DIS_CODE":0,"TOWNNAME":"安南區","LI":"佃西里","LIN":"8鄰","STREET":"公學路","SECT":"四段","MAREA":" ","LANE":" ","ALLEY":" ","HOUSE_NO":"３１２號","E_COORD97":165321.25,"N_COORD97":2551776.6899999999,"ADDRESS":"公學路四段３１２號","OBJECTID":501477},"geometry":{"x":165321.25000000186,"y":2551776.6900000013}},{"attributes":{"ID":501505,"DIS_CODE":0,"TOWNNAME":"安南區","LI":"佃西里","LIN":"8鄰","STREET":"公學路","SECT":"四段","MAREA":" ","LANE":" ","ALLEY":" ","HOUSE_NO":"３１４號","E_COORD97":165318.01000000001,"N_COORD97":2551773.9399999999,"ADDRESS":"公學路四段３１４號","OBJECTID":501478},"geometry":{"x":165318.01000000071,"y":2551773.9399999995}},{"attributes":{"ID":501506,"DIS_CODE":0,"TOWNNAME":"安南區","LI":"\u25A0南里","LIN":"8鄰","STREET":"安昌街","SECT":" ","MAREA":" ","LANE":" ","ALLEY":" ","HOUSE_NO":"２２１號","E_COORD97":170104.89000000001,"N_COORD97":2552549.6299999999,"ADDRESS":"安昌街２２１號","OBJECTID":501479},"geometry":{"x":170104.88999999966,"y":2552549.6300000008}},{"attributes":{"ID":501507,"DIS_CODE":0,"TOWNNAME":"安南區","LI":"\u25A0南里","LIN":"8鄰","STREET":"安昌街","SECT":" ","MAREA":" ","LANE":" ","ALLEY":" ","HOUSE_NO":"２２５號","E_COORD97":170113.72,"N_COORD97":2552556.7599999998,"ADDRESS":"安昌街２２５號","OBJECTID":501480},"geometry":{"x":170113.72000000067,"y":2552556.7600000016}},{"attributes":{"ID":501508,"DIS_CODE":0,"TOWNNAME":"安南區","LI":"\u25A0南里","LIN":"8鄰","STREET":"安昌街","SECT":" ","MAREA":" ","LANE":" ","ALLEY":" ","HOUSE_NO":"２２７號","E_COORD97":170112.81,"N_COORD97":2552572.1099999999,"ADDRESS":"安昌街２２７號","OBJECTID":501481},"geometry":{"x":170112.81000000145,"y":2552572.1099999994}},{"attributes":{"ID":501509,"DIS_CODE":0,"TOWNNAME":"安南區","LI":"\u25A0南里","LIN":"8鄰","STREET":"安昌街","SECT":" ","MAREA":" ","LANE":" ","ALLEY":" ","HOUSE_NO":"２３７號","E_COORD97":170096.57999999999,"N_COORD97":2552584.8199999998,"ADDRESS":"安昌街２３７號","OBJECTID":501482},"geometry":{"x":170096.58000000101,"y":2552584.8200000003}},{"attributes":{"ID":501510,"DIS_CODE":0,"TOWNNAME":"南區","LI":"國宅里","LIN":"8鄰","STREET":"新孝路","SECT":" ","MAREA":" ","LANE":" ","ALLEY":" ","HOUSE_NO":"５１號","E_COORD97":166910.53,"N_COORD97":2542039.5499999998,"ADDRESS":"新孝路５１號","OBJECTID":501483},"geometry":{"x":166910.53000000119,"y":2542039.5500000026}},{"attributes":{"ID":501511,"DIS_CODE":0,"TOWNNAME":"南區","LI":"國宅里","LIN":"8鄰","STREET":"新孝路","SECT":" ","MAREA":" ","LANE":" ","ALLEY":" ","HOUSE_NO":"５７號","E_COORD97":166896.70999999999,"N_COORD97":2542040.3100000001,"ADDRESS":"新孝路５７號","OBJECTID":501484},"geometry":{"x":166896.71000000089,"y":2542040.3100000024}},{"attributes":{"ID":501512,"DIS_CODE":0,"TOWNNAME":"南區","LI":"國宅里","LIN":"8鄰","STREET":"新孝路","SECT":" ","MAREA":" ","LANE":" ","ALLEY":" ","HOUSE_NO":"３９號","E_COORD97":166940.23000000001,"N_COORD97":2542036.2200000002,"ADDRESS":"新孝路３９號","OBJECTID":501485},"geometry":{"x":166940.23000000045,"y":2542036.2200000007}},{"attributes":{"ID":501513,"DIS_CODE":0,"TOWNNAME":"南區","LI":"國宅里","LIN":"8鄰","STREET":"新孝路","SECT":" ","MAREA":" ","LANE":" ","ALLEY":" ","HOUSE_NO":"４１號","E_COORD97":166934.60000000001,"N_COORD97":2542037.2400000002,"ADDRESS":"新孝路４１號","OBJECTID":501486},"geometry":{"x":166934.60000000056,"y":2542037.2400000021}},{"attributes":{"ID":501514,"DIS_CODE":0,"TOWNNAME":"南區","LI":"國宅里","LIN":"8鄰","STREET":"新孝路","SECT":" ","MAREA":" ","LANE":" ","ALLEY":" ","HOUSE_NO":"４３號","E_COORD97":166929.73000000001,"N_COORD97":2542038.0099999998,"ADDRESS":"新孝路４３號","OBJECTID":501487},"geometry":{"x":166929.73000000138,"y":2542038.0100000016}},{"attributes":{"ID":501515,"DIS_CODE":0,"TOWNNAME":"南區","LI":"國宅里","LIN":"8鄰","STREET":"新孝路","SECT":" ","MAREA":" ","LANE":" ","ALLEY":" ","HOUSE_NO":"４５號","E_COORD97":166925.12,"N_COORD97":2542038.27,"ADDRESS":"新孝路４５號","OBJECTID":501488},"geometry":{"x":166925.12000000011,"y":2542038.2699999996}},{"attributes":{"ID":501516,"DIS_CODE":0,"TOWNNAME":"南區","LI":"國宅里","LIN":"8鄰","STREET":"新孝路","SECT":" ","MAREA":" ","LANE":" ","ALLEY":" ","HOUSE_NO":"４７號","E_COORD97":166920.51999999999,"N_COORD97":2542038.7799999998,"ADDRESS":"新孝路４７號","OBJECTID":501489},"geometry":{"x":166920.51999999955,"y":2542038.7800000012}},{"attributes":{"ID":501517,"DIS_CODE":0,"TOWNNAME":"南區","LI":"國宅里","LIN":"8鄰","STREET":"新孝路","SECT":" ","MAREA":" ","LANE":" ","ALLEY":" ","HOUSE_NO":"４９號","E_COORD97":166915.91,"N_COORD97":2542039.0299999998,"ADDRESS":"新孝路４９號","OBJECTID":501490},"geometry":{"x":166915.91000000108,"y":2542039.0299999993}},{"attributes":{"ID":501518,"DIS_CODE":0,"TOWNNAME":"南區","LI":"喜北里","LIN":"8鄰","STREET":"喜樹路","SECT":" ","MAREA":" ","LANE":" ","ALLEY":" ","HOUSE_NO":"１１２號","E_COORD97":165872.29000000001,"N_COORD97":2538355.4199999999,"ADDRESS":"喜樹路１１２號","OBJECTID":501491},"geometry":{"x":165872.29000000097,"y":2538355.4199999999}},{"attributes":{"ID":501519,"DIS_CODE":0,"TOWNNAME":"南區","LI":"喜北里","LIN":"8鄰","STREET":"喜樹路","SECT":" ","MAREA":" ","LANE":" ","ALLEY":" ","HOUSE_NO":"１１４號","E_COORD97":165872.48999999999,"N_COORD97":2538350.9900000002,"ADDRESS":"喜樹路１１４號","OBJECTID":501492},"geometry":{"x":165872.49000000209,"y":2538350.9900000002}},{"attributes":{"ID":501520,"DIS_CODE":0,"TOWNNAME":"永康區","LI":"烏竹里","LIN":"8鄰","STREET":"龍橋街","SECT":" ","MAREA":" ","LANE":" ","ALLEY":" ","HOUSE_NO":"３９１號","E_COORD97":174437.72,"N_COORD97":2549161.1099999999,"ADDRESS":"龍橋街３９１號","OBJECTID":501493},"geometry":{"x":174437.71999999974,"y":2549161.1099999994}},{"attributes":{"ID":501521,"DIS_CODE":0,"TOWNNAME":"永康區","LI":"烏竹里","LIN":"8鄰","STREET":"竹園二街","SECT":" ","MAREA":" ","LANE":" ","ALLEY":" ","HOUSE_NO":"１３３號","E_COORD97":174321.51999999999,"N_COORD97":2549163.2400000002,"ADDRESS":"竹園二街１３３號","OBJECTID":501494},"geometry":{"x":174321.51999999955,"y":2549163.2400000021}},{"attributes":{"ID":501522,"DIS_CODE":0,"TOWNNAME":"永康區","LI":"東灣里","LIN":"8鄰","STREET":"大灣路","SECT":" ","MAREA":" ","LANE":" ","ALLEY":" ","HOUSE_NO":"４３８號","E_COORD97":174762.57999999999,"N_COORD97":2544970.2599999998,"ADDRESS":"大灣路４３８號","OBJECTID":501495},"geometry":{"x":174762.58000000007,"y":2544970.2599999998}},{"attributes":{"ID":501523,"DIS_CODE":0,"TOWNNAME":"永康區","LI":"南灣里","LIN":"8鄰","STREET":"大灣東路","SECT":" ","MAREA":" ","LANE":" ","ALLEY":" ","HOUSE_NO":"７６號","E_COORD97":174342.29000000001,"N_COORD97":2544334.25,"ADDRESS":"大灣東路７６號","OBJECTID":501496},"geometry":{"x":174342.29000000004,"y":2544334.2499999981}},{"attributes":{"ID":501524,"DIS_CODE":0,"TOWNNAME":"安南區","LI":"學東里","LIN":"8鄰","STREET":"公學路","SECT":"六段","MAREA":" ","LANE":" ","ALLEY":" ","HOUSE_NO":"４７２號","E_COORD97":162690.94,"N_COORD97":2553222,"ADDRESS":"公學路六段４７２號","OBJECTID":501497},"geometry":{"x":162690.94000000041,"y":2553222}},{"attributes":{"ID":501525,"DIS_CODE":0,"TOWNNAME":"安南區","LI":"學東里","LIN":"8鄰","STREET":"公學路","SECT":"六段","MAREA":" ","LANE":" ","ALLEY":" ","HOUSE_NO":"４７４號","E_COORD97":162686.56,"N_COORD97":2553222.6800000002,"ADDRESS":"公學路六段４７４號","OBJECTID":501498},"geometry":{"x":162686.56000000052,"y":2553222.6799999997}},{"attributes":{"ID":501526,"DIS_CODE":0,"TOWNNAME":"安南區","LI":"學東里","LIN":"8鄰","STREET":"公學路","SECT":"六段","MAREA":" ","LANE":" ","ALLEY":" ","HOUSE_NO":"４８４號","E_COORD97":162661.57000000001,"N_COORD97":2553219.6899999999,"ADDRESS":"公學路六段４８４號","OBJECTID":501499},"geometry":{"x":162661.57000000123,"y":2553219.6899999995}},{"attributes":{"ID":501527,"DIS_CODE":0,"TOWNNAME":"安南區","LI":"學東里","LIN":"8鄰","STREET":"公學路","SECT":"六段","MAREA":" ","LANE":" ","ALLEY":" ","HOUSE_NO":"４９６號","E_COORD97":162627.31,"N_COORD97":2553220.6000000001,"ADDRESS":"公學路六段４９６號","OBJECTID":501500},"geometry":{"x":162627.31000000052,"y":2553220.5999999996}},{"attributes":{"ID":501528,"DIS_CODE":0,"TOWNNAME":"安南區","LI":"學東里","LIN":"8鄰","STREET":"公學路","SECT":"六段","MAREA":" ","LANE":" ","ALLEY":" ","HOUSE_NO":"５０６號","E_COORD97":162624.45000000001,"N_COORD97":2553254.8300000001,"ADDRESS":"公學路六段５０６號","OBJECTID":501501},"geometry":{"x":162624.45000000019,"y":2553254.8300000019}},{"attributes":{"ID":501529,"DIS_CODE":0,"TOWNNAME":"新市區","LI":"新和里","LIN":"8鄰","STREET":"仁愛街","SECT":" ","MAREA":" ","LANE":" ","ALLEY":" ","HOUSE_NO":"１０２號","E_COORD97":177545,"N_COORD97":2552473.02,"ADDRESS":"仁愛街１０２號","OBJECTID":501502},"geometry":{"x":177545,"y":2552473.0200000014}},{"attributes":{"ID":501530,"DIS_CODE":0,"TOWNNAME":"新市區","LI":"新和里","LIN":"8鄰","STREET":"仁愛街","SECT":" ","MAREA":" ","LANE":" ","ALLEY":" ","HOUSE_NO":"８８號","E_COORD97":177538.29000000001,"N_COORD97":2552445.7799999998,"ADDRESS":"仁愛街８８號","OBJECTID":501503},"geometry":{"x":177538.2900000019,"y":2552445.7799999993}},{"attributes":{"ID":501531,"DIS_CODE":0,"TOWNNAME":"麻豆區","LI":"保安里","LIN":"8鄰","STREET":"文昌路","SECT":" ","MAREA":" ","LANE":" ","ALLEY":" ","HOUSE_NO":"１７號之２","E_COORD97":173431.37,"N_COORD97":2564932.48,"ADDRESS":"文昌路１７號之２","OBJECTID":501504},"geometry":{"x":173431.37000000011,"y":2564932.4800000004}},{"attributes":{"ID":501532,"DIS_CODE":0,"TOWNNAME":"麻豆區","LI":"保安里","LIN":"8鄰","STREET":"文昌路","SECT":" ","MAREA":" ","LANE":" ","ALLEY":" ","HOUSE_NO":"１７號之４","E_COORD97":173433.10000000001,"N_COORD97":2564937.3700000001,"ADDRESS":"文昌路１７號之４","OBJECTID":501505},"geometry":{"x":173433.09999999963,"y":2564937.370000001}},{"attributes":{"ID":501533,"DIS_CODE":0,"TOWNNAME":"東區","LI":"龍山里","LIN":"8鄰","STREET":"府連東路","SECT":" ","MAREA":" ","LANE":" ","ALLEY":" ","HOUSE_NO":"５３號","E_COORD97":169875.01000000001,"N_COORD97":2542751.8799999999,"ADDRESS":"府連東路５３號","OBJECTID":501506},"geometry":{"x":169875.01000000071,"y":2542751.879999999}},{"attributes":{"ID":501534,"DIS_CODE":0,"TOWNNAME":"東區","LI":"南聖里","LIN":"8鄰","STREET":"裕農一街","SECT":" ","MAREA":" ","LANE":" ","ALLEY":" ","HOUSE_NO":"２９號","E_COORD97":171924.10999999999,"N_COORD97":2543151.8799999999,"ADDRESS":"裕農一街２９號","OBJECTID":501507},"geometry":{"x":171924.11000000127,"y":2543151.879999999}},{"attributes":{"ID":501535,"DIS_CODE":0,"TOWNNAME":"東區","LI":"南聖里","LIN":"8鄰","STREET":"裕農一街","SECT":" ","MAREA":" ","LANE":" ","ALLEY":" ","HOUSE_NO":"２７號","E_COORD97":171923.75,"N_COORD97":2543161.54,"ADDRESS":"裕農一街２７號","OBJECTID":501508},"geometry":{"x":171923.75,"y":2543161.5399999991}},{"attributes":{"ID":501536,"DIS_CODE":0,"TOWNNAME":"東區","LI":"南聖里","LIN":"8鄰","STREET":"裕農二街","SECT":" ","MAREA":" ","LANE":" ","ALLEY":" ","HOUSE_NO":"８號","E_COORD97":171949.98999999999,"N_COORD97":2543189.6000000001,"ADDRESS":"裕農二街８號","OBJECTID":501509},"geometry":{"x":171949.99000000115,"y":2543189.6000000015}},{"attributes":{"ID":501537,"DIS_CODE":0,"TOWNNAME":"東區","LI":"南聖里","LIN":"8鄰","STREET":"裕農二街","SECT":" ","MAREA":" ","LANE":" ","ALLEY":" ","HOUSE_NO":"１０號","E_COORD97":171950.72,"N_COORD97":2543179.9500000002,"ADDRESS":"裕農二街１０號","OBJECTID":501510},"geometry":{"x":171950.71999999974,"y":2543179.9500000011}},{"attributes":{"ID":501538,"DIS_CODE":0,"TOWNNAME":"東區","LI":"大德里","LIN":"8鄰","STREET":"立德十一路","SECT":" ","MAREA":" ","LANE":" ","ALLEY":" ","HOUSE_NO":"７３號","E_COORD97":169538.35999999999,"N_COORD97":2542116.1299999999,"ADDRESS":"立德十一路７３號","OBJECTID":501511},"geometry":{"x":169538.36000000034,"y":2542116.129999999}},{"attributes":{"ID":501539,"DIS_CODE":0,"TOWNNAME":"東區","LI":"大德里","LIN":"8鄰","STREET":"立德十一路","SECT":" ","MAREA":" ","LANE":" ","ALLEY":" ","HOUSE_NO":"７１號","E_COORD97":169533.97,"N_COORD97":2542115.46,"ADDRESS":"立德十一路７１號","OBJECTID":501512},"geometry":{"x":169533.97000000067,"y":2542115.4600000009}},{"attributes":{"ID":501540,"DIS_CODE":0,"TOWNNAME":"中西區","LI":"三民里","LIN":"8鄰","STREET":"民權路","SECT":"二段","MAREA":" ","LANE":" ","ALLEY":" ","HOUSE_NO":"１４１號","E_COORD97":168359.75,"N_COORD97":2543919.8799999999,"ADDRESS":"民權路二段１４１號","OBJECTID":501513},"geometry":{"x":168359.75000000093,"y":2543919.8800000008}},{"attributes":{"ID":501541,"DIS_CODE":0,"TOWNNAME":"中西區","LI":"三民里","LIN":"8鄰","STREET":"民權路","SECT":"二段","MAREA":" ","LANE":" ","ALLEY":" ","HOUSE_NO":"１４３號","E_COORD97":168354.85999999999,"N_COORD97":2543919.0299999998,"ADDRESS":"民權路二段１４３號","OBJECTID":501514},"geometry":{"x":168354.86000000034,"y":2543919.0300000012}},{"attributes":{"ID":501542,"DIS_CODE":0,"TOWNNAME":"中西區","LI":"三民里","LIN":"8鄰","STREET":"民權路","SECT":"二段","MAREA":" ","LANE":" ","ALLEY":" ","HOUSE_NO":"１４５號","E_COORD97":168351.72,"N_COORD97":2543921.9199999999,"ADDRESS":"民權路二段１４５號","OBJECTID":501515},"geometry":{"x":168351.71999999974,"y":2543921.9199999999}},{"attributes":{"ID":501543,"DIS_CODE":0,"TOWNNAME":"中西區","LI":"三民里","LIN":"8鄰","STREET":"民權路","SECT":"二段","MAREA":" ","LANE":" ","ALLEY":" ","HOUSE_NO":"９７號","E_COORD97":168441.63,"N_COORD97":2543891.9900000002,"ADDRESS":"民權路二段９７號","OBJECTID":501516},"geometry":{"x":168441.63000000082,"y":2543891.9900000002}},{"attributes":{"ID":501544,"DIS_CODE":0,"TOWNNAME":"中西區","LI":"三民里","LIN":"8鄰","STREET":"忠義路","SECT":"二段","MAREA":" ","LANE":" ","ALLEY":" ","HOUSE_NO":"１０４號","E_COORD97":168342.29000000001,"N_COORD97":2543891.8999999999,"ADDRESS":"忠義路二段１０４號","OBJECTID":501517},"geometry":{"x":168342.29000000097,"y":2543891.9000000004}},{"attributes":{"ID":501545,"DIS_CODE":0,"TOWNNAME":"中西區","LI":"三民里","LIN":"8鄰","STREET":"忠義路","SECT":"二段","MAREA":" ","LANE":" ","ALLEY":" ","HOUSE_NO":"１０６號","E_COORD97":168343.07999999999,"N_COORD97":2543896.8900000001,"ADDRESS":"忠義路二段１０６號","OBJECTID":501518},"geometry":{"x":168343.08000000007,"y":2543896.8900000043}},{"attributes":{"ID":501546,"DIS_CODE":0,"TOWNNAME":"中西區","LI":"三民里","LIN":"8鄰","STREET":"忠義路","SECT":"二段","MAREA":" ","LANE":" ","ALLEY":" ","HOUSE_NO":"１０８號","E_COORD97":168345.26000000001,"N_COORD97":2543901.8500000001,"ADDRESS":"忠義路二段１０８號","OBJECTID":501519},"geometry":{"x":168345.26000000164,"y":2543901.8499999996}},{"attributes":{"ID":501547,"DIS_CODE":0,"TOWNNAME":"中西區","LI":"三民里","LIN":"8鄰","STREET":"忠義路","SECT":"二段","MAREA":" ","LANE":" ","ALLEY":" ","HOUSE_NO":"１１０號","E_COORD97":168346.85000000001,"N_COORD97":2543909.9700000002,"ADDRESS":"忠義路二段１１０號","OBJECTID":501520},"geometry":{"x":168346.85000000056,"y":2543909.9700000044}},{"attributes":{"ID":501548,"DIS_CODE":0,"TOWNNAME":"中西區","LI":"三民里","LIN":"8鄰","STREET":"忠義路","SECT":"二段","MAREA":" ","LANE":" ","ALLEY":" ","HOUSE_NO":"１１２號","E_COORD97":168349.42999999999,"N_COORD97":2543917.5,"ADDRESS":"忠義路二段１１２號","OBJECTID":501521},"geometry":{"x":168349.43000000063,"y":2543917.5}},{"attributes":{"ID":501549,"DIS_CODE":0,"TOWNNAME":"中西區","LI":"三民里","LIN":"8鄰","STREET":"忠義路","SECT":"二段","MAREA":" ","LANE":" ","ALLEY":" ","HOUSE_NO":"８６號","E_COORD97":168333.76000000001,"N_COORD97":2543856.8300000001,"ADDRESS":"忠義路二段８６號","OBJECTID":501522},"geometry":{"x":168333.76000000071,"y":2543856.8300000019}},{"attributes":{"ID":501550,"DIS_CODE":0,"TOWNNAME":"中西區","LI":"三民里","LIN":"8鄰","STREET":"忠義路","SECT":"二段","MAREA":" ","LANE":" ","ALLEY":" ","HOUSE_NO":"８８號","E_COORD97":168332.95999999999,"N_COORD97":2543861.3900000001,"ADDRESS":"忠義路二段８８號","OBJECTID":501523},"geometry":{"x":168332.96000000089,"y":2543861.3900000006}},{"attributes":{"ID":501551,"DIS_CODE":0,"TOWNNAME":"中西區","LI":"三民里","LIN":"8鄰","STREET":"忠義路","SECT":"二段","MAREA":" ","LANE":" ","ALLEY":" ","HOUSE_NO":"９０號","E_COORD97":168334.95000000001,"N_COORD97":2543865.75,"ADDRESS":"忠義路二段９０號","OBJECTID":501524},"geometry":{"x":168334.95000000112,"y":2543865.75}},{"attributes":{"ID":501552,"DIS_CODE":0,"TOWNNAME":"中西區","LI":"三民里","LIN":"8鄰","STREET":"忠義路","SECT":"二段","MAREA":" ","LANE":" ","ALLEY":" ","HOUSE_NO":"９２號","E_COORD97":168335.73999999999,"N_COORD97":2543871.8900000001,"ADDRESS":"忠義路二段９２號","OBJECTID":501525},"geometry":{"x":168335.74000000209,"y":2543871.8900000006}},{"attributes":{"ID":501553,"DIS_CODE":0,"TOWNNAME":"中西區","LI":"三民里","LIN":"8鄰","STREET":"忠義路","SECT":"二段","MAREA":" ","LANE":" ","ALLEY":" ","HOUSE_NO":"９６號","E_COORD97":168337.72,"N_COORD97":2543877.6400000001,"ADDRESS":"忠義路二段９６號","OBJECTID":501526},"geometry":{"x":168337.72000000067,"y":2543877.6400000006}},{"attributes":{"ID":501554,"DIS_CODE":0,"TOWNNAME":"中西區","LI":"萬昌里","LIN":"8鄰","STREET":"城隍街","SECT":" ","MAREA":" ","LANE":" ","ALLEY":" ","HOUSE_NO":"３３號","E_COORD97":168815.23000000001,"N_COORD97":2543384.4900000002,"ADDRESS":"城隍街３３號","OBJECTID":501527},"geometry":{"x":168815.23000000045,"y":2543384.4900000021}},{"attributes":{"ID":501555,"DIS_CODE":0,"TOWNNAME":"中西區","LI":"萬昌里","LIN":"8鄰","STREET":"城隍街","SECT":" ","MAREA":" ","LANE":" ","ALLEY":" ","HOUSE_NO":"３５號","E_COORD97":168814.73000000001,"N_COORD97":2543388.3700000001,"ADDRESS":"城隍街３５號","OBJECTID":501528},"geometry":{"x":168814.73000000138,"y":2543388.370000001}},{"attributes":{"ID":501556,"DIS_CODE":0,"TOWNNAME":"中西區","LI":"萬昌里","LIN":"8鄰","STREET":"城隍街","SECT":" ","MAREA":" ","LANE":" ","ALLEY":" ","HOUSE_NO":"３７號","E_COORD97":168814.23999999999,"N_COORD97":2543392.8300000001,"ADDRESS":"城隍街３７號","OBJECTID":501529},"geometry":{"x":168814.24000000115,"y":2543392.8300000019}},{"attributes":{"ID":501557,"DIS_CODE":0,"TOWNNAME":"中西區","LI":"萬昌里","LIN":"8鄰","STREET":"城隍街","SECT":" ","MAREA":" ","LANE":" ","ALLEY":" ","HOUSE_NO":"３９號","E_COORD97":168816.26000000001,"N_COORD97":2543397.23,"ADDRESS":"城隍街３９號","OBJECTID":501530},"geometry":{"x":168816.25999999978,"y":2543397.2300000023}},{"attributes":{"ID":501558,"DIS_CODE":0,"TOWNNAME":"中西區","LI":"萬昌里","LIN":"8鄰","STREET":"城隍街","SECT":" ","MAREA":" ","LANE":" ","ALLEY":" ","HOUSE_NO":"４２號","E_COORD97":168820.44,"N_COORD97":2543368.3599999999,"ADDRESS":"城隍街４２號","OBJECTID":501531},"geometry":{"x":168820.44000000041,"y":2543368.3600000013}},{"attributes":{"ID":501559,"DIS_CODE":0,"TOWNNAME":"中西區","LI":"萬昌里","LIN":"8鄰","STREET":"城隍街","SECT":" ","MAREA":" ","LANE":" ","ALLEY":" ","HOUSE_NO":"４６號","E_COORD97":168822.92000000001,"N_COORD97":2543373.3999999999,"ADDRESS":"城隍街４６號","OBJECTID":501532},"geometry":{"x":168822.92000000086,"y":2543373.4000000004}},{"attributes":{"ID":501560,"DIS_CODE":0,"TOWNNAME":"中西區","LI":"萬昌里","LIN":"8鄰","STREET":"城隍街","SECT":" ","MAREA":" ","LANE":" ","ALLEY":" ","HOUSE_NO":"４８號","E_COORD97":168830.85000000001,"N_COORD97":2543380.6499999999,"ADDRESS":"城隍街４８號","OBJECTID":501533},"geometry":{"x":168830.8499999987,"y":2543380.6500000022}},{"attributes":{"ID":501561,"DIS_CODE":0,"TOWNNAME":"中西區","LI":"萬昌里","LIN":"8鄰","STREET":"城隍街","SECT":" ","MAREA":" ","LANE":" ","ALLEY":" ","HOUSE_NO":"５０號","E_COORD97":168834.20999999999,"N_COORD97":2543386.8399999999,"ADDRESS":"城隍街５０號","OBJECTID":501534},"geometry":{"x":168834.21000000089,"y":2543386.8399999999}},{"attributes":{"ID":501562,"DIS_CODE":0,"TOWNNAME":"新化區","LI":"護國里","LIN":"8鄰","STREET":"信義路","SECT":" ","MAREA":" ","LANE":" ","ALLEY":" ","HOUSE_NO":"３２號","E_COORD97":180418.20000000001,"N_COORD97":2548707.6699999999,"ADDRESS":"信義路３２號","OBJECTID":501535},"geometry":{"x":180418.20000000112,"y":2548707.6699999999}},{"attributes":{"ID":501563,"DIS_CODE":0,"TOWNNAME":"新化區","LI":"清水里","LIN":"8鄰","STREET":"民權街","SECT":" ","MAREA":" ","LANE":" ","ALLEY":" ","HOUSE_NO":"７７號","E_COORD97":178726.85999999999,"N_COORD97":2548611.25,"ADDRESS":"民權街７７號","OBJECTID":501536},"geometry":{"x":178726.86000000127,"y":2548611.2500000019}},{"attributes":{"ID":501564,"DIS_CODE":0,"TOWNNAME":"新化區","LI":"清水里","LIN":"8鄰","STREET":"忠孝路","SECT":" ","MAREA":" ","LANE":" ","ALLEY":" ","HOUSE_NO":"１０３號","E_COORD97":178732.82000000001,"N_COORD97":2548638.25,"ADDRESS":"忠孝路１０３號","OBJECTID":501537},"geometry":{"x":178732.8200000003,"y":2548638.2500000019}},{"attributes":{"ID":501565,"DIS_CODE":0,"TOWNNAME":"新化區","LI":"護國里","LIN":"8鄰","STREET":"信義路","SECT":" ","MAREA":" ","LANE":" ","ALLEY":" ","HOUSE_NO":"４８號","E_COORD97":180357.84,"N_COORD97":2548750.6600000001,"ADDRESS":"信義路４８號","OBJECTID":501538},"geometry":{"x":180357.83999999985,"y":2548750.660000002}},{"attributes":{"ID":501566,"DIS_CODE":0,"TOWNNAME":"新化區","LI":"清水里","LIN":"8鄰","STREET":"民權街","SECT":" ","MAREA":" ","LANE":" ","ALLEY":" ","HOUSE_NO":"５３號之１","E_COORD97":178745.29000000001,"N_COORD97":2548566.2599999998,"ADDRESS":"民權街５３號之１","OBJECTID":501539},"geometry":{"x":178745.2900000019,"y":2548566.2600000016}},{"attributes":{"ID":501567,"DIS_CODE":0,"TOWNNAME":"新化區","LI":"武安里","LIN":"8鄰","STREET":"和平街","SECT":" ","MAREA":" ","LANE":" ","ALLEY":" ","HOUSE_NO":"８４號","E_COORD97":178987.37,"N_COORD97":2548153.25,"ADDRESS":"和平街８４號","OBJECTID":501540},"geometry":{"x":178987.37000000104,"y":2548153.2500000019}},{"attributes":{"ID":501568,"DIS_CODE":0,"TOWNNAME":"新化區","LI":"協興里","LIN":"8鄰","STREET":"太平街","SECT":" ","MAREA":" ","LANE":" ","ALLEY":" ","HOUSE_NO":"１３２號","E_COORD97":178414.28,"N_COORD97":2548704.5,"ADDRESS":"太平街１３２號","OBJECTID":501541},"geometry":{"x":178414.28000000026,"y":2548704.5000000019}},{"attributes":{"ID":501569,"DIS_CODE":0,"TOWNNAME":"新化區","LI":"護國里","LIN":"8鄰","STREET":"信義路","SECT":" ","MAREA":" ","LANE":" ","ALLEY":" ","HOUSE_NO":"２號","E_COORD97":181594.14999999999,"N_COORD97":2548712.8700000001,"ADDRESS":"信義路２號","OBJECTID":501542},"geometry":{"x":181594.15000000037,"y":2548712.8700000029}},{"attributes":{"ID":501570,"DIS_CODE":0,"TOWNNAME":"新化區","LI":"北勢里","LIN":"8鄰","STREET":"永新路","SECT":" ","MAREA":" ","LANE":" ","ALLEY":" ","HOUSE_NO":"１３號","E_COORD97":177806.09,"N_COORD97":2550990.3700000001,"ADDRESS":"永新路１３號","OBJECTID":501543},"geometry":{"x":177806.09000000078,"y":2550990.3700000029}},{"attributes":{"ID":501571,"DIS_CODE":0,"TOWNNAME":"新化區","LI":"北勢里","LIN":"8鄰","STREET":"永新路","SECT":" ","MAREA":" ","LANE":" ","ALLEY":" ","HOUSE_NO":"１５號","E_COORD97":177802.95000000001,"N_COORD97":2550998.5800000001,"ADDRESS":"永新路１５號","OBJECTID":501544},"geometry":{"x":177802.95000000019,"y":2550998.5800000019}},{"attributes":{"ID":501572,"DIS_CODE":0,"TOWNNAME":"安南區","LI":"城南里","LIN":"8鄰","STREET":"城西街","SECT":"一段","MAREA":" ","LANE":" ","ALLEY":" ","HOUSE_NO":"２２９號","E_COORD97":160403.51999999999,"N_COORD97":2551204.1299999999,"ADDRESS":"城西街一段２２９號","OBJECTID":501545},"geometry":{"x":160403.52000000048,"y":2551204.1300000008}},{"attributes":{"ID":501573,"DIS_CODE":0,"TOWNNAME":"安南區","LI":"城南里","LIN":"8鄰","STREET":"城西街","SECT":"一段","MAREA":" ","LANE":" ","ALLEY":" ","HOUSE_NO":"２３１號","E_COORD97":160399.29000000001,"N_COORD97":2551200.8999999999,"ADDRESS":"城西街一段２３１號","OBJECTID":501546},"geometry":{"x":160399.29000000004,"y":2551200.9000000022}},{"attributes":{"ID":501574,"DIS_CODE":0,"TOWNNAME":"安南區","LI":"城南里","LIN":"8鄰","STREET":"城西街","SECT":"一段","MAREA":" ","LANE":" ","ALLEY":" ","HOUSE_NO":"２３７號","E_COORD97":160388.10000000001,"N_COORD97":2551192.46,"ADDRESS":"城西街一段２３７號","OBJECTID":501547},"geometry":{"x":160388.09999999963,"y":2551192.459999999}},{"attributes":{"ID":501575,"DIS_CODE":0,"TOWNNAME":"安南區","LI":"城南里","LIN":"8鄰","STREET":"城西街","SECT":"一段","MAREA":" ","LANE":" ","ALLEY":" ","HOUSE_NO":"２４５號","E_COORD97":160370.70000000001,"N_COORD97":2551181.54,"ADDRESS":"城西街一段２４５號","OBJECTID":501548},"geometry":{"x":160370.70000000112,"y":2551181.540000001}},{"attributes":{"ID":501576,"DIS_CODE":0,"TOWNNAME":"安南區","LI":"頂安里","LIN":"8鄰","STREET":"怡安路","SECT":"一段","MAREA":" ","LANE":" ","ALLEY":" ","HOUSE_NO":"４４８號","E_COORD97":168586.73000000001,"N_COORD97":2549217.6400000001,"ADDRESS":"怡安路一段４４８號","OBJECTID":501549},"geometry":{"x":168586.72999999952,"y":2549217.6400000006}},{"attributes":{"ID":501577,"DIS_CODE":0,"TOWNNAME":"安南區","LI":"頂安里","LIN":"8鄰","STREET":"頂安街","SECT":" ","MAREA":" ","LANE":" ","ALLEY":" ","HOUSE_NO":"５２９號","E_COORD97":168625.37,"N_COORD97":2549277.8999999999,"ADDRESS":"頂安街５２９號","OBJECTID":501550},"geometry":{"x":168625.37000000104,"y":2549277.9000000022}},{"attributes":{"ID":501578,"DIS_CODE":0,"TOWNNAME":"安南區","LI":"頂安里","LIN":"8鄰","STREET":"頂安街","SECT":" ","MAREA":" ","LANE":" ","ALLEY":" ","HOUSE_NO":"５２４號","E_COORD97":168649.47,"N_COORD97":2549304.8100000001,"ADDRESS":"頂安街５２４號","OBJECTID":501551},"geometry":{"x":168649.47000000067,"y":2549304.8100000042}},{"attributes":{"ID":501579,"DIS_CODE":0,"TOWNNAME":"安南區","LI":"頂安里","LIN":"8鄰","STREET":"頂安街","SECT":" ","MAREA":" ","LANE":" ","ALLEY":" ","HOUSE_NO":"５３９號","E_COORD97":168594,"N_COORD97":2549273.3300000001,"ADDRESS":"頂安街５３９號","OBJECTID":501552},"geometry":{"x":168594,"y":2549273.3300000001}},{"attributes":{"ID":501580,"DIS_CODE":0,"TOWNNAME":"安南區","LI":"頂安里","LIN":"8鄰","STREET":"頂安街","SECT":" ","MAREA":" ","LANE":" ","ALLEY":" ","HOUSE_NO":"５４１號","E_COORD97":168593.19,"N_COORD97":2549246.4199999999,"ADDRESS":"頂安街５４１號","OBJECTID":501553},"geometry":{"x":168593.19000000041,"y":2549246.4200000018}},{"attributes":{"ID":501581,"DIS_CODE":0,"TOWNNAME":"安南區","LI":"頂安里","LIN":"8鄰","STREET":"頂安街","SECT":" ","MAREA":" ","LANE":" ","ALLEY":" ","HOUSE_NO":"５５２號","E_COORD97":168576.42000000001,"N_COORD97":2549282.2599999998,"ADDRESS":"頂安街５５２號","OBJECTID":501554},"geometry":{"x":168576.41999999899,"y":2549282.2600000016}},{"attributes":{"ID":501582,"DIS_CODE":0,"TOWNNAME":"安南區","LI":"頂安里","LIN":"8鄰","STREET":"頂安街","SECT":" ","MAREA":" ","LANE":" ","ALLEY":" ","HOUSE_NO":"５５４號","E_COORD97":168572.25,"N_COORD97":2549280.7000000002,"ADDRESS":"頂安街５５４號","OBJECTID":501555},"geometry":{"x":168572.25,"y":2549280.700000003}},{"attributes":{"ID":501583,"DIS_CODE":0,"TOWNNAME":"安南區","LI":"頂安里","LIN":"8鄰","STREET":"頂安街","SECT":" ","MAREA":" ","LANE":" ","ALLEY":" ","HOUSE_NO":"５５６號","E_COORD97":168568.60000000001,"N_COORD97":2549280.1800000002,"ADDRESS":"頂安街５５６號","OBJECTID":501556},"geometry":{"x":168568.60000000056,"y":2549280.1799999997}},{"attributes":{"ID":501584,"DIS_CODE":0,"TOWNNAME":"安南區","LI":"頂安里","LIN":"8鄰","STREET":"頂安街","SECT":" ","MAREA":" ","LANE":" ","ALLEY":" ","HOUSE_NO":"５６０號","E_COORD97":168560.78,"N_COORD97":2549277.5800000001,"ADDRESS":"頂安街５６０號","OBJECTID":501557},"geometry":{"x":168560.77999999933,"y":2549277.5800000001}},{"attributes":{"ID":501585,"DIS_CODE":0,"TOWNNAME":"安南區","LI":"頂安里","LIN":"8鄰","STREET":"頂安街","SECT":" ","MAREA":" ","LANE":" ","ALLEY":" ","HOUSE_NO":"５６４號","E_COORD97":168552.70999999999,"N_COORD97":2549275.4900000002,"ADDRESS":"頂安街５６４號","OBJECTID":501558},"geometry":{"x":168552.71000000089,"y":2549275.4900000002}},{"attributes":{"ID":501586,"DIS_CODE":0,"TOWNNAME":"安南區","LI":"海南里","LIN":"8鄰","STREET":"府安路","SECT":"六段","MAREA":" ","LANE":" ","ALLEY":" ","HOUSE_NO":"１０６號","E_COORD97":166716.23999999999,"N_COORD97":2546459.4500000002,"ADDRESS":"府安路六段１０６號","OBJECTID":501559},"geometry":{"x":166716.24000000022,"y":2546459.4500000011}},{"attributes":{"ID":501587,"DIS_CODE":0,"TOWNNAME":"安南區","LI":"海南里","LIN":"8鄰","STREET":"府安路","SECT":"六段","MAREA":" ","LANE":" ","ALLEY":" ","HOUSE_NO":"１０９號","E_COORD97":166702.60999999999,"N_COORD97":2546449.6899999999,"ADDRESS":"府安路六段１０９號","OBJECTID":501560},"geometry":{"x":166702.6100000022,"y":2546449.6899999976}},{"attributes":{"ID":501588,"DIS_CODE":0,"TOWNNAME":"安南區","LI":"海南里","LIN":"8鄰","STREET":"府安路","SECT":"六段","MAREA":" ","LANE":" ","ALLEY":" ","HOUSE_NO":"１１０號","E_COORD97":166695.70000000001,"N_COORD97":2546443.7200000002,"ADDRESS":"府安路六段１１０號","OBJECTID":501561},"geometry":{"x":166695.70000000112,"y":2546443.7200000007}},{"attributes":{"ID":501589,"DIS_CODE":0,"TOWNNAME":"安南區","LI":"海南里","LIN":"8鄰","STREET":"府安路","SECT":"六段","MAREA":" ","LANE":" ","ALLEY":" ","HOUSE_NO":"１１５號","E_COORD97":166681.22,"N_COORD97":2546433.77,"ADDRESS":"府安路六段１１５號","OBJECTID":501562},"geometry":{"x":166681.22000000067,"y":2546433.7700000014}},{"attributes":{"ID":501590,"DIS_CODE":0,"TOWNNAME":"安南區","LI":"海南里","LIN":"8鄰","STREET":"府安路","SECT":"六段","MAREA":" ","LANE":" ","ALLEY":" ","HOUSE_NO":"１２０號","E_COORD97":166665.89000000001,"N_COORD97":2546429.46,"ADDRESS":"府安路六段１２０號","OBJECTID":501563},"geometry":{"x":166665.88999999873,"y":2546429.4600000046}},{"attributes":{"ID":501591,"DIS_CODE":0,"TOWNNAME":"安南區","LI":"海南里","LIN":"8鄰","STREET":"府安路","SECT":"六段","MAREA":" ","LANE":" ","ALLEY":" ","HOUSE_NO":"１４３號","E_COORD97":166560.54999999999,"N_COORD97":2546351.3100000001,"ADDRESS":"府安路六段１４３號","OBJECTID":501564},"geometry":{"x":166560.55000000075,"y":2546351.3100000005}},{"attributes":{"ID":501592,"DIS_CODE":0,"TOWNNAME":"安南區","LI":"溪北里","LIN":"8鄰","STREET":"府安路","SECT":"四段","MAREA":" ","LANE":" ","ALLEY":" ","HOUSE_NO":"１２號","E_COORD97":169497.03,"N_COORD97":2547338.2400000002,"ADDRESS":"府安路四段１２號","OBJECTID":501565},"geometry":{"x":169497.03000000119,"y":2547338.2400000002}},{"attributes":{"ID":501593,"DIS_CODE":0,"TOWNNAME":"安南區","LI":"溪北里","LIN":"8鄰","STREET":"府安路","SECT":"四段","MAREA":" ","LANE":" ","ALLEY":" ","HOUSE_NO":"１５號","E_COORD97":169481.87,"N_COORD97":2547335.3100000001,"ADDRESS":"府安路四段１５號","OBJECTID":501566},"geometry":{"x":169481.87000000011,"y":2547335.3100000042}},{"attributes":{"ID":501594,"DIS_CODE":0,"TOWNNAME":"安南區","LI":"溪北里","LIN":"8鄰","STREET":"府安路","SECT":"四段","MAREA":" ","LANE":" ","ALLEY":" ","HOUSE_NO":"１７號","E_COORD97":169471.06,"N_COORD97":2547334.5099999998,"ADDRESS":"府安路四段１７號","OBJECTID":501567},"geometry":{"x":169471.06000000052,"y":2547334.5100000016}},{"attributes":{"ID":501595,"DIS_CODE":0,"TOWNNAME":"安南區","LI":"溪北里","LIN":"8鄰","STREET":"府安路","SECT":"四段","MAREA":" ","LANE":" ","ALLEY":" ","HOUSE_NO":"１８號","E_COORD97":169464.09,"N_COORD97":2547333.0899999999,"ADDRESS":"府安路四段１８號","OBJECTID":501568},"geometry":{"x":169464.09000000078,"y":2547333.0900000017}},{"attributes":{"ID":501596,"DIS_CODE":0,"TOWNNAME":"安南區","LI":"溪北里","LIN":"8鄰","STREET":"府安路","SECT":"四段","MAREA":" ","LANE":" ","ALLEY":" ","HOUSE_NO":"２３號","E_COORD97":169436.54999999999,"N_COORD97":2547330.3700000001,"ADDRESS":"府安路四段２３號","OBJECTID":501569},"geometry":{"x":169436.54999999981,"y":2547330.370000001}},{"attributes":{"ID":501597,"DIS_CODE":0,"TOWNNAME":"鹽水區","LI":"橋南里","LIN":"17鄰","STREET":"月津路","SECT":" ","MAREA":" ","LANE":" ","ALLEY":" ","HOUSE_NO":"２８之１號","E_COORD97":174886.75,"N_COORD97":2579260.0499999998,"ADDRESS":"月津路２８之１號","OBJECTID":501570},"geometry":{"x":174886.75,"y":2579260.0500000007}},{"attributes":{"ID":501598,"DIS_CODE":0,"TOWNNAME":"安南區","LI":"溪北里","LIN":"8鄰","STREET":"府安路","SECT":"四段","MAREA":" ","LANE":" ","ALLEY":" ","HOUSE_NO":"７號","E_COORD97":169528.89999999999,"N_COORD97":2547348.04,"ADDRESS":"府安路四段７號","OBJECTID":501571},"geometry":{"x":169528.9000000013,"y":2547348.0399999991}},{"attributes":{"ID":501599,"DIS_CODE":0,"TOWNNAME":"安南區","LI":"溪北里","LIN":"8鄰","STREET":"府安路","SECT":"四段","MAREA":" ","LANE":" ","ALLEY":" ","HOUSE_NO":"８號","E_COORD97":169525.06,"N_COORD97":2547347.04,"ADDRESS":"府安路四段８號","OBJECTID":501572},"geometry":{"x":169525.06000000052,"y":2547347.040000001}},{"attributes":{"ID":501600,"DIS_CODE":0,"TOWNNAME":"安平區","LI":"華平里","LIN":"8鄰","STREET":"健康二街","SECT":" ","MAREA":" ","LANE":" ","ALLEY":" ","HOUSE_NO":"４９８號之１","E_COORD97":165371.63,"N_COORD97":2543972.2400000002,"ADDRESS":"健康二街４９８號之１","OBJECTID":501573},"geometry":{"x":165371.63000000082,"y":2543972.2400000039}},{"attributes":{"ID":501601,"DIS_CODE":0,"TOWNNAME":"安平區","LI":"華平里","LIN":"8鄰","STREET":"健康二街","SECT":" ","MAREA":" ","LANE":" ","ALLEY":" ","HOUSE_NO":"５００號","E_COORD97":165371.92000000001,"N_COORD97":2543975.8900000001,"ADDRESS":"健康二街５００號","OBJECTID":501574},"geometry":{"x":165371.91999999993,"y":2543975.8900000025}},{"attributes":{"ID":501602,"DIS_CODE":0,"TOWNNAME":"安平區","LI":"華平里","LIN":"8鄰","STREET":"健康二街","SECT":" ","MAREA":" ","LANE":" ","ALLEY":" ","HOUSE_NO":"５００號之１","E_COORD97":165372.79999999999,"N_COORD97":2543979.6800000002,"ADDRESS":"健康二街５００號之１","OBJECTID":501575},"geometry":{"x":165372.79999999981,"y":2543979.6800000016}},{"attributes":{"ID":501603,"DIS_CODE":0,"TOWNNAME":"安平區","LI":"華平里","LIN":"8鄰","STREET":"健康二街","SECT":" ","MAREA":" ","LANE":" ","ALLEY":" ","HOUSE_NO":"５０１號","E_COORD97":165355.10000000001,"N_COORD97":2543991.8500000001,"ADDRESS":"健康二街５０１號","OBJECTID":501576},"geometry":{"x":165355.09999999963,"y":2543991.8500000015}},{"attributes":{"ID":501604,"DIS_CODE":0,"TOWNNAME":"安平區","LI":"華平里","LIN":"8鄰","STREET":"健康二街","SECT":" ","MAREA":" ","LANE":" ","ALLEY":" ","HOUSE_NO":"５０２號","E_COORD97":165373.53,"N_COORD97":2543983.3199999998,"ADDRESS":"健康二街５０２號","OBJECTID":501577},"geometry":{"x":165373.53000000026,"y":2543983.3200000022}},{"attributes":{"ID":501605,"DIS_CODE":0,"TOWNNAME":"安平區","LI":"華平里","LIN":"8鄰","STREET":"健康二街","SECT":" ","MAREA":" ","LANE":" ","ALLEY":" ","HOUSE_NO":"５０２號之１","E_COORD97":165374.39999999999,"N_COORD97":2543989,"ADDRESS":"健康二街５０２號之１","OBJECTID":501578},"geometry":{"x":165374.40000000037,"y":2543989}},{"attributes":{"ID":501606,"DIS_CODE":0,"TOWNNAME":"安平區","LI":"華平里","LIN":"8鄰","STREET":"健康二街","SECT":" ","MAREA":" ","LANE":" ","ALLEY":" ","HOUSE_NO":"５０３號","E_COORD97":165355.10000000001,"N_COORD97":2543996.21,"ADDRESS":"健康二街５０３號","OBJECTID":501579},"geometry":{"x":165355.09999999963,"y":2543996.2100000009}},{"attributes":{"ID":501607,"DIS_CODE":0,"TOWNNAME":"安平區","LI":"華平里","LIN":"8鄰","STREET":"健康二街","SECT":" ","MAREA":" ","LANE":" ","ALLEY":" ","HOUSE_NO":"５０６號","E_COORD97":165376.59,"N_COORD97":2544007.2799999998,"ADDRESS":"健康二街５０６號","OBJECTID":501580},"geometry":{"x":165376.59000000171,"y":2544007.2799999993}},{"attributes":{"ID":501608,"DIS_CODE":0,"TOWNNAME":"安平區","LI":"華平里","LIN":"8鄰","STREET":"健康二街","SECT":" ","MAREA":" ","LANE":" ","ALLEY":" ","HOUSE_NO":"５０６號之１","E_COORD97":165377.32000000001,"N_COORD97":2544011.0699999998,"ADDRESS":"健康二街５０６號之１","OBJECTID":501581},"geometry":{"x":165377.32000000123,"y":2544011.0700000022}},{"attributes":{"ID":501609,"DIS_CODE":0,"TOWNNAME":"安平區","LI":"華平里","LIN":"8鄰","STREET":"育平九街","SECT":" ","MAREA":" ","LANE":" ","ALLEY":" ","HOUSE_NO":"２８號","E_COORD97":165404.17000000001,"N_COORD97":2543958.3999999999,"ADDRESS":"育平九街２８號","OBJECTID":501582},"geometry":{"x":165404.16999999993,"y":2543958.4000000022}},{"attributes":{"ID":501610,"DIS_CODE":0,"TOWNNAME":"安平區","LI":"華平里","LIN":"8鄰","STREET":"育平九街","SECT":" ","MAREA":" ","LANE":" ","ALLEY":" ","HOUSE_NO":"３０號","E_COORD97":165399.64000000001,"N_COORD97":2543958.8399999999,"ADDRESS":"育平九街３０號","OBJECTID":501583},"geometry":{"x":165399.64000000153,"y":2543958.8400000017}},{"attributes":{"ID":501611,"DIS_CODE":0,"TOWNNAME":"安平區","LI":"華平里","LIN":"8鄰","STREET":"育平九街","SECT":" ","MAREA":" ","LANE":" ","ALLEY":" ","HOUSE_NO":"３２號","E_COORD97":165394.67999999999,"N_COORD97":2543959.8599999999,"ADDRESS":"育平九街３２號","OBJECTID":501584},"geometry":{"x":165394.68000000063,"y":2543959.8599999994}},{"attributes":{"ID":501612,"DIS_CODE":0,"TOWNNAME":"安平區","LI":"華平里","LIN":"8鄰","STREET":"育平九街","SECT":" ","MAREA":" ","LANE":" ","ALLEY":" ","HOUSE_NO":"３４號","E_COORD97":165391.04000000001,"N_COORD97":2543960.5899999999,"ADDRESS":"育平九街３４號","OBJECTID":501585},"geometry":{"x":165391.04000000097,"y":2543960.5900000017}},{"attributes":{"ID":501613,"DIS_CODE":0,"TOWNNAME":"安平區","LI":"華平里","LIN":"8鄰","STREET":"育平九街","SECT":" ","MAREA":" ","LANE":" ","ALLEY":" ","HOUSE_NO":"３６號","E_COORD97":165387.67999999999,"N_COORD97":2543961.0299999998,"ADDRESS":"育平九街３６號","OBJECTID":501586},"geometry":{"x":165387.68000000156,"y":2543961.0299999993}},{"attributes":{"ID":501614,"DIS_CODE":0,"TOWNNAME":"安平區","LI":"華平里","LIN":"8鄰","STREET":"育平九街","SECT":" ","MAREA":" ","LANE":" ","ALLEY":" ","HOUSE_NO":"３８號","E_COORD97":165382.57000000001,"N_COORD97":2543962.1899999999,"ADDRESS":"育平九街３８號","OBJECTID":501587},"geometry":{"x":165382.57000000123,"y":2543962.1900000013}},{"attributes":{"ID":501615,"DIS_CODE":0,"TOWNNAME":"安平區","LI":"華平里","LIN":"8鄰","STREET":"建平十一街","SECT":" ","MAREA":" ","LANE":" ","ALLEY":" ","HOUSE_NO":"３７５號","E_COORD97":165400.48999999999,"N_COORD97":2544009.8900000001,"ADDRESS":"建平十一街３７５號","OBJECTID":501588},"geometry":{"x":165400.49000000022,"y":2544009.8900000025}},{"attributes":{"ID":501616,"DIS_CODE":0,"TOWNNAME":"安平區","LI":"金城里","LIN":"8鄰","STREET":"世平五街","SECT":" ","MAREA":" ","LANE":" ","ALLEY":" ","HOUSE_NO":"４７號之２","E_COORD97":162891.98000000001,"N_COORD97":2544183.04,"ADDRESS":"世平五街４７號之２","OBJECTID":501589},"geometry":{"x":162891.98000000045,"y":2544183.040000001}},{"attributes":{"ID":501617,"DIS_CODE":0,"TOWNNAME":"安平區","LI":"金城里","LIN":"8鄰","STREET":"世平五街","SECT":" ","MAREA":" ","LANE":" ","ALLEY":" ","HOUSE_NO":"４７號之３","E_COORD97":162894.17999999999,"N_COORD97":2544179.0499999998,"ADDRESS":"世平五街４７號之３","OBJECTID":501590},"geometry":{"x":162894.18000000063,"y":2544179.0500000007}},{"attributes":{"ID":501618,"DIS_CODE":0,"TOWNNAME":"北區","LI":"長德里","LIN":"8鄰","STREET":"西門路","SECT":"三段","MAREA":" ","LANE":" ","ALLEY":" ","HOUSE_NO":"２１２號","E_COORD97":168422.81,"N_COORD97":2544865.8500000001,"ADDRESS":"西門路三段２１２號","OBJECTID":501591},"geometry":{"x":168422.81000000052,"y":2544865.8500000034}},{"attributes":{"ID":501619,"DIS_CODE":0,"TOWNNAME":"北區","LI":"長德里","LIN":"8鄰","STREET":"西門路","SECT":"三段","MAREA":" ","LANE":" ","ALLEY":" ","HOUSE_NO":"２１４號","E_COORD97":168430.07999999999,"N_COORD97":2544875.1200000001,"ADDRESS":"西門路三段２１４號","OBJECTID":501592},"geometry":{"x":168430.08000000101,"y":2544875.120000001}},{"attributes":{"ID":501620,"DIS_CODE":0,"TOWNNAME":"北區","LI":"長德里","LIN":"8鄰","STREET":"西門路","SECT":"三段","MAREA":" ","LANE":" ","ALLEY":" ","HOUSE_NO":"２１６號","E_COORD97":168436.66,"N_COORD97":2544883.0800000001,"ADDRESS":"西門路三段２１６號","OBJECTID":501593},"geometry":{"x":168436.66000000108,"y":2544883.0800000019}},{"attributes":{"ID":501621,"DIS_CODE":0,"TOWNNAME":"北區","LI":"長德里","LIN":"8鄰","STREET":"西門路","SECT":"三段","MAREA":" ","LANE":" ","ALLEY":" ","HOUSE_NO":"２１８號","E_COORD97":168442.89000000001,"N_COORD97":2544887.5800000001,"ADDRESS":"西門路三段２１８號","OBJECTID":501594},"geometry":{"x":168442.8900000006,"y":2544887.5800000001}},{"attributes":{"ID":501622,"DIS_CODE":0,"TOWNNAME":"北區","LI":"長德里","LIN":"8鄰","STREET":"西門路","SECT":"三段","MAREA":" ","LANE":" ","ALLEY":" ","HOUSE_NO":"２２２號","E_COORD97":168452.60000000001,"N_COORD97":2544881.7000000002,"ADDRESS":"西門路三段２２２號","OBJECTID":501595},"geometry":{"x":168452.59999999963,"y":2544881.6999999993}},{"attributes":{"ID":501623,"DIS_CODE":0,"TOWNNAME":"北區","LI":"長德里","LIN":"8鄰","STREET":"長賢街","SECT":" ","MAREA":" ","LANE":" ","ALLEY":" ","HOUSE_NO":"１８號","E_COORD97":168465.07000000001,"N_COORD97":2544878.2400000002,"ADDRESS":"長賢街１８號","OBJECTID":501596},"geometry":{"x":168465.0700000003,"y":2544878.2400000021}},{"attributes":{"ID":501624,"DIS_CODE":0,"TOWNNAME":"北區","LI":"五福里","LIN":"8鄰","STREET":"自強街","SECT":" ","MAREA":" ","LANE":" ","ALLEY":" ","HOUSE_NO":"６４號","E_COORD97":168299.48000000001,"N_COORD97":2544569.98,"ADDRESS":"自強街６４號","OBJECTID":501597},"geometry":{"x":168299.48000000138,"y":2544569.9800000004}},{"attributes":{"ID":501625,"DIS_CODE":0,"TOWNNAME":"北區","LI":"五福里","LIN":"8鄰","STREET":"自強街","SECT":" ","MAREA":" ","LANE":" ","ALLEY":" ","HOUSE_NO":"６４號之１","E_COORD97":168301.88,"N_COORD97":2544568.9300000002,"ADDRESS":"自強街６４號之１","OBJECTID":501598},"geometry":{"x":168301.87999999989,"y":2544568.9299999997}},{"attributes":{"ID":501626,"DIS_CODE":0,"TOWNNAME":"北區","LI":"長德里","LIN":"8鄰","STREET":"自強街","SECT":" ","MAREA":" ","LANE":" ","ALLEY":" ","HOUSE_NO":"１８２號","E_COORD97":168423.51000000001,"N_COORD97":2544803.8999999999,"ADDRESS":"自強街１８２號","OBJECTID":501599},"geometry":{"x":168423.51000000071,"y":2544803.9000000004}},{"attributes":{"ID":501627,"DIS_CODE":0,"TOWNNAME":"北區","LI":"長德里","LIN":"8鄰","STREET":"自強街","SECT":" ","MAREA":" ","LANE":" ","ALLEY":" ","HOUSE_NO":"１８６號","E_COORD97":168434.23000000001,"N_COORD97":2544803.6800000002,"ADDRESS":"自強街１８６號","OBJECTID":501600},"geometry":{"x":168434.23000000231,"y":2544803.6800000016}}]}