{"displayFieldName":"TOWNNAME","fieldAliases":{"ID":"ID","DIS_CODE":"DIS_CODE","TOWNNAME":"TOWNNAME","LI":"LI","LIN":"LIN","STREET":"STREET","SECT":"SECT","MAREA":"MAREA","LANE":"LANE","ALLEY":"ALLEY","HOUSE_NO":"HOUSE_NO","E_COORD97":"E_COORD97","N_COORD97":"N_COORD97","ADDRESS":"ADDRESS","OBJECTID":"OBJECTID"},"geometryType":"esriGeometryPoint","spatialReference":{"wkid":102443,"latestWkid":3826},"fields":[{"name":"ID","type":"esriFieldTypeDouble","alias":"ID"},{"name":"DIS_CODE","type":"esriFieldTypeInteger","alias":"DIS_CODE"},{"name":"TOWNNAME","type":"esriFieldTypeString","alias":"TOWNNAME","length":8},{"name":"LI","type":"esriFieldTypeString","alias":"LI","length":8},{"name":"LIN","type":"esriFieldTypeString","alias":"LIN","length":12},{"name":"STREET","type":"esriFieldTypeString","alias":"STREET","length":20},{"name":"SECT","type":"esriFieldTypeString","alias":"SECT","length":8},{"name":"MAREA","type":"esriFieldTypeString","alias":"MAREA","length":12},{"name":"LANE","type":"esriFieldTypeString","alias":"LANE","length":10},{"name":"ALLEY","type":"esriFieldTypeString","alias":"ALLEY","length":10},{"name":"HOUSE_NO","type":"esriFieldTypeString","alias":"HOUSE_NO","length":20},{"name":"E_COORD97","type":"esriFieldTypeDouble","alias":"E_COORD97"},{"name":"N_COORD97","type":"esriFieldTypeDouble","alias":"N_COORD97"},{"name":"ADDRESS","type":"esriFieldTypeString","alias":"ADDRESS","length":50},{"name":"OBJECTID","type":"esriFieldTypeOID","alias":"OBJECTID"}],"features":[{"attributes":{"ID":584628,"DIS_CODE":0,"TOWNNAME":"東區","LI":"小東里","LIN":"16鄰","STREET":"東安路","SECT":" ","MAREA":" ","LANE":" ","ALLEY":" ","HOUSE_NO":"２９２號五樓","E_COORD97":170796.44,"N_COORD97":2544214.7999999998,"ADDRESS":"東安路２９２號五樓","OBJECTID":584601},"geometry":{"x":170796.44000000134,"y":2544214.8000000007}},{"attributes":{"ID":584629,"DIS_CODE":0,"TOWNNAME":"東區","LI":"小東里","LIN":"16鄰","STREET":"東安路","SECT":" ","MAREA":" ","LANE":" ","ALLEY":" ","HOUSE_NO":"２９２號五樓之１","E_COORD97":170796.44,"N_COORD97":2544214.7999999998,"ADDRESS":"東安路２９２號五樓之１","OBJECTID":584602},"geometry":{"x":170796.44000000134,"y":2544214.8000000007}},{"attributes":{"ID":584630,"DIS_CODE":0,"TOWNNAME":"東區","LI":"小東里","LIN":"16鄰","STREET":"東安路","SECT":" ","MAREA":" ","LANE":" ","ALLEY":" ","HOUSE_NO":"２９６號五樓","E_COORD97":170796.44,"N_COORD97":2544245.6000000001,"ADDRESS":"東安路２９６號五樓","OBJECTID":584603},"geometry":{"x":170796.44000000134,"y":2544245.5999999996}},{"attributes":{"ID":584631,"DIS_CODE":0,"TOWNNAME":"東區","LI":"小東里","LIN":"16鄰","STREET":"東安路","SECT":" ","MAREA":" ","LANE":" ","ALLEY":" ","HOUSE_NO":"２９６號五樓之１","E_COORD97":170796.44,"N_COORD97":2544245.6000000001,"ADDRESS":"東安路２９６號五樓之１","OBJECTID":584604},"geometry":{"x":170796.44000000134,"y":2544245.5999999996}},{"attributes":{"ID":584632,"DIS_CODE":0,"TOWNNAME":"東區","LI":"小東里","LIN":"16鄰","STREET":"東安路","SECT":" ","MAREA":" ","LANE":" ","ALLEY":" ","HOUSE_NO":"２８８號六樓","E_COORD97":170810.48000000001,"N_COORD97":2544209.2799999998,"ADDRESS":"東安路２８８號六樓","OBJECTID":584605},"geometry":{"x":170810.48000000045,"y":2544209.2800000012}},{"attributes":{"ID":584633,"DIS_CODE":0,"TOWNNAME":"東區","LI":"小東里","LIN":"16鄰","STREET":"東安路","SECT":" ","MAREA":" ","LANE":" ","ALLEY":" ","HOUSE_NO":"２９２號四樓之１","E_COORD97":170796.44,"N_COORD97":2544214.7999999998,"ADDRESS":"東安路２９２號四樓之１","OBJECTID":584606},"geometry":{"x":170796.44000000134,"y":2544214.8000000007}},{"attributes":{"ID":584634,"DIS_CODE":0,"TOWNNAME":"東區","LI":"崇學里","LIN":"16鄰","STREET":"崇學路","SECT":" ","MAREA":" ","LANE":" ","ALLEY":" ","HOUSE_NO":"６號九樓之１","E_COORD97":170084.10000000001,"N_COORD97":2542018.5800000001,"ADDRESS":"崇學路６號九樓之１","OBJECTID":584607},"geometry":{"x":170084.10000000056,"y":2542018.5800000001}},{"attributes":{"ID":584635,"DIS_CODE":0,"TOWNNAME":"東區","LI":"小東里","LIN":"16鄰","STREET":"東安路","SECT":" ","MAREA":" ","LANE":" ","ALLEY":" ","HOUSE_NO":"２８８號六樓之１","E_COORD97":170810.48000000001,"N_COORD97":2544209.2799999998,"ADDRESS":"東安路２８８號六樓之１","OBJECTID":584608},"geometry":{"x":170810.48000000045,"y":2544209.2800000012}},{"attributes":{"ID":584636,"DIS_CODE":0,"TOWNNAME":"東區","LI":"小東里","LIN":"16鄰","STREET":"東安路","SECT":" ","MAREA":" ","LANE":" ","ALLEY":" ","HOUSE_NO":"２９２號六樓","E_COORD97":170796.44,"N_COORD97":2544214.7999999998,"ADDRESS":"東安路２９２號六樓","OBJECTID":584609},"geometry":{"x":170796.44000000134,"y":2544214.8000000007}},{"attributes":{"ID":584637,"DIS_CODE":0,"TOWNNAME":"東區","LI":"小東里","LIN":"16鄰","STREET":"東安路","SECT":" ","MAREA":" ","LANE":" ","ALLEY":" ","HOUSE_NO":"２９２號六樓之１","E_COORD97":170796.44,"N_COORD97":2544214.7999999998,"ADDRESS":"東安路２９２號六樓之１","OBJECTID":584610},"geometry":{"x":170796.44000000134,"y":2544214.8000000007}},{"attributes":{"ID":584638,"DIS_CODE":0,"TOWNNAME":"東區","LI":"小東里","LIN":"16鄰","STREET":"東安路","SECT":" ","MAREA":" ","LANE":" ","ALLEY":" ","HOUSE_NO":"２９６號六樓","E_COORD97":170796.44,"N_COORD97":2544245.6000000001,"ADDRESS":"東安路２９６號六樓","OBJECTID":584611},"geometry":{"x":170796.44000000134,"y":2544245.5999999996}},{"attributes":{"ID":584639,"DIS_CODE":0,"TOWNNAME":"東區","LI":"小東里","LIN":"16鄰","STREET":"東安路","SECT":" ","MAREA":" ","LANE":" ","ALLEY":" ","HOUSE_NO":"２９６號六樓之１","E_COORD97":170796.44,"N_COORD97":2544245.6000000001,"ADDRESS":"東安路２９６號六樓之１","OBJECTID":584612},"geometry":{"x":170796.44000000134,"y":2544245.5999999996}},{"attributes":{"ID":584640,"DIS_CODE":0,"TOWNNAME":"東區","LI":"小東里","LIN":"16鄰","STREET":"東安路","SECT":" ","MAREA":" ","LANE":" ","ALLEY":" ","HOUSE_NO":"２８８號七樓","E_COORD97":170810.48000000001,"N_COORD97":2544209.2799999998,"ADDRESS":"東安路２８８號七樓","OBJECTID":584613},"geometry":{"x":170810.48000000045,"y":2544209.2800000012}},{"attributes":{"ID":584641,"DIS_CODE":0,"TOWNNAME":"東區","LI":"小東里","LIN":"16鄰","STREET":"東安路","SECT":" ","MAREA":" ","LANE":" ","ALLEY":" ","HOUSE_NO":"２８８號七樓之１","E_COORD97":170810.48000000001,"N_COORD97":2544209.2799999998,"ADDRESS":"東安路２８８號七樓之１","OBJECTID":584614},"geometry":{"x":170810.48000000045,"y":2544209.2800000012}},{"attributes":{"ID":584642,"DIS_CODE":0,"TOWNNAME":"東區","LI":"小東里","LIN":"16鄰","STREET":"東安路","SECT":" ","MAREA":" ","LANE":" ","ALLEY":" ","HOUSE_NO":"２９２號七樓之１","E_COORD97":170796.44,"N_COORD97":2544214.7999999998,"ADDRESS":"東安路２９２號七樓之１","OBJECTID":584615},"geometry":{"x":170796.44000000134,"y":2544214.8000000007}},{"attributes":{"ID":584643,"DIS_CODE":0,"TOWNNAME":"東區","LI":"小東里","LIN":"16鄰","STREET":"東安路","SECT":" ","MAREA":" ","LANE":" ","ALLEY":" ","HOUSE_NO":"２９６號七樓","E_COORD97":170796.44,"N_COORD97":2544245.6000000001,"ADDRESS":"東安路２９６號七樓","OBJECTID":584616},"geometry":{"x":170796.44000000134,"y":2544245.5999999996}},{"attributes":{"ID":584644,"DIS_CODE":0,"TOWNNAME":"東區","LI":"小東里","LIN":"16鄰","STREET":"東安路","SECT":" ","MAREA":" ","LANE":" ","ALLEY":" ","HOUSE_NO":"２９６號七樓之１","E_COORD97":170796.44,"N_COORD97":2544245.6000000001,"ADDRESS":"東安路２９６號七樓之１","OBJECTID":584617},"geometry":{"x":170796.44000000134,"y":2544245.5999999996}},{"attributes":{"ID":584645,"DIS_CODE":0,"TOWNNAME":"東區","LI":"小東里","LIN":"16鄰","STREET":"東安路","SECT":" ","MAREA":" ","LANE":" ","ALLEY":" ","HOUSE_NO":"２８８號八樓","E_COORD97":170810.48000000001,"N_COORD97":2544209.2799999998,"ADDRESS":"東安路２８８號八樓","OBJECTID":584618},"geometry":{"x":170810.48000000045,"y":2544209.2800000012}},{"attributes":{"ID":584646,"DIS_CODE":0,"TOWNNAME":"東區","LI":"小東里","LIN":"16鄰","STREET":"東安路","SECT":" ","MAREA":" ","LANE":" ","ALLEY":" ","HOUSE_NO":"２８８號八樓之１","E_COORD97":170810.48000000001,"N_COORD97":2544209.2799999998,"ADDRESS":"東安路２８８號八樓之１","OBJECTID":584619},"geometry":{"x":170810.48000000045,"y":2544209.2800000012}},{"attributes":{"ID":584647,"DIS_CODE":0,"TOWNNAME":"仁德區","LI":"仁義里","LIN":"17鄰","STREET":"義林一街","SECT":" ","MAREA":" ","LANE":" ","ALLEY":" ","HOUSE_NO":"３１５號","E_COORD97":174368.56,"N_COORD97":2541502.5099999998,"ADDRESS":"義林一街３１５號","OBJECTID":584620},"geometry":{"x":174368.55999999959,"y":2541502.5100000016}},{"attributes":{"ID":584648,"DIS_CODE":0,"TOWNNAME":"仁德區","LI":"仁義里","LIN":"8鄰","STREET":"中山路","SECT":" ","MAREA":" ","LANE":" ","ALLEY":" ","HOUSE_NO":"５０５號","E_COORD97":173561.67573399999,"N_COORD97":2541277.2852599998,"ADDRESS":"中山路５０５號","OBJECTID":584621},"geometry":{"x":173561.67573400028,"y":2541277.2852590028}},{"attributes":{"ID":584649,"DIS_CODE":0,"TOWNNAME":"仁德區","LI":"仁義里","LIN":"1鄰","STREET":"義林七街","SECT":" ","MAREA":" ","LANE":" ","ALLEY":" ","HOUSE_NO":"４３號","E_COORD97":174418.06,"N_COORD97":2541109.0099999998,"ADDRESS":"義林七街４３號","OBJECTID":584622},"geometry":{"x":174418.05999999959,"y":2541109.0100000016}},{"attributes":{"ID":584650,"DIS_CODE":0,"TOWNNAME":"仁德區","LI":"仁義里","LIN":"35鄰","STREET":"中正路","SECT":"二段","MAREA":" ","LANE":" ","ALLEY":" ","HOUSE_NO":"６６８之２號","E_COORD97":173396.45999999999,"N_COORD97":2539868.79,"ADDRESS":"中正路二段６６８之２號","OBJECTID":584623},"geometry":{"x":173396.46000000089,"y":2539868.790000001}},{"attributes":{"ID":584651,"DIS_CODE":0,"TOWNNAME":"仁德區","LI":"太子里","LIN":"31鄰","STREET":"太子三街","SECT":" ","MAREA":" ","LANE":" ","ALLEY":" ","HOUSE_NO":"７２號","E_COORD97":173832.60000000001,"N_COORD97":2543482.75,"ADDRESS":"太子三街７２號","OBJECTID":584624},"geometry":{"x":173832.60000000056,"y":2543482.75}},{"attributes":{"ID":584652,"DIS_CODE":0,"TOWNNAME":"仁德區","LI":"仁義里","LIN":"10鄰","STREET":"中山路","SECT":" ","MAREA":" ","LANE":" ","ALLEY":" ","HOUSE_NO":"５５９號","E_COORD97":173412.20000000001,"N_COORD97":2541304.4900000002,"ADDRESS":"中山路５５９號","OBJECTID":584625},"geometry":{"x":173412.20000000019,"y":2541304.4900000002}},{"attributes":{"ID":584653,"DIS_CODE":0,"TOWNNAME":"仁德區","LI":"太子里","LIN":"28鄰","STREET":"太子五街","SECT":" ","MAREA":" ","LANE":" ","ALLEY":" ","HOUSE_NO":"２號","E_COORD97":173120.07000000001,"N_COORD97":2543408.7599999998,"ADDRESS":"太子五街２號","OBJECTID":584626},"geometry":{"x":173120.0700000003,"y":2543408.7600000035}},{"attributes":{"ID":584654,"DIS_CODE":0,"TOWNNAME":"東區","LI":"小東里","LIN":"16鄰","STREET":"東安路","SECT":" ","MAREA":" ","LANE":" ","ALLEY":" ","HOUSE_NO":"２９２號八樓","E_COORD97":170796.44,"N_COORD97":2544214.7999999998,"ADDRESS":"東安路２９２號八樓","OBJECTID":584627},"geometry":{"x":170796.44000000134,"y":2544214.8000000007}},{"attributes":{"ID":584655,"DIS_CODE":0,"TOWNNAME":"東區","LI":"小東里","LIN":"16鄰","STREET":"東安路","SECT":" ","MAREA":" ","LANE":" ","ALLEY":" ","HOUSE_NO":"２９２號八樓之１","E_COORD97":170796.44,"N_COORD97":2544214.7999999998,"ADDRESS":"東安路２９２號八樓之１","OBJECTID":584628},"geometry":{"x":170796.44000000134,"y":2544214.8000000007}},{"attributes":{"ID":584656,"DIS_CODE":0,"TOWNNAME":"東區","LI":"小東里","LIN":"16鄰","STREET":"東安路","SECT":" ","MAREA":" ","LANE":" ","ALLEY":" ","HOUSE_NO":"２９６號八樓","E_COORD97":170796.44,"N_COORD97":2544245.6000000001,"ADDRESS":"東安路２９６號八樓","OBJECTID":584629},"geometry":{"x":170796.44000000134,"y":2544245.5999999996}},{"attributes":{"ID":584657,"DIS_CODE":0,"TOWNNAME":"東區","LI":"小東里","LIN":"16鄰","STREET":"東安路","SECT":" ","MAREA":" ","LANE":" ","ALLEY":" ","HOUSE_NO":"２９２號十樓","E_COORD97":170796.44,"N_COORD97":2544214.7999999998,"ADDRESS":"東安路２９２號十樓","OBJECTID":584630},"geometry":{"x":170796.44000000134,"y":2544214.8000000007}},{"attributes":{"ID":584658,"DIS_CODE":0,"TOWNNAME":"東區","LI":"小東里","LIN":"16鄰","STREET":"東安路","SECT":" ","MAREA":" ","LANE":" ","ALLEY":" ","HOUSE_NO":"２９２號十樓之１","E_COORD97":170796.44,"N_COORD97":2544214.7999999998,"ADDRESS":"東安路２９２號十樓之１","OBJECTID":584631},"geometry":{"x":170796.44000000134,"y":2544214.8000000007}},{"attributes":{"ID":584659,"DIS_CODE":0,"TOWNNAME":"東區","LI":"小東里","LIN":"16鄰","STREET":"東安路","SECT":" ","MAREA":" ","LANE":" ","ALLEY":" ","HOUSE_NO":"２９６號十樓","E_COORD97":170796.44,"N_COORD97":2544245.6000000001,"ADDRESS":"東安路２９６號十樓","OBJECTID":584632},"geometry":{"x":170796.44000000134,"y":2544245.5999999996}},{"attributes":{"ID":584660,"DIS_CODE":0,"TOWNNAME":"東區","LI":"小東里","LIN":"16鄰","STREET":"東安路","SECT":" ","MAREA":" ","LANE":" ","ALLEY":" ","HOUSE_NO":"２９６號十樓之１","E_COORD97":170796.44,"N_COORD97":2544245.6000000001,"ADDRESS":"東安路２９６號十樓之１","OBJECTID":584633},"geometry":{"x":170796.44000000134,"y":2544245.5999999996}},{"attributes":{"ID":584661,"DIS_CODE":0,"TOWNNAME":"東區","LI":"小東里","LIN":"16鄰","STREET":"東安路","SECT":" ","MAREA":" ","LANE":" ","ALLEY":" ","HOUSE_NO":"２９６號八樓之１","E_COORD97":170796.44,"N_COORD97":2544245.6000000001,"ADDRESS":"東安路２９６號八樓之１","OBJECTID":584634},"geometry":{"x":170796.44000000134,"y":2544245.5999999996}},{"attributes":{"ID":584662,"DIS_CODE":0,"TOWNNAME":"東區","LI":"小東里","LIN":"16鄰","STREET":"東安路","SECT":" ","MAREA":" ","LANE":" ","ALLEY":" ","HOUSE_NO":"２８８號九樓","E_COORD97":170810.48000000001,"N_COORD97":2544209.2799999998,"ADDRESS":"東安路２８８號九樓","OBJECTID":584635},"geometry":{"x":170810.48000000045,"y":2544209.2800000012}},{"attributes":{"ID":584663,"DIS_CODE":0,"TOWNNAME":"東區","LI":"小東里","LIN":"16鄰","STREET":"東安路","SECT":" ","MAREA":" ","LANE":" ","ALLEY":" ","HOUSE_NO":"２８８號九樓之１","E_COORD97":170810.48000000001,"N_COORD97":2544209.2799999998,"ADDRESS":"東安路２８８號九樓之１","OBJECTID":584636},"geometry":{"x":170810.48000000045,"y":2544209.2800000012}},{"attributes":{"ID":584664,"DIS_CODE":0,"TOWNNAME":"東區","LI":"小東里","LIN":"16鄰","STREET":"東安路","SECT":" ","MAREA":" ","LANE":" ","ALLEY":" ","HOUSE_NO":"２９２號九樓","E_COORD97":170796.44,"N_COORD97":2544214.7999999998,"ADDRESS":"東安路２９２號九樓","OBJECTID":584637},"geometry":{"x":170796.44000000134,"y":2544214.8000000007}},{"attributes":{"ID":584665,"DIS_CODE":0,"TOWNNAME":"東區","LI":"小東里","LIN":"16鄰","STREET":"東安路","SECT":" ","MAREA":" ","LANE":" ","ALLEY":" ","HOUSE_NO":"２９２號九樓之１","E_COORD97":170796.44,"N_COORD97":2544214.7999999998,"ADDRESS":"東安路２９２號九樓之１","OBJECTID":584638},"geometry":{"x":170796.44000000134,"y":2544214.8000000007}},{"attributes":{"ID":584666,"DIS_CODE":0,"TOWNNAME":"東區","LI":"小東里","LIN":"16鄰","STREET":"東安路","SECT":" ","MAREA":" ","LANE":" ","ALLEY":" ","HOUSE_NO":"２９６號九樓","E_COORD97":170796.44,"N_COORD97":2544245.6000000001,"ADDRESS":"東安路２９６號九樓","OBJECTID":584639},"geometry":{"x":170796.44000000134,"y":2544245.5999999996}},{"attributes":{"ID":584667,"DIS_CODE":0,"TOWNNAME":"東區","LI":"小東里","LIN":"16鄰","STREET":"東安路","SECT":" ","MAREA":" ","LANE":" ","ALLEY":" ","HOUSE_NO":"２９６號九樓之１","E_COORD97":170796.44,"N_COORD97":2544245.6000000001,"ADDRESS":"東安路２９６號九樓之１","OBJECTID":584640},"geometry":{"x":170796.44000000134,"y":2544245.5999999996}},{"attributes":{"ID":584668,"DIS_CODE":0,"TOWNNAME":"東區","LI":"小東里","LIN":"16鄰","STREET":"東安路","SECT":" ","MAREA":" ","LANE":" ","ALLEY":" ","HOUSE_NO":"２８８號十樓","E_COORD97":170810.48000000001,"N_COORD97":2544209.2799999998,"ADDRESS":"東安路２８８號十樓","OBJECTID":584641},"geometry":{"x":170810.48000000045,"y":2544209.2800000012}},{"attributes":{"ID":584669,"DIS_CODE":0,"TOWNNAME":"東區","LI":"小東里","LIN":"16鄰","STREET":"東安路","SECT":" ","MAREA":" ","LANE":" ","ALLEY":" ","HOUSE_NO":"２８８號十樓之１","E_COORD97":170810.48000000001,"N_COORD97":2544209.2799999998,"ADDRESS":"東安路２８８號十樓之１","OBJECTID":584642},"geometry":{"x":170810.48000000045,"y":2544209.2800000012}},{"attributes":{"ID":584670,"DIS_CODE":0,"TOWNNAME":"東區","LI":"小東里","LIN":"16鄰","STREET":"東安路","SECT":" ","MAREA":" ","LANE":" ","ALLEY":" ","HOUSE_NO":"２８８號十一樓","E_COORD97":170810.48000000001,"N_COORD97":2544209.2799999998,"ADDRESS":"東安路２８８號十一樓","OBJECTID":584643},"geometry":{"x":170810.48000000045,"y":2544209.2800000012}},{"attributes":{"ID":584671,"DIS_CODE":0,"TOWNNAME":"東區","LI":"小東里","LIN":"16鄰","STREET":"東安路","SECT":" ","MAREA":" ","LANE":" ","ALLEY":" ","HOUSE_NO":"２８８號十一樓之１","E_COORD97":170810.48000000001,"N_COORD97":2544209.2799999998,"ADDRESS":"東安路２８８號十一樓之１","OBJECTID":584644},"geometry":{"x":170810.48000000045,"y":2544209.2800000012}},{"attributes":{"ID":584672,"DIS_CODE":0,"TOWNNAME":"東區","LI":"小東里","LIN":"16鄰","STREET":"東安路","SECT":" ","MAREA":" ","LANE":" ","ALLEY":" ","HOUSE_NO":"２９２號十一樓","E_COORD97":170796.44,"N_COORD97":2544214.7999999998,"ADDRESS":"東安路２９２號十一樓","OBJECTID":584645},"geometry":{"x":170796.44000000134,"y":2544214.8000000007}},{"attributes":{"ID":584673,"DIS_CODE":0,"TOWNNAME":"東區","LI":"小東里","LIN":"16鄰","STREET":"東安路","SECT":" ","MAREA":" ","LANE":" ","ALLEY":" ","HOUSE_NO":"２９２號十一樓之１","E_COORD97":170796.44,"N_COORD97":2544214.7999999998,"ADDRESS":"東安路２９２號十一樓之１","OBJECTID":584646},"geometry":{"x":170796.44000000134,"y":2544214.8000000007}},{"attributes":{"ID":584674,"DIS_CODE":0,"TOWNNAME":"仁德區","LI":"仁義里","LIN":"50鄰","STREET":"中清路","SECT":" ","MAREA":" ","LANE":" ","ALLEY":" ","HOUSE_NO":"２９號","E_COORD97":173686.26999999999,"N_COORD97":2541061.2999999998,"ADDRESS":"中清路２９號","OBJECTID":584647},"geometry":{"x":173686.26999999955,"y":2541061.3000000026}},{"attributes":{"ID":584675,"DIS_CODE":0,"TOWNNAME":"仁德區","LI":"仁德里","LIN":"39鄰","STREET":"文宏二街","SECT":" ","MAREA":" ","LANE":" ","ALLEY":" ","HOUSE_NO":"１１８號","E_COORD97":172480.63,"N_COORD97":2541787.0800000001,"ADDRESS":"文宏二街１１８號","OBJECTID":584648},"geometry":{"x":172480.62999999989,"y":2541787.0800000019}},{"attributes":{"ID":584676,"DIS_CODE":0,"TOWNNAME":"東區","LI":"小東里","LIN":"16鄰","STREET":"東安路","SECT":" ","MAREA":" ","LANE":" ","ALLEY":" ","HOUSE_NO":"２９６號十一樓","E_COORD97":170796.44,"N_COORD97":2544245.6000000001,"ADDRESS":"東安路２９６號十一樓","OBJECTID":584649},"geometry":{"x":170796.44000000134,"y":2544245.5999999996}},{"attributes":{"ID":584677,"DIS_CODE":0,"TOWNNAME":"東區","LI":"小東里","LIN":"16鄰","STREET":"東安路","SECT":" ","MAREA":" ","LANE":" ","ALLEY":" ","HOUSE_NO":"２９６號十一樓之１","E_COORD97":170796.44,"N_COORD97":2544245.6000000001,"ADDRESS":"東安路２９６號十一樓之１","OBJECTID":584650},"geometry":{"x":170796.44000000134,"y":2544245.5999999996}},{"attributes":{"ID":584678,"DIS_CODE":0,"TOWNNAME":"東區","LI":"小東里","LIN":"16鄰","STREET":"東安路","SECT":" ","MAREA":" ","LANE":" ","ALLEY":" ","HOUSE_NO":"２８８號十二樓","E_COORD97":170810.48000000001,"N_COORD97":2544209.2799999998,"ADDRESS":"東安路２８８號十二樓","OBJECTID":584651},"geometry":{"x":170810.48000000045,"y":2544209.2800000012}},{"attributes":{"ID":584679,"DIS_CODE":0,"TOWNNAME":"東區","LI":"小東里","LIN":"16鄰","STREET":"東安路","SECT":" ","MAREA":" ","LANE":" ","ALLEY":" ","HOUSE_NO":"２８８號十二樓之１","E_COORD97":170810.48000000001,"N_COORD97":2544209.2799999998,"ADDRESS":"東安路２８８號十二樓之１","OBJECTID":584652},"geometry":{"x":170810.48000000045,"y":2544209.2800000012}},{"attributes":{"ID":584680,"DIS_CODE":0,"TOWNNAME":"東區","LI":"小東里","LIN":"16鄰","STREET":"東安路","SECT":" ","MAREA":" ","LANE":" ","ALLEY":" ","HOUSE_NO":"２９２號十二樓","E_COORD97":170796.44,"N_COORD97":2544214.7999999998,"ADDRESS":"東安路２９２號十二樓","OBJECTID":584653},"geometry":{"x":170796.44000000134,"y":2544214.8000000007}},{"attributes":{"ID":584681,"DIS_CODE":0,"TOWNNAME":"東區","LI":"小東里","LIN":"16鄰","STREET":"東安路","SECT":" ","MAREA":" ","LANE":" ","ALLEY":" ","HOUSE_NO":"２９２號十二樓之１","E_COORD97":170796.44,"N_COORD97":2544214.7999999998,"ADDRESS":"東安路２９２號十二樓之１","OBJECTID":584654},"geometry":{"x":170796.44000000134,"y":2544214.8000000007}},{"attributes":{"ID":584682,"DIS_CODE":0,"TOWNNAME":"東區","LI":"小東里","LIN":"16鄰","STREET":"東安路","SECT":" ","MAREA":" ","LANE":" ","ALLEY":" ","HOUSE_NO":"２９６號十二樓","E_COORD97":170796.44,"N_COORD97":2544245.6000000001,"ADDRESS":"東安路２９６號十二樓","OBJECTID":584655},"geometry":{"x":170796.44000000134,"y":2544245.5999999996}},{"attributes":{"ID":584683,"DIS_CODE":0,"TOWNNAME":"東區","LI":"小東里","LIN":"16鄰","STREET":"東安路","SECT":" ","MAREA":" ","LANE":" ","ALLEY":" ","HOUSE_NO":"２９６號十二樓之１","E_COORD97":170796.44,"N_COORD97":2544245.6000000001,"ADDRESS":"東安路２９６號十二樓之１","OBJECTID":584656},"geometry":{"x":170796.44000000134,"y":2544245.5999999996}},{"attributes":{"ID":584684,"DIS_CODE":0,"TOWNNAME":"東區","LI":"小東里","LIN":"16鄰","STREET":"東安路","SECT":" ","MAREA":" ","LANE":" ","ALLEY":" ","HOUSE_NO":"２８８號十三樓","E_COORD97":170810.48000000001,"N_COORD97":2544209.2799999998,"ADDRESS":"東安路２８８號十三樓","OBJECTID":584657},"geometry":{"x":170810.48000000045,"y":2544209.2800000012}},{"attributes":{"ID":584685,"DIS_CODE":0,"TOWNNAME":"東區","LI":"小東里","LIN":"16鄰","STREET":"東安路","SECT":" ","MAREA":" ","LANE":" ","ALLEY":" ","HOUSE_NO":"２８８號十三樓之１","E_COORD97":170810.48000000001,"N_COORD97":2544209.2799999998,"ADDRESS":"東安路２８８號十三樓之１","OBJECTID":584658},"geometry":{"x":170810.48000000045,"y":2544209.2800000012}},{"attributes":{"ID":584686,"DIS_CODE":0,"TOWNNAME":"東區","LI":"小東里","LIN":"16鄰","STREET":"東安路","SECT":" ","MAREA":" ","LANE":" ","ALLEY":" ","HOUSE_NO":"２９２號十三樓","E_COORD97":170796.44,"N_COORD97":2544214.7999999998,"ADDRESS":"東安路２９２號十三樓","OBJECTID":584659},"geometry":{"x":170796.44000000134,"y":2544214.8000000007}},{"attributes":{"ID":584687,"DIS_CODE":0,"TOWNNAME":"東區","LI":"小東里","LIN":"16鄰","STREET":"東安路","SECT":" ","MAREA":" ","LANE":" ","ALLEY":" ","HOUSE_NO":"２９６號十三樓","E_COORD97":170796.44,"N_COORD97":2544245.6000000001,"ADDRESS":"東安路２９６號十三樓","OBJECTID":584660},"geometry":{"x":170796.44000000134,"y":2544245.5999999996}},{"attributes":{"ID":584688,"DIS_CODE":0,"TOWNNAME":"東區","LI":"小東里","LIN":"16鄰","STREET":"東安路","SECT":" ","MAREA":" ","LANE":" ","ALLEY":" ","HOUSE_NO":"２８８號十四樓","E_COORD97":170810.48000000001,"N_COORD97":2544209.2799999998,"ADDRESS":"東安路２８８號十四樓","OBJECTID":584661},"geometry":{"x":170810.48000000045,"y":2544209.2800000012}},{"attributes":{"ID":584689,"DIS_CODE":0,"TOWNNAME":"東區","LI":"小東里","LIN":"16鄰","STREET":"東安路","SECT":" ","MAREA":" ","LANE":" ","ALLEY":" ","HOUSE_NO":"２８８號十四樓之１","E_COORD97":170810.48000000001,"N_COORD97":2544209.2799999998,"ADDRESS":"東安路２８８號十四樓之１","OBJECTID":584662},"geometry":{"x":170810.48000000045,"y":2544209.2800000012}},{"attributes":{"ID":584690,"DIS_CODE":0,"TOWNNAME":"仁德區","LI":"太子里","LIN":"13鄰","STREET":"長興二街","SECT":" ","MAREA":" ","LANE":" ","ALLEY":" ","HOUSE_NO":"１８號","E_COORD97":174417.29000000001,"N_COORD97":2543710.25,"ADDRESS":"長興二街１８號","OBJECTID":584663},"geometry":{"x":174417.29000000004,"y":2543710.25}},{"attributes":{"ID":584691,"DIS_CODE":0,"TOWNNAME":"東區","LI":"小東里","LIN":"16鄰","STREET":"東安路","SECT":" ","MAREA":" ","LANE":" ","ALLEY":" ","HOUSE_NO":"２９２號七樓","E_COORD97":170796.44,"N_COORD97":2544214.7999999998,"ADDRESS":"東安路２９２號七樓","OBJECTID":584664},"geometry":{"x":170796.44000000134,"y":2544214.8000000007}},{"attributes":{"ID":584692,"DIS_CODE":0,"TOWNNAME":"仁德區","LI":"仁德里","LIN":"3鄰","STREET":"仁中六街","SECT":" ","MAREA":" ","LANE":" ","ALLEY":" ","HOUSE_NO":"４２號","E_COORD97":173389.87,"N_COORD97":2540373.7400000002,"ADDRESS":"仁中六街４２號","OBJECTID":584665},"geometry":{"x":173389.87000000104,"y":2540373.7400000002}},{"attributes":{"ID":584693,"DIS_CODE":0,"TOWNNAME":"仁德區","LI":"仁德里","LIN":"4鄰","STREET":"仁中六街","SECT":" ","MAREA":" ","LANE":" ","ALLEY":" ","HOUSE_NO":"１１７號","E_COORD97":173355.69,"N_COORD97":2540451.2400000002,"ADDRESS":"仁中六街１１７號","OBJECTID":584666},"geometry":{"x":173355.69000000227,"y":2540451.2400000002}},{"attributes":{"ID":584694,"DIS_CODE":0,"TOWNNAME":"仁德區","LI":"保安里","LIN":"14鄰","STREET":"文賢路","SECT":"一段","MAREA":" ","LANE":" ","ALLEY":" ","HOUSE_NO":"５７３號","E_COORD97":171139.14999999999,"N_COORD97":2536822.5800000001,"ADDRESS":"文賢路一段５７３號","OBJECTID":584667},"geometry":{"x":171139.1500000013,"y":2536822.5800000038}},{"attributes":{"ID":584695,"DIS_CODE":0,"TOWNNAME":"仁德區","LI":"太子里","LIN":"16鄰","STREET":"太興路","SECT":" ","MAREA":" ","LANE":" ","ALLEY":" ","HOUSE_NO":"１３５號","E_COORD97":174095.29000000001,"N_COORD97":2543624.5099999998,"ADDRESS":"太興路１３５號","OBJECTID":584668},"geometry":{"x":174095.28999999911,"y":2543624.5100000016}},{"attributes":{"ID":584696,"DIS_CODE":0,"TOWNNAME":"仁德區","LI":"太子里","LIN":"27鄰","STREET":"大吉路","SECT":" ","MAREA":" ","LANE":" ","ALLEY":" ","HOUSE_NO":"９７號","E_COORD97":173467.04000000001,"N_COORD97":2543320,"ADDRESS":"大吉路９７號","OBJECTID":584669},"geometry":{"x":173467.04000000097,"y":2543320.0000000019}},{"attributes":{"ID":584697,"DIS_CODE":0,"TOWNNAME":"仁德區","LI":"仁德里","LIN":"17鄰","STREET":"文華路","SECT":"三段","MAREA":" ","LANE":" ","ALLEY":" ","HOUSE_NO":"４２７號","E_COORD97":172394.31,"N_COORD97":2541214.5699999998,"ADDRESS":"文華路三段４２７號","OBJECTID":584670},"geometry":{"x":172394.30999999959,"y":2541214.5700000022}},{"attributes":{"ID":584698,"DIS_CODE":0,"TOWNNAME":"仁德區","LI":"保安里","LIN":"12鄰","STREET":"永德路","SECT":" ","MAREA":" ","LANE":" ","ALLEY":" ","HOUSE_NO":"９號","E_COORD97":172069.48000000001,"N_COORD97":2536093.02,"ADDRESS":"永德路９號","OBJECTID":584671},"geometry":{"x":172069.48000000138,"y":2536093.0199999996}},{"attributes":{"ID":584699,"DIS_CODE":0,"TOWNNAME":"仁德區","LI":"仁義里","LIN":"23鄰","STREET":"中清路","SECT":" ","MAREA":" ","LANE":" ","ALLEY":" ","HOUSE_NO":"１６２號","E_COORD97":173736.63,"N_COORD97":2541494.29,"ADDRESS":"中清路１６２號","OBJECTID":584672},"geometry":{"x":173736.62999999989,"y":2541494.2899999991}},{"attributes":{"ID":584700,"DIS_CODE":0,"TOWNNAME":"中西區","LI":"萬昌里","LIN":"16鄰","STREET":"青年路","SECT":" ","MAREA":" ","LANE":" ","ALLEY":" ","HOUSE_NO":"９６號七樓","E_COORD97":168845.29999999999,"N_COORD97":2543601.2799999998,"ADDRESS":"青年路９６號七樓","OBJECTID":584673},"geometry":{"x":168845.30000000075,"y":2543601.2800000031}},{"attributes":{"ID":584701,"DIS_CODE":0,"TOWNNAME":"中西區","LI":"萬昌里","LIN":"16鄰","STREET":"青年路","SECT":" ","MAREA":" ","LANE":" ","ALLEY":" ","HOUSE_NO":"９６號二樓","E_COORD97":168845.29999999999,"N_COORD97":2543601.2799999998,"ADDRESS":"青年路９６號二樓","OBJECTID":584674},"geometry":{"x":168845.30000000075,"y":2543601.2800000031}},{"attributes":{"ID":584702,"DIS_CODE":0,"TOWNNAME":"中西區","LI":"萬昌里","LIN":"16鄰","STREET":"青年路","SECT":" ","MAREA":" ","LANE":" ","ALLEY":" ","HOUSE_NO":"９６號八樓","E_COORD97":168845.29999999999,"N_COORD97":2543601.2799999998,"ADDRESS":"青年路９６號八樓","OBJECTID":584675},"geometry":{"x":168845.30000000075,"y":2543601.2800000031}},{"attributes":{"ID":584703,"DIS_CODE":0,"TOWNNAME":"中西區","LI":"萬昌里","LIN":"16鄰","STREET":"青年路","SECT":" ","MAREA":" ","LANE":" ","ALLEY":" ","HOUSE_NO":"９６號三樓","E_COORD97":168845.29999999999,"N_COORD97":2543601.2799999998,"ADDRESS":"青年路９６號三樓","OBJECTID":584676},"geometry":{"x":168845.30000000075,"y":2543601.2800000031}},{"attributes":{"ID":584704,"DIS_CODE":0,"TOWNNAME":"中西區","LI":"萬昌里","LIN":"16鄰","STREET":"青年路","SECT":" ","MAREA":" ","LANE":" ","ALLEY":" ","HOUSE_NO":"９６號五樓","E_COORD97":168845.29999999999,"N_COORD97":2543601.2799999998,"ADDRESS":"青年路９６號五樓","OBJECTID":584677},"geometry":{"x":168845.30000000075,"y":2543601.2800000031}},{"attributes":{"ID":584705,"DIS_CODE":0,"TOWNNAME":"中西區","LI":"萬昌里","LIN":"16鄰","STREET":"青年路","SECT":" ","MAREA":" ","LANE":" ","ALLEY":" ","HOUSE_NO":"９６號六樓","E_COORD97":168845.29999999999,"N_COORD97":2543601.2799999998,"ADDRESS":"青年路９６號六樓","OBJECTID":584678},"geometry":{"x":168845.30000000075,"y":2543601.2800000031}},{"attributes":{"ID":584706,"DIS_CODE":0,"TOWNNAME":"中西區","LI":"萬昌里","LIN":"16鄰","STREET":"青年路","SECT":" ","MAREA":" ","LANE":" ","ALLEY":" ","HOUSE_NO":"９６號四樓","E_COORD97":168845.29999999999,"N_COORD97":2543601.2799999998,"ADDRESS":"青年路９６號四樓","OBJECTID":584679},"geometry":{"x":168845.30000000075,"y":2543601.2800000031}},{"attributes":{"ID":584707,"DIS_CODE":0,"TOWNNAME":"東區","LI":"崇學里","LIN":"16鄰","STREET":"崇學路","SECT":" ","MAREA":" ","LANE":" ","ALLEY":" ","HOUSE_NO":"６號九樓之２","E_COORD97":170084.10000000001,"N_COORD97":2542018.5800000001,"ADDRESS":"崇學路６號九樓之２","OBJECTID":584680},"geometry":{"x":170084.10000000056,"y":2542018.5800000001}},{"attributes":{"ID":584708,"DIS_CODE":0,"TOWNNAME":"仁德區","LI":"仁德里","LIN":"4鄰","STREET":"中正路","SECT":"二段","MAREA":" ","LANE":" ","ALLEY":" ","HOUSE_NO":"８３３號","E_COORD97":173436.38,"N_COORD97":2540485.52,"ADDRESS":"中正路二段８３３號","OBJECTID":584681},"geometry":{"x":173436.37999999989,"y":2540485.5200000014}},{"attributes":{"ID":584709,"DIS_CODE":0,"TOWNNAME":"仁德區","LI":"田厝里","LIN":"7鄰","STREET":"保安路","SECT":"二段","MAREA":" ","LANE":" ","ALLEY":" ","HOUSE_NO":"６４３號","E_COORD97":172828.64999999999,"N_COORD97":2537612.3199999998,"ADDRESS":"保安路二段６４３號","OBJECTID":584682},"geometry":{"x":172828.65000000224,"y":2537612.3200000022}},{"attributes":{"ID":584710,"DIS_CODE":0,"TOWNNAME":"仁德區","LI":"新田里","LIN":"16鄰","STREET":"民安路","SECT":"二段","MAREA":" ","LANE":" ","ALLEY":" ","HOUSE_NO":"４７號二樓之１","E_COORD97":173405.35000000001,"N_COORD97":2539276.8199999998,"ADDRESS":"民安路二段４７號二樓之１","OBJECTID":584683},"geometry":{"x":173405.35000000056,"y":2539276.8200000022}},{"attributes":{"ID":584711,"DIS_CODE":0,"TOWNNAME":"永康區","LI":"中華里","LIN":"16鄰","STREET":"小東路","SECT":" ","MAREA":" ","LANE":" ","ALLEY":" ","HOUSE_NO":"５１１號三樓","E_COORD97":171662.63,"N_COORD97":2544356.8700000001,"ADDRESS":"小東路５１１號三樓","OBJECTID":584684},"geometry":{"x":171662.63000000082,"y":2544356.870000001}},{"attributes":{"ID":584712,"DIS_CODE":0,"TOWNNAME":"永康區","LI":"中華里","LIN":"16鄰","STREET":"小東路","SECT":" ","MAREA":" ","LANE":" ","ALLEY":" ","HOUSE_NO":"５１１號四樓","E_COORD97":171662.63,"N_COORD97":2544356.8700000001,"ADDRESS":"小東路５１１號四樓","OBJECTID":584685},"geometry":{"x":171662.63000000082,"y":2544356.870000001}},{"attributes":{"ID":584713,"DIS_CODE":0,"TOWNNAME":"仁德區","LI":"太子里","LIN":"46鄰","STREET":"太子一街","SECT":" ","MAREA":" ","LANE":" ","ALLEY":" ","HOUSE_NO":"２９號","E_COORD97":174808.17999999999,"N_COORD97":2543362,"ADDRESS":"太子一街２９號","OBJECTID":584686},"geometry":{"x":174808.18000000063,"y":2543362}},{"attributes":{"ID":584714,"DIS_CODE":0,"TOWNNAME":"仁德區","LI":"保安里","LIN":"12鄰","STREET":"開發六路","SECT":" ","MAREA":" ","LANE":" ","ALLEY":" ","HOUSE_NO":"２２號","E_COORD97":173015.13,"N_COORD97":2535631.2599999998,"ADDRESS":"開發六路２２號","OBJECTID":584687},"geometry":{"x":173015.13000000082,"y":2535631.2600000035}},{"attributes":{"ID":584715,"DIS_CODE":0,"TOWNNAME":"永康區","LI":"中華里","LIN":"16鄰","STREET":"小東路","SECT":" ","MAREA":" ","LANE":" ","ALLEY":" ","HOUSE_NO":"５１１號五樓","E_COORD97":171662.63,"N_COORD97":2544356.8700000001,"ADDRESS":"小東路５１１號五樓","OBJECTID":584688},"geometry":{"x":171662.63000000082,"y":2544356.870000001}},{"attributes":{"ID":584716,"DIS_CODE":0,"TOWNNAME":"永康區","LI":"中華里","LIN":"16鄰","STREET":"小東路","SECT":" ","MAREA":" ","LANE":" ","ALLEY":" ","HOUSE_NO":"５１１號六樓","E_COORD97":171662.63,"N_COORD97":2544356.8700000001,"ADDRESS":"小東路５１１號六樓","OBJECTID":584689},"geometry":{"x":171662.63000000082,"y":2544356.870000001}},{"attributes":{"ID":584717,"DIS_CODE":0,"TOWNNAME":"白河區","LI":"永安里","LIN":"16鄰","STREET":"四維街","SECT":" ","MAREA":" ","LANE":" ","ALLEY":" ","HOUSE_NO":"９號三樓","E_COORD97":190031.22,"N_COORD97":2583190.6699999999,"ADDRESS":"四維街９號三樓","OBJECTID":584690},"geometry":{"x":190031.21999999974,"y":2583190.6699999999}},{"attributes":{"ID":584718,"DIS_CODE":0,"TOWNNAME":"仁德區","LI":"新田里","LIN":"16鄰","STREET":"民安路","SECT":"二段","MAREA":" ","LANE":" ","ALLEY":" ","HOUSE_NO":"４５號六樓之２","E_COORD97":173414.53,"N_COORD97":2539275.5699999998,"ADDRESS":"民安路二段４５號六樓之２","OBJECTID":584691},"geometry":{"x":173414.53000000119,"y":2539275.5700000022}},{"attributes":{"ID":584719,"DIS_CODE":0,"TOWNNAME":"仁德區","LI":"新田里","LIN":"16鄰","STREET":"民安路","SECT":"二段","MAREA":" ","LANE":" ","ALLEY":" ","HOUSE_NO":"４５號四樓之１","E_COORD97":173414.39000000001,"N_COORD97":2539275.5699999998,"ADDRESS":"民安路二段４５號四樓之１","OBJECTID":584692},"geometry":{"x":173414.38999999966,"y":2539275.5700000022}},{"attributes":{"ID":584720,"DIS_CODE":0,"TOWNNAME":"仁德區","LI":"新田里","LIN":"16鄰","STREET":"民安路","SECT":"二段","MAREA":" ","LANE":" ","ALLEY":" ","HOUSE_NO":"４３號四樓之２","E_COORD97":173406.10000000001,"N_COORD97":2539262.8199999998,"ADDRESS":"民安路二段４３號四樓之２","OBJECTID":584693},"geometry":{"x":173406.09999999963,"y":2539262.8200000022}},{"attributes":{"ID":584721,"DIS_CODE":0,"TOWNNAME":"仁德區","LI":"新田里","LIN":"16鄰","STREET":"民安路","SECT":"二段","MAREA":" ","LANE":" ","ALLEY":" ","HOUSE_NO":"４３號三樓之３","E_COORD97":173406.06,"N_COORD97":2539262.8199999998,"ADDRESS":"民安路二段４３號三樓之３","OBJECTID":584694},"geometry":{"x":173406.05999999959,"y":2539262.8200000022}},{"attributes":{"ID":584722,"DIS_CODE":0,"TOWNNAME":"仁德區","LI":"新田里","LIN":"16鄰","STREET":"民安路","SECT":"二段","MAREA":" ","LANE":" ","ALLEY":" ","HOUSE_NO":"４３號五樓之１","E_COORD97":173405.95999999999,"N_COORD97":2539262.8199999998,"ADDRESS":"民安路二段４３號五樓之１","OBJECTID":584695},"geometry":{"x":173405.96000000183,"y":2539262.8200000022}},{"attributes":{"ID":584723,"DIS_CODE":0,"TOWNNAME":"仁德區","LI":"新田里","LIN":"16鄰","STREET":"民安路","SECT":"二段","MAREA":" ","LANE":" ","ALLEY":" ","HOUSE_NO":"４３號三樓之２","E_COORD97":173406.10000000001,"N_COORD97":2539262.8199999998,"ADDRESS":"民安路二段４３號三樓之２","OBJECTID":584696},"geometry":{"x":173406.09999999963,"y":2539262.8200000022}},{"attributes":{"ID":584724,"DIS_CODE":0,"TOWNNAME":"仁德區","LI":"新田里","LIN":"16鄰","STREET":"民安路","SECT":"二段","MAREA":" ","LANE":" ","ALLEY":" ","HOUSE_NO":"４３號五樓之２","E_COORD97":173406.10000000001,"N_COORD97":2539262.8199999998,"ADDRESS":"民安路二段４３號五樓之２","OBJECTID":584697},"geometry":{"x":173406.09999999963,"y":2539262.8200000022}},{"attributes":{"ID":584725,"DIS_CODE":0,"TOWNNAME":"仁德區","LI":"新田里","LIN":"16鄰","STREET":"民安路","SECT":"二段","MAREA":" ","LANE":" ","ALLEY":" ","HOUSE_NO":"４７號三樓之１","E_COORD97":173405.35000000001,"N_COORD97":2539276.8199999998,"ADDRESS":"民安路二段４７號三樓之１","OBJECTID":584698},"geometry":{"x":173405.35000000056,"y":2539276.8200000022}},{"attributes":{"ID":584726,"DIS_CODE":0,"TOWNNAME":"仁德區","LI":"新田里","LIN":"16鄰","STREET":"民安路","SECT":"二段","MAREA":" ","LANE":" ","ALLEY":" ","HOUSE_NO":"４７號六樓之２","E_COORD97":173405.48999999999,"N_COORD97":2539276.8199999998,"ADDRESS":"民安路二段４７號六樓之２","OBJECTID":584699},"geometry":{"x":173405.49000000022,"y":2539276.8200000022}},{"attributes":{"ID":584727,"DIS_CODE":0,"TOWNNAME":"仁德區","LI":"新田里","LIN":"16鄰","STREET":"民安路","SECT":"二段","MAREA":" ","LANE":" ","ALLEY":" ","HOUSE_NO":"４７號六樓之４","E_COORD97":173405.38,"N_COORD97":2539276.8199999998,"ADDRESS":"民安路二段４７號六樓之４","OBJECTID":584700},"geometry":{"x":173405.38000000082,"y":2539276.8200000022}},{"attributes":{"ID":584728,"DIS_CODE":0,"TOWNNAME":"仁德區","LI":"新田里","LIN":"16鄰","STREET":"民安路","SECT":"二段","MAREA":" ","LANE":" ","ALLEY":" ","HOUSE_NO":"４３號二樓之２","E_COORD97":173406.10000000001,"N_COORD97":2539262.8199999998,"ADDRESS":"民安路二段４３號二樓之２","OBJECTID":584701},"geometry":{"x":173406.09999999963,"y":2539262.8200000022}},{"attributes":{"ID":584729,"DIS_CODE":0,"TOWNNAME":"仁德區","LI":"新田里","LIN":"16鄰","STREET":"民安路","SECT":"二段","MAREA":" ","LANE":" ","ALLEY":" ","HOUSE_NO":"４５號三樓之２","E_COORD97":173414.53,"N_COORD97":2539275.5699999998,"ADDRESS":"民安路二段４５號三樓之２","OBJECTID":584702},"geometry":{"x":173414.53000000119,"y":2539275.5700000022}},{"attributes":{"ID":584730,"DIS_CODE":0,"TOWNNAME":"仁德區","LI":"新田里","LIN":"16鄰","STREET":"民安路","SECT":"二段","MAREA":" ","LANE":" ","ALLEY":" ","HOUSE_NO":"４７號二樓之４","E_COORD97":173405.38,"N_COORD97":2539276.8199999998,"ADDRESS":"民安路二段４７號二樓之４","OBJECTID":584703},"geometry":{"x":173405.38000000082,"y":2539276.8200000022}},{"attributes":{"ID":584731,"DIS_CODE":0,"TOWNNAME":"白河區","LI":"永安里","LIN":"16鄰","STREET":"四維街","SECT":" ","MAREA":" ","LANE":" ","ALLEY":" ","HOUSE_NO":"７號二樓","E_COORD97":190034.78,"N_COORD97":2583186.5600000001,"ADDRESS":"四維街７號二樓","OBJECTID":584704},"geometry":{"x":190034.78000000026,"y":2583186.5600000042}},{"attributes":{"ID":584732,"DIS_CODE":0,"TOWNNAME":"白河區","LI":"永安里","LIN":"16鄰","STREET":"四維街","SECT":" ","MAREA":" ","LANE":" ","ALLEY":" ","HOUSE_NO":"７號三樓","E_COORD97":190034.78,"N_COORD97":2583186.5600000001,"ADDRESS":"四維街７號三樓","OBJECTID":584705},"geometry":{"x":190034.78000000026,"y":2583186.5600000042}},{"attributes":{"ID":584733,"DIS_CODE":0,"TOWNNAME":"白河區","LI":"永安里","LIN":"16鄰","STREET":"四維街","SECT":" ","MAREA":" ","LANE":" ","ALLEY":" ","HOUSE_NO":"７號五樓","E_COORD97":190034.78,"N_COORD97":2583186.5600000001,"ADDRESS":"四維街７號五樓","OBJECTID":584706},"geometry":{"x":190034.78000000026,"y":2583186.5600000042}},{"attributes":{"ID":584734,"DIS_CODE":0,"TOWNNAME":"白河區","LI":"永安里","LIN":"16鄰","STREET":"四維街","SECT":" ","MAREA":" ","LANE":" ","ALLEY":" ","HOUSE_NO":"７號四樓","E_COORD97":190034.78,"N_COORD97":2583186.5600000001,"ADDRESS":"四維街７號四樓","OBJECTID":584707},"geometry":{"x":190034.78000000026,"y":2583186.5600000042}},{"attributes":{"ID":584735,"DIS_CODE":0,"TOWNNAME":"白河區","LI":"永安里","LIN":"16鄰","STREET":"四維街","SECT":" ","MAREA":" ","LANE":" ","ALLEY":" ","HOUSE_NO":"９號二樓","E_COORD97":190031.22,"N_COORD97":2583190.6699999999,"ADDRESS":"四維街９號二樓","OBJECTID":584708},"geometry":{"x":190031.21999999974,"y":2583190.6699999999}},{"attributes":{"ID":584736,"DIS_CODE":0,"TOWNNAME":"白河區","LI":"永安里","LIN":"16鄰","STREET":"四維街","SECT":" ","MAREA":" ","LANE":" ","ALLEY":" ","HOUSE_NO":"９號四樓","E_COORD97":190031.22,"N_COORD97":2583190.6699999999,"ADDRESS":"四維街９號四樓","OBJECTID":584709},"geometry":{"x":190031.21999999974,"y":2583190.6699999999}},{"attributes":{"ID":584737,"DIS_CODE":0,"TOWNNAME":"仁德區","LI":"太子里","LIN":"11鄰","STREET":"長興二街","SECT":" ","MAREA":" ","LANE":" ","ALLEY":" ","HOUSE_NO":"８２號","E_COORD97":174237.54000000001,"N_COORD97":2543699.75,"ADDRESS":"長興二街８２號","OBJECTID":584710},"geometry":{"x":174237.54000000004,"y":2543699.75}},{"attributes":{"ID":584738,"DIS_CODE":0,"TOWNNAME":"仁德區","LI":"仁德里","LIN":"17鄰","STREET":"文華路","SECT":"三段","MAREA":" ","LANE":" ","ALLEY":" ","HOUSE_NO":"４４８之２號","E_COORD97":172453.67999999999,"N_COORD97":2541301.5699999998,"ADDRESS":"文華路三段４４８之２號","OBJECTID":584711},"geometry":{"x":172453.68000000063,"y":2541301.570000004}},{"attributes":{"ID":584739,"DIS_CODE":0,"TOWNNAME":"仁德區","LI":"仁義里","LIN":"35鄰","STREET":"中正路","SECT":"二段","MAREA":" ","LANE":" ","ALLEY":" ","HOUSE_NO":"６６２號","E_COORD97":173392.37,"N_COORD97":2539843.02,"ADDRESS":"中正路二段６６２號","OBJECTID":584712},"geometry":{"x":173392.37000000011,"y":2539843.0199999996}},{"attributes":{"ID":584740,"DIS_CODE":0,"TOWNNAME":"中西區","LI":"協和里","LIN":"16鄰","STREET":"西和路","SECT":" ","MAREA":" ","LANE":" ","ALLEY":" ","HOUSE_NO":"２８８號七樓之１","E_COORD97":167263.85000000001,"N_COORD97":2544839.6499999999,"ADDRESS":"西和路２８８號七樓之１","OBJECTID":584713},"geometry":{"x":167263.84999999963,"y":2544839.6500000004}},{"attributes":{"ID":584741,"DIS_CODE":0,"TOWNNAME":"中西區","LI":"協和里","LIN":"16鄰","STREET":"西和路","SECT":" ","MAREA":" ","LANE":" ","ALLEY":" ","HOUSE_NO":"２８８號七樓之２","E_COORD97":167263.85000000001,"N_COORD97":2544839.6499999999,"ADDRESS":"西和路２８８號七樓之２","OBJECTID":584714},"geometry":{"x":167263.84999999963,"y":2544839.6500000004}},{"attributes":{"ID":584742,"DIS_CODE":0,"TOWNNAME":"中西區","LI":"協和里","LIN":"16鄰","STREET":"西和路","SECT":" ","MAREA":" ","LANE":" ","ALLEY":" ","HOUSE_NO":"２８８號七樓之３","E_COORD97":167263.85000000001,"N_COORD97":2544839.6499999999,"ADDRESS":"西和路２８８號七樓之３","OBJECTID":584715},"geometry":{"x":167263.84999999963,"y":2544839.6500000004}},{"attributes":{"ID":584743,"DIS_CODE":0,"TOWNNAME":"中西區","LI":"協和里","LIN":"16鄰","STREET":"西和路","SECT":" ","MAREA":" ","LANE":" ","ALLEY":" ","HOUSE_NO":"２８８號五樓之１","E_COORD97":167263.85000000001,"N_COORD97":2544839.6499999999,"ADDRESS":"西和路２８８號五樓之１","OBJECTID":584716},"geometry":{"x":167263.84999999963,"y":2544839.6500000004}},{"attributes":{"ID":584744,"DIS_CODE":0,"TOWNNAME":"中西區","LI":"協和里","LIN":"16鄰","STREET":"西和路","SECT":" ","MAREA":" ","LANE":" ","ALLEY":" ","HOUSE_NO":"２８８號五樓之２","E_COORD97":167263.85000000001,"N_COORD97":2544839.6499999999,"ADDRESS":"西和路２８８號五樓之２","OBJECTID":584717},"geometry":{"x":167263.84999999963,"y":2544839.6500000004}},{"attributes":{"ID":584745,"DIS_CODE":0,"TOWNNAME":"中西區","LI":"協和里","LIN":"16鄰","STREET":"西和路","SECT":" ","MAREA":" ","LANE":" ","ALLEY":" ","HOUSE_NO":"２８８號五樓之３","E_COORD97":167263.85000000001,"N_COORD97":2544839.6499999999,"ADDRESS":"西和路２８８號五樓之３","OBJECTID":584718},"geometry":{"x":167263.84999999963,"y":2544839.6500000004}},{"attributes":{"ID":584746,"DIS_CODE":0,"TOWNNAME":"中西區","LI":"協和里","LIN":"16鄰","STREET":"西和路","SECT":" ","MAREA":" ","LANE":" ","ALLEY":" ","HOUSE_NO":"２８８號五樓之４","E_COORD97":167263.85000000001,"N_COORD97":2544839.6499999999,"ADDRESS":"西和路２８８號五樓之４","OBJECTID":584719},"geometry":{"x":167263.84999999963,"y":2544839.6500000004}},{"attributes":{"ID":584747,"DIS_CODE":0,"TOWNNAME":"中西區","LI":"協和里","LIN":"16鄰","STREET":"西和路","SECT":" ","MAREA":" ","LANE":" ","ALLEY":" ","HOUSE_NO":"２８８號六樓之１","E_COORD97":167263.85000000001,"N_COORD97":2544839.6499999999,"ADDRESS":"西和路２８８號六樓之１","OBJECTID":584720},"geometry":{"x":167263.84999999963,"y":2544839.6500000004}},{"attributes":{"ID":584748,"DIS_CODE":0,"TOWNNAME":"中西區","LI":"協和里","LIN":"16鄰","STREET":"西和路","SECT":" ","MAREA":" ","LANE":" ","ALLEY":" ","HOUSE_NO":"２８８號六樓之２","E_COORD97":167263.85000000001,"N_COORD97":2544839.6499999999,"ADDRESS":"西和路２８８號六樓之２","OBJECTID":584721},"geometry":{"x":167263.84999999963,"y":2544839.6500000004}},{"attributes":{"ID":584749,"DIS_CODE":0,"TOWNNAME":"中西區","LI":"協和里","LIN":"16鄰","STREET":"西和路","SECT":" ","MAREA":" ","LANE":" ","ALLEY":" ","HOUSE_NO":"２８８號六樓之３","E_COORD97":167263.85000000001,"N_COORD97":2544839.6499999999,"ADDRESS":"西和路２８８號六樓之３","OBJECTID":584722},"geometry":{"x":167263.84999999963,"y":2544839.6500000004}},{"attributes":{"ID":584750,"DIS_CODE":0,"TOWNNAME":"中西區","LI":"協和里","LIN":"16鄰","STREET":"西和路","SECT":" ","MAREA":" ","LANE":" ","ALLEY":" ","HOUSE_NO":"２８８號六樓之４","E_COORD97":167263.85000000001,"N_COORD97":2544839.6499999999,"ADDRESS":"西和路２８８號六樓之４","OBJECTID":584723},"geometry":{"x":167263.84999999963,"y":2544839.6500000004}},{"attributes":{"ID":584751,"DIS_CODE":0,"TOWNNAME":"中西區","LI":"協和里","LIN":"16鄰","STREET":"西和路","SECT":" ","MAREA":" ","LANE":" ","ALLEY":" ","HOUSE_NO":"２８８號四樓之１","E_COORD97":167263.85000000001,"N_COORD97":2544839.6499999999,"ADDRESS":"西和路２８８號四樓之１","OBJECTID":584724},"geometry":{"x":167263.84999999963,"y":2544839.6500000004}},{"attributes":{"ID":584752,"DIS_CODE":0,"TOWNNAME":"中西區","LI":"協和里","LIN":"16鄰","STREET":"西和路","SECT":" ","MAREA":" ","LANE":" ","ALLEY":" ","HOUSE_NO":"２８８號四樓之２","E_COORD97":167263.85000000001,"N_COORD97":2544839.6499999999,"ADDRESS":"西和路２８８號四樓之２","OBJECTID":584725},"geometry":{"x":167263.84999999963,"y":2544839.6500000004}},{"attributes":{"ID":584753,"DIS_CODE":0,"TOWNNAME":"中西區","LI":"協和里","LIN":"16鄰","STREET":"西和路","SECT":" ","MAREA":" ","LANE":" ","ALLEY":" ","HOUSE_NO":"２８８號四樓之３","E_COORD97":167263.85000000001,"N_COORD97":2544839.6499999999,"ADDRESS":"西和路２８８號四樓之３","OBJECTID":584726},"geometry":{"x":167263.84999999963,"y":2544839.6500000004}},{"attributes":{"ID":584754,"DIS_CODE":0,"TOWNNAME":"中西區","LI":"協和里","LIN":"16鄰","STREET":"西和路","SECT":" ","MAREA":" ","LANE":" ","ALLEY":" ","HOUSE_NO":"２８８號四樓之４","E_COORD97":167263.85000000001,"N_COORD97":2544839.6499999999,"ADDRESS":"西和路２８８號四樓之４","OBJECTID":584727},"geometry":{"x":167263.84999999963,"y":2544839.6500000004}},{"attributes":{"ID":584755,"DIS_CODE":0,"TOWNNAME":"永康區","LI":"中華里","LIN":"16鄰","STREET":"小東路","SECT":" ","MAREA":" ","LANE":" ","ALLEY":" ","HOUSE_NO":"５０９號四樓之５","E_COORD97":171649.62,"N_COORD97":2544340.7999999998,"ADDRESS":"小東路５０９號四樓之５","OBJECTID":584728},"geometry":{"x":171649.62000000011,"y":2544340.8000000007}},{"attributes":{"ID":584756,"DIS_CODE":0,"TOWNNAME":"永康區","LI":"中華里","LIN":"16鄰","STREET":"小東路","SECT":" ","MAREA":" ","LANE":" ","ALLEY":" ","HOUSE_NO":"５０９號五樓之９","E_COORD97":171649.54999999999,"N_COORD97":2544340.7999999998,"ADDRESS":"小東路５０９號五樓之９","OBJECTID":584729},"geometry":{"x":171649.55000000075,"y":2544340.8000000007}},{"attributes":{"ID":584757,"DIS_CODE":0,"TOWNNAME":"永康區","LI":"中華里","LIN":"16鄰","STREET":"小東路","SECT":" ","MAREA":" ","LANE":" ","ALLEY":" ","HOUSE_NO":"５０９號十樓之１２","E_COORD97":171650.85000000001,"N_COORD97":2544340.7999999998,"ADDRESS":"小東路５０９號十樓之１２","OBJECTID":584730},"geometry":{"x":171650.85000000056,"y":2544340.8000000007}},{"attributes":{"ID":584758,"DIS_CODE":0,"TOWNNAME":"永康區","LI":"中華里","LIN":"16鄰","STREET":"小東路","SECT":" ","MAREA":" ","LANE":" ","ALLEY":" ","HOUSE_NO":"５０９號七樓之１","E_COORD97":171649.45999999999,"N_COORD97":2544340.7999999998,"ADDRESS":"小東路５０９號七樓之１","OBJECTID":584731},"geometry":{"x":171649.45999999996,"y":2544340.8000000007}},{"attributes":{"ID":584759,"DIS_CODE":0,"TOWNNAME":"永康區","LI":"中華里","LIN":"16鄰","STREET":"小東路","SECT":" ","MAREA":" ","LANE":" ","ALLEY":" ","HOUSE_NO":"５０９號七樓之９","E_COORD97":171649.54999999999,"N_COORD97":2544340.7999999998,"ADDRESS":"小東路５０９號七樓之９","OBJECTID":584732},"geometry":{"x":171649.55000000075,"y":2544340.8000000007}},{"attributes":{"ID":584760,"DIS_CODE":0,"TOWNNAME":"仁德區","LI":"仁德里","LIN":"39鄰","STREET":"文宏路","SECT":" ","MAREA":" ","LANE":" ","ALLEY":" ","HOUSE_NO":"１２２號","E_COORD97":172424.23999999999,"N_COORD97":2541775.5800000001,"ADDRESS":"文宏路１２２號","OBJECTID":584733},"geometry":{"x":172424.24000000022,"y":2541775.5800000001}},{"attributes":{"ID":584761,"DIS_CODE":0,"TOWNNAME":"仁德區","LI":"仁德里","LIN":"39鄰","STREET":"文山路","SECT":" ","MAREA":" ","LANE":" ","ALLEY":" ","HOUSE_NO":"１６８號","E_COORD97":172721.06,"N_COORD97":2541814.0699999998,"ADDRESS":"文山路１６８號","OBJECTID":584734},"geometry":{"x":172721.05999999959,"y":2541814.0700000022}},{"attributes":{"ID":584762,"DIS_CODE":0,"TOWNNAME":"仁德區","LI":"仁德里","LIN":"35鄰","STREET":"裕華三街","SECT":" ","MAREA":" ","LANE":" ","ALLEY":" ","HOUSE_NO":"２７７號","E_COORD97":172802.03,"N_COORD97":2541790.25,"ADDRESS":"裕華三街２７７號","OBJECTID":584735},"geometry":{"x":172802.03000000026,"y":2541790.25}},{"attributes":{"ID":584763,"DIS_CODE":0,"TOWNNAME":"仁德區","LI":"仁義里","LIN":"35鄰","STREET":"中正路","SECT":"二段","MAREA":" ","LANE":" ","ALLEY":" ","HOUSE_NO":"６６０號","E_COORD97":173392.17999999999,"N_COORD97":2539838.02,"ADDRESS":"中正路二段６６０號","OBJECTID":584736},"geometry":{"x":173392.17999999877,"y":2539838.0200000014}},{"attributes":{"ID":584764,"DIS_CODE":0,"TOWNNAME":"永康區","LI":"中華里","LIN":"16鄰","STREET":"小東路","SECT":" ","MAREA":" ","LANE":" ","ALLEY":" ","HOUSE_NO":"５０９號三樓之１","E_COORD97":171649.45999999999,"N_COORD97":2544340.7999999998,"ADDRESS":"小東路５０９號三樓之１","OBJECTID":584737},"geometry":{"x":171649.45999999996,"y":2544340.8000000007}},{"attributes":{"ID":584765,"DIS_CODE":0,"TOWNNAME":"永康區","LI":"中華里","LIN":"16鄰","STREET":"小東路","SECT":" ","MAREA":" ","LANE":" ","ALLEY":" ","HOUSE_NO":"５０９號十三樓之５","E_COORD97":171650.87,"N_COORD97":2544340.7999999998,"ADDRESS":"小東路５０９號十三樓之５","OBJECTID":584738},"geometry":{"x":171650.87000000104,"y":2544340.8000000007}},{"attributes":{"ID":584766,"DIS_CODE":0,"TOWNNAME":"永康區","LI":"中華里","LIN":"16鄰","STREET":"小東路","SECT":" ","MAREA":" ","LANE":" ","ALLEY":" ","HOUSE_NO":"５０９號七樓之８","E_COORD97":171649.60999999999,"N_COORD97":2544340.7999999998,"ADDRESS":"小東路５０９號七樓之８","OBJECTID":584739},"geometry":{"x":171649.61000000127,"y":2544340.8000000007}},{"attributes":{"ID":584767,"DIS_CODE":0,"TOWNNAME":"永康區","LI":"中華里","LIN":"16鄰","STREET":"小東路","SECT":" ","MAREA":" ","LANE":" ","ALLEY":" ","HOUSE_NO":"５０９號十二樓之８","E_COORD97":171650.85999999999,"N_COORD97":2544340.7999999998,"ADDRESS":"小東路５０９號十二樓之８","OBJECTID":584740},"geometry":{"x":171650.8600000022,"y":2544340.8000000007}},{"attributes":{"ID":584768,"DIS_CODE":0,"TOWNNAME":"永康區","LI":"中華里","LIN":"16鄰","STREET":"小東路","SECT":" ","MAREA":" ","LANE":" ","ALLEY":" ","HOUSE_NO":"５０９號七樓之２","E_COORD97":171649.60000000001,"N_COORD97":2544340.7999999998,"ADDRESS":"小東路５０９號七樓之２","OBJECTID":584741},"geometry":{"x":171649.59999999963,"y":2544340.8000000007}},{"attributes":{"ID":584769,"DIS_CODE":0,"TOWNNAME":"永康區","LI":"中華里","LIN":"16鄰","STREET":"小東路","SECT":" ","MAREA":" ","LANE":" ","ALLEY":" ","HOUSE_NO":"５０９號十一樓之６","E_COORD97":171650.82000000001,"N_COORD97":2544340.7999999998,"ADDRESS":"小東路５０９號十一樓之６","OBJECTID":584742},"geometry":{"x":171650.8200000003,"y":2544340.8000000007}},{"attributes":{"ID":584770,"DIS_CODE":0,"TOWNNAME":"永康區","LI":"中華里","LIN":"16鄰","STREET":"小東路","SECT":" ","MAREA":" ","LANE":" ","ALLEY":" ","HOUSE_NO":"５０９號十二樓之１２","E_COORD97":171652.10000000001,"N_COORD97":2544340.7999999998,"ADDRESS":"小東路５０９號十二樓之１２","OBJECTID":584743},"geometry":{"x":171652.10000000056,"y":2544340.8000000007}},{"attributes":{"ID":584771,"DIS_CODE":0,"TOWNNAME":"永康區","LI":"中華里","LIN":"16鄰","STREET":"小東路","SECT":" ","MAREA":" ","LANE":" ","ALLEY":" ","HOUSE_NO":"５０９號三樓之１２","E_COORD97":171650.85000000001,"N_COORD97":2544340.7999999998,"ADDRESS":"小東路５０９號三樓之１２","OBJECTID":584744},"geometry":{"x":171650.85000000056,"y":2544340.8000000007}},{"attributes":{"ID":584772,"DIS_CODE":0,"TOWNNAME":"仁德區","LI":"後壁里","LIN":"1鄰","STREET":"中正路","SECT":"二段","MAREA":" ","LANE":" ","ALLEY":" ","HOUSE_NO":"３７４號","E_COORD97":173275.54000000001,"N_COORD97":2539181.0299999998,"ADDRESS":"中正路二段３７４號","OBJECTID":584745},"geometry":{"x":173275.54000000097,"y":2539181.0299999993}},{"attributes":{"ID":584773,"DIS_CODE":0,"TOWNNAME":"仁德區","LI":"仁德里","LIN":"35鄰","STREET":"文山路","SECT":" ","MAREA":" ","LANE":" ","ALLEY":" ","HOUSE_NO":"１６７號","E_COORD97":172738.06,"N_COORD97":2541757.3300000001,"ADDRESS":"文山路１６７號","OBJECTID":584746},"geometry":{"x":172738.05999999959,"y":2541757.3300000038}},{"attributes":{"ID":584774,"DIS_CODE":0,"TOWNNAME":"中西區","LI":"青年里","LIN":"16鄰","STREET":"青年路","SECT":" ","MAREA":" ","LANE":" ","ALLEY":" ","HOUSE_NO":"４９號七樓之１","E_COORD97":168671.26000000001,"N_COORD97":2543658.6400000001,"ADDRESS":"青年路４９號七樓之１","OBJECTID":584747},"geometry":{"x":168671.26000000071,"y":2543658.6400000025}},{"attributes":{"ID":584775,"DIS_CODE":0,"TOWNNAME":"中西區","LI":"青年里","LIN":"16鄰","STREET":"青年路","SECT":" ","MAREA":" ","LANE":" ","ALLEY":" ","HOUSE_NO":"４９號七樓之２","E_COORD97":168671.26000000001,"N_COORD97":2543658.6400000001,"ADDRESS":"青年路４９號七樓之２","OBJECTID":584748},"geometry":{"x":168671.26000000071,"y":2543658.6400000025}},{"attributes":{"ID":584776,"DIS_CODE":0,"TOWNNAME":"中西區","LI":"青年里","LIN":"16鄰","STREET":"青年路","SECT":" ","MAREA":" ","LANE":" ","ALLEY":" ","HOUSE_NO":"４９號七樓之３","E_COORD97":168671.26000000001,"N_COORD97":2543658.6400000001,"ADDRESS":"青年路４９號七樓之３","OBJECTID":584749},"geometry":{"x":168671.26000000071,"y":2543658.6400000025}},{"attributes":{"ID":584777,"DIS_CODE":0,"TOWNNAME":"中西區","LI":"青年里","LIN":"16鄰","STREET":"青年路","SECT":" ","MAREA":" ","LANE":" ","ALLEY":" ","HOUSE_NO":"４９號七樓之４","E_COORD97":168671.26000000001,"N_COORD97":2543658.6400000001,"ADDRESS":"青年路４９號七樓之４","OBJECTID":584750},"geometry":{"x":168671.26000000071,"y":2543658.6400000025}},{"attributes":{"ID":584778,"DIS_CODE":0,"TOWNNAME":"中西區","LI":"青年里","LIN":"16鄰","STREET":"青年路","SECT":" ","MAREA":" ","LANE":" ","ALLEY":" ","HOUSE_NO":"４９號八樓之１","E_COORD97":168671.26000000001,"N_COORD97":2543658.6400000001,"ADDRESS":"青年路４９號八樓之１","OBJECTID":584751},"geometry":{"x":168671.26000000071,"y":2543658.6400000025}},{"attributes":{"ID":584779,"DIS_CODE":0,"TOWNNAME":"中西區","LI":"青年里","LIN":"16鄰","STREET":"青年路","SECT":" ","MAREA":" ","LANE":" ","ALLEY":" ","HOUSE_NO":"４９號八樓之２","E_COORD97":168671.26000000001,"N_COORD97":2543658.6400000001,"ADDRESS":"青年路４９號八樓之２","OBJECTID":584752},"geometry":{"x":168671.26000000071,"y":2543658.6400000025}},{"attributes":{"ID":584780,"DIS_CODE":0,"TOWNNAME":"中西區","LI":"青年里","LIN":"16鄰","STREET":"青年路","SECT":" ","MAREA":" ","LANE":" ","ALLEY":" ","HOUSE_NO":"４９號八樓之３","E_COORD97":168671.26000000001,"N_COORD97":2543658.6400000001,"ADDRESS":"青年路４９號八樓之３","OBJECTID":584753},"geometry":{"x":168671.26000000071,"y":2543658.6400000025}},{"attributes":{"ID":584781,"DIS_CODE":0,"TOWNNAME":"中西區","LI":"青年里","LIN":"16鄰","STREET":"青年路","SECT":" ","MAREA":" ","LANE":" ","ALLEY":" ","HOUSE_NO":"４９號八樓之４","E_COORD97":168671.26000000001,"N_COORD97":2543658.6400000001,"ADDRESS":"青年路４９號八樓之４","OBJECTID":584754},"geometry":{"x":168671.26000000071,"y":2543658.6400000025}},{"attributes":{"ID":584782,"DIS_CODE":0,"TOWNNAME":"中西區","LI":"青年里","LIN":"16鄰","STREET":"青年路","SECT":" ","MAREA":" ","LANE":" ","ALLEY":" ","HOUSE_NO":"４９號三樓之１","E_COORD97":168671.26000000001,"N_COORD97":2543658.6400000001,"ADDRESS":"青年路４９號三樓之１","OBJECTID":584755},"geometry":{"x":168671.26000000071,"y":2543658.6400000025}},{"attributes":{"ID":584783,"DIS_CODE":0,"TOWNNAME":"中西區","LI":"青年里","LIN":"16鄰","STREET":"青年路","SECT":" ","MAREA":" ","LANE":" ","ALLEY":" ","HOUSE_NO":"４９號三樓之２","E_COORD97":168671.26000000001,"N_COORD97":2543658.6400000001,"ADDRESS":"青年路４９號三樓之２","OBJECTID":584756},"geometry":{"x":168671.26000000071,"y":2543658.6400000025}},{"attributes":{"ID":584784,"DIS_CODE":0,"TOWNNAME":"中西區","LI":"青年里","LIN":"16鄰","STREET":"青年路","SECT":" ","MAREA":" ","LANE":" ","ALLEY":" ","HOUSE_NO":"４９號三樓之３","E_COORD97":168671.26000000001,"N_COORD97":2543658.6400000001,"ADDRESS":"青年路４９號三樓之３","OBJECTID":584757},"geometry":{"x":168671.26000000071,"y":2543658.6400000025}},{"attributes":{"ID":584785,"DIS_CODE":0,"TOWNNAME":"中西區","LI":"青年里","LIN":"16鄰","STREET":"青年路","SECT":" ","MAREA":" ","LANE":" ","ALLEY":" ","HOUSE_NO":"４９號三樓之４","E_COORD97":168671.26000000001,"N_COORD97":2543658.6400000001,"ADDRESS":"青年路４９號三樓之４","OBJECTID":584758},"geometry":{"x":168671.26000000071,"y":2543658.6400000025}},{"attributes":{"ID":584786,"DIS_CODE":0,"TOWNNAME":"中西區","LI":"青年里","LIN":"16鄰","STREET":"青年路","SECT":" ","MAREA":" ","LANE":" ","ALLEY":" ","HOUSE_NO":"４９號五樓之１","E_COORD97":168671.26000000001,"N_COORD97":2543658.6400000001,"ADDRESS":"青年路４９號五樓之１","OBJECTID":584759},"geometry":{"x":168671.26000000071,"y":2543658.6400000025}},{"attributes":{"ID":584787,"DIS_CODE":0,"TOWNNAME":"中西區","LI":"青年里","LIN":"16鄰","STREET":"青年路","SECT":" ","MAREA":" ","LANE":" ","ALLEY":" ","HOUSE_NO":"４９號五樓之２","E_COORD97":168671.26000000001,"N_COORD97":2543658.6400000001,"ADDRESS":"青年路４９號五樓之２","OBJECTID":584760},"geometry":{"x":168671.26000000071,"y":2543658.6400000025}},{"attributes":{"ID":584788,"DIS_CODE":0,"TOWNNAME":"中西區","LI":"青年里","LIN":"16鄰","STREET":"青年路","SECT":" ","MAREA":" ","LANE":" ","ALLEY":" ","HOUSE_NO":"４９號五樓之３","E_COORD97":168671.26000000001,"N_COORD97":2543658.6400000001,"ADDRESS":"青年路４９號五樓之３","OBJECTID":584761},"geometry":{"x":168671.26000000071,"y":2543658.6400000025}},{"attributes":{"ID":584789,"DIS_CODE":0,"TOWNNAME":"中西區","LI":"青年里","LIN":"16鄰","STREET":"青年路","SECT":" ","MAREA":" ","LANE":" ","ALLEY":" ","HOUSE_NO":"４９號五樓之４","E_COORD97":168671.26000000001,"N_COORD97":2543658.6400000001,"ADDRESS":"青年路４９號五樓之４","OBJECTID":584762},"geometry":{"x":168671.26000000071,"y":2543658.6400000025}},{"attributes":{"ID":584790,"DIS_CODE":0,"TOWNNAME":"中西區","LI":"青年里","LIN":"16鄰","STREET":"青年路","SECT":" ","MAREA":" ","LANE":" ","ALLEY":" ","HOUSE_NO":"４９號六樓之１","E_COORD97":168671.26000000001,"N_COORD97":2543658.6400000001,"ADDRESS":"青年路４９號六樓之１","OBJECTID":584763},"geometry":{"x":168671.26000000071,"y":2543658.6400000025}},{"attributes":{"ID":584791,"DIS_CODE":0,"TOWNNAME":"中西區","LI":"青年里","LIN":"16鄰","STREET":"青年路","SECT":" ","MAREA":" ","LANE":" ","ALLEY":" ","HOUSE_NO":"４９號六樓之２","E_COORD97":168671.26000000001,"N_COORD97":2543658.6400000001,"ADDRESS":"青年路４９號六樓之２","OBJECTID":584764},"geometry":{"x":168671.26000000071,"y":2543658.6400000025}},{"attributes":{"ID":584792,"DIS_CODE":0,"TOWNNAME":"中西區","LI":"青年里","LIN":"16鄰","STREET":"青年路","SECT":" ","MAREA":" ","LANE":" ","ALLEY":" ","HOUSE_NO":"４９號六樓之３","E_COORD97":168671.26000000001,"N_COORD97":2543658.6400000001,"ADDRESS":"青年路４９號六樓之３","OBJECTID":584765},"geometry":{"x":168671.26000000071,"y":2543658.6400000025}},{"attributes":{"ID":584793,"DIS_CODE":0,"TOWNNAME":"中西區","LI":"青年里","LIN":"16鄰","STREET":"青年路","SECT":" ","MAREA":" ","LANE":" ","ALLEY":" ","HOUSE_NO":"４９號六樓之４","E_COORD97":168671.26000000001,"N_COORD97":2543658.6400000001,"ADDRESS":"青年路４９號六樓之４","OBJECTID":584766},"geometry":{"x":168671.26000000071,"y":2543658.6400000025}},{"attributes":{"ID":584794,"DIS_CODE":0,"TOWNNAME":"中西區","LI":"青年里","LIN":"16鄰","STREET":"青年路","SECT":" ","MAREA":" ","LANE":" ","ALLEY":" ","HOUSE_NO":"４９號六樓之５","E_COORD97":168671.26000000001,"N_COORD97":2543658.6400000001,"ADDRESS":"青年路４９號六樓之５","OBJECTID":584767},"geometry":{"x":168671.26000000071,"y":2543658.6400000025}},{"attributes":{"ID":584795,"DIS_CODE":0,"TOWNNAME":"中西區","LI":"青年里","LIN":"16鄰","STREET":"青年路","SECT":" ","MAREA":" ","LANE":" ","ALLEY":" ","HOUSE_NO":"４９號六樓之６","E_COORD97":168671.26000000001,"N_COORD97":2543658.6400000001,"ADDRESS":"青年路４９號六樓之６","OBJECTID":584768},"geometry":{"x":168671.26000000071,"y":2543658.6400000025}},{"attributes":{"ID":584796,"DIS_CODE":0,"TOWNNAME":"中西區","LI":"青年里","LIN":"16鄰","STREET":"青年路","SECT":" ","MAREA":" ","LANE":" ","ALLEY":" ","HOUSE_NO":"４９號四樓之１","E_COORD97":168671.26000000001,"N_COORD97":2543658.6400000001,"ADDRESS":"青年路４９號四樓之１","OBJECTID":584769},"geometry":{"x":168671.26000000071,"y":2543658.6400000025}},{"attributes":{"ID":584797,"DIS_CODE":0,"TOWNNAME":"中西區","LI":"青年里","LIN":"16鄰","STREET":"青年路","SECT":" ","MAREA":" ","LANE":" ","ALLEY":" ","HOUSE_NO":"４９號四樓之２","E_COORD97":168671.26000000001,"N_COORD97":2543658.6400000001,"ADDRESS":"青年路４９號四樓之２","OBJECTID":584770},"geometry":{"x":168671.26000000071,"y":2543658.6400000025}},{"attributes":{"ID":584798,"DIS_CODE":0,"TOWNNAME":"仁德區","LI":"太子里","LIN":"17鄰","STREET":"太興路","SECT":" ","MAREA":" ","LANE":" ","ALLEY":" ","HOUSE_NO":"２２號","E_COORD97":174091.92000000001,"N_COORD97":2543542.7599999998,"ADDRESS":"太興路２２號","OBJECTID":584771},"geometry":{"x":174091.91999999993,"y":2543542.7599999998}},{"attributes":{"ID":584799,"DIS_CODE":0,"TOWNNAME":"仁德區","LI":"仁義里","LIN":"35鄰","STREET":"中正路","SECT":"二段","MAREA":" ","LANE":" ","ALLEY":" ","HOUSE_NO":"６６８之１號","E_COORD97":173396.35000000001,"N_COORD97":2539862.04,"ADDRESS":"中正路二段６６８之１號","OBJECTID":584772},"geometry":{"x":173396.35000000056,"y":2539862.0399999991}},{"attributes":{"ID":584800,"DIS_CODE":0,"TOWNNAME":"中西區","LI":"青年里","LIN":"16鄰","STREET":"青年路","SECT":" ","MAREA":" ","LANE":" ","ALLEY":" ","HOUSE_NO":"４９號四樓之３","E_COORD97":168671.26000000001,"N_COORD97":2543658.6400000001,"ADDRESS":"青年路４９號四樓之３","OBJECTID":584773},"geometry":{"x":168671.26000000071,"y":2543658.6400000025}},{"attributes":{"ID":584801,"DIS_CODE":0,"TOWNNAME":"中西區","LI":"青年里","LIN":"16鄰","STREET":"青年路","SECT":" ","MAREA":" ","LANE":" ","ALLEY":" ","HOUSE_NO":"４９號四樓之４","E_COORD97":168671.26000000001,"N_COORD97":2543658.6400000001,"ADDRESS":"青年路４９號四樓之４","OBJECTID":584774},"geometry":{"x":168671.26000000071,"y":2543658.6400000025}},{"attributes":{"ID":584802,"DIS_CODE":0,"TOWNNAME":"仁德區","LI":"新田里","LIN":"16鄰","STREET":"民安路","SECT":"二段","MAREA":" ","LANE":" ","ALLEY":" ","HOUSE_NO":"４５號四樓之２","E_COORD97":173414.53,"N_COORD97":2539275.5699999998,"ADDRESS":"民安路二段４５號四樓之２","OBJECTID":584775},"geometry":{"x":173414.53000000119,"y":2539275.5700000022}},{"attributes":{"ID":584803,"DIS_CODE":0,"TOWNNAME":"仁德區","LI":"新田里","LIN":"16鄰","STREET":"民安路","SECT":"二段","MAREA":" ","LANE":" ","ALLEY":" ","HOUSE_NO":"４７號六樓之３","E_COORD97":173405.45000000001,"N_COORD97":2539276.8199999998,"ADDRESS":"民安路二段４７號六樓之３","OBJECTID":584776},"geometry":{"x":173405.45000000019,"y":2539276.8200000022}},{"attributes":{"ID":584804,"DIS_CODE":0,"TOWNNAME":"仁德區","LI":"新田里","LIN":"16鄰","STREET":"民安路","SECT":"二段","MAREA":" ","LANE":" ","ALLEY":" ","HOUSE_NO":"４３號二樓之１","E_COORD97":173405.95999999999,"N_COORD97":2539262.8199999998,"ADDRESS":"民安路二段４３號二樓之１","OBJECTID":584777},"geometry":{"x":173405.96000000183,"y":2539262.8200000022}},{"attributes":{"ID":584805,"DIS_CODE":0,"TOWNNAME":"仁德區","LI":"新田里","LIN":"16鄰","STREET":"民安路","SECT":"二段","MAREA":" ","LANE":" ","ALLEY":" ","HOUSE_NO":"４７號五樓之１","E_COORD97":173405.35000000001,"N_COORD97":2539276.8199999998,"ADDRESS":"民安路二段４７號五樓之１","OBJECTID":584778},"geometry":{"x":173405.35000000056,"y":2539276.8200000022}},{"attributes":{"ID":584806,"DIS_CODE":0,"TOWNNAME":"仁德區","LI":"新田里","LIN":"16鄰","STREET":"民安路","SECT":"二段","MAREA":" ","LANE":" ","ALLEY":" ","HOUSE_NO":"４７號五樓之３","E_COORD97":173405.45000000001,"N_COORD97":2539276.8199999998,"ADDRESS":"民安路二段４７號五樓之３","OBJECTID":584779},"geometry":{"x":173405.45000000019,"y":2539276.8200000022}},{"attributes":{"ID":584807,"DIS_CODE":0,"TOWNNAME":"仁德區","LI":"新田里","LIN":"16鄰","STREET":"民安路","SECT":"二段","MAREA":" ","LANE":" ","ALLEY":" ","HOUSE_NO":"４７號三樓之２","E_COORD97":173405.48999999999,"N_COORD97":2539276.8199999998,"ADDRESS":"民安路二段４７號三樓之２","OBJECTID":584780},"geometry":{"x":173405.49000000022,"y":2539276.8200000022}},{"attributes":{"ID":584808,"DIS_CODE":0,"TOWNNAME":"仁德區","LI":"新田里","LIN":"16鄰","STREET":"民安路","SECT":"二段","MAREA":" ","LANE":" ","ALLEY":" ","HOUSE_NO":"４５號一樓之２","E_COORD97":173414.53,"N_COORD97":2539275.5699999998,"ADDRESS":"民安路二段４５號一樓之２","OBJECTID":584781},"geometry":{"x":173414.53000000119,"y":2539275.5700000022}},{"attributes":{"ID":584809,"DIS_CODE":0,"TOWNNAME":"仁德區","LI":"新田里","LIN":"16鄰","STREET":"民安路","SECT":"二段","MAREA":" ","LANE":" ","ALLEY":" ","HOUSE_NO":"４７號六樓之１","E_COORD97":173405.35000000001,"N_COORD97":2539276.8199999998,"ADDRESS":"民安路二段４７號六樓之１","OBJECTID":584782},"geometry":{"x":173405.35000000056,"y":2539276.8200000022}},{"attributes":{"ID":584810,"DIS_CODE":0,"TOWNNAME":"仁德區","LI":"新田里","LIN":"16鄰","STREET":"民安路","SECT":"二段","MAREA":" ","LANE":" ","ALLEY":" ","HOUSE_NO":"４３號二樓之３","E_COORD97":173406.06,"N_COORD97":2539262.8199999998,"ADDRESS":"民安路二段４３號二樓之３","OBJECTID":584783},"geometry":{"x":173406.05999999959,"y":2539262.8200000022}},{"attributes":{"ID":584811,"DIS_CODE":0,"TOWNNAME":"仁德區","LI":"新田里","LIN":"16鄰","STREET":"民安路","SECT":"二段","MAREA":" ","LANE":" ","ALLEY":" ","HOUSE_NO":"４３號一樓之１","E_COORD97":173405.95999999999,"N_COORD97":2539262.8199999998,"ADDRESS":"民安路二段４３號一樓之１","OBJECTID":584784},"geometry":{"x":173405.96000000183,"y":2539262.8200000022}},{"attributes":{"ID":584812,"DIS_CODE":0,"TOWNNAME":"仁德區","LI":"新田里","LIN":"16鄰","STREET":"民安路","SECT":"二段","MAREA":" ","LANE":" ","ALLEY":" ","HOUSE_NO":"４５號一樓之１","E_COORD97":173414.39000000001,"N_COORD97":2539275.5699999998,"ADDRESS":"民安路二段４５號一樓之１","OBJECTID":584785},"geometry":{"x":173414.38999999966,"y":2539275.5700000022}},{"attributes":{"ID":584813,"DIS_CODE":0,"TOWNNAME":"仁德區","LI":"新田里","LIN":"16鄰","STREET":"民安路","SECT":"二段","MAREA":" ","LANE":" ","ALLEY":" ","HOUSE_NO":"４３號三樓之１","E_COORD97":173405.95999999999,"N_COORD97":2539262.8199999998,"ADDRESS":"民安路二段４３號三樓之１","OBJECTID":584786},"geometry":{"x":173405.96000000183,"y":2539262.8200000022}},{"attributes":{"ID":584814,"DIS_CODE":0,"TOWNNAME":"仁德區","LI":"新田里","LIN":"16鄰","STREET":"民安路","SECT":"二段","MAREA":" ","LANE":" ","ALLEY":" ","HOUSE_NO":"４３號六樓","E_COORD97":173403.82999999999,"N_COORD97":2539262.8199999998,"ADDRESS":"民安路二段４３號六樓","OBJECTID":584787},"geometry":{"x":173403.83000000101,"y":2539262.8200000022}},{"attributes":{"ID":584815,"DIS_CODE":0,"TOWNNAME":"仁德區","LI":"新田里","LIN":"16鄰","STREET":"民安路","SECT":"二段","MAREA":" ","LANE":" ","ALLEY":" ","HOUSE_NO":"４５號三樓之１","E_COORD97":173414.39000000001,"N_COORD97":2539275.5699999998,"ADDRESS":"民安路二段４５號三樓之１","OBJECTID":584788},"geometry":{"x":173414.38999999966,"y":2539275.5700000022}},{"attributes":{"ID":584816,"DIS_CODE":0,"TOWNNAME":"仁德區","LI":"新田里","LIN":"16鄰","STREET":"民安路","SECT":"二段","MAREA":" ","LANE":" ","ALLEY":" ","HOUSE_NO":"４３號四樓之３","E_COORD97":173406.06,"N_COORD97":2539262.8199999998,"ADDRESS":"民安路二段４３號四樓之３","OBJECTID":584789},"geometry":{"x":173406.05999999959,"y":2539262.8200000022}},{"attributes":{"ID":584817,"DIS_CODE":0,"TOWNNAME":"仁德區","LI":"新田里","LIN":"16鄰","STREET":"民安路","SECT":"二段","MAREA":" ","LANE":" ","ALLEY":" ","HOUSE_NO":"４５號二樓之２","E_COORD97":173414.53,"N_COORD97":2539275.5699999998,"ADDRESS":"民安路二段４５號二樓之２","OBJECTID":584790},"geometry":{"x":173414.53000000119,"y":2539275.5700000022}},{"attributes":{"ID":584818,"DIS_CODE":0,"TOWNNAME":"仁德區","LI":"新田里","LIN":"16鄰","STREET":"民安路","SECT":"二段","MAREA":" ","LANE":" ","ALLEY":" ","HOUSE_NO":"４５號五樓之１","E_COORD97":173414.39000000001,"N_COORD97":2539275.5699999998,"ADDRESS":"民安路二段４５號五樓之１","OBJECTID":584791},"geometry":{"x":173414.38999999966,"y":2539275.5700000022}},{"attributes":{"ID":584819,"DIS_CODE":0,"TOWNNAME":"中西區","LI":"安海里","LIN":"16鄰","STREET":"民生路","SECT":"二段","MAREA":" ","LANE":" ","ALLEY":" ","HOUSE_NO":"２７９號二樓之１","E_COORD97":167146.73999999999,"N_COORD97":2544130.2400000002,"ADDRESS":"民生路二段２７９號二樓之１","OBJECTID":584792},"geometry":{"x":167146.74000000022,"y":2544130.2400000002}},{"attributes":{"ID":584820,"DIS_CODE":0,"TOWNNAME":"中西區","LI":"赤嵌里","LIN":"16鄰","STREET":"中成路","SECT":" ","MAREA":" ","LANE":" ","ALLEY":" ","HOUSE_NO":"２９號一樓","E_COORD97":168482.73000000001,"N_COORD97":2544214.46,"ADDRESS":"中成路２９號一樓","OBJECTID":584793},"geometry":{"x":168482.73000000045,"y":2544214.4600000009}},{"attributes":{"ID":584821,"DIS_CODE":0,"TOWNNAME":"中西區","LI":"赤嵌里","LIN":"16鄰","STREET":"中成路","SECT":" ","MAREA":" ","LANE":" ","ALLEY":" ","HOUSE_NO":"２９號二樓","E_COORD97":168482.73000000001,"N_COORD97":2544214.46,"ADDRESS":"中成路２９號二樓","OBJECTID":584794},"geometry":{"x":168482.73000000045,"y":2544214.4600000009}},{"attributes":{"ID":584822,"DIS_CODE":0,"TOWNNAME":"中西區","LI":"赤嵌里","LIN":"16鄰","STREET":"中成路","SECT":" ","MAREA":" ","LANE":" ","ALLEY":" ","HOUSE_NO":"２９號三樓","E_COORD97":168482.73000000001,"N_COORD97":2544214.46,"ADDRESS":"中成路２９號三樓","OBJECTID":584795},"geometry":{"x":168482.73000000045,"y":2544214.4600000009}},{"attributes":{"ID":584823,"DIS_CODE":0,"TOWNNAME":"中西區","LI":"赤嵌里","LIN":"16鄰","STREET":"忠義路","SECT":"二段","MAREA":" ","LANE":" ","ALLEY":" ","HOUSE_NO":"２１４號二樓","E_COORD97":168457.25,"N_COORD97":2544206.5099999998,"ADDRESS":"忠義路二段２１４號二樓","OBJECTID":584796},"geometry":{"x":168457.25,"y":2544206.5099999998}},{"attributes":{"ID":584824,"DIS_CODE":0,"TOWNNAME":"中西區","LI":"赤嵌里","LIN":"16鄰","STREET":"忠義路","SECT":"二段","MAREA":" ","LANE":" ","ALLEY":" ","HOUSE_NO":"２１４號三樓","E_COORD97":168457.25,"N_COORD97":2544206.5099999998,"ADDRESS":"忠義路二段２１４號三樓","OBJECTID":584797},"geometry":{"x":168457.25,"y":2544206.5099999998}},{"attributes":{"ID":584825,"DIS_CODE":0,"TOWNNAME":"中西區","LI":"赤嵌里","LIN":"16鄰","STREET":"忠義路","SECT":"二段","MAREA":" ","LANE":" ","ALLEY":" ","HOUSE_NO":"２１４號四樓","E_COORD97":168457.25,"N_COORD97":2544206.5099999998,"ADDRESS":"忠義路二段２１４號四樓","OBJECTID":584798},"geometry":{"x":168457.25,"y":2544206.5099999998}},{"attributes":{"ID":584826,"DIS_CODE":0,"TOWNNAME":"仁德區","LI":"仁德里","LIN":"5鄰","STREET":"中正路","SECT":"二段","MAREA":" ","LANE":" ","ALLEY":" ","HOUSE_NO":"１０３５號","E_COORD97":173404.53,"N_COORD97":2540747.4700000002,"ADDRESS":"中正路二段１０３５號","OBJECTID":584799},"geometry":{"x":173404.53000000119,"y":2540747.4700000025}},{"attributes":{"ID":584827,"DIS_CODE":0,"TOWNNAME":"仁德區","LI":"後壁里","LIN":"1鄰","STREET":"中正路","SECT":"二段","MAREA":" ","LANE":" ","ALLEY":" ","HOUSE_NO":"４１０號","E_COORD97":173285.29999999999,"N_COORD97":2539261.0299999998,"ADDRESS":"中正路二段４１０號","OBJECTID":584800},"geometry":{"x":173285.30000000075,"y":2539261.0300000012}}]}