{"displayFieldName":"TOWNNAME","fieldAliases":{"ID":"ID","DIS_CODE":"DIS_CODE","TOWNNAME":"TOWNNAME","LI":"LI","LIN":"LIN","STREET":"STREET","SECT":"SECT","MAREA":"MAREA","LANE":"LANE","ALLEY":"ALLEY","HOUSE_NO":"HOUSE_NO","E_COORD97":"E_COORD97","N_COORD97":"N_COORD97","ADDRESS":"ADDRESS","OBJECTID":"OBJECTID"},"geometryType":"esriGeometryPoint","spatialReference":{"wkid":102443,"latestWkid":3826},"fields":[{"name":"ID","type":"esriFieldTypeDouble","alias":"ID"},{"name":"DIS_CODE","type":"esriFieldTypeInteger","alias":"DIS_CODE"},{"name":"TOWNNAME","type":"esriFieldTypeString","alias":"TOWNNAME","length":8},{"name":"LI","type":"esriFieldTypeString","alias":"LI","length":8},{"name":"LIN","type":"esriFieldTypeString","alias":"LIN","length":12},{"name":"STREET","type":"esriFieldTypeString","alias":"STREET","length":20},{"name":"SECT","type":"esriFieldTypeString","alias":"SECT","length":8},{"name":"MAREA","type":"esriFieldTypeString","alias":"MAREA","length":12},{"name":"LANE","type":"esriFieldTypeString","alias":"LANE","length":10},{"name":"ALLEY","type":"esriFieldTypeString","alias":"ALLEY","length":10},{"name":"HOUSE_NO","type":"esriFieldTypeString","alias":"HOUSE_NO","length":20},{"name":"E_COORD97","type":"esriFieldTypeDouble","alias":"E_COORD97"},{"name":"N_COORD97","type":"esriFieldTypeDouble","alias":"N_COORD97"},{"name":"ADDRESS","type":"esriFieldTypeString","alias":"ADDRESS","length":50},{"name":"OBJECTID","type":"esriFieldTypeOID","alias":"OBJECTID"}],"features":[{"attributes":{"ID":623628,"DIS_CODE":0,"TOWNNAME":"中西區","LI":"赤嵌里","LIN":" ","STREET":"忠義路","SECT":"二段","MAREA":" ","LANE":" ","ALLEY":" ","HOUSE_NO":"２３５號","E_COORD97":168459.89000000001,"N_COORD97":2544298.3199999998,"ADDRESS":"忠義路二段２３５號","OBJECTID":623601},"geometry":{"x":168459.8900000006,"y":2544298.3200000022}},{"attributes":{"ID":623629,"DIS_CODE":0,"TOWNNAME":"中西區","LI":"赤嵌里","LIN":" ","STREET":"民族路","SECT":"二段","MAREA":" ","LANE":" ","ALLEY":" ","HOUSE_NO":"７６號之１０","E_COORD97":168848.04999999999,"N_COORD97":2543948.4900000002,"ADDRESS":"民族路二段７６號之１０","OBJECTID":623602},"geometry":{"x":168848.04999999981,"y":2543948.4900000002}},{"attributes":{"ID":623630,"DIS_CODE":0,"TOWNNAME":"中西區","LI":"赤嵌里","LIN":" ","STREET":"民族路","SECT":"二段","MAREA":" ","LANE":" ","ALLEY":" ","HOUSE_NO":"７６號之１７","E_COORD97":168801.73000000001,"N_COORD97":2543963.3999999999,"ADDRESS":"民族路二段７６號之１７","OBJECTID":623603},"geometry":{"x":168801.73000000045,"y":2543963.4000000004}},{"attributes":{"ID":623631,"DIS_CODE":0,"TOWNNAME":"中西區","LI":"法華里","LIN":" ","STREET":"五妃街","SECT":" ","MAREA":" ","LANE":" ","ALLEY":" ","HOUSE_NO":"２１號","E_COORD97":169033.51999999999,"N_COORD97":2542555.8199999998,"ADDRESS":"五妃街２１號","OBJECTID":623604},"geometry":{"x":169033.52000000048,"y":2542555.8200000022}},{"attributes":{"ID":623632,"DIS_CODE":0,"TOWNNAME":"中西區","LI":"三民里","LIN":" ","STREET":"中山路","SECT":" ","MAREA":" ","LANE":" ","ALLEY":" ","HOUSE_NO":"３９號","E_COORD97":168618.13,"N_COORD97":2543778.5499999998,"ADDRESS":"中山路３９號","OBJECTID":623605},"geometry":{"x":168618.13000000082,"y":2543778.5500000026}},{"attributes":{"ID":623633,"DIS_CODE":0,"TOWNNAME":"中西區","LI":"三民里","LIN":" ","STREET":"公園路","SECT":" ","MAREA":" ","LANE":" ","ALLEY":" ","HOUSE_NO":"１２之１號","E_COORD97":168548.32999999999,"N_COORD97":2543845.98,"ADDRESS":"公園路１２之１號","OBJECTID":623606},"geometry":{"x":168548.33000000007,"y":2543845.9800000023}},{"attributes":{"ID":623634,"DIS_CODE":0,"TOWNNAME":"中西區","LI":"三民里","LIN":" ","STREET":"公園路","SECT":" ","MAREA":" ","LANE":" ","ALLEY":" ","HOUSE_NO":"６９號","E_COORD97":168548.39999999999,"N_COORD97":2543972.29,"ADDRESS":"公園路６９號","OBJECTID":623607},"geometry":{"x":168548.40000000224,"y":2543972.2899999991}},{"attributes":{"ID":623635,"DIS_CODE":0,"TOWNNAME":"中西區","LI":"三民里","LIN":" ","STREET":"公園路","SECT":" ","MAREA":" ","LANE":" ","ALLEY":" ","HOUSE_NO":"７１號","E_COORD97":168548.64000000001,"N_COORD97":2543975.8399999999,"ADDRESS":"公園路７１號","OBJECTID":623608},"geometry":{"x":168548.63999999966,"y":2543975.8400000017}},{"attributes":{"ID":623636,"DIS_CODE":0,"TOWNNAME":"中西區","LI":"三民里","LIN":" ","STREET":"民族路","SECT":"二段","MAREA":" ","LANE":" ","ALLEY":" ","HOUSE_NO":"１４５號","E_COORD97":168741.01000000001,"N_COORD97":2543948.0800000001,"ADDRESS":"民族路二段１４５號","OBJECTID":623609},"geometry":{"x":168741.01000000071,"y":2543948.0800000001}},{"attributes":{"ID":623637,"DIS_CODE":0,"TOWNNAME":"中西區","LI":"小西里","LIN":" ","STREET":"府前路","SECT":"一段","MAREA":" ","LANE":" ","ALLEY":" ","HOUSE_NO":"３１５號","E_COORD97":167990,"N_COORD97":2543380.6600000001,"ADDRESS":"府前路一段３１５號","OBJECTID":623610},"geometry":{"x":167990.00000000093,"y":2543380.660000002}},{"attributes":{"ID":623638,"DIS_CODE":0,"TOWNNAME":"中西區","LI":"公正里","LIN":" ","STREET":"衛民街","SECT":" ","MAREA":" ","LANE":" ","ALLEY":" ","HOUSE_NO":"１０６號之４","E_COORD97":168924.35999999999,"N_COORD97":2543760.6099999999,"ADDRESS":"衛民街１０６號之４","OBJECTID":623611},"geometry":{"x":168924.36000000034,"y":2543760.6099999994}},{"attributes":{"ID":623639,"DIS_CODE":0,"TOWNNAME":"中西區","LI":"公正里","LIN":" ","STREET":"衛民街","SECT":" ","MAREA":" ","LANE":" ","ALLEY":" ","HOUSE_NO":"１０６號之５","E_COORD97":168924.35999999999,"N_COORD97":2543764.6499999999,"ADDRESS":"衛民街１０６號之５","OBJECTID":623612},"geometry":{"x":168924.36000000034,"y":2543764.6500000004}},{"attributes":{"ID":623640,"DIS_CODE":0,"TOWNNAME":"中西區","LI":"公正里","LIN":" ","STREET":"衛民街","SECT":" ","MAREA":" ","LANE":" ","ALLEY":" ","HOUSE_NO":"１０６號之６","E_COORD97":168926.37,"N_COORD97":2543768.8399999999,"ADDRESS":"衛民街１０６號之６","OBJECTID":623613},"geometry":{"x":168926.37000000197,"y":2543768.8400000017}},{"attributes":{"ID":623641,"DIS_CODE":0,"TOWNNAME":"中西區","LI":"公正里","LIN":" ","STREET":"衛民街","SECT":" ","MAREA":" ","LANE":" ","ALLEY":" ","HOUSE_NO":"１０６號之７","E_COORD97":168927.04000000001,"N_COORD97":2543772.6499999999,"ADDRESS":"衛民街１０６號之７","OBJECTID":623614},"geometry":{"x":168927.04000000097,"y":2543772.6500000041}},{"attributes":{"ID":623642,"DIS_CODE":0,"TOWNNAME":"中西區","LI":"公正里","LIN":" ","STREET":"衛民街","SECT":" ","MAREA":" ","LANE":" ","ALLEY":" ","HOUSE_NO":"１０６號之８","E_COORD97":168927.51999999999,"N_COORD97":2543777.1299999999,"ADDRESS":"衛民街１０６號之８","OBJECTID":623615},"geometry":{"x":168927.51999999955,"y":2543777.129999999}},{"attributes":{"ID":623643,"DIS_CODE":0,"TOWNNAME":"中西區","LI":"公正里","LIN":" ","STREET":"衛民街","SECT":" ","MAREA":" ","LANE":" ","ALLEY":" ","HOUSE_NO":"１０６號之９","E_COORD97":168928.09,"N_COORD97":2543781.04,"ADDRESS":"衛民街１０６號之９","OBJECTID":623616},"geometry":{"x":168928.09000000078,"y":2543781.0399999991}},{"attributes":{"ID":623644,"DIS_CODE":0,"TOWNNAME":"中西區","LI":"公正里","LIN":" ","STREET":"衛民街","SECT":" ","MAREA":" ","LANE":" ","ALLEY":" ","HOUSE_NO":"１０６號之１０","E_COORD97":168928.76000000001,"N_COORD97":2543785.52,"ADDRESS":"衛民街１０６號之１０","OBJECTID":623617},"geometry":{"x":168928.76000000071,"y":2543785.5199999996}},{"attributes":{"ID":623645,"DIS_CODE":0,"TOWNNAME":"中西區","LI":"三民里","LIN":"14鄰","STREET":"公園路","SECT":" ","MAREA":" ","LANE":" ","ALLEY":" ","HOUSE_NO":"６０號","E_COORD97":168582.92999999999,"N_COORD97":2543989.6299999999,"ADDRESS":"公園路６０號","OBJECTID":623618},"geometry":{"x":168582.92999999877,"y":2543989.6300000008}},{"attributes":{"ID":623646,"DIS_CODE":0,"TOWNNAME":"中西區","LI":"公正里","LIN":" ","STREET":"衛民街","SECT":" ","MAREA":" ","LANE":" ","ALLEY":" ","HOUSE_NO":"１０６號之１１","E_COORD97":168929.81,"N_COORD97":2543789.6200000001,"ADDRESS":"衛民街１０６號之１１","OBJECTID":623619},"geometry":{"x":168929.81000000052,"y":2543789.620000001}},{"attributes":{"ID":623647,"DIS_CODE":0,"TOWNNAME":"中西區","LI":"公正里","LIN":" ","STREET":"衛民街","SECT":" ","MAREA":" ","LANE":" ","ALLEY":" ","HOUSE_NO":"１０６號之１２","E_COORD97":168930.73000000001,"N_COORD97":2543794.1200000001,"ADDRESS":"衛民街１０６號之１２","OBJECTID":623620},"geometry":{"x":168930.73000000045,"y":2543794.1200000048}},{"attributes":{"ID":623648,"DIS_CODE":0,"TOWNNAME":"中西區","LI":"公正里","LIN":" ","STREET":"衛民街","SECT":" ","MAREA":" ","LANE":" ","ALLEY":" ","HOUSE_NO":"１０６號之１３","E_COORD97":168932.26999999999,"N_COORD97":2543797.8799999999,"ADDRESS":"衛民街１０６號之１３","OBJECTID":623621},"geometry":{"x":168932.27000000048,"y":2543797.8800000008}},{"attributes":{"ID":623649,"DIS_CODE":0,"TOWNNAME":"中西區","LI":"公正里","LIN":" ","STREET":"衛民街","SECT":" ","MAREA":" ","LANE":" ","ALLEY":" ","HOUSE_NO":"１０６號之１４","E_COORD97":168932.44,"N_COORD97":2543803.0099999998,"ADDRESS":"衛民街１０６號之１４","OBJECTID":623622},"geometry":{"x":168932.44000000041,"y":2543803.0099999998}},{"attributes":{"ID":623650,"DIS_CODE":0,"TOWNNAME":"中西區","LI":"公正里","LIN":" ","STREET":"衛民街","SECT":" ","MAREA":" ","LANE":" ","ALLEY":" ","HOUSE_NO":"１０６號之１５","E_COORD97":168932.95000000001,"N_COORD97":2543806.6000000001,"ADDRESS":"衛民街１０６號之１５","OBJECTID":623623},"geometry":{"x":168932.95000000112,"y":2543806.6000000015}},{"attributes":{"ID":623651,"DIS_CODE":0,"TOWNNAME":"中西區","LI":"公正里","LIN":" ","STREET":"衛民街","SECT":" ","MAREA":" ","LANE":" ","ALLEY":" ","HOUSE_NO":"１０６號之１６","E_COORD97":168933.98000000001,"N_COORD97":2543811.21,"ADDRESS":"衛民街１０６號之１６","OBJECTID":623624},"geometry":{"x":168933.98000000045,"y":2543811.2100000028}},{"attributes":{"ID":623652,"DIS_CODE":0,"TOWNNAME":"中西區","LI":"公正里","LIN":" ","STREET":"萬昌街","SECT":" ","MAREA":" ","LANE":" ","ALLEY":" ","HOUSE_NO":"１５５號","E_COORD97":169084.57999999999,"N_COORD97":2543852.6299999999,"ADDRESS":"萬昌街１５５號","OBJECTID":623625},"geometry":{"x":169084.58000000101,"y":2543852.6300000027}},{"attributes":{"ID":623653,"DIS_CODE":0,"TOWNNAME":"中西區","LI":"公正里","LIN":" ","STREET":"民族路","SECT":"二段","MAREA":" ","LANE":" ","ALLEY":" ","HOUSE_NO":"１０４號","E_COORD97":168910.07000000001,"N_COORD97":2543922.8799999999,"ADDRESS":"民族路二段１０４號","OBJECTID":623626},"geometry":{"x":168910.07000000123,"y":2543922.8800000008}},{"attributes":{"ID":623654,"DIS_CODE":0,"TOWNNAME":"中西區","LI":"天后里","LIN":" ","STREET":"民權路","SECT":"二段","MAREA":" ","LANE":" ","ALLEY":" ","HOUSE_NO":"２１８號","E_COORD97":168116.76999999999,"N_COORD97":2544034.3399999999,"ADDRESS":"民權路二段２１８號","OBJECTID":623627},"geometry":{"x":168116.77000000048,"y":2544034.3399999999}},{"attributes":{"ID":623655,"DIS_CODE":0,"TOWNNAME":"中西區","LI":"天后里","LIN":" ","STREET":"民權路","SECT":"二段","MAREA":" ","LANE":" ","ALLEY":" ","HOUSE_NO":"２４４號","E_COORD97":168058.56,"N_COORD97":2544055.4300000002,"ADDRESS":"民權路二段２４４號","OBJECTID":623628},"geometry":{"x":168058.56000000052,"y":2544055.4300000016}},{"attributes":{"ID":623656,"DIS_CODE":0,"TOWNNAME":"中西區","LI":"天后里","LIN":" ","STREET":"民族路","SECT":"二段","MAREA":" ","LANE":" ","ALLEY":" ","HOUSE_NO":"３７５號","E_COORD97":168146.92000000001,"N_COORD97":2544123.21,"ADDRESS":"民族路二段３７５號","OBJECTID":623629},"geometry":{"x":168146.91999999993,"y":2544123.2100000028}},{"attributes":{"ID":623657,"DIS_CODE":0,"TOWNNAME":"中西區","LI":"天后里","LIN":" ","STREET":"民族路","SECT":"二段","MAREA":" ","LANE":" ","ALLEY":" ","HOUSE_NO":"３７７號之１","E_COORD97":168147.97,"N_COORD97":2544174.25,"ADDRESS":"民族路二段３７７號之１","OBJECTID":623630},"geometry":{"x":168147.96999999974,"y":2544174.25}},{"attributes":{"ID":623658,"DIS_CODE":0,"TOWNNAME":"中西區","LI":"法華里","LIN":" ","STREET":"五妃街","SECT":" ","MAREA":" ","LANE":" ","ALLEY":" ","HOUSE_NO":"３７號","E_COORD97":169006.60999999999,"N_COORD97":2542555.3599999999,"ADDRESS":"五妃街３７號","OBJECTID":623631},"geometry":{"x":169006.61000000127,"y":2542555.3599999994}},{"attributes":{"ID":623659,"DIS_CODE":0,"TOWNNAME":"中西區","LI":"青年里","LIN":" ","STREET":"興華街","SECT":" ","MAREA":" ","LANE":" ","ALLEY":" ","HOUSE_NO":"１５之１號","E_COORD97":169058.47,"N_COORD97":2543636.1099999999,"ADDRESS":"興華街１５之１號","OBJECTID":623632},"geometry":{"x":169058.46999999974,"y":2543636.1099999975}},{"attributes":{"ID":623660,"DIS_CODE":0,"TOWNNAME":"中西區","LI":"建國里","LIN":" ","STREET":"民權路","SECT":"二段","MAREA":" ","LANE":" ","ALLEY":" ","HOUSE_NO":"２９７號","E_COORD97":167985.29999999999,"N_COORD97":2544047.1699999999,"ADDRESS":"民權路二段２９７號","OBJECTID":623633},"geometry":{"x":167985.29999999981,"y":2544047.1700000018}},{"attributes":{"ID":623661,"DIS_CODE":0,"TOWNNAME":"中西區","LI":"建國里","LIN":" ","STREET":"西門路","SECT":"二段","MAREA":" ","LANE":" ","ALLEY":" ","HOUSE_NO":"１８８號","E_COORD97":167911.98000000001,"N_COORD97":2543881.5800000001,"ADDRESS":"西門路二段１８８號","OBJECTID":623634},"geometry":{"x":167911.98000000045,"y":2543881.5800000038}},{"attributes":{"ID":623662,"DIS_CODE":0,"TOWNNAME":"中西區","LI":"郡王里","LIN":" ","STREET":"大埔街","SECT":" ","MAREA":" ","LANE":" ","ALLEY":" ","HOUSE_NO":"５３號","E_COORD97":168856.23999999999,"N_COORD97":2543055.4900000002,"ADDRESS":"大埔街５３號","OBJECTID":623635},"geometry":{"x":168856.24000000115,"y":2543055.4900000021}},{"attributes":{"ID":623663,"DIS_CODE":0,"TOWNNAME":"中西區","LI":"郡王里","LIN":" ","STREET":"南門路","SECT":" ","MAREA":" ","LANE":" ","ALLEY":" ","HOUSE_NO":"１２３號","E_COORD97":168444.01000000001,"N_COORD97":2543054.1400000001,"ADDRESS":"南門路１２３號","OBJECTID":623636},"geometry":{"x":168444.01000000071,"y":2543054.1399999987}},{"attributes":{"ID":623664,"DIS_CODE":0,"TOWNNAME":"中西區","LI":"郡王里","LIN":" ","STREET":"南門路","SECT":" ","MAREA":" ","LANE":" ","ALLEY":" ","HOUSE_NO":"１３３號","E_COORD97":168480.35999999999,"N_COORD97":2543057.1200000001,"ADDRESS":"南門路１３３號","OBJECTID":623637},"geometry":{"x":168480.36000000034,"y":2543057.120000001}},{"attributes":{"ID":623665,"DIS_CODE":0,"TOWNNAME":"中西區","LI":"開山里","LIN":" ","STREET":"大埔街","SECT":" ","MAREA":" ","LANE":" ","ALLEY":" ","HOUSE_NO":"１號","E_COORD97":169009.44,"N_COORD97":2543027.3500000001,"ADDRESS":"大埔街１號","OBJECTID":623638},"geometry":{"x":169009.44000000134,"y":2543027.3499999996}},{"attributes":{"ID":623666,"DIS_CODE":0,"TOWNNAME":"中西區","LI":"福安里","LIN":" ","STREET":"中正路","SECT":" ","MAREA":" ","LANE":" ","ALLEY":" ","HOUSE_NO":"１１７號","E_COORD97":167993.10000000001,"N_COORD97":2543657.0699999998,"ADDRESS":"中正路１１７號","OBJECTID":623639},"geometry":{"x":167993.09999999963,"y":2543657.0700000003}},{"attributes":{"ID":623667,"DIS_CODE":0,"TOWNNAME":"中西區","LI":"銀同里","LIN":" ","STREET":"開山路","SECT":" ","MAREA":" ","LANE":" ","ALLEY":" ","HOUSE_NO":"１７號","E_COORD97":168594.85999999999,"N_COORD97":2543574.7799999998,"ADDRESS":"開山路１７號","OBJECTID":623640},"geometry":{"x":168594.86000000127,"y":2543574.7800000012}},{"attributes":{"ID":623668,"DIS_CODE":0,"TOWNNAME":"中西區","LI":" ","LIN":" ","STREET":"忠義路","SECT":"一段","MAREA":" ","LANE":" ","ALLEY":" ","HOUSE_NO":"５８之１號","E_COORD97":168175.85999999999,"N_COORD97":2543018.6899999999,"ADDRESS":"忠義路一段５８之１號","OBJECTID":623641},"geometry":{"x":168175.86000000127,"y":2543018.6899999976}},{"attributes":{"ID":623669,"DIS_CODE":0,"TOWNNAME":"中西區","LI":"法華里","LIN":"18鄰","STREET":"五妃街","SECT":" ","MAREA":" ","LANE":" ","ALLEY":" ","HOUSE_NO":"１１５號","E_COORD97":168813.67999999999,"N_COORD97":2542563.2400000002,"ADDRESS":"五妃街１１５號","OBJECTID":623642},"geometry":{"x":168813.68000000156,"y":2542563.2400000021}},{"attributes":{"ID":623670,"DIS_CODE":0,"TOWNNAME":"中西區","LI":"大涼里","LIN":"20鄰","STREET":"中華西路","SECT":"二段","MAREA":" ","LANE":" ","ALLEY":" ","HOUSE_NO":"５８號","E_COORD97":166650.35999999999,"N_COORD97":2543806.3799999999,"ADDRESS":"中華西路二段５８號","OBJECTID":623643},"geometry":{"x":166650.36000000127,"y":2543806.379999999}},{"attributes":{"ID":623671,"DIS_CODE":0,"TOWNNAME":"中西區","LI":"光賢里","LIN":"20鄰","STREET":"中華西路","SECT":"二段","MAREA":" ","LANE":" ","ALLEY":" ","HOUSE_NO":"６０２號","E_COORD97":166650.72,"N_COORD97":2545013.6099999999,"ADDRESS":"中華西路二段６０２號","OBJECTID":623644},"geometry":{"x":166650.72000000067,"y":2545013.6100000013}},{"attributes":{"ID":623672,"DIS_CODE":0,"TOWNNAME":"中西區","LI":"光賢里","LIN":"20鄰","STREET":"中華西路","SECT":"二段","MAREA":" ","LANE":" ","ALLEY":" ","HOUSE_NO":"６０６號","E_COORD97":166652.20000000001,"N_COORD97":2545016.8100000001,"ADDRESS":"中華西路二段６０６號","OBJECTID":623645},"geometry":{"x":166652.20000000019,"y":2545016.8100000024}},{"attributes":{"ID":623673,"DIS_CODE":0,"TOWNNAME":"中西區","LI":"光賢里","LIN":"20鄰","STREET":"中華西路","SECT":"二段","MAREA":" ","LANE":" ","ALLEY":" ","HOUSE_NO":"６０８號","E_COORD97":166650.82999999999,"N_COORD97":2545022,"ADDRESS":"中華西路二段６０８號","OBJECTID":623646},"geometry":{"x":166650.83000000007,"y":2545022.0000000019}},{"attributes":{"ID":623674,"DIS_CODE":0,"TOWNNAME":"中西區","LI":"光賢里","LIN":"20鄰","STREET":"中華西路","SECT":"二段","MAREA":" ","LANE":" ","ALLEY":" ","HOUSE_NO":"６１０號","E_COORD97":166649.98000000001,"N_COORD97":2545027.5,"ADDRESS":"中華西路二段６１０號","OBJECTID":623647},"geometry":{"x":166649.98000000138,"y":2545027.5}},{"attributes":{"ID":623675,"DIS_CODE":0,"TOWNNAME":"中西區","LI":"法華里","LIN":"17鄰","STREET":"法華街","SECT":" ","MAREA":" ","LANE":" ","ALLEY":" ","HOUSE_NO":"１６８號","E_COORD97":168866.51999999999,"N_COORD97":2542555.3100000001,"ADDRESS":"法華街１６８號","OBJECTID":623648},"geometry":{"x":168866.51999999955,"y":2542555.3100000024}},{"attributes":{"ID":623676,"DIS_CODE":0,"TOWNNAME":"中西區","LI":"進學里","LIN":"7鄰","STREET":"永福路","SECT":"一段","MAREA":" ","LANE":" ","ALLEY":" ","HOUSE_NO":"４０號","E_COORD97":168005,"N_COORD97":2542983.5899999999,"ADDRESS":"永福路一段４０號","OBJECTID":623649},"geometry":{"x":168005.00000000093,"y":2542983.5900000017}},{"attributes":{"ID":623677,"DIS_CODE":0,"TOWNNAME":"中西區","LI":"民權里","LIN":"7鄰","STREET":"康樂街","SECT":" ","MAREA":" ","LANE":" ","ALLEY":" ","HOUSE_NO":"２８３之１號","E_COORD97":167538.67999999999,"N_COORD97":2544153.1000000001,"ADDRESS":"康樂街２８３之１號","OBJECTID":623650},"geometry":{"x":167538.67999999877,"y":2544153.1000000015}},{"attributes":{"ID":623678,"DIS_CODE":0,"TOWNNAME":"中西區","LI":"民權里","LIN":"16鄰","STREET":"民族路","SECT":"三段","MAREA":" ","LANE":" ","ALLEY":" ","HOUSE_NO":"８５號","E_COORD97":167689.14000000001,"N_COORD97":2544320.7999999998,"ADDRESS":"民族路三段８５號","OBJECTID":623651},"geometry":{"x":167689.13999999966,"y":2544320.8000000007}},{"attributes":{"ID":623679,"DIS_CODE":0,"TOWNNAME":"中西區","LI":"進學里","LIN":"11鄰","STREET":"永福路","SECT":"一段","MAREA":" ","LANE":" ","ALLEY":" ","HOUSE_NO":"４２號","E_COORD97":168005.63,"N_COORD97":2542998.96,"ADDRESS":"永福路一段４２號","OBJECTID":623652},"geometry":{"x":168005.63000000082,"y":2542998.9600000028}},{"attributes":{"ID":623680,"DIS_CODE":0,"TOWNNAME":"中西區","LI":"西賢里","LIN":"23鄰","STREET":"華平路","SECT":" ","MAREA":" ","LANE":" ","ALLEY":" ","HOUSE_NO":"７９２號","E_COORD97":165525.17000000001,"N_COORD97":2544534.0600000001,"ADDRESS":"華平路７９２號","OBJECTID":623653},"geometry":{"x":165525.17000000179,"y":2544534.0600000024}},{"attributes":{"ID":623681,"DIS_CODE":0,"TOWNNAME":"中西區","LI":"西湖里","LIN":"39鄰","STREET":"中華西路","SECT":"二段","MAREA":" ","LANE":" ","ALLEY":" ","HOUSE_NO":"７７３號","E_COORD97":166622.35000000001,"N_COORD97":2544975.6600000001,"ADDRESS":"中華西路二段７７３號","OBJECTID":623654},"geometry":{"x":166622.35000000056,"y":2544975.6600000001}},{"attributes":{"ID":623682,"DIS_CODE":0,"TOWNNAME":"中西區","LI":"西湖里","LIN":"34鄰","STREET":"西湖街","SECT":" ","MAREA":" ","LANE":" ","ALLEY":" ","HOUSE_NO":"７９號","E_COORD97":166385.23999999999,"N_COORD97":2544893.79,"ADDRESS":"西湖街７９號","OBJECTID":623655},"geometry":{"x":166385.24000000115,"y":2544893.790000001}},{"attributes":{"ID":623683,"DIS_CODE":0,"TOWNNAME":"中西區","LI":"保安里","LIN":"2鄰","STREET":"尊王路","SECT":" ","MAREA":" ","LANE":" ","ALLEY":" ","HOUSE_NO":"２３號","E_COORD97":167716.14000000001,"N_COORD97":2543538.2999999998,"ADDRESS":"尊王路２３號","OBJECTID":623656},"geometry":{"x":167716.1400000006,"y":2543538.3000000045}},{"attributes":{"ID":623684,"DIS_CODE":0,"TOWNNAME":"中西區","LI":"光賢里","LIN":"12鄰","STREET":"中華西路","SECT":"二段","MAREA":" ","LANE":" ","ALLEY":" ","HOUSE_NO":"４５２號","E_COORD97":166672.20000000001,"N_COORD97":2544639.5800000001,"ADDRESS":"中華西路二段４５２號","OBJECTID":623657},"geometry":{"x":166672.20000000019,"y":2544639.5800000001}},{"attributes":{"ID":623685,"DIS_CODE":0,"TOWNNAME":"中西區","LI":"萬昌里","LIN":"11鄰","STREET":"民權路","SECT":"一段","MAREA":" ","LANE":" ","ALLEY":" ","HOUSE_NO":"２２號","E_COORD97":169088.64000000001,"N_COORD97":2543338.0099999998,"ADDRESS":"民權路一段２２號","OBJECTID":623658},"geometry":{"x":169088.6400000006,"y":2543338.0099999998}},{"attributes":{"ID":623686,"DIS_CODE":0,"TOWNNAME":"中西區","LI":"西賢里","LIN":"4鄰","STREET":"湖美街","SECT":" ","MAREA":" ","LANE":" ","ALLEY":" ","HOUSE_NO":"１７９號","E_COORD97":165922.04999999999,"N_COORD97":2544851.5600000001,"ADDRESS":"湖美街１７９號","OBJECTID":623659},"geometry":{"x":165922.04999999981,"y":2544851.5600000042}},{"attributes":{"ID":623687,"DIS_CODE":0,"TOWNNAME":"中西區","LI":"元安里","LIN":"13鄰","STREET":"海安路","SECT":"一段","MAREA":" ","LANE":" ","ALLEY":" ","HOUSE_NO":"１６６號","E_COORD97":167519.39000000001,"N_COORD97":2543411.8700000001,"ADDRESS":"海安路一段１６６號","OBJECTID":623660},"geometry":{"x":167519.3900000006,"y":2543411.870000001}},{"attributes":{"ID":623688,"DIS_CODE":0,"TOWNNAME":"中西區","LI":"西湖里","LIN":"18鄰","STREET":"和緯路","SECT":"五段","MAREA":" ","LANE":" ","ALLEY":" ","HOUSE_NO":"２２３號","E_COORD97":166160.95999999999,"N_COORD97":2545051.29,"ADDRESS":"和緯路五段２２３號","OBJECTID":623661},"geometry":{"x":166160.96000000089,"y":2545051.2899999991}},{"attributes":{"ID":623689,"DIS_CODE":0,"TOWNNAME":"中西區","LI":"西湖里","LIN":"18鄰","STREET":"和緯路","SECT":"五段","MAREA":" ","LANE":" ","ALLEY":" ","HOUSE_NO":"２１１號","E_COORD97":166192.89999999999,"N_COORD97":2545065.1699999999,"ADDRESS":"和緯路五段２１１號","OBJECTID":623662},"geometry":{"x":166192.90000000037,"y":2545065.1700000018}},{"attributes":{"ID":623690,"DIS_CODE":0,"TOWNNAME":"中西區","LI":"西湖里","LIN":"18鄰","STREET":"和緯路","SECT":"五段","MAREA":" ","LANE":" ","ALLEY":" ","HOUSE_NO":"２１９號","E_COORD97":166171.94,"N_COORD97":2545055.96,"ADDRESS":"和緯路五段２１９號","OBJECTID":623663},"geometry":{"x":166171.94000000134,"y":2545055.959999999}},{"attributes":{"ID":623691,"DIS_CODE":0,"TOWNNAME":"中西區","LI":"西湖里","LIN":"18鄰","STREET":"和緯路","SECT":"五段","MAREA":" ","LANE":" ","ALLEY":" ","HOUSE_NO":"２１３號","E_COORD97":166186.87,"N_COORD97":2545062.4700000002,"ADDRESS":"和緯路五段２１３號","OBJECTID":623664},"geometry":{"x":166186.87000000197,"y":2545062.4699999988}},{"attributes":{"ID":623692,"DIS_CODE":0,"TOWNNAME":"中西區","LI":"西湖里","LIN":"18鄰","STREET":"和緯路","SECT":"五段","MAREA":" ","LANE":" ","ALLEY":" ","HOUSE_NO":"２２１號","E_COORD97":166167.5,"N_COORD97":2545053.7400000002,"ADDRESS":"和緯路五段２２１號","OBJECTID":623665},"geometry":{"x":166167.50000000093,"y":2545053.7400000039}},{"attributes":{"ID":623693,"DIS_CODE":0,"TOWNNAME":"中西區","LI":"西湖里","LIN":"18鄰","STREET":"和緯路","SECT":"五段","MAREA":" ","LANE":" ","ALLEY":" ","HOUSE_NO":"２１７號","E_COORD97":166177.01999999999,"N_COORD97":2545057.5499999998,"ADDRESS":"和緯路五段２１７號","OBJECTID":623666},"geometry":{"x":166177.02000000048,"y":2545057.5500000007}},{"attributes":{"ID":623694,"DIS_CODE":0,"TOWNNAME":"中西區","LI":"西湖里","LIN":"18鄰","STREET":"和緯路","SECT":"五段","MAREA":" ","LANE":" ","ALLEY":" ","HOUSE_NO":"２１５號","E_COORD97":166182.17000000001,"N_COORD97":2545059.7999999998,"ADDRESS":"和緯路五段２１５號","OBJECTID":623667},"geometry":{"x":166182.16999999993,"y":2545059.8000000007}},{"attributes":{"ID":623695,"DIS_CODE":0,"TOWNNAME":"中西區","LI":"西湖里","LIN":"18鄰","STREET":"和緯路","SECT":"五段","MAREA":" ","LANE":" ","ALLEY":" ","HOUSE_NO":"２２５號","E_COORD97":166153.34,"N_COORD97":2545048.8799999999,"ADDRESS":"和緯路五段２２５號","OBJECTID":623668},"geometry":{"x":166153.34000000078,"y":2545048.8800000008}},{"attributes":{"ID":623696,"DIS_CODE":0,"TOWNNAME":"安南區","LI":"安慶里","LIN":"10鄰","STREET":"長溪路","SECT":"一段","MAREA":" ","LANE":" ","ALLEY":" ","HOUSE_NO":"２８２號","E_COORD97":168821.14999999999,"N_COORD97":2548756.3500000001,"ADDRESS":"長溪路一段２８２號","OBJECTID":623669},"geometry":{"x":168821.14999999944,"y":2548756.3499999996}},{"attributes":{"ID":623697,"DIS_CODE":0,"TOWNNAME":"安南區","LI":"安西里","LIN":"10鄰","STREET":"長溪路","SECT":"一段","MAREA":" ","LANE":" ","ALLEY":" ","HOUSE_NO":"１４號","E_COORD97":169264.12,"N_COORD97":2548233.9900000002,"ADDRESS":"長溪路一段１４號","OBJECTID":623670},"geometry":{"x":169264.12000000104,"y":2548233.9900000002}},{"attributes":{"ID":623698,"DIS_CODE":0,"TOWNNAME":"新市區","LI":"新和里","LIN":"10鄰","STREET":"忠孝街","SECT":" ","MAREA":" ","LANE":" ","ALLEY":" ","HOUSE_NO":"２７號","E_COORD97":177637.92000000001,"N_COORD97":2552495,"ADDRESS":"忠孝街２７號","OBJECTID":623671},"geometry":{"x":177637.92000000086,"y":2552495.0000000019}},{"attributes":{"ID":623699,"DIS_CODE":0,"TOWNNAME":"安南區","LI":"城南里","LIN":"14鄰","STREET":"城西街","SECT":"二段","MAREA":" ","LANE":" ","ALLEY":" ","HOUSE_NO":"１８５號","E_COORD97":159883.54999999999,"N_COORD97":2551003.5899999999,"ADDRESS":"城西街二段１８５號","OBJECTID":623672},"geometry":{"x":159883.54999999981,"y":2551003.5899999999}},{"attributes":{"ID":623700,"DIS_CODE":0,"TOWNNAME":"新市區","LI":"新市里","LIN":"1鄰","STREET":"中興街","SECT":" ","MAREA":" ","LANE":" ","ALLEY":" ","HOUSE_NO":"２９號","E_COORD97":177729.42999999999,"N_COORD97":2553142.75,"ADDRESS":"中興街２９號","OBJECTID":623673},"geometry":{"x":177729.4299999997,"y":2553142.7500000037}},{"attributes":{"ID":623701,"DIS_CODE":0,"TOWNNAME":"新市區","LI":"永就里","LIN":"18鄰","STREET":"永華三街","SECT":" ","MAREA":" ","LANE":" ","ALLEY":" ","HOUSE_NO":"３號","E_COORD97":177596.76000000001,"N_COORD97":2550969.5,"ADDRESS":"永華三街３號","OBJECTID":623674},"geometry":{"x":177596.75999999978,"y":2550969.5}},{"attributes":{"ID":623702,"DIS_CODE":0,"TOWNNAME":"新市區","LI":"新和里","LIN":"19鄰","STREET":"永福街","SECT":" ","MAREA":" ","LANE":" ","ALLEY":" ","HOUSE_NO":"８９號","E_COORD97":177535.76000000001,"N_COORD97":2552721.5,"ADDRESS":"永福街８９號","OBJECTID":623675},"geometry":{"x":177535.75999999978,"y":2552721.5000000019}},{"attributes":{"ID":623703,"DIS_CODE":0,"TOWNNAME":"安南區","LI":"頂安里","LIN":"12鄰","STREET":"長溪路","SECT":"一段","MAREA":" ","LANE":" ","ALLEY":" ","HOUSE_NO":"５５０號","E_COORD97":168426.89000000001,"N_COORD97":2549249.54,"ADDRESS":"長溪路一段５５０號","OBJECTID":623676},"geometry":{"x":168426.88999999966,"y":2549249.5399999991}},{"attributes":{"ID":623704,"DIS_CODE":0,"TOWNNAME":"安南區","LI":"頂安里","LIN":"12鄰","STREET":"長溪路","SECT":"二段","MAREA":" ","LANE":" ","ALLEY":" ","HOUSE_NO":"１１１號","E_COORD97":168362.22,"N_COORD97":2549493.2400000002,"ADDRESS":"長溪路二段１１１號","OBJECTID":623677},"geometry":{"x":168362.21999999974,"y":2549493.2400000002}},{"attributes":{"ID":623705,"DIS_CODE":0,"TOWNNAME":"安南區","LI":"頂安里","LIN":"12鄰","STREET":"長溪路","SECT":"二段","MAREA":" ","LANE":" ","ALLEY":" ","HOUSE_NO":"１１２號","E_COORD97":168407.79000000001,"N_COORD97":2549501.9100000001,"ADDRESS":"長溪路二段１１２號","OBJECTID":623678},"geometry":{"x":168407.79000000004,"y":2549501.910000002}},{"attributes":{"ID":623706,"DIS_CODE":0,"TOWNNAME":"安南區","LI":"頂安里","LIN":"12鄰","STREET":"長溪路","SECT":"二段","MAREA":" ","LANE":" ","ALLEY":" ","HOUSE_NO":"１１４號","E_COORD97":168405.17000000001,"N_COORD97":2549517.21,"ADDRESS":"長溪路二段１１４號","OBJECTID":623679},"geometry":{"x":168405.16999999993,"y":2549517.2100000028}},{"attributes":{"ID":623707,"DIS_CODE":0,"TOWNNAME":"安南區","LI":"頂安里","LIN":"12鄰","STREET":"長溪路","SECT":"二段","MAREA":" ","LANE":" ","ALLEY":" ","HOUSE_NO":"１１６號","E_COORD97":168409.38,"N_COORD97":2549519.3999999999,"ADDRESS":"長溪路二段１１６號","OBJECTID":623680},"geometry":{"x":168409.38000000082,"y":2549519.4000000022}},{"attributes":{"ID":623708,"DIS_CODE":0,"TOWNNAME":"安南區","LI":"頂安里","LIN":"10鄰","STREET":"長溪路","SECT":"一段","MAREA":" ","LANE":" ","ALLEY":" ","HOUSE_NO":"４８９號","E_COORD97":168442.98000000001,"N_COORD97":2549085.6699999999,"ADDRESS":"長溪路一段４８９號","OBJECTID":623681},"geometry":{"x":168442.98000000138,"y":2549085.6700000018}},{"attributes":{"ID":623709,"DIS_CODE":0,"TOWNNAME":"安南區","LI":"頂安里","LIN":"14鄰","STREET":"長溪路","SECT":"一段","MAREA":" ","LANE":" ","ALLEY":" ","HOUSE_NO":"４０９號","E_COORD97":168565.45000000001,"N_COORD97":2548934.5299999998,"ADDRESS":"長溪路一段４０９號","OBJECTID":623682},"geometry":{"x":168565.45000000112,"y":2548934.5299999993}},{"attributes":{"ID":623710,"DIS_CODE":0,"TOWNNAME":"新市區","LI":"新市里","LIN":"4鄰","STREET":"華興街","SECT":" ","MAREA":" ","LANE":" ","ALLEY":" ","HOUSE_NO":"５８號","E_COORD97":177679.98000000001,"N_COORD97":2552999.25,"ADDRESS":"華興街５８號","OBJECTID":623683},"geometry":{"x":177679.98000000231,"y":2552999.25}},{"attributes":{"ID":623711,"DIS_CODE":0,"TOWNNAME":"新市區","LI":"港墘里","LIN":"20鄰","STREET":"光華街","SECT":" ","MAREA":" ","LANE":" ","ALLEY":" ","HOUSE_NO":"１４６號","E_COORD97":177913.12,"N_COORD97":2552795,"ADDRESS":"光華街１４６號","OBJECTID":623684},"geometry":{"x":177913.12000000104,"y":2552794.9999999981}},{"attributes":{"ID":623712,"DIS_CODE":0,"TOWNNAME":"新市區","LI":"新和里","LIN":"32鄰","STREET":"華興街","SECT":" ","MAREA":" ","LANE":" ","ALLEY":" ","HOUSE_NO":"４５號","E_COORD97":177687.10000000001,"N_COORD97":2552982.5,"ADDRESS":"華興街４５號","OBJECTID":623685},"geometry":{"x":177687.10000000056,"y":2552982.5000000019}},{"attributes":{"ID":623713,"DIS_CODE":0,"TOWNNAME":"新市區","LI":"新和里","LIN":"43鄰","STREET":"民權路","SECT":" ","MAREA":" ","LANE":" ","ALLEY":" ","HOUSE_NO":"５１號","E_COORD97":177324.45999999999,"N_COORD97":2553063.29,"ADDRESS":"民權路５１號","OBJECTID":623686},"geometry":{"x":177324.45999999996,"y":2553063.2899999972}},{"attributes":{"ID":623714,"DIS_CODE":0,"TOWNNAME":"新市區","LI":"新和里","LIN":"26鄰","STREET":"永福街","SECT":" ","MAREA":" ","LANE":" ","ALLEY":" ","HOUSE_NO":"６號","E_COORD97":177814.48000000001,"N_COORD97":2552686.75,"ADDRESS":"永福街６號","OBJECTID":623687},"geometry":{"x":177814.48000000138,"y":2552686.75}},{"attributes":{"ID":623715,"DIS_CODE":0,"TOWNNAME":"新市區","LI":"新和里","LIN":"25鄰","STREET":"仁愛街","SECT":" ","MAREA":" ","LANE":" ","ALLEY":" ","HOUSE_NO":"２６６號","E_COORD97":177631.89999999999,"N_COORD97":2552896.5299999998,"ADDRESS":"仁愛街２６６號","OBJECTID":623688},"geometry":{"x":177631.9000000013,"y":2552896.5300000012}},{"attributes":{"ID":623716,"DIS_CODE":0,"TOWNNAME":"新市區","LI":"新和里","LIN":"25鄰","STREET":"仁愛街","SECT":" ","MAREA":" ","LANE":" ","ALLEY":" ","HOUSE_NO":"２８６之１號","E_COORD97":177645.56,"N_COORD97":2552952.5499999998,"ADDRESS":"仁愛街２８６之１號","OBJECTID":623689},"geometry":{"x":177645.55999999959,"y":2552952.5500000026}},{"attributes":{"ID":623717,"DIS_CODE":0,"TOWNNAME":"新市區","LI":"新和里","LIN":"25鄰","STREET":"仁愛街","SECT":" ","MAREA":" ","LANE":" ","ALLEY":" ","HOUSE_NO":"２８４號","E_COORD97":177641.34,"N_COORD97":2552942.2799999998,"ADDRESS":"仁愛街２８４號","OBJECTID":623690},"geometry":{"x":177641.34000000078,"y":2552942.2800000012}},{"attributes":{"ID":623718,"DIS_CODE":0,"TOWNNAME":"新市區","LI":"新市里","LIN":"4鄰","STREET":"華興街","SECT":" ","MAREA":" ","LANE":" ","ALLEY":" ","HOUSE_NO":"５４號","E_COORD97":177693.53,"N_COORD97":2553001,"ADDRESS":"華興街５４號","OBJECTID":623691},"geometry":{"x":177693.53000000119,"y":2553001}},{"attributes":{"ID":623719,"DIS_CODE":0,"TOWNNAME":"新市區","LI":"港墘里","LIN":"25鄰","STREET":"南昌街","SECT":" ","MAREA":" ","LANE":" ","ALLEY":" ","HOUSE_NO":"３２號","E_COORD97":178001.79999999999,"N_COORD97":2552921.75,"ADDRESS":"南昌街３２號","OBJECTID":623692},"geometry":{"x":178001.79999999981,"y":2552921.75}},{"attributes":{"ID":623720,"DIS_CODE":0,"TOWNNAME":"新市區","LI":"新和里","LIN":"26鄰","STREET":"永福街","SECT":" ","MAREA":" ","LANE":" ","ALLEY":" ","HOUSE_NO":"２２號","E_COORD97":177789.03,"N_COORD97":2552690.75,"ADDRESS":"永福街２２號","OBJECTID":623693},"geometry":{"x":177789.03000000026,"y":2552690.75}},{"attributes":{"ID":623721,"DIS_CODE":0,"TOWNNAME":"新市區","LI":"新和里","LIN":"41鄰","STREET":"西寧街","SECT":" ","MAREA":" ","LANE":" ","ALLEY":" ","HOUSE_NO":"１４號","E_COORD97":177129.64999999999,"N_COORD97":2552911.75,"ADDRESS":"西寧街１４號","OBJECTID":623694},"geometry":{"x":177129.6500000013,"y":2552911.75}},{"attributes":{"ID":623722,"DIS_CODE":0,"TOWNNAME":"新市區","LI":"新和里","LIN":"25鄰","STREET":"仁愛街","SECT":" ","MAREA":" ","LANE":" ","ALLEY":" ","HOUSE_NO":"２７０號","E_COORD97":177634.14999999999,"N_COORD97":2552907.7799999998,"ADDRESS":"仁愛街２７０號","OBJECTID":623695},"geometry":{"x":177634.15000000037,"y":2552907.7800000031}},{"attributes":{"ID":623723,"DIS_CODE":0,"TOWNNAME":"新市區","LI":"港墘里","LIN":"25鄰","STREET":"南昌街","SECT":" ","MAREA":" ","LANE":" ","ALLEY":" ","HOUSE_NO":"２２號","E_COORD97":178010.39999999999,"N_COORD97":2552883.75,"ADDRESS":"南昌街２２號","OBJECTID":623696},"geometry":{"x":178010.40000000037,"y":2552883.75}},{"attributes":{"ID":623724,"DIS_CODE":0,"TOWNNAME":"新市區","LI":"新和里","LIN":"25鄰","STREET":"仁愛街","SECT":" ","MAREA":" ","LANE":" ","ALLEY":" ","HOUSE_NO":"２２６號","E_COORD97":177621.98000000001,"N_COORD97":2552816.2799999998,"ADDRESS":"仁愛街２２６號","OBJECTID":623697},"geometry":{"x":177621.98000000045,"y":2552816.2800000031}},{"attributes":{"ID":623725,"DIS_CODE":0,"TOWNNAME":"新市區","LI":"新和里","LIN":"43鄰","STREET":"民權路","SECT":" ","MAREA":" ","LANE":" ","ALLEY":" ","HOUSE_NO":"４１號","E_COORD97":177346.32000000001,"N_COORD97":2553068.54,"ADDRESS":"民權路４１號","OBJECTID":623698},"geometry":{"x":177346.3200000003,"y":2553068.5400000028}},{"attributes":{"ID":623726,"DIS_CODE":0,"TOWNNAME":"新市區","LI":"港墘里","LIN":"25鄰","STREET":"南昌街","SECT":" ","MAREA":" ","LANE":" ","ALLEY":" ","HOUSE_NO":"３０號","E_COORD97":178026.98000000001,"N_COORD97":2552910.75,"ADDRESS":"南昌街３０號","OBJECTID":623699},"geometry":{"x":178026.98000000045,"y":2552910.75}},{"attributes":{"ID":623727,"DIS_CODE":0,"TOWNNAME":"新市區","LI":"新和里","LIN":"25鄰","STREET":"仁愛街","SECT":" ","MAREA":" ","LANE":" ","ALLEY":" ","HOUSE_NO":"２３８號","E_COORD97":177620.06,"N_COORD97":2552839.7799999998,"ADDRESS":"仁愛街２３８號","OBJECTID":623700},"geometry":{"x":177620.05999999959,"y":2552839.7799999975}},{"attributes":{"ID":623728,"DIS_CODE":0,"TOWNNAME":"新市區","LI":"永就里","LIN":"18鄰","STREET":"永華三街","SECT":" ","MAREA":" ","LANE":" ","ALLEY":" ","HOUSE_NO":"５號","E_COORD97":177589.04000000001,"N_COORD97":2550966.25,"ADDRESS":"永華三街５號","OBJECTID":623701},"geometry":{"x":177589.03999999911,"y":2550966.2500000037}},{"attributes":{"ID":623729,"DIS_CODE":0,"TOWNNAME":"新市區","LI":"新和里","LIN":"32鄰","STREET":"華興街","SECT":" ","MAREA":" ","LANE":" ","ALLEY":" ","HOUSE_NO":"２９號","E_COORD97":177754.26000000001,"N_COORD97":2552990.75,"ADDRESS":"華興街２９號","OBJECTID":623702},"geometry":{"x":177754.26000000071,"y":2552990.7500000019}},{"attributes":{"ID":623730,"DIS_CODE":0,"TOWNNAME":"新市區","LI":"港墘里","LIN":"18鄰","STREET":"華美街","SECT":" ","MAREA":" ","LANE":" ","ALLEY":" ","HOUSE_NO":"５之１號","E_COORD97":178103.89000000001,"N_COORD97":2552701.0499999998,"ADDRESS":"華美街５之１號","OBJECTID":623703},"geometry":{"x":178103.8900000006,"y":2552701.0500000026}},{"attributes":{"ID":623731,"DIS_CODE":0,"TOWNNAME":"新市區","LI":"港墘里","LIN":"4鄰","STREET":"三民街","SECT":" ","MAREA":" ","LANE":" ","ALLEY":" ","HOUSE_NO":"５６號","E_COORD97":178464.04000000001,"N_COORD97":2553440.54,"ADDRESS":"三民街５６號","OBJECTID":623704},"geometry":{"x":178464.04000000097,"y":2553440.5399999991}},{"attributes":{"ID":623732,"DIS_CODE":0,"TOWNNAME":"新市區","LI":"港墘里","LIN":"18鄰","STREET":"南港街","SECT":" ","MAREA":" ","LANE":" ","ALLEY":" ","HOUSE_NO":"８３號","E_COORD97":178084.17999999999,"N_COORD97":2552739.5,"ADDRESS":"南港街８３號","OBJECTID":623705},"geometry":{"x":178084.1799999997,"y":2552739.5}},{"attributes":{"ID":623733,"DIS_CODE":0,"TOWNNAME":"新市區","LI":"港墘里","LIN":"18鄰","STREET":"華美街","SECT":" ","MAREA":" ","LANE":" ","ALLEY":" ","HOUSE_NO":"５之６號","E_COORD97":178098.54000000001,"N_COORD97":2552723.2999999998,"ADDRESS":"華美街５之６號","OBJECTID":623706},"geometry":{"x":178098.54000000097,"y":2552723.3000000026}},{"attributes":{"ID":623734,"DIS_CODE":0,"TOWNNAME":"新市區","LI":"永就里","LIN":"8鄰","STREET":"中華路","SECT":" ","MAREA":" ","LANE":" ","ALLEY":" ","HOUSE_NO":"５８號","E_COORD97":177559.04000000001,"N_COORD97":2551679.75,"ADDRESS":"中華路５８號","OBJECTID":623707},"geometry":{"x":177559.04000000097,"y":2551679.75}},{"attributes":{"ID":623735,"DIS_CODE":0,"TOWNNAME":"新市區","LI":"港墘里","LIN":"17鄰","STREET":"南港街","SECT":" ","MAREA":" ","LANE":" ","ALLEY":" ","HOUSE_NO":"２９號","E_COORD97":178202.98999999999,"N_COORD97":2552755.5,"ADDRESS":"南港街２９號","OBJECTID":623708},"geometry":{"x":178202.99000000022,"y":2552755.5000000019}},{"attributes":{"ID":623736,"DIS_CODE":0,"TOWNNAME":"新市區","LI":"永就里","LIN":"8鄰","STREET":"中華路","SECT":" ","MAREA":" ","LANE":" ","ALLEY":" ","HOUSE_NO":"１００號","E_COORD97":177649.31,"N_COORD97":2551616.5,"ADDRESS":"中華路１００號","OBJECTID":623709},"geometry":{"x":177649.30999999959,"y":2551616.5000000019}},{"attributes":{"ID":623737,"DIS_CODE":0,"TOWNNAME":"新市區","LI":"新市里","LIN":"8鄰","STREET":"中正路","SECT":" ","MAREA":" ","LANE":" ","ALLEY":" ","HOUSE_NO":"２５３號","E_COORD97":177479.09,"N_COORD97":2553197.5,"ADDRESS":"中正路２５３號","OBJECTID":623710},"geometry":{"x":177479.09000000078,"y":2553197.5}},{"attributes":{"ID":623738,"DIS_CODE":0,"TOWNNAME":"新市區","LI":"永就里","LIN":"8鄰","STREET":"中華路","SECT":" ","MAREA":" ","LANE":" ","ALLEY":" ","HOUSE_NO":"７４號","E_COORD97":177607.37,"N_COORD97":2551654.25,"ADDRESS":"中華路７４號","OBJECTID":623711},"geometry":{"x":177607.37000000197,"y":2551654.2500000037}},{"attributes":{"ID":623739,"DIS_CODE":0,"TOWNNAME":"新市區","LI":"新市里","LIN":"24鄰","STREET":"復興路","SECT":" ","MAREA":" ","LANE":" ","ALLEY":" ","HOUSE_NO":"６１號","E_COORD97":177800.51000000001,"N_COORD97":2553455.5299999998,"ADDRESS":"復興路６１號","OBJECTID":623712},"geometry":{"x":177800.50999999978,"y":2553455.5300000031}},{"attributes":{"ID":623740,"DIS_CODE":0,"TOWNNAME":"新市區","LI":"港墘里","LIN":"4鄰","STREET":"三民街","SECT":" ","MAREA":" ","LANE":" ","ALLEY":" ","HOUSE_NO":"１４０號","E_COORD97":178274.73999999999,"N_COORD97":2553539.54,"ADDRESS":"三民街１４０號","OBJECTID":623713},"geometry":{"x":178274.74000000115,"y":2553539.5399999991}},{"attributes":{"ID":623741,"DIS_CODE":0,"TOWNNAME":"新市區","LI":"新市里","LIN":"24鄰","STREET":"復興路","SECT":" ","MAREA":" ","LANE":" ","ALLEY":" ","HOUSE_NO":"５３號","E_COORD97":177800.87,"N_COORD97":2553439.2799999998,"ADDRESS":"復興路５３號","OBJECTID":623714},"geometry":{"x":177800.87000000104,"y":2553439.2799999993}},{"attributes":{"ID":623742,"DIS_CODE":0,"TOWNNAME":"新市區","LI":"新市里","LIN":"5鄰","STREET":"仁愛街","SECT":" ","MAREA":" ","LANE":" ","ALLEY":" ","HOUSE_NO":"２９９號","E_COORD97":177646.57999999999,"N_COORD97":2553047.7799999998,"ADDRESS":"仁愛街２９９號","OBJECTID":623715},"geometry":{"x":177646.58000000194,"y":2553047.7800000012}},{"attributes":{"ID":623743,"DIS_CODE":0,"TOWNNAME":"新市區","LI":"港墘里","LIN":"18鄰","STREET":"華美街","SECT":" ","MAREA":" ","LANE":" ","ALLEY":" ","HOUSE_NO":"５之５號","E_COORD97":178100.39999999999,"N_COORD97":2552718.2999999998,"ADDRESS":"華美街５之５號","OBJECTID":623716},"geometry":{"x":178100.40000000037,"y":2552718.3000000007}},{"attributes":{"ID":623744,"DIS_CODE":0,"TOWNNAME":"新市區","LI":"永就里","LIN":"13鄰","STREET":"永華二街","SECT":" ","MAREA":" ","LANE":" ","ALLEY":" ","HOUSE_NO":"３１號","E_COORD97":177763.04000000001,"N_COORD97":2551084.25,"ADDRESS":"永華二街３１號","OBJECTID":623717},"geometry":{"x":177763.04000000004,"y":2551084.25}},{"attributes":{"ID":623745,"DIS_CODE":0,"TOWNNAME":"新市區","LI":"新市里","LIN":"24鄰","STREET":"復興路","SECT":" ","MAREA":" ","LANE":" ","ALLEY":" ","HOUSE_NO":"４３號","E_COORD97":177801.42000000001,"N_COORD97":2553417.2799999998,"ADDRESS":"復興路４３號","OBJECTID":623718},"geometry":{"x":177801.41999999993,"y":2553417.2800000012}},{"attributes":{"ID":623746,"DIS_CODE":0,"TOWNNAME":"新市區","LI":"港墘里","LIN":"18鄰","STREET":"華美街","SECT":" ","MAREA":" ","LANE":" ","ALLEY":" ","HOUSE_NO":"５號","E_COORD97":178101.64000000001,"N_COORD97":2552697.0499999998,"ADDRESS":"華美街５號","OBJECTID":623719},"geometry":{"x":178101.63999999873,"y":2552697.0499999989}},{"attributes":{"ID":623747,"DIS_CODE":0,"TOWNNAME":"新市區","LI":"港墘里","LIN":"20鄰","STREET":"光華街","SECT":" ","MAREA":" ","LANE":" ","ALLEY":" ","HOUSE_NO":"８８號","E_COORD97":177977.92999999999,"N_COORD97":2552676.5,"ADDRESS":"光華街８８號","OBJECTID":623720},"geometry":{"x":177977.93000000063,"y":2552676.5000000037}},{"attributes":{"ID":623748,"DIS_CODE":0,"TOWNNAME":"新市區","LI":"港墘里","LIN":"20鄰","STREET":"光華街","SECT":" ","MAREA":" ","LANE":" ","ALLEY":" ","HOUSE_NO":"９０號","E_COORD97":177977.84,"N_COORD97":2552681.5,"ADDRESS":"光華街９０號","OBJECTID":623721},"geometry":{"x":177977.83999999985,"y":2552681.5000000019}},{"attributes":{"ID":623749,"DIS_CODE":0,"TOWNNAME":"新市區","LI":"港墘里","LIN":"20鄰","STREET":"光華街","SECT":" ","MAREA":" ","LANE":" ","ALLEY":" ","HOUSE_NO":"７２號","E_COORD97":178006.01000000001,"N_COORD97":2552627.25,"ADDRESS":"光華街７２號","OBJECTID":623722},"geometry":{"x":178006.00999999885,"y":2552627.2500000037}},{"attributes":{"ID":623750,"DIS_CODE":0,"TOWNNAME":"新市區","LI":"港墘里","LIN":"26鄰","STREET":"華美街","SECT":" ","MAREA":" ","LANE":" ","ALLEY":" ","HOUSE_NO":"３６號","E_COORD97":178165.31,"N_COORD97":2552927.7999999998,"ADDRESS":"華美街３６號","OBJECTID":623723},"geometry":{"x":178165.31000000052,"y":2552927.8000000026}},{"attributes":{"ID":623751,"DIS_CODE":0,"TOWNNAME":"新市區","LI":"港墘里","LIN":"20鄰","STREET":"光華街","SECT":" ","MAREA":" ","LANE":" ","ALLEY":" ","HOUSE_NO":"１２０號","E_COORD97":177938.12,"N_COORD97":2552750.25,"ADDRESS":"光華街１２０號","OBJECTID":623724},"geometry":{"x":177938.12000000104,"y":2552750.2500000019}},{"attributes":{"ID":623752,"DIS_CODE":0,"TOWNNAME":"新市區","LI":"永就里","LIN":"18鄰","STREET":"永華三街","SECT":" ","MAREA":" ","LANE":" ","ALLEY":" ","HOUSE_NO":"８號","E_COORD97":177555.06,"N_COORD97":2550971.25,"ADDRESS":"永華三街８號","OBJECTID":623725},"geometry":{"x":177555.06000000052,"y":2550971.25}},{"attributes":{"ID":623753,"DIS_CODE":0,"TOWNNAME":"新市區","LI":"新市里","LIN":"4鄰","STREET":"光華街","SECT":" ","MAREA":" ","LANE":" ","ALLEY":" ","HOUSE_NO":"１５５號","E_COORD97":177820.45000000001,"N_COORD97":2553023,"ADDRESS":"光華街１５５號","OBJECTID":623726},"geometry":{"x":177820.45000000205,"y":2553023.0000000019}},{"attributes":{"ID":623754,"DIS_CODE":0,"TOWNNAME":"新市區","LI":"新市里","LIN":"24鄰","STREET":"復興路","SECT":" ","MAREA":" ","LANE":" ","ALLEY":" ","HOUSE_NO":"４５號","E_COORD97":177801.20999999999,"N_COORD97":2553423.5299999998,"ADDRESS":"復興路４５號","OBJECTID":623727},"geometry":{"x":177801.20999999996,"y":2553423.5299999993}},{"attributes":{"ID":623755,"DIS_CODE":0,"TOWNNAME":"新市區","LI":"新市里","LIN":"34鄰","STREET":"復興路","SECT":" ","MAREA":" ","LANE":" ","ALLEY":" ","HOUSE_NO":"６８號","E_COORD97":177828.62,"N_COORD97":2553490.7799999998,"ADDRESS":"復興路６８號","OBJECTID":623728},"geometry":{"x":177828.62000000011,"y":2553490.7799999975}},{"attributes":{"ID":623756,"DIS_CODE":0,"TOWNNAME":"新市區","LI":"港墘里","LIN":"17鄰","STREET":"南港街","SECT":" ","MAREA":" ","LANE":" ","ALLEY":" ","HOUSE_NO":"２５號","E_COORD97":178210.92999999999,"N_COORD97":2552756.5,"ADDRESS":"南港街２５號","OBJECTID":623729},"geometry":{"x":178210.9299999997,"y":2552756.5}},{"attributes":{"ID":623757,"DIS_CODE":0,"TOWNNAME":"新市區","LI":"港墘里","LIN":"26鄰","STREET":"華美街","SECT":" ","MAREA":" ","LANE":" ","ALLEY":" ","HOUSE_NO":"４２之１號","E_COORD97":178187.87,"N_COORD97":2552945.0499999998,"ADDRESS":"華美街４２之１號","OBJECTID":623730},"geometry":{"x":178187.87000000104,"y":2552945.0500000045}},{"attributes":{"ID":623758,"DIS_CODE":0,"TOWNNAME":"新市區","LI":"永就里","LIN":"8鄰","STREET":"中華路","SECT":" ","MAREA":" ","LANE":" ","ALLEY":" ","HOUSE_NO":"９４號","E_COORD97":177638.95999999999,"N_COORD97":2551626,"ADDRESS":"中華路９４號","OBJECTID":623731},"geometry":{"x":177638.96000000089,"y":2551626.0000000019}},{"attributes":{"ID":623759,"DIS_CODE":0,"TOWNNAME":"新市區","LI":"港墘里","LIN":"20鄰","STREET":"光華街","SECT":" ","MAREA":" ","LANE":" ","ALLEY":" ","HOUSE_NO":"１００號","E_COORD97":177964.82000000001,"N_COORD97":2552701.75,"ADDRESS":"光華街１００號","OBJECTID":623732},"geometry":{"x":177964.8200000003,"y":2552701.7499999981}},{"attributes":{"ID":623760,"DIS_CODE":0,"TOWNNAME":"新市區","LI":"港墘里","LIN":"26鄰","STREET":"華美街","SECT":" ","MAREA":" ","LANE":" ","ALLEY":" ","HOUSE_NO":"５２號","E_COORD97":178176.64000000001,"N_COORD97":2552975.5499999998,"ADDRESS":"華美街５２號","OBJECTID":623733},"geometry":{"x":178176.6400000006,"y":2552975.5500000045}},{"attributes":{"ID":623761,"DIS_CODE":0,"TOWNNAME":"新市區","LI":"新市里","LIN":"14鄰","STREET":"中正路","SECT":" ","MAREA":" ","LANE":" ","ALLEY":" ","HOUSE_NO":"３０７號","E_COORD97":177619.12,"N_COORD97":2553256.25,"ADDRESS":"中正路３０７號","OBJECTID":623734},"geometry":{"x":177619.11999999918,"y":2553256.25}},{"attributes":{"ID":623762,"DIS_CODE":0,"TOWNNAME":"新市區","LI":"新市里","LIN":"34鄰","STREET":"復興路","SECT":" ","MAREA":" ","LANE":" ","ALLEY":" ","HOUSE_NO":"１１６號","E_COORD97":177824.45000000001,"N_COORD97":2553665.2799999998,"ADDRESS":"復興路１１６號","OBJECTID":623735},"geometry":{"x":177824.45000000112,"y":2553665.2800000012}},{"attributes":{"ID":623763,"DIS_CODE":0,"TOWNNAME":"新市區","LI":"永就里","LIN":"20鄰","STREET":"永華三街","SECT":" ","MAREA":" ","LANE":" ","ALLEY":" ","HOUSE_NO":"１８號","E_COORD97":177534.84,"N_COORD97":2550996.75,"ADDRESS":"永華三街１８號","OBJECTID":623736},"geometry":{"x":177534.84000000078,"y":2550996.7500000037}},{"attributes":{"ID":623764,"DIS_CODE":0,"TOWNNAME":"新市區","LI":"新市里","LIN":"8鄰","STREET":"中正路","SECT":" ","MAREA":" ","LANE":" ","ALLEY":" ","HOUSE_NO":"２５７號","E_COORD97":177486.38,"N_COORD97":2553201.75,"ADDRESS":"中正路２５７號","OBJECTID":623737},"geometry":{"x":177486.37999999989,"y":2553201.7500000019}},{"attributes":{"ID":623765,"DIS_CODE":0,"TOWNNAME":"新市區","LI":"港墘里","LIN":"5鄰","STREET":"民族路","SECT":" ","MAREA":" ","LANE":" ","ALLEY":" ","HOUSE_NO":"１０１號","E_COORD97":178321.63,"N_COORD97":2553615.79,"ADDRESS":"民族路１０１號","OBJECTID":623738},"geometry":{"x":178321.62999999989,"y":2553615.7899999991}},{"attributes":{"ID":623766,"DIS_CODE":0,"TOWNNAME":"新市區","LI":"港墘里","LIN":"18鄰","STREET":"南港街","SECT":" ","MAREA":" ","LANE":" ","ALLEY":" ","HOUSE_NO":"８５號","E_COORD97":178079.73999999999,"N_COORD97":2552738.75,"ADDRESS":"南港街８５號","OBJECTID":623739},"geometry":{"x":178079.74000000209,"y":2552738.75}},{"attributes":{"ID":623767,"DIS_CODE":0,"TOWNNAME":"新市區","LI":"永就里","LIN":"11鄰","STREET":"永華二街","SECT":" ","MAREA":" ","LANE":" ","ALLEY":" ","HOUSE_NO":"７號","E_COORD97":177764.17000000001,"N_COORD97":2551019.75,"ADDRESS":"永華二街７號","OBJECTID":623740},"geometry":{"x":177764.16999999993,"y":2551019.75}},{"attributes":{"ID":623768,"DIS_CODE":0,"TOWNNAME":"新市區","LI":"永就里","LIN":"20鄰","STREET":"永華三街","SECT":" ","MAREA":" ","LANE":" ","ALLEY":" ","HOUSE_NO":"２１號","E_COORD97":177511.09,"N_COORD97":2550989.25,"ADDRESS":"永華三街２１號","OBJECTID":623741},"geometry":{"x":177511.09000000078,"y":2550989.25}},{"attributes":{"ID":623769,"DIS_CODE":0,"TOWNNAME":"新市區","LI":"港墘里","LIN":"5鄰","STREET":"民族路","SECT":" ","MAREA":" ","LANE":" ","ALLEY":" ","HOUSE_NO":"１２９號","E_COORD97":178276.54000000001,"N_COORD97":2553565.04,"ADDRESS":"民族路１２９號","OBJECTID":623742},"geometry":{"x":178276.54000000097,"y":2553565.040000001}},{"attributes":{"ID":623770,"DIS_CODE":0,"TOWNNAME":"新市區","LI":"永就里","LIN":"15鄰","STREET":"永華二街","SECT":" ","MAREA":" ","LANE":" ","ALLEY":" ","HOUSE_NO":"１６號","E_COORD97":177638.95000000001,"N_COORD97":2551003,"ADDRESS":"永華二街１６號","OBJECTID":623743},"geometry":{"x":177638.95000000019,"y":2551003.0000000019}},{"attributes":{"ID":623771,"DIS_CODE":0,"TOWNNAME":"新市區","LI":"港墘里","LIN":"1鄰","STREET":"民族路","SECT":" ","MAREA":" ","LANE":" ","ALLEY":" ","HOUSE_NO":"７３號","E_COORD97":178437.45999999999,"N_COORD97":2553724.54,"ADDRESS":"民族路７３號","OBJECTID":623744},"geometry":{"x":178437.46000000089,"y":2553724.540000001}},{"attributes":{"ID":623772,"DIS_CODE":0,"TOWNNAME":"新市區","LI":"港墘里","LIN":"20鄰","STREET":"光華街","SECT":" ","MAREA":" ","LANE":" ","ALLEY":" ","HOUSE_NO":"１２４號","E_COORD97":177933.20999999999,"N_COORD97":2552754.75,"ADDRESS":"光華街１２４號","OBJECTID":623745},"geometry":{"x":177933.20999999996,"y":2552754.75}},{"attributes":{"ID":623773,"DIS_CODE":0,"TOWNNAME":"新市區","LI":"新市里","LIN":"24鄰","STREET":"復興路","SECT":" ","MAREA":" ","LANE":" ","ALLEY":" ","HOUSE_NO":"５９號","E_COORD97":177800.51000000001,"N_COORD97":2553451.5299999998,"ADDRESS":"復興路５９號","OBJECTID":623746},"geometry":{"x":177800.50999999978,"y":2553451.5299999993}},{"attributes":{"ID":623774,"DIS_CODE":0,"TOWNNAME":"新市區","LI":"港墘里","LIN":"17鄰","STREET":"南港街","SECT":" ","MAREA":" ","LANE":" ","ALLEY":" ","HOUSE_NO":"１７號","E_COORD97":178232.23999999999,"N_COORD97":2552759,"ADDRESS":"南港街１７號","OBJECTID":623747},"geometry":{"x":178232.24000000209,"y":2552759.0000000019}},{"attributes":{"ID":623775,"DIS_CODE":0,"TOWNNAME":"新市區","LI":"新市里","LIN":"8鄰","STREET":"中正路","SECT":" ","MAREA":" ","LANE":" ","ALLEY":" ","HOUSE_NO":"２６７之３號","E_COORD97":177520.29000000001,"N_COORD97":2553215.2999999998,"ADDRESS":"中正路２６７之３號","OBJECTID":623748},"geometry":{"x":177520.29000000097,"y":2553215.3000000026}},{"attributes":{"ID":623776,"DIS_CODE":0,"TOWNNAME":"新市區","LI":"新市里","LIN":"25鄰","STREET":"民族路","SECT":" ","MAREA":" ","LANE":" ","ALLEY":" ","HOUSE_NO":"１９２號","E_COORD97":177860.20999999999,"N_COORD97":2553284.54,"ADDRESS":"民族路１９２號","OBJECTID":623749},"geometry":{"x":177860.20999999996,"y":2553284.5399999991}},{"attributes":{"ID":623777,"DIS_CODE":0,"TOWNNAME":"新市區","LI":"港墘里","LIN":"26鄰","STREET":"華美街","SECT":" ","MAREA":" ","LANE":" ","ALLEY":" ","HOUSE_NO":"３２號","E_COORD97":178163.32000000001,"N_COORD97":2552919.7999999998,"ADDRESS":"華美街３２號","OBJECTID":623750},"geometry":{"x":178163.3200000003,"y":2552919.8000000026}},{"attributes":{"ID":623778,"DIS_CODE":0,"TOWNNAME":"新市區","LI":"新市里","LIN":"13鄰","STREET":"和平街","SECT":" ","MAREA":" ","LANE":" ","ALLEY":" ","HOUSE_NO":"１１９號","E_COORD97":177514.95000000001,"N_COORD97":2553326.75,"ADDRESS":"和平街１１９號","OBJECTID":623751},"geometry":{"x":177514.95000000019,"y":2553326.7500000019}},{"attributes":{"ID":623779,"DIS_CODE":0,"TOWNNAME":"新市區","LI":"港墘里","LIN":"4鄰","STREET":"三民街","SECT":" ","MAREA":" ","LANE":" ","ALLEY":" ","HOUSE_NO":"８０之１號","E_COORD97":178413.42000000001,"N_COORD97":2553461.0499999998,"ADDRESS":"三民街８０之１號","OBJECTID":623752},"geometry":{"x":178413.41999999993,"y":2553461.0500000026}},{"attributes":{"ID":623780,"DIS_CODE":0,"TOWNNAME":"新市區","LI":"港墘里","LIN":"4鄰","STREET":"三民街","SECT":" ","MAREA":" ","LANE":" ","ALLEY":" ","HOUSE_NO":"１０２號","E_COORD97":178353.12,"N_COORD97":2553488.04,"ADDRESS":"三民街１０２號","OBJECTID":623753},"geometry":{"x":178353.11999999918,"y":2553488.0399999991}},{"attributes":{"ID":623781,"DIS_CODE":0,"TOWNNAME":"新市區","LI":"永就里","LIN":"20鄰","STREET":"永華三街","SECT":" ","MAREA":" ","LANE":" ","ALLEY":" ","HOUSE_NO":"１９號","E_COORD97":177525.54000000001,"N_COORD97":2550993.25,"ADDRESS":"永華三街１９號","OBJECTID":623754},"geometry":{"x":177525.54000000097,"y":2550993.2500000037}},{"attributes":{"ID":623782,"DIS_CODE":0,"TOWNNAME":"新市區","LI":"永就里","LIN":"20鄰","STREET":"永華三街","SECT":" ","MAREA":" ","LANE":" ","ALLEY":" ","HOUSE_NO":"２２號","E_COORD97":177507.42999999999,"N_COORD97":2550998,"ADDRESS":"永華三街２２號","OBJECTID":623755},"geometry":{"x":177507.4299999997,"y":2550997.9999999981}},{"attributes":{"ID":623783,"DIS_CODE":0,"TOWNNAME":"新市區","LI":"港墘里","LIN":"26鄰","STREET":"華美街","SECT":" ","MAREA":" ","LANE":" ","ALLEY":" ","HOUSE_NO":"４６號","E_COORD97":178174.26000000001,"N_COORD97":2552960.0499999998,"ADDRESS":"華美街４６號","OBJECTID":623756},"geometry":{"x":178174.26000000071,"y":2552960.0500000007}},{"attributes":{"ID":623784,"DIS_CODE":0,"TOWNNAME":"安南區","LI":"海東里","LIN":"18鄰","STREET":"海佃路","SECT":"二段","MAREA":" ","LANE":" ","ALLEY":" ","HOUSE_NO":"３２１號","E_COORD97":166780.17000000001,"N_COORD97":2548730.7200000002,"ADDRESS":"海佃路二段３２１號","OBJECTID":623757},"geometry":{"x":166780.17000000086,"y":2548730.7200000025}},{"attributes":{"ID":623785,"DIS_CODE":0,"TOWNNAME":"安南區","LI":"淵東里","LIN":"14鄰","STREET":"仁安一街","SECT":" ","MAREA":" ","LANE":" ","ALLEY":" ","HOUSE_NO":"２７號","E_COORD97":165659.22,"N_COORD97":2550276.0699999998,"ADDRESS":"仁安一街２７號","OBJECTID":623758},"geometry":{"x":165659.22000000067,"y":2550276.070000004}},{"attributes":{"ID":623786,"DIS_CODE":0,"TOWNNAME":"安南區","LI":"頂安里","LIN":"17鄰","STREET":"北安路","SECT":"二段","MAREA":" ","LANE":" ","ALLEY":" ","HOUSE_NO":"４８６號之１５","E_COORD97":168412.92999999999,"N_COORD97":2548403.3500000001,"ADDRESS":"北安路二段４８６號之１５","OBJECTID":623759},"geometry":{"x":168412.9299999997,"y":2548403.3500000015}},{"attributes":{"ID":623787,"DIS_CODE":0,"TOWNNAME":"安南區","LI":"佃東里","LIN":"18鄰","STREET":"公學路","SECT":"三段","MAREA":" ","LANE":" ","ALLEY":" ","HOUSE_NO":"１２０之１號","E_COORD97":166822.29999999999,"N_COORD97":2552184.8500000001,"ADDRESS":"公學路三段１２０之１號","OBJECTID":623760},"geometry":{"x":166822.29999999981,"y":2552184.8499999996}},{"attributes":{"ID":623788,"DIS_CODE":0,"TOWNNAME":"安南區","LI":"溪心里","LIN":"13鄰","STREET":"樂安二街","SECT":" ","MAREA":" ","LANE":" ","ALLEY":" ","HOUSE_NO":"６６號","E_COORD97":165940.59,"N_COORD97":2549728.1899999999,"ADDRESS":"樂安二街６６號","OBJECTID":623761},"geometry":{"x":165940.58999999985,"y":2549728.1899999976}},{"attributes":{"ID":623789,"DIS_CODE":0,"TOWNNAME":"安南區","LI":"新順里","LIN":"13鄰","STREET":"開安路","SECT":" ","MAREA":" ","LANE":" ","ALLEY":" ","HOUSE_NO":"２０號","E_COORD97":170315.26000000001,"N_COORD97":2549539.8500000001,"ADDRESS":"開安路２０號","OBJECTID":623762},"geometry":{"x":170315.26000000071,"y":2549539.8499999996}},{"attributes":{"ID":623790,"DIS_CODE":0,"TOWNNAME":"安南區","LI":"城東里","LIN":"13鄰","STREET":"城北路","SECT":" ","MAREA":" ","LANE":" ","ALLEY":" ","HOUSE_NO":"２０５號","E_COORD97":160975.48999999999,"N_COORD97":2551842.1400000001,"ADDRESS":"城北路２０５號","OBJECTID":623763},"geometry":{"x":160975.49000000115,"y":2551842.1400000043}},{"attributes":{"ID":623791,"DIS_CODE":0,"TOWNNAME":"安南區","LI":"城東里","LIN":"13鄰","STREET":"城北路","SECT":" ","MAREA":" ","LANE":" ","ALLEY":" ","HOUSE_NO":"１８５號","E_COORD97":160973.01000000001,"N_COORD97":2551801.8500000001,"ADDRESS":"城北路１８５號","OBJECTID":623764},"geometry":{"x":160973.01000000071,"y":2551801.8499999996}},{"attributes":{"ID":623792,"DIS_CODE":0,"TOWNNAME":"安南區","LI":"城中里","LIN":"8鄰","STREET":"城安西街","SECT":" ","MAREA":" ","LANE":" ","ALLEY":" ","HOUSE_NO":"６５號","E_COORD97":160671.64550099999,"N_COORD97":2551613.1706699999,"ADDRESS":"城安西街６５號","OBJECTID":623765},"geometry":{"x":160671.64550099988,"y":2551613.170669999}},{"attributes":{"ID":623793,"DIS_CODE":0,"TOWNNAME":"安南區","LI":"佃東里","LIN":"18鄰","STREET":"公學路","SECT":"三段","MAREA":" ","LANE":" ","ALLEY":" ","HOUSE_NO":"２６號","E_COORD97":166905.14999999999,"N_COORD97":2552166.98,"ADDRESS":"公學路三段２６號","OBJECTID":623766},"geometry":{"x":166905.15000000037,"y":2552166.9800000004}},{"attributes":{"ID":623794,"DIS_CODE":0,"TOWNNAME":"安南區","LI":"鳳凰里","LIN":"26鄰","STREET":"同安路","SECT":" ","MAREA":" ","LANE":" ","ALLEY":" ","HOUSE_NO":"４０８號","E_COORD97":167366.66,"N_COORD97":2549436.0299999998,"ADDRESS":"同安路４０８號","OBJECTID":623767},"geometry":{"x":167366.66000000108,"y":2549436.0300000012}},{"attributes":{"ID":623795,"DIS_CODE":0,"TOWNNAME":"安南區","LI":"新順里","LIN":"19鄰","STREET":"安豐六街","SECT":" ","MAREA":" ","LANE":" ","ALLEY":" ","HOUSE_NO":"２４號","E_COORD97":169329.5,"N_COORD97":2549682.2200000002,"ADDRESS":"安豐六街２４號","OBJECTID":623768},"geometry":{"x":169329.50000000093,"y":2549682.2200000044}},{"attributes":{"ID":623796,"DIS_CODE":0,"TOWNNAME":"安南區","LI":"新順里","LIN":"18鄰","STREET":"育安四街","SECT":" ","MAREA":" ","LANE":" ","ALLEY":" ","HOUSE_NO":"２９號","E_COORD97":169678.39999999999,"N_COORD97":2549539.5899999999,"ADDRESS":"育安四街２９號","OBJECTID":623769},"geometry":{"x":169678.40000000037,"y":2549539.5900000036}},{"attributes":{"ID":623797,"DIS_CODE":0,"TOWNNAME":"安南區","LI":"頂安里","LIN":"19鄰","STREET":"北安路","SECT":"三段","MAREA":" ","LANE":" ","ALLEY":" ","HOUSE_NO":"３７８號","E_COORD97":168700.64999999999,"N_COORD97":2549472.9399999999,"ADDRESS":"北安路三段３７８號","OBJECTID":623770},"geometry":{"x":168700.65000000037,"y":2549472.9400000013}},{"attributes":{"ID":623798,"DIS_CODE":0,"TOWNNAME":"安南區","LI":"新順里","LIN":"18鄰","STREET":"安生街","SECT":" ","MAREA":" ","LANE":" ","ALLEY":" ","HOUSE_NO":"４８號","E_COORD97":169632.23000000001,"N_COORD97":2549502.3799999999,"ADDRESS":"安生街４８號","OBJECTID":623771},"geometry":{"x":169632.23000000045,"y":2549502.379999999}},{"attributes":{"ID":623799,"DIS_CODE":0,"TOWNNAME":"安南區","LI":"新順里","LIN":"25鄰","STREET":"培安路","SECT":" ","MAREA":" ","LANE":" ","ALLEY":" ","HOUSE_NO":"２０１號","E_COORD97":169236.17999999999,"N_COORD97":2549189.7200000002,"ADDRESS":"培安路２０１號","OBJECTID":623772},"geometry":{"x":169236.18000000063,"y":2549189.7200000007}},{"attributes":{"ID":623800,"DIS_CODE":0,"TOWNNAME":"安南區","LI":"新順里","LIN":"19鄰","STREET":"培安二街","SECT":" ","MAREA":" ","LANE":" ","ALLEY":" ","HOUSE_NO":"１號","E_COORD97":169377.85999999999,"N_COORD97":2549628.6000000001,"ADDRESS":"培安二街１號","OBJECTID":623773},"geometry":{"x":169377.86000000127,"y":2549628.6000000015}},{"attributes":{"ID":623801,"DIS_CODE":0,"TOWNNAME":"安南區","LI":"新順里","LIN":"24鄰","STREET":"景安街","SECT":" ","MAREA":" ","LANE":" ","ALLEY":" ","HOUSE_NO":"１１２號","E_COORD97":169418.70000000001,"N_COORD97":2549182.1499999999,"ADDRESS":"景安街１１２號","OBJECTID":623774},"geometry":{"x":169418.70000000019,"y":2549182.1500000004}},{"attributes":{"ID":623802,"DIS_CODE":0,"TOWNNAME":"安南區","LI":"新順里","LIN":"24鄰","STREET":"景安街","SECT":" ","MAREA":" ","LANE":" ","ALLEY":" ","HOUSE_NO":"１１６號","E_COORD97":169413.91,"N_COORD97":2549179.7599999998,"ADDRESS":"景安街１１６號","OBJECTID":623775},"geometry":{"x":169413.91000000015,"y":2549179.7600000016}},{"attributes":{"ID":623803,"DIS_CODE":0,"TOWNNAME":"安南區","LI":"新順里","LIN":"24鄰","STREET":"景安街","SECT":" ","MAREA":" ","LANE":" ","ALLEY":" ","HOUSE_NO":"１１８號","E_COORD97":169410.45999999999,"N_COORD97":2549182.4100000001,"ADDRESS":"景安街１１８號","OBJECTID":623776},"geometry":{"x":169410.46000000183,"y":2549182.410000002}},{"attributes":{"ID":623804,"DIS_CODE":0,"TOWNNAME":"安南區","LI":"新順里","LIN":"24鄰","STREET":"景安街","SECT":" ","MAREA":" ","LANE":" ","ALLEY":" ","HOUSE_NO":"１２０號","E_COORD97":169406.20000000001,"N_COORD97":2549179.7599999998,"ADDRESS":"景安街１２０號","OBJECTID":623777},"geometry":{"x":169406.20000000112,"y":2549179.7600000016}},{"attributes":{"ID":623805,"DIS_CODE":0,"TOWNNAME":"安南區","LI":"新順里","LIN":"24鄰","STREET":"景安街","SECT":" ","MAREA":" ","LANE":" ","ALLEY":" ","HOUSE_NO":"１２２號","E_COORD97":169402.75,"N_COORD97":2549182.4100000001,"ADDRESS":"景安街１２２號","OBJECTID":623778},"geometry":{"x":169402.75,"y":2549182.410000002}},{"attributes":{"ID":623806,"DIS_CODE":0,"TOWNNAME":"安南區","LI":"新順里","LIN":"24鄰","STREET":"景安街","SECT":" ","MAREA":" ","LANE":" ","ALLEY":" ","HOUSE_NO":"１２６號","E_COORD97":169398.23999999999,"N_COORD97":2549180.2599999998,"ADDRESS":"景安街１２６號","OBJECTID":623779},"geometry":{"x":169398.24000000022,"y":2549180.2600000016}},{"attributes":{"ID":623807,"DIS_CODE":0,"TOWNNAME":"安南區","LI":"新順里","LIN":"24鄰","STREET":"景安街","SECT":" ","MAREA":" ","LANE":" ","ALLEY":" ","HOUSE_NO":"１２８號","E_COORD97":169393.82000000001,"N_COORD97":2549182.6400000001,"ADDRESS":"景安街１２８號","OBJECTID":623780},"geometry":{"x":169393.82000000123,"y":2549182.6400000006}},{"attributes":{"ID":623808,"DIS_CODE":0,"TOWNNAME":"安南區","LI":"新順里","LIN":"24鄰","STREET":"景安街","SECT":" ","MAREA":" ","LANE":" ","ALLEY":" ","HOUSE_NO":"１３０號","E_COORD97":169388.72,"N_COORD97":2549180.6000000001,"ADDRESS":"景安街１３０號","OBJECTID":623781},"geometry":{"x":169388.72000000067,"y":2549180.6000000015}},{"attributes":{"ID":623809,"DIS_CODE":0,"TOWNNAME":"安南區","LI":"新順里","LIN":"25鄰","STREET":"慶安路","SECT":" ","MAREA":" ","LANE":" ","ALLEY":" ","HOUSE_NO":"９號","E_COORD97":169429.94,"N_COORD97":2549038.1499999999,"ADDRESS":"慶安路９號","OBJECTID":623782},"geometry":{"x":169429.94000000134,"y":2549038.1500000041}},{"attributes":{"ID":623810,"DIS_CODE":0,"TOWNNAME":"安南區","LI":"新順里","LIN":"25鄰","STREET":"興安路","SECT":" ","MAREA":" ","LANE":" ","ALLEY":" ","HOUSE_NO":"９１號","E_COORD97":169394.20999999999,"N_COORD97":2549099.9199999999,"ADDRESS":"興安路９１號","OBJECTID":623783},"geometry":{"x":169394.21000000089,"y":2549099.9199999981}},{"attributes":{"ID":623811,"DIS_CODE":0,"TOWNNAME":"安南區","LI":"新順里","LIN":"25鄰","STREET":"興安路","SECT":" ","MAREA":" ","LANE":" ","ALLEY":" ","HOUSE_NO":"９９號","E_COORD97":169370.14000000001,"N_COORD97":2549104.9900000002,"ADDRESS":"興安路９９號","OBJECTID":623784},"geometry":{"x":169370.1400000006,"y":2549104.9900000021}},{"attributes":{"ID":623812,"DIS_CODE":0,"TOWNNAME":"佳里區","LI":"鎮山里","LIN":"13鄰","STREET":"仁愛路","SECT":" ","MAREA":" ","LANE":" ","ALLEY":" ","HOUSE_NO":"３０７號","E_COORD97":165965.17000000001,"N_COORD97":2561513.6699999999,"ADDRESS":"仁愛路３０７號","OBJECTID":623785},"geometry":{"x":165965.16999999993,"y":2561513.6699999999}},{"attributes":{"ID":623813,"DIS_CODE":0,"TOWNNAME":"佳里區","LI":"六安里","LIN":"4鄰","STREET":"六安街","SECT":" ","MAREA":" ","LANE":" ","ALLEY":" ","HOUSE_NO":"７６號","E_COORD97":166161.97,"N_COORD97":2563038.9700000002,"ADDRESS":"六安街７６號","OBJECTID":623786},"geometry":{"x":166161.96999999881,"y":2563038.9700000025}},{"attributes":{"ID":623814,"DIS_CODE":0,"TOWNNAME":"東區","LI":"自強里","LIN":"19鄰","STREET":"中華東路","SECT":"二段","MAREA":" ","LANE":" ","ALLEY":" ","HOUSE_NO":"２３７號","E_COORD97":171224.70000000001,"N_COORD97":2542658.5499999998,"ADDRESS":"中華東路二段２３７號","OBJECTID":623787},"geometry":{"x":171224.70000000112,"y":2542658.5500000045}},{"attributes":{"ID":623815,"DIS_CODE":0,"TOWNNAME":"東區","LI":"自強里","LIN":"19鄰","STREET":"中華東路","SECT":"二段","MAREA":" ","LANE":" ","ALLEY":" ","HOUSE_NO":"２０５號","E_COORD97":171282.97,"N_COORD97":2542729.5899999999,"ADDRESS":"中華東路二段２０５號","OBJECTID":623788},"geometry":{"x":171282.96999999974,"y":2542729.5900000017}},{"attributes":{"ID":623816,"DIS_CODE":0,"TOWNNAME":"東區","LI":"自強里","LIN":"19鄰","STREET":"中華東路","SECT":"二段","MAREA":" ","LANE":" ","ALLEY":" ","HOUSE_NO":"２０７號","E_COORD97":171277.89999999999,"N_COORD97":2542723.9100000001,"ADDRESS":"中華東路二段２０７號","OBJECTID":623789},"geometry":{"x":171277.9000000013,"y":2542723.910000002}},{"attributes":{"ID":623817,"DIS_CODE":0,"TOWNNAME":"東區","LI":"自強里","LIN":"19鄰","STREET":"中華東路","SECT":"二段","MAREA":" ","LANE":" ","ALLEY":" ","HOUSE_NO":"２０９號","E_COORD97":171275.26000000001,"N_COORD97":2542721.0699999998,"ADDRESS":"中華東路二段２０９號","OBJECTID":623790},"geometry":{"x":171275.26000000071,"y":2542721.0700000003}},{"attributes":{"ID":623818,"DIS_CODE":0,"TOWNNAME":"東區","LI":"自強里","LIN":"19鄰","STREET":"中華東路","SECT":"二段","MAREA":" ","LANE":" ","ALLEY":" ","HOUSE_NO":"２１１號","E_COORD97":171272.62,"N_COORD97":2542717.02,"ADDRESS":"中華東路二段２１１號","OBJECTID":623791},"geometry":{"x":171272.62000000104,"y":2542717.0199999996}},{"attributes":{"ID":623819,"DIS_CODE":0,"TOWNNAME":"東區","LI":"自強里","LIN":"19鄰","STREET":"中華東路","SECT":"二段","MAREA":" ","LANE":" ","ALLEY":" ","HOUSE_NO":"２１３號","E_COORD97":171269.98000000001,"N_COORD97":2542714.79,"ADDRESS":"中華東路二段２１３號","OBJECTID":623792},"geometry":{"x":171269.98000000045,"y":2542714.7899999991}},{"attributes":{"ID":623820,"DIS_CODE":0,"TOWNNAME":"東區","LI":"自強里","LIN":"19鄰","STREET":"中華東路","SECT":"二段","MAREA":" ","LANE":" ","ALLEY":" ","HOUSE_NO":"２１５號","E_COORD97":171266.94,"N_COORD97":2542710.73,"ADDRESS":"中華東路二段２１５號","OBJECTID":623793},"geometry":{"x":171266.94000000041,"y":2542710.7300000004}},{"attributes":{"ID":623821,"DIS_CODE":0,"TOWNNAME":"東區","LI":"自強里","LIN":"19鄰","STREET":"中華東路","SECT":"二段","MAREA":" ","LANE":" ","ALLEY":" ","HOUSE_NO":"２１７號","E_COORD97":171264.91,"N_COORD97":2542707.6899999999,"ADDRESS":"中華東路二段２１７號","OBJECTID":623794},"geometry":{"x":171264.91000000015,"y":2542707.6900000013}},{"attributes":{"ID":623822,"DIS_CODE":0,"TOWNNAME":"東區","LI":"自強里","LIN":"19鄰","STREET":"中華東路","SECT":"二段","MAREA":" ","LANE":" ","ALLEY":" ","HOUSE_NO":"２１９號","E_COORD97":171261.25,"N_COORD97":2542702.8300000001,"ADDRESS":"中華東路二段２１９號","OBJECTID":623795},"geometry":{"x":171261.25000000186,"y":2542702.8300000001}},{"attributes":{"ID":623823,"DIS_CODE":0,"TOWNNAME":"東區","LI":"自強里","LIN":"19鄰","STREET":"中華東路","SECT":"二段","MAREA":" ","LANE":" ","ALLEY":" ","HOUSE_NO":"２３１號","E_COORD97":171243.19,"N_COORD97":2542680.3300000001,"ADDRESS":"中華東路二段２３１號","OBJECTID":623796},"geometry":{"x":171243.19000000041,"y":2542680.3300000019}},{"attributes":{"ID":623824,"DIS_CODE":0,"TOWNNAME":"佳里區","LI":"六安里","LIN":"4鄰","STREET":"六安街","SECT":" ","MAREA":" ","LANE":" ","ALLEY":" ","HOUSE_NO":"７４號","E_COORD97":166162.03,"N_COORD97":2563034.9700000002,"ADDRESS":"六安街７４號","OBJECTID":623797},"geometry":{"x":166162.03000000026,"y":2563034.9700000044}},{"attributes":{"ID":623825,"DIS_CODE":0,"TOWNNAME":"佳里區","LI":"鎮山里","LIN":"1鄰","STREET":"四安街","SECT":" ","MAREA":" ","LANE":" ","ALLEY":" ","HOUSE_NO":"２２號","E_COORD97":165862.92999999999,"N_COORD97":2561863.7799999998,"ADDRESS":"四安街２２號","OBJECTID":623798},"geometry":{"x":165862.93000000063,"y":2561863.7799999993}},{"attributes":{"ID":623826,"DIS_CODE":0,"TOWNNAME":"佳里區","LI":"六安里","LIN":"4鄰","STREET":"六安街","SECT":" ","MAREA":" ","LANE":" ","ALLEY":" ","HOUSE_NO":"１０４號之１","E_COORD97":166143.76999999999,"N_COORD97":2563124.1600000001,"ADDRESS":"六安街１０４號之１","OBJECTID":623799},"geometry":{"x":166143.76999999955,"y":2563124.1600000001}},{"attributes":{"ID":623827,"DIS_CODE":0,"TOWNNAME":"佳里區","LI":"六安里","LIN":"4鄰","STREET":"六安街","SECT":" ","MAREA":" ","LANE":" ","ALLEY":" ","HOUSE_NO":"１０４號","E_COORD97":166169.03,"N_COORD97":2563111.98,"ADDRESS":"六安街１０４號","OBJECTID":623800},"geometry":{"x":166169.03000000212,"y":2563111.9800000004}}]}