{"displayFieldName":"TOWNNAME","fieldAliases":{"ID":"ID","DIS_CODE":"DIS_CODE","TOWNNAME":"TOWNNAME","LI":"LI","LIN":"LIN","STREET":"STREET","SECT":"SECT","MAREA":"MAREA","LANE":"LANE","ALLEY":"ALLEY","HOUSE_NO":"HOUSE_NO","E_COORD97":"E_COORD97","N_COORD97":"N_COORD97","ADDRESS":"ADDRESS","OBJECTID":"OBJECTID"},"geometryType":"esriGeometryPoint","spatialReference":{"wkid":102443,"latestWkid":3826},"fields":[{"name":"ID","type":"esriFieldTypeDouble","alias":"ID"},{"name":"DIS_CODE","type":"esriFieldTypeInteger","alias":"DIS_CODE"},{"name":"TOWNNAME","type":"esriFieldTypeString","alias":"TOWNNAME","length":8},{"name":"LI","type":"esriFieldTypeString","alias":"LI","length":8},{"name":"LIN","type":"esriFieldTypeString","alias":"LIN","length":12},{"name":"STREET","type":"esriFieldTypeString","alias":"STREET","length":20},{"name":"SECT","type":"esriFieldTypeString","alias":"SECT","length":8},{"name":"MAREA","type":"esriFieldTypeString","alias":"MAREA","length":12},{"name":"LANE","type":"esriFieldTypeString","alias":"LANE","length":10},{"name":"ALLEY","type":"esriFieldTypeString","alias":"ALLEY","length":10},{"name":"HOUSE_NO","type":"esriFieldTypeString","alias":"HOUSE_NO","length":20},{"name":"E_COORD97","type":"esriFieldTypeDouble","alias":"E_COORD97"},{"name":"N_COORD97","type":"esriFieldTypeDouble","alias":"N_COORD97"},{"name":"ADDRESS","type":"esriFieldTypeString","alias":"ADDRESS","length":50},{"name":"OBJECTID","type":"esriFieldTypeOID","alias":"OBJECTID"}],"features":[{"attributes":{"ID":33601,"DIS_CODE":0,"TOWNNAME":"安定區","LI":"保西里","LIN":"7鄰","STREET":" ","SECT":" ","MAREA":"安定","LANE":" ","ALLEY":" ","HOUSE_NO":"３９０號之４","E_COORD97":171631.28,"N_COORD97":2557750.3199999998,"ADDRESS":"安定３９０號之４","OBJECTID":33601},"geometry":{"x":171631.28000000119,"y":2557750.3200000022}},{"attributes":{"ID":33602,"DIS_CODE":0,"TOWNNAME":"安定區","LI":"六嘉里","LIN":"7鄰","STREET":" ","SECT":" ","MAREA":"六塊寮","LANE":" ","ALLEY":" ","HOUSE_NO":"６３號之２１","E_COORD97":170212.79999999999,"N_COORD97":2553290.2999999998,"ADDRESS":"六塊寮６３號之２１","OBJECTID":33602},"geometry":{"x":170212.79999999981,"y":2553290.3000000026}},{"attributes":{"ID":33603,"DIS_CODE":0,"TOWNNAME":"安定區","LI":"港口里","LIN":"7鄰","STREET":" ","SECT":" ","MAREA":"港口","LANE":" ","ALLEY":" ","HOUSE_NO":"２８４之５號","E_COORD97":171491.89000000001,"N_COORD97":2554652.2999999998,"ADDRESS":"港口２８４之５號","OBJECTID":33603},"geometry":{"x":171491.88999999966,"y":2554652.3000000026}},{"attributes":{"ID":33604,"DIS_CODE":0,"TOWNNAME":"安定區","LI":"安定里","LIN":"7鄰","STREET":" ","SECT":" ","MAREA":"安定","LANE":" ","ALLEY":" ","HOUSE_NO":"４７之２號","E_COORD97":171981.47,"N_COORD97":2557943.3199999998,"ADDRESS":"安定４７之２號","OBJECTID":33604},"geometry":{"x":171981.46999999974,"y":2557943.320000004}},{"attributes":{"ID":33605,"DIS_CODE":0,"TOWNNAME":"安定區","LI":"新吉里","LIN":"7鄰","STREET":" ","SECT":" ","MAREA":"新吉","LANE":" ","ALLEY":" ","HOUSE_NO":"５６之１４０號","E_COORD97":168441.47,"N_COORD97":2553640.2999999998,"ADDRESS":"新吉５６之１４０號","OBJECTID":33605},"geometry":{"x":168441.46999999974,"y":2553640.3000000007}},{"attributes":{"ID":33606,"DIS_CODE":0,"TOWNNAME":"安定區","LI":"新吉里","LIN":"7鄰","STREET":" ","SECT":" ","MAREA":"新吉","LANE":" ","ALLEY":" ","HOUSE_NO":"５９之４號","E_COORD97":168998.57000000001,"N_COORD97":2553884.2999999998,"ADDRESS":"新吉５９之４號","OBJECTID":33606},"geometry":{"x":168998.57000000123,"y":2553884.3000000007}},{"attributes":{"ID":33607,"DIS_CODE":0,"TOWNNAME":"安定區","LI":"六嘉里","LIN":"7鄰","STREET":" ","SECT":" ","MAREA":"六塊寮","LANE":" ","ALLEY":" ","HOUSE_NO":"６３號之１２","E_COORD97":170203.23999999999,"N_COORD97":2553301.2999999998,"ADDRESS":"六塊寮６３號之１２","OBJECTID":33607},"geometry":{"x":170203.24000000022,"y":2553301.3000000007}},{"attributes":{"ID":33608,"DIS_CODE":0,"TOWNNAME":"新市區","LI":"豐華里","LIN":"7鄰","STREET":" ","SECT":" ","MAREA":"豐華","LANE":" ","ALLEY":" ","HOUSE_NO":"６１之１號","E_COORD97":175111.34,"N_COORD97":2553870.0499999998,"ADDRESS":"豐華６１之１號","OBJECTID":33608},"geometry":{"x":175111.33999999985,"y":2553870.0500000007}},{"attributes":{"ID":33609,"DIS_CODE":0,"TOWNNAME":"新市區","LI":"豐華里","LIN":"7鄰","STREET":" ","SECT":" ","MAREA":"豐華","LANE":" ","ALLEY":" ","HOUSE_NO":"６４之２號","E_COORD97":175519.64999999999,"N_COORD97":2554241.0499999998,"ADDRESS":"豐華６４之２號","OBJECTID":33609},"geometry":{"x":175519.6500000013,"y":2554241.0500000026}},{"attributes":{"ID":33610,"DIS_CODE":0,"TOWNNAME":"新市區","LI":"豐華里","LIN":"7鄰","STREET":" ","SECT":" ","MAREA":"豐華","LANE":" ","ALLEY":" ","HOUSE_NO":"６２之１０號","E_COORD97":175174.07000000001,"N_COORD97":2553744.0499999998,"ADDRESS":"豐華６２之１０號","OBJECTID":33610},"geometry":{"x":175174.07000000123,"y":2553744.0500000007}},{"attributes":{"ID":33611,"DIS_CODE":0,"TOWNNAME":"新市區","LI":"豐華里","LIN":"7鄰","STREET":" ","SECT":" ","MAREA":"豐華","LANE":" ","ALLEY":" ","HOUSE_NO":"６２之２號","E_COORD97":175111.76000000001,"N_COORD97":2553833.2999999998,"ADDRESS":"豐華６２之２號","OBJECTID":33611},"geometry":{"x":175111.75999999978,"y":2553833.3000000007}},{"attributes":{"ID":33612,"DIS_CODE":0,"TOWNNAME":"新市區","LI":"潭頂里","LIN":"7鄰","STREET":" ","SECT":" ","MAREA":"潭頂","LANE":" ","ALLEY":" ","HOUSE_NO":"２８４號","E_COORD97":180737.64000000001,"N_COORD97":2552847.75,"ADDRESS":"潭頂２８４號","OBJECTID":33612},"geometry":{"x":180737.63999999873,"y":2552847.7500000037}},{"attributes":{"ID":33613,"DIS_CODE":0,"TOWNNAME":"新市區","LI":"潭頂里","LIN":"7鄰","STREET":" ","SECT":" ","MAREA":"潭頂","LANE":" ","ALLEY":" ","HOUSE_NO":"２６８號","E_COORD97":180803.26000000001,"N_COORD97":2552911,"ADDRESS":"潭頂２６８號","OBJECTID":33613},"geometry":{"x":180803.26000000164,"y":2552911.0000000019}},{"attributes":{"ID":33614,"DIS_CODE":0,"TOWNNAME":"新市區","LI":"潭頂里","LIN":"7鄰","STREET":" ","SECT":" ","MAREA":"潭頂","LANE":" ","ALLEY":" ","HOUSE_NO":"２７７號","E_COORD97":180744.39999999999,"N_COORD97":2552899.75,"ADDRESS":"潭頂２７７號","OBJECTID":33614},"geometry":{"x":180744.40000000037,"y":2552899.7500000019}},{"attributes":{"ID":33615,"DIS_CODE":0,"TOWNNAME":"新市區","LI":"豐華里","LIN":"7鄰","STREET":" ","SECT":" ","MAREA":"豐華","LANE":" ","ALLEY":" ","HOUSE_NO":"５８之３號","E_COORD97":175089.29000000001,"N_COORD97":2553893.5499999998,"ADDRESS":"豐華５８之３號","OBJECTID":33615},"geometry":{"x":175089.29000000097,"y":2553893.5500000007}},{"attributes":{"ID":33616,"DIS_CODE":0,"TOWNNAME":"新市區","LI":"豐華里","LIN":"7鄰","STREET":" ","SECT":" ","MAREA":"豐華","LANE":" ","ALLEY":" ","HOUSE_NO":"６３之２號","E_COORD97":175487.45000000001,"N_COORD97":2554122.0499999998,"ADDRESS":"豐華６３之２號","OBJECTID":33616},"geometry":{"x":175487.45000000019,"y":2554122.0500000026}},{"attributes":{"ID":33617,"DIS_CODE":0,"TOWNNAME":"新市區","LI":"潭頂里","LIN":"7鄰","STREET":" ","SECT":" ","MAREA":"潭頂","LANE":" ","ALLEY":" ","HOUSE_NO":"２７９號","E_COORD97":180743.79000000001,"N_COORD97":2552883.25,"ADDRESS":"潭頂２７９號","OBJECTID":33617},"geometry":{"x":180743.78999999911,"y":2552883.2500000019}},{"attributes":{"ID":33618,"DIS_CODE":0,"TOWNNAME":"新市區","LI":"潭頂里","LIN":"7鄰","STREET":" ","SECT":" ","MAREA":"潭頂","LANE":" ","ALLEY":" ","HOUSE_NO":"２９０號","E_COORD97":180771.78,"N_COORD97":2552812.5,"ADDRESS":"潭頂２９０號","OBJECTID":33618},"geometry":{"x":180771.78000000119,"y":2552812.5000000019}},{"attributes":{"ID":33619,"DIS_CODE":0,"TOWNNAME":"新市區","LI":"豐華里","LIN":"7鄰","STREET":" ","SECT":" ","MAREA":"豐華","LANE":" ","ALLEY":" ","HOUSE_NO":"６３之５號","E_COORD97":175505.51999999999,"N_COORD97":2554122.0499999998,"ADDRESS":"豐華６３之５號","OBJECTID":33619},"geometry":{"x":175505.52000000142,"y":2554122.0500000026}},{"attributes":{"ID":33620,"DIS_CODE":0,"TOWNNAME":"新市區","LI":"豐華里","LIN":"7鄰","STREET":" ","SECT":" ","MAREA":"豐華","LANE":" ","ALLEY":" ","HOUSE_NO":"６４號","E_COORD97":175520.54000000001,"N_COORD97":2554219.5,"ADDRESS":"豐華６４號","OBJECTID":33620},"geometry":{"x":175520.54000000004,"y":2554219.5000000019}},{"attributes":{"ID":33621,"DIS_CODE":0,"TOWNNAME":"新市區","LI":"潭頂里","LIN":"7鄰","STREET":" ","SECT":" ","MAREA":"潭頂","LANE":" ","ALLEY":" ","HOUSE_NO":"２８１之１號","E_COORD97":180761.09,"N_COORD97":2552851.7999999998,"ADDRESS":"潭頂２８１之１號","OBJECTID":33621},"geometry":{"x":180761.09000000078,"y":2552851.8000000045}},{"attributes":{"ID":33622,"DIS_CODE":0,"TOWNNAME":"新市區","LI":"豐華里","LIN":"7鄰","STREET":" ","SECT":" ","MAREA":"豐華","LANE":" ","ALLEY":" ","HOUSE_NO":"５６之１號","E_COORD97":175216.04000000001,"N_COORD97":2553990.0499999998,"ADDRESS":"豐華５６之１號","OBJECTID":33622},"geometry":{"x":175216.04000000097,"y":2553990.0500000026}},{"attributes":{"ID":33623,"DIS_CODE":0,"TOWNNAME":"新市區","LI":"潭頂里","LIN":"7鄰","STREET":" ","SECT":" ","MAREA":"潭頂","LANE":" ","ALLEY":" ","HOUSE_NO":"２９８之６０號","E_COORD97":180649.5,"N_COORD97":2552136.0499999998,"ADDRESS":"潭頂２９８之６０號","OBJECTID":33623},"geometry":{"x":180649.50000000093,"y":2552136.0500000026}},{"attributes":{"ID":33624,"DIS_CODE":0,"TOWNNAME":"新市區","LI":"潭頂里","LIN":"7鄰","STREET":" ","SECT":" ","MAREA":"潭頂","LANE":" ","ALLEY":" ","HOUSE_NO":"２７１號","E_COORD97":180780.06,"N_COORD97":2552901.25,"ADDRESS":"潭頂２７１號","OBJECTID":33624},"geometry":{"x":180780.05999999959,"y":2552901.25}},{"attributes":{"ID":33625,"DIS_CODE":0,"TOWNNAME":"新市區","LI":"潭頂里","LIN":"7鄰","STREET":" ","SECT":" ","MAREA":"潭頂","LANE":" ","ALLEY":" ","HOUSE_NO":"２７８之６號","E_COORD97":180718.19,"N_COORD97":2552889.0499999998,"ADDRESS":"潭頂２７８之６號","OBJECTID":33625},"geometry":{"x":180718.19000000134,"y":2552889.0500000007}},{"attributes":{"ID":33626,"DIS_CODE":0,"TOWNNAME":"新市區","LI":"潭頂里","LIN":"7鄰","STREET":" ","SECT":" ","MAREA":"潭頂","LANE":" ","ALLEY":" ","HOUSE_NO":"３０３號","E_COORD97":180724.75,"N_COORD97":2552865.75,"ADDRESS":"潭頂３０３號","OBJECTID":33626},"geometry":{"x":180724.75,"y":2552865.7500000019}},{"attributes":{"ID":33627,"DIS_CODE":0,"TOWNNAME":"新市區","LI":"豐華里","LIN":"7鄰","STREET":" ","SECT":" ","MAREA":"豐華","LANE":" ","ALLEY":" ","HOUSE_NO":"５８之１２號","E_COORD97":175037.17999999999,"N_COORD97":2553867.5499999998,"ADDRESS":"豐華５８之１２號","OBJECTID":33627},"geometry":{"x":175037.18000000063,"y":2553867.5500000026}},{"attributes":{"ID":33628,"DIS_CODE":0,"TOWNNAME":"北區","LI":"成德里","LIN":"8鄰","STREET":"西門路","SECT":"四段","MAREA":" ","LANE":"６５巷","ALLEY":"１３０弄","HOUSE_NO":"３２號","E_COORD97":168447.95999999999,"N_COORD97":2545559.48,"ADDRESS":"西門路四段６５巷１３０弄３２號","OBJECTID":33628},"geometry":{"x":168447.96000000089,"y":2545559.4800000004}},{"attributes":{"ID":33629,"DIS_CODE":0,"TOWNNAME":"北區","LI":"成德里","LIN":"8鄰","STREET":"西門路","SECT":"四段","MAREA":" ","LANE":"６５巷","ALLEY":"１３０弄","HOUSE_NO":"３６號","E_COORD97":168447.79999999999,"N_COORD97":2545554.2400000002,"ADDRESS":"西門路四段６５巷１３０弄３６號","OBJECTID":33629},"geometry":{"x":168447.79999999981,"y":2545554.2400000002}},{"attributes":{"ID":33630,"DIS_CODE":0,"TOWNNAME":"北區","LI":"成德里","LIN":"8鄰","STREET":"西門路","SECT":"四段","MAREA":" ","LANE":"６５巷","ALLEY":"１３０弄","HOUSE_NO":"３８號","E_COORD97":168447.64000000001,"N_COORD97":2545548.6899999999,"ADDRESS":"西門路四段６５巷１３０弄３８號","OBJECTID":33630},"geometry":{"x":168447.64000000153,"y":2545548.6900000013}},{"attributes":{"ID":33631,"DIS_CODE":0,"TOWNNAME":"北區","LI":"大豐里","LIN":"8鄰","STREET":"文賢路","SECT":" ","MAREA":" ","LANE":"３１３巷","ALLEY":"３４弄","HOUSE_NO":"１４號","E_COORD97":167232.17999999999,"N_COORD97":2545313.8199999998,"ADDRESS":"文賢路３１３巷３４弄１４號","OBJECTID":33631},"geometry":{"x":167232.18000000063,"y":2545313.8200000003}},{"attributes":{"ID":33632,"DIS_CODE":0,"TOWNNAME":"北區","LI":"大豐里","LIN":"8鄰","STREET":"文賢路","SECT":" ","MAREA":" ","LANE":"３１３巷","ALLEY":"３４弄","HOUSE_NO":"２２號","E_COORD97":167235.56,"N_COORD97":2545331.2200000002,"ADDRESS":"文賢路３１３巷３４弄２２號","OBJECTID":33632},"geometry":{"x":167235.55999999959,"y":2545331.2200000007}},{"attributes":{"ID":33633,"DIS_CODE":0,"TOWNNAME":"北區","LI":"大豐里","LIN":"8鄰","STREET":"文賢路","SECT":" ","MAREA":" ","LANE":"３１３巷","ALLEY":"３４弄","HOUSE_NO":"１２號","E_COORD97":167233.22,"N_COORD97":2545308.6200000001,"ADDRESS":"文賢路３１３巷３４弄１２號","OBJECTID":33633},"geometry":{"x":167233.21999999974,"y":2545308.620000001}},{"attributes":{"ID":33634,"DIS_CODE":0,"TOWNNAME":"北區","LI":"重興里","LIN":"8鄰","STREET":"東豐路","SECT":" ","MAREA":" ","LANE":"４５１巷","ALLEY":"１弄","HOUSE_NO":"１２號","E_COORD97":170761.91,"N_COORD97":2544785.5299999998,"ADDRESS":"東豐路４５１巷１弄１２號","OBJECTID":33634},"geometry":{"x":170761.91000000201,"y":2544785.5299999993}},{"attributes":{"ID":33635,"DIS_CODE":0,"TOWNNAME":"北區","LI":"重興里","LIN":"8鄰","STREET":"東豐路","SECT":" ","MAREA":" ","LANE":"４５１巷","ALLEY":"１弄","HOUSE_NO":"１４號","E_COORD97":170758.01000000001,"N_COORD97":2544788.1299999999,"ADDRESS":"東豐路４５１巷１弄１４號","OBJECTID":33635},"geometry":{"x":170758.01000000071,"y":2544788.129999999}},{"attributes":{"ID":33636,"DIS_CODE":0,"TOWNNAME":"北區","LI":"重興里","LIN":"8鄰","STREET":"東豐路","SECT":" ","MAREA":" ","LANE":"４５１巷","ALLEY":"１弄","HOUSE_NO":"１６號","E_COORD97":170755.10999999999,"N_COORD97":2544791.1200000001,"ADDRESS":"東豐路４５１巷１弄１６號","OBJECTID":33636},"geometry":{"x":170755.11000000034,"y":2544791.1200000029}},{"attributes":{"ID":33637,"DIS_CODE":0,"TOWNNAME":"北區","LI":"重興里","LIN":"8鄰","STREET":"東豐路","SECT":" ","MAREA":" ","LANE":"４５１巷","ALLEY":"１弄","HOUSE_NO":"１８號","E_COORD97":170751.31,"N_COORD97":2544794.1200000001,"ADDRESS":"東豐路４５１巷１弄１８號","OBJECTID":33637},"geometry":{"x":170751.30999999959,"y":2544794.1200000048}},{"attributes":{"ID":33638,"DIS_CODE":0,"TOWNNAME":"北區","LI":"重興里","LIN":"8鄰","STREET":"東豐路","SECT":" ","MAREA":" ","LANE":"４５１巷","ALLEY":"１弄","HOUSE_NO":"１號","E_COORD97":170733.79000000001,"N_COORD97":2544779.7799999998,"ADDRESS":"東豐路４５１巷１弄１號","OBJECTID":33638},"geometry":{"x":170733.7900000019,"y":2544779.7799999993}},{"attributes":{"ID":33639,"DIS_CODE":0,"TOWNNAME":"北區","LI":"重興里","LIN":"8鄰","STREET":"東豐路","SECT":" ","MAREA":" ","LANE":"４５１巷","ALLEY":"１弄","HOUSE_NO":"２０號","E_COORD97":170747.31,"N_COORD97":2544797.7200000002,"ADDRESS":"東豐路４５１巷１弄２０號","OBJECTID":33639},"geometry":{"x":170747.31000000052,"y":2544797.7200000025}},{"attributes":{"ID":33640,"DIS_CODE":0,"TOWNNAME":"北區","LI":"重興里","LIN":"8鄰","STREET":"東豐路","SECT":" ","MAREA":" ","LANE":"４５１巷","ALLEY":"１弄","HOUSE_NO":"２２號","E_COORD97":170742.81,"N_COORD97":2544800.6099999999,"ADDRESS":"東豐路４５１巷１弄２２號","OBJECTID":33640},"geometry":{"x":170742.80999999959,"y":2544800.6100000013}},{"attributes":{"ID":33641,"DIS_CODE":0,"TOWNNAME":"北區","LI":"重興里","LIN":"8鄰","STREET":"東豐路","SECT":" ","MAREA":" ","LANE":"４５１巷","ALLEY":"１弄","HOUSE_NO":"２４號","E_COORD97":170738.81,"N_COORD97":2544802.71,"ADDRESS":"東豐路４５１巷１弄２４號","OBJECTID":33641},"geometry":{"x":170738.81000000052,"y":2544802.7100000009}},{"attributes":{"ID":33642,"DIS_CODE":0,"TOWNNAME":"北區","LI":"重興里","LIN":"8鄰","STREET":"東豐路","SECT":" ","MAREA":" ","LANE":"４５１巷","ALLEY":"１弄","HOUSE_NO":"２６號","E_COORD97":170735.32000000001,"N_COORD97":2544806.21,"ADDRESS":"東豐路４５１巷１弄２６號","OBJECTID":33642},"geometry":{"x":170735.3200000003,"y":2544806.2100000009}},{"attributes":{"ID":33643,"DIS_CODE":0,"TOWNNAME":"北區","LI":"重興里","LIN":"8鄰","STREET":"東豐路","SECT":" ","MAREA":" ","LANE":"４５１巷","ALLEY":"１弄","HOUSE_NO":"２８號","E_COORD97":170731.62,"N_COORD97":2544808.6000000001,"ADDRESS":"東豐路４５１巷１弄２８號","OBJECTID":33643},"geometry":{"x":170731.62000000197,"y":2544808.5999999996}},{"attributes":{"ID":33644,"DIS_CODE":0,"TOWNNAME":"北區","LI":"重興里","LIN":"8鄰","STREET":"東豐路","SECT":" ","MAREA":" ","LANE":"４５１巷","ALLEY":"１弄","HOUSE_NO":"２號","E_COORD97":170780.39000000001,"N_COORD97":2544771.9399999999,"ADDRESS":"東豐路４５１巷１弄２號","OBJECTID":33644},"geometry":{"x":170780.3900000006,"y":2544771.9399999995}},{"attributes":{"ID":33645,"DIS_CODE":0,"TOWNNAME":"北區","LI":"重興里","LIN":"8鄰","STREET":"東豐路","SECT":" ","MAREA":" ","LANE":"４５１巷","ALLEY":"１弄","HOUSE_NO":"３０號","E_COORD97":170728.42000000001,"N_COORD97":2544811.7000000002,"ADDRESS":"東豐路４５１巷１弄３０號","OBJECTID":33645},"geometry":{"x":170728.42000000086,"y":2544811.6999999993}},{"attributes":{"ID":33646,"DIS_CODE":0,"TOWNNAME":"東區","LI":"忠孝里","LIN":"14鄰","STREET":"榮譽街","SECT":" ","MAREA":" ","LANE":" ","ALLEY":" ","HOUSE_NO":"１１５號三樓","E_COORD97":169853.32999999999,"N_COORD97":2541756.6200000001,"ADDRESS":"榮譽街１１５號三樓","OBJECTID":33646},"geometry":{"x":169853.33000000007,"y":2541756.6200000048}},{"attributes":{"ID":33647,"DIS_CODE":0,"TOWNNAME":"新市區","LI":"潭頂里","LIN":"7鄰","STREET":" ","SECT":" ","MAREA":"潭頂","LANE":" ","ALLEY":" ","HOUSE_NO":"２９５之１號","E_COORD97":180743.81,"N_COORD97":2552788.0499999998,"ADDRESS":"潭頂２９５之１號","OBJECTID":33647},"geometry":{"x":180743.81000000052,"y":2552788.0500000007}},{"attributes":{"ID":33648,"DIS_CODE":0,"TOWNNAME":"新市區","LI":"豐華里","LIN":"7鄰","STREET":" ","SECT":" ","MAREA":"豐華","LANE":" ","ALLEY":" ","HOUSE_NO":"６５之１號","E_COORD97":175577.54000000001,"N_COORD97":2554176.5499999998,"ADDRESS":"豐華６５之１號","OBJECTID":33648},"geometry":{"x":175577.54000000097,"y":2554176.5500000026}},{"attributes":{"ID":33649,"DIS_CODE":0,"TOWNNAME":"新市區","LI":"潭頂里","LIN":"7鄰","STREET":" ","SECT":" ","MAREA":"潭頂","LANE":" ","ALLEY":" ","HOUSE_NO":"２９２之１號","E_COORD97":180781.89999999999,"N_COORD97":2552768.2999999998,"ADDRESS":"潭頂２９２之１號","OBJECTID":33649},"geometry":{"x":180781.90000000037,"y":2552768.3000000026}},{"attributes":{"ID":33650,"DIS_CODE":0,"TOWNNAME":"新市區","LI":"潭頂里","LIN":"7鄰","STREET":" ","SECT":" ","MAREA":"潭頂","LANE":" ","ALLEY":" ","HOUSE_NO":"２９１之１號","E_COORD97":180850.73000000001,"N_COORD97":2552759.2999999998,"ADDRESS":"潭頂２９１之１號","OBJECTID":33650},"geometry":{"x":180850.73000000045,"y":2552759.3000000007}},{"attributes":{"ID":33651,"DIS_CODE":0,"TOWNNAME":"新市區","LI":"豐華里","LIN":"7鄰","STREET":" ","SECT":" ","MAREA":"豐華","LANE":" ","ALLEY":" ","HOUSE_NO":"５７號","E_COORD97":175171.29000000001,"N_COORD97":2553979.5,"ADDRESS":"豐華５７號","OBJECTID":33651},"geometry":{"x":175171.29000000004,"y":2553979.5000000019}},{"attributes":{"ID":33652,"DIS_CODE":0,"TOWNNAME":"新市區","LI":"潭頂里","LIN":"7鄰","STREET":" ","SECT":" ","MAREA":"潭頂","LANE":" ","ALLEY":" ","HOUSE_NO":"２７０之１號","E_COORD97":180792.17000000001,"N_COORD97":2552907.2999999998,"ADDRESS":"潭頂２７０之１號","OBJECTID":33652},"geometry":{"x":180792.17000000179,"y":2552907.3000000026}},{"attributes":{"ID":33653,"DIS_CODE":0,"TOWNNAME":"新市區","LI":"豐華里","LIN":"7鄰","STREET":" ","SECT":" ","MAREA":"豐華","LANE":" ","ALLEY":" ","HOUSE_NO":"６４之１號","E_COORD97":175509.59,"N_COORD97":2554238.5499999998,"ADDRESS":"豐華６４之１號","OBJECTID":33653},"geometry":{"x":175509.58999999985,"y":2554238.5500000007}},{"attributes":{"ID":33654,"DIS_CODE":0,"TOWNNAME":"新市區","LI":"潭頂里","LIN":"7鄰","STREET":" ","SECT":" ","MAREA":"潭頂","LANE":" ","ALLEY":" ","HOUSE_NO":"２７５號","E_COORD97":180759.64999999999,"N_COORD97":2552888,"ADDRESS":"潭頂２７５號","OBJECTID":33654},"geometry":{"x":180759.65000000037,"y":2552888.0000000019}},{"attributes":{"ID":33655,"DIS_CODE":0,"TOWNNAME":"新市區","LI":"潭頂里","LIN":"7鄰","STREET":" ","SECT":" ","MAREA":"潭頂","LANE":" ","ALLEY":" ","HOUSE_NO":"２６６號","E_COORD97":180819.94,"N_COORD97":2552882.5,"ADDRESS":"潭頂２６６號","OBJECTID":33655},"geometry":{"x":180819.94000000134,"y":2552882.5}},{"attributes":{"ID":33656,"DIS_CODE":0,"TOWNNAME":"新市區","LI":"豐華里","LIN":"7鄰","STREET":" ","SECT":" ","MAREA":"豐華","LANE":" ","ALLEY":" ","HOUSE_NO":"６０號","E_COORD97":175041.98000000001,"N_COORD97":2553855.5,"ADDRESS":"豐華６０號","OBJECTID":33656},"geometry":{"x":175041.98000000045,"y":2553855.5}},{"attributes":{"ID":33657,"DIS_CODE":0,"TOWNNAME":"新市區","LI":"豐華里","LIN":"7鄰","STREET":" ","SECT":" ","MAREA":"豐華","LANE":" ","ALLEY":" ","HOUSE_NO":"６１之２號","E_COORD97":175117.04000000001,"N_COORD97":2553877.0499999998,"ADDRESS":"豐華６１之２號","OBJECTID":33657},"geometry":{"x":175117.04000000004,"y":2553877.0500000045}},{"attributes":{"ID":33658,"DIS_CODE":0,"TOWNNAME":"新市區","LI":"潭頂里","LIN":"7鄰","STREET":" ","SECT":" ","MAREA":"潭頂","LANE":" ","ALLEY":" ","HOUSE_NO":"２７１之１號","E_COORD97":180796.31,"N_COORD97":2552876.2999999998,"ADDRESS":"潭頂２７１之１號","OBJECTID":33658},"geometry":{"x":180796.31000000052,"y":2552876.3000000026}},{"attributes":{"ID":33659,"DIS_CODE":0,"TOWNNAME":"新市區","LI":"潭頂里","LIN":"7鄰","STREET":" ","SECT":" ","MAREA":"潭頂","LANE":" ","ALLEY":" ","HOUSE_NO":"２６９號","E_COORD97":180799.22,"N_COORD97":2552909.75,"ADDRESS":"潭頂２６９號","OBJECTID":33659},"geometry":{"x":180799.21999999974,"y":2552909.7500000019}},{"attributes":{"ID":33660,"DIS_CODE":0,"TOWNNAME":"新市區","LI":"豐華里","LIN":"7鄰","STREET":" ","SECT":" ","MAREA":"豐華","LANE":" ","ALLEY":" ","HOUSE_NO":"６１之６號","E_COORD97":175072.60000000001,"N_COORD97":2553808.2999999998,"ADDRESS":"豐華６１之６號","OBJECTID":33660},"geometry":{"x":175072.60000000149,"y":2553808.3000000026}},{"attributes":{"ID":33661,"DIS_CODE":0,"TOWNNAME":"新市區","LI":"豐華里","LIN":"7鄰","STREET":" ","SECT":" ","MAREA":"豐華","LANE":" ","ALLEY":" ","HOUSE_NO":"６３號","E_COORD97":175501.85000000001,"N_COORD97":2554218.5,"ADDRESS":"豐華６３號","OBJECTID":33661},"geometry":{"x":175501.85000000056,"y":2554218.5}},{"attributes":{"ID":33662,"DIS_CODE":0,"TOWNNAME":"新市區","LI":"豐華里","LIN":"7鄰","STREET":" ","SECT":" ","MAREA":"豐華","LANE":" ","ALLEY":" ","HOUSE_NO":"５８號","E_COORD97":175078.92999999999,"N_COORD97":2553890.25,"ADDRESS":"豐華５８號","OBJECTID":33662},"geometry":{"x":175078.93000000156,"y":2553890.25}},{"attributes":{"ID":33663,"DIS_CODE":0,"TOWNNAME":"新市區","LI":"潭頂里","LIN":"7鄰","STREET":" ","SECT":" ","MAREA":"潭頂","LANE":" ","ALLEY":" ","HOUSE_NO":"２９３號","E_COORD97":180766.17000000001,"N_COORD97":2552788.25,"ADDRESS":"潭頂２９３號","OBJECTID":33663},"geometry":{"x":180766.16999999993,"y":2552788.2500000019}},{"attributes":{"ID":33664,"DIS_CODE":0,"TOWNNAME":"新市區","LI":"豐華里","LIN":"7鄰","STREET":" ","SECT":" ","MAREA":"豐華","LANE":" ","ALLEY":" ","HOUSE_NO":"６２之６號","E_COORD97":175167.07000000001,"N_COORD97":2553862.7999999998,"ADDRESS":"豐華６２之６號","OBJECTID":33664},"geometry":{"x":175167.07000000123,"y":2553862.8000000026}},{"attributes":{"ID":33665,"DIS_CODE":0,"TOWNNAME":"新市區","LI":"豐華里","LIN":"7鄰","STREET":" ","SECT":" ","MAREA":"豐華","LANE":" ","ALLEY":" ","HOUSE_NO":"６３之３號","E_COORD97":175627.17000000001,"N_COORD97":2554132.7999999998,"ADDRESS":"豐華６３之３號","OBJECTID":33665},"geometry":{"x":175627.17000000086,"y":2554132.8000000007}},{"attributes":{"ID":33666,"DIS_CODE":0,"TOWNNAME":"新市區","LI":"豐華里","LIN":"7鄰","STREET":" ","SECT":" ","MAREA":"豐華","LANE":" ","ALLEY":" ","HOUSE_NO":"５７之２號","E_COORD97":175183.17999999999,"N_COORD97":2553922.2999999998,"ADDRESS":"豐華５７之２號","OBJECTID":33666},"geometry":{"x":175183.18000000063,"y":2553922.3000000007}},{"attributes":{"ID":33667,"DIS_CODE":0,"TOWNNAME":"新市區","LI":"潭頂里","LIN":"7鄰","STREET":" ","SECT":" ","MAREA":"潭頂","LANE":" ","ALLEY":" ","HOUSE_NO":"２８１號","E_COORD97":180754.54000000001,"N_COORD97":2552857.75,"ADDRESS":"潭頂２８１號","OBJECTID":33667},"geometry":{"x":180754.54000000097,"y":2552857.7500000037}},{"attributes":{"ID":33668,"DIS_CODE":0,"TOWNNAME":"新市區","LI":"豐華里","LIN":"7鄰","STREET":" ","SECT":" ","MAREA":"豐華","LANE":" ","ALLEY":" ","HOUSE_NO":"６３之９號","E_COORD97":175404.09,"N_COORD97":2554206.7999999998,"ADDRESS":"豐華６３之９號","OBJECTID":33668},"geometry":{"x":175404.09000000078,"y":2554206.8000000007}},{"attributes":{"ID":33669,"DIS_CODE":0,"TOWNNAME":"新市區","LI":"潭頂里","LIN":"7鄰","STREET":" ","SECT":" ","MAREA":"潭頂","LANE":" ","ALLEY":" ","HOUSE_NO":"２９０之１號","E_COORD97":180765.89999999999,"N_COORD97":2552813.2999999998,"ADDRESS":"潭頂２９０之１號","OBJECTID":33669},"geometry":{"x":180765.9000000013,"y":2552813.3000000007}},{"attributes":{"ID":33670,"DIS_CODE":0,"TOWNNAME":"新市區","LI":"豐華里","LIN":"7鄰","STREET":" ","SECT":" ","MAREA":"豐華","LANE":" ","ALLEY":" ","HOUSE_NO":"６５之２１號","E_COORD97":175580.13,"N_COORD97":2554212.0499999998,"ADDRESS":"豐華６５之２１號","OBJECTID":33670},"geometry":{"x":175580.13000000082,"y":2554212.0500000007}},{"attributes":{"ID":33671,"DIS_CODE":0,"TOWNNAME":"新市區","LI":"潭頂里","LIN":"7鄰","STREET":" ","SECT":" ","MAREA":"潭頂","LANE":" ","ALLEY":" ","HOUSE_NO":"２９５之２號","E_COORD97":180731.70000000001,"N_COORD97":2552794.7999999998,"ADDRESS":"潭頂２９５之２號","OBJECTID":33671},"geometry":{"x":180731.70000000112,"y":2552794.8000000026}},{"attributes":{"ID":33672,"DIS_CODE":0,"TOWNNAME":"新市區","LI":"三舍里","LIN":"7鄰","STREET":" ","SECT":" ","MAREA":"三舍","LANE":" ","ALLEY":" ","HOUSE_NO":"１７１之１號","E_COORD97":177508.73999999999,"N_COORD97":2554790.46,"ADDRESS":"三舍１７１之１號","OBJECTID":33672},"geometry":{"x":177508.74000000115,"y":2554790.4600000028}},{"attributes":{"ID":33673,"DIS_CODE":0,"TOWNNAME":"新市區","LI":"三舍里","LIN":"7鄰","STREET":" ","SECT":" ","MAREA":"三舍","LANE":" ","ALLEY":" ","HOUSE_NO":"１７１之２號","E_COORD97":177506.39999999999,"N_COORD97":2554795.7400000002,"ADDRESS":"三舍１７１之２號","OBJECTID":33673},"geometry":{"x":177506.4000000013,"y":2554795.7400000021}},{"attributes":{"ID":33674,"DIS_CODE":0,"TOWNNAME":"新市區","LI":"三舍里","LIN":"7鄰","STREET":" ","SECT":" ","MAREA":"三舍","LANE":" ","ALLEY":" ","HOUSE_NO":"１７１號","E_COORD97":177508.42000000001,"N_COORD97":2554785.25,"ADDRESS":"三舍１７１號","OBJECTID":33674},"geometry":{"x":177508.41999999899,"y":2554785.2500000019}},{"attributes":{"ID":33675,"DIS_CODE":0,"TOWNNAME":"新市區","LI":"港墘里","LIN":"7鄰","STREET":" ","SECT":" ","MAREA":"店頂","LANE":" ","ALLEY":" ","HOUSE_NO":"２號","E_COORD97":179067.79999999999,"N_COORD97":2553127.3599999999,"ADDRESS":"店頂２號","OBJECTID":33675},"geometry":{"x":179067.80000000075,"y":2553127.3599999994}},{"attributes":{"ID":33676,"DIS_CODE":0,"TOWNNAME":"新市區","LI":"港墘里","LIN":"7鄰","STREET":" ","SECT":" ","MAREA":"店頂","LANE":" ","ALLEY":" ","HOUSE_NO":"５號","E_COORD97":179081.14999999999,"N_COORD97":2553145.1899999999,"ADDRESS":"店頂５號","OBJECTID":33676},"geometry":{"x":179081.1500000013,"y":2553145.1899999995}},{"attributes":{"ID":33677,"DIS_CODE":0,"TOWNNAME":"新市區","LI":"港墘里","LIN":"7鄰","STREET":" ","SECT":" ","MAREA":"店頂","LANE":" ","ALLEY":" ","HOUSE_NO":"５７號","E_COORD97":179856,"N_COORD97":2553233.6000000001,"ADDRESS":"店頂５７號","OBJECTID":33677},"geometry":{"x":179856.00000000186,"y":2553233.5999999996}},{"attributes":{"ID":33678,"DIS_CODE":0,"TOWNNAME":"新市區","LI":"潭頂里","LIN":"7鄰","STREET":" ","SECT":" ","MAREA":"潭頂","LANE":" ","ALLEY":" ","HOUSE_NO":"２９０之５號","E_COORD97":180796.53,"N_COORD97":2552802.1200000001,"ADDRESS":"潭頂２９０之５號","OBJECTID":33678},"geometry":{"x":180796.53000000026,"y":2552802.1200000048}},{"attributes":{"ID":33679,"DIS_CODE":0,"TOWNNAME":"新市區","LI":"社內里","LIN":"7鄰","STREET":" ","SECT":" ","MAREA":"社內","LANE":" ","ALLEY":" ","HOUSE_NO":"７４之２２號","E_COORD97":176743.35000000001,"N_COORD97":2552878.2599999998,"ADDRESS":"社內７４之２２號","OBJECTID":33679},"geometry":{"x":176743.34999999963,"y":2552878.2600000016}},{"attributes":{"ID":33680,"DIS_CODE":0,"TOWNNAME":"後壁區","LI":"頂安里","LIN":"7鄰","STREET":" ","SECT":" ","MAREA":"頂寮","LANE":" ","ALLEY":" ","HOUSE_NO":"７７號之３","E_COORD97":183857.07999999999,"N_COORD97":2581412.1400000001,"ADDRESS":"頂寮７７號之３","OBJECTID":33680},"geometry":{"x":183857.08000000007,"y":2581412.1400000006}},{"attributes":{"ID":33681,"DIS_CODE":0,"TOWNNAME":"後壁區","LI":"頂安里","LIN":"7鄰","STREET":" ","SECT":" ","MAREA":"頂寮","LANE":" ","ALLEY":" ","HOUSE_NO":"７７號之４","E_COORD97":183859.39000000001,"N_COORD97":2581415.77,"ADDRESS":"頂寮７７號之４","OBJECTID":33681},"geometry":{"x":183859.3900000006,"y":2581415.7700000014}},{"attributes":{"ID":33682,"DIS_CODE":0,"TOWNNAME":"後壁區","LI":"頂安里","LIN":"7鄰","STREET":" ","SECT":" ","MAREA":"頂寮","LANE":" ","ALLEY":" ","HOUSE_NO":"７７號之５","E_COORD97":183861.60999999999,"N_COORD97":2581419.1400000001,"ADDRESS":"頂寮７７號之５","OBJECTID":33682},"geometry":{"x":183861.61000000127,"y":2581419.1400000006}},{"attributes":{"ID":33683,"DIS_CODE":0,"TOWNNAME":"北區","LI":"重興里","LIN":"8鄰","STREET":"東豐路","SECT":" ","MAREA":" ","LANE":"４５１巷","ALLEY":"１弄","HOUSE_NO":"３２號","E_COORD97":170724.22,"N_COORD97":2544814,"ADDRESS":"東豐路４５１巷１弄３２號","OBJECTID":33683},"geometry":{"x":170724.22000000067,"y":2544813.9999999981}},{"attributes":{"ID":33684,"DIS_CODE":0,"TOWNNAME":"北區","LI":"重興里","LIN":"8鄰","STREET":"東豐路","SECT":" ","MAREA":" ","LANE":"４５１巷","ALLEY":"１弄","HOUSE_NO":"３４號","E_COORD97":170720.82000000001,"N_COORD97":2544817.6899999999,"ADDRESS":"東豐路４５１巷１弄３４號","OBJECTID":33684},"geometry":{"x":170720.82000000123,"y":2544817.6899999995}},{"attributes":{"ID":33685,"DIS_CODE":0,"TOWNNAME":"北區","LI":"重興里","LIN":"8鄰","STREET":"東豐路","SECT":" ","MAREA":" ","LANE":"４５１巷","ALLEY":"１弄","HOUSE_NO":"３６號","E_COORD97":170716.82000000001,"N_COORD97":2544821.79,"ADDRESS":"東豐路４５１巷１弄３６號","OBJECTID":33685},"geometry":{"x":170716.81999999937,"y":2544821.790000001}},{"attributes":{"ID":33686,"DIS_CODE":0,"TOWNNAME":"北區","LI":"重興里","LIN":"8鄰","STREET":"東豐路","SECT":" ","MAREA":" ","LANE":"４５１巷","ALLEY":"１弄","HOUSE_NO":"３號","E_COORD97":170729.59,"N_COORD97":2544783.27,"ADDRESS":"東豐路４５１巷１弄３號","OBJECTID":33686},"geometry":{"x":170729.58999999985,"y":2544783.2699999996}},{"attributes":{"ID":33687,"DIS_CODE":0,"TOWNNAME":"北區","LI":"重興里","LIN":"8鄰","STREET":"東豐路","SECT":" ","MAREA":" ","LANE":"４５１巷","ALLEY":"１弄","HOUSE_NO":"４號","E_COORD97":170777.09,"N_COORD97":2544774.54,"ADDRESS":"東豐路４５１巷１弄４號","OBJECTID":33687},"geometry":{"x":170777.08999999985,"y":2544774.5399999991}},{"attributes":{"ID":33688,"DIS_CODE":0,"TOWNNAME":"北區","LI":"重興里","LIN":"8鄰","STREET":"東豐路","SECT":" ","MAREA":" ","LANE":"４５１巷","ALLEY":"１弄","HOUSE_NO":"５號","E_COORD97":170726.09,"N_COORD97":2544785.9700000002,"ADDRESS":"東豐路４５１巷１弄５號","OBJECTID":33688},"geometry":{"x":170726.08999999985,"y":2544785.9700000025}},{"attributes":{"ID":33689,"DIS_CODE":0,"TOWNNAME":"北區","LI":"重興里","LIN":"8鄰","STREET":"東豐路","SECT":" ","MAREA":" ","LANE":"４５１巷","ALLEY":"１弄","HOUSE_NO":"６號","E_COORD97":170773.29000000001,"N_COORD97":2544777.4399999999,"ADDRESS":"東豐路４５１巷１弄６號","OBJECTID":33689},"geometry":{"x":170773.29000000097,"y":2544777.4400000013}},{"attributes":{"ID":33690,"DIS_CODE":0,"TOWNNAME":"後壁區","LI":"頂安里","LIN":"7鄰","STREET":" ","SECT":" ","MAREA":"頂寮","LANE":" ","ALLEY":" ","HOUSE_NO":"７７號之６","E_COORD97":183863.79999999999,"N_COORD97":2581422.9100000001,"ADDRESS":"頂寮７７號之６","OBJECTID":33690},"geometry":{"x":183863.79999999981,"y":2581422.9100000001}},{"attributes":{"ID":33691,"DIS_CODE":0,"TOWNNAME":"北區","LI":"重興里","LIN":"8鄰","STREET":"東豐路","SECT":" ","MAREA":" ","LANE":"４５１巷","ALLEY":"１弄","HOUSE_NO":"７號","E_COORD97":170721.48999999999,"N_COORD97":2544788.0699999998,"ADDRESS":"東豐路４５１巷１弄７號","OBJECTID":33691},"geometry":{"x":170721.49000000115,"y":2544788.0700000022}},{"attributes":{"ID":33692,"DIS_CODE":0,"TOWNNAME":"北區","LI":"重興里","LIN":"8鄰","STREET":"東豐路","SECT":" ","MAREA":" ","LANE":"４５１巷","ALLEY":"１弄","HOUSE_NO":"８號","E_COORD97":170770.09,"N_COORD97":2544779.8399999999,"ADDRESS":"東豐路４５１巷１弄８號","OBJECTID":33692},"geometry":{"x":170770.08999999985,"y":2544779.8399999999}},{"attributes":{"ID":33693,"DIS_CODE":0,"TOWNNAME":"北區","LI":"重興里","LIN":"8鄰","STREET":"東豐路","SECT":" ","MAREA":" ","LANE":"４５１巷","ALLEY":"１弄","HOUSE_NO":"９號","E_COORD97":170718.29000000001,"N_COORD97":2544790.8700000001,"ADDRESS":"東豐路４５１巷１弄９號","OBJECTID":33693},"geometry":{"x":170718.29000000004,"y":2544790.870000001}},{"attributes":{"ID":33694,"DIS_CODE":0,"TOWNNAME":"永康區","LI":"五王里","LIN":"8鄰","STREET":"中山東路","SECT":" ","MAREA":" ","LANE":"２１８巷","ALLEY":"２３弄","HOUSE_NO":"３３號四樓之１","E_COORD97":171737.63,"N_COORD97":2545649.8700000001,"ADDRESS":"中山東路２１８巷２３弄３３號四樓之１","OBJECTID":33694},"geometry":{"x":171737.62999999989,"y":2545649.870000001}},{"attributes":{"ID":33695,"DIS_CODE":0,"TOWNNAME":"永康區","LI":"五王里","LIN":"8鄰","STREET":"中山東路","SECT":" ","MAREA":" ","LANE":"２１８巷","ALLEY":"２３弄","HOUSE_NO":"２５號三樓之１","E_COORD97":171733.54000000001,"N_COORD97":2545666.6200000001,"ADDRESS":"中山東路２１８巷２３弄２５號三樓之１","OBJECTID":33695},"geometry":{"x":171733.54000000004,"y":2545666.6200000029}},{"attributes":{"ID":33696,"DIS_CODE":0,"TOWNNAME":"後壁區","LI":"頂安里","LIN":"7鄰","STREET":" ","SECT":" ","MAREA":"頂寮","LANE":" ","ALLEY":" ","HOUSE_NO":"７７號之７","E_COORD97":183838.51000000001,"N_COORD97":2581440.7400000002,"ADDRESS":"頂寮７７號之７","OBJECTID":33696},"geometry":{"x":183838.50999999978,"y":2581440.7400000021}},{"attributes":{"ID":33697,"DIS_CODE":0,"TOWNNAME":"永康區","LI":"五王里","LIN":"8鄰","STREET":"中山東路","SECT":" ","MAREA":" ","LANE":"２１８巷","ALLEY":"２３弄","HOUSE_NO":"４１號四樓之３","E_COORD97":171742.17999999999,"N_COORD97":2545632.1200000001,"ADDRESS":"中山東路２１８巷２３弄４１號四樓之３","OBJECTID":33697},"geometry":{"x":171742.1799999997,"y":2545632.1200000029}},{"attributes":{"ID":33698,"DIS_CODE":0,"TOWNNAME":"歸仁區","LI":"辜厝里","LIN":"4鄰","STREET":"民族南街","SECT":" ","MAREA":" ","LANE":"１８巷","ALLEY":"２７弄","HOUSE_NO":"３號","E_COORD97":177364.870524,"N_COORD97":2540730.71655,"ADDRESS":"民族南街１８巷２７弄３號","OBJECTID":33698},"geometry":{"x":177364.87052400038,"y":2540730.7165479995}},{"attributes":{"ID":33699,"DIS_CODE":0,"TOWNNAME":"永康區","LI":"五王里","LIN":"8鄰","STREET":"中山東路","SECT":" ","MAREA":" ","LANE":"２１８巷","ALLEY":"２３弄","HOUSE_NO":"３３號五樓之５","E_COORD97":171737.78,"N_COORD97":2545649.8700000001,"ADDRESS":"中山東路２１８巷２３弄３３號五樓之５","OBJECTID":33699},"geometry":{"x":171737.78000000212,"y":2545649.870000001}},{"attributes":{"ID":33700,"DIS_CODE":0,"TOWNNAME":"永康區","LI":"五王里","LIN":"8鄰","STREET":"中山東路","SECT":" ","MAREA":" ","LANE":"２１８巷","ALLEY":"２３弄","HOUSE_NO":"３３號三樓之５","E_COORD97":171737.78,"N_COORD97":2545649.8700000001,"ADDRESS":"中山東路２１８巷２３弄３３號三樓之５","OBJECTID":33700},"geometry":{"x":171737.78000000212,"y":2545649.870000001}},{"attributes":{"ID":33701,"DIS_CODE":0,"TOWNNAME":"永康區","LI":"五王里","LIN":"8鄰","STREET":"中山東路","SECT":" ","MAREA":" ","LANE":"２１８巷","ALLEY":"２３弄","HOUSE_NO":"３３號四樓之２","E_COORD97":171737.76000000001,"N_COORD97":2545649.8700000001,"ADDRESS":"中山東路２１８巷２３弄３３號四樓之２","OBJECTID":33701},"geometry":{"x":171737.76000000071,"y":2545649.870000001}},{"attributes":{"ID":33702,"DIS_CODE":0,"TOWNNAME":"永康區","LI":"五王里","LIN":"8鄰","STREET":"中山東路","SECT":" ","MAREA":" ","LANE":"２１８巷","ALLEY":"２３弄","HOUSE_NO":"２５號四樓之２","E_COORD97":171733.67000000001,"N_COORD97":2545666.6200000001,"ADDRESS":"中山東路２１８巷２３弄２５號四樓之２","OBJECTID":33702},"geometry":{"x":171733.67000000086,"y":2545666.6200000029}},{"attributes":{"ID":33703,"DIS_CODE":0,"TOWNNAME":"永康區","LI":"五王里","LIN":"8鄰","STREET":"中山東路","SECT":" ","MAREA":" ","LANE":"２１８巷","ALLEY":"２３弄","HOUSE_NO":"２５號五樓之５","E_COORD97":171733.69,"N_COORD97":2545666.6200000001,"ADDRESS":"中山東路２１８巷２３弄２５號五樓之５","OBJECTID":33703},"geometry":{"x":171733.69000000134,"y":2545666.6200000029}},{"attributes":{"ID":33704,"DIS_CODE":0,"TOWNNAME":"永康區","LI":"五王里","LIN":"8鄰","STREET":"中山東路","SECT":" ","MAREA":" ","LANE":"２１８巷","ALLEY":"２３弄","HOUSE_NO":"２５號四樓之５","E_COORD97":171733.69,"N_COORD97":2545666.6200000001,"ADDRESS":"中山東路２１８巷２３弄２５號四樓之５","OBJECTID":33704},"geometry":{"x":171733.69000000134,"y":2545666.6200000029}},{"attributes":{"ID":33705,"DIS_CODE":0,"TOWNNAME":"後壁區","LI":"頂安里","LIN":"7鄰","STREET":" ","SECT":" ","MAREA":"頂寮","LANE":" ","ALLEY":" ","HOUSE_NO":"７８號","E_COORD97":183832.20000000001,"N_COORD97":2581374.6200000001,"ADDRESS":"頂寮７８號","OBJECTID":33705},"geometry":{"x":183832.20000000112,"y":2581374.6200000029}},{"attributes":{"ID":33706,"DIS_CODE":0,"TOWNNAME":"後壁區","LI":"頂安里","LIN":"7鄰","STREET":" ","SECT":" ","MAREA":"頂寮","LANE":" ","ALLEY":" ","HOUSE_NO":"７９號之１","E_COORD97":183802.95999999999,"N_COORD97":2581373.25,"ADDRESS":"頂寮７９號之１","OBJECTID":33706},"geometry":{"x":183802.96000000089,"y":2581373.25}},{"attributes":{"ID":33707,"DIS_CODE":0,"TOWNNAME":"後壁區","LI":"頂安里","LIN":"7鄰","STREET":" ","SECT":" ","MAREA":"頂寮","LANE":" ","ALLEY":" ","HOUSE_NO":"７９號","E_COORD97":183825.19,"N_COORD97":2581359.1099999999,"ADDRESS":"頂寮７９號","OBJECTID":33707},"geometry":{"x":183825.19000000227,"y":2581359.1100000013}},{"attributes":{"ID":33708,"DIS_CODE":0,"TOWNNAME":"後壁區","LI":"頂安里","LIN":"7鄰","STREET":" ","SECT":" ","MAREA":"頂寮","LANE":" ","ALLEY":" ","HOUSE_NO":"８１號之１","E_COORD97":183740.64999999999,"N_COORD97":2581409.6800000002,"ADDRESS":"頂寮８１號之１","OBJECTID":33708},"geometry":{"x":183740.65000000224,"y":2581409.6800000016}},{"attributes":{"ID":33709,"DIS_CODE":0,"TOWNNAME":"後壁區","LI":"頂安里","LIN":"7鄰","STREET":" ","SECT":" ","MAREA":"頂寮","LANE":" ","ALLEY":" ","HOUSE_NO":"８１號","E_COORD97":183763.10000000001,"N_COORD97":2581415.9500000002,"ADDRESS":"頂寮８１號","OBJECTID":33709},"geometry":{"x":183763.09999999963,"y":2581415.9499999993}},{"attributes":{"ID":33710,"DIS_CODE":0,"TOWNNAME":"後壁區","LI":"頂安里","LIN":"7鄰","STREET":" ","SECT":" ","MAREA":"頂寮","LANE":" ","ALLEY":" ","HOUSE_NO":"８２號","E_COORD97":183759.07999999999,"N_COORD97":2581391.1899999999,"ADDRESS":"頂寮８２號","OBJECTID":33710},"geometry":{"x":183759.08000000007,"y":2581391.1900000032}},{"attributes":{"ID":33711,"DIS_CODE":0,"TOWNNAME":"後壁區","LI":"頂安里","LIN":"7鄰","STREET":" ","SECT":" ","MAREA":"頂寮","LANE":" ","ALLEY":" ","HOUSE_NO":"８３號之８","E_COORD97":183683.10999999999,"N_COORD97":2581371.5600000001,"ADDRESS":"頂寮８３號之８","OBJECTID":33711},"geometry":{"x":183683.1099999994,"y":2581371.5600000005}},{"attributes":{"ID":33712,"DIS_CODE":0,"TOWNNAME":"後壁區","LI":"頂安里","LIN":"7鄰","STREET":" ","SECT":" ","MAREA":"頂寮","LANE":" ","ALLEY":" ","HOUSE_NO":"８３號","E_COORD97":183697.34,"N_COORD97":2581385.1800000002,"ADDRESS":"頂寮８３號","OBJECTID":33712},"geometry":{"x":183697.33999999985,"y":2581385.1800000016}},{"attributes":{"ID":33713,"DIS_CODE":0,"TOWNNAME":"後壁區","LI":"墨林里","LIN":"7鄰","STREET":" ","SECT":" ","MAREA":"菁寮","LANE":" ","ALLEY":" ","HOUSE_NO":"２３７號","E_COORD97":182161.57999999999,"N_COORD97":2586480.0600000001,"ADDRESS":"菁寮２３７號","OBJECTID":33713},"geometry":{"x":182161.58000000101,"y":2586480.0600000024}},{"attributes":{"ID":33714,"DIS_CODE":0,"TOWNNAME":"後壁區","LI":"墨林里","LIN":"7鄰","STREET":" ","SECT":" ","MAREA":"菁寮","LANE":" ","ALLEY":" ","HOUSE_NO":"２３８號","E_COORD97":182136.03,"N_COORD97":2586490.77,"ADDRESS":"菁寮２３８號","OBJECTID":33714},"geometry":{"x":182136.03000000212,"y":2586490.7700000014}},{"attributes":{"ID":33715,"DIS_CODE":0,"TOWNNAME":"後壁區","LI":"墨林里","LIN":"7鄰","STREET":" ","SECT":" ","MAREA":"菁寮","LANE":" ","ALLEY":" ","HOUSE_NO":"２４１號","E_COORD97":182178.31,"N_COORD97":2586530.5,"ADDRESS":"菁寮２４１號","OBJECTID":33715},"geometry":{"x":182178.30999999959,"y":2586530.5000000019}},{"attributes":{"ID":33716,"DIS_CODE":0,"TOWNNAME":"後壁區","LI":"墨林里","LIN":"7鄰","STREET":" ","SECT":" ","MAREA":"菁寮","LANE":" ","ALLEY":" ","HOUSE_NO":"２４２號之１","E_COORD97":182142.91,"N_COORD97":2586522.7000000002,"ADDRESS":"菁寮２４２號之１","OBJECTID":33716},"geometry":{"x":182142.91000000015,"y":2586522.6999999993}},{"attributes":{"ID":33717,"DIS_CODE":0,"TOWNNAME":"後壁區","LI":"墨林里","LIN":"7鄰","STREET":" ","SECT":" ","MAREA":"菁寮","LANE":" ","ALLEY":" ","HOUSE_NO":"２４３號","E_COORD97":182171.48999999999,"N_COORD97":2586518.6200000001,"ADDRESS":"菁寮２４３號","OBJECTID":33717},"geometry":{"x":182171.49000000022,"y":2586518.620000001}},{"attributes":{"ID":33718,"DIS_CODE":0,"TOWNNAME":"後壁區","LI":"菁寮里","LIN":"7鄰","STREET":" ","SECT":" ","MAREA":"菁寮","LANE":" ","ALLEY":" ","HOUSE_NO":"８１號","E_COORD97":181980.54000000001,"N_COORD97":2586384.8199999998,"ADDRESS":"菁寮８１號","OBJECTID":33718},"geometry":{"x":181980.54000000097,"y":2586384.8200000003}},{"attributes":{"ID":33719,"DIS_CODE":0,"TOWNNAME":"後壁區","LI":"菁寮里","LIN":"7鄰","STREET":" ","SECT":" ","MAREA":"菁寮","LANE":" ","ALLEY":" ","HOUSE_NO":"８２號","E_COORD97":181970.29000000001,"N_COORD97":2586386.7000000002,"ADDRESS":"菁寮８２號","OBJECTID":33719},"geometry":{"x":181970.29000000097,"y":2586386.6999999993}},{"attributes":{"ID":33720,"DIS_CODE":0,"TOWNNAME":"後壁區","LI":"菁寮里","LIN":"7鄰","STREET":" ","SECT":" ","MAREA":"菁寮","LANE":" ","ALLEY":" ","HOUSE_NO":"８５號之１","E_COORD97":181904.73999999999,"N_COORD97":2586406.23,"ADDRESS":"菁寮８５號之１","OBJECTID":33720},"geometry":{"x":181904.74000000115,"y":2586406.2300000042}},{"attributes":{"ID":33721,"DIS_CODE":0,"TOWNNAME":"後壁區","LI":"菁寮里","LIN":"7鄰","STREET":" ","SECT":" ","MAREA":"菁寮","LANE":" ","ALLEY":" ","HOUSE_NO":"８５號","E_COORD97":181918.41,"N_COORD97":2586403.25,"ADDRESS":"菁寮８５號","OBJECTID":33721},"geometry":{"x":181918.41000000108,"y":2586403.2500000019}},{"attributes":{"ID":33722,"DIS_CODE":0,"TOWNNAME":"後壁區","LI":"菁寮里","LIN":"7鄰","STREET":" ","SECT":" ","MAREA":"菁寮","LANE":" ","ALLEY":" ","HOUSE_NO":"８６號之１０","E_COORD97":181815.35000000001,"N_COORD97":2586435.8500000001,"ADDRESS":"菁寮８６號之１０","OBJECTID":33722},"geometry":{"x":181815.34999999963,"y":2586435.8500000015}},{"attributes":{"ID":33723,"DIS_CODE":0,"TOWNNAME":"後壁區","LI":"菁寮里","LIN":"7鄰","STREET":" ","SECT":" ","MAREA":"菁寮","LANE":" ","ALLEY":" ","HOUSE_NO":"８６號之１１","E_COORD97":181810.69,"N_COORD97":2586435.7000000002,"ADDRESS":"菁寮８６號之１１","OBJECTID":33723},"geometry":{"x":181810.69000000041,"y":2586435.700000003}},{"attributes":{"ID":33724,"DIS_CODE":0,"TOWNNAME":"後壁區","LI":"菁寮里","LIN":"7鄰","STREET":" ","SECT":" ","MAREA":"菁寮","LANE":" ","ALLEY":" ","HOUSE_NO":"８６號之１２","E_COORD97":181799.73000000001,"N_COORD97":2586437.6899999999,"ADDRESS":"菁寮８６號之１２","OBJECTID":33724},"geometry":{"x":181799.73000000138,"y":2586437.6900000013}},{"attributes":{"ID":33725,"DIS_CODE":0,"TOWNNAME":"後壁區","LI":"菁寮里","LIN":"7鄰","STREET":" ","SECT":" ","MAREA":"菁寮","LANE":" ","ALLEY":" ","HOUSE_NO":"８６號之１３","E_COORD97":181795.04000000001,"N_COORD97":2586437.7200000002,"ADDRESS":"菁寮８６號之１３","OBJECTID":33725},"geometry":{"x":181795.0400000019,"y":2586437.7200000025}},{"attributes":{"ID":33726,"DIS_CODE":0,"TOWNNAME":"後壁區","LI":"菁寮里","LIN":"7鄰","STREET":" ","SECT":" ","MAREA":"菁寮","LANE":" ","ALLEY":" ","HOUSE_NO":"８６號之１４","E_COORD97":181800.60999999999,"N_COORD97":2586460.4199999999,"ADDRESS":"菁寮８６號之１４","OBJECTID":33726},"geometry":{"x":181800.61000000127,"y":2586460.4199999999}},{"attributes":{"ID":33727,"DIS_CODE":0,"TOWNNAME":"後壁區","LI":"菁寮里","LIN":"7鄰","STREET":" ","SECT":" ","MAREA":"菁寮","LANE":" ","ALLEY":" ","HOUSE_NO":"８６號之１５","E_COORD97":181813.42999999999,"N_COORD97":2586456.6000000001,"ADDRESS":"菁寮８６號之１５","OBJECTID":33727},"geometry":{"x":181813.4299999997,"y":2586456.5999999996}},{"attributes":{"ID":33728,"DIS_CODE":0,"TOWNNAME":"後壁區","LI":"菁寮里","LIN":"7鄰","STREET":" ","SECT":" ","MAREA":"菁寮","LANE":" ","ALLEY":" ","HOUSE_NO":"８６號之１６","E_COORD97":181813.14999999999,"N_COORD97":2586461.6099999999,"ADDRESS":"菁寮８６號之１６","OBJECTID":33728},"geometry":{"x":181813.15000000224,"y":2586461.6100000013}},{"attributes":{"ID":33729,"DIS_CODE":0,"TOWNNAME":"後壁區","LI":"菁寮里","LIN":"7鄰","STREET":" ","SECT":" ","MAREA":"菁寮","LANE":" ","ALLEY":" ","HOUSE_NO":"８６號之１７","E_COORD97":181813.10999999999,"N_COORD97":2586466.8700000001,"ADDRESS":"菁寮８６號之１７","OBJECTID":33729},"geometry":{"x":181813.11000000034,"y":2586466.8700000048}},{"attributes":{"ID":33730,"DIS_CODE":0,"TOWNNAME":"後壁區","LI":"菁寮里","LIN":"7鄰","STREET":" ","SECT":" ","MAREA":"菁寮","LANE":" ","ALLEY":" ","HOUSE_NO":"８６號之１８","E_COORD97":181813.44,"N_COORD97":2586471.0800000001,"ADDRESS":"菁寮８６號之１８","OBJECTID":33730},"geometry":{"x":181813.44000000134,"y":2586471.0799999982}},{"attributes":{"ID":33731,"DIS_CODE":0,"TOWNNAME":"後壁區","LI":"菁寮里","LIN":"7鄰","STREET":" ","SECT":" ","MAREA":"菁寮","LANE":" ","ALLEY":" ","HOUSE_NO":"８６號之７","E_COORD97":181827.82000000001,"N_COORD97":2586435.6200000001,"ADDRESS":"菁寮８６號之７","OBJECTID":33731},"geometry":{"x":181827.82000000123,"y":2586435.6200000029}},{"attributes":{"ID":33732,"DIS_CODE":0,"TOWNNAME":"後壁區","LI":"菁寮里","LIN":"7鄰","STREET":" ","SECT":" ","MAREA":"菁寮","LANE":" ","ALLEY":" ","HOUSE_NO":"８６號之８","E_COORD97":181823.57000000001,"N_COORD97":2586435.6000000001,"ADDRESS":"菁寮８６號之８","OBJECTID":33732},"geometry":{"x":181823.5700000003,"y":2586435.5999999996}},{"attributes":{"ID":33733,"DIS_CODE":0,"TOWNNAME":"後壁區","LI":"菁寮里","LIN":"7鄰","STREET":" ","SECT":" ","MAREA":"菁寮","LANE":" ","ALLEY":" ","HOUSE_NO":"８６號之９","E_COORD97":181819.92999999999,"N_COORD97":2586435.4199999999,"ADDRESS":"菁寮８６號之９","OBJECTID":33733},"geometry":{"x":181819.9299999997,"y":2586435.4200000018}},{"attributes":{"ID":33734,"DIS_CODE":0,"TOWNNAME":"後壁區","LI":"菁寮里","LIN":"7鄰","STREET":" ","SECT":" ","MAREA":"菁寮","LANE":" ","ALLEY":" ","HOUSE_NO":"８６號","E_COORD97":181895.28,"N_COORD97":2586425.98,"ADDRESS":"菁寮８６號","OBJECTID":33734},"geometry":{"x":181895.28000000212,"y":2586425.9800000023}},{"attributes":{"ID":33735,"DIS_CODE":0,"TOWNNAME":"後壁區","LI":"菁寮里","LIN":"7鄰","STREET":" ","SECT":" ","MAREA":"菁寮","LANE":" ","ALLEY":" ","HOUSE_NO":"８８號","E_COORD97":181918.70000000001,"N_COORD97":2586456.6099999999,"ADDRESS":"菁寮８８號","OBJECTID":33735},"geometry":{"x":181918.70000000019,"y":2586456.6099999975}},{"attributes":{"ID":33736,"DIS_CODE":0,"TOWNNAME":"後壁區","LI":"菁寮里","LIN":"7鄰","STREET":" ","SECT":" ","MAREA":"菁寮","LANE":" ","ALLEY":" ","HOUSE_NO":"８９號之１","E_COORD97":181912.42000000001,"N_COORD97":2586505.9199999999,"ADDRESS":"菁寮８９號之１","OBJECTID":33736},"geometry":{"x":181912.41999999993,"y":2586505.9199999981}},{"attributes":{"ID":33737,"DIS_CODE":0,"TOWNNAME":"後壁區","LI":"菁寮里","LIN":"7鄰","STREET":" ","SECT":" ","MAREA":"菁寮","LANE":" ","ALLEY":" ","HOUSE_NO":"８９號之２","E_COORD97":181905.45000000001,"N_COORD97":2586466.4700000002,"ADDRESS":"菁寮８９號之２","OBJECTID":33737},"geometry":{"x":181905.45000000019,"y":2586466.4700000025}},{"attributes":{"ID":33738,"DIS_CODE":0,"TOWNNAME":"後壁區","LI":"菁寮里","LIN":"7鄰","STREET":" ","SECT":" ","MAREA":"菁寮","LANE":" ","ALLEY":" ","HOUSE_NO":"８９號","E_COORD97":181921.79999999999,"N_COORD97":2586467.25,"ADDRESS":"菁寮８９號","OBJECTID":33738},"geometry":{"x":181921.80000000168,"y":2586467.2500000019}},{"attributes":{"ID":33739,"DIS_CODE":0,"TOWNNAME":"後壁區","LI":"新東里","LIN":"7鄰","STREET":" ","SECT":" ","MAREA":"新港東","LANE":" ","ALLEY":" ","HOUSE_NO":"７１號之３","E_COORD97":181624.92999999999,"N_COORD97":2581894.2000000002,"ADDRESS":"新港東７１號之３","OBJECTID":33739},"geometry":{"x":181624.93000000063,"y":2581894.2000000011}},{"attributes":{"ID":33740,"DIS_CODE":0,"TOWNNAME":"後壁區","LI":"新東里","LIN":"7鄰","STREET":" ","SECT":" ","MAREA":"新港東","LANE":" ","ALLEY":" ","HOUSE_NO":"７１號之８","E_COORD97":181629.91,"N_COORD97":2581863.3999999999,"ADDRESS":"新港東７１號之８","OBJECTID":33740},"geometry":{"x":181629.91000000201,"y":2581863.4000000022}},{"attributes":{"ID":33741,"DIS_CODE":0,"TOWNNAME":"後壁區","LI":"新東里","LIN":"7鄰","STREET":" ","SECT":" ","MAREA":"新港東","LANE":" ","ALLEY":" ","HOUSE_NO":"７１號","E_COORD97":181640.82000000001,"N_COORD97":2581888.0299999998,"ADDRESS":"新港東７１號","OBJECTID":33741},"geometry":{"x":181640.82000000216,"y":2581888.0300000012}},{"attributes":{"ID":33742,"DIS_CODE":0,"TOWNNAME":"後壁區","LI":"新東里","LIN":"7鄰","STREET":" ","SECT":" ","MAREA":"新港東","LANE":" ","ALLEY":" ","HOUSE_NO":"７２號之１","E_COORD97":181633.29000000001,"N_COORD97":2581846.1800000002,"ADDRESS":"新港東７２號之１","OBJECTID":33742},"geometry":{"x":181633.29000000004,"y":2581846.1800000016}},{"attributes":{"ID":33743,"DIS_CODE":0,"TOWNNAME":"後壁區","LI":"新東里","LIN":"7鄰","STREET":" ","SECT":" ","MAREA":"新港東","LANE":" ","ALLEY":" ","HOUSE_NO":"７３號之１","E_COORD97":181614.85000000001,"N_COORD97":2581838.0299999998,"ADDRESS":"新港東７３號之１","OBJECTID":33743},"geometry":{"x":181614.85000000056,"y":2581838.0299999993}},{"attributes":{"ID":33744,"DIS_CODE":0,"TOWNNAME":"後壁區","LI":"新東里","LIN":"7鄰","STREET":" ","SECT":" ","MAREA":"新港東","LANE":" ","ALLEY":" ","HOUSE_NO":"７３號之２","E_COORD97":181612.32000000001,"N_COORD97":2581801.6400000001,"ADDRESS":"新港東７３號之２","OBJECTID":33744},"geometry":{"x":181612.32000000123,"y":2581801.6400000006}},{"attributes":{"ID":33745,"DIS_CODE":0,"TOWNNAME":"後壁區","LI":"新東里","LIN":"7鄰","STREET":" ","SECT":" ","MAREA":"新港東","LANE":" ","ALLEY":" ","HOUSE_NO":"７３號","E_COORD97":181629.82000000001,"N_COORD97":2581811.23,"ADDRESS":"新港東７３號","OBJECTID":33745},"geometry":{"x":181629.8200000003,"y":2581811.2300000004}},{"attributes":{"ID":33746,"DIS_CODE":0,"TOWNNAME":"後壁區","LI":"新東里","LIN":"7鄰","STREET":" ","SECT":" ","MAREA":"新港東","LANE":" ","ALLEY":" ","HOUSE_NO":"７４號之１２","E_COORD97":181455.98999999999,"N_COORD97":2581601.1600000001,"ADDRESS":"新港東７４號之１２","OBJECTID":33746},"geometry":{"x":181455.99000000022,"y":2581601.1600000001}},{"attributes":{"ID":33747,"DIS_CODE":0,"TOWNNAME":"後壁區","LI":"新東里","LIN":"7鄰","STREET":" ","SECT":" ","MAREA":"新港東","LANE":" ","ALLEY":" ","HOUSE_NO":"７４號之１","E_COORD97":181707.25,"N_COORD97":2581786.4500000002,"ADDRESS":"新港東７４號之１","OBJECTID":33747},"geometry":{"x":181707.25000000093,"y":2581786.4500000011}},{"attributes":{"ID":33748,"DIS_CODE":0,"TOWNNAME":"後壁區","LI":"新東里","LIN":"7鄰","STREET":" ","SECT":" ","MAREA":"新港東","LANE":" ","ALLEY":" ","HOUSE_NO":"７４號之２","E_COORD97":181684.06,"N_COORD97":2581741.6600000001,"ADDRESS":"新港東７４號之２","OBJECTID":33748},"geometry":{"x":181684.05999999866,"y":2581741.660000002}},{"attributes":{"ID":33749,"DIS_CODE":0,"TOWNNAME":"後壁區","LI":"新東里","LIN":"7鄰","STREET":" ","SECT":" ","MAREA":"新港東","LANE":" ","ALLEY":" ","HOUSE_NO":"７４號之６","E_COORD97":181849.29000000001,"N_COORD97":2581485.9900000002,"ADDRESS":"新港東７４號之６","OBJECTID":33749},"geometry":{"x":181849.2900000019,"y":2581485.9900000021}},{"attributes":{"ID":33750,"DIS_CODE":0,"TOWNNAME":"後壁區","LI":"新東里","LIN":"7鄰","STREET":" ","SECT":" ","MAREA":"新港東","LANE":" ","ALLEY":" ","HOUSE_NO":"７４號","E_COORD97":181679.60999999999,"N_COORD97":2581795.5699999998,"ADDRESS":"新港東７４號","OBJECTID":33750},"geometry":{"x":181679.6100000022,"y":2581795.5700000003}},{"attributes":{"ID":33751,"DIS_CODE":0,"TOWNNAME":"後壁區","LI":"新東里","LIN":"7鄰","STREET":" ","SECT":" ","MAREA":"新港東","LANE":" ","ALLEY":" ","HOUSE_NO":"７５號之５","E_COORD97":181657.76999999999,"N_COORD97":2581821.4900000002,"ADDRESS":"新港東７５號之５","OBJECTID":33751},"geometry":{"x":181657.77000000048,"y":2581821.4900000021}},{"attributes":{"ID":33752,"DIS_CODE":0,"TOWNNAME":"後壁區","LI":"新東里","LIN":"7鄰","STREET":" ","SECT":" ","MAREA":"新港東","LANE":" ","ALLEY":" ","HOUSE_NO":"７５號之６","E_COORD97":181647.01000000001,"N_COORD97":2581825.54,"ADDRESS":"新港東７５號之６","OBJECTID":33752},"geometry":{"x":181647.00999999978,"y":2581825.5399999972}},{"attributes":{"ID":33753,"DIS_CODE":0,"TOWNNAME":"後壁區","LI":"新東里","LIN":"7鄰","STREET":" ","SECT":" ","MAREA":"新港東","LANE":" ","ALLEY":" ","HOUSE_NO":"７５號之７","E_COORD97":181645.92000000001,"N_COORD97":2581833.7000000002,"ADDRESS":"新港東７５號之７","OBJECTID":33753},"geometry":{"x":181645.91999999993,"y":2581833.6999999993}},{"attributes":{"ID":33754,"DIS_CODE":0,"TOWNNAME":"後壁區","LI":"新東里","LIN":"7鄰","STREET":" ","SECT":" ","MAREA":"新港東","LANE":" ","ALLEY":" ","HOUSE_NO":"７５號之８","E_COORD97":181645.62,"N_COORD97":2581842.52,"ADDRESS":"新港東７５號之８","OBJECTID":33754},"geometry":{"x":181645.62000000104,"y":2581842.5199999996}},{"attributes":{"ID":33755,"DIS_CODE":0,"TOWNNAME":"後壁區","LI":"新東里","LIN":"7鄰","STREET":" ","SECT":" ","MAREA":"新港東","LANE":" ","ALLEY":" ","HOUSE_NO":"７５號","E_COORD97":181655.17000000001,"N_COORD97":2581805.5699999998,"ADDRESS":"新港東７５號","OBJECTID":33755},"geometry":{"x":181655.17000000086,"y":2581805.5700000003}},{"attributes":{"ID":33756,"DIS_CODE":0,"TOWNNAME":"後壁區","LI":"新東里","LIN":"7鄰","STREET":" ","SECT":" ","MAREA":"新港東","LANE":" ","ALLEY":" ","HOUSE_NO":"７６號之２","E_COORD97":181653.14000000001,"N_COORD97":2581852.04,"ADDRESS":"新港東７６號之２","OBJECTID":33756},"geometry":{"x":181653.14000000153,"y":2581852.0399999991}},{"attributes":{"ID":33757,"DIS_CODE":0,"TOWNNAME":"永康區","LI":"五王里","LIN":"8鄰","STREET":"中山東路","SECT":" ","MAREA":" ","LANE":"２１８巷","ALLEY":"２３弄","HOUSE_NO":"３３號四樓之５","E_COORD97":171737.78,"N_COORD97":2545649.8700000001,"ADDRESS":"中山東路２１８巷２３弄３３號四樓之５","OBJECTID":33757},"geometry":{"x":171737.78000000212,"y":2545649.870000001}},{"attributes":{"ID":33758,"DIS_CODE":0,"TOWNNAME":"後壁區","LI":"新東里","LIN":"7鄰","STREET":" ","SECT":" ","MAREA":"新港東","LANE":" ","ALLEY":" ","HOUSE_NO":"７７號","E_COORD97":181650.23999999999,"N_COORD97":2581860.2200000002,"ADDRESS":"新港東７７號","OBJECTID":33758},"geometry":{"x":181650.24000000115,"y":2581860.2200000044}},{"attributes":{"ID":33759,"DIS_CODE":0,"TOWNNAME":"後壁區","LI":"新東里","LIN":"7鄰","STREET":" ","SECT":" ","MAREA":"新港東","LANE":" ","ALLEY":" ","HOUSE_NO":"７８號之１０","E_COORD97":181661.04000000001,"N_COORD97":2581841.3700000001,"ADDRESS":"新港東７８號之１０","OBJECTID":33759},"geometry":{"x":181661.0400000019,"y":2581841.370000001}},{"attributes":{"ID":33760,"DIS_CODE":0,"TOWNNAME":"永康區","LI":"五王里","LIN":"8鄰","STREET":"中山東路","SECT":" ","MAREA":" ","LANE":"２１８巷","ALLEY":"２３弄","HOUSE_NO":"４１號三樓之２","E_COORD97":171742.20999999999,"N_COORD97":2545632.1200000001,"ADDRESS":"中山東路２１８巷２３弄４１號三樓之２","OBJECTID":33760},"geometry":{"x":171742.20999999996,"y":2545632.1200000029}},{"attributes":{"ID":33761,"DIS_CODE":0,"TOWNNAME":"永康區","LI":"五王里","LIN":"8鄰","STREET":"中山東路","SECT":" ","MAREA":" ","LANE":"２１８巷","ALLEY":"２３弄","HOUSE_NO":"４１號三樓之１","E_COORD97":171742.07999999999,"N_COORD97":2545632.1200000001,"ADDRESS":"中山東路２１８巷２３弄４１號三樓之１","OBJECTID":33761},"geometry":{"x":171742.08000000007,"y":2545632.1200000029}},{"attributes":{"ID":33762,"DIS_CODE":0,"TOWNNAME":"永康區","LI":"五王里","LIN":"8鄰","STREET":"中山東路","SECT":" ","MAREA":" ","LANE":"２１８巷","ALLEY":"２３弄","HOUSE_NO":"３３號三樓之２","E_COORD97":171737.76000000001,"N_COORD97":2545649.8700000001,"ADDRESS":"中山東路２１８巷２３弄３３號三樓之２","OBJECTID":33762},"geometry":{"x":171737.76000000071,"y":2545649.870000001}},{"attributes":{"ID":33763,"DIS_CODE":0,"TOWNNAME":"永康區","LI":"五王里","LIN":"8鄰","STREET":"中山東路","SECT":" ","MAREA":" ","LANE":"２１８巷","ALLEY":"２３弄","HOUSE_NO":"４１號四樓之１","E_COORD97":171742.07999999999,"N_COORD97":2545632.1200000001,"ADDRESS":"中山東路２１８巷２３弄４１號四樓之１","OBJECTID":33763},"geometry":{"x":171742.08000000007,"y":2545632.1200000029}},{"attributes":{"ID":33764,"DIS_CODE":0,"TOWNNAME":"永康區","LI":"五王里","LIN":"8鄰","STREET":"中山東路","SECT":" ","MAREA":" ","LANE":"２１８巷","ALLEY":"２３弄","HOUSE_NO":"２５號三樓之５","E_COORD97":171733.69,"N_COORD97":2545666.6200000001,"ADDRESS":"中山東路２１８巷２３弄２５號三樓之５","OBJECTID":33764},"geometry":{"x":171733.69000000134,"y":2545666.6200000029}},{"attributes":{"ID":33765,"DIS_CODE":0,"TOWNNAME":"東區","LI":"富強里","LIN":"28鄰","STREET":"東門路","SECT":"二段","MAREA":" ","LANE":"３６５巷","ALLEY":"３４弄","HOUSE_NO":"５號五樓","E_COORD97":170890.64000000001,"N_COORD97":2542690.3799999999,"ADDRESS":"東門路二段３６５巷３４弄５號五樓","OBJECTID":33765},"geometry":{"x":170890.6400000006,"y":2542690.379999999}},{"attributes":{"ID":33766,"DIS_CODE":0,"TOWNNAME":"後壁區","LI":"新東里","LIN":"7鄰","STREET":" ","SECT":" ","MAREA":"新港東","LANE":" ","ALLEY":" ","HOUSE_NO":"７８號之１１","E_COORD97":181660.37,"N_COORD97":2581836.1200000001,"ADDRESS":"新港東７８號之１１","OBJECTID":33766},"geometry":{"x":181660.37000000011,"y":2581836.120000001}},{"attributes":{"ID":33767,"DIS_CODE":0,"TOWNNAME":"後壁區","LI":"新東里","LIN":"7鄰","STREET":" ","SECT":" ","MAREA":"新港東","LANE":" ","ALLEY":" ","HOUSE_NO":"７８號之３","E_COORD97":181653.70999999999,"N_COORD97":2581891.0299999998,"ADDRESS":"新港東７８號之３","OBJECTID":33767},"geometry":{"x":181653.71000000089,"y":2581891.0300000012}},{"attributes":{"ID":33768,"DIS_CODE":0,"TOWNNAME":"後壁區","LI":"新東里","LIN":"7鄰","STREET":" ","SECT":" ","MAREA":"新港東","LANE":" ","ALLEY":" ","HOUSE_NO":"７８號之５","E_COORD97":181662.57999999999,"N_COORD97":2581888.0600000001,"ADDRESS":"新港東７８號之５","OBJECTID":33768},"geometry":{"x":181662.58000000194,"y":2581888.0600000042}},{"attributes":{"ID":33769,"DIS_CODE":0,"TOWNNAME":"後壁區","LI":"新東里","LIN":"7鄰","STREET":" ","SECT":" ","MAREA":"新港東","LANE":" ","ALLEY":" ","HOUSE_NO":"７８號之６","E_COORD97":181667.92999999999,"N_COORD97":2581886.3399999999,"ADDRESS":"新港東７８號之６","OBJECTID":33769},"geometry":{"x":181667.9299999997,"y":2581886.3400000017}},{"attributes":{"ID":33770,"DIS_CODE":0,"TOWNNAME":"後壁區","LI":"新東里","LIN":"7鄰","STREET":" ","SECT":" ","MAREA":"新港東","LANE":" ","ALLEY":" ","HOUSE_NO":"７８號之７","E_COORD97":181663.88,"N_COORD97":2581870.02,"ADDRESS":"新港東７８號之７","OBJECTID":33770},"geometry":{"x":181663.88000000082,"y":2581870.0199999996}},{"attributes":{"ID":33771,"DIS_CODE":0,"TOWNNAME":"後壁區","LI":"新東里","LIN":"7鄰","STREET":" ","SECT":" ","MAREA":"新港東","LANE":" ","ALLEY":" ","HOUSE_NO":"７８號","E_COORD97":181650.16,"N_COORD97":2581875.3399999999,"ADDRESS":"新港東７８號","OBJECTID":33771},"geometry":{"x":181650.16000000201,"y":2581875.3400000036}},{"attributes":{"ID":33772,"DIS_CODE":0,"TOWNNAME":"後壁區","LI":"新東里","LIN":"7鄰","STREET":" ","SECT":" ","MAREA":"新港東","LANE":" ","ALLEY":" ","HOUSE_NO":"７９號之１０","E_COORD97":181674.72,"N_COORD97":2581837.3500000001,"ADDRESS":"新港東７９號之１０","OBJECTID":33772},"geometry":{"x":181674.7200000016,"y":2581837.3499999996}},{"attributes":{"ID":33773,"DIS_CODE":0,"TOWNNAME":"後壁區","LI":"新東里","LIN":"7鄰","STREET":" ","SECT":" ","MAREA":"新港東","LANE":" ","ALLEY":" ","HOUSE_NO":"７９號之１１","E_COORD97":181674.59,"N_COORD97":2581833.0899999999,"ADDRESS":"新港東７９號之１１","OBJECTID":33773},"geometry":{"x":181674.59000000078,"y":2581833.0900000036}},{"attributes":{"ID":33774,"DIS_CODE":0,"TOWNNAME":"後壁區","LI":"新東里","LIN":"7鄰","STREET":" ","SECT":" ","MAREA":"新港東","LANE":" ","ALLEY":" ","HOUSE_NO":"７９號之３","E_COORD97":181677.22,"N_COORD97":2581861.8100000001,"ADDRESS":"新港東７９號之３","OBJECTID":33774},"geometry":{"x":181677.22000000067,"y":2581861.8100000005}},{"attributes":{"ID":33775,"DIS_CODE":0,"TOWNNAME":"後壁區","LI":"新東里","LIN":"7鄰","STREET":" ","SECT":" ","MAREA":"新港東","LANE":" ","ALLEY":" ","HOUSE_NO":"７９號之５","E_COORD97":181676.85999999999,"N_COORD97":2581856.0499999998,"ADDRESS":"新港東７９號之５","OBJECTID":33775},"geometry":{"x":181676.86000000127,"y":2581856.0500000026}},{"attributes":{"ID":33776,"DIS_CODE":0,"TOWNNAME":"後壁區","LI":"新東里","LIN":"7鄰","STREET":" ","SECT":" ","MAREA":"新港東","LANE":" ","ALLEY":" ","HOUSE_NO":"７９號之６","E_COORD97":181676.25,"N_COORD97":2581851.4199999999,"ADDRESS":"新港東７９號之６","OBJECTID":33776},"geometry":{"x":181676.25,"y":2581851.4200000037}},{"attributes":{"ID":33777,"DIS_CODE":0,"TOWNNAME":"後壁區","LI":"新東里","LIN":"7鄰","STREET":" ","SECT":" ","MAREA":"新港東","LANE":" ","ALLEY":" ","HOUSE_NO":"７９號之８","E_COORD97":181675.42999999999,"N_COORD97":2581842.1200000001,"ADDRESS":"新港東７９號之８","OBJECTID":33777},"geometry":{"x":181675.43000000063,"y":2581842.1200000029}},{"attributes":{"ID":33778,"DIS_CODE":0,"TOWNNAME":"後壁區","LI":"新東里","LIN":"7鄰","STREET":" ","SECT":" ","MAREA":"新港東","LANE":" ","ALLEY":" ","HOUSE_NO":"７９號","E_COORD97":181683.72,"N_COORD97":2581879.9500000002,"ADDRESS":"新港東７９號","OBJECTID":33778},"geometry":{"x":181683.72000000067,"y":2581879.9499999993}},{"attributes":{"ID":33779,"DIS_CODE":0,"TOWNNAME":"後壁區","LI":"新東里","LIN":"7鄰","STREET":" ","SECT":" ","MAREA":"新港東","LANE":" ","ALLEY":" ","HOUSE_NO":"８０號","E_COORD97":181698.70999999999,"N_COORD97":2581845.79,"ADDRESS":"新港東８０號","OBJECTID":33779},"geometry":{"x":181698.71000000183,"y":2581845.790000001}},{"attributes":{"ID":33780,"DIS_CODE":0,"TOWNNAME":"後壁區","LI":"平安里","LIN":"7鄰","STREET":" ","SECT":" ","MAREA":"葯店口","LANE":" ","ALLEY":" ","HOUSE_NO":"７６號","E_COORD97":181866.14000000001,"N_COORD97":2584899.5299999998,"ADDRESS":"葯店口７６號","OBJECTID":33780},"geometry":{"x":181866.13999999966,"y":2584899.5299999993}},{"attributes":{"ID":33781,"DIS_CODE":0,"TOWNNAME":"後壁區","LI":"平安里","LIN":"7鄰","STREET":" ","SECT":" ","MAREA":"葯店口","LANE":" ","ALLEY":" ","HOUSE_NO":"７７號","E_COORD97":181872.67000000001,"N_COORD97":2584881.23,"ADDRESS":"葯店口７７號","OBJECTID":33781},"geometry":{"x":181872.67000000086,"y":2584881.2300000023}},{"attributes":{"ID":33782,"DIS_CODE":0,"TOWNNAME":"後壁區","LI":"平安里","LIN":"7鄰","STREET":" ","SECT":" ","MAREA":"葯店口","LANE":" ","ALLEY":" ","HOUSE_NO":"７８號之１","E_COORD97":181861.95999999999,"N_COORD97":2584861.1600000001,"ADDRESS":"葯店口７８號之１","OBJECTID":33782},"geometry":{"x":181861.96000000089,"y":2584861.160000002}},{"attributes":{"ID":33783,"DIS_CODE":0,"TOWNNAME":"後壁區","LI":"平安里","LIN":"7鄰","STREET":" ","SECT":" ","MAREA":"葯店口","LANE":" ","ALLEY":" ","HOUSE_NO":"７８號","E_COORD97":181876.64000000001,"N_COORD97":2584864.8399999999,"ADDRESS":"葯店口７８號","OBJECTID":33783},"geometry":{"x":181876.63999999966,"y":2584864.8399999999}},{"attributes":{"ID":33784,"DIS_CODE":0,"TOWNNAME":"後壁區","LI":"平安里","LIN":"7鄰","STREET":" ","SECT":" ","MAREA":"葯店口","LANE":" ","ALLEY":" ","HOUSE_NO":"８６號之４","E_COORD97":181847.91,"N_COORD97":2584842.96,"ADDRESS":"葯店口８６號之４","OBJECTID":33784},"geometry":{"x":181847.91000000015,"y":2584842.9600000028}},{"attributes":{"ID":33785,"DIS_CODE":0,"TOWNNAME":"後壁區","LI":"平安里","LIN":"7鄰","STREET":" ","SECT":" ","MAREA":"葯店口","LANE":" ","ALLEY":" ","HOUSE_NO":"８６號之５","E_COORD97":181851.10999999999,"N_COORD97":2584839.9199999999,"ADDRESS":"葯店口８６號之５","OBJECTID":33785},"geometry":{"x":181851.11000000127,"y":2584839.9199999999}},{"attributes":{"ID":33786,"DIS_CODE":0,"TOWNNAME":"後壁區","LI":"平安里","LIN":"7鄰","STREET":" ","SECT":" ","MAREA":"葯店口","LANE":" ","ALLEY":" ","HOUSE_NO":"８６號之６","E_COORD97":181853.60000000001,"N_COORD97":2584836.6000000001,"ADDRESS":"葯店口８６號之６","OBJECTID":33786},"geometry":{"x":181853.60000000056,"y":2584836.6000000034}},{"attributes":{"ID":33787,"DIS_CODE":0,"TOWNNAME":"後壁區","LI":"平安里","LIN":"7鄰","STREET":" ","SECT":" ","MAREA":"葯店口","LANE":" ","ALLEY":" ","HOUSE_NO":"８６號之７","E_COORD97":181856.63,"N_COORD97":2584833.8300000001,"ADDRESS":"葯店口８６號之７","OBJECTID":33787},"geometry":{"x":181856.62999999989,"y":2584833.8300000001}},{"attributes":{"ID":33788,"DIS_CODE":0,"TOWNNAME":"後壁區","LI":"平安里","LIN":"7鄰","STREET":" ","SECT":" ","MAREA":"葯店口","LANE":" ","ALLEY":" ","HOUSE_NO":"８６號","E_COORD97":181825.07000000001,"N_COORD97":2584841.3100000001,"ADDRESS":"葯店口８６號","OBJECTID":33788},"geometry":{"x":181825.0700000003,"y":2584841.3100000005}},{"attributes":{"ID":33789,"DIS_CODE":0,"TOWNNAME":"後壁區","LI":"平安里","LIN":"7鄰","STREET":" ","SECT":" ","MAREA":"葯店口","LANE":" ","ALLEY":" ","HOUSE_NO":"８７號之２","E_COORD97":181841.16,"N_COORD97":2584868.5299999998,"ADDRESS":"葯店口８７號之２","OBJECTID":33789},"geometry":{"x":181841.16000000015,"y":2584868.5300000012}},{"attributes":{"ID":33790,"DIS_CODE":0,"TOWNNAME":"後壁區","LI":"平安里","LIN":"7鄰","STREET":" ","SECT":" ","MAREA":"葯店口","LANE":" ","ALLEY":" ","HOUSE_NO":"８７號","E_COORD97":181832.51999999999,"N_COORD97":2584866.9500000002,"ADDRESS":"葯店口８７號","OBJECTID":33790},"geometry":{"x":181832.52000000048,"y":2584866.9499999993}},{"attributes":{"ID":33791,"DIS_CODE":0,"TOWNNAME":"後壁區","LI":"平安里","LIN":"7鄰","STREET":" ","SECT":" ","MAREA":"葯店口","LANE":" ","ALLEY":" ","HOUSE_NO":"８９號之１０","E_COORD97":181709.82000000001,"N_COORD97":2584879.3199999998,"ADDRESS":"葯店口８９號之１０","OBJECTID":33791},"geometry":{"x":181709.8200000003,"y":2584879.3200000003}},{"attributes":{"ID":33792,"DIS_CODE":0,"TOWNNAME":"後壁區","LI":"平安里","LIN":"7鄰","STREET":" ","SECT":" ","MAREA":"葯店口","LANE":" ","ALLEY":" ","HOUSE_NO":"８９號之１１","E_COORD97":181716.81,"N_COORD97":2584882.27,"ADDRESS":"葯店口８９號之１１","OBJECTID":33792},"geometry":{"x":181716.81000000052,"y":2584882.2699999996}},{"attributes":{"ID":33793,"DIS_CODE":0,"TOWNNAME":"後壁區","LI":"平安里","LIN":"7鄰","STREET":" ","SECT":" ","MAREA":"葯店口","LANE":" ","ALLEY":" ","HOUSE_NO":"８９號之１","E_COORD97":181756.64000000001,"N_COORD97":2584854.1299999999,"ADDRESS":"葯店口８９號之１","OBJECTID":33793},"geometry":{"x":181756.64000000153,"y":2584854.1300000008}},{"attributes":{"ID":33794,"DIS_CODE":0,"TOWNNAME":"後壁區","LI":"平安里","LIN":"7鄰","STREET":" ","SECT":" ","MAREA":"葯店口","LANE":" ","ALLEY":" ","HOUSE_NO":"８９號之７","E_COORD97":181697.85999999999,"N_COORD97":2584861.8500000001,"ADDRESS":"葯店口８９號之７","OBJECTID":33794},"geometry":{"x":181697.86000000034,"y":2584861.8500000034}},{"attributes":{"ID":33795,"DIS_CODE":0,"TOWNNAME":"後壁區","LI":"平安里","LIN":"7鄰","STREET":" ","SECT":" ","MAREA":"葯店口","LANE":" ","ALLEY":" ","HOUSE_NO":"８９號之８","E_COORD97":181695.01999999999,"N_COORD97":2584866.4500000002,"ADDRESS":"葯店口８９號之８","OBJECTID":33795},"geometry":{"x":181695.02000000048,"y":2584866.4499999993}},{"attributes":{"ID":33796,"DIS_CODE":0,"TOWNNAME":"後壁區","LI":"平安里","LIN":"7鄰","STREET":" ","SECT":" ","MAREA":"葯店口","LANE":" ","ALLEY":" ","HOUSE_NO":"８９號之９","E_COORD97":181692.51999999999,"N_COORD97":2584870.7799999998,"ADDRESS":"葯店口８９號之９","OBJECTID":33796},"geometry":{"x":181692.51999999955,"y":2584870.7799999993}},{"attributes":{"ID":33797,"DIS_CODE":0,"TOWNNAME":"後壁區","LI":"平安里","LIN":"7鄰","STREET":" ","SECT":" ","MAREA":"葯店口","LANE":" ","ALLEY":" ","HOUSE_NO":"８９號","E_COORD97":181776.23000000001,"N_COORD97":2584872.1200000001,"ADDRESS":"葯店口８９號","OBJECTID":33797},"geometry":{"x":181776.23000000138,"y":2584872.1200000029}},{"attributes":{"ID":33798,"DIS_CODE":0,"TOWNNAME":"後壁區","LI":"平安里","LIN":"7鄰","STREET":" ","SECT":" ","MAREA":"葯店口","LANE":" ","ALLEY":" ","HOUSE_NO":"９０號","E_COORD97":181819.92000000001,"N_COORD97":2584901.0499999998,"ADDRESS":"葯店口９０號","OBJECTID":33798},"geometry":{"x":181819.92000000086,"y":2584901.0500000007}},{"attributes":{"ID":33799,"DIS_CODE":0,"TOWNNAME":"新市區","LI":"豐華里","LIN":"7鄰","STREET":" ","SECT":" ","MAREA":"豐華","LANE":" ","ALLEY":" ","HOUSE_NO":"６３之８號","E_COORD97":175384.89999999999,"N_COORD97":2554167.2999999998,"ADDRESS":"豐華６３之８號","OBJECTID":33799},"geometry":{"x":175384.89999999944,"y":2554167.3000000026}},{"attributes":{"ID":33800,"DIS_CODE":0,"TOWNNAME":"新市區","LI":"豐華里","LIN":"7鄰","STREET":" ","SECT":" ","MAREA":"豐華","LANE":" ","ALLEY":" ","HOUSE_NO":"６３之１號","E_COORD97":175440.01000000001,"N_COORD97":2554120.2999999998,"ADDRESS":"豐華６３之１號","OBJECTID":33800},"geometry":{"x":175440.01000000071,"y":2554120.3000000026}}]}