{"displayFieldName":"TOWNNAME","fieldAliases":{"ID":"ID","DIS_CODE":"DIS_CODE","TOWNNAME":"TOWNNAME","LI":"LI","LIN":"LIN","STREET":"STREET","SECT":"SECT","MAREA":"MAREA","LANE":"LANE","ALLEY":"ALLEY","HOUSE_NO":"HOUSE_NO","E_COORD97":"E_COORD97","N_COORD97":"N_COORD97","ADDRESS":"ADDRESS","OBJECTID":"OBJECTID"},"geometryType":"esriGeometryPoint","spatialReference":{"wkid":102443,"latestWkid":3826},"fields":[{"name":"ID","type":"esriFieldTypeDouble","alias":"ID"},{"name":"DIS_CODE","type":"esriFieldTypeInteger","alias":"DIS_CODE"},{"name":"TOWNNAME","type":"esriFieldTypeString","alias":"TOWNNAME","length":8},{"name":"LI","type":"esriFieldTypeString","alias":"LI","length":8},{"name":"LIN","type":"esriFieldTypeString","alias":"LIN","length":12},{"name":"STREET","type":"esriFieldTypeString","alias":"STREET","length":20},{"name":"SECT","type":"esriFieldTypeString","alias":"SECT","length":8},{"name":"MAREA","type":"esriFieldTypeString","alias":"MAREA","length":12},{"name":"LANE","type":"esriFieldTypeString","alias":"LANE","length":10},{"name":"ALLEY","type":"esriFieldTypeString","alias":"ALLEY","length":10},{"name":"HOUSE_NO","type":"esriFieldTypeString","alias":"HOUSE_NO","length":20},{"name":"E_COORD97","type":"esriFieldTypeDouble","alias":"E_COORD97"},{"name":"N_COORD97","type":"esriFieldTypeDouble","alias":"N_COORD97"},{"name":"ADDRESS","type":"esriFieldTypeString","alias":"ADDRESS","length":50},{"name":"OBJECTID","type":"esriFieldTypeOID","alias":"OBJECTID"}],"features":[{"attributes":{"ID":633028,"DIS_CODE":0,"TOWNNAME":"新營區","LI":"民生里","LIN":" ","STREET":"進修街","SECT":" ","MAREA":" ","LANE":" ","ALLEY":" ","HOUSE_NO":"１１之２１號","E_COORD97":179075.98000000001,"N_COORD97":2578384.48,"ADDRESS":"進修街１１之２１號","OBJECTID":633001},"geometry":{"x":179075.98000000045,"y":2578384.4800000023}},{"attributes":{"ID":633029,"DIS_CODE":0,"TOWNNAME":"新營區","LI":"王公里","LIN":"32鄰","STREET":"大德街","SECT":" ","MAREA":" ","LANE":" ","ALLEY":" ","HOUSE_NO":"１９之６號","E_COORD97":180205.44,"N_COORD97":2579562.98,"ADDRESS":"大德街１９之６號","OBJECTID":633002},"geometry":{"x":180205.44000000041,"y":2579562.9800000042}},{"attributes":{"ID":633030,"DIS_CODE":0,"TOWNNAME":"新營區","LI":"三仙里","LIN":"14鄰","STREET":"武昌街","SECT":" ","MAREA":" ","LANE":" ","ALLEY":" ","HOUSE_NO":"７１號之２","E_COORD97":179539.48999999999,"N_COORD97":2578290.3399999999,"ADDRESS":"武昌街７１號之２","OBJECTID":633003},"geometry":{"x":179539.49000000115,"y":2578290.3399999999}},{"attributes":{"ID":633031,"DIS_CODE":0,"TOWNNAME":"新營區","LI":"好平里","LIN":"5鄰","STREET":"南昌街","SECT":" ","MAREA":" ","LANE":" ","ALLEY":" ","HOUSE_NO":"４４號之３","E_COORD97":179466.19,"N_COORD97":2577661.6600000001,"ADDRESS":"南昌街４４號之３","OBJECTID":633004},"geometry":{"x":179466.19000000041,"y":2577661.6600000001}},{"attributes":{"ID":633032,"DIS_CODE":0,"TOWNNAME":"新營區","LI":"三仙里","LIN":"25鄰","STREET":"育德一街","SECT":" ","MAREA":" ","LANE":" ","ALLEY":" ","HOUSE_NO":"５６號之２","E_COORD97":179481.20000000001,"N_COORD97":2578940.7000000002,"ADDRESS":"育德一街５６號之２","OBJECTID":633005},"geometry":{"x":179481.20000000019,"y":2578940.7000000011}},{"attributes":{"ID":633033,"DIS_CODE":0,"TOWNNAME":"新營區","LI":"民榮里","LIN":"4鄰","STREET":"濟安街","SECT":" ","MAREA":" ","LANE":" ","ALLEY":" ","HOUSE_NO":"３４號","E_COORD97":179375.03,"N_COORD97":2577942.2200000002,"ADDRESS":"濟安街３４號","OBJECTID":633006},"geometry":{"x":179375.03000000119,"y":2577942.2200000025}},{"attributes":{"ID":633034,"DIS_CODE":0,"TOWNNAME":"新營區","LI":"永生里","LIN":"4鄰","STREET":"富源街","SECT":" ","MAREA":" ","LANE":" ","ALLEY":" ","HOUSE_NO":"２０號","E_COORD97":180048.32000000001,"N_COORD97":2577993.29,"ADDRESS":"富源街２０號","OBJECTID":633007},"geometry":{"x":180048.3200000003,"y":2577993.290000001}},{"attributes":{"ID":633035,"DIS_CODE":0,"TOWNNAME":"新營區","LI":"民權里","LIN":" ","STREET":"三民路","SECT":" ","MAREA":" ","LANE":" ","ALLEY":" ","HOUSE_NO":"９４之１號","E_COORD97":179957.03,"N_COORD97":2578515.3999999999,"ADDRESS":"三民路９４之１號","OBJECTID":633008},"geometry":{"x":179957.03000000026,"y":2578515.3999999985}},{"attributes":{"ID":633036,"DIS_CODE":0,"TOWNNAME":"新營區","LI":"民生里","LIN":" ","STREET":"復興路","SECT":" ","MAREA":" ","LANE":" ","ALLEY":" ","HOUSE_NO":"２２８之４號","E_COORD97":178933.39999999999,"N_COORD97":2578072.8599999999,"ADDRESS":"復興路２２８之４號","OBJECTID":633009},"geometry":{"x":178933.4000000013,"y":2578072.8599999994}},{"attributes":{"ID":633037,"DIS_CODE":0,"TOWNNAME":"新營區","LI":"延平里","LIN":" ","STREET":"復興路","SECT":" ","MAREA":" ","LANE":" ","ALLEY":" ","HOUSE_NO":"１之１１６號","E_COORD97":179715.17999999999,"N_COORD97":2577935.1299999999,"ADDRESS":"復興路１之１１６號","OBJECTID":633010},"geometry":{"x":179715.1799999997,"y":2577935.129999999}},{"attributes":{"ID":633038,"DIS_CODE":0,"TOWNNAME":"新營區","LI":"三仙里","LIN":"4鄰","STREET":"復興路","SECT":" ","MAREA":" ","LANE":" ","ALLEY":" ","HOUSE_NO":"５８號","E_COORD97":179588.22,"N_COORD97":2578047.5099999998,"ADDRESS":"復興路５８號","OBJECTID":633011},"geometry":{"x":179588.22000000067,"y":2578047.5100000016}},{"attributes":{"ID":633039,"DIS_CODE":0,"TOWNNAME":"新營區","LI":"三仙里","LIN":" ","STREET":"復興路","SECT":" ","MAREA":" ","LANE":" ","ALLEY":" ","HOUSE_NO":"１０２號","E_COORD97":179504.57999999999,"N_COORD97":2578053.46,"ADDRESS":"復興路１０２號","OBJECTID":633012},"geometry":{"x":179504.58000000194,"y":2578053.4600000009}},{"attributes":{"ID":633040,"DIS_CODE":0,"TOWNNAME":"新營區","LI":"民生里","LIN":" ","STREET":"中華路","SECT":" ","MAREA":" ","LANE":" ","ALLEY":" ","HOUSE_NO":"１３６號","E_COORD97":179094.09,"N_COORD97":2578201.6000000001,"ADDRESS":"中華路１３６號","OBJECTID":633013},"geometry":{"x":179094.09000000171,"y":2578201.6000000034}},{"attributes":{"ID":633041,"DIS_CODE":0,"TOWNNAME":"新營區","LI":"興安里","LIN":" ","STREET":"新進路","SECT":" ","MAREA":" ","LANE":" ","ALLEY":" ","HOUSE_NO":"３４９號","E_COORD97":179862.26999999999,"N_COORD97":2577750.54,"ADDRESS":"新進路３４９號","OBJECTID":633014},"geometry":{"x":179862.27000000048,"y":2577750.5400000028}},{"attributes":{"ID":633042,"DIS_CODE":0,"TOWNNAME":"新營區","LI":"延平里","LIN":"1鄰","STREET":"延平路","SECT":" ","MAREA":" ","LANE":" ","ALLEY":" ","HOUSE_NO":"４６之１６７號","E_COORD97":179679.995452,"N_COORD97":2577772.2563100001,"ADDRESS":"延平路４６之１６７號","OBJECTID":633015},"geometry":{"x":179679.99545200076,"y":2577772.2563130017}},{"attributes":{"ID":633043,"DIS_CODE":0,"TOWNNAME":"新營區","LI":"延平里","LIN":"4鄰","STREET":"長春街","SECT":" ","MAREA":" ","LANE":" ","ALLEY":" ","HOUSE_NO":"５３號之６","E_COORD97":179647.03,"N_COORD97":2577842.4199999999,"ADDRESS":"長春街５３號之之６","OBJECTID":633016},"geometry":{"x":179647.03000000026,"y":2577842.4199999999}},{"attributes":{"ID":633044,"DIS_CODE":0,"TOWNNAME":"新營區","LI":"延平里","LIN":"13鄰","STREET":"忠義街","SECT":" ","MAREA":" ","LANE":" ","ALLEY":" ","HOUSE_NO":"２６號之１","E_COORD97":179555.48999999999,"N_COORD97":2577941.4199999999,"ADDRESS":"忠義街２６號之１","OBJECTID":633017},"geometry":{"x":179555.49000000022,"y":2577941.4199999999}},{"attributes":{"ID":633045,"DIS_CODE":0,"TOWNNAME":"新營區","LI":"延平里","LIN":"5鄰","STREET":"長春街","SECT":" ","MAREA":" ","LANE":" ","ALLEY":" ","HOUSE_NO":"２之２０號","E_COORD97":179717.98999999999,"N_COORD97":2577912.9700000002,"ADDRESS":"長春街２之２０號","OBJECTID":633018},"geometry":{"x":179717.99000000115,"y":2577912.9700000025}},{"attributes":{"ID":633046,"DIS_CODE":0,"TOWNNAME":"新營區","LI":"延平里","LIN":"4鄰","STREET":"長春街","SECT":" ","MAREA":" ","LANE":" ","ALLEY":" ","HOUSE_NO":"５３號之１","E_COORD97":179664.45999999999,"N_COORD97":2577852.3100000001,"ADDRESS":"長春街５３號之１","OBJECTID":633019},"geometry":{"x":179664.45999999903,"y":2577852.3100000024}},{"attributes":{"ID":633047,"DIS_CODE":0,"TOWNNAME":"新營區","LI":"中營里","LIN":"14鄰","STREET":"東義街","SECT":" ","MAREA":" ","LANE":" ","ALLEY":" ","HOUSE_NO":"８之１號","E_COORD97":181342.73000000001,"N_COORD97":2578837.7000000002,"ADDRESS":"東義街８之１號","OBJECTID":633020},"geometry":{"x":181342.73000000045,"y":2578837.6999999974}},{"attributes":{"ID":633048,"DIS_CODE":0,"TOWNNAME":"新營區","LI":"王公里","LIN":"20鄰","STREET":"樂利街","SECT":" ","MAREA":" ","LANE":" ","ALLEY":" ","HOUSE_NO":"２４號","E_COORD97":180409.20000000001,"N_COORD97":2579257.4100000001,"ADDRESS":"樂利街２４號","OBJECTID":633021},"geometry":{"x":180409.20000000112,"y":2579257.4100000001}},{"attributes":{"ID":633049,"DIS_CODE":0,"TOWNNAME":"新營區","LI":"延平里","LIN":"1鄰","STREET":"延平路","SECT":" ","MAREA":" ","LANE":" ","ALLEY":" ","HOUSE_NO":"４６之１６５號","E_COORD97":179676.53198699999,"N_COORD97":2577777.8882399998,"ADDRESS":"延平路４６之１６５號","OBJECTID":633022},"geometry":{"x":179676.53198700212,"y":2577777.8882350028}},{"attributes":{"ID":633050,"DIS_CODE":0,"TOWNNAME":"新營區","LI":"新南里","LIN":"13鄰","STREET":"長榮路","SECT":"二段","MAREA":" ","LANE":" ","ALLEY":" ","HOUSE_NO":"７５１號","E_COORD97":178513.01000000001,"N_COORD97":2579239.8700000001,"ADDRESS":"長榮路二段７５１號","OBJECTID":633023},"geometry":{"x":178513.01000000164,"y":2579239.8700000029}},{"attributes":{"ID":633051,"DIS_CODE":0,"TOWNNAME":"新營區","LI":"南興里","LIN":" ","STREET":"建業路","SECT":" ","MAREA":" ","LANE":" ","ALLEY":" ","HOUSE_NO":"６６之３號","E_COORD97":179391.79000000001,"N_COORD97":2577518.0499999998,"ADDRESS":"建業路６６之３號","OBJECTID":633024},"geometry":{"x":179391.79000000097,"y":2577518.0499999989}},{"attributes":{"ID":633052,"DIS_CODE":0,"TOWNNAME":"新營區","LI":"中營里","LIN":" ","STREET":"文昌街","SECT":" ","MAREA":" ","LANE":" ","ALLEY":" ","HOUSE_NO":"３１號","E_COORD97":180321.95999999999,"N_COORD97":2578319.8100000001,"ADDRESS":"文昌街３１號","OBJECTID":633025},"geometry":{"x":180321.95999999996,"y":2578319.8100000042}},{"attributes":{"ID":633053,"DIS_CODE":0,"TOWNNAME":"新營區","LI":"王公里","LIN":"18鄰","STREET":"樂利街","SECT":" ","MAREA":" ","LANE":" ","ALLEY":" ","HOUSE_NO":"４５號","E_COORD97":180273.26000000001,"N_COORD97":2579274.6600000001,"ADDRESS":"樂利街４５號","OBJECTID":633026},"geometry":{"x":180273.26000000071,"y":2579274.660000002}},{"attributes":{"ID":633054,"DIS_CODE":0,"TOWNNAME":"安平區","LI":"金城里","LIN":"4鄰","STREET":"湖內一街","SECT":" ","MAREA":" ","LANE":" ","ALLEY":" ","HOUSE_NO":"７０號","E_COORD97":163744.32999999999,"N_COORD97":2544327,"ADDRESS":"湖內一街７０號","OBJECTID":633027},"geometry":{"x":163744.33000000194,"y":2544327.0000000019}},{"attributes":{"ID":633055,"DIS_CODE":0,"TOWNNAME":"新營區","LI":"忠政里","LIN":"20鄰","STREET":"府西路","SECT":" ","MAREA":" ","LANE":" ","ALLEY":" ","HOUSE_NO":"２５７之２號","E_COORD97":179785.89000000001,"N_COORD97":2579671.29,"ADDRESS":"府西路２５７之２號","OBJECTID":633028},"geometry":{"x":179785.8900000006,"y":2579671.2900000028}},{"attributes":{"ID":633056,"DIS_CODE":0,"TOWNNAME":"新營區","LI":"南興里","LIN":"13鄰","STREET":"南昌街","SECT":" ","MAREA":" ","LANE":" ","ALLEY":" ","HOUSE_NO":"１６３號","E_COORD97":179173.29000000001,"N_COORD97":2577654.1400000001,"ADDRESS":"南昌街１６３號","OBJECTID":633029},"geometry":{"x":179173.29000000097,"y":2577654.1400000025}},{"attributes":{"ID":633057,"DIS_CODE":0,"TOWNNAME":"新營區","LI":"新南里","LIN":"4鄰","STREET":"新北三街","SECT":" ","MAREA":" ","LANE":" ","ALLEY":" ","HOUSE_NO":"１２之１號","E_COORD97":178617.72,"N_COORD97":2578851.8100000001,"ADDRESS":"新北三街１２之１號","OBJECTID":633030},"geometry":{"x":178617.71999999974,"y":2578851.8099999987}},{"attributes":{"ID":633058,"DIS_CODE":0,"TOWNNAME":"新營區","LI":"三仙里","LIN":" ","STREET":"民權路","SECT":" ","MAREA":" ","LANE":" ","ALLEY":" ","HOUSE_NO":"１３號","E_COORD97":179735.64000000001,"N_COORD97":2578076.7200000002,"ADDRESS":"民權路１３號","OBJECTID":633031},"geometry":{"x":179735.63999999966,"y":2578076.7200000025}},{"attributes":{"ID":633059,"DIS_CODE":0,"TOWNNAME":"新營區","LI":"延平里","LIN":"1鄰","STREET":"延平路","SECT":" ","MAREA":" ","LANE":" ","ALLEY":" ","HOUSE_NO":"４６之１５１號","E_COORD97":179686.86324899999,"N_COORD97":2577786.2226,"ADDRESS":"延平路４６之１５１號","OBJECTID":633032},"geometry":{"x":179686.86324900202,"y":2577786.2226050012}},{"attributes":{"ID":633060,"DIS_CODE":0,"TOWNNAME":"新營區","LI":"新北里","LIN":"18鄰","STREET":"民生路","SECT":" ","MAREA":" ","LANE":" ","ALLEY":" ","HOUSE_NO":"１８５號","E_COORD97":179132.10000000001,"N_COORD97":2578878.0800000001,"ADDRESS":"民生路１８５號","OBJECTID":633033},"geometry":{"x":179132.09999999963,"y":2578878.0800000019}},{"attributes":{"ID":633061,"DIS_CODE":0,"TOWNNAME":"新營區","LI":"新北里","LIN":"13鄰","STREET":"南新街","SECT":" ","MAREA":" ","LANE":" ","ALLEY":" ","HOUSE_NO":"１６９號","E_COORD97":179307.44,"N_COORD97":2578970.27,"ADDRESS":"南新街１６９號","OBJECTID":633034},"geometry":{"x":179307.44000000227,"y":2578970.2700000014}},{"attributes":{"ID":633062,"DIS_CODE":0,"TOWNNAME":"新營區","LI":"好平里","LIN":"13鄰","STREET":"和平路","SECT":" ","MAREA":" ","LANE":" ","ALLEY":" ","HOUSE_NO":"１１號","E_COORD97":179412.10000000001,"N_COORD97":2578014.0299999998,"ADDRESS":"和平路１１號","OBJECTID":633035},"geometry":{"x":179412.09999999963,"y":2578014.0299999993}},{"attributes":{"ID":633063,"DIS_CODE":0,"TOWNNAME":"新營區","LI":"民生里","LIN":"17鄰","STREET":"中華路","SECT":" ","MAREA":" ","LANE":" ","ALLEY":" ","HOUSE_NO":"１１３號","E_COORD97":179155.25,"N_COORD97":2578157.0099999998,"ADDRESS":"中華路１１３號","OBJECTID":633036},"geometry":{"x":179155.25,"y":2578157.0099999998}},{"attributes":{"ID":633064,"DIS_CODE":0,"TOWNNAME":"新營區","LI":"大宏里","LIN":" ","STREET":"大同路","SECT":" ","MAREA":" ","LANE":" ","ALLEY":" ","HOUSE_NO":"３０之２０號","E_COORD97":180724.95999999999,"N_COORD97":2578828.52,"ADDRESS":"大同路３０之２０號","OBJECTID":633037},"geometry":{"x":180724.95999999996,"y":2578828.5199999996}},{"attributes":{"ID":633065,"DIS_CODE":0,"TOWNNAME":"新營區","LI":"興安里","LIN":" ","STREET":"新進路","SECT":" ","MAREA":" ","LANE":" ","ALLEY":" ","HOUSE_NO":"３３３號","E_COORD97":179889.97,"N_COORD97":2577768.1200000001,"ADDRESS":"新進路３３３號","OBJECTID":633038},"geometry":{"x":179889.97000000067,"y":2577768.120000001}},{"attributes":{"ID":633066,"DIS_CODE":0,"TOWNNAME":"新營區","LI":"民生里","LIN":"13鄰","STREET":"民治路","SECT":" ","MAREA":" ","LANE":" ","ALLEY":" ","HOUSE_NO":"３２９號","E_COORD97":178699.29999999999,"N_COORD97":2578192.4199999999,"ADDRESS":"民治路３２９號","OBJECTID":633039},"geometry":{"x":178699.30000000168,"y":2578192.4199999999}},{"attributes":{"ID":633067,"DIS_CODE":0,"TOWNNAME":"新營區","LI":"忠政里","LIN":"24鄰","STREET":"健康路","SECT":" ","MAREA":" ","LANE":" ","ALLEY":" ","HOUSE_NO":"１９２號","E_COORD97":179672.47,"N_COORD97":2579373.8599999999,"ADDRESS":"健康路１９２號","OBJECTID":633040},"geometry":{"x":179672.46999999974,"y":2579373.8600000013}},{"attributes":{"ID":633068,"DIS_CODE":0,"TOWNNAME":"新營區","LI":"民榮里","LIN":" ","STREET":"復興路","SECT":" ","MAREA":" ","LANE":" ","ALLEY":" ","HOUSE_NO":"１７１號","E_COORD97":178857.54999999999,"N_COORD97":2577935.8399999999,"ADDRESS":"復興路１７１號","OBJECTID":633041},"geometry":{"x":178857.55000000075,"y":2577935.8400000036}},{"attributes":{"ID":633069,"DIS_CODE":0,"TOWNNAME":"新營區","LI":"南興里","LIN":" ","STREET":"建業路","SECT":" ","MAREA":" ","LANE":" ","ALLEY":" ","HOUSE_NO":"８之６號","E_COORD97":179609.76999999999,"N_COORD97":2577572.3700000001,"ADDRESS":"建業路８之６號","OBJECTID":633042},"geometry":{"x":179609.77000000048,"y":2577572.370000001}},{"attributes":{"ID":633070,"DIS_CODE":0,"TOWNNAME":"新營區","LI":"三仙里","LIN":" ","STREET":"民權路","SECT":" ","MAREA":" ","LANE":" ","ALLEY":" ","HOUSE_NO":"７５之５號","E_COORD97":179628.57999999999,"N_COORD97":2578478.1899999999,"ADDRESS":"民權路７５之５號","OBJECTID":633043},"geometry":{"x":179628.58000000101,"y":2578478.1899999995}},{"attributes":{"ID":633071,"DIS_CODE":0,"TOWNNAME":"新營區","LI":"大宏里","LIN":" ","STREET":"大同路","SECT":" ","MAREA":" ","LANE":" ","ALLEY":" ","HOUSE_NO":"３０之６號","E_COORD97":180723.70999999999,"N_COORD97":2578828.52,"ADDRESS":"大同路３０之６號","OBJECTID":633044},"geometry":{"x":180723.70999999996,"y":2578828.5199999996}},{"attributes":{"ID":633072,"DIS_CODE":0,"TOWNNAME":"新營區","LI":"大宏里","LIN":" ","STREET":"文昌街","SECT":" ","MAREA":" ","LANE":" ","ALLEY":" ","HOUSE_NO":"６７號","E_COORD97":180452.48000000001,"N_COORD97":2578467.5899999999,"ADDRESS":"文昌街６７號","OBJECTID":633045},"geometry":{"x":180452.48000000045,"y":2578467.5900000017}},{"attributes":{"ID":633073,"DIS_CODE":0,"TOWNNAME":"新營區","LI":"民權里","LIN":" ","STREET":"仁愛街","SECT":" ","MAREA":" ","LANE":" ","ALLEY":" ","HOUSE_NO":"３８之１號","E_COORD97":179800.01000000001,"N_COORD97":2578377.7000000002,"ADDRESS":"仁愛街３８之１號","OBJECTID":633046},"geometry":{"x":179800.01000000071,"y":2578377.7000000011}},{"attributes":{"ID":633074,"DIS_CODE":0,"TOWNNAME":"新營區","LI":"王公里","LIN":"20鄰","STREET":"樂利街","SECT":" ","MAREA":" ","LANE":" ","ALLEY":" ","HOUSE_NO":"５０號","E_COORD97":180466.44,"N_COORD97":2579260.46,"ADDRESS":"樂利街５０號","OBJECTID":633047},"geometry":{"x":180466.44000000041,"y":2579260.4600000009}},{"attributes":{"ID":633075,"DIS_CODE":0,"TOWNNAME":"新營區","LI":"民生里","LIN":"24鄰","STREET":"民生路","SECT":" ","MAREA":" ","LANE":" ","ALLEY":" ","HOUSE_NO":"１３５號","E_COORD97":179239.17000000001,"N_COORD97":2578596.27,"ADDRESS":"民生路１３５號","OBJECTID":633048},"geometry":{"x":179239.16999999899,"y":2578596.2699999996}},{"attributes":{"ID":633076,"DIS_CODE":0,"TOWNNAME":"新營區","LI":"嘉芳里","LIN":"14鄰","STREET":"五福路","SECT":" ","MAREA":" ","LANE":" ","ALLEY":" ","HOUSE_NO":"１１之１號","E_COORD97":176761.47,"N_COORD97":2578272.8100000001,"ADDRESS":"五福路１１之１號","OBJECTID":633049},"geometry":{"x":176761.46999999974,"y":2578272.8100000024}},{"attributes":{"ID":633077,"DIS_CODE":0,"TOWNNAME":"新營區","LI":"民生里","LIN":"7鄰","STREET":"民生路","SECT":" ","MAREA":" ","LANE":" ","ALLEY":" ","HOUSE_NO":"１７號","E_COORD97":179354.73999999999,"N_COORD97":2578210.3199999998,"ADDRESS":"民生路１７號","OBJECTID":633050},"geometry":{"x":179354.74000000115,"y":2578210.3200000003}},{"attributes":{"ID":633078,"DIS_CODE":0,"TOWNNAME":"新營區","LI":"新南里","LIN":"20鄰","STREET":"復興路","SECT":" ","MAREA":" ","LANE":" ","ALLEY":" ","HOUSE_NO":"３５４號","E_COORD97":178599.97,"N_COORD97":2578170.75,"ADDRESS":"復興路３５４號","OBJECTID":633051},"geometry":{"x":178599.97000000067,"y":2578170.7500000019}},{"attributes":{"ID":633079,"DIS_CODE":0,"TOWNNAME":"新營區","LI":"民生里","LIN":"25鄰","STREET":"民生路","SECT":" ","MAREA":" ","LANE":" ","ALLEY":" ","HOUSE_NO":"１４９號","E_COORD97":179227.07000000001,"N_COORD97":2578631.77,"ADDRESS":"民生路１４９號","OBJECTID":633052},"geometry":{"x":179227.07000000123,"y":2578631.7700000014}},{"attributes":{"ID":633080,"DIS_CODE":0,"TOWNNAME":"新營區","LI":"民榮里","LIN":" ","STREET":"裕民路","SECT":" ","MAREA":" ","LANE":" ","ALLEY":" ","HOUSE_NO":"１１之５號","E_COORD97":179202.07999999999,"N_COORD97":2577848.9700000002,"ADDRESS":"裕民路１１之５號","OBJECTID":633053},"geometry":{"x":179202.08000000007,"y":2577848.9700000025}},{"attributes":{"ID":633081,"DIS_CODE":0,"TOWNNAME":"新營區","LI":"民榮里","LIN":" ","STREET":"南昌街","SECT":" ","MAREA":" ","LANE":" ","ALLEY":" ","HOUSE_NO":"５６之１號","E_COORD97":179329.06,"N_COORD97":2577658.9900000002,"ADDRESS":"南昌街５６之１號","OBJECTID":633054},"geometry":{"x":179329.05999999959,"y":2577658.9900000002}},{"attributes":{"ID":633082,"DIS_CODE":0,"TOWNNAME":"新營區","LI":"民榮里","LIN":"13鄰","STREET":"新進路","SECT":"二段","MAREA":" ","LANE":" ","ALLEY":" ","HOUSE_NO":"１８３之１號","E_COORD97":179224.20000000001,"N_COORD97":2577721.52,"ADDRESS":"新進路二段１８３之１號","OBJECTID":633055},"geometry":{"x":179224.20000000205,"y":2577721.5200000014}},{"attributes":{"ID":633083,"DIS_CODE":0,"TOWNNAME":"新營區","LI":"民權里","LIN":"24鄰","STREET":"信義街","SECT":" ","MAREA":" ","LANE":" ","ALLEY":" ","HOUSE_NO":"７７號","E_COORD97":179758.48999999999,"N_COORD97":2578792.0299999998,"ADDRESS":"信義街７７號","OBJECTID":633056},"geometry":{"x":179758.49000000115,"y":2578792.0300000012}},{"attributes":{"ID":633084,"DIS_CODE":0,"TOWNNAME":"新營區","LI":"埤寮里","LIN":"4鄰","STREET":"建國路","SECT":" ","MAREA":" ","LANE":" ","ALLEY":" ","HOUSE_NO":"１０６號","E_COORD97":179756.19,"N_COORD97":2581068.9700000002,"ADDRESS":"建國路１０６號","OBJECTID":633057},"geometry":{"x":179756.19000000041,"y":2581068.9700000025}},{"attributes":{"ID":633085,"DIS_CODE":0,"TOWNNAME":"新營區","LI":"興業里","LIN":" ","STREET":"中山路","SECT":" ","MAREA":" ","LANE":" ","ALLEY":" ","HOUSE_NO":"９１之１５號","E_COORD97":180484.64999999999,"N_COORD97":2578211.6899999999,"ADDRESS":"中山路９１之１５號","OBJECTID":633058},"geometry":{"x":180484.6500000013,"y":2578211.6900000013}},{"attributes":{"ID":633086,"DIS_CODE":0,"TOWNNAME":"新營區","LI":"大宏里","LIN":"26鄰","STREET":"民族路","SECT":" ","MAREA":" ","LANE":" ","ALLEY":" ","HOUSE_NO":"７之３號","E_COORD97":180291.57000000001,"N_COORD97":2578345.48,"ADDRESS":"民族路７之３號","OBJECTID":633059},"geometry":{"x":180291.57000000123,"y":2578345.4799999986}},{"attributes":{"ID":633087,"DIS_CODE":0,"TOWNNAME":"新營區","LI":"民生里","LIN":" ","STREET":"三民路","SECT":" ","MAREA":" ","LANE":" ","ALLEY":" ","HOUSE_NO":"１３７之１號","E_COORD97":179260.26999999999,"N_COORD97":2578206.4100000001,"ADDRESS":"三民路１３７之１號","OBJECTID":633060},"geometry":{"x":179260.27000000142,"y":2578206.4100000001}},{"attributes":{"ID":633088,"DIS_CODE":0,"TOWNNAME":"新營區","LI":"延平里","LIN":" ","STREET":"復興路","SECT":" ","MAREA":" ","LANE":" ","ALLEY":" ","HOUSE_NO":"１之１３０號","E_COORD97":179715.17999999999,"N_COORD97":2577935.1299999999,"ADDRESS":"復興路１之１３０號","OBJECTID":633061},"geometry":{"x":179715.1799999997,"y":2577935.129999999}},{"attributes":{"ID":633089,"DIS_CODE":0,"TOWNNAME":"新營區","LI":"土庫里","LIN":"18鄰","STREET":"開元路","SECT":" ","MAREA":" ","LANE":" ","ALLEY":" ","HOUSE_NO":"２５５號之１","E_COORD97":181882.94,"N_COORD97":2579750.0800000001,"ADDRESS":"開元路２５５號之１","OBJECTID":633062},"geometry":{"x":181882.94000000134,"y":2579750.0800000001}},{"attributes":{"ID":633090,"DIS_CODE":0,"TOWNNAME":"新營區","LI":"南興里","LIN":"5鄰","STREET":"建業路","SECT":" ","MAREA":" ","LANE":" ","ALLEY":" ","HOUSE_NO":"６４號之２","E_COORD97":179428.66,"N_COORD97":2577526.73,"ADDRESS":"建業路６４之２號","OBJECTID":633063},"geometry":{"x":179428.66000000015,"y":2577526.7299999986}},{"attributes":{"ID":633091,"DIS_CODE":0,"TOWNNAME":"新營區","LI":"民榮里","LIN":" ","STREET":"復興路","SECT":" ","MAREA":" ","LANE":" ","ALLEY":" ","HOUSE_NO":"１５９之５號","E_COORD97":178999.45999999999,"N_COORD97":2577998.3500000001,"ADDRESS":"復興路１５９之５號","OBJECTID":633064},"geometry":{"x":178999.45999999996,"y":2577998.3499999996}},{"attributes":{"ID":633092,"DIS_CODE":0,"TOWNNAME":"新營區","LI":"三仙里","LIN":"25鄰","STREET":"育德一街","SECT":" ","MAREA":" ","LANE":" ","ALLEY":" ","HOUSE_NO":"４２號","E_COORD97":179511.76000000001,"N_COORD97":2578948.2400000002,"ADDRESS":"育德一街４２號","OBJECTID":633065},"geometry":{"x":179511.76000000071,"y":2578948.2400000021}},{"attributes":{"ID":633093,"DIS_CODE":0,"TOWNNAME":"新營區","LI":"延平里","LIN":"4鄰","STREET":"長春街","SECT":" ","MAREA":" ","LANE":" ","ALLEY":" ","HOUSE_NO":"４１號","E_COORD97":179704.717791,"N_COORD97":2577877.9536000001,"ADDRESS":"長春街４１號","OBJECTID":633066},"geometry":{"x":179704.71779100131,"y":2577877.9535980038}},{"attributes":{"ID":633094,"DIS_CODE":0,"TOWNNAME":"新營區","LI":"新北里","LIN":"18鄰","STREET":"民生路","SECT":" ","MAREA":" ","LANE":" ","ALLEY":" ","HOUSE_NO":"９４號","E_COORD97":179203.98000000001,"N_COORD97":2578776.9500000002,"ADDRESS":"民生路９４號","OBJECTID":633067},"geometry":{"x":179203.98000000138,"y":2578776.9499999993}},{"attributes":{"ID":633095,"DIS_CODE":0,"TOWNNAME":"新營區","LI":"民榮里","LIN":"13鄰","STREET":"興農街","SECT":" ","MAREA":" ","LANE":" ","ALLEY":" ","HOUSE_NO":"１１２號","E_COORD97":179256.39999999999,"N_COORD97":2577706.9100000001,"ADDRESS":"興農街１１２號","OBJECTID":633068},"geometry":{"x":179256.40000000037,"y":2577706.9100000001}},{"attributes":{"ID":633096,"DIS_CODE":0,"TOWNNAME":"新營區","LI":"王公里","LIN":"4鄰","STREET":"民族路","SECT":" ","MAREA":" ","LANE":" ","ALLEY":" ","HOUSE_NO":"８２號","E_COORD97":180300.62,"N_COORD97":2579006.52,"ADDRESS":"民族路８２號","OBJECTID":633069},"geometry":{"x":180300.62000000011,"y":2579006.5200000014}},{"attributes":{"ID":633097,"DIS_CODE":0,"TOWNNAME":"新營區","LI":"延平里","LIN":"4鄰","STREET":"成功街","SECT":" ","MAREA":" ","LANE":" ","ALLEY":" ","HOUSE_NO":"２２號","E_COORD97":179705.353561,"N_COORD97":2577826.0952900001,"ADDRESS":"成功街２２號","OBJECTID":633070},"geometry":{"x":179705.3535610009,"y":2577826.0952920001}},{"attributes":{"ID":633098,"DIS_CODE":0,"TOWNNAME":"新營區","LI":"民生里","LIN":" ","STREET":"中華路","SECT":" ","MAREA":" ","LANE":" ","ALLEY":" ","HOUSE_NO":"９１之３號","E_COORD97":179261.75,"N_COORD97":2578141.0600000001,"ADDRESS":"中華路９１之３號","OBJECTID":633071},"geometry":{"x":179261.75,"y":2578141.0600000005}},{"attributes":{"ID":633099,"DIS_CODE":0,"TOWNNAME":"新營區","LI":"王公里","LIN":"32鄰","STREET":"大德街","SECT":" ","MAREA":" ","LANE":" ","ALLEY":" ","HOUSE_NO":"１４號","E_COORD97":180197.66,"N_COORD97":2579529.73,"ADDRESS":"大德街１４號","OBJECTID":633072},"geometry":{"x":180197.66000000108,"y":2579529.7300000004}},{"attributes":{"ID":633100,"DIS_CODE":0,"TOWNNAME":"新營區","LI":"中營里","LIN":"14鄰","STREET":"東昇街","SECT":" ","MAREA":" ","LANE":" ","ALLEY":" ","HOUSE_NO":"１７３號","E_COORD97":181903.67999999999,"N_COORD97":2579035.6200000001,"ADDRESS":"東昇街１７３號","OBJECTID":633073},"geometry":{"x":181903.67999999877,"y":2579035.620000001}},{"attributes":{"ID":633101,"DIS_CODE":0,"TOWNNAME":"新營區","LI":"大宏里","LIN":" ","STREET":"大同路","SECT":" ","MAREA":" ","LANE":" ","ALLEY":" ","HOUSE_NO":"３６之５號","E_COORD97":180787.29999999999,"N_COORD97":2578864.77,"ADDRESS":"大同路３６之５號","OBJECTID":633074},"geometry":{"x":180787.29999999981,"y":2578864.7700000033}},{"attributes":{"ID":633102,"DIS_CODE":0,"TOWNNAME":"新營區","LI":"三仙里","LIN":"26鄰","STREET":"育德三街","SECT":" ","MAREA":" ","LANE":" ","ALLEY":" ","HOUSE_NO":"３６號","E_COORD97":179509.92000000001,"N_COORD97":2578989.23,"ADDRESS":"育德三街３６號","OBJECTID":633075},"geometry":{"x":179509.91999999993,"y":2578989.2300000023}},{"attributes":{"ID":633103,"DIS_CODE":0,"TOWNNAME":"新營區","LI":"中營里","LIN":"13鄰","STREET":"東山路","SECT":" ","MAREA":" ","LANE":" ","ALLEY":" ","HOUSE_NO":"１６２號","E_COORD97":181897.07000000001,"N_COORD97":2578712.27,"ADDRESS":"東山路１６２號","OBJECTID":633076},"geometry":{"x":181897.07000000123,"y":2578712.2700000033}},{"attributes":{"ID":633104,"DIS_CODE":0,"TOWNNAME":"新營區","LI":"民權里","LIN":"4鄰","STREET":"信義街","SECT":" ","MAREA":" ","LANE":" ","ALLEY":" ","HOUSE_NO":"５０之２號","E_COORD97":179929.97,"N_COORD97":2578406.9900000002,"ADDRESS":"信義街５０之２號","OBJECTID":633077},"geometry":{"x":179929.96999999974,"y":2578406.9900000021}},{"attributes":{"ID":633105,"DIS_CODE":0,"TOWNNAME":"新營區","LI":"民權里","LIN":"4鄰","STREET":"中正路","SECT":" ","MAREA":" ","LANE":" ","ALLEY":" ","HOUSE_NO":"７之１號","E_COORD97":180042.17000000001,"N_COORD97":2578385.4100000001,"ADDRESS":"中正路７之１號","OBJECTID":633078},"geometry":{"x":180042.16999999993,"y":2578385.4100000001}},{"attributes":{"ID":633106,"DIS_CODE":0,"TOWNNAME":"新營區","LI":"民榮里","LIN":" ","STREET":"裕民路","SECT":" ","MAREA":" ","LANE":" ","ALLEY":" ","HOUSE_NO":"１１之２號","E_COORD97":179166.23999999999,"N_COORD97":2577842.5,"ADDRESS":"裕民路１１之２號","OBJECTID":633079},"geometry":{"x":179166.24000000209,"y":2577842.5}},{"attributes":{"ID":633107,"DIS_CODE":0,"TOWNNAME":"新營區","LI":"南興里","LIN":"3鄰","STREET":"南昌街","SECT":" ","MAREA":" ","LANE":" ","ALLEY":" ","HOUSE_NO":"３７號之１","E_COORD97":179571.42000000001,"N_COORD97":2577630.1499999999,"ADDRESS":"南昌街３７之１號","OBJECTID":633080},"geometry":{"x":179571.41999999899,"y":2577630.1500000022}},{"attributes":{"ID":633108,"DIS_CODE":0,"TOWNNAME":"新營區","LI":"興業里","LIN":" ","STREET":"中山路","SECT":" ","MAREA":" ","LANE":" ","ALLEY":" ","HOUSE_NO":"９１之２７號","E_COORD97":180455.92000000001,"N_COORD97":2578191.8799999999,"ADDRESS":"中山路９１之２７號","OBJECTID":633081},"geometry":{"x":180455.91999999993,"y":2578191.879999999}},{"attributes":{"ID":633109,"DIS_CODE":0,"TOWNNAME":"學甲區","LI":"新達里","LIN":"6鄰","STREET":"華宗路","SECT":" ","MAREA":" ","LANE":" ","ALLEY":" ","HOUSE_NO":"５１８號","E_COORD97":166424.97,"N_COORD97":2570669.3199999998,"ADDRESS":"華宗路５１８號","OBJECTID":633082},"geometry":{"x":166424.97000000067,"y":2570669.3200000003}},{"attributes":{"ID":633110,"DIS_CODE":0,"TOWNNAME":"新營區","LI":"民榮里","LIN":" ","STREET":"裕民路","SECT":" ","MAREA":" ","LANE":" ","ALLEY":" ","HOUSE_NO":"１７之８號","E_COORD97":179188.57000000001,"N_COORD97":2577806.96,"ADDRESS":"裕民路１７之８號","OBJECTID":633083},"geometry":{"x":179188.57000000123,"y":2577806.959999999}},{"attributes":{"ID":633111,"DIS_CODE":0,"TOWNNAME":"新營區","LI":"忠政里","LIN":"25鄰","STREET":"府西路","SECT":" ","MAREA":" ","LANE":" ","ALLEY":" ","HOUSE_NO":"１７１號","E_COORD97":179797.44,"N_COORD97":2579413.1299999999,"ADDRESS":"府西路１７１號","OBJECTID":633084},"geometry":{"x":179797.44000000227,"y":2579413.129999999}},{"attributes":{"ID":633112,"DIS_CODE":0,"TOWNNAME":"新營區","LI":"民榮里","LIN":"13鄰","STREET":"南昌街","SECT":" ","MAREA":" ","LANE":" ","ALLEY":" ","HOUSE_NO":"６４之３號","E_COORD97":179178.75,"N_COORD97":2577676.3199999998,"ADDRESS":"南昌街６４之３號","OBJECTID":633085},"geometry":{"x":179178.75,"y":2577676.3200000022}},{"attributes":{"ID":633113,"DIS_CODE":0,"TOWNNAME":"新營區","LI":"中營里","LIN":"13鄰","STREET":"東山路","SECT":" ","MAREA":" ","LANE":" ","ALLEY":" ","HOUSE_NO":"１４８之１號","E_COORD97":181798.07000000001,"N_COORD97":2578659.6299999999,"ADDRESS":"東山路１４８之１號","OBJECTID":633086},"geometry":{"x":181798.0700000003,"y":2578659.6300000008}},{"attributes":{"ID":633114,"DIS_CODE":0,"TOWNNAME":"新營區","LI":"民生里","LIN":" ","STREET":"三民路","SECT":" ","MAREA":" ","LANE":" ","ALLEY":" ","HOUSE_NO":"１３９之１號","E_COORD97":179250.95999999999,"N_COORD97":2578185.4100000001,"ADDRESS":"三民路１３９之１號","OBJECTID":633087},"geometry":{"x":179250.96000000183,"y":2578185.4100000001}},{"attributes":{"ID":633115,"DIS_CODE":0,"TOWNNAME":"新營區","LI":"民權里","LIN":"4鄰","STREET":"武昌街","SECT":" ","MAREA":" ","LANE":" ","ALLEY":" ","HOUSE_NO":"８號","E_COORD97":179961.85000000001,"N_COORD97":2578358.04,"ADDRESS":"武昌街８號","OBJECTID":633088},"geometry":{"x":179961.85000000056,"y":2578358.040000001}},{"attributes":{"ID":633116,"DIS_CODE":0,"TOWNNAME":"南區","LI":"南華里","LIN":"20鄰","STREET":"金華路","SECT":"一段","MAREA":" ","LANE":" ","ALLEY":" ","HOUSE_NO":"３３號","E_COORD97":166855.97,"N_COORD97":2540321.1800000002,"ADDRESS":"金華路一段３３號","OBJECTID":633089},"geometry":{"x":166855.97000000067,"y":2540321.1800000016}},{"attributes":{"ID":633117,"DIS_CODE":0,"TOWNNAME":"南區","LI":"南華里","LIN":"20鄰","STREET":"金華路","SECT":"一段","MAREA":" ","LANE":" ","ALLEY":" ","HOUSE_NO":"３５號","E_COORD97":166857.06,"N_COORD97":2540325.9900000002,"ADDRESS":"金華路一段３５號","OBJECTID":633090},"geometry":{"x":166857.06000000052,"y":2540325.9900000021}},{"attributes":{"ID":633118,"DIS_CODE":0,"TOWNNAME":"南區","LI":"南華里","LIN":"20鄰","STREET":"金華路","SECT":"一段","MAREA":" ","LANE":" ","ALLEY":" ","HOUSE_NO":"３７號","E_COORD97":166857.98999999999,"N_COORD97":2540330.7999999998,"ADDRESS":"金華路一段３７號","OBJECTID":633091},"geometry":{"x":166857.99000000115,"y":2540330.8000000045}},{"attributes":{"ID":633119,"DIS_CODE":0,"TOWNNAME":"南區","LI":"南華里","LIN":"20鄰","STREET":"金華路","SECT":"一段","MAREA":" ","LANE":" ","ALLEY":" ","HOUSE_NO":"３９號","E_COORD97":166858.76999999999,"N_COORD97":2540334.9900000002,"ADDRESS":"金華路一段３９號","OBJECTID":633092},"geometry":{"x":166858.77000000048,"y":2540334.9900000002}},{"attributes":{"ID":633120,"DIS_CODE":0,"TOWNNAME":"學甲區","LI":"新達里","LIN":"6鄰","STREET":"華宗路","SECT":" ","MAREA":" ","LANE":" ","ALLEY":" ","HOUSE_NO":"５２０號","E_COORD97":166414.89000000001,"N_COORD97":2570676.0099999998,"ADDRESS":"華宗路５２０號","OBJECTID":633093},"geometry":{"x":166414.88999999966,"y":2570676.0100000016}},{"attributes":{"ID":633121,"DIS_CODE":0,"TOWNNAME":"南區","LI":"鯤鯓里","LIN":"1鄰","STREET":"鯤鯓路","SECT":" ","MAREA":" ","LANE":" ","ALLEY":" ","HOUSE_NO":"９１號","E_COORD97":165123.39999999999,"N_COORD97":2539985.6600000001,"ADDRESS":"鯤鯓路９１號","OBJECTID":633094},"geometry":{"x":165123.40000000037,"y":2539985.660000002}},{"attributes":{"ID":633122,"DIS_CODE":0,"TOWNNAME":"安平區","LI":"金城里","LIN":"4鄰","STREET":"湖內一街","SECT":" ","MAREA":" ","LANE":" ","ALLEY":" ","HOUSE_NO":"６８號","E_COORD97":163745.14000000001,"N_COORD97":2544322.9500000002,"ADDRESS":"湖內一街６８號","OBJECTID":633095},"geometry":{"x":163745.14000000153,"y":2544322.9500000011}},{"attributes":{"ID":633123,"DIS_CODE":0,"TOWNNAME":"安平區","LI":"金城里","LIN":"4鄰","STREET":"湖內一街","SECT":" ","MAREA":" ","LANE":" ","ALLEY":" ","HOUSE_NO":"７４號","E_COORD97":163741.69,"N_COORD97":2544335.9199999999,"ADDRESS":"湖內一街７４號","OBJECTID":633096},"geometry":{"x":163741.69000000041,"y":2544335.9199999999}},{"attributes":{"ID":633124,"DIS_CODE":0,"TOWNNAME":"安平區","LI":"金城里","LIN":"4鄰","STREET":"湖內一街","SECT":" ","MAREA":" ","LANE":" ","ALLEY":" ","HOUSE_NO":"４４號","E_COORD97":163756.89999999999,"N_COORD97":2544270.1699999999,"ADDRESS":"湖內一街４４號","OBJECTID":633097},"geometry":{"x":163756.90000000037,"y":2544270.1699999999}},{"attributes":{"ID":633125,"DIS_CODE":0,"TOWNNAME":"安平區","LI":"怡平里","LIN":"20鄰","STREET":"文平路","SECT":" ","MAREA":" ","LANE":" ","ALLEY":" ","HOUSE_NO":"４４５號","E_COORD97":165794.81,"N_COORD97":2543819.6499999999,"ADDRESS":"文平路４４５號","OBJECTID":633098},"geometry":{"x":165794.80999999959,"y":2543819.6500000004}},{"attributes":{"ID":633126,"DIS_CODE":0,"TOWNNAME":"安平區","LI":"怡平里","LIN":"14鄰","STREET":"建平十一街","SECT":" ","MAREA":" ","LANE":" ","ALLEY":" ","HOUSE_NO":"２９２號","E_COORD97":165636.23000000001,"N_COORD97":2543996.5600000001,"ADDRESS":"建平十一街２９２號","OBJECTID":633099},"geometry":{"x":165636.23000000138,"y":2543996.5600000005}},{"attributes":{"ID":633127,"DIS_CODE":0,"TOWNNAME":"安平區","LI":"怡平里","LIN":"14鄰","STREET":"建平十一街","SECT":" ","MAREA":" ","LANE":" ","ALLEY":" ","HOUSE_NO":"２９４號","E_COORD97":165630.97,"N_COORD97":2543997.1400000001,"ADDRESS":"建平十一街２９４號","OBJECTID":633100},"geometry":{"x":165630.96999999974,"y":2543997.1400000025}},{"attributes":{"ID":633128,"DIS_CODE":0,"TOWNNAME":"安平區","LI":"怡平里","LIN":"20鄰","STREET":"文平路","SECT":" ","MAREA":" ","LANE":" ","ALLEY":" ","HOUSE_NO":"４２９號","E_COORD97":165791.17000000001,"N_COORD97":2543784.1099999999,"ADDRESS":"文平路４２９號","OBJECTID":633101},"geometry":{"x":165791.16999999993,"y":2543784.1099999994}},{"attributes":{"ID":633129,"DIS_CODE":0,"TOWNNAME":"安平區","LI":"怡平里","LIN":"20鄰","STREET":"文平路","SECT":" ","MAREA":" ","LANE":" ","ALLEY":" ","HOUSE_NO":"４３１號","E_COORD97":165793.42000000001,"N_COORD97":2543790.04,"ADDRESS":"文平路４３１號","OBJECTID":633102},"geometry":{"x":165793.42000000086,"y":2543790.040000001}},{"attributes":{"ID":633130,"DIS_CODE":0,"TOWNNAME":"安平區","LI":"怡平里","LIN":"20鄰","STREET":"文平路","SECT":" ","MAREA":" ","LANE":" ","ALLEY":" ","HOUSE_NO":"４３３號","E_COORD97":165790.91,"N_COORD97":2543794.0099999998,"ADDRESS":"文平路４３３號","OBJECTID":633103},"geometry":{"x":165790.91000000015,"y":2543794.0100000016}},{"attributes":{"ID":633131,"DIS_CODE":0,"TOWNNAME":"安平區","LI":"怡平里","LIN":"20鄰","STREET":"文平路","SECT":" ","MAREA":" ","LANE":" ","ALLEY":" ","HOUSE_NO":"４３５號","E_COORD97":165791.89000000001,"N_COORD97":2543798.23,"ADDRESS":"文平路４３５號","OBJECTID":633104},"geometry":{"x":165791.8900000006,"y":2543798.2300000004}},{"attributes":{"ID":633132,"DIS_CODE":0,"TOWNNAME":"安平區","LI":"怡平里","LIN":"20鄰","STREET":"文平路","SECT":" ","MAREA":" ","LANE":" ","ALLEY":" ","HOUSE_NO":"４３７號","E_COORD97":165792.54000000001,"N_COORD97":2543803.1000000001,"ADDRESS":"文平路４３７號","OBJECTID":633105},"geometry":{"x":165792.54000000097,"y":2543803.1000000015}},{"attributes":{"ID":633133,"DIS_CODE":0,"TOWNNAME":"安平區","LI":"怡平里","LIN":"20鄰","STREET":"怡平路","SECT":" ","MAREA":" ","LANE":" ","ALLEY":" ","HOUSE_NO":"３４２號","E_COORD97":165754,"N_COORD97":2543795.0800000001,"ADDRESS":"怡平路３４２號","OBJECTID":633106},"geometry":{"x":165754.00000000093,"y":2543795.0800000001}},{"attributes":{"ID":633134,"DIS_CODE":0,"TOWNNAME":"安平區","LI":"怡平里","LIN":"13鄰","STREET":"永華六街","SECT":" ","MAREA":" ","LANE":" ","ALLEY":" ","HOUSE_NO":"２６３號","E_COORD97":165644.76000000001,"N_COORD97":2544078.1000000001,"ADDRESS":"永華六街２６３號","OBJECTID":633107},"geometry":{"x":165644.76000000164,"y":2544078.1000000015}},{"attributes":{"ID":633135,"DIS_CODE":0,"TOWNNAME":"安平區","LI":"華平里","LIN":"13鄰","STREET":"健康二街","SECT":" ","MAREA":" ","LANE":" ","ALLEY":" ","HOUSE_NO":"３９９號","E_COORD97":165309.98000000001,"N_COORD97":2543664.7799999998,"ADDRESS":"健康二街３９９號","OBJECTID":633108},"geometry":{"x":165309.97999999952,"y":2543664.7799999993}},{"attributes":{"ID":633136,"DIS_CODE":0,"TOWNNAME":"安平區","LI":"億載里","LIN":"2鄰","STREET":"光州七街","SECT":" ","MAREA":" ","LANE":" ","ALLEY":" ","HOUSE_NO":"１１０號","E_COORD97":163971.81,"N_COORD97":2543735.29,"ADDRESS":"光州七街１１０號","OBJECTID":633109},"geometry":{"x":163971.81000000052,"y":2543735.2899999991}},{"attributes":{"ID":633137,"DIS_CODE":0,"TOWNNAME":"安平區","LI":"怡平里","LIN":"20鄰","STREET":"華平路","SECT":" ","MAREA":" ","LANE":" ","ALLEY":" ","HOUSE_NO":"５００號","E_COORD97":165534.62,"N_COORD97":2543771.6600000001,"ADDRESS":"華平路５００號","OBJECTID":633110},"geometry":{"x":165534.62000000104,"y":2543771.6600000001}},{"attributes":{"ID":633138,"DIS_CODE":0,"TOWNNAME":"安平區","LI":"金城里","LIN":"8鄰","STREET":"世平四街","SECT":" ","MAREA":" ","LANE":" ","ALLEY":" ","HOUSE_NO":"２６號","E_COORD97":162938.32000000001,"N_COORD97":2544186.8399999999,"ADDRESS":"世平四街２６號","OBJECTID":633111},"geometry":{"x":162938.32000000123,"y":2544186.8399999999}},{"attributes":{"ID":633139,"DIS_CODE":0,"TOWNNAME":"安平區","LI":"華平里","LIN":"8鄰","STREET":"健康二街","SECT":" ","MAREA":" ","LANE":" ","ALLEY":" ","HOUSE_NO":"５０４號之１","E_COORD97":165375.28,"N_COORD97":2544002.4700000002,"ADDRESS":"健康二街５０４號之１","OBJECTID":633112},"geometry":{"x":165375.28000000026,"y":2544002.4700000025}},{"attributes":{"ID":633140,"DIS_CODE":0,"TOWNNAME":"安平區","LI":"億載里","LIN":"6鄰","STREET":"光州七街","SECT":" ","MAREA":" ","LANE":" ","ALLEY":" ","HOUSE_NO":"２７號","E_COORD97":164206.37,"N_COORD97":2543742.9500000002,"ADDRESS":"光州七街２７號","OBJECTID":633113},"geometry":{"x":164206.37000000011,"y":2543742.9500000011}},{"attributes":{"ID":633141,"DIS_CODE":0,"TOWNNAME":"安平區","LI":"億載里","LIN":"6鄰","STREET":"光州七街","SECT":" ","MAREA":" ","LANE":" ","ALLEY":" ","HOUSE_NO":"２９號","E_COORD97":164200.16,"N_COORD97":2543742.6699999999,"ADDRESS":"光州七街２９號","OBJECTID":633114},"geometry":{"x":164200.16000000108,"y":2543742.6700000018}},{"attributes":{"ID":633142,"DIS_CODE":0,"TOWNNAME":"安平區","LI":"億載里","LIN":"6鄰","STREET":"光州七街","SECT":" ","MAREA":" ","LANE":" ","ALLEY":" ","HOUSE_NO":"３７號","E_COORD97":164180.42000000001,"N_COORD97":2543743.1200000001,"ADDRESS":"光州七街３７號","OBJECTID":633115},"geometry":{"x":164180.41999999993,"y":2543743.1200000048}},{"attributes":{"ID":633143,"DIS_CODE":0,"TOWNNAME":"安平區","LI":"金城里","LIN":"4鄰","STREET":"湖內二街","SECT":" ","MAREA":" ","LANE":" ","ALLEY":" ","HOUSE_NO":"５１號","E_COORD97":163767.45000000001,"N_COORD97":2544355.77,"ADDRESS":"湖內二街５１號","OBJECTID":633116},"geometry":{"x":163767.45000000205,"y":2544355.7700000014}},{"attributes":{"ID":633144,"DIS_CODE":0,"TOWNNAME":"安平區","LI":"億載里","LIN":"4鄰","STREET":"光州八街","SECT":" ","MAREA":" ","LANE":" ","ALLEY":" ","HOUSE_NO":"１００號","E_COORD97":163609.79999999999,"N_COORD97":2543655.54,"ADDRESS":"光州八街１００號","OBJECTID":633117},"geometry":{"x":163609.79999999981,"y":2543655.5399999991}},{"attributes":{"ID":633145,"DIS_CODE":0,"TOWNNAME":"安平區","LI":"億載里","LIN":"4鄰","STREET":"光州八街","SECT":" ","MAREA":" ","LANE":" ","ALLEY":" ","HOUSE_NO":"１０２號","E_COORD97":163615.29000000001,"N_COORD97":2543655.54,"ADDRESS":"光州八街１０２號","OBJECTID":633118},"geometry":{"x":163615.29000000004,"y":2543655.5399999991}},{"attributes":{"ID":633146,"DIS_CODE":0,"TOWNNAME":"安平區","LI":"億載里","LIN":"4鄰","STREET":"光州八街","SECT":" ","MAREA":" ","LANE":" ","ALLEY":" ","HOUSE_NO":"１０４號","E_COORD97":163620.39999999999,"N_COORD97":2543655.1499999999,"ADDRESS":"光州八街１０４號","OBJECTID":633119},"geometry":{"x":163620.40000000224,"y":2543655.1500000022}},{"attributes":{"ID":633147,"DIS_CODE":0,"TOWNNAME":"安平區","LI":"億載里","LIN":"4鄰","STREET":"光州八街","SECT":" ","MAREA":" ","LANE":" ","ALLEY":" ","HOUSE_NO":"１０６號","E_COORD97":163626.29000000001,"N_COORD97":2543655.54,"ADDRESS":"光州八街１０６號","OBJECTID":633120},"geometry":{"x":163626.29000000097,"y":2543655.5399999991}},{"attributes":{"ID":633148,"DIS_CODE":0,"TOWNNAME":"安平區","LI":"億載里","LIN":"4鄰","STREET":"光州八街","SECT":" ","MAREA":" ","LANE":" ","ALLEY":" ","HOUSE_NO":"１０８號","E_COORD97":163631.78,"N_COORD97":2543655.9300000002,"ADDRESS":"光州八街１０８號","OBJECTID":633121},"geometry":{"x":163631.78000000119,"y":2543655.9300000016}},{"attributes":{"ID":633149,"DIS_CODE":0,"TOWNNAME":"安平區","LI":"億載里","LIN":"4鄰","STREET":"光州八街","SECT":" ","MAREA":" ","LANE":" ","ALLEY":" ","HOUSE_NO":"１１０號","E_COORD97":163636.89000000001,"N_COORD97":2543655.1499999999,"ADDRESS":"光州八街１１０號","OBJECTID":633122},"geometry":{"x":163636.8900000006,"y":2543655.1500000022}},{"attributes":{"ID":633150,"DIS_CODE":0,"TOWNNAME":"安平區","LI":"億載里","LIN":"1鄰","STREET":"光州七街","SECT":" ","MAREA":" ","LANE":" ","ALLEY":" ","HOUSE_NO":"６６號","E_COORD97":164106.91390099999,"N_COORD97":2543757.2058799998,"ADDRESS":"光州七街６６號","OBJECTID":633123},"geometry":{"x":164106.91390100121,"y":2543757.2058799993}},{"attributes":{"ID":633151,"DIS_CODE":0,"TOWNNAME":"安平區","LI":"億載里","LIN":"1鄰","STREET":"光州七街","SECT":" ","MAREA":" ","LANE":" ","ALLEY":" ","HOUSE_NO":"６８號","E_COORD97":164101.19239800001,"N_COORD97":2543756.7825500001,"ADDRESS":"光州七街６８號","OBJECTID":633124},"geometry":{"x":164101.19239799958,"y":2543756.7825470008}},{"attributes":{"ID":633152,"DIS_CODE":0,"TOWNNAME":"安平區","LI":"國平里","LIN":"3鄰","STREET":"建平五街","SECT":" ","MAREA":" ","LANE":" ","ALLEY":" ","HOUSE_NO":"２６９號","E_COORD97":165493.37,"N_COORD97":2543296.7400000002,"ADDRESS":"建平五街２６９號","OBJECTID":633125},"geometry":{"x":165493.37000000011,"y":2543296.7400000002}},{"attributes":{"ID":633153,"DIS_CODE":0,"TOWNNAME":"安平區","LI":"億載里","LIN":"4鄰","STREET":"光州八街","SECT":" ","MAREA":" ","LANE":" ","ALLEY":" ","HOUSE_NO":"４７號之８","E_COORD97":163708.69,"N_COORD97":2543698.6899999999,"ADDRESS":"光州八街４７號之８","OBJECTID":633126},"geometry":{"x":163708.69000000134,"y":2543698.6899999995}},{"attributes":{"ID":633154,"DIS_CODE":0,"TOWNNAME":"安平區","LI":"億載里","LIN":"4鄰","STREET":"光州八街","SECT":" ","MAREA":" ","LANE":" ","ALLEY":" ","HOUSE_NO":"４７號之９","E_COORD97":163708.69,"N_COORD97":2543693.98,"ADDRESS":"光州八街４７號之９","OBJECTID":633127},"geometry":{"x":163708.69000000134,"y":2543693.9800000023}},{"attributes":{"ID":633155,"DIS_CODE":0,"TOWNNAME":"安平區","LI":"億載里","LIN":"4鄰","STREET":"光州八街","SECT":" ","MAREA":" ","LANE":" ","ALLEY":" ","HOUSE_NO":"４９號之１","E_COORD97":163695.34,"N_COORD97":2543727.3300000001,"ADDRESS":"光州八街４９號之１","OBJECTID":633128},"geometry":{"x":163695.34000000078,"y":2543727.3300000038}},{"attributes":{"ID":633156,"DIS_CODE":0,"TOWNNAME":"安平區","LI":"億載里","LIN":"4鄰","STREET":"光州八街","SECT":" ","MAREA":" ","LANE":" ","ALLEY":" ","HOUSE_NO":"４９號","E_COORD97":163695.34,"N_COORD97":2543732.8199999998,"ADDRESS":"光州八街４９號","OBJECTID":633129},"geometry":{"x":163695.34000000078,"y":2543732.8200000003}},{"attributes":{"ID":633157,"DIS_CODE":0,"TOWNNAME":"安平區","LI":"金城里","LIN":"14鄰","STREET":"世平二街","SECT":" ","MAREA":" ","LANE":" ","ALLEY":" ","HOUSE_NO":"５號","E_COORD97":162967.44,"N_COORD97":2544060.4700000002,"ADDRESS":"世平二街５號","OBJECTID":633130},"geometry":{"x":162967.43999999948,"y":2544060.4700000025}},{"attributes":{"ID":633158,"DIS_CODE":0,"TOWNNAME":"安平區","LI":"漁光里","LIN":"6鄰","STREET":"漁光路","SECT":" ","MAREA":" ","LANE":" ","ALLEY":" ","HOUSE_NO":"６２號","E_COORD97":163878.28,"N_COORD97":2542041.1400000001,"ADDRESS":"漁光路６２號","OBJECTID":633131},"geometry":{"x":163878.28000000026,"y":2542041.1400000025}},{"attributes":{"ID":633159,"DIS_CODE":0,"TOWNNAME":"安平區","LI":"國平里","LIN":"12鄰","STREET":"建平一街","SECT":" ","MAREA":" ","LANE":" ","ALLEY":" ","HOUSE_NO":"１８２號","E_COORD97":165645.23999999999,"N_COORD97":2542785.7000000002,"ADDRESS":"建平一街１８２號","OBJECTID":633132},"geometry":{"x":165645.24000000022,"y":2542785.7000000011}},{"attributes":{"ID":633160,"DIS_CODE":0,"TOWNNAME":"安平區","LI":"國平里","LIN":"12鄰","STREET":"建平一街","SECT":" ","MAREA":" ","LANE":" ","ALLEY":" ","HOUSE_NO":"１８４號","E_COORD97":165641.25,"N_COORD97":2542787.25,"ADDRESS":"建平一街１８４號","OBJECTID":633133},"geometry":{"x":165641.25,"y":2542787.25}},{"attributes":{"ID":633161,"DIS_CODE":0,"TOWNNAME":"安平區","LI":"國平里","LIN":"12鄰","STREET":"建平一街","SECT":" ","MAREA":" ","LANE":" ","ALLEY":" ","HOUSE_NO":"１８６號","E_COORD97":165636.16,"N_COORD97":2542787.7000000002,"ADDRESS":"建平一街１８６號","OBJECTID":633134},"geometry":{"x":165636.16000000108,"y":2542787.6999999993}},{"attributes":{"ID":633162,"DIS_CODE":0,"TOWNNAME":"安平區","LI":"國平里","LIN":"12鄰","STREET":"建平一街","SECT":" ","MAREA":" ","LANE":" ","ALLEY":" ","HOUSE_NO":"１８８號","E_COORD97":165631.95000000001,"N_COORD97":2542788.7999999998,"ADDRESS":"建平一街１８８號","OBJECTID":633135},"geometry":{"x":165631.94999999925,"y":2542788.8000000045}},{"attributes":{"ID":633163,"DIS_CODE":0,"TOWNNAME":"南區","LI":"省躬里","LIN":"3鄰","STREET":"灣裡路","SECT":" ","MAREA":" ","LANE":" ","ALLEY":" ","HOUSE_NO":"１３２號","E_COORD97":166007.78,"N_COORD97":2536760.1699999999,"ADDRESS":"灣裡路１３２號","OBJECTID":633136},"geometry":{"x":166007.78000000026,"y":2536760.1699999999}},{"attributes":{"ID":633164,"DIS_CODE":0,"TOWNNAME":"南區","LI":"省躬里","LIN":"4鄰","STREET":"灣裡路","SECT":" ","MAREA":" ","LANE":" ","ALLEY":" ","HOUSE_NO":"９８號","E_COORD97":165950.85999999999,"N_COORD97":2536869.6000000001,"ADDRESS":"灣裡路９８號","OBJECTID":633137},"geometry":{"x":165950.86000000034,"y":2536869.6000000034}},{"attributes":{"ID":633165,"DIS_CODE":0,"TOWNNAME":"南區","LI":"省躬里","LIN":"4鄰","STREET":"灣裡路","SECT":" ","MAREA":" ","LANE":" ","ALLEY":" ","HOUSE_NO":"１００號","E_COORD97":165951.41,"N_COORD97":2536865.2400000002,"ADDRESS":"灣裡路１００號","OBJECTID":633138},"geometry":{"x":165951.41000000108,"y":2536865.2400000002}},{"attributes":{"ID":633166,"DIS_CODE":0,"TOWNNAME":"南區","LI":"省躬里","LIN":"4鄰","STREET":"灣裡路","SECT":" ","MAREA":" ","LANE":" ","ALLEY":" ","HOUSE_NO":"１００號之１","E_COORD97":165975.10000000001,"N_COORD97":2536865.79,"ADDRESS":"灣裡路１００號之１","OBJECTID":633139},"geometry":{"x":165975.10000000056,"y":2536865.790000001}},{"attributes":{"ID":633167,"DIS_CODE":0,"TOWNNAME":"南區","LI":"省躬里","LIN":"4鄰","STREET":"灣裡路","SECT":" ","MAREA":" ","LANE":" ","ALLEY":" ","HOUSE_NO":"１０２號","E_COORD97":165981.09,"N_COORD97":2536860.3500000001,"ADDRESS":"灣裡路１０２號","OBJECTID":633140},"geometry":{"x":165981.08999999985,"y":2536860.3499999996}},{"attributes":{"ID":633168,"DIS_CODE":0,"TOWNNAME":"南區","LI":"省躬里","LIN":"4鄰","STREET":"灣裡路","SECT":" ","MAREA":" ","LANE":" ","ALLEY":" ","HOUSE_NO":"１０４號","E_COORD97":165965.57000000001,"N_COORD97":2536850.8300000001,"ADDRESS":"灣裡路１０４號","OBJECTID":633141},"geometry":{"x":165965.57000000123,"y":2536850.8300000001}},{"attributes":{"ID":633169,"DIS_CODE":0,"TOWNNAME":"南區","LI":"省躬里","LIN":"4鄰","STREET":"灣裡路","SECT":" ","MAREA":" ","LANE":" ","ALLEY":" ","HOUSE_NO":"１０６號","E_COORD97":165982.17999999999,"N_COORD97":2536851.9199999999,"ADDRESS":"灣裡路１０６號","OBJECTID":633142},"geometry":{"x":165982.1799999997,"y":2536851.9200000018}},{"attributes":{"ID":633170,"DIS_CODE":0,"TOWNNAME":"南區","LI":"省躬里","LIN":"4鄰","STREET":"灣裡路","SECT":" ","MAREA":" ","LANE":" ","ALLEY":" ","HOUSE_NO":"１０８號","E_COORD97":165983,"N_COORD97":2536846.75,"ADDRESS":"灣裡路１０８號","OBJECTID":633143},"geometry":{"x":165983.00000000093,"y":2536846.7500000019}},{"attributes":{"ID":633171,"DIS_CODE":0,"TOWNNAME":"南區","LI":"省躬里","LIN":"4鄰","STREET":"灣裡路","SECT":" ","MAREA":" ","LANE":" ","ALLEY":" ","HOUSE_NO":"１０８號之１","E_COORD97":165986.54000000001,"N_COORD97":2536842.6699999999,"ADDRESS":"灣裡路１０８號之１","OBJECTID":633144},"geometry":{"x":165986.54000000004,"y":2536842.6700000018}},{"attributes":{"ID":633172,"DIS_CODE":0,"TOWNNAME":"南區","LI":"省躬里","LIN":"4鄰","STREET":"灣裡路","SECT":" ","MAREA":" ","LANE":" ","ALLEY":" ","HOUSE_NO":"１１０號","E_COORD97":165985.72,"N_COORD97":2536837.5099999998,"ADDRESS":"灣裡路１１０號","OBJECTID":633145},"geometry":{"x":165985.7200000016,"y":2536837.5100000016}},{"attributes":{"ID":633173,"DIS_CODE":0,"TOWNNAME":"南區","LI":"省躬里","LIN":"4鄰","STREET":"灣裡路","SECT":" ","MAREA":" ","LANE":" ","ALLEY":" ","HOUSE_NO":"１１２號","E_COORD97":165987.63,"N_COORD97":2536833.7000000002,"ADDRESS":"灣裡路１１２號","OBJECTID":633146},"geometry":{"x":165987.62999999989,"y":2536833.6999999993}},{"attributes":{"ID":633174,"DIS_CODE":0,"TOWNNAME":"南區","LI":"省躬里","LIN":"4鄰","STREET":"灣裡路","SECT":" ","MAREA":" ","LANE":" ","ALLEY":" ","HOUSE_NO":"９０之１號","E_COORD97":165971.56,"N_COORD97":2536888.3599999999,"ADDRESS":"灣裡路９０之１號","OBJECTID":633147},"geometry":{"x":165971.56000000052,"y":2536888.3600000013}},{"attributes":{"ID":633175,"DIS_CODE":0,"TOWNNAME":"南區","LI":"省躬里","LIN":"4鄰","STREET":"灣裡路","SECT":" ","MAREA":" ","LANE":" ","ALLEY":" ","HOUSE_NO":"９０號","E_COORD97":165970.73999999999,"N_COORD97":2536892.71,"ADDRESS":"灣裡路９０號","OBJECTID":633148},"geometry":{"x":165970.73999999929,"y":2536892.7100000009}},{"attributes":{"ID":633176,"DIS_CODE":0,"TOWNNAME":"南區","LI":"省躬里","LIN":"4鄰","STREET":"灣裡路","SECT":" ","MAREA":" ","LANE":" ","ALLEY":" ","HOUSE_NO":"９２號","E_COORD97":165972.10999999999,"N_COORD97":2536883.1899999999,"ADDRESS":"灣裡路９２號","OBJECTID":633149},"geometry":{"x":165972.11000000127,"y":2536883.1900000013}},{"attributes":{"ID":633177,"DIS_CODE":0,"TOWNNAME":"南區","LI":"省躬里","LIN":"4鄰","STREET":"灣裡路","SECT":" ","MAREA":" ","LANE":" ","ALLEY":" ","HOUSE_NO":"９４號","E_COORD97":165974.01000000001,"N_COORD97":2536877.21,"ADDRESS":"灣裡路９４號","OBJECTID":633150},"geometry":{"x":165974.01000000071,"y":2536877.2100000028}},{"attributes":{"ID":633178,"DIS_CODE":0,"TOWNNAME":"南區","LI":"省躬里","LIN":"4鄰","STREET":"灣裡路","SECT":" ","MAREA":" ","LANE":" ","ALLEY":" ","HOUSE_NO":"９６號","E_COORD97":165954.13,"N_COORD97":2536877.75,"ADDRESS":"灣裡路９６號","OBJECTID":633151},"geometry":{"x":165954.12999999989,"y":2536877.75}},{"attributes":{"ID":633179,"DIS_CODE":0,"TOWNNAME":"南區","LI":"省躬里","LIN":"13鄰","STREET":"萬年路","SECT":" ","MAREA":" ","LANE":" ","ALLEY":" ","HOUSE_NO":"７９號","E_COORD97":166316.67999999999,"N_COORD97":2537230.0800000001,"ADDRESS":"萬年路７９號","OBJECTID":633152},"geometry":{"x":166316.68000000156,"y":2537230.0800000019}},{"attributes":{"ID":633180,"DIS_CODE":0,"TOWNNAME":"南區","LI":"省躬里","LIN":"6鄰","STREET":"省躬一街","SECT":" ","MAREA":" ","LANE":" ","ALLEY":" ","HOUSE_NO":"１１號","E_COORD97":165828.20000000001,"N_COORD97":2537000.21,"ADDRESS":"省躬一街１１號","OBJECTID":633153},"geometry":{"x":165828.20000000019,"y":2537000.2100000028}},{"attributes":{"ID":633181,"DIS_CODE":0,"TOWNNAME":"南區","LI":"省躬里","LIN":"6鄰","STREET":"省躬一街","SECT":" ","MAREA":" ","LANE":" ","ALLEY":" ","HOUSE_NO":"１５號","E_COORD97":165846.22,"N_COORD97":2536930.6499999999,"ADDRESS":"省躬一街１５號","OBJECTID":633154},"geometry":{"x":165846.21999999974,"y":2536930.6500000004}},{"attributes":{"ID":633182,"DIS_CODE":0,"TOWNNAME":"南區","LI":"省躬里","LIN":"6鄰","STREET":"省躬一街","SECT":" ","MAREA":" ","LANE":" ","ALLEY":" ","HOUSE_NO":"１７號","E_COORD97":165847.44,"N_COORD97":2536926.3900000001,"ADDRESS":"省躬一街１７號","OBJECTID":633155},"geometry":{"x":165847.44000000041,"y":2536926.3900000043}},{"attributes":{"ID":633183,"DIS_CODE":0,"TOWNNAME":"南區","LI":"省躬里","LIN":"13鄰","STREET":"萬年路","SECT":" ","MAREA":" ","LANE":" ","ALLEY":" ","HOUSE_NO":"３５號","E_COORD97":166205.87,"N_COORD97":2537170.6499999999,"ADDRESS":"萬年路３５號","OBJECTID":633156},"geometry":{"x":166205.87000000104,"y":2537170.6500000004}},{"attributes":{"ID":633184,"DIS_CODE":0,"TOWNNAME":"南區","LI":"省躬里","LIN":"13鄰","STREET":"萬年路","SECT":" ","MAREA":" ","LANE":" ","ALLEY":" ","HOUSE_NO":"４７號","E_COORD97":166242.26999999999,"N_COORD97":2537187.1699999999,"ADDRESS":"萬年路４７號","OBJECTID":633157},"geometry":{"x":166242.26999999955,"y":2537187.1699999999}},{"attributes":{"ID":633185,"DIS_CODE":0,"TOWNNAME":"南區","LI":"省躬里","LIN":"17鄰","STREET":"省躬二街","SECT":" ","MAREA":" ","LANE":" ","ALLEY":" ","HOUSE_NO":"２８號","E_COORD97":165756.20999999999,"N_COORD97":2536917.48,"ADDRESS":"省躬二街２８號","OBJECTID":633158},"geometry":{"x":165756.21000000089,"y":2536917.4800000004}},{"attributes":{"ID":633186,"DIS_CODE":0,"TOWNNAME":"南區","LI":"省躬里","LIN":"17鄰","STREET":"省躬二街","SECT":" ","MAREA":" ","LANE":" ","ALLEY":" ","HOUSE_NO":"３０號","E_COORD97":165756.53,"N_COORD97":2536912.9100000001,"ADDRESS":"省躬二街３０號","OBJECTID":633159},"geometry":{"x":165756.53000000026,"y":2536912.910000002}},{"attributes":{"ID":633187,"DIS_CODE":0,"TOWNNAME":"南區","LI":"省躬里","LIN":"17鄰","STREET":"省躬二街","SECT":" ","MAREA":" ","LANE":" ","ALLEY":" ","HOUSE_NO":"３２號","E_COORD97":165757.51000000001,"N_COORD97":2536909,"ADDRESS":"省躬二街３２號","OBJECTID":633160},"geometry":{"x":165757.51000000071,"y":2536909.0000000019}},{"attributes":{"ID":633188,"DIS_CODE":0,"TOWNNAME":"南區","LI":"省躬里","LIN":"17鄰","STREET":"省躬橫街","SECT":" ","MAREA":" ","LANE":" ","ALLEY":" ","HOUSE_NO":"３３號","E_COORD97":165703.23999999999,"N_COORD97":2536916.1800000002,"ADDRESS":"省躬橫街３３號","OBJECTID":633161},"geometry":{"x":165703.24000000115,"y":2536916.1799999997}},{"attributes":{"ID":633189,"DIS_CODE":0,"TOWNNAME":"南區","LI":"省躬里","LIN":"17鄰","STREET":"省躬橫街","SECT":" ","MAREA":" ","LANE":" ","ALLEY":" ","HOUSE_NO":"３５號","E_COORD97":165699.64000000001,"N_COORD97":2536913.5699999998,"ADDRESS":"省躬橫街３５號","OBJECTID":633162},"geometry":{"x":165699.63999999873,"y":2536913.5700000003}},{"attributes":{"ID":633190,"DIS_CODE":0,"TOWNNAME":"南區","LI":"省躬里","LIN":"17鄰","STREET":"省躬橫街","SECT":" ","MAREA":" ","LANE":" ","ALLEY":" ","HOUSE_NO":"５號","E_COORD97":165759.47,"N_COORD97":2536931.52,"ADDRESS":"省躬橫街５號","OBJECTID":633163},"geometry":{"x":165759.46999999974,"y":2536931.5200000014}},{"attributes":{"ID":633191,"DIS_CODE":0,"TOWNNAME":"南區","LI":"省躬里","LIN":"17鄰","STREET":"省躬橫街","SECT":" ","MAREA":" ","LANE":" ","ALLEY":" ","HOUSE_NO":"７號","E_COORD97":165755.88,"N_COORD97":2536929.2400000002,"ADDRESS":"省躬橫街７號","OBJECTID":633164},"geometry":{"x":165755.87999999896,"y":2536929.2400000002}},{"attributes":{"ID":633192,"DIS_CODE":0,"TOWNNAME":"南區","LI":"省躬里","LIN":"17鄰","STREET":"省躬橫街","SECT":" ","MAREA":" ","LANE":" ","ALLEY":" ","HOUSE_NO":"９號","E_COORD97":165752.60999999999,"N_COORD97":2536925.9700000002,"ADDRESS":"省躬橫街９號","OBJECTID":633165},"geometry":{"x":165752.61000000034,"y":2536925.9700000044}},{"attributes":{"ID":633193,"DIS_CODE":0,"TOWNNAME":"南區","LI":"鯤鯓里","LIN":"1鄰","STREET":"鯤鯓路","SECT":" ","MAREA":" ","LANE":" ","ALLEY":" ","HOUSE_NO":"１００號","E_COORD97":165108.25,"N_COORD97":2540028.4900000002,"ADDRESS":"鯤鯓路１００號","OBJECTID":633166},"geometry":{"x":165108.25000000093,"y":2540028.4900000021}},{"attributes":{"ID":633194,"DIS_CODE":0,"TOWNNAME":"南區","LI":"鯤鯓里","LIN":"10鄰","STREET":"鯤鯓路","SECT":" ","MAREA":" ","LANE":" ","ALLEY":" ","HOUSE_NO":"１０７號","E_COORD97":165066.10000000001,"N_COORD97":2539985.8300000001,"ADDRESS":"鯤鯓路１０７號","OBJECTID":633167},"geometry":{"x":165066.10000000056,"y":2539985.8300000019}},{"attributes":{"ID":633195,"DIS_CODE":0,"TOWNNAME":"南區","LI":"鯤鯓里","LIN":"10鄰","STREET":"鯤鯓路","SECT":" ","MAREA":" ","LANE":" ","ALLEY":" ","HOUSE_NO":"１０９號","E_COORD97":165062.72,"N_COORD97":2539985.71,"ADDRESS":"鯤鯓路１０９號","OBJECTID":633168},"geometry":{"x":165062.72000000067,"y":2539985.7100000046}},{"attributes":{"ID":633196,"DIS_CODE":0,"TOWNNAME":"南區","LI":"鯤鯓里","LIN":"10鄰","STREET":"鯤鯓路","SECT":" ","MAREA":" ","LANE":" ","ALLEY":" ","HOUSE_NO":"１１１號","E_COORD97":165058.13,"N_COORD97":2539985.9500000002,"ADDRESS":"鯤鯓路１１１號","OBJECTID":633169},"geometry":{"x":165058.13000000082,"y":2539985.950000003}},{"attributes":{"ID":633197,"DIS_CODE":0,"TOWNNAME":"南區","LI":"鯤鯓里","LIN":"10鄰","STREET":"鯤鯓路","SECT":" ","MAREA":" ","LANE":" ","ALLEY":" ","HOUSE_NO":"１１３號","E_COORD97":165053.29999999999,"N_COORD97":2539985.23,"ADDRESS":"鯤鯓路１１３號","OBJECTID":633170},"geometry":{"x":165053.30000000075,"y":2539985.2300000042}},{"attributes":{"ID":633198,"DIS_CODE":0,"TOWNNAME":"南區","LI":"大恩里","LIN":" ","STREET":"大同路","SECT":"二段","MAREA":" ","LANE":" ","ALLEY":" ","HOUSE_NO":"６７２號","E_COORD97":169567.53,"N_COORD97":2540964.8599999999,"ADDRESS":"大同路二段６７２號","OBJECTID":633171},"geometry":{"x":169567.53000000026,"y":2540964.8599999994}},{"attributes":{"ID":633199,"DIS_CODE":0,"TOWNNAME":"南區","LI":"大恩里","LIN":" ","STREET":"國民路","SECT":" ","MAREA":" ","LANE":" ","ALLEY":" ","HOUSE_NO":"３號","E_COORD97":169572.32999999999,"N_COORD97":2540873.8999999999,"ADDRESS":"國民路３號","OBJECTID":633172},"geometry":{"x":169572.33000000194,"y":2540873.9000000022}},{"attributes":{"ID":633200,"DIS_CODE":0,"TOWNNAME":"南區","LI":"大恩里","LIN":"7鄰","STREET":"國民路","SECT":" ","MAREA":" ","LANE":" ","ALLEY":" ","HOUSE_NO":"８３號","E_COORD97":169364.84,"N_COORD97":2540868.6499999999,"ADDRESS":"國民路８３號","OBJECTID":633173},"geometry":{"x":169364.83999999985,"y":2540868.6500000022}},{"attributes":{"ID":633201,"DIS_CODE":0,"TOWNNAME":"學甲區","LI":"新榮里","LIN":"6鄰","STREET":"華宗路","SECT":" ","MAREA":" ","LANE":" ","ALLEY":" ","HOUSE_NO":"１號之１０","E_COORD97":166123.01999999999,"N_COORD97":2568757.6699999999,"ADDRESS":"華宗路１號之１０","OBJECTID":633174},"geometry":{"x":166123.02000000048,"y":2568757.6699999999}},{"attributes":{"ID":633202,"DIS_CODE":0,"TOWNNAME":"學甲區","LI":"慈福里","LIN":"4鄰","STREET":"華宗路","SECT":" ","MAREA":" ","LANE":" ","ALLEY":" ","HOUSE_NO":"３６０號","E_COORD97":166338.70000000001,"N_COORD97":2570209.9300000002,"ADDRESS":"華宗路３６０號","OBJECTID":633175},"geometry":{"x":166338.70000000019,"y":2570209.9300000016}},{"attributes":{"ID":633203,"DIS_CODE":0,"TOWNNAME":"學甲區","LI":"慈福里","LIN":"4鄰","STREET":"華宗路","SECT":" ","MAREA":" ","LANE":" ","ALLEY":" ","HOUSE_NO":"３６２號","E_COORD97":166337.97,"N_COORD97":2570216.02,"ADDRESS":"華宗路３６２號","OBJECTID":633176},"geometry":{"x":166337.96999999974,"y":2570216.0199999996}},{"attributes":{"ID":633204,"DIS_CODE":0,"TOWNNAME":"學甲區","LI":"慈福里","LIN":"4鄰","STREET":"華宗路","SECT":" ","MAREA":" ","LANE":" ","ALLEY":" ","HOUSE_NO":"３６４號","E_COORD97":166338.17000000001,"N_COORD97":2570220.6800000002,"ADDRESS":"華宗路３６４號","OBJECTID":633177},"geometry":{"x":166338.16999999993,"y":2570220.6800000016}},{"attributes":{"ID":633205,"DIS_CODE":0,"TOWNNAME":"學甲區","LI":"慈福里","LIN":"4鄰","STREET":"華宗路","SECT":" ","MAREA":" ","LANE":" ","ALLEY":" ","HOUSE_NO":"３６６號","E_COORD97":166337.92000000001,"N_COORD97":2570224.7799999998,"ADDRESS":"華宗路３６６號","OBJECTID":633178},"geometry":{"x":166337.92000000086,"y":2570224.7799999993}},{"attributes":{"ID":633206,"DIS_CODE":0,"TOWNNAME":"學甲區","LI":"慈福里","LIN":"4鄰","STREET":"華宗路","SECT":" ","MAREA":" ","LANE":" ","ALLEY":" ","HOUSE_NO":"３６８號","E_COORD97":166338.31,"N_COORD97":2570228.7000000002,"ADDRESS":"華宗路３６８號","OBJECTID":633179},"geometry":{"x":166338.31000000052,"y":2570228.6999999993}},{"attributes":{"ID":633207,"DIS_CODE":0,"TOWNNAME":"學甲區","LI":"慈福里","LIN":"4鄰","STREET":"華宗路","SECT":" ","MAREA":" ","LANE":" ","ALLEY":" ","HOUSE_NO":"３７０號","E_COORD97":166338.76999999999,"N_COORD97":2570232.6000000001,"ADDRESS":"華宗路３７０號","OBJECTID":633180},"geometry":{"x":166338.76999999955,"y":2570232.5999999996}},{"attributes":{"ID":633208,"DIS_CODE":0,"TOWNNAME":"學甲區","LI":"慈福里","LIN":"4鄰","STREET":"華宗路","SECT":" ","MAREA":" ","LANE":" ","ALLEY":" ","HOUSE_NO":"３７２號","E_COORD97":166337.85000000001,"N_COORD97":2570236.4700000002,"ADDRESS":"華宗路３７２號","OBJECTID":633181},"geometry":{"x":166337.85000000056,"y":2570236.4700000025}},{"attributes":{"ID":633209,"DIS_CODE":0,"TOWNNAME":"學甲區","LI":"慈福里","LIN":"4鄰","STREET":"華宗路","SECT":" ","MAREA":" ","LANE":" ","ALLEY":" ","HOUSE_NO":"３７４號","E_COORD97":166337.48000000001,"N_COORD97":2570240.9300000002,"ADDRESS":"華宗路３７４號","OBJECTID":633182},"geometry":{"x":166337.48000000138,"y":2570240.9299999997}},{"attributes":{"ID":633210,"DIS_CODE":0,"TOWNNAME":"學甲區","LI":"慈福里","LIN":"4鄰","STREET":"華宗路","SECT":" ","MAREA":" ","LANE":" ","ALLEY":" ","HOUSE_NO":"３７６號","E_COORD97":166329.01999999999,"N_COORD97":2570248.0499999998,"ADDRESS":"華宗路３７６號","OBJECTID":633183},"geometry":{"x":166329.01999999955,"y":2570248.0500000007}},{"attributes":{"ID":633211,"DIS_CODE":0,"TOWNNAME":"學甲區","LI":"慈福里","LIN":"4鄰","STREET":"華宗路","SECT":" ","MAREA":" ","LANE":" ","ALLEY":" ","HOUSE_NO":"３７８號","E_COORD97":166328.42000000001,"N_COORD97":2570254.73,"ADDRESS":"華宗路３７８號","OBJECTID":633184},"geometry":{"x":166328.41999999993,"y":2570254.7300000042}},{"attributes":{"ID":633212,"DIS_CODE":0,"TOWNNAME":"學甲區","LI":"慈福里","LIN":"29鄰","STREET":"華宗路","SECT":" ","MAREA":" ","LANE":" ","ALLEY":" ","HOUSE_NO":"３８０號","E_COORD97":166330.07000000001,"N_COORD97":2570284.27,"ADDRESS":"華宗路３８０號","OBJECTID":633185},"geometry":{"x":166330.07000000123,"y":2570284.2700000014}},{"attributes":{"ID":633213,"DIS_CODE":0,"TOWNNAME":"學甲區","LI":"慈福里","LIN":"29鄰","STREET":"華宗路","SECT":" ","MAREA":" ","LANE":" ","ALLEY":" ","HOUSE_NO":"３８２號","E_COORD97":166330.12,"N_COORD97":2570291,"ADDRESS":"華宗路３８２號","OBJECTID":633186},"geometry":{"x":166330.12000000011,"y":2570291.0000000019}},{"attributes":{"ID":633214,"DIS_CODE":0,"TOWNNAME":"學甲區","LI":"慈福里","LIN":"29鄰","STREET":"華宗路","SECT":" ","MAREA":" ","LANE":" ","ALLEY":" ","HOUSE_NO":"３８４號","E_COORD97":166331.04999999999,"N_COORD97":2570295.27,"ADDRESS":"華宗路３８４號","OBJECTID":633187},"geometry":{"x":166331.05000000168,"y":2570295.2700000014}},{"attributes":{"ID":633215,"DIS_CODE":0,"TOWNNAME":"學甲區","LI":"慈福里","LIN":"29鄰","STREET":"華宗路","SECT":" ","MAREA":" ","LANE":" ","ALLEY":" ","HOUSE_NO":"３８６號之１","E_COORD97":166330.14999999999,"N_COORD97":2570299.3599999999,"ADDRESS":"華宗路３８６號之１","OBJECTID":633188},"geometry":{"x":166330.1500000013,"y":2570299.3599999994}},{"attributes":{"ID":633216,"DIS_CODE":0,"TOWNNAME":"學甲區","LI":"慈福里","LIN":"29鄰","STREET":"華宗路","SECT":" ","MAREA":" ","LANE":" ","ALLEY":" ","HOUSE_NO":"３８６號","E_COORD97":166333.06,"N_COORD97":2570302.6200000001,"ADDRESS":"華宗路３８６號","OBJECTID":633189},"geometry":{"x":166333.06000000052,"y":2570302.620000001}},{"attributes":{"ID":633217,"DIS_CODE":0,"TOWNNAME":"學甲區","LI":"慈福里","LIN":"29鄰","STREET":"華宗路","SECT":" ","MAREA":" ","LANE":" ","ALLEY":" ","HOUSE_NO":"３８８號","E_COORD97":166334.87,"N_COORD97":2570306.4500000002,"ADDRESS":"華宗路３８８號","OBJECTID":633190},"geometry":{"x":166334.87000000104,"y":2570306.4500000011}},{"attributes":{"ID":633218,"DIS_CODE":0,"TOWNNAME":"學甲區","LI":"慈福里","LIN":"29鄰","STREET":"華宗路","SECT":" ","MAREA":" ","LANE":" ","ALLEY":" ","HOUSE_NO":"３９０號","E_COORD97":166341.39999999999,"N_COORD97":2570310.7999999998,"ADDRESS":"華宗路３９０號","OBJECTID":633191},"geometry":{"x":166341.4000000013,"y":2570310.8000000007}},{"attributes":{"ID":633219,"DIS_CODE":0,"TOWNNAME":"學甲區","LI":"慈福里","LIN":"22鄰","STREET":"華宗路","SECT":" ","MAREA":" ","LANE":" ","ALLEY":" ","HOUSE_NO":"３８１號","E_COORD97":166301.72,"N_COORD97":2570302.48,"ADDRESS":"華宗路３８１號","OBJECTID":633192},"geometry":{"x":166301.72000000067,"y":2570302.4800000004}},{"attributes":{"ID":633220,"DIS_CODE":0,"TOWNNAME":"學甲區","LI":"慈福里","LIN":"22鄰","STREET":"華宗路","SECT":" ","MAREA":" ","LANE":" ","ALLEY":" ","HOUSE_NO":"３８５號","E_COORD97":166301.95000000001,"N_COORD97":2570308.6499999999,"ADDRESS":"華宗路３８５號","OBJECTID":633193},"geometry":{"x":166301.95000000112,"y":2570308.6500000004}},{"attributes":{"ID":633221,"DIS_CODE":0,"TOWNNAME":"學甲區","LI":"慈福里","LIN":"24鄰","STREET":"華宗路","SECT":" ","MAREA":" ","LANE":" ","ALLEY":" ","HOUSE_NO":"３９５號","E_COORD97":166307.47,"N_COORD97":2570331.7000000002,"ADDRESS":"華宗路３９５號","OBJECTID":633194},"geometry":{"x":166307.46999999974,"y":2570331.700000003}},{"attributes":{"ID":633222,"DIS_CODE":0,"TOWNNAME":"學甲區","LI":"慈福里","LIN":"24鄰","STREET":"華宗路","SECT":" ","MAREA":" ","LANE":" ","ALLEY":" ","HOUSE_NO":"４０１號","E_COORD97":166309.29999999999,"N_COORD97":2570343.29,"ADDRESS":"華宗路４０１號","OBJECTID":633195},"geometry":{"x":166309.30000000075,"y":2570343.2899999991}},{"attributes":{"ID":633223,"DIS_CODE":0,"TOWNNAME":"學甲區","LI":"慈福里","LIN":"24鄰","STREET":"華宗路","SECT":" ","MAREA":" ","LANE":" ","ALLEY":" ","HOUSE_NO":"４０３號","E_COORD97":166310.34,"N_COORD97":2570348.75,"ADDRESS":"華宗路４０３號","OBJECTID":633196},"geometry":{"x":166310.33999999985,"y":2570348.7500000037}},{"attributes":{"ID":633224,"DIS_CODE":0,"TOWNNAME":"學甲區","LI":"慈福里","LIN":"24鄰","STREET":"華宗路","SECT":" ","MAREA":" ","LANE":" ","ALLEY":" ","HOUSE_NO":"４０５號","E_COORD97":166312.62,"N_COORD97":2570356.8399999999,"ADDRESS":"華宗路４０５號","OBJECTID":633197},"geometry":{"x":166312.62000000104,"y":2570356.8399999999}},{"attributes":{"ID":633225,"DIS_CODE":0,"TOWNNAME":"學甲區","LI":"慈福里","LIN":"24鄰","STREET":"華宗路","SECT":" ","MAREA":" ","LANE":" ","ALLEY":" ","HOUSE_NO":"４１３號","E_COORD97":166313.92999999999,"N_COORD97":2570387.7400000002,"ADDRESS":"華宗路４１３號","OBJECTID":633198},"geometry":{"x":166313.93000000063,"y":2570387.7400000021}},{"attributes":{"ID":633226,"DIS_CODE":0,"TOWNNAME":"學甲區","LI":"慈福里","LIN":"26鄰","STREET":"華宗路","SECT":" ","MAREA":" ","LANE":" ","ALLEY":" ","HOUSE_NO":"４２５號","E_COORD97":166325.81,"N_COORD97":2570415.3100000001,"ADDRESS":"華宗路４２５號","OBJECTID":633199},"geometry":{"x":166325.81000000145,"y":2570415.3100000005}},{"attributes":{"ID":633227,"DIS_CODE":0,"TOWNNAME":"學甲區","LI":"慈福里","LIN":"26鄰","STREET":"華宗路","SECT":" ","MAREA":" ","LANE":" ","ALLEY":" ","HOUSE_NO":"４２７號","E_COORD97":166326.45999999999,"N_COORD97":2570419.1600000001,"ADDRESS":"華宗路４２７號","OBJECTID":633200},"geometry":{"x":166326.45999999996,"y":2570419.1600000001}}]}