{"displayFieldName":"TOWNNAME","fieldAliases":{"ID":"ID","DIS_CODE":"DIS_CODE","TOWNNAME":"TOWNNAME","LI":"LI","LIN":"LIN","STREET":"STREET","SECT":"SECT","MAREA":"MAREA","LANE":"LANE","ALLEY":"ALLEY","HOUSE_NO":"HOUSE_NO","E_COORD97":"E_COORD97","N_COORD97":"N_COORD97","ADDRESS":"ADDRESS","OBJECTID":"OBJECTID"},"geometryType":"esriGeometryPoint","spatialReference":{"wkid":102443,"latestWkid":3826},"fields":[{"name":"ID","type":"esriFieldTypeDouble","alias":"ID"},{"name":"DIS_CODE","type":"esriFieldTypeInteger","alias":"DIS_CODE"},{"name":"TOWNNAME","type":"esriFieldTypeString","alias":"TOWNNAME","length":8},{"name":"LI","type":"esriFieldTypeString","alias":"LI","length":8},{"name":"LIN","type":"esriFieldTypeString","alias":"LIN","length":12},{"name":"STREET","type":"esriFieldTypeString","alias":"STREET","length":20},{"name":"SECT","type":"esriFieldTypeString","alias":"SECT","length":8},{"name":"MAREA","type":"esriFieldTypeString","alias":"MAREA","length":12},{"name":"LANE","type":"esriFieldTypeString","alias":"LANE","length":10},{"name":"ALLEY","type":"esriFieldTypeString","alias":"ALLEY","length":10},{"name":"HOUSE_NO","type":"esriFieldTypeString","alias":"HOUSE_NO","length":20},{"name":"E_COORD97","type":"esriFieldTypeDouble","alias":"E_COORD97"},{"name":"N_COORD97","type":"esriFieldTypeDouble","alias":"N_COORD97"},{"name":"ADDRESS","type":"esriFieldTypeString","alias":"ADDRESS","length":50},{"name":"OBJECTID","type":"esriFieldTypeOID","alias":"OBJECTID"}],"features":[{"attributes":{"ID":589428,"DIS_CODE":0,"TOWNNAME":"歸仁區","LI":"南保里","LIN":"11鄰","STREET":"文化街","SECT":"三段","MAREA":" ","LANE":" ","ALLEY":" ","HOUSE_NO":"１８６號","E_COORD97":176585.23999999999,"N_COORD97":2541238.3300000001,"ADDRESS":"文化街三段１８６號","OBJECTID":589401},"geometry":{"x":176585.24000000115,"y":2541238.3299999982}},{"attributes":{"ID":589429,"DIS_CODE":0,"TOWNNAME":"新營區","LI":"南紙里","LIN":"11鄰","STREET":"太子路","SECT":" ","MAREA":" ","LANE":" ","ALLEY":" ","HOUSE_NO":"２１２之４號","E_COORD97":177860.32000000001,"N_COORD97":2577851.02,"ADDRESS":"太子路２１２之４號","OBJECTID":589402},"geometry":{"x":177860.3200000003,"y":2577851.0200000014}},{"attributes":{"ID":589430,"DIS_CODE":0,"TOWNNAME":"新營區","LI":"新北里","LIN":"11鄰","STREET":"長榮路","SECT":"二段","MAREA":" ","LANE":" ","ALLEY":" ","HOUSE_NO":"３０５號","E_COORD97":179180.42999999999,"N_COORD97":2579768.2400000002,"ADDRESS":"長榮路二段３０５號","OBJECTID":589403},"geometry":{"x":179180.43000000063,"y":2579768.2400000021}},{"attributes":{"ID":589431,"DIS_CODE":0,"TOWNNAME":"新營區","LI":"新南里","LIN":"11鄰","STREET":"新北七街","SECT":" ","MAREA":" ","LANE":" ","ALLEY":" ","HOUSE_NO":"４５號","E_COORD97":178501.20000000001,"N_COORD97":2579160.1800000002,"ADDRESS":"新北七街４５號","OBJECTID":589404},"geometry":{"x":178501.20000000019,"y":2579160.1799999997}},{"attributes":{"ID":589432,"DIS_CODE":0,"TOWNNAME":"新營區","LI":"新北里","LIN":"11鄰","STREET":"長榮路","SECT":"二段","MAREA":" ","LANE":" ","ALLEY":" ","HOUSE_NO":"３０７號","E_COORD97":179176.32000000001,"N_COORD97":2579764.9399999999,"ADDRESS":"長榮路二段３０７號","OBJECTID":589405},"geometry":{"x":179176.32000000123,"y":2579764.9399999995}},{"attributes":{"ID":589433,"DIS_CODE":0,"TOWNNAME":"東區","LI":"東聖里","LIN":"19鄰","STREET":"中華東路","SECT":"二段","MAREA":" ","LANE":" ","ALLEY":" ","HOUSE_NO":"１２５號地下室之１","E_COORD97":171397.79000000001,"N_COORD97":2542883.1299999999,"ADDRESS":"中華東路二段１２５號地下室之１","OBJECTID":589406},"geometry":{"x":171397.79000000004,"y":2542883.1300000027}},{"attributes":{"ID":589434,"DIS_CODE":0,"TOWNNAME":"東區","LI":"東聖里","LIN":"19鄰","STREET":"中華東路","SECT":"二段","MAREA":" ","LANE":" ","ALLEY":" ","HOUSE_NO":"１２５號地下室之２","E_COORD97":171397.79000000001,"N_COORD97":2542883.1299999999,"ADDRESS":"中華東路二段１２５號地下室之２","OBJECTID":589407},"geometry":{"x":171397.79000000004,"y":2542883.1300000027}},{"attributes":{"ID":589435,"DIS_CODE":0,"TOWNNAME":"東區","LI":"東聖里","LIN":"19鄰","STREET":"中華東路","SECT":"二段","MAREA":" ","LANE":" ","ALLEY":" ","HOUSE_NO":"１２５號地下室之３","E_COORD97":171397.79000000001,"N_COORD97":2542883.1299999999,"ADDRESS":"中華東路二段１２５號地下室之３","OBJECTID":589408},"geometry":{"x":171397.79000000004,"y":2542883.1300000027}},{"attributes":{"ID":589436,"DIS_CODE":0,"TOWNNAME":"東區","LI":"東聖里","LIN":"16鄰","STREET":"中華東路","SECT":"二段","MAREA":" ","LANE":" ","ALLEY":" ","HOUSE_NO":"７５號地下壹層","E_COORD97":171422.31,"N_COORD97":2543002.3399999999,"ADDRESS":"中華東路二段７５號地下壹層","OBJECTID":589409},"geometry":{"x":171422.30999999959,"y":2543002.3400000017}},{"attributes":{"ID":589437,"DIS_CODE":0,"TOWNNAME":"新營區","LI":"新北里","LIN":"11鄰","STREET":"長榮路","SECT":"二段","MAREA":" ","LANE":" ","ALLEY":" ","HOUSE_NO":"３２１號","E_COORD97":179150.70999999999,"N_COORD97":2579755.0899999999,"ADDRESS":"長榮路二段３２１號","OBJECTID":589410},"geometry":{"x":179150.70999999996,"y":2579755.0900000017}},{"attributes":{"ID":589438,"DIS_CODE":0,"TOWNNAME":"新營區","LI":"新北里","LIN":"11鄰","STREET":"長榮路","SECT":"二段","MAREA":" ","LANE":" ","ALLEY":" ","HOUSE_NO":"３７５號","E_COORD97":179035.34,"N_COORD97":2579585.1000000001,"ADDRESS":"長榮路二段３７５號","OBJECTID":589411},"geometry":{"x":179035.34000000078,"y":2579585.1000000034}},{"attributes":{"ID":589439,"DIS_CODE":0,"TOWNNAME":"新營區","LI":"新北里","LIN":"11鄰","STREET":"長榮路","SECT":"二段","MAREA":" ","LANE":" ","ALLEY":" ","HOUSE_NO":"３１１號","E_COORD97":179169.14999999999,"N_COORD97":2579762.7599999998,"ADDRESS":"長榮路二段３１１號","OBJECTID":589412},"geometry":{"x":179169.1500000013,"y":2579762.7599999998}},{"attributes":{"ID":589440,"DIS_CODE":0,"TOWNNAME":"新營區","LI":"新北里","LIN":"11鄰","STREET":"長榮路","SECT":"二段","MAREA":" ","LANE":" ","ALLEY":" ","HOUSE_NO":"３７７號","E_COORD97":179040.45000000001,"N_COORD97":2579585.0699999998,"ADDRESS":"長榮路二段３７７號","OBJECTID":589413},"geometry":{"x":179040.45000000019,"y":2579585.0700000003}},{"attributes":{"ID":589441,"DIS_CODE":0,"TOWNNAME":"新營區","LI":"新北里","LIN":"11鄰","STREET":"長榮路","SECT":"二段","MAREA":" ","LANE":" ","ALLEY":" ","HOUSE_NO":"３０１號","E_COORD97":179187.60000000001,"N_COORD97":2579770.4199999999,"ADDRESS":"長榮路二段３０１號","OBJECTID":589414},"geometry":{"x":179187.60000000056,"y":2579770.4200000018}},{"attributes":{"ID":589442,"DIS_CODE":0,"TOWNNAME":"新營區","LI":"新南里","LIN":"11鄰","STREET":"新北七街","SECT":" ","MAREA":" ","LANE":" ","ALLEY":" ","HOUSE_NO":"３９號","E_COORD97":178510.45999999999,"N_COORD97":2579169,"ADDRESS":"新北七街３９號","OBJECTID":589415},"geometry":{"x":178510.46000000089,"y":2579169.0000000037}},{"attributes":{"ID":589443,"DIS_CODE":0,"TOWNNAME":"新營區","LI":"三仙里","LIN":"11鄰","STREET":"中華路","SECT":" ","MAREA":" ","LANE":" ","ALLEY":" ","HOUSE_NO":"３８號","E_COORD97":179687.26999999999,"N_COORD97":2578214.2799999998,"ADDRESS":"中華路３８號","OBJECTID":589416},"geometry":{"x":179687.26999999955,"y":2578214.2800000012}},{"attributes":{"ID":589444,"DIS_CODE":0,"TOWNNAME":"新營區","LI":"忠政里","LIN":"11鄰","STREET":"中正路","SECT":" ","MAREA":" ","LANE":" ","ALLEY":" ","HOUSE_NO":"５５號之１２","E_COORD97":179969.79000000001,"N_COORD97":2579473.29,"ADDRESS":"中正路５５號之１２","OBJECTID":589417},"geometry":{"x":179969.79000000097,"y":2579473.2899999991}},{"attributes":{"ID":589445,"DIS_CODE":0,"TOWNNAME":"歸仁區","LI":"大廟里","LIN":"11鄰","STREET":"大廟六街","SECT":" ","MAREA":" ","LANE":" ","ALLEY":" ","HOUSE_NO":"３２之６號","E_COORD97":176030.38,"N_COORD97":2544200.8300000001,"ADDRESS":"大廟六街３２之６號","OBJECTID":589418},"geometry":{"x":176030.37999999896,"y":2544200.8300000001}},{"attributes":{"ID":589446,"DIS_CODE":0,"TOWNNAME":"歸仁區","LI":"六甲里","LIN":"11鄰","STREET":"中正南路","SECT":"一段","MAREA":" ","LANE":" ","ALLEY":" ","HOUSE_NO":"１０１１號","E_COORD97":175992.95000000001,"N_COORD97":2539173.2799999998,"ADDRESS":"中正南路一段１０１１號","OBJECTID":589419},"geometry":{"x":175992.94999999925,"y":2539173.2800000031}},{"attributes":{"ID":589447,"DIS_CODE":0,"TOWNNAME":"南區","LI":"佛壇里","LIN":"11鄰","STREET":"灣裡路","SECT":" ","MAREA":" ","LANE":" ","ALLEY":" ","HOUSE_NO":"４２３號","E_COORD97":166255.26999999999,"N_COORD97":2535990.3199999998,"ADDRESS":"灣裡路４２３號","OBJECTID":589420},"geometry":{"x":166255.27000000048,"y":2535990.3199999984}},{"attributes":{"ID":589448,"DIS_CODE":0,"TOWNNAME":"北區","LI":"新勝里","LIN":"11鄰","STREET":"長榮路","SECT":"五段","MAREA":" ","LANE":" ","ALLEY":" ","HOUSE_NO":"１２７號","E_COORD97":170052.28,"N_COORD97":2545661.54,"ADDRESS":"長榮路五段１２７號","OBJECTID":589421},"geometry":{"x":170052.28000000026,"y":2545661.540000001}},{"attributes":{"ID":589449,"DIS_CODE":0,"TOWNNAME":"北區","LI":"新勝里","LIN":"11鄰","STREET":"長榮路","SECT":"五段","MAREA":" ","LANE":" ","ALLEY":" ","HOUSE_NO":"１２９號","E_COORD97":170065.57999999999,"N_COORD97":2545664.5600000001,"ADDRESS":"長榮路五段１２９號","OBJECTID":589422},"geometry":{"x":170065.57999999914,"y":2545664.5600000005}},{"attributes":{"ID":589450,"DIS_CODE":0,"TOWNNAME":"北區","LI":"裕民里","LIN":"11鄰","STREET":"成功路","SECT":" ","MAREA":" ","LANE":" ","ALLEY":" ","HOUSE_NO":"６２４號","E_COORD97":167408.57999999999,"N_COORD97":2544864.6899999999,"ADDRESS":"成功路６２４號","OBJECTID":589423},"geometry":{"x":167408.58000000007,"y":2544864.6900000013}},{"attributes":{"ID":589451,"DIS_CODE":0,"TOWNNAME":"北區","LI":"裕民里","LIN":"11鄰","STREET":"成功路","SECT":" ","MAREA":" ","LANE":" ","ALLEY":" ","HOUSE_NO":"６２６號","E_COORD97":167405.79999999999,"N_COORD97":2544868.73,"ADDRESS":"成功路６２６號","OBJECTID":589424},"geometry":{"x":167405.80000000168,"y":2544868.7300000023}},{"attributes":{"ID":589452,"DIS_CODE":0,"TOWNNAME":"北區","LI":"裕民里","LIN":"11鄰","STREET":"成功路","SECT":" ","MAREA":" ","LANE":" ","ALLEY":" ","HOUSE_NO":"６２８號","E_COORD97":167403.39999999999,"N_COORD97":2544872.27,"ADDRESS":"成功路６２８號","OBJECTID":589425},"geometry":{"x":167403.40000000037,"y":2544872.2699999996}},{"attributes":{"ID":589453,"DIS_CODE":0,"TOWNNAME":"北區","LI":"裕民里","LIN":"11鄰","STREET":"成功路","SECT":" ","MAREA":" ","LANE":" ","ALLEY":" ","HOUSE_NO":"６３０號","E_COORD97":167400.5,"N_COORD97":2544875.5499999998,"ADDRESS":"成功路６３０號","OBJECTID":589426},"geometry":{"x":167400.5,"y":2544875.5500000045}},{"attributes":{"ID":589454,"DIS_CODE":0,"TOWNNAME":"北區","LI":"裕民里","LIN":"11鄰","STREET":"成功路","SECT":" ","MAREA":" ","LANE":" ","ALLEY":" ","HOUSE_NO":"６３２號","E_COORD97":167398.47,"N_COORD97":2544878.2000000002,"ADDRESS":"成功路６３２號","OBJECTID":589427},"geometry":{"x":167398.47000000067,"y":2544878.1999999993}},{"attributes":{"ID":589455,"DIS_CODE":0,"TOWNNAME":"安平區","LI":"億載里","LIN":"11鄰","STREET":"郡平路","SECT":" ","MAREA":" ","LANE":" ","ALLEY":" ","HOUSE_NO":"３８６號","E_COORD97":164042.85000000001,"N_COORD97":2543376.1899999999,"ADDRESS":"郡平路３８６號","OBJECTID":589428},"geometry":{"x":164042.85000000056,"y":2543376.1900000013}},{"attributes":{"ID":589456,"DIS_CODE":0,"TOWNNAME":"安平區","LI":"金城里","LIN":"11鄰","STREET":"同平路","SECT":" ","MAREA":" ","LANE":" ","ALLEY":" ","HOUSE_NO":"１８８號","E_COORD97":163107.14000000001,"N_COORD97":2543924.29,"ADDRESS":"同平路１８８號","OBJECTID":589429},"geometry":{"x":163107.13999999966,"y":2543924.290000001}},{"attributes":{"ID":589457,"DIS_CODE":0,"TOWNNAME":"安平區","LI":"金城里","LIN":"11鄰","STREET":"同平路","SECT":" ","MAREA":" ","LANE":" ","ALLEY":" ","HOUSE_NO":"１９０號","E_COORD97":163105.23999999999,"N_COORD97":2543920.3399999999,"ADDRESS":"同平路１９０號","OBJECTID":589430},"geometry":{"x":163105.24000000022,"y":2543920.3400000036}},{"attributes":{"ID":589458,"DIS_CODE":0,"TOWNNAME":"安平區","LI":"金城里","LIN":"11鄰","STREET":"同平路","SECT":" ","MAREA":" ","LANE":" ","ALLEY":" ","HOUSE_NO":"１９２號","E_COORD97":163103.81,"N_COORD97":2543917.4900000002,"ADDRESS":"同平路１９２號","OBJECTID":589431},"geometry":{"x":163103.81000000052,"y":2543917.4900000021}},{"attributes":{"ID":589459,"DIS_CODE":0,"TOWNNAME":"安平區","LI":"金城里","LIN":"11鄰","STREET":"同平路","SECT":" ","MAREA":" ","LANE":" ","ALLEY":" ","HOUSE_NO":"１９６號","E_COORD97":163098.26999999999,"N_COORD97":2543910.0499999998,"ADDRESS":"同平路１９６號","OBJECTID":589432},"geometry":{"x":163098.27000000142,"y":2543910.0500000026}},{"attributes":{"ID":589460,"DIS_CODE":0,"TOWNNAME":"安平區","LI":"金城里","LIN":"11鄰","STREET":"同平路","SECT":" ","MAREA":" ","LANE":" ","ALLEY":" ","HOUSE_NO":"２００號","E_COORD97":163092.88,"N_COORD97":2543904.5,"ADDRESS":"同平路２００號","OBJECTID":589433},"geometry":{"x":163092.88000000175,"y":2543904.5}},{"attributes":{"ID":589461,"DIS_CODE":0,"TOWNNAME":"安平區","LI":"金城里","LIN":"11鄰","STREET":"同平路","SECT":" ","MAREA":" ","LANE":" ","ALLEY":" ","HOUSE_NO":"２０２號","E_COORD97":163090.5,"N_COORD97":2543901.3399999999,"ADDRESS":"同平路２０２號","OBJECTID":589434},"geometry":{"x":163090.50000000186,"y":2543901.3400000017}},{"attributes":{"ID":589462,"DIS_CODE":0,"TOWNNAME":"安平區","LI":"金城里","LIN":"11鄰","STREET":"同平路","SECT":" ","MAREA":" ","LANE":" ","ALLEY":" ","HOUSE_NO":"２０６號","E_COORD97":163085.59,"N_COORD97":2543895.7999999998,"ADDRESS":"同平路２０６號","OBJECTID":589435},"geometry":{"x":163085.58999999985,"y":2543895.8000000026}},{"attributes":{"ID":589463,"DIS_CODE":0,"TOWNNAME":"安平區","LI":"金城里","LIN":"11鄰","STREET":"同平路","SECT":" ","MAREA":" ","LANE":" ","ALLEY":" ","HOUSE_NO":"２０８號","E_COORD97":163082.57999999999,"N_COORD97":2543892.3100000001,"ADDRESS":"同平路２０８號","OBJECTID":589436},"geometry":{"x":163082.58000000007,"y":2543892.3100000005}},{"attributes":{"ID":589464,"DIS_CODE":0,"TOWNNAME":"安平區","LI":"金城里","LIN":"11鄰","STREET":"同平路","SECT":" ","MAREA":" ","LANE":" ","ALLEY":" ","HOUSE_NO":"２１０號","E_COORD97":163076.07999999999,"N_COORD97":2543882.6600000001,"ADDRESS":"同平路２１０號","OBJECTID":589437},"geometry":{"x":163076.08000000007,"y":2543882.6600000001}},{"attributes":{"ID":589465,"DIS_CODE":0,"TOWNNAME":"鹽水區","LI":"中境里","LIN":"11鄰","STREET":"金和路","SECT":" ","MAREA":" ","LANE":" ","ALLEY":" ","HOUSE_NO":"５號","E_COORD97":174611.98000000001,"N_COORD97":2580367,"ADDRESS":"金和路５號","OBJECTID":589438},"geometry":{"x":174611.98000000138,"y":2580367.0000000019}},{"attributes":{"ID":589466,"DIS_CODE":0,"TOWNNAME":"南區","LI":"國宅里","LIN":"11鄰","STREET":"尊南街","SECT":" ","MAREA":" ","LANE":" ","ALLEY":" ","HOUSE_NO":"２０號","E_COORD97":166819.98000000001,"N_COORD97":2541812.6699999999,"ADDRESS":"尊南街２０號","OBJECTID":589439},"geometry":{"x":166819.98000000045,"y":2541812.6700000037}},{"attributes":{"ID":589467,"DIS_CODE":0,"TOWNNAME":"南區","LI":"國宅里","LIN":"11鄰","STREET":"尊南街","SECT":" ","MAREA":" ","LANE":" ","ALLEY":" ","HOUSE_NO":"１６號","E_COORD97":166819.79999999999,"N_COORD97":2541804.98,"ADDRESS":"尊南街１６號","OBJECTID":589440},"geometry":{"x":166819.80000000075,"y":2541804.9800000023}},{"attributes":{"ID":589468,"DIS_CODE":0,"TOWNNAME":"南區","LI":"佛壇里","LIN":"11鄰","STREET":"灣裡路","SECT":" ","MAREA":" ","LANE":" ","ALLEY":" ","HOUSE_NO":"４３７號","E_COORD97":166260.79000000001,"N_COORD97":2535956.6499999999,"ADDRESS":"灣裡路４３７號","OBJECTID":589441},"geometry":{"x":166260.79000000097,"y":2535956.6500000004}},{"attributes":{"ID":589469,"DIS_CODE":0,"TOWNNAME":"南區","LI":"省躬里","LIN":"11鄰","STREET":"省躬橫街","SECT":" ","MAREA":" ","LANE":" ","ALLEY":" ","HOUSE_NO":"５０號","E_COORD97":165575.67000000001,"N_COORD97":2536935.9500000002,"ADDRESS":"省躬橫街５０號","OBJECTID":589442},"geometry":{"x":165575.66999999993,"y":2536935.9500000011}},{"attributes":{"ID":589470,"DIS_CODE":0,"TOWNNAME":"新化區","LI":"知義里","LIN":"11鄰","STREET":"中興路","SECT":" ","MAREA":" ","LANE":" ","ALLEY":" ","HOUSE_NO":"７５號","E_COORD97":181865.56,"N_COORD97":2547304.25,"ADDRESS":"中興路７５號","OBJECTID":589443},"geometry":{"x":181865.56000000145,"y":2547304.2499999981}},{"attributes":{"ID":589471,"DIS_CODE":0,"TOWNNAME":"北區","LI":"成功里","LIN":"11鄰","STREET":"北成路","SECT":" ","MAREA":" ","LANE":" ","ALLEY":" ","HOUSE_NO":"２６號","E_COORD97":169160.73999999999,"N_COORD97":2546575.1200000001,"ADDRESS":"北成路２６號","OBJECTID":589444},"geometry":{"x":169160.74000000022,"y":2546575.1200000029}},{"attributes":{"ID":589472,"DIS_CODE":0,"TOWNNAME":"北區","LI":"成德里","LIN":"11鄰","STREET":"和緯路","SECT":"二段","MAREA":" ","LANE":" ","ALLEY":" ","HOUSE_NO":"１７７號","E_COORD97":168667.25,"N_COORD97":2545817.8999999999,"ADDRESS":"和緯路二段１７７號","OBJECTID":589445},"geometry":{"x":168667.25,"y":2545817.9000000004}},{"attributes":{"ID":589473,"DIS_CODE":0,"TOWNNAME":"北區","LI":"成德里","LIN":"11鄰","STREET":"和緯路","SECT":"二段","MAREA":" ","LANE":" ","ALLEY":" ","HOUSE_NO":"１７９號","E_COORD97":168662.85999999999,"N_COORD97":2545819.3700000001,"ADDRESS":"和緯路二段１７９號","OBJECTID":589446},"geometry":{"x":168662.86000000127,"y":2545819.370000001}},{"attributes":{"ID":589474,"DIS_CODE":0,"TOWNNAME":"北區","LI":"公園里","LIN":"11鄰","STREET":"北忠街","SECT":" ","MAREA":" ","LANE":" ","ALLEY":" ","HOUSE_NO":"７４號","E_COORD97":169079.95999999999,"N_COORD97":2544403.5299999998,"ADDRESS":"北忠街７４號","OBJECTID":589447},"geometry":{"x":169079.96000000089,"y":2544403.5300000012}},{"attributes":{"ID":589475,"DIS_CODE":0,"TOWNNAME":"北區","LI":"公園里","LIN":"11鄰","STREET":"北忠街","SECT":" ","MAREA":" ","LANE":" ","ALLEY":" ","HOUSE_NO":"７６號","E_COORD97":169055.22,"N_COORD97":2544416.9500000002,"ADDRESS":"北忠街７６號","OBJECTID":589448},"geometry":{"x":169055.21999999974,"y":2544416.950000003}},{"attributes":{"ID":589476,"DIS_CODE":0,"TOWNNAME":"北區","LI":"公園里","LIN":"11鄰","STREET":"北忠街","SECT":" ","MAREA":" ","LANE":" ","ALLEY":" ","HOUSE_NO":"７８號","E_COORD97":169046.94,"N_COORD97":2544422.77,"ADDRESS":"北忠街７８號","OBJECTID":589449},"geometry":{"x":169046.94000000134,"y":2544422.7700000014}},{"attributes":{"ID":589477,"DIS_CODE":0,"TOWNNAME":"北區","LI":"公園里","LIN":"11鄰","STREET":"北忠街","SECT":" ","MAREA":" ","LANE":" ","ALLEY":" ","HOUSE_NO":"８４號","E_COORD97":169018.95000000001,"N_COORD97":2544422.7799999998,"ADDRESS":"北忠街８４號","OBJECTID":589450},"geometry":{"x":169018.94999999925,"y":2544422.7800000012}},{"attributes":{"ID":589478,"DIS_CODE":0,"TOWNNAME":"北區","LI":"公園里","LIN":"11鄰","STREET":"北忠街","SECT":" ","MAREA":" ","LANE":" ","ALLEY":" ","HOUSE_NO":"８６號","E_COORD97":169014.34,"N_COORD97":2544424.8199999998,"ADDRESS":"北忠街８６號","OBJECTID":589451},"geometry":{"x":169014.34000000171,"y":2544424.8200000003}},{"attributes":{"ID":589479,"DIS_CODE":0,"TOWNNAME":"北區","LI":"公園里","LIN":"11鄰","STREET":"北忠街","SECT":" ","MAREA":" ","LANE":" ","ALLEY":" ","HOUSE_NO":"９２號","E_COORD97":169055.35999999999,"N_COORD97":2544455.6699999999,"ADDRESS":"北忠街９２號","OBJECTID":589452},"geometry":{"x":169055.3600000022,"y":2544455.6699999999}},{"attributes":{"ID":589480,"DIS_CODE":0,"TOWNNAME":"北區","LI":"公園里","LIN":"11鄰","STREET":"西華街","SECT":" ","MAREA":" ","LANE":" ","ALLEY":" ","HOUSE_NO":"５９號","E_COORD97":169065.26000000001,"N_COORD97":2544408.27,"ADDRESS":"西華街５９號","OBJECTID":589453},"geometry":{"x":169065.25999999978,"y":2544408.2699999977}},{"attributes":{"ID":589481,"DIS_CODE":0,"TOWNNAME":"北區","LI":"公園里","LIN":"11鄰","STREET":"西華街","SECT":" ","MAREA":" ","LANE":" ","ALLEY":" ","HOUSE_NO":"６１號","E_COORD97":169069.47,"N_COORD97":2544417.2200000002,"ADDRESS":"西華街６１號","OBJECTID":589454},"geometry":{"x":169069.47000000067,"y":2544417.2200000025}},{"attributes":{"ID":589482,"DIS_CODE":0,"TOWNNAME":"北區","LI":"公園里","LIN":"11鄰","STREET":"西華街","SECT":" ","MAREA":" ","LANE":" ","ALLEY":" ","HOUSE_NO":"６３號","E_COORD97":169070.42000000001,"N_COORD97":2544423.3199999998,"ADDRESS":"西華街６３號","OBJECTID":589455},"geometry":{"x":169070.42000000086,"y":2544423.3200000022}},{"attributes":{"ID":589483,"DIS_CODE":0,"TOWNNAME":"北區","LI":"公園里","LIN":"11鄰","STREET":"西華街","SECT":" ","MAREA":" ","LANE":" ","ALLEY":" ","HOUSE_NO":"６５號","E_COORD97":169071.23000000001,"N_COORD97":2544428.2000000002,"ADDRESS":"西華街６５號","OBJECTID":589456},"geometry":{"x":169071.23000000045,"y":2544428.1999999993}},{"attributes":{"ID":589484,"DIS_CODE":0,"TOWNNAME":"新營區","LI":"忠政里","LIN":"11鄰","STREET":"中正路","SECT":" ","MAREA":" ","LANE":" ","ALLEY":" ","HOUSE_NO":"５５之２２號","E_COORD97":179972.23999999999,"N_COORD97":2579509.8199999998,"ADDRESS":"中正路５５之２２號","OBJECTID":589457},"geometry":{"x":179972.24000000115,"y":2579509.8200000022}},{"attributes":{"ID":589485,"DIS_CODE":0,"TOWNNAME":"新營區","LI":"忠政里","LIN":"11鄰","STREET":"中正路","SECT":" ","MAREA":" ","LANE":" ","ALLEY":" ","HOUSE_NO":"５５之５號","E_COORD97":180002.51000000001,"N_COORD97":2579472.02,"ADDRESS":"中正路５５之５號","OBJECTID":589458},"geometry":{"x":180002.50999999978,"y":2579472.0199999996}},{"attributes":{"ID":589486,"DIS_CODE":0,"TOWNNAME":"新營區","LI":"民生里","LIN":"11鄰","STREET":"民生路","SECT":" ","MAREA":" ","LANE":" ","ALLEY":" ","HOUSE_NO":"４３之９號","E_COORD97":179245.39000000001,"N_COORD97":2578333.8300000001,"ADDRESS":"民生路４３之９號","OBJECTID":589459},"geometry":{"x":179245.38999999966,"y":2578333.8300000019}},{"attributes":{"ID":589487,"DIS_CODE":0,"TOWNNAME":"新營區","LI":"民權里","LIN":"11鄰","STREET":"中華路","SECT":" ","MAREA":" ","LANE":" ","ALLEY":" ","HOUSE_NO":"１８之５號","E_COORD97":179844.23999999999,"N_COORD97":2578234.6400000001,"ADDRESS":"中華路１８之５號","OBJECTID":589460},"geometry":{"x":179844.24000000209,"y":2578234.6400000006}},{"attributes":{"ID":589488,"DIS_CODE":0,"TOWNNAME":"新營區","LI":"中營里","LIN":"11鄰","STREET":"工業街","SECT":" ","MAREA":" ","LANE":" ","ALLEY":" ","HOUSE_NO":"３９號","E_COORD97":180807.32000000001,"N_COORD97":2578212.3300000001,"ADDRESS":"工業街３９號","OBJECTID":589461},"geometry":{"x":180807.32000000123,"y":2578212.3300000019}},{"attributes":{"ID":589489,"DIS_CODE":0,"TOWNNAME":"新化區","LI":"知義里","LIN":"11鄰","STREET":"中興路","SECT":" ","MAREA":" ","LANE":" ","ALLEY":" ","HOUSE_NO":"１２３號","E_COORD97":181750.31,"N_COORD97":2547303.25,"ADDRESS":"中興路１２３號","OBJECTID":589462},"geometry":{"x":181750.31000000145,"y":2547303.25}},{"attributes":{"ID":589490,"DIS_CODE":0,"TOWNNAME":"安平區","LI":"金城里","LIN":"11鄰","STREET":"同平路","SECT":" ","MAREA":" ","LANE":" ","ALLEY":" ","HOUSE_NO":"１９８號","E_COORD97":163095.41,"N_COORD97":2543907.3500000001,"ADDRESS":"同平路１９８號","OBJECTID":589463},"geometry":{"x":163095.41000000108,"y":2543907.3500000015}},{"attributes":{"ID":589491,"DIS_CODE":0,"TOWNNAME":"安平區","LI":"金城里","LIN":"11鄰","STREET":"同平路","SECT":" ","MAREA":" ","LANE":" ","ALLEY":" ","HOUSE_NO":"２０４號","E_COORD97":163088.44,"N_COORD97":2543898.3300000001,"ADDRESS":"同平路２０４號","OBJECTID":589464},"geometry":{"x":163088.44000000134,"y":2543898.3300000019}},{"attributes":{"ID":589492,"DIS_CODE":0,"TOWNNAME":"安平區","LI":"金城里","LIN":"11鄰","STREET":"同平路","SECT":" ","MAREA":" ","LANE":" ","ALLEY":" ","HOUSE_NO":"２１６號","E_COORD97":163067.84,"N_COORD97":2543873.4700000002,"ADDRESS":"同平路２１６號","OBJECTID":589465},"geometry":{"x":163067.84000000078,"y":2543873.4700000025}},{"attributes":{"ID":589493,"DIS_CODE":0,"TOWNNAME":"安平區","LI":"建平里","LIN":"11鄰","STREET":"建平十五街","SECT":" ","MAREA":" ","LANE":" ","ALLEY":" ","HOUSE_NO":"１４２號","E_COORD97":166039.32999999999,"N_COORD97":2544146.7000000002,"ADDRESS":"建平十五街１４２號","OBJECTID":589466},"geometry":{"x":166039.33000000007,"y":2544146.6999999993}},{"attributes":{"ID":589494,"DIS_CODE":0,"TOWNNAME":"安平區","LI":"建平里","LIN":"11鄰","STREET":"建平十五街","SECT":" ","MAREA":" ","LANE":" ","ALLEY":" ","HOUSE_NO":"１４４號","E_COORD97":166033.64999999999,"N_COORD97":2544146.5499999998,"ADDRESS":"建平十五街１４４號","OBJECTID":589467},"geometry":{"x":166033.65000000037,"y":2544146.5499999989}},{"attributes":{"ID":589495,"DIS_CODE":0,"TOWNNAME":"安平區","LI":"建平里","LIN":"11鄰","STREET":"建平十五街","SECT":" ","MAREA":" ","LANE":" ","ALLEY":" ","HOUSE_NO":"１４６號","E_COORD97":166017.76000000001,"N_COORD97":2544142.0899999999,"ADDRESS":"建平十五街１４６號","OBJECTID":589468},"geometry":{"x":166017.76000000164,"y":2544142.0900000036}},{"attributes":{"ID":589496,"DIS_CODE":0,"TOWNNAME":"安平區","LI":"建平里","LIN":"11鄰","STREET":"建平十五街","SECT":" ","MAREA":" ","LANE":" ","ALLEY":" ","HOUSE_NO":"１３６號","E_COORD97":166054.97,"N_COORD97":2544143.48,"ADDRESS":"建平十五街１３６號","OBJECTID":589469},"geometry":{"x":166054.96999999974,"y":2544143.4800000042}},{"attributes":{"ID":589497,"DIS_CODE":0,"TOWNNAME":"安平區","LI":"建平里","LIN":"11鄰","STREET":"建平十五街","SECT":" ","MAREA":" ","LANE":" ","ALLEY":" ","HOUSE_NO":"１３８號","E_COORD97":166049.29999999999,"N_COORD97":2544143.3300000001,"ADDRESS":"建平十五街１３８號","OBJECTID":589470},"geometry":{"x":166049.29999999981,"y":2544143.3300000001}},{"attributes":{"ID":589498,"DIS_CODE":0,"TOWNNAME":"安平區","LI":"建平里","LIN":"11鄰","STREET":"建平十五街","SECT":" ","MAREA":" ","LANE":" ","ALLEY":" ","HOUSE_NO":"６２號","E_COORD97":166184.89000000001,"N_COORD97":2544127.3900000001,"ADDRESS":"建平十五街６２號","OBJECTID":589471},"geometry":{"x":166184.8900000006,"y":2544127.3900000043}},{"attributes":{"ID":589499,"DIS_CODE":0,"TOWNNAME":"安平區","LI":"建平里","LIN":"11鄰","STREET":"建平十五街","SECT":" ","MAREA":" ","LANE":" ","ALLEY":" ","HOUSE_NO":"７８號","E_COORD97":166117.37,"N_COORD97":2544137.7999999998,"ADDRESS":"建平十五街７８號","OBJECTID":589472},"geometry":{"x":166117.37000000197,"y":2544137.8000000007}},{"attributes":{"ID":589500,"DIS_CODE":0,"TOWNNAME":"安平區","LI":"建平里","LIN":"11鄰","STREET":"慶平路","SECT":" ","MAREA":" ","LANE":" ","ALLEY":" ","HOUSE_NO":"１５５號","E_COORD97":166052.14999999999,"N_COORD97":2544168.27,"ADDRESS":"慶平路１５５號","OBJECTID":589473},"geometry":{"x":166052.1500000013,"y":2544168.2700000014}},{"attributes":{"ID":589501,"DIS_CODE":0,"TOWNNAME":"歸仁區","LI":"崙頂里","LIN":"11鄰","STREET":"成功九街","SECT":" ","MAREA":" ","LANE":" ","ALLEY":" ","HOUSE_NO":"６號","E_COORD97":178079.60000000001,"N_COORD97":2539738.27,"ADDRESS":"成功九街６號","OBJECTID":589474},"geometry":{"x":178079.59999999963,"y":2539738.2699999996}},{"attributes":{"ID":589502,"DIS_CODE":0,"TOWNNAME":"歸仁區","LI":"看東里","LIN":"11鄰","STREET":"忠孝南路","SECT":" ","MAREA":" ","LANE":" ","ALLEY":" ","HOUSE_NO":"１０７號","E_COORD97":178536.89999999999,"N_COORD97":2540383.48,"ADDRESS":"忠孝南路１０７號","OBJECTID":589475},"geometry":{"x":178536.9000000013,"y":2540383.4800000042}},{"attributes":{"ID":589503,"DIS_CODE":0,"TOWNNAME":"新營區","LI":"民權里","LIN":"11鄰","STREET":"中華路","SECT":" ","MAREA":" ","LANE":" ","ALLEY":" ","HOUSE_NO":"１０號","E_COORD97":179891.88,"N_COORD97":2578238.7799999998,"ADDRESS":"中華路１０號","OBJECTID":589476},"geometry":{"x":179891.87999999989,"y":2578238.7800000012}},{"attributes":{"ID":589504,"DIS_CODE":0,"TOWNNAME":"新營區","LI":"民生里","LIN":"11鄰","STREET":"三民路","SECT":" ","MAREA":" ","LANE":" ","ALLEY":" ","HOUSE_NO":"１９０號","E_COORD97":179219.82000000001,"N_COORD97":2578185.4900000002,"ADDRESS":"三民路１９０號","OBJECTID":589477},"geometry":{"x":179219.8200000003,"y":2578185.4900000002}},{"attributes":{"ID":589505,"DIS_CODE":0,"TOWNNAME":"新營區","LI":"民生里","LIN":"11鄰","STREET":"三民路","SECT":" ","MAREA":" ","LANE":" ","ALLEY":" ","HOUSE_NO":"１８８號","E_COORD97":179226.03,"N_COORD97":2578200.9700000002,"ADDRESS":"三民路１８８號","OBJECTID":589478},"geometry":{"x":179226.03000000119,"y":2578200.9700000025}},{"attributes":{"ID":589506,"DIS_CODE":0,"TOWNNAME":"學甲區","LI":"仁得里","LIN":"11鄰","STREET":"八德街","SECT":" ","MAREA":" ","LANE":" ","ALLEY":" ","HOUSE_NO":"１７０號","E_COORD97":165870.01000000001,"N_COORD97":2569763.7599999998,"ADDRESS":"八德街１７０號","OBJECTID":589479},"geometry":{"x":165870.00999999978,"y":2569763.7599999998}},{"attributes":{"ID":589507,"DIS_CODE":0,"TOWNNAME":"學甲區","LI":"仁得里","LIN":"11鄰","STREET":"八德街","SECT":" ","MAREA":" ","LANE":" ","ALLEY":" ","HOUSE_NO":"１７２號","E_COORD97":165865.10000000001,"N_COORD97":2569765.04,"ADDRESS":"八德街１７２號","OBJECTID":589480},"geometry":{"x":165865.10000000056,"y":2569765.0399999991}},{"attributes":{"ID":589508,"DIS_CODE":0,"TOWNNAME":"學甲區","LI":"仁得里","LIN":"11鄰","STREET":"八德街","SECT":" ","MAREA":" ","LANE":" ","ALLEY":" ","HOUSE_NO":"１７３號之１","E_COORD97":165832.17999999999,"N_COORD97":2569730.04,"ADDRESS":"八德街１７３號之１","OBJECTID":589481},"geometry":{"x":165832.18000000063,"y":2569730.040000001}},{"attributes":{"ID":589509,"DIS_CODE":0,"TOWNNAME":"學甲區","LI":"仁得里","LIN":"11鄰","STREET":"八德街","SECT":" ","MAREA":" ","LANE":" ","ALLEY":" ","HOUSE_NO":"１７３號之２","E_COORD97":165830.94,"N_COORD97":2569730.3399999999,"ADDRESS":"八德街１７３號之２","OBJECTID":589482},"geometry":{"x":165830.94000000134,"y":2569730.3399999999}},{"attributes":{"ID":589510,"DIS_CODE":0,"TOWNNAME":"學甲區","LI":"仁得里","LIN":"11鄰","STREET":"八德街","SECT":" ","MAREA":" ","LANE":" ","ALLEY":" ","HOUSE_NO":"１７３號之３","E_COORD97":165829.70000000001,"N_COORD97":2569730.6400000001,"ADDRESS":"八德街１７３號之３","OBJECTID":589483},"geometry":{"x":165829.70000000019,"y":2569730.6400000025}},{"attributes":{"ID":589511,"DIS_CODE":0,"TOWNNAME":"學甲區","LI":"仁得里","LIN":"11鄰","STREET":"八德街","SECT":" ","MAREA":" ","LANE":" ","ALLEY":" ","HOUSE_NO":"１７３號之４","E_COORD97":165828.45999999999,"N_COORD97":2569730.9500000002,"ADDRESS":"八德街１７３號之４","OBJECTID":589484},"geometry":{"x":165828.46000000183,"y":2569730.9500000011}},{"attributes":{"ID":589512,"DIS_CODE":0,"TOWNNAME":"學甲區","LI":"仁得里","LIN":"11鄰","STREET":"八德街","SECT":" ","MAREA":" ","LANE":" ","ALLEY":" ","HOUSE_NO":"１７３號之５","E_COORD97":165827.22,"N_COORD97":2569731.25,"ADDRESS":"八德街１７３號之５","OBJECTID":589485},"geometry":{"x":165827.22000000067,"y":2569731.25}},{"attributes":{"ID":589513,"DIS_CODE":0,"TOWNNAME":"學甲區","LI":"仁得里","LIN":"11鄰","STREET":"八德街","SECT":" ","MAREA":" ","LANE":" ","ALLEY":" ","HOUSE_NO":"１７３號","E_COORD97":165833.94,"N_COORD97":2569729.5800000001,"ADDRESS":"八德街１７３號","OBJECTID":589486},"geometry":{"x":165833.94000000041,"y":2569729.5800000038}},{"attributes":{"ID":589514,"DIS_CODE":0,"TOWNNAME":"學甲區","LI":"仁得里","LIN":"11鄰","STREET":"八德街","SECT":" ","MAREA":" ","LANE":" ","ALLEY":" ","HOUSE_NO":"１７５號之２","E_COORD97":165835.23000000001,"N_COORD97":2569742.46,"ADDRESS":"八德街１７５號之２","OBJECTID":589487},"geometry":{"x":165835.23000000045,"y":2569742.4600000028}},{"attributes":{"ID":589515,"DIS_CODE":0,"TOWNNAME":"學甲區","LI":"仁得里","LIN":"11鄰","STREET":"八德街","SECT":" ","MAREA":" ","LANE":" ","ALLEY":" ","HOUSE_NO":"１７５號之３","E_COORD97":165832.79999999999,"N_COORD97":2569743.1099999999,"ADDRESS":"八德街１７５號之３","OBJECTID":589488},"geometry":{"x":165832.80000000168,"y":2569743.1100000013}},{"attributes":{"ID":589516,"DIS_CODE":0,"TOWNNAME":"學甲區","LI":"仁得里","LIN":"11鄰","STREET":"八德街","SECT":" ","MAREA":" ","LANE":" ","ALLEY":" ","HOUSE_NO":"１７５號之４","E_COORD97":165830.81,"N_COORD97":2569743.6200000001,"ADDRESS":"八德街１７５號之４","OBJECTID":589489},"geometry":{"x":165830.81000000145,"y":2569743.620000001}},{"attributes":{"ID":589517,"DIS_CODE":0,"TOWNNAME":"學甲區","LI":"仁得里","LIN":"11鄰","STREET":"八德街","SECT":" ","MAREA":" ","LANE":" ","ALLEY":" ","HOUSE_NO":"１７５號","E_COORD97":165837.23999999999,"N_COORD97":2569741.8399999999,"ADDRESS":"八德街１７５號","OBJECTID":589490},"geometry":{"x":165837.24000000115,"y":2569741.8400000017}},{"attributes":{"ID":589518,"DIS_CODE":0,"TOWNNAME":"學甲區","LI":"仁得里","LIN":"11鄰","STREET":"八德街","SECT":" ","MAREA":" ","LANE":" ","ALLEY":" ","HOUSE_NO":"１７６號","E_COORD97":165860.13,"N_COORD97":2569766.54,"ADDRESS":"八德街１７６號","OBJECTID":589491},"geometry":{"x":165860.13000000082,"y":2569766.540000001}},{"attributes":{"ID":589519,"DIS_CODE":0,"TOWNNAME":"學甲區","LI":"仁得里","LIN":"11鄰","STREET":"八德街","SECT":" ","MAREA":" ","LANE":" ","ALLEY":" ","HOUSE_NO":"１７７號之２","E_COORD97":165838.51999999999,"N_COORD97":2569753.4700000002,"ADDRESS":"八德街１７７號之２","OBJECTID":589492},"geometry":{"x":165838.52000000048,"y":2569753.4700000007}},{"attributes":{"ID":589520,"DIS_CODE":0,"TOWNNAME":"學甲區","LI":"仁得里","LIN":"11鄰","STREET":"八德街","SECT":" ","MAREA":" ","LANE":" ","ALLEY":" ","HOUSE_NO":"１７７號之３","E_COORD97":165836.04000000001,"N_COORD97":2569754.1800000002,"ADDRESS":"八德街１７７號之３","OBJECTID":589493},"geometry":{"x":165836.04000000004,"y":2569754.1799999997}},{"attributes":{"ID":589521,"DIS_CODE":0,"TOWNNAME":"新化區","LI":"武安里","LIN":"11鄰","STREET":"信義路","SECT":" ","MAREA":" ","LANE":" ","ALLEY":" ","HOUSE_NO":"３３７號之１","E_COORD97":178840.35999999999,"N_COORD97":2548282.2599999998,"ADDRESS":"信義路３３７號之１","OBJECTID":589494},"geometry":{"x":178840.36000000127,"y":2548282.2599999998}},{"attributes":{"ID":589522,"DIS_CODE":0,"TOWNNAME":"新化區","LI":"護國里","LIN":"11鄰","STREET":"中山路","SECT":" ","MAREA":" ","LANE":" ","ALLEY":" ","HOUSE_NO":"１號之２９","E_COORD97":180827.79999999999,"N_COORD97":2550556.2599999998,"ADDRESS":"中山路１號之２９","OBJECTID":589495},"geometry":{"x":180827.79999999981,"y":2550556.2600000016}},{"attributes":{"ID":589523,"DIS_CODE":0,"TOWNNAME":"新化區","LI":"豐榮里","LIN":"11鄰","STREET":"信義路","SECT":" ","MAREA":" ","LANE":" ","ALLEY":" ","HOUSE_NO":"４４９號之２","E_COORD97":178460.48000000001,"N_COORD97":2548244.2599999998,"ADDRESS":"信義路４４９號之２","OBJECTID":589496},"geometry":{"x":178460.48000000138,"y":2548244.2600000016}},{"attributes":{"ID":589524,"DIS_CODE":0,"TOWNNAME":"新化區","LI":"武安里","LIN":"11鄰","STREET":"和平街","SECT":" ","MAREA":" ","LANE":" ","ALLEY":" ","HOUSE_NO":"１６９號","E_COORD97":178891.72,"N_COORD97":2548268.25,"ADDRESS":"和平街１６９號","OBJECTID":589497},"geometry":{"x":178891.72000000067,"y":2548268.2500000019}},{"attributes":{"ID":589525,"DIS_CODE":0,"TOWNNAME":"新化區","LI":"太平里","LIN":"11鄰","STREET":"正新北路","SECT":" ","MAREA":" ","LANE":" ","ALLEY":" ","HOUSE_NO":"８６號","E_COORD97":178568.12,"N_COORD97":2549029.25,"ADDRESS":"正新北路８６號","OBJECTID":589498},"geometry":{"x":178568.12000000011,"y":2549029.25}},{"attributes":{"ID":589526,"DIS_CODE":0,"TOWNNAME":"新化區","LI":"豐榮里","LIN":"11鄰","STREET":"信義路","SECT":" ","MAREA":" ","LANE":" ","ALLEY":" ","HOUSE_NO":"４３７號","E_COORD97":178492.23000000001,"N_COORD97":2548250.25,"ADDRESS":"信義路４３７號","OBJECTID":589499},"geometry":{"x":178492.23000000138,"y":2548250.2500000037}},{"attributes":{"ID":589527,"DIS_CODE":0,"TOWNNAME":"新化區","LI":"武安里","LIN":"11鄰","STREET":"信義路","SECT":" ","MAREA":" ","LANE":" ","ALLEY":" ","HOUSE_NO":"３４９號之４","E_COORD97":178794.26000000001,"N_COORD97":2548272.2599999998,"ADDRESS":"信義路３４９號之４","OBJECTID":589500},"geometry":{"x":178794.25999999885,"y":2548272.2599999998}},{"attributes":{"ID":589528,"DIS_CODE":0,"TOWNNAME":"新化區","LI":"豐榮里","LIN":"11鄰","STREET":"信義路","SECT":" ","MAREA":" ","LANE":" ","ALLEY":" ","HOUSE_NO":"４４９號之７","E_COORD97":178429.17000000001,"N_COORD97":2548239.2599999998,"ADDRESS":"信義路４４９號之７","OBJECTID":589501},"geometry":{"x":178429.17000000086,"y":2548239.2599999998}},{"attributes":{"ID":589529,"DIS_CODE":0,"TOWNNAME":"東區","LI":"德光里","LIN":"11鄰","STREET":"崇德三街","SECT":" ","MAREA":" ","LANE":" ","ALLEY":" ","HOUSE_NO":"１０８號地下層","E_COORD97":170327.42000000001,"N_COORD97":2542328.1600000001,"ADDRESS":"崇德三街１０８號地下層","OBJECTID":589502},"geometry":{"x":170327.41999999993,"y":2542328.1600000039}},{"attributes":{"ID":589530,"DIS_CODE":0,"TOWNNAME":"東區","LI":"德光里","LIN":"11鄰","STREET":"崇德三街","SECT":" ","MAREA":" ","LANE":" ","ALLEY":" ","HOUSE_NO":"１１０號","E_COORD97":170337.06,"N_COORD97":2542321.6000000001,"ADDRESS":"崇德三街１１０號","OBJECTID":589503},"geometry":{"x":170337.06000000052,"y":2542321.6000000015}},{"attributes":{"ID":589531,"DIS_CODE":0,"TOWNNAME":"東區","LI":"德光里","LIN":"11鄰","STREET":"崇德三街","SECT":" ","MAREA":" ","LANE":" ","ALLEY":" ","HOUSE_NO":"１１２號","E_COORD97":170344.85000000001,"N_COORD97":2542315.46,"ADDRESS":"崇德三街１１２號","OBJECTID":589504},"geometry":{"x":170344.85000000149,"y":2542315.4600000009}},{"attributes":{"ID":589532,"DIS_CODE":0,"TOWNNAME":"東區","LI":"德光里","LIN":"11鄰","STREET":"崇德三街","SECT":" ","MAREA":" ","LANE":" ","ALLEY":" ","HOUSE_NO":"１１４號","E_COORD97":170348.34,"N_COORD97":2542306.4500000002,"ADDRESS":"崇德三街１１４號","OBJECTID":589505},"geometry":{"x":170348.33999999892,"y":2542306.4500000011}},{"attributes":{"ID":589533,"DIS_CODE":0,"TOWNNAME":"東區","LI":"德光里","LIN":"11鄰","STREET":"崇德三街","SECT":" ","MAREA":" ","LANE":" ","ALLEY":" ","HOUSE_NO":"５４號","E_COORD97":170262.60000000001,"N_COORD97":2542246.6899999999,"ADDRESS":"崇德三街５４號","OBJECTID":589506},"geometry":{"x":170262.59999999963,"y":2542246.6900000013}},{"attributes":{"ID":589534,"DIS_CODE":0,"TOWNNAME":"東區","LI":"德光里","LIN":"11鄰","STREET":"崇德三街","SECT":" ","MAREA":" ","LANE":" ","ALLEY":" ","HOUSE_NO":"５６號","E_COORD97":170265.25,"N_COORD97":2542249.6499999999,"ADDRESS":"崇德三街５６號","OBJECTID":589507},"geometry":{"x":170265.25000000093,"y":2542249.6500000004}},{"attributes":{"ID":589535,"DIS_CODE":0,"TOWNNAME":"東區","LI":"德光里","LIN":"11鄰","STREET":"崇德三街","SECT":" ","MAREA":" ","LANE":" ","ALLEY":" ","HOUSE_NO":"５８號","E_COORD97":170267.73999999999,"N_COORD97":2542253.3799999999,"ADDRESS":"崇德三街５８號","OBJECTID":589508},"geometry":{"x":170267.74000000022,"y":2542253.379999999}},{"attributes":{"ID":589536,"DIS_CODE":0,"TOWNNAME":"東區","LI":"德光里","LIN":"11鄰","STREET":"崇德三街","SECT":" ","MAREA":" ","LANE":" ","ALLEY":" ","HOUSE_NO":"６０號","E_COORD97":170271.01000000001,"N_COORD97":2542256.6499999999,"ADDRESS":"崇德三街６０號","OBJECTID":589509},"geometry":{"x":170271.01000000164,"y":2542256.6500000004}},{"attributes":{"ID":589537,"DIS_CODE":0,"TOWNNAME":"中西區","LI":"郡西里","LIN":"11鄰","STREET":"大智街","SECT":" ","MAREA":" ","LANE":" ","ALLEY":" ","HOUSE_NO":"７９號","E_COORD97":167291.26999999999,"N_COORD97":2543429.8900000001,"ADDRESS":"大智街７９號","OBJECTID":589510},"geometry":{"x":167291.27000000048,"y":2543429.8900000025}},{"attributes":{"ID":589538,"DIS_CODE":0,"TOWNNAME":"中西區","LI":"郡西里","LIN":"11鄰","STREET":"大智街","SECT":" ","MAREA":" ","LANE":" ","ALLEY":" ","HOUSE_NO":"８１號","E_COORD97":167290.66,"N_COORD97":2543426.8399999999,"ADDRESS":"大智街８１號","OBJECTID":589511},"geometry":{"x":167290.66000000108,"y":2543426.8399999999}},{"attributes":{"ID":589539,"DIS_CODE":0,"TOWNNAME":"中西區","LI":"郡西里","LIN":"11鄰","STREET":"大智街","SECT":" ","MAREA":" ","LANE":" ","ALLEY":" ","HOUSE_NO":"８３號","E_COORD97":167289.81,"N_COORD97":2543422.9399999999,"ADDRESS":"大智街８３號","OBJECTID":589512},"geometry":{"x":167289.80999999959,"y":2543422.9399999995}},{"attributes":{"ID":589540,"DIS_CODE":0,"TOWNNAME":"中西區","LI":"郡西里","LIN":"11鄰","STREET":"大智街","SECT":" ","MAREA":" ","LANE":" ","ALLEY":" ","HOUSE_NO":"８５號","E_COORD97":167288.95999999999,"N_COORD97":2543419.52,"ADDRESS":"大智街８５號","OBJECTID":589513},"geometry":{"x":167288.95999999996,"y":2543419.5199999996}},{"attributes":{"ID":589541,"DIS_CODE":0,"TOWNNAME":"中西區","LI":"郡西里","LIN":"11鄰","STREET":"大智街","SECT":" ","MAREA":" ","LANE":" ","ALLEY":" ","HOUSE_NO":"８７號","E_COORD97":167288.22,"N_COORD97":2543415.8599999999,"ADDRESS":"大智街８７號","OBJECTID":589514},"geometry":{"x":167288.22000000067,"y":2543415.8600000013}},{"attributes":{"ID":589542,"DIS_CODE":0,"TOWNNAME":"中西區","LI":"郡西里","LIN":"11鄰","STREET":"大智街","SECT":" ","MAREA":" ","LANE":" ","ALLEY":" ","HOUSE_NO":"８９號","E_COORD97":167287.48999999999,"N_COORD97":2543412.4500000002,"ADDRESS":"大智街８９號","OBJECTID":589515},"geometry":{"x":167287.49000000022,"y":2543412.4499999993}},{"attributes":{"ID":589543,"DIS_CODE":0,"TOWNNAME":"中西區","LI":"郡西里","LIN":"11鄰","STREET":"大仁街","SECT":" ","MAREA":" ","LANE":" ","ALLEY":" ","HOUSE_NO":"８７號","E_COORD97":167316.67000000001,"N_COORD97":2543442.5800000001,"ADDRESS":"大仁街８７號","OBJECTID":589516},"geometry":{"x":167316.66999999993,"y":2543442.5800000001}},{"attributes":{"ID":589544,"DIS_CODE":0,"TOWNNAME":"中西區","LI":"郡西里","LIN":"11鄰","STREET":"大仁街","SECT":" ","MAREA":" ","LANE":" ","ALLEY":" ","HOUSE_NO":"８９號","E_COORD97":167312.64000000001,"N_COORD97":2543443.4300000002,"ADDRESS":"大仁街８９號","OBJECTID":589517},"geometry":{"x":167312.6400000006,"y":2543443.4299999997}},{"attributes":{"ID":589545,"DIS_CODE":0,"TOWNNAME":"中西區","LI":"郡西里","LIN":"11鄰","STREET":"大仁街","SECT":" ","MAREA":" ","LANE":" ","ALLEY":" ","HOUSE_NO":"９１號","E_COORD97":167309.34,"N_COORD97":2543445.02,"ADDRESS":"大仁街９１號","OBJECTID":589518},"geometry":{"x":167309.34000000078,"y":2543445.0200000014}},{"attributes":{"ID":589546,"DIS_CODE":0,"TOWNNAME":"中西區","LI":"郡西里","LIN":"11鄰","STREET":"大仁街","SECT":" ","MAREA":" ","LANE":" ","ALLEY":" ","HOUSE_NO":"９３號","E_COORD97":167304.82999999999,"N_COORD97":2543445.8700000001,"ADDRESS":"大仁街９３號","OBJECTID":589519},"geometry":{"x":167304.83000000101,"y":2543445.870000001}},{"attributes":{"ID":589547,"DIS_CODE":0,"TOWNNAME":"中西區","LI":"郡西里","LIN":"11鄰","STREET":"大仁街","SECT":" ","MAREA":" ","LANE":" ","ALLEY":" ","HOUSE_NO":"９５號","E_COORD97":167300.79999999999,"N_COORD97":2543446.73,"ADDRESS":"大仁街９５號","OBJECTID":589520},"geometry":{"x":167300.80000000168,"y":2543446.7300000042}},{"attributes":{"ID":589548,"DIS_CODE":0,"TOWNNAME":"中西區","LI":"郡西里","LIN":"11鄰","STREET":"大智街","SECT":" ","MAREA":" ","LANE":" ","ALLEY":" ","HOUSE_NO":"７１號","E_COORD97":167292.98000000001,"N_COORD97":2543445.75,"ADDRESS":"大智街７１號","OBJECTID":589521},"geometry":{"x":167292.98000000045,"y":2543445.75}},{"attributes":{"ID":589549,"DIS_CODE":0,"TOWNNAME":"中西區","LI":"郡西里","LIN":"11鄰","STREET":"大智街","SECT":" ","MAREA":" ","LANE":" ","ALLEY":" ","HOUSE_NO":"７３號","E_COORD97":167292.37,"N_COORD97":2543442.5800000001,"ADDRESS":"大智街７３號","OBJECTID":589522},"geometry":{"x":167292.37000000104,"y":2543442.5800000001}},{"attributes":{"ID":589550,"DIS_CODE":0,"TOWNNAME":"永康區","LI":"永康里","LIN":"11鄰","STREET":"永平街","SECT":" ","MAREA":" ","LANE":" ","ALLEY":" ","HOUSE_NO":"５９號","E_COORD97":173682.75,"N_COORD97":2547101.0699999998,"ADDRESS":"永平街５９號","OBJECTID":589523},"geometry":{"x":173682.75000000093,"y":2547101.0700000003}},{"attributes":{"ID":589551,"DIS_CODE":0,"TOWNNAME":"永康區","LI":"永康里","LIN":"11鄰","STREET":"永二街","SECT":" ","MAREA":" ","LANE":" ","ALLEY":" ","HOUSE_NO":"２８號","E_COORD97":173764.35999999999,"N_COORD97":2547094.6600000001,"ADDRESS":"永二街２８號","OBJECTID":589524},"geometry":{"x":173764.36000000034,"y":2547094.6600000001}},{"attributes":{"ID":589552,"DIS_CODE":0,"TOWNNAME":"安南區","LI":"\u25A0南里","LIN":"11鄰","STREET":"環福街","SECT":" ","MAREA":" ","LANE":" ","ALLEY":" ","HOUSE_NO":"１９９號","E_COORD97":170274.62,"N_COORD97":2552637.0499999998,"ADDRESS":"環福街１９９號","OBJECTID":589525},"geometry":{"x":170274.62000000104,"y":2552637.0500000026}},{"attributes":{"ID":589553,"DIS_CODE":0,"TOWNNAME":"安南區","LI":"溪心里","LIN":"11鄰","STREET":"仁安八街","SECT":" ","MAREA":" ","LANE":" ","ALLEY":" ","HOUSE_NO":"４５號","E_COORD97":166285.76999999999,"N_COORD97":2549960.9399999999,"ADDRESS":"仁安八街４５號","OBJECTID":589526},"geometry":{"x":166285.77000000048,"y":2549960.9400000013}},{"attributes":{"ID":589554,"DIS_CODE":0,"TOWNNAME":"安南區","LI":"溪心里","LIN":"11鄰","STREET":"仁安八街","SECT":" ","MAREA":" ","LANE":" ","ALLEY":" ","HOUSE_NO":"６２號","E_COORD97":166316.51000000001,"N_COORD97":2549954.0699999998,"ADDRESS":"仁安八街６２號","OBJECTID":589527},"geometry":{"x":166316.51000000071,"y":2549954.070000004}},{"attributes":{"ID":589555,"DIS_CODE":0,"TOWNNAME":"南區","LI":"再興里","LIN":"11鄰","STREET":"仁慈街","SECT":" ","MAREA":" ","LANE":" ","ALLEY":" ","HOUSE_NO":"６８號","E_COORD97":167257.76999999999,"N_COORD97":2542148.8599999999,"ADDRESS":"仁慈街６８號","OBJECTID":589528},"geometry":{"x":167257.76999999955,"y":2542148.8599999994}},{"attributes":{"ID":589556,"DIS_CODE":0,"TOWNNAME":"南區","LI":"再興里","LIN":"11鄰","STREET":"仁慈街","SECT":" ","MAREA":" ","LANE":" ","ALLEY":" ","HOUSE_NO":"６９號","E_COORD97":167154.57000000001,"N_COORD97":2542124.5899999999,"ADDRESS":"仁慈街６９號","OBJECTID":589529},"geometry":{"x":167154.5700000003,"y":2542124.5899999999}},{"attributes":{"ID":589557,"DIS_CODE":0,"TOWNNAME":"南區","LI":"再興里","LIN":"11鄰","STREET":"仁慈街","SECT":" ","MAREA":" ","LANE":" ","ALLEY":" ","HOUSE_NO":"７１號","E_COORD97":167148.5,"N_COORD97":2542127.1000000001,"ADDRESS":"仁慈街７１號","OBJECTID":589530},"geometry":{"x":167148.5,"y":2542127.0999999996}},{"attributes":{"ID":589558,"DIS_CODE":0,"TOWNNAME":"南區","LI":"再興里","LIN":"11鄰","STREET":"仁慈街","SECT":" ","MAREA":" ","LANE":" ","ALLEY":" ","HOUSE_NO":"７３號","E_COORD97":167151.22,"N_COORD97":2542133.2799999998,"ADDRESS":"仁慈街７３號","OBJECTID":589531},"geometry":{"x":167151.21999999974,"y":2542133.2800000031}},{"attributes":{"ID":589559,"DIS_CODE":0,"TOWNNAME":"南區","LI":"再興里","LIN":"11鄰","STREET":"仁慈街","SECT":" ","MAREA":" ","LANE":" ","ALLEY":" ","HOUSE_NO":"７５號","E_COORD97":167160.13,"N_COORD97":2542133.1699999999,"ADDRESS":"仁慈街７５號","OBJECTID":589532},"geometry":{"x":167160.13000000082,"y":2542133.1699999999}},{"attributes":{"ID":589560,"DIS_CODE":0,"TOWNNAME":"南區","LI":"再興里","LIN":"11鄰","STREET":"仁慈街","SECT":" ","MAREA":" ","LANE":" ","ALLEY":" ","HOUSE_NO":"７８號","E_COORD97":167229.84,"N_COORD97":2542151.0299999998,"ADDRESS":"仁慈街７８號","OBJECTID":589533},"geometry":{"x":167229.84000000078,"y":2542151.0299999993}},{"attributes":{"ID":589561,"DIS_CODE":0,"TOWNNAME":"南區","LI":"再興里","LIN":"11鄰","STREET":"仁慈街","SECT":" ","MAREA":" ","LANE":" ","ALLEY":" ","HOUSE_NO":"８０號","E_COORD97":167226.44,"N_COORD97":2542151.2599999998,"ADDRESS":"仁慈街８０號","OBJECTID":589534},"geometry":{"x":167226.44000000134,"y":2542151.2600000016}},{"attributes":{"ID":589562,"DIS_CODE":0,"TOWNNAME":"東區","LI":"南聖里","LIN":"11鄰","STREET":"裕農路","SECT":" ","MAREA":" ","LANE":" ","ALLEY":" ","HOUSE_NO":"８０８號","E_COORD97":172072.63,"N_COORD97":2543264.6800000002,"ADDRESS":"裕農路８０８號","OBJECTID":589535},"geometry":{"x":172072.63000000082,"y":2543264.6800000016}},{"attributes":{"ID":589563,"DIS_CODE":0,"TOWNNAME":"仁德區","LI":"新田里","LIN":"11鄰","STREET":"北保一街","SECT":" ","MAREA":" ","LANE":" ","ALLEY":" ","HOUSE_NO":"１２０號","E_COORD97":173128.10999999999,"N_COORD97":2539610.75,"ADDRESS":"北保一街１２０號","OBJECTID":589536},"geometry":{"x":173128.11000000127,"y":2539610.75}},{"attributes":{"ID":589564,"DIS_CODE":0,"TOWNNAME":"永康區","LI":"埔園里","LIN":"11鄰","STREET":"中山路","SECT":" ","MAREA":" ","LANE":" ","ALLEY":" ","HOUSE_NO":"１６５號","E_COORD97":173702,"N_COORD97":2547981,"ADDRESS":"中山路１６５號","OBJECTID":589537},"geometry":{"x":173702,"y":2547981.0000000037}},{"attributes":{"ID":589565,"DIS_CODE":0,"TOWNNAME":"南區","LI":"明興里","LIN":"11鄰","STREET":"德興路","SECT":" ","MAREA":" ","LANE":" ","ALLEY":" ","HOUSE_NO":"８８號","E_COORD97":167179.87,"N_COORD97":2540645.7400000002,"ADDRESS":"德興路８８號","OBJECTID":589538},"geometry":{"x":167179.87000000011,"y":2540645.7400000002}},{"attributes":{"ID":589566,"DIS_CODE":0,"TOWNNAME":"南區","LI":"明興里","LIN":"11鄰","STREET":"德興路","SECT":" ","MAREA":" ","LANE":" ","ALLEY":" ","HOUSE_NO":"９０號","E_COORD97":167185.01000000001,"N_COORD97":2540600.0800000001,"ADDRESS":"德興路９０號","OBJECTID":589539},"geometry":{"x":167185.00999999978,"y":2540600.0800000019}},{"attributes":{"ID":589567,"DIS_CODE":0,"TOWNNAME":"東區","LI":"和平里","LIN":"11鄰","STREET":"仁和路","SECT":" ","MAREA":" ","LANE":" ","ALLEY":" ","HOUSE_NO":"９９號之７","E_COORD97":171355.26000000001,"N_COORD97":2541366.4199999999,"ADDRESS":"仁和路９９號之７","OBJECTID":589540},"geometry":{"x":171355.25999999978,"y":2541366.4199999981}},{"attributes":{"ID":589568,"DIS_CODE":0,"TOWNNAME":"東區","LI":"莊敬里","LIN":"11鄰","STREET":"莊敬路","SECT":" ","MAREA":" ","LANE":" ","ALLEY":" ","HOUSE_NO":"１８０號","E_COORD97":171397.41,"N_COORD97":2544182.3300000001,"ADDRESS":"莊敬路１８０號","OBJECTID":589541},"geometry":{"x":171397.41000000015,"y":2544182.3300000019}},{"attributes":{"ID":589569,"DIS_CODE":0,"TOWNNAME":"東區","LI":"復興里","LIN":"11鄰","STREET":"裕忠三街","SECT":" ","MAREA":" ","LANE":" ","ALLEY":" ","HOUSE_NO":"３６號","E_COORD97":172157.98000000001,"N_COORD97":2542223.4500000002,"ADDRESS":"裕忠三街３６號","OBJECTID":589542},"geometry":{"x":172157.98000000045,"y":2542223.450000003}},{"attributes":{"ID":589570,"DIS_CODE":0,"TOWNNAME":"中西區","LI":"小西里","LIN":"11鄰","STREET":"府前路","SECT":"一段","MAREA":" ","LANE":" ","ALLEY":" ","HOUSE_NO":"３９５號","E_COORD97":167847.04000000001,"N_COORD97":2543380.3300000001,"ADDRESS":"府前路一段３９５號","OBJECTID":589543},"geometry":{"x":167847.0400000019,"y":2543380.3300000001}},{"attributes":{"ID":589571,"DIS_CODE":0,"TOWNNAME":"中西區","LI":"小西里","LIN":"11鄰","STREET":"府前路","SECT":"一段","MAREA":" ","LANE":" ","ALLEY":" ","HOUSE_NO":"３９７號","E_COORD97":167832.70000000001,"N_COORD97":2543385.8999999999,"ADDRESS":"府前路一段３９７號","OBJECTID":589544},"geometry":{"x":167832.70000000112,"y":2543385.9000000022}},{"attributes":{"ID":589572,"DIS_CODE":0,"TOWNNAME":"中西區","LI":"小西里","LIN":"11鄰","STREET":"府前路","SECT":"一段","MAREA":" ","LANE":" ","ALLEY":" ","HOUSE_NO":"３９９號","E_COORD97":167832.45000000001,"N_COORD97":2543390.29,"ADDRESS":"府前路一段３９９號","OBJECTID":589545},"geometry":{"x":167832.45000000205,"y":2543390.2899999991}},{"attributes":{"ID":589573,"DIS_CODE":0,"TOWNNAME":"中西區","LI":"小西里","LIN":"11鄰","STREET":"府前路","SECT":"一段","MAREA":" ","LANE":" ","ALLEY":" ","HOUSE_NO":"４０１號","E_COORD97":167832.32999999999,"N_COORD97":2543393.5899999999,"ADDRESS":"府前路一段４０１號","OBJECTID":589546},"geometry":{"x":167832.33000000007,"y":2543393.5900000017}},{"attributes":{"ID":589574,"DIS_CODE":0,"TOWNNAME":"中西區","LI":"小西里","LIN":"11鄰","STREET":"府前路","SECT":"一段","MAREA":" ","LANE":" ","ALLEY":" ","HOUSE_NO":"４０３號","E_COORD97":167838.19,"N_COORD97":2543407.1099999999,"ADDRESS":"府前路一段４０３號","OBJECTID":589547},"geometry":{"x":167838.19000000134,"y":2543407.1100000013}},{"attributes":{"ID":589575,"DIS_CODE":0,"TOWNNAME":"中西區","LI":"小西里","LIN":"11鄰","STREET":"府前路","SECT":"一段","MAREA":" ","LANE":" ","ALLEY":" ","HOUSE_NO":"４０５號","E_COORD97":167834.64000000001,"N_COORD97":2543407.7400000002,"ADDRESS":"府前路一段４０５號","OBJECTID":589548},"geometry":{"x":167834.6400000006,"y":2543407.7400000002}},{"attributes":{"ID":589576,"DIS_CODE":0,"TOWNNAME":"中西區","LI":"小西里","LIN":"11鄰","STREET":"府前路","SECT":"一段","MAREA":" ","LANE":" ","ALLEY":" ","HOUSE_NO":"４０７號","E_COORD97":167829.56,"N_COORD97":2543406.9100000001,"ADDRESS":"府前路一段４０７號","OBJECTID":589549},"geometry":{"x":167829.56000000052,"y":2543406.9100000001}},{"attributes":{"ID":589577,"DIS_CODE":0,"TOWNNAME":"中西區","LI":"小西里","LIN":"11鄰","STREET":"府前路","SECT":"一段","MAREA":" ","LANE":" ","ALLEY":" ","HOUSE_NO":"４０９號","E_COORD97":167826.22,"N_COORD97":2543408.3700000001,"ADDRESS":"府前路一段４０９號","OBJECTID":589550},"geometry":{"x":167826.21999999974,"y":2543408.370000001}},{"attributes":{"ID":589578,"DIS_CODE":0,"TOWNNAME":"中西區","LI":"仙草里","LIN":"11鄰","STREET":"府緯街","SECT":" ","MAREA":" ","LANE":" ","ALLEY":" ","HOUSE_NO":"１１號","E_COORD97":167929.87,"N_COORD97":2542713,"ADDRESS":"府緯街１１號","OBJECTID":589551},"geometry":{"x":167929.87000000104,"y":2542713.0000000019}},{"attributes":{"ID":589579,"DIS_CODE":0,"TOWNNAME":"中西區","LI":"仙草里","LIN":"11鄰","STREET":"府緯街","SECT":" ","MAREA":" ","LANE":" ","ALLEY":" ","HOUSE_NO":"１３號","E_COORD97":167926.10999999999,"N_COORD97":2542712.71,"ADDRESS":"府緯街１３號","OBJECTID":589552},"geometry":{"x":167926.11000000034,"y":2542712.7100000028}},{"attributes":{"ID":589580,"DIS_CODE":0,"TOWNNAME":"中西區","LI":"仙草里","LIN":"11鄰","STREET":"府緯街","SECT":" ","MAREA":" ","LANE":" ","ALLEY":" ","HOUSE_NO":"１５號","E_COORD97":167922.54000000001,"N_COORD97":2542712.5099999998,"ADDRESS":"府緯街１５號","OBJECTID":589553},"geometry":{"x":167922.54000000004,"y":2542712.5100000016}},{"attributes":{"ID":589581,"DIS_CODE":0,"TOWNNAME":"中西區","LI":"仙草里","LIN":"11鄰","STREET":"府緯街","SECT":" ","MAREA":" ","LANE":" ","ALLEY":" ","HOUSE_NO":"１７號","E_COORD97":167918.17999999999,"N_COORD97":2542712.71,"ADDRESS":"府緯街１７號","OBJECTID":589554},"geometry":{"x":167918.1799999997,"y":2542712.7100000028}},{"attributes":{"ID":589582,"DIS_CODE":0,"TOWNNAME":"中西區","LI":"仙草里","LIN":"11鄰","STREET":"府緯街","SECT":" ","MAREA":" ","LANE":" ","ALLEY":" ","HOUSE_NO":"１９號","E_COORD97":167909.45999999999,"N_COORD97":2542713.1000000001,"ADDRESS":"府緯街１９號","OBJECTID":589555},"geometry":{"x":167909.45999999996,"y":2542713.0999999996}},{"attributes":{"ID":589583,"DIS_CODE":0,"TOWNNAME":"中西區","LI":"仙草里","LIN":"11鄰","STREET":"府緯街","SECT":" ","MAREA":" ","LANE":" ","ALLEY":" ","HOUSE_NO":"２１號","E_COORD97":167905.10000000001,"N_COORD97":2542712.9100000001,"ADDRESS":"府緯街２１號","OBJECTID":589556},"geometry":{"x":167905.09999999963,"y":2542712.9100000039}},{"attributes":{"ID":589584,"DIS_CODE":0,"TOWNNAME":"中西區","LI":"仙草里","LIN":"11鄰","STREET":"府緯街","SECT":" ","MAREA":" ","LANE":" ","ALLEY":" ","HOUSE_NO":"２３號","E_COORD97":167900.14999999999,"N_COORD97":2542712.71,"ADDRESS":"府緯街２３號","OBJECTID":589557},"geometry":{"x":167900.15000000037,"y":2542712.7100000028}},{"attributes":{"ID":589585,"DIS_CODE":0,"TOWNNAME":"中西區","LI":"仙草里","LIN":"11鄰","STREET":"府緯街","SECT":" ","MAREA":" ","LANE":" ","ALLEY":" ","HOUSE_NO":"２５號","E_COORD97":167888.07000000001,"N_COORD97":2542711.7200000002,"ADDRESS":"府緯街２５號","OBJECTID":589558},"geometry":{"x":167888.07000000123,"y":2542711.7200000025}},{"attributes":{"ID":589586,"DIS_CODE":0,"TOWNNAME":"中西區","LI":"仙草里","LIN":"11鄰","STREET":"府緯街","SECT":" ","MAREA":" ","LANE":" ","ALLEY":" ","HOUSE_NO":"２９號","E_COORD97":167878.75,"N_COORD97":2542712.1099999999,"ADDRESS":"府緯街２９號","OBJECTID":589559},"geometry":{"x":167878.75,"y":2542712.1100000013}},{"attributes":{"ID":589587,"DIS_CODE":0,"TOWNNAME":"中西區","LI":"仙草里","LIN":"11鄰","STREET":"府緯街","SECT":" ","MAREA":" ","LANE":" ","ALLEY":" ","HOUSE_NO":"３１號","E_COORD97":167873.79999999999,"N_COORD97":2542711.9199999999,"ADDRESS":"府緯街３１號","OBJECTID":589560},"geometry":{"x":167873.80000000168,"y":2542711.9199999999}},{"attributes":{"ID":589588,"DIS_CODE":0,"TOWNNAME":"永康區","LI":"烏竹里","LIN":"11鄰","STREET":"竹園二街","SECT":" ","MAREA":" ","LANE":" ","ALLEY":" ","HOUSE_NO":"１８６號","E_COORD97":174594.89999999999,"N_COORD97":2549288.7599999998,"ADDRESS":"竹園二街１８６號","OBJECTID":589561},"geometry":{"x":174594.90000000037,"y":2549288.7600000016}},{"attributes":{"ID":589589,"DIS_CODE":0,"TOWNNAME":"永康區","LI":"埔園里","LIN":"11鄰","STREET":"自強路","SECT":" ","MAREA":" ","LANE":" ","ALLEY":" ","HOUSE_NO":"３８５號","E_COORD97":173644.09,"N_COORD97":2547882.25,"ADDRESS":"自強路３８５號","OBJECTID":589562},"geometry":{"x":173644.09000000078,"y":2547882.2500000019}},{"attributes":{"ID":589590,"DIS_CODE":0,"TOWNNAME":"永康區","LI":"埔園里","LIN":"11鄰","STREET":"中山路","SECT":" ","MAREA":" ","LANE":" ","ALLEY":" ","HOUSE_NO":"１６３號","E_COORD97":173703.10000000001,"N_COORD97":2547976.75,"ADDRESS":"中山路１６３號","OBJECTID":589563},"geometry":{"x":173703.10000000056,"y":2547976.7500000019}},{"attributes":{"ID":589591,"DIS_CODE":0,"TOWNNAME":"永康區","LI":"南灣里","LIN":"11鄰","STREET":"大灣路","SECT":" ","MAREA":" ","LANE":" ","ALLEY":" ","HOUSE_NO":"５３４號","E_COORD97":174670.38,"N_COORD97":2544783.8199999998,"ADDRESS":"大灣路５３４號","OBJECTID":589564},"geometry":{"x":174670.37999999989,"y":2544783.8200000003}},{"attributes":{"ID":589592,"DIS_CODE":0,"TOWNNAME":"東區","LI":"關聖里","LIN":"11鄰","STREET":"裕農二街","SECT":" ","MAREA":" ","LANE":" ","ALLEY":" ","HOUSE_NO":"１３８號","E_COORD97":171962.32000000001,"N_COORD97":2542883.29,"ADDRESS":"裕農二街１３８號","OBJECTID":589565},"geometry":{"x":171962.3200000003,"y":2542883.290000001}},{"attributes":{"ID":589593,"DIS_CODE":0,"TOWNNAME":"東區","LI":"文聖里","LIN":"11鄰","STREET":"裕和二街","SECT":" ","MAREA":" ","LANE":" ","ALLEY":" ","HOUSE_NO":"１１０號","E_COORD97":172188.04000000001,"N_COORD97":2542792.0800000001,"ADDRESS":"裕和二街１１０號","OBJECTID":589566},"geometry":{"x":172188.04000000004,"y":2542792.0800000001}},{"attributes":{"ID":589594,"DIS_CODE":0,"TOWNNAME":"東區","LI":"文聖里","LIN":"11鄰","STREET":"裕和二街","SECT":" ","MAREA":" ","LANE":" ","ALLEY":" ","HOUSE_NO":"１１２號","E_COORD97":172182.19,"N_COORD97":2542792.8599999999,"ADDRESS":"裕和二街１１２號","OBJECTID":589567},"geometry":{"x":172182.19000000041,"y":2542792.8599999994}},{"attributes":{"ID":589595,"DIS_CODE":0,"TOWNNAME":"東區","LI":"文聖里","LIN":"11鄰","STREET":"裕和二街","SECT":" ","MAREA":" ","LANE":" ","ALLEY":" ","HOUSE_NO":"１１６號","E_COORD97":172177.12,"N_COORD97":2542791.8900000001,"ADDRESS":"裕和二街１１６號","OBJECTID":589568},"geometry":{"x":172177.12000000011,"y":2542791.8900000025}},{"attributes":{"ID":589596,"DIS_CODE":0,"TOWNNAME":"東區","LI":"文聖里","LIN":"11鄰","STREET":"裕和二街","SECT":" ","MAREA":" ","LANE":" ","ALLEY":" ","HOUSE_NO":"１１８號","E_COORD97":172171.85999999999,"N_COORD97":2542793.25,"ADDRESS":"裕和二街１１８號","OBJECTID":589569},"geometry":{"x":172171.86000000127,"y":2542793.2500000019}},{"attributes":{"ID":589597,"DIS_CODE":0,"TOWNNAME":"東區","LI":"文聖里","LIN":"11鄰","STREET":"裕和二街","SECT":" ","MAREA":" ","LANE":" ","ALLEY":" ","HOUSE_NO":"１２０號","E_COORD97":172165.82000000001,"N_COORD97":2542791.6899999999,"ADDRESS":"裕和二街１２０號","OBJECTID":589570},"geometry":{"x":172165.8200000003,"y":2542791.6900000032}},{"attributes":{"ID":589598,"DIS_CODE":0,"TOWNNAME":"東區","LI":"文聖里","LIN":"11鄰","STREET":"裕和二街","SECT":" ","MAREA":" ","LANE":" ","ALLEY":" ","HOUSE_NO":"１２２號","E_COORD97":172159.98000000001,"N_COORD97":2542793.6400000001,"ADDRESS":"裕和二街１２２號","OBJECTID":589571},"geometry":{"x":172159.98000000045,"y":2542793.6400000025}},{"attributes":{"ID":589599,"DIS_CODE":0,"TOWNNAME":"東區","LI":"文聖里","LIN":"11鄰","STREET":"裕和二街","SECT":" ","MAREA":" ","LANE":" ","ALLEY":" ","HOUSE_NO":"１２６號","E_COORD97":172153.94,"N_COORD97":2542792.0800000001,"ADDRESS":"裕和二街１２６號","OBJECTID":589572},"geometry":{"x":172153.94000000134,"y":2542792.0800000001}},{"attributes":{"ID":589600,"DIS_CODE":0,"TOWNNAME":"東區","LI":"文聖里","LIN":"11鄰","STREET":"裕和二街","SECT":" ","MAREA":" ","LANE":" ","ALLEY":" ","HOUSE_NO":"１２８號","E_COORD97":172148.28,"N_COORD97":2542793.6400000001,"ADDRESS":"裕和二街１２８號","OBJECTID":589573},"geometry":{"x":172148.28000000119,"y":2542793.6400000025}},{"attributes":{"ID":589601,"DIS_CODE":0,"TOWNNAME":"東區","LI":"文聖里","LIN":"11鄰","STREET":"裕和二街","SECT":" ","MAREA":" ","LANE":" ","ALLEY":" ","HOUSE_NO":"１３０號","E_COORD97":172141.66,"N_COORD97":2542792.4700000002,"ADDRESS":"裕和二街１３０號","OBJECTID":589574},"geometry":{"x":172141.66000000015,"y":2542792.4700000025}},{"attributes":{"ID":589602,"DIS_CODE":0,"TOWNNAME":"東區","LI":"文聖里","LIN":"11鄰","STREET":"裕和二街","SECT":" ","MAREA":" ","LANE":" ","ALLEY":" ","HOUSE_NO":"１３２號","E_COORD97":172134.45000000001,"N_COORD97":2542794.0299999998,"ADDRESS":"裕和二街１３２號","OBJECTID":589575},"geometry":{"x":172134.45000000019,"y":2542794.0300000012}},{"attributes":{"ID":589603,"DIS_CODE":0,"TOWNNAME":"東區","LI":"文聖里","LIN":"11鄰","STREET":"裕和二街","SECT":" ","MAREA":" ","LANE":" ","ALLEY":" ","HOUSE_NO":"１３６號","E_COORD97":172128.60000000001,"N_COORD97":2542792.8599999999,"ADDRESS":"裕和二街１３６號","OBJECTID":589576},"geometry":{"x":172128.60000000056,"y":2542792.8599999994}},{"attributes":{"ID":589604,"DIS_CODE":0,"TOWNNAME":"東區","LI":"文聖里","LIN":"11鄰","STREET":"裕和二街","SECT":" ","MAREA":" ","LANE":" ","ALLEY":" ","HOUSE_NO":"１３８號","E_COORD97":172122.76000000001,"N_COORD97":2542794.0299999998,"ADDRESS":"裕和二街１３８號","OBJECTID":589577},"geometry":{"x":172122.76000000071,"y":2542794.0300000012}},{"attributes":{"ID":589605,"DIS_CODE":0,"TOWNNAME":"東區","LI":"文聖里","LIN":"11鄰","STREET":"裕和二街","SECT":" ","MAREA":" ","LANE":" ","ALLEY":" ","HOUSE_NO":"１４０號","E_COORD97":172122.76000000001,"N_COORD97":2542775.1299999999,"ADDRESS":"裕和二街１４０號","OBJECTID":589578},"geometry":{"x":172122.76000000071,"y":2542775.1300000008}},{"attributes":{"ID":589606,"DIS_CODE":0,"TOWNNAME":"東區","LI":"文聖里","LIN":"11鄰","STREET":"裕和二街","SECT":" ","MAREA":" ","LANE":" ","ALLEY":" ","HOUSE_NO":"１４２號","E_COORD97":172128.01999999999,"N_COORD97":2542775.52,"ADDRESS":"裕和二街１４２號","OBJECTID":589579},"geometry":{"x":172128.01999999955,"y":2542775.5199999996}},{"attributes":{"ID":589607,"DIS_CODE":0,"TOWNNAME":"東區","LI":"文聖里","LIN":"11鄰","STREET":"裕和二街","SECT":" ","MAREA":" ","LANE":" ","ALLEY":" ","HOUSE_NO":"１４６號","E_COORD97":172133.07999999999,"N_COORD97":2542774.7400000002,"ADDRESS":"裕和二街１４６號","OBJECTID":589580},"geometry":{"x":172133.08000000007,"y":2542774.7400000002}},{"attributes":{"ID":589608,"DIS_CODE":0,"TOWNNAME":"東區","LI":"文聖里","LIN":"11鄰","STREET":"裕和二街","SECT":" ","MAREA":" ","LANE":" ","ALLEY":" ","HOUSE_NO":"１４８號","E_COORD97":172138.73999999999,"N_COORD97":2542775.7200000002,"ADDRESS":"裕和二街１４８號","OBJECTID":589581},"geometry":{"x":172138.74000000115,"y":2542775.7200000044}},{"attributes":{"ID":589609,"DIS_CODE":0,"TOWNNAME":"東區","LI":"文聖里","LIN":"11鄰","STREET":"裕和二街","SECT":" ","MAREA":" ","LANE":" ","ALLEY":" ","HOUSE_NO":"１５０號","E_COORD97":172148.09,"N_COORD97":2542775.1299999999,"ADDRESS":"裕和二街１５０號","OBJECTID":589582},"geometry":{"x":172148.08999999985,"y":2542775.1300000008}},{"attributes":{"ID":589610,"DIS_CODE":0,"TOWNNAME":"東區","LI":"文聖里","LIN":"11鄰","STREET":"裕和二街","SECT":" ","MAREA":" ","LANE":" ","ALLEY":" ","HOUSE_NO":"１５２號","E_COORD97":172153.94,"N_COORD97":2542775.1299999999,"ADDRESS":"裕和二街１５２號","OBJECTID":589583},"geometry":{"x":172153.94000000134,"y":2542775.1300000008}},{"attributes":{"ID":589611,"DIS_CODE":0,"TOWNNAME":"東區","LI":"文聖里","LIN":"11鄰","STREET":"裕和二街","SECT":" ","MAREA":" ","LANE":" ","ALLEY":" ","HOUSE_NO":"１５６號","E_COORD97":172159.39000000001,"N_COORD97":2542775.3300000001,"ADDRESS":"裕和二街１５６號","OBJECTID":589584},"geometry":{"x":172159.38999999966,"y":2542775.3300000019}},{"attributes":{"ID":589612,"DIS_CODE":0,"TOWNNAME":"東區","LI":"文聖里","LIN":"11鄰","STREET":"裕和二街","SECT":" ","MAREA":" ","LANE":" ","ALLEY":" ","HOUSE_NO":"１５８號","E_COORD97":172165.82000000001,"N_COORD97":2542775.9100000001,"ADDRESS":"裕和二街１５８號","OBJECTID":589585},"geometry":{"x":172165.8200000003,"y":2542775.9100000001}},{"attributes":{"ID":589613,"DIS_CODE":0,"TOWNNAME":"東區","LI":"文聖里","LIN":"11鄰","STREET":"裕和二街","SECT":" ","MAREA":" ","LANE":" ","ALLEY":" ","HOUSE_NO":"１６０號","E_COORD97":172170.89000000001,"N_COORD97":2542776.1000000001,"ADDRESS":"裕和二街１６０號","OBJECTID":589586},"geometry":{"x":172170.8900000006,"y":2542776.1000000015}},{"attributes":{"ID":589614,"DIS_CODE":0,"TOWNNAME":"東區","LI":"文聖里","LIN":"11鄰","STREET":"裕和二街","SECT":" ","MAREA":" ","LANE":" ","ALLEY":" ","HOUSE_NO":"１６２號","E_COORD97":172176.73000000001,"N_COORD97":2542776.1000000001,"ADDRESS":"裕和二街１６２號","OBJECTID":589587},"geometry":{"x":172176.73000000045,"y":2542776.1000000015}},{"attributes":{"ID":589615,"DIS_CODE":0,"TOWNNAME":"東區","LI":"文聖里","LIN":"11鄰","STREET":"裕和二街","SECT":" ","MAREA":" ","LANE":" ","ALLEY":" ","HOUSE_NO":"１６６號","E_COORD97":172181.79999999999,"N_COORD97":2542775.7200000002,"ADDRESS":"裕和二街１６６號","OBJECTID":589588},"geometry":{"x":172181.80000000075,"y":2542775.7200000044}},{"attributes":{"ID":589616,"DIS_CODE":0,"TOWNNAME":"東區","LI":"文聖里","LIN":"11鄰","STREET":"裕和二街","SECT":" ","MAREA":" ","LANE":" ","ALLEY":" ","HOUSE_NO":"１６８號","E_COORD97":172188.42999999999,"N_COORD97":2542775.7200000002,"ADDRESS":"裕和二街１６８號","OBJECTID":589589},"geometry":{"x":172188.4299999997,"y":2542775.7200000044}},{"attributes":{"ID":589617,"DIS_CODE":0,"TOWNNAME":"東區","LI":"文聖里","LIN":"11鄰","STREET":"裕和二街","SECT":" ","MAREA":" ","LANE":" ","ALLEY":" ","HOUSE_NO":"１８８號","E_COORD97":172156.06,"N_COORD97":2542747.3599999999,"ADDRESS":"裕和二街１８８號","OBJECTID":589590},"geometry":{"x":172156.06000000052,"y":2542747.3600000013}},{"attributes":{"ID":589618,"DIS_CODE":0,"TOWNNAME":"善化區","LI":"南關里","LIN":"11鄰","STREET":"復興街","SECT":" ","MAREA":" ","LANE":" ","ALLEY":" ","HOUSE_NO":"４１之４號","E_COORD97":177038.62,"N_COORD97":2559039.27,"ADDRESS":"復興街４１之４號","OBJECTID":589591},"geometry":{"x":177038.62000000011,"y":2559039.2700000014}},{"attributes":{"ID":589619,"DIS_CODE":0,"TOWNNAME":"仁德區","LI":"上崙里","LIN":"11鄰","STREET":"德崙路","SECT":" ","MAREA":" ","LANE":" ","ALLEY":" ","HOUSE_NO":"３６１號","E_COORD97":174061.94,"N_COORD97":2538116.5099999998,"ADDRESS":"德崙路３６１號","OBJECTID":589592},"geometry":{"x":174061.94000000041,"y":2538116.5099999998}},{"attributes":{"ID":589620,"DIS_CODE":0,"TOWNNAME":"仁德區","LI":"土庫里","LIN":"11鄰","STREET":"土庫路","SECT":" ","MAREA":" ","LANE":" ","ALLEY":" ","HOUSE_NO":"１０５號","E_COORD97":174303.17999999999,"N_COORD97":2543170.4900000002,"ADDRESS":"土庫路１０５號","OBJECTID":589593},"geometry":{"x":174303.18000000063,"y":2543170.4900000021}},{"attributes":{"ID":589621,"DIS_CODE":0,"TOWNNAME":"南區","LI":"彰南里","LIN":"11鄰","STREET":"中華西路","SECT":"一段","MAREA":" ","LANE":" ","ALLEY":" ","HOUSE_NO":"９７號","E_COORD97":166366.45000000001,"N_COORD97":2542174.4100000001,"ADDRESS":"中華西路一段９７號","OBJECTID":589594},"geometry":{"x":166366.45000000112,"y":2542174.410000002}},{"attributes":{"ID":589622,"DIS_CODE":0,"TOWNNAME":"南區","LI":"彰南里","LIN":"11鄰","STREET":"中華西路","SECT":"一段","MAREA":" ","LANE":" ","ALLEY":" ","HOUSE_NO":"９９號","E_COORD97":166370.64000000001,"N_COORD97":2542194.1600000001,"ADDRESS":"中華西路一段９９號","OBJECTID":589595},"geometry":{"x":166370.63999999966,"y":2542194.160000002}},{"attributes":{"ID":589623,"DIS_CODE":0,"TOWNNAME":"西港區","LI":"慶安里","LIN":"11鄰","STREET":"進學街","SECT":" ","MAREA":" ","LANE":" ","ALLEY":" ","HOUSE_NO":"１４號","E_COORD97":168288.98999999999,"N_COORD97":2558079.1800000002,"ADDRESS":"進學街１４號","OBJECTID":589596},"geometry":{"x":168288.99000000115,"y":2558079.1800000034}},{"attributes":{"ID":589624,"DIS_CODE":0,"TOWNNAME":"永康區","LI":"西勢里","LIN":"11鄰","STREET":"廣興街","SECT":" ","MAREA":" ","LANE":" ","ALLEY":" ","HOUSE_NO":"６１號","E_COORD97":175899.89999999999,"N_COORD97":2546587.2799999998,"ADDRESS":"廣興街６１號","OBJECTID":589597},"geometry":{"x":175899.90000000037,"y":2546587.2799999993}},{"attributes":{"ID":589625,"DIS_CODE":0,"TOWNNAME":"永康區","LI":"西橋里","LIN":"11鄰","STREET":"大橋一街","SECT":" ","MAREA":" ","LANE":" ","ALLEY":" ","HOUSE_NO":"３號","E_COORD97":170566.92000000001,"N_COORD97":2546146.4900000002,"ADDRESS":"大橋一街３號","OBJECTID":589598},"geometry":{"x":170566.92000000086,"y":2546146.4900000002}},{"attributes":{"ID":589626,"DIS_CODE":0,"TOWNNAME":"安南區","LI":"安西里","LIN":"11鄰","STREET":"長溪路","SECT":"一段","MAREA":" ","LANE":" ","ALLEY":" ","HOUSE_NO":"１１號","E_COORD97":169237.39999999999,"N_COORD97":2548227.3199999998,"ADDRESS":"長溪路一段１１號","OBJECTID":589599},"geometry":{"x":169237.4000000013,"y":2548227.3200000022}},{"attributes":{"ID":589627,"DIS_CODE":0,"TOWNNAME":"安南區","LI":"安西里","LIN":"11鄰","STREET":"長溪路","SECT":"一段","MAREA":" ","LANE":" ","ALLEY":" ","HOUSE_NO":"９號","E_COORD97":169239.82000000001,"N_COORD97":2548224.4500000002,"ADDRESS":"長溪路一段９號","OBJECTID":589600},"geometry":{"x":169239.8200000003,"y":2548224.450000003}}]}