{"displayFieldName":"TOWNNAME","fieldAliases":{"ID":"ID","DIS_CODE":"DIS_CODE","TOWNNAME":"TOWNNAME","LI":"LI","LIN":"LIN","STREET":"STREET","SECT":"SECT","MAREA":"MAREA","LANE":"LANE","ALLEY":"ALLEY","HOUSE_NO":"HOUSE_NO","E_COORD97":"E_COORD97","N_COORD97":"N_COORD97","ADDRESS":"ADDRESS","OBJECTID":"OBJECTID"},"geometryType":"esriGeometryPoint","spatialReference":{"wkid":102443,"latestWkid":3826},"fields":[{"name":"ID","type":"esriFieldTypeDouble","alias":"ID"},{"name":"DIS_CODE","type":"esriFieldTypeInteger","alias":"DIS_CODE"},{"name":"TOWNNAME","type":"esriFieldTypeString","alias":"TOWNNAME","length":8},{"name":"LI","type":"esriFieldTypeString","alias":"LI","length":8},{"name":"LIN","type":"esriFieldTypeString","alias":"LIN","length":12},{"name":"STREET","type":"esriFieldTypeString","alias":"STREET","length":20},{"name":"SECT","type":"esriFieldTypeString","alias":"SECT","length":8},{"name":"MAREA","type":"esriFieldTypeString","alias":"MAREA","length":12},{"name":"LANE","type":"esriFieldTypeString","alias":"LANE","length":10},{"name":"ALLEY","type":"esriFieldTypeString","alias":"ALLEY","length":10},{"name":"HOUSE_NO","type":"esriFieldTypeString","alias":"HOUSE_NO","length":20},{"name":"E_COORD97","type":"esriFieldTypeDouble","alias":"E_COORD97"},{"name":"N_COORD97","type":"esriFieldTypeDouble","alias":"N_COORD97"},{"name":"ADDRESS","type":"esriFieldTypeString","alias":"ADDRESS","length":50},{"name":"OBJECTID","type":"esriFieldTypeOID","alias":"OBJECTID"}],"features":[{"attributes":{"ID":254005,"DIS_CODE":0,"TOWNNAME":"南區","LI":"建南里","LIN":"14鄰","STREET":"中華南路","SECT":"二段","MAREA":" ","LANE":"２１１巷","ALLEY":" ","HOUSE_NO":"１３號","E_COORD97":166948.79999999999,"N_COORD97":2540158.48,"ADDRESS":"中華南路二段２１１巷１３號","OBJECTID":254001},"geometry":{"x":166948.80000000075,"y":2540158.4800000004}},{"attributes":{"ID":254006,"DIS_CODE":0,"TOWNNAME":"南區","LI":"建南里","LIN":"14鄰","STREET":"中華南路","SECT":"二段","MAREA":" ","LANE":"２１１巷","ALLEY":" ","HOUSE_NO":"１５號","E_COORD97":166948.35999999999,"N_COORD97":2540154.1099999999,"ADDRESS":"中華南路二段２１１巷１５號","OBJECTID":254002},"geometry":{"x":166948.3600000022,"y":2540154.1099999994}},{"attributes":{"ID":254007,"DIS_CODE":0,"TOWNNAME":"南區","LI":"建南里","LIN":"14鄰","STREET":"中華南路","SECT":"二段","MAREA":" ","LANE":"２１１巷","ALLEY":" ","HOUSE_NO":"１７號","E_COORD97":166948.57999999999,"N_COORD97":2540149.0800000001,"ADDRESS":"中華南路二段２１１巷１７號","OBJECTID":254003},"geometry":{"x":166948.58000000101,"y":2540149.0800000019}},{"attributes":{"ID":254008,"DIS_CODE":0,"TOWNNAME":"南區","LI":"建南里","LIN":"14鄰","STREET":"中華南路","SECT":"二段","MAREA":" ","LANE":"２１１巷","ALLEY":" ","HOUSE_NO":"１９號","E_COORD97":166949.23999999999,"N_COORD97":2540143.8300000001,"ADDRESS":"中華南路二段２１１巷１９號","OBJECTID":254004},"geometry":{"x":166949.24000000115,"y":2540143.8300000019}},{"attributes":{"ID":254009,"DIS_CODE":0,"TOWNNAME":"東區","LI":"東光里","LIN":"14鄰","STREET":"莊敬路","SECT":" ","MAREA":" ","LANE":"８１巷","ALLEY":" ","HOUSE_NO":"１６號","E_COORD97":171402.01999999999,"N_COORD97":2543853.6899999999,"ADDRESS":"莊敬路８１巷１６號","OBJECTID":254005},"geometry":{"x":171402.02000000048,"y":2543853.6900000013}},{"attributes":{"ID":254010,"DIS_CODE":0,"TOWNNAME":"東區","LI":"東光里","LIN":"14鄰","STREET":"莊敬路","SECT":" ","MAREA":" ","LANE":"８１巷","ALLEY":" ","HOUSE_NO":"１８號","E_COORD97":171405.53,"N_COORD97":2543849.7799999998,"ADDRESS":"莊敬路８１巷１８號","OBJECTID":254006},"geometry":{"x":171405.53000000212,"y":2543849.7800000012}},{"attributes":{"ID":254011,"DIS_CODE":0,"TOWNNAME":"東區","LI":"東光里","LIN":"14鄰","STREET":"莊敬路","SECT":" ","MAREA":" ","LANE":"８１巷","ALLEY":" ","HOUSE_NO":"２０號","E_COORD97":171410.75,"N_COORD97":2543852.4900000002,"ADDRESS":"莊敬路８１巷２０號","OBJECTID":254007},"geometry":{"x":171410.75000000093,"y":2543852.4900000021}},{"attributes":{"ID":254012,"DIS_CODE":0,"TOWNNAME":"東區","LI":"新東里","LIN":"14鄰","STREET":"裕豐街","SECT":" ","MAREA":" ","LANE":"１１５巷","ALLEY":" ","HOUSE_NO":"２６號","E_COORD97":170689.51999999999,"N_COORD97":2543018.8199999998,"ADDRESS":"裕豐街１１５巷２６號","OBJECTID":254008},"geometry":{"x":170689.52000000048,"y":2543018.820000004}},{"attributes":{"ID":254013,"DIS_CODE":0,"TOWNNAME":"東區","LI":"富強里","LIN":"14鄰","STREET":"裕農路","SECT":" ","MAREA":" ","LANE":"２８８巷","ALLEY":" ","HOUSE_NO":"１４９號","E_COORD97":171080.92000000001,"N_COORD97":2542894.73,"ADDRESS":"裕農路２８８巷１４９號","OBJECTID":254009},"geometry":{"x":171080.92000000086,"y":2542894.7300000023}},{"attributes":{"ID":254014,"DIS_CODE":0,"TOWNNAME":"東區","LI":"富強里","LIN":"14鄰","STREET":"裕農路","SECT":" ","MAREA":" ","LANE":"２８８巷","ALLEY":" ","HOUSE_NO":"１５１號","E_COORD97":171079.82000000001,"N_COORD97":2542889.71,"ADDRESS":"裕農路２８８巷１５１號","OBJECTID":254010},"geometry":{"x":171079.82000000216,"y":2542889.7100000009}},{"attributes":{"ID":254015,"DIS_CODE":0,"TOWNNAME":"東區","LI":"富強里","LIN":"14鄰","STREET":"裕農路","SECT":" ","MAREA":" ","LANE":"２８８巷","ALLEY":" ","HOUSE_NO":"１５３號","E_COORD97":171079.82000000001,"N_COORD97":2542886.0299999998,"ADDRESS":"裕農路２８８巷１５３號","OBJECTID":254011},"geometry":{"x":171079.82000000216,"y":2542886.0299999993}},{"attributes":{"ID":254016,"DIS_CODE":0,"TOWNNAME":"東區","LI":"富強里","LIN":"14鄰","STREET":"裕農路","SECT":" ","MAREA":" ","LANE":"２８８巷","ALLEY":" ","HOUSE_NO":"１５５號","E_COORD97":171080.14000000001,"N_COORD97":2542882.0299999998,"ADDRESS":"裕農路２８８巷１５５號","OBJECTID":254012},"geometry":{"x":171080.13999999873,"y":2542882.0300000012}},{"attributes":{"ID":254017,"DIS_CODE":0,"TOWNNAME":"東區","LI":"富強里","LIN":"14鄰","STREET":"裕農路","SECT":" ","MAREA":" ","LANE":"２８８巷","ALLEY":" ","HOUSE_NO":"１５７號","E_COORD97":171079.5,"N_COORD97":2542877.8799999999,"ADDRESS":"裕農路２８８巷１５７號","OBJECTID":254013},"geometry":{"x":171079.5,"y":2542877.8800000027}},{"attributes":{"ID":254018,"DIS_CODE":0,"TOWNNAME":"南區","LI":"郡南里","LIN":"14鄰","STREET":"永興三街","SECT":" ","MAREA":" ","LANE":"５９巷","ALLEY":" ","HOUSE_NO":"９號","E_COORD97":167350.14000000001,"N_COORD97":2540559.6699999999,"ADDRESS":"永興三街５９巷９號","OBJECTID":254014},"geometry":{"x":167350.13999999966,"y":2540559.6700000018}},{"attributes":{"ID":254019,"DIS_CODE":0,"TOWNNAME":"新市區","LI":"新市里","LIN":"14鄰","STREET":"中正路","SECT":" ","MAREA":" ","LANE":"３０１巷","ALLEY":" ","HOUSE_NO":"１０號","E_COORD97":177591.76999999999,"N_COORD97":2553284.25,"ADDRESS":"中正路３０１巷１０號","OBJECTID":254015},"geometry":{"x":177591.76999999955,"y":2553284.25}},{"attributes":{"ID":254020,"DIS_CODE":0,"TOWNNAME":"東區","LI":"德光里","LIN":"24鄰","STREET":"崇德二街","SECT":" ","MAREA":" ","LANE":" ","ALLEY":" ","HOUSE_NO":"７４號","E_COORD97":170134.85999999999,"N_COORD97":2542381.3500000001,"ADDRESS":"崇德二街７４號","OBJECTID":254016},"geometry":{"x":170134.86000000034,"y":2542381.3500000015}},{"attributes":{"ID":254021,"DIS_CODE":0,"TOWNNAME":"安南區","LI":"安慶里","LIN":"24鄰","STREET":"安中路","SECT":"一段","MAREA":" ","LANE":" ","ALLEY":" ","HOUSE_NO":"２０９號","E_COORD97":168664.10999999999,"N_COORD97":2548548.02,"ADDRESS":"安中路一段２０９號","OBJECTID":254017},"geometry":{"x":168664.11000000127,"y":2548548.0200000014}},{"attributes":{"ID":254022,"DIS_CODE":0,"TOWNNAME":"仁德區","LI":"仁德里","LIN":"24鄰","STREET":"文孝路","SECT":" ","MAREA":" ","LANE":" ","ALLEY":" ","HOUSE_NO":"４５號","E_COORD97":172045.38,"N_COORD97":2541382.5699999998,"ADDRESS":"文孝路４５號","OBJECTID":254018},"geometry":{"x":172045.38000000082,"y":2541382.5700000003}},{"attributes":{"ID":254023,"DIS_CODE":0,"TOWNNAME":"新營區","LI":"大宏里","LIN":" ","STREET":"大同路","SECT":" ","MAREA":" ","LANE":" ","ALLEY":" ","HOUSE_NO":"２３之７號","E_COORD97":180704.35999999999,"N_COORD97":2578632.5899999999,"ADDRESS":"大同路２３之７號","OBJECTID":254019},"geometry":{"x":180704.36000000034,"y":2578632.5900000036}},{"attributes":{"ID":254024,"DIS_CODE":0,"TOWNNAME":"新營區","LI":"忠政里","LIN":"24鄰","STREET":"健康路","SECT":" ","MAREA":" ","LANE":" ","ALLEY":" ","HOUSE_NO":"２３６號","E_COORD97":179670.97,"N_COORD97":2579474.6400000001,"ADDRESS":"健康路２３６號","OBJECTID":254020},"geometry":{"x":179670.9700000016,"y":2579474.6400000025}},{"attributes":{"ID":254025,"DIS_CODE":0,"TOWNNAME":"新營區","LI":"新北里","LIN":"18鄰","STREET":"民生路","SECT":" ","MAREA":" ","LANE":" ","ALLEY":" ","HOUSE_NO":"２０１號","E_COORD97":179112.60000000001,"N_COORD97":2578913.27,"ADDRESS":"民生路２０１號","OBJECTID":254021},"geometry":{"x":179112.60000000056,"y":2578913.2700000014}},{"attributes":{"ID":254026,"DIS_CODE":0,"TOWNNAME":"仁德區","LI":"仁義里","LIN":"24鄰","STREET":"正義路","SECT":" ","MAREA":" ","LANE":" ","ALLEY":" ","HOUSE_NO":"１１５號","E_COORD97":173658.70999999999,"N_COORD97":2541435.27,"ADDRESS":"正義路１１５號","OBJECTID":254022},"geometry":{"x":173658.71000000089,"y":2541435.2700000033}},{"attributes":{"ID":254027,"DIS_CODE":0,"TOWNNAME":"新市區","LI":"新市里","LIN":"14鄰","STREET":"中正路","SECT":" ","MAREA":" ","LANE":"３０１巷","ALLEY":" ","HOUSE_NO":"１４號","E_COORD97":177588.26000000001,"N_COORD97":2553291.9900000002,"ADDRESS":"中正路３０１巷１４號","OBJECTID":254023},"geometry":{"x":177588.25999999978,"y":2553291.9900000021}},{"attributes":{"ID":254028,"DIS_CODE":0,"TOWNNAME":"安定區","LI":"安定里","LIN":"11鄰","STREET":" ","SECT":" ","MAREA":"安定","LANE":" ","ALLEY":" ","HOUSE_NO":"８６號","E_COORD97":171990.14585199999,"N_COORD97":2557782.0858999998,"ADDRESS":"安定８６號","OBJECTID":254024},"geometry":{"x":171990.14585200045,"y":2557782.0858980007}},{"attributes":{"ID":254029,"DIS_CODE":0,"TOWNNAME":"安定區","LI":"安定里","LIN":"11鄰","STREET":" ","SECT":" ","MAREA":"安定","LANE":" ","ALLEY":" ","HOUSE_NO":"９９之８號","E_COORD97":172027.57000000001,"N_COORD97":2557755.3199999998,"ADDRESS":"安定９９之８號","OBJECTID":254025},"geometry":{"x":172027.57000000123,"y":2557755.3200000003}},{"attributes":{"ID":254030,"DIS_CODE":0,"TOWNNAME":"安定區","LI":"蘇厝里","LIN":"11鄰","STREET":" ","SECT":" ","MAREA":"蘇厝","LANE":" ","ALLEY":" ","HOUSE_NO":"３７８號","E_COORD97":173027.01999999999,"N_COORD97":2558916.25,"ADDRESS":"蘇厝３７８號","OBJECTID":254026},"geometry":{"x":173027.02000000142,"y":2558916.2499999981}},{"attributes":{"ID":254031,"DIS_CODE":0,"TOWNNAME":"安定區","LI":"蘇厝里","LIN":"11鄰","STREET":" ","SECT":" ","MAREA":"蘇厝","LANE":" ","ALLEY":" ","HOUSE_NO":"３７９之５號","E_COORD97":173076.22,"N_COORD97":2558925.2999999998,"ADDRESS":"蘇厝３７９之５號","OBJECTID":254027},"geometry":{"x":173076.21999999974,"y":2558925.3000000026}},{"attributes":{"ID":254032,"DIS_CODE":0,"TOWNNAME":"安定區","LI":"蘇厝里","LIN":"11鄰","STREET":" ","SECT":" ","MAREA":"蘇厝","LANE":" ","ALLEY":" ","HOUSE_NO":"３８７號之１","E_COORD97":172996.35000000001,"N_COORD97":2558866.2999999998,"ADDRESS":"蘇厝３８７號之１","OBJECTID":254028},"geometry":{"x":172996.35000000056,"y":2558866.3000000045}},{"attributes":{"ID":254033,"DIS_CODE":0,"TOWNNAME":"安定區","LI":"蘇厝里","LIN":"11鄰","STREET":" ","SECT":" ","MAREA":"蘇厝","LANE":" ","ALLEY":" ","HOUSE_NO":"３８５號","E_COORD97":173030.72,"N_COORD97":2558877.25,"ADDRESS":"蘇厝３８５號","OBJECTID":254029},"geometry":{"x":173030.71999999974,"y":2558877.2500000019}},{"attributes":{"ID":254034,"DIS_CODE":0,"TOWNNAME":"安定區","LI":"蘇厝里","LIN":"11鄰","STREET":" ","SECT":" ","MAREA":"蘇厝","LANE":" ","ALLEY":" ","HOUSE_NO":"３７９號之１","E_COORD97":173068.85000000001,"N_COORD97":2558923.2999999998,"ADDRESS":"蘇厝３７９號之１","OBJECTID":254030},"geometry":{"x":173068.8499999987,"y":2558923.3000000007}},{"attributes":{"ID":254035,"DIS_CODE":0,"TOWNNAME":"安定區","LI":"蘇厝里","LIN":"11鄰","STREET":" ","SECT":" ","MAREA":"蘇厝","LANE":" ","ALLEY":" ","HOUSE_NO":"３８７之３號","E_COORD97":172997.32000000001,"N_COORD97":2558870.2999999998,"ADDRESS":"蘇厝３８７之３號","OBJECTID":254031},"geometry":{"x":172997.32000000123,"y":2558870.3000000026}},{"attributes":{"ID":254036,"DIS_CODE":0,"TOWNNAME":"東區","LI":"崇學里","LIN":"11鄰","STREET":"崇明十一街","SECT":" ","MAREA":" ","LANE":"３１巷","ALLEY":" ","HOUSE_NO":"２７號","E_COORD97":170261.67000000001,"N_COORD97":2541876.6299999999,"ADDRESS":"崇明十一街３１巷２７號","OBJECTID":254032},"geometry":{"x":170261.67000000179,"y":2541876.6300000008}},{"attributes":{"ID":254037,"DIS_CODE":0,"TOWNNAME":"東區","LI":"崇學里","LIN":"11鄰","STREET":"崇明十一街","SECT":" ","MAREA":" ","LANE":"３１巷","ALLEY":" ","HOUSE_NO":"２９號","E_COORD97":170258.67999999999,"N_COORD97":2541880.6899999999,"ADDRESS":"崇明十一街３１巷２９號","OBJECTID":254033},"geometry":{"x":170258.68000000063,"y":2541880.6900000013}},{"attributes":{"ID":254038,"DIS_CODE":0,"TOWNNAME":"東區","LI":"崇學里","LIN":"11鄰","STREET":"崇明十一街","SECT":" ","MAREA":" ","LANE":"３１巷","ALLEY":" ","HOUSE_NO":"３１號","E_COORD97":170255.81,"N_COORD97":2541884.1600000001,"ADDRESS":"崇明十一街３１巷３１號","OBJECTID":254034},"geometry":{"x":170255.81000000052,"y":2541884.1600000039}},{"attributes":{"ID":254039,"DIS_CODE":0,"TOWNNAME":"新市區","LI":"新市里","LIN":"14鄰","STREET":"中正路","SECT":" ","MAREA":" ","LANE":"３２３巷","ALLEY":" ","HOUSE_NO":"１７號","E_COORD97":177656.12,"N_COORD97":2553340.25,"ADDRESS":"中正路３２３巷１７號","OBJECTID":254035},"geometry":{"x":177656.12000000011,"y":2553340.2500000019}},{"attributes":{"ID":254040,"DIS_CODE":0,"TOWNNAME":"新市區","LI":"新市里","LIN":"14鄰","STREET":"中正路","SECT":" ","MAREA":" ","LANE":"３０１巷","ALLEY":" ","HOUSE_NO":"１６號","E_COORD97":177585.98000000001,"N_COORD97":2553297.25,"ADDRESS":"中正路３０１巷１６號","OBJECTID":254036},"geometry":{"x":177585.98000000045,"y":2553297.25}},{"attributes":{"ID":254041,"DIS_CODE":0,"TOWNNAME":"中西區","LI":"小西里","LIN":"14鄰","STREET":"府前路","SECT":"一段","MAREA":" ","LANE":"３５９巷","ALLEY":" ","HOUSE_NO":"２４號","E_COORD97":167903.16,"N_COORD97":2543374.2000000002,"ADDRESS":"府前路一段３５９巷２４號","OBJECTID":254037},"geometry":{"x":167903.16000000015,"y":2543374.1999999993}},{"attributes":{"ID":254042,"DIS_CODE":0,"TOWNNAME":"中西區","LI":"小西里","LIN":"14鄰","STREET":"府前路","SECT":"一段","MAREA":" ","LANE":"３５９巷","ALLEY":" ","HOUSE_NO":"３４號","E_COORD97":167920.76999999999,"N_COORD97":2543357.5,"ADDRESS":"府前路一段３５９巷３４號","OBJECTID":254038},"geometry":{"x":167920.76999999955,"y":2543357.5000000019}},{"attributes":{"ID":254043,"DIS_CODE":0,"TOWNNAME":"中西區","LI":"小西里","LIN":"14鄰","STREET":"府前路","SECT":"一段","MAREA":" ","LANE":"３５９巷","ALLEY":" ","HOUSE_NO":"３６號","E_COORD97":167919.26000000001,"N_COORD97":2543352.9500000002,"ADDRESS":"府前路一段３５９巷３６號","OBJECTID":254039},"geometry":{"x":167919.25999999978,"y":2543352.9500000011}},{"attributes":{"ID":254044,"DIS_CODE":0,"TOWNNAME":"中西區","LI":"小西里","LIN":"14鄰","STREET":"府前路","SECT":"一段","MAREA":" ","LANE":"３５９巷","ALLEY":" ","HOUSE_NO":"４６號","E_COORD97":167898.41,"N_COORD97":2543338.9500000002,"ADDRESS":"府前路一段３５９巷４６號","OBJECTID":254040},"geometry":{"x":167898.41000000015,"y":2543338.950000003}},{"attributes":{"ID":254045,"DIS_CODE":0,"TOWNNAME":"中西區","LI":"小西里","LIN":"14鄰","STREET":"府前路","SECT":"一段","MAREA":" ","LANE":"３５９巷","ALLEY":" ","HOUSE_NO":"５０號","E_COORD97":167911.62,"N_COORD97":2543340.0800000001,"ADDRESS":"府前路一段３５９巷５０號","OBJECTID":254041},"geometry":{"x":167911.62000000104,"y":2543340.0800000019}},{"attributes":{"ID":254046,"DIS_CODE":0,"TOWNNAME":"中西區","LI":"小西里","LIN":"14鄰","STREET":"府前路","SECT":"一段","MAREA":" ","LANE":"３５９巷","ALLEY":" ","HOUSE_NO":"５２號","E_COORD97":167920.19,"N_COORD97":2543338.27,"ADDRESS":"府前路一段３５９巷５２號","OBJECTID":254042},"geometry":{"x":167920.19000000041,"y":2543338.2700000014}},{"attributes":{"ID":254047,"DIS_CODE":0,"TOWNNAME":"中西區","LI":"小西里","LIN":"14鄰","STREET":"府前路","SECT":"一段","MAREA":" ","LANE":"３５９巷","ALLEY":" ","HOUSE_NO":"５４號","E_COORD97":167919.48999999999,"N_COORD97":2543333.3799999999,"ADDRESS":"府前路一段３５９巷５４號","OBJECTID":254043},"geometry":{"x":167919.49000000115,"y":2543333.3800000008}},{"attributes":{"ID":254048,"DIS_CODE":0,"TOWNNAME":"中西區","LI":"小西里","LIN":"14鄰","STREET":"府前路","SECT":"一段","MAREA":" ","LANE":"３５９巷","ALLEY":" ","HOUSE_NO":"５６號","E_COORD97":167910.85999999999,"N_COORD97":2543334.1899999999,"ADDRESS":"府前路一段３５９巷５６號","OBJECTID":254044},"geometry":{"x":167910.86000000034,"y":2543334.1900000032}},{"attributes":{"ID":254049,"DIS_CODE":0,"TOWNNAME":"中西區","LI":"小西里","LIN":"14鄰","STREET":"府前路","SECT":"一段","MAREA":" ","LANE":"３５９巷","ALLEY":" ","HOUSE_NO":"５８號","E_COORD97":167908.76000000001,"N_COORD97":2543330.5099999998,"ADDRESS":"府前路一段３５９巷５８號","OBJECTID":254045},"geometry":{"x":167908.75999999978,"y":2543330.5100000016}},{"attributes":{"ID":254050,"DIS_CODE":0,"TOWNNAME":"中西區","LI":"小西里","LIN":"14鄰","STREET":"府前路","SECT":"一段","MAREA":" ","LANE":"３５９巷","ALLEY":" ","HOUSE_NO":"６０號","E_COORD97":167921.82000000001,"N_COORD97":2543325.9700000002,"ADDRESS":"府前路一段３５９巷６０號","OBJECTID":254046},"geometry":{"x":167921.82000000123,"y":2543325.9700000007}},{"attributes":{"ID":254051,"DIS_CODE":0,"TOWNNAME":"中西區","LI":"小西里","LIN":"14鄰","STREET":"府前路","SECT":"一段","MAREA":" ","LANE":"３５９巷","ALLEY":" ","HOUSE_NO":"６２號","E_COORD97":167913.19,"N_COORD97":2543318.4100000001,"ADDRESS":"府前路一段３５９巷６２號","OBJECTID":254047},"geometry":{"x":167913.19000000134,"y":2543318.4100000001}},{"attributes":{"ID":254052,"DIS_CODE":0,"TOWNNAME":"中西區","LI":"小西里","LIN":"14鄰","STREET":"府前路","SECT":"一段","MAREA":" ","LANE":"３５９巷","ALLEY":" ","HOUSE_NO":"６４號","E_COORD97":167924.26999999999,"N_COORD97":2543310.4900000002,"ADDRESS":"府前路一段３５９巷６４號","OBJECTID":254048},"geometry":{"x":167924.26999999955,"y":2543310.4900000021}},{"attributes":{"ID":254053,"DIS_CODE":0,"TOWNNAME":"中西區","LI":"小西里","LIN":"14鄰","STREET":"府前路","SECT":"一段","MAREA":" ","LANE":"３５９巷","ALLEY":" ","HOUSE_NO":"６６號","E_COORD97":167919.95999999999,"N_COORD97":2543305.0099999998,"ADDRESS":"府前路一段３５９巷６６號","OBJECTID":254049},"geometry":{"x":167919.95999999996,"y":2543305.0099999979}},{"attributes":{"ID":254054,"DIS_CODE":0,"TOWNNAME":"南區","LI":"郡南里","LIN":"14鄰","STREET":"永興三街","SECT":" ","MAREA":" ","LANE":"５９巷","ALLEY":" ","HOUSE_NO":"５號","E_COORD97":167350.73000000001,"N_COORD97":2540568.1400000001,"ADDRESS":"永興三街５９巷５號","OBJECTID":254050},"geometry":{"x":167350.73000000045,"y":2540568.1400000006}},{"attributes":{"ID":254055,"DIS_CODE":0,"TOWNNAME":"仁德區","LI":"大甲里","LIN":"24鄰","STREET":"中正西路","SECT":" ","MAREA":" ","LANE":" ","ALLEY":" ","HOUSE_NO":"３７５號","E_COORD97":169675.60000000001,"N_COORD97":2535395.2400000002,"ADDRESS":"中正西路３７５號","OBJECTID":254051},"geometry":{"x":169675.60000000056,"y":2535395.2400000021}},{"attributes":{"ID":254056,"DIS_CODE":0,"TOWNNAME":"仁德區","LI":"後壁里","LIN":"24鄰","STREET":"中正路","SECT":"二段","MAREA":" ","LANE":" ","ALLEY":" ","HOUSE_NO":"２１７號","E_COORD97":173218.23000000001,"N_COORD97":2538868.2799999998,"ADDRESS":"中正路二段２１７號","OBJECTID":254052},"geometry":{"x":173218.23000000231,"y":2538868.2800000031}},{"attributes":{"ID":254057,"DIS_CODE":0,"TOWNNAME":"仁德區","LI":"成功里","LIN":"24鄰","STREET":"保華路","SECT":" ","MAREA":" ","LANE":" ","ALLEY":" ","HOUSE_NO":"２８５號","E_COORD97":170578.26000000001,"N_COORD97":2539971.2400000002,"ADDRESS":"保華路２８５號","OBJECTID":254053},"geometry":{"x":170578.26000000071,"y":2539971.2400000039}},{"attributes":{"ID":254058,"DIS_CODE":0,"TOWNNAME":"仁德區","LI":"後壁里","LIN":"15鄰","STREET":"德南路","SECT":" ","MAREA":" ","LANE":"１３７巷","ALLEY":" ","HOUSE_NO":"３８號","E_COORD97":173626.57000000001,"N_COORD97":2538632.7599999998,"ADDRESS":"德南路１３７巷３８號","OBJECTID":254054},"geometry":{"x":173626.57000000123,"y":2538632.7600000016}},{"attributes":{"ID":254059,"DIS_CODE":0,"TOWNNAME":"仁德區","LI":"成功里","LIN":"21鄰","STREET":"保生路","SECT":" ","MAREA":" ","LANE":"６３巷","ALLEY":" ","HOUSE_NO":"１２號","E_COORD97":170736.64999999999,"N_COORD97":2539750.4900000002,"ADDRESS":"保生路６３巷１２號","OBJECTID":254055},"geometry":{"x":170736.65000000037,"y":2539750.4900000021}},{"attributes":{"ID":254060,"DIS_CODE":0,"TOWNNAME":"仁德區","LI":"後壁里","LIN":"28鄰","STREET":"德洋路","SECT":" ","MAREA":" ","LANE":"２５巷","ALLEY":" ","HOUSE_NO":"２１號","E_COORD97":173123.32000000001,"N_COORD97":2538958.77,"ADDRESS":"德洋路２５巷２１號","OBJECTID":254056},"geometry":{"x":173123.3200000003,"y":2538958.7699999996}},{"attributes":{"ID":254061,"DIS_CODE":0,"TOWNNAME":"安南區","LI":"安東里","LIN":"11鄰","STREET":"安和路","SECT":"一段","MAREA":" ","LANE":"２２０巷","ALLEY":" ","HOUSE_NO":"６３號","E_COORD97":169480.23000000001,"N_COORD97":2548024.3300000001,"ADDRESS":"安和路一段２２０巷６３號","OBJECTID":254057},"geometry":{"x":169480.23000000231,"y":2548024.3300000019}},{"attributes":{"ID":254062,"DIS_CODE":0,"TOWNNAME":"安南區","LI":"安東里","LIN":"11鄰","STREET":"安和路","SECT":"一段","MAREA":" ","LANE":"２２０巷","ALLEY":" ","HOUSE_NO":"６５號","E_COORD97":169483.44,"N_COORD97":2548028.2400000002,"ADDRESS":"安和路一段２２０巷６５號","OBJECTID":254058},"geometry":{"x":169483.44000000041,"y":2548028.2400000021}},{"attributes":{"ID":254063,"DIS_CODE":0,"TOWNNAME":"安南區","LI":"安東里","LIN":"11鄰","STREET":"安和路","SECT":"一段","MAREA":" ","LANE":"２２０巷","ALLEY":" ","HOUSE_NO":"６７號","E_COORD97":169486.51999999999,"N_COORD97":2548030.75,"ADDRESS":"安和路一段２２０巷６７號","OBJECTID":254059},"geometry":{"x":169486.52000000048,"y":2548030.7500000019}},{"attributes":{"ID":254064,"DIS_CODE":0,"TOWNNAME":"安南區","LI":"安東里","LIN":"11鄰","STREET":"安和路","SECT":"一段","MAREA":" ","LANE":"２２０巷","ALLEY":" ","HOUSE_NO":"７５號","E_COORD97":169500.76999999999,"N_COORD97":2548043.5899999999,"ADDRESS":"安和路一段２２０巷７５號","OBJECTID":254060},"geometry":{"x":169500.76999999955,"y":2548043.5899999999}},{"attributes":{"ID":254065,"DIS_CODE":0,"TOWNNAME":"安南區","LI":"安東里","LIN":"11鄰","STREET":"安和路","SECT":"一段","MAREA":" ","LANE":"２２０巷","ALLEY":" ","HOUSE_NO":"８５號","E_COORD97":169499.79000000001,"N_COORD97":2548077.8700000001,"ADDRESS":"安和路一段２２０巷８５號","OBJECTID":254061},"geometry":{"x":169499.7900000019,"y":2548077.8700000048}},{"attributes":{"ID":254066,"DIS_CODE":0,"TOWNNAME":"安南區","LI":"安東里","LIN":"11鄰","STREET":"安和路","SECT":"一段","MAREA":" ","LANE":"２２０巷","ALLEY":" ","HOUSE_NO":"９７號","E_COORD97":169538.91,"N_COORD97":2548082.7599999998,"ADDRESS":"安和路一段２２０巷９７號","OBJECTID":254062},"geometry":{"x":169538.91000000015,"y":2548082.7599999998}},{"attributes":{"ID":254067,"DIS_CODE":0,"TOWNNAME":"關廟區","LI":"五甲里","LIN":"13鄰","STREET":"光復街","SECT":" ","MAREA":" ","LANE":"６３巷","ALLEY":" ","HOUSE_NO":"３號","E_COORD97":181449.11502,"N_COORD97":2539289.9228400001,"ADDRESS":"光復街６３巷３號","OBJECTID":254063},"geometry":{"x":181449.11502000131,"y":2539289.9228410013}},{"attributes":{"ID":254068,"DIS_CODE":0,"TOWNNAME":"南區","LI":"郡南里","LIN":"14鄰","STREET":"永興三街","SECT":" ","MAREA":" ","LANE":"５９巷","ALLEY":" ","HOUSE_NO":"６號","E_COORD97":167329.29000000001,"N_COORD97":2540569.96,"ADDRESS":"永興三街５９巷６號","OBJECTID":254064},"geometry":{"x":167329.29000000004,"y":2540569.9600000009}},{"attributes":{"ID":254069,"DIS_CODE":0,"TOWNNAME":"南區","LI":"郡南里","LIN":"14鄰","STREET":"永興三街","SECT":" ","MAREA":" ","LANE":"５９巷","ALLEY":" ","HOUSE_NO":"７號","E_COORD97":167350.42999999999,"N_COORD97":2540565.5099999998,"ADDRESS":"永興三街５９巷７號","OBJECTID":254065},"geometry":{"x":167350.4299999997,"y":2540565.5099999979}},{"attributes":{"ID":254070,"DIS_CODE":0,"TOWNNAME":"南區","LI":"郡南里","LIN":"14鄰","STREET":"永興三街","SECT":" ","MAREA":" ","LANE":"５９巷","ALLEY":" ","HOUSE_NO":"１０號","E_COORD97":167330.20999999999,"N_COORD97":2540561.1400000001,"ADDRESS":"永興三街５９巷１０號","OBJECTID":254066},"geometry":{"x":167330.20999999903,"y":2540561.1400000006}},{"attributes":{"ID":254071,"DIS_CODE":0,"TOWNNAME":"仁德區","LI":"仁愛里","LIN":"24鄰","STREET":"保仁路","SECT":" ","MAREA":" ","LANE":" ","ALLEY":" ","HOUSE_NO":"３５０號","E_COORD97":169911.48000000001,"N_COORD97":2540110.0499999998,"ADDRESS":"保仁路３５０號","OBJECTID":254067},"geometry":{"x":169911.48000000138,"y":2540110.0500000026}},{"attributes":{"ID":254072,"DIS_CODE":0,"TOWNNAME":"仁德區","LI":"仁義里","LIN":"24鄰","STREET":"中清路","SECT":" ","MAREA":" ","LANE":" ","ALLEY":" ","HOUSE_NO":"１３１號","E_COORD97":173715.60000000001,"N_COORD97":2541449.0499999998,"ADDRESS":"中清路１３１號","OBJECTID":254068},"geometry":{"x":173715.60000000056,"y":2541449.0500000026}},{"attributes":{"ID":254073,"DIS_CODE":0,"TOWNNAME":"仁德區","LI":"仁義里","LIN":"24鄰","STREET":"中清路","SECT":" ","MAREA":" ","LANE":" ","ALLEY":" ","HOUSE_NO":"１４９號","E_COORD97":173717.79999999999,"N_COORD97":2541487.79,"ADDRESS":"中清路１４９號","OBJECTID":254069},"geometry":{"x":173717.80000000075,"y":2541487.7899999991}},{"attributes":{"ID":254074,"DIS_CODE":0,"TOWNNAME":"仁德區","LI":"大甲里","LIN":"24鄰","STREET":"中正西路","SECT":" ","MAREA":" ","LANE":" ","ALLEY":" ","HOUSE_NO":"３８３號","E_COORD97":169656.60000000001,"N_COORD97":2535395.7400000002,"ADDRESS":"中正西路３８３號","OBJECTID":254070},"geometry":{"x":169656.60000000149,"y":2535395.7400000021}},{"attributes":{"ID":254075,"DIS_CODE":0,"TOWNNAME":"仁德區","LI":"上崙里","LIN":"24鄰","STREET":"中正路","SECT":"一段","MAREA":" ","LANE":" ","ALLEY":" ","HOUSE_NO":"７８２號","E_COORD97":172985.41,"N_COORD97":2537910.52,"ADDRESS":"中正路一段７８２號","OBJECTID":254071},"geometry":{"x":172985.41000000015,"y":2537910.5199999977}},{"attributes":{"ID":254076,"DIS_CODE":0,"TOWNNAME":"新營區","LI":"忠政里","LIN":"24鄰","STREET":"健康路","SECT":" ","MAREA":" ","LANE":" ","ALLEY":" ","HOUSE_NO":"１１２號","E_COORD97":179673.51000000001,"N_COORD97":2579164.54,"ADDRESS":"健康路１１２號","OBJECTID":254072},"geometry":{"x":179673.50999999978,"y":2579164.5400000028}},{"attributes":{"ID":254077,"DIS_CODE":0,"TOWNNAME":"仁德區","LI":"後壁里","LIN":"24鄰","STREET":"中正路","SECT":"二段","MAREA":" ","LANE":" ","ALLEY":" ","HOUSE_NO":"２２３號之２","E_COORD97":173219.76000000001,"N_COORD97":2538893.6800000002,"ADDRESS":"中正路二段２２３號之２","OBJECTID":254073},"geometry":{"x":173219.75999999978,"y":2538893.6800000016}},{"attributes":{"ID":254078,"DIS_CODE":0,"TOWNNAME":"新營區","LI":"三仙里","LIN":"5鄰","STREET":"正義街","SECT":" ","MAREA":" ","LANE":" ","ALLEY":" ","HOUSE_NO":"２７號之２","E_COORD97":179624.54000000001,"N_COORD97":2578098.3500000001,"ADDRESS":"正義街２７號之２","OBJECTID":254074},"geometry":{"x":179624.54000000004,"y":2578098.3500000034}},{"attributes":{"ID":254079,"DIS_CODE":0,"TOWNNAME":"新營區","LI":"土庫里","LIN":"18鄰","STREET":"開元路","SECT":" ","MAREA":" ","LANE":" ","ALLEY":" ","HOUSE_NO":"２６３號","E_COORD97":181887.64000000001,"N_COORD97":2579758.8599999999,"ADDRESS":"開元路２６３號","OBJECTID":254075},"geometry":{"x":181887.6400000006,"y":2579758.8599999994}},{"attributes":{"ID":254080,"DIS_CODE":0,"TOWNNAME":"安南區","LI":"安順里","LIN":"11鄰","STREET":"安和路","SECT":"四段","MAREA":" ","LANE":"１０６巷","ALLEY":" ","HOUSE_NO":"１１號之１","E_COORD97":169981.42999999999,"N_COORD97":2550336.7599999998,"ADDRESS":"安和路四段１０６巷１１號之１","OBJECTID":254076},"geometry":{"x":169981.42999999877,"y":2550336.7600000016}},{"attributes":{"ID":254081,"DIS_CODE":0,"TOWNNAME":"安南區","LI":"安順里","LIN":"11鄰","STREET":"安和路","SECT":"四段","MAREA":" ","LANE":"１０６巷","ALLEY":" ","HOUSE_NO":"４３號","E_COORD97":170090.34,"N_COORD97":2550344.3199999998,"ADDRESS":"安和路四段１０６巷４３號","OBJECTID":254077},"geometry":{"x":170090.33999999985,"y":2550344.3200000003}},{"attributes":{"ID":254082,"DIS_CODE":0,"TOWNNAME":"安南區","LI":"安順里","LIN":"11鄰","STREET":"安和路","SECT":"四段","MAREA":" ","LANE":"１０６巷","ALLEY":" ","HOUSE_NO":"５３號","E_COORD97":170103.32999999999,"N_COORD97":2550341.0699999998,"ADDRESS":"安和路四段１０６巷５３號","OBJECTID":254078},"geometry":{"x":170103.33000000101,"y":2550341.0700000022}},{"attributes":{"ID":254083,"DIS_CODE":0,"TOWNNAME":"安南區","LI":"安順里","LIN":"11鄰","STREET":"安和路","SECT":"四段","MAREA":" ","LANE":"１６２巷","ALLEY":" ","HOUSE_NO":"７號","E_COORD97":170012.59,"N_COORD97":2550486.1699999999,"ADDRESS":"安和路四段１６２巷７號","OBJECTID":254079},"geometry":{"x":170012.58999999985,"y":2550486.1700000018}},{"attributes":{"ID":254084,"DIS_CODE":0,"TOWNNAME":"仁德區","LI":"後壁里","LIN":"24鄰","STREET":"中正路","SECT":"二段","MAREA":" ","LANE":" ","ALLEY":" ","HOUSE_NO":"２５３號","E_COORD97":173225.62,"N_COORD97":2538945.02,"ADDRESS":"中正路二段２５３號","OBJECTID":254080},"geometry":{"x":173225.62000000104,"y":2538945.0200000033}},{"attributes":{"ID":254085,"DIS_CODE":0,"TOWNNAME":"仁德區","LI":"後壁里","LIN":"24鄰","STREET":"德洋路","SECT":" ","MAREA":" ","LANE":" ","ALLEY":" ","HOUSE_NO":"１３號","E_COORD97":173185.37,"N_COORD97":2538986.5299999998,"ADDRESS":"德洋路１３號","OBJECTID":254081},"geometry":{"x":173185.37000000104,"y":2538986.5300000012}},{"attributes":{"ID":254086,"DIS_CODE":0,"TOWNNAME":"仁德區","LI":"仁義里","LIN":"24鄰","STREET":"正義路","SECT":" ","MAREA":" ","LANE":" ","ALLEY":" ","HOUSE_NO":"１３７號","E_COORD97":173707.07000000001,"N_COORD97":2541429.2599999998,"ADDRESS":"正義路１３７號","OBJECTID":254082},"geometry":{"x":173707.0700000003,"y":2541429.2600000016}},{"attributes":{"ID":254087,"DIS_CODE":0,"TOWNNAME":"仁德區","LI":"大甲里","LIN":"24鄰","STREET":"行大二街","SECT":" ","MAREA":" ","LANE":" ","ALLEY":" ","HOUSE_NO":"６８之１號","E_COORD97":169655.57000000001,"N_COORD97":2535225.5499999998,"ADDRESS":"行大二街６８之１號","OBJECTID":254083},"geometry":{"x":169655.5700000003,"y":2535225.5500000007}},{"attributes":{"ID":254088,"DIS_CODE":0,"TOWNNAME":"新營區","LI":"民榮里","LIN":"14鄰","STREET":"復興路","SECT":" ","MAREA":" ","LANE":" ","ALLEY":" ","HOUSE_NO":"１５９之１３號","E_COORD97":178909.42999999999,"N_COORD97":2577947.8399999999,"ADDRESS":"復興路１５９之１３號","OBJECTID":254084},"geometry":{"x":178909.4299999997,"y":2577947.8399999999}},{"attributes":{"ID":254089,"DIS_CODE":0,"TOWNNAME":"新營區","LI":"民權里","LIN":"14鄰","STREET":"武昌街","SECT":" ","MAREA":" ","LANE":" ","ALLEY":" ","HOUSE_NO":"３０號","E_COORD97":179855.64999999999,"N_COORD97":2578344.1600000001,"ADDRESS":"武昌街３０號","OBJECTID":254085},"geometry":{"x":179855.6500000013,"y":2578344.1600000039}},{"attributes":{"ID":254090,"DIS_CODE":0,"TOWNNAME":"新營區","LI":"中營里","LIN":"7鄰","STREET":"新進路","SECT":" ","MAREA":" ","LANE":" ","ALLEY":" ","HOUSE_NO":"１號","E_COORD97":180704.47,"N_COORD97":2578377.8100000001,"ADDRESS":"新進路１號","OBJECTID":254086},"geometry":{"x":180704.46999999974,"y":2578377.8100000024}},{"attributes":{"ID":254091,"DIS_CODE":0,"TOWNNAME":"新營區","LI":"延平里","LIN":"4鄰","STREET":"長春街","SECT":" ","MAREA":" ","LANE":" ","ALLEY":" ","HOUSE_NO":"５３號","E_COORD97":179667.419283,"N_COORD97":2577854.03528,"ADDRESS":"長春街５３號","OBJECTID":254087},"geometry":{"x":179667.41928299889,"y":2577854.0352769997}},{"attributes":{"ID":254092,"DIS_CODE":0,"TOWNNAME":"永康區","LI":"西橋里","LIN":"24鄰","STREET":"中華西街","SECT":" ","MAREA":" ","LANE":" ","ALLEY":" ","HOUSE_NO":"２８３號","E_COORD97":170706.94,"N_COORD97":2546486.9900000002,"ADDRESS":"中華西街２８３號","OBJECTID":254088},"geometry":{"x":170706.94000000041,"y":2546486.9900000021}},{"attributes":{"ID":254093,"DIS_CODE":0,"TOWNNAME":"永康區","LI":"東灣里","LIN":"14鄰","STREET":"大灣三街","SECT":" ","MAREA":" ","LANE":"７３巷","ALLEY":" ","HOUSE_NO":"１２號","E_COORD97":174864.97,"N_COORD97":2544918.3399999999,"ADDRESS":"大灣三街７３巷１２號","OBJECTID":254089},"geometry":{"x":174864.96999999974,"y":2544918.3400000017}},{"attributes":{"ID":254094,"DIS_CODE":0,"TOWNNAME":"安南區","LI":"溪墘里","LIN":"11鄰","STREET":"海佃路","SECT":"一段","MAREA":" ","LANE":"２８４巷","ALLEY":" ","HOUSE_NO":"２２號","E_COORD97":167207.98000000001,"N_COORD97":2547440.7999999998,"ADDRESS":"海佃路一段２８４巷２２號","OBJECTID":254090},"geometry":{"x":167207.98000000045,"y":2547440.8000000026}},{"attributes":{"ID":254095,"DIS_CODE":0,"TOWNNAME":"南區","LI":"郡南里","LIN":"14鄰","STREET":"永興三街","SECT":" ","MAREA":" ","LANE":"５９巷","ALLEY":" ","HOUSE_NO":"１１號","E_COORD97":167348.67999999999,"N_COORD97":2540555.5800000001,"ADDRESS":"永興三街５９巷１１號","OBJECTID":254091},"geometry":{"x":167348.6799999997,"y":2540555.5800000038}},{"attributes":{"ID":254096,"DIS_CODE":0,"TOWNNAME":"南區","LI":"郡南里","LIN":"14鄰","STREET":"永興三街","SECT":" ","MAREA":" ","LANE":"５９巷","ALLEY":" ","HOUSE_NO":"１２號","E_COORD97":167330.39000000001,"N_COORD97":2540557.6499999999,"ADDRESS":"永興三街５９巷１２號","OBJECTID":254092},"geometry":{"x":167330.38999999873,"y":2540557.6500000004}},{"attributes":{"ID":254097,"DIS_CODE":0,"TOWNNAME":"南區","LI":"郡南里","LIN":"14鄰","STREET":"永興三街","SECT":" ","MAREA":" ","LANE":"５９巷","ALLEY":" ","HOUSE_NO":"１３號","E_COORD97":167349.85000000001,"N_COORD97":2540549.1600000001,"ADDRESS":"永興三街５９巷１３號","OBJECTID":254093},"geometry":{"x":167349.85000000056,"y":2540549.160000002}},{"attributes":{"ID":254098,"DIS_CODE":0,"TOWNNAME":"南區","LI":"郡南里","LIN":"14鄰","STREET":"永興三街","SECT":" ","MAREA":" ","LANE":"５９巷","ALLEY":" ","HOUSE_NO":"１４號","E_COORD97":167330.76000000001,"N_COORD97":2540552.1299999999,"ADDRESS":"永興三街５９巷１４號","OBJECTID":254094},"geometry":{"x":167330.75999999978,"y":2540552.1300000008}},{"attributes":{"ID":254099,"DIS_CODE":0,"TOWNNAME":"南區","LI":"郡南里","LIN":"14鄰","STREET":"永興三街","SECT":" ","MAREA":" ","LANE":"５９巷","ALLEY":" ","HOUSE_NO":"１５號","E_COORD97":167350.14000000001,"N_COORD97":2540546.5299999998,"ADDRESS":"永興三街５９巷１５號","OBJECTID":254095},"geometry":{"x":167350.13999999966,"y":2540546.5299999993}},{"attributes":{"ID":254100,"DIS_CODE":0,"TOWNNAME":"南區","LI":"郡南里","LIN":"14鄰","STREET":"永興三街","SECT":" ","MAREA":" ","LANE":"５９巷","ALLEY":" ","HOUSE_NO":"１６號","E_COORD97":167330.20999999999,"N_COORD97":2540548.0899999999,"ADDRESS":"永興三街５９巷１６號","OBJECTID":254096},"geometry":{"x":167330.20999999903,"y":2540548.089999998}},{"attributes":{"ID":254101,"DIS_CODE":0,"TOWNNAME":"南區","LI":"郡南里","LIN":"14鄰","STREET":"永興三街","SECT":" ","MAREA":" ","LANE":"５９巷","ALLEY":" ","HOUSE_NO":"１７號","E_COORD97":167348.67999999999,"N_COORD97":2540541.8599999999,"ADDRESS":"永興三街５９巷１７號","OBJECTID":254097},"geometry":{"x":167348.6799999997,"y":2540541.8599999994}},{"attributes":{"ID":254102,"DIS_CODE":0,"TOWNNAME":"南區","LI":"郡南里","LIN":"14鄰","STREET":"永興三街","SECT":" ","MAREA":" ","LANE":"５９巷","ALLEY":" ","HOUSE_NO":"１８號","E_COORD97":167329.47,"N_COORD97":2540543.8599999999,"ADDRESS":"永興三街５９巷１８號","OBJECTID":254098},"geometry":{"x":167329.46999999974,"y":2540543.8600000013}},{"attributes":{"ID":254103,"DIS_CODE":0,"TOWNNAME":"南區","LI":"郡南里","LIN":"14鄰","STREET":"永興三街","SECT":" ","MAREA":" ","LANE":"５９巷","ALLEY":" ","HOUSE_NO":"２０號","E_COORD97":167329.64999999999,"N_COORD97":2540540,"ADDRESS":"永興三街５９巷２０號","OBJECTID":254099},"geometry":{"x":167329.6500000013,"y":2540540.0000000019}},{"attributes":{"ID":254104,"DIS_CODE":0,"TOWNNAME":"南區","LI":"國宅里","LIN":"14鄰","STREET":"金華路","SECT":"二段","MAREA":" ","LANE":"３巷","ALLEY":" ","HOUSE_NO":"６３號","E_COORD97":166736.07000000001,"N_COORD97":2541820.8999999999,"ADDRESS":"金華路二段３巷６３號","OBJECTID":254100},"geometry":{"x":166736.0700000003,"y":2541820.9000000004}},{"attributes":{"ID":254105,"DIS_CODE":0,"TOWNNAME":"南區","LI":"國宅里","LIN":"14鄰","STREET":"金華路","SECT":"二段","MAREA":" ","LANE":"３巷","ALLEY":" ","HOUSE_NO":"６４號","E_COORD97":166753.41,"N_COORD97":2541836.7000000002,"ADDRESS":"金華路二段３巷６４號","OBJECTID":254101},"geometry":{"x":166753.41000000108,"y":2541836.7000000011}},{"attributes":{"ID":254106,"DIS_CODE":0,"TOWNNAME":"南區","LI":"國宅里","LIN":"14鄰","STREET":"金華路","SECT":"二段","MAREA":" ","LANE":"３巷","ALLEY":" ","HOUSE_NO":"６５號","E_COORD97":166730.97,"N_COORD97":2541820.8999999999,"ADDRESS":"金華路二段３巷６５號","OBJECTID":254102},"geometry":{"x":166730.96999999974,"y":2541820.9000000004}},{"attributes":{"ID":254107,"DIS_CODE":0,"TOWNNAME":"南區","LI":"國宅里","LIN":"14鄰","STREET":"金華路","SECT":"二段","MAREA":" ","LANE":"３巷","ALLEY":" ","HOUSE_NO":"６６號","E_COORD97":166746.26999999999,"N_COORD97":2541836.7000000002,"ADDRESS":"金華路二段３巷６６號","OBJECTID":254103},"geometry":{"x":166746.26999999862,"y":2541836.7000000011}},{"attributes":{"ID":254108,"DIS_CODE":0,"TOWNNAME":"南區","LI":"國宅里","LIN":"14鄰","STREET":"金華路","SECT":"二段","MAREA":" ","LANE":"３巷","ALLEY":" ","HOUSE_NO":"６８號","E_COORD97":166740.70999999999,"N_COORD97":2541837.23,"ADDRESS":"金華路二段３巷６８號","OBJECTID":254104},"geometry":{"x":166740.71000000089,"y":2541837.2300000023}},{"attributes":{"ID":254109,"DIS_CODE":0,"TOWNNAME":"南區","LI":"國宅里","LIN":"14鄰","STREET":"金華路","SECT":"二段","MAREA":" ","LANE":"３巷","ALLEY":" ","HOUSE_NO":"７０號","E_COORD97":166734.10000000001,"N_COORD97":2541837.23,"ADDRESS":"金華路二段３巷７０號","OBJECTID":254105},"geometry":{"x":166734.10000000149,"y":2541837.2300000023}},{"attributes":{"ID":254110,"DIS_CODE":0,"TOWNNAME":"南區","LI":"國宅里","LIN":"14鄰","STREET":"新興路","SECT":" ","MAREA":" ","LANE":"４１６巷","ALLEY":" ","HOUSE_NO":"１號","E_COORD97":166723.92000000001,"N_COORD97":2541787.9100000001,"ADDRESS":"新興路４１６巷１號","OBJECTID":254106},"geometry":{"x":166723.92000000086,"y":2541787.910000002}},{"attributes":{"ID":254111,"DIS_CODE":0,"TOWNNAME":"南區","LI":"國宅里","LIN":"14鄰","STREET":"新興路","SECT":" ","MAREA":" ","LANE":"４１６巷","ALLEY":" ","HOUSE_NO":"２號","E_COORD97":166728.78,"N_COORD97":2541787.6699999999,"ADDRESS":"新興路４１６巷２號","OBJECTID":254107},"geometry":{"x":166728.78000000119,"y":2541787.6699999999}},{"attributes":{"ID":254112,"DIS_CODE":0,"TOWNNAME":"南區","LI":"國宅里","LIN":"14鄰","STREET":"新興路","SECT":" ","MAREA":" ","LANE":"４１６巷","ALLEY":" ","HOUSE_NO":"３號","E_COORD97":166733.64000000001,"N_COORD97":2541787.6699999999,"ADDRESS":"新興路４１６巷３號","OBJECTID":254108},"geometry":{"x":166733.63999999966,"y":2541787.6699999999}},{"attributes":{"ID":254113,"DIS_CODE":0,"TOWNNAME":"南區","LI":"國宅里","LIN":"14鄰","STREET":"新興路","SECT":" ","MAREA":" ","LANE":"４１６巷","ALLEY":" ","HOUSE_NO":"３號之１","E_COORD97":166739.23000000001,"N_COORD97":2541787.1800000002,"ADDRESS":"新興路４１６巷３號之１","OBJECTID":254109},"geometry":{"x":166739.23000000231,"y":2541787.1799999997}},{"attributes":{"ID":254114,"DIS_CODE":0,"TOWNNAME":"南區","LI":"國宅里","LIN":"14鄰","STREET":"新興路","SECT":" ","MAREA":" ","LANE":"４１６巷","ALLEY":" ","HOUSE_NO":"５號","E_COORD97":166743.35999999999,"N_COORD97":2541786.7000000002,"ADDRESS":"新興路４１６巷５號","OBJECTID":254110},"geometry":{"x":166743.36000000127,"y":2541786.6999999993}},{"attributes":{"ID":254115,"DIS_CODE":0,"TOWNNAME":"南區","LI":"喜北里","LIN":"14鄰","STREET":"喜樹路","SECT":" ","MAREA":" ","LANE":"２２２巷","ALLEY":" ","HOUSE_NO":"１６號","E_COORD97":165681.37,"N_COORD97":2538089.98,"ADDRESS":"喜樹路２２２巷１６號","OBJECTID":254111},"geometry":{"x":165681.37000000011,"y":2538089.9800000023}},{"attributes":{"ID":254116,"DIS_CODE":0,"TOWNNAME":"南區","LI":"喜北里","LIN":"14鄰","STREET":"喜樹路","SECT":" ","MAREA":" ","LANE":"２２２巷","ALLEY":" ","HOUSE_NO":"５０號","E_COORD97":165587.87,"N_COORD97":2538059.1299999999,"ADDRESS":"喜樹路２２２巷５０號","OBJECTID":254112},"geometry":{"x":165587.87000000011,"y":2538059.1300000008}},{"attributes":{"ID":254117,"DIS_CODE":0,"TOWNNAME":"南區","LI":"喜北里","LIN":"14鄰","STREET":"喜樹路","SECT":" ","MAREA":" ","LANE":"２２２巷","ALLEY":" ","HOUSE_NO":"５２號","E_COORD97":165588.5,"N_COORD97":2538054.6400000001,"ADDRESS":"喜樹路２２２巷５２號","OBJECTID":254113},"geometry":{"x":165588.5,"y":2538054.6400000025}},{"attributes":{"ID":254118,"DIS_CODE":0,"TOWNNAME":"永康區","LI":"網寮里","LIN":"24鄰","STREET":"永大一路","SECT":" ","MAREA":" ","LANE":" ","ALLEY":" ","HOUSE_NO":"１８０號","E_COORD97":173815.84,"N_COORD97":2546365.5800000001,"ADDRESS":"永大一路１８０號","OBJECTID":254114},"geometry":{"x":173815.84000000078,"y":2546365.5800000001}},{"attributes":{"ID":254119,"DIS_CODE":0,"TOWNNAME":"永康區","LI":"崑山里","LIN":"14鄰","STREET":"大灣路","SECT":" ","MAREA":" ","LANE":"９７０巷","ALLEY":" ","HOUSE_NO":"２４號","E_COORD97":173556.07000000001,"N_COORD97":2544468.21,"ADDRESS":"大灣路９７０巷２４號","OBJECTID":254115},"geometry":{"x":173556.0700000003,"y":2544468.2100000028}},{"attributes":{"ID":254120,"DIS_CODE":0,"TOWNNAME":"永康區","LI":"埔園里","LIN":"14鄰","STREET":"中山路","SECT":" ","MAREA":" ","LANE":"２０７巷","ALLEY":" ","HOUSE_NO":"２６號","E_COORD97":173578.79999999999,"N_COORD97":2548154.7400000002,"ADDRESS":"中山路２０７巷２６號","OBJECTID":254116},"geometry":{"x":173578.80000000075,"y":2548154.7400000002}},{"attributes":{"ID":254121,"DIS_CODE":0,"TOWNNAME":"永康區","LI":"埔園里","LIN":"14鄰","STREET":"中山路","SECT":" ","MAREA":" ","LANE":"２０７巷","ALLEY":" ","HOUSE_NO":"２４號","E_COORD97":173581.29999999999,"N_COORD97":2548150.9900000002,"ADDRESS":"中山路２０７巷２４號","OBJECTID":254117},"geometry":{"x":173581.29999999888,"y":2548150.9900000021}},{"attributes":{"ID":254122,"DIS_CODE":0,"TOWNNAME":"永康區","LI":"埔園里","LIN":"14鄰","STREET":"中山路","SECT":" ","MAREA":" ","LANE":"２０７巷","ALLEY":" ","HOUSE_NO":"２８號","E_COORD97":173574.89999999999,"N_COORD97":2548158.2400000002,"ADDRESS":"中山路２０７巷２８號","OBJECTID":254118},"geometry":{"x":173574.9000000013,"y":2548158.2400000002}},{"attributes":{"ID":254123,"DIS_CODE":0,"TOWNNAME":"永康區","LI":"東灣里","LIN":"14鄰","STREET":"大灣三街","SECT":" ","MAREA":" ","LANE":"７３巷","ALLEY":" ","HOUSE_NO":"１０號","E_COORD97":174866.07999999999,"N_COORD97":2544925.8399999999,"ADDRESS":"大灣三街７３巷１０號","OBJECTID":254119},"geometry":{"x":174866.08000000007,"y":2544925.8399999999}},{"attributes":{"ID":254124,"DIS_CODE":0,"TOWNNAME":"永康區","LI":"東灣里","LIN":"14鄰","STREET":"大灣三街","SECT":" ","MAREA":" ","LANE":"７３巷","ALLEY":" ","HOUSE_NO":"８號","E_COORD97":174875.32999999999,"N_COORD97":2544934.3399999999,"ADDRESS":"大灣三街７３巷８號","OBJECTID":254120},"geometry":{"x":174875.33000000101,"y":2544934.3400000017}},{"attributes":{"ID":254125,"DIS_CODE":0,"TOWNNAME":"永康區","LI":"東灣里","LIN":"14鄰","STREET":"大灣三街","SECT":" ","MAREA":" ","LANE":"７３巷","ALLEY":" ","HOUSE_NO":"２６號","E_COORD97":174839.73999999999,"N_COORD97":2544887.3500000001,"ADDRESS":"大灣三街７３巷２６號","OBJECTID":254121},"geometry":{"x":174839.74000000022,"y":2544887.3500000015}},{"attributes":{"ID":254126,"DIS_CODE":0,"TOWNNAME":"安南區","LI":"淵中里","LIN":"14鄰","STREET":"安中路","SECT":"四段","MAREA":" ","LANE":"１５４巷","ALLEY":" ","HOUSE_NO":"５６號","E_COORD97":165056.57000000001,"N_COORD97":2550137.9700000002,"ADDRESS":"安中路四段１５４巷５６號","OBJECTID":254122},"geometry":{"x":165056.56999999937,"y":2550137.9700000044}},{"attributes":{"ID":254127,"DIS_CODE":0,"TOWNNAME":"安南區","LI":"學東里","LIN":"14鄰","STREET":"公學路","SECT":"七段","MAREA":" ","LANE":"１１３巷","ALLEY":" ","HOUSE_NO":"１０號","E_COORD97":161682.92999999999,"N_COORD97":2553401,"ADDRESS":"公學路七段１１３巷１０號","OBJECTID":254123},"geometry":{"x":161682.9299999997,"y":2553401}},{"attributes":{"ID":254128,"DIS_CODE":0,"TOWNNAME":"安南區","LI":"學東里","LIN":"14鄰","STREET":"公學路","SECT":"七段","MAREA":" ","LANE":"１１３巷","ALLEY":" ","HOUSE_NO":"１６號","E_COORD97":161671.07999999999,"N_COORD97":2553384.9199999999,"ADDRESS":"公學路七段１１３巷１６號","OBJECTID":254124},"geometry":{"x":161671.08000000194,"y":2553384.9199999999}},{"attributes":{"ID":254129,"DIS_CODE":0,"TOWNNAME":"安南區","LI":"學東里","LIN":"14鄰","STREET":"公學路","SECT":"七段","MAREA":" ","LANE":"１１３巷","ALLEY":" ","HOUSE_NO":"２１號","E_COORD97":161709.26999999999,"N_COORD97":2553340.6099999999,"ADDRESS":"公學路七段１１３巷２１號","OBJECTID":254125},"geometry":{"x":161709.26999999955,"y":2553340.6100000013}},{"attributes":{"ID":254130,"DIS_CODE":0,"TOWNNAME":"安南區","LI":"學東里","LIN":"14鄰","STREET":"公學路","SECT":"七段","MAREA":" ","LANE":"１１３巷","ALLEY":" ","HOUSE_NO":"２６號","E_COORD97":161682.10999999999,"N_COORD97":2553345.5499999998,"ADDRESS":"公學路七段１１３巷２６號","OBJECTID":254126},"geometry":{"x":161682.11000000127,"y":2553345.5500000026}},{"attributes":{"ID":254131,"DIS_CODE":0,"TOWNNAME":"安南區","LI":"學東里","LIN":"14鄰","STREET":"公學路","SECT":"七段","MAREA":" ","LANE":"１１３巷","ALLEY":" ","HOUSE_NO":"２８號","E_COORD97":161662.91,"N_COORD97":2553339.6299999999,"ADDRESS":"公學路七段１１３巷２８號","OBJECTID":254127},"geometry":{"x":161662.91000000108,"y":2553339.6300000008}},{"attributes":{"ID":254132,"DIS_CODE":0,"TOWNNAME":"安南區","LI":"學東里","LIN":"14鄰","STREET":"公學路","SECT":"七段","MAREA":" ","LANE":"１１３巷","ALLEY":" ","HOUSE_NO":"３１號","E_COORD97":161700.09,"N_COORD97":2553321.3799999999,"ADDRESS":"公學路七段１１３巷３１號","OBJECTID":254128},"geometry":{"x":161700.09000000078,"y":2553321.3800000008}},{"attributes":{"ID":254133,"DIS_CODE":0,"TOWNNAME":"安南區","LI":"學東里","LIN":"14鄰","STREET":"公學路","SECT":"七段","MAREA":" ","LANE":"１１３巷","ALLEY":" ","HOUSE_NO":"６號","E_COORD97":161719.79000000001,"N_COORD97":2553393.3199999998,"ADDRESS":"公學路七段１１３巷６號","OBJECTID":254129},"geometry":{"x":161719.79000000004,"y":2553393.320000004}},{"attributes":{"ID":254134,"DIS_CODE":0,"TOWNNAME":"安南區","LI":"學東里","LIN":"14鄰","STREET":"公學路","SECT":"七段","MAREA":" ","LANE":"９７巷","ALLEY":" ","HOUSE_NO":"１０號","E_COORD97":161740.10999999999,"N_COORD97":2553369.9300000002,"ADDRESS":"公學路七段９７巷１０號","OBJECTID":254130},"geometry":{"x":161740.11000000034,"y":2553369.9300000016}},{"attributes":{"ID":254135,"DIS_CODE":0,"TOWNNAME":"安南區","LI":"學東里","LIN":"14鄰","STREET":"公學路","SECT":"七段","MAREA":" ","LANE":"９７巷","ALLEY":" ","HOUSE_NO":"１２號","E_COORD97":161739.42999999999,"N_COORD97":2553364.27,"ADDRESS":"公學路七段９７巷１２號","OBJECTID":254131},"geometry":{"x":161739.42999999877,"y":2553364.2699999996}},{"attributes":{"ID":254136,"DIS_CODE":0,"TOWNNAME":"南區","LI":"開南里","LIN":"14鄰","STREET":"新建路","SECT":" ","MAREA":" ","LANE":"３２巷","ALLEY":" ","HOUSE_NO":"４號","E_COORD97":166435.63,"N_COORD97":2540962.52,"ADDRESS":"新建路３２巷４號","OBJECTID":254132},"geometry":{"x":166435.62999999896,"y":2540962.5200000014}},{"attributes":{"ID":254137,"DIS_CODE":0,"TOWNNAME":"安南區","LI":"學東里","LIN":"14鄰","STREET":"公學路","SECT":"七段","MAREA":" ","LANE":"９７巷","ALLEY":" ","HOUSE_NO":"１８號","E_COORD97":161736.70999999999,"N_COORD97":2553350.6899999999,"ADDRESS":"公學路七段９７巷１８號","OBJECTID":254133},"geometry":{"x":161736.71000000089,"y":2553350.6900000013}},{"attributes":{"ID":254138,"DIS_CODE":0,"TOWNNAME":"安南區","LI":"學東里","LIN":"14鄰","STREET":"公學路","SECT":"七段","MAREA":" ","LANE":"９７巷","ALLEY":" ","HOUSE_NO":"２２號","E_COORD97":161733.54000000001,"N_COORD97":2553342.0899999999,"ADDRESS":"公學路七段９７巷２２號","OBJECTID":254134},"geometry":{"x":161733.54000000004,"y":2553342.0899999999}},{"attributes":{"ID":254139,"DIS_CODE":0,"TOWNNAME":"將軍區","LI":"長沙里","LIN":"11鄰","STREET":" ","SECT":" ","MAREA":"長沙","LANE":" ","ALLEY":" ","HOUSE_NO":"９０之１號","E_COORD97":157192.32000000001,"N_COORD97":2568570.2599999998,"ADDRESS":"長沙９０之１號","OBJECTID":254135},"geometry":{"x":157192.3200000003,"y":2568570.2600000016}},{"attributes":{"ID":254140,"DIS_CODE":0,"TOWNNAME":"將軍區","LI":"長沙里","LIN":"11鄰","STREET":" ","SECT":" ","MAREA":"長沙","LANE":" ","ALLEY":" ","HOUSE_NO":"９０號","E_COORD97":157195.42000000001,"N_COORD97":2568583.6699999999,"ADDRESS":"長沙９０號","OBJECTID":254136},"geometry":{"x":157195.42000000086,"y":2568583.6700000018}},{"attributes":{"ID":254141,"DIS_CODE":0,"TOWNNAME":"下營區","LI":"仁里里","LIN":"11鄰","STREET":"博愛街","SECT":" ","MAREA":" ","LANE":"１３３巷","ALLEY":" ","HOUSE_NO":"３號","E_COORD97":173719.60999999999,"N_COORD97":2570484.0099999998,"ADDRESS":"博愛街１３３巷３號","OBJECTID":254137},"geometry":{"x":173719.61000000127,"y":2570484.0100000016}},{"attributes":{"ID":254142,"DIS_CODE":0,"TOWNNAME":"下營區","LI":"仁里里","LIN":"11鄰","STREET":"博愛街","SECT":" ","MAREA":" ","LANE":"１３８巷","ALLEY":" ","HOUSE_NO":"４２號","E_COORD97":173548.54000000001,"N_COORD97":2570459.1299999999,"ADDRESS":"博愛街１３８巷４２號","OBJECTID":254138},"geometry":{"x":173548.54000000097,"y":2570459.129999999}},{"attributes":{"ID":254143,"DIS_CODE":0,"TOWNNAME":"下營區","LI":"仁里里","LIN":"11鄰","STREET":"博愛街","SECT":" ","MAREA":" ","LANE":"１９６巷","ALLEY":" ","HOUSE_NO":"３６號","E_COORD97":173583.64000000001,"N_COORD97":2570355.5600000001,"ADDRESS":"博愛街１９６巷３６號","OBJECTID":254139},"geometry":{"x":173583.63999999966,"y":2570355.5600000024}},{"attributes":{"ID":254144,"DIS_CODE":0,"TOWNNAME":"安南區","LI":"學東里","LIN":"14鄰","STREET":"公學路","SECT":"七段","MAREA":" ","LANE":"９７巷","ALLEY":" ","HOUSE_NO":"２４號","E_COORD97":161734.89999999999,"N_COORD97":2553337.79,"ADDRESS":"公學路七段９７巷２４號","OBJECTID":254140},"geometry":{"x":161734.90000000037,"y":2553337.7899999991}},{"attributes":{"ID":254145,"DIS_CODE":0,"TOWNNAME":"永康區","LI":"西灣里","LIN":"24鄰","STREET":"永大路","SECT":"二段","MAREA":" ","LANE":" ","ALLEY":" ","HOUSE_NO":"３０１號","E_COORD97":174410.54000000001,"N_COORD97":2545576.0299999998,"ADDRESS":"永大路二段３０１號","OBJECTID":254141},"geometry":{"x":174410.54000000004,"y":2545576.0300000031}},{"attributes":{"ID":254146,"DIS_CODE":0,"TOWNNAME":"永康區","LI":"網寮里","LIN":"24鄰","STREET":"永和街","SECT":" ","MAREA":" ","LANE":" ","ALLEY":" ","HOUSE_NO":"３７號","E_COORD97":173741.07000000001,"N_COORD97":2546467.7799999998,"ADDRESS":"永和街３７號","OBJECTID":254142},"geometry":{"x":173741.06999999937,"y":2546467.7800000012}},{"attributes":{"ID":254147,"DIS_CODE":0,"TOWNNAME":"永康區","LI":"西灣里","LIN":"24鄰","STREET":"永大路","SECT":"二段","MAREA":" ","LANE":" ","ALLEY":" ","HOUSE_NO":"３６５號","E_COORD97":174445.34,"N_COORD97":2545700.7799999998,"ADDRESS":"永大路二段３６５號","OBJECTID":254143},"geometry":{"x":174445.33999999985,"y":2545700.7800000012}},{"attributes":{"ID":254148,"DIS_CODE":0,"TOWNNAME":"仁德區","LI":"後壁里","LIN":"14鄰","STREET":"德善路","SECT":" ","MAREA":" ","LANE":"１８２巷","ALLEY":" ","HOUSE_NO":"１０號","E_COORD97":173652.44,"N_COORD97":2538755.27,"ADDRESS":"德善路１８２巷１０號","OBJECTID":254144},"geometry":{"x":173652.44000000227,"y":2538755.2699999996}},{"attributes":{"ID":254149,"DIS_CODE":0,"TOWNNAME":"將軍區","LI":"長榮里","LIN":"11鄰","STREET":" ","SECT":" ","MAREA":"長榮","LANE":" ","ALLEY":" ","HOUSE_NO":"１２８之２號","E_COORD97":163841.13,"N_COORD97":2566096.2599999998,"ADDRESS":"長榮１２８之２號","OBJECTID":254145},"geometry":{"x":163841.13000000082,"y":2566096.2599999998}},{"attributes":{"ID":254150,"DIS_CODE":0,"TOWNNAME":"安南區","LI":"學東里","LIN":"14鄰","STREET":"公學路","SECT":"七段","MAREA":" ","LANE":"９７巷","ALLEY":" ","HOUSE_NO":"２６號","E_COORD97":161733.54000000001,"N_COORD97":2553332.1400000001,"ADDRESS":"公學路七段９７巷２６號","OBJECTID":254146},"geometry":{"x":161733.54000000004,"y":2553332.1400000025}},{"attributes":{"ID":254151,"DIS_CODE":0,"TOWNNAME":"安南區","LI":"學東里","LIN":"14鄰","STREET":"公學路","SECT":"七段","MAREA":" ","LANE":"９７巷","ALLEY":" ","HOUSE_NO":"２８號","E_COORD97":161732.85999999999,"N_COORD97":2553328.7400000002,"ADDRESS":"公學路七段９７巷２８號","OBJECTID":254147},"geometry":{"x":161732.86000000127,"y":2553328.7400000002}},{"attributes":{"ID":254152,"DIS_CODE":0,"TOWNNAME":"安南區","LI":"學東里","LIN":"14鄰","STREET":"公學路","SECT":"七段","MAREA":" ","LANE":"９７巷","ALLEY":" ","HOUSE_NO":"３４號","E_COORD97":161730.14000000001,"N_COORD97":2553314.0299999998,"ADDRESS":"公學路七段９７巷３４號","OBJECTID":254148},"geometry":{"x":161730.1400000006,"y":2553314.0300000012}},{"attributes":{"ID":254153,"DIS_CODE":0,"TOWNNAME":"安南區","LI":"學東里","LIN":"14鄰","STREET":"公學路","SECT":"七段","MAREA":" ","LANE":"９７巷","ALLEY":" ","HOUSE_NO":"３６號","E_COORD97":161712.37,"N_COORD97":2553322.2200000002,"ADDRESS":"公學路七段９７巷３６號","OBJECTID":254149},"geometry":{"x":161712.37000000104,"y":2553322.2200000007}},{"attributes":{"ID":254154,"DIS_CODE":0,"TOWNNAME":"安南區","LI":"學東里","LIN":"14鄰","STREET":"公學路","SECT":"七段","MAREA":" ","LANE":"９７巷","ALLEY":" ","HOUSE_NO":"８號","E_COORD97":161740.79000000001,"N_COORD97":2553374,"ADDRESS":"公學路七段９７巷８號","OBJECTID":254150},"geometry":{"x":161740.7900000019,"y":2553374}},{"attributes":{"ID":254155,"DIS_CODE":0,"TOWNNAME":"新市區","LI":"新市里","LIN":"14鄰","STREET":"中正路","SECT":" ","MAREA":" ","LANE":"３０１巷","ALLEY":" ","HOUSE_NO":"６號","E_COORD97":177593.62,"N_COORD97":2553276.75,"ADDRESS":"中正路３０１巷６號","OBJECTID":254151},"geometry":{"x":177593.62000000011,"y":2553276.75}},{"attributes":{"ID":254156,"DIS_CODE":0,"TOWNNAME":"南區","LI":"開南里","LIN":"14鄰","STREET":"新建路","SECT":" ","MAREA":" ","LANE":"３２巷","ALLEY":" ","HOUSE_NO":"６號","E_COORD97":166422.47,"N_COORD97":2540961.9900000002,"ADDRESS":"新建路３２巷６號","OBJECTID":254152},"geometry":{"x":166422.46999999974,"y":2540961.9900000002}},{"attributes":{"ID":254157,"DIS_CODE":0,"TOWNNAME":"新營區","LI":"護鎮里","LIN":"11鄰","STREET":" ","SECT":" ","MAREA":"後鎮","LANE":" ","ALLEY":" ","HOUSE_NO":"１１８號","E_COORD97":175857.56,"N_COORD97":2579813.2999999998,"ADDRESS":"後鎮１１８號","OBJECTID":254153},"geometry":{"x":175857.55999999959,"y":2579813.3000000026}},{"attributes":{"ID":254158,"DIS_CODE":0,"TOWNNAME":"仁德區","LI":"一甲里","LIN":"14鄰","STREET":"忠義路","SECT":" ","MAREA":" ","LANE":"２４１巷","ALLEY":" ","HOUSE_NO":"３２號","E_COORD97":173900.82000000001,"N_COORD97":2541763.77,"ADDRESS":"忠義路２４１巷３２號","OBJECTID":254154},"geometry":{"x":173900.82000000123,"y":2541763.7699999977}},{"attributes":{"ID":254159,"DIS_CODE":0,"TOWNNAME":"仁德區","LI":"二行里","LIN":"14鄰","STREET":"中正西路","SECT":" ","MAREA":" ","LANE":"３５３巷","ALLEY":" ","HOUSE_NO":"２７號","E_COORD97":169832.48999999999,"N_COORD97":2535348.75,"ADDRESS":"中正西路３５３巷２７號","OBJECTID":254155},"geometry":{"x":169832.49000000209,"y":2535348.75}},{"attributes":{"ID":254160,"DIS_CODE":0,"TOWNNAME":"仁德區","LI":"二行里","LIN":"14鄰","STREET":"中正西路","SECT":" ","MAREA":" ","LANE":"３５３巷","ALLEY":" ","HOUSE_NO":"６４號","E_COORD97":169856.95999999999,"N_COORD97":2535298.2400000002,"ADDRESS":"中正西路３５３巷６４號","OBJECTID":254156},"geometry":{"x":169856.96000000089,"y":2535298.2400000002}},{"attributes":{"ID":254161,"DIS_CODE":0,"TOWNNAME":"仁德區","LI":"二行里","LIN":"14鄰","STREET":"中正西路","SECT":" ","MAREA":" ","LANE":"３５３巷","ALLEY":" ","HOUSE_NO":"３３號","E_COORD97":169845.98000000001,"N_COORD97":2535347.25,"ADDRESS":"中正西路３５３巷３３號","OBJECTID":254157},"geometry":{"x":169845.98000000045,"y":2535347.2500000019}},{"attributes":{"ID":254162,"DIS_CODE":0,"TOWNNAME":"仁德區","LI":"二行里","LIN":"14鄰","STREET":"中正西路","SECT":" ","MAREA":" ","LANE":"３５３巷","ALLEY":" ","HOUSE_NO":"５３號","E_COORD97":169888.32000000001,"N_COORD97":2535344.75,"ADDRESS":"中正西路３５３巷５３號","OBJECTID":254158},"geometry":{"x":169888.32000000123,"y":2535344.7500000019}},{"attributes":{"ID":254163,"DIS_CODE":0,"TOWNNAME":"新營區","LI":"民權里","LIN":" ","STREET":"博愛街","SECT":" ","MAREA":" ","LANE":" ","ALLEY":" ","HOUSE_NO":"１之２號","E_COORD97":180067.59,"N_COORD97":2578142.7599999998,"ADDRESS":"博愛街１之２號","OBJECTID":254159},"geometry":{"x":180067.59000000078,"y":2578142.7599999979}},{"attributes":{"ID":254164,"DIS_CODE":0,"TOWNNAME":"新營區","LI":"南紙里","LIN":"11鄰","STREET":"太子路","SECT":" ","MAREA":" ","LANE":"２３８巷","ALLEY":" ","HOUSE_NO":"８號","E_COORD97":177801.14999999999,"N_COORD97":2577858.9900000002,"ADDRESS":"太子路２３８巷８號","OBJECTID":254160},"geometry":{"x":177801.1500000013,"y":2577858.9900000002}},{"attributes":{"ID":254165,"DIS_CODE":0,"TOWNNAME":"仁德區","LI":"後壁里","LIN":"4鄰","STREET":"德善一街","SECT":" ","MAREA":" ","LANE":"２７巷","ALLEY":" ","HOUSE_NO":"３０號","E_COORD97":173376.85000000001,"N_COORD97":2539049.5099999998,"ADDRESS":"德善一街２７巷３０號","OBJECTID":254161},"geometry":{"x":173376.84999999963,"y":2539049.5099999998}},{"attributes":{"ID":254166,"DIS_CODE":0,"TOWNNAME":"仁德區","LI":"二行里","LIN":"14鄰","STREET":"中正西路","SECT":" ","MAREA":" ","LANE":"３５３巷","ALLEY":" ","HOUSE_NO":"２８號","E_COORD97":169822.23999999999,"N_COORD97":2535336.25,"ADDRESS":"中正西路３５３巷２８號","OBJECTID":254162},"geometry":{"x":169822.23999999929,"y":2535336.2499999981}},{"attributes":{"ID":254167,"DIS_CODE":0,"TOWNNAME":"仁德區","LI":"二行里","LIN":"14鄰","STREET":"中正西路","SECT":" ","MAREA":" ","LANE":"３５３巷","ALLEY":" ","HOUSE_NO":"３８號","E_COORD97":169845.10000000001,"N_COORD97":2535334.75,"ADDRESS":"中正西路３５３巷３８號","OBJECTID":254163},"geometry":{"x":169845.10000000056,"y":2535334.75}},{"attributes":{"ID":254168,"DIS_CODE":0,"TOWNNAME":"仁德區","LI":"一甲里","LIN":"14鄰","STREET":"忠義路","SECT":" ","MAREA":" ","LANE":"２４１巷","ALLEY":" ","HOUSE_NO":"１５號","E_COORD97":173899.04999999999,"N_COORD97":2541789.02,"ADDRESS":"忠義路２４１巷１５號","OBJECTID":254164},"geometry":{"x":173899.05000000075,"y":2541789.0199999996}},{"attributes":{"ID":254169,"DIS_CODE":0,"TOWNNAME":"仁德區","LI":"一甲里","LIN":"14鄰","STREET":"忠義路","SECT":" ","MAREA":" ","LANE":"２４１巷","ALLEY":" ","HOUSE_NO":"２號之１","E_COORD97":173889.10999999999,"N_COORD97":2541816.04,"ADDRESS":"忠義路２４１巷２號之１","OBJECTID":254165},"geometry":{"x":173889.11000000127,"y":2541816.0400000028}},{"attributes":{"ID":254170,"DIS_CODE":0,"TOWNNAME":"仁德區","LI":"二行里","LIN":"14鄰","STREET":"中正西路","SECT":" ","MAREA":" ","LANE":"３５３巷","ALLEY":" ","HOUSE_NO":"２９號","E_COORD97":169837.42999999999,"N_COORD97":2535350.5,"ADDRESS":"中正西路３５３巷２９號","OBJECTID":254166},"geometry":{"x":169837.43000000156,"y":2535350.5}},{"attributes":{"ID":254171,"DIS_CODE":0,"TOWNNAME":"仁德區","LI":"大甲里","LIN":"14鄰","STREET":"行大街","SECT":" ","MAREA":" ","LANE":"３４１巷","ALLEY":" ","HOUSE_NO":"１６號","E_COORD97":169559.51999999999,"N_COORD97":2535188.4900000002,"ADDRESS":"行大街３４１巷１６號","OBJECTID":254167},"geometry":{"x":169559.52000000048,"y":2535188.4900000002}},{"attributes":{"ID":254172,"DIS_CODE":0,"TOWNNAME":"仁德區","LI":"二行里","LIN":"14鄰","STREET":"中正西路","SECT":" ","MAREA":" ","LANE":"３５３巷","ALLEY":" ","HOUSE_NO":"３２號","E_COORD97":169831.73000000001,"N_COORD97":2535335.25,"ADDRESS":"中正西路３５３巷３２號","OBJECTID":254168},"geometry":{"x":169831.73000000138,"y":2535335.25}},{"attributes":{"ID":254173,"DIS_CODE":0,"TOWNNAME":"仁德區","LI":"二行里","LIN":"14鄰","STREET":"中正西路","SECT":" ","MAREA":" ","LANE":"３５３巷","ALLEY":" ","HOUSE_NO":"３９號","E_COORD97":169858.28,"N_COORD97":2535346.5,"ADDRESS":"中正西路３５３巷３９號","OBJECTID":254169},"geometry":{"x":169858.28000000119,"y":2535346.5000000019}},{"attributes":{"ID":254174,"DIS_CODE":0,"TOWNNAME":"仁德區","LI":"二行里","LIN":"14鄰","STREET":"行大街","SECT":" ","MAREA":" ","LANE":"１７２巷","ALLEY":" ","HOUSE_NO":"６８號","E_COORD97":169839.85999999999,"N_COORD97":2535212.7400000002,"ADDRESS":"行大街１７２巷６８號","OBJECTID":254170},"geometry":{"x":169839.86000000034,"y":2535212.7400000021}},{"attributes":{"ID":254175,"DIS_CODE":0,"TOWNNAME":"新營區","LI":"三仙里","LIN":"32鄰","STREET":"三興街","SECT":" ","MAREA":" ","LANE":" ","ALLEY":" ","HOUSE_NO":"１３０號","E_COORD97":179453,"N_COORD97":2579250.8700000001,"ADDRESS":"三興街１３０號","OBJECTID":254171},"geometry":{"x":179453.00000000093,"y":2579250.870000001}},{"attributes":{"ID":254176,"DIS_CODE":0,"TOWNNAME":"新營區","LI":"姑爺里","LIN":"11鄰","STREET":" ","SECT":" ","MAREA":"挖仔","LANE":" ","ALLEY":" ","HOUSE_NO":"４３之５１號","E_COORD97":173934.07000000001,"N_COORD97":2575594.8199999998,"ADDRESS":"挖仔４３之５１號","OBJECTID":254172},"geometry":{"x":173934.0700000003,"y":2575594.8200000022}},{"attributes":{"ID":254177,"DIS_CODE":0,"TOWNNAME":"新營區","LI":"姑爺里","LIN":"11鄰","STREET":" ","SECT":" ","MAREA":"挖仔","LANE":" ","ALLEY":" ","HOUSE_NO":"４４號","E_COORD97":173878.73000000001,"N_COORD97":2575510.8799999999,"ADDRESS":"挖仔４４號","OBJECTID":254173},"geometry":{"x":173878.73000000045,"y":2575510.8800000008}},{"attributes":{"ID":254178,"DIS_CODE":0,"TOWNNAME":"新營區","LI":"姑爺里","LIN":"11鄰","STREET":" ","SECT":" ","MAREA":"挖仔","LANE":" ","ALLEY":" ","HOUSE_NO":"４３之３７號","E_COORD97":174198.48999999999,"N_COORD97":2575687.6000000001,"ADDRESS":"挖仔４３之３７號","OBJECTID":254174},"geometry":{"x":174198.49000000022,"y":2575687.6000000015}},{"attributes":{"ID":254179,"DIS_CODE":0,"TOWNNAME":"新營區","LI":"太南里","LIN":"11鄰","STREET":" ","SECT":" ","MAREA":"太子宮","LANE":" ","ALLEY":" ","HOUSE_NO":"２５４之５號","E_COORD97":176025.95999999999,"N_COORD97":2576769.2200000002,"ADDRESS":"太子宮２５４之５號","OBJECTID":254175},"geometry":{"x":176025.95999999996,"y":2576769.2200000025}},{"attributes":{"ID":254180,"DIS_CODE":0,"TOWNNAME":"新營區","LI":"姑爺里","LIN":"11鄰","STREET":" ","SECT":" ","MAREA":"挖仔","LANE":" ","ALLEY":" ","HOUSE_NO":"４３之４９號","E_COORD97":173967.76000000001,"N_COORD97":2575582.4700000002,"ADDRESS":"挖仔４３之４９號","OBJECTID":254176},"geometry":{"x":173967.75999999978,"y":2575582.4700000007}},{"attributes":{"ID":254181,"DIS_CODE":0,"TOWNNAME":"新營區","LI":"三仙里","LIN":"13鄰","STREET":"中華路","SECT":" ","MAREA":" ","LANE":" ","ALLEY":" ","HOUSE_NO":"５４之１號","E_COORD97":179611.92000000001,"N_COORD97":2578204.73,"ADDRESS":"中華路５４之１號","OBJECTID":254177},"geometry":{"x":179611.91999999993,"y":2578204.7299999986}},{"attributes":{"ID":254182,"DIS_CODE":0,"TOWNNAME":"仁德區","LI":"成功里","LIN":"27鄰","STREET":"成功一街","SECT":" ","MAREA":" ","LANE":"１８巷","ALLEY":" ","HOUSE_NO":"１２號","E_COORD97":170502.56,"N_COORD97":2540157.5099999998,"ADDRESS":"成功一街１８巷１２號","OBJECTID":254178},"geometry":{"x":170502.55999999866,"y":2540157.5099999998}},{"attributes":{"ID":254183,"DIS_CODE":0,"TOWNNAME":"新化區","LI":"東榮里","LIN":"14鄰","STREET":"中興路","SECT":" ","MAREA":" ","LANE":"５８０巷","ALLEY":" ","HOUSE_NO":"２１號","E_COORD97":179847.16,"N_COORD97":2548023.25,"ADDRESS":"中興路５８０巷２１號","OBJECTID":254179},"geometry":{"x":179847.16000000108,"y":2548023.2500000037}},{"attributes":{"ID":254184,"DIS_CODE":0,"TOWNNAME":"新化區","LI":"東榮里","LIN":"14鄰","STREET":"中興路","SECT":" ","MAREA":" ","LANE":"５９５巷","ALLEY":" ","HOUSE_NO":"１７號","E_COORD97":179840.35999999999,"N_COORD97":2547881.25,"ADDRESS":"中興路５９５巷１７號","OBJECTID":254180},"geometry":{"x":179840.36000000127,"y":2547881.2500000019}},{"attributes":{"ID":254185,"DIS_CODE":0,"TOWNNAME":"新化區","LI":"知義里","LIN":"14鄰","STREET":"復興路","SECT":" ","MAREA":" ","LANE":"８８巷","ALLEY":" ","HOUSE_NO":"２２號","E_COORD97":179578.62,"N_COORD97":2547623.25,"ADDRESS":"復興路８８巷２２號","OBJECTID":254181},"geometry":{"x":179578.62000000011,"y":2547623.2500000037}},{"attributes":{"ID":254186,"DIS_CODE":0,"TOWNNAME":"新化區","LI":"東榮里","LIN":"14鄰","STREET":"中興路","SECT":" ","MAREA":" ","LANE":"５８０巷","ALLEY":" ","HOUSE_NO":"４７號","E_COORD97":179843.85999999999,"N_COORD97":2548078.25,"ADDRESS":"中興路５８０巷４７號","OBJECTID":254182},"geometry":{"x":179843.86000000127,"y":2548078.2500000019}},{"attributes":{"ID":254187,"DIS_CODE":0,"TOWNNAME":"新營區","LI":"民生里","LIN":"2鄰","STREET":"三興街","SECT":" ","MAREA":" ","LANE":" ","ALLEY":" ","HOUSE_NO":"１號之１４","E_COORD97":179484.66,"N_COORD97":2578117.8500000001,"ADDRESS":"三興街１號之１４","OBJECTID":254183},"geometry":{"x":179484.66000000015,"y":2578117.8499999996}},{"attributes":{"ID":254188,"DIS_CODE":0,"TOWNNAME":"安平區","LI":"文平里","LIN":"11鄰","STREET":"建平七街","SECT":" ","MAREA":" ","LANE":"３０１巷","ALLEY":" ","HOUSE_NO":"１２號","E_COORD97":165792.98999999999,"N_COORD97":2543244.27,"ADDRESS":"建平七街３０１巷１２號","OBJECTID":254184},"geometry":{"x":165792.99000000209,"y":2543244.2699999996}},{"attributes":{"ID":254189,"DIS_CODE":0,"TOWNNAME":"安平區","LI":"文平里","LIN":"11鄰","STREET":"建平七街","SECT":" ","MAREA":" ","LANE":"３０１巷","ALLEY":" ","HOUSE_NO":"１４號","E_COORD97":165788.66,"N_COORD97":2543245.1899999999,"ADDRESS":"建平七街３０１巷１４號","OBJECTID":254185},"geometry":{"x":165788.66000000108,"y":2543245.1899999995}},{"attributes":{"ID":254190,"DIS_CODE":0,"TOWNNAME":"安平區","LI":"文平里","LIN":"11鄰","STREET":"建平七街","SECT":" ","MAREA":" ","LANE":"３０１巷","ALLEY":" ","HOUSE_NO":"６號","E_COORD97":165790.63,"N_COORD97":2543264.48,"ADDRESS":"建平七街３０１巷６號","OBJECTID":254186},"geometry":{"x":165790.63000000082,"y":2543264.4800000004}},{"attributes":{"ID":254191,"DIS_CODE":0,"TOWNNAME":"南區","LI":"開南里","LIN":"14鄰","STREET":"新建路","SECT":" ","MAREA":" ","LANE":"３２巷","ALLEY":" ","HOUSE_NO":"１０號","E_COORD97":166404.85999999999,"N_COORD97":2540962.5800000001,"ADDRESS":"新建路３２巷１０號","OBJECTID":254187},"geometry":{"x":166404.86000000127,"y":2540962.5800000019}},{"attributes":{"ID":254192,"DIS_CODE":0,"TOWNNAME":"南區","LI":"開南里","LIN":"14鄰","STREET":"新建路","SECT":" ","MAREA":" ","LANE":"３２巷","ALLEY":" ","HOUSE_NO":"１２號","E_COORD97":166399.87,"N_COORD97":2540962.4300000002,"ADDRESS":"新建路３２巷１２號","OBJECTID":254188},"geometry":{"x":166399.87000000011,"y":2540962.4299999997}},{"attributes":{"ID":254193,"DIS_CODE":0,"TOWNNAME":"南區","LI":"開南里","LIN":"14鄰","STREET":"新建路","SECT":" ","MAREA":" ","LANE":"３２巷","ALLEY":" ","HOUSE_NO":"８號","E_COORD97":166418.07000000001,"N_COORD97":2540962.1400000001,"ADDRESS":"新建路３２巷８號","OBJECTID":254189},"geometry":{"x":166418.07000000216,"y":2540962.1400000006}},{"attributes":{"ID":254194,"DIS_CODE":0,"TOWNNAME":"南區","LI":"廣州里","LIN":"14鄰","STREET":"福吉二街","SECT":" ","MAREA":" ","LANE":"４８巷","ALLEY":" ","HOUSE_NO":"２號","E_COORD97":167318.04000000001,"N_COORD97":2542753,"ADDRESS":"福吉二街４８巷２號","OBJECTID":254190},"geometry":{"x":167318.0400000019,"y":2542753.0000000037}},{"attributes":{"ID":254195,"DIS_CODE":0,"TOWNNAME":"安南區","LI":"大安里","LIN":"14鄰","STREET":"義安街","SECT":" ","MAREA":" ","LANE":"８６巷","ALLEY":" ","HOUSE_NO":"１０號","E_COORD97":167467.16,"N_COORD97":2548027.98,"ADDRESS":"義安街８６巷１０號","OBJECTID":254191},"geometry":{"x":167467.16000000108,"y":2548027.9800000004}},{"attributes":{"ID":254196,"DIS_CODE":0,"TOWNNAME":"新營區","LI":"太南里","LIN":"11鄰","STREET":" ","SECT":" ","MAREA":"太子宮","LANE":" ","ALLEY":" ","HOUSE_NO":"２５４之１０號","E_COORD97":176084.5,"N_COORD97":2576770.0499999998,"ADDRESS":"太子宮２５４之１０號","OBJECTID":254192},"geometry":{"x":176084.50000000093,"y":2576770.0500000026}},{"attributes":{"ID":254197,"DIS_CODE":0,"TOWNNAME":"安南區","LI":"大安里","LIN":"14鄰","STREET":"義安街","SECT":" ","MAREA":" ","LANE":"８６巷","ALLEY":" ","HOUSE_NO":"１１號","E_COORD97":167486.28,"N_COORD97":2548050.5499999998,"ADDRESS":"義安街８６巷１１號","OBJECTID":254193},"geometry":{"x":167486.28000000119,"y":2548050.5500000026}},{"attributes":{"ID":254198,"DIS_CODE":0,"TOWNNAME":"安南區","LI":"大安里","LIN":"14鄰","STREET":"義安街","SECT":" ","MAREA":" ","LANE":"８６巷","ALLEY":" ","HOUSE_NO":"１２號","E_COORD97":167471.32999999999,"N_COORD97":2548026.3999999999,"ADDRESS":"義安街８６巷１２號","OBJECTID":254194},"geometry":{"x":167471.33000000007,"y":2548026.4000000022}},{"attributes":{"ID":254199,"DIS_CODE":0,"TOWNNAME":"安南區","LI":"大安里","LIN":"14鄰","STREET":"義安街","SECT":" ","MAREA":" ","LANE":"８６巷","ALLEY":" ","HOUSE_NO":"１３號","E_COORD97":167488.85999999999,"N_COORD97":2548048.8300000001,"ADDRESS":"義安街８６巷１３號","OBJECTID":254195},"geometry":{"x":167488.86000000034,"y":2548048.8300000001}},{"attributes":{"ID":254200,"DIS_CODE":0,"TOWNNAME":"安南區","LI":"大安里","LIN":"14鄰","STREET":"義安街","SECT":" ","MAREA":" ","LANE":"８６巷","ALLEY":" ","HOUSE_NO":"１５號","E_COORD97":167491.88,"N_COORD97":2548045.5299999998,"ADDRESS":"義安街８６巷１５號","OBJECTID":254196},"geometry":{"x":167491.88000000175,"y":2548045.5300000012}},{"attributes":{"ID":254201,"DIS_CODE":0,"TOWNNAME":"安南區","LI":"大安里","LIN":"14鄰","STREET":"義安街","SECT":" ","MAREA":" ","LANE":"８６巷","ALLEY":" ","HOUSE_NO":"１６號","E_COORD97":167477.35000000001,"N_COORD97":2548021.5299999998,"ADDRESS":"義安街８６巷１６號","OBJECTID":254197},"geometry":{"x":167477.35000000056,"y":2548021.5300000012}},{"attributes":{"ID":254202,"DIS_CODE":0,"TOWNNAME":"安南區","LI":"大安里","LIN":"14鄰","STREET":"義安街","SECT":" ","MAREA":" ","LANE":"８６巷","ALLEY":" ","HOUSE_NO":"１７號","E_COORD97":167496.60999999999,"N_COORD97":2548044.1000000001,"ADDRESS":"義安街８６巷１７號","OBJECTID":254198},"geometry":{"x":167496.61000000127,"y":2548044.1000000034}},{"attributes":{"ID":254203,"DIS_CODE":0,"TOWNNAME":"新營區","LI":"三仙里","LIN":"16鄰","STREET":"武昌街","SECT":" ","MAREA":" ","LANE":" ","ALLEY":" ","HOUSE_NO":"９４號之２","E_COORD97":179513.89999999999,"N_COORD97":2578299.3199999998,"ADDRESS":"武昌街９４號之２","OBJECTID":254199},"geometry":{"x":179513.90000000037,"y":2578299.320000004}},{"attributes":{"ID":254204,"DIS_CODE":0,"TOWNNAME":"永康區","LI":"建國里","LIN":"24鄰","STREET":"復興路","SECT":" ","MAREA":" ","LANE":" ","ALLEY":" ","HOUSE_NO":"７３號","E_COORD97":172876.54999999999,"N_COORD97":2544310.5699999998,"ADDRESS":"復興路７３號","OBJECTID":254200},"geometry":{"x":172876.55000000075,"y":2544310.5700000022}}]}