{"displayFieldName":"TOWNNAME","fieldAliases":{"ID":"ID","DIS_CODE":"DIS_CODE","TOWNNAME":"TOWNNAME","LI":"LI","LIN":"LIN","STREET":"STREET","SECT":"SECT","MAREA":"MAREA","LANE":"LANE","ALLEY":"ALLEY","HOUSE_NO":"HOUSE_NO","E_COORD97":"E_COORD97","N_COORD97":"N_COORD97","ADDRESS":"ADDRESS","OBJECTID":"OBJECTID"},"geometryType":"esriGeometryPoint","spatialReference":{"wkid":102443,"latestWkid":3826},"fields":[{"name":"ID","type":"esriFieldTypeDouble","alias":"ID"},{"name":"DIS_CODE","type":"esriFieldTypeInteger","alias":"DIS_CODE"},{"name":"TOWNNAME","type":"esriFieldTypeString","alias":"TOWNNAME","length":8},{"name":"LI","type":"esriFieldTypeString","alias":"LI","length":8},{"name":"LIN","type":"esriFieldTypeString","alias":"LIN","length":12},{"name":"STREET","type":"esriFieldTypeString","alias":"STREET","length":20},{"name":"SECT","type":"esriFieldTypeString","alias":"SECT","length":8},{"name":"MAREA","type":"esriFieldTypeString","alias":"MAREA","length":12},{"name":"LANE","type":"esriFieldTypeString","alias":"LANE","length":10},{"name":"ALLEY","type":"esriFieldTypeString","alias":"ALLEY","length":10},{"name":"HOUSE_NO","type":"esriFieldTypeString","alias":"HOUSE_NO","length":20},{"name":"E_COORD97","type":"esriFieldTypeDouble","alias":"E_COORD97"},{"name":"N_COORD97","type":"esriFieldTypeDouble","alias":"N_COORD97"},{"name":"ADDRESS","type":"esriFieldTypeString","alias":"ADDRESS","length":50},{"name":"OBJECTID","type":"esriFieldTypeOID","alias":"OBJECTID"}],"features":[{"attributes":{"ID":73801,"DIS_CODE":0,"TOWNNAME":"東區","LI":"大智里","LIN":"30鄰","STREET":"德東街","SECT":" ","MAREA":" ","LANE":"１５１巷","ALLEY":"３７弄","HOUSE_NO":"１６號七樓","E_COORD97":171136.47,"N_COORD97":2540437.96,"ADDRESS":"德東街１５１巷３７弄１６號七樓","OBJECTID":73801},"geometry":{"x":171136.47000000067,"y":2540437.9600000009}},{"attributes":{"ID":73802,"DIS_CODE":0,"TOWNNAME":"東區","LI":"大智里","LIN":"30鄰","STREET":"德東街","SECT":" ","MAREA":" ","LANE":"１５１巷","ALLEY":"３７弄","HOUSE_NO":"１６號二樓","E_COORD97":171136.47,"N_COORD97":2540437.96,"ADDRESS":"德東街１５１巷３７弄１６號二樓","OBJECTID":73802},"geometry":{"x":171136.47000000067,"y":2540437.9600000009}},{"attributes":{"ID":73803,"DIS_CODE":0,"TOWNNAME":"東區","LI":"大智里","LIN":"30鄰","STREET":"德東街","SECT":" ","MAREA":" ","LANE":"１５１巷","ALLEY":"３７弄","HOUSE_NO":"１６號八樓","E_COORD97":171136.47,"N_COORD97":2540437.96,"ADDRESS":"德東街１５１巷３７弄１６號八樓","OBJECTID":73803},"geometry":{"x":171136.47000000067,"y":2540437.9600000009}},{"attributes":{"ID":73804,"DIS_CODE":0,"TOWNNAME":"東區","LI":"大智里","LIN":"30鄰","STREET":"德東街","SECT":" ","MAREA":" ","LANE":"１５１巷","ALLEY":"３７弄","HOUSE_NO":"１６號三樓","E_COORD97":171136.47,"N_COORD97":2540437.96,"ADDRESS":"德東街１５１巷３７弄１６號三樓","OBJECTID":73804},"geometry":{"x":171136.47000000067,"y":2540437.9600000009}},{"attributes":{"ID":73805,"DIS_CODE":0,"TOWNNAME":"東區","LI":"大智里","LIN":"30鄰","STREET":"德東街","SECT":" ","MAREA":" ","LANE":"１５１巷","ALLEY":"３７弄","HOUSE_NO":"１６號五樓","E_COORD97":171136.47,"N_COORD97":2540437.96,"ADDRESS":"德東街１５１巷３７弄１６號五樓","OBJECTID":73805},"geometry":{"x":171136.47000000067,"y":2540437.9600000009}},{"attributes":{"ID":73806,"DIS_CODE":0,"TOWNNAME":"東區","LI":"大智里","LIN":"30鄰","STREET":"德東街","SECT":" ","MAREA":" ","LANE":"１５１巷","ALLEY":"３７弄","HOUSE_NO":"１６號六樓","E_COORD97":171136.47,"N_COORD97":2540437.96,"ADDRESS":"德東街１５１巷３７弄１６號六樓","OBJECTID":73806},"geometry":{"x":171136.47000000067,"y":2540437.9600000009}},{"attributes":{"ID":73807,"DIS_CODE":0,"TOWNNAME":"東區","LI":"大智里","LIN":"30鄰","STREET":"德東街","SECT":" ","MAREA":" ","LANE":"１５１巷","ALLEY":"３７弄","HOUSE_NO":"１６號四樓","E_COORD97":171136.47,"N_COORD97":2540437.96,"ADDRESS":"德東街１５１巷３７弄１６號四樓","OBJECTID":73807},"geometry":{"x":171136.47000000067,"y":2540437.9600000009}},{"attributes":{"ID":73808,"DIS_CODE":0,"TOWNNAME":"東區","LI":"大智里","LIN":"30鄰","STREET":"德東街","SECT":" ","MAREA":" ","LANE":"１５１巷","ALLEY":"３７弄","HOUSE_NO":"１８號七樓","E_COORD97":171137.64999999999,"N_COORD97":2540431.77,"ADDRESS":"德東街１５１巷３７弄１８號七樓","OBJECTID":73808},"geometry":{"x":171137.6500000013,"y":2540431.7700000033}},{"attributes":{"ID":73809,"DIS_CODE":0,"TOWNNAME":"東區","LI":"大智里","LIN":"30鄰","STREET":"德東街","SECT":" ","MAREA":" ","LANE":"１５１巷","ALLEY":"３７弄","HOUSE_NO":"１８號二樓","E_COORD97":171137.64999999999,"N_COORD97":2540431.77,"ADDRESS":"德東街１５１巷３７弄１８號二樓","OBJECTID":73809},"geometry":{"x":171137.6500000013,"y":2540431.7700000033}},{"attributes":{"ID":73810,"DIS_CODE":0,"TOWNNAME":"東區","LI":"大智里","LIN":"30鄰","STREET":"德東街","SECT":" ","MAREA":" ","LANE":"１５１巷","ALLEY":"３７弄","HOUSE_NO":"１８號三樓","E_COORD97":171137.64999999999,"N_COORD97":2540431.77,"ADDRESS":"德東街１５１巷３７弄１８號三樓","OBJECTID":73810},"geometry":{"x":171137.6500000013,"y":2540431.7700000033}},{"attributes":{"ID":73811,"DIS_CODE":0,"TOWNNAME":"東區","LI":"大智里","LIN":"30鄰","STREET":"德東街","SECT":" ","MAREA":" ","LANE":"１５１巷","ALLEY":"３７弄","HOUSE_NO":"１８號五樓","E_COORD97":171137.64999999999,"N_COORD97":2540431.77,"ADDRESS":"德東街１５１巷３７弄１８號五樓","OBJECTID":73811},"geometry":{"x":171137.6500000013,"y":2540431.7700000033}},{"attributes":{"ID":73812,"DIS_CODE":0,"TOWNNAME":"東區","LI":"大智里","LIN":"30鄰","STREET":"德東街","SECT":" ","MAREA":" ","LANE":"１５１巷","ALLEY":"３７弄","HOUSE_NO":"１８號六樓","E_COORD97":171137.64999999999,"N_COORD97":2540431.77,"ADDRESS":"德東街１５１巷３７弄１８號六樓","OBJECTID":73812},"geometry":{"x":171137.6500000013,"y":2540431.7700000033}},{"attributes":{"ID":73813,"DIS_CODE":0,"TOWNNAME":"東區","LI":"大智里","LIN":"30鄰","STREET":"德東街","SECT":" ","MAREA":" ","LANE":"１５１巷","ALLEY":"３７弄","HOUSE_NO":"１８號四樓","E_COORD97":171137.64999999999,"N_COORD97":2540431.77,"ADDRESS":"德東街１５１巷３７弄１８號四樓","OBJECTID":73813},"geometry":{"x":171137.6500000013,"y":2540431.7700000033}},{"attributes":{"ID":73814,"DIS_CODE":0,"TOWNNAME":"東區","LI":"大智里","LIN":"30鄰","STREET":"德東街","SECT":" ","MAREA":" ","LANE":"１５１巷","ALLEY":"３７弄","HOUSE_NO":"２０號七樓","E_COORD97":171137.64999999999,"N_COORD97":2540425.0699999998,"ADDRESS":"德東街１５１巷３７弄２０號七樓","OBJECTID":73814},"geometry":{"x":171137.6500000013,"y":2540425.0700000022}},{"attributes":{"ID":73815,"DIS_CODE":0,"TOWNNAME":"東區","LI":"大智里","LIN":"30鄰","STREET":"德東街","SECT":" ","MAREA":" ","LANE":"１５１巷","ALLEY":"３７弄","HOUSE_NO":"２０號二樓","E_COORD97":171137.64999999999,"N_COORD97":2540425.0699999998,"ADDRESS":"德東街１５１巷３７弄２０號二樓","OBJECTID":73815},"geometry":{"x":171137.6500000013,"y":2540425.0700000022}},{"attributes":{"ID":73816,"DIS_CODE":0,"TOWNNAME":"東區","LI":"大智里","LIN":"30鄰","STREET":"德東街","SECT":" ","MAREA":" ","LANE":"１５１巷","ALLEY":"３７弄","HOUSE_NO":"２０號八樓","E_COORD97":171137.64999999999,"N_COORD97":2540425.0699999998,"ADDRESS":"德東街１５１巷３７弄２０號八樓","OBJECTID":73816},"geometry":{"x":171137.6500000013,"y":2540425.0700000022}},{"attributes":{"ID":73817,"DIS_CODE":0,"TOWNNAME":"東區","LI":"大智里","LIN":"30鄰","STREET":"德東街","SECT":" ","MAREA":" ","LANE":"１５１巷","ALLEY":"３７弄","HOUSE_NO":"２０號三樓","E_COORD97":171137.64999999999,"N_COORD97":2540425.0699999998,"ADDRESS":"德東街１５１巷３７弄２０號三樓","OBJECTID":73817},"geometry":{"x":171137.6500000013,"y":2540425.0700000022}},{"attributes":{"ID":73818,"DIS_CODE":0,"TOWNNAME":"東區","LI":"大智里","LIN":"30鄰","STREET":"德東街","SECT":" ","MAREA":" ","LANE":"１５１巷","ALLEY":"３７弄","HOUSE_NO":"２０號五樓","E_COORD97":171137.64999999999,"N_COORD97":2540425.0699999998,"ADDRESS":"德東街１５１巷３７弄２０號五樓","OBJECTID":73818},"geometry":{"x":171137.6500000013,"y":2540425.0700000022}},{"attributes":{"ID":73819,"DIS_CODE":0,"TOWNNAME":"東區","LI":"大智里","LIN":"30鄰","STREET":"德東街","SECT":" ","MAREA":" ","LANE":"１５１巷","ALLEY":"３７弄","HOUSE_NO":"２０號六樓","E_COORD97":171137.64999999999,"N_COORD97":2540425.0699999998,"ADDRESS":"德東街１５１巷３７弄２０號六樓","OBJECTID":73819},"geometry":{"x":171137.6500000013,"y":2540425.0700000022}},{"attributes":{"ID":73820,"DIS_CODE":0,"TOWNNAME":"東區","LI":"大智里","LIN":"30鄰","STREET":"德東街","SECT":" ","MAREA":" ","LANE":"１５１巷","ALLEY":"３７弄","HOUSE_NO":"２０號四樓","E_COORD97":171137.64999999999,"N_COORD97":2540425.0699999998,"ADDRESS":"德東街１５１巷３７弄２０號四樓","OBJECTID":73820},"geometry":{"x":171137.6500000013,"y":2540425.0700000022}},{"attributes":{"ID":73821,"DIS_CODE":0,"TOWNNAME":"東區","LI":"大智里","LIN":"30鄰","STREET":"德東街","SECT":" ","MAREA":" ","LANE":"１５１巷","ALLEY":"３７弄","HOUSE_NO":"２２號七樓","E_COORD97":171137.64999999999,"N_COORD97":2540418.0499999998,"ADDRESS":"德東街１５１巷３７弄２２號七樓","OBJECTID":73821},"geometry":{"x":171137.6500000013,"y":2540418.0500000026}},{"attributes":{"ID":73822,"DIS_CODE":0,"TOWNNAME":"東區","LI":"大智里","LIN":"30鄰","STREET":"德東街","SECT":" ","MAREA":" ","LANE":"１５１巷","ALLEY":"３７弄","HOUSE_NO":"２２號二樓","E_COORD97":171137.64999999999,"N_COORD97":2540418.0499999998,"ADDRESS":"德東街１５１巷３７弄２２號二樓","OBJECTID":73822},"geometry":{"x":171137.6500000013,"y":2540418.0500000026}},{"attributes":{"ID":73823,"DIS_CODE":0,"TOWNNAME":"麻豆區","LI":"中興里","LIN":"8鄰","STREET":"和平路","SECT":" ","MAREA":" ","LANE":" ","ALLEY":" ","HOUSE_NO":"１２號之３７","E_COORD97":172908.14000000001,"N_COORD97":2564388.5099999998,"ADDRESS":"和平路１２號之３７","OBJECTID":73823},"geometry":{"x":172908.1400000006,"y":2564388.5099999998}},{"attributes":{"ID":73824,"DIS_CODE":0,"TOWNNAME":"東區","LI":"大智里","LIN":"30鄰","STREET":"德東街","SECT":" ","MAREA":" ","LANE":"１５１巷","ALLEY":"３７弄","HOUSE_NO":"２２號三樓","E_COORD97":171137.64999999999,"N_COORD97":2540418.0499999998,"ADDRESS":"德東街１５１巷３７弄２２號三樓","OBJECTID":73824},"geometry":{"x":171137.6500000013,"y":2540418.0500000026}},{"attributes":{"ID":73825,"DIS_CODE":0,"TOWNNAME":"東區","LI":"大智里","LIN":"30鄰","STREET":"德東街","SECT":" ","MAREA":" ","LANE":"１５１巷","ALLEY":"３７弄","HOUSE_NO":"２２號五樓","E_COORD97":171137.64999999999,"N_COORD97":2540418.0499999998,"ADDRESS":"德東街１５１巷３７弄２２號五樓","OBJECTID":73825},"geometry":{"x":171137.6500000013,"y":2540418.0500000026}},{"attributes":{"ID":73826,"DIS_CODE":0,"TOWNNAME":"東區","LI":"大智里","LIN":"30鄰","STREET":"德東街","SECT":" ","MAREA":" ","LANE":"１５１巷","ALLEY":"３７弄","HOUSE_NO":"２２號六樓","E_COORD97":171137.64999999999,"N_COORD97":2540418.0499999998,"ADDRESS":"德東街１５１巷３７弄２２號六樓","OBJECTID":73826},"geometry":{"x":171137.6500000013,"y":2540418.0500000026}},{"attributes":{"ID":73827,"DIS_CODE":0,"TOWNNAME":"東區","LI":"大智里","LIN":"30鄰","STREET":"德東街","SECT":" ","MAREA":" ","LANE":"１５１巷","ALLEY":"３７弄","HOUSE_NO":"２２號四樓","E_COORD97":171137.64999999999,"N_COORD97":2540418.0499999998,"ADDRESS":"德東街１５１巷３７弄２２號四樓","OBJECTID":73827},"geometry":{"x":171137.6500000013,"y":2540418.0500000026}},{"attributes":{"ID":73828,"DIS_CODE":0,"TOWNNAME":"東區","LI":"大智里","LIN":"30鄰","STREET":"德東街","SECT":" ","MAREA":" ","LANE":"１５１巷","ALLEY":"３７弄","HOUSE_NO":"２４號七樓","E_COORD97":171138.82000000001,"N_COORD97":2540408.3399999999,"ADDRESS":"德東街１５１巷３７弄２４號七樓","OBJECTID":73828},"geometry":{"x":171138.8200000003,"y":2540408.3400000017}},{"attributes":{"ID":73829,"DIS_CODE":0,"TOWNNAME":"東區","LI":"大智里","LIN":"30鄰","STREET":"德東街","SECT":" ","MAREA":" ","LANE":"１５１巷","ALLEY":"３７弄","HOUSE_NO":"２４號二樓","E_COORD97":171138.82000000001,"N_COORD97":2540408.3399999999,"ADDRESS":"德東街１５１巷３７弄２４號二樓","OBJECTID":73829},"geometry":{"x":171138.8200000003,"y":2540408.3400000017}},{"attributes":{"ID":73830,"DIS_CODE":0,"TOWNNAME":"東區","LI":"大智里","LIN":"30鄰","STREET":"德東街","SECT":" ","MAREA":" ","LANE":"１５１巷","ALLEY":"３７弄","HOUSE_NO":"２４號八樓","E_COORD97":171138.82000000001,"N_COORD97":2540408.3399999999,"ADDRESS":"德東街１５１巷３７弄２４號八樓","OBJECTID":73830},"geometry":{"x":171138.8200000003,"y":2540408.3400000017}},{"attributes":{"ID":73831,"DIS_CODE":0,"TOWNNAME":"東區","LI":"大智里","LIN":"30鄰","STREET":"德東街","SECT":" ","MAREA":" ","LANE":"１５１巷","ALLEY":"３７弄","HOUSE_NO":"２４號三樓","E_COORD97":171138.82000000001,"N_COORD97":2540408.3399999999,"ADDRESS":"德東街１５１巷３７弄２４號三樓","OBJECTID":73831},"geometry":{"x":171138.8200000003,"y":2540408.3400000017}},{"attributes":{"ID":73832,"DIS_CODE":0,"TOWNNAME":"東區","LI":"大智里","LIN":"30鄰","STREET":"德東街","SECT":" ","MAREA":" ","LANE":"１５１巷","ALLEY":"３７弄","HOUSE_NO":"２４號五樓","E_COORD97":171138.82000000001,"N_COORD97":2540408.3399999999,"ADDRESS":"德東街１５１巷３７弄２４號五樓","OBJECTID":73832},"geometry":{"x":171138.8200000003,"y":2540408.3400000017}},{"attributes":{"ID":73833,"DIS_CODE":0,"TOWNNAME":"東區","LI":"大智里","LIN":"30鄰","STREET":"德東街","SECT":" ","MAREA":" ","LANE":"１５１巷","ALLEY":"３７弄","HOUSE_NO":"２４號六樓","E_COORD97":171138.82000000001,"N_COORD97":2540408.3399999999,"ADDRESS":"德東街１５１巷３７弄２４號六樓","OBJECTID":73833},"geometry":{"x":171138.8200000003,"y":2540408.3400000017}},{"attributes":{"ID":73834,"DIS_CODE":0,"TOWNNAME":"東區","LI":"大智里","LIN":"30鄰","STREET":"德東街","SECT":" ","MAREA":" ","LANE":"１５１巷","ALLEY":"３７弄","HOUSE_NO":"２４號四樓","E_COORD97":171138.82000000001,"N_COORD97":2540408.3399999999,"ADDRESS":"德東街１５１巷３７弄２４號四樓","OBJECTID":73834},"geometry":{"x":171138.8200000003,"y":2540408.3400000017}},{"attributes":{"ID":73835,"DIS_CODE":0,"TOWNNAME":"東區","LI":"大智里","LIN":"30鄰","STREET":"德東街","SECT":" ","MAREA":" ","LANE":"１５１巷","ALLEY":"３７弄","HOUSE_NO":"２６號七樓","E_COORD97":171139.32000000001,"N_COORD97":2540401.6499999999,"ADDRESS":"德東街１５１巷３７弄２６號七樓","OBJECTID":73835},"geometry":{"x":171139.32000000123,"y":2540401.6500000004}},{"attributes":{"ID":73836,"DIS_CODE":0,"TOWNNAME":"東區","LI":"大智里","LIN":"30鄰","STREET":"德東街","SECT":" ","MAREA":" ","LANE":"１５１巷","ALLEY":"３７弄","HOUSE_NO":"２６號二樓","E_COORD97":171139.32000000001,"N_COORD97":2540401.6499999999,"ADDRESS":"德東街１５１巷３７弄２６號二樓","OBJECTID":73836},"geometry":{"x":171139.32000000123,"y":2540401.6500000004}},{"attributes":{"ID":73837,"DIS_CODE":0,"TOWNNAME":"東區","LI":"大智里","LIN":"30鄰","STREET":"德東街","SECT":" ","MAREA":" ","LANE":"１５１巷","ALLEY":"３７弄","HOUSE_NO":"２６號八樓","E_COORD97":171139.32000000001,"N_COORD97":2540401.6499999999,"ADDRESS":"德東街１５１巷３７弄２６號八樓","OBJECTID":73837},"geometry":{"x":171139.32000000123,"y":2540401.6500000004}},{"attributes":{"ID":73838,"DIS_CODE":0,"TOWNNAME":"佳里區","LI":"安西里","LIN":"30鄰","STREET":"佳西路","SECT":" ","MAREA":" ","LANE":"４９３巷","ALLEY":"２２弄","HOUSE_NO":"７號","E_COORD97":164884.70999999999,"N_COORD97":2563157.0099999998,"ADDRESS":"佳西路４９３巷２２弄７號","OBJECTID":73838},"geometry":{"x":164884.71000000089,"y":2563157.0100000016}},{"attributes":{"ID":73839,"DIS_CODE":0,"TOWNNAME":"東區","LI":"大智里","LIN":"30鄰","STREET":"德東街","SECT":" ","MAREA":" ","LANE":"１５１巷","ALLEY":"３７弄","HOUSE_NO":"２６號三樓","E_COORD97":171139.32000000001,"N_COORD97":2540401.6499999999,"ADDRESS":"德東街１５１巷３７弄２６號三樓","OBJECTID":73839},"geometry":{"x":171139.32000000123,"y":2540401.6500000004}},{"attributes":{"ID":73840,"DIS_CODE":0,"TOWNNAME":"東區","LI":"大智里","LIN":"30鄰","STREET":"德東街","SECT":" ","MAREA":" ","LANE":"１５１巷","ALLEY":"３７弄","HOUSE_NO":"２６號五樓","E_COORD97":171139.32000000001,"N_COORD97":2540401.6499999999,"ADDRESS":"德東街１５１巷３７弄２６號五樓","OBJECTID":73840},"geometry":{"x":171139.32000000123,"y":2540401.6500000004}},{"attributes":{"ID":73841,"DIS_CODE":0,"TOWNNAME":"東區","LI":"大智里","LIN":"30鄰","STREET":"德東街","SECT":" ","MAREA":" ","LANE":"１５１巷","ALLEY":"３７弄","HOUSE_NO":"２６號六樓","E_COORD97":171139.32000000001,"N_COORD97":2540401.6499999999,"ADDRESS":"德東街１５１巷３７弄２６號六樓","OBJECTID":73841},"geometry":{"x":171139.32000000123,"y":2540401.6500000004}},{"attributes":{"ID":73842,"DIS_CODE":0,"TOWNNAME":"東區","LI":"大智里","LIN":"30鄰","STREET":"德東街","SECT":" ","MAREA":" ","LANE":"１５１巷","ALLEY":"３７弄","HOUSE_NO":"２６號四樓","E_COORD97":171139.32000000001,"N_COORD97":2540401.6499999999,"ADDRESS":"德東街１５１巷３７弄２６號四樓","OBJECTID":73842},"geometry":{"x":171139.32000000123,"y":2540401.6500000004}},{"attributes":{"ID":73843,"DIS_CODE":0,"TOWNNAME":"東區","LI":"大智里","LIN":"30鄰","STREET":"德東街","SECT":" ","MAREA":" ","LANE":"１５１巷","ALLEY":"３７弄","HOUSE_NO":"２８號七樓","E_COORD97":171138.98999999999,"N_COORD97":2540393.2799999998,"ADDRESS":"德東街１５１巷３７弄２８號七樓","OBJECTID":73843},"geometry":{"x":171138.99000000022,"y":2540393.2799999993}},{"attributes":{"ID":73844,"DIS_CODE":0,"TOWNNAME":"東區","LI":"大智里","LIN":"30鄰","STREET":"德東街","SECT":" ","MAREA":" ","LANE":"１５１巷","ALLEY":"３７弄","HOUSE_NO":"２８號二樓","E_COORD97":171138.98999999999,"N_COORD97":2540393.2799999998,"ADDRESS":"德東街１５１巷３７弄２８號二樓","OBJECTID":73844},"geometry":{"x":171138.99000000022,"y":2540393.2799999993}},{"attributes":{"ID":73845,"DIS_CODE":0,"TOWNNAME":"東區","LI":"大智里","LIN":"30鄰","STREET":"德東街","SECT":" ","MAREA":" ","LANE":"１５１巷","ALLEY":"３７弄","HOUSE_NO":"２８號八樓","E_COORD97":171138.98999999999,"N_COORD97":2540393.2799999998,"ADDRESS":"德東街１５１巷３７弄２８號八樓","OBJECTID":73845},"geometry":{"x":171138.99000000022,"y":2540393.2799999993}},{"attributes":{"ID":73846,"DIS_CODE":0,"TOWNNAME":"東區","LI":"大智里","LIN":"30鄰","STREET":"德東街","SECT":" ","MAREA":" ","LANE":"１５１巷","ALLEY":"３７弄","HOUSE_NO":"２８號三樓","E_COORD97":171138.98999999999,"N_COORD97":2540393.2799999998,"ADDRESS":"德東街１５１巷３７弄２８號三樓","OBJECTID":73846},"geometry":{"x":171138.99000000022,"y":2540393.2799999993}},{"attributes":{"ID":73847,"DIS_CODE":0,"TOWNNAME":"東區","LI":"大智里","LIN":"30鄰","STREET":"德東街","SECT":" ","MAREA":" ","LANE":"１５１巷","ALLEY":"３７弄","HOUSE_NO":"２８號五樓","E_COORD97":171138.98999999999,"N_COORD97":2540393.2799999998,"ADDRESS":"德東街１５１巷３７弄２８號五樓","OBJECTID":73847},"geometry":{"x":171138.99000000022,"y":2540393.2799999993}},{"attributes":{"ID":73848,"DIS_CODE":0,"TOWNNAME":"東區","LI":"大智里","LIN":"30鄰","STREET":"德東街","SECT":" ","MAREA":" ","LANE":"１５１巷","ALLEY":"３７弄","HOUSE_NO":"２８號六樓","E_COORD97":171138.98999999999,"N_COORD97":2540393.2799999998,"ADDRESS":"德東街１５１巷３７弄２８號六樓","OBJECTID":73848},"geometry":{"x":171138.99000000022,"y":2540393.2799999993}},{"attributes":{"ID":73849,"DIS_CODE":0,"TOWNNAME":"東區","LI":"大智里","LIN":"30鄰","STREET":"德東街","SECT":" ","MAREA":" ","LANE":"１５１巷","ALLEY":"３７弄","HOUSE_NO":"２８號四樓","E_COORD97":171138.98999999999,"N_COORD97":2540393.2799999998,"ADDRESS":"德東街１５１巷３７弄２８號四樓","OBJECTID":73849},"geometry":{"x":171138.99000000022,"y":2540393.2799999993}},{"attributes":{"ID":73850,"DIS_CODE":0,"TOWNNAME":"東區","LI":"大智里","LIN":"30鄰","STREET":"德東街","SECT":" ","MAREA":" ","LANE":"１５１巷","ALLEY":"３７弄","HOUSE_NO":"３０號七樓","E_COORD97":171125.09,"N_COORD97":2540391.6099999999,"ADDRESS":"德東街１５１巷３７弄３０號七樓","OBJECTID":73850},"geometry":{"x":171125.09000000078,"y":2540391.6099999975}},{"attributes":{"ID":73851,"DIS_CODE":0,"TOWNNAME":"東區","LI":"大智里","LIN":"30鄰","STREET":"德東街","SECT":" ","MAREA":" ","LANE":"１５１巷","ALLEY":"３７弄","HOUSE_NO":"３０號二樓","E_COORD97":171125.09,"N_COORD97":2540391.6099999999,"ADDRESS":"德東街１５１巷３７弄３０號二樓","OBJECTID":73851},"geometry":{"x":171125.09000000078,"y":2540391.6099999975}},{"attributes":{"ID":73852,"DIS_CODE":0,"TOWNNAME":"東區","LI":"大智里","LIN":"30鄰","STREET":"德東街","SECT":" ","MAREA":" ","LANE":"１５１巷","ALLEY":"３７弄","HOUSE_NO":"３０號八樓","E_COORD97":171125.09,"N_COORD97":2540391.6099999999,"ADDRESS":"德東街１５１巷３７弄３０號八樓","OBJECTID":73852},"geometry":{"x":171125.09000000078,"y":2540391.6099999975}},{"attributes":{"ID":73853,"DIS_CODE":0,"TOWNNAME":"東區","LI":"大智里","LIN":"30鄰","STREET":"德東街","SECT":" ","MAREA":" ","LANE":"１５１巷","ALLEY":"３７弄","HOUSE_NO":"３０號三樓","E_COORD97":171125.09,"N_COORD97":2540391.6099999999,"ADDRESS":"德東街１５１巷３７弄３０號三樓","OBJECTID":73853},"geometry":{"x":171125.09000000078,"y":2540391.6099999975}},{"attributes":{"ID":73854,"DIS_CODE":0,"TOWNNAME":"東區","LI":"大智里","LIN":"30鄰","STREET":"德東街","SECT":" ","MAREA":" ","LANE":"１５１巷","ALLEY":"３７弄","HOUSE_NO":"３０號五樓","E_COORD97":171125.09,"N_COORD97":2540391.6099999999,"ADDRESS":"德東街１５１巷３７弄３０號五樓","OBJECTID":73854},"geometry":{"x":171125.09000000078,"y":2540391.6099999975}},{"attributes":{"ID":73855,"DIS_CODE":0,"TOWNNAME":"東區","LI":"大智里","LIN":"30鄰","STREET":"德東街","SECT":" ","MAREA":" ","LANE":"１５１巷","ALLEY":"３７弄","HOUSE_NO":"３０號六樓","E_COORD97":171125.09,"N_COORD97":2540391.6099999999,"ADDRESS":"德東街１５１巷３７弄３０號六樓","OBJECTID":73855},"geometry":{"x":171125.09000000078,"y":2540391.6099999975}},{"attributes":{"ID":73856,"DIS_CODE":0,"TOWNNAME":"東區","LI":"大智里","LIN":"30鄰","STREET":"德東街","SECT":" ","MAREA":" ","LANE":"１５１巷","ALLEY":"３７弄","HOUSE_NO":"３０號四樓","E_COORD97":171125.09,"N_COORD97":2540391.6099999999,"ADDRESS":"德東街１５１巷３７弄３０號四樓","OBJECTID":73856},"geometry":{"x":171125.09000000078,"y":2540391.6099999975}},{"attributes":{"ID":73857,"DIS_CODE":0,"TOWNNAME":"東區","LI":"大智里","LIN":"30鄰","STREET":"德東街","SECT":" ","MAREA":" ","LANE":"１５１巷","ALLEY":"３７弄","HOUSE_NO":"８號七樓","E_COORD97":171154.89000000001,"N_COORD97":2540394.96,"ADDRESS":"德東街１５１巷３７弄８號七樓","OBJECTID":73857},"geometry":{"x":171154.89000000153,"y":2540394.9600000028}},{"attributes":{"ID":73858,"DIS_CODE":0,"TOWNNAME":"東區","LI":"大智里","LIN":"30鄰","STREET":"德東街","SECT":" ","MAREA":" ","LANE":"１５１巷","ALLEY":"３７弄","HOUSE_NO":"８號七樓之１","E_COORD97":171154.89000000001,"N_COORD97":2540394.96,"ADDRESS":"德東街１５１巷３７弄８號七樓之１","OBJECTID":73858},"geometry":{"x":171154.89000000153,"y":2540394.9600000028}},{"attributes":{"ID":73859,"DIS_CODE":0,"TOWNNAME":"東區","LI":"大智里","LIN":"30鄰","STREET":"德東街","SECT":" ","MAREA":" ","LANE":"１５１巷","ALLEY":"３７弄","HOUSE_NO":"８號二樓","E_COORD97":171154.89000000001,"N_COORD97":2540394.96,"ADDRESS":"德東街１５１巷３７弄８號二樓","OBJECTID":73859},"geometry":{"x":171154.89000000153,"y":2540394.9600000028}},{"attributes":{"ID":73860,"DIS_CODE":0,"TOWNNAME":"東區","LI":"大智里","LIN":"30鄰","STREET":"德東街","SECT":" ","MAREA":" ","LANE":"１５１巷","ALLEY":"３７弄","HOUSE_NO":"８號二樓之１","E_COORD97":171154.89000000001,"N_COORD97":2540394.96,"ADDRESS":"德東街１５１巷３７弄８號二樓之１","OBJECTID":73860},"geometry":{"x":171154.89000000153,"y":2540394.9600000028}},{"attributes":{"ID":73861,"DIS_CODE":0,"TOWNNAME":"東區","LI":"大智里","LIN":"30鄰","STREET":"德東街","SECT":" ","MAREA":" ","LANE":"１５１巷","ALLEY":"３７弄","HOUSE_NO":"８號八樓","E_COORD97":171154.89000000001,"N_COORD97":2540394.96,"ADDRESS":"德東街１５１巷３７弄８號八樓","OBJECTID":73861},"geometry":{"x":171154.89000000153,"y":2540394.9600000028}},{"attributes":{"ID":73862,"DIS_CODE":0,"TOWNNAME":"東區","LI":"大智里","LIN":"30鄰","STREET":"德東街","SECT":" ","MAREA":" ","LANE":"１５１巷","ALLEY":"３７弄","HOUSE_NO":"８號八樓之１","E_COORD97":171154.89000000001,"N_COORD97":2540394.96,"ADDRESS":"德東街１５１巷３７弄８號八樓之１","OBJECTID":73862},"geometry":{"x":171154.89000000153,"y":2540394.9600000028}},{"attributes":{"ID":73863,"DIS_CODE":0,"TOWNNAME":"東區","LI":"大智里","LIN":"30鄰","STREET":"德東街","SECT":" ","MAREA":" ","LANE":"１５１巷","ALLEY":"３７弄","HOUSE_NO":"８號三樓","E_COORD97":171154.89000000001,"N_COORD97":2540394.96,"ADDRESS":"德東街１５１巷３７弄８號三樓","OBJECTID":73863},"geometry":{"x":171154.89000000153,"y":2540394.9600000028}},{"attributes":{"ID":73864,"DIS_CODE":0,"TOWNNAME":"東區","LI":"大智里","LIN":"30鄰","STREET":"德東街","SECT":" ","MAREA":" ","LANE":"１５１巷","ALLEY":"３７弄","HOUSE_NO":"８號三樓之１","E_COORD97":171154.89000000001,"N_COORD97":2540394.96,"ADDRESS":"德東街１５１巷３７弄８號三樓之１","OBJECTID":73864},"geometry":{"x":171154.89000000153,"y":2540394.9600000028}},{"attributes":{"ID":73865,"DIS_CODE":0,"TOWNNAME":"東區","LI":"大智里","LIN":"30鄰","STREET":"德東街","SECT":" ","MAREA":" ","LANE":"１５１巷","ALLEY":"３７弄","HOUSE_NO":"８號五樓","E_COORD97":171154.89000000001,"N_COORD97":2540394.96,"ADDRESS":"德東街１５１巷３７弄８號五樓","OBJECTID":73865},"geometry":{"x":171154.89000000153,"y":2540394.9600000028}},{"attributes":{"ID":73866,"DIS_CODE":0,"TOWNNAME":"東區","LI":"大智里","LIN":"30鄰","STREET":"德東街","SECT":" ","MAREA":" ","LANE":"１５１巷","ALLEY":"３７弄","HOUSE_NO":"８號五樓之１","E_COORD97":171154.89000000001,"N_COORD97":2540394.96,"ADDRESS":"德東街１５１巷３７弄８號五樓之１","OBJECTID":73866},"geometry":{"x":171154.89000000153,"y":2540394.9600000028}},{"attributes":{"ID":73867,"DIS_CODE":0,"TOWNNAME":"東區","LI":"大智里","LIN":"30鄰","STREET":"德東街","SECT":" ","MAREA":" ","LANE":"１５１巷","ALLEY":"３７弄","HOUSE_NO":"８號六樓","E_COORD97":171154.89000000001,"N_COORD97":2540394.96,"ADDRESS":"德東街１５１巷３７弄８號六樓","OBJECTID":73867},"geometry":{"x":171154.89000000153,"y":2540394.9600000028}},{"attributes":{"ID":73868,"DIS_CODE":0,"TOWNNAME":"東區","LI":"大智里","LIN":"30鄰","STREET":"德東街","SECT":" ","MAREA":" ","LANE":"１５１巷","ALLEY":"３７弄","HOUSE_NO":"８號六樓之１","E_COORD97":171154.89000000001,"N_COORD97":2540394.96,"ADDRESS":"德東街１５１巷３７弄８號六樓之１","OBJECTID":73868},"geometry":{"x":171154.89000000153,"y":2540394.9600000028}},{"attributes":{"ID":73869,"DIS_CODE":0,"TOWNNAME":"東區","LI":"大智里","LIN":"30鄰","STREET":"德東街","SECT":" ","MAREA":" ","LANE":"１５１巷","ALLEY":"３７弄","HOUSE_NO":"８號四樓","E_COORD97":171154.89000000001,"N_COORD97":2540394.96,"ADDRESS":"德東街１５１巷３７弄８號四樓","OBJECTID":73869},"geometry":{"x":171154.89000000153,"y":2540394.9600000028}},{"attributes":{"ID":73870,"DIS_CODE":0,"TOWNNAME":"東區","LI":"大智里","LIN":"30鄰","STREET":"德東街","SECT":" ","MAREA":" ","LANE":"１５１巷","ALLEY":"３７弄","HOUSE_NO":"８號四樓之１","E_COORD97":171154.89000000001,"N_COORD97":2540394.96,"ADDRESS":"德東街１５１巷３７弄８號四樓之１","OBJECTID":73870},"geometry":{"x":171154.89000000153,"y":2540394.9600000028}},{"attributes":{"ID":73871,"DIS_CODE":0,"TOWNNAME":"永康區","LI":"西勢里","LIN":"30鄰","STREET":"富強路","SECT":"一段","MAREA":" ","LANE":"２巷","ALLEY":"３１弄","HOUSE_NO":"３１號五樓","E_COORD97":175536.22,"N_COORD97":2545957.6200000001,"ADDRESS":"富強路一段２巷３１弄３１號五樓","OBJECTID":73871},"geometry":{"x":175536.21999999974,"y":2545957.6200000029}},{"attributes":{"ID":73872,"DIS_CODE":0,"TOWNNAME":"永康區","LI":"西勢里","LIN":"30鄰","STREET":"富強路","SECT":"一段","MAREA":" ","LANE":"２巷","ALLEY":"３１弄","HOUSE_NO":"１５號四樓","E_COORD97":175502.07000000001,"N_COORD97":2545921.2000000002,"ADDRESS":"富強路一段２巷３１弄１５號四樓","OBJECTID":73872},"geometry":{"x":175502.0700000003,"y":2545921.2000000011}},{"attributes":{"ID":73873,"DIS_CODE":0,"TOWNNAME":"永康區","LI":"西勢里","LIN":"30鄰","STREET":"富強路","SECT":"一段","MAREA":" ","LANE":"２巷","ALLEY":"３１弄","HOUSE_NO":"２９號五樓","E_COORD97":175539.73999999999,"N_COORD97":2545970.6200000001,"ADDRESS":"富強路一段２巷３１弄２９號五樓","OBJECTID":73873},"geometry":{"x":175539.74000000022,"y":2545970.6200000048}},{"attributes":{"ID":73874,"DIS_CODE":0,"TOWNNAME":"永康區","LI":"西勢里","LIN":"30鄰","STREET":"富強路","SECT":"一段","MAREA":" ","LANE":"２巷","ALLEY":"３１弄","HOUSE_NO":"１３號五樓","E_COORD97":175508.13,"N_COORD97":2545930.6299999999,"ADDRESS":"富強路一段２巷３１弄１３號五樓","OBJECTID":73874},"geometry":{"x":175508.12999999989,"y":2545930.629999999}},{"attributes":{"ID":73875,"DIS_CODE":0,"TOWNNAME":"永康區","LI":"西勢里","LIN":"30鄰","STREET":"富強路","SECT":"一段","MAREA":" ","LANE":"２巷","ALLEY":"３１弄","HOUSE_NO":"１７號五樓","E_COORD97":175525.26999999999,"N_COORD97":2545945.6200000001,"ADDRESS":"富強路一段２巷３１弄１７號五樓","OBJECTID":73875},"geometry":{"x":175525.26999999955,"y":2545945.620000001}},{"attributes":{"ID":73876,"DIS_CODE":0,"TOWNNAME":"永康區","LI":"西勢里","LIN":"30鄰","STREET":"富強路","SECT":"一段","MAREA":" ","LANE":"２巷","ALLEY":"３１弄","HOUSE_NO":"３１號七樓","E_COORD97":175536.22,"N_COORD97":2545957.6200000001,"ADDRESS":"富強路一段２巷３１弄３１號七樓","OBJECTID":73876},"geometry":{"x":175536.21999999974,"y":2545957.6200000029}},{"attributes":{"ID":73877,"DIS_CODE":0,"TOWNNAME":"麻豆區","LI":"中興里","LIN":"8鄰","STREET":"和平路","SECT":" ","MAREA":" ","LANE":" ","ALLEY":" ","HOUSE_NO":"１２號之３８","E_COORD97":172908.60000000001,"N_COORD97":2564383.8999999999,"ADDRESS":"和平路１２號之３８","OBJECTID":73877},"geometry":{"x":172908.60000000056,"y":2564383.9000000004}},{"attributes":{"ID":73878,"DIS_CODE":0,"TOWNNAME":"麻豆區","LI":"中興里","LIN":"8鄰","STREET":"和平路","SECT":" ","MAREA":" ","LANE":" ","ALLEY":" ","HOUSE_NO":"１２號之４","E_COORD97":172880.41,"N_COORD97":2564367.46,"ADDRESS":"和平路１２號之４","OBJECTID":73878},"geometry":{"x":172880.41000000015,"y":2564367.4600000009}},{"attributes":{"ID":73879,"DIS_CODE":0,"TOWNNAME":"永康區","LI":"西勢里","LIN":"30鄰","STREET":"富強路","SECT":"一段","MAREA":" ","LANE":"２巷","ALLEY":"３１弄","HOUSE_NO":"１９號六樓","E_COORD97":175520.20000000001,"N_COORD97":2545940.6200000001,"ADDRESS":"富強路一段２巷３１弄１９號六樓","OBJECTID":73879},"geometry":{"x":175520.20000000205,"y":2545940.6200000029}},{"attributes":{"ID":73880,"DIS_CODE":0,"TOWNNAME":"永康區","LI":"西勢里","LIN":"30鄰","STREET":"富強路","SECT":"一段","MAREA":" ","LANE":"２巷","ALLEY":"３１弄","HOUSE_NO":"１號六樓","E_COORD97":175491.12,"N_COORD97":2545911.23,"ADDRESS":"富強路一段２巷３１弄１號六樓","OBJECTID":73880},"geometry":{"x":175491.12000000011,"y":2545911.2300000004}},{"attributes":{"ID":73881,"DIS_CODE":0,"TOWNNAME":"永康區","LI":"南灣里","LIN":"33鄰","STREET":"南灣街","SECT":" ","MAREA":" ","LANE":"８７巷","ALLEY":"２弄","HOUSE_NO":"１２號","E_COORD97":174348.78,"N_COORD97":2544896.79,"ADDRESS":"南灣街８７巷２弄１２號","OBJECTID":73881},"geometry":{"x":174348.78000000119,"y":2544896.790000001}},{"attributes":{"ID":73882,"DIS_CODE":0,"TOWNNAME":"永康區","LI":"東橋里","LIN":"24鄰","STREET":"中正路","SECT":" ","MAREA":" ","LANE":"２１７巷","ALLEY":"３弄","HOUSE_NO":"６２號","E_COORD97":172817.01999999999,"N_COORD97":2547850.2400000002,"ADDRESS":"中正路２１７巷３弄６２號","OBJECTID":73882},"geometry":{"x":172817.02000000048,"y":2547850.2400000002}},{"attributes":{"ID":73883,"DIS_CODE":0,"TOWNNAME":"永康區","LI":"西勢里","LIN":"30鄰","STREET":"富強路","SECT":"一段","MAREA":" ","LANE":"２巷","ALLEY":"３１弄","HOUSE_NO":"１３號四樓","E_COORD97":175508.13,"N_COORD97":2545930.6299999999,"ADDRESS":"富強路一段２巷３１弄１３號四樓","OBJECTID":73883},"geometry":{"x":175508.12999999989,"y":2545930.629999999}},{"attributes":{"ID":73884,"DIS_CODE":0,"TOWNNAME":"永康區","LI":"埔園里","LIN":"36鄰","STREET":"永大路","SECT":"三段","MAREA":" ","LANE":"３６０巷","ALLEY":"１１弄","HOUSE_NO":"１３號","E_COORD97":174213.39999999999,"N_COORD97":2548243.0600000001,"ADDRESS":"永大路三段３６０巷１１弄１３號","OBJECTID":73884},"geometry":{"x":174213.40000000037,"y":2548243.0600000024}},{"attributes":{"ID":73885,"DIS_CODE":0,"TOWNNAME":"永康區","LI":"建國里","LIN":"31鄰","STREET":"復興路","SECT":" ","MAREA":" ","LANE":"７１巷","ALLEY":"１１２弄","HOUSE_NO":"４８號","E_COORD97":172725.28,"N_COORD97":2543665.7599999998,"ADDRESS":"復興路７１巷１１２弄４８號","OBJECTID":73885},"geometry":{"x":172725.28000000026,"y":2543665.7599999998}},{"attributes":{"ID":73886,"DIS_CODE":0,"TOWNNAME":"永康區","LI":"西勢里","LIN":"30鄰","STREET":"富強路","SECT":"一段","MAREA":" ","LANE":"２巷","ALLEY":"３１弄","HOUSE_NO":"２７號三樓之２","E_COORD97":175529.41,"N_COORD97":2545977.0099999998,"ADDRESS":"富強路一段２巷３１弄２７號三樓之２","OBJECTID":73886},"geometry":{"x":175529.41000000108,"y":2545977.0100000035}},{"attributes":{"ID":73887,"DIS_CODE":0,"TOWNNAME":"永康區","LI":"西勢里","LIN":"30鄰","STREET":"富強路","SECT":"一段","MAREA":" ","LANE":"２巷","ALLEY":"３１弄","HOUSE_NO":"５號四樓之２","E_COORD97":175492.39999999999,"N_COORD97":2545927.3999999999,"ADDRESS":"富強路一段２巷３１弄５號四樓之２","OBJECTID":73887},"geometry":{"x":175492.4000000013,"y":2545927.4000000041}},{"attributes":{"ID":73888,"DIS_CODE":0,"TOWNNAME":"永康區","LI":"西勢里","LIN":"30鄰","STREET":"富強路","SECT":"一段","MAREA":" ","LANE":"２巷","ALLEY":"３１弄","HOUSE_NO":"１號四樓","E_COORD97":175491.12,"N_COORD97":2545911.23,"ADDRESS":"富強路一段２巷３１弄１號四樓","OBJECTID":73888},"geometry":{"x":175491.12000000011,"y":2545911.2300000004}},{"attributes":{"ID":73889,"DIS_CODE":0,"TOWNNAME":"永康區","LI":"西勢里","LIN":"30鄰","STREET":"富強路","SECT":"一段","MAREA":" ","LANE":"２巷","ALLEY":"３１弄","HOUSE_NO":"２１號七樓之１","E_COORD97":175509.53,"N_COORD97":2545948.6400000001,"ADDRESS":"富強路一段２巷３１弄２１號七樓之１","OBJECTID":73889},"geometry":{"x":175509.53000000212,"y":2545948.6400000006}},{"attributes":{"ID":73890,"DIS_CODE":0,"TOWNNAME":"永康區","LI":"西勢里","LIN":"30鄰","STREET":"富強路","SECT":"一段","MAREA":" ","LANE":"２巷","ALLEY":"３１弄","HOUSE_NO":"２５號三樓","E_COORD97":175527.04999999999,"N_COORD97":2545967.1200000001,"ADDRESS":"富強路一段２巷３１弄２５號三樓","OBJECTID":73890},"geometry":{"x":175527.04999999981,"y":2545967.1200000048}},{"attributes":{"ID":73891,"DIS_CODE":0,"TOWNNAME":"永康區","LI":"西勢里","LIN":"30鄰","STREET":"富強路","SECT":"一段","MAREA":" ","LANE":"２巷","ALLEY":"３１弄","HOUSE_NO":"３１號四樓","E_COORD97":175536.22,"N_COORD97":2545957.6200000001,"ADDRESS":"富強路一段２巷３１弄３１號四樓","OBJECTID":73891},"geometry":{"x":175536.21999999974,"y":2545957.6200000029}},{"attributes":{"ID":73892,"DIS_CODE":0,"TOWNNAME":"佳里區","LI":"營頂里","LIN":"6鄰","STREET":" ","SECT":" ","MAREA":"營頂","LANE":" ","ALLEY":" ","HOUSE_NO":"７０號","E_COORD97":166961.19,"N_COORD97":2566610.0800000001,"ADDRESS":"營頂７０號","OBJECTID":73892},"geometry":{"x":166961.19000000041,"y":2566610.0800000001}},{"attributes":{"ID":73893,"DIS_CODE":0,"TOWNNAME":"永康區","LI":"西勢里","LIN":"30鄰","STREET":"富強路","SECT":"一段","MAREA":" ","LANE":"２巷","ALLEY":"３１弄","HOUSE_NO":"２１號七樓之２","E_COORD97":175509.66,"N_COORD97":2545948.6400000001,"ADDRESS":"富強路一段２巷３１弄２１號七樓之２","OBJECTID":73893},"geometry":{"x":175509.66000000015,"y":2545948.6400000006}},{"attributes":{"ID":73894,"DIS_CODE":0,"TOWNNAME":"永康區","LI":"東橋里","LIN":"24鄰","STREET":"中正路","SECT":" ","MAREA":" ","LANE":"２１７巷","ALLEY":"３弄","HOUSE_NO":"６８號","E_COORD97":172786.26999999999,"N_COORD97":2547857.9300000002,"ADDRESS":"中正路２１７巷３弄６８號","OBJECTID":73894},"geometry":{"x":172786.27000000142,"y":2547857.9299999997}},{"attributes":{"ID":73895,"DIS_CODE":0,"TOWNNAME":"永康區","LI":"西勢里","LIN":"30鄰","STREET":"富強路","SECT":"一段","MAREA":" ","LANE":"２巷","ALLEY":"３１弄","HOUSE_NO":"１３號六樓","E_COORD97":175508.13,"N_COORD97":2545930.6299999999,"ADDRESS":"富強路一段２巷３１弄１３號六樓","OBJECTID":73895},"geometry":{"x":175508.12999999989,"y":2545930.629999999}},{"attributes":{"ID":73896,"DIS_CODE":0,"TOWNNAME":"永康區","LI":"東橋里","LIN":"7鄰","STREET":"大橋一街","SECT":" ","MAREA":" ","LANE":"３２４巷","ALLEY":"７９弄","HOUSE_NO":"７號","E_COORD97":171476.22,"N_COORD97":2546499.23,"ADDRESS":"大橋一街３２４巷７９弄７號","OBJECTID":73896},"geometry":{"x":171476.21999999974,"y":2546499.2300000023}},{"attributes":{"ID":73897,"DIS_CODE":0,"TOWNNAME":"永康區","LI":"埔園里","LIN":"30鄰","STREET":"龍埔街","SECT":" ","MAREA":" ","LANE":"４３０巷","ALLEY":"３５弄","HOUSE_NO":"４９號","E_COORD97":173901.25,"N_COORD97":2548489.8300000001,"ADDRESS":"龍埔街４３０巷３５弄４９號","OBJECTID":73897},"geometry":{"x":173901.25000000093,"y":2548489.8300000001}},{"attributes":{"ID":73898,"DIS_CODE":0,"TOWNNAME":"永康區","LI":"埔園里","LIN":"38鄰","STREET":"龍國街","SECT":" ","MAREA":" ","LANE":"１２８巷","ALLEY":"２５弄","HOUSE_NO":"１１號","E_COORD97":174241.53,"N_COORD97":2547996.5899999999,"ADDRESS":"龍國街１２８巷２５弄１１號","OBJECTID":73898},"geometry":{"x":174241.53000000212,"y":2547996.5899999999}},{"attributes":{"ID":73899,"DIS_CODE":0,"TOWNNAME":"永康區","LI":"建國里","LIN":"31鄰","STREET":"復興路","SECT":" ","MAREA":" ","LANE":"７１巷","ALLEY":"１１２弄","HOUSE_NO":"５０號","E_COORD97":172721.63,"N_COORD97":2543662.5899999999,"ADDRESS":"復興路７１巷１１２弄５０號","OBJECTID":73899},"geometry":{"x":172721.63000000175,"y":2543662.5899999999}},{"attributes":{"ID":73900,"DIS_CODE":0,"TOWNNAME":"永康區","LI":"埔園里","LIN":"20鄰","STREET":"四維街","SECT":" ","MAREA":" ","LANE":"１０２巷","ALLEY":"２３弄","HOUSE_NO":"１３號","E_COORD97":173426.45999999999,"N_COORD97":2548276,"ADDRESS":"四維街１０２巷２３弄１３號","OBJECTID":73900},"geometry":{"x":173426.46000000089,"y":2548276.0000000037}},{"attributes":{"ID":73901,"DIS_CODE":0,"TOWNNAME":"永康區","LI":"東橋里","LIN":"7鄰","STREET":"大橋一街","SECT":" ","MAREA":" ","LANE":"３２４巷","ALLEY":"７９弄","HOUSE_NO":"３號","E_COORD97":171466.79999999999,"N_COORD97":2546492.23,"ADDRESS":"大橋一街３２４巷７９弄３號","OBJECTID":73901},"geometry":{"x":171466.79999999981,"y":2546492.2300000023}},{"attributes":{"ID":73902,"DIS_CODE":0,"TOWNNAME":"永康區","LI":"建國里","LIN":"30鄰","STREET":"復興路","SECT":" ","MAREA":" ","LANE":"７１巷","ALLEY":"１１２弄","HOUSE_NO":"７號","E_COORD97":172802.95000000001,"N_COORD97":2543657.6400000001,"ADDRESS":"復興路７１巷１１２弄７號","OBJECTID":73902},"geometry":{"x":172802.95000000112,"y":2543657.6400000043}},{"attributes":{"ID":73903,"DIS_CODE":0,"TOWNNAME":"永康區","LI":"埔園里","LIN":"38鄰","STREET":"龍國街","SECT":" ","MAREA":" ","LANE":"１２８巷","ALLEY":"２５弄","HOUSE_NO":"１號","E_COORD97":174213,"N_COORD97":2548000.48,"ADDRESS":"龍國街１２８巷２５弄１號","OBJECTID":73903},"geometry":{"x":174213.00000000093,"y":2548000.4800000004}},{"attributes":{"ID":73904,"DIS_CODE":0,"TOWNNAME":"柳營區","LI":"果毅里","LIN":"6鄰","STREET":" ","SECT":" ","MAREA":"果毅後","LANE":" ","ALLEY":" ","HOUSE_NO":"７２號之５","E_COORD97":185810.76999999999,"N_COORD97":2572901.1499999999,"ADDRESS":"果毅後７２號之５","OBJECTID":73904},"geometry":{"x":185810.77000000048,"y":2572901.1500000022}},{"attributes":{"ID":73905,"DIS_CODE":0,"TOWNNAME":"永康區","LI":"埔園里","LIN":"30鄰","STREET":"龍埔街","SECT":" ","MAREA":" ","LANE":"４３０巷","ALLEY":"３５弄","HOUSE_NO":"３１號","E_COORD97":173935.59,"N_COORD97":2548491.5,"ADDRESS":"龍埔街４３０巷３５弄３１號","OBJECTID":73905},"geometry":{"x":173935.59000000171,"y":2548491.5}},{"attributes":{"ID":73906,"DIS_CODE":0,"TOWNNAME":"永康區","LI":"東橋里","LIN":"4鄰","STREET":"大橋一街","SECT":" ","MAREA":" ","LANE":"３２４巷","ALLEY":"６１弄","HOUSE_NO":"７號","E_COORD97":171423.47,"N_COORD97":2546579.5299999998,"ADDRESS":"大橋一街３２４巷６１弄７號","OBJECTID":73906},"geometry":{"x":171423.46999999974,"y":2546579.5299999975}},{"attributes":{"ID":73907,"DIS_CODE":0,"TOWNNAME":"永康區","LI":"埔園里","LIN":"30鄰","STREET":"龍埔街","SECT":" ","MAREA":" ","LANE":"４３０巷","ALLEY":"３５弄","HOUSE_NO":"２５號","E_COORD97":173933.78,"N_COORD97":2548477.5,"ADDRESS":"龍埔街４３０巷３５弄２５號","OBJECTID":73907},"geometry":{"x":173933.78000000119,"y":2548477.5000000019}},{"attributes":{"ID":73908,"DIS_CODE":0,"TOWNNAME":"永康區","LI":"埔園里","LIN":"30鄰","STREET":"龍埔街","SECT":" ","MAREA":" ","LANE":"４３０巷","ALLEY":"３５弄","HOUSE_NO":"２７號","E_COORD97":173934.32000000001,"N_COORD97":2548482.25,"ADDRESS":"龍埔街４３０巷３５弄２７號","OBJECTID":73908},"geometry":{"x":173934.31999999937,"y":2548482.2500000019}},{"attributes":{"ID":73909,"DIS_CODE":0,"TOWNNAME":"南區","LI":"新興里","LIN":"15鄰","STREET":"三官路","SECT":" ","MAREA":" ","LANE":" ","ALLEY":" ","HOUSE_NO":"１號","E_COORD97":167355.54999999999,"N_COORD97":2542431.7799999998,"ADDRESS":"三官路１號","OBJECTID":73909},"geometry":{"x":167355.55000000075,"y":2542431.7800000031}},{"attributes":{"ID":73910,"DIS_CODE":0,"TOWNNAME":"永康區","LI":"埔園里","LIN":"38鄰","STREET":"龍國街","SECT":" ","MAREA":" ","LANE":"１２８巷","ALLEY":"２５弄","HOUSE_NO":"２８號","E_COORD97":174265.09,"N_COORD97":2547983.98,"ADDRESS":"龍國街１２８巷２５弄２８號","OBJECTID":73910},"geometry":{"x":174265.09000000078,"y":2547983.9800000004}},{"attributes":{"ID":73911,"DIS_CODE":0,"TOWNNAME":"永康區","LI":"埔園里","LIN":"34鄰","STREET":"永大路","SECT":"三段","MAREA":" ","LANE":"６２２巷","ALLEY":"９２弄","HOUSE_NO":"２號","E_COORD97":174071.28,"N_COORD97":2548932.23,"ADDRESS":"永大路三段６２２巷９２弄２號","OBJECTID":73911},"geometry":{"x":174071.28000000026,"y":2548932.2299999986}},{"attributes":{"ID":73912,"DIS_CODE":0,"TOWNNAME":"永康區","LI":"埔園里","LIN":"31鄰","STREET":"永大路","SECT":"三段","MAREA":" ","LANE":"４６９巷","ALLEY":"１６６弄","HOUSE_NO":"４５號","E_COORD97":173717.67999999999,"N_COORD97":2548887.5099999998,"ADDRESS":"永大路三段４６９巷１６６弄４５號","OBJECTID":73912},"geometry":{"x":173717.68000000156,"y":2548887.5099999998}},{"attributes":{"ID":73913,"DIS_CODE":0,"TOWNNAME":"永康區","LI":"埔園里","LIN":"30鄰","STREET":"龍埔街","SECT":" ","MAREA":" ","LANE":"４３０巷","ALLEY":"３５弄","HOUSE_NO":"１５號","E_COORD97":173961.32999999999,"N_COORD97":2548489.1899999999,"ADDRESS":"龍埔街４３０巷３５弄１５號","OBJECTID":73913},"geometry":{"x":173961.33000000194,"y":2548489.1900000013}},{"attributes":{"ID":73914,"DIS_CODE":0,"TOWNNAME":"永康區","LI":"神洲里","LIN":"10鄰","STREET":"忠孝路","SECT":" ","MAREA":" ","LANE":"１５２巷","ALLEY":"５７弄","HOUSE_NO":"６８號之１","E_COORD97":172476.60000000001,"N_COORD97":2545344.29,"ADDRESS":"忠孝路１５２巷５７弄６８號之１","OBJECTID":73914},"geometry":{"x":172476.59999999963,"y":2545344.290000001}},{"attributes":{"ID":73915,"DIS_CODE":0,"TOWNNAME":"永康區","LI":"正強里","LIN":"30鄰","STREET":"中正路","SECT":" ","MAREA":" ","LANE":"１５５巷","ALLEY":"１０弄","HOUSE_NO":"２３號","E_COORD97":173180.32000000001,"N_COORD97":2547735.7200000002,"ADDRESS":"中正路１５５巷１０弄２３號","OBJECTID":73915},"geometry":{"x":173180.32000000123,"y":2547735.7199999988}},{"attributes":{"ID":73916,"DIS_CODE":0,"TOWNNAME":"永康區","LI":"正強里","LIN":"30鄰","STREET":"中正路","SECT":" ","MAREA":" ","LANE":"１５５巷","ALLEY":"１０弄","HOUSE_NO":"２１號","E_COORD97":173185.04999999999,"N_COORD97":2547736.2200000002,"ADDRESS":"中正路１５５巷１０弄２１號","OBJECTID":73916},"geometry":{"x":173185.05000000075,"y":2547736.2200000025}},{"attributes":{"ID":73917,"DIS_CODE":0,"TOWNNAME":"永康區","LI":"正強里","LIN":"30鄰","STREET":"中正路","SECT":" ","MAREA":" ","LANE":"１５５巷","ALLEY":"１０弄","HOUSE_NO":"１９號","E_COORD97":173189.64999999999,"N_COORD97":2547736.7200000002,"ADDRESS":"中正路１５５巷１０弄１９號","OBJECTID":73917},"geometry":{"x":173189.64999999944,"y":2547736.7200000025}},{"attributes":{"ID":73918,"DIS_CODE":0,"TOWNNAME":"永康區","LI":"北灣里","LIN":"30鄰","STREET":"大同街","SECT":" ","MAREA":" ","LANE":"３３巷","ALLEY":"１１弄","HOUSE_NO":"６號","E_COORD97":175285.10999999999,"N_COORD97":2545344.5099999998,"ADDRESS":"大同街３３巷１１弄６號","OBJECTID":73918},"geometry":{"x":175285.1099999994,"y":2545344.5099999998}},{"attributes":{"ID":73919,"DIS_CODE":0,"TOWNNAME":"安南區","LI":"州北里","LIN":"30鄰","STREET":"安和路","SECT":"六段","MAREA":" ","LANE":"２０巷","ALLEY":"１３５弄","HOUSE_NO":"１１號","E_COORD97":169891.31,"N_COORD97":2552535.5099999998,"ADDRESS":"安和路六段２０巷１３５弄１１號","OBJECTID":73919},"geometry":{"x":169891.31000000052,"y":2552535.5099999998}},{"attributes":{"ID":73920,"DIS_CODE":0,"TOWNNAME":"安南區","LI":"州北里","LIN":"30鄰","STREET":"安和路","SECT":"六段","MAREA":" ","LANE":"２０巷","ALLEY":"１３５弄","HOUSE_NO":"１３號","E_COORD97":169890.89999999999,"N_COORD97":2552540.5099999998,"ADDRESS":"安和路六段２０巷１３５弄１３號","OBJECTID":73920},"geometry":{"x":169890.90000000224,"y":2552540.5100000035}},{"attributes":{"ID":73921,"DIS_CODE":0,"TOWNNAME":"柳營區","LI":"果毅里","LIN":"6鄰","STREET":" ","SECT":" ","MAREA":"果毅後","LANE":" ","ALLEY":" ","HOUSE_NO":"７２號之６","E_COORD97":185816.89999999999,"N_COORD97":2572900.52,"ADDRESS":"果毅後７２號之６","OBJECTID":73921},"geometry":{"x":185816.90000000037,"y":2572900.5200000014}},{"attributes":{"ID":73922,"DIS_CODE":0,"TOWNNAME":"柳營區","LI":"果毅里","LIN":"6鄰","STREET":" ","SECT":" ","MAREA":"果毅後","LANE":" ","ALLEY":" ","HOUSE_NO":"７２號","E_COORD97":185773.47,"N_COORD97":2572906.5099999998,"ADDRESS":"果毅後７２號","OBJECTID":73922},"geometry":{"x":185773.46999999974,"y":2572906.5100000035}},{"attributes":{"ID":73923,"DIS_CODE":0,"TOWNNAME":"柳營區","LI":"果毅里","LIN":"6鄰","STREET":" ","SECT":" ","MAREA":"果毅後","LANE":" ","ALLEY":" ","HOUSE_NO":"７５號之１","E_COORD97":185721.04000000001,"N_COORD97":2572933.1699999999,"ADDRESS":"果毅後７５號之１","OBJECTID":73923},"geometry":{"x":185721.0400000019,"y":2572933.1700000018}},{"attributes":{"ID":73924,"DIS_CODE":0,"TOWNNAME":"柳營區","LI":"果毅里","LIN":"6鄰","STREET":" ","SECT":" ","MAREA":"果毅後","LANE":" ","ALLEY":" ","HOUSE_NO":"７５之２號","E_COORD97":185720.89000000001,"N_COORD97":2572929.2000000002,"ADDRESS":"果毅後７５之２號","OBJECTID":73924},"geometry":{"x":185720.88999999966,"y":2572929.2000000011}},{"attributes":{"ID":73925,"DIS_CODE":0,"TOWNNAME":"柳營區","LI":"果毅里","LIN":"6鄰","STREET":" ","SECT":" ","MAREA":"果毅後","LANE":" ","ALLEY":" ","HOUSE_NO":"７５號","E_COORD97":185716.07000000001,"N_COORD97":2572944.1899999999,"ADDRESS":"果毅後７５號","OBJECTID":73925},"geometry":{"x":185716.07000000216,"y":2572944.1899999995}},{"attributes":{"ID":73926,"DIS_CODE":0,"TOWNNAME":"柳營區","LI":"果毅里","LIN":"6鄰","STREET":" ","SECT":" ","MAREA":"果毅後","LANE":" ","ALLEY":" ","HOUSE_NO":"７６號","E_COORD97":185736.32000000001,"N_COORD97":2572910.4700000002,"ADDRESS":"果毅後７６號","OBJECTID":73926},"geometry":{"x":185736.32000000216,"y":2572910.4700000007}},{"attributes":{"ID":73927,"DIS_CODE":0,"TOWNNAME":"安南區","LI":"州北里","LIN":"30鄰","STREET":"安和路","SECT":"六段","MAREA":" ","LANE":"２０巷","ALLEY":"１３５弄","HOUSE_NO":"１５號","E_COORD97":169891,"N_COORD97":2552545.8199999998,"ADDRESS":"安和路六段２０巷１３５弄１５號","OBJECTID":73927},"geometry":{"x":169891,"y":2552545.820000004}},{"attributes":{"ID":73928,"DIS_CODE":0,"TOWNNAME":"安南區","LI":"州北里","LIN":"30鄰","STREET":"安和路","SECT":"六段","MAREA":" ","LANE":"２０巷","ALLEY":"１３５弄","HOUSE_NO":"１７號","E_COORD97":169891.51000000001,"N_COORD97":2552550.6200000001,"ADDRESS":"安和路六段２０巷１３５弄１７號","OBJECTID":73928},"geometry":{"x":169891.51000000071,"y":2552550.620000001}},{"attributes":{"ID":73929,"DIS_CODE":0,"TOWNNAME":"南區","LI":"新興里","LIN":"15鄰","STREET":"三官路","SECT":" ","MAREA":" ","LANE":" ","ALLEY":" ","HOUSE_NO":"３號","E_COORD97":167354.72,"N_COORD97":2542427.0899999999,"ADDRESS":"三官路３號","OBJECTID":73929},"geometry":{"x":167354.71999999974,"y":2542427.0900000017}},{"attributes":{"ID":73930,"DIS_CODE":0,"TOWNNAME":"柳營區","LI":"東昇里","LIN":"6鄰","STREET":" ","SECT":" ","MAREA":"柳營","LANE":" ","ALLEY":" ","HOUSE_NO":"４１４之１５號","E_COORD97":180012.75,"N_COORD97":2575271.4900000002,"ADDRESS":"柳營４１４之１５號","OBJECTID":73930},"geometry":{"x":180012.75,"y":2575271.4900000021}},{"attributes":{"ID":73931,"DIS_CODE":0,"TOWNNAME":"柳營區","LI":"東昇里","LIN":"6鄰","STREET":" ","SECT":" ","MAREA":"柳營","LANE":" ","ALLEY":" ","HOUSE_NO":"４１４之１６號","E_COORD97":180008.59,"N_COORD97":2575269.1800000002,"ADDRESS":"柳營４１４之１６號","OBJECTID":73931},"geometry":{"x":180008.58999999985,"y":2575269.1800000016}},{"attributes":{"ID":73932,"DIS_CODE":0,"TOWNNAME":"柳營區","LI":"東昇里","LIN":"6鄰","STREET":" ","SECT":" ","MAREA":"柳營","LANE":" ","ALLEY":" ","HOUSE_NO":"４１４之７號","E_COORD97":180028.25,"N_COORD97":2575293.3900000001,"ADDRESS":"柳營４１４之７號","OBJECTID":73932},"geometry":{"x":180028.25,"y":2575293.3900000025}},{"attributes":{"ID":73933,"DIS_CODE":0,"TOWNNAME":"柳營區","LI":"東昇里","LIN":"6鄰","STREET":" ","SECT":" ","MAREA":"柳營","LANE":" ","ALLEY":" ","HOUSE_NO":"４１４之８號","E_COORD97":180034.59,"N_COORD97":2575288.7200000002,"ADDRESS":"柳營４１４之８號","OBJECTID":73933},"geometry":{"x":180034.58999999985,"y":2575288.7200000007}},{"attributes":{"ID":73934,"DIS_CODE":0,"TOWNNAME":"柳營區","LI":"東昇里","LIN":"6鄰","STREET":" ","SECT":" ","MAREA":"柳營","LANE":" ","ALLEY":" ","HOUSE_NO":"４１４之９號","E_COORD97":180033.67999999999,"N_COORD97":2575283.7200000002,"ADDRESS":"柳營４１４之９號","OBJECTID":73934},"geometry":{"x":180033.6799999997,"y":2575283.7200000025}},{"attributes":{"ID":73935,"DIS_CODE":0,"TOWNNAME":"柳營區","LI":"東昇里","LIN":"6鄰","STREET":" ","SECT":" ","MAREA":"柳營","LANE":" ","ALLEY":" ","HOUSE_NO":"４１６號","E_COORD97":180029.79000000001,"N_COORD97":2575232.3199999998,"ADDRESS":"柳營４１６號","OBJECTID":73935},"geometry":{"x":180029.79000000004,"y":2575232.3200000022}},{"attributes":{"ID":73936,"DIS_CODE":0,"TOWNNAME":"柳營區","LI":"旭山里","LIN":"6鄰","STREET":" ","SECT":" ","MAREA":"新吉庄","LANE":" ","ALLEY":" ","HOUSE_NO":"６１號之２","E_COORD97":187677.51999999999,"N_COORD97":2573886.4199999999,"ADDRESS":"新吉庄６１號之２","OBJECTID":73936},"geometry":{"x":187677.52000000048,"y":2573886.4199999999}},{"attributes":{"ID":73937,"DIS_CODE":0,"TOWNNAME":"柳營區","LI":"東昇里","LIN":"6鄰","STREET":" ","SECT":" ","MAREA":"柳營","LANE":" ","ALLEY":" ","HOUSE_NO":"４１７之１號","E_COORD97":180043.34,"N_COORD97":2575217.7799999998,"ADDRESS":"柳營４１７之１號","OBJECTID":73937},"geometry":{"x":180043.34000000171,"y":2575217.7800000012}},{"attributes":{"ID":73938,"DIS_CODE":0,"TOWNNAME":"柳營區","LI":"東昇里","LIN":"6鄰","STREET":" ","SECT":" ","MAREA":"柳營","LANE":" ","ALLEY":" ","HOUSE_NO":"４１７之３號","E_COORD97":180056.39000000001,"N_COORD97":2575226.21,"ADDRESS":"柳營４１７之３號","OBJECTID":73938},"geometry":{"x":180056.39000000153,"y":2575226.2100000028}},{"attributes":{"ID":73939,"DIS_CODE":0,"TOWNNAME":"柳營區","LI":"士林里","LIN":"6鄰","STREET":" ","SECT":" ","MAREA":"柳營","LANE":" ","ALLEY":" ","HOUSE_NO":"５３號之４","E_COORD97":179443.76000000001,"N_COORD97":2575343.9399999999,"ADDRESS":"柳營５３號之４","OBJECTID":73939},"geometry":{"x":179443.76000000164,"y":2575343.9399999995}},{"attributes":{"ID":73940,"DIS_CODE":0,"TOWNNAME":"柳營區","LI":"士林里","LIN":"6鄰","STREET":" ","SECT":" ","MAREA":"柳營","LANE":" ","ALLEY":" ","HOUSE_NO":"５３號之５","E_COORD97":179440.54999999999,"N_COORD97":2575371.9399999999,"ADDRESS":"柳營５３號之５","OBJECTID":73940},"geometry":{"x":179440.55000000075,"y":2575371.9400000013}},{"attributes":{"ID":73941,"DIS_CODE":0,"TOWNNAME":"柳營區","LI":"士林里","LIN":"6鄰","STREET":" ","SECT":" ","MAREA":"柳營","LANE":" ","ALLEY":" ","HOUSE_NO":"５３之６號","E_COORD97":179444.62,"N_COORD97":2575416.1400000001,"ADDRESS":"柳營５３之６號","OBJECTID":73941},"geometry":{"x":179444.62000000011,"y":2575416.1400000025}},{"attributes":{"ID":73942,"DIS_CODE":0,"TOWNNAME":"柳營區","LI":"士林里","LIN":"6鄰","STREET":" ","SECT":" ","MAREA":"柳營","LANE":" ","ALLEY":" ","HOUSE_NO":"５３號之６","E_COORD97":179444.62,"N_COORD97":2575416.1400000001,"ADDRESS":"柳營５３號之６","OBJECTID":73942},"geometry":{"x":179444.62000000011,"y":2575416.1400000025}},{"attributes":{"ID":73943,"DIS_CODE":0,"TOWNNAME":"柳營區","LI":"士林里","LIN":"6鄰","STREET":" ","SECT":" ","MAREA":"柳營","LANE":" ","ALLEY":" ","HOUSE_NO":"５３之７９號","E_COORD97":179401.07000000001,"N_COORD97":2575571.3799999999,"ADDRESS":"柳營５３之７９號","OBJECTID":73943},"geometry":{"x":179401.0700000003,"y":2575571.3800000027}},{"attributes":{"ID":73944,"DIS_CODE":0,"TOWNNAME":"柳營區","LI":"士林里","LIN":"6鄰","STREET":" ","SECT":" ","MAREA":"柳營","LANE":" ","ALLEY":" ","HOUSE_NO":"５３號之７９","E_COORD97":179401.07000000001,"N_COORD97":2575571.3799999999,"ADDRESS":"柳營５３號之７９","OBJECTID":73944},"geometry":{"x":179401.0700000003,"y":2575571.3800000027}},{"attributes":{"ID":73945,"DIS_CODE":0,"TOWNNAME":"柳營區","LI":"士林里","LIN":"6鄰","STREET":" ","SECT":" ","MAREA":"柳營","LANE":" ","ALLEY":" ","HOUSE_NO":"５３之９號","E_COORD97":179409.57000000001,"N_COORD97":2575480.8399999999,"ADDRESS":"柳營５３之９號","OBJECTID":73945},"geometry":{"x":179409.5700000003,"y":2575480.839999998}},{"attributes":{"ID":73946,"DIS_CODE":0,"TOWNNAME":"柳營區","LI":"士林里","LIN":"6鄰","STREET":" ","SECT":" ","MAREA":"柳營","LANE":" ","ALLEY":" ","HOUSE_NO":"５３號之９","E_COORD97":179409.57000000001,"N_COORD97":2575480.8399999999,"ADDRESS":"柳營５３號之９","OBJECTID":73946},"geometry":{"x":179409.5700000003,"y":2575480.839999998}},{"attributes":{"ID":73947,"DIS_CODE":0,"TOWNNAME":"東山區","LI":"科里里","LIN":"6鄰","STREET":" ","SECT":" ","MAREA":"科里","LANE":" ","ALLEY":" ","HOUSE_NO":"１６號","E_COORD97":189885.37,"N_COORD97":2578325.7400000002,"ADDRESS":"科里１６號","OBJECTID":73947},"geometry":{"x":189885.37000000011,"y":2578325.7400000002}},{"attributes":{"ID":73948,"DIS_CODE":0,"TOWNNAME":"柳營區","LI":"中埕里","LIN":"6鄰","STREET":" ","SECT":" ","MAREA":"柳營","LANE":" ","ALLEY":" ","HOUSE_NO":"３２０號","E_COORD97":179871.64000000001,"N_COORD97":2575202.6499999999,"ADDRESS":"柳營３２０號","OBJECTID":73948},"geometry":{"x":179871.64000000153,"y":2575202.6500000022}},{"attributes":{"ID":73949,"DIS_CODE":0,"TOWNNAME":"柳營區","LI":"中埕里","LIN":"6鄰","STREET":" ","SECT":" ","MAREA":"柳營","LANE":" ","ALLEY":" ","HOUSE_NO":"３２１號","E_COORD97":179861.64000000001,"N_COORD97":2575203.8500000001,"ADDRESS":"柳營３２１號","OBJECTID":73949},"geometry":{"x":179861.6400000006,"y":2575203.8500000015}},{"attributes":{"ID":73950,"DIS_CODE":0,"TOWNNAME":"柳營區","LI":"中埕里","LIN":"6鄰","STREET":" ","SECT":" ","MAREA":"柳營","LANE":" ","ALLEY":" ","HOUSE_NO":"３２２號之１","E_COORD97":179868.56,"N_COORD97":2575173.73,"ADDRESS":"柳營３２２號之１","OBJECTID":73950},"geometry":{"x":179868.56000000145,"y":2575173.7299999986}},{"attributes":{"ID":73951,"DIS_CODE":0,"TOWNNAME":"柳營區","LI":"中埕里","LIN":"6鄰","STREET":" ","SECT":" ","MAREA":"柳營","LANE":" ","ALLEY":" ","HOUSE_NO":"３２２號之２","E_COORD97":179875.38,"N_COORD97":2575168.5,"ADDRESS":"柳營３２２號之２","OBJECTID":73951},"geometry":{"x":179875.38000000082,"y":2575168.5000000037}},{"attributes":{"ID":73952,"DIS_CODE":0,"TOWNNAME":"柳營區","LI":"中埕里","LIN":"6鄰","STREET":" ","SECT":" ","MAREA":"柳營","LANE":" ","ALLEY":" ","HOUSE_NO":"３２２號之３","E_COORD97":179877.07999999999,"N_COORD97":2575164.29,"ADDRESS":"柳營３２２號之３","OBJECTID":73952},"geometry":{"x":179877.08000000007,"y":2575164.2899999991}},{"attributes":{"ID":73953,"DIS_CODE":0,"TOWNNAME":"柳營區","LI":"中埕里","LIN":"6鄰","STREET":" ","SECT":" ","MAREA":"柳營","LANE":" ","ALLEY":" ","HOUSE_NO":"３２２號","E_COORD97":179865.82000000001,"N_COORD97":2575182.8799999999,"ADDRESS":"柳營３２２號","OBJECTID":73953},"geometry":{"x":179865.82000000216,"y":2575182.8800000008}},{"attributes":{"ID":73954,"DIS_CODE":0,"TOWNNAME":"柳營區","LI":"中埕里","LIN":"6鄰","STREET":" ","SECT":" ","MAREA":"柳營","LANE":" ","ALLEY":" ","HOUSE_NO":"３２５號之１","E_COORD97":179881.76000000001,"N_COORD97":2575151.5,"ADDRESS":"柳營３２５號之１","OBJECTID":73954},"geometry":{"x":179881.76000000071,"y":2575151.5000000037}},{"attributes":{"ID":73955,"DIS_CODE":0,"TOWNNAME":"柳營區","LI":"中埕里","LIN":"6鄰","STREET":" ","SECT":" ","MAREA":"柳營","LANE":" ","ALLEY":" ","HOUSE_NO":"３２５號","E_COORD97":179878.76000000001,"N_COORD97":2575158.04,"ADDRESS":"柳營３２５號","OBJECTID":73955},"geometry":{"x":179878.75999999978,"y":2575158.040000001}},{"attributes":{"ID":73956,"DIS_CODE":0,"TOWNNAME":"柳營區","LI":"中埕里","LIN":"6鄰","STREET":" ","SECT":" ","MAREA":"柳營","LANE":" ","ALLEY":" ","HOUSE_NO":"３２６號","E_COORD97":179896.97,"N_COORD97":2575147.5099999998,"ADDRESS":"柳營３２６號","OBJECTID":73956},"geometry":{"x":179896.97000000067,"y":2575147.5100000035}},{"attributes":{"ID":73957,"DIS_CODE":0,"TOWNNAME":"柳營區","LI":"東昇里","LIN":"6鄰","STREET":" ","SECT":" ","MAREA":"柳營","LANE":" ","ALLEY":" ","HOUSE_NO":"４１３之２號","E_COORD97":180000.48999999999,"N_COORD97":2575296.4100000001,"ADDRESS":"柳營４１３之２號","OBJECTID":73957},"geometry":{"x":180000.49000000115,"y":2575296.4100000001}},{"attributes":{"ID":73958,"DIS_CODE":0,"TOWNNAME":"佳里區","LI":"營頂里","LIN":"6鄰","STREET":" ","SECT":" ","MAREA":"營頂","LANE":" ","ALLEY":" ","HOUSE_NO":"７１號","E_COORD97":166956.54999999999,"N_COORD97":2566627.6099999999,"ADDRESS":"營頂７１號","OBJECTID":73958},"geometry":{"x":166956.54999999888,"y":2566627.6100000013}},{"attributes":{"ID":73959,"DIS_CODE":0,"TOWNNAME":"柳營區","LI":"東昇里","LIN":"6鄰","STREET":" ","SECT":" ","MAREA":"柳營","LANE":" ","ALLEY":" ","HOUSE_NO":"４１３號","E_COORD97":180007.92999999999,"N_COORD97":2575305.8799999999,"ADDRESS":"柳營４１３號","OBJECTID":73959},"geometry":{"x":180007.9299999997,"y":2575305.879999999}},{"attributes":{"ID":73960,"DIS_CODE":0,"TOWNNAME":"柳營區","LI":"東昇里","LIN":"6鄰","STREET":" ","SECT":" ","MAREA":"柳營","LANE":" ","ALLEY":" ","HOUSE_NO":"４１４之１３號","E_COORD97":180032.66,"N_COORD97":2575274.3599999999,"ADDRESS":"柳營４１４之１３號","OBJECTID":73960},"geometry":{"x":180032.66000000015,"y":2575274.3600000013}},{"attributes":{"ID":73961,"DIS_CODE":0,"TOWNNAME":"柳營區","LI":"東昇里","LIN":"6鄰","STREET":" ","SECT":" ","MAREA":"柳營","LANE":" ","ALLEY":" ","HOUSE_NO":"４１４號之１４","E_COORD97":180017,"N_COORD97":2575279.5499999998,"ADDRESS":"柳營４１４號之１４","OBJECTID":73961},"geometry":{"x":180017.00000000186,"y":2575279.5500000007}},{"attributes":{"ID":73962,"DIS_CODE":0,"TOWNNAME":"柳營區","LI":"士林里","LIN":"6鄰","STREET":" ","SECT":" ","MAREA":"柳營","LANE":" ","ALLEY":" ","HOUSE_NO":"５１號","E_COORD97":179429.5,"N_COORD97":2575211.3999999999,"ADDRESS":"柳營５１號","OBJECTID":73962},"geometry":{"x":179429.50000000093,"y":2575211.4000000022}},{"attributes":{"ID":73963,"DIS_CODE":0,"TOWNNAME":"柳營區","LI":"士林里","LIN":"6鄰","STREET":" ","SECT":" ","MAREA":"柳營","LANE":" ","ALLEY":" ","HOUSE_NO":"５２之１號","E_COORD97":179419.66,"N_COORD97":2575301.5699999998,"ADDRESS":"柳營５２之１號","OBJECTID":73963},"geometry":{"x":179419.66000000108,"y":2575301.5700000022}},{"attributes":{"ID":73964,"DIS_CODE":0,"TOWNNAME":"麻豆區","LI":"中興里","LIN":"8鄰","STREET":"和平路","SECT":" ","MAREA":" ","LANE":" ","ALLEY":" ","HOUSE_NO":"１２號之５","E_COORD97":172884.88,"N_COORD97":2564368.3300000001,"ADDRESS":"和平路１２號之５","OBJECTID":73964},"geometry":{"x":172884.88000000082,"y":2564368.3300000019}},{"attributes":{"ID":73965,"DIS_CODE":0,"TOWNNAME":"柳營區","LI":"士林里","LIN":"6鄰","STREET":" ","SECT":" ","MAREA":"柳營","LANE":" ","ALLEY":" ","HOUSE_NO":"５２號之１","E_COORD97":179419.66,"N_COORD97":2575301.5699999998,"ADDRESS":"柳營５２號之１","OBJECTID":73965},"geometry":{"x":179419.66000000108,"y":2575301.5700000022}},{"attributes":{"ID":73966,"DIS_CODE":0,"TOWNNAME":"柳營區","LI":"士林里","LIN":"6鄰","STREET":" ","SECT":" ","MAREA":"柳營","LANE":" ","ALLEY":" ","HOUSE_NO":"５２號之２","E_COORD97":179406.57999999999,"N_COORD97":2575307.3999999999,"ADDRESS":"柳營５２號之２","OBJECTID":73966},"geometry":{"x":179406.58000000101,"y":2575307.4000000004}},{"attributes":{"ID":73967,"DIS_CODE":0,"TOWNNAME":"柳營區","LI":"士林里","LIN":"6鄰","STREET":" ","SECT":" ","MAREA":"柳營","LANE":" ","ALLEY":" ","HOUSE_NO":"５２之７１號","E_COORD97":179377.10000000001,"N_COORD97":2575319.4500000002,"ADDRESS":"柳營５２之７１號","OBJECTID":73967},"geometry":{"x":179377.10000000056,"y":2575319.4499999993}},{"attributes":{"ID":73968,"DIS_CODE":0,"TOWNNAME":"柳營區","LI":"士林里","LIN":"6鄰","STREET":" ","SECT":" ","MAREA":"柳營","LANE":" ","ALLEY":" ","HOUSE_NO":"５２號之７１","E_COORD97":179377.10000000001,"N_COORD97":2575319.4500000002,"ADDRESS":"柳營５２號之７１","OBJECTID":73968},"geometry":{"x":179377.10000000056,"y":2575319.4499999993}},{"attributes":{"ID":73969,"DIS_CODE":0,"TOWNNAME":"柳營區","LI":"士林里","LIN":"6鄰","STREET":" ","SECT":" ","MAREA":"柳營","LANE":" ","ALLEY":" ","HOUSE_NO":"５２號之７６","E_COORD97":179357.56,"N_COORD97":2575325,"ADDRESS":"柳營５２號之７６","OBJECTID":73969},"geometry":{"x":179357.55999999959,"y":2575325.0000000019}},{"attributes":{"ID":73970,"DIS_CODE":0,"TOWNNAME":"柳營區","LI":"士林里","LIN":"6鄰","STREET":" ","SECT":" ","MAREA":"柳營","LANE":" ","ALLEY":" ","HOUSE_NO":"５２之７７號","E_COORD97":179352.03,"N_COORD97":2575324.4399999999,"ADDRESS":"柳營５２之７７號","OBJECTID":73970},"geometry":{"x":179352.03000000026,"y":2575324.4400000013}},{"attributes":{"ID":73971,"DIS_CODE":0,"TOWNNAME":"柳營區","LI":"士林里","LIN":"6鄰","STREET":" ","SECT":" ","MAREA":"柳營","LANE":" ","ALLEY":" ","HOUSE_NO":"５２之７９號","E_COORD97":179382.60999999999,"N_COORD97":2575344.98,"ADDRESS":"柳營５２之７９號","OBJECTID":73971},"geometry":{"x":179382.6100000022,"y":2575344.9799999986}},{"attributes":{"ID":73972,"DIS_CODE":0,"TOWNNAME":"柳營區","LI":"士林里","LIN":"6鄰","STREET":" ","SECT":" ","MAREA":"柳營","LANE":" ","ALLEY":" ","HOUSE_NO":"５２號之７９","E_COORD97":179382.60999999999,"N_COORD97":2575344.98,"ADDRESS":"柳營５２號之７９","OBJECTID":73972},"geometry":{"x":179382.6100000022,"y":2575344.9799999986}},{"attributes":{"ID":73973,"DIS_CODE":0,"TOWNNAME":"柳營區","LI":"士林里","LIN":"6鄰","STREET":" ","SECT":" ","MAREA":"柳營","LANE":" ","ALLEY":" ","HOUSE_NO":"５２之８０號","E_COORD97":179377.20000000001,"N_COORD97":2575344.3300000001,"ADDRESS":"柳營５２之８０號","OBJECTID":73973},"geometry":{"x":179377.20000000112,"y":2575344.3300000001}},{"attributes":{"ID":73974,"DIS_CODE":0,"TOWNNAME":"柳營區","LI":"士林里","LIN":"6鄰","STREET":" ","SECT":" ","MAREA":"柳營","LANE":" ","ALLEY":" ","HOUSE_NO":"５２之８１號","E_COORD97":179371.67000000001,"N_COORD97":2575344.0800000001,"ADDRESS":"柳營５２之８１號","OBJECTID":73974},"geometry":{"x":179371.67000000086,"y":2575344.0800000038}},{"attributes":{"ID":73975,"DIS_CODE":0,"TOWNNAME":"柳營區","LI":"士林里","LIN":"6鄰","STREET":" ","SECT":" ","MAREA":"柳營","LANE":" ","ALLEY":" ","HOUSE_NO":"５２號之８１","E_COORD97":179371.67000000001,"N_COORD97":2575344.0800000001,"ADDRESS":"柳營５２號之８１","OBJECTID":73975},"geometry":{"x":179371.67000000086,"y":2575344.0800000038}},{"attributes":{"ID":73976,"DIS_CODE":0,"TOWNNAME":"柳營區","LI":"士林里","LIN":"6鄰","STREET":" ","SECT":" ","MAREA":"柳營","LANE":" ","ALLEY":" ","HOUSE_NO":"５２之８２號","E_COORD97":179366.42000000001,"N_COORD97":2575343.7000000002,"ADDRESS":"柳營５２之８２號","OBJECTID":73976},"geometry":{"x":179366.42000000179,"y":2575343.7000000011}},{"attributes":{"ID":73977,"DIS_CODE":0,"TOWNNAME":"柳營區","LI":"士林里","LIN":"6鄰","STREET":" ","SECT":" ","MAREA":"柳營","LANE":" ","ALLEY":" ","HOUSE_NO":"５２號之８２","E_COORD97":179366.42000000001,"N_COORD97":2575343.7000000002,"ADDRESS":"柳營５２號之８２","OBJECTID":73977},"geometry":{"x":179366.42000000179,"y":2575343.7000000011}},{"attributes":{"ID":73978,"DIS_CODE":0,"TOWNNAME":"柳營區","LI":"士林里","LIN":"6鄰","STREET":" ","SECT":" ","MAREA":"柳營","LANE":" ","ALLEY":" ","HOUSE_NO":"５２之８５號","E_COORD97":179350.28,"N_COORD97":2575342,"ADDRESS":"柳營５２之８５號","OBJECTID":73978},"geometry":{"x":179350.28000000026,"y":2575342.0000000019}},{"attributes":{"ID":73979,"DIS_CODE":0,"TOWNNAME":"柳營區","LI":"士林里","LIN":"6鄰","STREET":" ","SECT":" ","MAREA":"柳營","LANE":" ","ALLEY":" ","HOUSE_NO":"５２號之８５","E_COORD97":179350.28,"N_COORD97":2575342,"ADDRESS":"柳營５２號之８５","OBJECTID":73979},"geometry":{"x":179350.28000000026,"y":2575342.0000000019}},{"attributes":{"ID":73980,"DIS_CODE":0,"TOWNNAME":"柳營區","LI":"士林里","LIN":"6鄰","STREET":" ","SECT":" ","MAREA":"柳營","LANE":" ","ALLEY":" ","HOUSE_NO":"５２之８７號","E_COORD97":179381.82000000001,"N_COORD97":2575357.4300000002,"ADDRESS":"柳營５２之８７號","OBJECTID":73980},"geometry":{"x":179381.82000000123,"y":2575357.4299999997}},{"attributes":{"ID":73981,"DIS_CODE":0,"TOWNNAME":"柳營區","LI":"士林里","LIN":"6鄰","STREET":" ","SECT":" ","MAREA":"柳營","LANE":" ","ALLEY":" ","HOUSE_NO":"５２之８８號","E_COORD97":179376.22,"N_COORD97":2575357.3900000001,"ADDRESS":"柳營５２之８８號","OBJECTID":73981},"geometry":{"x":179376.22000000067,"y":2575357.3900000025}},{"attributes":{"ID":73982,"DIS_CODE":0,"TOWNNAME":"柳營區","LI":"士林里","LIN":"6鄰","STREET":" ","SECT":" ","MAREA":"柳營","LANE":" ","ALLEY":" ","HOUSE_NO":"５２之８９號","E_COORD97":179370.76000000001,"N_COORD97":2575357.3900000001,"ADDRESS":"柳營５２之８９號","OBJECTID":73982},"geometry":{"x":179370.76000000164,"y":2575357.3900000025}},{"attributes":{"ID":73983,"DIS_CODE":0,"TOWNNAME":"柳營區","LI":"士林里","LIN":"6鄰","STREET":" ","SECT":" ","MAREA":"柳營","LANE":" ","ALLEY":" ","HOUSE_NO":"５２之９０號","E_COORD97":179362.94,"N_COORD97":2575357.0899999999,"ADDRESS":"柳營５２之９０號","OBJECTID":73983},"geometry":{"x":179362.94000000041,"y":2575357.089999998}},{"attributes":{"ID":73984,"DIS_CODE":0,"TOWNNAME":"柳營區","LI":"士林里","LIN":"6鄰","STREET":" ","SECT":" ","MAREA":"柳營","LANE":" ","ALLEY":" ","HOUSE_NO":"５２號之９０","E_COORD97":179362.94,"N_COORD97":2575357.0899999999,"ADDRESS":"柳營５２號之９０","OBJECTID":73984},"geometry":{"x":179362.94000000041,"y":2575357.089999998}},{"attributes":{"ID":73985,"DIS_CODE":0,"TOWNNAME":"柳營區","LI":"士林里","LIN":"6鄰","STREET":" ","SECT":" ","MAREA":"柳營","LANE":" ","ALLEY":" ","HOUSE_NO":"５２之９１號","E_COORD97":179357.70000000001,"N_COORD97":2575356.75,"ADDRESS":"柳營５２之９１號","OBJECTID":73985},"geometry":{"x":179357.70000000019,"y":2575356.7500000019}},{"attributes":{"ID":73986,"DIS_CODE":0,"TOWNNAME":"柳營區","LI":"士林里","LIN":"6鄰","STREET":" ","SECT":" ","MAREA":"柳營","LANE":" ","ALLEY":" ","HOUSE_NO":"５２號之９１","E_COORD97":179357.70000000001,"N_COORD97":2575356.75,"ADDRESS":"柳營５２號之９１","OBJECTID":73986},"geometry":{"x":179357.70000000019,"y":2575356.7500000019}},{"attributes":{"ID":73987,"DIS_CODE":0,"TOWNNAME":"柳營區","LI":"士林里","LIN":"6鄰","STREET":" ","SECT":" ","MAREA":"柳營","LANE":" ","ALLEY":" ","HOUSE_NO":"５２之９２號","E_COORD97":179352.47,"N_COORD97":2575356.4199999999,"ADDRESS":"柳營５２之９２號","OBJECTID":73987},"geometry":{"x":179352.47000000067,"y":2575356.4200000018}},{"attributes":{"ID":73988,"DIS_CODE":0,"TOWNNAME":"柳營區","LI":"士林里","LIN":"6鄰","STREET":" ","SECT":" ","MAREA":"柳營","LANE":" ","ALLEY":" ","HOUSE_NO":"５２號之９２","E_COORD97":179352.47,"N_COORD97":2575356.4199999999,"ADDRESS":"柳營５２號之９２","OBJECTID":73988},"geometry":{"x":179352.47000000067,"y":2575356.4200000018}},{"attributes":{"ID":73989,"DIS_CODE":0,"TOWNNAME":"柳營區","LI":"士林里","LIN":"6鄰","STREET":" ","SECT":" ","MAREA":"柳營","LANE":" ","ALLEY":" ","HOUSE_NO":"５２之９３號","E_COORD97":179347.23000000001,"N_COORD97":2575356.0800000001,"ADDRESS":"柳營５２之９３號","OBJECTID":73989},"geometry":{"x":179347.23000000045,"y":2575356.0800000001}},{"attributes":{"ID":73990,"DIS_CODE":0,"TOWNNAME":"柳營區","LI":"士林里","LIN":"6鄰","STREET":" ","SECT":" ","MAREA":"柳營","LANE":" ","ALLEY":" ","HOUSE_NO":"５２號之９３","E_COORD97":179347.23000000001,"N_COORD97":2575356.0800000001,"ADDRESS":"柳營５２號之９３","OBJECTID":73990},"geometry":{"x":179347.23000000045,"y":2575356.0800000001}},{"attributes":{"ID":73991,"DIS_CODE":0,"TOWNNAME":"柳營區","LI":"士林里","LIN":"6鄰","STREET":" ","SECT":" ","MAREA":"柳營","LANE":" ","ALLEY":" ","HOUSE_NO":"５４之２１號","E_COORD97":179369.51999999999,"N_COORD97":2575413.6400000001,"ADDRESS":"柳營５４之２１號","OBJECTID":73991},"geometry":{"x":179369.52000000048,"y":2575413.6400000025}},{"attributes":{"ID":73992,"DIS_CODE":0,"TOWNNAME":"柳營區","LI":"士林里","LIN":"6鄰","STREET":" ","SECT":" ","MAREA":"柳營","LANE":" ","ALLEY":" ","HOUSE_NO":"５４號之２１","E_COORD97":179369.51999999999,"N_COORD97":2575413.6400000001,"ADDRESS":"柳營５４號之２１","OBJECTID":73992},"geometry":{"x":179369.52000000048,"y":2575413.6400000025}},{"attributes":{"ID":73993,"DIS_CODE":0,"TOWNNAME":"柳營區","LI":"士林里","LIN":"6鄰","STREET":" ","SECT":" ","MAREA":"柳營","LANE":" ","ALLEY":" ","HOUSE_NO":"５４之３５號","E_COORD97":179451.34,"N_COORD97":2575372.1499999999,"ADDRESS":"柳營５４之３５號","OBJECTID":73993},"geometry":{"x":179451.33999999985,"y":2575372.1500000022}},{"attributes":{"ID":73994,"DIS_CODE":0,"TOWNNAME":"柳營區","LI":"士林里","LIN":"6鄰","STREET":" ","SECT":" ","MAREA":"柳營","LANE":" ","ALLEY":" ","HOUSE_NO":"５４之３號","E_COORD97":179465.34,"N_COORD97":2575354.8799999999,"ADDRESS":"柳營５４之３號","OBJECTID":73994},"geometry":{"x":179465.34000000078,"y":2575354.8800000008}},{"attributes":{"ID":73995,"DIS_CODE":0,"TOWNNAME":"柳營區","LI":"士林里","LIN":"6鄰","STREET":" ","SECT":" ","MAREA":"柳營","LANE":" ","ALLEY":" ","HOUSE_NO":"５４之５號","E_COORD97":179480.26999999999,"N_COORD97":2575304.3199999998,"ADDRESS":"柳營５４之５號","OBJECTID":73995},"geometry":{"x":179480.26999999955,"y":2575304.3200000003}},{"attributes":{"ID":73996,"DIS_CODE":0,"TOWNNAME":"南區","LI":"新興里","LIN":"15鄰","STREET":"三官路","SECT":" ","MAREA":" ","LANE":" ","ALLEY":" ","HOUSE_NO":"５號","E_COORD97":167356.10000000001,"N_COORD97":2542423.2200000002,"ADDRESS":"三官路５號","OBJECTID":73996},"geometry":{"x":167356.10000000149,"y":2542423.2200000044}},{"attributes":{"ID":73997,"DIS_CODE":0,"TOWNNAME":"柳營區","LI":"士林里","LIN":"6鄰","STREET":" ","SECT":" ","MAREA":"柳營","LANE":" ","ALLEY":" ","HOUSE_NO":"５４之６號","E_COORD97":179465.10000000001,"N_COORD97":2575303.6800000002,"ADDRESS":"柳營５４之６號","OBJECTID":73997},"geometry":{"x":179465.10000000056,"y":2575303.6800000016}},{"attributes":{"ID":73998,"DIS_CODE":0,"TOWNNAME":"柳營區","LI":"旭山里","LIN":"6鄰","STREET":" ","SECT":" ","MAREA":"新吉庄","LANE":" ","ALLEY":" ","HOUSE_NO":"５０號之１２","E_COORD97":186957.85000000001,"N_COORD97":2573452.5,"ADDRESS":"新吉庄５０號之１２","OBJECTID":73998},"geometry":{"x":186957.85000000056,"y":2573452.4999999981}},{"attributes":{"ID":73999,"DIS_CODE":0,"TOWNNAME":"柳營區","LI":"旭山里","LIN":"6鄰","STREET":" ","SECT":" ","MAREA":"新吉庄","LANE":" ","ALLEY":" ","HOUSE_NO":"５０號之１３","E_COORD97":186949.29999999999,"N_COORD97":2573472.3700000001,"ADDRESS":"新吉庄５０號之１３","OBJECTID":73999},"geometry":{"x":186949.29999999981,"y":2573472.3700000029}},{"attributes":{"ID":74000,"DIS_CODE":0,"TOWNNAME":"柳營區","LI":"旭山里","LIN":"6鄰","STREET":" ","SECT":" ","MAREA":"新吉庄","LANE":" ","ALLEY":" ","HOUSE_NO":"５０號之１４","E_COORD97":186957.92999999999,"N_COORD97":2573479.2200000002,"ADDRESS":"新吉庄５０號之１４","OBJECTID":74000},"geometry":{"x":186957.93000000063,"y":2573479.2200000044}}]}