{"displayFieldName":"TOWNNAME","fieldAliases":{"ID":"ID","DIS_CODE":"DIS_CODE","TOWNNAME":"TOWNNAME","LI":"LI","LIN":"LIN","STREET":"STREET","SECT":"SECT","MAREA":"MAREA","LANE":"LANE","ALLEY":"ALLEY","HOUSE_NO":"HOUSE_NO","E_COORD97":"E_COORD97","N_COORD97":"N_COORD97","ADDRESS":"ADDRESS","OBJECTID":"OBJECTID"},"geometryType":"esriGeometryPoint","spatialReference":{"wkid":102443,"latestWkid":3826},"fields":[{"name":"ID","type":"esriFieldTypeDouble","alias":"ID"},{"name":"DIS_CODE","type":"esriFieldTypeInteger","alias":"DIS_CODE"},{"name":"TOWNNAME","type":"esriFieldTypeString","alias":"TOWNNAME","length":8},{"name":"LI","type":"esriFieldTypeString","alias":"LI","length":8},{"name":"LIN","type":"esriFieldTypeString","alias":"LIN","length":12},{"name":"STREET","type":"esriFieldTypeString","alias":"STREET","length":20},{"name":"SECT","type":"esriFieldTypeString","alias":"SECT","length":8},{"name":"MAREA","type":"esriFieldTypeString","alias":"MAREA","length":12},{"name":"LANE","type":"esriFieldTypeString","alias":"LANE","length":10},{"name":"ALLEY","type":"esriFieldTypeString","alias":"ALLEY","length":10},{"name":"HOUSE_NO","type":"esriFieldTypeString","alias":"HOUSE_NO","length":20},{"name":"E_COORD97","type":"esriFieldTypeDouble","alias":"E_COORD97"},{"name":"N_COORD97","type":"esriFieldTypeDouble","alias":"N_COORD97"},{"name":"ADDRESS","type":"esriFieldTypeString","alias":"ADDRESS","length":50},{"name":"OBJECTID","type":"esriFieldTypeOID","alias":"OBJECTID"}],"features":[{"attributes":{"ID":512828,"DIS_CODE":0,"TOWNNAME":"東區","LI":"富強里","LIN":"1鄰","STREET":"裕農路","SECT":" ","MAREA":" ","LANE":" ","ALLEY":" ","HOUSE_NO":"２９８號五樓之３","E_COORD97":170908.97,"N_COORD97":2542987.1400000001,"ADDRESS":"裕農路２９８號五樓之３","OBJECTID":512801},"geometry":{"x":170908.97000000067,"y":2542987.1400000025}},{"attributes":{"ID":512829,"DIS_CODE":0,"TOWNNAME":"東區","LI":"富強里","LIN":"1鄰","STREET":"裕農路","SECT":" ","MAREA":" ","LANE":" ","ALLEY":" ","HOUSE_NO":"２９８號六樓","E_COORD97":170908.97,"N_COORD97":2542987.1400000001,"ADDRESS":"裕農路２９８號六樓","OBJECTID":512802},"geometry":{"x":170908.97000000067,"y":2542987.1400000025}},{"attributes":{"ID":512830,"DIS_CODE":0,"TOWNNAME":"東區","LI":"富強里","LIN":"1鄰","STREET":"裕農路","SECT":" ","MAREA":" ","LANE":" ","ALLEY":" ","HOUSE_NO":"２９８號七樓之１","E_COORD97":170908.97,"N_COORD97":2542987.1400000001,"ADDRESS":"裕農路２９８號七樓之１","OBJECTID":512803},"geometry":{"x":170908.97000000067,"y":2542987.1400000025}},{"attributes":{"ID":512831,"DIS_CODE":0,"TOWNNAME":"東區","LI":"富強里","LIN":"1鄰","STREET":"裕農路","SECT":" ","MAREA":" ","LANE":" ","ALLEY":" ","HOUSE_NO":"２９８號八樓之１","E_COORD97":170908.97,"N_COORD97":2542987.1400000001,"ADDRESS":"裕農路２９８號八樓之１","OBJECTID":512804},"geometry":{"x":170908.97000000067,"y":2542987.1400000025}},{"attributes":{"ID":512832,"DIS_CODE":0,"TOWNNAME":"東區","LI":"富強里","LIN":"1鄰","STREET":"裕農路","SECT":" ","MAREA":" ","LANE":" ","ALLEY":" ","HOUSE_NO":"２９８號九樓之１","E_COORD97":170908.97,"N_COORD97":2542987.1400000001,"ADDRESS":"裕農路２９８號九樓之１","OBJECTID":512805},"geometry":{"x":170908.97000000067,"y":2542987.1400000025}},{"attributes":{"ID":512833,"DIS_CODE":0,"TOWNNAME":"東區","LI":"富強里","LIN":"1鄰","STREET":"裕農路","SECT":" ","MAREA":" ","LANE":" ","ALLEY":" ","HOUSE_NO":"２９８號十樓之１","E_COORD97":170908.97,"N_COORD97":2542987.1400000001,"ADDRESS":"裕農路２９８號十樓之１","OBJECTID":512806},"geometry":{"x":170908.97000000067,"y":2542987.1400000025}},{"attributes":{"ID":512834,"DIS_CODE":0,"TOWNNAME":"安平區","LI":"金城里","LIN":"14鄰","STREET":"世平四街","SECT":" ","MAREA":" ","LANE":" ","ALLEY":" ","HOUSE_NO":"２７號之１","E_COORD97":162918.45999999999,"N_COORD97":2544126.3900000001,"ADDRESS":"世平四街２７號之１","OBJECTID":512807},"geometry":{"x":162918.46000000089,"y":2544126.3900000006}},{"attributes":{"ID":512835,"DIS_CODE":0,"TOWNNAME":"安平區","LI":"金城里","LIN":"14鄰","STREET":"世平四街","SECT":" ","MAREA":" ","LANE":" ","ALLEY":" ","HOUSE_NO":"２９號","E_COORD97":162948.01999999999,"N_COORD97":2544134.4100000001,"ADDRESS":"世平四街２９號","OBJECTID":512808},"geometry":{"x":162948.02000000048,"y":2544134.410000002}},{"attributes":{"ID":512836,"DIS_CODE":0,"TOWNNAME":"安平區","LI":"金城里","LIN":"14鄰","STREET":"世平四街","SECT":" ","MAREA":" ","LANE":" ","ALLEY":" ","HOUSE_NO":"２９號之１","E_COORD97":162920.45999999999,"N_COORD97":2544121.4700000002,"ADDRESS":"世平四街２９號之１","OBJECTID":512809},"geometry":{"x":162920.45999999996,"y":2544121.4700000025}},{"attributes":{"ID":512837,"DIS_CODE":0,"TOWNNAME":"安平區","LI":"金城里","LIN":"14鄰","STREET":"世平四街","SECT":" ","MAREA":" ","LANE":" ","ALLEY":" ","HOUSE_NO":"３１號","E_COORD97":162950.57000000001,"N_COORD97":2544129.8500000001,"ADDRESS":"世平四街３１號","OBJECTID":512810},"geometry":{"x":162950.5700000003,"y":2544129.8500000034}},{"attributes":{"ID":512838,"DIS_CODE":0,"TOWNNAME":"安平區","LI":"金城里","LIN":"14鄰","STREET":"世平四街","SECT":" ","MAREA":" ","LANE":" ","ALLEY":" ","HOUSE_NO":"３１號之１","E_COORD97":162922.64999999999,"N_COORD97":2544117.0899999999,"ADDRESS":"世平四街３１號之１","OBJECTID":512811},"geometry":{"x":162922.6500000013,"y":2544117.0899999999}},{"attributes":{"ID":512839,"DIS_CODE":0,"TOWNNAME":"安平區","LI":"金城里","LIN":"14鄰","STREET":"世平四街","SECT":" ","MAREA":" ","LANE":" ","ALLEY":" ","HOUSE_NO":"３３號","E_COORD97":162952.57999999999,"N_COORD97":2544126.0299999998,"ADDRESS":"世平四街３３號","OBJECTID":512812},"geometry":{"x":162952.57999999914,"y":2544126.0300000012}},{"attributes":{"ID":512840,"DIS_CODE":0,"TOWNNAME":"安平區","LI":"金城里","LIN":"14鄰","STREET":"世平四街","SECT":" ","MAREA":" ","LANE":" ","ALLEY":" ","HOUSE_NO":"３３號之１","E_COORD97":162924.48000000001,"N_COORD97":2544113.0800000001,"ADDRESS":"世平四街３３號之１","OBJECTID":512813},"geometry":{"x":162924.48000000045,"y":2544113.0800000019}},{"attributes":{"ID":512841,"DIS_CODE":0,"TOWNNAME":"安平區","LI":"金城里","LIN":"14鄰","STREET":"世平四街","SECT":" ","MAREA":" ","LANE":" ","ALLEY":" ","HOUSE_NO":"３５號","E_COORD97":162954.39999999999,"N_COORD97":2544122.2000000002,"ADDRESS":"世平四街３５號","OBJECTID":512814},"geometry":{"x":162954.4000000013,"y":2544122.1999999993}},{"attributes":{"ID":512842,"DIS_CODE":0,"TOWNNAME":"安平區","LI":"金城里","LIN":"14鄰","STREET":"世平四街","SECT":" ","MAREA":" ","LANE":" ","ALLEY":" ","HOUSE_NO":"３５號之１","E_COORD97":162926.48999999999,"N_COORD97":2544109.4399999999,"ADDRESS":"世平四街３５號之１","OBJECTID":512815},"geometry":{"x":162926.49000000115,"y":2544109.4400000013}},{"attributes":{"ID":512843,"DIS_CODE":0,"TOWNNAME":"安平區","LI":"金城里","LIN":"14鄰","STREET":"世平四街","SECT":" ","MAREA":" ","LANE":" ","ALLEY":" ","HOUSE_NO":"３７號之１","E_COORD97":162927.76000000001,"N_COORD97":2544105.79,"ADDRESS":"世平四街３７號之１","OBJECTID":512816},"geometry":{"x":162927.76000000071,"y":2544105.7899999991}},{"attributes":{"ID":512844,"DIS_CODE":0,"TOWNNAME":"安平區","LI":"金城里","LIN":"14鄰","STREET":"世平四街","SECT":" ","MAREA":" ","LANE":" ","ALLEY":" ","HOUSE_NO":"３９號","E_COORD97":162955.32000000001,"N_COORD97":2544114.1800000002,"ADDRESS":"世平四街３９號","OBJECTID":512817},"geometry":{"x":162955.32000000123,"y":2544114.1800000034}},{"attributes":{"ID":512845,"DIS_CODE":0,"TOWNNAME":"安平區","LI":"金城里","LIN":"14鄰","STREET":"世平四街","SECT":" ","MAREA":" ","LANE":" ","ALLEY":" ","HOUSE_NO":"３９號之１","E_COORD97":162929.59,"N_COORD97":2544102.1499999999,"ADDRESS":"世平四街３９號之１","OBJECTID":512818},"geometry":{"x":162929.58999999985,"y":2544102.1500000022}},{"attributes":{"ID":512846,"DIS_CODE":0,"TOWNNAME":"安平區","LI":"金城里","LIN":"14鄰","STREET":"世平四街","SECT":" ","MAREA":" ","LANE":" ","ALLEY":" ","HOUSE_NO":"４１號","E_COORD97":162957.32000000001,"N_COORD97":2544110.5299999998,"ADDRESS":"世平四街４１號","OBJECTID":512819},"geometry":{"x":162957.3200000003,"y":2544110.5299999993}},{"attributes":{"ID":512847,"DIS_CODE":0,"TOWNNAME":"安平區","LI":"金城里","LIN":"14鄰","STREET":"世平四街","SECT":" ","MAREA":" ","LANE":" ","ALLEY":" ","HOUSE_NO":"４１號之１","E_COORD97":162931.04999999999,"N_COORD97":2544098.5,"ADDRESS":"世平四街４１號之１","OBJECTID":512820},"geometry":{"x":162931.05000000075,"y":2544098.5}},{"attributes":{"ID":512848,"DIS_CODE":0,"TOWNNAME":"安平區","LI":"金城里","LIN":"14鄰","STREET":"世平四街","SECT":" ","MAREA":" ","LANE":" ","ALLEY":" ","HOUSE_NO":"４３號","E_COORD97":162958.42000000001,"N_COORD97":2544106.7000000002,"ADDRESS":"世平四街４３號","OBJECTID":512821},"geometry":{"x":162958.41999999993,"y":2544106.6999999974}},{"attributes":{"ID":512849,"DIS_CODE":0,"TOWNNAME":"安平區","LI":"金城里","LIN":"14鄰","STREET":"世平四街","SECT":" ","MAREA":" ","LANE":" ","ALLEY":" ","HOUSE_NO":"４３號之１","E_COORD97":162932.69,"N_COORD97":2544094.8599999999,"ADDRESS":"世平四街４３號之１","OBJECTID":512822},"geometry":{"x":162932.69000000134,"y":2544094.8599999994}},{"attributes":{"ID":512850,"DIS_CODE":0,"TOWNNAME":"東區","LI":"富強里","LIN":"1鄰","STREET":"裕農路","SECT":" ","MAREA":" ","LANE":" ","ALLEY":" ","HOUSE_NO":"２９８號十二樓","E_COORD97":170908.97,"N_COORD97":2542987.1400000001,"ADDRESS":"裕農路２９８號十二樓","OBJECTID":512823},"geometry":{"x":170908.97000000067,"y":2542987.1400000025}},{"attributes":{"ID":512851,"DIS_CODE":0,"TOWNNAME":"東區","LI":"富強里","LIN":"1鄰","STREET":"裕農路","SECT":" ","MAREA":" ","LANE":" ","ALLEY":" ","HOUSE_NO":"２９８號十三樓","E_COORD97":170908.97,"N_COORD97":2542987.1400000001,"ADDRESS":"裕農路２９８號十三樓","OBJECTID":512824},"geometry":{"x":170908.97000000067,"y":2542987.1400000025}},{"attributes":{"ID":512852,"DIS_CODE":0,"TOWNNAME":"東區","LI":"富強里","LIN":"1鄰","STREET":"裕農路","SECT":" ","MAREA":" ","LANE":" ","ALLEY":" ","HOUSE_NO":"２９８號十四樓","E_COORD97":170908.97,"N_COORD97":2542987.1400000001,"ADDRESS":"裕農路２９８號十四樓","OBJECTID":512825},"geometry":{"x":170908.97000000067,"y":2542987.1400000025}},{"attributes":{"ID":512853,"DIS_CODE":0,"TOWNNAME":"東區","LI":"富強里","LIN":"1鄰","STREET":"裕農路","SECT":" ","MAREA":" ","LANE":" ","ALLEY":" ","HOUSE_NO":"２９８號十四樓之１","E_COORD97":170908.97,"N_COORD97":2542987.1400000001,"ADDRESS":"裕農路２９８號十四樓之１","OBJECTID":512826},"geometry":{"x":170908.97000000067,"y":2542987.1400000025}},{"attributes":{"ID":512854,"DIS_CODE":0,"TOWNNAME":"東區","LI":"富強里","LIN":"1鄰","STREET":"裕農路","SECT":" ","MAREA":" ","LANE":" ","ALLEY":" ","HOUSE_NO":"３０８號五樓","E_COORD97":170937.63,"N_COORD97":2543003.2000000002,"ADDRESS":"裕農路３０８號五樓","OBJECTID":512827},"geometry":{"x":170937.62999999989,"y":2543003.2000000011}},{"attributes":{"ID":512855,"DIS_CODE":0,"TOWNNAME":"安平區","LI":"建平里","LIN":"17鄰","STREET":"建平十一街","SECT":" ","MAREA":" ","LANE":" ","ALLEY":" ","HOUSE_NO":"５６號","E_COORD97":166271.82000000001,"N_COORD97":2543913.6899999999,"ADDRESS":"建平十一街５６號","OBJECTID":512828},"geometry":{"x":166271.8200000003,"y":2543913.6899999976}},{"attributes":{"ID":512856,"DIS_CODE":0,"TOWNNAME":"安平區","LI":"建平里","LIN":"17鄰","STREET":"建平十一街","SECT":" ","MAREA":" ","LANE":" ","ALLEY":" ","HOUSE_NO":"５８號","E_COORD97":166266.85999999999,"N_COORD97":2543914.77,"ADDRESS":"建平十一街５８號","OBJECTID":512829},"geometry":{"x":166266.8600000022,"y":2543914.7700000014}},{"attributes":{"ID":512857,"DIS_CODE":0,"TOWNNAME":"安平區","LI":"建平里","LIN":"17鄰","STREET":"建平十一街","SECT":" ","MAREA":" ","LANE":" ","ALLEY":" ","HOUSE_NO":"６０號","E_COORD97":166262.60999999999,"N_COORD97":2543917.1899999999,"ADDRESS":"建平十一街６０號","OBJECTID":512830},"geometry":{"x":166262.61000000034,"y":2543917.1900000032}},{"attributes":{"ID":512858,"DIS_CODE":0,"TOWNNAME":"安平區","LI":"建平里","LIN":"17鄰","STREET":"建平十一街","SECT":" ","MAREA":" ","LANE":" ","ALLEY":" ","HOUSE_NO":"６２號","E_COORD97":166258.60000000001,"N_COORD97":2543917.8900000001,"ADDRESS":"建平十一街６２號","OBJECTID":512831},"geometry":{"x":166258.59999999963,"y":2543917.8900000025}},{"attributes":{"ID":512859,"DIS_CODE":0,"TOWNNAME":"安平區","LI":"建平里","LIN":"17鄰","STREET":"建平十一街","SECT":" ","MAREA":" ","LANE":" ","ALLEY":" ","HOUSE_NO":"６４號","E_COORD97":166254.32999999999,"N_COORD97":2543917.8300000001,"ADDRESS":"建平十一街６４號","OBJECTID":512832},"geometry":{"x":166254.33000000007,"y":2543917.8300000019}},{"attributes":{"ID":512860,"DIS_CODE":0,"TOWNNAME":"安平區","LI":"建平里","LIN":"17鄰","STREET":"建平十一街","SECT":" ","MAREA":" ","LANE":" ","ALLEY":" ","HOUSE_NO":"６６號","E_COORD97":166249.69,"N_COORD97":2543919.6099999999,"ADDRESS":"建平十一街６６號","OBJECTID":512833},"geometry":{"x":166249.69000000134,"y":2543919.6099999994}},{"attributes":{"ID":512861,"DIS_CODE":0,"TOWNNAME":"安平區","LI":"建平里","LIN":"17鄰","STREET":"建平十一街","SECT":" ","MAREA":" ","LANE":" ","ALLEY":" ","HOUSE_NO":"６８號","E_COORD97":166244.59,"N_COORD97":2543920.1200000001,"ADDRESS":"建平十一街６８號","OBJECTID":512834},"geometry":{"x":166244.59000000078,"y":2543920.1200000029}},{"attributes":{"ID":512862,"DIS_CODE":0,"TOWNNAME":"安平區","LI":"華平里","LIN":"8鄰","STREET":"建平十一街","SECT":" ","MAREA":" ","LANE":" ","ALLEY":" ","HOUSE_NO":"３６７號","E_COORD97":165418.98999999999,"N_COORD97":2544006.6400000001,"ADDRESS":"建平十一街３６７號","OBJECTID":512835},"geometry":{"x":165418.99000000115,"y":2544006.6400000006}},{"attributes":{"ID":512863,"DIS_CODE":0,"TOWNNAME":"安平區","LI":"華平里","LIN":"8鄰","STREET":"建平十一街","SECT":" ","MAREA":" ","LANE":" ","ALLEY":" ","HOUSE_NO":"３６９號","E_COORD97":165414.79000000001,"N_COORD97":2544007.4100000001,"ADDRESS":"建平十一街３６９號","OBJECTID":512836},"geometry":{"x":165414.79000000097,"y":2544007.4100000001}},{"attributes":{"ID":512864,"DIS_CODE":0,"TOWNNAME":"安平區","LI":"華平里","LIN":"8鄰","STREET":"建平十一街","SECT":" ","MAREA":" ","LANE":" ","ALLEY":" ","HOUSE_NO":"３７１號","E_COORD97":165409.48000000001,"N_COORD97":2544008.1000000001,"ADDRESS":"建平十一街３７１號","OBJECTID":512837},"geometry":{"x":165409.48000000045,"y":2544008.0999999996}},{"attributes":{"ID":512865,"DIS_CODE":0,"TOWNNAME":"安平區","LI":"華平里","LIN":"8鄰","STREET":"建平十一街","SECT":" ","MAREA":" ","LANE":" ","ALLEY":" ","HOUSE_NO":"３７３號","E_COORD97":165404.60000000001,"N_COORD97":2544009.21,"ADDRESS":"建平十一街３７３號","OBJECTID":512838},"geometry":{"x":165404.59999999963,"y":2544009.2100000009}},{"attributes":{"ID":512866,"DIS_CODE":0,"TOWNNAME":"安平區","LI":"華平里","LIN":"8鄰","STREET":"建平十一街","SECT":" ","MAREA":" ","LANE":" ","ALLEY":" ","HOUSE_NO":"３７７號","E_COORD97":165397.14999999999,"N_COORD97":2544010.4900000002,"ADDRESS":"建平十一街３７７號","OBJECTID":512839},"geometry":{"x":165397.1500000013,"y":2544010.4900000002}},{"attributes":{"ID":512867,"DIS_CODE":0,"TOWNNAME":"安平區","LI":"華平里","LIN":"8鄰","STREET":"建平十一街","SECT":" ","MAREA":" ","LANE":" ","ALLEY":" ","HOUSE_NO":"３８１號","E_COORD97":165389.01000000001,"N_COORD97":2544011.6000000001,"ADDRESS":"建平十一街３８１號","OBJECTID":512840},"geometry":{"x":165389.01000000071,"y":2544011.5999999996}},{"attributes":{"ID":512868,"DIS_CODE":0,"TOWNNAME":"東區","LI":"富強里","LIN":"1鄰","STREET":"裕農路","SECT":" ","MAREA":" ","LANE":" ","ALLEY":" ","HOUSE_NO":"３０８號五樓之１","E_COORD97":170937.63,"N_COORD97":2543003.2000000002,"ADDRESS":"裕農路３０８號五樓之１","OBJECTID":512841},"geometry":{"x":170937.62999999989,"y":2543003.2000000011}},{"attributes":{"ID":512869,"DIS_CODE":0,"TOWNNAME":"東區","LI":"富強里","LIN":"1鄰","STREET":"裕農路","SECT":" ","MAREA":" ","LANE":" ","ALLEY":" ","HOUSE_NO":"３０８號六樓","E_COORD97":170937.63,"N_COORD97":2543003.2000000002,"ADDRESS":"裕農路３０８號六樓","OBJECTID":512842},"geometry":{"x":170937.62999999989,"y":2543003.2000000011}},{"attributes":{"ID":512870,"DIS_CODE":0,"TOWNNAME":"東區","LI":"富強里","LIN":"1鄰","STREET":"裕農路","SECT":" ","MAREA":" ","LANE":" ","ALLEY":" ","HOUSE_NO":"３０８號六樓之１","E_COORD97":170937.63,"N_COORD97":2543003.2000000002,"ADDRESS":"裕農路３０８號六樓之１","OBJECTID":512843},"geometry":{"x":170937.62999999989,"y":2543003.2000000011}},{"attributes":{"ID":512871,"DIS_CODE":0,"TOWNNAME":"東區","LI":"富強里","LIN":"1鄰","STREET":"裕農路","SECT":" ","MAREA":" ","LANE":" ","ALLEY":" ","HOUSE_NO":"３０８號七樓之１","E_COORD97":170937.63,"N_COORD97":2543003.2000000002,"ADDRESS":"裕農路３０８號七樓之１","OBJECTID":512844},"geometry":{"x":170937.62999999989,"y":2543003.2000000011}},{"attributes":{"ID":512872,"DIS_CODE":0,"TOWNNAME":"永康區","LI":"六合里","LIN":"1鄰","STREET":"新興街","SECT":" ","MAREA":" ","LANE":" ","ALLEY":" ","HOUSE_NO":"８號三樓之５","E_COORD97":170922.73000000001,"N_COORD97":2545756.79,"ADDRESS":"新興街８號三樓之５","OBJECTID":512845},"geometry":{"x":170922.72999999952,"y":2545756.7899999991}},{"attributes":{"ID":512873,"DIS_CODE":0,"TOWNNAME":"東區","LI":"富強里","LIN":"1鄰","STREET":"裕農路","SECT":" ","MAREA":" ","LANE":" ","ALLEY":" ","HOUSE_NO":"３０８號七樓之２","E_COORD97":170937.63,"N_COORD97":2543003.2000000002,"ADDRESS":"裕農路３０８號七樓之２","OBJECTID":512846},"geometry":{"x":170937.62999999989,"y":2543003.2000000011}},{"attributes":{"ID":512874,"DIS_CODE":0,"TOWNNAME":"東區","LI":"富強里","LIN":"1鄰","STREET":"裕農路","SECT":" ","MAREA":" ","LANE":" ","ALLEY":" ","HOUSE_NO":"３０８號九樓之３","E_COORD97":170937.63,"N_COORD97":2543003.2000000002,"ADDRESS":"裕農路３０８號九樓之３","OBJECTID":512847},"geometry":{"x":170937.62999999989,"y":2543003.2000000011}},{"attributes":{"ID":512875,"DIS_CODE":0,"TOWNNAME":"東區","LI":"富強里","LIN":"1鄰","STREET":"裕農路","SECT":" ","MAREA":" ","LANE":" ","ALLEY":" ","HOUSE_NO":"３０８號十樓之１","E_COORD97":170937.63,"N_COORD97":2543003.2000000002,"ADDRESS":"裕農路３０８號十樓之１","OBJECTID":512848},"geometry":{"x":170937.62999999989,"y":2543003.2000000011}},{"attributes":{"ID":512876,"DIS_CODE":0,"TOWNNAME":"東區","LI":"富強里","LIN":"1鄰","STREET":"裕農路","SECT":" ","MAREA":" ","LANE":" ","ALLEY":" ","HOUSE_NO":"３０８號十一樓","E_COORD97":170937.63,"N_COORD97":2543003.2000000002,"ADDRESS":"裕農路３０８號十一樓","OBJECTID":512849},"geometry":{"x":170937.62999999989,"y":2543003.2000000011}},{"attributes":{"ID":512877,"DIS_CODE":0,"TOWNNAME":"東區","LI":"富強里","LIN":"1鄰","STREET":"裕農路","SECT":" ","MAREA":" ","LANE":" ","ALLEY":" ","HOUSE_NO":"３０８號十一樓之２","E_COORD97":170937.63,"N_COORD97":2543003.2000000002,"ADDRESS":"裕農路３０８號十一樓之２","OBJECTID":512850},"geometry":{"x":170937.62999999989,"y":2543003.2000000011}},{"attributes":{"ID":512878,"DIS_CODE":0,"TOWNNAME":"安平區","LI":"文平里","LIN":"24鄰","STREET":"建平路","SECT":" ","MAREA":" ","LANE":" ","ALLEY":" ","HOUSE_NO":"３２號","E_COORD97":166124.64999999999,"N_COORD97":2542836.8999999999,"ADDRESS":"建平路３２號","OBJECTID":512851},"geometry":{"x":166124.6500000013,"y":2542836.9000000022}},{"attributes":{"ID":512879,"DIS_CODE":0,"TOWNNAME":"安平區","LI":"建平里","LIN":"17鄰","STREET":"建平路","SECT":" ","MAREA":" ","LANE":" ","ALLEY":" ","HOUSE_NO":"３２１號","E_COORD97":166182.69,"N_COORD97":2543479.9900000002,"ADDRESS":"建平路３２１號","OBJECTID":512852},"geometry":{"x":166182.69000000041,"y":2543479.9900000021}},{"attributes":{"ID":512880,"DIS_CODE":0,"TOWNNAME":"東區","LI":"富強里","LIN":"1鄰","STREET":"裕農路","SECT":" ","MAREA":" ","LANE":" ","ALLEY":" ","HOUSE_NO":"３０８號十一樓之３","E_COORD97":170937.63,"N_COORD97":2543003.2000000002,"ADDRESS":"裕農路３０８號十一樓之３","OBJECTID":512853},"geometry":{"x":170937.62999999989,"y":2543003.2000000011}},{"attributes":{"ID":512881,"DIS_CODE":0,"TOWNNAME":"東區","LI":"富強里","LIN":"1鄰","STREET":"裕農路","SECT":" ","MAREA":" ","LANE":" ","ALLEY":" ","HOUSE_NO":"３０８號十二樓之１","E_COORD97":170937.63,"N_COORD97":2543003.2000000002,"ADDRESS":"裕農路３０８號十二樓之１","OBJECTID":512854},"geometry":{"x":170937.62999999989,"y":2543003.2000000011}},{"attributes":{"ID":512882,"DIS_CODE":0,"TOWNNAME":"東區","LI":"富強里","LIN":"1鄰","STREET":"裕農路","SECT":" ","MAREA":" ","LANE":" ","ALLEY":" ","HOUSE_NO":"３０８號十二樓之３","E_COORD97":170937.63,"N_COORD97":2543003.2000000002,"ADDRESS":"裕農路３０８號十二樓之３","OBJECTID":512855},"geometry":{"x":170937.62999999989,"y":2543003.2000000011}},{"attributes":{"ID":512883,"DIS_CODE":0,"TOWNNAME":"東區","LI":"富強里","LIN":"1鄰","STREET":"裕農路","SECT":" ","MAREA":" ","LANE":" ","ALLEY":" ","HOUSE_NO":"３０８號十三樓","E_COORD97":170937.63,"N_COORD97":2543003.2000000002,"ADDRESS":"裕農路３０８號十三樓","OBJECTID":512856},"geometry":{"x":170937.62999999989,"y":2543003.2000000011}},{"attributes":{"ID":512884,"DIS_CODE":0,"TOWNNAME":"東區","LI":"富強里","LIN":"1鄰","STREET":"裕農路","SECT":" ","MAREA":" ","LANE":" ","ALLEY":" ","HOUSE_NO":"３０８號十三樓之２","E_COORD97":170937.63,"N_COORD97":2543003.2000000002,"ADDRESS":"裕農路３０８號十三樓之２","OBJECTID":512857},"geometry":{"x":170937.62999999989,"y":2543003.2000000011}},{"attributes":{"ID":512885,"DIS_CODE":0,"TOWNNAME":"東區","LI":"富強里","LIN":"1鄰","STREET":"裕農路","SECT":" ","MAREA":" ","LANE":" ","ALLEY":" ","HOUSE_NO":"３０８號十四樓之１","E_COORD97":170937.63,"N_COORD97":2543003.2000000002,"ADDRESS":"裕農路３０８號十四樓之１","OBJECTID":512858},"geometry":{"x":170937.62999999989,"y":2543003.2000000011}},{"attributes":{"ID":512886,"DIS_CODE":0,"TOWNNAME":"東區","LI":"東光里","LIN":"1鄰","STREET":"東光路","SECT":"一段","MAREA":" ","LANE":" ","ALLEY":" ","HOUSE_NO":"１３號八樓","E_COORD97":171127.67999999999,"N_COORD97":2543380.29,"ADDRESS":"東光路一段１３號八樓","OBJECTID":512859},"geometry":{"x":171127.68000000063,"y":2543380.2899999972}},{"attributes":{"ID":512887,"DIS_CODE":0,"TOWNNAME":"東區","LI":"東光里","LIN":"1鄰","STREET":"東光路","SECT":"一段","MAREA":" ","LANE":" ","ALLEY":" ","HOUSE_NO":"１１號七樓","E_COORD97":171126.92000000001,"N_COORD97":2543373.0800000001,"ADDRESS":"東光路一段１１號七樓","OBJECTID":512860},"geometry":{"x":171126.92000000086,"y":2543373.0800000038}},{"attributes":{"ID":512888,"DIS_CODE":0,"TOWNNAME":"東區","LI":"東光里","LIN":"1鄰","STREET":"東光路","SECT":"一段","MAREA":" ","LANE":" ","ALLEY":" ","HOUSE_NO":"１１號二樓","E_COORD97":171126.92000000001,"N_COORD97":2543373.0800000001,"ADDRESS":"東光路一段１１號二樓","OBJECTID":512861},"geometry":{"x":171126.92000000086,"y":2543373.0800000038}},{"attributes":{"ID":512889,"DIS_CODE":0,"TOWNNAME":"東區","LI":"東光里","LIN":"1鄰","STREET":"東光路","SECT":"一段","MAREA":" ","LANE":" ","ALLEY":" ","HOUSE_NO":"１１號三樓","E_COORD97":171126.92000000001,"N_COORD97":2543373.0800000001,"ADDRESS":"東光路一段１１號三樓","OBJECTID":512862},"geometry":{"x":171126.92000000086,"y":2543373.0800000038}},{"attributes":{"ID":512890,"DIS_CODE":0,"TOWNNAME":"東區","LI":"東光里","LIN":"1鄰","STREET":"東光路","SECT":"一段","MAREA":" ","LANE":" ","ALLEY":" ","HOUSE_NO":"１１號五樓","E_COORD97":171126.92000000001,"N_COORD97":2543373.0800000001,"ADDRESS":"東光路一段１１號五樓","OBJECTID":512863},"geometry":{"x":171126.92000000086,"y":2543373.0800000038}},{"attributes":{"ID":512891,"DIS_CODE":0,"TOWNNAME":"東區","LI":"東光里","LIN":"1鄰","STREET":"東光路","SECT":"一段","MAREA":" ","LANE":" ","ALLEY":" ","HOUSE_NO":"１１號六樓","E_COORD97":171126.92000000001,"N_COORD97":2543373.0800000001,"ADDRESS":"東光路一段１１號六樓","OBJECTID":512864},"geometry":{"x":171126.92000000086,"y":2543373.0800000038}},{"attributes":{"ID":512892,"DIS_CODE":0,"TOWNNAME":"東區","LI":"東光里","LIN":"1鄰","STREET":"東光路","SECT":"一段","MAREA":" ","LANE":" ","ALLEY":" ","HOUSE_NO":"１１號四樓","E_COORD97":171126.92000000001,"N_COORD97":2543373.0800000001,"ADDRESS":"東光路一段１１號四樓","OBJECTID":512865},"geometry":{"x":171126.92000000086,"y":2543373.0800000038}},{"attributes":{"ID":512893,"DIS_CODE":0,"TOWNNAME":"東區","LI":"東光里","LIN":"1鄰","STREET":"東光路","SECT":"一段","MAREA":" ","LANE":" ","ALLEY":" ","HOUSE_NO":"１３號七樓","E_COORD97":171127.67999999999,"N_COORD97":2543380.29,"ADDRESS":"東光路一段１３號七樓","OBJECTID":512866},"geometry":{"x":171127.68000000063,"y":2543380.2899999972}},{"attributes":{"ID":512894,"DIS_CODE":0,"TOWNNAME":"東區","LI":"東光里","LIN":"1鄰","STREET":"東光路","SECT":"一段","MAREA":" ","LANE":" ","ALLEY":" ","HOUSE_NO":"１３號四樓","E_COORD97":171127.67999999999,"N_COORD97":2543380.29,"ADDRESS":"東光路一段１３號四樓","OBJECTID":512867},"geometry":{"x":171127.68000000063,"y":2543380.2899999972}},{"attributes":{"ID":512895,"DIS_CODE":0,"TOWNNAME":"東區","LI":"東光里","LIN":"1鄰","STREET":"東光路","SECT":"一段","MAREA":" ","LANE":" ","ALLEY":" ","HOUSE_NO":"１５號二樓","E_COORD97":171127.87,"N_COORD97":2543386.3300000001,"ADDRESS":"東光路一段１５號二樓","OBJECTID":512868},"geometry":{"x":171127.87000000011,"y":2543386.3300000019}},{"attributes":{"ID":512896,"DIS_CODE":0,"TOWNNAME":"東區","LI":"東光里","LIN":"1鄰","STREET":"東光路","SECT":"一段","MAREA":" ","LANE":" ","ALLEY":" ","HOUSE_NO":"１５號八樓","E_COORD97":171127.87,"N_COORD97":2543386.3300000001,"ADDRESS":"東光路一段１５號八樓","OBJECTID":512869},"geometry":{"x":171127.87000000011,"y":2543386.3300000019}},{"attributes":{"ID":512897,"DIS_CODE":0,"TOWNNAME":"東區","LI":"東光里","LIN":"1鄰","STREET":"東光路","SECT":"一段","MAREA":" ","LANE":" ","ALLEY":" ","HOUSE_NO":"１５號三樓","E_COORD97":171127.87,"N_COORD97":2543386.3300000001,"ADDRESS":"東光路一段１５號三樓","OBJECTID":512870},"geometry":{"x":171127.87000000011,"y":2543386.3300000019}},{"attributes":{"ID":512898,"DIS_CODE":0,"TOWNNAME":"東區","LI":"東光里","LIN":"1鄰","STREET":"東光路","SECT":"一段","MAREA":" ","LANE":" ","ALLEY":" ","HOUSE_NO":"１５號五樓","E_COORD97":171127.87,"N_COORD97":2543386.3300000001,"ADDRESS":"東光路一段１５號五樓","OBJECTID":512871},"geometry":{"x":171127.87000000011,"y":2543386.3300000019}},{"attributes":{"ID":512899,"DIS_CODE":0,"TOWNNAME":"安平區","LI":"建平里","LIN":"8鄰","STREET":"中華西路","SECT":"二段","MAREA":" ","LANE":" ","ALLEY":" ","HOUSE_NO":"３５９號","E_COORD97":166601.57999999999,"N_COORD97":2543802.3500000001,"ADDRESS":"中華西路二段３５９號","OBJECTID":512872},"geometry":{"x":166601.58000000007,"y":2543802.3500000015}},{"attributes":{"ID":512900,"DIS_CODE":0,"TOWNNAME":"安平區","LI":"金城里","LIN":"8鄰","STREET":"世平五街","SECT":" ","MAREA":" ","LANE":" ","ALLEY":" ","HOUSE_NO":"３９號","E_COORD97":162908.92000000001,"N_COORD97":2544193.3799999999,"ADDRESS":"世平五街３９號","OBJECTID":512873},"geometry":{"x":162908.91999999993,"y":2544193.3800000027}},{"attributes":{"ID":512901,"DIS_CODE":0,"TOWNNAME":"安平區","LI":"建平里","LIN":"8鄰","STREET":"府前路","SECT":"二段","MAREA":" ","LANE":" ","ALLEY":" ","HOUSE_NO":"５４４號","E_COORD97":166509.92999999999,"N_COORD97":2543752.27,"ADDRESS":"府前路二段５４４號","OBJECTID":512874},"geometry":{"x":166509.93000000156,"y":2543752.2700000014}},{"attributes":{"ID":512902,"DIS_CODE":0,"TOWNNAME":"東區","LI":"東光里","LIN":"1鄰","STREET":"東光路","SECT":"一段","MAREA":" ","LANE":" ","ALLEY":" ","HOUSE_NO":"１５號六樓","E_COORD97":171127.87,"N_COORD97":2543386.3300000001,"ADDRESS":"東光路一段１５號六樓","OBJECTID":512875},"geometry":{"x":171127.87000000011,"y":2543386.3300000019}},{"attributes":{"ID":512903,"DIS_CODE":0,"TOWNNAME":"東區","LI":"東光里","LIN":"1鄰","STREET":"東光路","SECT":"一段","MAREA":" ","LANE":" ","ALLEY":" ","HOUSE_NO":"１７號七樓","E_COORD97":171127.62,"N_COORD97":2543392.4900000002,"ADDRESS":"東光路一段１７號七樓","OBJECTID":512876},"geometry":{"x":171127.62000000011,"y":2543392.4900000002}},{"attributes":{"ID":512904,"DIS_CODE":0,"TOWNNAME":"東區","LI":"東光里","LIN":"1鄰","STREET":"東光路","SECT":"一段","MAREA":" ","LANE":" ","ALLEY":" ","HOUSE_NO":"１７號二樓","E_COORD97":171127.62,"N_COORD97":2543392.4900000002,"ADDRESS":"東光路一段１７號二樓","OBJECTID":512877},"geometry":{"x":171127.62000000011,"y":2543392.4900000002}},{"attributes":{"ID":512905,"DIS_CODE":0,"TOWNNAME":"東區","LI":"東光里","LIN":"1鄰","STREET":"東光路","SECT":"一段","MAREA":" ","LANE":" ","ALLEY":" ","HOUSE_NO":"１７號八樓","E_COORD97":171127.62,"N_COORD97":2543392.4900000002,"ADDRESS":"東光路一段１７號八樓","OBJECTID":512878},"geometry":{"x":171127.62000000011,"y":2543392.4900000002}},{"attributes":{"ID":512906,"DIS_CODE":0,"TOWNNAME":"東區","LI":"東光里","LIN":"1鄰","STREET":"東光路","SECT":"一段","MAREA":" ","LANE":" ","ALLEY":" ","HOUSE_NO":"７號二樓","E_COORD97":171125.48000000001,"N_COORD97":2543359.4199999999,"ADDRESS":"東光路一段７號二樓","OBJECTID":512879},"geometry":{"x":171125.48000000045,"y":2543359.4199999999}},{"attributes":{"ID":512907,"DIS_CODE":0,"TOWNNAME":"東區","LI":"東光里","LIN":"1鄰","STREET":"東光路","SECT":"一段","MAREA":" ","LANE":" ","ALLEY":" ","HOUSE_NO":"７號八樓","E_COORD97":171125.48000000001,"N_COORD97":2543359.4199999999,"ADDRESS":"東光路一段７號八樓","OBJECTID":512880},"geometry":{"x":171125.48000000045,"y":2543359.4199999999}},{"attributes":{"ID":512908,"DIS_CODE":0,"TOWNNAME":"東區","LI":"東光里","LIN":"1鄰","STREET":"東光路","SECT":"一段","MAREA":" ","LANE":" ","ALLEY":" ","HOUSE_NO":"７號三樓","E_COORD97":171125.48000000001,"N_COORD97":2543359.4199999999,"ADDRESS":"東光路一段７號三樓","OBJECTID":512881},"geometry":{"x":171125.48000000045,"y":2543359.4199999999}},{"attributes":{"ID":512909,"DIS_CODE":0,"TOWNNAME":"東區","LI":"東光里","LIN":"1鄰","STREET":"東光路","SECT":"一段","MAREA":" ","LANE":" ","ALLEY":" ","HOUSE_NO":"７號四樓","E_COORD97":171125.48000000001,"N_COORD97":2543359.4199999999,"ADDRESS":"東光路一段７號四樓","OBJECTID":512882},"geometry":{"x":171125.48000000045,"y":2543359.4199999999}},{"attributes":{"ID":512910,"DIS_CODE":0,"TOWNNAME":"東區","LI":"東光里","LIN":"1鄰","STREET":"東光路","SECT":"一段","MAREA":" ","LANE":" ","ALLEY":" ","HOUSE_NO":"９號七樓","E_COORD97":171126.01000000001,"N_COORD97":2543366.3300000001,"ADDRESS":"東光路一段９號七樓","OBJECTID":512883},"geometry":{"x":171126.01000000071,"y":2543366.3300000001}},{"attributes":{"ID":512911,"DIS_CODE":0,"TOWNNAME":"東區","LI":"東光里","LIN":"1鄰","STREET":"東光路","SECT":"一段","MAREA":" ","LANE":" ","ALLEY":" ","HOUSE_NO":"９號二樓","E_COORD97":171126.01000000001,"N_COORD97":2543366.3300000001,"ADDRESS":"東光路一段９號二樓","OBJECTID":512884},"geometry":{"x":171126.01000000071,"y":2543366.3300000001}},{"attributes":{"ID":512912,"DIS_CODE":0,"TOWNNAME":"東區","LI":"東光里","LIN":"1鄰","STREET":"東光路","SECT":"一段","MAREA":" ","LANE":" ","ALLEY":" ","HOUSE_NO":"９號五樓","E_COORD97":171126.01000000001,"N_COORD97":2543366.3300000001,"ADDRESS":"東光路一段９號五樓","OBJECTID":512885},"geometry":{"x":171126.01000000071,"y":2543366.3300000001}},{"attributes":{"ID":512913,"DIS_CODE":0,"TOWNNAME":"東區","LI":"東光里","LIN":"1鄰","STREET":"東光路","SECT":"一段","MAREA":" ","LANE":" ","ALLEY":" ","HOUSE_NO":"９號六樓","E_COORD97":171126.01000000001,"N_COORD97":2543366.3300000001,"ADDRESS":"東光路一段９號六樓","OBJECTID":512886},"geometry":{"x":171126.01000000071,"y":2543366.3300000001}},{"attributes":{"ID":512914,"DIS_CODE":0,"TOWNNAME":"東區","LI":"東光里","LIN":"1鄰","STREET":"東光路","SECT":"一段","MAREA":" ","LANE":" ","ALLEY":" ","HOUSE_NO":"９號四樓","E_COORD97":171126.01000000001,"N_COORD97":2543366.3300000001,"ADDRESS":"東光路一段９號四樓","OBJECTID":512887},"geometry":{"x":171126.01000000071,"y":2543366.3300000001}},{"attributes":{"ID":512915,"DIS_CODE":0,"TOWNNAME":"東區","LI":"東光里","LIN":"1鄰","STREET":"東光路","SECT":"一段","MAREA":" ","LANE":" ","ALLEY":" ","HOUSE_NO":"１３號二樓","E_COORD97":171127.67999999999,"N_COORD97":2543380.29,"ADDRESS":"東光路一段１３號二樓","OBJECTID":512888},"geometry":{"x":171127.68000000063,"y":2543380.2899999972}},{"attributes":{"ID":512916,"DIS_CODE":0,"TOWNNAME":"東區","LI":"東光里","LIN":"1鄰","STREET":"東光路","SECT":"一段","MAREA":" ","LANE":" ","ALLEY":" ","HOUSE_NO":"１７號五樓","E_COORD97":171127.62,"N_COORD97":2543392.4900000002,"ADDRESS":"東光路一段１７號五樓","OBJECTID":512889},"geometry":{"x":171127.62000000011,"y":2543392.4900000002}},{"attributes":{"ID":512917,"DIS_CODE":0,"TOWNNAME":"東區","LI":"東光里","LIN":"1鄰","STREET":"東光路","SECT":"一段","MAREA":" ","LANE":" ","ALLEY":" ","HOUSE_NO":"７號六樓","E_COORD97":171125.48000000001,"N_COORD97":2543359.4199999999,"ADDRESS":"東光路一段７號六樓","OBJECTID":512890},"geometry":{"x":171125.48000000045,"y":2543359.4199999999}},{"attributes":{"ID":512918,"DIS_CODE":0,"TOWNNAME":"東區","LI":"東光里","LIN":"1鄰","STREET":"東光路","SECT":"一段","MAREA":" ","LANE":" ","ALLEY":" ","HOUSE_NO":"１３號三樓","E_COORD97":171127.67999999999,"N_COORD97":2543380.29,"ADDRESS":"東光路一段１３號三樓","OBJECTID":512891},"geometry":{"x":171127.68000000063,"y":2543380.2899999972}},{"attributes":{"ID":512919,"DIS_CODE":0,"TOWNNAME":"東區","LI":"東光里","LIN":"1鄰","STREET":"東光路","SECT":"一段","MAREA":" ","LANE":" ","ALLEY":" ","HOUSE_NO":"７號五樓","E_COORD97":171125.48000000001,"N_COORD97":2543359.4199999999,"ADDRESS":"東光路一段７號五樓","OBJECTID":512892},"geometry":{"x":171125.48000000045,"y":2543359.4199999999}},{"attributes":{"ID":512920,"DIS_CODE":0,"TOWNNAME":"東區","LI":"東光里","LIN":"1鄰","STREET":"東光路","SECT":"一段","MAREA":" ","LANE":" ","ALLEY":" ","HOUSE_NO":"７號七樓","E_COORD97":171125.48000000001,"N_COORD97":2543359.4199999999,"ADDRESS":"東光路一段７號七樓","OBJECTID":512893},"geometry":{"x":171125.48000000045,"y":2543359.4199999999}},{"attributes":{"ID":512921,"DIS_CODE":0,"TOWNNAME":"東區","LI":"東光里","LIN":"1鄰","STREET":"東光路","SECT":"一段","MAREA":" ","LANE":" ","ALLEY":" ","HOUSE_NO":"９號三樓","E_COORD97":171126.01000000001,"N_COORD97":2543366.3300000001,"ADDRESS":"東光路一段９號三樓","OBJECTID":512894},"geometry":{"x":171126.01000000071,"y":2543366.3300000001}},{"attributes":{"ID":512922,"DIS_CODE":0,"TOWNNAME":"東區","LI":"東光里","LIN":"1鄰","STREET":"東光路","SECT":"一段","MAREA":" ","LANE":" ","ALLEY":" ","HOUSE_NO":"９號八樓","E_COORD97":171126.01000000001,"N_COORD97":2543366.3300000001,"ADDRESS":"東光路一段９號八樓","OBJECTID":512895},"geometry":{"x":171126.01000000071,"y":2543366.3300000001}},{"attributes":{"ID":512923,"DIS_CODE":0,"TOWNNAME":"東區","LI":"東光里","LIN":"1鄰","STREET":"東光路","SECT":"一段","MAREA":" ","LANE":" ","ALLEY":" ","HOUSE_NO":"１１號八樓","E_COORD97":171126.92000000001,"N_COORD97":2543373.0800000001,"ADDRESS":"東光路一段１１號八樓","OBJECTID":512896},"geometry":{"x":171126.92000000086,"y":2543373.0800000038}},{"attributes":{"ID":512924,"DIS_CODE":0,"TOWNNAME":"東區","LI":"東光里","LIN":"1鄰","STREET":"東光路","SECT":"一段","MAREA":" ","LANE":" ","ALLEY":" ","HOUSE_NO":"１３號五樓","E_COORD97":171127.67999999999,"N_COORD97":2543380.29,"ADDRESS":"東光路一段１３號五樓","OBJECTID":512897},"geometry":{"x":171127.68000000063,"y":2543380.2899999972}},{"attributes":{"ID":512925,"DIS_CODE":0,"TOWNNAME":"東區","LI":"東光里","LIN":"1鄰","STREET":"東光路","SECT":"一段","MAREA":" ","LANE":" ","ALLEY":" ","HOUSE_NO":"１５號四樓","E_COORD97":171127.87,"N_COORD97":2543386.3300000001,"ADDRESS":"東光路一段１５號四樓","OBJECTID":512898},"geometry":{"x":171127.87000000011,"y":2543386.3300000019}},{"attributes":{"ID":512926,"DIS_CODE":0,"TOWNNAME":"東區","LI":"東光里","LIN":"1鄰","STREET":"東光路","SECT":"一段","MAREA":" ","LANE":" ","ALLEY":" ","HOUSE_NO":"１５號七樓","E_COORD97":171127.87,"N_COORD97":2543386.3300000001,"ADDRESS":"東光路一段１５號七樓","OBJECTID":512899},"geometry":{"x":171127.87000000011,"y":2543386.3300000019}},{"attributes":{"ID":512927,"DIS_CODE":0,"TOWNNAME":"東區","LI":"東光里","LIN":"1鄰","STREET":"東光路","SECT":"一段","MAREA":" ","LANE":" ","ALLEY":" ","HOUSE_NO":"１７號三樓","E_COORD97":171127.62,"N_COORD97":2543392.4900000002,"ADDRESS":"東光路一段１７號三樓","OBJECTID":512900},"geometry":{"x":171127.62000000011,"y":2543392.4900000002}},{"attributes":{"ID":512928,"DIS_CODE":0,"TOWNNAME":"東區","LI":"東光里","LIN":"1鄰","STREET":"東光路","SECT":"一段","MAREA":" ","LANE":" ","ALLEY":" ","HOUSE_NO":"１７號四樓","E_COORD97":171127.62,"N_COORD97":2543392.4900000002,"ADDRESS":"東光路一段１７號四樓","OBJECTID":512901},"geometry":{"x":171127.62000000011,"y":2543392.4900000002}},{"attributes":{"ID":512929,"DIS_CODE":0,"TOWNNAME":"東區","LI":"東光里","LIN":"1鄰","STREET":"東光路","SECT":"一段","MAREA":" ","LANE":" ","ALLEY":" ","HOUSE_NO":"１７號六樓","E_COORD97":171127.62,"N_COORD97":2543392.4900000002,"ADDRESS":"東光路一段１７號六樓","OBJECTID":512902},"geometry":{"x":171127.62000000011,"y":2543392.4900000002}},{"attributes":{"ID":512930,"DIS_CODE":0,"TOWNNAME":"東區","LI":"崇明里","LIN":"1鄰","STREET":"中華東路","SECT":"三段","MAREA":" ","LANE":" ","ALLEY":" ","HOUSE_NO":"５５３號二樓","E_COORD97":169565.97,"N_COORD97":2541423.3999999999,"ADDRESS":"中華東路三段５５３號二樓","OBJECTID":512903},"geometry":{"x":169565.9700000016,"y":2541423.4000000004}},{"attributes":{"ID":512931,"DIS_CODE":0,"TOWNNAME":"東區","LI":"崇明里","LIN":"1鄰","STREET":"中華東路","SECT":"三段","MAREA":" ","LANE":" ","ALLEY":" ","HOUSE_NO":"５５３號二樓之２","E_COORD97":169565.97,"N_COORD97":2541423.3999999999,"ADDRESS":"中華東路三段５５３號二樓之２","OBJECTID":512904},"geometry":{"x":169565.9700000016,"y":2541423.4000000004}},{"attributes":{"ID":512932,"DIS_CODE":0,"TOWNNAME":"東區","LI":"崇明里","LIN":"1鄰","STREET":"中華東路","SECT":"三段","MAREA":" ","LANE":" ","ALLEY":" ","HOUSE_NO":"５５３號三樓","E_COORD97":169565.97,"N_COORD97":2541423.3999999999,"ADDRESS":"中華東路三段５５３號三樓","OBJECTID":512905},"geometry":{"x":169565.9700000016,"y":2541423.4000000004}},{"attributes":{"ID":512933,"DIS_CODE":0,"TOWNNAME":"東區","LI":"崇明里","LIN":"1鄰","STREET":"中華東路","SECT":"三段","MAREA":" ","LANE":" ","ALLEY":" ","HOUSE_NO":"５５３號五樓","E_COORD97":169565.97,"N_COORD97":2541423.3999999999,"ADDRESS":"中華東路三段５５３號五樓","OBJECTID":512906},"geometry":{"x":169565.9700000016,"y":2541423.4000000004}},{"attributes":{"ID":512934,"DIS_CODE":0,"TOWNNAME":"東區","LI":"崇明里","LIN":"1鄰","STREET":"中華東路","SECT":"三段","MAREA":" ","LANE":" ","ALLEY":" ","HOUSE_NO":"５５３號五樓之１","E_COORD97":169565.97,"N_COORD97":2541423.3999999999,"ADDRESS":"中華東路三段５５３號五樓之１","OBJECTID":512907},"geometry":{"x":169565.9700000016,"y":2541423.4000000004}},{"attributes":{"ID":512935,"DIS_CODE":0,"TOWNNAME":"東區","LI":"崇明里","LIN":"1鄰","STREET":"中華東路","SECT":"三段","MAREA":" ","LANE":" ","ALLEY":" ","HOUSE_NO":"５５３號六樓之２","E_COORD97":169565.97,"N_COORD97":2541423.3999999999,"ADDRESS":"中華東路三段５５３號六樓之２","OBJECTID":512908},"geometry":{"x":169565.9700000016,"y":2541423.4000000004}},{"attributes":{"ID":512936,"DIS_CODE":0,"TOWNNAME":"東區","LI":"崇明里","LIN":"1鄰","STREET":"中華東路","SECT":"三段","MAREA":" ","LANE":" ","ALLEY":" ","HOUSE_NO":"５５３號四樓","E_COORD97":169565.97,"N_COORD97":2541423.3999999999,"ADDRESS":"中華東路三段５５３號四樓","OBJECTID":512909},"geometry":{"x":169565.9700000016,"y":2541423.4000000004}},{"attributes":{"ID":512937,"DIS_CODE":0,"TOWNNAME":"東區","LI":"崇明里","LIN":"1鄰","STREET":"中華東路","SECT":"三段","MAREA":" ","LANE":" ","ALLEY":" ","HOUSE_NO":"５５３號四樓之１","E_COORD97":169565.97,"N_COORD97":2541423.3999999999,"ADDRESS":"中華東路三段５５３號四樓之１","OBJECTID":512910},"geometry":{"x":169565.9700000016,"y":2541423.4000000004}},{"attributes":{"ID":512938,"DIS_CODE":0,"TOWNNAME":"東區","LI":"崇明里","LIN":"1鄰","STREET":"中華東路","SECT":"三段","MAREA":" ","LANE":" ","ALLEY":" ","HOUSE_NO":"５５３號六樓之１","E_COORD97":169565.97,"N_COORD97":2541423.3999999999,"ADDRESS":"中華東路三段５５３號六樓之１","OBJECTID":512911},"geometry":{"x":169565.9700000016,"y":2541423.4000000004}},{"attributes":{"ID":512939,"DIS_CODE":0,"TOWNNAME":"東區","LI":"崇明里","LIN":"1鄰","STREET":"中華東路","SECT":"三段","MAREA":" ","LANE":" ","ALLEY":" ","HOUSE_NO":"５５３號四樓之２","E_COORD97":169565.97,"N_COORD97":2541423.3999999999,"ADDRESS":"中華東路三段５５３號四樓之２","OBJECTID":512912},"geometry":{"x":169565.9700000016,"y":2541423.4000000004}},{"attributes":{"ID":512940,"DIS_CODE":0,"TOWNNAME":"東區","LI":"崇明里","LIN":"1鄰","STREET":"中華東路","SECT":"三段","MAREA":" ","LANE":" ","ALLEY":" ","HOUSE_NO":"５５３號二樓之１","E_COORD97":169565.97,"N_COORD97":2541423.3999999999,"ADDRESS":"中華東路三段５５３號二樓之１","OBJECTID":512913},"geometry":{"x":169565.9700000016,"y":2541423.4000000004}},{"attributes":{"ID":512941,"DIS_CODE":0,"TOWNNAME":"東區","LI":"崇明里","LIN":"1鄰","STREET":"中華東路","SECT":"三段","MAREA":" ","LANE":" ","ALLEY":" ","HOUSE_NO":"５５３號三樓之１","E_COORD97":169565.97,"N_COORD97":2541423.3999999999,"ADDRESS":"中華東路三段５５３號三樓之１","OBJECTID":512914},"geometry":{"x":169565.9700000016,"y":2541423.4000000004}},{"attributes":{"ID":512942,"DIS_CODE":0,"TOWNNAME":"東區","LI":"崇明里","LIN":"1鄰","STREET":"中華東路","SECT":"三段","MAREA":" ","LANE":" ","ALLEY":" ","HOUSE_NO":"５５３號三樓之２","E_COORD97":169565.97,"N_COORD97":2541423.3999999999,"ADDRESS":"中華東路三段５５３號三樓之２","OBJECTID":512915},"geometry":{"x":169565.9700000016,"y":2541423.4000000004}},{"attributes":{"ID":512943,"DIS_CODE":0,"TOWNNAME":"東區","LI":"崇明里","LIN":"1鄰","STREET":"中華東路","SECT":"三段","MAREA":" ","LANE":" ","ALLEY":" ","HOUSE_NO":"５５３號五樓之２","E_COORD97":169565.97,"N_COORD97":2541423.3999999999,"ADDRESS":"中華東路三段５５３號五樓之２","OBJECTID":512916},"geometry":{"x":169565.9700000016,"y":2541423.4000000004}},{"attributes":{"ID":512944,"DIS_CODE":0,"TOWNNAME":"安平區","LI":"金城里","LIN":"12鄰","STREET":"世平一街","SECT":" ","MAREA":" ","LANE":" ","ALLEY":" ","HOUSE_NO":"６８號","E_COORD97":162843.23000000001,"N_COORD97":2543961.2000000002,"ADDRESS":"世平一街６８號","OBJECTID":512917},"geometry":{"x":162843.23000000045,"y":2543961.200000003}},{"attributes":{"ID":512945,"DIS_CODE":0,"TOWNNAME":"安平區","LI":"金城里","LIN":"13鄰","STREET":"世平三街","SECT":" ","MAREA":" ","LANE":" ","ALLEY":" ","HOUSE_NO":"１６號","E_COORD97":162792.48999999999,"N_COORD97":2544037.1200000001,"ADDRESS":"世平三街１６號","OBJECTID":512918},"geometry":{"x":162792.49000000209,"y":2544037.120000001}},{"attributes":{"ID":512946,"DIS_CODE":0,"TOWNNAME":"安平區","LI":"建平里","LIN":"8鄰","STREET":"府前路","SECT":"二段","MAREA":" ","LANE":" ","ALLEY":" ","HOUSE_NO":"５５６號","E_COORD97":166484.12,"N_COORD97":2543757.1800000002,"ADDRESS":"府前路二段５５６號","OBJECTID":512919},"geometry":{"x":166484.12000000104,"y":2543757.1799999997}},{"attributes":{"ID":512947,"DIS_CODE":0,"TOWNNAME":"安平區","LI":"建平里","LIN":"8鄰","STREET":"府前路","SECT":"二段","MAREA":" ","LANE":" ","ALLEY":" ","HOUSE_NO":"５５８號","E_COORD97":166477.79000000001,"N_COORD97":2543758.3500000001,"ADDRESS":"府前路二段５５８號","OBJECTID":512920},"geometry":{"x":166477.79000000097,"y":2543758.3500000015}},{"attributes":{"ID":512948,"DIS_CODE":0,"TOWNNAME":"安平區","LI":"建平里","LIN":"7鄰","STREET":"建平十街","SECT":" ","MAREA":" ","LANE":" ","ALLEY":" ","HOUSE_NO":"６號","E_COORD97":166401.89999999999,"N_COORD97":2543838.5299999998,"ADDRESS":"建平十街６號","OBJECTID":512921},"geometry":{"x":166401.90000000037,"y":2543838.5300000012}},{"attributes":{"ID":512949,"DIS_CODE":0,"TOWNNAME":"安平區","LI":"建平里","LIN":"7鄰","STREET":"建平十街","SECT":" ","MAREA":" ","LANE":" ","ALLEY":" ","HOUSE_NO":"２８號","E_COORD97":166344.29000000001,"N_COORD97":2543840.79,"ADDRESS":"建平十街２８號","OBJECTID":512922},"geometry":{"x":166344.29000000004,"y":2543840.7899999991}},{"attributes":{"ID":512950,"DIS_CODE":0,"TOWNNAME":"東區","LI":"崇明里","LIN":"1鄰","STREET":"中華東路","SECT":"三段","MAREA":" ","LANE":" ","ALLEY":" ","HOUSE_NO":"５５３號六樓","E_COORD97":169565.97,"N_COORD97":2541423.3999999999,"ADDRESS":"中華東路三段５５３號六樓","OBJECTID":512923},"geometry":{"x":169565.9700000016,"y":2541423.4000000004}},{"attributes":{"ID":512951,"DIS_CODE":0,"TOWNNAME":"東區","LI":"富強里","LIN":"1鄰","STREET":"裕農路","SECT":" ","MAREA":" ","LANE":" ","ALLEY":" ","HOUSE_NO":"３２０號七樓","E_COORD97":170975.23000000001,"N_COORD97":2543018.2799999998,"ADDRESS":"裕農路３２０號七樓","OBJECTID":512924},"geometry":{"x":170975.23000000045,"y":2543018.2800000031}},{"attributes":{"ID":512952,"DIS_CODE":0,"TOWNNAME":"東區","LI":"富強里","LIN":"1鄰","STREET":"裕農路","SECT":" ","MAREA":" ","LANE":" ","ALLEY":" ","HOUSE_NO":"３２０號八樓","E_COORD97":170975.23000000001,"N_COORD97":2543018.2799999998,"ADDRESS":"裕農路３２０號八樓","OBJECTID":512925},"geometry":{"x":170975.23000000045,"y":2543018.2800000031}},{"attributes":{"ID":512953,"DIS_CODE":0,"TOWNNAME":"東區","LI":"富強里","LIN":"1鄰","STREET":"裕農路","SECT":" ","MAREA":" ","LANE":" ","ALLEY":" ","HOUSE_NO":"３２０號三樓","E_COORD97":170975.23000000001,"N_COORD97":2543018.2799999998,"ADDRESS":"裕農路３２０號三樓","OBJECTID":512926},"geometry":{"x":170975.23000000045,"y":2543018.2800000031}},{"attributes":{"ID":512954,"DIS_CODE":0,"TOWNNAME":"東區","LI":"富強里","LIN":"1鄰","STREET":"裕農路","SECT":" ","MAREA":" ","LANE":" ","ALLEY":" ","HOUSE_NO":"３２０號三樓之１","E_COORD97":170975.23000000001,"N_COORD97":2543018.2799999998,"ADDRESS":"裕農路３２０號三樓之１","OBJECTID":512927},"geometry":{"x":170975.23000000045,"y":2543018.2800000031}},{"attributes":{"ID":512955,"DIS_CODE":0,"TOWNNAME":"東區","LI":"富強里","LIN":"1鄰","STREET":"裕農路","SECT":" ","MAREA":" ","LANE":" ","ALLEY":" ","HOUSE_NO":"３２０號五樓","E_COORD97":170975.23000000001,"N_COORD97":2543018.2799999998,"ADDRESS":"裕農路３２０號五樓","OBJECTID":512928},"geometry":{"x":170975.23000000045,"y":2543018.2800000031}},{"attributes":{"ID":512956,"DIS_CODE":0,"TOWNNAME":"東區","LI":"富強里","LIN":"1鄰","STREET":"裕農路","SECT":" ","MAREA":" ","LANE":" ","ALLEY":" ","HOUSE_NO":"３２０號六樓","E_COORD97":170975.23000000001,"N_COORD97":2543018.2799999998,"ADDRESS":"裕農路３２０號六樓","OBJECTID":512929},"geometry":{"x":170975.23000000045,"y":2543018.2800000031}},{"attributes":{"ID":512957,"DIS_CODE":0,"TOWNNAME":"東區","LI":"富強里","LIN":"1鄰","STREET":"裕農路","SECT":" ","MAREA":" ","LANE":" ","ALLEY":" ","HOUSE_NO":"３２０號六樓之１","E_COORD97":170975.23000000001,"N_COORD97":2543018.2799999998,"ADDRESS":"裕農路３２０號六樓之１","OBJECTID":512930},"geometry":{"x":170975.23000000045,"y":2543018.2800000031}},{"attributes":{"ID":512958,"DIS_CODE":0,"TOWNNAME":"東區","LI":"富強里","LIN":"1鄰","STREET":"裕農路","SECT":" ","MAREA":" ","LANE":" ","ALLEY":" ","HOUSE_NO":"３２０號四樓之１","E_COORD97":170975.23000000001,"N_COORD97":2543018.2799999998,"ADDRESS":"裕農路３２０號四樓之１","OBJECTID":512931},"geometry":{"x":170975.23000000045,"y":2543018.2800000031}},{"attributes":{"ID":512959,"DIS_CODE":0,"TOWNNAME":"東區","LI":"富強里","LIN":"1鄰","STREET":"裕農路","SECT":" ","MAREA":" ","LANE":" ","ALLEY":" ","HOUSE_NO":"３２２號七樓","E_COORD97":170984.07999999999,"N_COORD97":2543022.23,"ADDRESS":"裕農路３２２號七樓","OBJECTID":512932},"geometry":{"x":170984.08000000007,"y":2543022.2300000004}},{"attributes":{"ID":512960,"DIS_CODE":0,"TOWNNAME":"東區","LI":"富強里","LIN":"1鄰","STREET":"裕農路","SECT":" ","MAREA":" ","LANE":" ","ALLEY":" ","HOUSE_NO":"３２２號三樓","E_COORD97":170984.07999999999,"N_COORD97":2543022.23,"ADDRESS":"裕農路３２２號三樓","OBJECTID":512933},"geometry":{"x":170984.08000000007,"y":2543022.2300000004}},{"attributes":{"ID":512961,"DIS_CODE":0,"TOWNNAME":"東區","LI":"富強里","LIN":"1鄰","STREET":"裕農路","SECT":" ","MAREA":" ","LANE":" ","ALLEY":" ","HOUSE_NO":"３２２號三樓之１","E_COORD97":170984.07999999999,"N_COORD97":2543022.23,"ADDRESS":"裕農路３２２號三樓之１","OBJECTID":512934},"geometry":{"x":170984.08000000007,"y":2543022.2300000004}},{"attributes":{"ID":512962,"DIS_CODE":0,"TOWNNAME":"東區","LI":"富強里","LIN":"1鄰","STREET":"裕農路","SECT":" ","MAREA":" ","LANE":" ","ALLEY":" ","HOUSE_NO":"３２２號五樓","E_COORD97":170984.07999999999,"N_COORD97":2543022.23,"ADDRESS":"裕農路３２２號五樓","OBJECTID":512935},"geometry":{"x":170984.08000000007,"y":2543022.2300000004}},{"attributes":{"ID":512963,"DIS_CODE":0,"TOWNNAME":"東區","LI":"富強里","LIN":"1鄰","STREET":"裕農路","SECT":" ","MAREA":" ","LANE":" ","ALLEY":" ","HOUSE_NO":"３２２號五樓之１","E_COORD97":170984.07999999999,"N_COORD97":2543022.23,"ADDRESS":"裕農路３２２號五樓之１","OBJECTID":512936},"geometry":{"x":170984.08000000007,"y":2543022.2300000004}},{"attributes":{"ID":512964,"DIS_CODE":0,"TOWNNAME":"東區","LI":"富強里","LIN":"1鄰","STREET":"裕農路","SECT":" ","MAREA":" ","LANE":" ","ALLEY":" ","HOUSE_NO":"３２２號六樓","E_COORD97":170984.07999999999,"N_COORD97":2543022.23,"ADDRESS":"裕農路３２２號六樓","OBJECTID":512937},"geometry":{"x":170984.08000000007,"y":2543022.2300000004}},{"attributes":{"ID":512965,"DIS_CODE":0,"TOWNNAME":"東區","LI":"富強里","LIN":"1鄰","STREET":"裕農路","SECT":" ","MAREA":" ","LANE":" ","ALLEY":" ","HOUSE_NO":"３２２號四樓","E_COORD97":170984.07999999999,"N_COORD97":2543022.23,"ADDRESS":"裕農路３２２號四樓","OBJECTID":512938},"geometry":{"x":170984.08000000007,"y":2543022.2300000004}},{"attributes":{"ID":512966,"DIS_CODE":0,"TOWNNAME":"東區","LI":"富強里","LIN":"1鄰","STREET":"裕農路","SECT":" ","MAREA":" ","LANE":" ","ALLEY":" ","HOUSE_NO":"３２２號四樓之１","E_COORD97":170984.07999999999,"N_COORD97":2543022.23,"ADDRESS":"裕農路３２２號四樓之１","OBJECTID":512939},"geometry":{"x":170984.08000000007,"y":2543022.2300000004}},{"attributes":{"ID":512967,"DIS_CODE":0,"TOWNNAME":"東區","LI":"富強里","LIN":"1鄰","STREET":"裕農路","SECT":" ","MAREA":" ","LANE":" ","ALLEY":" ","HOUSE_NO":"３２０號四樓","E_COORD97":170975.23000000001,"N_COORD97":2543018.2799999998,"ADDRESS":"裕農路３２０號四樓","OBJECTID":512940},"geometry":{"x":170975.23000000045,"y":2543018.2800000031}},{"attributes":{"ID":512968,"DIS_CODE":0,"TOWNNAME":"東區","LI":"富強里","LIN":"1鄰","STREET":"裕農路","SECT":" ","MAREA":" ","LANE":" ","ALLEY":" ","HOUSE_NO":"３２０號五樓之１","E_COORD97":170975.23000000001,"N_COORD97":2543018.2799999998,"ADDRESS":"裕農路３２０號五樓之１","OBJECTID":512941},"geometry":{"x":170975.23000000045,"y":2543018.2800000031}},{"attributes":{"ID":512969,"DIS_CODE":0,"TOWNNAME":"東區","LI":"富強里","LIN":"1鄰","STREET":"裕農路","SECT":" ","MAREA":" ","LANE":" ","ALLEY":" ","HOUSE_NO":"３２０號七樓之１","E_COORD97":170975.23000000001,"N_COORD97":2543018.2799999998,"ADDRESS":"裕農路３２０號七樓之１","OBJECTID":512942},"geometry":{"x":170975.23000000045,"y":2543018.2800000031}},{"attributes":{"ID":512970,"DIS_CODE":0,"TOWNNAME":"安平區","LI":"金城里","LIN":"8鄰","STREET":"世平五街","SECT":" ","MAREA":" ","LANE":" ","ALLEY":" ","HOUSE_NO":"４７號","E_COORD97":162887.98000000001,"N_COORD97":2544191.71,"ADDRESS":"世平五街４７號","OBJECTID":512943},"geometry":{"x":162887.98000000138,"y":2544191.7100000009}},{"attributes":{"ID":512971,"DIS_CODE":0,"TOWNNAME":"安平區","LI":"金城里","LIN":"8鄰","STREET":"世平五街","SECT":" ","MAREA":" ","LANE":" ","ALLEY":" ","HOUSE_NO":"４７號之１","E_COORD97":162889.64000000001,"N_COORD97":2544187.4399999999,"ADDRESS":"世平五街４７號之１","OBJECTID":512944},"geometry":{"x":162889.6400000006,"y":2544187.4400000013}},{"attributes":{"ID":512972,"DIS_CODE":0,"TOWNNAME":"東區","LI":"富強里","LIN":"1鄰","STREET":"裕農路","SECT":" ","MAREA":" ","LANE":" ","ALLEY":" ","HOUSE_NO":"３２０號八樓之１","E_COORD97":170975.23000000001,"N_COORD97":2543018.2799999998,"ADDRESS":"裕農路３２０號八樓之１","OBJECTID":512945},"geometry":{"x":170975.23000000045,"y":2543018.2800000031}},{"attributes":{"ID":512973,"DIS_CODE":0,"TOWNNAME":"東區","LI":"富強里","LIN":"1鄰","STREET":"裕農路","SECT":" ","MAREA":" ","LANE":" ","ALLEY":" ","HOUSE_NO":"３２２號六樓之１","E_COORD97":170984.07999999999,"N_COORD97":2543022.23,"ADDRESS":"裕農路３２２號六樓之１","OBJECTID":512946},"geometry":{"x":170984.08000000007,"y":2543022.2300000004}},{"attributes":{"ID":512974,"DIS_CODE":0,"TOWNNAME":"東區","LI":"富強里","LIN":"1鄰","STREET":"裕農路","SECT":" ","MAREA":" ","LANE":" ","ALLEY":" ","HOUSE_NO":"３２２號七樓之１","E_COORD97":170984.07999999999,"N_COORD97":2543022.23,"ADDRESS":"裕農路３２２號七樓之１","OBJECTID":512947},"geometry":{"x":170984.08000000007,"y":2543022.2300000004}},{"attributes":{"ID":512975,"DIS_CODE":0,"TOWNNAME":"永康區","LI":"大橋里","LIN":"1鄰","STREET":"中華路","SECT":" ","MAREA":" ","LANE":" ","ALLEY":" ","HOUSE_NO":"８６２號五樓之８","E_COORD97":170635.78,"N_COORD97":2546605.79,"ADDRESS":"中華路８６２號五樓之８","OBJECTID":512948},"geometry":{"x":170635.78000000212,"y":2546605.790000001}},{"attributes":{"ID":512976,"DIS_CODE":0,"TOWNNAME":"永康區","LI":"大橋里","LIN":"1鄰","STREET":"中華路","SECT":" ","MAREA":" ","LANE":" ","ALLEY":" ","HOUSE_NO":"８６２號六樓之７","E_COORD97":170635.70999999999,"N_COORD97":2546605.79,"ADDRESS":"中華路８６２號六樓之７","OBJECTID":512949},"geometry":{"x":170635.70999999996,"y":2546605.790000001}},{"attributes":{"ID":512977,"DIS_CODE":0,"TOWNNAME":"永康區","LI":"大橋里","LIN":"1鄰","STREET":"中華路","SECT":" ","MAREA":" ","LANE":" ","ALLEY":" ","HOUSE_NO":"９０８號三樓","E_COORD97":170542.12,"N_COORD97":2546672,"ADDRESS":"中華路９０８號三樓","OBJECTID":512950},"geometry":{"x":170542.12000000104,"y":2546672.0000000037}},{"attributes":{"ID":512978,"DIS_CODE":0,"TOWNNAME":"永康區","LI":"五王里","LIN":"1鄰","STREET":"成功路","SECT":" ","MAREA":" ","LANE":" ","ALLEY":" ","HOUSE_NO":"６０號三樓之３","E_COORD97":171546.84,"N_COORD97":2545481.2999999998,"ADDRESS":"成功路６０號三樓之３","OBJECTID":512951},"geometry":{"x":171546.83999999892,"y":2545481.3000000026}},{"attributes":{"ID":512979,"DIS_CODE":0,"TOWNNAME":"永康區","LI":"五王里","LIN":"1鄰","STREET":"成功路","SECT":" ","MAREA":" ","LANE":" ","ALLEY":" ","HOUSE_NO":"６０號六樓之１","E_COORD97":171546.73999999999,"N_COORD97":2545481.2999999998,"ADDRESS":"成功路６０號六樓之１","OBJECTID":512952},"geometry":{"x":171546.74000000115,"y":2545481.3000000026}},{"attributes":{"ID":512980,"DIS_CODE":0,"TOWNNAME":"永康區","LI":"五王里","LIN":"1鄰","STREET":"成功路","SECT":" ","MAREA":" ","LANE":" ","ALLEY":" ","HOUSE_NO":"６４號二樓之２","E_COORD97":171547.29999999999,"N_COORD97":2545487.0499999998,"ADDRESS":"成功路６４號二樓之２","OBJECTID":512953},"geometry":{"x":171547.30000000168,"y":2545487.0500000026}},{"attributes":{"ID":512981,"DIS_CODE":0,"TOWNNAME":"永康區","LI":"五王里","LIN":"1鄰","STREET":"成功路","SECT":" ","MAREA":" ","LANE":" ","ALLEY":" ","HOUSE_NO":"６０號二樓之１","E_COORD97":171546.73999999999,"N_COORD97":2545481.2999999998,"ADDRESS":"成功路６０號二樓之１","OBJECTID":512954},"geometry":{"x":171546.74000000115,"y":2545481.3000000026}},{"attributes":{"ID":512982,"DIS_CODE":0,"TOWNNAME":"永康區","LI":"五王里","LIN":"1鄰","STREET":"成功路","SECT":" ","MAREA":" ","LANE":" ","ALLEY":" ","HOUSE_NO":"６４號四樓之２","E_COORD97":171547.29999999999,"N_COORD97":2545487.0499999998,"ADDRESS":"成功路６４號四樓之２","OBJECTID":512955},"geometry":{"x":171547.30000000168,"y":2545487.0500000026}},{"attributes":{"ID":512983,"DIS_CODE":0,"TOWNNAME":"永康區","LI":"五王里","LIN":"1鄰","STREET":"成功路","SECT":" ","MAREA":" ","LANE":" ","ALLEY":" ","HOUSE_NO":"６０號四樓之１","E_COORD97":171546.73999999999,"N_COORD97":2545481.2999999998,"ADDRESS":"成功路６０號四樓之１","OBJECTID":512956},"geometry":{"x":171546.74000000115,"y":2545481.3000000026}},{"attributes":{"ID":512984,"DIS_CODE":0,"TOWNNAME":"永康區","LI":"五王里","LIN":"1鄰","STREET":"成功路","SECT":" ","MAREA":" ","LANE":" ","ALLEY":" ","HOUSE_NO":"６０號七樓之３","E_COORD97":171546.84,"N_COORD97":2545481.2999999998,"ADDRESS":"成功路６０號七樓之３","OBJECTID":512957},"geometry":{"x":171546.83999999892,"y":2545481.3000000026}},{"attributes":{"ID":512985,"DIS_CODE":0,"TOWNNAME":"永康區","LI":"五王里","LIN":"1鄰","STREET":"成功路","SECT":" ","MAREA":" ","LANE":" ","ALLEY":" ","HOUSE_NO":"６０號二樓之２","E_COORD97":171546.88,"N_COORD97":2545481.2999999998,"ADDRESS":"成功路６０號二樓之２","OBJECTID":512958},"geometry":{"x":171546.88000000082,"y":2545481.3000000026}},{"attributes":{"ID":512986,"DIS_CODE":0,"TOWNNAME":"永康區","LI":"五王里","LIN":"1鄰","STREET":"成功路","SECT":" ","MAREA":" ","LANE":" ","ALLEY":" ","HOUSE_NO":"６４號三樓之１","E_COORD97":171547.16,"N_COORD97":2545487.0499999998,"ADDRESS":"成功路６４號三樓之１","OBJECTID":512959},"geometry":{"x":171547.16000000108,"y":2545487.0500000026}},{"attributes":{"ID":512987,"DIS_CODE":0,"TOWNNAME":"永康區","LI":"大橋里","LIN":"1鄰","STREET":"中華路","SECT":" ","MAREA":" ","LANE":" ","ALLEY":" ","HOUSE_NO":"８６２號八樓之３","E_COORD97":170635.73000000001,"N_COORD97":2546605.79,"ADDRESS":"中華路８６２號八樓之３","OBJECTID":512960},"geometry":{"x":170635.73000000045,"y":2546605.790000001}},{"attributes":{"ID":512988,"DIS_CODE":0,"TOWNNAME":"永康區","LI":"大灣里","LIN":"1鄰","STREET":"大安街","SECT":" ","MAREA":" ","LANE":" ","ALLEY":" ","HOUSE_NO":"４１８號三樓之２","E_COORD97":174639.54999999999,"N_COORD97":2545787,"ADDRESS":"大安街４１８號三樓之２","OBJECTID":512961},"geometry":{"x":174639.55000000075,"y":2545786.9999999981}},{"attributes":{"ID":512989,"DIS_CODE":0,"TOWNNAME":"永康區","LI":"大灣里","LIN":"1鄰","STREET":"大安街","SECT":" ","MAREA":" ","LANE":" ","ALLEY":" ","HOUSE_NO":"４１８號五樓之５","E_COORD97":174639.57000000001,"N_COORD97":2545787,"ADDRESS":"大安街４１８號五樓之５","OBJECTID":512962},"geometry":{"x":174639.57000000216,"y":2545786.9999999981}},{"attributes":{"ID":512990,"DIS_CODE":0,"TOWNNAME":"中西區","LI":"藥王里","LIN":"1鄰","STREET":"金華路","SECT":"四段","MAREA":" ","LANE":" ","ALLEY":" ","HOUSE_NO":"２９號四樓","E_COORD97":167423.42000000001,"N_COORD97":2544286.0699999998,"ADDRESS":"金華路四段２９號四樓","OBJECTID":512963},"geometry":{"x":167423.41999999993,"y":2544286.0700000022}},{"attributes":{"ID":512991,"DIS_CODE":0,"TOWNNAME":"中西區","LI":"藥王里","LIN":"1鄰","STREET":"金華路","SECT":"四段","MAREA":" ","LANE":" ","ALLEY":" ","HOUSE_NO":"２９號二樓","E_COORD97":167423.42000000001,"N_COORD97":2544286.0699999998,"ADDRESS":"金華路四段２９號二樓","OBJECTID":512964},"geometry":{"x":167423.41999999993,"y":2544286.0700000022}},{"attributes":{"ID":512992,"DIS_CODE":0,"TOWNNAME":"中西區","LI":"藥王里","LIN":"1鄰","STREET":"金華路","SECT":"四段","MAREA":" ","LANE":" ","ALLEY":" ","HOUSE_NO":"２９號三樓","E_COORD97":167423.42000000001,"N_COORD97":2544286.0699999998,"ADDRESS":"金華路四段２９號三樓","OBJECTID":512965},"geometry":{"x":167423.41999999993,"y":2544286.0700000022}},{"attributes":{"ID":512993,"DIS_CODE":0,"TOWNNAME":"善化區","LI":"坐駕里","LIN":"1鄰","STREET":"光明路","SECT":" ","MAREA":" ","LANE":" ","ALLEY":" ","HOUSE_NO":"２０號三樓","E_COORD97":177851.06,"N_COORD97":2559026.5,"ADDRESS":"光明路２０號三樓","OBJECTID":512966},"geometry":{"x":177851.05999999959,"y":2559026.4999999981}},{"attributes":{"ID":512994,"DIS_CODE":0,"TOWNNAME":"善化區","LI":"坐駕里","LIN":"1鄰","STREET":"光明路","SECT":" ","MAREA":" ","LANE":" ","ALLEY":" ","HOUSE_NO":"２０號三樓之１","E_COORD97":177851.92000000001,"N_COORD97":2559026.52,"ADDRESS":"光明路２０號三樓之１","OBJECTID":512967},"geometry":{"x":177851.91999999993,"y":2559026.5200000014}},{"attributes":{"ID":512995,"DIS_CODE":0,"TOWNNAME":"中西區","LI":"普濟里","LIN":"1鄰","STREET":"西門路","SECT":"二段","MAREA":" ","LANE":" ","ALLEY":" ","HOUSE_NO":"３６９號二樓","E_COORD97":168003.76999999999,"N_COORD97":2544301.2200000002,"ADDRESS":"西門路二段３６９號二樓","OBJECTID":512968},"geometry":{"x":168003.76999999955,"y":2544301.2199999988}},{"attributes":{"ID":512996,"DIS_CODE":0,"TOWNNAME":"中西區","LI":"普濟里","LIN":"1鄰","STREET":"西門路","SECT":"二段","MAREA":" ","LANE":" ","ALLEY":" ","HOUSE_NO":"３６９號三樓","E_COORD97":168003.76999999999,"N_COORD97":2544301.2200000002,"ADDRESS":"西門路二段３６９號三樓","OBJECTID":512969},"geometry":{"x":168003.76999999955,"y":2544301.2199999988}},{"attributes":{"ID":512997,"DIS_CODE":0,"TOWNNAME":"中西區","LI":"普濟里","LIN":"1鄰","STREET":"西門路","SECT":"二段","MAREA":" ","LANE":" ","ALLEY":" ","HOUSE_NO":"３６９號五樓","E_COORD97":168003.76999999999,"N_COORD97":2544301.2200000002,"ADDRESS":"西門路二段３６９號五樓","OBJECTID":512970},"geometry":{"x":168003.76999999955,"y":2544301.2199999988}},{"attributes":{"ID":512998,"DIS_CODE":0,"TOWNNAME":"安平區","LI":"金城里","LIN":"5鄰","STREET":"湖內二街","SECT":" ","MAREA":" ","LANE":" ","ALLEY":" ","HOUSE_NO":"３２號之３","E_COORD97":163801.42999999999,"N_COORD97":2544294.96,"ADDRESS":"湖內二街３２號之３","OBJECTID":512971},"geometry":{"x":163801.43000000063,"y":2544294.9600000028}},{"attributes":{"ID":512999,"DIS_CODE":0,"TOWNNAME":"安平區","LI":"金城里","LIN":"5鄰","STREET":"湖內二街","SECT":" ","MAREA":" ","LANE":" ","ALLEY":" ","HOUSE_NO":"２１號","E_COORD97":163782.25,"N_COORD97":2544280.5,"ADDRESS":"湖內二街２１號","OBJECTID":512972},"geometry":{"x":163782.25000000093,"y":2544280.5}},{"attributes":{"ID":513000,"DIS_CODE":0,"TOWNNAME":"安平區","LI":"文平里","LIN":"1鄰","STREET":"建平七街","SECT":" ","MAREA":" ","LANE":" ","ALLEY":" ","HOUSE_NO":"２號","E_COORD97":166557.54000000001,"N_COORD97":2543208.4199999999,"ADDRESS":"建平七街２號","OBJECTID":512973},"geometry":{"x":166557.54000000097,"y":2543208.4200000018}},{"attributes":{"ID":513001,"DIS_CODE":0,"TOWNNAME":"中西區","LI":"普濟里","LIN":"1鄰","STREET":"西門路","SECT":"二段","MAREA":" ","LANE":" ","ALLEY":" ","HOUSE_NO":"３６９號四樓","E_COORD97":168003.76999999999,"N_COORD97":2544301.2200000002,"ADDRESS":"西門路二段３６９號四樓","OBJECTID":512974},"geometry":{"x":168003.76999999955,"y":2544301.2199999988}},{"attributes":{"ID":513002,"DIS_CODE":0,"TOWNNAME":"中西區","LI":"普濟里","LIN":"1鄰","STREET":"西門路","SECT":"二段","MAREA":" ","LANE":" ","ALLEY":" ","HOUSE_NO":"３７５號二樓","E_COORD97":168016.44,"N_COORD97":2544319.0299999998,"ADDRESS":"西門路二段３７５號二樓","OBJECTID":512975},"geometry":{"x":168016.44000000134,"y":2544319.0300000012}},{"attributes":{"ID":513003,"DIS_CODE":0,"TOWNNAME":"中西區","LI":"普濟里","LIN":"1鄰","STREET":"西門路","SECT":"二段","MAREA":" ","LANE":" ","ALLEY":" ","HOUSE_NO":"３７５號三樓","E_COORD97":168016.44,"N_COORD97":2544319.0299999998,"ADDRESS":"西門路二段３７５號三樓","OBJECTID":512976},"geometry":{"x":168016.44000000134,"y":2544319.0300000012}},{"attributes":{"ID":513004,"DIS_CODE":0,"TOWNNAME":"中西區","LI":"普濟里","LIN":"1鄰","STREET":"西門路","SECT":"二段","MAREA":" ","LANE":" ","ALLEY":" ","HOUSE_NO":"３７５號五樓","E_COORD97":168016.44,"N_COORD97":2544319.0299999998,"ADDRESS":"西門路二段３７５號五樓","OBJECTID":512977},"geometry":{"x":168016.44000000134,"y":2544319.0300000012}},{"attributes":{"ID":513005,"DIS_CODE":0,"TOWNNAME":"中西區","LI":"普濟里","LIN":"1鄰","STREET":"西門路","SECT":"二段","MAREA":" ","LANE":" ","ALLEY":" ","HOUSE_NO":"３７５號六樓","E_COORD97":168016.44,"N_COORD97":2544319.0299999998,"ADDRESS":"西門路二段３７５號六樓","OBJECTID":512978},"geometry":{"x":168016.44000000134,"y":2544319.0300000012}},{"attributes":{"ID":513006,"DIS_CODE":0,"TOWNNAME":"中西區","LI":"普濟里","LIN":"1鄰","STREET":"西門路","SECT":"二段","MAREA":" ","LANE":" ","ALLEY":" ","HOUSE_NO":"３７５號四樓","E_COORD97":168016.44,"N_COORD97":2544319.0299999998,"ADDRESS":"西門路二段３７５號四樓","OBJECTID":512979},"geometry":{"x":168016.44000000134,"y":2544319.0300000012}},{"attributes":{"ID":513007,"DIS_CODE":0,"TOWNNAME":"東區","LI":"崇明里","LIN":"1鄰","STREET":"中華東路","SECT":"三段","MAREA":" ","LANE":" ","ALLEY":" ","HOUSE_NO":"５４１號七樓","E_COORD97":169596.76000000001,"N_COORD97":2541439.25,"ADDRESS":"中華東路三段５４１號七樓","OBJECTID":512980},"geometry":{"x":169596.76000000071,"y":2541439.2500000037}},{"attributes":{"ID":513008,"DIS_CODE":0,"TOWNNAME":"東區","LI":"崇明里","LIN":"1鄰","STREET":"中華東路","SECT":"三段","MAREA":" ","LANE":" ","ALLEY":" ","HOUSE_NO":"５４１號九樓","E_COORD97":169596.76000000001,"N_COORD97":2541439.25,"ADDRESS":"中華東路三段５４１號九樓","OBJECTID":512981},"geometry":{"x":169596.76000000071,"y":2541439.2500000037}},{"attributes":{"ID":513009,"DIS_CODE":0,"TOWNNAME":"東區","LI":"崇明里","LIN":"1鄰","STREET":"中華東路","SECT":"三段","MAREA":" ","LANE":" ","ALLEY":" ","HOUSE_NO":"５４１號九樓之１","E_COORD97":169596.76000000001,"N_COORD97":2541439.25,"ADDRESS":"中華東路三段５４１號九樓之１","OBJECTID":512982},"geometry":{"x":169596.76000000071,"y":2541439.2500000037}},{"attributes":{"ID":513010,"DIS_CODE":0,"TOWNNAME":"東區","LI":"崇明里","LIN":"1鄰","STREET":"中華東路","SECT":"三段","MAREA":" ","LANE":" ","ALLEY":" ","HOUSE_NO":"５４１號二樓之１","E_COORD97":169596.76000000001,"N_COORD97":2541439.25,"ADDRESS":"中華東路三段５４１號二樓之１","OBJECTID":512983},"geometry":{"x":169596.76000000071,"y":2541439.2500000037}},{"attributes":{"ID":513011,"DIS_CODE":0,"TOWNNAME":"東區","LI":"崇明里","LIN":"1鄰","STREET":"中華東路","SECT":"三段","MAREA":" ","LANE":" ","ALLEY":" ","HOUSE_NO":"５４１號二樓之２","E_COORD97":169596.76000000001,"N_COORD97":2541439.25,"ADDRESS":"中華東路三段５４１號二樓之２","OBJECTID":512984},"geometry":{"x":169596.76000000071,"y":2541439.2500000037}},{"attributes":{"ID":513012,"DIS_CODE":0,"TOWNNAME":"東區","LI":"崇明里","LIN":"1鄰","STREET":"中華東路","SECT":"三段","MAREA":" ","LANE":" ","ALLEY":" ","HOUSE_NO":"５４１號八樓","E_COORD97":169596.76000000001,"N_COORD97":2541439.25,"ADDRESS":"中華東路三段５４１號八樓","OBJECTID":512985},"geometry":{"x":169596.76000000071,"y":2541439.2500000037}},{"attributes":{"ID":513013,"DIS_CODE":0,"TOWNNAME":"東區","LI":"崇明里","LIN":"1鄰","STREET":"中華東路","SECT":"三段","MAREA":" ","LANE":" ","ALLEY":" ","HOUSE_NO":"５４１號八樓之１","E_COORD97":169596.76000000001,"N_COORD97":2541439.25,"ADDRESS":"中華東路三段５４１號八樓之１","OBJECTID":512986},"geometry":{"x":169596.76000000071,"y":2541439.2500000037}},{"attributes":{"ID":513014,"DIS_CODE":0,"TOWNNAME":"東區","LI":"崇明里","LIN":"1鄰","STREET":"中華東路","SECT":"三段","MAREA":" ","LANE":" ","ALLEY":" ","HOUSE_NO":"５４１號十樓之１","E_COORD97":169596.76000000001,"N_COORD97":2541439.25,"ADDRESS":"中華東路三段５４１號十樓之１","OBJECTID":512987},"geometry":{"x":169596.76000000071,"y":2541439.2500000037}},{"attributes":{"ID":513015,"DIS_CODE":0,"TOWNNAME":"安平區","LI":"建平里","LIN":"10鄰","STREET":"建平十五街","SECT":" ","MAREA":" ","LANE":" ","ALLEY":" ","HOUSE_NO":"１３１號","E_COORD97":166241.59,"N_COORD97":2544099.4300000002,"ADDRESS":"建平十五街１３１號","OBJECTID":512988},"geometry":{"x":166241.59000000078,"y":2544099.4300000016}},{"attributes":{"ID":513016,"DIS_CODE":0,"TOWNNAME":"安平區","LI":"怡平里","LIN":"21鄰","STREET":"平通路","SECT":" ","MAREA":" ","LANE":" ","ALLEY":" ","HOUSE_NO":"３５４號","E_COORD97":165724.45999999999,"N_COORD97":2543725.79,"ADDRESS":"平通路３５４號","OBJECTID":512989},"geometry":{"x":165724.45999999996,"y":2543725.7899999991}},{"attributes":{"ID":513017,"DIS_CODE":0,"TOWNNAME":"安平區","LI":"怡平里","LIN":"21鄰","STREET":"平通路","SECT":" ","MAREA":" ","LANE":" ","ALLEY":" ","HOUSE_NO":"３５６之１號","E_COORD97":165717.53,"N_COORD97":2543726.5600000001,"ADDRESS":"平通路３５６之１號","OBJECTID":512990},"geometry":{"x":165717.53000000026,"y":2543726.5600000024}},{"attributes":{"ID":513018,"DIS_CODE":0,"TOWNNAME":"鹽水區","LI":"水正里","LIN":" ","STREET":"中正路","SECT":" ","MAREA":" ","LANE":" ","ALLEY":" ","HOUSE_NO":"１６３號","E_COORD97":175032.03,"N_COORD97":2579574.48,"ADDRESS":"中正路１６３號","OBJECTID":512991},"geometry":{"x":175032.03000000119,"y":2579574.4800000023}},{"attributes":{"ID":513019,"DIS_CODE":0,"TOWNNAME":"東區","LI":"崇明里","LIN":"1鄰","STREET":"中華東路","SECT":"三段","MAREA":" ","LANE":" ","ALLEY":" ","HOUSE_NO":"５４１號三樓","E_COORD97":169596.76000000001,"N_COORD97":2541439.25,"ADDRESS":"中華東路三段５４１號三樓","OBJECTID":512992},"geometry":{"x":169596.76000000071,"y":2541439.2500000037}},{"attributes":{"ID":513020,"DIS_CODE":0,"TOWNNAME":"東區","LI":"崇明里","LIN":"1鄰","STREET":"中華東路","SECT":"三段","MAREA":" ","LANE":" ","ALLEY":" ","HOUSE_NO":"５４１號三樓之１","E_COORD97":169596.76000000001,"N_COORD97":2541439.25,"ADDRESS":"中華東路三段５４１號三樓之１","OBJECTID":512993},"geometry":{"x":169596.76000000071,"y":2541439.2500000037}},{"attributes":{"ID":513021,"DIS_CODE":0,"TOWNNAME":"東區","LI":"崇明里","LIN":"1鄰","STREET":"中華東路","SECT":"三段","MAREA":" ","LANE":" ","ALLEY":" ","HOUSE_NO":"５４１號五樓之１","E_COORD97":169596.76000000001,"N_COORD97":2541439.25,"ADDRESS":"中華東路三段５４１號五樓之１","OBJECTID":512994},"geometry":{"x":169596.76000000071,"y":2541439.2500000037}},{"attributes":{"ID":513022,"DIS_CODE":0,"TOWNNAME":"東區","LI":"崇明里","LIN":"1鄰","STREET":"中華東路","SECT":"三段","MAREA":" ","LANE":" ","ALLEY":" ","HOUSE_NO":"５４１號五樓之２","E_COORD97":169596.76000000001,"N_COORD97":2541439.25,"ADDRESS":"中華東路三段５４１號五樓之２","OBJECTID":512995},"geometry":{"x":169596.76000000071,"y":2541439.2500000037}},{"attributes":{"ID":513023,"DIS_CODE":0,"TOWNNAME":"東區","LI":"崇明里","LIN":"1鄰","STREET":"中華東路","SECT":"三段","MAREA":" ","LANE":" ","ALLEY":" ","HOUSE_NO":"５４１號六樓之１","E_COORD97":169596.76000000001,"N_COORD97":2541439.25,"ADDRESS":"中華東路三段５４１號六樓之１","OBJECTID":512996},"geometry":{"x":169596.76000000071,"y":2541439.2500000037}},{"attributes":{"ID":513024,"DIS_CODE":0,"TOWNNAME":"東區","LI":"崇成里","LIN":"1鄰","STREET":"崇道路","SECT":" ","MAREA":" ","LANE":" ","ALLEY":" ","HOUSE_NO":"９８號四樓","E_COORD97":170867.34,"N_COORD97":2541383.5899999999,"ADDRESS":"崇道路９８號四樓","OBJECTID":512997},"geometry":{"x":170867.34000000078,"y":2541383.5900000017}},{"attributes":{"ID":513025,"DIS_CODE":0,"TOWNNAME":"東區","LI":"崇明里","LIN":"1鄰","STREET":"中華東路","SECT":"三段","MAREA":" ","LANE":" ","ALLEY":" ","HOUSE_NO":"５４１號六樓之２","E_COORD97":169596.76000000001,"N_COORD97":2541439.25,"ADDRESS":"中華東路三段５４１號六樓之２","OBJECTID":512998},"geometry":{"x":169596.76000000071,"y":2541439.2500000037}},{"attributes":{"ID":513026,"DIS_CODE":0,"TOWNNAME":"東區","LI":"崇明里","LIN":"1鄰","STREET":"中華東路","SECT":"三段","MAREA":" ","LANE":" ","ALLEY":" ","HOUSE_NO":"５４１號四樓","E_COORD97":169596.76000000001,"N_COORD97":2541439.25,"ADDRESS":"中華東路三段５４１號四樓","OBJECTID":512999},"geometry":{"x":169596.76000000071,"y":2541439.2500000037}},{"attributes":{"ID":513027,"DIS_CODE":0,"TOWNNAME":"東區","LI":"崇明里","LIN":"1鄰","STREET":"中華東路","SECT":"三段","MAREA":" ","LANE":" ","ALLEY":" ","HOUSE_NO":"５４１號四樓之１","E_COORD97":169596.76000000001,"N_COORD97":2541439.25,"ADDRESS":"中華東路三段５４１號四樓之１","OBJECTID":513000},"geometry":{"x":169596.76000000071,"y":2541439.2500000037}}]}