{"displayFieldName":"TOWNNAME","fieldAliases":{"ID":"ID","DIS_CODE":"DIS_CODE","TOWNNAME":"TOWNNAME","LI":"LI","LIN":"LIN","STREET":"STREET","SECT":"SECT","MAREA":"MAREA","LANE":"LANE","ALLEY":"ALLEY","HOUSE_NO":"HOUSE_NO","E_COORD97":"E_COORD97","N_COORD97":"N_COORD97","ADDRESS":"ADDRESS","OBJECTID":"OBJECTID"},"geometryType":"esriGeometryPoint","spatialReference":{"wkid":102443,"latestWkid":3826},"fields":[{"name":"ID","type":"esriFieldTypeDouble","alias":"ID"},{"name":"DIS_CODE","type":"esriFieldTypeInteger","alias":"DIS_CODE"},{"name":"TOWNNAME","type":"esriFieldTypeString","alias":"TOWNNAME","length":8},{"name":"LI","type":"esriFieldTypeString","alias":"LI","length":8},{"name":"LIN","type":"esriFieldTypeString","alias":"LIN","length":12},{"name":"STREET","type":"esriFieldTypeString","alias":"STREET","length":20},{"name":"SECT","type":"esriFieldTypeString","alias":"SECT","length":8},{"name":"MAREA","type":"esriFieldTypeString","alias":"MAREA","length":12},{"name":"LANE","type":"esriFieldTypeString","alias":"LANE","length":10},{"name":"ALLEY","type":"esriFieldTypeString","alias":"ALLEY","length":10},{"name":"HOUSE_NO","type":"esriFieldTypeString","alias":"HOUSE_NO","length":20},{"name":"E_COORD97","type":"esriFieldTypeDouble","alias":"E_COORD97"},{"name":"N_COORD97","type":"esriFieldTypeDouble","alias":"N_COORD97"},{"name":"ADDRESS","type":"esriFieldTypeString","alias":"ADDRESS","length":50},{"name":"OBJECTID","type":"esriFieldTypeOID","alias":"OBJECTID"}],"features":[{"attributes":{"ID":479226,"DIS_CODE":0,"TOWNNAME":"中西區","LI":"安海里","LIN":"20鄰","STREET":"民生路","SECT":"二段","MAREA":" ","LANE":" ","ALLEY":" ","HOUSE_NO":"３９３號九樓之１","E_COORD97":166822.73000000001,"N_COORD97":2544214.4900000002,"ADDRESS":"民生路二段３９３號九樓之１","OBJECTID":479201},"geometry":{"x":166822.73000000138,"y":2544214.4900000039}},{"attributes":{"ID":479227,"DIS_CODE":0,"TOWNNAME":"中西區","LI":"安海里","LIN":"20鄰","STREET":"民生路","SECT":"二段","MAREA":" ","LANE":" ","ALLEY":" ","HOUSE_NO":"３９３號九樓之２","E_COORD97":166822.73000000001,"N_COORD97":2544214.4900000002,"ADDRESS":"民生路二段３９３號九樓之２","OBJECTID":479202},"geometry":{"x":166822.73000000138,"y":2544214.4900000039}},{"attributes":{"ID":479228,"DIS_CODE":0,"TOWNNAME":"東區","LI":"富裕里","LIN":"20鄰","STREET":"裕豐街","SECT":" ","MAREA":" ","LANE":" ","ALLEY":" ","HOUSE_NO":"２號二樓","E_COORD97":170718.54000000001,"N_COORD97":2542700.1800000002,"ADDRESS":"裕豐街２號二樓","OBJECTID":479203},"geometry":{"x":170718.5400000019,"y":2542700.1799999997}},{"attributes":{"ID":479229,"DIS_CODE":0,"TOWNNAME":"中西區","LI":"安海里","LIN":"20鄰","STREET":"民生路","SECT":"二段","MAREA":" ","LANE":" ","ALLEY":" ","HOUSE_NO":"３９３號九樓之３","E_COORD97":166822.73000000001,"N_COORD97":2544214.4900000002,"ADDRESS":"民生路二段３９３號九樓之３","OBJECTID":479204},"geometry":{"x":166822.73000000138,"y":2544214.4900000039}},{"attributes":{"ID":479230,"DIS_CODE":0,"TOWNNAME":"中西區","LI":"安海里","LIN":"20鄰","STREET":"民生路","SECT":"二段","MAREA":" ","LANE":" ","ALLEY":" ","HOUSE_NO":"３９３號九樓之５","E_COORD97":166822.73000000001,"N_COORD97":2544214.4900000002,"ADDRESS":"民生路二段３９３號九樓之５","OBJECTID":479205},"geometry":{"x":166822.73000000138,"y":2544214.4900000039}},{"attributes":{"ID":479231,"DIS_CODE":0,"TOWNNAME":"中西區","LI":"安海里","LIN":"20鄰","STREET":"民生路","SECT":"二段","MAREA":" ","LANE":" ","ALLEY":" ","HOUSE_NO":"３９３號二十一樓之１","E_COORD97":166822.73000000001,"N_COORD97":2544214.4900000002,"ADDRESS":"民生路二段３９３號二十一樓之１","OBJECTID":479206},"geometry":{"x":166822.73000000138,"y":2544214.4900000039}},{"attributes":{"ID":479232,"DIS_CODE":0,"TOWNNAME":"中西區","LI":"安海里","LIN":"20鄰","STREET":"民生路","SECT":"二段","MAREA":" ","LANE":" ","ALLEY":" ","HOUSE_NO":"３９３號二十一樓之２","E_COORD97":166822.73000000001,"N_COORD97":2544214.4900000002,"ADDRESS":"民生路二段３９３號二十一樓之２","OBJECTID":479207},"geometry":{"x":166822.73000000138,"y":2544214.4900000039}},{"attributes":{"ID":479233,"DIS_CODE":0,"TOWNNAME":"中西區","LI":"安海里","LIN":"20鄰","STREET":"民生路","SECT":"二段","MAREA":" ","LANE":" ","ALLEY":" ","HOUSE_NO":"３９３號二十一樓之３","E_COORD97":166822.73000000001,"N_COORD97":2544214.4900000002,"ADDRESS":"民生路二段３９３號二十一樓之３","OBJECTID":479208},"geometry":{"x":166822.73000000138,"y":2544214.4900000039}},{"attributes":{"ID":479234,"DIS_CODE":0,"TOWNNAME":"中西區","LI":"安海里","LIN":"20鄰","STREET":"民生路","SECT":"二段","MAREA":" ","LANE":" ","ALLEY":" ","HOUSE_NO":"３９３號二十一樓之５","E_COORD97":166822.73000000001,"N_COORD97":2544214.4900000002,"ADDRESS":"民生路二段３９３號二十一樓之５","OBJECTID":479209},"geometry":{"x":166822.73000000138,"y":2544214.4900000039}},{"attributes":{"ID":479235,"DIS_CODE":0,"TOWNNAME":"中西區","LI":"安海里","LIN":"20鄰","STREET":"民生路","SECT":"二段","MAREA":" ","LANE":" ","ALLEY":" ","HOUSE_NO":"３９３號二十二樓之１","E_COORD97":166822.73000000001,"N_COORD97":2544214.4900000002,"ADDRESS":"民生路二段３９３號二十二樓之１","OBJECTID":479210},"geometry":{"x":166822.73000000138,"y":2544214.4900000039}},{"attributes":{"ID":479236,"DIS_CODE":0,"TOWNNAME":"中西區","LI":"安海里","LIN":"20鄰","STREET":"民生路","SECT":"二段","MAREA":" ","LANE":" ","ALLEY":" ","HOUSE_NO":"３９３號二十二樓之２","E_COORD97":166822.73000000001,"N_COORD97":2544214.4900000002,"ADDRESS":"民生路二段３９３號二十二樓之２","OBJECTID":479211},"geometry":{"x":166822.73000000138,"y":2544214.4900000039}},{"attributes":{"ID":479237,"DIS_CODE":0,"TOWNNAME":"中西區","LI":"安海里","LIN":"20鄰","STREET":"民生路","SECT":"二段","MAREA":" ","LANE":" ","ALLEY":" ","HOUSE_NO":"３９３號二十二樓之３","E_COORD97":166822.73000000001,"N_COORD97":2544214.4900000002,"ADDRESS":"民生路二段３９３號二十二樓之３","OBJECTID":479212},"geometry":{"x":166822.73000000138,"y":2544214.4900000039}},{"attributes":{"ID":479238,"DIS_CODE":0,"TOWNNAME":"中西區","LI":"安海里","LIN":"20鄰","STREET":"民生路","SECT":"二段","MAREA":" ","LANE":" ","ALLEY":" ","HOUSE_NO":"３９３號二十二樓之５","E_COORD97":166822.73000000001,"N_COORD97":2544214.4900000002,"ADDRESS":"民生路二段３９３號二十二樓之５","OBJECTID":479213},"geometry":{"x":166822.73000000138,"y":2544214.4900000039}},{"attributes":{"ID":479239,"DIS_CODE":0,"TOWNNAME":"中西區","LI":"安海里","LIN":"20鄰","STREET":"民生路","SECT":"二段","MAREA":" ","LANE":" ","ALLEY":" ","HOUSE_NO":"３９３號二十三樓之１","E_COORD97":166822.73000000001,"N_COORD97":2544214.4900000002,"ADDRESS":"民生路二段３９３號二十三樓之１","OBJECTID":479214},"geometry":{"x":166822.73000000138,"y":2544214.4900000039}},{"attributes":{"ID":479240,"DIS_CODE":0,"TOWNNAME":"中西區","LI":"安海里","LIN":"20鄰","STREET":"民生路","SECT":"二段","MAREA":" ","LANE":" ","ALLEY":" ","HOUSE_NO":"３９３號二十三樓之２","E_COORD97":166822.73000000001,"N_COORD97":2544214.4900000002,"ADDRESS":"民生路二段３９３號二十三樓之２","OBJECTID":479215},"geometry":{"x":166822.73000000138,"y":2544214.4900000039}},{"attributes":{"ID":479241,"DIS_CODE":0,"TOWNNAME":"中西區","LI":"安海里","LIN":"20鄰","STREET":"民生路","SECT":"二段","MAREA":" ","LANE":" ","ALLEY":" ","HOUSE_NO":"３９３號二十三樓之３","E_COORD97":166822.73000000001,"N_COORD97":2544214.4900000002,"ADDRESS":"民生路二段３９３號二十三樓之３","OBJECTID":479216},"geometry":{"x":166822.73000000138,"y":2544214.4900000039}},{"attributes":{"ID":479242,"DIS_CODE":0,"TOWNNAME":"中西區","LI":"安海里","LIN":"20鄰","STREET":"民生路","SECT":"二段","MAREA":" ","LANE":" ","ALLEY":" ","HOUSE_NO":"３９３號二十三樓之５","E_COORD97":166822.73000000001,"N_COORD97":2544214.4900000002,"ADDRESS":"民生路二段３９３號二十三樓之５","OBJECTID":479217},"geometry":{"x":166822.73000000138,"y":2544214.4900000039}},{"attributes":{"ID":479243,"DIS_CODE":0,"TOWNNAME":"中西區","LI":"安海里","LIN":"20鄰","STREET":"民生路","SECT":"二段","MAREA":" ","LANE":" ","ALLEY":" ","HOUSE_NO":"３９３號二十五樓之１","E_COORD97":166822.73000000001,"N_COORD97":2544214.4900000002,"ADDRESS":"民生路二段３９３號二十五樓之１","OBJECTID":479218},"geometry":{"x":166822.73000000138,"y":2544214.4900000039}},{"attributes":{"ID":479244,"DIS_CODE":0,"TOWNNAME":"中西區","LI":"安海里","LIN":"20鄰","STREET":"民生路","SECT":"二段","MAREA":" ","LANE":" ","ALLEY":" ","HOUSE_NO":"３９３號二十五樓之３","E_COORD97":166822.73000000001,"N_COORD97":2544214.4900000002,"ADDRESS":"民生路二段３９３號二十五樓之３","OBJECTID":479219},"geometry":{"x":166822.73000000138,"y":2544214.4900000039}},{"attributes":{"ID":479245,"DIS_CODE":0,"TOWNNAME":"中西區","LI":"安海里","LIN":"20鄰","STREET":"民生路","SECT":"二段","MAREA":" ","LANE":" ","ALLEY":" ","HOUSE_NO":"３９３號二十四樓之１","E_COORD97":166822.73000000001,"N_COORD97":2544214.4900000002,"ADDRESS":"民生路二段３９３號二十四樓之１","OBJECTID":479220},"geometry":{"x":166822.73000000138,"y":2544214.4900000039}},{"attributes":{"ID":479246,"DIS_CODE":0,"TOWNNAME":"中西區","LI":"安海里","LIN":"20鄰","STREET":"民生路","SECT":"二段","MAREA":" ","LANE":" ","ALLEY":" ","HOUSE_NO":"３９３號二十四樓之３","E_COORD97":166822.73000000001,"N_COORD97":2544214.4900000002,"ADDRESS":"民生路二段３９３號二十四樓之３","OBJECTID":479221},"geometry":{"x":166822.73000000138,"y":2544214.4900000039}},{"attributes":{"ID":479247,"DIS_CODE":0,"TOWNNAME":"中西區","LI":"安海里","LIN":"20鄰","STREET":"民生路","SECT":"二段","MAREA":" ","LANE":" ","ALLEY":" ","HOUSE_NO":"３９３號二十樓之１","E_COORD97":166822.73000000001,"N_COORD97":2544214.4900000002,"ADDRESS":"民生路二段３９３號二十樓之１","OBJECTID":479222},"geometry":{"x":166822.73000000138,"y":2544214.4900000039}},{"attributes":{"ID":479248,"DIS_CODE":0,"TOWNNAME":"中西區","LI":"安海里","LIN":"20鄰","STREET":"民生路","SECT":"二段","MAREA":" ","LANE":" ","ALLEY":" ","HOUSE_NO":"３９３號二十樓之２","E_COORD97":166822.73000000001,"N_COORD97":2544214.4900000002,"ADDRESS":"民生路二段３９３號二十樓之２","OBJECTID":479223},"geometry":{"x":166822.73000000138,"y":2544214.4900000039}},{"attributes":{"ID":479249,"DIS_CODE":0,"TOWNNAME":"中西區","LI":"安海里","LIN":"20鄰","STREET":"民生路","SECT":"二段","MAREA":" ","LANE":" ","ALLEY":" ","HOUSE_NO":"３９３號二十樓之３","E_COORD97":166822.73000000001,"N_COORD97":2544214.4900000002,"ADDRESS":"民生路二段３９３號二十樓之３","OBJECTID":479224},"geometry":{"x":166822.73000000138,"y":2544214.4900000039}},{"attributes":{"ID":479250,"DIS_CODE":0,"TOWNNAME":"中西區","LI":"安海里","LIN":"20鄰","STREET":"民生路","SECT":"二段","MAREA":" ","LANE":" ","ALLEY":" ","HOUSE_NO":"３９３號二十樓之５","E_COORD97":166822.73000000001,"N_COORD97":2544214.4900000002,"ADDRESS":"民生路二段３９３號二十樓之５","OBJECTID":479225},"geometry":{"x":166822.73000000138,"y":2544214.4900000039}},{"attributes":{"ID":479251,"DIS_CODE":0,"TOWNNAME":"中西區","LI":"安海里","LIN":"20鄰","STREET":"民生路","SECT":"二段","MAREA":" ","LANE":" ","ALLEY":" ","HOUSE_NO":"３９３號二樓","E_COORD97":166822.73000000001,"N_COORD97":2544214.4900000002,"ADDRESS":"民生路二段３９３號二樓","OBJECTID":479226},"geometry":{"x":166822.73000000138,"y":2544214.4900000039}},{"attributes":{"ID":479252,"DIS_CODE":0,"TOWNNAME":"中西區","LI":"安海里","LIN":"20鄰","STREET":"民生路","SECT":"二段","MAREA":" ","LANE":" ","ALLEY":" ","HOUSE_NO":"３９３號八樓之１","E_COORD97":166822.73000000001,"N_COORD97":2544214.4900000002,"ADDRESS":"民生路二段３９３號八樓之１","OBJECTID":479227},"geometry":{"x":166822.73000000138,"y":2544214.4900000039}},{"attributes":{"ID":479253,"DIS_CODE":0,"TOWNNAME":"中西區","LI":"安海里","LIN":"20鄰","STREET":"民生路","SECT":"二段","MAREA":" ","LANE":" ","ALLEY":" ","HOUSE_NO":"３９３號八樓之２","E_COORD97":166822.73000000001,"N_COORD97":2544214.4900000002,"ADDRESS":"民生路二段３９３號八樓之２","OBJECTID":479228},"geometry":{"x":166822.73000000138,"y":2544214.4900000039}},{"attributes":{"ID":479254,"DIS_CODE":0,"TOWNNAME":"中西區","LI":"安海里","LIN":"20鄰","STREET":"民生路","SECT":"二段","MAREA":" ","LANE":" ","ALLEY":" ","HOUSE_NO":"３９３號八樓之３","E_COORD97":166822.73000000001,"N_COORD97":2544214.4900000002,"ADDRESS":"民生路二段３９３號八樓之３","OBJECTID":479229},"geometry":{"x":166822.73000000138,"y":2544214.4900000039}},{"attributes":{"ID":479255,"DIS_CODE":0,"TOWNNAME":"中西區","LI":"安海里","LIN":"20鄰","STREET":"民生路","SECT":"二段","MAREA":" ","LANE":" ","ALLEY":" ","HOUSE_NO":"３９３號八樓之５","E_COORD97":166822.73000000001,"N_COORD97":2544214.4900000002,"ADDRESS":"民生路二段３９３號八樓之５","OBJECTID":479230},"geometry":{"x":166822.73000000138,"y":2544214.4900000039}},{"attributes":{"ID":479256,"DIS_CODE":0,"TOWNNAME":"中西區","LI":"安海里","LIN":"20鄰","STREET":"民生路","SECT":"二段","MAREA":" ","LANE":" ","ALLEY":" ","HOUSE_NO":"３９３號十一樓之１","E_COORD97":166822.73000000001,"N_COORD97":2544214.4900000002,"ADDRESS":"民生路二段３９３號十一樓之１","OBJECTID":479231},"geometry":{"x":166822.73000000138,"y":2544214.4900000039}},{"attributes":{"ID":479257,"DIS_CODE":0,"TOWNNAME":"中西區","LI":"安海里","LIN":"20鄰","STREET":"民生路","SECT":"二段","MAREA":" ","LANE":" ","ALLEY":" ","HOUSE_NO":"３９３號十一樓之２","E_COORD97":166822.73000000001,"N_COORD97":2544214.4900000002,"ADDRESS":"民生路二段３９３號十一樓之２","OBJECTID":479232},"geometry":{"x":166822.73000000138,"y":2544214.4900000039}},{"attributes":{"ID":479258,"DIS_CODE":0,"TOWNNAME":"中西區","LI":"安海里","LIN":"20鄰","STREET":"民生路","SECT":"二段","MAREA":" ","LANE":" ","ALLEY":" ","HOUSE_NO":"３９３號十一樓之３","E_COORD97":166822.73000000001,"N_COORD97":2544214.4900000002,"ADDRESS":"民生路二段３９３號十一樓之３","OBJECTID":479233},"geometry":{"x":166822.73000000138,"y":2544214.4900000039}},{"attributes":{"ID":479259,"DIS_CODE":0,"TOWNNAME":"中西區","LI":"安海里","LIN":"20鄰","STREET":"民生路","SECT":"二段","MAREA":" ","LANE":" ","ALLEY":" ","HOUSE_NO":"３９３號十一樓之５","E_COORD97":166822.73000000001,"N_COORD97":2544214.4900000002,"ADDRESS":"民生路二段３９３號十一樓之５","OBJECTID":479234},"geometry":{"x":166822.73000000138,"y":2544214.4900000039}},{"attributes":{"ID":479260,"DIS_CODE":0,"TOWNNAME":"中西區","LI":"安海里","LIN":"20鄰","STREET":"民生路","SECT":"二段","MAREA":" ","LANE":" ","ALLEY":" ","HOUSE_NO":"３９３號十七樓之１","E_COORD97":166822.73000000001,"N_COORD97":2544214.4900000002,"ADDRESS":"民生路二段３９３號十七樓之１","OBJECTID":479235},"geometry":{"x":166822.73000000138,"y":2544214.4900000039}},{"attributes":{"ID":479261,"DIS_CODE":0,"TOWNNAME":"中西區","LI":"安海里","LIN":"20鄰","STREET":"民生路","SECT":"二段","MAREA":" ","LANE":" ","ALLEY":" ","HOUSE_NO":"３９３號十七樓之２","E_COORD97":166822.73000000001,"N_COORD97":2544214.4900000002,"ADDRESS":"民生路二段３９３號十七樓之２","OBJECTID":479236},"geometry":{"x":166822.73000000138,"y":2544214.4900000039}},{"attributes":{"ID":479262,"DIS_CODE":0,"TOWNNAME":"中西區","LI":"安海里","LIN":"20鄰","STREET":"民生路","SECT":"二段","MAREA":" ","LANE":" ","ALLEY":" ","HOUSE_NO":"３９３號十七樓之３","E_COORD97":166822.73000000001,"N_COORD97":2544214.4900000002,"ADDRESS":"民生路二段３９３號十七樓之３","OBJECTID":479237},"geometry":{"x":166822.73000000138,"y":2544214.4900000039}},{"attributes":{"ID":479263,"DIS_CODE":0,"TOWNNAME":"中西區","LI":"安海里","LIN":"20鄰","STREET":"民生路","SECT":"二段","MAREA":" ","LANE":" ","ALLEY":" ","HOUSE_NO":"３９３號十七樓之５","E_COORD97":166822.73000000001,"N_COORD97":2544214.4900000002,"ADDRESS":"民生路二段３９３號十七樓之５","OBJECTID":479238},"geometry":{"x":166822.73000000138,"y":2544214.4900000039}},{"attributes":{"ID":479264,"DIS_CODE":0,"TOWNNAME":"中西區","LI":"安海里","LIN":"20鄰","STREET":"民生路","SECT":"二段","MAREA":" ","LANE":" ","ALLEY":" ","HOUSE_NO":"３９３號十九樓之１","E_COORD97":166822.73000000001,"N_COORD97":2544214.4900000002,"ADDRESS":"民生路二段３９３號十九樓之１","OBJECTID":479239},"geometry":{"x":166822.73000000138,"y":2544214.4900000039}},{"attributes":{"ID":479265,"DIS_CODE":0,"TOWNNAME":"中西區","LI":"安海里","LIN":"20鄰","STREET":"民生路","SECT":"二段","MAREA":" ","LANE":" ","ALLEY":" ","HOUSE_NO":"３９３號十九樓之２","E_COORD97":166822.73000000001,"N_COORD97":2544214.4900000002,"ADDRESS":"民生路二段３９３號十九樓之２","OBJECTID":479240},"geometry":{"x":166822.73000000138,"y":2544214.4900000039}},{"attributes":{"ID":479266,"DIS_CODE":0,"TOWNNAME":"中西區","LI":"安海里","LIN":"20鄰","STREET":"民生路","SECT":"二段","MAREA":" ","LANE":" ","ALLEY":" ","HOUSE_NO":"３９３號十九樓之３","E_COORD97":166822.73000000001,"N_COORD97":2544214.4900000002,"ADDRESS":"民生路二段３９３號十九樓之３","OBJECTID":479241},"geometry":{"x":166822.73000000138,"y":2544214.4900000039}},{"attributes":{"ID":479267,"DIS_CODE":0,"TOWNNAME":"中西區","LI":"安海里","LIN":"20鄰","STREET":"民生路","SECT":"二段","MAREA":" ","LANE":" ","ALLEY":" ","HOUSE_NO":"３９３號十九樓之５","E_COORD97":166822.73000000001,"N_COORD97":2544214.4900000002,"ADDRESS":"民生路二段３９３號十九樓之５","OBJECTID":479242},"geometry":{"x":166822.73000000138,"y":2544214.4900000039}},{"attributes":{"ID":479268,"DIS_CODE":0,"TOWNNAME":"中西區","LI":"安海里","LIN":"20鄰","STREET":"民生路","SECT":"二段","MAREA":" ","LANE":" ","ALLEY":" ","HOUSE_NO":"３９３號十二樓之１","E_COORD97":166822.73000000001,"N_COORD97":2544214.4900000002,"ADDRESS":"民生路二段３９３號十二樓之１","OBJECTID":479243},"geometry":{"x":166822.73000000138,"y":2544214.4900000039}},{"attributes":{"ID":479269,"DIS_CODE":0,"TOWNNAME":"中西區","LI":"安海里","LIN":"20鄰","STREET":"民生路","SECT":"二段","MAREA":" ","LANE":" ","ALLEY":" ","HOUSE_NO":"３９３號十二樓之２","E_COORD97":166822.73000000001,"N_COORD97":2544214.4900000002,"ADDRESS":"民生路二段３９３號十二樓之２","OBJECTID":479244},"geometry":{"x":166822.73000000138,"y":2544214.4900000039}},{"attributes":{"ID":479270,"DIS_CODE":0,"TOWNNAME":"中西區","LI":"安海里","LIN":"20鄰","STREET":"民生路","SECT":"二段","MAREA":" ","LANE":" ","ALLEY":" ","HOUSE_NO":"３９３號十二樓之３","E_COORD97":166822.73000000001,"N_COORD97":2544214.4900000002,"ADDRESS":"民生路二段３９３號十二樓之３","OBJECTID":479245},"geometry":{"x":166822.73000000138,"y":2544214.4900000039}},{"attributes":{"ID":479271,"DIS_CODE":0,"TOWNNAME":"中西區","LI":"安海里","LIN":"20鄰","STREET":"民生路","SECT":"二段","MAREA":" ","LANE":" ","ALLEY":" ","HOUSE_NO":"３９３號十二樓之５","E_COORD97":166822.73000000001,"N_COORD97":2544214.4900000002,"ADDRESS":"民生路二段３９３號十二樓之５","OBJECTID":479246},"geometry":{"x":166822.73000000138,"y":2544214.4900000039}},{"attributes":{"ID":479272,"DIS_CODE":0,"TOWNNAME":"中西區","LI":"安海里","LIN":"20鄰","STREET":"民生路","SECT":"二段","MAREA":" ","LANE":" ","ALLEY":" ","HOUSE_NO":"３９３號十八樓之１","E_COORD97":166822.73000000001,"N_COORD97":2544214.4900000002,"ADDRESS":"民生路二段３９３號十八樓之１","OBJECTID":479247},"geometry":{"x":166822.73000000138,"y":2544214.4900000039}},{"attributes":{"ID":479273,"DIS_CODE":0,"TOWNNAME":"中西區","LI":"安海里","LIN":"20鄰","STREET":"民生路","SECT":"二段","MAREA":" ","LANE":" ","ALLEY":" ","HOUSE_NO":"３９３號十八樓之２","E_COORD97":166822.73000000001,"N_COORD97":2544214.4900000002,"ADDRESS":"民生路二段３９３號十八樓之２","OBJECTID":479248},"geometry":{"x":166822.73000000138,"y":2544214.4900000039}},{"attributes":{"ID":479274,"DIS_CODE":0,"TOWNNAME":"中西區","LI":"安海里","LIN":"20鄰","STREET":"民生路","SECT":"二段","MAREA":" ","LANE":" ","ALLEY":" ","HOUSE_NO":"３９３號十八樓之３","E_COORD97":166822.73000000001,"N_COORD97":2544214.4900000002,"ADDRESS":"民生路二段３９３號十八樓之３","OBJECTID":479249},"geometry":{"x":166822.73000000138,"y":2544214.4900000039}},{"attributes":{"ID":479275,"DIS_CODE":0,"TOWNNAME":"中西區","LI":"安海里","LIN":"20鄰","STREET":"民生路","SECT":"二段","MAREA":" ","LANE":" ","ALLEY":" ","HOUSE_NO":"３９３號十八樓之５","E_COORD97":166822.73000000001,"N_COORD97":2544214.4900000002,"ADDRESS":"民生路二段３９３號十八樓之５","OBJECTID":479250},"geometry":{"x":166822.73000000138,"y":2544214.4900000039}},{"attributes":{"ID":479276,"DIS_CODE":0,"TOWNNAME":"中西區","LI":"安海里","LIN":"20鄰","STREET":"民生路","SECT":"二段","MAREA":" ","LANE":" ","ALLEY":" ","HOUSE_NO":"３９３號十三樓之１","E_COORD97":166822.73000000001,"N_COORD97":2544214.4900000002,"ADDRESS":"民生路二段３９３號十三樓之１","OBJECTID":479251},"geometry":{"x":166822.73000000138,"y":2544214.4900000039}},{"attributes":{"ID":479277,"DIS_CODE":0,"TOWNNAME":"中西區","LI":"安海里","LIN":"20鄰","STREET":"民生路","SECT":"二段","MAREA":" ","LANE":" ","ALLEY":" ","HOUSE_NO":"３９３號十三樓之２","E_COORD97":166822.73000000001,"N_COORD97":2544214.4900000002,"ADDRESS":"民生路二段３９３號十三樓之２","OBJECTID":479252},"geometry":{"x":166822.73000000138,"y":2544214.4900000039}},{"attributes":{"ID":479278,"DIS_CODE":0,"TOWNNAME":"中西區","LI":"安海里","LIN":"20鄰","STREET":"民生路","SECT":"二段","MAREA":" ","LANE":" ","ALLEY":" ","HOUSE_NO":"３９３號十三樓之３","E_COORD97":166822.73000000001,"N_COORD97":2544214.4900000002,"ADDRESS":"民生路二段３９３號十三樓之３","OBJECTID":479253},"geometry":{"x":166822.73000000138,"y":2544214.4900000039}},{"attributes":{"ID":479279,"DIS_CODE":0,"TOWNNAME":"中西區","LI":"安海里","LIN":"20鄰","STREET":"民生路","SECT":"二段","MAREA":" ","LANE":" ","ALLEY":" ","HOUSE_NO":"３９３號十三樓之５","E_COORD97":166822.73000000001,"N_COORD97":2544214.4900000002,"ADDRESS":"民生路二段３９３號十三樓之５","OBJECTID":479254},"geometry":{"x":166822.73000000138,"y":2544214.4900000039}},{"attributes":{"ID":479280,"DIS_CODE":0,"TOWNNAME":"中西區","LI":"安海里","LIN":"20鄰","STREET":"民生路","SECT":"二段","MAREA":" ","LANE":" ","ALLEY":" ","HOUSE_NO":"３９３號十五樓之１","E_COORD97":166822.73000000001,"N_COORD97":2544214.4900000002,"ADDRESS":"民生路二段３９３號十五樓之１","OBJECTID":479255},"geometry":{"x":166822.73000000138,"y":2544214.4900000039}},{"attributes":{"ID":479281,"DIS_CODE":0,"TOWNNAME":"中西區","LI":"安海里","LIN":"20鄰","STREET":"民生路","SECT":"二段","MAREA":" ","LANE":" ","ALLEY":" ","HOUSE_NO":"３９３號十五樓之２","E_COORD97":166822.73000000001,"N_COORD97":2544214.4900000002,"ADDRESS":"民生路二段３９３號十五樓之２","OBJECTID":479256},"geometry":{"x":166822.73000000138,"y":2544214.4900000039}},{"attributes":{"ID":479282,"DIS_CODE":0,"TOWNNAME":"中西區","LI":"安海里","LIN":"20鄰","STREET":"民生路","SECT":"二段","MAREA":" ","LANE":" ","ALLEY":" ","HOUSE_NO":"３９３號十五樓之３","E_COORD97":166822.73000000001,"N_COORD97":2544214.4900000002,"ADDRESS":"民生路二段３９３號十五樓之３","OBJECTID":479257},"geometry":{"x":166822.73000000138,"y":2544214.4900000039}},{"attributes":{"ID":479283,"DIS_CODE":0,"TOWNNAME":"中西區","LI":"安海里","LIN":"20鄰","STREET":"民生路","SECT":"二段","MAREA":" ","LANE":" ","ALLEY":" ","HOUSE_NO":"３９３號十五樓之５","E_COORD97":166822.73000000001,"N_COORD97":2544214.4900000002,"ADDRESS":"民生路二段３９３號十五樓之５","OBJECTID":479258},"geometry":{"x":166822.73000000138,"y":2544214.4900000039}},{"attributes":{"ID":479284,"DIS_CODE":0,"TOWNNAME":"中西區","LI":"安海里","LIN":"20鄰","STREET":"民生路","SECT":"二段","MAREA":" ","LANE":" ","ALLEY":" ","HOUSE_NO":"３９３號十六樓之２","E_COORD97":166822.73000000001,"N_COORD97":2544214.4900000002,"ADDRESS":"民生路二段３９３號十六樓之２","OBJECTID":479259},"geometry":{"x":166822.73000000138,"y":2544214.4900000039}},{"attributes":{"ID":479285,"DIS_CODE":0,"TOWNNAME":"中西區","LI":"安海里","LIN":"20鄰","STREET":"民生路","SECT":"二段","MAREA":" ","LANE":" ","ALLEY":" ","HOUSE_NO":"３９３號十六樓之３","E_COORD97":166822.73000000001,"N_COORD97":2544214.4900000002,"ADDRESS":"民生路二段３９３號十六樓之３","OBJECTID":479260},"geometry":{"x":166822.73000000138,"y":2544214.4900000039}},{"attributes":{"ID":479286,"DIS_CODE":0,"TOWNNAME":"中西區","LI":"安海里","LIN":"20鄰","STREET":"民生路","SECT":"二段","MAREA":" ","LANE":" ","ALLEY":" ","HOUSE_NO":"３９３號十四樓之１","E_COORD97":166822.73000000001,"N_COORD97":2544214.4900000002,"ADDRESS":"民生路二段３９３號十四樓之１","OBJECTID":479261},"geometry":{"x":166822.73000000138,"y":2544214.4900000039}},{"attributes":{"ID":479287,"DIS_CODE":0,"TOWNNAME":"中西區","LI":"安海里","LIN":"20鄰","STREET":"民生路","SECT":"二段","MAREA":" ","LANE":" ","ALLEY":" ","HOUSE_NO":"３９３號十四樓之２","E_COORD97":166822.73000000001,"N_COORD97":2544214.4900000002,"ADDRESS":"民生路二段３９３號十四樓之２","OBJECTID":479262},"geometry":{"x":166822.73000000138,"y":2544214.4900000039}},{"attributes":{"ID":479288,"DIS_CODE":0,"TOWNNAME":"中西區","LI":"安海里","LIN":"20鄰","STREET":"民生路","SECT":"二段","MAREA":" ","LANE":" ","ALLEY":" ","HOUSE_NO":"３９３號十四樓之３","E_COORD97":166822.73000000001,"N_COORD97":2544214.4900000002,"ADDRESS":"民生路二段３９３號十四樓之３","OBJECTID":479263},"geometry":{"x":166822.73000000138,"y":2544214.4900000039}},{"attributes":{"ID":479289,"DIS_CODE":0,"TOWNNAME":"中西區","LI":"安海里","LIN":"20鄰","STREET":"民生路","SECT":"二段","MAREA":" ","LANE":" ","ALLEY":" ","HOUSE_NO":"３９３號十四樓之５","E_COORD97":166822.73000000001,"N_COORD97":2544214.4900000002,"ADDRESS":"民生路二段３９３號十四樓之５","OBJECTID":479264},"geometry":{"x":166822.73000000138,"y":2544214.4900000039}},{"attributes":{"ID":479290,"DIS_CODE":0,"TOWNNAME":"中西區","LI":"安海里","LIN":"20鄰","STREET":"民生路","SECT":"二段","MAREA":" ","LANE":" ","ALLEY":" ","HOUSE_NO":"３９３號十樓之１","E_COORD97":166822.73000000001,"N_COORD97":2544214.4900000002,"ADDRESS":"民生路二段３９３號十樓之１","OBJECTID":479265},"geometry":{"x":166822.73000000138,"y":2544214.4900000039}},{"attributes":{"ID":479291,"DIS_CODE":0,"TOWNNAME":"中西區","LI":"安海里","LIN":"20鄰","STREET":"民生路","SECT":"二段","MAREA":" ","LANE":" ","ALLEY":" ","HOUSE_NO":"３９３號十樓之２","E_COORD97":166822.73000000001,"N_COORD97":2544214.4900000002,"ADDRESS":"民生路二段３９３號十樓之２","OBJECTID":479266},"geometry":{"x":166822.73000000138,"y":2544214.4900000039}},{"attributes":{"ID":479292,"DIS_CODE":0,"TOWNNAME":"中西區","LI":"安海里","LIN":"20鄰","STREET":"民生路","SECT":"二段","MAREA":" ","LANE":" ","ALLEY":" ","HOUSE_NO":"３９３號十樓之３","E_COORD97":166822.73000000001,"N_COORD97":2544214.4900000002,"ADDRESS":"民生路二段３９３號十樓之３","OBJECTID":479267},"geometry":{"x":166822.73000000138,"y":2544214.4900000039}},{"attributes":{"ID":479293,"DIS_CODE":0,"TOWNNAME":"中西區","LI":"安海里","LIN":"20鄰","STREET":"民生路","SECT":"二段","MAREA":" ","LANE":" ","ALLEY":" ","HOUSE_NO":"３９３號十樓之５","E_COORD97":166822.73000000001,"N_COORD97":2544214.4900000002,"ADDRESS":"民生路二段３９３號十樓之５","OBJECTID":479268},"geometry":{"x":166822.73000000138,"y":2544214.4900000039}},{"attributes":{"ID":479294,"DIS_CODE":0,"TOWNNAME":"中西區","LI":"安海里","LIN":"20鄰","STREET":"民生路","SECT":"二段","MAREA":" ","LANE":" ","ALLEY":" ","HOUSE_NO":"３９３號三樓之１","E_COORD97":166822.73000000001,"N_COORD97":2544214.4900000002,"ADDRESS":"民生路二段３９３號三樓之１","OBJECTID":479269},"geometry":{"x":166822.73000000138,"y":2544214.4900000039}},{"attributes":{"ID":479295,"DIS_CODE":0,"TOWNNAME":"中西區","LI":"安海里","LIN":"20鄰","STREET":"民生路","SECT":"二段","MAREA":" ","LANE":" ","ALLEY":" ","HOUSE_NO":"３９３號三樓之２","E_COORD97":166822.73000000001,"N_COORD97":2544214.4900000002,"ADDRESS":"民生路二段３９３號三樓之２","OBJECTID":479270},"geometry":{"x":166822.73000000138,"y":2544214.4900000039}},{"attributes":{"ID":479296,"DIS_CODE":0,"TOWNNAME":"中西區","LI":"安海里","LIN":"20鄰","STREET":"民生路","SECT":"二段","MAREA":" ","LANE":" ","ALLEY":" ","HOUSE_NO":"３９３號三樓之３","E_COORD97":166822.73000000001,"N_COORD97":2544214.4900000002,"ADDRESS":"民生路二段３９３號三樓之３","OBJECTID":479271},"geometry":{"x":166822.73000000138,"y":2544214.4900000039}},{"attributes":{"ID":479297,"DIS_CODE":0,"TOWNNAME":"中西區","LI":"安海里","LIN":"20鄰","STREET":"民生路","SECT":"二段","MAREA":" ","LANE":" ","ALLEY":" ","HOUSE_NO":"３９３號三樓之５","E_COORD97":166822.73000000001,"N_COORD97":2544214.4900000002,"ADDRESS":"民生路二段３９３號三樓之５","OBJECTID":479272},"geometry":{"x":166822.73000000138,"y":2544214.4900000039}},{"attributes":{"ID":479298,"DIS_CODE":0,"TOWNNAME":"中西區","LI":"安海里","LIN":"20鄰","STREET":"民生路","SECT":"二段","MAREA":" ","LANE":" ","ALLEY":" ","HOUSE_NO":"３９３號五樓之１","E_COORD97":166822.73000000001,"N_COORD97":2544214.4900000002,"ADDRESS":"民生路二段３９３號五樓之１","OBJECTID":479273},"geometry":{"x":166822.73000000138,"y":2544214.4900000039}},{"attributes":{"ID":479299,"DIS_CODE":0,"TOWNNAME":"中西區","LI":"安海里","LIN":"20鄰","STREET":"民生路","SECT":"二段","MAREA":" ","LANE":" ","ALLEY":" ","HOUSE_NO":"３９３號五樓之２","E_COORD97":166822.73000000001,"N_COORD97":2544214.4900000002,"ADDRESS":"民生路二段３９３號五樓之２","OBJECTID":479274},"geometry":{"x":166822.73000000138,"y":2544214.4900000039}},{"attributes":{"ID":479300,"DIS_CODE":0,"TOWNNAME":"中西區","LI":"安海里","LIN":"20鄰","STREET":"民生路","SECT":"二段","MAREA":" ","LANE":" ","ALLEY":" ","HOUSE_NO":"３９３號五樓之３","E_COORD97":166822.73000000001,"N_COORD97":2544214.4900000002,"ADDRESS":"民生路二段３９３號五樓之３","OBJECTID":479275},"geometry":{"x":166822.73000000138,"y":2544214.4900000039}},{"attributes":{"ID":479301,"DIS_CODE":0,"TOWNNAME":"中西區","LI":"安海里","LIN":"20鄰","STREET":"民生路","SECT":"二段","MAREA":" ","LANE":" ","ALLEY":" ","HOUSE_NO":"３９３號五樓之５","E_COORD97":166822.73000000001,"N_COORD97":2544214.4900000002,"ADDRESS":"民生路二段３９３號五樓之５","OBJECTID":479276},"geometry":{"x":166822.73000000138,"y":2544214.4900000039}},{"attributes":{"ID":479302,"DIS_CODE":0,"TOWNNAME":"中西區","LI":"安海里","LIN":"20鄰","STREET":"民生路","SECT":"二段","MAREA":" ","LANE":" ","ALLEY":" ","HOUSE_NO":"３９３號六樓之１","E_COORD97":166822.73000000001,"N_COORD97":2544214.4900000002,"ADDRESS":"民生路二段３９３號六樓之１","OBJECTID":479277},"geometry":{"x":166822.73000000138,"y":2544214.4900000039}},{"attributes":{"ID":479303,"DIS_CODE":0,"TOWNNAME":"中西區","LI":"安海里","LIN":"20鄰","STREET":"民生路","SECT":"二段","MAREA":" ","LANE":" ","ALLEY":" ","HOUSE_NO":"３９３號六樓之２","E_COORD97":166822.73000000001,"N_COORD97":2544214.4900000002,"ADDRESS":"民生路二段３９３號六樓之２","OBJECTID":479278},"geometry":{"x":166822.73000000138,"y":2544214.4900000039}},{"attributes":{"ID":479304,"DIS_CODE":0,"TOWNNAME":"中西區","LI":"安海里","LIN":"20鄰","STREET":"民生路","SECT":"二段","MAREA":" ","LANE":" ","ALLEY":" ","HOUSE_NO":"３９３號六樓之３","E_COORD97":166822.73000000001,"N_COORD97":2544214.4900000002,"ADDRESS":"民生路二段３９３號六樓之３","OBJECTID":479279},"geometry":{"x":166822.73000000138,"y":2544214.4900000039}},{"attributes":{"ID":479305,"DIS_CODE":0,"TOWNNAME":"中西區","LI":"安海里","LIN":"20鄰","STREET":"民生路","SECT":"二段","MAREA":" ","LANE":" ","ALLEY":" ","HOUSE_NO":"３９３號六樓之５","E_COORD97":166822.73000000001,"N_COORD97":2544214.4900000002,"ADDRESS":"民生路二段３９３號六樓之５","OBJECTID":479280},"geometry":{"x":166822.73000000138,"y":2544214.4900000039}},{"attributes":{"ID":479306,"DIS_CODE":0,"TOWNNAME":"中西區","LI":"安海里","LIN":"20鄰","STREET":"民生路","SECT":"二段","MAREA":" ","LANE":" ","ALLEY":" ","HOUSE_NO":"３９３號四樓之１","E_COORD97":166822.73000000001,"N_COORD97":2544214.4900000002,"ADDRESS":"民生路二段３９３號四樓之１","OBJECTID":479281},"geometry":{"x":166822.73000000138,"y":2544214.4900000039}},{"attributes":{"ID":479307,"DIS_CODE":0,"TOWNNAME":"中西區","LI":"安海里","LIN":"20鄰","STREET":"民生路","SECT":"二段","MAREA":" ","LANE":" ","ALLEY":" ","HOUSE_NO":"３９３號四樓之２","E_COORD97":166822.73000000001,"N_COORD97":2544214.4900000002,"ADDRESS":"民生路二段３９３號四樓之２","OBJECTID":479282},"geometry":{"x":166822.73000000138,"y":2544214.4900000039}},{"attributes":{"ID":479308,"DIS_CODE":0,"TOWNNAME":"中西區","LI":"安海里","LIN":"20鄰","STREET":"民生路","SECT":"二段","MAREA":" ","LANE":" ","ALLEY":" ","HOUSE_NO":"３９３號四樓之３","E_COORD97":166822.73000000001,"N_COORD97":2544214.4900000002,"ADDRESS":"民生路二段３９３號四樓之３","OBJECTID":479283},"geometry":{"x":166822.73000000138,"y":2544214.4900000039}},{"attributes":{"ID":479309,"DIS_CODE":0,"TOWNNAME":"中西區","LI":"安海里","LIN":"20鄰","STREET":"民生路","SECT":"二段","MAREA":" ","LANE":" ","ALLEY":" ","HOUSE_NO":"３９３號四樓之５","E_COORD97":166822.73000000001,"N_COORD97":2544214.4900000002,"ADDRESS":"民生路二段３９３號四樓之５","OBJECTID":479284},"geometry":{"x":166822.73000000138,"y":2544214.4900000039}},{"attributes":{"ID":479310,"DIS_CODE":0,"TOWNNAME":"中西區","LI":"安海里","LIN":"20鄰","STREET":"民生路","SECT":"二段","MAREA":" ","LANE":" ","ALLEY":" ","HOUSE_NO":"３９９號七樓之１","E_COORD97":166798.23999999999,"N_COORD97":2544230.21,"ADDRESS":"民生路二段３９９號七樓之１","OBJECTID":479285},"geometry":{"x":166798.24000000209,"y":2544230.2100000009}},{"attributes":{"ID":479311,"DIS_CODE":0,"TOWNNAME":"中西區","LI":"安海里","LIN":"20鄰","STREET":"民生路","SECT":"二段","MAREA":" ","LANE":" ","ALLEY":" ","HOUSE_NO":"３９９號七樓之２","E_COORD97":166786,"N_COORD97":2544231.0800000001,"ADDRESS":"民生路二段３９９號七樓之２","OBJECTID":479286},"geometry":{"x":166786.00000000186,"y":2544231.0800000019}},{"attributes":{"ID":479312,"DIS_CODE":0,"TOWNNAME":"中西區","LI":"安海里","LIN":"20鄰","STREET":"民生路","SECT":"二段","MAREA":" ","LANE":" ","ALLEY":" ","HOUSE_NO":"３９９號七樓之３","E_COORD97":166798.23999999999,"N_COORD97":2544219.29,"ADDRESS":"民生路二段３９９號七樓之３","OBJECTID":479287},"geometry":{"x":166798.24000000209,"y":2544219.290000001}},{"attributes":{"ID":479313,"DIS_CODE":0,"TOWNNAME":"中西區","LI":"安海里","LIN":"20鄰","STREET":"民生路","SECT":"二段","MAREA":" ","LANE":" ","ALLEY":" ","HOUSE_NO":"３９９號七樓之５","E_COORD97":166785.56,"N_COORD97":2544220.1699999999,"ADDRESS":"民生路二段３９９號七樓之５","OBJECTID":479288},"geometry":{"x":166785.56000000052,"y":2544220.1700000018}},{"attributes":{"ID":479314,"DIS_CODE":0,"TOWNNAME":"中西區","LI":"安海里","LIN":"20鄰","STREET":"民生路","SECT":"二段","MAREA":" ","LANE":" ","ALLEY":" ","HOUSE_NO":"３９９號九樓之１","E_COORD97":166798.23999999999,"N_COORD97":2544230.21,"ADDRESS":"民生路二段３９９號九樓之１","OBJECTID":479289},"geometry":{"x":166798.24000000209,"y":2544230.2100000009}},{"attributes":{"ID":479315,"DIS_CODE":0,"TOWNNAME":"中西區","LI":"安海里","LIN":"20鄰","STREET":"民生路","SECT":"二段","MAREA":" ","LANE":" ","ALLEY":" ","HOUSE_NO":"３９９號九樓之２","E_COORD97":166786,"N_COORD97":2544231.0800000001,"ADDRESS":"民生路二段３９９號九樓之２","OBJECTID":479290},"geometry":{"x":166786.00000000186,"y":2544231.0800000019}},{"attributes":{"ID":479316,"DIS_CODE":0,"TOWNNAME":"中西區","LI":"安海里","LIN":"20鄰","STREET":"民生路","SECT":"二段","MAREA":" ","LANE":" ","ALLEY":" ","HOUSE_NO":"３９９號九樓之３","E_COORD97":166798.23999999999,"N_COORD97":2544219.29,"ADDRESS":"民生路二段３９９號九樓之３","OBJECTID":479291},"geometry":{"x":166798.24000000209,"y":2544219.290000001}},{"attributes":{"ID":479317,"DIS_CODE":0,"TOWNNAME":"中西區","LI":"安海里","LIN":"20鄰","STREET":"民生路","SECT":"二段","MAREA":" ","LANE":" ","ALLEY":" ","HOUSE_NO":"３９９號九樓之５","E_COORD97":166785.56,"N_COORD97":2544220.1699999999,"ADDRESS":"民生路二段３９９號九樓之５","OBJECTID":479292},"geometry":{"x":166785.56000000052,"y":2544220.1700000018}},{"attributes":{"ID":479318,"DIS_CODE":0,"TOWNNAME":"中西區","LI":"安海里","LIN":"20鄰","STREET":"民生路","SECT":"二段","MAREA":" ","LANE":" ","ALLEY":" ","HOUSE_NO":"３９９號二十一樓之１","E_COORD97":166798.23999999999,"N_COORD97":2544230.21,"ADDRESS":"民生路二段３９９號二十一樓之１","OBJECTID":479293},"geometry":{"x":166798.24000000209,"y":2544230.2100000009}},{"attributes":{"ID":479319,"DIS_CODE":0,"TOWNNAME":"中西區","LI":"安海里","LIN":"20鄰","STREET":"民生路","SECT":"二段","MAREA":" ","LANE":" ","ALLEY":" ","HOUSE_NO":"３９９號二十一樓之２","E_COORD97":166786,"N_COORD97":2544231.0800000001,"ADDRESS":"民生路二段３９９號二十一樓之２","OBJECTID":479294},"geometry":{"x":166786.00000000186,"y":2544231.0800000019}},{"attributes":{"ID":479320,"DIS_CODE":0,"TOWNNAME":"中西區","LI":"安海里","LIN":"20鄰","STREET":"民生路","SECT":"二段","MAREA":" ","LANE":" ","ALLEY":" ","HOUSE_NO":"３９９號二十一樓之３","E_COORD97":166798.23999999999,"N_COORD97":2544219.29,"ADDRESS":"民生路二段３９９號二十一樓之３","OBJECTID":479295},"geometry":{"x":166798.24000000209,"y":2544219.290000001}},{"attributes":{"ID":479321,"DIS_CODE":0,"TOWNNAME":"中西區","LI":"安海里","LIN":"20鄰","STREET":"民生路","SECT":"二段","MAREA":" ","LANE":" ","ALLEY":" ","HOUSE_NO":"３９９號二十一樓之５","E_COORD97":166785.56,"N_COORD97":2544220.1699999999,"ADDRESS":"民生路二段３９９號二十一樓之５","OBJECTID":479296},"geometry":{"x":166785.56000000052,"y":2544220.1700000018}},{"attributes":{"ID":479322,"DIS_CODE":0,"TOWNNAME":"中西區","LI":"安海里","LIN":"20鄰","STREET":"民生路","SECT":"二段","MAREA":" ","LANE":" ","ALLEY":" ","HOUSE_NO":"３９９號二十二樓之１","E_COORD97":166798.23999999999,"N_COORD97":2544230.21,"ADDRESS":"民生路二段３９９號二十二樓之１","OBJECTID":479297},"geometry":{"x":166798.24000000209,"y":2544230.2100000009}},{"attributes":{"ID":479323,"DIS_CODE":0,"TOWNNAME":"中西區","LI":"安海里","LIN":"20鄰","STREET":"民生路","SECT":"二段","MAREA":" ","LANE":" ","ALLEY":" ","HOUSE_NO":"３９９號二十二樓之３","E_COORD97":166786,"N_COORD97":2544231.0800000001,"ADDRESS":"民生路二段３９９號二十二樓之３","OBJECTID":479298},"geometry":{"x":166786.00000000186,"y":2544231.0800000019}},{"attributes":{"ID":479324,"DIS_CODE":0,"TOWNNAME":"中西區","LI":"安海里","LIN":"20鄰","STREET":"民生路","SECT":"二段","MAREA":" ","LANE":" ","ALLEY":" ","HOUSE_NO":"３９９號二十三樓之１","E_COORD97":166798.23999999999,"N_COORD97":2544230.21,"ADDRESS":"民生路二段３９９號二十三樓之１","OBJECTID":479299},"geometry":{"x":166798.24000000209,"y":2544230.2100000009}},{"attributes":{"ID":479325,"DIS_CODE":0,"TOWNNAME":"中西區","LI":"安海里","LIN":"20鄰","STREET":"民生路","SECT":"二段","MAREA":" ","LANE":" ","ALLEY":" ","HOUSE_NO":"３９９號二十三樓之３","E_COORD97":166786,"N_COORD97":2544231.0800000001,"ADDRESS":"民生路二段３９９號二十三樓之３","OBJECTID":479300},"geometry":{"x":166786.00000000186,"y":2544231.0800000019}},{"attributes":{"ID":479326,"DIS_CODE":0,"TOWNNAME":"永康區","LI":"復國里","LIN":"20鄰","STREET":"國華街","SECT":" ","MAREA":" ","LANE":" ","ALLEY":" ","HOUSE_NO":"６１號五樓之３","E_COORD97":172830.32999999999,"N_COORD97":2545750.4199999999,"ADDRESS":"國華街６１號五樓之３","OBJECTID":479301},"geometry":{"x":172830.33000000007,"y":2545750.4200000037}},{"attributes":{"ID":479327,"DIS_CODE":0,"TOWNNAME":"中西區","LI":"安海里","LIN":"20鄰","STREET":"民生路","SECT":"二段","MAREA":" ","LANE":" ","ALLEY":" ","HOUSE_NO":"３９９號二十樓之１","E_COORD97":166798.23999999999,"N_COORD97":2544230.21,"ADDRESS":"民生路二段３９９號二十樓之１","OBJECTID":479302},"geometry":{"x":166798.24000000209,"y":2544230.2100000009}},{"attributes":{"ID":479328,"DIS_CODE":0,"TOWNNAME":"中西區","LI":"安海里","LIN":"20鄰","STREET":"民生路","SECT":"二段","MAREA":" ","LANE":" ","ALLEY":" ","HOUSE_NO":"３９９號二十樓之２","E_COORD97":166786,"N_COORD97":2544231.0800000001,"ADDRESS":"民生路二段３９９號二十樓之２","OBJECTID":479303},"geometry":{"x":166786.00000000186,"y":2544231.0800000019}},{"attributes":{"ID":479329,"DIS_CODE":0,"TOWNNAME":"中西區","LI":"安海里","LIN":"20鄰","STREET":"民生路","SECT":"二段","MAREA":" ","LANE":" ","ALLEY":" ","HOUSE_NO":"３９９號二十樓之３","E_COORD97":166798.23999999999,"N_COORD97":2544219.29,"ADDRESS":"民生路二段３９９號二十樓之３","OBJECTID":479304},"geometry":{"x":166798.24000000209,"y":2544219.290000001}},{"attributes":{"ID":479330,"DIS_CODE":0,"TOWNNAME":"中西區","LI":"安海里","LIN":"20鄰","STREET":"民生路","SECT":"二段","MAREA":" ","LANE":" ","ALLEY":" ","HOUSE_NO":"３９９號二十樓之５","E_COORD97":166785.56,"N_COORD97":2544220.1699999999,"ADDRESS":"民生路二段３９９號二十樓之５","OBJECTID":479305},"geometry":{"x":166785.56000000052,"y":2544220.1700000018}},{"attributes":{"ID":479331,"DIS_CODE":0,"TOWNNAME":"中西區","LI":"安海里","LIN":"20鄰","STREET":"民生路","SECT":"二段","MAREA":" ","LANE":" ","ALLEY":" ","HOUSE_NO":"３９９號八樓之１","E_COORD97":166798.23999999999,"N_COORD97":2544230.21,"ADDRESS":"民生路二段３９９號八樓之１","OBJECTID":479306},"geometry":{"x":166798.24000000209,"y":2544230.2100000009}},{"attributes":{"ID":479332,"DIS_CODE":0,"TOWNNAME":"中西區","LI":"安海里","LIN":"20鄰","STREET":"民生路","SECT":"二段","MAREA":" ","LANE":" ","ALLEY":" ","HOUSE_NO":"３９９號八樓之２","E_COORD97":166786,"N_COORD97":2544231.0800000001,"ADDRESS":"民生路二段３９９號八樓之２","OBJECTID":479307},"geometry":{"x":166786.00000000186,"y":2544231.0800000019}},{"attributes":{"ID":479333,"DIS_CODE":0,"TOWNNAME":"中西區","LI":"安海里","LIN":"20鄰","STREET":"民生路","SECT":"二段","MAREA":" ","LANE":" ","ALLEY":" ","HOUSE_NO":"３９９號八樓之３","E_COORD97":166798.23999999999,"N_COORD97":2544219.29,"ADDRESS":"民生路二段３９９號八樓之３","OBJECTID":479308},"geometry":{"x":166798.24000000209,"y":2544219.290000001}},{"attributes":{"ID":479334,"DIS_CODE":0,"TOWNNAME":"東區","LI":"富裕里","LIN":"20鄰","STREET":"裕豐街","SECT":" ","MAREA":" ","LANE":" ","ALLEY":" ","HOUSE_NO":"１０號四樓","E_COORD97":170765.85000000001,"N_COORD97":2542700.8300000001,"ADDRESS":"裕豐街１０號四樓","OBJECTID":479309},"geometry":{"x":170765.85000000056,"y":2542700.8300000019}},{"attributes":{"ID":479335,"DIS_CODE":0,"TOWNNAME":"中西區","LI":"安海里","LIN":"20鄰","STREET":"民生路","SECT":"二段","MAREA":" ","LANE":" ","ALLEY":" ","HOUSE_NO":"３９９號八樓之５","E_COORD97":166785.56,"N_COORD97":2544220.1699999999,"ADDRESS":"民生路二段３９９號八樓之５","OBJECTID":479310},"geometry":{"x":166785.56000000052,"y":2544220.1700000018}},{"attributes":{"ID":479336,"DIS_CODE":0,"TOWNNAME":"中西區","LI":"安海里","LIN":"20鄰","STREET":"民生路","SECT":"二段","MAREA":" ","LANE":" ","ALLEY":" ","HOUSE_NO":"３９９號十一樓之１","E_COORD97":166798.23999999999,"N_COORD97":2544230.21,"ADDRESS":"民生路二段３９９號十一樓之１","OBJECTID":479311},"geometry":{"x":166798.24000000209,"y":2544230.2100000009}},{"attributes":{"ID":479337,"DIS_CODE":0,"TOWNNAME":"中西區","LI":"安海里","LIN":"20鄰","STREET":"民生路","SECT":"二段","MAREA":" ","LANE":" ","ALLEY":" ","HOUSE_NO":"３９９號十一樓之２","E_COORD97":166786,"N_COORD97":2544231.0800000001,"ADDRESS":"民生路二段３９９號十一樓之２","OBJECTID":479312},"geometry":{"x":166786.00000000186,"y":2544231.0800000019}},{"attributes":{"ID":479338,"DIS_CODE":0,"TOWNNAME":"中西區","LI":"安海里","LIN":"20鄰","STREET":"民生路","SECT":"二段","MAREA":" ","LANE":" ","ALLEY":" ","HOUSE_NO":"３９９號十一樓之３","E_COORD97":166798.23999999999,"N_COORD97":2544219.29,"ADDRESS":"民生路二段３９９號十一樓之３","OBJECTID":479313},"geometry":{"x":166798.24000000209,"y":2544219.290000001}},{"attributes":{"ID":479339,"DIS_CODE":0,"TOWNNAME":"中西區","LI":"安海里","LIN":"20鄰","STREET":"民生路","SECT":"二段","MAREA":" ","LANE":" ","ALLEY":" ","HOUSE_NO":"３９９號十一樓之５","E_COORD97":166785.56,"N_COORD97":2544220.1699999999,"ADDRESS":"民生路二段３９９號十一樓之５","OBJECTID":479314},"geometry":{"x":166785.56000000052,"y":2544220.1700000018}},{"attributes":{"ID":479340,"DIS_CODE":0,"TOWNNAME":"中西區","LI":"安海里","LIN":"20鄰","STREET":"民生路","SECT":"二段","MAREA":" ","LANE":" ","ALLEY":" ","HOUSE_NO":"３９９號十七樓之１","E_COORD97":166798.23999999999,"N_COORD97":2544230.21,"ADDRESS":"民生路二段３９９號十七樓之１","OBJECTID":479315},"geometry":{"x":166798.24000000209,"y":2544230.2100000009}},{"attributes":{"ID":479341,"DIS_CODE":0,"TOWNNAME":"中西區","LI":"安海里","LIN":"20鄰","STREET":"民生路","SECT":"二段","MAREA":" ","LANE":" ","ALLEY":" ","HOUSE_NO":"３９９號十七樓之２","E_COORD97":166786,"N_COORD97":2544231.0800000001,"ADDRESS":"民生路二段３９９號十七樓之２","OBJECTID":479316},"geometry":{"x":166786.00000000186,"y":2544231.0800000019}},{"attributes":{"ID":479342,"DIS_CODE":0,"TOWNNAME":"中西區","LI":"安海里","LIN":"20鄰","STREET":"民生路","SECT":"二段","MAREA":" ","LANE":" ","ALLEY":" ","HOUSE_NO":"３９９號十七樓之３","E_COORD97":166798.23999999999,"N_COORD97":2544219.29,"ADDRESS":"民生路二段３９９號十七樓之３","OBJECTID":479317},"geometry":{"x":166798.24000000209,"y":2544219.290000001}},{"attributes":{"ID":479343,"DIS_CODE":0,"TOWNNAME":"中西區","LI":"安海里","LIN":"20鄰","STREET":"民生路","SECT":"二段","MAREA":" ","LANE":" ","ALLEY":" ","HOUSE_NO":"３９９號十七樓之５","E_COORD97":166785.56,"N_COORD97":2544220.1699999999,"ADDRESS":"民生路二段３９９號十七樓之５","OBJECTID":479318},"geometry":{"x":166785.56000000052,"y":2544220.1700000018}},{"attributes":{"ID":479344,"DIS_CODE":0,"TOWNNAME":"中西區","LI":"安海里","LIN":"20鄰","STREET":"民生路","SECT":"二段","MAREA":" ","LANE":" ","ALLEY":" ","HOUSE_NO":"３９９號十九樓之１","E_COORD97":166798.23999999999,"N_COORD97":2544230.21,"ADDRESS":"民生路二段３９９號十九樓之１","OBJECTID":479319},"geometry":{"x":166798.24000000209,"y":2544230.2100000009}},{"attributes":{"ID":479345,"DIS_CODE":0,"TOWNNAME":"中西區","LI":"安海里","LIN":"20鄰","STREET":"民生路","SECT":"二段","MAREA":" ","LANE":" ","ALLEY":" ","HOUSE_NO":"３９９號十九樓之２","E_COORD97":166786,"N_COORD97":2544231.0800000001,"ADDRESS":"民生路二段３９９號十九樓之２","OBJECTID":479320},"geometry":{"x":166786.00000000186,"y":2544231.0800000019}},{"attributes":{"ID":479346,"DIS_CODE":0,"TOWNNAME":"中西區","LI":"安海里","LIN":"20鄰","STREET":"民生路","SECT":"二段","MAREA":" ","LANE":" ","ALLEY":" ","HOUSE_NO":"３９９號十九樓之３","E_COORD97":166798.23999999999,"N_COORD97":2544219.29,"ADDRESS":"民生路二段３９９號十九樓之３","OBJECTID":479321},"geometry":{"x":166798.24000000209,"y":2544219.290000001}},{"attributes":{"ID":479347,"DIS_CODE":0,"TOWNNAME":"中西區","LI":"安海里","LIN":"20鄰","STREET":"民生路","SECT":"二段","MAREA":" ","LANE":" ","ALLEY":" ","HOUSE_NO":"３９９號十九樓之５","E_COORD97":166785.56,"N_COORD97":2544220.1699999999,"ADDRESS":"民生路二段３９９號十九樓之５","OBJECTID":479322},"geometry":{"x":166785.56000000052,"y":2544220.1700000018}},{"attributes":{"ID":479348,"DIS_CODE":0,"TOWNNAME":"中西區","LI":"安海里","LIN":"20鄰","STREET":"民生路","SECT":"二段","MAREA":" ","LANE":" ","ALLEY":" ","HOUSE_NO":"３９９號十二樓之１","E_COORD97":166798.23999999999,"N_COORD97":2544230.21,"ADDRESS":"民生路二段３９９號十二樓之１","OBJECTID":479323},"geometry":{"x":166798.24000000209,"y":2544230.2100000009}},{"attributes":{"ID":479349,"DIS_CODE":0,"TOWNNAME":"中西區","LI":"安海里","LIN":"20鄰","STREET":"民生路","SECT":"二段","MAREA":" ","LANE":" ","ALLEY":" ","HOUSE_NO":"３９９號十二樓之２","E_COORD97":166786,"N_COORD97":2544231.0800000001,"ADDRESS":"民生路二段３９９號十二樓之２","OBJECTID":479324},"geometry":{"x":166786.00000000186,"y":2544231.0800000019}},{"attributes":{"ID":479350,"DIS_CODE":0,"TOWNNAME":"中西區","LI":"安海里","LIN":"20鄰","STREET":"民生路","SECT":"二段","MAREA":" ","LANE":" ","ALLEY":" ","HOUSE_NO":"３９９號十二樓之３","E_COORD97":166798.23999999999,"N_COORD97":2544219.29,"ADDRESS":"民生路二段３９９號十二樓之３","OBJECTID":479325},"geometry":{"x":166798.24000000209,"y":2544219.290000001}},{"attributes":{"ID":479351,"DIS_CODE":0,"TOWNNAME":"中西區","LI":"安海里","LIN":"20鄰","STREET":"民生路","SECT":"二段","MAREA":" ","LANE":" ","ALLEY":" ","HOUSE_NO":"３９９號十二樓之５","E_COORD97":166785.56,"N_COORD97":2544220.1699999999,"ADDRESS":"民生路二段３９９號十二樓之５","OBJECTID":479326},"geometry":{"x":166785.56000000052,"y":2544220.1700000018}},{"attributes":{"ID":479352,"DIS_CODE":0,"TOWNNAME":"中西區","LI":"安海里","LIN":"20鄰","STREET":"民生路","SECT":"二段","MAREA":" ","LANE":" ","ALLEY":" ","HOUSE_NO":"３９９號十八樓之１","E_COORD97":166798.23999999999,"N_COORD97":2544230.21,"ADDRESS":"民生路二段３９９號十八樓之１","OBJECTID":479327},"geometry":{"x":166798.24000000209,"y":2544230.2100000009}},{"attributes":{"ID":479353,"DIS_CODE":0,"TOWNNAME":"中西區","LI":"安海里","LIN":"20鄰","STREET":"民生路","SECT":"二段","MAREA":" ","LANE":" ","ALLEY":" ","HOUSE_NO":"３９９號十八樓之３","E_COORD97":166798.23999999999,"N_COORD97":2544219.29,"ADDRESS":"民生路二段３９９號十八樓之３","OBJECTID":479328},"geometry":{"x":166798.24000000209,"y":2544219.290000001}},{"attributes":{"ID":479354,"DIS_CODE":0,"TOWNNAME":"中西區","LI":"安海里","LIN":"20鄰","STREET":"民生路","SECT":"二段","MAREA":" ","LANE":" ","ALLEY":" ","HOUSE_NO":"３９９號十八樓之５","E_COORD97":166785.56,"N_COORD97":2544220.1699999999,"ADDRESS":"民生路二段３９９號十八樓之５","OBJECTID":479329},"geometry":{"x":166785.56000000052,"y":2544220.1700000018}},{"attributes":{"ID":479355,"DIS_CODE":0,"TOWNNAME":"中西區","LI":"安海里","LIN":"20鄰","STREET":"民生路","SECT":"二段","MAREA":" ","LANE":" ","ALLEY":" ","HOUSE_NO":"３９９號十三樓之１","E_COORD97":166798.23999999999,"N_COORD97":2544230.21,"ADDRESS":"民生路二段３９９號十三樓之１","OBJECTID":479330},"geometry":{"x":166798.24000000209,"y":2544230.2100000009}},{"attributes":{"ID":479356,"DIS_CODE":0,"TOWNNAME":"中西區","LI":"安海里","LIN":"20鄰","STREET":"民生路","SECT":"二段","MAREA":" ","LANE":" ","ALLEY":" ","HOUSE_NO":"３９９號十三樓之２","E_COORD97":166786,"N_COORD97":2544231.0800000001,"ADDRESS":"民生路二段３９９號十三樓之２","OBJECTID":479331},"geometry":{"x":166786.00000000186,"y":2544231.0800000019}},{"attributes":{"ID":479357,"DIS_CODE":0,"TOWNNAME":"中西區","LI":"安海里","LIN":"20鄰","STREET":"民生路","SECT":"二段","MAREA":" ","LANE":" ","ALLEY":" ","HOUSE_NO":"３９９號十三樓之３","E_COORD97":166798.23999999999,"N_COORD97":2544219.29,"ADDRESS":"民生路二段３９９號十三樓之３","OBJECTID":479332},"geometry":{"x":166798.24000000209,"y":2544219.290000001}},{"attributes":{"ID":479358,"DIS_CODE":0,"TOWNNAME":"中西區","LI":"安海里","LIN":"20鄰","STREET":"民生路","SECT":"二段","MAREA":" ","LANE":" ","ALLEY":" ","HOUSE_NO":"３９９號十三樓之５","E_COORD97":166785.56,"N_COORD97":2544220.1699999999,"ADDRESS":"民生路二段３９９號十三樓之５","OBJECTID":479333},"geometry":{"x":166785.56000000052,"y":2544220.1700000018}},{"attributes":{"ID":479359,"DIS_CODE":0,"TOWNNAME":"中西區","LI":"安海里","LIN":"20鄰","STREET":"民生路","SECT":"二段","MAREA":" ","LANE":" ","ALLEY":" ","HOUSE_NO":"３９９號十五樓之１","E_COORD97":166798.23999999999,"N_COORD97":2544230.21,"ADDRESS":"民生路二段３９９號十五樓之１","OBJECTID":479334},"geometry":{"x":166798.24000000209,"y":2544230.2100000009}},{"attributes":{"ID":479360,"DIS_CODE":0,"TOWNNAME":"中西區","LI":"安海里","LIN":"20鄰","STREET":"民生路","SECT":"二段","MAREA":" ","LANE":" ","ALLEY":" ","HOUSE_NO":"３９９號十五樓之２","E_COORD97":166786,"N_COORD97":2544231.0800000001,"ADDRESS":"民生路二段３９９號十五樓之２","OBJECTID":479335},"geometry":{"x":166786.00000000186,"y":2544231.0800000019}},{"attributes":{"ID":479361,"DIS_CODE":0,"TOWNNAME":"中西區","LI":"安海里","LIN":"20鄰","STREET":"民生路","SECT":"二段","MAREA":" ","LANE":" ","ALLEY":" ","HOUSE_NO":"３９９號十五樓之３","E_COORD97":166798.23999999999,"N_COORD97":2544219.29,"ADDRESS":"民生路二段３９９號十五樓之３","OBJECTID":479336},"geometry":{"x":166798.24000000209,"y":2544219.290000001}},{"attributes":{"ID":479362,"DIS_CODE":0,"TOWNNAME":"安南區","LI":"國安里","LIN":"8鄰","STREET":"郡安路","SECT":"六段","MAREA":" ","LANE":" ","ALLEY":" ","HOUSE_NO":"９９號","E_COORD97":166519.03,"N_COORD97":2547531.3500000001,"ADDRESS":"郡安路六段９９號","OBJECTID":479337},"geometry":{"x":166519.03000000119,"y":2547531.3500000015}},{"attributes":{"ID":479363,"DIS_CODE":0,"TOWNNAME":"中西區","LI":"安海里","LIN":"20鄰","STREET":"民生路","SECT":"二段","MAREA":" ","LANE":" ","ALLEY":" ","HOUSE_NO":"３９９號十五樓之５","E_COORD97":166785.56,"N_COORD97":2544220.1699999999,"ADDRESS":"民生路二段３９９號十五樓之５","OBJECTID":479338},"geometry":{"x":166785.56000000052,"y":2544220.1700000018}},{"attributes":{"ID":479364,"DIS_CODE":0,"TOWNNAME":"中西區","LI":"安海里","LIN":"20鄰","STREET":"民生路","SECT":"二段","MAREA":" ","LANE":" ","ALLEY":" ","HOUSE_NO":"３９９號十六樓之１","E_COORD97":166798.23999999999,"N_COORD97":2544230.21,"ADDRESS":"民生路二段３９９號十六樓之１","OBJECTID":479339},"geometry":{"x":166798.24000000209,"y":2544230.2100000009}},{"attributes":{"ID":479365,"DIS_CODE":0,"TOWNNAME":"中西區","LI":"安海里","LIN":"20鄰","STREET":"民生路","SECT":"二段","MAREA":" ","LANE":" ","ALLEY":" ","HOUSE_NO":"３９９號十六樓之３","E_COORD97":166798.23999999999,"N_COORD97":2544219.29,"ADDRESS":"民生路二段３９９號十六樓之３","OBJECTID":479340},"geometry":{"x":166798.24000000209,"y":2544219.290000001}},{"attributes":{"ID":479366,"DIS_CODE":0,"TOWNNAME":"中西區","LI":"安海里","LIN":"20鄰","STREET":"民生路","SECT":"二段","MAREA":" ","LANE":" ","ALLEY":" ","HOUSE_NO":"３９９號十六樓之５","E_COORD97":166785.56,"N_COORD97":2544220.1699999999,"ADDRESS":"民生路二段３９９號十六樓之５","OBJECTID":479341},"geometry":{"x":166785.56000000052,"y":2544220.1700000018}},{"attributes":{"ID":479367,"DIS_CODE":0,"TOWNNAME":"中西區","LI":"安海里","LIN":"20鄰","STREET":"民生路","SECT":"二段","MAREA":" ","LANE":" ","ALLEY":" ","HOUSE_NO":"３９９號十四樓之１","E_COORD97":166798.23999999999,"N_COORD97":2544230.21,"ADDRESS":"民生路二段３９９號十四樓之１","OBJECTID":479342},"geometry":{"x":166798.24000000209,"y":2544230.2100000009}},{"attributes":{"ID":479368,"DIS_CODE":0,"TOWNNAME":"中西區","LI":"安海里","LIN":"20鄰","STREET":"民生路","SECT":"二段","MAREA":" ","LANE":" ","ALLEY":" ","HOUSE_NO":"３９９號十四樓之２","E_COORD97":166786,"N_COORD97":2544231.0800000001,"ADDRESS":"民生路二段３９９號十四樓之２","OBJECTID":479343},"geometry":{"x":166786.00000000186,"y":2544231.0800000019}},{"attributes":{"ID":479369,"DIS_CODE":0,"TOWNNAME":"中西區","LI":"安海里","LIN":"20鄰","STREET":"民生路","SECT":"二段","MAREA":" ","LANE":" ","ALLEY":" ","HOUSE_NO":"３９９號十四樓之３","E_COORD97":166798.23999999999,"N_COORD97":2544219.29,"ADDRESS":"民生路二段３９９號十四樓之３","OBJECTID":479344},"geometry":{"x":166798.24000000209,"y":2544219.290000001}},{"attributes":{"ID":479370,"DIS_CODE":0,"TOWNNAME":"中西區","LI":"安海里","LIN":"20鄰","STREET":"民生路","SECT":"二段","MAREA":" ","LANE":" ","ALLEY":" ","HOUSE_NO":"３９９號十四樓之５","E_COORD97":166785.56,"N_COORD97":2544220.1699999999,"ADDRESS":"民生路二段３９９號十四樓之５","OBJECTID":479345},"geometry":{"x":166785.56000000052,"y":2544220.1700000018}},{"attributes":{"ID":479371,"DIS_CODE":0,"TOWNNAME":"中西區","LI":"安海里","LIN":"20鄰","STREET":"民生路","SECT":"二段","MAREA":" ","LANE":" ","ALLEY":" ","HOUSE_NO":"３９９號十樓之１","E_COORD97":166798.23999999999,"N_COORD97":2544230.21,"ADDRESS":"民生路二段３９９號十樓之１","OBJECTID":479346},"geometry":{"x":166798.24000000209,"y":2544230.2100000009}},{"attributes":{"ID":479372,"DIS_CODE":0,"TOWNNAME":"中西區","LI":"安海里","LIN":"20鄰","STREET":"民生路","SECT":"二段","MAREA":" ","LANE":" ","ALLEY":" ","HOUSE_NO":"３９９號十樓之２","E_COORD97":166786,"N_COORD97":2544231.0800000001,"ADDRESS":"民生路二段３９９號十樓之２","OBJECTID":479347},"geometry":{"x":166786.00000000186,"y":2544231.0800000019}},{"attributes":{"ID":479373,"DIS_CODE":0,"TOWNNAME":"中西區","LI":"安海里","LIN":"20鄰","STREET":"民生路","SECT":"二段","MAREA":" ","LANE":" ","ALLEY":" ","HOUSE_NO":"３９９號十樓之３","E_COORD97":166798.23999999999,"N_COORD97":2544219.29,"ADDRESS":"民生路二段３９９號十樓之３","OBJECTID":479348},"geometry":{"x":166798.24000000209,"y":2544219.290000001}},{"attributes":{"ID":479374,"DIS_CODE":0,"TOWNNAME":"中西區","LI":"安海里","LIN":"20鄰","STREET":"民生路","SECT":"二段","MAREA":" ","LANE":" ","ALLEY":" ","HOUSE_NO":"３９９號十樓之５","E_COORD97":166785.56,"N_COORD97":2544220.1699999999,"ADDRESS":"民生路二段３９９號十樓之５","OBJECTID":479349},"geometry":{"x":166785.56000000052,"y":2544220.1700000018}},{"attributes":{"ID":479375,"DIS_CODE":0,"TOWNNAME":"中西區","LI":"安海里","LIN":"20鄰","STREET":"民生路","SECT":"二段","MAREA":" ","LANE":" ","ALLEY":" ","HOUSE_NO":"３９９號三樓之１","E_COORD97":166798.23999999999,"N_COORD97":2544230.21,"ADDRESS":"民生路二段３９９號三樓之１","OBJECTID":479350},"geometry":{"x":166798.24000000209,"y":2544230.2100000009}},{"attributes":{"ID":479376,"DIS_CODE":0,"TOWNNAME":"中西區","LI":"安海里","LIN":"20鄰","STREET":"民生路","SECT":"二段","MAREA":" ","LANE":" ","ALLEY":" ","HOUSE_NO":"３９９號三樓之２","E_COORD97":166786,"N_COORD97":2544231.0800000001,"ADDRESS":"民生路二段３９９號三樓之２","OBJECTID":479351},"geometry":{"x":166786.00000000186,"y":2544231.0800000019}},{"attributes":{"ID":479377,"DIS_CODE":0,"TOWNNAME":"中西區","LI":"安海里","LIN":"20鄰","STREET":"民生路","SECT":"二段","MAREA":" ","LANE":" ","ALLEY":" ","HOUSE_NO":"３９９號三樓之３","E_COORD97":166798.23999999999,"N_COORD97":2544219.29,"ADDRESS":"民生路二段３９９號三樓之３","OBJECTID":479352},"geometry":{"x":166798.24000000209,"y":2544219.290000001}},{"attributes":{"ID":479378,"DIS_CODE":0,"TOWNNAME":"中西區","LI":"安海里","LIN":"20鄰","STREET":"民生路","SECT":"二段","MAREA":" ","LANE":" ","ALLEY":" ","HOUSE_NO":"３９９號三樓之５","E_COORD97":166785.56,"N_COORD97":2544220.1699999999,"ADDRESS":"民生路二段３９９號三樓之５","OBJECTID":479353},"geometry":{"x":166785.56000000052,"y":2544220.1700000018}},{"attributes":{"ID":479379,"DIS_CODE":0,"TOWNNAME":"中西區","LI":"安海里","LIN":"20鄰","STREET":"民生路","SECT":"二段","MAREA":" ","LANE":" ","ALLEY":" ","HOUSE_NO":"３９９號五樓之１","E_COORD97":166798.23999999999,"N_COORD97":2544230.21,"ADDRESS":"民生路二段３９９號五樓之１","OBJECTID":479354},"geometry":{"x":166798.24000000209,"y":2544230.2100000009}},{"attributes":{"ID":479380,"DIS_CODE":0,"TOWNNAME":"中西區","LI":"安海里","LIN":"20鄰","STREET":"民生路","SECT":"二段","MAREA":" ","LANE":" ","ALLEY":" ","HOUSE_NO":"３９９號五樓之２","E_COORD97":166786,"N_COORD97":2544231.0800000001,"ADDRESS":"民生路二段３９９號五樓之２","OBJECTID":479355},"geometry":{"x":166786.00000000186,"y":2544231.0800000019}},{"attributes":{"ID":479381,"DIS_CODE":0,"TOWNNAME":"中西區","LI":"安海里","LIN":"20鄰","STREET":"民生路","SECT":"二段","MAREA":" ","LANE":" ","ALLEY":" ","HOUSE_NO":"３９９號五樓之３","E_COORD97":166798.23999999999,"N_COORD97":2544219.29,"ADDRESS":"民生路二段３９９號五樓之３","OBJECTID":479356},"geometry":{"x":166798.24000000209,"y":2544219.290000001}},{"attributes":{"ID":479382,"DIS_CODE":0,"TOWNNAME":"中西區","LI":"安海里","LIN":"20鄰","STREET":"民生路","SECT":"二段","MAREA":" ","LANE":" ","ALLEY":" ","HOUSE_NO":"３９９號五樓之５","E_COORD97":166785.56,"N_COORD97":2544220.1699999999,"ADDRESS":"民生路二段３９９號五樓之５","OBJECTID":479357},"geometry":{"x":166785.56000000052,"y":2544220.1700000018}},{"attributes":{"ID":479383,"DIS_CODE":0,"TOWNNAME":"中西區","LI":"安海里","LIN":"20鄰","STREET":"民生路","SECT":"二段","MAREA":" ","LANE":" ","ALLEY":" ","HOUSE_NO":"３９９號六樓之１","E_COORD97":166798.23999999999,"N_COORD97":2544230.21,"ADDRESS":"民生路二段３９９號六樓之１","OBJECTID":479358},"geometry":{"x":166798.24000000209,"y":2544230.2100000009}},{"attributes":{"ID":479384,"DIS_CODE":0,"TOWNNAME":"中西區","LI":"安海里","LIN":"20鄰","STREET":"民生路","SECT":"二段","MAREA":" ","LANE":" ","ALLEY":" ","HOUSE_NO":"３９９號六樓之２","E_COORD97":166786,"N_COORD97":2544231.0800000001,"ADDRESS":"民生路二段３９９號六樓之２","OBJECTID":479359},"geometry":{"x":166786.00000000186,"y":2544231.0800000019}},{"attributes":{"ID":479385,"DIS_CODE":0,"TOWNNAME":"中西區","LI":"安海里","LIN":"20鄰","STREET":"民生路","SECT":"二段","MAREA":" ","LANE":" ","ALLEY":" ","HOUSE_NO":"３９９號六樓之３","E_COORD97":166798.23999999999,"N_COORD97":2544219.29,"ADDRESS":"民生路二段３９９號六樓之３","OBJECTID":479360},"geometry":{"x":166798.24000000209,"y":2544219.290000001}},{"attributes":{"ID":479386,"DIS_CODE":0,"TOWNNAME":"中西區","LI":"安海里","LIN":"20鄰","STREET":"民生路","SECT":"二段","MAREA":" ","LANE":" ","ALLEY":" ","HOUSE_NO":"３９９號六樓之５","E_COORD97":166785.56,"N_COORD97":2544220.1699999999,"ADDRESS":"民生路二段３９９號六樓之５","OBJECTID":479361},"geometry":{"x":166785.56000000052,"y":2544220.1700000018}},{"attributes":{"ID":479387,"DIS_CODE":0,"TOWNNAME":"中西區","LI":"安海里","LIN":"20鄰","STREET":"民生路","SECT":"二段","MAREA":" ","LANE":" ","ALLEY":" ","HOUSE_NO":"３９９號四樓之１","E_COORD97":166798.23999999999,"N_COORD97":2544230.21,"ADDRESS":"民生路二段３９９號四樓之１","OBJECTID":479362},"geometry":{"x":166798.24000000209,"y":2544230.2100000009}},{"attributes":{"ID":479388,"DIS_CODE":0,"TOWNNAME":"中西區","LI":"安海里","LIN":"20鄰","STREET":"民生路","SECT":"二段","MAREA":" ","LANE":" ","ALLEY":" ","HOUSE_NO":"３９９號四樓之２","E_COORD97":166786,"N_COORD97":2544231.0800000001,"ADDRESS":"民生路二段３９９號四樓之２","OBJECTID":479363},"geometry":{"x":166786.00000000186,"y":2544231.0800000019}},{"attributes":{"ID":479389,"DIS_CODE":0,"TOWNNAME":"中西區","LI":"安海里","LIN":"20鄰","STREET":"民生路","SECT":"二段","MAREA":" ","LANE":" ","ALLEY":" ","HOUSE_NO":"３９９號四樓之３","E_COORD97":166798.23999999999,"N_COORD97":2544219.29,"ADDRESS":"民生路二段３９９號四樓之３","OBJECTID":479364},"geometry":{"x":166798.24000000209,"y":2544219.290000001}},{"attributes":{"ID":479390,"DIS_CODE":0,"TOWNNAME":"中西區","LI":"安海里","LIN":"20鄰","STREET":"民生路","SECT":"二段","MAREA":" ","LANE":" ","ALLEY":" ","HOUSE_NO":"３９９號四樓之５","E_COORD97":166785.56,"N_COORD97":2544220.1699999999,"ADDRESS":"民生路二段３９９號四樓之５","OBJECTID":479365},"geometry":{"x":166785.56000000052,"y":2544220.1700000018}},{"attributes":{"ID":479391,"DIS_CODE":0,"TOWNNAME":"永康區","LI":"勝利里","LIN":"20鄰","STREET":"勝學路","SECT":" ","MAREA":" ","LANE":" ","ALLEY":" ","HOUSE_NO":"２３７號十樓之２","E_COORD97":171181.44,"N_COORD97":2545265.6699999999,"ADDRESS":"勝學路２３７號十樓之２","OBJECTID":479366},"geometry":{"x":171181.44000000134,"y":2545265.6699999999}},{"attributes":{"ID":479392,"DIS_CODE":0,"TOWNNAME":"永康區","LI":"復國里","LIN":"20鄰","STREET":"國華街","SECT":" ","MAREA":" ","LANE":" ","ALLEY":" ","HOUSE_NO":"５５號十三樓之３","E_COORD97":172800.76999999999,"N_COORD97":2545761.4199999999,"ADDRESS":"國華街５５號十三樓之３","OBJECTID":479367},"geometry":{"x":172800.76999999955,"y":2545761.4200000018}},{"attributes":{"ID":479393,"DIS_CODE":0,"TOWNNAME":"永康區","LI":"復國里","LIN":"20鄰","STREET":"國華街","SECT":" ","MAREA":" ","LANE":" ","ALLEY":" ","HOUSE_NO":"５７號八樓之１","E_COORD97":172811.06,"N_COORD97":2545757.6699999999,"ADDRESS":"國華街５７號八樓之１","OBJECTID":479368},"geometry":{"x":172811.05999999959,"y":2545757.6699999999}},{"attributes":{"ID":479394,"DIS_CODE":0,"TOWNNAME":"永康區","LI":"勝利里","LIN":"20鄰","STREET":"勝學路","SECT":" ","MAREA":" ","LANE":" ","ALLEY":" ","HOUSE_NO":"２３７號十三樓之２","E_COORD97":171182.69,"N_COORD97":2545265.6699999999,"ADDRESS":"勝學路２３７號十三樓之２","OBJECTID":479369},"geometry":{"x":171182.69000000134,"y":2545265.6699999999}},{"attributes":{"ID":479395,"DIS_CODE":0,"TOWNNAME":"永康區","LI":"勝利里","LIN":"20鄰","STREET":"勝學路","SECT":" ","MAREA":" ","LANE":" ","ALLEY":" ","HOUSE_NO":"２４１號十一樓之２","E_COORD97":171169.03,"N_COORD97":2545232.54,"ADDRESS":"勝學路２４１號十一樓之２","OBJECTID":479370},"geometry":{"x":171169.03000000026,"y":2545232.5399999991}},{"attributes":{"ID":479396,"DIS_CODE":0,"TOWNNAME":"永康區","LI":"復國里","LIN":"20鄰","STREET":"國華街","SECT":" ","MAREA":" ","LANE":" ","ALLEY":" ","HOUSE_NO":"５５號十三樓之４","E_COORD97":172800.70000000001,"N_COORD97":2545761.4199999999,"ADDRESS":"國華街５５號十三樓之４","OBJECTID":479371},"geometry":{"x":172800.70000000019,"y":2545761.4200000018}},{"attributes":{"ID":479397,"DIS_CODE":0,"TOWNNAME":"永康區","LI":"復國里","LIN":"20鄰","STREET":"國華街","SECT":" ","MAREA":" ","LANE":" ","ALLEY":" ","HOUSE_NO":"５５號十二樓之１","E_COORD97":172800.67000000001,"N_COORD97":2545761.4199999999,"ADDRESS":"國華街５５號十二樓之１","OBJECTID":479372},"geometry":{"x":172800.66999999993,"y":2545761.4200000018}},{"attributes":{"ID":479398,"DIS_CODE":0,"TOWNNAME":"永康區","LI":"復國里","LIN":"20鄰","STREET":"國華街","SECT":" ","MAREA":" ","LANE":" ","ALLEY":" ","HOUSE_NO":"５９號七樓之１","E_COORD97":172823.42000000001,"N_COORD97":2545757.4199999999,"ADDRESS":"國華街５９號七樓之１","OBJECTID":479373},"geometry":{"x":172823.42000000086,"y":2545757.4200000037}},{"attributes":{"ID":479399,"DIS_CODE":0,"TOWNNAME":"永康區","LI":"復國里","LIN":"20鄰","STREET":"國華街","SECT":" ","MAREA":" ","LANE":" ","ALLEY":" ","HOUSE_NO":"５９號十三樓之１","E_COORD97":172824.67000000001,"N_COORD97":2545757.4199999999,"ADDRESS":"國華街５９號十三樓之１","OBJECTID":479374},"geometry":{"x":172824.67000000179,"y":2545757.4200000037}},{"attributes":{"ID":479400,"DIS_CODE":0,"TOWNNAME":"永康區","LI":"復國里","LIN":"20鄰","STREET":"國華街","SECT":" ","MAREA":" ","LANE":" ","ALLEY":" ","HOUSE_NO":"６１號七樓之１","E_COORD97":172830.23000000001,"N_COORD97":2545750.4199999999,"ADDRESS":"國華街６１號七樓之１","OBJECTID":479375},"geometry":{"x":172830.23000000138,"y":2545750.4200000037}},{"attributes":{"ID":479401,"DIS_CODE":0,"TOWNNAME":"永康區","LI":"復國里","LIN":"20鄰","STREET":"國華街","SECT":" ","MAREA":" ","LANE":" ","ALLEY":" ","HOUSE_NO":"５５號九樓之１","E_COORD97":172799.42000000001,"N_COORD97":2545761.4199999999,"ADDRESS":"國華街５５號九樓之１","OBJECTID":479376},"geometry":{"x":172799.42000000086,"y":2545761.4200000018}},{"attributes":{"ID":479402,"DIS_CODE":0,"TOWNNAME":"永康區","LI":"復國里","LIN":"20鄰","STREET":"國華街","SECT":" ","MAREA":" ","LANE":" ","ALLEY":" ","HOUSE_NO":"５９號五樓之２","E_COORD97":172823.54999999999,"N_COORD97":2545757.4199999999,"ADDRESS":"國華街５９號五樓之２","OBJECTID":479377},"geometry":{"x":172823.54999999888,"y":2545757.4200000037}},{"attributes":{"ID":479403,"DIS_CODE":0,"TOWNNAME":"永康區","LI":"復國里","LIN":"20鄰","STREET":"國華街","SECT":" ","MAREA":" ","LANE":" ","ALLEY":" ","HOUSE_NO":"６１號七樓之３","E_COORD97":172830.32999999999,"N_COORD97":2545750.4199999999,"ADDRESS":"國華街６１號七樓之３","OBJECTID":479378},"geometry":{"x":172830.33000000007,"y":2545750.4200000037}},{"attributes":{"ID":479404,"DIS_CODE":0,"TOWNNAME":"永康區","LI":"復國里","LIN":"20鄰","STREET":"國華街","SECT":" ","MAREA":" ","LANE":" ","ALLEY":" ","HOUSE_NO":"６３號四樓之３","E_COORD97":172819.39999999999,"N_COORD97":2545744.3100000001,"ADDRESS":"國華街６３號四樓之３","OBJECTID":479379},"geometry":{"x":172819.40000000037,"y":2545744.3100000005}},{"attributes":{"ID":479405,"DIS_CODE":0,"TOWNNAME":"永康區","LI":"復國里","LIN":"20鄰","STREET":"國華街","SECT":" ","MAREA":" ","LANE":" ","ALLEY":" ","HOUSE_NO":"６３號十二樓之３","E_COORD97":172820.64999999999,"N_COORD97":2545744.3100000001,"ADDRESS":"國華街６３號十二樓之３","OBJECTID":479380},"geometry":{"x":172820.6500000013,"y":2545744.3100000005}},{"attributes":{"ID":479406,"DIS_CODE":0,"TOWNNAME":"永康區","LI":"中華里","LIN":"20鄰","STREET":"小東路","SECT":" ","MAREA":" ","LANE":" ","ALLEY":" ","HOUSE_NO":"４７３號之３７六樓","E_COORD97":171593.10999999999,"N_COORD97":2544367.3500000001,"ADDRESS":"小東路４７３號之３７六樓","OBJECTID":479381},"geometry":{"x":171593.1100000022,"y":2544367.3500000034}},{"attributes":{"ID":479407,"DIS_CODE":0,"TOWNNAME":"新營區","LI":"民權里","LIN":"6鄰","STREET":"博愛街","SECT":" ","MAREA":" ","LANE":" ","ALLEY":" ","HOUSE_NO":"３７號","E_COORD97":179931.41,"N_COORD97":2578143.3500000001,"ADDRESS":"博愛街３７號","OBJECTID":479382},"geometry":{"x":179931.41000000108,"y":2578143.3500000015}},{"attributes":{"ID":479408,"DIS_CODE":0,"TOWNNAME":"新營區","LI":"埤寮里","LIN":"4鄰","STREET":"建國路","SECT":" ","MAREA":" ","LANE":" ","ALLEY":" ","HOUSE_NO":"１０８號","E_COORD97":179745.88,"N_COORD97":2581049.0800000001,"ADDRESS":"建國路１０８號","OBJECTID":479383},"geometry":{"x":179745.87999999989,"y":2581049.0800000001}},{"attributes":{"ID":479409,"DIS_CODE":0,"TOWNNAME":"永康區","LI":"復國里","LIN":"20鄰","STREET":"國華街","SECT":" ","MAREA":" ","LANE":" ","ALLEY":" ","HOUSE_NO":"５５號十三樓之２","E_COORD97":172800.79999999999,"N_COORD97":2545761.4199999999,"ADDRESS":"國華街５５號十三樓之２","OBJECTID":479384},"geometry":{"x":172800.79999999981,"y":2545761.4200000018}},{"attributes":{"ID":479410,"DIS_CODE":0,"TOWNNAME":"永康區","LI":"復國里","LIN":"20鄰","STREET":"國華街","SECT":" ","MAREA":" ","LANE":" ","ALLEY":" ","HOUSE_NO":"６３號三樓之３","E_COORD97":172819.39999999999,"N_COORD97":2545744.3100000001,"ADDRESS":"國華街６３號三樓之３","OBJECTID":479385},"geometry":{"x":172819.40000000037,"y":2545744.3100000005}},{"attributes":{"ID":479411,"DIS_CODE":0,"TOWNNAME":"永康區","LI":"復國里","LIN":"20鄰","STREET":"國華街","SECT":" ","MAREA":" ","LANE":" ","ALLEY":" ","HOUSE_NO":"６３號六樓之３","E_COORD97":172819.39999999999,"N_COORD97":2545744.3100000001,"ADDRESS":"國華街６３號六樓之３","OBJECTID":479386},"geometry":{"x":172819.40000000037,"y":2545744.3100000005}},{"attributes":{"ID":479412,"DIS_CODE":0,"TOWNNAME":"永康區","LI":"復國里","LIN":"20鄰","STREET":"國華街","SECT":" ","MAREA":" ","LANE":" ","ALLEY":" ","HOUSE_NO":"６３號十三樓之２","E_COORD97":172820.67999999999,"N_COORD97":2545744.3100000001,"ADDRESS":"國華街６３號十三樓之２","OBJECTID":479387},"geometry":{"x":172820.6799999997,"y":2545744.3100000005}},{"attributes":{"ID":479413,"DIS_CODE":0,"TOWNNAME":"新營區","LI":"三仙里","LIN":"14鄰","STREET":"武昌街","SECT":" ","MAREA":" ","LANE":" ","ALLEY":" ","HOUSE_NO":"７１號之３","E_COORD97":179543.48999999999,"N_COORD97":2578280.3599999999,"ADDRESS":"武昌街７１號之３","OBJECTID":479388},"geometry":{"x":179543.49000000022,"y":2578280.3599999994}},{"attributes":{"ID":479414,"DIS_CODE":0,"TOWNNAME":"新營區","LI":"新南里","LIN":"4鄰","STREET":"新北三街","SECT":" ","MAREA":" ","LANE":" ","ALLEY":" ","HOUSE_NO":"１６之３號","E_COORD97":178601.31,"N_COORD97":2578844.1400000001,"ADDRESS":"新北三街１６之３號","OBJECTID":479389},"geometry":{"x":178601.31000000052,"y":2578844.1400000025}},{"attributes":{"ID":479415,"DIS_CODE":0,"TOWNNAME":"永康區","LI":"網寮里","LIN":"20鄰","STREET":"文化路","SECT":" ","MAREA":" ","LANE":" ","ALLEY":" ","HOUSE_NO":"３０７號四樓之２","E_COORD97":173464.98999999999,"N_COORD97":2546123.7599999998,"ADDRESS":"文化路３０７號四樓之２","OBJECTID":479390},"geometry":{"x":173464.99000000022,"y":2546123.7599999998}},{"attributes":{"ID":479416,"DIS_CODE":0,"TOWNNAME":"永康區","LI":"勝利里","LIN":"20鄰","STREET":"勝學路","SECT":" ","MAREA":" ","LANE":" ","ALLEY":" ","HOUSE_NO":"２３７號四樓之２","E_COORD97":171181.44,"N_COORD97":2545265.6699999999,"ADDRESS":"勝學路２３７號四樓之２","OBJECTID":479391},"geometry":{"x":171181.44000000134,"y":2545265.6699999999}},{"attributes":{"ID":479417,"DIS_CODE":0,"TOWNNAME":"東區","LI":"富裕里","LIN":"20鄰","STREET":"裕豐街","SECT":" ","MAREA":" ","LANE":" ","ALLEY":" ","HOUSE_NO":"１０號十五樓","E_COORD97":170765.85000000001,"N_COORD97":2542700.8300000001,"ADDRESS":"裕豐街１０號十五樓","OBJECTID":479392},"geometry":{"x":170765.85000000056,"y":2542700.8300000019}},{"attributes":{"ID":479418,"DIS_CODE":0,"TOWNNAME":"東區","LI":"富裕里","LIN":"20鄰","STREET":"東門路","SECT":"二段","MAREA":" ","LANE":" ","ALLEY":" ","HOUSE_NO":"２９７號七樓","E_COORD97":170713.95999999999,"N_COORD97":2542674.9399999999,"ADDRESS":"東門路二段２９７號七樓","OBJECTID":479393},"geometry":{"x":170713.96000000183,"y":2542674.9400000032}},{"attributes":{"ID":479419,"DIS_CODE":0,"TOWNNAME":"新化區","LI":"護國里","LIN":"8鄰","STREET":"信義路","SECT":" ","MAREA":" ","LANE":"４０巷","ALLEY":" ","HOUSE_NO":"５１號","E_COORD97":180377.13,"N_COORD97":2548928.25,"ADDRESS":"信義路４０巷５１號","OBJECTID":479394},"geometry":{"x":180377.13000000082,"y":2548928.2499999981}},{"attributes":{"ID":479420,"DIS_CODE":0,"TOWNNAME":"新化區","LI":"太平里","LIN":"8鄰","STREET":"中正路","SECT":" ","MAREA":" ","LANE":"５９０巷","ALLEY":" ","HOUSE_NO":"１５號","E_COORD97":178786.35999999999,"N_COORD97":2549248.25,"ADDRESS":"中正路５９０巷１５號","OBJECTID":479395},"geometry":{"x":178786.36000000127,"y":2549248.2500000019}},{"attributes":{"ID":479421,"DIS_CODE":0,"TOWNNAME":"新化區","LI":"護國里","LIN":"8鄰","STREET":"信義路","SECT":" ","MAREA":" ","LANE":"８６巷","ALLEY":" ","HOUSE_NO":"２６號","E_COORD97":179876.13,"N_COORD97":2548790.25,"ADDRESS":"信義路８６巷２６號","OBJECTID":479396},"geometry":{"x":179876.12999999989,"y":2548790.2500000019}},{"attributes":{"ID":479422,"DIS_CODE":0,"TOWNNAME":"新化區","LI":"護國里","LIN":"8鄰","STREET":"信義路","SECT":" ","MAREA":" ","LANE":"４０巷","ALLEY":" ","HOUSE_NO":"１８號","E_COORD97":180666.82999999999,"N_COORD97":2548897.25,"ADDRESS":"信義路４０巷１８號","OBJECTID":479397},"geometry":{"x":180666.83000000007,"y":2548897.25}},{"attributes":{"ID":479423,"DIS_CODE":0,"TOWNNAME":"東區","LI":"富裕里","LIN":"20鄰","STREET":"裕豐街","SECT":" ","MAREA":" ","LANE":" ","ALLEY":" ","HOUSE_NO":"１２號五樓","E_COORD97":170771.32999999999,"N_COORD97":2542705.7999999998,"ADDRESS":"裕豐街１２號五樓","OBJECTID":479398},"geometry":{"x":170771.33000000101,"y":2542705.8000000026}},{"attributes":{"ID":479424,"DIS_CODE":0,"TOWNNAME":"東區","LI":"富裕里","LIN":"20鄰","STREET":"東門路","SECT":"二段","MAREA":" ","LANE":" ","ALLEY":" ","HOUSE_NO":"２９７號七樓之１","E_COORD97":170713.95999999999,"N_COORD97":2542674.9399999999,"ADDRESS":"東門路二段２９７號七樓之１","OBJECTID":479399},"geometry":{"x":170713.96000000183,"y":2542674.9400000032}},{"attributes":{"ID":479425,"DIS_CODE":0,"TOWNNAME":"東區","LI":"富裕里","LIN":"20鄰","STREET":"東門路","SECT":"二段","MAREA":" ","LANE":" ","ALLEY":" ","HOUSE_NO":"２９７號九樓","E_COORD97":170713.95999999999,"N_COORD97":2542674.9399999999,"ADDRESS":"東門路二段２９７號九樓","OBJECTID":479400},"geometry":{"x":170713.96000000183,"y":2542674.9400000032}}]}