{"displayFieldName":"TOWNNAME","fieldAliases":{"ID":"ID","DIS_CODE":"DIS_CODE","TOWNNAME":"TOWNNAME","LI":"LI","LIN":"LIN","STREET":"STREET","SECT":"SECT","MAREA":"MAREA","LANE":"LANE","ALLEY":"ALLEY","HOUSE_NO":"HOUSE_NO","E_COORD97":"E_COORD97","N_COORD97":"N_COORD97","ADDRESS":"ADDRESS","OBJECTID":"OBJECTID"},"geometryType":"esriGeometryPoint","spatialReference":{"wkid":102443,"latestWkid":3826},"fields":[{"name":"ID","type":"esriFieldTypeDouble","alias":"ID"},{"name":"DIS_CODE","type":"esriFieldTypeInteger","alias":"DIS_CODE"},{"name":"TOWNNAME","type":"esriFieldTypeString","alias":"TOWNNAME","length":8},{"name":"LI","type":"esriFieldTypeString","alias":"LI","length":8},{"name":"LIN","type":"esriFieldTypeString","alias":"LIN","length":12},{"name":"STREET","type":"esriFieldTypeString","alias":"STREET","length":20},{"name":"SECT","type":"esriFieldTypeString","alias":"SECT","length":8},{"name":"MAREA","type":"esriFieldTypeString","alias":"MAREA","length":12},{"name":"LANE","type":"esriFieldTypeString","alias":"LANE","length":10},{"name":"ALLEY","type":"esriFieldTypeString","alias":"ALLEY","length":10},{"name":"HOUSE_NO","type":"esriFieldTypeString","alias":"HOUSE_NO","length":20},{"name":"E_COORD97","type":"esriFieldTypeDouble","alias":"E_COORD97"},{"name":"N_COORD97","type":"esriFieldTypeDouble","alias":"N_COORD97"},{"name":"ADDRESS","type":"esriFieldTypeString","alias":"ADDRESS","length":50},{"name":"OBJECTID","type":"esriFieldTypeOID","alias":"OBJECTID"}],"features":[{"attributes":{"ID":616428,"DIS_CODE":0,"TOWNNAME":"永康區","LI":"南灣里","LIN":"2鄰","STREET":"大灣一街","SECT":" ","MAREA":" ","LANE":" ","ALLEY":" ","HOUSE_NO":"１５１號","E_COORD97":174682.64000000001,"N_COORD97":2544628.8799999999,"ADDRESS":"大灣一街１５１號","OBJECTID":616401},"geometry":{"x":174682.64000000153,"y":2544628.8800000008}},{"attributes":{"ID":616429,"DIS_CODE":0,"TOWNNAME":"永康區","LI":"埔園里","LIN":"2鄰","STREET":"永埔街","SECT":" ","MAREA":" ","LANE":" ","ALLEY":" ","HOUSE_NO":"７９號","E_COORD97":173945.51999999999,"N_COORD97":2547712.4900000002,"ADDRESS":"永埔街７９號","OBJECTID":616402},"geometry":{"x":173945.51999999955,"y":2547712.4900000002}},{"attributes":{"ID":616430,"DIS_CODE":0,"TOWNNAME":"佳里區","LI":"東寧里","LIN":"2鄰","STREET":"新生路","SECT":" ","MAREA":" ","LANE":" ","ALLEY":" ","HOUSE_NO":"１５８號","E_COORD97":165773.37,"N_COORD97":2562302.3799999999,"ADDRESS":"新生路１５８號","OBJECTID":616403},"geometry":{"x":165773.37000000104,"y":2562302.3800000008}},{"attributes":{"ID":616431,"DIS_CODE":0,"TOWNNAME":"麻豆區","LI":"大埕里","LIN":"2鄰","STREET":"中正路","SECT":" ","MAREA":" ","LANE":" ","ALLEY":" ","HOUSE_NO":"５３號之９","E_COORD97":173098.17000000001,"N_COORD97":2565014,"ADDRESS":"中正路５３號之９","OBJECTID":616404},"geometry":{"x":173098.17000000086,"y":2565014.0000000037}},{"attributes":{"ID":616432,"DIS_CODE":0,"TOWNNAME":"麻豆區","LI":"大埕里","LIN":"2鄰","STREET":"中正路","SECT":" ","MAREA":" ","LANE":" ","ALLEY":" ","HOUSE_NO":"５３號","E_COORD97":173088.89999999999,"N_COORD97":2564979.6000000001,"ADDRESS":"中正路５３號","OBJECTID":616405},"geometry":{"x":173088.90000000037,"y":2564979.6000000015}},{"attributes":{"ID":616433,"DIS_CODE":0,"TOWNNAME":"南區","LI":"明興里","LIN":"2鄰","STREET":"金華路","SECT":"一段","MAREA":" ","LANE":" ","ALLEY":" ","HOUSE_NO":"２３４號","E_COORD97":166969.37,"N_COORD97":2540863.9700000002,"ADDRESS":"金華路一段２３４號","OBJECTID":616406},"geometry":{"x":166969.37000000011,"y":2540863.9700000007}},{"attributes":{"ID":616434,"DIS_CODE":0,"TOWNNAME":"麻豆區","LI":"大埕里","LIN":"2鄰","STREET":"中正路","SECT":" ","MAREA":" ","LANE":" ","ALLEY":" ","HOUSE_NO":"５４號","E_COORD97":173106.45000000001,"N_COORD97":2564946.29,"ADDRESS":"中正路５４號","OBJECTID":616407},"geometry":{"x":173106.45000000112,"y":2564946.2899999991}},{"attributes":{"ID":616435,"DIS_CODE":0,"TOWNNAME":"新化區","LI":"太平里","LIN":"2鄰","STREET":"建國街","SECT":" ","MAREA":" ","LANE":" ","ALLEY":" ","HOUSE_NO":"５９號之３","E_COORD97":179122.73000000001,"N_COORD97":2548824.2599999998,"ADDRESS":"建國街５９號之３","OBJECTID":616408},"geometry":{"x":179122.73000000138,"y":2548824.2600000016}},{"attributes":{"ID":616436,"DIS_CODE":0,"TOWNNAME":"新化區","LI":"太平里","LIN":"2鄰","STREET":"建國街","SECT":" ","MAREA":" ","LANE":" ","ALLEY":" ","HOUSE_NO":"４６號","E_COORD97":179173.28,"N_COORD97":2548764.2599999998,"ADDRESS":"建國街４６號","OBJECTID":616409},"geometry":{"x":179173.28000000119,"y":2548764.2599999998}},{"attributes":{"ID":616437,"DIS_CODE":0,"TOWNNAME":"新化區","LI":"協興里","LIN":"2鄰","STREET":"太平街","SECT":" ","MAREA":" ","LANE":" ","ALLEY":" ","HOUSE_NO":"１０５號之１","E_COORD97":178489.04999999999,"N_COORD97":2548703.2599999998,"ADDRESS":"太平街１０５號之１","OBJECTID":616410},"geometry":{"x":178489.05000000168,"y":2548703.2599999998}},{"attributes":{"ID":616438,"DIS_CODE":0,"TOWNNAME":"新化區","LI":"武安里","LIN":"2鄰","STREET":"中正路","SECT":" ","MAREA":" ","LANE":" ","ALLEY":" ","HOUSE_NO":"２７１號之１","E_COORD97":179099.44,"N_COORD97":2547980.2599999998,"ADDRESS":"中正路２７１號之１","OBJECTID":616411},"geometry":{"x":179099.44000000134,"y":2547980.2600000016}},{"attributes":{"ID":616439,"DIS_CODE":0,"TOWNNAME":"新化區","LI":"東榮里","LIN":"2鄰","STREET":"中興路","SECT":" ","MAREA":" ","LANE":" ","ALLEY":" ","HOUSE_NO":"２９號","E_COORD97":181935.85999999999,"N_COORD97":2547307.25,"ADDRESS":"中興路２９號","OBJECTID":616412},"geometry":{"x":181935.86000000127,"y":2547307.25}},{"attributes":{"ID":616440,"DIS_CODE":0,"TOWNNAME":"新化區","LI":"唪口里","LIN":"2鄰","STREET":"大德路","SECT":" ","MAREA":" ","LANE":" ","ALLEY":" ","HOUSE_NO":"９４號之３","E_COORD97":178188.53,"N_COORD97":2549451.2599999998,"ADDRESS":"大德路９４號之３","OBJECTID":616413},"geometry":{"x":178188.53000000119,"y":2549451.2600000016}},{"attributes":{"ID":616441,"DIS_CODE":0,"TOWNNAME":"新化區","LI":"東榮里","LIN":"2鄰","STREET":"中興路","SECT":" ","MAREA":" ","LANE":" ","ALLEY":" ","HOUSE_NO":"７２號","E_COORD97":181942.76000000001,"N_COORD97":2547326.25,"ADDRESS":"中興路７２號","OBJECTID":616414},"geometry":{"x":181942.76000000071,"y":2547326.2500000019}},{"attributes":{"ID":616442,"DIS_CODE":0,"TOWNNAME":"新化區","LI":"唪口里","LIN":"2鄰","STREET":"大德路","SECT":" ","MAREA":" ","LANE":" ","ALLEY":" ","HOUSE_NO":"９４號之１１","E_COORD97":178172.76000000001,"N_COORD97":2549452.2599999998,"ADDRESS":"大德路９４號之１１","OBJECTID":616415},"geometry":{"x":178172.76000000071,"y":2549452.2599999998}},{"attributes":{"ID":616443,"DIS_CODE":0,"TOWNNAME":"新化區","LI":"護國里","LIN":"2鄰","STREET":"仁愛街","SECT":" ","MAREA":" ","LANE":" ","ALLEY":" ","HOUSE_NO":"５５號","E_COORD97":179057.38,"N_COORD97":2548584.25,"ADDRESS":"仁愛街５５號","OBJECTID":616416},"geometry":{"x":179057.37999999989,"y":2548584.2500000019}},{"attributes":{"ID":616444,"DIS_CODE":0,"TOWNNAME":"新化區","LI":"唪口里","LIN":"2鄰","STREET":"大德路","SECT":" ","MAREA":" ","LANE":" ","ALLEY":" ","HOUSE_NO":"９６號之６","E_COORD97":178158.32999999999,"N_COORD97":2549444.2599999998,"ADDRESS":"大德路９６號之６","OBJECTID":616417},"geometry":{"x":178158.33000000007,"y":2549444.2600000016}},{"attributes":{"ID":616445,"DIS_CODE":0,"TOWNNAME":"新化區","LI":"唪口里","LIN":"2鄰","STREET":"大德路","SECT":" ","MAREA":" ","LANE":" ","ALLEY":" ","HOUSE_NO":"９６號之２","E_COORD97":178159.13,"N_COORD97":2549457.2599999998,"ADDRESS":"大德路９６號之２","OBJECTID":616418},"geometry":{"x":178159.12999999989,"y":2549457.2600000035}},{"attributes":{"ID":616446,"DIS_CODE":0,"TOWNNAME":"新化區","LI":"太平里","LIN":"2鄰","STREET":"建國街","SECT":" ","MAREA":" ","LANE":" ","ALLEY":" ","HOUSE_NO":"４８號","E_COORD97":179171.98000000001,"N_COORD97":2548769.2599999998,"ADDRESS":"建國街４８號","OBJECTID":616419},"geometry":{"x":179171.98000000138,"y":2548769.2600000016}},{"attributes":{"ID":616447,"DIS_CODE":0,"TOWNNAME":"新化區","LI":"東榮里","LIN":"2鄰","STREET":"中興路","SECT":" ","MAREA":" ","LANE":" ","ALLEY":" ","HOUSE_NO":"８０號","E_COORD97":181920.06,"N_COORD97":2547322.25,"ADDRESS":"中興路８０號","OBJECTID":616420},"geometry":{"x":181920.06000000052,"y":2547322.2500000019}},{"attributes":{"ID":616448,"DIS_CODE":0,"TOWNNAME":"新化區","LI":"豐榮里","LIN":"2鄰","STREET":"大智路","SECT":" ","MAREA":" ","LANE":" ","ALLEY":" ","HOUSE_NO":"１０１號","E_COORD97":178174.23000000001,"N_COORD97":2548209.25,"ADDRESS":"大智路１０１號","OBJECTID":616421},"geometry":{"x":178174.23000000045,"y":2548209.25}},{"attributes":{"ID":616449,"DIS_CODE":0,"TOWNNAME":"新化區","LI":"太平里","LIN":"2鄰","STREET":"忠孝路","SECT":" ","MAREA":" ","LANE":" ","ALLEY":" ","HOUSE_NO":"３８號","E_COORD97":179092.17000000001,"N_COORD97":2548764.25,"ADDRESS":"忠孝路３８號","OBJECTID":616422},"geometry":{"x":179092.17000000086,"y":2548764.25}},{"attributes":{"ID":616450,"DIS_CODE":0,"TOWNNAME":"新化區","LI":"協興里","LIN":"2鄰","STREET":"忠孝路","SECT":" ","MAREA":" ","LANE":" ","ALLEY":" ","HOUSE_NO":"１８２號","E_COORD97":178441.72,"N_COORD97":2548594.25,"ADDRESS":"忠孝路１８２號","OBJECTID":616423},"geometry":{"x":178441.71999999974,"y":2548594.2500000019}},{"attributes":{"ID":616451,"DIS_CODE":0,"TOWNNAME":"新化區","LI":"唪口里","LIN":"2鄰","STREET":"大德路","SECT":" ","MAREA":" ","LANE":" ","ALLEY":" ","HOUSE_NO":"９６號之７","E_COORD97":178158.01999999999,"N_COORD97":2549440.2599999998,"ADDRESS":"大德路９６號之７","OBJECTID":616424},"geometry":{"x":178158.01999999955,"y":2549440.2600000035}},{"attributes":{"ID":616452,"DIS_CODE":0,"TOWNNAME":"新化區","LI":"唪口里","LIN":"2鄰","STREET":"大德路","SECT":" ","MAREA":" ","LANE":" ","ALLEY":" ","HOUSE_NO":"９４號之１６","E_COORD97":178171.78,"N_COORD97":2549434.2599999998,"ADDRESS":"大德路９４號之１６","OBJECTID":616425},"geometry":{"x":178171.78000000026,"y":2549434.2600000016}},{"attributes":{"ID":616453,"DIS_CODE":0,"TOWNNAME":"新化區","LI":"唪口里","LIN":"2鄰","STREET":"大德路","SECT":" ","MAREA":" ","LANE":" ","ALLEY":" ","HOUSE_NO":"９６號之１０","E_COORD97":178142.87,"N_COORD97":2549458.2599999998,"ADDRESS":"大德路９６號之１０","OBJECTID":616426},"geometry":{"x":178142.87000000011,"y":2549458.2600000016}},{"attributes":{"ID":616454,"DIS_CODE":0,"TOWNNAME":"新化區","LI":"武安里","LIN":"2鄰","STREET":"中正路","SECT":" ","MAREA":" ","LANE":" ","ALLEY":" ","HOUSE_NO":"２６３號之１","E_COORD97":179134.14000000001,"N_COORD97":2547979.2599999998,"ADDRESS":"中正路２６３號之１","OBJECTID":616427},"geometry":{"x":179134.14000000153,"y":2547979.2600000016}},{"attributes":{"ID":616455,"DIS_CODE":0,"TOWNNAME":"新化區","LI":"護國里","LIN":"2鄰","STREET":"中正路","SECT":" ","MAREA":" ","LANE":" ","ALLEY":" ","HOUSE_NO":"４３４號","E_COORD97":179062.70999999999,"N_COORD97":2548509.25,"ADDRESS":"中正路４３４號","OBJECTID":616428},"geometry":{"x":179062.71000000183,"y":2548509.2500000019}},{"attributes":{"ID":616456,"DIS_CODE":0,"TOWNNAME":"新化區","LI":"唪口里","LIN":"2鄰","STREET":"大德路","SECT":" ","MAREA":" ","LANE":" ","ALLEY":" ","HOUSE_NO":"９６號之９","E_COORD97":178142.92000000001,"N_COORD97":2549463.2599999998,"ADDRESS":"大德路９６號之９","OBJECTID":616429},"geometry":{"x":178142.92000000086,"y":2549463.2599999998}},{"attributes":{"ID":616457,"DIS_CODE":0,"TOWNNAME":"新化區","LI":"太平里","LIN":"2鄰","STREET":"忠孝路","SECT":" ","MAREA":" ","LANE":" ","ALLEY":" ","HOUSE_NO":"３６號","E_COORD97":179097.47,"N_COORD97":2548737.25,"ADDRESS":"忠孝路３６號","OBJECTID":616430},"geometry":{"x":179097.46999999974,"y":2548737.25}},{"attributes":{"ID":616458,"DIS_CODE":0,"TOWNNAME":"新化區","LI":"唪口里","LIN":"2鄰","STREET":"大德路","SECT":" ","MAREA":" ","LANE":" ","ALLEY":" ","HOUSE_NO":"８０號之１３","E_COORD97":178257.57999999999,"N_COORD97":2549404.2599999998,"ADDRESS":"大德路８０號之１３","OBJECTID":616431},"geometry":{"x":178257.58000000101,"y":2549404.2600000016}},{"attributes":{"ID":616459,"DIS_CODE":0,"TOWNNAME":"新化區","LI":"太平里","LIN":"2鄰","STREET":"建國街","SECT":" ","MAREA":" ","LANE":" ","ALLEY":" ","HOUSE_NO":"５９號之２","E_COORD97":179127.53,"N_COORD97":2548824.2599999998,"ADDRESS":"建國街５９號之２","OBJECTID":616432},"geometry":{"x":179127.53000000119,"y":2548824.2600000016}},{"attributes":{"ID":616460,"DIS_CODE":0,"TOWNNAME":"新化區","LI":"太平里","LIN":"2鄰","STREET":"忠孝路","SECT":" ","MAREA":" ","LANE":" ","ALLEY":" ","HOUSE_NO":"２４號","E_COORD97":179161.57000000001,"N_COORD97":2548739.25,"ADDRESS":"忠孝路２４號","OBJECTID":616433},"geometry":{"x":179161.5700000003,"y":2548739.2500000019}},{"attributes":{"ID":616461,"DIS_CODE":0,"TOWNNAME":"新化區","LI":"唪口里","LIN":"2鄰","STREET":"大德路","SECT":" ","MAREA":" ","LANE":" ","ALLEY":" ","HOUSE_NO":"９８號之５","E_COORD97":178117.23999999999,"N_COORD97":2549464.2599999998,"ADDRESS":"大德路９８號之５","OBJECTID":616434},"geometry":{"x":178117.24000000115,"y":2549464.2600000016}},{"attributes":{"ID":616462,"DIS_CODE":0,"TOWNNAME":"新化區","LI":"護國里","LIN":"2鄰","STREET":"中正路","SECT":" ","MAREA":" ","LANE":" ","ALLEY":" ","HOUSE_NO":"４３８號","E_COORD97":179058.91,"N_COORD97":2548516.25,"ADDRESS":"中正路４３８號","OBJECTID":616435},"geometry":{"x":179058.91000000108,"y":2548516.2500000019}},{"attributes":{"ID":616463,"DIS_CODE":0,"TOWNNAME":"新化區","LI":"唪口里","LIN":"2鄰","STREET":"大德路","SECT":" ","MAREA":" ","LANE":" ","ALLEY":" ","HOUSE_NO":"９４號之２","E_COORD97":178188.82999999999,"N_COORD97":2549455.2599999998,"ADDRESS":"大德路９４號之２","OBJECTID":616436},"geometry":{"x":178188.83000000007,"y":2549455.2600000016}},{"attributes":{"ID":616464,"DIS_CODE":0,"TOWNNAME":"新化區","LI":"唪口里","LIN":"2鄰","STREET":"大德路","SECT":" ","MAREA":" ","LANE":" ","ALLEY":" ","HOUSE_NO":"８０號之１１","E_COORD97":178249.35999999999,"N_COORD97":2549408.2599999998,"ADDRESS":"大德路８０號之１１","OBJECTID":616437},"geometry":{"x":178249.36000000034,"y":2549408.2599999998}},{"attributes":{"ID":616465,"DIS_CODE":0,"TOWNNAME":"新化區","LI":"唪口里","LIN":"2鄰","STREET":"大德路","SECT":" ","MAREA":" ","LANE":" ","ALLEY":" ","HOUSE_NO":"９８號之１","E_COORD97":178133.41,"N_COORD97":2549463.2599999998,"ADDRESS":"大德路９８號之１","OBJECTID":616438},"geometry":{"x":178133.41000000108,"y":2549463.2599999998}},{"attributes":{"ID":616466,"DIS_CODE":0,"TOWNNAME":"新化區","LI":"太平里","LIN":"2鄰","STREET":"忠孝路","SECT":" ","MAREA":" ","LANE":" ","ALLEY":" ","HOUSE_NO":"３２號","E_COORD97":179116.76999999999,"N_COORD97":2548737.25,"ADDRESS":"忠孝路３２號","OBJECTID":616439},"geometry":{"x":179116.77000000048,"y":2548737.25}},{"attributes":{"ID":616467,"DIS_CODE":0,"TOWNNAME":"新化區","LI":"東榮里","LIN":"2鄰","STREET":"中興路","SECT":" ","MAREA":" ","LANE":" ","ALLEY":" ","HOUSE_NO":"４１號","E_COORD97":181920.95999999999,"N_COORD97":2547309.25,"ADDRESS":"中興路４１號","OBJECTID":616440},"geometry":{"x":181920.96000000183,"y":2547309.2500000019}},{"attributes":{"ID":616468,"DIS_CODE":0,"TOWNNAME":"新化區","LI":"護國里","LIN":"2鄰","STREET":"中正路","SECT":" ","MAREA":" ","LANE":" ","ALLEY":" ","HOUSE_NO":"４５２號","E_COORD97":179050.51000000001,"N_COORD97":2548538.25,"ADDRESS":"中正路４５２號","OBJECTID":616441},"geometry":{"x":179050.51000000071,"y":2548538.25}},{"attributes":{"ID":616469,"DIS_CODE":0,"TOWNNAME":"新化區","LI":"太平里","LIN":"2鄰","STREET":"忠孝路","SECT":" ","MAREA":" ","LANE":" ","ALLEY":" ","HOUSE_NO":"３６號之２","E_COORD97":179092.03,"N_COORD97":2548736.2599999998,"ADDRESS":"忠孝路３６號之２","OBJECTID":616442},"geometry":{"x":179092.03000000119,"y":2548736.2600000016}},{"attributes":{"ID":616470,"DIS_CODE":0,"TOWNNAME":"新化區","LI":"唪口里","LIN":"2鄰","STREET":"大德路","SECT":" ","MAREA":" ","LANE":" ","ALLEY":" ","HOUSE_NO":"９６號之５","E_COORD97":178158.54000000001,"N_COORD97":2549448.2599999998,"ADDRESS":"大德路９６號之５","OBJECTID":616443},"geometry":{"x":178158.54000000004,"y":2549448.2600000016}},{"attributes":{"ID":616471,"DIS_CODE":0,"TOWNNAME":"新化區","LI":"太平里","LIN":"2鄰","STREET":"忠孝路","SECT":" ","MAREA":" ","LANE":" ","ALLEY":" ","HOUSE_NO":"４０號之１","E_COORD97":179083.29999999999,"N_COORD97":2548762.2599999998,"ADDRESS":"忠孝路４０號之１","OBJECTID":616444},"geometry":{"x":179083.29999999981,"y":2548762.2600000035}},{"attributes":{"ID":616472,"DIS_CODE":0,"TOWNNAME":"新化區","LI":"唪口里","LIN":"2鄰","STREET":"大德路","SECT":" ","MAREA":" ","LANE":" ","ALLEY":" ","HOUSE_NO":"９４號之１２","E_COORD97":178172.57999999999,"N_COORD97":2549447.2599999998,"ADDRESS":"大德路９４號之１２","OBJECTID":616445},"geometry":{"x":178172.58000000101,"y":2549447.2600000016}},{"attributes":{"ID":616473,"DIS_CODE":0,"TOWNNAME":"新化區","LI":"護國里","LIN":"2鄰","STREET":"中正路","SECT":" ","MAREA":" ","LANE":" ","ALLEY":" ","HOUSE_NO":"４６８號","E_COORD97":179039.60999999999,"N_COORD97":2548575.25,"ADDRESS":"中正路４６８號","OBJECTID":616446},"geometry":{"x":179039.61000000034,"y":2548575.25}},{"attributes":{"ID":616474,"DIS_CODE":0,"TOWNNAME":"新化區","LI":"清水里","LIN":"2鄰","STREET":"中山路","SECT":" ","MAREA":" ","LANE":" ","ALLEY":" ","HOUSE_NO":"４２３號","E_COORD97":178738.60999999999,"N_COORD97":2548395.25,"ADDRESS":"中山路４２３號","OBJECTID":616447},"geometry":{"x":178738.61000000127,"y":2548395.25}},{"attributes":{"ID":616475,"DIS_CODE":0,"TOWNNAME":"新化區","LI":"唪口里","LIN":"2鄰","STREET":"大德路","SECT":" ","MAREA":" ","LANE":" ","ALLEY":" ","HOUSE_NO":"８０號之８","E_COORD97":178236.44,"N_COORD97":2549414.2599999998,"ADDRESS":"大德路８０號之８","OBJECTID":616448},"geometry":{"x":178236.44000000134,"y":2549414.2600000016}},{"attributes":{"ID":616476,"DIS_CODE":0,"TOWNNAME":"新化區","LI":"清水里","LIN":"2鄰","STREET":"信義路","SECT":" ","MAREA":" ","LANE":" ","ALLEY":" ","HOUSE_NO":"４００號","E_COORD97":178751.03,"N_COORD97":2548286.25,"ADDRESS":"信義路４００號","OBJECTID":616449},"geometry":{"x":178751.03000000119,"y":2548286.25}},{"attributes":{"ID":616477,"DIS_CODE":0,"TOWNNAME":"新化區","LI":"東榮里","LIN":"2鄰","STREET":"中興路","SECT":" ","MAREA":" ","LANE":" ","ALLEY":" ","HOUSE_NO":"５４號","E_COORD97":181961.35999999999,"N_COORD97":2547372.25,"ADDRESS":"中興路５４號","OBJECTID":616450},"geometry":{"x":181961.36000000127,"y":2547372.2500000037}},{"attributes":{"ID":616478,"DIS_CODE":0,"TOWNNAME":"新化區","LI":"護國里","LIN":"2鄰","STREET":"中正路","SECT":" ","MAREA":" ","LANE":" ","ALLEY":" ","HOUSE_NO":"４６４號","E_COORD97":179042.41,"N_COORD97":2548568.25,"ADDRESS":"中正路４６４號","OBJECTID":616451},"geometry":{"x":179042.41000000015,"y":2548568.25}},{"attributes":{"ID":616479,"DIS_CODE":0,"TOWNNAME":"新化區","LI":"護國里","LIN":"2鄰","STREET":"中正路","SECT":" ","MAREA":" ","LANE":" ","ALLEY":" ","HOUSE_NO":"４５４號","E_COORD97":179049.01000000001,"N_COORD97":2548542.25,"ADDRESS":"中正路４５４號","OBJECTID":616452},"geometry":{"x":179049.01000000071,"y":2548542.2500000019}},{"attributes":{"ID":616480,"DIS_CODE":0,"TOWNNAME":"新化區","LI":"唪口里","LIN":"2鄰","STREET":"大德路","SECT":" ","MAREA":" ","LANE":" ","ALLEY":" ","HOUSE_NO":"９４號之７","E_COORD97":178187.72,"N_COORD97":2549438.2599999998,"ADDRESS":"大德路９４號之７","OBJECTID":616453},"geometry":{"x":178187.7200000016,"y":2549438.2600000016}},{"attributes":{"ID":616481,"DIS_CODE":0,"TOWNNAME":"新化區","LI":"豐榮里","LIN":"2鄰","STREET":"大智路","SECT":" ","MAREA":" ","LANE":" ","ALLEY":" ","HOUSE_NO":"１０５號","E_COORD97":178168.42999999999,"N_COORD97":2548207.25,"ADDRESS":"大智路１０５號","OBJECTID":616454},"geometry":{"x":178168.43000000063,"y":2548207.2500000019}},{"attributes":{"ID":616482,"DIS_CODE":0,"TOWNNAME":"新化區","LI":"東榮里","LIN":"2鄰","STREET":"中興路","SECT":" ","MAREA":" ","LANE":" ","ALLEY":" ","HOUSE_NO":"４０號","E_COORD97":181979.95999999999,"N_COORD97":2547378.25,"ADDRESS":"中興路４０號","OBJECTID":616455},"geometry":{"x":181979.95999999996,"y":2547378.25}},{"attributes":{"ID":616483,"DIS_CODE":0,"TOWNNAME":"新化區","LI":"東榮里","LIN":"2鄰","STREET":"中興路","SECT":" ","MAREA":" ","LANE":" ","ALLEY":" ","HOUSE_NO":"４７號","E_COORD97":181898.76000000001,"N_COORD97":2547312.25,"ADDRESS":"中興路４７號","OBJECTID":616456},"geometry":{"x":181898.76000000071,"y":2547312.2500000019}},{"attributes":{"ID":616484,"DIS_CODE":0,"TOWNNAME":"新化區","LI":"太平里","LIN":"2鄰","STREET":"建國街","SECT":" ","MAREA":" ","LANE":" ","ALLEY":" ","HOUSE_NO":"５３號之２","E_COORD97":179153.42999999999,"N_COORD97":2548779.2599999998,"ADDRESS":"建國街５３號之２","OBJECTID":616457},"geometry":{"x":179153.4299999997,"y":2548779.2600000016}},{"attributes":{"ID":616485,"DIS_CODE":0,"TOWNNAME":"麻豆區","LI":"保安里","LIN":"2鄰","STREET":"中正路","SECT":" ","MAREA":" ","LANE":" ","ALLEY":" ","HOUSE_NO":"２號","E_COORD97":173076.95999999999,"N_COORD97":2564837.04,"ADDRESS":"中正路２號","OBJECTID":616458},"geometry":{"x":173076.95999999903,"y":2564837.040000001}},{"attributes":{"ID":616486,"DIS_CODE":0,"TOWNNAME":"新化區","LI":"太平里","LIN":"2鄰","STREET":"建國街","SECT":" ","MAREA":" ","LANE":" ","ALLEY":" ","HOUSE_NO":"４７號","E_COORD97":179161.88,"N_COORD97":2548752.2599999998,"ADDRESS":"建國街４７號","OBJECTID":616459},"geometry":{"x":179161.88000000082,"y":2548752.2600000016}},{"attributes":{"ID":616487,"DIS_CODE":0,"TOWNNAME":"新化區","LI":"武安里","LIN":"2鄰","STREET":"中正路","SECT":" ","MAREA":" ","LANE":" ","ALLEY":" ","HOUSE_NO":"２６５號之１","E_COORD97":179135.44,"N_COORD97":2547987.2599999998,"ADDRESS":"中正路２６５號之１","OBJECTID":616460},"geometry":{"x":179135.44000000041,"y":2547987.2600000016}},{"attributes":{"ID":616488,"DIS_CODE":0,"TOWNNAME":"新化區","LI":"協興里","LIN":"2鄰","STREET":"太平街","SECT":" ","MAREA":" ","LANE":" ","ALLEY":" ","HOUSE_NO":"１０５號之６","E_COORD97":178466.97,"N_COORD97":2548697.2599999998,"ADDRESS":"太平街１０５號之６","OBJECTID":616461},"geometry":{"x":178466.96999999974,"y":2548697.2599999998}},{"attributes":{"ID":616489,"DIS_CODE":0,"TOWNNAME":"西港區","LI":"西港里","LIN":"2鄰","STREET":"中山路","SECT":" ","MAREA":" ","LANE":" ","ALLEY":" ","HOUSE_NO":"４６２號之７","E_COORD97":168282.09,"N_COORD97":2558427.2400000002,"ADDRESS":"中山路４６２號之７","OBJECTID":616462},"geometry":{"x":168282.09000000171,"y":2558427.2400000002}},{"attributes":{"ID":616490,"DIS_CODE":0,"TOWNNAME":"西港區","LI":"西港里","LIN":"2鄰","STREET":"中山路","SECT":" ","MAREA":" ","LANE":" ","ALLEY":" ","HOUSE_NO":"４６２號之８","E_COORD97":168305.67999999999,"N_COORD97":2558578.5299999998,"ADDRESS":"中山路４６２號之８","OBJECTID":616463},"geometry":{"x":168305.68000000063,"y":2558578.5300000012}},{"attributes":{"ID":616491,"DIS_CODE":0,"TOWNNAME":"西港區","LI":"西港里","LIN":"2鄰","STREET":"中山路","SECT":" ","MAREA":" ","LANE":" ","ALLEY":" ","HOUSE_NO":"４６２之９號","E_COORD97":168376.01999999999,"N_COORD97":2558576.2200000002,"ADDRESS":"中山路４６２之９號","OBJECTID":616464},"geometry":{"x":168376.02000000048,"y":2558576.2200000025}},{"attributes":{"ID":616492,"DIS_CODE":0,"TOWNNAME":"西港區","LI":"西港里","LIN":"2鄰","STREET":"中山路","SECT":" ","MAREA":" ","LANE":" ","ALLEY":" ","HOUSE_NO":"４６４號","E_COORD97":168314.04999999999,"N_COORD97":2558595.4500000002,"ADDRESS":"中山路４６４號","OBJECTID":616465},"geometry":{"x":168314.04999999981,"y":2558595.4499999974}},{"attributes":{"ID":616493,"DIS_CODE":0,"TOWNNAME":"西港區","LI":"西港里","LIN":"2鄰","STREET":"中山路","SECT":" ","MAREA":" ","LANE":" ","ALLEY":" ","HOUSE_NO":"４６６號","E_COORD97":168274.20000000001,"N_COORD97":2558743.1299999999,"ADDRESS":"中山路４６６號","OBJECTID":616466},"geometry":{"x":168274.20000000019,"y":2558743.1299999971}},{"attributes":{"ID":616494,"DIS_CODE":0,"TOWNNAME":"西港區","LI":"西港里","LIN":"2鄰","STREET":"中山路","SECT":" ","MAREA":" ","LANE":" ","ALLEY":" ","HOUSE_NO":"４６８號","E_COORD97":168332.60000000001,"N_COORD97":2558632.2200000002,"ADDRESS":"中山路４６８號","OBJECTID":616467},"geometry":{"x":168332.60000000149,"y":2558632.2200000007}},{"attributes":{"ID":616495,"DIS_CODE":0,"TOWNNAME":"西港區","LI":"西港里","LIN":"2鄰","STREET":"中山路","SECT":" ","MAREA":" ","LANE":" ","ALLEY":" ","HOUSE_NO":"４９２號","E_COORD97":168205.29999999999,"N_COORD97":2558951.0899999999,"ADDRESS":"中山路４９２號","OBJECTID":616468},"geometry":{"x":168205.29999999981,"y":2558951.089999998}},{"attributes":{"ID":616496,"DIS_CODE":0,"TOWNNAME":"西港區","LI":"西港里","LIN":"2鄰","STREET":"中山路","SECT":" ","MAREA":" ","LANE":" ","ALLEY":" ","HOUSE_NO":"４９４之１號","E_COORD97":168182.64999999999,"N_COORD97":2558980.54,"ADDRESS":"中山路４９４之１號","OBJECTID":616469},"geometry":{"x":168182.6500000013,"y":2558980.5399999991}},{"attributes":{"ID":616497,"DIS_CODE":0,"TOWNNAME":"西港區","LI":"西港里","LIN":"2鄰","STREET":"中山路","SECT":" ","MAREA":" ","LANE":" ","ALLEY":" ","HOUSE_NO":"４９４號","E_COORD97":168177.48999999999,"N_COORD97":2559011.7200000002,"ADDRESS":"中山路４９４號","OBJECTID":616470},"geometry":{"x":168177.49000000022,"y":2559011.7200000007}},{"attributes":{"ID":616498,"DIS_CODE":0,"TOWNNAME":"西港區","LI":"西港里","LIN":"2鄰","STREET":"中山路","SECT":" ","MAREA":" ","LANE":" ","ALLEY":" ","HOUSE_NO":"４９８號之１","E_COORD97":168507.67999999999,"N_COORD97":2558954.3500000001,"ADDRESS":"中山路４９８號之１","OBJECTID":616471},"geometry":{"x":168507.6799999997,"y":2558954.3500000015}},{"attributes":{"ID":616499,"DIS_CODE":0,"TOWNNAME":"西港區","LI":"西港里","LIN":"2鄰","STREET":"中山路","SECT":" ","MAREA":" ","LANE":" ","ALLEY":" ","HOUSE_NO":"４９８號之２","E_COORD97":168455.75,"N_COORD97":2559145.2999999998,"ADDRESS":"中山路４９８號之２","OBJECTID":616472},"geometry":{"x":168455.75000000186,"y":2559145.3000000026}},{"attributes":{"ID":616500,"DIS_CODE":0,"TOWNNAME":"西港區","LI":"西港里","LIN":"2鄰","STREET":"中山路","SECT":" ","MAREA":" ","LANE":" ","ALLEY":" ","HOUSE_NO":"５００號","E_COORD97":168399.39000000001,"N_COORD97":2559164.1499999999,"ADDRESS":"中山路５００號","OBJECTID":616473},"geometry":{"x":168399.38999999966,"y":2559164.1500000004}},{"attributes":{"ID":616501,"DIS_CODE":0,"TOWNNAME":"西港區","LI":"西港里","LIN":"2鄰","STREET":"中山路","SECT":" ","MAREA":" ","LANE":" ","ALLEY":" ","HOUSE_NO":"５０４號","E_COORD97":168279.14999999999,"N_COORD97":2559209.54,"ADDRESS":"中山路５０４號","OBJECTID":616474},"geometry":{"x":168279.1500000013,"y":2559209.540000001}},{"attributes":{"ID":616502,"DIS_CODE":0,"TOWNNAME":"西港區","LI":"西港里","LIN":"2鄰","STREET":"中山路","SECT":" ","MAREA":" ","LANE":" ","ALLEY":" ","HOUSE_NO":"５０６號","E_COORD97":168141.85000000001,"N_COORD97":2559187.2799999998,"ADDRESS":"中山路５０６號","OBJECTID":616475},"geometry":{"x":168141.85000000056,"y":2559187.2800000012}},{"attributes":{"ID":616503,"DIS_CODE":0,"TOWNNAME":"西港區","LI":"西港里","LIN":"2鄰","STREET":"中山路","SECT":" ","MAREA":" ","LANE":" ","ALLEY":" ","HOUSE_NO":"５０８號","E_COORD97":168098.85999999999,"N_COORD97":2559283.8500000001,"ADDRESS":"中山路５０８號","OBJECTID":616476},"geometry":{"x":168098.86000000034,"y":2559283.8499999996}},{"attributes":{"ID":616504,"DIS_CODE":0,"TOWNNAME":"西港區","LI":"西港里","LIN":"2鄰","STREET":"中山路","SECT":" ","MAREA":" ","LANE":" ","ALLEY":" ","HOUSE_NO":"５１０號","E_COORD97":168122.16,"N_COORD97":2559293.6299999999,"ADDRESS":"中山路５１０號","OBJECTID":616477},"geometry":{"x":168122.16000000015,"y":2559293.6300000008}},{"attributes":{"ID":616505,"DIS_CODE":0,"TOWNNAME":"西港區","LI":"西港里","LIN":"2鄰","STREET":"中山路","SECT":" ","MAREA":" ","LANE":" ","ALLEY":" ","HOUSE_NO":"５１２號","E_COORD97":168135.70999999999,"N_COORD97":2559205.4500000002,"ADDRESS":"中山路５１２號","OBJECTID":616478},"geometry":{"x":168135.71000000089,"y":2559205.4499999993}},{"attributes":{"ID":616506,"DIS_CODE":0,"TOWNNAME":"安南區","LI":"鳳凰里","LIN":"26鄰","STREET":"同安路","SECT":" ","MAREA":" ","LANE":" ","ALLEY":" ","HOUSE_NO":"４００號","E_COORD97":167362.76000000001,"N_COORD97":2549428.75,"ADDRESS":"同安路４００號","OBJECTID":616479},"geometry":{"x":167362.76000000071,"y":2549428.75}},{"attributes":{"ID":616507,"DIS_CODE":0,"TOWNNAME":"安南區","LI":"溪東里","LIN":"21鄰","STREET":"郡安路","SECT":"五段","MAREA":" ","LANE":" ","ALLEY":" ","HOUSE_NO":"２５號","E_COORD97":168238.69,"N_COORD97":2547672.6400000001,"ADDRESS":"郡安路五段２５號","OBJECTID":616480},"geometry":{"x":168238.69000000134,"y":2547672.6400000025}},{"attributes":{"ID":616508,"DIS_CODE":0,"TOWNNAME":"安南區","LI":"溪東里","LIN":"21鄰","STREET":"郡安路","SECT":"五段","MAREA":" ","LANE":" ","ALLEY":" ","HOUSE_NO":"２６號","E_COORD97":168234.35000000001,"N_COORD97":2547672.8300000001,"ADDRESS":"郡安路五段２６號","OBJECTID":616481},"geometry":{"x":168234.35000000149,"y":2547672.8300000001}},{"attributes":{"ID":616509,"DIS_CODE":0,"TOWNNAME":"安南區","LI":"溪東里","LIN":"21鄰","STREET":"郡安路","SECT":"五段","MAREA":" ","LANE":" ","ALLEY":" ","HOUSE_NO":"２９號","E_COORD97":168219.48999999999,"N_COORD97":2547673.75,"ADDRESS":"郡安路五段２９號","OBJECTID":616482},"geometry":{"x":168219.49000000115,"y":2547673.7499999981}},{"attributes":{"ID":616510,"DIS_CODE":0,"TOWNNAME":"安南區","LI":"溪東里","LIN":"21鄰","STREET":"郡安路","SECT":"五段","MAREA":" ","LANE":" ","ALLEY":" ","HOUSE_NO":"３２號","E_COORD97":168202.16,"N_COORD97":2547670.8599999999,"ADDRESS":"郡安路五段３２號","OBJECTID":616483},"geometry":{"x":168202.16000000201,"y":2547670.8600000013}},{"attributes":{"ID":616511,"DIS_CODE":0,"TOWNNAME":"安南區","LI":"溪東里","LIN":"21鄰","STREET":"郡安路","SECT":"五段","MAREA":" ","LANE":" ","ALLEY":" ","HOUSE_NO":"３３號","E_COORD97":168197.03,"N_COORD97":2547667.4900000002,"ADDRESS":"郡安路五段３３號","OBJECTID":616484},"geometry":{"x":168197.03000000119,"y":2547667.4900000021}},{"attributes":{"ID":616512,"DIS_CODE":0,"TOWNNAME":"安南區","LI":"溪東里","LIN":"21鄰","STREET":"郡安路","SECT":"五段","MAREA":" ","LANE":" ","ALLEY":" ","HOUSE_NO":"３４號","E_COORD97":168192.66,"N_COORD97":2547670.3999999999,"ADDRESS":"郡安路五段３４號","OBJECTID":616485},"geometry":{"x":168192.66000000108,"y":2547670.4000000022}},{"attributes":{"ID":616513,"DIS_CODE":0,"TOWNNAME":"安南區","LI":"溪東里","LIN":"21鄰","STREET":"郡安路","SECT":"五段","MAREA":" ","LANE":" ","ALLEY":" ","HOUSE_NO":"３５號","E_COORD97":168187.87,"N_COORD97":2547672.6200000001,"ADDRESS":"郡安路五段３５號","OBJECTID":616486},"geometry":{"x":168187.87000000104,"y":2547672.6200000048}},{"attributes":{"ID":616514,"DIS_CODE":0,"TOWNNAME":"安南區","LI":"溪東里","LIN":"21鄰","STREET":"郡安路","SECT":"五段","MAREA":" ","LANE":" ","ALLEY":" ","HOUSE_NO":"３６號","E_COORD97":168183.19,"N_COORD97":2547669.8599999999,"ADDRESS":"郡安路五段３６號","OBJECTID":616487},"geometry":{"x":168183.19000000041,"y":2547669.8600000013}},{"attributes":{"ID":616515,"DIS_CODE":0,"TOWNNAME":"安南區","LI":"溪東里","LIN":"21鄰","STREET":"郡安路","SECT":"五段","MAREA":" ","LANE":" ","ALLEY":" ","HOUSE_NO":"３７號","E_COORD97":168178.82999999999,"N_COORD97":2547673.7599999998,"ADDRESS":"郡安路五段３７號","OBJECTID":616488},"geometry":{"x":168178.82999999914,"y":2547673.7600000035}},{"attributes":{"ID":616516,"DIS_CODE":0,"TOWNNAME":"安南區","LI":"溪東里","LIN":"21鄰","STREET":"郡安路","SECT":"五段","MAREA":" ","LANE":" ","ALLEY":" ","HOUSE_NO":"３８號","E_COORD97":168174.14999999999,"N_COORD97":2547671.8500000001,"ADDRESS":"郡安路五段３８號","OBJECTID":616489},"geometry":{"x":168174.1500000013,"y":2547671.8499999996}},{"attributes":{"ID":616517,"DIS_CODE":0,"TOWNNAME":"安南區","LI":"溪東里","LIN":"21鄰","STREET":"郡安路","SECT":"五段","MAREA":" ","LANE":" ","ALLEY":" ","HOUSE_NO":"３９號","E_COORD97":168170.17000000001,"N_COORD97":2547675.52,"ADDRESS":"郡安路五段３９號","OBJECTID":616490},"geometry":{"x":168170.17000000086,"y":2547675.5200000014}},{"attributes":{"ID":616518,"DIS_CODE":0,"TOWNNAME":"安南區","LI":"溪東里","LIN":"21鄰","STREET":"郡安路","SECT":"五段","MAREA":" ","LANE":" ","ALLEY":" ","HOUSE_NO":"４０號","E_COORD97":168164.81,"N_COORD97":2547672.9199999999,"ADDRESS":"郡安路五段４０號","OBJECTID":616491},"geometry":{"x":168164.80999999959,"y":2547672.9200000037}},{"attributes":{"ID":616519,"DIS_CODE":0,"TOWNNAME":"安南區","LI":"溪東里","LIN":"21鄰","STREET":"郡安路","SECT":"五段","MAREA":" ","LANE":" ","ALLEY":" ","HOUSE_NO":"５６號","E_COORD97":168034.66,"N_COORD97":2547642.1499999999,"ADDRESS":"郡安路五段５６號","OBJECTID":616492},"geometry":{"x":168034.66000000108,"y":2547642.1500000022}},{"attributes":{"ID":616520,"DIS_CODE":0,"TOWNNAME":"東區","LI":"中西里","LIN":"2鄰","STREET":"東門路","SECT":"一段","MAREA":" ","LANE":" ","ALLEY":" ","HOUSE_NO":"２７５號","E_COORD97":169848.32999999999,"N_COORD97":2543049.3500000001,"ADDRESS":"東門路一段２７５號","OBJECTID":616493},"geometry":{"x":169848.33000000007,"y":2543049.3500000015}},{"attributes":{"ID":616521,"DIS_CODE":0,"TOWNNAME":"麻豆區","LI":"中興里","LIN":"2鄰","STREET":"中華街","SECT":" ","MAREA":" ","LANE":" ","ALLEY":" ","HOUSE_NO":"３０號之２","E_COORD97":172910.63,"N_COORD97":2564713.9399999999,"ADDRESS":"中華街３０號之２","OBJECTID":616494},"geometry":{"x":172910.62999999989,"y":2564713.9399999995}},{"attributes":{"ID":616522,"DIS_CODE":0,"TOWNNAME":"東區","LI":"龍山里","LIN":"2鄰","STREET":"崇仁街","SECT":" ","MAREA":" ","LANE":" ","ALLEY":" ","HOUSE_NO":"９號","E_COORD97":170311.70999999999,"N_COORD97":2542790.2200000002,"ADDRESS":"崇仁街９號","OBJECTID":616495},"geometry":{"x":170311.70999999996,"y":2542790.2200000025}},{"attributes":{"ID":616523,"DIS_CODE":0,"TOWNNAME":"東區","LI":"龍山里","LIN":"2鄰","STREET":"崇仁街","SECT":" ","MAREA":" ","LANE":" ","ALLEY":" ","HOUSE_NO":"１７號","E_COORD97":170334.39999999999,"N_COORD97":2542775.1000000001,"ADDRESS":"崇仁街１７號","OBJECTID":616496},"geometry":{"x":170334.40000000037,"y":2542775.0999999996}},{"attributes":{"ID":616524,"DIS_CODE":0,"TOWNNAME":"佳里區","LI":"六安里","LIN":"7鄰","STREET":"六合街","SECT":" ","MAREA":" ","LANE":" ","ALLEY":" ","HOUSE_NO":"２４號","E_COORD97":165996.69,"N_COORD97":2562872.2799999998,"ADDRESS":"六合街２４號","OBJECTID":616497},"geometry":{"x":165996.69000000041,"y":2562872.2800000031}},{"attributes":{"ID":616525,"DIS_CODE":0,"TOWNNAME":"安南區","LI":"鳳凰里","LIN":"26鄰","STREET":"同安路","SECT":" ","MAREA":" ","LANE":" ","ALLEY":" ","HOUSE_NO":"４０２號","E_COORD97":167365.09,"N_COORD97":2549433.5,"ADDRESS":"同安路４０２號","OBJECTID":616498},"geometry":{"x":167365.09000000078,"y":2549433.5000000019}},{"attributes":{"ID":616526,"DIS_CODE":0,"TOWNNAME":"安南區","LI":"鳳凰里","LIN":"26鄰","STREET":"同安路","SECT":" ","MAREA":" ","LANE":" ","ALLEY":" ","HOUSE_NO":"４１０號","E_COORD97":167367.51999999999,"N_COORD97":2549438.6800000002,"ADDRESS":"同安路４１０號","OBJECTID":616499},"geometry":{"x":167367.52000000048,"y":2549438.6800000016}},{"attributes":{"ID":616527,"DIS_CODE":0,"TOWNNAME":"安南區","LI":"鳳凰里","LIN":"26鄰","STREET":"同安路","SECT":" ","MAREA":" ","LANE":" ","ALLEY":" ","HOUSE_NO":"４１２號","E_COORD97":167371.733989,"N_COORD97":2549449.3212100002,"ADDRESS":"同安路４１２號","OBJECTID":616500},"geometry":{"x":167371.73398900125,"y":2549449.3212129995}},{"attributes":{"ID":616528,"DIS_CODE":0,"TOWNNAME":"安南區","LI":"鳳凰里","LIN":"26鄰","STREET":"同安路","SECT":" ","MAREA":" ","LANE":" ","ALLEY":" ","HOUSE_NO":"４１６號","E_COORD97":167376.81558200001,"N_COORD97":2549460.1162100001,"ADDRESS":"同安路４１６號","OBJECTID":616501},"geometry":{"x":167376.81558199972,"y":2549460.1162070017}},{"attributes":{"ID":616529,"DIS_CODE":0,"TOWNNAME":"安南區","LI":"鳳凰里","LIN":"26鄰","STREET":"同安路","SECT":" ","MAREA":" ","LANE":" ","ALLEY":" ","HOUSE_NO":"４１８號","E_COORD97":167379.77984500001,"N_COORD97":2549464.9845400001,"ADDRESS":"同安路４１８號","OBJECTID":616502},"geometry":{"x":167379.77984500118,"y":2549464.9845380001}},{"attributes":{"ID":616530,"DIS_CODE":0,"TOWNNAME":"安南區","LI":"鳳凰里","LIN":"26鄰","STREET":"同安路","SECT":" ","MAREA":" ","LANE":" ","ALLEY":" ","HOUSE_NO":"４２０號","E_COORD97":167381.89717499999,"N_COORD97":2549469.2178699998,"ADDRESS":"同安路４２０號","OBJECTID":616503},"geometry":{"x":167381.89717500005,"y":2549469.2178690024}},{"attributes":{"ID":616531,"DIS_CODE":0,"TOWNNAME":"麻豆區","LI":"中興里","LIN":"2鄰","STREET":"中華街","SECT":" ","MAREA":" ","LANE":" ","ALLEY":" ","HOUSE_NO":"３０號之３","E_COORD97":172911.25,"N_COORD97":2564710.2200000002,"ADDRESS":"中華街３０號之３","OBJECTID":616504},"geometry":{"x":172911.25000000093,"y":2564710.2200000007}},{"attributes":{"ID":616532,"DIS_CODE":0,"TOWNNAME":"東區","LI":"東光里","LIN":"2鄰","STREET":"東光路","SECT":"一段","MAREA":" ","LANE":" ","ALLEY":" ","HOUSE_NO":"３９號","E_COORD97":171136.81,"N_COORD97":2543557.8999999999,"ADDRESS":"東光路一段３９號","OBJECTID":616505},"geometry":{"x":171136.81000000052,"y":2543557.9000000022}},{"attributes":{"ID":616533,"DIS_CODE":0,"TOWNNAME":"東區","LI":"崇德里","LIN":"2鄰","STREET":"中華東路","SECT":"三段","MAREA":" ","LANE":" ","ALLEY":" ","HOUSE_NO":"２１３號","E_COORD97":170575.53,"N_COORD97":2541846.0099999998,"ADDRESS":"中華東路三段２１３號","OBJECTID":616506},"geometry":{"x":170575.53000000119,"y":2541846.0099999998}},{"attributes":{"ID":616534,"DIS_CODE":0,"TOWNNAME":"東區","LI":"崇德里","LIN":"2鄰","STREET":"中華東路","SECT":"三段","MAREA":" ","LANE":" ","ALLEY":" ","HOUSE_NO":"２２１號","E_COORD97":170552.14000000001,"N_COORD97":2541824.4500000002,"ADDRESS":"中華東路三段２２１號","OBJECTID":616507},"geometry":{"x":170552.1400000006,"y":2541824.4500000011}},{"attributes":{"ID":616535,"DIS_CODE":0,"TOWNNAME":"安南區","LI":"鳳凰里","LIN":"26鄰","STREET":"安中路","SECT":"一段","MAREA":" ","LANE":" ","ALLEY":" ","HOUSE_NO":"８７６號","E_COORD97":167374.45999999999,"N_COORD97":2549413.3500000001,"ADDRESS":"安中路一段８７６號","OBJECTID":616508},"geometry":{"x":167374.46000000183,"y":2549413.3500000015}},{"attributes":{"ID":616536,"DIS_CODE":0,"TOWNNAME":"安南區","LI":"鳳凰里","LIN":"26鄰","STREET":"安中路","SECT":"一段","MAREA":" ","LANE":" ","ALLEY":" ","HOUSE_NO":"８７８號","E_COORD97":167370.46359100001,"N_COORD97":2549415.0312299998,"ADDRESS":"安中路一段８７８號","OBJECTID":616509},"geometry":{"x":167370.463591001,"y":2549415.0312319994}},{"attributes":{"ID":616537,"DIS_CODE":0,"TOWNNAME":"安南區","LI":"鳳凰里","LIN":"26鄰","STREET":"安中路","SECT":"一段","MAREA":" ","LANE":" ","ALLEY":" ","HOUSE_NO":"８８０號","E_COORD97":167367.49932800001,"N_COORD97":2549416.72456,"ADDRESS":"安中路一段８８０號","OBJECTID":616510},"geometry":{"x":167367.49932800047,"y":2549416.7245640028}},{"attributes":{"ID":616538,"DIS_CODE":0,"TOWNNAME":"安南區","LI":"鳳凰里","LIN":"26鄰","STREET":"安中路","SECT":"一段","MAREA":" ","LANE":" ","ALLEY":" ","HOUSE_NO":"８８２號","E_COORD97":167360.30040499999,"N_COORD97":2549422.86289,"ADDRESS":"安中路一段８８２號","OBJECTID":616511},"geometry":{"x":167360.30040500127,"y":2549422.8628940005}},{"attributes":{"ID":616539,"DIS_CODE":0,"TOWNNAME":"佳里區","LI":"六安里","LIN":"8鄰","STREET":"六合街","SECT":" ","MAREA":" ","LANE":" ","ALLEY":" ","HOUSE_NO":"２６號","E_COORD97":165990.22,"N_COORD97":2562880.3599999999,"ADDRESS":"六合街２６號","OBJECTID":616512},"geometry":{"x":165990.21999999974,"y":2562880.3599999994}},{"attributes":{"ID":616540,"DIS_CODE":0,"TOWNNAME":"東區","LI":"富強里","LIN":"2鄰","STREET":"裕農路","SECT":" ","MAREA":" ","LANE":" ","ALLEY":" ","HOUSE_NO":"４５８號","E_COORD97":171310.82999999999,"N_COORD97":2543176.5,"ADDRESS":"裕農路４５８號","OBJECTID":616513},"geometry":{"x":171310.83000000007,"y":2543176.4999999981}},{"attributes":{"ID":616541,"DIS_CODE":0,"TOWNNAME":"東區","LI":"富強里","LIN":"2鄰","STREET":"裕農路","SECT":" ","MAREA":" ","LANE":" ","ALLEY":" ","HOUSE_NO":"４６４號","E_COORD97":171321.89999999999,"N_COORD97":2543181.8700000001,"ADDRESS":"裕農路４６４號","OBJECTID":616514},"geometry":{"x":171321.9000000013,"y":2543181.8699999992}},{"attributes":{"ID":616542,"DIS_CODE":0,"TOWNNAME":"東區","LI":"富強里","LIN":"2鄰","STREET":"裕農路","SECT":" ","MAREA":" ","LANE":" ","ALLEY":" ","HOUSE_NO":"４６８號","E_COORD97":171328.67000000001,"N_COORD97":2543187.6699999999,"ADDRESS":"裕農路４６８號","OBJECTID":616515},"geometry":{"x":171328.67000000086,"y":2543187.6699999999}},{"attributes":{"ID":616543,"DIS_CODE":0,"TOWNNAME":"東區","LI":"富強里","LIN":"2鄰","STREET":"裕農路","SECT":" ","MAREA":" ","LANE":" ","ALLEY":" ","HOUSE_NO":"４７２號","E_COORD97":171337.26999999999,"N_COORD97":2543187.0299999998,"ADDRESS":"裕農路４７２號","OBJECTID":616516},"geometry":{"x":171337.27000000048,"y":2543187.0300000012}},{"attributes":{"ID":616544,"DIS_CODE":0,"TOWNNAME":"東區","LI":"富強里","LIN":"2鄰","STREET":"裕農路","SECT":" ","MAREA":" ","LANE":" ","ALLEY":" ","HOUSE_NO":"５１４號","E_COORD97":171342.10999999999,"N_COORD97":2543189.5,"ADDRESS":"裕農路５１４號","OBJECTID":616517},"geometry":{"x":171342.1099999994,"y":2543189.5}},{"attributes":{"ID":616545,"DIS_CODE":0,"TOWNNAME":"東區","LI":"富強里","LIN":"2鄰","STREET":"裕農路","SECT":" ","MAREA":" ","LANE":" ","ALLEY":" ","HOUSE_NO":"５１６號","E_COORD97":171349.42000000001,"N_COORD97":2543190.0299999998,"ADDRESS":"裕農路５１６號","OBJECTID":616518},"geometry":{"x":171349.41999999993,"y":2543190.0300000012}},{"attributes":{"ID":616546,"DIS_CODE":0,"TOWNNAME":"東區","LI":"富強里","LIN":"2鄰","STREET":"裕農路","SECT":" ","MAREA":" ","LANE":" ","ALLEY":" ","HOUSE_NO":"５２０號","E_COORD97":171355.82999999999,"N_COORD97":2543194.7200000002,"ADDRESS":"裕農路５２０號","OBJECTID":616519},"geometry":{"x":171355.83000000194,"y":2543194.7200000007}},{"attributes":{"ID":616547,"DIS_CODE":0,"TOWNNAME":"東區","LI":"富強里","LIN":"2鄰","STREET":"裕農路","SECT":" ","MAREA":" ","LANE":" ","ALLEY":" ","HOUSE_NO":"５２２號","E_COORD97":171362.39000000001,"N_COORD97":2543194.3999999999,"ADDRESS":"裕農路５２２號","OBJECTID":616520},"geometry":{"x":171362.3900000006,"y":2543194.4000000004}},{"attributes":{"ID":616548,"DIS_CODE":0,"TOWNNAME":"東區","LI":"富強里","LIN":"2鄰","STREET":"裕農路","SECT":" ","MAREA":" ","LANE":" ","ALLEY":" ","HOUSE_NO":"５２６號","E_COORD97":171375.60999999999,"N_COORD97":2543190.21,"ADDRESS":"裕農路５２６號","OBJECTID":616521},"geometry":{"x":171375.61000000034,"y":2543190.2100000028}},{"attributes":{"ID":616549,"DIS_CODE":0,"TOWNNAME":"東區","LI":"南聖里","LIN":"2鄰","STREET":"裕農路","SECT":" ","MAREA":" ","LANE":" ","ALLEY":" ","HOUSE_NO":"６２４號","E_COORD97":171632.95000000001,"N_COORD97":2543211.4199999999,"ADDRESS":"裕農路６２４號","OBJECTID":616522},"geometry":{"x":171632.94999999925,"y":2543211.4200000018}},{"attributes":{"ID":616550,"DIS_CODE":0,"TOWNNAME":"東區","LI":"南聖里","LIN":"2鄰","STREET":"裕農路","SECT":" ","MAREA":" ","LANE":" ","ALLEY":" ","HOUSE_NO":"６２６號","E_COORD97":171637.20999999999,"N_COORD97":2543213.9700000002,"ADDRESS":"裕農路６２６號","OBJECTID":616523},"geometry":{"x":171637.20999999996,"y":2543213.9700000007}},{"attributes":{"ID":616551,"DIS_CODE":0,"TOWNNAME":"東區","LI":"南聖里","LIN":"2鄰","STREET":"裕農路","SECT":" ","MAREA":" ","LANE":" ","ALLEY":" ","HOUSE_NO":"６２８號","E_COORD97":171641.04999999999,"N_COORD97":2543211.8399999999,"ADDRESS":"裕農路６２８號","OBJECTID":616524},"geometry":{"x":171641.05000000075,"y":2543211.8400000017}},{"attributes":{"ID":616552,"DIS_CODE":0,"TOWNNAME":"東區","LI":"南聖里","LIN":"2鄰","STREET":"裕農路","SECT":" ","MAREA":" ","LANE":" ","ALLEY":" ","HOUSE_NO":"６３０號","E_COORD97":171644.73999999999,"N_COORD97":2543214.25,"ADDRESS":"裕農路６３０號","OBJECTID":616525},"geometry":{"x":171644.74000000209,"y":2543214.25}},{"attributes":{"ID":616553,"DIS_CODE":0,"TOWNNAME":"東區","LI":"南聖里","LIN":"2鄰","STREET":"裕農路","SECT":" ","MAREA":" ","LANE":" ","ALLEY":" ","HOUSE_NO":"６３２號","E_COORD97":171648.85999999999,"N_COORD97":2543211.4199999999,"ADDRESS":"裕農路６３２號","OBJECTID":616526},"geometry":{"x":171648.86000000034,"y":2543211.4200000018}},{"attributes":{"ID":616554,"DIS_CODE":0,"TOWNNAME":"東區","LI":"南聖里","LIN":"2鄰","STREET":"裕農路","SECT":" ","MAREA":" ","LANE":" ","ALLEY":" ","HOUSE_NO":"６３４號","E_COORD97":171652.56,"N_COORD97":2543214.25,"ADDRESS":"裕農路６３４號","OBJECTID":616527},"geometry":{"x":171652.56000000052,"y":2543214.25}},{"attributes":{"ID":616555,"DIS_CODE":0,"TOWNNAME":"東區","LI":"南聖里","LIN":"2鄰","STREET":"裕農路","SECT":" ","MAREA":" ","LANE":" ","ALLEY":" ","HOUSE_NO":"６３６號","E_COORD97":171656.10999999999,"N_COORD97":2543211.8399999999,"ADDRESS":"裕農路６３６號","OBJECTID":616528},"geometry":{"x":171656.11000000127,"y":2543211.8400000017}},{"attributes":{"ID":616556,"DIS_CODE":0,"TOWNNAME":"東區","LI":"南聖里","LIN":"2鄰","STREET":"裕農路","SECT":" ","MAREA":" ","LANE":" ","ALLEY":" ","HOUSE_NO":"６３８號","E_COORD97":171659.51999999999,"N_COORD97":2543214.6800000002,"ADDRESS":"裕農路６３８號","OBJECTID":616529},"geometry":{"x":171659.52000000048,"y":2543214.6799999997}},{"attributes":{"ID":616557,"DIS_CODE":0,"TOWNNAME":"東區","LI":"南聖里","LIN":"2鄰","STREET":"裕農路","SECT":" ","MAREA":" ","LANE":" ","ALLEY":" ","HOUSE_NO":"６４０號","E_COORD97":171662.78,"N_COORD97":2543212.5499999998,"ADDRESS":"裕農路６４０號","OBJECTID":616530},"geometry":{"x":171662.78000000026,"y":2543212.5500000026}},{"attributes":{"ID":616558,"DIS_CODE":0,"TOWNNAME":"東區","LI":"南聖里","LIN":"2鄰","STREET":"裕農路","SECT":" ","MAREA":" ","LANE":" ","ALLEY":" ","HOUSE_NO":"６４２號","E_COORD97":171666.34,"N_COORD97":2543214.6800000002,"ADDRESS":"裕農路６４２號","OBJECTID":616531},"geometry":{"x":171666.34000000078,"y":2543214.6799999997}},{"attributes":{"ID":616559,"DIS_CODE":0,"TOWNNAME":"東區","LI":"南聖里","LIN":"2鄰","STREET":"裕農路","SECT":" ","MAREA":" ","LANE":" ","ALLEY":" ","HOUSE_NO":"６４４號","E_COORD97":171670.60000000001,"N_COORD97":2543212.5499999998,"ADDRESS":"裕農路６４４號","OBJECTID":616532},"geometry":{"x":171670.60000000056,"y":2543212.5500000026}},{"attributes":{"ID":616560,"DIS_CODE":0,"TOWNNAME":"東區","LI":"南聖里","LIN":"2鄰","STREET":"裕農路","SECT":" ","MAREA":" ","LANE":" ","ALLEY":" ","HOUSE_NO":"６４６號","E_COORD97":171674.42999999999,"N_COORD97":2543214.96,"ADDRESS":"裕農路６４６號","OBJECTID":616533},"geometry":{"x":171674.4299999997,"y":2543214.959999999}},{"attributes":{"ID":616561,"DIS_CODE":0,"TOWNNAME":"東區","LI":"南聖里","LIN":"2鄰","STREET":"裕農路","SECT":" ","MAREA":" ","LANE":" ","ALLEY":" ","HOUSE_NO":"６４８號","E_COORD97":171679.12,"N_COORD97":2543213.2599999998,"ADDRESS":"裕農路６４８號","OBJECTID":616534},"geometry":{"x":171679.12000000011,"y":2543213.2600000016}},{"attributes":{"ID":616562,"DIS_CODE":0,"TOWNNAME":"安南區","LI":"鳳凰里","LIN":"25鄰","STREET":"怡安路","SECT":"二段","MAREA":" ","LANE":" ","ALLEY":" ","HOUSE_NO":"５９５之１號","E_COORD97":167413.60000000001,"N_COORD97":2549470.1200000001,"ADDRESS":"怡安路二段５９５之１號","OBJECTID":616535},"geometry":{"x":167413.59999999963,"y":2549470.1200000029}},{"attributes":{"ID":616563,"DIS_CODE":0,"TOWNNAME":"安南區","LI":"鳳凰里","LIN":"25鄰","STREET":"怡安路","SECT":"二段","MAREA":" ","LANE":" ","ALLEY":" ","HOUSE_NO":"５９５之２號","E_COORD97":167409.31,"N_COORD97":2549471.0499999998,"ADDRESS":"怡安路二段５９５之２號","OBJECTID":616536},"geometry":{"x":167409.31000000052,"y":2549471.0500000026}},{"attributes":{"ID":616564,"DIS_CODE":0,"TOWNNAME":"安南區","LI":"鳳凰里","LIN":"25鄰","STREET":"怡安路","SECT":"二段","MAREA":" ","LANE":" ","ALLEY":" ","HOUSE_NO":"５９５號","E_COORD97":167418.26999999999,"N_COORD97":2549469.2799999998,"ADDRESS":"怡安路二段５９５號","OBJECTID":616537},"geometry":{"x":167418.27000000048,"y":2549469.2799999993}},{"attributes":{"ID":616565,"DIS_CODE":0,"TOWNNAME":"東區","LI":"和平里","LIN":"2鄰","STREET":"文化二街","SECT":" ","MAREA":" ","LANE":" ","ALLEY":" ","HOUSE_NO":"８３號","E_COORD97":171280.35999999999,"N_COORD97":2542040.6400000001,"ADDRESS":"文化二街８３號","OBJECTID":616538},"geometry":{"x":171280.36000000034,"y":2542040.6400000043}},{"attributes":{"ID":616566,"DIS_CODE":0,"TOWNNAME":"東區","LI":"和平里","LIN":"2鄰","STREET":"文化二街","SECT":" ","MAREA":" ","LANE":" ","ALLEY":" ","HOUSE_NO":"８５之１號","E_COORD97":171285.42999999999,"N_COORD97":2542046.8599999999,"ADDRESS":"文化二街８５之１號","OBJECTID":616539},"geometry":{"x":171285.43000000063,"y":2542046.8599999994}},{"attributes":{"ID":616567,"DIS_CODE":0,"TOWNNAME":"東區","LI":"和平里","LIN":"2鄰","STREET":"文化二街","SECT":" ","MAREA":" ","LANE":" ","ALLEY":" ","HOUSE_NO":"８５之２號","E_COORD97":171284.60999999999,"N_COORD97":2542054.3900000001,"ADDRESS":"文化二街８５之２號","OBJECTID":616540},"geometry":{"x":171284.6100000022,"y":2542054.3900000006}},{"attributes":{"ID":616568,"DIS_CODE":0,"TOWNNAME":"東區","LI":"和平里","LIN":"2鄰","STREET":"文化二街","SECT":" ","MAREA":" ","LANE":" ","ALLEY":" ","HOUSE_NO":"８５之３號","E_COORD97":171283.63,"N_COORD97":2542060.7799999998,"ADDRESS":"文化二街８５之３號","OBJECTID":616541},"geometry":{"x":171283.62999999989,"y":2542060.7799999993}},{"attributes":{"ID":616569,"DIS_CODE":0,"TOWNNAME":"東區","LI":"和平里","LIN":"2鄰","STREET":"文化二街","SECT":" ","MAREA":" ","LANE":" ","ALLEY":" ","HOUSE_NO":"８５之５號","E_COORD97":171283.29999999999,"N_COORD97":2542067.98,"ADDRESS":"文化二街８５之５號","OBJECTID":616542},"geometry":{"x":171283.30000000075,"y":2542067.9800000004}},{"attributes":{"ID":616570,"DIS_CODE":0,"TOWNNAME":"東區","LI":"和平里","LIN":"2鄰","STREET":"文化二街","SECT":" ","MAREA":" ","LANE":" ","ALLEY":" ","HOUSE_NO":"８５之６號","E_COORD97":171283.79999999999,"N_COORD97":2542073.0600000001,"ADDRESS":"文化二街８５之６號","OBJECTID":616543},"geometry":{"x":171283.79999999981,"y":2542073.0600000024}},{"attributes":{"ID":616571,"DIS_CODE":0,"TOWNNAME":"東區","LI":"和平里","LIN":"2鄰","STREET":"文化二街","SECT":" ","MAREA":" ","LANE":" ","ALLEY":" ","HOUSE_NO":"８５之７號","E_COORD97":171283.95999999999,"N_COORD97":2542077.6400000001,"ADDRESS":"文化二街８５之７號","OBJECTID":616544},"geometry":{"x":171283.96000000089,"y":2542077.6399999987}},{"attributes":{"ID":616572,"DIS_CODE":0,"TOWNNAME":"東區","LI":"和平里","LIN":"2鄰","STREET":"文化二街","SECT":" ","MAREA":" ","LANE":" ","ALLEY":" ","HOUSE_NO":"８５號","E_COORD97":171287.07000000001,"N_COORD97":2542041.9500000002,"ADDRESS":"文化二街８５號","OBJECTID":616545},"geometry":{"x":171287.07000000123,"y":2542041.9500000011}},{"attributes":{"ID":616573,"DIS_CODE":0,"TOWNNAME":"東區","LI":"和平里","LIN":"2鄰","STREET":"文化二街","SECT":" ","MAREA":" ","LANE":" ","ALLEY":" ","HOUSE_NO":"８７之１號","E_COORD97":171295.75,"N_COORD97":2542047.52,"ADDRESS":"文化二街８７之１號","OBJECTID":616546},"geometry":{"x":171295.75000000093,"y":2542047.5200000014}},{"attributes":{"ID":616574,"DIS_CODE":0,"TOWNNAME":"東區","LI":"德高里","LIN":"2鄰","STREET":"自由路","SECT":"一段","MAREA":" ","LANE":" ","ALLEY":" ","HOUSE_NO":"１２５號","E_COORD97":171677.60000000001,"N_COORD97":2540985.3199999998,"ADDRESS":"自由路一段１２５號","OBJECTID":616547},"geometry":{"x":171677.60000000056,"y":2540985.3200000022}},{"attributes":{"ID":616575,"DIS_CODE":0,"TOWNNAME":"東區","LI":"龍山里","LIN":"2鄰","STREET":"崇仁街","SECT":" ","MAREA":" ","LANE":" ","ALLEY":" ","HOUSE_NO":"１號","E_COORD97":170295.32999999999,"N_COORD97":2542801.2999999998,"ADDRESS":"崇仁街１號","OBJECTID":616548},"geometry":{"x":170295.33000000101,"y":2542801.3000000007}},{"attributes":{"ID":616576,"DIS_CODE":0,"TOWNNAME":"東區","LI":"龍山里","LIN":"2鄰","STREET":"崇仁街","SECT":" ","MAREA":" ","LANE":" ","ALLEY":" ","HOUSE_NO":"３號","E_COORD97":170301.63,"N_COORD97":2542800.04,"ADDRESS":"崇仁街３號","OBJECTID":616549},"geometry":{"x":170301.62999999989,"y":2542800.040000001}},{"attributes":{"ID":616577,"DIS_CODE":0,"TOWNNAME":"東區","LI":"龍山里","LIN":"2鄰","STREET":"崇仁街","SECT":" ","MAREA":" ","LANE":" ","ALLEY":" ","HOUSE_NO":"５號","E_COORD97":170304.91,"N_COORD97":2542798.5299999998,"ADDRESS":"崇仁街５號","OBJECTID":616550},"geometry":{"x":170304.91000000108,"y":2542798.5299999993}},{"attributes":{"ID":616578,"DIS_CODE":0,"TOWNNAME":"麻豆區","LI":"中興里","LIN":"2鄰","STREET":"中華街","SECT":" ","MAREA":" ","LANE":" ","ALLEY":" ","HOUSE_NO":"３０號之８","E_COORD97":172872.07999999999,"N_COORD97":2564714.6899999999,"ADDRESS":"中華街３０號之８","OBJECTID":616551},"geometry":{"x":172872.08000000007,"y":2564714.6900000013}},{"attributes":{"ID":616579,"DIS_CODE":0,"TOWNNAME":"麻豆區","LI":"中興里","LIN":"2鄰","STREET":"中華街","SECT":" ","MAREA":" ","LANE":" ","ALLEY":" ","HOUSE_NO":"３０號","E_COORD97":172913.20999999999,"N_COORD97":2564723.6099999999,"ADDRESS":"中華街３０號","OBJECTID":616552},"geometry":{"x":172913.21000000089,"y":2564723.6099999994}},{"attributes":{"ID":616580,"DIS_CODE":0,"TOWNNAME":"新市區","LI":"港墘里","LIN":"2鄰","STREET":"中山路","SECT":" ","MAREA":" ","LANE":" ","ALLEY":" ","HOUSE_NO":"２４號","E_COORD97":178620.35000000001,"N_COORD97":2553458.75,"ADDRESS":"中山路２４號","OBJECTID":616553},"geometry":{"x":178620.34999999963,"y":2553458.7500000019}},{"attributes":{"ID":616581,"DIS_CODE":0,"TOWNNAME":"麻豆區","LI":"中興里","LIN":"2鄰","STREET":"中華街","SECT":" ","MAREA":" ","LANE":" ","ALLEY":" ","HOUSE_NO":"３２號之１","E_COORD97":172912,"N_COORD97":2564678.5899999999,"ADDRESS":"中華街３２號之１","OBJECTID":616554},"geometry":{"x":172912,"y":2564678.5900000017}},{"attributes":{"ID":616582,"DIS_CODE":0,"TOWNNAME":"新市區","LI":"港墘里","LIN":"2鄰","STREET":"中山路","SECT":" ","MAREA":" ","LANE":" ","ALLEY":" ","HOUSE_NO":"６０號","E_COORD97":178595.29000000001,"N_COORD97":2553387.75,"ADDRESS":"中山路６０號","OBJECTID":616555},"geometry":{"x":178595.29000000004,"y":2553387.7500000019}},{"attributes":{"ID":616583,"DIS_CODE":0,"TOWNNAME":"新市區","LI":"港墘里","LIN":"2鄰","STREET":"中山路","SECT":" ","MAREA":" ","LANE":" ","ALLEY":" ","HOUSE_NO":"３２號","E_COORD97":178615.23999999999,"N_COORD97":2553443.75,"ADDRESS":"中山路３２號","OBJECTID":616556},"geometry":{"x":178615.24000000209,"y":2553443.75}},{"attributes":{"ID":616584,"DIS_CODE":0,"TOWNNAME":"新市區","LI":"港墘里","LIN":"2鄰","STREET":"中山路","SECT":" ","MAREA":" ","LANE":" ","ALLEY":" ","HOUSE_NO":"５０號","E_COORD97":178602.35000000001,"N_COORD97":2553412,"ADDRESS":"中山路５０號","OBJECTID":616557},"geometry":{"x":178602.35000000056,"y":2553411.9999999981}},{"attributes":{"ID":616585,"DIS_CODE":0,"TOWNNAME":"新市區","LI":"港墘里","LIN":"2鄰","STREET":"中山路","SECT":" ","MAREA":" ","LANE":" ","ALLEY":" ","HOUSE_NO":"６１之１號","E_COORD97":178674.42999999999,"N_COORD97":2553338.2999999998,"ADDRESS":"中山路６１之１號","OBJECTID":616558},"geometry":{"x":178674.43000000156,"y":2553338.3000000007}},{"attributes":{"ID":616586,"DIS_CODE":0,"TOWNNAME":"新市區","LI":"港墘里","LIN":"2鄰","STREET":"中山路","SECT":" ","MAREA":" ","LANE":" ","ALLEY":" ","HOUSE_NO":"５４號","E_COORD97":178598.95999999999,"N_COORD97":2553399.25,"ADDRESS":"中山路５４號","OBJECTID":616559},"geometry":{"x":178598.96000000089,"y":2553399.25}},{"attributes":{"ID":616587,"DIS_CODE":0,"TOWNNAME":"新市區","LI":"港墘里","LIN":"2鄰","STREET":"中山路","SECT":" ","MAREA":" ","LANE":" ","ALLEY":" ","HOUSE_NO":"４９之１號","E_COORD97":178674.26999999999,"N_COORD97":2553421.2999999998,"ADDRESS":"中山路４９之１號","OBJECTID":616560},"geometry":{"x":178674.27000000048,"y":2553421.3000000045}},{"attributes":{"ID":616588,"DIS_CODE":0,"TOWNNAME":"新市區","LI":"港墘里","LIN":"2鄰","STREET":"中山路","SECT":" ","MAREA":" ","LANE":" ","ALLEY":" ","HOUSE_NO":"５７號","E_COORD97":178668.82000000001,"N_COORD97":2553380.5,"ADDRESS":"中山路５７號","OBJECTID":616561},"geometry":{"x":178668.8200000003,"y":2553380.5}},{"attributes":{"ID":616589,"DIS_CODE":0,"TOWNNAME":"新市區","LI":"港墘里","LIN":"2鄰","STREET":"中山路","SECT":" ","MAREA":" ","LANE":" ","ALLEY":" ","HOUSE_NO":"２２號","E_COORD97":178621.54000000001,"N_COORD97":2553462.5,"ADDRESS":"中山路２２號","OBJECTID":616562},"geometry":{"x":178621.5400000019,"y":2553462.5}},{"attributes":{"ID":616590,"DIS_CODE":0,"TOWNNAME":"麻豆區","LI":"中興里","LIN":"2鄰","STREET":"中華街","SECT":" ","MAREA":" ","LANE":" ","ALLEY":" ","HOUSE_NO":"３２號之２","E_COORD97":172912.56,"N_COORD97":2564682.9100000001,"ADDRESS":"中華街３２號之２","OBJECTID":616563},"geometry":{"x":172912.55999999959,"y":2564682.910000002}},{"attributes":{"ID":616591,"DIS_CODE":0,"TOWNNAME":"麻豆區","LI":"中興里","LIN":"2鄰","STREET":"中華街","SECT":" ","MAREA":" ","LANE":" ","ALLEY":" ","HOUSE_NO":"３２號之３","E_COORD97":172911.91,"N_COORD97":2564687.2400000002,"ADDRESS":"中華街３２號之３","OBJECTID":616564},"geometry":{"x":172911.91000000108,"y":2564687.2400000039}},{"attributes":{"ID":616592,"DIS_CODE":0,"TOWNNAME":"麻豆區","LI":"保安里","LIN":"2鄰","STREET":"興中路","SECT":" ","MAREA":" ","LANE":" ","ALLEY":" ","HOUSE_NO":"１號","E_COORD97":173078.26999999999,"N_COORD97":2564809.3700000001,"ADDRESS":"興中路１號","OBJECTID":616565},"geometry":{"x":173078.27000000048,"y":2564809.3700000048}},{"attributes":{"ID":616593,"DIS_CODE":0,"TOWNNAME":"麻豆區","LI":"中興里","LIN":"2鄰","STREET":"中華街","SECT":" ","MAREA":" ","LANE":" ","ALLEY":" ","HOUSE_NO":"３２號之４","E_COORD97":172912.41,"N_COORD97":2564691.6600000001,"ADDRESS":"中華街３２號之４","OBJECTID":616566},"geometry":{"x":172912.41000000015,"y":2564691.660000002}},{"attributes":{"ID":616594,"DIS_CODE":0,"TOWNNAME":"新市區","LI":"新和里","LIN":"2鄰","STREET":"中山路","SECT":" ","MAREA":" ","LANE":" ","ALLEY":" ","HOUSE_NO":"２６０之２號","E_COORD97":177399.73000000001,"N_COORD97":2552015.5499999998,"ADDRESS":"中山路２６０之２號","OBJECTID":616567},"geometry":{"x":177399.73000000045,"y":2552015.5499999989}},{"attributes":{"ID":616595,"DIS_CODE":0,"TOWNNAME":"新市區","LI":"新和里","LIN":"2鄰","STREET":"中山路","SECT":" ","MAREA":" ","LANE":" ","ALLEY":" ","HOUSE_NO":"２６６號","E_COORD97":177381.84,"N_COORD97":2552006.75,"ADDRESS":"中山路２６６號","OBJECTID":616568},"geometry":{"x":177381.84000000171,"y":2552006.7499999981}},{"attributes":{"ID":616596,"DIS_CODE":0,"TOWNNAME":"麻豆區","LI":"中興里","LIN":"2鄰","STREET":"中華街","SECT":" ","MAREA":" ","LANE":" ","ALLEY":" ","HOUSE_NO":"３２號之５","E_COORD97":172912.76999999999,"N_COORD97":2564695.8199999998,"ADDRESS":"中華街３２號之５","OBJECTID":616569},"geometry":{"x":172912.76999999955,"y":2564695.8200000003}},{"attributes":{"ID":616597,"DIS_CODE":0,"TOWNNAME":"安南區","LI":"總頭里","LIN":"2鄰","STREET":"總安街","SECT":"二段","MAREA":" ","LANE":" ","ALLEY":" ","HOUSE_NO":"３１９號","E_COORD97":168407.94,"N_COORD97":2550479.21,"ADDRESS":"總安街二段３１９號","OBJECTID":616570},"geometry":{"x":168407.94000000134,"y":2550479.2100000046}},{"attributes":{"ID":616598,"DIS_CODE":0,"TOWNNAME":"麻豆區","LI":"中興里","LIN":"2鄰","STREET":"中華街","SECT":" ","MAREA":" ","LANE":" ","ALLEY":" ","HOUSE_NO":"３２號之７","E_COORD97":172889.51000000001,"N_COORD97":2564697.5099999998,"ADDRESS":"中華街３２號之７","OBJECTID":616571},"geometry":{"x":172889.50999999978,"y":2564697.5099999998}},{"attributes":{"ID":616599,"DIS_CODE":0,"TOWNNAME":"安南區","LI":"溪心里","LIN":"2鄰","STREET":"海佃路","SECT":"二段","MAREA":" ","LANE":" ","ALLEY":" ","HOUSE_NO":"５６７號","E_COORD97":166598.85000000001,"N_COORD97":2549363.02,"ADDRESS":"海佃路二段５６７號","OBJECTID":616572},"geometry":{"x":166598.85000000056,"y":2549363.0199999996}},{"attributes":{"ID":616600,"DIS_CODE":0,"TOWNNAME":"安南區","LI":"原佃里","LIN":"2鄰","STREET":"本原街","SECT":"一段","MAREA":" ","LANE":" ","ALLEY":" ","HOUSE_NO":"１４３號","E_COORD97":167896.04999999999,"N_COORD97":2550132.1699999999,"ADDRESS":"本原街一段１４３號","OBJECTID":616573},"geometry":{"x":167896.05000000075,"y":2550132.1699999999}},{"attributes":{"ID":616601,"DIS_CODE":0,"TOWNNAME":"安南區","LI":"原佃里","LIN":"2鄰","STREET":"本原街","SECT":"一段","MAREA":" ","LANE":" ","ALLEY":" ","HOUSE_NO":"１６３號","E_COORD97":167846.79000000001,"N_COORD97":2550125.1000000001,"ADDRESS":"本原街一段１６３號","OBJECTID":616574},"geometry":{"x":167846.78999999911,"y":2550125.0999999996}},{"attributes":{"ID":616602,"DIS_CODE":0,"TOWNNAME":"安南區","LI":"總頭里","LIN":"2鄰","STREET":"總安街","SECT":"二段","MAREA":" ","LANE":" ","ALLEY":" ","HOUSE_NO":"２８０號","E_COORD97":168513.37,"N_COORD97":2550493.3900000001,"ADDRESS":"總安街二段２８０號","OBJECTID":616575},"geometry":{"x":168513.37000000104,"y":2550493.3900000006}},{"attributes":{"ID":616603,"DIS_CODE":0,"TOWNNAME":"安南區","LI":"總頭里","LIN":"2鄰","STREET":"總安街","SECT":"二段","MAREA":" ","LANE":" ","ALLEY":" ","HOUSE_NO":"３０６號","E_COORD97":168453.89999999999,"N_COORD97":2550509.1800000002,"ADDRESS":"總安街二段３０６號","OBJECTID":616576},"geometry":{"x":168453.9000000013,"y":2550509.1800000016}},{"attributes":{"ID":616604,"DIS_CODE":0,"TOWNNAME":"安南區","LI":"總頭里","LIN":"2鄰","STREET":"總安街","SECT":"二段","MAREA":" ","LANE":" ","ALLEY":" ","HOUSE_NO":"３１２號","E_COORD97":168437.42000000001,"N_COORD97":2550507.98,"ADDRESS":"總安街二段３１２號","OBJECTID":616577},"geometry":{"x":168437.41999999899,"y":2550507.9800000023}},{"attributes":{"ID":616605,"DIS_CODE":0,"TOWNNAME":"安南區","LI":"總頭里","LIN":"2鄰","STREET":"總安街","SECT":"二段","MAREA":" ","LANE":" ","ALLEY":" ","HOUSE_NO":"３１４號","E_COORD97":168431.79000000001,"N_COORD97":2550508.7799999998,"ADDRESS":"總安街二段３１４號","OBJECTID":616578},"geometry":{"x":168431.7900000019,"y":2550508.7800000012}},{"attributes":{"ID":616606,"DIS_CODE":0,"TOWNNAME":"安南區","LI":"總頭里","LIN":"2鄰","STREET":"總安街","SECT":"二段","MAREA":" ","LANE":" ","ALLEY":" ","HOUSE_NO":"３１７號","E_COORD97":168413.04000000001,"N_COORD97":2550477.9399999999,"ADDRESS":"總安街二段３１７號","OBJECTID":616579},"geometry":{"x":168413.0400000019,"y":2550477.9399999995}},{"attributes":{"ID":616607,"DIS_CODE":0,"TOWNNAME":"安南區","LI":"總頭里","LIN":"2鄰","STREET":"總安街","SECT":"二段","MAREA":" ","LANE":" ","ALLEY":" ","HOUSE_NO":"３２３號","E_COORD97":168399.66,"N_COORD97":2550479.8399999999,"ADDRESS":"總安街二段３２３號","OBJECTID":616580},"geometry":{"x":168399.66000000108,"y":2550479.8399999999}},{"attributes":{"ID":616608,"DIS_CODE":0,"TOWNNAME":"安南區","LI":"總頭里","LIN":"2鄰","STREET":"總安街","SECT":"二段","MAREA":" ","LANE":" ","ALLEY":" ","HOUSE_NO":"３２５號","E_COORD97":168394.56,"N_COORD97":2550480.1600000001,"ADDRESS":"總安街二段３２５號","OBJECTID":616581},"geometry":{"x":168394.56000000052,"y":2550480.160000002}},{"attributes":{"ID":616609,"DIS_CODE":0,"TOWNNAME":"安南區","LI":"總頭里","LIN":"2鄰","STREET":"總安街","SECT":"二段","MAREA":" ","LANE":" ","ALLEY":" ","HOUSE_NO":"３２７號","E_COORD97":168391.06,"N_COORD97":2550481.75,"ADDRESS":"總安街二段３２７號","OBJECTID":616582},"geometry":{"x":168391.06000000052,"y":2550481.7500000019}},{"attributes":{"ID":616610,"DIS_CODE":0,"TOWNNAME":"安南區","LI":"總頭里","LIN":"2鄰","STREET":"總安街","SECT":"二段","MAREA":" ","LANE":" ","ALLEY":" ","HOUSE_NO":"３２８號","E_COORD97":168384.04999999999,"N_COORD97":2550510.6899999999,"ADDRESS":"總安街二段３２８號","OBJECTID":616583},"geometry":{"x":168384.05000000168,"y":2550510.6899999995}},{"attributes":{"ID":616611,"DIS_CODE":0,"TOWNNAME":"安南區","LI":"總頭里","LIN":"2鄰","STREET":"總安街","SECT":"二段","MAREA":" ","LANE":" ","ALLEY":" ","HOUSE_NO":"３２９號","E_COORD97":168385.01000000001,"N_COORD97":2550481.4300000002,"ADDRESS":"總安街二段３２９號","OBJECTID":616584},"geometry":{"x":168385.01000000071,"y":2550481.4299999997}},{"attributes":{"ID":616612,"DIS_CODE":0,"TOWNNAME":"安南區","LI":"總頭里","LIN":"2鄰","STREET":"總安街","SECT":"二段","MAREA":" ","LANE":" ","ALLEY":" ","HOUSE_NO":"３３１號","E_COORD97":168380.23000000001,"N_COORD97":2550483.02,"ADDRESS":"總安街二段３３１號","OBJECTID":616585},"geometry":{"x":168380.23000000138,"y":2550483.0200000014}},{"attributes":{"ID":616613,"DIS_CODE":0,"TOWNNAME":"安南區","LI":"總頭里","LIN":"2鄰","STREET":"總安街","SECT":"二段","MAREA":" ","LANE":" ","ALLEY":" ","HOUSE_NO":"３３２號","E_COORD97":168374.5,"N_COORD97":2550512.2799999998,"ADDRESS":"總安街二段３３２號","OBJECTID":616586},"geometry":{"x":168374.50000000093,"y":2550512.2800000012}},{"attributes":{"ID":616614,"DIS_CODE":0,"TOWNNAME":"安南區","LI":"總頭里","LIN":"2鄰","STREET":"總安街","SECT":"二段","MAREA":" ","LANE":" ","ALLEY":" ","HOUSE_NO":"３５９號","E_COORD97":168308.14999999999,"N_COORD97":2550469.8700000001,"ADDRESS":"總安街二段３５９號","OBJECTID":616587},"geometry":{"x":168308.1500000013,"y":2550469.870000001}},{"attributes":{"ID":616615,"DIS_CODE":0,"TOWNNAME":"安南區","LI":"總頭里","LIN":"2鄰","STREET":"總安街","SECT":"二段","MAREA":" ","LANE":" ","ALLEY":" ","HOUSE_NO":"３６１號","E_COORD97":168308.14999999999,"N_COORD97":2550483.8599999999,"ADDRESS":"總安街二段３６１號","OBJECTID":616588},"geometry":{"x":168308.1500000013,"y":2550483.8600000013}},{"attributes":{"ID":616616,"DIS_CODE":0,"TOWNNAME":"安南區","LI":"海東里","LIN":"2鄰","STREET":"海環街","SECT":" ","MAREA":" ","LANE":" ","ALLEY":" ","HOUSE_NO":"５９２號","E_COORD97":166410.29000000001,"N_COORD97":2549260.3799999999,"ADDRESS":"海環街５９２號","OBJECTID":616589},"geometry":{"x":166410.29000000004,"y":2549260.3800000008}},{"attributes":{"ID":616617,"DIS_CODE":0,"TOWNNAME":"安南區","LI":"海東里","LIN":"2鄰","STREET":"海環街","SECT":" ","MAREA":" ","LANE":" ","ALLEY":" ","HOUSE_NO":"６４８號","E_COORD97":166517.17999999999,"N_COORD97":2549299.0800000001,"ADDRESS":"海環街６４８號","OBJECTID":616590},"geometry":{"x":166517.18000000063,"y":2549299.0800000038}},{"attributes":{"ID":616618,"DIS_CODE":0,"TOWNNAME":"麻豆區","LI":"中興里","LIN":"2鄰","STREET":"中華街","SECT":" ","MAREA":" ","LANE":" ","ALLEY":" ","HOUSE_NO":"３２號之８","E_COORD97":172881.54000000001,"N_COORD97":2564696.8300000001,"ADDRESS":"中華街３２號之８","OBJECTID":616591},"geometry":{"x":172881.53999999911,"y":2564696.8300000038}},{"attributes":{"ID":616619,"DIS_CODE":0,"TOWNNAME":"中西區","LI":"郡西里","LIN":"2鄰","STREET":"永華路","SECT":"一段","MAREA":" ","LANE":" ","ALLEY":" ","HOUSE_NO":"１０６號","E_COORD97":167381.47,"N_COORD97":2543168.7799999998,"ADDRESS":"永華路一段１０６號","OBJECTID":616592},"geometry":{"x":167381.47000000067,"y":2543168.7800000012}},{"attributes":{"ID":616620,"DIS_CODE":0,"TOWNNAME":"中西區","LI":"五妃里","LIN":"2鄰","STREET":"南門路","SECT":" ","MAREA":" ","LANE":" ","ALLEY":" ","HOUSE_NO":"２４１號之１","E_COORD97":168381.73999999999,"N_COORD97":2542566.8700000001,"ADDRESS":"南門路２４１號之１","OBJECTID":616593},"geometry":{"x":168381.74000000115,"y":2542566.870000001}},{"attributes":{"ID":616621,"DIS_CODE":0,"TOWNNAME":"中西區","LI":"五妃里","LIN":"2鄰","STREET":"南門路","SECT":" ","MAREA":" ","LANE":" ","ALLEY":" ","HOUSE_NO":"２４１號之２","E_COORD97":168380.94,"N_COORD97":2542562.3399999999,"ADDRESS":"南門路２４１號之２","OBJECTID":616594},"geometry":{"x":168380.94000000134,"y":2542562.3399999999}},{"attributes":{"ID":616622,"DIS_CODE":0,"TOWNNAME":"中西區","LI":"五妃里","LIN":"2鄰","STREET":"南門路","SECT":" ","MAREA":" ","LANE":" ","ALLEY":" ","HOUSE_NO":"２４１號之３","E_COORD97":168381.01000000001,"N_COORD97":2542557.9700000002,"ADDRESS":"南門路２４１號之３","OBJECTID":616595},"geometry":{"x":168381.01000000071,"y":2542557.9700000025}},{"attributes":{"ID":616623,"DIS_CODE":0,"TOWNNAME":"中西區","LI":"五妃里","LIN":"2鄰","STREET":"南門路","SECT":" ","MAREA":" ","LANE":" ","ALLEY":" ","HOUSE_NO":"２４１號之４","E_COORD97":168380.57999999999,"N_COORD97":2542554.25,"ADDRESS":"南門路２４１號之４","OBJECTID":616596},"geometry":{"x":168380.57999999914,"y":2542554.2499999981}},{"attributes":{"ID":616624,"DIS_CODE":0,"TOWNNAME":"中西區","LI":"五妃里","LIN":"2鄰","STREET":"南門路","SECT":" ","MAREA":" ","LANE":" ","ALLEY":" ","HOUSE_NO":"２４３號之５","E_COORD97":168403.75,"N_COORD97":2542538.1699999999,"ADDRESS":"南門路２４３號之５","OBJECTID":616597},"geometry":{"x":168403.75000000093,"y":2542538.1700000037}},{"attributes":{"ID":616625,"DIS_CODE":0,"TOWNNAME":"中西區","LI":"仙草里","LIN":"2鄰","STREET":"五妃街","SECT":" ","MAREA":" ","LANE":" ","ALLEY":" ","HOUSE_NO":"３２４號","E_COORD97":167785.26000000001,"N_COORD97":2542594.4700000002,"ADDRESS":"五妃街３２４號","OBJECTID":616598},"geometry":{"x":167785.25999999978,"y":2542594.4700000044}},{"attributes":{"ID":616626,"DIS_CODE":0,"TOWNNAME":"中西區","LI":"仙草里","LIN":"2鄰","STREET":"五妃街","SECT":" ","MAREA":" ","LANE":" ","ALLEY":" ","HOUSE_NO":"３２６號","E_COORD97":167781.69,"N_COORD97":2542603.98,"ADDRESS":"五妃街３２６號","OBJECTID":616599},"geometry":{"x":167781.69000000041,"y":2542603.9800000004}},{"attributes":{"ID":616627,"DIS_CODE":0,"TOWNNAME":"安南區","LI":"溪心里","LIN":"2鄰","STREET":"海佃路","SECT":"二段","MAREA":" ","LANE":" ","ALLEY":" ","HOUSE_NO":"６５１號","E_COORD97":166476.78,"N_COORD97":2549548.8700000001,"ADDRESS":"海佃路二段６５１號","OBJECTID":616600},"geometry":{"x":166476.78000000026,"y":2549548.870000001}}]}