{"displayFieldName":"TOWNNAME","fieldAliases":{"ID":"ID","DIS_CODE":"DIS_CODE","TOWNNAME":"TOWNNAME","LI":"LI","LIN":"LIN","STREET":"STREET","SECT":"SECT","MAREA":"MAREA","LANE":"LANE","ALLEY":"ALLEY","HOUSE_NO":"HOUSE_NO","E_COORD97":"E_COORD97","N_COORD97":"N_COORD97","ADDRESS":"ADDRESS","OBJECTID":"OBJECTID"},"geometryType":"esriGeometryPoint","spatialReference":{"wkid":102443,"latestWkid":3826},"fields":[{"name":"ID","type":"esriFieldTypeDouble","alias":"ID"},{"name":"DIS_CODE","type":"esriFieldTypeInteger","alias":"DIS_CODE"},{"name":"TOWNNAME","type":"esriFieldTypeString","alias":"TOWNNAME","length":8},{"name":"LI","type":"esriFieldTypeString","alias":"LI","length":8},{"name":"LIN","type":"esriFieldTypeString","alias":"LIN","length":12},{"name":"STREET","type":"esriFieldTypeString","alias":"STREET","length":20},{"name":"SECT","type":"esriFieldTypeString","alias":"SECT","length":8},{"name":"MAREA","type":"esriFieldTypeString","alias":"MAREA","length":12},{"name":"LANE","type":"esriFieldTypeString","alias":"LANE","length":10},{"name":"ALLEY","type":"esriFieldTypeString","alias":"ALLEY","length":10},{"name":"HOUSE_NO","type":"esriFieldTypeString","alias":"HOUSE_NO","length":20},{"name":"E_COORD97","type":"esriFieldTypeDouble","alias":"E_COORD97"},{"name":"N_COORD97","type":"esriFieldTypeDouble","alias":"N_COORD97"},{"name":"ADDRESS","type":"esriFieldTypeString","alias":"ADDRESS","length":50},{"name":"OBJECTID","type":"esriFieldTypeOID","alias":"OBJECTID"}],"features":[{"attributes":{"ID":221602,"DIS_CODE":0,"TOWNNAME":"永康區","LI":"復華里","LIN":"9鄰","STREET":"復國二路","SECT":" ","MAREA":" ","LANE":"２１５巷","ALLEY":" ","HOUSE_NO":"３０號九樓之２","E_COORD97":172918.38,"N_COORD97":2546062.6000000001,"ADDRESS":"復國二路２１５巷３０號九樓之２","OBJECTID":221601},"geometry":{"x":172918.38000000082,"y":2546062.5999999996}},{"attributes":{"ID":221603,"DIS_CODE":0,"TOWNNAME":"永康區","LI":"埔園里","LIN":"9鄰","STREET":"中山路","SECT":" ","MAREA":" ","LANE":"１０１巷","ALLEY":" ","HOUSE_NO":"２號之１四樓之２","E_COORD97":173738.35999999999,"N_COORD97":2547819.29,"ADDRESS":"中山路１０１巷２號之１四樓之２","OBJECTID":221602},"geometry":{"x":173738.36000000127,"y":2547819.290000001}},{"attributes":{"ID":221604,"DIS_CODE":0,"TOWNNAME":"永康區","LI":"埔園里","LIN":"9鄰","STREET":"中山路","SECT":" ","MAREA":" ","LANE":"１０１巷","ALLEY":" ","HOUSE_NO":"２號之１八樓之２","E_COORD97":173738.35999999999,"N_COORD97":2547819.29,"ADDRESS":"中山路１０１巷２號之１八樓之２","OBJECTID":221603},"geometry":{"x":173738.36000000127,"y":2547819.290000001}},{"attributes":{"ID":221605,"DIS_CODE":0,"TOWNNAME":"永康區","LI":"復華里","LIN":"9鄰","STREET":"復國二路","SECT":" ","MAREA":" ","LANE":"２１５巷","ALLEY":" ","HOUSE_NO":"３２號十樓之２","E_COORD97":172914.13,"N_COORD97":2546065.1000000001,"ADDRESS":"復國二路２１５巷３２號十樓之２","OBJECTID":221604},"geometry":{"x":172914.12999999989,"y":2546065.1000000015}},{"attributes":{"ID":221606,"DIS_CODE":0,"TOWNNAME":"永康區","LI":"復華里","LIN":"9鄰","STREET":"復國二路","SECT":" ","MAREA":" ","LANE":"２１５巷","ALLEY":" ","HOUSE_NO":"３６號六樓之２","E_COORD97":172910.54000000001,"N_COORD97":2546067.8500000001,"ADDRESS":"復國二路２１５巷３６號六樓之２","OBJECTID":221605},"geometry":{"x":172910.5400000019,"y":2546067.8499999996}},{"attributes":{"ID":221607,"DIS_CODE":0,"TOWNNAME":"新營區","LI":"永生里","LIN":"9鄰","STREET":"康樂街","SECT":" ","MAREA":" ","LANE":"１巷","ALLEY":" ","HOUSE_NO":"２號五樓","E_COORD97":180066.60000000001,"N_COORD97":2577917.9199999999,"ADDRESS":"康樂街１巷２號五樓","OBJECTID":221606},"geometry":{"x":180066.5999999987,"y":2577917.9199999999}},{"attributes":{"ID":221608,"DIS_CODE":0,"TOWNNAME":"安平區","LI":"億載里","LIN":"9鄰","STREET":"永華十一街","SECT":" ","MAREA":" ","LANE":"１７巷","ALLEY":" ","HOUSE_NO":"３５號一樓之１","E_COORD97":163998.34,"N_COORD97":2543412.3199999998,"ADDRESS":"永華十一街１７巷３５號一樓之１","OBJECTID":221607},"geometry":{"x":163998.34000000171,"y":2543412.320000004}},{"attributes":{"ID":221609,"DIS_CODE":0,"TOWNNAME":"安平區","LI":"怡平里","LIN":"9鄰","STREET":"建平十二街","SECT":" ","MAREA":" ","LANE":"１４８巷","ALLEY":" ","HOUSE_NO":"１６號二樓之１","E_COORD97":165796.56,"N_COORD97":2544082.0499999998,"ADDRESS":"建平十二街１４８巷１６號二樓之１","OBJECTID":221608},"geometry":{"x":165796.55999999959,"y":2544082.0500000007}},{"attributes":{"ID":221610,"DIS_CODE":0,"TOWNNAME":"安平區","LI":"怡平里","LIN":"9鄰","STREET":"建平十二街","SECT":" ","MAREA":" ","LANE":"１４８巷","ALLEY":" ","HOUSE_NO":"１６號二樓之２","E_COORD97":165796.56,"N_COORD97":2544082.0499999998,"ADDRESS":"建平十二街１４８巷１６號二樓之２","OBJECTID":221609},"geometry":{"x":165796.55999999959,"y":2544082.0500000007}},{"attributes":{"ID":221611,"DIS_CODE":0,"TOWNNAME":"北區","LI":"長德里","LIN":"9鄰","STREET":"西門路","SECT":"三段","MAREA":" ","LANE":"２３２巷","ALLEY":" ","HOUSE_NO":"１８號七樓之１","E_COORD97":168499.72,"N_COORD97":2544948.7799999998,"ADDRESS":"西門路三段２３２巷１８號七樓之１","OBJECTID":221610},"geometry":{"x":168499.7200000016,"y":2544948.7800000012}},{"attributes":{"ID":221612,"DIS_CODE":0,"TOWNNAME":"安平區","LI":"億載里","LIN":"9鄰","STREET":"永華十一街","SECT":" ","MAREA":" ","LANE":"１７巷","ALLEY":" ","HOUSE_NO":"３５號五樓之２","E_COORD97":163998.34,"N_COORD97":2543412.3199999998,"ADDRESS":"永華十一街１７巷３５號五樓之２","OBJECTID":221611},"geometry":{"x":163998.34000000171,"y":2543412.320000004}},{"attributes":{"ID":221613,"DIS_CODE":0,"TOWNNAME":"安平區","LI":"億載里","LIN":"9鄰","STREET":"永華十一街","SECT":" ","MAREA":" ","LANE":"１７巷","ALLEY":" ","HOUSE_NO":"３５號五樓之４","E_COORD97":163998.34,"N_COORD97":2543412.3199999998,"ADDRESS":"永華十一街１７巷３５號五樓之４","OBJECTID":221612},"geometry":{"x":163998.34000000171,"y":2543412.320000004}},{"attributes":{"ID":221614,"DIS_CODE":0,"TOWNNAME":"安平區","LI":"億載里","LIN":"9鄰","STREET":"永華十一街","SECT":" ","MAREA":" ","LANE":"１７巷","ALLEY":" ","HOUSE_NO":"３５號五樓之５","E_COORD97":163998.34,"N_COORD97":2543412.3199999998,"ADDRESS":"永華十一街１７巷３５號五樓之５","OBJECTID":221613},"geometry":{"x":163998.34000000171,"y":2543412.320000004}},{"attributes":{"ID":221615,"DIS_CODE":0,"TOWNNAME":"安平區","LI":"億載里","LIN":"9鄰","STREET":"永華十一街","SECT":" ","MAREA":" ","LANE":"１７巷","ALLEY":" ","HOUSE_NO":"３５號六樓之４","E_COORD97":163998.34,"N_COORD97":2543412.3199999998,"ADDRESS":"永華十一街１７巷３５號六樓之４","OBJECTID":221614},"geometry":{"x":163998.34000000171,"y":2543412.320000004}},{"attributes":{"ID":221616,"DIS_CODE":0,"TOWNNAME":"安平區","LI":"億載里","LIN":"9鄰","STREET":"永華十一街","SECT":" ","MAREA":" ","LANE":"１７巷","ALLEY":" ","HOUSE_NO":"３５號六樓之５","E_COORD97":163998.34,"N_COORD97":2543412.3199999998,"ADDRESS":"永華十一街１７巷３５號六樓之５","OBJECTID":221615},"geometry":{"x":163998.34000000171,"y":2543412.320000004}},{"attributes":{"ID":221617,"DIS_CODE":0,"TOWNNAME":"安平區","LI":"億載里","LIN":"9鄰","STREET":"永華十一街","SECT":" ","MAREA":" ","LANE":"１７巷","ALLEY":" ","HOUSE_NO":"３５號四樓之２","E_COORD97":163998.34,"N_COORD97":2543412.3199999998,"ADDRESS":"永華十一街１７巷３５號四樓之２","OBJECTID":221616},"geometry":{"x":163998.34000000171,"y":2543412.320000004}},{"attributes":{"ID":221618,"DIS_CODE":0,"TOWNNAME":"安平區","LI":"億載里","LIN":"9鄰","STREET":"永華十一街","SECT":" ","MAREA":" ","LANE":"１７巷","ALLEY":" ","HOUSE_NO":"３５號四樓之５","E_COORD97":163998.34,"N_COORD97":2543412.3199999998,"ADDRESS":"永華十一街１７巷３５號四樓之５","OBJECTID":221617},"geometry":{"x":163998.34000000171,"y":2543412.320000004}},{"attributes":{"ID":221619,"DIS_CODE":0,"TOWNNAME":"安平區","LI":"億載里","LIN":"9鄰","STREET":"永華十一街","SECT":" ","MAREA":" ","LANE":"１７巷","ALLEY":" ","HOUSE_NO":"３５號四樓之６","E_COORD97":163998.34,"N_COORD97":2543412.3199999998,"ADDRESS":"永華十一街１７巷３５號四樓之６","OBJECTID":221618},"geometry":{"x":163998.34000000171,"y":2543412.320000004}},{"attributes":{"ID":221620,"DIS_CODE":0,"TOWNNAME":"仁德區","LI":"太子里","LIN":"30鄰","STREET":"太子路","SECT":" ","MAREA":" ","LANE":"６１３巷","ALLEY":" ","HOUSE_NO":"２２號","E_COORD97":173779.32000000001,"N_COORD97":2543392.75,"ADDRESS":"太子路６１３巷２２號","OBJECTID":221619},"geometry":{"x":173779.3200000003,"y":2543392.7500000019}},{"attributes":{"ID":221621,"DIS_CODE":0,"TOWNNAME":"仁德區","LI":"太子里","LIN":"47鄰","STREET":"太子路","SECT":" ","MAREA":" ","LANE":"９巷","ALLEY":" ","HOUSE_NO":"１８號","E_COORD97":175461.53,"N_COORD97":2543489,"ADDRESS":"太子路９巷１８號","OBJECTID":221620},"geometry":{"x":175461.53000000026,"y":2543489.0000000019}},{"attributes":{"ID":221622,"DIS_CODE":0,"TOWNNAME":"仁德區","LI":"太子里","LIN":"30鄰","STREET":"太子路","SECT":" ","MAREA":" ","LANE":"６１３巷","ALLEY":" ","HOUSE_NO":"１７號","E_COORD97":173783.54999999999,"N_COORD97":2543468.5,"ADDRESS":"太子路６１３巷１７號","OBJECTID":221621},"geometry":{"x":173783.55000000075,"y":2543468.5000000019}},{"attributes":{"ID":221623,"DIS_CODE":0,"TOWNNAME":"仁德區","LI":"仁德里","LIN":"24鄰","STREET":"文心路","SECT":" ","MAREA":" ","LANE":"１１巷","ALLEY":" ","HOUSE_NO":"６號","E_COORD97":172126.37,"N_COORD97":2541350.3300000001,"ADDRESS":"文心路１１巷６號","OBJECTID":221622},"geometry":{"x":172126.37000000011,"y":2541350.3299999982}},{"attributes":{"ID":221624,"DIS_CODE":0,"TOWNNAME":"仁德區","LI":"仁義里","LIN":"10鄰","STREET":"仁義一街","SECT":" ","MAREA":" ","LANE":"４８巷","ALLEY":" ","HOUSE_NO":"１１號","E_COORD97":173419.25,"N_COORD97":2541159.77,"ADDRESS":"仁義一街４８巷１１號","OBJECTID":221623},"geometry":{"x":173419.25000000186,"y":2541159.7699999996}},{"attributes":{"ID":221625,"DIS_CODE":0,"TOWNNAME":"東區","LI":"東安里","LIN":"14鄰","STREET":"長榮路","SECT":"二段","MAREA":" ","LANE":"３２巷","ALLEY":" ","HOUSE_NO":"２２５號","E_COORD97":170221.92999999999,"N_COORD97":2543121.3100000001,"ADDRESS":"長榮路二段３２巷２２５號","OBJECTID":221624},"geometry":{"x":170221.9299999997,"y":2543121.3100000024}},{"attributes":{"ID":221626,"DIS_CODE":0,"TOWNNAME":"東區","LI":"東安里","LIN":"12鄰","STREET":"長榮路","SECT":"二段","MAREA":" ","LANE":"３２巷","ALLEY":" ","HOUSE_NO":"９０號","E_COORD97":170144.76000000001,"N_COORD97":2543201.8399999999,"ADDRESS":"長榮路二段３２巷９０號","OBJECTID":221625},"geometry":{"x":170144.75999999978,"y":2543201.8400000017}},{"attributes":{"ID":221627,"DIS_CODE":0,"TOWNNAME":"安平區","LI":"平安里","LIN":"9鄰","STREET":"安平路","SECT":" ","MAREA":" ","LANE":"４２６巷","ALLEY":" ","HOUSE_NO":"１８號二樓之１","E_COORD97":165352.09,"N_COORD97":2544386.6099999999,"ADDRESS":"安平路４２６巷１８號二樓之１","OBJECTID":221626},"geometry":{"x":165352.08999999985,"y":2544386.6100000013}},{"attributes":{"ID":221628,"DIS_CODE":0,"TOWNNAME":"安平區","LI":"平安里","LIN":"9鄰","STREET":"安平路","SECT":" ","MAREA":" ","LANE":"４２６巷","ALLEY":" ","HOUSE_NO":"１８號三樓之１","E_COORD97":165352.09,"N_COORD97":2544386.6099999999,"ADDRESS":"安平路４２６巷１８號三樓之１","OBJECTID":221627},"geometry":{"x":165352.08999999985,"y":2544386.6100000013}},{"attributes":{"ID":221629,"DIS_CODE":0,"TOWNNAME":"安平區","LI":"平安里","LIN":"9鄰","STREET":"安平路","SECT":" ","MAREA":" ","LANE":"４２６巷","ALLEY":" ","HOUSE_NO":"１８號三樓之２","E_COORD97":165352.09,"N_COORD97":2544386.6099999999,"ADDRESS":"安平路４２６巷１８號三樓之２","OBJECTID":221628},"geometry":{"x":165352.08999999985,"y":2544386.6100000013}},{"attributes":{"ID":221630,"DIS_CODE":0,"TOWNNAME":"安南區","LI":"安慶里","LIN":"9鄰","STREET":"長溪路","SECT":"一段","MAREA":" ","LANE":"３４２巷","ALLEY":" ","HOUSE_NO":"１６號","E_COORD97":168736.28,"N_COORD97":2548894.5,"ADDRESS":"長溪路一段３４２巷１６號","OBJECTID":221629},"geometry":{"x":168736.28000000119,"y":2548894.5000000019}},{"attributes":{"ID":221631,"DIS_CODE":0,"TOWNNAME":"安南區","LI":"青草里","LIN":"9鄰","STREET":"青砂街","SECT":"二段","MAREA":" ","LANE":"２９９巷","ALLEY":" ","HOUSE_NO":"４號","E_COORD97":159198.01000000001,"N_COORD97":2553068.21,"ADDRESS":"青砂街二段２９９巷４號","OBJECTID":221630},"geometry":{"x":159198.01000000164,"y":2553068.2100000009}},{"attributes":{"ID":221632,"DIS_CODE":0,"TOWNNAME":"安南區","LI":"青草里","LIN":"9鄰","STREET":"青砂街","SECT":"二段","MAREA":" ","LANE":"２９９巷","ALLEY":" ","HOUSE_NO":"１０號","E_COORD97":159188.57999999999,"N_COORD97":2553056.96,"ADDRESS":"青砂街二段２９９巷１０號","OBJECTID":221631},"geometry":{"x":159188.58000000007,"y":2553056.9600000009}},{"attributes":{"ID":221633,"DIS_CODE":0,"TOWNNAME":"白河區","LI":"關嶺里","LIN":"11鄰","STREET":" ","SECT":" ","MAREA":"南寮","LANE":" ","ALLEY":" ","HOUSE_NO":"５３號","E_COORD97":199353.41,"N_COORD97":2577946.4700000002,"ADDRESS":"南寮５３號","OBJECTID":221632},"geometry":{"x":199353.41000000108,"y":2577946.4700000025}},{"attributes":{"ID":221634,"DIS_CODE":0,"TOWNNAME":"安南區","LI":"青草里","LIN":"9鄰","STREET":"青砂街","SECT":"二段","MAREA":" ","LANE":"２９９巷","ALLEY":" ","HOUSE_NO":"１２號","E_COORD97":159184.13,"N_COORD97":2553054.8700000001,"ADDRESS":"青砂街二段２９９巷１２號","OBJECTID":221633},"geometry":{"x":159184.13000000082,"y":2553054.8700000048}},{"attributes":{"ID":221635,"DIS_CODE":0,"TOWNNAME":"安南區","LI":"青草里","LIN":"9鄰","STREET":"青砂街","SECT":"二段","MAREA":" ","LANE":"２９９巷","ALLEY":" ","HOUSE_NO":"１４號","E_COORD97":159179.94,"N_COORD97":2553051.9900000002,"ADDRESS":"青砂街二段２９９巷１４號","OBJECTID":221634},"geometry":{"x":159179.94000000041,"y":2553051.9900000002}},{"attributes":{"ID":221636,"DIS_CODE":0,"TOWNNAME":"安南區","LI":"青草里","LIN":"9鄰","STREET":"青砂街","SECT":"二段","MAREA":" ","LANE":"２９９巷","ALLEY":" ","HOUSE_NO":"１６號","E_COORD97":159175.48000000001,"N_COORD97":2553049.8999999999,"ADDRESS":"青砂街二段２９９巷１６號","OBJECTID":221635},"geometry":{"x":159175.48000000138,"y":2553049.9000000004}},{"attributes":{"ID":221637,"DIS_CODE":0,"TOWNNAME":"東區","LI":"中西里","LIN":"28鄰","STREET":"東寧路","SECT":" ","MAREA":" ","LANE":" ","ALLEY":" ","HOUSE_NO":"１５４號之７八樓","E_COORD97":170337.32000000001,"N_COORD97":2543502.2599999998,"ADDRESS":"東寧路１５４號之７八樓","OBJECTID":221636},"geometry":{"x":170337.32000000216,"y":2543502.2599999998}},{"attributes":{"ID":221638,"DIS_CODE":0,"TOWNNAME":"東區","LI":"中西里","LIN":"28鄰","STREET":"東寧路","SECT":" ","MAREA":" ","LANE":" ","ALLEY":" ","HOUSE_NO":"１５４號之７九樓","E_COORD97":170337.32000000001,"N_COORD97":2543502.2599999998,"ADDRESS":"東寧路１５４號之７九樓","OBJECTID":221637},"geometry":{"x":170337.32000000216,"y":2543502.2599999998}},{"attributes":{"ID":221639,"DIS_CODE":0,"TOWNNAME":"東區","LI":"中西里","LIN":"28鄰","STREET":"東寧路","SECT":" ","MAREA":" ","LANE":" ","ALLEY":" ","HOUSE_NO":"１５４號之７十樓","E_COORD97":170337.32000000001,"N_COORD97":2543502.2599999998,"ADDRESS":"東寧路１５４號之７十樓","OBJECTID":221638},"geometry":{"x":170337.32000000216,"y":2543502.2599999998}},{"attributes":{"ID":221640,"DIS_CODE":0,"TOWNNAME":"東區","LI":"中西里","LIN":"28鄰","STREET":"東寧路","SECT":" ","MAREA":" ","LANE":" ","ALLEY":" ","HOUSE_NO":"１５４號之７十一樓","E_COORD97":170337.32000000001,"N_COORD97":2543502.2599999998,"ADDRESS":"東寧路１５４號之７十一樓","OBJECTID":221639},"geometry":{"x":170337.32000000216,"y":2543502.2599999998}},{"attributes":{"ID":221641,"DIS_CODE":0,"TOWNNAME":"安南區","LI":"青草里","LIN":"9鄰","STREET":"青砂街","SECT":"二段","MAREA":" ","LANE":"２９９巷","ALLEY":" ","HOUSE_NO":"２６號","E_COORD97":159152.44,"N_COORD97":2553034.4399999999,"ADDRESS":"青砂街二段２９９巷２６號","OBJECTID":221640},"geometry":{"x":159152.44000000134,"y":2553034.4399999995}},{"attributes":{"ID":221642,"DIS_CODE":0,"TOWNNAME":"東區","LI":"中西里","LIN":"28鄰","STREET":"東寧路","SECT":" ","MAREA":" ","LANE":" ","ALLEY":" ","HOUSE_NO":"１５４號之７十二樓","E_COORD97":170337.32000000001,"N_COORD97":2543502.2599999998,"ADDRESS":"東寧路１５４號之７十二樓","OBJECTID":221641},"geometry":{"x":170337.32000000216,"y":2543502.2599999998}},{"attributes":{"ID":221643,"DIS_CODE":0,"TOWNNAME":"安南區","LI":"青草里","LIN":"9鄰","STREET":"青砂街","SECT":"二段","MAREA":" ","LANE":"２９９巷","ALLEY":" ","HOUSE_NO":"２８號","E_COORD97":159148.76999999999,"N_COORD97":2553031.5600000001,"ADDRESS":"青砂街二段２９９巷２８號","OBJECTID":221642},"geometry":{"x":159148.77000000048,"y":2553031.5600000005}},{"attributes":{"ID":221644,"DIS_CODE":0,"TOWNNAME":"安南區","LI":"青草里","LIN":"9鄰","STREET":"青砂街","SECT":"二段","MAREA":" ","LANE":"２９９巷","ALLEY":" ","HOUSE_NO":"３０號","E_COORD97":159145.10000000001,"N_COORD97":2553028.9500000002,"ADDRESS":"青砂街二段２９９巷３０號","OBJECTID":221643},"geometry":{"x":159145.10000000056,"y":2553028.9500000011}},{"attributes":{"ID":221645,"DIS_CODE":0,"TOWNNAME":"安南區","LI":"青草里","LIN":"9鄰","STREET":"青砂街","SECT":"二段","MAREA":" ","LANE":"２９９巷","ALLEY":" ","HOUSE_NO":"３２號","E_COORD97":159141.44,"N_COORD97":2553026.3300000001,"ADDRESS":"青砂街二段２９９巷３２號","OBJECTID":221644},"geometry":{"x":159141.44000000227,"y":2553026.3300000001}},{"attributes":{"ID":221646,"DIS_CODE":0,"TOWNNAME":"安南區","LI":"青草里","LIN":"9鄰","STREET":"青砂街","SECT":"二段","MAREA":" ","LANE":"２９９巷","ALLEY":" ","HOUSE_NO":"３４號","E_COORD97":159137.23999999999,"N_COORD97":2553023.98,"ADDRESS":"青砂街二段２９９巷３４號","OBJECTID":221645},"geometry":{"x":159137.24000000022,"y":2553023.9800000023}},{"attributes":{"ID":221647,"DIS_CODE":0,"TOWNNAME":"安南區","LI":"青草里","LIN":"9鄰","STREET":"青砂街","SECT":"二段","MAREA":" ","LANE":"２９９巷","ALLEY":" ","HOUSE_NO":"３６號","E_COORD97":159133.57999999999,"N_COORD97":2553021.3599999999,"ADDRESS":"青砂街二段２９９巷３６號","OBJECTID":221646},"geometry":{"x":159133.58000000101,"y":2553021.3599999994}},{"attributes":{"ID":221648,"DIS_CODE":0,"TOWNNAME":"安南區","LI":"青草里","LIN":"9鄰","STREET":"青砂街","SECT":"二段","MAREA":" ","LANE":"２９９巷","ALLEY":" ","HOUSE_NO":"３８號","E_COORD97":159129.13,"N_COORD97":2553019.27,"ADDRESS":"青砂街二段２９９巷３８號","OBJECTID":221647},"geometry":{"x":159129.12999999989,"y":2553019.2699999996}},{"attributes":{"ID":221649,"DIS_CODE":0,"TOWNNAME":"安南區","LI":"青草里","LIN":"9鄰","STREET":"青砂街","SECT":"二段","MAREA":" ","LANE":"２９９巷","ALLEY":" ","HOUSE_NO":"２０號","E_COORD97":159164.22,"N_COORD97":2553042.29,"ADDRESS":"青砂街二段２９９巷２０號","OBJECTID":221648},"geometry":{"x":159164.21999999881,"y":2553042.2899999991}},{"attributes":{"ID":221650,"DIS_CODE":0,"TOWNNAME":"安南區","LI":"青草里","LIN":"9鄰","STREET":"青砂街","SECT":"二段","MAREA":" ","LANE":"２９９巷","ALLEY":" ","HOUSE_NO":"２２號","E_COORD97":159160.54999999999,"N_COORD97":2553039.6699999999,"ADDRESS":"青砂街二段２９９巷２２號","OBJECTID":221649},"geometry":{"x":159160.55000000168,"y":2553039.6700000018}},{"attributes":{"ID":221651,"DIS_CODE":0,"TOWNNAME":"安南區","LI":"青草里","LIN":"9鄰","STREET":"青砂街","SECT":"二段","MAREA":" ","LANE":"２９９巷","ALLEY":" ","HOUSE_NO":"２號","E_COORD97":159202.72,"N_COORD97":2553070.04,"ADDRESS":"青砂街二段２９９巷２號","OBJECTID":221650},"geometry":{"x":159202.71999999974,"y":2553070.040000001}},{"attributes":{"ID":221652,"DIS_CODE":0,"TOWNNAME":"安南區","LI":"青草里","LIN":"9鄰","STREET":"青砂街","SECT":"二段","MAREA":" ","LANE":"２９９巷","ALLEY":" ","HOUSE_NO":"６號","E_COORD97":159194.85999999999,"N_COORD97":2553064.2799999998,"ADDRESS":"青砂街二段２９９巷６號","OBJECTID":221651},"geometry":{"x":159194.86000000127,"y":2553064.2800000012}},{"attributes":{"ID":221653,"DIS_CODE":0,"TOWNNAME":"安南區","LI":"青草里","LIN":"9鄰","STREET":"青砂街","SECT":"二段","MAREA":" ","LANE":"２９９巷","ALLEY":" ","HOUSE_NO":"８號","E_COORD97":159191.98000000001,"N_COORD97":2553060.3599999999,"ADDRESS":"青砂街二段２９９巷８號","OBJECTID":221652},"geometry":{"x":159191.97999999952,"y":2553060.3600000013}},{"attributes":{"ID":221654,"DIS_CODE":0,"TOWNNAME":"東區","LI":"中西里","LIN":"11鄰","STREET":"勝利路","SECT":" ","MAREA":" ","LANE":"５２巷","ALLEY":" ","HOUSE_NO":"１９號","E_COORD97":169871.17000000001,"N_COORD97":2543611.1600000001,"ADDRESS":"勝利路５２巷１９號","OBJECTID":221653},"geometry":{"x":169871.16999999993,"y":2543611.160000002}},{"attributes":{"ID":221655,"DIS_CODE":0,"TOWNNAME":"安南區","LI":"淵東里","LIN":"9鄰","STREET":"本原街","SECT":"三段","MAREA":" ","LANE":"３２１巷","ALLEY":" ","HOUSE_NO":"６號","E_COORD97":165342.17999999999,"N_COORD97":2550136.6299999999,"ADDRESS":"本原街三段３２１巷６號","OBJECTID":221654},"geometry":{"x":165342.18000000063,"y":2550136.6300000008}},{"attributes":{"ID":221656,"DIS_CODE":0,"TOWNNAME":"安南區","LI":"淵東里","LIN":"9鄰","STREET":"本原街","SECT":"三段","MAREA":" ","LANE":"３２１巷","ALLEY":" ","HOUSE_NO":"８號","E_COORD97":165346.35000000001,"N_COORD97":2550137.5800000001,"ADDRESS":"本原街三段３２１巷８號","OBJECTID":221655},"geometry":{"x":165346.35000000056,"y":2550137.5800000019}},{"attributes":{"ID":221657,"DIS_CODE":0,"TOWNNAME":"安南區","LI":"州北里","LIN":"9鄰","STREET":"北安路","SECT":"四段","MAREA":" ","LANE":"４２０巷","ALLEY":" ","HOUSE_NO":"１１號","E_COORD97":169554.56,"N_COORD97":2551624.79,"ADDRESS":"北安路四段４２０巷１１號","OBJECTID":221656},"geometry":{"x":169554.55999999959,"y":2551624.7899999991}},{"attributes":{"ID":221658,"DIS_CODE":0,"TOWNNAME":"安南區","LI":"州北里","LIN":"9鄰","STREET":"北安路","SECT":"四段","MAREA":" ","LANE":"４２０巷","ALLEY":" ","HOUSE_NO":"１３號","E_COORD97":169559.34,"N_COORD97":2551624.3999999999,"ADDRESS":"北安路四段４２０巷１３號","OBJECTID":221657},"geometry":{"x":169559.34000000078,"y":2551624.4000000022}},{"attributes":{"ID":221659,"DIS_CODE":0,"TOWNNAME":"安南區","LI":"州北里","LIN":"9鄰","STREET":"北安路","SECT":"四段","MAREA":" ","LANE":"４２０巷","ALLEY":" ","HOUSE_NO":"５號","E_COORD97":169539.98000000001,"N_COORD97":2551626.2000000002,"ADDRESS":"北安路四段４２０巷５號","OBJECTID":221658},"geometry":{"x":169539.98000000138,"y":2551626.1999999993}},{"attributes":{"ID":221660,"DIS_CODE":0,"TOWNNAME":"安南區","LI":"州北里","LIN":"9鄰","STREET":"北安路","SECT":"四段","MAREA":" ","LANE":"４２０巷","ALLEY":" ","HOUSE_NO":"７號","E_COORD97":169544.62,"N_COORD97":2551625.6899999999,"ADDRESS":"北安路四段４２０巷７號","OBJECTID":221659},"geometry":{"x":169544.62000000011,"y":2551625.6899999995}},{"attributes":{"ID":221661,"DIS_CODE":0,"TOWNNAME":"安南區","LI":"州北里","LIN":"9鄰","STREET":"北安路","SECT":"四段","MAREA":" ","LANE":"４２０巷","ALLEY":" ","HOUSE_NO":"９號","E_COORD97":169549.66,"N_COORD97":2551625.04,"ADDRESS":"北安路四段４２０巷９號","OBJECTID":221660},"geometry":{"x":169549.66000000015,"y":2551625.040000001}},{"attributes":{"ID":221662,"DIS_CODE":0,"TOWNNAME":"安南區","LI":"原佃里","LIN":"9鄰","STREET":"本原街","SECT":"一段","MAREA":" ","LANE":"４１３巷","ALLEY":" ","HOUSE_NO":"１７號","E_COORD97":167484.20999999999,"N_COORD97":2550395.8900000001,"ADDRESS":"本原街一段４１３巷１７號","OBJECTID":221661},"geometry":{"x":167484.20999999996,"y":2550395.8899999987}},{"attributes":{"ID":221663,"DIS_CODE":0,"TOWNNAME":"東區","LI":"大學里","LIN":"6鄰","STREET":"大學路","SECT":" ","MAREA":" ","LANE":"１２巷","ALLEY":" ","HOUSE_NO":"６號之５","E_COORD97":170055.31,"N_COORD97":2543976.9500000002,"ADDRESS":"大學路１２巷６號之５","OBJECTID":221662},"geometry":{"x":170055.31000000052,"y":2543976.9500000011}},{"attributes":{"ID":221664,"DIS_CODE":0,"TOWNNAME":"東區","LI":"大學里","LIN":"6鄰","STREET":"大學路","SECT":" ","MAREA":" ","LANE":"１２巷","ALLEY":" ","HOUSE_NO":"２號","E_COORD97":170055.70000000001,"N_COORD97":2544022.6800000002,"ADDRESS":"大學路１２巷２號","OBJECTID":221663},"geometry":{"x":170055.70000000019,"y":2544022.6800000034}},{"attributes":{"ID":221665,"DIS_CODE":0,"TOWNNAME":"東區","LI":"新東里","LIN":"12鄰","STREET":"裕農路","SECT":" ","MAREA":" ","LANE":"１９巷","ALLEY":" ","HOUSE_NO":"４號","E_COORD97":170499.14999999999,"N_COORD97":2542860.9700000002,"ADDRESS":"裕農路１９巷４號","OBJECTID":221664},"geometry":{"x":170499.15000000037,"y":2542860.9700000007}},{"attributes":{"ID":221666,"DIS_CODE":0,"TOWNNAME":"東區","LI":"新東里","LIN":"12鄰","STREET":"裕農路","SECT":" ","MAREA":" ","LANE":"１９巷","ALLEY":" ","HOUSE_NO":"２１號","E_COORD97":170464.45999999999,"N_COORD97":2542906.04,"ADDRESS":"裕農路１９巷２１號","OBJECTID":221665},"geometry":{"x":170464.45999999996,"y":2542906.0399999991}},{"attributes":{"ID":221667,"DIS_CODE":0,"TOWNNAME":"永康區","LI":"復國里","LIN":"9鄰","STREET":"復國二路","SECT":" ","MAREA":" ","LANE":"６９巷","ALLEY":" ","HOUSE_NO":"２號","E_COORD97":172837.97,"N_COORD97":2545234.02,"ADDRESS":"復國二路６９巷２號","OBJECTID":221666},"geometry":{"x":172837.97000000067,"y":2545234.0200000033}},{"attributes":{"ID":221668,"DIS_CODE":0,"TOWNNAME":"永康區","LI":"新樹里","LIN":"9鄰","STREET":"富強路","SECT":"二段","MAREA":" ","LANE":"５６巷","ALLEY":" ","HOUSE_NO":"６３號","E_COORD97":175771.29000000001,"N_COORD97":2547038.5299999998,"ADDRESS":"富強路二段５６巷６３號","OBJECTID":221667},"geometry":{"x":175771.29000000004,"y":2547038.5300000012}},{"attributes":{"ID":221669,"DIS_CODE":0,"TOWNNAME":"永康區","LI":"新樹里","LIN":"9鄰","STREET":"富強路","SECT":"二段","MAREA":" ","LANE":"５６巷","ALLEY":" ","HOUSE_NO":"７１號","E_COORD97":175767.04999999999,"N_COORD97":2547063.4900000002,"ADDRESS":"富強路二段５６巷７１號","OBJECTID":221668},"geometry":{"x":175767.05000000075,"y":2547063.4900000021}},{"attributes":{"ID":221670,"DIS_CODE":0,"TOWNNAME":"永康區","LI":"復國里","LIN":"9鄰","STREET":"復國一路","SECT":" ","MAREA":" ","LANE":"２１０巷","ALLEY":" ","HOUSE_NO":"１７號","E_COORD97":172776.70000000001,"N_COORD97":2545241.27,"ADDRESS":"復國一路２１０巷１７號","OBJECTID":221669},"geometry":{"x":172776.70000000019,"y":2545241.2699999996}},{"attributes":{"ID":221671,"DIS_CODE":0,"TOWNNAME":"東區","LI":"崇善里","LIN":"9鄰","STREET":"仁和路","SECT":" ","MAREA":" ","LANE":"８２巷","ALLEY":" ","HOUSE_NO":"１５號","E_COORD97":171128.09,"N_COORD97":2541649.71,"ADDRESS":"仁和路８２巷１５號","OBJECTID":221670},"geometry":{"x":171128.08999999985,"y":2541649.7100000009}},{"attributes":{"ID":221672,"DIS_CODE":0,"TOWNNAME":"東區","LI":"大智里","LIN":"18鄰","STREET":"長東街","SECT":" ","MAREA":" ","LANE":"４１巷","ALLEY":" ","HOUSE_NO":"２１０號","E_COORD97":171215.48000000001,"N_COORD97":2540540.4900000002,"ADDRESS":"長東街４１巷２１０號","OBJECTID":221671},"geometry":{"x":171215.48000000045,"y":2540540.4900000021}},{"attributes":{"ID":221673,"DIS_CODE":0,"TOWNNAME":"東區","LI":"大智里","LIN":"18鄰","STREET":"長東街","SECT":" ","MAREA":" ","LANE":"４１巷","ALLEY":" ","HOUSE_NO":"２１２號","E_COORD97":171214.29999999999,"N_COORD97":2540551.8700000001,"ADDRESS":"長東街４１巷２１２號","OBJECTID":221672},"geometry":{"x":171214.29999999981,"y":2540551.8700000029}},{"attributes":{"ID":221674,"DIS_CODE":0,"TOWNNAME":"東區","LI":"大智里","LIN":"18鄰","STREET":"長東街","SECT":" ","MAREA":" ","LANE":"４１巷","ALLEY":" ","HOUSE_NO":"２１４號","E_COORD97":171212.87,"N_COORD97":2540555.9100000001,"ADDRESS":"長東街４１巷２１４號","OBJECTID":221673},"geometry":{"x":171212.87000000011,"y":2540555.9100000001}},{"attributes":{"ID":221675,"DIS_CODE":0,"TOWNNAME":"東區","LI":"大智里","LIN":"18鄰","STREET":"長東街","SECT":" ","MAREA":" ","LANE":"４１巷","ALLEY":" ","HOUSE_NO":"２１６號","E_COORD97":171212.63,"N_COORD97":2540560.1800000002,"ADDRESS":"長東街４１巷２１６號","OBJECTID":221674},"geometry":{"x":171212.62999999989,"y":2540560.1799999997}},{"attributes":{"ID":221676,"DIS_CODE":0,"TOWNNAME":"麻豆區","LI":"中興里","LIN":"9鄰","STREET":"興國路","SECT":" ","MAREA":" ","LANE":"３８巷","ALLEY":" ","HOUSE_NO":"３９號","E_COORD97":172929.88,"N_COORD97":2564412.98,"ADDRESS":"興國路３８巷３９號","OBJECTID":221675},"geometry":{"x":172929.87999999896,"y":2564412.9800000004}},{"attributes":{"ID":221677,"DIS_CODE":0,"TOWNNAME":"麻豆區","LI":"中興里","LIN":"9鄰","STREET":"興國路","SECT":" ","MAREA":" ","LANE":"３８巷","ALLEY":" ","HOUSE_NO":"４０號","E_COORD97":172931.14000000001,"N_COORD97":2564409.3700000001,"ADDRESS":"興國路３８巷４０號","OBJECTID":221676},"geometry":{"x":172931.13999999966,"y":2564409.3700000048}},{"attributes":{"ID":221678,"DIS_CODE":0,"TOWNNAME":"安南區","LI":"城南里","LIN":"9鄰","STREET":"城西街","SECT":"一段","MAREA":" ","LANE":"２４９巷","ALLEY":" ","HOUSE_NO":"１１１號","E_COORD97":160325.45000000001,"N_COORD97":2551107.3799999999,"ADDRESS":"城西街一段２４９巷１１１號","OBJECTID":221677},"geometry":{"x":160325.45000000019,"y":2551107.3800000008}},{"attributes":{"ID":221679,"DIS_CODE":0,"TOWNNAME":"安南區","LI":"城南里","LIN":"9鄰","STREET":"城西街","SECT":"一段","MAREA":" ","LANE":"２４９巷","ALLEY":" ","HOUSE_NO":"７７號","E_COORD97":160376.17000000001,"N_COORD97":2551049.3900000001,"ADDRESS":"城西街一段２４９巷７７號","OBJECTID":221678},"geometry":{"x":160376.16999999993,"y":2551049.3900000006}},{"attributes":{"ID":221680,"DIS_CODE":0,"TOWNNAME":"東區","LI":"圍下里","LIN":"7鄰","STREET":"前鋒路","SECT":" ","MAREA":" ","LANE":"６０巷","ALLEY":" ","HOUSE_NO":"１５號","E_COORD97":169365.54000000001,"N_COORD97":2543611.6499999999,"ADDRESS":"前鋒路６０巷１５號","OBJECTID":221679},"geometry":{"x":169365.54000000004,"y":2543611.6500000022}},{"attributes":{"ID":221681,"DIS_CODE":0,"TOWNNAME":"東區","LI":"圍下里","LIN":"7鄰","STREET":"前鋒路","SECT":" ","MAREA":" ","LANE":"６０巷","ALLEY":" ","HOUSE_NO":"１６號","E_COORD97":169370.20000000001,"N_COORD97":2543612.0600000001,"ADDRESS":"前鋒路６０巷１６號","OBJECTID":221680},"geometry":{"x":169370.20000000112,"y":2543612.0600000024}},{"attributes":{"ID":221682,"DIS_CODE":0,"TOWNNAME":"東區","LI":"圍下里","LIN":"7鄰","STREET":"前鋒路","SECT":" ","MAREA":" ","LANE":"６０巷","ALLEY":" ","HOUSE_NO":"１７號","E_COORD97":169370.59,"N_COORD97":2543606.3700000001,"ADDRESS":"前鋒路６０巷１７號","OBJECTID":221681},"geometry":{"x":169370.59000000078,"y":2543606.3700000029}},{"attributes":{"ID":221683,"DIS_CODE":0,"TOWNNAME":"東區","LI":"圍下里","LIN":"7鄰","STREET":"前鋒路","SECT":" ","MAREA":" ","LANE":"６０巷","ALLEY":" ","HOUSE_NO":"１８號","E_COORD97":169371.10999999999,"N_COORD97":2543599.6000000001,"ADDRESS":"前鋒路６０巷１８號","OBJECTID":221682},"geometry":{"x":169371.11000000127,"y":2543599.6000000034}},{"attributes":{"ID":221684,"DIS_CODE":0,"TOWNNAME":"東區","LI":"圍下里","LIN":"7鄰","STREET":"前鋒路","SECT":" ","MAREA":" ","LANE":"６０巷","ALLEY":" ","HOUSE_NO":"１９號","E_COORD97":169371.72,"N_COORD97":2543593.0299999998,"ADDRESS":"前鋒路６０巷１９號","OBJECTID":221683},"geometry":{"x":169371.72000000067,"y":2543593.0300000031}},{"attributes":{"ID":221685,"DIS_CODE":0,"TOWNNAME":"東區","LI":"圍下里","LIN":"7鄰","STREET":"前鋒路","SECT":" ","MAREA":" ","LANE":"６０巷","ALLEY":" ","HOUSE_NO":"１號","E_COORD97":169317.42999999999,"N_COORD97":2543583.79,"ADDRESS":"前鋒路６０巷１號","OBJECTID":221684},"geometry":{"x":169317.43000000063,"y":2543583.7899999972}},{"attributes":{"ID":221686,"DIS_CODE":0,"TOWNNAME":"東區","LI":"圍下里","LIN":"7鄰","STREET":"前鋒路","SECT":" ","MAREA":" ","LANE":"６０巷","ALLEY":" ","HOUSE_NO":"５號","E_COORD97":169326.88,"N_COORD97":2543584.4100000001,"ADDRESS":"前鋒路６０巷５號","OBJECTID":221685},"geometry":{"x":169326.88000000082,"y":2543584.4100000039}},{"attributes":{"ID":221687,"DIS_CODE":0,"TOWNNAME":"東區","LI":"圍下里","LIN":"7鄰","STREET":"前鋒路","SECT":" ","MAREA":" ","LANE":"６０巷","ALLEY":" ","HOUSE_NO":"７號","E_COORD97":169336.64999999999,"N_COORD97":2543583.0699999998,"ADDRESS":"前鋒路６０巷７號","OBJECTID":221686},"geometry":{"x":169336.65000000224,"y":2543583.0699999984}},{"attributes":{"ID":221688,"DIS_CODE":0,"TOWNNAME":"東區","LI":"圍下里","LIN":"7鄰","STREET":"前鋒路","SECT":" ","MAREA":" ","LANE":"６０巷","ALLEY":" ","HOUSE_NO":"８號","E_COORD97":169357.51999999999,"N_COORD97":2543585.3300000001,"ADDRESS":"前鋒路６０巷８號","OBJECTID":221687},"geometry":{"x":169357.52000000048,"y":2543585.3300000019}},{"attributes":{"ID":221689,"DIS_CODE":0,"TOWNNAME":"東區","LI":"圍下里","LIN":"12鄰","STREET":"前鋒路","SECT":" ","MAREA":" ","LANE":"８５巷","ALLEY":" ","HOUSE_NO":"１１號","E_COORD97":169271.92999999999,"N_COORD97":2543624.8300000001,"ADDRESS":"前鋒路８５巷１１號","OBJECTID":221688},"geometry":{"x":169271.93000000063,"y":2543624.8300000001}},{"attributes":{"ID":221690,"DIS_CODE":0,"TOWNNAME":"東區","LI":"圍下里","LIN":"12鄰","STREET":"前鋒路","SECT":" ","MAREA":" ","LANE":"８５巷","ALLEY":" ","HOUSE_NO":"９號","E_COORD97":169268.5,"N_COORD97":2543606.0699999998,"ADDRESS":"前鋒路８５巷９號","OBJECTID":221689},"geometry":{"x":169268.50000000093,"y":2543606.0700000003}},{"attributes":{"ID":221691,"DIS_CODE":0,"TOWNNAME":"安南區","LI":"城南里","LIN":"9鄰","STREET":"城西街","SECT":"一段","MAREA":" ","LANE":"２４９巷","ALLEY":" ","HOUSE_NO":"７９號","E_COORD97":160376.42000000001,"N_COORD97":2551053.6099999999,"ADDRESS":"城西街一段２４９巷７９號","OBJECTID":221690},"geometry":{"x":160376.41999999993,"y":2551053.6099999994}},{"attributes":{"ID":221692,"DIS_CODE":0,"TOWNNAME":"安南區","LI":"城南里","LIN":"9鄰","STREET":"城西街","SECT":"一段","MAREA":" ","LANE":"２４９巷","ALLEY":" ","HOUSE_NO":"８３號","E_COORD97":160373.88,"N_COORD97":2551064.3999999999,"ADDRESS":"城西街一段２４９巷８３號","OBJECTID":221691},"geometry":{"x":160373.88000000175,"y":2551064.4000000022}},{"attributes":{"ID":221693,"DIS_CODE":0,"TOWNNAME":"安南區","LI":"城南里","LIN":"9鄰","STREET":"城西街","SECT":"一段","MAREA":" ","LANE":"２４９巷","ALLEY":" ","HOUSE_NO":"８７號","E_COORD97":160367.95999999999,"N_COORD97":2551072.8700000001,"ADDRESS":"城西街一段２４９巷８７號","OBJECTID":221692},"geometry":{"x":160367.95999999996,"y":2551072.8700000029}},{"attributes":{"ID":221694,"DIS_CODE":0,"TOWNNAME":"安南區","LI":"城南里","LIN":"9鄰","STREET":"城西街","SECT":"一段","MAREA":" ","LANE":"２４９巷","ALLEY":" ","HOUSE_NO":"９１號","E_COORD97":160368.20999999999,"N_COORD97":2551084.04,"ADDRESS":"城西街一段２４９巷９１號","OBJECTID":221693},"geometry":{"x":160368.21000000183,"y":2551084.0399999991}},{"attributes":{"ID":221695,"DIS_CODE":0,"TOWNNAME":"東區","LI":"圍下里","LIN":"18鄰","STREET":"慶東街","SECT":" ","MAREA":" ","LANE":"１６２巷","ALLEY":" ","HOUSE_NO":"３號","E_COORD97":169696.53,"N_COORD97":2543423.8900000001,"ADDRESS":"慶東街１６２巷３號","OBJECTID":221694},"geometry":{"x":169696.52999999933,"y":2543423.8900000006}},{"attributes":{"ID":221696,"DIS_CODE":0,"TOWNNAME":"東區","LI":"圍下里","LIN":"18鄰","STREET":"慶東街","SECT":" ","MAREA":" ","LANE":"１６２巷","ALLEY":" ","HOUSE_NO":"４號","E_COORD97":169694.79000000001,"N_COORD97":2543411.5099999998,"ADDRESS":"慶東街１６２巷４號","OBJECTID":221695},"geometry":{"x":169694.7900000019,"y":2543411.5100000016}},{"attributes":{"ID":221697,"DIS_CODE":0,"TOWNNAME":"東區","LI":"圍下里","LIN":"18鄰","STREET":"慶東街","SECT":" ","MAREA":" ","LANE":"１６２巷","ALLEY":" ","HOUSE_NO":"５號","E_COORD97":169701.60000000001,"N_COORD97":2543424.0099999998,"ADDRESS":"慶東街１６２巷５號","OBJECTID":221696},"geometry":{"x":169701.59999999963,"y":2543424.0100000035}},{"attributes":{"ID":221698,"DIS_CODE":0,"TOWNNAME":"東區","LI":"圍下里","LIN":"18鄰","STREET":"慶東街","SECT":" ","MAREA":" ","LANE":"１６２巷","ALLEY":" ","HOUSE_NO":"６號","E_COORD97":169699.39999999999,"N_COORD97":2543411.0499999998,"ADDRESS":"慶東街１６２巷６號","OBJECTID":221697},"geometry":{"x":169699.40000000224,"y":2543411.0500000045}},{"attributes":{"ID":221699,"DIS_CODE":0,"TOWNNAME":"東區","LI":"圍下里","LIN":"18鄰","STREET":"慶東街","SECT":" ","MAREA":" ","LANE":"１６２巷","ALLEY":" ","HOUSE_NO":"７號","E_COORD97":169707.01000000001,"N_COORD97":2543424.0099999998,"ADDRESS":"慶東街１６２巷７號","OBJECTID":221698},"geometry":{"x":169707.01000000071,"y":2543424.0100000035}},{"attributes":{"ID":221700,"DIS_CODE":0,"TOWNNAME":"東區","LI":"圍下里","LIN":"18鄰","STREET":"慶東街","SECT":" ","MAREA":" ","LANE":"１６２巷","ALLEY":" ","HOUSE_NO":"８號","E_COORD97":169704.92999999999,"N_COORD97":2543410.8199999998,"ADDRESS":"慶東街１６２巷８號","OBJECTID":221699},"geometry":{"x":169704.9299999997,"y":2543410.8200000003}},{"attributes":{"ID":221701,"DIS_CODE":0,"TOWNNAME":"新市區","LI":"永就里","LIN":"9鄰","STREET":"中山路","SECT":" ","MAREA":" ","LANE":"工業巷","ALLEY":" ","HOUSE_NO":"２號","E_COORD97":177546.01999999999,"N_COORD97":2552017,"ADDRESS":"中山路工業巷２號","OBJECTID":221700},"geometry":{"x":177546.01999999955,"y":2552017.0000000019}},{"attributes":{"ID":221702,"DIS_CODE":0,"TOWNNAME":"新市區","LI":"永就里","LIN":"9鄰","STREET":"中山路","SECT":" ","MAREA":" ","LANE":"１９５巷","ALLEY":" ","HOUSE_NO":"１８號","E_COORD97":177681.20999999999,"N_COORD97":2552017.75,"ADDRESS":"中山路１９５巷１８號","OBJECTID":221701},"geometry":{"x":177681.21000000183,"y":2552017.7500000019}},{"attributes":{"ID":221703,"DIS_CODE":0,"TOWNNAME":"安南區","LI":"州北里","LIN":"9鄰","STREET":"安和路","SECT":"五段","MAREA":" ","LANE":"１７１巷","ALLEY":" ","HOUSE_NO":"１３４號","E_COORD97":169602.57000000001,"N_COORD97":2551674.4300000002,"ADDRESS":"安和路五段１７１巷１３４號","OBJECTID":221702},"geometry":{"x":169602.5700000003,"y":2551674.4300000016}},{"attributes":{"ID":221704,"DIS_CODE":0,"TOWNNAME":"安南區","LI":"安西里","LIN":"9鄰","STREET":"安和路","SECT":"一段","MAREA":" ","LANE":"２８５巷","ALLEY":" ","HOUSE_NO":"２號","E_COORD97":169262.75,"N_COORD97":2548082.2400000002,"ADDRESS":"安和路一段２８５巷２號","OBJECTID":221703},"geometry":{"x":169262.75000000186,"y":2548082.2400000021}},{"attributes":{"ID":221705,"DIS_CODE":0,"TOWNNAME":"安南區","LI":"州南里","LIN":"9鄰","STREET":"安和路","SECT":"五段","MAREA":" ","LANE":"８１巷","ALLEY":" ","HOUSE_NO":"６９號","E_COORD97":169771.57999999999,"N_COORD97":2551618.2400000002,"ADDRESS":"安和路五段８１巷６９號","OBJECTID":221704},"geometry":{"x":169771.58000000007,"y":2551618.2400000021}},{"attributes":{"ID":221706,"DIS_CODE":0,"TOWNNAME":"安南區","LI":"安順里","LIN":"9鄰","STREET":"安和路","SECT":"四段","MAREA":" ","LANE":"１０１巷","ALLEY":" ","HOUSE_NO":"１０號","E_COORD97":169872.39999999999,"N_COORD97":2550370.3399999999,"ADDRESS":"安和路四段１０１巷１０號","OBJECTID":221705},"geometry":{"x":169872.40000000224,"y":2550370.3399999999}},{"attributes":{"ID":221707,"DIS_CODE":0,"TOWNNAME":"東區","LI":"東光里","LIN":"1鄰","STREET":"東寧路","SECT":" ","MAREA":" ","LANE":"４３５巷","ALLEY":" ","HOUSE_NO":"６號","E_COORD97":171084.57999999999,"N_COORD97":2543350.6000000001,"ADDRESS":"東寧路４３５巷６號","OBJECTID":221706},"geometry":{"x":171084.58000000194,"y":2543350.5999999996}},{"attributes":{"ID":221708,"DIS_CODE":0,"TOWNNAME":"安南區","LI":"安和里","LIN":"9鄰","STREET":"安和路","SECT":"一段","MAREA":" ","LANE":"１８巷","ALLEY":" ","HOUSE_NO":"３５號","E_COORD97":169717.98999999999,"N_COORD97":2547519.0699999998,"ADDRESS":"安和路一段１８巷３５號","OBJECTID":221707},"geometry":{"x":169717.99000000115,"y":2547519.0700000003}},{"attributes":{"ID":221709,"DIS_CODE":0,"TOWNNAME":"安南區","LI":"安和里","LIN":"9鄰","STREET":"安和路","SECT":"一段","MAREA":" ","LANE":"１８巷","ALLEY":" ","HOUSE_NO":"３６號","E_COORD97":169721.17000000001,"N_COORD97":2547522.7000000002,"ADDRESS":"安和路一段１８巷３６號","OBJECTID":221708},"geometry":{"x":169721.17000000086,"y":2547522.6999999993}},{"attributes":{"ID":221710,"DIS_CODE":0,"TOWNNAME":"安南區","LI":"溪墘里","LIN":"9鄰","STREET":"海佃路","SECT":"一段","MAREA":" ","LANE":"２７０巷","ALLEY":" ","HOUSE_NO":"１０號","E_COORD97":167178.16,"N_COORD97":2547396.3300000001,"ADDRESS":"海佃路一段２７０巷１０號","OBJECTID":221709},"geometry":{"x":167178.16000000015,"y":2547396.3300000019}},{"attributes":{"ID":221711,"DIS_CODE":0,"TOWNNAME":"東區","LI":"大智里","LIN":"16鄰","STREET":"生產路","SECT":" ","MAREA":" ","LANE":"５５０巷","ALLEY":" ","HOUSE_NO":"５８號","E_COORD97":171132.89000000001,"N_COORD97":2540473.71,"ADDRESS":"生產路５５０巷５８號","OBJECTID":221710},"geometry":{"x":171132.89000000153,"y":2540473.7100000009}},{"attributes":{"ID":221712,"DIS_CODE":0,"TOWNNAME":"東區","LI":"大智里","LIN":"8鄰","STREET":"長東街","SECT":" ","MAREA":" ","LANE":"１０３巷","ALLEY":" ","HOUSE_NO":"１５號","E_COORD97":171057.85999999999,"N_COORD97":2540349.3999999999,"ADDRESS":"長東街１０３巷１５號","OBJECTID":221711},"geometry":{"x":171057.86000000127,"y":2540349.4000000004}},{"attributes":{"ID":221713,"DIS_CODE":0,"TOWNNAME":"東區","LI":"大智里","LIN":"7鄰","STREET":"長東街","SECT":" ","MAREA":" ","LANE":"１０３巷","ALLEY":" ","HOUSE_NO":"２號之１","E_COORD97":171042.26000000001,"N_COORD97":2540333.8599999999,"ADDRESS":"長東街１０３巷２號之１","OBJECTID":221712},"geometry":{"x":171042.26000000164,"y":2540333.8600000013}},{"attributes":{"ID":221714,"DIS_CODE":0,"TOWNNAME":"東區","LI":"大智里","LIN":"7鄰","STREET":"長東街","SECT":" ","MAREA":" ","LANE":"１０３巷","ALLEY":" ","HOUSE_NO":"２號之２","E_COORD97":171047.97,"N_COORD97":2540335,"ADDRESS":"長東街１０３巷２號之２","OBJECTID":221713},"geometry":{"x":171047.97000000067,"y":2540335}},{"attributes":{"ID":221715,"DIS_CODE":0,"TOWNNAME":"東區","LI":"大智里","LIN":"6鄰","STREET":"長東街","SECT":" ","MAREA":" ","LANE":"７９巷","ALLEY":" ","HOUSE_NO":"２之１號","E_COORD97":171042.41,"N_COORD97":2540404.8999999999,"ADDRESS":"長東街７９巷２之１號","OBJECTID":221714},"geometry":{"x":171042.41000000108,"y":2540404.9000000022}},{"attributes":{"ID":221716,"DIS_CODE":0,"TOWNNAME":"東區","LI":"大智里","LIN":"6鄰","STREET":"長東街","SECT":" ","MAREA":" ","LANE":"７９巷","ALLEY":" ","HOUSE_NO":"１０號","E_COORD97":171054.98000000001,"N_COORD97":2540403.5899999999,"ADDRESS":"長東街７９巷１０號","OBJECTID":221715},"geometry":{"x":171054.97999999952,"y":2540403.5900000017}},{"attributes":{"ID":221717,"DIS_CODE":0,"TOWNNAME":"東區","LI":"大智里","LIN":"12鄰","STREET":"長東街","SECT":" ","MAREA":" ","LANE":"１３３巷","ALLEY":" ","HOUSE_NO":"７號","E_COORD97":171045.34,"N_COORD97":2540181.98,"ADDRESS":"長東街１３３巷７號","OBJECTID":221716},"geometry":{"x":171045.34000000078,"y":2540181.9800000004}},{"attributes":{"ID":221718,"DIS_CODE":0,"TOWNNAME":"東區","LI":"大智里","LIN":"12鄰","STREET":"長東街","SECT":" ","MAREA":" ","LANE":"１３３巷","ALLEY":" ","HOUSE_NO":"３７號","E_COORD97":171124.29000000001,"N_COORD97":2540185.71,"ADDRESS":"長東街１３３巷３７號","OBJECTID":221717},"geometry":{"x":171124.29000000097,"y":2540185.709999999}},{"attributes":{"ID":221719,"DIS_CODE":0,"TOWNNAME":"東區","LI":"大智里","LIN":"12鄰","STREET":"長東街","SECT":" ","MAREA":" ","LANE":"１３３巷","ALLEY":" ","HOUSE_NO":"５８號","E_COORD97":171164.89999999999,"N_COORD97":2540168.77,"ADDRESS":"長東街１３３巷５８號","OBJECTID":221718},"geometry":{"x":171164.90000000037,"y":2540168.7700000014}},{"attributes":{"ID":221720,"DIS_CODE":0,"TOWNNAME":"北區","LI":"振興里","LIN":"9鄰","STREET":"開元路","SECT":" ","MAREA":" ","LANE":"１４８巷","ALLEY":" ","HOUSE_NO":"４５號","E_COORD97":170083.72,"N_COORD97":2545046.1600000001,"ADDRESS":"開元路１４８巷４５號","OBJECTID":221719},"geometry":{"x":170083.72000000067,"y":2545046.1600000001}},{"attributes":{"ID":221721,"DIS_CODE":0,"TOWNNAME":"北區","LI":"振興里","LIN":"9鄰","STREET":"開元路","SECT":" ","MAREA":" ","LANE":"１４８巷","ALLEY":" ","HOUSE_NO":"４７號","E_COORD97":170086.23000000001,"N_COORD97":2545041.7999999998,"ADDRESS":"開元路１４８巷４７號","OBJECTID":221720},"geometry":{"x":170086.23000000138,"y":2545041.8000000026}},{"attributes":{"ID":221722,"DIS_CODE":0,"TOWNNAME":"北區","LI":"振興里","LIN":"9鄰","STREET":"開元路","SECT":" ","MAREA":" ","LANE":"１４８巷","ALLEY":" ","HOUSE_NO":"４９號","E_COORD97":170090.04999999999,"N_COORD97":2545036.79,"ADDRESS":"開元路１４８巷４９號","OBJECTID":221721},"geometry":{"x":170090.05000000075,"y":2545036.7899999991}},{"attributes":{"ID":221723,"DIS_CODE":0,"TOWNNAME":"北區","LI":"振興里","LIN":"9鄰","STREET":"開元路","SECT":" ","MAREA":" ","LANE":"１４８巷","ALLEY":" ","HOUSE_NO":"５１號","E_COORD97":170092.12,"N_COORD97":2545033.4100000001,"ADDRESS":"開元路１４８巷５１號","OBJECTID":221722},"geometry":{"x":170092.12000000011,"y":2545033.410000002}},{"attributes":{"ID":221724,"DIS_CODE":0,"TOWNNAME":"新營區","LI":"新東里","LIN":"9鄰","STREET":"東仁街","SECT":" ","MAREA":" ","LANE":"４３巷","ALLEY":" ","HOUSE_NO":"５６號","E_COORD97":181173.01999999999,"N_COORD97":2579663.6000000001,"ADDRESS":"東仁街４３巷５６號","OBJECTID":221723},"geometry":{"x":181173.02000000048,"y":2579663.6000000015}},{"attributes":{"ID":221725,"DIS_CODE":0,"TOWNNAME":"新營區","LI":"新東里","LIN":"9鄰","STREET":"東仁街","SECT":" ","MAREA":" ","LANE":"２１巷","ALLEY":" ","HOUSE_NO":"１３號","E_COORD97":181233.98000000001,"N_COORD97":2579580.25,"ADDRESS":"東仁街２１巷１３號","OBJECTID":221724},"geometry":{"x":181233.98000000045,"y":2579580.25}},{"attributes":{"ID":221726,"DIS_CODE":0,"TOWNNAME":"新營區","LI":"興業里","LIN":"9鄰","STREET":"中興路","SECT":" ","MAREA":" ","LANE":"１３巷","ALLEY":" ","HOUSE_NO":"３之２號","E_COORD97":180156.92999999999,"N_COORD97":2577981.7599999998,"ADDRESS":"中興路１３巷３之２號","OBJECTID":221725},"geometry":{"x":180156.9299999997,"y":2577981.7600000016}},{"attributes":{"ID":221727,"DIS_CODE":0,"TOWNNAME":"新營區","LI":"忠政里","LIN":"9鄰","STREET":"中正路","SECT":" ","MAREA":" ","LANE":"３９巷","ALLEY":" ","HOUSE_NO":"３５號","E_COORD97":179998.97,"N_COORD97":2579236.0800000001,"ADDRESS":"中正路３９巷３５號","OBJECTID":221726},"geometry":{"x":179998.97000000067,"y":2579236.0799999982}},{"attributes":{"ID":221728,"DIS_CODE":0,"TOWNNAME":"東區","LI":"小東里","LIN":"19鄰","STREET":"東興路","SECT":" ","MAREA":" ","LANE":"３１４巷","ALLEY":" ","HOUSE_NO":"１５號","E_COORD97":171086.01999999999,"N_COORD97":2544135.6200000001,"ADDRESS":"東興路３１４巷１５號","OBJECTID":221727},"geometry":{"x":171086.02000000142,"y":2544135.620000001}},{"attributes":{"ID":221729,"DIS_CODE":0,"TOWNNAME":"安平區","LI":"文平里","LIN":"9鄰","STREET":"建平七街","SECT":" ","MAREA":" ","LANE":"１８２巷","ALLEY":" ","HOUSE_NO":"２號","E_COORD97":166126.89999999999,"N_COORD97":2543278.9700000002,"ADDRESS":"建平七街１８２巷２號","OBJECTID":221728},"geometry":{"x":166126.90000000037,"y":2543278.9700000007}},{"attributes":{"ID":221730,"DIS_CODE":0,"TOWNNAME":"安平區","LI":"文平里","LIN":"9鄰","STREET":"建平七街","SECT":" ","MAREA":" ","LANE":"１８２巷","ALLEY":" ","HOUSE_NO":"６號","E_COORD97":166127.25,"N_COORD97":2543283.8700000001,"ADDRESS":"建平七街１８２巷６號","OBJECTID":221729},"geometry":{"x":166127.25000000093,"y":2543283.8700000048}},{"attributes":{"ID":221731,"DIS_CODE":0,"TOWNNAME":"安平區","LI":"文平里","LIN":"9鄰","STREET":"建平七街","SECT":" ","MAREA":" ","LANE":"１８２巷","ALLEY":" ","HOUSE_NO":"８號","E_COORD97":166127.95000000001,"N_COORD97":2543289.1299999999,"ADDRESS":"建平七街１８２巷８號","OBJECTID":221730},"geometry":{"x":166127.95000000019,"y":2543289.129999999}},{"attributes":{"ID":221732,"DIS_CODE":0,"TOWNNAME":"六甲區","LI":"龍湖里","LIN":"9鄰","STREET":"中華路","SECT":" ","MAREA":" ","LANE":"２０８巷","ALLEY":" ","HOUSE_NO":"５號","E_COORD97":182830.01000000001,"N_COORD97":2569260.8799999999,"ADDRESS":"中華路２０８巷５號","OBJECTID":221731},"geometry":{"x":182830.00999999978,"y":2569260.879999999}},{"attributes":{"ID":221733,"DIS_CODE":0,"TOWNNAME":"新營區","LI":"新東里","LIN":"9鄰","STREET":"東仁街","SECT":" ","MAREA":" ","LANE":"２１巷","ALLEY":" ","HOUSE_NO":"１１號","E_COORD97":181239.10000000001,"N_COORD97":2579580.23,"ADDRESS":"東仁街２１巷１１號","OBJECTID":221732},"geometry":{"x":181239.09999999963,"y":2579580.2300000004}},{"attributes":{"ID":221734,"DIS_CODE":0,"TOWNNAME":"新營區","LI":"大宏里","LIN":"9鄰","STREET":"民治路","SECT":" ","MAREA":" ","LANE":"２９巷","ALLEY":" ","HOUSE_NO":"４３號之１０","E_COORD97":180225.91,"N_COORD97":2578699.0699999998,"ADDRESS":"民治路２９巷４３號之１０","OBJECTID":221733},"geometry":{"x":180225.91000000015,"y":2578699.0700000022}},{"attributes":{"ID":221735,"DIS_CODE":0,"TOWNNAME":"六甲區","LI":"六甲里","LIN":"9鄰","STREET":"中正路","SECT":" ","MAREA":" ","LANE":"３９４巷","ALLEY":" ","HOUSE_NO":"１３號","E_COORD97":183623.09,"N_COORD97":2569615.52,"ADDRESS":"中正路３９４巷１３號","OBJECTID":221734},"geometry":{"x":183623.08999999985,"y":2569615.5200000014}},{"attributes":{"ID":221736,"DIS_CODE":0,"TOWNNAME":"六甲區","LI":"六甲里","LIN":"9鄰","STREET":"中正路","SECT":" ","MAREA":" ","LANE":"４２２巷","ALLEY":" ","HOUSE_NO":"２號","E_COORD97":183587.12,"N_COORD97":2569641.2400000002,"ADDRESS":"中正路４２２巷２號","OBJECTID":221735},"geometry":{"x":183587.12000000104,"y":2569641.2400000021}},{"attributes":{"ID":221737,"DIS_CODE":0,"TOWNNAME":"六甲區","LI":"六甲里","LIN":"9鄰","STREET":"中正路","SECT":" ","MAREA":" ","LANE":"４２２巷","ALLEY":" ","HOUSE_NO":"３號","E_COORD97":183593.87,"N_COORD97":2569649.2000000002,"ADDRESS":"中正路４２２巷３號","OBJECTID":221736},"geometry":{"x":183593.87000000104,"y":2569649.1999999993}},{"attributes":{"ID":221738,"DIS_CODE":0,"TOWNNAME":"六甲區","LI":"六甲里","LIN":"9鄰","STREET":"中正路","SECT":" ","MAREA":" ","LANE":"４２２巷","ALLEY":" ","HOUSE_NO":"４號","E_COORD97":183591.48000000001,"N_COORD97":2569639.9500000002,"ADDRESS":"中正路４２２巷４號","OBJECTID":221737},"geometry":{"x":183591.48000000138,"y":2569639.9499999993}},{"attributes":{"ID":221739,"DIS_CODE":0,"TOWNNAME":"六甲區","LI":"六甲里","LIN":"9鄰","STREET":"中正路","SECT":" ","MAREA":" ","LANE":"４２２巷","ALLEY":" ","HOUSE_NO":"５號","E_COORD97":183597.97,"N_COORD97":2569648.02,"ADDRESS":"中正路４２２巷５號","OBJECTID":221738},"geometry":{"x":183597.96999999974,"y":2569648.0200000033}},{"attributes":{"ID":221740,"DIS_CODE":0,"TOWNNAME":"東區","LI":"東光里","LIN":"1鄰","STREET":"東光路","SECT":"一段","MAREA":" ","LANE":"５巷","ALLEY":" ","HOUSE_NO":"１１號","E_COORD97":171095.85999999999,"N_COORD97":2543347.2400000002,"ADDRESS":"東光路一段５巷１１號","OBJECTID":221739},"geometry":{"x":171095.86000000034,"y":2543347.2400000002}},{"attributes":{"ID":221741,"DIS_CODE":0,"TOWNNAME":"東區","LI":"東光里","LIN":"1鄰","STREET":"東寧路","SECT":" ","MAREA":" ","LANE":"４３５巷","ALLEY":" ","HOUSE_NO":"２號","E_COORD97":171082.60999999999,"N_COORD97":2543342.2799999998,"ADDRESS":"東寧路４３５巷２號","OBJECTID":221740},"geometry":{"x":171082.61000000034,"y":2543342.2799999993}},{"attributes":{"ID":221742,"DIS_CODE":0,"TOWNNAME":"東區","LI":"東光里","LIN":"1鄰","STREET":"東寧路","SECT":" ","MAREA":" ","LANE":"４３５巷","ALLEY":" ","HOUSE_NO":"８號","E_COORD97":171085.34,"N_COORD97":2543355.2400000002,"ADDRESS":"東寧路４３５巷８號","OBJECTID":221741},"geometry":{"x":171085.33999999985,"y":2543355.2400000021}},{"attributes":{"ID":221743,"DIS_CODE":0,"TOWNNAME":"六甲區","LI":"甲東里","LIN":"9鄰","STREET":"中正路","SECT":" ","MAREA":" ","LANE":"９９０巷","ALLEY":" ","HOUSE_NO":"１５號","E_COORD97":184082.89000000001,"N_COORD97":2570854.9399999999,"ADDRESS":"中正路９９０巷１５號","OBJECTID":221742},"geometry":{"x":184082.8900000006,"y":2570854.9399999995}},{"attributes":{"ID":221744,"DIS_CODE":0,"TOWNNAME":"六甲區","LI":"甲東里","LIN":"9鄰","STREET":"中正路","SECT":" ","MAREA":" ","LANE":"９９０巷","ALLEY":" ","HOUSE_NO":"３５號","E_COORD97":184198.53,"N_COORD97":2570985.0099999998,"ADDRESS":"中正路９９０巷３５號","OBJECTID":221743},"geometry":{"x":184198.53000000026,"y":2570985.0100000016}},{"attributes":{"ID":221745,"DIS_CODE":0,"TOWNNAME":"六甲區","LI":"龍湖里","LIN":"9鄰","STREET":"中華路","SECT":" ","MAREA":" ","LANE":"２０８巷","ALLEY":" ","HOUSE_NO":"６號","E_COORD97":182867.57000000001,"N_COORD97":2569231.1200000001,"ADDRESS":"中華路２０８巷６號","OBJECTID":221744},"geometry":{"x":182867.5700000003,"y":2569231.120000001}},{"attributes":{"ID":221746,"DIS_CODE":0,"TOWNNAME":"六甲區","LI":"龍湖里","LIN":"9鄰","STREET":"中華路","SECT":" ","MAREA":" ","LANE":"１８６巷","ALLEY":" ","HOUSE_NO":"１８號","E_COORD97":182833.16,"N_COORD97":2569300.6400000001,"ADDRESS":"中華路１８６巷１８號","OBJECTID":221745},"geometry":{"x":182833.16000000015,"y":2569300.6400000025}},{"attributes":{"ID":221747,"DIS_CODE":0,"TOWNNAME":"六甲區","LI":"龍湖里","LIN":"9鄰","STREET":"中華路","SECT":" ","MAREA":" ","LANE":"１８６巷","ALLEY":" ","HOUSE_NO":"２５號","E_COORD97":182875.76000000001,"N_COORD97":2569292.75,"ADDRESS":"中華路１８６巷２５號","OBJECTID":221746},"geometry":{"x":182875.75999999978,"y":2569292.75}},{"attributes":{"ID":221748,"DIS_CODE":0,"TOWNNAME":"六甲區","LI":"龍湖里","LIN":"9鄰","STREET":"中華路","SECT":" ","MAREA":" ","LANE":"２０８巷","ALLEY":" ","HOUSE_NO":"１０號","E_COORD97":182901.01000000001,"N_COORD97":2569234.5,"ADDRESS":"中華路２０８巷１０號","OBJECTID":221747},"geometry":{"x":182901.00999999978,"y":2569234.5}},{"attributes":{"ID":221749,"DIS_CODE":0,"TOWNNAME":"六甲區","LI":"龍湖里","LIN":"9鄰","STREET":"中華路","SECT":" ","MAREA":" ","LANE":"２０８巷","ALLEY":" ","HOUSE_NO":"１１號","E_COORD97":182856.16,"N_COORD97":2569265.5,"ADDRESS":"中華路２０８巷１１號","OBJECTID":221748},"geometry":{"x":182856.16000000108,"y":2569265.5000000037}},{"attributes":{"ID":221750,"DIS_CODE":0,"TOWNNAME":"六甲區","LI":"龍湖里","LIN":"9鄰","STREET":"中華路","SECT":" ","MAREA":" ","LANE":"２０８巷","ALLEY":" ","HOUSE_NO":"１３號","E_COORD97":182863.67999999999,"N_COORD97":2569250.6699999999,"ADDRESS":"中華路２０８巷１３號","OBJECTID":221749},"geometry":{"x":182863.68000000063,"y":2569250.6699999981}},{"attributes":{"ID":221751,"DIS_CODE":0,"TOWNNAME":"六甲區","LI":"龍湖里","LIN":"9鄰","STREET":"中華路","SECT":" ","MAREA":" ","LANE":"２０８巷","ALLEY":" ","HOUSE_NO":"１４號","E_COORD97":182887.57999999999,"N_COORD97":2569252,"ADDRESS":"中華路２０８巷１４號","OBJECTID":221750},"geometry":{"x":182887.58000000007,"y":2569252.0000000037}},{"attributes":{"ID":221752,"DIS_CODE":0,"TOWNNAME":"六甲區","LI":"龍湖里","LIN":"9鄰","STREET":"中華路","SECT":" ","MAREA":" ","LANE":"２０８巷","ALLEY":" ","HOUSE_NO":"１６號","E_COORD97":182886.03,"N_COORD97":2569266.6899999999,"ADDRESS":"中華路２０８巷１６號","OBJECTID":221751},"geometry":{"x":182886.03000000119,"y":2569266.6899999995}},{"attributes":{"ID":221753,"DIS_CODE":0,"TOWNNAME":"六甲區","LI":"水林里","LIN":"9鄰","STREET":"民族街","SECT":" ","MAREA":" ","LANE":"２７５巷","ALLEY":" ","HOUSE_NO":"２０號","E_COORD97":183095.82000000001,"N_COORD97":2570302.8700000001,"ADDRESS":"民族街２７５巷２０號","OBJECTID":221752},"geometry":{"x":183095.82000000123,"y":2570302.8700000029}},{"attributes":{"ID":221754,"DIS_CODE":0,"TOWNNAME":"六甲區","LI":"水林里","LIN":"9鄰","STREET":"民族街","SECT":" ","MAREA":" ","LANE":"２７５巷","ALLEY":" ","HOUSE_NO":"２４號之１４","E_COORD97":183106.32999999999,"N_COORD97":2570236.5800000001,"ADDRESS":"民族街２７５巷２４號之１４","OBJECTID":221753},"geometry":{"x":183106.33000000007,"y":2570236.5800000001}},{"attributes":{"ID":221755,"DIS_CODE":0,"TOWNNAME":"六甲區","LI":"水林里","LIN":"9鄰","STREET":"民族街","SECT":" ","MAREA":" ","LANE":"２７５巷","ALLEY":" ","HOUSE_NO":"２４號之１６","E_COORD97":183102.16,"N_COORD97":2570236.2000000002,"ADDRESS":"民族街２７５巷２４號之１６","OBJECTID":221754},"geometry":{"x":183102.16000000015,"y":2570236.1999999993}},{"attributes":{"ID":221756,"DIS_CODE":0,"TOWNNAME":"六甲區","LI":"水林里","LIN":"9鄰","STREET":"民族街","SECT":" ","MAREA":" ","LANE":"２７５巷","ALLEY":" ","HOUSE_NO":"２４號之１８","E_COORD97":183097.57000000001,"N_COORD97":2570235.8399999999,"ADDRESS":"民族街２７５巷２４號之１８","OBJECTID":221755},"geometry":{"x":183097.57000000123,"y":2570235.8399999999}},{"attributes":{"ID":221757,"DIS_CODE":0,"TOWNNAME":"六甲區","LI":"水林里","LIN":"9鄰","STREET":"民族街","SECT":" ","MAREA":" ","LANE":"２７５巷","ALLEY":" ","HOUSE_NO":"２４號之２０","E_COORD97":183093.35999999999,"N_COORD97":2570235.9900000002,"ADDRESS":"民族街２７５巷２４號之２０","OBJECTID":221756},"geometry":{"x":183093.3600000022,"y":2570235.9900000021}},{"attributes":{"ID":221758,"DIS_CODE":0,"TOWNNAME":"東區","LI":"富裕里","LIN":"6鄰","STREET":"裕農路","SECT":" ","MAREA":" ","LANE":"２８８巷","ALLEY":" ","HOUSE_NO":"１０號","E_COORD97":170813.17000000001,"N_COORD97":2542931.7200000002,"ADDRESS":"裕農路２８８巷１０號","OBJECTID":221757},"geometry":{"x":170813.17000000086,"y":2542931.7200000044}},{"attributes":{"ID":221759,"DIS_CODE":0,"TOWNNAME":"北區","LI":"國姓里","LIN":"9鄰","STREET":"公園路","SECT":" ","MAREA":" ","LANE":"４２７巷","ALLEY":" ","HOUSE_NO":"１７號","E_COORD97":168933,"N_COORD97":2545264.6000000001,"ADDRESS":"公園路４２７巷１７號","OBJECTID":221758},"geometry":{"x":168933,"y":2545264.6000000015}},{"attributes":{"ID":221760,"DIS_CODE":0,"TOWNNAME":"北區","LI":"國姓里","LIN":"9鄰","STREET":"公園路","SECT":" ","MAREA":" ","LANE":"４２７巷","ALLEY":" ","HOUSE_NO":"１９號","E_COORD97":168929.04000000001,"N_COORD97":2545255.8399999999,"ADDRESS":"公園路４２７巷１９號","OBJECTID":221759},"geometry":{"x":168929.04000000097,"y":2545255.8400000036}},{"attributes":{"ID":221761,"DIS_CODE":0,"TOWNNAME":"北區","LI":"國姓里","LIN":"9鄰","STREET":"公園路","SECT":" ","MAREA":" ","LANE":"４２７巷","ALLEY":" ","HOUSE_NO":"２號","E_COORD97":168977.01000000001,"N_COORD97":2545317.1600000001,"ADDRESS":"公園路４２７巷２號","OBJECTID":221760},"geometry":{"x":168977.00999999978,"y":2545317.1600000001}},{"attributes":{"ID":221762,"DIS_CODE":0,"TOWNNAME":"北區","LI":"國姓里","LIN":"9鄰","STREET":"公園路","SECT":" ","MAREA":" ","LANE":"４２７巷","ALLEY":" ","HOUSE_NO":"３號","E_COORD97":168968.97,"N_COORD97":2545295.8300000001,"ADDRESS":"公園路４２７巷３號","OBJECTID":221761},"geometry":{"x":168968.96999999974,"y":2545295.8300000001}},{"attributes":{"ID":221763,"DIS_CODE":0,"TOWNNAME":"北區","LI":"國姓里","LIN":"9鄰","STREET":"公園路","SECT":" ","MAREA":" ","LANE":"４２７巷","ALLEY":" ","HOUSE_NO":"５號","E_COORD97":168965.91,"N_COORD97":2545294.4399999999,"ADDRESS":"公園路４２７巷５號","OBJECTID":221762},"geometry":{"x":168965.91000000015,"y":2545294.4399999995}},{"attributes":{"ID":221764,"DIS_CODE":0,"TOWNNAME":"東區","LI":"關聖里","LIN":"7鄰","STREET":"裕農路","SECT":" ","MAREA":" ","LANE":"６６８巷","ALLEY":" ","HOUSE_NO":"４５號","E_COORD97":171759.87,"N_COORD97":2543048.6899999999,"ADDRESS":"裕農路６６８巷４５號","OBJECTID":221763},"geometry":{"x":171759.87000000011,"y":2543048.6899999995}},{"attributes":{"ID":221765,"DIS_CODE":0,"TOWNNAME":"北區","LI":"國姓里","LIN":"9鄰","STREET":"公園路","SECT":" ","MAREA":" ","LANE":"４２７巷","ALLEY":" ","HOUSE_NO":"１１號","E_COORD97":168948.70999999999,"N_COORD97":2545281.9700000002,"ADDRESS":"公園路４２７巷１１號","OBJECTID":221764},"geometry":{"x":168948.70999999996,"y":2545281.9700000007}},{"attributes":{"ID":221766,"DIS_CODE":0,"TOWNNAME":"北區","LI":"國姓里","LIN":"9鄰","STREET":"公園路","SECT":" ","MAREA":" ","LANE":"４２７巷","ALLEY":" ","HOUSE_NO":"１２號","E_COORD97":168913.72,"N_COORD97":2545270.7400000002,"ADDRESS":"公園路４２７巷１２號","OBJECTID":221765},"geometry":{"x":168913.72000000067,"y":2545270.7400000039}},{"attributes":{"ID":221767,"DIS_CODE":0,"TOWNNAME":"歸仁區","LI":"南保里","LIN":"9鄰","STREET":"文化十街","SECT":" ","MAREA":" ","LANE":"２８巷","ALLEY":" ","HOUSE_NO":"７５號","E_COORD97":176750.98999999999,"N_COORD97":2541334.3300000001,"ADDRESS":"文化十街２８巷７５號","OBJECTID":221766},"geometry":{"x":176750.99000000115,"y":2541334.3300000019}},{"attributes":{"ID":221768,"DIS_CODE":0,"TOWNNAME":"歸仁區","LI":"西埔里","LIN":"9鄰","STREET":"西埔一街","SECT":" ","MAREA":" ","LANE":"１７７巷","ALLEY":" ","HOUSE_NO":"２１號","E_COORD97":176958.94,"N_COORD97":2544607.25,"ADDRESS":"西埔一街１７７巷２１號","OBJECTID":221767},"geometry":{"x":176958.94000000041,"y":2544607.2500000019}},{"attributes":{"ID":221769,"DIS_CODE":0,"TOWNNAME":"歸仁區","LI":"大潭里","LIN":"9鄰","STREET":"長榮路","SECT":"一段","MAREA":" ","LANE":"２００巷","ALLEY":" ","HOUSE_NO":"６６號","E_COORD97":175111.32000000001,"N_COORD97":2534403.2799999998,"ADDRESS":"長榮路一段２００巷６６號","OBJECTID":221768},"geometry":{"x":175111.32000000123,"y":2534403.2800000031}},{"attributes":{"ID":221770,"DIS_CODE":0,"TOWNNAME":"歸仁區","LI":"媽廟里","LIN":"9鄰","STREET":"和順路","SECT":"一段","MAREA":" ","LANE":"３３６巷","ALLEY":" ","HOUSE_NO":"２０號","E_COORD97":176578.26999999999,"N_COORD97":2543798.25,"ADDRESS":"和順路一段３３６巷２０號","OBJECTID":221769},"geometry":{"x":176578.26999999955,"y":2543798.25}},{"attributes":{"ID":221771,"DIS_CODE":0,"TOWNNAME":"歸仁區","LI":"看東里","LIN":"9鄰","STREET":"成功一街","SECT":" ","MAREA":" ","LANE":"１３巷","ALLEY":" ","HOUSE_NO":"３號","E_COORD97":178651.69,"N_COORD97":2540177.25,"ADDRESS":"成功一街１３巷３號","OBJECTID":221770},"geometry":{"x":178651.69000000134,"y":2540177.25}},{"attributes":{"ID":221772,"DIS_CODE":0,"TOWNNAME":"北區","LI":"正風里","LIN":"9鄰","STREET":"大武街","SECT":" ","MAREA":" ","LANE":"３３７巷","ALLEY":" ","HOUSE_NO":"１３號","E_COORD97":169726.44,"N_COORD97":2546449.2599999998,"ADDRESS":"大武街３３７巷１３號","OBJECTID":221771},"geometry":{"x":169726.44000000134,"y":2546449.2599999998}},{"attributes":{"ID":221773,"DIS_CODE":0,"TOWNNAME":"北區","LI":"正風里","LIN":"9鄰","STREET":"大武街","SECT":" ","MAREA":" ","LANE":"３３７巷","ALLEY":" ","HOUSE_NO":"１３號之１","E_COORD97":169727.54999999999,"N_COORD97":2546454.02,"ADDRESS":"大武街３３７巷１３號之１","OBJECTID":221772},"geometry":{"x":169727.54999999981,"y":2546454.0199999996}},{"attributes":{"ID":221774,"DIS_CODE":0,"TOWNNAME":"北區","LI":"正風里","LIN":"9鄰","STREET":"大武街","SECT":" ","MAREA":" ","LANE":"３３７巷","ALLEY":" ","HOUSE_NO":"３號","E_COORD97":169716.69,"N_COORD97":2546411.46,"ADDRESS":"大武街３３７巷３號","OBJECTID":221773},"geometry":{"x":169716.69000000134,"y":2546411.4600000009}},{"attributes":{"ID":221775,"DIS_CODE":0,"TOWNNAME":"北區","LI":"正風里","LIN":"9鄰","STREET":"大武街","SECT":" ","MAREA":" ","LANE":"３３７巷","ALLEY":" ","HOUSE_NO":"３號之１","E_COORD97":169706.19,"N_COORD97":2546422.7200000002,"ADDRESS":"大武街３３７巷３號之１","OBJECTID":221774},"geometry":{"x":169706.19000000134,"y":2546422.7200000007}},{"attributes":{"ID":221776,"DIS_CODE":0,"TOWNNAME":"北區","LI":"正風里","LIN":"9鄰","STREET":"大武街","SECT":" ","MAREA":" ","LANE":"３３７巷","ALLEY":" ","HOUSE_NO":"５號","E_COORD97":169717.91,"N_COORD97":2546417.1699999999,"ADDRESS":"大武街３３７巷５號","OBJECTID":221775},"geometry":{"x":169717.91000000108,"y":2546417.1700000018}},{"attributes":{"ID":221777,"DIS_CODE":0,"TOWNNAME":"六甲區","LI":"二甲里","LIN":"9鄰","STREET":"民權街","SECT":" ","MAREA":" ","LANE":"２８２巷","ALLEY":" ","HOUSE_NO":"３６號","E_COORD97":182995.26000000001,"N_COORD97":2569896.8900000001,"ADDRESS":"民權街２８２巷３６號","OBJECTID":221776},"geometry":{"x":182995.26000000071,"y":2569896.8900000006}},{"attributes":{"ID":221778,"DIS_CODE":0,"TOWNNAME":"六甲區","LI":"二甲里","LIN":"9鄰","STREET":"民權街","SECT":" ","MAREA":" ","LANE":"２８２巷","ALLEY":" ","HOUSE_NO":"３８號","E_COORD97":182996.41,"N_COORD97":2569901.4700000002,"ADDRESS":"民權街２８２巷３８號","OBJECTID":221777},"geometry":{"x":182996.41000000108,"y":2569901.4700000025}},{"attributes":{"ID":221779,"DIS_CODE":0,"TOWNNAME":"六甲區","LI":"二甲里","LIN":"9鄰","STREET":"民權街","SECT":" ","MAREA":" ","LANE":"２８２巷","ALLEY":" ","HOUSE_NO":"４０號","E_COORD97":183002.59,"N_COORD97":2569906.7400000002,"ADDRESS":"民權街２８２巷４０號","OBJECTID":221778},"geometry":{"x":183002.58999999985,"y":2569906.7400000002}},{"attributes":{"ID":221780,"DIS_CODE":0,"TOWNNAME":"六甲區","LI":"二甲里","LIN":"9鄰","STREET":"民權街","SECT":" ","MAREA":" ","LANE":"２８２巷","ALLEY":" ","HOUSE_NO":"４２號","E_COORD97":183002.98999999999,"N_COORD97":2569916.3999999999,"ADDRESS":"民權街２８２巷４２號","OBJECTID":221779},"geometry":{"x":183002.99000000115,"y":2569916.4000000004}},{"attributes":{"ID":221781,"DIS_CODE":0,"TOWNNAME":"六甲區","LI":"二甲里","LIN":"9鄰","STREET":"民權街","SECT":" ","MAREA":" ","LANE":"２８２巷","ALLEY":" ","HOUSE_NO":"４６號","E_COORD97":183003.95000000001,"N_COORD97":2569919.9399999999,"ADDRESS":"民權街２８２巷４６號","OBJECTID":221780},"geometry":{"x":183003.95000000019,"y":2569919.9400000032}},{"attributes":{"ID":221782,"DIS_CODE":0,"TOWNNAME":"六甲區","LI":"二甲里","LIN":"9鄰","STREET":"民權街","SECT":" ","MAREA":" ","LANE":"３０４巷","ALLEY":" ","HOUSE_NO":"４６號","E_COORD97":182950,"N_COORD97":2569928.1499999999,"ADDRESS":"民權街３０４巷４６號","OBJECTID":221781},"geometry":{"x":182950.00000000093,"y":2569928.1500000004}},{"attributes":{"ID":221783,"DIS_CODE":0,"TOWNNAME":"六甲區","LI":"二甲里","LIN":"9鄰","STREET":"民權街","SECT":" ","MAREA":" ","LANE":"３０４巷","ALLEY":" ","HOUSE_NO":"４８號","E_COORD97":182944.07000000001,"N_COORD97":2569911.6600000001,"ADDRESS":"民權街３０４巷４８號","OBJECTID":221782},"geometry":{"x":182944.0700000003,"y":2569911.6600000001}},{"attributes":{"ID":221784,"DIS_CODE":0,"TOWNNAME":"六甲區","LI":"二甲里","LIN":"9鄰","STREET":"民權街","SECT":" ","MAREA":" ","LANE":"３０４巷","ALLEY":" ","HOUSE_NO":"５０號","E_COORD97":182948.10000000001,"N_COORD97":2569922.6699999999,"ADDRESS":"民權街３０４巷５０號","OBJECTID":221783},"geometry":{"x":182948.09999999963,"y":2569922.6700000018}},{"attributes":{"ID":221785,"DIS_CODE":0,"TOWNNAME":"六甲區","LI":"二甲里","LIN":"9鄰","STREET":"民權街","SECT":" ","MAREA":" ","LANE":"３０４巷","ALLEY":" ","HOUSE_NO":"６０號","E_COORD97":182960.79999999999,"N_COORD97":2569938.9399999999,"ADDRESS":"民權街３０４巷６０號","OBJECTID":221784},"geometry":{"x":182960.79999999888,"y":2569938.9399999995}},{"attributes":{"ID":221786,"DIS_CODE":0,"TOWNNAME":"六甲區","LI":"甲東里","LIN":"9鄰","STREET":"曾文街","SECT":" ","MAREA":" ","LANE":"５１巷","ALLEY":" ","HOUSE_NO":"５號","E_COORD97":184121.97,"N_COORD97":2570280.6299999999,"ADDRESS":"曾文街５１巷５號","OBJECTID":221785},"geometry":{"x":184121.96999999974,"y":2570280.6300000027}},{"attributes":{"ID":221787,"DIS_CODE":0,"TOWNNAME":"新營區","LI":"新東里","LIN":"9鄰","STREET":"東仁街","SECT":" ","MAREA":" ","LANE":"４３巷","ALLEY":" ","HOUSE_NO":"２３號","E_COORD97":181220.01999999999,"N_COORD97":2579640.1099999999,"ADDRESS":"東仁街４３巷２３號","OBJECTID":221786},"geometry":{"x":181220.02000000048,"y":2579640.1100000013}},{"attributes":{"ID":221788,"DIS_CODE":0,"TOWNNAME":"新營區","LI":"新東里","LIN":"9鄰","STREET":"東泰二街","SECT":" ","MAREA":" ","LANE":"５巷","ALLEY":" ","HOUSE_NO":"６號","E_COORD97":181165.26000000001,"N_COORD97":2579582.7799999998,"ADDRESS":"東泰二街５巷６號","OBJECTID":221787},"geometry":{"x":181165.25999999978,"y":2579582.7799999993}},{"attributes":{"ID":221789,"DIS_CODE":0,"TOWNNAME":"新營區","LI":"新東里","LIN":"9鄰","STREET":"東泰二街","SECT":" ","MAREA":" ","LANE":"５巷","ALLEY":" ","HOUSE_NO":"２號","E_COORD97":181166.29999999999,"N_COORD97":2579573.9199999999,"ADDRESS":"東泰二街５巷２號","OBJECTID":221788},"geometry":{"x":181166.30000000075,"y":2579573.9200000018}},{"attributes":{"ID":221790,"DIS_CODE":0,"TOWNNAME":"新營區","LI":"興業里","LIN":"9鄰","STREET":"中興路","SECT":" ","MAREA":" ","LANE":"１３巷","ALLEY":" ","HOUSE_NO":"１５之３號","E_COORD97":180211.28,"N_COORD97":2577979.29,"ADDRESS":"中興路１３巷１５之３號","OBJECTID":221789},"geometry":{"x":180211.28000000026,"y":2577979.2900000028}},{"attributes":{"ID":221791,"DIS_CODE":0,"TOWNNAME":"歸仁區","LI":"大廟里","LIN":"9鄰","STREET":"大廟一街","SECT":" ","MAREA":" ","LANE":"２９巷","ALLEY":" ","HOUSE_NO":"２號","E_COORD97":175873.17000000001,"N_COORD97":2544067.25,"ADDRESS":"大廟一街２９巷２號","OBJECTID":221790},"geometry":{"x":175873.17000000086,"y":2544067.2500000019}},{"attributes":{"ID":221792,"DIS_CODE":0,"TOWNNAME":"歸仁區","LI":"大潭里","LIN":"9鄰","STREET":"長榮路","SECT":"一段","MAREA":" ","LANE":"３２０巷","ALLEY":" ","HOUSE_NO":"３８號","E_COORD97":175405.62,"N_COORD97":2534382.2799999998,"ADDRESS":"長榮路一段３２０巷３８號","OBJECTID":221791},"geometry":{"x":175405.62000000104,"y":2534382.2799999993}},{"attributes":{"ID":221793,"DIS_CODE":0,"TOWNNAME":"歸仁區","LI":"大廟里","LIN":"9鄰","STREET":"大廟一街","SECT":" ","MAREA":" ","LANE":"２９巷","ALLEY":" ","HOUSE_NO":"２０號","E_COORD97":175905.12,"N_COORD97":2544048.25,"ADDRESS":"大廟一街２９巷２０號","OBJECTID":221792},"geometry":{"x":175905.12000000011,"y":2544048.25}},{"attributes":{"ID":221794,"DIS_CODE":0,"TOWNNAME":"歸仁區","LI":"大廟里","LIN":"9鄰","STREET":"大廟一街","SECT":" ","MAREA":" ","LANE":"２９巷","ALLEY":" ","HOUSE_NO":"２６號","E_COORD97":175916.42000000001,"N_COORD97":2544041.25,"ADDRESS":"大廟一街２９巷２６號","OBJECTID":221793},"geometry":{"x":175916.41999999993,"y":2544041.25}},{"attributes":{"ID":221795,"DIS_CODE":0,"TOWNNAME":"歸仁區","LI":"大潭里","LIN":"9鄰","STREET":"長榮路","SECT":"一段","MAREA":" ","LANE":"３２０巷","ALLEY":" ","HOUSE_NO":"３９號","E_COORD97":175436.62,"N_COORD97":2534427.2799999998,"ADDRESS":"長榮路一段３２０巷３９號","OBJECTID":221794},"geometry":{"x":175436.62000000104,"y":2534427.2800000012}},{"attributes":{"ID":221796,"DIS_CODE":0,"TOWNNAME":"歸仁區","LI":"大潭里","LIN":"9鄰","STREET":"長大路","SECT":" ","MAREA":" ","LANE":" ","ALLEY":" ","HOUSE_NO":"５５號","E_COORD97":175449.82000000001,"N_COORD97":2534403.2799999998,"ADDRESS":"長大路５５號","OBJECTID":221795},"geometry":{"x":175449.81999999937,"y":2534403.2800000031}},{"attributes":{"ID":221797,"DIS_CODE":0,"TOWNNAME":"歸仁區","LI":"大廟里","LIN":"9鄰","STREET":"大廟一街","SECT":" ","MAREA":" ","LANE":"２９巷","ALLEY":" ","HOUSE_NO":"２８號","E_COORD97":175921.51999999999,"N_COORD97":2544038.25,"ADDRESS":"大廟一街２９巷２８號","OBJECTID":221796},"geometry":{"x":175921.52000000048,"y":2544038.25}},{"attributes":{"ID":221798,"DIS_CODE":0,"TOWNNAME":"北區","LI":"興南里","LIN":"9鄰","STREET":"西門路","SECT":"四段","MAREA":" ","LANE":"１６巷","ALLEY":" ","HOUSE_NO":"２４號","E_COORD97":168681.25,"N_COORD97":2545149.0499999998,"ADDRESS":"西門路四段１６巷２４號","OBJECTID":221797},"geometry":{"x":168681.25000000186,"y":2545149.0500000007}},{"attributes":{"ID":221799,"DIS_CODE":0,"TOWNNAME":"北區","LI":"興南里","LIN":"9鄰","STREET":"西門路","SECT":"四段","MAREA":" ","LANE":"１６巷","ALLEY":" ","HOUSE_NO":"２６號","E_COORD97":168685.48000000001,"N_COORD97":2545147.0899999999,"ADDRESS":"西門路四段１６巷２６號","OBJECTID":221798},"geometry":{"x":168685.48000000138,"y":2545147.0900000017}},{"attributes":{"ID":221800,"DIS_CODE":0,"TOWNNAME":"北區","LI":"興南里","LIN":"9鄰","STREET":"西門路","SECT":"四段","MAREA":" ","LANE":"１６巷","ALLEY":" ","HOUSE_NO":"２８號","E_COORD97":168688.73999999999,"N_COORD97":2545145.79,"ADDRESS":"西門路四段１６巷２８號","OBJECTID":221799},"geometry":{"x":168688.74000000115,"y":2545145.7899999991}},{"attributes":{"ID":221801,"DIS_CODE":0,"TOWNNAME":"北區","LI":"興南里","LIN":"9鄰","STREET":"西門路","SECT":"四段","MAREA":" ","LANE":"１６巷","ALLEY":" ","HOUSE_NO":"３０號","E_COORD97":168693.13,"N_COORD97":2545143.3500000001,"ADDRESS":"西門路四段１６巷３０號","OBJECTID":221800},"geometry":{"x":168693.12999999989,"y":2545143.3499999996}}]}