{"displayFieldName":"TOWNNAME","fieldAliases":{"ID":"ID","DIS_CODE":"DIS_CODE","TOWNNAME":"TOWNNAME","LI":"LI","LIN":"LIN","STREET":"STREET","SECT":"SECT","MAREA":"MAREA","LANE":"LANE","ALLEY":"ALLEY","HOUSE_NO":"HOUSE_NO","E_COORD97":"E_COORD97","N_COORD97":"N_COORD97","ADDRESS":"ADDRESS","OBJECTID":"OBJECTID"},"geometryType":"esriGeometryPoint","spatialReference":{"wkid":102443,"latestWkid":3826},"fields":[{"name":"ID","type":"esriFieldTypeDouble","alias":"ID"},{"name":"DIS_CODE","type":"esriFieldTypeInteger","alias":"DIS_CODE"},{"name":"TOWNNAME","type":"esriFieldTypeString","alias":"TOWNNAME","length":8},{"name":"LI","type":"esriFieldTypeString","alias":"LI","length":8},{"name":"LIN","type":"esriFieldTypeString","alias":"LIN","length":12},{"name":"STREET","type":"esriFieldTypeString","alias":"STREET","length":20},{"name":"SECT","type":"esriFieldTypeString","alias":"SECT","length":8},{"name":"MAREA","type":"esriFieldTypeString","alias":"MAREA","length":12},{"name":"LANE","type":"esriFieldTypeString","alias":"LANE","length":10},{"name":"ALLEY","type":"esriFieldTypeString","alias":"ALLEY","length":10},{"name":"HOUSE_NO","type":"esriFieldTypeString","alias":"HOUSE_NO","length":20},{"name":"E_COORD97","type":"esriFieldTypeDouble","alias":"E_COORD97"},{"name":"N_COORD97","type":"esriFieldTypeDouble","alias":"N_COORD97"},{"name":"ADDRESS","type":"esriFieldTypeString","alias":"ADDRESS","length":50},{"name":"OBJECTID","type":"esriFieldTypeOID","alias":"OBJECTID"}],"features":[{"attributes":{"ID":389625,"DIS_CODE":0,"TOWNNAME":"北區","LI":"大港里","LIN":"29鄰","STREET":"賢北街","SECT":" ","MAREA":" ","LANE":"１９５巷","ALLEY":" ","HOUSE_NO":"３號","E_COORD97":166185.01999999999,"N_COORD97":2545568.9900000002,"ADDRESS":"賢北街１９５巷３號","OBJECTID":389601},"geometry":{"x":166185.01999999955,"y":2545568.9900000002}},{"attributes":{"ID":389626,"DIS_CODE":0,"TOWNNAME":"北區","LI":"大港里","LIN":"29鄰","STREET":"賢北街","SECT":" ","MAREA":" ","LANE":"１９５巷","ALLEY":" ","HOUSE_NO":"５號","E_COORD97":166188.04999999999,"N_COORD97":2545563.2200000002,"ADDRESS":"賢北街１９５巷５號","OBJECTID":389602},"geometry":{"x":166188.04999999981,"y":2545563.2200000025}},{"attributes":{"ID":389627,"DIS_CODE":0,"TOWNNAME":"北區","LI":"大港里","LIN":"29鄰","STREET":"賢北街","SECT":" ","MAREA":" ","LANE":"１９５巷","ALLEY":" ","HOUSE_NO":"６５號","E_COORD97":166089.03,"N_COORD97":2545526.8399999999,"ADDRESS":"賢北街１９５巷６５號","OBJECTID":389603},"geometry":{"x":166089.03000000026,"y":2545526.839999998}},{"attributes":{"ID":389628,"DIS_CODE":0,"TOWNNAME":"北區","LI":"大港里","LIN":"29鄰","STREET":"賢北街","SECT":" ","MAREA":" ","LANE":"１９５巷","ALLEY":" ","HOUSE_NO":"７號","E_COORD97":166190.44,"N_COORD97":2545558.25,"ADDRESS":"賢北街１９５巷７號","OBJECTID":389604},"geometry":{"x":166190.44000000134,"y":2545558.2499999981}},{"attributes":{"ID":389629,"DIS_CODE":0,"TOWNNAME":"北區","LI":"大港里","LIN":"29鄰","STREET":"賢北街","SECT":" ","MAREA":" ","LANE":"１９５巷","ALLEY":" ","HOUSE_NO":"９號","E_COORD97":166181.45000000001,"N_COORD97":2545554.0899999999,"ADDRESS":"賢北街１９５巷９號","OBJECTID":389605},"geometry":{"x":166181.45000000112,"y":2545554.0900000017}},{"attributes":{"ID":389630,"DIS_CODE":0,"TOWNNAME":"北區","LI":"大豐里","LIN":"29鄰","STREET":"和緯路","SECT":"四段","MAREA":" ","LANE":"１１７巷","ALLEY":" ","HOUSE_NO":"１１號","E_COORD97":167085.89999999999,"N_COORD97":2545437.1899999999,"ADDRESS":"和緯路四段１１７巷１１號","OBJECTID":389606},"geometry":{"x":167085.9000000013,"y":2545437.1900000013}},{"attributes":{"ID":389631,"DIS_CODE":0,"TOWNNAME":"北區","LI":"大豐里","LIN":"29鄰","STREET":"和緯路","SECT":"四段","MAREA":" ","LANE":"１１７巷","ALLEY":" ","HOUSE_NO":"１３號","E_COORD97":167085.89999999999,"N_COORD97":2545433.48,"ADDRESS":"和緯路四段１１７巷１３號","OBJECTID":389607},"geometry":{"x":167085.9000000013,"y":2545433.4800000023}},{"attributes":{"ID":389632,"DIS_CODE":0,"TOWNNAME":"北區","LI":"大豐里","LIN":"29鄰","STREET":"和緯路","SECT":"四段","MAREA":" ","LANE":"１１７巷","ALLEY":" ","HOUSE_NO":"１５號","E_COORD97":167085.13,"N_COORD97":2545429.2200000002,"ADDRESS":"和緯路四段１１７巷１５號","OBJECTID":389608},"geometry":{"x":167085.13000000175,"y":2545429.2200000007}},{"attributes":{"ID":389633,"DIS_CODE":0,"TOWNNAME":"北區","LI":"大豐里","LIN":"29鄰","STREET":"和緯路","SECT":"四段","MAREA":" ","LANE":"１１７巷","ALLEY":" ","HOUSE_NO":"１７號","E_COORD97":167084.66,"N_COORD97":2545425.2000000002,"ADDRESS":"和緯路四段１１７巷１７號","OBJECTID":389609},"geometry":{"x":167084.66000000015,"y":2545425.1999999993}},{"attributes":{"ID":389634,"DIS_CODE":0,"TOWNNAME":"北區","LI":"大豐里","LIN":"29鄰","STREET":"和緯路","SECT":"四段","MAREA":" ","LANE":"１１７巷","ALLEY":" ","HOUSE_NO":"１９號","E_COORD97":167083.97,"N_COORD97":2545421.1899999999,"ADDRESS":"和緯路四段１１７巷１９號","OBJECTID":389610},"geometry":{"x":167083.96999999974,"y":2545421.1899999995}},{"attributes":{"ID":389635,"DIS_CODE":0,"TOWNNAME":"北區","LI":"大豐里","LIN":"29鄰","STREET":"和緯路","SECT":"四段","MAREA":" ","LANE":"１１７巷","ALLEY":" ","HOUSE_NO":"１號","E_COORD97":167083.57000000001,"N_COORD97":2545463.21,"ADDRESS":"和緯路四段１１７巷１號","OBJECTID":389611},"geometry":{"x":167083.5700000003,"y":2545463.2100000009}},{"attributes":{"ID":389636,"DIS_CODE":0,"TOWNNAME":"北區","LI":"大豐里","LIN":"29鄰","STREET":"和緯路","SECT":"四段","MAREA":" ","LANE":"１１７巷","ALLEY":" ","HOUSE_NO":"２１號","E_COORD97":167083.82000000001,"N_COORD97":2545417.6400000001,"ADDRESS":"和緯路四段１１７巷２１號","OBJECTID":389612},"geometry":{"x":167083.8200000003,"y":2545417.6400000043}},{"attributes":{"ID":389637,"DIS_CODE":0,"TOWNNAME":"北區","LI":"大豐里","LIN":"29鄰","STREET":"和緯路","SECT":"四段","MAREA":" ","LANE":"１１７巷","ALLEY":" ","HOUSE_NO":"２３號","E_COORD97":167083.20000000001,"N_COORD97":2545413.5499999998,"ADDRESS":"和緯路四段１１７巷２３號","OBJECTID":389613},"geometry":{"x":167083.20000000205,"y":2545413.5500000007}},{"attributes":{"ID":389638,"DIS_CODE":0,"TOWNNAME":"北區","LI":"大豐里","LIN":"29鄰","STREET":"和緯路","SECT":"四段","MAREA":" ","LANE":"１１７巷","ALLEY":" ","HOUSE_NO":"２５號","E_COORD97":167082.42999999999,"N_COORD97":2545409.46,"ADDRESS":"和緯路四段１１７巷２５號","OBJECTID":389614},"geometry":{"x":167082.4299999997,"y":2545409.4600000028}},{"attributes":{"ID":389639,"DIS_CODE":0,"TOWNNAME":"善化區","LI":"坐駕里","LIN":"13鄰","STREET":"自強路","SECT":" ","MAREA":" ","LANE":" ","ALLEY":" ","HOUSE_NO":"７１號","E_COORD97":178139.32999999999,"N_COORD97":2558723.5,"ADDRESS":"自強路７１號","OBJECTID":389615},"geometry":{"x":178139.33000000007,"y":2558723.5}},{"attributes":{"ID":389640,"DIS_CODE":0,"TOWNNAME":"北區","LI":"大豐里","LIN":"29鄰","STREET":"和緯路","SECT":"四段","MAREA":" ","LANE":"１１７巷","ALLEY":" ","HOUSE_NO":"２７號","E_COORD97":167081.73000000001,"N_COORD97":2545405.1400000001,"ADDRESS":"和緯路四段１１７巷２７號","OBJECTID":389616},"geometry":{"x":167081.73000000138,"y":2545405.1400000025}},{"attributes":{"ID":389641,"DIS_CODE":0,"TOWNNAME":"仁德區","LI":"仁義里","LIN":"39鄰","STREET":"仁義五街","SECT":" ","MAREA":" ","LANE":"４４巷","ALLEY":" ","HOUSE_NO":"１７號","E_COORD97":173607.76999999999,"N_COORD97":2540392.2599999998,"ADDRESS":"仁義五街４４巷１７號","OBJECTID":389617},"geometry":{"x":173607.76999999955,"y":2540392.2600000016}},{"attributes":{"ID":389642,"DIS_CODE":0,"TOWNNAME":"北區","LI":"大豐里","LIN":"29鄰","STREET":"和緯路","SECT":"四段","MAREA":" ","LANE":"１１７巷","ALLEY":" ","HOUSE_NO":"３１號","E_COORD97":167080.5,"N_COORD97":2545397.7400000002,"ADDRESS":"和緯路四段１１７巷３１號","OBJECTID":389618},"geometry":{"x":167080.5,"y":2545397.7400000002}},{"attributes":{"ID":389643,"DIS_CODE":0,"TOWNNAME":"北區","LI":"大豐里","LIN":"29鄰","STREET":"和緯路","SECT":"四段","MAREA":" ","LANE":"１１７巷","ALLEY":" ","HOUSE_NO":"３３號","E_COORD97":167079.88,"N_COORD97":2545393.52,"ADDRESS":"和緯路四段１１７巷３３號","OBJECTID":389619},"geometry":{"x":167079.88000000175,"y":2545393.5200000033}},{"attributes":{"ID":389644,"DIS_CODE":0,"TOWNNAME":"北區","LI":"大豐里","LIN":"29鄰","STREET":"和緯路","SECT":"四段","MAREA":" ","LANE":"１１７巷","ALLEY":" ","HOUSE_NO":"３５號","E_COORD97":167079.41,"N_COORD97":2545389.2799999998,"ADDRESS":"和緯路四段１１７巷３５號","OBJECTID":389620},"geometry":{"x":167079.41000000015,"y":2545389.2800000012}},{"attributes":{"ID":389645,"DIS_CODE":0,"TOWNNAME":"北區","LI":"大豐里","LIN":"29鄰","STREET":"和緯路","SECT":"四段","MAREA":" ","LANE":"１１７巷","ALLEY":" ","HOUSE_NO":"３７號","E_COORD97":167078.79999999999,"N_COORD97":2545385.6600000001,"ADDRESS":"和緯路四段１１７巷３７號","OBJECTID":389621},"geometry":{"x":167078.80000000168,"y":2545385.6600000001}},{"attributes":{"ID":389646,"DIS_CODE":0,"TOWNNAME":"北區","LI":"大豐里","LIN":"29鄰","STREET":"和緯路","SECT":"四段","MAREA":" ","LANE":"１１７巷","ALLEY":" ","HOUSE_NO":"３９號","E_COORD97":167078.32999999999,"N_COORD97":2545381.7999999998,"ADDRESS":"和緯路四段１１７巷３９號","OBJECTID":389622},"geometry":{"x":167078.33000000007,"y":2545381.8000000007}},{"attributes":{"ID":389647,"DIS_CODE":0,"TOWNNAME":"北區","LI":"大豐里","LIN":"29鄰","STREET":"和緯路","SECT":"四段","MAREA":" ","LANE":"１１７巷","ALLEY":" ","HOUSE_NO":"３號","E_COORD97":167091.09,"N_COORD97":2545460.3199999998,"ADDRESS":"和緯路四段１１７巷３號","OBJECTID":389623},"geometry":{"x":167091.09000000078,"y":2545460.3200000022}},{"attributes":{"ID":389648,"DIS_CODE":0,"TOWNNAME":"北區","LI":"大豐里","LIN":"29鄰","STREET":"和緯路","SECT":"四段","MAREA":" ","LANE":"１１７巷","ALLEY":" ","HOUSE_NO":"４１號","E_COORD97":167077.95000000001,"N_COORD97":2545378.4100000001,"ADDRESS":"和緯路四段１１７巷４１號","OBJECTID":389624},"geometry":{"x":167077.94999999925,"y":2545378.410000002}},{"attributes":{"ID":389649,"DIS_CODE":0,"TOWNNAME":"北區","LI":"大豐里","LIN":"29鄰","STREET":"和緯路","SECT":"四段","MAREA":" ","LANE":"１１７巷","ALLEY":" ","HOUSE_NO":"４３號","E_COORD97":167077.79000000001,"N_COORD97":2545374.0099999998,"ADDRESS":"和緯路四段１１７巷４３號","OBJECTID":389625},"geometry":{"x":167077.79000000097,"y":2545374.0100000016}},{"attributes":{"ID":389650,"DIS_CODE":0,"TOWNNAME":"北區","LI":"大豐里","LIN":"29鄰","STREET":"和緯路","SECT":"四段","MAREA":" ","LANE":"１１７巷","ALLEY":" ","HOUSE_NO":"５９號","E_COORD97":167072.09,"N_COORD97":2545334.2799999998,"ADDRESS":"和緯路四段１１７巷５９號","OBJECTID":389626},"geometry":{"x":167072.09000000078,"y":2545334.2800000012}},{"attributes":{"ID":389651,"DIS_CODE":0,"TOWNNAME":"北區","LI":"大豐里","LIN":"29鄰","STREET":"和緯路","SECT":"四段","MAREA":" ","LANE":"１１７巷","ALLEY":" ","HOUSE_NO":"５號","E_COORD97":167090.82000000001,"N_COORD97":2545450.4100000001,"ADDRESS":"和緯路四段１１７巷５號","OBJECTID":389627},"geometry":{"x":167090.81999999937,"y":2545450.410000002}},{"attributes":{"ID":389652,"DIS_CODE":0,"TOWNNAME":"北區","LI":"大豐里","LIN":"29鄰","STREET":"和緯路","SECT":"四段","MAREA":" ","LANE":"１１７巷","ALLEY":" ","HOUSE_NO":"６１號","E_COORD97":167071.81,"N_COORD97":2545330.5899999999,"ADDRESS":"和緯路四段１１７巷６１號","OBJECTID":389628},"geometry":{"x":167071.81000000052,"y":2545330.5899999999}},{"attributes":{"ID":389653,"DIS_CODE":0,"TOWNNAME":"北區","LI":"大豐里","LIN":"29鄰","STREET":"和緯路","SECT":"四段","MAREA":" ","LANE":"１１７巷","ALLEY":" ","HOUSE_NO":"６３號","E_COORD97":167071.23999999999,"N_COORD97":2545326.21,"ADDRESS":"和緯路四段１１７巷６３號","OBJECTID":389629},"geometry":{"x":167071.24000000115,"y":2545326.2100000028}},{"attributes":{"ID":389654,"DIS_CODE":0,"TOWNNAME":"北區","LI":"大豐里","LIN":"29鄰","STREET":"和緯路","SECT":"四段","MAREA":" ","LANE":"１１７巷","ALLEY":" ","HOUSE_NO":"６５號","E_COORD97":167070.88,"N_COORD97":2545322.1699999999,"ADDRESS":"和緯路四段１１７巷６５號","OBJECTID":389630},"geometry":{"x":167070.87999999989,"y":2545322.1700000018}},{"attributes":{"ID":389655,"DIS_CODE":0,"TOWNNAME":"北區","LI":"大豐里","LIN":"29鄰","STREET":"和緯路","SECT":"四段","MAREA":" ","LANE":"１１７巷","ALLEY":" ","HOUSE_NO":"６７號","E_COORD97":167070.17000000001,"N_COORD97":2545318.0499999998,"ADDRESS":"和緯路四段１１７巷６７號","OBJECTID":389631},"geometry":{"x":167070.17000000086,"y":2545318.0500000026}},{"attributes":{"ID":389656,"DIS_CODE":0,"TOWNNAME":"北區","LI":"大豐里","LIN":"29鄰","STREET":"和緯路","SECT":"四段","MAREA":" ","LANE":"１１７巷","ALLEY":" ","HOUSE_NO":"６９號","E_COORD97":167069.95999999999,"N_COORD97":2545314.5600000001,"ADDRESS":"和緯路四段１１７巷６９號","OBJECTID":389632},"geometry":{"x":167069.96000000089,"y":2545314.5600000005}},{"attributes":{"ID":389657,"DIS_CODE":0,"TOWNNAME":"北區","LI":"大豐里","LIN":"29鄰","STREET":"和緯路","SECT":"四段","MAREA":" ","LANE":"１１７巷","ALLEY":" ","HOUSE_NO":"７１號","E_COORD97":167069.39000000001,"N_COORD97":2545310.5699999998,"ADDRESS":"和緯路四段１１７巷７１號","OBJECTID":389633},"geometry":{"x":167069.39000000153,"y":2545310.5700000022}},{"attributes":{"ID":389658,"DIS_CODE":0,"TOWNNAME":"北區","LI":"大豐里","LIN":"29鄰","STREET":"和緯路","SECT":"四段","MAREA":" ","LANE":"１１７巷","ALLEY":" ","HOUSE_NO":"７３號","E_COORD97":167068.82000000001,"N_COORD97":2545306.3100000001,"ADDRESS":"和緯路四段１１７巷７３號","OBJECTID":389634},"geometry":{"x":167068.81999999937,"y":2545306.3100000005}},{"attributes":{"ID":389659,"DIS_CODE":0,"TOWNNAME":"北區","LI":"大豐里","LIN":"29鄰","STREET":"和緯路","SECT":"四段","MAREA":" ","LANE":"１１７巷","ALLEY":" ","HOUSE_NO":"７５號","E_COORD97":167068.10999999999,"N_COORD97":2545302.2599999998,"ADDRESS":"和緯路四段１１７巷７５號","OBJECTID":389635},"geometry":{"x":167068.11000000034,"y":2545302.2599999998}},{"attributes":{"ID":389660,"DIS_CODE":0,"TOWNNAME":"北區","LI":"大豐里","LIN":"29鄰","STREET":"和緯路","SECT":"四段","MAREA":" ","LANE":"１１７巷","ALLEY":" ","HOUSE_NO":"７７號","E_COORD97":167067.89999999999,"N_COORD97":2545299.0499999998,"ADDRESS":"和緯路四段１１７巷７７號","OBJECTID":389636},"geometry":{"x":167067.90000000037,"y":2545299.0500000007}},{"attributes":{"ID":389661,"DIS_CODE":0,"TOWNNAME":"北區","LI":"大豐里","LIN":"29鄰","STREET":"和緯路","SECT":"四段","MAREA":" ","LANE":"１１７巷","ALLEY":" ","HOUSE_NO":"７９號","E_COORD97":167067.47,"N_COORD97":2545294.5099999998,"ADDRESS":"和緯路四段１１７巷７９號","OBJECTID":389637},"geometry":{"x":167067.47000000067,"y":2545294.5099999998}},{"attributes":{"ID":389662,"DIS_CODE":0,"TOWNNAME":"北區","LI":"大豐里","LIN":"29鄰","STREET":"和緯路","SECT":"四段","MAREA":" ","LANE":"１１７巷","ALLEY":" ","HOUSE_NO":"７號","E_COORD97":167087.14000000001,"N_COORD97":2545445.29,"ADDRESS":"和緯路四段１１７巷７號","OBJECTID":389638},"geometry":{"x":167087.1400000006,"y":2545445.2900000028}},{"attributes":{"ID":389663,"DIS_CODE":0,"TOWNNAME":"北區","LI":"大豐里","LIN":"29鄰","STREET":"和緯路","SECT":"四段","MAREA":" ","LANE":"１１７巷","ALLEY":" ","HOUSE_NO":"９號","E_COORD97":167086.89999999999,"N_COORD97":2545440.8100000001,"ADDRESS":"和緯路四段１１７巷９號","OBJECTID":389639},"geometry":{"x":167086.90000000037,"y":2545440.8100000024}},{"attributes":{"ID":389664,"DIS_CODE":0,"TOWNNAME":"仁德區","LI":"仁義里","LIN":"10鄰","STREET":"仁義一街","SECT":" ","MAREA":" ","LANE":"１０２巷","ALLEY":" ","HOUSE_NO":"６號","E_COORD97":173522.38,"N_COORD97":2541159.1699999999,"ADDRESS":"仁義一街１０２巷６號","OBJECTID":389640},"geometry":{"x":173522.38000000082,"y":2541159.1700000018}},{"attributes":{"ID":389665,"DIS_CODE":0,"TOWNNAME":"關廟區","LI":"香洋里","LIN":"29鄰","STREET":"大仁街","SECT":" ","MAREA":" ","LANE":"４１６巷","ALLEY":" ","HOUSE_NO":"５號","E_COORD97":180992.87,"N_COORD97":2539767.25,"ADDRESS":"大仁街４１６巷５號","OBJECTID":389641},"geometry":{"x":180992.87000000104,"y":2539767.25}},{"attributes":{"ID":389666,"DIS_CODE":0,"TOWNNAME":"新營區","LI":"王公里","LIN":"29鄰","STREET":"大公街","SECT":" ","MAREA":" ","LANE":"７８巷","ALLEY":" ","HOUSE_NO":"１號","E_COORD97":180318.51999999999,"N_COORD97":2579613.3199999998,"ADDRESS":"大公街７８巷１號","OBJECTID":389642},"geometry":{"x":180318.52000000048,"y":2579613.3200000003}},{"attributes":{"ID":389667,"DIS_CODE":0,"TOWNNAME":"新營區","LI":"忠政里","LIN":"29鄰","STREET":"中正路","SECT":" ","MAREA":" ","LANE":"３９巷","ALLEY":" ","HOUSE_NO":"１３２號","E_COORD97":179706.56,"N_COORD97":2579229.7200000002,"ADDRESS":"中正路３９巷１３２號","OBJECTID":389643},"geometry":{"x":179706.56000000052,"y":2579229.7200000025}},{"attributes":{"ID":389668,"DIS_CODE":0,"TOWNNAME":"新營區","LI":"忠政里","LIN":"29鄰","STREET":"中正路","SECT":" ","MAREA":" ","LANE":"３９巷","ALLEY":" ","HOUSE_NO":"１３５號之１","E_COORD97":179707.89000000001,"N_COORD97":2579275.1800000002,"ADDRESS":"中正路３９巷１３５號之１","OBJECTID":389644},"geometry":{"x":179707.8900000006,"y":2579275.1799999997}},{"attributes":{"ID":389669,"DIS_CODE":0,"TOWNNAME":"新營區","LI":"王公里","LIN":"29鄰","STREET":"長榮路","SECT":"一段","MAREA":" ","LANE":"５１５巷","ALLEY":" ","HOUSE_NO":"４５號","E_COORD97":180312.14000000001,"N_COORD97":2579713.0299999998,"ADDRESS":"長榮路一段５１５巷４５號","OBJECTID":389645},"geometry":{"x":180312.13999999873,"y":2579713.0299999993}},{"attributes":{"ID":389670,"DIS_CODE":0,"TOWNNAME":"新營區","LI":"忠政里","LIN":"29鄰","STREET":"中正路","SECT":" ","MAREA":" ","LANE":"３９巷","ALLEY":" ","HOUSE_NO":"１３５號之１０","E_COORD97":179708.35999999999,"N_COORD97":2579317.27,"ADDRESS":"中正路３９巷１３５號之１０","OBJECTID":389646},"geometry":{"x":179708.36000000127,"y":2579317.2700000014}},{"attributes":{"ID":389671,"DIS_CODE":0,"TOWNNAME":"新營區","LI":"忠政里","LIN":"29鄰","STREET":"中正路","SECT":" ","MAREA":" ","LANE":"３９巷","ALLEY":" ","HOUSE_NO":"１３５號之２","E_COORD97":179708.04000000001,"N_COORD97":2579280.7200000002,"ADDRESS":"中正路３９巷１３５號之２","OBJECTID":389647},"geometry":{"x":179708.03999999911,"y":2579280.7200000025}},{"attributes":{"ID":389672,"DIS_CODE":0,"TOWNNAME":"新營區","LI":"新東里","LIN":"27鄰","STREET":"東光街","SECT":" ","MAREA":" ","LANE":"８２巷","ALLEY":" ","HOUSE_NO":"１０號","E_COORD97":180633.44094100001,"N_COORD97":2579625.1852000002,"ADDRESS":"東光街８２巷１０號","OBJECTID":389648},"geometry":{"x":180633.44094100129,"y":2579625.1852039993}},{"attributes":{"ID":389673,"DIS_CODE":0,"TOWNNAME":"新營區","LI":"忠政里","LIN":"29鄰","STREET":"中正路","SECT":" ","MAREA":" ","LANE":"３９巷","ALLEY":" ","HOUSE_NO":"１２８號","E_COORD97":179705.57000000001,"N_COORD97":2579238.5800000001,"ADDRESS":"中正路３９巷１２８號","OBJECTID":389649},"geometry":{"x":179705.57000000123,"y":2579238.5800000001}},{"attributes":{"ID":389674,"DIS_CODE":0,"TOWNNAME":"仁德區","LI":"太子里","LIN":"30鄰","STREET":"太子路","SECT":" ","MAREA":" ","LANE":"６１３巷","ALLEY":" ","HOUSE_NO":"３１號","E_COORD97":173790.67999999999,"N_COORD97":2543400.25,"ADDRESS":"太子路６１３巷３１號","OBJECTID":389650},"geometry":{"x":173790.68000000156,"y":2543400.2500000019}},{"attributes":{"ID":389675,"DIS_CODE":0,"TOWNNAME":"仁德區","LI":"仁義里","LIN":"12鄰","STREET":"中山路","SECT":" ","MAREA":" ","LANE":"１０巷","ALLEY":" ","HOUSE_NO":"６３號","E_COORD97":175110.09,"N_COORD97":2541335.25,"ADDRESS":"中山路１０巷６３號","OBJECTID":389651},"geometry":{"x":175110.08999999985,"y":2541335.2500000019}},{"attributes":{"ID":389676,"DIS_CODE":0,"TOWNNAME":"新營區","LI":"忠政里","LIN":"29鄰","STREET":"中正路","SECT":" ","MAREA":" ","LANE":"３９巷","ALLEY":" ","HOUSE_NO":"１７３號","E_COORD97":179722.07999999999,"N_COORD97":2579267.3100000001,"ADDRESS":"中正路３９巷１７３號","OBJECTID":389652},"geometry":{"x":179722.08000000101,"y":2579267.3100000024}},{"attributes":{"ID":389677,"DIS_CODE":0,"TOWNNAME":"新營區","LI":"忠政里","LIN":"29鄰","STREET":"中正路","SECT":" ","MAREA":" ","LANE":"３９巷","ALLEY":" ","HOUSE_NO":"１６５號","E_COORD97":179739.67000000001,"N_COORD97":2579310.4100000001,"ADDRESS":"中正路３９巷１６５號","OBJECTID":389653},"geometry":{"x":179739.67000000086,"y":2579310.4100000001}},{"attributes":{"ID":389678,"DIS_CODE":0,"TOWNNAME":"新營區","LI":"忠政里","LIN":"29鄰","STREET":"中正路","SECT":" ","MAREA":" ","LANE":"３９巷","ALLEY":" ","HOUSE_NO":"１７１號之３","E_COORD97":179725.48999999999,"N_COORD97":2579300.5699999998,"ADDRESS":"中正路３９巷１７１號之３","OBJECTID":389654},"geometry":{"x":179725.49000000022,"y":2579300.5700000003}},{"attributes":{"ID":389679,"DIS_CODE":0,"TOWNNAME":"新營區","LI":"王公里","LIN":"29鄰","STREET":"大公街","SECT":" ","MAREA":" ","LANE":"７８巷","ALLEY":" ","HOUSE_NO":"３號","E_COORD97":180319.60000000001,"N_COORD97":2579606.6699999999,"ADDRESS":"大公街７８巷３號","OBJECTID":389655},"geometry":{"x":180319.60000000056,"y":2579606.6700000018}},{"attributes":{"ID":389680,"DIS_CODE":0,"TOWNNAME":"新營區","LI":"王公里","LIN":"29鄰","STREET":"大公街","SECT":" ","MAREA":" ","LANE":"７２巷","ALLEY":" ","HOUSE_NO":"３號","E_COORD97":180294.10999999999,"N_COORD97":2579622.29,"ADDRESS":"大公街７２巷３號","OBJECTID":389656},"geometry":{"x":180294.11000000034,"y":2579622.2899999991}},{"attributes":{"ID":389681,"DIS_CODE":0,"TOWNNAME":"仁德區","LI":"太子里","LIN":"46鄰","STREET":"太子一街","SECT":" ","MAREA":" ","LANE":"２７巷","ALLEY":" ","HOUSE_NO":"１０號","E_COORD97":174841.42000000001,"N_COORD97":2543339.0099999998,"ADDRESS":"太子一街２７巷１０號","OBJECTID":389657},"geometry":{"x":174841.41999999993,"y":2543339.0100000035}},{"attributes":{"ID":389682,"DIS_CODE":0,"TOWNNAME":"新營區","LI":"忠政里","LIN":"29鄰","STREET":"中正路","SECT":" ","MAREA":" ","LANE":"３９巷","ALLEY":" ","HOUSE_NO":"８８號","E_COORD97":179767.91,"N_COORD97":2579258.2200000002,"ADDRESS":"中正路３９巷８８號","OBJECTID":389658},"geometry":{"x":179767.91000000015,"y":2579258.2200000007}},{"attributes":{"ID":389683,"DIS_CODE":0,"TOWNNAME":"新營區","LI":"忠政里","LIN":"29鄰","STREET":"中正路","SECT":" ","MAREA":" ","LANE":"３９巷","ALLEY":" ","HOUSE_NO":"８８之２號","E_COORD97":179773.37,"N_COORD97":2579236.1000000001,"ADDRESS":"中正路３９巷８８之２號","OBJECTID":389659},"geometry":{"x":179773.37000000011,"y":2579236.1000000015}},{"attributes":{"ID":389684,"DIS_CODE":0,"TOWNNAME":"安平區","LI":"平通里","LIN":"29鄰","STREET":"育平七街","SECT":" ","MAREA":" ","LANE":"６０巷","ALLEY":" ","HOUSE_NO":"２９之１號","E_COORD97":164436.95999999999,"N_COORD97":2543864.8100000001,"ADDRESS":"育平七街６０巷２９之１號","OBJECTID":389660},"geometry":{"x":164436.96000000089,"y":2543864.8100000024}},{"attributes":{"ID":389685,"DIS_CODE":0,"TOWNNAME":"安平區","LI":"平通里","LIN":"29鄰","STREET":"育平七街","SECT":" ","MAREA":" ","LANE":"６０巷","ALLEY":" ","HOUSE_NO":"２９之２號","E_COORD97":164431.25,"N_COORD97":2543864.9700000002,"ADDRESS":"育平七街６０巷２９之２號","OBJECTID":389661},"geometry":{"x":164431.24999999907,"y":2543864.9700000007}},{"attributes":{"ID":389686,"DIS_CODE":0,"TOWNNAME":"安平區","LI":"平通里","LIN":"29鄰","STREET":"育平七街","SECT":" ","MAREA":" ","LANE":"６０巷","ALLEY":" ","HOUSE_NO":"２９之３號","E_COORD97":164423.79000000001,"N_COORD97":2543864.9700000002,"ADDRESS":"育平七街６０巷２９之３號","OBJECTID":389662},"geometry":{"x":164423.79000000004,"y":2543864.9700000007}},{"attributes":{"ID":389687,"DIS_CODE":0,"TOWNNAME":"安平區","LI":"平通里","LIN":"29鄰","STREET":"育平七街","SECT":" ","MAREA":" ","LANE":"６０巷","ALLEY":" ","HOUSE_NO":"２９號","E_COORD97":164442.20000000001,"N_COORD97":2543864.6499999999,"ADDRESS":"育平七街６０巷２９號","OBJECTID":389663},"geometry":{"x":164442.20000000112,"y":2543864.6500000022}},{"attributes":{"ID":389688,"DIS_CODE":0,"TOWNNAME":"安平區","LI":"平通里","LIN":"29鄰","STREET":"育平七街","SECT":" ","MAREA":" ","LANE":"６０巷","ALLEY":" ","HOUSE_NO":"３１之１號","E_COORD97":164436.79999999999,"N_COORD97":2543849.5699999998,"ADDRESS":"育平七街６０巷３１之１號","OBJECTID":389664},"geometry":{"x":164436.79999999981,"y":2543849.5700000003}},{"attributes":{"ID":389689,"DIS_CODE":0,"TOWNNAME":"安平區","LI":"平通里","LIN":"29鄰","STREET":"育平七街","SECT":" ","MAREA":" ","LANE":"６０巷","ALLEY":" ","HOUSE_NO":"３１之２號","E_COORD97":164431.09,"N_COORD97":2543849.5699999998,"ADDRESS":"育平七街６０巷３１之２號","OBJECTID":389665},"geometry":{"x":164431.09000000078,"y":2543849.5700000003}},{"attributes":{"ID":389690,"DIS_CODE":0,"TOWNNAME":"安平區","LI":"平通里","LIN":"29鄰","STREET":"育平七街","SECT":" ","MAREA":" ","LANE":"６０巷","ALLEY":" ","HOUSE_NO":"３１之３號","E_COORD97":164423.79000000001,"N_COORD97":2543849.73,"ADDRESS":"育平七街６０巷３１之３號","OBJECTID":389666},"geometry":{"x":164423.79000000004,"y":2543849.7300000004}},{"attributes":{"ID":389691,"DIS_CODE":0,"TOWNNAME":"安平區","LI":"平通里","LIN":"29鄰","STREET":"育平七街","SECT":" ","MAREA":" ","LANE":"６０巷","ALLEY":" ","HOUSE_NO":"３１號","E_COORD97":164442.84,"N_COORD97":2543849.5699999998,"ADDRESS":"育平七街６０巷３１號","OBJECTID":389667},"geometry":{"x":164442.84000000078,"y":2543849.5700000003}},{"attributes":{"ID":389692,"DIS_CODE":0,"TOWNNAME":"仁德區","LI":"仁義里","LIN":"12鄰","STREET":"中山路","SECT":" ","MAREA":" ","LANE":"２巷","ALLEY":" ","HOUSE_NO":"１號","E_COORD97":175289.54999999999,"N_COORD97":2541125.25,"ADDRESS":"中山路２巷１號","OBJECTID":389668},"geometry":{"x":175289.54999999981,"y":2541125.2500000019}},{"attributes":{"ID":389693,"DIS_CODE":0,"TOWNNAME":"仁德區","LI":"太子里","LIN":"45鄰","STREET":"太子一街","SECT":" ","MAREA":" ","LANE":"２７巷","ALLEY":" ","HOUSE_NO":"２６號","E_COORD97":174891.16,"N_COORD97":2543333.0099999998,"ADDRESS":"太子一街２７巷２６號","OBJECTID":389669},"geometry":{"x":174891.16000000015,"y":2543333.0100000016}},{"attributes":{"ID":389694,"DIS_CODE":0,"TOWNNAME":"歸仁區","LI":"許厝里","LIN":"29鄰","STREET":"大智街","SECT":" ","MAREA":" ","LANE":"２３巷","ALLEY":" ","HOUSE_NO":"１２號","E_COORD97":177971.67999999999,"N_COORD97":2540663.5299999998,"ADDRESS":"大智街２３巷１２號","OBJECTID":389670},"geometry":{"x":177971.68000000063,"y":2540663.5300000031}},{"attributes":{"ID":389695,"DIS_CODE":0,"TOWNNAME":"歸仁區","LI":"許厝里","LIN":"29鄰","STREET":"中山路","SECT":"一段","MAREA":" ","LANE":"５１５巷","ALLEY":" ","HOUSE_NO":"１０號","E_COORD97":177956.10999999999,"N_COORD97":2540685.54,"ADDRESS":"中山路一段５１５巷１０號","OBJECTID":389671},"geometry":{"x":177956.11000000034,"y":2540685.5399999991}},{"attributes":{"ID":389696,"DIS_CODE":0,"TOWNNAME":"歸仁區","LI":"許厝里","LIN":"29鄰","STREET":"中山路","SECT":"一段","MAREA":" ","LANE":"５１５巷","ALLEY":" ","HOUSE_NO":"３號","E_COORD97":177965.06,"N_COORD97":2540697.54,"ADDRESS":"中山路一段５１５巷３號","OBJECTID":389672},"geometry":{"x":177965.06000000052,"y":2540697.540000001}},{"attributes":{"ID":389697,"DIS_CODE":0,"TOWNNAME":"歸仁區","LI":"許厝里","LIN":"29鄰","STREET":"中山路","SECT":"一段","MAREA":" ","LANE":"５１５巷","ALLEY":" ","HOUSE_NO":"２號","E_COORD97":177955.85999999999,"N_COORD97":2540696.54,"ADDRESS":"中山路一段５１５巷２號","OBJECTID":389673},"geometry":{"x":177955.86000000127,"y":2540696.5399999991}},{"attributes":{"ID":389698,"DIS_CODE":0,"TOWNNAME":"歸仁區","LI":"許厝里","LIN":"29鄰","STREET":"中山路","SECT":"一段","MAREA":" ","LANE":"５１５巷","ALLEY":" ","HOUSE_NO":"１４號","E_COORD97":177956.01000000001,"N_COORD97":2540678.54,"ADDRESS":"中山路一段５１５巷１４號","OBJECTID":389674},"geometry":{"x":177956.01000000071,"y":2540678.5399999991}},{"attributes":{"ID":389699,"DIS_CODE":0,"TOWNNAME":"歸仁區","LI":"許厝里","LIN":"29鄰","STREET":"中山路","SECT":"一段","MAREA":" ","LANE":"５１５巷","ALLEY":" ","HOUSE_NO":"１３號","E_COORD97":177966.31,"N_COORD97":2540675.54,"ADDRESS":"中山路一段５１５巷１３號","OBJECTID":389675},"geometry":{"x":177966.30999999959,"y":2540675.5399999991}},{"attributes":{"ID":389700,"DIS_CODE":0,"TOWNNAME":"仁德區","LI":"太子里","LIN":"30鄰","STREET":"中正路","SECT":"三段","MAREA":" ","LANE":"６３６巷","ALLEY":" ","HOUSE_NO":"１２號","E_COORD97":173835.07999999999,"N_COORD97":2543347.7799999998,"ADDRESS":"中正路三段６３６巷１２號","OBJECTID":389676},"geometry":{"x":173835.08000000007,"y":2543347.7800000012}},{"attributes":{"ID":389701,"DIS_CODE":0,"TOWNNAME":"歸仁區","LI":"許厝里","LIN":"29鄰","STREET":"中山路","SECT":"一段","MAREA":" ","LANE":"５１５巷","ALLEY":" ","HOUSE_NO":"８號","E_COORD97":177955.85999999999,"N_COORD97":2540689.54,"ADDRESS":"中山路一段５１５巷８號","OBJECTID":389677},"geometry":{"x":177955.86000000127,"y":2540689.5399999991}},{"attributes":{"ID":389702,"DIS_CODE":0,"TOWNNAME":"歸仁區","LI":"許厝里","LIN":"29鄰","STREET":"中山路","SECT":"一段","MAREA":" ","LANE":"５１５巷","ALLEY":" ","HOUSE_NO":"１號","E_COORD97":177967.44,"N_COORD97":2540706.6600000001,"ADDRESS":"中山路一段５１５巷１號","OBJECTID":389678},"geometry":{"x":177967.44000000041,"y":2540706.6600000001}},{"attributes":{"ID":389703,"DIS_CODE":0,"TOWNNAME":"歸仁區","LI":"許厝里","LIN":"29鄰","STREET":"中山路","SECT":"一段","MAREA":" ","LANE":"５１５巷","ALLEY":" ","HOUSE_NO":"７號","E_COORD97":177966.06,"N_COORD97":2540690.54,"ADDRESS":"中山路一段５１５巷７號","OBJECTID":389679},"geometry":{"x":177966.05999999959,"y":2540690.5400000028}},{"attributes":{"ID":389704,"DIS_CODE":0,"TOWNNAME":"歸仁區","LI":"許厝里","LIN":"29鄰","STREET":"中山路","SECT":"一段","MAREA":" ","LANE":"５１５巷","ALLEY":" ","HOUSE_NO":"１６號","E_COORD97":177956.01000000001,"N_COORD97":2540673.54,"ADDRESS":"中山路一段５１５巷１６號","OBJECTID":389680},"geometry":{"x":177956.01000000071,"y":2540673.5400000028}},{"attributes":{"ID":389705,"DIS_CODE":0,"TOWNNAME":"北區","LI":"文元里","LIN":"29鄰","STREET":"文成路","SECT":" ","MAREA":" ","LANE":"７５０巷","ALLEY":" ","HOUSE_NO":"８號","E_COORD97":167621.70999999999,"N_COORD97":2545912.8300000001,"ADDRESS":"文成路７５０巷８號","OBJECTID":389681},"geometry":{"x":167621.70999999996,"y":2545912.8300000001}},{"attributes":{"ID":389706,"DIS_CODE":0,"TOWNNAME":"新營區","LI":"忠政里","LIN":"29鄰","STREET":"中正路","SECT":" ","MAREA":" ","LANE":"３９巷","ALLEY":" ","HOUSE_NO":"１４９號","E_COORD97":179736.39999999999,"N_COORD97":2579268.3399999999,"ADDRESS":"中正路３９巷１４９號","OBJECTID":389682},"geometry":{"x":179736.40000000037,"y":2579268.3400000036}},{"attributes":{"ID":389707,"DIS_CODE":0,"TOWNNAME":"新營區","LI":"忠政里","LIN":"29鄰","STREET":"中正路","SECT":" ","MAREA":" ","LANE":"３９巷","ALLEY":" ","HOUSE_NO":"１６１號","E_COORD97":179749.89999999999,"N_COORD97":2579311.4700000002,"ADDRESS":"中正路３９巷１６１號","OBJECTID":389683},"geometry":{"x":179749.90000000037,"y":2579311.4700000007}},{"attributes":{"ID":389708,"DIS_CODE":0,"TOWNNAME":"新營區","LI":"忠政里","LIN":"29鄰","STREET":"中正路","SECT":" ","MAREA":" ","LANE":"３９巷","ALLEY":" ","HOUSE_NO":"１５１號","E_COORD97":179753.87,"N_COORD97":2579285.98,"ADDRESS":"中正路３９巷１５１號","OBJECTID":389684},"geometry":{"x":179753.87000000104,"y":2579285.9800000023}},{"attributes":{"ID":389709,"DIS_CODE":0,"TOWNNAME":"新營區","LI":"新南里","LIN":"29鄰","STREET":"明清三街","SECT":" ","MAREA":" ","LANE":"２９巷","ALLEY":" ","HOUSE_NO":"４１號","E_COORD97":178152.56,"N_COORD97":2578766.5099999998,"ADDRESS":"明清三街２９巷４１號","OBJECTID":389685},"geometry":{"x":178152.55999999959,"y":2578766.5100000016}},{"attributes":{"ID":389710,"DIS_CODE":0,"TOWNNAME":"新營區","LI":"忠政里","LIN":"29鄰","STREET":"中正路","SECT":" ","MAREA":" ","LANE":"３９巷","ALLEY":" ","HOUSE_NO":"１５９號","E_COORD97":179755.01999999999,"N_COORD97":2579311.4399999999,"ADDRESS":"中正路３９巷１５９號","OBJECTID":389686},"geometry":{"x":179755.01999999955,"y":2579311.4400000013}},{"attributes":{"ID":389711,"DIS_CODE":0,"TOWNNAME":"新營區","LI":"新南里","LIN":"29鄰","STREET":"明清三街","SECT":" ","MAREA":" ","LANE":"２９巷","ALLEY":" ","HOUSE_NO":"３９號","E_COORD97":178156.66,"N_COORD97":2578766.4900000002,"ADDRESS":"明清三街２９巷３９號","OBJECTID":389687},"geometry":{"x":178156.66000000108,"y":2578766.4900000021}},{"attributes":{"ID":389712,"DIS_CODE":0,"TOWNNAME":"新營區","LI":"忠政里","LIN":"29鄰","STREET":"中正路","SECT":" ","MAREA":" ","LANE":"３９巷","ALLEY":" ","HOUSE_NO":"１４５號","E_COORD97":179750.72,"N_COORD97":2579268.2799999998,"ADDRESS":"中正路３９巷１４５號","OBJECTID":389688},"geometry":{"x":179750.7200000016,"y":2579268.2800000031}},{"attributes":{"ID":389713,"DIS_CODE":0,"TOWNNAME":"新營區","LI":"新南里","LIN":"29鄰","STREET":"明清三街","SECT":" ","MAREA":" ","LANE":"２９巷","ALLEY":" ","HOUSE_NO":"５１號","E_COORD97":178131.01999999999,"N_COORD97":2578767.7200000002,"ADDRESS":"明清三街２９巷５１號","OBJECTID":389689},"geometry":{"x":178131.01999999955,"y":2578767.7200000007}},{"attributes":{"ID":389714,"DIS_CODE":0,"TOWNNAME":"新營區","LI":"忠政里","LIN":"29鄰","STREET":"中正路","SECT":" ","MAREA":" ","LANE":"３９巷","ALLEY":" ","HOUSE_NO":"１３５之７號","E_COORD97":179708.07999999999,"N_COORD97":2579300.6499999999,"ADDRESS":"中正路３９巷１３５之７號","OBJECTID":389690},"geometry":{"x":179708.08000000101,"y":2579300.6500000041}},{"attributes":{"ID":389715,"DIS_CODE":0,"TOWNNAME":"新營區","LI":"忠政里","LIN":"29鄰","STREET":"中正路","SECT":" ","MAREA":" ","LANE":"３９巷","ALLEY":" ","HOUSE_NO":"１３６號","E_COORD97":179707.54000000001,"N_COORD97":2579220.8599999999,"ADDRESS":"中正路３９巷１３６號","OBJECTID":389691},"geometry":{"x":179707.54000000004,"y":2579220.8600000013}},{"attributes":{"ID":389716,"DIS_CODE":0,"TOWNNAME":"新營區","LI":"忠政里","LIN":"29鄰","STREET":"中正路","SECT":" ","MAREA":" ","LANE":"３９巷","ALLEY":" ","HOUSE_NO":"１５５號","E_COORD97":179740.57000000001,"N_COORD97":2579284.9399999999,"ADDRESS":"中正路３９巷１５５號","OBJECTID":389692},"geometry":{"x":179740.57000000123,"y":2579284.9400000013}},{"attributes":{"ID":389717,"DIS_CODE":0,"TOWNNAME":"新營區","LI":"王公里","LIN":"29鄰","STREET":"長榮路","SECT":"一段","MAREA":" ","LANE":"５１５巷","ALLEY":" ","HOUSE_NO":"４７號","E_COORD97":180311.10000000001,"N_COORD97":2579709.71,"ADDRESS":"長榮路一段５１５巷４７號","OBJECTID":389693},"geometry":{"x":180311.10000000056,"y":2579709.7100000009}},{"attributes":{"ID":389718,"DIS_CODE":0,"TOWNNAME":"新營區","LI":"忠政里","LIN":"29鄰","STREET":"中正路","SECT":" ","MAREA":" ","LANE":"３９巷","ALLEY":" ","HOUSE_NO":"１３５號之９","E_COORD97":179707.12,"N_COORD97":2579311.73,"ADDRESS":"中正路３９巷１３５號之９","OBJECTID":389694},"geometry":{"x":179707.12000000011,"y":2579311.7300000023}},{"attributes":{"ID":389719,"DIS_CODE":0,"TOWNNAME":"新營區","LI":"忠政里","LIN":"29鄰","STREET":"中正路","SECT":" ","MAREA":" ","LANE":"３９巷","ALLEY":" ","HOUSE_NO":"１４７號","E_COORD97":179742.54000000001,"N_COORD97":2579268.3199999998,"ADDRESS":"中正路３９巷１４７號","OBJECTID":389695},"geometry":{"x":179742.54000000097,"y":2579268.3200000003}},{"attributes":{"ID":389720,"DIS_CODE":0,"TOWNNAME":"新營區","LI":"忠政里","LIN":"29鄰","STREET":"中正路","SECT":" ","MAREA":" ","LANE":"３９巷","ALLEY":" ","HOUSE_NO":"１４３號","E_COORD97":179754.82000000001,"N_COORD97":2579269.3599999999,"ADDRESS":"中正路３９巷１４３號","OBJECTID":389696},"geometry":{"x":179754.82000000123,"y":2579269.3599999994}},{"attributes":{"ID":389721,"DIS_CODE":0,"TOWNNAME":"仁德區","LI":"太子里","LIN":"42鄰","STREET":"太子路","SECT":" ","MAREA":" ","LANE":"２８巷","ALLEY":" ","HOUSE_NO":"１２號","E_COORD97":175350.04999999999,"N_COORD97":2543629.5099999998,"ADDRESS":"太子路２８巷１２號","OBJECTID":389697},"geometry":{"x":175350.05000000075,"y":2543629.5099999998}},{"attributes":{"ID":389722,"DIS_CODE":0,"TOWNNAME":"仁德區","LI":"太子里","LIN":"13鄰","STREET":"長興二街","SECT":" ","MAREA":" ","LANE":"２６巷","ALLEY":" ","HOUSE_NO":"６號","E_COORD97":174417.17000000001,"N_COORD97":2543727.0099999998,"ADDRESS":"長興二街２６巷６號","OBJECTID":389698},"geometry":{"x":174417.17000000086,"y":2543727.0100000016}},{"attributes":{"ID":389723,"DIS_CODE":0,"TOWNNAME":"仁德區","LI":"太子里","LIN":"30鄰","STREET":"太子路","SECT":" ","MAREA":" ","LANE":"６１３巷","ALLEY":" ","HOUSE_NO":"３３號","E_COORD97":173792.87,"N_COORD97":2543396.5,"ADDRESS":"太子路６１３巷３３號","OBJECTID":389699},"geometry":{"x":173792.87000000011,"y":2543396.5}},{"attributes":{"ID":389724,"DIS_CODE":0,"TOWNNAME":"永康區","LI":"成功里","LIN":"29鄰","STREET":"中華路","SECT":" ","MAREA":" ","LANE":"１３４巷","ALLEY":" ","HOUSE_NO":"４７號","E_COORD97":171717.22,"N_COORD97":2544822.9100000001,"ADDRESS":"中華路１３４巷４７號","OBJECTID":389700},"geometry":{"x":171717.2200000016,"y":2544822.910000002}},{"attributes":{"ID":389725,"DIS_CODE":0,"TOWNNAME":"永康區","LI":"成功里","LIN":"29鄰","STREET":"中華路","SECT":" ","MAREA":" ","LANE":"１３４巷","ALLEY":" ","HOUSE_NO":"６１號","E_COORD97":171747.5,"N_COORD97":2544821.9100000001,"ADDRESS":"中華路１３４巷６１號","OBJECTID":389701},"geometry":{"x":171747.5,"y":2544821.9100000039}},{"attributes":{"ID":389726,"DIS_CODE":0,"TOWNNAME":"永康區","LI":"甲頂里","LIN":"29鄰","STREET":"中央路","SECT":" ","MAREA":" ","LANE":"２３巷","ALLEY":" ","HOUSE_NO":"１４號","E_COORD97":169564.70999999999,"N_COORD97":2546990.8399999999,"ADDRESS":"中央路２３巷１４號","OBJECTID":389702},"geometry":{"x":169564.71000000183,"y":2546990.8399999999}},{"attributes":{"ID":389727,"DIS_CODE":0,"TOWNNAME":"永康區","LI":"成功里","LIN":"29鄰","STREET":"中華路","SECT":" ","MAREA":" ","LANE":"１３４巷","ALLEY":" ","HOUSE_NO":"５１號","E_COORD97":171725.91,"N_COORD97":2544822.9100000001,"ADDRESS":"中華路１３４巷５１號","OBJECTID":389703},"geometry":{"x":171725.91000000015,"y":2544822.910000002}},{"attributes":{"ID":389728,"DIS_CODE":0,"TOWNNAME":"永康區","LI":"永康里","LIN":"29鄰","STREET":"永華路","SECT":" ","MAREA":" ","LANE":"７０２巷","ALLEY":" ","HOUSE_NO":"４２號","E_COORD97":174143.87,"N_COORD97":2547049.9100000001,"ADDRESS":"永華路７０２巷４２號","OBJECTID":389704},"geometry":{"x":174143.87000000011,"y":2547049.910000002}},{"attributes":{"ID":389729,"DIS_CODE":0,"TOWNNAME":"永康區","LI":"永康里","LIN":"29鄰","STREET":"永華路","SECT":" ","MAREA":" ","LANE":"７０２巷","ALLEY":" ","HOUSE_NO":"３６號","E_COORD97":174131.03,"N_COORD97":2547064.6600000001,"ADDRESS":"永華路７０２巷３６號","OBJECTID":389705},"geometry":{"x":174131.03000000026,"y":2547064.6600000039}},{"attributes":{"ID":389730,"DIS_CODE":0,"TOWNNAME":"安南區","LI":"州北里","LIN":"29鄰","STREET":"安和路","SECT":"五段","MAREA":" ","LANE":"２７６巷","ALLEY":" ","HOUSE_NO":"４６號","E_COORD97":169783.98000000001,"N_COORD97":2552142.71,"ADDRESS":"安和路五段２７６巷４６號","OBJECTID":389706},"geometry":{"x":169783.98000000138,"y":2552142.7100000009}},{"attributes":{"ID":389731,"DIS_CODE":0,"TOWNNAME":"安南區","LI":"州北里","LIN":"29鄰","STREET":"安和路","SECT":"五段","MAREA":" ","LANE":"２７６巷","ALLEY":" ","HOUSE_NO":"３０號","E_COORD97":169797.37,"N_COORD97":2552107.27,"ADDRESS":"安和路五段２７６巷３０號","OBJECTID":389707},"geometry":{"x":169797.37000000011,"y":2552107.2699999996}},{"attributes":{"ID":389732,"DIS_CODE":0,"TOWNNAME":"安南區","LI":"州北里","LIN":"29鄰","STREET":"安和路","SECT":"五段","MAREA":" ","LANE":"２７６巷","ALLEY":" ","HOUSE_NO":"３２號","E_COORD97":169795.81,"N_COORD97":2552114.7400000002,"ADDRESS":"安和路五段２７６巷３２號","OBJECTID":389708},"geometry":{"x":169795.81000000145,"y":2552114.7400000002}},{"attributes":{"ID":389733,"DIS_CODE":0,"TOWNNAME":"安南區","LI":"州北里","LIN":"29鄰","STREET":"安和路","SECT":"五段","MAREA":" ","LANE":"２７６巷","ALLEY":" ","HOUSE_NO":"３４號","E_COORD97":169794.07000000001,"N_COORD97":2552119.25,"ADDRESS":"安和路五段２７６巷３４號","OBJECTID":389709},"geometry":{"x":169794.0700000003,"y":2552119.2500000019}},{"attributes":{"ID":389734,"DIS_CODE":0,"TOWNNAME":"安南區","LI":"州北里","LIN":"29鄰","STREET":"安和路","SECT":"五段","MAREA":" ","LANE":"２７６巷","ALLEY":" ","HOUSE_NO":"３６號","E_COORD97":169792.5,"N_COORD97":2552123.0800000001,"ADDRESS":"安和路五段２７６巷３６號","OBJECTID":389710},"geometry":{"x":169792.5,"y":2552123.0800000001}},{"attributes":{"ID":389735,"DIS_CODE":0,"TOWNNAME":"安南區","LI":"州北里","LIN":"29鄰","STREET":"安和路","SECT":"五段","MAREA":" ","LANE":"２７６巷","ALLEY":" ","HOUSE_NO":"３８號","E_COORD97":169790.76000000001,"N_COORD97":2552127.0699999998,"ADDRESS":"安和路五段２７６巷３８號","OBJECTID":389711},"geometry":{"x":169790.75999999978,"y":2552127.070000004}},{"attributes":{"ID":389736,"DIS_CODE":0,"TOWNNAME":"安南區","LI":"州北里","LIN":"29鄰","STREET":"安和路","SECT":"五段","MAREA":" ","LANE":"２７６巷","ALLEY":" ","HOUSE_NO":"４０號","E_COORD97":169789.20000000001,"N_COORD97":2552131.0699999998,"ADDRESS":"安和路五段２７６巷４０號","OBJECTID":389712},"geometry":{"x":169789.20000000112,"y":2552131.0700000022}},{"attributes":{"ID":389737,"DIS_CODE":0,"TOWNNAME":"安南區","LI":"州北里","LIN":"29鄰","STREET":"安和路","SECT":"五段","MAREA":" ","LANE":"２７６巷","ALLEY":" ","HOUSE_NO":"４２號","E_COORD97":169787.79999999999,"N_COORD97":2552134.8900000001,"ADDRESS":"安和路五段２７６巷４２號","OBJECTID":389713},"geometry":{"x":169787.80000000075,"y":2552134.8900000006}},{"attributes":{"ID":389738,"DIS_CODE":0,"TOWNNAME":"安南區","LI":"州北里","LIN":"29鄰","STREET":"安和路","SECT":"五段","MAREA":" ","LANE":"２７６巷","ALLEY":" ","HOUSE_NO":"４４號","E_COORD97":169785.72,"N_COORD97":2552138.54,"ADDRESS":"安和路五段２７６巷４４號","OBJECTID":389714},"geometry":{"x":169785.71999999974,"y":2552138.5399999991}},{"attributes":{"ID":389739,"DIS_CODE":0,"TOWNNAME":"安南區","LI":"州北里","LIN":"29鄰","STREET":"安和路","SECT":"五段","MAREA":" ","LANE":"２７６巷","ALLEY":" ","HOUSE_NO":"４６號之１","E_COORD97":169798.62,"N_COORD97":2552150.04,"ADDRESS":"安和路五段２７６巷４６號之１","OBJECTID":389715},"geometry":{"x":169798.62000000011,"y":2552150.0400000028}},{"attributes":{"ID":389740,"DIS_CODE":0,"TOWNNAME":"安南區","LI":"州北里","LIN":"29鄰","STREET":"安和路","SECT":"五段","MAREA":" ","LANE":"２７６巷","ALLEY":" ","HOUSE_NO":"４６號之２","E_COORD97":169797.51000000001,"N_COORD97":2552159.8599999999,"ADDRESS":"安和路五段２７６巷４６號之２","OBJECTID":389716},"geometry":{"x":169797.50999999978,"y":2552159.8599999994}},{"attributes":{"ID":389741,"DIS_CODE":0,"TOWNNAME":"安南區","LI":"州北里","LIN":"29鄰","STREET":"安和路","SECT":"五段","MAREA":" ","LANE":"２７６巷","ALLEY":" ","HOUSE_NO":"４６號之３","E_COORD97":169797.10000000001,"N_COORD97":2552169.27,"ADDRESS":"安和路五段２７６巷４６號之３","OBJECTID":389717},"geometry":{"x":169797.0999999987,"y":2552169.2700000033}},{"attributes":{"ID":389742,"DIS_CODE":0,"TOWNNAME":"安南區","LI":"州北里","LIN":"29鄰","STREET":"安和路","SECT":"五段","MAREA":" ","LANE":"２７６巷","ALLEY":" ","HOUSE_NO":"４６號之４","E_COORD97":169796.95999999999,"N_COORD97":2552177.2200000002,"ADDRESS":"安和路五段２７６巷４６號之４","OBJECTID":389718},"geometry":{"x":169796.96000000183,"y":2552177.2200000044}},{"attributes":{"ID":389743,"DIS_CODE":0,"TOWNNAME":"安南區","LI":"州北里","LIN":"29鄰","STREET":"安和路","SECT":"五段","MAREA":" ","LANE":"２７６巷","ALLEY":" ","HOUSE_NO":"４６號之５","E_COORD97":169797.23000000001,"N_COORD97":2552184.4199999999,"ADDRESS":"安和路五段２７６巷４６號之５","OBJECTID":389719},"geometry":{"x":169797.23000000231,"y":2552184.4199999999}},{"attributes":{"ID":389744,"DIS_CODE":0,"TOWNNAME":"安南區","LI":"州北里","LIN":"29鄰","STREET":"安和路","SECT":"五段","MAREA":" ","LANE":"２７６巷","ALLEY":" ","HOUSE_NO":"４６號之６","E_COORD97":169797.37,"N_COORD97":2552191.8799999999,"ADDRESS":"安和路五段２７６巷４６號之６","OBJECTID":389720},"geometry":{"x":169797.37000000011,"y":2552191.8800000008}},{"attributes":{"ID":389745,"DIS_CODE":0,"TOWNNAME":"安南區","LI":"州北里","LIN":"29鄰","STREET":"安和路","SECT":"五段","MAREA":" ","LANE":"２７６巷","ALLEY":" ","HOUSE_NO":"４８號","E_COORD97":169776.13,"N_COORD97":2552150.6400000001,"ADDRESS":"安和路五段２７６巷４８號","OBJECTID":389721},"geometry":{"x":169776.12999999989,"y":2552150.6400000043}},{"attributes":{"ID":389746,"DIS_CODE":0,"TOWNNAME":"安南區","LI":"州北里","LIN":"29鄰","STREET":"安和路","SECT":"五段","MAREA":" ","LANE":"２７６巷","ALLEY":" ","HOUSE_NO":"４８號之１","E_COORD97":169784.63,"N_COORD97":2552157.4199999999,"ADDRESS":"安和路五段２７６巷４８號之１","OBJECTID":389722},"geometry":{"x":169784.62999999989,"y":2552157.4199999999}},{"attributes":{"ID":389747,"DIS_CODE":0,"TOWNNAME":"安南區","LI":"州北里","LIN":"29鄰","STREET":"安和路","SECT":"五段","MAREA":" ","LANE":"２７６巷","ALLEY":" ","HOUSE_NO":"４８號之２","E_COORD97":169783.51999999999,"N_COORD97":2552166.4100000001,"ADDRESS":"安和路五段２７６巷４８號之２","OBJECTID":389723},"geometry":{"x":169783.51999999955,"y":2552166.410000002}},{"attributes":{"ID":389748,"DIS_CODE":0,"TOWNNAME":"安南區","LI":"州北里","LIN":"29鄰","STREET":"安和路","SECT":"五段","MAREA":" ","LANE":"２７６巷","ALLEY":" ","HOUSE_NO":"４８號之３","E_COORD97":169782,"N_COORD97":2552172.6299999999,"ADDRESS":"安和路五段２７６巷４８號之３","OBJECTID":389724},"geometry":{"x":169782.00000000093,"y":2552172.6300000027}},{"attributes":{"ID":389749,"DIS_CODE":0,"TOWNNAME":"安南區","LI":"州北里","LIN":"29鄰","STREET":"安和路","SECT":"五段","MAREA":" ","LANE":"２７６巷","ALLEY":" ","HOUSE_NO":"４８號之４","E_COORD97":169779.64000000001,"N_COORD97":2552178.8599999999,"ADDRESS":"安和路五段２７６巷４８號之４","OBJECTID":389725},"geometry":{"x":169779.63999999966,"y":2552178.8600000013}},{"attributes":{"ID":389750,"DIS_CODE":0,"TOWNNAME":"安南區","LI":"州北里","LIN":"29鄰","STREET":"安和路","SECT":"五段","MAREA":" ","LANE":"２７６巷","ALLEY":" ","HOUSE_NO":"４８號之５","E_COORD97":169777.14999999999,"N_COORD97":2552183.8399999999,"ADDRESS":"安和路五段２７６巷４８號之５","OBJECTID":389726},"geometry":{"x":169777.15000000037,"y":2552183.8400000017}},{"attributes":{"ID":389751,"DIS_CODE":0,"TOWNNAME":"安南區","LI":"州北里","LIN":"29鄰","STREET":"安和路","SECT":"五段","MAREA":" ","LANE":"２７６巷","ALLEY":" ","HOUSE_NO":"５０號","E_COORD97":169773.17000000001,"N_COORD97":2552157.25,"ADDRESS":"安和路五段２７６巷５０號","OBJECTID":389727},"geometry":{"x":169773.16999999993,"y":2552157.2500000019}},{"attributes":{"ID":389752,"DIS_CODE":0,"TOWNNAME":"安南區","LI":"州北里","LIN":"29鄰","STREET":"安和路","SECT":"五段","MAREA":" ","LANE":"２７６巷","ALLEY":" ","HOUSE_NO":"５２號","E_COORD97":169770.39000000001,"N_COORD97":2552164.3700000001,"ADDRESS":"安和路五段２７６巷５２號","OBJECTID":389728},"geometry":{"x":169770.3900000006,"y":2552164.3700000029}},{"attributes":{"ID":389753,"DIS_CODE":0,"TOWNNAME":"安南區","LI":"州北里","LIN":"29鄰","STREET":"安和路","SECT":"五段","MAREA":" ","LANE":"２７６巷","ALLEY":" ","HOUSE_NO":"５４號","E_COORD97":169767.95000000001,"N_COORD97":2552170.4500000002,"ADDRESS":"安和路五段２７６巷５４號","OBJECTID":389729},"geometry":{"x":169767.95000000019,"y":2552170.4499999993}},{"attributes":{"ID":389754,"DIS_CODE":0,"TOWNNAME":"安南區","LI":"州北里","LIN":"29鄰","STREET":"安和路","SECT":"五段","MAREA":" ","LANE":"２７６巷","ALLEY":" ","HOUSE_NO":"５８號","E_COORD97":169761.17000000001,"N_COORD97":2552183.6499999999,"ADDRESS":"安和路五段２７６巷５８號","OBJECTID":389730},"geometry":{"x":169761.16999999993,"y":2552183.6500000004}},{"attributes":{"ID":389755,"DIS_CODE":0,"TOWNNAME":"安南區","LI":"州北里","LIN":"29鄰","STREET":"安和路","SECT":"五段","MAREA":" ","LANE":"２７６巷","ALLEY":" ","HOUSE_NO":"６０號","E_COORD97":169757.72,"N_COORD97":2552201.4700000002,"ADDRESS":"安和路五段２７６巷６０號","OBJECTID":389731},"geometry":{"x":169757.72000000067,"y":2552201.4700000007}},{"attributes":{"ID":389756,"DIS_CODE":0,"TOWNNAME":"安南區","LI":"州北里","LIN":"29鄰","STREET":"安和路","SECT":"五段","MAREA":" ","LANE":"２７６巷","ALLEY":" ","HOUSE_NO":"６２號","E_COORD97":169761.64000000001,"N_COORD97":2552201.8599999999,"ADDRESS":"安和路五段２７６巷６２號","OBJECTID":389732},"geometry":{"x":169761.6400000006,"y":2552201.8599999994}},{"attributes":{"ID":389757,"DIS_CODE":0,"TOWNNAME":"安南區","LI":"州北里","LIN":"29鄰","STREET":"安和路","SECT":"五段","MAREA":" ","LANE":"２７６巷","ALLEY":" ","HOUSE_NO":"６４號","E_COORD97":169765.57000000001,"N_COORD97":2552201.8599999999,"ADDRESS":"安和路五段２７６巷６４號","OBJECTID":389733},"geometry":{"x":169765.5700000003,"y":2552201.8599999994}},{"attributes":{"ID":389758,"DIS_CODE":0,"TOWNNAME":"仁德區","LI":"仁義里","LIN":"42鄰","STREET":"中正路","SECT":"二段","MAREA":" ","LANE":"９９４巷","ALLEY":" ","HOUSE_NO":"４０號","E_COORD97":173529.79999999999,"N_COORD97":2540787.1499999999,"ADDRESS":"中正路二段９９４巷４０號","OBJECTID":389734},"geometry":{"x":173529.79999999981,"y":2540787.1500000022}},{"attributes":{"ID":389759,"DIS_CODE":0,"TOWNNAME":"東區","LI":"裕農里","LIN":"10鄰","STREET":"東寧路","SECT":" ","MAREA":" ","LANE":"５３８巷","ALLEY":" ","HOUSE_NO":"９號","E_COORD97":171219.42000000001,"N_COORD97":2543207.5899999999,"ADDRESS":"東寧路５３８巷９號","OBJECTID":389735},"geometry":{"x":171219.42000000179,"y":2543207.5900000017}},{"attributes":{"ID":389760,"DIS_CODE":0,"TOWNNAME":"安南區","LI":"州北里","LIN":"29鄰","STREET":"安和路","SECT":"五段","MAREA":" ","LANE":"２７６巷","ALLEY":" ","HOUSE_NO":"７０號","E_COORD97":169778.14000000001,"N_COORD97":2552203.04,"ADDRESS":"安和路五段２７６巷７０號","OBJECTID":389736},"geometry":{"x":169778.13999999966,"y":2552203.0399999991}},{"attributes":{"ID":389761,"DIS_CODE":0,"TOWNNAME":"安南區","LI":"州北里","LIN":"29鄰","STREET":"安和路","SECT":"五段","MAREA":" ","LANE":"２７６巷","ALLEY":" ","HOUSE_NO":"７２號","E_COORD97":169782.06,"N_COORD97":2552203.4300000002,"ADDRESS":"安和路五段２７６巷７２號","OBJECTID":389737},"geometry":{"x":169782.05999999959,"y":2552203.4300000016}},{"attributes":{"ID":389762,"DIS_CODE":0,"TOWNNAME":"安南區","LI":"州北里","LIN":"29鄰","STREET":"安和路","SECT":"五段","MAREA":" ","LANE":"２７６巷","ALLEY":" ","HOUSE_NO":"７４號","E_COORD97":169787.17000000001,"N_COORD97":2552203.4300000002,"ADDRESS":"安和路五段２７６巷７４號","OBJECTID":389738},"geometry":{"x":169787.17000000086,"y":2552203.4300000016}},{"attributes":{"ID":389763,"DIS_CODE":0,"TOWNNAME":"安南區","LI":"州北里","LIN":"29鄰","STREET":"安和路","SECT":"五段","MAREA":" ","LANE":"２７６巷","ALLEY":" ","HOUSE_NO":"７６號","E_COORD97":169799.34,"N_COORD97":2552202.6400000001,"ADDRESS":"安和路五段２７６巷７６號","OBJECTID":389739},"geometry":{"x":169799.34000000171,"y":2552202.6400000025}},{"attributes":{"ID":389764,"DIS_CODE":0,"TOWNNAME":"南區","LI":"光明里","LIN":"29鄰","STREET":"新建路","SECT":" ","MAREA":" ","LANE":"２９巷","ALLEY":" ","HOUSE_NO":"３號","E_COORD97":166507.98000000001,"N_COORD97":2541261.79,"ADDRESS":"新建路２９巷３號","OBJECTID":389740},"geometry":{"x":166507.98000000045,"y":2541261.7900000028}},{"attributes":{"ID":389765,"DIS_CODE":0,"TOWNNAME":"南區","LI":"光明里","LIN":"29鄰","STREET":"新建路","SECT":" ","MAREA":" ","LANE":"２９巷","ALLEY":" ","HOUSE_NO":"２號","E_COORD97":166479.85999999999,"N_COORD97":2541237.0699999998,"ADDRESS":"新建路２９巷２號","OBJECTID":389741},"geometry":{"x":166479.86000000034,"y":2541237.070000004}},{"attributes":{"ID":389766,"DIS_CODE":0,"TOWNNAME":"南區","LI":"光明里","LIN":"29鄰","STREET":"新建路","SECT":" ","MAREA":" ","LANE":"２９巷","ALLEY":" ","HOUSE_NO":"４號","E_COORD97":166486.57000000001,"N_COORD97":2541236.79,"ADDRESS":"新建路２９巷４號","OBJECTID":389742},"geometry":{"x":166486.57000000123,"y":2541236.7899999991}},{"attributes":{"ID":389767,"DIS_CODE":0,"TOWNNAME":"南區","LI":"光明里","LIN":"29鄰","STREET":"新建路","SECT":" ","MAREA":" ","LANE":"２９巷","ALLEY":" ","HOUSE_NO":"６號","E_COORD97":166493.85000000001,"N_COORD97":2541237.2200000002,"ADDRESS":"新建路２９巷６號","OBJECTID":389743},"geometry":{"x":166493.85000000056,"y":2541237.2200000025}},{"attributes":{"ID":389768,"DIS_CODE":0,"TOWNNAME":"南區","LI":"光明里","LIN":"29鄰","STREET":"新建路","SECT":" ","MAREA":" ","LANE":"２９巷","ALLEY":" ","HOUSE_NO":"８號","E_COORD97":166500.13,"N_COORD97":2541237.3599999999,"ADDRESS":"新建路２９巷８號","OBJECTID":389744},"geometry":{"x":166500.13000000175,"y":2541237.3599999994}},{"attributes":{"ID":389769,"DIS_CODE":0,"TOWNNAME":"南區","LI":"光明里","LIN":"29鄰","STREET":"新建路","SECT":" ","MAREA":" ","LANE":"２９巷","ALLEY":" ","HOUSE_NO":"１０號","E_COORD97":166508.41,"N_COORD97":2541237.2200000002,"ADDRESS":"新建路２９巷１０號","OBJECTID":389745},"geometry":{"x":166508.41000000015,"y":2541237.2200000025}},{"attributes":{"ID":389770,"DIS_CODE":0,"TOWNNAME":"南區","LI":"光明里","LIN":"29鄰","STREET":"新建路","SECT":" ","MAREA":" ","LANE":"２９巷","ALLEY":" ","HOUSE_NO":"１２號","E_COORD97":166514.54999999999,"N_COORD97":2541237.3599999999,"ADDRESS":"新建路２９巷１２號","OBJECTID":389746},"geometry":{"x":166514.55000000075,"y":2541237.3599999994}},{"attributes":{"ID":389771,"DIS_CODE":0,"TOWNNAME":"南區","LI":"府南里","LIN":"29鄰","STREET":"西門路","SECT":"一段","MAREA":" ","LANE":"１３１巷","ALLEY":" ","HOUSE_NO":"３１號","E_COORD97":167715.62,"N_COORD97":2541639.02,"ADDRESS":"西門路一段１３１巷３１號","OBJECTID":389747},"geometry":{"x":167715.62000000011,"y":2541639.0199999996}},{"attributes":{"ID":389772,"DIS_CODE":0,"TOWNNAME":"南區","LI":"府南里","LIN":"29鄰","STREET":"西門路","SECT":"一段","MAREA":" ","LANE":"１７３巷","ALLEY":" ","HOUSE_NO":"１０號","E_COORD97":167698.32999999999,"N_COORD97":2541663.4199999999,"ADDRESS":"西門路一段１７３巷１０號","OBJECTID":389748},"geometry":{"x":167698.33000000101,"y":2541663.4199999999}},{"attributes":{"ID":389773,"DIS_CODE":0,"TOWNNAME":"南區","LI":"府南里","LIN":"29鄰","STREET":"西門路","SECT":"一段","MAREA":" ","LANE":"１７３巷","ALLEY":" ","HOUSE_NO":"１５號","E_COORD97":167690.73000000001,"N_COORD97":2541653.48,"ADDRESS":"西門路一段１７３巷１５號","OBJECTID":389749},"geometry":{"x":167690.73000000138,"y":2541653.4800000004}},{"attributes":{"ID":389774,"DIS_CODE":0,"TOWNNAME":"南區","LI":"府南里","LIN":"29鄰","STREET":"西門路","SECT":"一段","MAREA":" ","LANE":"１７３巷","ALLEY":" ","HOUSE_NO":"１６號","E_COORD97":167688.32000000001,"N_COORD97":2541661.6899999999,"ADDRESS":"西門路一段１７３巷１６號","OBJECTID":389750},"geometry":{"x":167688.32000000123,"y":2541661.6899999995}},{"attributes":{"ID":389775,"DIS_CODE":0,"TOWNNAME":"南區","LI":"府南里","LIN":"29鄰","STREET":"西門路","SECT":"一段","MAREA":" ","LANE":"１７３巷","ALLEY":" ","HOUSE_NO":"１９號","E_COORD97":167683.95000000001,"N_COORD97":2541651.75,"ADDRESS":"西門路一段１７３巷１９號","OBJECTID":389751},"geometry":{"x":167683.95000000112,"y":2541651.75}},{"attributes":{"ID":389776,"DIS_CODE":0,"TOWNNAME":"南區","LI":"府南里","LIN":"29鄰","STREET":"西門路","SECT":"一段","MAREA":" ","LANE":"１７３巷","ALLEY":" ","HOUSE_NO":"３０號","E_COORD97":167672.69,"N_COORD97":2541647.48,"ADDRESS":"西門路一段１７３巷３０號","OBJECTID":389752},"geometry":{"x":167672.69000000041,"y":2541647.4800000004}},{"attributes":{"ID":389777,"DIS_CODE":0,"TOWNNAME":"南區","LI":"府南里","LIN":"29鄰","STREET":"西門路","SECT":"一段","MAREA":" ","LANE":"１７３巷","ALLEY":" ","HOUSE_NO":"３１號","E_COORD97":167682.10999999999,"N_COORD97":2541622.6200000001,"ADDRESS":"西門路一段１７３巷３１號","OBJECTID":389753},"geometry":{"x":167682.11000000034,"y":2541622.620000001}},{"attributes":{"ID":389778,"DIS_CODE":0,"TOWNNAME":"仁德區","LI":"後壁里","LIN":"29鄰","STREET":"德洋一街","SECT":" ","MAREA":" ","LANE":"２４巷","ALLEY":" ","HOUSE_NO":"５號","E_COORD97":173131.70999999999,"N_COORD97":2539133.0099999998,"ADDRESS":"德洋一街２４巷５號","OBJECTID":389754},"geometry":{"x":173131.71000000089,"y":2539133.0100000016}},{"attributes":{"ID":389779,"DIS_CODE":0,"TOWNNAME":"仁德區","LI":"太子里","LIN":"29鄰","STREET":"太子四街","SECT":" ","MAREA":" ","LANE":"４１巷","ALLEY":" ","HOUSE_NO":"１５號","E_COORD97":173116.04000000001,"N_COORD97":2542936.5,"ADDRESS":"太子四街４１巷１５號","OBJECTID":389755},"geometry":{"x":173116.04000000097,"y":2542936.5000000019}},{"attributes":{"ID":389780,"DIS_CODE":0,"TOWNNAME":"仁德區","LI":"上崙里","LIN":"29鄰","STREET":"中正路","SECT":"一段","MAREA":" ","LANE":"６５６巷","ALLEY":" ","HOUSE_NO":"１７號","E_COORD97":172934.92999999999,"N_COORD97":2537458.7599999998,"ADDRESS":"中正路一段６５６巷１７號","OBJECTID":389756},"geometry":{"x":172934.93000000063,"y":2537458.7600000016}},{"attributes":{"ID":389781,"DIS_CODE":0,"TOWNNAME":"仁德區","LI":"太子里","LIN":"29鄰","STREET":"太子四街","SECT":" ","MAREA":" ","LANE":"２５巷","ALLEY":" ","HOUSE_NO":"２５號","E_COORD97":173178.32999999999,"N_COORD97":2543080,"ADDRESS":"太子四街２５巷２５號","OBJECTID":389757},"geometry":{"x":173178.33000000101,"y":2543080.0000000019}},{"attributes":{"ID":389782,"DIS_CODE":0,"TOWNNAME":"仁德區","LI":"太子里","LIN":"29鄰","STREET":"太子四街","SECT":" ","MAREA":" ","LANE":"３１巷","ALLEY":" ","HOUSE_NO":"９號","E_COORD97":173122.29000000001,"N_COORD97":2543049.25,"ADDRESS":"太子四街３１巷９號","OBJECTID":389758},"geometry":{"x":173122.2900000019,"y":2543049.2499999981}},{"attributes":{"ID":389783,"DIS_CODE":0,"TOWNNAME":"仁德區","LI":"後壁里","LIN":"29鄰","STREET":"德洋一街","SECT":" ","MAREA":" ","LANE":"３０巷","ALLEY":" ","HOUSE_NO":"３號","E_COORD97":173140.73000000001,"N_COORD97":2539155.27,"ADDRESS":"德洋一街３０巷３號","OBJECTID":389759},"geometry":{"x":173140.73000000138,"y":2539155.2699999996}},{"attributes":{"ID":389784,"DIS_CODE":0,"TOWNNAME":"仁德區","LI":"上崙里","LIN":"29鄰","STREET":"中正路","SECT":"一段","MAREA":" ","LANE":"６５６巷","ALLEY":" ","HOUSE_NO":"８２號","E_COORD97":173060.14999999999,"N_COORD97":2537285.27,"ADDRESS":"中正路一段６５６巷８２號","OBJECTID":389760},"geometry":{"x":173060.15000000037,"y":2537285.2700000033}},{"attributes":{"ID":389785,"DIS_CODE":0,"TOWNNAME":"永康區","LI":"永康里","LIN":"29鄰","STREET":"永華路","SECT":" ","MAREA":" ","LANE":"７０２巷","ALLEY":" ","HOUSE_NO":"３８號","E_COORD97":174134.01000000001,"N_COORD97":2547062.3399999999,"ADDRESS":"永華路７０２巷３８號","OBJECTID":389761},"geometry":{"x":174134.00999999978,"y":2547062.3399999999}},{"attributes":{"ID":389786,"DIS_CODE":0,"TOWNNAME":"永康區","LI":"西勢里","LIN":"29鄰","STREET":"西勢路","SECT":" ","MAREA":" ","LANE":"１５８巷","ALLEY":" ","HOUSE_NO":"２３號","E_COORD97":175936.10000000001,"N_COORD97":2546823.6699999999,"ADDRESS":"西勢路１５８巷２３號","OBJECTID":389762},"geometry":{"x":175936.10000000056,"y":2546823.6700000037}},{"attributes":{"ID":389787,"DIS_CODE":0,"TOWNNAME":"永康區","LI":"二王里","LIN":"29鄰","STREET":"中山南路","SECT":" ","MAREA":" ","LANE":"５４４巷","ALLEY":" ","HOUSE_NO":"３號","E_COORD97":172204.31,"N_COORD97":2546523.4399999999,"ADDRESS":"中山南路５４４巷３號","OBJECTID":389763},"geometry":{"x":172204.30999999959,"y":2546523.4400000013}},{"attributes":{"ID":389788,"DIS_CODE":0,"TOWNNAME":"永康區","LI":"埔園里","LIN":"29鄰","STREET":"龍埔街","SECT":" ","MAREA":" ","LANE":"３０３巷","ALLEY":" ","HOUSE_NO":"１３號","E_COORD97":173913.31,"N_COORD97":2548248.7400000002,"ADDRESS":"龍埔街３０３巷１３號","OBJECTID":389764},"geometry":{"x":173913.30999999866,"y":2548248.7400000021}},{"attributes":{"ID":389789,"DIS_CODE":0,"TOWNNAME":"永康區","LI":"崑山里","LIN":"29鄰","STREET":"大仁街","SECT":" ","MAREA":" ","LANE":"１０７巷","ALLEY":" ","HOUSE_NO":"１號","E_COORD97":173815.04000000001,"N_COORD97":2544800.9300000002,"ADDRESS":"大仁街１０７巷１號","OBJECTID":389765},"geometry":{"x":173815.04000000004,"y":2544800.9300000034}},{"attributes":{"ID":389790,"DIS_CODE":0,"TOWNNAME":"永康區","LI":"勝利里","LIN":"29鄰","STREET":"勝利街","SECT":" ","MAREA":" ","LANE":"３２巷","ALLEY":" ","HOUSE_NO":"１４號","E_COORD97":171395.31,"N_COORD97":2544582.0099999998,"ADDRESS":"勝利街３２巷１４號","OBJECTID":389766},"geometry":{"x":171395.30999999959,"y":2544582.0099999998}},{"attributes":{"ID":389791,"DIS_CODE":0,"TOWNNAME":"善化區","LI":"坐駕里","LIN":"13鄰","STREET":"自強路","SECT":" ","MAREA":" ","LANE":" ","ALLEY":" ","HOUSE_NO":"３１號","E_COORD97":178258.41,"N_COORD97":2558740.25,"ADDRESS":"自強路３１號","OBJECTID":389767},"geometry":{"x":178258.41000000108,"y":2558740.2500000037}},{"attributes":{"ID":389792,"DIS_CODE":0,"TOWNNAME":"東區","LI":"東光里","LIN":"29鄰","STREET":"東寧路","SECT":" ","MAREA":" ","LANE":"２０１巷","ALLEY":" ","HOUSE_NO":"１２３號","E_COORD97":170662.91,"N_COORD97":2543819.9399999999,"ADDRESS":"東寧路２０１巷１２３號","OBJECTID":389768},"geometry":{"x":170662.91000000015,"y":2543819.9399999995}},{"attributes":{"ID":389793,"DIS_CODE":0,"TOWNNAME":"東區","LI":"東光里","LIN":"29鄰","STREET":"東寧路","SECT":" ","MAREA":" ","LANE":"２０１巷","ALLEY":" ","HOUSE_NO":"１２５號","E_COORD97":170663.98000000001,"N_COORD97":2543824.6299999999,"ADDRESS":"東寧路２０１巷１２５號","OBJECTID":389769},"geometry":{"x":170663.98000000138,"y":2543824.629999999}},{"attributes":{"ID":389794,"DIS_CODE":0,"TOWNNAME":"仁德區","LI":"田厝里","LIN":"12鄰","STREET":"田厝二街","SECT":" ","MAREA":" ","LANE":"９０巷","ALLEY":" ","HOUSE_NO":"５號","E_COORD97":172336.75,"N_COORD97":2537739.75,"ADDRESS":"田厝二街９０巷５號","OBJECTID":389770},"geometry":{"x":172336.75000000093,"y":2537739.75}},{"attributes":{"ID":389795,"DIS_CODE":0,"TOWNNAME":"東區","LI":"東光里","LIN":"29鄰","STREET":"東寧路","SECT":" ","MAREA":" ","LANE":"２０１巷","ALLEY":" ","HOUSE_NO":"１２７號","E_COORD97":170664.64999999999,"N_COORD97":2543828.9100000001,"ADDRESS":"東寧路２０１巷１２７號","OBJECTID":389771},"geometry":{"x":170664.6500000013,"y":2543828.910000002}},{"attributes":{"ID":389796,"DIS_CODE":0,"TOWNNAME":"東區","LI":"東光里","LIN":"29鄰","STREET":"東寧路","SECT":" ","MAREA":" ","LANE":"２０１巷","ALLEY":" ","HOUSE_NO":"１２９號","E_COORD97":170665.73000000001,"N_COORD97":2543833.3300000001,"ADDRESS":"東寧路２０１巷１２９號","OBJECTID":389772},"geometry":{"x":170665.73000000138,"y":2543833.3300000019}},{"attributes":{"ID":389797,"DIS_CODE":0,"TOWNNAME":"東區","LI":"東光里","LIN":"29鄰","STREET":"東寧路","SECT":" ","MAREA":" ","LANE":"２０１巷","ALLEY":" ","HOUSE_NO":"１３１號","E_COORD97":170666.32999999999,"N_COORD97":2543838.4100000001,"ADDRESS":"東寧路２０１巷１３１號","OBJECTID":389773},"geometry":{"x":170666.33000000101,"y":2543838.4100000039}},{"attributes":{"ID":389798,"DIS_CODE":0,"TOWNNAME":"東區","LI":"東光里","LIN":"29鄰","STREET":"東寧路","SECT":" ","MAREA":" ","LANE":"２０１巷","ALLEY":" ","HOUSE_NO":"１３３號","E_COORD97":170666.91,"N_COORD97":2543842.9900000002,"ADDRESS":"東寧路２０１巷１３３號","OBJECTID":389774},"geometry":{"x":170666.90999999922,"y":2543842.9900000021}},{"attributes":{"ID":389799,"DIS_CODE":0,"TOWNNAME":"東區","LI":"東光里","LIN":"29鄰","STREET":"東寧路","SECT":" ","MAREA":" ","LANE":"２０１巷","ALLEY":" ","HOUSE_NO":"１３５號","E_COORD97":170667.57000000001,"N_COORD97":2543847.3599999999,"ADDRESS":"東寧路２０１巷１３５號","OBJECTID":389775},"geometry":{"x":170667.5700000003,"y":2543847.3599999994}},{"attributes":{"ID":389800,"DIS_CODE":0,"TOWNNAME":"東區","LI":"東光里","LIN":"29鄰","STREET":"東寧路","SECT":" ","MAREA":" ","LANE":"２０１巷","ALLEY":" ","HOUSE_NO":"１３７號","E_COORD97":170668.29000000001,"N_COORD97":2543852.0899999999,"ADDRESS":"東寧路２０１巷１３７號","OBJECTID":389776},"geometry":{"x":170668.29000000097,"y":2543852.0900000017}},{"attributes":{"ID":389801,"DIS_CODE":0,"TOWNNAME":"東區","LI":"東光里","LIN":"29鄰","STREET":"東寧路","SECT":" ","MAREA":" ","LANE":"２０１巷","ALLEY":" ","HOUSE_NO":"１３９號","E_COORD97":170668.88,"N_COORD97":2543856.5899999999,"ADDRESS":"東寧路２０１巷１３９號","OBJECTID":389777},"geometry":{"x":170668.88000000082,"y":2543856.5899999999}},{"attributes":{"ID":389802,"DIS_CODE":0,"TOWNNAME":"東區","LI":"東光里","LIN":"29鄰","STREET":"東寧路","SECT":" ","MAREA":" ","LANE":"２０１巷","ALLEY":" ","HOUSE_NO":"１４１號","E_COORD97":170670.26999999999,"N_COORD97":2543860.9900000002,"ADDRESS":"東寧路２０１巷１４１號","OBJECTID":389778},"geometry":{"x":170670.26999999955,"y":2543860.9900000002}},{"attributes":{"ID":389803,"DIS_CODE":0,"TOWNNAME":"東區","LI":"東光里","LIN":"29鄰","STREET":"東寧路","SECT":" ","MAREA":" ","LANE":"２０１巷","ALLEY":" ","HOUSE_NO":"１４３號","E_COORD97":170671.45000000001,"N_COORD97":2543865.4700000002,"ADDRESS":"東寧路２０１巷１４３號","OBJECTID":389779},"geometry":{"x":170671.45000000019,"y":2543865.4700000007}},{"attributes":{"ID":389804,"DIS_CODE":0,"TOWNNAME":"東區","LI":"東光里","LIN":"29鄰","STREET":"東寧路","SECT":" ","MAREA":" ","LANE":"２０１巷","ALLEY":" ","HOUSE_NO":"１４５號","E_COORD97":170672.82000000001,"N_COORD97":2543870.5499999998,"ADDRESS":"東寧路２０１巷１４５號","OBJECTID":389780},"geometry":{"x":170672.82000000216,"y":2543870.5500000007}},{"attributes":{"ID":389805,"DIS_CODE":0,"TOWNNAME":"仁德區","LI":"仁愛里","LIN":"29鄰","STREET":"亞航街","SECT":" ","MAREA":" ","LANE":"１９８巷","ALLEY":" ","HOUSE_NO":"１６２號","E_COORD97":170108.48999999999,"N_COORD97":2539102.52,"ADDRESS":"亞航街１９８巷１６２號","OBJECTID":389781},"geometry":{"x":170108.49000000022,"y":2539102.5199999996}},{"attributes":{"ID":389806,"DIS_CODE":0,"TOWNNAME":"東區","LI":"東光里","LIN":"29鄰","STREET":"東寧路","SECT":" ","MAREA":" ","LANE":"２０１巷","ALLEY":" ","HOUSE_NO":"１４７號","E_COORD97":170672.82000000001,"N_COORD97":2543874.4399999999,"ADDRESS":"東寧路２０１巷１４７號","OBJECTID":389782},"geometry":{"x":170672.82000000216,"y":2543874.4399999995}},{"attributes":{"ID":389807,"DIS_CODE":0,"TOWNNAME":"東區","LI":"東光里","LIN":"29鄰","STREET":"東寧路","SECT":" ","MAREA":" ","LANE":"２０１巷","ALLEY":" ","HOUSE_NO":"１４９號","E_COORD97":170673.42999999999,"N_COORD97":2543879.54,"ADDRESS":"東寧路２０１巷１４９號","OBJECTID":389783},"geometry":{"x":170673.43000000063,"y":2543879.5399999991}},{"attributes":{"ID":389808,"DIS_CODE":0,"TOWNNAME":"東區","LI":"東光里","LIN":"29鄰","STREET":"東寧路","SECT":" ","MAREA":" ","LANE":"２０１巷","ALLEY":" ","HOUSE_NO":"１５１號","E_COORD97":170674.76999999999,"N_COORD97":2543884.1600000001,"ADDRESS":"東寧路２０１巷１５１號","OBJECTID":389784},"geometry":{"x":170674.77000000048,"y":2543884.1599999983}},{"attributes":{"ID":389809,"DIS_CODE":0,"TOWNNAME":"東區","LI":"東光里","LIN":"29鄰","STREET":"東寧路","SECT":" ","MAREA":" ","LANE":"２０１巷","ALLEY":" ","HOUSE_NO":"１５５號","E_COORD97":170675.85999999999,"N_COORD97":2543893.0299999998,"ADDRESS":"東寧路２０１巷１５５號","OBJECTID":389785},"geometry":{"x":170675.86000000034,"y":2543893.0299999993}},{"attributes":{"ID":389810,"DIS_CODE":0,"TOWNNAME":"東區","LI":"東光里","LIN":"29鄰","STREET":"東寧路","SECT":" ","MAREA":" ","LANE":"２０１巷","ALLEY":" ","HOUSE_NO":"１５７號","E_COORD97":170676.82999999999,"N_COORD97":2543897.52,"ADDRESS":"東寧路２０１巷１５７號","OBJECTID":389786},"geometry":{"x":170676.83000000007,"y":2543897.5199999996}},{"attributes":{"ID":389811,"DIS_CODE":0,"TOWNNAME":"東區","LI":"東光里","LIN":"29鄰","STREET":"東寧路","SECT":" ","MAREA":" ","LANE":"２０１巷","ALLEY":" ","HOUSE_NO":"１５９號","E_COORD97":170678.29000000001,"N_COORD97":2543902.3799999999,"ADDRESS":"東寧路２０１巷１５９號","OBJECTID":389787},"geometry":{"x":170678.29000000097,"y":2543902.3800000008}},{"attributes":{"ID":389812,"DIS_CODE":0,"TOWNNAME":"東區","LI":"東光里","LIN":"29鄰","STREET":"東寧路","SECT":" ","MAREA":" ","LANE":"２０１巷","ALLEY":" ","HOUSE_NO":"１５９號之１","E_COORD97":170679.12,"N_COORD97":2543906.9700000002,"ADDRESS":"東寧路２０１巷１５９號之１","OBJECTID":389788},"geometry":{"x":170679.12000000197,"y":2543906.9700000025}},{"attributes":{"ID":389813,"DIS_CODE":0,"TOWNNAME":"東區","LI":"東光里","LIN":"29鄰","STREET":"東寧路","SECT":" ","MAREA":" ","LANE":"２０１巷","ALLEY":" ","HOUSE_NO":"１６１號","E_COORD97":170680.26000000001,"N_COORD97":2543915.29,"ADDRESS":"東寧路２０１巷１６１號","OBJECTID":389789},"geometry":{"x":170680.26000000071,"y":2543915.2899999991}},{"attributes":{"ID":389814,"DIS_CODE":0,"TOWNNAME":"東區","LI":"東光里","LIN":"29鄰","STREET":"東寧路","SECT":" ","MAREA":" ","LANE":"２０１巷","ALLEY":" ","HOUSE_NO":"１６３號","E_COORD97":170682.35000000001,"N_COORD97":2543921.4100000001,"ADDRESS":"東寧路２０１巷１６３號","OBJECTID":389790},"geometry":{"x":170682.35000000056,"y":2543921.410000002}},{"attributes":{"ID":389815,"DIS_CODE":0,"TOWNNAME":"東區","LI":"東光里","LIN":"29鄰","STREET":"東寧路","SECT":" ","MAREA":" ","LANE":"２０１巷","ALLEY":" ","HOUSE_NO":"１６５號","E_COORD97":170684.85000000001,"N_COORD97":2543926.6899999999,"ADDRESS":"東寧路２０１巷１６５號","OBJECTID":389791},"geometry":{"x":170684.84999999963,"y":2543926.6899999995}},{"attributes":{"ID":389816,"DIS_CODE":0,"TOWNNAME":"東區","LI":"東光里","LIN":"29鄰","STREET":"東寧路","SECT":" ","MAREA":" ","LANE":"２０１巷","ALLEY":" ","HOUSE_NO":"１６７號","E_COORD97":170685.41,"N_COORD97":2543932.5299999998,"ADDRESS":"東寧路２０１巷１６７號","OBJECTID":389792},"geometry":{"x":170685.41000000015,"y":2543932.5300000012}},{"attributes":{"ID":389817,"DIS_CODE":0,"TOWNNAME":"東區","LI":"東光里","LIN":"29鄰","STREET":"東寧路","SECT":" ","MAREA":" ","LANE":"２０１巷","ALLEY":" ","HOUSE_NO":"１６９號","E_COORD97":170686.23999999999,"N_COORD97":2543937.8100000001,"ADDRESS":"東寧路２０１巷１６９號","OBJECTID":389793},"geometry":{"x":170686.24000000022,"y":2543937.8100000042}},{"attributes":{"ID":389818,"DIS_CODE":0,"TOWNNAME":"東區","LI":"東光里","LIN":"29鄰","STREET":"東寧路","SECT":" ","MAREA":" ","LANE":"２０１巷","ALLEY":" ","HOUSE_NO":"１７１號","E_COORD97":170687.22,"N_COORD97":2543944.0600000001,"ADDRESS":"東寧路２０１巷１７１號","OBJECTID":389794},"geometry":{"x":170687.22000000067,"y":2543944.0600000024}},{"attributes":{"ID":389819,"DIS_CODE":0,"TOWNNAME":"東區","LI":"東光里","LIN":"29鄰","STREET":"東寧路","SECT":" ","MAREA":" ","LANE":"２０１巷","ALLEY":" ","HOUSE_NO":"１７３號","E_COORD97":170688.69,"N_COORD97":2543950.1200000001,"ADDRESS":"東寧路２０１巷１７３號","OBJECTID":389795},"geometry":{"x":170688.69000000041,"y":2543950.1200000048}},{"attributes":{"ID":389820,"DIS_CODE":0,"TOWNNAME":"東區","LI":"東光里","LIN":"29鄰","STREET":"東寧路","SECT":" ","MAREA":" ","LANE":"２０１巷","ALLEY":" ","HOUSE_NO":"１７５號","E_COORD97":170689.67000000001,"N_COORD97":2543956.2599999998,"ADDRESS":"東寧路２０１巷１７５號","OBJECTID":389796},"geometry":{"x":170689.66999999993,"y":2543956.2599999998}},{"attributes":{"ID":389821,"DIS_CODE":0,"TOWNNAME":"東區","LI":"東光里","LIN":"29鄰","STREET":"東寧路","SECT":" ","MAREA":" ","LANE":"２０１巷","ALLEY":" ","HOUSE_NO":"１７７號","E_COORD97":170690.54000000001,"N_COORD97":2543961.7799999998,"ADDRESS":"東寧路２０１巷１７７號","OBJECTID":389797},"geometry":{"x":170690.54000000097,"y":2543961.7800000012}},{"attributes":{"ID":389822,"DIS_CODE":0,"TOWNNAME":"東區","LI":"東光里","LIN":"29鄰","STREET":"東寧路","SECT":" ","MAREA":" ","LANE":"２０１巷","ALLEY":" ","HOUSE_NO":"１７９號","E_COORD97":170691.51999999999,"N_COORD97":2543967.5499999998,"ADDRESS":"東寧路２０１巷１７９號","OBJECTID":389798},"geometry":{"x":170691.52000000048,"y":2543967.5500000026}},{"attributes":{"ID":389823,"DIS_CODE":0,"TOWNNAME":"東區","LI":"東光里","LIN":"29鄰","STREET":"東寧路","SECT":" ","MAREA":" ","LANE":"２０１巷","ALLEY":" ","HOUSE_NO":"１８１號","E_COORD97":170692.38,"N_COORD97":2543973.0800000001,"ADDRESS":"東寧路２０１巷１８１號","OBJECTID":389799},"geometry":{"x":170692.38000000175,"y":2543973.0800000038}},{"attributes":{"ID":389824,"DIS_CODE":0,"TOWNNAME":"東區","LI":"東光里","LIN":"29鄰","STREET":"東寧路","SECT":" ","MAREA":" ","LANE":"２０１巷","ALLEY":" ","HOUSE_NO":"１８３號","E_COORD97":170694.73999999999,"N_COORD97":2543978.4100000001,"ADDRESS":"東寧路２０１巷１８３號","OBJECTID":389800},"geometry":{"x":170694.74000000022,"y":2543978.410000002}}]}