{"displayFieldName":"TOWNNAME","fieldAliases":{"ID":"ID","DIS_CODE":"DIS_CODE","TOWNNAME":"TOWNNAME","LI":"LI","LIN":"LIN","STREET":"STREET","SECT":"SECT","MAREA":"MAREA","LANE":"LANE","ALLEY":"ALLEY","HOUSE_NO":"HOUSE_NO","E_COORD97":"E_COORD97","N_COORD97":"N_COORD97","ADDRESS":"ADDRESS","OBJECTID":"OBJECTID"},"geometryType":"esriGeometryPoint","spatialReference":{"wkid":102443,"latestWkid":3826},"fields":[{"name":"ID","type":"esriFieldTypeDouble","alias":"ID"},{"name":"DIS_CODE","type":"esriFieldTypeInteger","alias":"DIS_CODE"},{"name":"TOWNNAME","type":"esriFieldTypeString","alias":"TOWNNAME","length":8},{"name":"LI","type":"esriFieldTypeString","alias":"LI","length":8},{"name":"LIN","type":"esriFieldTypeString","alias":"LIN","length":12},{"name":"STREET","type":"esriFieldTypeString","alias":"STREET","length":20},{"name":"SECT","type":"esriFieldTypeString","alias":"SECT","length":8},{"name":"MAREA","type":"esriFieldTypeString","alias":"MAREA","length":12},{"name":"LANE","type":"esriFieldTypeString","alias":"LANE","length":10},{"name":"ALLEY","type":"esriFieldTypeString","alias":"ALLEY","length":10},{"name":"HOUSE_NO","type":"esriFieldTypeString","alias":"HOUSE_NO","length":20},{"name":"E_COORD97","type":"esriFieldTypeDouble","alias":"E_COORD97"},{"name":"N_COORD97","type":"esriFieldTypeDouble","alias":"N_COORD97"},{"name":"ADDRESS","type":"esriFieldTypeString","alias":"ADDRESS","length":50},{"name":"OBJECTID","type":"esriFieldTypeOID","alias":"OBJECTID"}],"features":[{"attributes":{"ID":387625,"DIS_CODE":0,"TOWNNAME":"永康區","LI":"勝利里","LIN":"28鄰","STREET":"勝利街","SECT":" ","MAREA":" ","LANE":"４２巷","ALLEY":" ","HOUSE_NO":"２２號","E_COORD97":171398.45000000001,"N_COORD97":2544615.75,"ADDRESS":"勝利街４２巷２２號","OBJECTID":387601},"geometry":{"x":171398.45000000019,"y":2544615.7500000037}},{"attributes":{"ID":387626,"DIS_CODE":0,"TOWNNAME":"永康區","LI":"勝利里","LIN":"28鄰","STREET":"勝利街","SECT":" ","MAREA":" ","LANE":"４２巷","ALLEY":" ","HOUSE_NO":"３０號","E_COORD97":171411.51999999999,"N_COORD97":2544614.5,"ADDRESS":"勝利街４２巷３０號","OBJECTID":387602},"geometry":{"x":171411.52000000142,"y":2544614.5000000019}},{"attributes":{"ID":387627,"DIS_CODE":0,"TOWNNAME":"永康區","LI":"大灣里","LIN":"28鄰","STREET":"民族路","SECT":" ","MAREA":" ","LANE":"１９０巷","ALLEY":" ","HOUSE_NO":"３９號","E_COORD97":175295.64000000001,"N_COORD97":2545107.0600000001,"ADDRESS":"民族路１９０巷３９號","OBJECTID":387603},"geometry":{"x":175295.63999999966,"y":2545107.0600000024}},{"attributes":{"ID":387628,"DIS_CODE":0,"TOWNNAME":"永康區","LI":"大灣里","LIN":"28鄰","STREET":"大灣六街","SECT":" ","MAREA":" ","LANE":"９巷","ALLEY":" ","HOUSE_NO":"１２號","E_COORD97":175296.41,"N_COORD97":2545158.8199999998,"ADDRESS":"大灣六街９巷１２號","OBJECTID":387604},"geometry":{"x":175296.41000000015,"y":2545158.8200000022}},{"attributes":{"ID":387629,"DIS_CODE":0,"TOWNNAME":"永康區","LI":"復華里","LIN":"36鄰","STREET":"復華七街","SECT":" ","MAREA":" ","LANE":"３９巷","ALLEY":" ","HOUSE_NO":"３７號","E_COORD97":172579.81,"N_COORD97":2546061.98,"ADDRESS":"復華七街３９巷３７號","OBJECTID":387605},"geometry":{"x":172579.81000000052,"y":2546061.9800000004}},{"attributes":{"ID":387630,"DIS_CODE":0,"TOWNNAME":"永康區","LI":"大灣里","LIN":"28鄰","STREET":"大灣六街","SECT":" ","MAREA":" ","LANE":"９巷","ALLEY":" ","HOUSE_NO":"３６號","E_COORD97":175296.42000000001,"N_COORD97":2545120.8199999998,"ADDRESS":"大灣六街９巷３６號","OBJECTID":387606},"geometry":{"x":175296.42000000086,"y":2545120.820000004}},{"attributes":{"ID":387631,"DIS_CODE":0,"TOWNNAME":"永康區","LI":"大灣里","LIN":"28鄰","STREET":"大灣六街","SECT":" ","MAREA":" ","LANE":"９巷","ALLEY":" ","HOUSE_NO":"２６號","E_COORD97":175296.41,"N_COORD97":2545137.5699999998,"ADDRESS":"大灣六街９巷２６號","OBJECTID":387607},"geometry":{"x":175296.41000000015,"y":2545137.5700000022}},{"attributes":{"ID":387632,"DIS_CODE":0,"TOWNNAME":"永康區","LI":"大灣里","LIN":"28鄰","STREET":"大灣六街","SECT":" ","MAREA":" ","LANE":"９巷","ALLEY":" ","HOUSE_NO":"２２號","E_COORD97":175296.32999999999,"N_COORD97":2545142.0699999998,"ADDRESS":"大灣六街９巷２２號","OBJECTID":387608},"geometry":{"x":175296.33000000007,"y":2545142.0700000003}},{"attributes":{"ID":387633,"DIS_CODE":0,"TOWNNAME":"永康區","LI":"復國里","LIN":"16鄰","STREET":"復國二路","SECT":" ","MAREA":" ","LANE":"１８４巷","ALLEY":" ","HOUSE_NO":"１號","E_COORD97":172946.42000000001,"N_COORD97":2545736.52,"ADDRESS":"復國二路１８４巷１號","OBJECTID":387609},"geometry":{"x":172946.41999999993,"y":2545736.5200000014}},{"attributes":{"ID":387634,"DIS_CODE":0,"TOWNNAME":"永康區","LI":"復華里","LIN":"36鄰","STREET":"復國一路","SECT":" ","MAREA":" ","LANE":"４７５巷","ALLEY":" ","HOUSE_NO":"３３號","E_COORD97":172560.51999999999,"N_COORD97":2546032.71,"ADDRESS":"復國一路４７５巷３３號","OBJECTID":387610},"geometry":{"x":172560.51999999955,"y":2546032.7100000009}},{"attributes":{"ID":387635,"DIS_CODE":0,"TOWNNAME":"永康區","LI":"網寮里","LIN":"17鄰","STREET":"永興路","SECT":" ","MAREA":" ","LANE":"４２７巷","ALLEY":" ","HOUSE_NO":"９號","E_COORD97":173283.91,"N_COORD97":2546844.8700000001,"ADDRESS":"永興路４２７巷９號","OBJECTID":387611},"geometry":{"x":173283.91000000015,"y":2546844.8700000029}},{"attributes":{"ID":387636,"DIS_CODE":0,"TOWNNAME":"永康區","LI":"蔦松里","LIN":"7鄰","STREET":"中正北路","SECT":" ","MAREA":" ","LANE":"６９９巷","ALLEY":" ","HOUSE_NO":"１２號","E_COORD97":174017.35999999999,"N_COORD97":2549518.5,"ADDRESS":"中正北路６９９巷１２號","OBJECTID":387612},"geometry":{"x":174017.3600000022,"y":2549518.5}},{"attributes":{"ID":387637,"DIS_CODE":0,"TOWNNAME":"東區","LI":"小東里","LIN":"28鄰","STREET":"東和路","SECT":" ","MAREA":" ","LANE":"１５９巷","ALLEY":" ","HOUSE_NO":"１０號","E_COORD97":170693.48999999999,"N_COORD97":2544270.3700000001,"ADDRESS":"東和路１５９巷１０號","OBJECTID":387613},"geometry":{"x":170693.49000000022,"y":2544270.3700000048}},{"attributes":{"ID":387638,"DIS_CODE":0,"TOWNNAME":"東區","LI":"小東里","LIN":"28鄰","STREET":"東和路","SECT":" ","MAREA":" ","LANE":"１５９巷","ALLEY":" ","HOUSE_NO":"１３號","E_COORD97":170717.87,"N_COORD97":2544260.1099999999,"ADDRESS":"東和路１５９巷１３號","OBJECTID":387614},"geometry":{"x":170717.87000000011,"y":2544260.1100000031}},{"attributes":{"ID":387639,"DIS_CODE":0,"TOWNNAME":"東區","LI":"小東里","LIN":"28鄰","STREET":"東和路","SECT":" ","MAREA":" ","LANE":"１５９巷","ALLEY":" ","HOUSE_NO":"１５號","E_COORD97":170722.89000000001,"N_COORD97":2544260.3300000001,"ADDRESS":"東和路１５９巷１５號","OBJECTID":387615},"geometry":{"x":170722.8900000006,"y":2544260.3300000019}},{"attributes":{"ID":387640,"DIS_CODE":0,"TOWNNAME":"東區","LI":"小東里","LIN":"28鄰","STREET":"東和路","SECT":" ","MAREA":" ","LANE":"１５９巷","ALLEY":" ","HOUSE_NO":"１６號","E_COORD97":170695.85000000001,"N_COORD97":2544239.1600000001,"ADDRESS":"東和路１５９巷１６號","OBJECTID":387616},"geometry":{"x":170695.85000000056,"y":2544239.1600000001}},{"attributes":{"ID":387641,"DIS_CODE":0,"TOWNNAME":"東區","LI":"小東里","LIN":"28鄰","STREET":"東和路","SECT":" ","MAREA":" ","LANE":"１５９巷","ALLEY":" ","HOUSE_NO":"１７號","E_COORD97":170727.23999999999,"N_COORD97":2544260.48,"ADDRESS":"東和路１５９巷１７號","OBJECTID":387617},"geometry":{"x":170727.24000000022,"y":2544260.4800000023}},{"attributes":{"ID":387642,"DIS_CODE":0,"TOWNNAME":"東區","LI":"小東里","LIN":"28鄰","STREET":"東和路","SECT":" ","MAREA":" ","LANE":"１５９巷","ALLEY":" ","HOUSE_NO":"１８號","E_COORD97":170695.70000000001,"N_COORD97":2544235.1000000001,"ADDRESS":"東和路１５９巷１８號","OBJECTID":387618},"geometry":{"x":170695.70000000205,"y":2544235.0999999996}},{"attributes":{"ID":387643,"DIS_CODE":0,"TOWNNAME":"東區","LI":"小東里","LIN":"28鄰","STREET":"東和路","SECT":" ","MAREA":" ","LANE":"１５９巷","ALLEY":" ","HOUSE_NO":"１９號","E_COORD97":170732.25,"N_COORD97":2544260.5499999998,"ADDRESS":"東和路１５９巷１９號","OBJECTID":387619},"geometry":{"x":170732.24999999907,"y":2544260.5500000007}},{"attributes":{"ID":387644,"DIS_CODE":0,"TOWNNAME":"東區","LI":"小東里","LIN":"28鄰","STREET":"東和路","SECT":" ","MAREA":" ","LANE":"１５９巷","ALLEY":" ","HOUSE_NO":"２０號","E_COORD97":170695.39999999999,"N_COORD97":2544228.8399999999,"ADDRESS":"東和路１５９巷２０號","OBJECTID":387620},"geometry":{"x":170695.40000000037,"y":2544228.8400000036}},{"attributes":{"ID":387645,"DIS_CODE":0,"TOWNNAME":"東區","LI":"小東里","LIN":"28鄰","STREET":"東和路","SECT":" ","MAREA":" ","LANE":"１５９巷","ALLEY":" ","HOUSE_NO":"２１號","E_COORD97":170737.04999999999,"N_COORD97":2544260.5499999998,"ADDRESS":"東和路１５９巷２１號","OBJECTID":387621},"geometry":{"x":170737.05000000075,"y":2544260.5500000007}},{"attributes":{"ID":387646,"DIS_CODE":0,"TOWNNAME":"東區","LI":"小東里","LIN":"28鄰","STREET":"東和路","SECT":" ","MAREA":" ","LANE":"１５９巷","ALLEY":" ","HOUSE_NO":"２２號","E_COORD97":170695.70000000001,"N_COORD97":2544223.5299999998,"ADDRESS":"東和路１５９巷２２號","OBJECTID":387622},"geometry":{"x":170695.70000000205,"y":2544223.5300000031}},{"attributes":{"ID":387647,"DIS_CODE":0,"TOWNNAME":"東區","LI":"小東里","LIN":"28鄰","STREET":"東和路","SECT":" ","MAREA":" ","LANE":"１５９巷","ALLEY":" ","HOUSE_NO":"２３號","E_COORD97":170741.84,"N_COORD97":2544260.48,"ADDRESS":"東和路１５９巷２３號","OBJECTID":387623},"geometry":{"x":170741.84000000171,"y":2544260.4800000023}},{"attributes":{"ID":387648,"DIS_CODE":0,"TOWNNAME":"東區","LI":"小東里","LIN":"28鄰","STREET":"東和路","SECT":" ","MAREA":" ","LANE":"１５９巷","ALLEY":" ","HOUSE_NO":"２７號","E_COORD97":170751.20999999999,"N_COORD97":2544260.6200000001,"ADDRESS":"東和路１５９巷２７號","OBJECTID":387624},"geometry":{"x":170751.21000000183,"y":2544260.620000001}},{"attributes":{"ID":387649,"DIS_CODE":0,"TOWNNAME":"永康區","LI":"復國里","LIN":"29鄰","STREET":"復華二街","SECT":" ","MAREA":" ","LANE":"１巷","ALLEY":" ","HOUSE_NO":"１６號","E_COORD97":172673.92000000001,"N_COORD97":2545304.7400000002,"ADDRESS":"復華二街１巷１６號","OBJECTID":387625},"geometry":{"x":172673.92000000179,"y":2545304.7400000021}},{"attributes":{"ID":387650,"DIS_CODE":0,"TOWNNAME":"東區","LI":"小東里","LIN":"28鄰","STREET":"東和路","SECT":" ","MAREA":" ","LANE":"１５９巷","ALLEY":" ","HOUSE_NO":"２９號","E_COORD97":170755.92999999999,"N_COORD97":2544260.9199999999,"ADDRESS":"東和路１５９巷２９號","OBJECTID":387626},"geometry":{"x":170755.9299999997,"y":2544260.9199999999}},{"attributes":{"ID":387651,"DIS_CODE":0,"TOWNNAME":"東區","LI":"小東里","LIN":"28鄰","STREET":"東和路","SECT":" ","MAREA":" ","LANE":"１５９巷","ALLEY":" ","HOUSE_NO":"３號","E_COORD97":170712.95000000001,"N_COORD97":2544286.8500000001,"ADDRESS":"東和路１５９巷３號","OBJECTID":387627},"geometry":{"x":170712.95000000112,"y":2544286.8500000015}},{"attributes":{"ID":387652,"DIS_CODE":0,"TOWNNAME":"東區","LI":"小東里","LIN":"28鄰","STREET":"東和路","SECT":" ","MAREA":" ","LANE":"１５９巷","ALLEY":" ","HOUSE_NO":"５號","E_COORD97":170713.17000000001,"N_COORD97":2544282.3599999999,"ADDRESS":"東和路１５９巷５號","OBJECTID":387628},"geometry":{"x":170713.17000000086,"y":2544282.3600000031}},{"attributes":{"ID":387653,"DIS_CODE":0,"TOWNNAME":"東區","LI":"小東里","LIN":"28鄰","STREET":"東和路","SECT":" ","MAREA":" ","LANE":"１５９巷","ALLEY":" ","HOUSE_NO":"７號","E_COORD97":170713.32000000001,"N_COORD97":2544278.8900000001,"ADDRESS":"東和路１５９巷７號","OBJECTID":387629},"geometry":{"x":170713.3200000003,"y":2544278.8900000006}},{"attributes":{"ID":387654,"DIS_CODE":0,"TOWNNAME":"東區","LI":"小東里","LIN":"28鄰","STREET":"東和路","SECT":" ","MAREA":" ","LANE":"１５９巷","ALLEY":" ","HOUSE_NO":"４號","E_COORD97":170691.64000000001,"N_COORD97":2544289.0800000001,"ADDRESS":"東和路１５９巷４號","OBJECTID":387630},"geometry":{"x":170691.63999999966,"y":2544289.0800000019}},{"attributes":{"ID":387655,"DIS_CODE":0,"TOWNNAME":"東區","LI":"小東里","LIN":"28鄰","STREET":"東和路","SECT":" ","MAREA":" ","LANE":"１５９巷","ALLEY":" ","HOUSE_NO":"２５號","E_COORD97":170746.70999999999,"N_COORD97":2544260.3300000001,"ADDRESS":"東和路１５９巷２５號","OBJECTID":387631},"geometry":{"x":170746.71000000089,"y":2544260.3300000019}},{"attributes":{"ID":387656,"DIS_CODE":0,"TOWNNAME":"東區","LI":"小東里","LIN":"28鄰","STREET":"東和路","SECT":" ","MAREA":" ","LANE":"１５９巷","ALLEY":" ","HOUSE_NO":"１號","E_COORD97":170712.95000000001,"N_COORD97":2544291.3399999999,"ADDRESS":"東和路１５９巷１號","OBJECTID":387632},"geometry":{"x":170712.95000000112,"y":2544291.3399999999}},{"attributes":{"ID":387657,"DIS_CODE":0,"TOWNNAME":"東區","LI":"小東里","LIN":"28鄰","STREET":"東和路","SECT":" ","MAREA":" ","LANE":"１５９巷","ALLEY":" ","HOUSE_NO":"９號","E_COORD97":170713.39999999999,"N_COORD97":2544274.3999999999,"ADDRESS":"東和路１５９巷９號","OBJECTID":387633},"geometry":{"x":170713.4000000013,"y":2544274.4000000022}},{"attributes":{"ID":387658,"DIS_CODE":0,"TOWNNAME":"東區","LI":"泉南里","LIN":"28鄰","STREET":"府連東路","SECT":" ","MAREA":" ","LANE":"２２巷","ALLEY":" ","HOUSE_NO":"１９號","E_COORD97":169720.35999999999,"N_COORD97":2542681.4199999999,"ADDRESS":"府連東路２２巷１９號","OBJECTID":387634},"geometry":{"x":169720.36000000127,"y":2542681.4199999999}},{"attributes":{"ID":387659,"DIS_CODE":0,"TOWNNAME":"東區","LI":"泉南里","LIN":"28鄰","STREET":"府連東路","SECT":" ","MAREA":" ","LANE":"２２巷","ALLEY":" ","HOUSE_NO":"２１號","E_COORD97":169723.85999999999,"N_COORD97":2542679.8300000001,"ADDRESS":"府連東路２２巷２１號","OBJECTID":387635},"geometry":{"x":169723.86000000127,"y":2542679.8300000019}},{"attributes":{"ID":387660,"DIS_CODE":0,"TOWNNAME":"東區","LI":"泉南里","LIN":"28鄰","STREET":"府連東路","SECT":" ","MAREA":" ","LANE":"２２巷","ALLEY":" ","HOUSE_NO":"２３號","E_COORD97":169727.47,"N_COORD97":2542677.9199999999,"ADDRESS":"府連東路２２巷２３號","OBJECTID":387636},"geometry":{"x":169727.47000000067,"y":2542677.9199999999}},{"attributes":{"ID":387661,"DIS_CODE":0,"TOWNNAME":"東區","LI":"泉南里","LIN":"28鄰","STREET":"府連東路","SECT":" ","MAREA":" ","LANE":"２２巷","ALLEY":" ","HOUSE_NO":"２５號","E_COORD97":169730.97,"N_COORD97":2542677.1800000002,"ADDRESS":"府連東路２２巷２５號","OBJECTID":387637},"geometry":{"x":169730.97000000067,"y":2542677.1800000016}},{"attributes":{"ID":387662,"DIS_CODE":0,"TOWNNAME":"東區","LI":"泉南里","LIN":"28鄰","STREET":"府連東路","SECT":" ","MAREA":" ","LANE":"２２巷","ALLEY":" ","HOUSE_NO":"２７號","E_COORD97":169734.47,"N_COORD97":2542675.7999999998,"ADDRESS":"府連東路２２巷２７號","OBJECTID":387638},"geometry":{"x":169734.47000000067,"y":2542675.8000000007}},{"attributes":{"ID":387663,"DIS_CODE":0,"TOWNNAME":"東區","LI":"泉南里","LIN":"28鄰","STREET":"府連東路","SECT":" ","MAREA":" ","LANE":"２２巷","ALLEY":" ","HOUSE_NO":"２９號","E_COORD97":169737.87,"N_COORD97":2542675.27,"ADDRESS":"府連東路２２巷２９號","OBJECTID":387639},"geometry":{"x":169737.87000000011,"y":2542675.2699999996}},{"attributes":{"ID":387664,"DIS_CODE":0,"TOWNNAME":"東區","LI":"泉南里","LIN":"28鄰","STREET":"府連東路","SECT":" ","MAREA":" ","LANE":"２２巷","ALLEY":" ","HOUSE_NO":"３１號","E_COORD97":169741.57999999999,"N_COORD97":2542673.6800000002,"ADDRESS":"府連東路２２巷３１號","OBJECTID":387640},"geometry":{"x":169741.58000000007,"y":2542673.6800000016}},{"attributes":{"ID":387665,"DIS_CODE":0,"TOWNNAME":"東區","LI":"泉南里","LIN":"28鄰","STREET":"府連東路","SECT":" ","MAREA":" ","LANE":"２２巷","ALLEY":" ","HOUSE_NO":"３３號","E_COORD97":169745.60999999999,"N_COORD97":2542672.2999999998,"ADDRESS":"府連東路２２巷３３號","OBJECTID":387641},"geometry":{"x":169745.61000000127,"y":2542672.3000000007}},{"attributes":{"ID":387666,"DIS_CODE":0,"TOWNNAME":"東區","LI":"泉南里","LIN":"28鄰","STREET":"府連東路","SECT":" ","MAREA":" ","LANE":"２２巷","ALLEY":" ","HOUSE_NO":"３５號","E_COORD97":169748.79999999999,"N_COORD97":2542671.0299999998,"ADDRESS":"府連東路２２巷３５號","OBJECTID":387642},"geometry":{"x":169748.80000000075,"y":2542671.0300000012}},{"attributes":{"ID":387667,"DIS_CODE":0,"TOWNNAME":"東區","LI":"泉南里","LIN":"28鄰","STREET":"府連東路","SECT":" ","MAREA":" ","LANE":"２２巷","ALLEY":" ","HOUSE_NO":"３７號","E_COORD97":169740.84,"N_COORD97":2542668.9100000001,"ADDRESS":"府連東路２２巷３７號","OBJECTID":387643},"geometry":{"x":169740.83999999985,"y":2542668.9100000039}},{"attributes":{"ID":387668,"DIS_CODE":0,"TOWNNAME":"東區","LI":"泉南里","LIN":"28鄰","STREET":"府連東路","SECT":" ","MAREA":" ","LANE":"２２巷","ALLEY":" ","HOUSE_NO":"４１號","E_COORD97":169733.41,"N_COORD97":2542670.71,"ADDRESS":"府連東路２２巷４１號","OBJECTID":387644},"geometry":{"x":169733.41000000108,"y":2542670.7100000009}},{"attributes":{"ID":387669,"DIS_CODE":0,"TOWNNAME":"東區","LI":"泉南里","LIN":"28鄰","STREET":"府連東路","SECT":" ","MAREA":" ","LANE":"２２巷","ALLEY":" ","HOUSE_NO":"４３號","E_COORD97":169729.17000000001,"N_COORD97":2542671.5600000001,"ADDRESS":"府連東路２２巷４３號","OBJECTID":387645},"geometry":{"x":169729.16999999899,"y":2542671.5600000042}},{"attributes":{"ID":387670,"DIS_CODE":0,"TOWNNAME":"東區","LI":"泉南里","LIN":"28鄰","STREET":"府連東路","SECT":" ","MAREA":" ","LANE":"２２巷","ALLEY":" ","HOUSE_NO":"４５號","E_COORD97":169725.45999999999,"N_COORD97":2542672.6200000001,"ADDRESS":"府連東路２２巷４５號","OBJECTID":387646},"geometry":{"x":169725.45999999996,"y":2542672.6200000029}},{"attributes":{"ID":387671,"DIS_CODE":0,"TOWNNAME":"東區","LI":"泉南里","LIN":"28鄰","STREET":"府連東路","SECT":" ","MAREA":" ","LANE":"２２巷","ALLEY":" ","HOUSE_NO":"４７號","E_COORD97":169722.26999999999,"N_COORD97":2542672.6200000001,"ADDRESS":"府連東路２２巷４７號","OBJECTID":387647},"geometry":{"x":169722.26999999955,"y":2542672.6200000029}},{"attributes":{"ID":387672,"DIS_CODE":0,"TOWNNAME":"東區","LI":"泉南里","LIN":"28鄰","STREET":"長榮路","SECT":"一段","MAREA":" ","LANE":"１３５巷","ALLEY":" ","HOUSE_NO":"１１號","E_COORD97":169750.92000000001,"N_COORD97":2542697.5299999998,"ADDRESS":"長榮路一段１３５巷１１號","OBJECTID":387648},"geometry":{"x":169750.91999999993,"y":2542697.5299999975}},{"attributes":{"ID":387673,"DIS_CODE":0,"TOWNNAME":"東區","LI":"泉南里","LIN":"28鄰","STREET":"長榮路","SECT":"一段","MAREA":" ","LANE":"１３５巷","ALLEY":" ","HOUSE_NO":"１３號","E_COORD97":169748.48000000001,"N_COORD97":2542698.5899999999,"ADDRESS":"長榮路一段１３５巷１３號","OBJECTID":387649},"geometry":{"x":169748.48000000138,"y":2542698.5900000017}},{"attributes":{"ID":387674,"DIS_CODE":0,"TOWNNAME":"東區","LI":"泉南里","LIN":"28鄰","STREET":"長榮路","SECT":"一段","MAREA":" ","LANE":"１３５巷","ALLEY":" ","HOUSE_NO":"１５號","E_COORD97":169744.34,"N_COORD97":2542700.1800000002,"ADDRESS":"長榮路一段１３５巷１５號","OBJECTID":387650},"geometry":{"x":169744.33999999985,"y":2542700.1799999997}},{"attributes":{"ID":387675,"DIS_CODE":0,"TOWNNAME":"東區","LI":"泉南里","LIN":"28鄰","STREET":"長榮路","SECT":"一段","MAREA":" ","LANE":"１３５巷","ALLEY":" ","HOUSE_NO":"１７號","E_COORD97":169740.95000000001,"N_COORD97":2542701.46,"ADDRESS":"長榮路一段１３５巷１７號","OBJECTID":387651},"geometry":{"x":169740.95000000019,"y":2542701.4600000028}},{"attributes":{"ID":387676,"DIS_CODE":0,"TOWNNAME":"東區","LI":"泉南里","LIN":"28鄰","STREET":"長榮路","SECT":"一段","MAREA":" ","LANE":"１３５巷","ALLEY":" ","HOUSE_NO":"１９號","E_COORD97":169737.25,"N_COORD97":2542702.6200000001,"ADDRESS":"長榮路一段１３５巷１９號","OBJECTID":387652},"geometry":{"x":169737.25000000186,"y":2542702.6200000029}},{"attributes":{"ID":387677,"DIS_CODE":0,"TOWNNAME":"東區","LI":"泉南里","LIN":"28鄰","STREET":"長榮路","SECT":"一段","MAREA":" ","LANE":"１３５巷","ALLEY":" ","HOUSE_NO":"２１號","E_COORD97":169733.63,"N_COORD97":2542703.7000000002,"ADDRESS":"長榮路一段１３５巷２１號","OBJECTID":387653},"geometry":{"x":169733.63000000082,"y":2542703.7000000011}},{"attributes":{"ID":387678,"DIS_CODE":0,"TOWNNAME":"東區","LI":"泉南里","LIN":"28鄰","STREET":"長榮路","SECT":"一段","MAREA":" ","LANE":"１３５巷","ALLEY":" ","HOUSE_NO":"２３號","E_COORD97":169729.73999999999,"N_COORD97":2542704.8799999999,"ADDRESS":"長榮路一段１３５巷２３號","OBJECTID":387654},"geometry":{"x":169729.74000000115,"y":2542704.8799999971}},{"attributes":{"ID":387679,"DIS_CODE":0,"TOWNNAME":"中西區","LI":"永福里","LIN":"1鄰","STREET":"中正路","SECT":" ","MAREA":" ","LANE":"３９巷","ALLEY":" ","HOUSE_NO":"１１號","E_COORD97":168206.82000000001,"N_COORD97":2543518.29,"ADDRESS":"中正路３９巷１１號","OBJECTID":387655},"geometry":{"x":168206.82000000123,"y":2543518.2899999991}},{"attributes":{"ID":387680,"DIS_CODE":0,"TOWNNAME":"中西區","LI":"永福里","LIN":"1鄰","STREET":"中正路","SECT":" ","MAREA":" ","LANE":"３９巷","ALLEY":" ","HOUSE_NO":"１號","E_COORD97":168208.10000000001,"N_COORD97":2543577.3599999999,"ADDRESS":"中正路３９巷１號","OBJECTID":387656},"geometry":{"x":168208.09999999963,"y":2543577.3600000013}},{"attributes":{"ID":387681,"DIS_CODE":0,"TOWNNAME":"中西區","LI":"永福里","LIN":"1鄰","STREET":"中正路","SECT":" ","MAREA":" ","LANE":"３９巷","ALLEY":" ","HOUSE_NO":"３號","E_COORD97":168212.31,"N_COORD97":2543545.9399999999,"ADDRESS":"中正路３９巷３號","OBJECTID":387657},"geometry":{"x":168212.30999999959,"y":2543545.9400000032}},{"attributes":{"ID":387682,"DIS_CODE":0,"TOWNNAME":"中西區","LI":"永福里","LIN":"1鄰","STREET":"中正路","SECT":" ","MAREA":" ","LANE":"３９巷","ALLEY":" ","HOUSE_NO":"３號之２","E_COORD97":168201.14999999999,"N_COORD97":2543547.3999999999,"ADDRESS":"中正路３９巷３號之２","OBJECTID":387658},"geometry":{"x":168201.1500000013,"y":2543547.4000000041}},{"attributes":{"ID":387683,"DIS_CODE":0,"TOWNNAME":"中西區","LI":"永福里","LIN":"1鄰","STREET":"中正路","SECT":" ","MAREA":" ","LANE":"３９巷","ALLEY":" ","HOUSE_NO":"５號","E_COORD97":168222.92000000001,"N_COORD97":2543546.2999999998,"ADDRESS":"中正路３９巷５號","OBJECTID":387659},"geometry":{"x":168222.92000000086,"y":2543546.3000000026}},{"attributes":{"ID":387684,"DIS_CODE":0,"TOWNNAME":"中西區","LI":"永福里","LIN":"1鄰","STREET":"中正路","SECT":" ","MAREA":" ","LANE":"３９巷","ALLEY":" ","HOUSE_NO":"７號","E_COORD97":168207.19,"N_COORD97":2543536.5600000001,"ADDRESS":"中正路３９巷７號","OBJECTID":387660},"geometry":{"x":168207.19000000041,"y":2543536.5600000024}},{"attributes":{"ID":387685,"DIS_CODE":0,"TOWNNAME":"中西區","LI":"永福里","LIN":"1鄰","STREET":"中正路","SECT":" ","MAREA":" ","LANE":"３９巷","ALLEY":" ","HOUSE_NO":"９號","E_COORD97":168205.72,"N_COORD97":2543531.8100000001,"ADDRESS":"中正路３９巷９號","OBJECTID":387661},"geometry":{"x":168205.71999999974,"y":2543531.8100000024}},{"attributes":{"ID":387686,"DIS_CODE":0,"TOWNNAME":"東區","LI":"泉南里","LIN":"28鄰","STREET":"長榮路","SECT":"一段","MAREA":" ","LANE":"１３５巷","ALLEY":" ","HOUSE_NO":"２５號","E_COORD97":169726.57999999999,"N_COORD97":2542705.5099999998,"ADDRESS":"長榮路一段１３５巷２５號","OBJECTID":387662},"geometry":{"x":169726.58000000194,"y":2542705.5100000016}},{"attributes":{"ID":387687,"DIS_CODE":0,"TOWNNAME":"東區","LI":"泉南里","LIN":"28鄰","STREET":"長榮路","SECT":"一段","MAREA":" ","LANE":"１３５巷","ALLEY":" ","HOUSE_NO":"５號","E_COORD97":169762.26999999999,"N_COORD97":2542694.8799999999,"ADDRESS":"長榮路一段１３５巷５號","OBJECTID":387663},"geometry":{"x":169762.27000000048,"y":2542694.8800000027}},{"attributes":{"ID":387688,"DIS_CODE":0,"TOWNNAME":"東區","LI":"泉南里","LIN":"28鄰","STREET":"長榮路","SECT":"一段","MAREA":" ","LANE":"１３５巷","ALLEY":" ","HOUSE_NO":"７號","E_COORD97":169759.09,"N_COORD97":2542696.1499999999,"ADDRESS":"長榮路一段１３５巷７號","OBJECTID":387664},"geometry":{"x":169759.09000000078,"y":2542696.1500000022}},{"attributes":{"ID":387689,"DIS_CODE":0,"TOWNNAME":"東區","LI":"泉南里","LIN":"28鄰","STREET":"長榮路","SECT":"一段","MAREA":" ","LANE":"１３５巷","ALLEY":" ","HOUSE_NO":"９號","E_COORD97":169755.38,"N_COORD97":2542696.4700000002,"ADDRESS":"長榮路一段１３５巷９號","OBJECTID":387665},"geometry":{"x":169755.38000000082,"y":2542696.4700000025}},{"attributes":{"ID":387690,"DIS_CODE":0,"TOWNNAME":"永康區","LI":"五王里","LIN":"28鄰","STREET":"中山東路","SECT":" ","MAREA":" ","LANE":"６８巷","ALLEY":" ","HOUSE_NO":"６０號","E_COORD97":171586.73999999999,"N_COORD97":2545966.96,"ADDRESS":"中山東路６８巷６０號","OBJECTID":387666},"geometry":{"x":171586.74000000022,"y":2545966.9600000009}},{"attributes":{"ID":387691,"DIS_CODE":0,"TOWNNAME":"永康區","LI":"勝利里","LIN":"28鄰","STREET":"勝利街","SECT":" ","MAREA":" ","LANE":"４２巷","ALLEY":" ","HOUSE_NO":"１１號","E_COORD97":171385.04000000001,"N_COORD97":2544632.5,"ADDRESS":"勝利街４２巷１１號","OBJECTID":387667},"geometry":{"x":171385.04000000097,"y":2544632.5000000019}},{"attributes":{"ID":387692,"DIS_CODE":0,"TOWNNAME":"仁德區","LI":"後壁里","LIN":"28鄰","STREET":"德洋路","SECT":" ","MAREA":" ","LANE":"２５巷","ALLEY":" ","HOUSE_NO":"２０號","E_COORD97":173096.39999999999,"N_COORD97":2538958.27,"ADDRESS":"德洋路２５巷２０號","OBJECTID":387668},"geometry":{"x":173096.39999999944,"y":2538958.2700000014}},{"attributes":{"ID":387693,"DIS_CODE":0,"TOWNNAME":"善化區","LI":"光文里","LIN":"28鄰","STREET":"建國路","SECT":" ","MAREA":" ","LANE":"２３１巷","ALLEY":" ","HOUSE_NO":"３１號","E_COORD97":177846.73620799999,"N_COORD97":2559196.8512900001,"ADDRESS":"建國路２３１巷３１號","OBJECTID":387669},"geometry":{"x":177846.73620800115,"y":2559196.8512920011}},{"attributes":{"ID":387694,"DIS_CODE":0,"TOWNNAME":"善化區","LI":"光文里","LIN":"28鄰","STREET":"建國路","SECT":" ","MAREA":" ","LANE":"２３１巷","ALLEY":" ","HOUSE_NO":"３３號","E_COORD97":177840.16982800001,"N_COORD97":2559196.8512900001,"ADDRESS":"建國路２３１巷３３號","OBJECTID":387670},"geometry":{"x":177840.16982800048,"y":2559196.8512920011}},{"attributes":{"ID":387695,"DIS_CODE":0,"TOWNNAME":"善化區","LI":"光文里","LIN":"28鄰","STREET":"建國路","SECT":" ","MAREA":" ","LANE":"２３１巷","ALLEY":" ","HOUSE_NO":"３５號","E_COORD97":177834.45072299999,"N_COORD97":2559194.7346299998,"ADDRESS":"建國路２３１巷３５號","OBJECTID":387671},"geometry":{"x":177834.45072299987,"y":2559194.7346259989}},{"attributes":{"ID":387696,"DIS_CODE":0,"TOWNNAME":"善化區","LI":"光文里","LIN":"28鄰","STREET":"建國路","SECT":" ","MAREA":" ","LANE":"２３１巷","ALLEY":" ","HOUSE_NO":"３７號","E_COORD97":177828.09616099999,"N_COORD97":2559192.4062899998,"ADDRESS":"建國路２３１巷３７號","OBJECTID":387672},"geometry":{"x":177828.09616100229,"y":2559192.4062940013}},{"attributes":{"ID":387697,"DIS_CODE":0,"TOWNNAME":"善化區","LI":"光文里","LIN":"28鄰","STREET":"建國路","SECT":" ","MAREA":" ","LANE":"２６２巷","ALLEY":" ","HOUSE_NO":"１７號","E_COORD97":177938.32000000001,"N_COORD97":2559285.3399999999,"ADDRESS":"建國路２６２巷１７號","OBJECTID":387673},"geometry":{"x":177938.31999999937,"y":2559285.3400000036}},{"attributes":{"ID":387698,"DIS_CODE":0,"TOWNNAME":"善化區","LI":"光文里","LIN":"28鄰","STREET":"建國路","SECT":" ","MAREA":" ","LANE":"２６２巷","ALLEY":" ","HOUSE_NO":"１９號","E_COORD97":177943.22,"N_COORD97":2559286.1099999999,"ADDRESS":"建國路２６２巷１９號","OBJECTID":387674},"geometry":{"x":177943.21999999974,"y":2559286.1099999975}},{"attributes":{"ID":387699,"DIS_CODE":0,"TOWNNAME":"善化區","LI":"光文里","LIN":"28鄰","STREET":"建國路","SECT":" ","MAREA":" ","LANE":"２６２巷","ALLEY":" ","HOUSE_NO":"２１號","E_COORD97":177948.13,"N_COORD97":2559286.8700000001,"ADDRESS":"建國路２６２巷２１號","OBJECTID":387675},"geometry":{"x":177948.13000000082,"y":2559286.8700000029}},{"attributes":{"ID":387700,"DIS_CODE":0,"TOWNNAME":"善化區","LI":"光文里","LIN":"28鄰","STREET":"建國路","SECT":" ","MAREA":" ","LANE":"２６２巷","ALLEY":" ","HOUSE_NO":"２３號","E_COORD97":177953.03,"N_COORD97":2559287.6400000001,"ADDRESS":"建國路２６２巷２３號","OBJECTID":387676},"geometry":{"x":177953.03000000119,"y":2559287.6400000043}},{"attributes":{"ID":387701,"DIS_CODE":0,"TOWNNAME":"善化區","LI":"光文里","LIN":"28鄰","STREET":"建國路","SECT":" ","MAREA":" ","LANE":"２６２巷","ALLEY":" ","HOUSE_NO":"２５號","E_COORD97":177957.92999999999,"N_COORD97":2559288.3999999999,"ADDRESS":"建國路２６２巷２５號","OBJECTID":387677},"geometry":{"x":177957.93000000063,"y":2559288.4000000004}},{"attributes":{"ID":387702,"DIS_CODE":0,"TOWNNAME":"善化區","LI":"光文里","LIN":"28鄰","STREET":"建國路","SECT":" ","MAREA":" ","LANE":"２６２巷","ALLEY":" ","HOUSE_NO":"２７號","E_COORD97":177962.82999999999,"N_COORD97":2559289.1699999999,"ADDRESS":"建國路２６２巷２７號","OBJECTID":387678},"geometry":{"x":177962.83000000007,"y":2559289.1699999999}},{"attributes":{"ID":387703,"DIS_CODE":0,"TOWNNAME":"善化區","LI":"光文里","LIN":"28鄰","STREET":"建國路","SECT":" ","MAREA":" ","LANE":"２６２巷","ALLEY":" ","HOUSE_NO":"２９號","E_COORD97":177967.73000000001,"N_COORD97":2559289.9300000002,"ADDRESS":"建國路２６２巷２９號","OBJECTID":387679},"geometry":{"x":177967.73000000045,"y":2559289.9299999997}},{"attributes":{"ID":387704,"DIS_CODE":0,"TOWNNAME":"善化區","LI":"光文里","LIN":"28鄰","STREET":"建國路","SECT":" ","MAREA":" ","LANE":"２６２巷","ALLEY":" ","HOUSE_NO":"３１號","E_COORD97":177972.63,"N_COORD97":2559290.7000000002,"ADDRESS":"建國路２６２巷３１號","OBJECTID":387680},"geometry":{"x":177972.62999999989,"y":2559290.6999999993}},{"attributes":{"ID":387705,"DIS_CODE":0,"TOWNNAME":"善化區","LI":"光文里","LIN":"28鄰","STREET":"建國路","SECT":" ","MAREA":" ","LANE":"２６２巷","ALLEY":" ","HOUSE_NO":"３３號","E_COORD97":177977.53,"N_COORD97":2559291.46,"ADDRESS":"建國路２６２巷３３號","OBJECTID":387681},"geometry":{"x":177977.52999999933,"y":2559291.4600000009}},{"attributes":{"ID":387706,"DIS_CODE":0,"TOWNNAME":"善化區","LI":"光文里","LIN":"28鄰","STREET":"建國路","SECT":" ","MAREA":" ","LANE":"２６２巷","ALLEY":" ","HOUSE_NO":"３５號","E_COORD97":177982.42999999999,"N_COORD97":2559292.23,"ADDRESS":"建國路２６２巷３５號","OBJECTID":387682},"geometry":{"x":177982.4299999997,"y":2559292.2300000004}},{"attributes":{"ID":387707,"DIS_CODE":0,"TOWNNAME":"善化區","LI":"光文里","LIN":"28鄰","STREET":"建國路","SECT":" ","MAREA":" ","LANE":"２６２巷","ALLEY":" ","HOUSE_NO":"３７號","E_COORD97":177987.32999999999,"N_COORD97":2559292.9900000002,"ADDRESS":"建國路２６２巷３７號","OBJECTID":387683},"geometry":{"x":177987.33000000194,"y":2559292.9900000021}},{"attributes":{"ID":387708,"DIS_CODE":0,"TOWNNAME":"善化區","LI":"光文里","LIN":"28鄰","STREET":"建國路","SECT":" ","MAREA":" ","LANE":"２６２巷","ALLEY":" ","HOUSE_NO":"３９號","E_COORD97":177992.23000000001,"N_COORD97":2559293.75,"ADDRESS":"建國路２６２巷３９號","OBJECTID":387684},"geometry":{"x":177992.23000000138,"y":2559293.7500000019}},{"attributes":{"ID":387709,"DIS_CODE":0,"TOWNNAME":"善化區","LI":"光文里","LIN":"28鄰","STREET":"建國路","SECT":" ","MAREA":" ","LANE":"２６２巷","ALLEY":" ","HOUSE_NO":"４１號","E_COORD97":177998.51000000001,"N_COORD97":2559294.7400000002,"ADDRESS":"建國路２６２巷４１號","OBJECTID":387685},"geometry":{"x":177998.50999999978,"y":2559294.7400000021}},{"attributes":{"ID":387710,"DIS_CODE":0,"TOWNNAME":"善化區","LI":"光文里","LIN":"28鄰","STREET":"建國路","SECT":" ","MAREA":" ","LANE":"２３１巷","ALLEY":" ","HOUSE_NO":"２７號","E_COORD97":177857.115326,"N_COORD97":2559197.0629599998,"ADDRESS":"建國路２３１巷２７號","OBJECTID":387686},"geometry":{"x":177857.11532600038,"y":2559197.0629580021}},{"attributes":{"ID":387711,"DIS_CODE":0,"TOWNNAME":"中西區","LI":"永福里","LIN":"5鄰","STREET":"友愛街","SECT":" ","MAREA":" ","LANE":"４０巷","ALLEY":" ","HOUSE_NO":"１４號","E_COORD97":168125.22,"N_COORD97":2543552.0800000001,"ADDRESS":"友愛街４０巷１４號","OBJECTID":387687},"geometry":{"x":168125.22000000067,"y":2543552.0800000001}},{"attributes":{"ID":387712,"DIS_CODE":0,"TOWNNAME":"中西區","LI":"永福里","LIN":"5鄰","STREET":"友愛街","SECT":" ","MAREA":" ","LANE":"４０巷","ALLEY":" ","HOUSE_NO":"１６號","E_COORD97":168111.25,"N_COORD97":2543566.5800000001,"ADDRESS":"友愛街４０巷１６號","OBJECTID":387688},"geometry":{"x":168111.25,"y":2543566.5800000019}},{"attributes":{"ID":387713,"DIS_CODE":0,"TOWNNAME":"中西區","LI":"永福里","LIN":"5鄰","STREET":"友愛街","SECT":" ","MAREA":" ","LANE":"４０巷","ALLEY":" ","HOUSE_NO":"１７號","E_COORD97":168102.95000000001,"N_COORD97":2543562.3799999999,"ADDRESS":"友愛街４０巷１７號","OBJECTID":387689},"geometry":{"x":168102.95000000019,"y":2543562.379999999}},{"attributes":{"ID":387714,"DIS_CODE":0,"TOWNNAME":"中西區","LI":"永福里","LIN":"5鄰","STREET":"友愛街","SECT":" ","MAREA":" ","LANE":"４０巷","ALLEY":" ","HOUSE_NO":"８號","E_COORD97":168132.85999999999,"N_COORD97":2543555.3399999999,"ADDRESS":"友愛街４０巷８號","OBJECTID":387690},"geometry":{"x":168132.86000000034,"y":2543555.3400000017}},{"attributes":{"ID":387715,"DIS_CODE":0,"TOWNNAME":"善化區","LI":"光文里","LIN":"28鄰","STREET":"公園路","SECT":" ","MAREA":" ","LANE":"１１０巷","ALLEY":" ","HOUSE_NO":"２６號","E_COORD97":178042.92000000001,"N_COORD97":2559254.6000000001,"ADDRESS":"公園路１１０巷２６號","OBJECTID":387691},"geometry":{"x":178042.92000000086,"y":2559254.5999999996}},{"attributes":{"ID":387716,"DIS_CODE":0,"TOWNNAME":"善化區","LI":"光文里","LIN":"28鄰","STREET":"公園路","SECT":" ","MAREA":" ","LANE":"１１０巷","ALLEY":" ","HOUSE_NO":"２８號","E_COORD97":178043.14000000001,"N_COORD97":2559259.5099999998,"ADDRESS":"公園路１１０巷２８號","OBJECTID":387692},"geometry":{"x":178043.1400000006,"y":2559259.5099999998}},{"attributes":{"ID":387717,"DIS_CODE":0,"TOWNNAME":"善化區","LI":"光文里","LIN":"28鄰","STREET":"公園路","SECT":" ","MAREA":" ","LANE":"１１０巷","ALLEY":" ","HOUSE_NO":"３０號","E_COORD97":178042.45999999999,"N_COORD97":2559263.6600000001,"ADDRESS":"公園路１１０巷３０號","OBJECTID":387693},"geometry":{"x":178042.46000000089,"y":2559263.660000002}},{"attributes":{"ID":387718,"DIS_CODE":0,"TOWNNAME":"善化區","LI":"光文里","LIN":"28鄰","STREET":"公園路","SECT":" ","MAREA":" ","LANE":"１１０巷","ALLEY":" ","HOUSE_NO":"３２號","E_COORD97":178039.23999999999,"N_COORD97":2559269.1600000001,"ADDRESS":"公園路１１０巷３２號","OBJECTID":387694},"geometry":{"x":178039.24000000115,"y":2559269.1600000001}},{"attributes":{"ID":387719,"DIS_CODE":0,"TOWNNAME":"善化區","LI":"光文里","LIN":"28鄰","STREET":"公園路","SECT":" ","MAREA":" ","LANE":"１１０巷","ALLEY":" ","HOUSE_NO":"３６號","E_COORD97":178027.09,"N_COORD97":2559276.54,"ADDRESS":"公園路１１０巷３６號","OBJECTID":387695},"geometry":{"x":178027.08999999985,"y":2559276.5400000028}},{"attributes":{"ID":387720,"DIS_CODE":0,"TOWNNAME":"善化區","LI":"光文里","LIN":"28鄰","STREET":"公園路","SECT":" ","MAREA":" ","LANE":"１１０巷","ALLEY":" ","HOUSE_NO":"３８號","E_COORD97":178023.19,"N_COORD97":2559294.9500000002,"ADDRESS":"公園路１１０巷３８號","OBJECTID":387696},"geometry":{"x":178023.19000000134,"y":2559294.9500000011}},{"attributes":{"ID":387721,"DIS_CODE":0,"TOWNNAME":"善化區","LI":"光文里","LIN":"28鄰","STREET":"公園路","SECT":" ","MAREA":" ","LANE":"１１０巷","ALLEY":" ","HOUSE_NO":"３６之１號","E_COORD97":178032.64000000001,"N_COORD97":2559275.8100000001,"ADDRESS":"公園路１１０巷３６之１號","OBJECTID":387697},"geometry":{"x":178032.6400000006,"y":2559275.8099999987}},{"attributes":{"ID":387722,"DIS_CODE":0,"TOWNNAME":"善化區","LI":"光文里","LIN":"28鄰","STREET":"公園路","SECT":" ","MAREA":" ","LANE":"１１０巷","ALLEY":" ","HOUSE_NO":"３６之２號","E_COORD97":178037.10000000001,"N_COORD97":2559276.4100000001,"ADDRESS":"公園路１１０巷３６之２號","OBJECTID":387698},"geometry":{"x":178037.09999999963,"y":2559276.410000002}},{"attributes":{"ID":387723,"DIS_CODE":0,"TOWNNAME":"善化區","LI":"光文里","LIN":"28鄰","STREET":"公園路","SECT":" ","MAREA":" ","LANE":"１１０巷","ALLEY":" ","HOUSE_NO":"３６之３號","E_COORD97":178041.56,"N_COORD97":2559277.0099999998,"ADDRESS":"公園路１１０巷３６之３號","OBJECTID":387699},"geometry":{"x":178041.56000000052,"y":2559277.0099999979}},{"attributes":{"ID":387724,"DIS_CODE":0,"TOWNNAME":"善化區","LI":"光文里","LIN":"28鄰","STREET":"公園路","SECT":" ","MAREA":" ","LANE":"１１０巷","ALLEY":" ","HOUSE_NO":"３６之５號","E_COORD97":178046.01999999999,"N_COORD97":2559277.6000000001,"ADDRESS":"公園路１１０巷３６之５號","OBJECTID":387700},"geometry":{"x":178046.01999999955,"y":2559277.6000000015}},{"attributes":{"ID":387725,"DIS_CODE":0,"TOWNNAME":"善化區","LI":"光文里","LIN":"28鄰","STREET":"公園路","SECT":" ","MAREA":" ","LANE":"１１０巷","ALLEY":" ","HOUSE_NO":"３６之６號","E_COORD97":178050.76000000001,"N_COORD97":2559277.1299999999,"ADDRESS":"公園路１１０巷３６之６號","OBJECTID":387701},"geometry":{"x":178050.76000000071,"y":2559277.1300000008}},{"attributes":{"ID":387726,"DIS_CODE":0,"TOWNNAME":"善化區","LI":"光文里","LIN":"28鄰","STREET":"公園路","SECT":" ","MAREA":" ","LANE":"１１０巷","ALLEY":" ","HOUSE_NO":"３６之７號","E_COORD97":178056.37,"N_COORD97":2559282.4399999999,"ADDRESS":"公園路１１０巷３６之７號","OBJECTID":387702},"geometry":{"x":178056.37000000011,"y":2559282.4400000013}},{"attributes":{"ID":387727,"DIS_CODE":0,"TOWNNAME":"善化區","LI":"光文里","LIN":"28鄰","STREET":"公園路","SECT":" ","MAREA":" ","LANE":"１１０巷","ALLEY":" ","HOUSE_NO":"３８之７號","E_COORD97":178054.37,"N_COORD97":2559295.3100000001,"ADDRESS":"公園路１１０巷３８之７號","OBJECTID":387703},"geometry":{"x":178054.37000000011,"y":2559295.3100000005}},{"attributes":{"ID":387728,"DIS_CODE":0,"TOWNNAME":"善化區","LI":"光文里","LIN":"28鄰","STREET":"建國路","SECT":" ","MAREA":" ","LANE":"２３１巷","ALLEY":" ","HOUSE_NO":"１５號","E_COORD97":177886.558127,"N_COORD97":2559203.4129599999,"ADDRESS":"建國路２３１巷１５號","OBJECTID":387704},"geometry":{"x":177886.558127,"y":2559203.412955001}},{"attributes":{"ID":387729,"DIS_CODE":0,"TOWNNAME":"善化區","LI":"光文里","LIN":"28鄰","STREET":"建國路","SECT":" ","MAREA":" ","LANE":"２３１巷","ALLEY":" ","HOUSE_NO":"１７號","E_COORD97":177881.262659,"N_COORD97":2559203.2012900002,"ADDRESS":"建國路２３１巷１７號","OBJECTID":387705},"geometry":{"x":177881.2626590021,"y":2559203.2012879997}},{"attributes":{"ID":387730,"DIS_CODE":0,"TOWNNAME":"善化區","LI":"光文里","LIN":"28鄰","STREET":"建國路","SECT":" ","MAREA":" ","LANE":"２３１巷","ALLEY":" ","HOUSE_NO":"１９號","E_COORD97":177876.81446600001,"N_COORD97":2559202.56629,"ADDRESS":"建國路２３１巷１９號","OBJECTID":387706},"geometry":{"x":177876.81446600053,"y":2559202.5662890002}},{"attributes":{"ID":387731,"DIS_CODE":0,"TOWNNAME":"善化區","LI":"光文里","LIN":"28鄰","STREET":"建國路","SECT":" ","MAREA":" ","LANE":"２３１巷","ALLEY":" ","HOUSE_NO":"２１號","E_COORD97":177872.789911,"N_COORD97":2559203.83629,"ADDRESS":"建國路２３１巷２１號","OBJECTID":387707},"geometry":{"x":177872.78991100006,"y":2559203.8362879995}},{"attributes":{"ID":387732,"DIS_CODE":0,"TOWNNAME":"中西區","LI":"西湖里","LIN":"28鄰","STREET":"湖美街","SECT":" ","MAREA":" ","LANE":"６０巷","ALLEY":" ","HOUSE_NO":"３１號","E_COORD97":166018.81,"N_COORD97":2544694.77,"ADDRESS":"湖美街６０巷３１號","OBJECTID":387708},"geometry":{"x":166018.80999999866,"y":2544694.7700000014}},{"attributes":{"ID":387733,"DIS_CODE":0,"TOWNNAME":"中西區","LI":"西湖里","LIN":"28鄰","STREET":"湖美街","SECT":" ","MAREA":" ","LANE":"６０巷","ALLEY":" ","HOUSE_NO":"３號","E_COORD97":166018.70999999999,"N_COORD97":2544699.2200000002,"ADDRESS":"湖美街６０巷３號","OBJECTID":387709},"geometry":{"x":166018.71000000089,"y":2544699.2200000025}},{"attributes":{"ID":387734,"DIS_CODE":0,"TOWNNAME":"中西區","LI":"西湖里","LIN":"28鄰","STREET":"湖美街","SECT":" ","MAREA":" ","LANE":"６０巷","ALLEY":" ","HOUSE_NO":"７號","E_COORD97":166018.89000000001,"N_COORD97":2544704.1000000001,"ADDRESS":"湖美街６０巷７號","OBJECTID":387710},"geometry":{"x":166018.8900000006,"y":2544704.0999999996}},{"attributes":{"ID":387735,"DIS_CODE":0,"TOWNNAME":"中西區","LI":"西湖里","LIN":"28鄰","STREET":"湖美街","SECT":" ","MAREA":" ","LANE":"７０巷","ALLEY":" ","HOUSE_NO":"１０號","E_COORD97":165993.41,"N_COORD97":2544746.8599999999,"ADDRESS":"湖美街７０巷１０號","OBJECTID":387711},"geometry":{"x":165993.41000000201,"y":2544746.8600000031}},{"attributes":{"ID":387736,"DIS_CODE":0,"TOWNNAME":"中西區","LI":"西湖里","LIN":"28鄰","STREET":"湖美街","SECT":" ","MAREA":" ","LANE":"７０巷","ALLEY":" ","HOUSE_NO":"１１號","E_COORD97":165974.69,"N_COORD97":2544766.0899999999,"ADDRESS":"湖美街７０巷１１號","OBJECTID":387712},"geometry":{"x":165974.68999999948,"y":2544766.0900000036}},{"attributes":{"ID":387737,"DIS_CODE":0,"TOWNNAME":"中西區","LI":"西湖里","LIN":"28鄰","STREET":"湖美街","SECT":" ","MAREA":" ","LANE":"７０巷","ALLEY":" ","HOUSE_NO":"１２號","E_COORD97":166004.10000000001,"N_COORD97":2544747.6600000001,"ADDRESS":"湖美街７０巷１２號","OBJECTID":387713},"geometry":{"x":166004.10000000056,"y":2544747.6600000001}},{"attributes":{"ID":387738,"DIS_CODE":0,"TOWNNAME":"中西區","LI":"西湖里","LIN":"28鄰","STREET":"湖美街","SECT":" ","MAREA":" ","LANE":"７０巷","ALLEY":" ","HOUSE_NO":"１３號","E_COORD97":165978.97,"N_COORD97":2544766.8900000001,"ADDRESS":"湖美街７０巷１３號","OBJECTID":387714},"geometry":{"x":165978.9700000016,"y":2544766.8900000006}},{"attributes":{"ID":387739,"DIS_CODE":0,"TOWNNAME":"中西區","LI":"西湖里","LIN":"28鄰","STREET":"湖美街","SECT":" ","MAREA":" ","LANE":"７０巷","ALLEY":" ","HOUSE_NO":"１５號","E_COORD97":165982.70999999999,"N_COORD97":2544765.5499999998,"ADDRESS":"湖美街７０巷１５號","OBJECTID":387715},"geometry":{"x":165982.71000000183,"y":2544765.5500000007}},{"attributes":{"ID":387740,"DIS_CODE":0,"TOWNNAME":"中西區","LI":"西湖里","LIN":"28鄰","STREET":"湖美街","SECT":" ","MAREA":" ","LANE":"７０巷","ALLEY":" ","HOUSE_NO":"１６號","E_COORD97":166004.37,"N_COORD97":2544738.5800000001,"ADDRESS":"湖美街７０巷１６號","OBJECTID":387716},"geometry":{"x":166004.37000000104,"y":2544738.5800000001}},{"attributes":{"ID":387741,"DIS_CODE":0,"TOWNNAME":"中西區","LI":"西湖里","LIN":"28鄰","STREET":"湖美街","SECT":" ","MAREA":" ","LANE":"７０巷","ALLEY":" ","HOUSE_NO":"１７號","E_COORD97":165986.72,"N_COORD97":2544765.8199999998,"ADDRESS":"湖美街７０巷１７號","OBJECTID":387717},"geometry":{"x":165986.71999999974,"y":2544765.8200000022}},{"attributes":{"ID":387742,"DIS_CODE":0,"TOWNNAME":"中西區","LI":"西湖里","LIN":"28鄰","STREET":"湖美街","SECT":" ","MAREA":" ","LANE":"７０巷","ALLEY":" ","HOUSE_NO":"１８號","E_COORD97":166003.84,"N_COORD97":2544731.3700000001,"ADDRESS":"湖美街７０巷１８號","OBJECTID":387718},"geometry":{"x":166003.84000000171,"y":2544731.3700000048}},{"attributes":{"ID":387743,"DIS_CODE":0,"TOWNNAME":"中西區","LI":"天后里","LIN":"8鄰","STREET":"新美街","SECT":" ","MAREA":" ","LANE":"１２５巷","ALLEY":" ","HOUSE_NO":"１號","E_COORD97":168040.35000000001,"N_COORD97":2544171.3700000001,"ADDRESS":"新美街１２５巷１號","OBJECTID":387719},"geometry":{"x":168040.34999999963,"y":2544171.370000001}},{"attributes":{"ID":387744,"DIS_CODE":0,"TOWNNAME":"中西區","LI":"西湖里","LIN":"28鄰","STREET":"湖美街","SECT":" ","MAREA":" ","LANE":"７０巷","ALLEY":" ","HOUSE_NO":"１９號","E_COORD97":165991.26999999999,"N_COORD97":2544766.0899999999,"ADDRESS":"湖美街７０巷１９號","OBJECTID":387720},"geometry":{"x":165991.26999999955,"y":2544766.0900000036}},{"attributes":{"ID":387745,"DIS_CODE":0,"TOWNNAME":"中西區","LI":"西湖里","LIN":"28鄰","STREET":"湖美街","SECT":" ","MAREA":" ","LANE":"７０巷","ALLEY":" ","HOUSE_NO":"１號","E_COORD97":165953.56,"N_COORD97":2544765.29,"ADDRESS":"湖美街７０巷１號","OBJECTID":387721},"geometry":{"x":165953.56000000052,"y":2544765.290000001}},{"attributes":{"ID":387746,"DIS_CODE":0,"TOWNNAME":"永康區","LI":"復華里","LIN":"28鄰","STREET":"復華八街","SECT":" ","MAREA":" ","LANE":"４５巷","ALLEY":" ","HOUSE_NO":"７號","E_COORD97":172745.25,"N_COORD97":2546337.0099999998,"ADDRESS":"復華八街４５巷７號","OBJECTID":387722},"geometry":{"x":172745.25000000093,"y":2546337.0100000016}},{"attributes":{"ID":387747,"DIS_CODE":0,"TOWNNAME":"中西區","LI":"西湖里","LIN":"28鄰","STREET":"湖美街","SECT":" ","MAREA":" ","LANE":"７０巷","ALLEY":" ","HOUSE_NO":"２１號","E_COORD97":165995.28,"N_COORD97":2544766.8900000001,"ADDRESS":"湖美街７０巷２１號","OBJECTID":387723},"geometry":{"x":165995.28000000026,"y":2544766.8900000006}},{"attributes":{"ID":387748,"DIS_CODE":0,"TOWNNAME":"中西區","LI":"西湖里","LIN":"28鄰","STREET":"湖美街","SECT":" ","MAREA":" ","LANE":"７０巷","ALLEY":" ","HOUSE_NO":"２３號","E_COORD97":166000.09,"N_COORD97":2544767.4199999999,"ADDRESS":"湖美街７０巷２３號","OBJECTID":387724},"geometry":{"x":166000.08999999985,"y":2544767.4200000037}},{"attributes":{"ID":387749,"DIS_CODE":0,"TOWNNAME":"中西區","LI":"西湖里","LIN":"28鄰","STREET":"湖美街","SECT":" ","MAREA":" ","LANE":"７０巷","ALLEY":" ","HOUSE_NO":"７號","E_COORD97":165966.13,"N_COORD97":2544765.29,"ADDRESS":"湖美街７０巷７號","OBJECTID":387725},"geometry":{"x":165966.13000000175,"y":2544765.290000001}},{"attributes":{"ID":387750,"DIS_CODE":0,"TOWNNAME":"中西區","LI":"西湖里","LIN":"28鄰","STREET":"湖美街","SECT":" ","MAREA":" ","LANE":"７０巷","ALLEY":" ","HOUSE_NO":"９號","E_COORD97":165970.14000000001,"N_COORD97":2544765.8199999998,"ADDRESS":"湖美街７０巷９號","OBJECTID":387726},"geometry":{"x":165970.13999999966,"y":2544765.8200000022}},{"attributes":{"ID":387751,"DIS_CODE":0,"TOWNNAME":"新市區","LI":"港墘里","LIN":"28鄰","STREET":"華美街","SECT":" ","MAREA":" ","LANE":"６１巷","ALLEY":" ","HOUSE_NO":"１８號","E_COORD97":178098.14999999999,"N_COORD97":2553037.2999999998,"ADDRESS":"華美街６１巷１８號","OBJECTID":387727},"geometry":{"x":178098.1500000013,"y":2553037.3000000007}},{"attributes":{"ID":387752,"DIS_CODE":0,"TOWNNAME":"官田區","LI":"隆本里","LIN":"28鄰","STREET":"信義街","SECT":"二段","MAREA":" ","LANE":"１巷","ALLEY":" ","HOUSE_NO":"１８號","E_COORD97":179698.60999999999,"N_COORD97":2565861.4300000002,"ADDRESS":"信義街二段１巷１８號","OBJECTID":387728},"geometry":{"x":179698.61000000127,"y":2565861.4299999997}},{"attributes":{"ID":387753,"DIS_CODE":0,"TOWNNAME":"官田區","LI":"隆本里","LIN":"28鄰","STREET":"信義街","SECT":"二段","MAREA":" ","LANE":"１巷","ALLEY":" ","HOUSE_NO":"２０號","E_COORD97":179692.73000000001,"N_COORD97":2565862.6499999999,"ADDRESS":"信義街二段１巷２０號","OBJECTID":387729},"geometry":{"x":179692.73000000138,"y":2565862.6500000022}},{"attributes":{"ID":387754,"DIS_CODE":0,"TOWNNAME":"官田區","LI":"隆本里","LIN":"28鄰","STREET":"信義街","SECT":"二段","MAREA":" ","LANE":"１巷","ALLEY":" ","HOUSE_NO":"２２號","E_COORD97":179686.03,"N_COORD97":2565863.71,"ADDRESS":"信義街二段１巷２２號","OBJECTID":387730},"geometry":{"x":179686.03000000026,"y":2565863.7100000009}},{"attributes":{"ID":387755,"DIS_CODE":0,"TOWNNAME":"官田區","LI":"隆本里","LIN":"28鄰","STREET":"信義街","SECT":"二段","MAREA":" ","LANE":"１巷","ALLEY":" ","HOUSE_NO":"８號","E_COORD97":179722.48999999999,"N_COORD97":2565858.0499999998,"ADDRESS":"信義街二段１巷８號","OBJECTID":387731},"geometry":{"x":179722.49000000115,"y":2565858.0500000007}},{"attributes":{"ID":387756,"DIS_CODE":0,"TOWNNAME":"官田區","LI":"隆本里","LIN":"28鄰","STREET":"信義街","SECT":"二段","MAREA":" ","LANE":"９巷","ALLEY":" ","HOUSE_NO":"１１號","E_COORD97":179713.76000000001,"N_COORD97":2565882.7799999998,"ADDRESS":"信義街二段９巷１１號","OBJECTID":387732},"geometry":{"x":179713.76000000071,"y":2565882.7800000031}},{"attributes":{"ID":387757,"DIS_CODE":0,"TOWNNAME":"官田區","LI":"隆本里","LIN":"28鄰","STREET":"信義街","SECT":"二段","MAREA":" ","LANE":"９巷","ALLEY":" ","HOUSE_NO":"１３號","E_COORD97":179709.38,"N_COORD97":2565883.8199999998,"ADDRESS":"信義街二段９巷１３號","OBJECTID":387733},"geometry":{"x":179709.38000000082,"y":2565883.820000004}},{"attributes":{"ID":387758,"DIS_CODE":0,"TOWNNAME":"官田區","LI":"隆本里","LIN":"28鄰","STREET":"信義街","SECT":"二段","MAREA":" ","LANE":"９巷","ALLEY":" ","HOUSE_NO":"１５號","E_COORD97":179705.73999999999,"N_COORD97":2565884.77,"ADDRESS":"信義街二段９巷１５號","OBJECTID":387734},"geometry":{"x":179705.74000000115,"y":2565884.7700000014}},{"attributes":{"ID":387759,"DIS_CODE":0,"TOWNNAME":"官田區","LI":"隆本里","LIN":"28鄰","STREET":"信義街","SECT":"二段","MAREA":" ","LANE":"９巷","ALLEY":" ","HOUSE_NO":"１７號","E_COORD97":179701.42999999999,"N_COORD97":2565886.2599999998,"ADDRESS":"信義街二段９巷１７號","OBJECTID":387735},"geometry":{"x":179701.4299999997,"y":2565886.2599999998}},{"attributes":{"ID":387760,"DIS_CODE":0,"TOWNNAME":"官田區","LI":"隆本里","LIN":"28鄰","STREET":"信義街","SECT":"二段","MAREA":" ","LANE":"９巷","ALLEY":" ","HOUSE_NO":"１９號","E_COORD97":179697.45999999999,"N_COORD97":2565886.7400000002,"ADDRESS":"信義街二段９巷１９號","OBJECTID":387736},"geometry":{"x":179697.46000000089,"y":2565886.7400000002}},{"attributes":{"ID":387761,"DIS_CODE":0,"TOWNNAME":"官田區","LI":"隆本里","LIN":"28鄰","STREET":"信義街","SECT":"二段","MAREA":" ","LANE":"９巷","ALLEY":" ","HOUSE_NO":"２１號","E_COORD97":179693.48999999999,"N_COORD97":2565888.3700000001,"ADDRESS":"信義街二段９巷２１號","OBJECTID":387737},"geometry":{"x":179693.49000000209,"y":2565888.3700000029}},{"attributes":{"ID":387762,"DIS_CODE":0,"TOWNNAME":"官田區","LI":"隆本里","LIN":"28鄰","STREET":"信義街","SECT":"二段","MAREA":" ","LANE":"９巷","ALLEY":" ","HOUSE_NO":"２３號","E_COORD97":179688.92000000001,"N_COORD97":2565889.0800000001,"ADDRESS":"信義街二段９巷２３號","OBJECTID":387738},"geometry":{"x":179688.92000000086,"y":2565889.0800000019}},{"attributes":{"ID":387763,"DIS_CODE":0,"TOWNNAME":"官田區","LI":"隆本里","LIN":"28鄰","STREET":"信義街","SECT":"二段","MAREA":" ","LANE":"９巷","ALLEY":" ","HOUSE_NO":"２５號","E_COORD97":179685.10999999999,"N_COORD97":2565890.1899999999,"ADDRESS":"信義街二段９巷２５號","OBJECTID":387739},"geometry":{"x":179685.11000000034,"y":2565890.1899999976}},{"attributes":{"ID":387764,"DIS_CODE":0,"TOWNNAME":"官田區","LI":"隆本里","LIN":"28鄰","STREET":"信義街","SECT":"二段","MAREA":" ","LANE":"９巷","ALLEY":" ","HOUSE_NO":"２７號","E_COORD97":179681.03,"N_COORD97":2565891.1899999999,"ADDRESS":"信義街二段９巷２７號","OBJECTID":387740},"geometry":{"x":179681.03000000026,"y":2565891.1900000013}},{"attributes":{"ID":387765,"DIS_CODE":0,"TOWNNAME":"官田區","LI":"隆本里","LIN":"28鄰","STREET":"信義街","SECT":"二段","MAREA":" ","LANE":"９巷","ALLEY":" ","HOUSE_NO":"２９號","E_COORD97":179676.51999999999,"N_COORD97":2565892.1499999999,"ADDRESS":"信義街二段９巷２９號","OBJECTID":387741},"geometry":{"x":179676.51999999955,"y":2565892.1500000022}},{"attributes":{"ID":387766,"DIS_CODE":0,"TOWNNAME":"官田區","LI":"隆本里","LIN":"28鄰","STREET":"信義街","SECT":"二段","MAREA":" ","LANE":"９巷","ALLEY":" ","HOUSE_NO":"３１號","E_COORD97":179672.54000000001,"N_COORD97":2565893.48,"ADDRESS":"信義街二段９巷３１號","OBJECTID":387742},"geometry":{"x":179672.5400000019,"y":2565893.4800000023}},{"attributes":{"ID":387767,"DIS_CODE":0,"TOWNNAME":"官田區","LI":"隆本里","LIN":"28鄰","STREET":"信義街","SECT":"二段","MAREA":" ","LANE":"９巷","ALLEY":" ","HOUSE_NO":"３３號","E_COORD97":179668.76000000001,"N_COORD97":2565894.2000000002,"ADDRESS":"信義街二段９巷３３號","OBJECTID":387743},"geometry":{"x":179668.75999999978,"y":2565894.2000000011}},{"attributes":{"ID":387768,"DIS_CODE":0,"TOWNNAME":"官田區","LI":"隆本里","LIN":"28鄰","STREET":"信義街","SECT":"二段","MAREA":" ","LANE":"９巷","ALLEY":" ","HOUSE_NO":"７號","E_COORD97":179722.26999999999,"N_COORD97":2565880.3199999998,"ADDRESS":"信義街二段９巷７號","OBJECTID":387744},"geometry":{"x":179722.26999999955,"y":2565880.320000004}},{"attributes":{"ID":387769,"DIS_CODE":0,"TOWNNAME":"官田區","LI":"隆本里","LIN":"28鄰","STREET":"信義街","SECT":"二段","MAREA":" ","LANE":"９巷","ALLEY":" ","HOUSE_NO":"９號","E_COORD97":179718.07999999999,"N_COORD97":2565881.3500000001,"ADDRESS":"信義街二段９巷９號","OBJECTID":387745},"geometry":{"x":179718.08000000194,"y":2565881.3499999996}},{"attributes":{"ID":387770,"DIS_CODE":0,"TOWNNAME":"永康區","LI":"大灣里","LIN":"28鄰","STREET":"大灣六街","SECT":" ","MAREA":" ","LANE":"９巷","ALLEY":" ","HOUSE_NO":"２０號","E_COORD97":175296.54999999999,"N_COORD97":2545145.8199999998,"ADDRESS":"大灣六街９巷２０號","OBJECTID":387746},"geometry":{"x":175296.54999999981,"y":2545145.8200000022}},{"attributes":{"ID":387771,"DIS_CODE":0,"TOWNNAME":"永康區","LI":"大灣里","LIN":"28鄰","STREET":"民族路","SECT":" ","MAREA":" ","LANE":"１９０巷","ALLEY":" ","HOUSE_NO":"４１號","E_COORD97":175299.84,"N_COORD97":2545107.3100000001,"ADDRESS":"民族路１９０巷４１號","OBJECTID":387747},"geometry":{"x":175299.83999999985,"y":2545107.3100000005}},{"attributes":{"ID":387772,"DIS_CODE":0,"TOWNNAME":"永康區","LI":"五王里","LIN":"28鄰","STREET":"中山東路","SECT":" ","MAREA":" ","LANE":"６８巷","ALLEY":" ","HOUSE_NO":"３２號","E_COORD97":171626.94,"N_COORD97":2545985.46,"ADDRESS":"中山東路６８巷３２號","OBJECTID":387748},"geometry":{"x":171626.94000000134,"y":2545985.4600000028}},{"attributes":{"ID":387773,"DIS_CODE":0,"TOWNNAME":"永康區","LI":"五王里","LIN":"28鄰","STREET":"中山東路","SECT":" ","MAREA":" ","LANE":"６８巷","ALLEY":" ","HOUSE_NO":"５６號","E_COORD97":171594.79000000001,"N_COORD97":2545970.71,"ADDRESS":"中山東路６８巷５６號","OBJECTID":387749},"geometry":{"x":171594.79000000004,"y":2545970.7100000028}},{"attributes":{"ID":387774,"DIS_CODE":0,"TOWNNAME":"永康區","LI":"五王里","LIN":"28鄰","STREET":"中山東路","SECT":" ","MAREA":" ","LANE":"６８巷","ALLEY":" ","HOUSE_NO":"４０號","E_COORD97":171616.09,"N_COORD97":2545980.46,"ADDRESS":"中山東路６８巷４０號","OBJECTID":387750},"geometry":{"x":171616.08999999985,"y":2545980.4600000009}},{"attributes":{"ID":387775,"DIS_CODE":0,"TOWNNAME":"永康區","LI":"五王里","LIN":"28鄰","STREET":"中山東路","SECT":" ","MAREA":" ","LANE":"６８巷","ALLEY":" ","HOUSE_NO":"２８號","E_COORD97":171634.35000000001,"N_COORD97":2545989.71,"ADDRESS":"中山東路６８巷２８號","OBJECTID":387751},"geometry":{"x":171634.34999999963,"y":2545989.7100000009}},{"attributes":{"ID":387776,"DIS_CODE":0,"TOWNNAME":"永康區","LI":"勝利里","LIN":"28鄰","STREET":"勝利街","SECT":" ","MAREA":" ","LANE":"４２巷","ALLEY":" ","HOUSE_NO":"２８號","E_COORD97":171407.84,"N_COORD97":2544615.25,"ADDRESS":"勝利街４２巷２８號","OBJECTID":387752},"geometry":{"x":171407.83999999892,"y":2544615.25}},{"attributes":{"ID":387777,"DIS_CODE":0,"TOWNNAME":"永康區","LI":"復華里","LIN":"28鄰","STREET":"復華八街","SECT":" ","MAREA":" ","LANE":"４３巷","ALLEY":" ","HOUSE_NO":"１號","E_COORD97":172742.53,"N_COORD97":2546296.98,"ADDRESS":"復華八街４３巷１號","OBJECTID":387753},"geometry":{"x":172742.53000000026,"y":2546296.9800000023}},{"attributes":{"ID":387778,"DIS_CODE":0,"TOWNNAME":"永康區","LI":"勝利里","LIN":"28鄰","STREET":"勝利街","SECT":" ","MAREA":" ","LANE":"３２巷","ALLEY":" ","HOUSE_NO":"１５號","E_COORD97":171381.51999999999,"N_COORD97":2544601.3999999999,"ADDRESS":"勝利街３２巷１５號","OBJECTID":387754},"geometry":{"x":171381.52000000048,"y":2544601.4000000004}},{"attributes":{"ID":387779,"DIS_CODE":0,"TOWNNAME":"永康區","LI":"復華里","LIN":"28鄰","STREET":"復華八街","SECT":" ","MAREA":" ","LANE":"４３巷","ALLEY":" ","HOUSE_NO":"２６號","E_COORD97":172696.69,"N_COORD97":2546327.0299999998,"ADDRESS":"復華八街４３巷２６號","OBJECTID":387755},"geometry":{"x":172696.69000000134,"y":2546327.0300000012}},{"attributes":{"ID":387780,"DIS_CODE":0,"TOWNNAME":"永康區","LI":"復華里","LIN":"28鄰","STREET":"復華八街","SECT":" ","MAREA":" ","LANE":"４５巷","ALLEY":" ","HOUSE_NO":"２號","E_COORD97":172765.79000000001,"N_COORD97":2546347.0099999998,"ADDRESS":"復華八街４５巷２號","OBJECTID":387756},"geometry":{"x":172765.79000000004,"y":2546347.0100000016}},{"attributes":{"ID":387781,"DIS_CODE":0,"TOWNNAME":"永康區","LI":"復國里","LIN":"28鄰","STREET":"復國一路","SECT":" ","MAREA":" ","LANE":"２３７巷","ALLEY":" ","HOUSE_NO":"１３號","E_COORD97":172678.14999999999,"N_COORD97":2545409.3900000001,"ADDRESS":"復國一路２３７巷１３號","OBJECTID":387757},"geometry":{"x":172678.1500000013,"y":2545409.3900000025}},{"attributes":{"ID":387782,"DIS_CODE":0,"TOWNNAME":"永康區","LI":"復國里","LIN":"28鄰","STREET":"復國一路","SECT":" ","MAREA":" ","LANE":"２３７巷","ALLEY":" ","HOUSE_NO":"３１號","E_COORD97":172641.29999999999,"N_COORD97":2545411.3900000001,"ADDRESS":"復國一路２３７巷３１號","OBJECTID":387758},"geometry":{"x":172641.30000000075,"y":2545411.3900000006}},{"attributes":{"ID":387783,"DIS_CODE":0,"TOWNNAME":"永康區","LI":"崑山里","LIN":"28鄰","STREET":"大灣路","SECT":" ","MAREA":" ","LANE":"９４２巷","ALLEY":" ","HOUSE_NO":"１８５號","E_COORD97":173729.73000000001,"N_COORD97":2544820.2400000002,"ADDRESS":"大灣路９４２巷１８５號","OBJECTID":387759},"geometry":{"x":173729.73000000045,"y":2544820.2400000021}},{"attributes":{"ID":387784,"DIS_CODE":0,"TOWNNAME":"永康區","LI":"崑山里","LIN":"28鄰","STREET":"大灣路","SECT":" ","MAREA":" ","LANE":"９４２巷","ALLEY":" ","HOUSE_NO":"１９１號","E_COORD97":173734.56,"N_COORD97":2544841.2400000002,"ADDRESS":"大灣路９４２巷１９１號","OBJECTID":387760},"geometry":{"x":173734.55999999959,"y":2544841.2400000021}},{"attributes":{"ID":387785,"DIS_CODE":0,"TOWNNAME":"永康區","LI":"崑山里","LIN":"28鄰","STREET":"大灣路","SECT":" ","MAREA":" ","LANE":"９４２巷","ALLEY":" ","HOUSE_NO":"２０３號","E_COORD97":173733.91,"N_COORD97":2544850.2400000002,"ADDRESS":"大灣路９４２巷２０３號","OBJECTID":387761},"geometry":{"x":173733.91000000108,"y":2544850.2400000039}},{"attributes":{"ID":387786,"DIS_CODE":0,"TOWNNAME":"永康區","LI":"崑山里","LIN":"28鄰","STREET":"大灣路","SECT":" ","MAREA":" ","LANE":"９４２巷","ALLEY":" ","HOUSE_NO":"１７３號","E_COORD97":173721.53,"N_COORD97":2544796,"ADDRESS":"大灣路９４２巷１７３號","OBJECTID":387762},"geometry":{"x":173721.53000000119,"y":2544796}},{"attributes":{"ID":387787,"DIS_CODE":0,"TOWNNAME":"永康區","LI":"勝利里","LIN":"28鄰","STREET":"勝利街","SECT":" ","MAREA":" ","LANE":"４２巷","ALLEY":" ","HOUSE_NO":"１８號","E_COORD97":171388.62,"N_COORD97":2544617.5,"ADDRESS":"勝利街４２巷１８號","OBJECTID":387763},"geometry":{"x":171388.62000000011,"y":2544617.5000000037}},{"attributes":{"ID":387788,"DIS_CODE":0,"TOWNNAME":"永康區","LI":"勝利里","LIN":"28鄰","STREET":"勝利街","SECT":" ","MAREA":" ","LANE":"４２巷","ALLEY":" ","HOUSE_NO":"２０號","E_COORD97":171393.13,"N_COORD97":2544616.75,"ADDRESS":"勝利街４２巷２０號","OBJECTID":387764},"geometry":{"x":171393.13000000082,"y":2544616.7500000019}},{"attributes":{"ID":387789,"DIS_CODE":0,"TOWNNAME":"安南區","LI":"安慶里","LIN":"28鄰","STREET":"怡安路","SECT":"一段","MAREA":" ","LANE":"１７１巷","ALLEY":" ","HOUSE_NO":"１號","E_COORD97":169224.17999999999,"N_COORD97":2548997.7999999998,"ADDRESS":"怡安路一段１７１巷１號","OBJECTID":387765},"geometry":{"x":169224.18000000063,"y":2548997.8000000026}},{"attributes":{"ID":387790,"DIS_CODE":0,"TOWNNAME":"安南區","LI":"安慶里","LIN":"28鄰","STREET":"怡安路","SECT":"一段","MAREA":" ","LANE":"１７１巷","ALLEY":" ","HOUSE_NO":"２號","E_COORD97":169200.25,"N_COORD97":2549004.3399999999,"ADDRESS":"怡安路一段１７１巷２號","OBJECTID":387766},"geometry":{"x":169200.25000000093,"y":2549004.3399999999}},{"attributes":{"ID":387791,"DIS_CODE":0,"TOWNNAME":"安南區","LI":"安慶里","LIN":"28鄰","STREET":"怡安路","SECT":"一段","MAREA":" ","LANE":"１７１巷","ALLEY":" ","HOUSE_NO":"３號","E_COORD97":169222.72,"N_COORD97":2548993.21,"ADDRESS":"怡安路一段１７１巷３號","OBJECTID":387767},"geometry":{"x":169222.71999999974,"y":2548993.2100000009}},{"attributes":{"ID":387792,"DIS_CODE":0,"TOWNNAME":"安南區","LI":"安慶里","LIN":"28鄰","STREET":"怡安路","SECT":"一段","MAREA":" ","LANE":"１７１巷","ALLEY":" ","HOUSE_NO":"４號","E_COORD97":169198.88,"N_COORD97":2548999.9500000002,"ADDRESS":"怡安路一段１７１巷４號","OBJECTID":387768},"geometry":{"x":169198.88000000175,"y":2548999.9499999993}},{"attributes":{"ID":387793,"DIS_CODE":0,"TOWNNAME":"仁德區","LI":"成功里","LIN":"28鄰","STREET":"成功一街","SECT":" ","MAREA":" ","LANE":"１０巷","ALLEY":" ","HOUSE_NO":"８號","E_COORD97":170524.07000000001,"N_COORD97":2540200.77,"ADDRESS":"成功一街１０巷８號","OBJECTID":387769},"geometry":{"x":170524.07000000123,"y":2540200.7699999977}},{"attributes":{"ID":387794,"DIS_CODE":0,"TOWNNAME":"仁德區","LI":"成功里","LIN":"28鄰","STREET":"成功一街","SECT":" ","MAREA":" ","LANE":"１０巷","ALLEY":" ","HOUSE_NO":"３號","E_COORD97":170522.60999999999,"N_COORD97":2540195.52,"ADDRESS":"成功一街１０巷３號","OBJECTID":387770},"geometry":{"x":170522.61000000034,"y":2540195.5199999996}},{"attributes":{"ID":387795,"DIS_CODE":0,"TOWNNAME":"仁德區","LI":"成功里","LIN":"28鄰","STREET":"成功一街","SECT":" ","MAREA":" ","LANE":"１０巷","ALLEY":" ","HOUSE_NO":"１號","E_COORD97":170529.20000000001,"N_COORD97":2540195.27,"ADDRESS":"成功一街１０巷１號","OBJECTID":387771},"geometry":{"x":170529.20000000019,"y":2540195.2700000014}},{"attributes":{"ID":387796,"DIS_CODE":0,"TOWNNAME":"永康區","LI":"五王里","LIN":"28鄰","STREET":"中山東路","SECT":" ","MAREA":" ","LANE":"６８巷","ALLEY":" ","HOUSE_NO":"４６號","E_COORD97":171609.19,"N_COORD97":2545977.21,"ADDRESS":"中山東路６８巷４６號","OBJECTID":387772},"geometry":{"x":171609.19000000041,"y":2545977.2100000028}},{"attributes":{"ID":387797,"DIS_CODE":0,"TOWNNAME":"永康區","LI":"五王里","LIN":"28鄰","STREET":"中山東路","SECT":" ","MAREA":" ","LANE":"６８巷","ALLEY":" ","HOUSE_NO":"５８號","E_COORD97":171591.09,"N_COORD97":2545968.96,"ADDRESS":"中山東路６８巷５８號","OBJECTID":387773},"geometry":{"x":171591.09000000171,"y":2545968.9600000028}},{"attributes":{"ID":387798,"DIS_CODE":0,"TOWNNAME":"永康區","LI":"五王里","LIN":"28鄰","STREET":"中山東路","SECT":" ","MAREA":" ","LANE":"６８巷","ALLEY":" ","HOUSE_NO":"３８號","E_COORD97":171619.5,"N_COORD97":2545982.21,"ADDRESS":"中山東路６８巷３８號","OBJECTID":387774},"geometry":{"x":171619.50000000093,"y":2545982.2100000009}},{"attributes":{"ID":387799,"DIS_CODE":0,"TOWNNAME":"永康區","LI":"五王里","LIN":"28鄰","STREET":"中山東路","SECT":" ","MAREA":" ","LANE":"６８巷","ALLEY":" ","HOUSE_NO":"１６號","E_COORD97":171652.39000000001,"N_COORD97":2545997.9700000002,"ADDRESS":"中山東路６８巷１６號","OBJECTID":387775},"geometry":{"x":171652.38999999966,"y":2545997.9700000007}},{"attributes":{"ID":387800,"DIS_CODE":0,"TOWNNAME":"中西區","LI":"天后里","LIN":"7鄰","STREET":"西門路","SECT":"二段","MAREA":" ","LANE":"３００巷","ALLEY":" ","HOUSE_NO":"２４號","E_COORD97":168031.47,"N_COORD97":2544114.04,"ADDRESS":"西門路二段３００巷２４號","OBJECTID":387776},"geometry":{"x":168031.46999999974,"y":2544114.0399999991}},{"attributes":{"ID":387801,"DIS_CODE":0,"TOWNNAME":"中西區","LI":"天后里","LIN":"7鄰","STREET":"西門路","SECT":"二段","MAREA":" ","LANE":"３００巷","ALLEY":" ","HOUSE_NO":"２５號","E_COORD97":168052.41,"N_COORD97":2544149.4900000002,"ADDRESS":"西門路二段３００巷２５號","OBJECTID":387777},"geometry":{"x":168052.41000000015,"y":2544149.4900000002}},{"attributes":{"ID":387802,"DIS_CODE":0,"TOWNNAME":"中西區","LI":"天后里","LIN":"7鄰","STREET":"西門路","SECT":"二段","MAREA":" ","LANE":"３００巷","ALLEY":" ","HOUSE_NO":"２６號","E_COORD97":168035.89999999999,"N_COORD97":2544112.5600000001,"ADDRESS":"西門路二段３００巷２６號","OBJECTID":387778},"geometry":{"x":168035.90000000037,"y":2544112.5600000042}},{"attributes":{"ID":387803,"DIS_CODE":0,"TOWNNAME":"永康區","LI":"五王里","LIN":"28鄰","STREET":"中山東路","SECT":" ","MAREA":" ","LANE":"６８巷","ALLEY":" ","HOUSE_NO":"２０號","E_COORD97":171645.64999999999,"N_COORD97":2545994.4700000002,"ADDRESS":"中山東路６８巷２０號","OBJECTID":387779},"geometry":{"x":171645.6500000013,"y":2545994.4700000007}},{"attributes":{"ID":387804,"DIS_CODE":0,"TOWNNAME":"永康區","LI":"五王里","LIN":"28鄰","STREET":"中山東路","SECT":" ","MAREA":" ","LANE":"６８巷","ALLEY":" ","HOUSE_NO":"４８號","E_COORD97":171605.70999999999,"N_COORD97":2545975.71,"ADDRESS":"中山東路６８巷４８號","OBJECTID":387780},"geometry":{"x":171605.71000000183,"y":2545975.7100000009}},{"attributes":{"ID":387805,"DIS_CODE":0,"TOWNNAME":"永康區","LI":"五王里","LIN":"28鄰","STREET":"中山東路","SECT":" ","MAREA":" ","LANE":"６８巷","ALLEY":" ","HOUSE_NO":"８號","E_COORD97":171662.19,"N_COORD97":2546003.2200000002,"ADDRESS":"中山東路６８巷８號","OBJECTID":387781},"geometry":{"x":171662.19000000227,"y":2546003.2199999988}},{"attributes":{"ID":387806,"DIS_CODE":0,"TOWNNAME":"永康區","LI":"二王里","LIN":"28鄰","STREET":"中山南路","SECT":" ","MAREA":" ","LANE":"５４４巷","ALLEY":" ","HOUSE_NO":"４６號","E_COORD97":172313.42000000001,"N_COORD97":2546480.6699999999,"ADDRESS":"中山南路５４４巷４６號","OBJECTID":387782},"geometry":{"x":172313.42000000086,"y":2546480.6699999999}},{"attributes":{"ID":387807,"DIS_CODE":0,"TOWNNAME":"永康區","LI":"大灣里","LIN":"28鄰","STREET":"大灣六街","SECT":" ","MAREA":" ","LANE":"９巷","ALLEY":" ","HOUSE_NO":"３０號","E_COORD97":175296.67999999999,"N_COORD97":2545129.0699999998,"ADDRESS":"大灣六街９巷３０號","OBJECTID":387783},"geometry":{"x":175296.68000000063,"y":2545129.0700000003}},{"attributes":{"ID":387808,"DIS_CODE":0,"TOWNNAME":"永康區","LI":"崑山里","LIN":"28鄰","STREET":"大灣路","SECT":" ","MAREA":" ","LANE":"９４２巷","ALLEY":" ","HOUSE_NO":"２４１號","E_COORD97":173766.95999999999,"N_COORD97":2544924.9900000002,"ADDRESS":"大灣路９４２巷２４１號","OBJECTID":387784},"geometry":{"x":173766.96000000183,"y":2544924.9900000002}},{"attributes":{"ID":387809,"DIS_CODE":0,"TOWNNAME":"永康區","LI":"崑山里","LIN":"28鄰","STREET":"大灣路","SECT":" ","MAREA":" ","LANE":"９４２巷","ALLEY":" ","HOUSE_NO":"２１９號","E_COORD97":173751.45000000001,"N_COORD97":2544879.9900000002,"ADDRESS":"大灣路９４２巷２１９號","OBJECTID":387785},"geometry":{"x":173751.45000000019,"y":2544879.9900000021}},{"attributes":{"ID":387810,"DIS_CODE":0,"TOWNNAME":"安南區","LI":"安富里","LIN":"28鄰","STREET":"府安路","SECT":"五段","MAREA":" ","LANE":"２３０巷","ALLEY":" ","HOUSE_NO":"１０號","E_COORD97":167481.13,"N_COORD97":2546929.9199999999,"ADDRESS":"府安路五段２３０巷１０號","OBJECTID":387786},"geometry":{"x":167481.12999999989,"y":2546929.9199999999}},{"attributes":{"ID":387811,"DIS_CODE":0,"TOWNNAME":"安南區","LI":"安富里","LIN":"28鄰","STREET":"府安路","SECT":"五段","MAREA":" ","LANE":"２３０巷","ALLEY":" ","HOUSE_NO":"１２號","E_COORD97":167480.48999999999,"N_COORD97":2546934.3900000001,"ADDRESS":"府安路五段２３０巷１２號","OBJECTID":387787},"geometry":{"x":167480.49000000022,"y":2546934.3899999987}},{"attributes":{"ID":387812,"DIS_CODE":0,"TOWNNAME":"安南區","LI":"安富里","LIN":"28鄰","STREET":"府安路","SECT":"五段","MAREA":" ","LANE":"２３０巷","ALLEY":" ","HOUSE_NO":"１６號","E_COORD97":167479.53,"N_COORD97":2546939.1699999999,"ADDRESS":"府安路五段２３０巷１６號","OBJECTID":387788},"geometry":{"x":167479.53000000119,"y":2546939.1700000018}},{"attributes":{"ID":387813,"DIS_CODE":0,"TOWNNAME":"安南區","LI":"安富里","LIN":"28鄰","STREET":"府安路","SECT":"五段","MAREA":" ","LANE":"２３０巷","ALLEY":" ","HOUSE_NO":"１８號","E_COORD97":167478.89000000001,"N_COORD97":2546944.6000000001,"ADDRESS":"府安路五段２３０巷１８號","OBJECTID":387789},"geometry":{"x":167478.88999999966,"y":2546944.5999999996}},{"attributes":{"ID":387814,"DIS_CODE":0,"TOWNNAME":"安南區","LI":"安富里","LIN":"28鄰","STREET":"府安路","SECT":"五段","MAREA":" ","LANE":"２３０巷","ALLEY":" ","HOUSE_NO":"２０號","E_COORD97":167477.60999999999,"N_COORD97":2546949.3900000001,"ADDRESS":"府安路五段２３０巷２０號","OBJECTID":387790},"geometry":{"x":167477.61000000127,"y":2546949.3900000025}},{"attributes":{"ID":387815,"DIS_CODE":0,"TOWNNAME":"安南區","LI":"安富里","LIN":"28鄰","STREET":"府安路","SECT":"五段","MAREA":" ","LANE":"２３０巷","ALLEY":" ","HOUSE_NO":"２２號","E_COORD97":167476.97,"N_COORD97":2546954.8199999998,"ADDRESS":"府安路五段２３０巷２２號","OBJECTID":387791},"geometry":{"x":167476.96999999974,"y":2546954.8199999984}},{"attributes":{"ID":387816,"DIS_CODE":0,"TOWNNAME":"安南區","LI":"安富里","LIN":"28鄰","STREET":"府安路","SECT":"五段","MAREA":" ","LANE":"２３０巷","ALLEY":" ","HOUSE_NO":"２６號","E_COORD97":167476.32999999999,"N_COORD97":2546959.9300000002,"ADDRESS":"府安路五段２３０巷２６號","OBJECTID":387792},"geometry":{"x":167476.33000000007,"y":2546959.9299999997}},{"attributes":{"ID":387817,"DIS_CODE":0,"TOWNNAME":"安南區","LI":"安富里","LIN":"28鄰","STREET":"府安路","SECT":"五段","MAREA":" ","LANE":"２３０巷","ALLEY":" ","HOUSE_NO":"２８號","E_COORD97":167475.04999999999,"N_COORD97":2546964.3999999999,"ADDRESS":"府安路五段２３０巷２８號","OBJECTID":387793},"geometry":{"x":167475.04999999981,"y":2546964.4000000004}},{"attributes":{"ID":387818,"DIS_CODE":0,"TOWNNAME":"安南區","LI":"安富里","LIN":"28鄰","STREET":"府安路","SECT":"五段","MAREA":" ","LANE":"２３０巷","ALLEY":" ","HOUSE_NO":"３０號","E_COORD97":167474.73000000001,"N_COORD97":2546968.23,"ADDRESS":"府安路五段２３０巷３０號","OBJECTID":387794},"geometry":{"x":167474.72999999952,"y":2546968.2300000004}},{"attributes":{"ID":387819,"DIS_CODE":0,"TOWNNAME":"安南區","LI":"安富里","LIN":"28鄰","STREET":"府安路","SECT":"五段","MAREA":" ","LANE":"２３０巷","ALLEY":" ","HOUSE_NO":"３２號","E_COORD97":167472.48999999999,"N_COORD97":2546973.96,"ADDRESS":"府安路五段２３０巷３２號","OBJECTID":387795},"geometry":{"x":167472.49000000022,"y":2546973.9600000009}},{"attributes":{"ID":387820,"DIS_CODE":0,"TOWNNAME":"安南區","LI":"安順里","LIN":"13鄰","STREET":"育安二街","SECT":" ","MAREA":" ","LANE":" ","ALLEY":" ","HOUSE_NO":"１３９號","E_COORD97":169653.35999999999,"N_COORD97":2550059.8799999999,"ADDRESS":"育安二街１３９號","OBJECTID":387796},"geometry":{"x":169653.36000000034,"y":2550059.8800000008}},{"attributes":{"ID":387821,"DIS_CODE":0,"TOWNNAME":"安南區","LI":"安富里","LIN":"28鄰","STREET":"府安路","SECT":"五段","MAREA":" ","LANE":"２３０巷","ALLEY":" ","HOUSE_NO":"３６號","E_COORD97":167471.22,"N_COORD97":2546978.1200000001,"ADDRESS":"府安路五段２３０巷３６號","OBJECTID":387797},"geometry":{"x":167471.22000000067,"y":2546978.1200000029}},{"attributes":{"ID":387822,"DIS_CODE":0,"TOWNNAME":"安南區","LI":"安富里","LIN":"28鄰","STREET":"府安路","SECT":"五段","MAREA":" ","LANE":"２３０巷","ALLEY":" ","HOUSE_NO":"３８號","E_COORD97":167469.94,"N_COORD97":2546984.1899999999,"ADDRESS":"府安路五段２３０巷３８號","OBJECTID":387798},"geometry":{"x":167469.94000000227,"y":2546984.1899999995}},{"attributes":{"ID":387823,"DIS_CODE":0,"TOWNNAME":"安南區","LI":"安富里","LIN":"28鄰","STREET":"府安路","SECT":"五段","MAREA":" ","LANE":"２３０巷","ALLEY":" ","HOUSE_NO":"４０號","E_COORD97":167467.06,"N_COORD97":2547001.0800000001,"ADDRESS":"府安路五段２３０巷４０號","OBJECTID":387799},"geometry":{"x":167467.06000000052,"y":2547001.0800000019}},{"attributes":{"ID":387824,"DIS_CODE":0,"TOWNNAME":"安南區","LI":"安富里","LIN":"28鄰","STREET":"府安路","SECT":"五段","MAREA":" ","LANE":"２３０巷","ALLEY":" ","HOUSE_NO":"４２號","E_COORD97":167465.78,"N_COORD97":2547004.9100000001,"ADDRESS":"府安路五段２３０巷４２號","OBJECTID":387800},"geometry":{"x":167465.78000000212,"y":2547004.9099999983}}]}