{"displayFieldName":"TOWNNAME","fieldAliases":{"ID":"ID","DIS_CODE":"DIS_CODE","TOWNNAME":"TOWNNAME","LI":"LI","LIN":"LIN","STREET":"STREET","SECT":"SECT","MAREA":"MAREA","LANE":"LANE","ALLEY":"ALLEY","HOUSE_NO":"HOUSE_NO","E_COORD97":"E_COORD97","N_COORD97":"N_COORD97","ADDRESS":"ADDRESS","OBJECTID":"OBJECTID"},"geometryType":"esriGeometryPoint","spatialReference":{"wkid":102443,"latestWkid":3826},"fields":[{"name":"ID","type":"esriFieldTypeDouble","alias":"ID"},{"name":"DIS_CODE","type":"esriFieldTypeInteger","alias":"DIS_CODE"},{"name":"TOWNNAME","type":"esriFieldTypeString","alias":"TOWNNAME","length":8},{"name":"LI","type":"esriFieldTypeString","alias":"LI","length":8},{"name":"LIN","type":"esriFieldTypeString","alias":"LIN","length":12},{"name":"STREET","type":"esriFieldTypeString","alias":"STREET","length":20},{"name":"SECT","type":"esriFieldTypeString","alias":"SECT","length":8},{"name":"MAREA","type":"esriFieldTypeString","alias":"MAREA","length":12},{"name":"LANE","type":"esriFieldTypeString","alias":"LANE","length":10},{"name":"ALLEY","type":"esriFieldTypeString","alias":"ALLEY","length":10},{"name":"HOUSE_NO","type":"esriFieldTypeString","alias":"HOUSE_NO","length":20},{"name":"E_COORD97","type":"esriFieldTypeDouble","alias":"E_COORD97"},{"name":"N_COORD97","type":"esriFieldTypeDouble","alias":"N_COORD97"},{"name":"ADDRESS","type":"esriFieldTypeString","alias":"ADDRESS","length":50},{"name":"OBJECTID","type":"esriFieldTypeOID","alias":"OBJECTID"}],"features":[{"attributes":{"ID":205602,"DIS_CODE":0,"TOWNNAME":"官田區","LI":"隆本里","LIN":"25鄰","STREET":"信義街","SECT":"二段","MAREA":" ","LANE":"６７巷","ALLEY":"１８弄","HOUSE_NO":"８號","E_COORD97":179693.04000000001,"N_COORD97":2566085.0899999999,"ADDRESS":"信義街二段６７巷１８弄８號","OBJECTID":205601},"geometry":{"x":179693.04000000097,"y":2566085.0900000017}},{"attributes":{"ID":205603,"DIS_CODE":0,"TOWNNAME":"官田區","LI":"隆本里","LIN":"25鄰","STREET":"信義街","SECT":"二段","MAREA":" ","LANE":"６７巷","ALLEY":"１８弄","HOUSE_NO":"９號","E_COORD97":179686.13,"N_COORD97":2566071.3199999998,"ADDRESS":"信義街二段６７巷１８弄９號","OBJECTID":205602},"geometry":{"x":179686.13000000082,"y":2566071.3200000022}},{"attributes":{"ID":205604,"DIS_CODE":0,"TOWNNAME":"永康區","LI":"大橋里","LIN":"25鄰","STREET":"大橋一街","SECT":" ","MAREA":" ","LANE":"２２３巷","ALLEY":"６弄","HOUSE_NO":"４號","E_COORD97":171199.66,"N_COORD97":2546708.7400000002,"ADDRESS":"大橋一街２２３巷６弄４號","OBJECTID":205603},"geometry":{"x":171199.66000000108,"y":2546708.7400000021}},{"attributes":{"ID":205605,"DIS_CODE":0,"TOWNNAME":"安南區","LI":"州北里","LIN":"25鄰","STREET":"安和路","SECT":"五段","MAREA":" ","LANE":"１７１巷","ALLEY":"１７弄","HOUSE_NO":"１２號","E_COORD97":169789.87,"N_COORD97":2551794.2000000002,"ADDRESS":"安和路五段１７１巷１７弄１２號","OBJECTID":205604},"geometry":{"x":169789.87000000104,"y":2551794.2000000011}},{"attributes":{"ID":205606,"DIS_CODE":0,"TOWNNAME":"安南區","LI":"州北里","LIN":"25鄰","STREET":"安和路","SECT":"五段","MAREA":" ","LANE":"１７１巷","ALLEY":"１７弄","HOUSE_NO":"１３號","E_COORD97":169812.48000000001,"N_COORD97":2551798.2200000002,"ADDRESS":"安和路五段１７１巷１７弄１３號","OBJECTID":205605},"geometry":{"x":169812.48000000231,"y":2551798.2200000025}},{"attributes":{"ID":205607,"DIS_CODE":0,"TOWNNAME":"安南區","LI":"州北里","LIN":"25鄰","STREET":"安和路","SECT":"五段","MAREA":" ","LANE":"１７１巷","ALLEY":"１７弄","HOUSE_NO":"１４號","E_COORD97":169792.79000000001,"N_COORD97":2551790.48,"ADDRESS":"安和路五段１７１巷１７弄１４號","OBJECTID":205606},"geometry":{"x":169792.79000000004,"y":2551790.4800000023}},{"attributes":{"ID":205608,"DIS_CODE":0,"TOWNNAME":"安南區","LI":"州北里","LIN":"25鄰","STREET":"安和路","SECT":"五段","MAREA":" ","LANE":"１７１巷","ALLEY":"１７弄","HOUSE_NO":"１５號","E_COORD97":169814.32999999999,"N_COORD97":2551794.5,"ADDRESS":"安和路五段１７１巷１７弄１５號","OBJECTID":205607},"geometry":{"x":169814.33000000007,"y":2551794.5}},{"attributes":{"ID":205609,"DIS_CODE":0,"TOWNNAME":"安南區","LI":"州北里","LIN":"25鄰","STREET":"安和路","SECT":"五段","MAREA":" ","LANE":"１７１巷","ALLEY":"１７弄","HOUSE_NO":"１７號","E_COORD97":169816.45999999999,"N_COORD97":2551790.2599999998,"ADDRESS":"安和路五段１７１巷１７弄１７號","OBJECTID":205608},"geometry":{"x":169816.45999999996,"y":2551790.2600000016}},{"attributes":{"ID":205610,"DIS_CODE":0,"TOWNNAME":"安南區","LI":"州北里","LIN":"25鄰","STREET":"安和路","SECT":"五段","MAREA":" ","LANE":"１７１巷","ALLEY":"１７弄","HOUSE_NO":"１８號","E_COORD97":169793.85999999999,"N_COORD97":2551781.2000000002,"ADDRESS":"安和路五段１７１巷１７弄１８號","OBJECTID":205609},"geometry":{"x":169793.86000000034,"y":2551781.1999999993}},{"attributes":{"ID":205611,"DIS_CODE":0,"TOWNNAME":"安南區","LI":"州北里","LIN":"25鄰","STREET":"安和路","SECT":"五段","MAREA":" ","LANE":"１７１巷","ALLEY":"１７弄","HOUSE_NO":"１９號","E_COORD97":169819.38,"N_COORD97":2551786.8100000001,"ADDRESS":"安和路五段１７１巷１７弄１９號","OBJECTID":205610},"geometry":{"x":169819.38000000175,"y":2551786.8100000042}},{"attributes":{"ID":205612,"DIS_CODE":0,"TOWNNAME":"安南區","LI":"佃西里","LIN":"9鄰","STREET":"公學路","SECT":"四段","MAREA":" ","LANE":" ","ALLEY":" ","HOUSE_NO":"３５０號二樓之１７","E_COORD97":165226.63,"N_COORD97":2551752.1200000001,"ADDRESS":"公學路四段３５０號二樓之１７","OBJECTID":205611},"geometry":{"x":165226.62999999989,"y":2551752.1200000029}},{"attributes":{"ID":205613,"DIS_CODE":0,"TOWNNAME":"安南區","LI":"州北里","LIN":"25鄰","STREET":"安和路","SECT":"五段","MAREA":" ","LANE":"１７１巷","ALLEY":"１７弄","HOUSE_NO":"２０號","E_COORD97":169796.78,"N_COORD97":2551777.75,"ADDRESS":"安和路五段１７１巷１７弄２０號","OBJECTID":205612},"geometry":{"x":169796.78000000212,"y":2551777.7500000019}},{"attributes":{"ID":205614,"DIS_CODE":0,"TOWNNAME":"安南區","LI":"州北里","LIN":"25鄰","STREET":"安和路","SECT":"五段","MAREA":" ","LANE":"１７１巷","ALLEY":"１７弄","HOUSE_NO":"２１號","E_COORD97":169822.04000000001,"N_COORD97":2551783.8900000001,"ADDRESS":"安和路五段１７１巷１７弄２１號","OBJECTID":205613},"geometry":{"x":169822.04000000097,"y":2551783.8900000025}},{"attributes":{"ID":205615,"DIS_CODE":0,"TOWNNAME":"安南區","LI":"州北里","LIN":"25鄰","STREET":"安和路","SECT":"五段","MAREA":" ","LANE":"１７１巷","ALLEY":"１７弄","HOUSE_NO":"２２號","E_COORD97":169798.37,"N_COORD97":2551774.2999999998,"ADDRESS":"安和路五段１７１巷１７弄２２號","OBJECTID":205614},"geometry":{"x":169798.37000000104,"y":2551774.3000000026}},{"attributes":{"ID":205616,"DIS_CODE":0,"TOWNNAME":"安南區","LI":"州北里","LIN":"25鄰","STREET":"安和路","SECT":"五段","MAREA":" ","LANE":"１７１巷","ALLEY":"１７弄","HOUSE_NO":"２３號","E_COORD97":169823.63,"N_COORD97":2551779.9199999999,"ADDRESS":"安和路五段１７１巷１７弄２３號","OBJECTID":205615},"geometry":{"x":169823.62999999989,"y":2551779.9200000018}},{"attributes":{"ID":205617,"DIS_CODE":0,"TOWNNAME":"安南區","LI":"州北里","LIN":"25鄰","STREET":"安和路","SECT":"五段","MAREA":" ","LANE":"１７１巷","ALLEY":"１７弄","HOUSE_NO":"２４號","E_COORD97":169798.89999999999,"N_COORD97":2551769.7999999998,"ADDRESS":"安和路五段１７１巷１７弄２４號","OBJECTID":205616},"geometry":{"x":169798.90000000037,"y":2551769.7999999989}},{"attributes":{"ID":205618,"DIS_CODE":0,"TOWNNAME":"安南區","LI":"州北里","LIN":"25鄰","STREET":"安和路","SECT":"五段","MAREA":" ","LANE":"１７１巷","ALLEY":"１７弄","HOUSE_NO":"２６號","E_COORD97":169800.23000000001,"N_COORD97":2551766.8799999999,"ADDRESS":"安和路五段１７１巷１７弄２６號","OBJECTID":205617},"geometry":{"x":169800.23000000045,"y":2551766.879999999}},{"attributes":{"ID":205619,"DIS_CODE":0,"TOWNNAME":"安南區","LI":"州北里","LIN":"25鄰","STREET":"安和路","SECT":"五段","MAREA":" ","LANE":"１７１巷","ALLEY":"１７弄","HOUSE_NO":"２８號","E_COORD97":169802.89000000001,"N_COORD97":2551759.7200000002,"ADDRESS":"安和路五段１７１巷１７弄２８號","OBJECTID":205618},"geometry":{"x":169802.8900000006,"y":2551759.7200000007}},{"attributes":{"ID":205620,"DIS_CODE":0,"TOWNNAME":"安南區","LI":"州北里","LIN":"25鄰","STREET":"安和路","SECT":"五段","MAREA":" ","LANE":"１７１巷","ALLEY":"１７弄","HOUSE_NO":"２９號","E_COORD97":169828.67999999999,"N_COORD97":2551769.3100000001,"ADDRESS":"安和路五段１７１巷１７弄２９號","OBJECTID":205619},"geometry":{"x":169828.6799999997,"y":2551769.3100000005}},{"attributes":{"ID":205621,"DIS_CODE":0,"TOWNNAME":"安南區","LI":"州北里","LIN":"25鄰","STREET":"安和路","SECT":"五段","MAREA":" ","LANE":"１７１巷","ALLEY":"１７弄","HOUSE_NO":"３０號","E_COORD97":169805.01000000001,"N_COORD97":2551756,"ADDRESS":"安和路五段１７１巷１７弄３０號","OBJECTID":205620},"geometry":{"x":169805.01000000071,"y":2551756.0000000019}},{"attributes":{"ID":205622,"DIS_CODE":0,"TOWNNAME":"安南區","LI":"州北里","LIN":"25鄰","STREET":"安和路","SECT":"五段","MAREA":" ","LANE":"１７１巷","ALLEY":"１７弄","HOUSE_NO":"３６號","E_COORD97":169808.45999999999,"N_COORD97":2551749.3700000001,"ADDRESS":"安和路五段１７１巷１７弄３６號","OBJECTID":205621},"geometry":{"x":169808.45999999996,"y":2551749.3699999992}},{"attributes":{"ID":205623,"DIS_CODE":0,"TOWNNAME":"柳營區","LI":"旭山里","LIN":"2鄰","STREET":" ","SECT":" ","MAREA":"新吉庄","LANE":" ","ALLEY":" ","HOUSE_NO":"１６號之５","E_COORD97":187004.69,"N_COORD97":2573766.0099999998,"ADDRESS":"新吉庄１６號之５","OBJECTID":205622},"geometry":{"x":187004.69000000041,"y":2573766.0100000016}},{"attributes":{"ID":205624,"DIS_CODE":0,"TOWNNAME":"安南區","LI":"州北里","LIN":"25鄰","STREET":"安和路","SECT":"五段","MAREA":" ","LANE":"１７１巷","ALLEY":"１７弄","HOUSE_NO":"３８號","E_COORD97":169811.92000000001,"N_COORD97":2551746.1899999999,"ADDRESS":"安和路五段１７１巷１７弄３８號","OBJECTID":205623},"geometry":{"x":169811.91999999993,"y":2551746.1900000013}},{"attributes":{"ID":205625,"DIS_CODE":0,"TOWNNAME":"安南區","LI":"州北里","LIN":"25鄰","STREET":"安和路","SECT":"五段","MAREA":" ","LANE":"１７１巷","ALLEY":"１７弄","HOUSE_NO":"４１號","E_COORD97":169836.91,"N_COORD97":2551745.96,"ADDRESS":"安和路五段１７１巷１７弄４１號","OBJECTID":205624},"geometry":{"x":169836.91000000108,"y":2551745.9600000028}},{"attributes":{"ID":205626,"DIS_CODE":0,"TOWNNAME":"安南區","LI":"州北里","LIN":"25鄰","STREET":"安和路","SECT":"五段","MAREA":" ","LANE":"１７１巷","ALLEY":"４７弄","HOUSE_NO":"１６號","E_COORD97":169719.45000000001,"N_COORD97":2551765.8799999999,"ADDRESS":"安和路五段１７１巷４７弄１６號","OBJECTID":205625},"geometry":{"x":169719.45000000112,"y":2551765.8800000008}},{"attributes":{"ID":205627,"DIS_CODE":0,"TOWNNAME":"永康區","LI":"大橋里","LIN":"25鄰","STREET":"大橋一街","SECT":" ","MAREA":" ","LANE":"２２３巷","ALLEY":"４弄","HOUSE_NO":"１２號","E_COORD97":171242.72,"N_COORD97":2546695.9900000002,"ADDRESS":"大橋一街２２３巷４弄１２號","OBJECTID":205626},"geometry":{"x":171242.72000000067,"y":2546695.9899999984}},{"attributes":{"ID":205628,"DIS_CODE":0,"TOWNNAME":"永康區","LI":"二王里","LIN":"25鄰","STREET":"中山南路","SECT":" ","MAREA":" ","LANE":"５４４巷","ALLEY":"７９弄","HOUSE_NO":"１１號","E_COORD97":172377.28,"N_COORD97":2546289.1499999999,"ADDRESS":"中山南路５４４巷７９弄１１號","OBJECTID":205627},"geometry":{"x":172377.28000000119,"y":2546289.1500000022}},{"attributes":{"ID":205629,"DIS_CODE":0,"TOWNNAME":"永康區","LI":"勝利里","LIN":"25鄰","STREET":"中華路","SECT":" ","MAREA":" ","LANE":"１５５巷","ALLEY":"３４弄","HOUSE_NO":"１０號","E_COORD97":171449.17000000001,"N_COORD97":2544830.2400000002,"ADDRESS":"中華路１５５巷３４弄１０號","OBJECTID":205628},"geometry":{"x":171449.16999999993,"y":2544830.2400000021}},{"attributes":{"ID":205630,"DIS_CODE":0,"TOWNNAME":"安南區","LI":"安富里","LIN":"25鄰","STREET":"郡安路","SECT":"五段","MAREA":" ","LANE":"１６４巷","ALLEY":"３弄","HOUSE_NO":"１０號","E_COORD97":167677.56,"N_COORD97":2547680.6699999999,"ADDRESS":"郡安路五段１６４巷３弄１０號","OBJECTID":205629},"geometry":{"x":167677.56000000052,"y":2547680.6699999999}},{"attributes":{"ID":205631,"DIS_CODE":0,"TOWNNAME":"安南區","LI":"安富里","LIN":"25鄰","STREET":"郡安路","SECT":"五段","MAREA":" ","LANE":"１６４巷","ALLEY":"３弄","HOUSE_NO":"１１號","E_COORD97":167696.60000000001,"N_COORD97":2547706.3199999998,"ADDRESS":"郡安路五段１６４巷３弄１１號","OBJECTID":205630},"geometry":{"x":167696.59999999963,"y":2547706.3200000003}},{"attributes":{"ID":205632,"DIS_CODE":0,"TOWNNAME":"仁德區","LI":"仁和里","LIN":"17鄰","STREET":" ","SECT":" ","MAREA":"仁和","LANE":" ","ALLEY":" ","HOUSE_NO":"３４０號","E_COORD97":170458.40517099999,"N_COORD97":2539941.2467399999,"ADDRESS":"仁和３４０號","OBJECTID":205631},"geometry":{"x":170458.40517100226,"y":2539941.246735001}},{"attributes":{"ID":205633,"DIS_CODE":0,"TOWNNAME":"麻豆區","LI":"安西里","LIN":"2鄰","STREET":" ","SECT":" ","MAREA":"安業","LANE":" ","ALLEY":" ","HOUSE_NO":"２００號","E_COORD97":172553.48999999999,"N_COORD97":2562004.3199999998,"ADDRESS":"安業２００號","OBJECTID":205632},"geometry":{"x":172553.49000000115,"y":2562004.3200000003}},{"attributes":{"ID":205634,"DIS_CODE":0,"TOWNNAME":"麻豆區","LI":"安西里","LIN":"2鄰","STREET":" ","SECT":" ","MAREA":"安業","LANE":" ","ALLEY":" ","HOUSE_NO":"２０２號","E_COORD97":172501.22,"N_COORD97":2562009.3300000001,"ADDRESS":"安業２０２號","OBJECTID":205633},"geometry":{"x":172501.21999999974,"y":2562009.3300000019}},{"attributes":{"ID":205635,"DIS_CODE":0,"TOWNNAME":"麻豆區","LI":"安西里","LIN":"2鄰","STREET":" ","SECT":" ","MAREA":"安業","LANE":" ","ALLEY":" ","HOUSE_NO":"２０３號","E_COORD97":172522.04000000001,"N_COORD97":2562021.9199999999,"ADDRESS":"安業２０３號","OBJECTID":205634},"geometry":{"x":172522.04000000004,"y":2562021.9200000018}},{"attributes":{"ID":205636,"DIS_CODE":0,"TOWNNAME":"麻豆區","LI":"安西里","LIN":"2鄰","STREET":" ","SECT":" ","MAREA":"安業","LANE":" ","ALLEY":" ","HOUSE_NO":"２０４號","E_COORD97":172533.91,"N_COORD97":2562039.23,"ADDRESS":"安業２０４號","OBJECTID":205635},"geometry":{"x":172533.91000000108,"y":2562039.2300000004}},{"attributes":{"ID":205637,"DIS_CODE":0,"TOWNNAME":"麻豆區","LI":"安東里","LIN":"2鄰","STREET":" ","SECT":" ","MAREA":"安業","LANE":" ","ALLEY":" ","HOUSE_NO":"２０號","E_COORD97":173207.39000000001,"N_COORD97":2562827.0899999999,"ADDRESS":"安業２０號","OBJECTID":205636},"geometry":{"x":173207.38999999966,"y":2562827.0900000017}},{"attributes":{"ID":205638,"DIS_CODE":0,"TOWNNAME":"麻豆區","LI":"安東里","LIN":"2鄰","STREET":" ","SECT":" ","MAREA":"安業","LANE":" ","ALLEY":" ","HOUSE_NO":"２２號","E_COORD97":173123.07000000001,"N_COORD97":2562870.5600000001,"ADDRESS":"安業２２號","OBJECTID":205637},"geometry":{"x":173123.07000000123,"y":2562870.5600000005}},{"attributes":{"ID":205639,"DIS_CODE":0,"TOWNNAME":"麻豆區","LI":"安東里","LIN":"2鄰","STREET":" ","SECT":" ","MAREA":"安業","LANE":" ","ALLEY":" ","HOUSE_NO":"２４號","E_COORD97":173120.31,"N_COORD97":2562895.1699999999,"ADDRESS":"安業２４號","OBJECTID":205638},"geometry":{"x":173120.31000000052,"y":2562895.1700000018}},{"attributes":{"ID":205640,"DIS_CODE":0,"TOWNNAME":"麻豆區","LI":"安東里","LIN":"2鄰","STREET":" ","SECT":" ","MAREA":"安業","LANE":" ","ALLEY":" ","HOUSE_NO":"２５號","E_COORD97":173140.76999999999,"N_COORD97":2562917.79,"ADDRESS":"安業２５號","OBJECTID":205639},"geometry":{"x":173140.77000000048,"y":2562917.7899999991}},{"attributes":{"ID":205641,"DIS_CODE":0,"TOWNNAME":"麻豆區","LI":"安東里","LIN":"2鄰","STREET":" ","SECT":" ","MAREA":"安業","LANE":" ","ALLEY":" ","HOUSE_NO":"３３號","E_COORD97":172996.79000000001,"N_COORD97":2562934.7799999998,"ADDRESS":"安業３３號","OBJECTID":205640},"geometry":{"x":172996.78999999911,"y":2562934.7800000012}},{"attributes":{"ID":205642,"DIS_CODE":0,"TOWNNAME":"麻豆區","LI":"安東里","LIN":"2鄰","STREET":" ","SECT":" ","MAREA":"安業","LANE":" ","ALLEY":" ","HOUSE_NO":"３９號","E_COORD97":172967.94,"N_COORD97":2562946.98,"ADDRESS":"安業３９號","OBJECTID":205641},"geometry":{"x":172967.94000000134,"y":2562946.9800000023}},{"attributes":{"ID":205643,"DIS_CODE":0,"TOWNNAME":"麻豆區","LI":"安東里","LIN":"2鄰","STREET":" ","SECT":" ","MAREA":"安業","LANE":" ","ALLEY":" ","HOUSE_NO":"４０號","E_COORD97":172939.07000000001,"N_COORD97":2562938.77,"ADDRESS":"安業４０號","OBJECTID":205642},"geometry":{"x":172939.0700000003,"y":2562938.7699999996}},{"attributes":{"ID":205644,"DIS_CODE":0,"TOWNNAME":"麻豆區","LI":"安東里","LIN":"2鄰","STREET":" ","SECT":" ","MAREA":"安業","LANE":" ","ALLEY":" ","HOUSE_NO":"４１號","E_COORD97":172942.67000000001,"N_COORD97":2562923.77,"ADDRESS":"安業４１號","OBJECTID":205643},"geometry":{"x":172942.66999999993,"y":2562923.7700000014}},{"attributes":{"ID":205645,"DIS_CODE":0,"TOWNNAME":"麻豆區","LI":"安東里","LIN":"2鄰","STREET":" ","SECT":" ","MAREA":"安業","LANE":" ","ALLEY":" ","HOUSE_NO":"４２號","E_COORD97":172945.95999999999,"N_COORD97":2562909.1200000001,"ADDRESS":"安業４２號","OBJECTID":205644},"geometry":{"x":172945.95999999996,"y":2562909.1200000048}},{"attributes":{"ID":205646,"DIS_CODE":0,"TOWNNAME":"麻豆區","LI":"安業里","LIN":"2鄰","STREET":" ","SECT":" ","MAREA":"安業","LANE":" ","ALLEY":" ","HOUSE_NO":"８２號之１０","E_COORD97":172682.67000000001,"N_COORD97":2561714.79,"ADDRESS":"安業８２號之１０","OBJECTID":205645},"geometry":{"x":172682.67000000086,"y":2561714.7899999991}},{"attributes":{"ID":205647,"DIS_CODE":0,"TOWNNAME":"麻豆區","LI":"安業里","LIN":"2鄰","STREET":" ","SECT":" ","MAREA":"安業","LANE":" ","ALLEY":" ","HOUSE_NO":"８２號之１２","E_COORD97":172686.22,"N_COORD97":2561646.3999999999,"ADDRESS":"安業８２號之１２","OBJECTID":205646},"geometry":{"x":172686.21999999974,"y":2561646.4000000022}},{"attributes":{"ID":205648,"DIS_CODE":0,"TOWNNAME":"麻豆區","LI":"安業里","LIN":"2鄰","STREET":" ","SECT":" ","MAREA":"安業","LANE":" ","ALLEY":" ","HOUSE_NO":"８２號之１３","E_COORD97":172692.31,"N_COORD97":2561660.5699999998,"ADDRESS":"安業８２號之１３","OBJECTID":205647},"geometry":{"x":172692.30999999959,"y":2561660.5699999984}},{"attributes":{"ID":205649,"DIS_CODE":0,"TOWNNAME":"麻豆區","LI":"安業里","LIN":"2鄰","STREET":" ","SECT":" ","MAREA":"安業","LANE":" ","ALLEY":" ","HOUSE_NO":"８２號之１４","E_COORD97":172679.69,"N_COORD97":2561680.6499999999,"ADDRESS":"安業８２號之１４","OBJECTID":205648},"geometry":{"x":172679.69000000134,"y":2561680.6500000041}},{"attributes":{"ID":205650,"DIS_CODE":0,"TOWNNAME":"麻豆區","LI":"安業里","LIN":"2鄰","STREET":" ","SECT":" ","MAREA":"安業","LANE":" ","ALLEY":" ","HOUSE_NO":"８２號之１","E_COORD97":172662.38,"N_COORD97":2561851.2799999998,"ADDRESS":"安業８２號之１","OBJECTID":205649},"geometry":{"x":172662.38000000082,"y":2561851.2799999993}},{"attributes":{"ID":205651,"DIS_CODE":0,"TOWNNAME":"麻豆區","LI":"安業里","LIN":"2鄰","STREET":" ","SECT":" ","MAREA":"安業","LANE":" ","ALLEY":" ","HOUSE_NO":"８２號之２","E_COORD97":172677.10999999999,"N_COORD97":2561822.1099999999,"ADDRESS":"安業８２號之２","OBJECTID":205650},"geometry":{"x":172677.11000000127,"y":2561822.1099999975}},{"attributes":{"ID":205652,"DIS_CODE":0,"TOWNNAME":"柳營區","LI":"士林里","LIN":"2鄰","STREET":" ","SECT":" ","MAREA":"柳營","LANE":" ","ALLEY":" ","HOUSE_NO":"１５之１７號","E_COORD97":179275.07999999999,"N_COORD97":2575302.8999999999,"ADDRESS":"柳營１５之１７號","OBJECTID":205651},"geometry":{"x":179275.08000000007,"y":2575302.9000000022}},{"attributes":{"ID":205653,"DIS_CODE":0,"TOWNNAME":"柳營區","LI":"士林里","LIN":"2鄰","STREET":" ","SECT":" ","MAREA":"柳營","LANE":" ","ALLEY":" ","HOUSE_NO":"１５之１８號","E_COORD97":179279.19,"N_COORD97":2575303.6099999999,"ADDRESS":"柳營１５之１８號","OBJECTID":205652},"geometry":{"x":179279.19000000134,"y":2575303.6100000013}},{"attributes":{"ID":205654,"DIS_CODE":0,"TOWNNAME":"柳營區","LI":"士林里","LIN":"2鄰","STREET":" ","SECT":" ","MAREA":"柳營","LANE":" ","ALLEY":" ","HOUSE_NO":"１５之１９號","E_COORD97":179283.29999999999,"N_COORD97":2575304.3300000001,"ADDRESS":"柳營１５之１９號","OBJECTID":205653},"geometry":{"x":179283.29999999981,"y":2575304.3300000001}},{"attributes":{"ID":205655,"DIS_CODE":0,"TOWNNAME":"柳營區","LI":"士林里","LIN":"2鄰","STREET":" ","SECT":" ","MAREA":"柳營","LANE":" ","ALLEY":" ","HOUSE_NO":"１５之２０號","E_COORD97":179287.41,"N_COORD97":2575305.0499999998,"ADDRESS":"柳營１５之２０號","OBJECTID":205654},"geometry":{"x":179287.41000000108,"y":2575305.0500000026}},{"attributes":{"ID":205656,"DIS_CODE":0,"TOWNNAME":"柳營區","LI":"士林里","LIN":"2鄰","STREET":" ","SECT":" ","MAREA":"柳營","LANE":" ","ALLEY":" ","HOUSE_NO":"１５號之２０","E_COORD97":179287.41,"N_COORD97":2575305.0499999998,"ADDRESS":"柳營１５號之２０","OBJECTID":205655},"geometry":{"x":179287.41000000108,"y":2575305.0500000026}},{"attributes":{"ID":205657,"DIS_CODE":0,"TOWNNAME":"柳營區","LI":"士林里","LIN":"2鄰","STREET":" ","SECT":" ","MAREA":"柳營","LANE":" ","ALLEY":" ","HOUSE_NO":"１５之２１號","E_COORD97":179291.51000000001,"N_COORD97":2575305.77,"ADDRESS":"柳營１５之２１號","OBJECTID":205656},"geometry":{"x":179291.51000000071,"y":2575305.7700000014}},{"attributes":{"ID":205658,"DIS_CODE":0,"TOWNNAME":"仁德區","LI":"上崙里","LIN":"1鄰","STREET":"德崙路","SECT":" ","MAREA":" ","LANE":"７７巷","ALLEY":" ","HOUSE_NO":"８２號一樓之２","E_COORD97":173603.19909000001,"N_COORD97":2538484.4586299998,"ADDRESS":"德崙路７７巷８２號一樓之２","OBJECTID":205657},"geometry":{"x":173603.19909000024,"y":2538484.4586299993}},{"attributes":{"ID":205659,"DIS_CODE":0,"TOWNNAME":"柳營區","LI":"士林里","LIN":"2鄰","STREET":" ","SECT":" ","MAREA":"柳營","LANE":" ","ALLEY":" ","HOUSE_NO":"１５之２２號","E_COORD97":179295.62,"N_COORD97":2575306.48,"ADDRESS":"柳營１５之２２號","OBJECTID":205658},"geometry":{"x":179295.61999999918,"y":2575306.4800000004}},{"attributes":{"ID":205660,"DIS_CODE":0,"TOWNNAME":"柳營區","LI":"士林里","LIN":"2鄰","STREET":" ","SECT":" ","MAREA":"柳營","LANE":" ","ALLEY":" ","HOUSE_NO":"１５之２３號","E_COORD97":179299.73000000001,"N_COORD97":2575307.2000000002,"ADDRESS":"柳營１５之２３號","OBJECTID":205659},"geometry":{"x":179299.73000000045,"y":2575307.1999999993}},{"attributes":{"ID":205661,"DIS_CODE":0,"TOWNNAME":"柳營區","LI":"士林里","LIN":"2鄰","STREET":" ","SECT":" ","MAREA":"柳營","LANE":" ","ALLEY":" ","HOUSE_NO":"１５號之８","E_COORD97":179267.95999999999,"N_COORD97":2575274.6200000001,"ADDRESS":"柳營１５號之８","OBJECTID":205660},"geometry":{"x":179267.96000000183,"y":2575274.6200000029}},{"attributes":{"ID":205662,"DIS_CODE":0,"TOWNNAME":"柳營區","LI":"士林里","LIN":"2鄰","STREET":" ","SECT":" ","MAREA":"柳營","LANE":" ","ALLEY":" ","HOUSE_NO":"１５之９號","E_COORD97":179267.09,"N_COORD97":2575278.77,"ADDRESS":"柳營１５之９號","OBJECTID":205661},"geometry":{"x":179267.09000000078,"y":2575278.7700000014}},{"attributes":{"ID":205663,"DIS_CODE":0,"TOWNNAME":"柳營區","LI":"中埕里","LIN":"2鄰","STREET":" ","SECT":" ","MAREA":"柳營","LANE":" ","ALLEY":" ","HOUSE_NO":"２８７之１號","E_COORD97":179886.66,"N_COORD97":2575246.9900000002,"ADDRESS":"柳營２８７之１號","OBJECTID":205662},"geometry":{"x":179886.66000000015,"y":2575246.9900000021}},{"attributes":{"ID":205664,"DIS_CODE":0,"TOWNNAME":"柳營區","LI":"中埕里","LIN":"2鄰","STREET":" ","SECT":" ","MAREA":"柳營","LANE":" ","ALLEY":" ","HOUSE_NO":"２８７號","E_COORD97":179870.32999999999,"N_COORD97":2575262.4199999999,"ADDRESS":"柳營２８７號","OBJECTID":205663},"geometry":{"x":179870.33000000007,"y":2575262.4199999999}},{"attributes":{"ID":205665,"DIS_CODE":0,"TOWNNAME":"柳營區","LI":"中埕里","LIN":"2鄰","STREET":" ","SECT":" ","MAREA":"柳營","LANE":" ","ALLEY":" ","HOUSE_NO":"２８９號","E_COORD97":179832.95999999999,"N_COORD97":2575285.9900000002,"ADDRESS":"柳營２８９號","OBJECTID":205664},"geometry":{"x":179832.96000000089,"y":2575285.9900000002}},{"attributes":{"ID":205666,"DIS_CODE":0,"TOWNNAME":"柳營區","LI":"中埕里","LIN":"2鄰","STREET":" ","SECT":" ","MAREA":"柳營","LANE":" ","ALLEY":" ","HOUSE_NO":"２９１號之１","E_COORD97":179878.20999999999,"N_COORD97":2575286.4700000002,"ADDRESS":"柳營２９１號之１","OBJECTID":205665},"geometry":{"x":179878.21000000183,"y":2575286.4700000007}},{"attributes":{"ID":205667,"DIS_CODE":0,"TOWNNAME":"柳營區","LI":"中埕里","LIN":"2鄰","STREET":" ","SECT":" ","MAREA":"柳營","LANE":" ","ALLEY":" ","HOUSE_NO":"２９１之２號","E_COORD97":179876.98999999999,"N_COORD97":2575291.1299999999,"ADDRESS":"柳營２９１之２號","OBJECTID":205666},"geometry":{"x":179876.99000000115,"y":2575291.129999999}},{"attributes":{"ID":205668,"DIS_CODE":0,"TOWNNAME":"柳營區","LI":"中埕里","LIN":"2鄰","STREET":" ","SECT":" ","MAREA":"柳營","LANE":" ","ALLEY":" ","HOUSE_NO":"２９１號之３","E_COORD97":179883.89000000001,"N_COORD97":2575273.4300000002,"ADDRESS":"柳營２９１號之３","OBJECTID":205667},"geometry":{"x":179883.8900000006,"y":2575273.4300000034}},{"attributes":{"ID":205669,"DIS_CODE":0,"TOWNNAME":"柳營區","LI":"中埕里","LIN":"2鄰","STREET":" ","SECT":" ","MAREA":"柳營","LANE":" ","ALLEY":" ","HOUSE_NO":"２９１號","E_COORD97":179879.64000000001,"N_COORD97":2575280.8599999999,"ADDRESS":"柳營２９１號","OBJECTID":205668},"geometry":{"x":179879.63999999966,"y":2575280.8600000013}},{"attributes":{"ID":205670,"DIS_CODE":0,"TOWNNAME":"柳營區","LI":"東昇里","LIN":"2鄰","STREET":" ","SECT":" ","MAREA":"柳營","LANE":" ","ALLEY":" ","HOUSE_NO":"３８２之１９號","E_COORD97":179860.14999999999,"N_COORD97":2575459.1899999999,"ADDRESS":"柳營３８２之１９號","OBJECTID":205669},"geometry":{"x":179860.15000000037,"y":2575459.1900000013}},{"attributes":{"ID":205671,"DIS_CODE":0,"TOWNNAME":"柳營區","LI":"東昇里","LIN":"2鄰","STREET":" ","SECT":" ","MAREA":"柳營","LANE":" ","ALLEY":" ","HOUSE_NO":"３８２號之２０","E_COORD97":179856.20000000001,"N_COORD97":2575457.3199999998,"ADDRESS":"柳營３８２號之２０","OBJECTID":205670},"geometry":{"x":179856.20000000019,"y":2575457.3200000003}},{"attributes":{"ID":205672,"DIS_CODE":0,"TOWNNAME":"柳營區","LI":"東昇里","LIN":"2鄰","STREET":" ","SECT":" ","MAREA":"柳營","LANE":" ","ALLEY":" ","HOUSE_NO":"３８２之２１號","E_COORD97":179841.66,"N_COORD97":2575450.2200000002,"ADDRESS":"柳營３８２之２１號","OBJECTID":205671},"geometry":{"x":179841.66000000108,"y":2575450.2200000025}},{"attributes":{"ID":205673,"DIS_CODE":0,"TOWNNAME":"柳營區","LI":"旭山里","LIN":"2鄰","STREET":" ","SECT":" ","MAREA":"新吉庄","LANE":" ","ALLEY":" ","HOUSE_NO":"１０號之１","E_COORD97":187027.91,"N_COORD97":2573906.1400000001,"ADDRESS":"新吉庄１０號之１","OBJECTID":205672},"geometry":{"x":187027.91000000108,"y":2573906.1400000006}},{"attributes":{"ID":205674,"DIS_CODE":0,"TOWNNAME":"柳營區","LI":"旭山里","LIN":"2鄰","STREET":" ","SECT":" ","MAREA":"新吉庄","LANE":" ","ALLEY":" ","HOUSE_NO":"１０號之２","E_COORD97":187031.82999999999,"N_COORD97":2573928.9700000002,"ADDRESS":"新吉庄１０號之２","OBJECTID":205673},"geometry":{"x":187031.83000000101,"y":2573928.9700000025}},{"attributes":{"ID":205675,"DIS_CODE":0,"TOWNNAME":"柳營區","LI":"旭山里","LIN":"2鄰","STREET":" ","SECT":" ","MAREA":"新吉庄","LANE":" ","ALLEY":" ","HOUSE_NO":"１０號之３","E_COORD97":187084.69,"N_COORD97":2573954.6200000001,"ADDRESS":"新吉庄１０號之３","OBJECTID":205674},"geometry":{"x":187084.69000000041,"y":2573954.6199999992}},{"attributes":{"ID":205676,"DIS_CODE":0,"TOWNNAME":"柳營區","LI":"旭山里","LIN":"2鄰","STREET":" ","SECT":" ","MAREA":"新吉庄","LANE":" ","ALLEY":" ","HOUSE_NO":"１０號","E_COORD97":187064.35000000001,"N_COORD97":2573910.4399999999,"ADDRESS":"新吉庄１０號","OBJECTID":205675},"geometry":{"x":187064.3499999987,"y":2573910.4400000032}},{"attributes":{"ID":205677,"DIS_CODE":0,"TOWNNAME":"柳營區","LI":"旭山里","LIN":"2鄰","STREET":" ","SECT":" ","MAREA":"新吉庄","LANE":" ","ALLEY":" ","HOUSE_NO":"１１號之１","E_COORD97":187057.51000000001,"N_COORD97":2573912.04,"ADDRESS":"新吉庄１１號之１","OBJECTID":205676},"geometry":{"x":187057.51000000071,"y":2573912.0399999991}},{"attributes":{"ID":205678,"DIS_CODE":0,"TOWNNAME":"柳營區","LI":"旭山里","LIN":"2鄰","STREET":" ","SECT":" ","MAREA":"新吉庄","LANE":" ","ALLEY":" ","HOUSE_NO":"１１號","E_COORD97":187050.85999999999,"N_COORD97":2573893.6200000001,"ADDRESS":"新吉庄１１號","OBJECTID":205677},"geometry":{"x":187050.86000000034,"y":2573893.6199999992}},{"attributes":{"ID":205679,"DIS_CODE":0,"TOWNNAME":"仁德區","LI":"中生里","LIN":"9鄰","STREET":" ","SECT":" ","MAREA":"中洲","LANE":" ","ALLEY":" ","HOUSE_NO":"１６０號","E_COORD97":173165.91,"N_COORD97":2534173.9900000002,"ADDRESS":"中洲１６０號","OBJECTID":205678},"geometry":{"x":173165.91000000108,"y":2534173.9900000002}},{"attributes":{"ID":205680,"DIS_CODE":0,"TOWNNAME":"柳營區","LI":"旭山里","LIN":"2鄰","STREET":" ","SECT":" ","MAREA":"新吉庄","LANE":" ","ALLEY":" ","HOUSE_NO":"１３號","E_COORD97":187069.23000000001,"N_COORD97":2573865.5299999998,"ADDRESS":"新吉庄１３號","OBJECTID":205679},"geometry":{"x":187069.23000000045,"y":2573865.5300000031}},{"attributes":{"ID":205681,"DIS_CODE":0,"TOWNNAME":"柳營區","LI":"旭山里","LIN":"2鄰","STREET":" ","SECT":" ","MAREA":"新吉庄","LANE":" ","ALLEY":" ","HOUSE_NO":"１４號","E_COORD97":187052.14000000001,"N_COORD97":2573862.3900000001,"ADDRESS":"新吉庄１４號","OBJECTID":205680},"geometry":{"x":187052.13999999966,"y":2573862.3900000025}},{"attributes":{"ID":205682,"DIS_CODE":0,"TOWNNAME":"柳營區","LI":"旭山里","LIN":"2鄰","STREET":" ","SECT":" ","MAREA":"新吉庄","LANE":" ","ALLEY":" ","HOUSE_NO":"１５號","E_COORD97":187079.16,"N_COORD97":2573852.1099999999,"ADDRESS":"新吉庄１５號","OBJECTID":205681},"geometry":{"x":187079.16000000015,"y":2573852.1100000013}},{"attributes":{"ID":205683,"DIS_CODE":0,"TOWNNAME":"柳營區","LI":"旭山里","LIN":"2鄰","STREET":" ","SECT":" ","MAREA":"新吉庄","LANE":" ","ALLEY":" ","HOUSE_NO":"１６號之１０","E_COORD97":186998.95999999999,"N_COORD97":2573713.75,"ADDRESS":"新吉庄１６號之１０","OBJECTID":205682},"geometry":{"x":186998.95999999996,"y":2573713.7500000019}},{"attributes":{"ID":205684,"DIS_CODE":0,"TOWNNAME":"柳營區","LI":"旭山里","LIN":"2鄰","STREET":" ","SECT":" ","MAREA":"新吉庄","LANE":" ","ALLEY":" ","HOUSE_NO":"１６號之１１","E_COORD97":186994.60999999999,"N_COORD97":2573715,"ADDRESS":"新吉庄１６號之１１","OBJECTID":205683},"geometry":{"x":186994.61000000127,"y":2573715.0000000019}},{"attributes":{"ID":205685,"DIS_CODE":0,"TOWNNAME":"柳營區","LI":"旭山里","LIN":"2鄰","STREET":" ","SECT":" ","MAREA":"新吉庄","LANE":" ","ALLEY":" ","HOUSE_NO":"１６號之１２","E_COORD97":186975.10000000001,"N_COORD97":2573674.3799999999,"ADDRESS":"新吉庄１６號之１２","OBJECTID":205684},"geometry":{"x":186975.10000000056,"y":2573674.3800000008}},{"attributes":{"ID":205686,"DIS_CODE":0,"TOWNNAME":"柳營區","LI":"旭山里","LIN":"2鄰","STREET":" ","SECT":" ","MAREA":"新吉庄","LANE":" ","ALLEY":" ","HOUSE_NO":"１６號之１３","E_COORD97":186949.57000000001,"N_COORD97":2573673.8700000001,"ADDRESS":"新吉庄１６號之１３","OBJECTID":205685},"geometry":{"x":186949.5700000003,"y":2573673.870000001}},{"attributes":{"ID":205687,"DIS_CODE":0,"TOWNNAME":"柳營區","LI":"旭山里","LIN":"2鄰","STREET":" ","SECT":" ","MAREA":"新吉庄","LANE":" ","ALLEY":" ","HOUSE_NO":"１６號之１４","E_COORD97":186948.82000000001,"N_COORD97":2573755.5299999998,"ADDRESS":"新吉庄１６號之１４","OBJECTID":205686},"geometry":{"x":186948.82000000123,"y":2573755.5299999993}},{"attributes":{"ID":205688,"DIS_CODE":0,"TOWNNAME":"柳營區","LI":"旭山里","LIN":"2鄰","STREET":" ","SECT":" ","MAREA":"新吉庄","LANE":" ","ALLEY":" ","HOUSE_NO":"１６號之１６","E_COORD97":186966.69,"N_COORD97":2573738.27,"ADDRESS":"新吉庄１６號之１６","OBJECTID":205687},"geometry":{"x":186966.69000000134,"y":2573738.2699999996}},{"attributes":{"ID":205689,"DIS_CODE":0,"TOWNNAME":"柳營區","LI":"旭山里","LIN":"2鄰","STREET":" ","SECT":" ","MAREA":"新吉庄","LANE":" ","ALLEY":" ","HOUSE_NO":"１６號之１","E_COORD97":187086.54000000001,"N_COORD97":2573813.3599999999,"ADDRESS":"新吉庄１６號之１","OBJECTID":205688},"geometry":{"x":187086.54000000004,"y":2573813.3600000013}},{"attributes":{"ID":205690,"DIS_CODE":0,"TOWNNAME":"柳營區","LI":"旭山里","LIN":"2鄰","STREET":" ","SECT":" ","MAREA":"新吉庄","LANE":" ","ALLEY":" ","HOUSE_NO":"１６號之２","E_COORD97":187060.26999999999,"N_COORD97":2573736.1600000001,"ADDRESS":"新吉庄１６號之２","OBJECTID":205689},"geometry":{"x":187060.27000000048,"y":2573736.1600000001}},{"attributes":{"ID":205691,"DIS_CODE":0,"TOWNNAME":"柳營區","LI":"旭山里","LIN":"2鄰","STREET":" ","SECT":" ","MAREA":"新吉庄","LANE":" ","ALLEY":" ","HOUSE_NO":"１６號之３０","E_COORD97":187051.19,"N_COORD97":2573712.8999999999,"ADDRESS":"新吉庄１６號之３０","OBJECTID":205690},"geometry":{"x":187051.19000000227,"y":2573712.9000000022}},{"attributes":{"ID":205692,"DIS_CODE":0,"TOWNNAME":"柳營區","LI":"旭山里","LIN":"2鄰","STREET":" ","SECT":" ","MAREA":"新吉庄","LANE":" ","ALLEY":" ","HOUSE_NO":"１６號之３","E_COORD97":187019.85000000001,"N_COORD97":2573742.6499999999,"ADDRESS":"新吉庄１６號之３","OBJECTID":205691},"geometry":{"x":187019.84999999963,"y":2573742.6500000004}},{"attributes":{"ID":205693,"DIS_CODE":0,"TOWNNAME":"柳營區","LI":"旭山里","LIN":"2鄰","STREET":" ","SECT":" ","MAREA":"新吉庄","LANE":" ","ALLEY":" ","HOUSE_NO":"１６號之４","E_COORD97":187025.64999999999,"N_COORD97":2573763.6099999999,"ADDRESS":"新吉庄１６號之４","OBJECTID":205692},"geometry":{"x":187025.65000000037,"y":2573763.6100000013}},{"attributes":{"ID":205694,"DIS_CODE":0,"TOWNNAME":"柳營區","LI":"旭山里","LIN":"2鄰","STREET":" ","SECT":" ","MAREA":"新吉庄","LANE":" ","ALLEY":" ","HOUSE_NO":"２０號","E_COORD97":187136.20999999999,"N_COORD97":2573831.8199999998,"ADDRESS":"新吉庄２０號","OBJECTID":205693},"geometry":{"x":187136.20999999996,"y":2573831.8200000022}},{"attributes":{"ID":205695,"DIS_CODE":0,"TOWNNAME":"柳營區","LI":"旭山里","LIN":"2鄰","STREET":" ","SECT":" ","MAREA":"新吉庄","LANE":" ","ALLEY":" ","HOUSE_NO":"８號","E_COORD97":187115.89999999999,"N_COORD97":2573942.4300000002,"ADDRESS":"新吉庄８號","OBJECTID":205694},"geometry":{"x":187115.9000000013,"y":2573942.4300000016}},{"attributes":{"ID":205696,"DIS_CODE":0,"TOWNNAME":"柳營區","LI":"人和里","LIN":"2鄰","STREET":" ","SECT":" ","MAREA":"橋南","LANE":" ","ALLEY":" ","HOUSE_NO":"２０之２０號","E_COORD97":178271.03,"N_COORD97":2575858.6299999999,"ADDRESS":"橋南２０之２０號","OBJECTID":205695},"geometry":{"x":178271.03000000212,"y":2575858.6300000008}},{"attributes":{"ID":205697,"DIS_CODE":0,"TOWNNAME":"東山區","LI":"南勢里","LIN":"2鄰","STREET":" ","SECT":" ","MAREA":"大洋","LANE":" ","ALLEY":" ","HOUSE_NO":"１６號之１","E_COORD97":196322.95000000001,"N_COORD97":2574176.4199999999,"ADDRESS":"大洋１６號之１","OBJECTID":205696},"geometry":{"x":196322.95000000019,"y":2574176.4200000018}},{"attributes":{"ID":205698,"DIS_CODE":0,"TOWNNAME":"東山區","LI":"南勢里","LIN":"2鄰","STREET":" ","SECT":" ","MAREA":"大洋","LANE":" ","ALLEY":" ","HOUSE_NO":"１７號之２","E_COORD97":196045.04999999999,"N_COORD97":2574089.7999999998,"ADDRESS":"大洋１７號之２","OBJECTID":205697},"geometry":{"x":196045.05000000075,"y":2574089.8000000026}},{"attributes":{"ID":205699,"DIS_CODE":0,"TOWNNAME":"東山區","LI":"大客里","LIN":"2鄰","STREET":" ","SECT":" ","MAREA":"大庄","LANE":" ","ALLEY":" ","HOUSE_NO":"１２號","E_COORD97":189663.42999999999,"N_COORD97":2578841.21,"ADDRESS":"大庄１２號","OBJECTID":205698},"geometry":{"x":189663.43000000063,"y":2578841.2100000028}},{"attributes":{"ID":205700,"DIS_CODE":0,"TOWNNAME":"六甲區","LI":"大丘里","LIN":"2鄰","STREET":" ","SECT":" ","MAREA":"嶺頂","LANE":" ","ALLEY":" ","HOUSE_NO":"１之２號","E_COORD97":192699.32000000001,"N_COORD97":2569539.46,"ADDRESS":"嶺頂１之２號","OBJECTID":205699},"geometry":{"x":192699.3200000003,"y":2569539.4600000028}},{"attributes":{"ID":205701,"DIS_CODE":0,"TOWNNAME":"六甲區","LI":"大丘里","LIN":"2鄰","STREET":" ","SECT":" ","MAREA":"嶺頂","LANE":" ","ALLEY":" ","HOUSE_NO":"１號","E_COORD97":192739.82000000001,"N_COORD97":2569605.2200000002,"ADDRESS":"嶺頂１號","OBJECTID":205700},"geometry":{"x":192739.82000000123,"y":2569605.2200000025}},{"attributes":{"ID":205702,"DIS_CODE":0,"TOWNNAME":"六甲區","LI":"大丘里","LIN":"2鄰","STREET":" ","SECT":" ","MAREA":"嶺頂","LANE":" ","ALLEY":" ","HOUSE_NO":"２號之１","E_COORD97":192754.35000000001,"N_COORD97":2569646.5600000001,"ADDRESS":"嶺頂２號之１","OBJECTID":205701},"geometry":{"x":192754.34999999963,"y":2569646.5600000024}},{"attributes":{"ID":205703,"DIS_CODE":0,"TOWNNAME":"六甲區","LI":"大丘里","LIN":"2鄰","STREET":" ","SECT":" ","MAREA":"嶺頂","LANE":" ","ALLEY":" ","HOUSE_NO":"２號","E_COORD97":192736.76999999999,"N_COORD97":2569642.3100000001,"ADDRESS":"嶺頂２號","OBJECTID":205702},"geometry":{"x":192736.76999999955,"y":2569642.3100000005}},{"attributes":{"ID":205704,"DIS_CODE":0,"TOWNNAME":"六甲區","LI":"大丘里","LIN":"2鄰","STREET":" ","SECT":" ","MAREA":"嶺頂","LANE":" ","ALLEY":" ","HOUSE_NO":"３號","E_COORD97":192791.98000000001,"N_COORD97":2569652.5699999998,"ADDRESS":"嶺頂３號","OBJECTID":205703},"geometry":{"x":192791.98000000045,"y":2569652.5700000022}},{"attributes":{"ID":205705,"DIS_CODE":0,"TOWNNAME":"六甲區","LI":"大丘里","LIN":"2鄰","STREET":" ","SECT":" ","MAREA":"嶺頂","LANE":" ","ALLEY":" ","HOUSE_NO":"４號","E_COORD97":192775.29999999999,"N_COORD97":2569666.3900000001,"ADDRESS":"嶺頂４號","OBJECTID":205704},"geometry":{"x":192775.29999999981,"y":2569666.3900000006}},{"attributes":{"ID":205706,"DIS_CODE":0,"TOWNNAME":"安南區","LI":"安富里","LIN":"25鄰","STREET":"郡安路","SECT":"五段","MAREA":" ","LANE":"１６４巷","ALLEY":"３弄","HOUSE_NO":"１３號","E_COORD97":167706,"N_COORD97":2547708.8399999999,"ADDRESS":"郡安路五段１６４巷３弄１３號","OBJECTID":205705},"geometry":{"x":167706,"y":2547708.8399999999}},{"attributes":{"ID":205707,"DIS_CODE":0,"TOWNNAME":"六甲區","LI":"大丘里","LIN":"2鄰","STREET":" ","SECT":" ","MAREA":"嶺頂","LANE":" ","ALLEY":" ","HOUSE_NO":"５號","E_COORD97":192737.51000000001,"N_COORD97":2569675.0499999998,"ADDRESS":"嶺頂５號","OBJECTID":205706},"geometry":{"x":192737.51000000071,"y":2569675.0500000007}},{"attributes":{"ID":205708,"DIS_CODE":0,"TOWNNAME":"六甲區","LI":"大丘里","LIN":"2鄰","STREET":" ","SECT":" ","MAREA":"嶺頂","LANE":" ","ALLEY":" ","HOUSE_NO":"６號","E_COORD97":192756.03,"N_COORD97":2569680.7400000002,"ADDRESS":"嶺頂６號","OBJECTID":205707},"geometry":{"x":192756.03000000026,"y":2569680.7400000002}},{"attributes":{"ID":205709,"DIS_CODE":0,"TOWNNAME":"六甲區","LI":"大丘里","LIN":"2鄰","STREET":" ","SECT":" ","MAREA":"嶺頂","LANE":" ","ALLEY":" ","HOUSE_NO":"７號","E_COORD97":192750.88,"N_COORD97":2569704.8500000001,"ADDRESS":"嶺頂７號","OBJECTID":205708},"geometry":{"x":192750.88000000082,"y":2569704.8500000015}},{"attributes":{"ID":205710,"DIS_CODE":0,"TOWNNAME":"六甲區","LI":"大丘里","LIN":"2鄰","STREET":" ","SECT":" ","MAREA":"嶺頂","LANE":" ","ALLEY":" ","HOUSE_NO":"８號","E_COORD97":192807.60999999999,"N_COORD97":2569645.8399999999,"ADDRESS":"嶺頂８號","OBJECTID":205709},"geometry":{"x":192807.61000000034,"y":2569645.8399999999}},{"attributes":{"ID":205711,"DIS_CODE":0,"TOWNNAME":"六甲區","LI":"大丘里","LIN":"2鄰","STREET":" ","SECT":" ","MAREA":"嶺頂","LANE":" ","ALLEY":" ","HOUSE_NO":"９號","E_COORD97":192760.26999999999,"N_COORD97":2569764.52,"ADDRESS":"嶺頂９號","OBJECTID":205710},"geometry":{"x":192760.26999999955,"y":2569764.5200000014}},{"attributes":{"ID":205712,"DIS_CODE":0,"TOWNNAME":"下營區","LI":"大埤里","LIN":"1鄰","STREET":" ","SECT":" ","MAREA":"大埤寮","LANE":" ","ALLEY":" ","HOUSE_NO":"１號","E_COORD97":173203.62,"N_COORD97":2569847.2200000002,"ADDRESS":"大埤寮１號","OBJECTID":205711},"geometry":{"x":173203.62000000104,"y":2569847.2200000007}},{"attributes":{"ID":205713,"DIS_CODE":0,"TOWNNAME":"東山區","LI":"嶺南里","LIN":"2鄰","STREET":" ","SECT":" ","MAREA":"牛稠子","LANE":" ","ALLEY":" ","HOUSE_NO":"１３號","E_COORD97":192306.92000000001,"N_COORD97":2573647.2400000002,"ADDRESS":"牛稠子１３號","OBJECTID":205712},"geometry":{"x":192306.91999999993,"y":2573647.2400000002}},{"attributes":{"ID":205714,"DIS_CODE":0,"TOWNNAME":"東山區","LI":"嶺南里","LIN":"2鄰","STREET":" ","SECT":" ","MAREA":"牛稠子","LANE":" ","ALLEY":" ","HOUSE_NO":"１４號","E_COORD97":192284.01999999999,"N_COORD97":2573675.9700000002,"ADDRESS":"牛稠子１４號","OBJECTID":205713},"geometry":{"x":192284.01999999955,"y":2573675.9700000007}},{"attributes":{"ID":205715,"DIS_CODE":0,"TOWNNAME":"東山區","LI":"嶺南里","LIN":"2鄰","STREET":" ","SECT":" ","MAREA":"牛稠子","LANE":" ","ALLEY":" ","HOUSE_NO":"１５號","E_COORD97":192286.28,"N_COORD97":2573705.5699999998,"ADDRESS":"牛稠子１５號","OBJECTID":205714},"geometry":{"x":192286.28000000026,"y":2573705.5700000003}},{"attributes":{"ID":205716,"DIS_CODE":0,"TOWNNAME":"東山區","LI":"嶺南里","LIN":"2鄰","STREET":" ","SECT":" ","MAREA":"牛稠子","LANE":" ","ALLEY":" ","HOUSE_NO":"１７號","E_COORD97":192314.72,"N_COORD97":2573708.54,"ADDRESS":"牛稠子１７號","OBJECTID":205715},"geometry":{"x":192314.71999999974,"y":2573708.5399999991}},{"attributes":{"ID":205717,"DIS_CODE":0,"TOWNNAME":"東山區","LI":"嶺南里","LIN":"2鄰","STREET":" ","SECT":" ","MAREA":"牛稠子","LANE":" ","ALLEY":" ","HOUSE_NO":"１８號","E_COORD97":192274.85000000001,"N_COORD97":2573688.0699999998,"ADDRESS":"牛稠子１８號","OBJECTID":205716},"geometry":{"x":192274.84999999963,"y":2573688.0700000022}},{"attributes":{"ID":205718,"DIS_CODE":0,"TOWNNAME":"東山區","LI":"嶺南里","LIN":"2鄰","STREET":" ","SECT":" ","MAREA":"牛稠子","LANE":" ","ALLEY":" ","HOUSE_NO":"１９號之１","E_COORD97":192333.32999999999,"N_COORD97":2573722.6899999999,"ADDRESS":"牛稠子１９號之１","OBJECTID":205717},"geometry":{"x":192333.33000000007,"y":2573722.6900000013}},{"attributes":{"ID":205719,"DIS_CODE":0,"TOWNNAME":"東山區","LI":"嶺南里","LIN":"2鄰","STREET":" ","SECT":" ","MAREA":"牛稠子","LANE":" ","ALLEY":" ","HOUSE_NO":"１９號","E_COORD97":192344.66,"N_COORD97":2573709.5899999999,"ADDRESS":"牛稠子１９號","OBJECTID":205718},"geometry":{"x":192344.66000000015,"y":2573709.5900000036}},{"attributes":{"ID":205720,"DIS_CODE":0,"TOWNNAME":"東山區","LI":"聖賢里","LIN":"2鄰","STREET":" ","SECT":" ","MAREA":"北勢寮","LANE":" ","ALLEY":" ","HOUSE_NO":"２０號","E_COORD97":184929.20999999999,"N_COORD97":2579736.52,"ADDRESS":"北勢寮２０號","OBJECTID":205719},"geometry":{"x":184929.20999999996,"y":2579736.5199999996}},{"attributes":{"ID":205721,"DIS_CODE":0,"TOWNNAME":"東山區","LI":"聖賢里","LIN":"2鄰","STREET":" ","SECT":" ","MAREA":"北勢寮","LANE":" ","ALLEY":" ","HOUSE_NO":"２１號","E_COORD97":184951.01999999999,"N_COORD97":2579744.3300000001,"ADDRESS":"北勢寮２１號","OBJECTID":205720},"geometry":{"x":184951.02000000142,"y":2579744.3300000019}},{"attributes":{"ID":205722,"DIS_CODE":0,"TOWNNAME":"東山區","LI":"聖賢里","LIN":"2鄰","STREET":" ","SECT":" ","MAREA":"北勢寮","LANE":" ","ALLEY":" ","HOUSE_NO":"２２號之１","E_COORD97":184954.10999999999,"N_COORD97":2579727.21,"ADDRESS":"北勢寮２２號之１","OBJECTID":205721},"geometry":{"x":184954.11000000034,"y":2579727.2100000009}},{"attributes":{"ID":205723,"DIS_CODE":0,"TOWNNAME":"東山區","LI":"聖賢里","LIN":"2鄰","STREET":" ","SECT":" ","MAREA":"北勢寮","LANE":" ","ALLEY":" ","HOUSE_NO":"２２號之２","E_COORD97":184961.42999999999,"N_COORD97":2579707.4199999999,"ADDRESS":"北勢寮２２號之２","OBJECTID":205722},"geometry":{"x":184961.4299999997,"y":2579707.4199999999}},{"attributes":{"ID":205724,"DIS_CODE":0,"TOWNNAME":"東山區","LI":"聖賢里","LIN":"2鄰","STREET":" ","SECT":" ","MAREA":"北勢寮","LANE":" ","ALLEY":" ","HOUSE_NO":"２２號","E_COORD97":184951.29999999999,"N_COORD97":2579708.6499999999,"ADDRESS":"北勢寮２２號","OBJECTID":205723},"geometry":{"x":184951.30000000075,"y":2579708.6500000022}},{"attributes":{"ID":205725,"DIS_CODE":0,"TOWNNAME":"東山區","LI":"聖賢里","LIN":"2鄰","STREET":" ","SECT":" ","MAREA":"北勢寮","LANE":" ","ALLEY":" ","HOUSE_NO":"２３號之１","E_COORD97":184984.76000000001,"N_COORD97":2579709.6099999999,"ADDRESS":"北勢寮２３號之１","OBJECTID":205724},"geometry":{"x":184984.75999999978,"y":2579709.6099999994}},{"attributes":{"ID":205726,"DIS_CODE":0,"TOWNNAME":"東山區","LI":"聖賢里","LIN":"2鄰","STREET":" ","SECT":" ","MAREA":"北勢寮","LANE":" ","ALLEY":" ","HOUSE_NO":"２３號之２","E_COORD97":184984.67999999999,"N_COORD97":2579702.8399999999,"ADDRESS":"北勢寮２３號之２","OBJECTID":205725},"geometry":{"x":184984.68000000063,"y":2579702.8400000017}},{"attributes":{"ID":205727,"DIS_CODE":0,"TOWNNAME":"東山區","LI":"聖賢里","LIN":"2鄰","STREET":" ","SECT":" ","MAREA":"北勢寮","LANE":" ","ALLEY":" ","HOUSE_NO":"２４號","E_COORD97":184998.78,"N_COORD97":2579745.9900000002,"ADDRESS":"北勢寮２４號","OBJECTID":205726},"geometry":{"x":184998.78000000026,"y":2579745.9900000021}},{"attributes":{"ID":205728,"DIS_CODE":0,"TOWNNAME":"東山區","LI":"聖賢里","LIN":"2鄰","STREET":" ","SECT":" ","MAREA":"北勢寮","LANE":" ","ALLEY":" ","HOUSE_NO":"２５號","E_COORD97":185016.01000000001,"N_COORD97":2579773.3799999999,"ADDRESS":"北勢寮２５號","OBJECTID":205727},"geometry":{"x":185016.01000000071,"y":2579773.3800000008}},{"attributes":{"ID":205729,"DIS_CODE":0,"TOWNNAME":"東山區","LI":"東河里","LIN":"2鄰","STREET":" ","SECT":" ","MAREA":"吉貝耍","LANE":" ","ALLEY":" ","HOUSE_NO":"１３號之３","E_COORD97":187275.89000000001,"N_COORD97":2576950.0800000001,"ADDRESS":"吉貝耍１３號之３","OBJECTID":205728},"geometry":{"x":187275.88999999966,"y":2576950.0800000001}},{"attributes":{"ID":205730,"DIS_CODE":0,"TOWNNAME":"東山區","LI":"東河里","LIN":"2鄰","STREET":" ","SECT":" ","MAREA":"吉貝耍","LANE":" ","ALLEY":" ","HOUSE_NO":"１３號之４","E_COORD97":187275.75,"N_COORD97":2576954.4399999999,"ADDRESS":"吉貝耍１３號之４","OBJECTID":205729},"geometry":{"x":187275.75000000186,"y":2576954.4399999995}},{"attributes":{"ID":205731,"DIS_CODE":0,"TOWNNAME":"東山區","LI":"東河里","LIN":"2鄰","STREET":" ","SECT":" ","MAREA":"吉貝耍","LANE":" ","ALLEY":" ","HOUSE_NO":"１３號之５","E_COORD97":187275.62,"N_COORD97":2576958.7999999998,"ADDRESS":"吉貝耍１３號之５","OBJECTID":205730},"geometry":{"x":187275.62000000104,"y":2576958.8000000026}},{"attributes":{"ID":205732,"DIS_CODE":0,"TOWNNAME":"仁德區","LI":"上崙里","LIN":"1鄰","STREET":"德崙路","SECT":" ","MAREA":" ","LANE":"７７巷","ALLEY":" ","HOUSE_NO":"８２號二樓之２","E_COORD97":173603.19909000001,"N_COORD97":2538484.4586299998,"ADDRESS":"德崙路７７巷８２號二樓之２","OBJECTID":205731},"geometry":{"x":173603.19909000024,"y":2538484.4586299993}},{"attributes":{"ID":205733,"DIS_CODE":0,"TOWNNAME":"東山區","LI":"東河里","LIN":"2鄰","STREET":" ","SECT":" ","MAREA":"吉貝耍","LANE":" ","ALLEY":" ","HOUSE_NO":"１３號之６","E_COORD97":187275.48000000001,"N_COORD97":2576963.1600000001,"ADDRESS":"吉貝耍１３號之６","OBJECTID":205732},"geometry":{"x":187275.48000000045,"y":2576963.1600000001}},{"attributes":{"ID":205734,"DIS_CODE":0,"TOWNNAME":"東山區","LI":"東河里","LIN":"2鄰","STREET":" ","SECT":" ","MAREA":"吉貝耍","LANE":" ","ALLEY":" ","HOUSE_NO":"１３號之７","E_COORD97":187275.34,"N_COORD97":2576967.5099999998,"ADDRESS":"吉貝耍１３號之７","OBJECTID":205733},"geometry":{"x":187275.34000000078,"y":2576967.5099999998}},{"attributes":{"ID":205735,"DIS_CODE":0,"TOWNNAME":"東山區","LI":"東河里","LIN":"2鄰","STREET":" ","SECT":" ","MAREA":"吉貝耍","LANE":" ","ALLEY":" ","HOUSE_NO":"１３號之８","E_COORD97":187275.20000000001,"N_COORD97":2576971.8700000001,"ADDRESS":"吉貝耍１３號之８","OBJECTID":205734},"geometry":{"x":187275.20000000112,"y":2576971.8700000029}},{"attributes":{"ID":205736,"DIS_CODE":0,"TOWNNAME":"東山區","LI":"東河里","LIN":"2鄰","STREET":" ","SECT":" ","MAREA":"吉貝耍","LANE":" ","ALLEY":" ","HOUSE_NO":"１３號之９","E_COORD97":187275.06,"N_COORD97":2576976.23,"ADDRESS":"吉貝耍１３號之９","OBJECTID":205735},"geometry":{"x":187275.06000000052,"y":2576976.2300000004}},{"attributes":{"ID":205737,"DIS_CODE":0,"TOWNNAME":"東山區","LI":"東河里","LIN":"2鄰","STREET":" ","SECT":" ","MAREA":"吉貝耍","LANE":" ","ALLEY":" ","HOUSE_NO":"１３號","E_COORD97":187298.26000000001,"N_COORD97":2576994.25,"ADDRESS":"吉貝耍１３號","OBJECTID":205736},"geometry":{"x":187298.26000000071,"y":2576994.2500000037}},{"attributes":{"ID":205738,"DIS_CODE":0,"TOWNNAME":"東山區","LI":"東河里","LIN":"2鄰","STREET":" ","SECT":" ","MAREA":"吉貝耍","LANE":" ","ALLEY":" ","HOUSE_NO":"１５號之２","E_COORD97":187249.98000000001,"N_COORD97":2576960.7999999998,"ADDRESS":"吉貝耍１５號之２","OBJECTID":205737},"geometry":{"x":187249.98000000138,"y":2576960.8000000045}},{"attributes":{"ID":205739,"DIS_CODE":0,"TOWNNAME":"東山區","LI":"東河里","LIN":"2鄰","STREET":" ","SECT":" ","MAREA":"吉貝耍","LANE":" ","ALLEY":" ","HOUSE_NO":"１５號之３","E_COORD97":187280.10999999999,"N_COORD97":2576938.0600000001,"ADDRESS":"吉貝耍１５號之３","OBJECTID":205738},"geometry":{"x":187280.11000000034,"y":2576938.0600000042}},{"attributes":{"ID":205740,"DIS_CODE":0,"TOWNNAME":"東山區","LI":"東河里","LIN":"2鄰","STREET":" ","SECT":" ","MAREA":"吉貝耍","LANE":" ","ALLEY":" ","HOUSE_NO":"１５號之４","E_COORD97":187297.13,"N_COORD97":2577088.9700000002,"ADDRESS":"吉貝耍１５號之４","OBJECTID":205739},"geometry":{"x":187297.13000000082,"y":2577088.9700000025}},{"attributes":{"ID":205741,"DIS_CODE":0,"TOWNNAME":"東山區","LI":"東河里","LIN":"2鄰","STREET":" ","SECT":" ","MAREA":"吉貝耍","LANE":" ","ALLEY":" ","HOUSE_NO":"１５號之６","E_COORD97":187224.88,"N_COORD97":2577106.54,"ADDRESS":"吉貝耍１５號之６","OBJECTID":205740},"geometry":{"x":187224.87999999989,"y":2577106.5400000028}},{"attributes":{"ID":205742,"DIS_CODE":0,"TOWNNAME":"東山區","LI":"東河里","LIN":"2鄰","STREET":" ","SECT":" ","MAREA":"吉貝耍","LANE":" ","ALLEY":" ","HOUSE_NO":"１５號之８","E_COORD97":187279.82000000001,"N_COORD97":2576924.1200000001,"ADDRESS":"吉貝耍１５號之８","OBJECTID":205741},"geometry":{"x":187279.8200000003,"y":2576924.120000001}},{"attributes":{"ID":205743,"DIS_CODE":0,"TOWNNAME":"東山區","LI":"東河里","LIN":"2鄰","STREET":" ","SECT":" ","MAREA":"吉貝耍","LANE":" ","ALLEY":" ","HOUSE_NO":"１５號","E_COORD97":187230.29000000001,"N_COORD97":2577046.6000000001,"ADDRESS":"吉貝耍１５號","OBJECTID":205742},"geometry":{"x":187230.29000000097,"y":2577046.6000000015}},{"attributes":{"ID":205744,"DIS_CODE":0,"TOWNNAME":"東山區","LI":"東河里","LIN":"2鄰","STREET":" ","SECT":" ","MAREA":"吉貝耍","LANE":" ","ALLEY":" ","HOUSE_NO":"１６號之１","E_COORD97":187158.28,"N_COORD97":2577059.1699999999,"ADDRESS":"吉貝耍１６號之１","OBJECTID":205743},"geometry":{"x":187158.28000000026,"y":2577059.1700000018}},{"attributes":{"ID":205745,"DIS_CODE":0,"TOWNNAME":"東山區","LI":"東原里","LIN":"2鄰","STREET":" ","SECT":" ","MAREA":"前大埔","LANE":" ","ALLEY":" ","HOUSE_NO":"１１號之１","E_COORD97":193317.19,"N_COORD97":2573695.3199999998,"ADDRESS":"前大埔１１號之１","OBJECTID":205744},"geometry":{"x":193317.19000000134,"y":2573695.3200000022}},{"attributes":{"ID":205746,"DIS_CODE":0,"TOWNNAME":"東山區","LI":"東原里","LIN":"2鄰","STREET":" ","SECT":" ","MAREA":"前大埔","LANE":" ","ALLEY":" ","HOUSE_NO":"１１號","E_COORD97":193288.29999999999,"N_COORD97":2573702.2200000002,"ADDRESS":"前大埔１１號","OBJECTID":205745},"geometry":{"x":193288.30000000075,"y":2573702.2200000007}},{"attributes":{"ID":205747,"DIS_CODE":0,"TOWNNAME":"東山區","LI":"東原里","LIN":"2鄰","STREET":" ","SECT":" ","MAREA":"前大埔","LANE":" ","ALLEY":" ","HOUSE_NO":"１２號之１","E_COORD97":193276.81,"N_COORD97":2573683.9300000002,"ADDRESS":"前大埔１２號之１","OBJECTID":205746},"geometry":{"x":193276.80999999959,"y":2573683.9300000016}},{"attributes":{"ID":205748,"DIS_CODE":0,"TOWNNAME":"東山區","LI":"東原里","LIN":"2鄰","STREET":" ","SECT":" ","MAREA":"前大埔","LANE":" ","ALLEY":" ","HOUSE_NO":"１２號之２","E_COORD97":193274.53,"N_COORD97":2573679.9199999999,"ADDRESS":"前大埔１２號之２","OBJECTID":205747},"geometry":{"x":193274.53000000026,"y":2573679.9199999999}},{"attributes":{"ID":205749,"DIS_CODE":0,"TOWNNAME":"東山區","LI":"東原里","LIN":"2鄰","STREET":" ","SECT":" ","MAREA":"前大埔","LANE":" ","ALLEY":" ","HOUSE_NO":"１３號之２","E_COORD97":193266.26999999999,"N_COORD97":2573730.5899999999,"ADDRESS":"前大埔１３號之２","OBJECTID":205748},"geometry":{"x":193266.27000000048,"y":2573730.5900000017}},{"attributes":{"ID":205750,"DIS_CODE":0,"TOWNNAME":"東山區","LI":"東原里","LIN":"2鄰","STREET":" ","SECT":" ","MAREA":"前大埔","LANE":" ","ALLEY":" ","HOUSE_NO":"１４號之１","E_COORD97":193263.48000000001,"N_COORD97":2573718.6899999999,"ADDRESS":"前大埔１４號之１","OBJECTID":205749},"geometry":{"x":193263.48000000045,"y":2573718.6900000032}},{"attributes":{"ID":205751,"DIS_CODE":0,"TOWNNAME":"東山區","LI":"東原里","LIN":"2鄰","STREET":" ","SECT":" ","MAREA":"前大埔","LANE":" ","ALLEY":" ","HOUSE_NO":"１４號之２","E_COORD97":193262.42000000001,"N_COORD97":2573710.8199999998,"ADDRESS":"前大埔１４號之２","OBJECTID":205750},"geometry":{"x":193262.42000000086,"y":2573710.8200000003}},{"attributes":{"ID":205752,"DIS_CODE":0,"TOWNNAME":"永康區","LI":"永康里","LIN":"40鄰","STREET":"永大二路","SECT":" ","MAREA":" ","LANE":" ","ALLEY":" ","HOUSE_NO":"４６號八樓之１","E_COORD97":174255.44,"N_COORD97":2546582.0899999999,"ADDRESS":"永大二路４６號八樓之１","OBJECTID":205751},"geometry":{"x":174255.44000000041,"y":2546582.0899999999}},{"attributes":{"ID":205753,"DIS_CODE":0,"TOWNNAME":"安南區","LI":"安富里","LIN":"25鄰","STREET":"郡安路","SECT":"五段","MAREA":" ","LANE":"１６４巷","ALLEY":"３弄","HOUSE_NO":"１４號","E_COORD97":167687.64999999999,"N_COORD97":2547683.6499999999,"ADDRESS":"郡安路五段１６４巷３弄１４號","OBJECTID":205752},"geometry":{"x":167687.6500000013,"y":2547683.6500000004}},{"attributes":{"ID":205754,"DIS_CODE":0,"TOWNNAME":"安南區","LI":"安富里","LIN":"25鄰","STREET":"郡安路","SECT":"五段","MAREA":" ","LANE":"１６４巷","ALLEY":"３弄","HOUSE_NO":"１６號","E_COORD97":167692.92999999999,"N_COORD97":2547685.25,"ADDRESS":"郡安路五段１６４巷３弄１６號","OBJECTID":205753},"geometry":{"x":167692.92999999877,"y":2547685.2500000019}},{"attributes":{"ID":205755,"DIS_CODE":0,"TOWNNAME":"安南區","LI":"安富里","LIN":"25鄰","STREET":"郡安路","SECT":"五段","MAREA":" ","LANE":"１６４巷","ALLEY":"３弄","HOUSE_NO":"２２號","E_COORD97":167714.03,"N_COORD97":2547688.6899999999,"ADDRESS":"郡安路五段１６４巷３弄２２號","OBJECTID":205754},"geometry":{"x":167714.03000000119,"y":2547688.6900000013}},{"attributes":{"ID":205756,"DIS_CODE":0,"TOWNNAME":"安南區","LI":"安富里","LIN":"25鄰","STREET":"郡安路","SECT":"五段","MAREA":" ","LANE":"１６４巷","ALLEY":"３弄","HOUSE_NO":"２４號","E_COORD97":167719.29999999999,"N_COORD97":2547689.8300000001,"ADDRESS":"郡安路五段１６４巷３弄２４號","OBJECTID":205755},"geometry":{"x":167719.29999999981,"y":2547689.8300000001}},{"attributes":{"ID":205757,"DIS_CODE":0,"TOWNNAME":"安南區","LI":"安富里","LIN":"25鄰","STREET":"郡安路","SECT":"五段","MAREA":" ","LANE":"１６４巷","ALLEY":"３弄","HOUSE_NO":"２８號","E_COORD97":167729.63,"N_COORD97":2547691.8900000001,"ADDRESS":"郡安路五段１６４巷３弄２８號","OBJECTID":205756},"geometry":{"x":167729.63000000082,"y":2547691.8900000025}},{"attributes":{"ID":205758,"DIS_CODE":0,"TOWNNAME":"安南區","LI":"安富里","LIN":"25鄰","STREET":"郡安路","SECT":"五段","MAREA":" ","LANE":"１６４巷","ALLEY":"３弄","HOUSE_NO":"３０號","E_COORD97":167734.44,"N_COORD97":2547693.9500000002,"ADDRESS":"郡安路五段１６４巷３弄３０號","OBJECTID":205757},"geometry":{"x":167734.44000000227,"y":2547693.9499999993}},{"attributes":{"ID":205759,"DIS_CODE":0,"TOWNNAME":"安南區","LI":"安富里","LIN":"25鄰","STREET":"郡安路","SECT":"五段","MAREA":" ","LANE":"１６４巷","ALLEY":"３弄","HOUSE_NO":"３２號","E_COORD97":167739.26000000001,"N_COORD97":2547694.6400000001,"ADDRESS":"郡安路五段１６４巷３弄３２號","OBJECTID":205758},"geometry":{"x":167739.25999999978,"y":2547694.6400000006}},{"attributes":{"ID":205760,"DIS_CODE":0,"TOWNNAME":"安南區","LI":"安富里","LIN":"25鄰","STREET":"郡安路","SECT":"五段","MAREA":" ","LANE":"１６４巷","ALLEY":"３弄","HOUSE_NO":"３號","E_COORD97":167661.20999999999,"N_COORD97":2547700.6000000001,"ADDRESS":"郡安路五段１６４巷３弄３號","OBJECTID":205759},"geometry":{"x":167661.21000000089,"y":2547700.5999999996}},{"attributes":{"ID":205761,"DIS_CODE":0,"TOWNNAME":"安南區","LI":"安富里","LIN":"25鄰","STREET":"郡安路","SECT":"五段","MAREA":" ","LANE":"１６４巷","ALLEY":"３弄","HOUSE_NO":"４號","E_COORD97":167662.42000000001,"N_COORD97":2547677.2400000002,"ADDRESS":"郡安路五段１６４巷３弄４號","OBJECTID":205760},"geometry":{"x":167662.41999999993,"y":2547677.2400000002}},{"attributes":{"ID":205762,"DIS_CODE":0,"TOWNNAME":"安南區","LI":"安富里","LIN":"25鄰","STREET":"郡安路","SECT":"五段","MAREA":" ","LANE":"１６４巷","ALLEY":"３弄","HOUSE_NO":"５號","E_COORD97":167671.29999999999,"N_COORD97":2547702.4300000002,"ADDRESS":"郡安路五段１６４巷３弄５號","OBJECTID":205761},"geometry":{"x":167671.29999999981,"y":2547702.4299999997}},{"attributes":{"ID":205763,"DIS_CODE":0,"TOWNNAME":"安南區","LI":"安富里","LIN":"25鄰","STREET":"郡安路","SECT":"五段","MAREA":" ","LANE":"１６４巷","ALLEY":"３弄","HOUSE_NO":"７號","E_COORD97":167679.10000000001,"N_COORD97":2547703.5699999998,"ADDRESS":"郡安路五段１６４巷３弄７號","OBJECTID":205762},"geometry":{"x":167679.09999999963,"y":2547703.5700000022}},{"attributes":{"ID":205764,"DIS_CODE":0,"TOWNNAME":"安南區","LI":"安富里","LIN":"25鄰","STREET":"郡安路","SECT":"五段","MAREA":" ","LANE":"１６４巷","ALLEY":"４弄","HOUSE_NO":"１０號","E_COORD97":167626.5,"N_COORD97":2547689.3799999999,"ADDRESS":"郡安路五段１６４巷４弄１０號","OBJECTID":205763},"geometry":{"x":167626.5,"y":2547689.3800000008}},{"attributes":{"ID":205765,"DIS_CODE":0,"TOWNNAME":"安南區","LI":"安富里","LIN":"25鄰","STREET":"郡安路","SECT":"五段","MAREA":" ","LANE":"１６４巷","ALLEY":"４弄","HOUSE_NO":"１２號","E_COORD97":167620.31,"N_COORD97":2547690.75,"ADDRESS":"郡安路五段１６４巷４弄１２號","OBJECTID":205764},"geometry":{"x":167620.30999999959,"y":2547690.7499999981}},{"attributes":{"ID":205766,"DIS_CODE":0,"TOWNNAME":"安南區","LI":"安富里","LIN":"25鄰","STREET":"郡安路","SECT":"五段","MAREA":" ","LANE":"１６４巷","ALLEY":"４弄","HOUSE_NO":"１４號","E_COORD97":167610.20999999999,"N_COORD97":2547688.9199999999,"ADDRESS":"郡安路五段１６４巷４弄１４號","OBJECTID":205765},"geometry":{"x":167610.21000000089,"y":2547688.9199999999}},{"attributes":{"ID":205767,"DIS_CODE":0,"TOWNNAME":"安南區","LI":"安富里","LIN":"25鄰","STREET":"郡安路","SECT":"五段","MAREA":" ","LANE":"１６４巷","ALLEY":"４弄","HOUSE_NO":"１５號","E_COORD97":167607.79999999999,"N_COORD97":2547666.5899999999,"ADDRESS":"郡安路五段１６４巷４弄１５號","OBJECTID":205766},"geometry":{"x":167607.80000000075,"y":2547666.5899999999}},{"attributes":{"ID":205768,"DIS_CODE":0,"TOWNNAME":"安南區","LI":"安富里","LIN":"25鄰","STREET":"郡安路","SECT":"五段","MAREA":" ","LANE":"１６４巷","ALLEY":"４弄","HOUSE_NO":"１６號","E_COORD97":167604.01999999999,"N_COORD97":2547687.3100000001,"ADDRESS":"郡安路五段１６４巷４弄１６號","OBJECTID":205767},"geometry":{"x":167604.01999999862,"y":2547687.3100000005}},{"attributes":{"ID":205769,"DIS_CODE":0,"TOWNNAME":"安南區","LI":"安富里","LIN":"25鄰","STREET":"郡安路","SECT":"五段","MAREA":" ","LANE":"１６４巷","ALLEY":"４弄","HOUSE_NO":"１７號","E_COORD97":167597.54000000001,"N_COORD97":2547665.3500000001,"ADDRESS":"郡安路五段１６４巷４弄１７號","OBJECTID":205768},"geometry":{"x":167597.54000000004,"y":2547665.3499999996}},{"attributes":{"ID":205770,"DIS_CODE":0,"TOWNNAME":"安南區","LI":"安富里","LIN":"25鄰","STREET":"郡安路","SECT":"五段","MAREA":" ","LANE":"１６４巷","ALLEY":"４弄","HOUSE_NO":"２１號","E_COORD97":167586.53,"N_COORD97":2547662.6000000001,"ADDRESS":"郡安路五段１６４巷４弄２１號","OBJECTID":205769},"geometry":{"x":167586.53000000119,"y":2547662.6000000015}},{"attributes":{"ID":205771,"DIS_CODE":0,"TOWNNAME":"安南區","LI":"安富里","LIN":"25鄰","STREET":"郡安路","SECT":"五段","MAREA":" ","LANE":"１６４巷","ALLEY":"４弄","HOUSE_NO":"２７號","E_COORD97":167571.76999999999,"N_COORD97":2547659.6000000001,"ADDRESS":"郡安路五段１６４巷４弄２７號","OBJECTID":205770},"geometry":{"x":167571.76999999955,"y":2547659.5999999996}},{"attributes":{"ID":205772,"DIS_CODE":0,"TOWNNAME":"安南區","LI":"安富里","LIN":"25鄰","STREET":"郡安路","SECT":"五段","MAREA":" ","LANE":"１６４巷","ALLEY":"４弄","HOUSE_NO":"２９號","E_COORD97":167566.01999999999,"N_COORD97":2547657.8500000001,"ADDRESS":"郡安路五段１６４巷４弄２９號","OBJECTID":205771},"geometry":{"x":167566.01999999955,"y":2547657.8499999996}},{"attributes":{"ID":205773,"DIS_CODE":0,"TOWNNAME":"安南區","LI":"安富里","LIN":"25鄰","STREET":"郡安路","SECT":"五段","MAREA":" ","LANE":"１６４巷","ALLEY":"４弄","HOUSE_NO":"２號","E_COORD97":167641.41,"N_COORD97":2547692.3500000001,"ADDRESS":"郡安路五段１６４巷４弄２號","OBJECTID":205772},"geometry":{"x":167641.41000000108,"y":2547692.3499999996}},{"attributes":{"ID":205774,"DIS_CODE":0,"TOWNNAME":"安南區","LI":"安富里","LIN":"25鄰","STREET":"郡安路","SECT":"五段","MAREA":" ","LANE":"１６４巷","ALLEY":"４弄","HOUSE_NO":"４號","E_COORD97":167637.73999999999,"N_COORD97":2547694.8700000001,"ADDRESS":"郡安路五段１６４巷４弄４號","OBJECTID":205773},"geometry":{"x":167637.74000000115,"y":2547694.8700000048}},{"attributes":{"ID":205775,"DIS_CODE":0,"TOWNNAME":"安南區","LI":"安富里","LIN":"25鄰","STREET":"郡安路","SECT":"五段","MAREA":" ","LANE":"１６４巷","ALLEY":"４弄","HOUSE_NO":"６號","E_COORD97":167634.07000000001,"N_COORD97":2547691.21,"ADDRESS":"郡安路五段１６４巷４弄６號","OBJECTID":205774},"geometry":{"x":167634.07000000123,"y":2547691.2100000009}},{"attributes":{"ID":205776,"DIS_CODE":0,"TOWNNAME":"東區","LI":"富強里","LIN":"25鄰","STREET":"裕農路","SECT":" ","MAREA":" ","LANE":"４４６巷","ALLEY":"５２弄","HOUSE_NO":"４２號","E_COORD97":171122.23000000001,"N_COORD97":2543020.6000000001,"ADDRESS":"裕農路４４６巷５２弄４２號","OBJECTID":205775},"geometry":{"x":171122.23000000045,"y":2543020.6000000015}},{"attributes":{"ID":205777,"DIS_CODE":0,"TOWNNAME":"東區","LI":"富強里","LIN":"25鄰","STREET":"裕農路","SECT":" ","MAREA":" ","LANE":"４４６巷","ALLEY":"５２弄","HOUSE_NO":"４２號之１","E_COORD97":171108.95000000001,"N_COORD97":2543018.0800000001,"ADDRESS":"裕農路４４６巷５２弄４２號之１","OBJECTID":205776},"geometry":{"x":171108.95000000019,"y":2543018.0800000019}},{"attributes":{"ID":205778,"DIS_CODE":0,"TOWNNAME":"東區","LI":"富強里","LIN":"25鄰","STREET":"裕農路","SECT":" ","MAREA":" ","LANE":"４４６巷","ALLEY":"５２弄","HOUSE_NO":"４２號之２","E_COORD97":171115.59,"N_COORD97":2543042.9700000002,"ADDRESS":"裕農路４４６巷５２弄４２號之２","OBJECTID":205777},"geometry":{"x":171115.58999999985,"y":2543042.9700000025}},{"attributes":{"ID":205779,"DIS_CODE":0,"TOWNNAME":"東區","LI":"富強里","LIN":"25鄰","STREET":"裕農路","SECT":" ","MAREA":" ","LANE":"４４６巷","ALLEY":"５２弄","HOUSE_NO":"４２號之３","E_COORD97":171114.01000000001,"N_COORD97":2543050.5600000001,"ADDRESS":"裕農路４４６巷５２弄４２號之３","OBJECTID":205778},"geometry":{"x":171114.01000000071,"y":2543050.5600000005}},{"attributes":{"ID":205780,"DIS_CODE":0,"TOWNNAME":"東區","LI":"富強里","LIN":"25鄰","STREET":"裕農路","SECT":" ","MAREA":" ","LANE":"４４６巷","ALLEY":"５２弄","HOUSE_NO":"４２號之５","E_COORD97":171098.20000000001,"N_COORD97":2543038.3900000001,"ADDRESS":"裕農路４４６巷５２弄４２號之５","OBJECTID":205779},"geometry":{"x":171098.20000000112,"y":2543038.3900000006}},{"attributes":{"ID":205781,"DIS_CODE":0,"TOWNNAME":"安南區","LI":"安富里","LIN":"25鄰","STREET":"郡安路","SECT":"五段","MAREA":" ","LANE":"１６４巷","ALLEY":"３弄","HOUSE_NO":"６號","E_COORD97":167667.45999999999,"N_COORD97":2547677.9199999999,"ADDRESS":"郡安路五段１６４巷３弄６號","OBJECTID":205780},"geometry":{"x":167667.45999999996,"y":2547677.9199999999}},{"attributes":{"ID":205782,"DIS_CODE":0,"TOWNNAME":"永康區","LI":"勝利里","LIN":"25鄰","STREET":"中華路","SECT":" ","MAREA":" ","LANE":"１５５巷","ALLEY":"３４弄","HOUSE_NO":"７號","E_COORD97":171462.85999999999,"N_COORD97":2544842.7400000002,"ADDRESS":"中華路１５５巷３４弄７號","OBJECTID":205781},"geometry":{"x":171462.86000000127,"y":2544842.7400000002}},{"attributes":{"ID":205783,"DIS_CODE":0,"TOWNNAME":"永康區","LI":"勝利里","LIN":"25鄰","STREET":"中華路","SECT":" ","MAREA":" ","LANE":"１５５巷","ALLEY":"３４弄","HOUSE_NO":"２９號","E_COORD97":171454.17999999999,"N_COORD97":2544779.1600000001,"ADDRESS":"中華路１５５巷３４弄２９號","OBJECTID":205782},"geometry":{"x":171454.1799999997,"y":2544779.1599999983}},{"attributes":{"ID":205784,"DIS_CODE":0,"TOWNNAME":"永康區","LI":"勝利里","LIN":"25鄰","STREET":"中華路","SECT":" ","MAREA":" ","LANE":"１５５巷","ALLEY":"３４弄","HOUSE_NO":"３２號","E_COORD97":171442.85000000001,"N_COORD97":2544785.5,"ADDRESS":"中華路１５５巷３４弄３２號","OBJECTID":205783},"geometry":{"x":171442.84999999963,"y":2544785.5}},{"attributes":{"ID":205785,"DIS_CODE":0,"TOWNNAME":"永康區","LI":"勝利里","LIN":"25鄰","STREET":"中華路","SECT":" ","MAREA":" ","LANE":"１５５巷","ALLEY":"３４弄","HOUSE_NO":"９號","E_COORD97":171459.95000000001,"N_COORD97":2544831.6499999999,"ADDRESS":"中華路１５５巷３４弄９號","OBJECTID":205784},"geometry":{"x":171459.95000000019,"y":2544831.6500000022}},{"attributes":{"ID":205786,"DIS_CODE":0,"TOWNNAME":"永康區","LI":"勝利里","LIN":"25鄰","STREET":"中華路","SECT":" ","MAREA":" ","LANE":"１５５巷","ALLEY":"３４弄","HOUSE_NO":"２２號","E_COORD97":171445.79999999999,"N_COORD97":2544805.4900000002,"ADDRESS":"中華路１５５巷３４弄２２號","OBJECTID":205785},"geometry":{"x":171445.80000000075,"y":2544805.4900000021}},{"attributes":{"ID":205787,"DIS_CODE":0,"TOWNNAME":"永康區","LI":"勝利里","LIN":"25鄰","STREET":"中華路","SECT":" ","MAREA":" ","LANE":"１５５巷","ALLEY":"３４弄","HOUSE_NO":"２８號","E_COORD97":171444.26000000001,"N_COORD97":2544793.25,"ADDRESS":"中華路１５５巷３４弄２８號","OBJECTID":205786},"geometry":{"x":171444.26000000071,"y":2544793.2500000019}},{"attributes":{"ID":205788,"DIS_CODE":0,"TOWNNAME":"永康區","LI":"崑山里","LIN":"25鄰","STREET":"大灣路","SECT":" ","MAREA":" ","LANE":"９４２巷","ALLEY":"１１２弄","HOUSE_NO":"１０號","E_COORD97":173774.09,"N_COORD97":2544753.5499999998,"ADDRESS":"大灣路９４２巷１１２弄１０號","OBJECTID":205787},"geometry":{"x":173774.08999999985,"y":2544753.5500000045}},{"attributes":{"ID":205789,"DIS_CODE":0,"TOWNNAME":"永康區","LI":"勝利里","LIN":"25鄰","STREET":"中華路","SECT":" ","MAREA":" ","LANE":"１５５巷","ALLEY":"３４弄","HOUSE_NO":"３０號","E_COORD97":171443.13,"N_COORD97":2544789.25,"ADDRESS":"中華路１５５巷３４弄３０號","OBJECTID":205788},"geometry":{"x":171443.12999999989,"y":2544789.2500000019}},{"attributes":{"ID":205790,"DIS_CODE":0,"TOWNNAME":"永康區","LI":"永康里","LIN":"25鄰","STREET":"埔聖街","SECT":" ","MAREA":" ","LANE":"８７巷","ALLEY":"２３弄","HOUSE_NO":"１０號","E_COORD97":174111.26999999999,"N_COORD97":2547677.0699999998,"ADDRESS":"埔聖街８７巷２３弄１０號","OBJECTID":205789},"geometry":{"x":174111.26999999955,"y":2547677.0700000022}},{"attributes":{"ID":205791,"DIS_CODE":0,"TOWNNAME":"永康區","LI":"永康里","LIN":"25鄰","STREET":"埔聖街","SECT":" ","MAREA":" ","LANE":"８７巷","ALLEY":"２３弄","HOUSE_NO":"１２號","E_COORD97":174108.25,"N_COORD97":2547680.54,"ADDRESS":"埔聖街８７巷２３弄１２號","OBJECTID":205790},"geometry":{"x":174108.25000000093,"y":2547680.5399999991}},{"attributes":{"ID":205792,"DIS_CODE":0,"TOWNNAME":"永康區","LI":"永康里","LIN":"25鄰","STREET":"埔聖街","SECT":" ","MAREA":" ","LANE":"８７巷","ALLEY":"２３弄","HOUSE_NO":"１６號","E_COORD97":174106.59,"N_COORD97":2547684.77,"ADDRESS":"埔聖街８７巷２３弄１６號","OBJECTID":205791},"geometry":{"x":174106.58999999892,"y":2547684.7700000014}},{"attributes":{"ID":205793,"DIS_CODE":0,"TOWNNAME":"永康區","LI":"永康里","LIN":"25鄰","STREET":"埔聖街","SECT":" ","MAREA":" ","LANE":"８７巷","ALLEY":"２３弄","HOUSE_NO":"１８號","E_COORD97":174104.92999999999,"N_COORD97":2547689,"ADDRESS":"埔聖街８７巷２３弄１８號","OBJECTID":205792},"geometry":{"x":174104.93000000063,"y":2547688.9999999981}},{"attributes":{"ID":205794,"DIS_CODE":0,"TOWNNAME":"永康區","LI":"永康里","LIN":"25鄰","STREET":"埔聖街","SECT":" ","MAREA":" ","LANE":"８７巷","ALLEY":"２３弄","HOUSE_NO":"２０號","E_COORD97":174102.81,"N_COORD97":2547693.2200000002,"ADDRESS":"埔聖街８７巷２３弄２０號","OBJECTID":205793},"geometry":{"x":174102.80999999959,"y":2547693.2200000025}},{"attributes":{"ID":205795,"DIS_CODE":0,"TOWNNAME":"東山區","LI":"東原里","LIN":"2鄰","STREET":" ","SECT":" ","MAREA":"前大埔","LANE":" ","ALLEY":" ","HOUSE_NO":"１５號","E_COORD97":193260.92000000001,"N_COORD97":2573701.0499999998,"ADDRESS":"前大埔１５號","OBJECTID":205794},"geometry":{"x":193260.92000000086,"y":2573701.0500000026}},{"attributes":{"ID":205796,"DIS_CODE":0,"TOWNNAME":"永康區","LI":"永康里","LIN":"25鄰","STREET":"埔聖街","SECT":" ","MAREA":" ","LANE":"８７巷","ALLEY":"２３弄","HOUSE_NO":"２２號","E_COORD97":174100.25,"N_COORD97":2547696.8500000001,"ADDRESS":"埔聖街８７巷２３弄２２號","OBJECTID":205795},"geometry":{"x":174100.25,"y":2547696.8500000034}},{"attributes":{"ID":205797,"DIS_CODE":0,"TOWNNAME":"永康區","LI":"永康里","LIN":"25鄰","STREET":"埔聖街","SECT":" ","MAREA":" ","LANE":"８７巷","ALLEY":"２３弄","HOUSE_NO":"２６號","E_COORD97":174098.42999999999,"N_COORD97":2547700.6200000001,"ADDRESS":"埔聖街８７巷２３弄２６號","OBJECTID":205796},"geometry":{"x":174098.4299999997,"y":2547700.6200000029}},{"attributes":{"ID":205798,"DIS_CODE":0,"TOWNNAME":"永康區","LI":"永康里","LIN":"25鄰","STREET":"埔聖街","SECT":" ","MAREA":" ","LANE":"８７巷","ALLEY":"２３弄","HOUSE_NO":"２８號","E_COORD97":174096.01999999999,"N_COORD97":2547704.3999999999,"ADDRESS":"埔聖街８７巷２３弄２８號","OBJECTID":205797},"geometry":{"x":174096.01999999955,"y":2547704.4000000022}},{"attributes":{"ID":205799,"DIS_CODE":0,"TOWNNAME":"永康區","LI":"永康里","LIN":"25鄰","STREET":"埔聖街","SECT":" ","MAREA":" ","LANE":"８７巷","ALLEY":"２３弄","HOUSE_NO":"２號","E_COORD97":174116.63,"N_COORD97":2547665.0699999998,"ADDRESS":"埔聖街８７巷２３弄２號","OBJECTID":205798},"geometry":{"x":174116.63000000175,"y":2547665.0700000003}},{"attributes":{"ID":205800,"DIS_CODE":0,"TOWNNAME":"永康區","LI":"永康里","LIN":"25鄰","STREET":"埔聖街","SECT":" ","MAREA":" ","LANE":"８７巷","ALLEY":"２３弄","HOUSE_NO":"３０號","E_COORD97":174093.75,"N_COORD97":2547708.77,"ADDRESS":"埔聖街８７巷２３弄３０號","OBJECTID":205799},"geometry":{"x":174093.75,"y":2547708.7700000014}},{"attributes":{"ID":205801,"DIS_CODE":0,"TOWNNAME":"永康區","LI":"永康里","LIN":"25鄰","STREET":"埔聖街","SECT":" ","MAREA":" ","LANE":"８７巷","ALLEY":"２３弄","HOUSE_NO":"３２號","E_COORD97":174091.63,"N_COORD97":2547713.1499999999,"ADDRESS":"埔聖街８７巷２３弄３２號","OBJECTID":205800},"geometry":{"x":174091.63000000082,"y":2547713.1500000022}}]}