{"displayFieldName":"TOWNNAME","fieldAliases":{"ID":"ID","DIS_CODE":"DIS_CODE","TOWNNAME":"TOWNNAME","LI":"LI","LIN":"LIN","STREET":"STREET","SECT":"SECT","MAREA":"MAREA","LANE":"LANE","ALLEY":"ALLEY","HOUSE_NO":"HOUSE_NO","E_COORD97":"E_COORD97","N_COORD97":"N_COORD97","ADDRESS":"ADDRESS","OBJECTID":"OBJECTID"},"geometryType":"esriGeometryPoint","spatialReference":{"wkid":102443,"latestWkid":3826},"fields":[{"name":"ID","type":"esriFieldTypeDouble","alias":"ID"},{"name":"DIS_CODE","type":"esriFieldTypeInteger","alias":"DIS_CODE"},{"name":"TOWNNAME","type":"esriFieldTypeString","alias":"TOWNNAME","length":8},{"name":"LI","type":"esriFieldTypeString","alias":"LI","length":8},{"name":"LIN","type":"esriFieldTypeString","alias":"LIN","length":12},{"name":"STREET","type":"esriFieldTypeString","alias":"STREET","length":20},{"name":"SECT","type":"esriFieldTypeString","alias":"SECT","length":8},{"name":"MAREA","type":"esriFieldTypeString","alias":"MAREA","length":12},{"name":"LANE","type":"esriFieldTypeString","alias":"LANE","length":10},{"name":"ALLEY","type":"esriFieldTypeString","alias":"ALLEY","length":10},{"name":"HOUSE_NO","type":"esriFieldTypeString","alias":"HOUSE_NO","length":20},{"name":"E_COORD97","type":"esriFieldTypeDouble","alias":"E_COORD97"},{"name":"N_COORD97","type":"esriFieldTypeDouble","alias":"N_COORD97"},{"name":"ADDRESS","type":"esriFieldTypeString","alias":"ADDRESS","length":50},{"name":"OBJECTID","type":"esriFieldTypeOID","alias":"OBJECTID"}],"features":[{"attributes":{"ID":435226,"DIS_CODE":0,"TOWNNAME":"關廟區","LI":"北勢里","LIN":"20鄰","STREET":"中正路","SECT":" ","MAREA":" ","LANE":"９０８巷","ALLEY":" ","HOUSE_NO":"３６號","E_COORD97":181248.51000000001,"N_COORD97":2540381.25,"ADDRESS":"中正路９０８巷３６號","OBJECTID":435201},"geometry":{"x":181248.50999999978,"y":2540381.2500000037}},{"attributes":{"ID":435227,"DIS_CODE":0,"TOWNNAME":"關廟區","LI":"五甲里","LIN":"13鄰","STREET":"光復街","SECT":" ","MAREA":" ","LANE":"６３巷","ALLEY":" ","HOUSE_NO":"２０號","E_COORD97":181458.44,"N_COORD97":2539309.2799999998,"ADDRESS":"光復街６３巷２０號","OBJECTID":435202},"geometry":{"x":181458.44000000041,"y":2539309.2800000031}},{"attributes":{"ID":435228,"DIS_CODE":0,"TOWNNAME":"關廟區","LI":"北花里","LIN":"4鄰","STREET":"四維街","SECT":" ","MAREA":" ","LANE":"３８８巷","ALLEY":" ","HOUSE_NO":"２６號","E_COORD97":181965.91,"N_COORD97":2540290.25,"ADDRESS":"四維街３８８巷２６號","OBJECTID":435203},"geometry":{"x":181965.91000000108,"y":2540290.2500000019}},{"attributes":{"ID":435229,"DIS_CODE":0,"TOWNNAME":"關廟區","LI":"深坑里","LIN":"13鄰","STREET":"南雄路","SECT":"一段","MAREA":" ","LANE":"９８巷","ALLEY":" ","HOUSE_NO":"２１５號","E_COORD97":183054.67000000001,"N_COORD97":2536972.2999999998,"ADDRESS":"南雄路一段９８巷２１５號","OBJECTID":435204},"geometry":{"x":183054.66999999993,"y":2536972.3000000026}},{"attributes":{"ID":435230,"DIS_CODE":0,"TOWNNAME":"關廟區","LI":"五甲里","LIN":"13鄰","STREET":"光復街","SECT":" ","MAREA":" ","LANE":"６３巷","ALLEY":" ","HOUSE_NO":"５２號","E_COORD97":181402.04000000001,"N_COORD97":2539332.2799999998,"ADDRESS":"光復街６３巷５２號","OBJECTID":435205},"geometry":{"x":181402.04000000097,"y":2539332.2799999993}},{"attributes":{"ID":435231,"DIS_CODE":0,"TOWNNAME":"關廟區","LI":"埤頭里","LIN":"4鄰","STREET":"保東路","SECT":" ","MAREA":" ","LANE":"１１５巷","ALLEY":" ","HOUSE_NO":"１４８號","E_COORD97":178789.51999999999,"N_COORD97":2543911.2999999998,"ADDRESS":"保東路１１５巷１４８號","OBJECTID":435206},"geometry":{"x":178789.52000000048,"y":2543911.3000000045}},{"attributes":{"ID":435232,"DIS_CODE":0,"TOWNNAME":"關廟區","LI":"埤頭里","LIN":"4鄰","STREET":"保東路","SECT":" ","MAREA":" ","LANE":"１１５巷","ALLEY":" ","HOUSE_NO":"１６６號","E_COORD97":178778.01999999999,"N_COORD97":2543891.2999999998,"ADDRESS":"保東路１１５巷１６６號","OBJECTID":435207},"geometry":{"x":178778.01999999955,"y":2543891.3000000026}},{"attributes":{"ID":435233,"DIS_CODE":0,"TOWNNAME":"關廟區","LI":"南花里","LIN":"4鄰","STREET":"花園一街","SECT":" ","MAREA":" ","LANE":"７１巷","ALLEY":" ","HOUSE_NO":"１８號","E_COORD97":181964.48999999999,"N_COORD97":2540100.25,"ADDRESS":"花園一街７１巷１８號","OBJECTID":435208},"geometry":{"x":181964.49000000022,"y":2540100.2500000019}},{"attributes":{"ID":435234,"DIS_CODE":0,"TOWNNAME":"關廟區","LI":"深坑里","LIN":"5鄰","STREET":"深坑一街","SECT":" ","MAREA":" ","LANE":"１３巷","ALLEY":" ","HOUSE_NO":"５８號","E_COORD97":181808.57000000001,"N_COORD97":2537728.2799999998,"ADDRESS":"深坑一街１３巷５８號","OBJECTID":435209},"geometry":{"x":181808.57000000216,"y":2537728.2799999993}},{"attributes":{"ID":435235,"DIS_CODE":0,"TOWNNAME":"關廟區","LI":"北花里","LIN":"18鄰","STREET":"中正路","SECT":" ","MAREA":" ","LANE":"５６７巷","ALLEY":" ","HOUSE_NO":"１９號","E_COORD97":182342.63,"N_COORD97":2540419.4700000002,"ADDRESS":"中正路５６７巷１９號","OBJECTID":435210},"geometry":{"x":182342.62999999989,"y":2540419.4700000025}},{"attributes":{"ID":435236,"DIS_CODE":0,"TOWNNAME":"關廟區","LI":"五甲里","LIN":"13鄰","STREET":"光復街","SECT":" ","MAREA":" ","LANE":"６３巷","ALLEY":" ","HOUSE_NO":"２８號","E_COORD97":181441.14000000001,"N_COORD97":2539313.2799999998,"ADDRESS":"光復街６３巷２８號","OBJECTID":435211},"geometry":{"x":181441.13999999873,"y":2539313.2800000012}},{"attributes":{"ID":435237,"DIS_CODE":0,"TOWNNAME":"關廟區","LI":"南花里","LIN":"13鄰","STREET":"花園一街","SECT":" ","MAREA":" ","LANE":"２０２巷","ALLEY":" ","HOUSE_NO":"１６號","E_COORD97":181650.54000000001,"N_COORD97":2540199.25,"ADDRESS":"花園一街２０２巷１６號","OBJECTID":435212},"geometry":{"x":181650.54000000004,"y":2540199.2500000019}},{"attributes":{"ID":435238,"DIS_CODE":0,"TOWNNAME":"關廟區","LI":"埤頭里","LIN":"4鄰","STREET":"保東路","SECT":" ","MAREA":" ","LANE":"１１５巷","ALLEY":" ","HOUSE_NO":"１５２號","E_COORD97":178781.82000000001,"N_COORD97":2543911.2999999998,"ADDRESS":"保東路１１５巷１５２號","OBJECTID":435213},"geometry":{"x":178781.8200000003,"y":2543911.3000000045}},{"attributes":{"ID":435239,"DIS_CODE":0,"TOWNNAME":"關廟區","LI":"松腳里","LIN":"4鄰","STREET":"旺萊路","SECT":" ","MAREA":" ","LANE":"３４３巷","ALLEY":" ","HOUSE_NO":"１２號","E_COORD97":182084.59,"N_COORD97":2539761.25,"ADDRESS":"旺萊路３４３巷１２號","OBJECTID":435214},"geometry":{"x":182084.59000000078,"y":2539761.2500000019}},{"attributes":{"ID":435240,"DIS_CODE":0,"TOWNNAME":"關廟區","LI":"埤頭里","LIN":"4鄰","STREET":"保東路","SECT":" ","MAREA":" ","LANE":"１１５巷","ALLEY":" ","HOUSE_NO":"１４６號","E_COORD97":178764.22,"N_COORD97":2543922.2999999998,"ADDRESS":"保東路１１５巷１４６號","OBJECTID":435215},"geometry":{"x":178764.2200000016,"y":2543922.3000000026}},{"attributes":{"ID":435241,"DIS_CODE":0,"TOWNNAME":"關廟區","LI":"東勢里","LIN":"25鄰","STREET":"光復街","SECT":" ","MAREA":" ","LANE":"１４２巷","ALLEY":" ","HOUSE_NO":"１７號","E_COORD97":181551.48999999999,"N_COORD97":2539491.2799999998,"ADDRESS":"光復街１４２巷１７號","OBJECTID":435216},"geometry":{"x":181551.49000000209,"y":2539491.2799999993}},{"attributes":{"ID":435242,"DIS_CODE":0,"TOWNNAME":"關廟區","LI":"深坑里","LIN":"13鄰","STREET":"深坑一街","SECT":" ","MAREA":" ","LANE":"１７２巷","ALLEY":" ","HOUSE_NO":"１００號","E_COORD97":182807.82000000001,"N_COORD97":2537339.2999999998,"ADDRESS":"深坑一街１７２巷１００號","OBJECTID":435217},"geometry":{"x":182807.82000000123,"y":2537339.3000000007}},{"attributes":{"ID":435243,"DIS_CODE":0,"TOWNNAME":"關廟區","LI":"香洋里","LIN":"4鄰","STREET":"成功路","SECT":" ","MAREA":" ","LANE":"３７５巷","ALLEY":" ","HOUSE_NO":"２８號","E_COORD97":181209.51999999999,"N_COORD97":2540408.27,"ADDRESS":"成功路３７５巷２８號","OBJECTID":435218},"geometry":{"x":181209.51999999955,"y":2540408.2700000014}},{"attributes":{"ID":435244,"DIS_CODE":0,"TOWNNAME":"關廟區","LI":"深坑里","LIN":"4鄰","STREET":"深坑三街","SECT":" ","MAREA":" ","LANE":"８１巷","ALLEY":" ","HOUSE_NO":"１１號","E_COORD97":181930.26999999999,"N_COORD97":2537660.2799999998,"ADDRESS":"深坑三街８１巷１１號","OBJECTID":435219},"geometry":{"x":181930.27000000142,"y":2537660.2799999993}},{"attributes":{"ID":435245,"DIS_CODE":0,"TOWNNAME":"關廟區","LI":"五甲里","LIN":"20鄰","STREET":"五智街","SECT":" ","MAREA":" ","LANE":"５０巷","ALLEY":" ","HOUSE_NO":"１１號","E_COORD97":181170.17000000001,"N_COORD97":2539186.25,"ADDRESS":"五智街５０巷１１號","OBJECTID":435220},"geometry":{"x":181170.17000000179,"y":2539186.25}},{"attributes":{"ID":435246,"DIS_CODE":0,"TOWNNAME":"關廟區","LI":"南花里","LIN":"13鄰","STREET":"花園一街","SECT":" ","MAREA":" ","LANE":"１６２巷","ALLEY":" ","HOUSE_NO":"９號","E_COORD97":181718.79000000001,"N_COORD97":2540198.25,"ADDRESS":"花園一街１６２巷９號","OBJECTID":435221},"geometry":{"x":181718.79000000097,"y":2540198.2500000037}},{"attributes":{"ID":435247,"DIS_CODE":0,"TOWNNAME":"關廟區","LI":"埤頭里","LIN":"4鄰","STREET":"保東路","SECT":" ","MAREA":" ","LANE":"１１５巷","ALLEY":" ","HOUSE_NO":"１６０號","E_COORD97":178768.82000000001,"N_COORD97":2543911.2999999998,"ADDRESS":"保東路１１５巷１６０號","OBJECTID":435222},"geometry":{"x":178768.8200000003,"y":2543911.3000000045}},{"attributes":{"ID":435248,"DIS_CODE":0,"TOWNNAME":"關廟區","LI":"北花里","LIN":"18鄰","STREET":"中正路","SECT":" ","MAREA":" ","LANE":"５６７巷","ALLEY":" ","HOUSE_NO":"１５號","E_COORD97":182334.92999999999,"N_COORD97":2540422.4700000002,"ADDRESS":"中正路５６７巷１５號","OBJECTID":435223},"geometry":{"x":182334.93000000063,"y":2540422.4700000025}},{"attributes":{"ID":435249,"DIS_CODE":0,"TOWNNAME":"關廟區","LI":"北花里","LIN":"13鄰","STREET":"中正路","SECT":" ","MAREA":" ","LANE":"２６５巷","ALLEY":" ","HOUSE_NO":"１２０號","E_COORD97":183185.48000000001,"N_COORD97":2540646.73,"ADDRESS":"中正路２６５巷１２０號","OBJECTID":435224},"geometry":{"x":183185.48000000045,"y":2540646.7300000023}},{"attributes":{"ID":435250,"DIS_CODE":0,"TOWNNAME":"關廟區","LI":"松腳里","LIN":"4鄰","STREET":"旺萊路","SECT":" ","MAREA":" ","LANE":"３４３巷","ALLEY":" ","HOUSE_NO":"８號","E_COORD97":182093.34,"N_COORD97":2539761.25,"ADDRESS":"旺萊路３４３巷８號","OBJECTID":435225},"geometry":{"x":182093.34000000078,"y":2539761.2500000019}},{"attributes":{"ID":435251,"DIS_CODE":0,"TOWNNAME":"關廟區","LI":"深坑里","LIN":"13鄰","STREET":"南雄路","SECT":"一段","MAREA":" ","LANE":"９８巷","ALLEY":" ","HOUSE_NO":"２１２號","E_COORD97":183026.22,"N_COORD97":2537070.2999999998,"ADDRESS":"南雄路一段９８巷２１２號","OBJECTID":435226},"geometry":{"x":183026.22000000067,"y":2537070.3000000026}},{"attributes":{"ID":435252,"DIS_CODE":0,"TOWNNAME":"關廟區","LI":"深坑里","LIN":"4鄰","STREET":"深坑一街","SECT":" ","MAREA":" ","LANE":"２９巷","ALLEY":" ","HOUSE_NO":"２號","E_COORD97":181946.97,"N_COORD97":2537590.2999999998,"ADDRESS":"深坑一街２９巷２號","OBJECTID":435227},"geometry":{"x":181946.96999999974,"y":2537590.3000000007}},{"attributes":{"ID":435253,"DIS_CODE":0,"TOWNNAME":"關廟區","LI":"深坑里","LIN":"13鄰","STREET":"南雄路","SECT":"一段","MAREA":" ","LANE":"９８巷","ALLEY":" ","HOUSE_NO":"２００號","E_COORD97":182940.42000000001,"N_COORD97":2537045.2799999998,"ADDRESS":"南雄路一段９８巷２００號","OBJECTID":435228},"geometry":{"x":182940.42000000086,"y":2537045.2800000012}},{"attributes":{"ID":435254,"DIS_CODE":0,"TOWNNAME":"關廟區","LI":"關廟里","LIN":"13鄰","STREET":"大仁街","SECT":" ","MAREA":" ","LANE":"１２５巷","ALLEY":" ","HOUSE_NO":"１號","E_COORD97":181026.67000000001,"N_COORD97":2539365.25,"ADDRESS":"大仁街１２５巷１號","OBJECTID":435229},"geometry":{"x":181026.67000000086,"y":2539365.2500000019}},{"attributes":{"ID":435255,"DIS_CODE":0,"TOWNNAME":"關廟區","LI":"五甲里","LIN":"13鄰","STREET":"光復街","SECT":" ","MAREA":" ","LANE":"６３巷","ALLEY":" ","HOUSE_NO":"１２號","E_COORD97":181469.64000000001,"N_COORD97":2539304.2799999998,"ADDRESS":"光復街６３巷１２號","OBJECTID":435230},"geometry":{"x":181469.63999999966,"y":2539304.2799999993}},{"attributes":{"ID":435256,"DIS_CODE":0,"TOWNNAME":"關廟區","LI":"深坑里","LIN":"13鄰","STREET":"南雄路","SECT":"一段","MAREA":" ","LANE":"５５巷","ALLEY":" ","HOUSE_NO":"５５號","E_COORD97":182224.32000000001,"N_COORD97":2536697.2999999998,"ADDRESS":"南雄路一段５５巷５５號","OBJECTID":435231},"geometry":{"x":182224.32000000123,"y":2536697.3000000026}},{"attributes":{"ID":435257,"DIS_CODE":0,"TOWNNAME":"關廟區","LI":"埤頭里","LIN":"4鄰","STREET":"保東路","SECT":" ","MAREA":" ","LANE":"８５巷","ALLEY":" ","HOUSE_NO":"１８號","E_COORD97":178897.07000000001,"N_COORD97":2543980.2999999998,"ADDRESS":"保東路８５巷１８號","OBJECTID":435232},"geometry":{"x":178897.07000000123,"y":2543980.3000000026}},{"attributes":{"ID":435258,"DIS_CODE":0,"TOWNNAME":"關廟區","LI":"五甲里","LIN":"18鄰","STREET":"五權街","SECT":" ","MAREA":" ","LANE":"２巷","ALLEY":" ","HOUSE_NO":"８２號","E_COORD97":180926.01999999999,"N_COORD97":2539106.25,"ADDRESS":"五權街２巷８２號","OBJECTID":435233},"geometry":{"x":180926.01999999955,"y":2539106.2499999981}},{"attributes":{"ID":435259,"DIS_CODE":0,"TOWNNAME":"關廟區","LI":"南花里","LIN":"4鄰","STREET":"花園一街","SECT":" ","MAREA":" ","LANE":"８９巷","ALLEY":" ","HOUSE_NO":"５號","E_COORD97":181930.64000000001,"N_COORD97":2540132.25,"ADDRESS":"花園一街８９巷５號","OBJECTID":435234},"geometry":{"x":181930.63999999966,"y":2540132.25}},{"attributes":{"ID":435260,"DIS_CODE":0,"TOWNNAME":"關廟區","LI":"松腳里","LIN":"4鄰","STREET":"旺萊路","SECT":" ","MAREA":" ","LANE":"３４３巷","ALLEY":" ","HOUSE_NO":"２０號","E_COORD97":182068.09,"N_COORD97":2539761.25,"ADDRESS":"旺萊路３４３巷２０號","OBJECTID":435235},"geometry":{"x":182068.09000000078,"y":2539761.2500000019}},{"attributes":{"ID":435261,"DIS_CODE":0,"TOWNNAME":"關廟區","LI":"香洋里","LIN":"26鄰","STREET":"民權街","SECT":" ","MAREA":" ","LANE":"２２８巷","ALLEY":" ","HOUSE_NO":"３３號","E_COORD97":181122.23999999999,"N_COORD97":2539851.29,"ADDRESS":"民權街２２８巷３３號","OBJECTID":435236},"geometry":{"x":181122.24000000022,"y":2539851.2900000028}},{"attributes":{"ID":435262,"DIS_CODE":0,"TOWNNAME":"關廟區","LI":"香洋里","LIN":"25鄰","STREET":"南雄路","SECT":"一段","MAREA":" ","LANE":"１１５９巷","ALLEY":" ","HOUSE_NO":"２號","E_COORD97":181052.23000000001,"N_COORD97":2539944.9399999999,"ADDRESS":"南雄路一段１１５９巷２號","OBJECTID":435237},"geometry":{"x":181052.23000000138,"y":2539944.9399999995}},{"attributes":{"ID":435263,"DIS_CODE":0,"TOWNNAME":"關廟區","LI":"北勢里","LIN":"20鄰","STREET":"成功路","SECT":" ","MAREA":" ","LANE":"３２９巷","ALLEY":" ","HOUSE_NO":"１０號","E_COORD97":181307.72,"N_COORD97":2540463.27,"ADDRESS":"成功路３２９巷１０號","OBJECTID":435238},"geometry":{"x":181307.72000000067,"y":2540463.2700000014}},{"attributes":{"ID":435264,"DIS_CODE":0,"TOWNNAME":"關廟區","LI":"五甲里","LIN":"13鄰","STREET":"光復街","SECT":" ","MAREA":" ","LANE":"６３巷","ALLEY":" ","HOUSE_NO":"２２號","E_COORD97":181451.94,"N_COORD97":2539308.2799999998,"ADDRESS":"光復街６３巷２２號","OBJECTID":435239},"geometry":{"x":181451.94000000227,"y":2539308.2799999993}},{"attributes":{"ID":435265,"DIS_CODE":0,"TOWNNAME":"關廟區","LI":"香洋里","LIN":"20鄰","STREET":"中山路","SECT":"一段","MAREA":" ","LANE":"４４２巷","ALLEY":" ","HOUSE_NO":"９號","E_COORD97":181462.85999999999,"N_COORD97":2539939.2799999998,"ADDRESS":"中山路一段４４２巷９號","OBJECTID":435240},"geometry":{"x":181462.86000000127,"y":2539939.2799999993}},{"attributes":{"ID":435266,"DIS_CODE":0,"TOWNNAME":"關廟區","LI":"五甲里","LIN":"13鄰","STREET":"光復街","SECT":" ","MAREA":" ","LANE":"９１巷","ALLEY":" ","HOUSE_NO":"１５號","E_COORD97":181460.44,"N_COORD97":2539352.2799999998,"ADDRESS":"光復街９１巷１５號","OBJECTID":435241},"geometry":{"x":181460.44000000227,"y":2539352.2799999993}},{"attributes":{"ID":435267,"DIS_CODE":0,"TOWNNAME":"關廟區","LI":"松腳里","LIN":"4鄰","STREET":"旺萊路","SECT":" ","MAREA":" ","LANE":"４６６巷","ALLEY":" ","HOUSE_NO":"２１號","E_COORD97":183312.19,"N_COORD97":2539926.25,"ADDRESS":"旺萊路４６６巷２１號","OBJECTID":435242},"geometry":{"x":183312.19000000134,"y":2539926.25}},{"attributes":{"ID":435268,"DIS_CODE":0,"TOWNNAME":"關廟區","LI":"北花里","LIN":"20鄰","STREET":"中正路","SECT":" ","MAREA":" ","LANE":"１１３巷","ALLEY":" ","HOUSE_NO":"５號","E_COORD97":183596.81,"N_COORD97":2540887.6200000001,"ADDRESS":"中正路１１３巷５號","OBJECTID":435243},"geometry":{"x":183596.81000000052,"y":2540887.620000001}},{"attributes":{"ID":435269,"DIS_CODE":0,"TOWNNAME":"關廟區","LI":"香洋里","LIN":"26鄰","STREET":"民權街","SECT":" ","MAREA":" ","LANE":"２２８巷","ALLEY":" ","HOUSE_NO":"３８號","E_COORD97":181136.44,"N_COORD97":2539845.29,"ADDRESS":"民權街２２８巷３８號","OBJECTID":435244},"geometry":{"x":181136.43999999948,"y":2539845.290000001}},{"attributes":{"ID":435270,"DIS_CODE":0,"TOWNNAME":"關廟區","LI":"香洋里","LIN":"25鄰","STREET":"南雄路","SECT":"一段","MAREA":" ","LANE":"１１５９巷","ALLEY":" ","HOUSE_NO":"２０號","E_COORD97":181030.78,"N_COORD97":2539953.9399999999,"ADDRESS":"南雄路一段１１５９巷２０號","OBJECTID":435245},"geometry":{"x":181030.78000000212,"y":2539953.9400000013}},{"attributes":{"ID":435271,"DIS_CODE":0,"TOWNNAME":"關廟區","LI":"深坑里","LIN":"13鄰","STREET":"南雄路","SECT":"一段","MAREA":" ","LANE":"５５巷","ALLEY":" ","HOUSE_NO":"３０號","E_COORD97":182273.57000000001,"N_COORD97":2536752.2999999998,"ADDRESS":"南雄路一段５５巷３０號","OBJECTID":435246},"geometry":{"x":182273.57000000123,"y":2536752.3000000026}},{"attributes":{"ID":435272,"DIS_CODE":0,"TOWNNAME":"關廟區","LI":"松腳里","LIN":"4鄰","STREET":"旺萊路","SECT":" ","MAREA":" ","LANE":"４６６巷","ALLEY":" ","HOUSE_NO":"１號","E_COORD97":182992.34,"N_COORD97":2539731.25,"ADDRESS":"旺萊路４６６巷１號","OBJECTID":435247},"geometry":{"x":182992.33999999985,"y":2539731.2500000019}},{"attributes":{"ID":435273,"DIS_CODE":0,"TOWNNAME":"關廟區","LI":"香洋里","LIN":"26鄰","STREET":"民權街","SECT":" ","MAREA":" ","LANE":"２２８巷","ALLEY":" ","HOUSE_NO":"４１號","E_COORD97":181118.84,"N_COORD97":2539874.29,"ADDRESS":"民權街２２８巷４１號","OBJECTID":435248},"geometry":{"x":181118.84000000078,"y":2539874.2899999991}},{"attributes":{"ID":435274,"DIS_CODE":0,"TOWNNAME":"關廟區","LI":"五甲里","LIN":"18鄰","STREET":"五權街","SECT":" ","MAREA":" ","LANE":"２巷","ALLEY":" ","HOUSE_NO":"６２號","E_COORD97":180955.92000000001,"N_COORD97":2539118.25,"ADDRESS":"五權街２巷６２號","OBJECTID":435249},"geometry":{"x":180955.91999999993,"y":2539118.2500000019}},{"attributes":{"ID":435275,"DIS_CODE":0,"TOWNNAME":"關廟區","LI":"香洋里","LIN":"20鄰","STREET":"中山路","SECT":"一段","MAREA":" ","LANE":"４４２巷","ALLEY":" ","HOUSE_NO":"３號","E_COORD97":181448.56,"N_COORD97":2539920.2799999998,"ADDRESS":"中山路一段４４２巷３號","OBJECTID":435250},"geometry":{"x":181448.56000000145,"y":2539920.2800000012}},{"attributes":{"ID":435276,"DIS_CODE":0,"TOWNNAME":"關廟區","LI":"北花里","LIN":"20鄰","STREET":"中正路","SECT":" ","MAREA":" ","LANE":"１１３巷","ALLEY":" ","HOUSE_NO":"１１號","E_COORD97":183599.56,"N_COORD97":2540875.6200000001,"ADDRESS":"中正路１１３巷１１號","OBJECTID":435251},"geometry":{"x":183599.55999999959,"y":2540875.6200000029}},{"attributes":{"ID":435277,"DIS_CODE":0,"TOWNNAME":"關廟區","LI":"南花里","LIN":"13鄰","STREET":"花園一街","SECT":" ","MAREA":" ","LANE":"２０２巷","ALLEY":" ","HOUSE_NO":"２６號","E_COORD97":181664.04000000001,"N_COORD97":2540218.25,"ADDRESS":"花園一街２０２巷２６號","OBJECTID":435252},"geometry":{"x":181664.04000000004,"y":2540218.25}},{"attributes":{"ID":435278,"DIS_CODE":0,"TOWNNAME":"關廟區","LI":"關廟里","LIN":"13鄰","STREET":"大仁街","SECT":" ","MAREA":" ","LANE":"１３０巷","ALLEY":" ","HOUSE_NO":"１６號","E_COORD97":181012.92000000001,"N_COORD97":2539438.25,"ADDRESS":"大仁街１３０巷１６號","OBJECTID":435253},"geometry":{"x":181012.92000000086,"y":2539438.25}},{"attributes":{"ID":435279,"DIS_CODE":0,"TOWNNAME":"關廟區","LI":"松腳里","LIN":"14鄰","STREET":"東興路","SECT":" ","MAREA":" ","LANE":"２５１巷","ALLEY":" ","HOUSE_NO":"１６號","E_COORD97":181875.42000000001,"N_COORD97":2539605.25,"ADDRESS":"東興路２５１巷１６號","OBJECTID":435254},"geometry":{"x":181875.42000000179,"y":2539605.2500000019}},{"attributes":{"ID":435280,"DIS_CODE":0,"TOWNNAME":"關廟區","LI":"龜洞里","LIN":"4鄰","STREET":"南雄南路","SECT":" ","MAREA":" ","LANE":"８５２巷","ALLEY":" ","HOUSE_NO":"３號","E_COORD97":182722.23999999999,"N_COORD97":2533186.2999999998,"ADDRESS":"南雄南路８５２巷３號","OBJECTID":435255},"geometry":{"x":182722.24000000022,"y":2533186.3000000007}},{"attributes":{"ID":435281,"DIS_CODE":0,"TOWNNAME":"關廟區","LI":"埤頭里","LIN":"4鄰","STREET":"保東路","SECT":" ","MAREA":" ","LANE":"１１５巷","ALLEY":" ","HOUSE_NO":"１５８號","E_COORD97":178773.72,"N_COORD97":2543911.2999999998,"ADDRESS":"保東路１１５巷１５８號","OBJECTID":435256},"geometry":{"x":178773.71999999974,"y":2543911.3000000045}},{"attributes":{"ID":435282,"DIS_CODE":0,"TOWNNAME":"關廟區","LI":"田中里","LIN":"4鄰","STREET":"南雄南路","SECT":" ","MAREA":" ","LANE":"５１５巷","ALLEY":" ","HOUSE_NO":"２５號","E_COORD97":183995.29000000001,"N_COORD97":2533830.25,"ADDRESS":"南雄南路５１５巷２５號","OBJECTID":435257},"geometry":{"x":183995.2900000019,"y":2533830.25}},{"attributes":{"ID":435283,"DIS_CODE":0,"TOWNNAME":"關廟區","LI":"埤頭里","LIN":"4鄰","STREET":"保東路","SECT":" ","MAREA":" ","LANE":"８５巷","ALLEY":" ","HOUSE_NO":"２２號","E_COORD97":178909.76999999999,"N_COORD97":2543983.2999999998,"ADDRESS":"保東路８５巷２２號","OBJECTID":435258},"geometry":{"x":178909.77000000048,"y":2543983.3000000026}},{"attributes":{"ID":435284,"DIS_CODE":0,"TOWNNAME":"關廟區","LI":"松腳里","LIN":"13鄰","STREET":"東興路","SECT":" ","MAREA":" ","LANE":"２０５巷","ALLEY":" ","HOUSE_NO":"３號","E_COORD97":181715.67000000001,"N_COORD97":2539598.25,"ADDRESS":"東興路２０５巷３號","OBJECTID":435259},"geometry":{"x":181715.66999999993,"y":2539598.2500000037}},{"attributes":{"ID":435285,"DIS_CODE":0,"TOWNNAME":"關廟區","LI":"埤頭里","LIN":"4鄰","STREET":"保東路","SECT":" ","MAREA":" ","LANE":"１１５巷","ALLEY":" ","HOUSE_NO":"１６２號","E_COORD97":178783.01999999999,"N_COORD97":2543893.2999999998,"ADDRESS":"保東路１１５巷１６２號","OBJECTID":435260},"geometry":{"x":178783.02000000048,"y":2543893.3000000007}},{"attributes":{"ID":435286,"DIS_CODE":0,"TOWNNAME":"關廟區","LI":"北花里","LIN":"20鄰","STREET":"中正路","SECT":" ","MAREA":" ","LANE":"１１３巷","ALLEY":" ","HOUSE_NO":"３６號","E_COORD97":183592.26000000001,"N_COORD97":2540826.6200000001,"ADDRESS":"中正路１１３巷３６號","OBJECTID":435261},"geometry":{"x":183592.26000000071,"y":2540826.620000001}},{"attributes":{"ID":435287,"DIS_CODE":0,"TOWNNAME":"關廟區","LI":"東勢里","LIN":"26鄰","STREET":"東安街","SECT":" ","MAREA":" ","LANE":"９５巷","ALLEY":" ","HOUSE_NO":"２號","E_COORD97":181457.62,"N_COORD97":2539659.3199999998,"ADDRESS":"東安街９５巷２號","OBJECTID":435262},"geometry":{"x":181457.62000000104,"y":2539659.3200000022}},{"attributes":{"ID":435288,"DIS_CODE":0,"TOWNNAME":"關廟區","LI":"南花里","LIN":"13鄰","STREET":"花園一街","SECT":" ","MAREA":" ","LANE":"１６２巷","ALLEY":" ","HOUSE_NO":"１７號","E_COORD97":181709.34,"N_COORD97":2540217.25,"ADDRESS":"花園一街１６２巷１７號","OBJECTID":435263},"geometry":{"x":181709.33999999985,"y":2540217.25}},{"attributes":{"ID":435289,"DIS_CODE":0,"TOWNNAME":"關廟區","LI":"南花里","LIN":"4鄰","STREET":"園東街","SECT":" ","MAREA":" ","LANE":"５１巷","ALLEY":" ","HOUSE_NO":"１８號","E_COORD97":182033.41,"N_COORD97":2540021.25,"ADDRESS":"園東街５１巷１８號","OBJECTID":435264},"geometry":{"x":182033.41000000108,"y":2540021.25}},{"attributes":{"ID":435290,"DIS_CODE":0,"TOWNNAME":"關廟區","LI":"埤頭里","LIN":"4鄰","STREET":"保東路","SECT":" ","MAREA":" ","LANE":"８５巷","ALLEY":" ","HOUSE_NO":"２６號","E_COORD97":178914.76999999999,"N_COORD97":2543984.2999999998,"ADDRESS":"保東路８５巷２６號","OBJECTID":435265},"geometry":{"x":178914.77000000048,"y":2543984.3000000007}},{"attributes":{"ID":435291,"DIS_CODE":0,"TOWNNAME":"關廟區","LI":"南花里","LIN":"4鄰","STREET":"園東街","SECT":" ","MAREA":" ","LANE":"１巷","ALLEY":" ","HOUSE_NO":"５號","E_COORD97":182128.01000000001,"N_COORD97":2540047.25,"ADDRESS":"園東街１巷５號","OBJECTID":435266},"geometry":{"x":182128.00999999978,"y":2540047.2500000019}},{"attributes":{"ID":435292,"DIS_CODE":0,"TOWNNAME":"關廟區","LI":"北勢里","LIN":"20鄰","STREET":"成功路","SECT":" ","MAREA":" ","LANE":"３２９巷","ALLEY":" ","HOUSE_NO":"８號","E_COORD97":181308.07000000001,"N_COORD97":2540467.27,"ADDRESS":"成功路３２９巷８號","OBJECTID":435267},"geometry":{"x":181308.0700000003,"y":2540467.2699999996}},{"attributes":{"ID":435293,"DIS_CODE":0,"TOWNNAME":"關廟區","LI":"北花里","LIN":"20鄰","STREET":"中正路","SECT":" ","MAREA":" ","LANE":"１１３巷","ALLEY":" ","HOUSE_NO":"２７號","E_COORD97":183607.66,"N_COORD97":2540839.6200000001,"ADDRESS":"中正路１１３巷２７號","OBJECTID":435268},"geometry":{"x":183607.66000000015,"y":2540839.620000001}},{"attributes":{"ID":435294,"DIS_CODE":0,"TOWNNAME":"關廟區","LI":"北花里","LIN":"20鄰","STREET":"中正路","SECT":" ","MAREA":" ","LANE":"１１３巷","ALLEY":" ","HOUSE_NO":"６號","E_COORD97":183586.10999999999,"N_COORD97":2540895.6200000001,"ADDRESS":"中正路１１３巷６號","OBJECTID":435269},"geometry":{"x":183586.11000000034,"y":2540895.6200000029}},{"attributes":{"ID":435295,"DIS_CODE":0,"TOWNNAME":"關廟區","LI":"東勢里","LIN":"7鄰","STREET":"旺萊路","SECT":" ","MAREA":" ","LANE":"１３９巷","ALLEY":" ","HOUSE_NO":"６號","E_COORD97":181788.54000000001,"N_COORD97":2539335.25,"ADDRESS":"旺萊路１３９巷６號","OBJECTID":435270},"geometry":{"x":181788.54000000097,"y":2539335.2500000019}},{"attributes":{"ID":435296,"DIS_CODE":0,"TOWNNAME":"關廟區","LI":"五甲里","LIN":"7鄰","STREET":"五慧街","SECT":" ","MAREA":" ","LANE":"１６巷","ALLEY":" ","HOUSE_NO":"１６號","E_COORD97":181220.47,"N_COORD97":2539308.25,"ADDRESS":"五慧街１６巷１６號","OBJECTID":435271},"geometry":{"x":181220.4700000016,"y":2539308.25}},{"attributes":{"ID":435297,"DIS_CODE":0,"TOWNNAME":"關廟區","LI":"埤頭里","LIN":"4鄰","STREET":"保東路","SECT":" ","MAREA":" ","LANE":"１１５巷","ALLEY":" ","HOUSE_NO":"１５６號","E_COORD97":178777.22,"N_COORD97":2543911.2999999998,"ADDRESS":"保東路１１５巷１５６號","OBJECTID":435272},"geometry":{"x":178777.21999999974,"y":2543911.3000000045}},{"attributes":{"ID":435298,"DIS_CODE":0,"TOWNNAME":"關廟區","LI":"松腳里","LIN":"18鄰","STREET":"中山路","SECT":"一段","MAREA":" ","LANE":"８９巷","ALLEY":" ","HOUSE_NO":"３１號","E_COORD97":181933.76000000001,"N_COORD97":2539864.2799999998,"ADDRESS":"中山路一段８９巷３１號","OBJECTID":435273},"geometry":{"x":181933.75999999885,"y":2539864.2799999993}},{"attributes":{"ID":435299,"DIS_CODE":0,"TOWNNAME":"關廟區","LI":"北花里","LIN":"20鄰","STREET":"中正路","SECT":" ","MAREA":" ","LANE":"１１３巷","ALLEY":" ","HOUSE_NO":"９號","E_COORD97":183598.01000000001,"N_COORD97":2540879.6200000001,"ADDRESS":"中正路１１３巷９號","OBJECTID":435274},"geometry":{"x":183598.00999999978,"y":2540879.6200000029}},{"attributes":{"ID":435300,"DIS_CODE":0,"TOWNNAME":"關廟區","LI":"南花里","LIN":"4鄰","STREET":"園東街","SECT":" ","MAREA":" ","LANE":"１巷","ALLEY":" ","HOUSE_NO":"９號","E_COORD97":182135.31,"N_COORD97":2540034.25,"ADDRESS":"園東街１巷９號","OBJECTID":435275},"geometry":{"x":182135.31000000052,"y":2540034.25}},{"attributes":{"ID":435301,"DIS_CODE":0,"TOWNNAME":"關廟區","LI":"北花里","LIN":"20鄰","STREET":"中正路","SECT":" ","MAREA":" ","LANE":"１２７巷","ALLEY":" ","HOUSE_NO":"１號","E_COORD97":183563.41,"N_COORD97":2540893.6200000001,"ADDRESS":"中正路１２７巷１號","OBJECTID":435276},"geometry":{"x":183563.41000000015,"y":2540893.620000001}},{"attributes":{"ID":435302,"DIS_CODE":0,"TOWNNAME":"關廟區","LI":"東勢里","LIN":"25鄰","STREET":"光復街","SECT":" ","MAREA":" ","LANE":"１４２巷","ALLEY":" ","HOUSE_NO":"６號","E_COORD97":181531.73999999999,"N_COORD97":2539471.2799999998,"ADDRESS":"光復街１４２巷６號","OBJECTID":435277},"geometry":{"x":181531.74000000115,"y":2539471.2799999993}},{"attributes":{"ID":435303,"DIS_CODE":0,"TOWNNAME":"關廟區","LI":"南花里","LIN":"4鄰","STREET":"花園一街","SECT":" ","MAREA":" ","LANE":"７１巷","ALLEY":" ","HOUSE_NO":"２５號","E_COORD97":181971.79000000001,"N_COORD97":2540079.25,"ADDRESS":"花園一街７１巷２５號","OBJECTID":435278},"geometry":{"x":181971.79000000097,"y":2540079.25}},{"attributes":{"ID":435304,"DIS_CODE":0,"TOWNNAME":"關廟區","LI":"香洋里","LIN":"26鄰","STREET":"南雄路","SECT":"一段","MAREA":" ","LANE":"１１３０巷","ALLEY":" ","HOUSE_NO":"３號","E_COORD97":181098.64000000001,"N_COORD97":2539850.2799999998,"ADDRESS":"南雄路一段１１３０巷３號","OBJECTID":435279},"geometry":{"x":181098.63999999966,"y":2539850.2799999993}},{"attributes":{"ID":435305,"DIS_CODE":0,"TOWNNAME":"關廟區","LI":"香洋里","LIN":"13鄰","STREET":"中山路","SECT":"一段","MAREA":" ","LANE":"６２０巷","ALLEY":" ","HOUSE_NO":"６號","E_COORD97":181135.35999999999,"N_COORD97":2540045.2799999998,"ADDRESS":"中山路一段６２０巷６號","OBJECTID":435280},"geometry":{"x":181135.3600000022,"y":2540045.2800000012}},{"attributes":{"ID":435306,"DIS_CODE":0,"TOWNNAME":"關廟區","LI":"松腳里","LIN":"4鄰","STREET":"旺萊路","SECT":" ","MAREA":" ","LANE":"３４３巷","ALLEY":" ","HOUSE_NO":"１６號","E_COORD97":182079.29000000001,"N_COORD97":2539761.25,"ADDRESS":"旺萊路３４３巷１６號","OBJECTID":435281},"geometry":{"x":182079.29000000004,"y":2539761.2500000019}},{"attributes":{"ID":435307,"DIS_CODE":0,"TOWNNAME":"關廟區","LI":"北花里","LIN":"20鄰","STREET":"中正路","SECT":" ","MAREA":" ","LANE":"１２７巷","ALLEY":" ","HOUSE_NO":"１３號","E_COORD97":183567.76000000001,"N_COORD97":2540867.6200000001,"ADDRESS":"中正路１２７巷１３號","OBJECTID":435282},"geometry":{"x":183567.75999999978,"y":2540867.620000001}},{"attributes":{"ID":435308,"DIS_CODE":0,"TOWNNAME":"關廟區","LI":"松腳里","LIN":"13鄰","STREET":"東興路","SECT":" ","MAREA":" ","LANE":"２０５巷","ALLEY":" ","HOUSE_NO":"１０號","E_COORD97":181730.32000000001,"N_COORD97":2539589.25,"ADDRESS":"東興路２０５巷１０號","OBJECTID":435283},"geometry":{"x":181730.3200000003,"y":2539589.2500000019}},{"attributes":{"ID":435309,"DIS_CODE":0,"TOWNNAME":"關廟區","LI":"深坑里","LIN":"13鄰","STREET":"南雄路","SECT":"一段","MAREA":" ","LANE":"９８巷","ALLEY":" ","HOUSE_NO":"２０８號","E_COORD97":183012.82000000001,"N_COORD97":2537047.2999999998,"ADDRESS":"南雄路一段９８巷２０８號","OBJECTID":435284},"geometry":{"x":183012.82000000123,"y":2537047.3000000007}},{"attributes":{"ID":435310,"DIS_CODE":0,"TOWNNAME":"關廟區","LI":"南花里","LIN":"4鄰","STREET":"花園一街","SECT":" ","MAREA":" ","LANE":"８９巷","ALLEY":" ","HOUSE_NO":"１號","E_COORD97":181925.64000000001,"N_COORD97":2540158.25,"ADDRESS":"花園一街８９巷１號","OBJECTID":435285},"geometry":{"x":181925.63999999966,"y":2540158.2500000019}},{"attributes":{"ID":435311,"DIS_CODE":0,"TOWNNAME":"關廟區","LI":"南花里","LIN":"13鄰","STREET":"花園一街","SECT":" ","MAREA":" ","LANE":"１８０巷","ALLEY":" ","HOUSE_NO":"５號","E_COORD97":181677.39000000001,"N_COORD97":2540200.25,"ADDRESS":"花園一街１８０巷５號","OBJECTID":435286},"geometry":{"x":181677.3900000006,"y":2540200.25}},{"attributes":{"ID":435312,"DIS_CODE":0,"TOWNNAME":"關廟區","LI":"松腳里","LIN":"18鄰","STREET":"中山路","SECT":"一段","MAREA":" ","LANE":"８９巷","ALLEY":" ","HOUSE_NO":"２１號","E_COORD97":181933.06,"N_COORD97":2539884.2799999998,"ADDRESS":"中山路一段８９巷２１號","OBJECTID":435287},"geometry":{"x":181933.05999999959,"y":2539884.2799999993}},{"attributes":{"ID":435313,"DIS_CODE":0,"TOWNNAME":"關廟區","LI":"北勢里","LIN":"20鄰","STREET":"成功路","SECT":" ","MAREA":" ","LANE":"３２９巷","ALLEY":" ","HOUSE_NO":"２號","E_COORD97":181311.07000000001,"N_COORD97":2540475.27,"ADDRESS":"成功路３２９巷２號","OBJECTID":435288},"geometry":{"x":181311.0700000003,"y":2540475.2699999996}},{"attributes":{"ID":435314,"DIS_CODE":0,"TOWNNAME":"關廟區","LI":"東勢里","LIN":"26鄰","STREET":"東安街","SECT":" ","MAREA":" ","LANE":"９５巷","ALLEY":" ","HOUSE_NO":"６號","E_COORD97":181462.22,"N_COORD97":2539658.3199999998,"ADDRESS":"東安街９５巷６號","OBJECTID":435289},"geometry":{"x":181462.21999999974,"y":2539658.3200000003}},{"attributes":{"ID":435315,"DIS_CODE":0,"TOWNNAME":"關廟區","LI":"五甲里","LIN":"13鄰","STREET":"光復街","SECT":" ","MAREA":" ","LANE":"６３巷","ALLEY":" ","HOUSE_NO":"８號","E_COORD97":181475.29000000001,"N_COORD97":2539300.2799999998,"ADDRESS":"光復街６３巷８號","OBJECTID":435290},"geometry":{"x":181475.29000000097,"y":2539300.2800000012}},{"attributes":{"ID":435316,"DIS_CODE":0,"TOWNNAME":"關廟區","LI":"北勢里","LIN":"4鄰","STREET":"北仁街","SECT":" ","MAREA":" ","LANE":"４１巷","ALLEY":" ","HOUSE_NO":"８號","E_COORD97":181514.84,"N_COORD97":2540308.25,"ADDRESS":"北仁街４１巷８號","OBJECTID":435291},"geometry":{"x":181514.84000000078,"y":2540308.2500000019}},{"attributes":{"ID":435317,"DIS_CODE":0,"TOWNNAME":"關廟區","LI":"南花里","LIN":"4鄰","STREET":"園東街","SECT":" ","MAREA":" ","LANE":"５１巷","ALLEY":" ","HOUSE_NO":"１２號","E_COORD97":182035.70999999999,"N_COORD97":2540030.25,"ADDRESS":"園東街５１巷１２號","OBJECTID":435292},"geometry":{"x":182035.70999999996,"y":2540030.2500000019}},{"attributes":{"ID":435318,"DIS_CODE":0,"TOWNNAME":"關廟區","LI":"埤頭里","LIN":"4鄰","STREET":"保東路","SECT":" ","MAREA":" ","LANE":"１１５巷","ALLEY":" ","HOUSE_NO":"１６８號","E_COORD97":178773.72,"N_COORD97":2543891.2999999998,"ADDRESS":"保東路１１５巷１６８號","OBJECTID":435293},"geometry":{"x":178773.71999999974,"y":2543891.3000000026}},{"attributes":{"ID":435319,"DIS_CODE":0,"TOWNNAME":"關廟區","LI":"深坑里","LIN":"4鄰","STREET":"深坑三街","SECT":" ","MAREA":" ","LANE":"８３巷","ALLEY":" ","HOUSE_NO":"７號","E_COORD97":181891.26999999999,"N_COORD97":2537623.2999999998,"ADDRESS":"深坑三街８３巷７號","OBJECTID":435294},"geometry":{"x":181891.27000000142,"y":2537623.3000000026}},{"attributes":{"ID":435320,"DIS_CODE":0,"TOWNNAME":"關廟區","LI":"五甲里","LIN":"13鄰","STREET":"光復街","SECT":" ","MAREA":" ","LANE":"９１巷","ALLEY":" ","HOUSE_NO":"１３號","E_COORD97":181464.23999999999,"N_COORD97":2539350.2799999998,"ADDRESS":"光復街９１巷１３號","OBJECTID":435295},"geometry":{"x":181464.24000000022,"y":2539350.2800000012}},{"attributes":{"ID":435321,"DIS_CODE":0,"TOWNNAME":"關廟區","LI":"五甲里","LIN":"13鄰","STREET":"光復街","SECT":" ","MAREA":" ","LANE":"９１巷","ALLEY":" ","HOUSE_NO":"５６號","E_COORD97":181410.44,"N_COORD97":2539371.2799999998,"ADDRESS":"光復街９１巷５６號","OBJECTID":435296},"geometry":{"x":181410.44000000041,"y":2539371.2800000012}},{"attributes":{"ID":435322,"DIS_CODE":0,"TOWNNAME":"關廟區","LI":"北勢里","LIN":"24鄰","STREET":"北美街","SECT":" ","MAREA":" ","LANE":"３巷","ALLEY":" ","HOUSE_NO":"１２號","E_COORD97":181437.73999999999,"N_COORD97":2540292.2999999998,"ADDRESS":"北美街３巷１２號","OBJECTID":435297},"geometry":{"x":181437.74000000209,"y":2540292.3000000007}},{"attributes":{"ID":435323,"DIS_CODE":0,"TOWNNAME":"關廟區","LI":"北勢里","LIN":"4鄰","STREET":"北美街","SECT":" ","MAREA":" ","LANE":"４６巷","ALLEY":" ","HOUSE_NO":"９號","E_COORD97":181502.94,"N_COORD97":2540397.2999999998,"ADDRESS":"北美街４６巷９號","OBJECTID":435298},"geometry":{"x":181502.94000000134,"y":2540397.3000000007}},{"attributes":{"ID":435324,"DIS_CODE":0,"TOWNNAME":"關廟區","LI":"東勢里","LIN":"13鄰","STREET":"東榮街","SECT":" ","MAREA":" ","LANE":"６９巷","ALLEY":" ","HOUSE_NO":"１號","E_COORD97":182088.32000000001,"N_COORD97":2539360.25,"ADDRESS":"東榮街６９巷１號","OBJECTID":435299},"geometry":{"x":182088.32000000216,"y":2539360.25}},{"attributes":{"ID":435325,"DIS_CODE":0,"TOWNNAME":"關廟區","LI":"五甲里","LIN":"13鄰","STREET":"光復街","SECT":" ","MAREA":" ","LANE":"９１巷","ALLEY":" ","HOUSE_NO":"１１號","E_COORD97":181468.44,"N_COORD97":2539348.2799999998,"ADDRESS":"光復街９１巷１１號","OBJECTID":435300},"geometry":{"x":181468.44000000041,"y":2539348.2799999993}},{"attributes":{"ID":435326,"DIS_CODE":0,"TOWNNAME":"關廟區","LI":"東勢里","LIN":"14鄰","STREET":"東榮街","SECT":" ","MAREA":" ","LANE":"１３８巷","ALLEY":" ","HOUSE_NO":"９號","E_COORD97":182161.26999999999,"N_COORD97":2539320.25,"ADDRESS":"東榮街１３８巷９號","OBJECTID":435301},"geometry":{"x":182161.27000000048,"y":2539320.2500000037}},{"attributes":{"ID":435327,"DIS_CODE":0,"TOWNNAME":"關廟區","LI":"北花里","LIN":"17鄰","STREET":"中正路","SECT":" ","MAREA":" ","LANE":"５３７巷","ALLEY":" ","HOUSE_NO":"１２號","E_COORD97":182359.42999999999,"N_COORD97":2540445.4700000002,"ADDRESS":"中正路５３７巷１２號","OBJECTID":435302},"geometry":{"x":182359.4299999997,"y":2540445.4700000025}},{"attributes":{"ID":435328,"DIS_CODE":0,"TOWNNAME":"關廟區","LI":"東勢里","LIN":"5鄰","STREET":"和平路","SECT":" ","MAREA":" ","LANE":"１００巷","ALLEY":" ","HOUSE_NO":"２０號","E_COORD97":181819.79000000001,"N_COORD97":2539456.25,"ADDRESS":"和平路１００巷２０號","OBJECTID":435303},"geometry":{"x":181819.79000000004,"y":2539456.2500000019}},{"attributes":{"ID":435329,"DIS_CODE":0,"TOWNNAME":"關廟區","LI":"東勢里","LIN":"25鄰","STREET":"東興路","SECT":" ","MAREA":" ","LANE":"１４８巷","ALLEY":" ","HOUSE_NO":"６號","E_COORD97":181546.37,"N_COORD97":2539524.25,"ADDRESS":"東興路１４８巷６號","OBJECTID":435304},"geometry":{"x":181546.37000000011,"y":2539524.2500000019}},{"attributes":{"ID":435330,"DIS_CODE":0,"TOWNNAME":"北區","LI":"成德里","LIN":"38鄰","STREET":"育德二路","SECT":" ","MAREA":" ","LANE":"８０９巷","ALLEY":" ","HOUSE_NO":"３號","E_COORD97":168026.01000000001,"N_COORD97":2546701.6699999999,"ADDRESS":"育德二路８０９巷３號","OBJECTID":435305},"geometry":{"x":168026.00999999978,"y":2546701.6700000037}},{"attributes":{"ID":435331,"DIS_CODE":0,"TOWNNAME":"北區","LI":"成德里","LIN":"38鄰","STREET":"育德二路","SECT":" ","MAREA":" ","LANE":"８０９巷","ALLEY":" ","HOUSE_NO":"５號","E_COORD97":168020.76999999999,"N_COORD97":2546700.3999999999,"ADDRESS":"育德二路８０９巷５號","OBJECTID":435306},"geometry":{"x":168020.76999999955,"y":2546700.4000000041}},{"attributes":{"ID":435332,"DIS_CODE":0,"TOWNNAME":"北區","LI":"成德里","LIN":"39鄰","STREET":"育德二路","SECT":" ","MAREA":" ","LANE":"４９４巷","ALLEY":" ","HOUSE_NO":"１０號","E_COORD97":168220.22,"N_COORD97":2546573.29,"ADDRESS":"育德二路４９４巷１０號","OBJECTID":435307},"geometry":{"x":168220.22000000067,"y":2546573.2899999991}},{"attributes":{"ID":435333,"DIS_CODE":0,"TOWNNAME":"北區","LI":"成德里","LIN":"39鄰","STREET":"育德二路","SECT":" ","MAREA":" ","LANE":"４９４巷","ALLEY":" ","HOUSE_NO":"１１號","E_COORD97":168224.64000000001,"N_COORD97":2546591.2200000002,"ADDRESS":"育德二路４９４巷１１號","OBJECTID":435308},"geometry":{"x":168224.6400000006,"y":2546591.2200000025}},{"attributes":{"ID":435334,"DIS_CODE":0,"TOWNNAME":"麻豆區","LI":"大埕里","LIN":"8鄰","STREET":" ","SECT":" ","MAREA":"大埕","LANE":" ","ALLEY":" ","HOUSE_NO":"１５號之１０","E_COORD97":173186.2488,"N_COORD97":2565317.3346799999,"ADDRESS":"大埕１５號之１０","OBJECTID":435309},"geometry":{"x":173186.24880000111,"y":2565317.3346800003}},{"attributes":{"ID":435335,"DIS_CODE":0,"TOWNNAME":"北區","LI":"成德里","LIN":"39鄰","STREET":"育德二路","SECT":" ","MAREA":" ","LANE":"４９４巷","ALLEY":" ","HOUSE_NO":"１２號","E_COORD97":168225.67999999999,"N_COORD97":2546574.3300000001,"ADDRESS":"育德二路４９４巷１２號","OBJECTID":435310},"geometry":{"x":168225.68000000063,"y":2546574.3300000001}},{"attributes":{"ID":435336,"DIS_CODE":0,"TOWNNAME":"北區","LI":"成德里","LIN":"39鄰","STREET":"育德二路","SECT":" ","MAREA":" ","LANE":"４９４巷","ALLEY":" ","HOUSE_NO":"１６號","E_COORD97":168229.57999999999,"N_COORD97":2546575.1099999999,"ADDRESS":"育德二路４９４巷１６號","OBJECTID":435311},"geometry":{"x":168229.58000000007,"y":2546575.1099999994}},{"attributes":{"ID":435337,"DIS_CODE":0,"TOWNNAME":"北區","LI":"成德里","LIN":"39鄰","STREET":"育德二路","SECT":" ","MAREA":" ","LANE":"４９４巷","ALLEY":" ","HOUSE_NO":"１號","E_COORD97":168203.06,"N_COORD97":2546583.1600000001,"ADDRESS":"育德二路４９４巷１號","OBJECTID":435312},"geometry":{"x":168203.06000000052,"y":2546583.1600000039}},{"attributes":{"ID":435338,"DIS_CODE":0,"TOWNNAME":"北區","LI":"成德里","LIN":"39鄰","STREET":"育德二路","SECT":" ","MAREA":" ","LANE":"４９４巷","ALLEY":" ","HOUSE_NO":"２號","E_COORD97":168206.17999999999,"N_COORD97":2546569.6499999999,"ADDRESS":"育德二路４９４巷２號","OBJECTID":435313},"geometry":{"x":168206.1799999997,"y":2546569.6499999985}},{"attributes":{"ID":435339,"DIS_CODE":0,"TOWNNAME":"北區","LI":"成德里","LIN":"40鄰","STREET":"育德三街","SECT":" ","MAREA":" ","LANE":"２２７巷","ALLEY":" ","HOUSE_NO":"３號","E_COORD97":168124.35000000001,"N_COORD97":2546441.9300000002,"ADDRESS":"育德三街２２７巷３號","OBJECTID":435314},"geometry":{"x":168124.35000000056,"y":2546441.9300000034}},{"attributes":{"ID":435340,"DIS_CODE":0,"TOWNNAME":"北區","LI":"成功里","LIN":"17鄰","STREET":"北成路","SECT":" ","MAREA":" ","LANE":"１２８巷","ALLEY":" ","HOUSE_NO":"２６號","E_COORD97":168961.35000000001,"N_COORD97":2546754.48,"ADDRESS":"北成路１２８巷２６號","OBJECTID":435315},"geometry":{"x":168961.34999999963,"y":2546754.4800000023}},{"attributes":{"ID":435341,"DIS_CODE":0,"TOWNNAME":"北區","LI":"成功里","LIN":"17鄰","STREET":"北成路","SECT":" ","MAREA":" ","LANE":"１２８巷","ALLEY":" ","HOUSE_NO":"２８號","E_COORD97":168963.20000000001,"N_COORD97":2546757.5699999998,"ADDRESS":"北成路１２８巷２８號","OBJECTID":435316},"geometry":{"x":168963.20000000205,"y":2546757.5700000022}},{"attributes":{"ID":435342,"DIS_CODE":0,"TOWNNAME":"北區","LI":"成功里","LIN":"17鄰","STREET":"北成路","SECT":" ","MAREA":" ","LANE":"１２８巷","ALLEY":" ","HOUSE_NO":"３０號","E_COORD97":168965.37,"N_COORD97":2546762.2000000002,"ADDRESS":"北成路１２８巷３０號","OBJECTID":435317},"geometry":{"x":168965.37000000197,"y":2546762.2000000011}},{"attributes":{"ID":435343,"DIS_CODE":0,"TOWNNAME":"北區","LI":"成功里","LIN":"17鄰","STREET":"北成路","SECT":" ","MAREA":" ","LANE":"１２８巷","ALLEY":" ","HOUSE_NO":"３２號","E_COORD97":168968.45999999999,"N_COORD97":2546765.29,"ADDRESS":"北成路１２８巷３２號","OBJECTID":435318},"geometry":{"x":168968.46000000089,"y":2546765.290000001}},{"attributes":{"ID":435344,"DIS_CODE":0,"TOWNNAME":"北區","LI":"成功里","LIN":"17鄰","STREET":"北成路","SECT":" ","MAREA":" ","LANE":"１２８巷","ALLEY":" ","HOUSE_NO":"３４號","E_COORD97":168969.39000000001,"N_COORD97":2546769.9300000002,"ADDRESS":"北成路１２８巷３４號","OBJECTID":435319},"geometry":{"x":168969.38999999966,"y":2546769.9299999997}},{"attributes":{"ID":435345,"DIS_CODE":0,"TOWNNAME":"北區","LI":"成功里","LIN":"17鄰","STREET":"北成路","SECT":" ","MAREA":" ","LANE":"１２８巷","ALLEY":" ","HOUSE_NO":"３６號","E_COORD97":168971.25,"N_COORD97":2546774.5600000001,"ADDRESS":"北成路１２８巷３６號","OBJECTID":435320},"geometry":{"x":168971.25000000093,"y":2546774.5600000024}},{"attributes":{"ID":435346,"DIS_CODE":0,"TOWNNAME":"北區","LI":"成功里","LIN":"17鄰","STREET":"北成路","SECT":" ","MAREA":" ","LANE":"１２８巷","ALLEY":" ","HOUSE_NO":"３８號","E_COORD97":168974.64999999999,"N_COORD97":2546778.27,"ADDRESS":"北成路１２８巷３８號","OBJECTID":435321},"geometry":{"x":168974.6500000013,"y":2546778.2700000033}},{"attributes":{"ID":435347,"DIS_CODE":0,"TOWNNAME":"北區","LI":"成功里","LIN":"17鄰","STREET":"北成路","SECT":" ","MAREA":" ","LANE":"１２８巷","ALLEY":" ","HOUSE_NO":"４０號","E_COORD97":168975.26999999999,"N_COORD97":2546781.9700000002,"ADDRESS":"北成路１２８巷４０號","OBJECTID":435322},"geometry":{"x":168975.26999999955,"y":2546781.9700000025}},{"attributes":{"ID":435348,"DIS_CODE":0,"TOWNNAME":"北區","LI":"成德里","LIN":"4鄰","STREET":"西門路","SECT":"四段","MAREA":" ","LANE":"６５巷","ALLEY":" ","HOUSE_NO":"５９號","E_COORD97":168550.17999999999,"N_COORD97":2545376.71,"ADDRESS":"西門路四段６５巷５９號","OBJECTID":435323},"geometry":{"x":168550.1799999997,"y":2545376.7100000046}},{"attributes":{"ID":435349,"DIS_CODE":0,"TOWNNAME":"北區","LI":"三德里","LIN":"4鄰","STREET":"裕民街","SECT":" ","MAREA":" ","LANE":"７２巷","ALLEY":" ","HOUSE_NO":"３號","E_COORD97":168505.48999999999,"N_COORD97":2544494.6400000001,"ADDRESS":"裕民街７２巷３號","OBJECTID":435324},"geometry":{"x":168505.49000000115,"y":2544494.6400000006}},{"attributes":{"ID":435350,"DIS_CODE":0,"TOWNNAME":"北區","LI":"三德里","LIN":"4鄰","STREET":"裕民街","SECT":" ","MAREA":" ","LANE":"７２巷","ALLEY":" ","HOUSE_NO":"５號","E_COORD97":168508.78,"N_COORD97":2544491.1899999999,"ADDRESS":"裕民街７２巷５號","OBJECTID":435325},"geometry":{"x":168508.78000000119,"y":2544491.1900000013}},{"attributes":{"ID":435351,"DIS_CODE":0,"TOWNNAME":"北區","LI":"三德里","LIN":"4鄰","STREET":"裕民街","SECT":" ","MAREA":" ","LANE":"７２巷","ALLEY":" ","HOUSE_NO":"７號","E_COORD97":168511.45000000001,"N_COORD97":2544488.2200000002,"ADDRESS":"裕民街７２巷７號","OBJECTID":435326},"geometry":{"x":168511.45000000019,"y":2544488.2200000025}},{"attributes":{"ID":435352,"DIS_CODE":0,"TOWNNAME":"北區","LI":"三德里","LIN":"4鄰","STREET":"裕民街","SECT":" ","MAREA":" ","LANE":"７２巷","ALLEY":" ","HOUSE_NO":"９號","E_COORD97":168520.23000000001,"N_COORD97":2544480.7000000002,"ADDRESS":"裕民街７２巷９號","OBJECTID":435327},"geometry":{"x":168520.23000000045,"y":2544480.7000000011}},{"attributes":{"ID":435353,"DIS_CODE":0,"TOWNNAME":"北區","LI":"三德里","LIN":"4鄰","STREET":"裕民街","SECT":" ","MAREA":" ","LANE":"８４巷","ALLEY":" ","HOUSE_NO":"２號","E_COORD97":168513.95999999999,"N_COORD97":2544512.96,"ADDRESS":"裕民街８４巷２號","OBJECTID":435328},"geometry":{"x":168513.96000000089,"y":2544512.9600000009}},{"attributes":{"ID":435354,"DIS_CODE":0,"TOWNNAME":"北區","LI":"三德里","LIN":"4鄰","STREET":"裕民街","SECT":" ","MAREA":" ","LANE":"８４巷","ALLEY":" ","HOUSE_NO":"４號","E_COORD97":168517.84,"N_COORD97":2544513.0800000001,"ADDRESS":"裕民街８４巷４號","OBJECTID":435329},"geometry":{"x":168517.84000000078,"y":2544513.0800000019}},{"attributes":{"ID":435355,"DIS_CODE":0,"TOWNNAME":"北區","LI":"三德里","LIN":"4鄰","STREET":"裕民街","SECT":" ","MAREA":" ","LANE":"８４巷","ALLEY":" ","HOUSE_NO":"４號之１","E_COORD97":168521.54999999999,"N_COORD97":2544512.9900000002,"ADDRESS":"裕民街８４巷４號之１","OBJECTID":435330},"geometry":{"x":168521.55000000075,"y":2544512.9900000039}},{"attributes":{"ID":435356,"DIS_CODE":0,"TOWNNAME":"北區","LI":"三德里","LIN":"4鄰","STREET":"裕民街","SECT":" ","MAREA":" ","LANE":"８４巷","ALLEY":" ","HOUSE_NO":"６號","E_COORD97":168525.09,"N_COORD97":2544512.4900000002,"ADDRESS":"裕民街８４巷６號","OBJECTID":435331},"geometry":{"x":168525.09000000078,"y":2544512.4900000002}},{"attributes":{"ID":435357,"DIS_CODE":0,"TOWNNAME":"北區","LI":"三德里","LIN":"4鄰","STREET":"裕民街","SECT":" ","MAREA":" ","LANE":"８４巷","ALLEY":" ","HOUSE_NO":"６號之１","E_COORD97":168533.25,"N_COORD97":2544516.5600000001,"ADDRESS":"裕民街８４巷６號之１","OBJECTID":435332},"geometry":{"x":168533.25,"y":2544516.5600000024}},{"attributes":{"ID":435358,"DIS_CODE":0,"TOWNNAME":"北區","LI":"大山里","LIN":"4鄰","STREET":"和緯路","SECT":"一段","MAREA":" ","LANE":"１２９巷","ALLEY":" ","HOUSE_NO":"１１號","E_COORD97":169396.14000000001,"N_COORD97":2545565.6699999999,"ADDRESS":"和緯路一段１２９巷１１號","OBJECTID":435333},"geometry":{"x":169396.13999999966,"y":2545565.6700000037}},{"attributes":{"ID":435359,"DIS_CODE":0,"TOWNNAME":"北區","LI":"大山里","LIN":"4鄰","STREET":"和緯路","SECT":"一段","MAREA":" ","LANE":"１２９巷","ALLEY":" ","HOUSE_NO":"１３號","E_COORD97":169392.62,"N_COORD97":2545566.5299999998,"ADDRESS":"和緯路一段１２９巷１３號","OBJECTID":435334},"geometry":{"x":169392.62000000104,"y":2545566.5300000012}},{"attributes":{"ID":435360,"DIS_CODE":0,"TOWNNAME":"北區","LI":"大山里","LIN":"4鄰","STREET":"和緯路","SECT":"一段","MAREA":" ","LANE":"１２９巷","ALLEY":" ","HOUSE_NO":"１５號","E_COORD97":169389.48000000001,"N_COORD97":2545566.0600000001,"ADDRESS":"和緯路一段１２９巷１５號","OBJECTID":435335},"geometry":{"x":169389.48000000138,"y":2545566.0600000005}},{"attributes":{"ID":435361,"DIS_CODE":0,"TOWNNAME":"北區","LI":"大山里","LIN":"4鄰","STREET":"和緯路","SECT":"一段","MAREA":" ","LANE":"１２９巷","ALLEY":" ","HOUSE_NO":"１７號","E_COORD97":169386.19,"N_COORD97":2545566.7599999998,"ADDRESS":"和緯路一段１２９巷１７號","OBJECTID":435336},"geometry":{"x":169386.19000000134,"y":2545566.7599999998}},{"attributes":{"ID":435362,"DIS_CODE":0,"TOWNNAME":"北區","LI":"大山里","LIN":"4鄰","STREET":"和緯路","SECT":"一段","MAREA":" ","LANE":"１２９巷","ALLEY":" ","HOUSE_NO":"５號","E_COORD97":169405.94,"N_COORD97":2545562.1400000001,"ADDRESS":"和緯路一段１２９巷５號","OBJECTID":435337},"geometry":{"x":169405.94000000227,"y":2545562.1400000006}},{"attributes":{"ID":435363,"DIS_CODE":0,"TOWNNAME":"北區","LI":"大山里","LIN":"4鄰","STREET":"和緯路","SECT":"一段","MAREA":" ","LANE":"１２９巷","ALLEY":" ","HOUSE_NO":"７號","E_COORD97":169402.72,"N_COORD97":2545564.02,"ADDRESS":"和緯路一段１２９巷７號","OBJECTID":435338},"geometry":{"x":169402.71999999974,"y":2545564.0200000014}},{"attributes":{"ID":435364,"DIS_CODE":0,"TOWNNAME":"北區","LI":"大山里","LIN":"4鄰","STREET":"和緯路","SECT":"一段","MAREA":" ","LANE":"１２９巷","ALLEY":" ","HOUSE_NO":"９號","E_COORD97":169399.04000000001,"N_COORD97":2545564.8799999999,"ADDRESS":"和緯路一段１２９巷９號","OBJECTID":435339},"geometry":{"x":169399.04000000004,"y":2545564.8800000008}},{"attributes":{"ID":435365,"DIS_CODE":0,"TOWNNAME":"北區","LI":"大山里","LIN":"4鄰","STREET":"精忠街","SECT":" ","MAREA":" ","LANE":"２８巷","ALLEY":" ","HOUSE_NO":"５４號","E_COORD97":169406.97,"N_COORD97":2545534.3700000001,"ADDRESS":"精忠街２８巷５４號","OBJECTID":435340},"geometry":{"x":169406.97000000067,"y":2545534.370000001}},{"attributes":{"ID":435366,"DIS_CODE":0,"TOWNNAME":"北區","LI":"大山里","LIN":"4鄰","STREET":"精忠街","SECT":" ","MAREA":" ","LANE":"２８巷","ALLEY":" ","HOUSE_NO":"５６號","E_COORD97":169402.45000000001,"N_COORD97":2545534.98,"ADDRESS":"精忠街２８巷５６號","OBJECTID":435341},"geometry":{"x":169402.45000000112,"y":2545534.9800000023}},{"attributes":{"ID":435367,"DIS_CODE":0,"TOWNNAME":"北區","LI":"大山里","LIN":"4鄰","STREET":"精忠街","SECT":" ","MAREA":" ","LANE":"２８巷","ALLEY":" ","HOUSE_NO":"５８號","E_COORD97":169398.25,"N_COORD97":2545535.98,"ADDRESS":"精忠街２８巷５８號","OBJECTID":435342},"geometry":{"x":169398.25000000186,"y":2545535.9800000004}},{"attributes":{"ID":435368,"DIS_CODE":0,"TOWNNAME":"北區","LI":"大山里","LIN":"4鄰","STREET":"精忠街","SECT":" ","MAREA":" ","LANE":"２８巷","ALLEY":" ","HOUSE_NO":"６０號","E_COORD97":169394.42999999999,"N_COORD97":2545536.8199999998,"ADDRESS":"精忠街２８巷６０號","OBJECTID":435343},"geometry":{"x":169394.4299999997,"y":2545536.8200000003}},{"attributes":{"ID":435369,"DIS_CODE":0,"TOWNNAME":"北區","LI":"大山里","LIN":"4鄰","STREET":"精忠街","SECT":" ","MAREA":" ","LANE":"２８巷","ALLEY":" ","HOUSE_NO":"６２號","E_COORD97":169390.37,"N_COORD97":2545537.96,"ADDRESS":"精忠街２８巷６２號","OBJECTID":435344},"geometry":{"x":169390.37000000011,"y":2545537.9600000028}},{"attributes":{"ID":435370,"DIS_CODE":0,"TOWNNAME":"北區","LI":"大山里","LIN":"4鄰","STREET":"精忠街","SECT":" ","MAREA":" ","LANE":"２８巷","ALLEY":" ","HOUSE_NO":"６４號","E_COORD97":169386.78,"N_COORD97":2545538.4199999999,"ADDRESS":"精忠街２８巷６４號","OBJECTID":435345},"geometry":{"x":169386.78000000119,"y":2545538.4200000018}},{"attributes":{"ID":435371,"DIS_CODE":0,"TOWNNAME":"北區","LI":"大山里","LIN":"4鄰","STREET":"精忠街","SECT":" ","MAREA":" ","LANE":"２８巷","ALLEY":" ","HOUSE_NO":"６６號","E_COORD97":169383.42000000001,"N_COORD97":2545539.2599999998,"ADDRESS":"精忠街２８巷６６號","OBJECTID":435346},"geometry":{"x":169383.42000000179,"y":2545539.2600000016}},{"attributes":{"ID":435372,"DIS_CODE":0,"TOWNNAME":"北區","LI":"大山里","LIN":"4鄰","STREET":"精忠街","SECT":" ","MAREA":" ","LANE":"２８巷","ALLEY":" ","HOUSE_NO":"６８號","E_COORD97":169380.97,"N_COORD97":2545539.5699999998,"ADDRESS":"精忠街２８巷６８號","OBJECTID":435347},"geometry":{"x":169380.96999999974,"y":2545539.570000004}},{"attributes":{"ID":435373,"DIS_CODE":0,"TOWNNAME":"北區","LI":"大山里","LIN":"4鄰","STREET":"精忠街","SECT":" ","MAREA":" ","LANE":"２８巷","ALLEY":" ","HOUSE_NO":"７４號","E_COORD97":169365.22,"N_COORD97":2545543,"ADDRESS":"精忠街２８巷７４號","OBJECTID":435348},"geometry":{"x":169365.21999999974,"y":2545542.9999999981}},{"attributes":{"ID":435374,"DIS_CODE":0,"TOWNNAME":"北區","LI":"大山里","LIN":"4鄰","STREET":"精忠街","SECT":" ","MAREA":" ","LANE":"２８巷","ALLEY":" ","HOUSE_NO":"５７號","E_COORD97":169399.01000000001,"N_COORD97":2545529.71,"ADDRESS":"精忠街２８巷５７號","OBJECTID":435349},"geometry":{"x":169399.00999999978,"y":2545529.7100000028}},{"attributes":{"ID":435375,"DIS_CODE":0,"TOWNNAME":"北區","LI":"大山里","LIN":"4鄰","STREET":"精忠街","SECT":" ","MAREA":" ","LANE":"２８巷","ALLEY":" ","HOUSE_NO":"５９之１號","E_COORD97":169391.37,"N_COORD97":2545529.48,"ADDRESS":"精忠街２８巷５９之１號","OBJECTID":435350},"geometry":{"x":169391.37000000104,"y":2545529.4800000004}},{"attributes":{"ID":435376,"DIS_CODE":0,"TOWNNAME":"北區","LI":"大山里","LIN":"4鄰","STREET":"精忠街","SECT":" ","MAREA":" ","LANE":"２８巷","ALLEY":" ","HOUSE_NO":"５９之２號","E_COORD97":169388.54000000001,"N_COORD97":2545532.0800000001,"ADDRESS":"精忠街２８巷５９之２號","OBJECTID":435351},"geometry":{"x":169388.54000000097,"y":2545532.0800000001}},{"attributes":{"ID":435377,"DIS_CODE":0,"TOWNNAME":"北區","LI":"大山里","LIN":"4鄰","STREET":"精忠街","SECT":" ","MAREA":" ","LANE":"２８巷","ALLEY":" ","HOUSE_NO":"５９之３號","E_COORD97":169385.48000000001,"N_COORD97":2545532.77,"ADDRESS":"精忠街２８巷５９之３號","OBJECTID":435352},"geometry":{"x":169385.48000000138,"y":2545532.7699999996}},{"attributes":{"ID":435378,"DIS_CODE":0,"TOWNNAME":"北區","LI":"大山里","LIN":"4鄰","STREET":"精忠街","SECT":" ","MAREA":" ","LANE":"２８巷","ALLEY":" ","HOUSE_NO":"５９之４號","E_COORD97":169382.12,"N_COORD97":2545533.4500000002,"ADDRESS":"精忠街２８巷５９之４號","OBJECTID":435353},"geometry":{"x":169382.12000000011,"y":2545533.4500000011}},{"attributes":{"ID":435379,"DIS_CODE":0,"TOWNNAME":"北區","LI":"大山里","LIN":"4鄰","STREET":"精忠街","SECT":" ","MAREA":" ","LANE":"２８巷","ALLEY":" ","HOUSE_NO":"５９號","E_COORD97":169395.26999999999,"N_COORD97":2545530.48,"ADDRESS":"精忠街２８巷５９號","OBJECTID":435354},"geometry":{"x":169395.26999999955,"y":2545530.4800000023}},{"attributes":{"ID":435380,"DIS_CODE":0,"TOWNNAME":"北區","LI":"大山里","LIN":"4鄰","STREET":"精忠街","SECT":" ","MAREA":" ","LANE":"２８巷","ALLEY":" ","HOUSE_NO":"６９號","E_COORD97":169378.51999999999,"N_COORD97":2545534.2200000002,"ADDRESS":"精忠街２８巷６９號","OBJECTID":435355},"geometry":{"x":169378.51999999955,"y":2545534.2200000007}},{"attributes":{"ID":435381,"DIS_CODE":0,"TOWNNAME":"北區","LI":"大山里","LIN":"4鄰","STREET":"精忠街","SECT":" ","MAREA":" ","LANE":"２８巷","ALLEY":" ","HOUSE_NO":"７１號","E_COORD97":169374.92999999999,"N_COORD97":2545533.8399999999,"ADDRESS":"精忠街２８巷７１號","OBJECTID":435356},"geometry":{"x":169374.93000000063,"y":2545533.8400000036}},{"attributes":{"ID":435382,"DIS_CODE":0,"TOWNNAME":"北區","LI":"大山里","LIN":"4鄰","STREET":"精忠街","SECT":" ","MAREA":" ","LANE":"２８巷","ALLEY":" ","HOUSE_NO":"７７之１號","E_COORD97":169358.92999999999,"N_COORD97":2545534.4500000002,"ADDRESS":"精忠街２８巷７７之１號","OBJECTID":435357},"geometry":{"x":169358.9299999997,"y":2545534.4499999993}},{"attributes":{"ID":435383,"DIS_CODE":0,"TOWNNAME":"北區","LI":"大山里","LIN":"4鄰","STREET":"精忠街","SECT":" ","MAREA":" ","LANE":"２８巷","ALLEY":" ","HOUSE_NO":"７７號","E_COORD97":169362.75,"N_COORD97":2545537.2799999998,"ADDRESS":"精忠街２８巷７７號","OBJECTID":435358},"geometry":{"x":169362.75000000186,"y":2545537.2800000031}},{"attributes":{"ID":435384,"DIS_CODE":0,"TOWNNAME":"北區","LI":"大山里","LIN":"6鄰","STREET":"精忠街","SECT":" ","MAREA":" ","LANE":"２５巷","ALLEY":" ","HOUSE_NO":"１８號","E_COORD97":169428.92000000001,"N_COORD97":2545451.2999999998,"ADDRESS":"精忠街２５巷１８號","OBJECTID":435359},"geometry":{"x":169428.91999999993,"y":2545451.3000000026}},{"attributes":{"ID":435385,"DIS_CODE":0,"TOWNNAME":"北區","LI":"大山里","LIN":"6鄰","STREET":"精忠街","SECT":" ","MAREA":" ","LANE":"２５巷","ALLEY":" ","HOUSE_NO":"１８號之１","E_COORD97":169423.28,"N_COORD97":2545429.6600000001,"ADDRESS":"精忠街２５巷１８號之１","OBJECTID":435360},"geometry":{"x":169423.28000000026,"y":2545429.6600000001}},{"attributes":{"ID":435386,"DIS_CODE":0,"TOWNNAME":"北區","LI":"大山里","LIN":"10鄰","STREET":"精忠街","SECT":" ","MAREA":" ","LANE":"２８巷","ALLEY":" ","HOUSE_NO":"７８號","E_COORD97":169353.67000000001,"N_COORD97":2545548.6400000001,"ADDRESS":"精忠街２８巷７８號","OBJECTID":435361},"geometry":{"x":169353.67000000086,"y":2545548.6400000006}},{"attributes":{"ID":435387,"DIS_CODE":0,"TOWNNAME":"北區","LI":"大山里","LIN":"10鄰","STREET":"精忠街","SECT":" ","MAREA":" ","LANE":"２８巷","ALLEY":" ","HOUSE_NO":"７８號之１","E_COORD97":169345.37,"N_COORD97":2545551.0800000001,"ADDRESS":"精忠街２８巷７８號之１","OBJECTID":435362},"geometry":{"x":169345.37000000104,"y":2545551.0800000019}},{"attributes":{"ID":435388,"DIS_CODE":0,"TOWNNAME":"北區","LI":"大仁里","LIN":"3鄰","STREET":"北門路","SECT":"二段","MAREA":" ","LANE":"３４４巷","ALLEY":" ","HOUSE_NO":"５號","E_COORD97":169620.76000000001,"N_COORD97":2545399.9900000002,"ADDRESS":"北門路二段３４４巷５號","OBJECTID":435363},"geometry":{"x":169620.76000000071,"y":2545399.9900000002}},{"attributes":{"ID":435389,"DIS_CODE":0,"TOWNNAME":"北區","LI":"大仁里","LIN":"3鄰","STREET":"北門路","SECT":"二段","MAREA":" ","LANE":"３４４巷","ALLEY":" ","HOUSE_NO":"７號","E_COORD97":169597.20000000001,"N_COORD97":2545367.4700000002,"ADDRESS":"北門路二段３４４巷７號","OBJECTID":435364},"geometry":{"x":169597.20000000205,"y":2545367.4700000007}},{"attributes":{"ID":435390,"DIS_CODE":0,"TOWNNAME":"北區","LI":"大仁里","LIN":"2鄰","STREET":"北門路","SECT":"二段","MAREA":" ","LANE":"３４４巷","ALLEY":" ","HOUSE_NO":"２７號","E_COORD97":169588.84,"N_COORD97":2545334.6099999999,"ADDRESS":"北門路二段３４４巷２７號","OBJECTID":435365},"geometry":{"x":169588.83999999985,"y":2545334.6099999994}},{"attributes":{"ID":435391,"DIS_CODE":0,"TOWNNAME":"北區","LI":"大仁里","LIN":"2鄰","STREET":"北門路","SECT":"二段","MAREA":" ","LANE":"３４４巷","ALLEY":" ","HOUSE_NO":"２９號","E_COORD97":169586.59,"N_COORD97":2545331.4199999999,"ADDRESS":"北門路二段３４４巷２９號","OBJECTID":435366},"geometry":{"x":169586.58999999985,"y":2545331.4200000018}},{"attributes":{"ID":435392,"DIS_CODE":0,"TOWNNAME":"北區","LI":"大仁里","LIN":"2鄰","STREET":"北門路","SECT":"二段","MAREA":" ","LANE":"３４４巷","ALLEY":" ","HOUSE_NO":"３１號","E_COORD97":169585.06,"N_COORD97":2545326.7400000002,"ADDRESS":"北門路二段３４４巷３１號","OBJECTID":435367},"geometry":{"x":169585.05999999959,"y":2545326.7400000002}},{"attributes":{"ID":435393,"DIS_CODE":0,"TOWNNAME":"北區","LI":"大仁里","LIN":"2鄰","STREET":"北門路","SECT":"二段","MAREA":" ","LANE":"３４４巷","ALLEY":" ","HOUSE_NO":"６號","E_COORD97":169600.92999999999,"N_COORD97":2545366.5899999999,"ADDRESS":"北門路二段３４４巷６號","OBJECTID":435368},"geometry":{"x":169600.93000000063,"y":2545366.5900000017}},{"attributes":{"ID":435394,"DIS_CODE":0,"TOWNNAME":"北區","LI":"大仁里","LIN":"6鄰","STREET":"北門路","SECT":"二段","MAREA":" ","LANE":"２４７巷","ALLEY":" ","HOUSE_NO":"１０號","E_COORD97":169508.73999999999,"N_COORD97":2545344.7200000002,"ADDRESS":"北門路二段２４７巷１０號","OBJECTID":435369},"geometry":{"x":169508.74000000209,"y":2545344.7200000007}},{"attributes":{"ID":435395,"DIS_CODE":0,"TOWNNAME":"北區","LI":"大仁里","LIN":"6鄰","STREET":"北門路","SECT":"二段","MAREA":" ","LANE":"２４７巷","ALLEY":" ","HOUSE_NO":"２０號","E_COORD97":169500.19,"N_COORD97":2545375.1099999999,"ADDRESS":"北門路二段２４７巷２０號","OBJECTID":435370},"geometry":{"x":169500.19000000041,"y":2545375.1099999994}},{"attributes":{"ID":435396,"DIS_CODE":0,"TOWNNAME":"北區","LI":"大仁里","LIN":"6鄰","STREET":"北門路","SECT":"二段","MAREA":" ","LANE":"２４７巷","ALLEY":" ","HOUSE_NO":"２０號之１","E_COORD97":169498.73000000001,"N_COORD97":2545380.3999999999,"ADDRESS":"北門路二段２４７巷２０號之１","OBJECTID":435371},"geometry":{"x":169498.72999999952,"y":2545380.4000000004}},{"attributes":{"ID":435397,"DIS_CODE":0,"TOWNNAME":"北區","LI":"大仁里","LIN":"6鄰","STREET":"北門路","SECT":"二段","MAREA":" ","LANE":"２４７巷","ALLEY":" ","HOUSE_NO":"２２號","E_COORD97":169496.14000000001,"N_COORD97":2545386.4300000002,"ADDRESS":"北門路二段２４７巷２２號","OBJECTID":435372},"geometry":{"x":169496.13999999966,"y":2545386.4299999997}},{"attributes":{"ID":435398,"DIS_CODE":0,"TOWNNAME":"安平區","LI":"海頭里","LIN":"11鄰","STREET":"中興街","SECT":" ","MAREA":" ","LANE":"３７巷","ALLEY":" ","HOUSE_NO":"１０號","E_COORD97":164054.32000000001,"N_COORD97":2544735.4700000002,"ADDRESS":"中興街３７巷１０號","OBJECTID":435373},"geometry":{"x":164054.3200000003,"y":2544735.4700000007}},{"attributes":{"ID":435399,"DIS_CODE":0,"TOWNNAME":"安平區","LI":"平通里","LIN":"3鄰","STREET":"平通路","SECT":" ","MAREA":" ","LANE":"５８０巷","ALLEY":" ","HOUSE_NO":"９２號","E_COORD97":164979.32000000001,"N_COORD97":2544164.9199999999,"ADDRESS":"平通路５８０巷９２號","OBJECTID":435374},"geometry":{"x":164979.32000000123,"y":2544164.9200000018}},{"attributes":{"ID":435400,"DIS_CODE":0,"TOWNNAME":"安平區","LI":"海頭里","LIN":"4鄰","STREET":"安北路","SECT":" ","MAREA":" ","LANE":"１２１巷","ALLEY":" ","HOUSE_NO":"１號","E_COORD97":164226.01000000001,"N_COORD97":2544807.0899999999,"ADDRESS":"安北路１２１巷１號","OBJECTID":435375},"geometry":{"x":164226.01000000164,"y":2544807.0900000017}},{"attributes":{"ID":435401,"DIS_CODE":0,"TOWNNAME":"麻豆區","LI":"大埕里","LIN":"8鄰","STREET":" ","SECT":" ","MAREA":"大埕","LANE":" ","ALLEY":" ","HOUSE_NO":"１５號之９","E_COORD97":173190.48715,"N_COORD97":2565317.3346799999,"ADDRESS":"大埕１５號之９","OBJECTID":435376},"geometry":{"x":173190.48715000134,"y":2565317.3346800003}},{"attributes":{"ID":435402,"DIS_CODE":0,"TOWNNAME":"安平區","LI":"海頭里","LIN":"4鄰","STREET":"安北路","SECT":" ","MAREA":" ","LANE":"１２１巷","ALLEY":" ","HOUSE_NO":"３號之１","E_COORD97":164239.73000000001,"N_COORD97":2544794.5699999998,"ADDRESS":"安北路１２１巷３號之１","OBJECTID":435377},"geometry":{"x":164239.73000000045,"y":2544794.5700000022}},{"attributes":{"ID":435403,"DIS_CODE":0,"TOWNNAME":"安平區","LI":"海頭里","LIN":"4鄰","STREET":"安北路","SECT":" ","MAREA":" ","LANE":"１２１巷","ALLEY":" ","HOUSE_NO":"５號","E_COORD97":164219.14000000001,"N_COORD97":2544792.6800000002,"ADDRESS":"安北路１２１巷５號","OBJECTID":435378},"geometry":{"x":164219.13999999966,"y":2544792.6800000016}},{"attributes":{"ID":435404,"DIS_CODE":0,"TOWNNAME":"安平區","LI":"海頭里","LIN":"4鄰","STREET":"安北路","SECT":" ","MAREA":" ","LANE":"１２１巷","ALLEY":" ","HOUSE_NO":"５號之１","E_COORD97":164232.51999999999,"N_COORD97":2544786.1800000002,"ADDRESS":"安北路１２１巷５號之１","OBJECTID":435379},"geometry":{"x":164232.52000000142,"y":2544786.1800000016}},{"attributes":{"ID":435405,"DIS_CODE":0,"TOWNNAME":"安平區","LI":"海頭里","LIN":"4鄰","STREET":"安北路","SECT":" ","MAREA":" ","LANE":"１２１巷","ALLEY":" ","HOUSE_NO":"７號","E_COORD97":164212.48999999999,"N_COORD97":2544777.23,"ADDRESS":"安北路１２１巷７號","OBJECTID":435380},"geometry":{"x":164212.49000000022,"y":2544777.2300000023}},{"attributes":{"ID":435406,"DIS_CODE":0,"TOWNNAME":"安平區","LI":"海頭里","LIN":"4鄰","STREET":"中興街","SECT":" ","MAREA":" ","LANE":"１８巷","ALLEY":" ","HOUSE_NO":"１號","E_COORD97":164242.45999999999,"N_COORD97":2544692.9399999999,"ADDRESS":"中興街１８巷１號","OBJECTID":435381},"geometry":{"x":164242.46000000089,"y":2544692.9400000013}},{"attributes":{"ID":435407,"DIS_CODE":0,"TOWNNAME":"安平區","LI":"西門里","LIN":"4鄰","STREET":"安平路","SECT":" ","MAREA":" ","LANE":"８５０巷","ALLEY":" ","HOUSE_NO":"１０號","E_COORD97":163779.03,"N_COORD97":2544626.1899999999,"ADDRESS":"安平路８５０巷１０號","OBJECTID":435382},"geometry":{"x":163779.03000000119,"y":2544626.1900000013}},{"attributes":{"ID":435408,"DIS_CODE":0,"TOWNNAME":"安平區","LI":"西門里","LIN":"4鄰","STREET":"安平路","SECT":" ","MAREA":" ","LANE":"８５０巷","ALLEY":" ","HOUSE_NO":"１２號","E_COORD97":163784.14999999999,"N_COORD97":2544626.6099999999,"ADDRESS":"安平路８５０巷１２號","OBJECTID":435383},"geometry":{"x":163784.15000000037,"y":2544626.6100000031}},{"attributes":{"ID":435409,"DIS_CODE":0,"TOWNNAME":"北區","LI":"大和里","LIN":"4鄰","STREET":"大興街","SECT":" ","MAREA":" ","LANE":"９６巷","ALLEY":" ","HOUSE_NO":"１５號","E_COORD97":167113.67999999999,"N_COORD97":2545825.71,"ADDRESS":"大興街９６巷１５號","OBJECTID":435384},"geometry":{"x":167113.68000000063,"y":2545825.7100000028}},{"attributes":{"ID":435410,"DIS_CODE":0,"TOWNNAME":"北區","LI":"大和里","LIN":"4鄰","STREET":"大興街","SECT":" ","MAREA":" ","LANE":"９６巷","ALLEY":" ","HOUSE_NO":"１７號","E_COORD97":167112.95000000001,"N_COORD97":2545830.3999999999,"ADDRESS":"大興街９６巷１７號","OBJECTID":435385},"geometry":{"x":167112.95000000019,"y":2545830.4000000022}},{"attributes":{"ID":435411,"DIS_CODE":0,"TOWNNAME":"北區","LI":"大和里","LIN":"4鄰","STREET":"大興街","SECT":" ","MAREA":" ","LANE":"９６巷","ALLEY":" ","HOUSE_NO":"１９號","E_COORD97":167112.34,"N_COORD97":2545834.6899999999,"ADDRESS":"大興街９６巷１９號","OBJECTID":435386},"geometry":{"x":167112.34000000171,"y":2545834.6899999995}},{"attributes":{"ID":435412,"DIS_CODE":0,"TOWNNAME":"北區","LI":"大和里","LIN":"4鄰","STREET":"大興街","SECT":" ","MAREA":" ","LANE":"９６巷","ALLEY":" ","HOUSE_NO":"１號","E_COORD97":167117.03,"N_COORD97":2545793.6899999999,"ADDRESS":"大興街９６巷１號","OBJECTID":435387},"geometry":{"x":167117.03000000119,"y":2545793.6900000013}},{"attributes":{"ID":435413,"DIS_CODE":0,"TOWNNAME":"北區","LI":"大和里","LIN":"4鄰","STREET":"大興街","SECT":" ","MAREA":" ","LANE":"９６巷","ALLEY":" ","HOUSE_NO":"２１號","E_COORD97":167111.60999999999,"N_COORD97":2545839.2400000002,"ADDRESS":"大興街９６巷２１號","OBJECTID":435388},"geometry":{"x":167111.61000000127,"y":2545839.2400000002}},{"attributes":{"ID":435414,"DIS_CODE":0,"TOWNNAME":"北區","LI":"大和里","LIN":"4鄰","STREET":"大興街","SECT":" ","MAREA":" ","LANE":"９６巷","ALLEY":" ","HOUSE_NO":"２３號","E_COORD97":167111.20999999999,"N_COORD97":2545843.6699999999,"ADDRESS":"大興街９６巷２３號","OBJECTID":435389},"geometry":{"x":167111.20999999996,"y":2545843.6700000037}},{"attributes":{"ID":435415,"DIS_CODE":0,"TOWNNAME":"北區","LI":"大和里","LIN":"4鄰","STREET":"大興街","SECT":" ","MAREA":" ","LANE":"９６巷","ALLEY":" ","HOUSE_NO":"２５號","E_COORD97":167110.79999999999,"N_COORD97":2545848.2799999998,"ADDRESS":"大興街９６巷２５號","OBJECTID":435390},"geometry":{"x":167110.79999999888,"y":2545848.2799999993}},{"attributes":{"ID":435416,"DIS_CODE":0,"TOWNNAME":"北區","LI":"大和里","LIN":"4鄰","STREET":"大興街","SECT":" ","MAREA":" ","LANE":"９６巷","ALLEY":" ","HOUSE_NO":"２７號","E_COORD97":167110,"N_COORD97":2545852.71,"ADDRESS":"大興街９６巷２７號","OBJECTID":435391},"geometry":{"x":167110.00000000093,"y":2545852.7100000028}},{"attributes":{"ID":435417,"DIS_CODE":0,"TOWNNAME":"北區","LI":"大和里","LIN":"4鄰","STREET":"大興街","SECT":" ","MAREA":" ","LANE":"９６巷","ALLEY":" ","HOUSE_NO":"２９號","E_COORD97":167109.53,"N_COORD97":2545857.54,"ADDRESS":"大興街９６巷２９號","OBJECTID":435392},"geometry":{"x":167109.53000000026,"y":2545857.540000001}},{"attributes":{"ID":435418,"DIS_CODE":0,"TOWNNAME":"北區","LI":"大和里","LIN":"4鄰","STREET":"大興街","SECT":" ","MAREA":" ","LANE":"９６巷","ALLEY":" ","HOUSE_NO":"３１號","E_COORD97":167108.79000000001,"N_COORD97":2545861.9700000002,"ADDRESS":"大興街９６巷３１號","OBJECTID":435393},"geometry":{"x":167108.79000000004,"y":2545861.9700000007}},{"attributes":{"ID":435419,"DIS_CODE":0,"TOWNNAME":"北區","LI":"大和里","LIN":"4鄰","STREET":"大興街","SECT":" ","MAREA":" ","LANE":"９６巷","ALLEY":" ","HOUSE_NO":"３３號","E_COORD97":167108.45999999999,"N_COORD97":2545866.5899999999,"ADDRESS":"大興街９６巷３３號","OBJECTID":435394},"geometry":{"x":167108.46000000089,"y":2545866.5899999999}},{"attributes":{"ID":435420,"DIS_CODE":0,"TOWNNAME":"北區","LI":"大和里","LIN":"4鄰","STREET":"大興街","SECT":" ","MAREA":" ","LANE":"９６巷","ALLEY":" ","HOUSE_NO":"３５號","E_COORD97":167108.32999999999,"N_COORD97":2545870.8700000001,"ADDRESS":"大興街９６巷３５號","OBJECTID":435395},"geometry":{"x":167108.33000000101,"y":2545870.8700000048}},{"attributes":{"ID":435421,"DIS_CODE":0,"TOWNNAME":"北區","LI":"大和里","LIN":"4鄰","STREET":"大興街","SECT":" ","MAREA":" ","LANE":"９６巷","ALLEY":" ","HOUSE_NO":"３７號","E_COORD97":167107.19,"N_COORD97":2545887.6699999999,"ADDRESS":"大興街９６巷３７號","OBJECTID":435396},"geometry":{"x":167107.19000000227,"y":2545887.6700000037}},{"attributes":{"ID":435422,"DIS_CODE":0,"TOWNNAME":"北區","LI":"大和里","LIN":"4鄰","STREET":"大興街","SECT":" ","MAREA":" ","LANE":"９６巷","ALLEY":" ","HOUSE_NO":"３號","E_COORD97":167116.63,"N_COORD97":2545798.4399999999,"ADDRESS":"大興街９６巷３號","OBJECTID":435397},"geometry":{"x":167116.62999999989,"y":2545798.4400000013}},{"attributes":{"ID":435423,"DIS_CODE":0,"TOWNNAME":"北區","LI":"大和里","LIN":"4鄰","STREET":"大興街","SECT":" ","MAREA":" ","LANE":"９６巷","ALLEY":" ","HOUSE_NO":"４５號","E_COORD97":167107.20000000001,"N_COORD97":2545897.2999999998,"ADDRESS":"大興街９６巷４５號","OBJECTID":435398},"geometry":{"x":167107.20000000112,"y":2545897.3000000007}},{"attributes":{"ID":435424,"DIS_CODE":0,"TOWNNAME":"北區","LI":"大和里","LIN":"4鄰","STREET":"大興街","SECT":" ","MAREA":" ","LANE":"９６巷","ALLEY":" ","HOUSE_NO":"４７號","E_COORD97":167106.59,"N_COORD97":2545901.8999999999,"ADDRESS":"大興街９６巷４７號","OBJECTID":435399},"geometry":{"x":167106.58999999985,"y":2545901.9000000004}},{"attributes":{"ID":435425,"DIS_CODE":0,"TOWNNAME":"北區","LI":"大和里","LIN":"4鄰","STREET":"大興街","SECT":" ","MAREA":" ","LANE":"９６巷","ALLEY":" ","HOUSE_NO":"４９號","E_COORD97":167106.53,"N_COORD97":2545905.7599999998,"ADDRESS":"大興街９６巷４９號","OBJECTID":435400},"geometry":{"x":167106.53000000212,"y":2545905.7599999998}}]}