{"displayFieldName":"TOWNNAME","fieldAliases":{"ID":"ID","DIS_CODE":"DIS_CODE","TOWNNAME":"TOWNNAME","LI":"LI","LIN":"LIN","STREET":"STREET","SECT":"SECT","MAREA":"MAREA","LANE":"LANE","ALLEY":"ALLEY","HOUSE_NO":"HOUSE_NO","E_COORD97":"E_COORD97","N_COORD97":"N_COORD97","ADDRESS":"ADDRESS","OBJECTID":"OBJECTID"},"geometryType":"esriGeometryPoint","spatialReference":{"wkid":102443,"latestWkid":3826},"fields":[{"name":"ID","type":"esriFieldTypeDouble","alias":"ID"},{"name":"DIS_CODE","type":"esriFieldTypeInteger","alias":"DIS_CODE"},{"name":"TOWNNAME","type":"esriFieldTypeString","alias":"TOWNNAME","length":8},{"name":"LI","type":"esriFieldTypeString","alias":"LI","length":8},{"name":"LIN","type":"esriFieldTypeString","alias":"LIN","length":12},{"name":"STREET","type":"esriFieldTypeString","alias":"STREET","length":20},{"name":"SECT","type":"esriFieldTypeString","alias":"SECT","length":8},{"name":"MAREA","type":"esriFieldTypeString","alias":"MAREA","length":12},{"name":"LANE","type":"esriFieldTypeString","alias":"LANE","length":10},{"name":"ALLEY","type":"esriFieldTypeString","alias":"ALLEY","length":10},{"name":"HOUSE_NO","type":"esriFieldTypeString","alias":"HOUSE_NO","length":20},{"name":"E_COORD97","type":"esriFieldTypeDouble","alias":"E_COORD97"},{"name":"N_COORD97","type":"esriFieldTypeDouble","alias":"N_COORD97"},{"name":"ADDRESS","type":"esriFieldTypeString","alias":"ADDRESS","length":50},{"name":"OBJECTID","type":"esriFieldTypeOID","alias":"OBJECTID"}],"features":[{"attributes":{"ID":208402,"DIS_CODE":0,"TOWNNAME":"永康區","LI":"成功里","LIN":"32鄰","STREET":"忠孝路","SECT":" ","MAREA":" ","LANE":"２０３巷","ALLEY":"６４弄","HOUSE_NO":"５號","E_COORD97":171903.25,"N_COORD97":2544870,"ADDRESS":"忠孝路２０３巷６４弄５號","OBJECTID":208401},"geometry":{"x":171903.25,"y":2544870.0000000019}},{"attributes":{"ID":208403,"DIS_CODE":0,"TOWNNAME":"東區","LI":"新東里","LIN":"14鄰","STREET":"裕豐街","SECT":" ","MAREA":" ","LANE":"１１５巷","ALLEY":" ","HOUSE_NO":"４號","E_COORD97":170733.37,"N_COORD97":2543030.1000000001,"ADDRESS":"裕豐街１１５巷４號","OBJECTID":208402},"geometry":{"x":170733.37000000197,"y":2543030.1000000015}},{"attributes":{"ID":208404,"DIS_CODE":0,"TOWNNAME":"東區","LI":"大智里","LIN":"24鄰","STREET":"文東街","SECT":" ","MAREA":" ","LANE":" ","ALLEY":" ","HOUSE_NO":"１０６號","E_COORD97":171474.16,"N_COORD97":2540164.1099999999,"ADDRESS":"文東街１０６號","OBJECTID":208403},"geometry":{"x":171474.16000000108,"y":2540164.1099999994}},{"attributes":{"ID":208405,"DIS_CODE":0,"TOWNNAME":"東區","LI":"大智里","LIN":"24鄰","STREET":"文東街","SECT":" ","MAREA":" ","LANE":" ","ALLEY":" ","HOUSE_NO":"１０８號","E_COORD97":171478.34,"N_COORD97":2540167.1099999999,"ADDRESS":"文東街１０８號","OBJECTID":208404},"geometry":{"x":171478.33999999985,"y":2540167.1099999994}},{"attributes":{"ID":208406,"DIS_CODE":0,"TOWNNAME":"東區","LI":"大智里","LIN":"24鄰","STREET":"文東街","SECT":" ","MAREA":" ","LANE":" ","ALLEY":" ","HOUSE_NO":"１１２號","E_COORD97":171466.81,"N_COORD97":2540181.1400000001,"ADDRESS":"文東街１１２號","OBJECTID":208405},"geometry":{"x":171466.80999999959,"y":2540181.1400000006}},{"attributes":{"ID":208407,"DIS_CODE":0,"TOWNNAME":"東區","LI":"大智里","LIN":"24鄰","STREET":"文東街","SECT":" ","MAREA":" ","LANE":" ","ALLEY":" ","HOUSE_NO":"１１４號","E_COORD97":171461.54000000001,"N_COORD97":2540179.3900000001,"ADDRESS":"文東街１１４號","OBJECTID":208406},"geometry":{"x":171461.54000000097,"y":2540179.3900000006}},{"attributes":{"ID":208408,"DIS_CODE":0,"TOWNNAME":"東區","LI":"大智里","LIN":"24鄰","STREET":"文東街","SECT":" ","MAREA":" ","LANE":" ","ALLEY":" ","HOUSE_NO":"１１６號","E_COORD97":171455.94,"N_COORD97":2540179.0499999998,"ADDRESS":"文東街１１６號","OBJECTID":208407},"geometry":{"x":171455.94000000134,"y":2540179.0500000007}},{"attributes":{"ID":208409,"DIS_CODE":0,"TOWNNAME":"東區","LI":"大智里","LIN":"24鄰","STREET":"文東街","SECT":" ","MAREA":" ","LANE":" ","ALLEY":" ","HOUSE_NO":"９０號","E_COORD97":171434.51999999999,"N_COORD97":2540175.5299999998,"ADDRESS":"文東街９０號","OBJECTID":208408},"geometry":{"x":171434.51999999955,"y":2540175.5300000012}},{"attributes":{"ID":208410,"DIS_CODE":0,"TOWNNAME":"東區","LI":"大智里","LIN":"24鄰","STREET":"文東街","SECT":" ","MAREA":" ","LANE":" ","ALLEY":" ","HOUSE_NO":"９４號","E_COORD97":171434.59,"N_COORD97":2540167.1099999999,"ADDRESS":"文東街９４號","OBJECTID":208409},"geometry":{"x":171434.58999999985,"y":2540167.1099999994}},{"attributes":{"ID":208411,"DIS_CODE":0,"TOWNNAME":"東區","LI":"大智里","LIN":"24鄰","STREET":"文東街","SECT":" ","MAREA":" ","LANE":" ","ALLEY":" ","HOUSE_NO":"９６號","E_COORD97":171434.31,"N_COORD97":2540163.0499999998,"ADDRESS":"文東街９６號","OBJECTID":208410},"geometry":{"x":171434.30999999959,"y":2540163.0500000045}},{"attributes":{"ID":208412,"DIS_CODE":0,"TOWNNAME":"東區","LI":"大智里","LIN":"24鄰","STREET":"文東街","SECT":" ","MAREA":" ","LANE":" ","ALLEY":" ","HOUSE_NO":"９８號","E_COORD97":171455.35999999999,"N_COORD97":2540162.1800000002,"ADDRESS":"文東街９８號","OBJECTID":208411},"geometry":{"x":171455.36000000034,"y":2540162.1800000016}},{"attributes":{"ID":208413,"DIS_CODE":0,"TOWNNAME":"仁德區","LI":"仁德里","LIN":"24鄰","STREET":"文孝路","SECT":" ","MAREA":" ","LANE":" ","ALLEY":" ","HOUSE_NO":"６１號","E_COORD97":172044.92999999999,"N_COORD97":2541371.8300000001,"ADDRESS":"文孝路６１號","OBJECTID":208412},"geometry":{"x":172044.93000000063,"y":2541371.8300000019}},{"attributes":{"ID":208414,"DIS_CODE":0,"TOWNNAME":"仁德區","LI":"後壁里","LIN":"24鄰","STREET":"中正路","SECT":"二段","MAREA":" ","LANE":" ","ALLEY":" ","HOUSE_NO":"２８３號","E_COORD97":173236,"N_COORD97":2539036.52,"ADDRESS":"中正路二段２８３號","OBJECTID":208413},"geometry":{"x":173236,"y":2539036.5200000033}},{"attributes":{"ID":208415,"DIS_CODE":0,"TOWNNAME":"仁德區","LI":"後壁里","LIN":"24鄰","STREET":"中正路","SECT":"二段","MAREA":" ","LANE":" ","ALLEY":" ","HOUSE_NO":"２７５號","E_COORD97":173228.31,"N_COORD97":2539019.52,"ADDRESS":"中正路二段２７５號","OBJECTID":208414},"geometry":{"x":173228.30999999959,"y":2539019.5200000033}},{"attributes":{"ID":208416,"DIS_CODE":0,"TOWNNAME":"仁德區","LI":"後壁里","LIN":"24鄰","STREET":"中正路","SECT":"二段","MAREA":" ","LANE":" ","ALLEY":" ","HOUSE_NO":"２１３號","E_COORD97":173217.70999999999,"N_COORD97":2538860.2799999998,"ADDRESS":"中正路二段２１３號","OBJECTID":208415},"geometry":{"x":173217.71000000183,"y":2538860.2799999993}},{"attributes":{"ID":208417,"DIS_CODE":0,"TOWNNAME":"佳里區","LI":"禮化里","LIN":"9鄰","STREET":" ","SECT":" ","MAREA":"佳里興","LANE":" ","ALLEY":" ","HOUSE_NO":"３１７號之１","E_COORD97":166938.76999999999,"N_COORD97":2565711.2799999998,"ADDRESS":"佳里興３１７號之１","OBJECTID":208416},"geometry":{"x":166938.76999999955,"y":2565711.2800000012}},{"attributes":{"ID":208418,"DIS_CODE":0,"TOWNNAME":"佳里區","LI":"禮化里","LIN":"9鄰","STREET":" ","SECT":" ","MAREA":"佳里興","LANE":" ","ALLEY":" ","HOUSE_NO":"３１７號","E_COORD97":166939.97,"N_COORD97":2565717.0699999998,"ADDRESS":"佳里興３１７號","OBJECTID":208417},"geometry":{"x":166939.96999999974,"y":2565717.0700000022}},{"attributes":{"ID":208419,"DIS_CODE":0,"TOWNNAME":"佳里區","LI":"禮化里","LIN":"9鄰","STREET":" ","SECT":" ","MAREA":"佳里興","LANE":" ","ALLEY":" ","HOUSE_NO":"３１８號","E_COORD97":166939.59,"N_COORD97":2565704.71,"ADDRESS":"佳里興３１８號","OBJECTID":208418},"geometry":{"x":166939.59000000078,"y":2565704.7100000009}},{"attributes":{"ID":208420,"DIS_CODE":0,"TOWNNAME":"佳里區","LI":"禮化里","LIN":"9鄰","STREET":" ","SECT":" ","MAREA":"佳里興","LANE":" ","ALLEY":" ","HOUSE_NO":"３１９號","E_COORD97":166940.26999999999,"N_COORD97":2565693.3799999999,"ADDRESS":"佳里興３１９號","OBJECTID":208419},"geometry":{"x":166940.27000000048,"y":2565693.3800000008}},{"attributes":{"ID":208421,"DIS_CODE":0,"TOWNNAME":"佳里區","LI":"禮化里","LIN":"9鄰","STREET":" ","SECT":" ","MAREA":"佳里興","LANE":" ","ALLEY":" ","HOUSE_NO":"３２５號","E_COORD97":166926.69,"N_COORD97":2565673.0699999998,"ADDRESS":"佳里興３２５號","OBJECTID":208420},"geometry":{"x":166926.69000000041,"y":2565673.0700000022}},{"attributes":{"ID":208422,"DIS_CODE":0,"TOWNNAME":"佳里區","LI":"禮化里","LIN":"9鄰","STREET":" ","SECT":" ","MAREA":"佳里興","LANE":" ","ALLEY":" ","HOUSE_NO":"３２６號","E_COORD97":166897.63,"N_COORD97":2565642.73,"ADDRESS":"佳里興３２６號","OBJECTID":208421},"geometry":{"x":166897.63000000082,"y":2565642.7300000004}},{"attributes":{"ID":208423,"DIS_CODE":0,"TOWNNAME":"佳里區","LI":"禮化里","LIN":"9鄰","STREET":" ","SECT":" ","MAREA":"佳里興","LANE":" ","ALLEY":" ","HOUSE_NO":"３２７號之１","E_COORD97":166887.14000000001,"N_COORD97":2565641.3799999999,"ADDRESS":"佳里興３２７號之１","OBJECTID":208422},"geometry":{"x":166887.1400000006,"y":2565641.3800000008}},{"attributes":{"ID":208424,"DIS_CODE":0,"TOWNNAME":"佳里區","LI":"興化里","LIN":"9鄰","STREET":" ","SECT":" ","MAREA":"佳里興","LANE":" ","ALLEY":" ","HOUSE_NO":"４９３號之１","E_COORD97":166826.23999999999,"N_COORD97":2565450.3399999999,"ADDRESS":"佳里興４９３號之１","OBJECTID":208423},"geometry":{"x":166826.24000000022,"y":2565450.3400000017}},{"attributes":{"ID":208425,"DIS_CODE":0,"TOWNNAME":"佳里區","LI":"興化里","LIN":"9鄰","STREET":" ","SECT":" ","MAREA":"佳里興","LANE":" ","ALLEY":" ","HOUSE_NO":"４９３號之４","E_COORD97":166818.78,"N_COORD97":2565436.54,"ADDRESS":"佳里興４９３號之４","OBJECTID":208424},"geometry":{"x":166818.78000000119,"y":2565436.5400000028}},{"attributes":{"ID":208426,"DIS_CODE":0,"TOWNNAME":"佳里區","LI":"佳化里","LIN":"9鄰","STREET":" ","SECT":" ","MAREA":"佳里興","LANE":" ","ALLEY":" ","HOUSE_NO":"８８號之８","E_COORD97":167452.32999999999,"N_COORD97":2565153.0600000001,"ADDRESS":"佳里興８８號之８","OBJECTID":208425},"geometry":{"x":167452.33000000101,"y":2565153.0599999987}},{"attributes":{"ID":208427,"DIS_CODE":0,"TOWNNAME":"善化區","LI":"六德里","LIN":"2鄰","STREET":" ","SECT":" ","MAREA":"六分寮","LANE":" ","ALLEY":" ","HOUSE_NO":"２０７號","E_COORD97":178807.76000000001,"N_COORD97":2561826.75,"ADDRESS":"六分寮２０７號","OBJECTID":208426},"geometry":{"x":178807.75999999978,"y":2561826.7500000019}},{"attributes":{"ID":208428,"DIS_CODE":0,"TOWNNAME":"善化區","LI":"小新里","LIN":"2鄰","STREET":" ","SECT":" ","MAREA":"小新營","LANE":" ","ALLEY":" ","HOUSE_NO":"１０號之７","E_COORD97":179873.06,"N_COORD97":2558463.52,"ADDRESS":"小新營１０號之７","OBJECTID":208427},"geometry":{"x":179873.05999999959,"y":2558463.5200000033}},{"attributes":{"ID":208429,"DIS_CODE":0,"TOWNNAME":"善化區","LI":"小新里","LIN":"2鄰","STREET":" ","SECT":" ","MAREA":"小新營","LANE":" ","ALLEY":" ","HOUSE_NO":"１０號之１５","E_COORD97":179840.60999999999,"N_COORD97":2558473.52,"ADDRESS":"小新營１０號之１５","OBJECTID":208428},"geometry":{"x":179840.61000000127,"y":2558473.5200000033}},{"attributes":{"ID":208430,"DIS_CODE":0,"TOWNNAME":"官田區","LI":"東庄里","LIN":"2鄰","STREET":" ","SECT":" ","MAREA":"西庄","LANE":" ","ALLEY":" ","HOUSE_NO":"１０８號","E_COORD97":177878.94,"N_COORD97":2565256.8999999999,"ADDRESS":"西庄１０８號","OBJECTID":208429},"geometry":{"x":177878.94000000134,"y":2565256.9000000022}},{"attributes":{"ID":208431,"DIS_CODE":0,"TOWNNAME":"官田區","LI":"東庄里","LIN":"2鄰","STREET":" ","SECT":" ","MAREA":"西庄","LANE":" ","ALLEY":" ","HOUSE_NO":"１０９號","E_COORD97":177871.12,"N_COORD97":2565239.75,"ADDRESS":"西庄１０９號","OBJECTID":208430},"geometry":{"x":177871.12000000011,"y":2565239.7500000037}},{"attributes":{"ID":208432,"DIS_CODE":0,"TOWNNAME":"官田區","LI":"東庄里","LIN":"2鄰","STREET":" ","SECT":" ","MAREA":"西庄","LANE":" ","ALLEY":" ","HOUSE_NO":"１１０號","E_COORD97":177862.20000000001,"N_COORD97":2565216.6099999999,"ADDRESS":"西庄１１０號","OBJECTID":208431},"geometry":{"x":177862.20000000019,"y":2565216.6100000013}},{"attributes":{"ID":208433,"DIS_CODE":0,"TOWNNAME":"官田區","LI":"東庄里","LIN":"2鄰","STREET":" ","SECT":" ","MAREA":"西庄","LANE":" ","ALLEY":" ","HOUSE_NO":"１１１號之１","E_COORD97":177845.04999999999,"N_COORD97":2565216.0499999998,"ADDRESS":"西庄１１１號之１","OBJECTID":208432},"geometry":{"x":177845.05000000075,"y":2565216.0500000026}},{"attributes":{"ID":208434,"DIS_CODE":0,"TOWNNAME":"官田區","LI":"東庄里","LIN":"2鄰","STREET":" ","SECT":" ","MAREA":"西庄","LANE":" ","ALLEY":" ","HOUSE_NO":"１１１號","E_COORD97":177850.73999999999,"N_COORD97":2565214.8999999999,"ADDRESS":"西庄１１１號","OBJECTID":208433},"geometry":{"x":177850.74000000209,"y":2565214.9000000004}},{"attributes":{"ID":208435,"DIS_CODE":0,"TOWNNAME":"官田區","LI":"東庄里","LIN":"2鄰","STREET":" ","SECT":" ","MAREA":"西庄","LANE":" ","ALLEY":" ","HOUSE_NO":"１１２號","E_COORD97":177851.44,"N_COORD97":2565237.23,"ADDRESS":"西庄１１２號","OBJECTID":208434},"geometry":{"x":177851.44000000134,"y":2565237.2300000023}},{"attributes":{"ID":208436,"DIS_CODE":0,"TOWNNAME":"永康區","LI":"二王里","LIN":"32鄰","STREET":"中山南路","SECT":" ","MAREA":" ","LANE":"５１０巷","ALLEY":"３４弄","HOUSE_NO":"７號","E_COORD97":172165.60000000001,"N_COORD97":2546391.46,"ADDRESS":"中山南路５１０巷３４弄７號","OBJECTID":208435},"geometry":{"x":172165.60000000056,"y":2546391.4600000009}},{"attributes":{"ID":208437,"DIS_CODE":0,"TOWNNAME":"永康區","LI":"勝利里","LIN":"32鄰","STREET":"勝利街","SECT":" ","MAREA":" ","LANE":"３０巷","ALLEY":"７弄","HOUSE_NO":"７２號","E_COORD97":171501.64999999999,"N_COORD97":2544512.7200000002,"ADDRESS":"勝利街３０巷７弄７２號","OBJECTID":208436},"geometry":{"x":171501.6500000013,"y":2544512.7200000025}},{"attributes":{"ID":208438,"DIS_CODE":0,"TOWNNAME":"西港區","LI":"慶安里","LIN":"32鄰","STREET":"中山路","SECT":" ","MAREA":" ","LANE":"２２９巷","ALLEY":"６弄","HOUSE_NO":"９５號","E_COORD97":168385.23999999999,"N_COORD97":2557623.7799999998,"ADDRESS":"中山路２２９巷６弄９５號","OBJECTID":208437},"geometry":{"x":168385.24000000115,"y":2557623.7800000031}},{"attributes":{"ID":208439,"DIS_CODE":0,"TOWNNAME":"東區","LI":"忠孝里","LIN":"32鄰","STREET":"崇明六街","SECT":" ","MAREA":" ","LANE":"８巷","ALLEY":"３弄","HOUSE_NO":"１號","E_COORD97":169640.54000000001,"N_COORD97":2542169.04,"ADDRESS":"崇明六街８巷３弄１號","OBJECTID":208438},"geometry":{"x":169640.5400000019,"y":2542169.040000001}},{"attributes":{"ID":208440,"DIS_CODE":0,"TOWNNAME":"東區","LI":"忠孝里","LIN":"32鄰","STREET":"崇明六街","SECT":" ","MAREA":" ","LANE":"８巷","ALLEY":"３弄","HOUSE_NO":"１１號","E_COORD97":169663.60999999999,"N_COORD97":2542182.1800000002,"ADDRESS":"崇明六街８巷３弄１１號","OBJECTID":208439},"geometry":{"x":169663.61000000034,"y":2542182.1800000016}},{"attributes":{"ID":208441,"DIS_CODE":0,"TOWNNAME":"永康區","LI":"南灣里","LIN":"32鄰","STREET":"大灣一街","SECT":" ","MAREA":" ","LANE":"３７巷","ALLEY":"７弄","HOUSE_NO":"１號","E_COORD97":174300.73000000001,"N_COORD97":2544832.77,"ADDRESS":"大灣一街３７巷７弄１號","OBJECTID":208440},"geometry":{"x":174300.73000000045,"y":2544832.7700000014}},{"attributes":{"ID":208442,"DIS_CODE":0,"TOWNNAME":"永康區","LI":"南灣里","LIN":"32鄰","STREET":"大灣一街","SECT":" ","MAREA":" ","LANE":"３７巷","ALLEY":"７弄","HOUSE_NO":"７號","E_COORD97":174287.89000000001,"N_COORD97":2544836.52,"ADDRESS":"大灣一街３７巷７弄７號","OBJECTID":208441},"geometry":{"x":174287.8900000006,"y":2544836.5199999996}},{"attributes":{"ID":208443,"DIS_CODE":0,"TOWNNAME":"永康區","LI":"南灣里","LIN":"32鄰","STREET":"大灣一街","SECT":" ","MAREA":" ","LANE":"３７巷","ALLEY":"７弄","HOUSE_NO":"１０號","E_COORD97":174292.10999999999,"N_COORD97":2544848.9900000002,"ADDRESS":"大灣一街３７巷７弄１０號","OBJECTID":208442},"geometry":{"x":174292.11000000127,"y":2544848.9900000021}},{"attributes":{"ID":208444,"DIS_CODE":0,"TOWNNAME":"佳里區","LI":"興化里","LIN":"9鄰","STREET":" ","SECT":" ","MAREA":"佳里興","LANE":" ","ALLEY":" ","HOUSE_NO":"４９３號之５","E_COORD97":166817.53,"N_COORD97":2565432.71,"ADDRESS":"佳里興４９３號之５","OBJECTID":208443},"geometry":{"x":166817.53000000026,"y":2565432.7100000009}},{"attributes":{"ID":208445,"DIS_CODE":0,"TOWNNAME":"永康區","LI":"南灣里","LIN":"32鄰","STREET":"大灣一街","SECT":" ","MAREA":" ","LANE":"３７巷","ALLEY":"７弄","HOUSE_NO":"１１號","E_COORD97":174277.94,"N_COORD97":2544837.27,"ADDRESS":"大灣一街３７巷７弄１１號","OBJECTID":208444},"geometry":{"x":174277.94000000227,"y":2544837.2700000014}},{"attributes":{"ID":208446,"DIS_CODE":0,"TOWNNAME":"永康區","LI":"南灣里","LIN":"32鄰","STREET":"大灣一街","SECT":" ","MAREA":" ","LANE":"３７巷","ALLEY":"７弄","HOUSE_NO":"２號","E_COORD97":174306.16,"N_COORD97":2544850.9500000002,"ADDRESS":"大灣一街３７巷７弄２號","OBJECTID":208445},"geometry":{"x":174306.16000000015,"y":2544850.950000003}},{"attributes":{"ID":208447,"DIS_CODE":0,"TOWNNAME":"仁德區","LI":"仁德里","LIN":"32鄰","STREET":"中山路","SECT":" ","MAREA":" ","LANE":"６０６巷","ALLEY":"１弄","HOUSE_NO":"１７號","E_COORD97":173189.17000000001,"N_COORD97":2541418.9900000002,"ADDRESS":"中山路６０６巷１弄１７號","OBJECTID":208446},"geometry":{"x":173189.17000000179,"y":2541418.9900000021}},{"attributes":{"ID":208448,"DIS_CODE":0,"TOWNNAME":"佳里區","LI":"興化里","LIN":"9鄰","STREET":" ","SECT":" ","MAREA":"佳里興","LANE":" ","ALLEY":" ","HOUSE_NO":"４９３號","E_COORD97":166833.04000000001,"N_COORD97":2565458.71,"ADDRESS":"佳里興４９３號","OBJECTID":208447},"geometry":{"x":166833.04000000004,"y":2565458.7100000028}},{"attributes":{"ID":208449,"DIS_CODE":0,"TOWNNAME":"佳里區","LI":"興化里","LIN":"9鄰","STREET":" ","SECT":" ","MAREA":"佳里興","LANE":" ","ALLEY":" ","HOUSE_NO":"４９４號","E_COORD97":166794.41,"N_COORD97":2565460.8999999999,"ADDRESS":"佳里興４９４號","OBJECTID":208448},"geometry":{"x":166794.41000000015,"y":2565460.9000000022}},{"attributes":{"ID":208450,"DIS_CODE":0,"TOWNNAME":"仁德區","LI":"後壁里","LIN":"32鄰","STREET":"德洋路","SECT":" ","MAREA":" ","LANE":"２０５巷","ALLEY":"３０弄","HOUSE_NO":"２之１號","E_COORD97":172425.73000000001,"N_COORD97":2539533.54,"ADDRESS":"德洋路２０５巷３０弄２之１號","OBJECTID":208449},"geometry":{"x":172425.73000000045,"y":2539533.5399999991}},{"attributes":{"ID":208451,"DIS_CODE":0,"TOWNNAME":"佳里區","LI":"佳化里","LIN":"9鄰","STREET":" ","SECT":" ","MAREA":"佳里興","LANE":" ","ALLEY":" ","HOUSE_NO":"８８號之９","E_COORD97":167448.29999999999,"N_COORD97":2565153.4500000002,"ADDRESS":"佳里興８８號之９","OBJECTID":208450},"geometry":{"x":167448.30000000168,"y":2565153.4500000011}},{"attributes":{"ID":208452,"DIS_CODE":0,"TOWNNAME":"佳里區","LI":"佳化里","LIN":"9鄰","STREET":" ","SECT":" ","MAREA":"佳里興","LANE":" ","ALLEY":" ","HOUSE_NO":"８８號","E_COORD97":167481.5,"N_COORD97":2565163.0899999999,"ADDRESS":"佳里興８８號","OBJECTID":208451},"geometry":{"x":167481.50000000093,"y":2565163.0900000017}},{"attributes":{"ID":208453,"DIS_CODE":0,"TOWNNAME":"佳里區","LI":"佳化里","LIN":"9鄰","STREET":" ","SECT":" ","MAREA":"佳里興","LANE":" ","ALLEY":" ","HOUSE_NO":"８９號之１","E_COORD97":167475.82000000001,"N_COORD97":2565134.6899999999,"ADDRESS":"佳里興８９號之１","OBJECTID":208452},"geometry":{"x":167475.82000000216,"y":2565134.6900000013}},{"attributes":{"ID":208454,"DIS_CODE":0,"TOWNNAME":"佳里區","LI":"佳化里","LIN":"9鄰","STREET":" ","SECT":" ","MAREA":"佳里興","LANE":" ","ALLEY":" ","HOUSE_NO":"８９號之２","E_COORD97":167475.67000000001,"N_COORD97":2565129.7200000002,"ADDRESS":"佳里興８９號之２","OBJECTID":208453},"geometry":{"x":167475.66999999993,"y":2565129.7200000025}},{"attributes":{"ID":208455,"DIS_CODE":0,"TOWNNAME":"佳里區","LI":"佳化里","LIN":"9鄰","STREET":" ","SECT":" ","MAREA":"佳里興","LANE":" ","ALLEY":" ","HOUSE_NO":"８９號之３","E_COORD97":167466.34,"N_COORD97":2565130.0699999998,"ADDRESS":"佳里興８９號之３","OBJECTID":208454},"geometry":{"x":167466.33999999985,"y":2565130.0700000022}},{"attributes":{"ID":208456,"DIS_CODE":0,"TOWNNAME":"佳里區","LI":"佳化里","LIN":"9鄰","STREET":" ","SECT":" ","MAREA":"佳里興","LANE":" ","ALLEY":" ","HOUSE_NO":"８９號之４","E_COORD97":167460.23000000001,"N_COORD97":2565130.5899999999,"ADDRESS":"佳里興８９號之４","OBJECTID":208455},"geometry":{"x":167460.23000000138,"y":2565130.5899999999}},{"attributes":{"ID":208457,"DIS_CODE":0,"TOWNNAME":"佳里區","LI":"佳化里","LIN":"9鄰","STREET":" ","SECT":" ","MAREA":"佳里興","LANE":" ","ALLEY":" ","HOUSE_NO":"８９號之５","E_COORD97":167454.39999999999,"N_COORD97":2565130.8900000001,"ADDRESS":"佳里興８９號之５","OBJECTID":208456},"geometry":{"x":167454.40000000037,"y":2565130.8900000043}},{"attributes":{"ID":208458,"DIS_CODE":0,"TOWNNAME":"佳里區","LI":"佳化里","LIN":"9鄰","STREET":" ","SECT":" ","MAREA":"佳里興","LANE":" ","ALLEY":" ","HOUSE_NO":"８９號之６","E_COORD97":167448.28,"N_COORD97":2565131.21,"ADDRESS":"佳里興８９號之６","OBJECTID":208457},"geometry":{"x":167448.28000000026,"y":2565131.2100000009}},{"attributes":{"ID":208459,"DIS_CODE":0,"TOWNNAME":"永康區","LI":"南灣里","LIN":"32鄰","STREET":"大灣一街","SECT":" ","MAREA":" ","LANE":"３７巷","ALLEY":"７弄","HOUSE_NO":"９號","E_COORD97":174284.14000000001,"N_COORD97":2544837.52,"ADDRESS":"大灣一街３７巷７弄９號","OBJECTID":208458},"geometry":{"x":174284.14000000153,"y":2544837.5200000033}},{"attributes":{"ID":208460,"DIS_CODE":0,"TOWNNAME":"佳里區","LI":"佳化里","LIN":"9鄰","STREET":" ","SECT":" ","MAREA":"佳里興","LANE":" ","ALLEY":" ","HOUSE_NO":"８９號","E_COORD97":167476.13,"N_COORD97":2565139.3700000001,"ADDRESS":"佳里興８９號","OBJECTID":208459},"geometry":{"x":167476.12999999989,"y":2565139.3700000029}},{"attributes":{"ID":208461,"DIS_CODE":0,"TOWNNAME":"佳里區","LI":"佳化里","LIN":"9鄰","STREET":" ","SECT":" ","MAREA":"佳里興","LANE":" ","ALLEY":" ","HOUSE_NO":"９０號之１","E_COORD97":167475.63,"N_COORD97":2565120.1200000001,"ADDRESS":"佳里興９０號之１","OBJECTID":208460},"geometry":{"x":167475.63000000082,"y":2565120.1200000029}},{"attributes":{"ID":208462,"DIS_CODE":0,"TOWNNAME":"佳里區","LI":"佳化里","LIN":"9鄰","STREET":" ","SECT":" ","MAREA":"佳里興","LANE":" ","ALLEY":" ","HOUSE_NO":"９０號","E_COORD97":167470.31,"N_COORD97":2565107.7999999998,"ADDRESS":"佳里興９０號","OBJECTID":208461},"geometry":{"x":167470.31000000052,"y":2565107.8000000045}},{"attributes":{"ID":208463,"DIS_CODE":0,"TOWNNAME":"永康區","LI":"西灣里","LIN":"32鄰","STREET":"國光八街","SECT":" ","MAREA":" ","LANE":"６０巷","ALLEY":"３弄","HOUSE_NO":"９號","E_COORD97":174235,"N_COORD97":2545805.25,"ADDRESS":"國光八街６０巷３弄９號","OBJECTID":208462},"geometry":{"x":174235.00000000093,"y":2545805.25}},{"attributes":{"ID":208464,"DIS_CODE":0,"TOWNNAME":"佳里區","LI":"佳化里","LIN":"9鄰","STREET":" ","SECT":" ","MAREA":"佳里興","LANE":" ","ALLEY":" ","HOUSE_NO":"９１號之１","E_COORD97":167446.5,"N_COORD97":2565062.6499999999,"ADDRESS":"佳里興９１號之１","OBJECTID":208463},"geometry":{"x":167446.5,"y":2565062.6500000004}},{"attributes":{"ID":208465,"DIS_CODE":0,"TOWNNAME":"佳里區","LI":"佳化里","LIN":"9鄰","STREET":" ","SECT":" ","MAREA":"佳里興","LANE":" ","ALLEY":" ","HOUSE_NO":"９１號之３","E_COORD97":167474.17000000001,"N_COORD97":2565086.46,"ADDRESS":"佳里興９１號之３","OBJECTID":208464},"geometry":{"x":167474.16999999993,"y":2565086.4600000046}},{"attributes":{"ID":208466,"DIS_CODE":0,"TOWNNAME":"佳里區","LI":"佳化里","LIN":"9鄰","STREET":" ","SECT":" ","MAREA":"佳里興","LANE":" ","ALLEY":" ","HOUSE_NO":"９１號","E_COORD97":167474.62,"N_COORD97":2565066.0800000001,"ADDRESS":"佳里興９１號","OBJECTID":208465},"geometry":{"x":167474.62000000011,"y":2565066.0800000019}},{"attributes":{"ID":208467,"DIS_CODE":0,"TOWNNAME":"官田區","LI":"東庄里","LIN":"2鄰","STREET":" ","SECT":" ","MAREA":"西庄","LANE":" ","ALLEY":" ","HOUSE_NO":"１１３號之２","E_COORD97":177830.23000000001,"N_COORD97":2565215.0299999998,"ADDRESS":"西庄１１３號之２","OBJECTID":208466},"geometry":{"x":177830.23000000045,"y":2565215.0299999993}},{"attributes":{"ID":208468,"DIS_CODE":0,"TOWNNAME":"官田區","LI":"東庄里","LIN":"2鄰","STREET":" ","SECT":" ","MAREA":"西庄","LANE":" ","ALLEY":" ","HOUSE_NO":"１１３號之３","E_COORD97":177826.17999999999,"N_COORD97":2565215.3199999998,"ADDRESS":"西庄１１３號之３","OBJECTID":208467},"geometry":{"x":177826.1799999997,"y":2565215.3200000003}},{"attributes":{"ID":208469,"DIS_CODE":0,"TOWNNAME":"官田區","LI":"東庄里","LIN":"2鄰","STREET":" ","SECT":" ","MAREA":"西庄","LANE":" ","ALLEY":" ","HOUSE_NO":"１１３號之４","E_COORD97":177821.92000000001,"N_COORD97":2565215.6499999999,"ADDRESS":"西庄１１３號之４","OBJECTID":208468},"geometry":{"x":177821.91999999993,"y":2565215.6500000004}},{"attributes":{"ID":208470,"DIS_CODE":0,"TOWNNAME":"官田區","LI":"東庄里","LIN":"2鄰","STREET":" ","SECT":" ","MAREA":"西庄","LANE":" ","ALLEY":" ","HOUSE_NO":"１１３號","E_COORD97":177838.78,"N_COORD97":2565214.6800000002,"ADDRESS":"西庄１１３號","OBJECTID":208469},"geometry":{"x":177838.78000000212,"y":2565214.6799999997}},{"attributes":{"ID":208471,"DIS_CODE":0,"TOWNNAME":"官田區","LI":"東庄里","LIN":"2鄰","STREET":" ","SECT":" ","MAREA":"西庄","LANE":" ","ALLEY":" ","HOUSE_NO":"１１４號之１","E_COORD97":177814.60999999999,"N_COORD97":2565254.8100000001,"ADDRESS":"西庄１１４號之１","OBJECTID":208470},"geometry":{"x":177814.61000000127,"y":2565254.8100000024}},{"attributes":{"ID":208472,"DIS_CODE":0,"TOWNNAME":"東區","LI":"大智里","LIN":"32鄰","STREET":"德東街","SECT":" ","MAREA":" ","LANE":"２３５巷","ALLEY":"５１弄","HOUSE_NO":"１８號","E_COORD97":171362.54000000001,"N_COORD97":2540365.3999999999,"ADDRESS":"德東街２３５巷５１弄１８號","OBJECTID":208471},"geometry":{"x":171362.54000000004,"y":2540365.4000000022}},{"attributes":{"ID":208473,"DIS_CODE":0,"TOWNNAME":"東區","LI":"大智里","LIN":"32鄰","STREET":"德東街","SECT":" ","MAREA":" ","LANE":"２３５巷","ALLEY":"５１弄","HOUSE_NO":"２號","E_COORD97":171388.89999999999,"N_COORD97":2540364.9100000001,"ADDRESS":"德東街２３５巷５１弄２號","OBJECTID":208472},"geometry":{"x":171388.90000000037,"y":2540364.910000002}},{"attributes":{"ID":208474,"DIS_CODE":0,"TOWNNAME":"東區","LI":"大智里","LIN":"32鄰","STREET":"德東街","SECT":" ","MAREA":" ","LANE":"２３５巷","ALLEY":"５１弄","HOUSE_NO":"２０號","E_COORD97":171358.76999999999,"N_COORD97":2540365.5600000001,"ADDRESS":"德東街２３５巷５１弄２０號","OBJECTID":208473},"geometry":{"x":171358.76999999955,"y":2540365.5600000005}},{"attributes":{"ID":208475,"DIS_CODE":0,"TOWNNAME":"安定區","LI":"新吉里","LIN":"2鄰","STREET":" ","SECT":" ","MAREA":"新吉","LANE":" ","ALLEY":" ","HOUSE_NO":"１１號","E_COORD97":169382.118135,"N_COORD97":2554139.3694500001,"ADDRESS":"新吉１１號","OBJECTID":208474},"geometry":{"x":169382.11813499965,"y":2554139.3694519997}},{"attributes":{"ID":208476,"DIS_CODE":0,"TOWNNAME":"東區","LI":"大智里","LIN":"32鄰","STREET":"德東街","SECT":" ","MAREA":" ","LANE":"２３５巷","ALLEY":"５１弄","HOUSE_NO":"２２號","E_COORD97":171354.19,"N_COORD97":2540365.2400000002,"ADDRESS":"德東街２３５巷５１弄２２號","OBJECTID":208475},"geometry":{"x":171354.19000000134,"y":2540365.2400000021}},{"attributes":{"ID":208477,"DIS_CODE":0,"TOWNNAME":"東區","LI":"大智里","LIN":"32鄰","STREET":"德東街","SECT":" ","MAREA":" ","LANE":"２３５巷","ALLEY":"５１弄","HOUSE_NO":"２６號","E_COORD97":171349.76999999999,"N_COORD97":2540365.3999999999,"ADDRESS":"德東街２３５巷５１弄２６號","OBJECTID":208476},"geometry":{"x":171349.76999999955,"y":2540365.4000000022}},{"attributes":{"ID":208478,"DIS_CODE":0,"TOWNNAME":"官田區","LI":"東庄里","LIN":"2鄰","STREET":" ","SECT":" ","MAREA":"西庄","LANE":" ","ALLEY":" ","HOUSE_NO":"１１４號","E_COORD97":177812.51000000001,"N_COORD97":2565216.8700000001,"ADDRESS":"西庄１１４號","OBJECTID":208477},"geometry":{"x":177812.50999999978,"y":2565216.8700000029}},{"attributes":{"ID":208479,"DIS_CODE":0,"TOWNNAME":"官田區","LI":"東庄里","LIN":"2鄰","STREET":" ","SECT":" ","MAREA":"西庄","LANE":" ","ALLEY":" ","HOUSE_NO":"１１５號之１","E_COORD97":177807.35999999999,"N_COORD97":2565231.7599999998,"ADDRESS":"西庄１１５號之１","OBJECTID":208478},"geometry":{"x":177807.36000000034,"y":2565231.7599999998}},{"attributes":{"ID":208480,"DIS_CODE":0,"TOWNNAME":"官田區","LI":"東庄里","LIN":"2鄰","STREET":" ","SECT":" ","MAREA":"西庄","LANE":" ","ALLEY":" ","HOUSE_NO":"１１５號","E_COORD97":177815.35000000001,"N_COORD97":2565231.3599999999,"ADDRESS":"西庄１１５號","OBJECTID":208479},"geometry":{"x":177815.3499999987,"y":2565231.3600000031}},{"attributes":{"ID":208481,"DIS_CODE":0,"TOWNNAME":"官田區","LI":"東庄里","LIN":"2鄰","STREET":" ","SECT":" ","MAREA":"西庄","LANE":" ","ALLEY":" ","HOUSE_NO":"１１６號","E_COORD97":177780.17999999999,"N_COORD97":2565192.2799999998,"ADDRESS":"西庄１１６號","OBJECTID":208480},"geometry":{"x":177780.18000000063,"y":2565192.2800000012}},{"attributes":{"ID":208482,"DIS_CODE":0,"TOWNNAME":"官田區","LI":"東庄里","LIN":"2鄰","STREET":" ","SECT":" ","MAREA":"西庄","LANE":" ","ALLEY":" ","HOUSE_NO":"１１７號之２","E_COORD97":177747.35000000001,"N_COORD97":2565186.2999999998,"ADDRESS":"西庄１１７號之２","OBJECTID":208481},"geometry":{"x":177747.34999999963,"y":2565186.3000000026}},{"attributes":{"ID":208483,"DIS_CODE":0,"TOWNNAME":"官田區","LI":"東庄里","LIN":"2鄰","STREET":" ","SECT":" ","MAREA":"西庄","LANE":" ","ALLEY":" ","HOUSE_NO":"１１７號","E_COORD97":177762.64999999999,"N_COORD97":2565174.9900000002,"ADDRESS":"西庄１１７號","OBJECTID":208482},"geometry":{"x":177762.65000000037,"y":2565174.9900000021}},{"attributes":{"ID":208484,"DIS_CODE":0,"TOWNNAME":"官田區","LI":"東庄里","LIN":"2鄰","STREET":" ","SECT":" ","MAREA":"西庄","LANE":" ","ALLEY":" ","HOUSE_NO":"１１８號之１","E_COORD97":177747.07000000001,"N_COORD97":2565205.9399999999,"ADDRESS":"西庄１１８號之１","OBJECTID":208483},"geometry":{"x":177747.07000000123,"y":2565205.9399999995}},{"attributes":{"ID":208485,"DIS_CODE":0,"TOWNNAME":"官田區","LI":"東庄里","LIN":"2鄰","STREET":" ","SECT":" ","MAREA":"西庄","LANE":" ","ALLEY":" ","HOUSE_NO":"１１８號","E_COORD97":177773.60000000001,"N_COORD97":2565213.9100000001,"ADDRESS":"西庄１１８號","OBJECTID":208484},"geometry":{"x":177773.60000000056,"y":2565213.9100000001}},{"attributes":{"ID":208486,"DIS_CODE":0,"TOWNNAME":"官田區","LI":"西庄里","LIN":"2鄰","STREET":" ","SECT":" ","MAREA":"西庄","LANE":" ","ALLEY":" ","HOUSE_NO":"１１號之１","E_COORD97":177884.47,"N_COORD97":2565058.8999999999,"ADDRESS":"西庄１１號之１","OBJECTID":208485},"geometry":{"x":177884.47000000067,"y":2565058.9000000004}},{"attributes":{"ID":208487,"DIS_CODE":0,"TOWNNAME":"官田區","LI":"西庄里","LIN":"2鄰","STREET":" ","SECT":" ","MAREA":"西庄","LANE":" ","ALLEY":" ","HOUSE_NO":"１１號之４","E_COORD97":177878.35000000001,"N_COORD97":2565059.6099999999,"ADDRESS":"西庄１１號之４","OBJECTID":208486},"geometry":{"x":177878.35000000056,"y":2565059.6099999994}},{"attributes":{"ID":208488,"DIS_CODE":0,"TOWNNAME":"官田區","LI":"西庄里","LIN":"2鄰","STREET":" ","SECT":" ","MAREA":"西庄","LANE":" ","ALLEY":" ","HOUSE_NO":"１１號","E_COORD97":177875.38,"N_COORD97":2565076.7799999998,"ADDRESS":"西庄１１號","OBJECTID":208487},"geometry":{"x":177875.38000000082,"y":2565076.7800000012}},{"attributes":{"ID":208489,"DIS_CODE":0,"TOWNNAME":"官田區","LI":"西庄里","LIN":"2鄰","STREET":" ","SECT":" ","MAREA":"西庄","LANE":" ","ALLEY":" ","HOUSE_NO":"１３號之１","E_COORD97":177860.20999999999,"N_COORD97":2565058.1000000001,"ADDRESS":"西庄１３號之１","OBJECTID":208488},"geometry":{"x":177860.20999999996,"y":2565058.1000000015}},{"attributes":{"ID":208490,"DIS_CODE":0,"TOWNNAME":"官田區","LI":"西庄里","LIN":"2鄰","STREET":" ","SECT":" ","MAREA":"西庄","LANE":" ","ALLEY":" ","HOUSE_NO":"１３號","E_COORD97":177848.95000000001,"N_COORD97":2565059.21,"ADDRESS":"西庄１３號","OBJECTID":208489},"geometry":{"x":177848.95000000019,"y":2565059.2100000028}},{"attributes":{"ID":208491,"DIS_CODE":0,"TOWNNAME":"官田區","LI":"西庄里","LIN":"2鄰","STREET":" ","SECT":" ","MAREA":"西庄","LANE":" ","ALLEY":" ","HOUSE_NO":"１４號","E_COORD97":177835.98999999999,"N_COORD97":2565070.7200000002,"ADDRESS":"西庄１４號","OBJECTID":208490},"geometry":{"x":177835.99000000115,"y":2565070.7199999988}},{"attributes":{"ID":208492,"DIS_CODE":0,"TOWNNAME":"官田區","LI":"西庄里","LIN":"2鄰","STREET":" ","SECT":" ","MAREA":"西庄","LANE":" ","ALLEY":" ","HOUSE_NO":"１６號","E_COORD97":177862.92999999999,"N_COORD97":2565108.27,"ADDRESS":"西庄１６號","OBJECTID":208491},"geometry":{"x":177862.93000000063,"y":2565108.2700000014}},{"attributes":{"ID":208493,"DIS_CODE":0,"TOWNNAME":"官田區","LI":"西庄里","LIN":"2鄰","STREET":" ","SECT":" ","MAREA":"西庄","LANE":" ","ALLEY":" ","HOUSE_NO":"１５號之１","E_COORD97":177841.14999999999,"N_COORD97":2565078.8900000001,"ADDRESS":"西庄１５號之１","OBJECTID":208492},"geometry":{"x":177841.15000000037,"y":2565078.8900000006}},{"attributes":{"ID":208494,"DIS_CODE":0,"TOWNNAME":"官田區","LI":"西庄里","LIN":"2鄰","STREET":" ","SECT":" ","MAREA":"西庄","LANE":" ","ALLEY":" ","HOUSE_NO":"１５號","E_COORD97":177847.13,"N_COORD97":2565085.3599999999,"ADDRESS":"西庄１５號","OBJECTID":208493},"geometry":{"x":177847.12999999989,"y":2565085.3599999975}},{"attributes":{"ID":208495,"DIS_CODE":0,"TOWNNAME":"官田區","LI":"官田里","LIN":"2鄰","STREET":" ","SECT":" ","MAREA":"官田","LANE":" ","ALLEY":" ","HOUSE_NO":"１１號","E_COORD97":182639.14999999999,"N_COORD97":2565335.9500000002,"ADDRESS":"官田１１號","OBJECTID":208494},"geometry":{"x":182639.1500000013,"y":2565335.950000003}},{"attributes":{"ID":208496,"DIS_CODE":0,"TOWNNAME":"官田區","LI":"官田里","LIN":"2鄰","STREET":" ","SECT":" ","MAREA":"官田","LANE":" ","ALLEY":" ","HOUSE_NO":"１４號之１０","E_COORD97":182727.29999999999,"N_COORD97":2565193.48,"ADDRESS":"官田１４號之１０","OBJECTID":208495},"geometry":{"x":182727.30000000075,"y":2565193.4800000004}},{"attributes":{"ID":208497,"DIS_CODE":0,"TOWNNAME":"東區","LI":"大智里","LIN":"32鄰","STREET":"德東街","SECT":" ","MAREA":" ","LANE":"２３５巷","ALLEY":"５１弄","HOUSE_NO":"２８號","E_COORD97":171345.17999999999,"N_COORD97":2540365.5600000001,"ADDRESS":"德東街２３５巷５１弄２８號","OBJECTID":208496},"geometry":{"x":171345.18000000063,"y":2540365.5600000005}},{"attributes":{"ID":208498,"DIS_CODE":0,"TOWNNAME":"官田區","LI":"官田里","LIN":"2鄰","STREET":" ","SECT":" ","MAREA":"官田","LANE":" ","ALLEY":" ","HOUSE_NO":"１４號之１１","E_COORD97":182729.13,"N_COORD97":2565187.1699999999,"ADDRESS":"官田１４號之１１","OBJECTID":208497},"geometry":{"x":182729.12999999989,"y":2565187.1700000018}},{"attributes":{"ID":208499,"DIS_CODE":0,"TOWNNAME":"官田區","LI":"官田里","LIN":"2鄰","STREET":" ","SECT":" ","MAREA":"官田","LANE":" ","ALLEY":" ","HOUSE_NO":"１４號之１２","E_COORD97":182730.97,"N_COORD97":2565180.8700000001,"ADDRESS":"官田１４號之１２","OBJECTID":208498},"geometry":{"x":182730.97000000067,"y":2565180.870000001}},{"attributes":{"ID":208500,"DIS_CODE":0,"TOWNNAME":"官田區","LI":"官田里","LIN":"2鄰","STREET":" ","SECT":" ","MAREA":"官田","LANE":" ","ALLEY":" ","HOUSE_NO":"１４號之１３","E_COORD97":182732.79999999999,"N_COORD97":2565174.5600000001,"ADDRESS":"官田１４號之１３","OBJECTID":208499},"geometry":{"x":182732.80000000075,"y":2565174.5600000024}},{"attributes":{"ID":208501,"DIS_CODE":0,"TOWNNAME":"安南區","LI":"州北里","LIN":"32鄰","STREET":"北安路","SECT":"四段","MAREA":" ","LANE":"５４８巷","ALLEY":"１０弄","HOUSE_NO":"１０號","E_COORD97":169574.32000000001,"N_COORD97":2551861.6200000001,"ADDRESS":"北安路四段５４８巷１０弄１０號","OBJECTID":208500},"geometry":{"x":169574.32000000216,"y":2551861.620000001}},{"attributes":{"ID":208502,"DIS_CODE":0,"TOWNNAME":"安南區","LI":"州北里","LIN":"32鄰","STREET":"北安路","SECT":"四段","MAREA":" ","LANE":"５４８巷","ALLEY":"１０弄","HOUSE_NO":"１２號","E_COORD97":169570,"N_COORD97":2551856.5600000001,"ADDRESS":"北安路四段５４８巷１０弄１２號","OBJECTID":208501},"geometry":{"x":169570.00000000093,"y":2551856.5600000024}},{"attributes":{"ID":208503,"DIS_CODE":0,"TOWNNAME":"下營區","LI":"賀建里","LIN":"9鄰","STREET":" ","SECT":" ","MAREA":"火燒珠","LANE":" ","ALLEY":" ","HOUSE_NO":"１０號之１","E_COORD97":176579.01000000001,"N_COORD97":2572815.0499999998,"ADDRESS":"火燒珠１０號之１","OBJECTID":208502},"geometry":{"x":176579.01000000071,"y":2572815.0500000007}},{"attributes":{"ID":208504,"DIS_CODE":0,"TOWNNAME":"下營區","LI":"賀建里","LIN":"9鄰","STREET":" ","SECT":" ","MAREA":"火燒珠","LANE":" ","ALLEY":" ","HOUSE_NO":"１０號","E_COORD97":176637.67999999999,"N_COORD97":2572794.5499999998,"ADDRESS":"火燒珠１０號","OBJECTID":208503},"geometry":{"x":176637.68000000063,"y":2572794.5500000007}},{"attributes":{"ID":208505,"DIS_CODE":0,"TOWNNAME":"下營區","LI":"賀建里","LIN":"9鄰","STREET":" ","SECT":" ","MAREA":"火燒珠","LANE":" ","ALLEY":" ","HOUSE_NO":"１１號","E_COORD97":176601.44,"N_COORD97":2572841.5600000001,"ADDRESS":"火燒珠１１號","OBJECTID":208504},"geometry":{"x":176601.44000000041,"y":2572841.5600000005}},{"attributes":{"ID":208506,"DIS_CODE":0,"TOWNNAME":"下營區","LI":"賀建里","LIN":"9鄰","STREET":" ","SECT":" ","MAREA":"火燒珠","LANE":" ","ALLEY":" ","HOUSE_NO":"１２號","E_COORD97":176613.42000000001,"N_COORD97":2572856.7799999998,"ADDRESS":"火燒珠１２號","OBJECTID":208505},"geometry":{"x":176613.42000000179,"y":2572856.7800000031}},{"attributes":{"ID":208507,"DIS_CODE":0,"TOWNNAME":"下營區","LI":"賀建里","LIN":"9鄰","STREET":" ","SECT":" ","MAREA":"火燒珠","LANE":" ","ALLEY":" ","HOUSE_NO":"１３號","E_COORD97":176583,"N_COORD97":2572866.1899999999,"ADDRESS":"火燒珠１３號","OBJECTID":208506},"geometry":{"x":176583.00000000093,"y":2572866.1899999995}},{"attributes":{"ID":208508,"DIS_CODE":0,"TOWNNAME":"下營區","LI":"賀建里","LIN":"9鄰","STREET":" ","SECT":" ","MAREA":"火燒珠","LANE":" ","ALLEY":" ","HOUSE_NO":"１４號","E_COORD97":176613.85000000001,"N_COORD97":2572868.3799999999,"ADDRESS":"火燒珠１４號","OBJECTID":208507},"geometry":{"x":176613.85000000056,"y":2572868.379999999}},{"attributes":{"ID":208509,"DIS_CODE":0,"TOWNNAME":"下營區","LI":"賀建里","LIN":"9鄰","STREET":" ","SECT":" ","MAREA":"火燒珠","LANE":" ","ALLEY":" ","HOUSE_NO":"１５號之１","E_COORD97":176587.51999999999,"N_COORD97":2572912.4700000002,"ADDRESS":"火燒珠１５號之１","OBJECTID":208508},"geometry":{"x":176587.52000000048,"y":2572912.4700000025}},{"attributes":{"ID":208510,"DIS_CODE":0,"TOWNNAME":"下營區","LI":"賀建里","LIN":"9鄰","STREET":" ","SECT":" ","MAREA":"火燒珠","LANE":" ","ALLEY":" ","HOUSE_NO":"１５號之２","E_COORD97":176624.87,"N_COORD97":2572915.4399999999,"ADDRESS":"火燒珠１５號之２","OBJECTID":208509},"geometry":{"x":176624.87000000104,"y":2572915.4399999995}},{"attributes":{"ID":208511,"DIS_CODE":0,"TOWNNAME":"下營區","LI":"賀建里","LIN":"9鄰","STREET":" ","SECT":" ","MAREA":"火燒珠","LANE":" ","ALLEY":" ","HOUSE_NO":"１５號之６","E_COORD97":176585.32000000001,"N_COORD97":2572901.71,"ADDRESS":"火燒珠１５號之６","OBJECTID":208510},"geometry":{"x":176585.3200000003,"y":2572901.7100000009}},{"attributes":{"ID":208512,"DIS_CODE":0,"TOWNNAME":"下營區","LI":"賀建里","LIN":"9鄰","STREET":" ","SECT":" ","MAREA":"火燒珠","LANE":" ","ALLEY":" ","HOUSE_NO":"１５號之８","E_COORD97":176582.51000000001,"N_COORD97":2572889.6099999999,"ADDRESS":"火燒珠１５號之８","OBJECTID":208511},"geometry":{"x":176582.51000000071,"y":2572889.6100000013}},{"attributes":{"ID":208513,"DIS_CODE":0,"TOWNNAME":"下營區","LI":"賀建里","LIN":"9鄰","STREET":" ","SECT":" ","MAREA":"火燒珠","LANE":" ","ALLEY":" ","HOUSE_NO":"１５號","E_COORD97":176610.51000000001,"N_COORD97":2572933.6899999999,"ADDRESS":"火燒珠１５號","OBJECTID":208512},"geometry":{"x":176610.50999999978,"y":2572933.6900000013}},{"attributes":{"ID":208514,"DIS_CODE":0,"TOWNNAME":"下營區","LI":"賀建里","LIN":"9鄰","STREET":" ","SECT":" ","MAREA":"火燒珠","LANE":" ","ALLEY":" ","HOUSE_NO":"１６號之１","E_COORD97":176651.32999999999,"N_COORD97":2572921.27,"ADDRESS":"火燒珠１６號之１","OBJECTID":208513},"geometry":{"x":176651.33000000007,"y":2572921.2699999977}},{"attributes":{"ID":208515,"DIS_CODE":0,"TOWNNAME":"下營區","LI":"賀建里","LIN":"9鄰","STREET":" ","SECT":" ","MAREA":"火燒珠","LANE":" ","ALLEY":" ","HOUSE_NO":"１６號之２","E_COORD97":176641.42000000001,"N_COORD97":2572963.8100000001,"ADDRESS":"火燒珠１６號之２","OBJECTID":208514},"geometry":{"x":176641.41999999993,"y":2572963.8100000024}},{"attributes":{"ID":208516,"DIS_CODE":0,"TOWNNAME":"下營區","LI":"賀建里","LIN":"9鄰","STREET":" ","SECT":" ","MAREA":"火燒珠","LANE":" ","ALLEY":" ","HOUSE_NO":"１６號","E_COORD97":176645.48999999999,"N_COORD97":2572949.3799999999,"ADDRESS":"火燒珠１６號","OBJECTID":208515},"geometry":{"x":176645.49000000209,"y":2572949.379999999}},{"attributes":{"ID":208517,"DIS_CODE":0,"TOWNNAME":"下營區","LI":"賀建里","LIN":"9鄰","STREET":" ","SECT":" ","MAREA":"火燒珠","LANE":" ","ALLEY":" ","HOUSE_NO":"１７號","E_COORD97":176628.01999999999,"N_COORD97":2572891.0899999999,"ADDRESS":"火燒珠１７號","OBJECTID":208516},"geometry":{"x":176628.02000000048,"y":2572891.0899999999}},{"attributes":{"ID":208518,"DIS_CODE":0,"TOWNNAME":"下營區","LI":"賀建里","LIN":"9鄰","STREET":" ","SECT":" ","MAREA":"火燒珠","LANE":" ","ALLEY":" ","HOUSE_NO":"１８號之１","E_COORD97":176643.32000000001,"N_COORD97":2572863.5299999998,"ADDRESS":"火燒珠１８號之１","OBJECTID":208517},"geometry":{"x":176643.32000000216,"y":2572863.5300000012}},{"attributes":{"ID":208519,"DIS_CODE":0,"TOWNNAME":"下營區","LI":"賀建里","LIN":"9鄰","STREET":" ","SECT":" ","MAREA":"火燒珠","LANE":" ","ALLEY":" ","HOUSE_NO":"１８號","E_COORD97":176633.5,"N_COORD97":2572852.8500000001,"ADDRESS":"火燒珠１８號","OBJECTID":208518},"geometry":{"x":176633.50000000093,"y":2572852.8499999996}},{"attributes":{"ID":208520,"DIS_CODE":0,"TOWNNAME":"安南區","LI":"州北里","LIN":"32鄰","STREET":"北安路","SECT":"四段","MAREA":" ","LANE":"５４８巷","ALLEY":"１０弄","HOUSE_NO":"１４號","E_COORD97":169567.89999999999,"N_COORD97":2551835.1899999999,"ADDRESS":"北安路四段５４８巷１０弄１４號","OBJECTID":208519},"geometry":{"x":169567.9000000013,"y":2551835.1900000013}},{"attributes":{"ID":208521,"DIS_CODE":0,"TOWNNAME":"下營區","LI":"西連里","LIN":"9鄰","STREET":" ","SECT":" ","MAREA":"西寮","LANE":" ","ALLEY":" ","HOUSE_NO":"３８號","E_COORD97":174640.57000000001,"N_COORD97":2567423.5299999998,"ADDRESS":"西寮３８號","OBJECTID":208520},"geometry":{"x":174640.5700000003,"y":2567423.5299999975}},{"attributes":{"ID":208522,"DIS_CODE":0,"TOWNNAME":"下營區","LI":"西連里","LIN":"9鄰","STREET":" ","SECT":" ","MAREA":"西寮","LANE":" ","ALLEY":" ","HOUSE_NO":"３９號","E_COORD97":174624.76999999999,"N_COORD97":2567415.21,"ADDRESS":"西寮３９號","OBJECTID":208521},"geometry":{"x":174624.76999999955,"y":2567415.2100000028}},{"attributes":{"ID":208523,"DIS_CODE":0,"TOWNNAME":"下營區","LI":"西連里","LIN":"9鄰","STREET":" ","SECT":" ","MAREA":"西寮","LANE":" ","ALLEY":" ","HOUSE_NO":"４０號之１","E_COORD97":174616.67999999999,"N_COORD97":2567385.8399999999,"ADDRESS":"西寮４０號之１","OBJECTID":208522},"geometry":{"x":174616.68000000063,"y":2567385.8400000017}},{"attributes":{"ID":208524,"DIS_CODE":0,"TOWNNAME":"安南區","LI":"州北里","LIN":"32鄰","STREET":"北安路","SECT":"四段","MAREA":" ","LANE":"５４８巷","ALLEY":"１０弄","HOUSE_NO":"１６號","E_COORD97":169573.20999999999,"N_COORD97":2551843.71,"ADDRESS":"北安路四段５４８巷１０弄１６號","OBJECTID":208523},"geometry":{"x":169573.21000000183,"y":2551843.7100000009}},{"attributes":{"ID":208525,"DIS_CODE":0,"TOWNNAME":"安南區","LI":"州北里","LIN":"32鄰","STREET":"北安路","SECT":"四段","MAREA":" ","LANE":"５４８巷","ALLEY":"１０弄","HOUSE_NO":"１８號","E_COORD97":169576.79000000001,"N_COORD97":2551846.5499999998,"ADDRESS":"北安路四段５４８巷１０弄１８號","OBJECTID":208524},"geometry":{"x":169576.79000000097,"y":2551846.5500000045}},{"attributes":{"ID":208526,"DIS_CODE":0,"TOWNNAME":"安南區","LI":"州北里","LIN":"32鄰","STREET":"北安路","SECT":"四段","MAREA":" ","LANE":"５４８巷","ALLEY":"１０弄","HOUSE_NO":"２０號","E_COORD97":169580.87,"N_COORD97":2551848.2799999998,"ADDRESS":"北安路四段５４８巷１０弄２０號","OBJECTID":208525},"geometry":{"x":169580.87000000104,"y":2551848.2800000012}},{"attributes":{"ID":208527,"DIS_CODE":0,"TOWNNAME":"安南區","LI":"州北里","LIN":"32鄰","STREET":"北安路","SECT":"四段","MAREA":" ","LANE":"５４８巷","ALLEY":"１０弄","HOUSE_NO":"２２號","E_COORD97":169585.56,"N_COORD97":2551851.25,"ADDRESS":"北安路四段５４８巷１０弄２２號","OBJECTID":208526},"geometry":{"x":169585.56000000145,"y":2551851.2500000019}},{"attributes":{"ID":208528,"DIS_CODE":0,"TOWNNAME":"安南區","LI":"州北里","LIN":"32鄰","STREET":"北安路","SECT":"四段","MAREA":" ","LANE":"５４８巷","ALLEY":"１０弄","HOUSE_NO":"２４號","E_COORD97":169589.51000000001,"N_COORD97":2551853.3500000001,"ADDRESS":"北安路四段５４８巷１０弄２４號","OBJECTID":208527},"geometry":{"x":169589.51000000164,"y":2551853.3500000034}},{"attributes":{"ID":208529,"DIS_CODE":0,"TOWNNAME":"安南區","LI":"州北里","LIN":"32鄰","STREET":"北安路","SECT":"四段","MAREA":" ","LANE":"５４８巷","ALLEY":"１０弄","HOUSE_NO":"２６號","E_COORD97":169594.32999999999,"N_COORD97":2551855.4500000002,"ADDRESS":"北安路四段５４８巷１０弄２６號","OBJECTID":208528},"geometry":{"x":169594.32999999914,"y":2551855.450000003}},{"attributes":{"ID":208530,"DIS_CODE":0,"TOWNNAME":"安南區","LI":"州北里","LIN":"32鄰","STREET":"北安路","SECT":"四段","MAREA":" ","LANE":"５４８巷","ALLEY":"１０弄","HOUSE_NO":"２８號","E_COORD97":169605.14999999999,"N_COORD97":2551829.8999999999,"ADDRESS":"北安路四段５４８巷１０弄２８號","OBJECTID":208529},"geometry":{"x":169605.1500000013,"y":2551829.9000000041}},{"attributes":{"ID":208531,"DIS_CODE":0,"TOWNNAME":"安南區","LI":"州北里","LIN":"32鄰","STREET":"北安路","SECT":"四段","MAREA":" ","LANE":"５４８巷","ALLEY":"１０弄","HOUSE_NO":"２號","E_COORD97":169588.64999999999,"N_COORD97":2551869.0299999998,"ADDRESS":"北安路四段５４８巷１０弄２號","OBJECTID":208530},"geometry":{"x":169588.65000000037,"y":2551869.0300000012}},{"attributes":{"ID":208532,"DIS_CODE":0,"TOWNNAME":"安南區","LI":"州北里","LIN":"32鄰","STREET":"北安路","SECT":"四段","MAREA":" ","LANE":"５４８巷","ALLEY":"１０弄","HOUSE_NO":"６號","E_COORD97":169584.69,"N_COORD97":2551867.0499999998,"ADDRESS":"北安路四段５４８巷１０弄６號","OBJECTID":208531},"geometry":{"x":169584.69000000134,"y":2551867.0500000026}},{"attributes":{"ID":208533,"DIS_CODE":0,"TOWNNAME":"安南區","LI":"州北里","LIN":"32鄰","STREET":"北安路","SECT":"四段","MAREA":" ","LANE":"５４８巷","ALLEY":"１０弄","HOUSE_NO":"８號","E_COORD97":169578.51999999999,"N_COORD97":2551864.3399999999,"ADDRESS":"北安路四段５４８巷１０弄８號","OBJECTID":208532},"geometry":{"x":169578.51999999955,"y":2551864.3400000017}},{"attributes":{"ID":208534,"DIS_CODE":0,"TOWNNAME":"仁德區","LI":"仁德里","LIN":"32鄰","STREET":"中山路","SECT":" ","MAREA":" ","LANE":"６０６巷","ALLEY":"１弄","HOUSE_NO":"９號","E_COORD97":173188.07999999999,"N_COORD97":2541402.2400000002,"ADDRESS":"中山路６０６巷１弄９號","OBJECTID":208533},"geometry":{"x":173188.08000000007,"y":2541402.2400000039}},{"attributes":{"ID":208535,"DIS_CODE":0,"TOWNNAME":"永康區","LI":"\u25A0行里","LIN":"32鄰","STREET":"仁愛街","SECT":" ","MAREA":" ","LANE":"１０８巷","ALLEY":"２１弄","HOUSE_NO":"２號","E_COORD97":172205.51000000001,"N_COORD97":2549444.8500000001,"ADDRESS":"仁愛街１０８巷２１弄２號","OBJECTID":208534},"geometry":{"x":172205.51000000071,"y":2549444.8499999996}},{"attributes":{"ID":208536,"DIS_CODE":0,"TOWNNAME":"永康區","LI":"\u25A0行里","LIN":"32鄰","STREET":"仁愛街","SECT":" ","MAREA":" ","LANE":"１０８巷","ALLEY":"２１弄","HOUSE_NO":"２８號","E_COORD97":172185.51999999999,"N_COORD97":2549474.1699999999,"ADDRESS":"仁愛街１０８巷２１弄２８號","OBJECTID":208535},"geometry":{"x":172185.51999999955,"y":2549474.1699999999}},{"attributes":{"ID":208537,"DIS_CODE":0,"TOWNNAME":"永康區","LI":"西灣里","LIN":"32鄰","STREET":"國光八街","SECT":" ","MAREA":" ","LANE":"６０巷","ALLEY":"３弄","HOUSE_NO":"５號","E_COORD97":174244.54000000001,"N_COORD97":2545807,"ADDRESS":"國光八街６０巷３弄５號","OBJECTID":208536},"geometry":{"x":174244.5400000019,"y":2545807}},{"attributes":{"ID":208538,"DIS_CODE":0,"TOWNNAME":"永康區","LI":"西灣里","LIN":"32鄰","STREET":"國光八街","SECT":" ","MAREA":" ","LANE":"６０巷","ALLEY":"３弄","HOUSE_NO":"７號","E_COORD97":174240.23000000001,"N_COORD97":2545806,"ADDRESS":"國光八街６０巷３弄７號","OBJECTID":208537},"geometry":{"x":174240.22999999952,"y":2545806}},{"attributes":{"ID":208539,"DIS_CODE":0,"TOWNNAME":"永康區","LI":"西灣里","LIN":"32鄰","STREET":"國光八街","SECT":" ","MAREA":" ","LANE":"６０巷","ALLEY":"３弄","HOUSE_NO":"１１號","E_COORD97":174231.84,"N_COORD97":2545804.25,"ADDRESS":"國光八街６０巷３弄１１號","OBJECTID":208538},"geometry":{"x":174231.83999999985,"y":2545804.25}},{"attributes":{"ID":208540,"DIS_CODE":0,"TOWNNAME":"永康區","LI":"西灣里","LIN":"32鄰","STREET":"國光八街","SECT":" ","MAREA":" ","LANE":"６０巷","ALLEY":"３弄","HOUSE_NO":"１４號","E_COORD97":174233.98999999999,"N_COORD97":2545824.6400000001,"ADDRESS":"國光八街６０巷３弄１４號","OBJECTID":208539},"geometry":{"x":174233.99000000115,"y":2545824.6400000025}},{"attributes":{"ID":208541,"DIS_CODE":0,"TOWNNAME":"永康區","LI":"\u25A0行里","LIN":"32鄰","STREET":"仁愛街","SECT":" ","MAREA":" ","LANE":"１０８巷","ALLEY":"３２弄","HOUSE_NO":"５號","E_COORD97":172241.45000000001,"N_COORD97":2549374.46,"ADDRESS":"仁愛街１０８巷３２弄５號","OBJECTID":208540},"geometry":{"x":172241.45000000019,"y":2549374.4600000009}},{"attributes":{"ID":208542,"DIS_CODE":0,"TOWNNAME":"下營區","LI":"西連里","LIN":"9鄰","STREET":" ","SECT":" ","MAREA":"西寮","LANE":" ","ALLEY":" ","HOUSE_NO":"４０號","E_COORD97":174618.98999999999,"N_COORD97":2567401.8700000001,"ADDRESS":"西寮４０號","OBJECTID":208541},"geometry":{"x":174618.99000000022,"y":2567401.870000001}},{"attributes":{"ID":208543,"DIS_CODE":0,"TOWNNAME":"官田區","LI":"官田里","LIN":"2鄰","STREET":" ","SECT":" ","MAREA":"官田","LANE":" ","ALLEY":" ","HOUSE_NO":"１４號之１４","E_COORD97":182734.64000000001,"N_COORD97":2565168.2599999998,"ADDRESS":"官田１４號之１４","OBJECTID":208542},"geometry":{"x":182734.64000000153,"y":2565168.2600000035}},{"attributes":{"ID":208544,"DIS_CODE":0,"TOWNNAME":"官田區","LI":"官田里","LIN":"2鄰","STREET":" ","SECT":" ","MAREA":"官田","LANE":" ","ALLEY":" ","HOUSE_NO":"１４號之１５","E_COORD97":182736.47,"N_COORD97":2565161.9500000002,"ADDRESS":"官田１４號之１５","OBJECTID":208543},"geometry":{"x":182736.47000000067,"y":2565161.9499999993}},{"attributes":{"ID":208545,"DIS_CODE":0,"TOWNNAME":"官田區","LI":"官田里","LIN":"2鄰","STREET":" ","SECT":" ","MAREA":"官田","LANE":" ","ALLEY":" ","HOUSE_NO":"１４號之１６","E_COORD97":182738.29999999999,"N_COORD97":2565155.6499999999,"ADDRESS":"官田１４號之１６","OBJECTID":208544},"geometry":{"x":182738.29999999981,"y":2565155.6499999985}},{"attributes":{"ID":208546,"DIS_CODE":0,"TOWNNAME":"官田區","LI":"官田里","LIN":"2鄰","STREET":" ","SECT":" ","MAREA":"官田","LANE":" ","ALLEY":" ","HOUSE_NO":"１４號之１７","E_COORD97":182740.14000000001,"N_COORD97":2565149.3399999999,"ADDRESS":"官田１４號之１７","OBJECTID":208545},"geometry":{"x":182740.1400000006,"y":2565149.3399999999}},{"attributes":{"ID":208547,"DIS_CODE":0,"TOWNNAME":"官田區","LI":"官田里","LIN":"2鄰","STREET":" ","SECT":" ","MAREA":"官田","LANE":" ","ALLEY":" ","HOUSE_NO":"１４號之１８","E_COORD97":182741.97,"N_COORD97":2565143.04,"ADDRESS":"官田１４號之１８","OBJECTID":208546},"geometry":{"x":182741.96999999974,"y":2565143.040000001}},{"attributes":{"ID":208548,"DIS_CODE":0,"TOWNNAME":"白河區","LI":"外角里","LIN":"5鄰","STREET":" ","SECT":" ","MAREA":" ","LANE":"三民西巷","ALLEY":" ","HOUSE_NO":"５號","E_COORD97":190493.17999999999,"N_COORD97":2583193.8399999999,"ADDRESS":"三民西巷５號","OBJECTID":208547},"geometry":{"x":190493.1799999997,"y":2583193.8399999999}},{"attributes":{"ID":208549,"DIS_CODE":0,"TOWNNAME":"永康區","LI":"\u25A0行里","LIN":"32鄰","STREET":"仁愛街","SECT":" ","MAREA":" ","LANE":"１０８巷","ALLEY":"２１弄","HOUSE_NO":"６號","E_COORD97":172204.60999999999,"N_COORD97":2549453.1000000001,"ADDRESS":"仁愛街１０８巷２１弄６號","OBJECTID":208548},"geometry":{"x":172204.61000000034,"y":2549453.0999999996}},{"attributes":{"ID":208550,"DIS_CODE":0,"TOWNNAME":"永康區","LI":"\u25A0行里","LIN":"32鄰","STREET":"三村一街","SECT":" ","MAREA":" ","LANE":"１３８巷","ALLEY":"９２弄","HOUSE_NO":"５號","E_COORD97":172130.76999999999,"N_COORD97":2549435.9500000002,"ADDRESS":"三村一街１３８巷９２弄５號","OBJECTID":208549},"geometry":{"x":172130.77000000048,"y":2549435.9500000011}},{"attributes":{"ID":208551,"DIS_CODE":0,"TOWNNAME":"永康區","LI":"\u25A0行里","LIN":"32鄰","STREET":"三村一街","SECT":" ","MAREA":" ","LANE":"１３８巷","ALLEY":"９２弄","HOUSE_NO":"７號","E_COORD97":172134.98000000001,"N_COORD97":2549433.2000000002,"ADDRESS":"三村一街１３８巷９２弄７號","OBJECTID":208550},"geometry":{"x":172134.98000000231,"y":2549433.200000003}},{"attributes":{"ID":208552,"DIS_CODE":0,"TOWNNAME":"仁德區","LI":"仁德里","LIN":"32鄰","STREET":"中山路","SECT":" ","MAREA":" ","LANE":"６０６巷","ALLEY":"１弄","HOUSE_NO":"３１號","E_COORD97":173191.23999999999,"N_COORD97":2541447,"ADDRESS":"中山路６０６巷１弄３１號","OBJECTID":208551},"geometry":{"x":173191.24000000115,"y":2541447}},{"attributes":{"ID":208553,"DIS_CODE":0,"TOWNNAME":"安南區","LI":"\u25A0南里","LIN":"32鄰","STREET":"安昌街","SECT":" ","MAREA":" ","LANE":"１７４巷","ALLEY":"３９弄","HOUSE_NO":"５號","E_COORD97":170137.28,"N_COORD97":2552356.1800000002,"ADDRESS":"安昌街１７４巷３９弄５號","OBJECTID":208552},"geometry":{"x":170137.27999999933,"y":2552356.1800000034}},{"attributes":{"ID":208554,"DIS_CODE":0,"TOWNNAME":"安南區","LI":"\u25A0南里","LIN":"32鄰","STREET":"安昌街","SECT":" ","MAREA":" ","LANE":"１７４巷","ALLEY":"３９弄","HOUSE_NO":"７之１號","E_COORD97":170141.57000000001,"N_COORD97":2552370.4700000002,"ADDRESS":"安昌街１７４巷３９弄７之１號","OBJECTID":208553},"geometry":{"x":170141.5700000003,"y":2552370.4700000025}},{"attributes":{"ID":208555,"DIS_CODE":0,"TOWNNAME":"安南區","LI":"\u25A0南里","LIN":"32鄰","STREET":"安昌街","SECT":" ","MAREA":" ","LANE":"１７４巷","ALLEY":"３９弄","HOUSE_NO":"７之２號","E_COORD97":170141.12,"N_COORD97":2552378.8900000001,"ADDRESS":"安昌街１７４巷３９弄７之２號","OBJECTID":208554},"geometry":{"x":170141.12000000011,"y":2552378.8900000006}},{"attributes":{"ID":208556,"DIS_CODE":0,"TOWNNAME":"安南區","LI":"\u25A0南里","LIN":"32鄰","STREET":"安昌街","SECT":" ","MAREA":" ","LANE":"１７４巷","ALLEY":"３９弄","HOUSE_NO":"７之３號","E_COORD97":170158.76999999999,"N_COORD97":2552379.3700000001,"ADDRESS":"安昌街１７４巷３９弄７之３號","OBJECTID":208555},"geometry":{"x":170158.77000000142,"y":2552379.370000001}},{"attributes":{"ID":208557,"DIS_CODE":0,"TOWNNAME":"安南區","LI":"\u25A0南里","LIN":"32鄰","STREET":"安昌街","SECT":" ","MAREA":" ","LANE":"１７４巷","ALLEY":"３９弄","HOUSE_NO":"７號","E_COORD97":170142.81,"N_COORD97":2552354.73,"ADDRESS":"安昌街１７４巷３９弄７號","OBJECTID":208556},"geometry":{"x":170142.80999999959,"y":2552354.7300000023}},{"attributes":{"ID":208558,"DIS_CODE":0,"TOWNNAME":"下營區","LI":"西連里","LIN":"9鄰","STREET":" ","SECT":" ","MAREA":"西寮","LANE":" ","ALLEY":" ","HOUSE_NO":"４１號","E_COORD97":174627.44,"N_COORD97":2567373.6099999999,"ADDRESS":"西寮４１號","OBJECTID":208557},"geometry":{"x":174627.44000000134,"y":2567373.6100000013}},{"attributes":{"ID":208559,"DIS_CODE":0,"TOWNNAME":"下營區","LI":"西連里","LIN":"9鄰","STREET":" ","SECT":" ","MAREA":"西寮","LANE":" ","ALLEY":" ","HOUSE_NO":"４２號","E_COORD97":174617.73999999999,"N_COORD97":2567339.52,"ADDRESS":"西寮４２號","OBJECTID":208558},"geometry":{"x":174617.74000000022,"y":2567339.5200000033}},{"attributes":{"ID":208560,"DIS_CODE":0,"TOWNNAME":"將軍區","LI":"北埔里","LIN":"9鄰","STREET":" ","SECT":" ","MAREA":"北埔","LANE":" ","ALLEY":" ","HOUSE_NO":"８０號","E_COORD97":163069.17999999999,"N_COORD97":2569305.6400000001,"ADDRESS":"北埔８０號","OBJECTID":208559},"geometry":{"x":163069.18000000063,"y":2569305.6400000006}},{"attributes":{"ID":208561,"DIS_CODE":0,"TOWNNAME":"將軍區","LI":"北埔里","LIN":"9鄰","STREET":" ","SECT":" ","MAREA":"北埔","LANE":" ","ALLEY":" ","HOUSE_NO":"８１號","E_COORD97":163079.23000000001,"N_COORD97":2569261.9500000002,"ADDRESS":"北埔８１號","OBJECTID":208560},"geometry":{"x":163079.23000000231,"y":2569261.950000003}},{"attributes":{"ID":208562,"DIS_CODE":0,"TOWNNAME":"將軍區","LI":"仁和里","LIN":"9鄰","STREET":" ","SECT":" ","MAREA":"仁巷","LANE":" ","ALLEY":" ","HOUSE_NO":"８９號","E_COORD97":163953.23999999999,"N_COORD97":2569176.4500000002,"ADDRESS":"仁巷８９號","OBJECTID":208561},"geometry":{"x":163953.24000000022,"y":2569176.4499999993}},{"attributes":{"ID":208563,"DIS_CODE":0,"TOWNNAME":"將軍區","LI":"仁和里","LIN":"9鄰","STREET":" ","SECT":" ","MAREA":"仁巷","LANE":" ","ALLEY":" ","HOUSE_NO":"９１號","E_COORD97":163994.22,"N_COORD97":2569181.9700000002,"ADDRESS":"仁巷９１號","OBJECTID":208562},"geometry":{"x":163994.22000000067,"y":2569181.9700000044}},{"attributes":{"ID":208564,"DIS_CODE":0,"TOWNNAME":"將軍區","LI":"仁和里","LIN":"9鄰","STREET":" ","SECT":" ","MAREA":"仁巷","LANE":" ","ALLEY":" ","HOUSE_NO":"９２之１號","E_COORD97":164022.37,"N_COORD97":2569135.8100000001,"ADDRESS":"仁巷９２之１號","OBJECTID":208563},"geometry":{"x":164022.37000000104,"y":2569135.8100000024}},{"attributes":{"ID":208565,"DIS_CODE":0,"TOWNNAME":"將軍區","LI":"仁和里","LIN":"9鄰","STREET":" ","SECT":" ","MAREA":"仁巷","LANE":" ","ALLEY":" ","HOUSE_NO":"９２之６號","E_COORD97":164103.66,"N_COORD97":2569118.1800000002,"ADDRESS":"仁巷９２之６號","OBJECTID":208564},"geometry":{"x":164103.66000000108,"y":2569118.1800000034}},{"attributes":{"ID":208566,"DIS_CODE":0,"TOWNNAME":"將軍區","LI":"仁和里","LIN":"9鄰","STREET":" ","SECT":" ","MAREA":"仁巷","LANE":" ","ALLEY":" ","HOUSE_NO":"９２號","E_COORD97":164061.20000000001,"N_COORD97":2569133.7400000002,"ADDRESS":"仁巷９２號","OBJECTID":208565},"geometry":{"x":164061.20000000112,"y":2569133.7400000002}},{"attributes":{"ID":208567,"DIS_CODE":0,"TOWNNAME":"將軍區","LI":"仁和里","LIN":"9鄰","STREET":" ","SECT":" ","MAREA":"仁巷","LANE":" ","ALLEY":" ","HOUSE_NO":"９３號","E_COORD97":163982.04000000001,"N_COORD97":2569143.5499999998,"ADDRESS":"仁巷９３號","OBJECTID":208566},"geometry":{"x":163982.04000000097,"y":2569143.5500000007}},{"attributes":{"ID":208568,"DIS_CODE":0,"TOWNNAME":"將軍區","LI":"仁和里","LIN":"9鄰","STREET":" ","SECT":" ","MAREA":"仁巷","LANE":" ","ALLEY":" ","HOUSE_NO":"９４號","E_COORD97":163956.09,"N_COORD97":2569148.27,"ADDRESS":"仁巷９４號","OBJECTID":208567},"geometry":{"x":163956.09000000078,"y":2569148.2700000033}},{"attributes":{"ID":208569,"DIS_CODE":0,"TOWNNAME":"將軍區","LI":"仁和里","LIN":"9鄰","STREET":" ","SECT":" ","MAREA":"仁巷","LANE":" ","ALLEY":" ","HOUSE_NO":"９５號","E_COORD97":163932.75,"N_COORD97":2569153.8199999998,"ADDRESS":"仁巷９５號","OBJECTID":208568},"geometry":{"x":163932.75,"y":2569153.8200000003}},{"attributes":{"ID":208570,"DIS_CODE":0,"TOWNNAME":"將軍區","LI":"仁和里","LIN":"9鄰","STREET":" ","SECT":" ","MAREA":"仁巷","LANE":" ","ALLEY":" ","HOUSE_NO":"９７號","E_COORD97":163910.20000000001,"N_COORD97":2569137.5499999998,"ADDRESS":"仁巷９７號","OBJECTID":208569},"geometry":{"x":163910.20000000112,"y":2569137.5500000026}},{"attributes":{"ID":208571,"DIS_CODE":0,"TOWNNAME":"將軍區","LI":"仁和里","LIN":"9鄰","STREET":" ","SECT":" ","MAREA":"仁巷","LANE":" ","ALLEY":" ","HOUSE_NO":"９８號","E_COORD97":163928.78,"N_COORD97":2569139.2200000002,"ADDRESS":"仁巷９８號","OBJECTID":208570},"geometry":{"x":163928.78000000119,"y":2569139.2199999988}},{"attributes":{"ID":208572,"DIS_CODE":0,"TOWNNAME":"將軍區","LI":"仁和里","LIN":"9鄰","STREET":" ","SECT":" ","MAREA":"仁巷","LANE":" ","ALLEY":" ","HOUSE_NO":"９９號","E_COORD97":163951.54999999999,"N_COORD97":2569134.9900000002,"ADDRESS":"仁巷９９號","OBJECTID":208571},"geometry":{"x":163951.55000000075,"y":2569134.9900000021}},{"attributes":{"ID":208573,"DIS_CODE":0,"TOWNNAME":"安南區","LI":"\u25A0南里","LIN":"32鄰","STREET":"安昌街","SECT":" ","MAREA":" ","LANE":"１７４巷","ALLEY":"３９弄","HOUSE_NO":"７之５號","E_COORD97":170158.20999999999,"N_COORD97":2552370.9900000002,"ADDRESS":"安昌街１７４巷３９弄７之５號","OBJECTID":208572},"geometry":{"x":170158.21000000089,"y":2552370.9900000002}},{"attributes":{"ID":208574,"DIS_CODE":0,"TOWNNAME":"將軍區","LI":"西華里","LIN":"9鄰","STREET":" ","SECT":" ","MAREA":"西華","LANE":" ","ALLEY":" ","HOUSE_NO":"１０１號","E_COORD97":163380.97,"N_COORD97":2566433.9900000002,"ADDRESS":"西華１０１號","OBJECTID":208573},"geometry":{"x":163380.97000000067,"y":2566433.9900000002}},{"attributes":{"ID":208575,"DIS_CODE":0,"TOWNNAME":"將軍區","LI":"西華里","LIN":"9鄰","STREET":" ","SECT":" ","MAREA":"西華","LANE":" ","ALLEY":" ","HOUSE_NO":"１０２號","E_COORD97":163376.97,"N_COORD97":2566465.98,"ADDRESS":"西華１０２號","OBJECTID":208574},"geometry":{"x":163376.9700000016,"y":2566465.9800000042}},{"attributes":{"ID":208576,"DIS_CODE":0,"TOWNNAME":"將軍區","LI":"西華里","LIN":"9鄰","STREET":" ","SECT":" ","MAREA":"西華","LANE":" ","ALLEY":" ","HOUSE_NO":"１０４號","E_COORD97":163357.73999999999,"N_COORD97":2566461.8999999999,"ADDRESS":"西華１０４號","OBJECTID":208575},"geometry":{"x":163357.74000000022,"y":2566461.9000000004}},{"attributes":{"ID":208577,"DIS_CODE":0,"TOWNNAME":"永康區","LI":"北灣里","LIN":"9鄰","STREET":"信義街","SECT":" ","MAREA":" ","LANE":" ","ALLEY":" ","HOUSE_NO":"１４７號之１","E_COORD97":175080.09,"N_COORD97":2545625.2799999998,"ADDRESS":"信義街１４７號之１","OBJECTID":208576},"geometry":{"x":175080.09000000078,"y":2545625.2800000031}},{"attributes":{"ID":208578,"DIS_CODE":0,"TOWNNAME":"安南區","LI":"\u25A0南里","LIN":"32鄰","STREET":"安昌街","SECT":" ","MAREA":" ","LANE":"１７４巷","ALLEY":"３９弄","HOUSE_NO":"９號","E_COORD97":170153.73000000001,"N_COORD97":2552356.0099999998,"ADDRESS":"安昌街１７４巷３９弄９號","OBJECTID":208577},"geometry":{"x":170153.73000000138,"y":2552356.0099999998}},{"attributes":{"ID":208579,"DIS_CODE":0,"TOWNNAME":"安南區","LI":"\u25A0南里","LIN":"32鄰","STREET":"安昌街","SECT":" ","MAREA":" ","LANE":"１７４巷","ALLEY":"６１弄","HOUSE_NO":"２號","E_COORD97":170140.20000000001,"N_COORD97":2552273.4300000002,"ADDRESS":"安昌街１７４巷６１弄２號","OBJECTID":208578},"geometry":{"x":170140.20000000112,"y":2552273.4300000034}},{"attributes":{"ID":208580,"DIS_CODE":0,"TOWNNAME":"將軍區","LI":"西華里","LIN":"9鄰","STREET":" ","SECT":" ","MAREA":"西華","LANE":" ","ALLEY":" ","HOUSE_NO":"１０５號","E_COORD97":163361.98999999999,"N_COORD97":2566434,"ADDRESS":"西華１０５號","OBJECTID":208579},"geometry":{"x":163361.99000000209,"y":2566434}},{"attributes":{"ID":208581,"DIS_CODE":0,"TOWNNAME":"東區","LI":"崇信里","LIN":"9鄰","STREET":"崇信街","SECT":" ","MAREA":" ","LANE":" ","ALLEY":" ","HOUSE_NO":"７１號","E_COORD97":170747.14000000001,"N_COORD97":2542383.3999999999,"ADDRESS":"崇信街７１號","OBJECTID":208580},"geometry":{"x":170747.1400000006,"y":2542383.4000000004}},{"attributes":{"ID":208582,"DIS_CODE":0,"TOWNNAME":"將軍區","LI":"西華里","LIN":"9鄰","STREET":" ","SECT":" ","MAREA":"西華","LANE":" ","ALLEY":" ","HOUSE_NO":"１０６號","E_COORD97":163363.14000000001,"N_COORD97":2566379.29,"ADDRESS":"西華１０６號","OBJECTID":208581},"geometry":{"x":163363.13999999966,"y":2566379.2899999991}},{"attributes":{"ID":208583,"DIS_CODE":0,"TOWNNAME":"永康區","LI":"正強里","LIN":"9鄰","STREET":"自強路","SECT":" ","MAREA":" ","LANE":" ","ALLEY":" ","HOUSE_NO":"２９４號","E_COORD97":173345.85000000001,"N_COORD97":2547637.7999999998,"ADDRESS":"自強路２９４號","OBJECTID":208582},"geometry":{"x":173345.85000000056,"y":2547637.8000000026}},{"attributes":{"ID":208584,"DIS_CODE":0,"TOWNNAME":"永康區","LI":"蔦松里","LIN":"9鄰","STREET":"正北三路","SECT":" ","MAREA":" ","LANE":" ","ALLEY":" ","HOUSE_NO":"１１７號","E_COORD97":174374.82999999999,"N_COORD97":2550030.9399999999,"ADDRESS":"正北三路１１７號","OBJECTID":208583},"geometry":{"x":174374.83000000194,"y":2550030.9399999995}},{"attributes":{"ID":208585,"DIS_CODE":0,"TOWNNAME":"將軍區","LI":"西華里","LIN":"9鄰","STREET":" ","SECT":" ","MAREA":"西華","LANE":" ","ALLEY":" ","HOUSE_NO":"１０８號","E_COORD97":163367.66,"N_COORD97":2566342.7200000002,"ADDRESS":"西華１０８號","OBJECTID":208584},"geometry":{"x":163367.66000000201,"y":2566342.7200000025}},{"attributes":{"ID":208586,"DIS_CODE":0,"TOWNNAME":"將軍區","LI":"西華里","LIN":"9鄰","STREET":" ","SECT":" ","MAREA":"西華","LANE":" ","ALLEY":" ","HOUSE_NO":"１０９之１號","E_COORD97":163352.98000000001,"N_COORD97":2566345.9100000001,"ADDRESS":"西華１０９之１號","OBJECTID":208585},"geometry":{"x":163352.98000000045,"y":2566345.9100000001}},{"attributes":{"ID":208587,"DIS_CODE":0,"TOWNNAME":"將軍區","LI":"西華里","LIN":"9鄰","STREET":" ","SECT":" ","MAREA":"西華","LANE":" ","ALLEY":" ","HOUSE_NO":"１０９號","E_COORD97":163360.92999999999,"N_COORD97":2566345.8500000001,"ADDRESS":"西華１０９號","OBJECTID":208586},"geometry":{"x":163360.93000000063,"y":2566345.8499999996}},{"attributes":{"ID":208588,"DIS_CODE":0,"TOWNNAME":"將軍區","LI":"忠興里","LIN":"9鄰","STREET":" ","SECT":" ","MAREA":"忠興","LANE":" ","ALLEY":" ","HOUSE_NO":"１００號","E_COORD97":163583.44,"N_COORD97":2566921.8399999999,"ADDRESS":"忠興１００號","OBJECTID":208587},"geometry":{"x":163583.44000000134,"y":2566921.8400000017}},{"attributes":{"ID":208589,"DIS_CODE":0,"TOWNNAME":"安南區","LI":"\u25A0南里","LIN":"32鄰","STREET":"安昌街","SECT":" ","MAREA":" ","LANE":"１７４巷","ALLEY":"６１弄","HOUSE_NO":"４號","E_COORD97":170144.28,"N_COORD97":2552273.8399999999,"ADDRESS":"安昌街１７４巷６１弄４號","OBJECTID":208588},"geometry":{"x":170144.28000000212,"y":2552273.8400000036}},{"attributes":{"ID":208590,"DIS_CODE":0,"TOWNNAME":"將軍區","LI":"忠興里","LIN":"9鄰","STREET":" ","SECT":" ","MAREA":"忠興","LANE":" ","ALLEY":" ","HOUSE_NO":"９６之１號","E_COORD97":163458.60999999999,"N_COORD97":2566873.0600000001,"ADDRESS":"忠興９６之１號","OBJECTID":208589},"geometry":{"x":163458.61000000127,"y":2566873.0600000024}},{"attributes":{"ID":208591,"DIS_CODE":0,"TOWNNAME":"將軍區","LI":"忠興里","LIN":"9鄰","STREET":" ","SECT":" ","MAREA":"忠興","LANE":" ","ALLEY":" ","HOUSE_NO":"９６號","E_COORD97":163486.79000000001,"N_COORD97":2566883.6899999999,"ADDRESS":"忠興９６號","OBJECTID":208590},"geometry":{"x":163486.78999999911,"y":2566883.6900000032}},{"attributes":{"ID":208592,"DIS_CODE":0,"TOWNNAME":"將軍區","LI":"忠興里","LIN":"9鄰","STREET":" ","SECT":" ","MAREA":"忠興","LANE":" ","ALLEY":" ","HOUSE_NO":"９７之１０號","E_COORD97":163483.06,"N_COORD97":2566939.1200000001,"ADDRESS":"忠興９７之１０號","OBJECTID":208591},"geometry":{"x":163483.06000000052,"y":2566939.120000001}},{"attributes":{"ID":208593,"DIS_CODE":0,"TOWNNAME":"將軍區","LI":"忠興里","LIN":"9鄰","STREET":" ","SECT":" ","MAREA":"忠興","LANE":" ","ALLEY":" ","HOUSE_NO":"９７之１１號","E_COORD97":163480.13,"N_COORD97":2566942.5699999998,"ADDRESS":"忠興９７之１１號","OBJECTID":208592},"geometry":{"x":163480.13000000082,"y":2566942.5700000003}},{"attributes":{"ID":208594,"DIS_CODE":0,"TOWNNAME":"將軍區","LI":"忠興里","LIN":"9鄰","STREET":" ","SECT":" ","MAREA":"忠興","LANE":" ","ALLEY":" ","HOUSE_NO":"９７之１２號","E_COORD97":163477.44,"N_COORD97":2566946.1000000001,"ADDRESS":"忠興９７之１２號","OBJECTID":208593},"geometry":{"x":163477.44000000041,"y":2566946.1000000015}},{"attributes":{"ID":208595,"DIS_CODE":0,"TOWNNAME":"將軍區","LI":"忠興里","LIN":"9鄰","STREET":" ","SECT":" ","MAREA":"忠興","LANE":" ","ALLEY":" ","HOUSE_NO":"９７之１３號","E_COORD97":163474.07999999999,"N_COORD97":2566949.5299999998,"ADDRESS":"忠興９７之１３號","OBJECTID":208594},"geometry":{"x":163474.08000000007,"y":2566949.5300000012}},{"attributes":{"ID":208596,"DIS_CODE":0,"TOWNNAME":"永康區","LI":"蔦松里","LIN":"9鄰","STREET":"蔦松三街","SECT":" ","MAREA":" ","LANE":" ","ALLEY":" ","HOUSE_NO":"１１６號","E_COORD97":173879.42999999999,"N_COORD97":2549654.25,"ADDRESS":"蔦松三街１１６號","OBJECTID":208595},"geometry":{"x":173879.43000000063,"y":2549654.2500000019}},{"attributes":{"ID":208597,"DIS_CODE":0,"TOWNNAME":"將軍區","LI":"忠興里","LIN":"9鄰","STREET":" ","SECT":" ","MAREA":"忠興","LANE":" ","ALLEY":" ","HOUSE_NO":"９７之１４號","E_COORD97":163470.95000000001,"N_COORD97":2566952.73,"ADDRESS":"忠興９７之１４號","OBJECTID":208596},"geometry":{"x":163470.95000000112,"y":2566952.7300000023}},{"attributes":{"ID":208598,"DIS_CODE":0,"TOWNNAME":"將軍區","LI":"忠興里","LIN":"9鄰","STREET":" ","SECT":" ","MAREA":"忠興","LANE":" ","ALLEY":" ","HOUSE_NO":"９７之１５號","E_COORD97":163468.44,"N_COORD97":2566956.0099999998,"ADDRESS":"忠興９７之１５號","OBJECTID":208597},"geometry":{"x":163468.44000000134,"y":2566956.0099999998}},{"attributes":{"ID":208599,"DIS_CODE":0,"TOWNNAME":"將軍區","LI":"忠興里","LIN":"9鄰","STREET":" ","SECT":" ","MAREA":"忠興","LANE":" ","ALLEY":" ","HOUSE_NO":"９７之１６號","E_COORD97":163465.39000000001,"N_COORD97":2566959.3300000001,"ADDRESS":"忠興９７之１６號","OBJECTID":208598},"geometry":{"x":163465.38999999873,"y":2566959.3300000019}},{"attributes":{"ID":208600,"DIS_CODE":0,"TOWNNAME":"將軍區","LI":"忠興里","LIN":"9鄰","STREET":" ","SECT":" ","MAREA":"忠興","LANE":" ","ALLEY":" ","HOUSE_NO":"９７之１７號","E_COORD97":163462.64000000001,"N_COORD97":2566962.79,"ADDRESS":"忠興９７之１７號","OBJECTID":208599},"geometry":{"x":163462.6400000006,"y":2566962.7899999991}},{"attributes":{"ID":208601,"DIS_CODE":0,"TOWNNAME":"將軍區","LI":"忠興里","LIN":"9鄰","STREET":" ","SECT":" ","MAREA":"忠興","LANE":" ","ALLEY":" ","HOUSE_NO":"９７之１８號","E_COORD97":163459.85999999999,"N_COORD97":2566965.79,"ADDRESS":"忠興９７之１８號","OBJECTID":208600},"geometry":{"x":163459.86000000127,"y":2566965.7899999991}}]}