{"displayFieldName":"TOWNNAME","fieldAliases":{"ID":"ID","DIS_CODE":"DIS_CODE","TOWNNAME":"TOWNNAME","LI":"LI","LIN":"LIN","STREET":"STREET","SECT":"SECT","MAREA":"MAREA","LANE":"LANE","ALLEY":"ALLEY","HOUSE_NO":"HOUSE_NO","E_COORD97":"E_COORD97","N_COORD97":"N_COORD97","ADDRESS":"ADDRESS","OBJECTID":"OBJECTID"},"geometryType":"esriGeometryPoint","spatialReference":{"wkid":102443,"latestWkid":3826},"fields":[{"name":"ID","type":"esriFieldTypeDouble","alias":"ID"},{"name":"DIS_CODE","type":"esriFieldTypeInteger","alias":"DIS_CODE"},{"name":"TOWNNAME","type":"esriFieldTypeString","alias":"TOWNNAME","length":8},{"name":"LI","type":"esriFieldTypeString","alias":"LI","length":8},{"name":"LIN","type":"esriFieldTypeString","alias":"LIN","length":12},{"name":"STREET","type":"esriFieldTypeString","alias":"STREET","length":20},{"name":"SECT","type":"esriFieldTypeString","alias":"SECT","length":8},{"name":"MAREA","type":"esriFieldTypeString","alias":"MAREA","length":12},{"name":"LANE","type":"esriFieldTypeString","alias":"LANE","length":10},{"name":"ALLEY","type":"esriFieldTypeString","alias":"ALLEY","length":10},{"name":"HOUSE_NO","type":"esriFieldTypeString","alias":"HOUSE_NO","length":20},{"name":"E_COORD97","type":"esriFieldTypeDouble","alias":"E_COORD97"},{"name":"N_COORD97","type":"esriFieldTypeDouble","alias":"N_COORD97"},{"name":"ADDRESS","type":"esriFieldTypeString","alias":"ADDRESS","length":50},{"name":"OBJECTID","type":"esriFieldTypeOID","alias":"OBJECTID"}],"features":[{"attributes":{"ID":6201,"DIS_CODE":0,"TOWNNAME":"永康區","LI":"\u25A0行里","LIN":"34鄰","STREET":"三村一街","SECT":" ","MAREA":" ","LANE":"８３巷","ALLEY":"９弄","HOUSE_NO":"１６號","E_COORD97":172051.55848000001,"N_COORD97":2549209.4310699999,"ADDRESS":"三村一街８３巷９弄１６號","OBJECTID":6201},"geometry":{"x":172051.55848000105,"y":2549209.4310730025}},{"attributes":{"ID":6202,"DIS_CODE":0,"TOWNNAME":"歸仁區","LI":"七甲里","LIN":"15鄰","STREET":"南丁路","SECT":" ","MAREA":" ","LANE":"７０５巷","ALLEY":" ","HOUSE_NO":"１３６號","E_COORD97":175812.88727000001,"N_COORD97":2543434.7532899999,"ADDRESS":"南丁路７０５巷１３６號","OBJECTID":6202},"geometry":{"x":175812.88727000076,"y":2543434.7532910015}},{"attributes":{"ID":6203,"DIS_CODE":0,"TOWNNAME":"安南區","LI":"理想里","LIN":"12鄰","STREET":"大安街","SECT":" ","MAREA":" ","LANE":" ","ALLEY":" ","HOUSE_NO":"５８７號","E_COORD97":167067.69433200001,"N_COORD97":2548947.4868800002,"ADDRESS":"大安街５８７號","OBJECTID":6203},"geometry":{"x":167067.6943320008,"y":2548947.4868809991}},{"attributes":{"ID":6204,"DIS_CODE":0,"TOWNNAME":"安南區","LI":"州北里","LIN":"7鄰","STREET":"安和路","SECT":"五段","MAREA":" ","LANE":" ","ALLEY":" ","HOUSE_NO":"３５６號","E_COORD97":169674.88222900001,"N_COORD97":2552223.9268100001,"ADDRESS":"安和路五段３５６號","OBJECTID":6204},"geometry":{"x":169674.8822289994,"y":2552223.9268140029}},{"attributes":{"ID":6205,"DIS_CODE":0,"TOWNNAME":"仁德區","LI":"仁德里","LIN":"4鄰","STREET":"仁中一街","SECT":" ","MAREA":" ","LANE":" ","ALLEY":" ","HOUSE_NO":"１０１號","E_COORD97":173213.59009899999,"N_COORD97":2540598.36387,"ADDRESS":"仁中一街１０１號","OBJECTID":6205},"geometry":{"x":173213.5900990013,"y":2540598.3638739996}},{"attributes":{"ID":6206,"DIS_CODE":0,"TOWNNAME":"安南區","LI":"理想里","LIN":"13鄰","STREET":"海佃路","SECT":"二段","MAREA":" ","LANE":"１０２巷","ALLEY":" ","HOUSE_NO":"３１號","E_COORD97":167110.31413899999,"N_COORD97":2548018.6865699999,"ADDRESS":"海佃路二段１０２巷３１號","OBJECTID":6206},"geometry":{"x":167110.31413899921,"y":2548018.6865710001}},{"attributes":{"ID":6207,"DIS_CODE":0,"TOWNNAME":"仁德區","LI":"仁德里","LIN":"4鄰","STREET":"仁中一街","SECT":" ","MAREA":" ","LANE":" ","ALLEY":" ","HOUSE_NO":"１０３號","E_COORD97":173208.92900800001,"N_COORD97":2540598.36387,"ADDRESS":"仁中一街１０３號","OBJECTID":6207},"geometry":{"x":173208.9290079996,"y":2540598.3638739996}},{"attributes":{"ID":6208,"DIS_CODE":0,"TOWNNAME":"仁德區","LI":"太子里","LIN":"39鄰","STREET":"太子路","SECT":" ","MAREA":" ","LANE":" ","ALLEY":" ","HOUSE_NO":"８４號","E_COORD97":175063.87036500001,"N_COORD97":2543557.73972,"ADDRESS":"太子路８４號","OBJECTID":6208},"geometry":{"x":175063.87036500219,"y":2543557.7397220004}},{"attributes":{"ID":6209,"DIS_CODE":0,"TOWNNAME":"安南區","LI":"理想里","LIN":"13鄰","STREET":"海佃路","SECT":"二段","MAREA":" ","LANE":"１０２巷","ALLEY":" ","HOUSE_NO":"３２號","E_COORD97":167078.50226000001,"N_COORD97":2548012.8873800002,"ADDRESS":"海佃路二段１０２巷３２號","OBJECTID":6209},"geometry":{"x":167078.50226000138,"y":2548012.8873760011}},{"attributes":{"ID":6210,"DIS_CODE":0,"TOWNNAME":"仁德區","LI":"仁德里","LIN":"4鄰","STREET":"仁中一街","SECT":" ","MAREA":" ","LANE":" ","ALLEY":" ","HOUSE_NO":"９９之１號","E_COORD97":173225.03095700001,"N_COORD97":2540583.70597,"ADDRESS":"仁中一街９９之１號","OBJECTID":6210},"geometry":{"x":173225.03095700033,"y":2540583.705965003}},{"attributes":{"ID":6211,"DIS_CODE":0,"TOWNNAME":"安南區","LI":"州北里","LIN":"7鄰","STREET":"安和路","SECT":"五段","MAREA":" ","LANE":" ","ALLEY":" ","HOUSE_NO":"３５８號","E_COORD97":169672.68796400001,"N_COORD97":2552229.8467999999,"ADDRESS":"安和路五段３５８號","OBJECTID":6211},"geometry":{"x":169672.68796400074,"y":2552229.8467950001}},{"attributes":{"ID":6212,"DIS_CODE":0,"TOWNNAME":"新營區","LI":"永生里","LIN":"10鄰","STREET":"康樂街","SECT":" ","MAREA":" ","LANE":" ","ALLEY":" ","HOUSE_NO":"１４之２號","E_COORD97":179999.11188499999,"N_COORD97":2577921.8315900001,"ADDRESS":"康樂街１４之２號","OBJECTID":6212},"geometry":{"x":179999.11188500002,"y":2577921.8315910008}},{"attributes":{"ID":6213,"DIS_CODE":0,"TOWNNAME":"仁德區","LI":"仁德里","LIN":"4鄰","STREET":"仁中一街","SECT":" ","MAREA":" ","LANE":" ","ALLEY":" ","HOUSE_NO":"９９之２號","E_COORD97":173225.03095700001,"N_COORD97":2540578.4142999998,"ADDRESS":"仁中一街９９之２號","OBJECTID":6213},"geometry":{"x":173225.03095700033,"y":2540578.4143010043}},{"attributes":{"ID":6214,"DIS_CODE":0,"TOWNNAME":"仁德區","LI":"仁德里","LIN":"4鄰","STREET":"仁中一街","SECT":" ","MAREA":" ","LANE":" ","ALLEY":" ","HOUSE_NO":"９９之３號","E_COORD97":173225.03095700001,"N_COORD97":2540573.5459699999,"ADDRESS":"仁中一街９９之３號","OBJECTID":6214},"geometry":{"x":173225.03095700033,"y":2540573.5459710006}},{"attributes":{"ID":6215,"DIS_CODE":0,"TOWNNAME":"永康區","LI":"\u25A0行里","LIN":"34鄰","STREET":"三村一街","SECT":" ","MAREA":" ","LANE":"８３巷","ALLEY":" ","HOUSE_NO":"１７號","E_COORD97":172029.72749700001,"N_COORD97":2549199.48275,"ADDRESS":"三村一街８３巷１７號","OBJECTID":6215},"geometry":{"x":172029.72749700025,"y":2549199.482745003}},{"attributes":{"ID":6216,"DIS_CODE":0,"TOWNNAME":"仁德區","LI":"中洲里","LIN":"1鄰","STREET":" ","SECT":" ","MAREA":"中洲","LANE":" ","ALLEY":" ","HOUSE_NO":"２號之２","E_COORD97":173600.85847499999,"N_COORD97":2534361.9937800001,"ADDRESS":"中洲２號之２","OBJECTID":6216},"geometry":{"x":173600.85847499967,"y":2534361.9937790018}},{"attributes":{"ID":6217,"DIS_CODE":0,"TOWNNAME":"仁德區","LI":"仁德里","LIN":"4鄰","STREET":"仁中一街","SECT":" ","MAREA":" ","LANE":" ","ALLEY":" ","HOUSE_NO":"９９之５號","E_COORD97":173225.03095700001,"N_COORD97":2540568.2543100002,"ADDRESS":"仁中一街９９之５號","OBJECTID":6217},"geometry":{"x":173225.03095700033,"y":2540568.254307}},{"attributes":{"ID":6218,"DIS_CODE":0,"TOWNNAME":"安南區","LI":"州北里","LIN":"7鄰","STREET":"安和路","SECT":"五段","MAREA":" ","LANE":" ","ALLEY":" ","HOUSE_NO":"３６０號","E_COORD97":169670.453278,"N_COORD97":2552234.81281,"ADDRESS":"安和路五段３６０號","OBJECTID":6218},"geometry":{"x":169670.45327799954,"y":2552234.8128090035}},{"attributes":{"ID":6219,"DIS_CODE":0,"TOWNNAME":"仁德區","LI":"中洲里","LIN":"1鄰","STREET":" ","SECT":" ","MAREA":"中洲","LANE":" ","ALLEY":" ","HOUSE_NO":"２號之３","E_COORD97":173614.41776099999,"N_COORD97":2534373.4237700002,"ADDRESS":"中洲２號之３","OBJECTID":6219},"geometry":{"x":173614.41776099987,"y":2534373.4237730037}},{"attributes":{"ID":6220,"DIS_CODE":0,"TOWNNAME":"安南區","LI":"溪心里","LIN":"5鄰","STREET":"安吉路","SECT":"一段","MAREA":" ","LANE":" ","ALLEY":" ","HOUSE_NO":"１００１號","E_COORD97":166993.45947900001,"N_COORD97":2550665.5840699999,"ADDRESS":"安吉路一段１００１號","OBJECTID":6220},"geometry":{"x":166993.45947900042,"y":2550665.5840680022}},{"attributes":{"ID":6221,"DIS_CODE":0,"TOWNNAME":"安平區","LI":"華平里","LIN":"8鄰","STREET":"育平九街","SECT":" ","MAREA":" ","LANE":" ","ALLEY":" ","HOUSE_NO":"２１號","E_COORD97":165406.66630400001,"N_COORD97":2543939.6330300001,"ADDRESS":"育平九街２１號","OBJECTID":6221},"geometry":{"x":165406.66630399972,"y":2543939.6330320016}},{"attributes":{"ID":6222,"DIS_CODE":0,"TOWNNAME":"仁德區","LI":"仁德里","LIN":"4鄰","STREET":"仁中一街","SECT":" ","MAREA":" ","LANE":" ","ALLEY":" ","HOUSE_NO":"９９之７號","E_COORD97":173213.166363,"N_COORD97":2540573.3343000002,"ADDRESS":"仁中一街９９之７號","OBJECTID":6222},"geometry":{"x":173213.16636300087,"y":2540573.3343039993}},{"attributes":{"ID":6223,"DIS_CODE":0,"TOWNNAME":"仁德區","LI":"仁德里","LIN":"4鄰","STREET":"仁中一街","SECT":" ","MAREA":" ","LANE":" ","ALLEY":" ","HOUSE_NO":"９９之８號","E_COORD97":173213.166363,"N_COORD97":2540578.7318000002,"ADDRESS":"仁中一街９９之８號","OBJECTID":6223},"geometry":{"x":173213.16636300087,"y":2540578.7318010014}},{"attributes":{"ID":6224,"DIS_CODE":0,"TOWNNAME":"仁德區","LI":"仁德里","LIN":"4鄰","STREET":"仁中一街","SECT":" ","MAREA":" ","LANE":" ","ALLEY":" ","HOUSE_NO":"９９之９號","E_COORD97":173213.166363,"N_COORD97":2540583.6001300002,"ADDRESS":"仁中一街９９之９號","OBJECTID":6224},"geometry":{"x":173213.16636300087,"y":2540583.6001320034}},{"attributes":{"ID":6225,"DIS_CODE":0,"TOWNNAME":"安平區","LI":"西門里","LIN":"2鄰","STREET":"國勝路","SECT":" ","MAREA":" ","LANE":"３１巷","ALLEY":" ","HOUSE_NO":"２４號","E_COORD97":163859.74137800001,"N_COORD97":2544575.4793600002,"ADDRESS":"國勝路３１巷２４號","OBJECTID":6225},"geometry":{"x":163859.74137800094,"y":2544575.4793560021}},{"attributes":{"ID":6226,"DIS_CODE":0,"TOWNNAME":"仁德區","LI":"中洲里","LIN":"1鄰","STREET":" ","SECT":" ","MAREA":"中洲","LANE":" ","ALLEY":" ","HOUSE_NO":"２號之４","E_COORD97":173620.77367699999,"N_COORD97":2534372.78877,"ADDRESS":"中洲２號之４","OBJECTID":6226},"geometry":{"x":173620.77367699984,"y":2534372.7887729984}},{"attributes":{"ID":6227,"DIS_CODE":0,"TOWNNAME":"六甲區","LI":"二甲里","LIN":"16鄰","STREET":"光復街","SECT":" ","MAREA":" ","LANE":" ","ALLEY":" ","HOUSE_NO":"５３號","E_COORD97":183218.90487900001,"N_COORD97":2569830.2916100002,"ADDRESS":"光復街５３號","OBJECTID":6227},"geometry":{"x":183218.90487900004,"y":2569830.2916140035}},{"attributes":{"ID":6228,"DIS_CODE":0,"TOWNNAME":"永康區","LI":"\u25A0行里","LIN":"34鄰","STREET":"三村一街","SECT":" ","MAREA":" ","LANE":"８３巷","ALLEY":" ","HOUSE_NO":"１９號","E_COORD97":172030.1514,"N_COORD97":2549197.15441,"ADDRESS":"三村一街８３巷１９號","OBJECTID":6228},"geometry":{"x":172030.15140000079,"y":2549197.1544129997}},{"attributes":{"ID":6229,"DIS_CODE":0,"TOWNNAME":"歸仁區","LI":"七甲里","LIN":"15鄰","STREET":"南丁路","SECT":" ","MAREA":" ","LANE":"７０５巷","ALLEY":"１０２弄","HOUSE_NO":"２２號","E_COORD97":175883.042563,"N_COORD97":2543368.7133300002,"ADDRESS":"南丁路７０５巷１０２弄２２號","OBJECTID":6229},"geometry":{"x":175883.04256300163,"y":2543368.7133270036}},{"attributes":{"ID":6230,"DIS_CODE":0,"TOWNNAME":"永康區","LI":"\u25A0行里","LIN":"34鄰","STREET":"三村一街","SECT":" ","MAREA":" ","LANE":"８３巷","ALLEY":"９弄","HOUSE_NO":"８號","E_COORD97":172042.65652600001,"N_COORD97":2549209.2194099999,"ADDRESS":"三村一街８３巷９弄８號","OBJECTID":6230},"geometry":{"x":172042.65652600117,"y":2549209.2194070015}},{"attributes":{"ID":6231,"DIS_CODE":0,"TOWNNAME":"仁德區","LI":"仁德里","LIN":"4鄰","STREET":"仁中二街","SECT":" ","MAREA":" ","LANE":"７６巷","ALLEY":" ","HOUSE_NO":"１號","E_COORD97":173249.077946,"N_COORD97":2540568.5188899999,"ADDRESS":"仁中二街７６巷１號","OBJECTID":6231},"geometry":{"x":173249.07794600073,"y":2540568.5188900009}},{"attributes":{"ID":6232,"DIS_CODE":0,"TOWNNAME":"仁德區","LI":"仁德里","LIN":"4鄰","STREET":"仁中一街","SECT":" ","MAREA":" ","LANE":" ","ALLEY":" ","HOUSE_NO":"９９之６號","E_COORD97":173213.166363,"N_COORD97":2540568.4659699998,"ADDRESS":"仁中一街９９之６號","OBJECTID":6232},"geometry":{"x":173213.16636300087,"y":2540568.4659730028}},{"attributes":{"ID":6233,"DIS_CODE":0,"TOWNNAME":"永康區","LI":"\u25A0行里","LIN":"34鄰","STREET":"三村一街","SECT":" ","MAREA":" ","LANE":"８３巷","ALLEY":"９弄","HOUSE_NO":"１號","E_COORD97":172035.87408499999,"N_COORD97":2549215.78107,"ADDRESS":"三村一街８３巷９弄１號","OBJECTID":6233},"geometry":{"x":172035.87408500072,"y":2549215.7810700014}},{"attributes":{"ID":6234,"DIS_CODE":0,"TOWNNAME":"安南區","LI":"理想里","LIN":"13鄰","STREET":"海佃路","SECT":"二段","MAREA":" ","LANE":"１０２巷","ALLEY":" ","HOUSE_NO":"３６號","E_COORD97":167082.97769500001,"N_COORD97":2548010.7126799999,"ADDRESS":"海佃路二段１０２巷３６號","OBJECTID":6234},"geometry":{"x":167082.97769500129,"y":2548010.7126780022}},{"attributes":{"ID":6235,"DIS_CODE":0,"TOWNNAME":"安南區","LI":"溪心里","LIN":"4鄰","STREET":"安吉路","SECT":"二段","MAREA":" ","LANE":" ","ALLEY":" ","HOUSE_NO":"９５號","E_COORD97":167043.64021000001,"N_COORD97":2550841.6906400002,"ADDRESS":"安吉路二段９５號","OBJECTID":6235},"geometry":{"x":167043.64021000173,"y":2550841.6906390004}},{"attributes":{"ID":6236,"DIS_CODE":0,"TOWNNAME":"仁德區","LI":"仁德里","LIN":"4鄰","STREET":"仁中二街","SECT":" ","MAREA":" ","LANE":" ","ALLEY":" ","HOUSE_NO":"１１６號","E_COORD97":173186.36509400001,"N_COORD97":2540552.0882700002,"ADDRESS":"仁中二街１１６號","OBJECTID":6236},"geometry":{"x":173186.3650940014,"y":2540552.0882700011}},{"attributes":{"ID":6237,"DIS_CODE":0,"TOWNNAME":"仁德區","LI":"仁德里","LIN":"4鄰","STREET":"仁中二街","SECT":" ","MAREA":" ","LANE":" ","ALLEY":" ","HOUSE_NO":"１１８號","E_COORD97":173181.280268,"N_COORD97":2540552.0882700002,"ADDRESS":"仁中二街１１８號","OBJECTID":6237},"geometry":{"x":173181.28026800044,"y":2540552.0882700011}},{"attributes":{"ID":6238,"DIS_CODE":0,"TOWNNAME":"仁德區","LI":"仁德里","LIN":"4鄰","STREET":"仁中二街","SECT":" ","MAREA":" ","LANE":" ","ALLEY":" ","HOUSE_NO":"１２０號","E_COORD97":173176.30137599999,"N_COORD97":2540552.0882700002,"ADDRESS":"仁中二街１２０號","OBJECTID":6238},"geometry":{"x":173176.30137600098,"y":2540552.0882700011}},{"attributes":{"ID":6239,"DIS_CODE":0,"TOWNNAME":"安南區","LI":"溪心里","LIN":"4鄰","STREET":"安吉路","SECT":"二段","MAREA":" ","LANE":" ","ALLEY":" ","HOUSE_NO":"８９號","E_COORD97":167041.52288,"N_COORD97":2550828.3556499998,"ADDRESS":"安吉路二段８９號","OBJECTID":6239},"geometry":{"x":167041.52288000099,"y":2550828.3556470014}},{"attributes":{"ID":6240,"DIS_CODE":0,"TOWNNAME":"仁德區","LI":"仁德里","LIN":"4鄰","STREET":"仁中二街","SECT":" ","MAREA":" ","LANE":" ","ALLEY":" ","HOUSE_NO":"１２２號","E_COORD97":173171.74621899999,"N_COORD97":2540552.0882700002,"ADDRESS":"仁中二街１２２號","OBJECTID":6240},"geometry":{"x":173171.74621900078,"y":2540552.0882700011}},{"attributes":{"ID":6241,"DIS_CODE":0,"TOWNNAME":"安南區","LI":"溪心里","LIN":"4鄰","STREET":"安吉路","SECT":"二段","MAREA":" ","LANE":" ","ALLEY":" ","HOUSE_NO":"８７號","E_COORD97":167041.52288,"N_COORD97":2550823.6989799999,"ADDRESS":"安吉路二段８７號","OBJECTID":6241},"geometry":{"x":167041.52288000099,"y":2550823.6989820022}},{"attributes":{"ID":6242,"DIS_CODE":0,"TOWNNAME":"仁德區","LI":"仁德里","LIN":"4鄰","STREET":"仁中二街","SECT":" ","MAREA":" ","LANE":" ","ALLEY":" ","HOUSE_NO":"１２６號","E_COORD97":173165.28425299999,"N_COORD97":2540552.0882700002,"ADDRESS":"仁中二街１２６號","OBJECTID":6242},"geometry":{"x":173165.28425300121,"y":2540552.0882700011}},{"attributes":{"ID":6243,"DIS_CODE":0,"TOWNNAME":"安南區","LI":"溪心里","LIN":"4鄰","STREET":"安吉路","SECT":"二段","MAREA":" ","LANE":" ","ALLEY":" ","HOUSE_NO":"８３號","E_COORD97":167040.040748,"N_COORD97":2550814.5973200002,"ADDRESS":"安吉路二段８３號","OBJECTID":6243},"geometry":{"x":167040.04074800108,"y":2550814.5973210018}},{"attributes":{"ID":6244,"DIS_CODE":0,"TOWNNAME":"六甲區","LI":"二甲里","LIN":"18鄰","STREET":"和平街","SECT":" ","MAREA":" ","LANE":"２８１巷","ALLEY":" ","HOUSE_NO":"９０號","E_COORD97":182352.62148599999,"N_COORD97":2569736.1000000001,"ADDRESS":"和平街２８１巷９０號","OBJECTID":6244},"geometry":{"x":182352.62148600072,"y":2569736.0999989994}},{"attributes":{"ID":6245,"DIS_CODE":0,"TOWNNAME":"安南區","LI":"溪心里","LIN":"4鄰","STREET":"安吉路","SECT":"二段","MAREA":" ","LANE":"９７巷","ALLEY":"１弄","HOUSE_NO":"６號","E_COORD97":167018.904044,"N_COORD97":2550815.0499800001,"ADDRESS":"安吉路二段９７巷１弄６號","OBJECTID":6245},"geometry":{"x":167018.90404400136,"y":2550815.0499850009}},{"attributes":{"ID":6246,"DIS_CODE":0,"TOWNNAME":"安南區","LI":"溪心里","LIN":"4鄰","STREET":"安吉路","SECT":"二段","MAREA":" ","LANE":"９７巷","ALLEY":"１弄","HOUSE_NO":"１３號","E_COORD97":167018.09522300001,"N_COORD97":2550788.0207699998,"ADDRESS":"安吉路二段９７巷１弄１３號","OBJECTID":6246},"geometry":{"x":167018.09522299934,"y":2550788.0207710043}},{"attributes":{"ID":6247,"DIS_CODE":0,"TOWNNAME":"永康區","LI":"\u25A0行里","LIN":"34鄰","STREET":"三村一街","SECT":" ","MAREA":" ","LANE":"８３巷","ALLEY":" ","HOUSE_NO":"２７號","E_COORD97":172035.82109700001,"N_COORD97":2549191.30712,"ADDRESS":"三村一街８３巷２７號","OBJECTID":6247},"geometry":{"x":172035.8210970005,"y":2549191.3071250021}},{"attributes":{"ID":6248,"DIS_CODE":0,"TOWNNAME":"安平區","LI":"平通里","LIN":"15鄰","STREET":"育平路","SECT":" ","MAREA":" ","LANE":" ","ALLEY":" ","HOUSE_NO":"３１０號","E_COORD97":164680.88303,"N_COORD97":2543894.9713900001,"ADDRESS":"育平路３１０號","OBJECTID":6248},"geometry":{"x":164680.88303000014,"y":2543894.9713900015}},{"attributes":{"ID":6249,"DIS_CODE":0,"TOWNNAME":"安南區","LI":"溪心里","LIN":"5鄰","STREET":"本原街","SECT":"二段","MAREA":" ","LANE":"５０巷","ALLEY":"１弄","HOUSE_NO":"４６號","E_COORD97":166903.24275100001,"N_COORD97":2550784.78651,"ADDRESS":"本原街二段５０巷１弄４６號","OBJECTID":6249},"geometry":{"x":166903.24275100138,"y":2550784.7865060046}},{"attributes":{"ID":6250,"DIS_CODE":0,"TOWNNAME":"龍崎區","LI":"龍船里","LIN":"4鄰","STREET":" ","SECT":" ","MAREA":"後聖溪","LANE":" ","ALLEY":" ","HOUSE_NO":"３２號","E_COORD97":190258.929557,"N_COORD97":2538671.67368,"ADDRESS":"後聖溪３２號","OBJECTID":6250},"geometry":{"x":190258.92955700122,"y":2538671.6736850012}},{"attributes":{"ID":6251,"DIS_CODE":0,"TOWNNAME":"安平區","LI":"平通里","LIN":"15鄰","STREET":"育平路","SECT":" ","MAREA":" ","LANE":" ","ALLEY":" ","HOUSE_NO":"３１６號","E_COORD97":164729.19795,"N_COORD97":2543917.1963800001,"ADDRESS":"育平路３１６號","OBJECTID":6251},"geometry":{"x":164729.19794999994,"y":2543917.1963780038}},{"attributes":{"ID":6252,"DIS_CODE":0,"TOWNNAME":"安南區","LI":"溪心里","LIN":"4鄰","STREET":"本原街","SECT":"二段","MAREA":" ","LANE":"１０６巷","ALLEY":"９７弄","HOUSE_NO":"２４號","E_COORD97":167064.54461400001,"N_COORD97":2551040.7554700002,"ADDRESS":"本原街二段１０６巷９７弄２４號","OBJECTID":6252},"geometry":{"x":167064.54461400025,"y":2551040.7554720007}},{"attributes":{"ID":6253,"DIS_CODE":0,"TOWNNAME":"安平區","LI":"平通里","LIN":"31鄰","STREET":"育平路","SECT":" ","MAREA":" ","LANE":" ","ALLEY":" ","HOUSE_NO":"３２０號","E_COORD97":164680.24731100001,"N_COORD97":2543936.8813700001,"ADDRESS":"育平路３２０號","OBJECTID":6253},"geometry":{"x":164680.24731100164,"y":2543936.8813669998}},{"attributes":{"ID":6254,"DIS_CODE":0,"TOWNNAME":"安平區","LI":"平通里","LIN":"15鄰","STREET":"育平路","SECT":" ","MAREA":" ","LANE":" ","ALLEY":" ","HOUSE_NO":"３１２號（南市警四分","E_COORD97":164706.52384000001,"N_COORD97":2543893.0663899998,"ADDRESS":"育平路３１２號（南市警四分局）","OBJECTID":6254},"geometry":{"x":164706.52383999992,"y":2543893.066390004}},{"attributes":{"ID":6255,"DIS_CODE":0,"TOWNNAME":"安平區","LI":"平通里","LIN":"15鄰","STREET":"育平路","SECT":" ","MAREA":" ","LANE":" ","ALLEY":" ","HOUSE_NO":"３１８號","E_COORD97":164706.73574999999,"N_COORD97":2543935.8230300001,"ADDRESS":"育平路３１８號","OBJECTID":6255},"geometry":{"x":164706.73574999999,"y":2543935.8230300006}},{"attributes":{"ID":6256,"DIS_CODE":0,"TOWNNAME":"永康區","LI":"\u25A0行里","LIN":"34鄰","STREET":"三村一街","SECT":" ","MAREA":" ","LANE":"８３巷","ALLEY":" ","HOUSE_NO":"２９號","E_COORD97":172038.364512,"N_COORD97":2549190.9896200001,"ADDRESS":"三村一街８３巷２９號","OBJECTID":6256},"geometry":{"x":172038.36451200116,"y":2549190.9896250013}},{"attributes":{"ID":6257,"DIS_CODE":0,"TOWNNAME":"安南區","LI":"溪心里","LIN":"4鄰","STREET":"本原街","SECT":"二段","MAREA":" ","LANE":"１０６巷","ALLEY":" ","HOUSE_NO":"８４號","E_COORD97":167049.06027399999,"N_COORD97":2550924.80877,"ADDRESS":"本原街二段１０６巷８４號","OBJECTID":6257},"geometry":{"x":167049.06027400214,"y":2550924.8087680005}},{"attributes":{"ID":6258,"DIS_CODE":0,"TOWNNAME":"永康區","LI":"\u25A0行里","LIN":"34鄰","STREET":"三村一街","SECT":" ","MAREA":" ","LANE":"８３巷","ALLEY":" ","HOUSE_NO":"３１號","E_COORD97":172041.33183000001,"N_COORD97":2549191.83629,"ADDRESS":"三村一街８３巷３１號","OBJECTID":6258},"geometry":{"x":172041.3318300005,"y":2549191.8362910021}},{"attributes":{"ID":6259,"DIS_CODE":0,"TOWNNAME":"永康區","LI":"\u25A0行里","LIN":"34鄰","STREET":"三村一街","SECT":" ","MAREA":" ","LANE":"８３巷","ALLEY":" ","HOUSE_NO":"３３號","E_COORD97":172043.87524600001,"N_COORD97":2549191.2012900002,"ADDRESS":"三村一街８３巷３３號","OBJECTID":6259},"geometry":{"x":172043.87524600048,"y":2549191.2012920007}},{"attributes":{"ID":6260,"DIS_CODE":0,"TOWNNAME":"關廟區","LI":"北花里","LIN":"5鄰","STREET":"四維街","SECT":" ","MAREA":" ","LANE":"３５０巷","ALLEY":" ","HOUSE_NO":"３２號","E_COORD97":181999.24559599999,"N_COORD97":2540212.2874799999,"ADDRESS":"四維街３５０巷３２號","OBJECTID":6260},"geometry":{"x":181999.24559600092,"y":2540212.2874759994}},{"attributes":{"ID":6261,"DIS_CODE":0,"TOWNNAME":"永康區","LI":"\u25A0行里","LIN":"34鄰","STREET":"三村一街","SECT":" ","MAREA":" ","LANE":"８３巷","ALLEY":" ","HOUSE_NO":"３７號","E_COORD97":172049.597931,"N_COORD97":2549190.9896200001,"ADDRESS":"三村一街８３巷３７號","OBJECTID":6261},"geometry":{"x":172049.5979310004,"y":2549190.9896250013}},{"attributes":{"ID":6262,"DIS_CODE":0,"TOWNNAME":"永康區","LI":"\u25A0行里","LIN":"12鄰","STREET":"中正路","SECT":" ","MAREA":" ","LANE":" ","ALLEY":" ","HOUSE_NO":"５６３號二樓","E_COORD97":171959.94253299999,"N_COORD97":2548914.9764399999,"ADDRESS":"中正路５６３號二樓","OBJECTID":6262},"geometry":{"x":171959.94253300223,"y":2548914.9764409997}},{"attributes":{"ID":6263,"DIS_CODE":0,"TOWNNAME":"安南區","LI":"理想里","LIN":"14鄰","STREET":"大安街","SECT":" ","MAREA":" ","LANE":"８９巷","ALLEY":" ","HOUSE_NO":"１０號","E_COORD97":167202.45391800001,"N_COORD97":2548098.9387400001,"ADDRESS":"大安街８９巷１０號","OBJECTID":6263},"geometry":{"x":167202.45391800068,"y":2548098.938740002}},{"attributes":{"ID":6264,"DIS_CODE":0,"TOWNNAME":"龍崎區","LI":"龍船里","LIN":"3鄰","STREET":" ","SECT":" ","MAREA":"後聖溪","LANE":" ","ALLEY":" ","HOUSE_NO":"２０號","E_COORD97":189726.68944300001,"N_COORD97":2538436.40631,"ADDRESS":"後聖溪２０號","OBJECTID":6264},"geometry":{"x":189726.68944300059,"y":2538436.4063120019}},{"attributes":{"ID":6265,"DIS_CODE":0,"TOWNNAME":"安平區","LI":"西門里","LIN":"1鄰","STREET":"國勝路","SECT":" ","MAREA":" ","LANE":"３５巷","ALLEY":" ","HOUSE_NO":"１號","E_COORD97":163885.80600000001,"N_COORD97":2544623.10433,"ADDRESS":"國勝路３５巷１號","OBJECTID":6265},"geometry":{"x":163885.8060000008,"y":2544623.1043300033}},{"attributes":{"ID":6266,"DIS_CODE":0,"TOWNNAME":"永康區","LI":"\u25A0行里","LIN":"12鄰","STREET":"中正路","SECT":" ","MAREA":" ","LANE":" ","ALLEY":" ","HOUSE_NO":"５６３號三樓","E_COORD97":171959.94253299999,"N_COORD97":2548914.9764399999,"ADDRESS":"中正路５６３號三樓","OBJECTID":6266},"geometry":{"x":171959.94253300223,"y":2548914.9764409997}},{"attributes":{"ID":6267,"DIS_CODE":0,"TOWNNAME":"永康區","LI":"\u25A0行里","LIN":"12鄰","STREET":"中正路","SECT":" ","MAREA":" ","LANE":" ","ALLEY":" ","HOUSE_NO":"５６３號","E_COORD97":171959.94253299999,"N_COORD97":2548914.9764399999,"ADDRESS":"中正路５６３號","OBJECTID":6267},"geometry":{"x":171959.94253300223,"y":2548914.9764409997}},{"attributes":{"ID":6268,"DIS_CODE":0,"TOWNNAME":"龍崎區","LI":"龍船里","LIN":"2鄰","STREET":" ","SECT":" ","MAREA":"苦苓湖","LANE":" ","ALLEY":" ","HOUSE_NO":"１號","E_COORD97":189823.691422,"N_COORD97":2537931.6874199999,"ADDRESS":"苦苓湖１號","OBJECTID":6268},"geometry":{"x":189823.6914219996,"y":2537931.6874179989}},{"attributes":{"ID":6269,"DIS_CODE":0,"TOWNNAME":"永康區","LI":"\u25A0行里","LIN":"12鄰","STREET":"中正路","SECT":" ","MAREA":" ","LANE":" ","ALLEY":" ","HOUSE_NO":"５６１號","E_COORD97":171961.850095,"N_COORD97":2548912.5422700001,"ADDRESS":"中正路５６１號","OBJECTID":6269},"geometry":{"x":171961.85009500012,"y":2548912.5422750004}},{"attributes":{"ID":6270,"DIS_CODE":0,"TOWNNAME":"永康區","LI":"\u25A0行里","LIN":"12鄰","STREET":"中正路","SECT":" ","MAREA":" ","LANE":" ","ALLEY":" ","HOUSE_NO":"５６１號三樓","E_COORD97":171961.850095,"N_COORD97":2548912.5422700001,"ADDRESS":"中正路５６１號三樓","OBJECTID":6270},"geometry":{"x":171961.85009500012,"y":2548912.5422750004}},{"attributes":{"ID":6271,"DIS_CODE":0,"TOWNNAME":"仁德區","LI":"仁德里","LIN":"36鄰","STREET":"中山路","SECT":" ","MAREA":" ","LANE":"７５８巷","ALLEY":" ","HOUSE_NO":"１號","E_COORD97":172680.79150299999,"N_COORD97":2541562.858,"ADDRESS":"中山路７５８巷１號","OBJECTID":6271},"geometry":{"x":172680.791503001,"y":2541562.8579960037}},{"attributes":{"ID":6272,"DIS_CODE":0,"TOWNNAME":"龍崎區","LI":"龍船里","LIN":"1鄰","STREET":" ","SECT":" ","MAREA":"瓦厝子","LANE":" ","ALLEY":" ","HOUSE_NO":"９號","E_COORD97":189439.919402,"N_COORD97":2537658.3200699999,"ADDRESS":"瓦厝子９號","OBJECTID":6272},"geometry":{"x":189439.91940199956,"y":2537658.3200649992}},{"attributes":{"ID":6273,"DIS_CODE":0,"TOWNNAME":"永康區","LI":"五王里","LIN":"20鄰","STREET":"中華路","SECT":" ","MAREA":" ","LANE":" ","ALLEY":" ","HOUSE_NO":"５００之１號","E_COORD97":171274.49204799999,"N_COORD97":2545803.6897900002,"ADDRESS":"中華路５００之１號","OBJECTID":6273},"geometry":{"x":171274.49204800092,"y":2545803.6897880007}},{"attributes":{"ID":6274,"DIS_CODE":0,"TOWNNAME":"仁德區","LI":"仁德里","LIN":"36鄰","STREET":"中山路","SECT":" ","MAREA":" ","LANE":"７５８巷","ALLEY":" ","HOUSE_NO":"３號","E_COORD97":172650.92402599999,"N_COORD97":2541568.1496600001,"ADDRESS":"中山路７５８巷３號","OBJECTID":6274},"geometry":{"x":172650.92402600124,"y":2541568.1496600043}},{"attributes":{"ID":6275,"DIS_CODE":0,"TOWNNAME":"仁德區","LI":"仁德里","LIN":"36鄰","STREET":"中山路","SECT":" ","MAREA":" ","LANE":"７５８巷","ALLEY":" ","HOUSE_NO":"１３號","E_COORD97":172660.87985200001,"N_COORD97":2541585.2946500001,"ADDRESS":"中山路７５８巷１３號","OBJECTID":6275},"geometry":{"x":172660.87985200062,"y":2541585.2946500015}},{"attributes":{"ID":6276,"DIS_CODE":0,"TOWNNAME":"永康區","LI":"\u25A0行里","LIN":"34鄰","STREET":"三村一街","SECT":" ","MAREA":" ","LANE":"８３巷","ALLEY":" ","HOUSE_NO":"２１號","E_COORD97":172029.72749700001,"N_COORD97":2549194.61442,"ADDRESS":"三村一街８３巷２１號","OBJECTID":6276},"geometry":{"x":172029.72749700025,"y":2549194.6144150048}},{"attributes":{"ID":6277,"DIS_CODE":0,"TOWNNAME":"仁德區","LI":"仁德里","LIN":"4鄰","STREET":"仁中二街","SECT":" ","MAREA":" ","LANE":" ","ALLEY":" ","HOUSE_NO":"１１２號","E_COORD97":173191.13211800001,"N_COORD97":2540552.0882700002,"ADDRESS":"仁中二街１１２號","OBJECTID":6277},"geometry":{"x":173191.13211800065,"y":2540552.0882700011}},{"attributes":{"ID":6278,"DIS_CODE":0,"TOWNNAME":"永康區","LI":"\u25A0行里","LIN":"34鄰","STREET":"三村一街","SECT":" ","MAREA":" ","LANE":"８３巷","ALLEY":" ","HOUSE_NO":"２３號","E_COORD97":172030.1514,"N_COORD97":2549192.4977500001,"ADDRESS":"三村一街８３巷２３號","OBJECTID":6278},"geometry":{"x":172030.15140000079,"y":2549192.4977490027}},{"attributes":{"ID":6279,"DIS_CODE":0,"TOWNNAME":"永康區","LI":"\u25A0行里","LIN":"12鄰","STREET":"中正路","SECT":" ","MAREA":" ","LANE":" ","ALLEY":" ","HOUSE_NO":"５６１號二樓","E_COORD97":171961.850095,"N_COORD97":2548912.5422700001,"ADDRESS":"中正路５６１號二樓","OBJECTID":6279},"geometry":{"x":171961.85009500012,"y":2548912.5422750004}},{"attributes":{"ID":6280,"DIS_CODE":0,"TOWNNAME":"關廟區","LI":"北花里","LIN":"10鄰","STREET":"四維街","SECT":" ","MAREA":" ","LANE":"２６１巷","ALLEY":" ","HOUSE_NO":"２６號","E_COORD97":181800.21621099999,"N_COORD97":2540278.5920199999,"ADDRESS":"四維街２６１巷２６號","OBJECTID":6280},"geometry":{"x":181800.21621100139,"y":2540278.592023002}},{"attributes":{"ID":6281,"DIS_CODE":0,"TOWNNAME":"新營區","LI":"延平里","LIN":"1鄰","STREET":"延平路","SECT":" ","MAREA":" ","LANE":" ","ALLEY":" ","HOUSE_NO":"４６號","E_COORD97":179775.75343000001,"N_COORD97":2577808.2094700001,"ADDRESS":"延平路４６號","OBJECTID":6281},"geometry":{"x":179775.75343000051,"y":2577808.2094690017}},{"attributes":{"ID":6282,"DIS_CODE":0,"TOWNNAME":"安南區","LI":"海東里","LIN":"20鄰","STREET":"海東八街","SECT":" ","MAREA":" ","LANE":" ","ALLEY":" ","HOUSE_NO":"４７號","E_COORD97":166770.513851,"N_COORD97":2548245.3976599998,"ADDRESS":"海東八街４７號","OBJECTID":6282},"geometry":{"x":166770.513851,"y":2548245.3976569995}},{"attributes":{"ID":6283,"DIS_CODE":0,"TOWNNAME":"新營區","LI":"延平里","LIN":"1鄰","STREET":"延平路","SECT":" ","MAREA":" ","LANE":" ","ALLEY":" ","HOUSE_NO":"４６號之１","E_COORD97":179774.083785,"N_COORD97":2577805.1605500001,"ADDRESS":"延平路４６之１號","OBJECTID":6283},"geometry":{"x":179774.08378500119,"y":2577805.1605530046}},{"attributes":{"ID":6284,"DIS_CODE":0,"TOWNNAME":"關廟區","LI":"北花里","LIN":"11鄰","STREET":"中正路","SECT":" ","MAREA":" ","LANE":" ","ALLEY":" ","HOUSE_NO":"６６０號","E_COORD97":181771.77676800001,"N_COORD97":2540385.3496099999,"ADDRESS":"中正路６６０號","OBJECTID":6284},"geometry":{"x":181771.77676799987,"y":2540385.349611003}},{"attributes":{"ID":6285,"DIS_CODE":0,"TOWNNAME":"新營區","LI":"延平里","LIN":"1鄰","STREET":"延平路","SECT":" ","MAREA":" ","LANE":" ","ALLEY":" ","HOUSE_NO":"４６號之３","E_COORD97":179767.48842000001,"N_COORD97":2577807.5744599998,"ADDRESS":"延平路４６號　之３","OBJECTID":6285},"geometry":{"x":179767.48842000123,"y":2577807.5744599998}},{"attributes":{"ID":6286,"DIS_CODE":0,"TOWNNAME":"新營區","LI":"延平里","LIN":"1鄰","STREET":"延平路","SECT":" ","MAREA":" ","LANE":" ","ALLEY":" ","HOUSE_NO":"４６之４號","E_COORD97":179764.73341700001,"N_COORD97":2577807.3627999998,"ADDRESS":"延平路４６之４號","OBJECTID":6286},"geometry":{"x":179764.73341700062,"y":2577807.3628020007}},{"attributes":{"ID":6287,"DIS_CODE":0,"TOWNNAME":"安平區","LI":"金城里","LIN":"11鄰","STREET":"漁光路","SECT":" ","MAREA":" ","LANE":" ","ALLEY":" ","HOUSE_NO":"２０１號","E_COORD97":162563.76810099999,"N_COORD97":2543543.5432000002,"ADDRESS":"漁光路２０１號","OBJECTID":6287},"geometry":{"x":162563.76810100116,"y":2543543.5432040021}},{"attributes":{"ID":6288,"DIS_CODE":0,"TOWNNAME":"永康區","LI":"南灣里","LIN":"10鄰","STREET":"永大路","SECT":"一段","MAREA":" ","LANE":" ","ALLEY":" ","HOUSE_NO":"１２２號","E_COORD97":173942.32298900001,"N_COORD97":2544068.87072,"ADDRESS":"永大路一段１２２號","OBJECTID":6288},"geometry":{"x":173942.32298900094,"y":2544068.870724}},{"attributes":{"ID":6289,"DIS_CODE":0,"TOWNNAME":"永康區","LI":"蔦松里","LIN":"9鄰","STREET":"正北三路","SECT":" ","MAREA":" ","LANE":" ","ALLEY":" ","HOUSE_NO":"１２２號","E_COORD97":174425.995842,"N_COORD97":2550004.5300199999,"ADDRESS":"正北三路１２２號","OBJECTID":6289},"geometry":{"x":174425.9958420014,"y":2550004.530019002}},{"attributes":{"ID":6290,"DIS_CODE":0,"TOWNNAME":"永康區","LI":"東橋里","LIN":"15鄰","STREET":"東橋七路","SECT":" ","MAREA":" ","LANE":" ","ALLEY":" ","HOUSE_NO":"１２９號","E_COORD97":171853.96688600001,"N_COORD97":2546685.4926499999,"ADDRESS":"東橋七路１２９號","OBJECTID":6290},"geometry":{"x":171853.96688600164,"y":2546685.492645001}},{"attributes":{"ID":6291,"DIS_CODE":0,"TOWNNAME":"安平區","LI":"金城里","LIN":"12鄰","STREET":"世平路","SECT":" ","MAREA":" ","LANE":" ","ALLEY":" ","HOUSE_NO":"１號之１６","E_COORD97":162973.80916,"N_COORD97":2543915.2296699998,"ADDRESS":"世平路１號之１６","OBJECTID":6291},"geometry":{"x":162973.80916000158,"y":2543915.2296699993}},{"attributes":{"ID":6292,"DIS_CODE":0,"TOWNNAME":"安平區","LI":"金城里","LIN":"12鄰","STREET":"世平路","SECT":" ","MAREA":" ","LANE":" ","ALLEY":" ","HOUSE_NO":"１號之１７","E_COORD97":162976.14014,"N_COORD97":2543916.4996600002,"ADDRESS":"世平路１號之１７","OBJECTID":6292},"geometry":{"x":162976.1401399998,"y":2543916.4996600021}},{"attributes":{"ID":6293,"DIS_CODE":0,"TOWNNAME":"安平區","LI":"金城里","LIN":"12鄰","STREET":"世平路","SECT":" ","MAREA":" ","LANE":" ","ALLEY":" ","HOUSE_NO":"１號之１８","E_COORD97":162978.47112,"N_COORD97":2543918.193,"ADDRESS":"世平路１號之１８","OBJECTID":6293},"geometry":{"x":162978.47111999989,"y":2543918.1930000037}},{"attributes":{"ID":6294,"DIS_CODE":0,"TOWNNAME":"安平區","LI":"金城里","LIN":"9鄰","STREET":"同平路","SECT":" ","MAREA":" ","LANE":"１０８巷","ALLEY":"２３弄","HOUSE_NO":"２號","E_COORD97":163099.68223000001,"N_COORD97":2544153.1428700001,"ADDRESS":"同平路１０８巷２３弄２號","OBJECTID":6294},"geometry":{"x":163099.68223000038,"y":2544153.1428750027}},{"attributes":{"ID":6295,"DIS_CODE":0,"TOWNNAME":"安平區","LI":"金城里","LIN":"9鄰","STREET":"同平路","SECT":" ","MAREA":" ","LANE":"１０８巷","ALLEY":"２３弄","HOUSE_NO":"８號之１","E_COORD97":163087.39159000001,"N_COORD97":2544122.2395500001,"ADDRESS":"同平路１０８巷２３弄８號之１","OBJECTID":6295},"geometry":{"x":163087.39159000013,"y":2544122.2395500019}},{"attributes":{"ID":6296,"DIS_CODE":0,"TOWNNAME":"關廟區","LI":"北花里","LIN":"15鄰","STREET":"中正路","SECT":" ","MAREA":" ","LANE":"１２７巷","ALLEY":"６弄","HOUSE_NO":"３０號","E_COORD97":183519.02947000001,"N_COORD97":2540836.7467,"ADDRESS":"中正路１２７巷６弄３０號","OBJECTID":6296},"geometry":{"x":183519.02947000135,"y":2540836.7467049994}},{"attributes":{"ID":6297,"DIS_CODE":0,"TOWNNAME":"關廟區","LI":"北花里","LIN":"13鄰","STREET":"中正路","SECT":" ","MAREA":" ","LANE":"２２１巷","ALLEY":" ","HOUSE_NO":"２５號","E_COORD97":183338.01659000001,"N_COORD97":2540747.10592,"ADDRESS":"中正路２２１巷２５號","OBJECTID":6297},"geometry":{"x":183338.01659000106,"y":2540747.10592}},{"attributes":{"ID":6298,"DIS_CODE":0,"TOWNNAME":"中西區","LI":"法華里","LIN":"17鄰","STREET":"法華街","SECT":" ","MAREA":" ","LANE":" ","ALLEY":" ","HOUSE_NO":"２０８號","E_COORD97":168859.78596899999,"N_COORD97":2542463.38527,"ADDRESS":"法華街２０８號","OBJECTID":6298},"geometry":{"x":168859.78596900124,"y":2542463.3852720018}},{"attributes":{"ID":6299,"DIS_CODE":0,"TOWNNAME":"安南區","LI":"四草里","LIN":"6鄰","STREET":"四草大道","SECT":" ","MAREA":" ","LANE":"６８１巷","ALLEY":" ","HOUSE_NO":"１２號","E_COORD97":160971.46058000001,"N_COORD97":2546200.83715,"ADDRESS":"四草大道６８１巷１２號","OBJECTID":6299},"geometry":{"x":160971.46057999972,"y":2546200.8371540029}},{"attributes":{"ID":6300,"DIS_CODE":0,"TOWNNAME":"安南區","LI":"四草里","LIN":"6鄰","STREET":"四草大道","SECT":" ","MAREA":" ","LANE":"６８１巷","ALLEY":"１７弄","HOUSE_NO":"２０號","E_COORD97":160989.56876299999,"N_COORD97":2546106.69845,"ADDRESS":"四草大道６８１巷１７弄２０號","OBJECTID":6300},"geometry":{"x":160989.56876299996,"y":2546106.6984540038}},{"attributes":{"ID":6301,"DIS_CODE":0,"TOWNNAME":"安南區","LI":"四草里","LIN":"5鄰","STREET":"北汕尾一路","SECT":" ","MAREA":" ","LANE":"３１巷","ALLEY":" ","HOUSE_NO":"２９號","E_COORD97":160951.98324900001,"N_COORD97":2545775.0469399998,"ADDRESS":"北汕尾一路３１巷２９號","OBJECTID":6301},"geometry":{"x":160951.98324900027,"y":2545775.0469350014}},{"attributes":{"ID":6302,"DIS_CODE":0,"TOWNNAME":"安南區","LI":"四草里","LIN":"4鄰","STREET":"北汕尾一路","SECT":" ","MAREA":" ","LANE":" ","ALLEY":" ","HOUSE_NO":"８９號","E_COORD97":160733.005722,"N_COORD97":2545998.7634999999,"ADDRESS":"北汕尾一路８９號","OBJECTID":6302},"geometry":{"x":160733.00572200026,"y":2545998.7634969987}},{"attributes":{"ID":6303,"DIS_CODE":0,"TOWNNAME":"安南區","LI":"四草里","LIN":"2鄰","STREET":"北汕尾一路","SECT":" ","MAREA":" ","LANE":" ","ALLEY":" ","HOUSE_NO":"５２８號","E_COORD97":160119.99741000001,"N_COORD97":2546587.17404,"ADDRESS":"北汕尾一路５２８號","OBJECTID":6303},"geometry":{"x":160119.9974100003,"y":2546587.1740359999}},{"attributes":{"ID":6304,"DIS_CODE":0,"TOWNNAME":"安南區","LI":"四草里","LIN":"10鄰","STREET":"北汕尾二路","SECT":" ","MAREA":" ","LANE":"２４６巷","ALLEY":" ","HOUSE_NO":"６２號","E_COORD97":160127.44010199999,"N_COORD97":2547177.7696099998,"ADDRESS":"北汕尾二路２４６巷６２號","OBJECTID":6304},"geometry":{"x":160127.44010200165,"y":2547177.7696129996}},{"attributes":{"ID":6305,"DIS_CODE":0,"TOWNNAME":"安南區","LI":"四草里","LIN":"5鄰","STREET":"北汕尾一路","SECT":" ","MAREA":" ","LANE":"６９巷","ALLEY":" ","HOUSE_NO":"３８號","E_COORD97":160870.76866500001,"N_COORD97":2545827.54024,"ADDRESS":"北汕尾一路６９巷３８號","OBJECTID":6305},"geometry":{"x":160870.76866499986,"y":2545827.5402400009}},{"attributes":{"ID":6306,"DIS_CODE":0,"TOWNNAME":"安南區","LI":"海東里","LIN":"9鄰","STREET":"海佃路","SECT":"二段","MAREA":" ","LANE":"４８３巷","ALLEY":" ","HOUSE_NO":"２５之１號","E_COORD97":166609.631827,"N_COORD97":2549088.58715,"ADDRESS":"海佃路二段４８３巷２５之１號","OBJECTID":6306},"geometry":{"x":166609.6318269996,"y":2549088.5871550012}},{"attributes":{"ID":6307,"DIS_CODE":0,"TOWNNAME":"安南區","LI":"海東里","LIN":"23鄰","STREET":"大安街","SECT":" ","MAREA":" ","LANE":" ","ALLEY":" ","HOUSE_NO":"７３２號","E_COORD97":167002.44080000001,"N_COORD97":2549036.1839000001,"ADDRESS":"大安街７３２號","OBJECTID":6307},"geometry":{"x":167002.44080000091,"y":2549036.1838960014}},{"attributes":{"ID":6308,"DIS_CODE":0,"TOWNNAME":"安南區","LI":"海東里","LIN":"23鄰","STREET":"大安街","SECT":" ","MAREA":" ","LANE":" ","ALLEY":" ","HOUSE_NO":"７３６號","E_COORD97":166997.78107999999,"N_COORD97":2549038.0888999999,"ADDRESS":"大安街７３６號","OBJECTID":6308},"geometry":{"x":166997.78108000103,"y":2549038.0888950005}},{"attributes":{"ID":6309,"DIS_CODE":0,"TOWNNAME":"安南區","LI":"海東里","LIN":"20鄰","STREET":"海東八街","SECT":" ","MAREA":" ","LANE":" ","ALLEY":" ","HOUSE_NO":"４９號","E_COORD97":166766.27774200001,"N_COORD97":2548244.5509899999,"ADDRESS":"海東八街４９號","OBJECTID":6309},"geometry":{"x":166766.27774200123,"y":2548244.5509900022}},{"attributes":{"ID":6310,"DIS_CODE":0,"TOWNNAME":"安南區","LI":"四草里","LIN":"5鄰","STREET":"北汕尾一路","SECT":" ","MAREA":" ","LANE":"３巷","ALLEY":" ","HOUSE_NO":"３９號","E_COORD97":160985.13613200001,"N_COORD97":2545714.40447,"ADDRESS":"北汕尾一路３巷３９號","OBJECTID":6310},"geometry":{"x":160985.13613200095,"y":2545714.4044679999}},{"attributes":{"ID":6311,"DIS_CODE":0,"TOWNNAME":"安南區","LI":"海東里","LIN":"23鄰","STREET":"大安街","SECT":" ","MAREA":" ","LANE":" ","ALLEY":" ","HOUSE_NO":"７３８號","E_COORD97":166994.18038800001,"N_COORD97":2549040.2055600001,"ADDRESS":"大安街７３８號","OBJECTID":6311},"geometry":{"x":166994.18038800079,"y":2549040.2055610009}},{"attributes":{"ID":6312,"DIS_CODE":0,"TOWNNAME":"安南區","LI":"海東里","LIN":"23鄰","STREET":"大安街","SECT":" ","MAREA":" ","LANE":" ","ALLEY":" ","HOUSE_NO":"７４０號","E_COORD97":166989.94427899999,"N_COORD97":2549043.1688899999,"ADDRESS":"大安街７４０號","OBJECTID":6312},"geometry":{"x":166989.94427900203,"y":2549043.1688919999}},{"attributes":{"ID":6313,"DIS_CODE":0,"TOWNNAME":"安南區","LI":"海東里","LIN":"20鄰","STREET":"海東七街","SECT":" ","MAREA":" ","LANE":" ","ALLEY":" ","HOUSE_NO":"８２號","E_COORD97":166785.76384199999,"N_COORD97":2548208.3560100002,"ADDRESS":"海東七街８２號","OBJECTID":6313},"geometry":{"x":166785.76384199969,"y":2548208.356010003}},{"attributes":{"ID":6314,"DIS_CODE":0,"TOWNNAME":"安南區","LI":"海東里","LIN":"20鄰","STREET":"海東七街","SECT":" ","MAREA":" ","LANE":" ","ALLEY":" ","HOUSE_NO":"８６號","E_COORD97":166781.10412199999,"N_COORD97":2548206.45101,"ADDRESS":"海東七街８６號","OBJECTID":6314},"geometry":{"x":166781.10412200075,"y":2548206.4510110002}},{"attributes":{"ID":6315,"DIS_CODE":0,"TOWNNAME":"安南區","LI":"海東里","LIN":"20鄰","STREET":"海東七街","SECT":" ","MAREA":" ","LANE":" ","ALLEY":" ","HOUSE_NO":"８８號","E_COORD97":166776.020792,"N_COORD97":2548205.1810099999,"ADDRESS":"海東七街８８號","OBJECTID":6315},"geometry":{"x":166776.020792,"y":2548205.1810120046}},{"attributes":{"ID":6316,"DIS_CODE":0,"TOWNNAME":"安南區","LI":"海東里","LIN":"20鄰","STREET":"海東七街","SECT":" ","MAREA":" ","LANE":" ","ALLEY":" ","HOUSE_NO":"９０號","E_COORD97":166770.937462,"N_COORD97":2548203.4876799998,"ADDRESS":"海東七街９０號","OBJECTID":6316},"geometry":{"x":166770.93746200018,"y":2548203.4876790028}},{"attributes":{"ID":6317,"DIS_CODE":0,"TOWNNAME":"安南區","LI":"海東里","LIN":"20鄰","STREET":"海東七街","SECT":" ","MAREA":" ","LANE":" ","ALLEY":" ","HOUSE_NO":"９２號","E_COORD97":166766.06593700001,"N_COORD97":2548202.2176799998,"ADDRESS":"海東七街９２號","OBJECTID":6317},"geometry":{"x":166766.06593700126,"y":2548202.2176800016}},{"attributes":{"ID":6318,"DIS_CODE":0,"TOWNNAME":"安南區","LI":"海東里","LIN":"20鄰","STREET":"海東七街","SECT":" ","MAREA":" ","LANE":" ","ALLEY":" ","HOUSE_NO":"９６號","E_COORD97":166760.98260600001,"N_COORD97":2548200.7360100001,"ADDRESS":"海東七街９６號","OBJECTID":6318},"geometry":{"x":166760.98260600027,"y":2548200.7360140011}},{"attributes":{"ID":6319,"DIS_CODE":0,"TOWNNAME":"安南區","LI":"海東里","LIN":"20鄰","STREET":"海東七街","SECT":" ","MAREA":" ","LANE":" ","ALLEY":" ","HOUSE_NO":"９８號","E_COORD97":166754.840249,"N_COORD97":2548199.6776800002,"ADDRESS":"海東七街９８號","OBJECTID":6319},"geometry":{"x":166754.84024900012,"y":2548199.677680999}},{"attributes":{"ID":6320,"DIS_CODE":0,"TOWNNAME":"安南區","LI":"海東里","LIN":"20鄰","STREET":"海東七街","SECT":" ","MAREA":" ","LANE":" ","ALLEY":" ","HOUSE_NO":"１００號","E_COORD97":166750.180529,"N_COORD97":2548197.7726799999,"ADDRESS":"海東七街１００號","OBJECTID":6320},"geometry":{"x":166750.18052900117,"y":2548197.7726820037}},{"attributes":{"ID":6321,"DIS_CODE":0,"TOWNNAME":"安南區","LI":"海東里","LIN":"20鄰","STREET":"海東七街","SECT":" ","MAREA":" ","LANE":" ","ALLEY":" ","HOUSE_NO":"１０２號","E_COORD97":166745.52080999999,"N_COORD97":2548196.5026799999,"ADDRESS":"海東七街１０２號","OBJECTID":6321},"geometry":{"x":166745.52081000153,"y":2548196.5026830025}},{"attributes":{"ID":6322,"DIS_CODE":0,"TOWNNAME":"安南區","LI":"海東里","LIN":"20鄰","STREET":"海東七街","SECT":" ","MAREA":" ","LANE":" ","ALLEY":" ","HOUSE_NO":"１０６號","E_COORD97":166739.16664700001,"N_COORD97":2548194.3860200001,"ADDRESS":"海東七街１０６號","OBJECTID":6322},"geometry":{"x":166739.16664700117,"y":2548194.3860170022}},{"attributes":{"ID":6323,"DIS_CODE":0,"TOWNNAME":"安南區","LI":"海東里","LIN":"20鄰","STREET":"海東七街","SECT":" ","MAREA":" ","LANE":" ","ALLEY":" ","HOUSE_NO":"１０８號","E_COORD97":166733.659705,"N_COORD97":2548192.6926899999,"ADDRESS":"海東七街１０８號","OBJECTID":6323},"geometry":{"x":166733.65970500186,"y":2548192.6926850043}},{"attributes":{"ID":6324,"DIS_CODE":0,"TOWNNAME":"安南區","LI":"海東里","LIN":"20鄰","STREET":"海東七街","SECT":" ","MAREA":" ","LANE":" ","ALLEY":" ","HOUSE_NO":"１１０號","E_COORD97":166728.99998600001,"N_COORD97":2548191.2110199998,"ADDRESS":"海東七街１１０號","OBJECTID":6324},"geometry":{"x":166728.99998600129,"y":2548191.2110190019}},{"attributes":{"ID":6325,"DIS_CODE":0,"TOWNNAME":"安南區","LI":"海東里","LIN":"20鄰","STREET":"海東七街","SECT":" ","MAREA":" ","LANE":" ","ALLEY":" ","HOUSE_NO":"１１２號","E_COORD97":166722.43401699999,"N_COORD97":2548189.7293500002,"ADDRESS":"海東七街１１２號","OBJECTID":6325},"geometry":{"x":166722.43401700072,"y":2548189.7293530013}},{"attributes":{"ID":6326,"DIS_CODE":0,"TOWNNAME":"安南區","LI":"海東里","LIN":"20鄰","STREET":"海東八街","SECT":" ","MAREA":" ","LANE":" ","ALLEY":" ","HOUSE_NO":"４５號","E_COORD97":166775.17357000001,"N_COORD97":2548247.30266,"ADDRESS":"海東八街４５號","OBJECTID":6326},"geometry":{"x":166775.17357000057,"y":2548247.3026560023}},{"attributes":{"ID":6327,"DIS_CODE":0,"TOWNNAME":"安南區","LI":"海東里","LIN":"20鄰","STREET":"海東八街","SECT":" ","MAREA":" ","LANE":" ","ALLEY":" ","HOUSE_NO":"５１號","E_COORD97":166762.25343899999,"N_COORD97":2548243.0693199998,"ADDRESS":"海東八街５１號","OBJECTID":6327},"geometry":{"x":166762.25343899988,"y":2548243.0693240017}},{"attributes":{"ID":6328,"DIS_CODE":0,"TOWNNAME":"安南區","LI":"四草里","LIN":"8鄰","STREET":"四草大道","SECT":" ","MAREA":" ","LANE":"８１巷","ALLEY":" ","HOUSE_NO":"５２８號","E_COORD97":160326.804416,"N_COORD97":2545549.9695299999,"ADDRESS":"四草大道８１巷５２８號","OBJECTID":6328},"geometry":{"x":160326.80441599898,"y":2545549.9695250001}},{"attributes":{"ID":6329,"DIS_CODE":0,"TOWNNAME":"安南區","LI":"海東里","LIN":"20鄰","STREET":"海東八街","SECT":" ","MAREA":" ","LANE":" ","ALLEY":" ","HOUSE_NO":"５３號","E_COORD97":166757.32106399999,"N_COORD97":2548241.7069399999,"ADDRESS":"海東八街５３號","OBJECTID":6329},"geometry":{"x":166757.32106400095,"y":2548241.7069420014}},{"attributes":{"ID":6330,"DIS_CODE":0,"TOWNNAME":"安南區","LI":"四草里","LIN":"8鄰","STREET":"四草大道","SECT":" ","MAREA":" ","LANE":"８１巷","ALLEY":" ","HOUSE_NO":"５８８號","E_COORD97":160301.17763200001,"N_COORD97":2545531.4487000001,"ADDRESS":"四草大道８１巷５８８號","OBJECTID":6330},"geometry":{"x":160301.1776320003,"y":2545531.4487020019}},{"attributes":{"ID":6331,"DIS_CODE":0,"TOWNNAME":"安南區","LI":"海東里","LIN":"20鄰","STREET":"海東八街","SECT":" ","MAREA":" ","LANE":" ","ALLEY":" ","HOUSE_NO":"５５號","E_COORD97":166752.87315,"N_COORD97":2548240.0136099998,"ADDRESS":"海東八街５５號","OBJECTID":6331},"geometry":{"x":166752.87315000035,"y":2548240.0136089996}},{"attributes":{"ID":6332,"DIS_CODE":0,"TOWNNAME":"安南區","LI":"海東里","LIN":"20鄰","STREET":"海東八街","SECT":" ","MAREA":" ","LANE":" ","ALLEY":" ","HOUSE_NO":"５７號","E_COORD97":166748.63704100001,"N_COORD97":2548238.5319400001,"ADDRESS":"海東八街５７號","OBJECTID":6332},"geometry":{"x":166748.63704100065,"y":2548238.531944003}},{"attributes":{"ID":6333,"DIS_CODE":0,"TOWNNAME":"安南區","LI":"海東里","LIN":"20鄰","STREET":"海東八街","SECT":" ","MAREA":" ","LANE":" ","ALLEY":" ","HOUSE_NO":"５９號","E_COORD97":166744.18912699999,"N_COORD97":2548237.2619400001,"ADDRESS":"海東八街５９號","OBJECTID":6333},"geometry":{"x":166744.18912700005,"y":2548237.2619439978}},{"attributes":{"ID":6334,"DIS_CODE":0,"TOWNNAME":"安南區","LI":"海東里","LIN":"21鄰","STREET":"海佃路","SECT":"二段","MAREA":" ","LANE":" ","ALLEY":" ","HOUSE_NO":"７９之１號","E_COORD97":166970.09541800001,"N_COORD97":2548063.1504199998,"ADDRESS":"海佃路二段７９之１號","OBJECTID":6334},"geometry":{"x":166970.09541799966,"y":2548063.1504180022}},{"attributes":{"ID":6335,"DIS_CODE":0,"TOWNNAME":"安南區","LI":"海東里","LIN":"21鄰","STREET":"海東一街","SECT":" ","MAREA":" ","LANE":" ","ALLEY":" ","HOUSE_NO":"９２號","E_COORD97":166804.25176399999,"N_COORD97":2547832.2222099998,"ADDRESS":"海東一街９２號","OBJECTID":6335},"geometry":{"x":166804.25176400039,"y":2547832.2222100012}},{"attributes":{"ID":6336,"DIS_CODE":0,"TOWNNAME":"安南區","LI":"海東里","LIN":"21鄰","STREET":"海東一街","SECT":" ","MAREA":" ","LANE":" ","ALLEY":" ","HOUSE_NO":"９６號","E_COORD97":166798.74482299999,"N_COORD97":2547831.58721,"ADDRESS":"海東一街９６號","OBJECTID":6336},"geometry":{"x":166798.74482300039,"y":2547831.5872100014}},{"attributes":{"ID":6337,"DIS_CODE":0,"TOWNNAME":"安南區","LI":"海東里","LIN":"21鄰","STREET":"海東一街","SECT":" ","MAREA":" ","LANE":" ","ALLEY":" ","HOUSE_NO":"９８號","E_COORD97":166794.296909,"N_COORD97":2547831.1638799999,"ADDRESS":"海東一街９８號","OBJECTID":6337},"geometry":{"x":166794.29690899979,"y":2547831.1638769992}},{"attributes":{"ID":6338,"DIS_CODE":0,"TOWNNAME":"安南區","LI":"海東里","LIN":"21鄰","STREET":"海東一街","SECT":" ","MAREA":" ","LANE":" ","ALLEY":" ","HOUSE_NO":"１００號","E_COORD97":166789.425384,"N_COORD97":2547830.5288800001,"ADDRESS":"海東一街１００號","OBJECTID":6338},"geometry":{"x":166789.42538400088,"y":2547830.5288769994}},{"attributes":{"ID":6339,"DIS_CODE":0,"TOWNNAME":"安南區","LI":"海東里","LIN":"21鄰","STREET":"海東一街","SECT":" ","MAREA":" ","LANE":" ","ALLEY":" ","HOUSE_NO":"１０２號","E_COORD97":166782.22399900001,"N_COORD97":2547846.1921999999,"ADDRESS":"海東一街１０２號","OBJECTID":6339},"geometry":{"x":166782.22399900109,"y":2547846.1922019999}},{"attributes":{"ID":6340,"DIS_CODE":0,"TOWNNAME":"安南區","LI":"海東里","LIN":"21鄰","STREET":"海東一街","SECT":" ","MAREA":" ","LANE":" ","ALLEY":" ","HOUSE_NO":"１０６號","E_COORD97":166780.74136099999,"N_COORD97":2547851.0605299999,"ADDRESS":"海東一街１０６號","OBJECTID":6340},"geometry":{"x":166780.74136100151,"y":2547851.060533002}},{"attributes":{"ID":6341,"DIS_CODE":0,"TOWNNAME":"安南區","LI":"海東里","LIN":"21鄰","STREET":"海東一街","SECT":" ","MAREA":" ","LANE":" ","ALLEY":" ","HOUSE_NO":"１０８號","E_COORD97":166781.164972,"N_COORD97":2547856.7755300002,"ADDRESS":"海東一街１０８號","OBJECTID":6341},"geometry":{"x":166781.16497200169,"y":2547856.7755300011}},{"attributes":{"ID":6342,"DIS_CODE":0,"TOWNNAME":"安南區","LI":"海東里","LIN":"21鄰","STREET":"海東一街","SECT":" ","MAREA":" ","LANE":" ","ALLEY":" ","HOUSE_NO":"１１０號","E_COORD97":166780.10594499999,"N_COORD97":2547862.0671899999,"ADDRESS":"海東一街１１０號","OBJECTID":6342},"geometry":{"x":166780.10594500229,"y":2547862.0671940017}},{"attributes":{"ID":6343,"DIS_CODE":0,"TOWNNAME":"安南區","LI":"海東里","LIN":"20鄰","STREET":"海東街","SECT":" ","MAREA":" ","LANE":" ","ALLEY":" ","HOUSE_NO":"１１５號","E_COORD97":166884.94963399999,"N_COORD97":2548196.2886800002,"ADDRESS":"海東街１１５號","OBJECTID":6343},"geometry":{"x":166884.94963400066,"y":2548196.2886800002}},{"attributes":{"ID":6344,"DIS_CODE":0,"TOWNNAME":"安南區","LI":"海東里","LIN":"20鄰","STREET":"海東街","SECT":" ","MAREA":" ","LANE":" ","ALLEY":" ","HOUSE_NO":"１１３號","E_COORD97":166885.796856,"N_COORD97":2548191.8436799999,"ADDRESS":"海東街１１３號","OBJECTID":6344},"geometry":{"x":166885.79685600102,"y":2548191.8436820004}},{"attributes":{"ID":6345,"DIS_CODE":0,"TOWNNAME":"安南區","LI":"四草里","LIN":"8鄰","STREET":"四草大道","SECT":" ","MAREA":" ","LANE":"８１巷","ALLEY":" ","HOUSE_NO":"５１８號","E_COORD97":160347.34820199999,"N_COORD97":2545533.1420399998,"ADDRESS":"四草大道８１巷５１８號","OBJECTID":6345},"geometry":{"x":160347.34820200037,"y":2545533.142035}},{"attributes":{"ID":6346,"DIS_CODE":0,"TOWNNAME":"安南區","LI":"海東里","LIN":"20鄰","STREET":"海東街","SECT":" ","MAREA":" ","LANE":" ","ALLEY":" ","HOUSE_NO":"１０７號","E_COORD97":166889.60935399999,"N_COORD97":2548179.7786900001,"ADDRESS":"海東街１０７號","OBJECTID":6346},"geometry":{"x":166889.60935399961,"y":2548179.7786890026}},{"attributes":{"ID":6347,"DIS_CODE":0,"TOWNNAME":"安南區","LI":"海東里","LIN":"20鄰","STREET":"海東街","SECT":" ","MAREA":" ","LANE":" ","ALLEY":" ","HOUSE_NO":"１１１號","E_COORD97":166887.21864400001,"N_COORD97":2548187.4594999999,"ADDRESS":"海東街１１１號","OBJECTID":6347},"geometry":{"x":166887.21864399966,"y":2548187.4594950024}},{"attributes":{"ID":6348,"DIS_CODE":0,"TOWNNAME":"安南區","LI":"海東里","LIN":"20鄰","STREET":"海東街","SECT":" ","MAREA":" ","LANE":" ","ALLEY":" ","HOUSE_NO":"１０９號","E_COORD97":166887.43045000001,"N_COORD97":2548182.8028299999,"ADDRESS":"海東街１０９號","OBJECTID":6348},"geometry":{"x":166887.43044999987,"y":2548182.8028299995}},{"attributes":{"ID":6349,"DIS_CODE":0,"TOWNNAME":"安南區","LI":"海東里","LIN":"20鄰","STREET":"海東街","SECT":" ","MAREA":" ","LANE":" ","ALLEY":" ","HOUSE_NO":"１０５號","E_COORD97":166895.26725100001,"N_COORD97":2548157.1911800001,"ADDRESS":"海東街１０５號","OBJECTID":6349},"geometry":{"x":166895.26725099981,"y":2548157.1911780015}},{"attributes":{"ID":6350,"DIS_CODE":0,"TOWNNAME":"安南區","LI":"海東里","LIN":"20鄰","STREET":"海東街","SECT":" ","MAREA":" ","LANE":" ","ALLEY":" ","HOUSE_NO":"１０３號","E_COORD97":166896.32627799999,"N_COORD97":2548152.5345100001,"ADDRESS":"海東街１０３號","OBJECTID":6350},"geometry":{"x":166896.326278002,"y":2548152.5345130004}},{"attributes":{"ID":6351,"DIS_CODE":0,"TOWNNAME":"安南區","LI":"海東里","LIN":"20鄰","STREET":"海東街","SECT":" ","MAREA":" ","LANE":" ","ALLEY":" ","HOUSE_NO":"１０１號","E_COORD97":166897.80891600001,"N_COORD97":2548148.9361800002,"ADDRESS":"海東街１０１號","OBJECTID":6351},"geometry":{"x":166897.80891600158,"y":2548148.9361820016}},{"attributes":{"ID":6352,"DIS_CODE":0,"TOWNNAME":"安南區","LI":"海東里","LIN":"20鄰","STREET":"海東街","SECT":" ","MAREA":" ","LANE":" ","ALLEY":" ","HOUSE_NO":"９９號","E_COORD97":166898.23252699999,"N_COORD97":2548144.0678500002,"ADDRESS":"海東街９９號","OBJECTID":6352},"geometry":{"x":166898.23252700176,"y":2548144.0678510014}},{"attributes":{"ID":6353,"DIS_CODE":0,"TOWNNAME":"安南區","LI":"海東里","LIN":"20鄰","STREET":"海東街","SECT":" ","MAREA":" ","LANE":" ","ALLEY":" ","HOUSE_NO":"９７號","E_COORD97":166899.715165,"N_COORD97":2548140.0461900001,"ADDRESS":"海東街９７號","OBJECTID":6353},"geometry":{"x":166899.71516500041,"y":2548140.0461870003}},{"attributes":{"ID":6354,"DIS_CODE":0,"TOWNNAME":"安南區","LI":"海東里","LIN":"20鄰","STREET":"海東六街","SECT":" ","MAREA":" ","LANE":" ","ALLEY":" ","HOUSE_NO":"２號","E_COORD97":166873.23948600001,"N_COORD97":2548170.1028399998,"ADDRESS":"海東六街２號","OBJECTID":6354},"geometry":{"x":166873.2394860005,"y":2548170.102837}},{"attributes":{"ID":6355,"DIS_CODE":0,"TOWNNAME":"安南區","LI":"海東里","LIN":"20鄰","STREET":"海東六街","SECT":" ","MAREA":" ","LANE":" ","ALLEY":" ","HOUSE_NO":"６號","E_COORD97":166869.42698799999,"N_COORD97":2548169.4678400001,"ADDRESS":"海東六街６號","OBJECTID":6355},"geometry":{"x":166869.42698800098,"y":2548169.4678380005}},{"attributes":{"ID":6356,"DIS_CODE":0,"TOWNNAME":"安南區","LI":"海東里","LIN":"20鄰","STREET":"海東六街","SECT":" ","MAREA":" ","LANE":" ","ALLEY":" ","HOUSE_NO":"８號","E_COORD97":166864.979074,"N_COORD97":2548167.9861699999,"ADDRESS":"海東六街８號","OBJECTID":6356},"geometry":{"x":166864.97907400038,"y":2548167.9861719999}},{"attributes":{"ID":6357,"DIS_CODE":0,"TOWNNAME":"安南區","LI":"海東里","LIN":"20鄰","STREET":"海東六街","SECT":" ","MAREA":" ","LANE":" ","ALLEY":" ","HOUSE_NO":"１０號","E_COORD97":166860.74296500001,"N_COORD97":2548166.92784,"ADDRESS":"海東六街１０號","OBJECTID":6357},"geometry":{"x":166860.74296500068,"y":2548166.9278390016}},{"attributes":{"ID":6358,"DIS_CODE":0,"TOWNNAME":"安南區","LI":"海東里","LIN":"20鄰","STREET":"海東六街","SECT":" ","MAREA":" ","LANE":" ","ALLEY":" ","HOUSE_NO":"１２號","E_COORD97":166856.718662,"N_COORD97":2548166.0811700001,"ADDRESS":"海東六街１２號","OBJECTID":6358},"geometry":{"x":166856.71866200026,"y":2548166.081172999}},{"attributes":{"ID":6359,"DIS_CODE":0,"TOWNNAME":"安南區","LI":"海東里","LIN":"20鄰","STREET":"海東六街","SECT":" ","MAREA":" ","LANE":" ","ALLEY":" ","HOUSE_NO":"１６號","E_COORD97":166852.48255300001,"N_COORD97":2548165.2345099999,"ADDRESS":"海東六街１６號","OBJECTID":6359},"geometry":{"x":166852.48255300149,"y":2548165.2345070019}},{"attributes":{"ID":6360,"DIS_CODE":0,"TOWNNAME":"安南區","LI":"海東里","LIN":"20鄰","STREET":"海東六街","SECT":" ","MAREA":" ","LANE":" ","ALLEY":" ","HOUSE_NO":"１號","E_COORD97":166876.41656700001,"N_COORD97":2548155.4978499999,"ADDRESS":"海東六街１號","OBJECTID":6360},"geometry":{"x":166876.41656700056,"y":2548155.4978449978}},{"attributes":{"ID":6361,"DIS_CODE":0,"TOWNNAME":"安南區","LI":"海東里","LIN":"20鄰","STREET":"海東六街","SECT":" ","MAREA":" ","LANE":" ","ALLEY":" ","HOUSE_NO":"３號","E_COORD97":166872.39226399999,"N_COORD97":2548153.8045100002,"ADDRESS":"海東六街３號","OBJECTID":6361},"geometry":{"x":166872.39226400014,"y":2548153.804513}},{"attributes":{"ID":6362,"DIS_CODE":0,"TOWNNAME":"安南區","LI":"海東里","LIN":"20鄰","STREET":"海東六街","SECT":" ","MAREA":" ","LANE":" ","ALLEY":" ","HOUSE_NO":"５號","E_COORD97":166868.156155,"N_COORD97":2548153.8045100002,"ADDRESS":"海東六街５號","OBJECTID":6362},"geometry":{"x":166868.15615500044,"y":2548153.804513}},{"attributes":{"ID":6363,"DIS_CODE":0,"TOWNNAME":"安南區","LI":"海東里","LIN":"20鄰","STREET":"海東六街","SECT":" ","MAREA":" ","LANE":" ","ALLEY":" ","HOUSE_NO":"７號","E_COORD97":166863.92004699999,"N_COORD97":2548152.3228500001,"ADDRESS":"海東六街７號","OBJECTID":6363},"geometry":{"x":166863.92004700098,"y":2548152.3228469994}},{"attributes":{"ID":6364,"DIS_CODE":0,"TOWNNAME":"安南區","LI":"海東里","LIN":"20鄰","STREET":"海東六街","SECT":" ","MAREA":" ","LANE":" ","ALLEY":" ","HOUSE_NO":"９號","E_COORD97":166860.10754900001,"N_COORD97":2548151.6878499999,"ADDRESS":"海東六街９號","OBJECTID":6364},"geometry":{"x":166860.1075489996,"y":2548151.6878469996}},{"attributes":{"ID":6365,"DIS_CODE":0,"TOWNNAME":"安南區","LI":"海東里","LIN":"20鄰","STREET":"海東六街","SECT":" ","MAREA":" ","LANE":" ","ALLEY":" ","HOUSE_NO":"１１號","E_COORD97":166855.87143999999,"N_COORD97":2548150.84118,"ADDRESS":"海東六街１１號","OBJECTID":6365},"geometry":{"x":166855.8714399999,"y":2548150.8411810026}},{"attributes":{"ID":6366,"DIS_CODE":0,"TOWNNAME":"安南區","LI":"海東里","LIN":"20鄰","STREET":"海東六街","SECT":" ","MAREA":" ","LANE":" ","ALLEY":" ","HOUSE_NO":"１３號","E_COORD97":166851.847137,"N_COORD97":2548148.9361800002,"ADDRESS":"海東六街１３號","OBJECTID":6366},"geometry":{"x":166851.84713700134,"y":2548148.9361820016}},{"attributes":{"ID":6367,"DIS_CODE":0,"TOWNNAME":"安南區","LI":"海東里","LIN":"20鄰","STREET":"海東六街","SECT":" ","MAREA":" ","LANE":" ","ALLEY":" ","HOUSE_NO":"１５號","E_COORD97":166847.82283399999,"N_COORD97":2548148.0895199999,"ADDRESS":"海東六街１５號","OBJECTID":6367},"geometry":{"x":166847.82283400092,"y":2548148.0895160008}},{"attributes":{"ID":6368,"DIS_CODE":0,"TOWNNAME":"安南區","LI":"海東里","LIN":"20鄰","STREET":"海東六街","SECT":" ","MAREA":" ","LANE":" ","ALLEY":" ","HOUSE_NO":"１７號","E_COORD97":166843.163114,"N_COORD97":2548148.30118,"ADDRESS":"海東六街１７號","OBJECTID":6368},"geometry":{"x":166843.16311399918,"y":2548148.3011820037}},{"attributes":{"ID":6369,"DIS_CODE":0,"TOWNNAME":"安南區","LI":"海東里","LIN":"20鄰","STREET":"海東六街","SECT":" ","MAREA":" ","LANE":" ","ALLEY":" ","HOUSE_NO":"１９號","E_COORD97":166838.92700500001,"N_COORD97":2548146.8195199999,"ADDRESS":"海東六街１９號","OBJECTID":6369},"geometry":{"x":166838.92700500041,"y":2548146.8195160013}},{"attributes":{"ID":6370,"DIS_CODE":0,"TOWNNAME":"安南區","LI":"海東里","LIN":"20鄰","STREET":"海東六街","SECT":" ","MAREA":" ","LANE":" ","ALLEY":" ","HOUSE_NO":"２１號","E_COORD97":166832.149232,"N_COORD97":2548145.5495199999,"ADDRESS":"海東六街２１號","OBJECTID":6370},"geometry":{"x":166832.14923200104,"y":2548145.549517002}},{"attributes":{"ID":6371,"DIS_CODE":0,"TOWNNAME":"安南區","LI":"海東里","LIN":"20鄰","STREET":"海東六街","SECT":" ","MAREA":" ","LANE":" ","ALLEY":" ","HOUSE_NO":"２３號","E_COORD97":166826.00687400001,"N_COORD97":2548143.22119,"ADDRESS":"海東六街２３號","OBJECTID":6371},"geometry":{"x":166826.00687400065,"y":2548143.2211850043}},{"attributes":{"ID":6372,"DIS_CODE":0,"TOWNNAME":"安南區","LI":"海東里","LIN":"20鄰","STREET":"海東六街","SECT":" ","MAREA":" ","LANE":" ","ALLEY":" ","HOUSE_NO":"２５號","E_COORD97":166822.194376,"N_COORD97":2548142.5861800001,"ADDRESS":"海東六街２５號","OBJECTID":6372},"geometry":{"x":166822.19437600113,"y":2548142.5861850046}},{"attributes":{"ID":6373,"DIS_CODE":0,"TOWNNAME":"安南區","LI":"海東里","LIN":"20鄰","STREET":"海東六街","SECT":" ","MAREA":" ","LANE":" ","ALLEY":" ","HOUSE_NO":"２７號","E_COORD97":166817.53465700001,"N_COORD97":2548141.5278500002,"ADDRESS":"海東六街２７號","OBJECTID":6373},"geometry":{"x":166817.5346570015,"y":2548141.5278530009}},{"attributes":{"ID":6374,"DIS_CODE":0,"TOWNNAME":"安南區","LI":"海東里","LIN":"20鄰","STREET":"海東六街","SECT":" ","MAREA":" ","LANE":" ","ALLEY":" ","HOUSE_NO":"２９號","E_COORD97":166813.08674299999,"N_COORD97":2548141.3161900002,"ADDRESS":"海東六街２９號","OBJECTID":6374},"geometry":{"x":166813.08674300089,"y":2548141.3161859997}},{"attributes":{"ID":6375,"DIS_CODE":0,"TOWNNAME":"安南區","LI":"海東里","LIN":"20鄰","STREET":"海東八街","SECT":" ","MAREA":" ","LANE":" ","ALLEY":" ","HOUSE_NO":"１１０號","E_COORD97":166690.875008,"N_COORD97":2548227.6761400001,"ADDRESS":"海東八街１１０號","OBJECTID":6375},"geometry":{"x":166690.87500799913,"y":2548227.6761390027}},{"attributes":{"ID":6376,"DIS_CODE":0,"TOWNNAME":"安南區","LI":"海東里","LIN":"20鄰","STREET":"海東八街","SECT":" ","MAREA":" ","LANE":" ","ALLEY":" ","HOUSE_NO":"１１２號","E_COORD97":166691.51042400001,"N_COORD97":2548223.8661400001,"ADDRESS":"海東八街１１２號","OBJECTID":6376},"geometry":{"x":166691.51042400114,"y":2548223.8661420029}},{"attributes":{"ID":6377,"DIS_CODE":0,"TOWNNAME":"安南區","LI":"海東里","LIN":"20鄰","STREET":"海東八街","SECT":" ","MAREA":" ","LANE":" ","ALLEY":" ","HOUSE_NO":"１１６號","E_COORD97":166692.56945099999,"N_COORD97":2548219.6328099999,"ADDRESS":"海東八街１１６號","OBJECTID":6377},"geometry":{"x":166692.56945100054,"y":2548219.6328100022}},{"attributes":{"ID":6378,"DIS_CODE":0,"TOWNNAME":"安南區","LI":"海東里","LIN":"20鄰","STREET":"海東八街","SECT":" ","MAREA":" ","LANE":" ","ALLEY":" ","HOUSE_NO":"１１８號","E_COORD97":166693.62847900001,"N_COORD97":2548216.24615,"ADDRESS":"海東八街１１８號","OBJECTID":6378},"geometry":{"x":166693.62847900111,"y":2548216.2461459991}},{"attributes":{"ID":6379,"DIS_CODE":0,"TOWNNAME":"安南區","LI":"海東里","LIN":"20鄰","STREET":"海東八街","SECT":" ","MAREA":" ","LANE":" ","ALLEY":" ","HOUSE_NO":"１２０號","E_COORD97":166694.68750599999,"N_COORD97":2548212.0128199998,"ADDRESS":"海東八街１２０號","OBJECTID":6379},"geometry":{"x":166694.68750600051,"y":2548212.0128150024}},{"attributes":{"ID":6380,"DIS_CODE":0,"TOWNNAME":"安南區","LI":"海東里","LIN":"20鄰","STREET":"海東八街","SECT":" ","MAREA":" ","LANE":" ","ALLEY":" ","HOUSE_NO":"１２２號","E_COORD97":166695.958338,"N_COORD97":2548207.3561499999,"ADDRESS":"海東八街１２２號","OBJECTID":6380},"geometry":{"x":166695.95833799988,"y":2548207.3561500013}},{"attributes":{"ID":6381,"DIS_CODE":0,"TOWNNAME":"安南區","LI":"海東里","LIN":"20鄰","STREET":"海東八街","SECT":" ","MAREA":" ","LANE":" ","ALLEY":" ","HOUSE_NO":"１２６號","E_COORD97":166696.59375500001,"N_COORD97":2548203.7578199999,"ADDRESS":"海東八街１２６號","OBJECTID":6381},"geometry":{"x":166696.59375500027,"y":2548203.7578190044}},{"attributes":{"ID":6382,"DIS_CODE":0,"TOWNNAME":"安南區","LI":"海東里","LIN":"20鄰","STREET":"海東八街","SECT":" ","MAREA":" ","LANE":" ","ALLEY":" ","HOUSE_NO":"１２８號","E_COORD97":166697.44097600001,"N_COORD97":2548198.88949,"ADDRESS":"海東八街１２８號","OBJECTID":6382},"geometry":{"x":166697.44097600132,"y":2548198.8894880023}},{"attributes":{"ID":6383,"DIS_CODE":0,"TOWNNAME":"安南區","LI":"海東里","LIN":"21鄰","STREET":"海東五街","SECT":" ","MAREA":" ","LANE":" ","ALLEY":" ","HOUSE_NO":"６５號","E_COORD97":166759.92357899999,"N_COORD97":2548003.94459,"ADDRESS":"海東五街６５號","OBJECTID":6383},"geometry":{"x":166759.92357900087,"y":2548003.9445939977}},{"attributes":{"ID":6384,"DIS_CODE":0,"TOWNNAME":"安南區","LI":"海東里","LIN":"21鄰","STREET":"海東五街","SECT":" ","MAREA":" ","LANE":" ","ALLEY":" ","HOUSE_NO":"６７號","E_COORD97":166760.13538399999,"N_COORD97":2547999.9229299999,"ADDRESS":"海東五街６７號","OBJECTID":6384},"geometry":{"x":166760.13538399991,"y":2547999.922929002}},{"attributes":{"ID":6385,"DIS_CODE":0,"TOWNNAME":"安南區","LI":"海東里","LIN":"21鄰","STREET":"海東五街","SECT":" ","MAREA":" ","LANE":" ","ALLEY":" ","HOUSE_NO":"６９號","E_COORD97":166761.61802200001,"N_COORD97":2547995.6896000002,"ADDRESS":"海東五街６９號","OBJECTID":6385},"geometry":{"x":166761.61802200135,"y":2547995.6895979997}},{"attributes":{"ID":6386,"DIS_CODE":0,"TOWNNAME":"安南區","LI":"海東里","LIN":"21鄰","STREET":"海東五街","SECT":" ","MAREA":" ","LANE":" ","ALLEY":" ","HOUSE_NO":"７１號","E_COORD97":166762.46524399999,"N_COORD97":2547990.8212700002,"ADDRESS":"海東五街７１號","OBJECTID":6386},"geometry":{"x":166762.46524399985,"y":2547990.8212670032}},{"attributes":{"ID":6387,"DIS_CODE":0,"TOWNNAME":"安南區","LI":"海東里","LIN":"21鄰","STREET":"海東五街","SECT":" ","MAREA":" ","LANE":" ","ALLEY":" ","HOUSE_NO":"７３號","E_COORD97":166763.100661,"N_COORD97":2547986.3762699999,"ADDRESS":"海東五街７３號","OBJECTID":6387},"geometry":{"x":166763.10066100024,"y":2547986.3762700036}},{"attributes":{"ID":6388,"DIS_CODE":0,"TOWNNAME":"安南區","LI":"海東里","LIN":"21鄰","STREET":"海東五街","SECT":" ","MAREA":" ","LANE":" ","ALLEY":" ","HOUSE_NO":"７５號","E_COORD97":166762.888855,"N_COORD97":2547982.9896,"ADDRESS":"海東五街７５號","OBJECTID":6388},"geometry":{"x":166762.88885500003,"y":2547982.9896050021}},{"attributes":{"ID":6389,"DIS_CODE":0,"TOWNNAME":"安南區","LI":"海東里","LIN":"21鄰","STREET":"海東五街","SECT":" ","MAREA":" ","LANE":" ","ALLEY":" ","HOUSE_NO":"７７號","E_COORD97":166764.15968800001,"N_COORD97":2547978.3329400001,"ADDRESS":"海東五街７７號","OBJECTID":6389},"geometry":{"x":166764.15968799964,"y":2547978.3329410013}},{"attributes":{"ID":6390,"DIS_CODE":0,"TOWNNAME":"安南區","LI":"海東里","LIN":"21鄰","STREET":"海東五街","SECT":" ","MAREA":" ","LANE":" ","ALLEY":" ","HOUSE_NO":"７９號","E_COORD97":166763.524271,"N_COORD97":2547974.0996099999,"ADDRESS":"海東五街７９號","OBJECTID":6390},"geometry":{"x":166763.52427100111,"y":2547974.0996100046}},{"attributes":{"ID":6391,"DIS_CODE":0,"TOWNNAME":"安南區","LI":"海東里","LIN":"21鄰","STREET":"海東五街","SECT":" ","MAREA":" ","LANE":" ","ALLEY":" ","HOUSE_NO":"８１號","E_COORD97":166765.218715,"N_COORD97":2547969.6546100001,"ADDRESS":"海東五街８１號","OBJECTID":6391},"geometry":{"x":166765.21871500183,"y":2547969.654612001}},{"attributes":{"ID":6392,"DIS_CODE":0,"TOWNNAME":"安南區","LI":"海東里","LIN":"21鄰","STREET":"海東五街","SECT":" ","MAREA":" ","LANE":" ","ALLEY":" ","HOUSE_NO":"８３號","E_COORD97":166765.642326,"N_COORD97":2547964.7862800001,"ADDRESS":"海東五街８３號","OBJECTID":6392},"geometry":{"x":166765.64232600201,"y":2547964.7862810027}},{"attributes":{"ID":6393,"DIS_CODE":0,"TOWNNAME":"新營區","LI":"土庫里","LIN":"4鄰","STREET":" ","SECT":" ","MAREA":"土庫","LANE":" ","ALLEY":" ","HOUSE_NO":"２８號之８","E_COORD97":183193.84,"N_COORD97":2579962.2599999998,"ADDRESS":"土庫２８號之８","OBJECTID":6393},"geometry":{"x":183193.83999999985,"y":2579962.2599999998}},{"attributes":{"ID":6394,"DIS_CODE":0,"TOWNNAME":"永康區","LI":"王行里","LIN":"2鄰","STREET":"永科南路","SECT":" ","MAREA":" ","LANE":" ","ALLEY":" ","HOUSE_NO":"１３６號","E_COORD97":176005.015281,"N_COORD97":2548147.7292999998,"ADDRESS":"永科南路１３６號","OBJECTID":6394},"geometry":{"x":176005.01528100111,"y":2548147.7292960025}},{"attributes":{"ID":6395,"DIS_CODE":0,"TOWNNAME":"新營區","LI":"土庫里","LIN":"4鄰","STREET":" ","SECT":" ","MAREA":"土庫","LANE":" ","ALLEY":" ","HOUSE_NO":"２８號之９","E_COORD97":183192.82999999999,"N_COORD97":2579966.71,"ADDRESS":"土庫２８號之９","OBJECTID":6395},"geometry":{"x":183192.83000000007,"y":2579966.7100000028}},{"attributes":{"ID":6396,"DIS_CODE":0,"TOWNNAME":"安南區","LI":"梅花里","LIN":"17鄰","STREET":"同安路","SECT":" ","MAREA":" ","LANE":" ","ALLEY":" ","HOUSE_NO":"３９０號","E_COORD97":167336.35359000001,"N_COORD97":2549373.9562599999,"ADDRESS":"同安路３９０號","OBJECTID":6396},"geometry":{"x":167336.35359000135,"y":2549373.9562599994}},{"attributes":{"ID":6397,"DIS_CODE":0,"TOWNNAME":"安平區","LI":"金城里","LIN":"9鄰","STREET":"同平路","SECT":" ","MAREA":" ","LANE":" ","ALLEY":" ","HOUSE_NO":"１５２號四樓","E_COORD97":163141.06597,"N_COORD97":2544035.1857699999,"ADDRESS":"同平路１５２號四樓","OBJECTID":6397},"geometry":{"x":163141.06596999988,"y":2544035.1857700013}},{"attributes":{"ID":6398,"DIS_CODE":0,"TOWNNAME":"新營區","LI":"土庫里","LIN":"4鄰","STREET":" ","SECT":" ","MAREA":"土庫","LANE":" ","ALLEY":" ","HOUSE_NO":"２８號之５","E_COORD97":183196.669609,"N_COORD97":2579954.42429,"ADDRESS":"土庫２８號之５","OBJECTID":6398},"geometry":{"x":183196.66960900091,"y":2579954.4242850002}},{"attributes":{"ID":6399,"DIS_CODE":0,"TOWNNAME":"安平區","LI":"金城里","LIN":"11鄰","STREET":"同平路","SECT":" ","MAREA":" ","LANE":" ","ALLEY":" ","HOUSE_NO":"２０８號之４","E_COORD97":163073.89129,"N_COORD97":2543901.4125100002,"ADDRESS":"同平路２０８號之４","OBJECTID":6399},"geometry":{"x":163073.89129000064,"y":2543901.412510002}},{"attributes":{"ID":6400,"DIS_CODE":0,"TOWNNAME":"安平區","LI":"金城里","LIN":"11鄰","STREET":"同平路","SECT":" ","MAREA":" ","LANE":" ","ALLEY":" ","HOUSE_NO":"２０８號之１５","E_COORD97":163065.41498999999,"N_COORD97":2543892.31085,"ADDRESS":"同平路２０８號之１５","OBJECTID":6400},"geometry":{"x":163065.4149899995,"y":2543892.3108500019}}]}