{"displayFieldName":"TOWNNAME","fieldAliases":{"ID":"ID","DIS_CODE":"DIS_CODE","TOWNNAME":"TOWNNAME","LI":"LI","LIN":"LIN","STREET":"STREET","SECT":"SECT","MAREA":"MAREA","LANE":"LANE","ALLEY":"ALLEY","HOUSE_NO":"HOUSE_NO","E_COORD97":"E_COORD97","N_COORD97":"N_COORD97","ADDRESS":"ADDRESS","OBJECTID":"OBJECTID"},"geometryType":"esriGeometryPoint","spatialReference":{"wkid":102443,"latestWkid":3826},"fields":[{"name":"ID","type":"esriFieldTypeDouble","alias":"ID"},{"name":"DIS_CODE","type":"esriFieldTypeInteger","alias":"DIS_CODE"},{"name":"TOWNNAME","type":"esriFieldTypeString","alias":"TOWNNAME","length":8},{"name":"LI","type":"esriFieldTypeString","alias":"LI","length":8},{"name":"LIN","type":"esriFieldTypeString","alias":"LIN","length":12},{"name":"STREET","type":"esriFieldTypeString","alias":"STREET","length":20},{"name":"SECT","type":"esriFieldTypeString","alias":"SECT","length":8},{"name":"MAREA","type":"esriFieldTypeString","alias":"MAREA","length":12},{"name":"LANE","type":"esriFieldTypeString","alias":"LANE","length":10},{"name":"ALLEY","type":"esriFieldTypeString","alias":"ALLEY","length":10},{"name":"HOUSE_NO","type":"esriFieldTypeString","alias":"HOUSE_NO","length":20},{"name":"E_COORD97","type":"esriFieldTypeDouble","alias":"E_COORD97"},{"name":"N_COORD97","type":"esriFieldTypeDouble","alias":"N_COORD97"},{"name":"ADDRESS","type":"esriFieldTypeString","alias":"ADDRESS","length":50},{"name":"OBJECTID","type":"esriFieldTypeOID","alias":"OBJECTID"}],"features":[{"attributes":{"ID":648628,"DIS_CODE":0,"TOWNNAME":"安平區","LI":"億載里","LIN":"6鄰","STREET":"平豐路","SECT":" ","MAREA":" ","LANE":"２５１巷","ALLEY":" ","HOUSE_NO":"３９號","E_COORD97":164194.64361599999,"N_COORD97":2543686.08592,"ADDRESS":"平豐路２５１巷３９號","OBJECTID":648601},"geometry":{"x":164194.64361600019,"y":2543686.0859190021}},{"attributes":{"ID":648629,"DIS_CODE":0,"TOWNNAME":"安平區","LI":"平通里","LIN":"13鄰","STREET":"健康三街","SECT":" ","MAREA":" ","LANE":"４８２巷","ALLEY":" ","HOUSE_NO":"２５號","E_COORD97":164908.98388000001,"N_COORD97":2543970.7774299998,"ADDRESS":"健康三街４８２巷２５號","OBJECTID":648602},"geometry":{"x":164908.98388000019,"y":2543970.7774320003}},{"attributes":{"ID":648630,"DIS_CODE":0,"TOWNNAME":"安平區","LI":"平通里","LIN":"13鄰","STREET":"健康三街","SECT":" ","MAREA":" ","LANE":"４８２巷","ALLEY":" ","HOUSE_NO":"２１號","E_COORD97":164897.54087299999,"N_COORD97":2543972.2590999999,"ADDRESS":"健康三街４８２巷２１號","OBJECTID":648603},"geometry":{"x":164897.54087300133,"y":2543972.2590980027}},{"attributes":{"ID":648631,"DIS_CODE":0,"TOWNNAME":"安平區","LI":"平通里","LIN":"13鄰","STREET":"健康三街","SECT":" ","MAREA":" ","LANE":"４８２巷","ALLEY":" ","HOUSE_NO":"２３號","E_COORD97":164903.474284,"N_COORD97":2543971.41243,"ADDRESS":"健康三街４８２巷２３號","OBJECTID":648604},"geometry":{"x":164903.47428400069,"y":2543971.4124310017}},{"attributes":{"ID":648632,"DIS_CODE":0,"TOWNNAME":"北門區","LI":"雙春里","LIN":"10鄰","STREET":" ","SECT":" ","MAREA":"雙春","LANE":" ","ALLEY":" ","HOUSE_NO":"７２號之５","E_COORD97":161021.00630000001,"N_COORD97":2577682.6899000001,"ADDRESS":"雙春７２號之５","OBJECTID":648605},"geometry":{"x":161021.00630000141,"y":2577682.6898999996}},{"attributes":{"ID":648633,"DIS_CODE":0,"TOWNNAME":"安平區","LI":"億載里","LIN":"7鄰","STREET":"郡平路","SECT":" ","MAREA":" ","LANE":"４６０巷","ALLEY":" ","HOUSE_NO":"２５號","E_COORD97":163934.421176,"N_COORD97":2543436.5310499999,"ADDRESS":"郡平路４６０巷２５號","OBJECTID":648606},"geometry":{"x":163934.4211760005,"y":2543436.5310539994}},{"attributes":{"ID":648634,"DIS_CODE":0,"TOWNNAME":"安平區","LI":"平安里","LIN":"1鄰","STREET":"民權路","SECT":"四段","MAREA":" ","LANE":" ","ALLEY":" ","HOUSE_NO":"７９之２號","E_COORD97":166336.18105499999,"N_COORD97":2544408.7155300002,"ADDRESS":"民權路四段７９之２號","OBJECTID":648607},"geometry":{"x":166336.18105500098,"y":2544408.7155290004}},{"attributes":{"ID":648635,"DIS_CODE":0,"TOWNNAME":"安平區","LI":"平安里","LIN":"1鄰","STREET":"民權路","SECT":"四段","MAREA":" ","LANE":" ","ALLEY":" ","HOUSE_NO":"７９號","E_COORD97":166357.1599,"N_COORD97":2544408.7155300002,"ADDRESS":"民權路四段７９號","OBJECTID":648608},"geometry":{"x":166357.15990000032,"y":2544408.7155290004}},{"attributes":{"ID":648636,"DIS_CODE":0,"TOWNNAME":"楠西區","LI":"楠西里","LIN":"5鄰","STREET":"水庫路","SECT":" ","MAREA":" ","LANE":" ","ALLEY":" ","HOUSE_NO":"５號之１","E_COORD97":197804.07551,"N_COORD97":2564995.5530500002,"ADDRESS":"水庫路５號１","OBJECTID":648609},"geometry":{"x":197804.07551000081,"y":2564995.5530500002}},{"attributes":{"ID":648637,"DIS_CODE":0,"TOWNNAME":"安平區","LI":"華平里","LIN":"5鄰","STREET":"健康二街","SECT":" ","MAREA":" ","LANE":" ","ALLEY":" ","HOUSE_NO":"５１２號","E_COORD97":165382.59719599999,"N_COORD97":2544067.72071,"ADDRESS":"健康二街５１２號","OBJECTID":648610},"geometry":{"x":165382.59719600063,"y":2544067.7207130007}},{"attributes":{"ID":648638,"DIS_CODE":0,"TOWNNAME":"安平區","LI":"華平里","LIN":"33鄰","STREET":"永華八街","SECT":" ","MAREA":" ","LANE":" ","ALLEY":" ","HOUSE_NO":"３３９號","E_COORD97":165193.99950000001,"N_COORD97":2544086.3473700001,"ADDRESS":"永華八街３３９號","OBJECTID":648611},"geometry":{"x":165193.99949999992,"y":2544086.3473689985}},{"attributes":{"ID":648639,"DIS_CODE":0,"TOWNNAME":"安平區","LI":"平安里","LIN":"1鄰","STREET":"民權路","SECT":"四段","MAREA":" ","LANE":" ","ALLEY":" ","HOUSE_NO":"７３號","E_COORD97":166375.59585499999,"N_COORD97":2544408.0805299999,"ADDRESS":"民權路四段７３號","OBJECTID":648612},"geometry":{"x":166375.59585500136,"y":2544408.0805290006}},{"attributes":{"ID":648640,"DIS_CODE":0,"TOWNNAME":"安平區","LI":"文平里","LIN":"7鄰","STREET":"建平七街","SECT":" ","MAREA":" ","LANE":"５８巷","ALLEY":" ","HOUSE_NO":"３３號","E_COORD97":166306.51400200001,"N_COORD97":2543262.3294799998,"ADDRESS":"建平七街５８巷３３號","OBJECTID":648613},"geometry":{"x":166306.51400199998,"y":2543262.3294810019}},{"attributes":{"ID":648641,"DIS_CODE":0,"TOWNNAME":"北門區","LI":"鯤江里","LIN":"8鄰","STREET":" ","SECT":" ","MAREA":"蚵寮","LANE":" ","ALLEY":" ","HOUSE_NO":"１０２６號","E_COORD97":162291.04370499999,"N_COORD97":2575662.0085300002,"ADDRESS":"蚵寮１０２６號","OBJECTID":648614},"geometry":{"x":162291.04370499961,"y":2575662.0085330028}},{"attributes":{"ID":648642,"DIS_CODE":0,"TOWNNAME":"北門區","LI":"鯤江里","LIN":"8鄰","STREET":" ","SECT":" ","MAREA":"蚵寮","LANE":" ","ALLEY":" ","HOUSE_NO":"１０２３號","E_COORD97":162309.90436099999,"N_COORD97":2575683.59852,"ADDRESS":"蚵寮１０２３號","OBJECTID":648615},"geometry":{"x":162309.90436100028,"y":2575683.5985220037}},{"attributes":{"ID":648643,"DIS_CODE":0,"TOWNNAME":"北門區","LI":"鯤江里","LIN":"6鄰","STREET":" ","SECT":" ","MAREA":"蚵寮","LANE":" ","ALLEY":" ","HOUSE_NO":"９９９號","E_COORD97":162091.62935599999,"N_COORD97":2575723.2859999998,"ADDRESS":"蚵寮９９９號","OBJECTID":648616},"geometry":{"x":162091.62935600057,"y":2575723.286000004}},{"attributes":{"ID":648644,"DIS_CODE":0,"TOWNNAME":"北門區","LI":"鯤江里","LIN":"5鄰","STREET":" ","SECT":" ","MAREA":"蚵寮","LANE":" ","ALLEY":" ","HOUSE_NO":"９７５號","E_COORD97":162305.66601099999,"N_COORD97":2576216.6807300001,"ADDRESS":"蚵寮９７５號","OBJECTID":648617},"geometry":{"x":162305.66601100005,"y":2576216.6807339992}},{"attributes":{"ID":648645,"DIS_CODE":0,"TOWNNAME":"北門區","LI":"鯤江里","LIN":"5鄰","STREET":" ","SECT":" ","MAREA":"蚵寮","LANE":" ","ALLEY":" ","HOUSE_NO":"９７４號","E_COORD97":162298.88465200001,"N_COORD97":2576220.4907300002,"ADDRESS":"蚵寮９７４號","OBJECTID":648618},"geometry":{"x":162298.88465199992,"y":2576220.4907319993}},{"attributes":{"ID":648646,"DIS_CODE":0,"TOWNNAME":"北門區","LI":"鯤江里","LIN":"5鄰","STREET":" ","SECT":" ","MAREA":"蚵寮","LANE":" ","ALLEY":" ","HOUSE_NO":"９７３號","E_COORD97":162291.46754000001,"N_COORD97":2576224.7240599999,"ADDRESS":"蚵寮９７３號","OBJECTID":648619},"geometry":{"x":162291.4675400015,"y":2576224.7240630016}},{"attributes":{"ID":648647,"DIS_CODE":0,"TOWNNAME":"北門區","LI":"鯤江里","LIN":"5鄰","STREET":" ","SECT":" ","MAREA":"蚵寮","LANE":" ","ALLEY":" ","HOUSE_NO":"９７２號","E_COORD97":162284.05042799999,"N_COORD97":2576229.5923899999,"ADDRESS":"蚵寮９７２號","OBJECTID":648620},"geometry":{"x":162284.05042800028,"y":2576229.5923939999}},{"attributes":{"ID":648648,"DIS_CODE":0,"TOWNNAME":"北門區","LI":"鯤江里","LIN":"5鄰","STREET":" ","SECT":" ","MAREA":"蚵寮","LANE":" ","ALLEY":" ","HOUSE_NO":"９７１號","E_COORD97":162276.42139900001,"N_COORD97":2576232.9790599998,"ADDRESS":"蚵寮９７１號","OBJECTID":648621},"geometry":{"x":162276.4213990001,"y":2576232.9790580012}},{"attributes":{"ID":648649,"DIS_CODE":0,"TOWNNAME":"北門區","LI":"鯤江里","LIN":"5鄰","STREET":" ","SECT":" ","MAREA":"蚵寮","LANE":" ","ALLEY":" ","HOUSE_NO":"９７０號","E_COORD97":162269.64004,"N_COORD97":2576237.8473899998,"ADDRESS":"蚵寮９７０號","OBJECTID":648622},"geometry":{"x":162269.6400400009,"y":2576237.8473890033}},{"attributes":{"ID":648650,"DIS_CODE":0,"TOWNNAME":"北門區","LI":"鯤江里","LIN":"5鄰","STREET":" ","SECT":" ","MAREA":"蚵寮","LANE":" ","ALLEY":" ","HOUSE_NO":"９６９號","E_COORD97":162262.646763,"N_COORD97":2576242.08072,"ADDRESS":"蚵寮９６９號","OBJECTID":648623},"geometry":{"x":162262.64676299971,"y":2576242.08072}},{"attributes":{"ID":648651,"DIS_CODE":0,"TOWNNAME":"北門區","LI":"鯤江里","LIN":"5鄰","STREET":" ","SECT":" ","MAREA":"蚵寮","LANE":" ","ALLEY":" ","HOUSE_NO":"９６８號","E_COORD97":162257.56074300001,"N_COORD97":2576245.4673899999,"ADDRESS":"蚵寮９６８號","OBJECTID":648624},"geometry":{"x":162257.56074300129,"y":2576245.4673850015}},{"attributes":{"ID":648652,"DIS_CODE":0,"TOWNNAME":"北門區","LI":"鯤江里","LIN":"5鄰","STREET":" ","SECT":" ","MAREA":"蚵寮","LANE":" ","ALLEY":" ","HOUSE_NO":"９６７號","E_COORD97":162251.62705400001,"N_COORD97":2576249.0657199998,"ADDRESS":"蚵寮９６７號","OBJECTID":648625},"geometry":{"x":162251.6270540012,"y":2576249.0657160003}},{"attributes":{"ID":648653,"DIS_CODE":0,"TOWNNAME":"北門區","LI":"鯤江里","LIN":"5鄰","STREET":" ","SECT":" ","MAREA":"蚵寮","LANE":" ","ALLEY":" ","HOUSE_NO":"９７７號","E_COORD97":162314.99038,"N_COORD97":2576251.8173799999,"ADDRESS":"蚵寮９７７號","OBJECTID":648626},"geometry":{"x":162314.99038000125,"y":2576251.8173820004}},{"attributes":{"ID":648654,"DIS_CODE":0,"TOWNNAME":"北門區","LI":"鯤江里","LIN":"5鄰","STREET":" ","SECT":" ","MAREA":"蚵寮","LANE":" ","ALLEY":" ","HOUSE_NO":"９７８號","E_COORD97":162306.93751600001,"N_COORD97":2576255.62738,"ADDRESS":"蚵寮９７８號","OBJECTID":648627},"geometry":{"x":162306.93751600198,"y":2576255.6273800042}},{"attributes":{"ID":648655,"DIS_CODE":0,"TOWNNAME":"北門區","LI":"鯤江里","LIN":"5鄰","STREET":" ","SECT":" ","MAREA":"蚵寮","LANE":" ","ALLEY":" ","HOUSE_NO":"９７９號","E_COORD97":162296.76547700001,"N_COORD97":2576259.14634,"ADDRESS":"蚵寮９７９號","OBJECTID":648628},"geometry":{"x":162296.76547700074,"y":2576259.1463360023}},{"attributes":{"ID":648656,"DIS_CODE":0,"TOWNNAME":"北門區","LI":"鯤江里","LIN":"5鄰","STREET":" ","SECT":" ","MAREA":"蚵寮","LANE":" ","ALLEY":" ","HOUSE_NO":"９８０號","E_COORD97":162298.03698199999,"N_COORD97":2576265.7080000001,"ADDRESS":"蚵寮９８０號","OBJECTID":648629},"geometry":{"x":162298.03698199987,"y":2576265.7079990022}},{"attributes":{"ID":648657,"DIS_CODE":0,"TOWNNAME":"北門區","LI":"鯤江里","LIN":"5鄰","STREET":" ","SECT":" ","MAREA":"蚵寮","LANE":" ","ALLEY":" ","HOUSE_NO":"９８１號","E_COORD97":162289.77220000001,"N_COORD97":2576266.1313299998,"ADDRESS":"蚵寮９８１號","OBJECTID":648630},"geometry":{"x":162289.7722000014,"y":2576266.1313320007}},{"attributes":{"ID":648658,"DIS_CODE":0,"TOWNNAME":"北門區","LI":"鯤江里","LIN":"5鄰","STREET":" ","SECT":" ","MAREA":"蚵寮","LANE":" ","ALLEY":" ","HOUSE_NO":"９８２號","E_COORD97":162282.143171,"N_COORD97":2576272.693,"ADDRESS":"蚵寮９８２號","OBJECTID":648631},"geometry":{"x":162282.14317100029,"y":2576272.6929950025}},{"attributes":{"ID":648659,"DIS_CODE":0,"TOWNNAME":"東山區","LI":"青山里","LIN":"3鄰","STREET":" ","SECT":" ","MAREA":"青山","LANE":" ","ALLEY":" ","HOUSE_NO":"３０號之２１","E_COORD97":195512.65854999999,"N_COORD97":2575338.5180100002,"ADDRESS":"青山３０號之２１","OBJECTID":648632},"geometry":{"x":195512.65855000075,"y":2575338.5180099998}},{"attributes":{"ID":648660,"DIS_CODE":0,"TOWNNAME":"麻豆區","LI":"寮\u25A0里","LIN":"20鄰","STREET":" ","SECT":" ","MAREA":"寮子\u25A0","LANE":" ","ALLEY":" ","HOUSE_NO":"１６６號之９","E_COORD97":176070.885228,"N_COORD97":2565366.8580200002,"ADDRESS":"寮子\u25A0１６６號之９","OBJECTID":648633},"geometry":{"x":176070.88522799965,"y":2565366.8580160029}},{"attributes":{"ID":648661,"DIS_CODE":0,"TOWNNAME":"安平區","LI":"文平里","LIN":"24鄰","STREET":"建平路","SECT":" ","MAREA":" ","LANE":" ","ALLEY":" ","HOUSE_NO":"５２號","E_COORD97":166130.15092099999,"N_COORD97":2542905.85072,"ADDRESS":"建平路５２號","OBJECTID":648634},"geometry":{"x":166130.1509210011,"y":2542905.8507150039}},{"attributes":{"ID":648662,"DIS_CODE":0,"TOWNNAME":"安平區","LI":"平通里","LIN":"19鄰","STREET":"慶平路","SECT":" ","MAREA":" ","LANE":" ","ALLEY":" ","HOUSE_NO":"７５１號","E_COORD97":164479.17939999999,"N_COORD97":2544258.6116499999,"ADDRESS":"慶平路７５１號","OBJECTID":648635},"geometry":{"x":164479.17939999979,"y":2544258.6116509996}},{"attributes":{"ID":648663,"DIS_CODE":0,"TOWNNAME":"安平區","LI":"平通里","LIN":"19鄰","STREET":"慶平路","SECT":" ","MAREA":" ","LANE":" ","ALLEY":" ","HOUSE_NO":"７５３號","E_COORD97":164473.881712,"N_COORD97":2544259.03498,"ADDRESS":"慶平路７５３號","OBJECTID":648636},"geometry":{"x":164473.88171200082,"y":2544259.0349840019}},{"attributes":{"ID":648664,"DIS_CODE":0,"TOWNNAME":"安平區","LI":"建平里","LIN":"8鄰","STREET":"府前路","SECT":"二段","MAREA":" ","LANE":" ","ALLEY":" ","HOUSE_NO":"５５２號","E_COORD97":166488.91036000001,"N_COORD97":2543756.3269199999,"ADDRESS":"府前路二段５５２號","OBJECTID":648637},"geometry":{"x":166488.91036000196,"y":2543756.3269219995}},{"attributes":{"ID":648665,"DIS_CODE":0,"TOWNNAME":"關廟區","LI":"龜洞里","LIN":"2鄰","STREET":"南雄南路","SECT":" ","MAREA":" ","LANE":"６０８巷","ALLEY":" ","HOUSE_NO":"１１號","E_COORD97":183374.05147499999,"N_COORD97":2533762.68842,"ADDRESS":"南雄南路６０８巷１１號","OBJECTID":648638},"geometry":{"x":183374.05147499964,"y":2533762.6884220038}},{"attributes":{"ID":648666,"DIS_CODE":0,"TOWNNAME":"安平區","LI":"億載里","LIN":"2鄰","STREET":"永華十一街","SECT":" ","MAREA":" ","LANE":"１４１巷","ALLEY":" ","HOUSE_NO":"３０之１號","E_COORD97":163971.23706499999,"N_COORD97":2543790.6168999998,"ADDRESS":"永華十一街１４１巷３０之１號","OBJECTID":648639},"geometry":{"x":163971.23706500139,"y":2543790.6169030033}},{"attributes":{"ID":648667,"DIS_CODE":0,"TOWNNAME":"安平區","LI":"億載里","LIN":"2鄰","STREET":"永華十一街","SECT":" ","MAREA":" ","LANE":"１４１巷","ALLEY":" ","HOUSE_NO":"３０之２號","E_COORD97":163966.15128399999,"N_COORD97":2543790.1935700001,"ADDRESS":"永華十一街１４１巷３０之２號","OBJECTID":648640},"geometry":{"x":163966.15128400084,"y":2543790.1935699992}},{"attributes":{"ID":648668,"DIS_CODE":0,"TOWNNAME":"安平區","LI":"億載里","LIN":"2鄰","STREET":"永華十一街","SECT":" ","MAREA":" ","LANE":"１４１巷","ALLEY":" ","HOUSE_NO":"３０號","E_COORD97":163975.89903,"N_COORD97":2543791.04024,"ADDRESS":"永華十一街１４１巷３０號","OBJECTID":648641},"geometry":{"x":163975.8990300009,"y":2543791.0402370002}},{"attributes":{"ID":648669,"DIS_CODE":0,"TOWNNAME":"安平區","LI":"億載里","LIN":"2鄰","STREET":"永華十一街","SECT":" ","MAREA":" ","LANE":"１４１巷","ALLEY":" ","HOUSE_NO":"３２號","E_COORD97":163960.641688,"N_COORD97":2543789.1352400002,"ADDRESS":"永華十一街１４１巷３２號","OBJECTID":648642},"geometry":{"x":163960.64168800134,"y":2543789.1352380011}},{"attributes":{"ID":648670,"DIS_CODE":0,"TOWNNAME":"安平區","LI":"億載里","LIN":"2鄰","STREET":"永華十一街","SECT":" ","MAREA":" ","LANE":"１４１巷","ALLEY":" ","HOUSE_NO":"３２之１號","E_COORD97":163955.767815,"N_COORD97":2543788.50024,"ADDRESS":"永華十一街１４１巷３２之１號","OBJECTID":648643},"geometry":{"x":163955.76781500038,"y":2543788.5002380013}},{"attributes":{"ID":648671,"DIS_CODE":0,"TOWNNAME":"關廟區","LI":"埤頭里","LIN":"14鄰","STREET":"關新一街","SECT":" ","MAREA":" ","LANE":" ","ALLEY":" ","HOUSE_NO":"９６號","E_COORD97":179893.114569,"N_COORD97":2543761.5682899999,"ADDRESS":"關新一街９６號","OBJECTID":648644},"geometry":{"x":179893.1145690009,"y":2543761.5682920013}},{"attributes":{"ID":648672,"DIS_CODE":0,"TOWNNAME":"東山區","LI":"東原里","LIN":"15鄰","STREET":" ","SECT":" ","MAREA":"瓦厝子","LANE":" ","ALLEY":" ","HOUSE_NO":"６號之１０","E_COORD97":193690.20260799999,"N_COORD97":2574224.84497,"ADDRESS":"瓦厝子６號之１０","OBJECTID":648645},"geometry":{"x":193690.20260799862,"y":2574224.844971003}},{"attributes":{"ID":648673,"DIS_CODE":0,"TOWNNAME":"安平區","LI":"怡平里","LIN":"18鄰","STREET":"文平路","SECT":" ","MAREA":" ","LANE":"４６１巷","ALLEY":" ","HOUSE_NO":"６３號","E_COORD97":165677.72835700001,"N_COORD97":2543877.40019,"ADDRESS":"文平路４６１巷６３號","OBJECTID":648646},"geometry":{"x":165677.72835700028,"y":2543877.4001899995}},{"attributes":{"ID":648674,"DIS_CODE":0,"TOWNNAME":"安平區","LI":"怡平里","LIN":"18鄰","STREET":"文平路","SECT":" ","MAREA":" ","LANE":"４６１巷","ALLEY":" ","HOUSE_NO":"６５號","E_COORD97":165671.58303899999,"N_COORD97":2543878.67019,"ADDRESS":"文平路４６１巷６５號","OBJECTID":648647},"geometry":{"x":165671.58303900063,"y":2543878.6701889988}},{"attributes":{"ID":648675,"DIS_CODE":0,"TOWNNAME":"安平區","LI":"平通里","LIN":"30鄰","STREET":"育平九街","SECT":" ","MAREA":" ","LANE":"３７２巷","ALLEY":"２３弄","HOUSE_NO":"４６號","E_COORD97":164470.27928399999,"N_COORD97":2543818.7685600002,"ADDRESS":"育平九街３７２巷２３弄４６號","OBJECTID":648648},"geometry":{"x":164470.2792840004,"y":2543818.7685550041}},{"attributes":{"ID":648676,"DIS_CODE":0,"TOWNNAME":"東山區","LI":"東原里","LIN":"15鄰","STREET":" ","SECT":" ","MAREA":"瓦厝子","LANE":" ","ALLEY":" ","HOUSE_NO":"６號之９","E_COORD97":193686.91963700001,"N_COORD97":2574227.2791400002,"ADDRESS":"瓦厝子６號之９","OBJECTID":648649},"geometry":{"x":193686.91963700112,"y":2574227.2791370004}},{"attributes":{"ID":648677,"DIS_CODE":0,"TOWNNAME":"安平區","LI":"平安里","LIN":"5鄰","STREET":"安平路","SECT":" ","MAREA":" ","LANE":" ","ALLEY":" ","HOUSE_NO":"２８８號","E_COORD97":165776.47726300001,"N_COORD97":2544352.5915999999,"ADDRESS":"安平路２８８號","OBJECTID":648650},"geometry":{"x":165776.47726300079,"y":2544352.5916000009}},{"attributes":{"ID":648678,"DIS_CODE":0,"TOWNNAME":"仁德區","LI":"中洲里","LIN":"4鄰","STREET":" ","SECT":" ","MAREA":"中洲","LANE":" ","ALLEY":" ","HOUSE_NO":"４３號之１","E_COORD97":173169.09288899999,"N_COORD97":2534344.98288,"ADDRESS":"中洲４３號之１","OBJECTID":648651},"geometry":{"x":173169.09288899973,"y":2534344.9828770012}},{"attributes":{"ID":648679,"DIS_CODE":0,"TOWNNAME":"東山區","LI":"東原里","LIN":"15鄰","STREET":" ","SECT":" ","MAREA":"瓦厝子","LANE":" ","ALLEY":" ","HOUSE_NO":"６號之１５","E_COORD97":193658.69667,"N_COORD97":2574255.37787,"ADDRESS":"瓦厝子６號之１５","OBJECTID":648652},"geometry":{"x":193658.69667000137,"y":2574255.3778700009}},{"attributes":{"ID":648680,"DIS_CODE":0,"TOWNNAME":"安平區","LI":"億載里","LIN":"9鄰","STREET":"永華十一街","SECT":" ","MAREA":" ","LANE":"１７巷","ALLEY":" ","HOUSE_NO":"４１號","E_COORD97":163986.28249899999,"N_COORD97":2543418.9304399998,"ADDRESS":"永華十一街１７巷４１號","OBJECTID":648653},"geometry":{"x":163986.28249900136,"y":2543418.9304380007}},{"attributes":{"ID":648681,"DIS_CODE":0,"TOWNNAME":"安平區","LI":"億載里","LIN":"9鄰","STREET":"永華十一街","SECT":" ","MAREA":" ","LANE":"１７巷","ALLEY":" ","HOUSE_NO":"４３號","E_COORD97":163982.25625599999,"N_COORD97":2543418.7187700002,"ADDRESS":"永華十一街１７巷４３號","OBJECTID":648654},"geometry":{"x":163982.25625600107,"y":2543418.7187709995}},{"attributes":{"ID":648682,"DIS_CODE":0,"TOWNNAME":"安平區","LI":"億載里","LIN":"9鄰","STREET":"永華十一街","SECT":" ","MAREA":" ","LANE":"１７巷","ALLEY":" ","HOUSE_NO":"４５號","E_COORD97":163978.44192000001,"N_COORD97":2543418.29544,"ADDRESS":"永華十一街１７巷４５號","OBJECTID":648655},"geometry":{"x":163978.44192000106,"y":2543418.2954380009}},{"attributes":{"ID":648683,"DIS_CODE":0,"TOWNNAME":"仁德區","LI":"中洲里","LIN":"4鄰","STREET":" ","SECT":" ","MAREA":"中洲","LANE":" ","ALLEY":" ","HOUSE_NO":"４４號","E_COORD97":173188.79622700001,"N_COORD97":2534323.1812200001,"ADDRESS":"中洲４４號","OBJECTID":648656},"geometry":{"x":173188.79622700065,"y":2534323.1812229995}},{"attributes":{"ID":648684,"DIS_CODE":0,"TOWNNAME":"東山區","LI":"東原里","LIN":"15鄰","STREET":" ","SECT":" ","MAREA":"瓦厝子","LANE":" ","ALLEY":" ","HOUSE_NO":"６號之１６","E_COORD97":193662.40325,"N_COORD97":2574249.7686999999,"ADDRESS":"瓦厝子６號之１６","OBJECTID":648657},"geometry":{"x":193662.40325000044,"y":2574249.7687000036}},{"attributes":{"ID":648685,"DIS_CODE":0,"TOWNNAME":"安平區","LI":"億載里","LIN":"9鄰","STREET":"永華十一街","SECT":" ","MAREA":" ","LANE":"１７巷","ALLEY":" ","HOUSE_NO":"４７號","E_COORD97":163974.20376999999,"N_COORD97":2543417.8721099999,"ADDRESS":"永華十一街１７巷４７號","OBJECTID":648658},"geometry":{"x":163974.20377000142,"y":2543417.8721050024}},{"attributes":{"ID":648686,"DIS_CODE":0,"TOWNNAME":"安平區","LI":"億載里","LIN":"9鄰","STREET":"永華十一街","SECT":" ","MAREA":" ","LANE":"１７巷","ALLEY":" ","HOUSE_NO":"４９號","E_COORD97":163969.965619,"N_COORD97":2543418.29544,"ADDRESS":"永華十一街１７巷４９號","OBJECTID":648659},"geometry":{"x":163969.96561899967,"y":2543418.2954380009}},{"attributes":{"ID":648687,"DIS_CODE":0,"TOWNNAME":"關廟區","LI":"埤頭里","LIN":"14鄰","STREET":"關新一街","SECT":" ","MAREA":" ","LANE":"１１６巷","ALLEY":" ","HOUSE_NO":"２３號","E_COORD97":179995.109275,"N_COORD97":2543429.0358600002,"ADDRESS":"關新一街１１６巷２３號","OBJECTID":648660},"geometry":{"x":179995.1092750011,"y":2543429.035860002}},{"attributes":{"ID":648688,"DIS_CODE":0,"TOWNNAME":"安平區","LI":"億載里","LIN":"9鄰","STREET":"郡平路","SECT":" ","MAREA":" ","LANE":"４６０巷","ALLEY":" ","HOUSE_NO":"８號","E_COORD97":163962.12504099999,"N_COORD97":2543410.4637799999,"ADDRESS":"郡平路４６０巷８號","OBJECTID":648661},"geometry":{"x":163962.12504100055,"y":2543410.4637750015}},{"attributes":{"ID":648689,"DIS_CODE":0,"TOWNNAME":"仁德區","LI":"中洲里","LIN":"4鄰","STREET":" ","SECT":" ","MAREA":"中洲","LANE":" ","ALLEY":" ","HOUSE_NO":"４５號之３","E_COORD97":173189.43181899999,"N_COORD97":2534300.9562300001,"ADDRESS":"中洲４５號之３","OBJECTID":648662},"geometry":{"x":173189.43181900121,"y":2534300.9562349971}},{"attributes":{"ID":648690,"DIS_CODE":0,"TOWNNAME":"關廟區","LI":"埤頭里","LIN":"14鄰","STREET":"關新一街","SECT":" ","MAREA":" ","LANE":" ","ALLEY":" ","HOUSE_NO":"１２５號","E_COORD97":180142.56899999999,"N_COORD97":2543717.53737,"ADDRESS":"關新一街１２５號","OBJECTID":648663},"geometry":{"x":180142.56900000013,"y":2543717.5373710021}},{"attributes":{"ID":648691,"DIS_CODE":0,"TOWNNAME":"仁德區","LI":"中洲里","LIN":"4鄰","STREET":" ","SECT":" ","MAREA":"中洲","LANE":" ","ALLEY":" ","HOUSE_NO":"３１號","E_COORD97":173247.69437700001,"N_COORD97":2534376.0978600001,"ADDRESS":"中洲３１號","OBJECTID":648664},"geometry":{"x":173247.69437700231,"y":2534376.0978609994}},{"attributes":{"ID":648692,"DIS_CODE":0,"TOWNNAME":"中西區","LI":"光賢里","LIN":"4鄰","STREET":"武聖路","SECT":" ","MAREA":" ","LANE":"４５巷","ALLEY":" ","HOUSE_NO":"６號","E_COORD97":167193.475255,"N_COORD97":2545090.16157,"ADDRESS":"武聖路４５巷６號","OBJECTID":648665},"geometry":{"x":167193.47525500227,"y":2545090.161569003}},{"attributes":{"ID":648693,"DIS_CODE":0,"TOWNNAME":"中西區","LI":"光賢里","LIN":"4鄰","STREET":"武聖路","SECT":" ","MAREA":" ","LANE":"４５巷","ALLEY":" ","HOUSE_NO":"２號","E_COORD97":167198.77209700001,"N_COORD97":2545097.78156,"ADDRESS":"武聖路４５巷２號","OBJECTID":648666},"geometry":{"x":167198.77209700178,"y":2545097.7815650012}},{"attributes":{"ID":648694,"DIS_CODE":0,"TOWNNAME":"關廟區","LI":"埤頭里","LIN":"14鄰","STREET":"關新一街","SECT":" ","MAREA":" ","LANE":" ","ALLEY":" ","HOUSE_NO":"１２５號","E_COORD97":180142.56899999999,"N_COORD97":2543717.53737,"ADDRESS":"關新一街１２５號","OBJECTID":648667},"geometry":{"x":180142.56900000013,"y":2543717.5373710021}},{"attributes":{"ID":648695,"DIS_CODE":0,"TOWNNAME":"關廟區","LI":"埤頭里","LIN":"14鄰","STREET":"關新一街","SECT":" ","MAREA":" ","LANE":"７５巷","ALLEY":" ","HOUSE_NO":"３０號","E_COORD97":179882.47474400001,"N_COORD97":2544158.8601500001,"ADDRESS":"關新一街７５巷３０號","OBJECTID":648668},"geometry":{"x":179882.47474400047,"y":2544158.860154001}},{"attributes":{"ID":648696,"DIS_CODE":0,"TOWNNAME":"仁德區","LI":"中洲里","LIN":"5鄰","STREET":" ","SECT":" ","MAREA":"中洲","LANE":" ","ALLEY":" ","HOUSE_NO":"２５２號之１","E_COORD97":173223.33003499999,"N_COORD97":2534071.0863600001,"ADDRESS":"中洲２５２號之１","OBJECTID":648669},"geometry":{"x":173223.33003500011,"y":2534071.0863590017}},{"attributes":{"ID":648697,"DIS_CODE":0,"TOWNNAME":"關廟區","LI":"埤頭里","LIN":"14鄰","STREET":"關新一街","SECT":" ","MAREA":" ","LANE":"７５巷","ALLEY":" ","HOUSE_NO":"６６號","E_COORD97":180064.54889800001,"N_COORD97":2544184.6326100002,"ADDRESS":"關新一街７５巷６６號","OBJECTID":648670},"geometry":{"x":180064.54889800027,"y":2544184.6326100025}},{"attributes":{"ID":648698,"DIS_CODE":0,"TOWNNAME":"中西區","LI":"小西里","LIN":"8鄰","STREET":"西門路","SECT":"一段","MAREA":" ","LANE":"６７６巷","ALLEY":" ","HOUSE_NO":"１號","E_COORD97":167762.64267299999,"N_COORD97":2543310.5875900001,"ADDRESS":"西門路一段６７６巷１號","OBJECTID":648671},"geometry":{"x":167762.64267299976,"y":2543310.5875870027}},{"attributes":{"ID":648699,"DIS_CODE":0,"TOWNNAME":"仁德區","LI":"中洲里","LIN":"5鄰","STREET":" ","SECT":" ","MAREA":"中洲","LANE":" ","ALLEY":" ","HOUSE_NO":"２５６號","E_COORD97":173239.64355099999,"N_COORD97":2534099.8730100002,"ADDRESS":"中洲２５６號","OBJECTID":648672},"geometry":{"x":173239.64355100133,"y":2534099.8730100021}},{"attributes":{"ID":648700,"DIS_CODE":0,"TOWNNAME":"仁德區","LI":"中洲里","LIN":"5鄰","STREET":" ","SECT":" ","MAREA":"中洲","LANE":" ","ALLEY":" ","HOUSE_NO":"２５７號","E_COORD97":173237.10118500001,"N_COORD97":2534109.398,"ADDRESS":"中洲２５７號","OBJECTID":648673},"geometry":{"x":173237.10118500143,"y":2534109.3980050012}},{"attributes":{"ID":648701,"DIS_CODE":0,"TOWNNAME":"關廟區","LI":"埤頭里","LIN":"14鄰","STREET":"關新一街","SECT":" ","MAREA":" ","LANE":"１３５巷","ALLEY":" ","HOUSE_NO":"１００號","E_COORD97":180383.72716499999,"N_COORD97":2544542.0844999999,"ADDRESS":"關新一街１３５巷１００號","OBJECTID":648674},"geometry":{"x":180383.72716499958,"y":2544542.0845010001}},{"attributes":{"ID":648702,"DIS_CODE":0,"TOWNNAME":"仁德區","LI":"中洲里","LIN":"5鄰","STREET":" ","SECT":" ","MAREA":"中洲","LANE":" ","ALLEY":" ","HOUSE_NO":"２５９號","E_COORD97":173208.49956500001,"N_COORD97":2534085.0563500002,"ADDRESS":"中洲２５９號","OBJECTID":648675},"geometry":{"x":173208.49956499971,"y":2534085.0563510042}},{"attributes":{"ID":648703,"DIS_CODE":0,"TOWNNAME":"關廟區","LI":"埤頭里","LIN":"14鄰","STREET":"關新一街","SECT":" ","MAREA":" ","LANE":"１３５巷","ALLEY":" ","HOUSE_NO":"１６８號","E_COORD97":180350.88771499999,"N_COORD97":2544745.7077199998,"ADDRESS":"關新一街１３５巷１６８號","OBJECTID":648676},"geometry":{"x":180350.88771500066,"y":2544745.7077240013}},{"attributes":{"ID":648704,"DIS_CODE":0,"TOWNNAME":"麻豆區","LI":"東角里","LIN":"15鄰","STREET":"民生路","SECT":" ","MAREA":" ","LANE":" ","ALLEY":" ","HOUSE_NO":"３９號之７","E_COORD97":173756.5257,"N_COORD97":2564567.8385899998,"ADDRESS":"民生路３９號之７","OBJECTID":648677},"geometry":{"x":173756.52570000198,"y":2564567.8385900017}},{"attributes":{"ID":648705,"DIS_CODE":0,"TOWNNAME":"仁德區","LI":"中洲里","LIN":"6鄰","STREET":" ","SECT":" ","MAREA":"中洲","LANE":" ","ALLEY":" ","HOUSE_NO":"２６９號","E_COORD97":173205.957199,"N_COORD97":2534117.86467,"ADDRESS":"中洲２６９號","OBJECTID":648678},"geometry":{"x":173205.95719900075,"y":2534117.8646670002}},{"attributes":{"ID":648706,"DIS_CODE":0,"TOWNNAME":"麻豆區","LI":"油車里","LIN":"17鄰","STREET":"新生北路","SECT":" ","MAREA":" ","LANE":" ","ALLEY":" ","HOUSE_NO":"１８２號","E_COORD97":172307.03148500001,"N_COORD97":2565400.7020399999,"ADDRESS":"新生北路１８２號","OBJECTID":648679},"geometry":{"x":172307.03148499969,"y":2565400.7020380031}},{"attributes":{"ID":648707,"DIS_CODE":0,"TOWNNAME":"關廟區","LI":"埤頭里","LIN":"14鄰","STREET":"關新一街","SECT":" ","MAREA":" ","LANE":"１６８巷","ALLEY":" ","HOUSE_NO":"１０１號","E_COORD97":180819.96218199999,"N_COORD97":2542828.0087600001,"ADDRESS":"關新一街１６８巷１０１號","OBJECTID":648680},"geometry":{"x":180819.96218200121,"y":2542828.0087599996}},{"attributes":{"ID":648708,"DIS_CODE":0,"TOWNNAME":"仁德區","LI":"中洲里","LIN":"7鄰","STREET":" ","SECT":" ","MAREA":"中洲","LANE":" ","ALLEY":" ","HOUSE_NO":"２７２號","E_COORD97":173186.46572499999,"N_COORD97":2534175.4379699999,"ADDRESS":"中洲２７２號","OBJECTID":648681},"geometry":{"x":173186.46572500002,"y":2534175.4379689991}},{"attributes":{"ID":648709,"DIS_CODE":0,"TOWNNAME":"仁德區","LI":"中洲里","LIN":"7鄰","STREET":" ","SECT":" ","MAREA":"中洲","LANE":" ","ALLEY":" ","HOUSE_NO":"２７１號","E_COORD97":173195.57587,"N_COORD97":2534156.17631,"ADDRESS":"中洲２７１號","OBJECTID":648682},"geometry":{"x":173195.57587000076,"y":2534156.1763129998}},{"attributes":{"ID":648710,"DIS_CODE":0,"TOWNNAME":"麻豆區","LI":"安正里","LIN":"4鄰","STREET":" ","SECT":" ","MAREA":"方厝寮","LANE":" ","ALLEY":" ","HOUSE_NO":"３６號之１５","E_COORD97":170753.54501500001,"N_COORD97":2562390.93726,"ADDRESS":"方厝寮３６號之１５","OBJECTID":648683},"geometry":{"x":170753.54501500074,"y":2562390.9372639991}},{"attributes":{"ID":648711,"DIS_CODE":0,"TOWNNAME":"仁德區","LI":"中洲里","LIN":"6鄰","STREET":" ","SECT":" ","MAREA":"中洲","LANE":" ","ALLEY":" ","HOUSE_NO":"２７０號","E_COORD97":173188.37249899999,"N_COORD97":2534136.9146599998,"ADDRESS":"中洲２７０號","OBJECTID":648684},"geometry":{"x":173188.37249900214,"y":2534136.9146560021}},{"attributes":{"ID":648712,"DIS_CODE":0,"TOWNNAME":"麻豆區","LI":"油車里","LIN":"17鄰","STREET":"新生北路","SECT":" ","MAREA":" ","LANE":" ","ALLEY":" ","HOUSE_NO":"３３２號","E_COORD97":172484.117623,"N_COORD97":2565549.2138899998,"ADDRESS":"新生北路３３２號","OBJECTID":648685},"geometry":{"x":172484.11762300227,"y":2565549.2138919998}},{"attributes":{"ID":648713,"DIS_CODE":0,"TOWNNAME":"麻豆區","LI":"東角里","LIN":"13鄰","STREET":"民生路","SECT":" ","MAREA":" ","LANE":" ","ALLEY":" ","HOUSE_NO":"２３號之４","E_COORD97":173620.235633,"N_COORD97":2564688.1181100002,"ADDRESS":"民生路２３號之４","OBJECTID":648686},"geometry":{"x":173620.2356329998,"y":2564688.1181080043}},{"attributes":{"ID":648714,"DIS_CODE":0,"TOWNNAME":"麻豆區","LI":"油車里","LIN":"17鄰","STREET":"新生北路","SECT":" ","MAREA":" ","LANE":" ","ALLEY":" ","HOUSE_NO":"３３４號","E_COORD97":172488.88474800001,"N_COORD97":2565549.3726400002,"ADDRESS":"新生北路３３４號","OBJECTID":648687},"geometry":{"x":172488.88474799972,"y":2565549.3726410028}},{"attributes":{"ID":648715,"DIS_CODE":0,"TOWNNAME":"仁德區","LI":"中洲里","LIN":"7鄰","STREET":" ","SECT":" ","MAREA":"中洲","LANE":" ","ALLEY":" ","HOUSE_NO":"２７６號之１７","E_COORD97":173138.16076699999,"N_COORD97":2534251.4262600001,"ADDRESS":"中洲２７６號之１７","OBJECTID":648688},"geometry":{"x":173138.16076700017,"y":2534251.4262610022}},{"attributes":{"ID":648716,"DIS_CODE":0,"TOWNNAME":"麻豆區","LI":"油車里","LIN":"17鄰","STREET":"新生北路","SECT":" ","MAREA":" ","LANE":" ","ALLEY":" ","HOUSE_NO":"３３６號","E_COORD97":172492.910321,"N_COORD97":2565548.8434799998,"ADDRESS":"新生北路３３６號","OBJECTID":648689},"geometry":{"x":172492.91032100003,"y":2565548.8434749991}},{"attributes":{"ID":648717,"DIS_CODE":0,"TOWNNAME":"麻豆區","LI":"油車里","LIN":"17鄰","STREET":"新生北路","SECT":" ","MAREA":" ","LANE":" ","ALLEY":" ","HOUSE_NO":"３３８號","E_COORD97":172497.57151099999,"N_COORD97":2565548.7376399999,"ADDRESS":"新生北路３３８號","OBJECTID":648690},"geometry":{"x":172497.57151100039,"y":2565548.7376419976}},{"attributes":{"ID":648718,"DIS_CODE":0,"TOWNNAME":"仁德區","LI":"中洲里","LIN":"7鄰","STREET":" ","SECT":" ","MAREA":"中洲","LANE":" ","ALLEY":" ","HOUSE_NO":"２７５號之７","E_COORD97":173179.68608099999,"N_COORD97":2534206.5529499999,"ADDRESS":"中洲２７５號之７","OBJECTID":648691},"geometry":{"x":173179.6860810006,"y":2534206.552951999}},{"attributes":{"ID":648719,"DIS_CODE":0,"TOWNNAME":"麻豆區","LI":"油車里","LIN":"17鄰","STREET":"新生北路","SECT":" ","MAREA":" ","LANE":" ","ALLEY":" ","HOUSE_NO":"３４０號","E_COORD97":172501.38521199999,"N_COORD97":2565548.6318100002,"ADDRESS":"新生北路３４０號","OBJECTID":648692},"geometry":{"x":172501.38521200139,"y":2565548.6318090018}},{"attributes":{"ID":648720,"DIS_CODE":0,"TOWNNAME":"麻豆區","LI":"油車里","LIN":"17鄰","STREET":"新生北路","SECT":" ","MAREA":" ","LANE":" ","ALLEY":" ","HOUSE_NO":"３４２號","E_COORD97":172506.47014600001,"N_COORD97":2565548.1026400002,"ADDRESS":"新生北路３４２號","OBJECTID":648693},"geometry":{"x":172506.47014600132,"y":2565548.1026419979}},{"attributes":{"ID":648721,"DIS_CODE":0,"TOWNNAME":"麻豆區","LI":"油車里","LIN":"17鄰","STREET":"新生北路","SECT":" ","MAREA":" ","LANE":" ","ALLEY":" ","HOUSE_NO":"３４６號","E_COORD97":172510.70759100001,"N_COORD97":2565548.20848,"ADDRESS":"新生北路３４６號","OBJECTID":648694},"geometry":{"x":172510.70759100094,"y":2565548.2084750049}},{"attributes":{"ID":648722,"DIS_CODE":0,"TOWNNAME":"麻豆區","LI":"油車里","LIN":"17鄰","STREET":"新生北路","SECT":" ","MAREA":" ","LANE":" ","ALLEY":" ","HOUSE_NO":"３４８號","E_COORD97":172515.58065300001,"N_COORD97":2565547.8909800001,"ADDRESS":"新生北路３４８號","OBJECTID":648695},"geometry":{"x":172515.58065299969,"y":2565547.8909760006}},{"attributes":{"ID":648723,"DIS_CODE":0,"TOWNNAME":"仁德區","LI":"中洲里","LIN":"7鄰","STREET":" ","SECT":" ","MAREA":"中洲","LANE":" ","ALLEY":" ","HOUSE_NO":"２７６號","E_COORD97":173177.991171,"N_COORD97":2534254.6012599999,"ADDRESS":"中洲２７６號","OBJECTID":648696},"geometry":{"x":173177.99117099959,"y":2534254.6012600008}},{"attributes":{"ID":648724,"DIS_CODE":0,"TOWNNAME":"麻豆區","LI":"東角里","LIN":"11鄰","STREET":"國中街","SECT":" ","MAREA":" ","LANE":"１２１巷","ALLEY":" ","HOUSE_NO":"３０號","E_COORD97":174056.99960400001,"N_COORD97":2564504.8148699999,"ADDRESS":"國中街１２１巷３０號","OBJECTID":648697},"geometry":{"x":174056.99960400071,"y":2564504.8148740008}},{"attributes":{"ID":648725,"DIS_CODE":0,"TOWNNAME":"仁德區","LI":"中洲里","LIN":"8鄰","STREET":" ","SECT":" ","MAREA":"中洲","LANE":" ","ALLEY":" ","HOUSE_NO":"２８２號","E_COORD97":173204.89788,"N_COORD97":2534165.9129699999,"ADDRESS":"中洲２８２號","OBJECTID":648698},"geometry":{"x":173204.89788000006,"y":2534165.912974}},{"attributes":{"ID":648726,"DIS_CODE":0,"TOWNNAME":"麻豆區","LI":"油車里","LIN":"16鄰","STREET":" ","SECT":" ","MAREA":"油車","LANE":" ","ALLEY":" ","HOUSE_NO":"１２３號之２６","E_COORD97":172491.42721600001,"N_COORD97":2565532.12182,"ADDRESS":"油車１２３號之２６","OBJECTID":648699},"geometry":{"x":172491.42721600085,"y":2565532.1218170002}},{"attributes":{"ID":648727,"DIS_CODE":0,"TOWNNAME":"關廟區","LI":"埤頭里","LIN":"14鄰","STREET":"關新一街","SECT":" ","MAREA":" ","LANE":" ","ALLEY":" ","HOUSE_NO":"２３９號","E_COORD97":181155.24237399999,"N_COORD97":2544468.1599599998,"ADDRESS":"關新一街２３９號","OBJECTID":648700},"geometry":{"x":181155.24237400107,"y":2544468.159957001}},{"attributes":{"ID":648728,"DIS_CODE":0,"TOWNNAME":"關廟區","LI":"埤頭里","LIN":"14鄰","STREET":"關新一街","SECT":" ","MAREA":" ","LANE":" ","ALLEY":" ","HOUSE_NO":"２５０號","E_COORD97":181195.49718400001,"N_COORD97":2544482.4474499999,"ADDRESS":"關新一街２５０號","OBJECTID":648701},"geometry":{"x":181195.49718400091,"y":2544482.4474500008}},{"attributes":{"ID":648729,"DIS_CODE":0,"TOWNNAME":"關廟區","LI":"埤頭里","LIN":"14鄰","STREET":"關新一街","SECT":" ","MAREA":" ","LANE":" ","ALLEY":" ","HOUSE_NO":"２５８號","E_COORD97":181221.55687599999,"N_COORD97":2544507.1066000001,"ADDRESS":"關新一街２５８號","OBJECTID":648702},"geometry":{"x":181221.55687600002,"y":2544507.1066030003}},{"attributes":{"ID":648730,"DIS_CODE":0,"TOWNNAME":"關廟區","LI":"埤頭里","LIN":"14鄰","STREET":"關新一街","SECT":" ","MAREA":" ","LANE":" ","ALLEY":" ","HOUSE_NO":"２６８號","E_COORD97":181342.74504000001,"N_COORD97":2544489.1149499998,"ADDRESS":"關新一街２６８號","OBJECTID":648703},"geometry":{"x":181342.74504000042,"y":2544489.1149460021}},{"attributes":{"ID":648731,"DIS_CODE":0,"TOWNNAME":"仁德區","LI":"中洲里","LIN":"1鄰","STREET":" ","SECT":" ","MAREA":"中洲","LANE":" ","ALLEY":" ","HOUSE_NO":"１之１２１號","E_COORD97":174682.22450000001,"N_COORD97":2534383.29452,"ADDRESS":"中洲１之１２１號","OBJECTID":648704},"geometry":{"x":174682.22450000141,"y":2534383.2945200037}},{"attributes":{"ID":648732,"DIS_CODE":0,"TOWNNAME":"仁德區","LI":"中洲里","LIN":"1鄰","STREET":" ","SECT":" ","MAREA":"中洲","LANE":" ","ALLEY":" ","HOUSE_NO":"１之１１５號","E_COORD97":174713.79222,"N_COORD97":2534389.0095199998,"ADDRESS":"中洲１之１１５號","OBJECTID":648705},"geometry":{"x":174713.79222000204,"y":2534389.0095199998}},{"attributes":{"ID":648733,"DIS_CODE":0,"TOWNNAME":"關廟區","LI":"埤頭里","LIN":"14鄰","STREET":"關新一街","SECT":" ","MAREA":" ","LANE":" ","ALLEY":" ","HOUSE_NO":"２７６號","E_COORD97":181386.283795,"N_COORD97":2544522.8757600002,"ADDRESS":"關新一街２７６號","OBJECTID":648706},"geometry":{"x":181386.28379500005,"y":2544522.8757610004}},{"attributes":{"ID":648734,"DIS_CODE":0,"TOWNNAME":"關廟區","LI":"埤頭里","LIN":"14鄰","STREET":"關新一街","SECT":" ","MAREA":" ","LANE":" ","ALLEY":" ","HOUSE_NO":"２６７號","E_COORD97":181357.257958,"N_COORD97":2544572.7232300001,"ADDRESS":"關新一街２６７號","OBJECTID":648707},"geometry":{"x":181357.25795799959,"y":2544572.7232339997}},{"attributes":{"ID":648735,"DIS_CODE":0,"TOWNNAME":"仁德區","LI":"中洲里","LIN":"1鄰","STREET":" ","SECT":" ","MAREA":"中洲","LANE":" ","ALLEY":" ","HOUSE_NO":"１之１０２號","E_COORD97":174682.86009999999,"N_COORD97":2534473.8878000001,"ADDRESS":"中洲１之１０２號","OBJECTID":648708},"geometry":{"x":174682.86010000017,"y":2534473.8878000025}},{"attributes":{"ID":648736,"DIS_CODE":0,"TOWNNAME":"關廟區","LI":"埤頭里","LIN":"14鄰","STREET":"關新一街","SECT":" ","MAREA":" ","LANE":"２８８巷","ALLEY":" ","HOUSE_NO":"６號","E_COORD97":181442.11085999999,"N_COORD97":2544475.0391199999,"ADDRESS":"關新一街２８８巷６號","OBJECTID":648709},"geometry":{"x":181442.11085999943,"y":2544475.0391199999}},{"attributes":{"ID":648737,"DIS_CODE":0,"TOWNNAME":"關廟區","LI":"埤頭里","LIN":"14鄰","STREET":"關新一街","SECT":" ","MAREA":" ","LANE":"２８８巷","ALLEY":" ","HOUSE_NO":"１８號","E_COORD97":181457.89498300001,"N_COORD97":2544472.92246,"ADDRESS":"關新一街２８８巷１８號","OBJECTID":648710},"geometry":{"x":181457.89498300012,"y":2544472.9224550016}},{"attributes":{"ID":648738,"DIS_CODE":0,"TOWNNAME":"關廟區","LI":"埤頭里","LIN":"14鄰","STREET":"關新一街","SECT":" ","MAREA":" ","LANE":"２８８巷","ALLEY":" ","HOUSE_NO":"３６號","E_COORD97":181511.07370499999,"N_COORD97":2544324.0679500001,"ADDRESS":"關新一街２８８巷３６號","OBJECTID":648711},"geometry":{"x":181511.0737050008,"y":2544324.0679520015}},{"attributes":{"ID":648739,"DIS_CODE":0,"TOWNNAME":"仁德區","LI":"中洲里","LIN":"1鄰","STREET":" ","SECT":" ","MAREA":"中洲","LANE":" ","ALLEY":" ","HOUSE_NO":"１之１２２號","E_COORD97":174676.64654300001,"N_COORD97":2534465.2224099999,"ADDRESS":"中洲１之１２２號","OBJECTID":648712},"geometry":{"x":174676.64654299989,"y":2534465.2224090006}},{"attributes":{"ID":648740,"DIS_CODE":0,"TOWNNAME":"關廟區","LI":"埤頭里","LIN":"14鄰","STREET":"關新一街","SECT":" ","MAREA":" ","LANE":" ","ALLEY":" ","HOUSE_NO":"３０２號","E_COORD97":181493.27684199999,"N_COORD97":2544548.3286600001,"ADDRESS":"關新一街３０２號","OBJECTID":648713},"geometry":{"x":181493.27684200089,"y":2544548.3286640048}},{"attributes":{"ID":648741,"DIS_CODE":0,"TOWNNAME":"關廟區","LI":"布袋里","LIN":"2鄰","STREET":"長裕街","SECT":" ","MAREA":" ","LANE":" ","ALLEY":" ","HOUSE_NO":"２８５號","E_COORD97":181686.21325999999,"N_COORD97":2535855.5865000002,"ADDRESS":"長裕街２８５號","OBJECTID":648714},"geometry":{"x":181686.21326000057,"y":2535855.5865000002}},{"attributes":{"ID":648742,"DIS_CODE":0,"TOWNNAME":"關廟區","LI":"布袋里","LIN":"2鄰","STREET":"長裕街","SECT":" ","MAREA":" ","LANE":" ","ALLEY":" ","HOUSE_NO":"２８１號","E_COORD97":181726.48201599999,"N_COORD97":2535890.5114799999,"ADDRESS":"長裕街２８１號","OBJECTID":648715},"geometry":{"x":181726.48201599997,"y":2535890.5114810038}},{"attributes":{"ID":648743,"DIS_CODE":0,"TOWNNAME":"仁德區","LI":"中洲里","LIN":"1鄰","STREET":" ","SECT":" ","MAREA":"中洲","LANE":" ","ALLEY":" ","HOUSE_NO":"１號之３５","E_COORD97":174263.30017,"N_COORD97":2534704.4056099998,"ADDRESS":"中洲１號之３５","OBJECTID":648716},"geometry":{"x":174263.30017000157,"y":2534704.4056129996}},{"attributes":{"ID":648744,"DIS_CODE":0,"TOWNNAME":"關廟區","LI":"埤頭里","LIN":"14鄰","STREET":"關新一街","SECT":" ","MAREA":" ","LANE":" ","ALLEY":" ","HOUSE_NO":"３１２號","E_COORD97":181532.47231400001,"N_COORD97":2544602.46239,"ADDRESS":"關新一街３１２號","OBJECTID":648717},"geometry":{"x":181532.47231400013,"y":2544602.4623850025}},{"attributes":{"ID":648745,"DIS_CODE":0,"TOWNNAME":"關廟區","LI":"布袋里","LIN":"2鄰","STREET":"長裕街","SECT":" ","MAREA":" ","LANE":"２７７巷","ALLEY":" ","HOUSE_NO":"３５號","E_COORD97":181733.47605999999,"N_COORD97":2535748.0598900001,"ADDRESS":"長裕街２７７巷巷３５號","OBJECTID":648718},"geometry":{"x":181733.47606000211,"y":2535748.0598900001}},{"attributes":{"ID":648746,"DIS_CODE":0,"TOWNNAME":"關廟區","LI":"埤頭里","LIN":"14鄰","STREET":"關新一街","SECT":" ","MAREA":" ","LANE":" ","ALLEY":" ","HOUSE_NO":"３１６號","E_COORD97":181547.408967,"N_COORD97":2544609.1298799999,"ADDRESS":"關新一街３１６號","OBJECTID":648719},"geometry":{"x":181547.40896700043,"y":2544609.1298810001}},{"attributes":{"ID":648747,"DIS_CODE":0,"TOWNNAME":"安南區","LI":"學東里","LIN":"12鄰","STREET":"公學路","SECT":"六段","MAREA":" ","LANE":"７２１巷","ALLEY":" ","HOUSE_NO":"８４之１號","E_COORD97":161957.97320899999,"N_COORD97":2553089.1134100002,"ADDRESS":"公學路六段７２１巷８４之１號","OBJECTID":648720},"geometry":{"x":161957.97320900112,"y":2553089.1134100016}},{"attributes":{"ID":648748,"DIS_CODE":0,"TOWNNAME":"關廟區","LI":"埤頭里","LIN":"14鄰","STREET":"關新一街","SECT":" ","MAREA":" ","LANE":" ","ALLEY":" ","HOUSE_NO":"３２８號","E_COORD97":181575.693268,"N_COORD97":2544640.3506999998,"ADDRESS":"關新一街３２８號","OBJECTID":648721},"geometry":{"x":181575.69326800108,"y":2544640.350697998}},{"attributes":{"ID":648749,"DIS_CODE":0,"TOWNNAME":"仁德區","LI":"中洲里","LIN":"1鄰","STREET":" ","SECT":" ","MAREA":"中洲","LANE":" ","ALLEY":" ","HOUSE_NO":"１之１０９號","E_COORD97":174128.55476200001,"N_COORD97":2534799.0205600001,"ADDRESS":"中洲１之１０９號","OBJECTID":648722},"geometry":{"x":174128.55476200115,"y":2534799.0205620006}},{"attributes":{"ID":648750,"DIS_CODE":0,"TOWNNAME":"下營區","LI":"大埤里","LIN":"3鄰","STREET":" ","SECT":" ","MAREA":"大埤寮","LANE":" ","ALLEY":" ","HOUSE_NO":"２４號","E_COORD97":173076.62796000001,"N_COORD97":2569800.7179999999,"ADDRESS":"大埤寮２４號","OBJECTID":648723},"geometry":{"x":173076.62796000112,"y":2569800.7179980017}},{"attributes":{"ID":648751,"DIS_CODE":0,"TOWNNAME":"仁德區","LI":"中洲里","LIN":"1鄰","STREET":" ","SECT":" ","MAREA":"中洲","LANE":" ","ALLEY":" ","HOUSE_NO":"１之１１０號","E_COORD97":174126.012395,"N_COORD97":2534819.1288800002,"ADDRESS":"中洲１之１１０號","OBJECTID":648724},"geometry":{"x":174126.01239500009,"y":2534819.1288840007}},{"attributes":{"ID":648752,"DIS_CODE":0,"TOWNNAME":"仁德區","LI":"成功里","LIN":"38鄰","STREET":"保華路","SECT":" ","MAREA":" ","LANE":"２巷","ALLEY":" ","HOUSE_NO":"１７號","E_COORD97":170766.86499900001,"N_COORD97":2540058.75544,"ADDRESS":"保華路２巷１７號","OBJECTID":648725},"geometry":{"x":170766.86499900091,"y":2540058.7554410007}},{"attributes":{"ID":648753,"DIS_CODE":0,"TOWNNAME":"仁德區","LI":"成功里","LIN":"38鄰","STREET":"保華路","SECT":" ","MAREA":" ","LANE":"２巷","ALLEY":" ","HOUSE_NO":"１９號","E_COORD97":170761.99350700001,"N_COORD97":2540059.04648,"ADDRESS":"保華路２巷１９號","OBJECTID":648726},"geometry":{"x":170761.99350699969,"y":2540059.0464830026}},{"attributes":{"ID":648754,"DIS_CODE":0,"TOWNNAME":"關廟區","LI":"埤頭里","LIN":"14鄰","STREET":"關新一街","SECT":" ","MAREA":" ","LANE":" ","ALLEY":" ","HOUSE_NO":"３６８號","E_COORD97":181417.11050400001,"N_COORD97":2545043.3373599998,"ADDRESS":"關新一街３６８號","OBJECTID":648727},"geometry":{"x":181417.11050400045,"y":2545043.337354999}},{"attributes":{"ID":648755,"DIS_CODE":0,"TOWNNAME":"關廟區","LI":"布袋里","LIN":"2鄰","STREET":"長裕街","SECT":" ","MAREA":" ","LANE":"２２１巷","ALLEY":"８５弄","HOUSE_NO":"５８號","E_COORD97":181948.59599999999,"N_COORD97":2535389.4967499999,"ADDRESS":"長裕街２２１巷巷８５弄弄５８號","OBJECTID":648728},"geometry":{"x":181948.5959999999,"y":2535389.4967500009}},{"attributes":{"ID":648756,"DIS_CODE":0,"TOWNNAME":"關廟區","LI":"埤頭里","LIN":"14鄰","STREET":"關新一街","SECT":" ","MAREA":" ","LANE":" ","ALLEY":" ","HOUSE_NO":"３７０號","E_COORD97":181400.26704499999,"N_COORD97":2545036.3523599999,"ADDRESS":"關新一街３７０號","OBJECTID":648729},"geometry":{"x":181400.26704500057,"y":2545036.3523590006}},{"attributes":{"ID":648757,"DIS_CODE":0,"TOWNNAME":"仁德區","LI":"成功里","LIN":"38鄰","STREET":"保華路","SECT":" ","MAREA":" ","LANE":"２巷","ALLEY":" ","HOUSE_NO":"２１號","E_COORD97":170757.06906400001,"N_COORD97":2540059.4169000001,"ADDRESS":"保華路２巷２１號","OBJECTID":648730},"geometry":{"x":170757.06906399969,"y":2540059.4168990031}},{"attributes":{"ID":648758,"DIS_CODE":0,"TOWNNAME":"仁德區","LI":"成功里","LIN":"38鄰","STREET":"保華路","SECT":" ","MAREA":" ","LANE":"２巷","ALLEY":" ","HOUSE_NO":"２３號","E_COORD97":170752.727082,"N_COORD97":2540059.7873200001,"ADDRESS":"保華路２巷２３號","OBJECTID":648731},"geometry":{"x":170752.72708200011,"y":2540059.787316002}},{"attributes":{"ID":648759,"DIS_CODE":0,"TOWNNAME":"仁德區","LI":"成功里","LIN":"38鄰","STREET":"保華路","SECT":" ","MAREA":" ","LANE":"２巷","ALLEY":" ","HOUSE_NO":"２５號","E_COORD97":170748.22624799999,"N_COORD97":2540060.2106499998,"ADDRESS":"保華路２巷２５號","OBJECTID":648732},"geometry":{"x":170748.22624800168,"y":2540060.2106490005}},{"attributes":{"ID":648760,"DIS_CODE":0,"TOWNNAME":"仁德區","LI":"成功里","LIN":"38鄰","STREET":"保華路","SECT":" ","MAREA":" ","LANE":"２巷","ALLEY":" ","HOUSE_NO":"２７號","E_COORD97":170743.67246199999,"N_COORD97":2540060.6339799999,"ADDRESS":"保華路２巷２７號","OBJECTID":648733},"geometry":{"x":170743.67246199958,"y":2540060.633981999}},{"attributes":{"ID":648761,"DIS_CODE":0,"TOWNNAME":"仁德區","LI":"成功里","LIN":"38鄰","STREET":"保華路","SECT":" ","MAREA":" ","LANE":"２巷","ALLEY":" ","HOUSE_NO":"２９號","E_COORD97":170738.80097000001,"N_COORD97":2540061.1631499999,"ADDRESS":"保華路２巷２９號","OBJECTID":648734},"geometry":{"x":170738.80097000115,"y":2540061.1631480027}},{"attributes":{"ID":648762,"DIS_CODE":0,"TOWNNAME":"關廟區","LI":"埤頭里","LIN":"14鄰","STREET":" ","SECT":" ","MAREA":"埤頭","LANE":" ","ALLEY":" ","HOUSE_NO":"１４６號","E_COORD97":181253.336989,"N_COORD97":2545046.5652700001,"ADDRESS":"埤頭１４６號","OBJECTID":648735},"geometry":{"x":181253.33698900137,"y":2545046.5652700011}},{"attributes":{"ID":648763,"DIS_CODE":0,"TOWNNAME":"仁德區","LI":"成功里","LIN":"38鄰","STREET":"保華路","SECT":" ","MAREA":" ","LANE":"２巷","ALLEY":" ","HOUSE_NO":"３１號","E_COORD97":170735.0944,"N_COORD97":2540061.6394000002,"ADDRESS":"保華路２巷３１號","OBJECTID":648736},"geometry":{"x":170735.0943999989,"y":2540061.6393980049}},{"attributes":{"ID":648764,"DIS_CODE":0,"TOWNNAME":"仁德區","LI":"成功里","LIN":"38鄰","STREET":"保華路","SECT":" ","MAREA":" ","LANE":"２巷","ALLEY":" ","HOUSE_NO":"３３號","E_COORD97":170729.85225,"N_COORD97":2540061.9039799999,"ADDRESS":"保華路２巷３３號","OBJECTID":648737},"geometry":{"x":170729.85225000232,"y":2540061.9039799999}},{"attributes":{"ID":648765,"DIS_CODE":0,"TOWNNAME":"仁德區","LI":"一甲里","LIN":"19鄰","STREET":"中正路","SECT":"三段","MAREA":" ","LANE":" ","ALLEY":" ","HOUSE_NO":"３２７號","E_COORD97":173735.35565499999,"N_COORD97":2542287.4451299999,"ADDRESS":"中正路三段３２７號","OBJECTID":648738},"geometry":{"x":173735.35565499961,"y":2542287.445133999}},{"attributes":{"ID":648766,"DIS_CODE":0,"TOWNNAME":"仁德區","LI":"成功里","LIN":"38鄰","STREET":"保華路","SECT":" ","MAREA":" ","LANE":"２巷","ALLEY":" ","HOUSE_NO":"３５號","E_COORD97":170729.85225200001,"N_COORD97":2540061.9039799999,"ADDRESS":"保華路２巷３５號","OBJECTID":648739},"geometry":{"x":170729.85225200094,"y":2540061.9039810002}},{"attributes":{"ID":648767,"DIS_CODE":0,"TOWNNAME":"仁德區","LI":"一甲里","LIN":"19鄰","STREET":"中正路","SECT":"三段","MAREA":" ","LANE":" ","ALLEY":" ","HOUSE_NO":"３２９號","E_COORD97":173745.31533899999,"N_COORD97":2542304.3784599998,"ADDRESS":"中正路三段３２９號","OBJECTID":648740},"geometry":{"x":173745.3153390009,"y":2542304.3784580007}},{"attributes":{"ID":648768,"DIS_CODE":0,"TOWNNAME":"仁德區","LI":"一甲里","LIN":"19鄰","STREET":"中正路","SECT":"三段","MAREA":" ","LANE":" ","ALLEY":" ","HOUSE_NO":"３４７號","E_COORD97":173812.06641199999,"N_COORD97":2542399.2050700001,"ADDRESS":"中正路三段３４７號","OBJECTID":648741},"geometry":{"x":173812.06641199999,"y":2542399.205074003}},{"attributes":{"ID":648769,"DIS_CODE":0,"TOWNNAME":"關廟區","LI":"布袋里","LIN":"6鄰","STREET":"南雄南路","SECT":" ","MAREA":" ","LANE":"３２１巷","ALLEY":" ","HOUSE_NO":"７號","E_COORD97":183594.31650700001,"N_COORD97":2535030.51028,"ADDRESS":"南雄南路３２１巷７號","OBJECTID":648742},"geometry":{"x":183594.31650700141,"y":2535030.5102789998}},{"attributes":{"ID":648770,"DIS_CODE":0,"TOWNNAME":"關廟區","LI":"埤頭里","LIN":"14鄰","STREET":" ","SECT":" ","MAREA":"埤頭","LANE":" ","ALLEY":" ","HOUSE_NO":"１４８之６號","E_COORD97":181217.42546100001,"N_COORD97":2545082.7602499998,"ADDRESS":"埤頭１４８之６號","OBJECTID":648743},"geometry":{"x":181217.42546100076,"y":2545082.7602500003}},{"attributes":{"ID":648771,"DIS_CODE":0,"TOWNNAME":"關廟區","LI":"布袋里","LIN":"6鄰","STREET":"南雄南路","SECT":" ","MAREA":" ","LANE":"３２１巷","ALLEY":" ","HOUSE_NO":"３號","E_COORD97":183574.394069,"N_COORD97":2535025.6419500001,"ADDRESS":"南雄南路３２１巷３號","OBJECTID":648744},"geometry":{"x":183574.39406900015,"y":2535025.6419480033}},{"attributes":{"ID":648772,"DIS_CODE":0,"TOWNNAME":"仁德區","LI":"成功里","LIN":"31鄰","STREET":"保華路","SECT":" ","MAREA":" ","LANE":"２巷","ALLEY":" ","HOUSE_NO":"３５號","E_COORD97":170725.669123,"N_COORD97":2540062.6712699998,"ADDRESS":"保華路２巷３５號","OBJECTID":648745},"geometry":{"x":170725.66912300047,"y":2540062.6712720022}},{"attributes":{"ID":648773,"DIS_CODE":0,"TOWNNAME":"仁德區","LI":"成功里","LIN":"31鄰","STREET":"保華路","SECT":" ","MAREA":" ","LANE":"２巷","ALLEY":" ","HOUSE_NO":"３７號","E_COORD97":170721.06238600001,"N_COORD97":2540063.4121099999,"ADDRESS":"保華路２巷３７號","OBJECTID":648746},"geometry":{"x":170721.0623859996,"y":2540063.4121050015}},{"attributes":{"ID":648774,"DIS_CODE":0,"TOWNNAME":"北門區","LI":"錦湖里","LIN":"15鄰","STREET":" ","SECT":" ","MAREA":"渡子頭","LANE":" ","ALLEY":" ","HOUSE_NO":"１５１號","E_COORD97":163915.21085,"N_COORD97":2578220.9498100001,"ADDRESS":"渡子頭１５１號","OBJECTID":648747},"geometry":{"x":163915.21085000131,"y":2578220.9498110022}},{"attributes":{"ID":648775,"DIS_CODE":0,"TOWNNAME":"仁德區","LI":"成功里","LIN":"31鄰","STREET":"保華路","SECT":" ","MAREA":" ","LANE":"２巷","ALLEY":" ","HOUSE_NO":"３９號","E_COORD97":170716.667453,"N_COORD97":2540063.9412699998,"ADDRESS":"保華路２巷３９號","OBJECTID":648748},"geometry":{"x":170716.66745300218,"y":2540063.9412720017}},{"attributes":{"ID":648776,"DIS_CODE":0,"TOWNNAME":"關廟區","LI":"布袋里","LIN":"6鄰","STREET":"南雄南路","SECT":" ","MAREA":" ","LANE":" ","ALLEY":" ","HOUSE_NO":"３２５號","E_COORD97":183531.582023,"N_COORD97":2535033.0502800001,"ADDRESS":"南雄南路３２５號","OBJECTID":648749},"geometry":{"x":183531.58202300034,"y":2535033.0502770003}},{"attributes":{"ID":648777,"DIS_CODE":0,"TOWNNAME":"關廟區","LI":"布袋里","LIN":"6鄰","STREET":"南雄南路","SECT":" ","MAREA":" ","LANE":" ","ALLEY":" ","HOUSE_NO":"３２９號","E_COORD97":183546.20594000001,"N_COORD97":2534999.60696,"ADDRESS":"南雄南路３２９號","OBJECTID":648750},"geometry":{"x":183546.20594000071,"y":2534999.6069619972}},{"attributes":{"ID":648778,"DIS_CODE":0,"TOWNNAME":"北門區","LI":"錦湖里","LIN":"15鄰","STREET":" ","SECT":" ","MAREA":"渡子頭","LANE":" ","ALLEY":" ","HOUSE_NO":"１５１之１號","E_COORD97":163916.27018699999,"N_COORD97":2578215.0231499998,"ADDRESS":"渡子頭１５１之１號","OBJECTID":648751},"geometry":{"x":163916.27018699981,"y":2578215.0231480002}},{"attributes":{"ID":648779,"DIS_CODE":0,"TOWNNAME":"仁德區","LI":"成功里","LIN":"31鄰","STREET":"保華路","SECT":" ","MAREA":" ","LANE":"２巷","ALLEY":" ","HOUSE_NO":"４１號","E_COORD97":170712.37842200001,"N_COORD97":2540064.1529399999,"ADDRESS":"保華路２巷４１號","OBJECTID":648752},"geometry":{"x":170712.37842200138,"y":2540064.1529380027}},{"attributes":{"ID":648780,"DIS_CODE":0,"TOWNNAME":"關廟區","LI":"布袋里","LIN":"6鄰","STREET":"南雄南路","SECT":" ","MAREA":" ","LANE":" ","ALLEY":" ","HOUSE_NO":"３３１號","E_COORD97":183550.86863800001,"N_COORD97":2534996.2203000002,"ADDRESS":"南雄南路３３１號","OBJECTID":648753},"geometry":{"x":183550.86863800138,"y":2534996.2202970013}},{"attributes":{"ID":648781,"DIS_CODE":0,"TOWNNAME":"仁德區","LI":"成功里","LIN":"31鄰","STREET":"保華路","SECT":" ","MAREA":" ","LANE":"２巷","ALLEY":" ","HOUSE_NO":"４３號","E_COORD97":170707.98349000001,"N_COORD97":2540064.4704399998,"ADDRESS":"保華路２巷４３號","OBJECTID":648754},"geometry":{"x":170707.98349000048,"y":2540064.4704379998}},{"attributes":{"ID":648782,"DIS_CODE":0,"TOWNNAME":"仁德區","LI":"成功里","LIN":"31鄰","STREET":"保華路","SECT":" ","MAREA":" ","LANE":"２巷","ALLEY":" ","HOUSE_NO":"４５號","E_COORD97":170703.21789999999,"N_COORD97":2540065.1054400001,"ADDRESS":"保華路２巷４５號","OBJECTID":648755},"geometry":{"x":170703.21789999958,"y":2540065.1054379996}},{"attributes":{"ID":648783,"DIS_CODE":0,"TOWNNAME":"仁德區","LI":"成功里","LIN":"31鄰","STREET":"保華路","SECT":" ","MAREA":" ","LANE":"２巷","ALLEY":" ","HOUSE_NO":"４７號","E_COORD97":170691.09212099999,"N_COORD97":2540064.7879400002,"ADDRESS":"保華路２巷４７號","OBJECTID":648756},"geometry":{"x":170691.0921210004,"y":2540064.7879380025}},{"attributes":{"ID":648784,"DIS_CODE":0,"TOWNNAME":"北門區","LI":"錦湖里","LIN":"15鄰","STREET":" ","SECT":" ","MAREA":"渡子頭","LANE":" ","ALLEY":" ","HOUSE_NO":"１５４之１號","E_COORD97":163873.26110100001,"N_COORD97":2578220.3148099999,"ADDRESS":"渡子頭１５４之１號","OBJECTID":648757},"geometry":{"x":163873.26110100001,"y":2578220.3148110025}},{"attributes":{"ID":648785,"DIS_CODE":0,"TOWNNAME":"仁德區","LI":"成功里","LIN":"31鄰","STREET":"保華路","SECT":" ","MAREA":" ","LANE":"２巷","ALLEY":" ","HOUSE_NO":"４９號","E_COORD97":170691.409827,"N_COORD97":2540068.9154400001,"ADDRESS":"保華路２巷４９號","OBJECTID":648758},"geometry":{"x":170691.40982700046,"y":2540068.9154359996}},{"attributes":{"ID":648786,"DIS_CODE":0,"TOWNNAME":"關廟區","LI":"埤頭里","LIN":"14鄰","STREET":" ","SECT":" ","MAREA":"埤頭","LANE":" ","ALLEY":" ","HOUSE_NO":"１４５號","E_COORD97":181350.372267,"N_COORD97":2545198.11852,"ADDRESS":"埤頭１４５號","OBJECTID":648759},"geometry":{"x":181350.37226700038,"y":2545198.1185210012}},{"attributes":{"ID":648787,"DIS_CODE":0,"TOWNNAME":"關廟區","LI":"埤頭里","LIN":"14鄰","STREET":" ","SECT":" ","MAREA":"埤頭","LANE":" ","ALLEY":" ","HOUSE_NO":"１４８之２號","E_COORD97":181174.52230899999,"N_COORD97":2545335.3313600002,"ADDRESS":"埤頭１４８之２號","OBJECTID":648760},"geometry":{"x":181174.52230900154,"y":2545335.3313640021}},{"attributes":{"ID":648788,"DIS_CODE":0,"TOWNNAME":"關廟區","LI":"埤頭里","LIN":"14鄰","STREET":" ","SECT":" ","MAREA":"埤頭","LANE":" ","ALLEY":" ","HOUSE_NO":"１４８之４號","E_COORD97":181174.31044199999,"N_COORD97":2545328.3463699999,"ADDRESS":"埤頭１４８之４號","OBJECTID":648761},"geometry":{"x":181174.3104419997,"y":2545328.3463679999}},{"attributes":{"ID":648789,"DIS_CODE":0,"TOWNNAME":"關廟區","LI":"埤頭里","LIN":"14鄰","STREET":" ","SECT":" ","MAREA":"埤頭","LANE":" ","ALLEY":" ","HOUSE_NO":"１４８之５號","E_COORD97":181173.67483900001,"N_COORD97":2545319.6680399999,"ADDRESS":"埤頭１４８之５號","OBJECTID":648762},"geometry":{"x":181173.67483900115,"y":2545319.6680390034}},{"attributes":{"ID":648790,"DIS_CODE":0,"TOWNNAME":"仁德區","LI":"中洲里","LIN":"1鄰","STREET":" ","SECT":" ","MAREA":"中洲","LANE":" ","ALLEY":" ","HOUSE_NO":"１之８２號","E_COORD97":174066.02587000001,"N_COORD97":2534843.7233299999,"ADDRESS":"中洲１之８２號","OBJECTID":648763},"geometry":{"x":174066.02587000094,"y":2534843.7233279999}},{"attributes":{"ID":648791,"DIS_CODE":0,"TOWNNAME":"仁德區","LI":"中洲里","LIN":"1鄰","STREET":" ","SECT":" ","MAREA":"中洲","LANE":" ","ALLEY":" ","HOUSE_NO":"１之８５號","E_COORD97":174039.11916100001,"N_COORD97":2534849.4383299998,"ADDRESS":"中洲１之８５號","OBJECTID":648764},"geometry":{"x":174039.11916100048,"y":2534849.4383249991}},{"attributes":{"ID":648792,"DIS_CODE":0,"TOWNNAME":"關廟區","LI":"埤頭里","LIN":"14鄰","STREET":" ","SECT":" ","MAREA":"埤頭","LANE":" ","ALLEY":" ","HOUSE_NO":"１４８之１號","E_COORD97":181013.39713600001,"N_COORD97":2545337.9772000001,"ADDRESS":"埤頭１４８之１號","OBJECTID":648765},"geometry":{"x":181013.39713600185,"y":2545337.9771960024}},{"attributes":{"ID":648793,"DIS_CODE":0,"TOWNNAME":"關廟區","LI":"埤頭里","LIN":"14鄰","STREET":" ","SECT":" ","MAREA":"埤頭","LANE":" ","ALLEY":" ","HOUSE_NO":"１４８之３號","E_COORD97":181025.367646,"N_COORD97":2545407.1921600001,"ADDRESS":"埤頭１４８之３號","OBJECTID":648766},"geometry":{"x":181025.36764600035,"y":2545407.1921590008}},{"attributes":{"ID":648794,"DIS_CODE":0,"TOWNNAME":"關廟區","LI":"埤頭里","LIN":"14鄰","STREET":" ","SECT":" ","MAREA":"埤頭","LANE":" ","ALLEY":" ","HOUSE_NO":"１４８號","E_COORD97":181027.27445200001,"N_COORD97":2545426.13631,"ADDRESS":"埤頭１４８號","OBJECTID":648767},"geometry":{"x":181027.27445199993,"y":2545426.1363150012}},{"attributes":{"ID":648795,"DIS_CODE":0,"TOWNNAME":"關廟區","LI":"埤頭里","LIN":"14鄰","STREET":" ","SECT":" ","MAREA":"埤頭","LANE":" ","ALLEY":" ","HOUSE_NO":"１４８號","E_COORD97":181042.21110499999,"N_COORD97":2545405.8163299998,"ADDRESS":"埤頭１４８號","OBJECTID":648768},"geometry":{"x":181042.21110500023,"y":2545405.8163259998}},{"attributes":{"ID":648796,"DIS_CODE":0,"TOWNNAME":"關廟區","LI":"布袋里","LIN":"7鄰","STREET":"南雄南路","SECT":" ","MAREA":" ","LANE":"４７８巷","ALLEY":"３７弄","HOUSE_NO":"３７號","E_COORD97":183654.71964200001,"N_COORD97":2534254.3290300001,"ADDRESS":"南雄南路４７８巷３７弄３７號","OBJECTID":648769},"geometry":{"x":183654.7196420012,"y":2534254.3290309999}},{"attributes":{"ID":648797,"DIS_CODE":0,"TOWNNAME":"關廟區","LI":"布袋里","LIN":"7鄰","STREET":"南雄南路","SECT":" ","MAREA":" ","LANE":" ","ALLEY":" ","HOUSE_NO":"４７５號","E_COORD97":183869.415698,"N_COORD97":2534372.43897,"ADDRESS":"南雄南路４７５號","OBJECTID":648770},"geometry":{"x":183869.41569800209,"y":2534372.4389670026}},{"attributes":{"ID":648798,"DIS_CODE":0,"TOWNNAME":"關廟區","LI":"布袋里","LIN":"7鄰","STREET":"長富街","SECT":" ","MAREA":" ","LANE":" ","ALLEY":" ","HOUSE_NO":"３５號","E_COORD97":183583.08364299999,"N_COORD97":2534627.39133,"ADDRESS":"長富街３５號","OBJECTID":648771},"geometry":{"x":183583.08364299964,"y":2534627.3913300019}},{"attributes":{"ID":648799,"DIS_CODE":0,"TOWNNAME":"北門區","LI":"永隆里","LIN":"1鄰","STREET":" ","SECT":" ","MAREA":"北門","LANE":" ","ALLEY":" ","HOUSE_NO":"３號","E_COORD97":160364.73663199999,"N_COORD97":2574298.6627600002,"ADDRESS":"北門３號","OBJECTID":648772},"geometry":{"x":160364.73663200065,"y":2574298.6627620012}},{"attributes":{"ID":648800,"DIS_CODE":0,"TOWNNAME":"關廟區","LI":"布袋里","LIN":"8鄰","STREET":"長文街","SECT":" ","MAREA":" ","LANE":"３２６巷","ALLEY":" ","HOUSE_NO":"７１號","E_COORD97":181966.822912,"N_COORD97":2534883.1903599999,"ADDRESS":"長文街３２６巷７１號","OBJECTID":648773},"geometry":{"x":181966.82291200105,"y":2534883.1903580036}},{"attributes":{"ID":648801,"DIS_CODE":0,"TOWNNAME":"仁德區","LI":"中洲里","LIN":"1鄰","STREET":" ","SECT":" ","MAREA":"中洲","LANE":" ","ALLEY":" ","HOUSE_NO":"１之１１７號","E_COORD97":173488.596517,"N_COORD97":2534566.6236200002,"ADDRESS":"中洲１之１１７號","OBJECTID":648774},"geometry":{"x":173488.59651700035,"y":2534566.6236170009}},{"attributes":{"ID":648802,"DIS_CODE":0,"TOWNNAME":"仁德區","LI":"中洲里","LIN":"1鄰","STREET":" ","SECT":" ","MAREA":"中洲","LANE":" ","ALLEY":" ","HOUSE_NO":"１之１１８號","E_COORD97":174215.07766000001,"N_COORD97":2534746.1168499999,"ADDRESS":"中洲１之１１８號","OBJECTID":648775},"geometry":{"x":174215.07766000088,"y":2534746.1168530006}},{"attributes":{"ID":648803,"DIS_CODE":0,"TOWNNAME":"仁德區","LI":"中洲里","LIN":"1鄰","STREET":" ","SECT":" ","MAREA":"中洲","LANE":" ","ALLEY":" ","HOUSE_NO":"１號之１","E_COORD97":174176.38422499999,"N_COORD97":2534746.3414500002,"ADDRESS":"中洲１號之１","OBJECTID":648776},"geometry":{"x":174176.3842249997,"y":2534746.3414490018}},{"attributes":{"ID":648804,"DIS_CODE":0,"TOWNNAME":"仁德區","LI":"中洲里","LIN":"1鄰","STREET":" ","SECT":" ","MAREA":"中洲","LANE":" ","ALLEY":" ","HOUSE_NO":"１號之２５","E_COORD97":173697.78378699999,"N_COORD97":2534371.6916499999,"ADDRESS":"中洲１號之２５","OBJECTID":648777},"geometry":{"x":173697.78378699999,"y":2534371.6916520037}},{"attributes":{"ID":648805,"DIS_CODE":0,"TOWNNAME":"仁德區","LI":"中洲里","LIN":"9鄰","STREET":" ","SECT":" ","MAREA":"中洲","LANE":" ","ALLEY":" ","HOUSE_NO":"２９０號","E_COORD97":173301.59838700001,"N_COORD97":2534019.9018399999,"ADDRESS":"中洲２９０號","OBJECTID":648778},"geometry":{"x":173301.59838700015,"y":2534019.901842}},{"attributes":{"ID":648806,"DIS_CODE":0,"TOWNNAME":"北門區","LI":"永隆里","LIN":"16鄰","STREET":" ","SECT":" ","MAREA":"港北","LANE":" ","ALLEY":" ","HOUSE_NO":"３８之３號","E_COORD97":160864.847866,"N_COORD97":2574400.1552900001,"ADDRESS":"港北３８之３號","OBJECTID":648779},"geometry":{"x":160864.84786600061,"y":2574400.1552920043}},{"attributes":{"ID":648807,"DIS_CODE":0,"TOWNNAME":"仁德區","LI":"成功里","LIN":"38鄰","STREET":"保華路","SECT":" ","MAREA":" ","LANE":"２巷","ALLEY":" ","HOUSE_NO":"５１號","E_COORD97":170690.72413799999,"N_COORD97":2540073.6779299998,"ADDRESS":"保華路２巷５１號","OBJECTID":648780},"geometry":{"x":170690.72413800098,"y":2540073.6779330019}},{"attributes":{"ID":648808,"DIS_CODE":0,"TOWNNAME":"北門區","LI":"永隆里","LIN":"2鄰","STREET":" ","SECT":" ","MAREA":"北門","LANE":" ","ALLEY":" ","HOUSE_NO":"３４號","E_COORD97":160340.68786999999,"N_COORD97":2574414.2311200001,"ADDRESS":"北門３４號","OBJECTID":648781},"geometry":{"x":160340.68786999956,"y":2574414.231118001}},{"attributes":{"ID":648809,"DIS_CODE":0,"TOWNNAME":"仁德區","LI":"成功里","LIN":"38鄰","STREET":"保華路","SECT":" ","MAREA":" ","LANE":"２巷","ALLEY":" ","HOUSE_NO":"５３號","E_COORD97":170689.98282400001,"N_COORD97":2540079.0754300002,"ADDRESS":"保華路２巷５３號","OBJECTID":648782},"geometry":{"x":170689.9828239996,"y":2540079.0754300021}},{"attributes":{"ID":648810,"DIS_CODE":0,"TOWNNAME":"北門區","LI":"永隆里","LIN":"2鄰","STREET":" ","SECT":" ","MAREA":"北門","LANE":" ","ALLEY":" ","HOUSE_NO":"３３號","E_COORD97":160348.95069999999,"N_COORD97":2574418.67612,"ADDRESS":"北門３３號","OBJECTID":648783},"geometry":{"x":160348.95069999993,"y":2574418.6761160009}},{"attributes":{"ID":648811,"DIS_CODE":0,"TOWNNAME":"北門區","LI":"永隆里","LIN":"4鄰","STREET":" ","SECT":" ","MAREA":"北門","LANE":" ","ALLEY":" ","HOUSE_NO":"５６號","E_COORD97":160312.297636,"N_COORD97":2574445.5577699998,"ADDRESS":"北門５６號","OBJECTID":648784},"geometry":{"x":160312.29763600044,"y":2574445.5577680022}},{"attributes":{"ID":648812,"DIS_CODE":0,"TOWNNAME":"北門區","LI":"永隆里","LIN":"4鄰","STREET":" ","SECT":" ","MAREA":"北門","LANE":" ","ALLEY":" ","HOUSE_NO":"５５號","E_COORD97":160298.31438600001,"N_COORD97":2574436.3502699998,"ADDRESS":"北門５５號","OBJECTID":648785},"geometry":{"x":160298.31438600086,"y":2574436.3502730019}},{"attributes":{"ID":648813,"DIS_CODE":0,"TOWNNAME":"仁德區","LI":"中洲里","LIN":"9鄰","STREET":" ","SECT":" ","MAREA":"中洲","LANE":" ","ALLEY":" ","HOUSE_NO":"２９１號之１","E_COORD97":173326.598321,"N_COORD97":2534033.0251699998,"ADDRESS":"中洲２９１號之１","OBJECTID":648786},"geometry":{"x":173326.59832100198,"y":2534033.0251680017}},{"attributes":{"ID":648814,"DIS_CODE":0,"TOWNNAME":"仁德區","LI":"土庫里","LIN":"8鄰","STREET":"土庫五街","SECT":" ","MAREA":" ","LANE":" ","ALLEY":" ","HOUSE_NO":"６３號","E_COORD97":174028.93054100001,"N_COORD97":2543242.0955599998,"ADDRESS":"土庫五街６３號","OBJECTID":648787},"geometry":{"x":174028.93054100033,"y":2543242.095555}},{"attributes":{"ID":648815,"DIS_CODE":0,"TOWNNAME":"仁德區","LI":"土庫里","LIN":"8鄰","STREET":"土庫五街","SECT":" ","MAREA":" ","LANE":" ","ALLEY":" ","HOUSE_NO":"６１號","E_COORD97":174027.87100000001,"N_COORD97":2543236.38056,"ADDRESS":"土庫五街６１號","OBJECTID":648788},"geometry":{"x":174027.87099999934,"y":2543236.3805580009}},{"attributes":{"ID":648816,"DIS_CODE":0,"TOWNNAME":"北門區","LI":"永隆里","LIN":"3鄰","STREET":" ","SECT":" ","MAREA":"北門","LANE":" ","ALLEY":" ","HOUSE_NO":"４３號","E_COORD97":160313.35697299999,"N_COORD97":2574395.4986299998,"ADDRESS":"北門４３號","OBJECTID":648789},"geometry":{"x":160313.3569730008,"y":2574395.4986280035}},{"attributes":{"ID":648817,"DIS_CODE":0,"TOWNNAME":"仁德區","LI":"土庫里","LIN":"8鄰","STREET":"土庫五街","SECT":" ","MAREA":" ","LANE":" ","ALLEY":" ","HOUSE_NO":"５９號","E_COORD97":174027.02336699999,"N_COORD97":2543229.8188900002,"ADDRESS":"土庫五街５９號","OBJECTID":648790},"geometry":{"x":174027.02336700074,"y":2543229.8188940007}},{"attributes":{"ID":648818,"DIS_CODE":0,"TOWNNAME":"仁德區","LI":"土庫里","LIN":"8鄰","STREET":"土庫五街","SECT":" ","MAREA":" ","LANE":" ","ALLEY":" ","HOUSE_NO":"５７號","E_COORD97":174025.75191799999,"N_COORD97":2543223.4689000002,"ADDRESS":"土庫五街５７號","OBJECTID":648791},"geometry":{"x":174025.7519180011,"y":2543223.4688980021}},{"attributes":{"ID":648819,"DIS_CODE":0,"TOWNNAME":"仁德區","LI":"土庫里","LIN":"8鄰","STREET":"土庫五街","SECT":" ","MAREA":" ","LANE":" ","ALLEY":" ","HOUSE_NO":"５５號","E_COORD97":174025.328102,"N_COORD97":2543217.3305700002,"ADDRESS":"土庫五街５５號","OBJECTID":648792},"geometry":{"x":174025.32810200006,"y":2543217.3305679988}},{"attributes":{"ID":648820,"DIS_CODE":0,"TOWNNAME":"佳里區","LI":"鎮山里","LIN":"22鄰","STREET":"鎮山街","SECT":" ","MAREA":" ","LANE":" ","ALLEY":" ","HOUSE_NO":"１２１號","E_COORD97":166292.309954,"N_COORD97":2560994.9336799998,"ADDRESS":"鎮山街１２１號","OBJECTID":648793},"geometry":{"x":166292.30995400157,"y":2560994.9336770028}},{"attributes":{"ID":648821,"DIS_CODE":0,"TOWNNAME":"仁德區","LI":"土庫里","LIN":"8鄰","STREET":"土庫五街","SECT":" ","MAREA":" ","LANE":" ","ALLEY":" ","HOUSE_NO":"５３號","E_COORD97":174024.268561,"N_COORD97":2543210.9805700001,"ADDRESS":"土庫五街５３號","OBJECTID":648794},"geometry":{"x":174024.268561,"y":2543210.9805710018}},{"attributes":{"ID":648822,"DIS_CODE":0,"TOWNNAME":"佳里區","LI":"鎮山里","LIN":"22鄰","STREET":"鎮山街","SECT":" ","MAREA":" ","LANE":" ","ALLEY":" ","HOUSE_NO":"１１９號","E_COORD97":166292.309954,"N_COORD97":2560994.9336799998,"ADDRESS":"鎮山街１１９號","OBJECTID":648795},"geometry":{"x":166292.30995400157,"y":2560994.9336770028}},{"attributes":{"ID":648823,"DIS_CODE":0,"TOWNNAME":"佳里區","LI":"鎮山里","LIN":"22鄰","STREET":"鎮山街","SECT":" ","MAREA":" ","LANE":" ","ALLEY":" ","HOUSE_NO":"１２１號","E_COORD97":166292.309954,"N_COORD97":2560994.9336799998,"ADDRESS":"鎮山街１２１號","OBJECTID":648796},"geometry":{"x":166292.30995400157,"y":2560994.9336770028}},{"attributes":{"ID":648824,"DIS_CODE":0,"TOWNNAME":"仁德區","LI":"土庫里","LIN":"8鄰","STREET":"土庫五街","SECT":" ","MAREA":" ","LANE":" ","ALLEY":" ","HOUSE_NO":"５６號","E_COORD97":174039.525949,"N_COORD97":2543180.5005899998,"ADDRESS":"土庫五街５６號","OBJECTID":648797},"geometry":{"x":174039.52594900131,"y":2543180.5005880017}},{"attributes":{"ID":648825,"DIS_CODE":0,"TOWNNAME":"仁德區","LI":"土庫里","LIN":"8鄰","STREET":"土庫五街","SECT":" ","MAREA":" ","LANE":" ","ALLEY":" ","HOUSE_NO":"５８號","E_COORD97":174039.737857,"N_COORD97":2543189.3905799999,"ADDRESS":"土庫五街５８號","OBJECTID":648798},"geometry":{"x":174039.73785699997,"y":2543189.3905829992}},{"attributes":{"ID":648826,"DIS_CODE":0,"TOWNNAME":"佳里區","LI":"鎮山里","LIN":"22鄰","STREET":"鎮山街","SECT":" ","MAREA":" ","LANE":" ","ALLEY":" ","HOUSE_NO":"１１９號","E_COORD97":166292.09808699999,"N_COORD97":2560999.8020100002,"ADDRESS":"鎮山街１１９號","OBJECTID":648799},"geometry":{"x":166292.09808699973,"y":2560999.8020079993}},{"attributes":{"ID":648827,"DIS_CODE":0,"TOWNNAME":"仁德區","LI":"土庫里","LIN":"8鄰","STREET":"太子南路","SECT":" ","MAREA":" ","LANE":" ","ALLEY":" ","HOUSE_NO":"５號","E_COORD97":174019.81849000001,"N_COORD97":2543263.4738799999,"ADDRESS":"太子南路５號","OBJECTID":648800},"geometry":{"x":174019.81849000044,"y":2543263.4738759995}}]}