{"displayFieldName":"TOWNNAME","fieldAliases":{"ID":"ID","DIS_CODE":"DIS_CODE","TOWNNAME":"TOWNNAME","LI":"LI","LIN":"LIN","STREET":"STREET","SECT":"SECT","MAREA":"MAREA","LANE":"LANE","ALLEY":"ALLEY","HOUSE_NO":"HOUSE_NO","E_COORD97":"E_COORD97","N_COORD97":"N_COORD97","ADDRESS":"ADDRESS","OBJECTID":"OBJECTID"},"geometryType":"esriGeometryPoint","spatialReference":{"wkid":102443,"latestWkid":3826},"fields":[{"name":"ID","type":"esriFieldTypeDouble","alias":"ID"},{"name":"DIS_CODE","type":"esriFieldTypeInteger","alias":"DIS_CODE"},{"name":"TOWNNAME","type":"esriFieldTypeString","alias":"TOWNNAME","length":8},{"name":"LI","type":"esriFieldTypeString","alias":"LI","length":8},{"name":"LIN","type":"esriFieldTypeString","alias":"LIN","length":12},{"name":"STREET","type":"esriFieldTypeString","alias":"STREET","length":20},{"name":"SECT","type":"esriFieldTypeString","alias":"SECT","length":8},{"name":"MAREA","type":"esriFieldTypeString","alias":"MAREA","length":12},{"name":"LANE","type":"esriFieldTypeString","alias":"LANE","length":10},{"name":"ALLEY","type":"esriFieldTypeString","alias":"ALLEY","length":10},{"name":"HOUSE_NO","type":"esriFieldTypeString","alias":"HOUSE_NO","length":20},{"name":"E_COORD97","type":"esriFieldTypeDouble","alias":"E_COORD97"},{"name":"N_COORD97","type":"esriFieldTypeDouble","alias":"N_COORD97"},{"name":"ADDRESS","type":"esriFieldTypeString","alias":"ADDRESS","length":50},{"name":"OBJECTID","type":"esriFieldTypeOID","alias":"OBJECTID"}],"features":[{"attributes":{"ID":280207,"DIS_CODE":0,"TOWNNAME":"永康區","LI":"\u25A0行里","LIN":"6鄰","STREET":"新行街","SECT":" ","MAREA":" ","LANE":"３３巷","ALLEY":" ","HOUSE_NO":"１１號","E_COORD97":172218.10000000001,"N_COORD97":2548827.8900000001,"ADDRESS":"新行街３３巷１１號","OBJECTID":280201},"geometry":{"x":172218.10000000149,"y":2548827.8900000025}},{"attributes":{"ID":280208,"DIS_CODE":0,"TOWNNAME":"永康區","LI":"\u25A0洲里","LIN":"6鄰","STREET":"\u25A0洲二街","SECT":" ","MAREA":" ","LANE":"２２１巷","ALLEY":" ","HOUSE_NO":"３２號","E_COORD97":171792.01999999999,"N_COORD97":2549565.7400000002,"ADDRESS":"\u25A0洲二街２２１巷３２號","OBJECTID":280202},"geometry":{"x":171792.02000000048,"y":2549565.7400000002}},{"attributes":{"ID":280209,"DIS_CODE":0,"TOWNNAME":"永康區","LI":"崑山里","LIN":"6鄰","STREET":"崑大路","SECT":" ","MAREA":" ","LANE":"１５５巷","ALLEY":" ","HOUSE_NO":"８７號","E_COORD97":173600.17000000001,"N_COORD97":2544009.48,"ADDRESS":"崑大路１５５巷８７號","OBJECTID":280203},"geometry":{"x":173600.17000000086,"y":2544009.4800000023}},{"attributes":{"ID":280210,"DIS_CODE":0,"TOWNNAME":"永康區","LI":"崑山里","LIN":"6鄰","STREET":"崑大路","SECT":" ","MAREA":" ","LANE":"１５５巷","ALLEY":" ","HOUSE_NO":"８３號","E_COORD97":173610.79000000001,"N_COORD97":2544034.8199999998,"ADDRESS":"崑大路１５５巷８３號","OBJECTID":280204},"geometry":{"x":173610.79000000097,"y":2544034.8200000003}},{"attributes":{"ID":280211,"DIS_CODE":0,"TOWNNAME":"永康區","LI":"崑山里","LIN":"6鄰","STREET":"崑大路","SECT":" ","MAREA":" ","LANE":"１５５巷","ALLEY":" ","HOUSE_NO":"１１５號","E_COORD97":173600.35999999999,"N_COORD97":2543932.4199999999,"ADDRESS":"崑大路１５５巷１１５號","OBJECTID":280205},"geometry":{"x":173600.36000000127,"y":2543932.4199999999}},{"attributes":{"ID":280212,"DIS_CODE":0,"TOWNNAME":"永康區","LI":"崑山里","LIN":"6鄰","STREET":"永大路","SECT":"一段","MAREA":" ","LANE":"６５巷","ALLEY":" ","HOUSE_NO":"８１號","E_COORD97":173681.06,"N_COORD97":2543906.6299999999,"ADDRESS":"永大路一段６５巷８１號","OBJECTID":280206},"geometry":{"x":173681.05999999866,"y":2543906.629999999}},{"attributes":{"ID":280213,"DIS_CODE":0,"TOWNNAME":"仁德區","LI":"保安里","LIN":"6鄰","STREET":"文賢路","SECT":"一段","MAREA":" ","LANE":"７６３巷","ALLEY":" ","HOUSE_NO":"３號之８","E_COORD97":171564.81,"N_COORD97":2536194.0800000001,"ADDRESS":"文賢路一段７６３巷３號之８","OBJECTID":280207},"geometry":{"x":171564.80999999959,"y":2536194.0800000001}},{"attributes":{"ID":280214,"DIS_CODE":0,"TOWNNAME":"仁德區","LI":"成功里","LIN":"6鄰","STREET":"成功三街","SECT":" ","MAREA":" ","LANE":"１巷","ALLEY":" ","HOUSE_NO":"４號","E_COORD97":171183.98000000001,"N_COORD97":2540036.7599999998,"ADDRESS":"成功三街１巷４號","OBJECTID":280208},"geometry":{"x":171183.98000000231,"y":2540036.7600000016}},{"attributes":{"ID":280215,"DIS_CODE":0,"TOWNNAME":"永康區","LI":"六合里","LIN":"6鄰","STREET":"六合路","SECT":" ","MAREA":" ","LANE":"６３巷","ALLEY":" ","HOUSE_NO":"１２號","E_COORD97":171111.01000000001,"N_COORD97":2545663.4900000002,"ADDRESS":"六合路６３巷１２號","OBJECTID":280209},"geometry":{"x":171111.00999999978,"y":2545663.4900000021}},{"attributes":{"ID":280216,"DIS_CODE":0,"TOWNNAME":"永康區","LI":"六合里","LIN":"6鄰","STREET":"六合路","SECT":" ","MAREA":" ","LANE":"６３巷","ALLEY":" ","HOUSE_NO":"１４號","E_COORD97":171103.42000000001,"N_COORD97":2545661.4900000002,"ADDRESS":"六合路６３巷１４號","OBJECTID":280210},"geometry":{"x":171103.41999999993,"y":2545661.4900000002}},{"attributes":{"ID":280217,"DIS_CODE":0,"TOWNNAME":"永康區","LI":"三民里","LIN":"6鄰","STREET":"三民街","SECT":" ","MAREA":" ","LANE":"９０巷","ALLEY":" ","HOUSE_NO":"１７５號","E_COORD97":173196.82999999999,"N_COORD97":2550473.3300000001,"ADDRESS":"三民街９０巷１７５號","OBJECTID":280211},"geometry":{"x":173196.83000000194,"y":2550473.3300000001}},{"attributes":{"ID":280218,"DIS_CODE":0,"TOWNNAME":"仁德區","LI":"仁義里","LIN":"6鄰","STREET":"中山路","SECT":" ","MAREA":" ","LANE":"４４１巷","ALLEY":" ","HOUSE_NO":"１２號","E_COORD97":173747.54999999999,"N_COORD97":2541188.9900000002,"ADDRESS":"中山路４４１巷１２號","OBJECTID":280212},"geometry":{"x":173747.55000000168,"y":2541188.9900000002}},{"attributes":{"ID":280219,"DIS_CODE":0,"TOWNNAME":"歸仁區","LI":"看東里","LIN":"6鄰","STREET":"成功路","SECT":"一段","MAREA":" ","LANE":"１８７巷","ALLEY":" ","HOUSE_NO":"１２號","E_COORD97":178466.89999999999,"N_COORD97":2540085.4500000002,"ADDRESS":"成功路一段１８７巷１２號","OBJECTID":280213},"geometry":{"x":178466.90000000224,"y":2540085.4500000011}},{"attributes":{"ID":280220,"DIS_CODE":0,"TOWNNAME":"歸仁區","LI":"看東里","LIN":"6鄰","STREET":"成功路","SECT":"一段","MAREA":" ","LANE":"１５９巷","ALLEY":" ","HOUSE_NO":"８號","E_COORD97":178525.35000000001,"N_COORD97":2540136.4500000002,"ADDRESS":"成功路一段１５９巷８號","OBJECTID":280214},"geometry":{"x":178525.34999999963,"y":2540136.4500000011}},{"attributes":{"ID":280221,"DIS_CODE":0,"TOWNNAME":"歸仁區","LI":"看東里","LIN":"6鄰","STREET":"成功路","SECT":"一段","MAREA":" ","LANE":"１８７巷","ALLEY":" ","HOUSE_NO":"１４號","E_COORD97":178466.79999999999,"N_COORD97":2540081.4500000002,"ADDRESS":"成功路一段１８７巷１４號","OBJECTID":280215},"geometry":{"x":178466.79999999981,"y":2540081.4500000011}},{"attributes":{"ID":280222,"DIS_CODE":0,"TOWNNAME":"歸仁區","LI":"歸南里","LIN":"6鄰","STREET":"中正十二街","SECT":" ","MAREA":" ","LANE":"２巷","ALLEY":" ","HOUSE_NO":"７號","E_COORD97":176729.39999999999,"N_COORD97":2539978.4399999999,"ADDRESS":"中正十二街２巷７號","OBJECTID":280216},"geometry":{"x":176729.40000000224,"y":2539978.4399999995}},{"attributes":{"ID":280223,"DIS_CODE":0,"TOWNNAME":"永康區","LI":"西灣里","LIN":"4鄰","STREET":"大灣五街","SECT":" ","MAREA":" ","LANE":" ","ALLEY":" ","HOUSE_NO":"６７號","E_COORD97":174697.01999999999,"N_COORD97":2545254.5099999998,"ADDRESS":"大灣五街６７號","OBJECTID":280217},"geometry":{"x":174697.02000000048,"y":2545254.5099999979}},{"attributes":{"ID":280224,"DIS_CODE":0,"TOWNNAME":"歸仁區","LI":"歸南里","LIN":"6鄰","STREET":"中正十二街","SECT":" ","MAREA":" ","LANE":"２巷","ALLEY":" ","HOUSE_NO":"３１號","E_COORD97":176732.95000000001,"N_COORD97":2540030.4399999999,"ADDRESS":"中正十二街２巷３１號","OBJECTID":280218},"geometry":{"x":176732.95000000112,"y":2540030.4400000032}},{"attributes":{"ID":280225,"DIS_CODE":0,"TOWNNAME":"歸仁區","LI":"看東里","LIN":"6鄰","STREET":"成功路","SECT":"一段","MAREA":" ","LANE":"１５９巷","ALLEY":" ","HOUSE_NO":"１４號","E_COORD97":178517.29999999999,"N_COORD97":2540120.4500000002,"ADDRESS":"成功路一段１５９巷１４號","OBJECTID":280219},"geometry":{"x":178517.29999999981,"y":2540120.4499999993}},{"attributes":{"ID":280226,"DIS_CODE":0,"TOWNNAME":"歸仁區","LI":"許厝里","LIN":"6鄰","STREET":"中山路","SECT":"一段","MAREA":" ","LANE":"３１９巷","ALLEY":" ","HOUSE_NO":"４６號","E_COORD97":178381.42999999999,"N_COORD97":2540517.25,"ADDRESS":"中山路一段３１９巷４６號","OBJECTID":280220},"geometry":{"x":178381.43000000063,"y":2540517.2500000019}},{"attributes":{"ID":280227,"DIS_CODE":0,"TOWNNAME":"歸仁區","LI":"崙頂里","LIN":"6鄰","STREET":"信義南路","SECT":" ","MAREA":" ","LANE":"２０２巷","ALLEY":" ","HOUSE_NO":"５３號","E_COORD97":178034.57000000001,"N_COORD97":2540051.6800000002,"ADDRESS":"信義南路２０２巷５３號","OBJECTID":280221},"geometry":{"x":178034.5700000003,"y":2540051.6799999997}},{"attributes":{"ID":280228,"DIS_CODE":0,"TOWNNAME":"新營區","LI":"南興里","LIN":"6鄰","STREET":"和平路","SECT":" ","MAREA":" ","LANE":"９７巷","ALLEY":" ","HOUSE_NO":"３１號","E_COORD97":179498.12,"N_COORD97":2577583.9300000002,"ADDRESS":"和平路９７巷３１號","OBJECTID":280222},"geometry":{"x":179498.12000000104,"y":2577583.9300000016}},{"attributes":{"ID":280229,"DIS_CODE":0,"TOWNNAME":"新營區","LI":"新南里","LIN":"6鄰","STREET":"長榮路","SECT":"二段","MAREA":" ","LANE":"８６２巷","ALLEY":" ","HOUSE_NO":"６３號","E_COORD97":178173.01999999999,"N_COORD97":2579203.8500000001,"ADDRESS":"長榮路二段８６２巷６３號","OBJECTID":280223},"geometry":{"x":178173.01999999955,"y":2579203.8500000015}},{"attributes":{"ID":280230,"DIS_CODE":0,"TOWNNAME":"新營區","LI":"南興里","LIN":"6鄰","STREET":"和平路","SECT":" ","MAREA":" ","LANE":"９７巷","ALLEY":" ","HOUSE_NO":"２３號","E_COORD97":179479.69,"N_COORD97":2577585.1299999999,"ADDRESS":"和平路９７巷２３號","OBJECTID":280224},"geometry":{"x":179479.69000000041,"y":2577585.1300000008}},{"attributes":{"ID":280231,"DIS_CODE":0,"TOWNNAME":"北區","LI":"小康里","LIN":"6鄰","STREET":"實踐街","SECT":" ","MAREA":" ","LANE":"３９巷","ALLEY":" ","HOUSE_NO":"２１號","E_COORD97":169894.44,"N_COORD97":2546156.5899999999,"ADDRESS":"實踐街３９巷２１號","OBJECTID":280225},"geometry":{"x":169894.44000000134,"y":2546156.5900000017}},{"attributes":{"ID":280232,"DIS_CODE":0,"TOWNNAME":"北區","LI":"小康里","LIN":"6鄰","STREET":"實踐街","SECT":" ","MAREA":" ","LANE":"３９巷","ALLEY":" ","HOUSE_NO":"２３號","E_COORD97":169894.98316800001,"N_COORD97":2546160.04391,"ADDRESS":"實踐街３９巷２３號","OBJECTID":280226},"geometry":{"x":169894.98316800222,"y":2546160.0439059995}},{"attributes":{"ID":280233,"DIS_CODE":0,"TOWNNAME":"北區","LI":"小康里","LIN":"6鄰","STREET":"實踐街","SECT":" ","MAREA":" ","LANE":"３９巷","ALLEY":" ","HOUSE_NO":"２５號","E_COORD97":169897.66,"N_COORD97":2546168.1299999999,"ADDRESS":"實踐街３９巷２５號","OBJECTID":280227},"geometry":{"x":169897.66000000108,"y":2546168.1299999971}},{"attributes":{"ID":280234,"DIS_CODE":0,"TOWNNAME":"北區","LI":"小康里","LIN":"6鄰","STREET":"實踐街","SECT":" ","MAREA":" ","LANE":"３９巷","ALLEY":" ","HOUSE_NO":"２７號","E_COORD97":169896.51999999999,"N_COORD97":2546177.2200000002,"ADDRESS":"實踐街３９巷２７號","OBJECTID":280228},"geometry":{"x":169896.52000000048,"y":2546177.2200000025}},{"attributes":{"ID":280235,"DIS_CODE":0,"TOWNNAME":"北區","LI":"小康里","LIN":"6鄰","STREET":"實踐街","SECT":" ","MAREA":" ","LANE":"３９巷","ALLEY":" ","HOUSE_NO":"２９號","E_COORD97":169900.69,"N_COORD97":2546191.4100000001,"ADDRESS":"實踐街３９巷２９號","OBJECTID":280229},"geometry":{"x":169900.69000000041,"y":2546191.4100000039}},{"attributes":{"ID":280236,"DIS_CODE":0,"TOWNNAME":"南區","LI":"新昌里","LIN":"6鄰","STREET":"西門路","SECT":"一段","MAREA":" ","LANE":"５４５巷","ALLEY":" ","HOUSE_NO":"１號","E_COORD97":167693.98000000001,"N_COORD97":2542687.3399999999,"ADDRESS":"西門路一段５４５巷１號","OBJECTID":280230},"geometry":{"x":167693.98000000138,"y":2542687.3400000017}},{"attributes":{"ID":280237,"DIS_CODE":0,"TOWNNAME":"南區","LI":"新昌里","LIN":"6鄰","STREET":"西門路","SECT":"一段","MAREA":" ","LANE":"５４５巷","ALLEY":" ","HOUSE_NO":"２１號","E_COORD97":167635.14999999999,"N_COORD97":2542686.6200000001,"ADDRESS":"西門路一段５４５巷２１號","OBJECTID":280231},"geometry":{"x":167635.1500000013,"y":2542686.6200000029}},{"attributes":{"ID":280238,"DIS_CODE":0,"TOWNNAME":"永康區","LI":"永康里","LIN":"2鄰","STREET":"中山北路","SECT":" ","MAREA":" ","LANE":" ","ALLEY":" ","HOUSE_NO":"５７號","E_COORD97":173985.60000000001,"N_COORD97":2547395.0699999998,"ADDRESS":"中山北路５７號","OBJECTID":280232},"geometry":{"x":173985.59999999963,"y":2547395.0700000022}},{"attributes":{"ID":280239,"DIS_CODE":0,"TOWNNAME":"六甲區","LI":"王爺里","LIN":"2鄰","STREET":" ","SECT":" ","MAREA":"西港湖","LANE":" ","ALLEY":" ","HOUSE_NO":"１１號","E_COORD97":190002.16,"N_COORD97":2570431.4700000002,"ADDRESS":"西港湖１１號","OBJECTID":280233},"geometry":{"x":190002.16000000015,"y":2570431.4700000007}},{"attributes":{"ID":280240,"DIS_CODE":0,"TOWNNAME":"六甲區","LI":"王爺里","LIN":"2鄰","STREET":" ","SECT":" ","MAREA":"西港湖","LANE":" ","ALLEY":" ","HOUSE_NO":"１２號","E_COORD97":190017.14999999999,"N_COORD97":2570431.0499999998,"ADDRESS":"西港湖１２號","OBJECTID":280234},"geometry":{"x":190017.15000000037,"y":2570431.0500000007}},{"attributes":{"ID":280241,"DIS_CODE":0,"TOWNNAME":"六甲區","LI":"王爺里","LIN":"2鄰","STREET":" ","SECT":" ","MAREA":"西港湖","LANE":" ","ALLEY":" ","HOUSE_NO":"１３號","E_COORD97":190027.89999999999,"N_COORD97":2570415.9700000002,"ADDRESS":"西港湖１３號","OBJECTID":280235},"geometry":{"x":190027.90000000037,"y":2570415.9700000044}},{"attributes":{"ID":280242,"DIS_CODE":0,"TOWNNAME":"六甲區","LI":"王爺里","LIN":"2鄰","STREET":" ","SECT":" ","MAREA":"西港湖","LANE":" ","ALLEY":" ","HOUSE_NO":"１５號","E_COORD97":190007.37,"N_COORD97":2570456.2999999998,"ADDRESS":"西港湖１５號","OBJECTID":280236},"geometry":{"x":190007.37000000011,"y":2570456.3000000007}},{"attributes":{"ID":280243,"DIS_CODE":0,"TOWNNAME":"六甲區","LI":"王爺里","LIN":"2鄰","STREET":" ","SECT":" ","MAREA":"西港湖","LANE":" ","ALLEY":" ","HOUSE_NO":"１９號","E_COORD97":190020.48000000001,"N_COORD97":2570495.27,"ADDRESS":"西港湖１９號","OBJECTID":280237},"geometry":{"x":190020.48000000045,"y":2570495.2700000014}},{"attributes":{"ID":280244,"DIS_CODE":0,"TOWNNAME":"六甲區","LI":"王爺里","LIN":"2鄰","STREET":" ","SECT":" ","MAREA":"西港湖","LANE":" ","ALLEY":" ","HOUSE_NO":"２０號","E_COORD97":190013.51999999999,"N_COORD97":2570470.8999999999,"ADDRESS":"西港湖２０號","OBJECTID":280238},"geometry":{"x":190013.52000000048,"y":2570470.9000000022}},{"attributes":{"ID":280245,"DIS_CODE":0,"TOWNNAME":"六甲區","LI":"王爺里","LIN":"2鄰","STREET":" ","SECT":" ","MAREA":"西港湖","LANE":" ","ALLEY":" ","HOUSE_NO":"２１號","E_COORD97":190032.32999999999,"N_COORD97":2570462.4500000002,"ADDRESS":"西港湖２１號","OBJECTID":280239},"geometry":{"x":190032.33000000101,"y":2570462.4500000011}},{"attributes":{"ID":280246,"DIS_CODE":0,"TOWNNAME":"六甲區","LI":"王爺里","LIN":"2鄰","STREET":" ","SECT":" ","MAREA":"西港湖","LANE":" ","ALLEY":" ","HOUSE_NO":"２２號","E_COORD97":190084.54000000001,"N_COORD97":2570417.4700000002,"ADDRESS":"西港湖２２號","OBJECTID":280240},"geometry":{"x":190084.5400000019,"y":2570417.4700000025}},{"attributes":{"ID":280247,"DIS_CODE":0,"TOWNNAME":"六甲區","LI":"王爺里","LIN":"2鄰","STREET":" ","SECT":" ","MAREA":"西港湖","LANE":" ","ALLEY":" ","HOUSE_NO":"２３之１號","E_COORD97":190226.85000000001,"N_COORD97":2570391.2200000002,"ADDRESS":"西港湖２３之１號","OBJECTID":280241},"geometry":{"x":190226.84999999963,"y":2570391.2200000025}},{"attributes":{"ID":280248,"DIS_CODE":0,"TOWNNAME":"六甲區","LI":"王爺里","LIN":"2鄰","STREET":" ","SECT":" ","MAREA":"西港湖","LANE":" ","ALLEY":" ","HOUSE_NO":"２３號之１","E_COORD97":190226.85000000001,"N_COORD97":2570391.2200000002,"ADDRESS":"西港湖２３號之１","OBJECTID":280242},"geometry":{"x":190226.84999999963,"y":2570391.2200000025}},{"attributes":{"ID":280249,"DIS_CODE":0,"TOWNNAME":"六甲區","LI":"王爺里","LIN":"2鄰","STREET":" ","SECT":" ","MAREA":"西港湖","LANE":" ","ALLEY":" ","HOUSE_NO":"２３號","E_COORD97":190232.04999999999,"N_COORD97":2570365.2799999998,"ADDRESS":"西港湖２３號","OBJECTID":280243},"geometry":{"x":190232.05000000075,"y":2570365.2800000012}},{"attributes":{"ID":280250,"DIS_CODE":0,"TOWNNAME":"六甲區","LI":"王爺里","LIN":"2鄰","STREET":" ","SECT":" ","MAREA":"西港湖","LANE":" ","ALLEY":" ","HOUSE_NO":"２４號","E_COORD97":190244.54999999999,"N_COORD97":2570338.4399999999,"ADDRESS":"西港湖２４號","OBJECTID":280244},"geometry":{"x":190244.54999999981,"y":2570338.4400000013}},{"attributes":{"ID":280251,"DIS_CODE":0,"TOWNNAME":"六甲區","LI":"菁埔里","LIN":"2鄰","STREET":" ","SECT":" ","MAREA":"林鳳營","LANE":" ","ALLEY":" ","HOUSE_NO":"３０１號之１","E_COORD97":179824.48000000001,"N_COORD97":2570575.4399999999,"ADDRESS":"林鳳營３０１號之１","OBJECTID":280245},"geometry":{"x":179824.48000000138,"y":2570575.4400000013}},{"attributes":{"ID":280252,"DIS_CODE":0,"TOWNNAME":"六甲區","LI":"菁埔里","LIN":"2鄰","STREET":" ","SECT":" ","MAREA":"林鳳營","LANE":" ","ALLEY":" ","HOUSE_NO":"４０５號","E_COORD97":179786.09,"N_COORD97":2571426.5800000001,"ADDRESS":"林鳳營４０５號","OBJECTID":280246},"geometry":{"x":179786.09000000078,"y":2571426.5800000001}},{"attributes":{"ID":280253,"DIS_CODE":0,"TOWNNAME":"六甲區","LI":"菁埔里","LIN":"2鄰","STREET":" ","SECT":" ","MAREA":"林鳳營","LANE":" ","ALLEY":" ","HOUSE_NO":"４０６號","E_COORD97":179772.26999999999,"N_COORD97":2571425.5600000001,"ADDRESS":"林鳳營４０６號","OBJECTID":280247},"geometry":{"x":179772.27000000142,"y":2571425.5600000042}},{"attributes":{"ID":280254,"DIS_CODE":0,"TOWNNAME":"安南區","LI":"四草里","LIN":"2鄰","STREET":"大眾六街","SECT":" ","MAREA":" ","LANE":" ","ALLEY":" ","HOUSE_NO":"１８３號","E_COORD97":160275.46744099999,"N_COORD97":2546779.4281500001,"ADDRESS":"大眾六街１８３號","OBJECTID":280248},"geometry":{"x":160275.46744100098,"y":2546779.4281460028}},{"attributes":{"ID":280255,"DIS_CODE":0,"TOWNNAME":"東區","LI":"龍山里","LIN":"20鄰","STREET":"崇學路","SECT":" ","MAREA":" ","LANE":"２０３巷","ALLEY":" ","HOUSE_NO":"１３號","E_COORD97":170364.04000000001,"N_COORD97":2542391.6000000001,"ADDRESS":"崇學路２０３巷１３號","OBJECTID":280249},"geometry":{"x":170364.04000000004,"y":2542391.5999999996}},{"attributes":{"ID":280256,"DIS_CODE":0,"TOWNNAME":"麻豆區","LI":"安業里","LIN":"2鄰","STREET":" ","SECT":" ","MAREA":"安業","LANE":" ","ALLEY":" ","HOUSE_NO":"８２號之９","E_COORD97":172680.92000000001,"N_COORD97":2561764.4900000002,"ADDRESS":"安業８２號之９","OBJECTID":280250},"geometry":{"x":172680.92000000086,"y":2561764.4900000021}},{"attributes":{"ID":280257,"DIS_CODE":0,"TOWNNAME":"麻豆區","LI":"安業里","LIN":"2鄰","STREET":" ","SECT":" ","MAREA":"安業","LANE":" ","ALLEY":" ","HOUSE_NO":"８４號之１","E_COORD97":172648.60999999999,"N_COORD97":2561873.96,"ADDRESS":"安業８４號之１","OBJECTID":280251},"geometry":{"x":172648.61000000034,"y":2561873.9600000028}},{"attributes":{"ID":280258,"DIS_CODE":0,"TOWNNAME":"麻豆區","LI":"安業里","LIN":"2鄰","STREET":" ","SECT":" ","MAREA":"安業","LANE":" ","ALLEY":" ","HOUSE_NO":"８４號","E_COORD97":172646.42000000001,"N_COORD97":2561879.79,"ADDRESS":"安業８４號","OBJECTID":280252},"geometry":{"x":172646.41999999993,"y":2561879.790000001}},{"attributes":{"ID":280259,"DIS_CODE":0,"TOWNNAME":"麻豆區","LI":"安業里","LIN":"2鄰","STREET":" ","SECT":" ","MAREA":"安業","LANE":" ","ALLEY":" ","HOUSE_NO":"８５號之１","E_COORD97":172643.85999999999,"N_COORD97":2561886.8100000001,"ADDRESS":"安業８５號之１","OBJECTID":280253},"geometry":{"x":172643.86000000034,"y":2561886.8100000042}},{"attributes":{"ID":280260,"DIS_CODE":0,"TOWNNAME":"麻豆區","LI":"安業里","LIN":"2鄰","STREET":" ","SECT":" ","MAREA":"安業","LANE":" ","ALLEY":" ","HOUSE_NO":"８５號之３","E_COORD97":172641.48999999999,"N_COORD97":2561900.7000000002,"ADDRESS":"安業８５號之３","OBJECTID":280254},"geometry":{"x":172641.49000000209,"y":2561900.7000000011}},{"attributes":{"ID":280261,"DIS_CODE":0,"TOWNNAME":"麻豆區","LI":"安業里","LIN":"2鄰","STREET":" ","SECT":" ","MAREA":"安業","LANE":" ","ALLEY":" ","HOUSE_NO":"８５號","E_COORD97":172648.48000000001,"N_COORD97":2561907.71,"ADDRESS":"安業８５號","OBJECTID":280255},"geometry":{"x":172648.48000000231,"y":2561907.7100000009}},{"attributes":{"ID":280262,"DIS_CODE":0,"TOWNNAME":"麻豆區","LI":"安業里","LIN":"2鄰","STREET":" ","SECT":" ","MAREA":"安業","LANE":" ","ALLEY":" ","HOUSE_NO":"８６號","E_COORD97":172667.73000000001,"N_COORD97":2561906.0099999998,"ADDRESS":"安業８６號","OBJECTID":280256},"geometry":{"x":172667.73000000138,"y":2561906.0100000016}},{"attributes":{"ID":280263,"DIS_CODE":0,"TOWNNAME":"麻豆區","LI":"安業里","LIN":"2鄰","STREET":" ","SECT":" ","MAREA":"安業","LANE":" ","ALLEY":" ","HOUSE_NO":"８７號","E_COORD97":172637.22,"N_COORD97":2561909.8399999999,"ADDRESS":"安業８７號","OBJECTID":280257},"geometry":{"x":172637.21999999974,"y":2561909.8400000017}},{"attributes":{"ID":280264,"DIS_CODE":0,"TOWNNAME":"麻豆區","LI":"安業里","LIN":"2鄰","STREET":" ","SECT":" ","MAREA":"安業","LANE":" ","ALLEY":" ","HOUSE_NO":"８９號之２","E_COORD97":172683.10999999999,"N_COORD97":2561870.7999999998,"ADDRESS":"安業８９號之２","OBJECTID":280258},"geometry":{"x":172683.1100000022,"y":2561870.8000000026}},{"attributes":{"ID":280265,"DIS_CODE":0,"TOWNNAME":"麻豆區","LI":"安業里","LIN":"2鄰","STREET":" ","SECT":" ","MAREA":"安業","LANE":" ","ALLEY":" ","HOUSE_NO":"８９號之３","E_COORD97":172689.23999999999,"N_COORD97":2561882.5,"ADDRESS":"安業８９號之３","OBJECTID":280259},"geometry":{"x":172689.24000000115,"y":2561882.5000000019}},{"attributes":{"ID":280266,"DIS_CODE":0,"TOWNNAME":"麻豆區","LI":"安業里","LIN":"2鄰","STREET":" ","SECT":" ","MAREA":"安業","LANE":" ","ALLEY":" ","HOUSE_NO":"８９號之４","E_COORD97":172695.32000000001,"N_COORD97":2561884.73,"ADDRESS":"安業８９號之４","OBJECTID":280260},"geometry":{"x":172695.32000000216,"y":2561884.7300000023}},{"attributes":{"ID":280267,"DIS_CODE":0,"TOWNNAME":"麻豆區","LI":"安業里","LIN":"2鄰","STREET":" ","SECT":" ","MAREA":"安業","LANE":" ","ALLEY":" ","HOUSE_NO":"８９號之７","E_COORD97":172717.78,"N_COORD97":2561919.54,"ADDRESS":"安業８９號之７","OBJECTID":280261},"geometry":{"x":172717.78000000119,"y":2561919.5399999991}},{"attributes":{"ID":280268,"DIS_CODE":0,"TOWNNAME":"麻豆區","LI":"安業里","LIN":"2鄰","STREET":" ","SECT":" ","MAREA":"安業","LANE":" ","ALLEY":" ","HOUSE_NO":"８９號之８","E_COORD97":172720.39999999999,"N_COORD97":2561923.5,"ADDRESS":"安業８９號之８","OBJECTID":280262},"geometry":{"x":172720.4000000013,"y":2561923.5000000019}},{"attributes":{"ID":280269,"DIS_CODE":0,"TOWNNAME":"麻豆區","LI":"安業里","LIN":"2鄰","STREET":" ","SECT":" ","MAREA":"安業","LANE":" ","ALLEY":" ","HOUSE_NO":"８９號","E_COORD97":172710.42999999999,"N_COORD97":2561909.5099999998,"ADDRESS":"安業８９號","OBJECTID":280263},"geometry":{"x":172710.4299999997,"y":2561909.5100000016}},{"attributes":{"ID":280270,"DIS_CODE":0,"TOWNNAME":"東區","LI":"龍山里","LIN":"20鄰","STREET":"崇學路","SECT":" ","MAREA":" ","LANE":"２０３巷","ALLEY":" ","HOUSE_NO":"１４號","E_COORD97":170377.48999999999,"N_COORD97":2542416.6299999999,"ADDRESS":"崇學路２０３巷１４號","OBJECTID":280264},"geometry":{"x":170377.49000000115,"y":2542416.6300000008}},{"attributes":{"ID":280271,"DIS_CODE":0,"TOWNNAME":"新營區","LI":"嘉芳里","LIN":"2鄰","STREET":"復興路","SECT":" ","MAREA":" ","LANE":" ","ALLEY":" ","HOUSE_NO":"７１８之１號","E_COORD97":177191.88,"N_COORD97":2578592.96,"ADDRESS":"復興路７１８之１號","OBJECTID":280265},"geometry":{"x":177191.88000000082,"y":2578592.9600000009}},{"attributes":{"ID":280272,"DIS_CODE":0,"TOWNNAME":"新營區","LI":"興業里","LIN":"2鄰","STREET":"新進路","SECT":" ","MAREA":" ","LANE":" ","ALLEY":" ","HOUSE_NO":"２４０號","E_COORD97":180200.44,"N_COORD97":2577882.9399999999,"ADDRESS":"新進路２４０號","OBJECTID":280266},"geometry":{"x":180200.44000000041,"y":2577882.9399999995}},{"attributes":{"ID":280273,"DIS_CODE":0,"TOWNNAME":"新營區","LI":"好平里","LIN":"2鄰","STREET":"新進路","SECT":"二段","MAREA":" ","LANE":" ","ALLEY":" ","HOUSE_NO":"６７號","E_COORD97":179567.23999999999,"N_COORD97":2577725.3500000001,"ADDRESS":"新進路二段６７號","OBJECTID":280267},"geometry":{"x":179567.24000000022,"y":2577725.3500000034}},{"attributes":{"ID":280274,"DIS_CODE":0,"TOWNNAME":"東區","LI":"龍山里","LIN":"20鄰","STREET":"崇學路","SECT":" ","MAREA":" ","LANE":"２０３巷","ALLEY":" ","HOUSE_NO":"１５號","E_COORD97":170357.98000000001,"N_COORD97":2542395.5499999998,"ADDRESS":"崇學路２０３巷１５號","OBJECTID":280268},"geometry":{"x":170357.98000000045,"y":2542395.5500000026}},{"attributes":{"ID":280275,"DIS_CODE":0,"TOWNNAME":"新營區","LI":"土庫里","LIN":"2鄰","STREET":" ","SECT":" ","MAREA":"土庫","LANE":" ","ALLEY":" ","HOUSE_NO":"８號","E_COORD97":183060.57000000001,"N_COORD97":2580044.75,"ADDRESS":"土庫８號","OBJECTID":280269},"geometry":{"x":183060.5700000003,"y":2580044.75}},{"attributes":{"ID":280276,"DIS_CODE":0,"TOWNNAME":"新營區","LI":"太南里","LIN":"2鄰","STREET":" ","SECT":" ","MAREA":"太子宮","LANE":" ","ALLEY":" ","HOUSE_NO":"１７４號","E_COORD97":176179.26999999999,"N_COORD97":2577051.8999999999,"ADDRESS":"太子宮１７４號","OBJECTID":280270},"geometry":{"x":176179.26999999955,"y":2577051.9000000022}},{"attributes":{"ID":280277,"DIS_CODE":0,"TOWNNAME":"新營區","LI":"太南里","LIN":"2鄰","STREET":" ","SECT":" ","MAREA":"太子宮","LANE":" ","ALLEY":" ","HOUSE_NO":"１７５號","E_COORD97":176167.95999999999,"N_COORD97":2577040.8799999999,"ADDRESS":"太子宮１７５號","OBJECTID":280271},"geometry":{"x":176167.96000000089,"y":2577040.8800000008}},{"attributes":{"ID":280278,"DIS_CODE":0,"TOWNNAME":"仁德區","LI":"大甲里","LIN":"16鄰","STREET":"行大一街","SECT":" ","MAREA":" ","LANE":" ","ALLEY":" ","HOUSE_NO":"３９８號","E_COORD97":169471.73469700001,"N_COORD97":2535205.4134,"ADDRESS":"行大一街３９８號","OBJECTID":280272},"geometry":{"x":169471.73469699919,"y":2535205.4134029988}},{"attributes":{"ID":280279,"DIS_CODE":0,"TOWNNAME":"新營區","LI":"太南里","LIN":"2鄰","STREET":" ","SECT":" ","MAREA":"太子宮","LANE":" ","ALLEY":" ","HOUSE_NO":"１８３號","E_COORD97":176191.25,"N_COORD97":2576994.2599999998,"ADDRESS":"太子宮１８３號","OBJECTID":280273},"geometry":{"x":176191.25000000093,"y":2576994.2600000016}},{"attributes":{"ID":280280,"DIS_CODE":0,"TOWNNAME":"東區","LI":"龍山里","LIN":"20鄰","STREET":"崇學路","SECT":" ","MAREA":" ","LANE":"２０３巷","ALLEY":" ","HOUSE_NO":"１６號","E_COORD97":170374.85000000001,"N_COORD97":2542418.7400000002,"ADDRESS":"崇學路２０３巷１６號","OBJECTID":280274},"geometry":{"x":170374.84999999963,"y":2542418.7400000002}},{"attributes":{"ID":280281,"DIS_CODE":0,"TOWNNAME":"東區","LI":"龍山里","LIN":"20鄰","STREET":"崇學路","SECT":" ","MAREA":" ","LANE":"２０３巷","ALLEY":" ","HOUSE_NO":"１７號","E_COORD97":170353.76000000001,"N_COORD97":2542399.2400000002,"ADDRESS":"崇學路２０３巷１７號","OBJECTID":280275},"geometry":{"x":170353.75999999978,"y":2542399.2400000021}},{"attributes":{"ID":280282,"DIS_CODE":0,"TOWNNAME":"東區","LI":"龍山里","LIN":"20鄰","STREET":"崇學路","SECT":" ","MAREA":" ","LANE":"２０３巷","ALLEY":" ","HOUSE_NO":"１８號","E_COORD97":170371.69,"N_COORD97":2542422.4300000002,"ADDRESS":"崇學路２０３巷１８號","OBJECTID":280276},"geometry":{"x":170371.69000000041,"y":2542422.4300000016}},{"attributes":{"ID":280283,"DIS_CODE":0,"TOWNNAME":"東區","LI":"龍山里","LIN":"24鄰","STREET":"崇學路","SECT":" ","MAREA":" ","LANE":"２６１巷","ALLEY":" ","HOUSE_NO":"３３號","E_COORD97":170441.29999999999,"N_COORD97":2542519.1099999999,"ADDRESS":"崇學路２６１巷３３號","OBJECTID":280277},"geometry":{"x":170441.29999999981,"y":2542519.1100000013}},{"attributes":{"ID":280284,"DIS_CODE":0,"TOWNNAME":"東區","LI":"龍山里","LIN":"24鄰","STREET":"崇學路","SECT":" ","MAREA":" ","LANE":"２６１巷","ALLEY":" ","HOUSE_NO":"３５號","E_COORD97":170437.73000000001,"N_COORD97":2542520.52,"ADDRESS":"崇學路２６１巷３５號","OBJECTID":280278},"geometry":{"x":170437.73000000045,"y":2542520.5199999996}},{"attributes":{"ID":280285,"DIS_CODE":0,"TOWNNAME":"東區","LI":"龍山里","LIN":"24鄰","STREET":"崇學路","SECT":" ","MAREA":" ","LANE":"２６１巷","ALLEY":" ","HOUSE_NO":"３７號","E_COORD97":170433.73999999999,"N_COORD97":2542524.8300000001,"ADDRESS":"崇學路２６１巷３７號","OBJECTID":280279},"geometry":{"x":170433.74000000022,"y":2542524.8300000019}},{"attributes":{"ID":280286,"DIS_CODE":0,"TOWNNAME":"東區","LI":"龍山里","LIN":"24鄰","STREET":"崇學路","SECT":" ","MAREA":" ","LANE":"２６１巷","ALLEY":" ","HOUSE_NO":"３９號","E_COORD97":170431.26000000001,"N_COORD97":2542528.1499999999,"ADDRESS":"崇學路２６１巷３９號","OBJECTID":280280},"geometry":{"x":170431.25999999978,"y":2542528.1500000004}},{"attributes":{"ID":280287,"DIS_CODE":0,"TOWNNAME":"北區","LI":"和順里","LIN":"6鄰","STREET":"育德路","SECT":" ","MAREA":" ","LANE":"４９巷","ALLEY":" ","HOUSE_NO":"４號","E_COORD97":168338.92999999999,"N_COORD97":2545281.0600000001,"ADDRESS":"育德路４９巷４號","OBJECTID":280281},"geometry":{"x":168338.93000000156,"y":2545281.0600000005}},{"attributes":{"ID":280288,"DIS_CODE":0,"TOWNNAME":"南區","LI":"新興里","LIN":"6鄰","STREET":"西門路","SECT":"一段","MAREA":" ","LANE":"４４１巷","ALLEY":" ","HOUSE_NO":"４號","E_COORD97":167691.45000000001,"N_COORD97":2542412.9700000002,"ADDRESS":"西門路一段４４１巷４號","OBJECTID":280282},"geometry":{"x":167691.45000000019,"y":2542412.9700000025}},{"attributes":{"ID":280289,"DIS_CODE":0,"TOWNNAME":"新營區","LI":"民權里","LIN":"2鄰","STREET":"博愛街","SECT":" ","MAREA":" ","LANE":" ","ALLEY":" ","HOUSE_NO":"３１號","E_COORD97":179978.48000000001,"N_COORD97":2578147.5600000001,"ADDRESS":"博愛街３１號","OBJECTID":280283},"geometry":{"x":179978.48000000231,"y":2578147.5600000005}},{"attributes":{"ID":280290,"DIS_CODE":0,"TOWNNAME":"柳營區","LI":"光福里","LIN":"2鄰","STREET":"建興街","SECT":" ","MAREA":" ","LANE":" ","ALLEY":" ","HOUSE_NO":"７號","E_COORD97":179810.5,"N_COORD97":2575019.1600000001,"ADDRESS":"建興街７號","OBJECTID":280284},"geometry":{"x":179810.50000000093,"y":2575019.160000002}},{"attributes":{"ID":280291,"DIS_CODE":0,"TOWNNAME":"歸仁區","LI":"文化里","LIN":"2鄰","STREET":"國光街","SECT":" ","MAREA":" ","LANE":" ","ALLEY":" ","HOUSE_NO":"１３８號","E_COORD97":177352.45999999999,"N_COORD97":2541169.3300000001,"ADDRESS":"國光街１３８號","OBJECTID":280285},"geometry":{"x":177352.46000000089,"y":2541169.3300000001}},{"attributes":{"ID":280292,"DIS_CODE":0,"TOWNNAME":"南區","LI":"新興里","LIN":"6鄰","STREET":"西門路","SECT":"一段","MAREA":" ","LANE":"４４１巷","ALLEY":" ","HOUSE_NO":"５號","E_COORD97":167693.60000000001,"N_COORD97":2542391.4700000002,"ADDRESS":"西門路一段４４１巷５號","OBJECTID":280286},"geometry":{"x":167693.60000000149,"y":2542391.4700000025}},{"attributes":{"ID":280293,"DIS_CODE":0,"TOWNNAME":"歸仁區","LI":"文化里","LIN":"2鄰","STREET":"民族北街","SECT":" ","MAREA":" ","LANE":" ","ALLEY":" ","HOUSE_NO":"１５９號","E_COORD97":177459.70000000001,"N_COORD97":2541251.3300000001,"ADDRESS":"民族北街１５９號","OBJECTID":280287},"geometry":{"x":177459.70000000112,"y":2541251.3300000001}},{"attributes":{"ID":280294,"DIS_CODE":0,"TOWNNAME":"南區","LI":"新興里","LIN":"6鄰","STREET":"西門路","SECT":"一段","MAREA":" ","LANE":"４４１巷","ALLEY":" ","HOUSE_NO":"６號","E_COORD97":167686.42000000001,"N_COORD97":2542412.25,"ADDRESS":"西門路一段４４１巷６號","OBJECTID":280288},"geometry":{"x":167686.41999999993,"y":2542412.2500000037}},{"attributes":{"ID":280295,"DIS_CODE":0,"TOWNNAME":"南區","LI":"新興里","LIN":"6鄰","STREET":"西門路","SECT":"一段","MAREA":" ","LANE":"４４１巷","ALLEY":" ","HOUSE_NO":"７號","E_COORD97":167688.57999999999,"N_COORD97":2542392.5499999998,"ADDRESS":"西門路一段４４１巷７號","OBJECTID":280289},"geometry":{"x":167688.58000000007,"y":2542392.5500000007}},{"attributes":{"ID":280296,"DIS_CODE":0,"TOWNNAME":"北區","LI":"延平里","LIN":"6鄰","STREET":"公園路","SECT":" ","MAREA":" ","LANE":"７４６巷","ALLEY":" ","HOUSE_NO":"２５號之１５","E_COORD97":169190.19,"N_COORD97":2545477.6099999999,"ADDRESS":"公園路７４６巷２５號之１５","OBJECTID":280290},"geometry":{"x":169190.19000000041,"y":2545477.6100000031}},{"attributes":{"ID":280297,"DIS_CODE":0,"TOWNNAME":"歸仁區","LI":"八甲里","LIN":"2鄰","STREET":"大光街","SECT":" ","MAREA":" ","LANE":" ","ALLEY":" ","HOUSE_NO":"４８之２號","E_COORD97":177946.17000000001,"N_COORD97":2541664.6200000001,"ADDRESS":"大光街４８之２號","OBJECTID":280291},"geometry":{"x":177946.17000000086,"y":2541664.6199999992}},{"attributes":{"ID":280298,"DIS_CODE":0,"TOWNNAME":"北區","LI":"延平里","LIN":"6鄰","STREET":"公園路","SECT":" ","MAREA":" ","LANE":"７４６巷","ALLEY":" ","HOUSE_NO":"２５號之５","E_COORD97":169166.76000000001,"N_COORD97":2545478.8700000001,"ADDRESS":"公園路７４６巷２５號之５","OBJECTID":280292},"geometry":{"x":169166.75999999978,"y":2545478.8700000029}},{"attributes":{"ID":280299,"DIS_CODE":0,"TOWNNAME":"北區","LI":"玉皇里","LIN":"6鄰","STREET":"公園路","SECT":" ","MAREA":" ","LANE":"２３９巷","ALLEY":" ","HOUSE_NO":"８號","E_COORD97":168809.17000000001,"N_COORD97":2544550.48,"ADDRESS":"公園路２３９巷８號","OBJECTID":280293},"geometry":{"x":168809.17000000086,"y":2544550.4800000042}},{"attributes":{"ID":280300,"DIS_CODE":0,"TOWNNAME":"玉井區","LI":"竹圍里","LIN":"6鄰","STREET":"仁愛街","SECT":" ","MAREA":" ","LANE":"３４３巷","ALLEY":" ","HOUSE_NO":"６號","E_COORD97":195468.34,"N_COORD97":2558507.6099999999,"ADDRESS":"仁愛街３４３巷６號","OBJECTID":280294},"geometry":{"x":195468.34000000078,"y":2558507.6100000013}},{"attributes":{"ID":280301,"DIS_CODE":0,"TOWNNAME":"學甲區","LI":"明宜里","LIN":"6鄰","STREET":"宮西路","SECT":" ","MAREA":" ","LANE":"６５巷","ALLEY":" ","HOUSE_NO":"７號","E_COORD97":165764.47,"N_COORD97":2570379.2599999998,"ADDRESS":"宮西路６５巷７號","OBJECTID":280295},"geometry":{"x":165764.47000000067,"y":2570379.2600000035}},{"attributes":{"ID":280302,"DIS_CODE":0,"TOWNNAME":"歸仁區","LI":"沙崙里","LIN":"2鄰","STREET":" ","SECT":" ","MAREA":"二甲","LANE":" ","ALLEY":" ","HOUSE_NO":"６２號","E_COORD97":178367.98000000001,"N_COORD97":2539259.8900000001,"ADDRESS":"二甲６２號","OBJECTID":280296},"geometry":{"x":178367.97999999952,"y":2539259.8900000025}},{"attributes":{"ID":280303,"DIS_CODE":0,"TOWNNAME":"歸仁區","LI":"沙崙里","LIN":"2鄰","STREET":" ","SECT":" ","MAREA":"二甲","LANE":" ","ALLEY":" ","HOUSE_NO":"５２號","E_COORD97":178354.78,"N_COORD97":2539288.8900000001,"ADDRESS":"二甲５２號","OBJECTID":280297},"geometry":{"x":178354.78000000119,"y":2539288.8900000006}},{"attributes":{"ID":280304,"DIS_CODE":0,"TOWNNAME":"學甲區","LI":"明宜里","LIN":"6鄰","STREET":"宮西路","SECT":" ","MAREA":" ","LANE":"６５巷","ALLEY":" ","HOUSE_NO":"８號","E_COORD97":165743.98000000001,"N_COORD97":2570374.6099999999,"ADDRESS":"宮西路６５巷８號","OBJECTID":280298},"geometry":{"x":165743.98000000231,"y":2570374.6099999994}},{"attributes":{"ID":280305,"DIS_CODE":0,"TOWNNAME":"學甲區","LI":"明宜里","LIN":"6鄰","STREET":"宮西路","SECT":" ","MAREA":" ","LANE":"６５巷","ALLEY":" ","HOUSE_NO":"９號","E_COORD97":165766.01999999999,"N_COORD97":2570375.8799999999,"ADDRESS":"宮西路６５巷９號","OBJECTID":280299},"geometry":{"x":165766.01999999955,"y":2570375.879999999}},{"attributes":{"ID":280306,"DIS_CODE":0,"TOWNNAME":"北區","LI":"裕民里","LIN":"6鄰","STREET":"臨安路","SECT":"二段","MAREA":" ","LANE":"６８巷","ALLEY":" ","HOUSE_NO":"１１號","E_COORD97":167696.63,"N_COORD97":2544786.1699999999,"ADDRESS":"臨安路二段６８巷１１號","OBJECTID":280300},"geometry":{"x":167696.62999999989,"y":2544786.1700000018}},{"attributes":{"ID":280307,"DIS_CODE":0,"TOWNNAME":"北區","LI":"和順里","LIN":"6鄰","STREET":"育德路","SECT":" ","MAREA":" ","LANE":"３５巷","ALLEY":" ","HOUSE_NO":"４號","E_COORD97":168319.75,"N_COORD97":2545249.5699999998,"ADDRESS":"育德路３５巷４號","OBJECTID":280301},"geometry":{"x":168319.75,"y":2545249.5700000022}},{"attributes":{"ID":280308,"DIS_CODE":0,"TOWNNAME":"歸仁區","LI":"沙崙里","LIN":"2鄰","STREET":" ","SECT":" ","MAREA":"二甲","LANE":" ","ALLEY":" ","HOUSE_NO":"７０號","E_COORD97":178368.17999999999,"N_COORD97":2539296.8900000001,"ADDRESS":"二甲７０號","OBJECTID":280302},"geometry":{"x":178368.18000000063,"y":2539296.8900000025}},{"attributes":{"ID":280309,"DIS_CODE":0,"TOWNNAME":"北區","LI":"和順里","LIN":"6鄰","STREET":"育德路","SECT":" ","MAREA":" ","LANE":"３５巷","ALLEY":" ","HOUSE_NO":"５號","E_COORD97":168305.48999999999,"N_COORD97":2545235.5299999998,"ADDRESS":"育德路３５巷５號","OBJECTID":280303},"geometry":{"x":168305.49000000115,"y":2545235.5299999993}},{"attributes":{"ID":280310,"DIS_CODE":0,"TOWNNAME":"北區","LI":"和順里","LIN":"6鄰","STREET":"育德路","SECT":" ","MAREA":" ","LANE":"３５巷","ALLEY":" ","HOUSE_NO":"６號","E_COORD97":168315.28,"N_COORD97":2545252.98,"ADDRESS":"育德路３５巷６號","OBJECTID":280304},"geometry":{"x":168315.28000000119,"y":2545252.9800000023}},{"attributes":{"ID":280311,"DIS_CODE":0,"TOWNNAME":"歸仁區","LI":"沙崙里","LIN":"2鄰","STREET":" ","SECT":" ","MAREA":"二甲","LANE":" ","ALLEY":" ","HOUSE_NO":"６９號","E_COORD97":178368.07999999999,"N_COORD97":2539291.8900000001,"ADDRESS":"二甲６９號","OBJECTID":280305},"geometry":{"x":178368.08000000007,"y":2539291.8900000006}},{"attributes":{"ID":280312,"DIS_CODE":0,"TOWNNAME":"歸仁區","LI":"沙崙里","LIN":"2鄰","STREET":" ","SECT":" ","MAREA":"二甲","LANE":" ","ALLEY":" ","HOUSE_NO":"７２號","E_COORD97":178368.17999999999,"N_COORD97":2539306.8900000001,"ADDRESS":"二甲７２號","OBJECTID":280306},"geometry":{"x":178368.18000000063,"y":2539306.8900000025}},{"attributes":{"ID":280313,"DIS_CODE":0,"TOWNNAME":"歸仁區","LI":"沙崙里","LIN":"2鄰","STREET":" ","SECT":" ","MAREA":"二甲","LANE":" ","ALLEY":" ","HOUSE_NO":"５１號","E_COORD97":178354.78,"N_COORD97":2539293.8900000001,"ADDRESS":"二甲５１號","OBJECTID":280307},"geometry":{"x":178354.78000000119,"y":2539293.8900000025}},{"attributes":{"ID":280314,"DIS_CODE":0,"TOWNNAME":"北區","LI":"和順里","LIN":"6鄰","STREET":"育德路","SECT":" ","MAREA":" ","LANE":"３５巷","ALLEY":" ","HOUSE_NO":"７號","E_COORD97":168301.63,"N_COORD97":2545238.0099999998,"ADDRESS":"育德路３５巷７號","OBJECTID":280308},"geometry":{"x":168301.62999999989,"y":2545238.0100000016}},{"attributes":{"ID":280315,"DIS_CODE":0,"TOWNNAME":"北區","LI":"和順里","LIN":"6鄰","STREET":"育德路","SECT":" ","MAREA":" ","LANE":"３５巷","ALLEY":" ","HOUSE_NO":"８號","E_COORD97":168310.54999999999,"N_COORD97":2545256.1299999999,"ADDRESS":"育德路３５巷８號","OBJECTID":280309},"geometry":{"x":168310.54999999981,"y":2545256.1299999971}},{"attributes":{"ID":280316,"DIS_CODE":0,"TOWNNAME":"北區","LI":"和順里","LIN":"6鄰","STREET":"育德路","SECT":" ","MAREA":" ","LANE":"３５巷","ALLEY":" ","HOUSE_NO":"９號","E_COORD97":168298.04000000001,"N_COORD97":2545240.6200000001,"ADDRESS":"育德路３５巷９號","OBJECTID":280310},"geometry":{"x":168298.04000000097,"y":2545240.620000001}},{"attributes":{"ID":280317,"DIS_CODE":0,"TOWNNAME":"北區","LI":"和順里","LIN":"6鄰","STREET":"育德路","SECT":" ","MAREA":" ","LANE":"４９巷","ALLEY":" ","HOUSE_NO":"１號","E_COORD97":168333.67000000001,"N_COORD97":2545259.02,"ADDRESS":"育德路４９巷１號","OBJECTID":280311},"geometry":{"x":168333.66999999993,"y":2545259.0200000014}},{"attributes":{"ID":280318,"DIS_CODE":0,"TOWNNAME":"北區","LI":"和順里","LIN":"6鄰","STREET":"育德路","SECT":" ","MAREA":" ","LANE":"４９巷","ALLEY":" ","HOUSE_NO":"２號","E_COORD97":168344.97,"N_COORD97":2545276.8599999999,"ADDRESS":"育德路４９巷２號","OBJECTID":280312},"geometry":{"x":168344.96999999974,"y":2545276.8600000013}},{"attributes":{"ID":280319,"DIS_CODE":0,"TOWNNAME":"歸仁區","LI":"八甲里","LIN":"2鄰","STREET":"大明三街","SECT":" ","MAREA":" ","LANE":" ","ALLEY":" ","HOUSE_NO":"８８號","E_COORD97":178015.32000000001,"N_COORD97":2541609.6099999999,"ADDRESS":"大明三街８８號","OBJECTID":280313},"geometry":{"x":178015.32000000123,"y":2541609.6100000013}},{"attributes":{"ID":280320,"DIS_CODE":0,"TOWNNAME":"歸仁區","LI":"大潭里","LIN":"2鄰","STREET":"中正南路","SECT":"三段","MAREA":" ","LANE":" ","ALLEY":" ","HOUSE_NO":"１６３號","E_COORD97":175225.81,"N_COORD97":2534857.2799999998,"ADDRESS":"中正南路三段１６３號","OBJECTID":280314},"geometry":{"x":175225.81000000052,"y":2534857.2799999975}},{"attributes":{"ID":280321,"DIS_CODE":0,"TOWNNAME":"歸仁區","LI":"大潭里","LIN":"2鄰","STREET":"中正南路","SECT":"三段","MAREA":" ","LANE":" ","ALLEY":" ","HOUSE_NO":"２３３號","E_COORD97":175198.51000000001,"N_COORD97":2534736.2799999998,"ADDRESS":"中正南路三段２３３號","OBJECTID":280315},"geometry":{"x":175198.50999999978,"y":2534736.2800000012}},{"attributes":{"ID":280322,"DIS_CODE":0,"TOWNNAME":"歸仁區","LI":"大潭里","LIN":"2鄰","STREET":"中正南路","SECT":"三段","MAREA":" ","LANE":" ","ALLEY":" ","HOUSE_NO":"２２３號","E_COORD97":175188.41,"N_COORD97":2534765.2799999998,"ADDRESS":"中正南路三段２２３號","OBJECTID":280316},"geometry":{"x":175188.41000000108,"y":2534765.2799999993}},{"attributes":{"ID":280323,"DIS_CODE":0,"TOWNNAME":"北區","LI":"和順里","LIN":"6鄰","STREET":"育德路","SECT":" ","MAREA":" ","LANE":"４９巷","ALLEY":" ","HOUSE_NO":"３號","E_COORD97":168328.14999999999,"N_COORD97":2545262.1699999999,"ADDRESS":"育德路４９巷３號","OBJECTID":280317},"geometry":{"x":168328.1500000013,"y":2545262.1700000018}},{"attributes":{"ID":280324,"DIS_CODE":0,"TOWNNAME":"新營區","LI":"王公里","LIN":"15鄰","STREET":"大勇街","SECT":" ","MAREA":" ","LANE":" ","ALLEY":" ","HOUSE_NO":"５６號","E_COORD97":180312.10331800001,"N_COORD97":2579430.5164600001,"ADDRESS":"大勇街５６號","OBJECTID":280318},"geometry":{"x":180312.10331800207,"y":2579430.5164589994}},{"attributes":{"ID":280325,"DIS_CODE":0,"TOWNNAME":"北區","LI":"和順里","LIN":"6鄰","STREET":"育德路","SECT":" ","MAREA":" ","LANE":"４９巷","ALLEY":" ","HOUSE_NO":"５號","E_COORD97":168323.42999999999,"N_COORD97":2545265.5800000001,"ADDRESS":"育德路４９巷５號","OBJECTID":280319},"geometry":{"x":168323.4299999997,"y":2545265.5800000019}},{"attributes":{"ID":280326,"DIS_CODE":0,"TOWNNAME":"北區","LI":"和順里","LIN":"6鄰","STREET":"育德路","SECT":" ","MAREA":" ","LANE":"４９巷","ALLEY":" ","HOUSE_NO":"６號","E_COORD97":168332.62,"N_COORD97":2545284.21,"ADDRESS":"育德路４９巷６號","OBJECTID":280320},"geometry":{"x":168332.62000000011,"y":2545284.2100000009}},{"attributes":{"ID":280327,"DIS_CODE":0,"TOWNNAME":"歸仁區","LI":"八甲里","LIN":"6鄰","STREET":"大光一街","SECT":" ","MAREA":" ","LANE":"１０巷","ALLEY":" ","HOUSE_NO":"１１號","E_COORD97":177887.26999999999,"N_COORD97":2541686.6099999999,"ADDRESS":"大光一街１０巷１１號","OBJECTID":280321},"geometry":{"x":177887.27000000142,"y":2541686.6099999994}},{"attributes":{"ID":280328,"DIS_CODE":0,"TOWNNAME":"歸仁區","LI":"大廟里","LIN":"6鄰","STREET":"大廟一街","SECT":" ","MAREA":" ","LANE":"１６１巷","ALLEY":" ","HOUSE_NO":"１號","E_COORD97":175697.82000000001,"N_COORD97":2543792.25,"ADDRESS":"大廟一街１６１巷１號","OBJECTID":280322},"geometry":{"x":175697.82000000123,"y":2543792.2500000037}},{"attributes":{"ID":280329,"DIS_CODE":0,"TOWNNAME":"歸仁區","LI":"大潭里","LIN":"6鄰","STREET":"大潭一街","SECT":" ","MAREA":" ","LANE":"１８巷","ALLEY":" ","HOUSE_NO":"９號","E_COORD97":175199.17000000001,"N_COORD97":2534680.25,"ADDRESS":"大潭一街１８巷９號","OBJECTID":280323},"geometry":{"x":175199.16999999993,"y":2534680.2500000019}},{"attributes":{"ID":280330,"DIS_CODE":0,"TOWNNAME":"南區","LI":"永寧里","LIN":"6鄰","STREET":"灣裡路","SECT":" ","MAREA":" ","LANE":"８８巷","ALLEY":" ","HOUSE_NO":"１３８號之３","E_COORD97":165861.41,"N_COORD97":2536549.8300000001,"ADDRESS":"灣裡路８８巷１３８號之３","OBJECTID":280324},"geometry":{"x":165861.41000000108,"y":2536549.8300000038}},{"attributes":{"ID":280331,"DIS_CODE":0,"TOWNNAME":"南區","LI":"永寧里","LIN":"6鄰","STREET":"灣裡路","SECT":" ","MAREA":" ","LANE":"８８巷","ALLEY":" ","HOUSE_NO":"１３８號之４","E_COORD97":165854.10999999999,"N_COORD97":2536550.8700000001,"ADDRESS":"灣裡路８８巷１３８號之４","OBJECTID":280325},"geometry":{"x":165854.11000000034,"y":2536550.8700000029}},{"attributes":{"ID":280332,"DIS_CODE":0,"TOWNNAME":"南區","LI":"永寧里","LIN":"6鄰","STREET":"灣裡路","SECT":" ","MAREA":" ","LANE":"８８巷","ALLEY":" ","HOUSE_NO":"１３８號之５","E_COORD97":165847.76999999999,"N_COORD97":2536552.1899999999,"ADDRESS":"灣裡路８８巷１３８號之５","OBJECTID":280326},"geometry":{"x":165847.76999999862,"y":2536552.1899999995}},{"attributes":{"ID":280333,"DIS_CODE":0,"TOWNNAME":"南區","LI":"永寧里","LIN":"6鄰","STREET":"灣裡路","SECT":" ","MAREA":" ","LANE":"８８巷","ALLEY":" ","HOUSE_NO":"１３８號之６","E_COORD97":165841.70999999999,"N_COORD97":2536552.4300000002,"ADDRESS":"灣裡路８８巷１３８號之６","OBJECTID":280327},"geometry":{"x":165841.70999999996,"y":2536552.4300000016}},{"attributes":{"ID":280334,"DIS_CODE":0,"TOWNNAME":"佳里區","LI":"安西里","LIN":"18鄰","STREET":"進學路","SECT":" ","MAREA":" ","LANE":"３１６巷","ALLEY":" ","HOUSE_NO":"１５號","E_COORD97":165420.5,"N_COORD97":2562762.79,"ADDRESS":"進學路３１６巷１５號","OBJECTID":280328},"geometry":{"x":165420.5,"y":2562762.7899999991}},{"attributes":{"ID":280335,"DIS_CODE":0,"TOWNNAME":"南區","LI":"永寧里","LIN":"6鄰","STREET":"灣裡路","SECT":" ","MAREA":" ","LANE":"８８巷","ALLEY":" ","HOUSE_NO":"１４２號","E_COORD97":165848.70999999999,"N_COORD97":2536519.0800000001,"ADDRESS":"灣裡路８８巷１４２號","OBJECTID":280329},"geometry":{"x":165848.71000000183,"y":2536519.0800000019}},{"attributes":{"ID":280336,"DIS_CODE":0,"TOWNNAME":"東區","LI":"中西里","LIN":"7鄰","STREET":"懷恩街","SECT":" ","MAREA":" ","LANE":" ","ALLEY":" ","HOUSE_NO":"２號","E_COORD97":169966.98999999999,"N_COORD97":2543323.77,"ADDRESS":"懷恩街２號","OBJECTID":280330},"geometry":{"x":169966.99000000115,"y":2543323.7700000033}},{"attributes":{"ID":280337,"DIS_CODE":0,"TOWNNAME":"安南區","LI":"四草里","LIN":"2鄰","STREET":"大眾六街","SECT":" ","MAREA":" ","LANE":" ","ALLEY":" ","HOUSE_NO":"２２８號","E_COORD97":160218.283708,"N_COORD97":2546817.6339599998,"ADDRESS":"大眾六街２２８號","OBJECTID":280331},"geometry":{"x":160218.28370800056,"y":2546817.6339590028}},{"attributes":{"ID":280338,"DIS_CODE":0,"TOWNNAME":"南區","LI":"永寧里","LIN":"6鄰","STREET":"灣裡路","SECT":" ","MAREA":" ","LANE":"８８巷","ALLEY":" ","HOUSE_NO":"１４４號","E_COORD97":165838.48000000001,"N_COORD97":2536512.5499999998,"ADDRESS":"灣裡路８８巷１４４號","OBJECTID":280332},"geometry":{"x":165838.48000000045,"y":2536512.5500000026}},{"attributes":{"ID":280339,"DIS_CODE":0,"TOWNNAME":"南區","LI":"永寧里","LIN":"6鄰","STREET":"灣裡路","SECT":" ","MAREA":" ","LANE":"８８巷","ALLEY":" ","HOUSE_NO":"１４４號之１","E_COORD97":165832.98999999999,"N_COORD97":2536520.9700000002,"ADDRESS":"灣裡路８８巷１４４號之１","OBJECTID":280333},"geometry":{"x":165832.99000000022,"y":2536520.9700000007}},{"attributes":{"ID":280340,"DIS_CODE":0,"TOWNNAME":"南區","LI":"永寧里","LIN":"6鄰","STREET":"灣裡路","SECT":" ","MAREA":" ","LANE":"８８巷","ALLEY":" ","HOUSE_NO":"１５２號","E_COORD97":165794.20000000001,"N_COORD97":2536508.5,"ADDRESS":"灣裡路８８巷１５２號","OBJECTID":280334},"geometry":{"x":165794.20000000019,"y":2536508.5000000019}},{"attributes":{"ID":280341,"DIS_CODE":0,"TOWNNAME":"南區","LI":"永寧里","LIN":"6鄰","STREET":"灣裡路","SECT":" ","MAREA":" ","LANE":"８８巷","ALLEY":" ","HOUSE_NO":"１５２號之２","E_COORD97":165800.59,"N_COORD97":2536493.9900000002,"ADDRESS":"灣裡路８８巷１５２號之２","OBJECTID":280335},"geometry":{"x":165800.59000000078,"y":2536493.9900000002}},{"attributes":{"ID":280342,"DIS_CODE":0,"TOWNNAME":"南區","LI":"廣州里","LIN":"6鄰","STREET":"大德街","SECT":" ","MAREA":" ","LANE":"１７０巷","ALLEY":" ","HOUSE_NO":"２號","E_COORD97":167519.39999999999,"N_COORD97":2543027.6299999999,"ADDRESS":"大德街１７０巷２號","OBJECTID":280336},"geometry":{"x":167519.40000000224,"y":2543027.629999999}},{"attributes":{"ID":280343,"DIS_CODE":0,"TOWNNAME":"佳里區","LI":"六安里","LIN":"28鄰","STREET":"進學路","SECT":" ","MAREA":" ","LANE":"２５０巷","ALLEY":" ","HOUSE_NO":"１０號","E_COORD97":165604.67000000001,"N_COORD97":2562791.5899999999,"ADDRESS":"進學路２５０巷１０號","OBJECTID":280337},"geometry":{"x":165604.66999999993,"y":2562791.5899999999}},{"attributes":{"ID":280344,"DIS_CODE":0,"TOWNNAME":"新營區","LI":"興業里","LIN":"6鄰","STREET":"公誠街","SECT":" ","MAREA":" ","LANE":"１１巷","ALLEY":" ","HOUSE_NO":"１號","E_COORD97":180301.60999999999,"N_COORD97":2577975.48,"ADDRESS":"公誠街１１巷１號","OBJECTID":280338},"geometry":{"x":180301.61000000127,"y":2577975.4800000004}},{"attributes":{"ID":280345,"DIS_CODE":0,"TOWNNAME":"新營區","LI":"興業里","LIN":"6鄰","STREET":"公誠街","SECT":" ","MAREA":" ","LANE":"１１巷","ALLEY":" ","HOUSE_NO":"７之１號","E_COORD97":180329.70999999999,"N_COORD97":2577974.2999999998,"ADDRESS":"公誠街１１巷７之１號","OBJECTID":280339},"geometry":{"x":180329.71000000089,"y":2577974.3000000045}},{"attributes":{"ID":280346,"DIS_CODE":0,"TOWNNAME":"南區","LI":"鯤鯓里","LIN":"6鄰","STREET":"鯤鯓路","SECT":" ","MAREA":" ","LANE":"１０４巷","ALLEY":" ","HOUSE_NO":"５５號","E_COORD97":164959.63,"N_COORD97":2540133.0099999998,"ADDRESS":"鯤鯓路１０４巷５５號","OBJECTID":280340},"geometry":{"x":164959.63000000082,"y":2540133.0100000016}},{"attributes":{"ID":280347,"DIS_CODE":0,"TOWNNAME":"柳營區","LI":"士林里","LIN":"2鄰","STREET":" ","SECT":" ","MAREA":"柳營","LANE":" ","ALLEY":" ","HOUSE_NO":"１０之１１號","E_COORD97":179032.42000000001,"N_COORD97":2575266.3300000001,"ADDRESS":"柳營１０之１１號","OBJECTID":280341},"geometry":{"x":179032.42000000179,"y":2575266.3300000001}},{"attributes":{"ID":280348,"DIS_CODE":0,"TOWNNAME":"柳營區","LI":"士林里","LIN":"2鄰","STREET":" ","SECT":" ","MAREA":"柳營","LANE":" ","ALLEY":" ","HOUSE_NO":"１０之２１號","E_COORD97":179036.47,"N_COORD97":2575324.1400000001,"ADDRESS":"柳營１０之２１號","OBJECTID":280342},"geometry":{"x":179036.46999999974,"y":2575324.1400000043}},{"attributes":{"ID":280349,"DIS_CODE":0,"TOWNNAME":"仁德區","LI":"太子里","LIN":"27鄰","STREET":"太子路","SECT":" ","MAREA":" ","LANE":" ","ALLEY":" ","HOUSE_NO":"６６９號","E_COORD97":173470.98714099999,"N_COORD97":2543512.5223599998,"ADDRESS":"太子路６６９號","OBJECTID":280343},"geometry":{"x":173470.98714100011,"y":2543512.5223640017}},{"attributes":{"ID":280350,"DIS_CODE":0,"TOWNNAME":"柳營區","LI":"士林里","LIN":"2鄰","STREET":" ","SECT":" ","MAREA":"柳營","LANE":" ","ALLEY":" ","HOUSE_NO":"１０之５１號","E_COORD97":179011.53,"N_COORD97":2575398.7799999998,"ADDRESS":"柳營１０之５１號","OBJECTID":280344},"geometry":{"x":179011.53000000026,"y":2575398.7799999993}},{"attributes":{"ID":280351,"DIS_CODE":0,"TOWNNAME":"南區","LI":"鯤鯓里","LIN":"6鄰","STREET":"鯤鯓路","SECT":" ","MAREA":" ","LANE":"１０４巷","ALLEY":" ","HOUSE_NO":"５７號","E_COORD97":164957.32999999999,"N_COORD97":2540138.9199999999,"ADDRESS":"鯤鯓路１０４巷５７號","OBJECTID":280345},"geometry":{"x":164957.33000000007,"y":2540138.9199999999}},{"attributes":{"ID":280352,"DIS_CODE":0,"TOWNNAME":"南區","LI":"鯤鯓里","LIN":"6鄰","STREET":"鯤鯓路","SECT":" ","MAREA":" ","LANE":"１０４巷","ALLEY":" ","HOUSE_NO":"５９號","E_COORD97":164959.01999999999,"N_COORD97":2540144.9100000001,"ADDRESS":"鯤鯓路１０４巷５９號","OBJECTID":280346},"geometry":{"x":164959.01999999955,"y":2540144.9100000001}},{"attributes":{"ID":280353,"DIS_CODE":0,"TOWNNAME":"六甲區","LI":"七甲里","LIN":"6鄰","STREET":"七甲街","SECT":" ","MAREA":" ","LANE":"１６０巷","ALLEY":" ","HOUSE_NO":"１３號","E_COORD97":183055.13,"N_COORD97":2569085.6000000001,"ADDRESS":"七甲街１６０巷１３號","OBJECTID":280347},"geometry":{"x":183055.12999999989,"y":2569085.6000000015}},{"attributes":{"ID":280354,"DIS_CODE":0,"TOWNNAME":"六甲區","LI":"七甲里","LIN":"6鄰","STREET":"七甲街","SECT":" ","MAREA":" ","LANE":"１６０巷","ALLEY":" ","HOUSE_NO":"１號","E_COORD97":183035.32999999999,"N_COORD97":2569149.5499999998,"ADDRESS":"七甲街１６０巷１號","OBJECTID":280348},"geometry":{"x":183035.33000000007,"y":2569149.5500000007}},{"attributes":{"ID":280355,"DIS_CODE":0,"TOWNNAME":"六甲區","LI":"七甲里","LIN":"6鄰","STREET":"七甲街","SECT":" ","MAREA":" ","LANE":"１６０巷","ALLEY":" ","HOUSE_NO":"２號","E_COORD97":183024.29000000001,"N_COORD97":2569123.98,"ADDRESS":"七甲街１６０巷２號","OBJECTID":280349},"geometry":{"x":183024.29000000097,"y":2569123.9800000042}},{"attributes":{"ID":280356,"DIS_CODE":0,"TOWNNAME":"六甲區","LI":"七甲里","LIN":"6鄰","STREET":"七甲街","SECT":" ","MAREA":" ","LANE":"１６０巷","ALLEY":" ","HOUSE_NO":"３號","E_COORD97":183050.70999999999,"N_COORD97":2569153.25,"ADDRESS":"七甲街１６０巷３號","OBJECTID":280350},"geometry":{"x":183050.70999999996,"y":2569153.2500000019}},{"attributes":{"ID":280357,"DIS_CODE":0,"TOWNNAME":"六甲區","LI":"七甲里","LIN":"6鄰","STREET":"七甲街","SECT":" ","MAREA":" ","LANE":"１６０巷","ALLEY":" ","HOUSE_NO":"４號","E_COORD97":183034.51999999999,"N_COORD97":2569108.8399999999,"ADDRESS":"七甲街１６０巷４號","OBJECTID":280351},"geometry":{"x":183034.52000000048,"y":2569108.8400000017}},{"attributes":{"ID":280358,"DIS_CODE":0,"TOWNNAME":"六甲區","LI":"七甲里","LIN":"6鄰","STREET":"七甲街","SECT":" ","MAREA":" ","LANE":"１６０巷","ALLEY":" ","HOUSE_NO":"５號","E_COORD97":183053.41,"N_COORD97":2569130.8500000001,"ADDRESS":"七甲街１６０巷５號","OBJECTID":280352},"geometry":{"x":183053.41000000015,"y":2569130.8500000034}},{"attributes":{"ID":280359,"DIS_CODE":0,"TOWNNAME":"北區","LI":"文成里","LIN":"6鄰","STREET":"文賢路","SECT":" ","MAREA":" ","LANE":"５７２巷","ALLEY":" ","HOUSE_NO":"３５號","E_COORD97":167485.64000000001,"N_COORD97":2545424.1299999999,"ADDRESS":"文賢路５７２巷３５號","OBJECTID":280353},"geometry":{"x":167485.63999999966,"y":2545424.1300000008}},{"attributes":{"ID":280360,"DIS_CODE":0,"TOWNNAME":"北區","LI":"文成里","LIN":"6鄰","STREET":"文賢路","SECT":" ","MAREA":" ","LANE":"５７２巷","ALLEY":" ","HOUSE_NO":"３６號","E_COORD97":167474.39000000001,"N_COORD97":2545407.25,"ADDRESS":"文賢路５７２巷３６號","OBJECTID":280354},"geometry":{"x":167474.38999999966,"y":2545407.2500000019}},{"attributes":{"ID":280361,"DIS_CODE":0,"TOWNNAME":"柳營區","LI":"士林里","LIN":"2鄰","STREET":" ","SECT":" ","MAREA":"柳營","LANE":" ","ALLEY":" ","HOUSE_NO":"１０之６１號","E_COORD97":179005.76000000001,"N_COORD97":2575550.3100000001,"ADDRESS":"柳營１０之６１號","OBJECTID":280355},"geometry":{"x":179005.75999999978,"y":2575550.3100000024}},{"attributes":{"ID":280362,"DIS_CODE":0,"TOWNNAME":"柳營區","LI":"士林里","LIN":"2鄰","STREET":" ","SECT":" ","MAREA":"柳營","LANE":" ","ALLEY":" ","HOUSE_NO":"１０之７號","E_COORD97":179034.53,"N_COORD97":2575289.02,"ADDRESS":"柳營１０之７號","OBJECTID":280356},"geometry":{"x":179034.53000000119,"y":2575289.0199999996}},{"attributes":{"ID":280363,"DIS_CODE":0,"TOWNNAME":"柳營區","LI":"士林里","LIN":"2鄰","STREET":" ","SECT":" ","MAREA":"柳營","LANE":" ","ALLEY":" ","HOUSE_NO":"１４之１號","E_COORD97":179241.89000000001,"N_COORD97":2575259.1699999999,"ADDRESS":"柳營１４之１號","OBJECTID":280357},"geometry":{"x":179241.88999999966,"y":2575259.1700000018}},{"attributes":{"ID":280364,"DIS_CODE":0,"TOWNNAME":"柳營區","LI":"士林里","LIN":"2鄰","STREET":" ","SECT":" ","MAREA":"柳營","LANE":" ","ALLEY":" ","HOUSE_NO":"１４號","E_COORD97":179246.34,"N_COORD97":2575271.5299999998,"ADDRESS":"柳營１４號","OBJECTID":280358},"geometry":{"x":179246.33999999985,"y":2575271.5299999993}},{"attributes":{"ID":280365,"DIS_CODE":0,"TOWNNAME":"柳營區","LI":"士林里","LIN":"2鄰","STREET":" ","SECT":" ","MAREA":"柳營","LANE":" ","ALLEY":" ","HOUSE_NO":"１５之１０號","E_COORD97":179266.39999999999,"N_COORD97":2575282.46,"ADDRESS":"柳營１５之１０號","OBJECTID":280359},"geometry":{"x":179266.40000000037,"y":2575282.4600000028}},{"attributes":{"ID":280366,"DIS_CODE":0,"TOWNNAME":"北區","LI":"文成里","LIN":"6鄰","STREET":"文賢路","SECT":" ","MAREA":" ","LANE":"５７２巷","ALLEY":" ","HOUSE_NO":"３７號","E_COORD97":167492.32000000001,"N_COORD97":2545425.4700000002,"ADDRESS":"文賢路５７２巷３７號","OBJECTID":280360},"geometry":{"x":167492.3200000003,"y":2545425.4700000044}},{"attributes":{"ID":280367,"DIS_CODE":0,"TOWNNAME":"柳營區","LI":"光福里","LIN":"2鄰","STREET":"建利街","SECT":" ","MAREA":" ","LANE":"２巷","ALLEY":" ","HOUSE_NO":"１號","E_COORD97":179773.57000000001,"N_COORD97":2575000.1200000001,"ADDRESS":"建利街２巷１號","OBJECTID":280361},"geometry":{"x":179773.5700000003,"y":2575000.1200000029}},{"attributes":{"ID":280368,"DIS_CODE":0,"TOWNNAME":"柳營區","LI":"光福里","LIN":"2鄰","STREET":"建安街","SECT":" ","MAREA":" ","LANE":" ","ALLEY":" ","HOUSE_NO":"２９號","E_COORD97":179803.91,"N_COORD97":2574987.5499999998,"ADDRESS":"建安街２９號","OBJECTID":280362},"geometry":{"x":179803.91000000015,"y":2574987.5500000007}},{"attributes":{"ID":280369,"DIS_CODE":0,"TOWNNAME":"柳營區","LI":"士林里","LIN":"2鄰","STREET":" ","SECT":" ","MAREA":"柳營","LANE":" ","ALLEY":" ","HOUSE_NO":"１５之１１號","E_COORD97":179265.41,"N_COORD97":2575286.5299999998,"ADDRESS":"柳營１５之１１號","OBJECTID":280363},"geometry":{"x":179265.41000000108,"y":2575286.5300000012}},{"attributes":{"ID":280370,"DIS_CODE":0,"TOWNNAME":"柳營區","LI":"士林里","LIN":"2鄰","STREET":" ","SECT":" ","MAREA":"柳營","LANE":" ","ALLEY":" ","HOUSE_NO":"１５之１２號","E_COORD97":179264.42000000001,"N_COORD97":2575290.6000000001,"ADDRESS":"柳營１５之１２號","OBJECTID":280364},"geometry":{"x":179264.41999999993,"y":2575290.6000000015}},{"attributes":{"ID":280371,"DIS_CODE":0,"TOWNNAME":"柳營區","LI":"士林里","LIN":"2鄰","STREET":" ","SECT":" ","MAREA":"柳營","LANE":" ","ALLEY":" ","HOUSE_NO":"１５號之１２","E_COORD97":179264.42000000001,"N_COORD97":2575290.6000000001,"ADDRESS":"柳營１５號之１２","OBJECTID":280365},"geometry":{"x":179264.41999999993,"y":2575290.6000000015}},{"attributes":{"ID":280372,"DIS_CODE":0,"TOWNNAME":"柳營區","LI":"士林里","LIN":"2鄰","STREET":" ","SECT":" ","MAREA":"柳營","LANE":" ","ALLEY":" ","HOUSE_NO":"１５之１３號","E_COORD97":179263.42999999999,"N_COORD97":2575294.6600000001,"ADDRESS":"柳營１５之１３號","OBJECTID":280366},"geometry":{"x":179263.43000000063,"y":2575294.6600000001}},{"attributes":{"ID":280373,"DIS_CODE":0,"TOWNNAME":"柳營區","LI":"士林里","LIN":"2鄰","STREET":" ","SECT":" ","MAREA":"柳營","LANE":" ","ALLEY":" ","HOUSE_NO":"１５之１４號","E_COORD97":179262.44,"N_COORD97":2575298.73,"ADDRESS":"柳營１５之１４號","OBJECTID":280367},"geometry":{"x":179262.44000000134,"y":2575298.7300000004}},{"attributes":{"ID":280374,"DIS_CODE":0,"TOWNNAME":"柳營區","LI":"士林里","LIN":"2鄰","STREET":" ","SECT":" ","MAREA":"柳營","LANE":" ","ALLEY":" ","HOUSE_NO":"１５之１５號","E_COORD97":179261.45000000001,"N_COORD97":2575302.7999999998,"ADDRESS":"柳營１５之１５號","OBJECTID":280368},"geometry":{"x":179261.45000000205,"y":2575302.8000000045}},{"attributes":{"ID":280375,"DIS_CODE":0,"TOWNNAME":"柳營區","LI":"士林里","LIN":"2鄰","STREET":" ","SECT":" ","MAREA":"柳營","LANE":" ","ALLEY":" ","HOUSE_NO":"１５之１６號","E_COORD97":179260.45999999999,"N_COORD97":2575306.8700000001,"ADDRESS":"柳營１５之１６號","OBJECTID":280369},"geometry":{"x":179260.45999999996,"y":2575306.8700000029}},{"attributes":{"ID":280376,"DIS_CODE":0,"TOWNNAME":"柳營區","LI":"光福里","LIN":"2鄰","STREET":"建安街","SECT":" ","MAREA":" ","LANE":" ","ALLEY":" ","HOUSE_NO":"１１號","E_COORD97":179763.79000000001,"N_COORD97":2574982.77,"ADDRESS":"建安街１１號","OBJECTID":280370},"geometry":{"x":179763.79000000004,"y":2574982.7700000033}},{"attributes":{"ID":280377,"DIS_CODE":0,"TOWNNAME":"柳營區","LI":"士林里","LIN":"2鄰","STREET":" ","SECT":" ","MAREA":"柳營","LANE":" ","ALLEY":" ","HOUSE_NO":"１５之７號","E_COORD97":179268.84,"N_COORD97":2575270.46,"ADDRESS":"柳營１５之７號","OBJECTID":280371},"geometry":{"x":179268.84000000078,"y":2575270.4600000009}},{"attributes":{"ID":280378,"DIS_CODE":0,"TOWNNAME":"柳營區","LI":"士林里","LIN":"2鄰","STREET":" ","SECT":" ","MAREA":"柳營","LANE":" ","ALLEY":" ","HOUSE_NO":"１５號之７","E_COORD97":179268.84,"N_COORD97":2575270.46,"ADDRESS":"柳營１５號之７","OBJECTID":280372},"geometry":{"x":179268.84000000078,"y":2575270.4600000009}},{"attributes":{"ID":280379,"DIS_CODE":0,"TOWNNAME":"柳營區","LI":"士林里","LIN":"2鄰","STREET":" ","SECT":" ","MAREA":"柳營","LANE":" ","ALLEY":" ","HOUSE_NO":"１５之８號","E_COORD97":179267.95999999999,"N_COORD97":2575274.6200000001,"ADDRESS":"柳營１５之８號","OBJECTID":280373},"geometry":{"x":179267.96000000183,"y":2575274.6200000029}},{"attributes":{"ID":280380,"DIS_CODE":0,"TOWNNAME":"北區","LI":"文成里","LIN":"6鄰","STREET":"文賢路","SECT":" ","MAREA":" ","LANE":"５７２巷","ALLEY":" ","HOUSE_NO":"３８號","E_COORD97":167478.97,"N_COORD97":2545407.25,"ADDRESS":"文賢路５７２巷３８號","OBJECTID":280374},"geometry":{"x":167478.96999999974,"y":2545407.2500000019}},{"attributes":{"ID":280381,"DIS_CODE":0,"TOWNNAME":"柳營區","LI":"大農里","LIN":"2鄰","STREET":"義士路","SECT":"一段","MAREA":" ","LANE":" ","ALLEY":" ","HOUSE_NO":"３２０號","E_COORD97":186250.39999999999,"N_COORD97":2575784.0600000001,"ADDRESS":"義士路一段３２０號","OBJECTID":280375},"geometry":{"x":186250.40000000037,"y":2575784.0600000005}},{"attributes":{"ID":280382,"DIS_CODE":0,"TOWNNAME":"北區","LI":"文成里","LIN":"6鄰","STREET":"文賢路","SECT":" ","MAREA":" ","LANE":"５７２巷","ALLEY":" ","HOUSE_NO":"３號","E_COORD97":167399.95999999999,"N_COORD97":2545423.9500000002,"ADDRESS":"文賢路５７２巷３號","OBJECTID":280376},"geometry":{"x":167399.96000000183,"y":2545423.950000003}},{"attributes":{"ID":280383,"DIS_CODE":0,"TOWNNAME":"北區","LI":"文成里","LIN":"6鄰","STREET":"文賢路","SECT":" ","MAREA":" ","LANE":"５７２巷","ALLEY":" ","HOUSE_NO":"４０號","E_COORD97":167491.17999999999,"N_COORD97":2545407.25,"ADDRESS":"文賢路５７２巷４０號","OBJECTID":280377},"geometry":{"x":167491.17999999877,"y":2545407.2500000019}},{"attributes":{"ID":280384,"DIS_CODE":0,"TOWNNAME":"北區","LI":"文成里","LIN":"6鄰","STREET":"文賢路","SECT":" ","MAREA":" ","LANE":"５７２巷","ALLEY":" ","HOUSE_NO":"４２號","E_COORD97":167497.09,"N_COORD97":2545407.25,"ADDRESS":"文賢路５７２巷４２號","OBJECTID":280378},"geometry":{"x":167497.08999999892,"y":2545407.2500000019}},{"attributes":{"ID":280385,"DIS_CODE":0,"TOWNNAME":"北區","LI":"文成里","LIN":"6鄰","STREET":"文賢路","SECT":" ","MAREA":" ","LANE":"５７２巷","ALLEY":" ","HOUSE_NO":"４６號","E_COORD97":167501.09,"N_COORD97":2545407.25,"ADDRESS":"文賢路５７２巷４６號","OBJECTID":280379},"geometry":{"x":167501.09000000078,"y":2545407.2500000019}},{"attributes":{"ID":280386,"DIS_CODE":0,"TOWNNAME":"北區","LI":"文成里","LIN":"6鄰","STREET":"文賢路","SECT":" ","MAREA":" ","LANE":"５７２巷","ALLEY":" ","HOUSE_NO":"４８號","E_COORD97":167506.04999999999,"N_COORD97":2545407.25,"ADDRESS":"文賢路５７２巷４８號","OBJECTID":280380},"geometry":{"x":167506.05000000075,"y":2545407.2500000019}},{"attributes":{"ID":280387,"DIS_CODE":0,"TOWNNAME":"北區","LI":"文成里","LIN":"6鄰","STREET":"文賢路","SECT":" ","MAREA":" ","LANE":"５７２巷","ALLEY":" ","HOUSE_NO":"４號","E_COORD97":167396.72,"N_COORD97":2545411.4399999999,"ADDRESS":"文賢路５７２巷４號","OBJECTID":280381},"geometry":{"x":167396.72000000067,"y":2545411.4400000013}},{"attributes":{"ID":280388,"DIS_CODE":0,"TOWNNAME":"北區","LI":"文成里","LIN":"6鄰","STREET":"文賢路","SECT":" ","MAREA":" ","LANE":"５７２巷","ALLEY":" ","HOUSE_NO":"５０號","E_COORD97":167510.63,"N_COORD97":2545407.25,"ADDRESS":"文賢路５７２巷５０號","OBJECTID":280382},"geometry":{"x":167510.63000000175,"y":2545407.2500000019}},{"attributes":{"ID":280389,"DIS_CODE":0,"TOWNNAME":"北區","LI":"文成里","LIN":"6鄰","STREET":"文賢路","SECT":" ","MAREA":" ","LANE":"５７２巷","ALLEY":" ","HOUSE_NO":"６號","E_COORD97":167400.91,"N_COORD97":2545411.25,"ADDRESS":"文賢路５７２巷６號","OBJECTID":280383},"geometry":{"x":167400.91000000108,"y":2545411.25}},{"attributes":{"ID":280390,"DIS_CODE":0,"TOWNNAME":"柳營區","LI":"旭山里","LIN":"2鄰","STREET":" ","SECT":" ","MAREA":"新吉庄","LANE":" ","ALLEY":" ","HOUSE_NO":"１６號之６","E_COORD97":187006.79000000001,"N_COORD97":2573806.0299999998,"ADDRESS":"新吉庄１６號之６","OBJECTID":280384},"geometry":{"x":187006.79000000004,"y":2573806.0300000012}},{"attributes":{"ID":280391,"DIS_CODE":0,"TOWNNAME":"柳營區","LI":"旭山里","LIN":"2鄰","STREET":" ","SECT":" ","MAREA":"新吉庄","LANE":" ","ALLEY":" ","HOUSE_NO":"１６號之７","E_COORD97":186952.01999999999,"N_COORD97":2573711.0099999998,"ADDRESS":"新吉庄１６號之７","OBJECTID":280385},"geometry":{"x":186952.02000000048,"y":2573711.0100000016}},{"attributes":{"ID":280392,"DIS_CODE":0,"TOWNNAME":"柳營區","LI":"旭山里","LIN":"2鄰","STREET":" ","SECT":" ","MAREA":"新吉庄","LANE":" ","ALLEY":" ","HOUSE_NO":"１６號之８","E_COORD97":186983.56,"N_COORD97":2573778.8700000001,"ADDRESS":"新吉庄１６號之８","OBJECTID":280386},"geometry":{"x":186983.56000000052,"y":2573778.870000001}},{"attributes":{"ID":280393,"DIS_CODE":0,"TOWNNAME":"柳營區","LI":"旭山里","LIN":"2鄰","STREET":" ","SECT":" ","MAREA":"新吉庄","LANE":" ","ALLEY":" ","HOUSE_NO":"１８號","E_COORD97":187125.95999999999,"N_COORD97":2573821.6000000001,"ADDRESS":"新吉庄１８號","OBJECTID":280387},"geometry":{"x":187125.95999999996,"y":2573821.6000000015}},{"attributes":{"ID":280394,"DIS_CODE":0,"TOWNNAME":"柳營區","LI":"旭山里","LIN":"2鄰","STREET":" ","SECT":" ","MAREA":"新吉庄","LANE":" ","ALLEY":" ","HOUSE_NO":"１９號之１","E_COORD97":187134.23999999999,"N_COORD97":2573775.8399999999,"ADDRESS":"新吉庄１９號之１","OBJECTID":280388},"geometry":{"x":187134.24000000115,"y":2573775.8400000036}},{"attributes":{"ID":280395,"DIS_CODE":0,"TOWNNAME":"柳營區","LI":"旭山里","LIN":"2鄰","STREET":" ","SECT":" ","MAREA":"新吉庄","LANE":" ","ALLEY":" ","HOUSE_NO":"１９號之２","E_COORD97":187154.12,"N_COORD97":2573800.7599999998,"ADDRESS":"新吉庄１９號之２","OBJECTID":280389},"geometry":{"x":187154.12000000011,"y":2573800.7600000016}},{"attributes":{"ID":280396,"DIS_CODE":0,"TOWNNAME":"柳營區","LI":"旭山里","LIN":"2鄰","STREET":" ","SECT":" ","MAREA":"新吉庄","LANE":" ","ALLEY":" ","HOUSE_NO":"１９號之３","E_COORD97":187119.72,"N_COORD97":2573751.8300000001,"ADDRESS":"新吉庄１９號之３","OBJECTID":280390},"geometry":{"x":187119.7200000016,"y":2573751.8300000001}},{"attributes":{"ID":280397,"DIS_CODE":0,"TOWNNAME":"柳營區","LI":"旭山里","LIN":"2鄰","STREET":" ","SECT":" ","MAREA":"新吉庄","LANE":" ","ALLEY":" ","HOUSE_NO":"１９號之６","E_COORD97":187105.87,"N_COORD97":2573800,"ADDRESS":"新吉庄１９號之６","OBJECTID":280391},"geometry":{"x":187105.87000000104,"y":2573800.0000000019}},{"attributes":{"ID":280398,"DIS_CODE":0,"TOWNNAME":"柳營區","LI":"旭山里","LIN":"2鄰","STREET":" ","SECT":" ","MAREA":"新吉庄","LANE":" ","ALLEY":" ","HOUSE_NO":"１９號之７","E_COORD97":187138.60000000001,"N_COORD97":2573760.02,"ADDRESS":"新吉庄１９號之７","OBJECTID":280392},"geometry":{"x":187138.59999999963,"y":2573760.0199999996}},{"attributes":{"ID":280399,"DIS_CODE":0,"TOWNNAME":"柳營區","LI":"旭山里","LIN":"2鄰","STREET":" ","SECT":" ","MAREA":"新吉庄","LANE":" ","ALLEY":" ","HOUSE_NO":"１９號之８","E_COORD97":187143.23000000001,"N_COORD97":2573760.8300000001,"ADDRESS":"新吉庄１９號之８","OBJECTID":280393},"geometry":{"x":187143.23000000138,"y":2573760.8300000001}},{"attributes":{"ID":280400,"DIS_CODE":0,"TOWNNAME":"柳營區","LI":"旭山里","LIN":"2鄰","STREET":" ","SECT":" ","MAREA":"新吉庄","LANE":" ","ALLEY":" ","HOUSE_NO":"１９號","E_COORD97":187148.14999999999,"N_COORD97":2573807.5600000001,"ADDRESS":"新吉庄１９號","OBJECTID":280394},"geometry":{"x":187148.1500000013,"y":2573807.5600000005}},{"attributes":{"ID":280401,"DIS_CODE":0,"TOWNNAME":"柳營區","LI":"旭山里","LIN":"2鄰","STREET":" ","SECT":" ","MAREA":"新吉庄","LANE":" ","ALLEY":" ","HOUSE_NO":"２０號之１","E_COORD97":187127.20000000001,"N_COORD97":2573845.3900000001,"ADDRESS":"新吉庄２０號之１","OBJECTID":280395},"geometry":{"x":187127.20000000205,"y":2573845.3900000025}},{"attributes":{"ID":280402,"DIS_CODE":0,"TOWNNAME":"柳營區","LI":"旭山里","LIN":"2鄰","STREET":" ","SECT":" ","MAREA":"新吉庄","LANE":" ","ALLEY":" ","HOUSE_NO":"２０號之２","E_COORD97":187104.29000000001,"N_COORD97":2573826.04,"ADDRESS":"新吉庄２０號之２","OBJECTID":280396},"geometry":{"x":187104.2900000019,"y":2573826.040000001}},{"attributes":{"ID":280403,"DIS_CODE":0,"TOWNNAME":"安南區","LI":"四草里","LIN":"2鄰","STREET":"大眾六街","SECT":" ","MAREA":" ","LANE":" ","ALLEY":" ","HOUSE_NO":"２２８之１號","E_COORD97":160221.884165,"N_COORD97":2546828.2172900001,"ADDRESS":"大眾六街２２８之１號","OBJECTID":280397},"geometry":{"x":160221.8841650011,"y":2546828.217286}},{"attributes":{"ID":280404,"DIS_CODE":0,"TOWNNAME":"北區","LI":"文成里","LIN":"6鄰","STREET":"文賢路","SECT":" ","MAREA":" ","LANE":"５７２巷","ALLEY":" ","HOUSE_NO":"７號","E_COORD97":167408.92999999999,"N_COORD97":2545424.71,"ADDRESS":"文賢路５７２巷７號","OBJECTID":280398},"geometry":{"x":167408.93000000063,"y":2545424.7100000028}},{"attributes":{"ID":280405,"DIS_CODE":0,"TOWNNAME":"北區","LI":"文成里","LIN":"6鄰","STREET":"文賢路","SECT":" ","MAREA":" ","LANE":"５７２巷","ALLEY":" ","HOUSE_NO":"８號","E_COORD97":167405.48999999999,"N_COORD97":2545411.25,"ADDRESS":"文賢路５７２巷８號","OBJECTID":280399},"geometry":{"x":167405.49000000115,"y":2545411.25}},{"attributes":{"ID":280406,"DIS_CODE":0,"TOWNNAME":"北區","LI":"文成里","LIN":"6鄰","STREET":"文賢路","SECT":" ","MAREA":" ","LANE":"５７２巷","ALLEY":" ","HOUSE_NO":"９號","E_COORD97":167417.89000000001,"N_COORD97":2545424.71,"ADDRESS":"文賢路５７２巷９號","OBJECTID":280400},"geometry":{"x":167417.88999999966,"y":2545424.7100000028}}]}