{"displayFieldName":"TOWNNAME","fieldAliases":{"ID":"ID","DIS_CODE":"DIS_CODE","TOWNNAME":"TOWNNAME","LI":"LI","LIN":"LIN","STREET":"STREET","SECT":"SECT","MAREA":"MAREA","LANE":"LANE","ALLEY":"ALLEY","HOUSE_NO":"HOUSE_NO","E_COORD97":"E_COORD97","N_COORD97":"N_COORD97","ADDRESS":"ADDRESS","OBJECTID":"OBJECTID"},"geometryType":"esriGeometryPoint","spatialReference":{"wkid":102443,"latestWkid":3826},"fields":[{"name":"ID","type":"esriFieldTypeDouble","alias":"ID"},{"name":"DIS_CODE","type":"esriFieldTypeInteger","alias":"DIS_CODE"},{"name":"TOWNNAME","type":"esriFieldTypeString","alias":"TOWNNAME","length":8},{"name":"LI","type":"esriFieldTypeString","alias":"LI","length":8},{"name":"LIN","type":"esriFieldTypeString","alias":"LIN","length":12},{"name":"STREET","type":"esriFieldTypeString","alias":"STREET","length":20},{"name":"SECT","type":"esriFieldTypeString","alias":"SECT","length":8},{"name":"MAREA","type":"esriFieldTypeString","alias":"MAREA","length":12},{"name":"LANE","type":"esriFieldTypeString","alias":"LANE","length":10},{"name":"ALLEY","type":"esriFieldTypeString","alias":"ALLEY","length":10},{"name":"HOUSE_NO","type":"esriFieldTypeString","alias":"HOUSE_NO","length":20},{"name":"E_COORD97","type":"esriFieldTypeDouble","alias":"E_COORD97"},{"name":"N_COORD97","type":"esriFieldTypeDouble","alias":"N_COORD97"},{"name":"ADDRESS","type":"esriFieldTypeString","alias":"ADDRESS","length":50},{"name":"OBJECTID","type":"esriFieldTypeOID","alias":"OBJECTID"}],"features":[{"attributes":{"ID":356010,"DIS_CODE":0,"TOWNNAME":"永康區","LI":"崑山里","LIN":"33鄰","STREET":"國光二街","SECT":" ","MAREA":" ","LANE":"７０巷","ALLEY":" ","HOUSE_NO":"４５號","E_COORD97":173914.92000000001,"N_COORD97":2544879.2999999998,"ADDRESS":"國光二街７０巷４５號","OBJECTID":356001},"geometry":{"x":173914.92000000086,"y":2544879.3000000007}},{"attributes":{"ID":356011,"DIS_CODE":0,"TOWNNAME":"永康區","LI":"崑山里","LIN":"33鄰","STREET":"國光二街","SECT":" ","MAREA":" ","LANE":"７０巷","ALLEY":" ","HOUSE_NO":"２９號","E_COORD97":173902.88,"N_COORD97":2544847.54,"ADDRESS":"國光二街７０巷２９號","OBJECTID":356002},"geometry":{"x":173902.87999999989,"y":2544847.540000001}},{"attributes":{"ID":356012,"DIS_CODE":0,"TOWNNAME":"永康區","LI":"崑山里","LIN":"33鄰","STREET":"崑山街","SECT":" ","MAREA":" ","LANE":"１２３巷","ALLEY":" ","HOUSE_NO":"２２號","E_COORD97":173930.38,"N_COORD97":2544834.46,"ADDRESS":"崑山街１２３巷２２號","OBJECTID":356003},"geometry":{"x":173930.38000000082,"y":2544834.4600000009}},{"attributes":{"ID":356013,"DIS_CODE":0,"TOWNNAME":"永康區","LI":"勝利里","LIN":"33鄰","STREET":"中華路","SECT":" ","MAREA":" ","LANE":"２３巷","ALLEY":" ","HOUSE_NO":"７號","E_COORD97":171476.72,"N_COORD97":2544465.04,"ADDRESS":"中華路２３巷７號","OBJECTID":356004},"geometry":{"x":171476.72000000067,"y":2544465.040000001}},{"attributes":{"ID":356014,"DIS_CODE":0,"TOWNNAME":"東區","LI":"自強里","LIN":"8鄰","STREET":"東門路","SECT":"三段","MAREA":" ","LANE":" ","ALLEY":" ","HOUSE_NO":"１３號九樓之１","E_COORD97":171098.26000000001,"N_COORD97":2542396.1299999999,"ADDRESS":"東門路三段１３號九樓之１","OBJECTID":356005},"geometry":{"x":171098.26000000164,"y":2542396.1300000008}},{"attributes":{"ID":356015,"DIS_CODE":0,"TOWNNAME":"東區","LI":"自強里","LIN":"8鄰","STREET":"東門路","SECT":"三段","MAREA":" ","LANE":" ","ALLEY":" ","HOUSE_NO":"１３號九樓之２","E_COORD97":171098.26000000001,"N_COORD97":2542396.1299999999,"ADDRESS":"東門路三段１３號九樓之２","OBJECTID":356006},"geometry":{"x":171098.26000000164,"y":2542396.1300000008}},{"attributes":{"ID":356016,"DIS_CODE":0,"TOWNNAME":"東區","LI":"自強里","LIN":"8鄰","STREET":"東門路","SECT":"三段","MAREA":" ","LANE":" ","ALLEY":" ","HOUSE_NO":"１３號九樓之３","E_COORD97":171098.26000000001,"N_COORD97":2542396.1299999999,"ADDRESS":"東門路三段１３號九樓之３","OBJECTID":356007},"geometry":{"x":171098.26000000164,"y":2542396.1300000008}},{"attributes":{"ID":356017,"DIS_CODE":0,"TOWNNAME":"東區","LI":"自強里","LIN":"8鄰","STREET":"東門路","SECT":"三段","MAREA":" ","LANE":" ","ALLEY":" ","HOUSE_NO":"１３號二十一樓","E_COORD97":171098.26000000001,"N_COORD97":2542396.1299999999,"ADDRESS":"東門路三段１３號二十一樓","OBJECTID":356008},"geometry":{"x":171098.26000000164,"y":2542396.1300000008}},{"attributes":{"ID":356018,"DIS_CODE":0,"TOWNNAME":"東區","LI":"自強里","LIN":"8鄰","STREET":"東門路","SECT":"三段","MAREA":" ","LANE":" ","ALLEY":" ","HOUSE_NO":"１３號二十一樓之１","E_COORD97":171098.26000000001,"N_COORD97":2542396.1299999999,"ADDRESS":"東門路三段１３號二十一樓之１","OBJECTID":356009},"geometry":{"x":171098.26000000164,"y":2542396.1300000008}},{"attributes":{"ID":356019,"DIS_CODE":0,"TOWNNAME":"東區","LI":"自強里","LIN":"8鄰","STREET":"東門路","SECT":"三段","MAREA":" ","LANE":" ","ALLEY":" ","HOUSE_NO":"１３號二十二樓","E_COORD97":171098.26000000001,"N_COORD97":2542396.1299999999,"ADDRESS":"東門路三段１３號二十二樓","OBJECTID":356010},"geometry":{"x":171098.26000000164,"y":2542396.1300000008}},{"attributes":{"ID":356020,"DIS_CODE":0,"TOWNNAME":"官田區","LI":"隆本里","LIN":"26鄰","STREET":"信義街","SECT":"二段","MAREA":" ","LANE":"６５巷","ALLEY":" ","HOUSE_NO":"１號","E_COORD97":179751.04000000001,"N_COORD97":2566054.48,"ADDRESS":"信義街二段６５巷１號","OBJECTID":356011},"geometry":{"x":179751.04000000097,"y":2566054.4800000004}},{"attributes":{"ID":356021,"DIS_CODE":0,"TOWNNAME":"官田區","LI":"隆本里","LIN":"26鄰","STREET":"信義街","SECT":"二段","MAREA":" ","LANE":"６５巷","ALLEY":" ","HOUSE_NO":"２號","E_COORD97":179751.45000000001,"N_COORD97":2566072.4700000002,"ADDRESS":"信義街二段６５巷２號","OBJECTID":356012},"geometry":{"x":179751.45000000112,"y":2566072.4700000007}},{"attributes":{"ID":356022,"DIS_CODE":0,"TOWNNAME":"官田區","LI":"隆本里","LIN":"26鄰","STREET":"信義街","SECT":"二段","MAREA":" ","LANE":"６５巷","ALLEY":" ","HOUSE_NO":"３號","E_COORD97":179745.76999999999,"N_COORD97":2566055.0499999998,"ADDRESS":"信義街二段６５巷３號","OBJECTID":356013},"geometry":{"x":179745.77000000048,"y":2566055.0500000007}},{"attributes":{"ID":356023,"DIS_CODE":0,"TOWNNAME":"官田區","LI":"隆本里","LIN":"26鄰","STREET":"信義街","SECT":"二段","MAREA":" ","LANE":"６５巷","ALLEY":" ","HOUSE_NO":"５號","E_COORD97":179738.89000000001,"N_COORD97":2566055.6200000001,"ADDRESS":"信義街二段６５巷５號","OBJECTID":356014},"geometry":{"x":179738.88999999966,"y":2566055.6200000029}},{"attributes":{"ID":356024,"DIS_CODE":0,"TOWNNAME":"官田區","LI":"隆本里","LIN":"26鄰","STREET":"信義街","SECT":"二段","MAREA":" ","LANE":"６５巷","ALLEY":" ","HOUSE_NO":"６號","E_COORD97":179745.35999999999,"N_COORD97":2566073.5,"ADDRESS":"信義街二段６５巷６號","OBJECTID":356015},"geometry":{"x":179745.3600000022,"y":2566073.5000000019}},{"attributes":{"ID":356025,"DIS_CODE":0,"TOWNNAME":"官田區","LI":"隆本里","LIN":"26鄰","STREET":"信義街","SECT":"二段","MAREA":" ","LANE":"６５巷","ALLEY":" ","HOUSE_NO":"７號","E_COORD97":179729.19,"N_COORD97":2566063.0699999998,"ADDRESS":"信義街二段６５巷７號","OBJECTID":356016},"geometry":{"x":179729.19000000041,"y":2566063.0700000022}},{"attributes":{"ID":356026,"DIS_CODE":0,"TOWNNAME":"官田區","LI":"隆本里","LIN":"26鄰","STREET":"信義街","SECT":"二段","MAREA":" ","LANE":"６５巷","ALLEY":" ","HOUSE_NO":"８號","E_COORD97":179739.69,"N_COORD97":2566074.2000000002,"ADDRESS":"信義街二段６５巷８號","OBJECTID":356017},"geometry":{"x":179739.69000000227,"y":2566074.2000000011}},{"attributes":{"ID":356027,"DIS_CODE":0,"TOWNNAME":"南區","LI":"開南里","LIN":"24鄰","STREET":"新建路","SECT":" ","MAREA":" ","LANE":"４９巷","ALLEY":" ","HOUSE_NO":"１０號","E_COORD97":166515.89999999999,"N_COORD97":2540812.29,"ADDRESS":"新建路４９巷１０號","OBJECTID":356018},"geometry":{"x":166515.90000000224,"y":2540812.290000001}},{"attributes":{"ID":356028,"DIS_CODE":0,"TOWNNAME":"官田區","LI":"隆本里","LIN":"26鄰","STREET":"信義街","SECT":"二段","MAREA":" ","LANE":"６５巷","ALLEY":" ","HOUSE_NO":"９號","E_COORD97":179722.23999999999,"N_COORD97":2566063.5699999998,"ADDRESS":"信義街二段６５巷９號","OBJECTID":356019},"geometry":{"x":179722.24000000209,"y":2566063.5700000003}},{"attributes":{"ID":356029,"DIS_CODE":0,"TOWNNAME":"永康區","LI":"大橋里","LIN":"26鄰","STREET":"大橋一街","SECT":" ","MAREA":" ","LANE":"２４７巷","ALLEY":" ","HOUSE_NO":"５０號","E_COORD97":171238,"N_COORD97":2546776.4900000002,"ADDRESS":"大橋一街２４７巷５０號","OBJECTID":356020},"geometry":{"x":171238.00000000093,"y":2546776.4900000002}},{"attributes":{"ID":356030,"DIS_CODE":0,"TOWNNAME":"永康區","LI":"中興里","LIN":"26鄰","STREET":"中山東路","SECT":" ","MAREA":" ","LANE":"３８６巷","ALLEY":" ","HOUSE_NO":"１０號","E_COORD97":171854.45999999999,"N_COORD97":2545256.7400000002,"ADDRESS":"中山東路３８６巷１０號","OBJECTID":356021},"geometry":{"x":171854.45999999996,"y":2545256.7399999984}},{"attributes":{"ID":356031,"DIS_CODE":0,"TOWNNAME":"永康區","LI":"中興里","LIN":"26鄰","STREET":"中山東路","SECT":" ","MAREA":" ","LANE":"３８６巷","ALLEY":" ","HOUSE_NO":"１６號","E_COORD97":171842.59,"N_COORD97":2545257.7400000002,"ADDRESS":"中山東路３８６巷１６號","OBJECTID":356022},"geometry":{"x":171842.59000000078,"y":2545257.7400000021}},{"attributes":{"ID":356032,"DIS_CODE":0,"TOWNNAME":"東區","LI":"自強里","LIN":"8鄰","STREET":"東門路","SECT":"三段","MAREA":" ","LANE":" ","ALLEY":" ","HOUSE_NO":"１３號二十二樓之１","E_COORD97":171098.26000000001,"N_COORD97":2542396.1299999999,"ADDRESS":"東門路三段１３號二十二樓之１","OBJECTID":356023},"geometry":{"x":171098.26000000164,"y":2542396.1300000008}},{"attributes":{"ID":356033,"DIS_CODE":0,"TOWNNAME":"東區","LI":"自強里","LIN":"8鄰","STREET":"東門路","SECT":"三段","MAREA":" ","LANE":" ","ALLEY":" ","HOUSE_NO":"１３號二十三樓","E_COORD97":171098.26000000001,"N_COORD97":2542396.1299999999,"ADDRESS":"東門路三段１３號二十三樓","OBJECTID":356024},"geometry":{"x":171098.26000000164,"y":2542396.1300000008}},{"attributes":{"ID":356034,"DIS_CODE":0,"TOWNNAME":"東區","LI":"自強里","LIN":"8鄰","STREET":"東門路","SECT":"三段","MAREA":" ","LANE":" ","ALLEY":" ","HOUSE_NO":"１３號二十三樓之１","E_COORD97":171098.26000000001,"N_COORD97":2542396.1299999999,"ADDRESS":"東門路三段１３號二十三樓之１","OBJECTID":356025},"geometry":{"x":171098.26000000164,"y":2542396.1300000008}},{"attributes":{"ID":356035,"DIS_CODE":0,"TOWNNAME":"東區","LI":"自強里","LIN":"8鄰","STREET":"東門路","SECT":"三段","MAREA":" ","LANE":" ","ALLEY":" ","HOUSE_NO":"１３號二十樓","E_COORD97":171098.26000000001,"N_COORD97":2542396.1299999999,"ADDRESS":"東門路三段１３號二十樓","OBJECTID":356026},"geometry":{"x":171098.26000000164,"y":2542396.1300000008}},{"attributes":{"ID":356036,"DIS_CODE":0,"TOWNNAME":"東區","LI":"自強里","LIN":"8鄰","STREET":"東門路","SECT":"三段","MAREA":" ","LANE":" ","ALLEY":" ","HOUSE_NO":"１３號二十樓之１","E_COORD97":171098.26000000001,"N_COORD97":2542396.1299999999,"ADDRESS":"東門路三段１３號二十樓之１","OBJECTID":356027},"geometry":{"x":171098.26000000164,"y":2542396.1300000008}},{"attributes":{"ID":356037,"DIS_CODE":0,"TOWNNAME":"東區","LI":"自強里","LIN":"8鄰","STREET":"東門路","SECT":"三段","MAREA":" ","LANE":" ","ALLEY":" ","HOUSE_NO":"１３號八樓","E_COORD97":171098.26000000001,"N_COORD97":2542396.1299999999,"ADDRESS":"東門路三段１３號八樓","OBJECTID":356028},"geometry":{"x":171098.26000000164,"y":2542396.1300000008}},{"attributes":{"ID":356038,"DIS_CODE":0,"TOWNNAME":"東區","LI":"自強里","LIN":"8鄰","STREET":"東門路","SECT":"三段","MAREA":" ","LANE":" ","ALLEY":" ","HOUSE_NO":"１３號八樓之１","E_COORD97":171098.26000000001,"N_COORD97":2542396.1299999999,"ADDRESS":"東門路三段１３號八樓之１","OBJECTID":356029},"geometry":{"x":171098.26000000164,"y":2542396.1300000008}},{"attributes":{"ID":356039,"DIS_CODE":0,"TOWNNAME":"東區","LI":"自強里","LIN":"8鄰","STREET":"東門路","SECT":"三段","MAREA":" ","LANE":" ","ALLEY":" ","HOUSE_NO":"１３號八樓之２","E_COORD97":171098.26000000001,"N_COORD97":2542396.1299999999,"ADDRESS":"東門路三段１３號八樓之２","OBJECTID":356030},"geometry":{"x":171098.26000000164,"y":2542396.1300000008}},{"attributes":{"ID":356040,"DIS_CODE":0,"TOWNNAME":"東區","LI":"自強里","LIN":"8鄰","STREET":"東門路","SECT":"三段","MAREA":" ","LANE":" ","ALLEY":" ","HOUSE_NO":"１３號八樓之３","E_COORD97":171098.26000000001,"N_COORD97":2542396.1299999999,"ADDRESS":"東門路三段１３號八樓之３","OBJECTID":356031},"geometry":{"x":171098.26000000164,"y":2542396.1300000008}},{"attributes":{"ID":356041,"DIS_CODE":0,"TOWNNAME":"東區","LI":"自強里","LIN":"8鄰","STREET":"東門路","SECT":"三段","MAREA":" ","LANE":" ","ALLEY":" ","HOUSE_NO":"１３號十一樓","E_COORD97":171098.26000000001,"N_COORD97":2542396.1299999999,"ADDRESS":"東門路三段１３號十一樓","OBJECTID":356032},"geometry":{"x":171098.26000000164,"y":2542396.1300000008}},{"attributes":{"ID":356042,"DIS_CODE":0,"TOWNNAME":"安南區","LI":"安富里","LIN":"26鄰","STREET":"郡安路","SECT":"五段","MAREA":" ","LANE":"１７８巷","ALLEY":" ","HOUSE_NO":"１１號","E_COORD97":167533.28,"N_COORD97":2547710.0099999998,"ADDRESS":"郡安路五段１７８巷１１號","OBJECTID":356033},"geometry":{"x":167533.28000000026,"y":2547710.0100000016}},{"attributes":{"ID":356043,"DIS_CODE":0,"TOWNNAME":"安南區","LI":"安富里","LIN":"26鄰","STREET":"郡安路","SECT":"五段","MAREA":" ","LANE":"１７８巷","ALLEY":" ","HOUSE_NO":"１７號","E_COORD97":167537.92000000001,"N_COORD97":2547691.1400000001,"ADDRESS":"郡安路五段１７８巷１７號","OBJECTID":356034},"geometry":{"x":167537.92000000086,"y":2547691.1400000006}},{"attributes":{"ID":356044,"DIS_CODE":0,"TOWNNAME":"安南區","LI":"安富里","LIN":"26鄰","STREET":"郡安路","SECT":"五段","MAREA":" ","LANE":"１７８巷","ALLEY":" ","HOUSE_NO":"１９號","E_COORD97":167538.81,"N_COORD97":2547687.7400000002,"ADDRESS":"郡安路五段１７８巷１９號","OBJECTID":356035},"geometry":{"x":167538.80999999959,"y":2547687.7400000039}},{"attributes":{"ID":356045,"DIS_CODE":0,"TOWNNAME":"永康區","LI":"崑山里","LIN":"33鄰","STREET":"崑山街","SECT":" ","MAREA":" ","LANE":"１４３巷","ALLEY":" ","HOUSE_NO":"７號","E_COORD97":173990.07000000001,"N_COORD97":2544850.1200000001,"ADDRESS":"崑山街１４３巷７號","OBJECTID":356036},"geometry":{"x":173990.0700000003,"y":2544850.120000001}},{"attributes":{"ID":356046,"DIS_CODE":0,"TOWNNAME":"永康區","LI":"崑山里","LIN":"33鄰","STREET":"崑山街","SECT":" ","MAREA":" ","LANE":"１４３巷","ALLEY":" ","HOUSE_NO":"５號","E_COORD97":173993.98999999999,"N_COORD97":2544848.8700000001,"ADDRESS":"崑山街１４３巷５號","OBJECTID":356037},"geometry":{"x":173993.99000000022,"y":2544848.870000001}},{"attributes":{"ID":356047,"DIS_CODE":0,"TOWNNAME":"永康區","LI":"崑山里","LIN":"33鄰","STREET":"國光二街","SECT":" ","MAREA":" ","LANE":"７０巷","ALLEY":" ","HOUSE_NO":"４３號","E_COORD97":173913.13,"N_COORD97":2544875.0499999998,"ADDRESS":"國光二街７０巷４３號","OBJECTID":356038},"geometry":{"x":173913.12999999896,"y":2544875.0500000007}},{"attributes":{"ID":356048,"DIS_CODE":0,"TOWNNAME":"永康區","LI":"勝利里","LIN":"33鄰","STREET":"中華路","SECT":" ","MAREA":" ","LANE":"２３巷","ALLEY":" ","HOUSE_NO":"１號之１","E_COORD97":171492.23000000001,"N_COORD97":2544465.5499999998,"ADDRESS":"中華路２３巷１號之１","OBJECTID":356039},"geometry":{"x":171492.23000000045,"y":2544465.5500000045}},{"attributes":{"ID":356049,"DIS_CODE":0,"TOWNNAME":"永康區","LI":"崑山里","LIN":"33鄰","STREET":"國光二街","SECT":" ","MAREA":" ","LANE":"７０巷","ALLEY":" ","HOUSE_NO":"４９號","E_COORD97":173917.88,"N_COORD97":2544888.5499999998,"ADDRESS":"國光二街７０巷４９號","OBJECTID":356040},"geometry":{"x":173917.87999999989,"y":2544888.5500000007}},{"attributes":{"ID":356050,"DIS_CODE":0,"TOWNNAME":"歸仁區","LI":"辜厝里","LIN":"33鄰","STREET":"大吉二街","SECT":" ","MAREA":" ","LANE":"２６巷","ALLEY":" ","HOUSE_NO":"６１號","E_COORD97":177271.59,"N_COORD97":2540387.6800000002,"ADDRESS":"大吉二街２６巷６１號","OBJECTID":356041},"geometry":{"x":177271.59000000171,"y":2540387.6799999997}},{"attributes":{"ID":356051,"DIS_CODE":0,"TOWNNAME":"歸仁區","LI":"辜厝里","LIN":"33鄰","STREET":"大吉二街","SECT":" ","MAREA":" ","LANE":"２６巷","ALLEY":" ","HOUSE_NO":"３１號","E_COORD97":177281.29000000001,"N_COORD97":2540493.6800000002,"ADDRESS":"大吉二街２６巷３１號","OBJECTID":356042},"geometry":{"x":177281.29000000097,"y":2540493.6800000016}},{"attributes":{"ID":356052,"DIS_CODE":0,"TOWNNAME":"仁德區","LI":"上崙里","LIN":"7鄰","STREET":"德南路","SECT":" ","MAREA":" ","LANE":"３７３巷","ALLEY":" ","HOUSE_NO":"１７號","E_COORD97":173929.14999999999,"N_COORD97":2538330.27,"ADDRESS":"德南路３７３巷１７號","OBJECTID":356043},"geometry":{"x":173929.1500000013,"y":2538330.2700000014}},{"attributes":{"ID":356053,"DIS_CODE":0,"TOWNNAME":"安平區","LI":"華平里","LIN":"33鄰","STREET":"國平路","SECT":" ","MAREA":" ","LANE":"５５２巷","ALLEY":" ","HOUSE_NO":"３０號","E_COORD97":165170.69,"N_COORD97":2544136.7999999998,"ADDRESS":"國平路５５２巷３０號","OBJECTID":356044},"geometry":{"x":165170.69000000041,"y":2544136.8000000007}},{"attributes":{"ID":356054,"DIS_CODE":0,"TOWNNAME":"安平區","LI":"華平里","LIN":"33鄰","STREET":"國平路","SECT":" ","MAREA":" ","LANE":"５５２巷","ALLEY":" ","HOUSE_NO":"３２號","E_COORD97":165178.72,"N_COORD97":2544136.0899999999,"ADDRESS":"國平路５５２巷３２號","OBJECTID":356045},"geometry":{"x":165178.71999999881,"y":2544136.0900000017}},{"attributes":{"ID":356055,"DIS_CODE":0,"TOWNNAME":"安平區","LI":"華平里","LIN":"33鄰","STREET":"育平九街","SECT":" ","MAREA":" ","LANE":"１４２巷","ALLEY":" ","HOUSE_NO":"６１號","E_COORD97":165141.45000000001,"N_COORD97":2544102.0899999999,"ADDRESS":"育平九街１４２巷６１號","OBJECTID":356046},"geometry":{"x":165141.45000000019,"y":2544102.0900000017}},{"attributes":{"ID":356056,"DIS_CODE":0,"TOWNNAME":"安平區","LI":"華平里","LIN":"33鄰","STREET":"育平九街","SECT":" ","MAREA":" ","LANE":"１４２巷","ALLEY":" ","HOUSE_NO":"３１號","E_COORD97":165137.81,"N_COORD97":2544065.1000000001,"ADDRESS":"育平九街１４２巷３１號","OBJECTID":356047},"geometry":{"x":165137.81000000052,"y":2544065.1000000015}},{"attributes":{"ID":356057,"DIS_CODE":0,"TOWNNAME":"新營區","LI":"新北里","LIN":"33鄰","STREET":"新北八街","SECT":" ","MAREA":" ","LANE":"７６巷","ALLEY":" ","HOUSE_NO":"８號","E_COORD97":178775.07999999999,"N_COORD97":2579158.8599999999,"ADDRESS":"新北八街７６巷８號","OBJECTID":356048},"geometry":{"x":178775.08000000007,"y":2579158.8599999975}},{"attributes":{"ID":356058,"DIS_CODE":0,"TOWNNAME":"新營區","LI":"新北里","LIN":"33鄰","STREET":"新北八街","SECT":" ","MAREA":" ","LANE":"７６巷","ALLEY":" ","HOUSE_NO":"２４號","E_COORD97":178741.54000000001,"N_COORD97":2579157.9199999999,"ADDRESS":"新北八街７６巷２４號","OBJECTID":356049},"geometry":{"x":178741.54000000004,"y":2579157.9199999999}},{"attributes":{"ID":356059,"DIS_CODE":0,"TOWNNAME":"南區","LI":"開南里","LIN":"33鄰","STREET":"新建路","SECT":" ","MAREA":" ","LANE":"６３巷","ALLEY":" ","HOUSE_NO":"１號","E_COORD97":166479.20000000001,"N_COORD97":2540529.9500000002,"ADDRESS":"新建路６３巷１號","OBJECTID":356050},"geometry":{"x":166479.20000000019,"y":2540529.9500000011}},{"attributes":{"ID":356060,"DIS_CODE":0,"TOWNNAME":"南區","LI":"開南里","LIN":"33鄰","STREET":"新建路","SECT":" ","MAREA":" ","LANE":"６３巷","ALLEY":" ","HOUSE_NO":"２號","E_COORD97":166502.89999999999,"N_COORD97":2540504.6600000001,"ADDRESS":"新建路６３巷２號","OBJECTID":356051},"geometry":{"x":166502.9000000013,"y":2540504.660000002}},{"attributes":{"ID":356061,"DIS_CODE":0,"TOWNNAME":"南區","LI":"開南里","LIN":"33鄰","STREET":"新建路","SECT":" ","MAREA":" ","LANE":"６３巷","ALLEY":" ","HOUSE_NO":"３號","E_COORD97":166484.64000000001,"N_COORD97":2540529.54,"ADDRESS":"新建路６３巷３號","OBJECTID":356052},"geometry":{"x":166484.64000000153,"y":2540529.5399999991}},{"attributes":{"ID":356062,"DIS_CODE":0,"TOWNNAME":"南區","LI":"開南里","LIN":"33鄰","STREET":"新建路","SECT":" ","MAREA":" ","LANE":"６３巷","ALLEY":" ","HOUSE_NO":"４號","E_COORD97":166507.78,"N_COORD97":2540504.2400000002,"ADDRESS":"新建路６３巷４號","OBJECTID":356053},"geometry":{"x":166507.78000000026,"y":2540504.2400000021}},{"attributes":{"ID":356063,"DIS_CODE":0,"TOWNNAME":"南區","LI":"開南里","LIN":"33鄰","STREET":"新建路","SECT":" ","MAREA":" ","LANE":"６３巷","ALLEY":" ","HOUSE_NO":"５號","E_COORD97":166502.62,"N_COORD97":2540529.3999999999,"ADDRESS":"新建路６３巷５號","OBJECTID":356054},"geometry":{"x":166502.62000000104,"y":2540529.4000000004}},{"attributes":{"ID":356064,"DIS_CODE":0,"TOWNNAME":"南區","LI":"開南里","LIN":"33鄰","STREET":"新建路","SECT":" ","MAREA":" ","LANE":"６３巷","ALLEY":" ","HOUSE_NO":"７號","E_COORD97":166507.92000000001,"N_COORD97":2540528.7000000002,"ADDRESS":"新建路６３巷７號","OBJECTID":356055},"geometry":{"x":166507.91999999993,"y":2540528.6999999993}},{"attributes":{"ID":356065,"DIS_CODE":0,"TOWNNAME":"安平區","LI":"華平里","LIN":"33鄰","STREET":"育平九街","SECT":" ","MAREA":" ","LANE":"１４２巷","ALLEY":" ","HOUSE_NO":"３０號","E_COORD97":165151.45000000001,"N_COORD97":2544057.5800000001,"ADDRESS":"育平九街１４２巷３０號","OBJECTID":356056},"geometry":{"x":165151.45000000112,"y":2544057.5800000038}},{"attributes":{"ID":356066,"DIS_CODE":0,"TOWNNAME":"安平區","LI":"華平里","LIN":"33鄰","STREET":"育平九街","SECT":" ","MAREA":" ","LANE":"１４２巷","ALLEY":" ","HOUSE_NO":"３２號","E_COORD97":165151.85000000001,"N_COORD97":2544061.4399999999,"ADDRESS":"育平九街１４２巷３２號","OBJECTID":356057},"geometry":{"x":165151.84999999963,"y":2544061.4400000032}},{"attributes":{"ID":356067,"DIS_CODE":0,"TOWNNAME":"安平區","LI":"華平里","LIN":"33鄰","STREET":"育平九街","SECT":" ","MAREA":" ","LANE":"１４２巷","ALLEY":" ","HOUSE_NO":"３４號","E_COORD97":165152.89999999999,"N_COORD97":2544065.4500000002,"ADDRESS":"育平九街１４２巷３４號","OBJECTID":356058},"geometry":{"x":165152.90000000224,"y":2544065.4500000011}},{"attributes":{"ID":356068,"DIS_CODE":0,"TOWNNAME":"安平區","LI":"華平里","LIN":"33鄰","STREET":"育平九街","SECT":" ","MAREA":" ","LANE":"１４２巷","ALLEY":" ","HOUSE_NO":"３６號","E_COORD97":165153.78,"N_COORD97":2544069.79,"ADDRESS":"育平九街１４２巷３６號","OBJECTID":356059},"geometry":{"x":165153.78000000119,"y":2544069.790000001}},{"attributes":{"ID":356069,"DIS_CODE":0,"TOWNNAME":"東區","LI":"自強里","LIN":"8鄰","STREET":"東門路","SECT":"三段","MAREA":" ","LANE":" ","ALLEY":" ","HOUSE_NO":"１３號十一樓之１","E_COORD97":171098.26000000001,"N_COORD97":2542396.1299999999,"ADDRESS":"東門路三段１３號十一樓之１","OBJECTID":356060},"geometry":{"x":171098.26000000164,"y":2542396.1300000008}},{"attributes":{"ID":356070,"DIS_CODE":0,"TOWNNAME":"東區","LI":"自強里","LIN":"8鄰","STREET":"東門路","SECT":"三段","MAREA":" ","LANE":" ","ALLEY":" ","HOUSE_NO":"１３號十一樓之２","E_COORD97":171098.26000000001,"N_COORD97":2542396.1299999999,"ADDRESS":"東門路三段１３號十一樓之２","OBJECTID":356061},"geometry":{"x":171098.26000000164,"y":2542396.1300000008}},{"attributes":{"ID":356071,"DIS_CODE":0,"TOWNNAME":"東區","LI":"自強里","LIN":"8鄰","STREET":"東門路","SECT":"三段","MAREA":" ","LANE":" ","ALLEY":" ","HOUSE_NO":"１３號十一樓之３","E_COORD97":171098.26000000001,"N_COORD97":2542396.1299999999,"ADDRESS":"東門路三段１３號十一樓之３","OBJECTID":356062},"geometry":{"x":171098.26000000164,"y":2542396.1300000008}},{"attributes":{"ID":356072,"DIS_CODE":0,"TOWNNAME":"南區","LI":"開南里","LIN":"24鄰","STREET":"\u25A0埕路","SECT":" ","MAREA":" ","LANE":"１３１巷","ALLEY":" ","HOUSE_NO":"１６３號","E_COORD97":166523.69,"N_COORD97":2540877.46,"ADDRESS":"\u25A0埕路１３１巷１６３號","OBJECTID":356063},"geometry":{"x":166523.69000000041,"y":2540877.4600000028}},{"attributes":{"ID":356073,"DIS_CODE":0,"TOWNNAME":"安平區","LI":"華平里","LIN":"33鄰","STREET":"育平九街","SECT":" ","MAREA":" ","LANE":"１４２巷","ALLEY":" ","HOUSE_NO":"３８號","E_COORD97":165153.78,"N_COORD97":2544073.5099999998,"ADDRESS":"育平九街１４２巷３８號","OBJECTID":356064},"geometry":{"x":165153.78000000119,"y":2544073.5099999998}},{"attributes":{"ID":356074,"DIS_CODE":0,"TOWNNAME":"安平區","LI":"華平里","LIN":"33鄰","STREET":"育平九街","SECT":" ","MAREA":" ","LANE":"１４２巷","ALLEY":" ","HOUSE_NO":"４２號","E_COORD97":165154.63,"N_COORD97":2544081.6899999999,"ADDRESS":"育平九街１４２巷４２號","OBJECTID":356065},"geometry":{"x":165154.63000000082,"y":2544081.6900000013}},{"attributes":{"ID":356075,"DIS_CODE":0,"TOWNNAME":"安平區","LI":"華平里","LIN":"33鄰","STREET":"育平九街","SECT":" ","MAREA":" ","LANE":"１４２巷","ALLEY":" ","HOUSE_NO":"４２號之１","E_COORD97":165155.22,"N_COORD97":2544085.48,"ADDRESS":"育平九街１４２巷４２號之１","OBJECTID":356066},"geometry":{"x":165155.2200000016,"y":2544085.4800000004}},{"attributes":{"ID":356076,"DIS_CODE":0,"TOWNNAME":"安平區","LI":"華平里","LIN":"33鄰","STREET":"育平九街","SECT":" ","MAREA":" ","LANE":"１４２巷","ALLEY":" ","HOUSE_NO":"４６號","E_COORD97":165155.47,"N_COORD97":2544089.2200000002,"ADDRESS":"育平九街１４２巷４６號","OBJECTID":356067},"geometry":{"x":165155.47000000067,"y":2544089.2200000025}},{"attributes":{"ID":356077,"DIS_CODE":0,"TOWNNAME":"安平區","LI":"華平里","LIN":"33鄰","STREET":"育平九街","SECT":" ","MAREA":" ","LANE":"１４２巷","ALLEY":" ","HOUSE_NO":"４８號","E_COORD97":165156.06,"N_COORD97":2544093.4399999999,"ADDRESS":"育平九街１４２巷４８號","OBJECTID":356068},"geometry":{"x":165156.06000000145,"y":2544093.4400000013}},{"attributes":{"ID":356078,"DIS_CODE":0,"TOWNNAME":"安平區","LI":"華平里","LIN":"33鄰","STREET":"育平九街","SECT":" ","MAREA":" ","LANE":"１４２巷","ALLEY":" ","HOUSE_NO":"５０號","E_COORD97":165156.64999999999,"N_COORD97":2544097.3999999999,"ADDRESS":"育平九街１４２巷５０號","OBJECTID":356069},"geometry":{"x":165156.6500000013,"y":2544097.4000000022}},{"attributes":{"ID":356079,"DIS_CODE":0,"TOWNNAME":"安平區","LI":"華平里","LIN":"33鄰","STREET":"育平九街","SECT":" ","MAREA":" ","LANE":"１４２巷","ALLEY":" ","HOUSE_NO":"５２號","E_COORD97":165156.98999999999,"N_COORD97":2544101.02,"ADDRESS":"育平九街１４２巷５２號","OBJECTID":356070},"geometry":{"x":165156.99000000022,"y":2544101.0199999996}},{"attributes":{"ID":356080,"DIS_CODE":0,"TOWNNAME":"新營區","LI":"王公里","LIN":"33鄰","STREET":"民族路","SECT":" ","MAREA":" ","LANE":"３３０巷","ALLEY":" ","HOUSE_NO":"６號","E_COORD97":180416.53,"N_COORD97":2579790.0499999998,"ADDRESS":"民族路３３０巷６號","OBJECTID":356071},"geometry":{"x":180416.53000000026,"y":2579790.0500000045}},{"attributes":{"ID":356081,"DIS_CODE":0,"TOWNNAME":"安平區","LI":"華平里","LIN":"33鄰","STREET":"育平九街","SECT":" ","MAREA":" ","LANE":"１４２巷","ALLEY":" ","HOUSE_NO":"１１號","E_COORD97":165129.66,"N_COORD97":2544012.6400000001,"ADDRESS":"育平九街１４２巷１１號","OBJECTID":356072},"geometry":{"x":165129.66000000108,"y":2544012.6400000006}},{"attributes":{"ID":356082,"DIS_CODE":0,"TOWNNAME":"安平區","LI":"華平里","LIN":"33鄰","STREET":"育平九街","SECT":" ","MAREA":" ","LANE":"１４２巷","ALLEY":" ","HOUSE_NO":"１３號","E_COORD97":165130.48999999999,"N_COORD97":2544018.1000000001,"ADDRESS":"育平九街１４２巷１３號","OBJECTID":356073},"geometry":{"x":165130.49000000115,"y":2544018.0999999996}},{"attributes":{"ID":356083,"DIS_CODE":0,"TOWNNAME":"安平區","LI":"華平里","LIN":"33鄰","STREET":"育平九街","SECT":" ","MAREA":" ","LANE":"１４２巷","ALLEY":" ","HOUSE_NO":"１５號","E_COORD97":165130.73000000001,"N_COORD97":2544023.5699999998,"ADDRESS":"育平九街１４２巷１５號","OBJECTID":356074},"geometry":{"x":165130.73000000138,"y":2544023.5700000003}},{"attributes":{"ID":356084,"DIS_CODE":0,"TOWNNAME":"安平區","LI":"華平里","LIN":"33鄰","STREET":"育平九街","SECT":" ","MAREA":" ","LANE":"１４２巷","ALLEY":" ","HOUSE_NO":"１７號","E_COORD97":165131.44,"N_COORD97":2544028.6200000001,"ADDRESS":"育平九街１４２巷１７號","OBJECTID":356075},"geometry":{"x":165131.44000000134,"y":2544028.6200000029}},{"attributes":{"ID":356085,"DIS_CODE":0,"TOWNNAME":"安平區","LI":"華平里","LIN":"33鄰","STREET":"育平九街","SECT":" ","MAREA":" ","LANE":"１４２巷","ALLEY":" ","HOUSE_NO":"１９號","E_COORD97":165132.16,"N_COORD97":2544033.2200000002,"ADDRESS":"育平九街１４２巷１９號","OBJECTID":356076},"geometry":{"x":165132.16000000201,"y":2544033.2200000007}},{"attributes":{"ID":356086,"DIS_CODE":0,"TOWNNAME":"安平區","LI":"華平里","LIN":"33鄰","STREET":"育平九街","SECT":" ","MAREA":" ","LANE":"１４２巷","ALLEY":" ","HOUSE_NO":"２１號","E_COORD97":165133.10999999999,"N_COORD97":2544037.02,"ADDRESS":"育平九街１４２巷２１號","OBJECTID":356077},"geometry":{"x":165133.11000000127,"y":2544037.0199999977}},{"attributes":{"ID":356087,"DIS_CODE":0,"TOWNNAME":"安平區","LI":"華平里","LIN":"33鄰","STREET":"育平九街","SECT":" ","MAREA":" ","LANE":"１４２巷","ALLEY":" ","HOUSE_NO":"２３號","E_COORD97":165133.47,"N_COORD97":2544041.0699999998,"ADDRESS":"育平九街１４２巷２３號","OBJECTID":356078},"geometry":{"x":165133.47000000067,"y":2544041.070000004}},{"attributes":{"ID":356088,"DIS_CODE":0,"TOWNNAME":"安平區","LI":"華平里","LIN":"33鄰","STREET":"育平九街","SECT":" ","MAREA":" ","LANE":"１４２巷","ALLEY":" ","HOUSE_NO":"２５號","E_COORD97":165133.70999999999,"N_COORD97":2544045.23,"ADDRESS":"育平九街１４２巷２５號","OBJECTID":356079},"geometry":{"x":165133.71000000089,"y":2544045.2300000004}},{"attributes":{"ID":356089,"DIS_CODE":0,"TOWNNAME":"安平區","LI":"華平里","LIN":"33鄰","STREET":"育平九街","SECT":" ","MAREA":" ","LANE":"１４２巷","ALLEY":" ","HOUSE_NO":"２７號","E_COORD97":165134.54000000001,"N_COORD97":2544050.2200000002,"ADDRESS":"育平九街１４２巷２７號","OBJECTID":356080},"geometry":{"x":165134.5400000019,"y":2544050.2200000007}},{"attributes":{"ID":356090,"DIS_CODE":0,"TOWNNAME":"安平區","LI":"華平里","LIN":"33鄰","STREET":"育平九街","SECT":" ","MAREA":" ","LANE":"１４２巷","ALLEY":" ","HOUSE_NO":"２９號","E_COORD97":165136.09,"N_COORD97":2544056.6400000001,"ADDRESS":"育平九街１４２巷２９號","OBJECTID":356081},"geometry":{"x":165136.09000000078,"y":2544056.6400000006}},{"attributes":{"ID":356091,"DIS_CODE":0,"TOWNNAME":"安平區","LI":"華平里","LIN":"33鄰","STREET":"育平九街","SECT":" ","MAREA":" ","LANE":"１４２巷","ALLEY":" ","HOUSE_NO":"６３號","E_COORD97":165141.72,"N_COORD97":2544105.6600000001,"ADDRESS":"育平九街１４２巷６３號","OBJECTID":356082},"geometry":{"x":165141.72000000067,"y":2544105.660000002}},{"attributes":{"ID":356092,"DIS_CODE":0,"TOWNNAME":"安平區","LI":"華平里","LIN":"33鄰","STREET":"育平九街","SECT":" ","MAREA":" ","LANE":"１４２巷","ALLEY":" ","HOUSE_NO":"６５號","E_COORD97":165142.06,"N_COORD97":2544109.3100000001,"ADDRESS":"育平九街１４２巷６５號","OBJECTID":356083},"geometry":{"x":165142.05999999959,"y":2544109.3100000005}},{"attributes":{"ID":356093,"DIS_CODE":0,"TOWNNAME":"安平區","LI":"華平里","LIN":"33鄰","STREET":"育平九街","SECT":" ","MAREA":" ","LANE":"１４２巷","ALLEY":" ","HOUSE_NO":"６７號","E_COORD97":165142.82000000001,"N_COORD97":2544113.6499999999,"ADDRESS":"育平九街１４２巷６７號","OBJECTID":356084},"geometry":{"x":165142.8200000003,"y":2544113.6500000004}},{"attributes":{"ID":356094,"DIS_CODE":0,"TOWNNAME":"安平區","LI":"華平里","LIN":"33鄰","STREET":"育平九街","SECT":" ","MAREA":" ","LANE":"１４２巷","ALLEY":" ","HOUSE_NO":"６９號","E_COORD97":165143.57999999999,"N_COORD97":2544117.9399999999,"ADDRESS":"育平九街１４２巷６９號","OBJECTID":356085},"geometry":{"x":165143.58000000101,"y":2544117.9399999995}},{"attributes":{"ID":356095,"DIS_CODE":0,"TOWNNAME":"安平區","LI":"華平里","LIN":"33鄰","STREET":"育平九街","SECT":" ","MAREA":" ","LANE":"１４２巷","ALLEY":" ","HOUSE_NO":"７１號","E_COORD97":165144.51000000001,"N_COORD97":2544122.4900000002,"ADDRESS":"育平九街１４２巷７１號","OBJECTID":356086},"geometry":{"x":165144.50999999978,"y":2544122.4900000002}},{"attributes":{"ID":356096,"DIS_CODE":0,"TOWNNAME":"安平區","LI":"華平里","LIN":"33鄰","STREET":"育平九街","SECT":" ","MAREA":" ","LANE":"１４２巷","ALLEY":" ","HOUSE_NO":"７３號","E_COORD97":165145.10000000001,"N_COORD97":2544126.2799999998,"ADDRESS":"育平九街１４２巷７３號","OBJECTID":356087},"geometry":{"x":165145.09999999963,"y":2544126.2799999993}},{"attributes":{"ID":356097,"DIS_CODE":0,"TOWNNAME":"歸仁區","LI":"南保里","LIN":"33鄰","STREET":"民權八街","SECT":" ","MAREA":" ","LANE":"５３巷","ALLEY":" ","HOUSE_NO":"１６號","E_COORD97":176804.54000000001,"N_COORD97":2540955.29,"ADDRESS":"民權八街５３巷１６號","OBJECTID":356088},"geometry":{"x":176804.54000000097,"y":2540955.2899999991}},{"attributes":{"ID":356098,"DIS_CODE":0,"TOWNNAME":"東區","LI":"自強里","LIN":"8鄰","STREET":"東門路","SECT":"三段","MAREA":" ","LANE":" ","ALLEY":" ","HOUSE_NO":"１３號十七樓","E_COORD97":171098.26000000001,"N_COORD97":2542396.1299999999,"ADDRESS":"東門路三段１３號十七樓","OBJECTID":356089},"geometry":{"x":171098.26000000164,"y":2542396.1300000008}},{"attributes":{"ID":356099,"DIS_CODE":0,"TOWNNAME":"歸仁區","LI":"後市里","LIN":"33鄰","STREET":"文化街","SECT":"二段","MAREA":" ","LANE":"５３巷","ALLEY":" ","HOUSE_NO":"９號","E_COORD97":177406.89000000001,"N_COORD97":2541057.7599999998,"ADDRESS":"文化街二段５３巷９號","OBJECTID":356090},"geometry":{"x":177406.8900000006,"y":2541057.7599999998}},{"attributes":{"ID":356100,"DIS_CODE":0,"TOWNNAME":"歸仁區","LI":"辜厝里","LIN":"33鄰","STREET":"大吉二街","SECT":" ","MAREA":" ","LANE":"２６巷","ALLEY":" ","HOUSE_NO":"５９號","E_COORD97":177272.59,"N_COORD97":2540392.6800000002,"ADDRESS":"大吉二街２６巷５９號","OBJECTID":356091},"geometry":{"x":177272.58999999985,"y":2540392.6800000016}},{"attributes":{"ID":356101,"DIS_CODE":0,"TOWNNAME":"歸仁區","LI":"後市里","LIN":"33鄰","STREET":"文化街","SECT":"二段","MAREA":" ","LANE":"５３巷","ALLEY":" ","HOUSE_NO":"１２號","E_COORD97":177393.73999999999,"N_COORD97":2541044.7599999998,"ADDRESS":"文化街二段５３巷１２號","OBJECTID":356092},"geometry":{"x":177393.74000000115,"y":2541044.7599999998}},{"attributes":{"ID":356102,"DIS_CODE":0,"TOWNNAME":"歸仁區","LI":"許厝里","LIN":"33鄰","STREET":"公園八街","SECT":" ","MAREA":" ","LANE":"２０巷","ALLEY":" ","HOUSE_NO":"５號","E_COORD97":177892.44,"N_COORD97":2540551.0899999999,"ADDRESS":"公園八街２０巷５號","OBJECTID":356093},"geometry":{"x":177892.44000000134,"y":2540551.0899999999}},{"attributes":{"ID":356103,"DIS_CODE":0,"TOWNNAME":"歸仁區","LI":"南保里","LIN":"33鄰","STREET":"民權八街","SECT":" ","MAREA":" ","LANE":"５３巷","ALLEY":" ","HOUSE_NO":"６號","E_COORD97":176806.39000000001,"N_COORD97":2540975.29,"ADDRESS":"民權八街５３巷６號","OBJECTID":356094},"geometry":{"x":176806.38999999966,"y":2540975.2899999991}},{"attributes":{"ID":356104,"DIS_CODE":0,"TOWNNAME":"歸仁區","LI":"南保里","LIN":"33鄰","STREET":"民權八街","SECT":" ","MAREA":" ","LANE":"５３巷","ALLEY":" ","HOUSE_NO":"１４號","E_COORD97":176805.54000000001,"N_COORD97":2540960.29,"ADDRESS":"民權八街５３巷１４號","OBJECTID":356095},"geometry":{"x":176805.54000000004,"y":2540960.290000001}},{"attributes":{"ID":356105,"DIS_CODE":0,"TOWNNAME":"歸仁區","LI":"辜厝里","LIN":"33鄰","STREET":"大吉二街","SECT":" ","MAREA":" ","LANE":"２６巷","ALLEY":" ","HOUSE_NO":"４３號","E_COORD97":177280.09,"N_COORD97":2540459.6800000002,"ADDRESS":"大吉二街２６巷４３號","OBJECTID":356096},"geometry":{"x":177280.09000000171,"y":2540459.6800000034}},{"attributes":{"ID":356106,"DIS_CODE":0,"TOWNNAME":"歸仁區","LI":"辜厝里","LIN":"33鄰","STREET":"中正南路","SECT":"一段","MAREA":" ","LANE":"２１８巷","ALLEY":" ","HOUSE_NO":"２８號","E_COORD97":177274.22,"N_COORD97":2540370.6800000002,"ADDRESS":"中正南路一段２１８巷２８號","OBJECTID":356097},"geometry":{"x":177274.22000000067,"y":2540370.6799999997}},{"attributes":{"ID":356107,"DIS_CODE":0,"TOWNNAME":"玉井區","LI":"玉田里","LIN":"33鄰","STREET":"忠孝街","SECT":" ","MAREA":" ","LANE":"１９１巷","ALLEY":" ","HOUSE_NO":"７號","E_COORD97":195483.73000000001,"N_COORD97":2558131.25,"ADDRESS":"忠孝街１９１巷７號","OBJECTID":356098},"geometry":{"x":195483.73000000045,"y":2558131.2500000019}},{"attributes":{"ID":356108,"DIS_CODE":0,"TOWNNAME":"玉井區","LI":"玉田里","LIN":"33鄰","STREET":"民族路","SECT":" ","MAREA":" ","LANE":"２２９巷","ALLEY":" ","HOUSE_NO":"７號","E_COORD97":195574.29000000001,"N_COORD97":2558126.29,"ADDRESS":"民族路２２９巷７號","OBJECTID":356099},"geometry":{"x":195574.29000000004,"y":2558126.290000001}},{"attributes":{"ID":356109,"DIS_CODE":0,"TOWNNAME":"玉井區","LI":"玉田里","LIN":"33鄰","STREET":"忠孝街","SECT":" ","MAREA":" ","LANE":"１９１巷","ALLEY":" ","HOUSE_NO":"１號","E_COORD97":195497.92999999999,"N_COORD97":2558131.25,"ADDRESS":"忠孝街１９１巷１號","OBJECTID":356100},"geometry":{"x":195497.93000000063,"y":2558131.2500000019}},{"attributes":{"ID":356110,"DIS_CODE":0,"TOWNNAME":"玉井區","LI":"玉田里","LIN":"33鄰","STREET":"忠孝街","SECT":" ","MAREA":" ","LANE":"１９１巷","ALLEY":" ","HOUSE_NO":"５號","E_COORD97":195488.42999999999,"N_COORD97":2558131.25,"ADDRESS":"忠孝街１９１巷５號","OBJECTID":356101},"geometry":{"x":195488.4299999997,"y":2558131.2500000019}},{"attributes":{"ID":356111,"DIS_CODE":0,"TOWNNAME":"新營區","LI":"三仙里","LIN":"21鄰","STREET":"金華路","SECT":"一段","MAREA":" ","LANE":"１２巷","ALLEY":" ","HOUSE_NO":"７號","E_COORD97":179597.25,"N_COORD97":2579713.0800000001,"ADDRESS":"金華路一段１２巷７號","OBJECTID":356102},"geometry":{"x":179597.25000000093,"y":2579713.0800000001}},{"attributes":{"ID":356112,"DIS_CODE":0,"TOWNNAME":"新營區","LI":"三仙里","LIN":"21鄰","STREET":"金華路","SECT":"一段","MAREA":" ","LANE":"１２巷","ALLEY":" ","HOUSE_NO":"１６號","E_COORD97":179614.03,"N_COORD97":2579738.0299999998,"ADDRESS":"金華路一段１２巷１６號","OBJECTID":356103},"geometry":{"x":179614.03000000119,"y":2579738.0300000012}},{"attributes":{"ID":356113,"DIS_CODE":0,"TOWNNAME":"永康區","LI":"南灣里","LIN":"1鄰","STREET":"大灣二街","SECT":" ","MAREA":" ","LANE":" ","ALLEY":" ","HOUSE_NO":"１０７號","E_COORD97":174748.89999999999,"N_COORD97":2544776.98,"ADDRESS":"大灣二街１０７號","OBJECTID":356104},"geometry":{"x":174748.90000000037,"y":2544776.9800000004}},{"attributes":{"ID":356114,"DIS_CODE":0,"TOWNNAME":"學甲區","LI":"中洲里","LIN":"26鄰","STREET":" ","SECT":" ","MAREA":"中洲","LANE":" ","ALLEY":" ","HOUSE_NO":"３２７號之１","E_COORD97":163808.81,"N_COORD97":2571810.8700000001,"ADDRESS":"中洲３２７號之１","OBJECTID":356105},"geometry":{"x":163808.81000000052,"y":2571810.8700000029}},{"attributes":{"ID":356115,"DIS_CODE":0,"TOWNNAME":"學甲區","LI":"中洲里","LIN":"26鄰","STREET":" ","SECT":" ","MAREA":"中洲","LANE":" ","ALLEY":" ","HOUSE_NO":"３２７號","E_COORD97":163809.29000000001,"N_COORD97":2571784.21,"ADDRESS":"中洲３２７號","OBJECTID":356106},"geometry":{"x":163809.29000000097,"y":2571784.2100000046}},{"attributes":{"ID":356116,"DIS_CODE":0,"TOWNNAME":"學甲區","LI":"中洲里","LIN":"26鄰","STREET":" ","SECT":" ","MAREA":"中洲","LANE":" ","ALLEY":" ","HOUSE_NO":"３２８號之２","E_COORD97":163812.73999999999,"N_COORD97":2571832.75,"ADDRESS":"中洲３２８號之２","OBJECTID":356107},"geometry":{"x":163812.74000000022,"y":2571832.75}},{"attributes":{"ID":356117,"DIS_CODE":0,"TOWNNAME":"學甲區","LI":"中洲里","LIN":"26鄰","STREET":" ","SECT":" ","MAREA":"中洲","LANE":" ","ALLEY":" ","HOUSE_NO":"３２８號","E_COORD97":163810.57999999999,"N_COORD97":2571794.1699999999,"ADDRESS":"中洲３２８號","OBJECTID":356108},"geometry":{"x":163810.58000000101,"y":2571794.1700000018}},{"attributes":{"ID":356118,"DIS_CODE":0,"TOWNNAME":"學甲區","LI":"中洲里","LIN":"26鄰","STREET":" ","SECT":" ","MAREA":"中洲","LANE":" ","ALLEY":" ","HOUSE_NO":"３３１號","E_COORD97":163749.45999999999,"N_COORD97":2571835.7200000002,"ADDRESS":"中洲３３１號","OBJECTID":356109},"geometry":{"x":163749.45999999996,"y":2571835.7200000025}},{"attributes":{"ID":356119,"DIS_CODE":0,"TOWNNAME":"學甲區","LI":"中洲里","LIN":"26鄰","STREET":" ","SECT":" ","MAREA":"中洲","LANE":" ","ALLEY":" ","HOUSE_NO":"３３２號","E_COORD97":163761.29999999999,"N_COORD97":2571810.6499999999,"ADDRESS":"中洲３３２號","OBJECTID":356110},"geometry":{"x":163761.30000000168,"y":2571810.6500000004}},{"attributes":{"ID":356120,"DIS_CODE":0,"TOWNNAME":"學甲區","LI":"中洲里","LIN":"26鄰","STREET":" ","SECT":" ","MAREA":"中洲","LANE":" ","ALLEY":" ","HOUSE_NO":"３３４號","E_COORD97":163756.59,"N_COORD97":2571747.0099999998,"ADDRESS":"中洲３３４號","OBJECTID":356111},"geometry":{"x":163756.59000000078,"y":2571747.0100000035}},{"attributes":{"ID":356121,"DIS_CODE":0,"TOWNNAME":"學甲區","LI":"中洲里","LIN":"26鄰","STREET":" ","SECT":" ","MAREA":"中洲","LANE":" ","ALLEY":" ","HOUSE_NO":"３３５號","E_COORD97":163744.22,"N_COORD97":2571783.1200000001,"ADDRESS":"中洲３３５號","OBJECTID":356112},"geometry":{"x":163744.21999999974,"y":2571783.1200000029}},{"attributes":{"ID":356122,"DIS_CODE":0,"TOWNNAME":"歸仁區","LI":"歸南里","LIN":"26鄰","STREET":"民生十街","SECT":" ","MAREA":" ","LANE":"１８巷","ALLEY":" ","HOUSE_NO":"１９號","E_COORD97":176092.85999999999,"N_COORD97":2540252.25,"ADDRESS":"民生十街１８巷１９號","OBJECTID":356113},"geometry":{"x":176092.86000000127,"y":2540252.2499999981}},{"attributes":{"ID":356123,"DIS_CODE":0,"TOWNNAME":"歸仁區","LI":"許厝里","LIN":"26鄰","STREET":"中山路","SECT":"一段","MAREA":" ","LANE":"４４６巷","ALLEY":" ","HOUSE_NO":"７號","E_COORD97":178038.17999999999,"N_COORD97":2540765.9300000002,"ADDRESS":"中山路一段４４６巷７號","OBJECTID":356114},"geometry":{"x":178038.1799999997,"y":2540765.9299999997}},{"attributes":{"ID":356124,"DIS_CODE":0,"TOWNNAME":"新營區","LI":"民榮里","LIN":"26鄰","STREET":"復興路","SECT":" ","MAREA":" ","LANE":"３０５巷","ALLEY":" ","HOUSE_NO":"８０號","E_COORD97":178488.69,"N_COORD97":2578053.8900000001,"ADDRESS":"復興路３０５巷８０號","OBJECTID":356115},"geometry":{"x":178488.69000000227,"y":2578053.8900000006}},{"attributes":{"ID":356125,"DIS_CODE":0,"TOWNNAME":"新營區","LI":"忠政里","LIN":"26鄰","STREET":"府西路","SECT":" ","MAREA":" ","LANE":"１３７巷","ALLEY":" ","HOUSE_NO":"８號","E_COORD97":179764.98000000001,"N_COORD97":2579337.96,"ADDRESS":"府西路１３７巷８號","OBJECTID":356116},"geometry":{"x":179764.98000000231,"y":2579337.9600000009}},{"attributes":{"ID":356126,"DIS_CODE":0,"TOWNNAME":"安平區","LI":"華平里","LIN":"26鄰","STREET":"健康二街","SECT":" ","MAREA":" ","LANE":"４１９巷","ALLEY":" ","HOUSE_NO":"２３號","E_COORD97":165240.57000000001,"N_COORD97":2543713.6800000002,"ADDRESS":"健康二街４１９巷２３號","OBJECTID":356117},"geometry":{"x":165240.57000000123,"y":2543713.6799999997}},{"attributes":{"ID":356127,"DIS_CODE":0,"TOWNNAME":"新營區","LI":"王公里","LIN":"33鄰","STREET":"長榮路","SECT":"一段","MAREA":" ","LANE":"５１５巷","ALLEY":" ","HOUSE_NO":"１７號","E_COORD97":180307.29000000001,"N_COORD97":2579785.04,"ADDRESS":"長榮路一段５１５巷１７號","OBJECTID":356118},"geometry":{"x":180307.29000000097,"y":2579785.040000001}},{"attributes":{"ID":356128,"DIS_CODE":0,"TOWNNAME":"新營區","LI":"三仙里","LIN":"21鄰","STREET":"健康路","SECT":" ","MAREA":" ","LANE":"２１３巷","ALLEY":" ","HOUSE_NO":"１６號","E_COORD97":179570.76999999999,"N_COORD97":2579543.77,"ADDRESS":"健康路２１３巷１６號","OBJECTID":356119},"geometry":{"x":179570.77000000048,"y":2579543.7700000014}},{"attributes":{"ID":356129,"DIS_CODE":0,"TOWNNAME":"仁德區","LI":"仁德里","LIN":"24鄰","STREET":"文心路","SECT":" ","MAREA":" ","LANE":"１１巷","ALLEY":" ","HOUSE_NO":"３號","E_COORD97":172123.29000000001,"N_COORD97":2541332.8300000001,"ADDRESS":"文心路１１巷３號","OBJECTID":356120},"geometry":{"x":172123.29000000004,"y":2541332.8300000001}},{"attributes":{"ID":356130,"DIS_CODE":0,"TOWNNAME":"新營區","LI":"新北里","LIN":"33鄰","STREET":"新北八街","SECT":" ","MAREA":" ","LANE":"２９巷","ALLEY":" ","HOUSE_NO":"８號","E_COORD97":178680.29999999999,"N_COORD97":2579230.1899999999,"ADDRESS":"新北八街２９巷８號","OBJECTID":356121},"geometry":{"x":178680.29999999981,"y":2579230.1899999995}},{"attributes":{"ID":356131,"DIS_CODE":0,"TOWNNAME":"新營區","LI":"王公里","LIN":"33鄰","STREET":"民族路","SECT":" ","MAREA":" ","LANE":"３０８巷","ALLEY":" ","HOUSE_NO":"４３號","E_COORD97":180512.04000000001,"N_COORD97":2579766.6899999999,"ADDRESS":"民族路３０８巷４３號","OBJECTID":356122},"geometry":{"x":180512.04000000097,"y":2579766.6899999995}},{"attributes":{"ID":356132,"DIS_CODE":0,"TOWNNAME":"新營區","LI":"王公里","LIN":"33鄰","STREET":"民族路","SECT":" ","MAREA":" ","LANE":"３０８巷","ALLEY":" ","HOUSE_NO":"２９號","E_COORD97":180477.45000000001,"N_COORD97":2579764.6400000001,"ADDRESS":"民族路３０８巷２９號","OBJECTID":356123},"geometry":{"x":180477.45000000112,"y":2579764.6400000006}},{"attributes":{"ID":356133,"DIS_CODE":0,"TOWNNAME":"學甲區","LI":"中洲里","LIN":"26鄰","STREET":" ","SECT":" ","MAREA":"中洲","LANE":" ","ALLEY":" ","HOUSE_NO":"３３６號","E_COORD97":163743.48000000001,"N_COORD97":2571796.3500000001,"ADDRESS":"中洲３３６號","OBJECTID":356124},"geometry":{"x":163743.48000000045,"y":2571796.3500000015}},{"attributes":{"ID":356134,"DIS_CODE":0,"TOWNNAME":"學甲區","LI":"中洲里","LIN":"26鄰","STREET":" ","SECT":" ","MAREA":"中洲","LANE":" ","ALLEY":" ","HOUSE_NO":"３３７號","E_COORD97":163728.20999999999,"N_COORD97":2571797.8199999998,"ADDRESS":"中洲３３７號","OBJECTID":356125},"geometry":{"x":163728.21000000089,"y":2571797.8200000022}},{"attributes":{"ID":356135,"DIS_CODE":0,"TOWNNAME":"新營區","LI":"三仙里","LIN":"21鄰","STREET":"金華路","SECT":"一段","MAREA":" ","LANE":"１２巷","ALLEY":" ","HOUSE_NO":"３號","E_COORD97":179597.35999999999,"N_COORD97":2579701.0099999998,"ADDRESS":"金華路一段１２巷３號","OBJECTID":356126},"geometry":{"x":179597.36000000034,"y":2579701.0100000035}},{"attributes":{"ID":356136,"DIS_CODE":0,"TOWNNAME":"新營區","LI":"三仙里","LIN":"21鄰","STREET":"健康路","SECT":" ","MAREA":" ","LANE":"２１３巷","ALLEY":" ","HOUSE_NO":"１０號","E_COORD97":179569.81,"N_COORD97":2579558.1800000002,"ADDRESS":"健康路２１３巷１０號","OBJECTID":356127},"geometry":{"x":179569.80999999959,"y":2579558.1800000016}},{"attributes":{"ID":356137,"DIS_CODE":0,"TOWNNAME":"仁德區","LI":"太子里","LIN":"20鄰","STREET":"長興四街","SECT":" ","MAREA":" ","LANE":"２６巷","ALLEY":" ","HOUSE_NO":"１７號","E_COORD97":173967.82999999999,"N_COORD97":2543646.0099999998,"ADDRESS":"長興四街２６巷１７號","OBJECTID":356128},"geometry":{"x":173967.83000000007,"y":2543646.0099999998}},{"attributes":{"ID":356138,"DIS_CODE":0,"TOWNNAME":"仁德區","LI":"土庫里","LIN":"21鄰","STREET":"太子二街","SECT":" ","MAREA":" ","LANE":"７９巷","ALLEY":" ","HOUSE_NO":"２號","E_COORD97":174358.10000000001,"N_COORD97":2543324.2599999998,"ADDRESS":"太子二街７９巷２號","OBJECTID":356129},"geometry":{"x":174358.10000000056,"y":2543324.2600000016}},{"attributes":{"ID":356139,"DIS_CODE":0,"TOWNNAME":"東區","LI":"東光里","LIN":"33鄰","STREET":"東平路","SECT":" ","MAREA":" ","LANE":"９９巷","ALLEY":" ","HOUSE_NO":"１６號之１２四樓","E_COORD97":171092.17000000001,"N_COORD97":2543885.0299999998,"ADDRESS":"東平路９９巷１６號之１２四樓","OBJECTID":356130},"geometry":{"x":171092.17000000179,"y":2543885.0300000012}},{"attributes":{"ID":356140,"DIS_CODE":0,"TOWNNAME":"東區","LI":"東光里","LIN":"33鄰","STREET":"東平路","SECT":" ","MAREA":" ","LANE":"９９巷","ALLEY":" ","HOUSE_NO":"１６號之５二樓","E_COORD97":171093.19,"N_COORD97":2543893.52,"ADDRESS":"東平路９９巷１６號之５二樓","OBJECTID":356131},"geometry":{"x":171093.19000000134,"y":2543893.5199999996}},{"attributes":{"ID":356141,"DIS_CODE":0,"TOWNNAME":"東區","LI":"東光里","LIN":"33鄰","STREET":"東平路","SECT":" ","MAREA":" ","LANE":"９９巷","ALLEY":" ","HOUSE_NO":"１６號之５二樓之１","E_COORD97":171093.19,"N_COORD97":2543893.52,"ADDRESS":"東平路９９巷１６號之５二樓之１","OBJECTID":356132},"geometry":{"x":171093.19000000134,"y":2543893.5199999996}},{"attributes":{"ID":356142,"DIS_CODE":0,"TOWNNAME":"東區","LI":"東光里","LIN":"33鄰","STREET":"東平路","SECT":" ","MAREA":" ","LANE":"９９巷","ALLEY":" ","HOUSE_NO":"１６號之５二樓之２","E_COORD97":171093.19,"N_COORD97":2543893.52,"ADDRESS":"東平路９９巷１６號之５二樓之２","OBJECTID":356133},"geometry":{"x":171093.19000000134,"y":2543893.5199999996}},{"attributes":{"ID":356143,"DIS_CODE":0,"TOWNNAME":"東區","LI":"東光里","LIN":"33鄰","STREET":"東平路","SECT":" ","MAREA":" ","LANE":"９９巷","ALLEY":" ","HOUSE_NO":"１６號之５二樓之３","E_COORD97":171093.19,"N_COORD97":2543893.52,"ADDRESS":"東平路９９巷１６號之５二樓之３","OBJECTID":356134},"geometry":{"x":171093.19000000134,"y":2543893.5199999996}},{"attributes":{"ID":356144,"DIS_CODE":0,"TOWNNAME":"東區","LI":"東光里","LIN":"33鄰","STREET":"東平路","SECT":" ","MAREA":" ","LANE":"９９巷","ALLEY":" ","HOUSE_NO":"１６號之５二樓之４","E_COORD97":171093.19,"N_COORD97":2543893.52,"ADDRESS":"東平路９９巷１６號之５二樓之４","OBJECTID":356135},"geometry":{"x":171093.19000000134,"y":2543893.5199999996}},{"attributes":{"ID":356145,"DIS_CODE":0,"TOWNNAME":"東區","LI":"自強里","LIN":"8鄰","STREET":"東門路","SECT":"三段","MAREA":" ","LANE":" ","ALLEY":" ","HOUSE_NO":"１３號十七樓之１","E_COORD97":171098.26000000001,"N_COORD97":2542396.1299999999,"ADDRESS":"東門路三段１３號十七樓之１","OBJECTID":356136},"geometry":{"x":171098.26000000164,"y":2542396.1300000008}},{"attributes":{"ID":356146,"DIS_CODE":0,"TOWNNAME":"東區","LI":"自強里","LIN":"8鄰","STREET":"東門路","SECT":"三段","MAREA":" ","LANE":" ","ALLEY":" ","HOUSE_NO":"１３號十七樓之２","E_COORD97":171098.26000000001,"N_COORD97":2542396.1299999999,"ADDRESS":"東門路三段１３號十七樓之２","OBJECTID":356137},"geometry":{"x":171098.26000000164,"y":2542396.1300000008}},{"attributes":{"ID":356147,"DIS_CODE":0,"TOWNNAME":"東區","LI":"自強里","LIN":"8鄰","STREET":"東門路","SECT":"三段","MAREA":" ","LANE":" ","ALLEY":" ","HOUSE_NO":"１３號十七樓之３","E_COORD97":171098.26000000001,"N_COORD97":2542396.1299999999,"ADDRESS":"東門路三段１３號十七樓之３","OBJECTID":356138},"geometry":{"x":171098.26000000164,"y":2542396.1300000008}},{"attributes":{"ID":356148,"DIS_CODE":0,"TOWNNAME":"東區","LI":"自強里","LIN":"8鄰","STREET":"東門路","SECT":"三段","MAREA":" ","LANE":" ","ALLEY":" ","HOUSE_NO":"１３號十九樓","E_COORD97":171098.26000000001,"N_COORD97":2542396.1299999999,"ADDRESS":"東門路三段１３號十九樓","OBJECTID":356139},"geometry":{"x":171098.26000000164,"y":2542396.1300000008}},{"attributes":{"ID":356149,"DIS_CODE":0,"TOWNNAME":"南區","LI":"新昌里","LIN":"5鄰","STREET":"夏林路","SECT":" ","MAREA":" ","LANE":" ","ALLEY":" ","HOUSE_NO":"６５號","E_COORD97":167492.42999999999,"N_COORD97":2542657.48,"ADDRESS":"夏林路６５號","OBJECTID":356140},"geometry":{"x":167492.4299999997,"y":2542657.4800000004}},{"attributes":{"ID":356150,"DIS_CODE":0,"TOWNNAME":"安平區","LI":"華平里","LIN":"26鄰","STREET":"健康二街","SECT":" ","MAREA":" ","LANE":"４１９巷","ALLEY":" ","HOUSE_NO":"３６號","E_COORD97":165221.44,"N_COORD97":2543728.8900000001,"ADDRESS":"健康二街４１９巷３６號","OBJECTID":356141},"geometry":{"x":165221.44000000041,"y":2543728.8900000025}},{"attributes":{"ID":356151,"DIS_CODE":0,"TOWNNAME":"安平區","LI":"華平里","LIN":"26鄰","STREET":"健康二街","SECT":" ","MAREA":" ","LANE":"４１９巷","ALLEY":" ","HOUSE_NO":"３８號","E_COORD97":165219.66,"N_COORD97":2543738.0800000001,"ADDRESS":"健康二街４１９巷３８號","OBJECTID":356142},"geometry":{"x":165219.66000000015,"y":2543738.0800000001}},{"attributes":{"ID":356152,"DIS_CODE":0,"TOWNNAME":"安平區","LI":"華平里","LIN":"26鄰","STREET":"健康二街","SECT":" ","MAREA":" ","LANE":"４１９巷","ALLEY":" ","HOUSE_NO":"４２號","E_COORD97":165207.26000000001,"N_COORD97":2543731.9300000002,"ADDRESS":"健康二街４１９巷４２號","OBJECTID":356143},"geometry":{"x":165207.25999999978,"y":2543731.9299999997}},{"attributes":{"ID":356153,"DIS_CODE":0,"TOWNNAME":"安平區","LI":"華平里","LIN":"26鄰","STREET":"健康二街","SECT":" ","MAREA":" ","LANE":"４１９巷","ALLEY":" ","HOUSE_NO":"４４號","E_COORD97":165202.76999999999,"N_COORD97":2543733.3100000001,"ADDRESS":"健康二街４１９巷４４號","OBJECTID":356144},"geometry":{"x":165202.77000000048,"y":2543733.3100000005}},{"attributes":{"ID":356154,"DIS_CODE":0,"TOWNNAME":"安平區","LI":"華平里","LIN":"26鄰","STREET":"健康二街","SECT":" ","MAREA":" ","LANE":"４１９巷","ALLEY":" ","HOUSE_NO":"４６號","E_COORD97":165196.20000000001,"N_COORD97":2543733.8300000001,"ADDRESS":"健康二街４１９巷４６號","OBJECTID":356145},"geometry":{"x":165196.20000000019,"y":2543733.8300000038}},{"attributes":{"ID":356155,"DIS_CODE":0,"TOWNNAME":"安平區","LI":"華平里","LIN":"26鄰","STREET":"健康二街","SECT":" ","MAREA":" ","LANE":"４１９巷","ALLEY":" ","HOUSE_NO":"５０號","E_COORD97":165189.81,"N_COORD97":2543734.52,"ADDRESS":"健康二街４１９巷５０號","OBJECTID":356146},"geometry":{"x":165189.80999999866,"y":2543734.5199999996}},{"attributes":{"ID":356156,"DIS_CODE":0,"TOWNNAME":"安平區","LI":"華平里","LIN":"26鄰","STREET":"健康二街","SECT":" ","MAREA":" ","LANE":"４１９巷","ALLEY":" ","HOUSE_NO":"５２號","E_COORD97":165184.97,"N_COORD97":2543735.5600000001,"ADDRESS":"健康二街４１９巷５２號","OBJECTID":356147},"geometry":{"x":165184.96999999974,"y":2543735.5600000005}},{"attributes":{"ID":356157,"DIS_CODE":0,"TOWNNAME":"安平區","LI":"建平里","LIN":"26鄰","STREET":"建平九街","SECT":" ","MAREA":" ","LANE":"６０巷","ALLEY":" ","HOUSE_NO":"１１號","E_COORD97":166010.87,"N_COORD97":2543571.9399999999,"ADDRESS":"建平九街６０巷１１號","OBJECTID":356148},"geometry":{"x":166010.87000000104,"y":2543571.9399999995}},{"attributes":{"ID":356158,"DIS_CODE":0,"TOWNNAME":"南區","LI":"新昌里","LIN":"14鄰","STREET":"大德街","SECT":" ","MAREA":" ","LANE":"１４１巷","ALLEY":" ","HOUSE_NO":"９１號","E_COORD97":167543.92999999999,"N_COORD97":2542744.48,"ADDRESS":"大德街１４１巷９１號","OBJECTID":356149},"geometry":{"x":167543.93000000156,"y":2542744.4800000023}},{"attributes":{"ID":356159,"DIS_CODE":0,"TOWNNAME":"南區","LI":"新昌里","LIN":"14鄰","STREET":"大德街","SECT":" ","MAREA":" ","LANE":"１４１巷","ALLEY":" ","HOUSE_NO":"９３號","E_COORD97":167543.92999999999,"N_COORD97":2542750.6400000001,"ADDRESS":"大德街１４１巷９３號","OBJECTID":356150},"geometry":{"x":167543.93000000156,"y":2542750.6400000025}},{"attributes":{"ID":356160,"DIS_CODE":0,"TOWNNAME":"安平區","LI":"建平里","LIN":"26鄰","STREET":"建平九街","SECT":" ","MAREA":" ","LANE":"６０巷","ALLEY":" ","HOUSE_NO":"９號","E_COORD97":166008.16,"N_COORD97":2543562.0800000001,"ADDRESS":"建平九街６０巷９號","OBJECTID":356151},"geometry":{"x":166008.16000000015,"y":2543562.0800000001}},{"attributes":{"ID":356161,"DIS_CODE":0,"TOWNNAME":"東區","LI":"東光里","LIN":"33鄰","STREET":"東平路","SECT":" ","MAREA":" ","LANE":"９９巷","ALLEY":" ","HOUSE_NO":"１６號之５三樓","E_COORD97":171093.19,"N_COORD97":2543893.52,"ADDRESS":"東平路９９巷１６號之５三樓","OBJECTID":356152},"geometry":{"x":171093.19000000134,"y":2543893.5199999996}},{"attributes":{"ID":356162,"DIS_CODE":0,"TOWNNAME":"東區","LI":"東光里","LIN":"33鄰","STREET":"東平路","SECT":" ","MAREA":" ","LANE":"９９巷","ALLEY":" ","HOUSE_NO":"１６號之５三樓之１","E_COORD97":171093.19,"N_COORD97":2543893.52,"ADDRESS":"東平路９９巷１６號之５三樓之１","OBJECTID":356153},"geometry":{"x":171093.19000000134,"y":2543893.5199999996}},{"attributes":{"ID":356163,"DIS_CODE":0,"TOWNNAME":"東區","LI":"東光里","LIN":"33鄰","STREET":"東平路","SECT":" ","MAREA":" ","LANE":"９９巷","ALLEY":" ","HOUSE_NO":"１６號之５三樓之２","E_COORD97":171093.19,"N_COORD97":2543893.52,"ADDRESS":"東平路９９巷１６號之５三樓之２","OBJECTID":356154},"geometry":{"x":171093.19000000134,"y":2543893.5199999996}},{"attributes":{"ID":356164,"DIS_CODE":0,"TOWNNAME":"東區","LI":"東光里","LIN":"33鄰","STREET":"東平路","SECT":" ","MAREA":" ","LANE":"９９巷","ALLEY":" ","HOUSE_NO":"１６號之５三樓之３","E_COORD97":171093.19,"N_COORD97":2543893.52,"ADDRESS":"東平路９９巷１６號之５三樓之３","OBJECTID":356155},"geometry":{"x":171093.19000000134,"y":2543893.5199999996}},{"attributes":{"ID":356165,"DIS_CODE":0,"TOWNNAME":"東區","LI":"東光里","LIN":"33鄰","STREET":"東平路","SECT":" ","MAREA":" ","LANE":"９９巷","ALLEY":" ","HOUSE_NO":"１６號之５三樓之４","E_COORD97":171093.19,"N_COORD97":2543893.52,"ADDRESS":"東平路９９巷１６號之５三樓之４","OBJECTID":356156},"geometry":{"x":171093.19000000134,"y":2543893.5199999996}},{"attributes":{"ID":356166,"DIS_CODE":0,"TOWNNAME":"東區","LI":"東光里","LIN":"33鄰","STREET":"東平路","SECT":" ","MAREA":" ","LANE":"９９巷","ALLEY":" ","HOUSE_NO":"１６號之５三樓之５","E_COORD97":171093.19,"N_COORD97":2543893.52,"ADDRESS":"東平路９９巷１６號之５三樓之５","OBJECTID":356157},"geometry":{"x":171093.19000000134,"y":2543893.5199999996}},{"attributes":{"ID":356167,"DIS_CODE":0,"TOWNNAME":"東區","LI":"東光里","LIN":"33鄰","STREET":"東平路","SECT":" ","MAREA":" ","LANE":"９９巷","ALLEY":" ","HOUSE_NO":"１６號之５五樓","E_COORD97":171093.19,"N_COORD97":2543893.52,"ADDRESS":"東平路９９巷１６號之５五樓","OBJECTID":356158},"geometry":{"x":171093.19000000134,"y":2543893.5199999996}},{"attributes":{"ID":356168,"DIS_CODE":0,"TOWNNAME":"東區","LI":"自強里","LIN":"8鄰","STREET":"東門路","SECT":"三段","MAREA":" ","LANE":" ","ALLEY":" ","HOUSE_NO":"１３號十九樓之１","E_COORD97":171098.26000000001,"N_COORD97":2542396.1299999999,"ADDRESS":"東門路三段１３號十九樓之１","OBJECTID":356159},"geometry":{"x":171098.26000000164,"y":2542396.1300000008}},{"attributes":{"ID":356169,"DIS_CODE":0,"TOWNNAME":"東區","LI":"自強里","LIN":"8鄰","STREET":"東門路","SECT":"三段","MAREA":" ","LANE":" ","ALLEY":" ","HOUSE_NO":"１３號十二樓","E_COORD97":171098.26000000001,"N_COORD97":2542396.1299999999,"ADDRESS":"東門路三段１３號十二樓","OBJECTID":356160},"geometry":{"x":171098.26000000164,"y":2542396.1300000008}},{"attributes":{"ID":356170,"DIS_CODE":0,"TOWNNAME":"東區","LI":"自強里","LIN":"8鄰","STREET":"東門路","SECT":"三段","MAREA":" ","LANE":" ","ALLEY":" ","HOUSE_NO":"１３號十二樓之１","E_COORD97":171098.26000000001,"N_COORD97":2542396.1299999999,"ADDRESS":"東門路三段１３號十二樓之１","OBJECTID":356161},"geometry":{"x":171098.26000000164,"y":2542396.1300000008}},{"attributes":{"ID":356171,"DIS_CODE":0,"TOWNNAME":"東區","LI":"自強里","LIN":"8鄰","STREET":"東門路","SECT":"三段","MAREA":" ","LANE":" ","ALLEY":" ","HOUSE_NO":"１３號十二樓之２","E_COORD97":171098.26000000001,"N_COORD97":2542396.1299999999,"ADDRESS":"東門路三段１３號十二樓之２","OBJECTID":356162},"geometry":{"x":171098.26000000164,"y":2542396.1300000008}},{"attributes":{"ID":356172,"DIS_CODE":0,"TOWNNAME":"東區","LI":"自強里","LIN":"8鄰","STREET":"東門路","SECT":"三段","MAREA":" ","LANE":" ","ALLEY":" ","HOUSE_NO":"１３號十二樓之３","E_COORD97":171098.26000000001,"N_COORD97":2542396.1299999999,"ADDRESS":"東門路三段１３號十二樓之３","OBJECTID":356163},"geometry":{"x":171098.26000000164,"y":2542396.1300000008}},{"attributes":{"ID":356173,"DIS_CODE":0,"TOWNNAME":"東區","LI":"自強里","LIN":"8鄰","STREET":"東門路","SECT":"三段","MAREA":" ","LANE":" ","ALLEY":" ","HOUSE_NO":"１３號十八樓","E_COORD97":171098.26000000001,"N_COORD97":2542396.1299999999,"ADDRESS":"東門路三段１３號十八樓","OBJECTID":356164},"geometry":{"x":171098.26000000164,"y":2542396.1300000008}},{"attributes":{"ID":356174,"DIS_CODE":0,"TOWNNAME":"東區","LI":"自強里","LIN":"8鄰","STREET":"東門路","SECT":"三段","MAREA":" ","LANE":" ","ALLEY":" ","HOUSE_NO":"１３號十八樓之１","E_COORD97":171098.26000000001,"N_COORD97":2542396.1299999999,"ADDRESS":"東門路三段１３號十八樓之１","OBJECTID":356165},"geometry":{"x":171098.26000000164,"y":2542396.1300000008}},{"attributes":{"ID":356175,"DIS_CODE":0,"TOWNNAME":"東區","LI":"自強里","LIN":"8鄰","STREET":"東門路","SECT":"三段","MAREA":" ","LANE":" ","ALLEY":" ","HOUSE_NO":"１３號十八樓之２","E_COORD97":171098.26000000001,"N_COORD97":2542396.1299999999,"ADDRESS":"東門路三段１３號十八樓之２","OBJECTID":356166},"geometry":{"x":171098.26000000164,"y":2542396.1300000008}},{"attributes":{"ID":356176,"DIS_CODE":0,"TOWNNAME":"東區","LI":"自強里","LIN":"8鄰","STREET":"東門路","SECT":"三段","MAREA":" ","LANE":" ","ALLEY":" ","HOUSE_NO":"１３號十八樓之３","E_COORD97":171098.26000000001,"N_COORD97":2542396.1299999999,"ADDRESS":"東門路三段１３號十八樓之３","OBJECTID":356167},"geometry":{"x":171098.26000000164,"y":2542396.1300000008}},{"attributes":{"ID":356177,"DIS_CODE":0,"TOWNNAME":"東區","LI":"自強里","LIN":"8鄰","STREET":"東門路","SECT":"三段","MAREA":" ","LANE":" ","ALLEY":" ","HOUSE_NO":"１３號十三樓","E_COORD97":171098.26000000001,"N_COORD97":2542396.1299999999,"ADDRESS":"東門路三段１３號十三樓","OBJECTID":356168},"geometry":{"x":171098.26000000164,"y":2542396.1300000008}},{"attributes":{"ID":356178,"DIS_CODE":0,"TOWNNAME":"東區","LI":"自強里","LIN":"8鄰","STREET":"東門路","SECT":"三段","MAREA":" ","LANE":" ","ALLEY":" ","HOUSE_NO":"１３號十三樓之１","E_COORD97":171098.26000000001,"N_COORD97":2542396.1299999999,"ADDRESS":"東門路三段１３號十三樓之１","OBJECTID":356169},"geometry":{"x":171098.26000000164,"y":2542396.1300000008}},{"attributes":{"ID":356179,"DIS_CODE":0,"TOWNNAME":"學甲區","LI":"新達里","LIN":"26鄰","STREET":" ","SECT":" ","MAREA":"瓦寮","LANE":" ","ALLEY":" ","HOUSE_NO":"３２號","E_COORD97":169970.35999999999,"N_COORD97":2570462.73,"ADDRESS":"瓦寮３２號","OBJECTID":356170},"geometry":{"x":169970.36000000034,"y":2570462.7300000023}},{"attributes":{"ID":356180,"DIS_CODE":0,"TOWNNAME":"學甲區","LI":"新達里","LIN":"26鄰","STREET":" ","SECT":" ","MAREA":"瓦寮","LANE":" ","ALLEY":" ","HOUSE_NO":"３３號","E_COORD97":169973.10000000001,"N_COORD97":2570484.77,"ADDRESS":"瓦寮３３號","OBJECTID":356171},"geometry":{"x":169973.09999999963,"y":2570484.7700000014}},{"attributes":{"ID":356181,"DIS_CODE":0,"TOWNNAME":"南區","LI":"大忠里","LIN":"26鄰","STREET":"國民路","SECT":" ","MAREA":" ","LANE":"２３８巷","ALLEY":" ","HOUSE_NO":"３號","E_COORD97":169053.82000000001,"N_COORD97":2541046.4100000001,"ADDRESS":"國民路２３８巷３號","OBJECTID":356172},"geometry":{"x":169053.8200000003,"y":2541046.410000002}},{"attributes":{"ID":356182,"DIS_CODE":0,"TOWNNAME":"南區","LI":"大忠里","LIN":"26鄰","STREET":"國民路","SECT":" ","MAREA":" ","LANE":"２３８巷","ALLEY":" ","HOUSE_NO":"４號","E_COORD97":169066.72,"N_COORD97":2541028.2999999998,"ADDRESS":"國民路２３８巷４號","OBJECTID":356173},"geometry":{"x":169066.72000000067,"y":2541028.3000000007}},{"attributes":{"ID":356183,"DIS_CODE":0,"TOWNNAME":"南區","LI":"大忠里","LIN":"26鄰","STREET":"國民路","SECT":" ","MAREA":" ","LANE":"２３８巷","ALLEY":" ","HOUSE_NO":"５號","E_COORD97":169057.98999999999,"N_COORD97":2541048.77,"ADDRESS":"國民路２３８巷５號","OBJECTID":356174},"geometry":{"x":169057.99000000115,"y":2541048.7700000033}},{"attributes":{"ID":356184,"DIS_CODE":0,"TOWNNAME":"南區","LI":"大忠里","LIN":"26鄰","STREET":"國民路","SECT":" ","MAREA":" ","LANE":"２３８巷","ALLEY":" ","HOUSE_NO":"６號","E_COORD97":169070.35000000001,"N_COORD97":2541031.3799999999,"ADDRESS":"國民路２３８巷６號","OBJECTID":356175},"geometry":{"x":169070.35000000056,"y":2541031.3800000008}},{"attributes":{"ID":356185,"DIS_CODE":0,"TOWNNAME":"南區","LI":"大忠里","LIN":"26鄰","STREET":"國民路","SECT":" ","MAREA":" ","LANE":"２３８巷","ALLEY":" ","HOUSE_NO":"７號","E_COORD97":169061.63,"N_COORD97":2541050.3999999999,"ADDRESS":"國民路２３８巷７號","OBJECTID":356176},"geometry":{"x":169061.63000000175,"y":2541050.4000000004}},{"attributes":{"ID":356186,"DIS_CODE":0,"TOWNNAME":"南區","LI":"大忠里","LIN":"26鄰","STREET":"國民路","SECT":" ","MAREA":" ","LANE":"２３８巷","ALLEY":" ","HOUSE_NO":"８號","E_COORD97":169073.79999999999,"N_COORD97":2541033.73,"ADDRESS":"國民路２３８巷８號","OBJECTID":356177},"geometry":{"x":169073.79999999888,"y":2541033.7300000023}},{"attributes":{"ID":356187,"DIS_CODE":0,"TOWNNAME":"南區","LI":"大忠里","LIN":"26鄰","STREET":"國民路","SECT":" ","MAREA":" ","LANE":"２３８巷","ALLEY":" ","HOUSE_NO":"９號","E_COORD97":169065.26000000001,"N_COORD97":2541053.1099999999,"ADDRESS":"國民路２３８巷９號","OBJECTID":356178},"geometry":{"x":169065.25999999978,"y":2541053.1100000031}},{"attributes":{"ID":356188,"DIS_CODE":0,"TOWNNAME":"楠西區","LI":"楠西里","LIN":"26鄰","STREET":"博愛路","SECT":" ","MAREA":" ","LANE":"１２９巷","ALLEY":" ","HOUSE_NO":"７８號","E_COORD97":197057.92000000001,"N_COORD97":2563453.2799999998,"ADDRESS":"博愛路１２９巷７８號","OBJECTID":356179},"geometry":{"x":197057.92000000086,"y":2563453.2800000012}},{"attributes":{"ID":356189,"DIS_CODE":0,"TOWNNAME":"學甲區","LI":"平和里","LIN":"26鄰","STREET":" ","SECT":" ","MAREA":"西平寮","LANE":" ","ALLEY":" ","HOUSE_NO":"６６號","E_COORD97":168578.57999999999,"N_COORD97":2572115,"ADDRESS":"西平寮６６號","OBJECTID":356180},"geometry":{"x":168578.58000000007,"y":2572115.0000000019}},{"attributes":{"ID":356190,"DIS_CODE":0,"TOWNNAME":"學甲區","LI":"平和里","LIN":"26鄰","STREET":" ","SECT":" ","MAREA":"西平寮","LANE":" ","ALLEY":" ","HOUSE_NO":"６７號之１７","E_COORD97":170043.42999999999,"N_COORD97":2572124.96,"ADDRESS":"西平寮６７號之１７","OBJECTID":356181},"geometry":{"x":170043.4299999997,"y":2572124.9600000046}},{"attributes":{"ID":356191,"DIS_CODE":0,"TOWNNAME":"學甲區","LI":"平和里","LIN":"26鄰","STREET":" ","SECT":" ","MAREA":"西平寮","LANE":" ","ALLEY":" ","HOUSE_NO":"６７號之３","E_COORD97":169445.14999999999,"N_COORD97":2571980.1400000001,"ADDRESS":"西平寮６７號之３","OBJECTID":356182},"geometry":{"x":169445.15000000224,"y":2571980.1400000006}},{"attributes":{"ID":356192,"DIS_CODE":0,"TOWNNAME":"東區","LI":"自強里","LIN":"8鄰","STREET":"東門路","SECT":"三段","MAREA":" ","LANE":" ","ALLEY":" ","HOUSE_NO":"１３號十三樓之２","E_COORD97":171098.26000000001,"N_COORD97":2542396.1299999999,"ADDRESS":"東門路三段１３號十三樓之２","OBJECTID":356183},"geometry":{"x":171098.26000000164,"y":2542396.1300000008}},{"attributes":{"ID":356193,"DIS_CODE":0,"TOWNNAME":"東區","LI":"自強里","LIN":"8鄰","STREET":"東門路","SECT":"三段","MAREA":" ","LANE":" ","ALLEY":" ","HOUSE_NO":"１３號十三樓之３","E_COORD97":171098.26000000001,"N_COORD97":2542396.1299999999,"ADDRESS":"東門路三段１３號十三樓之３","OBJECTID":356184},"geometry":{"x":171098.26000000164,"y":2542396.1300000008}},{"attributes":{"ID":356194,"DIS_CODE":0,"TOWNNAME":"東區","LI":"自強里","LIN":"8鄰","STREET":"東門路","SECT":"三段","MAREA":" ","LANE":" ","ALLEY":" ","HOUSE_NO":"１３號十五樓","E_COORD97":171098.26000000001,"N_COORD97":2542396.1299999999,"ADDRESS":"東門路三段１３號十五樓","OBJECTID":356185},"geometry":{"x":171098.26000000164,"y":2542396.1300000008}},{"attributes":{"ID":356195,"DIS_CODE":0,"TOWNNAME":"東區","LI":"自強里","LIN":"8鄰","STREET":"東門路","SECT":"三段","MAREA":" ","LANE":" ","ALLEY":" ","HOUSE_NO":"１３號十五樓之１","E_COORD97":171098.26000000001,"N_COORD97":2542396.1299999999,"ADDRESS":"東門路三段１３號十五樓之１","OBJECTID":356186},"geometry":{"x":171098.26000000164,"y":2542396.1300000008}},{"attributes":{"ID":356196,"DIS_CODE":0,"TOWNNAME":"東區","LI":"自強里","LIN":"8鄰","STREET":"東門路","SECT":"三段","MAREA":" ","LANE":" ","ALLEY":" ","HOUSE_NO":"１３號十五樓之２","E_COORD97":171098.26000000001,"N_COORD97":2542396.1299999999,"ADDRESS":"東門路三段１３號十五樓之２","OBJECTID":356187},"geometry":{"x":171098.26000000164,"y":2542396.1300000008}},{"attributes":{"ID":356197,"DIS_CODE":0,"TOWNNAME":"東區","LI":"自強里","LIN":"8鄰","STREET":"東門路","SECT":"三段","MAREA":" ","LANE":" ","ALLEY":" ","HOUSE_NO":"１３號十五樓之３","E_COORD97":171098.26000000001,"N_COORD97":2542396.1299999999,"ADDRESS":"東門路三段１３號十五樓之３","OBJECTID":356188},"geometry":{"x":171098.26000000164,"y":2542396.1300000008}},{"attributes":{"ID":356198,"DIS_CODE":0,"TOWNNAME":"東區","LI":"自強里","LIN":"8鄰","STREET":"東門路","SECT":"三段","MAREA":" ","LANE":" ","ALLEY":" ","HOUSE_NO":"１３號十六樓","E_COORD97":171098.26000000001,"N_COORD97":2542396.1299999999,"ADDRESS":"東門路三段１３號十六樓","OBJECTID":356189},"geometry":{"x":171098.26000000164,"y":2542396.1300000008}},{"attributes":{"ID":356199,"DIS_CODE":0,"TOWNNAME":"楠西區","LI":"楠西里","LIN":"26鄰","STREET":"茄拔路","SECT":" ","MAREA":" ","LANE":"２巷","ALLEY":" ","HOUSE_NO":"１３３號","E_COORD97":197046.23999999999,"N_COORD97":2563509.2799999998,"ADDRESS":"茄拔路２巷１３３號","OBJECTID":356190},"geometry":{"x":197046.24000000022,"y":2563509.2799999975}},{"attributes":{"ID":356200,"DIS_CODE":0,"TOWNNAME":"楠西區","LI":"楠西里","LIN":"26鄰","STREET":"茄拔路","SECT":" ","MAREA":" ","LANE":"２巷","ALLEY":" ","HOUSE_NO":"２７號","E_COORD97":197030.98999999999,"N_COORD97":2563722.2799999998,"ADDRESS":"茄拔路２巷２７號","OBJECTID":356191},"geometry":{"x":197030.99000000022,"y":2563722.2799999993}},{"attributes":{"ID":356201,"DIS_CODE":0,"TOWNNAME":"東區","LI":"東光里","LIN":"33鄰","STREET":"東平路","SECT":" ","MAREA":" ","LANE":"９９巷","ALLEY":" ","HOUSE_NO":"１６號之５五樓之１","E_COORD97":171093.19,"N_COORD97":2543893.52,"ADDRESS":"東平路９９巷１６號之５五樓之１","OBJECTID":356192},"geometry":{"x":171093.19000000134,"y":2543893.5199999996}},{"attributes":{"ID":356202,"DIS_CODE":0,"TOWNNAME":"東區","LI":"東光里","LIN":"33鄰","STREET":"東平路","SECT":" ","MAREA":" ","LANE":"９９巷","ALLEY":" ","HOUSE_NO":"１６號之５五樓之２","E_COORD97":171093.19,"N_COORD97":2543893.52,"ADDRESS":"東平路９９巷１６號之５五樓之２","OBJECTID":356193},"geometry":{"x":171093.19000000134,"y":2543893.5199999996}},{"attributes":{"ID":356203,"DIS_CODE":0,"TOWNNAME":"東區","LI":"東光里","LIN":"33鄰","STREET":"東平路","SECT":" ","MAREA":" ","LANE":"９９巷","ALLEY":" ","HOUSE_NO":"１６號之５五樓之３","E_COORD97":171093.19,"N_COORD97":2543893.52,"ADDRESS":"東平路９９巷１６號之５五樓之３","OBJECTID":356194},"geometry":{"x":171093.19000000134,"y":2543893.5199999996}},{"attributes":{"ID":356204,"DIS_CODE":0,"TOWNNAME":"東區","LI":"東光里","LIN":"33鄰","STREET":"東平路","SECT":" ","MAREA":" ","LANE":"９９巷","ALLEY":" ","HOUSE_NO":"１６號之５五樓之４","E_COORD97":171093.19,"N_COORD97":2543893.52,"ADDRESS":"東平路９９巷１６號之５五樓之４","OBJECTID":356195},"geometry":{"x":171093.19000000134,"y":2543893.5199999996}},{"attributes":{"ID":356205,"DIS_CODE":0,"TOWNNAME":"東區","LI":"東光里","LIN":"33鄰","STREET":"東平路","SECT":" ","MAREA":" ","LANE":"９９巷","ALLEY":" ","HOUSE_NO":"１６號之５五樓之５","E_COORD97":171093.19,"N_COORD97":2543893.52,"ADDRESS":"東平路９９巷１６號之５五樓之５","OBJECTID":356196},"geometry":{"x":171093.19000000134,"y":2543893.5199999996}},{"attributes":{"ID":356206,"DIS_CODE":0,"TOWNNAME":"東區","LI":"東光里","LIN":"33鄰","STREET":"東平路","SECT":" ","MAREA":" ","LANE":"９９巷","ALLEY":" ","HOUSE_NO":"１６號之５六樓","E_COORD97":171093.19,"N_COORD97":2543893.52,"ADDRESS":"東平路９９巷１６號之５六樓","OBJECTID":356197},"geometry":{"x":171093.19000000134,"y":2543893.5199999996}},{"attributes":{"ID":356207,"DIS_CODE":0,"TOWNNAME":"東區","LI":"東光里","LIN":"33鄰","STREET":"東平路","SECT":" ","MAREA":" ","LANE":"９９巷","ALLEY":" ","HOUSE_NO":"１６號之５六樓之１","E_COORD97":171093.19,"N_COORD97":2543893.52,"ADDRESS":"東平路９９巷１６號之５六樓之１","OBJECTID":356198},"geometry":{"x":171093.19000000134,"y":2543893.5199999996}},{"attributes":{"ID":356208,"DIS_CODE":0,"TOWNNAME":"東區","LI":"東光里","LIN":"33鄰","STREET":"東平路","SECT":" ","MAREA":" ","LANE":"９９巷","ALLEY":" ","HOUSE_NO":"１６號之５六樓之２","E_COORD97":171093.19,"N_COORD97":2543893.52,"ADDRESS":"東平路９９巷１６號之５六樓之２","OBJECTID":356199},"geometry":{"x":171093.19000000134,"y":2543893.5199999996}},{"attributes":{"ID":356209,"DIS_CODE":0,"TOWNNAME":"東區","LI":"東光里","LIN":"33鄰","STREET":"東平路","SECT":" ","MAREA":" ","LANE":"９９巷","ALLEY":" ","HOUSE_NO":"１６號之５六樓之３","E_COORD97":171093.19,"N_COORD97":2543893.52,"ADDRESS":"東平路９９巷１６號之５六樓之３","OBJECTID":356200},"geometry":{"x":171093.19000000134,"y":2543893.5199999996}}]}