{"displayFieldName":"TOWNNAME","fieldAliases":{"ID":"ID","DIS_CODE":"DIS_CODE","TOWNNAME":"TOWNNAME","LI":"LI","LIN":"LIN","STREET":"STREET","SECT":"SECT","MAREA":"MAREA","LANE":"LANE","ALLEY":"ALLEY","HOUSE_NO":"HOUSE_NO","E_COORD97":"E_COORD97","N_COORD97":"N_COORD97","ADDRESS":"ADDRESS","OBJECTID":"OBJECTID"},"geometryType":"esriGeometryPoint","spatialReference":{"wkid":102443,"latestWkid":3826},"fields":[{"name":"ID","type":"esriFieldTypeDouble","alias":"ID"},{"name":"DIS_CODE","type":"esriFieldTypeInteger","alias":"DIS_CODE"},{"name":"TOWNNAME","type":"esriFieldTypeString","alias":"TOWNNAME","length":8},{"name":"LI","type":"esriFieldTypeString","alias":"LI","length":8},{"name":"LIN","type":"esriFieldTypeString","alias":"LIN","length":12},{"name":"STREET","type":"esriFieldTypeString","alias":"STREET","length":20},{"name":"SECT","type":"esriFieldTypeString","alias":"SECT","length":8},{"name":"MAREA","type":"esriFieldTypeString","alias":"MAREA","length":12},{"name":"LANE","type":"esriFieldTypeString","alias":"LANE","length":10},{"name":"ALLEY","type":"esriFieldTypeString","alias":"ALLEY","length":10},{"name":"HOUSE_NO","type":"esriFieldTypeString","alias":"HOUSE_NO","length":20},{"name":"E_COORD97","type":"esriFieldTypeDouble","alias":"E_COORD97"},{"name":"N_COORD97","type":"esriFieldTypeDouble","alias":"N_COORD97"},{"name":"ADDRESS","type":"esriFieldTypeString","alias":"ADDRESS","length":50},{"name":"OBJECTID","type":"esriFieldTypeOID","alias":"OBJECTID"}],"features":[{"attributes":{"ID":225605,"DIS_CODE":0,"TOWNNAME":"安南區","LI":"幸福里","LIN":"22鄰","STREET":"府安路","SECT":"六段","MAREA":" ","LANE":"６２巷","ALLEY":" ","HOUSE_NO":"２９號","E_COORD97":166866.31,"N_COORD97":2546679.1299999999,"ADDRESS":"府安路六段６２巷２９號","OBJECTID":225601},"geometry":{"x":166866.30999999959,"y":2546679.129999999}},{"attributes":{"ID":225606,"DIS_CODE":0,"TOWNNAME":"安南區","LI":"幸福里","LIN":"22鄰","STREET":"府安路","SECT":"六段","MAREA":" ","LANE":"６２巷","ALLEY":" ","HOUSE_NO":"２號","E_COORD97":166904.23999999999,"N_COORD97":2546623.3500000001,"ADDRESS":"府安路六段６２巷２號","OBJECTID":225602},"geometry":{"x":166904.24000000022,"y":2546623.3500000015}},{"attributes":{"ID":225607,"DIS_CODE":0,"TOWNNAME":"安南區","LI":"幸福里","LIN":"22鄰","STREET":"府安路","SECT":"六段","MAREA":" ","LANE":"６２巷","ALLEY":" ","HOUSE_NO":"３１號","E_COORD97":166865.13,"N_COORD97":2546683.3199999998,"ADDRESS":"府安路六段６２巷３１號","OBJECTID":225603},"geometry":{"x":166865.13000000082,"y":2546683.3200000003}},{"attributes":{"ID":225608,"DIS_CODE":0,"TOWNNAME":"安南區","LI":"幸福里","LIN":"22鄰","STREET":"府安路","SECT":"六段","MAREA":" ","LANE":"６２巷","ALLEY":" ","HOUSE_NO":"３２號","E_COORD97":166888.89999999999,"N_COORD97":2546702.4500000002,"ADDRESS":"府安路六段６２巷３２號","OBJECTID":225604},"geometry":{"x":166888.9000000013,"y":2546702.450000003}},{"attributes":{"ID":225609,"DIS_CODE":0,"TOWNNAME":"安南區","LI":"幸福里","LIN":"22鄰","STREET":"府安路","SECT":"六段","MAREA":" ","LANE":"６２巷","ALLEY":" ","HOUSE_NO":"３３號","E_COORD97":166863.88,"N_COORD97":2546688,"ADDRESS":"府安路六段６２巷３３號","OBJECTID":225605},"geometry":{"x":166863.87999999989,"y":2546688}},{"attributes":{"ID":225610,"DIS_CODE":0,"TOWNNAME":"安南區","LI":"幸福里","LIN":"22鄰","STREET":"府安路","SECT":"六段","MAREA":" ","LANE":"６２巷","ALLEY":" ","HOUSE_NO":"３４號","E_COORD97":166886.45999999999,"N_COORD97":2546705.75,"ADDRESS":"府安路六段６２巷３４號","OBJECTID":225606},"geometry":{"x":166886.46000000089,"y":2546705.7500000019}},{"attributes":{"ID":225611,"DIS_CODE":0,"TOWNNAME":"安南區","LI":"淵中里","LIN":"16鄰","STREET":"本田路","SECT":"三段","MAREA":" ","LANE":"４２０巷","ALLEY":" ","HOUSE_NO":"１５６號","E_COORD97":164834.810849,"N_COORD97":2549499.0290799998,"ADDRESS":"本田路三段４２０巷１５６號","OBJECTID":225607},"geometry":{"x":164834.8108490007,"y":2549499.0290770028}},{"attributes":{"ID":225612,"DIS_CODE":0,"TOWNNAME":"安南區","LI":"幸福里","LIN":"22鄰","STREET":"府安路","SECT":"六段","MAREA":" ","LANE":"６２巷","ALLEY":" ","HOUSE_NO":"３５號","E_COORD97":166863.01999999999,"N_COORD97":2546691.6699999999,"ADDRESS":"府安路六段６２巷３５號","OBJECTID":225608},"geometry":{"x":166863.01999999955,"y":2546691.6700000018}},{"attributes":{"ID":225613,"DIS_CODE":0,"TOWNNAME":"安南區","LI":"梅花里","LIN":"22鄰","STREET":"同安路","SECT":" ","MAREA":" ","LANE":"２６２巷","ALLEY":" ","HOUSE_NO":"２３號","E_COORD97":167234.32000000001,"N_COORD97":2549093.3999999999,"ADDRESS":"同安路２６２巷２３號","OBJECTID":225609},"geometry":{"x":167234.3200000003,"y":2549093.4000000004}},{"attributes":{"ID":225614,"DIS_CODE":0,"TOWNNAME":"安南區","LI":"梅花里","LIN":"22鄰","STREET":"同安路","SECT":" ","MAREA":" ","LANE":"２６２巷","ALLEY":" ","HOUSE_NO":"２５號","E_COORD97":167239,"N_COORD97":2549092.3399999999,"ADDRESS":"同安路２６２巷２５號","OBJECTID":225610},"geometry":{"x":167239.00000000093,"y":2549092.3399999999}},{"attributes":{"ID":225615,"DIS_CODE":0,"TOWNNAME":"安南區","LI":"梅花里","LIN":"22鄰","STREET":"同安路","SECT":" ","MAREA":" ","LANE":"２６２巷","ALLEY":" ","HOUSE_NO":"２７號","E_COORD97":167240.07000000001,"N_COORD97":2549087.6600000001,"ADDRESS":"同安路２６２巷２７號","OBJECTID":225611},"geometry":{"x":167240.07000000216,"y":2549087.6600000001}},{"attributes":{"ID":225616,"DIS_CODE":0,"TOWNNAME":"安南區","LI":"梅花里","LIN":"22鄰","STREET":"同安路","SECT":" ","MAREA":" ","LANE":"２６２巷","ALLEY":" ","HOUSE_NO":"２９號","E_COORD97":167241.98000000001,"N_COORD97":2549084.6800000002,"ADDRESS":"同安路２６２巷２９號","OBJECTID":225612},"geometry":{"x":167241.98000000045,"y":2549084.6800000034}},{"attributes":{"ID":225617,"DIS_CODE":0,"TOWNNAME":"安南區","LI":"梅花里","LIN":"22鄰","STREET":"同安路","SECT":" ","MAREA":" ","LANE":"２６２巷","ALLEY":" ","HOUSE_NO":"３１號","E_COORD97":167244.32000000001,"N_COORD97":2549082.1299999999,"ADDRESS":"同安路２６２巷３１號","OBJECTID":225613},"geometry":{"x":167244.32000000123,"y":2549082.1300000008}},{"attributes":{"ID":225618,"DIS_CODE":0,"TOWNNAME":"安南區","LI":"梅花里","LIN":"22鄰","STREET":"同安路","SECT":" ","MAREA":" ","LANE":"２６２巷","ALLEY":" ","HOUSE_NO":"３５號","E_COORD97":167249,"N_COORD97":2549075.9700000002,"ADDRESS":"同安路２６２巷３５號","OBJECTID":225614},"geometry":{"x":167249.00000000093,"y":2549075.9700000007}},{"attributes":{"ID":225619,"DIS_CODE":0,"TOWNNAME":"安南區","LI":"梅花里","LIN":"22鄰","STREET":"同安路","SECT":" ","MAREA":" ","LANE":"２６２巷","ALLEY":" ","HOUSE_NO":"３７號","E_COORD97":167252.19,"N_COORD97":2549073.4199999999,"ADDRESS":"同安路２６２巷３７號","OBJECTID":225615},"geometry":{"x":167252.19000000041,"y":2549073.4200000018}},{"attributes":{"ID":225620,"DIS_CODE":0,"TOWNNAME":"安南區","LI":"梅花里","LIN":"22鄰","STREET":"同安路","SECT":" ","MAREA":" ","LANE":"２６２巷","ALLEY":" ","HOUSE_NO":"３９號","E_COORD97":167256.01999999999,"N_COORD97":2549070.4399999999,"ADDRESS":"同安路２６２巷３９號","OBJECTID":225616},"geometry":{"x":167256.01999999955,"y":2549070.4400000013}},{"attributes":{"ID":225621,"DIS_CODE":0,"TOWNNAME":"安南區","LI":"梅花里","LIN":"22鄰","STREET":"同安路","SECT":" ","MAREA":" ","LANE":"２６２巷","ALLEY":" ","HOUSE_NO":"４１號","E_COORD97":167258.35999999999,"N_COORD97":2549066.8199999998,"ADDRESS":"同安路２６２巷４１號","OBJECTID":225617},"geometry":{"x":167258.36000000034,"y":2549066.8200000003}},{"attributes":{"ID":225622,"DIS_CODE":0,"TOWNNAME":"安南區","LI":"梅花里","LIN":"22鄰","STREET":"同安路","SECT":" ","MAREA":" ","LANE":"３２２巷","ALLEY":" ","HOUSE_NO":"２４號","E_COORD97":167282.62,"N_COORD97":2549187.9399999999,"ADDRESS":"同安路３２２巷２４號","OBJECTID":225618},"geometry":{"x":167282.62000000104,"y":2549187.9400000013}},{"attributes":{"ID":225623,"DIS_CODE":0,"TOWNNAME":"安南區","LI":"梅花里","LIN":"22鄰","STREET":"同安路","SECT":" ","MAREA":" ","LANE":"３２２巷","ALLEY":" ","HOUSE_NO":"２６號","E_COORD97":167287.07999999999,"N_COORD97":2549186.4500000002,"ADDRESS":"同安路３２２巷２６號","OBJECTID":225619},"geometry":{"x":167287.08000000007,"y":2549186.4499999993}},{"attributes":{"ID":225624,"DIS_CODE":0,"TOWNNAME":"善化區","LI":"溪美里","LIN":"21鄰","STREET":" ","SECT":" ","MAREA":"溪尾","LANE":" ","ALLEY":" ","HOUSE_NO":"１８６號","E_COORD97":176946.76999999999,"N_COORD97":2561220.27,"ADDRESS":"溪尾１８６號","OBJECTID":225620},"geometry":{"x":176946.77000000048,"y":2561220.2699999996}},{"attributes":{"ID":225625,"DIS_CODE":0,"TOWNNAME":"善化區","LI":"溪美里","LIN":"21鄰","STREET":" ","SECT":" ","MAREA":"溪尾","LANE":" ","ALLEY":" ","HOUSE_NO":"１８３號","E_COORD97":177007.38,"N_COORD97":2561234.02,"ADDRESS":"溪尾１８３號","OBJECTID":225621},"geometry":{"x":177007.38000000082,"y":2561234.0200000014}},{"attributes":{"ID":225626,"DIS_CODE":0,"TOWNNAME":"善化區","LI":"溪美里","LIN":"21鄰","STREET":" ","SECT":" ","MAREA":"溪尾","LANE":" ","ALLEY":" ","HOUSE_NO":"１８３號之３","E_COORD97":177012.42000000001,"N_COORD97":2561215.77,"ADDRESS":"溪尾１８３號之３","OBJECTID":225622},"geometry":{"x":177012.42000000086,"y":2561215.7700000014}},{"attributes":{"ID":225627,"DIS_CODE":0,"TOWNNAME":"善化區","LI":"溪美里","LIN":"21鄰","STREET":" ","SECT":" ","MAREA":"溪尾","LANE":" ","ALLEY":" ","HOUSE_NO":"１８５號","E_COORD97":176971.62,"N_COORD97":2561217.77,"ADDRESS":"溪尾１８５號","OBJECTID":225623},"geometry":{"x":176971.62000000197,"y":2561217.7699999977}},{"attributes":{"ID":225628,"DIS_CODE":0,"TOWNNAME":"善化區","LI":"溪美里","LIN":"29鄰","STREET":" ","SECT":" ","MAREA":"溪尾","LANE":" ","ALLEY":" ","HOUSE_NO":"１８１之２號","E_COORD97":176986.66,"N_COORD97":2561245.77,"ADDRESS":"溪尾１８１之２號","OBJECTID":225624},"geometry":{"x":176986.66000000201,"y":2561245.7700000014}},{"attributes":{"ID":225629,"DIS_CODE":0,"TOWNNAME":"善化區","LI":"溪美里","LIN":"21鄰","STREET":" ","SECT":" ","MAREA":"溪尾","LANE":" ","ALLEY":" ","HOUSE_NO":"１８２號之１","E_COORD97":177005.31,"N_COORD97":2561242.77,"ADDRESS":"溪尾１８２號之１","OBJECTID":225625},"geometry":{"x":177005.30999999866,"y":2561242.7700000014}},{"attributes":{"ID":225630,"DIS_CODE":0,"TOWNNAME":"安南區","LI":"\u25A0南里","LIN":"29鄰","STREET":"環福街","SECT":" ","MAREA":" ","LANE":"２６８巷","ALLEY":" ","HOUSE_NO":"５號","E_COORD97":170164.95999999999,"N_COORD97":2552721.1600000001,"ADDRESS":"環福街２６８巷５號","OBJECTID":225626},"geometry":{"x":170164.96000000089,"y":2552721.160000002}},{"attributes":{"ID":225631,"DIS_CODE":0,"TOWNNAME":"安南區","LI":"\u25A0南里","LIN":"29鄰","STREET":"環福街","SECT":" ","MAREA":" ","LANE":"２３８巷","ALLEY":" ","HOUSE_NO":"２３號","E_COORD97":170243.54000000001,"N_COORD97":2552727.5699999998,"ADDRESS":"環福街２３８巷２３號","OBJECTID":225627},"geometry":{"x":170243.54000000004,"y":2552727.5700000022}},{"attributes":{"ID":225632,"DIS_CODE":0,"TOWNNAME":"安南區","LI":"\u25A0南里","LIN":"29鄰","STREET":"環福街","SECT":" ","MAREA":" ","LANE":"２３８巷","ALLEY":" ","HOUSE_NO":"２５號","E_COORD97":170239.56,"N_COORD97":2552728.79,"ADDRESS":"環福街２３８巷２５號","OBJECTID":225628},"geometry":{"x":170239.55999999959,"y":2552728.790000001}},{"attributes":{"ID":225633,"DIS_CODE":0,"TOWNNAME":"安南區","LI":"\u25A0南里","LIN":"29鄰","STREET":"安昌街","SECT":" ","MAREA":" ","LANE":"２８４巷","ALLEY":" ","HOUSE_NO":"７號","E_COORD97":170184.91,"N_COORD97":2552751.3700000001,"ADDRESS":"安昌街２８４巷７號","OBJECTID":225629},"geometry":{"x":170184.91000000015,"y":2552751.3700000029}},{"attributes":{"ID":225634,"DIS_CODE":0,"TOWNNAME":"安南區","LI":"梅花里","LIN":"22鄰","STREET":"同安路","SECT":" ","MAREA":" ","LANE":"３２２巷","ALLEY":" ","HOUSE_NO":"２８號","E_COORD97":167291.98000000001,"N_COORD97":2549183.4700000002,"ADDRESS":"同安路３２２巷２８號","OBJECTID":225630},"geometry":{"x":167291.98000000138,"y":2549183.4700000025}},{"attributes":{"ID":225635,"DIS_CODE":0,"TOWNNAME":"安南區","LI":"梅花里","LIN":"22鄰","STREET":"同安路","SECT":" ","MAREA":" ","LANE":"３２２巷","ALLEY":" ","HOUSE_NO":"３０號","E_COORD97":167295.81,"N_COORD97":2549180.9199999999,"ADDRESS":"同安路３２２巷３０號","OBJECTID":225631},"geometry":{"x":167295.81000000052,"y":2549180.9199999999}},{"attributes":{"ID":225636,"DIS_CODE":0,"TOWNNAME":"東區","LI":"泉南里","LIN":"34鄰","STREET":"林森路","SECT":"一段","MAREA":" ","LANE":" ","ALLEY":" ","HOUSE_NO":"１４９號十六樓之９","E_COORD97":169495.73000000001,"N_COORD97":2542552.3999999999,"ADDRESS":"林森路一段１４９號十六樓之９","OBJECTID":225632},"geometry":{"x":169495.73000000138,"y":2542552.4000000004}},{"attributes":{"ID":225637,"DIS_CODE":0,"TOWNNAME":"東區","LI":"泉南里","LIN":"34鄰","STREET":"林森路","SECT":"一段","MAREA":" ","LANE":" ","ALLEY":" ","HOUSE_NO":"１４９號十六樓之１０","E_COORD97":169495.73000000001,"N_COORD97":2542552.3999999999,"ADDRESS":"林森路一段１４９號十六樓之１０","OBJECTID":225633},"geometry":{"x":169495.73000000138,"y":2542552.4000000004}},{"attributes":{"ID":225638,"DIS_CODE":0,"TOWNNAME":"東區","LI":"泉南里","LIN":"34鄰","STREET":"林森路","SECT":"一段","MAREA":" ","LANE":" ","ALLEY":" ","HOUSE_NO":"１４９號十六樓之１１","E_COORD97":169495.73000000001,"N_COORD97":2542552.3999999999,"ADDRESS":"林森路一段１４９號十六樓之１１","OBJECTID":225634},"geometry":{"x":169495.73000000138,"y":2542552.4000000004}},{"attributes":{"ID":225639,"DIS_CODE":0,"TOWNNAME":"歸仁區","LI":"崙頂里","LIN":"29鄰","STREET":"凱旋路","SECT":"二段","MAREA":" ","LANE":" ","ALLEY":" ","HOUSE_NO":"１６０號","E_COORD97":177198.870112,"N_COORD97":2539426.7034300002,"ADDRESS":"凱旋路二段１６０號","OBJECTID":225635},"geometry":{"x":177198.87011200003,"y":2539426.7034300026}},{"attributes":{"ID":225640,"DIS_CODE":0,"TOWNNAME":"永康區","LI":"\u25A0行里","LIN":"29鄰","STREET":"中正五街","SECT":" ","MAREA":" ","LANE":"５３巷","ALLEY":" ","HOUSE_NO":"８號","E_COORD97":172692.57999999999,"N_COORD97":2548538.9900000002,"ADDRESS":"中正五街５３巷８號","OBJECTID":225636},"geometry":{"x":172692.58000000007,"y":2548538.9900000002}},{"attributes":{"ID":225641,"DIS_CODE":0,"TOWNNAME":"永康區","LI":"\u25A0行里","LIN":"29鄰","STREET":"竹林街","SECT":" ","MAREA":" ","LANE":"２８巷","ALLEY":" ","HOUSE_NO":"３號","E_COORD97":172673.26000000001,"N_COORD97":2548884.9900000002,"ADDRESS":"竹林街２８巷３號","OBJECTID":225637},"geometry":{"x":172673.26000000071,"y":2548884.9900000002}},{"attributes":{"ID":225642,"DIS_CODE":0,"TOWNNAME":"永康區","LI":"\u25A0行里","LIN":"29鄰","STREET":"竹林街","SECT":" ","MAREA":" ","LANE":"２４巷","ALLEY":" ","HOUSE_NO":"７號之１２","E_COORD97":172695.5,"N_COORD97":2548948.02,"ADDRESS":"竹林街２４巷７號之１２","OBJECTID":225638},"geometry":{"x":172695.50000000186,"y":2548948.0200000014}},{"attributes":{"ID":225643,"DIS_CODE":0,"TOWNNAME":"永康區","LI":"復國里","LIN":"29鄰","STREET":"復華二街","SECT":" ","MAREA":" ","LANE":"１巷","ALLEY":" ","HOUSE_NO":"１２號","E_COORD97":172674.78,"N_COORD97":2545314.2400000002,"ADDRESS":"復華二街１巷１２號","OBJECTID":225639},"geometry":{"x":172674.78000000026,"y":2545314.2400000002}},{"attributes":{"ID":225644,"DIS_CODE":0,"TOWNNAME":"永康區","LI":"復國里","LIN":"29鄰","STREET":"復華二街","SECT":" ","MAREA":" ","LANE":"１巷","ALLEY":" ","HOUSE_NO":"１８號","E_COORD97":172673.59,"N_COORD97":2545300.2400000002,"ADDRESS":"復華二街１巷１８號","OBJECTID":225640},"geometry":{"x":172673.58999999985,"y":2545300.2400000002}},{"attributes":{"ID":225645,"DIS_CODE":0,"TOWNNAME":"永康區","LI":"復華里","LIN":"29鄰","STREET":"國華街","SECT":" ","MAREA":" ","LANE":"１２３巷","ALLEY":" ","HOUSE_NO":"６號","E_COORD97":172608.72,"N_COORD97":2546264.6800000002,"ADDRESS":"國華街１２３巷６號","OBJECTID":225641},"geometry":{"x":172608.71999999974,"y":2546264.6800000016}},{"attributes":{"ID":225646,"DIS_CODE":0,"TOWNNAME":"永康區","LI":"復華里","LIN":"29鄰","STREET":"國華街","SECT":" ","MAREA":" ","LANE":"１２３巷","ALLEY":" ","HOUSE_NO":"１６號","E_COORD97":172596.63,"N_COORD97":2546243.9399999999,"ADDRESS":"國華街１２３巷１６號","OBJECTID":225642},"geometry":{"x":172596.63000000082,"y":2546243.9399999995}},{"attributes":{"ID":225647,"DIS_CODE":0,"TOWNNAME":"永康區","LI":"勝利里","LIN":"29鄰","STREET":"勝利街","SECT":" ","MAREA":" ","LANE":"３２巷","ALLEY":" ","HOUSE_NO":"６號","E_COORD97":171367.62,"N_COORD97":2544577.9700000002,"ADDRESS":"勝利街３２巷６號","OBJECTID":225643},"geometry":{"x":171367.62000000104,"y":2544577.9700000044}},{"attributes":{"ID":225648,"DIS_CODE":0,"TOWNNAME":"安南區","LI":"梅花里","LIN":"22鄰","STREET":"同安路","SECT":" ","MAREA":" ","LANE":"３２２巷","ALLEY":" ","HOUSE_NO":"３２號","E_COORD97":167300.26999999999,"N_COORD97":2549178.1600000001,"ADDRESS":"同安路３２２巷３２號","OBJECTID":225644},"geometry":{"x":167300.26999999955,"y":2549178.160000002}},{"attributes":{"ID":225649,"DIS_CODE":0,"TOWNNAME":"安南區","LI":"梅花里","LIN":"22鄰","STREET":"同安路","SECT":" ","MAREA":" ","LANE":"３２２巷","ALLEY":" ","HOUSE_NO":"３４號","E_COORD97":167304.53,"N_COORD97":2549175.6000000001,"ADDRESS":"同安路３２２巷３４號","OBJECTID":225645},"geometry":{"x":167304.53000000026,"y":2549175.5999999996}},{"attributes":{"ID":225650,"DIS_CODE":0,"TOWNNAME":"東區","LI":"泉南里","LIN":"34鄰","STREET":"林森路","SECT":"一段","MAREA":" ","LANE":" ","ALLEY":" ","HOUSE_NO":"１４９號十七樓","E_COORD97":169495.73000000001,"N_COORD97":2542552.3999999999,"ADDRESS":"林森路一段１４９號十七樓","OBJECTID":225646},"geometry":{"x":169495.73000000138,"y":2542552.4000000004}},{"attributes":{"ID":225651,"DIS_CODE":0,"TOWNNAME":"東區","LI":"泉南里","LIN":"34鄰","STREET":"林森路","SECT":"一段","MAREA":" ","LANE":" ","ALLEY":" ","HOUSE_NO":"１４９號十七樓之１","E_COORD97":169495.73000000001,"N_COORD97":2542552.3999999999,"ADDRESS":"林森路一段１４９號十七樓之１","OBJECTID":225647},"geometry":{"x":169495.73000000138,"y":2542552.4000000004}},{"attributes":{"ID":225652,"DIS_CODE":0,"TOWNNAME":"東區","LI":"泉南里","LIN":"34鄰","STREET":"林森路","SECT":"一段","MAREA":" ","LANE":" ","ALLEY":" ","HOUSE_NO":"１４９號十七樓之２","E_COORD97":169495.73000000001,"N_COORD97":2542552.3999999999,"ADDRESS":"林森路一段１４９號十七樓之２","OBJECTID":225648},"geometry":{"x":169495.73000000138,"y":2542552.4000000004}},{"attributes":{"ID":225653,"DIS_CODE":0,"TOWNNAME":"東區","LI":"泉南里","LIN":"34鄰","STREET":"林森路","SECT":"一段","MAREA":" ","LANE":" ","ALLEY":" ","HOUSE_NO":"１４９號十七樓之３","E_COORD97":169495.73000000001,"N_COORD97":2542552.3999999999,"ADDRESS":"林森路一段１４９號十七樓之３","OBJECTID":225649},"geometry":{"x":169495.73000000138,"y":2542552.4000000004}},{"attributes":{"ID":225654,"DIS_CODE":0,"TOWNNAME":"東區","LI":"泉南里","LIN":"34鄰","STREET":"林森路","SECT":"一段","MAREA":" ","LANE":" ","ALLEY":" ","HOUSE_NO":"１４９號十七樓之４","E_COORD97":169495.73000000001,"N_COORD97":2542552.3999999999,"ADDRESS":"林森路一段１４９號十七樓之４","OBJECTID":225650},"geometry":{"x":169495.73000000138,"y":2542552.4000000004}},{"attributes":{"ID":225655,"DIS_CODE":0,"TOWNNAME":"東區","LI":"泉南里","LIN":"34鄰","STREET":"林森路","SECT":"一段","MAREA":" ","LANE":" ","ALLEY":" ","HOUSE_NO":"１４９號十七樓之５","E_COORD97":169495.73000000001,"N_COORD97":2542552.3999999999,"ADDRESS":"林森路一段１４９號十七樓之５","OBJECTID":225651},"geometry":{"x":169495.73000000138,"y":2542552.4000000004}},{"attributes":{"ID":225656,"DIS_CODE":0,"TOWNNAME":"東區","LI":"泉南里","LIN":"34鄰","STREET":"林森路","SECT":"一段","MAREA":" ","LANE":" ","ALLEY":" ","HOUSE_NO":"１４９號十七樓之６","E_COORD97":169495.73000000001,"N_COORD97":2542552.3999999999,"ADDRESS":"林森路一段１４９號十七樓之６","OBJECTID":225652},"geometry":{"x":169495.73000000138,"y":2542552.4000000004}},{"attributes":{"ID":225657,"DIS_CODE":0,"TOWNNAME":"仁德區","LI":"中生里","LIN":"2鄰","STREET":" ","SECT":" ","MAREA":"中洲","LANE":" ","ALLEY":" ","HOUSE_NO":"８０號之１","E_COORD97":173109.29000000001,"N_COORD97":2534358.29,"ADDRESS":"中洲８０號之１","OBJECTID":225653},"geometry":{"x":173109.29000000097,"y":2534358.2899999991}},{"attributes":{"ID":225658,"DIS_CODE":0,"TOWNNAME":"永康區","LI":"\u25A0行里","LIN":"29鄰","STREET":"竹林街","SECT":" ","MAREA":" ","LANE":"２４巷","ALLEY":" ","HOUSE_NO":"７號之２","E_COORD97":172727.57999999999,"N_COORD97":2548935.6099999999,"ADDRESS":"竹林街２４巷７號之２","OBJECTID":225654},"geometry":{"x":172727.58000000101,"y":2548935.6100000031}},{"attributes":{"ID":225659,"DIS_CODE":0,"TOWNNAME":"仁德區","LI":"中洲里","LIN":"6鄰","STREET":" ","SECT":" ","MAREA":"中洲","LANE":" ","ALLEY":" ","HOUSE_NO":"２６３號之３","E_COORD97":173223.54999999999,"N_COORD97":2534124.0499999998,"ADDRESS":"中洲２６３號之３","OBJECTID":225655},"geometry":{"x":173223.54999999981,"y":2534124.0500000007}},{"attributes":{"ID":225660,"DIS_CODE":0,"TOWNNAME":"永康區","LI":"\u25A0洲里","LIN":"29鄰","STREET":"洲尾街","SECT":" ","MAREA":" ","LANE":"１５４巷","ALLEY":" ","HOUSE_NO":"１號","E_COORD97":171095.85999999999,"N_COORD97":2549117.9300000002,"ADDRESS":"洲尾街１５４巷１號","OBJECTID":225656},"geometry":{"x":171095.86000000034,"y":2549117.9300000016}},{"attributes":{"ID":225661,"DIS_CODE":0,"TOWNNAME":"安南區","LI":"梅花里","LIN":"22鄰","STREET":"同安路","SECT":" ","MAREA":" ","LANE":"３２２巷","ALLEY":" ","HOUSE_NO":"３６號","E_COORD97":167308.35999999999,"N_COORD97":2549172.6299999999,"ADDRESS":"同安路３２２巷３６號","OBJECTID":225657},"geometry":{"x":167308.36000000127,"y":2549172.6300000008}},{"attributes":{"ID":225662,"DIS_CODE":0,"TOWNNAME":"安南區","LI":"梅花里","LIN":"22鄰","STREET":"同安路","SECT":" ","MAREA":" ","LANE":"３２２巷","ALLEY":" ","HOUSE_NO":"３８號","E_COORD97":167313.04000000001,"N_COORD97":2549169.6499999999,"ADDRESS":"同安路３２２巷３８號","OBJECTID":225658},"geometry":{"x":167313.0400000019,"y":2549169.6500000004}},{"attributes":{"ID":225663,"DIS_CODE":0,"TOWNNAME":"安南區","LI":"新順里","LIN":"22鄰","STREET":"安豐六街","SECT":" ","MAREA":" ","LANE":"２５巷","ALLEY":" ","HOUSE_NO":"１號","E_COORD97":169319.32999999999,"N_COORD97":2549704.8300000001,"ADDRESS":"安豐六街２５巷１號","OBJECTID":225659},"geometry":{"x":169319.33000000007,"y":2549704.8300000019}},{"attributes":{"ID":225664,"DIS_CODE":0,"TOWNNAME":"善化區","LI":"光文里","LIN":"22鄰","STREET":"光華路","SECT":" ","MAREA":" ","LANE":"１１０巷","ALLEY":" ","HOUSE_NO":"２號","E_COORD97":178651.20999999999,"N_COORD97":2559446.75,"ADDRESS":"光華路１１０巷２號","OBJECTID":225660},"geometry":{"x":178651.21000000089,"y":2559446.7500000019}},{"attributes":{"ID":225665,"DIS_CODE":0,"TOWNNAME":"善化區","LI":"光文里","LIN":"22鄰","STREET":"光華路","SECT":" ","MAREA":" ","LANE":"３５巷","ALLEY":" ","HOUSE_NO":"１２號","E_COORD97":178598.22,"N_COORD97":2559283.5,"ADDRESS":"光華路３５巷１２號","OBJECTID":225661},"geometry":{"x":178598.22000000067,"y":2559283.5}},{"attributes":{"ID":225666,"DIS_CODE":0,"TOWNNAME":"善化區","LI":"光文里","LIN":"22鄰","STREET":"光華路","SECT":" ","MAREA":" ","LANE":"１２８巷","ALLEY":" ","HOUSE_NO":"６號","E_COORD97":178651.75,"N_COORD97":2559507.7400000002,"ADDRESS":"光華路１２８巷６號","OBJECTID":225662},"geometry":{"x":178651.75,"y":2559507.7400000021}},{"attributes":{"ID":225667,"DIS_CODE":0,"TOWNNAME":"仁德區","LI":"大甲里","LIN":"22鄰","STREET":"行大街","SECT":" ","MAREA":" ","LANE":"４０２巷","ALLEY":" ","HOUSE_NO":"１０號","E_COORD97":169516.62,"N_COORD97":2535267.5,"ADDRESS":"行大街４０２巷１０號","OBJECTID":225663},"geometry":{"x":169516.62000000104,"y":2535267.5000000019}},{"attributes":{"ID":225668,"DIS_CODE":0,"TOWNNAME":"仁德區","LI":"大甲里","LIN":"22鄰","STREET":"行大街","SECT":" ","MAREA":" ","LANE":"４０２巷","ALLEY":" ","HOUSE_NO":"２２號","E_COORD97":169548.20000000001,"N_COORD97":2535244.25,"ADDRESS":"行大街４０２巷２２號","OBJECTID":225664},"geometry":{"x":169548.20000000112,"y":2535244.25}},{"attributes":{"ID":225669,"DIS_CODE":0,"TOWNNAME":"仁德區","LI":"上崙里","LIN":"22鄰","STREET":"德崙路","SECT":" ","MAREA":" ","LANE":"２３０巷","ALLEY":" ","HOUSE_NO":"３號","E_COORD97":173687.98000000001,"N_COORD97":2538223.77,"ADDRESS":"德崙路２３０巷３號","OBJECTID":225665},"geometry":{"x":173687.98000000138,"y":2538223.7699999996}},{"attributes":{"ID":225670,"DIS_CODE":0,"TOWNNAME":"安南區","LI":"溪北里","LIN":"17鄰","STREET":"惠安街","SECT":" ","MAREA":" ","LANE":"２３巷","ALLEY":" ","HOUSE_NO":"７號","E_COORD97":169104.85999999999,"N_COORD97":2547445.6400000001,"ADDRESS":"惠安街２３巷７號","OBJECTID":225666},"geometry":{"x":169104.86000000127,"y":2547445.6400000025}},{"attributes":{"ID":225671,"DIS_CODE":0,"TOWNNAME":"東區","LI":"泉南里","LIN":"34鄰","STREET":"林森路","SECT":"一段","MAREA":" ","LANE":" ","ALLEY":" ","HOUSE_NO":"１４９號十七樓之９","E_COORD97":169495.73000000001,"N_COORD97":2542552.3999999999,"ADDRESS":"林森路一段１４９號十七樓之９","OBJECTID":225667},"geometry":{"x":169495.73000000138,"y":2542552.4000000004}},{"attributes":{"ID":225672,"DIS_CODE":0,"TOWNNAME":"新營區","LI":"民權里","LIN":"14鄰","STREET":"仁愛街","SECT":" ","MAREA":" ","LANE":" ","ALLEY":" ","HOUSE_NO":"４２號","E_COORD97":179778.13,"N_COORD97":2578392.1400000001,"ADDRESS":"仁愛街４２號","OBJECTID":225668},"geometry":{"x":179778.12999999989,"y":2578392.1400000043}},{"attributes":{"ID":225673,"DIS_CODE":0,"TOWNNAME":"新營區","LI":"南興里","LIN":"29鄰","STREET":"建業路","SECT":" ","MAREA":" ","LANE":"１３７巷","ALLEY":" ","HOUSE_NO":"１０號","E_COORD97":178429.42999999999,"N_COORD97":2577447.29,"ADDRESS":"建業路１３７巷１０號","OBJECTID":225669},"geometry":{"x":178429.43000000063,"y":2577447.2900000028}},{"attributes":{"ID":225674,"DIS_CODE":0,"TOWNNAME":"新營區","LI":"忠政里","LIN":"29鄰","STREET":"中正路","SECT":" ","MAREA":" ","LANE":"３９巷","ALLEY":" ","HOUSE_NO":"８８號之１","E_COORD97":179773.03,"N_COORD97":2579241.6499999999,"ADDRESS":"中正路３９巷８８號之１","OBJECTID":225670},"geometry":{"x":179773.03000000119,"y":2579241.6500000004}},{"attributes":{"ID":225675,"DIS_CODE":0,"TOWNNAME":"新營區","LI":"民生里","LIN":"29鄰","STREET":"民治路","SECT":" ","MAREA":" ","LANE":"２２５巷","ALLEY":" ","HOUSE_NO":"４１號","E_COORD97":178877.04999999999,"N_COORD97":2578407.5099999998,"ADDRESS":"民治路２２５巷４１號","OBJECTID":225671},"geometry":{"x":178877.04999999981,"y":2578407.5099999998}},{"attributes":{"ID":225676,"DIS_CODE":0,"TOWNNAME":"新營區","LI":"民榮里","LIN":"29鄰","STREET":"太子路","SECT":" ","MAREA":" ","LANE":"４４巷","ALLEY":" ","HOUSE_NO":"１號","E_COORD97":178273.89999999999,"N_COORD97":2578118.0499999998,"ADDRESS":"太子路４４巷１號","OBJECTID":225672},"geometry":{"x":178273.9000000013,"y":2578118.0500000007}},{"attributes":{"ID":225677,"DIS_CODE":0,"TOWNNAME":"歸仁區","LI":"南保里","LIN":"29鄰","STREET":"民權北路","SECT":" ","MAREA":" ","LANE":"６１巷","ALLEY":" ","HOUSE_NO":"５１號","E_COORD97":176828.85999999999,"N_COORD97":2541037.25,"ADDRESS":"民權北路６１巷５１號","OBJECTID":225673},"geometry":{"x":176828.86000000034,"y":2541037.2500000019}},{"attributes":{"ID":225678,"DIS_CODE":0,"TOWNNAME":"歸仁區","LI":"南保里","LIN":"29鄰","STREET":"民權北路","SECT":" ","MAREA":" ","LANE":"６１巷","ALLEY":" ","HOUSE_NO":"２７號","E_COORD97":176885.94,"N_COORD97":2541033.29,"ADDRESS":"民權北路６１巷２７號","OBJECTID":225674},"geometry":{"x":176885.94000000041,"y":2541033.2899999991}},{"attributes":{"ID":225679,"DIS_CODE":0,"TOWNNAME":"東區","LI":"泉南里","LIN":"34鄰","STREET":"林森路","SECT":"一段","MAREA":" ","LANE":" ","ALLEY":" ","HOUSE_NO":"１４９號十七樓之１０","E_COORD97":169495.73000000001,"N_COORD97":2542552.3999999999,"ADDRESS":"林森路一段１４９號十七樓之１０","OBJECTID":225675},"geometry":{"x":169495.73000000138,"y":2542552.4000000004}},{"attributes":{"ID":225680,"DIS_CODE":0,"TOWNNAME":"東區","LI":"泉南里","LIN":"34鄰","STREET":"林森路","SECT":"一段","MAREA":" ","LANE":" ","ALLEY":" ","HOUSE_NO":"１４９號十七樓之１１","E_COORD97":169495.73000000001,"N_COORD97":2542552.3999999999,"ADDRESS":"林森路一段１４９號十七樓之１１","OBJECTID":225676},"geometry":{"x":169495.73000000138,"y":2542552.4000000004}},{"attributes":{"ID":225681,"DIS_CODE":0,"TOWNNAME":"東區","LI":"泉南里","LIN":"34鄰","STREET":"林森路","SECT":"一段","MAREA":" ","LANE":" ","ALLEY":" ","HOUSE_NO":"１４９號十八樓","E_COORD97":169495.73000000001,"N_COORD97":2542552.3999999999,"ADDRESS":"林森路一段１４９號十八樓","OBJECTID":225677},"geometry":{"x":169495.73000000138,"y":2542552.4000000004}},{"attributes":{"ID":225682,"DIS_CODE":0,"TOWNNAME":"東區","LI":"泉南里","LIN":"34鄰","STREET":"林森路","SECT":"一段","MAREA":" ","LANE":" ","ALLEY":" ","HOUSE_NO":"１４９號十八樓之１","E_COORD97":169495.73000000001,"N_COORD97":2542552.3999999999,"ADDRESS":"林森路一段１４９號十八樓之１","OBJECTID":225678},"geometry":{"x":169495.73000000138,"y":2542552.4000000004}},{"attributes":{"ID":225683,"DIS_CODE":0,"TOWNNAME":"新營區","LI":"埤寮里","LIN":"14鄰","STREET":"中正路","SECT":" ","MAREA":" ","LANE":" ","ALLEY":" ","HOUSE_NO":"３７８號","E_COORD97":180072.79000000001,"N_COORD97":2580306.6499999999,"ADDRESS":"中正路３７８號","OBJECTID":225679},"geometry":{"x":180072.79000000097,"y":2580306.6500000004}},{"attributes":{"ID":225684,"DIS_CODE":0,"TOWNNAME":"新營區","LI":"南興里","LIN":"29鄰","STREET":"建業路","SECT":" ","MAREA":" ","LANE":"１３７巷","ALLEY":" ","HOUSE_NO":"１８號","E_COORD97":178427.31,"N_COORD97":2577431.7999999998,"ADDRESS":"建業路１３７巷１８號","OBJECTID":225680},"geometry":{"x":178427.30999999959,"y":2577431.8000000045}},{"attributes":{"ID":225685,"DIS_CODE":0,"TOWNNAME":"新營區","LI":"民榮里","LIN":"29鄰","STREET":"太子路","SECT":" ","MAREA":" ","LANE":"４４巷","ALLEY":" ","HOUSE_NO":"１７號","E_COORD97":178200.28,"N_COORD97":2578077.4399999999,"ADDRESS":"太子路４４巷１７號","OBJECTID":225681},"geometry":{"x":178200.28000000119,"y":2578077.4400000013}},{"attributes":{"ID":225686,"DIS_CODE":0,"TOWNNAME":"新營區","LI":"民生里","LIN":"29鄰","STREET":"民治路","SECT":" ","MAREA":" ","LANE":"２２５巷","ALLEY":" ","HOUSE_NO":"５３號","E_COORD97":178862.51999999999,"N_COORD97":2578376.5800000001,"ADDRESS":"民治路２２５巷５３號","OBJECTID":225682},"geometry":{"x":178862.52000000048,"y":2578376.5800000019}},{"attributes":{"ID":225687,"DIS_CODE":0,"TOWNNAME":"北區","LI":"和順里","LIN":"29鄰","STREET":"臨安路","SECT":"二段","MAREA":" ","LANE":"１９５巷","ALLEY":" ","HOUSE_NO":"４６號","E_COORD97":167913.82999999999,"N_COORD97":2545110.6400000001,"ADDRESS":"臨安路二段１９５巷４６號","OBJECTID":225683},"geometry":{"x":167913.83000000007,"y":2545110.6400000006}},{"attributes":{"ID":225688,"DIS_CODE":0,"TOWNNAME":"北區","LI":"和順里","LIN":"29鄰","STREET":"臨安路","SECT":"二段","MAREA":" ","LANE":"１９５巷","ALLEY":" ","HOUSE_NO":"４８號","E_COORD97":167913.82999999999,"N_COORD97":2545116.6000000001,"ADDRESS":"臨安路二段１９５巷４８號","OBJECTID":225684},"geometry":{"x":167913.83000000007,"y":2545116.5999999996}},{"attributes":{"ID":225689,"DIS_CODE":0,"TOWNNAME":"北區","LI":"和順里","LIN":"29鄰","STREET":"臨安路","SECT":"二段","MAREA":" ","LANE":"１９５巷","ALLEY":" ","HOUSE_NO":"５０號","E_COORD97":167911.95999999999,"N_COORD97":2545123.4900000002,"ADDRESS":"臨安路二段１９５巷５０號","OBJECTID":225685},"geometry":{"x":167911.96000000089,"y":2545123.4900000021}},{"attributes":{"ID":225690,"DIS_CODE":0,"TOWNNAME":"南區","LI":"金華里","LIN":"29鄰","STREET":"新孝路","SECT":" ","MAREA":" ","LANE":"１２６巷","ALLEY":" ","HOUSE_NO":"６２號","E_COORD97":166644.56,"N_COORD97":2542213.9100000001,"ADDRESS":"新孝路１２６巷６２號","OBJECTID":225686},"geometry":{"x":166644.56000000052,"y":2542213.9100000001}},{"attributes":{"ID":225691,"DIS_CODE":0,"TOWNNAME":"南區","LI":"金華里","LIN":"29鄰","STREET":"新孝路","SECT":" ","MAREA":" ","LANE":"１０２巷","ALLEY":" ","HOUSE_NO":"３１號","E_COORD97":166669.10000000001,"N_COORD97":2542196.4399999999,"ADDRESS":"新孝路１０２巷３１號","OBJECTID":225687},"geometry":{"x":166669.09999999963,"y":2542196.4399999976}},{"attributes":{"ID":225692,"DIS_CODE":0,"TOWNNAME":"南區","LI":"金華里","LIN":"29鄰","STREET":"新孝路","SECT":" ","MAREA":" ","LANE":"１０２巷","ALLEY":" ","HOUSE_NO":"３２號","E_COORD97":166671.17000000001,"N_COORD97":2542200.5699999998,"ADDRESS":"新孝路１０２巷３２號","OBJECTID":225688},"geometry":{"x":166671.17000000179,"y":2542200.5700000022}},{"attributes":{"ID":225693,"DIS_CODE":0,"TOWNNAME":"南區","LI":"金華里","LIN":"29鄰","STREET":"新孝路","SECT":" ","MAREA":" ","LANE":"１０２巷","ALLEY":" ","HOUSE_NO":"３３號","E_COORD97":166672.72,"N_COORD97":2542204.3999999999,"ADDRESS":"新孝路１０２巷３３號","OBJECTID":225689},"geometry":{"x":166672.72000000067,"y":2542204.4000000004}},{"attributes":{"ID":225694,"DIS_CODE":0,"TOWNNAME":"安南區","LI":"溪北里","LIN":"16鄰","STREET":"府安路","SECT":"四段","MAREA":" ","LANE":"９１巷","ALLEY":" ","HOUSE_NO":"２號","E_COORD97":169123.01999999999,"N_COORD97":2547294.1099999999,"ADDRESS":"府安路四段９１巷２號","OBJECTID":225690},"geometry":{"x":169123.02000000142,"y":2547294.1099999994}},{"attributes":{"ID":225695,"DIS_CODE":0,"TOWNNAME":"東區","LI":"泉南里","LIN":"34鄰","STREET":"林森路","SECT":"一段","MAREA":" ","LANE":" ","ALLEY":" ","HOUSE_NO":"１４９號十八樓之２","E_COORD97":169495.73000000001,"N_COORD97":2542552.3999999999,"ADDRESS":"林森路一段１４９號十八樓之２","OBJECTID":225691},"geometry":{"x":169495.73000000138,"y":2542552.4000000004}},{"attributes":{"ID":225696,"DIS_CODE":0,"TOWNNAME":"東區","LI":"泉南里","LIN":"34鄰","STREET":"林森路","SECT":"一段","MAREA":" ","LANE":" ","ALLEY":" ","HOUSE_NO":"１４９號十八樓之３","E_COORD97":169495.73000000001,"N_COORD97":2542552.3999999999,"ADDRESS":"林森路一段１４９號十八樓之３","OBJECTID":225692},"geometry":{"x":169495.73000000138,"y":2542552.4000000004}},{"attributes":{"ID":225697,"DIS_CODE":0,"TOWNNAME":"東區","LI":"泉南里","LIN":"34鄰","STREET":"林森路","SECT":"一段","MAREA":" ","LANE":" ","ALLEY":" ","HOUSE_NO":"１４９號十八樓之４","E_COORD97":169495.73000000001,"N_COORD97":2542552.3999999999,"ADDRESS":"林森路一段１４９號十八樓之４","OBJECTID":225693},"geometry":{"x":169495.73000000138,"y":2542552.4000000004}},{"attributes":{"ID":225698,"DIS_CODE":0,"TOWNNAME":"東區","LI":"泉南里","LIN":"34鄰","STREET":"林森路","SECT":"一段","MAREA":" ","LANE":" ","ALLEY":" ","HOUSE_NO":"１４９號十八樓之５","E_COORD97":169495.73000000001,"N_COORD97":2542552.3999999999,"ADDRESS":"林森路一段１４９號十八樓之５","OBJECTID":225694},"geometry":{"x":169495.73000000138,"y":2542552.4000000004}},{"attributes":{"ID":225699,"DIS_CODE":0,"TOWNNAME":"永康區","LI":"埔園里","LIN":"22鄰","STREET":"埔園街","SECT":" ","MAREA":" ","LANE":"２４１巷","ALLEY":" ","HOUSE_NO":"１號","E_COORD97":173559.13,"N_COORD97":2548177.5,"ADDRESS":"埔園街２４１巷１號","OBJECTID":225695},"geometry":{"x":173559.13000000082,"y":2548177.5000000037}},{"attributes":{"ID":225700,"DIS_CODE":0,"TOWNNAME":"東區","LI":"泉南里","LIN":"34鄰","STREET":"林森路","SECT":"一段","MAREA":" ","LANE":" ","ALLEY":" ","HOUSE_NO":"１４９號十八樓之６","E_COORD97":169495.73000000001,"N_COORD97":2542552.3999999999,"ADDRESS":"林森路一段１４９號十八樓之６","OBJECTID":225696},"geometry":{"x":169495.73000000138,"y":2542552.4000000004}},{"attributes":{"ID":225701,"DIS_CODE":0,"TOWNNAME":"東區","LI":"泉南里","LIN":"34鄰","STREET":"林森路","SECT":"一段","MAREA":" ","LANE":" ","ALLEY":" ","HOUSE_NO":"１４９號十八樓之７","E_COORD97":169495.73000000001,"N_COORD97":2542552.3999999999,"ADDRESS":"林森路一段１４９號十八樓之７","OBJECTID":225697},"geometry":{"x":169495.73000000138,"y":2542552.4000000004}},{"attributes":{"ID":225702,"DIS_CODE":0,"TOWNNAME":"東區","LI":"泉南里","LIN":"34鄰","STREET":"林森路","SECT":"一段","MAREA":" ","LANE":" ","ALLEY":" ","HOUSE_NO":"１４９號十八樓之８","E_COORD97":169495.73000000001,"N_COORD97":2542552.3999999999,"ADDRESS":"林森路一段１４９號十八樓之８","OBJECTID":225698},"geometry":{"x":169495.73000000138,"y":2542552.4000000004}},{"attributes":{"ID":225703,"DIS_CODE":0,"TOWNNAME":"東區","LI":"泉南里","LIN":"34鄰","STREET":"林森路","SECT":"一段","MAREA":" ","LANE":" ","ALLEY":" ","HOUSE_NO":"１４９號十九樓","E_COORD97":169495.73000000001,"N_COORD97":2542552.3999999999,"ADDRESS":"林森路一段１４９號十九樓","OBJECTID":225699},"geometry":{"x":169495.73000000138,"y":2542552.4000000004}},{"attributes":{"ID":225704,"DIS_CODE":0,"TOWNNAME":"新營區","LI":"民權里","LIN":"14鄰","STREET":"仁愛街","SECT":" ","MAREA":" ","LANE":" ","ALLEY":" ","HOUSE_NO":"４４號之２","E_COORD97":179791.73999999999,"N_COORD97":2578410.9700000002,"ADDRESS":"仁愛街４４號之２","OBJECTID":225700},"geometry":{"x":179791.74000000209,"y":2578410.9700000025}},{"attributes":{"ID":225705,"DIS_CODE":0,"TOWNNAME":"新營區","LI":"忠政里","LIN":"29鄰","STREET":"府西路","SECT":" ","MAREA":" ","LANE":"８７巷","ALLEY":" ","HOUSE_NO":"６號","E_COORD97":179772.48999999999,"N_COORD97":2579208.3500000001,"ADDRESS":"府西路８７巷６號","OBJECTID":225701},"geometry":{"x":179772.49000000022,"y":2579208.3500000015}},{"attributes":{"ID":225706,"DIS_CODE":0,"TOWNNAME":"新營區","LI":"新北里","LIN":"29鄰","STREET":"新北二街","SECT":" ","MAREA":" ","LANE":"９巷","ALLEY":" ","HOUSE_NO":"１２號","E_COORD97":178848.45999999999,"N_COORD97":2578860.6099999999,"ADDRESS":"新北二街９巷１２號","OBJECTID":225702},"geometry":{"x":178848.45999999996,"y":2578860.6100000013}},{"attributes":{"ID":225707,"DIS_CODE":0,"TOWNNAME":"新營區","LI":"忠政里","LIN":"29鄰","STREET":"中正路","SECT":" ","MAREA":" ","LANE":"３９巷","ALLEY":" ","HOUSE_NO":"１３０號","E_COORD97":179706.57999999999,"N_COORD97":2579234.1499999999,"ADDRESS":"中正路３９巷１３０號","OBJECTID":225703},"geometry":{"x":179706.58000000101,"y":2579234.1500000022}},{"attributes":{"ID":225708,"DIS_CODE":0,"TOWNNAME":"仁德區","LI":"土庫里","LIN":"22鄰","STREET":"太子二街","SECT":" ","MAREA":" ","LANE":"４１巷","ALLEY":" ","HOUSE_NO":"１號","E_COORD97":174325.34,"N_COORD97":2543406.2599999998,"ADDRESS":"太子二街４１巷１號","OBJECTID":225704},"geometry":{"x":174325.34000000171,"y":2543406.2600000016}},{"attributes":{"ID":225709,"DIS_CODE":0,"TOWNNAME":"東區","LI":"小東里","LIN":"22鄰","STREET":"光明街","SECT":" ","MAREA":" ","LANE":"１７５巷","ALLEY":" ","HOUSE_NO":"１０號","E_COORD97":170956.10999999999,"N_COORD97":2544154.04,"ADDRESS":"光明街１７５巷１０號","OBJECTID":225705},"geometry":{"x":170956.11000000127,"y":2544154.0399999991}},{"attributes":{"ID":225710,"DIS_CODE":0,"TOWNNAME":"東區","LI":"小東里","LIN":"22鄰","STREET":"光明街","SECT":" ","MAREA":" ","LANE":"１７５巷","ALLEY":" ","HOUSE_NO":"１２號","E_COORD97":170960.03,"N_COORD97":2544155.1400000001,"ADDRESS":"光明街１７５巷１２號","OBJECTID":225706},"geometry":{"x":170960.03000000119,"y":2544155.1400000006}},{"attributes":{"ID":225711,"DIS_CODE":0,"TOWNNAME":"東區","LI":"小東里","LIN":"22鄰","STREET":"光明街","SECT":" ","MAREA":" ","LANE":"１７５巷","ALLEY":" ","HOUSE_NO":"１４號","E_COORD97":170964.57000000001,"N_COORD97":2544155.29,"ADDRESS":"光明街１７５巷１４號","OBJECTID":225707},"geometry":{"x":170964.57000000216,"y":2544155.2899999991}},{"attributes":{"ID":225712,"DIS_CODE":0,"TOWNNAME":"東區","LI":"小東里","LIN":"22鄰","STREET":"光明街","SECT":" ","MAREA":" ","LANE":"１７５巷","ALLEY":" ","HOUSE_NO":"１６號","E_COORD97":170968.81,"N_COORD97":2544155.4500000002,"ADDRESS":"光明街１７５巷１６號","OBJECTID":225708},"geometry":{"x":170968.81000000145,"y":2544155.4499999993}},{"attributes":{"ID":225713,"DIS_CODE":0,"TOWNNAME":"東區","LI":"小東里","LIN":"22鄰","STREET":"光明街","SECT":" ","MAREA":" ","LANE":"１７５巷","ALLEY":" ","HOUSE_NO":"１８號","E_COORD97":170972.10000000001,"N_COORD97":2544155.6099999999,"ADDRESS":"光明街１７５巷１８號","OBJECTID":225709},"geometry":{"x":170972.10000000149,"y":2544155.6100000013}},{"attributes":{"ID":225714,"DIS_CODE":0,"TOWNNAME":"東區","LI":"小東里","LIN":"22鄰","STREET":"光明街","SECT":" ","MAREA":" ","LANE":"１７５巷","ALLEY":" ","HOUSE_NO":"２０號","E_COORD97":170976.32999999999,"N_COORD97":2544156.23,"ADDRESS":"光明街１７５巷２０號","OBJECTID":225710},"geometry":{"x":170976.33000000101,"y":2544156.2300000023}},{"attributes":{"ID":225715,"DIS_CODE":0,"TOWNNAME":"東區","LI":"小東里","LIN":"22鄰","STREET":"光明街","SECT":" ","MAREA":" ","LANE":"１７５巷","ALLEY":" ","HOUSE_NO":"２４號","E_COORD97":170984.48999999999,"N_COORD97":2544156.0800000001,"ADDRESS":"光明街１７５巷２４號","OBJECTID":225711},"geometry":{"x":170984.49000000022,"y":2544156.0800000038}},{"attributes":{"ID":225716,"DIS_CODE":0,"TOWNNAME":"東區","LI":"小東里","LIN":"22鄰","STREET":"光明街","SECT":" ","MAREA":" ","LANE":"１７５巷","ALLEY":" ","HOUSE_NO":"２６號","E_COORD97":170988.88,"N_COORD97":2544156.0800000001,"ADDRESS":"光明街１７５巷２６號","OBJECTID":225712},"geometry":{"x":170988.87999999989,"y":2544156.0800000038}},{"attributes":{"ID":225717,"DIS_CODE":0,"TOWNNAME":"東區","LI":"小東里","LIN":"22鄰","STREET":"光明街","SECT":" ","MAREA":" ","LANE":"１７５巷","ALLEY":" ","HOUSE_NO":"２８號","E_COORD97":170992.95000000001,"N_COORD97":2544156.8599999999,"ADDRESS":"光明街１７５巷２８號","OBJECTID":225713},"geometry":{"x":170992.95000000112,"y":2544156.8600000031}},{"attributes":{"ID":225718,"DIS_CODE":0,"TOWNNAME":"東區","LI":"小東里","LIN":"22鄰","STREET":"光明街","SECT":" ","MAREA":" ","LANE":"１７５巷","ALLEY":" ","HOUSE_NO":"２號","E_COORD97":170938.85999999999,"N_COORD97":2544153.8799999999,"ADDRESS":"光明街１７５巷２號","OBJECTID":225714},"geometry":{"x":170938.8600000022,"y":2544153.8800000008}},{"attributes":{"ID":225719,"DIS_CODE":0,"TOWNNAME":"東區","LI":"小東里","LIN":"22鄰","STREET":"光明街","SECT":" ","MAREA":" ","LANE":"１７５巷","ALLEY":" ","HOUSE_NO":"４號","E_COORD97":170943.09,"N_COORD97":2544154.2000000002,"ADDRESS":"光明街１７５巷４號","OBJECTID":225715},"geometry":{"x":170943.08999999985,"y":2544154.200000003}},{"attributes":{"ID":225720,"DIS_CODE":0,"TOWNNAME":"東區","LI":"小東里","LIN":"22鄰","STREET":"光明街","SECT":" ","MAREA":" ","LANE":"１７５巷","ALLEY":" ","HOUSE_NO":"６號","E_COORD97":170947.95000000001,"N_COORD97":2544154.5099999998,"ADDRESS":"光明街１７５巷６號","OBJECTID":225716},"geometry":{"x":170947.95000000019,"y":2544154.5099999998}},{"attributes":{"ID":225721,"DIS_CODE":0,"TOWNNAME":"安南區","LI":"溪墘里","LIN":"22鄰","STREET":"安寧街","SECT":" ","MAREA":" ","LANE":"７９巷","ALLEY":" ","HOUSE_NO":"６號","E_COORD97":167366.98999999999,"N_COORD97":2547080.0699999998,"ADDRESS":"安寧街７９巷６號","OBJECTID":225717},"geometry":{"x":167366.99000000022,"y":2547080.0700000022}},{"attributes":{"ID":225722,"DIS_CODE":0,"TOWNNAME":"東區","LI":"崇誨里","LIN":"22鄰","STREET":"東寧路","SECT":" ","MAREA":" ","LANE":"２９６巷","ALLEY":" ","HOUSE_NO":"１０號","E_COORD97":170734.70000000001,"N_COORD97":2543377.0800000001,"ADDRESS":"東寧路２９６巷１０號","OBJECTID":225718},"geometry":{"x":170734.70000000205,"y":2543377.0800000019}},{"attributes":{"ID":225723,"DIS_CODE":0,"TOWNNAME":"東區","LI":"泉南里","LIN":"34鄰","STREET":"林森路","SECT":"一段","MAREA":" ","LANE":" ","ALLEY":" ","HOUSE_NO":"１４９號十九樓之１","E_COORD97":169495.73000000001,"N_COORD97":2542552.3999999999,"ADDRESS":"林森路一段１４９號十九樓之１","OBJECTID":225719},"geometry":{"x":169495.73000000138,"y":2542552.4000000004}},{"attributes":{"ID":225724,"DIS_CODE":0,"TOWNNAME":"東區","LI":"泉南里","LIN":"34鄰","STREET":"林森路","SECT":"一段","MAREA":" ","LANE":" ","ALLEY":" ","HOUSE_NO":"１４９號十九樓之２","E_COORD97":169495.73000000001,"N_COORD97":2542552.3999999999,"ADDRESS":"林森路一段１４９號十九樓之２","OBJECTID":225720},"geometry":{"x":169495.73000000138,"y":2542552.4000000004}},{"attributes":{"ID":225725,"DIS_CODE":0,"TOWNNAME":"東區","LI":"泉南里","LIN":"34鄰","STREET":"林森路","SECT":"一段","MAREA":" ","LANE":" ","ALLEY":" ","HOUSE_NO":"１４９號十九樓之３","E_COORD97":169495.73000000001,"N_COORD97":2542552.3999999999,"ADDRESS":"林森路一段１４９號十九樓之３","OBJECTID":225721},"geometry":{"x":169495.73000000138,"y":2542552.4000000004}},{"attributes":{"ID":225726,"DIS_CODE":0,"TOWNNAME":"北區","LI":"大豐里","LIN":"29鄰","STREET":"和緯路","SECT":"四段","MAREA":" ","LANE":"１１７巷","ALLEY":" ","HOUSE_NO":"５５號","E_COORD97":167073.23000000001,"N_COORD97":2545342.3100000001,"ADDRESS":"和緯路四段１１７巷５５號","OBJECTID":225722},"geometry":{"x":167073.23000000138,"y":2545342.3100000024}},{"attributes":{"ID":225727,"DIS_CODE":0,"TOWNNAME":"仁德區","LI":"中洲里","LIN":"12鄰","STREET":" ","SECT":" ","MAREA":"中洲","LANE":" ","ALLEY":" ","HOUSE_NO":"３４６之１號","E_COORD97":173330.70999999999,"N_COORD97":2534165.79,"ADDRESS":"中洲３４６之１號","OBJECTID":225723},"geometry":{"x":173330.70999999996,"y":2534165.790000001}},{"attributes":{"ID":225728,"DIS_CODE":0,"TOWNNAME":"東區","LI":"崇誨里","LIN":"22鄰","STREET":"東寧路","SECT":" ","MAREA":" ","LANE":"２９６巷","ALLEY":" ","HOUSE_NO":"４號","E_COORD97":170729.28,"N_COORD97":2543396.79,"ADDRESS":"東寧路２９６巷４號","OBJECTID":225724},"geometry":{"x":170729.28000000119,"y":2543396.7899999991}},{"attributes":{"ID":225729,"DIS_CODE":0,"TOWNNAME":"東區","LI":"崇誨里","LIN":"22鄰","STREET":"東寧路","SECT":" ","MAREA":" ","LANE":"２９６巷","ALLEY":" ","HOUSE_NO":"８號","E_COORD97":170732.79999999999,"N_COORD97":2543385.21,"ADDRESS":"東寧路２９６巷８號","OBJECTID":225725},"geometry":{"x":170732.79999999981,"y":2543385.2100000009}},{"attributes":{"ID":225730,"DIS_CODE":0,"TOWNNAME":"東區","LI":"衛國里","LIN":"22鄰","STREET":"林森路","SECT":"二段","MAREA":" ","LANE":"１９０巷","ALLEY":" ","HOUSE_NO":"１號","E_COORD97":170461.32999999999,"N_COORD97":2543286.1200000001,"ADDRESS":"林森路二段１９０巷１號","OBJECTID":225726},"geometry":{"x":170461.33000000101,"y":2543286.1200000029}},{"attributes":{"ID":225731,"DIS_CODE":0,"TOWNNAME":"永康區","LI":"西勢里","LIN":"22鄰","STREET":"富強路","SECT":"一段","MAREA":" ","LANE":"２１６巷","ALLEY":" ","HOUSE_NO":"１９號","E_COORD97":175691.73000000001,"N_COORD97":2546381.25,"ADDRESS":"富強路一段２１６巷１９號","OBJECTID":225727},"geometry":{"x":175691.73000000138,"y":2546381.25}},{"attributes":{"ID":225732,"DIS_CODE":0,"TOWNNAME":"永康區","LI":"西勢里","LIN":"22鄰","STREET":"富強路","SECT":"一段","MAREA":" ","LANE":"２１６巷","ALLEY":" ","HOUSE_NO":"１１號","E_COORD97":175671,"N_COORD97":2546386.2799999998,"ADDRESS":"富強路一段２１６巷１１號","OBJECTID":225728},"geometry":{"x":175671.00000000093,"y":2546386.2800000012}},{"attributes":{"ID":225733,"DIS_CODE":0,"TOWNNAME":"永康區","LI":"安康里","LIN":"22鄰","STREET":"中華路","SECT":" ","MAREA":" ","LANE":"７０３巷","ALLEY":" ","HOUSE_NO":"１０５號","E_COORD97":170699.98000000001,"N_COORD97":2546278.7999999998,"ADDRESS":"中華路７０３巷１０５號","OBJECTID":225729},"geometry":{"x":170699.98000000045,"y":2546278.8000000026}},{"attributes":{"ID":225734,"DIS_CODE":0,"TOWNNAME":"永康區","LI":"安康里","LIN":"22鄰","STREET":"中華路","SECT":" ","MAREA":" ","LANE":"７０３巷","ALLEY":" ","HOUSE_NO":"９７號底一層","E_COORD97":170713.07999999999,"N_COORD97":2546260.8199999998,"ADDRESS":"中華路７０３巷９７號底一層","OBJECTID":225730},"geometry":{"x":170713.08000000007,"y":2546260.8200000022}},{"attributes":{"ID":225735,"DIS_CODE":0,"TOWNNAME":"永康區","LI":"西灣里","LIN":"22鄰","STREET":"大勇路","SECT":" ","MAREA":" ","LANE":"６２巷","ALLEY":" ","HOUSE_NO":"２８號","E_COORD97":174295.70999999999,"N_COORD97":2545414.1899999999,"ADDRESS":"大勇路６２巷２８號","OBJECTID":225731},"geometry":{"x":174295.70999999996,"y":2545414.1899999995}},{"attributes":{"ID":225736,"DIS_CODE":0,"TOWNNAME":"永康區","LI":"西勢里","LIN":"22鄰","STREET":"富強路","SECT":"一段","MAREA":" ","LANE":"２１６巷","ALLEY":" ","HOUSE_NO":"２１號","E_COORD97":175689.14000000001,"N_COORD97":2546378,"ADDRESS":"富強路一段２１６巷２１號","OBJECTID":225732},"geometry":{"x":175689.13999999966,"y":2546378.0000000019}},{"attributes":{"ID":225737,"DIS_CODE":0,"TOWNNAME":"永康區","LI":"安康里","LIN":"22鄰","STREET":"中華路","SECT":" ","MAREA":" ","LANE":"７０３巷","ALLEY":" ","HOUSE_NO":"７９號","E_COORD97":170718.64000000001,"N_COORD97":2546206.7599999998,"ADDRESS":"中華路７０３巷７９號","OBJECTID":225733},"geometry":{"x":170718.63999999966,"y":2546206.7600000016}},{"attributes":{"ID":225738,"DIS_CODE":0,"TOWNNAME":"永康區","LI":"安康里","LIN":"22鄰","STREET":"中華路","SECT":" ","MAREA":" ","LANE":"７０３巷","ALLEY":" ","HOUSE_NO":"８１號","E_COORD97":170713.67999999999,"N_COORD97":2546206,"ADDRESS":"中華路７０３巷８１號","OBJECTID":225734},"geometry":{"x":170713.6799999997,"y":2546206}},{"attributes":{"ID":225739,"DIS_CODE":0,"TOWNNAME":"善化區","LI":"光文里","LIN":"22鄰","STREET":"光華路","SECT":" ","MAREA":" ","LANE":"１１０巷","ALLEY":" ","HOUSE_NO":"１６號","E_COORD97":178674.54000000001,"N_COORD97":2559449.5,"ADDRESS":"光華路１１０巷１６號","OBJECTID":225735},"geometry":{"x":178674.54000000097,"y":2559449.5}},{"attributes":{"ID":225740,"DIS_CODE":0,"TOWNNAME":"東區","LI":"泉南里","LIN":"34鄰","STREET":"林森路","SECT":"一段","MAREA":" ","LANE":" ","ALLEY":" ","HOUSE_NO":"１４９號十九樓之４","E_COORD97":169495.73000000001,"N_COORD97":2542552.3999999999,"ADDRESS":"林森路一段１４９號十九樓之４","OBJECTID":225736},"geometry":{"x":169495.73000000138,"y":2542552.4000000004}},{"attributes":{"ID":225741,"DIS_CODE":0,"TOWNNAME":"仁德區","LI":"仁愛里","LIN":"29鄰","STREET":"亞航街","SECT":" ","MAREA":" ","LANE":"１９８巷","ALLEY":" ","HOUSE_NO":"９８號","E_COORD97":170086.79800000001,"N_COORD97":2539037.7689999999,"ADDRESS":"亞航街１９８巷９８號","OBJECTID":225737},"geometry":{"x":170086.79800000042,"y":2539037.7689999994}},{"attributes":{"ID":225742,"DIS_CODE":0,"TOWNNAME":"仁德區","LI":"仁愛里","LIN":"26鄰","STREET":"大同路","SECT":"三段","MAREA":" ","LANE":"３５８巷","ALLEY":" ","HOUSE_NO":"３１號","E_COORD97":169734.10500000001,"N_COORD97":2539384.7295300001,"ADDRESS":"大同路三段３５８巷３１號","OBJECTID":225738},"geometry":{"x":169734.10500000138,"y":2539384.7295299992}},{"attributes":{"ID":225743,"DIS_CODE":0,"TOWNNAME":"南區","LI":"府南里","LIN":"29鄰","STREET":"西門路","SECT":"一段","MAREA":" ","LANE":"１７３巷","ALLEY":" ","HOUSE_NO":"２２號","E_COORD97":167678.81,"N_COORD97":2541661.6099999999,"ADDRESS":"西門路一段１７３巷２２號","OBJECTID":225739},"geometry":{"x":167678.81000000052,"y":2541661.6099999994}},{"attributes":{"ID":225744,"DIS_CODE":0,"TOWNNAME":"南區","LI":"府南里","LIN":"29鄰","STREET":"西門路","SECT":"一段","MAREA":" ","LANE":"１７３巷","ALLEY":" ","HOUSE_NO":"２６號","E_COORD97":167673.95000000001,"N_COORD97":2541661.3399999999,"ADDRESS":"西門路一段１７３巷２６號","OBJECTID":225740},"geometry":{"x":167673.95000000019,"y":2541661.3399999999}},{"attributes":{"ID":225745,"DIS_CODE":0,"TOWNNAME":"南區","LI":"府南里","LIN":"29鄰","STREET":"西門路","SECT":"一段","MAREA":" ","LANE":"１７３巷","ALLEY":" ","HOUSE_NO":"２７號","E_COORD97":167681.62,"N_COORD97":2541630.6400000001,"ADDRESS":"西門路一段１７３巷２７號","OBJECTID":225741},"geometry":{"x":167681.62000000011,"y":2541630.6400000025}},{"attributes":{"ID":225746,"DIS_CODE":0,"TOWNNAME":"仁德區","LI":"太子里","LIN":"29鄰","STREET":"太子四街","SECT":" ","MAREA":" ","LANE":"４１巷","ALLEY":" ","HOUSE_NO":"３號","E_COORD97":173057.98000000001,"N_COORD97":2542972,"ADDRESS":"太子四街４１巷３號","OBJECTID":225742},"geometry":{"x":173057.98000000045,"y":2542972}},{"attributes":{"ID":225747,"DIS_CODE":0,"TOWNNAME":"善化區","LI":"光文里","LIN":"22鄰","STREET":"光華路","SECT":" ","MAREA":" ","LANE":"１２８巷","ALLEY":" ","HOUSE_NO":"８號","E_COORD97":178655.95000000001,"N_COORD97":2559508.25,"ADDRESS":"光華路１２８巷８號","OBJECTID":225743},"geometry":{"x":178655.95000000019,"y":2559508.25}},{"attributes":{"ID":225748,"DIS_CODE":0,"TOWNNAME":"善化區","LI":"光文里","LIN":"22鄰","STREET":"光華路","SECT":" ","MAREA":" ","LANE":"９巷","ALLEY":" ","HOUSE_NO":"７號","E_COORD97":178610.31,"N_COORD97":2559226.75,"ADDRESS":"光華路９巷７號","OBJECTID":225744},"geometry":{"x":178610.30999999959,"y":2559226.75}},{"attributes":{"ID":225749,"DIS_CODE":0,"TOWNNAME":"善化區","LI":"光文里","LIN":"22鄰","STREET":"光華路","SECT":" ","MAREA":" ","LANE":"１５０巷","ALLEY":" ","HOUSE_NO":"１５號","E_COORD97":178668.70000000001,"N_COORD97":2559549,"ADDRESS":"光華路１５０巷１５號","OBJECTID":225745},"geometry":{"x":178668.70000000112,"y":2559549.0000000037}},{"attributes":{"ID":225750,"DIS_CODE":0,"TOWNNAME":"善化區","LI":"光文里","LIN":"22鄰","STREET":"光華路","SECT":" ","MAREA":" ","LANE":"９巷","ALLEY":" ","HOUSE_NO":"３號","E_COORD97":178618.51000000001,"N_COORD97":2559228,"ADDRESS":"光華路９巷３號","OBJECTID":225746},"geometry":{"x":178618.51000000071,"y":2559228.0000000019}},{"attributes":{"ID":225751,"DIS_CODE":0,"TOWNNAME":"東區","LI":"崇誨里","LIN":"22鄰","STREET":"林森路","SECT":"二段","MAREA":" ","LANE":"１９２巷","ALLEY":" ","HOUSE_NO":"１０５號","E_COORD97":170730.35999999999,"N_COORD97":2543363.6699999999,"ADDRESS":"林森路二段１９２巷１０５號","OBJECTID":225747},"geometry":{"x":170730.3600000022,"y":2543363.6699999999}},{"attributes":{"ID":225752,"DIS_CODE":0,"TOWNNAME":"永康區","LI":"西勢里","LIN":"22鄰","STREET":"富強路","SECT":"一段","MAREA":" ","LANE":"１９４巷","ALLEY":" ","HOUSE_NO":"２５號","E_COORD97":175694.41,"N_COORD97":2546278.7599999998,"ADDRESS":"富強路一段１９４巷２５號","OBJECTID":225748},"geometry":{"x":175694.41000000015,"y":2546278.7599999998}},{"attributes":{"ID":225753,"DIS_CODE":0,"TOWNNAME":"永康區","LI":"西勢里","LIN":"22鄰","STREET":"富強路","SECT":"一段","MAREA":" ","LANE":"１９４巷","ALLEY":" ","HOUSE_NO":"１５號","E_COORD97":175673.12,"N_COORD97":2546298.77,"ADDRESS":"富強路一段１９４巷１５號","OBJECTID":225749},"geometry":{"x":175673.12000000197,"y":2546298.7699999996}},{"attributes":{"ID":225754,"DIS_CODE":0,"TOWNNAME":"永康區","LI":"西灣里","LIN":"22鄰","STREET":"大勇路","SECT":" ","MAREA":" ","LANE":"６２巷","ALLEY":" ","HOUSE_NO":"１８號","E_COORD97":174275.67000000001,"N_COORD97":2545421.21,"ADDRESS":"大勇路６２巷１８號","OBJECTID":225750},"geometry":{"x":174275.66999999899,"y":2545421.2100000028}},{"attributes":{"ID":225755,"DIS_CODE":0,"TOWNNAME":"永康區","LI":"西灣里","LIN":"22鄰","STREET":"大勇路","SECT":" ","MAREA":" ","LANE":"４８巷","ALLEY":" ","HOUSE_NO":"１７號","E_COORD97":174259.51000000001,"N_COORD97":2545384.7400000002,"ADDRESS":"大勇路４８巷１７號","OBJECTID":225751},"geometry":{"x":174259.50999999978,"y":2545384.7400000002}},{"attributes":{"ID":225756,"DIS_CODE":0,"TOWNNAME":"永康區","LI":"西灣里","LIN":"22鄰","STREET":"國光七街","SECT":" ","MAREA":" ","LANE":"３巷","ALLEY":" ","HOUSE_NO":"７６號","E_COORD97":174293.53,"N_COORD97":2545334.1000000001,"ADDRESS":"國光七街３巷７６號","OBJECTID":225752},"geometry":{"x":174293.53000000026,"y":2545334.0999999996}},{"attributes":{"ID":225757,"DIS_CODE":0,"TOWNNAME":"永康區","LI":"西灣里","LIN":"22鄰","STREET":"大勇路","SECT":" ","MAREA":" ","LANE":"４８巷","ALLEY":" ","HOUSE_NO":"１３號","E_COORD97":174251.67999999999,"N_COORD97":2545387.7599999998,"ADDRESS":"大勇路４８巷１３號","OBJECTID":225753},"geometry":{"x":174251.68000000156,"y":2545387.7599999998}},{"attributes":{"ID":225758,"DIS_CODE":0,"TOWNNAME":"永康區","LI":"尚頂里","LIN":"22鄰","STREET":"大武街","SECT":" ","MAREA":" ","LANE":"７１巷","ALLEY":" ","HOUSE_NO":"３號","E_COORD97":170372.64999999999,"N_COORD97":2546834.25,"ADDRESS":"大武街７１巷３號","OBJECTID":225754},"geometry":{"x":170372.6500000013,"y":2546834.2500000019}},{"attributes":{"ID":225759,"DIS_CODE":0,"TOWNNAME":"東區","LI":"泉南里","LIN":"34鄰","STREET":"林森路","SECT":"一段","MAREA":" ","LANE":" ","ALLEY":" ","HOUSE_NO":"１４９號十九樓之５","E_COORD97":169495.73000000001,"N_COORD97":2542552.3999999999,"ADDRESS":"林森路一段１４９號十九樓之５","OBJECTID":225755},"geometry":{"x":169495.73000000138,"y":2542552.4000000004}},{"attributes":{"ID":225760,"DIS_CODE":0,"TOWNNAME":"東區","LI":"泉南里","LIN":"34鄰","STREET":"林森路","SECT":"一段","MAREA":" ","LANE":" ","ALLEY":" ","HOUSE_NO":"１４９號十九樓之６","E_COORD97":169495.73000000001,"N_COORD97":2542552.3999999999,"ADDRESS":"林森路一段１４９號十九樓之６","OBJECTID":225756},"geometry":{"x":169495.73000000138,"y":2542552.4000000004}},{"attributes":{"ID":225761,"DIS_CODE":0,"TOWNNAME":"東區","LI":"泉南里","LIN":"34鄰","STREET":"林森路","SECT":"一段","MAREA":" ","LANE":" ","ALLEY":" ","HOUSE_NO":"１４９號十九樓之７","E_COORD97":169495.73000000001,"N_COORD97":2542552.3999999999,"ADDRESS":"林森路一段１４９號十九樓之７","OBJECTID":225757},"geometry":{"x":169495.73000000138,"y":2542552.4000000004}},{"attributes":{"ID":225762,"DIS_CODE":0,"TOWNNAME":"東區","LI":"泉南里","LIN":"34鄰","STREET":"林森路","SECT":"一段","MAREA":" ","LANE":" ","ALLEY":" ","HOUSE_NO":"１４９號十九樓之８","E_COORD97":169495.73000000001,"N_COORD97":2542552.3999999999,"ADDRESS":"林森路一段１４９號十九樓之８","OBJECTID":225758},"geometry":{"x":169495.73000000138,"y":2542552.4000000004}},{"attributes":{"ID":225763,"DIS_CODE":0,"TOWNNAME":"東區","LI":"泉南里","LIN":"34鄰","STREET":"林森路","SECT":"一段","MAREA":" ","LANE":" ","ALLEY":" ","HOUSE_NO":"１４９號十九樓之９","E_COORD97":169495.73000000001,"N_COORD97":2542552.3999999999,"ADDRESS":"林森路一段１４９號十九樓之９","OBJECTID":225759},"geometry":{"x":169495.73000000138,"y":2542552.4000000004}},{"attributes":{"ID":225764,"DIS_CODE":0,"TOWNNAME":"安南區","LI":"溪頂里","LIN":"29鄰","STREET":"北安路","SECT":"二段","MAREA":" ","LANE":"６０巷","ALLEY":" ","HOUSE_NO":"２２號","E_COORD97":168588.23999999999,"N_COORD97":2547505.4199999999,"ADDRESS":"北安路二段６０巷２２號","OBJECTID":225760},"geometry":{"x":168588.24000000209,"y":2547505.4199999999}},{"attributes":{"ID":225765,"DIS_CODE":0,"TOWNNAME":"安南區","LI":"溪頂里","LIN":"29鄰","STREET":"北安路","SECT":"二段","MAREA":" ","LANE":"６０巷","ALLEY":" ","HOUSE_NO":"２６號","E_COORD97":168594.79000000001,"N_COORD97":2547506.8300000001,"ADDRESS":"北安路二段６０巷２６號","OBJECTID":225761},"geometry":{"x":168594.79000000097,"y":2547506.8300000001}},{"attributes":{"ID":225766,"DIS_CODE":0,"TOWNNAME":"安南區","LI":"溪頂里","LIN":"29鄰","STREET":"北安路","SECT":"二段","MAREA":" ","LANE":"６０巷","ALLEY":" ","HOUSE_NO":"２８號","E_COORD97":168600.64000000001,"N_COORD97":2547507.2999999998,"ADDRESS":"北安路二段６０巷２８號","OBJECTID":225762},"geometry":{"x":168600.6400000006,"y":2547507.3000000007}},{"attributes":{"ID":225767,"DIS_CODE":0,"TOWNNAME":"永康區","LI":"西灣里","LIN":"22鄰","STREET":"大勇路","SECT":" ","MAREA":" ","LANE":"４８巷","ALLEY":" ","HOUSE_NO":"５號","E_COORD97":174233.64999999999,"N_COORD97":2545393.7000000002,"ADDRESS":"大勇路４８巷５號","OBJECTID":225763},"geometry":{"x":174233.65000000037,"y":2545393.6999999993}},{"attributes":{"ID":225768,"DIS_CODE":0,"TOWNNAME":"永康區","LI":"西灣里","LIN":"22鄰","STREET":"國光七街","SECT":" ","MAREA":" ","LANE":"３巷","ALLEY":" ","HOUSE_NO":"８２號","E_COORD97":174289.42999999999,"N_COORD97":2545319.8100000001,"ADDRESS":"國光七街３巷８２號","OBJECTID":225764},"geometry":{"x":174289.43000000063,"y":2545319.8100000005}},{"attributes":{"ID":225769,"DIS_CODE":0,"TOWNNAME":"永康區","LI":"西灣里","LIN":"22鄰","STREET":"大勇路","SECT":" ","MAREA":" ","LANE":"４８巷","ALLEY":" ","HOUSE_NO":"２１號","E_COORD97":174268.63,"N_COORD97":2545381.6600000001,"ADDRESS":"大勇路４８巷２１號","OBJECTID":225765},"geometry":{"x":174268.62999999989,"y":2545381.6600000001}},{"attributes":{"ID":225770,"DIS_CODE":0,"TOWNNAME":"永康區","LI":"\u25A0行里","LIN":"22鄰","STREET":"正南五街","SECT":" ","MAREA":" ","LANE":"５２０巷","ALLEY":" ","HOUSE_NO":"２８號","E_COORD97":171644.38,"N_COORD97":2548769.7400000002,"ADDRESS":"正南五街５２０巷２８號","OBJECTID":225766},"geometry":{"x":171644.37999999989,"y":2548769.7400000021}},{"attributes":{"ID":225771,"DIS_CODE":0,"TOWNNAME":"永康區","LI":"龍潭里","LIN":"22鄰","STREET":"龍橋街","SECT":" ","MAREA":" ","LANE":"８８巷","ALLEY":" ","HOUSE_NO":"１２號","E_COORD97":174776,"N_COORD97":2548517.46,"ADDRESS":"龍橋街８８巷１２號","OBJECTID":225767},"geometry":{"x":174776.00000000093,"y":2548517.459999999}},{"attributes":{"ID":225772,"DIS_CODE":0,"TOWNNAME":"永康區","LI":"龍潭里","LIN":"22鄰","STREET":"龍橋街","SECT":" ","MAREA":" ","LANE":"１３０巷","ALLEY":" ","HOUSE_NO":"５號","E_COORD97":174674.29000000001,"N_COORD97":2548648.7400000002,"ADDRESS":"龍橋街１３０巷５號","OBJECTID":225768},"geometry":{"x":174674.29000000004,"y":2548648.7400000021}},{"attributes":{"ID":225773,"DIS_CODE":0,"TOWNNAME":"仁德區","LI":"上崙里","LIN":"22鄰","STREET":"德崙路","SECT":" ","MAREA":" ","LANE":"２３０巷","ALLEY":" ","HOUSE_NO":"６號","E_COORD97":173679.70000000001,"N_COORD97":2538230.02,"ADDRESS":"德崙路２３０巷６號","OBJECTID":225769},"geometry":{"x":173679.70000000112,"y":2538230.0200000014}},{"attributes":{"ID":225774,"DIS_CODE":0,"TOWNNAME":"仁德區","LI":"上崙里","LIN":"22鄰","STREET":"德崙路","SECT":" ","MAREA":" ","LANE":"２３０巷","ALLEY":" ","HOUSE_NO":"８號","E_COORD97":173677.19,"N_COORD97":2538227.02,"ADDRESS":"德崙路２３０巷８號","OBJECTID":225770},"geometry":{"x":173677.19000000041,"y":2538227.0200000014}},{"attributes":{"ID":225775,"DIS_CODE":0,"TOWNNAME":"仁德區","LI":"大甲里","LIN":"22鄰","STREET":"行大街","SECT":" ","MAREA":" ","LANE":"４０２巷","ALLEY":" ","HOUSE_NO":"１８號","E_COORD97":169526.26999999999,"N_COORD97":2535256,"ADDRESS":"行大街４０２巷１８號","OBJECTID":225771},"geometry":{"x":169526.26999999955,"y":2535256}},{"attributes":{"ID":225776,"DIS_CODE":0,"TOWNNAME":"仁德區","LI":"大甲里","LIN":"22鄰","STREET":"行大街","SECT":" ","MAREA":" ","LANE":"４０２巷","ALLEY":" ","HOUSE_NO":"８號","E_COORD97":169506.73000000001,"N_COORD97":2535279.4900000002,"ADDRESS":"行大街４０２巷８號","OBJECTID":225772},"geometry":{"x":169506.73000000045,"y":2535279.4900000002}},{"attributes":{"ID":225777,"DIS_CODE":0,"TOWNNAME":"仁德區","LI":"土庫里","LIN":"22鄰","STREET":"太子二街","SECT":" ","MAREA":" ","LANE":"４１巷","ALLEY":" ","HOUSE_NO":"５號","E_COORD97":174337.56,"N_COORD97":2543408.7599999998,"ADDRESS":"太子二街４１巷５號","OBJECTID":225773},"geometry":{"x":174337.56000000052,"y":2543408.7600000035}},{"attributes":{"ID":225778,"DIS_CODE":0,"TOWNNAME":"仁德區","LI":"仁德里","LIN":"22鄰","STREET":"中山路","SECT":" ","MAREA":" ","LANE":"８７５巷","ALLEY":" ","HOUSE_NO":"９２號","E_COORD97":172344.64999999999,"N_COORD97":2541275.23,"ADDRESS":"中山路８７５巷９２號","OBJECTID":225774},"geometry":{"x":172344.6500000013,"y":2541275.2300000023}},{"attributes":{"ID":225779,"DIS_CODE":0,"TOWNNAME":"安南區","LI":"安東里","LIN":"22鄰","STREET":"安和路","SECT":"二段","MAREA":" ","LANE":"５４巷","ALLEY":" ","HOUSE_NO":"２５７號","E_COORD97":169801.01999999999,"N_COORD97":2548365.9199999999,"ADDRESS":"安和路二段５４巷２５７號","OBJECTID":225775},"geometry":{"x":169801.02000000142,"y":2548365.9200000018}},{"attributes":{"ID":225780,"DIS_CODE":0,"TOWNNAME":"安南區","LI":"安東里","LIN":"22鄰","STREET":"安和路","SECT":"二段","MAREA":" ","LANE":"１５０巷","ALLEY":" ","HOUSE_NO":"２２號","E_COORD97":169636.37,"N_COORD97":2548878.5,"ADDRESS":"安和路二段１５０巷２２號","OBJECTID":225776},"geometry":{"x":169636.37000000011,"y":2548878.5}},{"attributes":{"ID":225781,"DIS_CODE":0,"TOWNNAME":"安南區","LI":"安富里","LIN":"22鄰","STREET":"郡安路","SECT":"五段","MAREA":" ","LANE":"１７８巷","ALLEY":" ","HOUSE_NO":"７３號","E_COORD97":167564.04999999999,"N_COORD97":2547557.6899999999,"ADDRESS":"郡安路五段１７８巷７３號","OBJECTID":225777},"geometry":{"x":167564.05000000075,"y":2547557.6899999995}},{"attributes":{"ID":225782,"DIS_CODE":0,"TOWNNAME":"東區","LI":"泉南里","LIN":"34鄰","STREET":"林森路","SECT":"一段","MAREA":" ","LANE":" ","ALLEY":" ","HOUSE_NO":"１４９號十九樓之１０","E_COORD97":169495.73000000001,"N_COORD97":2542552.3999999999,"ADDRESS":"林森路一段１４９號十九樓之１０","OBJECTID":225778},"geometry":{"x":169495.73000000138,"y":2542552.4000000004}},{"attributes":{"ID":225783,"DIS_CODE":0,"TOWNNAME":"東區","LI":"泉南里","LIN":"34鄰","STREET":"林森路","SECT":"一段","MAREA":" ","LANE":" ","ALLEY":" ","HOUSE_NO":"１４９號二十樓","E_COORD97":169495.73000000001,"N_COORD97":2542552.3999999999,"ADDRESS":"林森路一段１４９號二十樓","OBJECTID":225779},"geometry":{"x":169495.73000000138,"y":2542552.4000000004}},{"attributes":{"ID":225784,"DIS_CODE":0,"TOWNNAME":"歸仁區","LI":"八甲里","LIN":"14鄰","STREET":"大仁七街","SECT":" ","MAREA":" ","LANE":" ","ALLEY":" ","HOUSE_NO":"３４號","E_COORD97":178173.51999999999,"N_COORD97":2541650.6099999999,"ADDRESS":"大仁七街３４號","OBJECTID":225780},"geometry":{"x":178173.51999999862,"y":2541650.6100000013}},{"attributes":{"ID":225785,"DIS_CODE":0,"TOWNNAME":"仁德區","LI":"仁愛里","LIN":"29鄰","STREET":"亞航街","SECT":" ","MAREA":" ","LANE":"１９８巷","ALLEY":" ","HOUSE_NO":"１４０號","E_COORD97":170122.41699999999,"N_COORD97":2539070.6949999998,"ADDRESS":"亞航街１９８巷１４０號","OBJECTID":225781},"geometry":{"x":170122.41700000037,"y":2539070.6950000003}},{"attributes":{"ID":225786,"DIS_CODE":0,"TOWNNAME":"仁德區","LI":"仁愛里","LIN":"29鄰","STREET":"亞航街","SECT":" ","MAREA":" ","LANE":"１９８巷","ALLEY":" ","HOUSE_NO":"１８號","E_COORD97":170018.565,"N_COORD97":2539106.5150000001,"ADDRESS":"亞航街１９８巷１８號","OBJECTID":225782},"geometry":{"x":170018.56499999948,"y":2539106.5150000006}},{"attributes":{"ID":225787,"DIS_CODE":0,"TOWNNAME":"仁德區","LI":"仁愛里","LIN":"26鄰","STREET":"大同路","SECT":"三段","MAREA":" ","LANE":" ","ALLEY":" ","HOUSE_NO":"３７６號","E_COORD97":169759.56700000001,"N_COORD97":2539442.58513,"ADDRESS":"大同路三段３７６號","OBJECTID":225783},"geometry":{"x":169759.56699999981,"y":2539442.5851270016}},{"attributes":{"ID":225788,"DIS_CODE":0,"TOWNNAME":"東區","LI":"虎尾里","LIN":"29鄰","STREET":"東門路","SECT":"三段","MAREA":" ","LANE":"１７９巷","ALLEY":" ","HOUSE_NO":"１６３號","E_COORD97":171878.94,"N_COORD97":2542059.1299999999,"ADDRESS":"東門路三段１７９巷１６３號","OBJECTID":225784},"geometry":{"x":171878.94000000041,"y":2542059.1300000027}},{"attributes":{"ID":225789,"DIS_CODE":0,"TOWNNAME":"永康區","LI":"\u25A0行里","LIN":"29鄰","STREET":"中正五街","SECT":" ","MAREA":" ","LANE":"５３巷","ALLEY":" ","HOUSE_NO":"４７號","E_COORD97":172659.94,"N_COORD97":2548611.1699999999,"ADDRESS":"中正五街５３巷４７號","OBJECTID":225785},"geometry":{"x":172659.94000000041,"y":2548611.1700000018}},{"attributes":{"ID":225790,"DIS_CODE":0,"TOWNNAME":"永康區","LI":"\u25A0行里","LIN":"29鄰","STREET":"中正五街","SECT":" ","MAREA":" ","LANE":"１１巷","ALLEY":" ","HOUSE_NO":"４５號","E_COORD97":172657.31,"N_COORD97":2548716.23,"ADDRESS":"中正五街１１巷４５號","OBJECTID":225786},"geometry":{"x":172657.31000000145,"y":2548716.2300000023}},{"attributes":{"ID":225791,"DIS_CODE":0,"TOWNNAME":"永康區","LI":"復國里","LIN":"29鄰","STREET":"復華二街","SECT":" ","MAREA":" ","LANE":"１巷","ALLEY":" ","HOUSE_NO":"６號","E_COORD97":172674.32999999999,"N_COORD97":2545327.98,"ADDRESS":"復華二街１巷６號","OBJECTID":225787},"geometry":{"x":172674.33000000007,"y":2545327.9800000023}},{"attributes":{"ID":225792,"DIS_CODE":0,"TOWNNAME":"永康區","LI":"復國里","LIN":"29鄰","STREET":"復華二街","SECT":" ","MAREA":" ","LANE":"１巷","ALLEY":" ","HOUSE_NO":"８號","E_COORD97":172673.97,"N_COORD97":2545323.23,"ADDRESS":"復華二街１巷８號","OBJECTID":225788},"geometry":{"x":172673.97000000067,"y":2545323.2300000023}},{"attributes":{"ID":225793,"DIS_CODE":0,"TOWNNAME":"安南區","LI":"州北里","LIN":"29鄰","STREET":"安和路","SECT":"五段","MAREA":" ","LANE":"２７６巷","ALLEY":" ","HOUSE_NO":"５６號","E_COORD97":169763.95000000001,"N_COORD97":2552176.7000000002,"ADDRESS":"安和路五段２７６巷５６號","OBJECTID":225789},"geometry":{"x":169763.95000000112,"y":2552176.7000000011}},{"attributes":{"ID":225794,"DIS_CODE":0,"TOWNNAME":"永康區","LI":"勝利里","LIN":"29鄰","STREET":"勝利街","SECT":" ","MAREA":" ","LANE":"３２巷","ALLEY":" ","HOUSE_NO":"１６號","E_COORD97":171408.51999999999,"N_COORD97":2544582.7599999998,"ADDRESS":"勝利街３２巷１６號","OBJECTID":225790},"geometry":{"x":171408.52000000048,"y":2544582.7600000016}},{"attributes":{"ID":225795,"DIS_CODE":0,"TOWNNAME":"永康區","LI":"\u25A0洲里","LIN":"29鄰","STREET":"洲尾街","SECT":" ","MAREA":" ","LANE":"１５４巷","ALLEY":" ","HOUSE_NO":"３號","E_COORD97":171110.29999999999,"N_COORD97":2549119.4199999999,"ADDRESS":"洲尾街１５４巷３號","OBJECTID":225791},"geometry":{"x":171110.30000000075,"y":2549119.4199999999}},{"attributes":{"ID":225796,"DIS_CODE":0,"TOWNNAME":"永康區","LI":"神洲里","LIN":"4鄰","STREET":"忠孝路","SECT":" ","MAREA":" ","LANE":"３８巷","ALLEY":" ","HOUSE_NO":"２０號","E_COORD97":172163.53,"N_COORD97":2544698.9900000002,"ADDRESS":"忠孝路３８巷２０號","OBJECTID":225792},"geometry":{"x":172163.53000000119,"y":2544698.9899999984}},{"attributes":{"ID":225797,"DIS_CODE":0,"TOWNNAME":"善化區","LI":"坐駕里","LIN":"22鄰","STREET":"興華路","SECT":" ","MAREA":" ","LANE":"２２３巷","ALLEY":" ","HOUSE_NO":"２０號之２","E_COORD97":178173.54999999999,"N_COORD97":2558492.02,"ADDRESS":"興華路２２３巷２０號之２","OBJECTID":225793},"geometry":{"x":178173.54999999981,"y":2558492.0200000014}},{"attributes":{"ID":225798,"DIS_CODE":0,"TOWNNAME":"善化區","LI":"坐駕里","LIN":"22鄰","STREET":"興華路","SECT":" ","MAREA":" ","LANE":"２２３巷","ALLEY":" ","HOUSE_NO":"２２號之１","E_COORD97":178182.38,"N_COORD97":2558471.52,"ADDRESS":"興華路２２３巷２２號之１","OBJECTID":225794},"geometry":{"x":178182.38000000082,"y":2558471.5200000014}},{"attributes":{"ID":225799,"DIS_CODE":0,"TOWNNAME":"東區","LI":"泉南里","LIN":"34鄰","STREET":"林森路","SECT":"一段","MAREA":" ","LANE":" ","ALLEY":" ","HOUSE_NO":"１４９號二十樓之１","E_COORD97":169495.73000000001,"N_COORD97":2542552.3999999999,"ADDRESS":"林森路一段１４９號二十樓之１","OBJECTID":225795},"geometry":{"x":169495.73000000138,"y":2542552.4000000004}},{"attributes":{"ID":225800,"DIS_CODE":0,"TOWNNAME":"東區","LI":"泉南里","LIN":"34鄰","STREET":"林森路","SECT":"一段","MAREA":" ","LANE":" ","ALLEY":" ","HOUSE_NO":"１４９號二十樓之２","E_COORD97":169495.73000000001,"N_COORD97":2542552.3999999999,"ADDRESS":"林森路一段１４９號二十樓之２","OBJECTID":225796},"geometry":{"x":169495.73000000138,"y":2542552.4000000004}},{"attributes":{"ID":225801,"DIS_CODE":0,"TOWNNAME":"東區","LI":"泉南里","LIN":"34鄰","STREET":"林森路","SECT":"一段","MAREA":" ","LANE":" ","ALLEY":" ","HOUSE_NO":"１４９號二十樓之３","E_COORD97":169495.73000000001,"N_COORD97":2542552.3999999999,"ADDRESS":"林森路一段１４９號二十樓之３","OBJECTID":225797},"geometry":{"x":169495.73000000138,"y":2542552.4000000004}},{"attributes":{"ID":225802,"DIS_CODE":0,"TOWNNAME":"東區","LI":"泉南里","LIN":"34鄰","STREET":"林森路","SECT":"一段","MAREA":" ","LANE":" ","ALLEY":" ","HOUSE_NO":"１４９號二十樓之４","E_COORD97":169495.73000000001,"N_COORD97":2542552.3999999999,"ADDRESS":"林森路一段１４９號二十樓之４","OBJECTID":225798},"geometry":{"x":169495.73000000138,"y":2542552.4000000004}},{"attributes":{"ID":225803,"DIS_CODE":0,"TOWNNAME":"東區","LI":"泉南里","LIN":"34鄰","STREET":"林森路","SECT":"一段","MAREA":" ","LANE":" ","ALLEY":" ","HOUSE_NO":"１４９號二十樓之５","E_COORD97":169495.73000000001,"N_COORD97":2542552.3999999999,"ADDRESS":"林森路一段１４９號二十樓之５","OBJECTID":225799},"geometry":{"x":169495.73000000138,"y":2542552.4000000004}},{"attributes":{"ID":225804,"DIS_CODE":0,"TOWNNAME":"東區","LI":"泉南里","LIN":"34鄰","STREET":"林森路","SECT":"一段","MAREA":" ","LANE":" ","ALLEY":" ","HOUSE_NO":"１４９號二十樓之６","E_COORD97":169495.73000000001,"N_COORD97":2542552.3999999999,"ADDRESS":"林森路一段１４９號二十樓之６","OBJECTID":225800},"geometry":{"x":169495.73000000138,"y":2542552.4000000004}}]}