{"displayFieldName":"TOWNNAME","fieldAliases":{"ID":"ID","DIS_CODE":"DIS_CODE","TOWNNAME":"TOWNNAME","LI":"LI","LIN":"LIN","STREET":"STREET","SECT":"SECT","MAREA":"MAREA","LANE":"LANE","ALLEY":"ALLEY","HOUSE_NO":"HOUSE_NO","E_COORD97":"E_COORD97","N_COORD97":"N_COORD97","ADDRESS":"ADDRESS","OBJECTID":"OBJECTID"},"geometryType":"esriGeometryPoint","spatialReference":{"wkid":102443,"latestWkid":3826},"fields":[{"name":"ID","type":"esriFieldTypeDouble","alias":"ID"},{"name":"DIS_CODE","type":"esriFieldTypeInteger","alias":"DIS_CODE"},{"name":"TOWNNAME","type":"esriFieldTypeString","alias":"TOWNNAME","length":8},{"name":"LI","type":"esriFieldTypeString","alias":"LI","length":8},{"name":"LIN","type":"esriFieldTypeString","alias":"LIN","length":12},{"name":"STREET","type":"esriFieldTypeString","alias":"STREET","length":20},{"name":"SECT","type":"esriFieldTypeString","alias":"SECT","length":8},{"name":"MAREA","type":"esriFieldTypeString","alias":"MAREA","length":12},{"name":"LANE","type":"esriFieldTypeString","alias":"LANE","length":10},{"name":"ALLEY","type":"esriFieldTypeString","alias":"ALLEY","length":10},{"name":"HOUSE_NO","type":"esriFieldTypeString","alias":"HOUSE_NO","length":20},{"name":"E_COORD97","type":"esriFieldTypeDouble","alias":"E_COORD97"},{"name":"N_COORD97","type":"esriFieldTypeDouble","alias":"N_COORD97"},{"name":"ADDRESS","type":"esriFieldTypeString","alias":"ADDRESS","length":50},{"name":"OBJECTID","type":"esriFieldTypeOID","alias":"OBJECTID"}],"features":[{"attributes":{"ID":58801,"DIS_CODE":0,"TOWNNAME":"安南區","LI":"佃東里","LIN":"1鄰","STREET":"海佃路","SECT":"四段","MAREA":" ","LANE":"３８８巷","ALLEY":"６弄","HOUSE_NO":"１６號","E_COORD97":165694.85999999999,"N_COORD97":2551529.3100000001,"ADDRESS":"海佃路四段３８８巷６弄１６號","OBJECTID":58801},"geometry":{"x":165694.86000000034,"y":2551529.3100000024}},{"attributes":{"ID":58802,"DIS_CODE":0,"TOWNNAME":"安南區","LI":"佃東里","LIN":"1鄰","STREET":"海佃路","SECT":"四段","MAREA":" ","LANE":"３８８巷","ALLEY":"６弄","HOUSE_NO":"１８號","E_COORD97":165699.82999999999,"N_COORD97":2551527.4900000002,"ADDRESS":"海佃路四段３８８巷６弄１８號","OBJECTID":58802},"geometry":{"x":165699.83000000007,"y":2551527.4900000039}},{"attributes":{"ID":58803,"DIS_CODE":0,"TOWNNAME":"安南區","LI":"佃東里","LIN":"1鄰","STREET":"海佃路","SECT":"四段","MAREA":" ","LANE":"３８８巷","ALLEY":"６弄","HOUSE_NO":"２０號","E_COORD97":165704.39999999999,"N_COORD97":2551530.4300000002,"ADDRESS":"海佃路四段３８８巷６弄２０號","OBJECTID":58803},"geometry":{"x":165704.4000000013,"y":2551530.4299999997}},{"attributes":{"ID":58804,"DIS_CODE":0,"TOWNNAME":"安南區","LI":"佃東里","LIN":"1鄰","STREET":"海佃路","SECT":"四段","MAREA":" ","LANE":"３８８巷","ALLEY":"６弄","HOUSE_NO":"２２號","E_COORD97":165708.85999999999,"N_COORD97":2551526.4700000002,"ADDRESS":"海佃路四段３８８巷６弄２２號","OBJECTID":58804},"geometry":{"x":165708.86000000034,"y":2551526.4700000007}},{"attributes":{"ID":58805,"DIS_CODE":0,"TOWNNAME":"安南區","LI":"佃東里","LIN":"1鄰","STREET":"海佃路","SECT":"四段","MAREA":" ","LANE":"３８８巷","ALLEY":"６弄","HOUSE_NO":"２６號","E_COORD97":165713.63,"N_COORD97":2551531.23,"ADDRESS":"海佃路四段３８８巷６弄２６號","OBJECTID":58805},"geometry":{"x":165713.63000000175,"y":2551531.2300000004}},{"attributes":{"ID":58806,"DIS_CODE":0,"TOWNNAME":"安南區","LI":"佃東里","LIN":"1鄰","STREET":"海佃路","SECT":"四段","MAREA":" ","LANE":"３８８巷","ALLEY":"６弄","HOUSE_NO":"２８號","E_COORD97":165717.98999999999,"N_COORD97":2551528.2999999998,"ADDRESS":"海佃路四段３８８巷６弄２８號","OBJECTID":58806},"geometry":{"x":165717.99000000022,"y":2551528.3000000007}},{"attributes":{"ID":58807,"DIS_CODE":0,"TOWNNAME":"安南區","LI":"佃東里","LIN":"1鄰","STREET":"海佃路","SECT":"四段","MAREA":" ","LANE":"３８８巷","ALLEY":"６弄","HOUSE_NO":"３０號","E_COORD97":165722.45000000001,"N_COORD97":2551532.7599999998,"ADDRESS":"海佃路四段３８８巷６弄３０號","OBJECTID":58807},"geometry":{"x":165722.45000000112,"y":2551532.7600000016}},{"attributes":{"ID":58808,"DIS_CODE":0,"TOWNNAME":"安南區","LI":"佃東里","LIN":"1鄰","STREET":"海佃路","SECT":"四段","MAREA":" ","LANE":"３８８巷","ALLEY":"６弄","HOUSE_NO":"３２號","E_COORD97":165727.22,"N_COORD97":2551529.7200000002,"ADDRESS":"海佃路四段３８８巷６弄３２號","OBJECTID":58808},"geometry":{"x":165727.22000000067,"y":2551529.7200000044}},{"attributes":{"ID":58809,"DIS_CODE":0,"TOWNNAME":"仁德區","LI":"上崙里","LIN":"1鄰","STREET":"德崙路","SECT":" ","MAREA":" ","LANE":"７７巷","ALLEY":"１２０弄","HOUSE_NO":"９號","E_COORD97":173713.51000000001,"N_COORD97":2538375.3399999999,"ADDRESS":"德崙路７７巷１２０弄９號","OBJECTID":58809},"geometry":{"x":173713.50999999978,"y":2538375.3399999999}},{"attributes":{"ID":58810,"DIS_CODE":0,"TOWNNAME":"仁德區","LI":"上崙里","LIN":"1鄰","STREET":"德崙路","SECT":" ","MAREA":" ","LANE":"７７巷","ALLEY":"１２０弄","HOUSE_NO":"７號","E_COORD97":173714.20999999999,"N_COORD97":2538385.8399999999,"ADDRESS":"德崙路７７巷１２０弄７號","OBJECTID":58810},"geometry":{"x":173714.20999999996,"y":2538385.8399999999}},{"attributes":{"ID":58811,"DIS_CODE":0,"TOWNNAME":"仁德區","LI":"上崙里","LIN":"1鄰","STREET":"德崙路","SECT":" ","MAREA":" ","LANE":"１６１巷","ALLEY":"７弄","HOUSE_NO":"２號","E_COORD97":173569.51000000001,"N_COORD97":2538411.4300000002,"ADDRESS":"德崙路１６１巷７弄２號","OBJECTID":58811},"geometry":{"x":173569.50999999978,"y":2538411.4300000016}},{"attributes":{"ID":58812,"DIS_CODE":0,"TOWNNAME":"北區","LI":"長榮里","LIN":"5鄰","STREET":"長勝路","SECT":" ","MAREA":" ","LANE":" ","ALLEY":" ","HOUSE_NO":"４１號","E_COORD97":169970.32000000001,"N_COORD97":2545599.4900000002,"ADDRESS":"長勝路４１號","OBJECTID":58812},"geometry":{"x":169970.3200000003,"y":2545599.4900000002}},{"attributes":{"ID":58813,"DIS_CODE":0,"TOWNNAME":"東區","LI":"崇善里","LIN":"8鄰","STREET":"崇善七街","SECT":" ","MAREA":" ","LANE":" ","ALLEY":" ","HOUSE_NO":"５２號四樓","E_COORD97":171171.78,"N_COORD97":2541486.4100000001,"ADDRESS":"崇善七街５２號四樓","OBJECTID":58813},"geometry":{"x":171171.78000000119,"y":2541486.410000002}},{"attributes":{"ID":58814,"DIS_CODE":0,"TOWNNAME":"東區","LI":"崇善里","LIN":"8鄰","STREET":"崇善七街","SECT":" ","MAREA":" ","LANE":" ","ALLEY":" ","HOUSE_NO":"５２號四樓之２","E_COORD97":171171.78,"N_COORD97":2541486.4100000001,"ADDRESS":"崇善七街５２號四樓之２","OBJECTID":58814},"geometry":{"x":171171.78000000119,"y":2541486.410000002}},{"attributes":{"ID":58815,"DIS_CODE":0,"TOWNNAME":"東區","LI":"崇善里","LIN":"8鄰","STREET":"崇善七街","SECT":" ","MAREA":" ","LANE":" ","ALLEY":" ","HOUSE_NO":"５２號六樓之１","E_COORD97":171171.78,"N_COORD97":2541486.4100000001,"ADDRESS":"崇善七街５２號六樓之１","OBJECTID":58815},"geometry":{"x":171171.78000000119,"y":2541486.410000002}},{"attributes":{"ID":58816,"DIS_CODE":0,"TOWNNAME":"北區","LI":"國姓里","LIN":"8鄰","STREET":"小北路","SECT":" ","MAREA":" ","LANE":" ","ALLEY":" ","HOUSE_NO":"５７號四樓","E_COORD97":168859.32000000001,"N_COORD97":2545300.3799999999,"ADDRESS":"小北路５７號四樓","OBJECTID":58816},"geometry":{"x":168859.32000000123,"y":2545300.3800000008}},{"attributes":{"ID":58817,"DIS_CODE":0,"TOWNNAME":"柳營區","LI":"果毅里","LIN":"1鄰","STREET":" ","SECT":" ","MAREA":"果毅後","LANE":" ","ALLEY":" ","HOUSE_NO":"１２之９號","E_COORD97":185632.57000000001,"N_COORD97":2573120.1200000001,"ADDRESS":"果毅後１２之９號","OBJECTID":58817},"geometry":{"x":185632.5700000003,"y":2573120.120000001}},{"attributes":{"ID":58818,"DIS_CODE":0,"TOWNNAME":"柳營區","LI":"果毅里","LIN":"1鄰","STREET":" ","SECT":" ","MAREA":"果毅後","LANE":" ","ALLEY":" ","HOUSE_NO":"１２號","E_COORD97":185646.89000000001,"N_COORD97":2573123.02,"ADDRESS":"果毅後１２號","OBJECTID":58818},"geometry":{"x":185646.88999999873,"y":2573123.0199999977}},{"attributes":{"ID":58819,"DIS_CODE":0,"TOWNNAME":"柳營區","LI":"太康里","LIN":"1鄰","STREET":" ","SECT":" ","MAREA":"太康","LANE":" ","ALLEY":" ","HOUSE_NO":"３號之１１","E_COORD97":181482.19,"N_COORD97":2576551.96,"ADDRESS":"太康３號之１１","OBJECTID":58819},"geometry":{"x":181482.19000000041,"y":2576551.9600000009}},{"attributes":{"ID":58820,"DIS_CODE":0,"TOWNNAME":"柳營區","LI":"太康里","LIN":"1鄰","STREET":" ","SECT":" ","MAREA":"太康","LANE":" ","ALLEY":" ","HOUSE_NO":"３號之１２","E_COORD97":181482.59,"N_COORD97":2576556.1000000001,"ADDRESS":"太康３號之１２","OBJECTID":58820},"geometry":{"x":181482.59000000171,"y":2576556.0999999996}},{"attributes":{"ID":58821,"DIS_CODE":0,"TOWNNAME":"仁德區","LI":"上崙里","LIN":"1鄰","STREET":"德崙路","SECT":" ","MAREA":" ","LANE":"１６１巷","ALLEY":"７弄","HOUSE_NO":"８號","E_COORD97":173564.06,"N_COORD97":2538404.6800000002,"ADDRESS":"德崙路１６１巷７弄８號","OBJECTID":58821},"geometry":{"x":173564.05999999866,"y":2538404.6799999978}},{"attributes":{"ID":58822,"DIS_CODE":0,"TOWNNAME":"仁德區","LI":"上崙里","LIN":"1鄰","STREET":"德崙路","SECT":" ","MAREA":" ","LANE":"１６１巷","ALLEY":"７弄","HOUSE_NO":"６號","E_COORD97":173566.56,"N_COORD97":2538407.6800000002,"ADDRESS":"德崙路１６１巷７弄６號","OBJECTID":58822},"geometry":{"x":173566.56000000052,"y":2538407.6799999997}},{"attributes":{"ID":58823,"DIS_CODE":0,"TOWNNAME":"仁德區","LI":"上崙里","LIN":"1鄰","STREET":"德崙路","SECT":" ","MAREA":" ","LANE":"７７巷","ALLEY":"１２０弄","HOUSE_NO":"６號","E_COORD97":173681.54000000001,"N_COORD97":2538370.0299999998,"ADDRESS":"德崙路７７巷１２０弄６號","OBJECTID":58823},"geometry":{"x":173681.54000000004,"y":2538370.0299999993}},{"attributes":{"ID":58824,"DIS_CODE":0,"TOWNNAME":"東區","LI":"大智里","LIN":"1鄰","STREET":"生產路","SECT":" ","MAREA":" ","LANE":"６１８巷","ALLEY":"１弄","HOUSE_NO":"１０號","E_COORD97":171241.06,"N_COORD97":2540676.5600000001,"ADDRESS":"生產路６１８巷１弄１０號","OBJECTID":58824},"geometry":{"x":171241.05999999959,"y":2540676.5600000005}},{"attributes":{"ID":58825,"DIS_CODE":0,"TOWNNAME":"柳營區","LI":"太康里","LIN":"1鄰","STREET":" ","SECT":" ","MAREA":"太康","LANE":" ","ALLEY":" ","HOUSE_NO":"７號","E_COORD97":181398.28,"N_COORD97":2576444.8999999999,"ADDRESS":"太康７號","OBJECTID":58825},"geometry":{"x":181398.28000000026,"y":2576444.9000000022}},{"attributes":{"ID":58826,"DIS_CODE":0,"TOWNNAME":"東區","LI":"大智里","LIN":"1鄰","STREET":"生產路","SECT":" ","MAREA":" ","LANE":"６１８巷","ALLEY":"１弄","HOUSE_NO":"１１號","E_COORD97":171233.64999999999,"N_COORD97":2540699.1499999999,"ADDRESS":"生產路６１８巷１弄１１號","OBJECTID":58826},"geometry":{"x":171233.6500000013,"y":2540699.1500000022}},{"attributes":{"ID":58827,"DIS_CODE":0,"TOWNNAME":"柳營區","LI":"太康里","LIN":"1鄰","STREET":" ","SECT":" ","MAREA":"太康","LANE":" ","ALLEY":" ","HOUSE_NO":"３號之１３","E_COORD97":181482.48000000001,"N_COORD97":2576560.7400000002,"ADDRESS":"太康３號之１３","OBJECTID":58827},"geometry":{"x":181482.48000000138,"y":2576560.7400000021}},{"attributes":{"ID":58828,"DIS_CODE":0,"TOWNNAME":"柳營區","LI":"太康里","LIN":"1鄰","STREET":" ","SECT":" ","MAREA":"太康","LANE":" ","ALLEY":" ","HOUSE_NO":"３號之１４","E_COORD97":181470.42000000001,"N_COORD97":2576521.4500000002,"ADDRESS":"太康３號之１４","OBJECTID":58828},"geometry":{"x":181470.42000000086,"y":2576521.4500000011}},{"attributes":{"ID":58829,"DIS_CODE":0,"TOWNNAME":"柳營區","LI":"太康里","LIN":"1鄰","STREET":" ","SECT":" ","MAREA":"太康","LANE":" ","ALLEY":" ","HOUSE_NO":"３號之１５","E_COORD97":181465.48999999999,"N_COORD97":2576521.2400000002,"ADDRESS":"太康３號之１５","OBJECTID":58829},"geometry":{"x":181465.49000000115,"y":2576521.2400000021}},{"attributes":{"ID":58830,"DIS_CODE":0,"TOWNNAME":"柳營區","LI":"太康里","LIN":"1鄰","STREET":" ","SECT":" ","MAREA":"太康","LANE":" ","ALLEY":" ","HOUSE_NO":"３號之１６","E_COORD97":181460.95999999999,"N_COORD97":2576521.52,"ADDRESS":"太康３號之１６","OBJECTID":58830},"geometry":{"x":181460.95999999996,"y":2576521.5200000014}},{"attributes":{"ID":58831,"DIS_CODE":0,"TOWNNAME":"柳營區","LI":"太康里","LIN":"1鄰","STREET":" ","SECT":" ","MAREA":"太康","LANE":" ","ALLEY":" ","HOUSE_NO":"３號之１７","E_COORD97":181455.79000000001,"N_COORD97":2576521.4100000001,"ADDRESS":"太康３號之１７","OBJECTID":58831},"geometry":{"x":181455.78999999911,"y":2576521.4100000001}},{"attributes":{"ID":58832,"DIS_CODE":0,"TOWNNAME":"東區","LI":"大智里","LIN":"1鄰","STREET":"生產路","SECT":" ","MAREA":" ","LANE":"６１８巷","ALLEY":"１弄","HOUSE_NO":"１２號","E_COORD97":171242.20000000001,"N_COORD97":2540680.5499999998,"ADDRESS":"生產路６１８巷１弄１２號","OBJECTID":58832},"geometry":{"x":171242.20000000112,"y":2540680.5500000007}},{"attributes":{"ID":58833,"DIS_CODE":0,"TOWNNAME":"柳營區","LI":"太康里","LIN":"1鄰","STREET":" ","SECT":" ","MAREA":"太康","LANE":" ","ALLEY":" ","HOUSE_NO":"３號之１８","E_COORD97":181450.73999999999,"N_COORD97":2576521.3100000001,"ADDRESS":"太康３號之１８","OBJECTID":58833},"geometry":{"x":181450.74000000022,"y":2576521.3100000005}},{"attributes":{"ID":58834,"DIS_CODE":0,"TOWNNAME":"柳營區","LI":"太康里","LIN":"1鄰","STREET":" ","SECT":" ","MAREA":"太康","LANE":" ","ALLEY":" ","HOUSE_NO":"３號之１９","E_COORD97":181445.75,"N_COORD97":2576521.4100000001,"ADDRESS":"太康３號之１９","OBJECTID":58834},"geometry":{"x":181445.75,"y":2576521.4100000001}},{"attributes":{"ID":58835,"DIS_CODE":0,"TOWNNAME":"柳營區","LI":"太康里","LIN":"1鄰","STREET":" ","SECT":" ","MAREA":"太康","LANE":" ","ALLEY":" ","HOUSE_NO":"３之１號","E_COORD97":181480.95999999999,"N_COORD97":2576498.6600000001,"ADDRESS":"太康３之１號","OBJECTID":58835},"geometry":{"x":181480.95999999996,"y":2576498.6600000001}},{"attributes":{"ID":58836,"DIS_CODE":0,"TOWNNAME":"柳營區","LI":"太康里","LIN":"1鄰","STREET":" ","SECT":" ","MAREA":"太康","LANE":" ","ALLEY":" ","HOUSE_NO":"３號之２０","E_COORD97":181473.26999999999,"N_COORD97":2576532.2200000002,"ADDRESS":"太康３號之２０","OBJECTID":58836},"geometry":{"x":181473.27000000048,"y":2576532.2200000007}},{"attributes":{"ID":58837,"DIS_CODE":0,"TOWNNAME":"柳營區","LI":"太康里","LIN":"1鄰","STREET":" ","SECT":" ","MAREA":"太康","LANE":" ","ALLEY":" ","HOUSE_NO":"３號之２１","E_COORD97":181467.62,"N_COORD97":2576532.1499999999,"ADDRESS":"太康３號之２１","OBJECTID":58837},"geometry":{"x":181467.62000000104,"y":2576532.1500000022}},{"attributes":{"ID":58838,"DIS_CODE":0,"TOWNNAME":"柳營區","LI":"太康里","LIN":"1鄰","STREET":" ","SECT":" ","MAREA":"太康","LANE":" ","ALLEY":" ","HOUSE_NO":"３號之２２","E_COORD97":181461.95999999999,"N_COORD97":2576532.0899999999,"ADDRESS":"太康３號之２２","OBJECTID":58838},"geometry":{"x":181461.96000000089,"y":2576532.0900000017}},{"attributes":{"ID":58839,"DIS_CODE":0,"TOWNNAME":"柳營區","LI":"太康里","LIN":"1鄰","STREET":" ","SECT":" ","MAREA":"太康","LANE":" ","ALLEY":" ","HOUSE_NO":"３號之２３","E_COORD97":181456.31,"N_COORD97":2576532.02,"ADDRESS":"太康３號之２３","OBJECTID":58839},"geometry":{"x":181456.30999999959,"y":2576532.0200000014}},{"attributes":{"ID":58840,"DIS_CODE":0,"TOWNNAME":"柳營區","LI":"太康里","LIN":"1鄰","STREET":" ","SECT":" ","MAREA":"太康","LANE":" ","ALLEY":" ","HOUSE_NO":"３號之２４","E_COORD97":181450.66,"N_COORD97":2576531.9500000002,"ADDRESS":"太康３號之２４","OBJECTID":58840},"geometry":{"x":181450.66000000108,"y":2576531.9500000011}},{"attributes":{"ID":58841,"DIS_CODE":0,"TOWNNAME":"柳營區","LI":"太康里","LIN":"1鄰","STREET":" ","SECT":" ","MAREA":"太康","LANE":" ","ALLEY":" ","HOUSE_NO":"３號之２５","E_COORD97":181445.01000000001,"N_COORD97":2576531.8799999999,"ADDRESS":"太康３號之２５","OBJECTID":58841},"geometry":{"x":181445.00999999978,"y":2576531.8800000008}},{"attributes":{"ID":58842,"DIS_CODE":0,"TOWNNAME":"柳營區","LI":"太康里","LIN":"1鄰","STREET":" ","SECT":" ","MAREA":"太康","LANE":" ","ALLEY":" ","HOUSE_NO":"３號之５","E_COORD97":181482.31,"N_COORD97":2576521.7400000002,"ADDRESS":"太康３號之５","OBJECTID":58842},"geometry":{"x":181482.30999999866,"y":2576521.7400000002}},{"attributes":{"ID":58843,"DIS_CODE":0,"TOWNNAME":"柳營區","LI":"太康里","LIN":"1鄰","STREET":" ","SECT":" ","MAREA":"太康","LANE":" ","ALLEY":" ","HOUSE_NO":"３號之６","E_COORD97":181482.23999999999,"N_COORD97":2576531.6000000001,"ADDRESS":"太康３號之６","OBJECTID":58843},"geometry":{"x":181482.24000000115,"y":2576531.6000000015}},{"attributes":{"ID":58844,"DIS_CODE":0,"TOWNNAME":"柳營區","LI":"太康里","LIN":"1鄰","STREET":" ","SECT":" ","MAREA":"太康","LANE":" ","ALLEY":" ","HOUSE_NO":"３號之７","E_COORD97":181482.16,"N_COORD97":2576535.9300000002,"ADDRESS":"太康３號之７","OBJECTID":58844},"geometry":{"x":181482.16000000015,"y":2576535.9300000016}},{"attributes":{"ID":58845,"DIS_CODE":0,"TOWNNAME":"柳營區","LI":"太康里","LIN":"1鄰","STREET":" ","SECT":" ","MAREA":"太康","LANE":" ","ALLEY":" ","HOUSE_NO":"３號之８","E_COORD97":181482.09,"N_COORD97":2576540,"ADDRESS":"太康３號之８","OBJECTID":58845},"geometry":{"x":181482.08999999985,"y":2576540}},{"attributes":{"ID":58846,"DIS_CODE":0,"TOWNNAME":"柳營區","LI":"太康里","LIN":"1鄰","STREET":" ","SECT":" ","MAREA":"太康","LANE":" ","ALLEY":" ","HOUSE_NO":"３號之９","E_COORD97":181482.39000000001,"N_COORD97":2576544.0899999999,"ADDRESS":"太康３號之９","OBJECTID":58846},"geometry":{"x":181482.3900000006,"y":2576544.0900000036}},{"attributes":{"ID":58847,"DIS_CODE":0,"TOWNNAME":"柳營區","LI":"太康里","LIN":"1鄰","STREET":" ","SECT":" ","MAREA":"太康","LANE":" ","ALLEY":" ","HOUSE_NO":"３號","E_COORD97":181487.10999999999,"N_COORD97":2576498.7400000002,"ADDRESS":"太康３號","OBJECTID":58847},"geometry":{"x":181487.11000000034,"y":2576498.7400000002}},{"attributes":{"ID":58848,"DIS_CODE":0,"TOWNNAME":"柳營區","LI":"太康里","LIN":"1鄰","STREET":" ","SECT":" ","MAREA":"太康","LANE":" ","ALLEY":" ","HOUSE_NO":"４號之１","E_COORD97":181402.69,"N_COORD97":2576630.98,"ADDRESS":"太康４號之１","OBJECTID":58848},"geometry":{"x":181402.69000000227,"y":2576630.9800000023}},{"attributes":{"ID":58849,"DIS_CODE":0,"TOWNNAME":"柳營區","LI":"太康里","LIN":"1鄰","STREET":" ","SECT":" ","MAREA":"太康","LANE":" ","ALLEY":" ","HOUSE_NO":"４之３號","E_COORD97":181421.70999999999,"N_COORD97":2576490.3900000001,"ADDRESS":"太康４之３號","OBJECTID":58849},"geometry":{"x":181421.70999999996,"y":2576490.3900000006}},{"attributes":{"ID":58850,"DIS_CODE":0,"TOWNNAME":"柳營區","LI":"太康里","LIN":"1鄰","STREET":" ","SECT":" ","MAREA":"太康","LANE":" ","ALLEY":" ","HOUSE_NO":"４號之３","E_COORD97":181421.70999999999,"N_COORD97":2576490.3900000001,"ADDRESS":"太康４號之３","OBJECTID":58850},"geometry":{"x":181421.70999999996,"y":2576490.3900000006}},{"attributes":{"ID":58851,"DIS_CODE":0,"TOWNNAME":"柳營區","LI":"太康里","LIN":"1鄰","STREET":" ","SECT":" ","MAREA":"太康","LANE":" ","ALLEY":" ","HOUSE_NO":"４之４號","E_COORD97":181433.72,"N_COORD97":2576498.8399999999,"ADDRESS":"太康４之４號","OBJECTID":58851},"geometry":{"x":181433.71999999974,"y":2576498.8400000017}},{"attributes":{"ID":58852,"DIS_CODE":0,"TOWNNAME":"柳營區","LI":"太康里","LIN":"1鄰","STREET":" ","SECT":" ","MAREA":"太康","LANE":" ","ALLEY":" ","HOUSE_NO":"４之５號","E_COORD97":181465.07999999999,"N_COORD97":2576486.5,"ADDRESS":"太康４之５號","OBJECTID":58852},"geometry":{"x":181465.08000000007,"y":2576486.5}},{"attributes":{"ID":58853,"DIS_CODE":0,"TOWNNAME":"柳營區","LI":"太康里","LIN":"1鄰","STREET":" ","SECT":" ","MAREA":"太康","LANE":" ","ALLEY":" ","HOUSE_NO":"４號之５","E_COORD97":181465.07999999999,"N_COORD97":2576486.5,"ADDRESS":"太康４號之５","OBJECTID":58853},"geometry":{"x":181465.08000000007,"y":2576486.5}},{"attributes":{"ID":58854,"DIS_CODE":0,"TOWNNAME":"柳營區","LI":"太康里","LIN":"1鄰","STREET":" ","SECT":" ","MAREA":"太康","LANE":" ","ALLEY":" ","HOUSE_NO":"４之６號","E_COORD97":181413.48999999999,"N_COORD97":2576491.8399999999,"ADDRESS":"太康４之６號","OBJECTID":58854},"geometry":{"x":181413.49000000022,"y":2576491.8400000017}},{"attributes":{"ID":58855,"DIS_CODE":0,"TOWNNAME":"柳營區","LI":"太康里","LIN":"1鄰","STREET":" ","SECT":" ","MAREA":"太康","LANE":" ","ALLEY":" ","HOUSE_NO":"４之７號","E_COORD97":181406.67000000001,"N_COORD97":2576493.8599999999,"ADDRESS":"太康４之７號","OBJECTID":58855},"geometry":{"x":181406.66999999993,"y":2576493.8599999994}},{"attributes":{"ID":58856,"DIS_CODE":0,"TOWNNAME":"柳營區","LI":"太康里","LIN":"1鄰","STREET":" ","SECT":" ","MAREA":"太康","LANE":" ","ALLEY":" ","HOUSE_NO":"４號之７","E_COORD97":181406.67000000001,"N_COORD97":2576493.8599999999,"ADDRESS":"太康４號之７","OBJECTID":58856},"geometry":{"x":181406.66999999993,"y":2576493.8599999994}},{"attributes":{"ID":58857,"DIS_CODE":0,"TOWNNAME":"永康區","LI":"二王里","LIN":"8鄰","STREET":"二王路","SECT":" ","MAREA":" ","LANE":" ","ALLEY":" ","HOUSE_NO":"１６號九樓之３","E_COORD97":172975.14999999999,"N_COORD97":2546819.7999999998,"ADDRESS":"二王路１６號九樓之３","OBJECTID":58857},"geometry":{"x":172975.1500000013,"y":2546819.7999999989}},{"attributes":{"ID":58858,"DIS_CODE":0,"TOWNNAME":"柳營區","LI":"太康里","LIN":"1鄰","STREET":" ","SECT":" ","MAREA":"太康","LANE":" ","ALLEY":" ","HOUSE_NO":"４之８號","E_COORD97":181400.63,"N_COORD97":2576494.1299999999,"ADDRESS":"太康４之８號","OBJECTID":58858},"geometry":{"x":181400.62999999989,"y":2576494.129999999}},{"attributes":{"ID":58859,"DIS_CODE":0,"TOWNNAME":"柳營區","LI":"太康里","LIN":"1鄰","STREET":" ","SECT":" ","MAREA":"太康","LANE":" ","ALLEY":" ","HOUSE_NO":"４號之８","E_COORD97":181400.63,"N_COORD97":2576494.1299999999,"ADDRESS":"太康４號之８","OBJECTID":58859},"geometry":{"x":181400.62999999989,"y":2576494.129999999}},{"attributes":{"ID":58860,"DIS_CODE":0,"TOWNNAME":"柳營區","LI":"太康里","LIN":"1鄰","STREET":" ","SECT":" ","MAREA":"太康","LANE":" ","ALLEY":" ","HOUSE_NO":"４之９號","E_COORD97":181393.23000000001,"N_COORD97":2576494.7999999998,"ADDRESS":"太康４之９號","OBJECTID":58860},"geometry":{"x":181393.23000000045,"y":2576494.8000000007}},{"attributes":{"ID":58861,"DIS_CODE":0,"TOWNNAME":"柳營區","LI":"太康里","LIN":"1鄰","STREET":" ","SECT":" ","MAREA":"太康","LANE":" ","ALLEY":" ","HOUSE_NO":"４號之９","E_COORD97":181393.23000000001,"N_COORD97":2576494.7999999998,"ADDRESS":"太康４號之９","OBJECTID":58861},"geometry":{"x":181393.23000000045,"y":2576494.8000000007}},{"attributes":{"ID":58862,"DIS_CODE":0,"TOWNNAME":"柳營區","LI":"太康里","LIN":"1鄰","STREET":" ","SECT":" ","MAREA":"太康","LANE":" ","ALLEY":" ","HOUSE_NO":"４號","E_COORD97":181456.81,"N_COORD97":2576495.7599999998,"ADDRESS":"太康４號","OBJECTID":58862},"geometry":{"x":181456.80999999959,"y":2576495.7600000016}},{"attributes":{"ID":58863,"DIS_CODE":0,"TOWNNAME":"柳營區","LI":"太康里","LIN":"1鄰","STREET":" ","SECT":" ","MAREA":"太康","LANE":" ","ALLEY":" ","HOUSE_NO":"５之１號","E_COORD97":181436.29999999999,"N_COORD97":2576462.7999999998,"ADDRESS":"太康５之１號","OBJECTID":58863},"geometry":{"x":181436.29999999981,"y":2576462.8000000026}},{"attributes":{"ID":58864,"DIS_CODE":0,"TOWNNAME":"柳營區","LI":"太康里","LIN":"1鄰","STREET":" ","SECT":" ","MAREA":"太康","LANE":" ","ALLEY":" ","HOUSE_NO":"５號之１","E_COORD97":181436.29999999999,"N_COORD97":2576462.7999999998,"ADDRESS":"太康５號之１","OBJECTID":58864},"geometry":{"x":181436.29999999981,"y":2576462.8000000026}},{"attributes":{"ID":58865,"DIS_CODE":0,"TOWNNAME":"柳營區","LI":"太康里","LIN":"1鄰","STREET":" ","SECT":" ","MAREA":"太康","LANE":" ","ALLEY":" ","HOUSE_NO":"７之１號","E_COORD97":181383.5,"N_COORD97":2576436.1899999999,"ADDRESS":"太康７之１號","OBJECTID":58865},"geometry":{"x":181383.50000000093,"y":2576436.1899999995}},{"attributes":{"ID":58866,"DIS_CODE":0,"TOWNNAME":"柳營區","LI":"太康里","LIN":"1鄰","STREET":" ","SECT":" ","MAREA":"太康","LANE":" ","ALLEY":" ","HOUSE_NO":"７號之１","E_COORD97":181383.5,"N_COORD97":2576436.1899999999,"ADDRESS":"太康７號之１","OBJECTID":58866},"geometry":{"x":181383.50000000093,"y":2576436.1899999995}},{"attributes":{"ID":58867,"DIS_CODE":0,"TOWNNAME":"柳營區","LI":"太康里","LIN":"1鄰","STREET":" ","SECT":" ","MAREA":"太康","LANE":" ","ALLEY":" ","HOUSE_NO":"８號之１","E_COORD97":181374.12,"N_COORD97":2576433.8799999999,"ADDRESS":"太康８號之１","OBJECTID":58867},"geometry":{"x":181374.12000000197,"y":2576433.8800000008}},{"attributes":{"ID":58868,"DIS_CODE":0,"TOWNNAME":"柳營區","LI":"太康里","LIN":"1鄰","STREET":" ","SECT":" ","MAREA":"太康","LANE":" ","ALLEY":" ","HOUSE_NO":"９號","E_COORD97":181360.51999999999,"N_COORD97":2576483.27,"ADDRESS":"太康９號","OBJECTID":58868},"geometry":{"x":181360.52000000142,"y":2576483.2699999996}},{"attributes":{"ID":58869,"DIS_CODE":0,"TOWNNAME":"柳營區","LI":"神農里","LIN":"1鄰","STREET":" ","SECT":" ","MAREA":"果毅後","LANE":" ","ALLEY":" ","HOUSE_NO":"２３３號","E_COORD97":185439.72,"N_COORD97":2572769.0600000001,"ADDRESS":"果毅後２３３號","OBJECTID":58869},"geometry":{"x":185439.7200000016,"y":2572769.0600000024}},{"attributes":{"ID":58870,"DIS_CODE":0,"TOWNNAME":"柳營區","LI":"神農里","LIN":"1鄰","STREET":" ","SECT":" ","MAREA":"果毅後","LANE":" ","ALLEY":" ","HOUSE_NO":"２３４號","E_COORD97":185430.67000000001,"N_COORD97":2572780.1099999999,"ADDRESS":"果毅後２３４號","OBJECTID":58870},"geometry":{"x":185430.67000000086,"y":2572780.1100000031}},{"attributes":{"ID":58871,"DIS_CODE":0,"TOWNNAME":"柳營區","LI":"神農里","LIN":"1鄰","STREET":" ","SECT":" ","MAREA":"果毅後","LANE":" ","ALLEY":" ","HOUSE_NO":"２３５號","E_COORD97":185451.39999999999,"N_COORD97":2572794.25,"ADDRESS":"果毅後２３５號","OBJECTID":58871},"geometry":{"x":185451.4000000013,"y":2572794.2500000019}},{"attributes":{"ID":58872,"DIS_CODE":0,"TOWNNAME":"柳營區","LI":"神農里","LIN":"1鄰","STREET":" ","SECT":" ","MAREA":"果毅後","LANE":" ","ALLEY":" ","HOUSE_NO":"２３６號之２","E_COORD97":185453.92999999999,"N_COORD97":2572800.0499999998,"ADDRESS":"果毅後２３６號之２","OBJECTID":58872},"geometry":{"x":185453.93000000063,"y":2572800.0500000026}},{"attributes":{"ID":58873,"DIS_CODE":0,"TOWNNAME":"柳營區","LI":"神農里","LIN":"1鄰","STREET":" ","SECT":" ","MAREA":"果毅後","LANE":" ","ALLEY":" ","HOUSE_NO":"２３６號之３","E_COORD97":185437.95999999999,"N_COORD97":2572787.96,"ADDRESS":"果毅後２３６號之３","OBJECTID":58873},"geometry":{"x":185437.95999999996,"y":2572787.9600000009}},{"attributes":{"ID":58874,"DIS_CODE":0,"TOWNNAME":"柳營區","LI":"神農里","LIN":"1鄰","STREET":" ","SECT":" ","MAREA":"果毅後","LANE":" ","ALLEY":" ","HOUSE_NO":"２３６號","E_COORD97":185441.47,"N_COORD97":2572804.1899999999,"ADDRESS":"果毅後２３６號","OBJECTID":58874},"geometry":{"x":185441.4700000016,"y":2572804.1900000013}},{"attributes":{"ID":58875,"DIS_CODE":0,"TOWNNAME":"東區","LI":"大智里","LIN":"1鄰","STREET":"生產路","SECT":" ","MAREA":" ","LANE":"６１８巷","ALLEY":"１弄","HOUSE_NO":"１３號","E_COORD97":171238.39999999999,"N_COORD97":2540696.4900000002,"ADDRESS":"生產路６１８巷１弄１３號","OBJECTID":58875},"geometry":{"x":171238.40000000037,"y":2540696.4900000021}},{"attributes":{"ID":58876,"DIS_CODE":0,"TOWNNAME":"東區","LI":"大智里","LIN":"1鄰","STREET":"生產路","SECT":" ","MAREA":" ","LANE":"６１８巷","ALLEY":"１弄","HOUSE_NO":"１４號","E_COORD97":171247.14000000001,"N_COORD97":2540679.0299999998,"ADDRESS":"生產路６１８巷１弄１４號","OBJECTID":58876},"geometry":{"x":171247.1400000006,"y":2540679.0299999993}},{"attributes":{"ID":58877,"DIS_CODE":0,"TOWNNAME":"東區","LI":"大智里","LIN":"1鄰","STREET":"生產路","SECT":" ","MAREA":" ","LANE":"６１８巷","ALLEY":"１弄","HOUSE_NO":"１５號","E_COORD97":171240.87,"N_COORD97":2540700.48,"ADDRESS":"生產路６１８巷１弄１５號","OBJECTID":58877},"geometry":{"x":171240.87000000104,"y":2540700.4800000023}},{"attributes":{"ID":58878,"DIS_CODE":0,"TOWNNAME":"東區","LI":"大智里","LIN":"1鄰","STREET":"生產路","SECT":" ","MAREA":" ","LANE":"６１８巷","ALLEY":"１弄","HOUSE_NO":"１號","E_COORD97":171217.69,"N_COORD97":2540689.4700000002,"ADDRESS":"生產路６１８巷１弄１號","OBJECTID":58878},"geometry":{"x":171217.69000000041,"y":2540689.4700000025}},{"attributes":{"ID":58879,"DIS_CODE":0,"TOWNNAME":"東區","LI":"大智里","LIN":"1鄰","STREET":"生產路","SECT":" ","MAREA":" ","LANE":"６１８巷","ALLEY":"１弄","HOUSE_NO":"２號","E_COORD97":171225.85999999999,"N_COORD97":2540672.77,"ADDRESS":"生產路６１８巷１弄２號","OBJECTID":58879},"geometry":{"x":171225.86000000127,"y":2540672.7700000014}},{"attributes":{"ID":58880,"DIS_CODE":0,"TOWNNAME":"東區","LI":"大智里","LIN":"1鄰","STREET":"生產路","SECT":" ","MAREA":" ","LANE":"６１８巷","ALLEY":"１弄","HOUSE_NO":"３號","E_COORD97":171220.16,"N_COORD97":2540694.0299999998,"ADDRESS":"生產路６１８巷１弄３號","OBJECTID":58880},"geometry":{"x":171220.16000000108,"y":2540694.0300000031}},{"attributes":{"ID":58881,"DIS_CODE":0,"TOWNNAME":"東區","LI":"大智里","LIN":"1鄰","STREET":"生產路","SECT":" ","MAREA":" ","LANE":"６１８巷","ALLEY":"１弄","HOUSE_NO":"４號","E_COORD97":171228.51999999999,"N_COORD97":2540675.04,"ADDRESS":"生產路６１８巷１弄４號","OBJECTID":58881},"geometry":{"x":171228.52000000142,"y":2540675.0399999991}},{"attributes":{"ID":58882,"DIS_CODE":0,"TOWNNAME":"東區","LI":"大智里","LIN":"1鄰","STREET":"生產路","SECT":" ","MAREA":" ","LANE":"６１８巷","ALLEY":"１弄","HOUSE_NO":"５號","E_COORD97":171225.29000000001,"N_COORD97":2540692.1299999999,"ADDRESS":"生產路６１８巷１弄５號","OBJECTID":58882},"geometry":{"x":171225.28999999911,"y":2540692.129999999}},{"attributes":{"ID":58883,"DIS_CODE":0,"TOWNNAME":"東區","LI":"大智里","LIN":"1鄰","STREET":"生產路","SECT":" ","MAREA":" ","LANE":"６１８巷","ALLEY":"１弄","HOUSE_NO":"６號","E_COORD97":171233.26999999999,"N_COORD97":2540674.0899999999,"ADDRESS":"生產路６１８巷１弄６號","OBJECTID":58883},"geometry":{"x":171233.26999999955,"y":2540674.0900000017}},{"attributes":{"ID":58884,"DIS_CODE":0,"TOWNNAME":"東區","LI":"大智里","LIN":"1鄰","STREET":"生產路","SECT":" ","MAREA":" ","LANE":"６１８巷","ALLEY":"１弄","HOUSE_NO":"７號","E_COORD97":171226.23999999999,"N_COORD97":2540697.8199999998,"ADDRESS":"生產路６１８巷１弄７號","OBJECTID":58884},"geometry":{"x":171226.24000000115,"y":2540697.8200000022}},{"attributes":{"ID":58885,"DIS_CODE":0,"TOWNNAME":"東區","LI":"大智里","LIN":"1鄰","STREET":"生產路","SECT":" ","MAREA":" ","LANE":"６１８巷","ALLEY":"１弄","HOUSE_NO":"９號","E_COORD97":171231.94,"N_COORD97":2540694.6000000001,"ADDRESS":"生產路６１８巷１弄９號","OBJECTID":58885},"geometry":{"x":171231.94000000134,"y":2540694.6000000015}},{"attributes":{"ID":58886,"DIS_CODE":0,"TOWNNAME":"東區","LI":"大智里","LIN":"1鄰","STREET":"生產路","SECT":" ","MAREA":" ","LANE":"６１８巷","ALLEY":"２弄","HOUSE_NO":"１號","E_COORD97":171210.85000000001,"N_COORD97":2540666.8799999999,"ADDRESS":"生產路６１８巷２弄１號","OBJECTID":58886},"geometry":{"x":171210.84999999963,"y":2540666.879999999}},{"attributes":{"ID":58887,"DIS_CODE":0,"TOWNNAME":"東區","LI":"大智里","LIN":"1鄰","STREET":"生產路","SECT":" ","MAREA":" ","LANE":"６１８巷","ALLEY":"２弄","HOUSE_NO":"２號","E_COORD97":171208.19,"N_COORD97":2540686.0499999998,"ADDRESS":"生產路６１８巷２弄２號","OBJECTID":58887},"geometry":{"x":171208.19000000134,"y":2540686.0500000026}},{"attributes":{"ID":58888,"DIS_CODE":0,"TOWNNAME":"東區","LI":"大智里","LIN":"1鄰","STREET":"生產路","SECT":" ","MAREA":" ","LANE":"６１８巷","ALLEY":"２弄","HOUSE_NO":"３號","E_COORD97":171206.85999999999,"N_COORD97":2540664.79,"ADDRESS":"生產路６１８巷２弄３號","OBJECTID":58888},"geometry":{"x":171206.86000000127,"y":2540664.7900000028}},{"attributes":{"ID":58889,"DIS_CODE":0,"TOWNNAME":"東區","LI":"大智里","LIN":"1鄰","STREET":"生產路","SECT":" ","MAREA":" ","LANE":"６１８巷","ALLEY":"２弄","HOUSE_NO":"６號","E_COORD97":171200.01999999999,"N_COORD97":2540686.2400000002,"ADDRESS":"生產路６１８巷２弄６號","OBJECTID":58889},"geometry":{"x":171200.02000000048,"y":2540686.2400000002}},{"attributes":{"ID":58890,"DIS_CODE":0,"TOWNNAME":"東區","LI":"大智里","LIN":"1鄰","STREET":"生產路","SECT":" ","MAREA":" ","LANE":"６１８巷","ALLEY":"３弄","HOUSE_NO":"１０號","E_COORD97":171250.95000000001,"N_COORD97":2540635.1200000001,"ADDRESS":"生產路６１８巷３弄１０號","OBJECTID":58890},"geometry":{"x":171250.95000000019,"y":2540635.1200000029}},{"attributes":{"ID":58891,"DIS_CODE":0,"TOWNNAME":"東區","LI":"大智里","LIN":"1鄰","STREET":"生產路","SECT":" ","MAREA":" ","LANE":"６１８巷","ALLEY":"３弄","HOUSE_NO":"１２號","E_COORD97":171252.81,"N_COORD97":2540639.1499999999,"ADDRESS":"生產路６１８巷３弄１２號","OBJECTID":58891},"geometry":{"x":171252.80999999959,"y":2540639.1500000004}},{"attributes":{"ID":58892,"DIS_CODE":0,"TOWNNAME":"東區","LI":"大智里","LIN":"1鄰","STREET":"生產路","SECT":" ","MAREA":" ","LANE":"６１８巷","ALLEY":"３弄","HOUSE_NO":"１３號","E_COORD97":171253.22,"N_COORD97":2540661.7599999998,"ADDRESS":"生產路６１８巷３弄１３號","OBJECTID":58892},"geometry":{"x":171253.22000000067,"y":2540661.7599999998}},{"attributes":{"ID":58893,"DIS_CODE":0,"TOWNNAME":"東區","LI":"大智里","LIN":"1鄰","STREET":"生產路","SECT":" ","MAREA":" ","LANE":"６１８巷","ALLEY":"３弄","HOUSE_NO":"１６號","E_COORD97":171259.72,"N_COORD97":2540641.9399999999,"ADDRESS":"生產路６１８巷３弄１６號","OBJECTID":58893},"geometry":{"x":171259.72000000067,"y":2540641.9400000013}},{"attributes":{"ID":58894,"DIS_CODE":0,"TOWNNAME":"東區","LI":"大智里","LIN":"1鄰","STREET":"生產路","SECT":" ","MAREA":" ","LANE":"６１８巷","ALLEY":"３弄","HOUSE_NO":"２號","E_COORD97":171237.51999999999,"N_COORD97":2540630.23,"ADDRESS":"生產路６１８巷３弄２號","OBJECTID":58894},"geometry":{"x":171237.52000000048,"y":2540630.2300000023}},{"attributes":{"ID":58895,"DIS_CODE":0,"TOWNNAME":"東區","LI":"大智里","LIN":"1鄰","STREET":"生產路","SECT":" ","MAREA":" ","LANE":"６１８巷","ALLEY":"３弄","HOUSE_NO":"３號","E_COORD97":171233.84,"N_COORD97":2540658.5299999998,"ADDRESS":"生產路６１８巷３弄３號","OBJECTID":58895},"geometry":{"x":171233.84000000078,"y":2540658.5299999993}},{"attributes":{"ID":58896,"DIS_CODE":0,"TOWNNAME":"安南區","LI":"州北里","LIN":"2鄰","STREET":"安和路","SECT":"五段","MAREA":" ","LANE":"１７１巷","ALLEY":"１９１弄","HOUSE_NO":"１９號","E_COORD97":169686.23114300001,"N_COORD97":2551636.3982699998,"ADDRESS":"安和路五段１７１巷１９１弄１９號","OBJECTID":58896},"geometry":{"x":169686.23114300147,"y":2551636.3982660007}},{"attributes":{"ID":58897,"DIS_CODE":0,"TOWNNAME":"東區","LI":"大智里","LIN":"1鄰","STREET":"生產路","SECT":" ","MAREA":" ","LANE":"６１８巷","ALLEY":"３弄","HOUSE_NO":"５號","E_COORD97":171238.59,"N_COORD97":2540657.3900000001,"ADDRESS":"生產路６１８巷３弄５號","OBJECTID":58897},"geometry":{"x":171238.59000000078,"y":2540657.3900000006}},{"attributes":{"ID":58898,"DIS_CODE":0,"TOWNNAME":"東區","LI":"大智里","LIN":"1鄰","STREET":"生產路","SECT":" ","MAREA":" ","LANE":"６１８巷","ALLEY":"３弄","HOUSE_NO":"６號","E_COORD97":171244.12,"N_COORD97":2540632.7200000002,"ADDRESS":"生產路６１８巷３弄６號","OBJECTID":58898},"geometry":{"x":171244.12000000104,"y":2540632.7200000007}},{"attributes":{"ID":58899,"DIS_CODE":0,"TOWNNAME":"東區","LI":"大智里","LIN":"1鄰","STREET":"生產路","SECT":" ","MAREA":" ","LANE":"６１８巷","ALLEY":"３弄","HOUSE_NO":"７號","E_COORD97":171241.25,"N_COORD97":2540661.7599999998,"ADDRESS":"生產路６１８巷３弄７號","OBJECTID":58899},"geometry":{"x":171241.25000000093,"y":2540661.7599999998}},{"attributes":{"ID":58900,"DIS_CODE":0,"TOWNNAME":"東區","LI":"大智里","LIN":"1鄰","STREET":"生產路","SECT":" ","MAREA":" ","LANE":"６１８巷","ALLEY":"３弄","HOUSE_NO":"８號","E_COORD97":171246.29000000001,"N_COORD97":2540636.5099999998,"ADDRESS":"生產路６１８巷３弄８號","OBJECTID":58900},"geometry":{"x":171246.29000000097,"y":2540636.5099999998}},{"attributes":{"ID":58901,"DIS_CODE":0,"TOWNNAME":"東區","LI":"大智里","LIN":"1鄰","STREET":"生產路","SECT":" ","MAREA":" ","LANE":"６１８巷","ALLEY":"３弄","HOUSE_NO":"９號","E_COORD97":171246.76000000001,"N_COORD97":2540659.48,"ADDRESS":"生產路６１８巷３弄９號","OBJECTID":58901},"geometry":{"x":171246.75999999978,"y":2540659.4800000023}},{"attributes":{"ID":58902,"DIS_CODE":0,"TOWNNAME":"東區","LI":"大智里","LIN":"1鄰","STREET":"生產路","SECT":" ","MAREA":" ","LANE":"６１８巷","ALLEY":"４弄","HOUSE_NO":"１號","E_COORD97":171232.63,"N_COORD97":2540631.7799999998,"ADDRESS":"生產路６１８巷４弄１號","OBJECTID":58902},"geometry":{"x":171232.62999999989,"y":2540631.7800000012}},{"attributes":{"ID":58903,"DIS_CODE":0,"TOWNNAME":"東區","LI":"大智里","LIN":"1鄰","STREET":"生產路","SECT":" ","MAREA":" ","LANE":"６１８巷","ALLEY":"４弄","HOUSE_NO":"２號","E_COORD97":171215.79000000001,"N_COORD97":2540650.52,"ADDRESS":"生產路６１８巷４弄２號","OBJECTID":58903},"geometry":{"x":171215.79000000097,"y":2540650.5200000014}},{"attributes":{"ID":58904,"DIS_CODE":0,"TOWNNAME":"東區","LI":"大智里","LIN":"1鄰","STREET":"生產路","SECT":" ","MAREA":" ","LANE":"６１８巷","ALLEY":"４弄","HOUSE_NO":"３號","E_COORD97":171230,"N_COORD97":2540627.75,"ADDRESS":"生產路６１８巷４弄３號","OBJECTID":58904},"geometry":{"x":171230,"y":2540627.75}},{"attributes":{"ID":58905,"DIS_CODE":0,"TOWNNAME":"東區","LI":"大智里","LIN":"1鄰","STREET":"生產路","SECT":" ","MAREA":" ","LANE":"６１８巷","ALLEY":"４弄","HOUSE_NO":"５號","E_COORD97":171226.04999999999,"N_COORD97":2540630.5899999999,"ADDRESS":"生產路６１８巷４弄５號","OBJECTID":58905},"geometry":{"x":171226.04999999981,"y":2540630.5900000017}},{"attributes":{"ID":58906,"DIS_CODE":0,"TOWNNAME":"東區","LI":"大智里","LIN":"1鄰","STREET":"生產路","SECT":" ","MAREA":" ","LANE":"６１８巷","ALLEY":"４弄","HOUSE_NO":"７號","E_COORD97":171223.76999999999,"N_COORD97":2540626.0299999998,"ADDRESS":"生產路６１８巷４弄７號","OBJECTID":58906},"geometry":{"x":171223.77000000048,"y":2540626.0299999975}},{"attributes":{"ID":58907,"DIS_CODE":0,"TOWNNAME":"東區","LI":"大智里","LIN":"1鄰","STREET":"生產路","SECT":" ","MAREA":" ","LANE":"６１８巷","ALLEY":"４弄","HOUSE_NO":"９號","E_COORD97":171218.64000000001,"N_COORD97":2540628.1200000001,"ADDRESS":"生產路６１８巷４弄９號","OBJECTID":58907},"geometry":{"x":171218.63999999966,"y":2540628.1200000029}},{"attributes":{"ID":58908,"DIS_CODE":0,"TOWNNAME":"東區","LI":"大智里","LIN":"1鄰","STREET":"生產路","SECT":" ","MAREA":" ","LANE":"６１８巷","ALLEY":"３弄","HOUSE_NO":"１１號","E_COORD97":171249.04000000001,"N_COORD97":2540664.0299999998,"ADDRESS":"生產路６１８巷３弄１１號","OBJECTID":58908},"geometry":{"x":171249.03999999911,"y":2540664.0300000012}},{"attributes":{"ID":58909,"DIS_CODE":0,"TOWNNAME":"東區","LI":"大智里","LIN":"1鄰","STREET":"生產路","SECT":" ","MAREA":" ","LANE":"６１８巷","ALLEY":"１弄","HOUSE_NO":"８號","E_COORD97":171235.17000000001,"N_COORD97":2540677.7000000002,"ADDRESS":"生產路６１８巷１弄８號","OBJECTID":58909},"geometry":{"x":171235.17000000086,"y":2540677.6999999993}},{"attributes":{"ID":58910,"DIS_CODE":0,"TOWNNAME":"東區","LI":"大智里","LIN":"1鄰","STREET":"生產路","SECT":" ","MAREA":" ","LANE":"６１８巷","ALLEY":"２弄","HOUSE_NO":"４號","E_COORD97":171203.44,"N_COORD97":2540688.8999999999,"ADDRESS":"生產路６１８巷２弄４號","OBJECTID":58910},"geometry":{"x":171203.44000000134,"y":2540688.9000000004}},{"attributes":{"ID":58911,"DIS_CODE":0,"TOWNNAME":"東區","LI":"大智里","LIN":"1鄰","STREET":"生產路","SECT":" ","MAREA":" ","LANE":"６１８巷","ALLEY":"３弄","HOUSE_NO":"１４號","E_COORD97":171258.09,"N_COORD97":2540637.4399999999,"ADDRESS":"生產路６１８巷３弄１４號","OBJECTID":58911},"geometry":{"x":171258.08999999985,"y":2540637.4400000013}},{"attributes":{"ID":58912,"DIS_CODE":0,"TOWNNAME":"東區","LI":"文聖里","LIN":"1鄰","STREET":"裕學路","SECT":" ","MAREA":" ","LANE":" ","ALLEY":" ","HOUSE_NO":"２５號","E_COORD97":171807.76999999999,"N_COORD97":2542820.7599999998,"ADDRESS":"裕學路２５號","OBJECTID":58912},"geometry":{"x":171807.76999999955,"y":2542820.7599999998}},{"attributes":{"ID":58913,"DIS_CODE":0,"TOWNNAME":"東區","LI":"文聖里","LIN":"1鄰","STREET":"裕農路","SECT":" ","MAREA":" ","LANE":"６６８巷","ALLEY":"７５弄","HOUSE_NO":"１５號","E_COORD97":171810.32999999999,"N_COORD97":2542807.9700000002,"ADDRESS":"裕農路６６８巷７５弄１５號","OBJECTID":58913},"geometry":{"x":171810.33000000101,"y":2542807.9700000044}},{"attributes":{"ID":58914,"DIS_CODE":0,"TOWNNAME":"東區","LI":"文聖里","LIN":"1鄰","STREET":"裕農路","SECT":" ","MAREA":" ","LANE":"６６８巷","ALLEY":"７５弄","HOUSE_NO":"１７號","E_COORD97":171810.78,"N_COORD97":2542802.9700000002,"ADDRESS":"裕農路６６８巷７５弄１７號","OBJECTID":58914},"geometry":{"x":171810.78000000119,"y":2542802.9700000007}},{"attributes":{"ID":58915,"DIS_CODE":0,"TOWNNAME":"東區","LI":"文聖里","LIN":"1鄰","STREET":"裕農路","SECT":" ","MAREA":" ","LANE":"６６８巷","ALLEY":"７５弄","HOUSE_NO":"１９號","E_COORD97":171811.89000000001,"N_COORD97":2542796.52,"ADDRESS":"裕農路６６８巷７５弄１９號","OBJECTID":58915},"geometry":{"x":171811.88999999966,"y":2542796.5200000033}},{"attributes":{"ID":58916,"DIS_CODE":0,"TOWNNAME":"東區","LI":"文聖里","LIN":"1鄰","STREET":"裕農路","SECT":" ","MAREA":" ","LANE":"６６８巷","ALLEY":"７５弄","HOUSE_NO":"１號","E_COORD97":171801.29000000001,"N_COORD97":2542870.8900000001,"ADDRESS":"裕農路６６８巷７５弄１號","OBJECTID":58916},"geometry":{"x":171801.29000000004,"y":2542870.8900000025}},{"attributes":{"ID":58917,"DIS_CODE":0,"TOWNNAME":"東區","LI":"文聖里","LIN":"1鄰","STREET":"裕農路","SECT":" ","MAREA":" ","LANE":"６６８巷","ALLEY":"７５弄","HOUSE_NO":"２０號","E_COORD97":171794.34,"N_COORD97":2542805.5499999998,"ADDRESS":"裕農路６６８巷７５弄２０號","OBJECTID":58917},"geometry":{"x":171794.33999999892,"y":2542805.5500000026}},{"attributes":{"ID":58918,"DIS_CODE":0,"TOWNNAME":"柳營區","LI":"神農里","LIN":"1鄰","STREET":" ","SECT":" ","MAREA":"果毅後","LANE":" ","ALLEY":" ","HOUSE_NO":"２３７號","E_COORD97":185454.70999999999,"N_COORD97":2572807.9500000002,"ADDRESS":"果毅後２３７號","OBJECTID":58918},"geometry":{"x":185454.70999999996,"y":2572807.9499999974}},{"attributes":{"ID":58919,"DIS_CODE":0,"TOWNNAME":"東區","LI":"文聖里","LIN":"1鄰","STREET":"裕農路","SECT":" ","MAREA":" ","LANE":"６６８巷","ALLEY":"７５弄","HOUSE_NO":"２１號","E_COORD97":171812.78,"N_COORD97":2542790.52,"ADDRESS":"裕農路６６８巷７５弄２１號","OBJECTID":58919},"geometry":{"x":171812.78000000119,"y":2542790.5200000014}},{"attributes":{"ID":58920,"DIS_CODE":0,"TOWNNAME":"東區","LI":"文聖里","LIN":"1鄰","STREET":"裕農路","SECT":" ","MAREA":" ","LANE":"６６８巷","ALLEY":"７５弄","HOUSE_NO":"２２號","E_COORD97":171794.78,"N_COORD97":2542798.2599999998,"ADDRESS":"裕農路６６８巷７５弄２２號","OBJECTID":58920},"geometry":{"x":171794.78000000026,"y":2542798.2600000035}},{"attributes":{"ID":58921,"DIS_CODE":0,"TOWNNAME":"東區","LI":"文聖里","LIN":"1鄰","STREET":"裕農路","SECT":" ","MAREA":" ","LANE":"６６８巷","ALLEY":"７５弄","HOUSE_NO":"２４號","E_COORD97":171795.44,"N_COORD97":2542792.75,"ADDRESS":"裕農路６６８巷７５弄２４號","OBJECTID":58921},"geometry":{"x":171795.44000000041,"y":2542792.7500000019}},{"attributes":{"ID":58922,"DIS_CODE":0,"TOWNNAME":"東區","LI":"文聖里","LIN":"1鄰","STREET":"裕農路","SECT":" ","MAREA":" ","LANE":"６６８巷","ALLEY":"７５弄","HOUSE_NO":"２６號","E_COORD97":171795.88,"N_COORD97":2542786.79,"ADDRESS":"裕農路６６８巷７５弄２６號","OBJECTID":58922},"geometry":{"x":171795.88000000175,"y":2542786.7899999991}},{"attributes":{"ID":58923,"DIS_CODE":0,"TOWNNAME":"東區","LI":"文聖里","LIN":"1鄰","STREET":"裕農路","SECT":" ","MAREA":" ","LANE":"６６８巷","ALLEY":"７５弄","HOUSE_NO":"３號","E_COORD97":171804.19,"N_COORD97":2542860.5499999998,"ADDRESS":"裕農路６６８巷７５弄３號","OBJECTID":58923},"geometry":{"x":171804.19000000041,"y":2542860.5500000007}},{"attributes":{"ID":58924,"DIS_CODE":0,"TOWNNAME":"東區","LI":"文聖里","LIN":"1鄰","STREET":"裕農路","SECT":" ","MAREA":" ","LANE":"６６８巷","ALLEY":"７５弄","HOUSE_NO":"５號","E_COORD97":171804.67999999999,"N_COORD97":2542854.9199999999,"ADDRESS":"裕農路６６８巷７５弄５號","OBJECTID":58924},"geometry":{"x":171804.68000000063,"y":2542854.9200000037}},{"attributes":{"ID":58925,"DIS_CODE":0,"TOWNNAME":"東區","LI":"文聖里","LIN":"1鄰","STREET":"裕農路","SECT":" ","MAREA":" ","LANE":"６６８巷","ALLEY":"７５弄","HOUSE_NO":"７號","E_COORD97":171805.41,"N_COORD97":2542848.7999999998,"ADDRESS":"裕農路６６８巷７５弄７號","OBJECTID":58925},"geometry":{"x":171805.41000000015,"y":2542848.8000000007}},{"attributes":{"ID":58926,"DIS_CODE":0,"TOWNNAME":"下營區","LI":"紅厝里","LIN":"8鄰","STREET":" ","SECT":" ","MAREA":"紅毛厝","LANE":" ","ALLEY":" ","HOUSE_NO":"６１號","E_COORD97":174967.98999999999,"N_COORD97":2571735.3300000001,"ADDRESS":"紅毛厝６１號","OBJECTID":58926},"geometry":{"x":174967.99000000115,"y":2571735.3300000019}},{"attributes":{"ID":58927,"DIS_CODE":0,"TOWNNAME":"柳營區","LI":"神農里","LIN":"1鄰","STREET":" ","SECT":" ","MAREA":"果毅後","LANE":" ","ALLEY":" ","HOUSE_NO":"２３８號","E_COORD97":185447.60000000001,"N_COORD97":2572832.75,"ADDRESS":"果毅後２３８號","OBJECTID":58927},"geometry":{"x":185447.60000000056,"y":2572832.75}},{"attributes":{"ID":58928,"DIS_CODE":0,"TOWNNAME":"柳營區","LI":"神農里","LIN":"1鄰","STREET":" ","SECT":" ","MAREA":"果毅後","LANE":" ","ALLEY":" ","HOUSE_NO":"２４０號之１","E_COORD97":185424.51000000001,"N_COORD97":2572840.1600000001,"ADDRESS":"果毅後２４０號之１","OBJECTID":58928},"geometry":{"x":185424.51000000071,"y":2572840.1600000001}},{"attributes":{"ID":58929,"DIS_CODE":0,"TOWNNAME":"柳營區","LI":"神農里","LIN":"1鄰","STREET":" ","SECT":" ","MAREA":"果毅後","LANE":" ","ALLEY":" ","HOUSE_NO":"２４０號之２","E_COORD97":185428.79999999999,"N_COORD97":2572838.1899999999,"ADDRESS":"果毅後２４０號之２","OBJECTID":58929},"geometry":{"x":185428.79999999981,"y":2572838.1900000013}},{"attributes":{"ID":58930,"DIS_CODE":0,"TOWNNAME":"柳營區","LI":"神農里","LIN":"1鄰","STREET":" ","SECT":" ","MAREA":"果毅後","LANE":" ","ALLEY":" ","HOUSE_NO":"２４０號之３","E_COORD97":185433.07999999999,"N_COORD97":2572836.2200000002,"ADDRESS":"果毅後２４０號之３","OBJECTID":58930},"geometry":{"x":185433.08000000101,"y":2572836.2200000025}},{"attributes":{"ID":58931,"DIS_CODE":0,"TOWNNAME":"柳營區","LI":"神農里","LIN":"1鄰","STREET":" ","SECT":" ","MAREA":"果毅後","LANE":" ","ALLEY":" ","HOUSE_NO":"２４０號之４","E_COORD97":185437.35999999999,"N_COORD97":2572834.2400000002,"ADDRESS":"果毅後２４０號之４","OBJECTID":58931},"geometry":{"x":185437.36000000034,"y":2572834.2400000039}},{"attributes":{"ID":58932,"DIS_CODE":0,"TOWNNAME":"柳營區","LI":"神農里","LIN":"1鄰","STREET":" ","SECT":" ","MAREA":"果毅後","LANE":" ","ALLEY":" ","HOUSE_NO":"２４０號","E_COORD97":185423.67999999999,"N_COORD97":2572826.1099999999,"ADDRESS":"果毅後２４０號","OBJECTID":58932},"geometry":{"x":185423.68000000063,"y":2572826.1099999994}},{"attributes":{"ID":58933,"DIS_CODE":0,"TOWNNAME":"柳營區","LI":"神農里","LIN":"1鄰","STREET":" ","SECT":" ","MAREA":"果毅後","LANE":" ","ALLEY":" ","HOUSE_NO":"２４１號","E_COORD97":185411.17000000001,"N_COORD97":2572807.3399999999,"ADDRESS":"果毅後２４１號","OBJECTID":58933},"geometry":{"x":185411.16999999993,"y":2572807.3400000017}},{"attributes":{"ID":58934,"DIS_CODE":0,"TOWNNAME":"柳營區","LI":"神農里","LIN":"1鄰","STREET":" ","SECT":" ","MAREA":"果毅後","LANE":" ","ALLEY":" ","HOUSE_NO":"２４２號","E_COORD97":185411.79000000001,"N_COORD97":2572784.2200000002,"ADDRESS":"果毅後２４２號","OBJECTID":58934},"geometry":{"x":185411.79000000004,"y":2572784.2200000044}},{"attributes":{"ID":58935,"DIS_CODE":0,"TOWNNAME":"柳營區","LI":"神農里","LIN":"1鄰","STREET":" ","SECT":" ","MAREA":"果毅後","LANE":" ","ALLEY":" ","HOUSE_NO":"２４８號","E_COORD97":185399.04000000001,"N_COORD97":2572847.8399999999,"ADDRESS":"果毅後２４８號","OBJECTID":58935},"geometry":{"x":185399.04000000097,"y":2572847.8400000017}},{"attributes":{"ID":58936,"DIS_CODE":0,"TOWNNAME":"柳營區","LI":"神農里","LIN":"1鄰","STREET":" ","SECT":" ","MAREA":"果毅後","LANE":" ","ALLEY":" ","HOUSE_NO":"２５０之１號","E_COORD97":185377.59,"N_COORD97":2572851.5600000001,"ADDRESS":"果毅後２５０之１號","OBJECTID":58936},"geometry":{"x":185377.58999999985,"y":2572851.5600000005}},{"attributes":{"ID":58937,"DIS_CODE":0,"TOWNNAME":"柳營區","LI":"神農里","LIN":"1鄰","STREET":" ","SECT":" ","MAREA":"果毅後","LANE":" ","ALLEY":" ","HOUSE_NO":"２５０號","E_COORD97":185384.06,"N_COORD97":2572838.46,"ADDRESS":"果毅後２５０號","OBJECTID":58937},"geometry":{"x":185384.05999999959,"y":2572838.4600000028}},{"attributes":{"ID":58938,"DIS_CODE":0,"TOWNNAME":"柳營區","LI":"神農里","LIN":"1鄰","STREET":" ","SECT":" ","MAREA":"果毅後","LANE":" ","ALLEY":" ","HOUSE_NO":"２５１號之１","E_COORD97":185377.29000000001,"N_COORD97":2572802.2400000002,"ADDRESS":"果毅後２５１號之１","OBJECTID":58938},"geometry":{"x":185377.29000000097,"y":2572802.2400000002}},{"attributes":{"ID":58939,"DIS_CODE":0,"TOWNNAME":"柳營區","LI":"神農里","LIN":"1鄰","STREET":" ","SECT":" ","MAREA":"果毅後","LANE":" ","ALLEY":" ","HOUSE_NO":"２５１號","E_COORD97":185383.73999999999,"N_COORD97":2572813,"ADDRESS":"果毅後２５１號","OBJECTID":58939},"geometry":{"x":185383.74000000022,"y":2572813.0000000019}},{"attributes":{"ID":58940,"DIS_CODE":0,"TOWNNAME":"柳營區","LI":"果毅里","LIN":"1鄰","STREET":" ","SECT":" ","MAREA":"果毅後","LANE":" ","ALLEY":" ","HOUSE_NO":"２號","E_COORD97":186375.34,"N_COORD97":2573771.46,"ADDRESS":"果毅後２號","OBJECTID":58940},"geometry":{"x":186375.34000000078,"y":2573771.4600000009}},{"attributes":{"ID":58941,"DIS_CODE":0,"TOWNNAME":"玉井區","LI":"沙田里","LIN":"1鄰","STREET":" ","SECT":" ","MAREA":"沙田","LANE":" ","ALLEY":" ","HOUSE_NO":"５號","E_COORD97":195440.42000000001,"N_COORD97":2557247.2799999998,"ADDRESS":"沙田５號","OBJECTID":58941},"geometry":{"x":195440.42000000086,"y":2557247.2799999975}},{"attributes":{"ID":58942,"DIS_CODE":0,"TOWNNAME":"玉井區","LI":"豐里里","LIN":"1鄰","STREET":" ","SECT":" ","MAREA":"豐里","LANE":" ","ALLEY":" ","HOUSE_NO":"３之２號","E_COORD97":193206.20999999999,"N_COORD97":2557997.29,"ADDRESS":"豐里３之２號","OBJECTID":58942},"geometry":{"x":193206.21000000089,"y":2557997.290000001}},{"attributes":{"ID":58943,"DIS_CODE":0,"TOWNNAME":"玉井區","LI":"三和里","LIN":"1鄰","STREET":" ","SECT":" ","MAREA":"三和","LANE":" ","ALLEY":" ","HOUSE_NO":"７之３２號","E_COORD97":194355.42999999999,"N_COORD97":2556949.29,"ADDRESS":"三和７之３２號","OBJECTID":58943},"geometry":{"x":194355.43000000063,"y":2556949.290000001}},{"attributes":{"ID":58944,"DIS_CODE":0,"TOWNNAME":"玉井區","LI":"三和里","LIN":"1鄰","STREET":" ","SECT":" ","MAREA":"三和","LANE":" ","ALLEY":" ","HOUSE_NO":"７之２８號","E_COORD97":194355.73000000001,"N_COORD97":2556967.29,"ADDRESS":"三和７之２８號","OBJECTID":58944},"geometry":{"x":194355.73000000138,"y":2556967.290000001}},{"attributes":{"ID":58945,"DIS_CODE":0,"TOWNNAME":"玉井區","LI":"三和里","LIN":"1鄰","STREET":" ","SECT":" ","MAREA":"三和","LANE":" ","ALLEY":" ","HOUSE_NO":"７之４９號","E_COORD97":194329.04000000001,"N_COORD97":2556898.2999999998,"ADDRESS":"三和７之４９號","OBJECTID":58945},"geometry":{"x":194329.03999999911,"y":2556898.3000000007}},{"attributes":{"ID":58946,"DIS_CODE":0,"TOWNNAME":"玉井區","LI":"三和里","LIN":"1鄰","STREET":" ","SECT":" ","MAREA":"三和","LANE":" ","ALLEY":" ","HOUSE_NO":"７之５０號","E_COORD97":194327.34,"N_COORD97":2556896.2999999998,"ADDRESS":"三和７之５０號","OBJECTID":58946},"geometry":{"x":194327.34000000078,"y":2556896.3000000045}},{"attributes":{"ID":58947,"DIS_CODE":0,"TOWNNAME":"玉井區","LI":"三埔里","LIN":"1鄰","STREET":" ","SECT":" ","MAREA":"三埔","LANE":" ","ALLEY":" ","HOUSE_NO":"８號","E_COORD97":197096.17999999999,"N_COORD97":2555604.2400000002,"ADDRESS":"三埔８號","OBJECTID":58947},"geometry":{"x":197096.18000000156,"y":2555604.2399999984}},{"attributes":{"ID":58948,"DIS_CODE":0,"TOWNNAME":"玉井區","LI":"三和里","LIN":"1鄰","STREET":" ","SECT":" ","MAREA":"三和","LANE":" ","ALLEY":" ","HOUSE_NO":"７之３８號","E_COORD97":194349.84,"N_COORD97":2556925.29,"ADDRESS":"三和７之３８號","OBJECTID":58948},"geometry":{"x":194349.83999999985,"y":2556925.2900000028}},{"attributes":{"ID":58949,"DIS_CODE":0,"TOWNNAME":"玉井區","LI":"三和里","LIN":"1鄰","STREET":" ","SECT":" ","MAREA":"三和","LANE":" ","ALLEY":" ","HOUSE_NO":"７之３９號","E_COORD97":194348.04000000001,"N_COORD97":2556921.29,"ADDRESS":"三和７之３９號","OBJECTID":58949},"geometry":{"x":194348.04000000097,"y":2556921.2899999991}},{"attributes":{"ID":58950,"DIS_CODE":0,"TOWNNAME":"玉井區","LI":"三和里","LIN":"1鄰","STREET":" ","SECT":" ","MAREA":"三和","LANE":" ","ALLEY":" ","HOUSE_NO":"１６號","E_COORD97":194672.42999999999,"N_COORD97":2556975.25,"ADDRESS":"三和１６號","OBJECTID":58950},"geometry":{"x":194672.43000000063,"y":2556975.2500000019}},{"attributes":{"ID":58951,"DIS_CODE":0,"TOWNNAME":"玉井區","LI":"三和里","LIN":"1鄰","STREET":" ","SECT":" ","MAREA":"三和","LANE":" ","ALLEY":" ","HOUSE_NO":"７之２５號","E_COORD97":194355.14000000001,"N_COORD97":2556978.2999999998,"ADDRESS":"三和７之２５號","OBJECTID":58951},"geometry":{"x":194355.13999999873,"y":2556978.3000000026}},{"attributes":{"ID":58952,"DIS_CODE":0,"TOWNNAME":"東區","LI":"文聖里","LIN":"1鄰","STREET":"裕農路","SECT":" ","MAREA":" ","LANE":"６６８巷","ALLEY":"７５弄","HOUSE_NO":"９號","E_COORD97":171806.14999999999,"N_COORD97":2542842.9199999999,"ADDRESS":"裕農路６６８巷７５弄９號","OBJECTID":58952},"geometry":{"x":171806.15000000037,"y":2542842.9200000018}},{"attributes":{"ID":58953,"DIS_CODE":0,"TOWNNAME":"玉井區","LI":"三和里","LIN":"1鄰","STREET":" ","SECT":" ","MAREA":"三和","LANE":" ","ALLEY":" ","HOUSE_NO":"７之５號","E_COORD97":194436.88,"N_COORD97":2557095.2999999998,"ADDRESS":"三和７之５號","OBJECTID":58953},"geometry":{"x":194436.88000000175,"y":2557095.3000000007}},{"attributes":{"ID":58954,"DIS_CODE":0,"TOWNNAME":"玉井區","LI":"三和里","LIN":"1鄰","STREET":" ","SECT":" ","MAREA":"三和","LANE":" ","ALLEY":" ","HOUSE_NO":"１８號","E_COORD97":194658.92999999999,"N_COORD97":2556963.2400000002,"ADDRESS":"三和１８號","OBJECTID":58954},"geometry":{"x":194658.93000000063,"y":2556963.2400000002}},{"attributes":{"ID":58955,"DIS_CODE":0,"TOWNNAME":"東區","LI":"文聖里","LIN":"1鄰","STREET":"裕農路","SECT":" ","MAREA":" ","LANE":"６６８巷","ALLEY":"７５弄","HOUSE_NO":"２３號","E_COORD97":171814.62,"N_COORD97":2542783.2999999998,"ADDRESS":"裕農路６６８巷７５弄２３號","OBJECTID":58955},"geometry":{"x":171814.62000000011,"y":2542783.3000000026}},{"attributes":{"ID":58956,"DIS_CODE":0,"TOWNNAME":"永康區","LI":"西勢里","LIN":"1鄰","STREET":"富強路","SECT":"二段","MAREA":" ","LANE":"１９巷","ALLEY":"１４弄","HOUSE_NO":"７號","E_COORD97":175628.45000000001,"N_COORD97":2546893.3500000001,"ADDRESS":"富強路二段１９巷１４弄７號","OBJECTID":58956},"geometry":{"x":175628.45000000019,"y":2546893.3500000034}},{"attributes":{"ID":58957,"DIS_CODE":0,"TOWNNAME":"玉井區","LI":"三和里","LIN":"1鄰","STREET":" ","SECT":" ","MAREA":"三和","LANE":" ","ALLEY":" ","HOUSE_NO":"７之５３號","E_COORD97":194320.92999999999,"N_COORD97":2556891.2999999998,"ADDRESS":"三和７之５３號","OBJECTID":58957},"geometry":{"x":194320.9299999997,"y":2556891.3000000007}},{"attributes":{"ID":58958,"DIS_CODE":0,"TOWNNAME":"玉井區","LI":"三和里","LIN":"1鄰","STREET":" ","SECT":" ","MAREA":"三和","LANE":" ","ALLEY":" ","HOUSE_NO":"７之４７號","E_COORD97":194332.84,"N_COORD97":2556901.2999999998,"ADDRESS":"三和７之４７號","OBJECTID":58958},"geometry":{"x":194332.84000000078,"y":2556901.3000000026}},{"attributes":{"ID":58959,"DIS_CODE":0,"TOWNNAME":"玉井區","LI":"三和里","LIN":"1鄰","STREET":" ","SECT":" ","MAREA":"三和","LANE":" ","ALLEY":" ","HOUSE_NO":"７之３７號","E_COORD97":194351.32999999999,"N_COORD97":2556929.29,"ADDRESS":"三和７之３７號","OBJECTID":58959},"geometry":{"x":194351.33000000101,"y":2556929.290000001}},{"attributes":{"ID":58960,"DIS_CODE":0,"TOWNNAME":"玉井區","LI":"三埔里","LIN":"1鄰","STREET":" ","SECT":" ","MAREA":"三埔","LANE":" ","ALLEY":" ","HOUSE_NO":"１１號","E_COORD97":197090.54000000001,"N_COORD97":2555570.2400000002,"ADDRESS":"三埔１１號","OBJECTID":58960},"geometry":{"x":197090.53999999911,"y":2555570.2399999984}},{"attributes":{"ID":58961,"DIS_CODE":0,"TOWNNAME":"玉井區","LI":"三埔里","LIN":"1鄰","STREET":" ","SECT":" ","MAREA":"三埔","LANE":" ","ALLEY":" ","HOUSE_NO":"１０號","E_COORD97":197114.13,"N_COORD97":2555604.2400000002,"ADDRESS":"三埔１０號","OBJECTID":58961},"geometry":{"x":197114.13000000082,"y":2555604.2399999984}},{"attributes":{"ID":58962,"DIS_CODE":0,"TOWNNAME":"永康區","LI":"甲頂里","LIN":"1鄰","STREET":"南台街","SECT":" ","MAREA":" ","LANE":"１３５巷","ALLEY":"３弄","HOUSE_NO":"２５號","E_COORD97":170117.88,"N_COORD97":2546967.8900000001,"ADDRESS":"南台街１３５巷３弄２５號","OBJECTID":58962},"geometry":{"x":170117.88000000082,"y":2546967.8900000006}},{"attributes":{"ID":58963,"DIS_CODE":0,"TOWNNAME":"玉井區","LI":"三埔里","LIN":"1鄰","STREET":" ","SECT":" ","MAREA":"三埔","LANE":" ","ALLEY":" ","HOUSE_NO":"１５之１號","E_COORD97":197057.92999999999,"N_COORD97":2555546.2999999998,"ADDRESS":"三埔１５之１號","OBJECTID":58963},"geometry":{"x":197057.93000000063,"y":2555546.3000000007}},{"attributes":{"ID":58964,"DIS_CODE":0,"TOWNNAME":"玉井區","LI":"三和里","LIN":"1鄰","STREET":" ","SECT":" ","MAREA":"三和","LANE":" ","ALLEY":" ","HOUSE_NO":"７之６６號","E_COORD97":194293.64000000001,"N_COORD97":2556875.2999999998,"ADDRESS":"三和７之６６號","OBJECTID":58964},"geometry":{"x":194293.63999999966,"y":2556875.3000000007}},{"attributes":{"ID":58965,"DIS_CODE":0,"TOWNNAME":"玉井區","LI":"三和里","LIN":"1鄰","STREET":" ","SECT":" ","MAREA":"三和","LANE":" ","ALLEY":" ","HOUSE_NO":"７之４０號","E_COORD97":194346.44,"N_COORD97":2556918.29,"ADDRESS":"三和７之４０號","OBJECTID":58965},"geometry":{"x":194346.44000000041,"y":2556918.2900000028}},{"attributes":{"ID":58966,"DIS_CODE":0,"TOWNNAME":"玉井區","LI":"三和里","LIN":"1鄰","STREET":" ","SECT":" ","MAREA":"三和","LANE":" ","ALLEY":" ","HOUSE_NO":"７之３０號","E_COORD97":194356.04000000001,"N_COORD97":2556960.29,"ADDRESS":"三和７之３０號","OBJECTID":58966},"geometry":{"x":194356.04000000004,"y":2556960.290000001}},{"attributes":{"ID":58967,"DIS_CODE":0,"TOWNNAME":"玉井區","LI":"三和里","LIN":"1鄰","STREET":" ","SECT":" ","MAREA":"三和","LANE":" ","ALLEY":" ","HOUSE_NO":"１５之１號","E_COORD97":195658.04000000001,"N_COORD97":2555287.29,"ADDRESS":"三和１５之１號","OBJECTID":58967},"geometry":{"x":195658.04000000004,"y":2555287.2899999991}},{"attributes":{"ID":58968,"DIS_CODE":0,"TOWNNAME":"玉井區","LI":"三和里","LIN":"1鄰","STREET":" ","SECT":" ","MAREA":"三和","LANE":" ","ALLEY":" ","HOUSE_NO":"７之４８號","E_COORD97":194331.13,"N_COORD97":2556899.2999999998,"ADDRESS":"三和７之４８號","OBJECTID":58968},"geometry":{"x":194331.12999999989,"y":2556899.3000000007}},{"attributes":{"ID":58969,"DIS_CODE":0,"TOWNNAME":"玉井區","LI":"三和里","LIN":"1鄰","STREET":" ","SECT":" ","MAREA":"三和","LANE":" ","ALLEY":" ","HOUSE_NO":"７之２６號","E_COORD97":194355.42999999999,"N_COORD97":2556975.2999999998,"ADDRESS":"三和７之２６號","OBJECTID":58969},"geometry":{"x":194355.43000000063,"y":2556975.3000000026}},{"attributes":{"ID":58970,"DIS_CODE":0,"TOWNNAME":"玉井區","LI":"三和里","LIN":"1鄰","STREET":" ","SECT":" ","MAREA":"三和","LANE":" ","ALLEY":" ","HOUSE_NO":"７之４３號","E_COORD97":194339.84,"N_COORD97":2556908.2999999998,"ADDRESS":"三和７之４３號","OBJECTID":58970},"geometry":{"x":194339.83999999985,"y":2556908.3000000007}},{"attributes":{"ID":58971,"DIS_CODE":0,"TOWNNAME":"玉井區","LI":"三和里","LIN":"1鄰","STREET":" ","SECT":" ","MAREA":"三和","LANE":" ","ALLEY":" ","HOUSE_NO":"１０之３號","E_COORD97":194616.73000000001,"N_COORD97":2557131.29,"ADDRESS":"三和１０之３號","OBJECTID":58971},"geometry":{"x":194616.73000000138,"y":2557131.2899999991}},{"attributes":{"ID":58972,"DIS_CODE":0,"TOWNNAME":"玉井區","LI":"三和里","LIN":"1鄰","STREET":" ","SECT":" ","MAREA":"三和","LANE":" ","ALLEY":" ","HOUSE_NO":"１３號之６","E_COORD97":194678.97,"N_COORD97":2557041.29,"ADDRESS":"三和１３號之６","OBJECTID":58972},"geometry":{"x":194678.97000000067,"y":2557041.290000001}},{"attributes":{"ID":58973,"DIS_CODE":0,"TOWNNAME":"玉井區","LI":"三和里","LIN":"1鄰","STREET":" ","SECT":" ","MAREA":"三和","LANE":" ","ALLEY":" ","HOUSE_NO":"１０號之１","E_COORD97":194624.26999999999,"N_COORD97":2557115.2999999998,"ADDRESS":"三和１０號之１","OBJECTID":58973},"geometry":{"x":194624.27000000048,"y":2557115.3000000007}},{"attributes":{"ID":58974,"DIS_CODE":0,"TOWNNAME":"玉井區","LI":"三和里","LIN":"1鄰","STREET":" ","SECT":" ","MAREA":"三和","LANE":" ","ALLEY":" ","HOUSE_NO":"１７之２號","E_COORD97":194621.54000000001,"N_COORD97":2557015.2999999998,"ADDRESS":"三和１７之２號","OBJECTID":58974},"geometry":{"x":194621.54000000097,"y":2557015.3000000026}},{"attributes":{"ID":58975,"DIS_CODE":0,"TOWNNAME":"東山區","LI":"南溪里","LIN":"1鄰","STREET":" ","SECT":" ","MAREA":"二重溪","LANE":" ","ALLEY":" ","HOUSE_NO":"１０號之８","E_COORD97":189073.29999999999,"N_COORD97":2575392.46,"ADDRESS":"二重溪１０號之８","OBJECTID":58975},"geometry":{"x":189073.29999999981,"y":2575392.4600000009}},{"attributes":{"ID":58976,"DIS_CODE":0,"TOWNNAME":"東山區","LI":"南溪里","LIN":"1鄰","STREET":" ","SECT":" ","MAREA":"二重溪","LANE":" ","ALLEY":" ","HOUSE_NO":"１０號之９","E_COORD97":189090.32999999999,"N_COORD97":2575416.3300000001,"ADDRESS":"二重溪１０號之９","OBJECTID":58976},"geometry":{"x":189090.33000000007,"y":2575416.3300000001}},{"attributes":{"ID":58977,"DIS_CODE":0,"TOWNNAME":"東山區","LI":"南溪里","LIN":"1鄰","STREET":" ","SECT":" ","MAREA":"二重溪","LANE":" ","ALLEY":" ","HOUSE_NO":"１號","E_COORD97":189242.17000000001,"N_COORD97":2575512.8100000001,"ADDRESS":"二重溪１號","OBJECTID":58977},"geometry":{"x":189242.16999999993,"y":2575512.8100000024}},{"attributes":{"ID":58978,"DIS_CODE":0,"TOWNNAME":"東山區","LI":"南溪里","LIN":"1鄰","STREET":" ","SECT":" ","MAREA":"二重溪","LANE":" ","ALLEY":" ","HOUSE_NO":"６號之１","E_COORD97":189118.95000000001,"N_COORD97":2575476.02,"ADDRESS":"二重溪６號之１","OBJECTID":58978},"geometry":{"x":189118.95000000205,"y":2575476.0199999977}},{"attributes":{"ID":58979,"DIS_CODE":0,"TOWNNAME":"東山區","LI":"南溪里","LIN":"1鄰","STREET":" ","SECT":" ","MAREA":"二重溪","LANE":" ","ALLEY":" ","HOUSE_NO":"６號之２","E_COORD97":189106.07999999999,"N_COORD97":2575493.8599999999,"ADDRESS":"二重溪６號之２","OBJECTID":58979},"geometry":{"x":189106.08000000194,"y":2575493.8599999975}},{"attributes":{"ID":58980,"DIS_CODE":0,"TOWNNAME":"東山區","LI":"南溪里","LIN":"1鄰","STREET":" ","SECT":" ","MAREA":"二重溪","LANE":" ","ALLEY":" ","HOUSE_NO":"６號之３","E_COORD97":189081.39000000001,"N_COORD97":2575820.7400000002,"ADDRESS":"二重溪６號之３","OBJECTID":58980},"geometry":{"x":189081.38999999873,"y":2575820.7400000002}},{"attributes":{"ID":58981,"DIS_CODE":0,"TOWNNAME":"東山區","LI":"南溪里","LIN":"1鄰","STREET":" ","SECT":" ","MAREA":"二重溪","LANE":" ","ALLEY":" ","HOUSE_NO":"６號","E_COORD97":189098.31,"N_COORD97":2575465.6499999999,"ADDRESS":"二重溪６號","OBJECTID":58981},"geometry":{"x":189098.30999999959,"y":2575465.6500000004}},{"attributes":{"ID":58982,"DIS_CODE":0,"TOWNNAME":"東山區","LI":"南溪里","LIN":"1鄰","STREET":" ","SECT":" ","MAREA":"二重溪","LANE":" ","ALLEY":" ","HOUSE_NO":"７號","E_COORD97":189078.09,"N_COORD97":2575490.2000000002,"ADDRESS":"二重溪７號","OBJECTID":58982},"geometry":{"x":189078.08999999985,"y":2575490.1999999993}},{"attributes":{"ID":58983,"DIS_CODE":0,"TOWNNAME":"麻豆區","LI":"安東里","LIN":"1鄰","STREET":" ","SECT":" ","MAREA":"安業","LANE":" ","ALLEY":" ","HOUSE_NO":"１５號之１６","E_COORD97":172943.70000000001,"N_COORD97":2562997.7400000002,"ADDRESS":"安業１５號之１６","OBJECTID":58983},"geometry":{"x":172943.70000000112,"y":2562997.7400000002}},{"attributes":{"ID":58984,"DIS_CODE":0,"TOWNNAME":"麻豆區","LI":"安東里","LIN":"1鄰","STREET":" ","SECT":" ","MAREA":"安業","LANE":" ","ALLEY":" ","HOUSE_NO":"１５號之１７","E_COORD97":172942.19,"N_COORD97":2563001.29,"ADDRESS":"安業１５號之１７","OBJECTID":58984},"geometry":{"x":172942.19000000134,"y":2563001.290000001}},{"attributes":{"ID":58985,"DIS_CODE":0,"TOWNNAME":"麻豆區","LI":"安東里","LIN":"1鄰","STREET":" ","SECT":" ","MAREA":"安業","LANE":" ","ALLEY":" ","HOUSE_NO":"１５號之１８","E_COORD97":172941.17999999999,"N_COORD97":2563005.27,"ADDRESS":"安業１５號之１８","OBJECTID":58985},"geometry":{"x":172941.1799999997,"y":2563005.2700000014}},{"attributes":{"ID":58986,"DIS_CODE":0,"TOWNNAME":"麻豆區","LI":"安東里","LIN":"1鄰","STREET":" ","SECT":" ","MAREA":"安業","LANE":" ","ALLEY":" ","HOUSE_NO":"１５號之１９","E_COORD97":172940.23000000001,"N_COORD97":2563009.75,"ADDRESS":"安業１５號之１９","OBJECTID":58986},"geometry":{"x":172940.23000000231,"y":2563009.7500000019}},{"attributes":{"ID":58987,"DIS_CODE":0,"TOWNNAME":"麻豆區","LI":"安東里","LIN":"1鄰","STREET":" ","SECT":" ","MAREA":"安業","LANE":" ","ALLEY":" ","HOUSE_NO":"１５號之１","E_COORD97":173020.13,"N_COORD97":2563013.5499999998,"ADDRESS":"安業１５號之１","OBJECTID":58987},"geometry":{"x":173020.13000000082,"y":2563013.5500000007}},{"attributes":{"ID":58988,"DIS_CODE":0,"TOWNNAME":"麻豆區","LI":"安東里","LIN":"1鄰","STREET":" ","SECT":" ","MAREA":"安業","LANE":" ","ALLEY":" ","HOUSE_NO":"１５號之２０","E_COORD97":172939.23000000001,"N_COORD97":2563013.8300000001,"ADDRESS":"安業１５號之２０","OBJECTID":58988},"geometry":{"x":172939.23000000138,"y":2563013.8300000001}},{"attributes":{"ID":58989,"DIS_CODE":0,"TOWNNAME":"麻豆區","LI":"安東里","LIN":"1鄰","STREET":" ","SECT":" ","MAREA":"安業","LANE":" ","ALLEY":" ","HOUSE_NO":"１５號之２１","E_COORD97":172937.57999999999,"N_COORD97":2563018.2400000002,"ADDRESS":"安業１５號之２１","OBJECTID":58989},"geometry":{"x":172937.58000000101,"y":2563018.2400000002}},{"attributes":{"ID":58990,"DIS_CODE":0,"TOWNNAME":"麻豆區","LI":"安東里","LIN":"1鄰","STREET":" ","SECT":" ","MAREA":"安業","LANE":" ","ALLEY":" ","HOUSE_NO":"１５號之２２","E_COORD97":172936.92999999999,"N_COORD97":2563022.1299999999,"ADDRESS":"安業１５號之２２","OBJECTID":58990},"geometry":{"x":172936.93000000063,"y":2563022.1300000027}},{"attributes":{"ID":58991,"DIS_CODE":0,"TOWNNAME":"麻豆區","LI":"安東里","LIN":"1鄰","STREET":" ","SECT":" ","MAREA":"安業","LANE":" ","ALLEY":" ","HOUSE_NO":"１５號之２３","E_COORD97":172935.84,"N_COORD97":2563025.8700000001,"ADDRESS":"安業１５號之２３","OBJECTID":58991},"geometry":{"x":172935.84000000078,"y":2563025.8700000048}},{"attributes":{"ID":58992,"DIS_CODE":0,"TOWNNAME":"麻豆區","LI":"安東里","LIN":"1鄰","STREET":" ","SECT":" ","MAREA":"安業","LANE":" ","ALLEY":" ","HOUSE_NO":"１５號之２４","E_COORD97":172934.35000000001,"N_COORD97":2563029.9900000002,"ADDRESS":"安業１５號之２４","OBJECTID":58992},"geometry":{"x":172934.34999999963,"y":2563029.9900000002}},{"attributes":{"ID":58993,"DIS_CODE":0,"TOWNNAME":"麻豆區","LI":"安東里","LIN":"1鄰","STREET":" ","SECT":" ","MAREA":"安業","LANE":" ","ALLEY":" ","HOUSE_NO":"１５號之２５","E_COORD97":172933.19,"N_COORD97":2563034.27,"ADDRESS":"安業１５號之２５","OBJECTID":58993},"geometry":{"x":172933.19000000041,"y":2563034.2699999996}},{"attributes":{"ID":58994,"DIS_CODE":0,"TOWNNAME":"麻豆區","LI":"安東里","LIN":"1鄰","STREET":" ","SECT":" ","MAREA":"安業","LANE":" ","ALLEY":" ","HOUSE_NO":"１５號之２６","E_COORD97":172932.04999999999,"N_COORD97":2563038.6699999999,"ADDRESS":"安業１５號之２６","OBJECTID":58994},"geometry":{"x":172932.04999999888,"y":2563038.6699999999}},{"attributes":{"ID":58995,"DIS_CODE":0,"TOWNNAME":"麻豆區","LI":"安東里","LIN":"1鄰","STREET":" ","SECT":" ","MAREA":"安業","LANE":" ","ALLEY":" ","HOUSE_NO":"１５號之２７","E_COORD97":172931.06,"N_COORD97":2563042.52,"ADDRESS":"安業１５號之２７","OBJECTID":58995},"geometry":{"x":172931.05999999959,"y":2563042.5199999996}},{"attributes":{"ID":58996,"DIS_CODE":0,"TOWNNAME":"麻豆區","LI":"安東里","LIN":"1鄰","STREET":" ","SECT":" ","MAREA":"安業","LANE":" ","ALLEY":" ","HOUSE_NO":"１５號之２８","E_COORD97":172929.87,"N_COORD97":2563046.5800000001,"ADDRESS":"安業１５號之２８","OBJECTID":58996},"geometry":{"x":172929.87000000011,"y":2563046.5800000001}},{"attributes":{"ID":58997,"DIS_CODE":0,"TOWNNAME":"麻豆區","LI":"安東里","LIN":"1鄰","STREET":" ","SECT":" ","MAREA":"安業","LANE":" ","ALLEY":" ","HOUSE_NO":"１５號之２９","E_COORD97":172928.35999999999,"N_COORD97":2563050.48,"ADDRESS":"安業１５號之２９","OBJECTID":58997},"geometry":{"x":172928.36000000034,"y":2563050.4800000004}},{"attributes":{"ID":58998,"DIS_CODE":0,"TOWNNAME":"七股區","LI":"頂山里","LIN":"6鄰","STREET":" ","SECT":" ","MAREA":"頂山","LANE":" ","ALLEY":" ","HOUSE_NO":"５７號","E_COORD97":159006.14000000001,"N_COORD97":2564506.2400000002,"ADDRESS":"頂山５７號","OBJECTID":58998},"geometry":{"x":159006.1400000006,"y":2564506.2400000002}},{"attributes":{"ID":58999,"DIS_CODE":0,"TOWNNAME":"麻豆區","LI":"安東里","LIN":"1鄰","STREET":" ","SECT":" ","MAREA":"安業","LANE":" ","ALLEY":" ","HOUSE_NO":"１５號之３０","E_COORD97":172926.85999999999,"N_COORD97":2563054.3700000001,"ADDRESS":"安業１５號之３０","OBJECTID":58999},"geometry":{"x":172926.86000000034,"y":2563054.3700000029}},{"attributes":{"ID":59000,"DIS_CODE":0,"TOWNNAME":"麻豆區","LI":"安東里","LIN":"1鄰","STREET":" ","SECT":" ","MAREA":"安業","LANE":" ","ALLEY":" ","HOUSE_NO":"１５號之３１","E_COORD97":172926.04000000001,"N_COORD97":2563058.5600000001,"ADDRESS":"安業１５號之３１","OBJECTID":59000},"geometry":{"x":172926.04000000097,"y":2563058.5600000024}}]}