{"displayFieldName":"TOWNNAME","fieldAliases":{"ID":"ID","DIS_CODE":"DIS_CODE","TOWNNAME":"TOWNNAME","LI":"LI","LIN":"LIN","STREET":"STREET","SECT":"SECT","MAREA":"MAREA","LANE":"LANE","ALLEY":"ALLEY","HOUSE_NO":"HOUSE_NO","E_COORD97":"E_COORD97","N_COORD97":"N_COORD97","ADDRESS":"ADDRESS","OBJECTID":"OBJECTID"},"geometryType":"esriGeometryPoint","spatialReference":{"wkid":102443,"latestWkid":3826},"fields":[{"name":"ID","type":"esriFieldTypeDouble","alias":"ID"},{"name":"DIS_CODE","type":"esriFieldTypeInteger","alias":"DIS_CODE"},{"name":"TOWNNAME","type":"esriFieldTypeString","alias":"TOWNNAME","length":8},{"name":"LI","type":"esriFieldTypeString","alias":"LI","length":8},{"name":"LIN","type":"esriFieldTypeString","alias":"LIN","length":12},{"name":"STREET","type":"esriFieldTypeString","alias":"STREET","length":20},{"name":"SECT","type":"esriFieldTypeString","alias":"SECT","length":8},{"name":"MAREA","type":"esriFieldTypeString","alias":"MAREA","length":12},{"name":"LANE","type":"esriFieldTypeString","alias":"LANE","length":10},{"name":"ALLEY","type":"esriFieldTypeString","alias":"ALLEY","length":10},{"name":"HOUSE_NO","type":"esriFieldTypeString","alias":"HOUSE_NO","length":20},{"name":"E_COORD97","type":"esriFieldTypeDouble","alias":"E_COORD97"},{"name":"N_COORD97","type":"esriFieldTypeDouble","alias":"N_COORD97"},{"name":"ADDRESS","type":"esriFieldTypeString","alias":"ADDRESS","length":50},{"name":"OBJECTID","type":"esriFieldTypeOID","alias":"OBJECTID"}],"features":[{"attributes":{"ID":505228,"DIS_CODE":0,"TOWNNAME":"北區","LI":"成德里","LIN":"15鄰","STREET":"西門路","SECT":"四段","MAREA":" ","LANE":" ","ALLEY":" ","HOUSE_NO":"２７１號五樓之２","E_COORD97":168908.44,"N_COORD97":2545951.8100000001,"ADDRESS":"西門路四段２７１號五樓之２","OBJECTID":505201},"geometry":{"x":168908.44000000041,"y":2545951.8100000042}},{"attributes":{"ID":505229,"DIS_CODE":0,"TOWNNAME":"北區","LI":"成德里","LIN":"15鄰","STREET":"西門路","SECT":"四段","MAREA":" ","LANE":" ","ALLEY":" ","HOUSE_NO":"２７１號六樓之１","E_COORD97":168908.44,"N_COORD97":2545951.8100000001,"ADDRESS":"西門路四段２７１號六樓之１","OBJECTID":505202},"geometry":{"x":168908.44000000041,"y":2545951.8100000042}},{"attributes":{"ID":505230,"DIS_CODE":0,"TOWNNAME":"北區","LI":"成德里","LIN":"15鄰","STREET":"西門路","SECT":"四段","MAREA":" ","LANE":" ","ALLEY":" ","HOUSE_NO":"２７１號六樓之２","E_COORD97":168908.44,"N_COORD97":2545951.8100000001,"ADDRESS":"西門路四段２７１號六樓之２","OBJECTID":505203},"geometry":{"x":168908.44000000041,"y":2545951.8100000042}},{"attributes":{"ID":505231,"DIS_CODE":0,"TOWNNAME":"北區","LI":"成德里","LIN":"15鄰","STREET":"西門路","SECT":"四段","MAREA":" ","LANE":" ","ALLEY":" ","HOUSE_NO":"２７１號六樓之３","E_COORD97":168908.44,"N_COORD97":2545951.8100000001,"ADDRESS":"西門路四段２７１號六樓之３","OBJECTID":505204},"geometry":{"x":168908.44000000041,"y":2545951.8100000042}},{"attributes":{"ID":505232,"DIS_CODE":0,"TOWNNAME":"北區","LI":"成德里","LIN":"15鄰","STREET":"西門路","SECT":"四段","MAREA":" ","LANE":" ","ALLEY":" ","HOUSE_NO":"２７１號六樓之５","E_COORD97":168908.44,"N_COORD97":2545951.8100000001,"ADDRESS":"西門路四段２７１號六樓之５","OBJECTID":505205},"geometry":{"x":168908.44000000041,"y":2545951.8100000042}},{"attributes":{"ID":505233,"DIS_CODE":0,"TOWNNAME":"北區","LI":"成德里","LIN":"15鄰","STREET":"西門路","SECT":"四段","MAREA":" ","LANE":" ","ALLEY":" ","HOUSE_NO":"２７１號六樓之６","E_COORD97":168908.44,"N_COORD97":2545951.8100000001,"ADDRESS":"西門路四段２７１號六樓之６","OBJECTID":505206},"geometry":{"x":168908.44000000041,"y":2545951.8100000042}},{"attributes":{"ID":505234,"DIS_CODE":0,"TOWNNAME":"北區","LI":"成德里","LIN":"15鄰","STREET":"西門路","SECT":"四段","MAREA":" ","LANE":" ","ALLEY":" ","HOUSE_NO":"２７１號六樓之７","E_COORD97":168908.44,"N_COORD97":2545951.8100000001,"ADDRESS":"西門路四段２７１號六樓之７","OBJECTID":505207},"geometry":{"x":168908.44000000041,"y":2545951.8100000042}},{"attributes":{"ID":505235,"DIS_CODE":0,"TOWNNAME":"北區","LI":"成德里","LIN":"15鄰","STREET":"西門路","SECT":"四段","MAREA":" ","LANE":" ","ALLEY":" ","HOUSE_NO":"２７１號六樓之８","E_COORD97":168908.44,"N_COORD97":2545951.8100000001,"ADDRESS":"西門路四段２７１號六樓之８","OBJECTID":505208},"geometry":{"x":168908.44000000041,"y":2545951.8100000042}},{"attributes":{"ID":505236,"DIS_CODE":0,"TOWNNAME":"北區","LI":"成德里","LIN":"15鄰","STREET":"西門路","SECT":"四段","MAREA":" ","LANE":" ","ALLEY":" ","HOUSE_NO":"２７１號四樓之１","E_COORD97":168908.44,"N_COORD97":2545951.8100000001,"ADDRESS":"西門路四段２７１號四樓之１","OBJECTID":505209},"geometry":{"x":168908.44000000041,"y":2545951.8100000042}},{"attributes":{"ID":505237,"DIS_CODE":0,"TOWNNAME":"北區","LI":"成德里","LIN":"15鄰","STREET":"西門路","SECT":"四段","MAREA":" ","LANE":" ","ALLEY":" ","HOUSE_NO":"２７１號四樓之２","E_COORD97":168908.44,"N_COORD97":2545951.8100000001,"ADDRESS":"西門路四段２７１號四樓之２","OBJECTID":505210},"geometry":{"x":168908.44000000041,"y":2545951.8100000042}},{"attributes":{"ID":505238,"DIS_CODE":0,"TOWNNAME":"北區","LI":"成德里","LIN":"15鄰","STREET":"西門路","SECT":"四段","MAREA":" ","LANE":" ","ALLEY":" ","HOUSE_NO":"２７３之１號七樓","E_COORD97":168873.70999999999,"N_COORD97":2545936.0899999999,"ADDRESS":"西門路四段２７３之１號七樓","OBJECTID":505211},"geometry":{"x":168873.71000000089,"y":2545936.0900000017}},{"attributes":{"ID":505239,"DIS_CODE":0,"TOWNNAME":"北區","LI":"成德里","LIN":"15鄰","STREET":"西門路","SECT":"四段","MAREA":" ","LANE":" ","ALLEY":" ","HOUSE_NO":"２７３之１號九樓","E_COORD97":168873.70999999999,"N_COORD97":2545936.0899999999,"ADDRESS":"西門路四段２７３之１號九樓","OBJECTID":505212},"geometry":{"x":168873.71000000089,"y":2545936.0900000017}},{"attributes":{"ID":505240,"DIS_CODE":0,"TOWNNAME":"北區","LI":"成德里","LIN":"15鄰","STREET":"西門路","SECT":"四段","MAREA":" ","LANE":" ","ALLEY":" ","HOUSE_NO":"２７３之１號二樓","E_COORD97":168873.70999999999,"N_COORD97":2545936.0899999999,"ADDRESS":"西門路四段２７３之１號二樓","OBJECTID":505213},"geometry":{"x":168873.71000000089,"y":2545936.0900000017}},{"attributes":{"ID":505241,"DIS_CODE":0,"TOWNNAME":"北區","LI":"成德里","LIN":"15鄰","STREET":"西門路","SECT":"四段","MAREA":" ","LANE":" ","ALLEY":" ","HOUSE_NO":"２７３之１號八樓","E_COORD97":168873.70999999999,"N_COORD97":2545936.0899999999,"ADDRESS":"西門路四段２７３之１號八樓","OBJECTID":505214},"geometry":{"x":168873.71000000089,"y":2545936.0900000017}},{"attributes":{"ID":505242,"DIS_CODE":0,"TOWNNAME":"北區","LI":"成德里","LIN":"15鄰","STREET":"西門路","SECT":"四段","MAREA":" ","LANE":" ","ALLEY":" ","HOUSE_NO":"２７３之１號十一樓","E_COORD97":168873.70999999999,"N_COORD97":2545936.0899999999,"ADDRESS":"西門路四段２７３之１號十一樓","OBJECTID":505215},"geometry":{"x":168873.71000000089,"y":2545936.0900000017}},{"attributes":{"ID":505243,"DIS_CODE":0,"TOWNNAME":"北區","LI":"成德里","LIN":"15鄰","STREET":"西門路","SECT":"四段","MAREA":" ","LANE":" ","ALLEY":" ","HOUSE_NO":"２７３之１號十二樓","E_COORD97":168873.70999999999,"N_COORD97":2545936.0899999999,"ADDRESS":"西門路四段２７３之１號十二樓","OBJECTID":505216},"geometry":{"x":168873.71000000089,"y":2545936.0900000017}},{"attributes":{"ID":505244,"DIS_CODE":0,"TOWNNAME":"北區","LI":"成德里","LIN":"15鄰","STREET":"西門路","SECT":"四段","MAREA":" ","LANE":" ","ALLEY":" ","HOUSE_NO":"２７３之１號十三樓","E_COORD97":168873.70999999999,"N_COORD97":2545936.0899999999,"ADDRESS":"西門路四段２７３之１號十三樓","OBJECTID":505217},"geometry":{"x":168873.71000000089,"y":2545936.0900000017}},{"attributes":{"ID":505245,"DIS_CODE":0,"TOWNNAME":"北區","LI":"成德里","LIN":"15鄰","STREET":"西門路","SECT":"四段","MAREA":" ","LANE":" ","ALLEY":" ","HOUSE_NO":"２７３之１號十五樓","E_COORD97":168873.70999999999,"N_COORD97":2545936.0899999999,"ADDRESS":"西門路四段２７３之１號十五樓","OBJECTID":505218},"geometry":{"x":168873.71000000089,"y":2545936.0900000017}},{"attributes":{"ID":505246,"DIS_CODE":0,"TOWNNAME":"北區","LI":"成德里","LIN":"15鄰","STREET":"西門路","SECT":"四段","MAREA":" ","LANE":" ","ALLEY":" ","HOUSE_NO":"２７３之１號十四樓","E_COORD97":168873.70999999999,"N_COORD97":2545936.0899999999,"ADDRESS":"西門路四段２７３之１號十四樓","OBJECTID":505219},"geometry":{"x":168873.71000000089,"y":2545936.0900000017}},{"attributes":{"ID":505247,"DIS_CODE":0,"TOWNNAME":"北區","LI":"成德里","LIN":"15鄰","STREET":"西門路","SECT":"四段","MAREA":" ","LANE":" ","ALLEY":" ","HOUSE_NO":"２７３之１號十樓","E_COORD97":168873.70999999999,"N_COORD97":2545936.0899999999,"ADDRESS":"西門路四段２７３之１號十樓","OBJECTID":505220},"geometry":{"x":168873.71000000089,"y":2545936.0900000017}},{"attributes":{"ID":505248,"DIS_CODE":0,"TOWNNAME":"北區","LI":"成德里","LIN":"15鄰","STREET":"西門路","SECT":"四段","MAREA":" ","LANE":" ","ALLEY":" ","HOUSE_NO":"２７３之１號三樓","E_COORD97":168873.70999999999,"N_COORD97":2545936.0899999999,"ADDRESS":"西門路四段２７３之１號三樓","OBJECTID":505221},"geometry":{"x":168873.71000000089,"y":2545936.0900000017}},{"attributes":{"ID":505249,"DIS_CODE":0,"TOWNNAME":"北區","LI":"成德里","LIN":"15鄰","STREET":"西門路","SECT":"四段","MAREA":" ","LANE":" ","ALLEY":" ","HOUSE_NO":"２７３之１號五樓","E_COORD97":168873.70999999999,"N_COORD97":2545936.0899999999,"ADDRESS":"西門路四段２７３之１號五樓","OBJECTID":505222},"geometry":{"x":168873.71000000089,"y":2545936.0900000017}},{"attributes":{"ID":505250,"DIS_CODE":0,"TOWNNAME":"北區","LI":"成德里","LIN":"15鄰","STREET":"西門路","SECT":"四段","MAREA":" ","LANE":" ","ALLEY":" ","HOUSE_NO":"２７３之１號六樓","E_COORD97":168873.70999999999,"N_COORD97":2545936.0899999999,"ADDRESS":"西門路四段２７３之１號六樓","OBJECTID":505223},"geometry":{"x":168873.71000000089,"y":2545936.0900000017}},{"attributes":{"ID":505251,"DIS_CODE":0,"TOWNNAME":"善化區","LI":"文昌里","LIN":"15鄰","STREET":"大信路","SECT":" ","MAREA":" ","LANE":" ","ALLEY":" ","HOUSE_NO":"７３號二樓","E_COORD97":177617.62,"N_COORD97":2558761.5,"ADDRESS":"大信路７３號二樓","OBJECTID":505224},"geometry":{"x":177617.62000000197,"y":2558761.5}},{"attributes":{"ID":505252,"DIS_CODE":0,"TOWNNAME":"北區","LI":"成德里","LIN":"15鄰","STREET":"西門路","SECT":"四段","MAREA":" ","LANE":" ","ALLEY":" ","HOUSE_NO":"２７３之１號四樓","E_COORD97":168873.70999999999,"N_COORD97":2545936.0899999999,"ADDRESS":"西門路四段２７３之１號四樓","OBJECTID":505225},"geometry":{"x":168873.71000000089,"y":2545936.0900000017}},{"attributes":{"ID":505253,"DIS_CODE":0,"TOWNNAME":"北區","LI":"成德里","LIN":"15鄰","STREET":"西門路","SECT":"四段","MAREA":" ","LANE":" ","ALLEY":" ","HOUSE_NO":"２７３之２號七樓","E_COORD97":168864.72,"N_COORD97":2545938.0800000001,"ADDRESS":"西門路四段２７３之２號七樓","OBJECTID":505226},"geometry":{"x":168864.72000000067,"y":2545938.0800000001}},{"attributes":{"ID":505254,"DIS_CODE":0,"TOWNNAME":"北區","LI":"成德里","LIN":"15鄰","STREET":"西門路","SECT":"四段","MAREA":" ","LANE":" ","ALLEY":" ","HOUSE_NO":"２７３之２號九樓","E_COORD97":168864.72,"N_COORD97":2545938.0800000001,"ADDRESS":"西門路四段２７３之２號九樓","OBJECTID":505227},"geometry":{"x":168864.72000000067,"y":2545938.0800000001}},{"attributes":{"ID":505255,"DIS_CODE":0,"TOWNNAME":"北區","LI":"成德里","LIN":"15鄰","STREET":"西門路","SECT":"四段","MAREA":" ","LANE":" ","ALLEY":" ","HOUSE_NO":"２７３之２號二樓","E_COORD97":168864.72,"N_COORD97":2545938.0800000001,"ADDRESS":"西門路四段２７３之２號二樓","OBJECTID":505228},"geometry":{"x":168864.72000000067,"y":2545938.0800000001}},{"attributes":{"ID":505256,"DIS_CODE":0,"TOWNNAME":"北區","LI":"成德里","LIN":"15鄰","STREET":"西門路","SECT":"四段","MAREA":" ","LANE":" ","ALLEY":" ","HOUSE_NO":"２７３之２號八樓","E_COORD97":168864.72,"N_COORD97":2545938.0800000001,"ADDRESS":"西門路四段２７３之２號八樓","OBJECTID":505229},"geometry":{"x":168864.72000000067,"y":2545938.0800000001}},{"attributes":{"ID":505257,"DIS_CODE":0,"TOWNNAME":"北區","LI":"成德里","LIN":"15鄰","STREET":"西門路","SECT":"四段","MAREA":" ","LANE":" ","ALLEY":" ","HOUSE_NO":"２７３之２號十一樓","E_COORD97":168864.72,"N_COORD97":2545938.0800000001,"ADDRESS":"西門路四段２７３之２號十一樓","OBJECTID":505230},"geometry":{"x":168864.72000000067,"y":2545938.0800000001}},{"attributes":{"ID":505258,"DIS_CODE":0,"TOWNNAME":"北區","LI":"成德里","LIN":"15鄰","STREET":"西門路","SECT":"四段","MAREA":" ","LANE":" ","ALLEY":" ","HOUSE_NO":"２７３之２號十二樓","E_COORD97":168864.72,"N_COORD97":2545938.0800000001,"ADDRESS":"西門路四段２７３之２號十二樓","OBJECTID":505231},"geometry":{"x":168864.72000000067,"y":2545938.0800000001}},{"attributes":{"ID":505259,"DIS_CODE":0,"TOWNNAME":"北區","LI":"成德里","LIN":"15鄰","STREET":"西門路","SECT":"四段","MAREA":" ","LANE":" ","ALLEY":" ","HOUSE_NO":"２７３之２號十三樓","E_COORD97":168864.72,"N_COORD97":2545938.0800000001,"ADDRESS":"西門路四段２７３之２號十三樓","OBJECTID":505232},"geometry":{"x":168864.72000000067,"y":2545938.0800000001}},{"attributes":{"ID":505260,"DIS_CODE":0,"TOWNNAME":"北區","LI":"成德里","LIN":"15鄰","STREET":"西門路","SECT":"四段","MAREA":" ","LANE":" ","ALLEY":" ","HOUSE_NO":"２７３之２號十五樓","E_COORD97":168864.72,"N_COORD97":2545938.0800000001,"ADDRESS":"西門路四段２７３之２號十五樓","OBJECTID":505233},"geometry":{"x":168864.72000000067,"y":2545938.0800000001}},{"attributes":{"ID":505261,"DIS_CODE":0,"TOWNNAME":"北區","LI":"成德里","LIN":"15鄰","STREET":"西門路","SECT":"四段","MAREA":" ","LANE":" ","ALLEY":" ","HOUSE_NO":"２７３之２號十四樓","E_COORD97":168864.72,"N_COORD97":2545938.0800000001,"ADDRESS":"西門路四段２７３之２號十四樓","OBJECTID":505234},"geometry":{"x":168864.72000000067,"y":2545938.0800000001}},{"attributes":{"ID":505262,"DIS_CODE":0,"TOWNNAME":"北區","LI":"成德里","LIN":"15鄰","STREET":"西門路","SECT":"四段","MAREA":" ","LANE":" ","ALLEY":" ","HOUSE_NO":"２７３之２號十樓","E_COORD97":168864.72,"N_COORD97":2545938.0800000001,"ADDRESS":"西門路四段２７３之２號十樓","OBJECTID":505235},"geometry":{"x":168864.72000000067,"y":2545938.0800000001}},{"attributes":{"ID":505263,"DIS_CODE":0,"TOWNNAME":"北區","LI":"成德里","LIN":"15鄰","STREET":"西門路","SECT":"四段","MAREA":" ","LANE":" ","ALLEY":" ","HOUSE_NO":"２７３之２號三樓","E_COORD97":168864.72,"N_COORD97":2545938.0800000001,"ADDRESS":"西門路四段２７３之２號三樓","OBJECTID":505236},"geometry":{"x":168864.72000000067,"y":2545938.0800000001}},{"attributes":{"ID":505264,"DIS_CODE":0,"TOWNNAME":"北區","LI":"成德里","LIN":"15鄰","STREET":"西門路","SECT":"四段","MAREA":" ","LANE":" ","ALLEY":" ","HOUSE_NO":"２７３之２號五樓","E_COORD97":168864.72,"N_COORD97":2545938.0800000001,"ADDRESS":"西門路四段２７３之２號五樓","OBJECTID":505237},"geometry":{"x":168864.72000000067,"y":2545938.0800000001}},{"attributes":{"ID":505265,"DIS_CODE":0,"TOWNNAME":"北區","LI":"成德里","LIN":"15鄰","STREET":"西門路","SECT":"四段","MAREA":" ","LANE":" ","ALLEY":" ","HOUSE_NO":"２７３之２號六樓","E_COORD97":168864.72,"N_COORD97":2545938.0800000001,"ADDRESS":"西門路四段２７３之２號六樓","OBJECTID":505238},"geometry":{"x":168864.72000000067,"y":2545938.0800000001}},{"attributes":{"ID":505266,"DIS_CODE":0,"TOWNNAME":"北區","LI":"成德里","LIN":"15鄰","STREET":"西門路","SECT":"四段","MAREA":" ","LANE":" ","ALLEY":" ","HOUSE_NO":"２７３之２號四樓","E_COORD97":168864.72,"N_COORD97":2545938.0800000001,"ADDRESS":"西門路四段２７３之２號四樓","OBJECTID":505239},"geometry":{"x":168864.72000000067,"y":2545938.0800000001}},{"attributes":{"ID":505267,"DIS_CODE":0,"TOWNNAME":"北區","LI":"成德里","LIN":"15鄰","STREET":"西門路","SECT":"四段","MAREA":" ","LANE":" ","ALLEY":" ","HOUSE_NO":"２７３之３號七樓","E_COORD97":168864.22,"N_COORD97":2545950.8199999998,"ADDRESS":"西門路四段２７３之３號七樓","OBJECTID":505240},"geometry":{"x":168864.2200000016,"y":2545950.8200000003}},{"attributes":{"ID":505268,"DIS_CODE":0,"TOWNNAME":"北區","LI":"成德里","LIN":"15鄰","STREET":"西門路","SECT":"四段","MAREA":" ","LANE":" ","ALLEY":" ","HOUSE_NO":"２７３之３號九樓","E_COORD97":168864.22,"N_COORD97":2545950.8199999998,"ADDRESS":"西門路四段２７３之３號九樓","OBJECTID":505241},"geometry":{"x":168864.2200000016,"y":2545950.8200000003}},{"attributes":{"ID":505269,"DIS_CODE":0,"TOWNNAME":"北區","LI":"成德里","LIN":"15鄰","STREET":"西門路","SECT":"四段","MAREA":" ","LANE":" ","ALLEY":" ","HOUSE_NO":"２７３之３號二樓","E_COORD97":168864.22,"N_COORD97":2545950.8199999998,"ADDRESS":"西門路四段２７３之３號二樓","OBJECTID":505242},"geometry":{"x":168864.2200000016,"y":2545950.8200000003}},{"attributes":{"ID":505270,"DIS_CODE":0,"TOWNNAME":"北區","LI":"成德里","LIN":"15鄰","STREET":"西門路","SECT":"四段","MAREA":" ","LANE":" ","ALLEY":" ","HOUSE_NO":"２７３之３號八樓","E_COORD97":168864.22,"N_COORD97":2545950.8199999998,"ADDRESS":"西門路四段２７３之３號八樓","OBJECTID":505243},"geometry":{"x":168864.2200000016,"y":2545950.8200000003}},{"attributes":{"ID":505271,"DIS_CODE":0,"TOWNNAME":"北區","LI":"成德里","LIN":"15鄰","STREET":"西門路","SECT":"四段","MAREA":" ","LANE":" ","ALLEY":" ","HOUSE_NO":"２７３之３號十一樓","E_COORD97":168864.22,"N_COORD97":2545950.8199999998,"ADDRESS":"西門路四段２７３之３號十一樓","OBJECTID":505244},"geometry":{"x":168864.2200000016,"y":2545950.8200000003}},{"attributes":{"ID":505272,"DIS_CODE":0,"TOWNNAME":"北區","LI":"成德里","LIN":"15鄰","STREET":"西門路","SECT":"四段","MAREA":" ","LANE":" ","ALLEY":" ","HOUSE_NO":"２７３之３號十二樓","E_COORD97":168864.22,"N_COORD97":2545950.8199999998,"ADDRESS":"西門路四段２７３之３號十二樓","OBJECTID":505245},"geometry":{"x":168864.2200000016,"y":2545950.8200000003}},{"attributes":{"ID":505273,"DIS_CODE":0,"TOWNNAME":"北區","LI":"成德里","LIN":"15鄰","STREET":"西門路","SECT":"四段","MAREA":" ","LANE":" ","ALLEY":" ","HOUSE_NO":"２７３之３號十四樓","E_COORD97":168864.22,"N_COORD97":2545950.8199999998,"ADDRESS":"西門路四段２７３之３號十四樓","OBJECTID":505246},"geometry":{"x":168864.2200000016,"y":2545950.8200000003}},{"attributes":{"ID":505274,"DIS_CODE":0,"TOWNNAME":"北區","LI":"成德里","LIN":"15鄰","STREET":"西門路","SECT":"四段","MAREA":" ","LANE":" ","ALLEY":" ","HOUSE_NO":"２７３之３號十樓","E_COORD97":168864.22,"N_COORD97":2545950.8199999998,"ADDRESS":"西門路四段２７３之３號十樓","OBJECTID":505247},"geometry":{"x":168864.2200000016,"y":2545950.8200000003}},{"attributes":{"ID":505275,"DIS_CODE":0,"TOWNNAME":"北區","LI":"成德里","LIN":"15鄰","STREET":"西門路","SECT":"四段","MAREA":" ","LANE":" ","ALLEY":" ","HOUSE_NO":"２７３之３號三樓","E_COORD97":168864.22,"N_COORD97":2545950.8199999998,"ADDRESS":"西門路四段２７３之３號三樓","OBJECTID":505248},"geometry":{"x":168864.2200000016,"y":2545950.8200000003}},{"attributes":{"ID":505276,"DIS_CODE":0,"TOWNNAME":"北區","LI":"成德里","LIN":"15鄰","STREET":"西門路","SECT":"四段","MAREA":" ","LANE":" ","ALLEY":" ","HOUSE_NO":"２７３之３號五樓","E_COORD97":168864.22,"N_COORD97":2545950.8199999998,"ADDRESS":"西門路四段２７３之３號五樓","OBJECTID":505249},"geometry":{"x":168864.2200000016,"y":2545950.8200000003}},{"attributes":{"ID":505277,"DIS_CODE":0,"TOWNNAME":"北區","LI":"成德里","LIN":"15鄰","STREET":"西門路","SECT":"四段","MAREA":" ","LANE":" ","ALLEY":" ","HOUSE_NO":"２７３之３號六樓","E_COORD97":168864.22,"N_COORD97":2545950.8199999998,"ADDRESS":"西門路四段２７３之３號六樓","OBJECTID":505250},"geometry":{"x":168864.2200000016,"y":2545950.8200000003}},{"attributes":{"ID":505278,"DIS_CODE":0,"TOWNNAME":"北區","LI":"成德里","LIN":"15鄰","STREET":"西門路","SECT":"四段","MAREA":" ","LANE":" ","ALLEY":" ","HOUSE_NO":"２７３之３號四樓","E_COORD97":168864.22,"N_COORD97":2545950.8199999998,"ADDRESS":"西門路四段２７３之３號四樓","OBJECTID":505251},"geometry":{"x":168864.2200000016,"y":2545950.8200000003}},{"attributes":{"ID":505279,"DIS_CODE":0,"TOWNNAME":"北區","LI":"成德里","LIN":"15鄰","STREET":"西門路","SECT":"四段","MAREA":" ","LANE":" ","ALLEY":" ","HOUSE_NO":"２７３之５號七樓","E_COORD97":168867.22,"N_COORD97":2545959.7999999998,"ADDRESS":"西門路四段２７３之５號七樓","OBJECTID":505252},"geometry":{"x":168867.21999999974,"y":2545959.8000000026}},{"attributes":{"ID":505280,"DIS_CODE":0,"TOWNNAME":"北區","LI":"成德里","LIN":"15鄰","STREET":"西門路","SECT":"四段","MAREA":" ","LANE":" ","ALLEY":" ","HOUSE_NO":"２７３之５號九樓","E_COORD97":168867.22,"N_COORD97":2545959.7999999998,"ADDRESS":"西門路四段２７３之５號九樓","OBJECTID":505253},"geometry":{"x":168867.21999999974,"y":2545959.8000000026}},{"attributes":{"ID":505281,"DIS_CODE":0,"TOWNNAME":"北區","LI":"成德里","LIN":"15鄰","STREET":"西門路","SECT":"四段","MAREA":" ","LANE":" ","ALLEY":" ","HOUSE_NO":"２７３之５號二樓","E_COORD97":168867.22,"N_COORD97":2545959.7999999998,"ADDRESS":"西門路四段２７３之５號二樓","OBJECTID":505254},"geometry":{"x":168867.21999999974,"y":2545959.8000000026}},{"attributes":{"ID":505282,"DIS_CODE":0,"TOWNNAME":"北區","LI":"成德里","LIN":"15鄰","STREET":"西門路","SECT":"四段","MAREA":" ","LANE":" ","ALLEY":" ","HOUSE_NO":"２７３之５號八樓","E_COORD97":168867.22,"N_COORD97":2545959.7999999998,"ADDRESS":"西門路四段２７３之５號八樓","OBJECTID":505255},"geometry":{"x":168867.21999999974,"y":2545959.8000000026}},{"attributes":{"ID":505283,"DIS_CODE":0,"TOWNNAME":"北區","LI":"成德里","LIN":"15鄰","STREET":"西門路","SECT":"四段","MAREA":" ","LANE":" ","ALLEY":" ","HOUSE_NO":"２７３之５號十一樓","E_COORD97":168867.22,"N_COORD97":2545959.7999999998,"ADDRESS":"西門路四段２７３之５號十一樓","OBJECTID":505256},"geometry":{"x":168867.21999999974,"y":2545959.8000000026}},{"attributes":{"ID":505284,"DIS_CODE":0,"TOWNNAME":"北區","LI":"成德里","LIN":"15鄰","STREET":"西門路","SECT":"四段","MAREA":" ","LANE":" ","ALLEY":" ","HOUSE_NO":"２７３之５號十二樓","E_COORD97":168867.22,"N_COORD97":2545959.7999999998,"ADDRESS":"西門路四段２７３之５號十二樓","OBJECTID":505257},"geometry":{"x":168867.21999999974,"y":2545959.8000000026}},{"attributes":{"ID":505285,"DIS_CODE":0,"TOWNNAME":"北區","LI":"成德里","LIN":"15鄰","STREET":"西門路","SECT":"四段","MAREA":" ","LANE":" ","ALLEY":" ","HOUSE_NO":"２７３之５號十四樓","E_COORD97":168867.22,"N_COORD97":2545959.7999999998,"ADDRESS":"西門路四段２７３之５號十四樓","OBJECTID":505258},"geometry":{"x":168867.21999999974,"y":2545959.8000000026}},{"attributes":{"ID":505286,"DIS_CODE":0,"TOWNNAME":"北區","LI":"成德里","LIN":"15鄰","STREET":"西門路","SECT":"四段","MAREA":" ","LANE":" ","ALLEY":" ","HOUSE_NO":"２７３之５號十樓","E_COORD97":168867.22,"N_COORD97":2545959.7999999998,"ADDRESS":"西門路四段２７３之５號十樓","OBJECTID":505259},"geometry":{"x":168867.21999999974,"y":2545959.8000000026}},{"attributes":{"ID":505287,"DIS_CODE":0,"TOWNNAME":"北區","LI":"成德里","LIN":"15鄰","STREET":"西門路","SECT":"四段","MAREA":" ","LANE":" ","ALLEY":" ","HOUSE_NO":"２７３之５號三樓","E_COORD97":168867.22,"N_COORD97":2545959.7999999998,"ADDRESS":"西門路四段２７３之５號三樓","OBJECTID":505260},"geometry":{"x":168867.21999999974,"y":2545959.8000000026}},{"attributes":{"ID":505288,"DIS_CODE":0,"TOWNNAME":"北區","LI":"成德里","LIN":"15鄰","STREET":"西門路","SECT":"四段","MAREA":" ","LANE":" ","ALLEY":" ","HOUSE_NO":"２７３之５號五樓","E_COORD97":168867.22,"N_COORD97":2545959.7999999998,"ADDRESS":"西門路四段２７３之５號五樓","OBJECTID":505261},"geometry":{"x":168867.21999999974,"y":2545959.8000000026}},{"attributes":{"ID":505289,"DIS_CODE":0,"TOWNNAME":"北區","LI":"成德里","LIN":"15鄰","STREET":"西門路","SECT":"四段","MAREA":" ","LANE":" ","ALLEY":" ","HOUSE_NO":"２７３之５號六樓","E_COORD97":168867.22,"N_COORD97":2545959.7999999998,"ADDRESS":"西門路四段２７３之５號六樓","OBJECTID":505262},"geometry":{"x":168867.21999999974,"y":2545959.8000000026}},{"attributes":{"ID":505290,"DIS_CODE":0,"TOWNNAME":"北區","LI":"成德里","LIN":"15鄰","STREET":"西門路","SECT":"四段","MAREA":" ","LANE":" ","ALLEY":" ","HOUSE_NO":"２７３之５號四樓","E_COORD97":168867.22,"N_COORD97":2545959.7999999998,"ADDRESS":"西門路四段２７３之５號四樓","OBJECTID":505263},"geometry":{"x":168867.21999999974,"y":2545959.8000000026}},{"attributes":{"ID":505291,"DIS_CODE":0,"TOWNNAME":"北區","LI":"成德里","LIN":"15鄰","STREET":"西門路","SECT":"四段","MAREA":" ","LANE":" ","ALLEY":" ","HOUSE_NO":"２７３之６號七樓","E_COORD97":168869.72,"N_COORD97":2545967.7799999998,"ADDRESS":"西門路四段２７３之６號七樓","OBJECTID":505264},"geometry":{"x":168869.72000000067,"y":2545967.7800000031}},{"attributes":{"ID":505292,"DIS_CODE":0,"TOWNNAME":"北區","LI":"成德里","LIN":"15鄰","STREET":"西門路","SECT":"四段","MAREA":" ","LANE":" ","ALLEY":" ","HOUSE_NO":"２７３之６號九樓","E_COORD97":168869.72,"N_COORD97":2545967.7799999998,"ADDRESS":"西門路四段２７３之６號九樓","OBJECTID":505265},"geometry":{"x":168869.72000000067,"y":2545967.7800000031}},{"attributes":{"ID":505293,"DIS_CODE":0,"TOWNNAME":"北區","LI":"成德里","LIN":"15鄰","STREET":"西門路","SECT":"四段","MAREA":" ","LANE":" ","ALLEY":" ","HOUSE_NO":"２７３之６號二樓","E_COORD97":168869.72,"N_COORD97":2545967.7799999998,"ADDRESS":"西門路四段２７３之６號二樓","OBJECTID":505266},"geometry":{"x":168869.72000000067,"y":2545967.7800000031}},{"attributes":{"ID":505294,"DIS_CODE":0,"TOWNNAME":"北區","LI":"成德里","LIN":"15鄰","STREET":"西門路","SECT":"四段","MAREA":" ","LANE":" ","ALLEY":" ","HOUSE_NO":"２７３之６號八樓","E_COORD97":168869.72,"N_COORD97":2545967.7799999998,"ADDRESS":"西門路四段２７３之６號八樓","OBJECTID":505267},"geometry":{"x":168869.72000000067,"y":2545967.7800000031}},{"attributes":{"ID":505295,"DIS_CODE":0,"TOWNNAME":"北區","LI":"成德里","LIN":"15鄰","STREET":"西門路","SECT":"四段","MAREA":" ","LANE":" ","ALLEY":" ","HOUSE_NO":"２７３之６號十一樓","E_COORD97":168869.72,"N_COORD97":2545967.7799999998,"ADDRESS":"西門路四段２７３之６號十一樓","OBJECTID":505268},"geometry":{"x":168869.72000000067,"y":2545967.7800000031}},{"attributes":{"ID":505296,"DIS_CODE":0,"TOWNNAME":"北區","LI":"成德里","LIN":"15鄰","STREET":"西門路","SECT":"四段","MAREA":" ","LANE":" ","ALLEY":" ","HOUSE_NO":"２７３之６號十二樓","E_COORD97":168869.72,"N_COORD97":2545967.7799999998,"ADDRESS":"西門路四段２７３之６號十二樓","OBJECTID":505269},"geometry":{"x":168869.72000000067,"y":2545967.7800000031}},{"attributes":{"ID":505297,"DIS_CODE":0,"TOWNNAME":"北區","LI":"成德里","LIN":"15鄰","STREET":"西門路","SECT":"四段","MAREA":" ","LANE":" ","ALLEY":" ","HOUSE_NO":"２７３之６號十四樓","E_COORD97":168869.72,"N_COORD97":2545967.7799999998,"ADDRESS":"西門路四段２７３之６號十四樓","OBJECTID":505270},"geometry":{"x":168869.72000000067,"y":2545967.7800000031}},{"attributes":{"ID":505298,"DIS_CODE":0,"TOWNNAME":"北區","LI":"成德里","LIN":"15鄰","STREET":"西門路","SECT":"四段","MAREA":" ","LANE":" ","ALLEY":" ","HOUSE_NO":"２７３之６號十樓","E_COORD97":168869.72,"N_COORD97":2545967.7799999998,"ADDRESS":"西門路四段２７３之６號十樓","OBJECTID":505271},"geometry":{"x":168869.72000000067,"y":2545967.7800000031}},{"attributes":{"ID":505299,"DIS_CODE":0,"TOWNNAME":"北區","LI":"成德里","LIN":"15鄰","STREET":"西門路","SECT":"四段","MAREA":" ","LANE":" ","ALLEY":" ","HOUSE_NO":"２７３之６號三樓","E_COORD97":168869.72,"N_COORD97":2545967.7799999998,"ADDRESS":"西門路四段２７３之６號三樓","OBJECTID":505272},"geometry":{"x":168869.72000000067,"y":2545967.7800000031}},{"attributes":{"ID":505300,"DIS_CODE":0,"TOWNNAME":"北區","LI":"成德里","LIN":"15鄰","STREET":"西門路","SECT":"四段","MAREA":" ","LANE":" ","ALLEY":" ","HOUSE_NO":"２７３之６號五樓","E_COORD97":168869.72,"N_COORD97":2545967.7799999998,"ADDRESS":"西門路四段２７３之６號五樓","OBJECTID":505273},"geometry":{"x":168869.72000000067,"y":2545967.7800000031}},{"attributes":{"ID":505301,"DIS_CODE":0,"TOWNNAME":"北區","LI":"成德里","LIN":"15鄰","STREET":"西門路","SECT":"四段","MAREA":" ","LANE":" ","ALLEY":" ","HOUSE_NO":"２７３之６號六樓","E_COORD97":168869.72,"N_COORD97":2545967.7799999998,"ADDRESS":"西門路四段２７３之６號六樓","OBJECTID":505274},"geometry":{"x":168869.72000000067,"y":2545967.7800000031}},{"attributes":{"ID":505302,"DIS_CODE":0,"TOWNNAME":"北區","LI":"成德里","LIN":"15鄰","STREET":"西門路","SECT":"四段","MAREA":" ","LANE":" ","ALLEY":" ","HOUSE_NO":"２７３之６號四樓","E_COORD97":168869.72,"N_COORD97":2545967.7799999998,"ADDRESS":"西門路四段２７３之６號四樓","OBJECTID":505275},"geometry":{"x":168869.72000000067,"y":2545967.7800000031}},{"attributes":{"ID":505303,"DIS_CODE":0,"TOWNNAME":"北區","LI":"成德里","LIN":"15鄰","STREET":"西門路","SECT":"四段","MAREA":" ","LANE":" ","ALLEY":" ","HOUSE_NO":"２７３之７號七樓","E_COORD97":168871.72,"N_COORD97":2545974.52,"ADDRESS":"西門路四段２７３之７號七樓","OBJECTID":505276},"geometry":{"x":168871.72000000067,"y":2545974.5200000014}},{"attributes":{"ID":505304,"DIS_CODE":0,"TOWNNAME":"北區","LI":"成德里","LIN":"15鄰","STREET":"西門路","SECT":"四段","MAREA":" ","LANE":" ","ALLEY":" ","HOUSE_NO":"２７３之７號九樓","E_COORD97":168871.72,"N_COORD97":2545974.52,"ADDRESS":"西門路四段２７３之７號九樓","OBJECTID":505277},"geometry":{"x":168871.72000000067,"y":2545974.5200000014}},{"attributes":{"ID":505305,"DIS_CODE":0,"TOWNNAME":"北區","LI":"成德里","LIN":"15鄰","STREET":"西門路","SECT":"四段","MAREA":" ","LANE":" ","ALLEY":" ","HOUSE_NO":"２７３之７號二樓","E_COORD97":168871.72,"N_COORD97":2545974.52,"ADDRESS":"西門路四段２７３之７號二樓","OBJECTID":505278},"geometry":{"x":168871.72000000067,"y":2545974.5200000014}},{"attributes":{"ID":505306,"DIS_CODE":0,"TOWNNAME":"北區","LI":"成德里","LIN":"15鄰","STREET":"西門路","SECT":"四段","MAREA":" ","LANE":" ","ALLEY":" ","HOUSE_NO":"２７３之７號八樓","E_COORD97":168871.72,"N_COORD97":2545974.52,"ADDRESS":"西門路四段２７３之７號八樓","OBJECTID":505279},"geometry":{"x":168871.72000000067,"y":2545974.5200000014}},{"attributes":{"ID":505307,"DIS_CODE":0,"TOWNNAME":"北區","LI":"成德里","LIN":"15鄰","STREET":"西門路","SECT":"四段","MAREA":" ","LANE":" ","ALLEY":" ","HOUSE_NO":"２７３之７號十一樓","E_COORD97":168871.72,"N_COORD97":2545974.52,"ADDRESS":"西門路四段２７３之７號十一樓","OBJECTID":505280},"geometry":{"x":168871.72000000067,"y":2545974.5200000014}},{"attributes":{"ID":505308,"DIS_CODE":0,"TOWNNAME":"北區","LI":"成德里","LIN":"15鄰","STREET":"西門路","SECT":"四段","MAREA":" ","LANE":" ","ALLEY":" ","HOUSE_NO":"２７３之７號十二樓","E_COORD97":168871.72,"N_COORD97":2545974.52,"ADDRESS":"西門路四段２７３之７號十二樓","OBJECTID":505281},"geometry":{"x":168871.72000000067,"y":2545974.5200000014}},{"attributes":{"ID":505309,"DIS_CODE":0,"TOWNNAME":"北區","LI":"成德里","LIN":"15鄰","STREET":"西門路","SECT":"四段","MAREA":" ","LANE":" ","ALLEY":" ","HOUSE_NO":"２７３之７號十四樓","E_COORD97":168871.72,"N_COORD97":2545974.52,"ADDRESS":"西門路四段２７３之７號十四樓","OBJECTID":505282},"geometry":{"x":168871.72000000067,"y":2545974.5200000014}},{"attributes":{"ID":505310,"DIS_CODE":0,"TOWNNAME":"北區","LI":"成德里","LIN":"15鄰","STREET":"西門路","SECT":"四段","MAREA":" ","LANE":" ","ALLEY":" ","HOUSE_NO":"２７３之７號十樓","E_COORD97":168871.72,"N_COORD97":2545974.52,"ADDRESS":"西門路四段２７３之７號十樓","OBJECTID":505283},"geometry":{"x":168871.72000000067,"y":2545974.5200000014}},{"attributes":{"ID":505311,"DIS_CODE":0,"TOWNNAME":"北區","LI":"成德里","LIN":"15鄰","STREET":"西門路","SECT":"四段","MAREA":" ","LANE":" ","ALLEY":" ","HOUSE_NO":"２７３之７號三樓","E_COORD97":168871.72,"N_COORD97":2545974.52,"ADDRESS":"西門路四段２７３之７號三樓","OBJECTID":505284},"geometry":{"x":168871.72000000067,"y":2545974.5200000014}},{"attributes":{"ID":505312,"DIS_CODE":0,"TOWNNAME":"北區","LI":"成德里","LIN":"15鄰","STREET":"西門路","SECT":"四段","MAREA":" ","LANE":" ","ALLEY":" ","HOUSE_NO":"２７３之７號五樓","E_COORD97":168871.72,"N_COORD97":2545974.52,"ADDRESS":"西門路四段２７３之７號五樓","OBJECTID":505285},"geometry":{"x":168871.72000000067,"y":2545974.5200000014}},{"attributes":{"ID":505313,"DIS_CODE":0,"TOWNNAME":"北區","LI":"成德里","LIN":"15鄰","STREET":"西門路","SECT":"四段","MAREA":" ","LANE":" ","ALLEY":" ","HOUSE_NO":"２７３之７號六樓","E_COORD97":168871.72,"N_COORD97":2545974.52,"ADDRESS":"西門路四段２７３之７號六樓","OBJECTID":505286},"geometry":{"x":168871.72000000067,"y":2545974.5200000014}},{"attributes":{"ID":505314,"DIS_CODE":0,"TOWNNAME":"北區","LI":"成德里","LIN":"15鄰","STREET":"西門路","SECT":"四段","MAREA":" ","LANE":" ","ALLEY":" ","HOUSE_NO":"２７３之７號四樓","E_COORD97":168871.72,"N_COORD97":2545974.52,"ADDRESS":"西門路四段２７３之７號四樓","OBJECTID":505287},"geometry":{"x":168871.72000000067,"y":2545974.5200000014}},{"attributes":{"ID":505315,"DIS_CODE":0,"TOWNNAME":"北區","LI":"成德里","LIN":"15鄰","STREET":"西門路","SECT":"四段","MAREA":" ","LANE":" ","ALLEY":" ","HOUSE_NO":"２７３之８號七樓","E_COORD97":168877.95999999999,"N_COORD97":2545982.0099999998,"ADDRESS":"西門路四段２７３之８號七樓","OBJECTID":505288},"geometry":{"x":168877.95999999903,"y":2545982.0099999998}},{"attributes":{"ID":505316,"DIS_CODE":0,"TOWNNAME":"北區","LI":"成德里","LIN":"15鄰","STREET":"西門路","SECT":"四段","MAREA":" ","LANE":" ","ALLEY":" ","HOUSE_NO":"２７３之８號九樓","E_COORD97":168877.95999999999,"N_COORD97":2545982.0099999998,"ADDRESS":"西門路四段２７３之８號九樓","OBJECTID":505289},"geometry":{"x":168877.95999999903,"y":2545982.0099999998}},{"attributes":{"ID":505317,"DIS_CODE":0,"TOWNNAME":"北區","LI":"成德里","LIN":"15鄰","STREET":"西門路","SECT":"四段","MAREA":" ","LANE":" ","ALLEY":" ","HOUSE_NO":"２７３之８號二樓","E_COORD97":168877.95999999999,"N_COORD97":2545982.0099999998,"ADDRESS":"西門路四段２７３之８號二樓","OBJECTID":505290},"geometry":{"x":168877.95999999903,"y":2545982.0099999998}},{"attributes":{"ID":505318,"DIS_CODE":0,"TOWNNAME":"北區","LI":"成德里","LIN":"15鄰","STREET":"西門路","SECT":"四段","MAREA":" ","LANE":" ","ALLEY":" ","HOUSE_NO":"２７３之８號八樓","E_COORD97":168877.95999999999,"N_COORD97":2545982.0099999998,"ADDRESS":"西門路四段２７３之８號八樓","OBJECTID":505291},"geometry":{"x":168877.95999999903,"y":2545982.0099999998}},{"attributes":{"ID":505319,"DIS_CODE":0,"TOWNNAME":"北區","LI":"成德里","LIN":"15鄰","STREET":"西門路","SECT":"四段","MAREA":" ","LANE":" ","ALLEY":" ","HOUSE_NO":"２７３之８號十一樓","E_COORD97":168877.95999999999,"N_COORD97":2545982.0099999998,"ADDRESS":"西門路四段２７３之８號十一樓","OBJECTID":505292},"geometry":{"x":168877.95999999903,"y":2545982.0099999998}},{"attributes":{"ID":505320,"DIS_CODE":0,"TOWNNAME":"北區","LI":"成德里","LIN":"15鄰","STREET":"西門路","SECT":"四段","MAREA":" ","LANE":" ","ALLEY":" ","HOUSE_NO":"２７３之８號十二樓","E_COORD97":168877.95999999999,"N_COORD97":2545982.0099999998,"ADDRESS":"西門路四段２７３之８號十二樓","OBJECTID":505293},"geometry":{"x":168877.95999999903,"y":2545982.0099999998}},{"attributes":{"ID":505321,"DIS_CODE":0,"TOWNNAME":"北區","LI":"成德里","LIN":"15鄰","STREET":"西門路","SECT":"四段","MAREA":" ","LANE":" ","ALLEY":" ","HOUSE_NO":"２７３之８號十三樓","E_COORD97":168877.95999999999,"N_COORD97":2545982.0099999998,"ADDRESS":"西門路四段２７３之８號十三樓","OBJECTID":505294},"geometry":{"x":168877.95999999903,"y":2545982.0099999998}},{"attributes":{"ID":505322,"DIS_CODE":0,"TOWNNAME":"北區","LI":"成德里","LIN":"15鄰","STREET":"西門路","SECT":"四段","MAREA":" ","LANE":" ","ALLEY":" ","HOUSE_NO":"２７３之８號十五樓","E_COORD97":168877.95999999999,"N_COORD97":2545982.0099999998,"ADDRESS":"西門路四段２７３之８號十五樓","OBJECTID":505295},"geometry":{"x":168877.95999999903,"y":2545982.0099999998}},{"attributes":{"ID":505323,"DIS_CODE":0,"TOWNNAME":"北區","LI":"成德里","LIN":"15鄰","STREET":"西門路","SECT":"四段","MAREA":" ","LANE":" ","ALLEY":" ","HOUSE_NO":"２７３之８號十四樓","E_COORD97":168877.95999999999,"N_COORD97":2545982.0099999998,"ADDRESS":"西門路四段２７３之８號十四樓","OBJECTID":505296},"geometry":{"x":168877.95999999903,"y":2545982.0099999998}},{"attributes":{"ID":505324,"DIS_CODE":0,"TOWNNAME":"北區","LI":"成德里","LIN":"15鄰","STREET":"西門路","SECT":"四段","MAREA":" ","LANE":" ","ALLEY":" ","HOUSE_NO":"２７３之８號十樓","E_COORD97":168877.95999999999,"N_COORD97":2545982.0099999998,"ADDRESS":"西門路四段２７３之８號十樓","OBJECTID":505297},"geometry":{"x":168877.95999999903,"y":2545982.0099999998}},{"attributes":{"ID":505325,"DIS_CODE":0,"TOWNNAME":"北區","LI":"成德里","LIN":"15鄰","STREET":"西門路","SECT":"四段","MAREA":" ","LANE":" ","ALLEY":" ","HOUSE_NO":"２７３之８號三樓","E_COORD97":168877.95999999999,"N_COORD97":2545982.0099999998,"ADDRESS":"西門路四段２７３之８號三樓","OBJECTID":505298},"geometry":{"x":168877.95999999903,"y":2545982.0099999998}},{"attributes":{"ID":505326,"DIS_CODE":0,"TOWNNAME":"北區","LI":"成德里","LIN":"15鄰","STREET":"西門路","SECT":"四段","MAREA":" ","LANE":" ","ALLEY":" ","HOUSE_NO":"２７３之８號五樓","E_COORD97":168877.95999999999,"N_COORD97":2545982.0099999998,"ADDRESS":"西門路四段２７３之８號五樓","OBJECTID":505299},"geometry":{"x":168877.95999999903,"y":2545982.0099999998}},{"attributes":{"ID":505327,"DIS_CODE":0,"TOWNNAME":"北區","LI":"成德里","LIN":"15鄰","STREET":"西門路","SECT":"四段","MAREA":" ","LANE":" ","ALLEY":" ","HOUSE_NO":"２７３之８號六樓","E_COORD97":168877.95999999999,"N_COORD97":2545982.0099999998,"ADDRESS":"西門路四段２７３之８號六樓","OBJECTID":505300},"geometry":{"x":168877.95999999903,"y":2545982.0099999998}},{"attributes":{"ID":505328,"DIS_CODE":0,"TOWNNAME":"北區","LI":"成德里","LIN":"15鄰","STREET":"西門路","SECT":"四段","MAREA":" ","LANE":" ","ALLEY":" ","HOUSE_NO":"２７３之８號四樓","E_COORD97":168877.95999999999,"N_COORD97":2545982.0099999998,"ADDRESS":"西門路四段２７３之８號四樓","OBJECTID":505301},"geometry":{"x":168877.95999999903,"y":2545982.0099999998}},{"attributes":{"ID":505329,"DIS_CODE":0,"TOWNNAME":"北區","LI":"成德里","LIN":"15鄰","STREET":"西門路","SECT":"四段","MAREA":" ","LANE":" ","ALLEY":" ","HOUSE_NO":"２７３之９號七樓","E_COORD97":168887.70000000001,"N_COORD97":2545980.2599999998,"ADDRESS":"西門路四段２７３之９號七樓","OBJECTID":505302},"geometry":{"x":168887.70000000019,"y":2545980.2599999998}},{"attributes":{"ID":505330,"DIS_CODE":0,"TOWNNAME":"北區","LI":"成德里","LIN":"15鄰","STREET":"西門路","SECT":"四段","MAREA":" ","LANE":" ","ALLEY":" ","HOUSE_NO":"２７３之９號九樓","E_COORD97":168887.70000000001,"N_COORD97":2545980.2599999998,"ADDRESS":"西門路四段２７３之９號九樓","OBJECTID":505303},"geometry":{"x":168887.70000000019,"y":2545980.2599999998}},{"attributes":{"ID":505331,"DIS_CODE":0,"TOWNNAME":"北區","LI":"成德里","LIN":"15鄰","STREET":"西門路","SECT":"四段","MAREA":" ","LANE":" ","ALLEY":" ","HOUSE_NO":"２７３之９號二樓","E_COORD97":168887.70000000001,"N_COORD97":2545980.2599999998,"ADDRESS":"西門路四段２７３之９號二樓","OBJECTID":505304},"geometry":{"x":168887.70000000019,"y":2545980.2599999998}},{"attributes":{"ID":505332,"DIS_CODE":0,"TOWNNAME":"北區","LI":"成德里","LIN":"15鄰","STREET":"西門路","SECT":"四段","MAREA":" ","LANE":" ","ALLEY":" ","HOUSE_NO":"２７３之９號八樓","E_COORD97":168887.70000000001,"N_COORD97":2545980.2599999998,"ADDRESS":"西門路四段２７３之９號八樓","OBJECTID":505305},"geometry":{"x":168887.70000000019,"y":2545980.2599999998}},{"attributes":{"ID":505333,"DIS_CODE":0,"TOWNNAME":"北區","LI":"成德里","LIN":"15鄰","STREET":"西門路","SECT":"四段","MAREA":" ","LANE":" ","ALLEY":" ","HOUSE_NO":"２７３之９號十一樓","E_COORD97":168887.70000000001,"N_COORD97":2545980.2599999998,"ADDRESS":"西門路四段２７３之９號十一樓","OBJECTID":505306},"geometry":{"x":168887.70000000019,"y":2545980.2599999998}},{"attributes":{"ID":505334,"DIS_CODE":0,"TOWNNAME":"北區","LI":"成德里","LIN":"15鄰","STREET":"西門路","SECT":"四段","MAREA":" ","LANE":" ","ALLEY":" ","HOUSE_NO":"２７３之９號十二樓","E_COORD97":168887.70000000001,"N_COORD97":2545980.2599999998,"ADDRESS":"西門路四段２７３之９號十二樓","OBJECTID":505307},"geometry":{"x":168887.70000000019,"y":2545980.2599999998}},{"attributes":{"ID":505335,"DIS_CODE":0,"TOWNNAME":"北區","LI":"成德里","LIN":"15鄰","STREET":"西門路","SECT":"四段","MAREA":" ","LANE":" ","ALLEY":" ","HOUSE_NO":"２７３之９號十三樓","E_COORD97":168887.70000000001,"N_COORD97":2545980.2599999998,"ADDRESS":"西門路四段２７３之９號十三樓","OBJECTID":505308},"geometry":{"x":168887.70000000019,"y":2545980.2599999998}},{"attributes":{"ID":505336,"DIS_CODE":0,"TOWNNAME":"北區","LI":"成德里","LIN":"15鄰","STREET":"西門路","SECT":"四段","MAREA":" ","LANE":" ","ALLEY":" ","HOUSE_NO":"２７３之９號十五樓","E_COORD97":168887.70000000001,"N_COORD97":2545980.2599999998,"ADDRESS":"西門路四段２７３之９號十五樓","OBJECTID":505309},"geometry":{"x":168887.70000000019,"y":2545980.2599999998}},{"attributes":{"ID":505337,"DIS_CODE":0,"TOWNNAME":"北區","LI":"成德里","LIN":"15鄰","STREET":"西門路","SECT":"四段","MAREA":" ","LANE":" ","ALLEY":" ","HOUSE_NO":"２７３之９號十四樓","E_COORD97":168887.70000000001,"N_COORD97":2545980.2599999998,"ADDRESS":"西門路四段２７３之９號十四樓","OBJECTID":505310},"geometry":{"x":168887.70000000019,"y":2545980.2599999998}},{"attributes":{"ID":505338,"DIS_CODE":0,"TOWNNAME":"北區","LI":"成德里","LIN":"15鄰","STREET":"西門路","SECT":"四段","MAREA":" ","LANE":" ","ALLEY":" ","HOUSE_NO":"２７３之９號十樓","E_COORD97":168887.70000000001,"N_COORD97":2545980.2599999998,"ADDRESS":"西門路四段２７３之９號十樓","OBJECTID":505311},"geometry":{"x":168887.70000000019,"y":2545980.2599999998}},{"attributes":{"ID":505339,"DIS_CODE":0,"TOWNNAME":"北區","LI":"成德里","LIN":"15鄰","STREET":"西門路","SECT":"四段","MAREA":" ","LANE":" ","ALLEY":" ","HOUSE_NO":"２７３之９號三樓","E_COORD97":168887.70000000001,"N_COORD97":2545980.2599999998,"ADDRESS":"西門路四段２７３之９號三樓","OBJECTID":505312},"geometry":{"x":168887.70000000019,"y":2545980.2599999998}},{"attributes":{"ID":505340,"DIS_CODE":0,"TOWNNAME":"北區","LI":"成德里","LIN":"15鄰","STREET":"西門路","SECT":"四段","MAREA":" ","LANE":" ","ALLEY":" ","HOUSE_NO":"２７３之９號五樓","E_COORD97":168887.70000000001,"N_COORD97":2545980.2599999998,"ADDRESS":"西門路四段２７３之９號五樓","OBJECTID":505313},"geometry":{"x":168887.70000000019,"y":2545980.2599999998}},{"attributes":{"ID":505341,"DIS_CODE":0,"TOWNNAME":"北區","LI":"成德里","LIN":"15鄰","STREET":"西門路","SECT":"四段","MAREA":" ","LANE":" ","ALLEY":" ","HOUSE_NO":"２７３之９號六樓","E_COORD97":168887.70000000001,"N_COORD97":2545980.2599999998,"ADDRESS":"西門路四段２７３之９號六樓","OBJECTID":505314},"geometry":{"x":168887.70000000019,"y":2545980.2599999998}},{"attributes":{"ID":505342,"DIS_CODE":0,"TOWNNAME":"新化區","LI":"協興里","LIN":"15鄰","STREET":"大新路","SECT":" ","MAREA":" ","LANE":" ","ALLEY":" ","HOUSE_NO":"７９號三樓之１","E_COORD97":178083.10999999999,"N_COORD97":2548712.2599999998,"ADDRESS":"大新路７９號三樓之１","OBJECTID":505315},"geometry":{"x":178083.11000000127,"y":2548712.2600000016}},{"attributes":{"ID":505343,"DIS_CODE":0,"TOWNNAME":"北區","LI":"成德里","LIN":"15鄰","STREET":"西門路","SECT":"四段","MAREA":" ","LANE":" ","ALLEY":" ","HOUSE_NO":"２７３之９號四樓","E_COORD97":168887.70000000001,"N_COORD97":2545980.2599999998,"ADDRESS":"西門路四段２７３之９號四樓","OBJECTID":505316},"geometry":{"x":168887.70000000019,"y":2545980.2599999998}},{"attributes":{"ID":505344,"DIS_CODE":0,"TOWNNAME":"北區","LI":"公園里","LIN":"15鄰","STREET":"西華街","SECT":" ","MAREA":" ","LANE":" ","ALLEY":" ","HOUSE_NO":"１０５號七樓之１","E_COORD97":169069.39999999999,"N_COORD97":2544530.7599999998,"ADDRESS":"西華街１０５號七樓之１","OBJECTID":505317},"geometry":{"x":169069.4000000013,"y":2544530.7600000035}},{"attributes":{"ID":505345,"DIS_CODE":0,"TOWNNAME":"北區","LI":"公園里","LIN":"15鄰","STREET":"西華街","SECT":" ","MAREA":" ","LANE":" ","ALLEY":" ","HOUSE_NO":"１０５號七樓之１０","E_COORD97":169069.39999999999,"N_COORD97":2544530.7599999998,"ADDRESS":"西華街１０５號七樓之１０","OBJECTID":505318},"geometry":{"x":169069.4000000013,"y":2544530.7600000035}},{"attributes":{"ID":505346,"DIS_CODE":0,"TOWNNAME":"北區","LI":"公園里","LIN":"15鄰","STREET":"西華街","SECT":" ","MAREA":" ","LANE":" ","ALLEY":" ","HOUSE_NO":"１０５號七樓之１１","E_COORD97":169069.39999999999,"N_COORD97":2544530.7599999998,"ADDRESS":"西華街１０５號七樓之１１","OBJECTID":505319},"geometry":{"x":169069.4000000013,"y":2544530.7600000035}},{"attributes":{"ID":505347,"DIS_CODE":0,"TOWNNAME":"北區","LI":"公園里","LIN":"15鄰","STREET":"西華街","SECT":" ","MAREA":" ","LANE":" ","ALLEY":" ","HOUSE_NO":"１０５號七樓之１２","E_COORD97":169069.39999999999,"N_COORD97":2544530.7599999998,"ADDRESS":"西華街１０５號七樓之１２","OBJECTID":505320},"geometry":{"x":169069.4000000013,"y":2544530.7600000035}},{"attributes":{"ID":505348,"DIS_CODE":0,"TOWNNAME":"北區","LI":"公園里","LIN":"15鄰","STREET":"西華街","SECT":" ","MAREA":" ","LANE":" ","ALLEY":" ","HOUSE_NO":"１０５號七樓之２","E_COORD97":169069.39999999999,"N_COORD97":2544530.7599999998,"ADDRESS":"西華街１０５號七樓之２","OBJECTID":505321},"geometry":{"x":169069.4000000013,"y":2544530.7600000035}},{"attributes":{"ID":505349,"DIS_CODE":0,"TOWNNAME":"北區","LI":"公園里","LIN":"15鄰","STREET":"西華街","SECT":" ","MAREA":" ","LANE":" ","ALLEY":" ","HOUSE_NO":"１０５號七樓之３","E_COORD97":169069.39999999999,"N_COORD97":2544530.7599999998,"ADDRESS":"西華街１０５號七樓之３","OBJECTID":505322},"geometry":{"x":169069.4000000013,"y":2544530.7600000035}},{"attributes":{"ID":505350,"DIS_CODE":0,"TOWNNAME":"北區","LI":"公園里","LIN":"15鄰","STREET":"西華街","SECT":" ","MAREA":" ","LANE":" ","ALLEY":" ","HOUSE_NO":"１０５號七樓之４","E_COORD97":169069.39999999999,"N_COORD97":2544530.7599999998,"ADDRESS":"西華街１０５號七樓之４","OBJECTID":505323},"geometry":{"x":169069.4000000013,"y":2544530.7600000035}},{"attributes":{"ID":505351,"DIS_CODE":0,"TOWNNAME":"北區","LI":"公園里","LIN":"15鄰","STREET":"西華街","SECT":" ","MAREA":" ","LANE":" ","ALLEY":" ","HOUSE_NO":"１０５號七樓之５","E_COORD97":169069.39999999999,"N_COORD97":2544530.7599999998,"ADDRESS":"西華街１０５號七樓之５","OBJECTID":505324},"geometry":{"x":169069.4000000013,"y":2544530.7600000035}},{"attributes":{"ID":505352,"DIS_CODE":0,"TOWNNAME":"北區","LI":"公園里","LIN":"15鄰","STREET":"西華街","SECT":" ","MAREA":" ","LANE":" ","ALLEY":" ","HOUSE_NO":"１０５號七樓之６","E_COORD97":169069.39999999999,"N_COORD97":2544530.7599999998,"ADDRESS":"西華街１０５號七樓之６","OBJECTID":505325},"geometry":{"x":169069.4000000013,"y":2544530.7600000035}},{"attributes":{"ID":505353,"DIS_CODE":0,"TOWNNAME":"北區","LI":"公園里","LIN":"15鄰","STREET":"西華街","SECT":" ","MAREA":" ","LANE":" ","ALLEY":" ","HOUSE_NO":"１０５號七樓之７","E_COORD97":169069.39999999999,"N_COORD97":2544530.7599999998,"ADDRESS":"西華街１０５號七樓之７","OBJECTID":505326},"geometry":{"x":169069.4000000013,"y":2544530.7600000035}},{"attributes":{"ID":505354,"DIS_CODE":0,"TOWNNAME":"北區","LI":"公園里","LIN":"15鄰","STREET":"西華街","SECT":" ","MAREA":" ","LANE":" ","ALLEY":" ","HOUSE_NO":"１０５號七樓之８","E_COORD97":169069.39999999999,"N_COORD97":2544530.7599999998,"ADDRESS":"西華街１０５號七樓之８","OBJECTID":505327},"geometry":{"x":169069.4000000013,"y":2544530.7600000035}},{"attributes":{"ID":505355,"DIS_CODE":0,"TOWNNAME":"北區","LI":"公園里","LIN":"15鄰","STREET":"西華街","SECT":" ","MAREA":" ","LANE":" ","ALLEY":" ","HOUSE_NO":"１０５號七樓之９","E_COORD97":169069.39999999999,"N_COORD97":2544530.7599999998,"ADDRESS":"西華街１０５號七樓之９","OBJECTID":505328},"geometry":{"x":169069.4000000013,"y":2544530.7600000035}},{"attributes":{"ID":505356,"DIS_CODE":0,"TOWNNAME":"北區","LI":"公園里","LIN":"15鄰","STREET":"西華街","SECT":" ","MAREA":" ","LANE":" ","ALLEY":" ","HOUSE_NO":"１０５號六樓之１","E_COORD97":169069.39999999999,"N_COORD97":2544530.7599999998,"ADDRESS":"西華街１０５號六樓之１","OBJECTID":505329},"geometry":{"x":169069.4000000013,"y":2544530.7600000035}},{"attributes":{"ID":505357,"DIS_CODE":0,"TOWNNAME":"北區","LI":"公園里","LIN":"15鄰","STREET":"西華街","SECT":" ","MAREA":" ","LANE":" ","ALLEY":" ","HOUSE_NO":"１０５號六樓之１０","E_COORD97":169069.39999999999,"N_COORD97":2544530.7599999998,"ADDRESS":"西華街１０５號六樓之１０","OBJECTID":505330},"geometry":{"x":169069.4000000013,"y":2544530.7600000035}},{"attributes":{"ID":505358,"DIS_CODE":0,"TOWNNAME":"北區","LI":"公園里","LIN":"15鄰","STREET":"西華街","SECT":" ","MAREA":" ","LANE":" ","ALLEY":" ","HOUSE_NO":"１０５號十樓之５","E_COORD97":169069.39999999999,"N_COORD97":2544530.7599999998,"ADDRESS":"西華街１０５號十樓之５","OBJECTID":505331},"geometry":{"x":169069.4000000013,"y":2544530.7600000035}},{"attributes":{"ID":505359,"DIS_CODE":0,"TOWNNAME":"北區","LI":"公園里","LIN":"15鄰","STREET":"西華街","SECT":" ","MAREA":" ","LANE":" ","ALLEY":" ","HOUSE_NO":"１０５號六樓之１１","E_COORD97":169069.39999999999,"N_COORD97":2544530.7599999998,"ADDRESS":"西華街１０５號六樓之１１","OBJECTID":505332},"geometry":{"x":169069.4000000013,"y":2544530.7600000035}},{"attributes":{"ID":505360,"DIS_CODE":0,"TOWNNAME":"北區","LI":"公園里","LIN":"15鄰","STREET":"西華街","SECT":" ","MAREA":" ","LANE":" ","ALLEY":" ","HOUSE_NO":"１０５號六樓之１２","E_COORD97":169069.39999999999,"N_COORD97":2544530.7599999998,"ADDRESS":"西華街１０５號六樓之１２","OBJECTID":505333},"geometry":{"x":169069.4000000013,"y":2544530.7600000035}},{"attributes":{"ID":505361,"DIS_CODE":0,"TOWNNAME":"北區","LI":"公園里","LIN":"15鄰","STREET":"西華街","SECT":" ","MAREA":" ","LANE":" ","ALLEY":" ","HOUSE_NO":"１０５號六樓之２","E_COORD97":169069.39999999999,"N_COORD97":2544530.7599999998,"ADDRESS":"西華街１０５號六樓之２","OBJECTID":505334},"geometry":{"x":169069.4000000013,"y":2544530.7600000035}},{"attributes":{"ID":505362,"DIS_CODE":0,"TOWNNAME":"北區","LI":"公園里","LIN":"15鄰","STREET":"西華街","SECT":" ","MAREA":" ","LANE":" ","ALLEY":" ","HOUSE_NO":"１０５號六樓之３","E_COORD97":169069.39999999999,"N_COORD97":2544530.7599999998,"ADDRESS":"西華街１０５號六樓之３","OBJECTID":505335},"geometry":{"x":169069.4000000013,"y":2544530.7600000035}},{"attributes":{"ID":505363,"DIS_CODE":0,"TOWNNAME":"北區","LI":"公園里","LIN":"15鄰","STREET":"西華街","SECT":" ","MAREA":" ","LANE":" ","ALLEY":" ","HOUSE_NO":"１０５號六樓之４","E_COORD97":169069.39999999999,"N_COORD97":2544530.7599999998,"ADDRESS":"西華街１０５號六樓之４","OBJECTID":505336},"geometry":{"x":169069.4000000013,"y":2544530.7600000035}},{"attributes":{"ID":505364,"DIS_CODE":0,"TOWNNAME":"北區","LI":"公園里","LIN":"15鄰","STREET":"西華街","SECT":" ","MAREA":" ","LANE":" ","ALLEY":" ","HOUSE_NO":"１０５號六樓之５","E_COORD97":169069.39999999999,"N_COORD97":2544530.7599999998,"ADDRESS":"西華街１０５號六樓之５","OBJECTID":505337},"geometry":{"x":169069.4000000013,"y":2544530.7600000035}},{"attributes":{"ID":505365,"DIS_CODE":0,"TOWNNAME":"北區","LI":"公園里","LIN":"15鄰","STREET":"西華街","SECT":" ","MAREA":" ","LANE":" ","ALLEY":" ","HOUSE_NO":"１０５號六樓之６","E_COORD97":169069.39999999999,"N_COORD97":2544530.7599999998,"ADDRESS":"西華街１０５號六樓之６","OBJECTID":505338},"geometry":{"x":169069.4000000013,"y":2544530.7600000035}},{"attributes":{"ID":505366,"DIS_CODE":0,"TOWNNAME":"北區","LI":"公園里","LIN":"15鄰","STREET":"西華街","SECT":" ","MAREA":" ","LANE":" ","ALLEY":" ","HOUSE_NO":"１０５號六樓之７","E_COORD97":169069.39999999999,"N_COORD97":2544530.7599999998,"ADDRESS":"西華街１０５號六樓之７","OBJECTID":505339},"geometry":{"x":169069.4000000013,"y":2544530.7600000035}},{"attributes":{"ID":505367,"DIS_CODE":0,"TOWNNAME":"北區","LI":"公園里","LIN":"15鄰","STREET":"西華街","SECT":" ","MAREA":" ","LANE":" ","ALLEY":" ","HOUSE_NO":"１０５號六樓之８","E_COORD97":169069.39999999999,"N_COORD97":2544530.7599999998,"ADDRESS":"西華街１０５號六樓之８","OBJECTID":505340},"geometry":{"x":169069.4000000013,"y":2544530.7600000035}},{"attributes":{"ID":505368,"DIS_CODE":0,"TOWNNAME":"北區","LI":"公園里","LIN":"15鄰","STREET":"西華街","SECT":" ","MAREA":" ","LANE":" ","ALLEY":" ","HOUSE_NO":"１０５號六樓之９","E_COORD97":169069.39999999999,"N_COORD97":2544530.7599999998,"ADDRESS":"西華街１０５號六樓之９","OBJECTID":505341},"geometry":{"x":169069.4000000013,"y":2544530.7600000035}},{"attributes":{"ID":505369,"DIS_CODE":0,"TOWNNAME":"北區","LI":"公園里","LIN":"15鄰","STREET":"西華街","SECT":" ","MAREA":" ","LANE":" ","ALLEY":" ","HOUSE_NO":"１０５號九樓之１","E_COORD97":169069.39999999999,"N_COORD97":2544530.7599999998,"ADDRESS":"西華街１０５號九樓之１","OBJECTID":505342},"geometry":{"x":169069.4000000013,"y":2544530.7600000035}},{"attributes":{"ID":505370,"DIS_CODE":0,"TOWNNAME":"北區","LI":"公園里","LIN":"15鄰","STREET":"西華街","SECT":" ","MAREA":" ","LANE":" ","ALLEY":" ","HOUSE_NO":"１０５號九樓之１０","E_COORD97":169069.39999999999,"N_COORD97":2544530.7599999998,"ADDRESS":"西華街１０５號九樓之１０","OBJECTID":505343},"geometry":{"x":169069.4000000013,"y":2544530.7600000035}},{"attributes":{"ID":505371,"DIS_CODE":0,"TOWNNAME":"北區","LI":"公園里","LIN":"15鄰","STREET":"西華街","SECT":" ","MAREA":" ","LANE":" ","ALLEY":" ","HOUSE_NO":"１０５號九樓之１１","E_COORD97":169069.39999999999,"N_COORD97":2544530.7599999998,"ADDRESS":"西華街１０５號九樓之１１","OBJECTID":505344},"geometry":{"x":169069.4000000013,"y":2544530.7600000035}},{"attributes":{"ID":505372,"DIS_CODE":0,"TOWNNAME":"北區","LI":"公園里","LIN":"15鄰","STREET":"西華街","SECT":" ","MAREA":" ","LANE":" ","ALLEY":" ","HOUSE_NO":"１０５號九樓之１２","E_COORD97":169069.39999999999,"N_COORD97":2544530.7599999998,"ADDRESS":"西華街１０５號九樓之１２","OBJECTID":505345},"geometry":{"x":169069.4000000013,"y":2544530.7600000035}},{"attributes":{"ID":505373,"DIS_CODE":0,"TOWNNAME":"北區","LI":"公園里","LIN":"15鄰","STREET":"西華街","SECT":" ","MAREA":" ","LANE":" ","ALLEY":" ","HOUSE_NO":"１０５號九樓之２","E_COORD97":169069.39999999999,"N_COORD97":2544530.7599999998,"ADDRESS":"西華街１０５號九樓之２","OBJECTID":505346},"geometry":{"x":169069.4000000013,"y":2544530.7600000035}},{"attributes":{"ID":505374,"DIS_CODE":0,"TOWNNAME":"北區","LI":"公園里","LIN":"15鄰","STREET":"西華街","SECT":" ","MAREA":" ","LANE":" ","ALLEY":" ","HOUSE_NO":"１０５號九樓之３","E_COORD97":169069.39999999999,"N_COORD97":2544530.7599999998,"ADDRESS":"西華街１０５號九樓之３","OBJECTID":505347},"geometry":{"x":169069.4000000013,"y":2544530.7600000035}},{"attributes":{"ID":505375,"DIS_CODE":0,"TOWNNAME":"北區","LI":"公園里","LIN":"15鄰","STREET":"西華街","SECT":" ","MAREA":" ","LANE":" ","ALLEY":" ","HOUSE_NO":"１０５號九樓之４","E_COORD97":169069.39999999999,"N_COORD97":2544530.7599999998,"ADDRESS":"西華街１０５號九樓之４","OBJECTID":505348},"geometry":{"x":169069.4000000013,"y":2544530.7600000035}},{"attributes":{"ID":505376,"DIS_CODE":0,"TOWNNAME":"北區","LI":"公園里","LIN":"15鄰","STREET":"西華街","SECT":" ","MAREA":" ","LANE":" ","ALLEY":" ","HOUSE_NO":"１０５號九樓之５","E_COORD97":169069.39999999999,"N_COORD97":2544530.7599999998,"ADDRESS":"西華街１０５號九樓之５","OBJECTID":505349},"geometry":{"x":169069.4000000013,"y":2544530.7600000035}},{"attributes":{"ID":505377,"DIS_CODE":0,"TOWNNAME":"北區","LI":"公園里","LIN":"15鄰","STREET":"西華街","SECT":" ","MAREA":" ","LANE":" ","ALLEY":" ","HOUSE_NO":"１０５號九樓之６","E_COORD97":169069.39999999999,"N_COORD97":2544530.7599999998,"ADDRESS":"西華街１０５號九樓之６","OBJECTID":505350},"geometry":{"x":169069.4000000013,"y":2544530.7600000035}},{"attributes":{"ID":505378,"DIS_CODE":0,"TOWNNAME":"北區","LI":"公園里","LIN":"15鄰","STREET":"西華街","SECT":" ","MAREA":" ","LANE":" ","ALLEY":" ","HOUSE_NO":"１０５號九樓之７","E_COORD97":169069.39999999999,"N_COORD97":2544530.7599999998,"ADDRESS":"西華街１０５號九樓之７","OBJECTID":505351},"geometry":{"x":169069.4000000013,"y":2544530.7600000035}},{"attributes":{"ID":505379,"DIS_CODE":0,"TOWNNAME":"北區","LI":"公園里","LIN":"15鄰","STREET":"西華街","SECT":" ","MAREA":" ","LANE":" ","ALLEY":" ","HOUSE_NO":"１０５號九樓之８","E_COORD97":169069.39999999999,"N_COORD97":2544530.7599999998,"ADDRESS":"西華街１０５號九樓之８","OBJECTID":505352},"geometry":{"x":169069.4000000013,"y":2544530.7600000035}},{"attributes":{"ID":505380,"DIS_CODE":0,"TOWNNAME":"北區","LI":"公園里","LIN":"15鄰","STREET":"西華街","SECT":" ","MAREA":" ","LANE":" ","ALLEY":" ","HOUSE_NO":"１０５號九樓之９","E_COORD97":169069.39999999999,"N_COORD97":2544530.7599999998,"ADDRESS":"西華街１０５號九樓之９","OBJECTID":505353},"geometry":{"x":169069.4000000013,"y":2544530.7600000035}},{"attributes":{"ID":505381,"DIS_CODE":0,"TOWNNAME":"北區","LI":"公園里","LIN":"15鄰","STREET":"西華街","SECT":" ","MAREA":" ","LANE":" ","ALLEY":" ","HOUSE_NO":"１０５號八樓之１","E_COORD97":169069.39999999999,"N_COORD97":2544530.7599999998,"ADDRESS":"西華街１０５號八樓之１","OBJECTID":505354},"geometry":{"x":169069.4000000013,"y":2544530.7600000035}},{"attributes":{"ID":505382,"DIS_CODE":0,"TOWNNAME":"北區","LI":"公園里","LIN":"15鄰","STREET":"西華街","SECT":" ","MAREA":" ","LANE":" ","ALLEY":" ","HOUSE_NO":"１０５號八樓之１０","E_COORD97":169069.39999999999,"N_COORD97":2544530.7599999998,"ADDRESS":"西華街１０５號八樓之１０","OBJECTID":505355},"geometry":{"x":169069.4000000013,"y":2544530.7600000035}},{"attributes":{"ID":505383,"DIS_CODE":0,"TOWNNAME":"北區","LI":"公園里","LIN":"15鄰","STREET":"西華街","SECT":" ","MAREA":" ","LANE":" ","ALLEY":" ","HOUSE_NO":"１０５號八樓之１１","E_COORD97":169069.39999999999,"N_COORD97":2544530.7599999998,"ADDRESS":"西華街１０５號八樓之１１","OBJECTID":505356},"geometry":{"x":169069.4000000013,"y":2544530.7600000035}},{"attributes":{"ID":505384,"DIS_CODE":0,"TOWNNAME":"北區","LI":"公園里","LIN":"15鄰","STREET":"西華街","SECT":" ","MAREA":" ","LANE":" ","ALLEY":" ","HOUSE_NO":"１０５號八樓之１２","E_COORD97":169069.39999999999,"N_COORD97":2544530.7599999998,"ADDRESS":"西華街１０５號八樓之１２","OBJECTID":505357},"geometry":{"x":169069.4000000013,"y":2544530.7600000035}},{"attributes":{"ID":505385,"DIS_CODE":0,"TOWNNAME":"北區","LI":"公園里","LIN":"15鄰","STREET":"西華街","SECT":" ","MAREA":" ","LANE":" ","ALLEY":" ","HOUSE_NO":"１０５號八樓之２","E_COORD97":169069.39999999999,"N_COORD97":2544530.7599999998,"ADDRESS":"西華街１０５號八樓之２","OBJECTID":505358},"geometry":{"x":169069.4000000013,"y":2544530.7600000035}},{"attributes":{"ID":505386,"DIS_CODE":0,"TOWNNAME":"北區","LI":"公園里","LIN":"15鄰","STREET":"西華街","SECT":" ","MAREA":" ","LANE":" ","ALLEY":" ","HOUSE_NO":"１０５號八樓之３","E_COORD97":169069.39999999999,"N_COORD97":2544530.7599999998,"ADDRESS":"西華街１０５號八樓之３","OBJECTID":505359},"geometry":{"x":169069.4000000013,"y":2544530.7600000035}},{"attributes":{"ID":505387,"DIS_CODE":0,"TOWNNAME":"北區","LI":"公園里","LIN":"15鄰","STREET":"西華街","SECT":" ","MAREA":" ","LANE":" ","ALLEY":" ","HOUSE_NO":"１０５號八樓之４","E_COORD97":169069.39999999999,"N_COORD97":2544530.7599999998,"ADDRESS":"西華街１０５號八樓之４","OBJECTID":505360},"geometry":{"x":169069.4000000013,"y":2544530.7600000035}},{"attributes":{"ID":505388,"DIS_CODE":0,"TOWNNAME":"北區","LI":"公園里","LIN":"15鄰","STREET":"西華街","SECT":" ","MAREA":" ","LANE":" ","ALLEY":" ","HOUSE_NO":"１０５號八樓之５","E_COORD97":169069.39999999999,"N_COORD97":2544530.7599999998,"ADDRESS":"西華街１０５號八樓之５","OBJECTID":505361},"geometry":{"x":169069.4000000013,"y":2544530.7600000035}},{"attributes":{"ID":505389,"DIS_CODE":0,"TOWNNAME":"北區","LI":"公園里","LIN":"15鄰","STREET":"西華街","SECT":" ","MAREA":" ","LANE":" ","ALLEY":" ","HOUSE_NO":"１０５號八樓之６","E_COORD97":169069.39999999999,"N_COORD97":2544530.7599999998,"ADDRESS":"西華街１０５號八樓之６","OBJECTID":505362},"geometry":{"x":169069.4000000013,"y":2544530.7600000035}},{"attributes":{"ID":505390,"DIS_CODE":0,"TOWNNAME":"北區","LI":"公園里","LIN":"15鄰","STREET":"西華街","SECT":" ","MAREA":" ","LANE":" ","ALLEY":" ","HOUSE_NO":"１０５號八樓之７","E_COORD97":169069.39999999999,"N_COORD97":2544530.7599999998,"ADDRESS":"西華街１０５號八樓之７","OBJECTID":505363},"geometry":{"x":169069.4000000013,"y":2544530.7600000035}},{"attributes":{"ID":505391,"DIS_CODE":0,"TOWNNAME":"北區","LI":"公園里","LIN":"15鄰","STREET":"西華街","SECT":" ","MAREA":" ","LANE":" ","ALLEY":" ","HOUSE_NO":"１０５號八樓之８","E_COORD97":169069.39999999999,"N_COORD97":2544530.7599999998,"ADDRESS":"西華街１０５號八樓之８","OBJECTID":505364},"geometry":{"x":169069.4000000013,"y":2544530.7600000035}},{"attributes":{"ID":505392,"DIS_CODE":0,"TOWNNAME":"北區","LI":"公園里","LIN":"15鄰","STREET":"西華街","SECT":" ","MAREA":" ","LANE":" ","ALLEY":" ","HOUSE_NO":"１０５號八樓之９","E_COORD97":169069.39999999999,"N_COORD97":2544530.7599999998,"ADDRESS":"西華街１０５號八樓之９","OBJECTID":505365},"geometry":{"x":169069.4000000013,"y":2544530.7600000035}},{"attributes":{"ID":505393,"DIS_CODE":0,"TOWNNAME":"北區","LI":"公園里","LIN":"15鄰","STREET":"西華街","SECT":" ","MAREA":" ","LANE":" ","ALLEY":" ","HOUSE_NO":"１０５號十樓之１","E_COORD97":169069.39999999999,"N_COORD97":2544530.7599999998,"ADDRESS":"西華街１０５號十樓之１","OBJECTID":505366},"geometry":{"x":169069.4000000013,"y":2544530.7600000035}},{"attributes":{"ID":505394,"DIS_CODE":0,"TOWNNAME":"北區","LI":"公園里","LIN":"15鄰","STREET":"西華街","SECT":" ","MAREA":" ","LANE":" ","ALLEY":" ","HOUSE_NO":"１０５號十樓之１０","E_COORD97":169069.39999999999,"N_COORD97":2544530.7599999998,"ADDRESS":"西華街１０５號十樓之１０","OBJECTID":505367},"geometry":{"x":169069.4000000013,"y":2544530.7600000035}},{"attributes":{"ID":505395,"DIS_CODE":0,"TOWNNAME":"北區","LI":"公園里","LIN":"15鄰","STREET":"西華街","SECT":" ","MAREA":" ","LANE":" ","ALLEY":" ","HOUSE_NO":"１０５號十樓之１１","E_COORD97":169069.39999999999,"N_COORD97":2544530.7599999998,"ADDRESS":"西華街１０５號十樓之１１","OBJECTID":505368},"geometry":{"x":169069.4000000013,"y":2544530.7600000035}},{"attributes":{"ID":505396,"DIS_CODE":0,"TOWNNAME":"北區","LI":"公園里","LIN":"15鄰","STREET":"西華街","SECT":" ","MAREA":" ","LANE":" ","ALLEY":" ","HOUSE_NO":"１０５號十樓之１２","E_COORD97":169069.39999999999,"N_COORD97":2544530.7599999998,"ADDRESS":"西華街１０５號十樓之１２","OBJECTID":505369},"geometry":{"x":169069.4000000013,"y":2544530.7600000035}},{"attributes":{"ID":505397,"DIS_CODE":0,"TOWNNAME":"北區","LI":"公園里","LIN":"15鄰","STREET":"西華街","SECT":" ","MAREA":" ","LANE":" ","ALLEY":" ","HOUSE_NO":"１０５號十樓之２","E_COORD97":169069.39999999999,"N_COORD97":2544530.7599999998,"ADDRESS":"西華街１０５號十樓之２","OBJECTID":505370},"geometry":{"x":169069.4000000013,"y":2544530.7600000035}},{"attributes":{"ID":505398,"DIS_CODE":0,"TOWNNAME":"北區","LI":"公園里","LIN":"15鄰","STREET":"西華街","SECT":" ","MAREA":" ","LANE":" ","ALLEY":" ","HOUSE_NO":"１０５號十樓之３","E_COORD97":169069.39999999999,"N_COORD97":2544530.7599999998,"ADDRESS":"西華街１０５號十樓之３","OBJECTID":505371},"geometry":{"x":169069.4000000013,"y":2544530.7600000035}},{"attributes":{"ID":505399,"DIS_CODE":0,"TOWNNAME":"北區","LI":"公園里","LIN":"15鄰","STREET":"西華街","SECT":" ","MAREA":" ","LANE":" ","ALLEY":" ","HOUSE_NO":"１０５號十樓之４","E_COORD97":169069.39999999999,"N_COORD97":2544530.7599999998,"ADDRESS":"西華街１０５號十樓之４","OBJECTID":505372},"geometry":{"x":169069.4000000013,"y":2544530.7600000035}},{"attributes":{"ID":505400,"DIS_CODE":0,"TOWNNAME":"北區","LI":"公園里","LIN":"15鄰","STREET":"西華街","SECT":" ","MAREA":" ","LANE":" ","ALLEY":" ","HOUSE_NO":"１０５號十樓之６","E_COORD97":169069.39999999999,"N_COORD97":2544530.7599999998,"ADDRESS":"西華街１０５號十樓之６","OBJECTID":505373},"geometry":{"x":169069.4000000013,"y":2544530.7600000035}},{"attributes":{"ID":505401,"DIS_CODE":0,"TOWNNAME":"北區","LI":"公園里","LIN":"15鄰","STREET":"西華街","SECT":" ","MAREA":" ","LANE":" ","ALLEY":" ","HOUSE_NO":"１０５號十樓之７","E_COORD97":169069.39999999999,"N_COORD97":2544530.7599999998,"ADDRESS":"西華街１０５號十樓之７","OBJECTID":505374},"geometry":{"x":169069.4000000013,"y":2544530.7600000035}},{"attributes":{"ID":505402,"DIS_CODE":0,"TOWNNAME":"北區","LI":"公園里","LIN":"15鄰","STREET":"西華街","SECT":" ","MAREA":" ","LANE":" ","ALLEY":" ","HOUSE_NO":"１０５號十樓之８","E_COORD97":169069.39999999999,"N_COORD97":2544530.7599999998,"ADDRESS":"西華街１０５號十樓之８","OBJECTID":505375},"geometry":{"x":169069.4000000013,"y":2544530.7600000035}},{"attributes":{"ID":505403,"DIS_CODE":0,"TOWNNAME":"北區","LI":"公園里","LIN":"15鄰","STREET":"西華街","SECT":" ","MAREA":" ","LANE":" ","ALLEY":" ","HOUSE_NO":"１０５號十樓之９","E_COORD97":169069.39999999999,"N_COORD97":2544530.7599999998,"ADDRESS":"西華街１０５號十樓之９","OBJECTID":505376},"geometry":{"x":169069.4000000013,"y":2544530.7600000035}},{"attributes":{"ID":505404,"DIS_CODE":0,"TOWNNAME":"新營區","LI":"民權里","LIN":"15鄰","STREET":"信義街","SECT":" ","MAREA":" ","LANE":" ","ALLEY":" ","HOUSE_NO":"６７之１號六樓","E_COORD97":179898.10999999999,"N_COORD97":2578496.8500000001,"ADDRESS":"信義街６７之１號六樓","OBJECTID":505377},"geometry":{"x":179898.11000000127,"y":2578496.8499999996}},{"attributes":{"ID":505405,"DIS_CODE":0,"TOWNNAME":"新營區","LI":"民權里","LIN":"15鄰","STREET":"信義街","SECT":" ","MAREA":" ","LANE":" ","ALLEY":" ","HOUSE_NO":"６７之１號三樓","E_COORD97":179898.10999999999,"N_COORD97":2578496.8500000001,"ADDRESS":"信義街６７之１號三樓","OBJECTID":505378},"geometry":{"x":179898.11000000127,"y":2578496.8499999996}},{"attributes":{"ID":505406,"DIS_CODE":0,"TOWNNAME":"新營區","LI":"民權里","LIN":"15鄰","STREET":"信義街","SECT":" ","MAREA":" ","LANE":" ","ALLEY":" ","HOUSE_NO":"６７號七樓","E_COORD97":179895.60999999999,"N_COORD97":2578496.8100000001,"ADDRESS":"信義街６７號七樓","OBJECTID":505379},"geometry":{"x":179895.61000000034,"y":2578496.8100000024}},{"attributes":{"ID":505407,"DIS_CODE":0,"TOWNNAME":"善化區","LI":"文昌里","LIN":"15鄰","STREET":"永福路","SECT":" ","MAREA":" ","LANE":" ","ALLEY":" ","HOUSE_NO":"３５號五樓","E_COORD97":177580.22,"N_COORD97":2558885.9900000002,"ADDRESS":"永福路３５號五樓","OBJECTID":505380},"geometry":{"x":177580.21999999974,"y":2558885.9900000021}},{"attributes":{"ID":505408,"DIS_CODE":0,"TOWNNAME":"新營區","LI":"民權里","LIN":"15鄰","STREET":"信義街","SECT":" ","MAREA":" ","LANE":" ","ALLEY":" ","HOUSE_NO":"６７之３號五樓","E_COORD97":179898.10999999999,"N_COORD97":2578496.8500000001,"ADDRESS":"信義街６７之３號五樓","OBJECTID":505381},"geometry":{"x":179898.11000000127,"y":2578496.8499999996}},{"attributes":{"ID":505409,"DIS_CODE":0,"TOWNNAME":"新營區","LI":"民權里","LIN":"15鄰","STREET":"信義街","SECT":" ","MAREA":" ","LANE":" ","ALLEY":" ","HOUSE_NO":"６７之３號六樓","E_COORD97":179898.10999999999,"N_COORD97":2578496.8500000001,"ADDRESS":"信義街６７之３號六樓","OBJECTID":505382},"geometry":{"x":179898.11000000127,"y":2578496.8499999996}},{"attributes":{"ID":505410,"DIS_CODE":0,"TOWNNAME":"新營區","LI":"民權里","LIN":"15鄰","STREET":"信義街","SECT":" ","MAREA":" ","LANE":" ","ALLEY":" ","HOUSE_NO":"６７之２號六樓","E_COORD97":179898.10999999999,"N_COORD97":2578496.8500000001,"ADDRESS":"信義街６７之２號六樓","OBJECTID":505383},"geometry":{"x":179898.11000000127,"y":2578496.8499999996}},{"attributes":{"ID":505411,"DIS_CODE":0,"TOWNNAME":"新營區","LI":"民權里","LIN":"15鄰","STREET":"信義街","SECT":" ","MAREA":" ","LANE":" ","ALLEY":" ","HOUSE_NO":"６７號三樓","E_COORD97":179895.60999999999,"N_COORD97":2578496.8100000001,"ADDRESS":"信義街６７號三樓","OBJECTID":505384},"geometry":{"x":179895.61000000034,"y":2578496.8100000024}},{"attributes":{"ID":505412,"DIS_CODE":0,"TOWNNAME":"新營區","LI":"民權里","LIN":"15鄰","STREET":"信義街","SECT":" ","MAREA":" ","LANE":" ","ALLEY":" ","HOUSE_NO":"６７之５號四樓","E_COORD97":179898.10999999999,"N_COORD97":2578496.8500000001,"ADDRESS":"信義街６７之５號四樓","OBJECTID":505385},"geometry":{"x":179898.11000000127,"y":2578496.8499999996}},{"attributes":{"ID":505413,"DIS_CODE":0,"TOWNNAME":"新營區","LI":"民權里","LIN":"15鄰","STREET":"信義街","SECT":" ","MAREA":" ","LANE":" ","ALLEY":" ","HOUSE_NO":"６７之１號五樓","E_COORD97":179898.10999999999,"N_COORD97":2578496.8500000001,"ADDRESS":"信義街６７之１號五樓","OBJECTID":505386},"geometry":{"x":179898.11000000127,"y":2578496.8499999996}},{"attributes":{"ID":505414,"DIS_CODE":0,"TOWNNAME":"新營區","LI":"民權里","LIN":"15鄰","STREET":"信義街","SECT":" ","MAREA":" ","LANE":" ","ALLEY":" ","HOUSE_NO":"６７號五樓","E_COORD97":179895.60999999999,"N_COORD97":2578496.8100000001,"ADDRESS":"信義街６７號五樓","OBJECTID":505387},"geometry":{"x":179895.61000000034,"y":2578496.8100000024}},{"attributes":{"ID":505415,"DIS_CODE":0,"TOWNNAME":"新營區","LI":"民權里","LIN":"15鄰","STREET":"信義街","SECT":" ","MAREA":" ","LANE":" ","ALLEY":" ","HOUSE_NO":"６７之２號二樓","E_COORD97":179898.10999999999,"N_COORD97":2578496.8500000001,"ADDRESS":"信義街６７之２號二樓","OBJECTID":505388},"geometry":{"x":179898.11000000127,"y":2578496.8499999996}},{"attributes":{"ID":505416,"DIS_CODE":0,"TOWNNAME":"新營區","LI":"民權里","LIN":"15鄰","STREET":"信義街","SECT":" ","MAREA":" ","LANE":" ","ALLEY":" ","HOUSE_NO":"６７號六樓","E_COORD97":179895.60999999999,"N_COORD97":2578496.8100000001,"ADDRESS":"信義街６７號六樓","OBJECTID":505389},"geometry":{"x":179895.61000000034,"y":2578496.8100000024}},{"attributes":{"ID":505417,"DIS_CODE":0,"TOWNNAME":"安平區","LI":"建平里","LIN":"15鄰","STREET":"建平十二街","SECT":" ","MAREA":" ","LANE":" ","ALLEY":" ","HOUSE_NO":"１３４號六樓之２","E_COORD97":166005.42000000001,"N_COORD97":2543999.96,"ADDRESS":"建平十二街１３４號六樓之２","OBJECTID":505390},"geometry":{"x":166005.42000000086,"y":2543999.9600000028}},{"attributes":{"ID":505418,"DIS_CODE":0,"TOWNNAME":"安平區","LI":"建平里","LIN":"15鄰","STREET":"建平十二街","SECT":" ","MAREA":" ","LANE":" ","ALLEY":" ","HOUSE_NO":"１３４號六樓之３","E_COORD97":166005.42000000001,"N_COORD97":2543999.96,"ADDRESS":"建平十二街１３４號六樓之３","OBJECTID":505391},"geometry":{"x":166005.42000000086,"y":2543999.9600000028}},{"attributes":{"ID":505419,"DIS_CODE":0,"TOWNNAME":"安平區","LI":"建平里","LIN":"15鄰","STREET":"建平十二街","SECT":" ","MAREA":" ","LANE":" ","ALLEY":" ","HOUSE_NO":"１３４號四樓之１","E_COORD97":166005.42000000001,"N_COORD97":2543999.96,"ADDRESS":"建平十二街１３４號四樓之１","OBJECTID":505392},"geometry":{"x":166005.42000000086,"y":2543999.9600000028}},{"attributes":{"ID":505420,"DIS_CODE":0,"TOWNNAME":"安平區","LI":"建平里","LIN":"15鄰","STREET":"建平十二街","SECT":" ","MAREA":" ","LANE":" ","ALLEY":" ","HOUSE_NO":"１３４號四樓之２","E_COORD97":166005.42000000001,"N_COORD97":2543999.96,"ADDRESS":"建平十二街１３４號四樓之２","OBJECTID":505393},"geometry":{"x":166005.42000000086,"y":2543999.9600000028}},{"attributes":{"ID":505421,"DIS_CODE":0,"TOWNNAME":"安平區","LI":"建平里","LIN":"15鄰","STREET":"建平十二街","SECT":" ","MAREA":" ","LANE":" ","ALLEY":" ","HOUSE_NO":"１３４號四樓之３","E_COORD97":166005.42000000001,"N_COORD97":2543999.96,"ADDRESS":"建平十二街１３４號四樓之３","OBJECTID":505394},"geometry":{"x":166005.42000000086,"y":2543999.9600000028}},{"attributes":{"ID":505422,"DIS_CODE":0,"TOWNNAME":"安平區","LI":"建平里","LIN":"15鄰","STREET":"建平十二街","SECT":" ","MAREA":" ","LANE":" ","ALLEY":" ","HOUSE_NO":"８０號三樓之１","E_COORD97":166205.64999999999,"N_COORD97":2543969.6200000001,"ADDRESS":"建平十二街８０號三樓之１","OBJECTID":505395},"geometry":{"x":166205.65000000224,"y":2543969.620000001}},{"attributes":{"ID":505423,"DIS_CODE":0,"TOWNNAME":"安平區","LI":"建平里","LIN":"15鄰","STREET":"建平十二街","SECT":" ","MAREA":" ","LANE":" ","ALLEY":" ","HOUSE_NO":"８０號三樓之２","E_COORD97":166205.64999999999,"N_COORD97":2543969.6200000001,"ADDRESS":"建平十二街８０號三樓之２","OBJECTID":505396},"geometry":{"x":166205.65000000224,"y":2543969.620000001}},{"attributes":{"ID":505424,"DIS_CODE":0,"TOWNNAME":"安平區","LI":"建平里","LIN":"15鄰","STREET":"建平十二街","SECT":" ","MAREA":" ","LANE":" ","ALLEY":" ","HOUSE_NO":"８０號三樓之３","E_COORD97":166205.64999999999,"N_COORD97":2543969.6200000001,"ADDRESS":"建平十二街８０號三樓之３","OBJECTID":505397},"geometry":{"x":166205.65000000224,"y":2543969.620000001}},{"attributes":{"ID":505425,"DIS_CODE":0,"TOWNNAME":"安平區","LI":"建平里","LIN":"15鄰","STREET":"建平十二街","SECT":" ","MAREA":" ","LANE":" ","ALLEY":" ","HOUSE_NO":"８０號三樓之４","E_COORD97":166205.64999999999,"N_COORD97":2543969.6200000001,"ADDRESS":"建平十二街８０號三樓之４","OBJECTID":505398},"geometry":{"x":166205.65000000224,"y":2543969.620000001}},{"attributes":{"ID":505426,"DIS_CODE":0,"TOWNNAME":"安平區","LI":"建平里","LIN":"15鄰","STREET":"建平十二街","SECT":" ","MAREA":" ","LANE":" ","ALLEY":" ","HOUSE_NO":"８０號三樓之５","E_COORD97":166205.64999999999,"N_COORD97":2543969.6200000001,"ADDRESS":"建平十二街８０號三樓之５","OBJECTID":505399},"geometry":{"x":166205.65000000224,"y":2543969.620000001}},{"attributes":{"ID":505427,"DIS_CODE":0,"TOWNNAME":"安平區","LI":"建平里","LIN":"15鄰","STREET":"建平十二街","SECT":" ","MAREA":" ","LANE":" ","ALLEY":" ","HOUSE_NO":"８０號三樓之６","E_COORD97":166205.64999999999,"N_COORD97":2543969.6200000001,"ADDRESS":"建平十二街８０號三樓之６","OBJECTID":505400},"geometry":{"x":166205.65000000224,"y":2543969.620000001}}]}