{"displayFieldName":"TOWNNAME","fieldAliases":{"ID":"ID","DIS_CODE":"DIS_CODE","TOWNNAME":"TOWNNAME","LI":"LI","LIN":"LIN","STREET":"STREET","SECT":"SECT","MAREA":"MAREA","LANE":"LANE","ALLEY":"ALLEY","HOUSE_NO":"HOUSE_NO","E_COORD97":"E_COORD97","N_COORD97":"N_COORD97","ADDRESS":"ADDRESS","OBJECTID":"OBJECTID"},"geometryType":"esriGeometryPoint","spatialReference":{"wkid":102443,"latestWkid":3826},"fields":[{"name":"ID","type":"esriFieldTypeDouble","alias":"ID"},{"name":"DIS_CODE","type":"esriFieldTypeInteger","alias":"DIS_CODE"},{"name":"TOWNNAME","type":"esriFieldTypeString","alias":"TOWNNAME","length":8},{"name":"LI","type":"esriFieldTypeString","alias":"LI","length":8},{"name":"LIN","type":"esriFieldTypeString","alias":"LIN","length":12},{"name":"STREET","type":"esriFieldTypeString","alias":"STREET","length":20},{"name":"SECT","type":"esriFieldTypeString","alias":"SECT","length":8},{"name":"MAREA","type":"esriFieldTypeString","alias":"MAREA","length":12},{"name":"LANE","type":"esriFieldTypeString","alias":"LANE","length":10},{"name":"ALLEY","type":"esriFieldTypeString","alias":"ALLEY","length":10},{"name":"HOUSE_NO","type":"esriFieldTypeString","alias":"HOUSE_NO","length":20},{"name":"E_COORD97","type":"esriFieldTypeDouble","alias":"E_COORD97"},{"name":"N_COORD97","type":"esriFieldTypeDouble","alias":"N_COORD97"},{"name":"ADDRESS","type":"esriFieldTypeString","alias":"ADDRESS","length":50},{"name":"OBJECTID","type":"esriFieldTypeOID","alias":"OBJECTID"}],"features":[{"attributes":{"ID":32801,"DIS_CODE":0,"TOWNNAME":"學甲區","LI":"平和里","LIN":"14鄰","STREET":" ","SECT":" ","MAREA":"學甲寮","LANE":" ","ALLEY":" ","HOUSE_NO":"１４８號之１","E_COORD97":169666.57000000001,"N_COORD97":2573308.8599999999,"ADDRESS":"學甲寮１４８號之１","OBJECTID":32801},"geometry":{"x":169666.57000000123,"y":2573308.8600000013}},{"attributes":{"ID":32802,"DIS_CODE":0,"TOWNNAME":"學甲區","LI":"平和里","LIN":"14鄰","STREET":" ","SECT":" ","MAREA":"學甲寮","LANE":" ","ALLEY":" ","HOUSE_NO":"１４８號","E_COORD97":169661.37,"N_COORD97":2573326.04,"ADDRESS":"學甲寮１４８號","OBJECTID":32802},"geometry":{"x":169661.37000000011,"y":2573326.0400000028}},{"attributes":{"ID":32803,"DIS_CODE":0,"TOWNNAME":"學甲區","LI":"平和里","LIN":"14鄰","STREET":" ","SECT":" ","MAREA":"學甲寮","LANE":" ","ALLEY":" ","HOUSE_NO":"１４９號","E_COORD97":169689.45000000001,"N_COORD97":2573321.52,"ADDRESS":"學甲寮１４９號","OBJECTID":32803},"geometry":{"x":169689.45000000112,"y":2573321.5200000014}},{"attributes":{"ID":32804,"DIS_CODE":0,"TOWNNAME":"學甲區","LI":"平和里","LIN":"14鄰","STREET":" ","SECT":" ","MAREA":"學甲寮","LANE":" ","ALLEY":" ","HOUSE_NO":"１５０號","E_COORD97":169685.54999999999,"N_COORD97":2573295.5099999998,"ADDRESS":"學甲寮１５０號","OBJECTID":32804},"geometry":{"x":169685.54999999981,"y":2573295.5099999998}},{"attributes":{"ID":32805,"DIS_CODE":0,"TOWNNAME":"學甲區","LI":"平和里","LIN":"14鄰","STREET":" ","SECT":" ","MAREA":"學甲寮","LANE":" ","ALLEY":" ","HOUSE_NO":"１５１號","E_COORD97":169698.37,"N_COORD97":2573311.48,"ADDRESS":"學甲寮１５１號","OBJECTID":32805},"geometry":{"x":169698.37000000104,"y":2573311.4800000023}},{"attributes":{"ID":32806,"DIS_CODE":0,"TOWNNAME":"六甲區","LI":"王爺里","LIN":"14鄰","STREET":" ","SECT":" ","MAREA":"九重橋","LANE":" ","ALLEY":" ","HOUSE_NO":"１０號","E_COORD97":190176.79000000001,"N_COORD97":2567564.8500000001,"ADDRESS":"九重橋１０號","OBJECTID":32806},"geometry":{"x":190176.79000000097,"y":2567564.8500000015}},{"attributes":{"ID":32807,"DIS_CODE":0,"TOWNNAME":"六甲區","LI":"王爺里","LIN":"14鄰","STREET":" ","SECT":" ","MAREA":"九重橋","LANE":" ","ALLEY":" ","HOUSE_NO":"１０之１號","E_COORD97":190168.54000000001,"N_COORD97":2567538.7599999998,"ADDRESS":"九重橋１０之１號","OBJECTID":32807},"geometry":{"x":190168.54000000004,"y":2567538.7600000016}},{"attributes":{"ID":32808,"DIS_CODE":0,"TOWNNAME":"六甲區","LI":"王爺里","LIN":"14鄰","STREET":" ","SECT":" ","MAREA":"九重橋","LANE":" ","ALLEY":" ","HOUSE_NO":"１０之２號","E_COORD97":190214.35999999999,"N_COORD97":2567554.9300000002,"ADDRESS":"九重橋１０之２號","OBJECTID":32808},"geometry":{"x":190214.36000000034,"y":2567554.9300000016}},{"attributes":{"ID":32809,"DIS_CODE":0,"TOWNNAME":"六甲區","LI":"王爺里","LIN":"14鄰","STREET":" ","SECT":" ","MAREA":"九重橋","LANE":" ","ALLEY":" ","HOUSE_NO":"１１號之１","E_COORD97":190198.64000000001,"N_COORD97":2567297.3100000001,"ADDRESS":"九重橋１１號之１","OBJECTID":32809},"geometry":{"x":190198.64000000153,"y":2567297.3100000005}},{"attributes":{"ID":32810,"DIS_CODE":0,"TOWNNAME":"善化區","LI":"嘉北里","LIN":"8鄰","STREET":" ","SECT":" ","MAREA":"茄拔","LANE":" ","ALLEY":" ","HOUSE_NO":"１８１號之１６","E_COORD97":181156.73000000001,"N_COORD97":2560112.02,"ADDRESS":"茄拔１８１號之１６","OBJECTID":32810},"geometry":{"x":181156.73000000231,"y":2560112.0200000014}},{"attributes":{"ID":32811,"DIS_CODE":0,"TOWNNAME":"善化區","LI":"溪美里","LIN":"8鄰","STREET":" ","SECT":" ","MAREA":"溪尾","LANE":" ","ALLEY":" ","HOUSE_NO":"７２號之１５","E_COORD97":176462.37,"N_COORD97":2561316.77,"ADDRESS":"溪尾７２號之１５","OBJECTID":32811},"geometry":{"x":176462.37000000011,"y":2561316.7700000014}},{"attributes":{"ID":32812,"DIS_CODE":0,"TOWNNAME":"善化區","LI":"胡厝里","LIN":"8鄰","STREET":" ","SECT":" ","MAREA":"胡厝寮","LANE":" ","ALLEY":" ","HOUSE_NO":"２０８之８號","E_COORD97":175300.20999999999,"N_COORD97":2560237.52,"ADDRESS":"胡厝寮２０８之８號","OBJECTID":32812},"geometry":{"x":175300.21000000089,"y":2560237.5200000014}},{"attributes":{"ID":32813,"DIS_CODE":0,"TOWNNAME":"安南區","LI":"安富里","LIN":"8鄰","STREET":"郡安路","SECT":"五段","MAREA":" ","LANE":"１８４巷","ALLEY":"９４弄","HOUSE_NO":"１８號","E_COORD97":167444.92999999999,"N_COORD97":2547515.5600000001,"ADDRESS":"郡安路五段１８４巷９４弄１８號","OBJECTID":32813},"geometry":{"x":167444.9299999997,"y":2547515.5600000005}},{"attributes":{"ID":32814,"DIS_CODE":0,"TOWNNAME":"善化區","LI":"東隆里","LIN":"8鄰","STREET":" ","SECT":" ","MAREA":"東勢寮","LANE":" ","ALLEY":" ","HOUSE_NO":"２０４之３號","E_COORD97":179719.10000000001,"N_COORD97":2561739.52,"ADDRESS":"東勢寮２０４之３號","OBJECTID":32814},"geometry":{"x":179719.0999999987,"y":2561739.5200000014}},{"attributes":{"ID":32815,"DIS_CODE":0,"TOWNNAME":"善化區","LI":"胡厝里","LIN":"8鄰","STREET":" ","SECT":" ","MAREA":"胡厝寮","LANE":" ","ALLEY":" ","HOUSE_NO":"２０７號","E_COORD97":175348.56,"N_COORD97":2560375.25,"ADDRESS":"胡厝寮２０７號","OBJECTID":32815},"geometry":{"x":175348.55999999959,"y":2560375.2500000019}},{"attributes":{"ID":32816,"DIS_CODE":0,"TOWNNAME":"善化區","LI":"東隆里","LIN":"8鄰","STREET":" ","SECT":" ","MAREA":"東勢寮","LANE":" ","ALLEY":" ","HOUSE_NO":"２０２號之３","E_COORD97":179523.20999999999,"N_COORD97":2561705.02,"ADDRESS":"東勢寮２０２號之３","OBJECTID":32816},"geometry":{"x":179523.20999999996,"y":2561705.0200000014}},{"attributes":{"ID":32817,"DIS_CODE":0,"TOWNNAME":"善化區","LI":"嘉北里","LIN":"8鄰","STREET":" ","SECT":" ","MAREA":"茄拔","LANE":" ","ALLEY":" ","HOUSE_NO":"１７７之２號","E_COORD97":181132.79999999999,"N_COORD97":2559999.02,"ADDRESS":"茄拔１７７之２號","OBJECTID":32817},"geometry":{"x":181132.79999999981,"y":2559999.0200000033}},{"attributes":{"ID":32818,"DIS_CODE":0,"TOWNNAME":"善化區","LI":"東隆里","LIN":"8鄰","STREET":" ","SECT":" ","MAREA":"東勢寮","LANE":" ","ALLEY":" ","HOUSE_NO":"１９８號","E_COORD97":179813.01999999999,"N_COORD97":2561754.0099999998,"ADDRESS":"東勢寮１９８號","OBJECTID":32818},"geometry":{"x":179813.02000000048,"y":2561754.0099999998}},{"attributes":{"ID":32819,"DIS_CODE":0,"TOWNNAME":"善化區","LI":"東隆里","LIN":"8鄰","STREET":" ","SECT":" ","MAREA":"東勢寮","LANE":" ","ALLEY":" ","HOUSE_NO":"２０２之１號","E_COORD97":179488.76000000001,"N_COORD97":2561669.02,"ADDRESS":"東勢寮２０２之１號","OBJECTID":32819},"geometry":{"x":179488.75999999978,"y":2561669.0199999996}},{"attributes":{"ID":32820,"DIS_CODE":0,"TOWNNAME":"善化區","LI":"嘉北里","LIN":"8鄰","STREET":" ","SECT":" ","MAREA":"茄拔","LANE":" ","ALLEY":" ","HOUSE_NO":"１８１號之１","E_COORD97":181141.09,"N_COORD97":2560059.77,"ADDRESS":"茄拔１８１號之１","OBJECTID":32820},"geometry":{"x":181141.08999999985,"y":2560059.7700000014}},{"attributes":{"ID":32821,"DIS_CODE":0,"TOWNNAME":"善化區","LI":"嘉北里","LIN":"8鄰","STREET":" ","SECT":" ","MAREA":"茄拔","LANE":" ","ALLEY":" ","HOUSE_NO":"１８０號之１５","E_COORD97":181133.64999999999,"N_COORD97":2560124.02,"ADDRESS":"茄拔１８０號之１５","OBJECTID":32821},"geometry":{"x":181133.6500000013,"y":2560124.0199999996}},{"attributes":{"ID":32822,"DIS_CODE":0,"TOWNNAME":"善化區","LI":"東隆里","LIN":"8鄰","STREET":" ","SECT":" ","MAREA":"東勢寮","LANE":" ","ALLEY":" ","HOUSE_NO":"２０２號","E_COORD97":179724.85000000001,"N_COORD97":2561708.7599999998,"ADDRESS":"東勢寮２０２號","OBJECTID":32822},"geometry":{"x":179724.85000000056,"y":2561708.7599999998}},{"attributes":{"ID":32823,"DIS_CODE":0,"TOWNNAME":"安南區","LI":"安富里","LIN":"8鄰","STREET":"郡安路","SECT":"五段","MAREA":" ","LANE":"１８４巷","ALLEY":"９４弄","HOUSE_NO":"１９號","E_COORD97":167435.19,"N_COORD97":2547492.1600000001,"ADDRESS":"郡安路五段１８４巷９４弄１９號","OBJECTID":32823},"geometry":{"x":167435.19000000134,"y":2547492.160000002}},{"attributes":{"ID":32824,"DIS_CODE":0,"TOWNNAME":"安南區","LI":"安富里","LIN":"8鄰","STREET":"郡安路","SECT":"五段","MAREA":" ","LANE":"１８４巷","ALLEY":"９４弄","HOUSE_NO":"１號","E_COORD97":167493.04999999999,"N_COORD97":2547502.7599999998,"ADDRESS":"郡安路五段１８４巷９４弄１號","OBJECTID":32824},"geometry":{"x":167493.05000000075,"y":2547502.7599999998}},{"attributes":{"ID":32825,"DIS_CODE":0,"TOWNNAME":"安南區","LI":"安富里","LIN":"8鄰","STREET":"郡安路","SECT":"五段","MAREA":" ","LANE":"１８４巷","ALLEY":"９４弄","HOUSE_NO":"２２號","E_COORD97":167430.63,"N_COORD97":2547514.2599999998,"ADDRESS":"郡安路五段１８４巷９４弄２２號","OBJECTID":32825},"geometry":{"x":167430.62999999989,"y":2547514.2600000035}},{"attributes":{"ID":32826,"DIS_CODE":0,"TOWNNAME":"安南區","LI":"安富里","LIN":"8鄰","STREET":"郡安路","SECT":"五段","MAREA":" ","LANE":"１８４巷","ALLEY":"９４弄","HOUSE_NO":"２３號","E_COORD97":167423.26999999999,"N_COORD97":2547489.7799999998,"ADDRESS":"郡安路五段１８４巷９４弄２３號","OBJECTID":32826},"geometry":{"x":167423.27000000048,"y":2547489.7799999975}},{"attributes":{"ID":32827,"DIS_CODE":0,"TOWNNAME":"安南區","LI":"安富里","LIN":"8鄰","STREET":"郡安路","SECT":"五段","MAREA":" ","LANE":"１８４巷","ALLEY":"９４弄","HOUSE_NO":"２４號","E_COORD97":167426.95000000001,"N_COORD97":2547512.1000000001,"ADDRESS":"郡安路五段１８４巷９４弄２４號","OBJECTID":32827},"geometry":{"x":167426.95000000019,"y":2547512.1000000034}},{"attributes":{"ID":32828,"DIS_CODE":0,"TOWNNAME":"安南區","LI":"安富里","LIN":"8鄰","STREET":"郡安路","SECT":"五段","MAREA":" ","LANE":"１８４巷","ALLEY":"９４弄","HOUSE_NO":"２５號","E_COORD97":167417.64000000001,"N_COORD97":2547488.7000000002,"ADDRESS":"郡安路五段１８４巷９４弄２５號","OBJECTID":32828},"geometry":{"x":167417.6400000006,"y":2547488.7000000011}},{"attributes":{"ID":32829,"DIS_CODE":0,"TOWNNAME":"安南區","LI":"安富里","LIN":"8鄰","STREET":"郡安路","SECT":"五段","MAREA":" ","LANE":"１８４巷","ALLEY":"９４弄","HOUSE_NO":"２７號","E_COORD97":167410.70000000001,"N_COORD97":2547488.2599999998,"ADDRESS":"郡安路五段１８４巷９４弄２７號","OBJECTID":32829},"geometry":{"x":167410.70000000112,"y":2547488.2600000016}},{"attributes":{"ID":32830,"DIS_CODE":0,"TOWNNAME":"安南區","LI":"安富里","LIN":"8鄰","STREET":"郡安路","SECT":"五段","MAREA":" ","LANE":"１８４巷","ALLEY":"９４弄","HOUSE_NO":"２號","E_COORD97":167488.26999999999,"N_COORD97":2547526.8100000001,"ADDRESS":"郡安路五段１８４巷９４弄２號","OBJECTID":32830},"geometry":{"x":167488.26999999955,"y":2547526.8100000005}},{"attributes":{"ID":32831,"DIS_CODE":0,"TOWNNAME":"安南區","LI":"安富里","LIN":"8鄰","STREET":"郡安路","SECT":"五段","MAREA":" ","LANE":"１８４巷","ALLEY":"９４弄","HOUSE_NO":"３０號","E_COORD97":167412,"N_COORD97":2547509.2799999998,"ADDRESS":"郡安路五段１８４巷９４弄３０號","OBJECTID":32831},"geometry":{"x":167412.00000000093,"y":2547509.2799999993}},{"attributes":{"ID":32832,"DIS_CODE":0,"TOWNNAME":"善化區","LI":"東隆里","LIN":"8鄰","STREET":" ","SECT":" ","MAREA":"東勢寮","LANE":" ","ALLEY":" ","HOUSE_NO":"２０７之２３號","E_COORD97":179633.06,"N_COORD97":2561748.77,"ADDRESS":"東勢寮２０７之２３號","OBJECTID":32832},"geometry":{"x":179633.06000000145,"y":2561748.7699999996}},{"attributes":{"ID":32833,"DIS_CODE":0,"TOWNNAME":"善化區","LI":"胡厝里","LIN":"8鄰","STREET":" ","SECT":" ","MAREA":"胡厝寮","LANE":" ","ALLEY":" ","HOUSE_NO":"２０８號之１３","E_COORD97":175357,"N_COORD97":2560223.77,"ADDRESS":"胡厝寮２０８號之１３","OBJECTID":32833},"geometry":{"x":175357.00000000093,"y":2560223.7699999996}},{"attributes":{"ID":32834,"DIS_CODE":0,"TOWNNAME":"安南區","LI":"安富里","LIN":"8鄰","STREET":"郡安路","SECT":"五段","MAREA":" ","LANE":"１８４巷","ALLEY":"９４弄","HOUSE_NO":"３２號","E_COORD97":167407.88,"N_COORD97":2547507.5499999998,"ADDRESS":"郡安路五段１８４巷９４弄３２號","OBJECTID":32834},"geometry":{"x":167407.88000000082,"y":2547507.5500000026}},{"attributes":{"ID":32835,"DIS_CODE":0,"TOWNNAME":"安南區","LI":"安富里","LIN":"8鄰","STREET":"郡安路","SECT":"五段","MAREA":" ","LANE":"１８４巷","ALLEY":"９４弄","HOUSE_NO":"４０號","E_COORD97":167381.63,"N_COORD97":2547501.7999999998,"ADDRESS":"郡安路五段１８４巷９４弄４０號","OBJECTID":32835},"geometry":{"x":167381.63000000175,"y":2547501.8000000045}},{"attributes":{"ID":32836,"DIS_CODE":0,"TOWNNAME":"安南區","LI":"安富里","LIN":"8鄰","STREET":"郡安路","SECT":"五段","MAREA":" ","LANE":"１８４巷","ALLEY":"９４弄","HOUSE_NO":"４２號","E_COORD97":167374.92000000001,"N_COORD97":2547500.9399999999,"ADDRESS":"郡安路五段１８４巷９４弄４２號","OBJECTID":32836},"geometry":{"x":167374.92000000086,"y":2547500.9399999995}},{"attributes":{"ID":32837,"DIS_CODE":0,"TOWNNAME":"安南區","LI":"安富里","LIN":"8鄰","STREET":"郡安路","SECT":"五段","MAREA":" ","LANE":"１８４巷","ALLEY":"９４弄","HOUSE_NO":"４４號","E_COORD97":167371.23000000001,"N_COORD97":2547499.4199999999,"ADDRESS":"郡安路五段１８４巷９４弄４４號","OBJECTID":32837},"geometry":{"x":167371.23000000045,"y":2547499.4199999999}},{"attributes":{"ID":32838,"DIS_CODE":0,"TOWNNAME":"安南區","LI":"安富里","LIN":"8鄰","STREET":"郡安路","SECT":"五段","MAREA":" ","LANE":"１８４巷","ALLEY":"９４弄","HOUSE_NO":"４６號","E_COORD97":167364.07999999999,"N_COORD97":2547497.9100000001,"ADDRESS":"郡安路五段１８４巷９４弄４６號","OBJECTID":32838},"geometry":{"x":167364.08000000101,"y":2547497.910000002}},{"attributes":{"ID":32839,"DIS_CODE":0,"TOWNNAME":"安南區","LI":"安富里","LIN":"8鄰","STREET":"郡安路","SECT":"五段","MAREA":" ","LANE":"１８４巷","ALLEY":"９４弄","HOUSE_NO":"４號","E_COORD97":167483.51000000001,"N_COORD97":2547525.0800000001,"ADDRESS":"郡安路五段１８４巷９４弄４號","OBJECTID":32839},"geometry":{"x":167483.50999999978,"y":2547525.0800000001}},{"attributes":{"ID":32840,"DIS_CODE":0,"TOWNNAME":"安南區","LI":"\u25A0田里","LIN":"1鄰","STREET":"大眾路","SECT":" ","MAREA":" ","LANE":"１０１巷","ALLEY":"１２３弄","HOUSE_NO":"１６號","E_COORD97":161984.37898099999,"N_COORD97":2547470.81305,"ADDRESS":"大眾路１０１巷１２３弄１６號","OBJECTID":32840},"geometry":{"x":161984.37898099981,"y":2547470.8130510002}},{"attributes":{"ID":32841,"DIS_CODE":0,"TOWNNAME":"安南區","LI":"安富里","LIN":"8鄰","STREET":"郡安路","SECT":"五段","MAREA":" ","LANE":"１８４巷","ALLEY":"９４弄","HOUSE_NO":"５２號","E_COORD97":167341.76000000001,"N_COORD97":2547487.9500000002,"ADDRESS":"郡安路五段１８４巷９４弄５２號","OBJECTID":32841},"geometry":{"x":167341.76000000164,"y":2547487.9499999993}},{"attributes":{"ID":32842,"DIS_CODE":0,"TOWNNAME":"南區","LI":"國宅里","LIN":"14鄰","STREET":"尊南街","SECT":" ","MAREA":" ","LANE":" ","ALLEY":" ","HOUSE_NO":"５號","E_COORD97":166800.70000000001,"N_COORD97":2541770.2000000002,"ADDRESS":"尊南街５號","OBJECTID":32842},"geometry":{"x":166800.70000000112,"y":2541770.1999999993}},{"attributes":{"ID":32843,"DIS_CODE":0,"TOWNNAME":"南區","LI":"新生里","LIN":"14鄰","STREET":"大同路","SECT":"二段","MAREA":" ","LANE":" ","ALLEY":" ","HOUSE_NO":"１１４號","E_COORD97":169267.54000000001,"N_COORD97":2542257.6400000001,"ADDRESS":"大同路二段１１４號","OBJECTID":32843},"geometry":{"x":169267.5400000019,"y":2542257.6400000043}},{"attributes":{"ID":32844,"DIS_CODE":0,"TOWNNAME":"南區","LI":"新生里","LIN":"14鄰","STREET":"大同路","SECT":"二段","MAREA":" ","LANE":" ","ALLEY":" ","HOUSE_NO":"１１６號","E_COORD97":169269.14999999999,"N_COORD97":2542253.1899999999,"ADDRESS":"大同路二段１１６號","OBJECTID":32844},"geometry":{"x":169269.1500000013,"y":2542253.1900000013}},{"attributes":{"ID":32845,"DIS_CODE":0,"TOWNNAME":"安南區","LI":"安富里","LIN":"8鄰","STREET":"郡安路","SECT":"五段","MAREA":" ","LANE":"１８４巷","ALLEY":"９４弄","HOUSE_NO":"５４號","E_COORD97":167337.20999999999,"N_COORD97":2547490.5499999998,"ADDRESS":"郡安路五段１８４巷９４弄５４號","OBJECTID":32845},"geometry":{"x":167337.21000000183,"y":2547490.5500000026}},{"attributes":{"ID":32846,"DIS_CODE":0,"TOWNNAME":"安南區","LI":"安富里","LIN":"8鄰","STREET":"郡安路","SECT":"五段","MAREA":" ","LANE":"１８４巷","ALLEY":"９４弄","HOUSE_NO":"５６號","E_COORD97":167333.09,"N_COORD97":2547487.0899999999,"ADDRESS":"郡安路五段１８４巷９４弄５６號","OBJECTID":32846},"geometry":{"x":167333.09000000078,"y":2547487.0899999999}},{"attributes":{"ID":32847,"DIS_CODE":0,"TOWNNAME":"安南區","LI":"安富里","LIN":"8鄰","STREET":"郡安路","SECT":"五段","MAREA":" ","LANE":"１８４巷","ALLEY":"９４弄","HOUSE_NO":"５８號","E_COORD97":167327.67999999999,"N_COORD97":2547486.2200000002,"ADDRESS":"郡安路五段１８４巷９４弄５８號","OBJECTID":32847},"geometry":{"x":167327.68000000063,"y":2547486.2200000025}},{"attributes":{"ID":32848,"DIS_CODE":0,"TOWNNAME":"安南區","LI":"安富里","LIN":"8鄰","STREET":"郡安路","SECT":"五段","MAREA":" ","LANE":"１８４巷","ALLEY":"９４弄","HOUSE_NO":"５號","E_COORD97":167480.91,"N_COORD97":2547501.6800000002,"ADDRESS":"郡安路五段１８４巷９４弄５號","OBJECTID":32848},"geometry":{"x":167480.91000000015,"y":2547501.6800000016}},{"attributes":{"ID":32849,"DIS_CODE":0,"TOWNNAME":"安南區","LI":"安富里","LIN":"8鄰","STREET":"郡安路","SECT":"五段","MAREA":" ","LANE":"１８４巷","ALLEY":"９４弄","HOUSE_NO":"６０號","E_COORD97":167322.69,"N_COORD97":2547484.9300000002,"ADDRESS":"郡安路五段１８４巷９４弄６０號","OBJECTID":32849},"geometry":{"x":167322.69000000134,"y":2547484.9299999997}},{"attributes":{"ID":32850,"DIS_CODE":0,"TOWNNAME":"安南區","LI":"安富里","LIN":"8鄰","STREET":"郡安路","SECT":"五段","MAREA":" ","LANE":"１８４巷","ALLEY":"９４弄","HOUSE_NO":"６號","E_COORD97":167478.95999999999,"N_COORD97":2547522.48,"ADDRESS":"郡安路五段１８４巷９４弄６號","OBJECTID":32850},"geometry":{"x":167478.95999999996,"y":2547522.4800000004}},{"attributes":{"ID":32851,"DIS_CODE":0,"TOWNNAME":"安南區","LI":"安富里","LIN":"8鄰","STREET":"郡安路","SECT":"五段","MAREA":" ","LANE":"１８４巷","ALLEY":"９４弄","HOUSE_NO":"７號","E_COORD97":167475.5,"N_COORD97":2547500.3799999999,"ADDRESS":"郡安路五段１８４巷９４弄７號","OBJECTID":32851},"geometry":{"x":167475.5,"y":2547500.3800000008}},{"attributes":{"ID":32852,"DIS_CODE":0,"TOWNNAME":"安南區","LI":"安富里","LIN":"8鄰","STREET":"郡安路","SECT":"五段","MAREA":" ","LANE":"１８４巷","ALLEY":"９４弄","HOUSE_NO":"８號","E_COORD97":167473.75,"N_COORD97":2547522.0499999998,"ADDRESS":"郡安路五段１８４巷９４弄８號","OBJECTID":32852},"geometry":{"x":167473.75,"y":2547522.0500000007}},{"attributes":{"ID":32853,"DIS_CODE":0,"TOWNNAME":"安南區","LI":"理想里","LIN":"8鄰","STREET":"海佃路","SECT":"二段","MAREA":" ","LANE":"１５０巷","ALLEY":"９４弄","HOUSE_NO":"２６號","E_COORD97":167239.17999999999,"N_COORD97":2548274.3500000001,"ADDRESS":"海佃路二段１５０巷９４弄２６號","OBJECTID":32853},"geometry":{"x":167239.18000000063,"y":2548274.3500000015}},{"attributes":{"ID":32854,"DIS_CODE":0,"TOWNNAME":"仁德區","LI":"太子里","LIN":"8鄰","STREET":"太子路","SECT":" ","MAREA":" ","LANE":"１７２巷","ALLEY":"１弄","HOUSE_NO":"６號","E_COORD97":174355.57000000001,"N_COORD97":2543560.75,"ADDRESS":"太子路１７２巷１弄６號","OBJECTID":32854},"geometry":{"x":174355.57000000123,"y":2543560.75}},{"attributes":{"ID":32855,"DIS_CODE":0,"TOWNNAME":"仁德區","LI":"太子里","LIN":"8鄰","STREET":"太子路","SECT":" ","MAREA":" ","LANE":"１７２巷","ALLEY":"１弄","HOUSE_NO":"７號","E_COORD97":174356.39000000001,"N_COORD97":2543547.5099999998,"ADDRESS":"太子路１７２巷１弄７號","OBJECTID":32855},"geometry":{"x":174356.38999999966,"y":2543547.5100000016}},{"attributes":{"ID":32856,"DIS_CODE":0,"TOWNNAME":"仁德區","LI":"太子里","LIN":"8鄰","STREET":"太子路","SECT":" ","MAREA":" ","LANE":"１７２巷","ALLEY":"１弄","HOUSE_NO":"１號","E_COORD97":174370.70000000001,"N_COORD97":2543548.0099999998,"ADDRESS":"太子路１７２巷１弄１號","OBJECTID":32856},"geometry":{"x":174370.70000000205,"y":2543548.0099999998}},{"attributes":{"ID":32857,"DIS_CODE":0,"TOWNNAME":"仁德區","LI":"保安里","LIN":"8鄰","STREET":"文賢路","SECT":"一段","MAREA":" ","LANE":"７６３巷","ALLEY":"１８弄","HOUSE_NO":"８號","E_COORD97":171577.72717100001,"N_COORD97":2536128.9090399998,"ADDRESS":"文賢路一段７６３巷１８弄８號","OBJECTID":32857},"geometry":{"x":171577.72717100196,"y":2536128.9090370014}},{"attributes":{"ID":32858,"DIS_CODE":0,"TOWNNAME":"仁德區","LI":"保安里","LIN":"8鄰","STREET":"文賢路","SECT":"一段","MAREA":" ","LANE":"７６３巷","ALLEY":"１８弄","HOUSE_NO":"６號","E_COORD97":171582.38767600001,"N_COORD97":2536142.0323600001,"ADDRESS":"文賢路一段７６３巷１８弄６號","OBJECTID":32858},"geometry":{"x":171582.38767599966,"y":2536142.0323640015}},{"attributes":{"ID":32859,"DIS_CODE":0,"TOWNNAME":"安南區","LI":"理想里","LIN":"8鄰","STREET":"海佃路","SECT":"二段","MAREA":" ","LANE":"１５０巷","ALLEY":"９４弄","HOUSE_NO":"１１號","E_COORD97":167192.10000000001,"N_COORD97":2548331.73,"ADDRESS":"海佃路二段１５０巷９４弄１１號","OBJECTID":32859},"geometry":{"x":167192.10000000056,"y":2548331.7300000004}},{"attributes":{"ID":32860,"DIS_CODE":0,"TOWNNAME":"安南區","LI":"理想里","LIN":"8鄰","STREET":"海佃路","SECT":"二段","MAREA":" ","LANE":"１５０巷","ALLEY":"９４弄","HOUSE_NO":"１２號","E_COORD97":167180.16,"N_COORD97":2548311.2200000002,"ADDRESS":"海佃路二段１５０巷９４弄１２號","OBJECTID":32860},"geometry":{"x":167180.16000000108,"y":2548311.2200000007}},{"attributes":{"ID":32861,"DIS_CODE":0,"TOWNNAME":"安定區","LI":"六嘉里","LIN":"7鄰","STREET":" ","SECT":" ","MAREA":"六塊寮","LANE":" ","ALLEY":" ","HOUSE_NO":"５４號","E_COORD97":170165.62,"N_COORD97":2553385.27,"ADDRESS":"六塊寮５４號","OBJECTID":32861},"geometry":{"x":170165.62000000104,"y":2553385.2699999996}},{"attributes":{"ID":32862,"DIS_CODE":0,"TOWNNAME":"安南區","LI":"理想里","LIN":"8鄰","STREET":"海佃路","SECT":"二段","MAREA":" ","LANE":"１５０巷","ALLEY":"９４弄","HOUSE_NO":"１３號","E_COORD97":167200.04000000001,"N_COORD97":2548327.3300000001,"ADDRESS":"海佃路二段１５０巷９４弄１３號","OBJECTID":32862},"geometry":{"x":167200.04000000097,"y":2548327.3300000001}},{"attributes":{"ID":32863,"DIS_CODE":0,"TOWNNAME":"安南區","LI":"理想里","LIN":"8鄰","STREET":"海佃路","SECT":"二段","MAREA":" ","LANE":"１５０巷","ALLEY":"９４弄","HOUSE_NO":"１４號","E_COORD97":167188.17000000001,"N_COORD97":2548306.4900000002,"ADDRESS":"海佃路二段１５０巷９４弄１４號","OBJECTID":32863},"geometry":{"x":167188.17000000179,"y":2548306.4900000039}},{"attributes":{"ID":32864,"DIS_CODE":0,"TOWNNAME":"安南區","LI":"理想里","LIN":"8鄰","STREET":"海佃路","SECT":"二段","MAREA":" ","LANE":"１５０巷","ALLEY":"９４弄","HOUSE_NO":"１５號","E_COORD97":167206.42999999999,"N_COORD97":2548323.1400000001,"ADDRESS":"海佃路二段１５０巷９４弄１５號","OBJECTID":32864},"geometry":{"x":167206.42999999877,"y":2548323.1400000043}},{"attributes":{"ID":32865,"DIS_CODE":0,"TOWNNAME":"安南區","LI":"理想里","LIN":"8鄰","STREET":"海佃路","SECT":"二段","MAREA":" ","LANE":"１５０巷","ALLEY":"９４弄","HOUSE_NO":"１６號","E_COORD97":167194.04999999999,"N_COORD97":2548302.5699999998,"ADDRESS":"海佃路二段１５０巷９４弄１６號","OBJECTID":32865},"geometry":{"x":167194.05000000168,"y":2548302.5699999984}},{"attributes":{"ID":32866,"DIS_CODE":0,"TOWNNAME":"安南區","LI":"理想里","LIN":"8鄰","STREET":"海佃路","SECT":"二段","MAREA":" ","LANE":"１５０巷","ALLEY":"９４弄","HOUSE_NO":"１７號","E_COORD97":167220.32000000001,"N_COORD97":2548312.5699999998,"ADDRESS":"海佃路二段１５０巷９４弄１７號","OBJECTID":32866},"geometry":{"x":167220.32000000123,"y":2548312.5700000003}},{"attributes":{"ID":32867,"DIS_CODE":0,"TOWNNAME":"南區","LI":"明興里","LIN":"14鄰","STREET":"金華路","SECT":"一段","MAREA":" ","LANE":" ","ALLEY":" ","HOUSE_NO":"１０號","E_COORD97":166881.34,"N_COORD97":2540267.4500000002,"ADDRESS":"金華路一段１０號","OBJECTID":32867},"geometry":{"x":166881.33999999985,"y":2540267.450000003}},{"attributes":{"ID":32868,"DIS_CODE":0,"TOWNNAME":"南區","LI":"明興里","LIN":"14鄰","STREET":"金華路","SECT":"一段","MAREA":" ","LANE":" ","ALLEY":" ","HOUSE_NO":"１２號","E_COORD97":166881.67000000001,"N_COORD97":2540273.8799999999,"ADDRESS":"金華路一段１２號","OBJECTID":32868},"geometry":{"x":166881.67000000086,"y":2540273.879999999}},{"attributes":{"ID":32869,"DIS_CODE":0,"TOWNNAME":"南區","LI":"明興里","LIN":"14鄰","STREET":"金華路","SECT":"一段","MAREA":" ","LANE":" ","ALLEY":" ","HOUSE_NO":"１４號","E_COORD97":166882.32999999999,"N_COORD97":2540279.4100000001,"ADDRESS":"金華路一段１４號","OBJECTID":32869},"geometry":{"x":166882.33000000101,"y":2540279.410000002}},{"attributes":{"ID":32870,"DIS_CODE":0,"TOWNNAME":"南區","LI":"明興里","LIN":"14鄰","STREET":"金華路","SECT":"一段","MAREA":" ","LANE":" ","ALLEY":" ","HOUSE_NO":"１６號","E_COORD97":166883.14999999999,"N_COORD97":2540284.4500000002,"ADDRESS":"金華路一段１６號","OBJECTID":32870},"geometry":{"x":166883.15000000037,"y":2540284.450000003}},{"attributes":{"ID":32871,"DIS_CODE":0,"TOWNNAME":"南區","LI":"明興里","LIN":"14鄰","STREET":"金華路","SECT":"一段","MAREA":" ","LANE":" ","ALLEY":" ","HOUSE_NO":"２號","E_COORD97":166877.04999999999,"N_COORD97":2540241.5499999998,"ADDRESS":"金華路一段２號","OBJECTID":32871},"geometry":{"x":166877.05000000168,"y":2540241.5500000026}},{"attributes":{"ID":32872,"DIS_CODE":0,"TOWNNAME":"善化區","LI":"東昌里","LIN":"8鄰","STREET":" ","SECT":" ","MAREA":"東勢寮","LANE":" ","ALLEY":" ","HOUSE_NO":"８６號之３","E_COORD97":180367.25,"N_COORD97":2562018.77,"ADDRESS":"東勢寮８６號之３","OBJECTID":32872},"geometry":{"x":180367.25,"y":2562018.7700000014}},{"attributes":{"ID":32873,"DIS_CODE":0,"TOWNNAME":"善化區","LI":"嘉北里","LIN":"8鄰","STREET":" ","SECT":" ","MAREA":"茄拔","LANE":" ","ALLEY":" ","HOUSE_NO":"１８１號之７","E_COORD97":181110.03,"N_COORD97":2560074.27,"ADDRESS":"茄拔１８１號之７","OBJECTID":32873},"geometry":{"x":181110.03000000026,"y":2560074.2699999996}},{"attributes":{"ID":32874,"DIS_CODE":0,"TOWNNAME":"善化區","LI":"東隆里","LIN":"8鄰","STREET":" ","SECT":" ","MAREA":"東勢寮","LANE":" ","ALLEY":" ","HOUSE_NO":"２０７號之２０","E_COORD97":179547.79999999999,"N_COORD97":2561738.27,"ADDRESS":"東勢寮２０７號之２０","OBJECTID":32874},"geometry":{"x":179547.79999999981,"y":2561738.2700000014}},{"attributes":{"ID":32875,"DIS_CODE":0,"TOWNNAME":"善化區","LI":"東隆里","LIN":"8鄰","STREET":" ","SECT":" ","MAREA":"東勢寮","LANE":" ","ALLEY":" ","HOUSE_NO":"２１１之８號","E_COORD97":179714.85000000001,"N_COORD97":2561868.77,"ADDRESS":"東勢寮２１１之８號","OBJECTID":32875},"geometry":{"x":179714.85000000056,"y":2561868.7700000033}},{"attributes":{"ID":32876,"DIS_CODE":0,"TOWNNAME":"善化區","LI":"東隆里","LIN":"8鄰","STREET":" ","SECT":" ","MAREA":"東勢寮","LANE":" ","ALLEY":" ","HOUSE_NO":"１９７號","E_COORD97":179810.79999999999,"N_COORD97":2561775.2599999998,"ADDRESS":"東勢寮１９７號","OBJECTID":32876},"geometry":{"x":179810.79999999981,"y":2561775.2600000016}},{"attributes":{"ID":32877,"DIS_CODE":0,"TOWNNAME":"善化區","LI":"東隆里","LIN":"8鄰","STREET":" ","SECT":" ","MAREA":"東勢寮","LANE":" ","ALLEY":" ","HOUSE_NO":"２０２之１１號","E_COORD97":179542.51999999999,"N_COORD97":2561666.27,"ADDRESS":"東勢寮２０２之１１號","OBJECTID":32877},"geometry":{"x":179542.51999999955,"y":2561666.2700000014}},{"attributes":{"ID":32878,"DIS_CODE":0,"TOWNNAME":"善化區","LI":"嘉北里","LIN":"8鄰","STREET":" ","SECT":" ","MAREA":"茄拔","LANE":" ","ALLEY":" ","HOUSE_NO":"１８０之１６號","E_COORD97":181129,"N_COORD97":2560124.27,"ADDRESS":"茄拔１８０之１６號","OBJECTID":32878},"geometry":{"x":181129.00000000186,"y":2560124.2700000014}},{"attributes":{"ID":32879,"DIS_CODE":0,"TOWNNAME":"安南區","LI":"理想里","LIN":"8鄰","STREET":"海佃路","SECT":"二段","MAREA":" ","LANE":"１５０巷","ALLEY":"９４弄","HOUSE_NO":"１８號","E_COORD97":167210.72,"N_COORD97":2548291.8599999999,"ADDRESS":"海佃路二段１５０巷９４弄１８號","OBJECTID":32879},"geometry":{"x":167210.71999999974,"y":2548291.8599999994}},{"attributes":{"ID":32880,"DIS_CODE":0,"TOWNNAME":"安南區","LI":"理想里","LIN":"8鄰","STREET":"海佃路","SECT":"二段","MAREA":" ","LANE":"１５０巷","ALLEY":"９４弄","HOUSE_NO":"１９號","E_COORD97":167230.76999999999,"N_COORD97":2548307.6400000001,"ADDRESS":"海佃路二段１５０巷９４弄１９號","OBJECTID":32880},"geometry":{"x":167230.76999999955,"y":2548307.6400000025}},{"attributes":{"ID":32881,"DIS_CODE":0,"TOWNNAME":"安南區","LI":"理想里","LIN":"8鄰","STREET":"海佃路","SECT":"二段","MAREA":" ","LANE":"１５０巷","ALLEY":"９４弄","HOUSE_NO":"１號","E_COORD97":167156.39000000001,"N_COORD97":2548353.3100000001,"ADDRESS":"海佃路二段１５０巷９４弄１號","OBJECTID":32881},"geometry":{"x":167156.3900000006,"y":2548353.3100000024}},{"attributes":{"ID":32882,"DIS_CODE":0,"TOWNNAME":"安南區","LI":"理想里","LIN":"8鄰","STREET":"海佃路","SECT":"二段","MAREA":" ","LANE":"１５０巷","ALLEY":"９４弄","HOUSE_NO":"２０號","E_COORD97":167216.92999999999,"N_COORD97":2548288.75,"ADDRESS":"海佃路二段１５０巷９４弄２０號","OBJECTID":32882},"geometry":{"x":167216.93000000063,"y":2548288.7500000019}},{"attributes":{"ID":32883,"DIS_CODE":0,"TOWNNAME":"安南區","LI":"理想里","LIN":"8鄰","STREET":"海佃路","SECT":"二段","MAREA":" ","LANE":"１５０巷","ALLEY":"９４弄","HOUSE_NO":"２１號","E_COORD97":167237.64999999999,"N_COORD97":2548303.2799999998,"ADDRESS":"海佃路二段１５０巷９４弄２１號","OBJECTID":32883},"geometry":{"x":167237.65000000037,"y":2548303.2799999993}},{"attributes":{"ID":32884,"DIS_CODE":0,"TOWNNAME":"安南區","LI":"理想里","LIN":"8鄰","STREET":"海佃路","SECT":"二段","MAREA":" ","LANE":"１５０巷","ALLEY":"９４弄","HOUSE_NO":"２２號","E_COORD97":167224.45000000001,"N_COORD97":2548283.2000000002,"ADDRESS":"海佃路二段１５０巷９４弄２２號","OBJECTID":32884},"geometry":{"x":167224.45000000112,"y":2548283.1999999993}},{"attributes":{"ID":32885,"DIS_CODE":0,"TOWNNAME":"安南區","LI":"理想里","LIN":"8鄰","STREET":"海佃路","SECT":"二段","MAREA":" ","LANE":"１５０巷","ALLEY":"９４弄","HOUSE_NO":"２３號","E_COORD97":167245.32000000001,"N_COORD97":2548299.8399999999,"ADDRESS":"海佃路二段１５０巷９４弄２３號","OBJECTID":32885},"geometry":{"x":167245.32000000216,"y":2548299.8399999999}},{"attributes":{"ID":32886,"DIS_CODE":0,"TOWNNAME":"安南區","LI":"理想里","LIN":"8鄰","STREET":"海佃路","SECT":"二段","MAREA":" ","LANE":"１５０巷","ALLEY":"９４弄","HOUSE_NO":"２４號","E_COORD97":167232.59,"N_COORD97":2548279,"ADDRESS":"海佃路二段１５０巷９４弄２４號","OBJECTID":32886},"geometry":{"x":167232.58999999892,"y":2548278.9999999981}},{"attributes":{"ID":32887,"DIS_CODE":0,"TOWNNAME":"安南區","LI":"理想里","LIN":"8鄰","STREET":"海佃路","SECT":"二段","MAREA":" ","LANE":"１５０巷","ALLEY":"９４弄","HOUSE_NO":"２５號","E_COORD97":167251.20000000001,"N_COORD97":2548294.6000000001,"ADDRESS":"海佃路二段１５０巷９４弄２５號","OBJECTID":32887},"geometry":{"x":167251.20000000112,"y":2548294.5999999996}},{"attributes":{"ID":32888,"DIS_CODE":0,"TOWNNAME":"安南區","LI":"理想里","LIN":"8鄰","STREET":"海佃路","SECT":"二段","MAREA":" ","LANE":"１５０巷","ALLEY":"９４弄","HOUSE_NO":"２７號","E_COORD97":167259.17999999999,"N_COORD97":2548291.0099999998,"ADDRESS":"海佃路二段１５０巷９４弄２７號","OBJECTID":32888},"geometry":{"x":167259.18000000156,"y":2548291.0099999998}},{"attributes":{"ID":32889,"DIS_CODE":0,"TOWNNAME":"安南區","LI":"理想里","LIN":"8鄰","STREET":"海佃路","SECT":"二段","MAREA":" ","LANE":"１５０巷","ALLEY":"９４弄","HOUSE_NO":"２８號","E_COORD97":167245.95999999999,"N_COORD97":2548270.7999999998,"ADDRESS":"海佃路二段１５０巷９４弄２８號","OBJECTID":32889},"geometry":{"x":167245.96000000089,"y":2548270.8000000007}},{"attributes":{"ID":32890,"DIS_CODE":0,"TOWNNAME":"安南區","LI":"理想里","LIN":"8鄰","STREET":"海佃路","SECT":"二段","MAREA":" ","LANE":"１５０巷","ALLEY":"９４弄","HOUSE_NO":"２９號","E_COORD97":167266.81,"N_COORD97":2548285.9399999999,"ADDRESS":"海佃路二段１５０巷９４弄２９號","OBJECTID":32890},"geometry":{"x":167266.81000000052,"y":2548285.9400000032}},{"attributes":{"ID":32891,"DIS_CODE":0,"TOWNNAME":"安南區","LI":"理想里","LIN":"8鄰","STREET":"海佃路","SECT":"二段","MAREA":" ","LANE":"１５０巷","ALLEY":"９４弄","HOUSE_NO":"２號","E_COORD97":167144.20000000001,"N_COORD97":2548332.1200000001,"ADDRESS":"海佃路二段１５０巷９４弄２號","OBJECTID":32891},"geometry":{"x":167144.20000000205,"y":2548332.120000001}},{"attributes":{"ID":32892,"DIS_CODE":0,"TOWNNAME":"安南區","LI":"理想里","LIN":"8鄰","STREET":"海佃路","SECT":"二段","MAREA":" ","LANE":"１５０巷","ALLEY":"９４弄","HOUSE_NO":"３１號","E_COORD97":167273.10999999999,"N_COORD97":2548281.6299999999,"ADDRESS":"海佃路二段１５０巷９４弄３１號","OBJECTID":32892},"geometry":{"x":167273.11000000034,"y":2548281.6300000008}},{"attributes":{"ID":32893,"DIS_CODE":0,"TOWNNAME":"安南區","LI":"理想里","LIN":"8鄰","STREET":"海佃路","SECT":"二段","MAREA":" ","LANE":"１５０巷","ALLEY":"９４弄","HOUSE_NO":"３２號","E_COORD97":167260.95000000001,"N_COORD97":2548261.7000000002,"ADDRESS":"海佃路二段１５０巷９４弄３２號","OBJECTID":32893},"geometry":{"x":167260.95000000019,"y":2548261.7000000011}},{"attributes":{"ID":32894,"DIS_CODE":0,"TOWNNAME":"安南區","LI":"理想里","LIN":"8鄰","STREET":"海佃路","SECT":"二段","MAREA":" ","LANE":"１５０巷","ALLEY":"９４弄","HOUSE_NO":"３號","E_COORD97":167164.10000000001,"N_COORD97":2548348.8999999999,"ADDRESS":"海佃路二段１５０巷９４弄３號","OBJECTID":32894},"geometry":{"x":167164.09999999963,"y":2548348.9000000022}},{"attributes":{"ID":32895,"DIS_CODE":0,"TOWNNAME":"安南區","LI":"理想里","LIN":"8鄰","STREET":"海佃路","SECT":"二段","MAREA":" ","LANE":"１５０巷","ALLEY":"９４弄","HOUSE_NO":"４號","E_COORD97":167150.57999999999,"N_COORD97":2548329.02,"ADDRESS":"海佃路二段１５０巷９４弄４號","OBJECTID":32895},"geometry":{"x":167150.58000000101,"y":2548329.0199999996}},{"attributes":{"ID":32896,"DIS_CODE":0,"TOWNNAME":"安南區","LI":"理想里","LIN":"8鄰","STREET":"海佃路","SECT":"二段","MAREA":" ","LANE":"１５０巷","ALLEY":"９４弄","HOUSE_NO":"５號","E_COORD97":167172.04000000001,"N_COORD97":2548343.8399999999,"ADDRESS":"海佃路二段１５０巷９４弄５號","OBJECTID":32896},"geometry":{"x":167172.04000000004,"y":2548343.8399999999}},{"attributes":{"ID":32897,"DIS_CODE":0,"TOWNNAME":"安南區","LI":"理想里","LIN":"8鄰","STREET":"海佃路","SECT":"二段","MAREA":" ","LANE":"１５０巷","ALLEY":"９４弄","HOUSE_NO":"６號","E_COORD97":167158.59,"N_COORD97":2548323.96,"ADDRESS":"海佃路二段１５０巷９４弄６號","OBJECTID":32897},"geometry":{"x":167158.59000000078,"y":2548323.9600000009}},{"attributes":{"ID":32898,"DIS_CODE":0,"TOWNNAME":"安南區","LI":"理想里","LIN":"8鄰","STREET":"海佃路","SECT":"二段","MAREA":" ","LANE":"１５０巷","ALLEY":"９４弄","HOUSE_NO":"７號","E_COORD97":167178.20999999999,"N_COORD97":2548339.8799999999,"ADDRESS":"海佃路二段１５０巷９４弄７號","OBJECTID":32898},"geometry":{"x":167178.21000000089,"y":2548339.8800000027}},{"attributes":{"ID":32899,"DIS_CODE":0,"TOWNNAME":"安南區","LI":"理想里","LIN":"8鄰","STREET":"海佃路","SECT":"二段","MAREA":" ","LANE":"１５０巷","ALLEY":"９４弄","HOUSE_NO":"８號","E_COORD97":167164.63,"N_COORD97":2548319.8799999999,"ADDRESS":"海佃路二段１５０巷９４弄８號","OBJECTID":32899},"geometry":{"x":167164.63000000175,"y":2548319.8800000008}},{"attributes":{"ID":32900,"DIS_CODE":0,"TOWNNAME":"安南區","LI":"理想里","LIN":"8鄰","STREET":"海佃路","SECT":"二段","MAREA":" ","LANE":"１５０巷","ALLEY":"９４弄","HOUSE_NO":"９號","E_COORD97":167184.60999999999,"N_COORD97":2548335.4700000002,"ADDRESS":"海佃路二段１５０巷９４弄９號","OBJECTID":32900},"geometry":{"x":167184.61000000127,"y":2548335.4700000025}},{"attributes":{"ID":32901,"DIS_CODE":0,"TOWNNAME":"安南區","LI":"公\u25A0里","LIN":"8鄰","STREET":"安興街","SECT":" ","MAREA":" ","LANE":"１８１巷","ALLEY":"１０７弄","HOUSE_NO":"６號","E_COORD97":163873.37,"N_COORD97":2551838.4900000002,"ADDRESS":"安興街１８１巷１０７弄６號","OBJECTID":32901},"geometry":{"x":163873.37000000104,"y":2551838.4900000002}},{"attributes":{"ID":32902,"DIS_CODE":0,"TOWNNAME":"永康區","LI":"五王里","LIN":"8鄰","STREET":"中山東路","SECT":" ","MAREA":" ","LANE":"２１８巷","ALLEY":"２３弄","HOUSE_NO":"４３號","E_COORD97":171739.10000000001,"N_COORD97":2545626.0800000001,"ADDRESS":"中山東路２１８巷２３弄４３號","OBJECTID":32902},"geometry":{"x":171739.09999999963,"y":2545626.0800000001}},{"attributes":{"ID":32903,"DIS_CODE":0,"TOWNNAME":"永康區","LI":"五王里","LIN":"8鄰","STREET":"中山東路","SECT":" ","MAREA":" ","LANE":"２１８巷","ALLEY":"２３弄","HOUSE_NO":"３１號","E_COORD97":171732.06,"N_COORD97":2545653.8199999998,"ADDRESS":"中山東路２１８巷２３弄３１號","OBJECTID":32903},"geometry":{"x":171732.06000000052,"y":2545653.8200000022}},{"attributes":{"ID":32904,"DIS_CODE":0,"TOWNNAME":"善化區","LI":"東隆里","LIN":"8鄰","STREET":" ","SECT":" ","MAREA":"東勢寮","LANE":" ","ALLEY":" ","HOUSE_NO":"２０７號","E_COORD97":179689.98999999999,"N_COORD97":2561783.7599999998,"ADDRESS":"東勢寮２０７號","OBJECTID":32904},"geometry":{"x":179689.99000000209,"y":2561783.7599999998}},{"attributes":{"ID":32905,"DIS_CODE":0,"TOWNNAME":"永康區","LI":"五王里","LIN":"8鄰","STREET":"中山東路","SECT":" ","MAREA":" ","LANE":"２１８巷","ALLEY":"２３弄","HOUSE_NO":"２５號","E_COORD97":171728.89999999999,"N_COORD97":2545666.5699999998,"ADDRESS":"中山東路２１８巷２３弄２５號","OBJECTID":32905},"geometry":{"x":171728.9000000013,"y":2545666.5700000022}},{"attributes":{"ID":32906,"DIS_CODE":0,"TOWNNAME":"永康區","LI":"復華里","LIN":"21鄰","STREET":"國華街","SECT":" ","MAREA":" ","LANE":"１３２巷","ALLEY":"８弄","HOUSE_NO":"１１號","E_COORD97":172883.80455299999,"N_COORD97":2546341.5355699998,"ADDRESS":"國華街１３２巷８弄１１號","OBJECTID":32906},"geometry":{"x":172883.80455300212,"y":2546341.5355670024}},{"attributes":{"ID":32907,"DIS_CODE":0,"TOWNNAME":"永康區","LI":"五王里","LIN":"8鄰","STREET":"中山東路","SECT":" ","MAREA":" ","LANE":"２１８巷","ALLEY":"２３弄","HOUSE_NO":"４１號","E_COORD97":171737.44,"N_COORD97":2545632.0699999998,"ADDRESS":"中山東路２１８巷２３弄４１號","OBJECTID":32907},"geometry":{"x":171737.44000000134,"y":2545632.0700000022}},{"attributes":{"ID":32908,"DIS_CODE":0,"TOWNNAME":"永康區","LI":"五王里","LIN":"8鄰","STREET":"中山東路","SECT":" ","MAREA":" ","LANE":"２１８巷","ALLEY":"２３弄","HOUSE_NO":"１９號","E_COORD97":171724.70000000001,"N_COORD97":2545677.9900000002,"ADDRESS":"中山東路２１８巷２３弄１９號","OBJECTID":32908},"geometry":{"x":171724.70000000205,"y":2545677.9900000002}},{"attributes":{"ID":32909,"DIS_CODE":0,"TOWNNAME":"永康區","LI":"五王里","LIN":"8鄰","STREET":"中山東路","SECT":" ","MAREA":" ","LANE":"２１８巷","ALLEY":"２３弄","HOUSE_NO":"３３號","E_COORD97":171732.98999999999,"N_COORD97":2545649.8199999998,"ADDRESS":"中山東路２１８巷２３弄３３號","OBJECTID":32909},"geometry":{"x":171732.99000000115,"y":2545649.820000004}},{"attributes":{"ID":32910,"DIS_CODE":0,"TOWNNAME":"永康區","LI":"五王里","LIN":"8鄰","STREET":"中山東路","SECT":" ","MAREA":" ","LANE":"２１８巷","ALLEY":"２３弄","HOUSE_NO":"３５號","E_COORD97":171734.42000000001,"N_COORD97":2545643.5699999998,"ADDRESS":"中山東路２１８巷２３弄３５號","OBJECTID":32910},"geometry":{"x":171734.41999999993,"y":2545643.5700000003}},{"attributes":{"ID":32911,"DIS_CODE":0,"TOWNNAME":"永康區","LI":"五王里","LIN":"8鄰","STREET":"中山東路","SECT":" ","MAREA":" ","LANE":"２１８巷","ALLEY":"２３弄","HOUSE_NO":"３９號","E_COORD97":171736.39999999999,"N_COORD97":2545636.0699999998,"ADDRESS":"中山東路２１８巷２３弄３９號","OBJECTID":32911},"geometry":{"x":171736.40000000037,"y":2545636.0700000022}},{"attributes":{"ID":32912,"DIS_CODE":0,"TOWNNAME":"善化區","LI":"胡厝里","LIN":"8鄰","STREET":" ","SECT":" ","MAREA":"胡厝寮","LANE":" ","ALLEY":" ","HOUSE_NO":"２１０號","E_COORD97":175283.25,"N_COORD97":2560389.5,"ADDRESS":"胡厝寮２１０號","OBJECTID":32912},"geometry":{"x":175283.25,"y":2560389.5000000037}},{"attributes":{"ID":32913,"DIS_CODE":0,"TOWNNAME":"永康區","LI":"大灣里","LIN":"8鄰","STREET":"民族路","SECT":" ","MAREA":" ","LANE":"３９６巷","ALLEY":"１６弄","HOUSE_NO":"１５號","E_COORD97":174830.42000000001,"N_COORD97":2545433.3500000001,"ADDRESS":"民族路３９６巷１６弄１５號","OBJECTID":32913},"geometry":{"x":174830.42000000086,"y":2545433.3500000015}},{"attributes":{"ID":32914,"DIS_CODE":0,"TOWNNAME":"永康區","LI":"建國里","LIN":"8鄰","STREET":"復國一路","SECT":" ","MAREA":" ","LANE":"６巷","ALLEY":"６６弄","HOUSE_NO":"８號","E_COORD97":172804.17999999999,"N_COORD97":2544675.2799999998,"ADDRESS":"復國一路６巷６６弄８號","OBJECTID":32914},"geometry":{"x":172804.18000000063,"y":2544675.2799999993}},{"attributes":{"ID":32915,"DIS_CODE":0,"TOWNNAME":"北區","LI":"華興里","LIN":"15鄰","STREET":"南園街","SECT":" ","MAREA":" ","LANE":"１０１巷","ALLEY":"３４弄","HOUSE_NO":"９７號","E_COORD97":170862.04000000001,"N_COORD97":2545468.79,"ADDRESS":"南園街１０１巷３４弄９７號","OBJECTID":32915},"geometry":{"x":170862.04000000004,"y":2545468.7899999972}},{"attributes":{"ID":32916,"DIS_CODE":0,"TOWNNAME":"永康區","LI":"大灣里","LIN":"8鄰","STREET":"大安街","SECT":" ","MAREA":" ","LANE":"２９０巷","ALLEY":"１弄","HOUSE_NO":"１０號","E_COORD97":174738.95000000001,"N_COORD97":2545497.9199999999,"ADDRESS":"大安街２９０巷１弄１０號","OBJECTID":32916},"geometry":{"x":174738.95000000112,"y":2545497.9199999999}},{"attributes":{"ID":32917,"DIS_CODE":0,"TOWNNAME":"永康區","LI":"大灣里","LIN":"8鄰","STREET":"大安街","SECT":" ","MAREA":" ","LANE":"２９０巷","ALLEY":"１弄","HOUSE_NO":"１１號","E_COORD97":174730.17999999999,"N_COORD97":2545521.9199999999,"ADDRESS":"大安街２９０巷１弄１１號","OBJECTID":32917},"geometry":{"x":174730.18000000063,"y":2545521.9199999999}},{"attributes":{"ID":32918,"DIS_CODE":0,"TOWNNAME":"永康區","LI":"大灣里","LIN":"8鄰","STREET":"大安街","SECT":" ","MAREA":" ","LANE":"２９０巷","ALLEY":"１弄","HOUSE_NO":"１２號","E_COORD97":174739.79000000001,"N_COORD97":2545501.7400000002,"ADDRESS":"大安街２９０巷１弄１２號","OBJECTID":32918},"geometry":{"x":174739.79000000097,"y":2545501.7400000021}},{"attributes":{"ID":32919,"DIS_CODE":0,"TOWNNAME":"永康區","LI":"大灣里","LIN":"8鄰","STREET":"大安街","SECT":" ","MAREA":" ","LANE":"２９０巷","ALLEY":"１弄","HOUSE_NO":"１６號","E_COORD97":174740.82000000001,"N_COORD97":2545505.3799999999,"ADDRESS":"大安街２９０巷１弄１６號","OBJECTID":32919},"geometry":{"x":174740.8200000003,"y":2545505.3799999971}},{"attributes":{"ID":32920,"DIS_CODE":0,"TOWNNAME":"永康區","LI":"大灣里","LIN":"8鄰","STREET":"大安街","SECT":" ","MAREA":" ","LANE":"２９０巷","ALLEY":"１弄","HOUSE_NO":"１８號","E_COORD97":174742.45999999999,"N_COORD97":2545509.1400000001,"ADDRESS":"大安街２９０巷１弄１８號","OBJECTID":32920},"geometry":{"x":174742.46000000089,"y":2545509.1400000043}},{"attributes":{"ID":32921,"DIS_CODE":0,"TOWNNAME":"永康區","LI":"大灣里","LIN":"8鄰","STREET":"大安街","SECT":" ","MAREA":" ","LANE":"２９０巷","ALLEY":"１弄","HOUSE_NO":"１號","E_COORD97":174720.92999999999,"N_COORD97":2545491.1099999999,"ADDRESS":"大安街２９０巷１弄１號","OBJECTID":32921},"geometry":{"x":174720.9299999997,"y":2545491.1100000031}},{"attributes":{"ID":32922,"DIS_CODE":0,"TOWNNAME":"永康區","LI":"大灣里","LIN":"8鄰","STREET":"大安街","SECT":" ","MAREA":" ","LANE":"２９０巷","ALLEY":"１弄","HOUSE_NO":"２０號","E_COORD97":174743.03,"N_COORD97":2545512.7200000002,"ADDRESS":"大安街２９０巷１弄２０號","OBJECTID":32922},"geometry":{"x":174743.03000000026,"y":2545512.7200000025}},{"attributes":{"ID":32923,"DIS_CODE":0,"TOWNNAME":"永康區","LI":"大灣里","LIN":"8鄰","STREET":"大安街","SECT":" ","MAREA":" ","LANE":"２９０巷","ALLEY":"１弄","HOUSE_NO":"２２號","E_COORD97":174744.67000000001,"N_COORD97":2545516.2999999998,"ADDRESS":"大安街２９０巷１弄２２號","OBJECTID":32923},"geometry":{"x":174744.66999999993,"y":2545516.3000000026}},{"attributes":{"ID":32924,"DIS_CODE":0,"TOWNNAME":"永康區","LI":"大灣里","LIN":"8鄰","STREET":"大安街","SECT":" ","MAREA":" ","LANE":"２９０巷","ALLEY":"１弄","HOUSE_NO":"２６號","E_COORD97":174745.45999999999,"N_COORD97":2545520.6699999999,"ADDRESS":"大安街２９０巷１弄２６號","OBJECTID":32924},"geometry":{"x":174745.46000000089,"y":2545520.6699999999}},{"attributes":{"ID":32925,"DIS_CODE":0,"TOWNNAME":"永康區","LI":"大灣里","LIN":"8鄰","STREET":"大安街","SECT":" ","MAREA":" ","LANE":"２９０巷","ALLEY":"１弄","HOUSE_NO":"２號","E_COORD97":174734.75,"N_COORD97":2545486.6600000001,"ADDRESS":"大安街２９０巷１弄２號","OBJECTID":32925},"geometry":{"x":174734.75000000186,"y":2545486.6600000001}},{"attributes":{"ID":32926,"DIS_CODE":0,"TOWNNAME":"永康區","LI":"大灣里","LIN":"8鄰","STREET":"大安街","SECT":" ","MAREA":" ","LANE":"２９０巷","ALLEY":"１弄","HOUSE_NO":"３號","E_COORD97":174722.42000000001,"N_COORD97":2545496.4700000002,"ADDRESS":"大安街２９０巷１弄３號","OBJECTID":32926},"geometry":{"x":174722.42000000086,"y":2545496.4700000044}},{"attributes":{"ID":32927,"DIS_CODE":0,"TOWNNAME":"永康區","LI":"大灣里","LIN":"8鄰","STREET":"大安街","SECT":" ","MAREA":" ","LANE":"２９０巷","ALLEY":"１弄","HOUSE_NO":"５號","E_COORD97":174724.70000000001,"N_COORD97":2545503.21,"ADDRESS":"大安街２９０巷１弄５號","OBJECTID":32927},"geometry":{"x":174724.70000000019,"y":2545503.2100000028}},{"attributes":{"ID":32928,"DIS_CODE":0,"TOWNNAME":"永康區","LI":"大灣里","LIN":"8鄰","STREET":"大安街","SECT":" ","MAREA":" ","LANE":"２９０巷","ALLEY":"１弄","HOUSE_NO":"６號","E_COORD97":174736.13,"N_COORD97":2545490.3399999999,"ADDRESS":"大安街２９０巷１弄６號","OBJECTID":32928},"geometry":{"x":174736.13000000082,"y":2545490.3400000017}},{"attributes":{"ID":32929,"DIS_CODE":0,"TOWNNAME":"永康區","LI":"大灣里","LIN":"8鄰","STREET":"大安街","SECT":" ","MAREA":" ","LANE":"２９０巷","ALLEY":"１弄","HOUSE_NO":"７號","E_COORD97":174725.95999999999,"N_COORD97":2545509.48,"ADDRESS":"大安街２９０巷１弄７號","OBJECTID":32929},"geometry":{"x":174725.95999999996,"y":2545509.4800000004}},{"attributes":{"ID":32930,"DIS_CODE":0,"TOWNNAME":"永康區","LI":"大灣里","LIN":"8鄰","STREET":"大安街","SECT":" ","MAREA":" ","LANE":"２９０巷","ALLEY":"１弄","HOUSE_NO":"８號","E_COORD97":174737.04999999999,"N_COORD97":2545494.3799999999,"ADDRESS":"大安街２９０巷１弄８號","OBJECTID":32930},"geometry":{"x":174737.04999999981,"y":2545494.379999999}},{"attributes":{"ID":32931,"DIS_CODE":0,"TOWNNAME":"永康區","LI":"大灣里","LIN":"8鄰","STREET":"大安街","SECT":" ","MAREA":" ","LANE":"２９０巷","ALLEY":"１弄","HOUSE_NO":"９號","E_COORD97":174727.44,"N_COORD97":2545515.8700000001,"ADDRESS":"大安街２９０巷１弄９號","OBJECTID":32931},"geometry":{"x":174727.44000000134,"y":2545515.8700000029}},{"attributes":{"ID":32932,"DIS_CODE":0,"TOWNNAME":"安南區","LI":"公\u25A0里","LIN":"8鄰","STREET":"安興街","SECT":" ","MAREA":" ","LANE":"１８１巷","ALLEY":"７８弄","HOUSE_NO":"５２號","E_COORD97":163902.03,"N_COORD97":2551988.8500000001,"ADDRESS":"安興街１８１巷７８弄５２號","OBJECTID":32932},"geometry":{"x":163902.03000000026,"y":2551988.8500000034}},{"attributes":{"ID":32933,"DIS_CODE":0,"TOWNNAME":"安南區","LI":"公\u25A0里","LIN":"8鄰","STREET":"安興街","SECT":" ","MAREA":" ","LANE":"１８１巷","ALLEY":"７８弄","HOUSE_NO":"５６號","E_COORD97":163900.06,"N_COORD97":2551984.9199999999,"ADDRESS":"安興街１８１巷７８弄５６號","OBJECTID":32933},"geometry":{"x":163900.06000000052,"y":2551984.9199999999}},{"attributes":{"ID":32934,"DIS_CODE":0,"TOWNNAME":"安南區","LI":"公\u25A0里","LIN":"8鄰","STREET":"安興街","SECT":" ","MAREA":" ","LANE":"１８１巷","ALLEY":"７８弄","HOUSE_NO":"５８號","E_COORD97":163895.79000000001,"N_COORD97":2551982.2999999998,"ADDRESS":"安興街１８１巷７８弄５８號","OBJECTID":32934},"geometry":{"x":163895.79000000097,"y":2551982.3000000007}},{"attributes":{"ID":32935,"DIS_CODE":0,"TOWNNAME":"善化區","LI":"東隆里","LIN":"8鄰","STREET":" ","SECT":" ","MAREA":"東勢寮","LANE":" ","ALLEY":" ","HOUSE_NO":"２０１之２號","E_COORD97":179789.20999999999,"N_COORD97":2561719.27,"ADDRESS":"東勢寮２０１之２號","OBJECTID":32935},"geometry":{"x":179789.20999999996,"y":2561719.2699999996}},{"attributes":{"ID":32936,"DIS_CODE":0,"TOWNNAME":"善化區","LI":"嘉北里","LIN":"8鄰","STREET":" ","SECT":" ","MAREA":"茄拔","LANE":" ","ALLEY":" ","HOUSE_NO":"１８１號之２０","E_COORD97":181164.28,"N_COORD97":2560132.27,"ADDRESS":"茄拔１８１號之２０","OBJECTID":32936},"geometry":{"x":181164.28000000026,"y":2560132.2699999996}},{"attributes":{"ID":32937,"DIS_CODE":0,"TOWNNAME":"善化區","LI":"嘉北里","LIN":"8鄰","STREET":" ","SECT":" ","MAREA":"茄拔","LANE":" ","ALLEY":" ","HOUSE_NO":"１７７之３號","E_COORD97":181133.81,"N_COORD97":2560003.77,"ADDRESS":"茄拔１７７之３號","OBJECTID":32937},"geometry":{"x":181133.81000000052,"y":2560003.7699999996}},{"attributes":{"ID":32938,"DIS_CODE":0,"TOWNNAME":"善化區","LI":"牛庄里","LIN":"8鄰","STREET":" ","SECT":" ","MAREA":"牛庄","LANE":" ","ALLEY":" ","HOUSE_NO":"９６之１１號","E_COORD97":180017.01999999999,"N_COORD97":2560172.52,"ADDRESS":"牛庄９６之１１號","OBJECTID":32938},"geometry":{"x":180017.02000000048,"y":2560172.5200000014}},{"attributes":{"ID":32939,"DIS_CODE":0,"TOWNNAME":"善化區","LI":"牛庄里","LIN":"8鄰","STREET":" ","SECT":" ","MAREA":"牛庄","LANE":" ","ALLEY":" ","HOUSE_NO":"１２９之７號","E_COORD97":179933.19,"N_COORD97":2560180.27,"ADDRESS":"牛庄１２９之７號","OBJECTID":32939},"geometry":{"x":179933.19000000134,"y":2560180.2699999977}},{"attributes":{"ID":32940,"DIS_CODE":0,"TOWNNAME":"善化區","LI":"田寮里","LIN":"8鄰","STREET":" ","SECT":" ","MAREA":"六分寮","LANE":" ","ALLEY":" ","HOUSE_NO":"８７號","E_COORD97":178528.76999999999,"N_COORD97":2561451.75,"ADDRESS":"六分寮８７號","OBJECTID":32940},"geometry":{"x":178528.76999999955,"y":2561451.75}},{"attributes":{"ID":32941,"DIS_CODE":0,"TOWNNAME":"善化區","LI":"田寮里","LIN":"8鄰","STREET":" ","SECT":" ","MAREA":"六分寮","LANE":" ","ALLEY":" ","HOUSE_NO":"１０１號之５","E_COORD97":178601.04000000001,"N_COORD97":2561484.77,"ADDRESS":"六分寮１０１號之５","OBJECTID":32941},"geometry":{"x":178601.04000000004,"y":2561484.7699999996}},{"attributes":{"ID":32942,"DIS_CODE":0,"TOWNNAME":"善化區","LI":"牛庄里","LIN":"8鄰","STREET":" ","SECT":" ","MAREA":"牛庄","LANE":" ","ALLEY":" ","HOUSE_NO":"９７號之１","E_COORD97":179983.69,"N_COORD97":2560111.52,"ADDRESS":"牛庄９７號之１","OBJECTID":32942},"geometry":{"x":179983.69000000041,"y":2560111.5200000014}},{"attributes":{"ID":32943,"DIS_CODE":0,"TOWNNAME":"善化區","LI":"田寮里","LIN":"8鄰","STREET":" ","SECT":" ","MAREA":"六分寮","LANE":" ","ALLEY":" ","HOUSE_NO":"８７號之１","E_COORD97":178533.54999999999,"N_COORD97":2561453.52,"ADDRESS":"六分寮８７號之１","OBJECTID":32943},"geometry":{"x":178533.55000000075,"y":2561453.5200000033}},{"attributes":{"ID":32944,"DIS_CODE":0,"TOWNNAME":"善化區","LI":"牛庄里","LIN":"8鄰","STREET":" ","SECT":" ","MAREA":"牛庄","LANE":" ","ALLEY":" ","HOUSE_NO":"１２９之３號","E_COORD97":179911.64000000001,"N_COORD97":2560188.77,"ADDRESS":"牛庄１２９之３號","OBJECTID":32944},"geometry":{"x":179911.63999999966,"y":2560188.7700000014}},{"attributes":{"ID":32945,"DIS_CODE":0,"TOWNNAME":"善化區","LI":"田寮里","LIN":"8鄰","STREET":" ","SECT":" ","MAREA":"六分寮","LANE":" ","ALLEY":" ","HOUSE_NO":"１０１號之１","E_COORD97":178576.64999999999,"N_COORD97":2561477.52,"ADDRESS":"六分寮１０１號之１","OBJECTID":32945},"geometry":{"x":178576.65000000037,"y":2561477.5200000033}},{"attributes":{"ID":32946,"DIS_CODE":0,"TOWNNAME":"善化區","LI":"田寮里","LIN":"8鄰","STREET":" ","SECT":" ","MAREA":"六分寮","LANE":" ","ALLEY":" ","HOUSE_NO":"１０５號之１","E_COORD97":178522.60999999999,"N_COORD97":2561447.52,"ADDRESS":"六分寮１０５號之１","OBJECTID":32946},"geometry":{"x":178522.61000000034,"y":2561447.5200000014}},{"attributes":{"ID":32947,"DIS_CODE":0,"TOWNNAME":"善化區","LI":"嘉北里","LIN":"8鄰","STREET":" ","SECT":" ","MAREA":"茄拔","LANE":" ","ALLEY":" ","HOUSE_NO":"１８５號之１","E_COORD97":181049.64000000001,"N_COORD97":2560105.02,"ADDRESS":"茄拔１８５號之１","OBJECTID":32947},"geometry":{"x":181049.64000000153,"y":2560105.0200000014}},{"attributes":{"ID":32948,"DIS_CODE":0,"TOWNNAME":"大內區","LI":"石湖里","LIN":"7鄰","STREET":" ","SECT":" ","MAREA":"石子瀨","LANE":" ","ALLEY":" ","HOUSE_NO":"２８７號之５","E_COORD97":183981.45999999999,"N_COORD97":2558311.2999999998,"ADDRESS":"石子瀨２８７號之５","OBJECTID":32948},"geometry":{"x":183981.45999999996,"y":2558311.3000000026}},{"attributes":{"ID":32949,"DIS_CODE":0,"TOWNNAME":"大內區","LI":"內江里","LIN":"7鄰","STREET":" ","SECT":" ","MAREA":"內庄","LANE":" ","ALLEY":" ","HOUSE_NO":"２８９號之７","E_COORD97":184294.89000000001,"N_COORD97":2557278.2999999998,"ADDRESS":"內庄２８９號之７","OBJECTID":32949},"geometry":{"x":184294.8900000006,"y":2557278.3000000007}},{"attributes":{"ID":32950,"DIS_CODE":0,"TOWNNAME":"大內區","LI":"二溪里","LIN":"7鄰","STREET":" ","SECT":" ","MAREA":"二重溪","LANE":" ","ALLEY":" ","HOUSE_NO":"２０８號之１","E_COORD97":189408.73999999999,"N_COORD97":2559673.3100000001,"ADDRESS":"二重溪２０８號之１","OBJECTID":32950},"geometry":{"x":189408.74000000115,"y":2559673.3100000024}},{"attributes":{"ID":32951,"DIS_CODE":0,"TOWNNAME":"大內區","LI":"內江里","LIN":"7鄰","STREET":" ","SECT":" ","MAREA":"內庄","LANE":" ","ALLEY":" ","HOUSE_NO":"２８９之２號","E_COORD97":184359.07999999999,"N_COORD97":2557207.2999999998,"ADDRESS":"內庄２８９之２號","OBJECTID":32951},"geometry":{"x":184359.08000000007,"y":2557207.3000000007}},{"attributes":{"ID":32952,"DIS_CODE":0,"TOWNNAME":"大內區","LI":"二溪里","LIN":"7鄰","STREET":" ","SECT":" ","MAREA":"二重溪","LANE":" ","ALLEY":" ","HOUSE_NO":"２０９號","E_COORD97":189352.64000000001,"N_COORD97":2559542.3100000001,"ADDRESS":"二重溪２０９號","OBJECTID":32952},"geometry":{"x":189352.64000000153,"y":2559542.3100000005}},{"attributes":{"ID":32953,"DIS_CODE":0,"TOWNNAME":"大內區","LI":"內江里","LIN":"7鄰","STREET":" ","SECT":" ","MAREA":"內庄","LANE":" ","ALLEY":" ","HOUSE_NO":"２９２號","E_COORD97":184490.67999999999,"N_COORD97":2557408.25,"ADDRESS":"內庄２９２號","OBJECTID":32953},"geometry":{"x":184490.68000000156,"y":2557408.2500000019}},{"attributes":{"ID":32954,"DIS_CODE":0,"TOWNNAME":"安南區","LI":"公\u25A0里","LIN":"8鄰","STREET":"安興街","SECT":" ","MAREA":" ","LANE":"１８１巷","ALLEY":"７８弄","HOUSE_NO":"６０號","E_COORD97":163892.84,"N_COORD97":2551979.3399999999,"ADDRESS":"安興街１８１巷７８弄６０號","OBJECTID":32954},"geometry":{"x":163892.83999999985,"y":2551979.3400000017}},{"attributes":{"ID":32955,"DIS_CODE":0,"TOWNNAME":"安南區","LI":"公\u25A0里","LIN":"8鄰","STREET":"安興街","SECT":" ","MAREA":" ","LANE":"１８１巷","ALLEY":"７８弄","HOUSE_NO":"６２號","E_COORD97":163889.23000000001,"N_COORD97":2551976.7200000002,"ADDRESS":"安興街１８１巷７８弄６２號","OBJECTID":32955},"geometry":{"x":163889.23000000045,"y":2551976.7200000007}},{"attributes":{"ID":32956,"DIS_CODE":0,"TOWNNAME":"安南區","LI":"公\u25A0里","LIN":"8鄰","STREET":"安興街","SECT":" ","MAREA":" ","LANE":"１８１巷","ALLEY":"７８弄","HOUSE_NO":"６６號","E_COORD97":163886.26999999999,"N_COORD97":2551972.1299999999,"ADDRESS":"安興街１８１巷７８弄６６號","OBJECTID":32956},"geometry":{"x":163886.26999999955,"y":2551972.129999999}},{"attributes":{"ID":32957,"DIS_CODE":0,"TOWNNAME":"大內區","LI":"二溪里","LIN":"7鄰","STREET":" ","SECT":" ","MAREA":"二重溪","LANE":" ","ALLEY":" ","HOUSE_NO":"２０２號之１","E_COORD97":189702.48000000001,"N_COORD97":2558634.3100000001,"ADDRESS":"二重溪２０２號之１","OBJECTID":32957},"geometry":{"x":189702.48000000138,"y":2558634.3100000005}},{"attributes":{"ID":32958,"DIS_CODE":0,"TOWNNAME":"安南區","LI":"淵中里","LIN":"8鄰","STREET":"安中路","SECT":"四段","MAREA":" ","LANE":"４巷","ALLEY":"４８弄","HOUSE_NO":"４３號","E_COORD97":165202.51999999999,"N_COORD97":2550286.7599999998,"ADDRESS":"安中路四段４巷４８弄４３號","OBJECTID":32958},"geometry":{"x":165202.52000000048,"y":2550286.7599999998}},{"attributes":{"ID":32959,"DIS_CODE":0,"TOWNNAME":"永康區","LI":"神洲里","LIN":"8鄰","STREET":"忠孝路","SECT":" ","MAREA":" ","LANE":"６巷","ALLEY":"１９弄","HOUSE_NO":"５號","E_COORD97":172212.28,"N_COORD97":2544596.4900000002,"ADDRESS":"忠孝路６巷１９弄５號","OBJECTID":32959},"geometry":{"x":172212.28000000212,"y":2544596.4900000002}},{"attributes":{"ID":32960,"DIS_CODE":0,"TOWNNAME":"安南區","LI":"淵中里","LIN":"8鄰","STREET":"安中路","SECT":"四段","MAREA":" ","LANE":"４巷","ALLEY":"８４弄","HOUSE_NO":"１０號","E_COORD97":165152.70000000001,"N_COORD97":2550239.1699999999,"ADDRESS":"安中路四段４巷８４弄１０號","OBJECTID":32960},"geometry":{"x":165152.70000000112,"y":2550239.1700000018}},{"attributes":{"ID":32961,"DIS_CODE":0,"TOWNNAME":"安南區","LI":"淵中里","LIN":"8鄰","STREET":"安中路","SECT":"四段","MAREA":" ","LANE":"４巷","ALLEY":"８４弄","HOUSE_NO":"２５號","E_COORD97":165163.995291,"N_COORD97":2550283.7446900001,"ADDRESS":"安中路四段４巷８４弄２５號","OBJECTID":32961},"geometry":{"x":165163.99529100116,"y":2550283.744690001}},{"attributes":{"ID":32962,"DIS_CODE":0,"TOWNNAME":"安南區","LI":"理想里","LIN":"8鄰","STREET":"海佃路","SECT":"二段","MAREA":" ","LANE":"１５０巷","ALLEY":"９４弄","HOUSE_NO":"３０號","E_COORD97":167254.26999999999,"N_COORD97":2548265.1400000001,"ADDRESS":"海佃路二段１５０巷９４弄３０號","OBJECTID":32962},"geometry":{"x":167254.26999999955,"y":2548265.1399999987}},{"attributes":{"ID":32963,"DIS_CODE":0,"TOWNNAME":"安南區","LI":"新順里","LIN":"8鄰","STREET":"總安街","SECT":"一段","MAREA":" ","LANE":"３６２巷","ALLEY":"２８弄","HOUSE_NO":"２號","E_COORD97":169251.32999999999,"N_COORD97":2550464.9100000001,"ADDRESS":"總安街一段３６２巷２８弄２號","OBJECTID":32963},"geometry":{"x":169251.33000000007,"y":2550464.910000002}},{"attributes":{"ID":32964,"DIS_CODE":0,"TOWNNAME":"北區","LI":"大豐里","LIN":"14鄰","STREET":"和緯路","SECT":"四段","MAREA":" ","LANE":" ","ALLEY":" ","HOUSE_NO":"１６５號","E_COORD97":166968.98999999999,"N_COORD97":2545425.2400000002,"ADDRESS":"和緯路四段１６５號","OBJECTID":32964},"geometry":{"x":166968.99000000022,"y":2545425.2400000002}},{"attributes":{"ID":32965,"DIS_CODE":0,"TOWNNAME":"北區","LI":"大豐里","LIN":"14鄰","STREET":"和緯路","SECT":"四段","MAREA":" ","LANE":" ","ALLEY":" ","HOUSE_NO":"１６７號","E_COORD97":166963.69,"N_COORD97":2545423.1699999999,"ADDRESS":"和緯路四段１６７號","OBJECTID":32965},"geometry":{"x":166963.69000000134,"y":2545423.1700000037}},{"attributes":{"ID":32966,"DIS_CODE":0,"TOWNNAME":"北區","LI":"大豐里","LIN":"14鄰","STREET":"和緯路","SECT":"四段","MAREA":" ","LANE":" ","ALLEY":" ","HOUSE_NO":"１６９號","E_COORD97":166958.75,"N_COORD97":2545421.02,"ADDRESS":"和緯路四段１６９號","OBJECTID":32966},"geometry":{"x":166958.74999999907,"y":2545421.0200000014}},{"attributes":{"ID":32967,"DIS_CODE":0,"TOWNNAME":"北區","LI":"大豐里","LIN":"14鄰","STREET":"和緯路","SECT":"四段","MAREA":" ","LANE":" ","ALLEY":" ","HOUSE_NO":"１７１號","E_COORD97":166954.45000000001,"N_COORD97":2545418.73,"ADDRESS":"和緯路四段１７１號","OBJECTID":32967},"geometry":{"x":166954.45000000112,"y":2545418.7300000004}},{"attributes":{"ID":32968,"DIS_CODE":0,"TOWNNAME":"安南區","LI":"新順里","LIN":"8鄰","STREET":"總安街","SECT":"一段","MAREA":" ","LANE":"３６２巷","ALLEY":"２８弄","HOUSE_NO":"６號","E_COORD97":169283.38,"N_COORD97":2550464.52,"ADDRESS":"總安街一段３６２巷２８弄６號","OBJECTID":32968},"geometry":{"x":169283.37999999989,"y":2550464.5199999996}},{"attributes":{"ID":32969,"DIS_CODE":0,"TOWNNAME":"安南區","LI":"新順里","LIN":"8鄰","STREET":"總安街","SECT":"一段","MAREA":" ","LANE":"３６２巷","ALLEY":"２８弄","HOUSE_NO":"１６號","E_COORD97":169308.04999999999,"N_COORD97":2550464.3300000001,"ADDRESS":"總安街一段３６２巷２８弄１６號","OBJECTID":32969},"geometry":{"x":169308.05000000075,"y":2550464.3300000019}},{"attributes":{"ID":32970,"DIS_CODE":0,"TOWNNAME":"安南區","LI":"新順里","LIN":"8鄰","STREET":"總安街","SECT":"一段","MAREA":" ","LANE":"３６２巷","ALLEY":"２８弄","HOUSE_NO":"１８號","E_COORD97":169312.91,"N_COORD97":2550462.3900000001,"ADDRESS":"總安街一段３６２巷２８弄１８號","OBJECTID":32970},"geometry":{"x":169312.91000000108,"y":2550462.3900000006}},{"attributes":{"ID":32971,"DIS_CODE":0,"TOWNNAME":"安南區","LI":"新順里","LIN":"8鄰","STREET":"總安街","SECT":"一段","MAREA":" ","LANE":"３６２巷","ALLEY":"２８弄","HOUSE_NO":"２０號","E_COORD97":169318.14999999999,"N_COORD97":2550463.5499999998,"ADDRESS":"總安街一段３６２巷２８弄２０號","OBJECTID":32971},"geometry":{"x":169318.1500000013,"y":2550463.5500000026}},{"attributes":{"ID":32972,"DIS_CODE":0,"TOWNNAME":"安南區","LI":"新順里","LIN":"8鄰","STREET":"總安街","SECT":"一段","MAREA":" ","LANE":"３６２巷","ALLEY":"２８弄","HOUSE_NO":"２２號","E_COORD97":169321.64999999999,"N_COORD97":2550460.6400000001,"ADDRESS":"總安街一段３６２巷２８弄２２號","OBJECTID":32972},"geometry":{"x":169321.6500000013,"y":2550460.6400000006}},{"attributes":{"ID":32973,"DIS_CODE":0,"TOWNNAME":"東區","LI":"大德里","LIN":"14鄰","STREET":"立德十路","SECT":" ","MAREA":" ","LANE":" ","ALLEY":" ","HOUSE_NO":"２１號三樓","E_COORD97":169457.45000000001,"N_COORD97":2542053.2400000002,"ADDRESS":"立德十路２１號三樓","OBJECTID":32973},"geometry":{"x":169457.45000000019,"y":2542053.2400000039}},{"attributes":{"ID":32974,"DIS_CODE":0,"TOWNNAME":"大內區","LI":"大內里","LIN":"7鄰","STREET":" ","SECT":" ","MAREA":"內庄","LANE":" ","ALLEY":" ","HOUSE_NO":"８６之５號","E_COORD97":184716.92999999999,"N_COORD97":2557564.2999999998,"ADDRESS":"內庄８６之５號","OBJECTID":32974},"geometry":{"x":184716.93000000063,"y":2557564.3000000045}},{"attributes":{"ID":32975,"DIS_CODE":0,"TOWNNAME":"大內區","LI":"石湖里","LIN":"7鄰","STREET":" ","SECT":" ","MAREA":"石子瀨","LANE":" ","ALLEY":" ","HOUSE_NO":"２９０號之５","E_COORD97":183952.06,"N_COORD97":2558215.2999999998,"ADDRESS":"石子瀨２９０號之５","OBJECTID":32975},"geometry":{"x":183952.05999999959,"y":2558215.3000000045}},{"attributes":{"ID":32976,"DIS_CODE":0,"TOWNNAME":"大內區","LI":"內郭里","LIN":"7鄰","STREET":" ","SECT":" ","MAREA":"後堀","LANE":" ","ALLEY":" ","HOUSE_NO":"３號","E_COORD97":185561.60999999999,"N_COORD97":2557402.3199999998,"ADDRESS":"後堀３號","OBJECTID":32976},"geometry":{"x":185561.6100000022,"y":2557402.3200000022}},{"attributes":{"ID":32977,"DIS_CODE":0,"TOWNNAME":"大內區","LI":"二溪里","LIN":"7鄰","STREET":" ","SECT":" ","MAREA":"二重溪","LANE":" ","ALLEY":" ","HOUSE_NO":"２１２號","E_COORD97":189206.23999999999,"N_COORD97":2559693.3100000001,"ADDRESS":"二重溪２１２號","OBJECTID":32977},"geometry":{"x":189206.24000000022,"y":2559693.3100000024}},{"attributes":{"ID":32978,"DIS_CODE":0,"TOWNNAME":"大內區","LI":"內江里","LIN":"7鄰","STREET":" ","SECT":" ","MAREA":"內庄","LANE":" ","ALLEY":" ","HOUSE_NO":"２８５號之２６","E_COORD97":184376.17000000001,"N_COORD97":2557472.2999999998,"ADDRESS":"內庄２８５號之２６","OBJECTID":32978},"geometry":{"x":184376.17000000086,"y":2557472.3000000007}},{"attributes":{"ID":32979,"DIS_CODE":0,"TOWNNAME":"大內區","LI":"石湖里","LIN":"7鄰","STREET":" ","SECT":" ","MAREA":"石子瀨","LANE":" ","ALLEY":" ","HOUSE_NO":"２９１號之２","E_COORD97":183907.34,"N_COORD97":2558209.2999999998,"ADDRESS":"石子瀨２９１號之２","OBJECTID":32979},"geometry":{"x":183907.34000000078,"y":2558209.3000000026}},{"attributes":{"ID":32980,"DIS_CODE":0,"TOWNNAME":"大內區","LI":"內江里","LIN":"7鄰","STREET":" ","SECT":" ","MAREA":"內庄","LANE":" ","ALLEY":" ","HOUSE_NO":"２８９號之８","E_COORD97":184311.16,"N_COORD97":2557323.2999999998,"ADDRESS":"內庄２８９號之８","OBJECTID":32980},"geometry":{"x":184311.16000000015,"y":2557323.2999999989}},{"attributes":{"ID":32981,"DIS_CODE":0,"TOWNNAME":"大內區","LI":"內江里","LIN":"7鄰","STREET":" ","SECT":" ","MAREA":"內庄","LANE":" ","ALLEY":" ","HOUSE_NO":"２８５號之３２","E_COORD97":184367.10000000001,"N_COORD97":2557460.2999999998,"ADDRESS":"內庄２８５號之３２","OBJECTID":32981},"geometry":{"x":184367.09999999963,"y":2557460.3000000026}},{"attributes":{"ID":32982,"DIS_CODE":0,"TOWNNAME":"大內區","LI":"二溪里","LIN":"7鄰","STREET":" ","SECT":" ","MAREA":"二重溪","LANE":" ","ALLEY":" ","HOUSE_NO":"２０３號之７","E_COORD97":189296.45000000001,"N_COORD97":2559053.3100000001,"ADDRESS":"二重溪２０３號之７","OBJECTID":32982},"geometry":{"x":189296.45000000019,"y":2559053.3100000024}},{"attributes":{"ID":32983,"DIS_CODE":0,"TOWNNAME":"大內區","LI":"內江里","LIN":"7鄰","STREET":" ","SECT":" ","MAREA":"內庄","LANE":" ","ALLEY":" ","HOUSE_NO":"２８５號之３","E_COORD97":184450.81,"N_COORD97":2557490.2999999998,"ADDRESS":"內庄２８５號之３","OBJECTID":32983},"geometry":{"x":184450.81000000145,"y":2557490.3000000026}},{"attributes":{"ID":32984,"DIS_CODE":0,"TOWNNAME":"大內區","LI":"內江里","LIN":"7鄰","STREET":" ","SECT":" ","MAREA":"內庄","LANE":" ","ALLEY":" ","HOUSE_NO":"２８５號之２０","E_COORD97":184351.42000000001,"N_COORD97":2557513.2999999998,"ADDRESS":"內庄２８５號之２０","OBJECTID":32984},"geometry":{"x":184351.41999999993,"y":2557513.3000000045}},{"attributes":{"ID":32985,"DIS_CODE":0,"TOWNNAME":"安定區","LI":"港南里","LIN":"7鄰","STREET":" ","SECT":" ","MAREA":"港口","LANE":" ","ALLEY":" ","HOUSE_NO":"５０號","E_COORD97":171596.14000000001,"N_COORD97":2554302.25,"ADDRESS":"港口５０號","OBJECTID":32985},"geometry":{"x":171596.1400000006,"y":2554302.2500000037}},{"attributes":{"ID":32986,"DIS_CODE":0,"TOWNNAME":"大內區","LI":"內江里","LIN":"7鄰","STREET":" ","SECT":" ","MAREA":"內庄","LANE":" ","ALLEY":" ","HOUSE_NO":"２８６號之２","E_COORD97":184460.75,"N_COORD97":2557450.2999999998,"ADDRESS":"內庄２８６號之２","OBJECTID":32986},"geometry":{"x":184460.75000000093,"y":2557450.3000000026}},{"attributes":{"ID":32987,"DIS_CODE":0,"TOWNNAME":"大內區","LI":"石湖里","LIN":"7鄰","STREET":" ","SECT":" ","MAREA":"石子瀨","LANE":" ","ALLEY":" ","HOUSE_NO":"２９４號之１","E_COORD97":183918.20000000001,"N_COORD97":2558289.2999999998,"ADDRESS":"石子瀨２９４號之１","OBJECTID":32987},"geometry":{"x":183918.20000000205,"y":2558289.3000000007}},{"attributes":{"ID":32988,"DIS_CODE":0,"TOWNNAME":"大內區","LI":"內江里","LIN":"7鄰","STREET":" ","SECT":" ","MAREA":"內庄","LANE":" ","ALLEY":" ","HOUSE_NO":"２８５號之２２","E_COORD97":184366,"N_COORD97":2557489.2999999998,"ADDRESS":"內庄２８５號之２２","OBJECTID":32988},"geometry":{"x":184366,"y":2557489.3000000007}},{"attributes":{"ID":32989,"DIS_CODE":0,"TOWNNAME":"大內區","LI":"內江里","LIN":"7鄰","STREET":" ","SECT":" ","MAREA":"內庄","LANE":" ","ALLEY":" ","HOUSE_NO":"２８５號之７","E_COORD97":184454.29000000001,"N_COORD97":2557484.2999999998,"ADDRESS":"內庄２８５號之７","OBJECTID":32989},"geometry":{"x":184454.29000000004,"y":2557484.3000000026}},{"attributes":{"ID":32990,"DIS_CODE":0,"TOWNNAME":"大內區","LI":"內郭里","LIN":"7鄰","STREET":" ","SECT":" ","MAREA":"後堀","LANE":" ","ALLEY":" ","HOUSE_NO":"４號之２","E_COORD97":185596.78,"N_COORD97":2557378.3199999998,"ADDRESS":"後堀４號之２","OBJECTID":32990},"geometry":{"x":185596.78000000026,"y":2557378.3200000022}},{"attributes":{"ID":32991,"DIS_CODE":0,"TOWNNAME":"大內區","LI":"內江里","LIN":"7鄰","STREET":" ","SECT":" ","MAREA":"內庄","LANE":" ","ALLEY":" ","HOUSE_NO":"２８５號之８","E_COORD97":184343.76000000001,"N_COORD97":2557520.2999999998,"ADDRESS":"內庄２８５號之８","OBJECTID":32991},"geometry":{"x":184343.75999999978,"y":2557520.3000000045}},{"attributes":{"ID":32992,"DIS_CODE":0,"TOWNNAME":"大內區","LI":"二溪里","LIN":"7鄰","STREET":" ","SECT":" ","MAREA":"二重溪","LANE":" ","ALLEY":" ","HOUSE_NO":"２１２號之３","E_COORD97":189074.37,"N_COORD97":2559620.3100000001,"ADDRESS":"二重溪２１２號之３","OBJECTID":32992},"geometry":{"x":189074.37000000104,"y":2559620.3100000005}},{"attributes":{"ID":32993,"DIS_CODE":0,"TOWNNAME":"善化區","LI":"牛庄里","LIN":"7鄰","STREET":" ","SECT":" ","MAREA":"牛庄","LANE":" ","ALLEY":" ","HOUSE_NO":"８８號","E_COORD97":180068.16,"N_COORD97":2560051,"ADDRESS":"牛庄８８號","OBJECTID":32993},"geometry":{"x":180068.16000000015,"y":2560051.0000000019}},{"attributes":{"ID":32994,"DIS_CODE":0,"TOWNNAME":"善化區","LI":"嘉北里","LIN":"7鄰","STREET":" ","SECT":" ","MAREA":"茄拔","LANE":" ","ALLEY":" ","HOUSE_NO":"１７６號之１","E_COORD97":181120.17000000001,"N_COORD97":2559963.77,"ADDRESS":"茄拔１７６號之１","OBJECTID":32994},"geometry":{"x":181120.16999999993,"y":2559963.7700000033}},{"attributes":{"ID":32995,"DIS_CODE":0,"TOWNNAME":"善化區","LI":"東隆里","LIN":"7鄰","STREET":" ","SECT":" ","MAREA":"東勢寮","LANE":" ","ALLEY":" ","HOUSE_NO":"１９５號","E_COORD97":179863.26000000001,"N_COORD97":2561806.0099999998,"ADDRESS":"東勢寮１９５號","OBJECTID":32995},"geometry":{"x":179863.25999999978,"y":2561806.0099999998}},{"attributes":{"ID":32996,"DIS_CODE":0,"TOWNNAME":"善化區","LI":"溪美里","LIN":"7鄰","STREET":" ","SECT":" ","MAREA":"溪尾","LANE":" ","ALLEY":" ","HOUSE_NO":"６２號之５","E_COORD97":176831.01999999999,"N_COORD97":2561293.27,"ADDRESS":"溪尾６２號之５","OBJECTID":32996},"geometry":{"x":176831.02000000142,"y":2561293.2700000014}},{"attributes":{"ID":32997,"DIS_CODE":0,"TOWNNAME":"善化區","LI":"東隆里","LIN":"7鄰","STREET":" ","SECT":" ","MAREA":"東勢寮","LANE":" ","ALLEY":" ","HOUSE_NO":"１９３號之７","E_COORD97":179812.20999999999,"N_COORD97":2561788.52,"ADDRESS":"東勢寮１９３號之７","OBJECTID":32997},"geometry":{"x":179812.21000000089,"y":2561788.5199999996}},{"attributes":{"ID":32998,"DIS_CODE":0,"TOWNNAME":"善化區","LI":"溪美里","LIN":"7鄰","STREET":" ","SECT":" ","MAREA":"溪尾","LANE":" ","ALLEY":" ","HOUSE_NO":"６２號之７","E_COORD97":176823.17999999999,"N_COORD97":2561288.52,"ADDRESS":"溪尾６２號之７","OBJECTID":32998},"geometry":{"x":176823.1799999997,"y":2561288.5200000014}},{"attributes":{"ID":32999,"DIS_CODE":0,"TOWNNAME":"善化區","LI":"溪美里","LIN":"7鄰","STREET":" ","SECT":" ","MAREA":"溪尾","LANE":" ","ALLEY":" ","HOUSE_NO":"６２號","E_COORD97":176837.92999999999,"N_COORD97":2561299.27,"ADDRESS":"溪尾６２號","OBJECTID":32999},"geometry":{"x":176837.9299999997,"y":2561299.2700000033}},{"attributes":{"ID":33000,"DIS_CODE":0,"TOWNNAME":"善化區","LI":"胡厝里","LIN":"7鄰","STREET":" ","SECT":" ","MAREA":"胡厝寮","LANE":" ","ALLEY":" ","HOUSE_NO":"２０２號","E_COORD97":175238.66,"N_COORD97":2560417.25,"ADDRESS":"胡厝寮２０２號","OBJECTID":33000},"geometry":{"x":175238.66000000015,"y":2560417.25}}]}