{"displayFieldName":"TOWNNAME","fieldAliases":{"ID":"ID","DIS_CODE":"DIS_CODE","TOWNNAME":"TOWNNAME","LI":"LI","LIN":"LIN","STREET":"STREET","SECT":"SECT","MAREA":"MAREA","LANE":"LANE","ALLEY":"ALLEY","HOUSE_NO":"HOUSE_NO","E_COORD97":"E_COORD97","N_COORD97":"N_COORD97","ADDRESS":"ADDRESS","OBJECTID":"OBJECTID"},"geometryType":"esriGeometryPoint","spatialReference":{"wkid":102443,"latestWkid":3826},"fields":[{"name":"ID","type":"esriFieldTypeDouble","alias":"ID"},{"name":"DIS_CODE","type":"esriFieldTypeInteger","alias":"DIS_CODE"},{"name":"TOWNNAME","type":"esriFieldTypeString","alias":"TOWNNAME","length":8},{"name":"LI","type":"esriFieldTypeString","alias":"LI","length":8},{"name":"LIN","type":"esriFieldTypeString","alias":"LIN","length":12},{"name":"STREET","type":"esriFieldTypeString","alias":"STREET","length":20},{"name":"SECT","type":"esriFieldTypeString","alias":"SECT","length":8},{"name":"MAREA","type":"esriFieldTypeString","alias":"MAREA","length":12},{"name":"LANE","type":"esriFieldTypeString","alias":"LANE","length":10},{"name":"ALLEY","type":"esriFieldTypeString","alias":"ALLEY","length":10},{"name":"HOUSE_NO","type":"esriFieldTypeString","alias":"HOUSE_NO","length":20},{"name":"E_COORD97","type":"esriFieldTypeDouble","alias":"E_COORD97"},{"name":"N_COORD97","type":"esriFieldTypeDouble","alias":"N_COORD97"},{"name":"ADDRESS","type":"esriFieldTypeString","alias":"ADDRESS","length":50},{"name":"OBJECTID","type":"esriFieldTypeOID","alias":"OBJECTID"}],"features":[{"attributes":{"ID":70201,"DIS_CODE":0,"TOWNNAME":"東區","LI":"東明里","LIN":"7鄰","STREET":"東興路","SECT":" ","MAREA":" ","LANE":" ","ALLEY":" ","HOUSE_NO":"１１１號七樓","E_COORD97":170939.28,"N_COORD97":2543664.0299999998,"ADDRESS":"東興路１１１號七樓","OBJECTID":70201},"geometry":{"x":170939.28000000212,"y":2543664.0300000031}},{"attributes":{"ID":70202,"DIS_CODE":0,"TOWNNAME":"東區","LI":"東明里","LIN":"7鄰","STREET":"東興路","SECT":" ","MAREA":" ","LANE":" ","ALLEY":" ","HOUSE_NO":"１１１號二樓","E_COORD97":170939.28,"N_COORD97":2543664.0299999998,"ADDRESS":"東興路１１１號二樓","OBJECTID":70202},"geometry":{"x":170939.28000000212,"y":2543664.0300000031}},{"attributes":{"ID":70203,"DIS_CODE":0,"TOWNNAME":"東區","LI":"東明里","LIN":"7鄰","STREET":"東興路","SECT":" ","MAREA":" ","LANE":" ","ALLEY":" ","HOUSE_NO":"１１１號五樓","E_COORD97":170939.28,"N_COORD97":2543664.0299999998,"ADDRESS":"東興路１１１號五樓","OBJECTID":70203},"geometry":{"x":170939.28000000212,"y":2543664.0300000031}},{"attributes":{"ID":70204,"DIS_CODE":0,"TOWNNAME":"北門區","LI":"北門里","LIN":"6鄰","STREET":" ","SECT":" ","MAREA":"北門","LANE":" ","ALLEY":" ","HOUSE_NO":"１９６號","E_COORD97":160069.20000000001,"N_COORD97":2574450.8999999999,"ADDRESS":"北門１９６號","OBJECTID":70204},"geometry":{"x":160069.20000000112,"y":2574450.9000000022}},{"attributes":{"ID":70205,"DIS_CODE":0,"TOWNNAME":"北門區","LI":"北門里","LIN":"6鄰","STREET":" ","SECT":" ","MAREA":"北門","LANE":" ","ALLEY":" ","HOUSE_NO":"１９７號","E_COORD97":160052.64000000001,"N_COORD97":2574457.6600000001,"ADDRESS":"北門１９７號","OBJECTID":70205},"geometry":{"x":160052.63999999966,"y":2574457.6600000001}},{"attributes":{"ID":70206,"DIS_CODE":0,"TOWNNAME":"北門區","LI":"北門里","LIN":"6鄰","STREET":" ","SECT":" ","MAREA":"北門","LANE":" ","ALLEY":" ","HOUSE_NO":"１９８號","E_COORD97":160048.25,"N_COORD97":2574447.1600000001,"ADDRESS":"北門１９８號","OBJECTID":70206},"geometry":{"x":160048.25000000093,"y":2574447.1600000001}},{"attributes":{"ID":70207,"DIS_CODE":0,"TOWNNAME":"北門區","LI":"北門里","LIN":"6鄰","STREET":" ","SECT":" ","MAREA":"北門","LANE":" ","ALLEY":" ","HOUSE_NO":"１９９號","E_COORD97":160081.51000000001,"N_COORD97":2574432.5299999998,"ADDRESS":"北門１９９號","OBJECTID":70207},"geometry":{"x":160081.51000000071,"y":2574432.5300000012}},{"attributes":{"ID":70208,"DIS_CODE":0,"TOWNNAME":"北門區","LI":"北門里","LIN":"6鄰","STREET":" ","SECT":" ","MAREA":"北門","LANE":" ","ALLEY":" ","HOUSE_NO":"２００號","E_COORD97":160094.51000000001,"N_COORD97":2574413.6800000002,"ADDRESS":"北門２００號","OBJECTID":70208},"geometry":{"x":160094.50999999978,"y":2574413.6799999997}},{"attributes":{"ID":70209,"DIS_CODE":0,"TOWNNAME":"北門區","LI":"永隆里","LIN":"6鄰","STREET":" ","SECT":" ","MAREA":"北門","LANE":" ","ALLEY":" ","HOUSE_NO":"７０號","E_COORD97":160223.64999999999,"N_COORD97":2574440.6099999999,"ADDRESS":"北門７０號","OBJECTID":70209},"geometry":{"x":160223.6500000013,"y":2574440.6099999994}},{"attributes":{"ID":70210,"DIS_CODE":0,"TOWNNAME":"北門區","LI":"永隆里","LIN":"6鄰","STREET":" ","SECT":" ","MAREA":"北門","LANE":" ","ALLEY":" ","HOUSE_NO":"７２號","E_COORD97":160242.92999999999,"N_COORD97":2574451.0699999998,"ADDRESS":"北門７２號","OBJECTID":70210},"geometry":{"x":160242.93000000063,"y":2574451.0700000003}},{"attributes":{"ID":70211,"DIS_CODE":0,"TOWNNAME":"北門區","LI":"永隆里","LIN":"6鄰","STREET":" ","SECT":" ","MAREA":"北門","LANE":" ","ALLEY":" ","HOUSE_NO":"７３號","E_COORD97":160221.48000000001,"N_COORD97":2574451.7000000002,"ADDRESS":"北門７３號","OBJECTID":70211},"geometry":{"x":160221.48000000138,"y":2574451.7000000011}},{"attributes":{"ID":70212,"DIS_CODE":0,"TOWNNAME":"北門區","LI":"永隆里","LIN":"6鄰","STREET":" ","SECT":" ","MAREA":"北門","LANE":" ","ALLEY":" ","HOUSE_NO":"７３號之１","E_COORD97":160228.57000000001,"N_COORD97":2574467.25,"ADDRESS":"北門７３號之１","OBJECTID":70212},"geometry":{"x":160228.5700000003,"y":2574467.25}},{"attributes":{"ID":70213,"DIS_CODE":0,"TOWNNAME":"北門區","LI":"永隆里","LIN":"6鄰","STREET":" ","SECT":" ","MAREA":"北門","LANE":" ","ALLEY":" ","HOUSE_NO":"７５號","E_COORD97":160258.98000000001,"N_COORD97":2574463.9300000002,"ADDRESS":"北門７５號","OBJECTID":70213},"geometry":{"x":160258.98000000138,"y":2574463.9300000016}},{"attributes":{"ID":70214,"DIS_CODE":0,"TOWNNAME":"北門區","LI":"永隆里","LIN":"6鄰","STREET":" ","SECT":" ","MAREA":"北門","LANE":" ","ALLEY":" ","HOUSE_NO":"７６號","E_COORD97":160229.14000000001,"N_COORD97":2574486.9500000002,"ADDRESS":"北門７６號","OBJECTID":70214},"geometry":{"x":160229.13999999966,"y":2574486.9500000011}},{"attributes":{"ID":70215,"DIS_CODE":0,"TOWNNAME":"北門區","LI":"永隆里","LIN":"6鄰","STREET":" ","SECT":" ","MAREA":"北門","LANE":" ","ALLEY":" ","HOUSE_NO":"７７號","E_COORD97":160220.13,"N_COORD97":2574477.6400000001,"ADDRESS":"北門７７號","OBJECTID":70215},"geometry":{"x":160220.13000000082,"y":2574477.6400000025}},{"attributes":{"ID":70216,"DIS_CODE":0,"TOWNNAME":"北門區","LI":"永隆里","LIN":"6鄰","STREET":" ","SECT":" ","MAREA":"北門","LANE":" ","ALLEY":" ","HOUSE_NO":"７９號","E_COORD97":160199.60000000001,"N_COORD97":2574491.8300000001,"ADDRESS":"北門７９號","OBJECTID":70216},"geometry":{"x":160199.60000000056,"y":2574491.8300000019}},{"attributes":{"ID":70217,"DIS_CODE":0,"TOWNNAME":"北門區","LI":"保吉里","LIN":"6鄰","STREET":" ","SECT":" ","MAREA":"蚵寮","LANE":" ","ALLEY":" ","HOUSE_NO":"１９０號","E_COORD97":161590.14999999999,"N_COORD97":2576044.7000000002,"ADDRESS":"蚵寮１９０號","OBJECTID":70217},"geometry":{"x":161590.1500000013,"y":2576044.7000000011}},{"attributes":{"ID":70218,"DIS_CODE":0,"TOWNNAME":"北門區","LI":"保吉里","LIN":"6鄰","STREET":" ","SECT":" ","MAREA":"蚵寮","LANE":" ","ALLEY":" ","HOUSE_NO":"１９１號","E_COORD97":161592.10999999999,"N_COORD97":2576039.9399999999,"ADDRESS":"蚵寮１９１號","OBJECTID":70218},"geometry":{"x":161592.11000000127,"y":2576039.9400000013}},{"attributes":{"ID":70219,"DIS_CODE":0,"TOWNNAME":"北門區","LI":"保吉里","LIN":"6鄰","STREET":" ","SECT":" ","MAREA":"蚵寮","LANE":" ","ALLEY":" ","HOUSE_NO":"１９２號","E_COORD97":161601.75,"N_COORD97":2576039.0600000001,"ADDRESS":"蚵寮１９２號","OBJECTID":70219},"geometry":{"x":161601.75,"y":2576039.0600000005}},{"attributes":{"ID":70220,"DIS_CODE":0,"TOWNNAME":"北門區","LI":"保吉里","LIN":"6鄰","STREET":" ","SECT":" ","MAREA":"蚵寮","LANE":" ","ALLEY":" ","HOUSE_NO":"１９３號","E_COORD97":161603.98999999999,"N_COORD97":2576034.3599999999,"ADDRESS":"蚵寮１９３號","OBJECTID":70220},"geometry":{"x":161603.98999999929,"y":2576034.3600000013}},{"attributes":{"ID":70221,"DIS_CODE":0,"TOWNNAME":"北門區","LI":"保吉里","LIN":"6鄰","STREET":" ","SECT":" ","MAREA":"蚵寮","LANE":" ","ALLEY":" ","HOUSE_NO":"１９４號","E_COORD97":161606.34,"N_COORD97":2576029.73,"ADDRESS":"蚵寮１９４號","OBJECTID":70221},"geometry":{"x":161606.34000000171,"y":2576029.7300000023}},{"attributes":{"ID":70222,"DIS_CODE":0,"TOWNNAME":"北門區","LI":"鯤江里","LIN":"6鄰","STREET":" ","SECT":" ","MAREA":"蚵寮","LANE":" ","ALLEY":" ","HOUSE_NO":"１０００之２號","E_COORD97":162144.59,"N_COORD97":2575786.0800000001,"ADDRESS":"蚵寮１０００之２號","OBJECTID":70222},"geometry":{"x":162144.59000000078,"y":2575786.0800000019}},{"attributes":{"ID":70223,"DIS_CODE":0,"TOWNNAME":"北門區","LI":"錦湖里","LIN":"6鄰","STREET":" ","SECT":" ","MAREA":"渡子頭","LANE":" ","ALLEY":" ","HOUSE_NO":"５５號","E_COORD97":165076.29999999999,"N_COORD97":2577571.3900000001,"ADDRESS":"渡子頭５５號","OBJECTID":70223},"geometry":{"x":165076.29999999981,"y":2577571.3900000025}},{"attributes":{"ID":70224,"DIS_CODE":0,"TOWNNAME":"東區","LI":"崇明里","LIN":"6鄰","STREET":"大同路","SECT":"二段","MAREA":" ","LANE":"４４９巷","ALLEY":"２弄","HOUSE_NO":"９號","E_COORD97":169671.73999999999,"N_COORD97":2541304.0499999998,"ADDRESS":"大同路二段４４９巷２弄９號","OBJECTID":70224},"geometry":{"x":169671.74000000115,"y":2541304.0500000007}},{"attributes":{"ID":70225,"DIS_CODE":0,"TOWNNAME":"北門區","LI":"鯤江里","LIN":"6鄰","STREET":" ","SECT":" ","MAREA":"蚵寮","LANE":" ","ALLEY":" ","HOUSE_NO":"１０００號","E_COORD97":162173.20999999999,"N_COORD97":2575776.96,"ADDRESS":"蚵寮１０００號","OBJECTID":70225},"geometry":{"x":162173.20999999996,"y":2575776.9600000028}},{"attributes":{"ID":70226,"DIS_CODE":0,"TOWNNAME":"北門區","LI":"鯤江里","LIN":"6鄰","STREET":" ","SECT":" ","MAREA":"蚵寮","LANE":" ","ALLEY":" ","HOUSE_NO":"１００２號","E_COORD97":162169.67000000001,"N_COORD97":2575739.1499999999,"ADDRESS":"蚵寮１００２號","OBJECTID":70226},"geometry":{"x":162169.66999999993,"y":2575739.1500000004}},{"attributes":{"ID":70227,"DIS_CODE":0,"TOWNNAME":"北門區","LI":"鯤江里","LIN":"6鄰","STREET":" ","SECT":" ","MAREA":"蚵寮","LANE":" ","ALLEY":" ","HOUSE_NO":"１００３之１號","E_COORD97":162168.06,"N_COORD97":2575703.2200000002,"ADDRESS":"蚵寮１００３之１號","OBJECTID":70227},"geometry":{"x":162168.06000000052,"y":2575703.2200000044}},{"attributes":{"ID":70228,"DIS_CODE":0,"TOWNNAME":"北門區","LI":"鯤江里","LIN":"6鄰","STREET":" ","SECT":" ","MAREA":"蚵寮","LANE":" ","ALLEY":" ","HOUSE_NO":"１００３號","E_COORD97":162177.07999999999,"N_COORD97":2575719.79,"ADDRESS":"蚵寮１００３號","OBJECTID":70228},"geometry":{"x":162177.08000000101,"y":2575719.7899999991}},{"attributes":{"ID":70229,"DIS_CODE":0,"TOWNNAME":"北門區","LI":"鯤江里","LIN":"6鄰","STREET":" ","SECT":" ","MAREA":"蚵寮","LANE":" ","ALLEY":" ","HOUSE_NO":"１００６號","E_COORD97":162189.75,"N_COORD97":2575772.1899999999,"ADDRESS":"蚵寮１００６號","OBJECTID":70229},"geometry":{"x":162189.75,"y":2575772.1899999995}},{"attributes":{"ID":70230,"DIS_CODE":0,"TOWNNAME":"北門區","LI":"保吉里","LIN":"6鄰","STREET":" ","SECT":" ","MAREA":"蚵寮","LANE":" ","ALLEY":" ","HOUSE_NO":"１７２號","E_COORD97":161540.23999999999,"N_COORD97":2576095.2599999998,"ADDRESS":"蚵寮１７２號","OBJECTID":70230},"geometry":{"x":161540.24000000115,"y":2576095.2600000035}},{"attributes":{"ID":70231,"DIS_CODE":0,"TOWNNAME":"北門區","LI":"保吉里","LIN":"6鄰","STREET":" ","SECT":" ","MAREA":"蚵寮","LANE":" ","ALLEY":" ","HOUSE_NO":"１７３號","E_COORD97":161574.48000000001,"N_COORD97":2576116.7200000002,"ADDRESS":"蚵寮１７３號","OBJECTID":70231},"geometry":{"x":161574.48000000138,"y":2576116.7200000044}},{"attributes":{"ID":70232,"DIS_CODE":0,"TOWNNAME":"北門區","LI":"保吉里","LIN":"6鄰","STREET":" ","SECT":" ","MAREA":"蚵寮","LANE":" ","ALLEY":" ","HOUSE_NO":"１７５號","E_COORD97":161562.31,"N_COORD97":2576111.21,"ADDRESS":"蚵寮１７５號","OBJECTID":70232},"geometry":{"x":161562.31000000145,"y":2576111.2100000028}},{"attributes":{"ID":70233,"DIS_CODE":0,"TOWNNAME":"東區","LI":"崇明里","LIN":"6鄰","STREET":"大同路","SECT":"二段","MAREA":" ","LANE":"４４９巷","ALLEY":"２弄","HOUSE_NO":"２９號","E_COORD97":169712.78,"N_COORD97":2541333.4300000002,"ADDRESS":"大同路二段４４９巷２弄２９號","OBJECTID":70233},"geometry":{"x":169712.78000000026,"y":2541333.4300000016}},{"attributes":{"ID":70234,"DIS_CODE":0,"TOWNNAME":"東區","LI":"崇明里","LIN":"6鄰","STREET":"大同路","SECT":"二段","MAREA":" ","LANE":"４４９巷","ALLEY":"２弄","HOUSE_NO":"３１號","E_COORD97":169723.48999999999,"N_COORD97":2541341.79,"ADDRESS":"大同路二段４４９巷２弄３１號","OBJECTID":70234},"geometry":{"x":169723.49000000022,"y":2541341.7899999991}},{"attributes":{"ID":70235,"DIS_CODE":0,"TOWNNAME":"東區","LI":"崇明里","LIN":"6鄰","STREET":"大同路","SECT":"二段","MAREA":" ","LANE":"４４９巷","ALLEY":"２弄","HOUSE_NO":"４０號","E_COORD97":169764.73999999999,"N_COORD97":2541342.7200000002,"ADDRESS":"大同路二段４４９巷２弄４０號","OBJECTID":70235},"geometry":{"x":169764.74000000209,"y":2541342.7200000025}},{"attributes":{"ID":70236,"DIS_CODE":0,"TOWNNAME":"永康區","LI":"中華里","LIN":"6鄰","STREET":"小東路","SECT":" ","MAREA":" ","LANE":"６４７巷","ALLEY":"４２弄","HOUSE_NO":"９號","E_COORD97":171982.70000000001,"N_COORD97":2544530.7200000002,"ADDRESS":"小東路６４７巷４２弄９號","OBJECTID":70236},"geometry":{"x":171982.70000000112,"y":2544530.7200000007}},{"attributes":{"ID":70237,"DIS_CODE":0,"TOWNNAME":"永康區","LI":"中華里","LIN":"6鄰","STREET":"小東路","SECT":" ","MAREA":" ","LANE":"６４７巷","ALLEY":"４２弄","HOUSE_NO":"２１號","E_COORD97":172011.38,"N_COORD97":2544531.0099999998,"ADDRESS":"小東路６４７巷４２弄２１號","OBJECTID":70237},"geometry":{"x":172011.38000000082,"y":2544531.0099999998}},{"attributes":{"ID":70238,"DIS_CODE":0,"TOWNNAME":"永康區","LI":"中華里","LIN":"6鄰","STREET":"小東路","SECT":" ","MAREA":" ","LANE":"６４７巷","ALLEY":"４２弄","HOUSE_NO":"７號","E_COORD97":171978.62,"N_COORD97":2544530.7200000002,"ADDRESS":"小東路６４７巷４２弄７號","OBJECTID":70238},"geometry":{"x":171978.62000000011,"y":2544530.7200000007}},{"attributes":{"ID":70239,"DIS_CODE":0,"TOWNNAME":"北門區","LI":"保吉里","LIN":"6鄰","STREET":" ","SECT":" ","MAREA":"蚵寮","LANE":" ","ALLEY":" ","HOUSE_NO":"１７６號","E_COORD97":161564.17999999999,"N_COORD97":2576106.8700000001,"ADDRESS":"蚵寮１７６號","OBJECTID":70239},"geometry":{"x":161564.1799999997,"y":2576106.8700000029}},{"attributes":{"ID":70240,"DIS_CODE":0,"TOWNNAME":"安南區","LI":"學東里","LIN":"6鄰","STREET":"公學路","SECT":"七段","MAREA":" ","LANE":"１３１巷","ALLEY":"２０弄","HOUSE_NO":"１０號","E_COORD97":161619.01000000001,"N_COORD97":2553359.6800000002,"ADDRESS":"公學路七段１３１巷２０弄１０號","OBJECTID":70240},"geometry":{"x":161619.01000000071,"y":2553359.6800000034}},{"attributes":{"ID":70241,"DIS_CODE":0,"TOWNNAME":"安南區","LI":"學東里","LIN":"6鄰","STREET":"公學路","SECT":"七段","MAREA":" ","LANE":"１３１巷","ALLEY":"２０弄","HOUSE_NO":"１１號","E_COORD97":161611.82000000001,"N_COORD97":2553337.9199999999,"ADDRESS":"公學路七段１３１巷２０弄１１號","OBJECTID":70241},"geometry":{"x":161611.8200000003,"y":2553337.9199999981}},{"attributes":{"ID":70242,"DIS_CODE":0,"TOWNNAME":"安南區","LI":"學東里","LIN":"6鄰","STREET":"公學路","SECT":"七段","MAREA":" ","LANE":"１３１巷","ALLEY":"２０弄","HOUSE_NO":"１２號","E_COORD97":161614.91,"N_COORD97":2553360.5499999998,"ADDRESS":"公學路七段１３１巷２０弄１２號","OBJECTID":70242},"geometry":{"x":161614.91000000108,"y":2553360.5500000007}},{"attributes":{"ID":70243,"DIS_CODE":0,"TOWNNAME":"安南區","LI":"學東里","LIN":"6鄰","STREET":"公學路","SECT":"七段","MAREA":" ","LANE":"１３１巷","ALLEY":"２０弄","HOUSE_NO":"１３號","E_COORD97":161608.78,"N_COORD97":2553338.7000000002,"ADDRESS":"公學路七段１３１巷２０弄１３號","OBJECTID":70243},"geometry":{"x":161608.78000000026,"y":2553338.6999999974}},{"attributes":{"ID":70244,"DIS_CODE":0,"TOWNNAME":"安南區","LI":"學東里","LIN":"6鄰","STREET":"公學路","SECT":"七段","MAREA":" ","LANE":"１３１巷","ALLEY":"２０弄","HOUSE_NO":"１４號","E_COORD97":161612.41,"N_COORD97":2553360.5499999998,"ADDRESS":"公學路七段１３１巷２０弄１４號","OBJECTID":70244},"geometry":{"x":161612.41000000015,"y":2553360.5500000007}},{"attributes":{"ID":70245,"DIS_CODE":0,"TOWNNAME":"安南區","LI":"學東里","LIN":"6鄰","STREET":"公學路","SECT":"七段","MAREA":" ","LANE":"１３１巷","ALLEY":"２０弄","HOUSE_NO":"１５號","E_COORD97":161603.60999999999,"N_COORD97":2553340.3399999999,"ADDRESS":"公學路七段１３１巷２０弄１５號","OBJECTID":70245},"geometry":{"x":161603.61000000127,"y":2553340.3399999999}},{"attributes":{"ID":70246,"DIS_CODE":0,"TOWNNAME":"安南區","LI":"學東里","LIN":"6鄰","STREET":"公學路","SECT":"七段","MAREA":" ","LANE":"１３１巷","ALLEY":"２０弄","HOUSE_NO":"１６號","E_COORD97":161608.60000000001,"N_COORD97":2553361.8700000001,"ADDRESS":"公學路七段１３１巷２０弄１６號","OBJECTID":70246},"geometry":{"x":161608.60000000056,"y":2553361.870000001}},{"attributes":{"ID":70247,"DIS_CODE":0,"TOWNNAME":"安南區","LI":"學東里","LIN":"6鄰","STREET":"公學路","SECT":"七段","MAREA":" ","LANE":"１３１巷","ALLEY":"２０弄","HOUSE_NO":"１號","E_COORD97":161631.23000000001,"N_COORD97":2553333.98,"ADDRESS":"公學路七段１３１巷２０弄１號","OBJECTID":70247},"geometry":{"x":161631.23000000045,"y":2553333.9800000004}},{"attributes":{"ID":70248,"DIS_CODE":0,"TOWNNAME":"安南區","LI":"學東里","LIN":"6鄰","STREET":"公學路","SECT":"七段","MAREA":" ","LANE":"１３１巷","ALLEY":"２０弄","HOUSE_NO":"２號","E_COORD97":161636.17000000001,"N_COORD97":2553356.1600000001,"ADDRESS":"公學路七段１３１巷２０弄２號","OBJECTID":70248},"geometry":{"x":161636.16999999993,"y":2553356.1600000001}},{"attributes":{"ID":70249,"DIS_CODE":0,"TOWNNAME":"安南區","LI":"學東里","LIN":"6鄰","STREET":"公學路","SECT":"七段","MAREA":" ","LANE":"１３１巷","ALLEY":"２０弄","HOUSE_NO":"３號","E_COORD97":161627.44,"N_COORD97":2553334.4300000002,"ADDRESS":"公學路七段１３１巷２０弄３號","OBJECTID":70249},"geometry":{"x":161627.44000000134,"y":2553334.4300000034}},{"attributes":{"ID":70250,"DIS_CODE":0,"TOWNNAME":"北門區","LI":"保吉里","LIN":"6鄰","STREET":" ","SECT":" ","MAREA":"蚵寮","LANE":" ","ALLEY":" ","HOUSE_NO":"１７７號","E_COORD97":161566.79999999999,"N_COORD97":2576103.4300000002,"ADDRESS":"蚵寮１７７號","OBJECTID":70250},"geometry":{"x":161566.79999999981,"y":2576103.4299999997}},{"attributes":{"ID":70251,"DIS_CODE":0,"TOWNNAME":"北門區","LI":"保吉里","LIN":"6鄰","STREET":" ","SECT":" ","MAREA":"蚵寮","LANE":" ","ALLEY":" ","HOUSE_NO":"１７８號","E_COORD97":161568.69,"N_COORD97":2576101.1899999999,"ADDRESS":"蚵寮１７８號","OBJECTID":70251},"geometry":{"x":161568.69000000041,"y":2576101.1899999995}},{"attributes":{"ID":70252,"DIS_CODE":0,"TOWNNAME":"安南區","LI":"學東里","LIN":"6鄰","STREET":"公學路","SECT":"七段","MAREA":" ","LANE":"１３１巷","ALLEY":"２０弄","HOUSE_NO":"４號","E_COORD97":161630.89000000001,"N_COORD97":2553357.3300000001,"ADDRESS":"公學路七段１３１巷２０弄４號","OBJECTID":70252},"geometry":{"x":161630.88999999966,"y":2553357.3300000019}},{"attributes":{"ID":70253,"DIS_CODE":0,"TOWNNAME":"安南區","LI":"學東里","LIN":"6鄰","STREET":"公學路","SECT":"七段","MAREA":" ","LANE":"１３１巷","ALLEY":"２０弄","HOUSE_NO":"５號","E_COORD97":161622.70999999999,"N_COORD97":2553335.6299999999,"ADDRESS":"公學路七段１３１巷２０弄５號","OBJECTID":70253},"geometry":{"x":161622.71000000183,"y":2553335.6300000027}},{"attributes":{"ID":70254,"DIS_CODE":0,"TOWNNAME":"安南區","LI":"學東里","LIN":"6鄰","STREET":"公學路","SECT":"七段","MAREA":" ","LANE":"１３１巷","ALLEY":"２０弄","HOUSE_NO":"６號","E_COORD97":161626.78,"N_COORD97":2553358.5,"ADDRESS":"公學路七段１３１巷２０弄６號","OBJECTID":70254},"geometry":{"x":161626.78000000026,"y":2553358.5000000019}},{"attributes":{"ID":70255,"DIS_CODE":0,"TOWNNAME":"安南區","LI":"學東里","LIN":"6鄰","STREET":"公學路","SECT":"七段","MAREA":" ","LANE":"１３１巷","ALLEY":"２０弄","HOUSE_NO":"７號","E_COORD97":161618.82000000001,"N_COORD97":2553336.5600000001,"ADDRESS":"公學路七段１３１巷２０弄７號","OBJECTID":70255},"geometry":{"x":161618.82000000216,"y":2553336.5600000005}},{"attributes":{"ID":70256,"DIS_CODE":0,"TOWNNAME":"安南區","LI":"學東里","LIN":"6鄰","STREET":"公學路","SECT":"七段","MAREA":" ","LANE":"１３１巷","ALLEY":"２０弄","HOUSE_NO":"８號","E_COORD97":161623.12,"N_COORD97":2553358.9399999999,"ADDRESS":"公學路七段１３１巷２０弄８號","OBJECTID":70256},"geometry":{"x":161623.12000000011,"y":2553358.9400000013}},{"attributes":{"ID":70257,"DIS_CODE":0,"TOWNNAME":"安南區","LI":"學東里","LIN":"6鄰","STREET":"公學路","SECT":"七段","MAREA":" ","LANE":"１３１巷","ALLEY":"２０弄","HOUSE_NO":"９號","E_COORD97":161615.66,"N_COORD97":2553337.1400000001,"ADDRESS":"公學路七段１３１巷２０弄９號","OBJECTID":70257},"geometry":{"x":161615.66000000015,"y":2553337.1399999987}},{"attributes":{"ID":70258,"DIS_CODE":0,"TOWNNAME":"安南區","LI":"學東里","LIN":"6鄰","STREET":"公學路","SECT":"七段","MAREA":" ","LANE":"１３１巷","ALLEY":"２弄","HOUSE_NO":"１０號","E_COORD97":161647.23999999999,"N_COORD97":2553418.5499999998,"ADDRESS":"公學路七段１３１巷２弄１０號","OBJECTID":70258},"geometry":{"x":161647.24000000115,"y":2553418.5500000007}},{"attributes":{"ID":70259,"DIS_CODE":0,"TOWNNAME":"安南區","LI":"學東里","LIN":"6鄰","STREET":"公學路","SECT":"七段","MAREA":" ","LANE":"１３１巷","ALLEY":"２弄","HOUSE_NO":"１１號","E_COORD97":161631.54000000001,"N_COORD97":2553376.73,"ADDRESS":"公學路七段１３１巷２弄１１號","OBJECTID":70259},"geometry":{"x":161631.54000000004,"y":2553376.7300000004}},{"attributes":{"ID":70260,"DIS_CODE":0,"TOWNNAME":"安南區","LI":"學東里","LIN":"6鄰","STREET":"公學路","SECT":"七段","MAREA":" ","LANE":"１３１巷","ALLEY":"２弄","HOUSE_NO":"１２號","E_COORD97":161643.76999999999,"N_COORD97":2553420.0800000001,"ADDRESS":"公學路七段１３１巷２弄１２號","OBJECTID":70260},"geometry":{"x":161643.77000000142,"y":2553420.0800000019}},{"attributes":{"ID":70261,"DIS_CODE":0,"TOWNNAME":"安南區","LI":"學東里","LIN":"6鄰","STREET":"公學路","SECT":"七段","MAREA":" ","LANE":"１３１巷","ALLEY":"２弄","HOUSE_NO":"１３號","E_COORD97":161611.75,"N_COORD97":2553380.1699999999,"ADDRESS":"公學路七段１３１巷２弄１３號","OBJECTID":70261},"geometry":{"x":161611.75,"y":2553380.1699999999}},{"attributes":{"ID":70262,"DIS_CODE":0,"TOWNNAME":"安南區","LI":"學東里","LIN":"6鄰","STREET":"公學路","SECT":"七段","MAREA":" ","LANE":"１３１巷","ALLEY":"２弄","HOUSE_NO":"１４號","E_COORD97":161639.39000000001,"N_COORD97":2553421.2999999998,"ADDRESS":"公學路七段１３１巷２弄１４號","OBJECTID":70262},"geometry":{"x":161639.38999999966,"y":2553421.3000000045}},{"attributes":{"ID":70263,"DIS_CODE":0,"TOWNNAME":"安南區","LI":"學東里","LIN":"6鄰","STREET":"公學路","SECT":"七段","MAREA":" ","LANE":"１３１巷","ALLEY":"２弄","HOUSE_NO":"１５號","E_COORD97":161612.26000000001,"N_COORD97":2553385.9700000002,"ADDRESS":"公學路七段１３１巷２弄１５號","OBJECTID":70263},"geometry":{"x":161612.26000000071,"y":2553385.9700000044}},{"attributes":{"ID":70264,"DIS_CODE":0,"TOWNNAME":"安南區","LI":"學東里","LIN":"6鄰","STREET":"公學路","SECT":"七段","MAREA":" ","LANE":"１３１巷","ALLEY":"２弄","HOUSE_NO":"１６號","E_COORD97":161635.92999999999,"N_COORD97":2553424.3500000001,"ADDRESS":"公學路七段１３１巷２弄１６號","OBJECTID":70264},"geometry":{"x":161635.9299999997,"y":2553424.3500000015}},{"attributes":{"ID":70265,"DIS_CODE":0,"TOWNNAME":"北門區","LI":"保吉里","LIN":"6鄰","STREET":" ","SECT":" ","MAREA":"蚵寮","LANE":" ","ALLEY":" ","HOUSE_NO":"１７９號","E_COORD97":161569.23000000001,"N_COORD97":2576096.0499999998,"ADDRESS":"蚵寮１７９號","OBJECTID":70265},"geometry":{"x":161569.23000000138,"y":2576096.0500000007}},{"attributes":{"ID":70266,"DIS_CODE":0,"TOWNNAME":"北門區","LI":"保吉里","LIN":"6鄰","STREET":" ","SECT":" ","MAREA":"蚵寮","LANE":" ","ALLEY":" ","HOUSE_NO":"１８０號","E_COORD97":161571.35999999999,"N_COORD97":2576092.8900000001,"ADDRESS":"蚵寮１８０號","OBJECTID":70266},"geometry":{"x":161571.36000000127,"y":2576092.8900000025}},{"attributes":{"ID":70267,"DIS_CODE":0,"TOWNNAME":"北門區","LI":"保吉里","LIN":"6鄰","STREET":" ","SECT":" ","MAREA":"蚵寮","LANE":" ","ALLEY":" ","HOUSE_NO":"１８１號","E_COORD97":161573.23999999999,"N_COORD97":2576089.4900000002,"ADDRESS":"蚵寮１８１號","OBJECTID":70267},"geometry":{"x":161573.24000000022,"y":2576089.4900000002}},{"attributes":{"ID":70268,"DIS_CODE":0,"TOWNNAME":"北門區","LI":"保吉里","LIN":"6鄰","STREET":" ","SECT":" ","MAREA":"蚵寮","LANE":" ","ALLEY":" ","HOUSE_NO":"１８２號","E_COORD97":161576.12,"N_COORD97":2576086.6899999999,"ADDRESS":"蚵寮１８２號","OBJECTID":70268},"geometry":{"x":161576.12000000104,"y":2576086.6900000013}},{"attributes":{"ID":70269,"DIS_CODE":0,"TOWNNAME":"北門區","LI":"保吉里","LIN":"6鄰","STREET":" ","SECT":" ","MAREA":"蚵寮","LANE":" ","ALLEY":" ","HOUSE_NO":"１８７號","E_COORD97":161590.92999999999,"N_COORD97":2576068.1800000002,"ADDRESS":"蚵寮１８７號","OBJECTID":70269},"geometry":{"x":161590.93000000063,"y":2576068.1799999997}},{"attributes":{"ID":70270,"DIS_CODE":0,"TOWNNAME":"安南區","LI":"學東里","LIN":"6鄰","STREET":"公學路","SECT":"七段","MAREA":" ","LANE":"１３１巷","ALLEY":"２弄","HOUSE_NO":"１７號","E_COORD97":161614.09,"N_COORD97":2553391.5699999998,"ADDRESS":"公學路七段１３１巷２弄１７號","OBJECTID":70270},"geometry":{"x":161614.08999999985,"y":2553391.570000004}},{"attributes":{"ID":70271,"DIS_CODE":0,"TOWNNAME":"安南區","LI":"學東里","LIN":"6鄰","STREET":"公學路","SECT":"七段","MAREA":" ","LANE":"１３１巷","ALLEY":"２弄","HOUSE_NO":"１８號","E_COORD97":161632.04999999999,"N_COORD97":2553425.27,"ADDRESS":"公學路七段１３１巷２弄１８號","OBJECTID":70271},"geometry":{"x":161632.05000000168,"y":2553425.2699999996}},{"attributes":{"ID":70272,"DIS_CODE":0,"TOWNNAME":"仁德區","LI":"大甲里","LIN":" ","STREET":"行大一街","SECT":" ","MAREA":" ","LANE":" ","ALLEY":" ","HOUSE_NO":"３１３號","E_COORD97":169601.97,"N_COORD97":2535046.75,"ADDRESS":"行大一街３１３號","OBJECTID":70272},"geometry":{"x":169601.97000000067,"y":2535046.75}},{"attributes":{"ID":70273,"DIS_CODE":0,"TOWNNAME":"北門區","LI":"保吉里","LIN":"6鄰","STREET":" ","SECT":" ","MAREA":"蚵寮","LANE":" ","ALLEY":" ","HOUSE_NO":"１８８號","E_COORD97":161583.88,"N_COORD97":2576054.1899999999,"ADDRESS":"蚵寮１８８號","OBJECTID":70273},"geometry":{"x":161583.87999999989,"y":2576054.1899999995}},{"attributes":{"ID":70274,"DIS_CODE":0,"TOWNNAME":"北門區","LI":"保吉里","LIN":"6鄰","STREET":" ","SECT":" ","MAREA":"蚵寮","LANE":" ","ALLEY":" ","HOUSE_NO":"１８９號","E_COORD97":161587.51000000001,"N_COORD97":2576049.4300000002,"ADDRESS":"蚵寮１８９號","OBJECTID":70274},"geometry":{"x":161587.50999999978,"y":2576049.4299999997}},{"attributes":{"ID":70275,"DIS_CODE":0,"TOWNNAME":"北門區","LI":"錦湖里","LIN":"6鄰","STREET":" ","SECT":" ","MAREA":"渡子頭","LANE":" ","ALLEY":" ","HOUSE_NO":"４６號","E_COORD97":165119.14999999999,"N_COORD97":2577596.4100000001,"ADDRESS":"渡子頭４６號","OBJECTID":70275},"geometry":{"x":165119.1500000013,"y":2577596.4100000039}},{"attributes":{"ID":70276,"DIS_CODE":0,"TOWNNAME":"安南區","LI":"學東里","LIN":"6鄰","STREET":"公學路","SECT":"七段","MAREA":" ","LANE":"１３１巷","ALLEY":"２弄","HOUSE_NO":"１９號","E_COORD97":161616.13,"N_COORD97":2553396.46,"ADDRESS":"公學路七段１３１巷２弄１９號","OBJECTID":70276},"geometry":{"x":161616.12999999989,"y":2553396.4600000046}},{"attributes":{"ID":70277,"DIS_CODE":0,"TOWNNAME":"北門區","LI":"錦湖里","LIN":"6鄰","STREET":" ","SECT":" ","MAREA":"渡子頭","LANE":" ","ALLEY":" ","HOUSE_NO":"４７號","E_COORD97":165144.57000000001,"N_COORD97":2577585.3999999999,"ADDRESS":"渡子頭４７號","OBJECTID":70277},"geometry":{"x":165144.5700000003,"y":2577585.4000000004}},{"attributes":{"ID":70278,"DIS_CODE":0,"TOWNNAME":"北門區","LI":"錦湖里","LIN":"6鄰","STREET":" ","SECT":" ","MAREA":"渡子頭","LANE":" ","ALLEY":" ","HOUSE_NO":"４８之１號","E_COORD97":165108.42999999999,"N_COORD97":2577633.29,"ADDRESS":"渡子頭４８之１號","OBJECTID":70278},"geometry":{"x":165108.43000000063,"y":2577633.2899999972}},{"attributes":{"ID":70279,"DIS_CODE":0,"TOWNNAME":"北門區","LI":"錦湖里","LIN":"6鄰","STREET":" ","SECT":" ","MAREA":"渡子頭","LANE":" ","ALLEY":" ","HOUSE_NO":"４８號之１","E_COORD97":165108.42999999999,"N_COORD97":2577633.29,"ADDRESS":"渡子頭４８號之１","OBJECTID":70279},"geometry":{"x":165108.43000000063,"y":2577633.2899999972}},{"attributes":{"ID":70280,"DIS_CODE":0,"TOWNNAME":"安南區","LI":"學東里","LIN":"6鄰","STREET":"公學路","SECT":"七段","MAREA":" ","LANE":"１３１巷","ALLEY":"２弄","HOUSE_NO":"１號","E_COORD97":161636.88,"N_COORD97":2553403.2000000002,"ADDRESS":"公學路七段１３１巷２弄１號","OBJECTID":70280},"geometry":{"x":161636.88000000082,"y":2553403.200000003}},{"attributes":{"ID":70281,"DIS_CODE":0,"TOWNNAME":"北門區","LI":"錦湖里","LIN":"6鄰","STREET":" ","SECT":" ","MAREA":"渡子頭","LANE":" ","ALLEY":" ","HOUSE_NO":"４８號之２","E_COORD97":165117.5,"N_COORD97":2577621.7599999998,"ADDRESS":"渡子頭４８號之２","OBJECTID":70281},"geometry":{"x":165117.5,"y":2577621.7600000016}},{"attributes":{"ID":70282,"DIS_CODE":0,"TOWNNAME":"安南區","LI":"學東里","LIN":"6鄰","STREET":"公學路","SECT":"七段","MAREA":" ","LANE":"１３１巷","ALLEY":"２弄","HOUSE_NO":"２０號","E_COORD97":161627.87,"N_COORD97":2553427.8199999998,"ADDRESS":"公學路七段１３１巷２弄２０號","OBJECTID":70282},"geometry":{"x":161627.87000000011,"y":2553427.8200000022}},{"attributes":{"ID":70283,"DIS_CODE":0,"TOWNNAME":"安南區","LI":"學東里","LIN":"6鄰","STREET":"公學路","SECT":"七段","MAREA":" ","LANE":"１３１巷","ALLEY":"２弄","HOUSE_NO":"２１號","E_COORD97":161617.66,"N_COORD97":2553401.8300000001,"ADDRESS":"公學路七段１３１巷２弄２１號","OBJECTID":70283},"geometry":{"x":161617.66000000015,"y":2553401.8300000001}},{"attributes":{"ID":70284,"DIS_CODE":0,"TOWNNAME":"仁德區","LI":"成功里","LIN":"33鄰","STREET":"成功一街","SECT":" ","MAREA":" ","LANE":"６７巷","ALLEY":"２５弄","HOUSE_NO":"２４號","E_COORD97":170635.94,"N_COORD97":2540140.8300000001,"ADDRESS":"成功一街６７巷２５弄２４號","OBJECTID":70284},"geometry":{"x":170635.94000000041,"y":2540140.8300000019}},{"attributes":{"ID":70285,"DIS_CODE":0,"TOWNNAME":"安南區","LI":"學東里","LIN":"6鄰","STREET":"公學路","SECT":"七段","MAREA":" ","LANE":"１３１巷","ALLEY":"２弄","HOUSE_NO":"２２號","E_COORD97":161623.29000000001,"N_COORD97":2553429.04,"ADDRESS":"公學路七段１３１巷２弄２２號","OBJECTID":70285},"geometry":{"x":161623.29000000004,"y":2553429.040000001}},{"attributes":{"ID":70286,"DIS_CODE":0,"TOWNNAME":"安定區","LI":"蘇林里","LIN":"7鄰","STREET":" ","SECT":" ","MAREA":"蘇厝","LANE":" ","ALLEY":" ","HOUSE_NO":"８０號","E_COORD97":173660.76999999999,"N_COORD97":2558722.25,"ADDRESS":"蘇厝８０號","OBJECTID":70286},"geometry":{"x":173660.76999999955,"y":2558722.25}},{"attributes":{"ID":70287,"DIS_CODE":0,"TOWNNAME":"安南區","LI":"學東里","LIN":"6鄰","STREET":"公學路","SECT":"七段","MAREA":" ","LANE":"１３１巷","ALLEY":"２弄","HOUSE_NO":"２３號","E_COORD97":161618.48000000001,"N_COORD97":2553407.4300000002,"ADDRESS":"公學路七段１３１巷２弄２３號","OBJECTID":70287},"geometry":{"x":161618.48000000138,"y":2553407.4299999997}},{"attributes":{"ID":70288,"DIS_CODE":0,"TOWNNAME":"安南區","LI":"學東里","LIN":"6鄰","STREET":"公學路","SECT":"七段","MAREA":" ","LANE":"１３１巷","ALLEY":"２弄","HOUSE_NO":"２４號","E_COORD97":161620.42999999999,"N_COORD97":2553430.3599999999,"ADDRESS":"公學路七段１３１巷２弄２４號","OBJECTID":70288},"geometry":{"x":161620.4299999997,"y":2553430.3600000013}},{"attributes":{"ID":70289,"DIS_CODE":0,"TOWNNAME":"安南區","LI":"學東里","LIN":"6鄰","STREET":"公學路","SECT":"七段","MAREA":" ","LANE":"１３１巷","ALLEY":"２弄","HOUSE_NO":"２之１號","E_COORD97":161665.28,"N_COORD97":2553413.1699999999,"ADDRESS":"公學路七段１３１巷２弄２之１號","OBJECTID":70289},"geometry":{"x":161665.28000000119,"y":2553413.1699999999}},{"attributes":{"ID":70290,"DIS_CODE":0,"TOWNNAME":"安南區","LI":"學東里","LIN":"6鄰","STREET":"公學路","SECT":"七段","MAREA":" ","LANE":"１３１巷","ALLEY":"２弄","HOUSE_NO":"２號","E_COORD97":161663.85999999999,"N_COORD97":2553412.9500000002,"ADDRESS":"公學路七段１３１巷２弄２號","OBJECTID":70290},"geometry":{"x":161663.86000000034,"y":2553412.9500000011}},{"attributes":{"ID":70291,"DIS_CODE":0,"TOWNNAME":"安南區","LI":"學東里","LIN":"6鄰","STREET":"公學路","SECT":"七段","MAREA":" ","LANE":"１３１巷","ALLEY":"２弄","HOUSE_NO":"３號","E_COORD97":161635.20999999999,"N_COORD97":2553399.0299999998,"ADDRESS":"公學路七段１３１巷２弄３號","OBJECTID":70291},"geometry":{"x":161635.21000000089,"y":2553399.0300000012}},{"attributes":{"ID":70292,"DIS_CODE":0,"TOWNNAME":"安南區","LI":"學東里","LIN":"6鄰","STREET":"公學路","SECT":"七段","MAREA":" ","LANE":"１３１巷","ALLEY":"２弄","HOUSE_NO":"５號","E_COORD97":161633.78,"N_COORD97":2553393.9399999999,"ADDRESS":"公學路七段１３１巷２弄５號","OBJECTID":70292},"geometry":{"x":161633.78000000026,"y":2553393.9399999995}},{"attributes":{"ID":70293,"DIS_CODE":0,"TOWNNAME":"安南區","LI":"學東里","LIN":"6鄰","STREET":"公學路","SECT":"七段","MAREA":" ","LANE":"１３１巷","ALLEY":"２弄","HOUSE_NO":"６號","E_COORD97":161659.26999999999,"N_COORD97":2553413.7599999998,"ADDRESS":"公學路七段１３１巷２弄６號","OBJECTID":70293},"geometry":{"x":161659.27000000048,"y":2553413.7600000035}},{"attributes":{"ID":70294,"DIS_CODE":0,"TOWNNAME":"安南區","LI":"學東里","LIN":"6鄰","STREET":"公學路","SECT":"七段","MAREA":" ","LANE":"１３１巷","ALLEY":"２弄","HOUSE_NO":"７號","E_COORD97":161634.39000000001,"N_COORD97":2553388.4399999999,"ADDRESS":"公學路七段１３１巷２弄７號","OBJECTID":70294},"geometry":{"x":161634.38999999966,"y":2553388.4400000032}},{"attributes":{"ID":70295,"DIS_CODE":0,"TOWNNAME":"安南區","LI":"學東里","LIN":"6鄰","STREET":"公學路","SECT":"七段","MAREA":" ","LANE":"１３１巷","ALLEY":"２弄","HOUSE_NO":"８號","E_COORD97":161655.60000000001,"N_COORD97":2553415.3900000001,"ADDRESS":"公學路七段１３１巷２弄８號","OBJECTID":70295},"geometry":{"x":161655.60000000056,"y":2553415.3900000006}},{"attributes":{"ID":70296,"DIS_CODE":0,"TOWNNAME":"永康區","LI":"蔦松里","LIN":"7鄰","STREET":"蔦松一街","SECT":" ","MAREA":" ","LANE":" ","ALLEY":" ","HOUSE_NO":"３８號","E_COORD97":174007.07999999999,"N_COORD97":2549399.4900000002,"ADDRESS":"蔦松一街３８號","OBJECTID":70296},"geometry":{"x":174007.08000000194,"y":2549399.4900000021}},{"attributes":{"ID":70297,"DIS_CODE":0,"TOWNNAME":"永康區","LI":"蔦松里","LIN":"7鄰","STREET":"中正北路","SECT":" ","MAREA":" ","LANE":" ","ALLEY":" ","HOUSE_NO":"５８０號","E_COORD97":174326.13,"N_COORD97":2549512.73,"ADDRESS":"中正北路５８０號","OBJECTID":70297},"geometry":{"x":174326.12999999989,"y":2549512.7300000023}},{"attributes":{"ID":70298,"DIS_CODE":0,"TOWNNAME":"永康區","LI":"蔦松里","LIN":"7鄰","STREET":"中正北路","SECT":" ","MAREA":" ","LANE":" ","ALLEY":" ","HOUSE_NO":"５７４號","E_COORD97":174304.14000000001,"N_COORD97":2549493.6899999999,"ADDRESS":"中正北路５７４號","OBJECTID":70298},"geometry":{"x":174304.13999999966,"y":2549493.6899999995}},{"attributes":{"ID":70299,"DIS_CODE":0,"TOWNNAME":"永康區","LI":"復興里","LIN":"7鄰","STREET":"復興路","SECT":" ","MAREA":" ","LANE":" ","ALLEY":" ","HOUSE_NO":"３４５號","E_COORD97":172204.10999999999,"N_COORD97":2544314.02,"ADDRESS":"復興路３４５號","OBJECTID":70299},"geometry":{"x":172204.11000000127,"y":2544314.0199999996}},{"attributes":{"ID":70300,"DIS_CODE":0,"TOWNNAME":"永康區","LI":"復興里","LIN":"7鄰","STREET":"復興路","SECT":" ","MAREA":" ","LANE":" ","ALLEY":" ","HOUSE_NO":"３４１號","E_COORD97":172212.35999999999,"N_COORD97":2544315.3900000001,"ADDRESS":"復興路３４１號","OBJECTID":70300},"geometry":{"x":172212.36000000127,"y":2544315.3900000025}},{"attributes":{"ID":70301,"DIS_CODE":0,"TOWNNAME":"永康區","LI":"三民里","LIN":"7鄰","STREET":"三民街","SECT":" ","MAREA":" ","LANE":" ","ALLEY":" ","HOUSE_NO":"１３４號","E_COORD97":172801.76000000001,"N_COORD97":2550355.8500000001,"ADDRESS":"三民街１３４號","OBJECTID":70301},"geometry":{"x":172801.75999999885,"y":2550355.8500000015}},{"attributes":{"ID":70302,"DIS_CODE":0,"TOWNNAME":"永康區","LI":"中興里","LIN":"7鄰","STREET":"中山東路","SECT":" ","MAREA":" ","LANE":" ","ALLEY":" ","HOUSE_NO":"４５８號","E_COORD97":171937.26999999999,"N_COORD97":2545057.4900000002,"ADDRESS":"中山東路４５８號","OBJECTID":70302},"geometry":{"x":171937.27000000048,"y":2545057.4900000002}},{"attributes":{"ID":70303,"DIS_CODE":0,"TOWNNAME":"北門區","LI":"錦湖里","LIN":"6鄰","STREET":" ","SECT":" ","MAREA":"渡子頭","LANE":" ","ALLEY":" ","HOUSE_NO":"４８號","E_COORD97":165094.87,"N_COORD97":2577623.8300000001,"ADDRESS":"渡子頭４８號","OBJECTID":70303},"geometry":{"x":165094.87000000011,"y":2577623.8300000001}},{"attributes":{"ID":70304,"DIS_CODE":0,"TOWNNAME":"北門區","LI":"錦湖里","LIN":"6鄰","STREET":" ","SECT":" ","MAREA":"渡子頭","LANE":" ","ALLEY":" ","HOUSE_NO":"４９號","E_COORD97":165154.44,"N_COORD97":2577597.6200000001,"ADDRESS":"渡子頭４９號","OBJECTID":70304},"geometry":{"x":165154.44000000227,"y":2577597.6200000029}},{"attributes":{"ID":70305,"DIS_CODE":0,"TOWNNAME":"北門區","LI":"錦湖里","LIN":"6鄰","STREET":" ","SECT":" ","MAREA":"渡子頭","LANE":" ","ALLEY":" ","HOUSE_NO":"５０號之１","E_COORD97":165172.17999999999,"N_COORD97":2577566.02,"ADDRESS":"渡子頭５０號之１","OBJECTID":70305},"geometry":{"x":165172.17999999877,"y":2577566.0200000014}},{"attributes":{"ID":70306,"DIS_CODE":0,"TOWNNAME":"北門區","LI":"錦湖里","LIN":"6鄰","STREET":" ","SECT":" ","MAREA":"渡子頭","LANE":" ","ALLEY":" ","HOUSE_NO":"５０號之２","E_COORD97":165190.59,"N_COORD97":2577538.1899999999,"ADDRESS":"渡子頭５０號之２","OBJECTID":70306},"geometry":{"x":165190.59000000078,"y":2577538.1899999995}},{"attributes":{"ID":70307,"DIS_CODE":0,"TOWNNAME":"北門區","LI":"錦湖里","LIN":"6鄰","STREET":" ","SECT":" ","MAREA":"渡子頭","LANE":" ","ALLEY":" ","HOUSE_NO":"５０之８號","E_COORD97":165168.20999999999,"N_COORD97":2577589.8900000001,"ADDRESS":"渡子頭５０之８號","OBJECTID":70307},"geometry":{"x":165168.20999999996,"y":2577589.8900000006}},{"attributes":{"ID":70308,"DIS_CODE":0,"TOWNNAME":"北門區","LI":"錦湖里","LIN":"6鄰","STREET":" ","SECT":" ","MAREA":"渡子頭","LANE":" ","ALLEY":" ","HOUSE_NO":"５０號","E_COORD97":165168.04999999999,"N_COORD97":2577575.7599999998,"ADDRESS":"渡子頭５０號","OBJECTID":70308},"geometry":{"x":165168.04999999981,"y":2577575.7599999998}},{"attributes":{"ID":70309,"DIS_CODE":0,"TOWNNAME":"安南區","LI":"學東里","LIN":"6鄰","STREET":"公學路","SECT":"七段","MAREA":" ","LANE":"１３１巷","ALLEY":"２弄","HOUSE_NO":"９號","E_COORD97":161634.5,"N_COORD97":2553382.4300000002,"ADDRESS":"公學路七段１３１巷２弄９號","OBJECTID":70309},"geometry":{"x":161634.50000000093,"y":2553382.4300000016}},{"attributes":{"ID":70310,"DIS_CODE":0,"TOWNNAME":"安南區","LI":"\u25A0南里","LIN":"6鄰","STREET":"安昌街","SECT":" ","MAREA":" ","LANE":"１７９巷","ALLEY":"３２弄","HOUSE_NO":"８號","E_COORD97":170028.48999999999,"N_COORD97":2552494.27,"ADDRESS":"安昌街１７９巷３２弄８號","OBJECTID":70310},"geometry":{"x":170028.49000000022,"y":2552494.2699999977}},{"attributes":{"ID":70311,"DIS_CODE":0,"TOWNNAME":"安南區","LI":"總頭里","LIN":"6鄰","STREET":"長溪路","SECT":"二段","MAREA":" ","LANE":"５７０巷","ALLEY":"２３弄","HOUSE_NO":"８號","E_COORD97":168358.26000000001,"N_COORD97":2550660.9399999999,"ADDRESS":"長溪路二段５７０巷２３弄８號","OBJECTID":70311},"geometry":{"x":168358.25999999978,"y":2550660.9399999995}},{"attributes":{"ID":70312,"DIS_CODE":0,"TOWNNAME":"安南區","LI":"安順里","LIN":"6鄰","STREET":"總安街","SECT":"一段","MAREA":" ","LANE":"９０巷","ALLEY":"１７弄","HOUSE_NO":"１８號","E_COORD97":169717.92999999999,"N_COORD97":2550194.27,"ADDRESS":"總安街一段９０巷１７弄１８號","OBJECTID":70312},"geometry":{"x":169717.93000000063,"y":2550194.2699999996}},{"attributes":{"ID":70313,"DIS_CODE":0,"TOWNNAME":"安南區","LI":"安順里","LIN":"6鄰","STREET":"總安街","SECT":"一段","MAREA":" ","LANE":"９０巷","ALLEY":"１９弄","HOUSE_NO":"１號","E_COORD97":169740.37,"N_COORD97":2550212.5,"ADDRESS":"總安街一段９０巷１９弄１號","OBJECTID":70313},"geometry":{"x":169740.37000000104,"y":2550212.5000000019}},{"attributes":{"ID":70314,"DIS_CODE":0,"TOWNNAME":"永康區","LI":"\u25A0行里","LIN":"6鄰","STREET":"新行街","SECT":" ","MAREA":" ","LANE":"７９巷","ALLEY":"３弄","HOUSE_NO":"１１號","E_COORD97":172253.26999999999,"N_COORD97":2548865.7400000002,"ADDRESS":"新行街７９巷３弄１１號","OBJECTID":70314},"geometry":{"x":172253.26999999955,"y":2548865.7400000021}},{"attributes":{"ID":70315,"DIS_CODE":0,"TOWNNAME":"永康區","LI":"蔦松里","LIN":"6鄰","STREET":"蔦松三街","SECT":" ","MAREA":" ","LANE":"１４０巷","ALLEY":"８弄","HOUSE_NO":"５號","E_COORD97":174029.45999999999,"N_COORD97":2549708.4900000002,"ADDRESS":"蔦松三街１４０巷８弄５號","OBJECTID":70315},"geometry":{"x":174029.45999999996,"y":2549708.4900000021}},{"attributes":{"ID":70316,"DIS_CODE":0,"TOWNNAME":"東區","LI":"富強里","LIN":"6鄰","STREET":"中華東路","SECT":"二段","MAREA":" ","LANE":"４８巷","ALLEY":"１７弄","HOUSE_NO":"７號","E_COORD97":171325.54999999999,"N_COORD97":2542972.5600000001,"ADDRESS":"中華東路二段４８巷１７弄７號","OBJECTID":70316},"geometry":{"x":171325.55000000075,"y":2542972.5600000005}},{"attributes":{"ID":70317,"DIS_CODE":0,"TOWNNAME":"東區","LI":"自強里","LIN":"6鄰","STREET":"東門路","SECT":"三段","MAREA":" ","LANE":"３７巷","ALLEY":"６３弄","HOUSE_NO":"１０號","E_COORD97":171206.07000000001,"N_COORD97":2542373.98,"ADDRESS":"東門路三段３７巷６３弄１０號","OBJECTID":70317},"geometry":{"x":171206.0700000003,"y":2542373.9800000042}},{"attributes":{"ID":70318,"DIS_CODE":0,"TOWNNAME":"東區","LI":"自強里","LIN":"6鄰","STREET":"東門路","SECT":"三段","MAREA":" ","LANE":"３７巷","ALLEY":"６３弄","HOUSE_NO":"１１號","E_COORD97":171200.85999999999,"N_COORD97":2542364.6600000001,"ADDRESS":"東門路三段３７巷６３弄１１號","OBJECTID":70318},"geometry":{"x":171200.86000000034,"y":2542364.6600000001}},{"attributes":{"ID":70319,"DIS_CODE":0,"TOWNNAME":"東區","LI":"自強里","LIN":"6鄰","STREET":"東門路","SECT":"三段","MAREA":" ","LANE":"３７巷","ALLEY":"６３弄","HOUSE_NO":"１２號","E_COORD97":171199.91,"N_COORD97":2542374.29,"ADDRESS":"東門路三段３７巷６３弄１２號","OBJECTID":70319},"geometry":{"x":171199.91000000108,"y":2542374.290000001}},{"attributes":{"ID":70320,"DIS_CODE":0,"TOWNNAME":"東區","LI":"自強里","LIN":"6鄰","STREET":"東門路","SECT":"三段","MAREA":" ","LANE":"３７巷","ALLEY":"６３弄","HOUSE_NO":"１３號","E_COORD97":171194.85000000001,"N_COORD97":2542365.1299999999,"ADDRESS":"東門路三段３７巷６３弄１３號","OBJECTID":70320},"geometry":{"x":171194.85000000056,"y":2542365.1300000008}},{"attributes":{"ID":70321,"DIS_CODE":0,"TOWNNAME":"北門區","LI":"錦湖里","LIN":"6鄰","STREET":" ","SECT":" ","MAREA":"渡子頭","LANE":" ","ALLEY":" ","HOUSE_NO":"５１號之１","E_COORD97":165105.29999999999,"N_COORD97":2577578.7599999998,"ADDRESS":"渡子頭５１號之１","OBJECTID":70321},"geometry":{"x":165105.29999999981,"y":2577578.7599999998}},{"attributes":{"ID":70322,"DIS_CODE":0,"TOWNNAME":"北門區","LI":"錦湖里","LIN":"6鄰","STREET":" ","SECT":" ","MAREA":"渡子頭","LANE":" ","ALLEY":" ","HOUSE_NO":"５１號","E_COORD97":165089.76000000001,"N_COORD97":2577599.6699999999,"ADDRESS":"渡子頭５１號","OBJECTID":70322},"geometry":{"x":165089.75999999978,"y":2577599.6699999999}},{"attributes":{"ID":70323,"DIS_CODE":0,"TOWNNAME":"東區","LI":"自強里","LIN":"6鄰","STREET":"東門路","SECT":"三段","MAREA":" ","LANE":"３７巷","ALLEY":"６３弄","HOUSE_NO":"１４號","E_COORD97":171194.20999999999,"N_COORD97":2542374.4500000002,"ADDRESS":"東門路三段３７巷６３弄１４號","OBJECTID":70323},"geometry":{"x":171194.21000000089,"y":2542374.4499999993}},{"attributes":{"ID":70324,"DIS_CODE":0,"TOWNNAME":"東區","LI":"自強里","LIN":"6鄰","STREET":"東門路","SECT":"三段","MAREA":" ","LANE":"３７巷","ALLEY":"６３弄","HOUSE_NO":"１５號","E_COORD97":171189.63,"N_COORD97":2542364.9700000002,"ADDRESS":"東門路三段３７巷６３弄１５號","OBJECTID":70324},"geometry":{"x":171189.63000000082,"y":2542364.9700000025}},{"attributes":{"ID":70325,"DIS_CODE":0,"TOWNNAME":"東區","LI":"自強里","LIN":"6鄰","STREET":"東門路","SECT":"三段","MAREA":" ","LANE":"３７巷","ALLEY":"６３弄","HOUSE_NO":"１６號","E_COORD97":171189,"N_COORD97":2542374.4500000002,"ADDRESS":"東門路三段３７巷６３弄１６號","OBJECTID":70325},"geometry":{"x":171189.00000000093,"y":2542374.4499999993}},{"attributes":{"ID":70326,"DIS_CODE":0,"TOWNNAME":"東區","LI":"自強里","LIN":"6鄰","STREET":"東門路","SECT":"三段","MAREA":" ","LANE":"３７巷","ALLEY":"６３弄","HOUSE_NO":"１７號","E_COORD97":171184.09,"N_COORD97":2542365.29,"ADDRESS":"東門路三段３７巷６３弄１７號","OBJECTID":70326},"geometry":{"x":171184.08999999892,"y":2542365.2899999991}},{"attributes":{"ID":70327,"DIS_CODE":0,"TOWNNAME":"東區","LI":"自強里","LIN":"6鄰","STREET":"東門路","SECT":"三段","MAREA":" ","LANE":"３７巷","ALLEY":"６３弄","HOUSE_NO":"１８號","E_COORD97":171183.45999999999,"N_COORD97":2542374.1299999999,"ADDRESS":"東門路三段３７巷６３弄１８號","OBJECTID":70327},"geometry":{"x":171183.46000000183,"y":2542374.129999999}},{"attributes":{"ID":70328,"DIS_CODE":0,"TOWNNAME":"東區","LI":"自強里","LIN":"6鄰","STREET":"東門路","SECT":"三段","MAREA":" ","LANE":"３７巷","ALLEY":"６３弄","HOUSE_NO":"２０號","E_COORD97":171177.60999999999,"N_COORD97":2542373.98,"ADDRESS":"東門路三段３７巷６３弄２０號","OBJECTID":70328},"geometry":{"x":171177.61000000034,"y":2542373.9800000042}},{"attributes":{"ID":70329,"DIS_CODE":0,"TOWNNAME":"東區","LI":"自強里","LIN":"6鄰","STREET":"東門路","SECT":"三段","MAREA":" ","LANE":"３７巷","ALLEY":"６３弄","HOUSE_NO":"２２號","E_COORD97":171172.39000000001,"N_COORD97":2542373.98,"ADDRESS":"東門路三段３７巷６３弄２２號","OBJECTID":70329},"geometry":{"x":171172.3900000006,"y":2542373.9800000042}},{"attributes":{"ID":70330,"DIS_CODE":0,"TOWNNAME":"東區","LI":"自強里","LIN":"6鄰","STREET":"東門路","SECT":"三段","MAREA":" ","LANE":"３７巷","ALLEY":"６３弄","HOUSE_NO":"２３號","E_COORD97":171167.48999999999,"N_COORD97":2542365.1299999999,"ADDRESS":"東門路三段３７巷６３弄２３號","OBJECTID":70330},"geometry":{"x":171167.49000000022,"y":2542365.1300000008}},{"attributes":{"ID":70331,"DIS_CODE":0,"TOWNNAME":"東區","LI":"自強里","LIN":"6鄰","STREET":"東門路","SECT":"三段","MAREA":" ","LANE":"３７巷","ALLEY":"６３弄","HOUSE_NO":"２４號","E_COORD97":171167.48999999999,"N_COORD97":2542373.98,"ADDRESS":"東門路三段３７巷６３弄２４號","OBJECTID":70331},"geometry":{"x":171167.49000000022,"y":2542373.9800000042}},{"attributes":{"ID":70332,"DIS_CODE":0,"TOWNNAME":"永康區","LI":"三民里","LIN":"7鄰","STREET":"三民街","SECT":" ","MAREA":" ","LANE":" ","ALLEY":" ","HOUSE_NO":"１３４號之６","E_COORD97":172820.64000000001,"N_COORD97":2550391.54,"ADDRESS":"三民街１３４號之６","OBJECTID":70332},"geometry":{"x":172820.63999999966,"y":2550391.540000001}},{"attributes":{"ID":70333,"DIS_CODE":0,"TOWNNAME":"永康區","LI":"三民里","LIN":"7鄰","STREET":"三民街","SECT":" ","MAREA":" ","LANE":" ","ALLEY":" ","HOUSE_NO":"１３４號之５","E_COORD97":172818.03,"N_COORD97":2550388.04,"ADDRESS":"三民街１３４號之５","OBJECTID":70333},"geometry":{"x":172818.03000000119,"y":2550388.040000001}},{"attributes":{"ID":70334,"DIS_CODE":0,"TOWNNAME":"北門區","LI":"錦湖里","LIN":"6鄰","STREET":" ","SECT":" ","MAREA":"渡子頭","LANE":" ","ALLEY":" ","HOUSE_NO":"５２號之１","E_COORD97":165050.20000000001,"N_COORD97":2577592.8500000001,"ADDRESS":"渡子頭５２號之１","OBJECTID":70334},"geometry":{"x":165050.20000000019,"y":2577592.8499999978}},{"attributes":{"ID":70335,"DIS_CODE":0,"TOWNNAME":"北門區","LI":"錦湖里","LIN":"6鄰","STREET":" ","SECT":" ","MAREA":"渡子頭","LANE":" ","ALLEY":" ","HOUSE_NO":"５２號","E_COORD97":165074.14999999999,"N_COORD97":2577611.1800000002,"ADDRESS":"渡子頭５２號","OBJECTID":70335},"geometry":{"x":165074.15000000037,"y":2577611.1800000034}},{"attributes":{"ID":70336,"DIS_CODE":0,"TOWNNAME":"北門區","LI":"錦湖里","LIN":"6鄰","STREET":" ","SECT":" ","MAREA":"渡子頭","LANE":" ","ALLEY":" ","HOUSE_NO":"５３號","E_COORD97":165036.04999999999,"N_COORD97":2577591.1000000001,"ADDRESS":"渡子頭５３號","OBJECTID":70336},"geometry":{"x":165036.05000000168,"y":2577591.0999999978}},{"attributes":{"ID":70337,"DIS_CODE":0,"TOWNNAME":"北門區","LI":"錦湖里","LIN":"6鄰","STREET":" ","SECT":" ","MAREA":"渡子頭","LANE":" ","ALLEY":" ","HOUSE_NO":"５４號","E_COORD97":165059.57999999999,"N_COORD97":2577581.77,"ADDRESS":"渡子頭５４號","OBJECTID":70337},"geometry":{"x":165059.58000000007,"y":2577581.7699999996}},{"attributes":{"ID":70338,"DIS_CODE":0,"TOWNNAME":"東區","LI":"自強里","LIN":"6鄰","STREET":"東門路","SECT":"三段","MAREA":" ","LANE":"３７巷","ALLEY":"６３弄","HOUSE_NO":"２５號","E_COORD97":171162.91,"N_COORD97":2542364.8199999998,"ADDRESS":"東門路三段３７巷６３弄２５號","OBJECTID":70338},"geometry":{"x":171162.91000000015,"y":2542364.8200000022}},{"attributes":{"ID":70339,"DIS_CODE":0,"TOWNNAME":"東區","LI":"自強里","LIN":"6鄰","STREET":"東門路","SECT":"三段","MAREA":" ","LANE":"３７巷","ALLEY":"６３弄","HOUSE_NO":"２６號","E_COORD97":171161.32000000001,"N_COORD97":2542373.6600000001,"ADDRESS":"東門路三段３７巷６３弄２６號","OBJECTID":70339},"geometry":{"x":171161.32000000123,"y":2542373.660000002}},{"attributes":{"ID":70340,"DIS_CODE":0,"TOWNNAME":"東區","LI":"自強里","LIN":"6鄰","STREET":"東門路","SECT":"三段","MAREA":" ","LANE":"３７巷","ALLEY":"６３弄","HOUSE_NO":"２７號","E_COORD97":171158,"N_COORD97":2542364.8199999998,"ADDRESS":"東門路三段３７巷６３弄２７號","OBJECTID":70340},"geometry":{"x":171158.00000000093,"y":2542364.8200000022}},{"attributes":{"ID":70341,"DIS_CODE":0,"TOWNNAME":"東區","LI":"自強里","LIN":"6鄰","STREET":"東門路","SECT":"三段","MAREA":" ","LANE":"３７巷","ALLEY":"６３弄","HOUSE_NO":"２８號","E_COORD97":171156.89999999999,"N_COORD97":2542373.8199999998,"ADDRESS":"東門路三段３７巷６３弄２８號","OBJECTID":70341},"geometry":{"x":171156.90000000037,"y":2542373.8200000003}},{"attributes":{"ID":70342,"DIS_CODE":0,"TOWNNAME":"東區","LI":"自強里","LIN":"6鄰","STREET":"東門路","SECT":"三段","MAREA":" ","LANE":"３７巷","ALLEY":"６３弄","HOUSE_NO":"２９號","E_COORD97":171151.20000000001,"N_COORD97":2542365.1299999999,"ADDRESS":"東門路三段３７巷６３弄２９號","OBJECTID":70342},"geometry":{"x":171151.20000000019,"y":2542365.1300000008}},{"attributes":{"ID":70343,"DIS_CODE":0,"TOWNNAME":"東區","LI":"自強里","LIN":"6鄰","STREET":"東門路","SECT":"三段","MAREA":" ","LANE":"３７巷","ALLEY":"６３弄","HOUSE_NO":"３１號","E_COORD97":171145.82999999999,"N_COORD97":2542366.5499999998,"ADDRESS":"東門路三段３７巷６３弄３１號","OBJECTID":70343},"geometry":{"x":171145.83000000101,"y":2542366.5499999989}},{"attributes":{"ID":70344,"DIS_CODE":0,"TOWNNAME":"學甲區","LI":"新榮里","LIN":"6鄰","STREET":" ","SECT":" ","MAREA":"東寮","LANE":" ","ALLEY":" ","HOUSE_NO":"６８號","E_COORD97":166640.06,"N_COORD97":2569405.8100000001,"ADDRESS":"東寮６８號","OBJECTID":70344},"geometry":{"x":166640.06000000052,"y":2569405.8100000005}},{"attributes":{"ID":70345,"DIS_CODE":0,"TOWNNAME":"東區","LI":"自強里","LIN":"6鄰","STREET":"東門路","SECT":"三段","MAREA":" ","LANE":"３７巷","ALLEY":"６３弄","HOUSE_NO":"３２號","E_COORD97":171146.14000000001,"N_COORD97":2542373.0299999998,"ADDRESS":"東門路三段３７巷６３弄３２號","OBJECTID":70345},"geometry":{"x":171146.13999999966,"y":2542373.0300000012}},{"attributes":{"ID":70346,"DIS_CODE":0,"TOWNNAME":"東區","LI":"自強里","LIN":"6鄰","STREET":"東門路","SECT":"三段","MAREA":" ","LANE":"３７巷","ALLEY":"６３弄","HOUSE_NO":"３號","E_COORD97":171222.98999999999,"N_COORD97":2542365.6099999999,"ADDRESS":"東門路三段３７巷６３弄３號","OBJECTID":70346},"geometry":{"x":171222.99000000115,"y":2542365.6100000013}},{"attributes":{"ID":70347,"DIS_CODE":0,"TOWNNAME":"東區","LI":"自強里","LIN":"6鄰","STREET":"東門路","SECT":"三段","MAREA":" ","LANE":"３７巷","ALLEY":"６３弄","HOUSE_NO":"６號","E_COORD97":171216.19,"N_COORD97":2542373.6600000001,"ADDRESS":"東門路三段３７巷６３弄６號","OBJECTID":70347},"geometry":{"x":171216.18999999948,"y":2542373.660000002}},{"attributes":{"ID":70348,"DIS_CODE":0,"TOWNNAME":"仁德區","LI":"田厝里","LIN":"7鄰","STREET":"中正路","SECT":"一段","MAREA":" ","LANE":" ","ALLEY":" ","HOUSE_NO":"５５３號","E_COORD97":172869.64999999999,"N_COORD97":2537670.77,"ADDRESS":"中正路一段５５３號","OBJECTID":70348},"geometry":{"x":172869.6500000013,"y":2537670.7699999996}},{"attributes":{"ID":70349,"DIS_CODE":0,"TOWNNAME":"仁德區","LI":"田厝里","LIN":"7鄰","STREET":"中正路","SECT":"一段","MAREA":" ","LANE":" ","ALLEY":" ","HOUSE_NO":"６０３號","E_COORD97":172943.01000000001,"N_COORD97":2537859.27,"ADDRESS":"中正路一段６０３號","OBJECTID":70349},"geometry":{"x":172943.01000000071,"y":2537859.2700000014}},{"attributes":{"ID":70350,"DIS_CODE":0,"TOWNNAME":"仁德區","LI":"田厝里","LIN":"7鄰","STREET":"中正路","SECT":"一段","MAREA":" ","LANE":" ","ALLEY":" ","HOUSE_NO":"５７３號","E_COORD97":172902.61848999999,"N_COORD97":2537760.4287299998,"ADDRESS":"中正路一段５７３號","OBJECTID":70350},"geometry":{"x":172902.61849000212,"y":2537760.4287260007}},{"attributes":{"ID":70351,"DIS_CODE":0,"TOWNNAME":"北門區","LI":"錦湖里","LIN":"6鄰","STREET":" ","SECT":" ","MAREA":"渡子頭","LANE":" ","ALLEY":" ","HOUSE_NO":"５６號","E_COORD97":165088.09,"N_COORD97":2577560.2200000002,"ADDRESS":"渡子頭５６號","OBJECTID":70351},"geometry":{"x":165088.08999999985,"y":2577560.2200000007}},{"attributes":{"ID":70352,"DIS_CODE":0,"TOWNNAME":"北門區","LI":"錦湖里","LIN":"6鄰","STREET":" ","SECT":" ","MAREA":"渡子頭","LANE":" ","ALLEY":" ","HOUSE_NO":"５７號之１","E_COORD97":165062.54000000001,"N_COORD97":2577532.3500000001,"ADDRESS":"渡子頭５７號之１","OBJECTID":70352},"geometry":{"x":165062.54000000097,"y":2577532.3500000015}},{"attributes":{"ID":70353,"DIS_CODE":0,"TOWNNAME":"北門區","LI":"錦湖里","LIN":"6鄰","STREET":" ","SECT":" ","MAREA":"渡子頭","LANE":" ","ALLEY":" ","HOUSE_NO":"５７號","E_COORD97":165048.94,"N_COORD97":2577550.4700000002,"ADDRESS":"渡子頭５７號","OBJECTID":70353},"geometry":{"x":165048.94000000041,"y":2577550.4700000025}},{"attributes":{"ID":70354,"DIS_CODE":0,"TOWNNAME":"北門區","LI":"錦湖里","LIN":"6鄰","STREET":" ","SECT":" ","MAREA":"渡子頭","LANE":" ","ALLEY":" ","HOUSE_NO":"５８號","E_COORD97":165227.76000000001,"N_COORD97":2577575.5899999999,"ADDRESS":"渡子頭５８號","OBJECTID":70354},"geometry":{"x":165227.76000000164,"y":2577575.5900000017}},{"attributes":{"ID":70355,"DIS_CODE":0,"TOWNNAME":"北門區","LI":"錦湖里","LIN":"6鄰","STREET":" ","SECT":" ","MAREA":"渡子頭","LANE":" ","ALLEY":" ","HOUSE_NO":"５９號","E_COORD97":165033.28,"N_COORD97":2577576.6299999999,"ADDRESS":"渡子頭５９號","OBJECTID":70355},"geometry":{"x":165033.28000000212,"y":2577576.6299999971}},{"attributes":{"ID":70356,"DIS_CODE":0,"TOWNNAME":"新市區","LI":"大營里","LIN":"6鄰","STREET":" ","SECT":" ","MAREA":"大營","LANE":" ","ALLEY":" ","HOUSE_NO":"１１０號","E_COORD97":179703.04000000001,"N_COORD97":2555112.75,"ADDRESS":"大營１１０號","OBJECTID":70356},"geometry":{"x":179703.0400000019,"y":2555112.7500000037}},{"attributes":{"ID":70357,"DIS_CODE":0,"TOWNNAME":"新市區","LI":"永就里","LIN":"6鄰","STREET":" ","SECT":" ","MAREA":"永就","LANE":" ","ALLEY":" ","HOUSE_NO":"５９之１號","E_COORD97":177689.14999999999,"N_COORD97":2551543.2999999998,"ADDRESS":"永就５９之１號","OBJECTID":70357},"geometry":{"x":177689.1500000013,"y":2551543.3000000026}},{"attributes":{"ID":70358,"DIS_CODE":0,"TOWNNAME":"新市區","LI":"潭頂里","LIN":"6鄰","STREET":" ","SECT":" ","MAREA":"潭頂","LANE":" ","ALLEY":" ","HOUSE_NO":"２４５號","E_COORD97":180727.10999999999,"N_COORD97":2552953.75,"ADDRESS":"潭頂２４５號","OBJECTID":70358},"geometry":{"x":180727.11000000127,"y":2552953.7500000019}},{"attributes":{"ID":70359,"DIS_CODE":0,"TOWNNAME":"新市區","LI":"潭頂里","LIN":"6鄰","STREET":" ","SECT":" ","MAREA":"潭頂","LANE":" ","ALLEY":" ","HOUSE_NO":"２５９之１號","E_COORD97":180807.39000000001,"N_COORD97":2552953.0499999998,"ADDRESS":"潭頂２５９之１號","OBJECTID":70359},"geometry":{"x":180807.39000000153,"y":2552953.0500000026}},{"attributes":{"ID":70360,"DIS_CODE":0,"TOWNNAME":"新市區","LI":"大洲里","LIN":"6鄰","STREET":" ","SECT":" ","MAREA":"大洲","LANE":" ","ALLEY":" ","HOUSE_NO":"５７號","E_COORD97":174055.73000000001,"N_COORD97":2552305.25,"ADDRESS":"大洲５７號","OBJECTID":70360},"geometry":{"x":174055.73000000138,"y":2552305.2500000037}},{"attributes":{"ID":70361,"DIS_CODE":0,"TOWNNAME":"新市區","LI":"大洲里","LIN":"6鄰","STREET":" ","SECT":" ","MAREA":"大洲","LANE":" ","ALLEY":" ","HOUSE_NO":"５８號","E_COORD97":174081.95000000001,"N_COORD97":2552290.75,"ADDRESS":"大洲５８號","OBJECTID":70361},"geometry":{"x":174081.95000000019,"y":2552290.75}},{"attributes":{"ID":70362,"DIS_CODE":0,"TOWNNAME":"新市區","LI":"大洲里","LIN":"6鄰","STREET":" ","SECT":" ","MAREA":"大洲","LANE":" ","ALLEY":" ","HOUSE_NO":"５６之１號","E_COORD97":174073.13,"N_COORD97":2552301.2999999998,"ADDRESS":"大洲５６之１號","OBJECTID":70362},"geometry":{"x":174073.13000000082,"y":2552301.3000000007}},{"attributes":{"ID":70363,"DIS_CODE":0,"TOWNNAME":"新市區","LI":"大營里","LIN":"6鄰","STREET":" ","SECT":" ","MAREA":"大營","LANE":" ","ALLEY":" ","HOUSE_NO":"１１３號","E_COORD97":179711.26000000001,"N_COORD97":2555098,"ADDRESS":"大營１１３號","OBJECTID":70363},"geometry":{"x":179711.25999999978,"y":2555098.0000000019}},{"attributes":{"ID":70364,"DIS_CODE":0,"TOWNNAME":"新市區","LI":"大營里","LIN":"6鄰","STREET":" ","SECT":" ","MAREA":"大營","LANE":" ","ALLEY":" ","HOUSE_NO":"１２５號","E_COORD97":179673.37,"N_COORD97":2555101.5,"ADDRESS":"大營１２５號","OBJECTID":70364},"geometry":{"x":179673.37000000011,"y":2555101.5000000019}},{"attributes":{"ID":70365,"DIS_CODE":0,"TOWNNAME":"新市區","LI":"大社里","LIN":"6鄰","STREET":" ","SECT":" ","MAREA":"大社","LANE":" ","ALLEY":" ","HOUSE_NO":"２３５號","E_COORD97":180224.39999999999,"N_COORD97":2554408.75,"ADDRESS":"大社２３５號","OBJECTID":70365},"geometry":{"x":180224.40000000037,"y":2554408.7500000019}},{"attributes":{"ID":70366,"DIS_CODE":0,"TOWNNAME":"新市區","LI":"三舍里","LIN":"6鄰","STREET":" ","SECT":" ","MAREA":"三舍","LANE":" ","ALLEY":" ","HOUSE_NO":"１６１之２號","E_COORD97":177912.07000000001,"N_COORD97":2554650.7999999998,"ADDRESS":"三舍１６１之２號","OBJECTID":70366},"geometry":{"x":177912.07000000123,"y":2554650.8000000007}},{"attributes":{"ID":70367,"DIS_CODE":0,"TOWNNAME":"仁德區","LI":"田厝里","LIN":"7鄰","STREET":"中正路","SECT":"一段","MAREA":" ","LANE":" ","ALLEY":" ","HOUSE_NO":"５６９號","E_COORD97":172898.382835,"N_COORD97":2537741.5904000001,"ADDRESS":"中正路一段５６９號","OBJECTID":70367},"geometry":{"x":172898.38283500075,"y":2537741.5904029999}},{"attributes":{"ID":70368,"DIS_CODE":0,"TOWNNAME":"善化區","LI":"嘉南里","LIN":"7鄰","STREET":" ","SECT":" ","MAREA":"茄拔","LANE":" ","ALLEY":" ","HOUSE_NO":"１０９號","E_COORD97":181062.48999999999,"N_COORD97":2559560.5099999998,"ADDRESS":"茄拔１０９號","OBJECTID":70368},"geometry":{"x":181062.49000000022,"y":2559560.5099999998}},{"attributes":{"ID":70369,"DIS_CODE":0,"TOWNNAME":"善化區","LI":"南關里","LIN":"7鄰","STREET":" ","SECT":" ","MAREA":"三抱竹","LANE":" ","ALLEY":" ","HOUSE_NO":"１之４０號","E_COORD97":176296.89000000001,"N_COORD97":2558018.52,"ADDRESS":"三抱竹１之４０號","OBJECTID":70369},"geometry":{"x":176296.8900000006,"y":2558018.5199999996}},{"attributes":{"ID":70370,"DIS_CODE":0,"TOWNNAME":"善化區","LI":"南關里","LIN":"7鄰","STREET":" ","SECT":" ","MAREA":"三抱竹","LANE":" ","ALLEY":" ","HOUSE_NO":"１之３８號","E_COORD97":176459.73999999999,"N_COORD97":2558132.77,"ADDRESS":"三抱竹１之３８號","OBJECTID":70370},"geometry":{"x":176459.74000000115,"y":2558132.7700000033}},{"attributes":{"ID":70371,"DIS_CODE":0,"TOWNNAME":"善化區","LI":"東隆里","LIN":"7鄰","STREET":" ","SECT":" ","MAREA":"東勢寮","LANE":" ","ALLEY":" ","HOUSE_NO":"１９９之１號","E_COORD97":179841.10000000001,"N_COORD97":2561755.77,"ADDRESS":"東勢寮１９９之１號","OBJECTID":70371},"geometry":{"x":179841.0999999987,"y":2561755.7699999996}},{"attributes":{"ID":70372,"DIS_CODE":0,"TOWNNAME":"善化區","LI":"東昌里","LIN":"7鄰","STREET":" ","SECT":" ","MAREA":"東勢寮","LANE":" ","ALLEY":" ","HOUSE_NO":"６９號之５","E_COORD97":180399.45000000001,"N_COORD97":2561800.52,"ADDRESS":"東勢寮６９號之５","OBJECTID":70372},"geometry":{"x":180399.45000000112,"y":2561800.5200000014}},{"attributes":{"ID":70373,"DIS_CODE":0,"TOWNNAME":"善化區","LI":"溪美里","LIN":"7鄰","STREET":" ","SECT":" ","MAREA":"溪尾","LANE":" ","ALLEY":" ","HOUSE_NO":"６０號","E_COORD97":176786.95999999999,"N_COORD97":2561254.77,"ADDRESS":"溪尾６０號","OBJECTID":70373},"geometry":{"x":176786.95999999996,"y":2561254.7699999996}},{"attributes":{"ID":70374,"DIS_CODE":0,"TOWNNAME":"善化區","LI":"嘉北里","LIN":"7鄰","STREET":" ","SECT":" ","MAREA":"茄拔","LANE":" ","ALLEY":" ","HOUSE_NO":"１７６號","E_COORD97":181118.5,"N_COORD97":2559959.5099999998,"ADDRESS":"茄拔１７６號","OBJECTID":70374},"geometry":{"x":181118.5,"y":2559959.5100000016}},{"attributes":{"ID":70375,"DIS_CODE":0,"TOWNNAME":"善化區","LI":"溪美里","LIN":"7鄰","STREET":" ","SECT":" ","MAREA":"溪尾","LANE":" ","ALLEY":" ","HOUSE_NO":"６６之１號","E_COORD97":176786.95999999999,"N_COORD97":2561284.02,"ADDRESS":"溪尾６６之１號","OBJECTID":70375},"geometry":{"x":176786.95999999996,"y":2561284.0200000033}},{"attributes":{"ID":70376,"DIS_CODE":0,"TOWNNAME":"善化區","LI":"嘉北里","LIN":"7鄰","STREET":" ","SECT":" ","MAREA":"茄拔","LANE":" ","ALLEY":" ","HOUSE_NO":"１７４號之８","E_COORD97":181041.14000000001,"N_COORD97":2559942.77,"ADDRESS":"茄拔１７４號之８","OBJECTID":70376},"geometry":{"x":181041.14000000153,"y":2559942.7699999996}},{"attributes":{"ID":70377,"DIS_CODE":0,"TOWNNAME":"善化區","LI":"東隆里","LIN":"7鄰","STREET":" ","SECT":" ","MAREA":"東勢寮","LANE":" ","ALLEY":" ","HOUSE_NO":"１９４號之１","E_COORD97":179844.94,"N_COORD97":2561783.02,"ADDRESS":"東勢寮１９４號之１","OBJECTID":70377},"geometry":{"x":179844.94000000227,"y":2561783.0200000014}},{"attributes":{"ID":70378,"DIS_CODE":0,"TOWNNAME":"善化區","LI":"嘉南里","LIN":"7鄰","STREET":" ","SECT":" ","MAREA":"茄拔","LANE":" ","ALLEY":" ","HOUSE_NO":"１１０號（建物已拆除","E_COORD97":181015.51000000001,"N_COORD97":2559541.0099999998,"ADDRESS":"茄拔１１０號（建物已拆除）","OBJECTID":70378},"geometry":{"x":181015.51000000071,"y":2559541.0099999998}},{"attributes":{"ID":70379,"DIS_CODE":0,"TOWNNAME":"新市區","LI":"三舍里","LIN":"6鄰","STREET":" ","SECT":" ","MAREA":"三舍","LANE":" ","ALLEY":" ","HOUSE_NO":"１３５之９號","E_COORD97":177810.59,"N_COORD97":2554521.7999999998,"ADDRESS":"三舍１３５之９號","OBJECTID":70379},"geometry":{"x":177810.58999999892,"y":2554521.8000000007}},{"attributes":{"ID":70380,"DIS_CODE":0,"TOWNNAME":"新市區","LI":"三舍里","LIN":"6鄰","STREET":" ","SECT":" ","MAREA":"三舍","LANE":" ","ALLEY":" ","HOUSE_NO":"１３５號","E_COORD97":177807.12,"N_COORD97":2554471.4900000002,"ADDRESS":"三舍１３５號","OBJECTID":70380},"geometry":{"x":177807.12000000011,"y":2554471.4900000021}},{"attributes":{"ID":70381,"DIS_CODE":0,"TOWNNAME":"新市區","LI":"大營里","LIN":"6鄰","STREET":" ","SECT":" ","MAREA":"大營","LANE":" ","ALLEY":" ","HOUSE_NO":"９７號","E_COORD97":179667.09,"N_COORD97":2555163.25,"ADDRESS":"大營９７號","OBJECTID":70381},"geometry":{"x":179667.09000000078,"y":2555163.2500000037}},{"attributes":{"ID":70382,"DIS_CODE":0,"TOWNNAME":"新市區","LI":"三舍里","LIN":"6鄰","STREET":" ","SECT":" ","MAREA":"三舍","LANE":" ","ALLEY":" ","HOUSE_NO":"１４４之２號","E_COORD97":177772.10000000001,"N_COORD97":2554533.0499999998,"ADDRESS":"三舍１４４之２號","OBJECTID":70382},"geometry":{"x":177772.10000000056,"y":2554533.0500000026}},{"attributes":{"ID":70383,"DIS_CODE":0,"TOWNNAME":"新市區","LI":"三舍里","LIN":"6鄰","STREET":" ","SECT":" ","MAREA":"三舍","LANE":" ","ALLEY":" ","HOUSE_NO":"１６１之１１號","E_COORD97":177908.92999999999,"N_COORD97":2554694.0499999998,"ADDRESS":"三舍１６１之１１號","OBJECTID":70383},"geometry":{"x":177908.93000000063,"y":2554694.0499999989}},{"attributes":{"ID":70384,"DIS_CODE":0,"TOWNNAME":"新市區","LI":"三舍里","LIN":"6鄰","STREET":" ","SECT":" ","MAREA":"三舍","LANE":" ","ALLEY":" ","HOUSE_NO":"１６１之１０號","E_COORD97":177910.89000000001,"N_COORD97":2554686.7999999998,"ADDRESS":"三舍１６１之１０號","OBJECTID":70384},"geometry":{"x":177910.8900000006,"y":2554686.8000000026}},{"attributes":{"ID":70385,"DIS_CODE":0,"TOWNNAME":"新市區","LI":"三舍里","LIN":"6鄰","STREET":" ","SECT":" ","MAREA":"三舍","LANE":" ","ALLEY":" ","HOUSE_NO":"１５２號","E_COORD97":177763.37,"N_COORD97":2554776,"ADDRESS":"三舍１５２號","OBJECTID":70385},"geometry":{"x":177763.37000000197,"y":2554776.0000000019}},{"attributes":{"ID":70386,"DIS_CODE":0,"TOWNNAME":"新市區","LI":"三舍里","LIN":"6鄰","STREET":" ","SECT":" ","MAREA":"三舍","LANE":" ","ALLEY":" ","HOUSE_NO":"１５９號","E_COORD97":177814.20000000001,"N_COORD97":2554698.5,"ADDRESS":"三舍１５９號","OBJECTID":70386},"geometry":{"x":177814.20000000112,"y":2554698.5000000019}},{"attributes":{"ID":70387,"DIS_CODE":0,"TOWNNAME":"東區","LI":"自強里","LIN":"6鄰","STREET":"東門路","SECT":"三段","MAREA":" ","LANE":"３７巷","ALLEY":"６３弄","HOUSE_NO":"７號","E_COORD97":171211.60999999999,"N_COORD97":2542364.9700000002,"ADDRESS":"東門路三段３７巷６３弄７號","OBJECTID":70387},"geometry":{"x":171211.6099999994,"y":2542364.9700000025}},{"attributes":{"ID":70388,"DIS_CODE":0,"TOWNNAME":"新市區","LI":"大營里","LIN":"6鄰","STREET":" ","SECT":" ","MAREA":"大營","LANE":" ","ALLEY":" ","HOUSE_NO":"１５５之１號","E_COORD97":179541.70999999999,"N_COORD97":2555395.5499999998,"ADDRESS":"大營１５５之１號","OBJECTID":70388},"geometry":{"x":179541.70999999996,"y":2555395.5500000007}},{"attributes":{"ID":70389,"DIS_CODE":0,"TOWNNAME":"新市區","LI":"大營里","LIN":"6鄰","STREET":" ","SECT":" ","MAREA":"大營","LANE":" ","ALLEY":" ","HOUSE_NO":"８８號","E_COORD97":179751.17999999999,"N_COORD97":2555242.25,"ADDRESS":"大營８８號","OBJECTID":70389},"geometry":{"x":179751.18000000063,"y":2555242.2500000019}},{"attributes":{"ID":70390,"DIS_CODE":0,"TOWNNAME":"白河區","LI":"大竹里","LIN":"6鄰","STREET":" ","SECT":" ","MAREA":"大排竹","LANE":" ","ALLEY":" ","HOUSE_NO":"１０１之１號","E_COORD97":189628.76999999999,"N_COORD97":2585309.1400000001,"ADDRESS":"大排竹１０１之１號","OBJECTID":70390},"geometry":{"x":189628.77000000048,"y":2585309.1400000025}},{"attributes":{"ID":70391,"DIS_CODE":0,"TOWNNAME":"白河區","LI":"大竹里","LIN":"6鄰","STREET":" ","SECT":" ","MAREA":"大排竹","LANE":" ","ALLEY":" ","HOUSE_NO":"１０１之２５號","E_COORD97":189511.06,"N_COORD97":2585380.9300000002,"ADDRESS":"大排竹１０１之２５號","OBJECTID":70391},"geometry":{"x":189511.06000000052,"y":2585380.9300000016}},{"attributes":{"ID":70392,"DIS_CODE":0,"TOWNNAME":"善化區","LI":"嘉北里","LIN":"7鄰","STREET":" ","SECT":" ","MAREA":"茄拔","LANE":" ","ALLEY":" ","HOUSE_NO":"１７４號之６","E_COORD97":181059.85999999999,"N_COORD97":2559945.5600000001,"ADDRESS":"茄拔１７４號之６","OBJECTID":70392},"geometry":{"x":181059.86000000127,"y":2559945.5600000042}},{"attributes":{"ID":70393,"DIS_CODE":0,"TOWNNAME":"善化區","LI":"嘉北里","LIN":"7鄰","STREET":" ","SECT":" ","MAREA":"茄拔","LANE":" ","ALLEY":" ","HOUSE_NO":"１７４號之９","E_COORD97":181041.06,"N_COORD97":2559948.4700000002,"ADDRESS":"茄拔１７４號之９","OBJECTID":70393},"geometry":{"x":181041.05999999959,"y":2559948.4700000007}},{"attributes":{"ID":70394,"DIS_CODE":0,"TOWNNAME":"善化區","LI":"小新里","LIN":"7鄰","STREET":" ","SECT":" ","MAREA":"小新營","LANE":" ","ALLEY":" ","HOUSE_NO":"５５號之７","E_COORD97":179668.78,"N_COORD97":2558462.7799999998,"ADDRESS":"小新營５５號之７","OBJECTID":70394},"geometry":{"x":179668.78000000026,"y":2558462.7800000012}},{"attributes":{"ID":70395,"DIS_CODE":0,"TOWNNAME":"官田區","LI":"南\u25A0里","LIN":"6鄰","STREET":" ","SECT":" ","MAREA":"南\u25A0","LANE":" ","ALLEY":" ","HOUSE_NO":"７６號","E_COORD97":178834.75,"N_COORD97":2568018.46,"ADDRESS":"南\u25A0７６號","OBJECTID":70395},"geometry":{"x":178834.75,"y":2568018.4600000009}},{"attributes":{"ID":70396,"DIS_CODE":0,"TOWNNAME":"官田區","LI":"南\u25A0里","LIN":"6鄰","STREET":" ","SECT":" ","MAREA":"南\u25A0","LANE":" ","ALLEY":" ","HOUSE_NO":"７７號","E_COORD97":178751.82000000001,"N_COORD97":2567946.1400000001,"ADDRESS":"南\u25A0７７號","OBJECTID":70396},"geometry":{"x":178751.8200000003,"y":2567946.1400000006}},{"attributes":{"ID":70397,"DIS_CODE":0,"TOWNNAME":"官田區","LI":"南\u25A0里","LIN":"6鄰","STREET":" ","SECT":" ","MAREA":"南\u25A0","LANE":" ","ALLEY":" ","HOUSE_NO":"７９號之２０","E_COORD97":178075.20000000001,"N_COORD97":2567612.9900000002,"ADDRESS":"南\u25A0７９號之２０","OBJECTID":70397},"geometry":{"x":178075.20000000112,"y":2567612.9900000021}},{"attributes":{"ID":70398,"DIS_CODE":0,"TOWNNAME":"官田區","LI":"南\u25A0里","LIN":"6鄰","STREET":" ","SECT":" ","MAREA":"南\u25A0","LANE":" ","ALLEY":" ","HOUSE_NO":"７９號之２６","E_COORD97":178515.64000000001,"N_COORD97":2567782.3300000001,"ADDRESS":"南\u25A0７９號之２６","OBJECTID":70398},"geometry":{"x":178515.6400000006,"y":2567782.3300000019}},{"attributes":{"ID":70399,"DIS_CODE":0,"TOWNNAME":"官田區","LI":"南\u25A0里","LIN":"6鄰","STREET":" ","SECT":" ","MAREA":"南\u25A0","LANE":" ","ALLEY":" ","HOUSE_NO":"７９號之３","E_COORD97":178199.26000000001,"N_COORD97":2567694.1800000002,"ADDRESS":"南\u25A0７９號之３","OBJECTID":70399},"geometry":{"x":178199.25999999885,"y":2567694.1799999978}},{"attributes":{"ID":70400,"DIS_CODE":0,"TOWNNAME":"官田區","LI":"南\u25A0里","LIN":"6鄰","STREET":" ","SECT":" ","MAREA":"南\u25A0","LANE":" ","ALLEY":" ","HOUSE_NO":"７９號之６","E_COORD97":178060.98000000001,"N_COORD97":2567512.2599999998,"ADDRESS":"南\u25A0７９號之６","OBJECTID":70400},"geometry":{"x":178060.98000000045,"y":2567512.2600000016}}]}