{"displayFieldName":"TOWNNAME","fieldAliases":{"ID":"ID","DIS_CODE":"DIS_CODE","TOWNNAME":"TOWNNAME","LI":"LI","LIN":"LIN","STREET":"STREET","SECT":"SECT","MAREA":"MAREA","LANE":"LANE","ALLEY":"ALLEY","HOUSE_NO":"HOUSE_NO","E_COORD97":"E_COORD97","N_COORD97":"N_COORD97","ADDRESS":"ADDRESS","OBJECTID":"OBJECTID"},"geometryType":"esriGeometryPoint","spatialReference":{"wkid":102443,"latestWkid":3826},"fields":[{"name":"ID","type":"esriFieldTypeDouble","alias":"ID"},{"name":"DIS_CODE","type":"esriFieldTypeInteger","alias":"DIS_CODE"},{"name":"TOWNNAME","type":"esriFieldTypeString","alias":"TOWNNAME","length":8},{"name":"LI","type":"esriFieldTypeString","alias":"LI","length":8},{"name":"LIN","type":"esriFieldTypeString","alias":"LIN","length":12},{"name":"STREET","type":"esriFieldTypeString","alias":"STREET","length":20},{"name":"SECT","type":"esriFieldTypeString","alias":"SECT","length":8},{"name":"MAREA","type":"esriFieldTypeString","alias":"MAREA","length":12},{"name":"LANE","type":"esriFieldTypeString","alias":"LANE","length":10},{"name":"ALLEY","type":"esriFieldTypeString","alias":"ALLEY","length":10},{"name":"HOUSE_NO","type":"esriFieldTypeString","alias":"HOUSE_NO","length":20},{"name":"E_COORD97","type":"esriFieldTypeDouble","alias":"E_COORD97"},{"name":"N_COORD97","type":"esriFieldTypeDouble","alias":"N_COORD97"},{"name":"ADDRESS","type":"esriFieldTypeString","alias":"ADDRESS","length":50},{"name":"OBJECTID","type":"esriFieldTypeOID","alias":"OBJECTID"}],"features":[{"attributes":{"ID":120001,"DIS_CODE":0,"TOWNNAME":"南區","LI":"喜南里","LIN":"16鄰","STREET":"喜樹路","SECT":" ","MAREA":" ","LANE":"２５２巷","ALLEY":"２７弄","HOUSE_NO":"１４號","E_COORD97":165574.42999999999,"N_COORD97":2537957.3399999999,"ADDRESS":"喜樹路２５２巷２７弄１４號","OBJECTID":120001},"geometry":{"x":165574.43000000063,"y":2537957.3400000017}},{"attributes":{"ID":120002,"DIS_CODE":0,"TOWNNAME":"南區","LI":"喜南里","LIN":"16鄰","STREET":"喜樹路","SECT":" ","MAREA":" ","LANE":"２２２巷","ALLEY":"３７弄","HOUSE_NO":"１０號","E_COORD97":165516.09,"N_COORD97":2537991.1000000001,"ADDRESS":"喜樹路２２２巷３７弄１０號","OBJECTID":120002},"geometry":{"x":165516.09000000078,"y":2537991.0999999996}},{"attributes":{"ID":120003,"DIS_CODE":0,"TOWNNAME":"南區","LI":"喜南里","LIN":"16鄰","STREET":"喜樹路","SECT":" ","MAREA":" ","LANE":"２２２巷","ALLEY":"３７弄","HOUSE_NO":"１２號","E_COORD97":165506.54000000001,"N_COORD97":2537982.04,"ADDRESS":"喜樹路２２２巷３７弄１２號","OBJECTID":120003},"geometry":{"x":165506.54000000097,"y":2537982.040000001}},{"attributes":{"ID":120004,"DIS_CODE":0,"TOWNNAME":"南區","LI":"喜南里","LIN":"16鄰","STREET":"喜樹路","SECT":" ","MAREA":" ","LANE":"２２２巷","ALLEY":"３７弄","HOUSE_NO":"２３號","E_COORD97":165526.44,"N_COORD97":2537988.7200000002,"ADDRESS":"喜樹路２２２巷３７弄２３號","OBJECTID":120004},"geometry":{"x":165526.44000000041,"y":2537988.7200000044}},{"attributes":{"ID":120005,"DIS_CODE":0,"TOWNNAME":"南區","LI":"喜南里","LIN":"16鄰","STREET":"喜樹路","SECT":" ","MAREA":" ","LANE":"２２２巷","ALLEY":"３７弄","HOUSE_NO":"２５號","E_COORD97":165527.07000000001,"N_COORD97":2537981.2400000002,"ADDRESS":"喜樹路２２２巷３７弄２５號","OBJECTID":120005},"geometry":{"x":165527.07000000123,"y":2537981.2400000039}},{"attributes":{"ID":120006,"DIS_CODE":0,"TOWNNAME":"南區","LI":"喜南里","LIN":"16鄰","STREET":"喜樹路","SECT":" ","MAREA":" ","LANE":"２２２巷","ALLEY":"３７弄","HOUSE_NO":"８號","E_COORD97":165523.69,"N_COORD97":2538018.6600000001,"ADDRESS":"喜樹路２２２巷３７弄８號","OBJECTID":120006},"geometry":{"x":165523.69000000041,"y":2538018.6600000001}},{"attributes":{"ID":120007,"DIS_CODE":0,"TOWNNAME":"歸仁區","LI":"看東里","LIN":"16鄰","STREET":"中山路","SECT":"一段","MAREA":" ","LANE":"１巷","ALLEY":"４６弄","HOUSE_NO":"１０號","E_COORD97":179524.78,"N_COORD97":2540214.5699999998,"ADDRESS":"中山路一段１巷４６弄１０號","OBJECTID":120007},"geometry":{"x":179524.78000000026,"y":2540214.5700000022}},{"attributes":{"ID":120008,"DIS_CODE":0,"TOWNNAME":"仁德區","LI":"成功里","LIN":"14鄰","STREET":"全福路","SECT":" ","MAREA":" ","LANE":" ","ALLEY":" ","HOUSE_NO":"５６號","E_COORD97":170954.91,"N_COORD97":2539304.75,"ADDRESS":"全福路５６號","OBJECTID":120008},"geometry":{"x":170954.91000000015,"y":2539304.7500000019}},{"attributes":{"ID":120009,"DIS_CODE":0,"TOWNNAME":"仁德區","LI":"成功里","LIN":"13鄰","STREET":"全福路","SECT":" ","MAREA":" ","LANE":" ","ALLEY":" ","HOUSE_NO":"１２號","E_COORD97":170843.87,"N_COORD97":2539308.9900000002,"ADDRESS":"全福路１２號","OBJECTID":120009},"geometry":{"x":170843.87000000104,"y":2539308.9900000021}},{"attributes":{"ID":120010,"DIS_CODE":0,"TOWNNAME":"麻豆區","LI":"大山里","LIN":"4鄰","STREET":" ","SECT":" ","MAREA":"大山\u25A0","LANE":" ","ALLEY":" ","HOUSE_NO":"４２號之２１","E_COORD97":170276.97,"N_COORD97":2566100.2400000002,"ADDRESS":"大山\u25A0４２號之２１","OBJECTID":120010},"geometry":{"x":170276.97000000067,"y":2566100.2400000002}},{"attributes":{"ID":120011,"DIS_CODE":0,"TOWNNAME":"麻豆區","LI":"大山里","LIN":"4鄰","STREET":" ","SECT":" ","MAREA":"大山\u25A0","LANE":" ","ALLEY":" ","HOUSE_NO":"４２號之２２","E_COORD97":170280.54999999999,"N_COORD97":2566100.21,"ADDRESS":"大山\u25A0４２號之２２","OBJECTID":120011},"geometry":{"x":170280.54999999981,"y":2566100.2100000028}},{"attributes":{"ID":120012,"DIS_CODE":0,"TOWNNAME":"麻豆區","LI":"大山里","LIN":"4鄰","STREET":" ","SECT":" ","MAREA":"大山\u25A0","LANE":" ","ALLEY":" ","HOUSE_NO":"４２號之５","E_COORD97":170317.07000000001,"N_COORD97":2566032.9500000002,"ADDRESS":"大山\u25A0４２號之５","OBJECTID":120012},"geometry":{"x":170317.07000000123,"y":2566032.9499999993}},{"attributes":{"ID":120013,"DIS_CODE":0,"TOWNNAME":"麻豆區","LI":"大山里","LIN":"4鄰","STREET":" ","SECT":" ","MAREA":"大山\u25A0","LANE":" ","ALLEY":" ","HOUSE_NO":"４２號之６","E_COORD97":170317.10999999999,"N_COORD97":2566037.2999999998,"ADDRESS":"大山\u25A0４２號之６","OBJECTID":120013},"geometry":{"x":170317.11000000127,"y":2566037.3000000026}},{"attributes":{"ID":120014,"DIS_CODE":0,"TOWNNAME":"麻豆區","LI":"大山里","LIN":"4鄰","STREET":" ","SECT":" ","MAREA":"大山\u25A0","LANE":" ","ALLEY":" ","HOUSE_NO":"４２號之７","E_COORD97":170317.16,"N_COORD97":2566041.6400000001,"ADDRESS":"大山\u25A0４２號之７","OBJECTID":120014},"geometry":{"x":170317.16000000015,"y":2566041.6400000025}},{"attributes":{"ID":120015,"DIS_CODE":0,"TOWNNAME":"安平區","LI":"平安里","LIN":"10鄰","STREET":"安平路","SECT":" ","MAREA":" ","LANE":" ","ALLEY":" ","HOUSE_NO":"４７２號","E_COORD97":165209.29999999999,"N_COORD97":2544328.6699999999,"ADDRESS":"安平路４７２號","OBJECTID":120015},"geometry":{"x":165209.30000000075,"y":2544328.6700000018}},{"attributes":{"ID":120016,"DIS_CODE":0,"TOWNNAME":"歸仁區","LI":"看東里","LIN":"16鄰","STREET":"中山路","SECT":"一段","MAREA":" ","LANE":"１巷","ALLEY":"３８弄","HOUSE_NO":"６號","E_COORD97":179551.32999999999,"N_COORD97":2540233.5699999998,"ADDRESS":"中山路一段１巷３８弄６號","OBJECTID":120016},"geometry":{"x":179551.33000000007,"y":2540233.570000004}},{"attributes":{"ID":120017,"DIS_CODE":0,"TOWNNAME":"歸仁區","LI":"看東里","LIN":"16鄰","STREET":"中山路","SECT":"一段","MAREA":" ","LANE":"１巷","ALLEY":"３８弄","HOUSE_NO":"２號","E_COORD97":179557.42999999999,"N_COORD97":2540229.5699999998,"ADDRESS":"中山路一段１巷３８弄２號","OBJECTID":120017},"geometry":{"x":179557.4299999997,"y":2540229.5700000003}},{"attributes":{"ID":120018,"DIS_CODE":0,"TOWNNAME":"白河區","LI":"白河里","LIN":"6鄰","STREET":" ","SECT":" ","MAREA":" ","LANE":"市場二巷","ALLEY":" ","HOUSE_NO":"６號","E_COORD97":190211.98000000001,"N_COORD97":2583073,"ADDRESS":"市場二巷６號","OBJECTID":120018},"geometry":{"x":190211.98000000045,"y":2583073}},{"attributes":{"ID":120019,"DIS_CODE":0,"TOWNNAME":"歸仁區","LI":"看東里","LIN":"16鄰","STREET":"中山路","SECT":"一段","MAREA":" ","LANE":"１巷","ALLEY":"３８弄","HOUSE_NO":"１２號","E_COORD97":179534.17999999999,"N_COORD97":2540240.5699999998,"ADDRESS":"中山路一段１巷３８弄１２號","OBJECTID":120019},"geometry":{"x":179534.18000000063,"y":2540240.570000004}},{"attributes":{"ID":120020,"DIS_CODE":0,"TOWNNAME":"歸仁區","LI":"看東里","LIN":"16鄰","STREET":"中山路","SECT":"一段","MAREA":" ","LANE":"１巷","ALLEY":"３８弄","HOUSE_NO":"１４號","E_COORD97":179527.98000000001,"N_COORD97":2540243.5699999998,"ADDRESS":"中山路一段１巷３８弄１４號","OBJECTID":120020},"geometry":{"x":179527.98000000138,"y":2540243.5699999984}},{"attributes":{"ID":120021,"DIS_CODE":0,"TOWNNAME":"歸仁區","LI":"看東里","LIN":"16鄰","STREET":"中山路","SECT":"一段","MAREA":" ","LANE":"１巷","ALLEY":"３８弄","HOUSE_NO":"２０號","E_COORD97":179511.67999999999,"N_COORD97":2540250.5699999998,"ADDRESS":"中山路一段１巷３８弄２０號","OBJECTID":120021},"geometry":{"x":179511.6799999997,"y":2540250.570000004}},{"attributes":{"ID":120022,"DIS_CODE":0,"TOWNNAME":"歸仁區","LI":"看東里","LIN":"16鄰","STREET":"中山路","SECT":"一段","MAREA":" ","LANE":"１巷","ALLEY":"４６弄","HOUSE_NO":"６號","E_COORD97":179536.82999999999,"N_COORD97":2540207.5699999998,"ADDRESS":"中山路一段１巷４６弄６號","OBJECTID":120022},"geometry":{"x":179536.83000000194,"y":2540207.5700000022}},{"attributes":{"ID":120023,"DIS_CODE":0,"TOWNNAME":"北區","LI":"大港里","LIN":"16鄰","STREET":"大興街","SECT":" ","MAREA":" ","LANE":"２４６巷","ALLEY":"５３弄","HOUSE_NO":"１號","E_COORD97":166597.92000000001,"N_COORD97":2545840.5,"ADDRESS":"大興街２４６巷５３弄１號","OBJECTID":120023},"geometry":{"x":166597.91999999993,"y":2545840.5}},{"attributes":{"ID":120024,"DIS_CODE":0,"TOWNNAME":"北區","LI":"大港里","LIN":"16鄰","STREET":"大興街","SECT":" ","MAREA":" ","LANE":"２４６巷","ALLEY":"５３弄","HOUSE_NO":"３號","E_COORD97":166593.39000000001,"N_COORD97":2545840.1200000001,"ADDRESS":"大興街２４６巷５３弄３號","OBJECTID":120024},"geometry":{"x":166593.3900000006,"y":2545840.120000001}},{"attributes":{"ID":120025,"DIS_CODE":0,"TOWNNAME":"北區","LI":"大港里","LIN":"16鄰","STREET":"大興街","SECT":" ","MAREA":" ","LANE":"２４６巷","ALLEY":"５３弄","HOUSE_NO":"５號","E_COORD97":166589.23999999999,"N_COORD97":2545838.7999999998,"ADDRESS":"大興街２４６巷５３弄５號","OBJECTID":120025},"geometry":{"x":166589.24000000022,"y":2545838.8000000007}},{"attributes":{"ID":120026,"DIS_CODE":0,"TOWNNAME":"北區","LI":"大港里","LIN":"16鄰","STREET":"大興街","SECT":" ","MAREA":" ","LANE":"２４６巷","ALLEY":"５３弄","HOUSE_NO":"７號","E_COORD97":166585.45999999999,"N_COORD97":2545838.0499999998,"ADDRESS":"大興街２４６巷５３弄７號","OBJECTID":120026},"geometry":{"x":166585.45999999996,"y":2545838.0500000007}},{"attributes":{"ID":120027,"DIS_CODE":0,"TOWNNAME":"北區","LI":"大港里","LIN":"16鄰","STREET":"大興街","SECT":" ","MAREA":" ","LANE":"２４６巷","ALLEY":"５３弄","HOUSE_NO":"９號","E_COORD97":166582.06,"N_COORD97":2545836.73,"ADDRESS":"大興街２４６巷５３弄９號","OBJECTID":120027},"geometry":{"x":166582.06000000052,"y":2545836.7300000004}},{"attributes":{"ID":120028,"DIS_CODE":0,"TOWNNAME":"北區","LI":"大港里","LIN":"16鄰","STREET":"大興街","SECT":" ","MAREA":" ","LANE":"２４６巷","ALLEY":"５３弄","HOUSE_NO":"１１號","E_COORD97":166577.91,"N_COORD97":2545835.7799999998,"ADDRESS":"大興街２４６巷５３弄１１號","OBJECTID":120028},"geometry":{"x":166577.91000000015,"y":2545835.7800000012}},{"attributes":{"ID":120029,"DIS_CODE":0,"TOWNNAME":"北區","LI":"大港里","LIN":"16鄰","STREET":"大興街","SECT":" ","MAREA":" ","LANE":"２４６巷","ALLEY":"５３弄","HOUSE_NO":"１３號","E_COORD97":166574.06,"N_COORD97":2545834.6600000001,"ADDRESS":"大興街２４６巷５３弄１３號","OBJECTID":120029},"geometry":{"x":166574.06000000052,"y":2545834.660000002}},{"attributes":{"ID":120030,"DIS_CODE":0,"TOWNNAME":"佳里區","LI":"六安里","LIN":"13鄰","STREET":" ","SECT":" ","MAREA":"六安","LANE":" ","ALLEY":" ","HOUSE_NO":"１０３號之１６","E_COORD97":166122.92000000001,"N_COORD97":2563911.2999999998,"ADDRESS":"六安１０３號之１６","OBJECTID":120030},"geometry":{"x":166122.91999999993,"y":2563911.3000000026}},{"attributes":{"ID":120031,"DIS_CODE":0,"TOWNNAME":"麻豆區","LI":"大山里","LIN":"4鄰","STREET":" ","SECT":" ","MAREA":"大山\u25A0","LANE":" ","ALLEY":" ","HOUSE_NO":"４２號之８","E_COORD97":170317.20000000001,"N_COORD97":2566045.98,"ADDRESS":"大山\u25A0４２號之８","OBJECTID":120031},"geometry":{"x":170317.20000000019,"y":2566045.9800000023}},{"attributes":{"ID":120032,"DIS_CODE":0,"TOWNNAME":"北區","LI":"大港里","LIN":"16鄰","STREET":"大興街","SECT":" ","MAREA":" ","LANE":"２４６巷","ALLEY":"５３弄","HOUSE_NO":"１５號","E_COORD97":166570.28,"N_COORD97":2545833.71,"ADDRESS":"大興街２４６巷５３弄１５號","OBJECTID":120032},"geometry":{"x":166570.28000000026,"y":2545833.7100000009}},{"attributes":{"ID":120033,"DIS_CODE":0,"TOWNNAME":"麻豆區","LI":"大山里","LIN":"4鄰","STREET":" ","SECT":" ","MAREA":"大山\u25A0","LANE":" ","ALLEY":" ","HOUSE_NO":"４２號之９","E_COORD97":170317.23999999999,"N_COORD97":2566050.3199999998,"ADDRESS":"大山\u25A0４２號之９","OBJECTID":120033},"geometry":{"x":170317.23999999929,"y":2566050.3200000022}},{"attributes":{"ID":120034,"DIS_CODE":0,"TOWNNAME":"麻豆區","LI":"大山里","LIN":"4鄰","STREET":" ","SECT":" ","MAREA":"大山\u25A0","LANE":" ","ALLEY":" ","HOUSE_NO":"４２號","E_COORD97":170295.56,"N_COORD97":2566043.5800000001,"ADDRESS":"大山\u25A0４２號","OBJECTID":120034},"geometry":{"x":170295.55999999959,"y":2566043.5800000001}},{"attributes":{"ID":120035,"DIS_CODE":0,"TOWNNAME":"麻豆區","LI":"大山里","LIN":"4鄰","STREET":" ","SECT":" ","MAREA":"大山\u25A0","LANE":" ","ALLEY":" ","HOUSE_NO":"４４號之１０","E_COORD97":170318.13,"N_COORD97":2566113.75,"ADDRESS":"大山\u25A0４４號之１０","OBJECTID":120035},"geometry":{"x":170318.13000000082,"y":2566113.75}},{"attributes":{"ID":120036,"DIS_CODE":0,"TOWNNAME":"北區","LI":"大港里","LIN":"16鄰","STREET":"大興街","SECT":" ","MAREA":" ","LANE":"２４６巷","ALLEY":"５３弄","HOUSE_NO":"１７號","E_COORD97":166566.51000000001,"N_COORD97":2545832.3900000001,"ADDRESS":"大興街２４６巷５３弄１７號","OBJECTID":120036},"geometry":{"x":166566.50999999978,"y":2545832.3900000006}},{"attributes":{"ID":120037,"DIS_CODE":0,"TOWNNAME":"北區","LI":"大港里","LIN":"16鄰","STREET":"大興街","SECT":" ","MAREA":" ","LANE":"２４６巷","ALLEY":"５３弄","HOUSE_NO":"１９號","E_COORD97":166562.16,"N_COORD97":2545831.2599999998,"ADDRESS":"大興街２４６巷５３弄１９號","OBJECTID":120037},"geometry":{"x":166562.16000000015,"y":2545831.2599999998}},{"attributes":{"ID":120038,"DIS_CODE":0,"TOWNNAME":"北區","LI":"大港里","LIN":"16鄰","STREET":"大興街","SECT":" ","MAREA":" ","LANE":"２４６巷","ALLEY":"５３弄","HOUSE_NO":"２１號","E_COORD97":166557.63,"N_COORD97":2545830.1299999999,"ADDRESS":"大興街２４６巷５３弄２１號","OBJECTID":120038},"geometry":{"x":166557.62999999989,"y":2545830.1300000008}},{"attributes":{"ID":120039,"DIS_CODE":0,"TOWNNAME":"北區","LI":"大港里","LIN":"16鄰","STREET":"大興街","SECT":" ","MAREA":" ","LANE":"２４６巷","ALLEY":"５３弄","HOUSE_NO":"２３號","E_COORD97":166554.79999999999,"N_COORD97":2545829.5600000001,"ADDRESS":"大興街２４６巷５３弄２３號","OBJECTID":120039},"geometry":{"x":166554.79999999888,"y":2545829.5600000024}},{"attributes":{"ID":120040,"DIS_CODE":0,"TOWNNAME":"北區","LI":"大港里","LIN":"16鄰","STREET":"大興街","SECT":" ","MAREA":" ","LANE":"２４６巷","ALLEY":"５３弄","HOUSE_NO":"２５號","E_COORD97":166551.39999999999,"N_COORD97":2545828.6200000001,"ADDRESS":"大興街２４６巷５３弄２５號","OBJECTID":120040},"geometry":{"x":166551.40000000224,"y":2545828.6200000029}},{"attributes":{"ID":120041,"DIS_CODE":0,"TOWNNAME":"歸仁區","LI":"看東里","LIN":"16鄰","STREET":"成功路","SECT":"一段","MAREA":" ","LANE":"２７巷","ALLEY":"６０弄","HOUSE_NO":"３００號","E_COORD97":179045.79999999999,"N_COORD97":2539082.0800000001,"ADDRESS":"成功路一段２７巷６０弄３００號","OBJECTID":120041},"geometry":{"x":179045.80000000075,"y":2539082.0800000019}},{"attributes":{"ID":120042,"DIS_CODE":0,"TOWNNAME":"永康區","LI":"烏竹里","LIN":"16鄰","STREET":"自強路","SECT":" ","MAREA":" ","LANE":"９２５巷","ALLEY":"１１弄","HOUSE_NO":"３０號","E_COORD97":174683.35000000001,"N_COORD97":2548850.3100000001,"ADDRESS":"自強路９２５巷１１弄３０號","OBJECTID":120042},"geometry":{"x":174683.35000000056,"y":2548850.3100000005}},{"attributes":{"ID":120043,"DIS_CODE":0,"TOWNNAME":"永康區","LI":"北灣里","LIN":"16鄰","STREET":"文賢街","SECT":" ","MAREA":" ","LANE":"３６０巷","ALLEY":"５０弄","HOUSE_NO":"３３號","E_COORD97":174876.79000000001,"N_COORD97":2545965.27,"ADDRESS":"文賢街３６０巷５０弄３３號","OBJECTID":120043},"geometry":{"x":174876.78999999911,"y":2545965.2700000014}},{"attributes":{"ID":120044,"DIS_CODE":0,"TOWNNAME":"麻豆區","LI":"大山里","LIN":"4鄰","STREET":" ","SECT":" ","MAREA":"大山\u25A0","LANE":" ","ALLEY":" ","HOUSE_NO":"４４號之１１","E_COORD97":170305.64000000001,"N_COORD97":2566089.9500000002,"ADDRESS":"大山\u25A0４４號之１１","OBJECTID":120044},"geometry":{"x":170305.64000000153,"y":2566089.9500000011}},{"attributes":{"ID":120045,"DIS_CODE":0,"TOWNNAME":"麻豆區","LI":"大山里","LIN":"4鄰","STREET":" ","SECT":" ","MAREA":"大山\u25A0","LANE":" ","ALLEY":" ","HOUSE_NO":"４４號之１２","E_COORD97":170299.01000000001,"N_COORD97":2566089.9300000002,"ADDRESS":"大山\u25A0４４號之１２","OBJECTID":120045},"geometry":{"x":170299.00999999978,"y":2566089.9300000016}},{"attributes":{"ID":120046,"DIS_CODE":0,"TOWNNAME":"麻豆區","LI":"大山里","LIN":"4鄰","STREET":" ","SECT":" ","MAREA":"大山\u25A0","LANE":" ","ALLEY":" ","HOUSE_NO":"４４號之１３","E_COORD97":170292.39000000001,"N_COORD97":2566089.9100000001,"ADDRESS":"大山\u25A0４４號之１３","OBJECTID":120046},"geometry":{"x":170292.3900000006,"y":2566089.910000002}},{"attributes":{"ID":120047,"DIS_CODE":0,"TOWNNAME":"永康區","LI":"北灣里","LIN":"16鄰","STREET":"文賢街","SECT":" ","MAREA":" ","LANE":"３６０巷","ALLEY":"５０弄","HOUSE_NO":"３１號","E_COORD97":174877.16,"N_COORD97":2545954.5299999998,"ADDRESS":"文賢街３６０巷５０弄３１號","OBJECTID":120047},"geometry":{"x":174877.16000000015,"y":2545954.5299999993}},{"attributes":{"ID":120048,"DIS_CODE":0,"TOWNNAME":"安平區","LI":"文平里","LIN":"10鄰","STREET":"永華路","SECT":"二段","MAREA":" ","LANE":" ","ALLEY":" ","HOUSE_NO":"１２９之２號","E_COORD97":166364.70000000001,"N_COORD97":2543321.1000000001,"ADDRESS":"永華路二段１２９之２號","OBJECTID":120048},"geometry":{"x":166364.70000000112,"y":2543321.0999999978}},{"attributes":{"ID":120049,"DIS_CODE":0,"TOWNNAME":"南區","LI":"喜東里","LIN":"10鄰","STREET":"明興路","SECT":" ","MAREA":" ","LANE":" ","ALLEY":" ","HOUSE_NO":"３３號","E_COORD97":166798.35000000001,"N_COORD97":2540117.1600000001,"ADDRESS":"明興路３３號","OBJECTID":120049},"geometry":{"x":166798.3499999987,"y":2540117.1600000001}},{"attributes":{"ID":120050,"DIS_CODE":0,"TOWNNAME":"仁德區","LI":"太子里","LIN":"31鄰","STREET":"太子路","SECT":" ","MAREA":" ","LANE":" ","ALLEY":" ","HOUSE_NO":"５３１號","E_COORD97":173937.45000000001,"N_COORD97":2543504.0099999998,"ADDRESS":"太子路５３１號","OBJECTID":120050},"geometry":{"x":173937.45000000112,"y":2543504.0099999998}},{"attributes":{"ID":120051,"DIS_CODE":0,"TOWNNAME":"永康區","LI":"烏竹里","LIN":"16鄰","STREET":"自強路","SECT":" ","MAREA":" ","LANE":"９２５巷","ALLEY":"１１弄","HOUSE_NO":"４０號","E_COORD97":174658.07999999999,"N_COORD97":2548831.8300000001,"ADDRESS":"自強路９２５巷１１弄４０號","OBJECTID":120051},"geometry":{"x":174658.08000000194,"y":2548831.8300000001}},{"attributes":{"ID":120052,"DIS_CODE":0,"TOWNNAME":"南區","LI":"喜東里","LIN":"10鄰","STREET":"明興路","SECT":" ","MAREA":" ","LANE":" ","ALLEY":" ","HOUSE_NO":"３５號","E_COORD97":166795.5,"N_COORD97":2540114.7799999998,"ADDRESS":"明興路３５號","OBJECTID":120052},"geometry":{"x":166795.5,"y":2540114.7799999993}},{"attributes":{"ID":120053,"DIS_CODE":0,"TOWNNAME":"東區","LI":"大福里","LIN":"9鄰","STREET":"立德二路","SECT":" ","MAREA":" ","LANE":" ","ALLEY":" ","HOUSE_NO":"３９號","E_COORD97":169589.37,"N_COORD97":2541754.9900000002,"ADDRESS":"立德二路３９號","OBJECTID":120053},"geometry":{"x":169589.37000000104,"y":2541754.9900000002}},{"attributes":{"ID":120054,"DIS_CODE":0,"TOWNNAME":"東區","LI":"大福里","LIN":"9鄰","STREET":"立德二路","SECT":" ","MAREA":" ","LANE":" ","ALLEY":" ","HOUSE_NO":"４１號","E_COORD97":169594.60999999999,"N_COORD97":2541756.7400000002,"ADDRESS":"立德二路４１號","OBJECTID":120054},"geometry":{"x":169594.6100000022,"y":2541756.7400000002}},{"attributes":{"ID":120055,"DIS_CODE":0,"TOWNNAME":"永康區","LI":"烏竹里","LIN":"16鄰","STREET":"自強路","SECT":" ","MAREA":" ","LANE":"９２５巷","ALLEY":"１１弄","HOUSE_NO":"２６號","E_COORD97":174692.17999999999,"N_COORD97":2548856.2799999998,"ADDRESS":"自強路９２５巷１１弄２６號","OBJECTID":120055},"geometry":{"x":174692.1799999997,"y":2548856.2800000031}},{"attributes":{"ID":120056,"DIS_CODE":0,"TOWNNAME":"永康區","LI":"北灣里","LIN":"16鄰","STREET":"文賢街","SECT":" ","MAREA":" ","LANE":"３６０巷","ALLEY":"５０弄","HOUSE_NO":"２號","E_COORD97":174827.75,"N_COORD97":2545897.5299999998,"ADDRESS":"文賢街３６０巷５０弄２號","OBJECTID":120056},"geometry":{"x":174827.75,"y":2545897.5299999993}},{"attributes":{"ID":120057,"DIS_CODE":0,"TOWNNAME":"永康區","LI":"大橋里","LIN":"16鄰","STREET":"大橋一街","SECT":" ","MAREA":" ","LANE":"１０３巷","ALLEY":"７６弄","HOUSE_NO":"１號","E_COORD97":170906.14999999999,"N_COORD97":2546606.1400000001,"ADDRESS":"大橋一街１０３巷７６弄１號","OBJECTID":120057},"geometry":{"x":170906.15000000037,"y":2546606.1400000006}},{"attributes":{"ID":120058,"DIS_CODE":0,"TOWNNAME":"永康區","LI":"烏竹里","LIN":"16鄰","STREET":"自強路","SECT":" ","MAREA":" ","LANE":"９２５巷","ALLEY":"１１弄","HOUSE_NO":"２２號","E_COORD97":174696.51000000001,"N_COORD97":2548859.21,"ADDRESS":"自強路９２５巷１１弄２２號","OBJECTID":120058},"geometry":{"x":174696.50999999978,"y":2548859.2100000028}},{"attributes":{"ID":120059,"DIS_CODE":0,"TOWNNAME":"永康區","LI":"北灣里","LIN":"16鄰","STREET":"文賢街","SECT":" ","MAREA":" ","LANE":"３６０巷","ALLEY":"５０弄","HOUSE_NO":"９號","E_COORD97":174840.32999999999,"N_COORD97":2545921.8700000001,"ADDRESS":"文賢街３６０巷５０弄９號","OBJECTID":120059},"geometry":{"x":174840.33000000007,"y":2545921.8700000029}},{"attributes":{"ID":120060,"DIS_CODE":0,"TOWNNAME":"永康區","LI":"大橋里","LIN":"16鄰","STREET":"大橋一街","SECT":" ","MAREA":" ","LANE":"１０３巷","ALLEY":"７６弄","HOUSE_NO":"８號","E_COORD97":170929.85999999999,"N_COORD97":2546590.6600000001,"ADDRESS":"大橋一街１０３巷７６弄８號","OBJECTID":120060},"geometry":{"x":170929.86000000034,"y":2546590.660000002}},{"attributes":{"ID":120061,"DIS_CODE":0,"TOWNNAME":"永康區","LI":"北灣里","LIN":"16鄰","STREET":"文賢街","SECT":" ","MAREA":" ","LANE":"３６０巷","ALLEY":"５０弄","HOUSE_NO":"２９號","E_COORD97":174870.39000000001,"N_COORD97":2545954.54,"ADDRESS":"文賢街３６０巷５０弄２９號","OBJECTID":120061},"geometry":{"x":174870.38999999966,"y":2545954.5399999991}},{"attributes":{"ID":120062,"DIS_CODE":0,"TOWNNAME":"永康區","LI":"大橋里","LIN":"16鄰","STREET":"大橋一街","SECT":" ","MAREA":" ","LANE":"１０３巷","ALLEY":"７６弄","HOUSE_NO":"１６號","E_COORD97":170942.37,"N_COORD97":2546598.52,"ADDRESS":"大橋一街１０３巷７６弄１６號","OBJECTID":120062},"geometry":{"x":170942.37000000104,"y":2546598.5200000014}},{"attributes":{"ID":120063,"DIS_CODE":0,"TOWNNAME":"永康區","LI":"烏竹里","LIN":"16鄰","STREET":"自強路","SECT":" ","MAREA":" ","LANE":"９２５巷","ALLEY":"１１弄","HOUSE_NO":"１８號","E_COORD97":174707.5,"N_COORD97":2548864.3799999999,"ADDRESS":"自強路９２５巷１１弄１８號","OBJECTID":120063},"geometry":{"x":174707.49999999907,"y":2548864.379999999}},{"attributes":{"ID":120064,"DIS_CODE":0,"TOWNNAME":"永康區","LI":"烏竹里","LIN":"16鄰","STREET":"自強路","SECT":" ","MAREA":" ","LANE":"９２５巷","ALLEY":"１１弄","HOUSE_NO":"１２號","E_COORD97":174710.48999999999,"N_COORD97":2548874.0800000001,"ADDRESS":"自強路９２５巷１１弄１２號","OBJECTID":120064},"geometry":{"x":174710.49000000022,"y":2548874.0800000001}},{"attributes":{"ID":120065,"DIS_CODE":0,"TOWNNAME":"永康區","LI":"烏竹里","LIN":"16鄰","STREET":"自強路","SECT":" ","MAREA":" ","LANE":"９２５巷","ALLEY":"１１弄","HOUSE_NO":"２８號","E_COORD97":174687.85999999999,"N_COORD97":2548853.3599999999,"ADDRESS":"自強路９２５巷１１弄２８號","OBJECTID":120065},"geometry":{"x":174687.86000000034,"y":2548853.3600000013}},{"attributes":{"ID":120066,"DIS_CODE":0,"TOWNNAME":"永康區","LI":"北灣里","LIN":"16鄰","STREET":"文賢街","SECT":" ","MAREA":" ","LANE":"３６０巷","ALLEY":"５０弄","HOUSE_NO":"５號","E_COORD97":174832.41,"N_COORD97":2545915.98,"ADDRESS":"文賢街３６０巷５０弄５號","OBJECTID":120066},"geometry":{"x":174832.41000000108,"y":2545915.9800000004}},{"attributes":{"ID":120067,"DIS_CODE":0,"TOWNNAME":"永康區","LI":"北灣里","LIN":"16鄰","STREET":"文賢街","SECT":" ","MAREA":" ","LANE":"３６０巷","ALLEY":"５０弄","HOUSE_NO":"２３號","E_COORD97":174864.13,"N_COORD97":2545942.0800000001,"ADDRESS":"文賢街３６０巷５０弄２３號","OBJECTID":120067},"geometry":{"x":174864.12999999896,"y":2545942.0800000001}},{"attributes":{"ID":120068,"DIS_CODE":0,"TOWNNAME":"永康區","LI":"烏竹里","LIN":"16鄰","STREET":"自強路","SECT":" ","MAREA":" ","LANE":"９２５巷","ALLEY":"１１弄","HOUSE_NO":"８號","E_COORD97":174729.53,"N_COORD97":2548877.27,"ADDRESS":"自強路９２５巷１１弄８號","OBJECTID":120068},"geometry":{"x":174729.53000000026,"y":2548877.2700000014}},{"attributes":{"ID":120069,"DIS_CODE":0,"TOWNNAME":"永康區","LI":"烏竹里","LIN":"16鄰","STREET":"自強路","SECT":" ","MAREA":" ","LANE":"９２５巷","ALLEY":"１１弄","HOUSE_NO":"３２號","E_COORD97":174678.44,"N_COORD97":2548846.98,"ADDRESS":"自強路９２５巷１１弄３２號","OBJECTID":120069},"geometry":{"x":174678.44000000134,"y":2548846.9800000023}},{"attributes":{"ID":120070,"DIS_CODE":0,"TOWNNAME":"永康區","LI":"大橋里","LIN":"16鄰","STREET":"大橋一街","SECT":" ","MAREA":" ","LANE":"１０３巷","ALLEY":"７６弄","HOUSE_NO":"５號","E_COORD97":170914.47,"N_COORD97":2546612.8100000001,"ADDRESS":"大橋一街１０３巷７６弄５號","OBJECTID":120070},"geometry":{"x":170914.47000000067,"y":2546612.8100000042}},{"attributes":{"ID":120071,"DIS_CODE":0,"TOWNNAME":"永康區","LI":"烏竹里","LIN":"16鄰","STREET":"自強路","SECT":" ","MAREA":" ","LANE":"９２５巷","ALLEY":"１１弄","HOUSE_NO":"６號","E_COORD97":174733.16,"N_COORD97":2548880.3500000001,"ADDRESS":"自強路９２５巷１１弄６號","OBJECTID":120071},"geometry":{"x":174733.16000000015,"y":2548880.3500000015}},{"attributes":{"ID":120072,"DIS_CODE":0,"TOWNNAME":"永康區","LI":"烏竹里","LIN":"16鄰","STREET":"自強路","SECT":" ","MAREA":" ","LANE":"９２５巷","ALLEY":"１１弄","HOUSE_NO":"３６號","E_COORD97":174672.89999999999,"N_COORD97":2548843.23,"ADDRESS":"自強路９２５巷１１弄３６號","OBJECTID":120072},"geometry":{"x":174672.90000000037,"y":2548843.2300000004}},{"attributes":{"ID":120073,"DIS_CODE":0,"TOWNNAME":"永康區","LI":"大橋里","LIN":"16鄰","STREET":"大橋一街","SECT":" ","MAREA":" ","LANE":"１０３巷","ALLEY":"７６弄","HOUSE_NO":"３號","E_COORD97":170912.37,"N_COORD97":2546606.2200000002,"ADDRESS":"大橋一街１０３巷７６弄３號","OBJECTID":120073},"geometry":{"x":170912.37000000011,"y":2546606.2200000007}},{"attributes":{"ID":120074,"DIS_CODE":0,"TOWNNAME":"永康區","LI":"北灣里","LIN":"16鄰","STREET":"文賢街","SECT":" ","MAREA":" ","LANE":"３６０巷","ALLEY":"５０弄","HOUSE_NO":"１９號","E_COORD97":174854.76000000001,"N_COORD97":2545939.8599999999,"ADDRESS":"文賢街３６０巷５０弄１９號","OBJECTID":120074},"geometry":{"x":174854.76000000164,"y":2545939.8599999975}},{"attributes":{"ID":120075,"DIS_CODE":0,"TOWNNAME":"永康區","LI":"北灣里","LIN":"16鄰","STREET":"文賢街","SECT":" ","MAREA":" ","LANE":"３６０巷","ALLEY":"５０弄","HOUSE_NO":"１３號","E_COORD97":174845.37,"N_COORD97":2545929.8900000001,"ADDRESS":"文賢街３６０巷５０弄１３號","OBJECTID":120075},"geometry":{"x":174845.37000000011,"y":2545929.8900000006}},{"attributes":{"ID":120076,"DIS_CODE":0,"TOWNNAME":"東區","LI":"大福里","LIN":"9鄰","STREET":"立德二路","SECT":" ","MAREA":" ","LANE":" ","ALLEY":" ","HOUSE_NO":"４３號","E_COORD97":169600.53,"N_COORD97":2541758.1299999999,"ADDRESS":"立德二路４３號","OBJECTID":120076},"geometry":{"x":169600.53000000119,"y":2541758.1300000008}},{"attributes":{"ID":120077,"DIS_CODE":0,"TOWNNAME":"麻豆區","LI":"大山里","LIN":"4鄰","STREET":" ","SECT":" ","MAREA":"大山\u25A0","LANE":" ","ALLEY":" ","HOUSE_NO":"４４號之１４","E_COORD97":170285.76000000001,"N_COORD97":2566089.8900000001,"ADDRESS":"大山\u25A0４４號之１４","OBJECTID":120077},"geometry":{"x":170285.75999999978,"y":2566089.8900000006}},{"attributes":{"ID":120078,"DIS_CODE":0,"TOWNNAME":"麻豆區","LI":"大山里","LIN":"4鄰","STREET":" ","SECT":" ","MAREA":"大山\u25A0","LANE":" ","ALLEY":" ","HOUSE_NO":"４４號之５","E_COORD97":170317.48999999999,"N_COORD97":2566059.6200000001,"ADDRESS":"大山\u25A0４４號之５","OBJECTID":120078},"geometry":{"x":170317.49000000115,"y":2566059.6200000029}},{"attributes":{"ID":120079,"DIS_CODE":0,"TOWNNAME":"麻豆區","LI":"大山里","LIN":"4鄰","STREET":" ","SECT":" ","MAREA":"大山\u25A0","LANE":" ","ALLEY":" ","HOUSE_NO":"４４號之６","E_COORD97":170317.63,"N_COORD97":2566064.46,"ADDRESS":"大山\u25A0４４號之６","OBJECTID":120079},"geometry":{"x":170317.62999999896,"y":2566064.4600000028}},{"attributes":{"ID":120080,"DIS_CODE":0,"TOWNNAME":"南區","LI":"喜東里","LIN":"10鄰","STREET":"永成路","SECT":"二段","MAREA":" ","LANE":" ","ALLEY":" ","HOUSE_NO":"９２號","E_COORD97":167774.26999999999,"N_COORD97":2538649.73,"ADDRESS":"永成路二段９２號","OBJECTID":120080},"geometry":{"x":167774.27000000048,"y":2538649.7300000023}},{"attributes":{"ID":120081,"DIS_CODE":0,"TOWNNAME":"南區","LI":"喜東里","LIN":"10鄰","STREET":"永成路","SECT":"二段","MAREA":" ","LANE":" ","ALLEY":" ","HOUSE_NO":"９０號","E_COORD97":167773.79999999999,"N_COORD97":2538647.3500000001,"ADDRESS":"永成路二段９０號","OBJECTID":120081},"geometry":{"x":167773.80000000168,"y":2538647.3499999996}},{"attributes":{"ID":120082,"DIS_CODE":0,"TOWNNAME":"永康區","LI":"北灣里","LIN":"16鄰","STREET":"文賢街","SECT":" ","MAREA":" ","LANE":"３６０巷","ALLEY":"５０弄","HOUSE_NO":"１１號","E_COORD97":174842.25,"N_COORD97":2545926.5699999998,"ADDRESS":"文賢街３６０巷５０弄１１號","OBJECTID":120082},"geometry":{"x":174842.25000000093,"y":2545926.5700000022}},{"attributes":{"ID":120083,"DIS_CODE":0,"TOWNNAME":"南區","LI":"喜東里","LIN":"10鄰","STREET":"永成路","SECT":"二段","MAREA":" ","LANE":" ","ALLEY":" ","HOUSE_NO":"１０２號","E_COORD97":167774.42999999999,"N_COORD97":2538659.73,"ADDRESS":"永成路二段１０２號","OBJECTID":120083},"geometry":{"x":167774.43000000156,"y":2538659.7300000042}},{"attributes":{"ID":120084,"DIS_CODE":0,"TOWNNAME":"南區","LI":"再興里","LIN":"10鄰","STREET":"新城街","SECT":" ","MAREA":" ","LANE":" ","ALLEY":" ","HOUSE_NO":"３號","E_COORD97":167150.47,"N_COORD97":2542153.2000000002,"ADDRESS":"新城街３號","OBJECTID":120084},"geometry":{"x":167150.4700000016,"y":2542153.1999999993}},{"attributes":{"ID":120085,"DIS_CODE":0,"TOWNNAME":"東區","LI":"龍山里","LIN":"10鄰","STREET":"府東街","SECT":" ","MAREA":" ","LANE":" ","ALLEY":" ","HOUSE_NO":"４０號","E_COORD97":169996.60999999999,"N_COORD97":2542901.8199999998,"ADDRESS":"府東街４０號","OBJECTID":120085},"geometry":{"x":169996.61000000127,"y":2542901.8200000022}},{"attributes":{"ID":120086,"DIS_CODE":0,"TOWNNAME":"東區","LI":"大福里","LIN":"9鄰","STREET":"立德二路","SECT":" ","MAREA":" ","LANE":" ","ALLEY":" ","HOUSE_NO":"４５號","E_COORD97":169604.72,"N_COORD97":2541757.4300000002,"ADDRESS":"立德二路４５號","OBJECTID":120086},"geometry":{"x":169604.71999999974,"y":2541757.4300000016}},{"attributes":{"ID":120087,"DIS_CODE":0,"TOWNNAME":"東區","LI":"大福里","LIN":"9鄰","STREET":"立德二路","SECT":" ","MAREA":" ","LANE":" ","ALLEY":" ","HOUSE_NO":"４７號","E_COORD97":169610.64999999999,"N_COORD97":2541759.52,"ADDRESS":"立德二路４７號","OBJECTID":120087},"geometry":{"x":169610.65000000037,"y":2541759.5200000014}},{"attributes":{"ID":120088,"DIS_CODE":0,"TOWNNAME":"東區","LI":"大福里","LIN":"9鄰","STREET":"立德二路","SECT":" ","MAREA":" ","LANE":" ","ALLEY":" ","HOUSE_NO":"４９號","E_COORD97":169616.23000000001,"N_COORD97":2541759.8700000001,"ADDRESS":"立德二路４９號","OBJECTID":120088},"geometry":{"x":169616.23000000138,"y":2541759.870000001}},{"attributes":{"ID":120089,"DIS_CODE":0,"TOWNNAME":"東區","LI":"大福里","LIN":"9鄰","STREET":"立德二路","SECT":" ","MAREA":" ","LANE":" ","ALLEY":" ","HOUSE_NO":"５１號","E_COORD97":169622.85999999999,"N_COORD97":2541761.2599999998,"ADDRESS":"立德二路５１號","OBJECTID":120089},"geometry":{"x":169622.86000000034,"y":2541761.2600000016}},{"attributes":{"ID":120090,"DIS_CODE":0,"TOWNNAME":"東區","LI":"大福里","LIN":"9鄰","STREET":"立德二路","SECT":" ","MAREA":" ","LANE":" ","ALLEY":" ","HOUSE_NO":"５３號","E_COORD97":169627.39000000001,"N_COORD97":2541763.3500000001,"ADDRESS":"立德二路５３號","OBJECTID":120090},"geometry":{"x":169627.38999999873,"y":2541763.3499999978}},{"attributes":{"ID":120091,"DIS_CODE":0,"TOWNNAME":"東區","LI":"大福里","LIN":"9鄰","STREET":"立德二路","SECT":" ","MAREA":" ","LANE":" ","ALLEY":" ","HOUSE_NO":"５５號","E_COORD97":169632.72,"N_COORD97":2541762.23,"ADDRESS":"立德二路５５號","OBJECTID":120091},"geometry":{"x":169632.72000000067,"y":2541762.2300000023}},{"attributes":{"ID":120092,"DIS_CODE":0,"TOWNNAME":"東區","LI":"大福里","LIN":"9鄰","STREET":"立德二路","SECT":" ","MAREA":" ","LANE":" ","ALLEY":" ","HOUSE_NO":"５７號","E_COORD97":169638.28,"N_COORD97":2541764.6099999999,"ADDRESS":"立德二路５７號","OBJECTID":120092},"geometry":{"x":169638.28000000026,"y":2541764.6099999975}},{"attributes":{"ID":120093,"DIS_CODE":0,"TOWNNAME":"永康區","LI":"大橋里","LIN":"16鄰","STREET":"大橋一街","SECT":" ","MAREA":" ","LANE":"１０３巷","ALLEY":"７６弄","HOUSE_NO":"７號","E_COORD97":170918.69,"N_COORD97":2546615.54,"ADDRESS":"大橋一街１０３巷７６弄７號","OBJECTID":120093},"geometry":{"x":170918.69000000134,"y":2546615.5399999991}},{"attributes":{"ID":120094,"DIS_CODE":0,"TOWNNAME":"永康區","LI":"大橋里","LIN":"16鄰","STREET":"大橋一街","SECT":" ","MAREA":" ","LANE":"１０３巷","ALLEY":"７６弄","HOUSE_NO":"１０號","E_COORD97":170934.14999999999,"N_COORD97":2546593.3300000001,"ADDRESS":"大橋一街１０３巷７６弄１０號","OBJECTID":120094},"geometry":{"x":170934.1500000013,"y":2546593.3300000019}},{"attributes":{"ID":120095,"DIS_CODE":0,"TOWNNAME":"永康區","LI":"北灣里","LIN":"16鄰","STREET":"文賢街","SECT":" ","MAREA":" ","LANE":"３６０巷","ALLEY":"５０弄","HOUSE_NO":"２７號","E_COORD97":174870.23000000001,"N_COORD97":2545948.5699999998,"ADDRESS":"文賢街３６０巷５０弄２７號","OBJECTID":120095},"geometry":{"x":174870.23000000045,"y":2545948.5700000003}},{"attributes":{"ID":120096,"DIS_CODE":0,"TOWNNAME":"永康區","LI":"北灣里","LIN":"16鄰","STREET":"文賢街","SECT":" ","MAREA":" ","LANE":"３６０巷","ALLEY":"５０弄","HOUSE_NO":"５０號","E_COORD97":174892.38,"N_COORD97":2545965.8700000001,"ADDRESS":"文賢街３６０巷５０弄５０號","OBJECTID":120096},"geometry":{"x":174892.37999999989,"y":2545965.8700000029}},{"attributes":{"ID":120097,"DIS_CODE":0,"TOWNNAME":"永康區","LI":"北灣里","LIN":"16鄰","STREET":"文賢街","SECT":" ","MAREA":" ","LANE":"３６０巷","ALLEY":"５０弄","HOUSE_NO":"１７號","E_COORD97":174851.63,"N_COORD97":2545936.54,"ADDRESS":"文賢街３６０巷５０弄１７號","OBJECTID":120097},"geometry":{"x":174851.62999999989,"y":2545936.540000001}},{"attributes":{"ID":120098,"DIS_CODE":0,"TOWNNAME":"永康區","LI":"大橋里","LIN":"16鄰","STREET":"大橋一街","SECT":" ","MAREA":" ","LANE":"１０３巷","ALLEY":"７６弄","HOUSE_NO":"１１號","E_COORD97":170930.26000000001,"N_COORD97":2546619.3700000001,"ADDRESS":"大橋一街１０３巷７６弄１１號","OBJECTID":120098},"geometry":{"x":170930.25999999885,"y":2546619.370000001}},{"attributes":{"ID":120099,"DIS_CODE":0,"TOWNNAME":"永康區","LI":"烏竹里","LIN":"16鄰","STREET":"自強路","SECT":" ","MAREA":" ","LANE":"９２５巷","ALLEY":"１１弄","HOUSE_NO":"２號","E_COORD97":174734.01000000001,"N_COORD97":2548886.8100000001,"ADDRESS":"自強路９２５巷１１弄２號","OBJECTID":120099},"geometry":{"x":174734.00999999978,"y":2548886.8100000005}},{"attributes":{"ID":120100,"DIS_CODE":0,"TOWNNAME":"永康區","LI":"北灣里","LIN":"16鄰","STREET":"文賢街","SECT":" ","MAREA":" ","LANE":"３６０巷","ALLEY":"５０弄","HOUSE_NO":"７號","E_COORD97":174835.45000000001,"N_COORD97":2545920.4100000001,"ADDRESS":"文賢街３６０巷５０弄７號","OBJECTID":120100},"geometry":{"x":174835.45000000112,"y":2545920.4100000039}},{"attributes":{"ID":120101,"DIS_CODE":0,"TOWNNAME":"永康區","LI":"北灣里","LIN":"16鄰","STREET":"文賢街","SECT":" ","MAREA":" ","LANE":"３６０巷","ALLEY":"５０弄","HOUSE_NO":"３號","E_COORD97":174821.48999999999,"N_COORD97":2545911.73,"ADDRESS":"文賢街３６０巷５０弄３號","OBJECTID":120101},"geometry":{"x":174821.49000000209,"y":2545911.7300000042}},{"attributes":{"ID":120102,"DIS_CODE":0,"TOWNNAME":"永康區","LI":"北灣里","LIN":"16鄰","STREET":"文賢街","SECT":" ","MAREA":" ","LANE":"３６０巷","ALLEY":"５０弄","HOUSE_NO":"２５號","E_COORD97":174867.17999999999,"N_COORD97":2545945.3199999998,"ADDRESS":"文賢街３６０巷５０弄２５號","OBJECTID":120102},"geometry":{"x":174867.18000000156,"y":2545945.3200000022}},{"attributes":{"ID":120103,"DIS_CODE":0,"TOWNNAME":"永康區","LI":"北灣里","LIN":"16鄰","STREET":"文賢街","SECT":" ","MAREA":" ","LANE":"３６０巷","ALLEY":"５０弄","HOUSE_NO":"１５號","E_COORD97":174848.5,"N_COORD97":2545933.21,"ADDRESS":"文賢街３６０巷５０弄１５號","OBJECTID":120103},"geometry":{"x":174848.50000000093,"y":2545933.2100000028}},{"attributes":{"ID":120104,"DIS_CODE":0,"TOWNNAME":"永康區","LI":"大橋里","LIN":"16鄰","STREET":"大橋一街","SECT":" ","MAREA":" ","LANE":"１０３巷","ALLEY":"７６弄","HOUSE_NO":"１２號","E_COORD97":170937.57000000001,"N_COORD97":2546595.5099999998,"ADDRESS":"大橋一街１０３巷７６弄１２號","OBJECTID":120104},"geometry":{"x":170937.57000000123,"y":2546595.5100000016}},{"attributes":{"ID":120105,"DIS_CODE":0,"TOWNNAME":"永康區","LI":"大橋里","LIN":"16鄰","STREET":"大橋一街","SECT":" ","MAREA":" ","LANE":"１０３巷","ALLEY":"７６弄","HOUSE_NO":"６號","E_COORD97":170922.89000000001,"N_COORD97":2546590.0899999999,"ADDRESS":"大橋一街１０３巷７６弄６號","OBJECTID":120105},"geometry":{"x":170922.8900000006,"y":2546590.0900000036}},{"attributes":{"ID":120106,"DIS_CODE":0,"TOWNNAME":"東區","LI":"大福里","LIN":"9鄰","STREET":"立德二路","SECT":" ","MAREA":" ","LANE":" ","ALLEY":" ","HOUSE_NO":"５９號","E_COORD97":169644.89000000001,"N_COORD97":2541765.3999999999,"ADDRESS":"立德二路５９號","OBJECTID":120106},"geometry":{"x":169644.8900000006,"y":2541765.4000000022}},{"attributes":{"ID":120107,"DIS_CODE":0,"TOWNNAME":"東區","LI":"大福里","LIN":"9鄰","STREET":"立德二路","SECT":" ","MAREA":" ","LANE":" ","ALLEY":" ","HOUSE_NO":"６１號","E_COORD97":169649.38,"N_COORD97":2541765.6600000001,"ADDRESS":"立德二路６１號","OBJECTID":120107},"geometry":{"x":169649.37999999989,"y":2541765.660000002}},{"attributes":{"ID":120108,"DIS_CODE":0,"TOWNNAME":"東區","LI":"大福里","LIN":"9鄰","STREET":"立德二路","SECT":" ","MAREA":" ","LANE":" ","ALLEY":" ","HOUSE_NO":"６３號","E_COORD97":169655.20000000001,"N_COORD97":2541768.3100000001,"ADDRESS":"立德二路６３號","OBJECTID":120108},"geometry":{"x":169655.20000000112,"y":2541768.3100000042}},{"attributes":{"ID":120109,"DIS_CODE":0,"TOWNNAME":"麻豆區","LI":"大山里","LIN":"4鄰","STREET":" ","SECT":" ","MAREA":"大山\u25A0","LANE":" ","ALLEY":" ","HOUSE_NO":"４４號之７","E_COORD97":170317.76000000001,"N_COORD97":2566069.29,"ADDRESS":"大山\u25A0４４號之７","OBJECTID":120109},"geometry":{"x":170317.75999999978,"y":2566069.290000001}},{"attributes":{"ID":120110,"DIS_CODE":0,"TOWNNAME":"麻豆區","LI":"大山里","LIN":"4鄰","STREET":" ","SECT":" ","MAREA":"大山\u25A0","LANE":" ","ALLEY":" ","HOUSE_NO":"４４號之８","E_COORD97":170317.89999999999,"N_COORD97":2566074.1299999999,"ADDRESS":"大山\u25A0４４號之８","OBJECTID":120110},"geometry":{"x":170317.90000000037,"y":2566074.1300000008}},{"attributes":{"ID":120111,"DIS_CODE":0,"TOWNNAME":"麻豆區","LI":"大山里","LIN":"4鄰","STREET":" ","SECT":" ","MAREA":"大山\u25A0","LANE":" ","ALLEY":" ","HOUSE_NO":"４４號之９","E_COORD97":170317.82000000001,"N_COORD97":2566084.1600000001,"ADDRESS":"大山\u25A0４４號之９","OBJECTID":120111},"geometry":{"x":170317.8200000003,"y":2566084.1600000001}},{"attributes":{"ID":120112,"DIS_CODE":0,"TOWNNAME":"麻豆區","LI":"大山里","LIN":"4鄰","STREET":" ","SECT":" ","MAREA":"大山\u25A0","LANE":" ","ALLEY":" ","HOUSE_NO":"４４號","E_COORD97":170295.04000000001,"N_COORD97":2566071.3100000001,"ADDRESS":"大山\u25A0４４號","OBJECTID":120112},"geometry":{"x":170295.04000000097,"y":2566071.3100000024}},{"attributes":{"ID":120113,"DIS_CODE":0,"TOWNNAME":"麻豆區","LI":"大山里","LIN":"6鄰","STREET":" ","SECT":" ","MAREA":"大山\u25A0","LANE":" ","ALLEY":" ","HOUSE_NO":"６５號之１８","E_COORD97":170109.95000000001,"N_COORD97":2566560.04,"ADDRESS":"大山\u25A0６５號之１８","OBJECTID":120113},"geometry":{"x":170109.95000000019,"y":2566560.040000001}},{"attributes":{"ID":120114,"DIS_CODE":0,"TOWNNAME":"永康區","LI":"烏竹里","LIN":"16鄰","STREET":"自強路","SECT":" ","MAREA":" ","LANE":"９２５巷","ALLEY":"１１弄","HOUSE_NO":"１６號","E_COORD97":174720.81,"N_COORD97":2548861.9700000002,"ADDRESS":"自強路９２５巷１１弄１６號","OBJECTID":120114},"geometry":{"x":174720.81000000052,"y":2548861.9700000007}},{"attributes":{"ID":120115,"DIS_CODE":0,"TOWNNAME":"永康區","LI":"烏竹里","LIN":"16鄰","STREET":"自強路","SECT":" ","MAREA":" ","LANE":"９２５巷","ALLEY":"１１弄","HOUSE_NO":"２０號","E_COORD97":174700.84,"N_COORD97":2548862.1299999999,"ADDRESS":"自強路９２５巷１１弄２０號","OBJECTID":120115},"geometry":{"x":174700.84000000078,"y":2548862.129999999}},{"attributes":{"ID":120116,"DIS_CODE":0,"TOWNNAME":"永康區","LI":"北灣里","LIN":"16鄰","STREET":"文賢街","SECT":" ","MAREA":" ","LANE":"３６０巷","ALLEY":"５０弄","HOUSE_NO":"６號","E_COORD97":174841.41,"N_COORD97":2545901.5699999998,"ADDRESS":"文賢街３６０巷５０弄６號","OBJECTID":120116},"geometry":{"x":174841.41000000108,"y":2545901.5700000003}},{"attributes":{"ID":120117,"DIS_CODE":0,"TOWNNAME":"永康區","LI":"烏竹里","LIN":"16鄰","STREET":"自強路","SECT":" ","MAREA":" ","LANE":"９２５巷","ALLEY":"１１弄","HOUSE_NO":"１０號","E_COORD97":174722.19,"N_COORD97":2548876.96,"ADDRESS":"自強路９２５巷１１弄１０號","OBJECTID":120117},"geometry":{"x":174722.19000000134,"y":2548876.9600000046}},{"attributes":{"ID":120118,"DIS_CODE":0,"TOWNNAME":"下營區","LI":"新興里","LIN":"16鄰","STREET":"健康路","SECT":" ","MAREA":" ","LANE":"２００巷","ALLEY":"１６７弄","HOUSE_NO":"４７號","E_COORD97":175937.97,"N_COORD97":2569829.54,"ADDRESS":"健康路２００巷１６７弄４７號","OBJECTID":120118},"geometry":{"x":175937.96999999974,"y":2569829.5399999991}},{"attributes":{"ID":120119,"DIS_CODE":0,"TOWNNAME":"歸仁區","LI":"七甲里","LIN":"16鄰","STREET":"南潭二街","SECT":" ","MAREA":" ","LANE":"１３０巷","ALLEY":"１１弄","HOUSE_NO":"３６號","E_COORD97":176427.64000000001,"N_COORD97":2542900.6299999999,"ADDRESS":"南潭二街１３０巷１１弄３６號","OBJECTID":120119},"geometry":{"x":176427.6400000006,"y":2542900.6300000008}},{"attributes":{"ID":120120,"DIS_CODE":0,"TOWNNAME":"南區","LI":"文華里","LIN":"16鄰","STREET":"金華路","SECT":"二段","MAREA":" ","LANE":"３４５巷","ALLEY":"２６弄","HOUSE_NO":"３１號","E_COORD97":167047.01999999999,"N_COORD97":2543058.0099999998,"ADDRESS":"金華路二段３４５巷２６弄３１號","OBJECTID":120120},"geometry":{"x":167047.02000000048,"y":2543058.0100000016}},{"attributes":{"ID":120121,"DIS_CODE":0,"TOWNNAME":"南區","LI":"文華里","LIN":"16鄰","STREET":"金華路","SECT":"二段","MAREA":" ","LANE":"３４５巷","ALLEY":"２６弄","HOUSE_NO":"３３號","E_COORD97":167047.64999999999,"N_COORD97":2543063.3100000001,"ADDRESS":"金華路二段３４５巷２６弄３３號","OBJECTID":120121},"geometry":{"x":167047.65000000037,"y":2543063.3100000042}},{"attributes":{"ID":120122,"DIS_CODE":0,"TOWNNAME":"南區","LI":"文華里","LIN":"16鄰","STREET":"金華路","SECT":"二段","MAREA":" ","LANE":"３４５巷","ALLEY":"２６弄","HOUSE_NO":"３５號","E_COORD97":167047.56,"N_COORD97":2543067.6099999999,"ADDRESS":"金華路二段３４５巷２６弄３５號","OBJECTID":120122},"geometry":{"x":167047.55999999959,"y":2543067.6100000013}},{"attributes":{"ID":120123,"DIS_CODE":0,"TOWNNAME":"南區","LI":"文華里","LIN":"16鄰","STREET":"金華路","SECT":"二段","MAREA":" ","LANE":"３４５巷","ALLEY":"２６弄","HOUSE_NO":"３７號","E_COORD97":167047.82999999999,"N_COORD97":2543071.4700000002,"ADDRESS":"金華路二段３４５巷２６弄３７號","OBJECTID":120123},"geometry":{"x":167047.83000000007,"y":2543071.4700000007}},{"attributes":{"ID":120124,"DIS_CODE":0,"TOWNNAME":"南區","LI":"文華里","LIN":"16鄰","STREET":"金華路","SECT":"二段","MAREA":" ","LANE":"３４５巷","ALLEY":"４４弄","HOUSE_NO":"２７號","E_COORD97":167006.95999999999,"N_COORD97":2543061.96,"ADDRESS":"金華路二段３４５巷４４弄２７號","OBJECTID":120124},"geometry":{"x":167006.96000000089,"y":2543061.9600000009}},{"attributes":{"ID":120125,"DIS_CODE":0,"TOWNNAME":"南區","LI":"文華里","LIN":"16鄰","STREET":"金華路","SECT":"二段","MAREA":" ","LANE":"３４５巷","ALLEY":"４４弄","HOUSE_NO":"２８號","E_COORD97":167019.09,"N_COORD97":2543061.8700000001,"ADDRESS":"金華路二段３４５巷４４弄２８號","OBJECTID":120125},"geometry":{"x":167019.09000000171,"y":2543061.870000001}},{"attributes":{"ID":120126,"DIS_CODE":0,"TOWNNAME":"南區","LI":"文華里","LIN":"16鄰","STREET":"金華路","SECT":"二段","MAREA":" ","LANE":"３４５巷","ALLEY":"４４弄","HOUSE_NO":"２９號","E_COORD97":167007.23000000001,"N_COORD97":2543065.6400000001,"ADDRESS":"金華路二段３４５巷４４弄２９號","OBJECTID":120126},"geometry":{"x":167007.23000000138,"y":2543065.6400000025}},{"attributes":{"ID":120127,"DIS_CODE":0,"TOWNNAME":"南區","LI":"文華里","LIN":"16鄰","STREET":"金華路","SECT":"二段","MAREA":" ","LANE":"３４５巷","ALLEY":"４４弄","HOUSE_NO":"３０號","E_COORD97":167019.53,"N_COORD97":2543065.5499999998,"ADDRESS":"金華路二段３４５巷４４弄３０號","OBJECTID":120127},"geometry":{"x":167019.53000000026,"y":2543065.5500000026}},{"attributes":{"ID":120128,"DIS_CODE":0,"TOWNNAME":"南區","LI":"文華里","LIN":"16鄰","STREET":"金華路","SECT":"二段","MAREA":" ","LANE":"３４５巷","ALLEY":"４４弄","HOUSE_NO":"３１號","E_COORD97":167007.85999999999,"N_COORD97":2543070.6699999999,"ADDRESS":"金華路二段３４５巷４４弄３１號","OBJECTID":120128},"geometry":{"x":167007.86000000127,"y":2543070.6700000018}},{"attributes":{"ID":120129,"DIS_CODE":0,"TOWNNAME":"南區","LI":"文華里","LIN":"16鄰","STREET":"金華路","SECT":"二段","MAREA":" ","LANE":"３４５巷","ALLEY":"４４弄","HOUSE_NO":"３２號","E_COORD97":167019.53,"N_COORD97":2543070.04,"ADDRESS":"金華路二段３４５巷４４弄３２號","OBJECTID":120129},"geometry":{"x":167019.53000000026,"y":2543070.0399999991}},{"attributes":{"ID":120130,"DIS_CODE":0,"TOWNNAME":"南區","LI":"文華里","LIN":"16鄰","STREET":"金華路","SECT":"二段","MAREA":" ","LANE":"３４５巷","ALLEY":"４４弄","HOUSE_NO":"３３號","E_COORD97":167008.04000000001,"N_COORD97":2543074.4300000002,"ADDRESS":"金華路二段３４５巷４４弄３３號","OBJECTID":120130},"geometry":{"x":167008.04000000097,"y":2543074.4299999997}},{"attributes":{"ID":120131,"DIS_CODE":0,"TOWNNAME":"安南區","LI":"鳳凰里","LIN":"4鄰","STREET":"安中路","SECT":"一段","MAREA":" ","LANE":" ","ALLEY":" ","HOUSE_NO":"７１０號","E_COORD97":167573.01000000001,"N_COORD97":2549290.5800000001,"ADDRESS":"安中路一段７１０號","OBJECTID":120131},"geometry":{"x":167573.01000000071,"y":2549290.5800000019}},{"attributes":{"ID":120132,"DIS_CODE":0,"TOWNNAME":"東區","LI":"龍山里","LIN":"18鄰","STREET":"東門路","SECT":"一段","MAREA":" ","LANE":" ","ALLEY":" ","HOUSE_NO":"２８８號","E_COORD97":169694.04000000001,"N_COORD97":2543062.54,"ADDRESS":"東門路一段２８８號","OBJECTID":120132},"geometry":{"x":169694.04000000004,"y":2543062.5399999991}},{"attributes":{"ID":120133,"DIS_CODE":0,"TOWNNAME":"安南區","LI":"溪心里","LIN":"4鄰","STREET":"安吉路","SECT":"二段","MAREA":" ","LANE":" ","ALLEY":" ","HOUSE_NO":"１之５號","E_COORD97":167026.76000000001,"N_COORD97":2550697.8700000001,"ADDRESS":"安吉路二段１之５號","OBJECTID":120133},"geometry":{"x":167026.76000000071,"y":2550697.870000001}},{"attributes":{"ID":120134,"DIS_CODE":0,"TOWNNAME":"安南區","LI":" ","LIN":" ","STREET":"大安街","SECT":" ","MAREA":" ","LANE":" ","ALLEY":" ","HOUSE_NO":"６２０－１０號","E_COORD97":167190.94,"N_COORD97":2548885.9900000002,"ADDRESS":"大安街６２０－１０號","OBJECTID":120134},"geometry":{"x":167190.94000000134,"y":2548885.9900000002}},{"attributes":{"ID":120135,"DIS_CODE":0,"TOWNNAME":"安南區","LI":"溪心里","LIN":"13鄰","STREET":"樂安一街","SECT":" ","MAREA":" ","LANE":" ","ALLEY":" ","HOUSE_NO":"１７０號","E_COORD97":165866.54000000001,"N_COORD97":2549791.6800000002,"ADDRESS":"樂安一街１７０號","OBJECTID":120135},"geometry":{"x":165866.54000000004,"y":2549791.6799999997}},{"attributes":{"ID":120136,"DIS_CODE":0,"TOWNNAME":"仁德區","LI":"上崙里","LIN":"20鄰","STREET":"上崙街","SECT":" ","MAREA":" ","LANE":" ","ALLEY":" ","HOUSE_NO":"２７號","E_COORD97":173783.32000000001,"N_COORD97":2538096.4900000002,"ADDRESS":"上崙街２７號","OBJECTID":120136},"geometry":{"x":173783.3200000003,"y":2538096.4900000002}},{"attributes":{"ID":120137,"DIS_CODE":0,"TOWNNAME":"安南區","LI":"頂安里","LIN":"13鄰","STREET":"安中路","SECT":"一段","MAREA":" ","LANE":" ","ALLEY":" ","HOUSE_NO":"４０７號","E_COORD97":168308.32000000001,"N_COORD97":2548780.8199999998,"ADDRESS":"安中路一段４０７號","OBJECTID":120137},"geometry":{"x":168308.32000000123,"y":2548780.8200000003}},{"attributes":{"ID":120138,"DIS_CODE":0,"TOWNNAME":"安南區","LI":"城中里","LIN":"7鄰","STREET":"城安西街","SECT":" ","MAREA":" ","LANE":" ","ALLEY":" ","HOUSE_NO":"１６號","E_COORD97":160720.976092,"N_COORD97":2551537.3940499998,"ADDRESS":"城安西街１６號","OBJECTID":120138},"geometry":{"x":160720.97609200049,"y":2551537.3940450009}},{"attributes":{"ID":120139,"DIS_CODE":0,"TOWNNAME":"安南區","LI":" ","LIN":" ","STREET":"安和路","SECT":"一段","MAREA":" ","LANE":" ","ALLEY":" ","HOUSE_NO":"３３９之１號","E_COORD97":169277.20999999999,"N_COORD97":2548212.8999999999,"ADDRESS":"安和路一段３３９之１號","OBJECTID":120139},"geometry":{"x":169277.21000000089,"y":2548212.9000000022}},{"attributes":{"ID":120140,"DIS_CODE":0,"TOWNNAME":"安南區","LI":" ","LIN":" ","STREET":"安通路","SECT":"五段","MAREA":" ","LANE":" ","ALLEY":" ","HOUSE_NO":"８１之８９號","E_COORD97":168330.69,"N_COORD97":2547811.6200000001,"ADDRESS":"安通路五段８１之８９號","OBJECTID":120140},"geometry":{"x":168330.69000000041,"y":2547811.6200000048}},{"attributes":{"ID":120141,"DIS_CODE":0,"TOWNNAME":"安南區","LI":" ","LIN":" ","STREET":"安通路","SECT":"五段","MAREA":" ","LANE":" ","ALLEY":" ","HOUSE_NO":"８１之９０號","E_COORD97":168326.88,"N_COORD97":2547810.98,"ADDRESS":"安通路五段８１之９０號","OBJECTID":120141},"geometry":{"x":168326.87999999989,"y":2547810.9800000004}},{"attributes":{"ID":120142,"DIS_CODE":0,"TOWNNAME":"南區","LI":"文華里","LIN":"16鄰","STREET":"金華路","SECT":"二段","MAREA":" ","LANE":"３４５巷","ALLEY":"４４弄","HOUSE_NO":"３４號","E_COORD97":167019.62,"N_COORD97":2543073.6299999999,"ADDRESS":"金華路二段３４５巷４４弄３４號","OBJECTID":120142},"geometry":{"x":167019.62000000104,"y":2543073.6300000008}},{"attributes":{"ID":120143,"DIS_CODE":0,"TOWNNAME":"永康區","LI":"永康里","LIN":"31鄰","STREET":"聖龍街","SECT":" ","MAREA":" ","LANE":" ","ALLEY":" ","HOUSE_NO":"１９６號","E_COORD97":174246.95999999999,"N_COORD97":2547844.2799999998,"ADDRESS":"聖龍街１９６號","OBJECTID":120143},"geometry":{"x":174246.96000000089,"y":2547844.2800000012}},{"attributes":{"ID":120144,"DIS_CODE":0,"TOWNNAME":"安平區","LI":"平通里","LIN":"31鄰","STREET":"育平路","SECT":" ","MAREA":" ","LANE":" ","ALLEY":" ","HOUSE_NO":"３８５號","E_COORD97":164646.91,"N_COORD97":2543995.7400000002,"ADDRESS":"育平路３８５號","OBJECTID":120144},"geometry":{"x":164646.91000000015,"y":2543995.7400000039}},{"attributes":{"ID":120145,"DIS_CODE":0,"TOWNNAME":"永康區","LI":"安康里","LIN":"16鄰","STREET":"中華路","SECT":" ","MAREA":" ","LANE":"６１９巷","ALLEY":"２２弄","HOUSE_NO":"３５號","E_COORD97":170940.10000000001,"N_COORD97":2546176.2400000002,"ADDRESS":"中華路６１９巷２２弄３５號","OBJECTID":120145},"geometry":{"x":170940.10000000056,"y":2546176.2400000021}},{"attributes":{"ID":120146,"DIS_CODE":0,"TOWNNAME":"永康區","LI":"安康里","LIN":"16鄰","STREET":"中華路","SECT":" ","MAREA":" ","LANE":"６１９巷","ALLEY":"８８弄","HOUSE_NO":"４３號","E_COORD97":170853.01999999999,"N_COORD97":2546078.4900000002,"ADDRESS":"中華路６１９巷８８弄４３號","OBJECTID":120146},"geometry":{"x":170853.01999999955,"y":2546078.4900000002}},{"attributes":{"ID":120147,"DIS_CODE":0,"TOWNNAME":"安平區","LI":"平通里","LIN":"31鄰","STREET":"育平路","SECT":" ","MAREA":" ","LANE":" ","ALLEY":" ","HOUSE_NO":"３８３號","E_COORD97":164646.10999999999,"N_COORD97":2543990,"ADDRESS":"育平路３８３號","OBJECTID":120147},"geometry":{"x":164646.1099999994,"y":2543990}},{"attributes":{"ID":120148,"DIS_CODE":0,"TOWNNAME":"永康區","LI":"安康里","LIN":"16鄰","STREET":"中華路","SECT":" ","MAREA":" ","LANE":"６１９巷","ALLEY":"２２弄","HOUSE_NO":"２９號","E_COORD97":170946.57000000001,"N_COORD97":2546165.4900000002,"ADDRESS":"中華路６１９巷２２弄２９號","OBJECTID":120148},"geometry":{"x":170946.57000000123,"y":2546165.4900000021}},{"attributes":{"ID":120149,"DIS_CODE":0,"TOWNNAME":"麻豆區","LI":"大山里","LIN":"6鄰","STREET":" ","SECT":" ","MAREA":"大山\u25A0","LANE":" ","ALLEY":" ","HOUSE_NO":"６５號之１９","E_COORD97":170159.01000000001,"N_COORD97":2566536.8199999998,"ADDRESS":"大山\u25A0６５號之１９","OBJECTID":120149},"geometry":{"x":170159.01000000164,"y":2566536.8200000003}},{"attributes":{"ID":120150,"DIS_CODE":0,"TOWNNAME":"永康區","LI":"安康里","LIN":"16鄰","STREET":"中華路","SECT":" ","MAREA":" ","LANE":"６１９巷","ALLEY":"８８弄","HOUSE_NO":"５３號","E_COORD97":170855.54000000001,"N_COORD97":2546092.7400000002,"ADDRESS":"中華路６１９巷８８弄５３號","OBJECTID":120150},"geometry":{"x":170855.54000000004,"y":2546092.7400000002}},{"attributes":{"ID":120151,"DIS_CODE":0,"TOWNNAME":"永康區","LI":"安康里","LIN":"16鄰","STREET":"中華路","SECT":" ","MAREA":" ","LANE":"６１９巷","ALLEY":"８８弄","HOUSE_NO":"３５號","E_COORD97":170840.89999999999,"N_COORD97":2546063.9900000002,"ADDRESS":"中華路６１９巷８８弄３５號","OBJECTID":120151},"geometry":{"x":170840.9000000013,"y":2546063.9900000002}},{"attributes":{"ID":120152,"DIS_CODE":0,"TOWNNAME":"永康區","LI":"安康里","LIN":"16鄰","STREET":"中華路","SECT":" ","MAREA":" ","LANE":"６１９巷","ALLEY":"８８弄","HOUSE_NO":"４５號","E_COORD97":170850.51999999999,"N_COORD97":2546082.9900000002,"ADDRESS":"中華路６１９巷８８弄４５號","OBJECTID":120152},"geometry":{"x":170850.52000000142,"y":2546082.9900000021}},{"attributes":{"ID":120153,"DIS_CODE":0,"TOWNNAME":"麻豆區","LI":"大山里","LIN":"6鄰","STREET":" ","SECT":" ","MAREA":"大山\u25A0","LANE":" ","ALLEY":" ","HOUSE_NO":"６５號之１","E_COORD97":170125.32000000001,"N_COORD97":2566250.9399999999,"ADDRESS":"大山\u25A0６５號之１","OBJECTID":120153},"geometry":{"x":170125.32000000216,"y":2566250.9399999995}},{"attributes":{"ID":120154,"DIS_CODE":0,"TOWNNAME":"麻豆區","LI":"大山里","LIN":"6鄰","STREET":" ","SECT":" ","MAREA":"大山\u25A0","LANE":" ","ALLEY":" ","HOUSE_NO":"６５號之３","E_COORD97":170144.62,"N_COORD97":2566256.9700000002,"ADDRESS":"大山\u25A0６５號之３","OBJECTID":120154},"geometry":{"x":170144.62000000011,"y":2566256.9700000025}},{"attributes":{"ID":120155,"DIS_CODE":0,"TOWNNAME":"永康區","LI":"安康里","LIN":"16鄰","STREET":"中華路","SECT":" ","MAREA":" ","LANE":"６１９巷","ALLEY":"８８弄","HOUSE_NO":"５９號","E_COORD97":170864.25,"N_COORD97":2546077.9900000002,"ADDRESS":"中華路６１９巷８８弄５９號","OBJECTID":120155},"geometry":{"x":170864.25,"y":2546077.9900000002}},{"attributes":{"ID":120156,"DIS_CODE":0,"TOWNNAME":"麻豆區","LI":"大山里","LIN":"6鄰","STREET":" ","SECT":" ","MAREA":"大山\u25A0","LANE":" ","ALLEY":" ","HOUSE_NO":"６５號之５","E_COORD97":170129.35999999999,"N_COORD97":2566363.8500000001,"ADDRESS":"大山\u25A0６５號之５","OBJECTID":120156},"geometry":{"x":170129.36000000034,"y":2566363.8499999978}},{"attributes":{"ID":120157,"DIS_CODE":0,"TOWNNAME":"麻豆區","LI":"大山里","LIN":"6鄰","STREET":" ","SECT":" ","MAREA":"大山\u25A0","LANE":" ","ALLEY":" ","HOUSE_NO":"６６號","E_COORD97":170129.51999999999,"N_COORD97":2566197.4199999999,"ADDRESS":"大山\u25A0６６號","OBJECTID":120157},"geometry":{"x":170129.51999999955,"y":2566197.4199999999}},{"attributes":{"ID":120158,"DIS_CODE":0,"TOWNNAME":"麻豆區","LI":"大山里","LIN":"6鄰","STREET":" ","SECT":" ","MAREA":"大山\u25A0","LANE":" ","ALLEY":" ","HOUSE_NO":"６７號之１０","E_COORD97":169699.79000000001,"N_COORD97":2566056.2599999998,"ADDRESS":"大山\u25A0６７號之１０","OBJECTID":120158},"geometry":{"x":169699.7900000019,"y":2566056.2600000035}},{"attributes":{"ID":120159,"DIS_CODE":0,"TOWNNAME":"麻豆區","LI":"大山里","LIN":"6鄰","STREET":" ","SECT":" ","MAREA":"大山\u25A0","LANE":" ","ALLEY":" ","HOUSE_NO":"６７號之１１","E_COORD97":169676.10000000001,"N_COORD97":2566065.04,"ADDRESS":"大山\u25A0６７號之１１","OBJECTID":120159},"geometry":{"x":169676.09999999963,"y":2566065.040000001}},{"attributes":{"ID":120160,"DIS_CODE":0,"TOWNNAME":"麻豆區","LI":"大山里","LIN":"6鄰","STREET":" ","SECT":" ","MAREA":"大山\u25A0","LANE":" ","ALLEY":" ","HOUSE_NO":"６７號之１２","E_COORD97":169666.89000000001,"N_COORD97":2566049.77,"ADDRESS":"大山\u25A0６７號之１２","OBJECTID":120160},"geometry":{"x":169666.8900000006,"y":2566049.7700000014}},{"attributes":{"ID":120161,"DIS_CODE":0,"TOWNNAME":"麻豆區","LI":"大山里","LIN":"6鄰","STREET":" ","SECT":" ","MAREA":"大山\u25A0","LANE":" ","ALLEY":" ","HOUSE_NO":"６７號之１３","E_COORD97":169686.48999999999,"N_COORD97":2566039.0600000001,"ADDRESS":"大山\u25A0６７號之１３","OBJECTID":120161},"geometry":{"x":169686.49000000022,"y":2566039.0600000024}},{"attributes":{"ID":120162,"DIS_CODE":0,"TOWNNAME":"麻豆區","LI":"大山里","LIN":"6鄰","STREET":" ","SECT":" ","MAREA":"大山\u25A0","LANE":" ","ALLEY":" ","HOUSE_NO":"６７號之１６","E_COORD97":169683.39000000001,"N_COORD97":2565902.1699999999,"ADDRESS":"大山\u25A0６７號之１６","OBJECTID":120162},"geometry":{"x":169683.39000000153,"y":2565902.1700000018}},{"attributes":{"ID":120163,"DIS_CODE":0,"TOWNNAME":"麻豆區","LI":"大山里","LIN":"6鄰","STREET":" ","SECT":" ","MAREA":"大山\u25A0","LANE":" ","ALLEY":" ","HOUSE_NO":"６７號之１７","E_COORD97":169654.16,"N_COORD97":2566086.9500000002,"ADDRESS":"大山\u25A0６７號之１７","OBJECTID":120163},"geometry":{"x":169654.16000000015,"y":2566086.9499999993}},{"attributes":{"ID":120164,"DIS_CODE":0,"TOWNNAME":"麻豆區","LI":"大山里","LIN":"6鄰","STREET":" ","SECT":" ","MAREA":"大山\u25A0","LANE":" ","ALLEY":" ","HOUSE_NO":"６７號之１８","E_COORD97":169648.82999999999,"N_COORD97":2566194.6299999999,"ADDRESS":"大山\u25A0６７號之１８","OBJECTID":120164},"geometry":{"x":169648.83000000101,"y":2566194.629999999}},{"attributes":{"ID":120165,"DIS_CODE":0,"TOWNNAME":"麻豆區","LI":"大山里","LIN":"6鄰","STREET":" ","SECT":" ","MAREA":"大山\u25A0","LANE":" ","ALLEY":" ","HOUSE_NO":"６７號之２３","E_COORD97":169828.78,"N_COORD97":2566328.0800000001,"ADDRESS":"大山\u25A0６７號之２３","OBJECTID":120165},"geometry":{"x":169828.77999999933,"y":2566328.0800000001}},{"attributes":{"ID":120166,"DIS_CODE":0,"TOWNNAME":"麻豆區","LI":"大山里","LIN":"6鄰","STREET":" ","SECT":" ","MAREA":"大山\u25A0","LANE":" ","ALLEY":" ","HOUSE_NO":"６７號之２５","E_COORD97":169651.69,"N_COORD97":2566113.1600000001,"ADDRESS":"大山\u25A0６７號之２５","OBJECTID":120166},"geometry":{"x":169651.69000000227,"y":2566113.160000002}},{"attributes":{"ID":120167,"DIS_CODE":0,"TOWNNAME":"麻豆區","LI":"大山里","LIN":"6鄰","STREET":" ","SECT":" ","MAREA":"大山\u25A0","LANE":" ","ALLEY":" ","HOUSE_NO":"６７號之３","E_COORD97":170098.95000000001,"N_COORD97":2566240.54,"ADDRESS":"大山\u25A0６７號之３","OBJECTID":120167},"geometry":{"x":170098.95000000205,"y":2566240.540000001}},{"attributes":{"ID":120168,"DIS_CODE":0,"TOWNNAME":"麻豆區","LI":"大山里","LIN":"6鄰","STREET":" ","SECT":" ","MAREA":"大山\u25A0","LANE":" ","ALLEY":" ","HOUSE_NO":"６７號之５","E_COORD97":170092.66,"N_COORD97":2566191.8300000001,"ADDRESS":"大山\u25A0６７號之５","OBJECTID":120168},"geometry":{"x":170092.66000000108,"y":2566191.8300000038}},{"attributes":{"ID":120169,"DIS_CODE":0,"TOWNNAME":"永康區","LI":"安康里","LIN":"16鄰","STREET":"中華路","SECT":" ","MAREA":" ","LANE":"６１９巷","ALLEY":"８８弄","HOUSE_NO":"５１號","E_COORD97":170852.95000000001,"N_COORD97":2546097.25,"ADDRESS":"中華路６１９巷８８弄５１號","OBJECTID":120169},"geometry":{"x":170852.95000000019,"y":2546097.2499999981}},{"attributes":{"ID":120170,"DIS_CODE":0,"TOWNNAME":"麻豆區","LI":"大山里","LIN":"6鄰","STREET":" ","SECT":" ","MAREA":"大山\u25A0","LANE":" ","ALLEY":" ","HOUSE_NO":"６７號之６","E_COORD97":170107.60999999999,"N_COORD97":2566211.1899999999,"ADDRESS":"大山\u25A0６７號之６","OBJECTID":120170},"geometry":{"x":170107.61000000034,"y":2566211.1899999995}},{"attributes":{"ID":120171,"DIS_CODE":0,"TOWNNAME":"麻豆區","LI":"大山里","LIN":"6鄰","STREET":" ","SECT":" ","MAREA":"大山\u25A0","LANE":" ","ALLEY":" ","HOUSE_NO":"５８號","E_COORD97":170159.34,"N_COORD97":2566211.6800000002,"ADDRESS":"大山\u25A0５８號","OBJECTID":120171},"geometry":{"x":170159.34000000078,"y":2566211.6799999997}},{"attributes":{"ID":120172,"DIS_CODE":0,"TOWNNAME":"麻豆區","LI":"大山里","LIN":"6鄰","STREET":" ","SECT":" ","MAREA":"大山\u25A0","LANE":" ","ALLEY":" ","HOUSE_NO":"６０號","E_COORD97":170139.39999999999,"N_COORD97":2566157.71,"ADDRESS":"大山\u25A0６０號","OBJECTID":120172},"geometry":{"x":170139.40000000037,"y":2566157.7100000028}},{"attributes":{"ID":120173,"DIS_CODE":0,"TOWNNAME":"麻豆區","LI":"大山里","LIN":"6鄰","STREET":" ","SECT":" ","MAREA":"大山\u25A0","LANE":" ","ALLEY":" ","HOUSE_NO":"６２號","E_COORD97":170157.37,"N_COORD97":2566182.3100000001,"ADDRESS":"大山\u25A0６２號","OBJECTID":120173},"geometry":{"x":170157.37000000104,"y":2566182.3100000042}},{"attributes":{"ID":120174,"DIS_CODE":0,"TOWNNAME":"麻豆區","LI":"大山里","LIN":"6鄰","STREET":" ","SECT":" ","MAREA":"大山\u25A0","LANE":" ","ALLEY":" ","HOUSE_NO":"６３號","E_COORD97":170138.84,"N_COORD97":2566183.8799999999,"ADDRESS":"大山\u25A0６３號","OBJECTID":120174},"geometry":{"x":170138.84000000078,"y":2566183.8800000008}},{"attributes":{"ID":120175,"DIS_CODE":0,"TOWNNAME":"麻豆區","LI":"大山里","LIN":"6鄰","STREET":" ","SECT":" ","MAREA":"大山\u25A0","LANE":" ","ALLEY":" ","HOUSE_NO":"６４號","E_COORD97":170159.23000000001,"N_COORD97":2566230.6499999999,"ADDRESS":"大山\u25A0６４號","OBJECTID":120175},"geometry":{"x":170159.23000000045,"y":2566230.6500000041}},{"attributes":{"ID":120176,"DIS_CODE":0,"TOWNNAME":"麻豆區","LI":"大山里","LIN":"3鄰","STREET":" ","SECT":" ","MAREA":"大山\u25A0","LANE":" ","ALLEY":" ","HOUSE_NO":"２５號之１","E_COORD97":170158.14999999999,"N_COORD97":2566004.8799999999,"ADDRESS":"大山\u25A0２５號之１","OBJECTID":120176},"geometry":{"x":170158.15000000037,"y":2566004.8800000008}},{"attributes":{"ID":120177,"DIS_CODE":0,"TOWNNAME":"麻豆區","LI":"大山里","LIN":"3鄰","STREET":" ","SECT":" ","MAREA":"大山\u25A0","LANE":" ","ALLEY":" ","HOUSE_NO":"２５號之２","E_COORD97":170157.47,"N_COORD97":2566009.8599999999,"ADDRESS":"大山\u25A0２５號之２","OBJECTID":120177},"geometry":{"x":170157.46999999974,"y":2566009.8599999994}},{"attributes":{"ID":120178,"DIS_CODE":0,"TOWNNAME":"北區","LI":"和順里","LIN":"31鄰","STREET":"臨安路","SECT":"二段","MAREA":" ","LANE":" ","ALLEY":" ","HOUSE_NO":"１７９號","E_COORD97":167866.03,"N_COORD97":2544913.8300000001,"ADDRESS":"臨安路二段１７９號","OBJECTID":120178},"geometry":{"x":167866.03000000119,"y":2544913.8300000038}},{"attributes":{"ID":120179,"DIS_CODE":0,"TOWNNAME":"永康區","LI":"安康里","LIN":"16鄰","STREET":"中華路","SECT":" ","MAREA":" ","LANE":"６１９巷","ALLEY":"２２弄","HOUSE_NO":"２３號","E_COORD97":170954.14000000001,"N_COORD97":2546152.7400000002,"ADDRESS":"中華路６１９巷２２弄２３號","OBJECTID":120179},"geometry":{"x":170954.13999999966,"y":2546152.7400000021}},{"attributes":{"ID":120180,"DIS_CODE":0,"TOWNNAME":"麻豆區","LI":"大山里","LIN":"3鄰","STREET":" ","SECT":" ","MAREA":"大山\u25A0","LANE":" ","ALLEY":" ","HOUSE_NO":"２５號之７","E_COORD97":170154.89000000001,"N_COORD97":2566042.5800000001,"ADDRESS":"大山\u25A0２５號之７","OBJECTID":120180},"geometry":{"x":170154.8900000006,"y":2566042.5800000019}},{"attributes":{"ID":120181,"DIS_CODE":0,"TOWNNAME":"永康區","LI":"安康里","LIN":"16鄰","STREET":"中華路","SECT":" ","MAREA":" ","LANE":"６１９巷","ALLEY":"８８弄","HOUSE_NO":"５５號","E_COORD97":170858.48999999999,"N_COORD97":2546087.4900000002,"ADDRESS":"中華路６１９巷８８弄５５號","OBJECTID":120181},"geometry":{"x":170858.49000000115,"y":2546087.4900000021}},{"attributes":{"ID":120182,"DIS_CODE":0,"TOWNNAME":"北區","LI":"和順里","LIN":"31鄰","STREET":"臨安路","SECT":"二段","MAREA":" ","LANE":" ","ALLEY":" ","HOUSE_NO":"１８１號","E_COORD97":167869.64000000001,"N_COORD97":2544915.3700000001,"ADDRESS":"臨安路二段１８１號","OBJECTID":120182},"geometry":{"x":167869.64000000153,"y":2544915.3700000029}},{"attributes":{"ID":120183,"DIS_CODE":0,"TOWNNAME":"永康區","LI":"安康里","LIN":"16鄰","STREET":"中華路","SECT":" ","MAREA":" ","LANE":"６１９巷","ALLEY":"８８弄","HOUSE_NO":"５７號","E_COORD97":170861.23999999999,"N_COORD97":2546082.9900000002,"ADDRESS":"中華路６１９巷８８弄５７號","OBJECTID":120183},"geometry":{"x":170861.24000000022,"y":2546082.9900000021}},{"attributes":{"ID":120184,"DIS_CODE":0,"TOWNNAME":"永康區","LI":"甲頂里","LIN":"16鄰","STREET":"中正南路","SECT":" ","MAREA":" ","LANE":"５２巷","ALLEY":"２１弄","HOUSE_NO":"５號","E_COORD97":169852.79000000001,"N_COORD97":2546813.8799999999,"ADDRESS":"中正南路５２巷２１弄５號","OBJECTID":120184},"geometry":{"x":169852.79000000097,"y":2546813.879999999}},{"attributes":{"ID":120185,"DIS_CODE":0,"TOWNNAME":"麻豆區","LI":"大山里","LIN":"3鄰","STREET":" ","SECT":" ","MAREA":"大山\u25A0","LANE":" ","ALLEY":" ","HOUSE_NO":"２５號","E_COORD97":170172.48000000001,"N_COORD97":2566027.0099999998,"ADDRESS":"大山\u25A0２５號","OBJECTID":120185},"geometry":{"x":170172.48000000138,"y":2566027.0099999998}},{"attributes":{"ID":120186,"DIS_CODE":0,"TOWNNAME":"麻豆區","LI":"大山里","LIN":"3鄰","STREET":" ","SECT":" ","MAREA":"大山\u25A0","LANE":" ","ALLEY":" ","HOUSE_NO":"２７號","E_COORD97":170149.60000000001,"N_COORD97":2566079.8500000001,"ADDRESS":"大山\u25A0２７號","OBJECTID":120186},"geometry":{"x":170149.59999999963,"y":2566079.8500000015}},{"attributes":{"ID":120187,"DIS_CODE":0,"TOWNNAME":"麻豆區","LI":"大山里","LIN":"3鄰","STREET":" ","SECT":" ","MAREA":"大山\u25A0","LANE":" ","ALLEY":" ","HOUSE_NO":"２８號","E_COORD97":170151.82000000001,"N_COORD97":2566105.0299999998,"ADDRESS":"大山\u25A0２８號","OBJECTID":120187},"geometry":{"x":170151.8200000003,"y":2566105.0300000031}},{"attributes":{"ID":120188,"DIS_CODE":0,"TOWNNAME":"永康區","LI":"安康里","LIN":"16鄰","STREET":"中華路","SECT":" ","MAREA":" ","LANE":"６１９巷","ALLEY":"８８弄","HOUSE_NO":"４１號","E_COORD97":170855.87,"N_COORD97":2546073.4900000002,"ADDRESS":"中華路６１９巷８８弄４１號","OBJECTID":120188},"geometry":{"x":170855.87000000104,"y":2546073.4900000021}},{"attributes":{"ID":120189,"DIS_CODE":0,"TOWNNAME":"麻豆區","LI":"大山里","LIN":"3鄰","STREET":" ","SECT":" ","MAREA":"大山\u25A0","LANE":" ","ALLEY":" ","HOUSE_NO":"２９號","E_COORD97":170165.98999999999,"N_COORD97":2566102,"ADDRESS":"大山\u25A0２９號","OBJECTID":120189},"geometry":{"x":170165.99000000022,"y":2566102}},{"attributes":{"ID":120190,"DIS_CODE":0,"TOWNNAME":"北區","LI":"和順里","LIN":"31鄰","STREET":"臨安路","SECT":"二段","MAREA":" ","LANE":" ","ALLEY":" ","HOUSE_NO":"１８３號","E_COORD97":167874.04000000001,"N_COORD97":2544916.9500000002,"ADDRESS":"臨安路二段１８３號","OBJECTID":120190},"geometry":{"x":167874.0400000019,"y":2544916.9500000011}},{"attributes":{"ID":120191,"DIS_CODE":0,"TOWNNAME":"永康區","LI":"安康里","LIN":"16鄰","STREET":"中華路","SECT":" ","MAREA":" ","LANE":"６１９巷","ALLEY":"８８弄","HOUSE_NO":"４７號","E_COORD97":170847.39999999999,"N_COORD97":2546087.9900000002,"ADDRESS":"中華路６１９巷８８弄４７號","OBJECTID":120191},"geometry":{"x":170847.4000000013,"y":2546087.9900000002}},{"attributes":{"ID":120192,"DIS_CODE":0,"TOWNNAME":"北區","LI":"和順里","LIN":"31鄰","STREET":"臨安路","SECT":"二段","MAREA":" ","LANE":" ","ALLEY":" ","HOUSE_NO":"１８７號","E_COORD97":167882.70000000001,"N_COORD97":2544919.6200000001,"ADDRESS":"臨安路二段１８７號","OBJECTID":120192},"geometry":{"x":167882.70000000019,"y":2544919.6200000048}},{"attributes":{"ID":120193,"DIS_CODE":0,"TOWNNAME":"麻豆區","LI":"大山里","LIN":"3鄰","STREET":" ","SECT":" ","MAREA":"大山\u25A0","LANE":" ","ALLEY":" ","HOUSE_NO":"３０號","E_COORD97":170178.42000000001,"N_COORD97":2566104.3500000001,"ADDRESS":"大山\u25A0３０號","OBJECTID":120193},"geometry":{"x":170178.41999999899,"y":2566104.3500000015}},{"attributes":{"ID":120194,"DIS_CODE":0,"TOWNNAME":"北區","LI":"和順里","LIN":"31鄰","STREET":"臨安路","SECT":"二段","MAREA":" ","LANE":" ","ALLEY":" ","HOUSE_NO":"１８９號","E_COORD97":167887.28,"N_COORD97":2544921.0899999999,"ADDRESS":"臨安路二段１８９號","OBJECTID":120194},"geometry":{"x":167887.28000000026,"y":2544921.0899999999}},{"attributes":{"ID":120195,"DIS_CODE":0,"TOWNNAME":"麻豆區","LI":"大山里","LIN":"3鄰","STREET":" ","SECT":" ","MAREA":"大山\u25A0","LANE":" ","ALLEY":" ","HOUSE_NO":"３１號","E_COORD97":170194.39000000001,"N_COORD97":2566069.6600000001,"ADDRESS":"大山\u25A0３１號","OBJECTID":120195},"geometry":{"x":170194.3900000006,"y":2566069.6600000001}},{"attributes":{"ID":120196,"DIS_CODE":0,"TOWNNAME":"北區","LI":"和順里","LIN":"31鄰","STREET":"臨安路","SECT":"二段","MAREA":" ","LANE":" ","ALLEY":" ","HOUSE_NO":"１９１號","E_COORD97":167891.56,"N_COORD97":2544922.23,"ADDRESS":"臨安路二段１９１號","OBJECTID":120196},"geometry":{"x":167891.55999999959,"y":2544922.2300000023}},{"attributes":{"ID":120197,"DIS_CODE":0,"TOWNNAME":"麻豆區","LI":"大山里","LIN":"3鄰","STREET":" ","SECT":" ","MAREA":"大山\u25A0","LANE":" ","ALLEY":" ","HOUSE_NO":"３２號","E_COORD97":170195.01000000001,"N_COORD97":2566048.79,"ADDRESS":"大山\u25A0３２號","OBJECTID":120197},"geometry":{"x":170195.01000000071,"y":2566048.7900000028}},{"attributes":{"ID":120198,"DIS_CODE":0,"TOWNNAME":"麻豆區","LI":"大山里","LIN":"3鄰","STREET":" ","SECT":" ","MAREA":"大山\u25A0","LANE":" ","ALLEY":" ","HOUSE_NO":"３３號","E_COORD97":170233.39999999999,"N_COORD97":2566012.6699999999,"ADDRESS":"大山\u25A0３３號","OBJECTID":120198},"geometry":{"x":170233.40000000224,"y":2566012.6699999999}},{"attributes":{"ID":120199,"DIS_CODE":0,"TOWNNAME":"麻豆區","LI":"大山里","LIN":"3鄰","STREET":" ","SECT":" ","MAREA":"大山\u25A0","LANE":" ","ALLEY":" ","HOUSE_NO":"３４號","E_COORD97":170223.64999999999,"N_COORD97":2566041.5099999998,"ADDRESS":"大山\u25A0３４號","OBJECTID":120199},"geometry":{"x":170223.6500000013,"y":2566041.5100000016}},{"attributes":{"ID":120200,"DIS_CODE":0,"TOWNNAME":"麻豆區","LI":"大山里","LIN":"3鄰","STREET":" ","SECT":" ","MAREA":"大山\u25A0","LANE":" ","ALLEY":" ","HOUSE_NO":"３５號","E_COORD97":170216.10000000001,"N_COORD97":2566068.8399999999,"ADDRESS":"大山\u25A0３５號","OBJECTID":120200},"geometry":{"x":170216.10000000056,"y":2566068.8399999999}}]}