{"displayFieldName":"TOWNNAME","fieldAliases":{"ID":"ID","DIS_CODE":"DIS_CODE","TOWNNAME":"TOWNNAME","LI":"LI","LIN":"LIN","STREET":"STREET","SECT":"SECT","MAREA":"MAREA","LANE":"LANE","ALLEY":"ALLEY","HOUSE_NO":"HOUSE_NO","E_COORD97":"E_COORD97","N_COORD97":"N_COORD97","ADDRESS":"ADDRESS","OBJECTID":"OBJECTID"},"geometryType":"esriGeometryPoint","spatialReference":{"wkid":102443,"latestWkid":3826},"fields":[{"name":"ID","type":"esriFieldTypeDouble","alias":"ID"},{"name":"DIS_CODE","type":"esriFieldTypeInteger","alias":"DIS_CODE"},{"name":"TOWNNAME","type":"esriFieldTypeString","alias":"TOWNNAME","length":8},{"name":"LI","type":"esriFieldTypeString","alias":"LI","length":8},{"name":"LIN","type":"esriFieldTypeString","alias":"LIN","length":12},{"name":"STREET","type":"esriFieldTypeString","alias":"STREET","length":20},{"name":"SECT","type":"esriFieldTypeString","alias":"SECT","length":8},{"name":"MAREA","type":"esriFieldTypeString","alias":"MAREA","length":12},{"name":"LANE","type":"esriFieldTypeString","alias":"LANE","length":10},{"name":"ALLEY","type":"esriFieldTypeString","alias":"ALLEY","length":10},{"name":"HOUSE_NO","type":"esriFieldTypeString","alias":"HOUSE_NO","length":20},{"name":"E_COORD97","type":"esriFieldTypeDouble","alias":"E_COORD97"},{"name":"N_COORD97","type":"esriFieldTypeDouble","alias":"N_COORD97"},{"name":"ADDRESS","type":"esriFieldTypeString","alias":"ADDRESS","length":50},{"name":"OBJECTID","type":"esriFieldTypeOID","alias":"OBJECTID"}],"features":[{"attributes":{"ID":140601,"DIS_CODE":0,"TOWNNAME":"南化區","LI":"玉山里","LIN":" ","STREET":" ","SECT":" ","MAREA":"玉山","LANE":" ","ALLEY":" ","HOUSE_NO":"２０之１９號","E_COORD97":200263.42000000001,"N_COORD97":2552055.7999999998,"ADDRESS":"玉山２０之１９號","OBJECTID":140601},"geometry":{"x":200263.42000000086,"y":2552055.8000000026}},{"attributes":{"ID":140602,"DIS_CODE":0,"TOWNNAME":"南化區","LI":"玉山里","LIN":" ","STREET":" ","SECT":" ","MAREA":"玉山","LANE":" ","ALLEY":" ","HOUSE_NO":"２０之８號","E_COORD97":200309.07000000001,"N_COORD97":2552061.7999999998,"ADDRESS":"玉山２０之８號","OBJECTID":140602},"geometry":{"x":200309.0700000003,"y":2552061.8000000045}},{"attributes":{"ID":140603,"DIS_CODE":0,"TOWNNAME":"南化區","LI":"北寮里","LIN":" ","STREET":" ","SECT":" ","MAREA":"北寮","LANE":" ","ALLEY":" ","HOUSE_NO":"１０９之１０號","E_COORD97":197932.48999999999,"N_COORD97":2553000.7999999998,"ADDRESS":"北寮１０９之１０號","OBJECTID":140603},"geometry":{"x":197932.49000000115,"y":2553000.8000000045}},{"attributes":{"ID":140604,"DIS_CODE":0,"TOWNNAME":"鹽水區","LI":"岸內里","LIN":"22鄰","STREET":"北門路","SECT":" ","MAREA":" ","LANE":"７巷","ALLEY":"２弄","HOUSE_NO":"１７號","E_COORD97":175220.23000000001,"N_COORD97":2580465.3199999998,"ADDRESS":"北門路７巷２弄１７號","OBJECTID":140604},"geometry":{"x":175220.23000000231,"y":2580465.3199999984}},{"attributes":{"ID":140605,"DIS_CODE":0,"TOWNNAME":"鹽水區","LI":"岸內里","LIN":"22鄰","STREET":"北門路","SECT":" ","MAREA":" ","LANE":"７巷","ALLEY":"２弄","HOUSE_NO":"１８號","E_COORD97":175241.72,"N_COORD97":2580466.1699999999,"ADDRESS":"北門路７巷２弄１８號","OBJECTID":140605},"geometry":{"x":175241.72000000067,"y":2580466.1700000037}},{"attributes":{"ID":140606,"DIS_CODE":0,"TOWNNAME":"鹽水區","LI":"岸內里","LIN":"22鄰","STREET":"北門路","SECT":" ","MAREA":" ","LANE":"７巷","ALLEY":"２弄","HOUSE_NO":"１９號","E_COORD97":175219.54999999999,"N_COORD97":2580470.0299999998,"ADDRESS":"北門路７巷２弄１９號","OBJECTID":140606},"geometry":{"x":175219.55000000075,"y":2580470.0300000031}},{"attributes":{"ID":140607,"DIS_CODE":0,"TOWNNAME":"鹽水區","LI":"岸內里","LIN":"22鄰","STREET":"北門路","SECT":" ","MAREA":" ","LANE":"７巷","ALLEY":"２弄","HOUSE_NO":"２０號","E_COORD97":175241.10000000001,"N_COORD97":2580470.8399999999,"ADDRESS":"北門路７巷２弄２０號","OBJECTID":140607},"geometry":{"x":175241.10000000056,"y":2580470.8399999999}},{"attributes":{"ID":140608,"DIS_CODE":0,"TOWNNAME":"南化區","LI":"北寮里","LIN":"7鄰","STREET":" ","SECT":" ","MAREA":"北寮","LANE":" ","ALLEY":" ","HOUSE_NO":"１１０之１９號","E_COORD97":198037.69,"N_COORD97":2552909.7999999998,"ADDRESS":"北寮１１０之１９號","OBJECTID":140608},"geometry":{"x":198037.69000000227,"y":2552909.8000000026}},{"attributes":{"ID":140609,"DIS_CODE":0,"TOWNNAME":"南化區","LI":"北寮里","LIN":"7鄰","STREET":" ","SECT":" ","MAREA":"北寮","LANE":" ","ALLEY":" ","HOUSE_NO":"１１０之７號","E_COORD97":197991.34,"N_COORD97":2552985.7999999998,"ADDRESS":"北寮１１０之７號","OBJECTID":140609},"geometry":{"x":197991.33999999985,"y":2552985.8000000007}},{"attributes":{"ID":140610,"DIS_CODE":0,"TOWNNAME":"南化區","LI":"北寮里","LIN":"7鄰","STREET":" ","SECT":" ","MAREA":"北寮","LANE":" ","ALLEY":" ","HOUSE_NO":"１０６之１號","E_COORD97":197893.23999999999,"N_COORD97":2553054.7999999998,"ADDRESS":"北寮１０６之１號","OBJECTID":140610},"geometry":{"x":197893.24000000115,"y":2553054.7999999989}},{"attributes":{"ID":140611,"DIS_CODE":0,"TOWNNAME":"南化區","LI":"北寮里","LIN":"7鄰","STREET":" ","SECT":" ","MAREA":"北寮","LANE":" ","ALLEY":" ","HOUSE_NO":"８９之１號","E_COORD97":197852.09,"N_COORD97":2553099.7999999998,"ADDRESS":"北寮８９之１號","OBJECTID":140611},"geometry":{"x":197852.08999999985,"y":2553099.8000000026}},{"attributes":{"ID":140612,"DIS_CODE":0,"TOWNNAME":"南化區","LI":"北寮里","LIN":"7鄰","STREET":" ","SECT":" ","MAREA":"北寮","LANE":" ","ALLEY":" ","HOUSE_NO":"１１０之２５號","E_COORD97":198067.29000000001,"N_COORD97":2552888.7999999998,"ADDRESS":"北寮１１０之２５號","OBJECTID":140612},"geometry":{"x":198067.29000000097,"y":2552888.8000000045}},{"attributes":{"ID":140613,"DIS_CODE":0,"TOWNNAME":"南化區","LI":"北寮里","LIN":"7鄰","STREET":" ","SECT":" ","MAREA":"北寮","LANE":" ","ALLEY":" ","HOUSE_NO":"１０９之５號","E_COORD97":197898.94,"N_COORD97":2553010.7999999998,"ADDRESS":"北寮１０９之５號","OBJECTID":140613},"geometry":{"x":197898.94000000134,"y":2553010.8000000045}},{"attributes":{"ID":140614,"DIS_CODE":0,"TOWNNAME":"南化區","LI":"玉山里","LIN":" ","STREET":" ","SECT":" ","MAREA":"玉山","LANE":" ","ALLEY":" ","HOUSE_NO":"２０之１２號","E_COORD97":200295.62,"N_COORD97":2552057.7999999998,"ADDRESS":"玉山２０之１２號","OBJECTID":140614},"geometry":{"x":200295.62000000011,"y":2552057.8000000007}},{"attributes":{"ID":140615,"DIS_CODE":0,"TOWNNAME":"南化區","LI":"玉山里","LIN":" ","STREET":" ","SECT":" ","MAREA":"玉山","LANE":" ","ALLEY":" ","HOUSE_NO":"２０之１４號","E_COORD97":200287.92000000001,"N_COORD97":2552056.7999999998,"ADDRESS":"玉山２０之１４號","OBJECTID":140615},"geometry":{"x":200287.91999999993,"y":2552056.8000000007}},{"attributes":{"ID":140616,"DIS_CODE":0,"TOWNNAME":"南化區","LI":"北寮里","LIN":"4鄰","STREET":" ","SECT":" ","MAREA":"北寮","LANE":" ","ALLEY":" ","HOUSE_NO":"５５之１號","E_COORD97":197611.59,"N_COORD97":2553187.7999999998,"ADDRESS":"北寮５５之１號","OBJECTID":140616},"geometry":{"x":197611.58999999985,"y":2553187.8000000026}},{"attributes":{"ID":140617,"DIS_CODE":0,"TOWNNAME":"南化區","LI":"北寮里","LIN":" ","STREET":" ","SECT":" ","MAREA":"北寮","LANE":" ","ALLEY":" ","HOUSE_NO":"１０８之１號","E_COORD97":197889.34,"N_COORD97":2553015.7999999998,"ADDRESS":"北寮１０８之１號","OBJECTID":140617},"geometry":{"x":197889.34000000078,"y":2553015.8000000026}},{"attributes":{"ID":140618,"DIS_CODE":0,"TOWNNAME":"南化區","LI":"北寮里","LIN":" ","STREET":" ","SECT":" ","MAREA":"北寮","LANE":" ","ALLEY":" ","HOUSE_NO":"６６之６號","E_COORD97":197744.19,"N_COORD97":2553191.7999999998,"ADDRESS":"北寮６６之６號","OBJECTID":140618},"geometry":{"x":197744.19000000041,"y":2553191.8000000026}},{"attributes":{"ID":140619,"DIS_CODE":0,"TOWNNAME":"南化區","LI":"東和里","LIN":" ","STREET":" ","SECT":" ","MAREA":"東和","LANE":" ","ALLEY":" ","HOUSE_NO":"３１號","E_COORD97":195816.17000000001,"N_COORD97":2545363.75,"ADDRESS":"東和３１號","OBJECTID":140619},"geometry":{"x":195816.16999999993,"y":2545363.75}},{"attributes":{"ID":140620,"DIS_CODE":0,"TOWNNAME":"南化區","LI":"東和里","LIN":" ","STREET":" ","SECT":" ","MAREA":"東和","LANE":" ","ALLEY":" ","HOUSE_NO":"４８號","E_COORD97":195818.37,"N_COORD97":2544851.75,"ADDRESS":"東和４８號","OBJECTID":140620},"geometry":{"x":195818.37000000011,"y":2544851.75}},{"attributes":{"ID":140621,"DIS_CODE":0,"TOWNNAME":"南化區","LI":"北寮里","LIN":" ","STREET":" ","SECT":" ","MAREA":"北寮","LANE":" ","ALLEY":" ","HOUSE_NO":"６６之１２號","E_COORD97":197765.94,"N_COORD97":2553172.79,"ADDRESS":"北寮６６之１２號","OBJECTID":140621},"geometry":{"x":197765.94000000041,"y":2553172.790000001}},{"attributes":{"ID":140622,"DIS_CODE":0,"TOWNNAME":"南化區","LI":"東和里","LIN":" ","STREET":" ","SECT":" ","MAREA":"東和","LANE":" ","ALLEY":" ","HOUSE_NO":"３９之１號","E_COORD97":195694.17000000001,"N_COORD97":2545190.7999999998,"ADDRESS":"東和３９之１號","OBJECTID":140622},"geometry":{"x":195694.16999999993,"y":2545190.8000000026}},{"attributes":{"ID":140623,"DIS_CODE":0,"TOWNNAME":"歸仁區","LI":"許厝里","LIN":"33鄰","STREET":"公園八街","SECT":" ","MAREA":" ","LANE":" ","ALLEY":" ","HOUSE_NO":"１４號","E_COORD97":177887.23000000001,"N_COORD97":2540514.8199999998,"ADDRESS":"公園八街１４號","OBJECTID":140623},"geometry":{"x":177887.23000000138,"y":2540514.8200000022}},{"attributes":{"ID":140624,"DIS_CODE":0,"TOWNNAME":"歸仁區","LI":"南保里","LIN":"33鄰","STREET":"中山路","SECT":"三段","MAREA":" ","LANE":" ","ALLEY":" ","HOUSE_NO":"２０號","E_COORD97":176916.51000000001,"N_COORD97":2540882.2799999998,"ADDRESS":"中山路三段２０號","OBJECTID":140624},"geometry":{"x":176916.51000000071,"y":2540882.2800000031}},{"attributes":{"ID":140625,"DIS_CODE":0,"TOWNNAME":"鹽水區","LI":"岸內里","LIN":"22鄰","STREET":"北門路","SECT":" ","MAREA":" ","LANE":"７巷","ALLEY":"２弄","HOUSE_NO":"２１號","E_COORD97":175218.76000000001,"N_COORD97":2580474.5800000001,"ADDRESS":"北門路７巷２弄２１號","OBJECTID":140625},"geometry":{"x":175218.75999999978,"y":2580474.5800000019}},{"attributes":{"ID":140626,"DIS_CODE":0,"TOWNNAME":"鹽水區","LI":"岸內里","LIN":"22鄰","STREET":"北門路","SECT":" ","MAREA":" ","LANE":"７巷","ALLEY":"２弄","HOUSE_NO":"２２號","E_COORD97":175240.48000000001,"N_COORD97":2580475.52,"ADDRESS":"北門路７巷２弄２２號","OBJECTID":140626},"geometry":{"x":175240.48000000231,"y":2580475.5199999996}},{"attributes":{"ID":140627,"DIS_CODE":0,"TOWNNAME":"南化區","LI":"北寮里","LIN":" ","STREET":" ","SECT":" ","MAREA":"北寮","LANE":" ","ALLEY":" ","HOUSE_NO":"１９８號","E_COORD97":197705.04000000001,"N_COORD97":2552627.75,"ADDRESS":"北寮１９８號","OBJECTID":140627},"geometry":{"x":197705.04000000097,"y":2552627.7500000019}},{"attributes":{"ID":140628,"DIS_CODE":0,"TOWNNAME":"南化區","LI":"小崙里","LIN":" ","STREET":" ","SECT":" ","MAREA":"小崙","LANE":" ","ALLEY":" ","HOUSE_NO":"１之３０號","E_COORD97":196858.87,"N_COORD97":2549504.7999999998,"ADDRESS":"小崙１之３０號","OBJECTID":140628},"geometry":{"x":196858.87000000011,"y":2549504.8000000007}},{"attributes":{"ID":140629,"DIS_CODE":0,"TOWNNAME":"鹽水區","LI":"岸內里","LIN":"22鄰","STREET":"北門路","SECT":" ","MAREA":" ","LANE":"７巷","ALLEY":"２弄","HOUSE_NO":"２３號","E_COORD97":175218.17000000001,"N_COORD97":2580478.8300000001,"ADDRESS":"北門路７巷２弄２３號","OBJECTID":140629},"geometry":{"x":175218.16999999899,"y":2580478.8300000038}},{"attributes":{"ID":140630,"DIS_CODE":0,"TOWNNAME":"鹽水區","LI":"岸內里","LIN":"22鄰","STREET":"北門路","SECT":" ","MAREA":" ","LANE":"７巷","ALLEY":"２弄","HOUSE_NO":"２４號","E_COORD97":175239.85000000001,"N_COORD97":2580480.1899999999,"ADDRESS":"北門路７巷２弄２４號","OBJECTID":140630},"geometry":{"x":175239.84999999963,"y":2580480.1900000013}},{"attributes":{"ID":140631,"DIS_CODE":0,"TOWNNAME":"南化區","LI":"南化里","LIN":" ","STREET":" ","SECT":" ","MAREA":"南化","LANE":" ","ALLEY":" ","HOUSE_NO":"２５７之４號","E_COORD97":196934.14000000001,"N_COORD97":2549347.7999999998,"ADDRESS":"南化２５７之４號","OBJECTID":140631},"geometry":{"x":196934.1400000006,"y":2549347.8000000007}},{"attributes":{"ID":140632,"DIS_CODE":0,"TOWNNAME":"鹽水區","LI":"岸內里","LIN":"22鄰","STREET":"北門路","SECT":" ","MAREA":" ","LANE":"７巷","ALLEY":"２弄","HOUSE_NO":"２５號","E_COORD97":175217.70999999999,"N_COORD97":2580483.7599999998,"ADDRESS":"北門路７巷２弄２５號","OBJECTID":140632},"geometry":{"x":175217.70999999996,"y":2580483.7600000016}},{"attributes":{"ID":140633,"DIS_CODE":0,"TOWNNAME":"鹽水區","LI":"岸內里","LIN":"22鄰","STREET":"北門路","SECT":" ","MAREA":" ","LANE":"７巷","ALLEY":"２弄","HOUSE_NO":"２６號","E_COORD97":175239.23000000001,"N_COORD97":2580484.8700000001,"ADDRESS":"北門路７巷２弄２６號","OBJECTID":140633},"geometry":{"x":175239.23000000138,"y":2580484.870000001}},{"attributes":{"ID":140634,"DIS_CODE":0,"TOWNNAME":"鹽水區","LI":"岸內里","LIN":"22鄰","STREET":"北門路","SECT":" ","MAREA":" ","LANE":"７巷","ALLEY":"２弄","HOUSE_NO":"３２號","E_COORD97":175273.79000000001,"N_COORD97":2580429.1699999999,"ADDRESS":"北門路７巷２弄３２號","OBJECTID":140634},"geometry":{"x":175273.79000000097,"y":2580429.1700000037}},{"attributes":{"ID":140635,"DIS_CODE":0,"TOWNNAME":"鹽水區","LI":"岸內里","LIN":"22鄰","STREET":"北門路","SECT":" ","MAREA":" ","LANE":"７巷","ALLEY":"２弄","HOUSE_NO":"３４號","E_COORD97":175278.32000000001,"N_COORD97":2580429.6000000001,"ADDRESS":"北門路７巷２弄３４號","OBJECTID":140635},"geometry":{"x":175278.3200000003,"y":2580429.6000000015}},{"attributes":{"ID":140636,"DIS_CODE":0,"TOWNNAME":"鹽水區","LI":"岸內里","LIN":"22鄰","STREET":"北門路","SECT":" ","MAREA":" ","LANE":"７巷","ALLEY":"２弄","HOUSE_NO":"３６號","E_COORD97":175283.04999999999,"N_COORD97":2580430,"ADDRESS":"北門路７巷２弄３６號","OBJECTID":140636},"geometry":{"x":175283.04999999981,"y":2580430.0000000037}},{"attributes":{"ID":140637,"DIS_CODE":0,"TOWNNAME":"南化區","LI":"玉山里","LIN":" ","STREET":" ","SECT":" ","MAREA":"玉山","LANE":" ","ALLEY":" ","HOUSE_NO":"１５２之２號","E_COORD97":203720.82000000001,"N_COORD97":2552336.7999999998,"ADDRESS":"玉山１５２之２號","OBJECTID":140637},"geometry":{"x":203720.82000000123,"y":2552336.8000000026}},{"attributes":{"ID":140638,"DIS_CODE":0,"TOWNNAME":"南化區","LI":"小崙里","LIN":" ","STREET":" ","SECT":" ","MAREA":"小崙","LANE":" ","ALLEY":" ","HOUSE_NO":"３９之２號","E_COORD97":197445.97,"N_COORD97":2550881.7999999998,"ADDRESS":"小崙３９之２號","OBJECTID":140638},"geometry":{"x":197445.96999999974,"y":2550881.8000000045}},{"attributes":{"ID":140639,"DIS_CODE":0,"TOWNNAME":"南化區","LI":"小崙里","LIN":" ","STREET":" ","SECT":" ","MAREA":"小崙","LANE":" ","ALLEY":" ","HOUSE_NO":"３８號","E_COORD97":197103.87,"N_COORD97":2550914.75,"ADDRESS":"小崙３８號","OBJECTID":140639},"geometry":{"x":197103.87000000104,"y":2550914.75}},{"attributes":{"ID":140640,"DIS_CODE":0,"TOWNNAME":"南化區","LI":"南化里","LIN":" ","STREET":" ","SECT":" ","MAREA":"南化","LANE":" ","ALLEY":" ","HOUSE_NO":"２０８之１號","E_COORD97":196554.44,"N_COORD97":2549180.7999999998,"ADDRESS":"南化２０８之１號","OBJECTID":140640},"geometry":{"x":196554.44000000227,"y":2549180.8000000026}},{"attributes":{"ID":140641,"DIS_CODE":0,"TOWNNAME":"南化區","LI":"西埔里","LIN":" ","STREET":" ","SECT":" ","MAREA":"西埔","LANE":" ","ALLEY":" ","HOUSE_NO":"２之１號","E_COORD97":196476.69,"N_COORD97":2548199.7999999998,"ADDRESS":"西埔２之１號","OBJECTID":140641},"geometry":{"x":196476.69000000134,"y":2548199.7999999989}},{"attributes":{"ID":140642,"DIS_CODE":0,"TOWNNAME":"南化區","LI":"玉山里","LIN":" ","STREET":" ","SECT":" ","MAREA":"玉山","LANE":" ","ALLEY":" ","HOUSE_NO":"５４號","E_COORD97":200773.57000000001,"N_COORD97":2552664.75,"ADDRESS":"玉山５４號","OBJECTID":140642},"geometry":{"x":200773.5700000003,"y":2552664.7500000037}},{"attributes":{"ID":140643,"DIS_CODE":0,"TOWNNAME":"鹽水區","LI":"岸內里","LIN":"22鄰","STREET":"北門路","SECT":" ","MAREA":" ","LANE":"７巷","ALLEY":"２弄","HOUSE_NO":"３８號","E_COORD97":175287.23000000001,"N_COORD97":2580430.3199999998,"ADDRESS":"北門路７巷２弄３８號","OBJECTID":140643},"geometry":{"x":175287.23000000045,"y":2580430.3200000003}},{"attributes":{"ID":140644,"DIS_CODE":0,"TOWNNAME":"鹽水區","LI":"岸內里","LIN":"22鄰","STREET":"北門路","SECT":" ","MAREA":" ","LANE":"７巷","ALLEY":"２弄","HOUSE_NO":"４０號","E_COORD97":175292.01999999999,"N_COORD97":2580431.1000000001,"ADDRESS":"北門路７巷２弄４０號","OBJECTID":140644},"geometry":{"x":175292.02000000048,"y":2580431.0999999996}},{"attributes":{"ID":140645,"DIS_CODE":0,"TOWNNAME":"鹽水區","LI":"岸內里","LIN":"22鄰","STREET":"北門路","SECT":" ","MAREA":" ","LANE":"７巷","ALLEY":"２弄","HOUSE_NO":"４２號","E_COORD97":175296.41,"N_COORD97":2580431.46,"ADDRESS":"北門路７巷２弄４２號","OBJECTID":140645},"geometry":{"x":175296.41000000015,"y":2580431.4600000046}},{"attributes":{"ID":140646,"DIS_CODE":0,"TOWNNAME":"鹽水區","LI":"岸內里","LIN":"22鄰","STREET":"北門路","SECT":" ","MAREA":" ","LANE":"７巷","ALLEY":"２弄","HOUSE_NO":"４６號","E_COORD97":175300.82000000001,"N_COORD97":2580431.0800000001,"ADDRESS":"北門路７巷２弄４６號","OBJECTID":140646},"geometry":{"x":175300.82000000216,"y":2580431.0800000019}},{"attributes":{"ID":140647,"DIS_CODE":0,"TOWNNAME":"鹽水區","LI":"岸內里","LIN":"22鄰","STREET":"北門路","SECT":" ","MAREA":" ","LANE":"７巷","ALLEY":"２弄","HOUSE_NO":"４８號","E_COORD97":175305.17000000001,"N_COORD97":2580431.2400000002,"ADDRESS":"北門路７巷２弄４８號","OBJECTID":140647},"geometry":{"x":175305.17000000086,"y":2580431.2400000002}},{"attributes":{"ID":140648,"DIS_CODE":0,"TOWNNAME":"鹽水區","LI":"岸內里","LIN":"22鄰","STREET":"北門路","SECT":" ","MAREA":" ","LANE":"７巷","ALLEY":"３弄","HOUSE_NO":"１１號","E_COORD97":175240.06,"N_COORD97":2580503.4900000002,"ADDRESS":"北門路７巷３弄１１號","OBJECTID":140648},"geometry":{"x":175240.05999999959,"y":2580503.4900000002}},{"attributes":{"ID":140649,"DIS_CODE":0,"TOWNNAME":"鹽水區","LI":"岸內里","LIN":"22鄰","STREET":"北門路","SECT":" ","MAREA":" ","LANE":"７巷","ALLEY":"３弄","HOUSE_NO":"１３號","E_COORD97":175244.10000000001,"N_COORD97":2580503.77,"ADDRESS":"北門路７巷３弄１３號","OBJECTID":140649},"geometry":{"x":175244.10000000056,"y":2580503.7700000014}},{"attributes":{"ID":140650,"DIS_CODE":0,"TOWNNAME":"南化區","LI":"玉山里","LIN":" ","STREET":" ","SECT":" ","MAREA":"玉山","LANE":" ","ALLEY":" ","HOUSE_NO":"２０之９號","E_COORD97":200305.17000000001,"N_COORD97":2552060.7999999998,"ADDRESS":"玉山２０之９號","OBJECTID":140650},"geometry":{"x":200305.16999999993,"y":2552060.8000000007}},{"attributes":{"ID":140651,"DIS_CODE":0,"TOWNNAME":"南化區","LI":"小崙里","LIN":" ","STREET":" ","SECT":" ","MAREA":"小崙","LANE":" ","ALLEY":" ","HOUSE_NO":"１之２７號","E_COORD97":196845.57000000001,"N_COORD97":2549501.7999999998,"ADDRESS":"小崙１之２７號","OBJECTID":140651},"geometry":{"x":196845.57000000123,"y":2549501.8000000045}},{"attributes":{"ID":140652,"DIS_CODE":0,"TOWNNAME":"南化區","LI":"南化里","LIN":" ","STREET":" ","SECT":" ","MAREA":"南化","LANE":" ","ALLEY":" ","HOUSE_NO":"１７０號","E_COORD97":196426.73999999999,"N_COORD97":2549059.75,"ADDRESS":"南化１７０號","OBJECTID":140652},"geometry":{"x":196426.74000000209,"y":2549059.75}},{"attributes":{"ID":140653,"DIS_CODE":0,"TOWNNAME":"南化區","LI":"小崙里","LIN":" ","STREET":" ","SECT":" ","MAREA":"小崙","LANE":" ","ALLEY":" ","HOUSE_NO":"１５號","E_COORD97":196062.67000000001,"N_COORD97":2550336.75,"ADDRESS":"小崙１５號","OBJECTID":140653},"geometry":{"x":196062.67000000086,"y":2550336.7500000019}},{"attributes":{"ID":140654,"DIS_CODE":0,"TOWNNAME":"南化區","LI":"北平里","LIN":" ","STREET":" ","SECT":" ","MAREA":"北平","LANE":" ","ALLEY":" ","HOUSE_NO":"５６之３號","E_COORD97":195229.48999999999,"N_COORD97":2551273.7999999998,"ADDRESS":"北平５６之３號","OBJECTID":140654},"geometry":{"x":195229.49000000022,"y":2551273.8000000007}},{"attributes":{"ID":140655,"DIS_CODE":0,"TOWNNAME":"南化區","LI":"西埔里","LIN":" ","STREET":" ","SECT":" ","MAREA":"西埔","LANE":" ","ALLEY":" ","HOUSE_NO":"１２９號","E_COORD97":193275.98999999999,"N_COORD97":2549603.75,"ADDRESS":"西埔１２９號","OBJECTID":140655},"geometry":{"x":193275.99000000115,"y":2549603.7500000019}},{"attributes":{"ID":140656,"DIS_CODE":0,"TOWNNAME":"南化區","LI":"南化里","LIN":" ","STREET":" ","SECT":" ","MAREA":"南化","LANE":" ","ALLEY":" ","HOUSE_NO":"３２之３０號","E_COORD97":195793.34,"N_COORD97":2549373.7999999998,"ADDRESS":"南化３２之３０號","OBJECTID":140656},"geometry":{"x":195793.34000000171,"y":2549373.8000000026}},{"attributes":{"ID":140657,"DIS_CODE":0,"TOWNNAME":"南化區","LI":"北寮里","LIN":"7鄰","STREET":" ","SECT":" ","MAREA":"北寮","LANE":" ","ALLEY":" ","HOUSE_NO":"１０７之２號","E_COORD97":197870.23999999999,"N_COORD97":2553034.7999999998,"ADDRESS":"北寮１０７之２號","OBJECTID":140657},"geometry":{"x":197870.24000000022,"y":2553034.8000000045}},{"attributes":{"ID":140658,"DIS_CODE":0,"TOWNNAME":"南化區","LI":"北寮里","LIN":"7鄰","STREET":" ","SECT":" ","MAREA":"北寮","LANE":" ","ALLEY":" ","HOUSE_NO":"１０９之９號","E_COORD97":197928.54000000001,"N_COORD97":2553002.7999999998,"ADDRESS":"北寮１０９之９號","OBJECTID":140658},"geometry":{"x":197928.54000000097,"y":2553002.8000000007}},{"attributes":{"ID":140659,"DIS_CODE":0,"TOWNNAME":"南化區","LI":"西埔里","LIN":" ","STREET":" ","SECT":" ","MAREA":"西埔","LANE":" ","ALLEY":" ","HOUSE_NO":"１４５號","E_COORD97":193201.69,"N_COORD97":2549595.75,"ADDRESS":"西埔１４５號","OBJECTID":140659},"geometry":{"x":193201.69000000134,"y":2549595.75}},{"attributes":{"ID":140660,"DIS_CODE":0,"TOWNNAME":"南化區","LI":"北寮里","LIN":"7鄰","STREET":" ","SECT":" ","MAREA":"北寮","LANE":" ","ALLEY":" ","HOUSE_NO":"１１０之８號","E_COORD97":197974.34,"N_COORD97":2552958.7999999998,"ADDRESS":"北寮１１０之８號","OBJECTID":140660},"geometry":{"x":197974.33999999985,"y":2552958.8000000007}},{"attributes":{"ID":140661,"DIS_CODE":0,"TOWNNAME":"仁德區","LI":"仁義里","LIN":"33鄰","STREET":"正義二街","SECT":" ","MAREA":" ","LANE":" ","ALLEY":" ","HOUSE_NO":"３２號","E_COORD97":173475.47,"N_COORD97":2541554.77,"ADDRESS":"正義二街３２號","OBJECTID":140661},"geometry":{"x":173475.47000000067,"y":2541554.7700000014}},{"attributes":{"ID":140662,"DIS_CODE":0,"TOWNNAME":"南化區","LI":"北寮里","LIN":"7鄰","STREET":" ","SECT":" ","MAREA":"北寮","LANE":" ","ALLEY":" ","HOUSE_NO":"１０９之３號","E_COORD97":197908.54000000001,"N_COORD97":2553019.7999999998,"ADDRESS":"北寮１０９之３號","OBJECTID":140662},"geometry":{"x":197908.54000000097,"y":2553019.8000000007}},{"attributes":{"ID":140663,"DIS_CODE":0,"TOWNNAME":"南化區","LI":"北寮里","LIN":"7鄰","STREET":" ","SECT":" ","MAREA":"北寮","LANE":" ","ALLEY":" ","HOUSE_NO":"１１０之４號","E_COORD97":197957.84,"N_COORD97":2552964.7999999998,"ADDRESS":"北寮１１０之４號","OBJECTID":140663},"geometry":{"x":197957.83999999985,"y":2552964.8000000026}},{"attributes":{"ID":140664,"DIS_CODE":0,"TOWNNAME":"南化區","LI":"南化里","LIN":" ","STREET":" ","SECT":" ","MAREA":"南化","LANE":" ","ALLEY":" ","HOUSE_NO":"３２之２６號","E_COORD97":195816.44,"N_COORD97":2549369.7999999998,"ADDRESS":"南化３２之２６號","OBJECTID":140664},"geometry":{"x":195816.44000000041,"y":2549369.8000000045}},{"attributes":{"ID":140665,"DIS_CODE":0,"TOWNNAME":"南化區","LI":"玉山里","LIN":" ","STREET":" ","SECT":" ","MAREA":"玉山","LANE":" ","ALLEY":" ","HOUSE_NO":"１３３號","E_COORD97":201505.92000000001,"N_COORD97":2553721.75,"ADDRESS":"玉山１３３號","OBJECTID":140665},"geometry":{"x":201505.92000000086,"y":2553721.75}},{"attributes":{"ID":140666,"DIS_CODE":0,"TOWNNAME":"南化區","LI":"北寮里","LIN":"4鄰","STREET":" ","SECT":" ","MAREA":"北寮","LANE":" ","ALLEY":" ","HOUSE_NO":"４８之９號","E_COORD97":197626.79000000001,"N_COORD97":2553058.7999999998,"ADDRESS":"北寮４８之９號","OBJECTID":140666},"geometry":{"x":197626.79000000097,"y":2553058.8000000026}},{"attributes":{"ID":140667,"DIS_CODE":0,"TOWNNAME":"南化區","LI":"北寮里","LIN":"4鄰","STREET":" ","SECT":" ","MAREA":"北寮","LANE":" ","ALLEY":" ","HOUSE_NO":"４８之３號","E_COORD97":197591.89000000001,"N_COORD97":2553083.7999999998,"ADDRESS":"北寮４８之３號","OBJECTID":140667},"geometry":{"x":197591.8900000006,"y":2553083.8000000007}},{"attributes":{"ID":140668,"DIS_CODE":0,"TOWNNAME":"南化區","LI":"北寮里","LIN":" ","STREET":" ","SECT":" ","MAREA":"北寮","LANE":" ","ALLEY":" ","HOUSE_NO":"１８８號","E_COORD97":197410.73999999999,"N_COORD97":2552713.75,"ADDRESS":"北寮１８８號","OBJECTID":140668},"geometry":{"x":197410.74000000022,"y":2552713.7500000019}},{"attributes":{"ID":140669,"DIS_CODE":0,"TOWNNAME":"南化區","LI":"北寮里","LIN":" ","STREET":" ","SECT":" ","MAREA":"北寮","LANE":" ","ALLEY":" ","HOUSE_NO":"１４３號","E_COORD97":197960.44,"N_COORD97":2553179.75,"ADDRESS":"北寮１４３號","OBJECTID":140669},"geometry":{"x":197960.44000000134,"y":2553179.7499999981}},{"attributes":{"ID":140670,"DIS_CODE":0,"TOWNNAME":"仁德區","LI":"仁義里","LIN":"33鄰","STREET":"中正路","SECT":"三段","MAREA":" ","LANE":" ","ALLEY":" ","HOUSE_NO":"４６號","E_COORD97":173346.85000000001,"N_COORD97":2541489.27,"ADDRESS":"中正路三段４６號","OBJECTID":140670},"geometry":{"x":173346.8499999987,"y":2541489.2700000033}},{"attributes":{"ID":140671,"DIS_CODE":0,"TOWNNAME":"鹽水區","LI":"岸內里","LIN":"22鄰","STREET":"北門路","SECT":" ","MAREA":" ","LANE":"７巷","ALLEY":"３弄","HOUSE_NO":"１４號","E_COORD97":175235.94,"N_COORD97":2580516.5,"ADDRESS":"北門路７巷３弄１４號","OBJECTID":140671},"geometry":{"x":175235.94000000134,"y":2580516.5000000019}},{"attributes":{"ID":140672,"DIS_CODE":0,"TOWNNAME":"鹽水區","LI":"岸內里","LIN":"22鄰","STREET":"北門路","SECT":" ","MAREA":" ","LANE":"７巷","ALLEY":"３弄","HOUSE_NO":"１５號","E_COORD97":175218.88,"N_COORD97":2580515.23,"ADDRESS":"北門路７巷３弄１５號","OBJECTID":140672},"geometry":{"x":175218.88000000082,"y":2580515.2300000023}},{"attributes":{"ID":140673,"DIS_CODE":0,"TOWNNAME":"南化區","LI":"北平里","LIN":" ","STREET":" ","SECT":" ","MAREA":"北平","LANE":" ","ALLEY":" ","HOUSE_NO":"１０之５號","E_COORD97":196517.79000000001,"N_COORD97":2551745.7999999998,"ADDRESS":"北平１０之５號","OBJECTID":140673},"geometry":{"x":196517.79000000097,"y":2551745.8000000007}},{"attributes":{"ID":140674,"DIS_CODE":0,"TOWNNAME":"鹽水區","LI":"岸內里","LIN":"22鄰","STREET":"北門路","SECT":" ","MAREA":" ","LANE":"７巷","ALLEY":"３弄","HOUSE_NO":"１６號","E_COORD97":175235.41,"N_COORD97":2580521.4199999999,"ADDRESS":"北門路７巷３弄１６號","OBJECTID":140674},"geometry":{"x":175235.40999999922,"y":2580521.4199999999}},{"attributes":{"ID":140675,"DIS_CODE":0,"TOWNNAME":"鹽水區","LI":"岸內里","LIN":"22鄰","STREET":"北門路","SECT":" ","MAREA":" ","LANE":"７巷","ALLEY":"３弄","HOUSE_NO":"１７號","E_COORD97":175218.41,"N_COORD97":2580520.4700000002,"ADDRESS":"北門路７巷３弄１７號","OBJECTID":140675},"geometry":{"x":175218.41000000015,"y":2580520.4700000025}},{"attributes":{"ID":140676,"DIS_CODE":0,"TOWNNAME":"南化區","LI":"北寮里","LIN":" ","STREET":" ","SECT":" ","MAREA":"北寮","LANE":" ","ALLEY":" ","HOUSE_NO":"４８之８號","E_COORD97":197623.19,"N_COORD97":2553061.7999999998,"ADDRESS":"北寮４８之８號","OBJECTID":140676},"geometry":{"x":197623.19000000041,"y":2553061.8000000045}},{"attributes":{"ID":140677,"DIS_CODE":0,"TOWNNAME":"鹽水區","LI":"岸內里","LIN":"22鄰","STREET":"北門路","SECT":" ","MAREA":" ","LANE":"７巷","ALLEY":"３弄","HOUSE_NO":"１８號","E_COORD97":175235.09,"N_COORD97":2580526.4500000002,"ADDRESS":"北門路７巷３弄１８號","OBJECTID":140677},"geometry":{"x":175235.08999999985,"y":2580526.4499999993}},{"attributes":{"ID":140678,"DIS_CODE":0,"TOWNNAME":"鹽水區","LI":"岸內里","LIN":"22鄰","STREET":"北門路","SECT":" ","MAREA":" ","LANE":"７巷","ALLEY":"３弄","HOUSE_NO":"１９號","E_COORD97":175217.89000000001,"N_COORD97":2580525.21,"ADDRESS":"北門路７巷３弄１９號","OBJECTID":140678},"geometry":{"x":175217.88999999966,"y":2580525.2100000028}},{"attributes":{"ID":140679,"DIS_CODE":0,"TOWNNAME":"鹽水區","LI":"岸內里","LIN":"22鄰","STREET":"北門路","SECT":" ","MAREA":" ","LANE":"７巷","ALLEY":"３弄","HOUSE_NO":"１號","E_COORD97":175210.78,"N_COORD97":2580501.8999999999,"ADDRESS":"北門路７巷３弄１號","OBJECTID":140679},"geometry":{"x":175210.78000000026,"y":2580501.9000000004}},{"attributes":{"ID":140680,"DIS_CODE":0,"TOWNNAME":"鹽水區","LI":"岸內里","LIN":"22鄰","STREET":"北門路","SECT":" ","MAREA":" ","LANE":"７巷","ALLEY":"３弄","HOUSE_NO":"２號","E_COORD97":175215.03,"N_COORD97":2580502.1299999999,"ADDRESS":"北門路７巷３弄２號","OBJECTID":140680},"geometry":{"x":175215.03000000119,"y":2580502.129999999}},{"attributes":{"ID":140681,"DIS_CODE":0,"TOWNNAME":"鹽水區","LI":"岸內里","LIN":"22鄰","STREET":"北門路","SECT":" ","MAREA":" ","LANE":"７巷","ALLEY":"３弄","HOUSE_NO":"３號","E_COORD97":175219.28,"N_COORD97":2580502.3700000001,"ADDRESS":"北門路７巷３弄３號","OBJECTID":140681},"geometry":{"x":175219.28000000026,"y":2580502.370000001}},{"attributes":{"ID":140682,"DIS_CODE":0,"TOWNNAME":"鹽水區","LI":"岸內里","LIN":"22鄰","STREET":"北門路","SECT":" ","MAREA":" ","LANE":"７巷","ALLEY":"３弄","HOUSE_NO":"５號","E_COORD97":175223.53,"N_COORD97":2580502.6000000001,"ADDRESS":"北門路７巷３弄５號","OBJECTID":140682},"geometry":{"x":175223.53000000119,"y":2580502.5999999996}},{"attributes":{"ID":140683,"DIS_CODE":0,"TOWNNAME":"鹽水區","LI":"岸內里","LIN":"22鄰","STREET":"北門路","SECT":" ","MAREA":" ","LANE":"７巷","ALLEY":"３弄","HOUSE_NO":"７號","E_COORD97":175231.98000000001,"N_COORD97":2580502.9100000001,"ADDRESS":"北門路７巷３弄７號","OBJECTID":140683},"geometry":{"x":175231.98000000231,"y":2580502.910000002}},{"attributes":{"ID":140684,"DIS_CODE":0,"TOWNNAME":"鹽水區","LI":"岸內里","LIN":"22鄰","STREET":"北門路","SECT":" ","MAREA":" ","LANE":"７巷","ALLEY":"３弄","HOUSE_NO":"９號","E_COORD97":175236.01999999999,"N_COORD97":2580503.2000000002,"ADDRESS":"北門路７巷３弄９號","OBJECTID":140684},"geometry":{"x":175236.02000000048,"y":2580503.2000000011}},{"attributes":{"ID":140685,"DIS_CODE":0,"TOWNNAME":"關廟區","LI":"香洋里","LIN":"22鄰","STREET":"中山路","SECT":"一段","MAREA":" ","LANE":"２３９巷","ALLEY":"３弄","HOUSE_NO":"１２號","E_COORD97":181401.31,"N_COORD97":2539859.2799999998,"ADDRESS":"中山路一段２３９巷３弄１２號","OBJECTID":140685},"geometry":{"x":181401.31000000052,"y":2539859.2800000012}},{"attributes":{"ID":140686,"DIS_CODE":0,"TOWNNAME":"關廟區","LI":"香洋里","LIN":"22鄰","STREET":"中山路","SECT":"一段","MAREA":" ","LANE":"２３９巷","ALLEY":"３弄","HOUSE_NO":"９號","E_COORD97":181409.66,"N_COORD97":2539868.2799999998,"ADDRESS":"中山路一段２３９巷３弄９號","OBJECTID":140686},"geometry":{"x":181409.66000000108,"y":2539868.2799999975}},{"attributes":{"ID":140687,"DIS_CODE":0,"TOWNNAME":"仁德區","LI":"仁義里","LIN":"33鄰","STREET":"正義二街","SECT":" ","MAREA":" ","LANE":" ","ALLEY":" ","HOUSE_NO":"１６號","E_COORD97":173425.20999999999,"N_COORD97":2541549.27,"ADDRESS":"正義二街１６號","OBJECTID":140687},"geometry":{"x":173425.21000000089,"y":2541549.2699999996}},{"attributes":{"ID":140688,"DIS_CODE":0,"TOWNNAME":"南化區","LI":"北寮里","LIN":" ","STREET":" ","SECT":" ","MAREA":"北寮","LANE":" ","ALLEY":" ","HOUSE_NO":"１５４號","E_COORD97":198586.04000000001,"N_COORD97":2553509.75,"ADDRESS":"北寮１５４號","OBJECTID":140688},"geometry":{"x":198586.04000000097,"y":2553509.7500000019}},{"attributes":{"ID":140689,"DIS_CODE":0,"TOWNNAME":"南化區","LI":"南化里","LIN":" ","STREET":" ","SECT":" ","MAREA":"南化","LANE":" ","ALLEY":" ","HOUSE_NO":"３０１之１號","E_COORD97":199339.14000000001,"N_COORD97":2548155.7999999998,"ADDRESS":"南化３０１之１號","OBJECTID":140689},"geometry":{"x":199339.14000000153,"y":2548155.8000000045}},{"attributes":{"ID":140690,"DIS_CODE":0,"TOWNNAME":"南化區","LI":"北寮里","LIN":" ","STREET":" ","SECT":" ","MAREA":"北寮","LANE":" ","ALLEY":" ","HOUSE_NO":"３４之３號","E_COORD97":197733.19,"N_COORD97":2553120.7999999998,"ADDRESS":"北寮３４之３號","OBJECTID":140690},"geometry":{"x":197733.19000000134,"y":2553120.8000000026}},{"attributes":{"ID":140691,"DIS_CODE":0,"TOWNNAME":"安平區","LI":"億載里","LIN":"15鄰","STREET":"光州四街","SECT":" ","MAREA":" ","LANE":" ","ALLEY":" ","HOUSE_NO":"１９號","E_COORD97":164009.76999999999,"N_COORD97":2543203.2400000002,"ADDRESS":"光州四街１９號","OBJECTID":140691},"geometry":{"x":164009.76999999955,"y":2543203.2400000021}},{"attributes":{"ID":140692,"DIS_CODE":0,"TOWNNAME":"南化區","LI":"南化里","LIN":" ","STREET":" ","SECT":" ","MAREA":"南化","LANE":" ","ALLEY":" ","HOUSE_NO":"１１５之１２號","E_COORD97":196291.59,"N_COORD97":2549161.7999999998,"ADDRESS":"南化１１５之１２號","OBJECTID":140692},"geometry":{"x":196291.59000000171,"y":2549161.8000000007}},{"attributes":{"ID":140693,"DIS_CODE":0,"TOWNNAME":"南化區","LI":"南化里","LIN":" ","STREET":" ","SECT":" ","MAREA":"南化","LANE":" ","ALLEY":" ","HOUSE_NO":"３１之１０號","E_COORD97":195765.44,"N_COORD97":2549358.7999999998,"ADDRESS":"南化３１之１０號","OBJECTID":140693},"geometry":{"x":195765.44000000041,"y":2549358.8000000007}},{"attributes":{"ID":140694,"DIS_CODE":0,"TOWNNAME":"南化區","LI":"小崙里","LIN":" ","STREET":" ","SECT":" ","MAREA":"小崙","LANE":" ","ALLEY":" ","HOUSE_NO":"１３５號","E_COORD97":198693.42000000001,"N_COORD97":2550923.75,"ADDRESS":"小崙１３５號","OBJECTID":140694},"geometry":{"x":198693.42000000086,"y":2550923.75}},{"attributes":{"ID":140695,"DIS_CODE":0,"TOWNNAME":"南化區","LI":"南化里","LIN":" ","STREET":" ","SECT":" ","MAREA":"南化","LANE":" ","ALLEY":" ","HOUSE_NO":"２５５之２５號","E_COORD97":196550.89000000001,"N_COORD97":2549347.7999999998,"ADDRESS":"南化２５５之２５號","OBJECTID":140695},"geometry":{"x":196550.8900000006,"y":2549347.8000000007}},{"attributes":{"ID":140696,"DIS_CODE":0,"TOWNNAME":"南化區","LI":"北寮里","LIN":" ","STREET":" ","SECT":" ","MAREA":"北寮","LANE":" ","ALLEY":" ","HOUSE_NO":"１４５之２號","E_COORD97":197983.04000000001,"N_COORD97":2553176.7999999998,"ADDRESS":"北寮１４５之２號","OBJECTID":140696},"geometry":{"x":197983.04000000097,"y":2553176.7999999989}},{"attributes":{"ID":140697,"DIS_CODE":0,"TOWNNAME":"南化區","LI":"北寮里","LIN":" ","STREET":" ","SECT":" ","MAREA":"北寮","LANE":" ","ALLEY":" ","HOUSE_NO":"９號","E_COORD97":197819.04000000001,"N_COORD97":2553047.75,"ADDRESS":"北寮９號","OBJECTID":140697},"geometry":{"x":197819.04000000004,"y":2553047.7500000037}},{"attributes":{"ID":140698,"DIS_CODE":0,"TOWNNAME":"南化區","LI":"北寮里","LIN":" ","STREET":" ","SECT":" ","MAREA":"北寮","LANE":" ","ALLEY":" ","HOUSE_NO":"３４之１號","E_COORD97":197744.69,"N_COORD97":2553123.7999999998,"ADDRESS":"北寮３４之１號","OBJECTID":140698},"geometry":{"x":197744.69000000134,"y":2553123.8000000026}},{"attributes":{"ID":140699,"DIS_CODE":0,"TOWNNAME":"南化區","LI":"北寮里","LIN":" ","STREET":" ","SECT":" ","MAREA":"北寮","LANE":" ","ALLEY":" ","HOUSE_NO":"１９１之５號","E_COORD97":197698.84,"N_COORD97":2552563.7999999998,"ADDRESS":"北寮１９１之５號","OBJECTID":140699},"geometry":{"x":197698.84000000078,"y":2552563.8000000026}},{"attributes":{"ID":140700,"DIS_CODE":0,"TOWNNAME":"南化區","LI":"北寮里","LIN":"4鄰","STREET":" ","SECT":" ","MAREA":"北寮","LANE":" ","ALLEY":" ","HOUSE_NO":"４８之４號","E_COORD97":197600.19,"N_COORD97":2553081.7999999998,"ADDRESS":"北寮４８之４號","OBJECTID":140700},"geometry":{"x":197600.19000000227,"y":2553081.8000000007}},{"attributes":{"ID":140701,"DIS_CODE":0,"TOWNNAME":"南化區","LI":"玉山里","LIN":" ","STREET":" ","SECT":" ","MAREA":"玉山","LANE":" ","ALLEY":" ","HOUSE_NO":"１３３之１號","E_COORD97":201438.82000000001,"N_COORD97":2553680.7999999998,"ADDRESS":"玉山１３３之１號","OBJECTID":140701},"geometry":{"x":201438.82000000216,"y":2553680.8000000007}},{"attributes":{"ID":140702,"DIS_CODE":0,"TOWNNAME":"南化區","LI":"中坑里","LIN":" ","STREET":" ","SECT":" ","MAREA":"中坊","LANE":" ","ALLEY":" ","HOUSE_NO":"３７之２號","E_COORD97":193727.66,"N_COORD97":2549390.7999999998,"ADDRESS":"中坊３７之２號","OBJECTID":140702},"geometry":{"x":193727.66000000015,"y":2549390.8000000026}},{"attributes":{"ID":140703,"DIS_CODE":0,"TOWNNAME":"南化區","LI":"北寮里","LIN":"4鄰","STREET":" ","SECT":" ","MAREA":"北寮","LANE":" ","ALLEY":" ","HOUSE_NO":"４８之２號","E_COORD97":197591.09,"N_COORD97":2553105.7999999998,"ADDRESS":"北寮４８之２號","OBJECTID":140703},"geometry":{"x":197591.08999999985,"y":2553105.8000000045}},{"attributes":{"ID":140704,"DIS_CODE":0,"TOWNNAME":"南化區","LI":"南化里","LIN":" ","STREET":" ","SECT":" ","MAREA":"南化","LANE":" ","ALLEY":" ","HOUSE_NO":"１４４之７號","E_COORD97":196450.34,"N_COORD97":2549132.7999999998,"ADDRESS":"南化１４４之７號","OBJECTID":140704},"geometry":{"x":196450.33999999985,"y":2549132.8000000026}},{"attributes":{"ID":140705,"DIS_CODE":0,"TOWNNAME":"南化區","LI":"南化里","LIN":" ","STREET":" ","SECT":" ","MAREA":"南化","LANE":" ","ALLEY":" ","HOUSE_NO":"２９之１９號","E_COORD97":195853.44,"N_COORD97":2549254.7999999998,"ADDRESS":"南化２９之１９號","OBJECTID":140705},"geometry":{"x":195853.44000000041,"y":2549254.8000000026}},{"attributes":{"ID":140706,"DIS_CODE":0,"TOWNNAME":"南化區","LI":"南化里","LIN":" ","STREET":" ","SECT":" ","MAREA":"南化","LANE":" ","ALLEY":" ","HOUSE_NO":"２９之９號","E_COORD97":195863.29000000001,"N_COORD97":2549289.7999999998,"ADDRESS":"南化２９之９號","OBJECTID":140706},"geometry":{"x":195863.2900000019,"y":2549289.8000000026}},{"attributes":{"ID":140707,"DIS_CODE":0,"TOWNNAME":"南化區","LI":"北寮里","LIN":"4鄰","STREET":" ","SECT":" ","MAREA":"北寮","LANE":" ","ALLEY":" ","HOUSE_NO":"４８之６號","E_COORD97":197615.09,"N_COORD97":2553067.7999999998,"ADDRESS":"北寮４８之６號","OBJECTID":140707},"geometry":{"x":197615.08999999985,"y":2553067.8000000007}},{"attributes":{"ID":140708,"DIS_CODE":0,"TOWNNAME":"南化區","LI":"西埔里","LIN":" ","STREET":" ","SECT":" ","MAREA":"西埔","LANE":" ","ALLEY":" ","HOUSE_NO":"１９８之１號","E_COORD97":192747.89000000001,"N_COORD97":2548731.7999999998,"ADDRESS":"西埔１９８之１號","OBJECTID":140708},"geometry":{"x":192747.88999999966,"y":2548731.8000000007}},{"attributes":{"ID":140709,"DIS_CODE":0,"TOWNNAME":"南化區","LI":"南化里","LIN":" ","STREET":" ","SECT":" ","MAREA":"南化","LANE":" ","ALLEY":" ","HOUSE_NO":"１３６號","E_COORD97":196371.04000000001,"N_COORD97":2549135.75,"ADDRESS":"南化１３６號","OBJECTID":140709},"geometry":{"x":196371.04000000004,"y":2549135.7500000019}},{"attributes":{"ID":140710,"DIS_CODE":0,"TOWNNAME":"關廟區","LI":"香洋里","LIN":"22鄰","STREET":"中山路","SECT":"一段","MAREA":" ","LANE":"２３９巷","ALLEY":"３弄","HOUSE_NO":"５號","E_COORD97":181396.56,"N_COORD97":2539872.2799999998,"ADDRESS":"中山路一段２３９巷３弄５號","OBJECTID":140710},"geometry":{"x":181396.56000000052,"y":2539872.2800000012}},{"attributes":{"ID":140711,"DIS_CODE":0,"TOWNNAME":"關廟區","LI":"香洋里","LIN":"22鄰","STREET":"中山路","SECT":"一段","MAREA":" ","LANE":"２３９巷","ALLEY":"３弄","HOUSE_NO":"１０號","E_COORD97":181395.10999999999,"N_COORD97":2539862.2799999998,"ADDRESS":"中山路一段２３９巷３弄１０號","OBJECTID":140711},"geometry":{"x":181395.11000000127,"y":2539862.2800000012}},{"attributes":{"ID":140712,"DIS_CODE":0,"TOWNNAME":"關廟區","LI":"香洋里","LIN":"22鄰","STREET":"中山路","SECT":"一段","MAREA":" ","LANE":"２３９巷","ALLEY":"３弄","HOUSE_NO":"１８號","E_COORD97":181413.60999999999,"N_COORD97":2539857.2799999998,"ADDRESS":"中山路一段２３９巷３弄１８號","OBJECTID":140712},"geometry":{"x":181413.61000000127,"y":2539857.2799999993}},{"attributes":{"ID":140713,"DIS_CODE":0,"TOWNNAME":"關廟區","LI":"香洋里","LIN":"22鄰","STREET":"中山路","SECT":"一段","MAREA":" ","LANE":"２３９巷","ALLEY":"３弄","HOUSE_NO":"８號","E_COORD97":181388.16,"N_COORD97":2539863.2799999998,"ADDRESS":"中山路一段２３９巷３弄８號","OBJECTID":140713},"geometry":{"x":181388.16000000108,"y":2539863.2800000012}},{"attributes":{"ID":140714,"DIS_CODE":0,"TOWNNAME":"關廟區","LI":"香洋里","LIN":"22鄰","STREET":"中山路","SECT":"一段","MAREA":" ","LANE":"２３９巷","ALLEY":"３弄","HOUSE_NO":"６號","E_COORD97":181382.06,"N_COORD97":2539865.2799999998,"ADDRESS":"中山路一段２３９巷３弄６號","OBJECTID":140714},"geometry":{"x":181382.05999999959,"y":2539865.2800000031}},{"attributes":{"ID":140715,"DIS_CODE":0,"TOWNNAME":"關廟區","LI":"香洋里","LIN":"22鄰","STREET":"中山路","SECT":"一段","MAREA":" ","LANE":"２３９巷","ALLEY":"３弄","HOUSE_NO":"１６號","E_COORD97":181407.10999999999,"N_COORD97":2539859.2799999998,"ADDRESS":"中山路一段２３９巷３弄１６號","OBJECTID":140715},"geometry":{"x":181407.11000000127,"y":2539859.2800000012}},{"attributes":{"ID":140716,"DIS_CODE":0,"TOWNNAME":"關廟區","LI":"香洋里","LIN":"22鄰","STREET":"中山路","SECT":"一段","MAREA":" ","LANE":"２３９巷","ALLEY":"３弄","HOUSE_NO":"１１號","E_COORD97":181417.41,"N_COORD97":2539866.2799999998,"ADDRESS":"中山路一段２３９巷３弄１１號","OBJECTID":140716},"geometry":{"x":181417.41000000015,"y":2539866.2800000012}},{"attributes":{"ID":140717,"DIS_CODE":0,"TOWNNAME":"關廟區","LI":"香洋里","LIN":"22鄰","STREET":"中山路","SECT":"一段","MAREA":" ","LANE":"２３９巷","ALLEY":"３弄","HOUSE_NO":"７號","E_COORD97":181402.35999999999,"N_COORD97":2539870.2799999998,"ADDRESS":"中山路一段２３９巷３弄７號","OBJECTID":140717},"geometry":{"x":181402.36000000034,"y":2539870.2799999993}},{"attributes":{"ID":140718,"DIS_CODE":0,"TOWNNAME":"安平區","LI":"平安里","LIN":"22鄰","STREET":"安平路","SECT":" ","MAREA":" ","LANE":"４４６巷","ALLEY":"２５弄","HOUSE_NO":"１０號","E_COORD97":165254.64999999999,"N_COORD97":2544434.5499999998,"ADDRESS":"安平路４４６巷２５弄１０號","OBJECTID":140718},"geometry":{"x":165254.65000000224,"y":2544434.5500000007}},{"attributes":{"ID":140719,"DIS_CODE":0,"TOWNNAME":"安平區","LI":"平安里","LIN":"22鄰","STREET":"安平路","SECT":" ","MAREA":" ","LANE":"４４６巷","ALLEY":"２５弄","HOUSE_NO":"１１號","E_COORD97":165254.29000000001,"N_COORD97":2544415.3500000001,"ADDRESS":"安平路４４６巷２５弄１１號","OBJECTID":140719},"geometry":{"x":165254.29000000004,"y":2544415.3500000015}},{"attributes":{"ID":140720,"DIS_CODE":0,"TOWNNAME":"安平區","LI":"平安里","LIN":"22鄰","STREET":"安平路","SECT":" ","MAREA":" ","LANE":"４４６巷","ALLEY":"２５弄","HOUSE_NO":"１２號","E_COORD97":165247.48000000001,"N_COORD97":2544435.3100000001,"ADDRESS":"安平路４４６巷２５弄１２號","OBJECTID":140720},"geometry":{"x":165247.48000000138,"y":2544435.3100000005}},{"attributes":{"ID":140721,"DIS_CODE":0,"TOWNNAME":"安平區","LI":"平安里","LIN":"22鄰","STREET":"安平路","SECT":" ","MAREA":" ","LANE":"４４６巷","ALLEY":"２５弄","HOUSE_NO":"１３號","E_COORD97":165250.48999999999,"N_COORD97":2544415.98,"ADDRESS":"安平路４４６巷２５弄１３號","OBJECTID":140721},"geometry":{"x":165250.49000000209,"y":2544415.9800000023}},{"attributes":{"ID":140722,"DIS_CODE":0,"TOWNNAME":"安平區","LI":"平安里","LIN":"22鄰","STREET":"安平路","SECT":" ","MAREA":" ","LANE":"４４６巷","ALLEY":"２５弄","HOUSE_NO":"１４號","E_COORD97":165241.62,"N_COORD97":2544436.1099999999,"ADDRESS":"安平路４４６巷２５弄１４號","OBJECTID":140722},"geometry":{"x":165241.62000000104,"y":2544436.1099999994}},{"attributes":{"ID":140723,"DIS_CODE":0,"TOWNNAME":"新營區","LI":"南紙里","LIN":"22鄰","STREET":"建業路","SECT":" ","MAREA":" ","LANE":"１９３巷","ALLEY":"１０弄","HOUSE_NO":"９號","E_COORD97":178155.04999999999,"N_COORD97":2577451.9399999999,"ADDRESS":"建業路１９３巷１０弄９號","OBJECTID":140723},"geometry":{"x":178155.05000000168,"y":2577451.9399999995}},{"attributes":{"ID":140724,"DIS_CODE":0,"TOWNNAME":"永康區","LI":"復華里","LIN":"33鄰","STREET":"復華十街","SECT":" ","MAREA":" ","LANE":" ","ALLEY":" ","HOUSE_NO":"１０號","E_COORD97":172514.19,"N_COORD97":2546144.2799999998,"ADDRESS":"復華十街１０號","OBJECTID":140724},"geometry":{"x":172514.19000000041,"y":2546144.2800000031}},{"attributes":{"ID":140725,"DIS_CODE":0,"TOWNNAME":"南化區","LI":"中坑里","LIN":" ","STREET":" ","SECT":" ","MAREA":"中坊","LANE":" ","ALLEY":" ","HOUSE_NO":"４５之３號","E_COORD97":193413.35999999999,"N_COORD97":2549412.7999999998,"ADDRESS":"中坊４５之３號","OBJECTID":140725},"geometry":{"x":193413.36000000034,"y":2549412.8000000007}},{"attributes":{"ID":140726,"DIS_CODE":0,"TOWNNAME":"南化區","LI":"北寮里","LIN":" ","STREET":" ","SECT":" ","MAREA":"北寮","LANE":" ","ALLEY":" ","HOUSE_NO":"１７之７號","E_COORD97":199586.29000000001,"N_COORD97":2552307.7999999998,"ADDRESS":"北寮１７之７號","OBJECTID":140726},"geometry":{"x":199586.29000000097,"y":2552307.8000000007}},{"attributes":{"ID":140727,"DIS_CODE":0,"TOWNNAME":"永康區","LI":"復華里","LIN":"33鄰","STREET":"復華十街","SECT":" ","MAREA":" ","LANE":" ","ALLEY":" ","HOUSE_NO":"２６號","E_COORD97":172538.39000000001,"N_COORD97":2546179.5699999998,"ADDRESS":"復華十街２６號","OBJECTID":140727},"geometry":{"x":172538.3900000006,"y":2546179.5700000003}},{"attributes":{"ID":140728,"DIS_CODE":0,"TOWNNAME":"南化區","LI":"南化里","LIN":" ","STREET":" ","SECT":" ","MAREA":"南化","LANE":" ","ALLEY":" ","HOUSE_NO":"１２８號","E_COORD97":196349.64000000001,"N_COORD97":2549192.75,"ADDRESS":"南化１２８號","OBJECTID":140728},"geometry":{"x":196349.63999999966,"y":2549192.7500000037}},{"attributes":{"ID":140729,"DIS_CODE":0,"TOWNNAME":"永康區","LI":"復華里","LIN":"33鄰","STREET":"復華十街","SECT":" ","MAREA":" ","LANE":" ","ALLEY":" ","HOUSE_NO":"１７號","E_COORD97":172531.38,"N_COORD97":2546196.04,"ADDRESS":"復華十街１７號","OBJECTID":140729},"geometry":{"x":172531.37999999989,"y":2546196.0399999972}},{"attributes":{"ID":140730,"DIS_CODE":0,"TOWNNAME":"安平區","LI":"平安里","LIN":"22鄰","STREET":"安平路","SECT":" ","MAREA":" ","LANE":"４４６巷","ALLEY":"２５弄","HOUSE_NO":"１５號","E_COORD97":165246.20999999999,"N_COORD97":2544417.0899999999,"ADDRESS":"安平路４４６巷２５弄１５號","OBJECTID":140730},"geometry":{"x":165246.20999999996,"y":2544417.0900000017}},{"attributes":{"ID":140731,"DIS_CODE":0,"TOWNNAME":"永康區","LI":"復國里","LIN":"33鄰","STREET":"復華一街","SECT":" ","MAREA":" ","LANE":" ","ALLEY":" ","HOUSE_NO":"７０號","E_COORD97":172521.57999999999,"N_COORD97":2545091.2799999998,"ADDRESS":"復華一街７０號","OBJECTID":140731},"geometry":{"x":172521.58000000007,"y":2545091.2800000012}},{"attributes":{"ID":140732,"DIS_CODE":0,"TOWNNAME":"南化區","LI":"北寮里","LIN":" ","STREET":" ","SECT":" ","MAREA":"北寮","LANE":" ","ALLEY":" ","HOUSE_NO":"１６６之１號","E_COORD97":198661.64000000001,"N_COORD97":2552903.7999999998,"ADDRESS":"北寮１６６之１號","OBJECTID":140732},"geometry":{"x":198661.6400000006,"y":2552903.8000000026}},{"attributes":{"ID":140733,"DIS_CODE":0,"TOWNNAME":"安平區","LI":"平安里","LIN":"22鄰","STREET":"安平路","SECT":" ","MAREA":" ","LANE":"４４６巷","ALLEY":"２５弄","HOUSE_NO":"１６號","E_COORD97":165235.76000000001,"N_COORD97":2544436.7400000002,"ADDRESS":"安平路４４６巷２５弄１６號","OBJECTID":140733},"geometry":{"x":165235.75999999978,"y":2544436.7400000039}},{"attributes":{"ID":140734,"DIS_CODE":0,"TOWNNAME":"南化區","LI":"東和里","LIN":" ","STREET":" ","SECT":" ","MAREA":"東和","LANE":" ","ALLEY":" ","HOUSE_NO":"１０號","E_COORD97":196193.97,"N_COORD97":2547472.75,"ADDRESS":"東和１０號","OBJECTID":140734},"geometry":{"x":196193.9700000016,"y":2547472.75}},{"attributes":{"ID":140735,"DIS_CODE":0,"TOWNNAME":"安平區","LI":"平安里","LIN":"22鄰","STREET":"安平路","SECT":" ","MAREA":" ","LANE":"４４６巷","ALLEY":"２５弄","HOUSE_NO":"１７之４號","E_COORD97":165241.48999999999,"N_COORD97":2544418.3199999998,"ADDRESS":"安平路４４６巷２５弄１７之４號","OBJECTID":140735},"geometry":{"x":165241.49000000022,"y":2544418.3200000003}},{"attributes":{"ID":140736,"DIS_CODE":0,"TOWNNAME":"安平區","LI":"平安里","LIN":"22鄰","STREET":"安平路","SECT":" ","MAREA":" ","LANE":"４４６巷","ALLEY":"２５弄","HOUSE_NO":"１７號之４","E_COORD97":165241.48999999999,"N_COORD97":2544418.3199999998,"ADDRESS":"安平路４４６巷２５弄１７號之４","OBJECTID":140736},"geometry":{"x":165241.49000000022,"y":2544418.3200000003}},{"attributes":{"ID":140737,"DIS_CODE":0,"TOWNNAME":"安平區","LI":"平安里","LIN":"22鄰","STREET":"安平路","SECT":" ","MAREA":" ","LANE":"４４６巷","ALLEY":"２５弄","HOUSE_NO":"１號","E_COORD97":165285.03,"N_COORD97":2544409.1699999999,"ADDRESS":"安平路４４６巷２５弄１號","OBJECTID":140737},"geometry":{"x":165285.03000000026,"y":2544409.1699999999}},{"attributes":{"ID":140738,"DIS_CODE":0,"TOWNNAME":"安平區","LI":"平安里","LIN":"22鄰","STREET":"安平路","SECT":" ","MAREA":" ","LANE":"４４６巷","ALLEY":"２５弄","HOUSE_NO":"２號","E_COORD97":165287.88,"N_COORD97":2544427.9500000002,"ADDRESS":"安平路４４６巷２５弄２號","OBJECTID":140738},"geometry":{"x":165287.87999999989,"y":2544427.9500000011}},{"attributes":{"ID":140739,"DIS_CODE":0,"TOWNNAME":"南化區","LI":"南化里","LIN":" ","STREET":" ","SECT":" ","MAREA":"南化","LANE":" ","ALLEY":" ","HOUSE_NO":"２４之６號","E_COORD97":195825.98999999999,"N_COORD97":2549310.7999999998,"ADDRESS":"南化２４之６號","OBJECTID":140739},"geometry":{"x":195825.99000000022,"y":2549310.8000000007}},{"attributes":{"ID":140740,"DIS_CODE":0,"TOWNNAME":"南化區","LI":"東和里","LIN":" ","STREET":" ","SECT":" ","MAREA":"東和","LANE":" ","ALLEY":" ","HOUSE_NO":"９５之１號","E_COORD97":198515.97,"N_COORD97":2547374.7999999998,"ADDRESS":"東和９５之１號","OBJECTID":140740},"geometry":{"x":198515.96999999974,"y":2547374.8000000007}},{"attributes":{"ID":140741,"DIS_CODE":0,"TOWNNAME":"南化區","LI":"南化里","LIN":" ","STREET":" ","SECT":" ","MAREA":"南化","LANE":" ","ALLEY":" ","HOUSE_NO":"１６之１號","E_COORD97":195740.09,"N_COORD97":2549339.7999999998,"ADDRESS":"南化１６之１號","OBJECTID":140741},"geometry":{"x":195740.08999999985,"y":2549339.8000000026}},{"attributes":{"ID":140742,"DIS_CODE":0,"TOWNNAME":"南化區","LI":"北寮里","LIN":"4鄰","STREET":" ","SECT":" ","MAREA":"北寮","LANE":" ","ALLEY":" ","HOUSE_NO":"４８之７號","E_COORD97":197618.98999999999,"N_COORD97":2553064.7999999998,"ADDRESS":"北寮４８之７號","OBJECTID":140742},"geometry":{"x":197618.99000000115,"y":2553064.8000000007}},{"attributes":{"ID":140743,"DIS_CODE":0,"TOWNNAME":"南化區","LI":"南化里","LIN":" ","STREET":" ","SECT":" ","MAREA":"南化","LANE":" ","ALLEY":" ","HOUSE_NO":"１１８之１號","E_COORD97":196332.84,"N_COORD97":2549117.7999999998,"ADDRESS":"南化１１８之１號","OBJECTID":140743},"geometry":{"x":196332.84000000078,"y":2549117.8000000007}},{"attributes":{"ID":140744,"DIS_CODE":0,"TOWNNAME":"安平區","LI":"平安里","LIN":"22鄰","STREET":"安平路","SECT":" ","MAREA":" ","LANE":"４４６巷","ALLEY":"２５弄","HOUSE_NO":"３號","E_COORD97":165280.44,"N_COORD97":2544409.1699999999,"ADDRESS":"安平路４４６巷２５弄３號","OBJECTID":140744},"geometry":{"x":165280.44000000134,"y":2544409.1699999999}},{"attributes":{"ID":140745,"DIS_CODE":0,"TOWNNAME":"南化區","LI":"西埔里","LIN":" ","STREET":" ","SECT":" ","MAREA":"西埔","LANE":" ","ALLEY":" ","HOUSE_NO":"１８０號","E_COORD97":192679.59,"N_COORD97":2549255.75,"ADDRESS":"西埔１８０號","OBJECTID":140745},"geometry":{"x":192679.59000000078,"y":2549255.75}},{"attributes":{"ID":140746,"DIS_CODE":0,"TOWNNAME":"安平區","LI":"平安里","LIN":"22鄰","STREET":"安平路","SECT":" ","MAREA":" ","LANE":"４４６巷","ALLEY":"２５弄","HOUSE_NO":"４之１號","E_COORD97":165278.20000000001,"N_COORD97":2544430.1499999999,"ADDRESS":"安平路４４６巷２５弄４之１號","OBJECTID":140746},"geometry":{"x":165278.20000000112,"y":2544430.1500000004}},{"attributes":{"ID":140747,"DIS_CODE":0,"TOWNNAME":"永康區","LI":"復華里","LIN":"33鄰","STREET":"復華十街","SECT":" ","MAREA":" ","LANE":" ","ALLEY":" ","HOUSE_NO":"９號","E_COORD97":172514.87,"N_COORD97":2546177.1000000001,"ADDRESS":"復華十街９號","OBJECTID":140747},"geometry":{"x":172514.86999999918,"y":2546177.1000000015}},{"attributes":{"ID":140748,"DIS_CODE":0,"TOWNNAME":"南化區","LI":"南化里","LIN":" ","STREET":" ","SECT":" ","MAREA":"南化","LANE":" ","ALLEY":" ","HOUSE_NO":"３０之９號","E_COORD97":195951.09,"N_COORD97":2549312.7999999998,"ADDRESS":"南化３０之９號","OBJECTID":140748},"geometry":{"x":195951.09000000078,"y":2549312.8000000026}},{"attributes":{"ID":140749,"DIS_CODE":0,"TOWNNAME":"南化區","LI":"南化里","LIN":" ","STREET":" ","SECT":" ","MAREA":"南化","LANE":" ","ALLEY":" ","HOUSE_NO":"２９之３號","E_COORD97":195870.79000000001,"N_COORD97":2549312.7999999998,"ADDRESS":"南化２９之３號","OBJECTID":140749},"geometry":{"x":195870.79000000097,"y":2549312.8000000026}},{"attributes":{"ID":140750,"DIS_CODE":0,"TOWNNAME":"南化區","LI":"東和里","LIN":" ","STREET":" ","SECT":" ","MAREA":"東和","LANE":" ","ALLEY":" ","HOUSE_NO":"９５號","E_COORD97":198420.76999999999,"N_COORD97":2547328.75,"ADDRESS":"東和９５號","OBJECTID":140750},"geometry":{"x":198420.76999999955,"y":2547328.7500000019}},{"attributes":{"ID":140751,"DIS_CODE":0,"TOWNNAME":"南化區","LI":"東和里","LIN":" ","STREET":" ","SECT":" ","MAREA":"東和","LANE":" ","ALLEY":" ","HOUSE_NO":"７３號","E_COORD97":197239.26999999999,"N_COORD97":2546685.75,"ADDRESS":"東和７３號","OBJECTID":140751},"geometry":{"x":197239.26999999955,"y":2546685.75}},{"attributes":{"ID":140752,"DIS_CODE":0,"TOWNNAME":"南化區","LI":"中坑里","LIN":" ","STREET":" ","SECT":" ","MAREA":"中坊","LANE":" ","ALLEY":" ","HOUSE_NO":"３８號","E_COORD97":193660.85999999999,"N_COORD97":2549448.75,"ADDRESS":"中坊３８號","OBJECTID":140752},"geometry":{"x":193660.86000000034,"y":2549448.7500000019}},{"attributes":{"ID":140753,"DIS_CODE":0,"TOWNNAME":"南化區","LI":"南化里","LIN":" ","STREET":" ","SECT":" ","MAREA":"南化","LANE":" ","ALLEY":" ","HOUSE_NO":"３１之６號","E_COORD97":195778.69,"N_COORD97":2549335.7999999998,"ADDRESS":"南化３１之６號","OBJECTID":140753},"geometry":{"x":195778.69000000134,"y":2549335.8000000045}},{"attributes":{"ID":140754,"DIS_CODE":0,"TOWNNAME":"南化區","LI":"南化里","LIN":" ","STREET":" ","SECT":" ","MAREA":"南化","LANE":" ","ALLEY":" ","HOUSE_NO":"３０之１０號","E_COORD97":195956.14000000001,"N_COORD97":2549312.7999999998,"ADDRESS":"南化３０之１０號","OBJECTID":140754},"geometry":{"x":195956.1400000006,"y":2549312.8000000026}},{"attributes":{"ID":140755,"DIS_CODE":0,"TOWNNAME":"南化區","LI":"東和里","LIN":" ","STREET":" ","SECT":" ","MAREA":"東和","LANE":" ","ALLEY":" ","HOUSE_NO":"１０８之２號","E_COORD97":198934.42000000001,"N_COORD97":2547819.7999999998,"ADDRESS":"東和１０８之２號","OBJECTID":140755},"geometry":{"x":198934.42000000086,"y":2547819.8000000007}},{"attributes":{"ID":140756,"DIS_CODE":0,"TOWNNAME":"南化區","LI":"中坑里","LIN":" ","STREET":" ","SECT":" ","MAREA":"中坊","LANE":" ","ALLEY":" ","HOUSE_NO":"３３之２號","E_COORD97":193794.35999999999,"N_COORD97":2549361.7999999998,"ADDRESS":"中坊３３之２號","OBJECTID":140756},"geometry":{"x":193794.36000000034,"y":2549361.8000000007}},{"attributes":{"ID":140757,"DIS_CODE":0,"TOWNNAME":"南化區","LI":"中坑里","LIN":" ","STREET":" ","SECT":" ","MAREA":"中坊","LANE":" ","ALLEY":" ","HOUSE_NO":"２０號","E_COORD97":194250.95999999999,"N_COORD97":2549580.75,"ADDRESS":"中坊２０號","OBJECTID":140757},"geometry":{"x":194250.95999999996,"y":2549580.7500000019}},{"attributes":{"ID":140758,"DIS_CODE":0,"TOWNNAME":"南化區","LI":"東和里","LIN":" ","STREET":" ","SECT":" ","MAREA":"東和","LANE":" ","ALLEY":" ","HOUSE_NO":"１號","E_COORD97":195964.12,"N_COORD97":2547495.75,"ADDRESS":"東和１號","OBJECTID":140758},"geometry":{"x":195964.12000000011,"y":2547495.7500000019}},{"attributes":{"ID":140759,"DIS_CODE":0,"TOWNNAME":"新市區","LI":"大社里","LIN":"33鄰","STREET":" ","SECT":" ","MAREA":"大社","LANE":" ","ALLEY":" ","HOUSE_NO":"４０８之５號","E_COORD97":180172.14999999999,"N_COORD97":2554873.9300000002,"ADDRESS":"大社４０８之５號","OBJECTID":140759},"geometry":{"x":180172.14999999944,"y":2554873.9300000016}},{"attributes":{"ID":140760,"DIS_CODE":0,"TOWNNAME":"新市區","LI":"大社里","LIN":"33鄰","STREET":" ","SECT":" ","MAREA":"大社","LANE":" ","ALLEY":" ","HOUSE_NO":"４０８之５４號","E_COORD97":180130.98999999999,"N_COORD97":2554820.4300000002,"ADDRESS":"大社４０８之５４號","OBJECTID":140760},"geometry":{"x":180130.99000000115,"y":2554820.4300000016}},{"attributes":{"ID":140761,"DIS_CODE":0,"TOWNNAME":"新市區","LI":"大社里","LIN":"33鄰","STREET":" ","SECT":" ","MAREA":"大社","LANE":" ","ALLEY":" ","HOUSE_NO":"４０８之４０號","E_COORD97":180131.44,"N_COORD97":2554832.4300000002,"ADDRESS":"大社４０８之４０號","OBJECTID":140761},"geometry":{"x":180131.44000000227,"y":2554832.4299999997}},{"attributes":{"ID":140762,"DIS_CODE":0,"TOWNNAME":"新市區","LI":"大社里","LIN":"33鄰","STREET":" ","SECT":" ","MAREA":"大社","LANE":" ","ALLEY":" ","HOUSE_NO":"４０８之４５號","E_COORD97":180108.19,"N_COORD97":2554833.1800000002,"ADDRESS":"大社４０８之４５號","OBJECTID":140762},"geometry":{"x":180108.19000000134,"y":2554833.1799999997}},{"attributes":{"ID":140763,"DIS_CODE":0,"TOWNNAME":"新市區","LI":"大社里","LIN":"33鄰","STREET":" ","SECT":" ","MAREA":"大社","LANE":" ","ALLEY":" ","HOUSE_NO":"４０８之６９號","E_COORD97":180125.94,"N_COORD97":2554798.9300000002,"ADDRESS":"大社４０８之６９號","OBJECTID":140763},"geometry":{"x":180125.94000000041,"y":2554798.9300000034}},{"attributes":{"ID":140764,"DIS_CODE":0,"TOWNNAME":"南化區","LI":"南化里","LIN":" ","STREET":" ","SECT":" ","MAREA":"南化","LANE":" ","ALLEY":" ","HOUSE_NO":"９９號","E_COORD97":196340.89000000001,"N_COORD97":2549050.75,"ADDRESS":"南化９９號","OBJECTID":140764},"geometry":{"x":196340.8900000006,"y":2549050.7500000037}},{"attributes":{"ID":140765,"DIS_CODE":0,"TOWNNAME":"南化區","LI":"南化里","LIN":" ","STREET":" ","SECT":" ","MAREA":"南化","LANE":" ","ALLEY":" ","HOUSE_NO":"１０４之２號","E_COORD97":196303.84,"N_COORD97":2549017.7999999998,"ADDRESS":"南化１０４之２號","OBJECTID":140765},"geometry":{"x":196303.84000000078,"y":2549017.8000000026}},{"attributes":{"ID":140766,"DIS_CODE":0,"TOWNNAME":"南化區","LI":"南化里","LIN":" ","STREET":" ","SECT":" ","MAREA":"南化","LANE":" ","ALLEY":" ","HOUSE_NO":"２２６之１號","E_COORD97":196640.04000000001,"N_COORD97":2549316.7999999998,"ADDRESS":"南化２２６之１號","OBJECTID":140766},"geometry":{"x":196640.04000000097,"y":2549316.8000000026}},{"attributes":{"ID":140767,"DIS_CODE":0,"TOWNNAME":"南化區","LI":"北寮里","LIN":" ","STREET":" ","SECT":" ","MAREA":"北寮","LANE":" ","ALLEY":" ","HOUSE_NO":"１之１８號","E_COORD97":198001.48999999999,"N_COORD97":2552902.7999999998,"ADDRESS":"北寮１之１８號","OBJECTID":140767},"geometry":{"x":198001.49000000209,"y":2552902.8000000026}},{"attributes":{"ID":140768,"DIS_CODE":0,"TOWNNAME":"安平區","LI":"平安里","LIN":"22鄰","STREET":"安平路","SECT":" ","MAREA":" ","LANE":"４４６巷","ALLEY":"２５弄","HOUSE_NO":"４號之１","E_COORD97":165278.20000000001,"N_COORD97":2544430.1499999999,"ADDRESS":"安平路４４６巷２５弄４號之１","OBJECTID":140768},"geometry":{"x":165278.20000000112,"y":2544430.1500000004}},{"attributes":{"ID":140769,"DIS_CODE":0,"TOWNNAME":"安平區","LI":"平安里","LIN":"22鄰","STREET":"安平路","SECT":" ","MAREA":" ","LANE":"４４６巷","ALLEY":"２５弄","HOUSE_NO":"５號","E_COORD97":165274.89000000001,"N_COORD97":2544410.5800000001,"ADDRESS":"安平路４４６巷２５弄５號","OBJECTID":140769},"geometry":{"x":165274.8900000006,"y":2544410.5800000019}},{"attributes":{"ID":140770,"DIS_CODE":0,"TOWNNAME":"安平區","LI":"平安里","LIN":"22鄰","STREET":"安平路","SECT":" ","MAREA":" ","LANE":"４４６巷","ALLEY":"２５弄","HOUSE_NO":"６號","E_COORD97":165271.37,"N_COORD97":2544431.25,"ADDRESS":"安平路４４６巷２５弄６號","OBJECTID":140770},"geometry":{"x":165271.36999999918,"y":2544431.25}},{"attributes":{"ID":140771,"DIS_CODE":0,"TOWNNAME":"安平區","LI":"平安里","LIN":"22鄰","STREET":"安平路","SECT":" ","MAREA":" ","LANE":"４４６巷","ALLEY":"２５弄","HOUSE_NO":"７之１號","E_COORD97":165264.98999999999,"N_COORD97":2544412.7799999998,"ADDRESS":"安平路４４６巷２５弄７之１號","OBJECTID":140771},"geometry":{"x":165264.99000000022,"y":2544412.7800000012}},{"attributes":{"ID":140772,"DIS_CODE":0,"TOWNNAME":"安平區","LI":"平安里","LIN":"22鄰","STREET":"安平路","SECT":" ","MAREA":" ","LANE":"４４６巷","ALLEY":"２５弄","HOUSE_NO":"８號","E_COORD97":165261.69,"N_COORD97":2544433.0099999998,"ADDRESS":"安平路４４６巷２５弄８號","OBJECTID":140772},"geometry":{"x":165261.69000000134,"y":2544433.0099999998}},{"attributes":{"ID":140773,"DIS_CODE":0,"TOWNNAME":"南化區","LI":"南化里","LIN":" ","STREET":" ","SECT":" ","MAREA":"南化","LANE":" ","ALLEY":" ","HOUSE_NO":"４７之１０號","E_COORD97":196194.84,"N_COORD97":2549273.7999999998,"ADDRESS":"南化４７之１０號","OBJECTID":140773},"geometry":{"x":196194.83999999985,"y":2549273.8000000007}},{"attributes":{"ID":140774,"DIS_CODE":0,"TOWNNAME":"安平區","LI":"平安里","LIN":"22鄰","STREET":"安平路","SECT":" ","MAREA":" ","LANE":"４４６巷","ALLEY":"２５弄","HOUSE_NO":"９號","E_COORD97":165258.60999999999,"N_COORD97":2544414.54,"ADDRESS":"安平路４４６巷２５弄９號","OBJECTID":140774},"geometry":{"x":165258.61000000127,"y":2544414.540000001}},{"attributes":{"ID":140775,"DIS_CODE":0,"TOWNNAME":"南化區","LI":"小崙里","LIN":" ","STREET":" ","SECT":" ","MAREA":"小崙","LANE":" ","ALLEY":" ","HOUSE_NO":"１之３１號","E_COORD97":196862.47,"N_COORD97":2549504.7999999998,"ADDRESS":"小崙１之３１號","OBJECTID":140775},"geometry":{"x":196862.47000000067,"y":2549504.8000000007}},{"attributes":{"ID":140776,"DIS_CODE":0,"TOWNNAME":"歸仁區","LI":"歸南里","LIN":"22鄰","STREET":"民生八街","SECT":" ","MAREA":" ","LANE":"２８巷","ALLEY":"１９弄","HOUSE_NO":"１２號","E_COORD97":176080.10999999999,"N_COORD97":2540429.25,"ADDRESS":"民生八街２８巷１９弄１２號","OBJECTID":140776},"geometry":{"x":176080.11000000034,"y":2540429.2500000019}},{"attributes":{"ID":140777,"DIS_CODE":0,"TOWNNAME":"歸仁區","LI":"歸南里","LIN":"22鄰","STREET":"民生八街","SECT":" ","MAREA":" ","LANE":"２８巷","ALLEY":"１９弄","HOUSE_NO":"５４號","E_COORD97":175995.01000000001,"N_COORD97":2540429.25,"ADDRESS":"民生八街２８巷１９弄５４號","OBJECTID":140777},"geometry":{"x":175995.00999999978,"y":2540429.2500000019}},{"attributes":{"ID":140778,"DIS_CODE":0,"TOWNNAME":"歸仁區","LI":"歸南里","LIN":"22鄰","STREET":"民生八街","SECT":" ","MAREA":" ","LANE":"２８巷","ALLEY":"１９弄","HOUSE_NO":"３８號","E_COORD97":176025.81,"N_COORD97":2540429.25,"ADDRESS":"民生八街２８巷１９弄３８號","OBJECTID":140778},"geometry":{"x":176025.81000000052,"y":2540429.2500000019}},{"attributes":{"ID":140779,"DIS_CODE":0,"TOWNNAME":"歸仁區","LI":"歸南里","LIN":"22鄰","STREET":"民生八街","SECT":" ","MAREA":" ","LANE":"２８巷","ALLEY":"１９弄","HOUSE_NO":"３２號","E_COORD97":176038.10999999999,"N_COORD97":2540429.25,"ADDRESS":"民生八街２８巷１９弄３２號","OBJECTID":140779},"geometry":{"x":176038.11000000127,"y":2540429.2500000019}},{"attributes":{"ID":140780,"DIS_CODE":0,"TOWNNAME":"仁德區","LI":"太子里","LIN":"27鄰","STREET":"太子路","SECT":" ","MAREA":" ","LANE":" ","ALLEY":" ","HOUSE_NO":"４６６之１號","E_COORD97":173353.5,"N_COORD97":2543549.7599999998,"ADDRESS":"太子路４６６之１號","OBJECTID":140780},"geometry":{"x":173353.50000000093,"y":2543549.7599999998}},{"attributes":{"ID":140781,"DIS_CODE":0,"TOWNNAME":"永康區","LI":"正強里","LIN":"33鄰","STREET":"四維街","SECT":" ","MAREA":" ","LANE":"７９巷","ALLEY":" ","HOUSE_NO":"８號","E_COORD97":173351.38,"N_COORD97":2548115.7400000002,"ADDRESS":"四維街７９巷８號","OBJECTID":140781},"geometry":{"x":173351.37999999989,"y":2548115.7400000021}},{"attributes":{"ID":140782,"DIS_CODE":0,"TOWNNAME":"安平區","LI":"金城里","LIN":"15鄰","STREET":"州平三街","SECT":" ","MAREA":" ","LANE":" ","ALLEY":" ","HOUSE_NO":"１０號","E_COORD97":162763.35000000001,"N_COORD97":2544389.48,"ADDRESS":"州平三街１０號","OBJECTID":140782},"geometry":{"x":162763.34999999963,"y":2544389.4800000004}},{"attributes":{"ID":140783,"DIS_CODE":0,"TOWNNAME":"安平區","LI":"金城里","LIN":"15鄰","STREET":"州平三街","SECT":" ","MAREA":" ","LANE":" ","ALLEY":" ","HOUSE_NO":"２號","E_COORD97":162773.53,"N_COORD97":2544370.1200000001,"ADDRESS":"州平三街２號","OBJECTID":140783},"geometry":{"x":162773.53000000212,"y":2544370.1199999992}},{"attributes":{"ID":140784,"DIS_CODE":0,"TOWNNAME":"安平區","LI":"金城里","LIN":"15鄰","STREET":"州平三街","SECT":" ","MAREA":" ","LANE":" ","ALLEY":" ","HOUSE_NO":"１１之１號","E_COORD97":162737,"N_COORD97":2544374.2400000002,"ADDRESS":"州平三街１１之１號","OBJECTID":140784},"geometry":{"x":162737,"y":2544374.2400000002}},{"attributes":{"ID":140785,"DIS_CODE":0,"TOWNNAME":"安平區","LI":"金城里","LIN":"15鄰","STREET":"州平三街","SECT":" ","MAREA":" ","LANE":" ","ALLEY":" ","HOUSE_NO":"１１之５號","E_COORD97":162704.13,"N_COORD97":2544359.1600000001,"ADDRESS":"州平三街１１之５號","OBJECTID":140785},"geometry":{"x":162704.12999999989,"y":2544359.1600000039}},{"attributes":{"ID":140786,"DIS_CODE":0,"TOWNNAME":"永康區","LI":"正強里","LIN":"33鄰","STREET":"埔園街","SECT":" ","MAREA":" ","LANE":" ","ALLEY":" ","HOUSE_NO":"３１５號","E_COORD97":173344.44,"N_COORD97":2548131.1699999999,"ADDRESS":"埔園街３１５號","OBJECTID":140786},"geometry":{"x":173344.44000000134,"y":2548131.1699999999}},{"attributes":{"ID":140787,"DIS_CODE":0,"TOWNNAME":"永康區","LI":"正強里","LIN":"33鄰","STREET":"埔園街","SECT":" ","MAREA":" ","LANE":" ","ALLEY":" ","HOUSE_NO":"３１７號","E_COORD97":173337.73999999999,"N_COORD97":2548129.3599999999,"ADDRESS":"埔園街３１７號","OBJECTID":140787},"geometry":{"x":173337.74000000022,"y":2548129.3599999994}},{"attributes":{"ID":140788,"DIS_CODE":0,"TOWNNAME":"永康區","LI":"正強里","LIN":"33鄰","STREET":"埔園街","SECT":" ","MAREA":" ","LANE":" ","ALLEY":" ","HOUSE_NO":"３１９號","E_COORD97":173331.84,"N_COORD97":2548127.6000000001,"ADDRESS":"埔園街３１９號","OBJECTID":140788},"geometry":{"x":173331.83999999985,"y":2548127.5999999996}},{"attributes":{"ID":140789,"DIS_CODE":0,"TOWNNAME":"永康區","LI":"正強里","LIN":"33鄰","STREET":"埔園街","SECT":" ","MAREA":" ","LANE":" ","ALLEY":" ","HOUSE_NO":"３２１號","E_COORD97":173325.95000000001,"N_COORD97":2548125.8399999999,"ADDRESS":"埔園街３２１號","OBJECTID":140789},"geometry":{"x":173325.95000000019,"y":2548125.8399999999}},{"attributes":{"ID":140790,"DIS_CODE":0,"TOWNNAME":"永康區","LI":"正強里","LIN":"33鄰","STREET":"埔園街","SECT":" ","MAREA":" ","LANE":" ","ALLEY":" ","HOUSE_NO":"３２３號","E_COORD97":173320.06,"N_COORD97":2548124.0699999998,"ADDRESS":"埔園街３２３號","OBJECTID":140790},"geometry":{"x":173320.06000000145,"y":2548124.0700000022}},{"attributes":{"ID":140791,"DIS_CODE":0,"TOWNNAME":"永康區","LI":"正強里","LIN":"33鄰","STREET":"埔園街","SECT":" ","MAREA":" ","LANE":" ","ALLEY":" ","HOUSE_NO":"３２５號","E_COORD97":173314.17000000001,"N_COORD97":2548122.3100000001,"ADDRESS":"埔園街３２５號","OBJECTID":140791},"geometry":{"x":173314.16999999993,"y":2548122.3100000024}},{"attributes":{"ID":140792,"DIS_CODE":0,"TOWNNAME":"歸仁區","LI":"歸南里","LIN":"22鄰","STREET":"民生八街","SECT":" ","MAREA":" ","LANE":"２８巷","ALLEY":"１９弄","HOUSE_NO":"３４號","E_COORD97":176032.91,"N_COORD97":2540429.25,"ADDRESS":"民生八街２８巷１９弄３４號","OBJECTID":140792},"geometry":{"x":176032.91000000108,"y":2540429.2500000019}},{"attributes":{"ID":140793,"DIS_CODE":0,"TOWNNAME":"永康區","LI":"正強里","LIN":"33鄰","STREET":"埔園街","SECT":" ","MAREA":" ","LANE":" ","ALLEY":" ","HOUSE_NO":"３２７號","E_COORD97":173308.22,"N_COORD97":2548122.6800000002,"ADDRESS":"埔園街３２７號","OBJECTID":140793},"geometry":{"x":173308.21999999974,"y":2548122.6800000016}},{"attributes":{"ID":140794,"DIS_CODE":0,"TOWNNAME":"歸仁區","LI":"歸南里","LIN":"22鄰","STREET":"民生八街","SECT":" ","MAREA":" ","LANE":"２８巷","ALLEY":"１９弄","HOUSE_NO":"１８號","E_COORD97":176066.81,"N_COORD97":2540429.25,"ADDRESS":"民生八街２８巷１９弄１８號","OBJECTID":140794},"geometry":{"x":176066.81000000052,"y":2540429.2500000019}},{"attributes":{"ID":140795,"DIS_CODE":0,"TOWNNAME":"永康區","LI":"正強里","LIN":"33鄰","STREET":"埔園街","SECT":" ","MAREA":" ","LANE":" ","ALLEY":" ","HOUSE_NO":"３２９號","E_COORD97":173301.32999999999,"N_COORD97":2548122.0899999999,"ADDRESS":"埔園街３２９號","OBJECTID":140795},"geometry":{"x":173301.33000000007,"y":2548122.0899999999}},{"attributes":{"ID":140796,"DIS_CODE":0,"TOWNNAME":"南化區","LI":"中坑里","LIN":" ","STREET":" ","SECT":" ","MAREA":"中坑","LANE":" ","ALLEY":" ","HOUSE_NO":"７４之４號","E_COORD97":193942.16,"N_COORD97":2550066.7999999998,"ADDRESS":"中坑７４之４號","OBJECTID":140796},"geometry":{"x":193942.16000000108,"y":2550066.8000000007}},{"attributes":{"ID":140797,"DIS_CODE":0,"TOWNNAME":"南化區","LI":"玉山里","LIN":" ","STREET":" ","SECT":" ","MAREA":"玉山","LANE":" ","ALLEY":" ","HOUSE_NO":"１２３之２號","E_COORD97":201268.82000000001,"N_COORD97":2553681.7999999998,"ADDRESS":"玉山１２３之２號","OBJECTID":140797},"geometry":{"x":201268.8200000003,"y":2553681.8000000007}},{"attributes":{"ID":140798,"DIS_CODE":0,"TOWNNAME":"南化區","LI":"小崙里","LIN":" ","STREET":" ","SECT":" ","MAREA":"小崙","LANE":" ","ALLEY":" ","HOUSE_NO":"２８之１號","E_COORD97":197350.97,"N_COORD97":2550576.7999999998,"ADDRESS":"小崙２８之１號","OBJECTID":140798},"geometry":{"x":197350.97000000067,"y":2550576.8000000045}},{"attributes":{"ID":140799,"DIS_CODE":0,"TOWNNAME":"仁德區","LI":"後壁里","LIN":"33鄰","STREET":"民安路","SECT":"一段","MAREA":" ","LANE":" ","ALLEY":" ","HOUSE_NO":"３０號","E_COORD97":171928.01000000001,"N_COORD97":2540067.5600000001,"ADDRESS":"民安路一段３０號","OBJECTID":140799},"geometry":{"x":171928.00999999978,"y":2540067.5599999987}},{"attributes":{"ID":140800,"DIS_CODE":0,"TOWNNAME":"歸仁區","LI":"歸南里","LIN":"22鄰","STREET":"民生八街","SECT":" ","MAREA":" ","LANE":"２８巷","ALLEY":"１９弄","HOUSE_NO":"２４號","E_COORD97":176055.51000000001,"N_COORD97":2540429.25,"ADDRESS":"民生八街２８巷１９弄２４號","OBJECTID":140800},"geometry":{"x":176055.51000000071,"y":2540429.2500000019}}]}