{"displayFieldName":"TOWNNAME","fieldAliases":{"ID":"ID","DIS_CODE":"DIS_CODE","TOWNNAME":"TOWNNAME","LI":"LI","LIN":"LIN","STREET":"STREET","SECT":"SECT","MAREA":"MAREA","LANE":"LANE","ALLEY":"ALLEY","HOUSE_NO":"HOUSE_NO","E_COORD97":"E_COORD97","N_COORD97":"N_COORD97","ADDRESS":"ADDRESS","OBJECTID":"OBJECTID"},"geometryType":"esriGeometryPoint","spatialReference":{"wkid":102443,"latestWkid":3826},"fields":[{"name":"ID","type":"esriFieldTypeDouble","alias":"ID"},{"name":"DIS_CODE","type":"esriFieldTypeInteger","alias":"DIS_CODE"},{"name":"TOWNNAME","type":"esriFieldTypeString","alias":"TOWNNAME","length":8},{"name":"LI","type":"esriFieldTypeString","alias":"LI","length":8},{"name":"LIN","type":"esriFieldTypeString","alias":"LIN","length":12},{"name":"STREET","type":"esriFieldTypeString","alias":"STREET","length":20},{"name":"SECT","type":"esriFieldTypeString","alias":"SECT","length":8},{"name":"MAREA","type":"esriFieldTypeString","alias":"MAREA","length":12},{"name":"LANE","type":"esriFieldTypeString","alias":"LANE","length":10},{"name":"ALLEY","type":"esriFieldTypeString","alias":"ALLEY","length":10},{"name":"HOUSE_NO","type":"esriFieldTypeString","alias":"HOUSE_NO","length":20},{"name":"E_COORD97","type":"esriFieldTypeDouble","alias":"E_COORD97"},{"name":"N_COORD97","type":"esriFieldTypeDouble","alias":"N_COORD97"},{"name":"ADDRESS","type":"esriFieldTypeString","alias":"ADDRESS","length":50},{"name":"OBJECTID","type":"esriFieldTypeOID","alias":"OBJECTID"}],"features":[{"attributes":{"ID":632428,"DIS_CODE":0,"TOWNNAME":"學甲區","LI":"明宜里","LIN":"4鄰","STREET":"和平路","SECT":" ","MAREA":" ","LANE":" ","ALLEY":" ","HOUSE_NO":"２６７號","E_COORD97":165969.42000000001,"N_COORD97":2570382.9700000002,"ADDRESS":"和平路２６７號","OBJECTID":632401},"geometry":{"x":165969.42000000179,"y":2570382.9700000025}},{"attributes":{"ID":632429,"DIS_CODE":0,"TOWNNAME":"學甲區","LI":"明宜里","LIN":"14鄰","STREET":"和平路","SECT":" ","MAREA":" ","LANE":" ","ALLEY":" ","HOUSE_NO":"３００號","E_COORD97":166013.89999999999,"N_COORD97":2570476.0899999999,"ADDRESS":"和平路３００號","OBJECTID":632402},"geometry":{"x":166013.89999999944,"y":2570476.0900000017}},{"attributes":{"ID":632430,"DIS_CODE":0,"TOWNNAME":"學甲區","LI":"明宜里","LIN":"14鄰","STREET":"和平路","SECT":" ","MAREA":" ","LANE":" ","ALLEY":" ","HOUSE_NO":"３０２號","E_COORD97":166015.04999999999,"N_COORD97":2570480.21,"ADDRESS":"和平路３０２號","OBJECTID":632403},"geometry":{"x":166015.04999999981,"y":2570480.2100000028}},{"attributes":{"ID":632431,"DIS_CODE":0,"TOWNNAME":"學甲區","LI":"明宜里","LIN":"14鄰","STREET":"和平路","SECT":" ","MAREA":" ","LANE":" ","ALLEY":" ","HOUSE_NO":"３０４號","E_COORD97":166015.54000000001,"N_COORD97":2570485.0299999998,"ADDRESS":"和平路３０４號","OBJECTID":632404},"geometry":{"x":166015.54000000004,"y":2570485.0299999975}},{"attributes":{"ID":632432,"DIS_CODE":0,"TOWNNAME":"學甲區","LI":"明宜里","LIN":"14鄰","STREET":"和平路","SECT":" ","MAREA":" ","LANE":" ","ALLEY":" ","HOUSE_NO":"３０６號","E_COORD97":166031.85000000001,"N_COORD97":2570547.5899999999,"ADDRESS":"和平路３０６號","OBJECTID":632405},"geometry":{"x":166031.84999999963,"y":2570547.5900000017}},{"attributes":{"ID":632433,"DIS_CODE":0,"TOWNNAME":"學甲區","LI":"仁得里","LIN":"12鄰","STREET":"和平路","SECT":" ","MAREA":" ","LANE":" ","ALLEY":" ","HOUSE_NO":"２６號","E_COORD97":165820.85000000001,"N_COORD97":2569755.52,"ADDRESS":"和平路２６號","OBJECTID":632406},"geometry":{"x":165820.85000000056,"y":2569755.5199999996}},{"attributes":{"ID":632434,"DIS_CODE":0,"TOWNNAME":"學甲區","LI":"明宜里","LIN":"12鄰","STREET":"和平路","SECT":" ","MAREA":" ","LANE":" ","ALLEY":" ","HOUSE_NO":"２８８號","E_COORD97":166012.06,"N_COORD97":2570453.0099999998,"ADDRESS":"和平路２８８號","OBJECTID":632407},"geometry":{"x":166012.06000000145,"y":2570453.0100000016}},{"attributes":{"ID":632435,"DIS_CODE":0,"TOWNNAME":"學甲區","LI":"仁得里","LIN":"12鄰","STREET":"和平路","SECT":" ","MAREA":" ","LANE":" ","ALLEY":" ","HOUSE_NO":"２８號","E_COORD97":165822.01000000001,"N_COORD97":2569759.8100000001,"ADDRESS":"和平路２８號","OBJECTID":632408},"geometry":{"x":165822.00999999978,"y":2569759.8100000024}},{"attributes":{"ID":632436,"DIS_CODE":0,"TOWNNAME":"學甲區","LI":"新達里","LIN":"7鄰","STREET":"法源路","SECT":" ","MAREA":" ","LANE":" ","ALLEY":" ","HOUSE_NO":"４號","E_COORD97":166505.92999999999,"N_COORD97":2570599.6200000001,"ADDRESS":"法源路４號","OBJECTID":632409},"geometry":{"x":166505.9299999997,"y":2570599.6200000029}},{"attributes":{"ID":632437,"DIS_CODE":0,"TOWNNAME":"學甲區","LI":"仁得里","LIN":"17鄰","STREET":"信義路","SECT":" ","MAREA":" ","LANE":" ","ALLEY":" ","HOUSE_NO":"１０號","E_COORD97":165611.79999999999,"N_COORD97":2569676.0299999998,"ADDRESS":"信義路１０號","OBJECTID":632410},"geometry":{"x":165611.79999999981,"y":2569676.0300000012}},{"attributes":{"ID":632438,"DIS_CODE":0,"TOWNNAME":"學甲區","LI":"明宜里","LIN":"4鄰","STREET":"信義路","SECT":" ","MAREA":" ","LANE":" ","ALLEY":" ","HOUSE_NO":"５０號之４","E_COORD97":165889.04000000001,"N_COORD97":2570407.0800000001,"ADDRESS":"信義路５０號之４","OBJECTID":632411},"geometry":{"x":165889.0400000019,"y":2570407.0800000001}},{"attributes":{"ID":632439,"DIS_CODE":0,"TOWNNAME":"學甲區","LI":"仁得里","LIN":"17鄰","STREET":"信義路","SECT":" ","MAREA":" ","LANE":" ","ALLEY":" ","HOUSE_NO":"８號之１","E_COORD97":165592.63,"N_COORD97":2569628.6000000001,"ADDRESS":"信義路８號之１","OBJECTID":632412},"geometry":{"x":165592.62999999989,"y":2569628.6000000015}},{"attributes":{"ID":632440,"DIS_CODE":0,"TOWNNAME":"學甲區","LI":"仁得里","LIN":"17鄰","STREET":"信義路","SECT":" ","MAREA":" ","LANE":" ","ALLEY":" ","HOUSE_NO":"８號","E_COORD97":165629.54999999999,"N_COORD97":2569577.3100000001,"ADDRESS":"信義路８號","OBJECTID":632413},"geometry":{"x":165629.55000000075,"y":2569577.3100000024}},{"attributes":{"ID":632441,"DIS_CODE":0,"TOWNNAME":"學甲區","LI":"新榮里","LIN":"7鄰","STREET":"建國東路","SECT":" ","MAREA":" ","LANE":" ","ALLEY":" ","HOUSE_NO":"１６號","E_COORD97":166903.29000000001,"N_COORD97":2569924.5099999998,"ADDRESS":"建國東路１６號","OBJECTID":632414},"geometry":{"x":166903.29000000097,"y":2569924.5100000016}},{"attributes":{"ID":632442,"DIS_CODE":0,"TOWNNAME":"學甲區","LI":"新榮里","LIN":"7鄰","STREET":"建國東路","SECT":" ","MAREA":" ","LANE":" ","ALLEY":" ","HOUSE_NO":"１８號","E_COORD97":166899.16,"N_COORD97":2569924.79,"ADDRESS":"建國東路１８號","OBJECTID":632415},"geometry":{"x":166899.16000000108,"y":2569924.790000001}},{"attributes":{"ID":632443,"DIS_CODE":0,"TOWNNAME":"學甲區","LI":"慈福里","LIN":"1鄰","STREET":"建國東路","SECT":" ","MAREA":" ","LANE":" ","ALLEY":" ","HOUSE_NO":"１９１號之１","E_COORD97":166395.23000000001,"N_COORD97":2569944.52,"ADDRESS":"建國東路１９１號之１","OBJECTID":632416},"geometry":{"x":166395.23000000138,"y":2569944.5200000014}},{"attributes":{"ID":632444,"DIS_CODE":0,"TOWNNAME":"學甲區","LI":"明宜里","LIN":"10鄰","STREET":"信義路","SECT":" ","MAREA":" ","LANE":" ","ALLEY":" ","HOUSE_NO":"６２號","E_COORD97":165912.98000000001,"N_COORD97":2570513.2799999998,"ADDRESS":"信義路６２號","OBJECTID":632417},"geometry":{"x":165912.98000000045,"y":2570513.2799999993}},{"attributes":{"ID":632445,"DIS_CODE":0,"TOWNNAME":"學甲區","LI":"明宜里","LIN":"10鄰","STREET":"信義路","SECT":" ","MAREA":" ","LANE":" ","ALLEY":" ","HOUSE_NO":"６４號","E_COORD97":165932.16,"N_COORD97":2570506.1499999999,"ADDRESS":"信義路６４號","OBJECTID":632418},"geometry":{"x":165932.16000000015,"y":2570506.1500000022}},{"attributes":{"ID":632446,"DIS_CODE":0,"TOWNNAME":"學甲區","LI":"明宜里","LIN":"10鄰","STREET":"信義路","SECT":" ","MAREA":" ","LANE":" ","ALLEY":" ","HOUSE_NO":"６６號之１","E_COORD97":165914.51000000001,"N_COORD97":2570522.2400000002,"ADDRESS":"信義路６６號之１","OBJECTID":632419},"geometry":{"x":165914.51000000071,"y":2570522.2400000039}},{"attributes":{"ID":632447,"DIS_CODE":0,"TOWNNAME":"學甲區","LI":"明宜里","LIN":"10鄰","STREET":"信義路","SECT":" ","MAREA":" ","LANE":" ","ALLEY":" ","HOUSE_NO":"６６號","E_COORD97":165915.73000000001,"N_COORD97":2570529.02,"ADDRESS":"信義路６６號","OBJECTID":632420},"geometry":{"x":165915.73000000138,"y":2570529.0199999996}},{"attributes":{"ID":632448,"DIS_CODE":0,"TOWNNAME":"學甲區","LI":"明宜里","LIN":"21鄰","STREET":"信義路","SECT":" ","MAREA":" ","LANE":" ","ALLEY":" ","HOUSE_NO":"６７號","E_COORD97":165899.35999999999,"N_COORD97":2570588,"ADDRESS":"信義路６７號","OBJECTID":632421},"geometry":{"x":165899.36000000127,"y":2570588.0000000037}},{"attributes":{"ID":632449,"DIS_CODE":0,"TOWNNAME":"學甲區","LI":"明宜里","LIN":"21鄰","STREET":"信義路","SECT":" ","MAREA":" ","LANE":" ","ALLEY":" ","HOUSE_NO":"６９號","E_COORD97":165893.01999999999,"N_COORD97":2570597.1800000002,"ADDRESS":"信義路６９號","OBJECTID":632422},"geometry":{"x":165893.01999999955,"y":2570597.1800000016}},{"attributes":{"ID":632450,"DIS_CODE":0,"TOWNNAME":"學甲區","LI":"明宜里","LIN":"21鄰","STREET":"信義路","SECT":" ","MAREA":" ","LANE":" ","ALLEY":" ","HOUSE_NO":"７１號","E_COORD97":165908.26000000001,"N_COORD97":2570601.9700000002,"ADDRESS":"信義路７１號","OBJECTID":632423},"geometry":{"x":165908.26000000071,"y":2570601.9700000007}},{"attributes":{"ID":632451,"DIS_CODE":0,"TOWNNAME":"學甲區","LI":"明宜里","LIN":"9鄰","STREET":"信義路","SECT":" ","MAREA":" ","LANE":" ","ALLEY":" ","HOUSE_NO":"６３號","E_COORD97":165890.26000000001,"N_COORD97":2570533.2599999998,"ADDRESS":"信義路６３號","OBJECTID":632424},"geometry":{"x":165890.25999999978,"y":2570533.2600000016}},{"attributes":{"ID":632452,"DIS_CODE":0,"TOWNNAME":"學甲區","LI":"慈福里","LIN":"9鄰","STREET":"建國東路","SECT":" ","MAREA":" ","LANE":" ","ALLEY":" ","HOUSE_NO":"１５２號","E_COORD97":166655.48999999999,"N_COORD97":2569951.23,"ADDRESS":"建國東路１５２號","OBJECTID":632425},"geometry":{"x":166655.49000000022,"y":2569951.2300000004}},{"attributes":{"ID":632453,"DIS_CODE":0,"TOWNNAME":"學甲區","LI":"明宜里","LIN":"15鄰","STREET":"重信路","SECT":" ","MAREA":" ","LANE":" ","ALLEY":" ","HOUSE_NO":"１號之２","E_COORD97":166116.32000000001,"N_COORD97":2570566.5699999998,"ADDRESS":"重信路１號之２","OBJECTID":632426},"geometry":{"x":166116.32000000216,"y":2570566.5700000003}},{"attributes":{"ID":632454,"DIS_CODE":0,"TOWNNAME":"學甲區","LI":"明宜里","LIN":"15鄰","STREET":"重信路","SECT":" ","MAREA":" ","LANE":" ","ALLEY":" ","HOUSE_NO":"１號之３","E_COORD97":166112.54999999999,"N_COORD97":2570567.0299999998,"ADDRESS":"重信路１號之３","OBJECTID":632427},"geometry":{"x":166112.55000000168,"y":2570567.0300000012}},{"attributes":{"ID":632455,"DIS_CODE":0,"TOWNNAME":"學甲區","LI":"明宜里","LIN":"15鄰","STREET":"重信路","SECT":" ","MAREA":" ","LANE":" ","ALLEY":" ","HOUSE_NO":"１號之４","E_COORD97":166109.98000000001,"N_COORD97":2570552.29,"ADDRESS":"重信路１號之４","OBJECTID":632428},"geometry":{"x":166109.98000000045,"y":2570552.290000001}},{"attributes":{"ID":632456,"DIS_CODE":0,"TOWNNAME":"學甲區","LI":"明宜里","LIN":"15鄰","STREET":"重信路","SECT":" ","MAREA":" ","LANE":" ","ALLEY":" ","HOUSE_NO":"１號之５","E_COORD97":166106.39000000001,"N_COORD97":2570552.8799999999,"ADDRESS":"重信路１號之５","OBJECTID":632429},"geometry":{"x":166106.38999999966,"y":2570552.879999999}},{"attributes":{"ID":632457,"DIS_CODE":0,"TOWNNAME":"學甲區","LI":"明宜里","LIN":"15鄰","STREET":"重信路","SECT":" ","MAREA":" ","LANE":" ","ALLEY":" ","HOUSE_NO":"１號","E_COORD97":166124.82999999999,"N_COORD97":2570564.8900000001,"ADDRESS":"重信路１號","OBJECTID":632430},"geometry":{"x":166124.83000000101,"y":2570564.8900000006}},{"attributes":{"ID":632458,"DIS_CODE":0,"TOWNNAME":"學甲區","LI":"明宜里","LIN":"15鄰","STREET":"重信路","SECT":" ","MAREA":" ","LANE":" ","ALLEY":" ","HOUSE_NO":"１號地下室之２","E_COORD97":166124.82999999999,"N_COORD97":2570564.8900000001,"ADDRESS":"重信路１號地下室之２","OBJECTID":632431},"geometry":{"x":166124.83000000101,"y":2570564.8900000006}},{"attributes":{"ID":632459,"DIS_CODE":0,"TOWNNAME":"學甲區","LI":"明宜里","LIN":"19鄰","STREET":"重信路","SECT":" ","MAREA":" ","LANE":" ","ALLEY":" ","HOUSE_NO":"１５號","E_COORD97":166009.57999999999,"N_COORD97":2570587.8700000001,"ADDRESS":"重信路１５號","OBJECTID":632432},"geometry":{"x":166009.58000000101,"y":2570587.8700000029}},{"attributes":{"ID":632460,"DIS_CODE":0,"TOWNNAME":"學甲區","LI":"明宜里","LIN":"19鄰","STREET":"重信路","SECT":" ","MAREA":" ","LANE":" ","ALLEY":" ","HOUSE_NO":"１６號","E_COORD97":166001.60000000001,"N_COORD97":2570626,"ADDRESS":"重信路１６號","OBJECTID":632433},"geometry":{"x":166001.5999999987,"y":2570626.0000000019}},{"attributes":{"ID":632461,"DIS_CODE":0,"TOWNNAME":"北區","LI":"東興里","LIN":"6鄰","STREET":"小東路","SECT":" ","MAREA":" ","LANE":" ","ALLEY":" ","HOUSE_NO":"２７１號","E_COORD97":170947.51999999999,"N_COORD97":2544473.3199999998,"ADDRESS":"小東路２７１號","OBJECTID":632434},"geometry":{"x":170947.52000000048,"y":2544473.320000004}},{"attributes":{"ID":632462,"DIS_CODE":0,"TOWNNAME":"北區","LI":"大豐里","LIN":"8鄰","STREET":"文賢路","SECT":" ","MAREA":" ","LANE":" ","ALLEY":" ","HOUSE_NO":"３１９號","E_COORD97":167323.25,"N_COORD97":2545263.4700000002,"ADDRESS":"文賢路３１９號","OBJECTID":632435},"geometry":{"x":167323.24999999907,"y":2545263.4700000025}},{"attributes":{"ID":632463,"DIS_CODE":0,"TOWNNAME":"北區","LI":"和順里","LIN":"8鄰","STREET":"育德路","SECT":" ","MAREA":" ","LANE":" ","ALLEY":" ","HOUSE_NO":"２１號之２","E_COORD97":168297.63,"N_COORD97":2545185.0800000001,"ADDRESS":"育德路２１號之２","OBJECTID":632436},"geometry":{"x":168297.63000000082,"y":2545185.0800000001}},{"attributes":{"ID":632464,"DIS_CODE":0,"TOWNNAME":"北區","LI":"和順里","LIN":"8鄰","STREET":"育德路","SECT":" ","MAREA":" ","LANE":" ","ALLEY":" ","HOUSE_NO":"２３號之２","E_COORD97":168302.45000000001,"N_COORD97":2545191.96,"ADDRESS":"育德路２３號之２","OBJECTID":632437},"geometry":{"x":168302.45000000112,"y":2545191.9600000046}},{"attributes":{"ID":632465,"DIS_CODE":0,"TOWNNAME":"北區","LI":"和順里","LIN":"8鄰","STREET":"育德路","SECT":" ","MAREA":" ","LANE":" ","ALLEY":" ","HOUSE_NO":"２５號","E_COORD97":168306.73000000001,"N_COORD97":2545198.02,"ADDRESS":"育德路２５號","OBJECTID":632438},"geometry":{"x":168306.73000000045,"y":2545198.0200000014}},{"attributes":{"ID":632466,"DIS_CODE":0,"TOWNNAME":"北區","LI":"和順里","LIN":"8鄰","STREET":"育德路","SECT":" ","MAREA":" ","LANE":" ","ALLEY":" ","HOUSE_NO":"２９號","E_COORD97":168315.95999999999,"N_COORD97":2545211.9900000002,"ADDRESS":"育德路２９號","OBJECTID":632439},"geometry":{"x":168315.96000000089,"y":2545211.9900000021}},{"attributes":{"ID":632467,"DIS_CODE":0,"TOWNNAME":"北區","LI":"和順里","LIN":"7鄰","STREET":"育德路","SECT":" ","MAREA":" ","LANE":" ","ALLEY":" ","HOUSE_NO":"２２號之１","E_COORD97":168337.03,"N_COORD97":2545188.48,"ADDRESS":"育德路２２號之１","OBJECTID":632440},"geometry":{"x":168337.02999999933,"y":2545188.4800000023}},{"attributes":{"ID":632468,"DIS_CODE":0,"TOWNNAME":"北區","LI":"和順里","LIN":"7鄰","STREET":"育德路","SECT":" ","MAREA":" ","LANE":" ","ALLEY":" ","HOUSE_NO":"１８號","E_COORD97":168325.89000000001,"N_COORD97":2545172.7599999998,"ADDRESS":"育德路１８號","OBJECTID":632441},"geometry":{"x":168325.8900000006,"y":2545172.7600000016}},{"attributes":{"ID":632469,"DIS_CODE":0,"TOWNNAME":"北區","LI":"和順里","LIN":"14鄰","STREET":"民德路","SECT":" ","MAREA":" ","LANE":" ","ALLEY":" ","HOUSE_NO":"１０３號之３","E_COORD97":168184.60000000001,"N_COORD97":2545159.5600000001,"ADDRESS":"民德路１０３號之３","OBJECTID":632442},"geometry":{"x":168184.59999999963,"y":2545159.5600000005}},{"attributes":{"ID":632470,"DIS_CODE":0,"TOWNNAME":"學甲區","LI":"明宜里","LIN":"6鄰","STREET":"宮西路","SECT":" ","MAREA":" ","LANE":" ","ALLEY":" ","HOUSE_NO":"３７號","E_COORD97":165859.01999999999,"N_COORD97":2570435.6000000001,"ADDRESS":"宮西路３７號","OBJECTID":632443},"geometry":{"x":165859.01999999955,"y":2570435.6000000015}},{"attributes":{"ID":632471,"DIS_CODE":0,"TOWNNAME":"學甲區","LI":"明宜里","LIN":"6鄰","STREET":"宮西路","SECT":" ","MAREA":" ","LANE":" ","ALLEY":" ","HOUSE_NO":"３９號","E_COORD97":165854.25,"N_COORD97":2570435.29,"ADDRESS":"宮西路３９號","OBJECTID":632444},"geometry":{"x":165854.25000000093,"y":2570435.2899999991}},{"attributes":{"ID":632472,"DIS_CODE":0,"TOWNNAME":"學甲區","LI":"明宜里","LIN":"6鄰","STREET":"宮西路","SECT":" ","MAREA":" ","LANE":" ","ALLEY":" ","HOUSE_NO":"４５號之２","E_COORD97":165837.29999999999,"N_COORD97":2570433.3999999999,"ADDRESS":"宮西路４５號之２","OBJECTID":632445},"geometry":{"x":165837.29999999981,"y":2570433.4000000022}},{"attributes":{"ID":632473,"DIS_CODE":0,"TOWNNAME":"學甲區","LI":"明宜里","LIN":"6鄰","STREET":"宮西路","SECT":" ","MAREA":" ","LANE":" ","ALLEY":" ","HOUSE_NO":"４５號之４","E_COORD97":165826.82999999999,"N_COORD97":2570430.5699999998,"ADDRESS":"宮西路４５號之４","OBJECTID":632446},"geometry":{"x":165826.83000000101,"y":2570430.5700000003}},{"attributes":{"ID":632474,"DIS_CODE":0,"TOWNNAME":"北區","LI":"實踐里","LIN":"14鄰","STREET":"大武街","SECT":" ","MAREA":" ","LANE":" ","ALLEY":" ","HOUSE_NO":"１６１號之１","E_COORD97":169583.57000000001,"N_COORD97":2546010.2599999998,"ADDRESS":"大武街１６１號之１","OBJECTID":632447},"geometry":{"x":169583.57000000123,"y":2546010.2600000016}},{"attributes":{"ID":632475,"DIS_CODE":0,"TOWNNAME":"北區","LI":"和順里","LIN":"4鄰","STREET":"民德路","SECT":" ","MAREA":" ","LANE":" ","ALLEY":" ","HOUSE_NO":"４號","E_COORD97":168427.51000000001,"N_COORD97":2544972.4100000001,"ADDRESS":"民德路４號","OBJECTID":632448},"geometry":{"x":168427.50999999978,"y":2544972.410000002}},{"attributes":{"ID":632476,"DIS_CODE":0,"TOWNNAME":"北區","LI":"實踐里","LIN":"14鄰","STREET":"大武街","SECT":" ","MAREA":" ","LANE":" ","ALLEY":" ","HOUSE_NO":"１６９號","E_COORD97":169600.98000000001,"N_COORD97":2546008,"ADDRESS":"大武街１６９號","OBJECTID":632449},"geometry":{"x":169600.98000000138,"y":2546008.0000000019}},{"attributes":{"ID":632477,"DIS_CODE":0,"TOWNNAME":"北區","LI":"實踐里","LIN":"14鄰","STREET":"大武街","SECT":" ","MAREA":" ","LANE":" ","ALLEY":" ","HOUSE_NO":"１７１號","E_COORD97":169596.01999999999,"N_COORD97":2545982.4700000002,"ADDRESS":"大武街１７１號","OBJECTID":632450},"geometry":{"x":169596.02000000142,"y":2545982.4700000025}},{"attributes":{"ID":632478,"DIS_CODE":0,"TOWNNAME":"北區","LI":"實踐里","LIN":"14鄰","STREET":"大武街","SECT":" ","MAREA":" ","LANE":" ","ALLEY":" ","HOUSE_NO":"２０１號","E_COORD97":169623.89999999999,"N_COORD97":2546041.7200000002,"ADDRESS":"大武街２０１號","OBJECTID":632451},"geometry":{"x":169623.9000000013,"y":2546041.7200000025}},{"attributes":{"ID":632479,"DIS_CODE":0,"TOWNNAME":"北區","LI":"實踐里","LIN":"14鄰","STREET":"大武街","SECT":" ","MAREA":" ","LANE":" ","ALLEY":" ","HOUSE_NO":"２０１號之１","E_COORD97":169624.48999999999,"N_COORD97":2546046.4500000002,"ADDRESS":"大武街２０１號之１","OBJECTID":632452},"geometry":{"x":169624.49000000115,"y":2546046.4499999993}},{"attributes":{"ID":632480,"DIS_CODE":0,"TOWNNAME":"北區","LI":"和順里","LIN":"14鄰","STREET":"民德路","SECT":" ","MAREA":" ","LANE":" ","ALLEY":" ","HOUSE_NO":"９９號之３","E_COORD97":168202.16,"N_COORD97":2545148,"ADDRESS":"民德路９９號之３","OBJECTID":632453},"geometry":{"x":168202.16000000201,"y":2545148.0000000019}},{"attributes":{"ID":632481,"DIS_CODE":0,"TOWNNAME":"北區","LI":"和順里","LIN":"8鄰","STREET":"育德路","SECT":" ","MAREA":" ","LANE":" ","ALLEY":" ","HOUSE_NO":"２７號","E_COORD97":168311,"N_COORD97":2545205.1099999999,"ADDRESS":"育德路２７號","OBJECTID":632454},"geometry":{"x":168311,"y":2545205.1099999994}},{"attributes":{"ID":632482,"DIS_CODE":0,"TOWNNAME":"北區","LI":"和順里","LIN":"7鄰","STREET":"育德路","SECT":" ","MAREA":" ","LANE":" ","ALLEY":" ","HOUSE_NO":"１０號","E_COORD97":168306.26000000001,"N_COORD97":2545141.1800000002,"ADDRESS":"育德路１０號","OBJECTID":632455},"geometry":{"x":168306.26000000164,"y":2545141.1799999997}},{"attributes":{"ID":632483,"DIS_CODE":0,"TOWNNAME":"北區","LI":"和順里","LIN":"7鄰","STREET":"育德路","SECT":" ","MAREA":" ","LANE":" ","ALLEY":" ","HOUSE_NO":"１２號","E_COORD97":168309.17000000001,"N_COORD97":2545145.0499999998,"ADDRESS":"育德路１２號","OBJECTID":632456},"geometry":{"x":168309.17000000086,"y":2545145.0500000026}},{"attributes":{"ID":632484,"DIS_CODE":0,"TOWNNAME":"北區","LI":"和順里","LIN":"7鄰","STREET":"育德路","SECT":" ","MAREA":" ","LANE":" ","ALLEY":" ","HOUSE_NO":"１４號","E_COORD97":168313.04999999999,"N_COORD97":2545147.9500000002,"ADDRESS":"育德路１４號","OBJECTID":632457},"geometry":{"x":168313.05000000075,"y":2545147.9499999993}},{"attributes":{"ID":632485,"DIS_CODE":0,"TOWNNAME":"北區","LI":"和順里","LIN":"7鄰","STREET":"育德路","SECT":" ","MAREA":" ","LANE":" ","ALLEY":" ","HOUSE_NO":"１６號","E_COORD97":168320.56,"N_COORD97":2545165.0099999998,"ADDRESS":"育德路１６號","OBJECTID":632458},"geometry":{"x":168320.55999999959,"y":2545165.0099999998}},{"attributes":{"ID":632486,"DIS_CODE":0,"TOWNNAME":"北區","LI":"和順里","LIN":"7鄰","STREET":"育德路","SECT":" ","MAREA":" ","LANE":" ","ALLEY":" ","HOUSE_NO":"２０號","E_COORD97":168330.73000000001,"N_COORD97":2545180.5,"ADDRESS":"育德路２０號","OBJECTID":632459},"geometry":{"x":168330.73000000045,"y":2545180.5000000037}},{"attributes":{"ID":632487,"DIS_CODE":0,"TOWNNAME":"北區","LI":"和順里","LIN":"7鄰","STREET":"育德路","SECT":" ","MAREA":" ","LANE":" ","ALLEY":" ","HOUSE_NO":"２４號","E_COORD97":168341.63,"N_COORD97":2545196.23,"ADDRESS":"育德路２４號","OBJECTID":632460},"geometry":{"x":168341.63000000082,"y":2545196.2300000042}},{"attributes":{"ID":632488,"DIS_CODE":0,"TOWNNAME":"北區","LI":"和順里","LIN":"19鄰","STREET":"民德路","SECT":" ","MAREA":" ","LANE":" ","ALLEY":" ","HOUSE_NO":"８７號","E_COORD97":168248.28,"N_COORD97":2545106.3500000001,"ADDRESS":"民德路８７號","OBJECTID":632461},"geometry":{"x":168248.28000000026,"y":2545106.3500000034}},{"attributes":{"ID":632489,"DIS_CODE":0,"TOWNNAME":"北區","LI":"和順里","LIN":"19鄰","STREET":"民德路","SECT":" ","MAREA":" ","LANE":" ","ALLEY":" ","HOUSE_NO":"８９號","E_COORD97":168243.09,"N_COORD97":2545113.1299999999,"ADDRESS":"民德路８９號","OBJECTID":632462},"geometry":{"x":168243.09000000171,"y":2545113.129999999}},{"attributes":{"ID":632490,"DIS_CODE":0,"TOWNNAME":"楠西區","LI":"楠西里","LIN":"1鄰","STREET":"民族路","SECT":" ","MAREA":" ","LANE":" ","ALLEY":" ","HOUSE_NO":"９２號","E_COORD97":197027.34,"N_COORD97":2564063.29,"ADDRESS":"民族路９２號","OBJECTID":632463},"geometry":{"x":197027.34000000171,"y":2564063.290000001}},{"attributes":{"ID":632491,"DIS_CODE":0,"TOWNNAME":"北區","LI":"和順里","LIN":"4鄰","STREET":"民德路","SECT":" ","MAREA":" ","LANE":" ","ALLEY":" ","HOUSE_NO":"６號","E_COORD97":168424.19,"N_COORD97":2544975.1899999999,"ADDRESS":"民德路６號","OBJECTID":632464},"geometry":{"x":168424.19000000041,"y":2544975.1900000032}},{"attributes":{"ID":632492,"DIS_CODE":0,"TOWNNAME":"北區","LI":"和順里","LIN":"22鄰","STREET":"臨安路","SECT":"二段","MAREA":" ","LANE":" ","ALLEY":" ","HOUSE_NO":"３３７號","E_COORD97":168264.51000000001,"N_COORD97":2545066.1099999999,"ADDRESS":"臨安路二段３３７號","OBJECTID":632465},"geometry":{"x":168264.51000000071,"y":2545066.1099999994}},{"attributes":{"ID":632493,"DIS_CODE":0,"TOWNNAME":"北區","LI":"和順里","LIN":"22鄰","STREET":"臨安路","SECT":"二段","MAREA":" ","LANE":" ","ALLEY":" ","HOUSE_NO":"３３９號","E_COORD97":168268.82000000001,"N_COORD97":2545067.1200000001,"ADDRESS":"臨安路二段３３９號","OBJECTID":632466},"geometry":{"x":168268.8200000003,"y":2545067.120000001}},{"attributes":{"ID":632494,"DIS_CODE":0,"TOWNNAME":"北區","LI":"和順里","LIN":"22鄰","STREET":"臨安路","SECT":"二段","MAREA":" ","LANE":" ","ALLEY":" ","HOUSE_NO":"３４１號","E_COORD97":168272.28,"N_COORD97":2545068.5600000001,"ADDRESS":"臨安路二段３４１號","OBJECTID":632467},"geometry":{"x":168272.28000000026,"y":2545068.5600000042}},{"attributes":{"ID":632495,"DIS_CODE":0,"TOWNNAME":"楠西區","LI":"楠西里","LIN":"25鄰","STREET":"博愛路","SECT":" ","MAREA":" ","LANE":" ","ALLEY":" ","HOUSE_NO":"７８號","E_COORD97":197301.72,"N_COORD97":2563467.2799999998,"ADDRESS":"博愛路７８號","OBJECTID":632468},"geometry":{"x":197301.72000000067,"y":2563467.2799999993}},{"attributes":{"ID":632496,"DIS_CODE":0,"TOWNNAME":"北區","LI":"和順里","LIN":"22鄰","STREET":"臨安路","SECT":"二段","MAREA":" ","LANE":" ","ALLEY":" ","HOUSE_NO":"３４３號","E_COORD97":168276.73999999999,"N_COORD97":2545069.4199999999,"ADDRESS":"臨安路二段３４３號","OBJECTID":632469},"geometry":{"x":168276.74000000115,"y":2545069.4200000018}},{"attributes":{"ID":632497,"DIS_CODE":0,"TOWNNAME":"楠西區","LI":"楠西里","LIN":"25鄰","STREET":"四維路","SECT":" ","MAREA":" ","LANE":" ","ALLEY":" ","HOUSE_NO":"１３號","E_COORD97":197324.91,"N_COORD97":2563499.25,"ADDRESS":"四維路１３號","OBJECTID":632470},"geometry":{"x":197324.91000000015,"y":2563499.25}},{"attributes":{"ID":632498,"DIS_CODE":0,"TOWNNAME":"北區","LI":"正覺里","LIN":"8鄰","STREET":"北安路","SECT":"一段","MAREA":" ","LANE":" ","ALLEY":" ","HOUSE_NO":"９號","E_COORD97":169291.62,"N_COORD97":2546150.96,"ADDRESS":"北安路一段９號","OBJECTID":632471},"geometry":{"x":169291.62000000011,"y":2546150.959999999}},{"attributes":{"ID":632499,"DIS_CODE":0,"TOWNNAME":"北區","LI":"正覺里","LIN":"8鄰","STREET":"北安路","SECT":"一段","MAREA":" ","LANE":" ","ALLEY":" ","HOUSE_NO":"８９號","E_COORD97":169137.38,"N_COORD97":2546271.8100000001,"ADDRESS":"北安路一段８９號","OBJECTID":632472},"geometry":{"x":169137.37999999989,"y":2546271.8100000024}},{"attributes":{"ID":632500,"DIS_CODE":0,"TOWNNAME":"北區","LI":"裕民里","LIN":"6鄰","STREET":"臨安路","SECT":"二段","MAREA":" ","LANE":" ","ALLEY":" ","HOUSE_NO":"５２號","E_COORD97":167656.64000000001,"N_COORD97":2544793.77,"ADDRESS":"臨安路二段５２號","OBJECTID":632473},"geometry":{"x":167656.6400000006,"y":2544793.7699999996}},{"attributes":{"ID":632501,"DIS_CODE":0,"TOWNNAME":"北區","LI":"裕民里","LIN":"6鄰","STREET":"臨安路","SECT":"二段","MAREA":" ","LANE":" ","ALLEY":" ","HOUSE_NO":"５４號","E_COORD97":167657.29000000001,"N_COORD97":2544795.9399999999,"ADDRESS":"臨安路二段５４號","OBJECTID":632474},"geometry":{"x":167657.29000000097,"y":2544795.9399999995}},{"attributes":{"ID":632502,"DIS_CODE":0,"TOWNNAME":"北區","LI":"裕民里","LIN":"6鄰","STREET":"臨安路","SECT":"二段","MAREA":" ","LANE":" ","ALLEY":" ","HOUSE_NO":"５６號","E_COORD97":167658.95000000001,"N_COORD97":2544799.1800000002,"ADDRESS":"臨安路二段５６號","OBJECTID":632475},"geometry":{"x":167658.95000000019,"y":2544799.1800000034}},{"attributes":{"ID":632503,"DIS_CODE":0,"TOWNNAME":"北區","LI":"裕民里","LIN":"6鄰","STREET":"臨安路","SECT":"二段","MAREA":" ","LANE":" ","ALLEY":" ","HOUSE_NO":"５８號","E_COORD97":167665.64000000001,"N_COORD97":2544801.29,"ADDRESS":"臨安路二段５８號","OBJECTID":632476},"geometry":{"x":167665.63999999966,"y":2544801.2900000028}},{"attributes":{"ID":632504,"DIS_CODE":0,"TOWNNAME":"北區","LI":"和順里","LIN":"4鄰","STREET":"民德路","SECT":" ","MAREA":" ","LANE":" ","ALLEY":" ","HOUSE_NO":"２號","E_COORD97":168429.95000000001,"N_COORD97":2544967.5299999998,"ADDRESS":"民德路２號","OBJECTID":632477},"geometry":{"x":168429.95000000112,"y":2544967.5300000012}},{"attributes":{"ID":632505,"DIS_CODE":0,"TOWNNAME":"北區","LI":"實踐里","LIN":"14鄰","STREET":"大武街","SECT":" ","MAREA":" ","LANE":" ","ALLEY":" ","HOUSE_NO":"１５９號之３","E_COORD97":169588.64000000001,"N_COORD97":2545982.77,"ADDRESS":"大武街１５９號之３","OBJECTID":632478},"geometry":{"x":169588.6400000006,"y":2545982.7700000014}},{"attributes":{"ID":632506,"DIS_CODE":0,"TOWNNAME":"北區","LI":"六甲里","LIN":"18鄰","STREET":"公園路","SECT":" ","MAREA":" ","LANE":" ","ALLEY":" ","HOUSE_NO":"５８９號之１１","E_COORD97":169130.57000000001,"N_COORD97":2545800.8199999998,"ADDRESS":"公園路５８９號之１１","OBJECTID":632479},"geometry":{"x":169130.57000000123,"y":2545800.8200000003}},{"attributes":{"ID":632507,"DIS_CODE":0,"TOWNNAME":"北區","LI":"東興里","LIN":"6鄰","STREET":"小東路","SECT":" ","MAREA":" ","LANE":" ","ALLEY":" ","HOUSE_NO":"２９５號之１","E_COORD97":171062.23000000001,"N_COORD97":2544435.5899999999,"ADDRESS":"小東路２９５號之１","OBJECTID":632480},"geometry":{"x":171062.23000000138,"y":2544435.5899999999}},{"attributes":{"ID":632508,"DIS_CODE":0,"TOWNNAME":"北區","LI":"東興里","LIN":"6鄰","STREET":"小東路","SECT":" ","MAREA":" ","LANE":" ","ALLEY":" ","HOUSE_NO":"２９５號之２","E_COORD97":171066.12,"N_COORD97":2544433.9399999999,"ADDRESS":"小東路２９５號之２","OBJECTID":632481},"geometry":{"x":171066.12000000104,"y":2544433.9399999995}},{"attributes":{"ID":632509,"DIS_CODE":0,"TOWNNAME":"北區","LI":"東興里","LIN":"6鄰","STREET":"小東路","SECT":" ","MAREA":" ","LANE":" ","ALLEY":" ","HOUSE_NO":"２９５號之３","E_COORD97":171070.01000000001,"N_COORD97":2544432.9700000002,"ADDRESS":"小東路２９５號之３","OBJECTID":632482},"geometry":{"x":171070.01000000071,"y":2544432.9700000025}},{"attributes":{"ID":632510,"DIS_CODE":0,"TOWNNAME":"北區","LI":"東興里","LIN":"6鄰","STREET":"小東路","SECT":" ","MAREA":" ","LANE":" ","ALLEY":" ","HOUSE_NO":"２９７號","E_COORD97":171073.81,"N_COORD97":2544431.5099999998,"ADDRESS":"小東路２９７號","OBJECTID":632483},"geometry":{"x":171073.80999999866,"y":2544431.5100000016}},{"attributes":{"ID":632511,"DIS_CODE":0,"TOWNNAME":"北區","LI":"正覺里","LIN":"8鄰","STREET":"北安路","SECT":"一段","MAREA":" ","LANE":" ","ALLEY":" ","HOUSE_NO":"３３號","E_COORD97":169252.14000000001,"N_COORD97":2546179.9500000002,"ADDRESS":"北安路一段３３號","OBJECTID":632484},"geometry":{"x":169252.13999999966,"y":2546179.950000003}},{"attributes":{"ID":632512,"DIS_CODE":0,"TOWNNAME":"北區","LI":"正覺里","LIN":"8鄰","STREET":"北安路","SECT":"一段","MAREA":" ","LANE":" ","ALLEY":" ","HOUSE_NO":"３３號之１","E_COORD97":169248.20000000001,"N_COORD97":2546183.1600000001,"ADDRESS":"北安路一段３３號之１","OBJECTID":632485},"geometry":{"x":169248.20000000112,"y":2546183.1600000039}},{"attributes":{"ID":632513,"DIS_CODE":0,"TOWNNAME":"北區","LI":"國興里","LIN":"1鄰","STREET":"開元路","SECT":" ","MAREA":" ","LANE":" ","ALLEY":" ","HOUSE_NO":"３６６號","E_COORD97":170517.48000000001,"N_COORD97":2545589.73,"ADDRESS":"開元路３６６號","OBJECTID":632486},"geometry":{"x":170517.48000000045,"y":2545589.7300000042}},{"attributes":{"ID":632514,"DIS_CODE":0,"TOWNNAME":"北區","LI":"大仁里","LIN":"1鄰","STREET":"北門路","SECT":"二段","MAREA":" ","LANE":" ","ALLEY":" ","HOUSE_NO":"２２０號","E_COORD97":169492.48000000001,"N_COORD97":2545179.1899999999,"ADDRESS":"北門路二段２２０號","OBJECTID":632487},"geometry":{"x":169492.48000000138,"y":2545179.1900000013}},{"attributes":{"ID":632515,"DIS_CODE":0,"TOWNNAME":"北區","LI":"大仁里","LIN":"1鄰","STREET":"北門路","SECT":"二段","MAREA":" ","LANE":" ","ALLEY":" ","HOUSE_NO":"２２２號","E_COORD97":169490.20000000001,"N_COORD97":2545182.2799999998,"ADDRESS":"北門路二段２２２號","OBJECTID":632488},"geometry":{"x":169490.19999999925,"y":2545182.2800000012}},{"attributes":{"ID":632516,"DIS_CODE":0,"TOWNNAME":"北區","LI":"大仁里","LIN":"1鄰","STREET":"北門路","SECT":"二段","MAREA":" ","LANE":" ","ALLEY":" ","HOUSE_NO":"２２４號","E_COORD97":169480.29000000001,"N_COORD97":2545187.21,"ADDRESS":"北門路二段２２４號","OBJECTID":632489},"geometry":{"x":169480.29000000004,"y":2545187.2100000028}},{"attributes":{"ID":632517,"DIS_CODE":0,"TOWNNAME":"北區","LI":"大仁里","LIN":"1鄰","STREET":"北門路","SECT":"二段","MAREA":" ","LANE":" ","ALLEY":" ","HOUSE_NO":"２２６號","E_COORD97":169481.67999999999,"N_COORD97":2545190.6000000001,"ADDRESS":"北門路二段２２６號","OBJECTID":632490},"geometry":{"x":169481.68000000063,"y":2545190.6000000015}},{"attributes":{"ID":632518,"DIS_CODE":0,"TOWNNAME":"北區","LI":"大仁里","LIN":"1鄰","STREET":"北門路","SECT":"二段","MAREA":" ","LANE":" ","ALLEY":" ","HOUSE_NO":"２２８號","E_COORD97":169483.07000000001,"N_COORD97":2545194.3300000001,"ADDRESS":"北門路二段２２８號","OBJECTID":632491},"geometry":{"x":169483.07000000123,"y":2545194.3300000001}},{"attributes":{"ID":632519,"DIS_CODE":0,"TOWNNAME":"北區","LI":"大仁里","LIN":"1鄰","STREET":"北門路","SECT":"二段","MAREA":" ","LANE":" ","ALLEY":" ","HOUSE_NO":"２３０號","E_COORD97":169484.98000000001,"N_COORD97":2545198.0699999998,"ADDRESS":"北門路二段２３０號","OBJECTID":632492},"geometry":{"x":169484.98000000045,"y":2545198.0700000022}},{"attributes":{"ID":632520,"DIS_CODE":0,"TOWNNAME":"北區","LI":"大仁里","LIN":"1鄰","STREET":"北門路","SECT":"二段","MAREA":" ","LANE":" ","ALLEY":" ","HOUSE_NO":"２３２號","E_COORD97":169486.73000000001,"N_COORD97":2545201.73,"ADDRESS":"北門路二段２３２號","OBJECTID":632493},"geometry":{"x":169486.73000000045,"y":2545201.7300000004}},{"attributes":{"ID":632521,"DIS_CODE":0,"TOWNNAME":"北區","LI":"大仁里","LIN":"1鄰","STREET":"北門路","SECT":"二段","MAREA":" ","LANE":" ","ALLEY":" ","HOUSE_NO":"２３４號","E_COORD97":169489.16,"N_COORD97":2545206.0699999998,"ADDRESS":"北門路二段２３４號","OBJECTID":632494},"geometry":{"x":169489.16000000108,"y":2545206.0700000003}},{"attributes":{"ID":632522,"DIS_CODE":0,"TOWNNAME":"北區","LI":"和順里","LIN":"4鄰","STREET":"西門路","SECT":"三段","MAREA":" ","LANE":" ","ALLEY":" ","HOUSE_NO":"１６５號","E_COORD97":168438.01000000001,"N_COORD97":2544956.1000000001,"ADDRESS":"西門路三段１６５號","OBJECTID":632495},"geometry":{"x":168438.00999999978,"y":2544956.1000000015}},{"attributes":{"ID":632523,"DIS_CODE":0,"TOWNNAME":"北區","LI":"和順里","LIN":"4鄰","STREET":"西門路","SECT":"三段","MAREA":" ","LANE":" ","ALLEY":" ","HOUSE_NO":"１６７號","E_COORD97":168441.79999999999,"N_COORD97":2544962.0600000001,"ADDRESS":"西門路三段１６７號","OBJECTID":632496},"geometry":{"x":168441.80000000075,"y":2544962.0600000005}},{"attributes":{"ID":632524,"DIS_CODE":0,"TOWNNAME":"北區","LI":"和順里","LIN":"4鄰","STREET":"西門路","SECT":"三段","MAREA":" ","LANE":" ","ALLEY":" ","HOUSE_NO":"１６９號","E_COORD97":168444.39000000001,"N_COORD97":2544965.4500000002,"ADDRESS":"西門路三段１６９號","OBJECTID":632497},"geometry":{"x":168444.3900000006,"y":2544965.4499999993}},{"attributes":{"ID":632525,"DIS_CODE":0,"TOWNNAME":"北區","LI":"和順里","LIN":"4鄰","STREET":"西門路","SECT":"三段","MAREA":" ","LANE":" ","ALLEY":" ","HOUSE_NO":"１７１號","E_COORD97":168447.57000000001,"N_COORD97":2544969.8199999998,"ADDRESS":"西門路三段１７１號","OBJECTID":632498},"geometry":{"x":168447.57000000123,"y":2544969.8200000022}},{"attributes":{"ID":632526,"DIS_CODE":0,"TOWNNAME":"北區","LI":"和順里","LIN":"4鄰","STREET":"西門路","SECT":"三段","MAREA":" ","LANE":" ","ALLEY":" ","HOUSE_NO":"１７３號","E_COORD97":168450.35999999999,"N_COORD97":2544973.6000000001,"ADDRESS":"西門路三段１７３號","OBJECTID":632499},"geometry":{"x":168450.3600000022,"y":2544973.6000000015}},{"attributes":{"ID":632527,"DIS_CODE":0,"TOWNNAME":"北區","LI":"和順里","LIN":"4鄰","STREET":"西門路","SECT":"三段","MAREA":" ","LANE":" ","ALLEY":" ","HOUSE_NO":"１７５號","E_COORD97":168452.14999999999,"N_COORD97":2544977.3799999999,"ADDRESS":"西門路三段１７５號","OBJECTID":632500},"geometry":{"x":168452.1500000013,"y":2544977.3800000008}},{"attributes":{"ID":632528,"DIS_CODE":0,"TOWNNAME":"北區","LI":"和順里","LIN":"4鄰","STREET":"西門路","SECT":"三段","MAREA":" ","LANE":" ","ALLEY":" ","HOUSE_NO":"１７９號","E_COORD97":168459.17999999999,"N_COORD97":2544986.3399999999,"ADDRESS":"西門路三段１７９號","OBJECTID":632501},"geometry":{"x":168459.17999999877,"y":2544986.3400000017}},{"attributes":{"ID":632529,"DIS_CODE":0,"TOWNNAME":"北區","LI":"和順里","LIN":"4鄰","STREET":"西門路","SECT":"三段","MAREA":" ","LANE":" ","ALLEY":" ","HOUSE_NO":"１８１號","E_COORD97":168461.57000000001,"N_COORD97":2544990.48,"ADDRESS":"西門路三段１８１號","OBJECTID":632502},"geometry":{"x":168461.5700000003,"y":2544990.4800000004}},{"attributes":{"ID":632530,"DIS_CODE":0,"TOWNNAME":"楠西區","LI":"楠西里","LIN":"20鄰","STREET":"民族路","SECT":" ","MAREA":" ","LANE":" ","ALLEY":" ","HOUSE_NO":"４３號","E_COORD97":197035.23999999999,"N_COORD97":2563925.29,"ADDRESS":"民族路４３號","OBJECTID":632503},"geometry":{"x":197035.24000000209,"y":2563925.2899999991}},{"attributes":{"ID":632531,"DIS_CODE":0,"TOWNNAME":"歸仁區","LI":"許厝里","LIN":"26鄰","STREET":"信義北路","SECT":" ","MAREA":" ","LANE":" ","ALLEY":" ","HOUSE_NO":"３４號","E_COORD97":178000.73000000001,"N_COORD97":2540818.23,"ADDRESS":"信義北路３４號","OBJECTID":632504},"geometry":{"x":178000.73000000138,"y":2540818.2300000004}},{"attributes":{"ID":632532,"DIS_CODE":0,"TOWNNAME":"歸仁區","LI":"大潭里","LIN":"4鄰","STREET":"大潭一街","SECT":" ","MAREA":" ","LANE":" ","ALLEY":" ","HOUSE_NO":"７８號","E_COORD97":175280.37,"N_COORD97":2534592.25,"ADDRESS":"大潭一街７８號","OBJECTID":632505},"geometry":{"x":175280.37000000104,"y":2534592.25}},{"attributes":{"ID":632533,"DIS_CODE":0,"TOWNNAME":"歸仁區","LI":"崙頂里","LIN":"18鄰","STREET":"大成一街","SECT":" ","MAREA":" ","LANE":" ","ALLEY":" ","HOUSE_NO":"９３號","E_COORD97":177903.98000000001,"N_COORD97":2540219.9100000001,"ADDRESS":"大成一街９３號","OBJECTID":632506},"geometry":{"x":177903.98000000138,"y":2540219.9100000001}},{"attributes":{"ID":632534,"DIS_CODE":0,"TOWNNAME":"歸仁區","LI":"媽廟里","LIN":"20鄰","STREET":"中正北路","SECT":"三段","MAREA":" ","LANE":" ","ALLEY":" ","HOUSE_NO":"１６４號","E_COORD97":177620.45999999999,"N_COORD97":2543902.7200000002,"ADDRESS":"中正北路三段１６４號","OBJECTID":632507},"geometry":{"x":177620.46000000089,"y":2543902.7200000025}},{"attributes":{"ID":632535,"DIS_CODE":0,"TOWNNAME":"歸仁區","LI":"後市里","LIN":"42鄰","STREET":"民權北路","SECT":" ","MAREA":" ","LANE":" ","ALLEY":" ","HOUSE_NO":"１６號","E_COORD97":177000.01000000001,"N_COORD97":2540899.7799999998,"ADDRESS":"民權北路１６號","OBJECTID":632508},"geometry":{"x":177000.01000000071,"y":2540899.7800000012}},{"attributes":{"ID":632536,"DIS_CODE":0,"TOWNNAME":"歸仁區","LI":"崙頂里","LIN":"18鄰","STREET":"大成一街","SECT":" ","MAREA":" ","LANE":" ","ALLEY":" ","HOUSE_NO":"４３號","E_COORD97":177869.38,"N_COORD97":2540257.9100000001,"ADDRESS":"大成一街４３號","OBJECTID":632509},"geometry":{"x":177869.37999999989,"y":2540257.9100000001}},{"attributes":{"ID":632537,"DIS_CODE":0,"TOWNNAME":"歸仁區","LI":"南興里","LIN":"41鄰","STREET":"中山路","SECT":"三段","MAREA":" ","LANE":" ","ALLEY":" ","HOUSE_NO":"４１３號","E_COORD97":175802.56,"N_COORD97":2540997.2799999998,"ADDRESS":"中山路三段４１３號","OBJECTID":632510},"geometry":{"x":175802.56000000052,"y":2540997.2799999975}},{"attributes":{"ID":632538,"DIS_CODE":0,"TOWNNAME":"歸仁區","LI":"南興里","LIN":"38鄰","STREET":"文化街","SECT":"三段","MAREA":" ","LANE":" ","ALLEY":" ","HOUSE_NO":"４０５號","E_COORD97":175856.94,"N_COORD97":2541191.3300000001,"ADDRESS":"文化街三段４０５號","OBJECTID":632511},"geometry":{"x":175856.94000000041,"y":2541191.3300000038}},{"attributes":{"ID":632539,"DIS_CODE":0,"TOWNNAME":"歸仁區","LI":"南興里","LIN":"18鄰","STREET":"南興街","SECT":" ","MAREA":" ","LANE":" ","ALLEY":" ","HOUSE_NO":"２２９號","E_COORD97":175650.29000000001,"N_COORD97":2541386.25,"ADDRESS":"南興街２２９號","OBJECTID":632512},"geometry":{"x":175650.29000000097,"y":2541386.2500000019}},{"attributes":{"ID":632540,"DIS_CODE":0,"TOWNNAME":"歸仁區","LI":"八甲里","LIN":"20鄰","STREET":"大仁街","SECT":" ","MAREA":" ","LANE":" ","ALLEY":" ","HOUSE_NO":"３６２號","E_COORD97":178169.59,"N_COORD97":2541489.25,"ADDRESS":"大仁街３６２號","OBJECTID":632513},"geometry":{"x":178169.58999999985,"y":2541489.25}},{"attributes":{"ID":632541,"DIS_CODE":0,"TOWNNAME":"歸仁區","LI":"南保里","LIN":"42鄰","STREET":"保興二街","SECT":" ","MAREA":" ","LANE":" ","ALLEY":" ","HOUSE_NO":"３２號","E_COORD97":176576.47,"N_COORD97":2540985.25,"ADDRESS":"保興二街３２號","OBJECTID":632514},"geometry":{"x":176576.46999999974,"y":2540985.2500000019}},{"attributes":{"ID":632542,"DIS_CODE":0,"TOWNNAME":"歸仁區","LI":"南保里","LIN":"47鄰","STREET":"大順街","SECT":" ","MAREA":" ","LANE":" ","ALLEY":" ","HOUSE_NO":"２４０號","E_COORD97":176762.26999999999,"N_COORD97":2540617.25,"ADDRESS":"大順街２４０號","OBJECTID":632515},"geometry":{"x":176762.27000000048,"y":2540617.25}},{"attributes":{"ID":632543,"DIS_CODE":0,"TOWNNAME":"歸仁區","LI":"大廟里","LIN":"5鄰","STREET":"和順路","SECT":"二段","MAREA":" ","LANE":" ","ALLEY":" ","HOUSE_NO":"２４９號","E_COORD97":175866.64000000001,"N_COORD97":2543579.2799999998,"ADDRESS":"和順路二段２４９號","OBJECTID":632516},"geometry":{"x":175866.63999999966,"y":2543579.2799999993}},{"attributes":{"ID":632544,"DIS_CODE":0,"TOWNNAME":"歸仁區","LI":"六甲里","LIN":"38鄰","STREET":"六甲八街","SECT":" ","MAREA":" ","LANE":" ","ALLEY":" ","HOUSE_NO":"１３號","E_COORD97":175386.97,"N_COORD97":2539352.25,"ADDRESS":"六甲八街１３號","OBJECTID":632517},"geometry":{"x":175386.96999999974,"y":2539352.2500000019}},{"attributes":{"ID":632545,"DIS_CODE":0,"TOWNNAME":"歸仁區","LI":"八甲里","LIN":"20鄰","STREET":"大仁街","SECT":" ","MAREA":" ","LANE":" ","ALLEY":" ","HOUSE_NO":"２６６號","E_COORD97":178347.47,"N_COORD97":2541252.1099999999,"ADDRESS":"大仁街２６６號","OBJECTID":632518},"geometry":{"x":178347.47000000067,"y":2541252.1099999994}},{"attributes":{"ID":632546,"DIS_CODE":0,"TOWNNAME":"歸仁區","LI":"南保里","LIN":"26鄰","STREET":"民權六街","SECT":" ","MAREA":" ","LANE":" ","ALLEY":" ","HOUSE_NO":"１６７號","E_COORD97":176646.84,"N_COORD97":2541103.29,"ADDRESS":"民權六街１６７號","OBJECTID":632519},"geometry":{"x":176646.84000000078,"y":2541103.290000001}},{"attributes":{"ID":632547,"DIS_CODE":0,"TOWNNAME":"歸仁區","LI":"六甲里","LIN":"41鄰","STREET":"民生十二街","SECT":" ","MAREA":" ","LANE":" ","ALLEY":" ","HOUSE_NO":"１５號","E_COORD97":176076.19,"N_COORD97":2539425.2400000002,"ADDRESS":"民生十二街１５號","OBJECTID":632520},"geometry":{"x":176076.19000000041,"y":2539425.2399999984}},{"attributes":{"ID":632548,"DIS_CODE":0,"TOWNNAME":"歸仁區","LI":"後市里","LIN":"40鄰","STREET":"中山路","SECT":"二段","MAREA":" ","LANE":" ","ALLEY":" ","HOUSE_NO":"１５６號","E_COORD97":177195.32999999999,"N_COORD97":2540845.7400000002,"ADDRESS":"中山路二段１５６號","OBJECTID":632521},"geometry":{"x":177195.33000000007,"y":2540845.7400000002}},{"attributes":{"ID":632549,"DIS_CODE":0,"TOWNNAME":"歸仁區","LI":"六甲里","LIN":"34鄰","STREET":"六甲六街","SECT":" ","MAREA":" ","LANE":" ","ALLEY":" ","HOUSE_NO":"３３號","E_COORD97":175635.26999999999,"N_COORD97":2539364.25,"ADDRESS":"六甲六街３３號","OBJECTID":632522},"geometry":{"x":175635.26999999955,"y":2539364.2500000037}},{"attributes":{"ID":632550,"DIS_CODE":0,"TOWNNAME":"歸仁區","LI":"八甲里","LIN":"18鄰","STREET":"忠孝北路","SECT":" ","MAREA":" ","LANE":" ","ALLEY":" ","HOUSE_NO":"２７２號","E_COORD97":177962.42999999999,"N_COORD97":2541434.25,"ADDRESS":"忠孝北路２７２號","OBJECTID":632523},"geometry":{"x":177962.43000000156,"y":2541434.25}},{"attributes":{"ID":632551,"DIS_CODE":0,"TOWNNAME":"歸仁區","LI":"八甲里","LIN":"20鄰","STREET":"大仁街","SECT":" ","MAREA":" ","LANE":" ","ALLEY":" ","HOUSE_NO":"２５６號","E_COORD97":178354.57000000001,"N_COORD97":2541226.1099999999,"ADDRESS":"大仁街２５６號","OBJECTID":632524},"geometry":{"x":178354.57000000123,"y":2541226.1100000013}},{"attributes":{"ID":632552,"DIS_CODE":0,"TOWNNAME":"歸仁區","LI":"南興里","LIN":"25鄰","STREET":"南興街","SECT":" ","MAREA":" ","LANE":" ","ALLEY":" ","HOUSE_NO":"２６４號","E_COORD97":175542.59,"N_COORD97":2541374.25,"ADDRESS":"南興街２６４號","OBJECTID":632525},"geometry":{"x":175542.59000000171,"y":2541374.25}},{"attributes":{"ID":632553,"DIS_CODE":0,"TOWNNAME":"歸仁區","LI":"南興里","LIN":"40鄰","STREET":"民生南街","SECT":"一段","MAREA":" ","LANE":" ","ALLEY":" ","HOUSE_NO":"６０號","E_COORD97":176254.59,"N_COORD97":2540734.29,"ADDRESS":"民生南街一段６０號","OBJECTID":632526},"geometry":{"x":176254.59000000171,"y":2540734.290000001}},{"attributes":{"ID":632554,"DIS_CODE":0,"TOWNNAME":"歸仁區","LI":"七甲里","LIN":"5鄰","STREET":"中正北路","SECT":"二段","MAREA":" ","LANE":" ","ALLEY":" ","HOUSE_NO":"４５６號","E_COORD97":177483.32000000001,"N_COORD97":2543123.2599999998,"ADDRESS":"中正北路二段４５６號","OBJECTID":632527},"geometry":{"x":177483.3200000003,"y":2543123.2599999998}},{"attributes":{"ID":632555,"DIS_CODE":0,"TOWNNAME":"歸仁區","LI":"六甲里","LIN":"38鄰","STREET":"六甲八街","SECT":" ","MAREA":" ","LANE":" ","ALLEY":" ","HOUSE_NO":"２１號","E_COORD97":175381.97,"N_COORD97":2539370.25,"ADDRESS":"六甲八街２１號","OBJECTID":632528},"geometry":{"x":175381.96999999974,"y":2539370.25}},{"attributes":{"ID":632556,"DIS_CODE":0,"TOWNNAME":"歸仁區","LI":"八甲里","LIN":"20鄰","STREET":"大仁街","SECT":" ","MAREA":" ","LANE":" ","ALLEY":" ","HOUSE_NO":"２７８號","E_COORD97":178357.76999999999,"N_COORD97":2541262.1099999999,"ADDRESS":"大仁街２７８號","OBJECTID":632529},"geometry":{"x":178357.76999999955,"y":2541262.1099999994}},{"attributes":{"ID":632557,"DIS_CODE":0,"TOWNNAME":"歸仁區","LI":"南興里","LIN":"32鄰","STREET":"文化街","SECT":"三段","MAREA":" ","LANE":" ","ALLEY":" ","HOUSE_NO":"２２１號","E_COORD97":176431.14000000001,"N_COORD97":2541173.3199999998,"ADDRESS":"文化街三段２２１號","OBJECTID":632530},"geometry":{"x":176431.13999999966,"y":2541173.3200000003}},{"attributes":{"ID":632558,"DIS_CODE":0,"TOWNNAME":"歸仁區","LI":"南興里","LIN":"32鄰","STREET":"文化街","SECT":"三段","MAREA":" ","LANE":" ","ALLEY":" ","HOUSE_NO":"２２７號","E_COORD97":176418.84,"N_COORD97":2541175.3300000001,"ADDRESS":"文化街三段２２７號","OBJECTID":632531},"geometry":{"x":176418.83999999892,"y":2541175.3300000019}},{"attributes":{"ID":632559,"DIS_CODE":0,"TOWNNAME":"歸仁區","LI":"南保里","LIN":"50鄰","STREET":"大順五街","SECT":" ","MAREA":" ","LANE":" ","ALLEY":" ","HOUSE_NO":"９７號","E_COORD97":176702.47,"N_COORD97":2540558.25,"ADDRESS":"大順五街９７號","OBJECTID":632532},"geometry":{"x":176702.46999999974,"y":2540558.2500000019}},{"attributes":{"ID":632560,"DIS_CODE":0,"TOWNNAME":"歸仁區","LI":"文化里","LIN":"18鄰","STREET":"文化北二街","SECT":" ","MAREA":" ","LANE":" ","ALLEY":" ","HOUSE_NO":"８８號","E_COORD97":177077.41,"N_COORD97":2541502.3399999999,"ADDRESS":"文化北二街８８號","OBJECTID":632533},"geometry":{"x":177077.41000000015,"y":2541502.3399999999}},{"attributes":{"ID":632561,"DIS_CODE":0,"TOWNNAME":"歸仁區","LI":"文化里","LIN":"18鄰","STREET":"文化北二街","SECT":" ","MAREA":" ","LANE":" ","ALLEY":" ","HOUSE_NO":"９６號","E_COORD97":177077.31,"N_COORD97":2541486.3399999999,"ADDRESS":"文化北二街９６號","OBJECTID":632534},"geometry":{"x":177077.31000000052,"y":2541486.3400000017}},{"attributes":{"ID":632562,"DIS_CODE":0,"TOWNNAME":"歸仁區","LI":"六甲里","LIN":"38鄰","STREET":"六甲八街","SECT":" ","MAREA":" ","LANE":" ","ALLEY":" ","HOUSE_NO":"９５號","E_COORD97":175337.57000000001,"N_COORD97":2539523.25,"ADDRESS":"六甲八街９５號","OBJECTID":632535},"geometry":{"x":175337.5700000003,"y":2539523.2499999981}},{"attributes":{"ID":632563,"DIS_CODE":0,"TOWNNAME":"歸仁區","LI":"六甲里","LIN":"38鄰","STREET":"六甲八街","SECT":" ","MAREA":" ","LANE":" ","ALLEY":" ","HOUSE_NO":"８５號","E_COORD97":175350.87,"N_COORD97":2539501.25,"ADDRESS":"六甲八街８５號","OBJECTID":632536},"geometry":{"x":175350.87000000011,"y":2539501.2500000019}},{"attributes":{"ID":632564,"DIS_CODE":0,"TOWNNAME":"歸仁區","LI":"文化里","LIN":"18鄰","STREET":"文化北二街","SECT":" ","MAREA":" ","LANE":" ","ALLEY":" ","HOUSE_NO":"１０６號","E_COORD97":177075.45999999999,"N_COORD97":2541466.3399999999,"ADDRESS":"文化北二街１０６號","OBJECTID":632537},"geometry":{"x":177075.45999999996,"y":2541466.3400000017}},{"attributes":{"ID":632565,"DIS_CODE":0,"TOWNNAME":"歸仁區","LI":"後市里","LIN":"25鄰","STREET":"民族北街","SECT":" ","MAREA":" ","LANE":" ","ALLEY":" ","HOUSE_NO":"５６號","E_COORD97":177454.78,"N_COORD97":2540992.25,"ADDRESS":"民族北街５６號","OBJECTID":632538},"geometry":{"x":177454.78000000026,"y":2540992.2500000019}},{"attributes":{"ID":632566,"DIS_CODE":0,"TOWNNAME":"歸仁區","LI":"八甲里","LIN":"4鄰","STREET":"大明三街","SECT":" ","MAREA":" ","LANE":" ","ALLEY":" ","HOUSE_NO":"３０號","E_COORD97":178053.01999999999,"N_COORD97":2541752.6099999999,"ADDRESS":"大明三街３０號","OBJECTID":632539},"geometry":{"x":178053.01999999955,"y":2541752.6100000013}},{"attributes":{"ID":632567,"DIS_CODE":0,"TOWNNAME":"歸仁區","LI":"南保里","LIN":"50鄰","STREET":"大順五街","SECT":" ","MAREA":" ","LANE":" ","ALLEY":" ","HOUSE_NO":"１０７號","E_COORD97":176704.82000000001,"N_COORD97":2540567.25,"ADDRESS":"大順五街１０７號","OBJECTID":632540},"geometry":{"x":176704.82000000123,"y":2540567.25}},{"attributes":{"ID":632568,"DIS_CODE":0,"TOWNNAME":"歸仁區","LI":"大廟里","LIN":"4鄰","STREET":"和順路","SECT":"二段","MAREA":" ","LANE":" ","ALLEY":" ","HOUSE_NO":"５９號","E_COORD97":176414.98999999999,"N_COORD97":2543582.2799999998,"ADDRESS":"和順路二段５９號","OBJECTID":632541},"geometry":{"x":176414.99000000209,"y":2543582.2800000012}},{"attributes":{"ID":632569,"DIS_CODE":0,"TOWNNAME":"歸仁區","LI":"七甲里","LIN":"5鄰","STREET":"中正北路","SECT":"二段","MAREA":" ","LANE":" ","ALLEY":" ","HOUSE_NO":"４４０號","E_COORD97":177490.32000000001,"N_COORD97":2543092.2599999998,"ADDRESS":"中正北路二段４４０號","OBJECTID":632542},"geometry":{"x":177490.3200000003,"y":2543092.2599999998}},{"attributes":{"ID":632570,"DIS_CODE":0,"TOWNNAME":"歸仁區","LI":"六甲里","LIN":"38鄰","STREET":"六甲八街","SECT":" ","MAREA":" ","LANE":" ","ALLEY":" ","HOUSE_NO":"１４７號","E_COORD97":175264.848768,"N_COORD97":2539662.5333599998,"ADDRESS":"六甲八街１４７號","OBJECTID":632543},"geometry":{"x":175264.84876799956,"y":2539662.5333600007}},{"attributes":{"ID":632571,"DIS_CODE":0,"TOWNNAME":"歸仁區","LI":"八甲里","LIN":"20鄰","STREET":"大仁三街","SECT":" ","MAREA":" ","LANE":" ","ALLEY":" ","HOUSE_NO":"６５號","E_COORD97":178299.29000000001,"N_COORD97":2541372.25,"ADDRESS":"大仁三街６５號","OBJECTID":632544},"geometry":{"x":178299.29000000004,"y":2541372.2500000019}},{"attributes":{"ID":632572,"DIS_CODE":0,"TOWNNAME":"歸仁區","LI":"七甲里","LIN":"13鄰","STREET":"南潭一街","SECT":" ","MAREA":" ","LANE":" ","ALLEY":" ","HOUSE_NO":"２０號","E_COORD97":175956.69,"N_COORD97":2543007.25,"ADDRESS":"南潭一街２０號","OBJECTID":632545},"geometry":{"x":175956.69000000134,"y":2543007.25}},{"attributes":{"ID":632573,"DIS_CODE":0,"TOWNNAME":"歸仁區","LI":"七甲里","LIN":"13鄰","STREET":"南潭一街","SECT":" ","MAREA":" ","LANE":" ","ALLEY":" ","HOUSE_NO":"６１號","E_COORD97":175859.19,"N_COORD97":2542987.25,"ADDRESS":"南潭一街６１號","OBJECTID":632546},"geometry":{"x":175859.19000000041,"y":2542987.25}},{"attributes":{"ID":632574,"DIS_CODE":0,"TOWNNAME":"歸仁區","LI":"七甲里","LIN":"13鄰","STREET":"南潭一街","SECT":" ","MAREA":" ","LANE":" ","ALLEY":" ","HOUSE_NO":"３６號","E_COORD97":175902.39000000001,"N_COORD97":2543012.25,"ADDRESS":"南潭一街３６號","OBJECTID":632547},"geometry":{"x":175902.38999999966,"y":2543012.2500000037}},{"attributes":{"ID":632575,"DIS_CODE":0,"TOWNNAME":"歸仁區","LI":"大廟里","LIN":"18鄰","STREET":"大廟五街","SECT":" ","MAREA":" ","LANE":" ","ALLEY":" ","HOUSE_NO":"１３號","E_COORD97":175907.26999999999,"N_COORD97":2544196.25,"ADDRESS":"大廟五街１３號","OBJECTID":632548},"geometry":{"x":175907.27000000142,"y":2544196.2500000019}},{"attributes":{"ID":632576,"DIS_CODE":0,"TOWNNAME":"歸仁區","LI":"七甲里","LIN":"13鄰","STREET":"南潭一街","SECT":" ","MAREA":" ","LANE":" ","ALLEY":" ","HOUSE_NO":"１６號","E_COORD97":175967.98999999999,"N_COORD97":2543010.25,"ADDRESS":"南潭一街１６號","OBJECTID":632549},"geometry":{"x":175967.99000000115,"y":2543010.2500000019}},{"attributes":{"ID":632577,"DIS_CODE":0,"TOWNNAME":"歸仁區","LI":"七甲里","LIN":"13鄰","STREET":"南潭一街","SECT":" ","MAREA":" ","LANE":" ","ALLEY":" ","HOUSE_NO":"４０號","E_COORD97":175876.69,"N_COORD97":2543011.25,"ADDRESS":"南潭一街４０號","OBJECTID":632550},"geometry":{"x":175876.69000000134,"y":2543011.25}},{"attributes":{"ID":632578,"DIS_CODE":0,"TOWNNAME":"歸仁區","LI":"七甲里","LIN":"13鄰","STREET":"南潭二街","SECT":" ","MAREA":" ","LANE":" ","ALLEY":" ","HOUSE_NO":"６９號","E_COORD97":176251.09,"N_COORD97":2543044.25,"ADDRESS":"南潭二街６９號","OBJECTID":632551},"geometry":{"x":176251.09000000171,"y":2543044.2500000019}},{"attributes":{"ID":632579,"DIS_CODE":0,"TOWNNAME":"歸仁區","LI":"大潭里","LIN":"18鄰","STREET":"中正南路","SECT":"三段","MAREA":" ","LANE":" ","ALLEY":" ","HOUSE_NO":"２６０號","E_COORD97":175147.20000000001,"N_COORD97":2534733.2799999998,"ADDRESS":"中正南路三段２６０號","OBJECTID":632552},"geometry":{"x":175147.20000000205,"y":2534733.2800000012}},{"attributes":{"ID":632580,"DIS_CODE":0,"TOWNNAME":"歸仁區","LI":"七甲里","LIN":"13鄰","STREET":"南潭二街","SECT":" ","MAREA":" ","LANE":" ","ALLEY":" ","HOUSE_NO":"８６號","E_COORD97":176354.48999999999,"N_COORD97":2543002.25,"ADDRESS":"南潭二街８６號","OBJECTID":632553},"geometry":{"x":176354.49000000115,"y":2543002.2500000037}},{"attributes":{"ID":632581,"DIS_CODE":0,"TOWNNAME":"歸仁區","LI":"七甲里","LIN":"13鄰","STREET":"南潭一街","SECT":" ","MAREA":" ","LANE":" ","ALLEY":" ","HOUSE_NO":"６９號","E_COORD97":175835.48999999999,"N_COORD97":2542972.25,"ADDRESS":"南潭一街６９號","OBJECTID":632554},"geometry":{"x":175835.49000000115,"y":2542972.2500000019}},{"attributes":{"ID":632582,"DIS_CODE":0,"TOWNNAME":"歸仁區","LI":"七甲里","LIN":"13鄰","STREET":"南潭一街","SECT":" ","MAREA":" ","LANE":" ","ALLEY":" ","HOUSE_NO":"８９號","E_COORD97":175739.19,"N_COORD97":2542989.25,"ADDRESS":"南潭一街８９號","OBJECTID":632555},"geometry":{"x":175739.19000000227,"y":2542989.2500000019}},{"attributes":{"ID":632583,"DIS_CODE":0,"TOWNNAME":"歸仁區","LI":"大潭里","LIN":"18鄰","STREET":"中正南路","SECT":"三段","MAREA":" ","LANE":" ","ALLEY":" ","HOUSE_NO":"２６８號","E_COORD97":175145.10000000001,"N_COORD97":2534718.2799999998,"ADDRESS":"中正南路三段２６８號","OBJECTID":632556},"geometry":{"x":175145.09999999963,"y":2534718.2799999975}},{"attributes":{"ID":632584,"DIS_CODE":0,"TOWNNAME":"歸仁區","LI":"大潭里","LIN":"18鄰","STREET":"中正南路","SECT":"三段","MAREA":" ","LANE":" ","ALLEY":" ","HOUSE_NO":"２２０號","E_COORD97":175178.29999999999,"N_COORD97":2534804.2799999998,"ADDRESS":"中正南路三段２２０號","OBJECTID":632557},"geometry":{"x":175178.30000000168,"y":2534804.2800000012}},{"attributes":{"ID":632585,"DIS_CODE":0,"TOWNNAME":"歸仁區","LI":"七甲里","LIN":"13鄰","STREET":"南潭一街","SECT":" ","MAREA":" ","LANE":" ","ALLEY":" ","HOUSE_NO":"７２號","E_COORD97":175784.48999999999,"N_COORD97":2543031.25,"ADDRESS":"南潭一街７２號","OBJECTID":632558},"geometry":{"x":175784.49000000115,"y":2543031.25}},{"attributes":{"ID":632586,"DIS_CODE":0,"TOWNNAME":"歸仁區","LI":"七甲里","LIN":"13鄰","STREET":"南潭一街","SECT":" ","MAREA":" ","LANE":" ","ALLEY":" ","HOUSE_NO":"８０之２號","E_COORD97":175746.98999999999,"N_COORD97":2543013.2999999998,"ADDRESS":"南潭一街８０之２號","OBJECTID":632559},"geometry":{"x":175746.99000000209,"y":2543013.3000000026}},{"attributes":{"ID":632587,"DIS_CODE":0,"TOWNNAME":"歸仁區","LI":"大潭里","LIN":"18鄰","STREET":"中正南路","SECT":"三段","MAREA":" ","LANE":" ","ALLEY":" ","HOUSE_NO":"２２８號","E_COORD97":175173.10000000001,"N_COORD97":2534788.2799999998,"ADDRESS":"中正南路三段２２８號","OBJECTID":632560},"geometry":{"x":175173.10000000056,"y":2534788.2799999993}},{"attributes":{"ID":632588,"DIS_CODE":0,"TOWNNAME":"歸仁區","LI":"七甲里","LIN":"13鄰","STREET":"南潭一街","SECT":" ","MAREA":" ","LANE":" ","ALLEY":" ","HOUSE_NO":"８１號","E_COORD97":175754.48999999999,"N_COORD97":2542964.25,"ADDRESS":"南潭一街８１號","OBJECTID":632561},"geometry":{"x":175754.49000000115,"y":2542964.25}},{"attributes":{"ID":632589,"DIS_CODE":0,"TOWNNAME":"歸仁區","LI":"大廟里","LIN":"13鄰","STREET":"大廟六街","SECT":" ","MAREA":" ","LANE":" ","ALLEY":" ","HOUSE_NO":"１０８號","E_COORD97":176175.42000000001,"N_COORD97":2544263.25,"ADDRESS":"大廟六街１０８號","OBJECTID":632562},"geometry":{"x":176175.41999999993,"y":2544263.2500000037}},{"attributes":{"ID":632590,"DIS_CODE":0,"TOWNNAME":"歸仁區","LI":"七甲里","LIN":"5鄰","STREET":"中正北路","SECT":"二段","MAREA":" ","LANE":" ","ALLEY":" ","HOUSE_NO":"４３８號","E_COORD97":177490.32000000001,"N_COORD97":2543087.2599999998,"ADDRESS":"中正北路二段４３８號","OBJECTID":632563},"geometry":{"x":177490.3200000003,"y":2543087.2600000016}},{"attributes":{"ID":632591,"DIS_CODE":0,"TOWNNAME":"歸仁區","LI":"七甲里","LIN":"13鄰","STREET":"南潭二街","SECT":" ","MAREA":" ","LANE":" ","ALLEY":" ","HOUSE_NO":"９６號","E_COORD97":176428.82999999999,"N_COORD97":2542945.0299999998,"ADDRESS":"南潭二街９６號","OBJECTID":632564},"geometry":{"x":176428.83000000007,"y":2542945.0299999975}},{"attributes":{"ID":632592,"DIS_CODE":0,"TOWNNAME":"歸仁區","LI":"八甲里","LIN":"4鄰","STREET":"大明街","SECT":" ","MAREA":" ","LANE":" ","ALLEY":" ","HOUSE_NO":"７８號","E_COORD97":178022.37,"N_COORD97":2541840.6099999999,"ADDRESS":"大明街７８號","OBJECTID":632565},"geometry":{"x":178022.37000000011,"y":2541840.6100000013}},{"attributes":{"ID":632593,"DIS_CODE":0,"TOWNNAME":"歸仁區","LI":"六甲里","LIN":"4鄰","STREET":"中正十五街","SECT":" ","MAREA":" ","LANE":" ","ALLEY":" ","HOUSE_NO":"１９號","E_COORD97":176452.81,"N_COORD97":2539596.25,"ADDRESS":"中正十五街１９號","OBJECTID":632566},"geometry":{"x":176452.81000000145,"y":2539596.2500000019}},{"attributes":{"ID":632594,"DIS_CODE":0,"TOWNNAME":"歸仁區","LI":"六甲里","LIN":"5鄰","STREET":"中正十五街","SECT":" ","MAREA":" ","LANE":" ","ALLEY":" ","HOUSE_NO":"３４號","E_COORD97":176427.51000000001,"N_COORD97":2539438.25,"ADDRESS":"中正十五街３４號","OBJECTID":632567},"geometry":{"x":176427.50999999978,"y":2539438.25}},{"attributes":{"ID":632595,"DIS_CODE":0,"TOWNNAME":"歸仁區","LI":"文化里","LIN":"26鄰","STREET":"民權北路","SECT":" ","MAREA":" ","LANE":" ","ALLEY":" ","HOUSE_NO":"２２０號","E_COORD97":177038.60000000001,"N_COORD97":2541521.3300000001,"ADDRESS":"民權北路２２０號","OBJECTID":632568},"geometry":{"x":177038.59999999963,"y":2541521.3300000019}},{"attributes":{"ID":632596,"DIS_CODE":0,"TOWNNAME":"歸仁區","LI":"八甲里","LIN":"20鄰","STREET":"大仁三街","SECT":" ","MAREA":" ","LANE":" ","ALLEY":" ","HOUSE_NO":"８０號","E_COORD97":178310.89000000001,"N_COORD97":2541451.25,"ADDRESS":"大仁三街８０號","OBJECTID":632569},"geometry":{"x":178310.8900000006,"y":2541451.25}},{"attributes":{"ID":632597,"DIS_CODE":0,"TOWNNAME":"歸仁區","LI":"八甲里","LIN":"20鄰","STREET":"大仁街","SECT":" ","MAREA":" ","LANE":" ","ALLEY":" ","HOUSE_NO":"２７６號","E_COORD97":178357.76999999999,"N_COORD97":2541258.1099999999,"ADDRESS":"大仁街２７６號","OBJECTID":632570},"geometry":{"x":178357.76999999955,"y":2541258.1099999994}},{"attributes":{"ID":632598,"DIS_CODE":0,"TOWNNAME":"歸仁區","LI":"文化里","LIN":"26鄰","STREET":"民權北路","SECT":" ","MAREA":" ","LANE":" ","ALLEY":" ","HOUSE_NO":"２０４號","E_COORD97":177037.39999999999,"N_COORD97":2541489.3300000001,"ADDRESS":"民權北路２０４號","OBJECTID":632571},"geometry":{"x":177037.40000000037,"y":2541489.3299999982}},{"attributes":{"ID":632599,"DIS_CODE":0,"TOWNNAME":"歸仁區","LI":"八甲里","LIN":"24鄰","STREET":"大德路","SECT":" ","MAREA":" ","LANE":" ","ALLEY":" ","HOUSE_NO":"１１８號","E_COORD97":178095.98999999999,"N_COORD97":2541320.25,"ADDRESS":"大德路１１８號","OBJECTID":632572},"geometry":{"x":178095.99000000022,"y":2541320.2499999981}},{"attributes":{"ID":632600,"DIS_CODE":0,"TOWNNAME":"歸仁區","LI":"八甲里","LIN":"14鄰","STREET":"大仁七街","SECT":" ","MAREA":" ","LANE":" ","ALLEY":" ","HOUSE_NO":"４６號","E_COORD97":178197.01999999999,"N_COORD97":2541646.6099999999,"ADDRESS":"大仁七街４６號","OBJECTID":632573},"geometry":{"x":178197.01999999955,"y":2541646.6100000013}},{"attributes":{"ID":632601,"DIS_CODE":0,"TOWNNAME":"歸仁區","LI":"八甲里","LIN":"17鄰","STREET":"大仁八街","SECT":" ","MAREA":" ","LANE":" ","ALLEY":" ","HOUSE_NO":"１７號","E_COORD97":178007.89000000001,"N_COORD97":2541549.25,"ADDRESS":"大仁八街１７號","OBJECTID":632574},"geometry":{"x":178007.88999999966,"y":2541549.2500000019}},{"attributes":{"ID":632602,"DIS_CODE":0,"TOWNNAME":"歸仁區","LI":"六甲里","LIN":"8鄰","STREET":"中正十五街","SECT":" ","MAREA":" ","LANE":" ","ALLEY":" ","HOUSE_NO":"８２號","E_COORD97":176479.70999999999,"N_COORD97":2539424.25,"ADDRESS":"中正十五街８２號","OBJECTID":632575},"geometry":{"x":176479.71000000089,"y":2539424.25}},{"attributes":{"ID":632603,"DIS_CODE":0,"TOWNNAME":"歸仁區","LI":"八甲里","LIN":"25鄰","STREET":"大德路","SECT":" ","MAREA":" ","LANE":" ","ALLEY":" ","HOUSE_NO":"１４０號","E_COORD97":178036.79000000001,"N_COORD97":2541379.25,"ADDRESS":"大德路１４０號","OBJECTID":632576},"geometry":{"x":178036.7900000019,"y":2541379.2500000019}},{"attributes":{"ID":632604,"DIS_CODE":0,"TOWNNAME":"歸仁區","LI":"八甲里","LIN":"25鄰","STREET":"大德路","SECT":" ","MAREA":" ","LANE":" ","ALLEY":" ","HOUSE_NO":"１４６號","E_COORD97":178026.39000000001,"N_COORD97":2541352.25,"ADDRESS":"大德路１４６號","OBJECTID":632577},"geometry":{"x":178026.38999999966,"y":2541352.2500000019}},{"attributes":{"ID":632605,"DIS_CODE":0,"TOWNNAME":"歸仁區","LI":"八甲里","LIN":"14鄰","STREET":"大仁七街","SECT":" ","MAREA":" ","LANE":" ","ALLEY":" ","HOUSE_NO":"２６號","E_COORD97":178150.92000000001,"N_COORD97":2541653.6099999999,"ADDRESS":"大仁七街２６號","OBJECTID":632578},"geometry":{"x":178150.92000000179,"y":2541653.6100000013}},{"attributes":{"ID":632606,"DIS_CODE":0,"TOWNNAME":"歸仁區","LI":"六甲里","LIN":"4鄰","STREET":"中正十五街","SECT":" ","MAREA":" ","LANE":" ","ALLEY":" ","HOUSE_NO":"４１號","E_COORD97":176447.758217,"N_COORD97":2539543.86772,"ADDRESS":"中正十五街４１號","OBJECTID":632579},"geometry":{"x":176447.7582170004,"y":2539543.8677230012}},{"attributes":{"ID":632607,"DIS_CODE":0,"TOWNNAME":"歸仁區","LI":"六甲里","LIN":"5鄰","STREET":"中正十五街","SECT":" ","MAREA":" ","LANE":" ","ALLEY":" ","HOUSE_NO":"１４號","E_COORD97":176435.91,"N_COORD97":2539498.25,"ADDRESS":"中正十五街１４號","OBJECTID":632580},"geometry":{"x":176435.91000000108,"y":2539498.25}},{"attributes":{"ID":632608,"DIS_CODE":0,"TOWNNAME":"歸仁區","LI":"文化里","LIN":"25鄰","STREET":"民權北路","SECT":" ","MAREA":" ","LANE":" ","ALLEY":" ","HOUSE_NO":"１８６號","E_COORD97":177047.29999999999,"N_COORD97":2541430.3300000001,"ADDRESS":"民權北路１８６號","OBJECTID":632581},"geometry":{"x":177047.29999999981,"y":2541430.3300000001}},{"attributes":{"ID":632609,"DIS_CODE":0,"TOWNNAME":"歸仁區","LI":"七甲里","LIN":"17鄰","STREET":"南潭二街","SECT":" ","MAREA":" ","LANE":" ","ALLEY":" ","HOUSE_NO":"１５５號","E_COORD97":176488.47,"N_COORD97":2543020.3900000001,"ADDRESS":"南潭二街１５５號","OBJECTID":632582},"geometry":{"x":176488.46999999974,"y":2543020.3900000006}},{"attributes":{"ID":632610,"DIS_CODE":0,"TOWNNAME":"歸仁區","LI":"七甲里","LIN":"7鄰","STREET":"七甲三街","SECT":" ","MAREA":" ","LANE":" ","ALLEY":" ","HOUSE_NO":"１６號","E_COORD97":177663.19,"N_COORD97":2542732.6600000001,"ADDRESS":"七甲三街１６號","OBJECTID":632583},"geometry":{"x":177663.19000000227,"y":2542732.660000002}},{"attributes":{"ID":632611,"DIS_CODE":0,"TOWNNAME":"歸仁區","LI":"大潭里","LIN":"18鄰","STREET":"大潭二街","SECT":" ","MAREA":" ","LANE":" ","ALLEY":" ","HOUSE_NO":"２號","E_COORD97":175115.41,"N_COORD97":2534689.25,"ADDRESS":"大潭二街２號","OBJECTID":632584},"geometry":{"x":175115.41000000108,"y":2534689.2500000019}},{"attributes":{"ID":632612,"DIS_CODE":0,"TOWNNAME":"歸仁區","LI":"八甲里","LIN":"20鄰","STREET":"大仁三街","SECT":" ","MAREA":" ","LANE":" ","ALLEY":" ","HOUSE_NO":"３１號","E_COORD97":178341.29000000001,"N_COORD97":2541362.25,"ADDRESS":"大仁三街３１號","OBJECTID":632585},"geometry":{"x":178341.29000000004,"y":2541362.2500000019}},{"attributes":{"ID":632613,"DIS_CODE":0,"TOWNNAME":"歸仁區","LI":"文化里","LIN":"26鄰","STREET":"民權北路","SECT":" ","MAREA":" ","LANE":" ","ALLEY":" ","HOUSE_NO":"２１６號","E_COORD97":177037.5,"N_COORD97":2541512.3300000001,"ADDRESS":"民權北路２１６號","OBJECTID":632586},"geometry":{"x":177037.50000000093,"y":2541512.3300000001}},{"attributes":{"ID":632614,"DIS_CODE":0,"TOWNNAME":"歸仁區","LI":"文化里","LIN":"26鄰","STREET":"民權北路","SECT":" ","MAREA":" ","LANE":" ","ALLEY":" ","HOUSE_NO":"１９８號","E_COORD97":177036.29999999999,"N_COORD97":2541477.3300000001,"ADDRESS":"民權北路１９８號","OBJECTID":632587},"geometry":{"x":177036.30000000168,"y":2541477.3300000019}},{"attributes":{"ID":632615,"DIS_CODE":0,"TOWNNAME":"歸仁區","LI":"文化里","LIN":"26鄰","STREET":"民權北路","SECT":" ","MAREA":" ","LANE":" ","ALLEY":" ","HOUSE_NO":"２０２號","E_COORD97":177036.29999999999,"N_COORD97":2541486.3300000001,"ADDRESS":"民權北路２０２號","OBJECTID":632588},"geometry":{"x":177036.30000000168,"y":2541486.3300000038}},{"attributes":{"ID":632616,"DIS_CODE":0,"TOWNNAME":"歸仁區","LI":"七甲里","LIN":"5鄰","STREET":"中正北路","SECT":"二段","MAREA":" ","LANE":" ","ALLEY":" ","HOUSE_NO":"４６０號","E_COORD97":177481.32000000001,"N_COORD97":2543130.2599999998,"ADDRESS":"中正北路二段４６０號","OBJECTID":632589},"geometry":{"x":177481.32000000123,"y":2543130.2599999998}},{"attributes":{"ID":632617,"DIS_CODE":0,"TOWNNAME":"歸仁區","LI":"八甲里","LIN":"20鄰","STREET":"大仁三街","SECT":" ","MAREA":" ","LANE":" ","ALLEY":" ","HOUSE_NO":"６３號","E_COORD97":178299.29000000001,"N_COORD97":2541381.25,"ADDRESS":"大仁三街６３號","OBJECTID":632590},"geometry":{"x":178299.29000000004,"y":2541381.2499999981}},{"attributes":{"ID":632618,"DIS_CODE":0,"TOWNNAME":"歸仁區","LI":"文化里","LIN":"26鄰","STREET":"民權北路","SECT":" ","MAREA":" ","LANE":" ","ALLEY":" ","HOUSE_NO":"１９０號","E_COORD97":177036.20000000001,"N_COORD97":2541460.3300000001,"ADDRESS":"民權北路１９０號","OBJECTID":632591},"geometry":{"x":177036.20000000112,"y":2541460.3300000019}},{"attributes":{"ID":632619,"DIS_CODE":0,"TOWNNAME":"歸仁區","LI":"文化里","LIN":"26鄰","STREET":"民權北路","SECT":" ","MAREA":" ","LANE":" ","ALLEY":" ","HOUSE_NO":"１９２號","E_COORD97":177035.20000000001,"N_COORD97":2541465.3300000001,"ADDRESS":"民權北路１９２號","OBJECTID":632592},"geometry":{"x":177035.20000000019,"y":2541465.3300000001}},{"attributes":{"ID":632620,"DIS_CODE":0,"TOWNNAME":"歸仁區","LI":"八甲里","LIN":"25鄰","STREET":"忠孝北路","SECT":" ","MAREA":" ","LANE":" ","ALLEY":" ","HOUSE_NO":"２６８號","E_COORD97":177977.73000000001,"N_COORD97":2541413.25,"ADDRESS":"忠孝北路２６８號","OBJECTID":632593},"geometry":{"x":177977.73000000045,"y":2541413.2500000019}},{"attributes":{"ID":632621,"DIS_CODE":0,"TOWNNAME":"歸仁區","LI":"文化里","LIN":"18鄰","STREET":"文化北二街","SECT":" ","MAREA":" ","LANE":" ","ALLEY":" ","HOUSE_NO":"９８號","E_COORD97":177076.31,"N_COORD97":2541482.3399999999,"ADDRESS":"文化北二街９８號","OBJECTID":632594},"geometry":{"x":177076.30999999959,"y":2541482.3400000036}},{"attributes":{"ID":632622,"DIS_CODE":0,"TOWNNAME":"歸仁區","LI":"八甲里","LIN":"25鄰","STREET":"忠孝北路","SECT":" ","MAREA":" ","LANE":" ","ALLEY":" ","HOUSE_NO":"２６２號","E_COORD97":177994.03,"N_COORD97":2541391.25,"ADDRESS":"忠孝北路２６２號","OBJECTID":632595},"geometry":{"x":177994.03000000026,"y":2541391.25}},{"attributes":{"ID":632623,"DIS_CODE":0,"TOWNNAME":"歸仁區","LI":"八甲里","LIN":"14鄰","STREET":"大仁七街","SECT":" ","MAREA":" ","LANE":" ","ALLEY":" ","HOUSE_NO":"２０號","E_COORD97":178130.42000000001,"N_COORD97":2541658.6099999999,"ADDRESS":"大仁七街２０號","OBJECTID":632596},"geometry":{"x":178130.41999999993,"y":2541658.6099999994}},{"attributes":{"ID":632624,"DIS_CODE":0,"TOWNNAME":"歸仁區","LI":"文化里","LIN":"18鄰","STREET":"文化北二街","SECT":" ","MAREA":" ","LANE":" ","ALLEY":" ","HOUSE_NO":"１０２號","E_COORD97":177076.56,"N_COORD97":2541473.3399999999,"ADDRESS":"文化北二街１０２號","OBJECTID":632597},"geometry":{"x":177076.56000000145,"y":2541473.3400000017}},{"attributes":{"ID":632625,"DIS_CODE":0,"TOWNNAME":"歸仁區","LI":"八甲里","LIN":"20鄰","STREET":"大仁三街","SECT":" ","MAREA":" ","LANE":" ","ALLEY":" ","HOUSE_NO":"１０號","E_COORD97":178355.87,"N_COORD97":2541278.1099999999,"ADDRESS":"大仁三街１０號","OBJECTID":632598},"geometry":{"x":178355.87000000011,"y":2541278.1100000013}},{"attributes":{"ID":632626,"DIS_CODE":0,"TOWNNAME":"歸仁區","LI":"六甲里","LIN":"5鄰","STREET":"中正十五街","SECT":" ","MAREA":" ","LANE":" ","ALLEY":" ","HOUSE_NO":"４６號","E_COORD97":176425.20999999999,"N_COORD97":2539406.25,"ADDRESS":"中正十五街４６號","OBJECTID":632599},"geometry":{"x":176425.21000000089,"y":2539406.2500000019}},{"attributes":{"ID":632627,"DIS_CODE":0,"TOWNNAME":"歸仁區","LI":"八甲里","LIN":"20鄰","STREET":"大仁街","SECT":" ","MAREA":" ","LANE":" ","ALLEY":" ","HOUSE_NO":"２６８號","E_COORD97":178347.57000000001,"N_COORD97":2541258.1099999999,"ADDRESS":"大仁街２６８號","OBJECTID":632600},"geometry":{"x":178347.57000000123,"y":2541258.1099999994}}]}