{"displayFieldName":"TOWNNAME","fieldAliases":{"ID":"ID","DIS_CODE":"DIS_CODE","TOWNNAME":"TOWNNAME","LI":"LI","LIN":"LIN","STREET":"STREET","SECT":"SECT","MAREA":"MAREA","LANE":"LANE","ALLEY":"ALLEY","HOUSE_NO":"HOUSE_NO","E_COORD97":"E_COORD97","N_COORD97":"N_COORD97","ADDRESS":"ADDRESS","OBJECTID":"OBJECTID"},"geometryType":"esriGeometryPoint","spatialReference":{"wkid":102443,"latestWkid":3826},"fields":[{"name":"ID","type":"esriFieldTypeDouble","alias":"ID"},{"name":"DIS_CODE","type":"esriFieldTypeInteger","alias":"DIS_CODE"},{"name":"TOWNNAME","type":"esriFieldTypeString","alias":"TOWNNAME","length":8},{"name":"LI","type":"esriFieldTypeString","alias":"LI","length":8},{"name":"LIN","type":"esriFieldTypeString","alias":"LIN","length":12},{"name":"STREET","type":"esriFieldTypeString","alias":"STREET","length":20},{"name":"SECT","type":"esriFieldTypeString","alias":"SECT","length":8},{"name":"MAREA","type":"esriFieldTypeString","alias":"MAREA","length":12},{"name":"LANE","type":"esriFieldTypeString","alias":"LANE","length":10},{"name":"ALLEY","type":"esriFieldTypeString","alias":"ALLEY","length":10},{"name":"HOUSE_NO","type":"esriFieldTypeString","alias":"HOUSE_NO","length":20},{"name":"E_COORD97","type":"esriFieldTypeDouble","alias":"E_COORD97"},{"name":"N_COORD97","type":"esriFieldTypeDouble","alias":"N_COORD97"},{"name":"ADDRESS","type":"esriFieldTypeString","alias":"ADDRESS","length":50},{"name":"OBJECTID","type":"esriFieldTypeOID","alias":"OBJECTID"}],"features":[{"attributes":{"ID":227405,"DIS_CODE":0,"TOWNNAME":"歸仁區","LI":"看東里","LIN":"3鄰","STREET":"成功六街","SECT":" ","MAREA":" ","LANE":"３８巷","ALLEY":" ","HOUSE_NO":"６０號","E_COORD97":178502.07999999999,"N_COORD97":2540245.8300000001,"ADDRESS":"成功六街３８巷６０號","OBJECTID":227401},"geometry":{"x":178502.08000000007,"y":2540245.8300000019}},{"attributes":{"ID":227406,"DIS_CODE":0,"TOWNNAME":"歸仁區","LI":"看東里","LIN":"3鄰","STREET":"成功六街","SECT":" ","MAREA":" ","LANE":"３８巷","ALLEY":" ","HOUSE_NO":"６４號","E_COORD97":178468.28,"N_COORD97":2540253.8300000001,"ADDRESS":"成功六街３８巷６４號","OBJECTID":227402},"geometry":{"x":178468.28000000119,"y":2540253.8300000001}},{"attributes":{"ID":227407,"DIS_CODE":0,"TOWNNAME":"歸仁區","LI":"看東里","LIN":"3鄰","STREET":"成功六街","SECT":" ","MAREA":" ","LANE":"３８巷","ALLEY":" ","HOUSE_NO":"５０號","E_COORD97":178482.48000000001,"N_COORD97":2540235.8300000001,"ADDRESS":"成功六街３８巷５０號","OBJECTID":227403},"geometry":{"x":178482.48000000138,"y":2540235.8300000019}},{"attributes":{"ID":227408,"DIS_CODE":0,"TOWNNAME":"歸仁區","LI":"許厝里","LIN":"3鄰","STREET":"仁愛一街","SECT":" ","MAREA":" ","LANE":"１２巷","ALLEY":" ","HOUSE_NO":"２２號","E_COORD97":178331.45999999999,"N_COORD97":2540574.8999999999,"ADDRESS":"仁愛一街１２巷２２號","OBJECTID":227404},"geometry":{"x":178331.45999999996,"y":2540574.9000000022}},{"attributes":{"ID":227409,"DIS_CODE":0,"TOWNNAME":"歸仁區","LI":"許厝里","LIN":"3鄰","STREET":"仁愛一街","SECT":" ","MAREA":" ","LANE":"１２巷","ALLEY":" ","HOUSE_NO":"３２號","E_COORD97":178328.26000000001,"N_COORD97":2540546.8999999999,"ADDRESS":"仁愛一街１２巷３２號","OBJECTID":227405},"geometry":{"x":178328.26000000164,"y":2540546.9000000041}},{"attributes":{"ID":227410,"DIS_CODE":0,"TOWNNAME":"歸仁區","LI":"南興里","LIN":"3鄰","STREET":"文化十二街","SECT":" ","MAREA":" ","LANE":"７１巷","ALLEY":" ","HOUSE_NO":"２２號","E_COORD97":176431.44,"N_COORD97":2541347.3300000001,"ADDRESS":"文化十二街７１巷２２號","OBJECTID":227406},"geometry":{"x":176431.44000000134,"y":2541347.3300000038}},{"attributes":{"ID":227411,"DIS_CODE":0,"TOWNNAME":"新營區","LI":"忠政里","LIN":"3鄰","STREET":"中正路","SECT":" ","MAREA":" ","LANE":"３５巷","ALLEY":" ","HOUSE_NO":"１３號","E_COORD97":180033,"N_COORD97":2579096.3799999999,"ADDRESS":"中正路３５巷１３號","OBJECTID":227407},"geometry":{"x":180033.00000000093,"y":2579096.379999999}},{"attributes":{"ID":227412,"DIS_CODE":0,"TOWNNAME":"歸仁區","LI":"文化里","LIN":"3鄰","STREET":"國光街","SECT":" ","MAREA":" ","LANE":"１４３巷","ALLEY":" ","HOUSE_NO":"２８號","E_COORD97":177250.54000000001,"N_COORD97":2541219.25,"ADDRESS":"國光街１４３巷２８號","OBJECTID":227408},"geometry":{"x":177250.54000000097,"y":2541219.2500000019}},{"attributes":{"ID":227413,"DIS_CODE":0,"TOWNNAME":"歸仁區","LI":"武東里","LIN":"3鄰","STREET":"武東二街","SECT":" ","MAREA":" ","LANE":"２０巷","ALLEY":" ","HOUSE_NO":"３號","E_COORD97":175465.04000000001,"N_COORD97":2535343.25,"ADDRESS":"武東二街２０巷３號","OBJECTID":227409},"geometry":{"x":175465.0400000019,"y":2535343.2500000037}},{"attributes":{"ID":227414,"DIS_CODE":0,"TOWNNAME":"關廟區","LI":"東勢里","LIN":"3鄰","STREET":"東興路","SECT":" ","MAREA":" ","LANE":"１８８巷","ALLEY":" ","HOUSE_NO":"７號","E_COORD97":181628.97,"N_COORD97":2539522.25,"ADDRESS":"東興路１８８巷７號","OBJECTID":227410},"geometry":{"x":181628.9700000016,"y":2539522.25}},{"attributes":{"ID":227415,"DIS_CODE":0,"TOWNNAME":"關廟區","LI":"北花里","LIN":"3鄰","STREET":"中正路","SECT":" ","MAREA":" ","LANE":"６５７巷","ALLEY":" ","HOUSE_NO":"５號","E_COORD97":182062.56,"N_COORD97":2540322.25,"ADDRESS":"中正路６５７巷５號","OBJECTID":227411},"geometry":{"x":182062.56000000052,"y":2540322.25}},{"attributes":{"ID":227416,"DIS_CODE":0,"TOWNNAME":"關廟區","LI":"北花里","LIN":"3鄰","STREET":"中正路","SECT":" ","MAREA":" ","LANE":"６５７巷","ALLEY":" ","HOUSE_NO":"１３號","E_COORD97":182031.91,"N_COORD97":2540334.25,"ADDRESS":"中正路６５７巷１３號","OBJECTID":227412},"geometry":{"x":182031.91000000108,"y":2540334.2500000019}},{"attributes":{"ID":227417,"DIS_CODE":0,"TOWNNAME":"關廟區","LI":"松腳里","LIN":"3鄰","STREET":"松平街","SECT":" ","MAREA":" ","LANE":"５６巷","ALLEY":" ","HOUSE_NO":"１９號","E_COORD97":182007.76999999999,"N_COORD97":2539795.25,"ADDRESS":"松平街５６巷１９號","OBJECTID":227413},"geometry":{"x":182007.76999999955,"y":2539795.2500000019}},{"attributes":{"ID":227418,"DIS_CODE":0,"TOWNNAME":"關廟區","LI":"松腳里","LIN":"3鄰","STREET":"松平街","SECT":" ","MAREA":" ","LANE":"５６巷","ALLEY":" ","HOUSE_NO":"３１號","E_COORD97":182004.67000000001,"N_COORD97":2539800.25,"ADDRESS":"松平街５６巷３１號","OBJECTID":227414},"geometry":{"x":182004.67000000086,"y":2539800.25}},{"attributes":{"ID":227419,"DIS_CODE":0,"TOWNNAME":"關廟區","LI":"新埔里","LIN":"3鄰","STREET":"新埔三街","SECT":" ","MAREA":" ","LANE":"５巷","ALLEY":" ","HOUSE_NO":"１５號","E_COORD97":181175.57000000001,"N_COORD97":2540894.25,"ADDRESS":"新埔三街５巷１５號","OBJECTID":227415},"geometry":{"x":181175.5700000003,"y":2540894.2500000019}},{"attributes":{"ID":227420,"DIS_CODE":0,"TOWNNAME":"關廟區","LI":"新埔里","LIN":"3鄰","STREET":"新埔三街","SECT":" ","MAREA":" ","LANE":"５巷","ALLEY":" ","HOUSE_NO":"１３號","E_COORD97":181182.17000000001,"N_COORD97":2540903.25,"ADDRESS":"新埔三街５巷１３號","OBJECTID":227416},"geometry":{"x":181182.17000000086,"y":2540903.2499999981}},{"attributes":{"ID":227421,"DIS_CODE":0,"TOWNNAME":"關廟區","LI":"松腳里","LIN":"3鄰","STREET":"松平街","SECT":" ","MAREA":" ","LANE":"５６巷","ALLEY":" ","HOUSE_NO":"２５號","E_COORD97":181994.37,"N_COORD97":2539808.25,"ADDRESS":"松平街５６巷２５號","OBJECTID":227417},"geometry":{"x":181994.36999999918,"y":2539808.2500000037}},{"attributes":{"ID":227422,"DIS_CODE":0,"TOWNNAME":"關廟區","LI":"新埔里","LIN":"3鄰","STREET":"新埔三街","SECT":" ","MAREA":" ","LANE":"２７巷","ALLEY":" ","HOUSE_NO":"５３號","E_COORD97":181150.72,"N_COORD97":2540803.25,"ADDRESS":"新埔三街２７巷５３號","OBJECTID":227418},"geometry":{"x":181150.71999999974,"y":2540803.2500000019}},{"attributes":{"ID":227423,"DIS_CODE":0,"TOWNNAME":"關廟區","LI":"南花里","LIN":"3鄰","STREET":"四維街","SECT":" ","MAREA":" ","LANE":"２８８巷","ALLEY":" ","HOUSE_NO":"２５號","E_COORD97":181915.31,"N_COORD97":2540118.25,"ADDRESS":"四維街２８８巷２５號","OBJECTID":227419},"geometry":{"x":181915.31000000052,"y":2540118.2500000019}},{"attributes":{"ID":227424,"DIS_CODE":0,"TOWNNAME":"關廟區","LI":"南花里","LIN":"3鄰","STREET":"四維街","SECT":" ","MAREA":" ","LANE":"２８８巷","ALLEY":" ","HOUSE_NO":"３號","E_COORD97":181887.16,"N_COORD97":2540096.25,"ADDRESS":"四維街２８８巷３號","OBJECTID":227420},"geometry":{"x":181887.16000000015,"y":2540096.2499999981}},{"attributes":{"ID":227425,"DIS_CODE":0,"TOWNNAME":"關廟區","LI":"深坑里","LIN":"3鄰","STREET":"深坑一街","SECT":" ","MAREA":" ","LANE":"１３巷","ALLEY":" ","HOUSE_NO":"２３號","E_COORD97":181814.26999999999,"N_COORD97":2537608.2799999998,"ADDRESS":"深坑一街１３巷２３號","OBJECTID":227421},"geometry":{"x":181814.26999999955,"y":2537608.2800000012}},{"attributes":{"ID":227426,"DIS_CODE":0,"TOWNNAME":"新化區","LI":"協興里","LIN":"3鄰","STREET":"忠孝路","SECT":" ","MAREA":" ","LANE":"２４３巷","ALLEY":" ","HOUSE_NO":"１１號","E_COORD97":178495.97,"N_COORD97":2548551.25,"ADDRESS":"忠孝路２４３巷１１號","OBJECTID":227422},"geometry":{"x":178495.96999999974,"y":2548551.25}},{"attributes":{"ID":227427,"DIS_CODE":0,"TOWNNAME":"新化區","LI":"東榮里","LIN":"3鄰","STREET":"中興路","SECT":" ","MAREA":" ","LANE":"１０４巷","ALLEY":" ","HOUSE_NO":"８６號","E_COORD97":181895.66,"N_COORD97":2547461.25,"ADDRESS":"中興路１０４巷８６號","OBJECTID":227423},"geometry":{"x":181895.66000000015,"y":2547461.2500000019}},{"attributes":{"ID":227428,"DIS_CODE":0,"TOWNNAME":"新化區","LI":"觀音里","LIN":"3鄰","STREET":"仁愛街","SECT":" ","MAREA":" ","LANE":"６５巷","ALLEY":" ","HOUSE_NO":"２４號之１","E_COORD97":178960.95999999999,"N_COORD97":2548502.2599999998,"ADDRESS":"仁愛街６５巷２４號之１","OBJECTID":227424},"geometry":{"x":178960.95999999903,"y":2548502.2600000016}},{"attributes":{"ID":227429,"DIS_CODE":0,"TOWNNAME":"新化區","LI":"武安里","LIN":"3鄰","STREET":"中正路","SECT":" ","MAREA":" ","LANE":"３０７巷","ALLEY":" ","HOUSE_NO":"１４號之２","E_COORD97":179043.81,"N_COORD97":2548084.2599999998,"ADDRESS":"中正路３０７巷１４號之２","OBJECTID":227425},"geometry":{"x":179043.81000000052,"y":2548084.2600000016}},{"attributes":{"ID":227430,"DIS_CODE":0,"TOWNNAME":"南區","LI":"建南里","LIN":"3鄰","STREET":"德興路","SECT":" ","MAREA":" ","LANE":"２４７巷","ALLEY":" ","HOUSE_NO":"２７號","E_COORD97":167303.14999999999,"N_COORD97":2540071.21,"ADDRESS":"德興路２４７巷２７號","OBJECTID":227426},"geometry":{"x":167303.1500000013,"y":2540071.2100000028}},{"attributes":{"ID":227431,"DIS_CODE":0,"TOWNNAME":"北區","LI":"新勝里","LIN":"3鄰","STREET":"開元路","SECT":" ","MAREA":" ","LANE":"３３３巷","ALLEY":" ","HOUSE_NO":"１０號","E_COORD97":170181.16,"N_COORD97":2545473.2999999998,"ADDRESS":"開元路３３３巷１０號","OBJECTID":227427},"geometry":{"x":170181.16000000108,"y":2545473.3000000007}},{"attributes":{"ID":227432,"DIS_CODE":0,"TOWNNAME":"北區","LI":"新勝里","LIN":"3鄰","STREET":"開元路","SECT":" ","MAREA":" ","LANE":"３３３巷","ALLEY":" ","HOUSE_NO":"１０號之１","E_COORD97":170178.23999999999,"N_COORD97":2545475.8300000001,"ADDRESS":"開元路３３３巷１０號之１","OBJECTID":227428},"geometry":{"x":170178.23999999929,"y":2545475.8300000001}},{"attributes":{"ID":227433,"DIS_CODE":0,"TOWNNAME":"北區","LI":"新勝里","LIN":"3鄰","STREET":"開元路","SECT":" ","MAREA":" ","LANE":"３３３巷","ALLEY":" ","HOUSE_NO":"１０號之２","E_COORD97":170174.60000000001,"N_COORD97":2545478.9900000002,"ADDRESS":"開元路３３３巷１０號之２","OBJECTID":227429},"geometry":{"x":170174.59999999963,"y":2545478.9900000039}},{"attributes":{"ID":227434,"DIS_CODE":0,"TOWNNAME":"北區","LI":"新勝里","LIN":"3鄰","STREET":"開元路","SECT":" ","MAREA":" ","LANE":"３３３巷","ALLEY":" ","HOUSE_NO":"１４號之１","E_COORD97":170166.92000000001,"N_COORD97":2545484.23,"ADDRESS":"開元路３３３巷１４號之１","OBJECTID":227430},"geometry":{"x":170166.92000000086,"y":2545484.2299999986}},{"attributes":{"ID":227435,"DIS_CODE":0,"TOWNNAME":"北區","LI":"新勝里","LIN":"3鄰","STREET":"開元路","SECT":" ","MAREA":" ","LANE":"３３３巷","ALLEY":" ","HOUSE_NO":"１４號之２","E_COORD97":170163.13,"N_COORD97":2545486.4399999999,"ADDRESS":"開元路３３３巷１４號之２","OBJECTID":227431},"geometry":{"x":170163.12999999989,"y":2545486.4400000013}},{"attributes":{"ID":227436,"DIS_CODE":0,"TOWNNAME":"北區","LI":"新勝里","LIN":"3鄰","STREET":"開元路","SECT":" ","MAREA":" ","LANE":"３３３巷","ALLEY":" ","HOUSE_NO":"１４號之３","E_COORD97":170159.57000000001,"N_COORD97":2545489.3599999999,"ADDRESS":"開元路３３３巷１４號之３","OBJECTID":227432},"geometry":{"x":170159.57000000123,"y":2545489.3600000031}},{"attributes":{"ID":227437,"DIS_CODE":0,"TOWNNAME":"仁德區","LI":"太子里","LIN":"1鄰","STREET":"太子路","SECT":" ","MAREA":" ","LANE":" ","ALLEY":" ","HOUSE_NO":"２４０號","E_COORD97":174154.95999999999,"N_COORD97":2543508.5099999998,"ADDRESS":"太子路２４０號","OBJECTID":227433},"geometry":{"x":174154.95999999996,"y":2543508.5100000035}},{"attributes":{"ID":227438,"DIS_CODE":0,"TOWNNAME":"北區","LI":"新勝里","LIN":"3鄰","STREET":"開元路","SECT":" ","MAREA":" ","LANE":"３３３巷","ALLEY":" ","HOUSE_NO":"１４號之４","E_COORD97":170156.48999999999,"N_COORD97":2545491.73,"ADDRESS":"開元路３３３巷１４號之４","OBJECTID":227434},"geometry":{"x":170156.49000000115,"y":2545491.7300000023}},{"attributes":{"ID":227439,"DIS_CODE":0,"TOWNNAME":"北區","LI":"新勝里","LIN":"3鄰","STREET":"開元路","SECT":" ","MAREA":" ","LANE":"３３３巷","ALLEY":" ","HOUSE_NO":"１４號之５","E_COORD97":170153.41,"N_COORD97":2545494.6499999999,"ADDRESS":"開元路３３３巷１４號之５","OBJECTID":227435},"geometry":{"x":170153.41000000201,"y":2545494.6500000004}},{"attributes":{"ID":227440,"DIS_CODE":0,"TOWNNAME":"北區","LI":"新勝里","LIN":"3鄰","STREET":"開元路","SECT":" ","MAREA":" ","LANE":"３３３巷","ALLEY":" ","HOUSE_NO":"１４號之６","E_COORD97":170151.04000000001,"N_COORD97":2545497.6400000001,"ADDRESS":"開元路３３３巷１４號之６","OBJECTID":227436},"geometry":{"x":170151.04000000097,"y":2545497.6400000006}},{"attributes":{"ID":227441,"DIS_CODE":0,"TOWNNAME":"南區","LI":"同安里","LIN":"3鄰","STREET":"灣裡路","SECT":" ","MAREA":" ","LANE":"３５１巷","ALLEY":" ","HOUSE_NO":"６之６號","E_COORD97":166220.82000000001,"N_COORD97":2536161.9100000001,"ADDRESS":"灣裡路３５１巷６之６號","OBJECTID":227437},"geometry":{"x":166220.8200000003,"y":2536161.9100000001}},{"attributes":{"ID":227442,"DIS_CODE":0,"TOWNNAME":"南區","LI":"建南里","LIN":"3鄰","STREET":"德興路","SECT":" ","MAREA":" ","LANE":"２３７巷","ALLEY":" ","HOUSE_NO":"１４號","E_COORD97":167274.79000000001,"N_COORD97":2540099.0499999998,"ADDRESS":"德興路２３７巷１４號","OBJECTID":227438},"geometry":{"x":167274.79000000004,"y":2540099.0500000026}},{"attributes":{"ID":227443,"DIS_CODE":0,"TOWNNAME":"永康區","LI":"北灣里","LIN":"3鄰","STREET":"文賢街","SECT":" ","MAREA":" ","LANE":"１３６巷","ALLEY":" ","HOUSE_NO":"２號五樓之５","E_COORD97":175408.16,"N_COORD97":2545555.9300000002,"ADDRESS":"文賢街１３６巷２號五樓之５","OBJECTID":227439},"geometry":{"x":175408.16000000015,"y":2545555.9299999997}},{"attributes":{"ID":227444,"DIS_CODE":0,"TOWNNAME":"北區","LI":"文元里","LIN":"3鄰","STREET":"文賢路","SECT":" ","MAREA":" ","LANE":"１１２２巷","ALLEY":" ","HOUSE_NO":"１３６之２號","E_COORD97":167649.28,"N_COORD97":2546353.46,"ADDRESS":"文賢路１１２２巷１３６之２號","OBJECTID":227440},"geometry":{"x":167649.28000000119,"y":2546353.4600000009}},{"attributes":{"ID":227445,"DIS_CODE":0,"TOWNNAME":"北區","LI":"賢北里","LIN":"3鄰","STREET":"中華北路","SECT":"一段","MAREA":" ","LANE":"１０５巷","ALLEY":" ","HOUSE_NO":"８號","E_COORD97":166425.45000000001,"N_COORD97":2545487.9900000002,"ADDRESS":"中華北路一段１０５巷８號","OBJECTID":227441},"geometry":{"x":166425.45000000205,"y":2545487.9900000002}},{"attributes":{"ID":227446,"DIS_CODE":0,"TOWNNAME":"北區","LI":"賢北里","LIN":"3鄰","STREET":"中華北路","SECT":"一段","MAREA":" ","LANE":"１０５巷","ALLEY":" ","HOUSE_NO":"８之２號","E_COORD97":166417.06,"N_COORD97":2545484.9399999999,"ADDRESS":"中華北路一段１０５巷８之２號","OBJECTID":227442},"geometry":{"x":166417.05999999959,"y":2545484.9399999995}},{"attributes":{"ID":227447,"DIS_CODE":0,"TOWNNAME":"北區","LI":"賢北里","LIN":"3鄰","STREET":"中華北路","SECT":"一段","MAREA":" ","LANE":"１０５巷","ALLEY":" ","HOUSE_NO":"８號","E_COORD97":166477.14000000001,"N_COORD97":2545503.54,"ADDRESS":"中華北路一段１０５巷８號","OBJECTID":227443},"geometry":{"x":166477.13999999966,"y":2545503.5399999991}},{"attributes":{"ID":227448,"DIS_CODE":0,"TOWNNAME":"北區","LI":"賢北里","LIN":"3鄰","STREET":"中華北路","SECT":"一段","MAREA":" ","LANE":"１０５巷","ALLEY":" ","HOUSE_NO":"８之１號","E_COORD97":166472.94,"N_COORD97":2545501.8900000001,"ADDRESS":"中華北路一段１０５巷８之１號","OBJECTID":227444},"geometry":{"x":166472.94000000041,"y":2545501.8900000025}},{"attributes":{"ID":227449,"DIS_CODE":0,"TOWNNAME":"北區","LI":"賢北里","LIN":"3鄰","STREET":"中華北路","SECT":"一段","MAREA":" ","LANE":"１０５巷","ALLEY":" ","HOUSE_NO":"８之２號","E_COORD97":166468.63,"N_COORD97":2545500.2400000002,"ADDRESS":"中華北路一段１０５巷８之２號","OBJECTID":227445},"geometry":{"x":166468.63000000082,"y":2545500.2400000002}},{"attributes":{"ID":227450,"DIS_CODE":0,"TOWNNAME":"北區","LI":"賢北里","LIN":"3鄰","STREET":"中華北路","SECT":"一段","MAREA":" ","LANE":"１０５巷","ALLEY":" ","HOUSE_NO":"８之３號","E_COORD97":166463.54999999999,"N_COORD97":2545498.5899999999,"ADDRESS":"中華北路一段１０５巷８之３號","OBJECTID":227446},"geometry":{"x":166463.55000000075,"y":2545498.5900000017}},{"attributes":{"ID":227451,"DIS_CODE":0,"TOWNNAME":"北區","LI":"賢北里","LIN":"3鄰","STREET":"中華北路","SECT":"一段","MAREA":" ","LANE":"１０５巷","ALLEY":" ","HOUSE_NO":"１０號","E_COORD97":166458.47,"N_COORD97":2545496.8100000001,"ADDRESS":"中華北路一段１０５巷１０號","OBJECTID":227447},"geometry":{"x":166458.46999999974,"y":2545496.8100000005}},{"attributes":{"ID":227452,"DIS_CODE":0,"TOWNNAME":"北區","LI":"文元里","LIN":"3鄰","STREET":"中華北路","SECT":"二段","MAREA":" ","LANE":"８０巷","ALLEY":" ","HOUSE_NO":"４６之１號","E_COORD97":167710.16,"N_COORD97":2546460.1800000002,"ADDRESS":"中華北路二段８０巷４６之１號","OBJECTID":227448},"geometry":{"x":167710.16000000015,"y":2546460.1799999978}},{"attributes":{"ID":227453,"DIS_CODE":0,"TOWNNAME":"南區","LI":"建南里","LIN":"3鄰","STREET":"德興路","SECT":" ","MAREA":" ","LANE":"２３７巷","ALLEY":" ","HOUSE_NO":"１６號","E_COORD97":167294.98000000001,"N_COORD97":2540103.04,"ADDRESS":"德興路２３７巷１６號","OBJECTID":227449},"geometry":{"x":167294.98000000045,"y":2540103.0399999991}},{"attributes":{"ID":227454,"DIS_CODE":0,"TOWNNAME":"南區","LI":"田寮里","LIN":"3鄰","STREET":"夏林路","SECT":" ","MAREA":" ","LANE":"３１０巷","ALLEY":" ","HOUSE_NO":"２號","E_COORD97":167402.5,"N_COORD97":2541846.96,"ADDRESS":"夏林路３１０巷２號","OBJECTID":227450},"geometry":{"x":167402.5,"y":2541846.9600000028}},{"attributes":{"ID":227455,"DIS_CODE":0,"TOWNNAME":"南區","LI":"同安里","LIN":"3鄰","STREET":"灣裡路","SECT":" ","MAREA":" ","LANE":"３６９巷","ALLEY":" ","HOUSE_NO":"５號之１","E_COORD97":166244.07999999999,"N_COORD97":2536152.4100000001,"ADDRESS":"灣裡路３６９巷５號之１","OBJECTID":227451},"geometry":{"x":166244.08000000007,"y":2536152.4099999983}},{"attributes":{"ID":227456,"DIS_CODE":0,"TOWNNAME":"南區","LI":"建南里","LIN":"3鄰","STREET":"德興路","SECT":" ","MAREA":" ","LANE":"２３７巷","ALLEY":" ","HOUSE_NO":"２５號","E_COORD97":167287.70999999999,"N_COORD97":2540122.1800000002,"ADDRESS":"德興路２３７巷２５號","OBJECTID":227452},"geometry":{"x":167287.70999999996,"y":2540122.1799999997}},{"attributes":{"ID":227457,"DIS_CODE":0,"TOWNNAME":"南區","LI":"建南里","LIN":"3鄰","STREET":"德興路","SECT":" ","MAREA":" ","LANE":"２３７巷","ALLEY":" ","HOUSE_NO":"２７號","E_COORD97":167293.57999999999,"N_COORD97":2540122.1800000002,"ADDRESS":"德興路２３７巷２７號","OBJECTID":227453},"geometry":{"x":167293.58000000007,"y":2540122.1799999997}},{"attributes":{"ID":227458,"DIS_CODE":0,"TOWNNAME":"北區","LI":"大港里","LIN":"3鄰","STREET":"大興街","SECT":" ","MAREA":" ","LANE":"１７４巷","ALLEY":" ","HOUSE_NO":"３號","E_COORD97":166867.14999999999,"N_COORD97":2545715.6400000001,"ADDRESS":"大興街１７４巷３號","OBJECTID":227454},"geometry":{"x":166867.1500000013,"y":2545715.6400000043}},{"attributes":{"ID":227459,"DIS_CODE":0,"TOWNNAME":"北區","LI":"大港里","LIN":"3鄰","STREET":"大興街","SECT":" ","MAREA":" ","LANE":"１７４巷","ALLEY":" ","HOUSE_NO":"４１號","E_COORD97":166859.42999999999,"N_COORD97":2545809.2999999998,"ADDRESS":"大興街１７４巷４１號","OBJECTID":227455},"geometry":{"x":166859.43000000063,"y":2545809.3000000007}},{"attributes":{"ID":227460,"DIS_CODE":0,"TOWNNAME":"北區","LI":"大港里","LIN":"3鄰","STREET":"大興街","SECT":" ","MAREA":" ","LANE":"１７４巷","ALLEY":" ","HOUSE_NO":"４３號","E_COORD97":166858.37,"N_COORD97":2545814.0800000001,"ADDRESS":"大興街１７４巷４３號","OBJECTID":227456},"geometry":{"x":166858.37000000104,"y":2545814.0800000038}},{"attributes":{"ID":227461,"DIS_CODE":0,"TOWNNAME":"北區","LI":"賢北里","LIN":"3鄰","STREET":"大興街","SECT":" ","MAREA":" ","LANE":"３７３巷","ALLEY":" ","HOUSE_NO":"４號","E_COORD97":166420.29999999999,"N_COORD97":2545556.8100000001,"ADDRESS":"大興街３７３巷４號","OBJECTID":227457},"geometry":{"x":166420.29999999981,"y":2545556.8100000024}},{"attributes":{"ID":227462,"DIS_CODE":0,"TOWNNAME":"北區","LI":"賢北里","LIN":"3鄰","STREET":"大興街","SECT":" ","MAREA":" ","LANE":"３７３巷","ALLEY":" ","HOUSE_NO":"５號","E_COORD97":166437.57999999999,"N_COORD97":2545561.1400000001,"ADDRESS":"大興街３７３巷５號","OBJECTID":227458},"geometry":{"x":166437.58000000007,"y":2545561.1400000025}},{"attributes":{"ID":227463,"DIS_CODE":0,"TOWNNAME":"關廟區","LI":"深坑里","LIN":"3鄰","STREET":"深坑一街","SECT":" ","MAREA":" ","LANE":"１３巷","ALLEY":" ","HOUSE_NO":"１７號","E_COORD97":181829.87,"N_COORD97":2537595.2999999998,"ADDRESS":"深坑一街１３巷１７號","OBJECTID":227459},"geometry":{"x":181829.87000000011,"y":2537595.3000000026}},{"attributes":{"ID":227464,"DIS_CODE":0,"TOWNNAME":"南區","LI":"廣州里","LIN":"3鄰","STREET":"健康路","SECT":"二段","MAREA":" ","LANE":"１１６巷","ALLEY":" ","HOUSE_NO":"１８號","E_COORD97":167436.32999999999,"N_COORD97":2542508.3799999999,"ADDRESS":"健康路二段１１６巷１８號","OBJECTID":227460},"geometry":{"x":167436.32999999914,"y":2542508.3800000027}},{"attributes":{"ID":227465,"DIS_CODE":0,"TOWNNAME":"南區","LI":"廣州里","LIN":"3鄰","STREET":"健康路","SECT":"二段","MAREA":" ","LANE":"１１６巷","ALLEY":" ","HOUSE_NO":"１號","E_COORD97":167393.19,"N_COORD97":2542497.8399999999,"ADDRESS":"健康路二段１１６巷１號","OBJECTID":227461},"geometry":{"x":167393.19000000041,"y":2542497.8399999999}},{"attributes":{"ID":227466,"DIS_CODE":0,"TOWNNAME":"南區","LI":"廣州里","LIN":"3鄰","STREET":"健康路","SECT":"二段","MAREA":" ","LANE":"１１６巷","ALLEY":" ","HOUSE_NO":"２０號","E_COORD97":167413.53,"N_COORD97":2542521.0299999998,"ADDRESS":"健康路二段１１６巷２０號","OBJECTID":227462},"geometry":{"x":167413.53000000119,"y":2542521.0299999993}},{"attributes":{"ID":227467,"DIS_CODE":0,"TOWNNAME":"南區","LI":"廣州里","LIN":"3鄰","STREET":"健康路","SECT":"二段","MAREA":" ","LANE":"１１６巷","ALLEY":" ","HOUSE_NO":"２２號","E_COORD97":167416.06,"N_COORD97":2542531.1499999999,"ADDRESS":"健康路二段１１６巷２２號","OBJECTID":227463},"geometry":{"x":167416.06000000052,"y":2542531.1500000004}},{"attributes":{"ID":227468,"DIS_CODE":0,"TOWNNAME":"南區","LI":"廣州里","LIN":"3鄰","STREET":"健康路","SECT":"二段","MAREA":" ","LANE":"１１６巷","ALLEY":" ","HOUSE_NO":"２４號","E_COORD97":167418.17000000001,"N_COORD97":2542538.3199999998,"ADDRESS":"健康路二段１１６巷２４號","OBJECTID":227464},"geometry":{"x":167418.16999999993,"y":2542538.3200000022}},{"attributes":{"ID":227469,"DIS_CODE":0,"TOWNNAME":"南區","LI":"廣州里","LIN":"3鄰","STREET":"健康路","SECT":"二段","MAREA":" ","LANE":"１１６巷","ALLEY":" ","HOUSE_NO":"２號","E_COORD97":167415.22,"N_COORD97":2542495.73,"ADDRESS":"健康路二段１１６巷２號","OBJECTID":227465},"geometry":{"x":167415.22000000067,"y":2542495.7300000023}},{"attributes":{"ID":227470,"DIS_CODE":0,"TOWNNAME":"歸仁區","LI":"許厝里","LIN":"3鄰","STREET":"仁愛南街","SECT":" ","MAREA":" ","LANE":"５７巷","ALLEY":" ","HOUSE_NO":"３號","E_COORD97":178310.98999999999,"N_COORD97":2540489.6099999999,"ADDRESS":"仁愛南街５７巷３號","OBJECTID":227466},"geometry":{"x":178310.99000000115,"y":2540489.6099999994}},{"attributes":{"ID":227471,"DIS_CODE":0,"TOWNNAME":"歸仁區","LI":"許厝里","LIN":"3鄰","STREET":"仁愛南街","SECT":" ","MAREA":" ","LANE":"５７巷","ALLEY":" ","HOUSE_NO":"５號","E_COORD97":178315.17999999999,"N_COORD97":2540491.1200000001,"ADDRESS":"仁愛南街５７巷５號","OBJECTID":227467},"geometry":{"x":178315.18000000156,"y":2540491.120000001}},{"attributes":{"ID":227472,"DIS_CODE":0,"TOWNNAME":"歸仁區","LI":"許厝里","LIN":"3鄰","STREET":"仁愛南街","SECT":" ","MAREA":" ","LANE":"５７巷","ALLEY":" ","HOUSE_NO":"７號","E_COORD97":178318.85000000001,"N_COORD97":2540492.4900000002,"ADDRESS":"仁愛南街５７巷７號","OBJECTID":227468},"geometry":{"x":178318.8499999987,"y":2540492.4900000021}},{"attributes":{"ID":227473,"DIS_CODE":0,"TOWNNAME":"南區","LI":"新興里","LIN":"3鄰","STREET":"五妃街","SECT":" ","MAREA":" ","LANE":"４１９巷","ALLEY":" ","HOUSE_NO":"１４號","E_COORD97":167559.64999999999,"N_COORD97":2542565.0099999998,"ADDRESS":"五妃街４１９巷１４號","OBJECTID":227469},"geometry":{"x":167559.65000000037,"y":2542565.0099999998}},{"attributes":{"ID":227474,"DIS_CODE":0,"TOWNNAME":"南區","LI":"新興里","LIN":"3鄰","STREET":"五妃街","SECT":" ","MAREA":" ","LANE":"４１９巷","ALLEY":" ","HOUSE_NO":"２號","E_COORD97":167588.14000000001,"N_COORD97":2542561.6400000001,"ADDRESS":"五妃街４１９巷２號","OBJECTID":227470},"geometry":{"x":167588.14000000153,"y":2542561.6400000006}},{"attributes":{"ID":227475,"DIS_CODE":0,"TOWNNAME":"南區","LI":"新興里","LIN":"3鄰","STREET":"五妃街","SECT":" ","MAREA":" ","LANE":"４１９巷","ALLEY":" ","HOUSE_NO":"４號","E_COORD97":167581.89999999999,"N_COORD97":2542562.9900000002,"ADDRESS":"五妃街４１９巷４號","OBJECTID":227471},"geometry":{"x":167581.90000000037,"y":2542562.9900000002}},{"attributes":{"ID":227476,"DIS_CODE":0,"TOWNNAME":"南區","LI":"新興里","LIN":"3鄰","STREET":"五妃街","SECT":" ","MAREA":" ","LANE":"４１９巷","ALLEY":" ","HOUSE_NO":"６號","E_COORD97":167577.10000000001,"N_COORD97":2542563.6600000001,"ADDRESS":"五妃街４１９巷６號","OBJECTID":227472},"geometry":{"x":167577.10000000056,"y":2542563.660000002}},{"attributes":{"ID":227477,"DIS_CODE":0,"TOWNNAME":"南區","LI":"新興里","LIN":"3鄰","STREET":"五妃街","SECT":" ","MAREA":" ","LANE":"４１９巷","ALLEY":" ","HOUSE_NO":"８號","E_COORD97":167572.70999999999,"N_COORD97":2542563.9100000001,"ADDRESS":"五妃街４１９巷８號","OBJECTID":227473},"geometry":{"x":167572.71000000183,"y":2542563.9100000039}},{"attributes":{"ID":227478,"DIS_CODE":0,"TOWNNAME":"南區","LI":"新興里","LIN":"3鄰","STREET":"五妃街","SECT":" ","MAREA":" ","LANE":"４１９巷","ALLEY":" ","HOUSE_NO":"１６號","E_COORD97":167555.42999999999,"N_COORD97":2542565.8500000001,"ADDRESS":"五妃街４１９巷１６號","OBJECTID":227474},"geometry":{"x":167555.4299999997,"y":2542565.8499999996}},{"attributes":{"ID":227479,"DIS_CODE":0,"TOWNNAME":"南區","LI":"新興里","LIN":"3鄰","STREET":"五妃街","SECT":" ","MAREA":" ","LANE":"４１９巷","ALLEY":" ","HOUSE_NO":"１８號","E_COORD97":167549.87,"N_COORD97":2542566.27,"ADDRESS":"五妃街４１９巷１８號","OBJECTID":227475},"geometry":{"x":167549.87000000197,"y":2542566.2699999996}},{"attributes":{"ID":227480,"DIS_CODE":0,"TOWNNAME":"南區","LI":"再興里","LIN":"3鄰","STREET":"金華路","SECT":"二段","MAREA":" ","LANE":"２２８巷","ALLEY":" ","HOUSE_NO":"１號","E_COORD97":167131.54999999999,"N_COORD97":2542386.25,"ADDRESS":"金華路二段２２８巷１號","OBJECTID":227476},"geometry":{"x":167131.55000000075,"y":2542386.2500000019}},{"attributes":{"ID":227481,"DIS_CODE":0,"TOWNNAME":"安平區","LI":"漁光里","LIN":"3鄰","STREET":"漁光路","SECT":" ","MAREA":" ","LANE":"８９巷","ALLEY":" ","HOUSE_NO":"３９之２號","E_COORD97":163853.51999999999,"N_COORD97":2541962.3100000001,"ADDRESS":"漁光路８９巷３９之２號","OBJECTID":227477},"geometry":{"x":163853.51999999955,"y":2541962.3100000024}},{"attributes":{"ID":227482,"DIS_CODE":0,"TOWNNAME":"安平區","LI":"文平里","LIN":"3鄰","STREET":"中華西路","SECT":"二段","MAREA":" ","LANE":"４９巷","ALLEY":" ","HOUSE_NO":"４８號","E_COORD97":166474.81,"N_COORD97":2543154.8300000001,"ADDRESS":"中華西路二段４９巷４８號","OBJECTID":227478},"geometry":{"x":166474.80999999866,"y":2543154.8300000019}},{"attributes":{"ID":227483,"DIS_CODE":0,"TOWNNAME":"安平區","LI":"文平里","LIN":"3鄰","STREET":"中華西路","SECT":"二段","MAREA":" ","LANE":"４９巷","ALLEY":" ","HOUSE_NO":"５０號","E_COORD97":166468.04000000001,"N_COORD97":2543156.0299999998,"ADDRESS":"中華西路二段４９巷５０號","OBJECTID":227479},"geometry":{"x":166468.04000000004,"y":2543156.0300000012}},{"attributes":{"ID":227484,"DIS_CODE":0,"TOWNNAME":"安平區","LI":"文平里","LIN":"3鄰","STREET":"中華西路","SECT":"二段","MAREA":" ","LANE":"４９巷","ALLEY":" ","HOUSE_NO":"５２號","E_COORD97":166461.06,"N_COORD97":2543156.6299999999,"ADDRESS":"中華西路二段４９巷５２號","OBJECTID":227480},"geometry":{"x":166461.05999999959,"y":2543156.629999999}},{"attributes":{"ID":227485,"DIS_CODE":0,"TOWNNAME":"安平區","LI":"文平里","LIN":"3鄰","STREET":"中華西路","SECT":"二段","MAREA":" ","LANE":"４９巷","ALLEY":" ","HOUSE_NO":"５４號","E_COORD97":166455.14000000001,"N_COORD97":2543157.0600000001,"ADDRESS":"中華西路二段４９巷５４號","OBJECTID":227481},"geometry":{"x":166455.13999999966,"y":2543157.0600000024}},{"attributes":{"ID":227486,"DIS_CODE":0,"TOWNNAME":"北區","LI":"六甲里","LIN":"3鄰","STREET":"公園路","SECT":" ","MAREA":" ","LANE":"５０９巷","ALLEY":" ","HOUSE_NO":"５號","E_COORD97":169005.07999999999,"N_COORD97":2545545.0499999998,"ADDRESS":"公園路５０９巷５號","OBJECTID":227482},"geometry":{"x":169005.08000000101,"y":2545545.0500000026}},{"attributes":{"ID":227487,"DIS_CODE":0,"TOWNNAME":"北區","LI":"六甲里","LIN":"3鄰","STREET":"公園路","SECT":" ","MAREA":" ","LANE":"５０９巷","ALLEY":" ","HOUSE_NO":"７號","E_COORD97":168997.57000000001,"N_COORD97":2545542.5499999998,"ADDRESS":"公園路５０９巷７號","OBJECTID":227483},"geometry":{"x":168997.5700000003,"y":2545542.5500000007}},{"attributes":{"ID":227488,"DIS_CODE":0,"TOWNNAME":"北區","LI":"文元里","LIN":"3鄰","STREET":"文賢路","SECT":" ","MAREA":" ","LANE":"１１２２巷","ALLEY":" ","HOUSE_NO":"１１２號","E_COORD97":167869.88,"N_COORD97":2546497.77,"ADDRESS":"文賢路１１２２巷１１２號","OBJECTID":227484},"geometry":{"x":167869.88000000175,"y":2546497.7700000014}},{"attributes":{"ID":227489,"DIS_CODE":0,"TOWNNAME":"北區","LI":"正風里","LIN":"3鄰","STREET":"公園路","SECT":" ","MAREA":" ","LANE":"９１８巷","ALLEY":" ","HOUSE_NO":"１２號","E_COORD97":169458.04000000001,"N_COORD97":2546129.75,"ADDRESS":"公園路９１８巷１２號","OBJECTID":227485},"geometry":{"x":169458.04000000097,"y":2546129.75}},{"attributes":{"ID":227490,"DIS_CODE":0,"TOWNNAME":"北區","LI":"正風里","LIN":"3鄰","STREET":"公園路","SECT":" ","MAREA":" ","LANE":"９１８巷","ALLEY":" ","HOUSE_NO":"１２號之１","E_COORD97":169462.12,"N_COORD97":2546128.9500000002,"ADDRESS":"公園路９１８巷１２號之１","OBJECTID":227486},"geometry":{"x":169462.12000000104,"y":2546128.9499999993}},{"attributes":{"ID":227491,"DIS_CODE":0,"TOWNNAME":"北區","LI":"正風里","LIN":"3鄰","STREET":"公園路","SECT":" ","MAREA":" ","LANE":"９１８巷","ALLEY":" ","HOUSE_NO":"１６號","E_COORD97":169480.92999999999,"N_COORD97":2546121.8500000001,"ADDRESS":"公園路９１８巷１６號","OBJECTID":227487},"geometry":{"x":169480.9299999997,"y":2546121.8499999996}},{"attributes":{"ID":227492,"DIS_CODE":0,"TOWNNAME":"北區","LI":"國興里","LIN":"3鄰","STREET":"南園街","SECT":" ","MAREA":" ","LANE":"４９巷","ALLEY":" ","HOUSE_NO":"５１號","E_COORD97":170507.31,"N_COORD97":2545512.5699999998,"ADDRESS":"南園街４９巷５１號","OBJECTID":227488},"geometry":{"x":170507.30999999959,"y":2545512.570000004}},{"attributes":{"ID":227493,"DIS_CODE":0,"TOWNNAME":"北區","LI":"裕民里","LIN":"3鄰","STREET":"成功路","SECT":" ","MAREA":" ","LANE":"５０４巷","ALLEY":" ","HOUSE_NO":"２８號","E_COORD97":167717.45000000001,"N_COORD97":2544734.7599999998,"ADDRESS":"成功路５０４巷２８號","OBJECTID":227489},"geometry":{"x":167717.45000000112,"y":2544734.7600000016}},{"attributes":{"ID":227494,"DIS_CODE":0,"TOWNNAME":"北區","LI":"裕民里","LIN":"3鄰","STREET":"成功路","SECT":" ","MAREA":" ","LANE":"５０４巷","ALLEY":" ","HOUSE_NO":"２６號","E_COORD97":167716.5,"N_COORD97":2544731.3199999998,"ADDRESS":"成功路５０４巷２６號","OBJECTID":227490},"geometry":{"x":167716.49999999907,"y":2544731.3200000022}},{"attributes":{"ID":227495,"DIS_CODE":0,"TOWNNAME":"北區","LI":"裕民里","LIN":"3鄰","STREET":"成功路","SECT":" ","MAREA":" ","LANE":"５０４巷","ALLEY":" ","HOUSE_NO":"２４號","E_COORD97":167715.54000000001,"N_COORD97":2544727.8799999999,"ADDRESS":"成功路５０４巷２４號","OBJECTID":227491},"geometry":{"x":167715.54000000004,"y":2544727.879999999}},{"attributes":{"ID":227496,"DIS_CODE":0,"TOWNNAME":"北區","LI":"裕民里","LIN":"3鄰","STREET":"成功路","SECT":" ","MAREA":" ","LANE":"５０４巷","ALLEY":" ","HOUSE_NO":"２２號","E_COORD97":167714.20000000001,"N_COORD97":2544724.6299999999,"ADDRESS":"成功路５０４巷２２號","OBJECTID":227492},"geometry":{"x":167714.20000000112,"y":2544724.6300000008}},{"attributes":{"ID":227497,"DIS_CODE":0,"TOWNNAME":"北區","LI":"裕民里","LIN":"3鄰","STREET":"成功路","SECT":" ","MAREA":" ","LANE":"５０４巷","ALLEY":" ","HOUSE_NO":"２０號","E_COORD97":167713.82000000001,"N_COORD97":2544721.5800000001,"ADDRESS":"成功路５０４巷２０號","OBJECTID":227493},"geometry":{"x":167713.82000000123,"y":2544721.5800000001}},{"attributes":{"ID":227498,"DIS_CODE":0,"TOWNNAME":"北區","LI":"裕民里","LIN":"3鄰","STREET":"成功路","SECT":" ","MAREA":" ","LANE":"５０４巷","ALLEY":" ","HOUSE_NO":"１８號","E_COORD97":167712.29000000001,"N_COORD97":2544718.52,"ADDRESS":"成功路５０４巷１８號","OBJECTID":227494},"geometry":{"x":167712.29000000004,"y":2544718.5199999977}},{"attributes":{"ID":227499,"DIS_CODE":0,"TOWNNAME":"新化區","LI":"觀音里","LIN":"3鄰","STREET":"仁愛街","SECT":" ","MAREA":" ","LANE":"６５巷","ALLEY":" ","HOUSE_NO":"２８號","E_COORD97":178961.53,"N_COORD97":2548494.25,"ADDRESS":"仁愛街６５巷２８號","OBJECTID":227495},"geometry":{"x":178961.53000000119,"y":2548494.2499999981}},{"attributes":{"ID":227500,"DIS_CODE":0,"TOWNNAME":"新化區","LI":"協興里","LIN":"3鄰","STREET":"中山路","SECT":" ","MAREA":" ","LANE":"５４８巷","ALLEY":" ","HOUSE_NO":"１０號","E_COORD97":178449.45999999999,"N_COORD97":2548528.25,"ADDRESS":"中山路５４８巷１０號","OBJECTID":227496},"geometry":{"x":178449.46000000089,"y":2548528.2500000037}},{"attributes":{"ID":227501,"DIS_CODE":0,"TOWNNAME":"永康區","LI":"正強里","LIN":"48鄰","STREET":"中正路","SECT":" ","MAREA":" ","LANE":"２５６巷","ALLEY":" ","HOUSE_NO":"１３號之６","E_COORD97":173254.78,"N_COORD97":2548001.6699999999,"ADDRESS":"中正路２５６巷１３號之６","OBJECTID":227497},"geometry":{"x":173254.77999999933,"y":2548001.6699999999}},{"attributes":{"ID":227502,"DIS_CODE":0,"TOWNNAME":"永康區","LI":"北灣里","LIN":"16鄰","STREET":"文賢街","SECT":" ","MAREA":" ","LANE":"３６０巷","ALLEY":" ","HOUSE_NO":"４６號","E_COORD97":174853.12,"N_COORD97":2545892.3300000001,"ADDRESS":"文賢街３６０巷４６號","OBJECTID":227498},"geometry":{"x":174853.12000000104,"y":2545892.3300000001}},{"attributes":{"ID":227503,"DIS_CODE":0,"TOWNNAME":"新化區","LI":"武安里","LIN":"3鄰","STREET":"中正路","SECT":" ","MAREA":" ","LANE":"３０７巷","ALLEY":" ","HOUSE_NO":"１０號之１","E_COORD97":179055.79000000001,"N_COORD97":2548116.2599999998,"ADDRESS":"中正路３０７巷１０號之１","OBJECTID":227499},"geometry":{"x":179055.79000000097,"y":2548116.2599999998}},{"attributes":{"ID":227504,"DIS_CODE":0,"TOWNNAME":"新化區","LI":"武安里","LIN":"3鄰","STREET":"中正路","SECT":" ","MAREA":" ","LANE":"３０７巷","ALLEY":" ","HOUSE_NO":"１號","E_COORD97":179086.01000000001,"N_COORD97":2548100.25,"ADDRESS":"中正路３０７巷１號","OBJECTID":227500},"geometry":{"x":179086.01000000164,"y":2548100.25}},{"attributes":{"ID":227505,"DIS_CODE":0,"TOWNNAME":"新化區","LI":"協興里","LIN":"3鄰","STREET":"忠孝路","SECT":" ","MAREA":" ","LANE":"２４３巷","ALLEY":" ","HOUSE_NO":"１４號","E_COORD97":178482.87,"N_COORD97":2548539.25,"ADDRESS":"忠孝路２４３巷１４號","OBJECTID":227501},"geometry":{"x":178482.87000000104,"y":2548539.2500000019}},{"attributes":{"ID":227506,"DIS_CODE":0,"TOWNNAME":"新化區","LI":"協興里","LIN":"3鄰","STREET":"正新路","SECT":" ","MAREA":" ","LANE":"２５１巷","ALLEY":" ","HOUSE_NO":"３２號","E_COORD97":178465.67000000001,"N_COORD97":2548527.2400000002,"ADDRESS":"正新路２５１巷３２號","OBJECTID":227502},"geometry":{"x":178465.66999999993,"y":2548527.2400000002}},{"attributes":{"ID":227507,"DIS_CODE":0,"TOWNNAME":"永康區","LI":"北灣里","LIN":"38鄰","STREET":"大灣路","SECT":" ","MAREA":" ","LANE":"４０巷","ALLEY":" ","HOUSE_NO":"２０１號","E_COORD97":174820.98000000001,"N_COORD97":2546326.4500000002,"ADDRESS":"大灣路４０巷２０１號","OBJECTID":227503},"geometry":{"x":174820.98000000045,"y":2546326.4500000011}},{"attributes":{"ID":227508,"DIS_CODE":0,"TOWNNAME":"新化區","LI":"豐榮里","LIN":"3鄰","STREET":"大智路","SECT":" ","MAREA":" ","LANE":"１６１巷","ALLEY":" ","HOUSE_NO":"３號","E_COORD97":178092.03,"N_COORD97":2548085.25,"ADDRESS":"大智路１６１巷３號","OBJECTID":227504},"geometry":{"x":178092.03000000119,"y":2548085.2500000019}},{"attributes":{"ID":227509,"DIS_CODE":0,"TOWNNAME":"新化區","LI":"中央里","LIN":"3鄰","STREET":"中正路","SECT":" ","MAREA":" ","LANE":"４２７巷","ALLEY":" ","HOUSE_NO":"６號","E_COORD97":179036.60999999999,"N_COORD97":2548384.25,"ADDRESS":"中正路４２７巷６號","OBJECTID":227505},"geometry":{"x":179036.6099999994,"y":2548384.2500000019}},{"attributes":{"ID":227510,"DIS_CODE":0,"TOWNNAME":"新化區","LI":"豐榮里","LIN":"3鄰","STREET":"大智路","SECT":" ","MAREA":" ","LANE":"１６１巷","ALLEY":" ","HOUSE_NO":"１３號","E_COORD97":178103.67999999999,"N_COORD97":2548064.25,"ADDRESS":"大智路１６１巷１３號","OBJECTID":227506},"geometry":{"x":178103.68000000063,"y":2548064.2500000019}},{"attributes":{"ID":227511,"DIS_CODE":0,"TOWNNAME":"北區","LI":"文元里","LIN":"3鄰","STREET":"中華北路","SECT":"二段","MAREA":" ","LANE":"８０巷","ALLEY":" ","HOUSE_NO":"６９號","E_COORD97":167745.31,"N_COORD97":2546461.7400000002,"ADDRESS":"中華北路二段８０巷６９號","OBJECTID":227507},"geometry":{"x":167745.31000000052,"y":2546461.7400000021}},{"attributes":{"ID":227512,"DIS_CODE":0,"TOWNNAME":"北區","LI":"振興里","LIN":"3鄰","STREET":"開元路","SECT":" ","MAREA":" ","LANE":"１４８巷","ALLEY":" ","HOUSE_NO":"７之２號","E_COORD97":170021.82000000001,"N_COORD97":2545238.7999999998,"ADDRESS":"開元路１４８巷７之２號","OBJECTID":227508},"geometry":{"x":170021.81999999937,"y":2545238.8000000007}},{"attributes":{"ID":227513,"DIS_CODE":0,"TOWNNAME":"北區","LI":"開元里","LIN":"3鄰","STREET":"北園街","SECT":" ","MAREA":" ","LANE":"９９巷","ALLEY":" ","HOUSE_NO":"８號","E_COORD97":170310.84,"N_COORD97":2545880.8700000001,"ADDRESS":"北園街９９巷８號","OBJECTID":227509},"geometry":{"x":170310.83999999985,"y":2545880.8700000048}},{"attributes":{"ID":227514,"DIS_CODE":0,"TOWNNAME":"永康區","LI":"尚頂里","LIN":"3鄰","STREET":"中正二街","SECT":" ","MAREA":" ","LANE":"１８２巷","ALLEY":" ","HOUSE_NO":"２３號","E_COORD97":171453.73000000001,"N_COORD97":2547691.8799999999,"ADDRESS":"中正二街１８２巷２３號","OBJECTID":227510},"geometry":{"x":171453.73000000138,"y":2547691.879999999}},{"attributes":{"ID":227515,"DIS_CODE":0,"TOWNNAME":"永康區","LI":"尚頂里","LIN":"3鄰","STREET":"中正二街","SECT":" ","MAREA":" ","LANE":"１８２巷","ALLEY":" ","HOUSE_NO":"１９號","E_COORD97":171456.01999999999,"N_COORD97":2547703.9900000002,"ADDRESS":"中正二街１８２巷１９號","OBJECTID":227511},"geometry":{"x":171456.02000000048,"y":2547703.9900000021}},{"attributes":{"ID":227516,"DIS_CODE":0,"TOWNNAME":"永康區","LI":"北灣里","LIN":"36鄰","STREET":"大灣路","SECT":" ","MAREA":" ","LANE":"４０巷","ALLEY":" ","HOUSE_NO":"１７６號","E_COORD97":174830.54000000001,"N_COORD97":2546350.8999999999,"ADDRESS":"大灣路４０巷１７６號","OBJECTID":227512},"geometry":{"x":174830.54000000004,"y":2546350.8999999985}},{"attributes":{"ID":227517,"DIS_CODE":0,"TOWNNAME":"永康區","LI":"北灣里","LIN":"1鄰","STREET":"大同街","SECT":" ","MAREA":" ","LANE":"８巷","ALLEY":" ","HOUSE_NO":"９號","E_COORD97":175316.06,"N_COORD97":2545456.27,"ADDRESS":"大同街８巷９號","OBJECTID":227513},"geometry":{"x":175316.06000000052,"y":2545456.2700000033}},{"attributes":{"ID":227518,"DIS_CODE":0,"TOWNNAME":"永康區","LI":"龍潭里","LIN":"3鄰","STREET":"龍安街","SECT":" ","MAREA":" ","LANE":"２０巷","ALLEY":" ","HOUSE_NO":"１０號","E_COORD97":174599.42000000001,"N_COORD97":2548060.1899999999,"ADDRESS":"龍安街２０巷１０號","OBJECTID":227514},"geometry":{"x":174599.41999999899,"y":2548060.1899999976}},{"attributes":{"ID":227519,"DIS_CODE":0,"TOWNNAME":"永康區","LI":"尚頂里","LIN":"3鄰","STREET":"中正二街","SECT":" ","MAREA":" ","LANE":"１８２巷","ALLEY":" ","HOUSE_NO":"３１號","E_COORD97":171459.39000000001,"N_COORD97":2547670.54,"ADDRESS":"中正二街１８２巷３１號","OBJECTID":227515},"geometry":{"x":171459.38999999966,"y":2547670.5399999991}},{"attributes":{"ID":227520,"DIS_CODE":0,"TOWNNAME":"永康區","LI":"龍潭里","LIN":"3鄰","STREET":"龍安街","SECT":" ","MAREA":" ","LANE":"２０巷","ALLEY":" ","HOUSE_NO":"９號","E_COORD97":174606.87,"N_COORD97":2548089.5499999998,"ADDRESS":"龍安街２０巷９號","OBJECTID":227516},"geometry":{"x":174606.87000000197,"y":2548089.5499999989}},{"attributes":{"ID":227521,"DIS_CODE":0,"TOWNNAME":"永康區","LI":"龍潭里","LIN":"3鄰","STREET":"龍安街","SECT":" ","MAREA":" ","LANE":"２０巷","ALLEY":" ","HOUSE_NO":"７號","E_COORD97":174602.19,"N_COORD97":2548093.5600000001,"ADDRESS":"龍安街２０巷７號","OBJECTID":227517},"geometry":{"x":174602.19000000134,"y":2548093.5600000024}},{"attributes":{"ID":227522,"DIS_CODE":0,"TOWNNAME":"永康區","LI":"龍潭里","LIN":"3鄰","STREET":"龍安街","SECT":" ","MAREA":" ","LANE":"２０巷","ALLEY":" ","HOUSE_NO":"１２號","E_COORD97":174603.22,"N_COORD97":2548061.1299999999,"ADDRESS":"龍安街２０巷１２號","OBJECTID":227518},"geometry":{"x":174603.22000000067,"y":2548061.1300000008}},{"attributes":{"ID":227523,"DIS_CODE":0,"TOWNNAME":"永康區","LI":"尚頂里","LIN":"3鄰","STREET":"中正二街","SECT":" ","MAREA":" ","LANE":"１８２巷","ALLEY":" ","HOUSE_NO":"２７號","E_COORD97":171457.91,"N_COORD97":2547680.4300000002,"ADDRESS":"中正二街１８２巷２７號","OBJECTID":227519},"geometry":{"x":171457.91000000015,"y":2547680.4300000016}},{"attributes":{"ID":227524,"DIS_CODE":0,"TOWNNAME":"永康區","LI":"復華里","LIN":"3鄰","STREET":"復國二路","SECT":" ","MAREA":" ","LANE":"３４２巷","ALLEY":" ","HOUSE_NO":"３號","E_COORD97":173057.60000000001,"N_COORD97":2546198.1000000001,"ADDRESS":"復國二路３４２巷３號","OBJECTID":227520},"geometry":{"x":173057.60000000056,"y":2546198.1000000015}},{"attributes":{"ID":227525,"DIS_CODE":0,"TOWNNAME":"永康區","LI":"復華里","LIN":"3鄰","STREET":"復國二路","SECT":" ","MAREA":" ","LANE":"３４２巷","ALLEY":" ","HOUSE_NO":"７號","E_COORD97":173066.31,"N_COORD97":2546196.2799999998,"ADDRESS":"復國二路３４２巷７號","OBJECTID":227521},"geometry":{"x":173066.31000000052,"y":2546196.2800000012}},{"attributes":{"ID":227526,"DIS_CODE":0,"TOWNNAME":"永康區","LI":"北灣里","LIN":"3鄰","STREET":"文賢街","SECT":" ","MAREA":" ","LANE":"２２７巷","ALLEY":" ","HOUSE_NO":"３號","E_COORD97":175345.75,"N_COORD97":2545605.4300000002,"ADDRESS":"文賢街２２７巷３號","OBJECTID":227522},"geometry":{"x":175345.75000000093,"y":2545605.4300000016}},{"attributes":{"ID":227527,"DIS_CODE":0,"TOWNNAME":"永康區","LI":"北灣里","LIN":"36鄰","STREET":"大灣路","SECT":" ","MAREA":" ","LANE":"４０巷","ALLEY":" ","HOUSE_NO":"１９０號","E_COORD97":174800.28,"N_COORD97":2546363.4900000002,"ADDRESS":"大灣路４０巷１９０號","OBJECTID":227523},"geometry":{"x":174800.28000000026,"y":2546363.4900000002}},{"attributes":{"ID":227528,"DIS_CODE":0,"TOWNNAME":"東區","LI":"龍山里","LIN":"3鄰","STREET":"富德街","SECT":" ","MAREA":" ","LANE":"２５巷","ALLEY":" ","HOUSE_NO":"６號","E_COORD97":170340.09,"N_COORD97":2542820.6499999999,"ADDRESS":"富德街２５巷６號","OBJECTID":227524},"geometry":{"x":170340.09000000171,"y":2542820.6500000022}},{"attributes":{"ID":227529,"DIS_CODE":0,"TOWNNAME":"東區","LI":"大同里","LIN":"3鄰","STREET":"大同路","SECT":"一段","MAREA":" ","LANE":"５１巷","ALLEY":" ","HOUSE_NO":"３號之１","E_COORD97":169182.16,"N_COORD97":2543156.5899999999,"ADDRESS":"大同路一段５１巷３號之１","OBJECTID":227525},"geometry":{"x":169182.16000000201,"y":2543156.5900000017}},{"attributes":{"ID":227530,"DIS_CODE":0,"TOWNNAME":"永康區","LI":"北灣里","LIN":"20鄰","STREET":"北興路","SECT":" ","MAREA":" ","LANE":"３２巷","ALLEY":" ","HOUSE_NO":"１３號","E_COORD97":174673.35000000001,"N_COORD97":2545995.3199999998,"ADDRESS":"北興路３２巷１３號","OBJECTID":227526},"geometry":{"x":174673.35000000056,"y":2545995.3199999984}},{"attributes":{"ID":227531,"DIS_CODE":0,"TOWNNAME":"永康區","LI":"永康里","LIN":"41鄰","STREET":"永大路","SECT":"二段","MAREA":" ","LANE":"７２３巷","ALLEY":" ","HOUSE_NO":"２６號","E_COORD97":174306.07999999999,"N_COORD97":2546640.2200000002,"ADDRESS":"永大路二段７２３巷２６號","OBJECTID":227527},"geometry":{"x":174306.08000000101,"y":2546640.2200000007}},{"attributes":{"ID":227532,"DIS_CODE":0,"TOWNNAME":"永康區","LI":"北灣里","LIN":"41鄰","STREET":"大灣路","SECT":" ","MAREA":" ","LANE":"７４巷","ALLEY":" ","HOUSE_NO":"３３號","E_COORD97":175096.97,"N_COORD97":2545782.3799999999,"ADDRESS":"大灣路７４巷３３號","OBJECTID":227528},"geometry":{"x":175096.96999999974,"y":2545782.379999999}},{"attributes":{"ID":227533,"DIS_CODE":0,"TOWNNAME":"永康區","LI":"北灣里","LIN":"41鄰","STREET":"大灣路","SECT":" ","MAREA":" ","LANE":"７４巷","ALLEY":" ","HOUSE_NO":"３０號","E_COORD97":175105.39999999999,"N_COORD97":2545795.5,"ADDRESS":"大灣路７４巷３０號","OBJECTID":227529},"geometry":{"x":175105.40000000224,"y":2545795.5000000019}},{"attributes":{"ID":227534,"DIS_CODE":0,"TOWNNAME":"永康區","LI":"北灣里","LIN":"19鄰","STREET":"大同街","SECT":" ","MAREA":" ","LANE":"２９３巷","ALLEY":" ","HOUSE_NO":"２０號","E_COORD97":174715.42999999999,"N_COORD97":2545921.4500000002,"ADDRESS":"大同街２９３巷２０號","OBJECTID":227530},"geometry":{"x":174715.4299999997,"y":2545921.4499999993}},{"attributes":{"ID":227535,"DIS_CODE":0,"TOWNNAME":"永康區","LI":"北灣里","LIN":"33鄰","STREET":"大灣路","SECT":" ","MAREA":" ","LANE":"４１巷","ALLEY":" ","HOUSE_NO":"５號","E_COORD97":175319.06,"N_COORD97":2545824.0299999998,"ADDRESS":"大灣路４１巷５號","OBJECTID":227531},"geometry":{"x":175319.06000000052,"y":2545824.0300000012}},{"attributes":{"ID":227536,"DIS_CODE":0,"TOWNNAME":"南區","LI":"田寮里","LIN":"3鄰","STREET":"新興路","SECT":" ","MAREA":" ","LANE":"２６５巷","ALLEY":" ","HOUSE_NO":"２４號","E_COORD97":167314.94,"N_COORD97":2541828.3799999999,"ADDRESS":"新興路２６５巷２４號","OBJECTID":227532},"geometry":{"x":167314.94000000041,"y":2541828.3800000008}},{"attributes":{"ID":227537,"DIS_CODE":0,"TOWNNAME":"南區","LI":"田寮里","LIN":"3鄰","STREET":"新興路","SECT":" ","MAREA":" ","LANE":"２６５巷","ALLEY":" ","HOUSE_NO":"２２號","E_COORD97":167316.37,"N_COORD97":2541832.4399999999,"ADDRESS":"新興路２６５巷２２號","OBJECTID":227533},"geometry":{"x":167316.37000000104,"y":2541832.4399999995}},{"attributes":{"ID":227538,"DIS_CODE":0,"TOWNNAME":"南區","LI":"田寮里","LIN":"3鄰","STREET":"新興路","SECT":" ","MAREA":" ","LANE":"２６５巷","ALLEY":" ","HOUSE_NO":"１８號","E_COORD97":167318.53,"N_COORD97":2541840.7999999998,"ADDRESS":"新興路２６５巷１８號","OBJECTID":227534},"geometry":{"x":167318.53000000119,"y":2541840.8000000026}},{"attributes":{"ID":227539,"DIS_CODE":0,"TOWNNAME":"善化區","LI":"胡家里","LIN":"2鄰","STREET":" ","SECT":" ","MAREA":"胡厝寮","LANE":" ","ALLEY":" ","HOUSE_NO":"１１號","E_COORD97":175516.35000000001,"N_COORD97":2560758.75,"ADDRESS":"胡厝寮１１號","OBJECTID":227535},"geometry":{"x":175516.34999999963,"y":2560758.7500000019}},{"attributes":{"ID":227540,"DIS_CODE":0,"TOWNNAME":"南區","LI":"田寮里","LIN":"3鄰","STREET":"夏林路","SECT":" ","MAREA":" ","LANE":"３１０巷","ALLEY":" ","HOUSE_NO":"２１號","E_COORD97":167453.89000000001,"N_COORD97":2541786.3799999999,"ADDRESS":"夏林路３１０巷２１號","OBJECTID":227536},"geometry":{"x":167453.88999999966,"y":2541786.3800000027}},{"attributes":{"ID":227541,"DIS_CODE":0,"TOWNNAME":"南區","LI":"田寮里","LIN":"3鄰","STREET":"夏林路","SECT":" ","MAREA":" ","LANE":"３１０巷","ALLEY":" ","HOUSE_NO":"９號","E_COORD97":167469.23000000001,"N_COORD97":2541809.5499999998,"ADDRESS":"夏林路３１０巷９號","OBJECTID":227537},"geometry":{"x":167469.23000000045,"y":2541809.5500000007}},{"attributes":{"ID":227542,"DIS_CODE":0,"TOWNNAME":"永康區","LI":"北灣里","LIN":"2鄰","STREET":"大灣路","SECT":" ","MAREA":" ","LANE":"１１９巷","ALLEY":" ","HOUSE_NO":"３１號之１","E_COORD97":175232.48999999999,"N_COORD97":2545555.9700000002,"ADDRESS":"大灣路１１９巷３１號之１","OBJECTID":227538},"geometry":{"x":175232.49000000115,"y":2545555.9700000007}},{"attributes":{"ID":227543,"DIS_CODE":0,"TOWNNAME":"中西區","LI":"三合里","LIN":"3鄰","STREET":"忠孝街","SECT":" ","MAREA":" ","LANE":"７８巷","ALLEY":" ","HOUSE_NO":"１１號","E_COORD97":167727.14000000001,"N_COORD97":2544471.1400000001,"ADDRESS":"忠孝街７８巷１１號","OBJECTID":227539},"geometry":{"x":167727.14000000153,"y":2544471.1400000006}},{"attributes":{"ID":227544,"DIS_CODE":0,"TOWNNAME":"中西區","LI":"三合里","LIN":"3鄰","STREET":"忠孝街","SECT":" ","MAREA":" ","LANE":"７８巷","ALLEY":" ","HOUSE_NO":"１２號","E_COORD97":167740.70000000001,"N_COORD97":2544459.5899999999,"ADDRESS":"忠孝街７８巷１２號","OBJECTID":227540},"geometry":{"x":167740.70000000019,"y":2544459.5899999999}},{"attributes":{"ID":227545,"DIS_CODE":0,"TOWNNAME":"永康區","LI":"正強里","LIN":"24鄰","STREET":"中正路","SECT":" ","MAREA":" ","LANE":"１２７巷","ALLEY":" ","HOUSE_NO":"７號","E_COORD97":173379.62,"N_COORD97":2547847.2400000002,"ADDRESS":"中正路１２７巷７號","OBJECTID":227541},"geometry":{"x":173379.62000000197,"y":2547847.2400000039}},{"attributes":{"ID":227546,"DIS_CODE":0,"TOWNNAME":"中西區","LI":"中正里","LIN":"3鄰","STREET":"國華街","SECT":"三段","MAREA":" ","LANE":"１６巷","ALLEY":" ","HOUSE_NO":"３４號","E_COORD97":167776.04000000001,"N_COORD97":2543766.46,"ADDRESS":"國華街三段１６巷３４號","OBJECTID":227542},"geometry":{"x":167776.04000000097,"y":2543766.4600000009}},{"attributes":{"ID":227547,"DIS_CODE":0,"TOWNNAME":"中西區","LI":"中正里","LIN":"3鄰","STREET":"國華街","SECT":"三段","MAREA":" ","LANE":"１６巷","ALLEY":" ","HOUSE_NO":"３６號","E_COORD97":167776.87,"N_COORD97":2543768.73,"ADDRESS":"國華街三段１６巷３６號","OBJECTID":227543},"geometry":{"x":167776.86999999918,"y":2543768.7299999986}},{"attributes":{"ID":227548,"DIS_CODE":0,"TOWNNAME":"中西區","LI":"中正里","LIN":"3鄰","STREET":"國華街","SECT":"三段","MAREA":" ","LANE":"１６巷","ALLEY":" ","HOUSE_NO":"３８號","E_COORD97":167777.79999999999,"N_COORD97":2543771.4100000001,"ADDRESS":"國華街三段１６巷３８號","OBJECTID":227544},"geometry":{"x":167777.80000000075,"y":2543771.410000002}},{"attributes":{"ID":227549,"DIS_CODE":0,"TOWNNAME":"永康區","LI":"西勢里","LIN":"3鄰","STREET":"富強路","SECT":"一段","MAREA":" ","LANE":"３２１巷","ALLEY":" ","HOUSE_NO":"８８號","E_COORD97":175538.25,"N_COORD97":2546749.7400000002,"ADDRESS":"富強路一段３２１巷８８號","OBJECTID":227545},"geometry":{"x":175538.25000000186,"y":2546749.7400000021}},{"attributes":{"ID":227550,"DIS_CODE":0,"TOWNNAME":"永康區","LI":"永康里","LIN":"26鄰","STREET":"永明街","SECT":" ","MAREA":" ","LANE":"６９巷","ALLEY":" ","HOUSE_NO":"７號","E_COORD97":174170.5,"N_COORD97":2547314.9900000002,"ADDRESS":"永明街６９巷７號","OBJECTID":227546},"geometry":{"x":174170.50000000093,"y":2547314.9900000002}},{"attributes":{"ID":227551,"DIS_CODE":0,"TOWNNAME":"永康區","LI":"永康里","LIN":"1鄰","STREET":"永埔街","SECT":" ","MAREA":" ","LANE":"３３巷","ALLEY":" ","HOUSE_NO":"２１號","E_COORD97":173941.06,"N_COORD97":2547508.2400000002,"ADDRESS":"永埔街３３巷２１號","OBJECTID":227547},"geometry":{"x":173941.06000000052,"y":2547508.2400000039}},{"attributes":{"ID":227552,"DIS_CODE":0,"TOWNNAME":"永康區","LI":"正強里","LIN":"10鄰","STREET":"正義街","SECT":" ","MAREA":" ","LANE":"８９巷","ALLEY":" ","HOUSE_NO":"１０號","E_COORD97":173451.10999999999,"N_COORD97":2547531.2599999998,"ADDRESS":"正義街８９巷１０號","OBJECTID":227548},"geometry":{"x":173451.1100000022,"y":2547531.2600000035}},{"attributes":{"ID":227553,"DIS_CODE":0,"TOWNNAME":"安平區","LI":"育平里","LIN":"29鄰","STREET":"育平路","SECT":" ","MAREA":" ","LANE":" ","ALLEY":" ","HOUSE_NO":"１６６號五樓之７","E_COORD97":164591.47,"N_COORD97":2543236.0899999999,"ADDRESS":"育平路１６６號五樓之７","OBJECTID":227549},"geometry":{"x":164591.46999999974,"y":2543236.0899999999}},{"attributes":{"ID":227554,"DIS_CODE":0,"TOWNNAME":"歸仁區","LI":"後市里","LIN":"29鄰","STREET":"民族北街","SECT":" ","MAREA":" ","LANE":"１７巷","ALLEY":" ","HOUSE_NO":"２號四樓之７","E_COORD97":177400.57999999999,"N_COORD97":2540892.75,"ADDRESS":"民族北街１７巷２號四樓之７","OBJECTID":227550},"geometry":{"x":177400.58000000007,"y":2540892.75}},{"attributes":{"ID":227555,"DIS_CODE":0,"TOWNNAME":"歸仁區","LI":"後市里","LIN":"29鄰","STREET":"民族北街","SECT":" ","MAREA":" ","LANE":"１７巷","ALLEY":" ","HOUSE_NO":"２號四樓之６","E_COORD97":177400.57999999999,"N_COORD97":2540892.75,"ADDRESS":"民族北街１７巷２號四樓之６","OBJECTID":227551},"geometry":{"x":177400.58000000007,"y":2540892.75}},{"attributes":{"ID":227556,"DIS_CODE":0,"TOWNNAME":"歸仁區","LI":"後市里","LIN":"29鄰","STREET":"民族北街","SECT":" ","MAREA":" ","LANE":"１７巷","ALLEY":" ","HOUSE_NO":"２號四樓之８","E_COORD97":177400.59,"N_COORD97":2540892.75,"ADDRESS":"民族北街１７巷２號四樓之８","OBJECTID":227552},"geometry":{"x":177400.59000000171,"y":2540892.75}},{"attributes":{"ID":227557,"DIS_CODE":0,"TOWNNAME":"歸仁區","LI":"後市里","LIN":"29鄰","STREET":"民族北街","SECT":" ","MAREA":" ","LANE":"１７巷","ALLEY":" ","HOUSE_NO":"２號五樓之８","E_COORD97":177400.59,"N_COORD97":2540892.75,"ADDRESS":"民族北街１７巷２號五樓之８","OBJECTID":227553},"geometry":{"x":177400.59000000171,"y":2540892.75}},{"attributes":{"ID":227558,"DIS_CODE":0,"TOWNNAME":"歸仁區","LI":"後市里","LIN":"29鄰","STREET":"民族北街","SECT":" ","MAREA":" ","LANE":"１７巷","ALLEY":" ","HOUSE_NO":"２號六樓之１１","E_COORD97":177400.81,"N_COORD97":2540892.75,"ADDRESS":"民族北街１７巷２號六樓之１１","OBJECTID":227554},"geometry":{"x":177400.81000000052,"y":2540892.75}},{"attributes":{"ID":227559,"DIS_CODE":0,"TOWNNAME":"歸仁區","LI":"後市里","LIN":"29鄰","STREET":"民族北街","SECT":" ","MAREA":" ","LANE":"１７巷","ALLEY":" ","HOUSE_NO":"２號五樓之５","E_COORD97":177400.59,"N_COORD97":2540892.75,"ADDRESS":"民族北街１７巷２號五樓之５","OBJECTID":227555},"geometry":{"x":177400.59000000171,"y":2540892.75}},{"attributes":{"ID":227560,"DIS_CODE":0,"TOWNNAME":"永康區","LI":"北灣里","LIN":"8鄰","STREET":"大同街","SECT":" ","MAREA":" ","LANE":"１１０巷","ALLEY":" ","HOUSE_NO":"１號","E_COORD97":175040.67000000001,"N_COORD97":2545547.7400000002,"ADDRESS":"大同街１１０巷１號","OBJECTID":227556},"geometry":{"x":175040.67000000086,"y":2545547.7400000002}},{"attributes":{"ID":227561,"DIS_CODE":0,"TOWNNAME":"安平區","LI":"育平里","LIN":"29鄰","STREET":"育平路","SECT":" ","MAREA":" ","LANE":" ","ALLEY":" ","HOUSE_NO":"１６６號五樓之８","E_COORD97":164591.47,"N_COORD97":2543236.0899999999,"ADDRESS":"育平路１６６號五樓之８","OBJECTID":227557},"geometry":{"x":164591.46999999974,"y":2543236.0899999999}},{"attributes":{"ID":227562,"DIS_CODE":0,"TOWNNAME":"安平區","LI":"育平里","LIN":"29鄰","STREET":"育平路","SECT":" ","MAREA":" ","LANE":" ","ALLEY":" ","HOUSE_NO":"１６６號五樓之９","E_COORD97":164591.47,"N_COORD97":2543236.0899999999,"ADDRESS":"育平路１６６號五樓之９","OBJECTID":227558},"geometry":{"x":164591.46999999974,"y":2543236.0899999999}},{"attributes":{"ID":227563,"DIS_CODE":0,"TOWNNAME":"新營區","LI":"民榮里","LIN":"34鄰","STREET":"復興路","SECT":" ","MAREA":" ","LANE":" ","ALLEY":" ","HOUSE_NO":"３０１號九樓之７","E_COORD97":178608.56,"N_COORD97":2578135.3500000001,"ADDRESS":"復興路３０１號九樓之７","OBJECTID":227559},"geometry":{"x":178608.55999999959,"y":2578135.3500000034}},{"attributes":{"ID":227564,"DIS_CODE":0,"TOWNNAME":"安平區","LI":"育平里","LIN":"29鄰","STREET":"育平路","SECT":" ","MAREA":" ","LANE":" ","ALLEY":" ","HOUSE_NO":"１６６號六樓之１","E_COORD97":164591.47,"N_COORD97":2543236.0899999999,"ADDRESS":"育平路１６６號六樓之１","OBJECTID":227560},"geometry":{"x":164591.46999999974,"y":2543236.0899999999}},{"attributes":{"ID":227565,"DIS_CODE":0,"TOWNNAME":"安平區","LI":"育平里","LIN":"29鄰","STREET":"育平路","SECT":" ","MAREA":" ","LANE":" ","ALLEY":" ","HOUSE_NO":"１６６號六樓之２","E_COORD97":164591.47,"N_COORD97":2543236.0899999999,"ADDRESS":"育平路１６６號六樓之２","OBJECTID":227561},"geometry":{"x":164591.46999999974,"y":2543236.0899999999}},{"attributes":{"ID":227566,"DIS_CODE":0,"TOWNNAME":"安平區","LI":"育平里","LIN":"29鄰","STREET":"育平路","SECT":" ","MAREA":" ","LANE":" ","ALLEY":" ","HOUSE_NO":"１６６號六樓之３","E_COORD97":164591.47,"N_COORD97":2543236.0899999999,"ADDRESS":"育平路１６６號六樓之３","OBJECTID":227562},"geometry":{"x":164591.46999999974,"y":2543236.0899999999}},{"attributes":{"ID":227567,"DIS_CODE":0,"TOWNNAME":"永康區","LI":"\u25A0行里","LIN":"26鄰","STREET":"中正南路","SECT":" ","MAREA":" ","LANE":" ","ALLEY":" ","HOUSE_NO":"５１２號","E_COORD97":171315.17000000001,"N_COORD97":2548564.2400000002,"ADDRESS":"中正南路５１２號","OBJECTID":227563},"geometry":{"x":171315.16999999993,"y":2548564.2400000021}},{"attributes":{"ID":227568,"DIS_CODE":0,"TOWNNAME":"安南區","LI":"\u25A0南里","LIN":"29鄰","STREET":"環福街","SECT":" ","MAREA":" ","LANE":"２６８巷","ALLEY":" ","HOUSE_NO":"１號","E_COORD97":170166.79999999999,"N_COORD97":2552704.6800000002,"ADDRESS":"環福街２６８巷１號","OBJECTID":227564},"geometry":{"x":170166.79999999981,"y":2552704.6799999997}},{"attributes":{"ID":227569,"DIS_CODE":0,"TOWNNAME":"安南區","LI":"\u25A0南里","LIN":"29鄰","STREET":"環福街","SECT":" ","MAREA":" ","LANE":"２６８巷","ALLEY":" ","HOUSE_NO":"７號","E_COORD97":170172.60999999999,"N_COORD97":2552721.1600000001,"ADDRESS":"環福街２６８巷７號","OBJECTID":227565},"geometry":{"x":170172.6100000022,"y":2552721.160000002}},{"attributes":{"ID":227570,"DIS_CODE":0,"TOWNNAME":"佳里區","LI":"安西里","LIN":"29鄰","STREET":"佳西路","SECT":" ","MAREA":" ","LANE":"５６２巷","ALLEY":" ","HOUSE_NO":"１５號","E_COORD97":165064.32999999999,"N_COORD97":2563194.6699999999,"ADDRESS":"佳西路５６２巷１５號","OBJECTID":227566},"geometry":{"x":165064.33000000007,"y":2563194.6699999999}},{"attributes":{"ID":227571,"DIS_CODE":0,"TOWNNAME":"佳里區","LI":"安西里","LIN":"29鄰","STREET":"佳西路","SECT":" ","MAREA":" ","LANE":"５６２巷","ALLEY":" ","HOUSE_NO":"１７號","E_COORD97":165068.42000000001,"N_COORD97":2563192.23,"ADDRESS":"佳西路５６２巷１７號","OBJECTID":227567},"geometry":{"x":165068.41999999993,"y":2563192.2300000042}},{"attributes":{"ID":227572,"DIS_CODE":0,"TOWNNAME":"永康區","LI":"正強里","LIN":"10鄰","STREET":"正義街","SECT":" ","MAREA":" ","LANE":"８９巷","ALLEY":" ","HOUSE_NO":"２２號","E_COORD97":173458.98999999999,"N_COORD97":2547498.9500000002,"ADDRESS":"正義街８９巷２２號","OBJECTID":227568},"geometry":{"x":173458.99000000115,"y":2547498.950000003}},{"attributes":{"ID":227573,"DIS_CODE":0,"TOWNNAME":"永康區","LI":"北灣里","LIN":"37鄰","STREET":"大同街","SECT":" ","MAREA":" ","LANE":"３２０巷","ALLEY":" ","HOUSE_NO":"３０號","E_COORD97":174825.48000000001,"N_COORD97":2545984.4700000002,"ADDRESS":"大同街３２０巷３０號","OBJECTID":227569},"geometry":{"x":174825.48000000138,"y":2545984.4700000007}},{"attributes":{"ID":227574,"DIS_CODE":0,"TOWNNAME":"新營區","LI":"民榮里","LIN":"34鄰","STREET":"復興路","SECT":" ","MAREA":" ","LANE":" ","ALLEY":" ","HOUSE_NO":"３０１號十五樓之２","E_COORD97":178609.92000000001,"N_COORD97":2578135.3500000001,"ADDRESS":"復興路３０１號十五樓之２","OBJECTID":227570},"geometry":{"x":178609.91999999993,"y":2578135.3500000034}},{"attributes":{"ID":227575,"DIS_CODE":0,"TOWNNAME":"新營區","LI":"民榮里","LIN":"34鄰","STREET":"復興路","SECT":" ","MAREA":" ","LANE":" ","ALLEY":" ","HOUSE_NO":"３０１號十二樓之２","E_COORD97":178609.92000000001,"N_COORD97":2578135.3500000001,"ADDRESS":"復興路３０１號十二樓之２","OBJECTID":227571},"geometry":{"x":178609.91999999993,"y":2578135.3500000034}},{"attributes":{"ID":227576,"DIS_CODE":0,"TOWNNAME":"新營區","LI":"民榮里","LIN":"34鄰","STREET":"復興路","SECT":" ","MAREA":" ","LANE":" ","ALLEY":" ","HOUSE_NO":"３０１號十一樓之３","E_COORD97":178609.88,"N_COORD97":2578135.3500000001,"ADDRESS":"復興路３０１號十一樓之３","OBJECTID":227572},"geometry":{"x":178609.87999999989,"y":2578135.3500000034}},{"attributes":{"ID":227577,"DIS_CODE":0,"TOWNNAME":"新營區","LI":"民榮里","LIN":"34鄰","STREET":"復興路","SECT":" ","MAREA":" ","LANE":" ","ALLEY":" ","HOUSE_NO":"３０１號十二樓之５","E_COORD97":178609.94,"N_COORD97":2578135.3500000001,"ADDRESS":"復興路３０１號十二樓之５","OBJECTID":227573},"geometry":{"x":178609.94000000041,"y":2578135.3500000034}},{"attributes":{"ID":227578,"DIS_CODE":0,"TOWNNAME":"佳里區","LI":"建南里","LIN":"29鄰","STREET":"佳南路","SECT":" ","MAREA":" ","LANE":"３６８巷","ALLEY":" ","HOUSE_NO":"１０號","E_COORD97":165796.17000000001,"N_COORD97":2560996.9300000002,"ADDRESS":"佳南路３６８巷１０號","OBJECTID":227574},"geometry":{"x":165796.16999999993,"y":2560996.9300000016}},{"attributes":{"ID":227579,"DIS_CODE":0,"TOWNNAME":"佳里區","LI":"建南里","LIN":"29鄰","STREET":"佳南路","SECT":" ","MAREA":" ","LANE":"３６８巷","ALLEY":" ","HOUSE_NO":"１２號","E_COORD97":165796,"N_COORD97":2561006.9500000002,"ADDRESS":"佳南路３６８巷１２號","OBJECTID":227575},"geometry":{"x":165796.00000000186,"y":2561006.9500000011}},{"attributes":{"ID":227580,"DIS_CODE":0,"TOWNNAME":"佳里區","LI":"建南里","LIN":"29鄰","STREET":"佳南路","SECT":" ","MAREA":" ","LANE":"３６８巷","ALLEY":" ","HOUSE_NO":"１６號","E_COORD97":165795.25,"N_COORD97":2561011.6600000001,"ADDRESS":"佳南路３６８巷１６號","OBJECTID":227576},"geometry":{"x":165795.25,"y":2561011.6600000001}},{"attributes":{"ID":227581,"DIS_CODE":0,"TOWNNAME":"佳里區","LI":"建南里","LIN":"29鄰","STREET":"佳南路","SECT":" ","MAREA":" ","LANE":"３６８巷","ALLEY":" ","HOUSE_NO":"１８號","E_COORD97":165794.98999999999,"N_COORD97":2561015.5,"ADDRESS":"佳南路３６８巷１８號","OBJECTID":227577},"geometry":{"x":165794.99000000115,"y":2561015.5}},{"attributes":{"ID":227582,"DIS_CODE":0,"TOWNNAME":"永康區","LI":"西勢里","LIN":"3鄰","STREET":"富強路","SECT":"一段","MAREA":" ","LANE":"３２１巷","ALLEY":" ","HOUSE_NO":"４０號","E_COORD97":175604,"N_COORD97":2546735.48,"ADDRESS":"富強路一段３２１巷４０號","OBJECTID":227578},"geometry":{"x":175604,"y":2546735.4800000004}},{"attributes":{"ID":227583,"DIS_CODE":0,"TOWNNAME":"永康區","LI":"西橋里","LIN":"3鄰","STREET":"中山南路","SECT":" ","MAREA":" ","LANE":"４３巷","ALLEY":" ","HOUSE_NO":"２５號","E_COORD97":170701.92999999999,"N_COORD97":2545919.5,"ADDRESS":"中山南路４３巷２５號","OBJECTID":227579},"geometry":{"x":170701.92999999877,"y":2545919.5000000037}},{"attributes":{"ID":227584,"DIS_CODE":0,"TOWNNAME":"永康區","LI":"西勢里","LIN":"3鄰","STREET":"富強路","SECT":"一段","MAREA":" ","LANE":"３２１巷","ALLEY":" ","HOUSE_NO":"９０號","E_COORD97":175538.89999999999,"N_COORD97":2546753.9900000002,"ADDRESS":"富強路一段３２１巷９０號","OBJECTID":227580},"geometry":{"x":175538.90000000037,"y":2546753.9900000039}},{"attributes":{"ID":227585,"DIS_CODE":0,"TOWNNAME":"永康區","LI":"六合里","LIN":"3鄰","STREET":"中山南路","SECT":" ","MAREA":" ","LANE":"１０４巷","ALLEY":" ","HOUSE_NO":"１０號","E_COORD97":171011.32000000001,"N_COORD97":2545870.9900000002,"ADDRESS":"中山南路１０４巷１０號","OBJECTID":227581},"geometry":{"x":171011.3200000003,"y":2545870.9900000002}},{"attributes":{"ID":227586,"DIS_CODE":0,"TOWNNAME":"永康區","LI":"正強里","LIN":"46鄰","STREET":"中正路","SECT":" ","MAREA":" ","LANE":"２５６巷","ALLEY":" ","HOUSE_NO":"９號之４７","E_COORD97":173207.14000000001,"N_COORD97":2547991.8799999999,"ADDRESS":"中正路２５６巷９號之４７","OBJECTID":227582},"geometry":{"x":173207.13999999966,"y":2547991.8800000008}},{"attributes":{"ID":227587,"DIS_CODE":0,"TOWNNAME":"永康區","LI":"北灣里","LIN":"37鄰","STREET":"大同街","SECT":" ","MAREA":" ","LANE":"３２０巷","ALLEY":" ","HOUSE_NO":"４２號","E_COORD97":174840.67999999999,"N_COORD97":2546005.23,"ADDRESS":"大同街３２０巷４２號","OBJECTID":227583},"geometry":{"x":174840.68000000063,"y":2546005.2300000004}},{"attributes":{"ID":227588,"DIS_CODE":0,"TOWNNAME":"永康區","LI":"北灣里","LIN":"4鄰","STREET":"信義街","SECT":" ","MAREA":" ","LANE":"４４巷","ALLEY":" ","HOUSE_NO":"１４號","E_COORD97":175487.62,"N_COORD97":2545716.4199999999,"ADDRESS":"信義街４４巷１４號","OBJECTID":227584},"geometry":{"x":175487.62000000011,"y":2545716.4200000037}},{"attributes":{"ID":227589,"DIS_CODE":0,"TOWNNAME":"永康區","LI":"北灣里","LIN":"37鄰","STREET":"大同街","SECT":" ","MAREA":" ","LANE":"３２０巷","ALLEY":" ","HOUSE_NO":"１９號","E_COORD97":174803.48000000001,"N_COORD97":2545996.0600000001,"ADDRESS":"大同街３２０巷１９號","OBJECTID":227585},"geometry":{"x":174803.48000000138,"y":2545996.0600000005}},{"attributes":{"ID":227590,"DIS_CODE":0,"TOWNNAME":"永康區","LI":"永康里","LIN":"39鄰","STREET":"永福街","SECT":" ","MAREA":" ","LANE":"２１巷","ALLEY":" ","HOUSE_NO":"１１號","E_COORD97":174302.73999999999,"N_COORD97":2546430.4100000001,"ADDRESS":"永福街２１巷１１號","OBJECTID":227586},"geometry":{"x":174302.74000000209,"y":2546430.410000002}},{"attributes":{"ID":227591,"DIS_CODE":0,"TOWNNAME":"永康區","LI":"正強里","LIN":"37鄰","STREET":"正強街","SECT":" ","MAREA":" ","LANE":"３３０巷","ALLEY":" ","HOUSE_NO":"１８號","E_COORD97":173284.03,"N_COORD97":2548213.75,"ADDRESS":"正強街３３０巷１８號","OBJECTID":227587},"geometry":{"x":173284.03000000119,"y":2548213.7500000019}},{"attributes":{"ID":227592,"DIS_CODE":0,"TOWNNAME":"永康區","LI":"王行里","LIN":"7鄰","STREET":"王行路","SECT":" ","MAREA":" ","LANE":"３９９巷","ALLEY":" ","HOUSE_NO":"１６號","E_COORD97":175372.85000000001,"N_COORD97":2548733.6200000001,"ADDRESS":"王行路３９９巷１６號","OBJECTID":227588},"geometry":{"x":175372.85000000056,"y":2548733.6199999992}},{"attributes":{"ID":227593,"DIS_CODE":0,"TOWNNAME":"新營區","LI":"民榮里","LIN":"34鄰","STREET":"復興路","SECT":" ","MAREA":" ","LANE":" ","ALLEY":" ","HOUSE_NO":"３０１號十八樓之３","E_COORD97":178609.88,"N_COORD97":2578135.3500000001,"ADDRESS":"復興路３０１號十八樓之３","OBJECTID":227589},"geometry":{"x":178609.87999999989,"y":2578135.3500000034}},{"attributes":{"ID":227594,"DIS_CODE":0,"TOWNNAME":"新營區","LI":"民榮里","LIN":"34鄰","STREET":"復興路","SECT":" ","MAREA":" ","LANE":" ","ALLEY":" ","HOUSE_NO":"３０１號八樓之２","E_COORD97":178608.67000000001,"N_COORD97":2578135.3500000001,"ADDRESS":"復興路３０１號八樓之２","OBJECTID":227590},"geometry":{"x":178608.67000000179,"y":2578135.3500000034}},{"attributes":{"ID":227595,"DIS_CODE":0,"TOWNNAME":"新營區","LI":"民榮里","LIN":"34鄰","STREET":"復興路","SECT":" ","MAREA":" ","LANE":" ","ALLEY":" ","HOUSE_NO":"３０１號八樓之４","E_COORD97":178608.56,"N_COORD97":2578135.3500000001,"ADDRESS":"復興路３０１號八樓之４","OBJECTID":227591},"geometry":{"x":178608.55999999959,"y":2578135.3500000034}},{"attributes":{"ID":227596,"DIS_CODE":0,"TOWNNAME":"永康區","LI":"復興里","LIN":"29鄰","STREET":"忠孝路","SECT":" ","MAREA":" ","LANE":"７６巷","ALLEY":" ","HOUSE_NO":"２號之１","E_COORD97":172276.70999999999,"N_COORD97":2544862.0499999998,"ADDRESS":"忠孝路７６巷２號之１","OBJECTID":227592},"geometry":{"x":172276.70999999996,"y":2544862.0500000045}},{"attributes":{"ID":227597,"DIS_CODE":0,"TOWNNAME":"佳里區","LI":"建南里","LIN":"29鄰","STREET":" ","SECT":" ","MAREA":"建南","LANE":" ","ALLEY":" ","HOUSE_NO":"５４號","E_COORD97":165936.17000000001,"N_COORD97":2561096.5,"ADDRESS":"建南５４號","OBJECTID":227593},"geometry":{"x":165936.17000000086,"y":2561096.5}},{"attributes":{"ID":227598,"DIS_CODE":0,"TOWNNAME":"永康區","LI":"王行里","LIN":"15鄰","STREET":"龍昌街","SECT":" ","MAREA":" ","LANE":"１０７巷","ALLEY":" ","HOUSE_NO":"１２號","E_COORD97":174909.78,"N_COORD97":2548118.8900000001,"ADDRESS":"龍昌街１０７巷１２號","OBJECTID":227594},"geometry":{"x":174909.78000000119,"y":2548118.8900000025}},{"attributes":{"ID":227599,"DIS_CODE":0,"TOWNNAME":"永康區","LI":"王行里","LIN":"16鄰","STREET":"王行路","SECT":" ","MAREA":" ","LANE":"６８巷","ALLEY":" ","HOUSE_NO":"１４２號","E_COORD97":176125.42999999999,"N_COORD97":2548137.46,"ADDRESS":"王行路６８巷１４２號","OBJECTID":227595},"geometry":{"x":176125.43000000063,"y":2548137.4600000009}},{"attributes":{"ID":227600,"DIS_CODE":0,"TOWNNAME":"永康區","LI":"五王里","LIN":"23鄰","STREET":"成功路","SECT":" ","MAREA":" ","LANE":"２４４巷","ALLEY":" ","HOUSE_NO":"８號","E_COORD97":171364.89000000001,"N_COORD97":2545824.02,"ADDRESS":"成功路２４４巷８號","OBJECTID":227596},"geometry":{"x":171364.88999999966,"y":2545824.0200000033}},{"attributes":{"ID":227601,"DIS_CODE":0,"TOWNNAME":"永康區","LI":"五王里","LIN":"23鄰","STREET":"成功路","SECT":" ","MAREA":" ","LANE":"２４４巷","ALLEY":" ","HOUSE_NO":"７０號","E_COORD97":171466.95000000001,"N_COORD97":2545905.77,"ADDRESS":"成功路２４４巷７０號","OBJECTID":227597},"geometry":{"x":171466.95000000205,"y":2545905.7699999996}},{"attributes":{"ID":227602,"DIS_CODE":0,"TOWNNAME":"新化區","LI":"太平里","LIN":"3鄰","STREET":"太平街","SECT":" ","MAREA":" ","LANE":"１巷","ALLEY":" ","HOUSE_NO":"２０號","E_COORD97":179055.87,"N_COORD97":2548761.25,"ADDRESS":"太平街１巷２０號","OBJECTID":227598},"geometry":{"x":179055.87000000104,"y":2548761.25}},{"attributes":{"ID":227603,"DIS_CODE":0,"TOWNNAME":"安南區","LI":"新順里","LIN":"3鄰","STREET":"安和路","SECT":"三段","MAREA":" ","LANE":"５４巷","ALLEY":" ","HOUSE_NO":"１０號","E_COORD97":169839.53,"N_COORD97":2549424.0800000001,"ADDRESS":"安和路三段５４巷１０號","OBJECTID":227599},"geometry":{"x":169839.53000000119,"y":2549424.0800000001}},{"attributes":{"ID":227604,"DIS_CODE":0,"TOWNNAME":"安南區","LI":"淵東里","LIN":"3鄰","STREET":"本原街","SECT":"三段","MAREA":" ","LANE":"２３４巷","ALLEY":" ","HOUSE_NO":"１１６號","E_COORD97":165260.67000000001,"N_COORD97":2550558.5800000001,"ADDRESS":"本原街三段２３４巷１１６號","OBJECTID":227600},"geometry":{"x":165260.66999999899,"y":2550558.5800000019}}]}