{"displayFieldName":"TOWNNAME","fieldAliases":{"ID":"ID","DIS_CODE":"DIS_CODE","TOWNNAME":"TOWNNAME","LI":"LI","LIN":"LIN","STREET":"STREET","SECT":"SECT","MAREA":"MAREA","LANE":"LANE","ALLEY":"ALLEY","HOUSE_NO":"HOUSE_NO","E_COORD97":"E_COORD97","N_COORD97":"N_COORD97","ADDRESS":"ADDRESS","OBJECTID":"OBJECTID"},"geometryType":"esriGeometryPoint","spatialReference":{"wkid":102443,"latestWkid":3826},"fields":[{"name":"ID","type":"esriFieldTypeDouble","alias":"ID"},{"name":"DIS_CODE","type":"esriFieldTypeInteger","alias":"DIS_CODE"},{"name":"TOWNNAME","type":"esriFieldTypeString","alias":"TOWNNAME","length":8},{"name":"LI","type":"esriFieldTypeString","alias":"LI","length":8},{"name":"LIN","type":"esriFieldTypeString","alias":"LIN","length":12},{"name":"STREET","type":"esriFieldTypeString","alias":"STREET","length":20},{"name":"SECT","type":"esriFieldTypeString","alias":"SECT","length":8},{"name":"MAREA","type":"esriFieldTypeString","alias":"MAREA","length":12},{"name":"LANE","type":"esriFieldTypeString","alias":"LANE","length":10},{"name":"ALLEY","type":"esriFieldTypeString","alias":"ALLEY","length":10},{"name":"HOUSE_NO","type":"esriFieldTypeString","alias":"HOUSE_NO","length":20},{"name":"E_COORD97","type":"esriFieldTypeDouble","alias":"E_COORD97"},{"name":"N_COORD97","type":"esriFieldTypeDouble","alias":"N_COORD97"},{"name":"ADDRESS","type":"esriFieldTypeString","alias":"ADDRESS","length":50},{"name":"OBJECTID","type":"esriFieldTypeOID","alias":"OBJECTID"}],"features":[{"attributes":{"ID":362811,"DIS_CODE":0,"TOWNNAME":"南區","LI":"開南里","LIN":"18鄰","STREET":"\u25A0埕路","SECT":" ","MAREA":" ","LANE":"１５９巷","ALLEY":" ","HOUSE_NO":"３號三樓","E_COORD97":166627.39999999999,"N_COORD97":2541119.1600000001,"ADDRESS":"\u25A0埕路１５９巷３號三樓","OBJECTID":362801},"geometry":{"x":166627.40000000037,"y":2541119.160000002}},{"attributes":{"ID":362812,"DIS_CODE":0,"TOWNNAME":"南區","LI":"開南里","LIN":"18鄰","STREET":"\u25A0埕路","SECT":" ","MAREA":" ","LANE":"１５９巷","ALLEY":" ","HOUSE_NO":"３號三樓之１","E_COORD97":166627.39999999999,"N_COORD97":2541119.1600000001,"ADDRESS":"\u25A0埕路１５９巷３號三樓之１","OBJECTID":362802},"geometry":{"x":166627.40000000037,"y":2541119.160000002}},{"attributes":{"ID":362813,"DIS_CODE":0,"TOWNNAME":"南區","LI":"開南里","LIN":"18鄰","STREET":"\u25A0埕路","SECT":" ","MAREA":" ","LANE":"１５９巷","ALLEY":" ","HOUSE_NO":"３號三樓之２","E_COORD97":166627.39999999999,"N_COORD97":2541119.1600000001,"ADDRESS":"\u25A0埕路１５９巷３號三樓之２","OBJECTID":362803},"geometry":{"x":166627.40000000037,"y":2541119.160000002}},{"attributes":{"ID":362814,"DIS_CODE":0,"TOWNNAME":"南區","LI":"開南里","LIN":"18鄰","STREET":"\u25A0埕路","SECT":" ","MAREA":" ","LANE":"１５９巷","ALLEY":" ","HOUSE_NO":"３號三樓之３","E_COORD97":166627.39999999999,"N_COORD97":2541119.1600000001,"ADDRESS":"\u25A0埕路１５９巷３號三樓之３","OBJECTID":362804},"geometry":{"x":166627.40000000037,"y":2541119.160000002}},{"attributes":{"ID":362815,"DIS_CODE":0,"TOWNNAME":"南區","LI":"開南里","LIN":"18鄰","STREET":"\u25A0埕路","SECT":" ","MAREA":" ","LANE":"１５９巷","ALLEY":" ","HOUSE_NO":"３號四樓","E_COORD97":166627.39999999999,"N_COORD97":2541119.1600000001,"ADDRESS":"\u25A0埕路１５９巷３號四樓","OBJECTID":362805},"geometry":{"x":166627.40000000037,"y":2541119.160000002}},{"attributes":{"ID":362816,"DIS_CODE":0,"TOWNNAME":"南區","LI":"開南里","LIN":"18鄰","STREET":"\u25A0埕路","SECT":" ","MAREA":" ","LANE":"１５９巷","ALLEY":" ","HOUSE_NO":"３號四樓之１","E_COORD97":166627.39999999999,"N_COORD97":2541119.1600000001,"ADDRESS":"\u25A0埕路１５９巷３號四樓之１","OBJECTID":362806},"geometry":{"x":166627.40000000037,"y":2541119.160000002}},{"attributes":{"ID":362817,"DIS_CODE":0,"TOWNNAME":"歸仁區","LI":"許厝里","LIN":"13鄰","STREET":"信義南路","SECT":" ","MAREA":" ","LANE":" ","ALLEY":" ","HOUSE_NO":"７號","E_COORD97":178008.57999999999,"N_COORD97":2540694.25,"ADDRESS":"信義南路７號","OBJECTID":362807},"geometry":{"x":178008.58000000007,"y":2540694.2500000019}},{"attributes":{"ID":362818,"DIS_CODE":0,"TOWNNAME":"南區","LI":"開南里","LIN":"18鄰","STREET":"\u25A0埕路","SECT":" ","MAREA":" ","LANE":"１５９巷","ALLEY":" ","HOUSE_NO":"３號四樓之２","E_COORD97":166627.39999999999,"N_COORD97":2541119.1600000001,"ADDRESS":"\u25A0埕路１５９巷３號四樓之２","OBJECTID":362808},"geometry":{"x":166627.40000000037,"y":2541119.160000002}},{"attributes":{"ID":362819,"DIS_CODE":0,"TOWNNAME":"南區","LI":"開南里","LIN":"18鄰","STREET":"\u25A0埕路","SECT":" ","MAREA":" ","LANE":"１５９巷","ALLEY":" ","HOUSE_NO":"３號四樓之３","E_COORD97":166627.39999999999,"N_COORD97":2541119.1600000001,"ADDRESS":"\u25A0埕路１５９巷３號四樓之３","OBJECTID":362809},"geometry":{"x":166627.40000000037,"y":2541119.160000002}},{"attributes":{"ID":362820,"DIS_CODE":0,"TOWNNAME":"南區","LI":"開南里","LIN":"18鄰","STREET":"\u25A0埕路","SECT":" ","MAREA":" ","LANE":"１５９巷","ALLEY":" ","HOUSE_NO":"３號五樓","E_COORD97":166627.39999999999,"N_COORD97":2541119.1600000001,"ADDRESS":"\u25A0埕路１５９巷３號五樓","OBJECTID":362810},"geometry":{"x":166627.40000000037,"y":2541119.160000002}},{"attributes":{"ID":362821,"DIS_CODE":0,"TOWNNAME":"安南區","LI":"鳳凰里","LIN":"25鄰","STREET":"怡安路","SECT":"二段","MAREA":" ","LANE":" ","ALLEY":" ","HOUSE_NO":"５９９號十八樓之１","E_COORD97":167393.91,"N_COORD97":2549474.3999999999,"ADDRESS":"怡安路二段５９９號十八樓之１","OBJECTID":362811},"geometry":{"x":167393.91000000108,"y":2549474.4000000022}},{"attributes":{"ID":362822,"DIS_CODE":0,"TOWNNAME":"安南區","LI":"鳳凰里","LIN":"25鄰","STREET":"怡安路","SECT":"二段","MAREA":" ","LANE":" ","ALLEY":" ","HOUSE_NO":"５９９號十八樓之２","E_COORD97":167393.91,"N_COORD97":2549474.3999999999,"ADDRESS":"怡安路二段５９９號十八樓之２","OBJECTID":362812},"geometry":{"x":167393.91000000108,"y":2549474.4000000022}},{"attributes":{"ID":362823,"DIS_CODE":0,"TOWNNAME":"安南區","LI":"鳳凰里","LIN":"25鄰","STREET":"怡安路","SECT":"二段","MAREA":" ","LANE":" ","ALLEY":" ","HOUSE_NO":"５９９號十三樓之１","E_COORD97":167393.91,"N_COORD97":2549474.3999999999,"ADDRESS":"怡安路二段５９９號十三樓之１","OBJECTID":362813},"geometry":{"x":167393.91000000108,"y":2549474.4000000022}},{"attributes":{"ID":362824,"DIS_CODE":0,"TOWNNAME":"安南區","LI":"鳳凰里","LIN":"25鄰","STREET":"怡安路","SECT":"二段","MAREA":" ","LANE":" ","ALLEY":" ","HOUSE_NO":"５９９號十三樓之２","E_COORD97":167393.91,"N_COORD97":2549474.3999999999,"ADDRESS":"怡安路二段５９９號十三樓之２","OBJECTID":362814},"geometry":{"x":167393.91000000108,"y":2549474.4000000022}},{"attributes":{"ID":362825,"DIS_CODE":0,"TOWNNAME":"安南區","LI":"鳳凰里","LIN":"25鄰","STREET":"怡安路","SECT":"二段","MAREA":" ","LANE":" ","ALLEY":" ","HOUSE_NO":"５９９號十五樓之１","E_COORD97":167393.91,"N_COORD97":2549474.3999999999,"ADDRESS":"怡安路二段５９９號十五樓之１","OBJECTID":362815},"geometry":{"x":167393.91000000108,"y":2549474.4000000022}},{"attributes":{"ID":362826,"DIS_CODE":0,"TOWNNAME":"安南區","LI":"鳳凰里","LIN":"25鄰","STREET":"怡安路","SECT":"二段","MAREA":" ","LANE":" ","ALLEY":" ","HOUSE_NO":"５９９號十五樓之２","E_COORD97":167393.91,"N_COORD97":2549474.3999999999,"ADDRESS":"怡安路二段５９９號十五樓之２","OBJECTID":362816},"geometry":{"x":167393.91000000108,"y":2549474.4000000022}},{"attributes":{"ID":362827,"DIS_CODE":0,"TOWNNAME":"安南區","LI":"鳳凰里","LIN":"25鄰","STREET":"怡安路","SECT":"二段","MAREA":" ","LANE":" ","ALLEY":" ","HOUSE_NO":"５９９號十六樓之１","E_COORD97":167393.91,"N_COORD97":2549474.3999999999,"ADDRESS":"怡安路二段５９９號十六樓之１","OBJECTID":362817},"geometry":{"x":167393.91000000108,"y":2549474.4000000022}},{"attributes":{"ID":362828,"DIS_CODE":0,"TOWNNAME":"安南區","LI":"鳳凰里","LIN":"25鄰","STREET":"怡安路","SECT":"二段","MAREA":" ","LANE":" ","ALLEY":" ","HOUSE_NO":"５９９號十六樓之２","E_COORD97":167393.91,"N_COORD97":2549474.3999999999,"ADDRESS":"怡安路二段５９９號十六樓之２","OBJECTID":362818},"geometry":{"x":167393.91000000108,"y":2549474.4000000022}},{"attributes":{"ID":362829,"DIS_CODE":0,"TOWNNAME":"安南區","LI":"鳳凰里","LIN":"25鄰","STREET":"怡安路","SECT":"二段","MAREA":" ","LANE":" ","ALLEY":" ","HOUSE_NO":"５９９號十四樓之１","E_COORD97":167393.91,"N_COORD97":2549474.3999999999,"ADDRESS":"怡安路二段５９９號十四樓之１","OBJECTID":362819},"geometry":{"x":167393.91000000108,"y":2549474.4000000022}},{"attributes":{"ID":362830,"DIS_CODE":0,"TOWNNAME":"安南區","LI":"鳳凰里","LIN":"25鄰","STREET":"怡安路","SECT":"二段","MAREA":" ","LANE":" ","ALLEY":" ","HOUSE_NO":"５９９號十四樓之２","E_COORD97":167393.91,"N_COORD97":2549474.3999999999,"ADDRESS":"怡安路二段５９９號十四樓之２","OBJECTID":362820},"geometry":{"x":167393.91000000108,"y":2549474.4000000022}},{"attributes":{"ID":362831,"DIS_CODE":0,"TOWNNAME":"安南區","LI":"鳳凰里","LIN":"25鄰","STREET":"怡安路","SECT":"二段","MAREA":" ","LANE":" ","ALLEY":" ","HOUSE_NO":"５９９號十樓之１","E_COORD97":167393.91,"N_COORD97":2549474.3999999999,"ADDRESS":"怡安路二段５９９號十樓之１","OBJECTID":362821},"geometry":{"x":167393.91000000108,"y":2549474.4000000022}},{"attributes":{"ID":362832,"DIS_CODE":0,"TOWNNAME":"安南區","LI":"鳳凰里","LIN":"25鄰","STREET":"怡安路","SECT":"二段","MAREA":" ","LANE":" ","ALLEY":" ","HOUSE_NO":"５９９號十樓之２","E_COORD97":167393.91,"N_COORD97":2549474.3999999999,"ADDRESS":"怡安路二段５９９號十樓之２","OBJECTID":362822},"geometry":{"x":167393.91000000108,"y":2549474.4000000022}},{"attributes":{"ID":362833,"DIS_CODE":0,"TOWNNAME":"安南區","LI":"鳳凰里","LIN":"25鄰","STREET":"怡安路","SECT":"二段","MAREA":" ","LANE":" ","ALLEY":" ","HOUSE_NO":"５９９號五樓之１","E_COORD97":167393.91,"N_COORD97":2549474.3999999999,"ADDRESS":"怡安路二段５９９號五樓之１","OBJECTID":362823},"geometry":{"x":167393.91000000108,"y":2549474.4000000022}},{"attributes":{"ID":362834,"DIS_CODE":0,"TOWNNAME":"安南區","LI":"鳳凰里","LIN":"25鄰","STREET":"怡安路","SECT":"二段","MAREA":" ","LANE":" ","ALLEY":" ","HOUSE_NO":"５９９號五樓之２","E_COORD97":167393.91,"N_COORD97":2549474.3999999999,"ADDRESS":"怡安路二段５９９號五樓之２","OBJECTID":362824},"geometry":{"x":167393.91000000108,"y":2549474.4000000022}},{"attributes":{"ID":362835,"DIS_CODE":0,"TOWNNAME":"南區","LI":"開南里","LIN":"18鄰","STREET":"\u25A0埕路","SECT":" ","MAREA":" ","LANE":"１５９巷","ALLEY":" ","HOUSE_NO":"３號五樓之３","E_COORD97":166627.39999999999,"N_COORD97":2541119.1600000001,"ADDRESS":"\u25A0埕路１５９巷３號五樓之３","OBJECTID":362825},"geometry":{"x":166627.40000000037,"y":2541119.160000002}},{"attributes":{"ID":362836,"DIS_CODE":0,"TOWNNAME":"安南區","LI":"大安里","LIN":"19鄰","STREET":"義安街","SECT":" ","MAREA":" ","LANE":"２１２巷","ALLEY":" ","HOUSE_NO":"３號","E_COORD97":167657.31,"N_COORD97":2548340.8100000001,"ADDRESS":"義安街２１２巷３號","OBJECTID":362826},"geometry":{"x":167657.30999999959,"y":2548340.8100000005}},{"attributes":{"ID":362837,"DIS_CODE":0,"TOWNNAME":"安南區","LI":"大安里","LIN":"19鄰","STREET":"義安街","SECT":" ","MAREA":" ","LANE":"２１２巷","ALLEY":" ","HOUSE_NO":"４號","E_COORD97":167645.87,"N_COORD97":2548322.8799999999,"ADDRESS":"義安街２１２巷４號","OBJECTID":362827},"geometry":{"x":167645.87000000011,"y":2548322.8800000027}},{"attributes":{"ID":362838,"DIS_CODE":0,"TOWNNAME":"安南區","LI":"大安里","LIN":"19鄰","STREET":"義安街","SECT":" ","MAREA":" ","LANE":"２１２巷","ALLEY":" ","HOUSE_NO":"５號","E_COORD97":167661.20999999999,"N_COORD97":2548337.1699999999,"ADDRESS":"義安街２１２巷５號","OBJECTID":362828},"geometry":{"x":167661.21000000089,"y":2548337.1700000018}},{"attributes":{"ID":362839,"DIS_CODE":0,"TOWNNAME":"安南區","LI":"大安里","LIN":"19鄰","STREET":"義安街","SECT":" ","MAREA":" ","LANE":"２１２巷","ALLEY":" ","HOUSE_NO":"６號","E_COORD97":167650.54999999999,"N_COORD97":2548321.0699999998,"ADDRESS":"義安街２１２巷６號","OBJECTID":362829},"geometry":{"x":167650.55000000075,"y":2548321.0700000022}},{"attributes":{"ID":362840,"DIS_CODE":0,"TOWNNAME":"安南區","LI":"大安里","LIN":"19鄰","STREET":"義安街","SECT":" ","MAREA":" ","LANE":"２１２巷","ALLEY":" ","HOUSE_NO":"７號","E_COORD97":167665.62,"N_COORD97":2548334.5699999998,"ADDRESS":"義安街２１２巷７號","OBJECTID":362830},"geometry":{"x":167665.62000000104,"y":2548334.5700000022}},{"attributes":{"ID":362841,"DIS_CODE":0,"TOWNNAME":"安南區","LI":"大安里","LIN":"19鄰","STREET":"義安街","SECT":" ","MAREA":" ","LANE":"２１２巷","ALLEY":" ","HOUSE_NO":"８號","E_COORD97":167655.23000000001,"N_COORD97":2548317.1699999999,"ADDRESS":"義安街２１２巷８號","OBJECTID":362831},"geometry":{"x":167655.23000000138,"y":2548317.1699999999}},{"attributes":{"ID":362842,"DIS_CODE":0,"TOWNNAME":"安南區","LI":"大安里","LIN":"19鄰","STREET":"義安街","SECT":" ","MAREA":" ","LANE":"２２６巷","ALLEY":" ","HOUSE_NO":"１０號","E_COORD97":167680.70000000001,"N_COORD97":2548341.0699999998,"ADDRESS":"義安街２２６巷１０號","OBJECTID":362832},"geometry":{"x":167680.70000000112,"y":2548341.0700000022}},{"attributes":{"ID":362843,"DIS_CODE":0,"TOWNNAME":"安南區","LI":"大安里","LIN":"19鄰","STREET":"義安街","SECT":" ","MAREA":" ","LANE":"２２６巷","ALLEY":" ","HOUSE_NO":"１１號","E_COORD97":167697.07999999999,"N_COORD97":2548355.0899999999,"ADDRESS":"義安街２２６巷１１號","OBJECTID":362833},"geometry":{"x":167697.08000000007,"y":2548355.0899999999}},{"attributes":{"ID":362844,"DIS_CODE":0,"TOWNNAME":"安南區","LI":"大安里","LIN":"19鄰","STREET":"義安街","SECT":" ","MAREA":" ","LANE":"２２６巷","ALLEY":" ","HOUSE_NO":"１２號","E_COORD97":167685.38,"N_COORD97":2548337.6899999999,"ADDRESS":"義安街２２６巷１２號","OBJECTID":362834},"geometry":{"x":167685.38000000082,"y":2548337.6899999995}},{"attributes":{"ID":362845,"DIS_CODE":0,"TOWNNAME":"安南區","LI":"大安里","LIN":"19鄰","STREET":"義安街","SECT":" ","MAREA":" ","LANE":"２２６巷","ALLEY":" ","HOUSE_NO":"１３號","E_COORD97":167703.57999999999,"N_COORD97":2548352.23,"ADDRESS":"義安街２２６巷１３號","OBJECTID":362835},"geometry":{"x":167703.58000000007,"y":2548352.2300000004}},{"attributes":{"ID":362846,"DIS_CODE":0,"TOWNNAME":"安南區","LI":"大安里","LIN":"19鄰","STREET":"義安街","SECT":" ","MAREA":" ","LANE":"２２６巷","ALLEY":" ","HOUSE_NO":"１４號","E_COORD97":167690.57999999999,"N_COORD97":2548333.5299999998,"ADDRESS":"義安街２２６巷１４號","OBJECTID":362836},"geometry":{"x":167690.58000000007,"y":2548333.5300000012}},{"attributes":{"ID":362847,"DIS_CODE":0,"TOWNNAME":"安南區","LI":"大安里","LIN":"19鄰","STREET":"義安街","SECT":" ","MAREA":" ","LANE":"２２６巷","ALLEY":" ","HOUSE_NO":"１５號","E_COORD97":167710.85999999999,"N_COORD97":2548347.2999999998,"ADDRESS":"義安街２２６巷１５號","OBJECTID":362837},"geometry":{"x":167710.86000000034,"y":2548347.3000000026}},{"attributes":{"ID":362848,"DIS_CODE":0,"TOWNNAME":"安南區","LI":"大安里","LIN":"19鄰","STREET":"義安街","SECT":" ","MAREA":" ","LANE":"２２６巷","ALLEY":" ","HOUSE_NO":"１６號","E_COORD97":167698.12,"N_COORD97":2548327.77,"ADDRESS":"義安街２２６巷１６號","OBJECTID":362838},"geometry":{"x":167698.12000000011,"y":2548327.7700000033}},{"attributes":{"ID":362849,"DIS_CODE":0,"TOWNNAME":"安南區","LI":"大安里","LIN":"19鄰","STREET":"義安街","SECT":" ","MAREA":" ","LANE":"２２６巷","ALLEY":" ","HOUSE_NO":"１７號","E_COORD97":167717.35999999999,"N_COORD97":2548342.8799999999,"ADDRESS":"義安街２２６巷１７號","OBJECTID":362839},"geometry":{"x":167717.36000000034,"y":2548342.879999999}},{"attributes":{"ID":362850,"DIS_CODE":0,"TOWNNAME":"安南區","LI":"大安里","LIN":"19鄰","STREET":"義安街","SECT":" ","MAREA":" ","LANE":"２２６巷","ALLEY":" ","HOUSE_NO":"１８號","E_COORD97":167704.88,"N_COORD97":2548325.4300000002,"ADDRESS":"義安街２２６巷１８號","OBJECTID":362840},"geometry":{"x":167704.87999999989,"y":2548325.4299999997}},{"attributes":{"ID":362851,"DIS_CODE":0,"TOWNNAME":"安南區","LI":"大安里","LIN":"19鄰","STREET":"義安街","SECT":" ","MAREA":" ","LANE":"２２６巷","ALLEY":" ","HOUSE_NO":"１９號","E_COORD97":167721.78,"N_COORD97":2548339.77,"ADDRESS":"義安街２２６巷１９號","OBJECTID":362841},"geometry":{"x":167721.78000000212,"y":2548339.7699999996}},{"attributes":{"ID":362852,"DIS_CODE":0,"TOWNNAME":"安南區","LI":"大安里","LIN":"19鄰","STREET":"義安街","SECT":" ","MAREA":" ","LANE":"２２６巷","ALLEY":" ","HOUSE_NO":"１號","E_COORD97":167670.82000000001,"N_COORD97":2548370.1600000001,"ADDRESS":"義安街２２６巷１號","OBJECTID":362842},"geometry":{"x":167670.82000000123,"y":2548370.160000002}},{"attributes":{"ID":362853,"DIS_CODE":0,"TOWNNAME":"安南區","LI":"大安里","LIN":"19鄰","STREET":"義安街","SECT":" ","MAREA":" ","LANE":"２２６巷","ALLEY":" ","HOUSE_NO":"２０號","E_COORD97":167710.07999999999,"N_COORD97":2548322.5699999998,"ADDRESS":"義安街２２６巷２０號","OBJECTID":362843},"geometry":{"x":167710.08000000101,"y":2548322.5700000003}},{"attributes":{"ID":362854,"DIS_CODE":0,"TOWNNAME":"安南區","LI":"大安里","LIN":"19鄰","STREET":"義安街","SECT":" ","MAREA":" ","LANE":"２２６巷","ALLEY":" ","HOUSE_NO":"２１號","E_COORD97":167726.45999999999,"N_COORD97":2548336.3900000001,"ADDRESS":"義安街２２６巷２１號","OBJECTID":362844},"geometry":{"x":167726.45999999996,"y":2548336.3900000025}},{"attributes":{"ID":362855,"DIS_CODE":0,"TOWNNAME":"安南區","LI":"大安里","LIN":"19鄰","STREET":"義安街","SECT":" ","MAREA":" ","LANE":"２２６巷","ALLEY":" ","HOUSE_NO":"２２號","E_COORD97":167715.54000000001,"N_COORD97":2548318.9399999999,"ADDRESS":"義安街２２６巷２２號","OBJECTID":362845},"geometry":{"x":167715.54000000004,"y":2548318.9399999995}},{"attributes":{"ID":362856,"DIS_CODE":0,"TOWNNAME":"安南區","LI":"大安里","LIN":"19鄰","STREET":"義安街","SECT":" ","MAREA":" ","LANE":"２２６巷","ALLEY":" ","HOUSE_NO":"２４號","E_COORD97":167720.73999999999,"N_COORD97":2548315.2999999998,"ADDRESS":"義安街２２６巷２４號","OBJECTID":362846},"geometry":{"x":167720.74000000115,"y":2548315.3000000045}},{"attributes":{"ID":362857,"DIS_CODE":0,"TOWNNAME":"安南區","LI":"大安里","LIN":"19鄰","STREET":"義安街","SECT":" ","MAREA":" ","LANE":"２２６巷","ALLEY":" ","HOUSE_NO":"２６號","E_COORD97":167724.89999999999,"N_COORD97":2548311.3999999999,"ADDRESS":"義安街２２６巷２６號","OBJECTID":362847},"geometry":{"x":167724.9000000013,"y":2548311.4000000022}},{"attributes":{"ID":362858,"DIS_CODE":0,"TOWNNAME":"安南區","LI":"大安里","LIN":"19鄰","STREET":"義安街","SECT":" ","MAREA":" ","LANE":"２２６巷","ALLEY":" ","HOUSE_NO":"２號","E_COORD97":167660.17000000001,"N_COORD97":2548353.5299999998,"ADDRESS":"義安街２２６巷２號","OBJECTID":362848},"geometry":{"x":167660.17000000086,"y":2548353.5300000012}},{"attributes":{"ID":362859,"DIS_CODE":0,"TOWNNAME":"安南區","LI":"大安里","LIN":"19鄰","STREET":"義安街","SECT":" ","MAREA":" ","LANE":"２２６巷","ALLEY":" ","HOUSE_NO":"３號","E_COORD97":167676.54000000001,"N_COORD97":2548367.5600000001,"ADDRESS":"義安街２２６巷３號","OBJECTID":362849},"geometry":{"x":167676.54000000097,"y":2548367.5600000042}},{"attributes":{"ID":362860,"DIS_CODE":0,"TOWNNAME":"安南區","LI":"大安里","LIN":"19鄰","STREET":"義安街","SECT":" ","MAREA":" ","LANE":"２２６巷","ALLEY":" ","HOUSE_NO":"４號","E_COORD97":167664.57999999999,"N_COORD97":2548350.4199999999,"ADDRESS":"義安街２２６巷４號","OBJECTID":362850},"geometry":{"x":167664.58000000007,"y":2548350.4199999999}},{"attributes":{"ID":362861,"DIS_CODE":0,"TOWNNAME":"安南區","LI":"大安里","LIN":"19鄰","STREET":"義安街","SECT":" ","MAREA":" ","LANE":"２２６巷","ALLEY":" ","HOUSE_NO":"５號","E_COORD97":167681.73999999999,"N_COORD97":2548365.48,"ADDRESS":"義安街２２６巷５號","OBJECTID":362851},"geometry":{"x":167681.74000000115,"y":2548365.4800000023}},{"attributes":{"ID":362862,"DIS_CODE":0,"TOWNNAME":"安南區","LI":"大安里","LIN":"19鄰","STREET":"義安街","SECT":" ","MAREA":" ","LANE":"２２６巷","ALLEY":" ","HOUSE_NO":"６號","E_COORD97":167671.07999999999,"N_COORD97":2548347.8199999998,"ADDRESS":"義安街２２６巷６號","OBJECTID":362852},"geometry":{"x":167671.08000000101,"y":2548347.8200000003}},{"attributes":{"ID":362863,"DIS_CODE":0,"TOWNNAME":"安南區","LI":"大安里","LIN":"19鄰","STREET":"義安街","SECT":" ","MAREA":" ","LANE":"２２６巷","ALLEY":" ","HOUSE_NO":"７號","E_COORD97":167686.94,"N_COORD97":2548361.5800000001,"ADDRESS":"義安街２２６巷７號","OBJECTID":362853},"geometry":{"x":167686.94000000227,"y":2548361.5800000019}},{"attributes":{"ID":362864,"DIS_CODE":0,"TOWNNAME":"安南區","LI":"大安里","LIN":"19鄰","STREET":"義安街","SECT":" ","MAREA":" ","LANE":"２２６巷","ALLEY":" ","HOUSE_NO":"９號","E_COORD97":167692.92000000001,"N_COORD97":2548358.21,"ADDRESS":"義安街２２６巷９號","OBJECTID":362854},"geometry":{"x":167692.91999999993,"y":2548358.2100000028}},{"attributes":{"ID":362865,"DIS_CODE":0,"TOWNNAME":"安南區","LI":"大安里","LIN":"19鄰","STREET":"義安街","SECT":" ","MAREA":" ","LANE":"２４２巷","ALLEY":" ","HOUSE_NO":"１０號","E_COORD97":167695.26000000001,"N_COORD97":2548370.9300000002,"ADDRESS":"義安街２４２巷１０號","OBJECTID":362855},"geometry":{"x":167695.25999999978,"y":2548370.9300000034}},{"attributes":{"ID":362866,"DIS_CODE":0,"TOWNNAME":"安平區","LI":"建平里","LIN":"13鄰","STREET":"建平十四街","SECT":" ","MAREA":" ","LANE":" ","ALLEY":" ","HOUSE_NO":"１０９號","E_COORD97":166101.42999999999,"N_COORD97":2544059,"ADDRESS":"建平十四街１０９號","OBJECTID":362856},"geometry":{"x":166101.43000000063,"y":2544059.0000000019}},{"attributes":{"ID":362867,"DIS_CODE":0,"TOWNNAME":"東區","LI":"和平里","LIN":"1鄰","STREET":"仁和路","SECT":" ","MAREA":" ","LANE":" ","ALLEY":" ","HOUSE_NO":"３７號十一樓","E_COORD97":171099.45000000001,"N_COORD97":2542097.2200000002,"ADDRESS":"仁和路３７號十一樓","OBJECTID":362857},"geometry":{"x":171099.45000000112,"y":2542097.2200000007}},{"attributes":{"ID":362868,"DIS_CODE":0,"TOWNNAME":"安南區","LI":"大安里","LIN":"19鄰","STREET":"義安街","SECT":" ","MAREA":" ","LANE":"２４２巷","ALLEY":" ","HOUSE_NO":"１２號","E_COORD97":167699.94,"N_COORD97":2548369.1200000001,"ADDRESS":"義安街２４２巷１２號","OBJECTID":362858},"geometry":{"x":167699.94000000041,"y":2548369.1200000029}},{"attributes":{"ID":362869,"DIS_CODE":0,"TOWNNAME":"安南區","LI":"大安里","LIN":"19鄰","STREET":"義安街","SECT":" ","MAREA":" ","LANE":"２４２巷","ALLEY":" ","HOUSE_NO":"１４號","E_COORD97":167704.10000000001,"N_COORD97":2548364.96,"ADDRESS":"義安街２４２巷１４號","OBJECTID":362859},"geometry":{"x":167704.10000000056,"y":2548364.959999999}},{"attributes":{"ID":362870,"DIS_CODE":0,"TOWNNAME":"安南區","LI":"大安里","LIN":"19鄰","STREET":"義安街","SECT":" ","MAREA":" ","LANE":"２４２巷","ALLEY":" ","HOUSE_NO":"１８號","E_COORD97":167718.92000000001,"N_COORD97":2548355.6099999999,"ADDRESS":"義安街２４２巷１８號","OBJECTID":362860},"geometry":{"x":167718.92000000086,"y":2548355.6099999975}},{"attributes":{"ID":362871,"DIS_CODE":0,"TOWNNAME":"安南區","LI":"大安里","LIN":"19鄰","STREET":"義安街","SECT":" ","MAREA":" ","LANE":"２４２巷","ALLEY":" ","HOUSE_NO":"２０號","E_COORD97":167723.34,"N_COORD97":2548354.0499999998,"ADDRESS":"義安街２４２巷２０號","OBJECTID":362861},"geometry":{"x":167723.34000000078,"y":2548354.0499999989}},{"attributes":{"ID":362872,"DIS_CODE":0,"TOWNNAME":"安南區","LI":"大安里","LIN":"19鄰","STREET":"義安街","SECT":" ","MAREA":" ","LANE":"２４２巷","ALLEY":" ","HOUSE_NO":"２４號","E_COORD97":167731.92000000001,"N_COORD97":2548348.0800000001,"ADDRESS":"義安街２４２巷２４號","OBJECTID":362862},"geometry":{"x":167731.91999999993,"y":2548348.0800000019}},{"attributes":{"ID":362873,"DIS_CODE":0,"TOWNNAME":"安南區","LI":"大安里","LIN":"19鄰","STREET":"義安街","SECT":" ","MAREA":" ","LANE":"２４２巷","ALLEY":" ","HOUSE_NO":"２６號","E_COORD97":167736.07999999999,"N_COORD97":2548345.48,"ADDRESS":"義安街２４２巷２６號","OBJECTID":362863},"geometry":{"x":167736.08000000007,"y":2548345.4800000023}},{"attributes":{"ID":362874,"DIS_CODE":0,"TOWNNAME":"安南區","LI":"大安里","LIN":"19鄰","STREET":"義安街","SECT":" ","MAREA":" ","LANE":"２４２巷","ALLEY":" ","HOUSE_NO":"２８號","E_COORD97":167740.76000000001,"N_COORD97":2548343.1400000001,"ADDRESS":"義安街２４２巷２８號","OBJECTID":362864},"geometry":{"x":167740.76000000071,"y":2548343.1400000043}},{"attributes":{"ID":362875,"DIS_CODE":0,"TOWNNAME":"中西區","LI":"水仙里","LIN":"18鄰","STREET":"海安路","SECT":"二段","MAREA":" ","LANE":"２７０巷","ALLEY":" ","HOUSE_NO":"１８號五樓之１","E_COORD97":167785.73000000001,"N_COORD97":2544258.9300000002,"ADDRESS":"海安路二段２７０巷１８號五樓之１","OBJECTID":362865},"geometry":{"x":167785.73000000138,"y":2544258.9300000016}},{"attributes":{"ID":362876,"DIS_CODE":0,"TOWNNAME":"中西區","LI":"水仙里","LIN":"18鄰","STREET":"海安路","SECT":"二段","MAREA":" ","LANE":"２７０巷","ALLEY":" ","HOUSE_NO":"１８號五樓之２","E_COORD97":167785.73000000001,"N_COORD97":2544258.9300000002,"ADDRESS":"海安路二段２７０巷１８號五樓之２","OBJECTID":362866},"geometry":{"x":167785.73000000138,"y":2544258.9300000016}},{"attributes":{"ID":362877,"DIS_CODE":0,"TOWNNAME":"中西區","LI":"水仙里","LIN":"18鄰","STREET":"海安路","SECT":"二段","MAREA":" ","LANE":"２７０巷","ALLEY":" ","HOUSE_NO":"１８號五樓之３","E_COORD97":167785.73000000001,"N_COORD97":2544258.9300000002,"ADDRESS":"海安路二段２７０巷１８號五樓之３","OBJECTID":362867},"geometry":{"x":167785.73000000138,"y":2544258.9300000016}},{"attributes":{"ID":362878,"DIS_CODE":0,"TOWNNAME":"中西區","LI":"水仙里","LIN":"18鄰","STREET":"海安路","SECT":"二段","MAREA":" ","LANE":"２７０巷","ALLEY":" ","HOUSE_NO":"１８號四樓之１","E_COORD97":167785.73000000001,"N_COORD97":2544258.9300000002,"ADDRESS":"海安路二段２７０巷１８號四樓之１","OBJECTID":362868},"geometry":{"x":167785.73000000138,"y":2544258.9300000016}},{"attributes":{"ID":362879,"DIS_CODE":0,"TOWNNAME":"中西區","LI":"水仙里","LIN":"18鄰","STREET":"海安路","SECT":"二段","MAREA":" ","LANE":"２７０巷","ALLEY":" ","HOUSE_NO":"１８號四樓之２","E_COORD97":167785.73000000001,"N_COORD97":2544258.9300000002,"ADDRESS":"海安路二段２７０巷１８號四樓之２","OBJECTID":362869},"geometry":{"x":167785.73000000138,"y":2544258.9300000016}},{"attributes":{"ID":362880,"DIS_CODE":0,"TOWNNAME":"中西區","LI":"水仙里","LIN":"18鄰","STREET":"海安路","SECT":"二段","MAREA":" ","LANE":"２７０巷","ALLEY":" ","HOUSE_NO":"１８號四樓之３","E_COORD97":167785.73000000001,"N_COORD97":2544258.9300000002,"ADDRESS":"海安路二段２７０巷１８號四樓之３","OBJECTID":362870},"geometry":{"x":167785.73000000138,"y":2544258.9300000016}},{"attributes":{"ID":362881,"DIS_CODE":0,"TOWNNAME":"安南區","LI":"大安里","LIN":"19鄰","STREET":"義安街","SECT":" ","MAREA":" ","LANE":"２４２巷","ALLEY":" ","HOUSE_NO":"２號","E_COORD97":167678.88,"N_COORD97":2548382.6200000001,"ADDRESS":"義安街２４２巷２號","OBJECTID":362871},"geometry":{"x":167678.88000000082,"y":2548382.6200000029}},{"attributes":{"ID":362882,"DIS_CODE":0,"TOWNNAME":"安南區","LI":"大安里","LIN":"19鄰","STREET":"義安街","SECT":" ","MAREA":" ","LANE":"２４２巷","ALLEY":" ","HOUSE_NO":"３０號","E_COORD97":167744.14000000001,"N_COORD97":2548339.5099999998,"ADDRESS":"義安街２４２巷３０號","OBJECTID":362872},"geometry":{"x":167744.14000000153,"y":2548339.5099999998}},{"attributes":{"ID":362883,"DIS_CODE":0,"TOWNNAME":"安南區","LI":"大安里","LIN":"19鄰","STREET":"義安街","SECT":" ","MAREA":" ","LANE":"２４２巷","ALLEY":" ","HOUSE_NO":"３６號","E_COORD97":167769.62,"N_COORD97":2548317.9500000002,"ADDRESS":"義安街２４２巷３６號","OBJECTID":362873},"geometry":{"x":167769.62000000011,"y":2548317.9499999993}},{"attributes":{"ID":362884,"DIS_CODE":0,"TOWNNAME":"安平區","LI":"建平里","LIN":"13鄰","STREET":"建平十四街","SECT":" ","MAREA":" ","LANE":" ","ALLEY":" ","HOUSE_NO":"１２５號","E_COORD97":166056.85000000001,"N_COORD97":2544064.8900000001,"ADDRESS":"建平十四街１２５號","OBJECTID":362874},"geometry":{"x":166056.84999999963,"y":2544064.8900000006}},{"attributes":{"ID":362885,"DIS_CODE":0,"TOWNNAME":"安平區","LI":"建平里","LIN":"13鄰","STREET":"建平十四街","SECT":" ","MAREA":" ","LANE":" ","ALLEY":" ","HOUSE_NO":"１２７號","E_COORD97":166052.01000000001,"N_COORD97":2544065.73,"ADDRESS":"建平十四街１２７號","OBJECTID":362875},"geometry":{"x":166052.01000000071,"y":2544065.7300000004}},{"attributes":{"ID":362886,"DIS_CODE":0,"TOWNNAME":"安平區","LI":"建平里","LIN":"13鄰","STREET":"建平十四街","SECT":" ","MAREA":" ","LANE":" ","ALLEY":" ","HOUSE_NO":"１２９號","E_COORD97":166047.17999999999,"N_COORD97":2544066.9900000002,"ADDRESS":"建平十四街１２９號","OBJECTID":362876},"geometry":{"x":166047.18000000063,"y":2544066.9900000002}},{"attributes":{"ID":362887,"DIS_CODE":0,"TOWNNAME":"安平區","LI":"建平里","LIN":"13鄰","STREET":"建平十四街","SECT":" ","MAREA":" ","LANE":" ","ALLEY":" ","HOUSE_NO":"１３１號","E_COORD97":166041.92000000001,"N_COORD97":2544066.9900000002,"ADDRESS":"建平十四街１３１號","OBJECTID":362877},"geometry":{"x":166041.91999999993,"y":2544066.9900000002}},{"attributes":{"ID":362888,"DIS_CODE":0,"TOWNNAME":"安平區","LI":"建平里","LIN":"13鄰","STREET":"建平十四街","SECT":" ","MAREA":" ","LANE":" ","ALLEY":" ","HOUSE_NO":"１７號","E_COORD97":166286.01999999999,"N_COORD97":2544034.1299999999,"ADDRESS":"建平十四街１７號","OBJECTID":362878},"geometry":{"x":166286.02000000048,"y":2544034.129999999}},{"attributes":{"ID":362889,"DIS_CODE":0,"TOWNNAME":"安平區","LI":"建平里","LIN":"13鄰","STREET":"建平十四街","SECT":" ","MAREA":" ","LANE":" ","ALLEY":" ","HOUSE_NO":"１９號","E_COORD97":166291.16,"N_COORD97":2544034.1299999999,"ADDRESS":"建平十四街１９號","OBJECTID":362879},"geometry":{"x":166291.16000000015,"y":2544034.129999999}},{"attributes":{"ID":362890,"DIS_CODE":0,"TOWNNAME":"安平區","LI":"建平里","LIN":"13鄰","STREET":"建平十四街","SECT":" ","MAREA":" ","LANE":" ","ALLEY":" ","HOUSE_NO":"２１號","E_COORD97":166296.42000000001,"N_COORD97":2544033.77,"ADDRESS":"建平十四街２１號","OBJECTID":362880},"geometry":{"x":166296.41999999899,"y":2544033.7700000014}},{"attributes":{"ID":362891,"DIS_CODE":0,"TOWNNAME":"安平區","LI":"建平里","LIN":"13鄰","STREET":"建平十四街","SECT":" ","MAREA":" ","LANE":" ","ALLEY":" ","HOUSE_NO":"２３號","E_COORD97":166280.88,"N_COORD97":2544034.4900000002,"ADDRESS":"建平十四街２３號","OBJECTID":362881},"geometry":{"x":166280.87999999989,"y":2544034.4899999984}},{"attributes":{"ID":362892,"DIS_CODE":0,"TOWNNAME":"安南區","LI":"佃東里","LIN":"18鄰","STREET":"安吉路","SECT":"三段","MAREA":" ","LANE":"４５１巷","ALLEY":" ","HOUSE_NO":"２１之１號","E_COORD97":167249.60999999999,"N_COORD97":2553052.0499999998,"ADDRESS":"安吉路三段４５１巷２１之１號","OBJECTID":362882},"geometry":{"x":167249.61000000034,"y":2553052.0500000007}},{"attributes":{"ID":362893,"DIS_CODE":0,"TOWNNAME":"安南區","LI":"安西里","LIN":"18鄰","STREET":"安通二街","SECT":" ","MAREA":" ","LANE":"９巷","ALLEY":" ","HOUSE_NO":"１號","E_COORD97":168622.39393699999,"N_COORD97":2547792.9621600001,"ADDRESS":"安通二街９巷１號","OBJECTID":362883},"geometry":{"x":168622.393937001,"y":2547792.9621580038}},{"attributes":{"ID":362894,"DIS_CODE":0,"TOWNNAME":"安南區","LI":"安西里","LIN":"18鄰","STREET":"安通二街","SECT":" ","MAREA":" ","LANE":"２７巷","ALLEY":" ","HOUSE_NO":"１號","E_COORD97":168625.14961600001,"N_COORD97":2547832.7554700002,"ADDRESS":"安通二街２７巷１號","OBJECTID":362884},"geometry":{"x":168625.14961600211,"y":2547832.755469}},{"attributes":{"ID":362895,"DIS_CODE":0,"TOWNNAME":"安南區","LI":"安西里","LIN":"18鄰","STREET":"安通二街","SECT":" ","MAREA":" ","LANE":"２７巷","ALLEY":" ","HOUSE_NO":"３號","E_COORD97":168621.54603600001,"N_COORD97":2547836.5654699998,"ADDRESS":"安通二街２７巷３號","OBJECTID":362885},"geometry":{"x":168621.54603600036,"y":2547836.565467}},{"attributes":{"ID":362896,"DIS_CODE":0,"TOWNNAME":"安南區","LI":"安西里","LIN":"18鄰","STREET":"安通二街","SECT":" ","MAREA":" ","LANE":"２７巷","ALLEY":" ","HOUSE_NO":"２號","E_COORD97":168625.785542,"N_COORD97":2547836.5654699998,"ADDRESS":"安通二街２７巷２號","OBJECTID":362886},"geometry":{"x":168625.78554200009,"y":2547836.565467}},{"attributes":{"ID":362897,"DIS_CODE":0,"TOWNNAME":"安南區","LI":"安西里","LIN":"18鄰","STREET":"安通二街","SECT":" ","MAREA":" ","LANE":"２７巷","ALLEY":" ","HOUSE_NO":"６號","E_COORD97":168621.12208599999,"N_COORD97":2547833.1787999999,"ADDRESS":"安通二街２７巷６號","OBJECTID":362887},"geometry":{"x":168621.12208600063,"y":2547833.1788020022}},{"attributes":{"ID":362898,"DIS_CODE":0,"TOWNNAME":"安南區","LI":"大安里","LIN":"19鄰","STREET":"義安街","SECT":" ","MAREA":" ","LANE":"２４２巷","ALLEY":" ","HOUSE_NO":"６號","E_COORD97":167687.72,"N_COORD97":2548377.4300000002,"ADDRESS":"義安街２４２巷６號","OBJECTID":362888},"geometry":{"x":167687.7200000016,"y":2548377.4299999978}},{"attributes":{"ID":362899,"DIS_CODE":0,"TOWNNAME":"安南區","LI":"大安里","LIN":"19鄰","STREET":"義安街","SECT":" ","MAREA":" ","LANE":"２４２巷","ALLEY":" ","HOUSE_NO":"８號","E_COORD97":167691.88,"N_COORD97":2548375.0899999999,"ADDRESS":"義安街２４２巷８號","OBJECTID":362889},"geometry":{"x":167691.88000000175,"y":2548375.0899999999}},{"attributes":{"ID":362900,"DIS_CODE":0,"TOWNNAME":"安南區","LI":"理想里","LIN":"19鄰","STREET":"大安街","SECT":" ","MAREA":" ","LANE":"４１５巷","ALLEY":" ","HOUSE_NO":"１０號","E_COORD97":167324.84,"N_COORD97":2548688.2999999998,"ADDRESS":"大安街４１５巷１０號","OBJECTID":362890},"geometry":{"x":167324.84000000078,"y":2548688.3000000045}},{"attributes":{"ID":362901,"DIS_CODE":0,"TOWNNAME":"安南區","LI":"理想里","LIN":"19鄰","STREET":"大安街","SECT":" ","MAREA":" ","LANE":"４１５巷","ALLEY":" ","HOUSE_NO":"１２號","E_COORD97":167322.07999999999,"N_COORD97":2548684.48,"ADDRESS":"大安街４１５巷１２號","OBJECTID":362891},"geometry":{"x":167322.08000000007,"y":2548684.4800000023}},{"attributes":{"ID":362902,"DIS_CODE":0,"TOWNNAME":"安南區","LI":"理想里","LIN":"19鄰","STREET":"大安街","SECT":" ","MAREA":" ","LANE":"４１５巷","ALLEY":" ","HOUSE_NO":"１４號","E_COORD97":167319.88,"N_COORD97":2548680.4399999999,"ADDRESS":"大安街４１５巷１４號","OBJECTID":362892},"geometry":{"x":167319.87999999989,"y":2548680.4400000013}},{"attributes":{"ID":362903,"DIS_CODE":0,"TOWNNAME":"安南區","LI":"理想里","LIN":"19鄰","STREET":"大安街","SECT":" ","MAREA":" ","LANE":"４１５巷","ALLEY":" ","HOUSE_NO":"１６號","E_COORD97":167316.84,"N_COORD97":2548677.96,"ADDRESS":"大安街４１５巷１６號","OBJECTID":362893},"geometry":{"x":167316.83999999985,"y":2548677.9600000028}},{"attributes":{"ID":362904,"DIS_CODE":0,"TOWNNAME":"安南區","LI":"理想里","LIN":"19鄰","STREET":"大安街","SECT":" ","MAREA":" ","LANE":"４１５巷","ALLEY":" ","HOUSE_NO":"１８號","E_COORD97":167315.56,"N_COORD97":2548674.4900000002,"ADDRESS":"大安街４１５巷１８號","OBJECTID":362894},"geometry":{"x":167315.55999999959,"y":2548674.4900000002}},{"attributes":{"ID":362905,"DIS_CODE":0,"TOWNNAME":"安南區","LI":"理想里","LIN":"19鄰","STREET":"大安街","SECT":" ","MAREA":" ","LANE":"４１５巷","ALLEY":" ","HOUSE_NO":"２０號","E_COORD97":167313.35999999999,"N_COORD97":2548670.4500000002,"ADDRESS":"大安街４１５巷２０號","OBJECTID":362895},"geometry":{"x":167313.36000000127,"y":2548670.4499999993}},{"attributes":{"ID":362906,"DIS_CODE":0,"TOWNNAME":"南區","LI":"大忠里","LIN":"13鄰","STREET":"公英四街","SECT":" ","MAREA":" ","LANE":" ","ALLEY":" ","HOUSE_NO":"１０號","E_COORD97":169374.34,"N_COORD97":2541162.1099999999,"ADDRESS":"公英四街１０號","OBJECTID":362896},"geometry":{"x":169374.34000000078,"y":2541162.1100000013}},{"attributes":{"ID":362907,"DIS_CODE":0,"TOWNNAME":"南區","LI":"大忠里","LIN":"13鄰","STREET":"公英四街","SECT":" ","MAREA":" ","LANE":" ","ALLEY":" ","HOUSE_NO":"１１號","E_COORD97":169366.39999999999,"N_COORD97":2541142.6499999999,"ADDRESS":"公英四街１１號","OBJECTID":362897},"geometry":{"x":169366.40000000037,"y":2541142.6500000022}},{"attributes":{"ID":362908,"DIS_CODE":0,"TOWNNAME":"南區","LI":"大忠里","LIN":"13鄰","STREET":"公英四街","SECT":" ","MAREA":" ","LANE":" ","ALLEY":" ","HOUSE_NO":"１２號","E_COORD97":169370.81,"N_COORD97":2541161.79,"ADDRESS":"公英四街１２號","OBJECTID":362898},"geometry":{"x":169370.81000000052,"y":2541161.7899999991}},{"attributes":{"ID":362909,"DIS_CODE":0,"TOWNNAME":"南區","LI":"大忠里","LIN":"13鄰","STREET":"公英四街","SECT":" ","MAREA":" ","LANE":" ","ALLEY":" ","HOUSE_NO":"１３號","E_COORD97":169361.63,"N_COORD97":2541142.21,"ADDRESS":"公英四街１３號","OBJECTID":362899},"geometry":{"x":169361.63000000175,"y":2541142.2100000046}},{"attributes":{"ID":362910,"DIS_CODE":0,"TOWNNAME":"南區","LI":"大忠里","LIN":"13鄰","STREET":"公英四街","SECT":" ","MAREA":" ","LANE":" ","ALLEY":" ","HOUSE_NO":"１４號","E_COORD97":169361.67999999999,"N_COORD97":2541160.1899999999,"ADDRESS":"公英四街１４號","OBJECTID":362900},"geometry":{"x":169361.68000000063,"y":2541160.1899999995}},{"attributes":{"ID":362911,"DIS_CODE":0,"TOWNNAME":"南區","LI":"大忠里","LIN":"13鄰","STREET":"公英四街","SECT":" ","MAREA":" ","LANE":" ","ALLEY":" ","HOUSE_NO":"１５號","E_COORD97":169356.76000000001,"N_COORD97":2541141.1400000001,"ADDRESS":"公英四街１５號","OBJECTID":362901},"geometry":{"x":169356.75999999978,"y":2541141.1400000006}},{"attributes":{"ID":362912,"DIS_CODE":0,"TOWNNAME":"南區","LI":"大忠里","LIN":"13鄰","STREET":"公英四街","SECT":" ","MAREA":" ","LANE":" ","ALLEY":" ","HOUSE_NO":"１６號","E_COORD97":169358.16,"N_COORD97":2541159.5600000001,"ADDRESS":"公英四街１６號","OBJECTID":362902},"geometry":{"x":169358.16000000015,"y":2541159.5600000042}},{"attributes":{"ID":362913,"DIS_CODE":0,"TOWNNAME":"佳里區","LI":"安西里","LIN":"46鄰","STREET":"文化路","SECT":" ","MAREA":" ","LANE":"６４１巷","ALLEY":" ","HOUSE_NO":"３號","E_COORD97":164553.78,"N_COORD97":2562533.54,"ADDRESS":"文化路６４１巷３號","OBJECTID":362903},"geometry":{"x":164553.78000000119,"y":2562533.5399999991}},{"attributes":{"ID":362914,"DIS_CODE":0,"TOWNNAME":"安南區","LI":"理想里","LIN":"19鄰","STREET":"大安街","SECT":" ","MAREA":" ","LANE":"４１５巷","ALLEY":" ","HOUSE_NO":"２２號","E_COORD97":167311.45000000001,"N_COORD97":2548666.6299999999,"ADDRESS":"大安街４１５巷２２號","OBJECTID":362904},"geometry":{"x":167311.45000000019,"y":2548666.629999999}},{"attributes":{"ID":362915,"DIS_CODE":0,"TOWNNAME":"安南區","LI":"理想里","LIN":"19鄰","STREET":"大安街","SECT":" ","MAREA":" ","LANE":"４１５巷","ALLEY":" ","HOUSE_NO":"２４號","E_COORD97":167308.10000000001,"N_COORD97":2548663.1200000001,"ADDRESS":"大安街４１５巷２４號","OBJECTID":362905},"geometry":{"x":167308.09999999963,"y":2548663.1200000029}},{"attributes":{"ID":362916,"DIS_CODE":0,"TOWNNAME":"安南區","LI":"理想里","LIN":"19鄰","STREET":"大安街","SECT":" ","MAREA":" ","LANE":"４１５巷","ALLEY":" ","HOUSE_NO":"２６號","E_COORD97":167306.76000000001,"N_COORD97":2548659.7200000002,"ADDRESS":"大安街４１５巷２６號","OBJECTID":362906},"geometry":{"x":167306.76000000071,"y":2548659.7200000025}},{"attributes":{"ID":362917,"DIS_CODE":0,"TOWNNAME":"安南區","LI":"理想里","LIN":"19鄰","STREET":"大安街","SECT":" ","MAREA":" ","LANE":"４１５巷","ALLEY":" ","HOUSE_NO":"２８號","E_COORD97":167304.56,"N_COORD97":2548655.9700000002,"ADDRESS":"大安街４１５巷２８號","OBJECTID":362907},"geometry":{"x":167304.56000000052,"y":2548655.9700000007}},{"attributes":{"ID":362918,"DIS_CODE":0,"TOWNNAME":"南區","LI":"大忠里","LIN":"13鄰","STREET":"公英四街","SECT":" ","MAREA":" ","LANE":" ","ALLEY":" ","HOUSE_NO":"１７號","E_COORD97":169351.26999999999,"N_COORD97":2541140.0800000001,"ADDRESS":"公英四街１７號","OBJECTID":362908},"geometry":{"x":169351.26999999955,"y":2541140.0800000019}},{"attributes":{"ID":362919,"DIS_CODE":0,"TOWNNAME":"安平區","LI":"文平里","LIN":"12鄰","STREET":"永華四街","SECT":" ","MAREA":" ","LANE":"１７巷","ALLEY":" ","HOUSE_NO":"３７－１號","E_COORD97":165784.51999999999,"N_COORD97":2543204.2400000002,"ADDRESS":"永華四街１７巷３７－１號","OBJECTID":362909},"geometry":{"x":165784.51999999955,"y":2543204.2400000002}},{"attributes":{"ID":362920,"DIS_CODE":0,"TOWNNAME":"安南區","LI":"理想里","LIN":"19鄰","STREET":"大安街","SECT":" ","MAREA":" ","LANE":"４１５巷","ALLEY":" ","HOUSE_NO":"２之１號","E_COORD97":167331.19,"N_COORD97":2548698.3199999998,"ADDRESS":"大安街４１５巷２之１號","OBJECTID":362910},"geometry":{"x":167331.19000000134,"y":2548698.3200000022}},{"attributes":{"ID":362921,"DIS_CODE":0,"TOWNNAME":"安南區","LI":"理想里","LIN":"19鄰","STREET":"大安街","SECT":" ","MAREA":" ","LANE":"４１５巷","ALLEY":" ","HOUSE_NO":"２號","E_COORD97":167331.5,"N_COORD97":2548702.6800000002,"ADDRESS":"大安街４１５巷２號","OBJECTID":362911},"geometry":{"x":167331.5,"y":2548702.6800000016}},{"attributes":{"ID":362922,"DIS_CODE":0,"TOWNNAME":"安南區","LI":"理想里","LIN":"19鄰","STREET":"大安街","SECT":" ","MAREA":" ","LANE":"４１５巷","ALLEY":" ","HOUSE_NO":"３０號","E_COORD97":167302.22,"N_COORD97":2548652.29,"ADDRESS":"大安街４１５巷３０號","OBJECTID":362912},"geometry":{"x":167302.21999999974,"y":2548652.2899999991}},{"attributes":{"ID":362923,"DIS_CODE":0,"TOWNNAME":"安南區","LI":"理想里","LIN":"19鄰","STREET":"大安街","SECT":" ","MAREA":" ","LANE":"４１５巷","ALLEY":" ","HOUSE_NO":"３２號","E_COORD97":167298.67999999999,"N_COORD97":2548649.6600000001,"ADDRESS":"大安街４１５巷３２號","OBJECTID":362913},"geometry":{"x":167298.68000000063,"y":2548649.6600000001}},{"attributes":{"ID":362924,"DIS_CODE":0,"TOWNNAME":"安南區","LI":"理想里","LIN":"19鄰","STREET":"大安街","SECT":" ","MAREA":" ","LANE":"４１５巷","ALLEY":" ","HOUSE_NO":"６號","E_COORD97":167329.09,"N_COORD97":2548695.8199999998,"ADDRESS":"大安街４１５巷６號","OBJECTID":362914},"geometry":{"x":167329.08999999985,"y":2548695.8200000022}},{"attributes":{"ID":362925,"DIS_CODE":0,"TOWNNAME":"安南區","LI":"理想里","LIN":"19鄰","STREET":"大安街","SECT":" ","MAREA":" ","LANE":"４１５巷","ALLEY":" ","HOUSE_NO":"８號","E_COORD97":167326.32999999999,"N_COORD97":2548691.3399999999,"ADDRESS":"大安街４１５巷８號","OBJECTID":362915},"geometry":{"x":167326.33000000194,"y":2548691.3400000017}},{"attributes":{"ID":362926,"DIS_CODE":0,"TOWNNAME":"安南區","LI":"理想里","LIN":"19鄰","STREET":"大安街","SECT":" ","MAREA":" ","LANE":"４６１巷","ALLEY":" ","HOUSE_NO":"２４號","E_COORD97":167202.79000000001,"N_COORD97":2548785.29,"ADDRESS":"大安街４６１巷２４號","OBJECTID":362916},"geometry":{"x":167202.7900000019,"y":2548785.290000001}},{"attributes":{"ID":362927,"DIS_CODE":0,"TOWNNAME":"安南區","LI":"理想里","LIN":"19鄰","STREET":"大安街","SECT":" ","MAREA":" ","LANE":"４６１巷","ALLEY":" ","HOUSE_NO":"２５號","E_COORD97":167219.85999999999,"N_COORD97":2548740.8399999999,"ADDRESS":"大安街４６１巷２５號","OBJECTID":362917},"geometry":{"x":167219.86000000127,"y":2548740.8399999999}},{"attributes":{"ID":362928,"DIS_CODE":0,"TOWNNAME":"南區","LI":"大忠里","LIN":"13鄰","STREET":"公英四街","SECT":" ","MAREA":" ","LANE":" ","ALLEY":" ","HOUSE_NO":"１８號","E_COORD97":169354.48000000001,"N_COORD97":2541158.9199999999,"ADDRESS":"公英四街１８號","OBJECTID":362918},"geometry":{"x":169354.48000000045,"y":2541158.9199999999}},{"attributes":{"ID":362929,"DIS_CODE":0,"TOWNNAME":"南區","LI":"大忠里","LIN":"13鄰","STREET":"公英四街","SECT":" ","MAREA":" ","LANE":" ","ALLEY":" ","HOUSE_NO":"３１號","E_COORD97":169328.13,"N_COORD97":2541137.5,"ADDRESS":"公英四街３１號","OBJECTID":362919},"geometry":{"x":169328.13000000082,"y":2541137.5}},{"attributes":{"ID":362930,"DIS_CODE":0,"TOWNNAME":"歸仁區","LI":"後市里","LIN":"42鄰","STREET":"中山路","SECT":"二段","MAREA":" ","LANE":"１９８巷","ALLEY":" ","HOUSE_NO":"１１號","E_COORD97":177099.98000000001,"N_COORD97":2540904.7400000002,"ADDRESS":"中山路二段１９８巷１１號","OBJECTID":362920},"geometry":{"x":177099.97999999952,"y":2540904.7400000021}},{"attributes":{"ID":362931,"DIS_CODE":0,"TOWNNAME":"歸仁區","LI":"後市里","LIN":"42鄰","STREET":"中山路","SECT":"二段","MAREA":" ","LANE":"１９８巷","ALLEY":" ","HOUSE_NO":"１號","E_COORD97":177095.53,"N_COORD97":2540880.7400000002,"ADDRESS":"中山路二段１９８巷１號","OBJECTID":362921},"geometry":{"x":177095.53000000026,"y":2540880.7400000021}},{"attributes":{"ID":362932,"DIS_CODE":0,"TOWNNAME":"歸仁區","LI":"後市里","LIN":"42鄰","STREET":"中山路","SECT":"二段","MAREA":" ","LANE":"２１６巷","ALLEY":" ","HOUSE_NO":"１號","E_COORD97":177050.53,"N_COORD97":2540903.7400000002,"ADDRESS":"中山路二段２１６巷１號","OBJECTID":362922},"geometry":{"x":177050.53000000212,"y":2540903.7400000039}},{"attributes":{"ID":362933,"DIS_CODE":0,"TOWNNAME":"永康區","LI":"成功里","LIN":"42鄰","STREET":"中華路","SECT":" ","MAREA":" ","LANE":"１５４巷","ALLEY":" ","HOUSE_NO":"３８號","E_COORD97":171717.60000000001,"N_COORD97":2544885.25,"ADDRESS":"中華路１５４巷３８號","OBJECTID":362923},"geometry":{"x":171717.59999999963,"y":2544885.2500000019}},{"attributes":{"ID":362934,"DIS_CODE":0,"TOWNNAME":"永康區","LI":"成功里","LIN":"42鄰","STREET":"中華路","SECT":" ","MAREA":" ","LANE":"１５４巷","ALLEY":" ","HOUSE_NO":"５２號","E_COORD97":171741.89999999999,"N_COORD97":2544882.25,"ADDRESS":"中華路１５４巷５２號","OBJECTID":362924},"geometry":{"x":171741.90000000037,"y":2544882.25}},{"attributes":{"ID":362935,"DIS_CODE":0,"TOWNNAME":"永康區","LI":"西灣里","LIN":"42鄰","STREET":"大灣路","SECT":" ","MAREA":" ","LANE":"９４２巷","ALLEY":" ","HOUSE_NO":"４７１號","E_COORD97":173941.70000000001,"N_COORD97":2545426.9900000002,"ADDRESS":"大灣路９４２巷４７１號","OBJECTID":362925},"geometry":{"x":173941.70000000019,"y":2545426.9900000002}},{"attributes":{"ID":362936,"DIS_CODE":0,"TOWNNAME":"安南區","LI":"理想里","LIN":"19鄰","STREET":"大安街","SECT":" ","MAREA":" ","LANE":"４６１巷","ALLEY":" ","HOUSE_NO":"２６號","E_COORD97":167201.75,"N_COORD97":2548780.4500000002,"ADDRESS":"大安街４６１巷２６號","OBJECTID":362926},"geometry":{"x":167201.75000000093,"y":2548780.450000003}},{"attributes":{"ID":362937,"DIS_CODE":0,"TOWNNAME":"安南區","LI":"理想里","LIN":"19鄰","STREET":"大安街","SECT":" ","MAREA":" ","LANE":"４６１巷","ALLEY":" ","HOUSE_NO":"２７號","E_COORD97":167219.35999999999,"N_COORD97":2548735.8399999999,"ADDRESS":"大安街４６１巷２７號","OBJECTID":362927},"geometry":{"x":167219.36000000034,"y":2548735.8400000017}},{"attributes":{"ID":362938,"DIS_CODE":0,"TOWNNAME":"安南區","LI":"理想里","LIN":"19鄰","STREET":"大安街","SECT":" ","MAREA":" ","LANE":"４６１巷","ALLEY":" ","HOUSE_NO":"２８號","E_COORD97":167198.10999999999,"N_COORD97":2548777.5099999998,"ADDRESS":"大安街４６１巷２８號","OBJECTID":362928},"geometry":{"x":167198.11000000127,"y":2548777.5100000035}},{"attributes":{"ID":362939,"DIS_CODE":0,"TOWNNAME":"安南區","LI":"理想里","LIN":"19鄰","STREET":"大安街","SECT":" ","MAREA":" ","LANE":"４６１巷","ALLEY":" ","HOUSE_NO":"２９號","E_COORD97":167217.35999999999,"N_COORD97":2548731.3500000001,"ADDRESS":"大安街４６１巷２９號","OBJECTID":362929},"geometry":{"x":167217.36000000034,"y":2548731.3500000015}},{"attributes":{"ID":362940,"DIS_CODE":0,"TOWNNAME":"安南區","LI":"理想里","LIN":"19鄰","STREET":"大安街","SECT":" ","MAREA":" ","LANE":"４６１巷","ALLEY":" ","HOUSE_NO":"３０號","E_COORD97":167196.89999999999,"N_COORD97":2548773.3599999999,"ADDRESS":"大安街４６１巷３０號","OBJECTID":362930},"geometry":{"x":167196.90000000037,"y":2548773.3599999994}},{"attributes":{"ID":362941,"DIS_CODE":0,"TOWNNAME":"安南區","LI":"理想里","LIN":"19鄰","STREET":"大安街","SECT":" ","MAREA":" ","LANE":"４６１巷","ALLEY":" ","HOUSE_NO":"３１號","E_COORD97":167215.37,"N_COORD97":2548727.6899999999,"ADDRESS":"大安街４６１巷３１號","OBJECTID":362931},"geometry":{"x":167215.37000000011,"y":2548727.6899999995}},{"attributes":{"ID":362942,"DIS_CODE":0,"TOWNNAME":"安南區","LI":"理想里","LIN":"19鄰","STREET":"大安街","SECT":" ","MAREA":" ","LANE":"４６１巷","ALLEY":" ","HOUSE_NO":"３２號","E_COORD97":167195.34,"N_COORD97":2548770.25,"ADDRESS":"大安街４６１巷３２號","OBJECTID":362932},"geometry":{"x":167195.33999999892,"y":2548770.2500000019}},{"attributes":{"ID":362943,"DIS_CODE":0,"TOWNNAME":"安南區","LI":"理想里","LIN":"19鄰","STREET":"大安街","SECT":" ","MAREA":" ","LANE":"４６１巷","ALLEY":" ","HOUSE_NO":"３３號","E_COORD97":167214.20000000001,"N_COORD97":2548723.6899999999,"ADDRESS":"大安街４６１巷３３號","OBJECTID":362933},"geometry":{"x":167214.20000000112,"y":2548723.6899999995}},{"attributes":{"ID":362944,"DIS_CODE":0,"TOWNNAME":"安南區","LI":"理想里","LIN":"19鄰","STREET":"大安街","SECT":" ","MAREA":" ","LANE":"４６１巷","ALLEY":" ","HOUSE_NO":"３４號","E_COORD97":167193.26999999999,"N_COORD97":2548765.0600000001,"ADDRESS":"大安街４６１巷３４號","OBJECTID":362934},"geometry":{"x":167193.26999999955,"y":2548765.0600000024}},{"attributes":{"ID":362945,"DIS_CODE":0,"TOWNNAME":"安南區","LI":"理想里","LIN":"19鄰","STREET":"大安街","SECT":" ","MAREA":" ","LANE":"４６１巷","ALLEY":" ","HOUSE_NO":"３５號","E_COORD97":167212.20000000001,"N_COORD97":2548718.6899999999,"ADDRESS":"大安街４６１巷３５號","OBJECTID":362935},"geometry":{"x":167212.20000000112,"y":2548718.6900000013}},{"attributes":{"ID":362946,"DIS_CODE":0,"TOWNNAME":"安南區","LI":"理想里","LIN":"19鄰","STREET":"大安街","SECT":" ","MAREA":" ","LANE":"４６１巷","ALLEY":" ","HOUSE_NO":"３６號","E_COORD97":167190.67000000001,"N_COORD97":2548762.8100000001,"ADDRESS":"大安街４６１巷３６號","OBJECTID":362936},"geometry":{"x":167190.67000000086,"y":2548762.8100000024}},{"attributes":{"ID":362947,"DIS_CODE":0,"TOWNNAME":"安南區","LI":"溪心里","LIN":"19鄰","STREET":"海中街","SECT":" ","MAREA":" ","LANE":"７７４巷","ALLEY":" ","HOUSE_NO":"１０號","E_COORD97":165891.95999999999,"N_COORD97":2549888.8500000001,"ADDRESS":"海中街７７４巷１０號","OBJECTID":362937},"geometry":{"x":165891.96000000089,"y":2549888.8499999996}},{"attributes":{"ID":362948,"DIS_CODE":0,"TOWNNAME":"安南區","LI":"溪心里","LIN":"19鄰","STREET":"海中街","SECT":" ","MAREA":" ","LANE":"７７４巷","ALLEY":" ","HOUSE_NO":"１２號","E_COORD97":165895.85000000001,"N_COORD97":2549887.5899999999,"ADDRESS":"海中街７７４巷１２號","OBJECTID":362938},"geometry":{"x":165895.84999999963,"y":2549887.5899999999}},{"attributes":{"ID":362949,"DIS_CODE":0,"TOWNNAME":"安南區","LI":"溪心里","LIN":"19鄰","STREET":"海中街","SECT":" ","MAREA":" ","LANE":"７７４巷","ALLEY":" ","HOUSE_NO":"１４號","E_COORD97":165900.37,"N_COORD97":2549887.4700000002,"ADDRESS":"海中街７７４巷１４號","OBJECTID":362939},"geometry":{"x":165900.37000000197,"y":2549887.4700000025}},{"attributes":{"ID":362950,"DIS_CODE":0,"TOWNNAME":"南區","LI":"大忠里","LIN":"13鄰","STREET":"公英四街","SECT":" ","MAREA":" ","LANE":" ","ALLEY":" ","HOUSE_NO":"３２號","E_COORD97":169321.81,"N_COORD97":2541154.29,"ADDRESS":"公英四街３２號","OBJECTID":362940},"geometry":{"x":169321.81000000052,"y":2541154.290000001}},{"attributes":{"ID":362951,"DIS_CODE":0,"TOWNNAME":"南區","LI":"大忠里","LIN":"13鄰","STREET":"公英四街","SECT":" ","MAREA":" ","LANE":" ","ALLEY":" ","HOUSE_NO":"３３號","E_COORD97":169324.76999999999,"N_COORD97":2541137.2000000002,"ADDRESS":"公英四街３３號","OBJECTID":362941},"geometry":{"x":169324.77000000142,"y":2541137.2000000011}},{"attributes":{"ID":362952,"DIS_CODE":0,"TOWNNAME":"南區","LI":"大忠里","LIN":"13鄰","STREET":"公英四街","SECT":" ","MAREA":" ","LANE":" ","ALLEY":" ","HOUSE_NO":"３４號","E_COORD97":169318.13,"N_COORD97":2541153.6499999999,"ADDRESS":"公英四街３４號","OBJECTID":362942},"geometry":{"x":169318.13000000082,"y":2541153.6500000022}},{"attributes":{"ID":362953,"DIS_CODE":0,"TOWNNAME":"南區","LI":"大忠里","LIN":"13鄰","STREET":"公英四街","SECT":" ","MAREA":" ","LANE":" ","ALLEY":" ","HOUSE_NO":"３５號","E_COORD97":169321.12,"N_COORD97":2541136.1299999999,"ADDRESS":"公英四街３５號","OBJECTID":362943},"geometry":{"x":169321.12000000011,"y":2541136.129999999}},{"attributes":{"ID":362954,"DIS_CODE":0,"TOWNNAME":"南區","LI":"大忠里","LIN":"13鄰","STREET":"公英四街","SECT":" ","MAREA":" ","LANE":" ","ALLEY":" ","HOUSE_NO":"３６號","E_COORD97":169314.44,"N_COORD97":2541152.8500000001,"ADDRESS":"公英四街３６號","OBJECTID":362944},"geometry":{"x":169314.44000000227,"y":2541152.8499999996}},{"attributes":{"ID":362955,"DIS_CODE":0,"TOWNNAME":"南區","LI":"大忠里","LIN":"13鄰","STREET":"公英四街","SECT":" ","MAREA":" ","LANE":" ","ALLEY":" ","HOUSE_NO":"３７號","E_COORD97":169317.76999999999,"N_COORD97":2541135.2200000002,"ADDRESS":"公英四街３７號","OBJECTID":362945},"geometry":{"x":169317.76999999955,"y":2541135.2200000025}},{"attributes":{"ID":362956,"DIS_CODE":0,"TOWNNAME":"南區","LI":"大忠里","LIN":"13鄰","STREET":"公英四街","SECT":" ","MAREA":" ","LANE":" ","ALLEY":" ","HOUSE_NO":"３８號","E_COORD97":169310.92000000001,"N_COORD97":2541152.21,"ADDRESS":"公英四街３８號","OBJECTID":362946},"geometry":{"x":169310.92000000086,"y":2541152.2100000046}},{"attributes":{"ID":362957,"DIS_CODE":0,"TOWNNAME":"仁德區","LI":"太子里","LIN":"42鄰","STREET":"太子路","SECT":" ","MAREA":" ","LANE":"２８巷","ALLEY":" ","HOUSE_NO":"２３號","E_COORD97":175302.29000000001,"N_COORD97":2543670.5,"ADDRESS":"太子路２８巷２３號","OBJECTID":362947},"geometry":{"x":175302.2900000019,"y":2543670.5}},{"attributes":{"ID":362958,"DIS_CODE":0,"TOWNNAME":"永康區","LI":"西灣里","LIN":"42鄰","STREET":"大灣路","SECT":" ","MAREA":" ","LANE":"９４２巷","ALLEY":" ","HOUSE_NO":"５１３號","E_COORD97":173972.07999999999,"N_COORD97":2545509.7999999998,"ADDRESS":"大灣路９４２巷５１３號","OBJECTID":362948},"geometry":{"x":173972.08000000101,"y":2545509.8000000007}},{"attributes":{"ID":362959,"DIS_CODE":0,"TOWNNAME":"永康區","LI":"西灣里","LIN":"42鄰","STREET":"大灣路","SECT":" ","MAREA":" ","LANE":"９４２巷","ALLEY":" ","HOUSE_NO":"４８５號","E_COORD97":173950.94,"N_COORD97":2545454.2400000002,"ADDRESS":"大灣路９４２巷４８５號","OBJECTID":362949},"geometry":{"x":173950.94000000134,"y":2545454.2400000021}},{"attributes":{"ID":362960,"DIS_CODE":0,"TOWNNAME":"永康區","LI":"西灣里","LIN":"42鄰","STREET":"大灣路","SECT":" ","MAREA":" ","LANE":"９４２巷","ALLEY":" ","HOUSE_NO":"４７７號","E_COORD97":173945.94,"N_COORD97":2545438.4900000002,"ADDRESS":"大灣路９４２巷４７７號","OBJECTID":362950},"geometry":{"x":173945.94000000134,"y":2545438.4900000039}},{"attributes":{"ID":362961,"DIS_CODE":0,"TOWNNAME":"永康區","LI":"龍潭里","LIN":"42鄰","STREET":"永平街","SECT":" ","MAREA":" ","LANE":"７５９巷","ALLEY":" ","HOUSE_NO":"３６號","E_COORD97":174592.47,"N_COORD97":2547067.0800000001,"ADDRESS":"永平街７５９巷３６號","OBJECTID":362951},"geometry":{"x":174592.47000000067,"y":2547067.0800000001}},{"attributes":{"ID":362962,"DIS_CODE":0,"TOWNNAME":"永康區","LI":"崑山里","LIN":"42鄰","STREET":"大仁街","SECT":" ","MAREA":" ","LANE":"２１７巷","ALLEY":" ","HOUSE_NO":"５號","E_COORD97":173916.98999999999,"N_COORD97":2545097.75,"ADDRESS":"大仁街２１７巷５號","OBJECTID":362952},"geometry":{"x":173916.99000000115,"y":2545097.7500000019}},{"attributes":{"ID":362963,"DIS_CODE":0,"TOWNNAME":"永康區","LI":"正強里","LIN":"42鄰","STREET":"中正路","SECT":" ","MAREA":" ","LANE":"２５６巷","ALLEY":" ","HOUSE_NO":"１號之２３","E_COORD97":173178.16,"N_COORD97":2547946.8999999999,"ADDRESS":"中正路２５６巷１號之２３","OBJECTID":362953},"geometry":{"x":173178.16000000108,"y":2547946.9000000004}},{"attributes":{"ID":362964,"DIS_CODE":0,"TOWNNAME":"永康區","LI":"西灣里","LIN":"42鄰","STREET":"大灣路","SECT":" ","MAREA":" ","LANE":"９４２巷","ALLEY":" ","HOUSE_NO":"４５３號","E_COORD97":173929.88,"N_COORD97":2545391.75,"ADDRESS":"大灣路９４２巷４５３號","OBJECTID":362954},"geometry":{"x":173929.87999999989,"y":2545391.75}},{"attributes":{"ID":362965,"DIS_CODE":0,"TOWNNAME":"安南區","LI":"溪心里","LIN":"19鄰","STREET":"海中街","SECT":" ","MAREA":" ","LANE":"７７４巷","ALLEY":" ","HOUSE_NO":"１６號","E_COORD97":165905.14000000001,"N_COORD97":2549886.8399999999,"ADDRESS":"海中街７７４巷１６號","OBJECTID":362955},"geometry":{"x":165905.1400000006,"y":2549886.8399999999}},{"attributes":{"ID":362966,"DIS_CODE":0,"TOWNNAME":"安南區","LI":"溪心里","LIN":"19鄰","STREET":"海中街","SECT":" ","MAREA":" ","LANE":"７７４巷","ALLEY":" ","HOUSE_NO":"１８號","E_COORD97":165909.66,"N_COORD97":2549885.3300000001,"ADDRESS":"海中街７７４巷１８號","OBJECTID":362956},"geometry":{"x":165909.66000000015,"y":2549885.3300000019}},{"attributes":{"ID":362967,"DIS_CODE":0,"TOWNNAME":"安南區","LI":"溪心里","LIN":"19鄰","STREET":"海中街","SECT":" ","MAREA":" ","LANE":"７７４巷","ALLEY":" ","HOUSE_NO":"２０號","E_COORD97":165912.79999999999,"N_COORD97":2549883.8300000001,"ADDRESS":"海中街７７４巷２０號","OBJECTID":362957},"geometry":{"x":165912.80000000075,"y":2549883.8299999982}},{"attributes":{"ID":362968,"DIS_CODE":0,"TOWNNAME":"安南區","LI":"溪心里","LIN":"19鄰","STREET":"海中街","SECT":" ","MAREA":" ","LANE":"７７４巷","ALLEY":" ","HOUSE_NO":"２１號","E_COORD97":165956.85999999999,"N_COORD97":2549914.6899999999,"ADDRESS":"海中街７７４巷２１號","OBJECTID":362958},"geometry":{"x":165956.86000000127,"y":2549914.6899999976}},{"attributes":{"ID":362969,"DIS_CODE":0,"TOWNNAME":"安南區","LI":"溪心里","LIN":"19鄰","STREET":"海中街","SECT":" ","MAREA":" ","LANE":"７７４巷","ALLEY":" ","HOUSE_NO":"２３號","E_COORD97":165961.5,"N_COORD97":2549913.21,"ADDRESS":"海中街７７４巷２３號","OBJECTID":362959},"geometry":{"x":165961.5,"y":2549913.2100000028}},{"attributes":{"ID":362970,"DIS_CODE":0,"TOWNNAME":"安南區","LI":"溪心里","LIN":"19鄰","STREET":"海中街","SECT":" ","MAREA":" ","LANE":"７７４巷","ALLEY":" ","HOUSE_NO":"２５號","E_COORD97":165965.51000000001,"N_COORD97":2549911.6299999999,"ADDRESS":"海中街７７４巷２５號","OBJECTID":362960},"geometry":{"x":165965.51000000071,"y":2549911.6300000008}},{"attributes":{"ID":362971,"DIS_CODE":0,"TOWNNAME":"安南區","LI":"溪心里","LIN":"19鄰","STREET":"海中街","SECT":" ","MAREA":" ","LANE":"７７４巷","ALLEY":" ","HOUSE_NO":"２７號","E_COORD97":165970.35999999999,"N_COORD97":2549913.4199999999,"ADDRESS":"海中街７７４巷２７號","OBJECTID":362961},"geometry":{"x":165970.36000000127,"y":2549913.4199999999}},{"attributes":{"ID":362972,"DIS_CODE":0,"TOWNNAME":"安南區","LI":"溪心里","LIN":"19鄰","STREET":"海中街","SECT":" ","MAREA":" ","LANE":"７７４巷","ALLEY":" ","HOUSE_NO":"２９號","E_COORD97":165973.95000000001,"N_COORD97":2549908.6800000002,"ADDRESS":"海中街７７４巷２９號","OBJECTID":362962},"geometry":{"x":165973.95000000019,"y":2549908.6800000034}},{"attributes":{"ID":362973,"DIS_CODE":0,"TOWNNAME":"安南區","LI":"溪心里","LIN":"19鄰","STREET":"海中街","SECT":" ","MAREA":" ","LANE":"７７４巷","ALLEY":" ","HOUSE_NO":"２號","E_COORD97":165904.51000000001,"N_COORD97":2549901.0099999998,"ADDRESS":"海中街７７４巷２號","OBJECTID":362963},"geometry":{"x":165904.51000000071,"y":2549901.0100000016}},{"attributes":{"ID":362974,"DIS_CODE":0,"TOWNNAME":"安南區","LI":"溪心里","LIN":"19鄰","STREET":"海中街","SECT":" ","MAREA":" ","LANE":"７７４巷","ALLEY":" ","HOUSE_NO":"２號之１","E_COORD97":165908.64999999999,"N_COORD97":2549899.3799999999,"ADDRESS":"海中街７７４巷２號之１","OBJECTID":362964},"geometry":{"x":165908.65000000037,"y":2549899.3800000027}},{"attributes":{"ID":362975,"DIS_CODE":0,"TOWNNAME":"安南區","LI":"溪心里","LIN":"19鄰","STREET":"海中街","SECT":" ","MAREA":" ","LANE":"７７４巷","ALLEY":" ","HOUSE_NO":"３０號","E_COORD97":165938.41,"N_COORD97":2549890.8300000001,"ADDRESS":"海中街７７４巷３０號","OBJECTID":362965},"geometry":{"x":165938.41000000015,"y":2549890.8300000038}},{"attributes":{"ID":362976,"DIS_CODE":0,"TOWNNAME":"南區","LI":"大忠里","LIN":"13鄰","STREET":"公英四街","SECT":" ","MAREA":" ","LANE":" ","ALLEY":" ","HOUSE_NO":"３９號","E_COORD97":169314.10999999999,"N_COORD97":2541134.6099999999,"ADDRESS":"公英四街３９號","OBJECTID":362966},"geometry":{"x":169314.11000000034,"y":2541134.6100000013}},{"attributes":{"ID":362977,"DIS_CODE":0,"TOWNNAME":"南區","LI":"大忠里","LIN":"13鄰","STREET":"公英四街","SECT":" ","MAREA":" ","LANE":" ","ALLEY":" ","HOUSE_NO":"６號","E_COORD97":169381.22,"N_COORD97":2541163.0699999998,"ADDRESS":"公英四街６號","OBJECTID":362967},"geometry":{"x":169381.2200000016,"y":2541163.0700000022}},{"attributes":{"ID":362978,"DIS_CODE":0,"TOWNNAME":"南區","LI":"大忠里","LIN":"13鄰","STREET":"公英四街","SECT":" ","MAREA":" ","LANE":" ","ALLEY":" ","HOUSE_NO":"７號","E_COORD97":169376.81,"N_COORD97":2541144.8500000001,"ADDRESS":"公英四街７號","OBJECTID":362968},"geometry":{"x":169376.80999999959,"y":2541144.8499999996}},{"attributes":{"ID":362979,"DIS_CODE":0,"TOWNNAME":"南區","LI":"大忠里","LIN":"13鄰","STREET":"公英四街","SECT":" ","MAREA":" ","LANE":" ","ALLEY":" ","HOUSE_NO":"８號","E_COORD97":169377.85999999999,"N_COORD97":2541162.5899999999,"ADDRESS":"公英四街８號","OBJECTID":362969},"geometry":{"x":169377.86000000127,"y":2541162.5900000017}},{"attributes":{"ID":362980,"DIS_CODE":0,"TOWNNAME":"歸仁區","LI":"看西里","LIN":"13鄰","STREET":"仁愛南街","SECT":" ","MAREA":" ","LANE":" ","ALLEY":" ","HOUSE_NO":"２３７號","E_COORD97":178275.76000000001,"N_COORD97":2540149.1200000001,"ADDRESS":"仁愛南街２３７號","OBJECTID":362970},"geometry":{"x":178275.76000000164,"y":2540149.1199999992}},{"attributes":{"ID":362981,"DIS_CODE":0,"TOWNNAME":"歸仁區","LI":"辜厝里","LIN":"13鄰","STREET":"大順街","SECT":" ","MAREA":" ","LANE":" ","ALLEY":" ","HOUSE_NO":"８號","E_COORD97":177503.32000000001,"N_COORD97":2540528.5899999999,"ADDRESS":"大順街８號","OBJECTID":362971},"geometry":{"x":177503.32000000123,"y":2540528.5900000017}},{"attributes":{"ID":362982,"DIS_CODE":0,"TOWNNAME":"歸仁區","LI":"後市里","LIN":"13鄰","STREET":"中山路","SECT":"二段","MAREA":" ","LANE":" ","ALLEY":" ","HOUSE_NO":"２３７號","E_COORD97":177054.59,"N_COORD97":2540832.25,"ADDRESS":"中山路二段２３７號","OBJECTID":362972},"geometry":{"x":177054.59000000171,"y":2540832.2500000037}},{"attributes":{"ID":362983,"DIS_CODE":0,"TOWNNAME":"歸仁區","LI":"辜厝里","LIN":"13鄰","STREET":"中正南路","SECT":"一段","MAREA":" ","LANE":" ","ALLEY":" ","HOUSE_NO":"１０２號","E_COORD97":177531.25,"N_COORD97":2540522.5899999999,"ADDRESS":"中正南路一段１０２號","OBJECTID":362973},"geometry":{"x":177531.25,"y":2540522.5900000017}},{"attributes":{"ID":362984,"DIS_CODE":0,"TOWNNAME":"仁德區","LI":"仁義里","LIN":"42鄰","STREET":"中正路","SECT":"二段","MAREA":" ","LANE":"９９４巷","ALLEY":" ","HOUSE_NO":"１３２號","E_COORD97":173658.51000000001,"N_COORD97":2540794.3300000001,"ADDRESS":"中正路二段９９４巷１３２號","OBJECTID":362974},"geometry":{"x":173658.51000000071,"y":2540794.3300000038}},{"attributes":{"ID":362985,"DIS_CODE":0,"TOWNNAME":"仁德區","LI":"仁義里","LIN":"42鄰","STREET":"中正路","SECT":"二段","MAREA":" ","LANE":"９９４巷","ALLEY":" ","HOUSE_NO":"６６號","E_COORD97":173574.5,"N_COORD97":2540767.8999999999,"ADDRESS":"中正路二段９９４巷６６號","OBJECTID":362975},"geometry":{"x":173574.5,"y":2540767.9000000022}},{"attributes":{"ID":362986,"DIS_CODE":0,"TOWNNAME":"仁德區","LI":"仁義里","LIN":"42鄰","STREET":"中正路","SECT":"二段","MAREA":" ","LANE":"９９４巷","ALLEY":" ","HOUSE_NO":"１００號","E_COORD97":173625.16,"N_COORD97":2540786.27,"ADDRESS":"中正路二段９９４巷１００號","OBJECTID":362976},"geometry":{"x":173625.16000000201,"y":2540786.2699999996}},{"attributes":{"ID":362987,"DIS_CODE":0,"TOWNNAME":"仁德區","LI":"仁義里","LIN":"42鄰","STREET":"中正路","SECT":"二段","MAREA":" ","LANE":"９９４巷","ALLEY":" ","HOUSE_NO":"１２２號","E_COORD97":173659.92999999999,"N_COORD97":2540775.8300000001,"ADDRESS":"中正路二段９９４巷１２２號","OBJECTID":362977},"geometry":{"x":173659.9299999997,"y":2540775.8300000001}},{"attributes":{"ID":362988,"DIS_CODE":0,"TOWNNAME":"永康區","LI":"西灣里","LIN":"42鄰","STREET":"大灣路","SECT":" ","MAREA":" ","LANE":"９４２巷","ALLEY":" ","HOUSE_NO":"４５７號","E_COORD97":173932.54000000001,"N_COORD97":2545399.5,"ADDRESS":"大灣路９４２巷４５７號","OBJECTID":362978},"geometry":{"x":173932.53999999911,"y":2545399.5}},{"attributes":{"ID":362989,"DIS_CODE":0,"TOWNNAME":"永康區","LI":"西灣里","LIN":"42鄰","STREET":"大灣路","SECT":" ","MAREA":" ","LANE":"９４２巷","ALLEY":" ","HOUSE_NO":"３７２號","E_COORD97":173949.98999999999,"N_COORD97":2545410.25,"ADDRESS":"大灣路９４２巷３７２號","OBJECTID":362979},"geometry":{"x":173949.99000000022,"y":2545410.2500000019}},{"attributes":{"ID":362990,"DIS_CODE":0,"TOWNNAME":"永康區","LI":"\u25A0行里","LIN":"42鄰","STREET":"永安二街","SECT":" ","MAREA":" ","LANE":"２５巷","ALLEY":" ","HOUSE_NO":"２６號","E_COORD97":172426.51999999999,"N_COORD97":2549525.0499999998,"ADDRESS":"永安二街２５巷２６號","OBJECTID":362980},"geometry":{"x":172426.51999999955,"y":2549525.0500000026}},{"attributes":{"ID":362991,"DIS_CODE":0,"TOWNNAME":"永康區","LI":"龍潭里","LIN":"42鄰","STREET":"永明街","SECT":" ","MAREA":" ","LANE":"３０２巷","ALLEY":" ","HOUSE_NO":"４８號","E_COORD97":174533.16,"N_COORD97":2547060.9500000002,"ADDRESS":"永明街３０２巷４８號","OBJECTID":362981},"geometry":{"x":174533.16000000015,"y":2547060.9499999993}},{"attributes":{"ID":362992,"DIS_CODE":0,"TOWNNAME":"永康區","LI":"\u25A0行里","LIN":"42鄰","STREET":"永安二街","SECT":" ","MAREA":" ","LANE":"２５巷","ALLEY":" ","HOUSE_NO":"２號","E_COORD97":172424.57000000001,"N_COORD97":2549577.0600000001,"ADDRESS":"永安二街２５巷２號","OBJECTID":362982},"geometry":{"x":172424.57000000123,"y":2549577.0600000005}},{"attributes":{"ID":362993,"DIS_CODE":0,"TOWNNAME":"安南區","LI":"溪心里","LIN":"19鄰","STREET":"海中街","SECT":" ","MAREA":" ","LANE":"７７４巷","ALLEY":" ","HOUSE_NO":"３２號","E_COORD97":165942.54999999999,"N_COORD97":2549889.3300000001,"ADDRESS":"海中街７７４巷３２號","OBJECTID":362983},"geometry":{"x":165942.54999999981,"y":2549889.3300000001}},{"attributes":{"ID":362994,"DIS_CODE":0,"TOWNNAME":"安南區","LI":"溪心里","LIN":"19鄰","STREET":"海中街","SECT":" ","MAREA":" ","LANE":"７７４巷","ALLEY":" ","HOUSE_NO":"６號","E_COORD97":165913.67999999999,"N_COORD97":2549899.3799999999,"ADDRESS":"海中街７７４巷６號","OBJECTID":362984},"geometry":{"x":165913.68000000063,"y":2549899.3800000027}},{"attributes":{"ID":362995,"DIS_CODE":0,"TOWNNAME":"安南區","LI":"溪心里","LIN":"19鄰","STREET":"海中街","SECT":" ","MAREA":" ","LANE":"７７４巷","ALLEY":" ","HOUSE_NO":"７０號","E_COORD97":166036.32999999999,"N_COORD97":2549869.9399999999,"ADDRESS":"海中街７７４巷７０號","OBJECTID":362985},"geometry":{"x":166036.33000000194,"y":2549869.9400000013}},{"attributes":{"ID":362996,"DIS_CODE":0,"TOWNNAME":"安南區","LI":"溪心里","LIN":"19鄰","STREET":"海中街","SECT":" ","MAREA":" ","LANE":"７７４巷","ALLEY":" ","HOUSE_NO":"７２號","E_COORD97":166040.45999999999,"N_COORD97":2549868.21,"ADDRESS":"海中街７７４巷７２號","OBJECTID":362986},"geometry":{"x":166040.46000000089,"y":2549868.2100000009}},{"attributes":{"ID":362997,"DIS_CODE":0,"TOWNNAME":"歸仁區","LI":"後市里","LIN":"13鄰","STREET":"中山路","SECT":"二段","MAREA":" ","LANE":" ","ALLEY":" ","HOUSE_NO":"２５１號","E_COORD97":177025.89000000001,"N_COORD97":2540835.25,"ADDRESS":"中山路二段２５１號","OBJECTID":362987},"geometry":{"x":177025.8900000006,"y":2540835.25}},{"attributes":{"ID":362998,"DIS_CODE":0,"TOWNNAME":"歸仁區","LI":"看西里","LIN":"13鄰","STREET":"仁愛南街","SECT":" ","MAREA":" ","LANE":" ","ALLEY":" ","HOUSE_NO":"２６７號","E_COORD97":178273.45999999999,"N_COORD97":2540108.1200000001,"ADDRESS":"仁愛南街２６７號","OBJECTID":362988},"geometry":{"x":178273.46000000089,"y":2540108.120000001}},{"attributes":{"ID":362999,"DIS_CODE":0,"TOWNNAME":"歸仁區","LI":"辜厝里","LIN":"13鄰","STREET":"大順二街","SECT":" ","MAREA":" ","LANE":" ","ALLEY":" ","HOUSE_NO":"２０號","E_COORD97":177504.12,"N_COORD97":2540581.5899999999,"ADDRESS":"大順二街２０號","OBJECTID":362989},"geometry":{"x":177504.12000000104,"y":2540581.5899999999}},{"attributes":{"ID":363000,"DIS_CODE":0,"TOWNNAME":"歸仁區","LI":"看西里","LIN":"13鄰","STREET":"仁愛南街","SECT":" ","MAREA":" ","LANE":" ","ALLEY":" ","HOUSE_NO":"２６５號","E_COORD97":178285.76000000001,"N_COORD97":2540106.1200000001,"ADDRESS":"仁愛南街２６５號","OBJECTID":362990},"geometry":{"x":178285.76000000164,"y":2540106.1200000029}},{"attributes":{"ID":363001,"DIS_CODE":0,"TOWNNAME":"新營區","LI":"民榮里","LIN":"13鄰","STREET":"新進路","SECT":"二段","MAREA":" ","LANE":" ","ALLEY":" ","HOUSE_NO":"１７９號","E_COORD97":179248.29000000001,"N_COORD97":2577720.23,"ADDRESS":"新進路二段１７９號","OBJECTID":362991},"geometry":{"x":179248.29000000004,"y":2577720.2300000042}},{"attributes":{"ID":363002,"DIS_CODE":0,"TOWNNAME":"新營區","LI":"民榮里","LIN":"13鄰","STREET":"新進路","SECT":"二段","MAREA":" ","LANE":" ","ALLEY":" ","HOUSE_NO":"２０１號","E_COORD97":179153.25,"N_COORD97":2577724.0099999998,"ADDRESS":"新進路二段２０１號","OBJECTID":362992},"geometry":{"x":179153.25,"y":2577724.0099999998}},{"attributes":{"ID":363003,"DIS_CODE":0,"TOWNNAME":"新營區","LI":"延平里","LIN":"13鄰","STREET":"中原街","SECT":" ","MAREA":" ","LANE":" ","ALLEY":" ","HOUSE_NO":"７號","E_COORD97":179550.64952499999,"N_COORD97":2577988.2731400002,"ADDRESS":"中原街７號","OBJECTID":362993},"geometry":{"x":179550.64952499978,"y":2577988.2731430009}},{"attributes":{"ID":363004,"DIS_CODE":0,"TOWNNAME":"新營區","LI":"三仙里","LIN":"13鄰","STREET":"正義街","SECT":" ","MAREA":" ","LANE":" ","ALLEY":" ","HOUSE_NO":"６９號","E_COORD97":179624.07000000001,"N_COORD97":2578275.48,"ADDRESS":"正義街６９號","OBJECTID":362994},"geometry":{"x":179624.07000000123,"y":2578275.4800000023}},{"attributes":{"ID":363005,"DIS_CODE":0,"TOWNNAME":"新營區","LI":"民生里","LIN":"13鄰","STREET":"復興路","SECT":" ","MAREA":" ","LANE":" ","ALLEY":" ","HOUSE_NO":"２６４號","E_COORD97":178800.22,"N_COORD97":2578124.3900000001,"ADDRESS":"復興路２６４號","OBJECTID":362995},"geometry":{"x":178800.22000000067,"y":2578124.3900000006}},{"attributes":{"ID":363006,"DIS_CODE":0,"TOWNNAME":"新營區","LI":"新北里","LIN":"13鄰","STREET":"周武街","SECT":" ","MAREA":" ","LANE":" ","ALLEY":" ","HOUSE_NO":"１０５號","E_COORD97":179343.94,"N_COORD97":2579040.1200000001,"ADDRESS":"周武街１０５號","OBJECTID":362996},"geometry":{"x":179343.94000000041,"y":2579040.1199999992}},{"attributes":{"ID":363007,"DIS_CODE":0,"TOWNNAME":"新營區","LI":"新北里","LIN":"13鄰","STREET":"周武街","SECT":" ","MAREA":" ","LANE":" ","ALLEY":" ","HOUSE_NO":"８７號","E_COORD97":179363.20999999999,"N_COORD97":2578992.48,"ADDRESS":"周武街８７號","OBJECTID":362997},"geometry":{"x":179363.21000000089,"y":2578992.4800000004}},{"attributes":{"ID":363008,"DIS_CODE":0,"TOWNNAME":"永康區","LI":"龍潭里","LIN":"42鄰","STREET":"國民路","SECT":" ","MAREA":" ","LANE":"２０１巷","ALLEY":" ","HOUSE_NO":"１６號","E_COORD97":174523.76000000001,"N_COORD97":2547081.98,"ADDRESS":"國民路２０１巷１６號","OBJECTID":362998},"geometry":{"x":174523.75999999978,"y":2547081.9800000004}},{"attributes":{"ID":363009,"DIS_CODE":0,"TOWNNAME":"永康區","LI":"\u25A0行里","LIN":"42鄰","STREET":"永安二街","SECT":" ","MAREA":" ","LANE":"２５巷","ALLEY":" ","HOUSE_NO":"２８號","E_COORD97":172426.60999999999,"N_COORD97":2549519.2999999998,"ADDRESS":"永安二街２５巷２８號","OBJECTID":362999},"geometry":{"x":172426.61000000034,"y":2549519.3000000026}},{"attributes":{"ID":363010,"DIS_CODE":0,"TOWNNAME":"永康區","LI":"\u25A0行里","LIN":"42鄰","STREET":"永安二街","SECT":" ","MAREA":" ","LANE":"２５巷","ALLEY":" ","HOUSE_NO":"３１號","E_COORD97":172476.57000000001,"N_COORD97":2549563.5699999998,"ADDRESS":"永安二街２５巷３１號","OBJECTID":363000},"geometry":{"x":172476.57000000216,"y":2549563.5700000003}}]}