{"displayFieldName":"TOWNNAME","fieldAliases":{"ID":"ID","DIS_CODE":"DIS_CODE","TOWNNAME":"TOWNNAME","LI":"LI","LIN":"LIN","STREET":"STREET","SECT":"SECT","MAREA":"MAREA","LANE":"LANE","ALLEY":"ALLEY","HOUSE_NO":"HOUSE_NO","E_COORD97":"E_COORD97","N_COORD97":"N_COORD97","ADDRESS":"ADDRESS","OBJECTID":"OBJECTID"},"geometryType":"esriGeometryPoint","spatialReference":{"wkid":102443,"latestWkid":3826},"fields":[{"name":"ID","type":"esriFieldTypeDouble","alias":"ID"},{"name":"DIS_CODE","type":"esriFieldTypeInteger","alias":"DIS_CODE"},{"name":"TOWNNAME","type":"esriFieldTypeString","alias":"TOWNNAME","length":8},{"name":"LI","type":"esriFieldTypeString","alias":"LI","length":8},{"name":"LIN","type":"esriFieldTypeString","alias":"LIN","length":12},{"name":"STREET","type":"esriFieldTypeString","alias":"STREET","length":20},{"name":"SECT","type":"esriFieldTypeString","alias":"SECT","length":8},{"name":"MAREA","type":"esriFieldTypeString","alias":"MAREA","length":12},{"name":"LANE","type":"esriFieldTypeString","alias":"LANE","length":10},{"name":"ALLEY","type":"esriFieldTypeString","alias":"ALLEY","length":10},{"name":"HOUSE_NO","type":"esriFieldTypeString","alias":"HOUSE_NO","length":20},{"name":"E_COORD97","type":"esriFieldTypeDouble","alias":"E_COORD97"},{"name":"N_COORD97","type":"esriFieldTypeDouble","alias":"N_COORD97"},{"name":"ADDRESS","type":"esriFieldTypeString","alias":"ADDRESS","length":50},{"name":"OBJECTID","type":"esriFieldTypeOID","alias":"OBJECTID"}],"features":[{"attributes":{"ID":316409,"DIS_CODE":0,"TOWNNAME":"善化區","LI":"坐駕里","LIN":"17鄰","STREET":"文化路","SECT":" ","MAREA":" ","LANE":" ","ALLEY":" ","HOUSE_NO":"６號三樓之２","E_COORD97":177970.09,"N_COORD97":2558361.29,"ADDRESS":"文化路６號三樓之２","OBJECTID":316401},"geometry":{"x":177970.09000000171,"y":2558361.2899999991}},{"attributes":{"ID":316410,"DIS_CODE":0,"TOWNNAME":"善化區","LI":"坐駕里","LIN":"17鄰","STREET":"文化路","SECT":" ","MAREA":" ","LANE":" ","ALLEY":" ","HOUSE_NO":"６號三樓之３","E_COORD97":177970.09,"N_COORD97":2558361.29,"ADDRESS":"文化路６號三樓之３","OBJECTID":316402},"geometry":{"x":177970.09000000171,"y":2558361.2899999991}},{"attributes":{"ID":316411,"DIS_CODE":0,"TOWNNAME":"善化區","LI":"坐駕里","LIN":"17鄰","STREET":"文化路","SECT":" ","MAREA":" ","LANE":" ","ALLEY":" ","HOUSE_NO":"６號三樓之５","E_COORD97":177970.09,"N_COORD97":2558361.29,"ADDRESS":"文化路６號三樓之５","OBJECTID":316403},"geometry":{"x":177970.09000000171,"y":2558361.2899999991}},{"attributes":{"ID":316412,"DIS_CODE":0,"TOWNNAME":"歸仁區","LI":"辜厝里","LIN":"42鄰","STREET":"民權南路","SECT":" ","MAREA":" ","LANE":"１９１巷","ALLEY":" ","HOUSE_NO":"１５號","E_COORD97":177029.45000000001,"N_COORD97":2540385.02,"ADDRESS":"民權南路１９１巷１５號","OBJECTID":316404},"geometry":{"x":177029.45000000112,"y":2540385.0199999996}},{"attributes":{"ID":316413,"DIS_CODE":0,"TOWNNAME":"歸仁區","LI":"新厝里","LIN":"14鄰","STREET":"公園十街","SECT":" ","MAREA":" ","LANE":"１１巷","ALLEY":" ","HOUSE_NO":"５號","E_COORD97":177656.51999999999,"N_COORD97":2540431.3399999999,"ADDRESS":"公園十街１１巷５號","OBJECTID":316405},"geometry":{"x":177656.51999999862,"y":2540431.3400000036}},{"attributes":{"ID":316414,"DIS_CODE":0,"TOWNNAME":"善化區","LI":"南關里","LIN":"7鄰","STREET":"三民路","SECT":" ","MAREA":" ","LANE":"南興巷","ALLEY":" ","HOUSE_NO":"３５號","E_COORD97":176889.28,"N_COORD97":2558607.7599999998,"ADDRESS":"三民路南興巷３５號","OBJECTID":316406},"geometry":{"x":176889.27999999933,"y":2558607.7600000035}},{"attributes":{"ID":316415,"DIS_CODE":0,"TOWNNAME":"善化區","LI":"南關里","LIN":"7鄰","STREET":"三民路","SECT":" ","MAREA":" ","LANE":"南興巷","ALLEY":" ","HOUSE_NO":"４４號","E_COORD97":176873.37,"N_COORD97":2558625.0099999998,"ADDRESS":"三民路南興巷４４號","OBJECTID":316407},"geometry":{"x":176873.37000000197,"y":2558625.0099999998}},{"attributes":{"ID":316416,"DIS_CODE":0,"TOWNNAME":"善化區","LI":"南關里","LIN":"7鄰","STREET":"三民路","SECT":" ","MAREA":" ","LANE":"南興巷","ALLEY":" ","HOUSE_NO":"４０號","E_COORD97":176881.17000000001,"N_COORD97":2558624.0099999998,"ADDRESS":"三民路南興巷４０號","OBJECTID":316408},"geometry":{"x":176881.16999999899,"y":2558624.0100000016}},{"attributes":{"ID":316417,"DIS_CODE":0,"TOWNNAME":"善化區","LI":"南關里","LIN":"7鄰","STREET":"三民路","SECT":" ","MAREA":" ","LANE":"六合巷","ALLEY":" ","HOUSE_NO":"１５號","E_COORD97":176971.95000000001,"N_COORD97":2558734.5099999998,"ADDRESS":"三民路六合巷１５號","OBJECTID":316409},"geometry":{"x":176971.95000000112,"y":2558734.5099999998}},{"attributes":{"ID":316418,"DIS_CODE":0,"TOWNNAME":"善化區","LI":"文昌里","LIN":"7鄰","STREET":"永福路","SECT":" ","MAREA":" ","LANE":"１１４巷","ALLEY":" ","HOUSE_NO":"９號","E_COORD97":177312.26999999999,"N_COORD97":2558841,"ADDRESS":"永福路１１４巷９號","OBJECTID":316410},"geometry":{"x":177312.26999999955,"y":2558841.0000000019}},{"attributes":{"ID":316419,"DIS_CODE":0,"TOWNNAME":"善化區","LI":"文昌里","LIN":"7鄰","STREET":"永福路","SECT":" ","MAREA":" ","LANE":"１１４巷","ALLEY":" ","HOUSE_NO":"５號","E_COORD97":177313.35000000001,"N_COORD97":2558832.25,"ADDRESS":"永福路１１４巷５號","OBJECTID":316411},"geometry":{"x":177313.34999999963,"y":2558832.2500000019}},{"attributes":{"ID":316420,"DIS_CODE":0,"TOWNNAME":"善化區","LI":"文昌里","LIN":"7鄰","STREET":"永福路","SECT":" ","MAREA":" ","LANE":"１１４巷","ALLEY":" ","HOUSE_NO":"１３號","E_COORD97":177298.39000000001,"N_COORD97":2558878.25,"ADDRESS":"永福路１１４巷１３號","OBJECTID":316412},"geometry":{"x":177298.3900000006,"y":2558878.25}},{"attributes":{"ID":316421,"DIS_CODE":0,"TOWNNAME":"善化區","LI":"坐駕里","LIN":"17鄰","STREET":"文化路","SECT":" ","MAREA":" ","LANE":" ","ALLEY":" ","HOUSE_NO":"６號四樓之１","E_COORD97":177970.09,"N_COORD97":2558361.29,"ADDRESS":"文化路６號四樓之１","OBJECTID":316413},"geometry":{"x":177970.09000000171,"y":2558361.2899999991}},{"attributes":{"ID":316422,"DIS_CODE":0,"TOWNNAME":"善化區","LI":"坐駕里","LIN":"17鄰","STREET":"文化路","SECT":" ","MAREA":" ","LANE":" ","ALLEY":" ","HOUSE_NO":"６號四樓之２","E_COORD97":177970.09,"N_COORD97":2558361.29,"ADDRESS":"文化路６號四樓之２","OBJECTID":316414},"geometry":{"x":177970.09000000171,"y":2558361.2899999991}},{"attributes":{"ID":316423,"DIS_CODE":0,"TOWNNAME":"善化區","LI":"坐駕里","LIN":"17鄰","STREET":"文化路","SECT":" ","MAREA":" ","LANE":" ","ALLEY":" ","HOUSE_NO":"６號十一樓之５","E_COORD97":177970.09,"N_COORD97":2558361.29,"ADDRESS":"文化路６號十一樓之５","OBJECTID":316415},"geometry":{"x":177970.09000000171,"y":2558361.2899999991}},{"attributes":{"ID":316424,"DIS_CODE":0,"TOWNNAME":"下營區","LI":"西連里","LIN":" ","STREET":" ","SECT":" ","MAREA":"西寮","LANE":" ","ALLEY":" ","HOUSE_NO":"１６號","E_COORD97":174571.89000000001,"N_COORD97":2567470.98,"ADDRESS":"西寮１６號","OBJECTID":316416},"geometry":{"x":174571.88999999966,"y":2567470.9800000023}},{"attributes":{"ID":316425,"DIS_CODE":0,"TOWNNAME":"歸仁區","LI":"沙崙里","LIN":"4鄰","STREET":" ","SECT":" ","MAREA":"沙崙","LANE":" ","ALLEY":" ","HOUSE_NO":"３４９號","E_COORD97":179532.78,"N_COORD97":2538134.25,"ADDRESS":"沙崙３４９號","OBJECTID":316417},"geometry":{"x":179532.78000000119,"y":2538134.2500000019}},{"attributes":{"ID":316426,"DIS_CODE":0,"TOWNNAME":"歸仁區","LI":"媽廟里","LIN":"4鄰","STREET":"和順路","SECT":"一段","MAREA":" ","LANE":"１１巷","ALLEY":" ","HOUSE_NO":"９４號","E_COORD97":177464.51999999999,"N_COORD97":2543610.7200000002,"ADDRESS":"和順路一段１１巷９４號","OBJECTID":316418},"geometry":{"x":177464.51999999955,"y":2543610.7200000025}},{"attributes":{"ID":316427,"DIS_CODE":0,"TOWNNAME":"歸仁區","LI":"歸仁里","LIN":"13鄰","STREET":"文化街","SECT":"一段","MAREA":" ","LANE":"１２５巷","ALLEY":" ","HOUSE_NO":"８號","E_COORD97":177891.69,"N_COORD97":2541091.0499999998,"ADDRESS":"文化街一段１２５巷８號","OBJECTID":316419},"geometry":{"x":177891.69000000041,"y":2541091.0500000007}},{"attributes":{"ID":316428,"DIS_CODE":0,"TOWNNAME":"歸仁區","LI":"歸南里","LIN":"18鄰","STREET":"民生八街","SECT":" ","MAREA":" ","LANE":"２８巷","ALLEY":" ","HOUSE_NO":"６號","E_COORD97":176124.01000000001,"N_COORD97":2540388.25,"ADDRESS":"民生八街２８巷６號","OBJECTID":316420},"geometry":{"x":176124.00999999978,"y":2540388.2500000037}},{"attributes":{"ID":316429,"DIS_CODE":0,"TOWNNAME":"歸仁區","LI":"歸南里","LIN":"20鄰","STREET":"民生八街","SECT":" ","MAREA":" ","LANE":"２８巷","ALLEY":" ","HOUSE_NO":"５號","E_COORD97":176111.70999999999,"N_COORD97":2540393.25,"ADDRESS":"民生八街２８巷５號","OBJECTID":316421},"geometry":{"x":176111.71000000089,"y":2540393.25}},{"attributes":{"ID":316430,"DIS_CODE":0,"TOWNNAME":"歸仁區","LI":"歸南里","LIN":"18鄰","STREET":"民生八街","SECT":" ","MAREA":" ","LANE":"２８巷","ALLEY":" ","HOUSE_NO":"２６號","E_COORD97":176125.45999999999,"N_COORD97":2540427.25,"ADDRESS":"民生八街２８巷２６號","OBJECTID":316422},"geometry":{"x":176125.46000000089,"y":2540427.25}},{"attributes":{"ID":316431,"DIS_CODE":0,"TOWNNAME":"歸仁區","LI":"歸仁里","LIN":"20鄰","STREET":"文化街","SECT":"一段","MAREA":" ","LANE":"１０１巷","ALLEY":" ","HOUSE_NO":"１３號","E_COORD97":178064.19,"N_COORD97":2541123.1299999999,"ADDRESS":"文化街一段１０１巷１３號","OBJECTID":316423},"geometry":{"x":178064.19000000041,"y":2541123.129999999}},{"attributes":{"ID":316432,"DIS_CODE":0,"TOWNNAME":"善化區","LI":"文昌里","LIN":"7鄰","STREET":"永福路","SECT":" ","MAREA":" ","LANE":"１１４巷","ALLEY":" ","HOUSE_NO":"３號","E_COORD97":177314.56,"N_COORD97":2558828.5,"ADDRESS":"永福路１１４巷３號","OBJECTID":316424},"geometry":{"x":177314.56000000052,"y":2558828.5}},{"attributes":{"ID":316433,"DIS_CODE":0,"TOWNNAME":"善化區","LI":"坐駕里","LIN":"17鄰","STREET":"文化路","SECT":" ","MAREA":" ","LANE":" ","ALLEY":" ","HOUSE_NO":"６號十二樓之１","E_COORD97":177970.09,"N_COORD97":2558361.29,"ADDRESS":"文化路６號十二樓之１","OBJECTID":316425},"geometry":{"x":177970.09000000171,"y":2558361.2899999991}},{"attributes":{"ID":316434,"DIS_CODE":0,"TOWNNAME":"善化區","LI":"坐駕里","LIN":"17鄰","STREET":"文化路","SECT":" ","MAREA":" ","LANE":" ","ALLEY":" ","HOUSE_NO":"６號十二樓之２","E_COORD97":177970.09,"N_COORD97":2558361.29,"ADDRESS":"文化路６號十二樓之２","OBJECTID":316426},"geometry":{"x":177970.09000000171,"y":2558361.2899999991}},{"attributes":{"ID":316435,"DIS_CODE":0,"TOWNNAME":"善化區","LI":"坐駕里","LIN":"17鄰","STREET":"文化路","SECT":" ","MAREA":" ","LANE":" ","ALLEY":" ","HOUSE_NO":"６號十二樓之３","E_COORD97":177970.09,"N_COORD97":2558361.29,"ADDRESS":"文化路６號十二樓之３","OBJECTID":316427},"geometry":{"x":177970.09000000171,"y":2558361.2899999991}},{"attributes":{"ID":316436,"DIS_CODE":0,"TOWNNAME":"善化區","LI":"坐駕里","LIN":"17鄰","STREET":"文化路","SECT":" ","MAREA":" ","LANE":" ","ALLEY":" ","HOUSE_NO":"６號十二樓之５","E_COORD97":177970.09,"N_COORD97":2558361.29,"ADDRESS":"文化路６號十二樓之５","OBJECTID":316428},"geometry":{"x":177970.09000000171,"y":2558361.2899999991}},{"attributes":{"ID":316437,"DIS_CODE":0,"TOWNNAME":"善化區","LI":"坐駕里","LIN":"17鄰","STREET":"文化路","SECT":" ","MAREA":" ","LANE":" ","ALLEY":" ","HOUSE_NO":"１０號二樓之１","E_COORD97":177970.09,"N_COORD97":2558361.29,"ADDRESS":"文化路１０號二樓之１","OBJECTID":316429},"geometry":{"x":177970.09000000171,"y":2558361.2899999991}},{"attributes":{"ID":316438,"DIS_CODE":0,"TOWNNAME":"善化區","LI":"坐駕里","LIN":"17鄰","STREET":"文化路","SECT":" ","MAREA":" ","LANE":" ","ALLEY":" ","HOUSE_NO":"１０號二樓之２","E_COORD97":177970.09,"N_COORD97":2558361.29,"ADDRESS":"文化路１０號二樓之２","OBJECTID":316430},"geometry":{"x":177970.09000000171,"y":2558361.2899999991}},{"attributes":{"ID":316439,"DIS_CODE":0,"TOWNNAME":"新營區","LI":"護鎮里","LIN":" ","STREET":" ","SECT":" ","MAREA":"後鎮","LANE":" ","ALLEY":" ","HOUSE_NO":"６２之１７號","E_COORD97":179020.98999999999,"N_COORD97":2581206.54,"ADDRESS":"後鎮６２之１７號","OBJECTID":316431},"geometry":{"x":179020.99000000115,"y":2581206.540000001}},{"attributes":{"ID":316440,"DIS_CODE":0,"TOWNNAME":"歸仁區","LI":"媽廟里","LIN":"4鄰","STREET":"和順路","SECT":"一段","MAREA":" ","LANE":"１１巷","ALLEY":" ","HOUSE_NO":"９６號","E_COORD97":177460.42000000001,"N_COORD97":2543611.7200000002,"ADDRESS":"和順路一段１１巷９６號","OBJECTID":316432},"geometry":{"x":177460.41999999993,"y":2543611.7200000007}},{"attributes":{"ID":316441,"DIS_CODE":0,"TOWNNAME":"歸仁區","LI":"文化里","LIN":"4鄰","STREET":"民權一街","SECT":" ","MAREA":" ","LANE":"３８巷","ALLEY":" ","HOUSE_NO":"８號","E_COORD97":177282.85000000001,"N_COORD97":2541310.3300000001,"ADDRESS":"民權一街３８巷８號","OBJECTID":316433},"geometry":{"x":177282.84999999963,"y":2541310.3300000019}},{"attributes":{"ID":316442,"DIS_CODE":0,"TOWNNAME":"歸仁區","LI":"新厝里","LIN":"18鄰","STREET":"中正南路","SECT":"一段","MAREA":" ","LANE":"１５３巷","ALLEY":" ","HOUSE_NO":"３６號","E_COORD97":177498.01000000001,"N_COORD97":2540350.25,"ADDRESS":"中正南路一段１５３巷３６號","OBJECTID":316434},"geometry":{"x":177498.01000000071,"y":2540350.25}},{"attributes":{"ID":316443,"DIS_CODE":0,"TOWNNAME":"歸仁區","LI":"歸南里","LIN":"25鄰","STREET":"民生十街","SECT":" ","MAREA":" ","LANE":"８巷","ALLEY":" ","HOUSE_NO":"２號","E_COORD97":176076.76000000001,"N_COORD97":2540207.25,"ADDRESS":"民生十街８巷２號","OBJECTID":316435},"geometry":{"x":176076.75999999978,"y":2540207.25}},{"attributes":{"ID":316444,"DIS_CODE":0,"TOWNNAME":"歸仁區","LI":"媽廟里","LIN":"26鄰","STREET":"保大路","SECT":"一段","MAREA":" ","LANE":"１９２巷","ALLEY":" ","HOUSE_NO":"７號","E_COORD97":177581.82999999999,"N_COORD97":2544119.7200000002,"ADDRESS":"保大路一段１９２巷７號","OBJECTID":316436},"geometry":{"x":177581.83000000007,"y":2544119.7200000025}},{"attributes":{"ID":316445,"DIS_CODE":0,"TOWNNAME":"歸仁區","LI":"新厝里","LIN":"13鄰","STREET":"中正南路","SECT":"一段","MAREA":" ","LANE":"８５巷","ALLEY":" ","HOUSE_NO":"２０號","E_COORD97":177603.35000000001,"N_COORD97":2540485.5899999999,"ADDRESS":"中正南路一段８５巷２０號","OBJECTID":316437},"geometry":{"x":177603.34999999963,"y":2540485.5900000017}},{"attributes":{"ID":316446,"DIS_CODE":0,"TOWNNAME":"善化區","LI":"文昌里","LIN":"7鄰","STREET":"文昌路","SECT":" ","MAREA":" ","LANE":"３６巷","ALLEY":" ","HOUSE_NO":"３號之３","E_COORD97":177321.26999999999,"N_COORD97":2558779.5299999998,"ADDRESS":"文昌路３６巷３號之３","OBJECTID":316438},"geometry":{"x":177321.27000000048,"y":2558779.5300000012}},{"attributes":{"ID":316447,"DIS_CODE":0,"TOWNNAME":"善化區","LI":"小新里","LIN":"7鄰","STREET":"成功路","SECT":" ","MAREA":" ","LANE":"３４９巷","ALLEY":" ","HOUSE_NO":"５號之３","E_COORD97":179497.41,"N_COORD97":2558682.77,"ADDRESS":"成功路３４９巷５號之３","OBJECTID":316439},"geometry":{"x":179497.41000000108,"y":2558682.7700000014}},{"attributes":{"ID":316448,"DIS_CODE":0,"TOWNNAME":"善化區","LI":"文昌里","LIN":"7鄰","STREET":"中華路","SECT":" ","MAREA":" ","LANE":"９巷","ALLEY":" ","HOUSE_NO":"１７號","E_COORD97":177245.84,"N_COORD97":2558627.5,"ADDRESS":"中華路９巷１７號","OBJECTID":316440},"geometry":{"x":177245.83999999985,"y":2558627.5000000019}},{"attributes":{"ID":316449,"DIS_CODE":0,"TOWNNAME":"善化區","LI":"坐駕里","LIN":"17鄰","STREET":"文化路","SECT":" ","MAREA":" ","LANE":" ","ALLEY":" ","HOUSE_NO":"１０號二樓之３","E_COORD97":177970.09,"N_COORD97":2558361.29,"ADDRESS":"文化路１０號二樓之３","OBJECTID":316441},"geometry":{"x":177970.09000000171,"y":2558361.2899999991}},{"attributes":{"ID":316450,"DIS_CODE":0,"TOWNNAME":"善化區","LI":"坐駕里","LIN":"17鄰","STREET":"文化路","SECT":" ","MAREA":" ","LANE":" ","ALLEY":" ","HOUSE_NO":"１０號三樓之１","E_COORD97":177970.09,"N_COORD97":2558361.29,"ADDRESS":"文化路１０號三樓之１","OBJECTID":316442},"geometry":{"x":177970.09000000171,"y":2558361.2899999991}},{"attributes":{"ID":316451,"DIS_CODE":0,"TOWNNAME":"善化區","LI":"坐駕里","LIN":"17鄰","STREET":"文化路","SECT":" ","MAREA":" ","LANE":" ","ALLEY":" ","HOUSE_NO":"１０號三樓之２","E_COORD97":177970.09,"N_COORD97":2558361.29,"ADDRESS":"文化路１０號三樓之２","OBJECTID":316443},"geometry":{"x":177970.09000000171,"y":2558361.2899999991}},{"attributes":{"ID":316452,"DIS_CODE":0,"TOWNNAME":"善化區","LI":"坐駕里","LIN":"17鄰","STREET":"文化路","SECT":" ","MAREA":" ","LANE":" ","ALLEY":" ","HOUSE_NO":"１０號三樓之３","E_COORD97":177970.09,"N_COORD97":2558361.29,"ADDRESS":"文化路１０號三樓之３","OBJECTID":316444},"geometry":{"x":177970.09000000171,"y":2558361.2899999991}},{"attributes":{"ID":316453,"DIS_CODE":0,"TOWNNAME":"善化區","LI":"坐駕里","LIN":"17鄰","STREET":"文化路","SECT":" ","MAREA":" ","LANE":" ","ALLEY":" ","HOUSE_NO":"１０號四樓之１","E_COORD97":177970.09,"N_COORD97":2558361.29,"ADDRESS":"文化路１０號四樓之１","OBJECTID":316445},"geometry":{"x":177970.09000000171,"y":2558361.2899999991}},{"attributes":{"ID":316454,"DIS_CODE":0,"TOWNNAME":"善化區","LI":"坐駕里","LIN":"17鄰","STREET":"文化路","SECT":" ","MAREA":" ","LANE":" ","ALLEY":" ","HOUSE_NO":"１０號四樓之２","E_COORD97":177970.09,"N_COORD97":2558361.29,"ADDRESS":"文化路１０號四樓之２","OBJECTID":316446},"geometry":{"x":177970.09000000171,"y":2558361.2899999991}},{"attributes":{"ID":316455,"DIS_CODE":0,"TOWNNAME":"新營區","LI":"埤寮里","LIN":"4鄰","STREET":" ","SECT":" ","MAREA":"許丑","LANE":" ","ALLEY":" ","HOUSE_NO":"４３號之７","E_COORD97":179774.56,"N_COORD97":2580993.6299999999,"ADDRESS":"許丑４３號之７","OBJECTID":316447},"geometry":{"x":179774.55999999959,"y":2580993.629999999}},{"attributes":{"ID":316456,"DIS_CODE":0,"TOWNNAME":"歸仁區","LI":"歸仁里","LIN":"13鄰","STREET":"文化街","SECT":"一段","MAREA":" ","LANE":"１２５巷","ALLEY":" ","HOUSE_NO":"５號","E_COORD97":177902.98999999999,"N_COORD97":2541091.0499999998,"ADDRESS":"文化街一段１２５巷５號","OBJECTID":316448},"geometry":{"x":177902.99000000022,"y":2541091.0500000007}},{"attributes":{"ID":316457,"DIS_CODE":0,"TOWNNAME":"歸仁區","LI":"歸南里","LIN":"18鄰","STREET":"民生八街","SECT":" ","MAREA":" ","LANE":"２８巷","ALLEY":" ","HOUSE_NO":"３０號","E_COORD97":176125.56,"N_COORD97":2540436.25,"ADDRESS":"民生八街２８巷３０號","OBJECTID":316449},"geometry":{"x":176125.56000000145,"y":2540436.2500000019}},{"attributes":{"ID":316458,"DIS_CODE":0,"TOWNNAME":"善化區","LI":"小新里","LIN":"7鄰","STREET":"成功路","SECT":" ","MAREA":" ","LANE":"３４９巷","ALLEY":" ","HOUSE_NO":"２號之１","E_COORD97":179371.01999999999,"N_COORD97":2558518.27,"ADDRESS":"成功路３４９巷２號之１","OBJECTID":316450},"geometry":{"x":179371.02000000048,"y":2558518.2699999996}},{"attributes":{"ID":316459,"DIS_CODE":0,"TOWNNAME":"善化區","LI":"小新里","LIN":"7鄰","STREET":"成功路","SECT":" ","MAREA":" ","LANE":"３４９巷","ALLEY":" ","HOUSE_NO":"７號之１０","E_COORD97":179473.35999999999,"N_COORD97":2558635.27,"ADDRESS":"成功路３４９巷７號之１０","OBJECTID":316451},"geometry":{"x":179473.36000000034,"y":2558635.2700000014}},{"attributes":{"ID":316460,"DIS_CODE":0,"TOWNNAME":"善化區","LI":"小新里","LIN":"7鄰","STREET":"成功路","SECT":" ","MAREA":" ","LANE":"３４９巷","ALLEY":" ","HOUSE_NO":"７號之１１","E_COORD97":179471.91,"N_COORD97":2558631.02,"ADDRESS":"成功路３４９巷７號之１１","OBJECTID":316452},"geometry":{"x":179471.91000000201,"y":2558631.0200000014}},{"attributes":{"ID":316461,"DIS_CODE":0,"TOWNNAME":"善化區","LI":"文昌里","LIN":"7鄰","STREET":"中華路","SECT":" ","MAREA":" ","LANE":"７２巷","ALLEY":" ","HOUSE_NO":"５號","E_COORD97":177271.42000000001,"N_COORD97":2558835,"ADDRESS":"中華路７２巷５號","OBJECTID":316453},"geometry":{"x":177271.42000000086,"y":2558835.0000000019}},{"attributes":{"ID":316462,"DIS_CODE":0,"TOWNNAME":"善化區","LI":"小新里","LIN":"7鄰","STREET":"成功路","SECT":" ","MAREA":" ","LANE":"１８６巷","ALLEY":" ","HOUSE_NO":"１３號之１","E_COORD97":179525.76999999999,"N_COORD97":2558853.27,"ADDRESS":"成功路１８６巷１３號之１","OBJECTID":316454},"geometry":{"x":179525.76999999955,"y":2558853.2699999996}},{"attributes":{"ID":316463,"DIS_CODE":0,"TOWNNAME":"善化區","LI":"小新里","LIN":"7鄰","STREET":"成功路","SECT":" ","MAREA":" ","LANE":"２５０巷","ALLEY":" ","HOUSE_NO":"１號","E_COORD97":179281.06,"N_COORD97":2558886.2400000002,"ADDRESS":"成功路２５０巷１號","OBJECTID":316455},"geometry":{"x":179281.06000000052,"y":2558886.2400000039}},{"attributes":{"ID":316464,"DIS_CODE":0,"TOWNNAME":"善化區","LI":"小新里","LIN":"7鄰","STREET":"成功路","SECT":" ","MAREA":" ","LANE":"１８６巷","ALLEY":" ","HOUSE_NO":"１１號","E_COORD97":179513.89000000001,"N_COORD97":2558920,"ADDRESS":"成功路１８６巷１１號","OBJECTID":316456},"geometry":{"x":179513.89000000153,"y":2558920}},{"attributes":{"ID":316465,"DIS_CODE":0,"TOWNNAME":"善化區","LI":"文昌里","LIN":"7鄰","STREET":"文昌路","SECT":" ","MAREA":" ","LANE":"３６巷","ALLEY":" ","HOUSE_NO":"３號之４","E_COORD97":177321.41,"N_COORD97":2558785.7799999998,"ADDRESS":"文昌路３６巷３號之４","OBJECTID":316457},"geometry":{"x":177321.41000000108,"y":2558785.7799999993}},{"attributes":{"ID":316466,"DIS_CODE":0,"TOWNNAME":"善化區","LI":"文昌里","LIN":"7鄰","STREET":"中華路","SECT":" ","MAREA":" ","LANE":"９巷","ALLEY":" ","HOUSE_NO":"１８號","E_COORD97":177254.14999999999,"N_COORD97":2558644.75,"ADDRESS":"中華路９巷１８號","OBJECTID":316458},"geometry":{"x":177254.15000000037,"y":2558644.75}},{"attributes":{"ID":316467,"DIS_CODE":0,"TOWNNAME":"善化區","LI":"坐駕里","LIN":"17鄰","STREET":"文化路","SECT":" ","MAREA":" ","LANE":" ","ALLEY":" ","HOUSE_NO":"１０號四樓之３","E_COORD97":177970.09,"N_COORD97":2558361.29,"ADDRESS":"文化路１０號四樓之３","OBJECTID":316459},"geometry":{"x":177970.09000000171,"y":2558361.2899999991}},{"attributes":{"ID":316468,"DIS_CODE":0,"TOWNNAME":"善化區","LI":"坐駕里","LIN":"17鄰","STREET":"文化路","SECT":" ","MAREA":" ","LANE":" ","ALLEY":" ","HOUSE_NO":"１０號五樓之１","E_COORD97":177970.09,"N_COORD97":2558361.29,"ADDRESS":"文化路１０號五樓之１","OBJECTID":316460},"geometry":{"x":177970.09000000171,"y":2558361.2899999991}},{"attributes":{"ID":316469,"DIS_CODE":0,"TOWNNAME":"歸仁區","LI":"南保里","LIN":"39鄰","STREET":"中山路","SECT":"三段","MAREA":" ","LANE":" ","ALLEY":" ","HOUSE_NO":"１６０號","E_COORD97":176615.799314,"N_COORD97":2540923.86876,"ADDRESS":"中山路三段１６０號","OBJECTID":316461},"geometry":{"x":176615.79931400158,"y":2540923.8687570002}},{"attributes":{"ID":316470,"DIS_CODE":0,"TOWNNAME":"歸仁區","LI":"崙頂里","LIN":"24鄰","STREET":"崙頂二街","SECT":" ","MAREA":" ","LANE":"１７巷","ALLEY":" ","HOUSE_NO":"１０號","E_COORD97":177789.67999999999,"N_COORD97":2539951.25,"ADDRESS":"崙頂二街１７巷１０號","OBJECTID":316462},"geometry":{"x":177789.68000000156,"y":2539951.2500000019}},{"attributes":{"ID":316471,"DIS_CODE":0,"TOWNNAME":"善化區","LI":"小新里","LIN":"7鄰","STREET":"成功路","SECT":" ","MAREA":" ","LANE":"１８６巷","ALLEY":" ","HOUSE_NO":"１１號之６","E_COORD97":179438,"N_COORD97":2559157.77,"ADDRESS":"成功路１８６巷１１號之６","OBJECTID":316463},"geometry":{"x":179438,"y":2559157.7700000014}},{"attributes":{"ID":316472,"DIS_CODE":0,"TOWNNAME":"善化區","LI":"小新里","LIN":"7鄰","STREET":"成功路","SECT":" ","MAREA":" ","LANE":"３４９巷","ALLEY":" ","HOUSE_NO":"１４號","E_COORD97":179451.89999999999,"N_COORD97":2558575,"ADDRESS":"成功路３４９巷１４號","OBJECTID":316464},"geometry":{"x":179451.90000000224,"y":2558575}},{"attributes":{"ID":316473,"DIS_CODE":0,"TOWNNAME":"善化區","LI":"文昌里","LIN":"7鄰","STREET":"文昌路","SECT":" ","MAREA":" ","LANE":"１０７巷","ALLEY":" ","HOUSE_NO":"１１號","E_COORD97":177161.41,"N_COORD97":2558628.7799999998,"ADDRESS":"文昌路１０７巷１１號","OBJECTID":316465},"geometry":{"x":177161.41000000201,"y":2558628.7800000012}},{"attributes":{"ID":316474,"DIS_CODE":0,"TOWNNAME":"善化區","LI":"小新里","LIN":"7鄰","STREET":"成功路","SECT":" ","MAREA":" ","LANE":"３４９巷","ALLEY":" ","HOUSE_NO":"７號之７","E_COORD97":179475.95999999999,"N_COORD97":2558647.02,"ADDRESS":"成功路３４９巷７號之７","OBJECTID":316466},"geometry":{"x":179475.95999999996,"y":2558647.0200000014}},{"attributes":{"ID":316475,"DIS_CODE":0,"TOWNNAME":"善化區","LI":"文昌里","LIN":"7鄰","STREET":"中華路","SECT":" ","MAREA":" ","LANE":"１５巷","ALLEY":" ","HOUSE_NO":"１４號","E_COORD97":177241.84,"N_COORD97":2558663.75,"ADDRESS":"中華路１５巷１４號","OBJECTID":316467},"geometry":{"x":177241.84000000078,"y":2558663.7500000019}},{"attributes":{"ID":316476,"DIS_CODE":0,"TOWNNAME":"善化區","LI":"小新里","LIN":"7鄰","STREET":"成功路","SECT":" ","MAREA":" ","LANE":"３４９巷","ALLEY":" ","HOUSE_NO":"７號","E_COORD97":179481.85000000001,"N_COORD97":2558672,"ADDRESS":"成功路３４９巷７號","OBJECTID":316468},"geometry":{"x":179481.85000000149,"y":2558672.0000000019}},{"attributes":{"ID":316477,"DIS_CODE":0,"TOWNNAME":"善化區","LI":"文昌里","LIN":"7鄰","STREET":"中華路","SECT":" ","MAREA":" ","LANE":"７２巷","ALLEY":" ","HOUSE_NO":"３號","E_COORD97":177263.89000000001,"N_COORD97":2558822,"ADDRESS":"中華路７２巷３號","OBJECTID":316469},"geometry":{"x":177263.88999999966,"y":2558822}},{"attributes":{"ID":316478,"DIS_CODE":0,"TOWNNAME":"善化區","LI":"小新里","LIN":"7鄰","STREET":"成功路","SECT":" ","MAREA":" ","LANE":"３４９巷","ALLEY":" ","HOUSE_NO":"７號之８","E_COORD97":179479.14999999999,"N_COORD97":2558641.27,"ADDRESS":"成功路３４９巷７號之８","OBJECTID":316470},"geometry":{"x":179479.1500000013,"y":2558641.2700000033}},{"attributes":{"ID":316479,"DIS_CODE":0,"TOWNNAME":"善化區","LI":"坐駕里","LIN":"17鄰","STREET":"文化路","SECT":" ","MAREA":" ","LANE":" ","ALLEY":" ","HOUSE_NO":"１０號五樓之２","E_COORD97":177970.09,"N_COORD97":2558361.29,"ADDRESS":"文化路１０號五樓之２","OBJECTID":316471},"geometry":{"x":177970.09000000171,"y":2558361.2899999991}},{"attributes":{"ID":316480,"DIS_CODE":0,"TOWNNAME":"善化區","LI":"坐駕里","LIN":"17鄰","STREET":"文化路","SECT":" ","MAREA":" ","LANE":" ","ALLEY":" ","HOUSE_NO":"１０號五樓之３","E_COORD97":177970.09,"N_COORD97":2558361.29,"ADDRESS":"文化路１０號五樓之３","OBJECTID":316472},"geometry":{"x":177970.09000000171,"y":2558361.2899999991}},{"attributes":{"ID":316481,"DIS_CODE":0,"TOWNNAME":"大內區","LI":"石城里","LIN":"7鄰","STREET":" ","SECT":" ","MAREA":"石子瀨","LANE":" ","ALLEY":" ","HOUSE_NO":"６５號之２","E_COORD97":184185.18049200001,"N_COORD97":2557959.3006799999,"ADDRESS":"石子瀨６５號之２","OBJECTID":316473},"geometry":{"x":184185.18049199972,"y":2557959.3006790001}},{"attributes":{"ID":316482,"DIS_CODE":0,"TOWNNAME":"新營區","LI":"護鎮里","LIN":"4鄰","STREET":" ","SECT":" ","MAREA":"後鎮","LANE":" ","ALLEY":" ","HOUSE_NO":"４３號之１８","E_COORD97":179162.23000000001,"N_COORD97":2581214.73,"ADDRESS":"後鎮４３之１８號","OBJECTID":316474},"geometry":{"x":179162.23000000138,"y":2581214.7300000004}},{"attributes":{"ID":316483,"DIS_CODE":0,"TOWNNAME":"歸仁區","LI":"許厝里","LIN":"5鄰","STREET":"仁愛一街","SECT":" ","MAREA":" ","LANE":"３８巷","ALLEY":" ","HOUSE_NO":"１號","E_COORD97":178430.95999999999,"N_COORD97":2540619.5299999998,"ADDRESS":"仁愛一街３８巷１號","OBJECTID":316475},"geometry":{"x":178430.96000000089,"y":2540619.5300000031}},{"attributes":{"ID":316484,"DIS_CODE":0,"TOWNNAME":"善化區","LI":"小新里","LIN":"7鄰","STREET":"成功路","SECT":" ","MAREA":" ","LANE":"３４９巷","ALLEY":" ","HOUSE_NO":"２３號","E_COORD97":179441.56,"N_COORD97":2558540.25,"ADDRESS":"成功路３４９巷２３號","OBJECTID":316476},"geometry":{"x":179441.56000000052,"y":2558540.2500000037}},{"attributes":{"ID":316485,"DIS_CODE":0,"TOWNNAME":"善化區","LI":"小新里","LIN":"7鄰","STREET":"成功路","SECT":" ","MAREA":" ","LANE":"３４９巷","ALLEY":" ","HOUSE_NO":"２８號","E_COORD97":179435.76000000001,"N_COORD97":2558520.75,"ADDRESS":"成功路３４９巷２８號","OBJECTID":316477},"geometry":{"x":179435.76000000071,"y":2558520.7500000019}},{"attributes":{"ID":316486,"DIS_CODE":0,"TOWNNAME":"善化區","LI":"小新里","LIN":"7鄰","STREET":"成功路","SECT":" ","MAREA":" ","LANE":"３４９巷","ALLEY":" ","HOUSE_NO":"１６號","E_COORD97":179449.57999999999,"N_COORD97":2558567.25,"ADDRESS":"成功路３４９巷１６號","OBJECTID":316478},"geometry":{"x":179449.58000000007,"y":2558567.2500000037}},{"attributes":{"ID":316487,"DIS_CODE":0,"TOWNNAME":"善化區","LI":"小新里","LIN":"7鄰","STREET":"成功路","SECT":" ","MAREA":" ","LANE":"１８６巷","ALLEY":" ","HOUSE_NO":"１１號之２","E_COORD97":179448.85000000001,"N_COORD97":2558930.27,"ADDRESS":"成功路１８６巷１１號之２","OBJECTID":316479},"geometry":{"x":179448.84999999963,"y":2558930.2700000014}},{"attributes":{"ID":316488,"DIS_CODE":0,"TOWNNAME":"善化區","LI":"小新里","LIN":"7鄰","STREET":"成功路","SECT":" ","MAREA":" ","LANE":"３４９巷","ALLEY":" ","HOUSE_NO":"１７號","E_COORD97":179448.44,"N_COORD97":2558563.5,"ADDRESS":"成功路３４９巷１７號","OBJECTID":316480},"geometry":{"x":179448.44000000134,"y":2558563.5000000019}},{"attributes":{"ID":316489,"DIS_CODE":0,"TOWNNAME":"善化區","LI":"小新里","LIN":"7鄰","STREET":"成功路","SECT":" ","MAREA":" ","LANE":"３４９巷","ALLEY":" ","HOUSE_NO":"９號之１","E_COORD97":179465.51000000001,"N_COORD97":2558605.27,"ADDRESS":"成功路３４９巷９號之１","OBJECTID":316481},"geometry":{"x":179465.50999999978,"y":2558605.2700000014}},{"attributes":{"ID":316490,"DIS_CODE":0,"TOWNNAME":"善化區","LI":"坐駕里","LIN":"17鄰","STREET":"文化路","SECT":" ","MAREA":" ","LANE":" ","ALLEY":" ","HOUSE_NO":"１０號六樓之１","E_COORD97":177970.09,"N_COORD97":2558361.29,"ADDRESS":"文化路１０號六樓之１","OBJECTID":316482},"geometry":{"x":177970.09000000171,"y":2558361.2899999991}},{"attributes":{"ID":316491,"DIS_CODE":0,"TOWNNAME":"善化區","LI":"小新里","LIN":"7鄰","STREET":"成功路","SECT":" ","MAREA":" ","LANE":"９２巷","ALLEY":" ","HOUSE_NO":"１１號","E_COORD97":179763.60000000001,"N_COORD97":2558851.75,"ADDRESS":"成功路９２巷１１號","OBJECTID":316483},"geometry":{"x":179763.60000000056,"y":2558851.75}},{"attributes":{"ID":316492,"DIS_CODE":0,"TOWNNAME":"善化區","LI":"小新里","LIN":"7鄰","STREET":"成功路","SECT":" ","MAREA":" ","LANE":"３４９巷","ALLEY":" ","HOUSE_NO":"２號","E_COORD97":179417.64999999999,"N_COORD97":2558594.25,"ADDRESS":"成功路３４９巷２號","OBJECTID":316484},"geometry":{"x":179417.65000000037,"y":2558594.2499999981}},{"attributes":{"ID":316493,"DIS_CODE":0,"TOWNNAME":"善化區","LI":"小新里","LIN":"7鄰","STREET":"成功路","SECT":" ","MAREA":" ","LANE":"９２巷","ALLEY":" ","HOUSE_NO":"６號","E_COORD97":179773.39999999999,"N_COORD97":2558744.75,"ADDRESS":"成功路９２巷６號","OBJECTID":316485},"geometry":{"x":179773.40000000037,"y":2558744.7500000019}},{"attributes":{"ID":316494,"DIS_CODE":0,"TOWNNAME":"善化區","LI":"文昌里","LIN":"7鄰","STREET":"中華路","SECT":" ","MAREA":" ","LANE":"９巷","ALLEY":" ","HOUSE_NO":"３號","E_COORD97":177281.76000000001,"N_COORD97":2558641,"ADDRESS":"中華路９巷３號","OBJECTID":316486},"geometry":{"x":177281.75999999978,"y":2558641.0000000019}},{"attributes":{"ID":316495,"DIS_CODE":0,"TOWNNAME":"善化區","LI":"小新里","LIN":"7鄰","STREET":"成功路","SECT":" ","MAREA":" ","LANE":"３４９巷","ALLEY":" ","HOUSE_NO":"２７號","E_COORD97":179436.88,"N_COORD97":2558524.75,"ADDRESS":"成功路３４９巷２７號","OBJECTID":316487},"geometry":{"x":179436.88000000082,"y":2558524.7500000019}},{"attributes":{"ID":316496,"DIS_CODE":0,"TOWNNAME":"善化區","LI":"小新里","LIN":"7鄰","STREET":"成功路","SECT":" ","MAREA":" ","LANE":"３４９巷","ALLEY":" ","HOUSE_NO":"１號","E_COORD97":179484.73999999999,"N_COORD97":2558711,"ADDRESS":"成功路３４９巷１號","OBJECTID":316488},"geometry":{"x":179484.74000000022,"y":2558711}},{"attributes":{"ID":316497,"DIS_CODE":0,"TOWNNAME":"善化區","LI":"小新里","LIN":"7鄰","STREET":"成功路","SECT":" ","MAREA":" ","LANE":"３４９巷","ALLEY":" ","HOUSE_NO":"２６號","E_COORD97":179438.03,"N_COORD97":2558528.5,"ADDRESS":"成功路３４９巷２６號","OBJECTID":316489},"geometry":{"x":179438.03000000119,"y":2558528.5000000037}},{"attributes":{"ID":316498,"DIS_CODE":0,"TOWNNAME":"善化區","LI":"小新里","LIN":"7鄰","STREET":"成功路","SECT":" ","MAREA":" ","LANE":"３４９巷","ALLEY":" ","HOUSE_NO":"１８號","E_COORD97":179447.35000000001,"N_COORD97":2558559.75,"ADDRESS":"成功路３４９巷１８號","OBJECTID":316490},"geometry":{"x":179447.34999999963,"y":2558559.75}},{"attributes":{"ID":316499,"DIS_CODE":0,"TOWNNAME":"善化區","LI":"小新里","LIN":"7鄰","STREET":"成功路","SECT":" ","MAREA":" ","LANE":"３４９巷","ALLEY":" ","HOUSE_NO":"９號","E_COORD97":179459.79999999999,"N_COORD97":2558606.75,"ADDRESS":"成功路３４９巷９號","OBJECTID":316491},"geometry":{"x":179459.79999999981,"y":2558606.75}},{"attributes":{"ID":316500,"DIS_CODE":0,"TOWNNAME":"善化區","LI":"小新里","LIN":"7鄰","STREET":"成功路","SECT":" ","MAREA":" ","LANE":"３４９巷","ALLEY":" ","HOUSE_NO":"１２號","E_COORD97":179454.17999999999,"N_COORD97":2558582.75,"ADDRESS":"成功路３４９巷１２號","OBJECTID":316492},"geometry":{"x":179454.17999999877,"y":2558582.75}},{"attributes":{"ID":316501,"DIS_CODE":0,"TOWNNAME":"善化區","LI":"文昌里","LIN":"7鄰","STREET":"中華路","SECT":" ","MAREA":" ","LANE":"７２巷","ALLEY":" ","HOUSE_NO":"９號","E_COORD97":177275.32000000001,"N_COORD97":2558854.25,"ADDRESS":"中華路７２巷９號","OBJECTID":316493},"geometry":{"x":177275.3200000003,"y":2558854.25}},{"attributes":{"ID":316502,"DIS_CODE":0,"TOWNNAME":"善化區","LI":"小新里","LIN":"7鄰","STREET":"成功路","SECT":" ","MAREA":" ","LANE":"３４９巷","ALLEY":" ","HOUSE_NO":"７號之６","E_COORD97":179477.10000000001,"N_COORD97":2558650.77,"ADDRESS":"成功路３４９巷７號之６","OBJECTID":316494},"geometry":{"x":179477.10000000056,"y":2558650.7699999996}},{"attributes":{"ID":316503,"DIS_CODE":0,"TOWNNAME":"善化區","LI":"小新里","LIN":"7鄰","STREET":"成功路","SECT":" ","MAREA":" ","LANE":"３４９巷","ALLEY":" ","HOUSE_NO":"３２號","E_COORD97":179432.20999999999,"N_COORD97":2558505.25,"ADDRESS":"成功路３４９巷３２號","OBJECTID":316495},"geometry":{"x":179432.20999999903,"y":2558505.25}},{"attributes":{"ID":316504,"DIS_CODE":0,"TOWNNAME":"善化區","LI":"文昌里","LIN":"7鄰","STREET":"中華路","SECT":" ","MAREA":" ","LANE":"９巷","ALLEY":" ","HOUSE_NO":"９號","E_COORD97":177266.34,"N_COORD97":2558635.75,"ADDRESS":"中華路９巷９號","OBJECTID":316496},"geometry":{"x":177266.33999999985,"y":2558635.7500000019}},{"attributes":{"ID":316505,"DIS_CODE":0,"TOWNNAME":"歸仁區","LI":"南保里","LIN":"4鄰","STREET":"文化六街","SECT":" ","MAREA":" ","LANE":"１０巷","ALLEY":" ","HOUSE_NO":"５號","E_COORD97":176832.64000000001,"N_COORD97":2541300.3300000001,"ADDRESS":"文化六街１０巷５號","OBJECTID":316497},"geometry":{"x":176832.6400000006,"y":2541300.3300000019}},{"attributes":{"ID":316506,"DIS_CODE":0,"TOWNNAME":"善化區","LI":"小新里","LIN":"7鄰","STREET":"成功路","SECT":" ","MAREA":" ","LANE":"３４９巷","ALLEY":" ","HOUSE_NO":"１１號","E_COORD97":179455.34,"N_COORD97":2558586.75,"ADDRESS":"成功路３４９巷１１號","OBJECTID":316498},"geometry":{"x":179455.34000000078,"y":2558586.75}},{"attributes":{"ID":316507,"DIS_CODE":0,"TOWNNAME":"善化區","LI":"小新里","LIN":"7鄰","STREET":"成功路","SECT":" ","MAREA":" ","LANE":"３４９巷","ALLEY":" ","HOUSE_NO":"５號之１","E_COORD97":179487.85000000001,"N_COORD97":2558685.27,"ADDRESS":"成功路３４９巷５號之１","OBJECTID":316499},"geometry":{"x":179487.84999999963,"y":2558685.2700000033}},{"attributes":{"ID":316508,"DIS_CODE":0,"TOWNNAME":"善化區","LI":"小新里","LIN":"7鄰","STREET":"成功路","SECT":" ","MAREA":" ","LANE":"３４９巷","ALLEY":" ","HOUSE_NO":"３１號","E_COORD97":179432.51000000001,"N_COORD97":2558509.25,"ADDRESS":"成功路３４９巷３１號","OBJECTID":316500},"geometry":{"x":179432.51000000071,"y":2558509.25}},{"attributes":{"ID":316509,"DIS_CODE":0,"TOWNNAME":"安南區","LI":"州南里","LIN":"7鄰","STREET":"北安路","SECT":"四段","MAREA":" ","LANE":"１７５巷","ALLEY":" ","HOUSE_NO":"３０號","E_COORD97":169349.19,"N_COORD97":2551345.2599999998,"ADDRESS":"北安路四段１７５巷３０號","OBJECTID":316501},"geometry":{"x":169349.19000000041,"y":2551345.2599999979}},{"attributes":{"ID":316510,"DIS_CODE":0,"TOWNNAME":"安南區","LI":"總頭里","LIN":"7鄰","STREET":"長溪路","SECT":"二段","MAREA":" ","LANE":"５９８巷","ALLEY":" ","HOUSE_NO":"３５號之１","E_COORD97":168325.56,"N_COORD97":2550757.1499999999,"ADDRESS":"長溪路二段５９８巷３５號之１","OBJECTID":316502},"geometry":{"x":168325.55999999959,"y":2550757.1500000041}},{"attributes":{"ID":316511,"DIS_CODE":0,"TOWNNAME":"仁德區","LI":"土庫里","LIN":"7鄰","STREET":"土庫三街","SECT":" ","MAREA":" ","LANE":"３９巷","ALLEY":" ","HOUSE_NO":"３２號","E_COORD97":174234.67000000001,"N_COORD97":2543201,"ADDRESS":"土庫三街３９巷３２號","OBJECTID":316503},"geometry":{"x":174234.66999999993,"y":2543201.0000000019}},{"attributes":{"ID":316512,"DIS_CODE":0,"TOWNNAME":"善化區","LI":"坐駕里","LIN":"17鄰","STREET":"文化路","SECT":" ","MAREA":" ","LANE":" ","ALLEY":" ","HOUSE_NO":"１０號六樓之２","E_COORD97":177970.09,"N_COORD97":2558361.29,"ADDRESS":"文化路１０號六樓之２","OBJECTID":316504},"geometry":{"x":177970.09000000171,"y":2558361.2899999991}},{"attributes":{"ID":316513,"DIS_CODE":0,"TOWNNAME":"歸仁區","LI":"南保里","LIN":"4鄰","STREET":"文化六街","SECT":" ","MAREA":" ","LANE":"１０巷","ALLEY":" ","HOUSE_NO":"１０號","E_COORD97":176848.19,"N_COORD97":2541287.3300000001,"ADDRESS":"文化六街１０巷１０號","OBJECTID":316505},"geometry":{"x":176848.19000000134,"y":2541287.3300000019}},{"attributes":{"ID":316514,"DIS_CODE":0,"TOWNNAME":"仁德區","LI":"土庫里","LIN":"7鄰","STREET":"土庫三街","SECT":" ","MAREA":" ","LANE":"３９巷","ALLEY":" ","HOUSE_NO":"３０號","E_COORD97":174234.20999999999,"N_COORD97":2543196.5,"ADDRESS":"土庫三街３９巷３０號","OBJECTID":316506},"geometry":{"x":174234.20999999996,"y":2543196.5}},{"attributes":{"ID":316515,"DIS_CODE":0,"TOWNNAME":"仁德區","LI":"仁義里","LIN":"7鄰","STREET":"中山路","SECT":" ","MAREA":" ","LANE":"４１９巷","ALLEY":" ","HOUSE_NO":"１號","E_COORD97":173795.64999999999,"N_COORD97":2541229.25,"ADDRESS":"中山路４１９巷１號","OBJECTID":316507},"geometry":{"x":173795.6500000013,"y":2541229.2500000019}},{"attributes":{"ID":316516,"DIS_CODE":0,"TOWNNAME":"仁德區","LI":"上崙里","LIN":"7鄰","STREET":"德善路","SECT":" ","MAREA":" ","LANE":"３７６巷","ALLEY":" ","HOUSE_NO":"８號","E_COORD97":174012.95000000001,"N_COORD97":2538210.0099999998,"ADDRESS":"德善路３７６巷８號","OBJECTID":316508},"geometry":{"x":174012.94999999925,"y":2538210.0100000016}},{"attributes":{"ID":316517,"DIS_CODE":0,"TOWNNAME":"仁德區","LI":"仁義里","LIN":"7鄰","STREET":"中山路","SECT":" ","MAREA":" ","LANE":"４１９巷","ALLEY":" ","HOUSE_NO":"２號","E_COORD97":173787.98999999999,"N_COORD97":2541234.75,"ADDRESS":"中山路４１９巷２號","OBJECTID":316509},"geometry":{"x":173787.99000000115,"y":2541234.75}},{"attributes":{"ID":316518,"DIS_CODE":0,"TOWNNAME":"仁德區","LI":"二行里","LIN":"7鄰","STREET":"行大街","SECT":" ","MAREA":" ","LANE":"５６巷","ALLEY":" ","HOUSE_NO":"８號","E_COORD97":170267.79000000001,"N_COORD97":2535247.25,"ADDRESS":"行大街５６巷８號","OBJECTID":316510},"geometry":{"x":170267.79000000097,"y":2535247.25}},{"attributes":{"ID":316519,"DIS_CODE":0,"TOWNNAME":"關廟區","LI":"埤頭里","LIN":"4鄰","STREET":"保東路","SECT":" ","MAREA":" ","LANE":"１１５巷","ALLEY":" ","HOUSE_NO":"１１６號","E_COORD97":178763.82000000001,"N_COORD97":2543944.2999999998,"ADDRESS":"保東路１１５巷１１６號","OBJECTID":316511},"geometry":{"x":178763.8200000003,"y":2543944.3000000007}},{"attributes":{"ID":316520,"DIS_CODE":0,"TOWNNAME":"東區","LI":"後甲里","LIN":"7鄰","STREET":"裕農路","SECT":" ","MAREA":" ","LANE":"６２１巷","ALLEY":" ","HOUSE_NO":"７８號之３","E_COORD97":171614.51000000001,"N_COORD97":2543488.8599999999,"ADDRESS":"裕農路６２１巷７８號之３","OBJECTID":316512},"geometry":{"x":171614.50999999978,"y":2543488.8600000031}},{"attributes":{"ID":316521,"DIS_CODE":0,"TOWNNAME":"東區","LI":"裕農里","LIN":"7鄰","STREET":"裕農路","SECT":" ","MAREA":" ","LANE":"３４５巷","ALLEY":" ","HOUSE_NO":"１１號","E_COORD97":170976.56,"N_COORD97":2543104.73,"ADDRESS":"裕農路３４５巷１１號","OBJECTID":316513},"geometry":{"x":170976.55999999959,"y":2543104.7300000023}},{"attributes":{"ID":316522,"DIS_CODE":0,"TOWNNAME":"東區","LI":"裕農里","LIN":"7鄰","STREET":"裕農路","SECT":" ","MAREA":" ","LANE":"３４５巷","ALLEY":" ","HOUSE_NO":"１３號","E_COORD97":170975.57000000001,"N_COORD97":2543111,"ADDRESS":"裕農路３４５巷１３號","OBJECTID":316514},"geometry":{"x":170975.5700000003,"y":2543111}},{"attributes":{"ID":316523,"DIS_CODE":0,"TOWNNAME":"東區","LI":"裕農里","LIN":"7鄰","STREET":"裕農路","SECT":" ","MAREA":" ","LANE":"３４５巷","ALLEY":" ","HOUSE_NO":"１５號","E_COORD97":170973.26000000001,"N_COORD97":2543116.2799999998,"ADDRESS":"裕農路３４５巷１５號","OBJECTID":316515},"geometry":{"x":170973.26000000071,"y":2543116.2800000031}},{"attributes":{"ID":316524,"DIS_CODE":0,"TOWNNAME":"東區","LI":"忠孝里","LIN":"7鄰","STREET":"榮譽街","SECT":" ","MAREA":" ","LANE":"８４巷","ALLEY":" ","HOUSE_NO":"８３號之２","E_COORD97":169783.12,"N_COORD97":2541609.6499999999,"ADDRESS":"榮譽街８４巷８３號之２","OBJECTID":316516},"geometry":{"x":169783.12000000104,"y":2541609.6500000041}},{"attributes":{"ID":316525,"DIS_CODE":0,"TOWNNAME":"東區","LI":"忠孝里","LIN":"7鄰","STREET":"榮譽街","SECT":" ","MAREA":" ","LANE":"８４巷","ALLEY":" ","HOUSE_NO":"８３號之３","E_COORD97":169788.75,"N_COORD97":2541612.46,"ADDRESS":"榮譽街８４巷８３號之３","OBJECTID":316517},"geometry":{"x":169788.75000000093,"y":2541612.4600000028}},{"attributes":{"ID":316526,"DIS_CODE":0,"TOWNNAME":"東區","LI":"忠孝里","LIN":"7鄰","STREET":"榮譽街","SECT":" ","MAREA":" ","LANE":"８４巷","ALLEY":" ","HOUSE_NO":"８３號之４","E_COORD97":169792.39000000001,"N_COORD97":2541614.1099999999,"ADDRESS":"榮譽街８４巷８３號之４","OBJECTID":316518},"geometry":{"x":169792.3900000006,"y":2541614.1099999994}},{"attributes":{"ID":316527,"DIS_CODE":0,"TOWNNAME":"善化區","LI":"坐駕里","LIN":"17鄰","STREET":"文化路","SECT":" ","MAREA":" ","LANE":" ","ALLEY":" ","HOUSE_NO":"１０號六樓之３","E_COORD97":177970.09,"N_COORD97":2558361.29,"ADDRESS":"文化路１０號六樓之３","OBJECTID":316519},"geometry":{"x":177970.09000000171,"y":2558361.2899999991}},{"attributes":{"ID":316528,"DIS_CODE":0,"TOWNNAME":"新營區","LI":"姑爺里","LIN":"7鄰","STREET":" ","SECT":" ","MAREA":"挖仔","LANE":" ","ALLEY":" ","HOUSE_NO":"８號之３","E_COORD97":173773.94,"N_COORD97":2575583.4500000002,"ADDRESS":"挖仔８之３號","OBJECTID":316520},"geometry":{"x":173773.94000000041,"y":2575583.4499999993}},{"attributes":{"ID":316529,"DIS_CODE":0,"TOWNNAME":"新營區","LI":"延平里","LIN":"7鄰","STREET":"復興路","SECT":" ","MAREA":" ","LANE":" ","ALLEY":" ","HOUSE_NO":"１之２３號","E_COORD97":179701.03865,"N_COORD97":2577954.36711,"ADDRESS":"復興路１之２３號","OBJECTID":316521},"geometry":{"x":179701.03864999954,"y":2577954.3671100009}},{"attributes":{"ID":316530,"DIS_CODE":0,"TOWNNAME":"歸仁區","LI":"南興里","LIN":"25鄰","STREET":"文化二十街","SECT":" ","MAREA":" ","LANE":"１１２巷","ALLEY":" ","HOUSE_NO":"３５號","E_COORD97":175527.39000000001,"N_COORD97":2541376.3300000001,"ADDRESS":"文化二十街１１２巷３５號","OBJECTID":316522},"geometry":{"x":175527.3900000006,"y":2541376.3300000001}},{"attributes":{"ID":316531,"DIS_CODE":0,"TOWNNAME":"歸仁區","LI":"南興里","LIN":"18鄰","STREET":"南興街","SECT":" ","MAREA":" ","LANE":"２０７巷","ALLEY":" ","HOUSE_NO":"８號","E_COORD97":175690.59,"N_COORD97":2541361.25,"ADDRESS":"南興街２０７巷８號","OBJECTID":316523},"geometry":{"x":175690.59000000078,"y":2541361.2500000037}},{"attributes":{"ID":316532,"DIS_CODE":0,"TOWNNAME":"東區","LI":"裕農里","LIN":"7鄰","STREET":"裕農路","SECT":" ","MAREA":" ","LANE":"３４５巷","ALLEY":" ","HOUSE_NO":"８號","E_COORD97":170997.95999999999,"N_COORD97":2543090.2799999998,"ADDRESS":"裕農路３４５巷８號","OBJECTID":316524},"geometry":{"x":170997.95999999996,"y":2543090.2800000012}},{"attributes":{"ID":316533,"DIS_CODE":0,"TOWNNAME":"東區","LI":"後甲里","LIN":"7鄰","STREET":"裕農路","SECT":" ","MAREA":" ","LANE":"６２１巷","ALLEY":" ","HOUSE_NO":"７６號之１","E_COORD97":171618.37,"N_COORD97":2543468.5,"ADDRESS":"裕農路６２１巷７６號之１","OBJECTID":316525},"geometry":{"x":171618.37000000197,"y":2543468.5000000019}},{"attributes":{"ID":316534,"DIS_CODE":0,"TOWNNAME":"東區","LI":"後甲里","LIN":"7鄰","STREET":"裕農路","SECT":" ","MAREA":" ","LANE":"６２１巷","ALLEY":" ","HOUSE_NO":"７６號之５","E_COORD97":171615.95999999999,"N_COORD97":2543484.7599999998,"ADDRESS":"裕農路６２１巷７６號之５","OBJECTID":316526},"geometry":{"x":171615.96000000089,"y":2543484.7600000016}},{"attributes":{"ID":316535,"DIS_CODE":0,"TOWNNAME":"東區","LI":"後甲里","LIN":"7鄰","STREET":"裕農路","SECT":" ","MAREA":" ","LANE":"６２１巷","ALLEY":" ","HOUSE_NO":"７６號之４","E_COORD97":171616.69,"N_COORD97":2543480.5499999998,"ADDRESS":"裕農路６２１巷７６號之４","OBJECTID":316527},"geometry":{"x":171616.69000000134,"y":2543480.5500000007}},{"attributes":{"ID":316536,"DIS_CODE":0,"TOWNNAME":"東區","LI":"衛國里","LIN":"7鄰","STREET":"衛國街","SECT":" ","MAREA":" ","LANE":"１１２巷","ALLEY":" ","HOUSE_NO":"１號之１","E_COORD97":170410.64000000001,"N_COORD97":2543101.5499999998,"ADDRESS":"衛國街１１２巷１號之１","OBJECTID":316528},"geometry":{"x":170410.64000000153,"y":2543101.5500000007}},{"attributes":{"ID":316537,"DIS_CODE":0,"TOWNNAME":"東區","LI":"衛國里","LIN":"7鄰","STREET":"衛國街","SECT":" ","MAREA":" ","LANE":"１１２巷","ALLEY":" ","HOUSE_NO":"３號","E_COORD97":170413.89999999999,"N_COORD97":2543111.5099999998,"ADDRESS":"衛國街１１２巷３號","OBJECTID":316529},"geometry":{"x":170413.90000000037,"y":2543111.5099999998}},{"attributes":{"ID":316538,"DIS_CODE":0,"TOWNNAME":"善化區","LI":"坐駕里","LIN":"17鄰","STREET":"文化路","SECT":" ","MAREA":" ","LANE":" ","ALLEY":" ","HOUSE_NO":"１０號七樓之１","E_COORD97":177970.09,"N_COORD97":2558361.29,"ADDRESS":"文化路１０號七樓之１","OBJECTID":316530},"geometry":{"x":177970.09000000171,"y":2558361.2899999991}},{"attributes":{"ID":316539,"DIS_CODE":0,"TOWNNAME":"善化區","LI":"坐駕里","LIN":"17鄰","STREET":"文化路","SECT":" ","MAREA":" ","LANE":" ","ALLEY":" ","HOUSE_NO":"１０號七樓之２","E_COORD97":177970.09,"N_COORD97":2558361.29,"ADDRESS":"文化路１０號七樓之２","OBJECTID":316531},"geometry":{"x":177970.09000000171,"y":2558361.2899999991}},{"attributes":{"ID":316540,"DIS_CODE":0,"TOWNNAME":"善化區","LI":"坐駕里","LIN":"17鄰","STREET":"文化路","SECT":" ","MAREA":" ","LANE":" ","ALLEY":" ","HOUSE_NO":"１０號七樓之３","E_COORD97":177970.09,"N_COORD97":2558361.29,"ADDRESS":"文化路１０號七樓之３","OBJECTID":316532},"geometry":{"x":177970.09000000171,"y":2558361.2899999991}},{"attributes":{"ID":316541,"DIS_CODE":0,"TOWNNAME":"歸仁區","LI":"歸仁里","LIN":"20鄰","STREET":"大仁二街","SECT":" ","MAREA":" ","LANE":"３２巷","ALLEY":" ","HOUSE_NO":"５號","E_COORD97":178111.64000000001,"N_COORD97":2541137.1099999999,"ADDRESS":"大仁二街３２巷５號","OBJECTID":316533},"geometry":{"x":178111.63999999966,"y":2541137.1099999994}},{"attributes":{"ID":316542,"DIS_CODE":0,"TOWNNAME":"歸仁區","LI":"六甲里","LIN":"39鄰","STREET":"六甲八街","SECT":" ","MAREA":" ","LANE":"１４９巷","ALLEY":" ","HOUSE_NO":"１５２號","E_COORD97":175236.89999999999,"N_COORD97":2539886.73,"ADDRESS":"六甲八街１４９巷１５２號","OBJECTID":316534},"geometry":{"x":175236.90000000037,"y":2539886.7299999986}},{"attributes":{"ID":316543,"DIS_CODE":0,"TOWNNAME":"歸仁區","LI":"六甲里","LIN":"39鄰","STREET":"六甲八街","SECT":" ","MAREA":" ","LANE":"１４９巷","ALLEY":" ","HOUSE_NO":"１１８號","E_COORD97":175227.60000000001,"N_COORD97":2539870.73,"ADDRESS":"六甲八街１４９巷１１８號","OBJECTID":316535},"geometry":{"x":175227.60000000056,"y":2539870.7300000023}},{"attributes":{"ID":316544,"DIS_CODE":0,"TOWNNAME":"東區","LI":"衛國里","LIN":"7鄰","STREET":"衛國街","SECT":" ","MAREA":" ","LANE":"１１２巷","ALLEY":" ","HOUSE_NO":"５號","E_COORD97":170421.57999999999,"N_COORD97":2543112.4700000002,"ADDRESS":"衛國街１１２巷５號","OBJECTID":316536},"geometry":{"x":170421.57999999914,"y":2543112.4700000007}},{"attributes":{"ID":316545,"DIS_CODE":0,"TOWNNAME":"東區","LI":"衛國里","LIN":"7鄰","STREET":"衛國街","SECT":" ","MAREA":" ","LANE":"１１２巷","ALLEY":" ","HOUSE_NO":"７號","E_COORD97":170426.56,"N_COORD97":2543104.4199999999,"ADDRESS":"衛國街１１２巷７號","OBJECTID":316537},"geometry":{"x":170426.56000000052,"y":2543104.4199999999}},{"attributes":{"ID":316546,"DIS_CODE":0,"TOWNNAME":"永康區","LI":"西橋里","LIN":"7鄰","STREET":"中山南路","SECT":" ","MAREA":" ","LANE":"４３巷","ALLEY":" ","HOUSE_NO":"５２號","E_COORD97":170682.17000000001,"N_COORD97":2545981.7400000002,"ADDRESS":"中山南路４３巷５２號","OBJECTID":316538},"geometry":{"x":170682.17000000086,"y":2545981.7400000002}},{"attributes":{"ID":316547,"DIS_CODE":0,"TOWNNAME":"永康區","LI":"西橋里","LIN":"7鄰","STREET":"中山南路","SECT":" ","MAREA":" ","LANE":"４３巷","ALLEY":" ","HOUSE_NO":"５８號","E_COORD97":170675.67000000001,"N_COORD97":2545993,"ADDRESS":"中山南路４３巷５８號","OBJECTID":316539},"geometry":{"x":170675.67000000086,"y":2545993}},{"attributes":{"ID":316548,"DIS_CODE":0,"TOWNNAME":"永康區","LI":"甲頂里","LIN":"7鄰","STREET":"中正南路","SECT":" ","MAREA":" ","LANE":"５２巷","ALLEY":" ","HOUSE_NO":"６３號","E_COORD97":169898.35999999999,"N_COORD97":2546793.96,"ADDRESS":"中正南路５２巷６３號","OBJECTID":316540},"geometry":{"x":169898.36000000127,"y":2546793.9600000009}},{"attributes":{"ID":316549,"DIS_CODE":0,"TOWNNAME":"永康區","LI":"西橋里","LIN":"7鄰","STREET":"中山南路","SECT":" ","MAREA":" ","LANE":"４３巷","ALLEY":" ","HOUSE_NO":"５４號","E_COORD97":170679.66,"N_COORD97":2545985.9900000002,"ADDRESS":"中山南路４３巷５４號","OBJECTID":316541},"geometry":{"x":170679.66000000108,"y":2545985.9900000002}},{"attributes":{"ID":316550,"DIS_CODE":0,"TOWNNAME":"善化區","LI":"坐駕里","LIN":"17鄰","STREET":"文化路","SECT":" ","MAREA":" ","LANE":" ","ALLEY":" ","HOUSE_NO":"１０號八樓之１","E_COORD97":177970.09,"N_COORD97":2558361.29,"ADDRESS":"文化路１０號八樓之１","OBJECTID":316542},"geometry":{"x":177970.09000000171,"y":2558361.2899999991}},{"attributes":{"ID":316551,"DIS_CODE":0,"TOWNNAME":"善化區","LI":"坐駕里","LIN":"17鄰","STREET":"文化路","SECT":" ","MAREA":" ","LANE":" ","ALLEY":" ","HOUSE_NO":"１０號八樓之２","E_COORD97":177970.09,"N_COORD97":2558361.29,"ADDRESS":"文化路１０號八樓之２","OBJECTID":316543},"geometry":{"x":177970.09000000171,"y":2558361.2899999991}},{"attributes":{"ID":316552,"DIS_CODE":0,"TOWNNAME":"善化區","LI":"坐駕里","LIN":"17鄰","STREET":"文化路","SECT":" ","MAREA":" ","LANE":" ","ALLEY":" ","HOUSE_NO":"１０號八樓之３","E_COORD97":177970.09,"N_COORD97":2558361.29,"ADDRESS":"文化路１０號八樓之３","OBJECTID":316544},"geometry":{"x":177970.09000000171,"y":2558361.2899999991}},{"attributes":{"ID":316553,"DIS_CODE":0,"TOWNNAME":"新營區","LI":"埤寮里","LIN":"4鄰","STREET":" ","SECT":" ","MAREA":"許丑","LANE":" ","ALLEY":" ","HOUSE_NO":"４２號","E_COORD97":179799.54000000001,"N_COORD97":2580966.8700000001,"ADDRESS":"許丑４２號","OBJECTID":316545},"geometry":{"x":179799.54000000004,"y":2580966.870000001}},{"attributes":{"ID":316554,"DIS_CODE":0,"TOWNNAME":"新營區","LI":"姑爺里","LIN":" ","STREET":" ","SECT":" ","MAREA":"姑爺","LANE":" ","ALLEY":" ","HOUSE_NO":"４７之４號","E_COORD97":174368.53,"N_COORD97":2574769.75,"ADDRESS":"姑爺４７之４號","OBJECTID":316546},"geometry":{"x":174368.52999999933,"y":2574769.7499999981}},{"attributes":{"ID":316555,"DIS_CODE":0,"TOWNNAME":"新營區","LI":"埤寮里","LIN":" ","STREET":" ","SECT":" ","MAREA":"許丑","LANE":" ","ALLEY":" ","HOUSE_NO":"３之２號","E_COORD97":180057.59,"N_COORD97":2580985.6400000001,"ADDRESS":"許丑３之２號","OBJECTID":316547},"geometry":{"x":180057.59000000078,"y":2580985.6399999987}},{"attributes":{"ID":316556,"DIS_CODE":0,"TOWNNAME":"新營區","LI":"埤寮里","LIN":" ","STREET":" ","SECT":" ","MAREA":"許丑","LANE":" ","ALLEY":" ","HOUSE_NO":"３５之６號","E_COORD97":179974.28,"N_COORD97":2581053.6000000001,"ADDRESS":"許丑３５之６號","OBJECTID":316548},"geometry":{"x":179974.28000000026,"y":2581053.6000000015}},{"attributes":{"ID":316557,"DIS_CODE":0,"TOWNNAME":"歸仁區","LI":"歸南里","LIN":"18鄰","STREET":"民生八街","SECT":" ","MAREA":" ","LANE":"２８巷","ALLEY":" ","HOUSE_NO":"２２號","E_COORD97":176135.34,"N_COORD97":2540420.29,"ADDRESS":"民生八街２８巷２２號","OBJECTID":316549},"geometry":{"x":176135.33999999985,"y":2540420.2899999991}},{"attributes":{"ID":316558,"DIS_CODE":0,"TOWNNAME":"永康區","LI":"西勢里","LIN":"7鄰","STREET":"富強路","SECT":"一段","MAREA":" ","LANE":"３２１巷","ALLEY":" ","HOUSE_NO":"７號","E_COORD97":175668.35999999999,"N_COORD97":2546692.0699999998,"ADDRESS":"富強路一段３２１巷７號","OBJECTID":316550},"geometry":{"x":175668.3600000022,"y":2546692.0699999984}},{"attributes":{"ID":316559,"DIS_CODE":0,"TOWNNAME":"永康區","LI":"安康里","LIN":"7鄰","STREET":"中華西街","SECT":" ","MAREA":" ","LANE":"８巷","ALLEY":" ","HOUSE_NO":"４號","E_COORD97":170866.53,"N_COORD97":2545927.75,"ADDRESS":"中華西街８巷４號","OBJECTID":316551},"geometry":{"x":170866.53000000119,"y":2545927.7499999981}},{"attributes":{"ID":316560,"DIS_CODE":0,"TOWNNAME":"永康區","LI":"西橋里","LIN":"7鄰","STREET":"中山南路","SECT":" ","MAREA":" ","LANE":"４３巷","ALLEY":" ","HOUSE_NO":"５６號","E_COORD97":170677.64999999999,"N_COORD97":2545989.7400000002,"ADDRESS":"中山南路４３巷５６號","OBJECTID":316552},"geometry":{"x":170677.6500000013,"y":2545989.7400000021}},{"attributes":{"ID":316561,"DIS_CODE":0,"TOWNNAME":"永康區","LI":"西灣里","LIN":"7鄰","STREET":"大灣五街","SECT":" ","MAREA":" ","LANE":"９３巷","ALLEY":" ","HOUSE_NO":"７５號","E_COORD97":174590.45000000001,"N_COORD97":2545164.48,"ADDRESS":"大灣五街９３巷７５號","OBJECTID":316553},"geometry":{"x":174590.45000000019,"y":2545164.4800000023}},{"attributes":{"ID":316562,"DIS_CODE":0,"TOWNNAME":"永康區","LI":"西勢里","LIN":"7鄰","STREET":"富強路","SECT":"一段","MAREA":" ","LANE":"３２１巷","ALLEY":" ","HOUSE_NO":"３號","E_COORD97":175684.42999999999,"N_COORD97":2546680.2000000002,"ADDRESS":"富強路一段３２１巷３號","OBJECTID":316554},"geometry":{"x":175684.43000000063,"y":2546680.200000003}},{"attributes":{"ID":316563,"DIS_CODE":0,"TOWNNAME":"永康區","LI":"西橋里","LIN":"7鄰","STREET":"中華西街","SECT":" ","MAREA":" ","LANE":"６３巷","ALLEY":" ","HOUSE_NO":"１５號","E_COORD97":170703.57000000001,"N_COORD97":2546016,"ADDRESS":"中華西街６３巷１５號","OBJECTID":316555},"geometry":{"x":170703.57000000123,"y":2546016.0000000019}},{"attributes":{"ID":316564,"DIS_CODE":0,"TOWNNAME":"永康區","LI":"西灣里","LIN":"7鄰","STREET":"大灣五街","SECT":" ","MAREA":" ","LANE":"９３巷","ALLEY":" ","HOUSE_NO":"６５號","E_COORD97":174572.17999999999,"N_COORD97":2545195.5,"ADDRESS":"大灣五街９３巷６５號","OBJECTID":316556},"geometry":{"x":174572.18000000156,"y":2545195.5000000019}},{"attributes":{"ID":316565,"DIS_CODE":0,"TOWNNAME":"中西區","LI":"三民里","LIN":"7鄰","STREET":"民權路","SECT":"二段","MAREA":" ","LANE":"８３巷","ALLEY":" ","HOUSE_NO":"１０號","E_COORD97":168460.20000000001,"N_COORD97":2543837.8999999999,"ADDRESS":"民權路二段８３巷１０號","OBJECTID":316557},"geometry":{"x":168460.20000000112,"y":2543837.9000000004}},{"attributes":{"ID":316566,"DIS_CODE":0,"TOWNNAME":"佳里區","LI":"安西里","LIN":"1鄰","STREET":"中山路","SECT":" ","MAREA":" ","LANE":" ","ALLEY":" ","HOUSE_NO":"３７１號","E_COORD97":165704.34,"N_COORD97":2562626.27,"ADDRESS":"中山路３７１號","OBJECTID":316558},"geometry":{"x":165704.34000000078,"y":2562626.2700000014}},{"attributes":{"ID":316567,"DIS_CODE":0,"TOWNNAME":"新營區","LI":"大宏里","LIN":"5鄰","STREET":"三民路","SECT":" ","MAREA":" ","LANE":" ","ALLEY":" ","HOUSE_NO":"５４號之２","E_COORD97":180277.16,"N_COORD97":2578499.48,"ADDRESS":"三民路５４號之２","OBJECTID":316559},"geometry":{"x":180277.16000000201,"y":2578499.4800000023}},{"attributes":{"ID":316568,"DIS_CODE":0,"TOWNNAME":"新營區","LI":"民榮里","LIN":" ","STREET":"裕民路","SECT":" ","MAREA":" ","LANE":"３４巷","ALLEY":" ","HOUSE_NO":"２９之１號","E_COORD97":179033.48999999999,"N_COORD97":2577876.3599999999,"ADDRESS":"裕民路３４巷２９之１號","OBJECTID":316560},"geometry":{"x":179033.49000000022,"y":2577876.3599999994}},{"attributes":{"ID":316569,"DIS_CODE":0,"TOWNNAME":"新營區","LI":"民榮里","LIN":" ","STREET":"裕民路","SECT":" ","MAREA":" ","LANE":"３４巷","ALLEY":" ","HOUSE_NO":"２７之２號","E_COORD97":179047.81,"N_COORD97":2577876.29,"ADDRESS":"裕民路３４巷２７之２號","OBJECTID":316561},"geometry":{"x":179047.80999999959,"y":2577876.2899999991}},{"attributes":{"ID":316570,"DIS_CODE":0,"TOWNNAME":"新營區","LI":"忠政里","LIN":"6鄰","STREET":"府西路","SECT":" ","MAREA":" ","LANE":"２２巷","ALLEY":" ","HOUSE_NO":"３１號","E_COORD97":179877.16,"N_COORD97":2579214.5099999998,"ADDRESS":"府西路２２巷３１號","OBJECTID":316562},"geometry":{"x":179877.16000000108,"y":2579214.5099999998}},{"attributes":{"ID":316571,"DIS_CODE":0,"TOWNNAME":"中西區","LI":"三民里","LIN":"7鄰","STREET":"民權路","SECT":"二段","MAREA":" ","LANE":"８３巷","ALLEY":" ","HOUSE_NO":"１２號","E_COORD97":168455.66,"N_COORD97":2543833.6800000002,"ADDRESS":"民權路二段８３巷１２號","OBJECTID":316563},"geometry":{"x":168455.66000000015,"y":2543833.6800000016}},{"attributes":{"ID":316572,"DIS_CODE":0,"TOWNNAME":"中西區","LI":"三民里","LIN":"7鄰","STREET":"民權路","SECT":"二段","MAREA":" ","LANE":"８３巷","ALLEY":" ","HOUSE_NO":"２號","E_COORD97":168467.09,"N_COORD97":2543858.0699999998,"ADDRESS":"民權路二段８３巷２號","OBJECTID":316564},"geometry":{"x":168467.09000000078,"y":2543858.070000004}},{"attributes":{"ID":316573,"DIS_CODE":0,"TOWNNAME":"中西區","LI":"三民里","LIN":"7鄰","STREET":"民權路","SECT":"二段","MAREA":" ","LANE":"８３巷","ALLEY":" ","HOUSE_NO":"６號","E_COORD97":168464.73999999999,"N_COORD97":2543850.1000000001,"ADDRESS":"民權路二段８３巷６號","OBJECTID":316565},"geometry":{"x":168464.74000000115,"y":2543850.0999999978}},{"attributes":{"ID":316574,"DIS_CODE":0,"TOWNNAME":"中西區","LI":"三民里","LIN":"7鄰","STREET":"民權路","SECT":"二段","MAREA":" ","LANE":"８３巷","ALLEY":" ","HOUSE_NO":"８號","E_COORD97":168461.60999999999,"N_COORD97":2543841.9700000002,"ADDRESS":"民權路二段８３巷８號","OBJECTID":316566},"geometry":{"x":168461.61000000034,"y":2543841.9700000044}},{"attributes":{"ID":316575,"DIS_CODE":0,"TOWNNAME":"中西區","LI":"三民里","LIN":"7鄰","STREET":"民權路","SECT":"二段","MAREA":" ","LANE":"９５巷","ALLEY":" ","HOUSE_NO":"１３號","E_COORD97":168436.70999999999,"N_COORD97":2543830.2400000002,"ADDRESS":"民權路二段９５巷１３號","OBJECTID":316567},"geometry":{"x":168436.70999999996,"y":2543830.2400000021}},{"attributes":{"ID":316576,"DIS_CODE":0,"TOWNNAME":"新營區","LI":"埤寮里","LIN":"2鄰","STREET":" ","SECT":" ","MAREA":"許丑","LANE":" ","ALLEY":" ","HOUSE_NO":"２２號之１５","E_COORD97":179995.29000000001,"N_COORD97":2580910.6400000001,"ADDRESS":"許丑２２號之１５","OBJECTID":316568},"geometry":{"x":179995.29000000097,"y":2580910.6400000006}},{"attributes":{"ID":316577,"DIS_CODE":0,"TOWNNAME":"新營區","LI":"埤寮里","LIN":"2鄰","STREET":" ","SECT":" ","MAREA":"許丑","LANE":" ","ALLEY":" ","HOUSE_NO":"２０號之１","E_COORD97":179986.47,"N_COORD97":2581041.3599999999,"ADDRESS":"許丑２０號之１","OBJECTID":316569},"geometry":{"x":179986.47000000067,"y":2581041.3600000013}},{"attributes":{"ID":316578,"DIS_CODE":0,"TOWNNAME":"中西區","LI":"三民里","LIN":"7鄰","STREET":"民權路","SECT":"二段","MAREA":" ","LANE":"９５巷","ALLEY":" ","HOUSE_NO":"１５號","E_COORD97":168435.92999999999,"N_COORD97":2543827.5800000001,"ADDRESS":"民權路二段９５巷１５號","OBJECTID":316570},"geometry":{"x":168435.93000000063,"y":2543827.5800000019}},{"attributes":{"ID":316579,"DIS_CODE":0,"TOWNNAME":"新營區","LI":"埤寮里","LIN":"2鄰","STREET":" ","SECT":" ","MAREA":"許丑","LANE":" ","ALLEY":" ","HOUSE_NO":"２２號之２２","E_COORD97":180006.67999999999,"N_COORD97":2580942.7000000002,"ADDRESS":"許丑２２號之２２","OBJECTID":316571},"geometry":{"x":180006.6799999997,"y":2580942.6999999993}},{"attributes":{"ID":316580,"DIS_CODE":0,"TOWNNAME":"中西區","LI":"三民里","LIN":"7鄰","STREET":"民權路","SECT":"二段","MAREA":" ","LANE":"９５巷","ALLEY":" ","HOUSE_NO":"１７號","E_COORD97":168434.35999999999,"N_COORD97":2543824.1400000001,"ADDRESS":"民權路二段９５巷１７號","OBJECTID":316572},"geometry":{"x":168434.36000000034,"y":2543824.1400000043}},{"attributes":{"ID":316581,"DIS_CODE":0,"TOWNNAME":"中西區","LI":"三民里","LIN":"7鄰","STREET":"民權路","SECT":"二段","MAREA":" ","LANE":"９５巷","ALLEY":" ","HOUSE_NO":"１號","E_COORD97":168448.22,"N_COORD97":2543869.71,"ADDRESS":"民權路二段９５巷１號","OBJECTID":316573},"geometry":{"x":168448.21999999974,"y":2543869.7100000009}},{"attributes":{"ID":316582,"DIS_CODE":0,"TOWNNAME":"中西區","LI":"三民里","LIN":"7鄰","STREET":"民權路","SECT":"二段","MAREA":" ","LANE":"９５巷","ALLEY":" ","HOUSE_NO":"９號","E_COORD97":168438.89999999999,"N_COORD97":2543838.9900000002,"ADDRESS":"民權路二段９５巷９號","OBJECTID":316574},"geometry":{"x":168438.9000000013,"y":2543838.9900000021}},{"attributes":{"ID":316583,"DIS_CODE":0,"TOWNNAME":"新營區","LI":"埤寮里","LIN":" ","STREET":" ","SECT":" ","MAREA":"許丑","LANE":" ","ALLEY":" ","HOUSE_NO":"２２之２號","E_COORD97":180030.10999999999,"N_COORD97":2580971.3799999999,"ADDRESS":"許丑２２之２號","OBJECTID":316575},"geometry":{"x":180030.1100000022,"y":2580971.379999999}},{"attributes":{"ID":316584,"DIS_CODE":0,"TOWNNAME":"中西區","LI":"三民里","LIN":"7鄰","STREET":"忠義路","SECT":"二段","MAREA":" ","LANE":"８４巷","ALLEY":" ","HOUSE_NO":"４３號","E_COORD97":168444.23000000001,"N_COORD97":2543822.5699999998,"ADDRESS":"忠義路二段８４巷４３號","OBJECTID":316576},"geometry":{"x":168444.23000000045,"y":2543822.5700000003}},{"attributes":{"ID":316585,"DIS_CODE":0,"TOWNNAME":"新營區","LI":"護鎮里","LIN":"4鄰","STREET":" ","SECT":" ","MAREA":"後鎮","LANE":" ","ALLEY":" ","HOUSE_NO":"４３之２１號","E_COORD97":179144.47,"N_COORD97":2581213.71,"ADDRESS":"後鎮４３號之２１","OBJECTID":316577},"geometry":{"x":179144.47000000067,"y":2581213.7100000028}},{"attributes":{"ID":316586,"DIS_CODE":0,"TOWNNAME":"善化區","LI":"坐駕里","LIN":"17鄰","STREET":"文化路","SECT":" ","MAREA":" ","LANE":" ","ALLEY":" ","HOUSE_NO":"１０號九樓之１","E_COORD97":177970.09,"N_COORD97":2558361.29,"ADDRESS":"文化路１０號九樓之１","OBJECTID":316578},"geometry":{"x":177970.09000000171,"y":2558361.2899999991}},{"attributes":{"ID":316587,"DIS_CODE":0,"TOWNNAME":"新營區","LI":"鐵線里","LIN":"4鄰","STREET":" ","SECT":" ","MAREA":"鐵線橋","LANE":" ","ALLEY":" ","HOUSE_NO":"３４號","E_COORD97":176062.64000000001,"N_COORD97":2573794.3399999999,"ADDRESS":"鐵線橋３４號","OBJECTID":316579},"geometry":{"x":176062.6400000006,"y":2573794.3400000017}},{"attributes":{"ID":316588,"DIS_CODE":0,"TOWNNAME":"新營區","LI":"埤寮里","LIN":"4鄰","STREET":" ","SECT":" ","MAREA":"許丑","LANE":" ","ALLEY":" ","HOUSE_NO":"４２之１５號","E_COORD97":179779.63,"N_COORD97":2580937.1299999999,"ADDRESS":"許丑４２之１５號","OBJECTID":316580},"geometry":{"x":179779.62999999989,"y":2580937.1300000008}},{"attributes":{"ID":316589,"DIS_CODE":0,"TOWNNAME":"善化區","LI":"坐駕里","LIN":"17鄰","STREET":"文化路","SECT":" ","MAREA":" ","LANE":" ","ALLEY":" ","HOUSE_NO":"１０號九樓之２","E_COORD97":177970.09,"N_COORD97":2558361.29,"ADDRESS":"文化路１０號九樓之２","OBJECTID":316581},"geometry":{"x":177970.09000000171,"y":2558361.2899999991}},{"attributes":{"ID":316590,"DIS_CODE":0,"TOWNNAME":"新營區","LI":"太南里","LIN":"20鄰","STREET":" ","SECT":" ","MAREA":"太子宮","LANE":" ","ALLEY":" ","HOUSE_NO":"３４１號","E_COORD97":176375.23000000001,"N_COORD97":2576943.5,"ADDRESS":"太子宮３４１號","OBJECTID":316582},"geometry":{"x":176375.23000000138,"y":2576943.5}},{"attributes":{"ID":316591,"DIS_CODE":0,"TOWNNAME":"善化區","LI":"坐駕里","LIN":"17鄰","STREET":"文化路","SECT":" ","MAREA":" ","LANE":" ","ALLEY":" ","HOUSE_NO":"１０號九樓之３","E_COORD97":177970.09,"N_COORD97":2558361.29,"ADDRESS":"文化路１０號九樓之３","OBJECTID":316583},"geometry":{"x":177970.09000000171,"y":2558361.2899999991}},{"attributes":{"ID":316592,"DIS_CODE":0,"TOWNNAME":"善化區","LI":"坐駕里","LIN":"17鄰","STREET":"文化路","SECT":" ","MAREA":" ","LANE":" ","ALLEY":" ","HOUSE_NO":"１０號十樓之１","E_COORD97":177970.09,"N_COORD97":2558361.29,"ADDRESS":"文化路１０號十樓之１","OBJECTID":316584},"geometry":{"x":177970.09000000171,"y":2558361.2899999991}},{"attributes":{"ID":316593,"DIS_CODE":0,"TOWNNAME":"新營區","LI":"忠政里","LIN":"25鄰","STREET":"府西路","SECT":" ","MAREA":" ","LANE":" ","ALLEY":" ","HOUSE_NO":"８６號","E_COORD97":179812.06,"N_COORD97":2579295.6600000001,"ADDRESS":"府西路８６號","OBJECTID":316585},"geometry":{"x":179812.05999999959,"y":2579295.6600000001}},{"attributes":{"ID":316594,"DIS_CODE":0,"TOWNNAME":"新營區","LI":"延平里","LIN":"7鄰","STREET":"復興路","SECT":" ","MAREA":" ","LANE":" ","ALLEY":" ","HOUSE_NO":"１之２４號","E_COORD97":179700.37638999999,"N_COORD97":2577953.5270600002,"ADDRESS":"復興路１之２４號","OBJECTID":316586},"geometry":{"x":179700.37639000081,"y":2577953.5270580016}},{"attributes":{"ID":316595,"DIS_CODE":0,"TOWNNAME":"新營區","LI":"埤寮里","LIN":"2鄰","STREET":" ","SECT":" ","MAREA":"許丑","LANE":" ","ALLEY":" ","HOUSE_NO":"２１號之２","E_COORD97":180018.95000000001,"N_COORD97":2580989.1499999999,"ADDRESS":"許丑２１號之２","OBJECTID":316587},"geometry":{"x":180018.95000000019,"y":2580989.1500000041}},{"attributes":{"ID":316596,"DIS_CODE":0,"TOWNNAME":"新營區","LI":"護鎮里","LIN":"4鄰","STREET":" ","SECT":" ","MAREA":"後鎮","LANE":" ","ALLEY":" ","HOUSE_NO":"４３號之７","E_COORD97":179196.88,"N_COORD97":2581236.71,"ADDRESS":"後鎮４３之７號","OBJECTID":316588},"geometry":{"x":179196.87999999989,"y":2581236.7100000046}},{"attributes":{"ID":316597,"DIS_CODE":0,"TOWNNAME":"新營區","LI":"護鎮里","LIN":"4鄰","STREET":" ","SECT":" ","MAREA":"後鎮","LANE":" ","ALLEY":" ","HOUSE_NO":"４３號之１６","E_COORD97":179141.91,"N_COORD97":2581241.3999999999,"ADDRESS":"後鎮４３之１６號","OBJECTID":316589},"geometry":{"x":179141.91000000108,"y":2581241.4000000041}},{"attributes":{"ID":316598,"DIS_CODE":0,"TOWNNAME":"新營區","LI":"民榮里","LIN":" ","STREET":"裕民路","SECT":" ","MAREA":" ","LANE":"１６巷","ALLEY":" ","HOUSE_NO":"２５之２號","E_COORD97":179052.09,"N_COORD97":2577912.8199999998,"ADDRESS":"裕民路１６巷２５之２號","OBJECTID":316590},"geometry":{"x":179052.09000000078,"y":2577912.820000004}},{"attributes":{"ID":316599,"DIS_CODE":0,"TOWNNAME":"新營區","LI":"南紙里","LIN":"20鄰","STREET":"南紙街","SECT":" ","MAREA":" ","LANE":"１１７巷","ALLEY":" ","HOUSE_NO":"２７號","E_COORD97":177909.07000000001,"N_COORD97":2577496.3300000001,"ADDRESS":"南紙街１１７巷２７號","OBJECTID":316591},"geometry":{"x":177909.0700000003,"y":2577496.3300000019}},{"attributes":{"ID":316600,"DIS_CODE":0,"TOWNNAME":"中西區","LI":"三民里","LIN":"7鄰","STREET":"忠義路","SECT":"二段","MAREA":" ","LANE":"８４巷","ALLEY":" ","HOUSE_NO":"４５號","E_COORD97":168452.20999999999,"N_COORD97":2543823.5099999998,"ADDRESS":"忠義路二段８４巷４５號","OBJECTID":316592},"geometry":{"x":168452.20999999996,"y":2543823.5099999998}},{"attributes":{"ID":316601,"DIS_CODE":0,"TOWNNAME":"中西區","LI":"三民里","LIN":"7鄰","STREET":"忠義路","SECT":"二段","MAREA":" ","LANE":"８４巷","ALLEY":" ","HOUSE_NO":"４７號","E_COORD97":168455.34,"N_COORD97":2543821.6299999999,"ADDRESS":"忠義路二段８４巷４７號","OBJECTID":316593},"geometry":{"x":168455.34000000078,"y":2543821.629999999}},{"attributes":{"ID":316602,"DIS_CODE":0,"TOWNNAME":"中西區","LI":"萬昌里","LIN":"7鄰","STREET":"府前路","SECT":"一段","MAREA":" ","LANE":"９０巷","ALLEY":" ","HOUSE_NO":"３９號","E_COORD97":168889.17000000001,"N_COORD97":2543367.3799999999,"ADDRESS":"府前路一段９０巷３９號","OBJECTID":316594},"geometry":{"x":168889.17000000086,"y":2543367.3800000008}},{"attributes":{"ID":316603,"DIS_CODE":0,"TOWNNAME":"中西區","LI":"萬昌里","LIN":"7鄰","STREET":"府前路","SECT":"一段","MAREA":" ","LANE":"９０巷","ALLEY":" ","HOUSE_NO":"４１號","E_COORD97":168889.64999999999,"N_COORD97":2543372.1499999999,"ADDRESS":"府前路一段９０巷４１號","OBJECTID":316595},"geometry":{"x":168889.6500000013,"y":2543372.1500000004}},{"attributes":{"ID":316604,"DIS_CODE":0,"TOWNNAME":"新營區","LI":"護鎮里","LIN":"4鄰","STREET":" ","SECT":" ","MAREA":"後鎮","LANE":" ","ALLEY":" ","HOUSE_NO":"４３號之３０","E_COORD97":179165.20000000001,"N_COORD97":2581194.77,"ADDRESS":"後鎮４３之３０號","OBJECTID":316596},"geometry":{"x":179165.20000000112,"y":2581194.7700000014}},{"attributes":{"ID":316605,"DIS_CODE":0,"TOWNNAME":"中西區","LI":"萬昌里","LIN":"7鄰","STREET":"府前路","SECT":"一段","MAREA":" ","LANE":"９０巷","ALLEY":" ","HOUSE_NO":"４３號","E_COORD97":168891.38,"N_COORD97":2543375.6699999999,"ADDRESS":"府前路一段９０巷４３號","OBJECTID":316597},"geometry":{"x":168891.37999999989,"y":2543375.6700000037}},{"attributes":{"ID":316606,"DIS_CODE":0,"TOWNNAME":"中西區","LI":"萬昌里","LIN":"7鄰","STREET":"府前路","SECT":"一段","MAREA":" ","LANE":"９０巷","ALLEY":" ","HOUSE_NO":"４５號","E_COORD97":168893.60000000001,"N_COORD97":2543378.6499999999,"ADDRESS":"府前路一段９０巷４５號","OBJECTID":316598},"geometry":{"x":168893.5999999987,"y":2543378.6500000004}},{"attributes":{"ID":316607,"DIS_CODE":0,"TOWNNAME":"中西區","LI":"萬昌里","LIN":"7鄰","STREET":"府前路","SECT":"一段","MAREA":" ","LANE":"９０巷","ALLEY":" ","HOUSE_NO":"４７號","E_COORD97":168895.88,"N_COORD97":2543381.5499999998,"ADDRESS":"府前路一段９０巷４７號","OBJECTID":316599},"geometry":{"x":168895.88000000082,"y":2543381.5500000026}},{"attributes":{"ID":316608,"DIS_CODE":0,"TOWNNAME":"中西區","LI":"萬昌里","LIN":"7鄰","STREET":"府前路","SECT":"一段","MAREA":" ","LANE":"９０巷","ALLEY":" ","HOUSE_NO":"４９號","E_COORD97":168898.72,"N_COORD97":2543385.2799999998,"ADDRESS":"府前路一段９０巷４９號","OBJECTID":316600},"geometry":{"x":168898.72000000067,"y":2543385.2800000012}}]}