{"displayFieldName":"TOWNNAME","fieldAliases":{"ID":"ID","DIS_CODE":"DIS_CODE","TOWNNAME":"TOWNNAME","LI":"LI","LIN":"LIN","STREET":"STREET","SECT":"SECT","MAREA":"MAREA","LANE":"LANE","ALLEY":"ALLEY","HOUSE_NO":"HOUSE_NO","E_COORD97":"E_COORD97","N_COORD97":"N_COORD97","ADDRESS":"ADDRESS","OBJECTID":"OBJECTID"},"geometryType":"esriGeometryPoint","spatialReference":{"wkid":102443,"latestWkid":3826},"fields":[{"name":"ID","type":"esriFieldTypeDouble","alias":"ID"},{"name":"DIS_CODE","type":"esriFieldTypeInteger","alias":"DIS_CODE"},{"name":"TOWNNAME","type":"esriFieldTypeString","alias":"TOWNNAME","length":8},{"name":"LI","type":"esriFieldTypeString","alias":"LI","length":8},{"name":"LIN","type":"esriFieldTypeString","alias":"LIN","length":12},{"name":"STREET","type":"esriFieldTypeString","alias":"STREET","length":20},{"name":"SECT","type":"esriFieldTypeString","alias":"SECT","length":8},{"name":"MAREA","type":"esriFieldTypeString","alias":"MAREA","length":12},{"name":"LANE","type":"esriFieldTypeString","alias":"LANE","length":10},{"name":"ALLEY","type":"esriFieldTypeString","alias":"ALLEY","length":10},{"name":"HOUSE_NO","type":"esriFieldTypeString","alias":"HOUSE_NO","length":20},{"name":"E_COORD97","type":"esriFieldTypeDouble","alias":"E_COORD97"},{"name":"N_COORD97","type":"esriFieldTypeDouble","alias":"N_COORD97"},{"name":"ADDRESS","type":"esriFieldTypeString","alias":"ADDRESS","length":50},{"name":"OBJECTID","type":"esriFieldTypeOID","alias":"OBJECTID"}],"features":[{"attributes":{"ID":17801,"DIS_CODE":0,"TOWNNAME":"永康區","LI":"五王里","LIN":"34鄰","STREET":"中華路","SECT":" ","MAREA":" ","LANE":"５７８巷","ALLEY":"１０弄","HOUSE_NO":"８號","E_COORD97":171345.60999999999,"N_COORD97":2545938.2400000002,"ADDRESS":"中華路５７８巷１０弄８號","OBJECTID":17801},"geometry":{"x":171345.6100000022,"y":2545938.2399999984}},{"attributes":{"ID":17802,"DIS_CODE":0,"TOWNNAME":"永康區","LI":"北灣里","LIN":"34鄰","STREET":"大灣路","SECT":" ","MAREA":" ","LANE":"４０巷","ALLEY":"２６弄","HOUSE_NO":"１９號之３","E_COORD97":175220.48999999999,"N_COORD97":2546094.8500000001,"ADDRESS":"大灣路４０巷２６弄１９號之３","OBJECTID":17802},"geometry":{"x":175220.49000000115,"y":2546094.8499999996}},{"attributes":{"ID":17803,"DIS_CODE":0,"TOWNNAME":"永康區","LI":"崑山里","LIN":"34鄰","STREET":"大灣路","SECT":" ","MAREA":" ","LANE":"９４２巷","ALLEY":"１９４弄","HOUSE_NO":"８號","E_COORD97":173825.41,"N_COORD97":2544961.3799999999,"ADDRESS":"大灣路９４２巷１９４弄８號","OBJECTID":17803},"geometry":{"x":173825.41000000108,"y":2544961.3800000008}},{"attributes":{"ID":17804,"DIS_CODE":0,"TOWNNAME":"永康區","LI":"埔園里","LIN":"34鄰","STREET":"八德街","SECT":" ","MAREA":" ","LANE":"８８巷","ALLEY":"１６弄","HOUSE_NO":"１０號","E_COORD97":174223,"N_COORD97":2548556.98,"ADDRESS":"八德街８８巷１６弄１０號","OBJECTID":17804},"geometry":{"x":174223.00000000093,"y":2548556.9800000004}},{"attributes":{"ID":17805,"DIS_CODE":0,"TOWNNAME":"永康區","LI":"埔園里","LIN":"34鄰","STREET":"八德街","SECT":" ","MAREA":" ","LANE":"８８巷","ALLEY":"１６弄","HOUSE_NO":"１號","E_COORD97":174208.70000000001,"N_COORD97":2548565.1299999999,"ADDRESS":"八德街８８巷１６弄１號","OBJECTID":17805},"geometry":{"x":174208.70000000112,"y":2548565.1299999971}},{"attributes":{"ID":17806,"DIS_CODE":0,"TOWNNAME":"東山區","LI":"聖賢里","LIN":"14鄰","STREET":" ","SECT":" ","MAREA":"田尾","LANE":" ","ALLEY":" ","HOUSE_NO":"５４號","E_COORD97":184621.32000000001,"N_COORD97":2578484.73,"ADDRESS":"田尾５４號","OBJECTID":17806},"geometry":{"x":184621.32000000123,"y":2578484.7300000004}},{"attributes":{"ID":17807,"DIS_CODE":0,"TOWNNAME":"玉井區","LI":"中正里","LIN":"14鄰","STREET":" ","SECT":" ","MAREA":"中正","LANE":" ","ALLEY":" ","HOUSE_NO":"１５８號","E_COORD97":196007.31,"N_COORD97":2560997.2400000002,"ADDRESS":"中正１５８號","OBJECTID":17807},"geometry":{"x":196007.31000000052,"y":2560997.2400000002}},{"attributes":{"ID":17808,"DIS_CODE":0,"TOWNNAME":"永康區","LI":"埔園里","LIN":"34鄰","STREET":"八德街","SECT":" ","MAREA":" ","LANE":"８８巷","ALLEY":"１６弄","HOUSE_NO":"２號","E_COORD97":174206.97,"N_COORD97":2548558.5,"ADDRESS":"八德街８８巷１６弄２號","OBJECTID":17808},"geometry":{"x":174206.96999999974,"y":2548558.5000000019}},{"attributes":{"ID":17809,"DIS_CODE":0,"TOWNNAME":"永康區","LI":"埔園里","LIN":"34鄰","STREET":"八德街","SECT":" ","MAREA":" ","LANE":"８８巷","ALLEY":"１６弄","HOUSE_NO":"３號","E_COORD97":174213.07999999999,"N_COORD97":2548564.8199999998,"ADDRESS":"八德街８８巷１６弄３號","OBJECTID":17809},"geometry":{"x":174213.08000000007,"y":2548564.8200000003}},{"attributes":{"ID":17810,"DIS_CODE":0,"TOWNNAME":"永康區","LI":"埔園里","LIN":"34鄰","STREET":"八德街","SECT":" ","MAREA":" ","LANE":"８８巷","ALLEY":"１６弄","HOUSE_NO":"５號","E_COORD97":174217.88,"N_COORD97":2548564.4100000001,"ADDRESS":"八德街８８巷１６弄５號","OBJECTID":17810},"geometry":{"x":174217.87999999989,"y":2548564.4100000001}},{"attributes":{"ID":17811,"DIS_CODE":0,"TOWNNAME":"永康區","LI":"埔園里","LIN":"34鄰","STREET":"八德街","SECT":" ","MAREA":" ","LANE":"８８巷","ALLEY":"１６弄","HOUSE_NO":"６號","E_COORD97":174212.26999999999,"N_COORD97":2548558,"ADDRESS":"八德街８８巷１６弄６號","OBJECTID":17811},"geometry":{"x":174212.27000000048,"y":2548558.0000000019}},{"attributes":{"ID":17812,"DIS_CODE":0,"TOWNNAME":"柳營區","LI":"神農里","LIN":"14鄰","STREET":" ","SECT":" ","MAREA":"果毅後","LANE":" ","ALLEY":" ","HOUSE_NO":"３７６號","E_COORD97":185232.95999999999,"N_COORD97":2573015.1000000001,"ADDRESS":"果毅後３７６號","OBJECTID":17812},"geometry":{"x":185232.95999999996,"y":2573015.1000000015}},{"attributes":{"ID":17813,"DIS_CODE":0,"TOWNNAME":"永康區","LI":"埔園里","LIN":"34鄰","STREET":"八德街","SECT":" ","MAREA":" ","LANE":"８８巷","ALLEY":"１６弄","HOUSE_NO":"７號","E_COORD97":174222.87,"N_COORD97":2548564.3100000001,"ADDRESS":"八德街８８巷１６弄７號","OBJECTID":17813},"geometry":{"x":174222.87000000104,"y":2548564.3100000005}},{"attributes":{"ID":17814,"DIS_CODE":0,"TOWNNAME":"永康區","LI":"埔園里","LIN":"34鄰","STREET":"八德街","SECT":" ","MAREA":" ","LANE":"８８巷","ALLEY":"１６弄","HOUSE_NO":"８號","E_COORD97":174217.37,"N_COORD97":2548557.3799999999,"ADDRESS":"八德街８８巷１６弄８號","OBJECTID":17814},"geometry":{"x":174217.37000000104,"y":2548557.3800000008}},{"attributes":{"ID":17815,"DIS_CODE":0,"TOWNNAME":"永康區","LI":"埔園里","LIN":"34鄰","STREET":"八德街","SECT":" ","MAREA":" ","LANE":"８８巷","ALLEY":"４０弄","HOUSE_NO":"１０號","E_COORD97":174229.03,"N_COORD97":2548607.8599999999,"ADDRESS":"八德街８８巷４０弄１０號","OBJECTID":17815},"geometry":{"x":174229.03000000026,"y":2548607.8599999994}},{"attributes":{"ID":17816,"DIS_CODE":0,"TOWNNAME":"永康區","LI":"埔園里","LIN":"34鄰","STREET":"八德街","SECT":" ","MAREA":" ","LANE":"８８巷","ALLEY":"４０弄","HOUSE_NO":"２號","E_COORD97":174213.66,"N_COORD97":2548609,"ADDRESS":"八德街８８巷４０弄２號","OBJECTID":17816},"geometry":{"x":174213.66000000108,"y":2548609.0000000019}},{"attributes":{"ID":17817,"DIS_CODE":0,"TOWNNAME":"永康區","LI":"埔園里","LIN":"34鄰","STREET":"八德街","SECT":" ","MAREA":" ","LANE":"８８巷","ALLEY":"４０弄","HOUSE_NO":"６號","E_COORD97":174218.60000000001,"N_COORD97":2548608.54,"ADDRESS":"八德街８８巷４０弄６號","OBJECTID":17817},"geometry":{"x":174218.60000000056,"y":2548608.5399999991}},{"attributes":{"ID":17818,"DIS_CODE":0,"TOWNNAME":"永康區","LI":"埔園里","LIN":"34鄰","STREET":"八德街","SECT":" ","MAREA":" ","LANE":"８８巷","ALLEY":"４０弄","HOUSE_NO":"８號","E_COORD97":174222.5,"N_COORD97":2548608.6600000001,"ADDRESS":"八德街８８巷４０弄８號","OBJECTID":17818},"geometry":{"x":174222.5,"y":2548608.660000002}},{"attributes":{"ID":17819,"DIS_CODE":0,"TOWNNAME":"永康區","LI":"北灣里","LIN":"34鄰","STREET":"大灣路","SECT":" ","MAREA":" ","LANE":"４０巷","ALLEY":"２６弄","HOUSE_NO":"１６號","E_COORD97":175227.91,"N_COORD97":2546018.1099999999,"ADDRESS":"大灣路４０巷２６弄１６號","OBJECTID":17819},"geometry":{"x":175227.91000000108,"y":2546018.1099999994}},{"attributes":{"ID":17820,"DIS_CODE":0,"TOWNNAME":"永康區","LI":"北灣里","LIN":"34鄰","STREET":"大灣路","SECT":" ","MAREA":" ","LANE":"４０巷","ALLEY":"２６弄","HOUSE_NO":"１８號","E_COORD97":175219.81,"N_COORD97":2546026.0899999999,"ADDRESS":"大灣路４０巷２６弄１８號","OBJECTID":17820},"geometry":{"x":175219.80999999959,"y":2546026.0899999999}},{"attributes":{"ID":17821,"DIS_CODE":0,"TOWNNAME":"永康區","LI":"北灣里","LIN":"34鄰","STREET":"大灣路","SECT":" ","MAREA":" ","LANE":"４０巷","ALLEY":"２６弄","HOUSE_NO":"２０號","E_COORD97":175215.89999999999,"N_COORD97":2546029.7799999998,"ADDRESS":"大灣路４０巷２６弄２０號","OBJECTID":17821},"geometry":{"x":175215.9000000013,"y":2546029.7800000012}},{"attributes":{"ID":17822,"DIS_CODE":0,"TOWNNAME":"永康區","LI":"北灣里","LIN":"34鄰","STREET":"大灣路","SECT":" ","MAREA":" ","LANE":"４０巷","ALLEY":"２６弄","HOUSE_NO":"２２號","E_COORD97":175233.79999999999,"N_COORD97":2546048.96,"ADDRESS":"大灣路４０巷２６弄２２號","OBJECTID":17822},"geometry":{"x":175233.79999999981,"y":2546048.9600000009}},{"attributes":{"ID":17823,"DIS_CODE":0,"TOWNNAME":"永康區","LI":"北灣里","LIN":"34鄰","STREET":"大灣路","SECT":" ","MAREA":" ","LANE":"４０巷","ALLEY":"２６弄","HOUSE_NO":"２６號","E_COORD97":175237.45000000001,"N_COORD97":2546044.9399999999,"ADDRESS":"大灣路４０巷２６弄２６號","OBJECTID":17823},"geometry":{"x":175237.45000000112,"y":2546044.9400000032}},{"attributes":{"ID":17824,"DIS_CODE":0,"TOWNNAME":"永康區","LI":"北灣里","LIN":"34鄰","STREET":"大灣路","SECT":" ","MAREA":" ","LANE":"４０巷","ALLEY":"２６弄","HOUSE_NO":"２８號","E_COORD97":175241.17999999999,"N_COORD97":2546040.9900000002,"ADDRESS":"大灣路４０巷２６弄２８號","OBJECTID":17824},"geometry":{"x":175241.1799999997,"y":2546040.9900000002}},{"attributes":{"ID":17825,"DIS_CODE":0,"TOWNNAME":"永康區","LI":"北灣里","LIN":"34鄰","STREET":"大灣路","SECT":" ","MAREA":" ","LANE":"４０巷","ALLEY":"２６弄","HOUSE_NO":"２號","E_COORD97":175207.62,"N_COORD97":2546020.7400000002,"ADDRESS":"大灣路４０巷２６弄２號","OBJECTID":17825},"geometry":{"x":175207.62000000104,"y":2546020.7400000021}},{"attributes":{"ID":17826,"DIS_CODE":0,"TOWNNAME":"永康區","LI":"北灣里","LIN":"34鄰","STREET":"大灣路","SECT":" ","MAREA":" ","LANE":"４０巷","ALLEY":"２６弄","HOUSE_NO":"３０號","E_COORD97":175244.82999999999,"N_COORD97":2546037.4199999999,"ADDRESS":"大灣路４０巷２６弄３０號","OBJECTID":17826},"geometry":{"x":175244.83000000101,"y":2546037.4199999999}},{"attributes":{"ID":17827,"DIS_CODE":0,"TOWNNAME":"新營區","LI":"王公里","LIN":"28鄰","STREET":"大公街","SECT":" ","MAREA":" ","LANE":"４６巷","ALLEY":"４弄","HOUSE_NO":"２０號","E_COORD97":180186.81567499999,"N_COORD97":2579606.4280900001,"ADDRESS":"大公街４６巷４弄２０號","OBJECTID":17827},"geometry":{"x":180186.81567500066,"y":2579606.4280890003}},{"attributes":{"ID":17828,"DIS_CODE":0,"TOWNNAME":"永康區","LI":"北灣里","LIN":"34鄰","STREET":"大灣路","SECT":" ","MAREA":" ","LANE":"４０巷","ALLEY":"２６弄","HOUSE_NO":"３１號","E_COORD97":175242.95999999999,"N_COORD97":2546056.9300000002,"ADDRESS":"大灣路４０巷２６弄３１號","OBJECTID":17828},"geometry":{"x":175242.95999999996,"y":2546056.9300000016}},{"attributes":{"ID":17829,"DIS_CODE":0,"TOWNNAME":"永康區","LI":"北灣里","LIN":"34鄰","STREET":"大灣路","SECT":" ","MAREA":" ","LANE":"４０巷","ALLEY":"２６弄","HOUSE_NO":"３２號","E_COORD97":175249.22,"N_COORD97":2546033.6200000001,"ADDRESS":"大灣路４０巷２６弄３２號","OBJECTID":17829},"geometry":{"x":175249.21999999974,"y":2546033.620000001}},{"attributes":{"ID":17830,"DIS_CODE":0,"TOWNNAME":"永康區","LI":"北灣里","LIN":"34鄰","STREET":"大灣路","SECT":" ","MAREA":" ","LANE":"４０巷","ALLEY":"２６弄","HOUSE_NO":"３３號","E_COORD97":175246.60000000001,"N_COORD97":2546053.0600000001,"ADDRESS":"大灣路４０巷２６弄３３號","OBJECTID":17830},"geometry":{"x":175246.59999999963,"y":2546053.0600000024}},{"attributes":{"ID":17831,"DIS_CODE":0,"TOWNNAME":"永康區","LI":"北灣里","LIN":"34鄰","STREET":"大灣路","SECT":" ","MAREA":" ","LANE":"４０巷","ALLEY":"２６弄","HOUSE_NO":"３５號","E_COORD97":175250.16,"N_COORD97":2546049.29,"ADDRESS":"大灣路４０巷２６弄３５號","OBJECTID":17831},"geometry":{"x":175250.16000000015,"y":2546049.290000001}},{"attributes":{"ID":17832,"DIS_CODE":0,"TOWNNAME":"永康區","LI":"北灣里","LIN":"34鄰","STREET":"大灣路","SECT":" ","MAREA":" ","LANE":"４０巷","ALLEY":"２６弄","HOUSE_NO":"３６號","E_COORD97":175252.56,"N_COORD97":2546030.1299999999,"ADDRESS":"大灣路４０巷２６弄３６號","OBJECTID":17832},"geometry":{"x":175252.56000000145,"y":2546030.1300000008}},{"attributes":{"ID":17833,"DIS_CODE":0,"TOWNNAME":"永康區","LI":"北灣里","LIN":"34鄰","STREET":"大灣路","SECT":" ","MAREA":" ","LANE":"４０巷","ALLEY":"２６弄","HOUSE_NO":"３７號","E_COORD97":175254.13,"N_COORD97":2546045.5299999998,"ADDRESS":"大灣路４０巷２６弄３７號","OBJECTID":17833},"geometry":{"x":175254.13000000175,"y":2546045.5300000012}},{"attributes":{"ID":17834,"DIS_CODE":0,"TOWNNAME":"永康區","LI":"北灣里","LIN":"34鄰","STREET":"大灣路","SECT":" ","MAREA":" ","LANE":"４０巷","ALLEY":"２６弄","HOUSE_NO":"３８號","E_COORD97":175257.04000000001,"N_COORD97":2546026.3100000001,"ADDRESS":"大灣路４０巷２６弄３８號","OBJECTID":17834},"geometry":{"x":175257.04000000097,"y":2546026.3100000042}},{"attributes":{"ID":17835,"DIS_CODE":0,"TOWNNAME":"永康區","LI":"北灣里","LIN":"34鄰","STREET":"大灣路","SECT":" ","MAREA":" ","LANE":"４０巷","ALLEY":"２６弄","HOUSE_NO":"３９號","E_COORD97":175258.01000000001,"N_COORD97":2546041.8900000001,"ADDRESS":"大灣路４０巷２６弄３９號","OBJECTID":17835},"geometry":{"x":175258.00999999978,"y":2546041.8900000006}},{"attributes":{"ID":17836,"DIS_CODE":0,"TOWNNAME":"永康區","LI":"北灣里","LIN":"34鄰","STREET":"大灣路","SECT":" ","MAREA":" ","LANE":"４０巷","ALLEY":"２６弄","HOUSE_NO":"４１號","E_COORD97":175262.14999999999,"N_COORD97":2546038.6299999999,"ADDRESS":"大灣路４０巷２６弄４１號","OBJECTID":17836},"geometry":{"x":175262.15000000037,"y":2546038.629999999}},{"attributes":{"ID":17837,"DIS_CODE":0,"TOWNNAME":"永康區","LI":"北灣里","LIN":"34鄰","STREET":"大灣路","SECT":" ","MAREA":" ","LANE":"４０巷","ALLEY":"２６弄","HOUSE_NO":"６號","E_COORD97":175211.60999999999,"N_COORD97":2546017.04,"ADDRESS":"大灣路４０巷２６弄６號","OBJECTID":17837},"geometry":{"x":175211.61000000034,"y":2546017.040000001}},{"attributes":{"ID":17838,"DIS_CODE":0,"TOWNNAME":"永康區","LI":"北灣里","LIN":"34鄰","STREET":"大灣路","SECT":" ","MAREA":" ","LANE":"４０巷","ALLEY":"２６弄","HOUSE_NO":"８號","E_COORD97":175218.42999999999,"N_COORD97":2546009.5699999998,"ADDRESS":"大灣路４０巷２６弄８號","OBJECTID":17838},"geometry":{"x":175218.43000000063,"y":2546009.5700000003}},{"attributes":{"ID":17839,"DIS_CODE":0,"TOWNNAME":"永康區","LI":"北灣里","LIN":"34鄰","STREET":"大灣路","SECT":" ","MAREA":" ","LANE":"４０巷","ALLEY":"３８弄","HOUSE_NO":"１８號","E_COORD97":175177.45000000001,"N_COORD97":2546051.6899999999,"ADDRESS":"大灣路４０巷３８弄１８號","OBJECTID":17839},"geometry":{"x":175177.45000000019,"y":2546051.6899999995}},{"attributes":{"ID":17840,"DIS_CODE":0,"TOWNNAME":"永康區","LI":"北灣里","LIN":"34鄰","STREET":"大灣路","SECT":" ","MAREA":" ","LANE":"４０巷","ALLEY":"３８弄","HOUSE_NO":"２０號","E_COORD97":175180.45000000001,"N_COORD97":2546055.1099999999,"ADDRESS":"大灣路４０巷３８弄２０號","OBJECTID":17840},"geometry":{"x":175180.45000000019,"y":2546055.1100000013}},{"attributes":{"ID":17841,"DIS_CODE":0,"TOWNNAME":"永康區","LI":"北灣里","LIN":"34鄰","STREET":"大灣路","SECT":" ","MAREA":" ","LANE":"４０巷","ALLEY":"３８弄","HOUSE_NO":"２２號","E_COORD97":175183.03,"N_COORD97":2546058.8300000001,"ADDRESS":"大灣路４０巷３８弄２２號","OBJECTID":17841},"geometry":{"x":175183.03000000119,"y":2546058.8300000001}},{"attributes":{"ID":17842,"DIS_CODE":0,"TOWNNAME":"柳營區","LI":"神農里","LIN":"14鄰","STREET":" ","SECT":" ","MAREA":"果毅後","LANE":" ","ALLEY":" ","HOUSE_NO":"３７７號","E_COORD97":185209.72,"N_COORD97":2573002.3599999999,"ADDRESS":"果毅後３７７號","OBJECTID":17842},"geometry":{"x":185209.72000000067,"y":2573002.3600000031}},{"attributes":{"ID":17843,"DIS_CODE":0,"TOWNNAME":"柳營區","LI":"神農里","LIN":"14鄰","STREET":" ","SECT":" ","MAREA":"果毅後","LANE":" ","ALLEY":" ","HOUSE_NO":"３７８號之１１","E_COORD97":185201.64000000001,"N_COORD97":2572963.8700000001,"ADDRESS":"果毅後３７８號之１１","OBJECTID":17843},"geometry":{"x":185201.6400000006,"y":2572963.8700000029}},{"attributes":{"ID":17844,"DIS_CODE":0,"TOWNNAME":"柳營區","LI":"神農里","LIN":"14鄰","STREET":" ","SECT":" ","MAREA":"果毅後","LANE":" ","ALLEY":" ","HOUSE_NO":"３７８號之１２","E_COORD97":185203.89000000001,"N_COORD97":2572968.5499999998,"ADDRESS":"果毅後３７８號之１２","OBJECTID":17844},"geometry":{"x":185203.88999999966,"y":2572968.5500000045}},{"attributes":{"ID":17845,"DIS_CODE":0,"TOWNNAME":"永康區","LI":"北灣里","LIN":"34鄰","STREET":"大灣路","SECT":" ","MAREA":" ","LANE":"４０巷","ALLEY":"３８弄","HOUSE_NO":"２６號","E_COORD97":175185.95999999999,"N_COORD97":2546062.1600000001,"ADDRESS":"大灣路４０巷３８弄２６號","OBJECTID":17845},"geometry":{"x":175185.96000000183,"y":2546062.160000002}},{"attributes":{"ID":17846,"DIS_CODE":0,"TOWNNAME":"永康區","LI":"北灣里","LIN":"34鄰","STREET":"大灣路","SECT":" ","MAREA":" ","LANE":"４０巷","ALLEY":"３８弄","HOUSE_NO":"２８號","E_COORD97":175188.82999999999,"N_COORD97":2546066.2400000002,"ADDRESS":"大灣路４０巷３８弄２８號","OBJECTID":17846},"geometry":{"x":175188.83000000101,"y":2546066.2400000002}},{"attributes":{"ID":17847,"DIS_CODE":0,"TOWNNAME":"永康區","LI":"北灣里","LIN":"34鄰","STREET":"大灣路","SECT":" ","MAREA":" ","LANE":"４０巷","ALLEY":"３８弄","HOUSE_NO":"３０號","E_COORD97":175191.48000000001,"N_COORD97":2546069.2599999998,"ADDRESS":"大灣路４０巷３８弄３０號","OBJECTID":17847},"geometry":{"x":175191.48000000138,"y":2546069.2599999998}},{"attributes":{"ID":17848,"DIS_CODE":0,"TOWNNAME":"永康區","LI":"北灣里","LIN":"34鄰","STREET":"大灣路","SECT":" ","MAREA":" ","LANE":"４０巷","ALLEY":"３８弄","HOUSE_NO":"３２號","E_COORD97":175194.41,"N_COORD97":2546073.4199999999,"ADDRESS":"大灣路４０巷３８弄３２號","OBJECTID":17848},"geometry":{"x":175194.41000000015,"y":2546073.4200000018}},{"attributes":{"ID":17849,"DIS_CODE":0,"TOWNNAME":"永康區","LI":"北灣里","LIN":"34鄰","STREET":"大灣路","SECT":" ","MAREA":" ","LANE":"４０巷","ALLEY":"３８弄","HOUSE_NO":"３６號","E_COORD97":175197.17999999999,"N_COORD97":2546077.2400000002,"ADDRESS":"大灣路４０巷３８弄３６號","OBJECTID":17849},"geometry":{"x":175197.1799999997,"y":2546077.2399999984}},{"attributes":{"ID":17850,"DIS_CODE":0,"TOWNNAME":"永康區","LI":"\u25A0行里","LIN":"34鄰","STREET":"中正北路","SECT":" ","MAREA":" ","LANE":"１７７巷","ALLEY":"２０弄","HOUSE_NO":"１０號","E_COORD97":172408.23999999999,"N_COORD97":2549244.73,"ADDRESS":"中正北路１７７巷２０弄１０號","OBJECTID":17850},"geometry":{"x":172408.24000000115,"y":2549244.7300000023}},{"attributes":{"ID":17851,"DIS_CODE":0,"TOWNNAME":"永康區","LI":"\u25A0洲里","LIN":"34鄰","STREET":"洲尾街","SECT":" ","MAREA":" ","LANE":"１９１巷","ALLEY":"６弄","HOUSE_NO":"９號","E_COORD97":170821.28,"N_COORD97":2549017.6499999999,"ADDRESS":"洲尾街１９１巷６弄９號","OBJECTID":17851},"geometry":{"x":170821.28000000119,"y":2549017.6500000041}},{"attributes":{"ID":17852,"DIS_CODE":0,"TOWNNAME":"永康區","LI":"龍潭里","LIN":"34鄰","STREET":"龍埔街","SECT":" ","MAREA":" ","LANE":"１７５巷","ALLEY":"３弄","HOUSE_NO":"１１號","E_COORD97":174482.79000000001,"N_COORD97":2548156,"ADDRESS":"龍埔街１７５巷３弄１１號","OBJECTID":17852},"geometry":{"x":174482.79000000004,"y":2548156}},{"attributes":{"ID":17853,"DIS_CODE":0,"TOWNNAME":"永康區","LI":"\u25A0洲里","LIN":"34鄰","STREET":"洲尾街","SECT":" ","MAREA":" ","LANE":"１９１巷","ALLEY":"１１弄","HOUSE_NO":"３５號","E_COORD97":170843.06,"N_COORD97":2548930.8300000001,"ADDRESS":"洲尾街１９１巷１１弄３５號","OBJECTID":17853},"geometry":{"x":170843.05999999959,"y":2548930.8300000001}},{"attributes":{"ID":17854,"DIS_CODE":0,"TOWNNAME":"永康區","LI":"復華里","LIN":"34鄰","STREET":"復國一路","SECT":" ","MAREA":" ","LANE":"４７５巷","ALLEY":"６０弄","HOUSE_NO":"１５號","E_COORD97":172500.92000000001,"N_COORD97":2545988.0800000001,"ADDRESS":"復國一路４７５巷６０弄１５號","OBJECTID":17854},"geometry":{"x":172500.92000000179,"y":2545988.0800000019}},{"attributes":{"ID":17855,"DIS_CODE":0,"TOWNNAME":"永康區","LI":"\u25A0洲里","LIN":"34鄰","STREET":"洲尾街","SECT":" ","MAREA":" ","LANE":"１９１巷","ALLEY":"６弄","HOUSE_NO":"１號","E_COORD97":170819.29000000001,"N_COORD97":2549001.6499999999,"ADDRESS":"洲尾街１９１巷６弄１號","OBJECTID":17855},"geometry":{"x":170819.29000000097,"y":2549001.6500000022}},{"attributes":{"ID":17856,"DIS_CODE":0,"TOWNNAME":"永康區","LI":"崑山里","LIN":"34鄰","STREET":"大灣路","SECT":" ","MAREA":" ","LANE":"９４２巷","ALLEY":"１９４弄","HOUSE_NO":"３０號","E_COORD97":173873.17999999999,"N_COORD97":2544948.6000000001,"ADDRESS":"大灣路９４２巷１９４弄３０號","OBJECTID":17856},"geometry":{"x":173873.1799999997,"y":2544948.5999999978}},{"attributes":{"ID":17857,"DIS_CODE":0,"TOWNNAME":"永康區","LI":"崑山里","LIN":"34鄰","STREET":"大灣路","SECT":" ","MAREA":" ","LANE":"９４２巷","ALLEY":"１９４弄","HOUSE_NO":"２６號","E_COORD97":173866.10000000001,"N_COORD97":2544947.7200000002,"ADDRESS":"大灣路９４２巷１９４弄２６號","OBJECTID":17857},"geometry":{"x":173866.10000000056,"y":2544947.7200000007}},{"attributes":{"ID":17858,"DIS_CODE":0,"TOWNNAME":"永康區","LI":"崑山里","LIN":"34鄰","STREET":"大灣路","SECT":" ","MAREA":" ","LANE":"９４２巷","ALLEY":"１９４弄","HOUSE_NO":"２號","E_COORD97":173811.89000000001,"N_COORD97":2544970.25,"ADDRESS":"大灣路９４２巷１９４弄２號","OBJECTID":17858},"geometry":{"x":173811.8900000006,"y":2544970.25}},{"attributes":{"ID":17859,"DIS_CODE":0,"TOWNNAME":"永康區","LI":"崑山里","LIN":"34鄰","STREET":"大灣路","SECT":" ","MAREA":" ","LANE":"９４２巷","ALLEY":"１９４弄","HOUSE_NO":"２２號","E_COORD97":173862.92000000001,"N_COORD97":2544952.2799999998,"ADDRESS":"大灣路９４２巷１９４弄２２號","OBJECTID":17859},"geometry":{"x":173862.92000000086,"y":2544952.2800000012}},{"attributes":{"ID":17860,"DIS_CODE":0,"TOWNNAME":"仁德區","LI":"後壁里","LIN":"34鄰","STREET":"德洋二街","SECT":" ","MAREA":" ","LANE":"３９巷","ALLEY":"２９弄","HOUSE_NO":"３１號","E_COORD97":172301.07000000001,"N_COORD97":2539394.27,"ADDRESS":"德洋二街３９巷２９弄３１號","OBJECTID":17860},"geometry":{"x":172301.07000000123,"y":2539394.2700000033}},{"attributes":{"ID":17861,"DIS_CODE":0,"TOWNNAME":"仁德區","LI":"後壁里","LIN":"34鄰","STREET":"德洋二街","SECT":" ","MAREA":" ","LANE":"３９巷","ALLEY":"２９弄","HOUSE_NO":"１３號","E_COORD97":172334.64000000001,"N_COORD97":2539401.77,"ADDRESS":"德洋二街３９巷２９弄１３號","OBJECTID":17861},"geometry":{"x":172334.64000000153,"y":2539401.7700000014}},{"attributes":{"ID":17862,"DIS_CODE":0,"TOWNNAME":"仁德區","LI":"後壁里","LIN":"34鄰","STREET":"德洋二街","SECT":" ","MAREA":" ","LANE":"３９巷","ALLEY":"２９弄","HOUSE_NO":"１５號","E_COORD97":172340.09,"N_COORD97":2539401.27,"ADDRESS":"德洋二街３９巷２９弄１５號","OBJECTID":17862},"geometry":{"x":172340.08999999985,"y":2539401.2700000014}},{"attributes":{"ID":17863,"DIS_CODE":0,"TOWNNAME":"仁德區","LI":"後壁里","LIN":"34鄰","STREET":"德洋二街","SECT":" ","MAREA":" ","LANE":"３９巷","ALLEY":"２９弄","HOUSE_NO":"１１號","E_COORD97":172329.42999999999,"N_COORD97":2539402.52,"ADDRESS":"德洋二街３９巷２９弄１１號","OBJECTID":17863},"geometry":{"x":172329.43000000156,"y":2539402.5200000033}},{"attributes":{"ID":17864,"DIS_CODE":0,"TOWNNAME":"柳營區","LI":"神農里","LIN":"14鄰","STREET":" ","SECT":" ","MAREA":"果毅後","LANE":" ","ALLEY":" ","HOUSE_NO":"３７８之１號","E_COORD97":185205.57999999999,"N_COORD97":2572985.9700000002,"ADDRESS":"果毅後３７８之１號","OBJECTID":17864},"geometry":{"x":185205.58000000101,"y":2572985.9700000044}},{"attributes":{"ID":17865,"DIS_CODE":0,"TOWNNAME":"柳營區","LI":"神農里","LIN":"14鄰","STREET":" ","SECT":" ","MAREA":"果毅後","LANE":" ","ALLEY":" ","HOUSE_NO":"３７８號之１","E_COORD97":185205.57999999999,"N_COORD97":2572985.9700000002,"ADDRESS":"果毅後３７８號之１","OBJECTID":17865},"geometry":{"x":185205.58000000101,"y":2572985.9700000044}},{"attributes":{"ID":17866,"DIS_CODE":0,"TOWNNAME":"仁德區","LI":"太子里","LIN":"34鄰","STREET":"土庫路","SECT":" ","MAREA":" ","LANE":"３５巷","ALLEY":"１弄","HOUSE_NO":"８號","E_COORD97":174258.95999999999,"N_COORD97":2543412.5,"ADDRESS":"土庫路３５巷１弄８號","OBJECTID":17866},"geometry":{"x":174258.96000000089,"y":2543412.5}},{"attributes":{"ID":17867,"DIS_CODE":0,"TOWNNAME":"柳營區","LI":"神農里","LIN":"14鄰","STREET":" ","SECT":" ","MAREA":"果毅後","LANE":" ","ALLEY":" ","HOUSE_NO":"３７８號之２","E_COORD97":185206.60000000001,"N_COORD97":2572973.3900000001,"ADDRESS":"果毅後３７８號之２","OBJECTID":17867},"geometry":{"x":185206.60000000149,"y":2572973.3900000025}},{"attributes":{"ID":17868,"DIS_CODE":0,"TOWNNAME":"歸仁區","LI":"辜厝里","LIN":"34鄰","STREET":"大吉二街","SECT":" ","MAREA":" ","LANE":"２６巷","ALLEY":"６８弄","HOUSE_NO":"２２號","E_COORD97":177224.23999999999,"N_COORD97":2540413.6800000002,"ADDRESS":"大吉二街２６巷６８弄２２號","OBJECTID":17868},"geometry":{"x":177224.24000000115,"y":2540413.6799999997}},{"attributes":{"ID":17869,"DIS_CODE":0,"TOWNNAME":"歸仁區","LI":"辜厝里","LIN":"34鄰","STREET":"大吉二街","SECT":" ","MAREA":" ","LANE":"２６巷","ALLEY":"６８弄","HOUSE_NO":"１６號","E_COORD97":177233.44,"N_COORD97":2540416.6800000002,"ADDRESS":"大吉二街２６巷６８弄１６號","OBJECTID":17869},"geometry":{"x":177233.44000000041,"y":2540416.6800000016}},{"attributes":{"ID":17870,"DIS_CODE":0,"TOWNNAME":"安南區","LI":"溪北里","LIN":"24鄰","STREET":"敬安街","SECT":" ","MAREA":" ","LANE":" ","ALLEY":" ","HOUSE_NO":"１號十樓","E_COORD97":169156.32000000001,"N_COORD97":2547590.3700000001,"ADDRESS":"敬安街１號十樓","OBJECTID":17870},"geometry":{"x":169156.32000000123,"y":2547590.3700000029}},{"attributes":{"ID":17871,"DIS_CODE":0,"TOWNNAME":"安平區","LI":"育平里","LIN":"34鄰","STREET":"郡平路","SECT":" ","MAREA":" ","LANE":"２７４巷","ALLEY":"２０弄","HOUSE_NO":"２３號","E_COORD97":164507.01999999999,"N_COORD97":2543422.8500000001,"ADDRESS":"郡平路２７４巷２０弄２３號","OBJECTID":17871},"geometry":{"x":164507.02000000142,"y":2543422.8500000015}},{"attributes":{"ID":17872,"DIS_CODE":0,"TOWNNAME":"北區","LI":"大港里","LIN":"34鄰","STREET":"大興街","SECT":" ","MAREA":" ","LANE":"５２８巷","ALLEY":"４９弄","HOUSE_NO":"３號","E_COORD97":165942.72,"N_COORD97":2545556.48,"ADDRESS":"大興街５２８巷４９弄３號","OBJECTID":17872},"geometry":{"x":165942.71999999974,"y":2545556.4800000004}},{"attributes":{"ID":17873,"DIS_CODE":0,"TOWNNAME":"北區","LI":"大港里","LIN":"34鄰","STREET":"大興街","SECT":" ","MAREA":" ","LANE":"５２８巷","ALLEY":"４９弄","HOUSE_NO":"５號","E_COORD97":165939.16,"N_COORD97":2545554.3199999998,"ADDRESS":"大興街５２８巷４９弄５號","OBJECTID":17873},"geometry":{"x":165939.16000000201,"y":2545554.3200000003}},{"attributes":{"ID":17874,"DIS_CODE":0,"TOWNNAME":"歸仁區","LI":"六甲里","LIN":"34鄰","STREET":"六甲六街","SECT":" ","MAREA":" ","LANE":"１１巷","ALLEY":"１弄","HOUSE_NO":"１６號","E_COORD97":175564.06043099999,"N_COORD97":2539318.67496,"ADDRESS":"六甲六街１１巷１弄１６號","OBJECTID":17874},"geometry":{"x":175564.06043099985,"y":2539318.6749559995}},{"attributes":{"ID":17875,"DIS_CODE":0,"TOWNNAME":"南區","LI":"大忠里","LIN":"34鄰","STREET":"國民路","SECT":" ","MAREA":" ","LANE":"２７０巷","ALLEY":"６弄","HOUSE_NO":"１１號","E_COORD97":169022.04000000001,"N_COORD97":2541434.52,"ADDRESS":"國民路２７０巷６弄１１號","OBJECTID":17875},"geometry":{"x":169022.04000000097,"y":2541434.5200000014}},{"attributes":{"ID":17876,"DIS_CODE":0,"TOWNNAME":"南區","LI":"大忠里","LIN":"34鄰","STREET":"國民路","SECT":" ","MAREA":" ","LANE":"２７０巷","ALLEY":"６弄","HOUSE_NO":"１３號","E_COORD97":169024.78,"N_COORD97":2541430.6800000002,"ADDRESS":"國民路２７０巷６弄１３號","OBJECTID":17876},"geometry":{"x":169024.78000000026,"y":2541430.6800000016}},{"attributes":{"ID":17877,"DIS_CODE":0,"TOWNNAME":"南區","LI":"大忠里","LIN":"34鄰","STREET":"國民路","SECT":" ","MAREA":" ","LANE":"２７０巷","ALLEY":"６弄","HOUSE_NO":"１５號","E_COORD97":169027.53,"N_COORD97":2541427.9399999999,"ADDRESS":"國民路２７０巷６弄１５號","OBJECTID":17877},"geometry":{"x":169027.53000000119,"y":2541427.9400000013}},{"attributes":{"ID":17878,"DIS_CODE":0,"TOWNNAME":"南區","LI":"大忠里","LIN":"34鄰","STREET":"國民路","SECT":" ","MAREA":" ","LANE":"２７０巷","ALLEY":"６弄","HOUSE_NO":"１７號","E_COORD97":169030.01000000001,"N_COORD97":2541424.3799999999,"ADDRESS":"國民路２７０巷６弄１７號","OBJECTID":17878},"geometry":{"x":169030.00999999885,"y":2541424.3800000008}},{"attributes":{"ID":17879,"DIS_CODE":0,"TOWNNAME":"南區","LI":"大忠里","LIN":"34鄰","STREET":"國民路","SECT":" ","MAREA":" ","LANE":"２７０巷","ALLEY":"６弄","HOUSE_NO":"１９號","E_COORD97":169033.57999999999,"N_COORD97":2541420.27,"ADDRESS":"國民路２７０巷６弄１９號","OBJECTID":17879},"geometry":{"x":169033.58000000101,"y":2541420.2699999996}},{"attributes":{"ID":17880,"DIS_CODE":0,"TOWNNAME":"南區","LI":"大忠里","LIN":"34鄰","STREET":"國民路","SECT":" ","MAREA":" ","LANE":"２７０巷","ALLEY":"６弄","HOUSE_NO":"２１號","E_COORD97":169037.42999999999,"N_COORD97":2541414.52,"ADDRESS":"國民路２７０巷６弄２１號","OBJECTID":17880},"geometry":{"x":169037.43000000156,"y":2541414.5200000014}},{"attributes":{"ID":17881,"DIS_CODE":0,"TOWNNAME":"南區","LI":"大忠里","LIN":"34鄰","STREET":"國民路","SECT":" ","MAREA":" ","LANE":"２７０巷","ALLEY":"６弄","HOUSE_NO":"２３號","E_COORD97":169044.78,"N_COORD97":2541401.3999999999,"ADDRESS":"國民路２７０巷６弄２３號","OBJECTID":17881},"geometry":{"x":169044.78000000119,"y":2541401.4000000041}},{"attributes":{"ID":17882,"DIS_CODE":0,"TOWNNAME":"南區","LI":"大忠里","LIN":"34鄰","STREET":"國民路","SECT":" ","MAREA":" ","LANE":"２７０巷","ALLEY":"６弄","HOUSE_NO":"２５號","E_COORD97":169049.48999999999,"N_COORD97":2541396.5099999998,"ADDRESS":"國民路２７０巷６弄２５號","OBJECTID":17882},"geometry":{"x":169049.49000000115,"y":2541396.5100000035}},{"attributes":{"ID":17883,"DIS_CODE":0,"TOWNNAME":"南區","LI":"大忠里","LIN":"34鄰","STREET":"國民路","SECT":" ","MAREA":" ","LANE":"２７０巷","ALLEY":"６弄","HOUSE_NO":"２７號","E_COORD97":169054.22,"N_COORD97":2541391.7400000002,"ADDRESS":"國民路２７０巷６弄２７號","OBJECTID":17883},"geometry":{"x":169054.22000000067,"y":2541391.7399999984}},{"attributes":{"ID":17884,"DIS_CODE":0,"TOWNNAME":"南區","LI":"大忠里","LIN":"34鄰","STREET":"國民路","SECT":" ","MAREA":" ","LANE":"２７０巷","ALLEY":"６弄","HOUSE_NO":"２９號","E_COORD97":169059.07000000001,"N_COORD97":2541386.1499999999,"ADDRESS":"國民路２７０巷６弄２９號","OBJECTID":17884},"geometry":{"x":169059.07000000216,"y":2541386.1500000041}},{"attributes":{"ID":17885,"DIS_CODE":0,"TOWNNAME":"南區","LI":"大忠里","LIN":"34鄰","STREET":"國民路","SECT":" ","MAREA":" ","LANE":"２７０巷","ALLEY":"６弄","HOUSE_NO":"３１號","E_COORD97":169063.39999999999,"N_COORD97":2541381.0699999998,"ADDRESS":"國民路２７０巷６弄３１號","OBJECTID":17885},"geometry":{"x":169063.40000000037,"y":2541381.0700000022}},{"attributes":{"ID":17886,"DIS_CODE":0,"TOWNNAME":"南區","LI":"大忠里","LIN":"34鄰","STREET":"國民路","SECT":" ","MAREA":" ","LANE":"２７０巷","ALLEY":"６弄","HOUSE_NO":"４７號","E_COORD97":169099.42000000001,"N_COORD97":2541339.3900000001,"ADDRESS":"國民路２７０巷６弄４７號","OBJECTID":17886},"geometry":{"x":169099.42000000086,"y":2541339.3900000006}},{"attributes":{"ID":17887,"DIS_CODE":0,"TOWNNAME":"南區","LI":"大忠里","LIN":"34鄰","STREET":"國民路","SECT":" ","MAREA":" ","LANE":"２７０巷","ALLEY":"６弄","HOUSE_NO":"４９號","E_COORD97":169103.57000000001,"N_COORD97":2541334.7400000002,"ADDRESS":"國民路２７０巷６弄４９號","OBJECTID":17887},"geometry":{"x":169103.57000000123,"y":2541334.7400000021}},{"attributes":{"ID":17888,"DIS_CODE":0,"TOWNNAME":"南區","LI":"大忠里","LIN":"34鄰","STREET":"國民路","SECT":" ","MAREA":" ","LANE":"２７０巷","ALLEY":"６弄","HOUSE_NO":"５１號","E_COORD97":169108.23000000001,"N_COORD97":2541329.5699999998,"ADDRESS":"國民路２７０巷６弄５１號","OBJECTID":17888},"geometry":{"x":169108.23000000045,"y":2541329.5700000022}},{"attributes":{"ID":17889,"DIS_CODE":0,"TOWNNAME":"南區","LI":"大忠里","LIN":"34鄰","STREET":"國民路","SECT":" ","MAREA":" ","LANE":"２７０巷","ALLEY":"６弄","HOUSE_NO":"５３號","E_COORD97":169113.41,"N_COORD97":2541324.6600000001,"ADDRESS":"國民路２７０巷６弄５３號","OBJECTID":17889},"geometry":{"x":169113.41000000015,"y":2541324.6600000039}},{"attributes":{"ID":17890,"DIS_CODE":0,"TOWNNAME":"南區","LI":"大忠里","LIN":"34鄰","STREET":"國民路","SECT":" ","MAREA":" ","LANE":"２７０巷","ALLEY":"６弄","HOUSE_NO":"５５號","E_COORD97":169117.56,"N_COORD97":2541319.2400000002,"ADDRESS":"國民路２７０巷６弄５５號","OBJECTID":17890},"geometry":{"x":169117.55999999866,"y":2541319.2400000002}},{"attributes":{"ID":17891,"DIS_CODE":0,"TOWNNAME":"南區","LI":"大忠里","LIN":"34鄰","STREET":"國民路","SECT":" ","MAREA":" ","LANE":"２７０巷","ALLEY":"６弄","HOUSE_NO":"５７號","E_COORD97":169122.73999999999,"N_COORD97":2541314.0699999998,"ADDRESS":"國民路２７０巷６弄５７號","OBJECTID":17891},"geometry":{"x":169122.74000000115,"y":2541314.0700000003}},{"attributes":{"ID":17892,"DIS_CODE":0,"TOWNNAME":"南區","LI":"大忠里","LIN":"34鄰","STREET":"國民路","SECT":" ","MAREA":" ","LANE":"２７０巷","ALLEY":"６弄","HOUSE_NO":"５９號","E_COORD97":169126.37,"N_COORD97":2541308.8999999999,"ADDRESS":"國民路２７０巷６弄５９號","OBJECTID":17892},"geometry":{"x":169126.37000000197,"y":2541308.9000000004}},{"attributes":{"ID":17893,"DIS_CODE":0,"TOWNNAME":"安平區","LI":"育平里","LIN":"34鄰","STREET":"郡平路","SECT":" ","MAREA":" ","LANE":"２７４巷","ALLEY":"２０弄","HOUSE_NO":"２２號三樓之１","E_COORD97":164481.79000000001,"N_COORD97":2543403.5099999998,"ADDRESS":"郡平路２７４巷２０弄２２號三樓之１","OBJECTID":17893},"geometry":{"x":164481.79000000004,"y":2543403.5100000035}},{"attributes":{"ID":17894,"DIS_CODE":0,"TOWNNAME":"安平區","LI":"育平里","LIN":"34鄰","STREET":"郡平路","SECT":" ","MAREA":" ","LANE":"２７４巷","ALLEY":"２０弄","HOUSE_NO":"２２號三樓之２","E_COORD97":164481.79000000001,"N_COORD97":2543403.5099999998,"ADDRESS":"郡平路２７４巷２０弄２２號三樓之２","OBJECTID":17894},"geometry":{"x":164481.79000000004,"y":2543403.5100000035}},{"attributes":{"ID":17895,"DIS_CODE":0,"TOWNNAME":"安平區","LI":"育平里","LIN":"34鄰","STREET":"郡平路","SECT":" ","MAREA":" ","LANE":"２７４巷","ALLEY":"２０弄","HOUSE_NO":"２２號三樓之３","E_COORD97":164481.79000000001,"N_COORD97":2543403.5099999998,"ADDRESS":"郡平路２７４巷２０弄２２號三樓之３","OBJECTID":17895},"geometry":{"x":164481.79000000004,"y":2543403.5100000035}},{"attributes":{"ID":17896,"DIS_CODE":0,"TOWNNAME":"安平區","LI":"育平里","LIN":"34鄰","STREET":"郡平路","SECT":" ","MAREA":" ","LANE":"２７４巷","ALLEY":"２０弄","HOUSE_NO":"２２號三樓之４","E_COORD97":164481.79000000001,"N_COORD97":2543403.5099999998,"ADDRESS":"郡平路２７４巷２０弄２２號三樓之４","OBJECTID":17896},"geometry":{"x":164481.79000000004,"y":2543403.5100000035}},{"attributes":{"ID":17897,"DIS_CODE":0,"TOWNNAME":"安平區","LI":"育平里","LIN":"34鄰","STREET":"郡平路","SECT":" ","MAREA":" ","LANE":"２７４巷","ALLEY":"２０弄","HOUSE_NO":"２２號五樓之１","E_COORD97":164481.79000000001,"N_COORD97":2543403.5099999998,"ADDRESS":"郡平路２７４巷２０弄２２號五樓之１","OBJECTID":17897},"geometry":{"x":164481.79000000004,"y":2543403.5100000035}},{"attributes":{"ID":17898,"DIS_CODE":0,"TOWNNAME":"安平區","LI":"育平里","LIN":"34鄰","STREET":"郡平路","SECT":" ","MAREA":" ","LANE":"２７４巷","ALLEY":"２０弄","HOUSE_NO":"２２號五樓之２","E_COORD97":164481.79000000001,"N_COORD97":2543403.5099999998,"ADDRESS":"郡平路２７４巷２０弄２２號五樓之２","OBJECTID":17898},"geometry":{"x":164481.79000000004,"y":2543403.5100000035}},{"attributes":{"ID":17899,"DIS_CODE":0,"TOWNNAME":"安平區","LI":"育平里","LIN":"34鄰","STREET":"郡平路","SECT":" ","MAREA":" ","LANE":"２７４巷","ALLEY":"２０弄","HOUSE_NO":"２２號五樓之３","E_COORD97":164481.79000000001,"N_COORD97":2543403.5099999998,"ADDRESS":"郡平路２７４巷２０弄２２號五樓之３","OBJECTID":17899},"geometry":{"x":164481.79000000004,"y":2543403.5100000035}},{"attributes":{"ID":17900,"DIS_CODE":0,"TOWNNAME":"安平區","LI":"育平里","LIN":"34鄰","STREET":"郡平路","SECT":" ","MAREA":" ","LANE":"２７４巷","ALLEY":"２０弄","HOUSE_NO":"２２號五樓之４","E_COORD97":164481.79000000001,"N_COORD97":2543403.5099999998,"ADDRESS":"郡平路２７４巷２０弄２２號五樓之４","OBJECTID":17900},"geometry":{"x":164481.79000000004,"y":2543403.5100000035}},{"attributes":{"ID":17901,"DIS_CODE":0,"TOWNNAME":"安平區","LI":"育平里","LIN":"34鄰","STREET":"郡平路","SECT":" ","MAREA":" ","LANE":"２７４巷","ALLEY":"２０弄","HOUSE_NO":"２２號五樓之５","E_COORD97":164481.79000000001,"N_COORD97":2543403.5099999998,"ADDRESS":"郡平路２７４巷２０弄２２號五樓之５","OBJECTID":17901},"geometry":{"x":164481.79000000004,"y":2543403.5100000035}},{"attributes":{"ID":17902,"DIS_CODE":0,"TOWNNAME":"安平區","LI":"育平里","LIN":"34鄰","STREET":"郡平路","SECT":" ","MAREA":" ","LANE":"２７４巷","ALLEY":"２０弄","HOUSE_NO":"２２號六樓之１","E_COORD97":164481.79000000001,"N_COORD97":2543403.5099999998,"ADDRESS":"郡平路２７４巷２０弄２２號六樓之１","OBJECTID":17902},"geometry":{"x":164481.79000000004,"y":2543403.5100000035}},{"attributes":{"ID":17903,"DIS_CODE":0,"TOWNNAME":"安平區","LI":"育平里","LIN":"34鄰","STREET":"郡平路","SECT":" ","MAREA":" ","LANE":"２７４巷","ALLEY":"２０弄","HOUSE_NO":"２２號六樓之２","E_COORD97":164481.79000000001,"N_COORD97":2543403.5099999998,"ADDRESS":"郡平路２７４巷２０弄２２號六樓之２","OBJECTID":17903},"geometry":{"x":164481.79000000004,"y":2543403.5100000035}},{"attributes":{"ID":17904,"DIS_CODE":0,"TOWNNAME":"安平區","LI":"育平里","LIN":"34鄰","STREET":"郡平路","SECT":" ","MAREA":" ","LANE":"２７４巷","ALLEY":"２０弄","HOUSE_NO":"２２號六樓之３","E_COORD97":164481.79000000001,"N_COORD97":2543403.5099999998,"ADDRESS":"郡平路２７４巷２０弄２２號六樓之３","OBJECTID":17904},"geometry":{"x":164481.79000000004,"y":2543403.5100000035}},{"attributes":{"ID":17905,"DIS_CODE":0,"TOWNNAME":"安平區","LI":"育平里","LIN":"34鄰","STREET":"郡平路","SECT":" ","MAREA":" ","LANE":"２７４巷","ALLEY":"２０弄","HOUSE_NO":"２２號六樓之４","E_COORD97":164481.79000000001,"N_COORD97":2543403.5099999998,"ADDRESS":"郡平路２７４巷２０弄２２號六樓之４","OBJECTID":17905},"geometry":{"x":164481.79000000004,"y":2543403.5100000035}},{"attributes":{"ID":17906,"DIS_CODE":0,"TOWNNAME":"安平區","LI":"育平里","LIN":"34鄰","STREET":"郡平路","SECT":" ","MAREA":" ","LANE":"２７４巷","ALLEY":"２０弄","HOUSE_NO":"２２號四樓之１","E_COORD97":164481.79000000001,"N_COORD97":2543403.5099999998,"ADDRESS":"郡平路２７４巷２０弄２２號四樓之１","OBJECTID":17906},"geometry":{"x":164481.79000000004,"y":2543403.5100000035}},{"attributes":{"ID":17907,"DIS_CODE":0,"TOWNNAME":"安平區","LI":"育平里","LIN":"34鄰","STREET":"郡平路","SECT":" ","MAREA":" ","LANE":"２７４巷","ALLEY":"２０弄","HOUSE_NO":"２２號四樓之２","E_COORD97":164481.79000000001,"N_COORD97":2543403.5099999998,"ADDRESS":"郡平路２７４巷２０弄２２號四樓之２","OBJECTID":17907},"geometry":{"x":164481.79000000004,"y":2543403.5100000035}},{"attributes":{"ID":17908,"DIS_CODE":0,"TOWNNAME":"安平區","LI":"育平里","LIN":"34鄰","STREET":"郡平路","SECT":" ","MAREA":" ","LANE":"２７４巷","ALLEY":"２０弄","HOUSE_NO":"２２號四樓之３","E_COORD97":164481.79000000001,"N_COORD97":2543403.5099999998,"ADDRESS":"郡平路２７４巷２０弄２２號四樓之３","OBJECTID":17908},"geometry":{"x":164481.79000000004,"y":2543403.5100000035}},{"attributes":{"ID":17909,"DIS_CODE":0,"TOWNNAME":"永康區","LI":"北灣里","LIN":"34鄰","STREET":"大灣路","SECT":" ","MAREA":" ","LANE":"４０巷","ALLEY":"１６弄","HOUSE_NO":"２號","E_COORD97":175229.89999999999,"N_COORD97":2545968.5299999998,"ADDRESS":"大灣路４０巷１６弄２號","OBJECTID":17909},"geometry":{"x":175229.9000000013,"y":2545968.5299999993}},{"attributes":{"ID":17910,"DIS_CODE":0,"TOWNNAME":"永康區","LI":"北灣里","LIN":"34鄰","STREET":"大灣路","SECT":" ","MAREA":" ","LANE":"４０巷","ALLEY":"１６弄","HOUSE_NO":"２６號","E_COORD97":175283.01000000001,"N_COORD97":2546026.5099999998,"ADDRESS":"大灣路４０巷１６弄２６號","OBJECTID":17910},"geometry":{"x":175283.00999999978,"y":2546026.5099999998}},{"attributes":{"ID":17911,"DIS_CODE":0,"TOWNNAME":"永康區","LI":"北灣里","LIN":"34鄰","STREET":"大灣路","SECT":" ","MAREA":" ","LANE":"４０巷","ALLEY":"２６弄","HOUSE_NO":"２７號","E_COORD97":175236.41,"N_COORD97":2546075.0800000001,"ADDRESS":"大灣路４０巷２６弄２７號","OBJECTID":17911},"geometry":{"x":175236.41000000015,"y":2546075.0800000038}},{"attributes":{"ID":17912,"DIS_CODE":0,"TOWNNAME":"永康區","LI":"北灣里","LIN":"34鄰","STREET":"大灣路","SECT":" ","MAREA":" ","LANE":"４０巷","ALLEY":"１４弄","HOUSE_NO":"８號","E_COORD97":175265.10999999999,"N_COORD97":2545960.4199999999,"ADDRESS":"大灣路４０巷１４弄８號","OBJECTID":17912},"geometry":{"x":175265.11000000127,"y":2545960.4199999981}},{"attributes":{"ID":17913,"DIS_CODE":0,"TOWNNAME":"永康區","LI":"正強里","LIN":"34鄰","STREET":"四維街","SECT":" ","MAREA":" ","LANE":"１４９巷","ALLEY":"３７弄","HOUSE_NO":"３號","E_COORD97":173211.98000000001,"N_COORD97":2548327.9900000002,"ADDRESS":"四維街１４９巷３７弄３號","OBJECTID":17913},"geometry":{"x":173211.98000000138,"y":2548327.9900000021}},{"attributes":{"ID":17914,"DIS_CODE":0,"TOWNNAME":"永康區","LI":"北灣里","LIN":"34鄰","STREET":"大灣路","SECT":" ","MAREA":" ","LANE":"４０巷","ALLEY":"１４弄","HOUSE_NO":"１５號","E_COORD97":175274.54000000001,"N_COORD97":2545986.1099999999,"ADDRESS":"大灣路４０巷１４弄１５號","OBJECTID":17914},"geometry":{"x":175274.54000000004,"y":2545986.1100000031}},{"attributes":{"ID":17915,"DIS_CODE":0,"TOWNNAME":"東區","LI":"崇文里","LIN":"34鄰","STREET":"生產路","SECT":" ","MAREA":" ","LANE":"３４１巷","ALLEY":"１１弄","HOUSE_NO":"１０號","E_COORD97":171112.94,"N_COORD97":2540735.2200000002,"ADDRESS":"生產路３４１巷１１弄１０號","OBJECTID":17915},"geometry":{"x":171112.94000000227,"y":2540735.2200000025}},{"attributes":{"ID":17916,"DIS_CODE":0,"TOWNNAME":"東區","LI":"崇文里","LIN":"34鄰","STREET":"生產路","SECT":" ","MAREA":" ","LANE":"３４１巷","ALLEY":"１１弄","HOUSE_NO":"１４號","E_COORD97":171104.78,"N_COORD97":2540730.8399999999,"ADDRESS":"生產路３４１巷１１弄１４號","OBJECTID":17916},"geometry":{"x":171104.78000000026,"y":2540730.8400000017}},{"attributes":{"ID":17917,"DIS_CODE":0,"TOWNNAME":"安南區","LI":"溪北里","LIN":"24鄰","STREET":"敬安街","SECT":" ","MAREA":" ","LANE":" ","ALLEY":" ","HOUSE_NO":"３號八樓","E_COORD97":169164.79000000001,"N_COORD97":2547590.3700000001,"ADDRESS":"敬安街３號八樓","OBJECTID":17917},"geometry":{"x":169164.79000000097,"y":2547590.3700000029}},{"attributes":{"ID":17918,"DIS_CODE":0,"TOWNNAME":"柳營區","LI":"神農里","LIN":"14鄰","STREET":" ","SECT":" ","MAREA":"果毅後","LANE":" ","ALLEY":" ","HOUSE_NO":"３７８號之３","E_COORD97":185208.60999999999,"N_COORD97":2572977.7000000002,"ADDRESS":"果毅後３７８號之３","OBJECTID":17918},"geometry":{"x":185208.61000000034,"y":2572977.6999999993}},{"attributes":{"ID":17919,"DIS_CODE":0,"TOWNNAME":"柳營區","LI":"神農里","LIN":"14鄰","STREET":" ","SECT":" ","MAREA":"果毅後","LANE":" ","ALLEY":" ","HOUSE_NO":"３７８號之６","E_COORD97":185220.82999999999,"N_COORD97":2572998.7400000002,"ADDRESS":"果毅後３７８號之６","OBJECTID":17919},"geometry":{"x":185220.83000000101,"y":2572998.7400000002}},{"attributes":{"ID":17920,"DIS_CODE":0,"TOWNNAME":"柳營區","LI":"神農里","LIN":"14鄰","STREET":" ","SECT":" ","MAREA":"果毅後","LANE":" ","ALLEY":" ","HOUSE_NO":"３７８號之７","E_COORD97":185195.51000000001,"N_COORD97":2573008.5499999998,"ADDRESS":"果毅後３７８號之７","OBJECTID":17920},"geometry":{"x":185195.51000000164,"y":2573008.5500000007}},{"attributes":{"ID":17921,"DIS_CODE":0,"TOWNNAME":"柳營區","LI":"神農里","LIN":"14鄰","STREET":" ","SECT":" ","MAREA":"果毅後","LANE":" ","ALLEY":" ","HOUSE_NO":"３７８之８號","E_COORD97":185223.14999999999,"N_COORD97":2573002.8799999999,"ADDRESS":"果毅後３７８之８號","OBJECTID":17921},"geometry":{"x":185223.15000000037,"y":2573002.8800000008}},{"attributes":{"ID":17922,"DIS_CODE":0,"TOWNNAME":"柳營區","LI":"神農里","LIN":"14鄰","STREET":" ","SECT":" ","MAREA":"果毅後","LANE":" ","ALLEY":" ","HOUSE_NO":"３７８號之８","E_COORD97":185223.14999999999,"N_COORD97":2573002.8799999999,"ADDRESS":"果毅後３７８號之８","OBJECTID":17922},"geometry":{"x":185223.15000000037,"y":2573002.8800000008}},{"attributes":{"ID":17923,"DIS_CODE":0,"TOWNNAME":"柳營區","LI":"神農里","LIN":"14鄰","STREET":" ","SECT":" ","MAREA":"果毅後","LANE":" ","ALLEY":" ","HOUSE_NO":"３７８號","E_COORD97":185219.67000000001,"N_COORD97":2572992.9199999999,"ADDRESS":"果毅後３７８號","OBJECTID":17923},"geometry":{"x":185219.66999999993,"y":2572992.9200000018}},{"attributes":{"ID":17924,"DIS_CODE":0,"TOWNNAME":"柳營區","LI":"神農里","LIN":"14鄰","STREET":" ","SECT":" ","MAREA":"果毅後","LANE":" ","ALLEY":" ","HOUSE_NO":"３７９號之１","E_COORD97":185186.20000000001,"N_COORD97":2572987.8700000001,"ADDRESS":"果毅後３７９號之１","OBJECTID":17924},"geometry":{"x":185186.20000000205,"y":2572987.8700000029}},{"attributes":{"ID":17925,"DIS_CODE":0,"TOWNNAME":"柳營區","LI":"神農里","LIN":"14鄰","STREET":" ","SECT":" ","MAREA":"果毅後","LANE":" ","ALLEY":" ","HOUSE_NO":"３８２號","E_COORD97":184520.59,"N_COORD97":2573008,"ADDRESS":"果毅後３８２號","OBJECTID":17925},"geometry":{"x":184520.59000000078,"y":2573008}},{"attributes":{"ID":17926,"DIS_CODE":0,"TOWNNAME":"柳營區","LI":"神農里","LIN":"14鄰","STREET":" ","SECT":" ","MAREA":"果毅後","LANE":" ","ALLEY":" ","HOUSE_NO":"３８３之３號","E_COORD97":184404.73000000001,"N_COORD97":2573021.4199999999,"ADDRESS":"果毅後３８３之３號","OBJECTID":17926},"geometry":{"x":184404.73000000231,"y":2573021.4199999999}},{"attributes":{"ID":17927,"DIS_CODE":0,"TOWNNAME":"柳營區","LI":"神農里","LIN":"14鄰","STREET":" ","SECT":" ","MAREA":"果毅後","LANE":" ","ALLEY":" ","HOUSE_NO":"３８３號","E_COORD97":184490.04999999999,"N_COORD97":2573006.4500000002,"ADDRESS":"果毅後３８３號","OBJECTID":17927},"geometry":{"x":184490.05000000168,"y":2573006.4500000011}},{"attributes":{"ID":17928,"DIS_CODE":0,"TOWNNAME":"柳營區","LI":"神農里","LIN":"14鄰","STREET":" ","SECT":" ","MAREA":"果毅後","LANE":" ","ALLEY":" ","HOUSE_NO":"３８５之１０號","E_COORD97":184762.94,"N_COORD97":2572918.0099999998,"ADDRESS":"果毅後３８５之１０號","OBJECTID":17928},"geometry":{"x":184762.94000000134,"y":2572918.0100000016}},{"attributes":{"ID":17929,"DIS_CODE":0,"TOWNNAME":"玉井區","LI":"中正里","LIN":"14鄰","STREET":" ","SECT":" ","MAREA":"中正","LANE":" ","ALLEY":" ","HOUSE_NO":"１５３號之１","E_COORD97":196005.04000000001,"N_COORD97":2560899.29,"ADDRESS":"中正１５３號之１","OBJECTID":17929},"geometry":{"x":196005.04000000004,"y":2560899.290000001}},{"attributes":{"ID":17930,"DIS_CODE":0,"TOWNNAME":"玉井區","LI":"中正里","LIN":"14鄰","STREET":" ","SECT":" ","MAREA":"中正","LANE":" ","ALLEY":" ","HOUSE_NO":"１５１號","E_COORD97":196062.10000000001,"N_COORD97":2560890.2400000002,"ADDRESS":"中正１５１號","OBJECTID":17930},"geometry":{"x":196062.09999999963,"y":2560890.2400000039}},{"attributes":{"ID":17931,"DIS_CODE":0,"TOWNNAME":"東區","LI":"崇文里","LIN":"34鄰","STREET":"生產路","SECT":" ","MAREA":" ","LANE":"３４１巷","ALLEY":"１１弄","HOUSE_NO":"１６號","E_COORD97":171100.98999999999,"N_COORD97":2540728.0499999998,"ADDRESS":"生產路３４１巷１１弄１６號","OBJECTID":17931},"geometry":{"x":171100.99000000115,"y":2540728.0500000007}},{"attributes":{"ID":17932,"DIS_CODE":0,"TOWNNAME":"東區","LI":"崇文里","LIN":"34鄰","STREET":"生產路","SECT":" ","MAREA":" ","LANE":"３４１巷","ALLEY":"１１弄","HOUSE_NO":"７號","E_COORD97":171119.70999999999,"N_COORD97":2540719.2000000002,"ADDRESS":"生產路３４１巷１１弄７號","OBJECTID":17932},"geometry":{"x":171119.71000000089,"y":2540719.1999999993}},{"attributes":{"ID":17933,"DIS_CODE":0,"TOWNNAME":"東區","LI":"崇文里","LIN":"34鄰","STREET":"生產路","SECT":" ","MAREA":" ","LANE":"３４１巷","ALLEY":"１１弄","HOUSE_NO":"９號","E_COORD97":171105.67000000001,"N_COORD97":2540713.5299999998,"ADDRESS":"生產路３４１巷１１弄９號","OBJECTID":17933},"geometry":{"x":171105.66999999899,"y":2540713.5299999993}},{"attributes":{"ID":17934,"DIS_CODE":0,"TOWNNAME":"永康區","LI":"北灣里","LIN":"34鄰","STREET":"大灣路","SECT":" ","MAREA":" ","LANE":"４０巷","ALLEY":"１４弄","HOUSE_NO":"１０號","E_COORD97":175270.73000000001,"N_COORD97":2545964.9199999999,"ADDRESS":"大灣路４０巷１４弄１０號","OBJECTID":17934},"geometry":{"x":175270.73000000045,"y":2545964.9200000018}},{"attributes":{"ID":17935,"DIS_CODE":0,"TOWNNAME":"玉井區","LI":"中正里","LIN":"14鄰","STREET":" ","SECT":" ","MAREA":"中正","LANE":" ","ALLEY":" ","HOUSE_NO":"１４７號之３","E_COORD97":195977.04999999999,"N_COORD97":2560649.29,"ADDRESS":"中正１４７號之３","OBJECTID":17935},"geometry":{"x":195977.05000000075,"y":2560649.290000001}},{"attributes":{"ID":17936,"DIS_CODE":0,"TOWNNAME":"永康區","LI":"北灣里","LIN":"34鄰","STREET":"大灣路","SECT":" ","MAREA":" ","LANE":"４０巷","ALLEY":"１６弄","HOUSE_NO":"２８號","E_COORD97":175285.14999999999,"N_COORD97":2546029.0099999998,"ADDRESS":"大灣路４０巷１６弄２８號","OBJECTID":17936},"geometry":{"x":175285.1500000013,"y":2546029.0100000016}},{"attributes":{"ID":17937,"DIS_CODE":0,"TOWNNAME":"永康區","LI":"北灣里","LIN":"34鄰","STREET":"大灣路","SECT":" ","MAREA":" ","LANE":"４０巷","ALLEY":"２６弄","HOUSE_NO":"２５號","E_COORD97":175240.85999999999,"N_COORD97":2546079.8300000001,"ADDRESS":"大灣路４０巷２６弄２５號","OBJECTID":17937},"geometry":{"x":175240.86000000034,"y":2546079.8299999982}},{"attributes":{"ID":17938,"DIS_CODE":0,"TOWNNAME":"永康區","LI":"北灣里","LIN":"34鄰","STREET":"大灣路","SECT":" ","MAREA":" ","LANE":"４０巷","ALLEY":"１６弄","HOUSE_NO":"２２號","E_COORD97":175268.53,"N_COORD97":2546011.54,"ADDRESS":"大灣路４０巷１６弄２２號","OBJECTID":17938},"geometry":{"x":175268.53000000026,"y":2546011.5399999991}},{"attributes":{"ID":17939,"DIS_CODE":0,"TOWNNAME":"永康區","LI":"正強里","LIN":"34鄰","STREET":"四維街","SECT":" ","MAREA":" ","LANE":"１４９巷","ALLEY":"３７弄","HOUSE_NO":"５號","E_COORD97":173207.92999999999,"N_COORD97":2548326.9900000002,"ADDRESS":"四維街１４９巷３７弄５號","OBJECTID":17939},"geometry":{"x":173207.93000000063,"y":2548326.9900000039}},{"attributes":{"ID":17940,"DIS_CODE":0,"TOWNNAME":"永康區","LI":"北灣里","LIN":"34鄰","STREET":"大灣路","SECT":" ","MAREA":" ","LANE":"４０巷","ALLEY":"１４弄","HOUSE_NO":"１２之１號","E_COORD97":175281.91,"N_COORD97":2545973.4700000002,"ADDRESS":"大灣路４０巷１４弄１２之１號","OBJECTID":17940},"geometry":{"x":175281.91000000108,"y":2545973.4700000007}},{"attributes":{"ID":17941,"DIS_CODE":0,"TOWNNAME":"永康區","LI":"北灣里","LIN":"34鄰","STREET":"大灣路","SECT":" ","MAREA":" ","LANE":"４０巷","ALLEY":"１６弄","HOUSE_NO":"３２號","E_COORD97":175292.31,"N_COORD97":2546037.2599999998,"ADDRESS":"大灣路４０巷１６弄３２號","OBJECTID":17941},"geometry":{"x":175292.31000000052,"y":2546037.2600000016}},{"attributes":{"ID":17942,"DIS_CODE":0,"TOWNNAME":"永康區","LI":"埔園里","LIN":"34鄰","STREET":"永大路","SECT":"三段","MAREA":" ","LANE":"６２２巷","ALLEY":"９２弄","HOUSE_NO":"２０號","E_COORD97":174082.41,"N_COORD97":2548883.3100000001,"ADDRESS":"永大路三段６２２巷９２弄２０號","OBJECTID":17942},"geometry":{"x":174082.41000000015,"y":2548883.3100000005}},{"attributes":{"ID":17943,"DIS_CODE":0,"TOWNNAME":"永康區","LI":"復華里","LIN":"34鄰","STREET":"復國一路","SECT":" ","MAREA":" ","LANE":"４７５巷","ALLEY":"６０弄","HOUSE_NO":"２１號","E_COORD97":172501.70000000001,"N_COORD97":2546001.0899999999,"ADDRESS":"復國一路４７５巷６０弄２１號","OBJECTID":17943},"geometry":{"x":172501.70000000112,"y":2546001.0900000017}},{"attributes":{"ID":17944,"DIS_CODE":0,"TOWNNAME":"永康區","LI":"復華里","LIN":"34鄰","STREET":"復國一路","SECT":" ","MAREA":" ","LANE":"４７５巷","ALLEY":"６０弄","HOUSE_NO":"１６號","E_COORD97":172513.95000000001,"N_COORD97":2546026.0899999999,"ADDRESS":"復國一路４７５巷６０弄１６號","OBJECTID":17944},"geometry":{"x":172513.95000000019,"y":2546026.0899999999}},{"attributes":{"ID":17945,"DIS_CODE":0,"TOWNNAME":"永康區","LI":"復華里","LIN":"34鄰","STREET":"復國一路","SECT":" ","MAREA":" ","LANE":"４７５巷","ALLEY":"６０弄","HOUSE_NO":"２５號","E_COORD97":172502.98000000001,"N_COORD97":2546009.3399999999,"ADDRESS":"復國一路４７５巷６０弄２５號","OBJECTID":17945},"geometry":{"x":172502.98000000138,"y":2546009.3400000017}},{"attributes":{"ID":17946,"DIS_CODE":0,"TOWNNAME":"永康區","LI":"龍潭里","LIN":"34鄰","STREET":"龍埔街","SECT":" ","MAREA":" ","LANE":"１３９巷","ALLEY":"１０弄","HOUSE_NO":"６號","E_COORD97":174527.23999999999,"N_COORD97":2548176.75,"ADDRESS":"龍埔街１３９巷１０弄６號","OBJECTID":17946},"geometry":{"x":174527.24000000115,"y":2548176.7500000019}},{"attributes":{"ID":17947,"DIS_CODE":0,"TOWNNAME":"仁德區","LI":"仁愛里","LIN":"24鄰","STREET":"保仁路","SECT":" ","MAREA":" ","LANE":" ","ALLEY":" ","HOUSE_NO":"２６０號二樓之１","E_COORD97":169972.28109999999,"N_COORD97":2540070.4545399998,"ADDRESS":"保仁路２６０號二樓之１","OBJECTID":17947},"geometry":{"x":169972.28110000212,"y":2540070.4545399994}},{"attributes":{"ID":17948,"DIS_CODE":0,"TOWNNAME":"永康區","LI":"三合里","LIN":"24鄰","STREET":"南工街","SECT":" ","MAREA":" ","LANE":"２６７巷","ALLEY":" ","HOUSE_NO":"５８號二樓之７","E_COORD97":171830.57999999999,"N_COORD97":2545838.54,"ADDRESS":"南工街２６７巷５８號二樓之７","OBJECTID":17948},"geometry":{"x":171830.58000000101,"y":2545838.540000001}},{"attributes":{"ID":17949,"DIS_CODE":0,"TOWNNAME":"永康區","LI":"三合里","LIN":"24鄰","STREET":"南工街","SECT":" ","MAREA":" ","LANE":"２６７巷","ALLEY":" ","HOUSE_NO":"５８號三樓之１","E_COORD97":171830.5,"N_COORD97":2545838.54,"ADDRESS":"南工街２６７巷５８號三樓之１","OBJECTID":17949},"geometry":{"x":171830.5,"y":2545838.540000001}},{"attributes":{"ID":17950,"DIS_CODE":0,"TOWNNAME":"永康區","LI":"三合里","LIN":"24鄰","STREET":"南工街","SECT":" ","MAREA":" ","LANE":"２６７巷","ALLEY":" ","HOUSE_NO":"６６號二樓之２","E_COORD97":171848.04000000001,"N_COORD97":2545837.79,"ADDRESS":"南工街２６７巷６６號二樓之２","OBJECTID":17950},"geometry":{"x":171848.04000000097,"y":2545837.7899999991}},{"attributes":{"ID":17951,"DIS_CODE":0,"TOWNNAME":"仁德區","LI":"後壁里","LIN":"24鄰","STREET":"中正路","SECT":"二段","MAREA":" ","LANE":" ","ALLEY":" ","HOUSE_NO":"２７３號五樓","E_COORD97":173230.95999999999,"N_COORD97":2539012.77,"ADDRESS":"中正路二段２７３號五樓","OBJECTID":17951},"geometry":{"x":173230.95999999996,"y":2539012.7699999996}},{"attributes":{"ID":17952,"DIS_CODE":0,"TOWNNAME":"永康區","LI":"五王里","LIN":"24鄰","STREET":"成功路","SECT":" ","MAREA":" ","LANE":" ","ALLEY":" ","HOUSE_NO":"２５８號五樓之１１","E_COORD97":171314.98000000001,"N_COORD97":2545846.04,"ADDRESS":"成功路２５８號五樓之１１","OBJECTID":17952},"geometry":{"x":171314.98000000138,"y":2545846.0399999991}},{"attributes":{"ID":17953,"DIS_CODE":0,"TOWNNAME":"永康區","LI":"五王里","LIN":"24鄰","STREET":"成功路","SECT":" ","MAREA":" ","LANE":" ","ALLEY":" ","HOUSE_NO":"２５８號五樓之１９","E_COORD97":171315.07000000001,"N_COORD97":2545846.04,"ADDRESS":"成功路２５８號五樓之１９","OBJECTID":17953},"geometry":{"x":171315.0700000003,"y":2545846.0399999991}},{"attributes":{"ID":17954,"DIS_CODE":0,"TOWNNAME":"安南區","LI":"安東里","LIN":"8鄰","STREET":"安和路","SECT":"一段","MAREA":" ","LANE":" ","ALLEY":" ","HOUSE_NO":"２６６號","E_COORD97":169315.20999999999,"N_COORD97":2548007.7999999998,"ADDRESS":"安和路一段２６６號","OBJECTID":17954},"geometry":{"x":169315.20999999996,"y":2548007.8000000026}},{"attributes":{"ID":17955,"DIS_CODE":0,"TOWNNAME":"安南區","LI":"安東里","LIN":"8鄰","STREET":"安和路","SECT":"一段","MAREA":" ","LANE":" ","ALLEY":" ","HOUSE_NO":"２７６號","E_COORD97":169310.35999999999,"N_COORD97":2548026.4300000002,"ADDRESS":"安和路一段２７６號","OBJECTID":17955},"geometry":{"x":169310.36000000127,"y":2548026.4300000016}},{"attributes":{"ID":17956,"DIS_CODE":0,"TOWNNAME":"安南區","LI":"安東里","LIN":"8鄰","STREET":"安和路","SECT":"一段","MAREA":" ","LANE":" ","ALLEY":" ","HOUSE_NO":"２８２號","E_COORD97":169310.06,"N_COORD97":2548032.9500000002,"ADDRESS":"安和路一段２８２號","OBJECTID":17956},"geometry":{"x":169310.06000000052,"y":2548032.9499999993}},{"attributes":{"ID":17957,"DIS_CODE":0,"TOWNNAME":"永康區","LI":"三合里","LIN":"24鄰","STREET":"南工街","SECT":" ","MAREA":" ","LANE":"２６７巷","ALLEY":" ","HOUSE_NO":"６６號四樓之２","E_COORD97":171848.04000000001,"N_COORD97":2545837.79,"ADDRESS":"南工街２６７巷６６號四樓之２","OBJECTID":17957},"geometry":{"x":171848.04000000097,"y":2545837.7899999991}},{"attributes":{"ID":17958,"DIS_CODE":0,"TOWNNAME":"安南區","LI":"安東里","LIN":"8鄰","STREET":"安和路","SECT":"一段","MAREA":" ","LANE":" ","ALLEY":" ","HOUSE_NO":"２６４號","E_COORD97":169315.82000000001,"N_COORD97":2548004.77,"ADDRESS":"安和路一段２６４號","OBJECTID":17958},"geometry":{"x":169315.82000000123,"y":2548004.7699999996}},{"attributes":{"ID":17959,"DIS_CODE":0,"TOWNNAME":"永康區","LI":"崑山里","LIN":"34鄰","STREET":"大灣路","SECT":" ","MAREA":" ","LANE":"９４２巷","ALLEY":"１９４弄","HOUSE_NO":"２８號","E_COORD97":173868.88,"N_COORD97":2544946.79,"ADDRESS":"大灣路９４２巷１９４弄２８號","OBJECTID":17959},"geometry":{"x":173868.87999999989,"y":2544946.7900000028}},{"attributes":{"ID":17960,"DIS_CODE":0,"TOWNNAME":"六甲區","LI":"中社里","LIN":"14鄰","STREET":" ","SECT":" ","MAREA":"農場","LANE":" ","ALLEY":" ","HOUSE_NO":"２３號","E_COORD97":181164.95000000001,"N_COORD97":2572208.02,"ADDRESS":"農場２３號","OBJECTID":17960},"geometry":{"x":181164.94999999925,"y":2572208.0200000033}},{"attributes":{"ID":17961,"DIS_CODE":0,"TOWNNAME":"歸仁區","LI":"六甲里","LIN":"34鄰","STREET":"六甲六街","SECT":" ","MAREA":" ","LANE":"１１巷","ALLEY":"１弄","HOUSE_NO":"８號","E_COORD97":175587.57771400001,"N_COORD97":2539321.6382900001,"ADDRESS":"六甲六街１１巷１弄８號","OBJECTID":17961},"geometry":{"x":175587.5777139999,"y":2539321.6382870022}},{"attributes":{"ID":17962,"DIS_CODE":0,"TOWNNAME":"歸仁區","LI":"六甲里","LIN":"34鄰","STREET":"六甲六街","SECT":" ","MAREA":" ","LANE":"１１巷","ALLEY":"１弄","HOUSE_NO":"５號","E_COORD97":175587.15398,"N_COORD97":2539300.0482999999,"ADDRESS":"六甲六街１１巷１弄５號","OBJECTID":17962},"geometry":{"x":175587.15397999994,"y":2539300.0482990015}},{"attributes":{"ID":17963,"DIS_CODE":0,"TOWNNAME":"歸仁區","LI":"六甲里","LIN":"34鄰","STREET":"六甲六街","SECT":" ","MAREA":" ","LANE":"１１巷","ALLEY":"１弄","HOUSE_NO":"７號","E_COORD97":175582.28102900001,"N_COORD97":2539301.2124600001,"ADDRESS":"六甲六街１１巷１弄７號","OBJECTID":17963},"geometry":{"x":175582.28102900088,"y":2539301.2124650013}},{"attributes":{"ID":17964,"DIS_CODE":0,"TOWNNAME":"歸仁區","LI":"六甲里","LIN":"34鄰","STREET":"六甲六街","SECT":" ","MAREA":" ","LANE":"１１巷","ALLEY":"１弄","HOUSE_NO":"６號","E_COORD97":175593.08626700001,"N_COORD97":2539320.4741199999,"ADDRESS":"六甲六街１１巷１弄６號","OBJECTID":17964},"geometry":{"x":175593.086267001,"y":2539320.4741210043}},{"attributes":{"ID":17965,"DIS_CODE":0,"TOWNNAME":"柳營區","LI":"神農里","LIN":"14鄰","STREET":" ","SECT":" ","MAREA":"果毅後","LANE":" ","ALLEY":" ","HOUSE_NO":"３８５號之１","E_COORD97":184603.92999999999,"N_COORD97":2572969.23,"ADDRESS":"果毅後３８５號之１","OBJECTID":17965},"geometry":{"x":184603.9299999997,"y":2572969.2300000004}},{"attributes":{"ID":17966,"DIS_CODE":0,"TOWNNAME":"歸仁區","LI":"六甲里","LIN":"34鄰","STREET":"六甲六街","SECT":" ","MAREA":" ","LANE":"１１巷","ALLEY":"１弄","HOUSE_NO":"１４號","E_COORD97":175568.08591200001,"N_COORD97":2539318.3574600001,"ADDRESS":"六甲六街１１巷１弄１４號","OBJECTID":17966},"geometry":{"x":175568.08591200132,"y":2539318.3574560024}},{"attributes":{"ID":17967,"DIS_CODE":0,"TOWNNAME":"歸仁區","LI":"後市里","LIN":"34鄰","STREET":"民族北街","SECT":" ","MAREA":" ","LANE":"１７巷","ALLEY":"３８弄","HOUSE_NO":"５號","E_COORD97":177318.48000000001,"N_COORD97":2540909.75,"ADDRESS":"民族北街１７巷３８弄５號","OBJECTID":17967},"geometry":{"x":177318.48000000045,"y":2540909.75}},{"attributes":{"ID":17968,"DIS_CODE":0,"TOWNNAME":"柳營區","LI":"神農里","LIN":"14鄰","STREET":" ","SECT":" ","MAREA":"果毅後","LANE":" ","ALLEY":" ","HOUSE_NO":"３８５號之４","E_COORD97":184704.92999999999,"N_COORD97":2572989.2200000002,"ADDRESS":"果毅後３８５號之４","OBJECTID":17968},"geometry":{"x":184704.93000000063,"y":2572989.2200000007}},{"attributes":{"ID":17969,"DIS_CODE":0,"TOWNNAME":"歸仁區","LI":"後市里","LIN":"34鄰","STREET":"民族北街","SECT":" ","MAREA":" ","LANE":"１７巷","ALLEY":"３８弄","HOUSE_NO":"７號","E_COORD97":177318.48000000001,"N_COORD97":2540913.75,"ADDRESS":"民族北街１７巷３８弄７號","OBJECTID":17969},"geometry":{"x":177318.48000000045,"y":2540913.7500000037}},{"attributes":{"ID":17970,"DIS_CODE":0,"TOWNNAME":"歸仁區","LI":"後市里","LIN":"34鄰","STREET":"民族北街","SECT":" ","MAREA":" ","LANE":"１７巷","ALLEY":"３８弄","HOUSE_NO":"１１號","E_COORD97":177321.82999999999,"N_COORD97":2540924.75,"ADDRESS":"民族北街１７巷３８弄１１號","OBJECTID":17970},"geometry":{"x":177321.83000000101,"y":2540924.7500000019}},{"attributes":{"ID":17971,"DIS_CODE":0,"TOWNNAME":"北區","LI":"大港里","LIN":"34鄰","STREET":"大興街","SECT":" ","MAREA":" ","LANE":"５２８巷","ALLEY":"４９弄","HOUSE_NO":"１號","E_COORD97":165950.07999999999,"N_COORD97":2545561.4300000002,"ADDRESS":"大興街５２８巷４９弄１號","OBJECTID":17971},"geometry":{"x":165950.08000000101,"y":2545561.4300000016}},{"attributes":{"ID":17972,"DIS_CODE":0,"TOWNNAME":"柳營區","LI":"神農里","LIN":"14鄰","STREET":" ","SECT":" ","MAREA":"果毅後","LANE":" ","ALLEY":" ","HOUSE_NO":"３８５號之６","E_COORD97":184722.87,"N_COORD97":2572954.0099999998,"ADDRESS":"果毅後３８５號之６","OBJECTID":17972},"geometry":{"x":184722.87000000104,"y":2572954.0100000035}},{"attributes":{"ID":17973,"DIS_CODE":0,"TOWNNAME":"北區","LI":"大港里","LIN":"34鄰","STREET":"大興街","SECT":" ","MAREA":" ","LANE":"５２８巷","ALLEY":"４９弄","HOUSE_NO":"２號","E_COORD97":165946.39999999999,"N_COORD97":2545558.7599999998,"ADDRESS":"大興街５２８巷４９弄２號","OBJECTID":17973},"geometry":{"x":165946.4000000013,"y":2545558.7600000016}},{"attributes":{"ID":17974,"DIS_CODE":0,"TOWNNAME":"安平區","LI":"育平里","LIN":"34鄰","STREET":"郡平路","SECT":" ","MAREA":" ","LANE":"２７４巷","ALLEY":"２０弄","HOUSE_NO":"１５號","E_COORD97":164485.16,"N_COORD97":2543423.98,"ADDRESS":"郡平路２７４巷２０弄１５號","OBJECTID":17974},"geometry":{"x":164485.16000000108,"y":2543423.9800000004}},{"attributes":{"ID":17975,"DIS_CODE":0,"TOWNNAME":"北區","LI":"大港里","LIN":"34鄰","STREET":"大興街","SECT":" ","MAREA":" ","LANE":"５２８巷","ALLEY":"１３弄","HOUSE_NO":"３０號","E_COORD97":165925.76999999999,"N_COORD97":2545486.1800000002,"ADDRESS":"大興街５２８巷１３弄３０號","OBJECTID":17975},"geometry":{"x":165925.76999999862,"y":2545486.1799999997}},{"attributes":{"ID":17976,"DIS_CODE":0,"TOWNNAME":"柳營區","LI":"神農里","LIN":"14鄰","STREET":" ","SECT":" ","MAREA":"果毅後","LANE":" ","ALLEY":" ","HOUSE_NO":"３８５號之７","E_COORD97":184789.87,"N_COORD97":2572905.79,"ADDRESS":"果毅後３８５號之７","OBJECTID":17976},"geometry":{"x":184789.87000000197,"y":2572905.7899999991}},{"attributes":{"ID":17977,"DIS_CODE":0,"TOWNNAME":"北區","LI":"大港里","LIN":"34鄰","STREET":"大興街","SECT":" ","MAREA":" ","LANE":"５２８巷","ALLEY":"１３弄","HOUSE_NO":"１００號","E_COORD97":165867.44,"N_COORD97":2545454.4900000002,"ADDRESS":"大興街５２８巷１３弄１００號","OBJECTID":17977},"geometry":{"x":165867.44000000041,"y":2545454.4900000002}},{"attributes":{"ID":17978,"DIS_CODE":0,"TOWNNAME":"柳營區","LI":"神農里","LIN":"14鄰","STREET":" ","SECT":" ","MAREA":"果毅後","LANE":" ","ALLEY":" ","HOUSE_NO":"３８５之８號","E_COORD97":184779.76000000001,"N_COORD97":2572915.27,"ADDRESS":"果毅後３８５之８號","OBJECTID":17978},"geometry":{"x":184779.75999999978,"y":2572915.2700000014}},{"attributes":{"ID":17979,"DIS_CODE":0,"TOWNNAME":"北區","LI":"大港里","LIN":"34鄰","STREET":"大興街","SECT":" ","MAREA":" ","LANE":"５２８巷","ALLEY":"１３弄","HOUSE_NO":"２號","E_COORD97":165964.20999999999,"N_COORD97":2545495.71,"ADDRESS":"大興街５２８巷１３弄２號","OBJECTID":17979},"geometry":{"x":165964.21000000089,"y":2545495.7100000028}},{"attributes":{"ID":17980,"DIS_CODE":0,"TOWNNAME":"北區","LI":"大港里","LIN":"34鄰","STREET":"大興街","SECT":" ","MAREA":" ","LANE":"５２８巷","ALLEY":"１３弄","HOUSE_NO":"４０號","E_COORD97":165905.20999999999,"N_COORD97":2545476.2599999998,"ADDRESS":"大興街５２８巷１３弄４０號","OBJECTID":17980},"geometry":{"x":165905.21000000089,"y":2545476.2599999998}},{"attributes":{"ID":17981,"DIS_CODE":0,"TOWNNAME":"北區","LI":"大港里","LIN":"34鄰","STREET":"大興街","SECT":" ","MAREA":" ","LANE":"５２８巷","ALLEY":"１３弄","HOUSE_NO":"４２號","E_COORD97":165902.37,"N_COORD97":2545480.52,"ADDRESS":"大興街５２８巷１３弄４２號","OBJECTID":17981},"geometry":{"x":165902.37000000104,"y":2545480.5199999996}},{"attributes":{"ID":17982,"DIS_CODE":0,"TOWNNAME":"北區","LI":"大港里","LIN":"34鄰","STREET":"大興街","SECT":" ","MAREA":" ","LANE":"５２８巷","ALLEY":"１３弄","HOUSE_NO":"４４號","E_COORD97":165896.82000000001,"N_COORD97":2545487.4900000002,"ADDRESS":"大興街５２８巷１３弄４４號","OBJECTID":17982},"geometry":{"x":165896.8200000003,"y":2545487.4900000021}},{"attributes":{"ID":17983,"DIS_CODE":0,"TOWNNAME":"北區","LI":"大港里","LIN":"34鄰","STREET":"大興街","SECT":" ","MAREA":" ","LANE":"５２８巷","ALLEY":"１３弄","HOUSE_NO":"４６號","E_COORD97":165893.97,"N_COORD97":2545490.7599999998,"ADDRESS":"大興街５２８巷１３弄４６號","OBJECTID":17983},"geometry":{"x":165893.96999999974,"y":2545490.7600000016}},{"attributes":{"ID":17984,"DIS_CODE":0,"TOWNNAME":"北區","LI":"大港里","LIN":"34鄰","STREET":"大興街","SECT":" ","MAREA":" ","LANE":"５２８巷","ALLEY":"１３弄","HOUSE_NO":"４８號","E_COORD97":165888.56,"N_COORD97":2545497.1600000001,"ADDRESS":"大興街５２８巷１３弄４８號","OBJECTID":17984},"geometry":{"x":165888.56000000052,"y":2545497.1600000001}},{"attributes":{"ID":17985,"DIS_CODE":0,"TOWNNAME":"北區","LI":"大港里","LIN":"34鄰","STREET":"大興街","SECT":" ","MAREA":" ","LANE":"５２８巷","ALLEY":"１３弄","HOUSE_NO":"４之１號","E_COORD97":165949.19,"N_COORD97":2545493.02,"ADDRESS":"大興街５２８巷１３弄４之１號","OBJECTID":17985},"geometry":{"x":165949.19000000041,"y":2545493.0200000014}},{"attributes":{"ID":17986,"DIS_CODE":0,"TOWNNAME":"柳營區","LI":"神農里","LIN":"14鄰","STREET":" ","SECT":" ","MAREA":"果毅後","LANE":" ","ALLEY":" ","HOUSE_NO":"３８５之９號","E_COORD97":184774.35999999999,"N_COORD97":2572914.6099999999,"ADDRESS":"果毅後３８５之９號","OBJECTID":17986},"geometry":{"x":184774.36000000034,"y":2572914.6099999994}},{"attributes":{"ID":17987,"DIS_CODE":0,"TOWNNAME":"北區","LI":"大港里","LIN":"34鄰","STREET":"大興街","SECT":" ","MAREA":" ","LANE":"５２８巷","ALLEY":"１３弄","HOUSE_NO":"４號","E_COORD97":165959.14000000001,"N_COORD97":2545493.1600000001,"ADDRESS":"大興街５２８巷１３弄４號","OBJECTID":17987},"geometry":{"x":165959.14000000153,"y":2545493.1600000001}},{"attributes":{"ID":17988,"DIS_CODE":0,"TOWNNAME":"北區","LI":"大港里","LIN":"34鄰","STREET":"大興街","SECT":" ","MAREA":" ","LANE":"５２８巷","ALLEY":"１３弄","HOUSE_NO":"５０號","E_COORD97":165885.57999999999,"N_COORD97":2545501.71,"ADDRESS":"大興街５２８巷１３弄５０號","OBJECTID":17988},"geometry":{"x":165885.58000000101,"y":2545501.709999999}},{"attributes":{"ID":17989,"DIS_CODE":0,"TOWNNAME":"北區","LI":"大港里","LIN":"34鄰","STREET":"大興街","SECT":" ","MAREA":" ","LANE":"５２８巷","ALLEY":"１３弄","HOUSE_NO":"５２號","E_COORD97":165880.73000000001,"N_COORD97":2545507.1200000001,"ADDRESS":"大興街５２８巷１３弄５２號","OBJECTID":17989},"geometry":{"x":165880.73000000045,"y":2545507.1200000029}},{"attributes":{"ID":17990,"DIS_CODE":0,"TOWNNAME":"北區","LI":"大港里","LIN":"34鄰","STREET":"大興街","SECT":" ","MAREA":" ","LANE":"５２８巷","ALLEY":"１３弄","HOUSE_NO":"５４號","E_COORD97":165872.72,"N_COORD97":2545500.1600000001,"ADDRESS":"大興街５２８巷１３弄５４號","OBJECTID":17990},"geometry":{"x":165872.72000000067,"y":2545500.1600000001}},{"attributes":{"ID":17991,"DIS_CODE":0,"TOWNNAME":"北區","LI":"大港里","LIN":"34鄰","STREET":"大興街","SECT":" ","MAREA":" ","LANE":"５２８巷","ALLEY":"１３弄","HOUSE_NO":"５６號","E_COORD97":165877.14000000001,"N_COORD97":2545494.8999999999,"ADDRESS":"大興街５２８巷１３弄５６號","OBJECTID":17991},"geometry":{"x":165877.13999999966,"y":2545494.9000000022}},{"attributes":{"ID":17992,"DIS_CODE":0,"TOWNNAME":"北區","LI":"大港里","LIN":"34鄰","STREET":"大興街","SECT":" ","MAREA":" ","LANE":"５２８巷","ALLEY":"１３弄","HOUSE_NO":"５８號","E_COORD97":165879.54000000001,"N_COORD97":2545490.3500000001,"ADDRESS":"大興街５２８巷１３弄５８號","OBJECTID":17992},"geometry":{"x":165879.54000000097,"y":2545490.3500000015}},{"attributes":{"ID":17993,"DIS_CODE":0,"TOWNNAME":"北區","LI":"大港里","LIN":"34鄰","STREET":"大興街","SECT":" ","MAREA":" ","LANE":"５２８巷","ALLEY":"１３弄","HOUSE_NO":"６０號","E_COORD97":165883.95000000001,"N_COORD97":2545483.9500000002,"ADDRESS":"大興街５２８巷１３弄６０號","OBJECTID":17993},"geometry":{"x":165883.95000000019,"y":2545483.9499999993}},{"attributes":{"ID":17994,"DIS_CODE":0,"TOWNNAME":"北區","LI":"大港里","LIN":"34鄰","STREET":"大興街","SECT":" ","MAREA":" ","LANE":"５２８巷","ALLEY":"１３弄","HOUSE_NO":"６２號","E_COORD97":165888.23999999999,"N_COORD97":2545480.6800000002,"ADDRESS":"大興街５２８巷１３弄６２號","OBJECTID":17994},"geometry":{"x":165888.24000000115,"y":2545480.6800000034}},{"attributes":{"ID":17995,"DIS_CODE":0,"TOWNNAME":"北區","LI":"大港里","LIN":"34鄰","STREET":"大興街","SECT":" ","MAREA":" ","LANE":"５２８巷","ALLEY":"１３弄","HOUSE_NO":"６４號","E_COORD97":165892.64000000001,"N_COORD97":2545474.4199999999,"ADDRESS":"大興街５２８巷１３弄６４號","OBJECTID":17995},"geometry":{"x":165892.63999999966,"y":2545474.4199999999}},{"attributes":{"ID":17996,"DIS_CODE":0,"TOWNNAME":"柳營區","LI":"神農里","LIN":"14鄰","STREET":" ","SECT":" ","MAREA":"果毅後","LANE":" ","ALLEY":" ","HOUSE_NO":"３８５號","E_COORD97":184756.37,"N_COORD97":2572916.4100000001,"ADDRESS":"果毅後３８５號","OBJECTID":17996},"geometry":{"x":184756.37000000104,"y":2572916.4100000001}},{"attributes":{"ID":17997,"DIS_CODE":0,"TOWNNAME":"北區","LI":"大港里","LIN":"34鄰","STREET":"大興街","SECT":" ","MAREA":" ","LANE":"５２８巷","ALLEY":"１３弄","HOUSE_NO":"６８號","E_COORD97":165881.20999999999,"N_COORD97":2545459.6400000001,"ADDRESS":"大興街５２８巷１３弄６８號","OBJECTID":17997},"geometry":{"x":165881.21000000089,"y":2545459.6400000025}},{"attributes":{"ID":17998,"DIS_CODE":0,"TOWNNAME":"柳營區","LI":"神農里","LIN":"14鄰","STREET":" ","SECT":" ","MAREA":"果毅後","LANE":" ","ALLEY":" ","HOUSE_NO":"３８６號","E_COORD97":184575.13,"N_COORD97":2572991.8399999999,"ADDRESS":"果毅後３８６號","OBJECTID":17998},"geometry":{"x":184575.12999999989,"y":2572991.8399999999}},{"attributes":{"ID":17999,"DIS_CODE":0,"TOWNNAME":"北區","LI":"大港里","LIN":"34鄰","STREET":"大興街","SECT":" ","MAREA":" ","LANE":"５２８巷","ALLEY":"１３弄","HOUSE_NO":"７０號","E_COORD97":165876.78,"N_COORD97":2545463.77,"ADDRESS":"大興街５２８巷１３弄７０號","OBJECTID":17999},"geometry":{"x":165876.78000000026,"y":2545463.7700000014}},{"attributes":{"ID":18000,"DIS_CODE":0,"TOWNNAME":"北區","LI":"大港里","LIN":"34鄰","STREET":"大興街","SECT":" ","MAREA":" ","LANE":"５２８巷","ALLEY":"１３弄","HOUSE_NO":"７２號","E_COORD97":165873.92999999999,"N_COORD97":2545467.1800000002,"ADDRESS":"大興街５２８巷１３弄７２號","OBJECTID":18000},"geometry":{"x":165873.9299999997,"y":2545467.1800000034}}]}