{"displayFieldName":"TOWNNAME","fieldAliases":{"ID":"ID","DIS_CODE":"DIS_CODE","TOWNNAME":"TOWNNAME","LI":"LI","LIN":"LIN","STREET":"STREET","SECT":"SECT","MAREA":"MAREA","LANE":"LANE","ALLEY":"ALLEY","HOUSE_NO":"HOUSE_NO","E_COORD97":"E_COORD97","N_COORD97":"N_COORD97","ADDRESS":"ADDRESS","OBJECTID":"OBJECTID"},"geometryType":"esriGeometryPoint","spatialReference":{"wkid":102443,"latestWkid":3826},"fields":[{"name":"ID","type":"esriFieldTypeDouble","alias":"ID"},{"name":"DIS_CODE","type":"esriFieldTypeInteger","alias":"DIS_CODE"},{"name":"TOWNNAME","type":"esriFieldTypeString","alias":"TOWNNAME","length":8},{"name":"LI","type":"esriFieldTypeString","alias":"LI","length":8},{"name":"LIN","type":"esriFieldTypeString","alias":"LIN","length":12},{"name":"STREET","type":"esriFieldTypeString","alias":"STREET","length":20},{"name":"SECT","type":"esriFieldTypeString","alias":"SECT","length":8},{"name":"MAREA","type":"esriFieldTypeString","alias":"MAREA","length":12},{"name":"LANE","type":"esriFieldTypeString","alias":"LANE","length":10},{"name":"ALLEY","type":"esriFieldTypeString","alias":"ALLEY","length":10},{"name":"HOUSE_NO","type":"esriFieldTypeString","alias":"HOUSE_NO","length":20},{"name":"E_COORD97","type":"esriFieldTypeDouble","alias":"E_COORD97"},{"name":"N_COORD97","type":"esriFieldTypeDouble","alias":"N_COORD97"},{"name":"ADDRESS","type":"esriFieldTypeString","alias":"ADDRESS","length":50},{"name":"OBJECTID","type":"esriFieldTypeOID","alias":"OBJECTID"}],"features":[{"attributes":{"ID":341610,"DIS_CODE":0,"TOWNNAME":"永康區","LI":"埔園里","LIN":"1鄰","STREET":"埔聖街","SECT":" ","MAREA":" ","LANE":"１３巷","ALLEY":" ","HOUSE_NO":"７號","E_COORD97":173861.67999999999,"N_COORD97":2547614.2400000002,"ADDRESS":"埔聖街１３巷７號","OBJECTID":341601},"geometry":{"x":173861.6799999997,"y":2547614.2400000021}},{"attributes":{"ID":341611,"DIS_CODE":0,"TOWNNAME":"永康區","LI":"烏竹里","LIN":"1鄰","STREET":"烏竹北街","SECT":" ","MAREA":" ","LANE":"９８巷","ALLEY":" ","HOUSE_NO":"６５號","E_COORD97":174523.48000000001,"N_COORD97":2549598.9900000002,"ADDRESS":"烏竹北街９８巷６５號","OBJECTID":341602},"geometry":{"x":174523.48000000231,"y":2549598.9900000021}},{"attributes":{"ID":341612,"DIS_CODE":0,"TOWNNAME":"安南區","LI":"學東里","LIN":"1鄰","STREET":"公學路","SECT":"六段","MAREA":" ","LANE":"７２１巷","ALLEY":" ","HOUSE_NO":"３２１號","E_COORD97":162315.23999999999,"N_COORD97":2552919.0600000001,"ADDRESS":"公學路六段７２１巷３２１號","OBJECTID":341603},"geometry":{"x":162315.24000000022,"y":2552919.0600000005}},{"attributes":{"ID":341613,"DIS_CODE":0,"TOWNNAME":"安南區","LI":"城東里","LIN":"1鄰","STREET":"城北路","SECT":" ","MAREA":" ","LANE":"１３８巷","ALLEY":" ","HOUSE_NO":"１０２號","E_COORD97":161235.5,"N_COORD97":2551731.8100000001,"ADDRESS":"城北路１３８巷１０２號","OBJECTID":341604},"geometry":{"x":161235.5,"y":2551731.8100000005}},{"attributes":{"ID":341614,"DIS_CODE":0,"TOWNNAME":"安南區","LI":"城東里","LIN":"1鄰","STREET":"城北路","SECT":" ","MAREA":" ","LANE":"２３４巷","ALLEY":" ","HOUSE_NO":"１１９號","E_COORD97":161240.17000000001,"N_COORD97":2551835.9700000002,"ADDRESS":"城北路２３４巷１１９號","OBJECTID":341605},"geometry":{"x":161240.17000000086,"y":2551835.9700000007}},{"attributes":{"ID":341615,"DIS_CODE":0,"TOWNNAME":"安南區","LI":"城東里","LIN":"1鄰","STREET":"城北路","SECT":" ","MAREA":" ","LANE":"９８巷","ALLEY":" ","HOUSE_NO":"１９０號","E_COORD97":161254.35999999999,"N_COORD97":2551702.1699999999,"ADDRESS":"城北路９８巷１９０號","OBJECTID":341606},"geometry":{"x":161254.36000000127,"y":2551702.1700000037}},{"attributes":{"ID":341616,"DIS_CODE":0,"TOWNNAME":"安南區","LI":"城北里","LIN":"1鄰","STREET":"安中路","SECT":"六段","MAREA":" ","LANE":"５７８巷","ALLEY":" ","HOUSE_NO":"１９號","E_COORD97":160879.17999999999,"N_COORD97":2551460.9700000002,"ADDRESS":"安中路六段５７８巷１９號","OBJECTID":341607},"geometry":{"x":160879.18000000063,"y":2551460.9700000025}},{"attributes":{"ID":341617,"DIS_CODE":0,"TOWNNAME":"安南區","LI":"城北里","LIN":"1鄰","STREET":"安中路","SECT":"六段","MAREA":" ","LANE":"５７８巷","ALLEY":" ","HOUSE_NO":"２１號","E_COORD97":160882.92999999999,"N_COORD97":2551477.3999999999,"ADDRESS":"安中路六段５７８巷２１號","OBJECTID":341608},"geometry":{"x":160882.9299999997,"y":2551477.4000000041}},{"attributes":{"ID":341618,"DIS_CODE":0,"TOWNNAME":"安南區","LI":"城北里","LIN":"1鄰","STREET":"安中路","SECT":"六段","MAREA":" ","LANE":"５７８巷","ALLEY":" ","HOUSE_NO":"２３號","E_COORD97":160887.69,"N_COORD97":2551478.8799999999,"ADDRESS":"安中路六段５７８巷２３號","OBJECTID":341609},"geometry":{"x":160887.69000000134,"y":2551478.879999999}},{"attributes":{"ID":341619,"DIS_CODE":0,"TOWNNAME":"新市區","LI":"新和里","LIN":"1鄰","STREET":"中華路","SECT":" ","MAREA":" ","LANE":"３巷","ALLEY":" ","HOUSE_NO":"１５號","E_COORD97":177314.87,"N_COORD97":2552057,"ADDRESS":"中華路３巷１５號","OBJECTID":341610},"geometry":{"x":177314.87000000104,"y":2552057.0000000019}},{"attributes":{"ID":341620,"DIS_CODE":0,"TOWNNAME":"新化區","LI":"東榮里","LIN":"5鄰","STREET":"信義路","SECT":" ","MAREA":" ","LANE":"９３巷","ALLEY":" ","HOUSE_NO":"１４號","E_COORD97":179853.53,"N_COORD97":2548646.25,"ADDRESS":"信義路９３巷１４號","OBJECTID":341611},"geometry":{"x":179853.53000000026,"y":2548646.25}},{"attributes":{"ID":341621,"DIS_CODE":0,"TOWNNAME":"東區","LI":"文聖里","LIN":"1鄰","STREET":"裕農路","SECT":" ","MAREA":" ","LANE":"６６８巷","ALLEY":" ","HOUSE_NO":"９９號","E_COORD97":171755.67000000001,"N_COORD97":2542860.1299999999,"ADDRESS":"裕農路６６８巷９９號","OBJECTID":341612},"geometry":{"x":171755.67000000086,"y":2542860.1300000008}},{"attributes":{"ID":341622,"DIS_CODE":0,"TOWNNAME":"東區","LI":"文聖里","LIN":"1鄰","STREET":"裕農路","SECT":" ","MAREA":" ","LANE":"６６８巷","ALLEY":" ","HOUSE_NO":"８３號","E_COORD97":171773.53,"N_COORD97":2542838.8900000001,"ADDRESS":"裕農路６６８巷８３號","OBJECTID":341613},"geometry":{"x":171773.53000000119,"y":2542838.8900000043}},{"attributes":{"ID":341623,"DIS_CODE":0,"TOWNNAME":"東區","LI":"德高里","LIN":"1鄰","STREET":"仁和路","SECT":" ","MAREA":" ","LANE":"１３９巷","ALLEY":" ","HOUSE_NO":"８６號","E_COORD97":171732.10000000001,"N_COORD97":2541044.7000000002,"ADDRESS":"仁和路１３９巷８６號","OBJECTID":341614},"geometry":{"x":171732.10000000056,"y":2541044.6999999993}},{"attributes":{"ID":341624,"DIS_CODE":0,"TOWNNAME":"東區","LI":"德高里","LIN":"1鄰","STREET":"仁和路","SECT":" ","MAREA":" ","LANE":"１３９巷","ALLEY":" ","HOUSE_NO":"８８號","E_COORD97":171737.69,"N_COORD97":2541044.5800000001,"ADDRESS":"仁和路１３９巷８８號","OBJECTID":341615},"geometry":{"x":171737.69000000041,"y":2541044.5800000019}},{"attributes":{"ID":341625,"DIS_CODE":0,"TOWNNAME":"新化區","LI":"護國里","LIN":"1鄰","STREET":"中山路","SECT":" ","MAREA":" ","LANE":"２２４巷","ALLEY":" ","HOUSE_NO":"５號","E_COORD97":179119.10999999999,"N_COORD97":2548473.25,"ADDRESS":"中山路２２４巷５號","OBJECTID":341616},"geometry":{"x":179119.11000000034,"y":2548473.25}},{"attributes":{"ID":341626,"DIS_CODE":0,"TOWNNAME":"新化區","LI":"護國里","LIN":"7鄰","STREET":"復興路","SECT":" ","MAREA":" ","LANE":"２９０巷","ALLEY":" ","HOUSE_NO":"１號之２","E_COORD97":179368.28,"N_COORD97":2548459.2599999998,"ADDRESS":"復興路２９０巷１號之２","OBJECTID":341617},"geometry":{"x":179368.28000000119,"y":2548459.2599999998}},{"attributes":{"ID":341627,"DIS_CODE":0,"TOWNNAME":"新化區","LI":"東榮里","LIN":"18鄰","STREET":"中興路","SECT":" ","MAREA":" ","LANE":"６８５巷","ALLEY":" ","HOUSE_NO":"５７號","E_COORD97":179559.56,"N_COORD97":2547992.25,"ADDRESS":"中興路６８５巷５７號","OBJECTID":341618},"geometry":{"x":179559.55999999959,"y":2547992.25}},{"attributes":{"ID":341628,"DIS_CODE":0,"TOWNNAME":"新化區","LI":"唪口里","LIN":"5鄰","STREET":" ","SECT":" ","MAREA":"唪口","LANE":" ","ALLEY":" ","HOUSE_NO":"４５號","E_COORD97":178167.20000000001,"N_COORD97":2548978.25,"ADDRESS":"唪口４５號","OBJECTID":341619},"geometry":{"x":178167.20000000019,"y":2548978.25}},{"attributes":{"ID":341629,"DIS_CODE":0,"TOWNNAME":"善化區","LI":"文正里","LIN":"1鄰","STREET":"進學路","SECT":" ","MAREA":" ","LANE":"７９巷","ALLEY":" ","HOUSE_NO":"１３號","E_COORD97":177085.98000000001,"N_COORD97":2559584.75,"ADDRESS":"進學路７９巷１３號","OBJECTID":341620},"geometry":{"x":177085.98000000045,"y":2559584.7500000019}},{"attributes":{"ID":341630,"DIS_CODE":0,"TOWNNAME":"善化區","LI":"文正里","LIN":"1鄰","STREET":"進學路","SECT":" ","MAREA":" ","LANE":"９９巷","ALLEY":" ","HOUSE_NO":"２１號","E_COORD97":177083.63,"N_COORD97":2559621.25,"ADDRESS":"進學路９９巷２１號","OBJECTID":341621},"geometry":{"x":177083.63000000082,"y":2559621.25}},{"attributes":{"ID":341631,"DIS_CODE":0,"TOWNNAME":"善化區","LI":"小新里","LIN":"1鄰","STREET":"成功路","SECT":" ","MAREA":" ","LANE":"５３巷","ALLEY":" ","HOUSE_NO":"３８號","E_COORD97":180003.85000000001,"N_COORD97":2558513.75,"ADDRESS":"成功路５３巷３８號","OBJECTID":341622},"geometry":{"x":180003.8499999987,"y":2558513.7500000019}},{"attributes":{"ID":341632,"DIS_CODE":0,"TOWNNAME":"善化區","LI":"文正里","LIN":"1鄰","STREET":"進學路","SECT":" ","MAREA":" ","LANE":"７１巷","ALLEY":" ","HOUSE_NO":"９號","E_COORD97":177129.84,"N_COORD97":2559554.5,"ADDRESS":"進學路７１巷９號","OBJECTID":341623},"geometry":{"x":177129.84000000078,"y":2559554.5}},{"attributes":{"ID":341633,"DIS_CODE":0,"TOWNNAME":"北區","LI":"三德里","LIN":"5鄰","STREET":"忠義路","SECT":"三段","MAREA":" ","LANE":"３９巷","ALLEY":" ","HOUSE_NO":"２號二樓之２","E_COORD97":168514.54999999999,"N_COORD97":2544467.3999999999,"ADDRESS":"忠義路三段３９巷２號二樓之２","OBJECTID":341624},"geometry":{"x":168514.55000000168,"y":2544467.4000000022}},{"attributes":{"ID":341634,"DIS_CODE":0,"TOWNNAME":"北區","LI":"三德里","LIN":"5鄰","STREET":"忠義路","SECT":"三段","MAREA":" ","LANE":"３９巷","ALLEY":" ","HOUSE_NO":"２號二樓之３","E_COORD97":168514.54999999999,"N_COORD97":2544467.3999999999,"ADDRESS":"忠義路三段３９巷２號二樓之３","OBJECTID":341625},"geometry":{"x":168514.55000000168,"y":2544467.4000000022}},{"attributes":{"ID":341635,"DIS_CODE":0,"TOWNNAME":"北區","LI":"三德里","LIN":"5鄰","STREET":"忠義路","SECT":"三段","MAREA":" ","LANE":"３９巷","ALLEY":" ","HOUSE_NO":"２號二樓之４","E_COORD97":168514.54999999999,"N_COORD97":2544467.3999999999,"ADDRESS":"忠義路三段３９巷２號二樓之４","OBJECTID":341626},"geometry":{"x":168514.55000000168,"y":2544467.4000000022}},{"attributes":{"ID":341636,"DIS_CODE":0,"TOWNNAME":"北區","LI":"三德里","LIN":"5鄰","STREET":"忠義路","SECT":"三段","MAREA":" ","LANE":"３９巷","ALLEY":" ","HOUSE_NO":"２號三樓","E_COORD97":168514.54999999999,"N_COORD97":2544467.3999999999,"ADDRESS":"忠義路三段３９巷２號三樓","OBJECTID":341627},"geometry":{"x":168514.55000000168,"y":2544467.4000000022}},{"attributes":{"ID":341637,"DIS_CODE":0,"TOWNNAME":"北區","LI":"三德里","LIN":"5鄰","STREET":"忠義路","SECT":"三段","MAREA":" ","LANE":"３９巷","ALLEY":" ","HOUSE_NO":"２號五樓","E_COORD97":168514.54999999999,"N_COORD97":2544467.3999999999,"ADDRESS":"忠義路三段３９巷２號五樓","OBJECTID":341628},"geometry":{"x":168514.55000000168,"y":2544467.4000000022}},{"attributes":{"ID":341638,"DIS_CODE":0,"TOWNNAME":"北區","LI":"三德里","LIN":"5鄰","STREET":"忠義路","SECT":"三段","MAREA":" ","LANE":"３９巷","ALLEY":" ","HOUSE_NO":"２號四樓","E_COORD97":168514.54999999999,"N_COORD97":2544467.3999999999,"ADDRESS":"忠義路三段３９巷２號四樓","OBJECTID":341629},"geometry":{"x":168514.55000000168,"y":2544467.4000000022}},{"attributes":{"ID":341639,"DIS_CODE":0,"TOWNNAME":"新營區","LI":"民權里","LIN":"5鄰","STREET":"信義街","SECT":" ","MAREA":" ","LANE":"７２巷","ALLEY":" ","HOUSE_NO":"１０號三樓之１","E_COORD97":180002.19,"N_COORD97":2578521.8399999999,"ADDRESS":"信義街７２巷１０號三樓之１","OBJECTID":341630},"geometry":{"x":180002.19000000041,"y":2578521.8399999999}},{"attributes":{"ID":341640,"DIS_CODE":0,"TOWNNAME":"新營區","LI":"民權里","LIN":"5鄰","STREET":"信義街","SECT":" ","MAREA":" ","LANE":"７２巷","ALLEY":" ","HOUSE_NO":"１０號七樓之１","E_COORD97":180002.19,"N_COORD97":2578521.8399999999,"ADDRESS":"信義街７２巷１０號七樓之１","OBJECTID":341631},"geometry":{"x":180002.19000000041,"y":2578521.8399999999}},{"attributes":{"ID":341641,"DIS_CODE":0,"TOWNNAME":"新營區","LI":"民權里","LIN":"5鄰","STREET":"信義街","SECT":" ","MAREA":" ","LANE":"７２巷","ALLEY":" ","HOUSE_NO":"１０號四樓之１","E_COORD97":180002.19,"N_COORD97":2578521.8399999999,"ADDRESS":"信義街７２巷１０號四樓之１","OBJECTID":341632},"geometry":{"x":180002.19000000041,"y":2578521.8399999999}},{"attributes":{"ID":341642,"DIS_CODE":0,"TOWNNAME":"新營區","LI":"民權里","LIN":"5鄰","STREET":"信義街","SECT":" ","MAREA":" ","LANE":"７２巷","ALLEY":" ","HOUSE_NO":"１０號三樓之６","E_COORD97":180002.29000000001,"N_COORD97":2578521.8399999999,"ADDRESS":"信義街７２巷１０號三樓之６","OBJECTID":341633},"geometry":{"x":180002.29000000004,"y":2578521.8399999999}},{"attributes":{"ID":341643,"DIS_CODE":0,"TOWNNAME":"新營區","LI":"民權里","LIN":"5鄰","STREET":"信義街","SECT":" ","MAREA":" ","LANE":"７２巷","ALLEY":" ","HOUSE_NO":"１０號八樓之３","E_COORD97":180002.28,"N_COORD97":2578521.8399999999,"ADDRESS":"信義街７２巷１０號八樓之３","OBJECTID":341634},"geometry":{"x":180002.28000000119,"y":2578521.8399999999}},{"attributes":{"ID":341644,"DIS_CODE":0,"TOWNNAME":"安平區","LI":"文平里","LIN":"5鄰","STREET":"建平六街","SECT":" ","MAREA":" ","LANE":"８０巷","ALLEY":" ","HOUSE_NO":"１１５號二樓之１","E_COORD97":166417.20999999999,"N_COORD97":2543138.25,"ADDRESS":"建平六街８０巷１１５號二樓之１","OBJECTID":341635},"geometry":{"x":166417.21000000089,"y":2543138.2500000019}},{"attributes":{"ID":341645,"DIS_CODE":0,"TOWNNAME":"安平區","LI":"文平里","LIN":"5鄰","STREET":"建平六街","SECT":" ","MAREA":" ","LANE":"８０巷","ALLEY":" ","HOUSE_NO":"１１５號二樓之２","E_COORD97":166417.20999999999,"N_COORD97":2543138.25,"ADDRESS":"建平六街８０巷１１５號二樓之２","OBJECTID":341636},"geometry":{"x":166417.21000000089,"y":2543138.2500000019}},{"attributes":{"ID":341646,"DIS_CODE":0,"TOWNNAME":"善化區","LI":"文正里","LIN":"1鄰","STREET":"進學路","SECT":" ","MAREA":" ","LANE":"７９巷","ALLEY":" ","HOUSE_NO":"５號","E_COORD97":177120.63,"N_COORD97":2559589.25,"ADDRESS":"進學路７９巷５號","OBJECTID":341637},"geometry":{"x":177120.63000000175,"y":2559589.2500000019}},{"attributes":{"ID":341647,"DIS_CODE":0,"TOWNNAME":"善化區","LI":"文正里","LIN":"1鄰","STREET":"進學路","SECT":" ","MAREA":" ","LANE":"７１巷","ALLEY":" ","HOUSE_NO":"３３號","E_COORD97":177072.67999999999,"N_COORD97":2559548.25,"ADDRESS":"進學路７１巷３３號","OBJECTID":341638},"geometry":{"x":177072.68000000063,"y":2559548.2500000019}},{"attributes":{"ID":341648,"DIS_CODE":0,"TOWNNAME":"善化區","LI":"文正里","LIN":"1鄰","STREET":"進學路","SECT":" ","MAREA":" ","LANE":"７１巷","ALLEY":" ","HOUSE_NO":"２４號","E_COORD97":177091.84,"N_COORD97":2559562,"ADDRESS":"進學路７１巷２４號","OBJECTID":341639},"geometry":{"x":177091.83999999892,"y":2559562}},{"attributes":{"ID":341649,"DIS_CODE":0,"TOWNNAME":"永康區","LI":"永康里","LIN":"8鄰","STREET":"永康街","SECT":" ","MAREA":" ","LANE":" ","ALLEY":" ","HOUSE_NO":"２７號","E_COORD97":173796.10999999999,"N_COORD97":2547263.7000000002,"ADDRESS":"永康街２７號","OBJECTID":341640},"geometry":{"x":173796.11000000034,"y":2547263.7000000011}},{"attributes":{"ID":341650,"DIS_CODE":0,"TOWNNAME":"永康區","LI":"永康里","LIN":"8鄰","STREET":"永康街","SECT":" ","MAREA":" ","LANE":" ","ALLEY":" ","HOUSE_NO":"４９號","E_COORD97":173801.63,"N_COORD97":2547228.6899999999,"ADDRESS":"永康街４９號","OBJECTID":341641},"geometry":{"x":173801.63000000082,"y":2547228.6899999995}},{"attributes":{"ID":341651,"DIS_CODE":0,"TOWNNAME":"佳里區","LI":"鎮山里","LIN":"8鄰","STREET":"佳東路","SECT":" ","MAREA":" ","LANE":" ","ALLEY":" ","HOUSE_NO":"７３號","E_COORD97":166423.69,"N_COORD97":2561520.6099999999,"ADDRESS":"佳東路７３號","OBJECTID":341642},"geometry":{"x":166423.69000000041,"y":2561520.6100000031}},{"attributes":{"ID":341652,"DIS_CODE":0,"TOWNNAME":"永康區","LI":"正強里","LIN":"8鄰","STREET":"永正路","SECT":" ","MAREA":" ","LANE":" ","ALLEY":" ","HOUSE_NO":"１３６號","E_COORD97":173521.79999999999,"N_COORD97":2547606.4900000002,"ADDRESS":"永正路１３６號","OBJECTID":341643},"geometry":{"x":173521.79999999981,"y":2547606.4900000002}},{"attributes":{"ID":341653,"DIS_CODE":0,"TOWNNAME":"永康區","LI":"正強里","LIN":"8鄰","STREET":"正義街","SECT":" ","MAREA":" ","LANE":" ","ALLEY":" ","HOUSE_NO":"５３號","E_COORD97":173552.70000000001,"N_COORD97":2547630.9500000002,"ADDRESS":"正義街５３號","OBJECTID":341644},"geometry":{"x":173552.70000000112,"y":2547630.9499999974}},{"attributes":{"ID":341654,"DIS_CODE":0,"TOWNNAME":"新營區","LI":"大宏里","LIN":"8鄰","STREET":"文昌街","SECT":" ","MAREA":" ","LANE":" ","ALLEY":" ","HOUSE_NO":"１６號二樓之１","E_COORD97":180442.54000000001,"N_COORD97":2578413.4500000002,"ADDRESS":"文昌街１６號二樓之１","OBJECTID":341645},"geometry":{"x":180442.54000000097,"y":2578413.4500000011}},{"attributes":{"ID":341655,"DIS_CODE":0,"TOWNNAME":"新營區","LI":"大宏里","LIN":"8鄰","STREET":"文昌街","SECT":" ","MAREA":" ","LANE":" ","ALLEY":" ","HOUSE_NO":"１６號三樓之２","E_COORD97":180442.67000000001,"N_COORD97":2578413.4500000002,"ADDRESS":"文昌街１６號三樓之２","OBJECTID":341646},"geometry":{"x":180442.66999999993,"y":2578413.4500000011}},{"attributes":{"ID":341656,"DIS_CODE":0,"TOWNNAME":"新營區","LI":"大宏里","LIN":"8鄰","STREET":"文昌街","SECT":" ","MAREA":" ","LANE":" ","ALLEY":" ","HOUSE_NO":"１６號三樓之３","E_COORD97":180442.63,"N_COORD97":2578413.4500000002,"ADDRESS":"文昌街１６號三樓之３","OBJECTID":341647},"geometry":{"x":180442.62999999989,"y":2578413.4500000011}},{"attributes":{"ID":341657,"DIS_CODE":0,"TOWNNAME":"新營區","LI":"大宏里","LIN":"8鄰","STREET":"文昌街","SECT":" ","MAREA":" ","LANE":" ","ALLEY":" ","HOUSE_NO":"１６號四樓之３","E_COORD97":180442.63,"N_COORD97":2578413.4500000002,"ADDRESS":"文昌街１６號四樓之３","OBJECTID":341648},"geometry":{"x":180442.62999999989,"y":2578413.4500000011}},{"attributes":{"ID":341658,"DIS_CODE":0,"TOWNNAME":"新營區","LI":"大宏里","LIN":"8鄰","STREET":"文昌街","SECT":" ","MAREA":" ","LANE":" ","ALLEY":" ","HOUSE_NO":"１６號六樓之４","E_COORD97":180442.56,"N_COORD97":2578413.4500000002,"ADDRESS":"文昌街１６號六樓之４","OBJECTID":341649},"geometry":{"x":180442.55999999959,"y":2578413.4500000011}},{"attributes":{"ID":341659,"DIS_CODE":0,"TOWNNAME":"新營區","LI":"大宏里","LIN":"8鄰","STREET":"文昌街","SECT":" ","MAREA":" ","LANE":" ","ALLEY":" ","HOUSE_NO":"１６號六樓之１","E_COORD97":180442.54000000001,"N_COORD97":2578413.4500000002,"ADDRESS":"文昌街１６號六樓之１","OBJECTID":341650},"geometry":{"x":180442.54000000097,"y":2578413.4500000011}},{"attributes":{"ID":341660,"DIS_CODE":0,"TOWNNAME":"新營區","LI":"大宏里","LIN":"8鄰","STREET":"文昌街","SECT":" ","MAREA":" ","LANE":" ","ALLEY":" ","HOUSE_NO":"１６號五樓之５","E_COORD97":180442.69,"N_COORD97":2578413.4500000002,"ADDRESS":"文昌街１６號五樓之５","OBJECTID":341651},"geometry":{"x":180442.69000000041,"y":2578413.4500000011}},{"attributes":{"ID":341661,"DIS_CODE":0,"TOWNNAME":"新營區","LI":"大宏里","LIN":"8鄰","STREET":"文昌街","SECT":" ","MAREA":" ","LANE":" ","ALLEY":" ","HOUSE_NO":"１６號六樓之２","E_COORD97":180442.67000000001,"N_COORD97":2578413.4500000002,"ADDRESS":"文昌街１６號六樓之２","OBJECTID":341652},"geometry":{"x":180442.66999999993,"y":2578413.4500000011}},{"attributes":{"ID":341662,"DIS_CODE":0,"TOWNNAME":"新營區","LI":"大宏里","LIN":"8鄰","STREET":"文昌街","SECT":" ","MAREA":" ","LANE":" ","ALLEY":" ","HOUSE_NO":"１６號六樓之３","E_COORD97":180442.63,"N_COORD97":2578413.4500000002,"ADDRESS":"文昌街１６號六樓之３","OBJECTID":341653},"geometry":{"x":180442.62999999989,"y":2578413.4500000011}},{"attributes":{"ID":341663,"DIS_CODE":0,"TOWNNAME":"善化區","LI":"南關里","LIN":"8鄰","STREET":"自由路","SECT":" ","MAREA":" ","LANE":" ","ALLEY":" ","HOUSE_NO":"１７５號","E_COORD97":176930.35000000001,"N_COORD97":2558897.54,"ADDRESS":"自由路１７５號","OBJECTID":341654},"geometry":{"x":176930.34999999963,"y":2558897.540000001}},{"attributes":{"ID":341664,"DIS_CODE":0,"TOWNNAME":"善化區","LI":"文正里","LIN":"1鄰","STREET":"進學路","SECT":" ","MAREA":" ","LANE":"７１巷","ALLEY":" ","HOUSE_NO":"２號","E_COORD97":177139.38,"N_COORD97":2559569.25,"ADDRESS":"進學路７１巷２號","OBJECTID":341655},"geometry":{"x":177139.38000000082,"y":2559569.25}},{"attributes":{"ID":341665,"DIS_CODE":0,"TOWNNAME":"仁德區","LI":"保安里","LIN":"1鄰","STREET":"文賢路","SECT":"一段","MAREA":" ","LANE":"５２９巷","ALLEY":" ","HOUSE_NO":"１號","E_COORD97":171119.62,"N_COORD97":2537056.0699999998,"ADDRESS":"文賢路一段５２９巷１號","OBJECTID":341656},"geometry":{"x":171119.62000000011,"y":2537056.0700000003}},{"attributes":{"ID":341666,"DIS_CODE":0,"TOWNNAME":"仁德區","LI":"上崙里","LIN":"1鄰","STREET":"德崙路","SECT":" ","MAREA":" ","LANE":"２３１巷","ALLEY":" ","HOUSE_NO":"８３號","E_COORD97":173739.5,"N_COORD97":2538352.27,"ADDRESS":"德崙路２３１巷８３號","OBJECTID":341657},"geometry":{"x":173739.49999999907,"y":2538352.2699999996}},{"attributes":{"ID":341667,"DIS_CODE":0,"TOWNNAME":"仁德區","LI":"二行里","LIN":"1鄰","STREET":"中正西路","SECT":" ","MAREA":" ","LANE":"２０２巷","ALLEY":" ","HOUSE_NO":"１６８號","E_COORD97":170199.42999999999,"N_COORD97":2535730.4900000002,"ADDRESS":"中正西路２０２巷１６８號","OBJECTID":341658},"geometry":{"x":170199.4299999997,"y":2535730.4900000002}},{"attributes":{"ID":341668,"DIS_CODE":0,"TOWNNAME":"仁德區","LI":"上崙里","LIN":"1鄰","STREET":"德崙路","SECT":" ","MAREA":" ","LANE":"１７５巷","ALLEY":" ","HOUSE_NO":"６１號","E_COORD97":173711.88,"N_COORD97":2538334.52,"ADDRESS":"德崙路１７５巷６１號","OBJECTID":341659},"geometry":{"x":173711.88000000082,"y":2538334.5200000033}},{"attributes":{"ID":341669,"DIS_CODE":0,"TOWNNAME":"仁德區","LI":"二行里","LIN":"1鄰","STREET":"二仁路","SECT":"一段","MAREA":" ","LANE":"４９１巷","ALLEY":" ","HOUSE_NO":"１６３號","E_COORD97":169700.48000000001,"N_COORD97":2536380.5299999998,"ADDRESS":"二仁路一段４９１巷１６３號","OBJECTID":341660},"geometry":{"x":169700.47999999952,"y":2536380.5299999993}},{"attributes":{"ID":341670,"DIS_CODE":0,"TOWNNAME":"仁德區","LI":"二行里","LIN":"1鄰","STREET":"二仁路","SECT":"一段","MAREA":" ","LANE":"３１５巷","ALLEY":" ","HOUSE_NO":"３９號","E_COORD97":170342.60999999999,"N_COORD97":2535989.5299999998,"ADDRESS":"二仁路一段３１５巷３９號","OBJECTID":341661},"geometry":{"x":170342.61000000127,"y":2535989.5300000012}},{"attributes":{"ID":341671,"DIS_CODE":0,"TOWNNAME":"仁德區","LI":"上崙里","LIN":"1鄰","STREET":"德崙路","SECT":" ","MAREA":" ","LANE":"１７５巷","ALLEY":" ","HOUSE_NO":"２５號","E_COORD97":173646.01999999999,"N_COORD97":2538359.1800000002,"ADDRESS":"德崙路１７５巷２５號","OBJECTID":341662},"geometry":{"x":173646.02000000048,"y":2538359.1799999997}},{"attributes":{"ID":341672,"DIS_CODE":0,"TOWNNAME":"仁德區","LI":"二行里","LIN":"1鄰","STREET":"中正西路","SECT":" ","MAREA":" ","LANE":"２０２巷","ALLEY":" ","HOUSE_NO":"２４６號","E_COORD97":170058.26999999999,"N_COORD97":2535930.9900000002,"ADDRESS":"中正西路２０２巷２４６號","OBJECTID":341663},"geometry":{"x":170058.26999999955,"y":2535930.9900000002}},{"attributes":{"ID":341673,"DIS_CODE":0,"TOWNNAME":"仁德區","LI":"上崙里","LIN":"1鄰","STREET":"德崙路","SECT":" ","MAREA":" ","LANE":"１７５巷","ALLEY":" ","HOUSE_NO":"３９號","E_COORD97":173672.64000000001,"N_COORD97":2538346.9300000002,"ADDRESS":"德崙路１７５巷３９號","OBJECTID":341664},"geometry":{"x":173672.6400000006,"y":2538346.9300000016}},{"attributes":{"ID":341674,"DIS_CODE":0,"TOWNNAME":"新化區","LI":"東榮里","LIN":"13鄰","STREET":"中興路","SECT":" ","MAREA":" ","LANE":"５５４巷","ALLEY":" ","HOUSE_NO":"４７號","E_COORD97":179910.16,"N_COORD97":2548058.25,"ADDRESS":"中興路５５４巷４７號","OBJECTID":341665},"geometry":{"x":179910.16000000015,"y":2548058.2500000019}},{"attributes":{"ID":341675,"DIS_CODE":0,"TOWNNAME":"新化區","LI":"清水里","LIN":"1鄰","STREET":"中山路","SECT":" ","MAREA":" ","LANE":"３８５巷","ALLEY":" ","HOUSE_NO":"１２號","E_COORD97":178811.85999999999,"N_COORD97":2548359.25,"ADDRESS":"中山路３８５巷１２號","OBJECTID":341666},"geometry":{"x":178811.86000000127,"y":2548359.2500000019}},{"attributes":{"ID":341676,"DIS_CODE":0,"TOWNNAME":"新化區","LI":"竹林里","LIN":"1鄰","STREET":"竹林路","SECT":" ","MAREA":" ","LANE":"９５巷","ALLEY":" ","HOUSE_NO":"１３號","E_COORD97":178777.73000000001,"N_COORD97":2548594.25,"ADDRESS":"竹林路９５巷１３號","OBJECTID":341667},"geometry":{"x":178777.73000000045,"y":2548594.2500000019}},{"attributes":{"ID":341677,"DIS_CODE":0,"TOWNNAME":"新化區","LI":"觀音里","LIN":"1鄰","STREET":"中山路","SECT":" ","MAREA":" ","LANE":"２５８巷","ALLEY":" ","HOUSE_NO":"１６號","E_COORD97":179019.76000000001,"N_COORD97":2548493.25,"ADDRESS":"中山路２５８巷１６號","OBJECTID":341668},"geometry":{"x":179019.75999999885,"y":2548493.25}},{"attributes":{"ID":341678,"DIS_CODE":0,"TOWNNAME":"新化區","LI":"協興里","LIN":"1鄰","STREET":"忠孝路","SECT":" ","MAREA":" ","LANE":"１６１巷","ALLEY":" ","HOUSE_NO":"１８號","E_COORD97":178611.76999999999,"N_COORD97":2548561.25,"ADDRESS":"忠孝路１６１巷１８號","OBJECTID":341669},"geometry":{"x":178611.77000000048,"y":2548561.25}},{"attributes":{"ID":341679,"DIS_CODE":0,"TOWNNAME":"新化區","LI":"竹林里","LIN":"1鄰","STREET":"竹林路","SECT":" ","MAREA":" ","LANE":"６３巷","ALLEY":" ","HOUSE_NO":"１０號","E_COORD97":178792.63,"N_COORD97":2548566.25,"ADDRESS":"竹林路６３巷１０號","OBJECTID":341670},"geometry":{"x":178792.63000000082,"y":2548566.2500000019}},{"attributes":{"ID":341680,"DIS_CODE":0,"TOWNNAME":"新化區","LI":"東榮里","LIN":"1鄰","STREET":"中興路","SECT":" ","MAREA":" ","LANE":"１０４巷","ALLEY":" ","HOUSE_NO":"１５號","E_COORD97":181856.16,"N_COORD97":2547367.25,"ADDRESS":"中興路１０４巷１５號","OBJECTID":341671},"geometry":{"x":181856.16000000015,"y":2547367.25}},{"attributes":{"ID":341681,"DIS_CODE":0,"TOWNNAME":"新化區","LI":"清水里","LIN":"8鄰","STREET":"民權街","SECT":" ","MAREA":" ","LANE":"６１巷","ALLEY":" ","HOUSE_NO":"３１號","E_COORD97":178706.20999999999,"N_COORD97":2548564.25,"ADDRESS":"民權街６１巷３１號","OBJECTID":341672},"geometry":{"x":178706.20999999996,"y":2548564.25}},{"attributes":{"ID":341682,"DIS_CODE":0,"TOWNNAME":"南區","LI":"新興里","LIN":"1鄰","STREET":"五妃街","SECT":" ","MAREA":" ","LANE":"３９７巷","ALLEY":" ","HOUSE_NO":"１號","E_COORD97":167687.76999999999,"N_COORD97":2542561.8500000001,"ADDRESS":"五妃街３９７巷１號","OBJECTID":341673},"geometry":{"x":167687.77000000048,"y":2542561.8500000015}},{"attributes":{"ID":341683,"DIS_CODE":0,"TOWNNAME":"南區","LI":"新興里","LIN":"1鄰","STREET":"五妃街","SECT":" ","MAREA":" ","LANE":"３９７巷","ALLEY":" ","HOUSE_NO":"２號","E_COORD97":167680.51999999999,"N_COORD97":2542562.0099999998,"ADDRESS":"五妃街３９７巷２號","OBJECTID":341674},"geometry":{"x":167680.52000000142,"y":2542562.0099999998}},{"attributes":{"ID":341684,"DIS_CODE":0,"TOWNNAME":"南區","LI":"新興里","LIN":"1鄰","STREET":"五妃街","SECT":" ","MAREA":" ","LANE":"３９７巷","ALLEY":" ","HOUSE_NO":"３號","E_COORD97":167674.14000000001,"N_COORD97":2542561.9300000002,"ADDRESS":"五妃街３９７巷３號","OBJECTID":341675},"geometry":{"x":167674.13999999966,"y":2542561.9299999997}},{"attributes":{"ID":341685,"DIS_CODE":0,"TOWNNAME":"南區","LI":"新興里","LIN":"1鄰","STREET":"五妃街","SECT":" ","MAREA":" ","LANE":"３９７巷","ALLEY":" ","HOUSE_NO":"４號","E_COORD97":167668.07999999999,"N_COORD97":2542562.1699999999,"ADDRESS":"五妃街３９７巷４號","OBJECTID":341676},"geometry":{"x":167668.08000000007,"y":2542562.1700000018}},{"attributes":{"ID":341686,"DIS_CODE":0,"TOWNNAME":"南區","LI":"新興里","LIN":"1鄰","STREET":"五妃街","SECT":" ","MAREA":" ","LANE":"３９７巷","ALLEY":" ","HOUSE_NO":"５號","E_COORD97":167661.70000000001,"N_COORD97":2542561.6099999999,"ADDRESS":"五妃街３９７巷５號","OBJECTID":341677},"geometry":{"x":167661.70000000112,"y":2542561.6100000031}},{"attributes":{"ID":341687,"DIS_CODE":0,"TOWNNAME":"南區","LI":"新興里","LIN":"1鄰","STREET":"五妃街","SECT":" ","MAREA":" ","LANE":"３９７巷","ALLEY":" ","HOUSE_NO":"６號","E_COORD97":167656.51999999999,"N_COORD97":2542561.8500000001,"ADDRESS":"五妃街３９７巷６號","OBJECTID":341678},"geometry":{"x":167656.51999999955,"y":2542561.8500000015}},{"attributes":{"ID":341688,"DIS_CODE":0,"TOWNNAME":"南區","LI":"新興里","LIN":"1鄰","STREET":"五妃街","SECT":" ","MAREA":" ","LANE":"３９７巷","ALLEY":" ","HOUSE_NO":"８號","E_COORD97":167643.20999999999,"N_COORD97":2542562.8799999999,"ADDRESS":"五妃街３９７巷８號","OBJECTID":341679},"geometry":{"x":167643.20999999996,"y":2542562.8800000027}},{"attributes":{"ID":341689,"DIS_CODE":0,"TOWNNAME":"南區","LI":"新興里","LIN":"1鄰","STREET":"五妃街","SECT":" ","MAREA":" ","LANE":"３９７巷","ALLEY":" ","HOUSE_NO":"９號","E_COORD97":167631.25,"N_COORD97":2542563.04,"ADDRESS":"五妃街３９７巷９號","OBJECTID":341680},"geometry":{"x":167631.25,"y":2542563.040000001}},{"attributes":{"ID":341690,"DIS_CODE":0,"TOWNNAME":"南區","LI":"新興里","LIN":"1鄰","STREET":"國華街","SECT":"一段","MAREA":" ","LANE":"２２巷","ALLEY":" ","HOUSE_NO":"２號","E_COORD97":167633.64000000001,"N_COORD97":2542550.27,"ADDRESS":"國華街一段２２巷２號","OBJECTID":341681},"geometry":{"x":167633.63999999966,"y":2542550.2699999977}},{"attributes":{"ID":341691,"DIS_CODE":0,"TOWNNAME":"南區","LI":"新興里","LIN":"1鄰","STREET":"國華街","SECT":"一段","MAREA":" ","LANE":"２２巷","ALLEY":" ","HOUSE_NO":"３號","E_COORD97":167638.19,"N_COORD97":2542550.7400000002,"ADDRESS":"國華街一段２２巷３號","OBJECTID":341682},"geometry":{"x":167638.19000000134,"y":2542550.7400000002}},{"attributes":{"ID":341692,"DIS_CODE":0,"TOWNNAME":"南區","LI":"新興里","LIN":"1鄰","STREET":"國華街","SECT":"一段","MAREA":" ","LANE":"２２巷","ALLEY":" ","HOUSE_NO":"５號","E_COORD97":167646.48000000001,"N_COORD97":2542550.0299999998,"ADDRESS":"國華街一段２２巷５號","OBJECTID":341683},"geometry":{"x":167646.48000000138,"y":2542550.0300000012}},{"attributes":{"ID":341693,"DIS_CODE":0,"TOWNNAME":"佳里區","LI":"三協里","LIN":"5鄰","STREET":" ","SECT":" ","MAREA":"潭墘","LANE":" ","ALLEY":" ","HOUSE_NO":"１號之２","E_COORD97":168192.17000000001,"N_COORD97":2564016.9700000002,"ADDRESS":"潭墘１號之２","OBJECTID":341684},"geometry":{"x":168192.17000000086,"y":2564016.9700000007}},{"attributes":{"ID":341694,"DIS_CODE":0,"TOWNNAME":"南區","LI":"新興里","LIN":"1鄰","STREET":"國華街","SECT":"一段","MAREA":" ","LANE":"２２巷","ALLEY":" ","HOUSE_NO":"６號","E_COORD97":167650.29999999999,"N_COORD97":2542549.5499999998,"ADDRESS":"國華街一段２２巷６號","OBJECTID":341685},"geometry":{"x":167650.30000000075,"y":2542549.5500000007}},{"attributes":{"ID":341695,"DIS_CODE":0,"TOWNNAME":"南區","LI":"新興里","LIN":"1鄰","STREET":"國華街","SECT":"一段","MAREA":" ","LANE":"２２巷","ALLEY":" ","HOUSE_NO":"７號","E_COORD97":167653.97,"N_COORD97":2542549.71,"ADDRESS":"國華街一段２２巷７號","OBJECTID":341686},"geometry":{"x":167653.97000000067,"y":2542549.7100000028}},{"attributes":{"ID":341696,"DIS_CODE":0,"TOWNNAME":"南區","LI":"新興里","LIN":"1鄰","STREET":"國華街","SECT":"一段","MAREA":" ","LANE":"２２巷","ALLEY":" ","HOUSE_NO":"８號","E_COORD97":167658.98999999999,"N_COORD97":2542550.3500000001,"ADDRESS":"國華街一段２２巷８號","OBJECTID":341687},"geometry":{"x":167658.99000000022,"y":2542550.3500000015}},{"attributes":{"ID":341697,"DIS_CODE":0,"TOWNNAME":"南區","LI":"新興里","LIN":"1鄰","STREET":"國華街","SECT":"一段","MAREA":" ","LANE":"２２巷","ALLEY":" ","HOUSE_NO":"９號","E_COORD97":167662.73999999999,"N_COORD97":2542550.0299999998,"ADDRESS":"國華街一段２２巷９號","OBJECTID":341688},"geometry":{"x":167662.74000000209,"y":2542550.0300000012}},{"attributes":{"ID":341698,"DIS_CODE":0,"TOWNNAME":"新化區","LI":"豐榮里","LIN":"13鄰","STREET":"健康路","SECT":" ","MAREA":" ","LANE":"１０１巷","ALLEY":" ","HOUSE_NO":"１０號","E_COORD97":178767.17999999999,"N_COORD97":2548175.2599999998,"ADDRESS":"健康路１０１巷１０號","OBJECTID":341689},"geometry":{"x":178767.1799999997,"y":2548175.2599999979}},{"attributes":{"ID":341699,"DIS_CODE":0,"TOWNNAME":"佳里區","LI":"佳化里","LIN":"5鄰","STREET":" ","SECT":" ","MAREA":"佳里興","LANE":" ","ALLEY":" ","HOUSE_NO":"４１號","E_COORD97":167536.26999999999,"N_COORD97":2565402.0099999998,"ADDRESS":"佳里興４１號","OBJECTID":341690},"geometry":{"x":167536.27000000142,"y":2565402.0099999998}},{"attributes":{"ID":341700,"DIS_CODE":0,"TOWNNAME":"南區","LI":"興農里","LIN":"1鄰","STREET":"灣裡路","SECT":" ","MAREA":" ","LANE":"２６３巷","ALLEY":" ","HOUSE_NO":"１４號","E_COORD97":166214.94,"N_COORD97":2536400.6299999999,"ADDRESS":"灣裡路２６３巷１４號","OBJECTID":341691},"geometry":{"x":166214.94000000041,"y":2536400.6300000027}},{"attributes":{"ID":341701,"DIS_CODE":0,"TOWNNAME":"南區","LI":"興農里","LIN":"1鄰","STREET":"灣裡路","SECT":" ","MAREA":" ","LANE":"２６３巷","ALLEY":" ","HOUSE_NO":"１４號之１","E_COORD97":166200.07000000001,"N_COORD97":2536397.7000000002,"ADDRESS":"灣裡路２６３巷１４號之１","OBJECTID":341692},"geometry":{"x":166200.07000000123,"y":2536397.7000000011}},{"attributes":{"ID":341702,"DIS_CODE":0,"TOWNNAME":"南區","LI":"興農里","LIN":"1鄰","STREET":"灣裡路","SECT":" ","MAREA":" ","LANE":"２６３巷","ALLEY":" ","HOUSE_NO":"１４號之２","E_COORD97":166204.89000000001,"N_COORD97":2536399.1600000001,"ADDRESS":"灣裡路２６３巷１４號之２","OBJECTID":341693},"geometry":{"x":166204.89000000153,"y":2536399.160000002}},{"attributes":{"ID":341703,"DIS_CODE":0,"TOWNNAME":"南區","LI":"興農里","LIN":"1鄰","STREET":"灣裡路","SECT":" ","MAREA":" ","LANE":"２６３巷","ALLEY":" ","HOUSE_NO":"３０號","E_COORD97":166292.01000000001,"N_COORD97":2536412.3399999999,"ADDRESS":"灣裡路２６３巷３０號","OBJECTID":341694},"geometry":{"x":166292.00999999978,"y":2536412.3399999999}},{"attributes":{"ID":341704,"DIS_CODE":0,"TOWNNAME":"南區","LI":"興農里","LIN":"1鄰","STREET":"灣裡路","SECT":" ","MAREA":" ","LANE":"２６３巷","ALLEY":" ","HOUSE_NO":"３２號","E_COORD97":166304.48999999999,"N_COORD97":2536403.9100000001,"ADDRESS":"灣裡路２６３巷３２號","OBJECTID":341695},"geometry":{"x":166304.49000000022,"y":2536403.910000002}},{"attributes":{"ID":341705,"DIS_CODE":0,"TOWNNAME":"新化區","LI":"協興里","LIN":"1鄰","STREET":"忠孝路","SECT":" ","MAREA":" ","LANE":"１６１巷","ALLEY":" ","HOUSE_NO":"１２號","E_COORD97":178611.76999999999,"N_COORD97":2548583.25,"ADDRESS":"忠孝路１６１巷１２號","OBJECTID":341696},"geometry":{"x":178611.77000000048,"y":2548583.2500000019}},{"attributes":{"ID":341706,"DIS_CODE":0,"TOWNNAME":"新化區","LI":"太平里","LIN":"7鄰","STREET":"民生路","SECT":" ","MAREA":" ","LANE":"３１４巷","ALLEY":" ","HOUSE_NO":"５５號","E_COORD97":179106.45999999999,"N_COORD97":2549240.25,"ADDRESS":"民生路３１４巷５５號","OBJECTID":341697},"geometry":{"x":179106.45999999996,"y":2549240.2500000037}},{"attributes":{"ID":341707,"DIS_CODE":0,"TOWNNAME":"新化區","LI":"護國里","LIN":"1鄰","STREET":"中山路","SECT":" ","MAREA":" ","LANE":"２２４巷","ALLEY":" ","HOUSE_NO":"１１號之１","E_COORD97":179112.89000000001,"N_COORD97":2548520.2599999998,"ADDRESS":"中山路２２４巷１１號之１","OBJECTID":341698},"geometry":{"x":179112.8900000006,"y":2548520.2599999998}},{"attributes":{"ID":341708,"DIS_CODE":0,"TOWNNAME":"官田區","LI":"隆本里","LIN":"1鄰","STREET":"中華路","SECT":"一段","MAREA":" ","LANE":"３２３巷","ALLEY":" ","HOUSE_NO":"６號","E_COORD97":180807.78,"N_COORD97":2565992.4900000002,"ADDRESS":"中華路一段３２３巷６號","OBJECTID":341699},"geometry":{"x":180807.78000000119,"y":2565992.4900000021}},{"attributes":{"ID":341709,"DIS_CODE":0,"TOWNNAME":"新化區","LI":"協興里","LIN":"12鄰","STREET":"太平街","SECT":" ","MAREA":" ","LANE":"１５０巷","ALLEY":" ","HOUSE_NO":"２１５號","E_COORD97":178283.01999999999,"N_COORD97":2548941.25,"ADDRESS":"太平街１５０巷２１５號","OBJECTID":341700},"geometry":{"x":178283.01999999955,"y":2548941.25}},{"attributes":{"ID":341710,"DIS_CODE":0,"TOWNNAME":"永康區","LI":"埔園里","LIN":"1鄰","STREET":"埔聖街","SECT":" ","MAREA":" ","LANE":"１３巷","ALLEY":" ","HOUSE_NO":"１２號","E_COORD97":173855.67000000001,"N_COORD97":2547635.7400000002,"ADDRESS":"埔聖街１３巷１２號","OBJECTID":341701},"geometry":{"x":173855.67000000086,"y":2547635.7400000002}},{"attributes":{"ID":341711,"DIS_CODE":0,"TOWNNAME":"永康區","LI":"建國里","LIN":"1鄰","STREET":"復興路","SECT":" ","MAREA":" ","LANE":"２６巷","ALLEY":" ","HOUSE_NO":"７４之１７號","E_COORD97":173178.03,"N_COORD97":2544932.4900000002,"ADDRESS":"復興路２６巷７４之１７號","OBJECTID":341702},"geometry":{"x":173178.03000000026,"y":2544932.4900000002}},{"attributes":{"ID":341712,"DIS_CODE":0,"TOWNNAME":"永康區","LI":"東灣里","LIN":"1鄰","STREET":"立興街","SECT":" ","MAREA":" ","LANE":"２８巷","ALLEY":" ","HOUSE_NO":"１號","E_COORD97":174651.92000000001,"N_COORD97":2544886.9500000002,"ADDRESS":"立興街２８巷１號","OBJECTID":341703},"geometry":{"x":174651.91999999993,"y":2544886.9499999993}},{"attributes":{"ID":341713,"DIS_CODE":0,"TOWNNAME":"永康區","LI":"埔園里","LIN":"1鄰","STREET":"中山路","SECT":" ","MAREA":" ","LANE":"９４巷","ALLEY":" ","HOUSE_NO":"８號","E_COORD97":173910.48000000001,"N_COORD97":2547658.25,"ADDRESS":"中山路９４巷８號","OBJECTID":341704},"geometry":{"x":173910.48000000138,"y":2547658.2500000019}},{"attributes":{"ID":341714,"DIS_CODE":0,"TOWNNAME":"永康區","LI":"埔園里","LIN":"1鄰","STREET":"中山路","SECT":" ","MAREA":" ","LANE":"９４巷","ALLEY":" ","HOUSE_NO":"６號","E_COORD97":173899.47,"N_COORD97":2547650.5,"ADDRESS":"中山路９４巷６號","OBJECTID":341705},"geometry":{"x":173899.47000000067,"y":2547650.5}},{"attributes":{"ID":341715,"DIS_CODE":0,"TOWNNAME":"永康區","LI":"神洲里","LIN":"1鄰","STREET":"忠孝路","SECT":" ","MAREA":" ","LANE":"６巷","ALLEY":" ","HOUSE_NO":"１６號","E_COORD97":172154.17999999999,"N_COORD97":2544567,"ADDRESS":"忠孝路６巷１６號","OBJECTID":341706},"geometry":{"x":172154.1799999997,"y":2544567.0000000019}},{"attributes":{"ID":341716,"DIS_CODE":0,"TOWNNAME":"永康區","LI":"埔園里","LIN":"1鄰","STREET":"中山路","SECT":" ","MAREA":" ","LANE":"９４巷","ALLEY":" ","HOUSE_NO":"１０號","E_COORD97":173929.34,"N_COORD97":2547663.5,"ADDRESS":"中山路９４巷１０號","OBJECTID":341707},"geometry":{"x":173929.34000000078,"y":2547663.5000000019}},{"attributes":{"ID":341717,"DIS_CODE":0,"TOWNNAME":"永康區","LI":"埔園里","LIN":"1鄰","STREET":"埔聖街","SECT":" ","MAREA":" ","LANE":"２５巷","ALLEY":" ","HOUSE_NO":"１１號","E_COORD97":174247.56,"N_COORD97":2547766.8300000001,"ADDRESS":"埔聖街２５巷１１號","OBJECTID":341708},"geometry":{"x":174247.56000000052,"y":2547766.8300000001}},{"attributes":{"ID":341718,"DIS_CODE":0,"TOWNNAME":"永康區","LI":"西灣里","LIN":"1鄰","STREET":"大灣路","SECT":" ","MAREA":" ","LANE":"４０６巷","ALLEY":" ","HOUSE_NO":"２８號","E_COORD97":174726.67999999999,"N_COORD97":2545058,"ADDRESS":"大灣路４０６巷２８號","OBJECTID":341709},"geometry":{"x":174726.68000000063,"y":2545058}},{"attributes":{"ID":341719,"DIS_CODE":0,"TOWNNAME":"永康區","LI":"西勢里","LIN":"1鄰","STREET":"富強路","SECT":"二段","MAREA":" ","LANE":"５９巷","ALLEY":" ","HOUSE_NO":"５號","E_COORD97":175657.89000000001,"N_COORD97":2546915.1899999999,"ADDRESS":"富強路二段５９巷５號","OBJECTID":341710},"geometry":{"x":175657.8900000006,"y":2546915.1900000013}},{"attributes":{"ID":341720,"DIS_CODE":0,"TOWNNAME":"永康區","LI":"西灣里","LIN":"1鄰","STREET":"大灣路","SECT":" ","MAREA":" ","LANE":"４０６巷","ALLEY":" ","HOUSE_NO":"４２號","E_COORD97":174698.92999999999,"N_COORD97":2545072,"ADDRESS":"大灣路４０６巷４２號","OBJECTID":341711},"geometry":{"x":174698.9299999997,"y":2545072.0000000037}},{"attributes":{"ID":341721,"DIS_CODE":0,"TOWNNAME":"永康區","LI":"西灣里","LIN":"1鄰","STREET":"大灣路","SECT":" ","MAREA":" ","LANE":"４０６巷","ALLEY":" ","HOUSE_NO":"３８號","E_COORD97":174720.51999999999,"N_COORD97":2545075.9700000002,"ADDRESS":"大灣路４０６巷３８號","OBJECTID":341712},"geometry":{"x":174720.52000000142,"y":2545075.9699999988}},{"attributes":{"ID":341722,"DIS_CODE":0,"TOWNNAME":"新化區","LI":"東榮里","LIN":"15鄰","STREET":"中興路","SECT":" ","MAREA":" ","LANE":"６５２巷","ALLEY":" ","HOUSE_NO":"１２號","E_COORD97":179692.76000000001,"N_COORD97":2548115.25,"ADDRESS":"中興路６５２巷１２號","OBJECTID":341713},"geometry":{"x":179692.76000000164,"y":2548115.2500000019}},{"attributes":{"ID":341723,"DIS_CODE":0,"TOWNNAME":"永康區","LI":"西灣里","LIN":"1鄰","STREET":"大灣路","SECT":" ","MAREA":" ","LANE":"４０６巷","ALLEY":" ","HOUSE_NO":"５６號","E_COORD97":174684.44,"N_COORD97":2545091.25,"ADDRESS":"大灣路４０６巷５６號","OBJECTID":341714},"geometry":{"x":174684.44000000041,"y":2545091.2500000019}},{"attributes":{"ID":341724,"DIS_CODE":0,"TOWNNAME":"永康區","LI":"西灣里","LIN":"1鄰","STREET":"大灣路","SECT":" ","MAREA":" ","LANE":"４０６巷","ALLEY":" ","HOUSE_NO":"６號","E_COORD97":174778.01000000001,"N_COORD97":2545055.2000000002,"ADDRESS":"大灣路４０６巷６號","OBJECTID":341715},"geometry":{"x":174778.00999999978,"y":2545055.1999999993}},{"attributes":{"ID":341725,"DIS_CODE":0,"TOWNNAME":"新化區","LI":"太平里","LIN":"4鄰","STREET":"中正路","SECT":" ","MAREA":" ","LANE":"５８０巷","ALLEY":" ","HOUSE_NO":"２號之１６","E_COORD97":178955.41,"N_COORD97":2548984.2599999998,"ADDRESS":"中正路５８０巷２號之１６","OBJECTID":341716},"geometry":{"x":178955.41000000108,"y":2548984.2599999998}},{"attributes":{"ID":341726,"DIS_CODE":0,"TOWNNAME":"永康區","LI":"西灣里","LIN":"1鄰","STREET":"大灣路","SECT":" ","MAREA":" ","LANE":"４０６巷","ALLEY":" ","HOUSE_NO":"５４號","E_COORD97":174678.64999999999,"N_COORD97":2545087.5,"ADDRESS":"大灣路４０６巷５４號","OBJECTID":341717},"geometry":{"x":174678.6500000013,"y":2545087.5}},{"attributes":{"ID":341727,"DIS_CODE":0,"TOWNNAME":"西港區","LI":"南海里","LIN":"1鄰","STREET":"慶安路","SECT":" ","MAREA":" ","LANE":"１８６巷","ALLEY":" ","HOUSE_NO":"９號","E_COORD97":167857.54000000001,"N_COORD97":2557914.1699999999,"ADDRESS":"慶安路１８６巷９號","OBJECTID":341718},"geometry":{"x":167857.54000000097,"y":2557914.1700000018}},{"attributes":{"ID":341728,"DIS_CODE":0,"TOWNNAME":"永康區","LI":"西灣里","LIN":"1鄰","STREET":"大灣路","SECT":" ","MAREA":" ","LANE":"４０６巷","ALLEY":" ","HOUSE_NO":"４０號","E_COORD97":174705.79000000001,"N_COORD97":2545055.4900000002,"ADDRESS":"大灣路４０６巷４０號","OBJECTID":341719},"geometry":{"x":174705.79000000097,"y":2545055.4900000039}},{"attributes":{"ID":341729,"DIS_CODE":0,"TOWNNAME":"永康區","LI":"西灣里","LIN":"1鄰","STREET":"大灣路","SECT":" ","MAREA":" ","LANE":"４０６巷","ALLEY":" ","HOUSE_NO":"１８號","E_COORD97":174750.07000000001,"N_COORD97":2545070.79,"ADDRESS":"大灣路４０６巷１８號","OBJECTID":341720},"geometry":{"x":174750.07000000123,"y":2545070.7899999991}},{"attributes":{"ID":341730,"DIS_CODE":0,"TOWNNAME":"永康區","LI":"西勢里","LIN":"1鄰","STREET":"富強路","SECT":"二段","MAREA":" ","LANE":"１９巷","ALLEY":" ","HOUSE_NO":"２４之１號","E_COORD97":175629.19,"N_COORD97":2546855.8399999999,"ADDRESS":"富強路二段１９巷２４之１號","OBJECTID":341721},"geometry":{"x":175629.19000000134,"y":2546855.8399999999}},{"attributes":{"ID":341731,"DIS_CODE":0,"TOWNNAME":"永康區","LI":"西勢里","LIN":"1鄰","STREET":"富強路","SECT":"二段","MAREA":" ","LANE":"１９巷","ALLEY":" ","HOUSE_NO":"５０號","E_COORD97":175580.72,"N_COORD97":2546894.4399999999,"ADDRESS":"富強路二段１９巷５０號","OBJECTID":341722},"geometry":{"x":175580.72000000067,"y":2546894.4399999995}},{"attributes":{"ID":341732,"DIS_CODE":0,"TOWNNAME":"永康區","LI":"西勢里","LIN":"1鄰","STREET":"富強路","SECT":"二段","MAREA":" ","LANE":"１９巷","ALLEY":" ","HOUSE_NO":"２６號","E_COORD97":175605.59,"N_COORD97":2546868.1099999999,"ADDRESS":"富強路二段１９巷２６號","OBJECTID":341723},"geometry":{"x":175605.59000000078,"y":2546868.1100000013}},{"attributes":{"ID":341733,"DIS_CODE":0,"TOWNNAME":"永康區","LI":"西灣里","LIN":"1鄰","STREET":"大灣路","SECT":" ","MAREA":" ","LANE":"４０６巷","ALLEY":" ","HOUSE_NO":"２６號","E_COORD97":174728.31,"N_COORD97":2545080.75,"ADDRESS":"大灣路４０６巷２６號","OBJECTID":341724},"geometry":{"x":174728.30999999959,"y":2545080.7500000019}},{"attributes":{"ID":341734,"DIS_CODE":0,"TOWNNAME":"永康區","LI":"西灣里","LIN":"1鄰","STREET":"大灣路","SECT":" ","MAREA":" ","LANE":"４０６巷","ALLEY":" ","HOUSE_NO":"２４號","E_COORD97":174726.39000000001,"N_COORD97":2545072.75,"ADDRESS":"大灣路４０６巷２４號","OBJECTID":341725},"geometry":{"x":174726.38999999966,"y":2545072.75}},{"attributes":{"ID":341735,"DIS_CODE":0,"TOWNNAME":"永康區","LI":"西灣里","LIN":"1鄰","STREET":"大灣路","SECT":" ","MAREA":" ","LANE":"４０６巷","ALLEY":" ","HOUSE_NO":"１１號","E_COORD97":174742.17999999999,"N_COORD97":2545052.6400000001,"ADDRESS":"大灣路４０６巷１１號","OBJECTID":341726},"geometry":{"x":174742.18000000063,"y":2545052.6400000025}},{"attributes":{"ID":341736,"DIS_CODE":0,"TOWNNAME":"永康區","LI":"西灣里","LIN":"1鄰","STREET":"大灣路","SECT":" ","MAREA":" ","LANE":"４０６巷","ALLEY":" ","HOUSE_NO":"５０號","E_COORD97":174670.04000000001,"N_COORD97":2545068.5,"ADDRESS":"大灣路４０６巷５０號","OBJECTID":341727},"geometry":{"x":174670.0400000019,"y":2545068.5000000037}},{"attributes":{"ID":341737,"DIS_CODE":0,"TOWNNAME":"新化區","LI":"東榮里","LIN":"6鄰","STREET":"信義路","SECT":" ","MAREA":" ","LANE":"１１７巷","ALLEY":" ","HOUSE_NO":"３５號","E_COORD97":179715.07999999999,"N_COORD97":2548383.25,"ADDRESS":"信義路１１７巷３５號","OBJECTID":341728},"geometry":{"x":179715.08000000101,"y":2548383.2500000019}},{"attributes":{"ID":341738,"DIS_CODE":0,"TOWNNAME":"新化區","LI":"東榮里","LIN":"26鄰","STREET":"和平街","SECT":" ","MAREA":" ","LANE":"４５巷","ALLEY":" ","HOUSE_NO":"２１號","E_COORD97":179251.32000000001,"N_COORD97":2548090.25,"ADDRESS":"和平街４５巷２１號","OBJECTID":341729},"geometry":{"x":179251.32000000123,"y":2548090.25}},{"attributes":{"ID":341739,"DIS_CODE":0,"TOWNNAME":"永康區","LI":"西灣里","LIN":"1鄰","STREET":"大灣路","SECT":" ","MAREA":" ","LANE":"４０６巷","ALLEY":" ","HOUSE_NO":"６號之１","E_COORD97":174782.22,"N_COORD97":2545069.0499999998,"ADDRESS":"大灣路４０６巷６號之１","OBJECTID":341730},"geometry":{"x":174782.2200000016,"y":2545069.0500000045}},{"attributes":{"ID":341740,"DIS_CODE":0,"TOWNNAME":"永康區","LI":"西灣里","LIN":"1鄰","STREET":"大灣路","SECT":" ","MAREA":" ","LANE":"４０６巷","ALLEY":" ","HOUSE_NO":"３２號","E_COORD97":174727.12,"N_COORD97":2545046.2400000002,"ADDRESS":"大灣路４０６巷３２號","OBJECTID":341731},"geometry":{"x":174727.11999999918,"y":2545046.2400000002}},{"attributes":{"ID":341741,"DIS_CODE":0,"TOWNNAME":"永康區","LI":"尚頂里","LIN":"1鄰","STREET":"中正南路","SECT":" ","MAREA":" ","LANE":"３０６巷","ALLEY":" ","HOUSE_NO":"３１號","E_COORD97":170792.81,"N_COORD97":2547704.2200000002,"ADDRESS":"中正南路３０６巷３１號","OBJECTID":341732},"geometry":{"x":170792.81000000052,"y":2547704.2200000007}},{"attributes":{"ID":341742,"DIS_CODE":0,"TOWNNAME":"永康區","LI":"西灣里","LIN":"1鄰","STREET":"大灣路","SECT":" ","MAREA":" ","LANE":"４０６巷","ALLEY":" ","HOUSE_NO":"１０號","E_COORD97":174768.37,"N_COORD97":2545058.04,"ADDRESS":"大灣路４０６巷１０號","OBJECTID":341733},"geometry":{"x":174768.37000000104,"y":2545058.040000001}},{"attributes":{"ID":341743,"DIS_CODE":0,"TOWNNAME":"永康區","LI":"西灣里","LIN":"1鄰","STREET":"大灣路","SECT":" ","MAREA":" ","LANE":"４０６巷","ALLEY":" ","HOUSE_NO":"３０號","E_COORD97":174725.26999999999,"N_COORD97":2545053.7400000002,"ADDRESS":"大灣路４０６巷３０號","OBJECTID":341734},"geometry":{"x":174725.26999999955,"y":2545053.7400000039}},{"attributes":{"ID":341744,"DIS_CODE":0,"TOWNNAME":"永康區","LI":"尚頂里","LIN":"1鄰","STREET":"中正南路","SECT":" ","MAREA":" ","LANE":"２８６巷","ALLEY":" ","HOUSE_NO":"７號","E_COORD97":170662.14999999999,"N_COORD97":2547810.5600000001,"ADDRESS":"中正南路２８６巷７號","OBJECTID":341735},"geometry":{"x":170662.14999999944,"y":2547810.5600000005}},{"attributes":{"ID":341745,"DIS_CODE":0,"TOWNNAME":"永康區","LI":"尚頂里","LIN":"1鄰","STREET":"中正南路","SECT":" ","MAREA":" ","LANE":"３０６巷","ALLEY":" ","HOUSE_NO":"１０號","E_COORD97":170753.13,"N_COORD97":2547756.1400000001,"ADDRESS":"中正南路３０６巷１０號","OBJECTID":341736},"geometry":{"x":170753.12999999989,"y":2547756.1400000006}},{"attributes":{"ID":341746,"DIS_CODE":0,"TOWNNAME":"永康區","LI":"尚頂里","LIN":"1鄰","STREET":"中正南路","SECT":" ","MAREA":" ","LANE":"３０６巷","ALLEY":" ","HOUSE_NO":"１９號","E_COORD97":170753.26999999999,"N_COORD97":2547787,"ADDRESS":"中正南路３０６巷１９號","OBJECTID":341737},"geometry":{"x":170753.26999999955,"y":2547787}},{"attributes":{"ID":341747,"DIS_CODE":0,"TOWNNAME":"永康區","LI":"尚頂里","LIN":"1鄰","STREET":"中正南路","SECT":" ","MAREA":" ","LANE":"３０６巷","ALLEY":" ","HOUSE_NO":"３號","E_COORD97":170705.23000000001,"N_COORD97":2547863.0299999998,"ADDRESS":"中正南路３０６巷３號","OBJECTID":341738},"geometry":{"x":170705.23000000045,"y":2547863.0299999993}},{"attributes":{"ID":341748,"DIS_CODE":0,"TOWNNAME":"東區","LI":"大福里","LIN":"1鄰","STREET":"榮譽街","SECT":" ","MAREA":" ","LANE":"７巷","ALLEY":" ","HOUSE_NO":"１０號","E_COORD97":169493.54999999999,"N_COORD97":2541657.1899999999,"ADDRESS":"榮譽街７巷１０號","OBJECTID":341739},"geometry":{"x":169493.54999999981,"y":2541657.1900000013}},{"attributes":{"ID":341749,"DIS_CODE":0,"TOWNNAME":"東區","LI":"德高里","LIN":"1鄰","STREET":"仁和路","SECT":" ","MAREA":" ","LANE":"１３９巷","ALLEY":" ","HOUSE_NO":"６２號","E_COORD97":171708.98000000001,"N_COORD97":2541044.04,"ADDRESS":"仁和路１３９巷６２號","OBJECTID":341740},"geometry":{"x":171708.98000000045,"y":2541044.040000001}},{"attributes":{"ID":341750,"DIS_CODE":0,"TOWNNAME":"東區","LI":"德高里","LIN":"1鄰","STREET":"仁和路","SECT":" ","MAREA":" ","LANE":"１３９巷","ALLEY":" ","HOUSE_NO":"６６號","E_COORD97":171709.64000000001,"N_COORD97":2541037.1600000001,"ADDRESS":"仁和路１３９巷６６號","OBJECTID":341741},"geometry":{"x":171709.6400000006,"y":2541037.160000002}},{"attributes":{"ID":341751,"DIS_CODE":0,"TOWNNAME":"東區","LI":"德高里","LIN":"1鄰","STREET":"仁和路","SECT":" ","MAREA":" ","LANE":"１３９巷","ALLEY":" ","HOUSE_NO":"６８號","E_COORD97":171709.48000000001,"N_COORD97":2541030.29,"ADDRESS":"仁和路１３９巷６８號","OBJECTID":341742},"geometry":{"x":171709.48000000231,"y":2541030.2899999991}},{"attributes":{"ID":341752,"DIS_CODE":0,"TOWNNAME":"東區","LI":"德高里","LIN":"1鄰","STREET":"仁和路","SECT":" ","MAREA":" ","LANE":"１３９巷","ALLEY":" ","HOUSE_NO":"７０號","E_COORD97":171709.31,"N_COORD97":2541023.5800000001,"ADDRESS":"仁和路１３９巷７０號","OBJECTID":341743},"geometry":{"x":171709.30999999959,"y":2541023.5800000019}},{"attributes":{"ID":341753,"DIS_CODE":0,"TOWNNAME":"東區","LI":"德高里","LIN":"1鄰","STREET":"仁和路","SECT":" ","MAREA":" ","LANE":"１３９巷","ALLEY":" ","HOUSE_NO":"７２號","E_COORD97":171709.31,"N_COORD97":2541015.3900000001,"ADDRESS":"仁和路１３９巷７２號","OBJECTID":341744},"geometry":{"x":171709.30999999959,"y":2541015.3900000025}},{"attributes":{"ID":341754,"DIS_CODE":0,"TOWNNAME":"東區","LI":"德高里","LIN":"1鄰","STREET":"仁和路","SECT":" ","MAREA":" ","LANE":"１３９巷","ALLEY":" ","HOUSE_NO":"７６號","E_COORD97":171725.03,"N_COORD97":2541025.54,"ADDRESS":"仁和路１３９巷７６號","OBJECTID":341745},"geometry":{"x":171725.03000000026,"y":2541025.5399999991}},{"attributes":{"ID":341755,"DIS_CODE":0,"TOWNNAME":"東區","LI":"德高里","LIN":"1鄰","STREET":"仁和路","SECT":" ","MAREA":" ","LANE":"１３９巷","ALLEY":" ","HOUSE_NO":"７８號","E_COORD97":171724.20999999999,"N_COORD97":2541032.5800000001,"ADDRESS":"仁和路１３９巷７８號","OBJECTID":341746},"geometry":{"x":171724.21000000183,"y":2541032.5800000001}},{"attributes":{"ID":341756,"DIS_CODE":0,"TOWNNAME":"東區","LI":"德高里","LIN":"1鄰","STREET":"仁和路","SECT":" ","MAREA":" ","LANE":"１３９巷","ALLEY":" ","HOUSE_NO":"８０號","E_COORD97":171724.87,"N_COORD97":2541038.6400000001,"ADDRESS":"仁和路１３９巷８０號","OBJECTID":341747},"geometry":{"x":171724.87000000011,"y":2541038.6400000025}},{"attributes":{"ID":341757,"DIS_CODE":0,"TOWNNAME":"東區","LI":"德高里","LIN":"1鄰","STREET":"仁和路","SECT":" ","MAREA":" ","LANE":"１３９巷","ALLEY":" ","HOUSE_NO":"８２號","E_COORD97":171724.20999999999,"N_COORD97":2541044.3700000001,"ADDRESS":"仁和路１３９巷８２號","OBJECTID":341748},"geometry":{"x":171724.21000000183,"y":2541044.3700000029}},{"attributes":{"ID":341758,"DIS_CODE":0,"TOWNNAME":"東區","LI":"德高里","LIN":"1鄰","STREET":"仁和路","SECT":" ","MAREA":" ","LANE":"１３９巷","ALLEY":" ","HOUSE_NO":"９０號","E_COORD97":171744.19,"N_COORD97":2541044.8599999999,"ADDRESS":"仁和路１３９巷９０號","OBJECTID":341749},"geometry":{"x":171744.19000000134,"y":2541044.8600000013}},{"attributes":{"ID":341759,"DIS_CODE":0,"TOWNNAME":"東區","LI":"德高里","LIN":"1鄰","STREET":"仁和路","SECT":" ","MAREA":" ","LANE":"１３９巷","ALLEY":" ","HOUSE_NO":"９２號","E_COORD97":171751.54999999999,"N_COORD97":2541045.02,"ADDRESS":"仁和路１３９巷９２號","OBJECTID":341750},"geometry":{"x":171751.54999999981,"y":2541045.0200000014}},{"attributes":{"ID":341760,"DIS_CODE":0,"TOWNNAME":"東區","LI":"德高里","LIN":"1鄰","STREET":"仁和路","SECT":" ","MAREA":" ","LANE":"１３９巷","ALLEY":" ","HOUSE_NO":"９６號","E_COORD97":171759.25,"N_COORD97":2541045.1899999999,"ADDRESS":"仁和路１３９巷９６號","OBJECTID":341751},"geometry":{"x":171759.25,"y":2541045.1899999995}},{"attributes":{"ID":341761,"DIS_CODE":0,"TOWNNAME":"東區","LI":"德高里","LIN":"1鄰","STREET":"仁和路","SECT":" ","MAREA":" ","LANE":"１３９巷","ALLEY":" ","HOUSE_NO":"９８號","E_COORD97":171765.79999999999,"N_COORD97":2541046.0099999998,"ADDRESS":"仁和路１３９巷９８號","OBJECTID":341752},"geometry":{"x":171765.79999999888,"y":2541046.0099999998}},{"attributes":{"ID":341762,"DIS_CODE":0,"TOWNNAME":"東區","LI":"南聖里","LIN":"1鄰","STREET":"裕農路","SECT":" ","MAREA":" ","LANE":"６６８巷","ALLEY":" ","HOUSE_NO":"１５號","E_COORD97":171738.03,"N_COORD97":2543164.2799999998,"ADDRESS":"裕農路６６８巷１５號","OBJECTID":341753},"geometry":{"x":171738.03000000119,"y":2543164.2800000012}},{"attributes":{"ID":341763,"DIS_CODE":0,"TOWNNAME":"東區","LI":"大福里","LIN":"1鄰","STREET":"榮譽街","SECT":" ","MAREA":" ","LANE":"７巷","ALLEY":" ","HOUSE_NO":"１５號","E_COORD97":169502.13,"N_COORD97":2541658.8999999999,"ADDRESS":"榮譽街７巷１５號","OBJECTID":341754},"geometry":{"x":169502.12999999989,"y":2541658.9000000041}},{"attributes":{"ID":341764,"DIS_CODE":0,"TOWNNAME":"東區","LI":"虎尾里","LIN":"1鄰","STREET":"東門路","SECT":"三段","MAREA":" ","LANE":"１４１巷","ALLEY":" ","HOUSE_NO":"２１號","E_COORD97":171387.20999999999,"N_COORD97":2542142.2599999998,"ADDRESS":"東門路三段１４１巷２１號","OBJECTID":341755},"geometry":{"x":171387.21000000089,"y":2542142.2600000016}},{"attributes":{"ID":341765,"DIS_CODE":0,"TOWNNAME":"東區","LI":"虎尾里","LIN":"1鄰","STREET":"東門路","SECT":"三段","MAREA":" ","LANE":"１４１巷","ALLEY":" ","HOUSE_NO":"２３號","E_COORD97":171395.64999999999,"N_COORD97":2542142.4199999999,"ADDRESS":"東門路三段１４１巷２３號","OBJECTID":341756},"geometry":{"x":171395.65000000037,"y":2542142.4199999999}},{"attributes":{"ID":341766,"DIS_CODE":0,"TOWNNAME":"東區","LI":"虎尾里","LIN":"1鄰","STREET":"東門路","SECT":"三段","MAREA":" ","LANE":"１４１巷","ALLEY":" ","HOUSE_NO":"２５號","E_COORD97":171396.13,"N_COORD97":2542138.27,"ADDRESS":"東門路三段１４１巷２５號","OBJECTID":341757},"geometry":{"x":171396.13000000082,"y":2542138.2700000014}},{"attributes":{"ID":341767,"DIS_CODE":0,"TOWNNAME":"東區","LI":"虎尾里","LIN":"1鄰","STREET":"東門路","SECT":"三段","MAREA":" ","LANE":"１４１巷","ALLEY":" ","HOUSE_NO":"２７號","E_COORD97":171397.07999999999,"N_COORD97":2542133.9700000002,"ADDRESS":"東門路三段１４１巷２７號","OBJECTID":341758},"geometry":{"x":171397.08000000101,"y":2542133.9700000025}},{"attributes":{"ID":341768,"DIS_CODE":0,"TOWNNAME":"東區","LI":"虎尾里","LIN":"1鄰","STREET":"東門路","SECT":"三段","MAREA":" ","LANE":"１４１巷","ALLEY":" ","HOUSE_NO":"２９號","E_COORD97":171397.56,"N_COORD97":2542129.1899999999,"ADDRESS":"東門路三段１４１巷２９號","OBJECTID":341759},"geometry":{"x":171397.55999999959,"y":2542129.1899999995}},{"attributes":{"ID":341769,"DIS_CODE":0,"TOWNNAME":"西港區","LI":"南海里","LIN":"1鄰","STREET":"慶安路","SECT":" ","MAREA":" ","LANE":"１８６巷","ALLEY":" ","HOUSE_NO":"１０號","E_COORD97":167859.91,"N_COORD97":2557933.8199999998,"ADDRESS":"慶安路１８６巷１０號","OBJECTID":341760},"geometry":{"x":167859.91000000201,"y":2557933.8200000022}},{"attributes":{"ID":341770,"DIS_CODE":0,"TOWNNAME":"西港區","LI":"南海里","LIN":"1鄰","STREET":"慶安路","SECT":" ","MAREA":" ","LANE":"１８６巷","ALLEY":" ","HOUSE_NO":"１１號","E_COORD97":167853.35000000001,"N_COORD97":2557912.9900000002,"ADDRESS":"慶安路１８６巷１１號","OBJECTID":341761},"geometry":{"x":167853.35000000056,"y":2557912.9900000021}},{"attributes":{"ID":341771,"DIS_CODE":0,"TOWNNAME":"西港區","LI":"南海里","LIN":"1鄰","STREET":"慶安路","SECT":" ","MAREA":" ","LANE":"１８６巷","ALLEY":" ","HOUSE_NO":"１２號","E_COORD97":167855.88,"N_COORD97":2557932.9399999999,"ADDRESS":"慶安路１８６巷１２號","OBJECTID":341762},"geometry":{"x":167855.87999999989,"y":2557932.9400000013}},{"attributes":{"ID":341772,"DIS_CODE":0,"TOWNNAME":"西港區","LI":"南海里","LIN":"1鄰","STREET":"慶安路","SECT":" ","MAREA":" ","LANE":"１８６巷","ALLEY":" ","HOUSE_NO":"１３號","E_COORD97":167848.73000000001,"N_COORD97":2557911.5600000001,"ADDRESS":"慶安路１８６巷１３號","OBJECTID":341763},"geometry":{"x":167848.73000000045,"y":2557911.5600000042}},{"attributes":{"ID":341773,"DIS_CODE":0,"TOWNNAME":"西港區","LI":"南海里","LIN":"1鄰","STREET":"慶安路","SECT":" ","MAREA":" ","LANE":"１８６巷","ALLEY":" ","HOUSE_NO":"１４號","E_COORD97":167852.19,"N_COORD97":2557931.6600000001,"ADDRESS":"慶安路１８６巷１４號","OBJECTID":341764},"geometry":{"x":167852.19000000134,"y":2557931.660000002}},{"attributes":{"ID":341774,"DIS_CODE":0,"TOWNNAME":"西港區","LI":"南海里","LIN":"1鄰","STREET":"慶安路","SECT":" ","MAREA":" ","LANE":"１８６巷","ALLEY":" ","HOUSE_NO":"１５號","E_COORD97":167844.44,"N_COORD97":2557911.1800000002,"ADDRESS":"慶安路１８６巷１５號","OBJECTID":341765},"geometry":{"x":167844.44000000041,"y":2557911.1800000016}},{"attributes":{"ID":341775,"DIS_CODE":0,"TOWNNAME":"西港區","LI":"南海里","LIN":"1鄰","STREET":"慶安路","SECT":" ","MAREA":" ","LANE":"１８６巷","ALLEY":" ","HOUSE_NO":"１６號","E_COORD97":167847.56,"N_COORD97":2557930.7200000002,"ADDRESS":"慶安路１８６巷１６號","OBJECTID":341766},"geometry":{"x":167847.55999999959,"y":2557930.7200000044}},{"attributes":{"ID":341776,"DIS_CODE":0,"TOWNNAME":"西港區","LI":"南海里","LIN":"1鄰","STREET":"慶安路","SECT":" ","MAREA":" ","LANE":"１８６巷","ALLEY":" ","HOUSE_NO":"１７號","E_COORD97":167896.75,"N_COORD97":2557916.4300000002,"ADDRESS":"慶安路１８６巷１７號","OBJECTID":341767},"geometry":{"x":167896.75000000093,"y":2557916.4300000016}},{"attributes":{"ID":341777,"DIS_CODE":0,"TOWNNAME":"西港區","LI":"南海里","LIN":"1鄰","STREET":"慶安路","SECT":" ","MAREA":" ","LANE":"１８６巷","ALLEY":" ","HOUSE_NO":"１８號","E_COORD97":167843.04000000001,"N_COORD97":2557929.9500000002,"ADDRESS":"慶安路１８６巷１８號","OBJECTID":341768},"geometry":{"x":167843.04000000004,"y":2557929.9499999993}},{"attributes":{"ID":341778,"DIS_CODE":0,"TOWNNAME":"西港區","LI":"南海里","LIN":"1鄰","STREET":"慶安路","SECT":" ","MAREA":" ","LANE":"１８６巷","ALLEY":" ","HOUSE_NO":"１９號","E_COORD97":167897.32999999999,"N_COORD97":2557923.9300000002,"ADDRESS":"慶安路１８６巷１９號","OBJECTID":341769},"geometry":{"x":167897.33000000007,"y":2557923.9299999997}},{"attributes":{"ID":341779,"DIS_CODE":0,"TOWNNAME":"西港區","LI":"南海里","LIN":"1鄰","STREET":"慶安路","SECT":" ","MAREA":" ","LANE":"１８６巷","ALLEY":" ","HOUSE_NO":"１號","E_COORD97":167915.73000000001,"N_COORD97":2557905.4399999999,"ADDRESS":"慶安路１８６巷１號","OBJECTID":341770},"geometry":{"x":167915.73000000138,"y":2557905.4400000013}},{"attributes":{"ID":341780,"DIS_CODE":0,"TOWNNAME":"西港區","LI":"南海里","LIN":"1鄰","STREET":"慶安路","SECT":" ","MAREA":" ","LANE":"１８６巷","ALLEY":" ","HOUSE_NO":"２０號","E_COORD97":167890.19,"N_COORD97":2557942.9300000002,"ADDRESS":"慶安路１８６巷２０號","OBJECTID":341771},"geometry":{"x":167890.19000000041,"y":2557942.9300000016}},{"attributes":{"ID":341781,"DIS_CODE":0,"TOWNNAME":"西港區","LI":"南海里","LIN":"1鄰","STREET":"慶安路","SECT":" ","MAREA":" ","LANE":"１８６巷","ALLEY":" ","HOUSE_NO":"２１號","E_COORD97":167908.67000000001,"N_COORD97":2557924.4700000002,"ADDRESS":"慶安路１８６巷２１號","OBJECTID":341772},"geometry":{"x":167908.67000000179,"y":2557924.4700000007}},{"attributes":{"ID":341782,"DIS_CODE":0,"TOWNNAME":"西港區","LI":"南海里","LIN":"1鄰","STREET":"慶安路","SECT":" ","MAREA":" ","LANE":"１８６巷","ALLEY":" ","HOUSE_NO":"２２號","E_COORD97":167905.10999999999,"N_COORD97":2557940.6400000001,"ADDRESS":"慶安路１８６巷２２號","OBJECTID":341773},"geometry":{"x":167905.11000000127,"y":2557940.6400000006}},{"attributes":{"ID":341783,"DIS_CODE":0,"TOWNNAME":"西港區","LI":"南海里","LIN":"1鄰","STREET":"慶安路","SECT":" ","MAREA":" ","LANE":"１８６巷","ALLEY":" ","HOUSE_NO":"２３號","E_COORD97":167916.10000000001,"N_COORD97":2557924.71,"ADDRESS":"慶安路１８６巷２３號","OBJECTID":341774},"geometry":{"x":167916.10000000056,"y":2557924.7100000028}},{"attributes":{"ID":341784,"DIS_CODE":0,"TOWNNAME":"西港區","LI":"南海里","LIN":"1鄰","STREET":"慶安路","SECT":" ","MAREA":" ","LANE":"１８６巷","ALLEY":" ","HOUSE_NO":"２４號","E_COORD97":167903.07000000001,"N_COORD97":2557960.0899999999,"ADDRESS":"慶安路１８６巷２４號","OBJECTID":341775},"geometry":{"x":167903.07000000123,"y":2557960.0899999999}},{"attributes":{"ID":341785,"DIS_CODE":0,"TOWNNAME":"西港區","LI":"南海里","LIN":"1鄰","STREET":"慶安路","SECT":" ","MAREA":" ","LANE":"１８６巷","ALLEY":" ","HOUSE_NO":"２６號","E_COORD97":167912.48000000001,"N_COORD97":2557960.3500000001,"ADDRESS":"慶安路１８６巷２６號","OBJECTID":341776},"geometry":{"x":167912.48000000138,"y":2557960.3500000015}},{"attributes":{"ID":341786,"DIS_CODE":0,"TOWNNAME":"西港區","LI":"南海里","LIN":"1鄰","STREET":"慶安路","SECT":" ","MAREA":" ","LANE":"１８６巷","ALLEY":" ","HOUSE_NO":"３號","E_COORD97":167874.64000000001,"N_COORD97":2557903.5800000001,"ADDRESS":"慶安路１８６巷３號","OBJECTID":341777},"geometry":{"x":167874.64000000153,"y":2557903.5800000001}},{"attributes":{"ID":341787,"DIS_CODE":0,"TOWNNAME":"西港區","LI":"南海里","LIN":"1鄰","STREET":"慶安路","SECT":" ","MAREA":" ","LANE":"１８６巷","ALLEY":" ","HOUSE_NO":"４號","E_COORD97":167872.98999999999,"N_COORD97":2557936.6200000001,"ADDRESS":"慶安路１８６巷４號","OBJECTID":341778},"geometry":{"x":167872.99000000209,"y":2557936.6200000029}},{"attributes":{"ID":341788,"DIS_CODE":0,"TOWNNAME":"西港區","LI":"南海里","LIN":"1鄰","STREET":"慶安路","SECT":" ","MAREA":" ","LANE":"１８６巷","ALLEY":" ","HOUSE_NO":"５號","E_COORD97":167874,"N_COORD97":2557915.6499999999,"ADDRESS":"慶安路１８６巷５號","OBJECTID":341779},"geometry":{"x":167874,"y":2557915.6500000022}},{"attributes":{"ID":341789,"DIS_CODE":0,"TOWNNAME":"西港區","LI":"南海里","LIN":"1鄰","STREET":"慶安路","SECT":" ","MAREA":" ","LANE":"１８６巷","ALLEY":" ","HOUSE_NO":"６號","E_COORD97":167868.95000000001,"N_COORD97":2557935.8500000001,"ADDRESS":"慶安路１８６巷６號","OBJECTID":341780},"geometry":{"x":167868.95000000019,"y":2557935.8500000034}},{"attributes":{"ID":341790,"DIS_CODE":0,"TOWNNAME":"西港區","LI":"南海里","LIN":"1鄰","STREET":"慶安路","SECT":" ","MAREA":" ","LANE":"１８６巷","ALLEY":" ","HOUSE_NO":"７號","E_COORD97":167861.82000000001,"N_COORD97":2557914.1899999999,"ADDRESS":"慶安路１８６巷７號","OBJECTID":341781},"geometry":{"x":167861.8200000003,"y":2557914.1900000013}},{"attributes":{"ID":341791,"DIS_CODE":0,"TOWNNAME":"西港區","LI":"南海里","LIN":"1鄰","STREET":"慶安路","SECT":" ","MAREA":" ","LANE":"１８６巷","ALLEY":" ","HOUSE_NO":"８號","E_COORD97":167864.60000000001,"N_COORD97":2557934.5800000001,"ADDRESS":"慶安路１８６巷８號","OBJECTID":341782},"geometry":{"x":167864.5999999987,"y":2557934.5800000038}},{"attributes":{"ID":341792,"DIS_CODE":0,"TOWNNAME":"南區","LI":"文華里","LIN":"1鄰","STREET":"永華路","SECT":"一段","MAREA":" ","LANE":"２３３巷","ALLEY":" ","HOUSE_NO":"１２號","E_COORD97":167105.20000000001,"N_COORD97":2543162.1800000002,"ADDRESS":"永華路一段２３３巷１２號","OBJECTID":341783},"geometry":{"x":167105.20000000205,"y":2543162.1800000016}},{"attributes":{"ID":341793,"DIS_CODE":0,"TOWNNAME":"南區","LI":"竹溪里","LIN":"1鄰","STREET":"健康路","SECT":"一段","MAREA":" ","LANE":"１１３巷","ALLEY":" ","HOUSE_NO":"４７號","E_COORD97":168961.17999999999,"N_COORD97":2542261.25,"ADDRESS":"健康路一段１１３巷４７號","OBJECTID":341784},"geometry":{"x":168961.18000000063,"y":2542261.2500000019}},{"attributes":{"ID":341794,"DIS_CODE":0,"TOWNNAME":"南區","LI":"廣州里","LIN":"1鄰","STREET":"健康路","SECT":"二段","MAREA":" ","LANE":"１５０巷","ALLEY":" ","HOUSE_NO":"３５號","E_COORD97":167366.95999999999,"N_COORD97":2542563.02,"ADDRESS":"健康路二段１５０巷３５號","OBJECTID":341785},"geometry":{"x":167366.95999999996,"y":2542563.0200000014}},{"attributes":{"ID":341795,"DIS_CODE":0,"TOWNNAME":"安南區","LI":"總頭里","LIN":"1鄰","STREET":"長溪路","SECT":"二段","MAREA":" ","LANE":"４７０巷","ALLEY":" ","HOUSE_NO":"１３號","E_COORD97":168313.20999999999,"N_COORD97":2550378.2599999998,"ADDRESS":"長溪路二段４７０巷１３號","OBJECTID":341786},"geometry":{"x":168313.20999999996,"y":2550378.2599999998}},{"attributes":{"ID":341796,"DIS_CODE":0,"TOWNNAME":"安南區","LI":"總頭里","LIN":"1鄰","STREET":"長溪路","SECT":"二段","MAREA":" ","LANE":"４７０巷","ALLEY":" ","HOUSE_NO":"１５號","E_COORD97":168317.07000000001,"N_COORD97":2550376.0600000001,"ADDRESS":"長溪路二段４７０巷１５號","OBJECTID":341787},"geometry":{"x":168317.07000000123,"y":2550376.0600000024}},{"attributes":{"ID":341797,"DIS_CODE":0,"TOWNNAME":"仁德區","LI":"田厝里","LIN":"8鄰","STREET":"田厝二街","SECT":" ","MAREA":" ","LANE":" ","ALLEY":" ","HOUSE_NO":"５６號","E_COORD97":172412.22,"N_COORD97":2537630.5,"ADDRESS":"田厝二街５６號","OBJECTID":341788},"geometry":{"x":172412.2200000016,"y":2537630.5000000019}},{"attributes":{"ID":341798,"DIS_CODE":0,"TOWNNAME":"新營區","LI":"民權里","LIN":"5鄰","STREET":"信義街","SECT":" ","MAREA":" ","LANE":"７２巷","ALLEY":" ","HOUSE_NO":"１０號十一樓之３","E_COORD97":180003.53,"N_COORD97":2578521.8399999999,"ADDRESS":"信義街７２巷１０號十一樓之３","OBJECTID":341789},"geometry":{"x":180003.53000000212,"y":2578521.8399999999}},{"attributes":{"ID":341799,"DIS_CODE":0,"TOWNNAME":"安南區","LI":"總頭里","LIN":"1鄰","STREET":"長溪路","SECT":"二段","MAREA":" ","LANE":"４７０巷","ALLEY":" ","HOUSE_NO":"１６號","E_COORD97":168323.69,"N_COORD97":2550350.7400000002,"ADDRESS":"長溪路二段４７０巷１６號","OBJECTID":341790},"geometry":{"x":168323.69000000041,"y":2550350.7400000021}},{"attributes":{"ID":341800,"DIS_CODE":0,"TOWNNAME":"安南區","LI":"總頭里","LIN":"1鄰","STREET":"長溪路","SECT":"二段","MAREA":" ","LANE":"４７０巷","ALLEY":" ","HOUSE_NO":"１７號","E_COORD97":168321.48999999999,"N_COORD97":2550378.2599999998,"ADDRESS":"長溪路二段４７０巷１７號","OBJECTID":341791},"geometry":{"x":168321.49000000022,"y":2550378.2599999998}},{"attributes":{"ID":341801,"DIS_CODE":0,"TOWNNAME":"安南區","LI":"總頭里","LIN":"1鄰","STREET":"長溪路","SECT":"二段","MAREA":" ","LANE":"４７０巷","ALLEY":" ","HOUSE_NO":"１９號","E_COORD97":168325.89999999999,"N_COORD97":2550374.96,"ADDRESS":"長溪路二段４７０巷１９號","OBJECTID":341792},"geometry":{"x":168325.90000000037,"y":2550374.9600000009}},{"attributes":{"ID":341802,"DIS_CODE":0,"TOWNNAME":"安南區","LI":"總頭里","LIN":"1鄰","STREET":"長溪路","SECT":"二段","MAREA":" ","LANE":"４７０巷","ALLEY":" ","HOUSE_NO":"２０號","E_COORD97":168331.95999999999,"N_COORD97":2550349.0800000001,"ADDRESS":"長溪路二段４７０巷２０號","OBJECTID":341793},"geometry":{"x":168331.95999999996,"y":2550349.0800000001}},{"attributes":{"ID":341803,"DIS_CODE":0,"TOWNNAME":"新化區","LI":"太平里","LIN":"8鄰","STREET":"中正路","SECT":" ","MAREA":" ","LANE":"６６２巷","ALLEY":" ","HOUSE_NO":"２５號","E_COORD97":178729.06,"N_COORD97":2549488.25,"ADDRESS":"中正路６６２巷２５號","OBJECTID":341794},"geometry":{"x":178729.05999999959,"y":2549488.2500000019}},{"attributes":{"ID":341804,"DIS_CODE":0,"TOWNNAME":"安南區","LI":"總頭里","LIN":"1鄰","STREET":"長溪路","SECT":"二段","MAREA":" ","LANE":"４７０巷","ALLEY":" ","HOUSE_NO":"２１號","E_COORD97":168329.76000000001,"N_COORD97":2550377.71,"ADDRESS":"長溪路二段４７０巷２１號","OBJECTID":341795},"geometry":{"x":168329.75999999978,"y":2550377.7100000028}},{"attributes":{"ID":341805,"DIS_CODE":0,"TOWNNAME":"安南區","LI":"總頭里","LIN":"1鄰","STREET":"長溪路","SECT":"二段","MAREA":" ","LANE":"４７０巷","ALLEY":" ","HOUSE_NO":"２３號","E_COORD97":168334.72,"N_COORD97":2550373.3100000001,"ADDRESS":"長溪路二段４７０巷２３號","OBJECTID":341796},"geometry":{"x":168334.71999999974,"y":2550373.3100000024}},{"attributes":{"ID":341806,"DIS_CODE":0,"TOWNNAME":"關廟區","LI":"五甲里","LIN":"19鄰","STREET":"大富街","SECT":" ","MAREA":" ","LANE":" ","ALLEY":" ","HOUSE_NO":"２６６號","E_COORD97":181070.97,"N_COORD97":2539660.25,"ADDRESS":"大富街２６６號","OBJECTID":341797},"geometry":{"x":181070.96999999974,"y":2539660.2500000019}},{"attributes":{"ID":341807,"DIS_CODE":0,"TOWNNAME":"安南區","LI":"總頭里","LIN":"1鄰","STREET":"長溪路","SECT":"二段","MAREA":" ","LANE":"４７０巷","ALLEY":" ","HOUSE_NO":"２號","E_COORD97":168291.16,"N_COORD97":2550361.75,"ADDRESS":"長溪路二段４７０巷２號","OBJECTID":341798},"geometry":{"x":168291.16000000108,"y":2550361.75}},{"attributes":{"ID":341808,"DIS_CODE":0,"TOWNNAME":"安南區","LI":"總頭里","LIN":"1鄰","STREET":"長溪路","SECT":"二段","MAREA":" ","LANE":"４７０巷","ALLEY":" ","HOUSE_NO":"３號","E_COORD97":168291.70999999999,"N_COORD97":2550376.6099999999,"ADDRESS":"長溪路二段４７０巷３號","OBJECTID":341799},"geometry":{"x":168291.71000000089,"y":2550376.6100000031}},{"attributes":{"ID":341809,"DIS_CODE":0,"TOWNNAME":"安南區","LI":"總頭里","LIN":"1鄰","STREET":"長溪路","SECT":"二段","MAREA":" ","LANE":"４７０巷","ALLEY":" ","HOUSE_NO":"５號","E_COORD97":168296.12,"N_COORD97":2550379.3599999999,"ADDRESS":"長溪路二段４７０巷５號","OBJECTID":341800},"geometry":{"x":168296.12000000104,"y":2550379.3600000013}}]}