{"displayFieldName":"TOWNNAME","fieldAliases":{"ID":"ID","DIS_CODE":"DIS_CODE","TOWNNAME":"TOWNNAME","LI":"LI","LIN":"LIN","STREET":"STREET","SECT":"SECT","MAREA":"MAREA","LANE":"LANE","ALLEY":"ALLEY","HOUSE_NO":"HOUSE_NO","E_COORD97":"E_COORD97","N_COORD97":"N_COORD97","ADDRESS":"ADDRESS","OBJECTID":"OBJECTID"},"geometryType":"esriGeometryPoint","spatialReference":{"wkid":102443,"latestWkid":3826},"fields":[{"name":"ID","type":"esriFieldTypeDouble","alias":"ID"},{"name":"DIS_CODE","type":"esriFieldTypeInteger","alias":"DIS_CODE"},{"name":"TOWNNAME","type":"esriFieldTypeString","alias":"TOWNNAME","length":8},{"name":"LI","type":"esriFieldTypeString","alias":"LI","length":8},{"name":"LIN","type":"esriFieldTypeString","alias":"LIN","length":12},{"name":"STREET","type":"esriFieldTypeString","alias":"STREET","length":20},{"name":"SECT","type":"esriFieldTypeString","alias":"SECT","length":8},{"name":"MAREA","type":"esriFieldTypeString","alias":"MAREA","length":12},{"name":"LANE","type":"esriFieldTypeString","alias":"LANE","length":10},{"name":"ALLEY","type":"esriFieldTypeString","alias":"ALLEY","length":10},{"name":"HOUSE_NO","type":"esriFieldTypeString","alias":"HOUSE_NO","length":20},{"name":"E_COORD97","type":"esriFieldTypeDouble","alias":"E_COORD97"},{"name":"N_COORD97","type":"esriFieldTypeDouble","alias":"N_COORD97"},{"name":"ADDRESS","type":"esriFieldTypeString","alias":"ADDRESS","length":50},{"name":"OBJECTID","type":"esriFieldTypeOID","alias":"OBJECTID"}],"features":[{"attributes":{"ID":37601,"DIS_CODE":0,"TOWNNAME":"南區","LI":"南華里","LIN":"8鄰","STREET":"中華南路","SECT":"二段","MAREA":" ","LANE":"４００巷","ALLEY":"４弄","HOUSE_NO":"１１號","E_COORD97":166474.95999999999,"N_COORD97":2540381.0099999998,"ADDRESS":"中華南路二段４００巷４弄１１號","OBJECTID":37601},"geometry":{"x":166474.96000000089,"y":2540381.0099999998}},{"attributes":{"ID":37602,"DIS_CODE":0,"TOWNNAME":"南區","LI":"南華里","LIN":"8鄰","STREET":"中華南路","SECT":"二段","MAREA":" ","LANE":"４００巷","ALLEY":"４弄","HOUSE_NO":"１３號","E_COORD97":166461.95999999999,"N_COORD97":2540388.0299999998,"ADDRESS":"中華南路二段４００巷４弄１３號","OBJECTID":37602},"geometry":{"x":166461.95999999996,"y":2540388.0299999993}},{"attributes":{"ID":37603,"DIS_CODE":0,"TOWNNAME":"南區","LI":"南華里","LIN":"8鄰","STREET":"中華南路","SECT":"二段","MAREA":" ","LANE":"４００巷","ALLEY":"４弄","HOUSE_NO":"１５號","E_COORD97":166475.20000000001,"N_COORD97":2540387.5600000001,"ADDRESS":"中華南路二段４００巷４弄１５號","OBJECTID":37603},"geometry":{"x":166475.20000000112,"y":2540387.5600000024}},{"attributes":{"ID":37604,"DIS_CODE":0,"TOWNNAME":"南區","LI":"南華里","LIN":"8鄰","STREET":"中華南路","SECT":"二段","MAREA":" ","LANE":"４００巷","ALLEY":"４弄","HOUSE_NO":"１號","E_COORD97":166429.28,"N_COORD97":2540381.1299999999,"ADDRESS":"中華南路二段４００巷４弄１號","OBJECTID":37604},"geometry":{"x":166429.28000000026,"y":2540381.1300000027}},{"attributes":{"ID":37605,"DIS_CODE":0,"TOWNNAME":"南區","LI":"南華里","LIN":"8鄰","STREET":"中華南路","SECT":"二段","MAREA":" ","LANE":"４００巷","ALLEY":"４弄","HOUSE_NO":"３號","E_COORD97":166443.34,"N_COORD97":2540380.6600000001,"ADDRESS":"中華南路二段４００巷４弄３號","OBJECTID":37605},"geometry":{"x":166443.34000000078,"y":2540380.6600000001}},{"attributes":{"ID":37606,"DIS_CODE":0,"TOWNNAME":"南區","LI":"南華里","LIN":"8鄰","STREET":"中華南路","SECT":"二段","MAREA":" ","LANE":"４００巷","ALLEY":"４弄","HOUSE_NO":"５號","E_COORD97":166429.16,"N_COORD97":2540388.0299999998,"ADDRESS":"中華南路二段４００巷４弄５號","OBJECTID":37606},"geometry":{"x":166429.16000000201,"y":2540388.0299999993}},{"attributes":{"ID":37607,"DIS_CODE":0,"TOWNNAME":"下營區","LI":"茅港里","LIN":"7鄰","STREET":" ","SECT":" ","MAREA":"茅港尾","LANE":" ","ALLEY":" ","HOUSE_NO":"２１６號之２５","E_COORD97":176559.26000000001,"N_COORD97":2567715.48,"ADDRESS":"茅港尾２１６號之２５","OBJECTID":37607},"geometry":{"x":176559.26000000071,"y":2567715.4800000004}},{"attributes":{"ID":37608,"DIS_CODE":0,"TOWNNAME":"下營區","LI":"茅港里","LIN":"7鄰","STREET":" ","SECT":" ","MAREA":"茅港尾","LANE":" ","ALLEY":" ","HOUSE_NO":"２１６號之２６","E_COORD97":176558.89999999999,"N_COORD97":2567720.21,"ADDRESS":"茅港尾２１６號之２６","OBJECTID":37608},"geometry":{"x":176558.9000000013,"y":2567720.2100000028}},{"attributes":{"ID":37609,"DIS_CODE":0,"TOWNNAME":"下營區","LI":"茅港里","LIN":"7鄰","STREET":" ","SECT":" ","MAREA":"茅港尾","LANE":" ","ALLEY":" ","HOUSE_NO":"２１６號","E_COORD97":176462.66,"N_COORD97":2567724.3199999998,"ADDRESS":"茅港尾２１６號","OBJECTID":37609},"geometry":{"x":176462.66000000015,"y":2567724.3199999984}},{"attributes":{"ID":37610,"DIS_CODE":0,"TOWNNAME":"下營區","LI":"茅港里","LIN":"7鄰","STREET":" ","SECT":" ","MAREA":"茅港尾","LANE":" ","ALLEY":" ","HOUSE_NO":"２２０號","E_COORD97":176464.92000000001,"N_COORD97":2567653.23,"ADDRESS":"茅港尾２２０號","OBJECTID":37610},"geometry":{"x":176464.92000000086,"y":2567653.2300000004}},{"attributes":{"ID":37611,"DIS_CODE":0,"TOWNNAME":"南區","LI":"南華里","LIN":"8鄰","STREET":"中華南路","SECT":"二段","MAREA":" ","LANE":"４００巷","ALLEY":"４弄","HOUSE_NO":"７號","E_COORD97":166442.75,"N_COORD97":2540388.1499999999,"ADDRESS":"中華南路二段４００巷４弄７號","OBJECTID":37611},"geometry":{"x":166442.75,"y":2540388.1500000004}},{"attributes":{"ID":37612,"DIS_CODE":0,"TOWNNAME":"南區","LI":"南華里","LIN":"8鄰","STREET":"中華南路","SECT":"二段","MAREA":" ","LANE":"４００巷","ALLEY":"４弄","HOUSE_NO":"９號","E_COORD97":166461.73000000001,"N_COORD97":2540380.7799999998,"ADDRESS":"中華南路二段４００巷４弄９號","OBJECTID":37612},"geometry":{"x":166461.73000000138,"y":2540380.7800000012}},{"attributes":{"ID":37613,"DIS_CODE":0,"TOWNNAME":"東區","LI":"富強里","LIN":"7鄰","STREET":"中華東路","SECT":"二段","MAREA":" ","LANE":"４８巷","ALLEY":"２５弄","HOUSE_NO":"４８號","E_COORD97":171276.57999999999,"N_COORD97":2542886.25,"ADDRESS":"中華東路二段４８巷２５弄４８號","OBJECTID":37613},"geometry":{"x":171276.58000000101,"y":2542886.25}},{"attributes":{"ID":37614,"DIS_CODE":0,"TOWNNAME":"東區","LI":"和平里","LIN":"7鄰","STREET":"東門路","SECT":"三段","MAREA":" ","LANE":"２２６巷","ALLEY":"７５弄","HOUSE_NO":"３３號","E_COORD97":171544.29999999999,"N_COORD97":2541773.3799999999,"ADDRESS":"東門路三段２２６巷７５弄３３號","OBJECTID":37614},"geometry":{"x":171544.30000000075,"y":2541773.3800000008}},{"attributes":{"ID":37615,"DIS_CODE":0,"TOWNNAME":"永康區","LI":"網寮里","LIN":"7鄰","STREET":"永二街","SECT":" ","MAREA":" ","LANE":"２４４巷","ALLEY":"４弄","HOUSE_NO":"２號","E_COORD97":173267.44,"N_COORD97":2546348.3900000001,"ADDRESS":"永二街２４４巷４弄２號","OBJECTID":37615},"geometry":{"x":173267.44000000227,"y":2546348.3900000025}},{"attributes":{"ID":37616,"DIS_CODE":0,"TOWNNAME":"永康區","LI":"網寮里","LIN":"7鄰","STREET":"永二街","SECT":" ","MAREA":" ","LANE":"２４４巷","ALLEY":"２弄","HOUSE_NO":"２５號","E_COORD97":173317.57999999999,"N_COORD97":2546296.6400000001,"ADDRESS":"永二街２４４巷２弄２５號","OBJECTID":37616},"geometry":{"x":173317.58000000101,"y":2546296.6400000025}},{"attributes":{"ID":37617,"DIS_CODE":0,"TOWNNAME":"永康區","LI":"網寮里","LIN":"7鄰","STREET":"永二街","SECT":" ","MAREA":" ","LANE":"２４４巷","ALLEY":"２弄","HOUSE_NO":"１４號","E_COORD97":173291.89000000001,"N_COORD97":2546298.8300000001,"ADDRESS":"永二街２４４巷２弄１４號","OBJECTID":37617},"geometry":{"x":173291.88999999966,"y":2546298.8300000001}},{"attributes":{"ID":37618,"DIS_CODE":0,"TOWNNAME":"永康區","LI":"網寮里","LIN":"7鄰","STREET":"永二街","SECT":" ","MAREA":" ","LANE":"２４４巷","ALLEY":"４弄","HOUSE_NO":"２０號","E_COORD97":173309.75,"N_COORD97":2546323.6400000001,"ADDRESS":"永二街２４４巷４弄２０號","OBJECTID":37618},"geometry":{"x":173309.75000000093,"y":2546323.6400000025}},{"attributes":{"ID":37619,"DIS_CODE":0,"TOWNNAME":"安南區","LI":"安富里","LIN":"7鄰","STREET":"郡安路","SECT":"五段","MAREA":" ","LANE":"１８４巷","ALLEY":"８０弄","HOUSE_NO":"１２號","E_COORD97":167451.64999999999,"N_COORD97":2547551.5600000001,"ADDRESS":"郡安路五段１８４巷８０弄１２號","OBJECTID":37619},"geometry":{"x":167451.65000000224,"y":2547551.5600000024}},{"attributes":{"ID":37620,"DIS_CODE":0,"TOWNNAME":"安南區","LI":"安富里","LIN":"7鄰","STREET":"郡安路","SECT":"五段","MAREA":" ","LANE":"１８４巷","ALLEY":"８０弄","HOUSE_NO":"５５號","E_COORD97":167313.81,"N_COORD97":2547502.2599999998,"ADDRESS":"郡安路五段１８４巷８０弄５５號","OBJECTID":37620},"geometry":{"x":167313.80999999959,"y":2547502.2600000016}},{"attributes":{"ID":37621,"DIS_CODE":0,"TOWNNAME":"安南區","LI":"安富里","LIN":"7鄰","STREET":"郡安路","SECT":"五段","MAREA":" ","LANE":"１８４巷","ALLEY":"８０弄","HOUSE_NO":"５７號","E_COORD97":167309.47,"N_COORD97":2547500.3100000001,"ADDRESS":"郡安路五段１８４巷８０弄５７號","OBJECTID":37621},"geometry":{"x":167309.46999999974,"y":2547500.3100000005}},{"attributes":{"ID":37622,"DIS_CODE":0,"TOWNNAME":"安南區","LI":"安順里","LIN":"7鄰","STREET":"總安街","SECT":"一段","MAREA":" ","LANE":"１１０巷","ALLEY":"７１弄","HOUSE_NO":"１號","E_COORD97":169721.28,"N_COORD97":2550296.3999999999,"ADDRESS":"總安街一段１１０巷７１弄１號","OBJECTID":37622},"geometry":{"x":169721.28000000026,"y":2550296.4000000004}},{"attributes":{"ID":37623,"DIS_CODE":0,"TOWNNAME":"安南區","LI":"安順里","LIN":"7鄰","STREET":"總安街","SECT":"一段","MAREA":" ","LANE":"１１０巷","ALLEY":"７１弄","HOUSE_NO":"３號","E_COORD97":169715.32999999999,"N_COORD97":2550297.7400000002,"ADDRESS":"總安街一段１１０巷７１弄３號","OBJECTID":37623},"geometry":{"x":169715.33000000101,"y":2550297.7400000002}},{"attributes":{"ID":37624,"DIS_CODE":0,"TOWNNAME":"安南區","LI":"安順里","LIN":"7鄰","STREET":"總安街","SECT":"一段","MAREA":" ","LANE":"１１０巷","ALLEY":"２５弄","HOUSE_NO":"１１號","E_COORD97":169667.67999999999,"N_COORD97":2550226.73,"ADDRESS":"總安街一段１１０巷２５弄１１號","OBJECTID":37624},"geometry":{"x":169667.6799999997,"y":2550226.7300000004}},{"attributes":{"ID":37625,"DIS_CODE":0,"TOWNNAME":"北區","LI":"大和里","LIN":"14鄰","STREET":"文賢路","SECT":" ","MAREA":" ","LANE":" ","ALLEY":" ","HOUSE_NO":"８０５號","E_COORD97":167309.81,"N_COORD97":2546320.1400000001,"ADDRESS":"文賢路８０５號","OBJECTID":37625},"geometry":{"x":167309.80999999959,"y":2546320.1400000025}},{"attributes":{"ID":37626,"DIS_CODE":0,"TOWNNAME":"北區","LI":"大和里","LIN":"14鄰","STREET":"文賢路","SECT":" ","MAREA":" ","LANE":" ","ALLEY":" ","HOUSE_NO":"８０１號","E_COORD97":167310.23999999999,"N_COORD97":2546312.3500000001,"ADDRESS":"文賢路８０１號","OBJECTID":37626},"geometry":{"x":167310.24000000115,"y":2546312.3499999996}},{"attributes":{"ID":37627,"DIS_CODE":0,"TOWNNAME":"北區","LI":"大和里","LIN":"14鄰","STREET":"文賢路","SECT":" ","MAREA":" ","LANE":" ","ALLEY":" ","HOUSE_NO":"８０３號","E_COORD97":167310.01999999999,"N_COORD97":2546316,"ADDRESS":"文賢路８０３號","OBJECTID":37627},"geometry":{"x":167310.01999999955,"y":2546315.9999999981}},{"attributes":{"ID":37628,"DIS_CODE":0,"TOWNNAME":"北區","LI":"大和里","LIN":"14鄰","STREET":"文賢路","SECT":" ","MAREA":" ","LANE":" ","ALLEY":" ","HOUSE_NO":"８０７號","E_COORD97":167309.81,"N_COORD97":2546324.27,"ADDRESS":"文賢路８０７號","OBJECTID":37628},"geometry":{"x":167309.80999999959,"y":2546324.2700000033}},{"attributes":{"ID":37629,"DIS_CODE":0,"TOWNNAME":"下營區","LI":"茅港里","LIN":"7鄰","STREET":" ","SECT":" ","MAREA":"茅港尾","LANE":" ","ALLEY":" ","HOUSE_NO":"２２１號","E_COORD97":176466.31,"N_COORD97":2567648.3900000001,"ADDRESS":"茅港尾２２１號","OBJECTID":37629},"geometry":{"x":176466.31000000145,"y":2567648.3900000006}},{"attributes":{"ID":37630,"DIS_CODE":0,"TOWNNAME":"下營區","LI":"茅港里","LIN":"7鄰","STREET":" ","SECT":" ","MAREA":"茅港尾","LANE":" ","ALLEY":" ","HOUSE_NO":"２２２號","E_COORD97":176466.42999999999,"N_COORD97":2567643.5299999998,"ADDRESS":"茅港尾２２２號","OBJECTID":37630},"geometry":{"x":176466.43000000063,"y":2567643.5299999993}},{"attributes":{"ID":37631,"DIS_CODE":0,"TOWNNAME":"新化區","LI":"太平里","LIN":"13鄰","STREET":"中正路","SECT":" ","MAREA":" ","LANE":" ","ALLEY":" ","HOUSE_NO":"６１７號","E_COORD97":178934.01000000001,"N_COORD97":2548876.25,"ADDRESS":"中正路６１７號","OBJECTID":37631},"geometry":{"x":178934.01000000071,"y":2548876.25}},{"attributes":{"ID":37632,"DIS_CODE":0,"TOWNNAME":"新化區","LI":"太平里","LIN":"14鄰","STREET":"太平街","SECT":" ","MAREA":" ","LANE":" ","ALLEY":" ","HOUSE_NO":"７０號","E_COORD97":178705.37,"N_COORD97":2548769.25,"ADDRESS":"太平街７０號","OBJECTID":37632},"geometry":{"x":178705.37000000011,"y":2548769.2500000037}},{"attributes":{"ID":37633,"DIS_CODE":0,"TOWNNAME":"新化區","LI":"武安里","LIN":"4鄰","STREET":"和平街","SECT":" ","MAREA":" ","LANE":" ","ALLEY":" ","HOUSE_NO":"８０號","E_COORD97":179031.07000000001,"N_COORD97":2548156.25,"ADDRESS":"和平街８０號","OBJECTID":37633},"geometry":{"x":179031.0700000003,"y":2548156.2500000019}},{"attributes":{"ID":37634,"DIS_CODE":0,"TOWNNAME":"下營區","LI":"茅港里","LIN":"7鄰","STREET":" ","SECT":" ","MAREA":"茅港尾","LANE":" ","ALLEY":" ","HOUSE_NO":"２２３號","E_COORD97":176466.54999999999,"N_COORD97":2567638.6600000001,"ADDRESS":"茅港尾２２３號","OBJECTID":37634},"geometry":{"x":176466.54999999888,"y":2567638.660000002}},{"attributes":{"ID":37635,"DIS_CODE":0,"TOWNNAME":"下營區","LI":"茅港里","LIN":"7鄰","STREET":" ","SECT":" ","MAREA":"茅港尾","LANE":" ","ALLEY":" ","HOUSE_NO":"２２４號","E_COORD97":176466.67000000001,"N_COORD97":2567633.7999999998,"ADDRESS":"茅港尾２２４號","OBJECTID":37635},"geometry":{"x":176466.67000000086,"y":2567633.8000000045}},{"attributes":{"ID":37636,"DIS_CODE":0,"TOWNNAME":"下營區","LI":"茅港里","LIN":"7鄰","STREET":" ","SECT":" ","MAREA":"茅港尾","LANE":" ","ALLEY":" ","HOUSE_NO":"２２６號","E_COORD97":176466.91,"N_COORD97":2567624.0699999998,"ADDRESS":"茅港尾２２６號","OBJECTID":37636},"geometry":{"x":176466.91000000108,"y":2567624.0700000003}},{"attributes":{"ID":37637,"DIS_CODE":0,"TOWNNAME":"下營區","LI":"茅港里","LIN":"7鄰","STREET":" ","SECT":" ","MAREA":"茅港尾","LANE":" ","ALLEY":" ","HOUSE_NO":"２２７號之１","E_COORD97":176480.67999999999,"N_COORD97":2567494.6099999999,"ADDRESS":"茅港尾２２７號之１","OBJECTID":37637},"geometry":{"x":176480.6799999997,"y":2567494.6100000031}},{"attributes":{"ID":37638,"DIS_CODE":0,"TOWNNAME":"下營區","LI":"茅港里","LIN":"7鄰","STREET":" ","SECT":" ","MAREA":"茅港尾","LANE":" ","ALLEY":" ","HOUSE_NO":"２２７號之３","E_COORD97":176507.60000000001,"N_COORD97":2567485.6800000002,"ADDRESS":"茅港尾２２７號之３","OBJECTID":37638},"geometry":{"x":176507.60000000056,"y":2567485.6800000016}},{"attributes":{"ID":37639,"DIS_CODE":0,"TOWNNAME":"安南區","LI":"幸福里","LIN":"7鄰","STREET":"國安街","SECT":" ","MAREA":" ","LANE":"１５５巷","ALLEY":"４０弄","HOUSE_NO":"２４號","E_COORD97":166708.89999999999,"N_COORD97":2546850.3399999999,"ADDRESS":"國安街１５５巷４０弄２４號","OBJECTID":37639},"geometry":{"x":166708.90000000037,"y":2546850.3400000017}},{"attributes":{"ID":37640,"DIS_CODE":0,"TOWNNAME":"安南區","LI":"幸福里","LIN":"7鄰","STREET":"國安街","SECT":" ","MAREA":" ","LANE":"１５５巷","ALLEY":"４０弄","HOUSE_NO":"２６號","E_COORD97":166705.42000000001,"N_COORD97":2546849.8300000001,"ADDRESS":"國安街１５５巷４０弄２６號","OBJECTID":37640},"geometry":{"x":166705.42000000086,"y":2546849.8300000038}},{"attributes":{"ID":37641,"DIS_CODE":0,"TOWNNAME":"安南區","LI":"幸福里","LIN":"7鄰","STREET":"國安街","SECT":" ","MAREA":" ","LANE":"１５５巷","ALLEY":"４０弄","HOUSE_NO":"３２號","E_COORD97":166694.81,"N_COORD97":2546848.2999999998,"ADDRESS":"國安街１５５巷４０弄３２號","OBJECTID":37641},"geometry":{"x":166694.80999999959,"y":2546848.3000000026}},{"attributes":{"ID":37642,"DIS_CODE":0,"TOWNNAME":"安南區","LI":"幸福里","LIN":"7鄰","STREET":"國安街","SECT":" ","MAREA":" ","LANE":"１５５巷","ALLEY":"４８弄","HOUSE_NO":"１３號","E_COORD97":166708.82000000001,"N_COORD97":2546803.9199999999,"ADDRESS":"國安街１５５巷４８弄１３號","OBJECTID":37642},"geometry":{"x":166708.8200000003,"y":2546803.9199999999}},{"attributes":{"ID":37643,"DIS_CODE":0,"TOWNNAME":"安南區","LI":"幸福里","LIN":"7鄰","STREET":"國安街","SECT":" ","MAREA":" ","LANE":"１５５巷","ALLEY":"４８弄","HOUSE_NO":"１５號","E_COORD97":166702.17999999999,"N_COORD97":2546803.6400000001,"ADDRESS":"國安街１５５巷４８弄１５號","OBJECTID":37643},"geometry":{"x":166702.18000000063,"y":2546803.6400000006}},{"attributes":{"ID":37644,"DIS_CODE":0,"TOWNNAME":"安南區","LI":"幸福里","LIN":"7鄰","STREET":"國安街","SECT":" ","MAREA":" ","LANE":"１５５巷","ALLEY":"４８弄","HOUSE_NO":"１號","E_COORD97":166746.39999999999,"N_COORD97":2546811.6400000001,"ADDRESS":"國安街１５５巷４８弄１號","OBJECTID":37644},"geometry":{"x":166746.40000000224,"y":2546811.6400000025}},{"attributes":{"ID":37645,"DIS_CODE":0,"TOWNNAME":"安南區","LI":"幸福里","LIN":"7鄰","STREET":"國安街","SECT":" ","MAREA":" ","LANE":"１５５巷","ALLEY":"４８弄","HOUSE_NO":"５號","E_COORD97":166733.79000000001,"N_COORD97":2546809.3300000001,"ADDRESS":"國安街１５５巷４８弄５號","OBJECTID":37645},"geometry":{"x":166733.79000000097,"y":2546809.3300000019}},{"attributes":{"ID":37646,"DIS_CODE":0,"TOWNNAME":"安南區","LI":"新順里","LIN":"7鄰","STREET":"北安路","SECT":"三段","MAREA":" ","LANE":"７４５巷","ALLEY":"４２弄","HOUSE_NO":"４３號","E_COORD97":169151,"N_COORD97":2550062.77,"ADDRESS":"北安路三段７４５巷４２弄４３號","OBJECTID":37646},"geometry":{"x":169151.00000000093,"y":2550062.7699999996}},{"attributes":{"ID":37647,"DIS_CODE":0,"TOWNNAME":"下營區","LI":"茅港里","LIN":"7鄰","STREET":" ","SECT":" ","MAREA":"茅港尾","LANE":" ","ALLEY":" ","HOUSE_NO":"２２７號","E_COORD97":176482.70999999999,"N_COORD97":2567521.9399999999,"ADDRESS":"茅港尾２２７號","OBJECTID":37647},"geometry":{"x":176482.71000000183,"y":2567521.9399999995}},{"attributes":{"ID":37648,"DIS_CODE":0,"TOWNNAME":"安南區","LI":"新順里","LIN":"7鄰","STREET":"北安路","SECT":"三段","MAREA":" ","LANE":"７４５巷","ALLEY":"４２弄","HOUSE_NO":"４５號","E_COORD97":169168.57999999999,"N_COORD97":2550046.9900000002,"ADDRESS":"北安路三段７４５巷４２弄４５號","OBJECTID":37648},"geometry":{"x":169168.58000000007,"y":2550046.9900000021}},{"attributes":{"ID":37649,"DIS_CODE":0,"TOWNNAME":"安南區","LI":"新順里","LIN":"7鄰","STREET":"北安路","SECT":"三段","MAREA":" ","LANE":"７４５巷","ALLEY":"４２弄","HOUSE_NO":"４７號","E_COORD97":169162.72,"N_COORD97":2550048.5099999998,"ADDRESS":"北安路三段７４５巷４２弄４７號","OBJECTID":37649},"geometry":{"x":169162.72000000067,"y":2550048.5100000035}},{"attributes":{"ID":37650,"DIS_CODE":0,"TOWNNAME":"安南區","LI":"新順里","LIN":"7鄰","STREET":"北安路","SECT":"三段","MAREA":" ","LANE":"７４５巷","ALLEY":"４２弄","HOUSE_NO":"４９號","E_COORD97":169157.88,"N_COORD97":2550046.48,"ADDRESS":"北安路三段７４５巷４２弄４９號","OBJECTID":37650},"geometry":{"x":169157.87999999989,"y":2550046.4800000023}},{"attributes":{"ID":37651,"DIS_CODE":0,"TOWNNAME":"安南區","LI":"新順里","LIN":"7鄰","STREET":"北安路","SECT":"三段","MAREA":" ","LANE":"７４５巷","ALLEY":"４２弄","HOUSE_NO":"５１號","E_COORD97":169152.28,"N_COORD97":2550048.2599999998,"ADDRESS":"北安路三段７４５巷４２弄５１號","OBJECTID":37651},"geometry":{"x":169152.28000000026,"y":2550048.2600000016}},{"attributes":{"ID":37652,"DIS_CODE":0,"TOWNNAME":"安南區","LI":"安東里","LIN":"7鄰","STREET":"安和路","SECT":"一段","MAREA":" ","LANE":"２８８巷","ALLEY":"１５弄","HOUSE_NO":"９號","E_COORD97":169329.31,"N_COORD97":2548089.6800000002,"ADDRESS":"安和路一段２８８巷１５弄９號","OBJECTID":37652},"geometry":{"x":169329.30999999959,"y":2548089.6799999997}},{"attributes":{"ID":37653,"DIS_CODE":0,"TOWNNAME":"安南區","LI":"新順里","LIN":"7鄰","STREET":"北安路","SECT":"三段","MAREA":" ","LANE":"７４５巷","ALLEY":"２６弄","HOUSE_NO":"１號","E_COORD97":169090.17000000001,"N_COORD97":2549967.4399999999,"ADDRESS":"北安路三段７４５巷２６弄１號","OBJECTID":37653},"geometry":{"x":169090.17000000179,"y":2549967.4400000032}},{"attributes":{"ID":37654,"DIS_CODE":0,"TOWNNAME":"安南區","LI":"新順里","LIN":"7鄰","STREET":"北安路","SECT":"三段","MAREA":" ","LANE":"７４５巷","ALLEY":"２６弄","HOUSE_NO":"３號","E_COORD97":169095.92999999999,"N_COORD97":2549969.96,"ADDRESS":"北安路三段７４５巷２６弄３號","OBJECTID":37654},"geometry":{"x":169095.9299999997,"y":2549969.9600000028}},{"attributes":{"ID":37655,"DIS_CODE":0,"TOWNNAME":"北區","LI":"大和里","LIN":"14鄰","STREET":"文賢路","SECT":" ","MAREA":" ","LANE":" ","ALLEY":" ","HOUSE_NO":"８２５號","E_COORD97":167304.48000000001,"N_COORD97":2546356.8199999998,"ADDRESS":"文賢路８２５號","OBJECTID":37655},"geometry":{"x":167304.48000000045,"y":2546356.8200000003}},{"attributes":{"ID":37656,"DIS_CODE":0,"TOWNNAME":"北區","LI":"大和里","LIN":"14鄰","STREET":"文賢路","SECT":" ","MAREA":" ","LANE":" ","ALLEY":" ","HOUSE_NO":"８２５號之３","E_COORD97":167304.51000000001,"N_COORD97":2546367.5299999998,"ADDRESS":"文賢路８２５號之３","OBJECTID":37656},"geometry":{"x":167304.51000000164,"y":2546367.5300000012}},{"attributes":{"ID":37657,"DIS_CODE":0,"TOWNNAME":"關廟區","LI":"南花里","LIN":"14鄰","STREET":"和平路","SECT":" ","MAREA":" ","LANE":" ","ALLEY":" ","HOUSE_NO":"３３０號","E_COORD97":181653.23999999999,"N_COORD97":2540099.25,"ADDRESS":"和平路３３０號","OBJECTID":37657},"geometry":{"x":181653.24000000115,"y":2540099.25}},{"attributes":{"ID":37658,"DIS_CODE":0,"TOWNNAME":"關廟區","LI":"松腳里","LIN":"14鄰","STREET":"四維街","SECT":" ","MAREA":" ","LANE":" ","ALLEY":" ","HOUSE_NO":"６５號","E_COORD97":181887.60999999999,"N_COORD97":2539611.25,"ADDRESS":"四維街６５號","OBJECTID":37658},"geometry":{"x":181887.61000000034,"y":2539611.25}},{"attributes":{"ID":37659,"DIS_CODE":0,"TOWNNAME":"關廟區","LI":"深坑里","LIN":"14鄰","STREET":"南雄路","SECT":"一段","MAREA":" ","LANE":" ","ALLEY":" ","HOUSE_NO":"３３６號","E_COORD97":181814.47,"N_COORD97":2537531.2999999998,"ADDRESS":"南雄路一段３３６號","OBJECTID":37659},"geometry":{"x":181814.47000000067,"y":2537531.3000000026}},{"attributes":{"ID":37660,"DIS_CODE":0,"TOWNNAME":"關廟區","LI":"南花里","LIN":"14鄰","STREET":"和平路","SECT":" ","MAREA":" ","LANE":" ","ALLEY":" ","HOUSE_NO":"３４２號","E_COORD97":181650.54000000001,"N_COORD97":2540123.25,"ADDRESS":"和平路３４２號","OBJECTID":37660},"geometry":{"x":181650.54000000004,"y":2540123.25}},{"attributes":{"ID":37661,"DIS_CODE":0,"TOWNNAME":"關廟區","LI":"深坑里","LIN":"14鄰","STREET":"南雄路","SECT":"一段","MAREA":" ","LANE":" ","ALLEY":" ","HOUSE_NO":"３８５號","E_COORD97":181784.57000000001,"N_COORD97":2537533.2999999998,"ADDRESS":"南雄路一段３８５號","OBJECTID":37661},"geometry":{"x":181784.5700000003,"y":2537533.3000000007}},{"attributes":{"ID":37662,"DIS_CODE":0,"TOWNNAME":"安南區","LI":"新順里","LIN":"7鄰","STREET":"北安路","SECT":"三段","MAREA":" ","LANE":"７４５巷","ALLEY":"２６弄","HOUSE_NO":"５號","E_COORD97":169102.04999999999,"N_COORD97":2549972.4700000002,"ADDRESS":"北安路三段７４５巷２６弄５號","OBJECTID":37662},"geometry":{"x":169102.04999999981,"y":2549972.4700000025}},{"attributes":{"ID":37663,"DIS_CODE":0,"TOWNNAME":"南化區","LI":"南化里","LIN":"14鄰","STREET":" ","SECT":" ","MAREA":"南化","LANE":" ","ALLEY":" ","HOUSE_NO":"２９０號","E_COORD97":198600.64000000001,"N_COORD97":2548219.75,"ADDRESS":"南化２９０號","OBJECTID":37663},"geometry":{"x":198600.6400000006,"y":2548219.7500000037}},{"attributes":{"ID":37664,"DIS_CODE":0,"TOWNNAME":"南化區","LI":"西埔里","LIN":"14鄰","STREET":" ","SECT":" ","MAREA":"西埔","LANE":" ","ALLEY":" ","HOUSE_NO":"１７３之８號","E_COORD97":193200.89000000001,"N_COORD97":2549262.7999999998,"ADDRESS":"西埔１７３之８號","OBJECTID":37664},"geometry":{"x":193200.89000000153,"y":2549262.8000000026}},{"attributes":{"ID":37665,"DIS_CODE":0,"TOWNNAME":"中西區","LI":"光賢里","LIN":"7鄰","STREET":"武聖路","SECT":" ","MAREA":" ","LANE":"６９巷","ALLEY":"７１弄","HOUSE_NO":"１０號","E_COORD97":167102.48000000001,"N_COORD97":2544939.4700000002,"ADDRESS":"武聖路６９巷７１弄１０號","OBJECTID":37665},"geometry":{"x":167102.48000000138,"y":2544939.4700000007}},{"attributes":{"ID":37666,"DIS_CODE":0,"TOWNNAME":"南化區","LI":"西埔里","LIN":"14鄰","STREET":" ","SECT":" ","MAREA":"西埔","LANE":" ","ALLEY":" ","HOUSE_NO":"１７１號","E_COORD97":192895.79000000001,"N_COORD97":2549267.75,"ADDRESS":"西埔１７１號","OBJECTID":37666},"geometry":{"x":192895.79000000097,"y":2549267.7500000019}},{"attributes":{"ID":37667,"DIS_CODE":0,"TOWNNAME":"南化區","LI":"西埔里","LIN":"14鄰","STREET":" ","SECT":" ","MAREA":"西埔","LANE":" ","ALLEY":" ","HOUSE_NO":"１７７號","E_COORD97":192731.19,"N_COORD97":2549322.75,"ADDRESS":"西埔１７７號","OBJECTID":37667},"geometry":{"x":192731.19000000041,"y":2549322.7500000019}},{"attributes":{"ID":37668,"DIS_CODE":0,"TOWNNAME":"中西區","LI":"光賢里","LIN":"7鄰","STREET":"武聖路","SECT":" ","MAREA":" ","LANE":"６９巷","ALLEY":"７１弄","HOUSE_NO":"１２號","E_COORD97":167106.29000000001,"N_COORD97":2544937.5600000001,"ADDRESS":"武聖路６９巷７１弄１２號","OBJECTID":37668},"geometry":{"x":167106.29000000097,"y":2544937.5600000024}},{"attributes":{"ID":37669,"DIS_CODE":0,"TOWNNAME":"南化區","LI":"西埔里","LIN":"14鄰","STREET":" ","SECT":" ","MAREA":"西埔","LANE":" ","ALLEY":" ","HOUSE_NO":"１７８號","E_COORD97":192653.89000000001,"N_COORD97":2549275.75,"ADDRESS":"西埔１７８號","OBJECTID":37669},"geometry":{"x":192653.8900000006,"y":2549275.7500000019}},{"attributes":{"ID":37670,"DIS_CODE":0,"TOWNNAME":"南化區","LI":"西埔里","LIN":"14鄰","STREET":" ","SECT":" ","MAREA":"西埔","LANE":" ","ALLEY":" ","HOUSE_NO":"１７３之２號","E_COORD97":193142.19,"N_COORD97":2549120.7999999998,"ADDRESS":"西埔１７３之２號","OBJECTID":37670},"geometry":{"x":193142.19000000134,"y":2549120.8000000007}},{"attributes":{"ID":37671,"DIS_CODE":0,"TOWNNAME":"中西區","LI":"光賢里","LIN":"7鄰","STREET":"武聖路","SECT":" ","MAREA":" ","LANE":"６９巷","ALLEY":"７１弄","HOUSE_NO":"１４號","E_COORD97":167109.89000000001,"N_COORD97":2544935.4399999999,"ADDRESS":"武聖路６９巷７１弄１４號","OBJECTID":37671},"geometry":{"x":167109.88999999966,"y":2544935.4399999995}},{"attributes":{"ID":37672,"DIS_CODE":0,"TOWNNAME":"中西區","LI":"光賢里","LIN":"7鄰","STREET":"武聖路","SECT":" ","MAREA":" ","LANE":"６９巷","ALLEY":"７１弄","HOUSE_NO":"１６號","E_COORD97":167113.91,"N_COORD97":2544933.54,"ADDRESS":"武聖路６９巷７１弄１６號","OBJECTID":37672},"geometry":{"x":167113.91000000201,"y":2544933.5399999991}},{"attributes":{"ID":37673,"DIS_CODE":0,"TOWNNAME":"中西區","LI":"光賢里","LIN":"7鄰","STREET":"武聖路","SECT":" ","MAREA":" ","LANE":"６９巷","ALLEY":"７１弄","HOUSE_NO":"１８號","E_COORD97":167117.51000000001,"N_COORD97":2544931.6299999999,"ADDRESS":"武聖路６９巷７１弄１８號","OBJECTID":37673},"geometry":{"x":167117.50999999978,"y":2544931.6300000008}},{"attributes":{"ID":37674,"DIS_CODE":0,"TOWNNAME":"北區","LI":"公園里","LIN":"14鄰","STREET":"公園南路","SECT":" ","MAREA":" ","LANE":" ","ALLEY":" ","HOUSE_NO":"８７號","E_COORD97":169071.54000000001,"N_COORD97":2544554.4100000001,"ADDRESS":"公園南路８７號","OBJECTID":37674},"geometry":{"x":169071.54000000097,"y":2544554.410000002}},{"attributes":{"ID":37675,"DIS_CODE":0,"TOWNNAME":"中西區","LI":"光賢里","LIN":"7鄰","STREET":"武聖路","SECT":" ","MAREA":" ","LANE":"６９巷","ALLEY":"７１弄","HOUSE_NO":"２０號","E_COORD97":167121.32000000001,"N_COORD97":2544929.3100000001,"ADDRESS":"武聖路６９巷７１弄２０號","OBJECTID":37675},"geometry":{"x":167121.31999999937,"y":2544929.3100000024}},{"attributes":{"ID":37676,"DIS_CODE":0,"TOWNNAME":"中西區","LI":"光賢里","LIN":"7鄰","STREET":"武聖路","SECT":" ","MAREA":" ","LANE":"６９巷","ALLEY":"７１弄","HOUSE_NO":"２２號","E_COORD97":167124.92000000001,"N_COORD97":2544927.3999999999,"ADDRESS":"武聖路６９巷７１弄２２號","OBJECTID":37676},"geometry":{"x":167124.91999999993,"y":2544927.4000000041}},{"attributes":{"ID":37677,"DIS_CODE":0,"TOWNNAME":"中西區","LI":"光賢里","LIN":"7鄰","STREET":"武聖路","SECT":" ","MAREA":" ","LANE":"６９巷","ALLEY":"７１弄","HOUSE_NO":"２４號","E_COORD97":167128.73000000001,"N_COORD97":2544925.2799999998,"ADDRESS":"武聖路６９巷７１弄２４號","OBJECTID":37677},"geometry":{"x":167128.73000000045,"y":2544925.2799999993}},{"attributes":{"ID":37678,"DIS_CODE":0,"TOWNNAME":"中西區","LI":"光賢里","LIN":"7鄰","STREET":"武聖路","SECT":" ","MAREA":" ","LANE":"６９巷","ALLEY":"７１弄","HOUSE_NO":"２６號","E_COORD97":167132.54000000001,"N_COORD97":2544923.1699999999,"ADDRESS":"武聖路６９巷７１弄２６號","OBJECTID":37678},"geometry":{"x":167132.54000000004,"y":2544923.1699999999}},{"attributes":{"ID":37679,"DIS_CODE":0,"TOWNNAME":"中西區","LI":"光賢里","LIN":"7鄰","STREET":"武聖路","SECT":" ","MAREA":" ","LANE":"６９巷","ALLEY":"７１弄","HOUSE_NO":"２８號","E_COORD97":167136.14000000001,"N_COORD97":2544921.0499999998,"ADDRESS":"武聖路６９巷７１弄２８號","OBJECTID":37679},"geometry":{"x":167136.1400000006,"y":2544921.0500000026}},{"attributes":{"ID":37680,"DIS_CODE":0,"TOWNNAME":"關廟區","LI":"關廟里","LIN":"14鄰","STREET":"大仁街","SECT":" ","MAREA":" ","LANE":" ","ALLEY":" ","HOUSE_NO":"３４７號","E_COORD97":180835.26999999999,"N_COORD97":2539719.25,"ADDRESS":"大仁街３４７號","OBJECTID":37680},"geometry":{"x":180835.27000000048,"y":2539719.25}},{"attributes":{"ID":37681,"DIS_CODE":0,"TOWNNAME":"關廟區","LI":"松腳里","LIN":"14鄰","STREET":"松安街","SECT":" ","MAREA":" ","LANE":" ","ALLEY":" ","HOUSE_NO":"８８號","E_COORD97":181949.51999999999,"N_COORD97":2539626.3199999998,"ADDRESS":"松安街８８號","OBJECTID":37681},"geometry":{"x":181949.52000000048,"y":2539626.3200000022}},{"attributes":{"ID":37682,"DIS_CODE":0,"TOWNNAME":"關廟區","LI":"關廟里","LIN":"14鄰","STREET":"民生街","SECT":" ","MAREA":" ","LANE":" ","ALLEY":" ","HOUSE_NO":"１１１號","E_COORD97":180852.89000000001,"N_COORD97":2539750.29,"ADDRESS":"民生街１１１號","OBJECTID":37682},"geometry":{"x":180852.88999999873,"y":2539750.290000001}},{"attributes":{"ID":37683,"DIS_CODE":0,"TOWNNAME":"下營區","LI":"茅港里","LIN":"7鄰","STREET":" ","SECT":" ","MAREA":"茅港尾","LANE":" ","ALLEY":" ","HOUSE_NO":"２２９號","E_COORD97":176484.5,"N_COORD97":2567451.3100000001,"ADDRESS":"茅港尾２２９號","OBJECTID":37683},"geometry":{"x":176484.50000000093,"y":2567451.3100000024}},{"attributes":{"ID":37684,"DIS_CODE":0,"TOWNNAME":"下營區","LI":"茅港里","LIN":"7鄰","STREET":" ","SECT":" ","MAREA":"茅港尾","LANE":" ","ALLEY":" ","HOUSE_NO":"２３５號之１１","E_COORD97":176587.70999999999,"N_COORD97":2567089.9500000002,"ADDRESS":"茅港尾２３５號之１１","OBJECTID":37684},"geometry":{"x":176587.71000000183,"y":2567089.9500000011}},{"attributes":{"ID":37685,"DIS_CODE":0,"TOWNNAME":"關廟區","LI":"關廟里","LIN":"14鄰","STREET":"大仁街","SECT":" ","MAREA":" ","LANE":" ","ALLEY":" ","HOUSE_NO":"３２６號","E_COORD97":180798.87,"N_COORD97":2539673.25,"ADDRESS":"大仁街３２６號","OBJECTID":37685},"geometry":{"x":180798.87000000011,"y":2539673.2500000019}},{"attributes":{"ID":37686,"DIS_CODE":0,"TOWNNAME":"下營區","LI":"茅港里","LIN":"7鄰","STREET":" ","SECT":" ","MAREA":"茅港尾","LANE":" ","ALLEY":" ","HOUSE_NO":"２３５之１２號","E_COORD97":176639.60000000001,"N_COORD97":2567103.04,"ADDRESS":"茅港尾２３５之１２號","OBJECTID":37686},"geometry":{"x":176639.60000000056,"y":2567103.0399999991}},{"attributes":{"ID":37687,"DIS_CODE":0,"TOWNNAME":"下營區","LI":"茅港里","LIN":"7鄰","STREET":" ","SECT":" ","MAREA":"茅港尾","LANE":" ","ALLEY":" ","HOUSE_NO":"２３５號","E_COORD97":176516.69,"N_COORD97":2567348.5800000001,"ADDRESS":"茅港尾２３５號","OBJECTID":37687},"geometry":{"x":176516.69000000041,"y":2567348.5800000001}},{"attributes":{"ID":37688,"DIS_CODE":0,"TOWNNAME":"下營區","LI":"茅港里","LIN":"7鄰","STREET":" ","SECT":" ","MAREA":"茅港尾","LANE":" ","ALLEY":" ","HOUSE_NO":"２３６號","E_COORD97":176520,"N_COORD97":2567320.1299999999,"ADDRESS":"茅港尾２３６號","OBJECTID":37688},"geometry":{"x":176520.00000000093,"y":2567320.129999999}},{"attributes":{"ID":37689,"DIS_CODE":0,"TOWNNAME":"關廟區","LI":"松腳里","LIN":"14鄰","STREET":"四維街","SECT":" ","MAREA":" ","LANE":" ","ALLEY":" ","HOUSE_NO":"１１２號","E_COORD97":181891.56,"N_COORD97":2539669.25,"ADDRESS":"四維街１１２號","OBJECTID":37689},"geometry":{"x":181891.56000000052,"y":2539669.2500000037}},{"attributes":{"ID":37690,"DIS_CODE":0,"TOWNNAME":"關廟區","LI":"關廟里","LIN":"14鄰","STREET":"民生街","SECT":" ","MAREA":" ","LANE":" ","ALLEY":" ","HOUSE_NO":"１０５號","E_COORD97":180850.19,"N_COORD97":2539737.29,"ADDRESS":"民生街１０５號","OBJECTID":37690},"geometry":{"x":180850.19000000227,"y":2539737.290000001}},{"attributes":{"ID":37691,"DIS_CODE":0,"TOWNNAME":"中西區","LI":"光賢里","LIN":"7鄰","STREET":"武聖路","SECT":" ","MAREA":" ","LANE":"６９巷","ALLEY":"７１弄","HOUSE_NO":"２號","E_COORD97":167087.45000000001,"N_COORD97":2544947.5099999998,"ADDRESS":"武聖路６９巷７１弄２號","OBJECTID":37691},"geometry":{"x":167087.45000000019,"y":2544947.5100000016}},{"attributes":{"ID":37692,"DIS_CODE":0,"TOWNNAME":"中西區","LI":"光賢里","LIN":"7鄰","STREET":"武聖路","SECT":" ","MAREA":" ","LANE":"６９巷","ALLEY":"７１弄","HOUSE_NO":"３０號","E_COORD97":166614.01999999999,"N_COORD97":2545213.3500000001,"ADDRESS":"武聖路６９巷７１弄３０號","OBJECTID":37692},"geometry":{"x":166614.01999999862,"y":2545213.3499999996}},{"attributes":{"ID":37693,"DIS_CODE":0,"TOWNNAME":"中西區","LI":"光賢里","LIN":"7鄰","STREET":"武聖路","SECT":" ","MAREA":" ","LANE":"６９巷","ALLEY":"７１弄","HOUSE_NO":"３２號","E_COORD97":167143.54000000001,"N_COORD97":2544916.6099999999,"ADDRESS":"武聖路６９巷７１弄３２號","OBJECTID":37693},"geometry":{"x":167143.5400000019,"y":2544916.6099999994}},{"attributes":{"ID":37694,"DIS_CODE":0,"TOWNNAME":"中西區","LI":"光賢里","LIN":"7鄰","STREET":"武聖路","SECT":" ","MAREA":" ","LANE":"６９巷","ALLEY":"７１弄","HOUSE_NO":"３４號","E_COORD97":167147.35000000001,"N_COORD97":2544914.7000000002,"ADDRESS":"武聖路６９巷７１弄３４號","OBJECTID":37694},"geometry":{"x":167147.34999999963,"y":2544914.7000000011}},{"attributes":{"ID":37695,"DIS_CODE":0,"TOWNNAME":"中西區","LI":"光賢里","LIN":"7鄰","STREET":"武聖路","SECT":" ","MAREA":" ","LANE":"６９巷","ALLEY":"７１弄","HOUSE_NO":"３６號","E_COORD97":167151.79999999999,"N_COORD97":2544912.5800000001,"ADDRESS":"武聖路６９巷７１弄３６號","OBJECTID":37695},"geometry":{"x":167151.80000000075,"y":2544912.5800000019}},{"attributes":{"ID":37696,"DIS_CODE":0,"TOWNNAME":"中西區","LI":"光賢里","LIN":"7鄰","STREET":"武聖路","SECT":" ","MAREA":" ","LANE":"６９巷","ALLEY":"７１弄","HOUSE_NO":"４號","E_COORD97":167091.26000000001,"N_COORD97":2544945.6099999999,"ADDRESS":"武聖路６９巷７１弄４號","OBJECTID":37696},"geometry":{"x":167091.26000000071,"y":2544945.6100000013}},{"attributes":{"ID":37697,"DIS_CODE":0,"TOWNNAME":"中西區","LI":"光賢里","LIN":"7鄰","STREET":"武聖路","SECT":" ","MAREA":" ","LANE":"６９巷","ALLEY":"７１弄","HOUSE_NO":"６號","E_COORD97":167095.5,"N_COORD97":2544943.7000000002,"ADDRESS":"武聖路６９巷７１弄６號","OBJECTID":37697},"geometry":{"x":167095.5,"y":2544943.6999999993}},{"attributes":{"ID":37698,"DIS_CODE":0,"TOWNNAME":"中西區","LI":"光賢里","LIN":"7鄰","STREET":"武聖路","SECT":" ","MAREA":" ","LANE":"６９巷","ALLEY":"７１弄","HOUSE_NO":"８號","E_COORD97":167098.88,"N_COORD97":2544941.5800000001,"ADDRESS":"武聖路６９巷７１弄８號","OBJECTID":37698},"geometry":{"x":167098.88000000082,"y":2544941.5800000001}},{"attributes":{"ID":37699,"DIS_CODE":0,"TOWNNAME":"中西區","LI":"光賢里","LIN":"7鄰","STREET":"武聖路","SECT":" ","MAREA":" ","LANE":"６９巷","ALLEY":"８５弄","HOUSE_NO":"１１號","E_COORD97":167096.23000000001,"N_COORD97":2544919.1299999999,"ADDRESS":"武聖路６９巷８５弄１１號","OBJECTID":37699},"geometry":{"x":167096.23000000045,"y":2544919.129999999}},{"attributes":{"ID":37700,"DIS_CODE":0,"TOWNNAME":"北區","LI":"公園里","LIN":"14鄰","STREET":"公園南路","SECT":" ","MAREA":" ","LANE":" ","ALLEY":" ","HOUSE_NO":"８３號","E_COORD97":169081.60000000001,"N_COORD97":2544550.9399999999,"ADDRESS":"公園南路８３號","OBJECTID":37700},"geometry":{"x":169081.59999999963,"y":2544550.9400000013}},{"attributes":{"ID":37701,"DIS_CODE":0,"TOWNNAME":"北區","LI":"公園里","LIN":"14鄰","STREET":"公園南路","SECT":" ","MAREA":" ","LANE":" ","ALLEY":" ","HOUSE_NO":"８５號","E_COORD97":169076.34,"N_COORD97":2544552.73,"ADDRESS":"公園南路８５號","OBJECTID":37701},"geometry":{"x":169076.33999999985,"y":2544552.7300000023}},{"attributes":{"ID":37702,"DIS_CODE":0,"TOWNNAME":"南化區","LI":"西埔里","LIN":"14鄰","STREET":" ","SECT":" ","MAREA":"西埔","LANE":" ","ALLEY":" ","HOUSE_NO":"１７２號","E_COORD97":192909.98999999999,"N_COORD97":2549228.75,"ADDRESS":"西埔１７２號","OBJECTID":37702},"geometry":{"x":192909.99000000022,"y":2549228.75}},{"attributes":{"ID":37703,"DIS_CODE":0,"TOWNNAME":"南化區","LI":"西埔里","LIN":"14鄰","STREET":" ","SECT":" ","MAREA":"西埔","LANE":" ","ALLEY":" ","HOUSE_NO":"１７３號之３","E_COORD97":193033.51999999999,"N_COORD97":2549209.7999999998,"ADDRESS":"西埔１７３號之３","OBJECTID":37703},"geometry":{"x":193033.51999999955,"y":2549209.8000000007}},{"attributes":{"ID":37704,"DIS_CODE":0,"TOWNNAME":"南化區","LI":"西埔里","LIN":"14鄰","STREET":" ","SECT":" ","MAREA":"西埔","LANE":" ","ALLEY":" ","HOUSE_NO":"１７３之６號","E_COORD97":192951.09,"N_COORD97":2549233.7999999998,"ADDRESS":"西埔１７３之６號","OBJECTID":37704},"geometry":{"x":192951.09000000078,"y":2549233.7999999989}},{"attributes":{"ID":37705,"DIS_CODE":0,"TOWNNAME":"南化區","LI":"西埔里","LIN":"14鄰","STREET":" ","SECT":" ","MAREA":"西埔","LANE":" ","ALLEY":" ","HOUSE_NO":"１７３之７號","E_COORD97":192944.39000000001,"N_COORD97":2549231.7999999998,"ADDRESS":"西埔１７３之７號","OBJECTID":37705},"geometry":{"x":192944.38999999966,"y":2549231.8000000026}},{"attributes":{"ID":37706,"DIS_CODE":0,"TOWNNAME":"南化區","LI":"南化里","LIN":"14鄰","STREET":" ","SECT":" ","MAREA":"南化","LANE":" ","ALLEY":" ","HOUSE_NO":"２９３號之４","E_COORD97":198631.89999999999,"N_COORD97":2548354.7999999998,"ADDRESS":"南化２９３號之４","OBJECTID":37706},"geometry":{"x":198631.9000000013,"y":2548354.8000000007}},{"attributes":{"ID":37707,"DIS_CODE":0,"TOWNNAME":"南化區","LI":"南化里","LIN":"14鄰","STREET":" ","SECT":" ","MAREA":"南化","LANE":" ","ALLEY":" ","HOUSE_NO":"２９３號","E_COORD97":198675.04000000001,"N_COORD97":2548314.75,"ADDRESS":"南化２９３號","OBJECTID":37707},"geometry":{"x":198675.04000000004,"y":2548314.7500000037}},{"attributes":{"ID":37708,"DIS_CODE":0,"TOWNNAME":"北區","LI":"公園里","LIN":"14鄰","STREET":"公園南路","SECT":" ","MAREA":" ","LANE":" ","ALLEY":" ","HOUSE_NO":"８９號","E_COORD97":169067.17999999999,"N_COORD97":2544555.75,"ADDRESS":"公園南路８９號","OBJECTID":37708},"geometry":{"x":169067.1799999997,"y":2544555.7500000019}},{"attributes":{"ID":37709,"DIS_CODE":0,"TOWNNAME":"北區","LI":"公園里","LIN":"14鄰","STREET":"公園南路","SECT":" ","MAREA":" ","LANE":" ","ALLEY":" ","HOUSE_NO":"９１號","E_COORD97":169062.70000000001,"N_COORD97":2544557.0899999999,"ADDRESS":"公園南路９１號","OBJECTID":37709},"geometry":{"x":169062.70000000019,"y":2544557.0900000017}},{"attributes":{"ID":37710,"DIS_CODE":0,"TOWNNAME":"北區","LI":"公園里","LIN":"14鄰","STREET":"公園南路","SECT":" ","MAREA":" ","LANE":" ","ALLEY":" ","HOUSE_NO":"９３號","E_COORD97":169057.42999999999,"N_COORD97":2544558.23,"ADDRESS":"公園南路９３號","OBJECTID":37710},"geometry":{"x":169057.4299999997,"y":2544558.2300000004}},{"attributes":{"ID":37711,"DIS_CODE":0,"TOWNNAME":"新營區","LI":"五興里","LIN":"14鄰","STREET":" ","SECT":" ","MAREA":"五間厝","LANE":" ","ALLEY":" ","HOUSE_NO":"１５０號","E_COORD97":175404.69,"N_COORD97":2574370.1899999999,"ADDRESS":"五間厝１５０號","OBJECTID":37711},"geometry":{"x":175404.69000000041,"y":2574370.1900000013}},{"attributes":{"ID":37712,"DIS_CODE":0,"TOWNNAME":"新營區","LI":"太北里","LIN":"14鄰","STREET":" ","SECT":" ","MAREA":"太子宮","LANE":" ","ALLEY":" ","HOUSE_NO":"１１８號","E_COORD97":175961.04000000001,"N_COORD97":2576984.3300000001,"ADDRESS":"太子宮１１８號","OBJECTID":37712},"geometry":{"x":175961.04000000004,"y":2576984.3300000019}},{"attributes":{"ID":37713,"DIS_CODE":0,"TOWNNAME":"中西區","LI":"光賢里","LIN":"7鄰","STREET":"武聖路","SECT":" ","MAREA":" ","LANE":"６９巷","ALLEY":"８５弄","HOUSE_NO":"１３號","E_COORD97":167100.14000000001,"N_COORD97":2544916.5299999998,"ADDRESS":"武聖路６９巷８５弄１３號","OBJECTID":37713},"geometry":{"x":167100.1400000006,"y":2544916.5300000012}},{"attributes":{"ID":37714,"DIS_CODE":0,"TOWNNAME":"新營區","LI":"太北里","LIN":"14鄰","STREET":" ","SECT":" ","MAREA":"太子宮","LANE":" ","ALLEY":" ","HOUSE_NO":"１１７號","E_COORD97":175944.56,"N_COORD97":2576961.1600000001,"ADDRESS":"太子宮１１７號","OBJECTID":37714},"geometry":{"x":175944.56000000052,"y":2576961.160000002}},{"attributes":{"ID":37715,"DIS_CODE":0,"TOWNNAME":"新營區","LI":"太北里","LIN":"14鄰","STREET":" ","SECT":" ","MAREA":"太子宮","LANE":" ","ALLEY":" ","HOUSE_NO":"１１５號","E_COORD97":175945.51999999999,"N_COORD97":2576948.96,"ADDRESS":"太子宮１１５號","OBJECTID":37715},"geometry":{"x":175945.51999999955,"y":2576948.9600000009}},{"attributes":{"ID":37716,"DIS_CODE":0,"TOWNNAME":"新營區","LI":"五興里","LIN":"14鄰","STREET":" ","SECT":" ","MAREA":"五間厝","LANE":" ","ALLEY":" ","HOUSE_NO":"１５６號","E_COORD97":175333.67000000001,"N_COORD97":2574285.2799999998,"ADDRESS":"五間厝１５６號","OBJECTID":37716},"geometry":{"x":175333.67000000179,"y":2574285.2800000012}},{"attributes":{"ID":37717,"DIS_CODE":0,"TOWNNAME":"新營區","LI":"五興里","LIN":"14鄰","STREET":" ","SECT":" ","MAREA":"五間厝","LANE":" ","ALLEY":" ","HOUSE_NO":"１５８號","E_COORD97":175382.22,"N_COORD97":2574174.29,"ADDRESS":"五間厝１５８號","OBJECTID":37717},"geometry":{"x":175382.2200000016,"y":2574174.2899999991}},{"attributes":{"ID":37718,"DIS_CODE":0,"TOWNNAME":"新營區","LI":"鐵線里","LIN":"14鄰","STREET":" ","SECT":" ","MAREA":"秀才","LANE":" ","ALLEY":" ","HOUSE_NO":"１４號","E_COORD97":174773.73000000001,"N_COORD97":2573872.8100000001,"ADDRESS":"秀才１４號","OBJECTID":37718},"geometry":{"x":174773.73000000045,"y":2573872.8100000024}},{"attributes":{"ID":37719,"DIS_CODE":0,"TOWNNAME":"新營區","LI":"五興里","LIN":"14鄰","STREET":" ","SECT":" ","MAREA":"五間厝","LANE":" ","ALLEY":" ","HOUSE_NO":"１４４號之３","E_COORD97":175385.66,"N_COORD97":2574211.98,"ADDRESS":"五間厝１４４號之３","OBJECTID":37719},"geometry":{"x":175385.66000000015,"y":2574211.9800000004}},{"attributes":{"ID":37720,"DIS_CODE":0,"TOWNNAME":"新營區","LI":"五興里","LIN":"14鄰","STREET":" ","SECT":" ","MAREA":"五間厝","LANE":" ","ALLEY":" ","HOUSE_NO":"１５５號","E_COORD97":175347.07000000001,"N_COORD97":2574306.25,"ADDRESS":"五間厝１５５號","OBJECTID":37720},"geometry":{"x":175347.07000000123,"y":2574306.2500000019}},{"attributes":{"ID":37721,"DIS_CODE":0,"TOWNNAME":"中西區","LI":"光賢里","LIN":"7鄰","STREET":"武聖路","SECT":" ","MAREA":" ","LANE":"６９巷","ALLEY":"８５弄","HOUSE_NO":"１５號","E_COORD97":167103.72,"N_COORD97":2544914.8999999999,"ADDRESS":"武聖路６９巷８５弄１５號","OBJECTID":37721},"geometry":{"x":167103.72000000067,"y":2544914.9000000022}},{"attributes":{"ID":37722,"DIS_CODE":0,"TOWNNAME":"下營區","LI":"茅港里","LIN":"7鄰","STREET":" ","SECT":" ","MAREA":"茅港尾","LANE":" ","ALLEY":" ","HOUSE_NO":"２４１號","E_COORD97":176523.84,"N_COORD97":2566923.3300000001,"ADDRESS":"茅港尾２４１號","OBJECTID":37722},"geometry":{"x":176523.83999999985,"y":2566923.3300000001}},{"attributes":{"ID":37723,"DIS_CODE":0,"TOWNNAME":"下營區","LI":"茅港里","LIN":"7鄰","STREET":" ","SECT":" ","MAREA":"茅港尾","LANE":" ","ALLEY":" ","HOUSE_NO":"２４５之６號","E_COORD97":176989.88,"N_COORD97":2567154.7400000002,"ADDRESS":"茅港尾２４５之６號","OBJECTID":37723},"geometry":{"x":176989.87999999896,"y":2567154.7400000002}},{"attributes":{"ID":37724,"DIS_CODE":0,"TOWNNAME":"下營區","LI":"茅港里","LIN":"7鄰","STREET":" ","SECT":" ","MAREA":"茅港尾","LANE":" ","ALLEY":" ","HOUSE_NO":"２４５號","E_COORD97":176688.41,"N_COORD97":2567128.6499999999,"ADDRESS":"茅港尾２４５號","OBJECTID":37724},"geometry":{"x":176688.41000000201,"y":2567128.6500000004}},{"attributes":{"ID":37725,"DIS_CODE":0,"TOWNNAME":"下營區","LI":"茅港里","LIN":"7鄰","STREET":" ","SECT":" ","MAREA":"茅港尾","LANE":" ","ALLEY":" ","HOUSE_NO":"２５０號","E_COORD97":177050.29999999999,"N_COORD97":2566976.27,"ADDRESS":"茅港尾２５０號","OBJECTID":37725},"geometry":{"x":177050.30000000075,"y":2566976.2700000014}},{"attributes":{"ID":37726,"DIS_CODE":0,"TOWNNAME":"中西區","LI":"光賢里","LIN":"7鄰","STREET":"武聖路","SECT":" ","MAREA":" ","LANE":"６９巷","ALLEY":"８５弄","HOUSE_NO":"１７號","E_COORD97":167107.35000000001,"N_COORD97":2544912.7999999998,"ADDRESS":"武聖路６９巷８５弄１７號","OBJECTID":37726},"geometry":{"x":167107.35000000056,"y":2544912.8000000026}},{"attributes":{"ID":37727,"DIS_CODE":0,"TOWNNAME":"中西區","LI":"光賢里","LIN":"7鄰","STREET":"武聖路","SECT":" ","MAREA":" ","LANE":"６９巷","ALLEY":"８５弄","HOUSE_NO":"１９號","E_COORD97":167110.89000000001,"N_COORD97":2544910.6699999999,"ADDRESS":"武聖路６９巷８５弄１９號","OBJECTID":37727},"geometry":{"x":167110.8900000006,"y":2544910.6699999999}},{"attributes":{"ID":37728,"DIS_CODE":0,"TOWNNAME":"將軍區","LI":"北埔里","LIN":"7鄰","STREET":" ","SECT":" ","MAREA":"北埔","LANE":" ","ALLEY":" ","HOUSE_NO":"６１號","E_COORD97":163119.63,"N_COORD97":2569279.6899999999,"ADDRESS":"北埔６１號","OBJECTID":37728},"geometry":{"x":163119.62999999989,"y":2569279.6899999995}},{"attributes":{"ID":37729,"DIS_CODE":0,"TOWNNAME":"中西區","LI":"光賢里","LIN":"7鄰","STREET":"武聖路","SECT":" ","MAREA":" ","LANE":"６９巷","ALLEY":"８５弄","HOUSE_NO":"１號","E_COORD97":167074.32999999999,"N_COORD97":2544931.4199999999,"ADDRESS":"武聖路６９巷８５弄１號","OBJECTID":37729},"geometry":{"x":167074.33000000101,"y":2544931.4200000018}},{"attributes":{"ID":37730,"DIS_CODE":0,"TOWNNAME":"中西區","LI":"光賢里","LIN":"7鄰","STREET":"武聖路","SECT":" ","MAREA":" ","LANE":"６９巷","ALLEY":"８５弄","HOUSE_NO":"２１號","E_COORD97":167115.13,"N_COORD97":2544908.7200000002,"ADDRESS":"武聖路６９巷８５弄２１號","OBJECTID":37730},"geometry":{"x":167115.12999999989,"y":2544908.7200000025}},{"attributes":{"ID":37731,"DIS_CODE":0,"TOWNNAME":"中西區","LI":"光賢里","LIN":"7鄰","STREET":"武聖路","SECT":" ","MAREA":" ","LANE":"６９巷","ALLEY":"８５弄","HOUSE_NO":"２３號","E_COORD97":167118.38,"N_COORD97":2544907.0899999999,"ADDRESS":"武聖路６９巷８５弄２３號","OBJECTID":37731},"geometry":{"x":167118.37999999989,"y":2544907.0899999999}},{"attributes":{"ID":37732,"DIS_CODE":0,"TOWNNAME":"新營區","LI":"王公里","LIN":"14鄰","STREET":"中正路","SECT":" ","MAREA":" ","LANE":" ","ALLEY":" ","HOUSE_NO":"１０６號","E_COORD97":180107.17999999999,"N_COORD97":2579378.4399999999,"ADDRESS":"中正路１０６號","OBJECTID":37732},"geometry":{"x":180107.18000000063,"y":2579378.4399999995}},{"attributes":{"ID":37733,"DIS_CODE":0,"TOWNNAME":"將軍區","LI":"北埔里","LIN":"7鄰","STREET":" ","SECT":" ","MAREA":"北埔","LANE":" ","ALLEY":" ","HOUSE_NO":"６４號","E_COORD97":163116.97,"N_COORD97":2569319.9500000002,"ADDRESS":"北埔６４號","OBJECTID":37733},"geometry":{"x":163116.96999999974,"y":2569319.9500000011}},{"attributes":{"ID":37734,"DIS_CODE":0,"TOWNNAME":"將軍區","LI":"北埔里","LIN":"7鄰","STREET":" ","SECT":" ","MAREA":"北埔","LANE":" ","ALLEY":" ","HOUSE_NO":"６５號","E_COORD97":163112.67999999999,"N_COORD97":2569341.8300000001,"ADDRESS":"北埔６５號","OBJECTID":37734},"geometry":{"x":163112.68000000156,"y":2569341.8300000019}},{"attributes":{"ID":37735,"DIS_CODE":0,"TOWNNAME":"新營區","LI":"嘉芳里","LIN":"14鄰","STREET":"新工路","SECT":" ","MAREA":" ","LANE":" ","ALLEY":" ","HOUSE_NO":"１４之２號","E_COORD97":176548.67999999999,"N_COORD97":2578475.4199999999,"ADDRESS":"新工路１４之２號","OBJECTID":37735},"geometry":{"x":176548.68000000156,"y":2578475.4200000018}},{"attributes":{"ID":37736,"DIS_CODE":0,"TOWNNAME":"新營區","LI":"嘉芳里","LIN":"14鄰","STREET":"新工路","SECT":" ","MAREA":" ","LANE":" ","ALLEY":" ","HOUSE_NO":"１２號","E_COORD97":176553.70999999999,"N_COORD97":2578549.54,"ADDRESS":"新工路１２號","OBJECTID":37736},"geometry":{"x":176553.70999999996,"y":2578549.5399999991}},{"attributes":{"ID":37737,"DIS_CODE":0,"TOWNNAME":"新營區","LI":"五興里","LIN":"14鄰","STREET":" ","SECT":" ","MAREA":"五間厝","LANE":" ","ALLEY":" ","HOUSE_NO":"１５１號","E_COORD97":175411.95000000001,"N_COORD97":2574388.9900000002,"ADDRESS":"五間厝１５１號","OBJECTID":37737},"geometry":{"x":175411.95000000112,"y":2574388.9900000039}},{"attributes":{"ID":37738,"DIS_CODE":0,"TOWNNAME":"新化區","LI":"全興里","LIN":"14鄰","STREET":" ","SECT":" ","MAREA":"竹子\u25A0","LANE":" ","ALLEY":" ","HOUSE_NO":"２４７號之３７７","E_COORD97":178184.38,"N_COORD97":2546707.2599999998,"ADDRESS":"竹子\u25A0２４７號之３７７","OBJECTID":37738},"geometry":{"x":178184.37999999989,"y":2546707.2599999979}},{"attributes":{"ID":37739,"DIS_CODE":0,"TOWNNAME":"將軍區","LI":"北埔里","LIN":"7鄰","STREET":" ","SECT":" ","MAREA":"北埔","LANE":" ","ALLEY":" ","HOUSE_NO":"６６號","E_COORD97":163110.81,"N_COORD97":2569365.71,"ADDRESS":"北埔６６號","OBJECTID":37739},"geometry":{"x":163110.80999999959,"y":2569365.7100000009}},{"attributes":{"ID":37740,"DIS_CODE":0,"TOWNNAME":"將軍區","LI":"嘉昌里","LIN":"7鄰","STREET":" ","SECT":" ","MAREA":"北嘉","LANE":" ","ALLEY":" ","HOUSE_NO":"５３之１號","E_COORD97":163424.79000000001,"N_COORD97":2567850.7999999998,"ADDRESS":"北嘉５３之１號","OBJECTID":37740},"geometry":{"x":163424.79000000097,"y":2567850.8000000045}},{"attributes":{"ID":37741,"DIS_CODE":0,"TOWNNAME":"將軍區","LI":"嘉昌里","LIN":"7鄰","STREET":" ","SECT":" ","MAREA":"北嘉","LANE":" ","ALLEY":" ","HOUSE_NO":"５３之２號","E_COORD97":163428.13,"N_COORD97":2567875.4700000002,"ADDRESS":"北嘉５３之２號","OBJECTID":37741},"geometry":{"x":163428.12999999989,"y":2567875.4700000007}},{"attributes":{"ID":37742,"DIS_CODE":0,"TOWNNAME":"中西區","LI":"光賢里","LIN":"7鄰","STREET":"武聖路","SECT":" ","MAREA":" ","LANE":"６９巷","ALLEY":"８５弄","HOUSE_NO":"２５號","E_COORD97":167122.29000000001,"N_COORD97":2544904.8100000001,"ADDRESS":"武聖路６９巷８５弄２５號","OBJECTID":37742},"geometry":{"x":167122.29000000004,"y":2544904.8100000024}},{"attributes":{"ID":37743,"DIS_CODE":0,"TOWNNAME":"中西區","LI":"光賢里","LIN":"7鄰","STREET":"武聖路","SECT":" ","MAREA":" ","LANE":"６９巷","ALLEY":"８５弄","HOUSE_NO":"２７號","E_COORD97":167125.88,"N_COORD97":2544902.5299999998,"ADDRESS":"武聖路６９巷８５弄２７號","OBJECTID":37743},"geometry":{"x":167125.88000000082,"y":2544902.5300000012}},{"attributes":{"ID":37744,"DIS_CODE":0,"TOWNNAME":"中西區","LI":"光賢里","LIN":"7鄰","STREET":"武聖路","SECT":" ","MAREA":" ","LANE":"６９巷","ALLEY":"８５弄","HOUSE_NO":"２９號","E_COORD97":167129.35999999999,"N_COORD97":2544900.52,"ADDRESS":"武聖路６９巷８５弄２９號","OBJECTID":37744},"geometry":{"x":167129.36000000034,"y":2544900.5199999996}},{"attributes":{"ID":37745,"DIS_CODE":0,"TOWNNAME":"中西區","LI":"光賢里","LIN":"7鄰","STREET":"武聖路","SECT":" ","MAREA":" ","LANE":"６９巷","ALLEY":"８５弄","HOUSE_NO":"３１號","E_COORD97":167133.17000000001,"N_COORD97":2544898.8300000001,"ADDRESS":"武聖路６９巷８５弄３１號","OBJECTID":37745},"geometry":{"x":167133.16999999993,"y":2544898.8300000001}},{"attributes":{"ID":37746,"DIS_CODE":0,"TOWNNAME":"歸仁區","LI":"辜厝里","LIN":"4鄰","STREET":"民族南街","SECT":" ","MAREA":" ","LANE":"１８巷","ALLEY":"２７弄","HOUSE_NO":"１３號","E_COORD97":177361.61124999999,"N_COORD97":2540712.0094699999,"ADDRESS":"民族南街１８巷２７弄１３號","OBJECTID":37746},"geometry":{"x":177361.61125000007,"y":2540712.0094690006}},{"attributes":{"ID":37747,"DIS_CODE":0,"TOWNNAME":"中西區","LI":"光賢里","LIN":"7鄰","STREET":"武聖路","SECT":" ","MAREA":" ","LANE":"６９巷","ALLEY":"８５弄","HOUSE_NO":"３３號","E_COORD97":167136.63,"N_COORD97":2544897,"ADDRESS":"武聖路６９巷８５弄３３號","OBJECTID":37747},"geometry":{"x":167136.63000000082,"y":2544897.0000000019}},{"attributes":{"ID":37748,"DIS_CODE":0,"TOWNNAME":"中西區","LI":"光賢里","LIN":"7鄰","STREET":"武聖路","SECT":" ","MAREA":" ","LANE":"６９巷","ALLEY":"８５弄","HOUSE_NO":"３５號","E_COORD97":167139.51999999999,"N_COORD97":2544895.6499999999,"ADDRESS":"武聖路６９巷８５弄３５號","OBJECTID":37748},"geometry":{"x":167139.51999999862,"y":2544895.6500000022}},{"attributes":{"ID":37749,"DIS_CODE":0,"TOWNNAME":"中西區","LI":"光賢里","LIN":"7鄰","STREET":"武聖路","SECT":" ","MAREA":" ","LANE":"６９巷","ALLEY":"８５弄","HOUSE_NO":"３號","E_COORD97":167081.10000000001,"N_COORD97":2544927.3999999999,"ADDRESS":"武聖路６９巷８５弄３號","OBJECTID":37749},"geometry":{"x":167081.09999999963,"y":2544927.4000000041}},{"attributes":{"ID":37750,"DIS_CODE":0,"TOWNNAME":"中西區","LI":"光賢里","LIN":"7鄰","STREET":"武聖路","SECT":" ","MAREA":" ","LANE":"６９巷","ALLEY":"８５弄","HOUSE_NO":"５號","E_COORD97":167085.12,"N_COORD97":2544925.29,"ADDRESS":"武聖路６９巷８５弄５號","OBJECTID":37750},"geometry":{"x":167085.12000000011,"y":2544925.2899999991}},{"attributes":{"ID":37751,"DIS_CODE":0,"TOWNNAME":"中西區","LI":"光賢里","LIN":"7鄰","STREET":"武聖路","SECT":" ","MAREA":" ","LANE":"６９巷","ALLEY":"８５弄","HOUSE_NO":"７號","E_COORD97":167088.73999999999,"N_COORD97":2544923.0299999998,"ADDRESS":"武聖路６９巷８５弄７號","OBJECTID":37751},"geometry":{"x":167088.74000000115,"y":2544923.0300000012}},{"attributes":{"ID":37752,"DIS_CODE":0,"TOWNNAME":"中西區","LI":"光賢里","LIN":"7鄰","STREET":"武聖路","SECT":" ","MAREA":" ","LANE":"６９巷","ALLEY":"８５弄","HOUSE_NO":"９號","E_COORD97":167092.64000000001,"N_COORD97":2544921.0800000001,"ADDRESS":"武聖路６９巷８５弄９號","OBJECTID":37752},"geometry":{"x":167092.63999999966,"y":2544921.0800000001}},{"attributes":{"ID":37753,"DIS_CODE":0,"TOWNNAME":"永康區","LI":"中興里","LIN":"7鄰","STREET":"中山東路","SECT":" ","MAREA":" ","LANE":" ","ALLEY":" ","HOUSE_NO":"４３６號","E_COORD97":171933.67000000001,"N_COORD97":2545117.9900000002,"ADDRESS":"中山東路４３６號","OBJECTID":37753},"geometry":{"x":171933.67000000086,"y":2545117.9900000002}},{"attributes":{"ID":37754,"DIS_CODE":0,"TOWNNAME":"永康區","LI":"中興里","LIN":"7鄰","STREET":"中山東路","SECT":" ","MAREA":" ","LANE":" ","ALLEY":" ","HOUSE_NO":"４４６號","E_COORD97":171936.64999999999,"N_COORD97":2545096.25,"ADDRESS":"中山東路４４６號","OBJECTID":37754},"geometry":{"x":171936.65000000037,"y":2545096.25}},{"attributes":{"ID":37755,"DIS_CODE":0,"TOWNNAME":"永康區","LI":"中興里","LIN":"7鄰","STREET":"中山東路","SECT":" ","MAREA":" ","LANE":"４７２巷","ALLEY":"２弄","HOUSE_NO":"２８號","E_COORD97":171934.45000000001,"N_COORD97":2545110.7400000002,"ADDRESS":"中山東路４７２巷２弄２８號","OBJECTID":37755},"geometry":{"x":171934.45000000019,"y":2545110.7400000002}},{"attributes":{"ID":37756,"DIS_CODE":0,"TOWNNAME":"永康區","LI":"中興里","LIN":"7鄰","STREET":"中山東路","SECT":" ","MAREA":" ","LANE":"４７２巷","ALLEY":"２弄","HOUSE_NO":"５號","E_COORD97":171924.98000000001,"N_COORD97":2545075.7000000002,"ADDRESS":"中山東路４７２巷２弄５號","OBJECTID":37756},"geometry":{"x":171924.98000000138,"y":2545075.6999999993}},{"attributes":{"ID":37757,"DIS_CODE":0,"TOWNNAME":"仁德區","LI":"田厝里","LIN":"7鄰","STREET":"中正路","SECT":"一段","MAREA":" ","LANE":"５９９巷","ALLEY":"３０弄","HOUSE_NO":"１號","E_COORD97":172822.45000000001,"N_COORD97":2537864.02,"ADDRESS":"中正路一段５９９巷３０弄１號","OBJECTID":37757},"geometry":{"x":172822.45000000019,"y":2537864.0200000014}},{"attributes":{"ID":37758,"DIS_CODE":0,"TOWNNAME":"仁德區","LI":"田厝里","LIN":"7鄰","STREET":"中正路","SECT":"一段","MAREA":" ","LANE":"５９９巷","ALLEY":"３０弄","HOUSE_NO":"１２號之１","E_COORD97":172815.31504700001,"N_COORD97":2537892.4850099999,"ADDRESS":"中正路一段５９９巷３０弄１２號之１","OBJECTID":37758},"geometry":{"x":172815.31504700147,"y":2537892.4850140009}},{"attributes":{"ID":37759,"DIS_CODE":0,"TOWNNAME":"永康區","LI":"網寮里","LIN":"7鄰","STREET":"永二街","SECT":" ","MAREA":" ","LANE":"２４４巷","ALLEY":"４弄","HOUSE_NO":"１２之１號","E_COORD97":173296.35999999999,"N_COORD97":2546332.3900000001,"ADDRESS":"永二街２４４巷４弄１２之１號","OBJECTID":37759},"geometry":{"x":173296.36000000034,"y":2546332.3900000025}},{"attributes":{"ID":37760,"DIS_CODE":0,"TOWNNAME":"善化區","LI":"南關里","LIN":"7鄰","STREET":"三民路","SECT":" ","MAREA":" ","LANE":"六合巷","ALLEY":"８弄","HOUSE_NO":"１號","E_COORD97":176997.04000000001,"N_COORD97":2558763.2599999998,"ADDRESS":"三民路六合巷８弄１號","OBJECTID":37760},"geometry":{"x":176997.04000000004,"y":2558763.2599999998}},{"attributes":{"ID":37761,"DIS_CODE":0,"TOWNNAME":"永康區","LI":"新樹里","LIN":"7鄰","STREET":"富強路","SECT":"二段","MAREA":" ","LANE":"５６巷","ALLEY":"１８弄","HOUSE_NO":"５號","E_COORD97":175778.92000000001,"N_COORD97":2546902.0099999998,"ADDRESS":"富強路二段５６巷１８弄５號","OBJECTID":37761},"geometry":{"x":175778.91999999993,"y":2546902.0099999998}},{"attributes":{"ID":37762,"DIS_CODE":0,"TOWNNAME":"永康區","LI":"網寮里","LIN":"7鄰","STREET":"永二街","SECT":" ","MAREA":" ","LANE":"２４４巷","ALLEY":"４弄","HOUSE_NO":"１２號","E_COORD97":173291.48000000001,"N_COORD97":2546333.8900000001,"ADDRESS":"永二街２４４巷４弄１２號","OBJECTID":37762},"geometry":{"x":173291.48000000138,"y":2546333.8900000006}},{"attributes":{"ID":37763,"DIS_CODE":0,"TOWNNAME":"新營區","LI":"新南里","LIN":"14鄰","STREET":"民治路","SECT":" ","MAREA":" ","LANE":"３００巷","ALLEY":" ","HOUSE_NO":"９２號","E_COORD97":178572.25,"N_COORD97":2578643.77,"ADDRESS":"民治路３００巷９２號","OBJECTID":37763},"geometry":{"x":178572.25,"y":2578643.7699999996}},{"attributes":{"ID":37764,"DIS_CODE":0,"TOWNNAME":"新營區","LI":"民權里","LIN":"14鄰","STREET":"武昌街","SECT":" ","MAREA":" ","LANE":" ","ALLEY":" ","HOUSE_NO":"３６號","E_COORD97":179819.87,"N_COORD97":2578350.9700000002,"ADDRESS":"武昌街３６號","OBJECTID":37764},"geometry":{"x":179819.87000000104,"y":2578350.9700000025}},{"attributes":{"ID":37765,"DIS_CODE":0,"TOWNNAME":"新營區","LI":"三仙里","LIN":"14鄰","STREET":"中華路","SECT":" ","MAREA":" ","LANE":" ","ALLEY":" ","HOUSE_NO":"６６號","E_COORD97":179523.42999999999,"N_COORD97":2578192.8999999999,"ADDRESS":"中華路６６號","OBJECTID":37765},"geometry":{"x":179523.4299999997,"y":2578192.9000000004}},{"attributes":{"ID":37766,"DIS_CODE":0,"TOWNNAME":"永康區","LI":"網寮里","LIN":"7鄰","STREET":"永二街","SECT":" ","MAREA":" ","LANE":"２４４巷","ALLEY":"４弄","HOUSE_NO":"１０號","E_COORD97":173286.89000000001,"N_COORD97":2546337.3900000001,"ADDRESS":"永二街２４４巷４弄１０號","OBJECTID":37766},"geometry":{"x":173286.88999999966,"y":2546337.3900000006}},{"attributes":{"ID":37767,"DIS_CODE":0,"TOWNNAME":"永康區","LI":"網寮里","LIN":"7鄰","STREET":"永二街","SECT":" ","MAREA":" ","LANE":"２４４巷","ALLEY":"４弄","HOUSE_NO":"８號","E_COORD97":173279.53,"N_COORD97":2546340.6400000001,"ADDRESS":"永二街２４４巷４弄８號","OBJECTID":37767},"geometry":{"x":173279.53000000026,"y":2546340.6400000025}},{"attributes":{"ID":37768,"DIS_CODE":0,"TOWNNAME":"永康區","LI":"網寮里","LIN":"7鄰","STREET":"永二街","SECT":" ","MAREA":" ","LANE":"２４４巷","ALLEY":"４弄","HOUSE_NO":"２４號","E_COORD97":173318.79000000001,"N_COORD97":2546318.1400000001,"ADDRESS":"永二街２４４巷４弄２４號","OBJECTID":37768},"geometry":{"x":173318.79000000004,"y":2546318.1400000006}},{"attributes":{"ID":37769,"DIS_CODE":0,"TOWNNAME":"永康區","LI":"網寮里","LIN":"7鄰","STREET":"永二街","SECT":" ","MAREA":" ","LANE":"２４４巷","ALLEY":"４弄","HOUSE_NO":"１６號","E_COORD97":173300.48000000001,"N_COORD97":2546329.6400000001,"ADDRESS":"永二街２４４巷４弄１６號","OBJECTID":37769},"geometry":{"x":173300.48000000045,"y":2546329.6400000043}},{"attributes":{"ID":37770,"DIS_CODE":0,"TOWNNAME":"將軍區","LI":"嘉昌里","LIN":"7鄰","STREET":" ","SECT":" ","MAREA":"北嘉","LANE":" ","ALLEY":" ","HOUSE_NO":"５７號","E_COORD97":163424.85000000001,"N_COORD97":2567948.8999999999,"ADDRESS":"北嘉５７號","OBJECTID":37770},"geometry":{"x":163424.84999999963,"y":2567948.9000000022}},{"attributes":{"ID":37771,"DIS_CODE":0,"TOWNNAME":"將軍區","LI":"嘉昌里","LIN":"7鄰","STREET":" ","SECT":" ","MAREA":"北嘉","LANE":" ","ALLEY":" ","HOUSE_NO":"５８號","E_COORD97":163401.89000000001,"N_COORD97":2567927.6899999999,"ADDRESS":"北嘉５８號","OBJECTID":37771},"geometry":{"x":163401.8900000006,"y":2567927.6899999995}},{"attributes":{"ID":37772,"DIS_CODE":0,"TOWNNAME":"將軍區","LI":"平沙里","LIN":"7鄰","STREET":" ","SECT":" ","MAREA":"平沙","LANE":" ","ALLEY":" ","HOUSE_NO":"５４號","E_COORD97":157287.63,"N_COORD97":2568549.54,"ADDRESS":"平沙５４號","OBJECTID":37772},"geometry":{"x":157287.63000000082,"y":2568549.540000001}},{"attributes":{"ID":37773,"DIS_CODE":0,"TOWNNAME":"將軍區","LI":"平沙里","LIN":"7鄰","STREET":" ","SECT":" ","MAREA":"平沙","LANE":" ","ALLEY":" ","HOUSE_NO":"５５之１號","E_COORD97":157270.14999999999,"N_COORD97":2568559.23,"ADDRESS":"平沙５５之１號","OBJECTID":37773},"geometry":{"x":157270.14999999944,"y":2568559.2300000042}},{"attributes":{"ID":37774,"DIS_CODE":0,"TOWNNAME":"永康區","LI":"新樹里","LIN":"7鄰","STREET":"富強路","SECT":"二段","MAREA":" ","LANE":"５６巷","ALLEY":"１８弄","HOUSE_NO":"３號","E_COORD97":175796.22,"N_COORD97":2546910.8300000001,"ADDRESS":"富強路二段５６巷１８弄３號","OBJECTID":37774},"geometry":{"x":175796.22000000067,"y":2546910.8300000038}},{"attributes":{"ID":37775,"DIS_CODE":0,"TOWNNAME":"將軍區","LI":"平沙里","LIN":"7鄰","STREET":" ","SECT":" ","MAREA":"平沙","LANE":" ","ALLEY":" ","HOUSE_NO":"５５之２號","E_COORD97":157264.39999999999,"N_COORD97":2568558.1899999999,"ADDRESS":"平沙５５之２號","OBJECTID":37775},"geometry":{"x":157264.40000000037,"y":2568558.1899999995}},{"attributes":{"ID":37776,"DIS_CODE":0,"TOWNNAME":"善化區","LI":"南關里","LIN":"7鄰","STREET":"三民路","SECT":" ","MAREA":" ","LANE":"六合巷","ALLEY":"８弄","HOUSE_NO":"５號","E_COORD97":176999.12,"N_COORD97":2558771.0099999998,"ADDRESS":"三民路六合巷８弄５號","OBJECTID":37776},"geometry":{"x":176999.12000000104,"y":2558771.0099999998}},{"attributes":{"ID":37777,"DIS_CODE":0,"TOWNNAME":"善化區","LI":"南關里","LIN":"7鄰","STREET":"三民路","SECT":" ","MAREA":" ","LANE":"六合巷","ALLEY":"９弄","HOUSE_NO":"３號","E_COORD97":176990.48000000001,"N_COORD97":2558706.7599999998,"ADDRESS":"三民路六合巷９弄３號","OBJECTID":37777},"geometry":{"x":176990.48000000138,"y":2558706.7600000016}},{"attributes":{"ID":37778,"DIS_CODE":0,"TOWNNAME":"將軍區","LI":"平沙里","LIN":"7鄰","STREET":" ","SECT":" ","MAREA":"平沙","LANE":" ","ALLEY":" ","HOUSE_NO":"５５號","E_COORD97":157276.29000000001,"N_COORD97":2568559.3500000001,"ADDRESS":"平沙５５號","OBJECTID":37778},"geometry":{"x":157276.29000000097,"y":2568559.3499999996}},{"attributes":{"ID":37779,"DIS_CODE":0,"TOWNNAME":"善化區","LI":"南關里","LIN":"7鄰","STREET":"三民路","SECT":" ","MAREA":" ","LANE":"六合巷","ALLEY":"８弄","HOUSE_NO":"７號","E_COORD97":177000.62,"N_COORD97":2558775.2599999998,"ADDRESS":"三民路六合巷８弄７號","OBJECTID":37779},"geometry":{"x":177000.62000000104,"y":2558775.2600000016}},{"attributes":{"ID":37780,"DIS_CODE":0,"TOWNNAME":"安南區","LI":"海佃里","LIN":"7鄰","STREET":"國安街","SECT":" ","MAREA":" ","LANE":"５６巷","ALLEY":"４９弄","HOUSE_NO":"１０號","E_COORD97":166923.14999999999,"N_COORD97":2547171.8900000001,"ADDRESS":"國安街５６巷４９弄１０號","OBJECTID":37780},"geometry":{"x":166923.1500000013,"y":2547171.8900000043}},{"attributes":{"ID":37781,"DIS_CODE":0,"TOWNNAME":"安南區","LI":"海佃里","LIN":"7鄰","STREET":"國安街","SECT":" ","MAREA":" ","LANE":"５６巷","ALLEY":"４９弄","HOUSE_NO":"１１號","E_COORD97":166923.14999999999,"N_COORD97":2547144.8900000001,"ADDRESS":"國安街５６巷４９弄１１號","OBJECTID":37781},"geometry":{"x":166923.1500000013,"y":2547144.8900000043}},{"attributes":{"ID":37782,"DIS_CODE":0,"TOWNNAME":"安南區","LI":"海佃里","LIN":"7鄰","STREET":"國安街","SECT":" ","MAREA":" ","LANE":"５６巷","ALLEY":"４９弄","HOUSE_NO":"１２號","E_COORD97":166917.82999999999,"N_COORD97":2547170.5699999998,"ADDRESS":"國安街５６巷４９弄１２號","OBJECTID":37782},"geometry":{"x":166917.83000000194,"y":2547170.570000004}},{"attributes":{"ID":37783,"DIS_CODE":0,"TOWNNAME":"安南區","LI":"海佃里","LIN":"7鄰","STREET":"國安街","SECT":" ","MAREA":" ","LANE":"５６巷","ALLEY":"４９弄","HOUSE_NO":"１３號","E_COORD97":166918.48999999999,"N_COORD97":2547143.5600000001,"ADDRESS":"國安街５６巷４９弄１３號","OBJECTID":37783},"geometry":{"x":166918.49000000209,"y":2547143.5600000042}},{"attributes":{"ID":37784,"DIS_CODE":0,"TOWNNAME":"安南區","LI":"海佃里","LIN":"7鄰","STREET":"國安街","SECT":" ","MAREA":" ","LANE":"５６巷","ALLEY":"４９弄","HOUSE_NO":"１４號","E_COORD97":166911.84,"N_COORD97":2547168.5699999998,"ADDRESS":"國安街５６巷４９弄１４號","OBJECTID":37784},"geometry":{"x":166911.83999999985,"y":2547168.5700000022}},{"attributes":{"ID":37785,"DIS_CODE":0,"TOWNNAME":"將軍區","LI":"平沙里","LIN":"7鄰","STREET":" ","SECT":" ","MAREA":"平沙","LANE":" ","ALLEY":" ","HOUSE_NO":"５６號","E_COORD97":157257.62,"N_COORD97":2568556.8599999999,"ADDRESS":"平沙５６號","OBJECTID":37785},"geometry":{"x":157257.62000000011,"y":2568556.8599999994}},{"attributes":{"ID":37786,"DIS_CODE":0,"TOWNNAME":"將軍區","LI":"平沙里","LIN":"7鄰","STREET":" ","SECT":" ","MAREA":"平沙","LANE":" ","ALLEY":" ","HOUSE_NO":"５７號","E_COORD97":157242.67000000001,"N_COORD97":2568552.6200000001,"ADDRESS":"平沙５７號","OBJECTID":37786},"geometry":{"x":157242.67000000086,"y":2568552.620000001}},{"attributes":{"ID":37787,"DIS_CODE":0,"TOWNNAME":"將軍區","LI":"平沙里","LIN":"7鄰","STREET":" ","SECT":" ","MAREA":"平沙","LANE":" ","ALLEY":" ","HOUSE_NO":"５８之１號","E_COORD97":157209.12,"N_COORD97":2568553.6200000001,"ADDRESS":"平沙５８之１號","OBJECTID":37787},"geometry":{"x":157209.12000000197,"y":2568553.620000001}},{"attributes":{"ID":37788,"DIS_CODE":0,"TOWNNAME":"將軍區","LI":"平沙里","LIN":"7鄰","STREET":" ","SECT":" ","MAREA":"平沙","LANE":" ","ALLEY":" ","HOUSE_NO":"５８之２號","E_COORD97":157191.84,"N_COORD97":2568552.8500000001,"ADDRESS":"平沙５８之２號","OBJECTID":37788},"geometry":{"x":157191.83999999985,"y":2568552.8499999996}},{"attributes":{"ID":37789,"DIS_CODE":0,"TOWNNAME":"將軍區","LI":"平沙里","LIN":"7鄰","STREET":" ","SECT":" ","MAREA":"平沙","LANE":" ","ALLEY":" ","HOUSE_NO":"５８之３號","E_COORD97":157185.63,"N_COORD97":2568553.98,"ADDRESS":"平沙５８之３號","OBJECTID":37789},"geometry":{"x":157185.63000000082,"y":2568553.9799999986}},{"attributes":{"ID":37790,"DIS_CODE":0,"TOWNNAME":"將軍區","LI":"平沙里","LIN":"7鄰","STREET":" ","SECT":" ","MAREA":"平沙","LANE":" ","ALLEY":" ","HOUSE_NO":"５８之４號","E_COORD97":157178.20999999999,"N_COORD97":2568554.21,"ADDRESS":"平沙５８之４號","OBJECTID":37790},"geometry":{"x":157178.21000000089,"y":2568554.2100000028}},{"attributes":{"ID":37791,"DIS_CODE":0,"TOWNNAME":"安南區","LI":"海佃里","LIN":"7鄰","STREET":"國安街","SECT":" ","MAREA":" ","LANE":"５６巷","ALLEY":"４９弄","HOUSE_NO":"１５號","E_COORD97":166912.51000000001,"N_COORD97":2547141.5699999998,"ADDRESS":"國安街５６巷４９弄１５號","OBJECTID":37791},"geometry":{"x":166912.50999999978,"y":2547141.5700000003}},{"attributes":{"ID":37792,"DIS_CODE":0,"TOWNNAME":"安南區","LI":"海佃里","LIN":"7鄰","STREET":"國安街","SECT":" ","MAREA":" ","LANE":"５６巷","ALLEY":"４９弄","HOUSE_NO":"１６號","E_COORD97":166907.19,"N_COORD97":2547169.2400000002,"ADDRESS":"國安街５６巷４９弄１６號","OBJECTID":37792},"geometry":{"x":166907.19000000227,"y":2547169.2400000039}},{"attributes":{"ID":37793,"DIS_CODE":0,"TOWNNAME":"安南區","LI":"海佃里","LIN":"7鄰","STREET":"國安街","SECT":" ","MAREA":" ","LANE":"５６巷","ALLEY":"４９弄","HOUSE_NO":"１７號","E_COORD97":166907.19,"N_COORD97":2547141.5699999998,"ADDRESS":"國安街５６巷４９弄１７號","OBJECTID":37793},"geometry":{"x":166907.19000000227,"y":2547141.5700000003}},{"attributes":{"ID":37794,"DIS_CODE":0,"TOWNNAME":"安南區","LI":"海佃里","LIN":"7鄰","STREET":"國安街","SECT":" ","MAREA":" ","LANE":"５６巷","ALLEY":"４９弄","HOUSE_NO":"１８號","E_COORD97":166901.20000000001,"N_COORD97":2547167.2400000002,"ADDRESS":"國安街５６巷４９弄１８號","OBJECTID":37794},"geometry":{"x":166901.20000000019,"y":2547167.2400000021}},{"attributes":{"ID":37795,"DIS_CODE":0,"TOWNNAME":"歸仁區","LI":"看東里","LIN":"14鄰","STREET":"中山一街","SECT":" ","MAREA":" ","LANE":" ","ALLEY":" ","HOUSE_NO":"８號","E_COORD97":178558.85999999999,"N_COORD97":2540423.9300000002,"ADDRESS":"中山一街８號","OBJECTID":37795},"geometry":{"x":178558.86000000127,"y":2540423.9300000034}},{"attributes":{"ID":37796,"DIS_CODE":0,"TOWNNAME":"歸仁區","LI":"西埔里","LIN":"14鄰","STREET":"西埔二街","SECT":" ","MAREA":" ","LANE":" ","ALLEY":" ","HOUSE_NO":"２５號","E_COORD97":176888.04000000001,"N_COORD97":2544763.25,"ADDRESS":"西埔二街２５號","OBJECTID":37796},"geometry":{"x":176888.04000000097,"y":2544763.2500000019}},{"attributes":{"ID":37797,"DIS_CODE":0,"TOWNNAME":"歸仁區","LI":"西埔里","LIN":"14鄰","STREET":"西埔二街","SECT":" ","MAREA":" ","LANE":" ","ALLEY":" ","HOUSE_NO":"３５號","E_COORD97":176863.44,"N_COORD97":2544771.25,"ADDRESS":"西埔二街３５號","OBJECTID":37797},"geometry":{"x":176863.44000000134,"y":2544771.25}},{"attributes":{"ID":37798,"DIS_CODE":0,"TOWNNAME":"歸仁區","LI":"西埔里","LIN":"14鄰","STREET":"西埔二街","SECT":" ","MAREA":" ","LANE":" ","ALLEY":" ","HOUSE_NO":"４３號","E_COORD97":176831.73999999999,"N_COORD97":2544774.25,"ADDRESS":"西埔二街４３號","OBJECTID":37798},"geometry":{"x":176831.74000000022,"y":2544774.25}},{"attributes":{"ID":37799,"DIS_CODE":0,"TOWNNAME":"歸仁區","LI":"八甲里","LIN":"14鄰","STREET":"大明三街","SECT":" ","MAREA":" ","LANE":" ","ALLEY":" ","HOUSE_NO":"２５號","E_COORD97":178070.51999999999,"N_COORD97":2541770.6099999999,"ADDRESS":"大明三街２５號","OBJECTID":37799},"geometry":{"x":178070.52000000048,"y":2541770.6099999994}},{"attributes":{"ID":37800,"DIS_CODE":0,"TOWNNAME":"安南區","LI":"海佃里","LIN":"7鄰","STREET":"國安街","SECT":" ","MAREA":" ","LANE":"５６巷","ALLEY":"４９弄","HOUSE_NO":"１９號","E_COORD97":166901.20000000001,"N_COORD97":2547139.5800000001,"ADDRESS":"國安街５６巷４９弄１９號","OBJECTID":37800},"geometry":{"x":166901.20000000019,"y":2547139.5800000038}}]}