{"displayFieldName":"TOWNNAME","fieldAliases":{"ID":"ID","DIS_CODE":"DIS_CODE","TOWNNAME":"TOWNNAME","LI":"LI","LIN":"LIN","STREET":"STREET","SECT":"SECT","MAREA":"MAREA","LANE":"LANE","ALLEY":"ALLEY","HOUSE_NO":"HOUSE_NO","E_COORD97":"E_COORD97","N_COORD97":"N_COORD97","ADDRESS":"ADDRESS","OBJECTID":"OBJECTID"},"geometryType":"esriGeometryPoint","spatialReference":{"wkid":102443,"latestWkid":3826},"fields":[{"name":"ID","type":"esriFieldTypeDouble","alias":"ID"},{"name":"DIS_CODE","type":"esriFieldTypeInteger","alias":"DIS_CODE"},{"name":"TOWNNAME","type":"esriFieldTypeString","alias":"TOWNNAME","length":8},{"name":"LI","type":"esriFieldTypeString","alias":"LI","length":8},{"name":"LIN","type":"esriFieldTypeString","alias":"LIN","length":12},{"name":"STREET","type":"esriFieldTypeString","alias":"STREET","length":20},{"name":"SECT","type":"esriFieldTypeString","alias":"SECT","length":8},{"name":"MAREA","type":"esriFieldTypeString","alias":"MAREA","length":12},{"name":"LANE","type":"esriFieldTypeString","alias":"LANE","length":10},{"name":"ALLEY","type":"esriFieldTypeString","alias":"ALLEY","length":10},{"name":"HOUSE_NO","type":"esriFieldTypeString","alias":"HOUSE_NO","length":20},{"name":"E_COORD97","type":"esriFieldTypeDouble","alias":"E_COORD97"},{"name":"N_COORD97","type":"esriFieldTypeDouble","alias":"N_COORD97"},{"name":"ADDRESS","type":"esriFieldTypeString","alias":"ADDRESS","length":50},{"name":"OBJECTID","type":"esriFieldTypeOID","alias":"OBJECTID"}],"features":[{"attributes":{"ID":227005,"DIS_CODE":0,"TOWNNAME":"仁德區","LI":"仁義里","LIN":"34鄰","STREET":"正義二街","SECT":" ","MAREA":" ","LANE":" ","ALLEY":" ","HOUSE_NO":"１５１號八樓","E_COORD97":173794.29999999999,"N_COORD97":2541595.0099999998,"ADDRESS":"正義二街１５１號八樓","OBJECTID":227001},"geometry":{"x":173794.29999999981,"y":2541595.0099999998}},{"attributes":{"ID":227006,"DIS_CODE":0,"TOWNNAME":"仁德區","LI":"仁義里","LIN":"34鄰","STREET":"正義二街","SECT":" ","MAREA":" ","LANE":" ","ALLEY":" ","HOUSE_NO":"１５８號三樓","E_COORD97":173797.76000000001,"N_COORD97":2541581.02,"ADDRESS":"正義二街１５８號三樓","OBJECTID":227002},"geometry":{"x":173797.76000000071,"y":2541581.0199999996}},{"attributes":{"ID":227007,"DIS_CODE":0,"TOWNNAME":"仁德區","LI":"仁義里","LIN":"34鄰","STREET":"正義二街","SECT":" ","MAREA":" ","LANE":" ","ALLEY":" ","HOUSE_NO":"１４９號五樓","E_COORD97":173780.62,"N_COORD97":2541595.0099999998,"ADDRESS":"正義二街１４９號五樓","OBJECTID":227003},"geometry":{"x":173780.62000000011,"y":2541595.0099999998}},{"attributes":{"ID":227008,"DIS_CODE":0,"TOWNNAME":"仁德區","LI":"仁義里","LIN":"34鄰","STREET":"正義二街","SECT":" ","MAREA":" ","LANE":" ","ALLEY":" ","HOUSE_NO":"１５５號二樓","E_COORD97":173817.62,"N_COORD97":2541598.2599999998,"ADDRESS":"正義二街１５５號二樓","OBJECTID":227004},"geometry":{"x":173817.62000000104,"y":2541598.2600000035}},{"attributes":{"ID":227009,"DIS_CODE":0,"TOWNNAME":"歸仁區","LI":"八甲里","LIN":"14鄰","STREET":"大明三街","SECT":" ","MAREA":" ","LANE":" ","ALLEY":" ","HOUSE_NO":"６７號","E_COORD97":178063.01999999999,"N_COORD97":2541710.6099999999,"ADDRESS":"大明三街６７號","OBJECTID":227005},"geometry":{"x":178063.01999999955,"y":2541710.6100000031}},{"attributes":{"ID":227010,"DIS_CODE":0,"TOWNNAME":"麻豆區","LI":"大埕里","LIN":"9鄰","STREET":" ","SECT":" ","MAREA":"大埕","LANE":" ","ALLEY":" ","HOUSE_NO":"５８號","E_COORD97":173065.35999999999,"N_COORD97":2565445.3700000001,"ADDRESS":"大埕５８號","OBJECTID":227006},"geometry":{"x":173065.36000000127,"y":2565445.370000001}},{"attributes":{"ID":227011,"DIS_CODE":0,"TOWNNAME":"安平區","LI":"華平里","LIN":"3鄰","STREET":"國平路","SECT":" ","MAREA":" ","LANE":"５５２巷","ALLEY":" ","HOUSE_NO":"９４號六樓之３","E_COORD97":165295.35999999999,"N_COORD97":2544119.2599999998,"ADDRESS":"國平路５５２巷９４號六樓之３","OBJECTID":227007},"geometry":{"x":165295.3599999994,"y":2544119.2599999998}},{"attributes":{"ID":227012,"DIS_CODE":0,"TOWNNAME":"仁德區","LI":"成功里","LIN":"28鄰","STREET":"成功一街","SECT":" ","MAREA":" ","LANE":"２巷","ALLEY":" ","HOUSE_NO":"１９號","E_COORD97":170473.26000000001,"N_COORD97":2540244.7599999998,"ADDRESS":"成功一街２巷１９號","OBJECTID":227008},"geometry":{"x":170473.26000000071,"y":2540244.7599999998}},{"attributes":{"ID":227013,"DIS_CODE":0,"TOWNNAME":"仁德區","LI":"成功里","LIN":"38鄰","STREET":"保華路","SECT":" ","MAREA":" ","LANE":"２巷","ALLEY":" ","HOUSE_NO":"１５號","E_COORD97":170765.67999999999,"N_COORD97":2540051.7400000002,"ADDRESS":"保華路２巷１５號","OBJECTID":227009},"geometry":{"x":170765.6799999997,"y":2540051.7400000002}},{"attributes":{"ID":227014,"DIS_CODE":0,"TOWNNAME":"仁德區","LI":"太子里","LIN":"37鄰","STREET":"長興一街","SECT":" ","MAREA":" ","LANE":"４０巷","ALLEY":" ","HOUSE_NO":"７號","E_COORD97":174558.20000000001,"N_COORD97":2543859.2599999998,"ADDRESS":"長興一街４０巷７號","OBJECTID":227010},"geometry":{"x":174558.20000000019,"y":2543859.2599999979}},{"attributes":{"ID":227015,"DIS_CODE":0,"TOWNNAME":"仁德區","LI":"成功里","LIN":"31鄰","STREET":"成功一街","SECT":" ","MAREA":" ","LANE":"１１巷","ALLEY":" ","HOUSE_NO":"４號","E_COORD97":170563.06,"N_COORD97":2540188.0099999998,"ADDRESS":"成功一街１１巷４號","OBJECTID":227011},"geometry":{"x":170563.05999999959,"y":2540188.0099999998}},{"attributes":{"ID":227016,"DIS_CODE":0,"TOWNNAME":"仁德區","LI":"後壁里","LIN":"21鄰","STREET":"中正路","SECT":"二段","MAREA":" ","LANE":"９７巷","ALLEY":" ","HOUSE_NO":"２０號","E_COORD97":173157.38,"N_COORD97":2538555.5299999998,"ADDRESS":"中正路二段９７巷２０號","OBJECTID":227012},"geometry":{"x":173157.38000000082,"y":2538555.5300000012}},{"attributes":{"ID":227017,"DIS_CODE":0,"TOWNNAME":"仁德區","LI":"田厝里","LIN":"1鄰","STREET":"保安路","SECT":"二段","MAREA":" ","LANE":"６３０巷","ALLEY":" ","HOUSE_NO":"３８號","E_COORD97":172777.5,"N_COORD97":2537487.5699999998,"ADDRESS":"保安路二段６３０巷３８號","OBJECTID":227013},"geometry":{"x":172777.50000000093,"y":2537487.570000004}},{"attributes":{"ID":227018,"DIS_CODE":0,"TOWNNAME":"仁德區","LI":"後壁里","LIN":"38鄰","STREET":"德安路","SECT":" ","MAREA":" ","LANE":"４８巷","ALLEY":" ","HOUSE_NO":"１６號","E_COORD97":173371.76000000001,"N_COORD97":2539139.0600000001,"ADDRESS":"德安路４８巷１６號","OBJECTID":227014},"geometry":{"x":173371.76000000071,"y":2539139.0600000042}},{"attributes":{"ID":227019,"DIS_CODE":0,"TOWNNAME":"仁德區","LI":"成功里","LIN":"28鄰","STREET":"成功一街","SECT":" ","MAREA":" ","LANE":"１０巷","ALLEY":" ","HOUSE_NO":"７號","E_COORD97":170510.23999999999,"N_COORD97":2540196.77,"ADDRESS":"成功一街１０巷７號","OBJECTID":227015},"geometry":{"x":170510.24000000022,"y":2540196.7699999996}},{"attributes":{"ID":227020,"DIS_CODE":0,"TOWNNAME":"仁德區","LI":"太子里","LIN":"23鄰","STREET":"長興四街","SECT":" ","MAREA":" ","LANE":"１０２巷","ALLEY":" ","HOUSE_NO":"３號","E_COORD97":173811.23999999999,"N_COORD97":2543585.25,"ADDRESS":"長興四街１０２巷３號","OBJECTID":227016},"geometry":{"x":173811.24000000209,"y":2543585.2500000037}},{"attributes":{"ID":227021,"DIS_CODE":0,"TOWNNAME":"東區","LI":"和平里","LIN":"3鄰","STREET":"東門路","SECT":"三段","MAREA":" ","LANE":"２２６巷","ALLEY":" ","HOUSE_NO":"２４號","E_COORD97":171494.35000000001,"N_COORD97":2541910,"ADDRESS":"東門路三段２２６巷２４號","OBJECTID":227017},"geometry":{"x":171494.35000000056,"y":2541910.0000000019}},{"attributes":{"ID":227022,"DIS_CODE":0,"TOWNNAME":"安平區","LI":"華平里","LIN":"3鄰","STREET":"怡平路","SECT":" ","MAREA":" ","LANE":"４６８巷","ALLEY":" ","HOUSE_NO":"８１號二樓之１","E_COORD97":165245.92000000001,"N_COORD97":2544012.4399999999,"ADDRESS":"怡平路４６８巷８１號二樓之１","OBJECTID":227018},"geometry":{"x":165245.92000000086,"y":2544012.4399999995}},{"attributes":{"ID":227023,"DIS_CODE":0,"TOWNNAME":"安平區","LI":"華平里","LIN":"3鄰","STREET":"怡平路","SECT":" ","MAREA":" ","LANE":"４６８巷","ALLEY":" ","HOUSE_NO":"８１號四樓之２","E_COORD97":165245.92000000001,"N_COORD97":2544012.4399999999,"ADDRESS":"怡平路４６８巷８１號四樓之２","OBJECTID":227019},"geometry":{"x":165245.92000000086,"y":2544012.4399999995}},{"attributes":{"ID":227024,"DIS_CODE":0,"TOWNNAME":"仁德區","LI":"太子里","LIN":"29鄰","STREET":"大發路","SECT":" ","MAREA":" ","LANE":"１７７巷","ALLEY":" ","HOUSE_NO":"１５號","E_COORD97":173203.54999999999,"N_COORD97":2543062.5099999998,"ADDRESS":"大發路１７７巷１５號","OBJECTID":227020},"geometry":{"x":173203.55000000075,"y":2543062.5100000016}},{"attributes":{"ID":227025,"DIS_CODE":0,"TOWNNAME":"仁德區","LI":"成功里","LIN":"8鄰","STREET":"保華路","SECT":" ","MAREA":" ","LANE":"１２９巷","ALLEY":" ","HOUSE_NO":"６８號","E_COORD97":171106.78,"N_COORD97":2539848.4900000002,"ADDRESS":"保華路１２９巷６８號","OBJECTID":227021},"geometry":{"x":171106.78000000026,"y":2539848.4900000021}},{"attributes":{"ID":227026,"DIS_CODE":0,"TOWNNAME":"北區","LI":"長榮里","LIN":"3鄰","STREET":"長榮路","SECT":"五段","MAREA":" ","LANE":"４１巷","ALLEY":" ","HOUSE_NO":"３６號七樓之３","E_COORD97":169917.45000000001,"N_COORD97":2545629.1800000002,"ADDRESS":"長榮路五段４１巷３６號七樓之３","OBJECTID":227022},"geometry":{"x":169917.45000000205,"y":2545629.1799999997}},{"attributes":{"ID":227027,"DIS_CODE":0,"TOWNNAME":"北區","LI":"長榮里","LIN":"3鄰","STREET":"長榮路","SECT":"五段","MAREA":" ","LANE":"４１巷","ALLEY":" ","HOUSE_NO":"３６號七樓之５","E_COORD97":169917.45000000001,"N_COORD97":2545629.1800000002,"ADDRESS":"長榮路五段４１巷３６號七樓之５","OBJECTID":227023},"geometry":{"x":169917.45000000205,"y":2545629.1799999997}},{"attributes":{"ID":227028,"DIS_CODE":0,"TOWNNAME":"新營區","LI":"忠政里","LIN":"3鄰","STREET":"中正路","SECT":" ","MAREA":" ","LANE":"３７巷","ALLEY":" ","HOUSE_NO":"９之１號三樓","E_COORD97":180045.04999999999,"N_COORD97":2579127.3999999999,"ADDRESS":"中正路３７巷９之１號三樓","OBJECTID":227024},"geometry":{"x":180045.04999999981,"y":2579127.4000000022}},{"attributes":{"ID":227029,"DIS_CODE":0,"TOWNNAME":"新營區","LI":"忠政里","LIN":"3鄰","STREET":"中正路","SECT":" ","MAREA":" ","LANE":"３７巷","ALLEY":" ","HOUSE_NO":"１１號三樓","E_COORD97":180039.73000000001,"N_COORD97":2579126.27,"ADDRESS":"中正路３７巷１１號三樓","OBJECTID":227025},"geometry":{"x":180039.73000000138,"y":2579126.2700000014}},{"attributes":{"ID":227030,"DIS_CODE":0,"TOWNNAME":"新營區","LI":"忠政里","LIN":"3鄰","STREET":"中正路","SECT":" ","MAREA":" ","LANE":"３５巷","ALLEY":" ","HOUSE_NO":"３號三樓","E_COORD97":180084.44,"N_COORD97":2579093.9399999999,"ADDRESS":"中正路３５巷３號三樓","OBJECTID":227026},"geometry":{"x":180084.44000000134,"y":2579093.9399999976}},{"attributes":{"ID":227031,"DIS_CODE":0,"TOWNNAME":"永康區","LI":"正強里","LIN":"3鄰","STREET":"中正路","SECT":" ","MAREA":" ","LANE":"１巷","ALLEY":" ","HOUSE_NO":"４６號","E_COORD97":173625.82999999999,"N_COORD97":2547590.3300000001,"ADDRESS":"中正路１巷４６號","OBJECTID":227027},"geometry":{"x":173625.83000000101,"y":2547590.3300000019}},{"attributes":{"ID":227032,"DIS_CODE":0,"TOWNNAME":"永康區","LI":"正強里","LIN":"3鄰","STREET":"中正路","SECT":" ","MAREA":" ","LANE":"１巷","ALLEY":" ","HOUSE_NO":"７２號","E_COORD97":173545.45999999999,"N_COORD97":2547583.75,"ADDRESS":"中正路１巷７２號","OBJECTID":227028},"geometry":{"x":173545.46000000089,"y":2547583.7500000019}},{"attributes":{"ID":227033,"DIS_CODE":0,"TOWNNAME":"永康區","LI":"西勢里","LIN":"17鄰","STREET":"富強路","SECT":"一段","MAREA":" ","LANE":"２５４巷","ALLEY":" ","HOUSE_NO":"４５號","E_COORD97":175828.84,"N_COORD97":2546380.4900000002,"ADDRESS":"富強路一段２５４巷４５號","OBJECTID":227029},"geometry":{"x":175828.83999999985,"y":2546380.4900000002}},{"attributes":{"ID":227034,"DIS_CODE":0,"TOWNNAME":"學甲區","LI":"光華里","LIN":"29鄰","STREET":" ","SECT":" ","MAREA":"筏子頭","LANE":" ","ALLEY":" ","HOUSE_NO":"１４號之２７","E_COORD97":163876.92000000001,"N_COORD97":2574284.5,"ADDRESS":"筏子頭１４號之２７","OBJECTID":227030},"geometry":{"x":163876.91999999993,"y":2574284.5000000019}},{"attributes":{"ID":227035,"DIS_CODE":0,"TOWNNAME":"新營區","LI":"民生里","LIN":"29鄰","STREET":"民治路","SECT":" ","MAREA":" ","LANE":"２２５巷","ALLEY":" ","HOUSE_NO":"３３號","E_COORD97":178859.73999999999,"N_COORD97":2578420.8900000001,"ADDRESS":"民治路２２５巷３３號","OBJECTID":227031},"geometry":{"x":178859.74000000115,"y":2578420.8900000043}},{"attributes":{"ID":227036,"DIS_CODE":0,"TOWNNAME":"學甲區","LI":"光華里","LIN":"29鄰","STREET":" ","SECT":" ","MAREA":"筏子頭","LANE":" ","ALLEY":" ","HOUSE_NO":"１４號之２９","E_COORD97":163835.14999999999,"N_COORD97":2574376.5099999998,"ADDRESS":"筏子頭１４號之２９","OBJECTID":227032},"geometry":{"x":163835.15000000037,"y":2574376.5099999998}},{"attributes":{"ID":227037,"DIS_CODE":0,"TOWNNAME":"學甲區","LI":"光華里","LIN":"29鄰","STREET":" ","SECT":" ","MAREA":"筏子頭","LANE":" ","ALLEY":" ","HOUSE_NO":"１４號之３０","E_COORD97":163836,"N_COORD97":2574594.4700000002,"ADDRESS":"筏子頭１４號之３０","OBJECTID":227033},"geometry":{"x":163836,"y":2574594.4700000025}},{"attributes":{"ID":227038,"DIS_CODE":0,"TOWNNAME":"學甲區","LI":"光華里","LIN":"29鄰","STREET":" ","SECT":" ","MAREA":"筏子頭","LANE":" ","ALLEY":" ","HOUSE_NO":"１４號之３２","E_COORD97":164049.23999999999,"N_COORD97":2574468.4100000001,"ADDRESS":"筏子頭１４號之３２","OBJECTID":227034},"geometry":{"x":164049.24000000115,"y":2574468.410000002}},{"attributes":{"ID":227039,"DIS_CODE":0,"TOWNNAME":"學甲區","LI":"三慶里","LIN":"29鄰","STREET":" ","SECT":" ","MAREA":"新芳","LANE":" ","ALLEY":" ","HOUSE_NO":"５４號之１","E_COORD97":167302.41,"N_COORD97":2575097.1400000001,"ADDRESS":"新芳５４號之１","OBJECTID":227035},"geometry":{"x":167302.41000000108,"y":2575097.1400000025}},{"attributes":{"ID":227040,"DIS_CODE":0,"TOWNNAME":"學甲區","LI":"光華里","LIN":"29鄰","STREET":" ","SECT":" ","MAREA":"筏子頭","LANE":" ","ALLEY":" ","HOUSE_NO":"１４號之３４","E_COORD97":163979.07999999999,"N_COORD97":2573912.79,"ADDRESS":"筏子頭１４號之３４","OBJECTID":227036},"geometry":{"x":163979.08000000101,"y":2573912.7899999991}},{"attributes":{"ID":227041,"DIS_CODE":0,"TOWNNAME":"新營區","LI":"王公里","LIN":"29鄰","STREET":"長榮路","SECT":"一段","MAREA":" ","LANE":"５１５巷","ALLEY":" ","HOUSE_NO":"３５號","E_COORD97":180310.20000000001,"N_COORD97":2579734.0699999998,"ADDRESS":"長榮路一段５１５巷３５號","OBJECTID":227037},"geometry":{"x":180310.20000000019,"y":2579734.0700000003}},{"attributes":{"ID":227042,"DIS_CODE":0,"TOWNNAME":"學甲區","LI":"光華里","LIN":"29鄰","STREET":" ","SECT":" ","MAREA":"筏子頭","LANE":" ","ALLEY":" ","HOUSE_NO":"１４號之３６","E_COORD97":163966.35999999999,"N_COORD97":2573980.3500000001,"ADDRESS":"筏子頭１４號之３６","OBJECTID":227038},"geometry":{"x":163966.3599999994,"y":2573980.3500000015}},{"attributes":{"ID":227043,"DIS_CODE":0,"TOWNNAME":"永康區","LI":"正強里","LIN":"3鄰","STREET":"中正路","SECT":" ","MAREA":" ","LANE":"１巷","ALLEY":" ","HOUSE_NO":"４４號","E_COORD97":173630.45000000001,"N_COORD97":2547590.9300000002,"ADDRESS":"中正路１巷４４號","OBJECTID":227039},"geometry":{"x":173630.45000000112,"y":2547590.9299999978}},{"attributes":{"ID":227044,"DIS_CODE":0,"TOWNNAME":"永康區","LI":"正強里","LIN":"3鄰","STREET":"中正路","SECT":" ","MAREA":" ","LANE":"１巷","ALLEY":" ","HOUSE_NO":"３０號","E_COORD97":173665.89999999999,"N_COORD97":2547610.3599999999,"ADDRESS":"中正路１巷３０號","OBJECTID":227040},"geometry":{"x":173665.90000000037,"y":2547610.3599999994}},{"attributes":{"ID":227045,"DIS_CODE":0,"TOWNNAME":"永康區","LI":"正強里","LIN":"3鄰","STREET":"中正路","SECT":" ","MAREA":" ","LANE":"１巷","ALLEY":" ","HOUSE_NO":"６２號","E_COORD97":173577.70999999999,"N_COORD97":2547590,"ADDRESS":"中正路１巷６２號","OBJECTID":227041},"geometry":{"x":173577.71000000089,"y":2547590}},{"attributes":{"ID":227046,"DIS_CODE":0,"TOWNNAME":"安南區","LI":"\u25A0南里","LIN":"3鄰","STREET":"環福街","SECT":" ","MAREA":" ","LANE":"１２５巷","ALLEY":" ","HOUSE_NO":"１１號","E_COORD97":170343.89999999999,"N_COORD97":2552502.3599999999,"ADDRESS":"環福街１２５巷１１號","OBJECTID":227042},"geometry":{"x":170343.9000000013,"y":2552502.3599999994}},{"attributes":{"ID":227047,"DIS_CODE":0,"TOWNNAME":"安南區","LI":"\u25A0南里","LIN":"3鄰","STREET":"環福街","SECT":" ","MAREA":" ","LANE":"１２５巷","ALLEY":" ","HOUSE_NO":"１３號","E_COORD97":170340.54000000001,"N_COORD97":2552505.2999999998,"ADDRESS":"環福街１２５巷１３號","OBJECTID":227043},"geometry":{"x":170340.5400000019,"y":2552505.3000000007}},{"attributes":{"ID":227048,"DIS_CODE":0,"TOWNNAME":"安南區","LI":"\u25A0南里","LIN":"3鄰","STREET":"環福街","SECT":" ","MAREA":" ","LANE":"１２５巷","ALLEY":" ","HOUSE_NO":"１５號","E_COORD97":170337.59,"N_COORD97":2552508.8700000001,"ADDRESS":"環福街１２５巷１５號","OBJECTID":227044},"geometry":{"x":170337.58999999985,"y":2552508.8700000048}},{"attributes":{"ID":227049,"DIS_CODE":0,"TOWNNAME":"安南區","LI":"\u25A0南里","LIN":"3鄰","STREET":"環福街","SECT":" ","MAREA":" ","LANE":"１２５巷","ALLEY":" ","HOUSE_NO":"１７號","E_COORD97":170336.32999999999,"N_COORD97":2552514.54,"ADDRESS":"環福街１２５巷１７號","OBJECTID":227045},"geometry":{"x":170336.33000000007,"y":2552514.5399999991}},{"attributes":{"ID":227050,"DIS_CODE":0,"TOWNNAME":"安南區","LI":"\u25A0南里","LIN":"3鄰","STREET":"環福街","SECT":" ","MAREA":" ","LANE":"１２５巷","ALLEY":" ","HOUSE_NO":"２１號","E_COORD97":170322.45000000001,"N_COORD97":2552513.0699999998,"ADDRESS":"環福街１２５巷２１號","OBJECTID":227046},"geometry":{"x":170322.45000000019,"y":2552513.0700000003}},{"attributes":{"ID":227051,"DIS_CODE":0,"TOWNNAME":"安南區","LI":"\u25A0南里","LIN":"3鄰","STREET":"環福街","SECT":" ","MAREA":" ","LANE":"１２５巷","ALLEY":" ","HOUSE_NO":"２３號","E_COORD97":170318.23999999999,"N_COORD97":2552514.54,"ADDRESS":"環福街１２５巷２３號","OBJECTID":227047},"geometry":{"x":170318.24000000022,"y":2552514.5399999991}},{"attributes":{"ID":227052,"DIS_CODE":0,"TOWNNAME":"仁德區","LI":"仁義里","LIN":"34鄰","STREET":"正義二街","SECT":" ","MAREA":" ","LANE":" ","ALLEY":" ","HOUSE_NO":"１６２號三樓","E_COORD97":173824.79000000001,"N_COORD97":2541580.27,"ADDRESS":"正義二街１６２號三樓","OBJECTID":227048},"geometry":{"x":173824.79000000097,"y":2541580.2699999996}},{"attributes":{"ID":227053,"DIS_CODE":0,"TOWNNAME":"東區","LI":"泉南里","LIN":"34鄰","STREET":"林森路","SECT":"一段","MAREA":" ","LANE":" ","ALLEY":" ","HOUSE_NO":"１４９號二十樓之１０","E_COORD97":169495.73000000001,"N_COORD97":2542552.3999999999,"ADDRESS":"林森路一段１４９號二十樓之１０","OBJECTID":227049},"geometry":{"x":169495.73000000138,"y":2542552.4000000004}},{"attributes":{"ID":227054,"DIS_CODE":0,"TOWNNAME":"安南區","LI":"\u25A0南里","LIN":"3鄰","STREET":"環福街","SECT":" ","MAREA":" ","LANE":"６１巷","ALLEY":" ","HOUSE_NO":"４３號","E_COORD97":170337.41,"N_COORD97":2552490.1099999999,"ADDRESS":"環福街６１巷４３號","OBJECTID":227050},"geometry":{"x":170337.41000000015,"y":2552490.1100000013}},{"attributes":{"ID":227055,"DIS_CODE":0,"TOWNNAME":"安南區","LI":"海東里","LIN":"3鄰","STREET":"海中街","SECT":" ","MAREA":" ","LANE":"１３８巷","ALLEY":" ","HOUSE_NO":"２５號之５","E_COORD97":166418.06,"N_COORD97":2549163.1200000001,"ADDRESS":"海中街１３８巷２５號之５","OBJECTID":227051},"geometry":{"x":166418.06000000052,"y":2549163.120000001}},{"attributes":{"ID":227056,"DIS_CODE":0,"TOWNNAME":"安南區","LI":"公\u25A0里","LIN":"3鄰","STREET":"安興街","SECT":" ","MAREA":" ","LANE":"４３巷","ALLEY":" ","HOUSE_NO":"５０號","E_COORD97":164267.60000000001,"N_COORD97":2552179.75,"ADDRESS":"安興街４３巷５０號","OBJECTID":227052},"geometry":{"x":164267.60000000149,"y":2552179.7500000037}},{"attributes":{"ID":227057,"DIS_CODE":0,"TOWNNAME":"安南區","LI":"新順里","LIN":"3鄰","STREET":"安和路","SECT":"三段","MAREA":" ","LANE":"５４巷","ALLEY":" ","HOUSE_NO":"１６號","E_COORD97":169878.91,"N_COORD97":2549415.25,"ADDRESS":"安和路三段５４巷１６號","OBJECTID":227053},"geometry":{"x":169878.91000000108,"y":2549415.25}},{"attributes":{"ID":227058,"DIS_CODE":0,"TOWNNAME":"安南區","LI":"海東里","LIN":"3鄰","STREET":"海中街","SECT":" ","MAREA":" ","LANE":"１３８巷","ALLEY":" ","HOUSE_NO":"２５號之１","E_COORD97":166390.82999999999,"N_COORD97":2549149.0099999998,"ADDRESS":"海中街１３８巷２５號之１","OBJECTID":227054},"geometry":{"x":166390.83000000101,"y":2549149.0099999998}},{"attributes":{"ID":227059,"DIS_CODE":0,"TOWNNAME":"學甲區","LI":"光華里","LIN":"29鄰","STREET":" ","SECT":" ","MAREA":"筏子頭","LANE":" ","ALLEY":" ","HOUSE_NO":"１４號","E_COORD97":164280.64000000001,"N_COORD97":2574774.3300000001,"ADDRESS":"筏子頭１４號","OBJECTID":227055},"geometry":{"x":164280.63999999966,"y":2574774.3300000019}},{"attributes":{"ID":227060,"DIS_CODE":0,"TOWNNAME":"學甲區","LI":"秀昌里","LIN":"29鄰","STREET":" ","SECT":" ","MAREA":"煥昌","LANE":" ","ALLEY":" ","HOUSE_NO":"６５號","E_COORD97":166200.26999999999,"N_COORD97":2570924.3999999999,"ADDRESS":"煥昌６５號","OBJECTID":227056},"geometry":{"x":166200.26999999955,"y":2570924.3999999985}},{"attributes":{"ID":227061,"DIS_CODE":0,"TOWNNAME":"學甲區","LI":"秀昌里","LIN":"29鄰","STREET":" ","SECT":" ","MAREA":"煥昌","LANE":" ","ALLEY":" ","HOUSE_NO":"６６號","E_COORD97":166212.03,"N_COORD97":2570932.77,"ADDRESS":"煥昌６６號","OBJECTID":227057},"geometry":{"x":166212.03000000119,"y":2570932.7700000014}},{"attributes":{"ID":227062,"DIS_CODE":0,"TOWNNAME":"東區","LI":"崇德里","LIN":"17鄰","STREET":"崇明十三街","SECT":" ","MAREA":" ","LANE":"１０巷","ALLEY":" ","HOUSE_NO":"１４號","E_COORD97":170506.98000000001,"N_COORD97":2541547.98,"ADDRESS":"崇明十三街１０巷１４號","OBJECTID":227058},"geometry":{"x":170506.98000000045,"y":2541547.9800000023}},{"attributes":{"ID":227063,"DIS_CODE":0,"TOWNNAME":"安南區","LI":"城北里","LIN":"3鄰","STREET":"安中路","SECT":"六段","MAREA":" ","LANE":"５７８巷","ALLEY":" ","HOUSE_NO":"９２號","E_COORD97":161074.45999999999,"N_COORD97":2551494.21,"ADDRESS":"安中路六段５７８巷９２號","OBJECTID":227059},"geometry":{"x":161074.45999999996,"y":2551494.2100000028}},{"attributes":{"ID":227064,"DIS_CODE":0,"TOWNNAME":"安南區","LI":"城北里","LIN":"3鄰","STREET":"安中路","SECT":"六段","MAREA":" ","LANE":"５７８巷","ALLEY":" ","HOUSE_NO":"９４號","E_COORD97":161080.34,"N_COORD97":2551497.4500000002,"ADDRESS":"安中路六段５７８巷９４號","OBJECTID":227060},"geometry":{"x":161080.33999999985,"y":2551497.4500000011}},{"attributes":{"ID":227065,"DIS_CODE":0,"TOWNNAME":"安南區","LI":"城北里","LIN":"3鄰","STREET":"安中路","SECT":"六段","MAREA":" ","LANE":"５７８巷","ALLEY":" ","HOUSE_NO":"９６號","E_COORD97":161085.20999999999,"N_COORD97":2551498.8599999999,"ADDRESS":"安中路六段５７８巷９６號","OBJECTID":227061},"geometry":{"x":161085.21000000183,"y":2551498.8599999994}},{"attributes":{"ID":227066,"DIS_CODE":0,"TOWNNAME":"安南區","LI":"城西里","LIN":"3鄰","STREET":"城西街","SECT":"三段","MAREA":" ","LANE":"５１０巷","ALLEY":" ","HOUSE_NO":"２３號","E_COORD97":157150.19,"N_COORD97":2550918.6400000001,"ADDRESS":"城西街三段５１０巷２３號","OBJECTID":227062},"geometry":{"x":157150.19000000134,"y":2550918.6400000006}},{"attributes":{"ID":227067,"DIS_CODE":0,"TOWNNAME":"安南區","LI":"城西里","LIN":"3鄰","STREET":"城西街","SECT":"三段","MAREA":" ","LANE":"５１０巷","ALLEY":" ","HOUSE_NO":"２５號","E_COORD97":157154.39999999999,"N_COORD97":2550925.1899999999,"ADDRESS":"城西街三段５１０巷２５號","OBJECTID":227063},"geometry":{"x":157154.40000000037,"y":2550925.1900000032}},{"attributes":{"ID":227068,"DIS_CODE":0,"TOWNNAME":"安南區","LI":"\u25A0南里","LIN":"3鄰","STREET":"環福街","SECT":" ","MAREA":" ","LANE":"１２５巷","ALLEY":" ","HOUSE_NO":"９號","E_COORD97":170352.34,"N_COORD97":2552502.5800000001,"ADDRESS":"環福街１２５巷９號","OBJECTID":227064},"geometry":{"x":170352.34000000078,"y":2552502.5800000001}},{"attributes":{"ID":227069,"DIS_CODE":0,"TOWNNAME":"安南區","LI":"佃西里","LIN":"3鄰","STREET":"公學路","SECT":"四段","MAREA":" ","LANE":"１２６巷","ALLEY":" ","HOUSE_NO":"８８號","E_COORD97":165368.25,"N_COORD97":2551954.29,"ADDRESS":"公學路四段１２６巷８８號","OBJECTID":227065},"geometry":{"x":165368.25,"y":2551954.2899999991}},{"attributes":{"ID":227070,"DIS_CODE":0,"TOWNNAME":"安南區","LI":"公親里","LIN":"3鄰","STREET":"公學路","SECT":"一段","MAREA":" ","LANE":"２３０巷","ALLEY":" ","HOUSE_NO":"２０號","E_COORD97":167981.20000000001,"N_COORD97":2553141.0299999998,"ADDRESS":"公學路一段２３０巷２０號","OBJECTID":227066},"geometry":{"x":167981.20000000019,"y":2553141.0300000012}},{"attributes":{"ID":227071,"DIS_CODE":0,"TOWNNAME":"安南區","LI":"州北里","LIN":"3鄰","STREET":"安和路","SECT":"五段","MAREA":" ","LANE":"１７１巷","ALLEY":" ","HOUSE_NO":"１４３號","E_COORD97":169633.41,"N_COORD97":2551650.9399999999,"ADDRESS":"安和路五段１７１巷１４３號","OBJECTID":227067},"geometry":{"x":169633.41000000108,"y":2551650.9399999995}},{"attributes":{"ID":227072,"DIS_CODE":0,"TOWNNAME":"安南區","LI":"城北里","LIN":"3鄰","STREET":"城北路","SECT":" ","MAREA":" ","LANE":"９８巷","ALLEY":" ","HOUSE_NO":"１６號","E_COORD97":161049.34,"N_COORD97":2551563.4399999999,"ADDRESS":"城北路９８巷１６號","OBJECTID":227068},"geometry":{"x":161049.34000000078,"y":2551563.4399999995}},{"attributes":{"ID":227073,"DIS_CODE":0,"TOWNNAME":"安南區","LI":"新順里","LIN":"3鄰","STREET":"安和路","SECT":"三段","MAREA":" ","LANE":"５４巷","ALLEY":" ","HOUSE_NO":"１４號","E_COORD97":169858.29999999999,"N_COORD97":2549421.8700000001,"ADDRESS":"安和路三段５４巷１４號","OBJECTID":227069},"geometry":{"x":169858.29999999981,"y":2549421.8700000029}},{"attributes":{"ID":227074,"DIS_CODE":0,"TOWNNAME":"永康區","LI":"復國里","LIN":"34鄰","STREET":"復華一街","SECT":" ","MAREA":" ","LANE":" ","ALLEY":" ","HOUSE_NO":"６５號二樓之２","E_COORD97":172536.5,"N_COORD97":2545071.5499999998,"ADDRESS":"復華一街６５號二樓之２","OBJECTID":227070},"geometry":{"x":172536.50000000093,"y":2545071.5500000007}},{"attributes":{"ID":227075,"DIS_CODE":0,"TOWNNAME":"北區","LI":"文元里","LIN":"29鄰","STREET":"文成路","SECT":" ","MAREA":" ","LANE":"６５０巷","ALLEY":" ","HOUSE_NO":"１５號","E_COORD97":167743.66,"N_COORD97":2545914.1099999999,"ADDRESS":"文成路６５０巷１５號","OBJECTID":227071},"geometry":{"x":167743.66000000015,"y":2545914.1099999994}},{"attributes":{"ID":227076,"DIS_CODE":0,"TOWNNAME":"北區","LI":"文元里","LIN":"29鄰","STREET":"文成路","SECT":" ","MAREA":" ","LANE":"６５０巷","ALLEY":" ","HOUSE_NO":"１７號","E_COORD97":167744.60999999999,"N_COORD97":2545919.4900000002,"ADDRESS":"文成路６５０巷１７號","OBJECTID":227072},"geometry":{"x":167744.61000000034,"y":2545919.4900000002}},{"attributes":{"ID":227077,"DIS_CODE":0,"TOWNNAME":"北區","LI":"文元里","LIN":"29鄰","STREET":"文成路","SECT":" ","MAREA":" ","LANE":"６５０巷","ALLEY":" ","HOUSE_NO":"１９號","E_COORD97":167744.42000000001,"N_COORD97":2545925.1600000001,"ADDRESS":"文成路６５０巷１９號","OBJECTID":227073},"geometry":{"x":167744.42000000086,"y":2545925.1599999983}},{"attributes":{"ID":227078,"DIS_CODE":0,"TOWNNAME":"安南區","LI":"安西里","LIN":"3鄰","STREET":"安和路","SECT":"一段","MAREA":" ","LANE":"２６３巷","ALLEY":" ","HOUSE_NO":"１１號","E_COORD97":169215.67999999999,"N_COORD97":2548007.5099999998,"ADDRESS":"安和路一段２６３巷１１號","OBJECTID":227074},"geometry":{"x":169215.68000000063,"y":2548007.5100000035}},{"attributes":{"ID":227079,"DIS_CODE":0,"TOWNNAME":"安南區","LI":"公親里","LIN":"3鄰","STREET":"公學路","SECT":"一段","MAREA":" ","LANE":"１２４巷","ALLEY":" ","HOUSE_NO":"１０１號","E_COORD97":167988.45000000001,"N_COORD97":2553203.8799999999,"ADDRESS":"公學路一段１２４巷１０１號","OBJECTID":227075},"geometry":{"x":167988.45000000205,"y":2553203.879999999}},{"attributes":{"ID":227080,"DIS_CODE":0,"TOWNNAME":"安南區","LI":"公親里","LIN":"3鄰","STREET":"公學路","SECT":"一段","MAREA":" ","LANE":"１２４巷","ALLEY":" ","HOUSE_NO":"１０３號","E_COORD97":167983.79000000001,"N_COORD97":2553203.8799999999,"ADDRESS":"公學路一段１２４巷１０３號","OBJECTID":227076},"geometry":{"x":167983.79000000004,"y":2553203.879999999}},{"attributes":{"ID":227081,"DIS_CODE":0,"TOWNNAME":"安南區","LI":"公親里","LIN":"3鄰","STREET":"公學路","SECT":"一段","MAREA":" ","LANE":"１２４巷","ALLEY":" ","HOUSE_NO":"１０５號","E_COORD97":167978.62,"N_COORD97":2553204.3999999999,"ADDRESS":"公學路一段１２４巷１０５號","OBJECTID":227077},"geometry":{"x":167978.62000000197,"y":2553204.4000000022}},{"attributes":{"ID":227082,"DIS_CODE":0,"TOWNNAME":"安南區","LI":"公親里","LIN":"3鄰","STREET":"公學路","SECT":"一段","MAREA":" ","LANE":"１２４巷","ALLEY":" ","HOUSE_NO":"１０７號","E_COORD97":167972.92000000001,"N_COORD97":2553204.3999999999,"ADDRESS":"公學路一段１２４巷１０７號","OBJECTID":227078},"geometry":{"x":167972.91999999899,"y":2553204.4000000022}},{"attributes":{"ID":227083,"DIS_CODE":0,"TOWNNAME":"安南區","LI":"公親里","LIN":"3鄰","STREET":"公學路","SECT":"一段","MAREA":" ","LANE":"２３０巷","ALLEY":" ","HOUSE_NO":"３４號","E_COORD97":167974.98999999999,"N_COORD97":2553190.4399999999,"ADDRESS":"公學路一段２３０巷３４號","OBJECTID":227079},"geometry":{"x":167974.99000000115,"y":2553190.4399999995}},{"attributes":{"ID":227084,"DIS_CODE":0,"TOWNNAME":"安南區","LI":"公親里","LIN":"3鄰","STREET":"公學路","SECT":"一段","MAREA":" ","LANE":"２３０巷","ALLEY":" ","HOUSE_NO":"３６號","E_COORD97":167976.54000000001,"N_COORD97":2553194.5800000001,"ADDRESS":"公學路一段２３０巷３６號","OBJECTID":227080},"geometry":{"x":167976.54000000097,"y":2553194.5799999982}},{"attributes":{"ID":227085,"DIS_CODE":0,"TOWNNAME":"永康區","LI":"復國里","LIN":"34鄰","STREET":"復華一街","SECT":" ","MAREA":" ","LANE":" ","ALLEY":" ","HOUSE_NO":"６５號四樓之１","E_COORD97":172536.37,"N_COORD97":2545071.5499999998,"ADDRESS":"復華一街６５號四樓之１","OBJECTID":227081},"geometry":{"x":172536.37000000011,"y":2545071.5500000007}},{"attributes":{"ID":227086,"DIS_CODE":0,"TOWNNAME":"永康區","LI":"復國里","LIN":"34鄰","STREET":"復華一街","SECT":" ","MAREA":" ","LANE":" ","ALLEY":" ","HOUSE_NO":"７３號九樓之２","E_COORD97":172520.14000000001,"N_COORD97":2545071.0499999998,"ADDRESS":"復華一街７３號九樓之２","OBJECTID":227082},"geometry":{"x":172520.1400000006,"y":2545071.0500000007}},{"attributes":{"ID":227087,"DIS_CODE":0,"TOWNNAME":"永康區","LI":"復國里","LIN":"34鄰","STREET":"復華一街","SECT":" ","MAREA":" ","LANE":" ","ALLEY":" ","HOUSE_NO":"６５號十樓之１","E_COORD97":172536.37,"N_COORD97":2545071.5499999998,"ADDRESS":"復華一街６５號十樓之１","OBJECTID":227083},"geometry":{"x":172536.37000000011,"y":2545071.5500000007}},{"attributes":{"ID":227088,"DIS_CODE":0,"TOWNNAME":"東區","LI":"崇明里","LIN":"3鄰","STREET":"大同路","SECT":"二段","MAREA":" ","LANE":"４０３巷","ALLEY":" ","HOUSE_NO":"５６號","E_COORD97":169667.82999999999,"N_COORD97":2541364.5699999998,"ADDRESS":"大同路二段４０３巷５６號","OBJECTID":227084},"geometry":{"x":169667.83000000101,"y":2541364.5700000003}},{"attributes":{"ID":227089,"DIS_CODE":0,"TOWNNAME":"永康區","LI":"龍潭里","LIN":"22鄰","STREET":"龍橋街","SECT":" ","MAREA":" ","LANE":"８８巷","ALLEY":" ","HOUSE_NO":"１６號","E_COORD97":174787.47,"N_COORD97":2548525.5099999998,"ADDRESS":"龍橋街８８巷１６號","OBJECTID":227085},"geometry":{"x":174787.47000000067,"y":2548525.5099999998}},{"attributes":{"ID":227090,"DIS_CODE":0,"TOWNNAME":"下營區","LI":"宅內里","LIN":"3鄰","STREET":"永安街","SECT":" ","MAREA":" ","LANE":"１２０巷","ALLEY":" ","HOUSE_NO":"１１號","E_COORD97":174145.98999999999,"N_COORD97":2570626.71,"ADDRESS":"永安街１２０巷１１號","OBJECTID":227086},"geometry":{"x":174145.99000000022,"y":2570626.7100000009}},{"attributes":{"ID":227091,"DIS_CODE":0,"TOWNNAME":"下營區","LI":"宅內里","LIN":"3鄰","STREET":"永安街","SECT":" ","MAREA":" ","LANE":"１２０巷","ALLEY":" ","HOUSE_NO":"１３號","E_COORD97":174153.19,"N_COORD97":2570624.1600000001,"ADDRESS":"永安街１２０巷１３號","OBJECTID":227087},"geometry":{"x":174153.19000000134,"y":2570624.1600000039}},{"attributes":{"ID":227092,"DIS_CODE":0,"TOWNNAME":"永康區","LI":"正強里","LIN":"3鄰","STREET":"中正路","SECT":" ","MAREA":" ","LANE":"１巷","ALLEY":" ","HOUSE_NO":"７６號","E_COORD97":173532.73999999999,"N_COORD97":2547578.75,"ADDRESS":"中正路１巷７６號","OBJECTID":227088},"geometry":{"x":173532.74000000022,"y":2547578.75}},{"attributes":{"ID":227093,"DIS_CODE":0,"TOWNNAME":"麻豆區","LI":"大埕里","LIN":"9鄰","STREET":" ","SECT":" ","MAREA":"大埕","LANE":" ","ALLEY":" ","HOUSE_NO":"６３號","E_COORD97":173064.01000000001,"N_COORD97":2565461.3199999998,"ADDRESS":"大埕６３號","OBJECTID":227089},"geometry":{"x":173064.00999999978,"y":2565461.3200000022}},{"attributes":{"ID":227094,"DIS_CODE":0,"TOWNNAME":"東區","LI":"東安里","LIN":"19鄰","STREET":"長榮路","SECT":"二段","MAREA":" ","LANE":"３２巷","ALLEY":" ","HOUSE_NO":"１７２號","E_COORD97":170231.28,"N_COORD97":2543088.79,"ADDRESS":"長榮路二段３２巷１７２號","OBJECTID":227090},"geometry":{"x":170231.28000000119,"y":2543088.7899999972}},{"attributes":{"ID":227095,"DIS_CODE":0,"TOWNNAME":"永康區","LI":"正強里","LIN":"3鄰","STREET":"中正路","SECT":" ","MAREA":" ","LANE":"１巷","ALLEY":" ","HOUSE_NO":"４０號","E_COORD97":173640.48000000001,"N_COORD97":2547593.5,"ADDRESS":"中正路１巷４０號","OBJECTID":227091},"geometry":{"x":173640.48000000138,"y":2547593.5}},{"attributes":{"ID":227096,"DIS_CODE":0,"TOWNNAME":"永康區","LI":"正強里","LIN":"3鄰","STREET":"中正路","SECT":" ","MAREA":" ","LANE":"１巷","ALLEY":" ","HOUSE_NO":"７０號","E_COORD97":173551.85999999999,"N_COORD97":2547583,"ADDRESS":"中正路１巷７０號","OBJECTID":227092},"geometry":{"x":173551.86000000127,"y":2547583}},{"attributes":{"ID":227097,"DIS_CODE":0,"TOWNNAME":"永康區","LI":"復國里","LIN":"3鄰","STREET":"復國一路","SECT":" ","MAREA":" ","LANE":"４４巷","ALLEY":" ","HOUSE_NO":"１０號","E_COORD97":172757.62,"N_COORD97":2544800.04,"ADDRESS":"復國一路４４巷１０號","OBJECTID":227093},"geometry":{"x":172757.62000000104,"y":2544800.040000001}},{"attributes":{"ID":227098,"DIS_CODE":0,"TOWNNAME":"永康區","LI":"復華里","LIN":"3鄰","STREET":"復國二路","SECT":" ","MAREA":" ","LANE":"３４２巷","ALLEY":" ","HOUSE_NO":"１８號","E_COORD97":173084.44,"N_COORD97":2546179.8500000001,"ADDRESS":"復國二路３４２巷１８號","OBJECTID":227094},"geometry":{"x":173084.44000000227,"y":2546179.8499999996}},{"attributes":{"ID":227099,"DIS_CODE":0,"TOWNNAME":"永康區","LI":"新樹里","LIN":"3鄰","STREET":"中山北路","SECT":" ","MAREA":" ","LANE":"６３４巷","ALLEY":" ","HOUSE_NO":"２０號","E_COORD97":176049.51999999999,"N_COORD97":2547842.0899999999,"ADDRESS":"中山北路６３４巷２０號","OBJECTID":227095},"geometry":{"x":176049.52000000142,"y":2547842.0900000017}},{"attributes":{"ID":227100,"DIS_CODE":0,"TOWNNAME":"永康區","LI":"復華里","LIN":"3鄰","STREET":"復國二路","SECT":" ","MAREA":" ","LANE":"３４２巷","ALLEY":" ","HOUSE_NO":"８號","E_COORD97":173060.23000000001,"N_COORD97":2546185.3500000001,"ADDRESS":"復國二路３４２巷８號","OBJECTID":227096},"geometry":{"x":173060.23000000045,"y":2546185.3500000015}},{"attributes":{"ID":227101,"DIS_CODE":0,"TOWNNAME":"永康區","LI":"蔦松里","LIN":"3鄰","STREET":"蔦松一街","SECT":" ","MAREA":" ","LANE":"２１巷","ALLEY":" ","HOUSE_NO":"５號","E_COORD97":173993.63,"N_COORD97":2549319.5,"ADDRESS":"蔦松一街２１巷５號","OBJECTID":227097},"geometry":{"x":173993.63000000082,"y":2549319.5}},{"attributes":{"ID":227102,"DIS_CODE":0,"TOWNNAME":"安南區","LI":"鳳凰里","LIN":"3鄰","STREET":"安中路","SECT":"一段","MAREA":" ","LANE":"６２２巷","ALLEY":" ","HOUSE_NO":"１３３號","E_COORD97":168178.092951,"N_COORD97":2549221.0651699998,"ADDRESS":"安中路一段６２２巷１３３號","OBJECTID":227098},"geometry":{"x":168178.09295099974,"y":2549221.0651660003}},{"attributes":{"ID":227103,"DIS_CODE":0,"TOWNNAME":"安南區","LI":"城西里","LIN":"3鄰","STREET":"城西街","SECT":"三段","MAREA":" ","LANE":"５１０巷","ALLEY":" ","HOUSE_NO":"１７之１號","E_COORD97":157147.38,"N_COORD97":2550898.75,"ADDRESS":"城西街三段５１０巷１７之１號","OBJECTID":227099},"geometry":{"x":157147.37999999989,"y":2550898.7500000019}},{"attributes":{"ID":227104,"DIS_CODE":0,"TOWNNAME":"安南區","LI":"州南里","LIN":"3鄰","STREET":"北安路","SECT":"四段","MAREA":" ","LANE":"１７５巷","ALLEY":" ","HOUSE_NO":"５５號","E_COORD97":169311.85781799999,"N_COORD97":2551317.9076,"ADDRESS":"北安路四段１７５巷５５號","OBJECTID":227100},"geometry":{"x":169311.85781800002,"y":2551317.9075990021}},{"attributes":{"ID":227105,"DIS_CODE":0,"TOWNNAME":"佳里區","LI":"東寧里","LIN":"3鄰","STREET":"延平路","SECT":" ","MAREA":" ","LANE":"３０３巷","ALLEY":" ","HOUSE_NO":"１號","E_COORD97":165837.94,"N_COORD97":2562396,"ADDRESS":"延平路３０３巷１號","OBJECTID":227101},"geometry":{"x":165837.94000000134,"y":2562396}},{"attributes":{"ID":227106,"DIS_CODE":0,"TOWNNAME":"佳里區","LI":"東寧里","LIN":"3鄰","STREET":"延平路","SECT":" ","MAREA":" ","LANE":"３０３巷","ALLEY":" ","HOUSE_NO":"２號","E_COORD97":165832.67000000001,"N_COORD97":2562395.1499999999,"ADDRESS":"延平路３０３巷２號","OBJECTID":227102},"geometry":{"x":165832.67000000086,"y":2562395.1500000004}},{"attributes":{"ID":227107,"DIS_CODE":0,"TOWNNAME":"佳里區","LI":"鎮山里","LIN":"3鄰","STREET":"延平路","SECT":" ","MAREA":" ","LANE":"５９巷","ALLEY":" ","HOUSE_NO":"１１號","E_COORD97":165915.69,"N_COORD97":2561689,"ADDRESS":"延平路５９巷１１號","OBJECTID":227103},"geometry":{"x":165915.69000000134,"y":2561689.0000000019}},{"attributes":{"ID":227108,"DIS_CODE":0,"TOWNNAME":"佳里區","LI":"鎮山里","LIN":"3鄰","STREET":"延平路","SECT":" ","MAREA":" ","LANE":"５９巷","ALLEY":" ","HOUSE_NO":"１２號","E_COORD97":165907.14000000001,"N_COORD97":2561706.6000000001,"ADDRESS":"延平路５９巷１２號","OBJECTID":227104},"geometry":{"x":165907.1400000006,"y":2561706.5999999996}},{"attributes":{"ID":227109,"DIS_CODE":0,"TOWNNAME":"佳里區","LI":"鎮山里","LIN":"3鄰","STREET":"延平路","SECT":" ","MAREA":" ","LANE":"５９巷","ALLEY":" ","HOUSE_NO":"１４號","E_COORD97":165902.16,"N_COORD97":2561706.0499999998,"ADDRESS":"延平路５９巷１４號","OBJECTID":227105},"geometry":{"x":165902.16000000108,"y":2561706.0500000026}},{"attributes":{"ID":227110,"DIS_CODE":0,"TOWNNAME":"佳里區","LI":"鎮山里","LIN":"3鄰","STREET":"延平路","SECT":" ","MAREA":" ","LANE":"５９巷","ALLEY":" ","HOUSE_NO":"１５號","E_COORD97":165904.69,"N_COORD97":2561688.6000000001,"ADDRESS":"延平路５９巷１５號","OBJECTID":227106},"geometry":{"x":165904.69000000041,"y":2561688.6000000015}},{"attributes":{"ID":227111,"DIS_CODE":0,"TOWNNAME":"佳里區","LI":"鎮山里","LIN":"3鄰","STREET":"延平路","SECT":" ","MAREA":" ","LANE":"５９巷","ALLEY":" ","HOUSE_NO":"１６號","E_COORD97":165897.82999999999,"N_COORD97":2561705.2000000002,"ADDRESS":"延平路５９巷１６號","OBJECTID":227107},"geometry":{"x":165897.83000000101,"y":2561705.1999999993}},{"attributes":{"ID":227112,"DIS_CODE":0,"TOWNNAME":"佳里區","LI":"鎮山里","LIN":"3鄰","STREET":"延平路","SECT":" ","MAREA":" ","LANE":"５９巷","ALLEY":" ","HOUSE_NO":"１７號","E_COORD97":165900.64999999999,"N_COORD97":2561687.5499999998,"ADDRESS":"延平路５９巷１７號","OBJECTID":227108},"geometry":{"x":165900.6500000013,"y":2561687.5500000007}},{"attributes":{"ID":227113,"DIS_CODE":0,"TOWNNAME":"永康區","LI":"復國里","LIN":"34鄰","STREET":"復華一街","SECT":" ","MAREA":" ","LANE":" ","ALLEY":" ","HOUSE_NO":"６５號三樓之３","E_COORD97":172536.45999999999,"N_COORD97":2545071.5499999998,"ADDRESS":"復華一街６５號三樓之３","OBJECTID":227109},"geometry":{"x":172536.46000000089,"y":2545071.5500000007}},{"attributes":{"ID":227114,"DIS_CODE":0,"TOWNNAME":"北區","LI":"和順里","LIN":"29鄰","STREET":"海安路","SECT":"三段","MAREA":" ","LANE":"１８１巷","ALLEY":" ","HOUSE_NO":"５號","E_COORD97":167944.79000000001,"N_COORD97":2545112.9199999999,"ADDRESS":"海安路三段１８１巷５號","OBJECTID":227110},"geometry":{"x":167944.79000000004,"y":2545112.9200000037}},{"attributes":{"ID":227115,"DIS_CODE":0,"TOWNNAME":"北區","LI":"和順里","LIN":"29鄰","STREET":"海安路","SECT":"三段","MAREA":" ","LANE":"１８１巷","ALLEY":" ","HOUSE_NO":"７號","E_COORD97":167944.98000000001,"N_COORD97":2545108.3999999999,"ADDRESS":"海安路三段１８１巷７號","OBJECTID":227111},"geometry":{"x":167944.98000000138,"y":2545108.4000000022}},{"attributes":{"ID":227116,"DIS_CODE":0,"TOWNNAME":"北區","LI":"和順里","LIN":"29鄰","STREET":"海安路","SECT":"三段","MAREA":" ","LANE":"１８１巷","ALLEY":" ","HOUSE_NO":"９號","E_COORD97":167945.57999999999,"N_COORD97":2545103.6800000002,"ADDRESS":"海安路三段１８１巷９號","OBJECTID":227112},"geometry":{"x":167945.58000000101,"y":2545103.6799999997}},{"attributes":{"ID":227117,"DIS_CODE":0,"TOWNNAME":"東區","LI":"中西里","LIN":"29鄰","STREET":"東寧路","SECT":" ","MAREA":" ","LANE":"１３４巷","ALLEY":" ","HOUSE_NO":"４號之４三樓","E_COORD97":170315.70000000001,"N_COORD97":2543473.8399999999,"ADDRESS":"東寧路１３４巷４號之４三樓","OBJECTID":227113},"geometry":{"x":170315.70000000019,"y":2543473.8400000017}},{"attributes":{"ID":227118,"DIS_CODE":0,"TOWNNAME":"東區","LI":"中西里","LIN":"29鄰","STREET":"東寧路","SECT":" ","MAREA":" ","LANE":"１３４巷","ALLEY":" ","HOUSE_NO":"４號之４三樓之１","E_COORD97":170315.70000000001,"N_COORD97":2543473.8399999999,"ADDRESS":"東寧路１３４巷４號之４三樓之１","OBJECTID":227114},"geometry":{"x":170315.70000000019,"y":2543473.8400000017}},{"attributes":{"ID":227119,"DIS_CODE":0,"TOWNNAME":"東區","LI":"中西里","LIN":"29鄰","STREET":"東寧路","SECT":" ","MAREA":" ","LANE":"１３４巷","ALLEY":" ","HOUSE_NO":"４號之４三樓之２","E_COORD97":170315.70000000001,"N_COORD97":2543473.8399999999,"ADDRESS":"東寧路１３４巷４號之４三樓之２","OBJECTID":227115},"geometry":{"x":170315.70000000019,"y":2543473.8400000017}},{"attributes":{"ID":227120,"DIS_CODE":0,"TOWNNAME":"東區","LI":"中西里","LIN":"29鄰","STREET":"東寧路","SECT":" ","MAREA":" ","LANE":"１３４巷","ALLEY":" ","HOUSE_NO":"４號之４三樓之３","E_COORD97":170315.70000000001,"N_COORD97":2543473.8399999999,"ADDRESS":"東寧路１３４巷４號之４三樓之３","OBJECTID":227116},"geometry":{"x":170315.70000000019,"y":2543473.8400000017}},{"attributes":{"ID":227121,"DIS_CODE":0,"TOWNNAME":"東區","LI":"中西里","LIN":"29鄰","STREET":"東寧路","SECT":" ","MAREA":" ","LANE":"１３４巷","ALLEY":" ","HOUSE_NO":"４號之４三樓之４","E_COORD97":170315.70000000001,"N_COORD97":2543473.8399999999,"ADDRESS":"東寧路１３４巷４號之４三樓之４","OBJECTID":227117},"geometry":{"x":170315.70000000019,"y":2543473.8400000017}},{"attributes":{"ID":227122,"DIS_CODE":0,"TOWNNAME":"東區","LI":"中西里","LIN":"29鄰","STREET":"東寧路","SECT":" ","MAREA":" ","LANE":"１３４巷","ALLEY":" ","HOUSE_NO":"４號之４四樓","E_COORD97":170315.70000000001,"N_COORD97":2543473.8399999999,"ADDRESS":"東寧路１３４巷４號之４四樓","OBJECTID":227118},"geometry":{"x":170315.70000000019,"y":2543473.8400000017}},{"attributes":{"ID":227123,"DIS_CODE":0,"TOWNNAME":"東區","LI":"中西里","LIN":"29鄰","STREET":"東寧路","SECT":" ","MAREA":" ","LANE":"１３４巷","ALLEY":" ","HOUSE_NO":"４號之４四樓之１","E_COORD97":170315.70000000001,"N_COORD97":2543473.8399999999,"ADDRESS":"東寧路１３４巷４號之４四樓之１","OBJECTID":227119},"geometry":{"x":170315.70000000019,"y":2543473.8400000017}},{"attributes":{"ID":227124,"DIS_CODE":0,"TOWNNAME":"東區","LI":"中西里","LIN":"29鄰","STREET":"東寧路","SECT":" ","MAREA":" ","LANE":"１３４巷","ALLEY":" ","HOUSE_NO":"４號之４四樓之２","E_COORD97":170315.70000000001,"N_COORD97":2543473.8399999999,"ADDRESS":"東寧路１３４巷４號之４四樓之２","OBJECTID":227120},"geometry":{"x":170315.70000000019,"y":2543473.8400000017}},{"attributes":{"ID":227125,"DIS_CODE":0,"TOWNNAME":"東區","LI":"中西里","LIN":"29鄰","STREET":"東寧路","SECT":" ","MAREA":" ","LANE":"１３４巷","ALLEY":" ","HOUSE_NO":"４號之４四樓之３","E_COORD97":170315.70000000001,"N_COORD97":2543473.8399999999,"ADDRESS":"東寧路１３４巷４號之４四樓之３","OBJECTID":227121},"geometry":{"x":170315.70000000019,"y":2543473.8400000017}},{"attributes":{"ID":227126,"DIS_CODE":0,"TOWNNAME":"佳里區","LI":"鎮山里","LIN":"3鄰","STREET":"延平路","SECT":" ","MAREA":" ","LANE":"５９巷","ALLEY":" ","HOUSE_NO":"１９號","E_COORD97":165896.54999999999,"N_COORD97":2561686.8599999999,"ADDRESS":"延平路５９巷１９號","OBJECTID":227122},"geometry":{"x":165896.54999999981,"y":2561686.8599999994}},{"attributes":{"ID":227127,"DIS_CODE":0,"TOWNNAME":"佳里區","LI":"鎮山里","LIN":"3鄰","STREET":"延平路","SECT":" ","MAREA":" ","LANE":"５９巷","ALLEY":" ","HOUSE_NO":"２１號","E_COORD97":165892.79000000001,"N_COORD97":2561685.71,"ADDRESS":"延平路５９巷２１號","OBJECTID":227123},"geometry":{"x":165892.79000000097,"y":2561685.7100000028}},{"attributes":{"ID":227128,"DIS_CODE":0,"TOWNNAME":"佳里區","LI":"鎮山里","LIN":"3鄰","STREET":"延平路","SECT":" ","MAREA":" ","LANE":"５９巷","ALLEY":" ","HOUSE_NO":"２２號","E_COORD97":165886.75,"N_COORD97":2561702.9199999999,"ADDRESS":"延平路５９巷２２號","OBJECTID":227124},"geometry":{"x":165886.75,"y":2561702.9200000018}},{"attributes":{"ID":227129,"DIS_CODE":0,"TOWNNAME":"佳里區","LI":"鎮山里","LIN":"3鄰","STREET":"延平路","SECT":" ","MAREA":" ","LANE":"５９巷","ALLEY":" ","HOUSE_NO":"２３號","E_COORD97":165886.17999999999,"N_COORD97":2561686.3500000001,"ADDRESS":"延平路５９巷２３號","OBJECTID":227125},"geometry":{"x":165886.18000000063,"y":2561686.3500000015}},{"attributes":{"ID":227130,"DIS_CODE":0,"TOWNNAME":"佳里區","LI":"鎮山里","LIN":"3鄰","STREET":"延平路","SECT":" ","MAREA":" ","LANE":"５９巷","ALLEY":" ","HOUSE_NO":"２４號","E_COORD97":165880.98999999999,"N_COORD97":2561701.9900000002,"ADDRESS":"延平路５９巷２４號","OBJECTID":227126},"geometry":{"x":165880.99000000209,"y":2561701.9900000039}},{"attributes":{"ID":227131,"DIS_CODE":0,"TOWNNAME":"永康區","LI":"復國里","LIN":"34鄰","STREET":"復華一街","SECT":" ","MAREA":" ","LANE":" ","ALLEY":" ","HOUSE_NO":"６５號九樓之３","E_COORD97":172536.45999999999,"N_COORD97":2545071.5499999998,"ADDRESS":"復華一街６５號九樓之３","OBJECTID":227127},"geometry":{"x":172536.46000000089,"y":2545071.5500000007}},{"attributes":{"ID":227132,"DIS_CODE":0,"TOWNNAME":"永康區","LI":"復國里","LIN":"34鄰","STREET":"復華一街","SECT":" ","MAREA":" ","LANE":" ","ALLEY":" ","HOUSE_NO":"６５號三樓之２","E_COORD97":172536.5,"N_COORD97":2545071.5499999998,"ADDRESS":"復華一街６５號三樓之２","OBJECTID":227128},"geometry":{"x":172536.50000000093,"y":2545071.5500000007}},{"attributes":{"ID":227133,"DIS_CODE":0,"TOWNNAME":"永康區","LI":"復國里","LIN":"34鄰","STREET":"復華一街","SECT":" ","MAREA":" ","LANE":" ","ALLEY":" ","HOUSE_NO":"７３號八樓之２","E_COORD97":172520.14000000001,"N_COORD97":2545071.0499999998,"ADDRESS":"復華一街７３號八樓之２","OBJECTID":227129},"geometry":{"x":172520.1400000006,"y":2545071.0500000007}},{"attributes":{"ID":227134,"DIS_CODE":0,"TOWNNAME":"新營區","LI":"民榮里","LIN":"34鄰","STREET":"復興路","SECT":" ","MAREA":" ","LANE":" ","ALLEY":" ","HOUSE_NO":"３０１號六樓之５","E_COORD97":178608.69,"N_COORD97":2578135.3500000001,"ADDRESS":"復興路３０１號六樓之５","OBJECTID":227130},"geometry":{"x":178608.69000000041,"y":2578135.3500000034}},{"attributes":{"ID":227135,"DIS_CODE":0,"TOWNNAME":"新營區","LI":"民榮里","LIN":"34鄰","STREET":"復興路","SECT":" ","MAREA":" ","LANE":" ","ALLEY":" ","HOUSE_NO":"３０１號十二樓之４","E_COORD97":178609.81,"N_COORD97":2578135.3500000001,"ADDRESS":"復興路３０１號十二樓之４","OBJECTID":227131},"geometry":{"x":178609.81000000052,"y":2578135.3500000034}},{"attributes":{"ID":227136,"DIS_CODE":0,"TOWNNAME":"新營區","LI":"民榮里","LIN":"34鄰","STREET":"復興路","SECT":" ","MAREA":" ","LANE":" ","ALLEY":" ","HOUSE_NO":"３０１號八樓之６","E_COORD97":178608.64000000001,"N_COORD97":2578135.3500000001,"ADDRESS":"復興路３０１號八樓之６","OBJECTID":227132},"geometry":{"x":178608.64000000153,"y":2578135.3500000034}},{"attributes":{"ID":227137,"DIS_CODE":0,"TOWNNAME":"新營區","LI":"民榮里","LIN":"34鄰","STREET":"復興路","SECT":" ","MAREA":" ","LANE":" ","ALLEY":" ","HOUSE_NO":"３０１號十一樓之２","E_COORD97":178609.92000000001,"N_COORD97":2578135.3500000001,"ADDRESS":"復興路３０１號十一樓之２","OBJECTID":227133},"geometry":{"x":178609.91999999993,"y":2578135.3500000034}},{"attributes":{"ID":227138,"DIS_CODE":0,"TOWNNAME":"新營區","LI":"民榮里","LIN":"34鄰","STREET":"復興路","SECT":" ","MAREA":" ","LANE":" ","ALLEY":" ","HOUSE_NO":"３０１號八樓之１","E_COORD97":178608.54000000001,"N_COORD97":2578135.3500000001,"ADDRESS":"復興路３０１號八樓之１","OBJECTID":227134},"geometry":{"x":178608.54000000097,"y":2578135.3500000034}},{"attributes":{"ID":227139,"DIS_CODE":0,"TOWNNAME":"佳里區","LI":"建南里","LIN":"16鄰","STREET":"建中街","SECT":" ","MAREA":" ","LANE":"１１７巷","ALLEY":" ","HOUSE_NO":"２號","E_COORD97":165555.10337699999,"N_COORD97":2562028.6377900001,"ADDRESS":"建中街１１７巷２號","OBJECTID":227135},"geometry":{"x":165555.10337700136,"y":2562028.6377900019}},{"attributes":{"ID":227140,"DIS_CODE":0,"TOWNNAME":"新營區","LI":"民榮里","LIN":"34鄰","STREET":"復興路","SECT":" ","MAREA":" ","LANE":" ","ALLEY":" ","HOUSE_NO":"３０１號十七樓之２","E_COORD97":178609.92000000001,"N_COORD97":2578135.3500000001,"ADDRESS":"復興路３０１號十七樓之２","OBJECTID":227136},"geometry":{"x":178609.91999999993,"y":2578135.3500000034}},{"attributes":{"ID":227141,"DIS_CODE":0,"TOWNNAME":"新營區","LI":"民榮里","LIN":"34鄰","STREET":"復興路","SECT":" ","MAREA":" ","LANE":" ","ALLEY":" ","HOUSE_NO":"３０１號三樓之６","E_COORD97":178608.64000000001,"N_COORD97":2578135.3500000001,"ADDRESS":"復興路３０１號三樓之６","OBJECTID":227137},"geometry":{"x":178608.64000000153,"y":2578135.3500000034}},{"attributes":{"ID":227142,"DIS_CODE":0,"TOWNNAME":"新營區","LI":"民榮里","LIN":"34鄰","STREET":"復興路","SECT":" ","MAREA":" ","LANE":" ","ALLEY":" ","HOUSE_NO":"３０１號四樓之２","E_COORD97":178608.67000000001,"N_COORD97":2578135.3500000001,"ADDRESS":"復興路３０１號四樓之２","OBJECTID":227138},"geometry":{"x":178608.67000000179,"y":2578135.3500000034}},{"attributes":{"ID":227143,"DIS_CODE":0,"TOWNNAME":"新營區","LI":"民榮里","LIN":"34鄰","STREET":"復興路","SECT":" ","MAREA":" ","LANE":" ","ALLEY":" ","HOUSE_NO":"３０１號七樓之１","E_COORD97":178608.54000000001,"N_COORD97":2578135.3500000001,"ADDRESS":"復興路３０１號七樓之１","OBJECTID":227139},"geometry":{"x":178608.54000000097,"y":2578135.3500000034}},{"attributes":{"ID":227144,"DIS_CODE":0,"TOWNNAME":"東區","LI":"東明里","LIN":"9鄰","STREET":"怡東路","SECT":" ","MAREA":" ","LANE":"８６巷","ALLEY":" ","HOUSE_NO":"３號","E_COORD97":170897.94,"N_COORD97":2543707.3300000001,"ADDRESS":"怡東路８６巷３號","OBJECTID":227140},"geometry":{"x":170897.94000000134,"y":2543707.3300000019}},{"attributes":{"ID":227145,"DIS_CODE":0,"TOWNNAME":"東區","LI":"崇德里","LIN":"18鄰","STREET":"崇明十三街","SECT":" ","MAREA":" ","LANE":"１１巷","ALLEY":" ","HOUSE_NO":"１６號","E_COORD97":170470.12,"N_COORD97":2541642.25,"ADDRESS":"崇明十三街１１巷１６號","OBJECTID":227141},"geometry":{"x":170470.12000000011,"y":2541642.2499999981}},{"attributes":{"ID":227146,"DIS_CODE":0,"TOWNNAME":"東區","LI":"小東里","LIN":"32鄰","STREET":"光明街","SECT":" ","MAREA":" ","LANE":"６６巷","ALLEY":" ","HOUSE_NO":"３１號","E_COORD97":170834.06,"N_COORD97":2544195.9900000002,"ADDRESS":"光明街６６巷３１號","OBJECTID":227142},"geometry":{"x":170834.06000000052,"y":2544195.9900000002}},{"attributes":{"ID":227147,"DIS_CODE":0,"TOWNNAME":"東區","LI":"小東里","LIN":"32鄰","STREET":"光明街","SECT":" ","MAREA":" ","LANE":"６６巷","ALLEY":" ","HOUSE_NO":"３３號","E_COORD97":170830.23999999999,"N_COORD97":2544196.1099999999,"ADDRESS":"光明街６６巷３３號","OBJECTID":227143},"geometry":{"x":170830.24000000022,"y":2544196.1100000013}},{"attributes":{"ID":227148,"DIS_CODE":0,"TOWNNAME":"東區","LI":"小東里","LIN":"32鄰","STREET":"光明街","SECT":" ","MAREA":" ","LANE":"６６巷","ALLEY":" ","HOUSE_NO":"３５號","E_COORD97":170824.51999999999,"N_COORD97":2544195.6299999999,"ADDRESS":"光明街６６巷３５號","OBJECTID":227144},"geometry":{"x":170824.51999999955,"y":2544195.6300000008}},{"attributes":{"ID":227149,"DIS_CODE":0,"TOWNNAME":"東區","LI":"小東里","LIN":"32鄰","STREET":"光明街","SECT":" ","MAREA":" ","LANE":"６６巷","ALLEY":" ","HOUSE_NO":"３７號","E_COORD97":170820.17000000001,"N_COORD97":2544195.54,"ADDRESS":"光明街６６巷３７號","OBJECTID":227145},"geometry":{"x":170820.16999999993,"y":2544195.5399999991}},{"attributes":{"ID":227150,"DIS_CODE":0,"TOWNNAME":"東區","LI":"小東里","LIN":"32鄰","STREET":"光明街","SECT":" ","MAREA":" ","LANE":"６６巷","ALLEY":" ","HOUSE_NO":"３９號","E_COORD97":170820.35000000001,"N_COORD97":2544176.2999999998,"ADDRESS":"光明街６６巷３９號","OBJECTID":227146},"geometry":{"x":170820.34999999963,"y":2544176.3000000026}},{"attributes":{"ID":227151,"DIS_CODE":0,"TOWNNAME":"東區","LI":"小東里","LIN":"33鄰","STREET":"東興路","SECT":" ","MAREA":" ","LANE":"２８４巷","ALLEY":" ","HOUSE_NO":"２號","E_COORD97":171076.89000000001,"N_COORD97":2544005.0899999999,"ADDRESS":"東興路２８４巷２號","OBJECTID":227147},"geometry":{"x":171076.89000000153,"y":2544005.0899999999}},{"attributes":{"ID":227152,"DIS_CODE":0,"TOWNNAME":"東區","LI":"小東里","LIN":"30鄰","STREET":"東平路","SECT":" ","MAREA":" ","LANE":"２５２巷","ALLEY":" ","HOUSE_NO":"１３號","E_COORD97":170717.57000000001,"N_COORD97":2544080.4300000002,"ADDRESS":"東平路２５２巷１３號","OBJECTID":227148},"geometry":{"x":170717.57000000123,"y":2544080.4299999997}},{"attributes":{"ID":227153,"DIS_CODE":0,"TOWNNAME":"東區","LI":"崇德里","LIN":"23鄰","STREET":"崇德路","SECT":" ","MAREA":" ","LANE":"５３０巷","ALLEY":" ","HOUSE_NO":"３４號","E_COORD97":170696.45000000001,"N_COORD97":2541528.2599999998,"ADDRESS":"崇德路５３０巷３４號","OBJECTID":227149},"geometry":{"x":170696.45000000019,"y":2541528.2600000016}},{"attributes":{"ID":227154,"DIS_CODE":0,"TOWNNAME":"東區","LI":"崇德里","LIN":"23鄰","STREET":"崇德路","SECT":" ","MAREA":" ","LANE":"５３０巷","ALLEY":" ","HOUSE_NO":"３６號","E_COORD97":170692.34,"N_COORD97":2541522.75,"ADDRESS":"崇德路５３０巷３６號","OBJECTID":227150},"geometry":{"x":170692.33999999985,"y":2541522.75}},{"attributes":{"ID":227155,"DIS_CODE":0,"TOWNNAME":"佳里區","LI":"鎮山里","LIN":"3鄰","STREET":"延平路","SECT":" ","MAREA":" ","LANE":"５９巷","ALLEY":" ","HOUSE_NO":"２５號","E_COORD97":165880.79999999999,"N_COORD97":2561685.4700000002,"ADDRESS":"延平路５９巷２５號","OBJECTID":227151},"geometry":{"x":165880.80000000075,"y":2561685.4699999988}},{"attributes":{"ID":227156,"DIS_CODE":0,"TOWNNAME":"安南區","LI":"佃西里","LIN":"3鄰","STREET":"公學路","SECT":"四段","MAREA":" ","LANE":"１２６巷","ALLEY":" ","HOUSE_NO":"５８號","E_COORD97":165401.64999999999,"N_COORD97":2551973.54,"ADDRESS":"公學路四段１２６巷５８號","OBJECTID":227152},"geometry":{"x":165401.65000000037,"y":2551973.5400000028}},{"attributes":{"ID":227157,"DIS_CODE":0,"TOWNNAME":"仁德區","LI":"後壁里","LIN":"39鄰","STREET":"德糖路","SECT":" ","MAREA":" ","LANE":"３５７巷","ALLEY":" ","HOUSE_NO":"５號","E_COORD97":173506.42999999999,"N_COORD97":2539121.8100000001,"ADDRESS":"德糖路３５７巷５號","OBJECTID":227153},"geometry":{"x":173506.43000000063,"y":2539121.8100000024}},{"attributes":{"ID":227158,"DIS_CODE":0,"TOWNNAME":"永康區","LI":"安康里","LIN":"34鄰","STREET":"四維街","SECT":" ","MAREA":" ","LANE":"１４９巷","ALLEY":" ","HOUSE_NO":"３４號之１","E_COORD97":173213.70618099999,"N_COORD97":2548356.4236400002,"ADDRESS":"四維街１４９巷３４號之１","OBJECTID":227154},"geometry":{"x":173213.70618100092,"y":2548356.4236420039}},{"attributes":{"ID":227159,"DIS_CODE":0,"TOWNNAME":"東區","LI":"成大里","LIN":"3鄰","STREET":"東寧路","SECT":"西段","MAREA":" ","LANE":"１８巷","ALLEY":" ","HOUSE_NO":"２４號","E_COORD97":169687.37,"N_COORD97":2543723.3799999999,"ADDRESS":"東寧路西段１８巷２４號","OBJECTID":227155},"geometry":{"x":169687.37000000197,"y":2543723.3800000008}},{"attributes":{"ID":227160,"DIS_CODE":0,"TOWNNAME":"東區","LI":"成大里","LIN":"3鄰","STREET":"東寧路","SECT":"西段","MAREA":" ","LANE":"１８巷","ALLEY":" ","HOUSE_NO":"２５號","E_COORD97":169709.03,"N_COORD97":2543740.3900000001,"ADDRESS":"東寧路西段１８巷２５號","OBJECTID":227156},"geometry":{"x":169709.03000000119,"y":2543740.3900000006}},{"attributes":{"ID":227161,"DIS_CODE":0,"TOWNNAME":"新營區","LI":"民榮里","LIN":"34鄰","STREET":"復興路","SECT":" ","MAREA":" ","LANE":" ","ALLEY":" ","HOUSE_NO":"３０１號十二樓之３","E_COORD97":178609.88,"N_COORD97":2578135.3500000001,"ADDRESS":"復興路３０１號十二樓之３","OBJECTID":227157},"geometry":{"x":178609.87999999989,"y":2578135.3500000034}},{"attributes":{"ID":227162,"DIS_CODE":0,"TOWNNAME":"新營區","LI":"民榮里","LIN":"34鄰","STREET":"復興路","SECT":" ","MAREA":" ","LANE":" ","ALLEY":" ","HOUSE_NO":"３０１號九樓之１","E_COORD97":178608.54000000001,"N_COORD97":2578135.3500000001,"ADDRESS":"復興路３０１號九樓之１","OBJECTID":227158},"geometry":{"x":178608.54000000097,"y":2578135.3500000034}},{"attributes":{"ID":227163,"DIS_CODE":0,"TOWNNAME":"新營區","LI":"民榮里","LIN":"34鄰","STREET":"復興路","SECT":" ","MAREA":" ","LANE":" ","ALLEY":" ","HOUSE_NO":"３０１號十六樓之６","E_COORD97":178609.89000000001,"N_COORD97":2578135.3500000001,"ADDRESS":"復興路３０１號十六樓之６","OBJECTID":227159},"geometry":{"x":178609.88999999966,"y":2578135.3500000034}},{"attributes":{"ID":227164,"DIS_CODE":0,"TOWNNAME":"新營區","LI":"民榮里","LIN":"34鄰","STREET":"復興路","SECT":" ","MAREA":" ","LANE":" ","ALLEY":" ","HOUSE_NO":"３０１號十五樓之１","E_COORD97":178609.79000000001,"N_COORD97":2578135.3500000001,"ADDRESS":"復興路３０１號十五樓之１","OBJECTID":227160},"geometry":{"x":178609.7900000019,"y":2578135.3500000034}},{"attributes":{"ID":227165,"DIS_CODE":0,"TOWNNAME":"新營區","LI":"民榮里","LIN":"34鄰","STREET":"復興路","SECT":" ","MAREA":" ","LANE":" ","ALLEY":" ","HOUSE_NO":"３０１號十樓之２","E_COORD97":178608.67000000001,"N_COORD97":2578135.3500000001,"ADDRESS":"復興路３０１號十樓之２","OBJECTID":227161},"geometry":{"x":178608.67000000179,"y":2578135.3500000034}},{"attributes":{"ID":227166,"DIS_CODE":0,"TOWNNAME":"新營區","LI":"民榮里","LIN":"34鄰","STREET":"復興路","SECT":" ","MAREA":" ","LANE":" ","ALLEY":" ","HOUSE_NO":"３０１號十五樓之４","E_COORD97":178609.81,"N_COORD97":2578135.3500000001,"ADDRESS":"復興路３０１號十五樓之４","OBJECTID":227162},"geometry":{"x":178609.81000000052,"y":2578135.3500000034}},{"attributes":{"ID":227167,"DIS_CODE":0,"TOWNNAME":"新營區","LI":"民榮里","LIN":"34鄰","STREET":"復興路","SECT":" ","MAREA":" ","LANE":" ","ALLEY":" ","HOUSE_NO":"３０１號五樓之６","E_COORD97":178608.64000000001,"N_COORD97":2578135.3500000001,"ADDRESS":"復興路３０１號五樓之６","OBJECTID":227163},"geometry":{"x":178608.64000000153,"y":2578135.3500000034}},{"attributes":{"ID":227168,"DIS_CODE":0,"TOWNNAME":"新營區","LI":"民榮里","LIN":"34鄰","STREET":"復興路","SECT":" ","MAREA":" ","LANE":" ","ALLEY":" ","HOUSE_NO":"３０１號九樓之６","E_COORD97":178608.64000000001,"N_COORD97":2578135.3500000001,"ADDRESS":"復興路３０１號九樓之６","OBJECTID":227164},"geometry":{"x":178608.64000000153,"y":2578135.3500000034}},{"attributes":{"ID":227169,"DIS_CODE":0,"TOWNNAME":"新營區","LI":"民榮里","LIN":"34鄰","STREET":"復興路","SECT":" ","MAREA":" ","LANE":" ","ALLEY":" ","HOUSE_NO":"３０１號七樓之３","E_COORD97":178608.63,"N_COORD97":2578135.3500000001,"ADDRESS":"復興路３０１號七樓之３","OBJECTID":227165},"geometry":{"x":178608.62999999989,"y":2578135.3500000034}},{"attributes":{"ID":227170,"DIS_CODE":0,"TOWNNAME":"新營區","LI":"民榮里","LIN":"34鄰","STREET":"復興路","SECT":" ","MAREA":" ","LANE":" ","ALLEY":" ","HOUSE_NO":"３０１號三樓之３","E_COORD97":178608.63,"N_COORD97":2578135.3500000001,"ADDRESS":"復興路３０１號三樓之３","OBJECTID":227166},"geometry":{"x":178608.62999999989,"y":2578135.3500000034}},{"attributes":{"ID":227171,"DIS_CODE":0,"TOWNNAME":"東區","LI":"後甲里","LIN":"29鄰","STREET":"裕農路","SECT":" ","MAREA":" ","LANE":"６６１巷","ALLEY":" ","HOUSE_NO":"２號四樓","E_COORD97":171750.38,"N_COORD97":2543258.23,"ADDRESS":"裕農路６６１巷２號四樓","OBJECTID":227167},"geometry":{"x":171750.38000000082,"y":2543258.2300000023}},{"attributes":{"ID":227172,"DIS_CODE":0,"TOWNNAME":"東區","LI":"後甲里","LIN":"29鄰","STREET":"裕農路","SECT":" ","MAREA":" ","LANE":"６６１巷","ALLEY":" ","HOUSE_NO":"２號二樓之１","E_COORD97":171750.38,"N_COORD97":2543258.23,"ADDRESS":"裕農路６６１巷２號二樓之１","OBJECTID":227168},"geometry":{"x":171750.38000000082,"y":2543258.2300000023}},{"attributes":{"ID":227173,"DIS_CODE":0,"TOWNNAME":"東區","LI":"後甲里","LIN":"29鄰","STREET":"裕農路","SECT":" ","MAREA":" ","LANE":"６６１巷","ALLEY":" ","HOUSE_NO":"２號三樓","E_COORD97":171750.38,"N_COORD97":2543258.23,"ADDRESS":"裕農路６６１巷２號三樓","OBJECTID":227169},"geometry":{"x":171750.38000000082,"y":2543258.2300000023}},{"attributes":{"ID":227174,"DIS_CODE":0,"TOWNNAME":"東區","LI":"後甲里","LIN":"29鄰","STREET":"裕農路","SECT":" ","MAREA":" ","LANE":"６６１巷","ALLEY":" ","HOUSE_NO":"２號三樓之１","E_COORD97":171750.38,"N_COORD97":2543258.23,"ADDRESS":"裕農路６６１巷２號三樓之１","OBJECTID":227170},"geometry":{"x":171750.38000000082,"y":2543258.2300000023}},{"attributes":{"ID":227175,"DIS_CODE":0,"TOWNNAME":"東區","LI":"後甲里","LIN":"29鄰","STREET":"裕農路","SECT":" ","MAREA":" ","LANE":"６６１巷","ALLEY":" ","HOUSE_NO":"２號五樓","E_COORD97":171750.38,"N_COORD97":2543258.23,"ADDRESS":"裕農路６６１巷２號五樓","OBJECTID":227171},"geometry":{"x":171750.38000000082,"y":2543258.2300000023}},{"attributes":{"ID":227176,"DIS_CODE":0,"TOWNNAME":"東區","LI":"後甲里","LIN":"29鄰","STREET":"裕農路","SECT":" ","MAREA":" ","LANE":"６６１巷","ALLEY":" ","HOUSE_NO":"２號五樓之１","E_COORD97":171750.38,"N_COORD97":2543258.23,"ADDRESS":"裕農路６６１巷２號五樓之１","OBJECTID":227172},"geometry":{"x":171750.38000000082,"y":2543258.2300000023}},{"attributes":{"ID":227177,"DIS_CODE":0,"TOWNNAME":"東區","LI":"後甲里","LIN":"29鄰","STREET":"裕農路","SECT":" ","MAREA":" ","LANE":"６６１巷","ALLEY":" ","HOUSE_NO":"２號四樓之１","E_COORD97":171750.38,"N_COORD97":2543258.23,"ADDRESS":"裕農路６６１巷２號四樓之１","OBJECTID":227173},"geometry":{"x":171750.38000000082,"y":2543258.2300000023}},{"attributes":{"ID":227178,"DIS_CODE":0,"TOWNNAME":"東區","LI":"成大里","LIN":"3鄰","STREET":"東寧路","SECT":"西段","MAREA":" ","LANE":"１８巷","ALLEY":" ","HOUSE_NO":"２６號","E_COORD97":169694.64000000001,"N_COORD97":2543731.54,"ADDRESS":"東寧路西段１８巷２６號","OBJECTID":227174},"geometry":{"x":169694.63999999966,"y":2543731.5400000028}},{"attributes":{"ID":227179,"DIS_CODE":0,"TOWNNAME":"東區","LI":"成大里","LIN":"3鄰","STREET":"東寧路","SECT":"西段","MAREA":" ","LANE":"１８巷","ALLEY":" ","HOUSE_NO":"２７號","E_COORD97":169715.23999999999,"N_COORD97":2543739.1800000002,"ADDRESS":"東寧路西段１８巷２７號","OBJECTID":227175},"geometry":{"x":169715.24000000022,"y":2543739.1800000016}},{"attributes":{"ID":227180,"DIS_CODE":0,"TOWNNAME":"安南區","LI":"安西里","LIN":"3鄰","STREET":"安和路","SECT":"一段","MAREA":" ","LANE":"２６３巷","ALLEY":" ","HOUSE_NO":"２２號","E_COORD97":169222.73000000001,"N_COORD97":2548027.0499999998,"ADDRESS":"安和路一段２６３巷２２號","OBJECTID":227176},"geometry":{"x":169222.73000000138,"y":2548027.0500000007}},{"attributes":{"ID":227181,"DIS_CODE":0,"TOWNNAME":"安南區","LI":"安西里","LIN":"3鄰","STREET":"安和路","SECT":"一段","MAREA":" ","LANE":"２６３巷","ALLEY":" ","HOUSE_NO":"２４號","E_COORD97":169217.64000000001,"N_COORD97":2548026.6600000001,"ADDRESS":"安和路一段２６３巷２４號","OBJECTID":227177},"geometry":{"x":169217.6400000006,"y":2548026.6600000001}},{"attributes":{"ID":227182,"DIS_CODE":0,"TOWNNAME":"安南區","LI":"安西里","LIN":"3鄰","STREET":"安和路","SECT":"一段","MAREA":" ","LANE":"２６３巷","ALLEY":" ","HOUSE_NO":"２６號","E_COORD97":169212.533107,"N_COORD97":2548018.8384400001,"ADDRESS":"安和路一段２６３巷２６號","OBJECTID":227178},"geometry":{"x":169212.53310700227,"y":2548018.8384360019}},{"attributes":{"ID":227183,"DIS_CODE":0,"TOWNNAME":"安南區","LI":"安西里","LIN":"3鄰","STREET":"安和路","SECT":"一段","MAREA":" ","LANE":"２６３巷","ALLEY":" ","HOUSE_NO":"３０號","E_COORD97":169199.81458999999,"N_COORD97":2548015.6634399998,"ADDRESS":"安和路一段２６３巷３０號","OBJECTID":227179},"geometry":{"x":169199.81459000055,"y":2548015.6634369995}},{"attributes":{"ID":227184,"DIS_CODE":0,"TOWNNAME":"安南區","LI":"新順里","LIN":"3鄰","STREET":"安和路","SECT":"二段","MAREA":" ","LANE":"３１８巷","ALLEY":" ","HOUSE_NO":"３１號","E_COORD97":169839.19,"N_COORD97":2549292.1099999999,"ADDRESS":"安和路二段３１８巷３１號","OBJECTID":227180},"geometry":{"x":169839.19000000041,"y":2549292.1100000013}},{"attributes":{"ID":227185,"DIS_CODE":0,"TOWNNAME":"安南區","LI":"新順里","LIN":"3鄰","STREET":"安和路","SECT":"二段","MAREA":" ","LANE":"３１８巷","ALLEY":" ","HOUSE_NO":"３３號","E_COORD97":169843.26999999999,"N_COORD97":2549294.98,"ADDRESS":"安和路二段３１８巷３３號","OBJECTID":227181},"geometry":{"x":169843.26999999955,"y":2549294.9800000023}},{"attributes":{"ID":227186,"DIS_CODE":0,"TOWNNAME":"安南區","LI":"新順里","LIN":"3鄰","STREET":"安和路","SECT":"二段","MAREA":" ","LANE":"３１８巷","ALLEY":" ","HOUSE_NO":"３７號","E_COORD97":169853.82000000001,"N_COORD97":2549290.9100000001,"ADDRESS":"安和路二段３１８巷３７號","OBJECTID":227182},"geometry":{"x":169853.8200000003,"y":2549290.910000002}},{"attributes":{"ID":227187,"DIS_CODE":0,"TOWNNAME":"安南區","LI":"新順里","LIN":"3鄰","STREET":"安和路","SECT":"二段","MAREA":" ","LANE":"３１８巷","ALLEY":" ","HOUSE_NO":"４１號","E_COORD97":169861.25,"N_COORD97":2549290.4300000002,"ADDRESS":"安和路二段３１８巷４１號","OBJECTID":227183},"geometry":{"x":169861.25000000093,"y":2549290.4300000016}},{"attributes":{"ID":227188,"DIS_CODE":0,"TOWNNAME":"安南區","LI":"新順里","LIN":"3鄰","STREET":"安和路","SECT":"二段","MAREA":" ","LANE":"３１８巷","ALLEY":" ","HOUSE_NO":"３９號","E_COORD97":169857.41,"N_COORD97":2549293.0699999998,"ADDRESS":"安和路二段３１８巷３９號","OBJECTID":227184},"geometry":{"x":169857.41000000108,"y":2549293.0700000022}},{"attributes":{"ID":227189,"DIS_CODE":0,"TOWNNAME":"安南區","LI":"新順里","LIN":"3鄰","STREET":"安和路","SECT":"二段","MAREA":" ","LANE":"３１８巷","ALLEY":" ","HOUSE_NO":"２９號","E_COORD97":169835.12,"N_COORD97":2549294.2599999998,"ADDRESS":"安和路二段３１８巷２９號","OBJECTID":227185},"geometry":{"x":169835.12000000104,"y":2549294.2600000035}},{"attributes":{"ID":227190,"DIS_CODE":0,"TOWNNAME":"安南區","LI":"州北里","LIN":"3鄰","STREET":"安和路","SECT":"五段","MAREA":" ","LANE":"１７１巷","ALLEY":" ","HOUSE_NO":"１３５號","E_COORD97":169635.70000000001,"N_COORD97":2551666.5899999999,"ADDRESS":"安和路五段１７１巷１３５號","OBJECTID":227186},"geometry":{"x":169635.70000000019,"y":2551666.5900000017}},{"attributes":{"ID":227191,"DIS_CODE":0,"TOWNNAME":"安平區","LI":"文平里","LIN":"3鄰","STREET":"中華西路","SECT":"二段","MAREA":" ","LANE":"４９巷","ALLEY":" ","HOUSE_NO":"２６號","E_COORD97":166542.25,"N_COORD97":2543151.5600000001,"ADDRESS":"中華西路二段４９巷２６號","OBJECTID":227187},"geometry":{"x":166542.25000000093,"y":2543151.5600000005}},{"attributes":{"ID":227192,"DIS_CODE":0,"TOWNNAME":"安平區","LI":"文平里","LIN":"3鄰","STREET":"中華西路","SECT":"二段","MAREA":" ","LANE":"４９巷","ALLEY":" ","HOUSE_NO":"２８號","E_COORD97":166534.252366,"N_COORD97":2543151.1104700002,"ADDRESS":"中華西路二段４９巷２８號","OBJECTID":227188},"geometry":{"x":166534.25236599892,"y":2543151.1104720011}},{"attributes":{"ID":227193,"DIS_CODE":0,"TOWNNAME":"永康區","LI":"\u25A0行里","LIN":"10鄰","STREET":"新中街","SECT":" ","MAREA":" ","LANE":"３１巷","ALLEY":" ","HOUSE_NO":"８號","E_COORD97":172029.34,"N_COORD97":2548470.4500000002,"ADDRESS":"新中街３１巷８號","OBJECTID":227189},"geometry":{"x":172029.33999999985,"y":2548470.4499999993}},{"attributes":{"ID":227194,"DIS_CODE":0,"TOWNNAME":"永康區","LI":"\u25A0行里","LIN":"10鄰","STREET":"新中街","SECT":" ","MAREA":" ","LANE":"３１巷","ALLEY":" ","HOUSE_NO":"１０號","E_COORD97":172033.81,"N_COORD97":2548471.2799999998,"ADDRESS":"新中街３１巷１０號","OBJECTID":227190},"geometry":{"x":172033.81000000052,"y":2548471.2800000012}},{"attributes":{"ID":227195,"DIS_CODE":0,"TOWNNAME":"新營區","LI":"民榮里","LIN":"34鄰","STREET":"復興路","SECT":" ","MAREA":" ","LANE":" ","ALLEY":" ","HOUSE_NO":"３０１號四樓之３","E_COORD97":178606.53,"N_COORD97":2578125.3900000001,"ADDRESS":"復興路３０１號四樓之３","OBJECTID":227191},"geometry":{"x":178606.53000000212,"y":2578125.3900000006}},{"attributes":{"ID":227196,"DIS_CODE":0,"TOWNNAME":"新營區","LI":"民榮里","LIN":"34鄰","STREET":"復興路","SECT":" ","MAREA":" ","LANE":" ","ALLEY":" ","HOUSE_NO":"３０１號十六樓之５","E_COORD97":178609.94,"N_COORD97":2578135.3500000001,"ADDRESS":"復興路３０１號十六樓之５","OBJECTID":227192},"geometry":{"x":178609.94000000041,"y":2578135.3500000034}},{"attributes":{"ID":227197,"DIS_CODE":0,"TOWNNAME":"新營區","LI":"民榮里","LIN":"34鄰","STREET":"復興路","SECT":" ","MAREA":" ","LANE":" ","ALLEY":" ","HOUSE_NO":"３０１號十七樓之５","E_COORD97":178609.94,"N_COORD97":2578135.3500000001,"ADDRESS":"復興路３０１號十七樓之５","OBJECTID":227193},"geometry":{"x":178609.94000000041,"y":2578135.3500000034}},{"attributes":{"ID":227198,"DIS_CODE":0,"TOWNNAME":"歸仁區","LI":"辜厝里","LIN":"34鄰","STREET":"大吉街","SECT":" ","MAREA":" ","LANE":" ","ALLEY":" ","HOUSE_NO":"１４１號","E_COORD97":177212.84,"N_COORD97":2540487.6800000002,"ADDRESS":"大吉街１４１號","OBJECTID":227194},"geometry":{"x":177212.84000000078,"y":2540487.6800000016}},{"attributes":{"ID":227199,"DIS_CODE":0,"TOWNNAME":"新營區","LI":"民榮里","LIN":"34鄰","STREET":"復興路","SECT":" ","MAREA":" ","LANE":" ","ALLEY":" ","HOUSE_NO":"３０１號十一樓之５","E_COORD97":178609.94,"N_COORD97":2578135.3500000001,"ADDRESS":"復興路３０１號十一樓之５","OBJECTID":227195},"geometry":{"x":178609.94000000041,"y":2578135.3500000034}},{"attributes":{"ID":227200,"DIS_CODE":0,"TOWNNAME":"新營區","LI":"民榮里","LIN":"34鄰","STREET":"復興路","SECT":" ","MAREA":" ","LANE":" ","ALLEY":" ","HOUSE_NO":"３０１號十六樓之３","E_COORD97":178609.88,"N_COORD97":2578135.3500000001,"ADDRESS":"復興路３０１號十六樓之３","OBJECTID":227196},"geometry":{"x":178609.87999999989,"y":2578135.3500000034}},{"attributes":{"ID":227201,"DIS_CODE":0,"TOWNNAME":"新營區","LI":"民榮里","LIN":"34鄰","STREET":"復興路","SECT":" ","MAREA":" ","LANE":" ","ALLEY":" ","HOUSE_NO":"３０１號十四樓之５","E_COORD97":178609.94,"N_COORD97":2578135.3500000001,"ADDRESS":"復興路３０１號十四樓之５","OBJECTID":227197},"geometry":{"x":178609.94000000041,"y":2578135.3500000034}},{"attributes":{"ID":227202,"DIS_CODE":0,"TOWNNAME":"永康區","LI":"三民里","LIN":"12鄰","STREET":"正北一路","SECT":" ","MAREA":" ","LANE":"１６０巷","ALLEY":" ","HOUSE_NO":"１１號","E_COORD97":174160.45999999999,"N_COORD97":2550201.6200000001,"ADDRESS":"正北一路１６０巷１１號","OBJECTID":227198},"geometry":{"x":174160.46000000089,"y":2550201.6199999992}},{"attributes":{"ID":227203,"DIS_CODE":0,"TOWNNAME":"永康區","LI":"\u25A0行里","LIN":"10鄰","STREET":"新中街","SECT":" ","MAREA":" ","LANE":"３１巷","ALLEY":" ","HOUSE_NO":"３８號","E_COORD97":172074.82000000001,"N_COORD97":2548498.21,"ADDRESS":"新中街３１巷３８號","OBJECTID":227199},"geometry":{"x":172074.82000000216,"y":2548498.2100000009}},{"attributes":{"ID":227204,"DIS_CODE":0,"TOWNNAME":"永康區","LI":"\u25A0行里","LIN":"10鄰","STREET":"新中街","SECT":" ","MAREA":" ","LANE":"３１巷","ALLEY":" ","HOUSE_NO":"４０號","E_COORD97":172081.31,"N_COORD97":2548498.8199999998,"ADDRESS":"新中街３１巷４０號","OBJECTID":227200},"geometry":{"x":172081.31000000052,"y":2548498.8200000022}}]}