{"displayFieldName":"TOWNNAME","fieldAliases":{"ID":"ID","DIS_CODE":"DIS_CODE","TOWNNAME":"TOWNNAME","LI":"LI","LIN":"LIN","STREET":"STREET","SECT":"SECT","MAREA":"MAREA","LANE":"LANE","ALLEY":"ALLEY","HOUSE_NO":"HOUSE_NO","E_COORD97":"E_COORD97","N_COORD97":"N_COORD97","ADDRESS":"ADDRESS","OBJECTID":"OBJECTID"},"geometryType":"esriGeometryPoint","spatialReference":{"wkid":102443,"latestWkid":3826},"fields":[{"name":"ID","type":"esriFieldTypeDouble","alias":"ID"},{"name":"DIS_CODE","type":"esriFieldTypeInteger","alias":"DIS_CODE"},{"name":"TOWNNAME","type":"esriFieldTypeString","alias":"TOWNNAME","length":8},{"name":"LI","type":"esriFieldTypeString","alias":"LI","length":8},{"name":"LIN","type":"esriFieldTypeString","alias":"LIN","length":12},{"name":"STREET","type":"esriFieldTypeString","alias":"STREET","length":20},{"name":"SECT","type":"esriFieldTypeString","alias":"SECT","length":8},{"name":"MAREA","type":"esriFieldTypeString","alias":"MAREA","length":12},{"name":"LANE","type":"esriFieldTypeString","alias":"LANE","length":10},{"name":"ALLEY","type":"esriFieldTypeString","alias":"ALLEY","length":10},{"name":"HOUSE_NO","type":"esriFieldTypeString","alias":"HOUSE_NO","length":20},{"name":"E_COORD97","type":"esriFieldTypeDouble","alias":"E_COORD97"},{"name":"N_COORD97","type":"esriFieldTypeDouble","alias":"N_COORD97"},{"name":"ADDRESS","type":"esriFieldTypeString","alias":"ADDRESS","length":50},{"name":"OBJECTID","type":"esriFieldTypeOID","alias":"OBJECTID"}],"features":[{"attributes":{"ID":294609,"DIS_CODE":0,"TOWNNAME":"北區","LI":"大道里","LIN":"17鄰","STREET":"北門路","SECT":"二段","MAREA":" ","LANE":"５２７巷","ALLEY":" ","HOUSE_NO":"１０號十樓之５","E_COORD97":169577.42999999999,"N_COORD97":2545660.8900000001,"ADDRESS":"北門路二段５２７巷１０號十樓之５","OBJECTID":294601},"geometry":{"x":169577.4299999997,"y":2545660.8900000025}},{"attributes":{"ID":294610,"DIS_CODE":0,"TOWNNAME":"北區","LI":"大道里","LIN":"17鄰","STREET":"北門路","SECT":"二段","MAREA":" ","LANE":"５２７巷","ALLEY":" ","HOUSE_NO":"１０號十樓之３","E_COORD97":169577.42999999999,"N_COORD97":2545660.8900000001,"ADDRESS":"北門路二段５２７巷１０號十樓之３","OBJECTID":294602},"geometry":{"x":169577.4299999997,"y":2545660.8900000025}},{"attributes":{"ID":294611,"DIS_CODE":0,"TOWNNAME":"北區","LI":"大道里","LIN":"17鄰","STREET":"北門路","SECT":"二段","MAREA":" ","LANE":"５２７巷","ALLEY":" ","HOUSE_NO":"１０號十樓之２","E_COORD97":169577.42999999999,"N_COORD97":2545660.8900000001,"ADDRESS":"北門路二段５２７巷１０號十樓之２","OBJECTID":294603},"geometry":{"x":169577.4299999997,"y":2545660.8900000025}},{"attributes":{"ID":294612,"DIS_CODE":0,"TOWNNAME":"北區","LI":"大道里","LIN":"17鄰","STREET":"北門路","SECT":"二段","MAREA":" ","LANE":"５２７巷","ALLEY":" ","HOUSE_NO":"１０號十樓之１","E_COORD97":169577.42999999999,"N_COORD97":2545660.8900000001,"ADDRESS":"北門路二段５２７巷１０號十樓之１","OBJECTID":294604},"geometry":{"x":169577.4299999997,"y":2545660.8900000025}},{"attributes":{"ID":294613,"DIS_CODE":0,"TOWNNAME":"北區","LI":"大道里","LIN":"17鄰","STREET":"北門路","SECT":"二段","MAREA":" ","LANE":"５２７巷","ALLEY":" ","HOUSE_NO":"１２號二樓之２","E_COORD97":169554.03,"N_COORD97":2545666.1800000002,"ADDRESS":"北門路二段５２７巷１２號二樓之２","OBJECTID":294605},"geometry":{"x":169554.03000000026,"y":2545666.1799999997}},{"attributes":{"ID":294614,"DIS_CODE":0,"TOWNNAME":"北區","LI":"大道里","LIN":"17鄰","STREET":"北門路","SECT":"二段","MAREA":" ","LANE":"５２７巷","ALLEY":" ","HOUSE_NO":"１２號二樓之１","E_COORD97":169554.03,"N_COORD97":2545666.1800000002,"ADDRESS":"北門路二段５２７巷１２號二樓之１","OBJECTID":294606},"geometry":{"x":169554.03000000026,"y":2545666.1799999997}},{"attributes":{"ID":294615,"DIS_CODE":0,"TOWNNAME":"北區","LI":"大道里","LIN":"17鄰","STREET":"北門路","SECT":"二段","MAREA":" ","LANE":"５２７巷","ALLEY":" ","HOUSE_NO":"１２號三樓之５","E_COORD97":169554.03,"N_COORD97":2545666.1800000002,"ADDRESS":"北門路二段５２７巷１２號三樓之５","OBJECTID":294607},"geometry":{"x":169554.03000000026,"y":2545666.1799999997}},{"attributes":{"ID":294616,"DIS_CODE":0,"TOWNNAME":"北區","LI":"大道里","LIN":"17鄰","STREET":"北門路","SECT":"二段","MAREA":" ","LANE":"５２７巷","ALLEY":" ","HOUSE_NO":"１２號三樓之３","E_COORD97":169554.03,"N_COORD97":2545666.1800000002,"ADDRESS":"北門路二段５２７巷１２號三樓之３","OBJECTID":294608},"geometry":{"x":169554.03000000026,"y":2545666.1799999997}},{"attributes":{"ID":294617,"DIS_CODE":0,"TOWNNAME":"北區","LI":"大道里","LIN":"17鄰","STREET":"北門路","SECT":"二段","MAREA":" ","LANE":"５２７巷","ALLEY":" ","HOUSE_NO":"１２號三樓之２","E_COORD97":169554.03,"N_COORD97":2545666.1800000002,"ADDRESS":"北門路二段５２７巷１２號三樓之２","OBJECTID":294609},"geometry":{"x":169554.03000000026,"y":2545666.1799999997}},{"attributes":{"ID":294618,"DIS_CODE":0,"TOWNNAME":"北區","LI":"大道里","LIN":"17鄰","STREET":"北門路","SECT":"二段","MAREA":" ","LANE":"５２７巷","ALLEY":" ","HOUSE_NO":"１２號三樓之１","E_COORD97":169554.03,"N_COORD97":2545666.1800000002,"ADDRESS":"北門路二段５２７巷１２號三樓之１","OBJECTID":294610},"geometry":{"x":169554.03000000026,"y":2545666.1799999997}},{"attributes":{"ID":294619,"DIS_CODE":0,"TOWNNAME":"北區","LI":"大道里","LIN":"17鄰","STREET":"北門路","SECT":"二段","MAREA":" ","LANE":"５２７巷","ALLEY":" ","HOUSE_NO":"１２號四樓之５","E_COORD97":169554.03,"N_COORD97":2545666.1800000002,"ADDRESS":"北門路二段５２７巷１２號四樓之５","OBJECTID":294611},"geometry":{"x":169554.03000000026,"y":2545666.1799999997}},{"attributes":{"ID":294620,"DIS_CODE":0,"TOWNNAME":"北區","LI":"大道里","LIN":"17鄰","STREET":"北門路","SECT":"二段","MAREA":" ","LANE":"５２７巷","ALLEY":" ","HOUSE_NO":"１２號四樓之３","E_COORD97":169554.03,"N_COORD97":2545666.1800000002,"ADDRESS":"北門路二段５２７巷１２號四樓之３","OBJECTID":294612},"geometry":{"x":169554.03000000026,"y":2545666.1799999997}},{"attributes":{"ID":294621,"DIS_CODE":0,"TOWNNAME":"七股區","LI":"七股里","LIN":"4鄰","STREET":" ","SECT":" ","MAREA":"七股","LANE":" ","ALLEY":" ","HOUSE_NO":"３７號","E_COORD97":160928.5,"N_COORD97":2559419.9300000002,"ADDRESS":"七股３７號","OBJECTID":294613},"geometry":{"x":160928.5,"y":2559419.9299999978}},{"attributes":{"ID":294622,"DIS_CODE":0,"TOWNNAME":"北區","LI":"大道里","LIN":"17鄰","STREET":"北門路","SECT":"二段","MAREA":" ","LANE":"５２７巷","ALLEY":" ","HOUSE_NO":"１２號四樓之２","E_COORD97":169554.03,"N_COORD97":2545666.1800000002,"ADDRESS":"北門路二段５２７巷１２號四樓之２","OBJECTID":294614},"geometry":{"x":169554.03000000026,"y":2545666.1799999997}},{"attributes":{"ID":294623,"DIS_CODE":0,"TOWNNAME":"北區","LI":"大道里","LIN":"17鄰","STREET":"北門路","SECT":"二段","MAREA":" ","LANE":"５２７巷","ALLEY":" ","HOUSE_NO":"１２號四樓之１","E_COORD97":169554.03,"N_COORD97":2545666.1800000002,"ADDRESS":"北門路二段５２７巷１２號四樓之１","OBJECTID":294615},"geometry":{"x":169554.03000000026,"y":2545666.1799999997}},{"attributes":{"ID":294624,"DIS_CODE":0,"TOWNNAME":"北區","LI":"大道里","LIN":"17鄰","STREET":"北門路","SECT":"二段","MAREA":" ","LANE":"５２７巷","ALLEY":" ","HOUSE_NO":"１２號五樓之５","E_COORD97":169554.03,"N_COORD97":2545666.1800000002,"ADDRESS":"北門路二段５２７巷１２號五樓之５","OBJECTID":294616},"geometry":{"x":169554.03000000026,"y":2545666.1799999997}},{"attributes":{"ID":294625,"DIS_CODE":0,"TOWNNAME":"北區","LI":"大道里","LIN":"17鄰","STREET":"北門路","SECT":"二段","MAREA":" ","LANE":"５２７巷","ALLEY":" ","HOUSE_NO":"１２號五樓之３","E_COORD97":169554.03,"N_COORD97":2545666.1800000002,"ADDRESS":"北門路二段５２７巷１２號五樓之３","OBJECTID":294617},"geometry":{"x":169554.03000000026,"y":2545666.1799999997}},{"attributes":{"ID":294626,"DIS_CODE":0,"TOWNNAME":"北區","LI":"大道里","LIN":"17鄰","STREET":"北門路","SECT":"二段","MAREA":" ","LANE":"５２７巷","ALLEY":" ","HOUSE_NO":"１２號五樓之２","E_COORD97":169554.03,"N_COORD97":2545666.1800000002,"ADDRESS":"北門路二段５２７巷１２號五樓之２","OBJECTID":294618},"geometry":{"x":169554.03000000026,"y":2545666.1799999997}},{"attributes":{"ID":294627,"DIS_CODE":0,"TOWNNAME":"北區","LI":"大道里","LIN":"17鄰","STREET":"北門路","SECT":"二段","MAREA":" ","LANE":"５２７巷","ALLEY":" ","HOUSE_NO":"１２號五樓之１","E_COORD97":169554.03,"N_COORD97":2545666.1800000002,"ADDRESS":"北門路二段５２７巷１２號五樓之１","OBJECTID":294619},"geometry":{"x":169554.03000000026,"y":2545666.1799999997}},{"attributes":{"ID":294628,"DIS_CODE":0,"TOWNNAME":"北區","LI":"大道里","LIN":"17鄰","STREET":"北門路","SECT":"二段","MAREA":" ","LANE":"５２７巷","ALLEY":" ","HOUSE_NO":"１２號七樓之５","E_COORD97":169554.03,"N_COORD97":2545666.1800000002,"ADDRESS":"北門路二段５２７巷１２號七樓之５","OBJECTID":294620},"geometry":{"x":169554.03000000026,"y":2545666.1799999997}},{"attributes":{"ID":294629,"DIS_CODE":0,"TOWNNAME":"北區","LI":"大道里","LIN":"17鄰","STREET":"北門路","SECT":"二段","MAREA":" ","LANE":"５２７巷","ALLEY":" ","HOUSE_NO":"１２號七樓之３","E_COORD97":169554.03,"N_COORD97":2545666.1800000002,"ADDRESS":"北門路二段５２７巷１２號七樓之３","OBJECTID":294621},"geometry":{"x":169554.03000000026,"y":2545666.1799999997}},{"attributes":{"ID":294630,"DIS_CODE":0,"TOWNNAME":"北區","LI":"大道里","LIN":"17鄰","STREET":"北門路","SECT":"二段","MAREA":" ","LANE":"５２７巷","ALLEY":" ","HOUSE_NO":"１２號七樓之２","E_COORD97":169554.03,"N_COORD97":2545666.1800000002,"ADDRESS":"北門路二段５２７巷１２號七樓之２","OBJECTID":294622},"geometry":{"x":169554.03000000026,"y":2545666.1799999997}},{"attributes":{"ID":294631,"DIS_CODE":0,"TOWNNAME":"佳里區","LI":"鎮山里","LIN":"1鄰","STREET":"四安街","SECT":" ","MAREA":" ","LANE":" ","ALLEY":" ","HOUSE_NO":"２６號","E_COORD97":165858.87,"N_COORD97":2561862.6400000001,"ADDRESS":"四安街２６號","OBJECTID":294623},"geometry":{"x":165858.87000000011,"y":2561862.6400000006}},{"attributes":{"ID":294632,"DIS_CODE":0,"TOWNNAME":"七股區","LI":"十份里","LIN":"4鄰","STREET":" ","SECT":" ","MAREA":"十份","LANE":" ","ALLEY":" ","HOUSE_NO":"４１號","E_COORD97":158560,"N_COORD97":2554866.6099999999,"ADDRESS":"十份４１號","OBJECTID":294624},"geometry":{"x":158560.00000000093,"y":2554866.6100000013}},{"attributes":{"ID":294633,"DIS_CODE":0,"TOWNNAME":"東區","LI":"自強里","LIN":"19鄰","STREET":"中華東路","SECT":"二段","MAREA":" ","LANE":"２４３巷","ALLEY":" ","HOUSE_NO":"１１號","E_COORD97":171285.95999999999,"N_COORD97":2542601.02,"ADDRESS":"中華東路二段２４３巷１１號","OBJECTID":294625},"geometry":{"x":171285.96000000089,"y":2542601.0200000014}},{"attributes":{"ID":294634,"DIS_CODE":0,"TOWNNAME":"北區","LI":"大道里","LIN":"17鄰","STREET":"北門路","SECT":"二段","MAREA":" ","LANE":"５２７巷","ALLEY":" ","HOUSE_NO":"１２號七樓之１","E_COORD97":169554.03,"N_COORD97":2545666.1800000002,"ADDRESS":"北門路二段５２７巷１２號七樓之１","OBJECTID":294626},"geometry":{"x":169554.03000000026,"y":2545666.1799999997}},{"attributes":{"ID":294635,"DIS_CODE":0,"TOWNNAME":"北區","LI":"大道里","LIN":"17鄰","STREET":"北門路","SECT":"二段","MAREA":" ","LANE":"５２７巷","ALLEY":" ","HOUSE_NO":"１２號八樓之５","E_COORD97":169554.03,"N_COORD97":2545666.1800000002,"ADDRESS":"北門路二段５２７巷１２號八樓之５","OBJECTID":294627},"geometry":{"x":169554.03000000026,"y":2545666.1799999997}},{"attributes":{"ID":294636,"DIS_CODE":0,"TOWNNAME":"北區","LI":"大道里","LIN":"17鄰","STREET":"北門路","SECT":"二段","MAREA":" ","LANE":"５２７巷","ALLEY":" ","HOUSE_NO":"１２號八樓之３","E_COORD97":169554.03,"N_COORD97":2545666.1800000002,"ADDRESS":"北門路二段５２７巷１２號八樓之３","OBJECTID":294628},"geometry":{"x":169554.03000000026,"y":2545666.1799999997}},{"attributes":{"ID":294637,"DIS_CODE":0,"TOWNNAME":"北區","LI":"大道里","LIN":"17鄰","STREET":"北門路","SECT":"二段","MAREA":" ","LANE":"５２７巷","ALLEY":" ","HOUSE_NO":"１２號八樓之２","E_COORD97":169554.03,"N_COORD97":2545666.1800000002,"ADDRESS":"北門路二段５２７巷１２號八樓之２","OBJECTID":294629},"geometry":{"x":169554.03000000026,"y":2545666.1799999997}},{"attributes":{"ID":294638,"DIS_CODE":0,"TOWNNAME":"北區","LI":"大道里","LIN":"17鄰","STREET":"北門路","SECT":"二段","MAREA":" ","LANE":"５２７巷","ALLEY":" ","HOUSE_NO":"１２號八樓之１","E_COORD97":169554.03,"N_COORD97":2545666.1800000002,"ADDRESS":"北門路二段５２７巷１２號八樓之１","OBJECTID":294630},"geometry":{"x":169554.03000000026,"y":2545666.1799999997}},{"attributes":{"ID":294639,"DIS_CODE":0,"TOWNNAME":"歸仁區","LI":"武東里","LIN":"14鄰","STREET":"中正南路","SECT":"二段","MAREA":" ","LANE":" ","ALLEY":" ","HOUSE_NO":"７６號","E_COORD97":175772.45000000001,"N_COORD97":2536323.1600000001,"ADDRESS":"中正南路二段７６號","OBJECTID":294631},"geometry":{"x":175772.45000000019,"y":2536323.1600000001}},{"attributes":{"ID":294640,"DIS_CODE":0,"TOWNNAME":"佳里區","LI":"六安里","LIN":"12鄰","STREET":" ","SECT":" ","MAREA":"六安","LANE":" ","ALLEY":" ","HOUSE_NO":"９２號之２","E_COORD97":165980.59,"N_COORD97":2563357.6600000001,"ADDRESS":"六安９２號之２","OBJECTID":294632},"geometry":{"x":165980.59000000078,"y":2563357.6600000001}},{"attributes":{"ID":294641,"DIS_CODE":0,"TOWNNAME":"佳里區","LI":"六安里","LIN":"12鄰","STREET":" ","SECT":" ","MAREA":"六安","LANE":" ","ALLEY":" ","HOUSE_NO":"９２號之３","E_COORD97":165985.91,"N_COORD97":2563357.1899999999,"ADDRESS":"六安９２號之３","OBJECTID":294633},"geometry":{"x":165985.91000000015,"y":2563357.1899999995}},{"attributes":{"ID":294642,"DIS_CODE":0,"TOWNNAME":"佳里區","LI":"六安里","LIN":"12鄰","STREET":" ","SECT":" ","MAREA":"六安","LANE":" ","ALLEY":" ","HOUSE_NO":"９２號之４","E_COORD97":165990.59,"N_COORD97":2563356.1400000001,"ADDRESS":"六安９２號之４","OBJECTID":294634},"geometry":{"x":165990.59000000078,"y":2563356.1400000043}},{"attributes":{"ID":294643,"DIS_CODE":0,"TOWNNAME":"佳里區","LI":"六安里","LIN":"12鄰","STREET":" ","SECT":" ","MAREA":"六安","LANE":" ","ALLEY":" ","HOUSE_NO":"９２號之５","E_COORD97":165994.95999999999,"N_COORD97":2563355.5099999998,"ADDRESS":"六安９２號之５","OBJECTID":294635},"geometry":{"x":165994.96000000089,"y":2563355.5099999998}},{"attributes":{"ID":294644,"DIS_CODE":0,"TOWNNAME":"佳里區","LI":"六安里","LIN":"12鄰","STREET":" ","SECT":" ","MAREA":"六安","LANE":" ","ALLEY":" ","HOUSE_NO":"９２號之６","E_COORD97":166000.67999999999,"N_COORD97":2563353.98,"ADDRESS":"六安９２號之６","OBJECTID":294636},"geometry":{"x":166000.6799999997,"y":2563353.9800000023}},{"attributes":{"ID":294645,"DIS_CODE":0,"TOWNNAME":"佳里區","LI":"六安里","LIN":"12鄰","STREET":" ","SECT":" ","MAREA":"六安","LANE":" ","ALLEY":" ","HOUSE_NO":"９３號之４","E_COORD97":165993.81,"N_COORD97":2563371.8599999999,"ADDRESS":"六安９３號之４","OBJECTID":294637},"geometry":{"x":165993.81000000052,"y":2563371.8599999994}},{"attributes":{"ID":294646,"DIS_CODE":0,"TOWNNAME":"佳里區","LI":"六安里","LIN":"12鄰","STREET":" ","SECT":" ","MAREA":"六安","LANE":" ","ALLEY":" ","HOUSE_NO":"９３號之５","E_COORD97":165998.57999999999,"N_COORD97":2563370.9399999999,"ADDRESS":"六安９３號之５","OBJECTID":294638},"geometry":{"x":165998.58000000007,"y":2563370.9400000013}},{"attributes":{"ID":294647,"DIS_CODE":0,"TOWNNAME":"新營區","LI":"大宏里","LIN":"19鄰","STREET":"三民路","SECT":" ","MAREA":" ","LANE":" ","ALLEY":" ","HOUSE_NO":"３６號之３１","E_COORD97":180423.68158,"N_COORD97":2578511.9711000002,"ADDRESS":"三民路３６號之３１","OBJECTID":294639},"geometry":{"x":180423.68158000056,"y":2578511.9711000007}},{"attributes":{"ID":294648,"DIS_CODE":0,"TOWNNAME":"佳里區","LI":"建南里","LIN":"25鄰","STREET":"公園路","SECT":" ","MAREA":" ","LANE":"１２８巷","ALLEY":" ","HOUSE_NO":"１０號","E_COORD97":165365.54000000001,"N_COORD97":2561762.6699999999,"ADDRESS":"公園路１２８巷１０號","OBJECTID":294640},"geometry":{"x":165365.54000000097,"y":2561762.6700000018}},{"attributes":{"ID":294649,"DIS_CODE":0,"TOWNNAME":"佳里區","LI":"建南里","LIN":"15鄰","STREET":"公園路","SECT":" ","MAREA":" ","LANE":"２６０巷","ALLEY":" ","HOUSE_NO":"３號","E_COORD97":165329.92000000001,"N_COORD97":2562047.23,"ADDRESS":"公園路２６０巷３號","OBJECTID":294641},"geometry":{"x":165329.91999999993,"y":2562047.2300000023}},{"attributes":{"ID":294650,"DIS_CODE":0,"TOWNNAME":"北區","LI":"大道里","LIN":"17鄰","STREET":"北門路","SECT":"二段","MAREA":" ","LANE":"５２７巷","ALLEY":" ","HOUSE_NO":"１２號六樓之５","E_COORD97":169554.03,"N_COORD97":2545666.1800000002,"ADDRESS":"北門路二段５２７巷１２號六樓之５","OBJECTID":294642},"geometry":{"x":169554.03000000026,"y":2545666.1799999997}},{"attributes":{"ID":294651,"DIS_CODE":0,"TOWNNAME":"北區","LI":"大道里","LIN":"17鄰","STREET":"北門路","SECT":"二段","MAREA":" ","LANE":"５２７巷","ALLEY":" ","HOUSE_NO":"１２號六樓之３","E_COORD97":169554.03,"N_COORD97":2545666.1800000002,"ADDRESS":"北門路二段５２７巷１２號六樓之３","OBJECTID":294643},"geometry":{"x":169554.03000000026,"y":2545666.1799999997}},{"attributes":{"ID":294652,"DIS_CODE":0,"TOWNNAME":"北區","LI":"大道里","LIN":"17鄰","STREET":"北門路","SECT":"二段","MAREA":" ","LANE":"５２７巷","ALLEY":" ","HOUSE_NO":"１２號六樓之２","E_COORD97":169554.03,"N_COORD97":2545666.1800000002,"ADDRESS":"北門路二段５２７巷１２號六樓之２","OBJECTID":294644},"geometry":{"x":169554.03000000026,"y":2545666.1799999997}},{"attributes":{"ID":294653,"DIS_CODE":0,"TOWNNAME":"北區","LI":"大道里","LIN":"17鄰","STREET":"北門路","SECT":"二段","MAREA":" ","LANE":"５２７巷","ALLEY":" ","HOUSE_NO":"１２號六樓之１","E_COORD97":169554.03,"N_COORD97":2545666.1800000002,"ADDRESS":"北門路二段５２７巷１２號六樓之１","OBJECTID":294645},"geometry":{"x":169554.03000000026,"y":2545666.1799999997}},{"attributes":{"ID":294654,"DIS_CODE":0,"TOWNNAME":"歸仁區","LI":"武東里","LIN":"14鄰","STREET":"中正南路","SECT":"二段","MAREA":" ","LANE":" ","ALLEY":" ","HOUSE_NO":"７８之１號","E_COORD97":175768.81,"N_COORD97":2536310.8700000001,"ADDRESS":"中正南路二段７８之１號","OBJECTID":294646},"geometry":{"x":175768.80999999959,"y":2536310.8700000029}},{"attributes":{"ID":294655,"DIS_CODE":0,"TOWNNAME":"歸仁區","LI":"武東里","LIN":"14鄰","STREET":"中正南路","SECT":"二段","MAREA":" ","LANE":" ","ALLEY":" ","HOUSE_NO":"７８號","E_COORD97":175769.81,"N_COORD97":2536315.6400000001,"ADDRESS":"中正南路二段７８號","OBJECTID":294647},"geometry":{"x":175769.81000000052,"y":2536315.6400000025}},{"attributes":{"ID":294656,"DIS_CODE":0,"TOWNNAME":"歸仁區","LI":"武東里","LIN":"14鄰","STREET":"中正南路","SECT":"二段","MAREA":" ","LANE":" ","ALLEY":" ","HOUSE_NO":"８０之１號","E_COORD97":175764.95999999999,"N_COORD97":2536303.1800000002,"ADDRESS":"中正南路二段８０之１號","OBJECTID":294648},"geometry":{"x":175764.95999999996,"y":2536303.1800000016}},{"attributes":{"ID":294657,"DIS_CODE":0,"TOWNNAME":"佳里區","LI":"安西里","LIN":"4鄰","STREET":"文化路","SECT":" ","MAREA":" ","LANE":"２９０巷","ALLEY":" ","HOUSE_NO":"１號","E_COORD97":165523.73000000001,"N_COORD97":2562628.9399999999,"ADDRESS":"文化路２９０巷１號","OBJECTID":294649},"geometry":{"x":165523.73000000231,"y":2562628.9399999995}},{"attributes":{"ID":294658,"DIS_CODE":0,"TOWNNAME":"佳里區","LI":"安西里","LIN":"4鄰","STREET":"文化路","SECT":" ","MAREA":" ","LANE":"２９０巷","ALLEY":" ","HOUSE_NO":"２號","E_COORD97":165542.20999999999,"N_COORD97":2562617.7599999998,"ADDRESS":"文化路２９０巷２號","OBJECTID":294650},"geometry":{"x":165542.21000000089,"y":2562617.7599999998}},{"attributes":{"ID":294659,"DIS_CODE":0,"TOWNNAME":"佳里區","LI":"安西里","LIN":"16鄰","STREET":"文化路","SECT":" ","MAREA":" ","LANE":"３００巷","ALLEY":" ","HOUSE_NO":"１號之１","E_COORD97":165468.26999999999,"N_COORD97":2562621.5800000001,"ADDRESS":"文化路３００巷１號之１","OBJECTID":294651},"geometry":{"x":165468.27000000142,"y":2562621.5800000019}},{"attributes":{"ID":294660,"DIS_CODE":0,"TOWNNAME":"佳里區","LI":"安西里","LIN":"16鄰","STREET":"文化路","SECT":" ","MAREA":" ","LANE":"３００巷","ALLEY":" ","HOUSE_NO":"１號之２","E_COORD97":165468.48000000001,"N_COORD97":2562624.3999999999,"ADDRESS":"文化路３００巷１號之２","OBJECTID":294652},"geometry":{"x":165468.48000000138,"y":2562624.4000000004}},{"attributes":{"ID":294661,"DIS_CODE":0,"TOWNNAME":"北區","LI":"大道里","LIN":"17鄰","STREET":"北門路","SECT":"二段","MAREA":" ","LANE":"５２７巷","ALLEY":" ","HOUSE_NO":"１２號九樓之５","E_COORD97":169554.03,"N_COORD97":2545666.1800000002,"ADDRESS":"北門路二段５２７巷１２號九樓之５","OBJECTID":294653},"geometry":{"x":169554.03000000026,"y":2545666.1799999997}},{"attributes":{"ID":294662,"DIS_CODE":0,"TOWNNAME":"永康區","LI":"建國里","LIN":"25鄰","STREET":" ","SECT":" ","MAREA":"慈光九村","LANE":" ","ALLEY":" ","HOUSE_NO":"３號","E_COORD97":172850.79000000001,"N_COORD97":2544271.5,"ADDRESS":"慈光九村３號","OBJECTID":294654},"geometry":{"x":172850.79000000004,"y":2544271.4999999981}},{"attributes":{"ID":294663,"DIS_CODE":0,"TOWNNAME":"北區","LI":"大道里","LIN":"17鄰","STREET":"北門路","SECT":"二段","MAREA":" ","LANE":"５２７巷","ALLEY":" ","HOUSE_NO":"１２號九樓之３","E_COORD97":169554.03,"N_COORD97":2545666.1800000002,"ADDRESS":"北門路二段５２７巷１２號九樓之３","OBJECTID":294655},"geometry":{"x":169554.03000000026,"y":2545666.1799999997}},{"attributes":{"ID":294664,"DIS_CODE":0,"TOWNNAME":"北區","LI":"大道里","LIN":"17鄰","STREET":"北門路","SECT":"二段","MAREA":" ","LANE":"５２７巷","ALLEY":" ","HOUSE_NO":"１２號九樓之２","E_COORD97":169554.03,"N_COORD97":2545666.1800000002,"ADDRESS":"北門路二段５２７巷１２號九樓之２","OBJECTID":294656},"geometry":{"x":169554.03000000026,"y":2545666.1799999997}},{"attributes":{"ID":294665,"DIS_CODE":0,"TOWNNAME":"北區","LI":"大道里","LIN":"17鄰","STREET":"北門路","SECT":"二段","MAREA":" ","LANE":"５２７巷","ALLEY":" ","HOUSE_NO":"１２號九樓之１","E_COORD97":169554.03,"N_COORD97":2545666.1800000002,"ADDRESS":"北門路二段５２７巷１２號九樓之１","OBJECTID":294657},"geometry":{"x":169554.03000000026,"y":2545666.1799999997}},{"attributes":{"ID":294666,"DIS_CODE":0,"TOWNNAME":"北區","LI":"大道里","LIN":"17鄰","STREET":"北門路","SECT":"二段","MAREA":" ","LANE":"５２７巷","ALLEY":" ","HOUSE_NO":"１２號十樓之５","E_COORD97":169554.03,"N_COORD97":2545666.1800000002,"ADDRESS":"北門路二段５２７巷１２號十樓之５","OBJECTID":294658},"geometry":{"x":169554.03000000026,"y":2545666.1799999997}},{"attributes":{"ID":294667,"DIS_CODE":0,"TOWNNAME":"歸仁區","LI":"武東里","LIN":"14鄰","STREET":"中正南路","SECT":"二段","MAREA":" ","LANE":" ","ALLEY":" ","HOUSE_NO":"８０號","E_COORD97":175766.39000000001,"N_COORD97":2536306.9399999999,"ADDRESS":"中正南路二段８０號","OBJECTID":294659},"geometry":{"x":175766.3900000006,"y":2536306.9399999995}},{"attributes":{"ID":294668,"DIS_CODE":0,"TOWNNAME":"歸仁區","LI":"武東里","LIN":"14鄰","STREET":"中正南路","SECT":"二段","MAREA":" ","LANE":" ","ALLEY":" ","HOUSE_NO":"８２之１號","E_COORD97":175762.12,"N_COORD97":2536294.9900000002,"ADDRESS":"中正南路二段８２之１號","OBJECTID":294660},"geometry":{"x":175762.12000000104,"y":2536294.9900000021}},{"attributes":{"ID":294669,"DIS_CODE":0,"TOWNNAME":"歸仁區","LI":"武東里","LIN":"14鄰","STREET":"中正南路","SECT":"二段","MAREA":" ","LANE":" ","ALLEY":" ","HOUSE_NO":"８２號","E_COORD97":175762.97,"N_COORD97":2536298.9700000002,"ADDRESS":"中正南路二段８２號","OBJECTID":294661},"geometry":{"x":175762.96999999974,"y":2536298.9700000025}},{"attributes":{"ID":294670,"DIS_CODE":0,"TOWNNAME":"東區","LI":"東門里","LIN":"1鄰","STREET":"東門路","SECT":"一段","MAREA":" ","LANE":" ","ALLEY":" ","HOUSE_NO":"４９號","E_COORD97":169234.10000000001,"N_COORD97":2543257.8599999999,"ADDRESS":"東門路一段４９號","OBJECTID":294662},"geometry":{"x":169234.09999999963,"y":2543257.8599999994}},{"attributes":{"ID":294671,"DIS_CODE":0,"TOWNNAME":"佳里區","LI":"安西里","LIN":"43鄰","STREET":"文化路","SECT":" ","MAREA":" ","LANE":"４５７巷","ALLEY":" ","HOUSE_NO":"２２號","E_COORD97":164995.75,"N_COORD97":2562500.9300000002,"ADDRESS":"文化路４５７巷２２號","OBJECTID":294663},"geometry":{"x":164995.74999999907,"y":2562500.9299999997}},{"attributes":{"ID":294672,"DIS_CODE":0,"TOWNNAME":"佳里區","LI":"安西里","LIN":"43鄰","STREET":"文化路","SECT":" ","MAREA":" ","LANE":"４５７巷","ALLEY":" ","HOUSE_NO":"２４號","E_COORD97":164996.20000000001,"N_COORD97":2562496.9199999999,"ADDRESS":"文化路４５７巷２４號","OBJECTID":294664},"geometry":{"x":164996.20000000019,"y":2562496.9200000018}},{"attributes":{"ID":294673,"DIS_CODE":0,"TOWNNAME":"佳里區","LI":"安西里","LIN":"43鄰","STREET":"文化路","SECT":" ","MAREA":" ","LANE":"４５７巷","ALLEY":" ","HOUSE_NO":"２６號","E_COORD97":164996.54999999999,"N_COORD97":2562493.02,"ADDRESS":"文化路４５７巷２６號","OBJECTID":294665},"geometry":{"x":164996.54999999981,"y":2562493.0199999996}},{"attributes":{"ID":294674,"DIS_CODE":0,"TOWNNAME":"佳里區","LI":"安西里","LIN":"43鄰","STREET":"文化路","SECT":" ","MAREA":" ","LANE":"４５７巷","ALLEY":" ","HOUSE_NO":"２８號","E_COORD97":164996.91,"N_COORD97":2562488.8300000001,"ADDRESS":"文化路４５７巷２８號","OBJECTID":294666},"geometry":{"x":164996.91000000108,"y":2562488.8300000001}},{"attributes":{"ID":294675,"DIS_CODE":0,"TOWNNAME":"佳里區","LI":"安西里","LIN":"43鄰","STREET":"文化路","SECT":" ","MAREA":" ","LANE":"４５７巷","ALLEY":" ","HOUSE_NO":"２號之１","E_COORD97":165004.63,"N_COORD97":2562543.6600000001,"ADDRESS":"文化路４５７巷２號之１","OBJECTID":294667},"geometry":{"x":165004.62999999989,"y":2562543.6600000001}},{"attributes":{"ID":294676,"DIS_CODE":0,"TOWNNAME":"佳里區","LI":"安西里","LIN":"43鄰","STREET":"文化路","SECT":" ","MAREA":" ","LANE":"４５７巷","ALLEY":" ","HOUSE_NO":"３號","E_COORD97":165016.45000000001,"N_COORD97":2562539.4700000002,"ADDRESS":"文化路４５７巷３號","OBJECTID":294668},"geometry":{"x":165016.45000000019,"y":2562539.4700000007}},{"attributes":{"ID":294677,"DIS_CODE":0,"TOWNNAME":"佳里區","LI":"安西里","LIN":"43鄰","STREET":"文化路","SECT":" ","MAREA":" ","LANE":"４５７巷","ALLEY":" ","HOUSE_NO":"５號","E_COORD97":165016.92999999999,"N_COORD97":2562535.0699999998,"ADDRESS":"文化路４５７巷５號","OBJECTID":294669},"geometry":{"x":165016.93000000063,"y":2562535.0700000003}},{"attributes":{"ID":294678,"DIS_CODE":0,"TOWNNAME":"佳里區","LI":"安西里","LIN":"38鄰","STREET":"文化路","SECT":" ","MAREA":" ","LANE":"４７８巷","ALLEY":" ","HOUSE_NO":"１０號","E_COORD97":165016.54000000001,"N_COORD97":2562611.6699999999,"ADDRESS":"文化路４７８巷１０號","OBJECTID":294670},"geometry":{"x":165016.54000000097,"y":2562611.6699999999}},{"attributes":{"ID":294679,"DIS_CODE":0,"TOWNNAME":"佳里區","LI":"安西里","LIN":"34鄰","STREET":"文化路","SECT":" ","MAREA":" ","LANE":"４７８巷","ALLEY":" ","HOUSE_NO":"１３號","E_COORD97":164997.45000000001,"N_COORD97":2562641.1200000001,"ADDRESS":"文化路４７８巷１３號","OBJECTID":294671},"geometry":{"x":164997.45000000019,"y":2562641.1200000048}},{"attributes":{"ID":294680,"DIS_CODE":0,"TOWNNAME":"佳里區","LI":"安西里","LIN":"34鄰","STREET":"文化路","SECT":" ","MAREA":" ","LANE":"４７８巷","ALLEY":" ","HOUSE_NO":"１５號","E_COORD97":164998.34,"N_COORD97":2562646.8799999999,"ADDRESS":"文化路４７８巷１５號","OBJECTID":294672},"geometry":{"x":164998.33999999892,"y":2562646.879999999}},{"attributes":{"ID":294681,"DIS_CODE":0,"TOWNNAME":"北區","LI":"大道里","LIN":"17鄰","STREET":"北門路","SECT":"二段","MAREA":" ","LANE":"５２７巷","ALLEY":" ","HOUSE_NO":"１２號十樓之３","E_COORD97":169554.03,"N_COORD97":2545666.1800000002,"ADDRESS":"北門路二段５２７巷１２號十樓之３","OBJECTID":294673},"geometry":{"x":169554.03000000026,"y":2545666.1799999997}},{"attributes":{"ID":294682,"DIS_CODE":0,"TOWNNAME":"歸仁區","LI":"武東里","LIN":"14鄰","STREET":"中正南路","SECT":"二段","MAREA":" ","LANE":" ","ALLEY":" ","HOUSE_NO":"８６之１號","E_COORD97":175758.91,"N_COORD97":2536286.9399999999,"ADDRESS":"中正南路二段８６之１號","OBJECTID":294674},"geometry":{"x":175758.91000000015,"y":2536286.9399999995}},{"attributes":{"ID":294683,"DIS_CODE":0,"TOWNNAME":"歸仁區","LI":"武東里","LIN":"14鄰","STREET":"中正南路","SECT":"二段","MAREA":" ","LANE":" ","ALLEY":" ","HOUSE_NO":"８６號","E_COORD97":175760.01000000001,"N_COORD97":2536291.1400000001,"ADDRESS":"中正南路二段８６號","OBJECTID":294675},"geometry":{"x":175760.01000000164,"y":2536291.1400000025}},{"attributes":{"ID":294684,"DIS_CODE":0,"TOWNNAME":"歸仁區","LI":"武東里","LIN":"14鄰","STREET":"中正南路","SECT":"二段","MAREA":" ","LANE":" ","ALLEY":" ","HOUSE_NO":"６０號","E_COORD97":175755.35999999999,"N_COORD97":2536278.9300000002,"ADDRESS":"中正南路二段６０號","OBJECTID":294676},"geometry":{"x":175755.36000000127,"y":2536278.9300000016}},{"attributes":{"ID":294685,"DIS_CODE":0,"TOWNNAME":"歸仁區","LI":"武東里","LIN":"14鄰","STREET":"中正南路","SECT":"二段","MAREA":" ","LANE":" ","ALLEY":" ","HOUSE_NO":"８８號","E_COORD97":175756.42000000001,"N_COORD97":2536283.2799999998,"ADDRESS":"中正南路二段８８號","OBJECTID":294677},"geometry":{"x":175756.42000000086,"y":2536283.2799999993}},{"attributes":{"ID":294686,"DIS_CODE":0,"TOWNNAME":"歸仁區","LI":"武東里","LIN":"14鄰","STREET":"中正南路","SECT":"二段","MAREA":" ","LANE":" ","ALLEY":" ","HOUSE_NO":"９０號","E_COORD97":175753.23000000001,"N_COORD97":2536274.7400000002,"ADDRESS":"中正南路二段９０號","OBJECTID":294678},"geometry":{"x":175753.23000000138,"y":2536274.7400000002}},{"attributes":{"ID":294687,"DIS_CODE":0,"TOWNNAME":"歸仁區","LI":"看西里","LIN":"14鄰","STREET":"仁愛南街","SECT":" ","MAREA":" ","LANE":" ","ALLEY":" ","HOUSE_NO":"２９６號","E_COORD97":178253.42999999999,"N_COORD97":2540059.0800000001,"ADDRESS":"仁愛南街２９６號","OBJECTID":294679},"geometry":{"x":178253.4299999997,"y":2540059.0800000001}},{"attributes":{"ID":294688,"DIS_CODE":0,"TOWNNAME":"歸仁區","LI":"看西里","LIN":"14鄰","STREET":"仁愛南街","SECT":" ","MAREA":" ","LANE":" ","ALLEY":" ","HOUSE_NO":"２９８號","E_COORD97":178254.79999999999,"N_COORD97":2540054.4700000002,"ADDRESS":"仁愛南街２９８號","OBJECTID":294680},"geometry":{"x":178254.79999999981,"y":2540054.4700000007}},{"attributes":{"ID":294689,"DIS_CODE":0,"TOWNNAME":"歸仁區","LI":"看西里","LIN":"14鄰","STREET":"仁愛南街","SECT":" ","MAREA":" ","LANE":" ","ALLEY":" ","HOUSE_NO":"３００號","E_COORD97":178256.26000000001,"N_COORD97":2540049.8300000001,"ADDRESS":"仁愛南街３００號","OBJECTID":294681},"geometry":{"x":178256.25999999978,"y":2540049.8300000019}},{"attributes":{"ID":294690,"DIS_CODE":0,"TOWNNAME":"歸仁區","LI":"看西里","LIN":"14鄰","STREET":"仁愛南街","SECT":" ","MAREA":" ","LANE":" ","ALLEY":" ","HOUSE_NO":"３０２號","E_COORD97":178257.72,"N_COORD97":2540045.3399999999,"ADDRESS":"仁愛南街３０２號","OBJECTID":294682},"geometry":{"x":178257.72000000067,"y":2540045.3400000017}},{"attributes":{"ID":294691,"DIS_CODE":0,"TOWNNAME":"歸仁區","LI":"南興里","LIN":"14鄰","STREET":"文化街","SECT":"三段","MAREA":" ","LANE":" ","ALLEY":" ","HOUSE_NO":"５１２號","E_COORD97":175829.76000000001,"N_COORD97":2541214.2599999998,"ADDRESS":"文化街三段５１２號","OBJECTID":294683},"geometry":{"x":175829.76000000071,"y":2541214.2599999998}},{"attributes":{"ID":294692,"DIS_CODE":0,"TOWNNAME":"佳里區","LI":"龍安里","LIN":"17鄰","STREET":" ","SECT":" ","MAREA":"外渡頭","LANE":" ","ALLEY":" ","HOUSE_NO":"１５號之１","E_COORD97":165102.07999999999,"N_COORD97":2559121.2599999998,"ADDRESS":"外渡頭１５號之１","OBJECTID":294684},"geometry":{"x":165102.07999999914,"y":2559121.2600000016}},{"attributes":{"ID":294693,"DIS_CODE":0,"TOWNNAME":"佳里區","LI":"龍安里","LIN":"17鄰","STREET":" ","SECT":" ","MAREA":"外渡頭","LANE":" ","ALLEY":" ","HOUSE_NO":"１６號之１","E_COORD97":165161.39999999999,"N_COORD97":2558991.21,"ADDRESS":"外渡頭１６號之１","OBJECTID":294685},"geometry":{"x":165161.40000000224,"y":2558991.2100000009}},{"attributes":{"ID":294694,"DIS_CODE":0,"TOWNNAME":"佳里區","LI":"龍安里","LIN":"17鄰","STREET":" ","SECT":" ","MAREA":"外渡頭","LANE":" ","ALLEY":" ","HOUSE_NO":"１６號之２","E_COORD97":165091.13,"N_COORD97":2559024.6699999999,"ADDRESS":"外渡頭１６號之２","OBJECTID":294686},"geometry":{"x":165091.12999999989,"y":2559024.6699999999}},{"attributes":{"ID":294695,"DIS_CODE":0,"TOWNNAME":"佳里區","LI":"龍安里","LIN":"17鄰","STREET":" ","SECT":" ","MAREA":"外渡頭","LANE":" ","ALLEY":" ","HOUSE_NO":"１６號","E_COORD97":165165.5,"N_COORD97":2558956.6099999999,"ADDRESS":"外渡頭１６號","OBJECTID":294687},"geometry":{"x":165165.50000000093,"y":2558956.6099999994}},{"attributes":{"ID":294696,"DIS_CODE":0,"TOWNNAME":"佳里區","LI":"龍安里","LIN":"17鄰","STREET":" ","SECT":" ","MAREA":"外渡頭","LANE":" ","ALLEY":" ","HOUSE_NO":"１７號","E_COORD97":165152.04000000001,"N_COORD97":2558937.4300000002,"ADDRESS":"外渡頭１７號","OBJECTID":294688},"geometry":{"x":165152.04000000097,"y":2558937.4299999997}},{"attributes":{"ID":294697,"DIS_CODE":0,"TOWNNAME":"佳里區","LI":"龍安里","LIN":"17鄰","STREET":" ","SECT":" ","MAREA":"外渡頭","LANE":" ","ALLEY":" ","HOUSE_NO":"１８號","E_COORD97":165158.53,"N_COORD97":2558911.5800000001,"ADDRESS":"外渡頭１８號","OBJECTID":294689},"geometry":{"x":165158.52999999933,"y":2558911.5800000019}},{"attributes":{"ID":294698,"DIS_CODE":0,"TOWNNAME":"佳里區","LI":"龍安里","LIN":"17鄰","STREET":" ","SECT":" ","MAREA":"外渡頭","LANE":" ","ALLEY":" ","HOUSE_NO":"２１號","E_COORD97":165120.88,"N_COORD97":2558892.77,"ADDRESS":"外渡頭２１號","OBJECTID":294690},"geometry":{"x":165120.88000000082,"y":2558892.7700000014}},{"attributes":{"ID":294699,"DIS_CODE":0,"TOWNNAME":"佳里區","LI":"龍安里","LIN":"17鄰","STREET":" ","SECT":" ","MAREA":"外渡頭","LANE":" ","ALLEY":" ","HOUSE_NO":"２２號","E_COORD97":165134.57999999999,"N_COORD97":2558881.0499999998,"ADDRESS":"外渡頭２２號","OBJECTID":294691},"geometry":{"x":165134.58000000101,"y":2558881.0500000007}},{"attributes":{"ID":294700,"DIS_CODE":0,"TOWNNAME":"佳里區","LI":"龍安里","LIN":"17鄰","STREET":" ","SECT":" ","MAREA":"外渡頭","LANE":" ","ALLEY":" ","HOUSE_NO":"２３號之１","E_COORD97":165169.79000000001,"N_COORD97":2558828.79,"ADDRESS":"外渡頭２３號之１","OBJECTID":294692},"geometry":{"x":165169.79000000004,"y":2558828.790000001}},{"attributes":{"ID":294701,"DIS_CODE":0,"TOWNNAME":"佳里區","LI":"龍安里","LIN":"17鄰","STREET":" ","SECT":" ","MAREA":"外渡頭","LANE":" ","ALLEY":" ","HOUSE_NO":"２３號","E_COORD97":165148.67000000001,"N_COORD97":2558844.8700000001,"ADDRESS":"外渡頭２３號","OBJECTID":294693},"geometry":{"x":165148.66999999993,"y":2558844.870000001}},{"attributes":{"ID":294702,"DIS_CODE":0,"TOWNNAME":"佳里區","LI":"安西里","LIN":"46鄰","STREET":"文化路","SECT":" ","MAREA":" ","LANE":"５９１巷","ALLEY":" ","HOUSE_NO":"１０號","E_COORD97":164656.16,"N_COORD97":2562526.3999999999,"ADDRESS":"文化路５９１巷１０號","OBJECTID":294694},"geometry":{"x":164656.16000000108,"y":2562526.3999999985}},{"attributes":{"ID":294703,"DIS_CODE":0,"TOWNNAME":"佳里區","LI":"安西里","LIN":"46鄰","STREET":"文化路","SECT":" ","MAREA":" ","LANE":"５９１巷","ALLEY":" ","HOUSE_NO":"１２號","E_COORD97":164656.47,"N_COORD97":2562522.3900000001,"ADDRESS":"文化路５９１巷１２號","OBJECTID":294695},"geometry":{"x":164656.46999999974,"y":2562522.3900000006}},{"attributes":{"ID":294704,"DIS_CODE":0,"TOWNNAME":"北區","LI":"大道里","LIN":"17鄰","STREET":"北門路","SECT":"二段","MAREA":" ","LANE":"５２７巷","ALLEY":" ","HOUSE_NO":"１２號十樓之２","E_COORD97":169554.03,"N_COORD97":2545666.1800000002,"ADDRESS":"北門路二段５２７巷１２號十樓之２","OBJECTID":294696},"geometry":{"x":169554.03000000026,"y":2545666.1799999997}},{"attributes":{"ID":294705,"DIS_CODE":0,"TOWNNAME":"北區","LI":"大道里","LIN":"17鄰","STREET":"北門路","SECT":"二段","MAREA":" ","LANE":"５２７巷","ALLEY":" ","HOUSE_NO":"１２號十樓之１","E_COORD97":169554.03,"N_COORD97":2545666.1800000002,"ADDRESS":"北門路二段５２７巷１２號十樓之１","OBJECTID":294697},"geometry":{"x":169554.03000000026,"y":2545666.1799999997}},{"attributes":{"ID":294706,"DIS_CODE":0,"TOWNNAME":"北區","LI":"重興里","LIN":"17鄰","STREET":"林森路","SECT":"三段","MAREA":" ","LANE":"１４０巷","ALLEY":" ","HOUSE_NO":"１１號七樓","E_COORD97":170611.19,"N_COORD97":2544990.0800000001,"ADDRESS":"林森路三段１４０巷１１號七樓","OBJECTID":294698},"geometry":{"x":170611.19000000227,"y":2544990.0800000038}},{"attributes":{"ID":294707,"DIS_CODE":0,"TOWNNAME":"北區","LI":"重興里","LIN":"17鄰","STREET":"林森路","SECT":"三段","MAREA":" ","LANE":"１４０巷","ALLEY":" ","HOUSE_NO":"１１號二樓","E_COORD97":170611.19,"N_COORD97":2544990.0800000001,"ADDRESS":"林森路三段１４０巷１１號二樓","OBJECTID":294699},"geometry":{"x":170611.19000000227,"y":2544990.0800000038}},{"attributes":{"ID":294708,"DIS_CODE":0,"TOWNNAME":"歸仁區","LI":"南興里","LIN":"14鄰","STREET":"文化街","SECT":"三段","MAREA":" ","LANE":" ","ALLEY":" ","HOUSE_NO":"５１０號","E_COORD97":175834.75,"N_COORD97":2541214.2000000002,"ADDRESS":"文化街三段５１０號","OBJECTID":294700},"geometry":{"x":175834.74999999907,"y":2541214.1999999993}},{"attributes":{"ID":294709,"DIS_CODE":0,"TOWNNAME":"歸仁區","LI":"南興里","LIN":"14鄰","STREET":"文化街","SECT":"三段","MAREA":" ","LANE":" ","ALLEY":" ","HOUSE_NO":"５０８號","E_COORD97":175839.16,"N_COORD97":2541214.25,"ADDRESS":"文化街三段５０８號","OBJECTID":294701},"geometry":{"x":175839.16000000201,"y":2541214.25}},{"attributes":{"ID":294710,"DIS_CODE":0,"TOWNNAME":"佳里區","LI":"忠仁里","LIN":"6鄰","STREET":"平等街","SECT":" ","MAREA":" ","LANE":"１４８巷","ALLEY":" ","HOUSE_NO":"１７號","E_COORD97":165808.67999999999,"N_COORD97":2561932.02,"ADDRESS":"平等街１４８巷１７號","OBJECTID":294702},"geometry":{"x":165808.68000000063,"y":2561932.0200000014}},{"attributes":{"ID":294711,"DIS_CODE":0,"TOWNNAME":"佳里區","LI":"忠仁里","LIN":"6鄰","STREET":"平等街","SECT":" ","MAREA":" ","LANE":"１４８巷","ALLEY":" ","HOUSE_NO":"１８號","E_COORD97":165809.81,"N_COORD97":2561928.0299999998,"ADDRESS":"平等街１４８巷１８號","OBJECTID":294703},"geometry":{"x":165809.80999999959,"y":2561928.0300000031}},{"attributes":{"ID":294712,"DIS_CODE":0,"TOWNNAME":"佳里區","LI":"忠仁里","LIN":"6鄰","STREET":"平等街","SECT":" ","MAREA":" ","LANE":"１４８巷","ALLEY":" ","HOUSE_NO":"１９號","E_COORD97":165810.76999999999,"N_COORD97":2561924.2799999998,"ADDRESS":"平等街１４８巷１９號","OBJECTID":294704},"geometry":{"x":165810.77000000048,"y":2561924.2800000012}},{"attributes":{"ID":294713,"DIS_CODE":0,"TOWNNAME":"佳里區","LI":"忠仁里","LIN":"6鄰","STREET":"平等街","SECT":" ","MAREA":" ","LANE":"１４８巷","ALLEY":" ","HOUSE_NO":"１號","E_COORD97":165829.39999999999,"N_COORD97":2561912.6000000001,"ADDRESS":"平等街１４８巷１號","OBJECTID":294705},"geometry":{"x":165829.4000000013,"y":2561912.5999999996}},{"attributes":{"ID":294714,"DIS_CODE":0,"TOWNNAME":"北區","LI":"重興里","LIN":"17鄰","STREET":"林森路","SECT":"三段","MAREA":" ","LANE":"１４０巷","ALLEY":" ","HOUSE_NO":"１１號八樓","E_COORD97":170611.19,"N_COORD97":2544990.0800000001,"ADDRESS":"林森路三段１４０巷１１號八樓","OBJECTID":294706},"geometry":{"x":170611.19000000227,"y":2544990.0800000038}},{"attributes":{"ID":294715,"DIS_CODE":0,"TOWNNAME":"北區","LI":"重興里","LIN":"17鄰","STREET":"林森路","SECT":"三段","MAREA":" ","LANE":"１４０巷","ALLEY":" ","HOUSE_NO":"１１號三樓","E_COORD97":170611.19,"N_COORD97":2544990.0800000001,"ADDRESS":"林森路三段１４０巷１１號三樓","OBJECTID":294707},"geometry":{"x":170611.19000000227,"y":2544990.0800000038}},{"attributes":{"ID":294716,"DIS_CODE":0,"TOWNNAME":"北區","LI":"重興里","LIN":"17鄰","STREET":"林森路","SECT":"三段","MAREA":" ","LANE":"１４０巷","ALLEY":" ","HOUSE_NO":"１１號五樓","E_COORD97":170611.19,"N_COORD97":2544990.0800000001,"ADDRESS":"林森路三段１４０巷１１號五樓","OBJECTID":294708},"geometry":{"x":170611.19000000227,"y":2544990.0800000038}},{"attributes":{"ID":294717,"DIS_CODE":0,"TOWNNAME":"北區","LI":"重興里","LIN":"17鄰","STREET":"林森路","SECT":"三段","MAREA":" ","LANE":"１４０巷","ALLEY":" ","HOUSE_NO":"１１號六樓","E_COORD97":170611.19,"N_COORD97":2544990.0800000001,"ADDRESS":"林森路三段１４０巷１１號六樓","OBJECTID":294709},"geometry":{"x":170611.19000000227,"y":2544990.0800000038}},{"attributes":{"ID":294718,"DIS_CODE":0,"TOWNNAME":"北區","LI":"重興里","LIN":"17鄰","STREET":"林森路","SECT":"三段","MAREA":" ","LANE":"１４０巷","ALLEY":" ","HOUSE_NO":"１１號四樓","E_COORD97":170611.19,"N_COORD97":2544990.0800000001,"ADDRESS":"林森路三段１４０巷１１號四樓","OBJECTID":294710},"geometry":{"x":170611.19000000227,"y":2544990.0800000038}},{"attributes":{"ID":294719,"DIS_CODE":0,"TOWNNAME":"北區","LI":"重興里","LIN":"17鄰","STREET":"林森路","SECT":"三段","MAREA":" ","LANE":"１４０巷","ALLEY":" ","HOUSE_NO":"１３號七樓","E_COORD97":170621.92000000001,"N_COORD97":2545001.6600000001,"ADDRESS":"林森路三段１４０巷１３號七樓","OBJECTID":294711},"geometry":{"x":170621.91999999993,"y":2545001.6600000001}},{"attributes":{"ID":294720,"DIS_CODE":0,"TOWNNAME":"北區","LI":"重興里","LIN":"17鄰","STREET":"林森路","SECT":"三段","MAREA":" ","LANE":"１４０巷","ALLEY":" ","HOUSE_NO":"１３號二樓","E_COORD97":170621.92000000001,"N_COORD97":2545001.6600000001,"ADDRESS":"林森路三段１４０巷１３號二樓","OBJECTID":294712},"geometry":{"x":170621.91999999993,"y":2545001.6600000001}},{"attributes":{"ID":294721,"DIS_CODE":0,"TOWNNAME":"北區","LI":"重興里","LIN":"17鄰","STREET":"林森路","SECT":"三段","MAREA":" ","LANE":"１４０巷","ALLEY":" ","HOUSE_NO":"１３號八樓","E_COORD97":170621.92000000001,"N_COORD97":2545001.6600000001,"ADDRESS":"林森路三段１４０巷１３號八樓","OBJECTID":294713},"geometry":{"x":170621.91999999993,"y":2545001.6600000001}},{"attributes":{"ID":294722,"DIS_CODE":0,"TOWNNAME":"北區","LI":"重興里","LIN":"17鄰","STREET":"林森路","SECT":"三段","MAREA":" ","LANE":"１４０巷","ALLEY":" ","HOUSE_NO":"１３號三樓","E_COORD97":170621.92000000001,"N_COORD97":2545001.6600000001,"ADDRESS":"林森路三段１４０巷１３號三樓","OBJECTID":294714},"geometry":{"x":170621.91999999993,"y":2545001.6600000001}},{"attributes":{"ID":294723,"DIS_CODE":0,"TOWNNAME":"北區","LI":"重興里","LIN":"17鄰","STREET":"林森路","SECT":"三段","MAREA":" ","LANE":"１４０巷","ALLEY":" ","HOUSE_NO":"１３號五樓","E_COORD97":170621.92000000001,"N_COORD97":2545001.6600000001,"ADDRESS":"林森路三段１４０巷１３號五樓","OBJECTID":294715},"geometry":{"x":170621.91999999993,"y":2545001.6600000001}},{"attributes":{"ID":294724,"DIS_CODE":0,"TOWNNAME":"北區","LI":"重興里","LIN":"17鄰","STREET":"林森路","SECT":"三段","MAREA":" ","LANE":"１４０巷","ALLEY":" ","HOUSE_NO":"１３號六樓","E_COORD97":170621.92000000001,"N_COORD97":2545001.6600000001,"ADDRESS":"林森路三段１４０巷１３號六樓","OBJECTID":294716},"geometry":{"x":170621.91999999993,"y":2545001.6600000001}},{"attributes":{"ID":294725,"DIS_CODE":0,"TOWNNAME":"歸仁區","LI":"西埔里","LIN":"14鄰","STREET":"西埔二街","SECT":" ","MAREA":" ","LANE":" ","ALLEY":" ","HOUSE_NO":"９號","E_COORD97":176946.57999999999,"N_COORD97":2544751.48,"ADDRESS":"西埔二街９號","OBJECTID":294717},"geometry":{"x":176946.58000000194,"y":2544751.4800000023}},{"attributes":{"ID":294726,"DIS_CODE":0,"TOWNNAME":"歸仁區","LI":"武東里","LIN":"14鄰","STREET":"歸仁八路","SECT":" ","MAREA":" ","LANE":" ","ALLEY":" ","HOUSE_NO":"３２１號","E_COORD97":175778.92999999999,"N_COORD97":2536367.2200000002,"ADDRESS":"歸仁八路３２１號","OBJECTID":294718},"geometry":{"x":175778.9299999997,"y":2536367.2200000007}},{"attributes":{"ID":294727,"DIS_CODE":0,"TOWNNAME":"歸仁區","LI":"武東里","LIN":"14鄰","STREET":"歸仁八路","SECT":" ","MAREA":" ","LANE":" ","ALLEY":" ","HOUSE_NO":"３２３號","E_COORD97":175773.70999999999,"N_COORD97":2536369.6400000001,"ADDRESS":"歸仁八路３２３號","OBJECTID":294719},"geometry":{"x":175773.70999999996,"y":2536369.6400000025}},{"attributes":{"ID":294728,"DIS_CODE":0,"TOWNNAME":"歸仁區","LI":"武東里","LIN":"14鄰","STREET":"歸仁八路","SECT":" ","MAREA":" ","LANE":" ","ALLEY":" ","HOUSE_NO":"３２５號","E_COORD97":175768.64999999999,"N_COORD97":2536372.27,"ADDRESS":"歸仁八路３２５號","OBJECTID":294720},"geometry":{"x":175768.6500000013,"y":2536372.2699999996}},{"attributes":{"ID":294729,"DIS_CODE":0,"TOWNNAME":"永康區","LI":"北灣里","LIN":"4鄰","STREET":"信義街","SECT":" ","MAREA":" ","LANE":"６２巷","ALLEY":" ","HOUSE_NO":"２７號","E_COORD97":175417.25,"N_COORD97":2545745.23,"ADDRESS":"信義街６２巷２７號","OBJECTID":294721},"geometry":{"x":175417.25,"y":2545745.2299999986}},{"attributes":{"ID":294730,"DIS_CODE":0,"TOWNNAME":"永康區","LI":"正強里","LIN":"20鄰","STREET":"中山南路","SECT":" ","MAREA":" ","LANE":"４７１巷","ALLEY":" ","HOUSE_NO":"２９號","E_COORD97":173154.32999999999,"N_COORD97":2547168.3100000001,"ADDRESS":"中山南路４７１巷２９號","OBJECTID":294722},"geometry":{"x":173154.33000000194,"y":2547168.3100000005}},{"attributes":{"ID":294731,"DIS_CODE":0,"TOWNNAME":"永康區","LI":"北灣里","LIN":"18鄰","STREET":"文賢街","SECT":" ","MAREA":" ","LANE":"４２２巷","ALLEY":" ","HOUSE_NO":"６號","E_COORD97":174725.39000000001,"N_COORD97":2545839.6899999999,"ADDRESS":"文賢街４２２巷６號","OBJECTID":294723},"geometry":{"x":174725.3900000006,"y":2545839.6900000032}},{"attributes":{"ID":294732,"DIS_CODE":0,"TOWNNAME":"永康區","LI":"西灣里","LIN":"42鄰","STREET":"大灣路","SECT":" ","MAREA":" ","LANE":"９４２巷","ALLEY":" ","HOUSE_NO":"５１５號","E_COORD97":173973.47,"N_COORD97":2545514.0499999998,"ADDRESS":"大灣路９４２巷５１５號","OBJECTID":294724},"geometry":{"x":173973.4700000016,"y":2545514.0500000026}},{"attributes":{"ID":294733,"DIS_CODE":0,"TOWNNAME":"永康區","LI":"五王里","LIN":"39鄰","STREET":"中華路","SECT":" ","MAREA":" ","LANE":"５７８巷","ALLEY":" ","HOUSE_NO":"１７號之１０９","E_COORD97":171334.89999999999,"N_COORD97":2545989.54,"ADDRESS":"中華路５７８巷１７號之１０９","OBJECTID":294725},"geometry":{"x":171334.90000000037,"y":2545989.5400000028}},{"attributes":{"ID":294734,"DIS_CODE":0,"TOWNNAME":"永康區","LI":"\u25A0洲里","LIN":"5鄰","STREET":"仁愛街","SECT":" ","MAREA":" ","LANE":"１０３巷","ALLEY":" ","HOUSE_NO":"２０號","E_COORD97":171991.32000000001,"N_COORD97":2549509.2799999998,"ADDRESS":"仁愛街１０３巷２０號","OBJECTID":294726},"geometry":{"x":171991.3200000003,"y":2549509.2799999993}},{"attributes":{"ID":294735,"DIS_CODE":0,"TOWNNAME":"永康區","LI":"正強里","LIN":"46鄰","STREET":"中正路","SECT":" ","MAREA":" ","LANE":"２５６巷","ALLEY":" ","HOUSE_NO":"９號之３８","E_COORD97":173207.20999999999,"N_COORD97":2547991.8799999999,"ADDRESS":"中正路２５６巷９號之３８","OBJECTID":294727},"geometry":{"x":173207.20999999996,"y":2547991.8800000008}},{"attributes":{"ID":294736,"DIS_CODE":0,"TOWNNAME":"永康區","LI":"北灣里","LIN":"4鄰","STREET":"信義街","SECT":" ","MAREA":" ","LANE":"６２巷","ALLEY":" ","HOUSE_NO":"３６號","E_COORD97":175427.87,"N_COORD97":2545765.7599999998,"ADDRESS":"信義街６２巷３６號","OBJECTID":294728},"geometry":{"x":175427.87000000104,"y":2545765.7600000016}},{"attributes":{"ID":294737,"DIS_CODE":0,"TOWNNAME":"北區","LI":"重興里","LIN":"17鄰","STREET":"林森路","SECT":"三段","MAREA":" ","LANE":"１４０巷","ALLEY":" ","HOUSE_NO":"１３號四樓","E_COORD97":170621.92000000001,"N_COORD97":2545001.6600000001,"ADDRESS":"林森路三段１４０巷１３號四樓","OBJECTID":294729},"geometry":{"x":170621.91999999993,"y":2545001.6600000001}},{"attributes":{"ID":294738,"DIS_CODE":0,"TOWNNAME":"北區","LI":"重興里","LIN":"17鄰","STREET":"林森路","SECT":"三段","MAREA":" ","LANE":"１４０巷","ALLEY":" ","HOUSE_NO":"１５號七樓","E_COORD97":170614.54000000001,"N_COORD97":2545008.0800000001,"ADDRESS":"林森路三段１４０巷１５號七樓","OBJECTID":294730},"geometry":{"x":170614.54000000004,"y":2545008.0800000019}},{"attributes":{"ID":294739,"DIS_CODE":0,"TOWNNAME":"北區","LI":"重興里","LIN":"17鄰","STREET":"林森路","SECT":"三段","MAREA":" ","LANE":"１４０巷","ALLEY":" ","HOUSE_NO":"１５號二樓","E_COORD97":170614.54000000001,"N_COORD97":2545008.0800000001,"ADDRESS":"林森路三段１４０巷１５號二樓","OBJECTID":294731},"geometry":{"x":170614.54000000004,"y":2545008.0800000019}},{"attributes":{"ID":294740,"DIS_CODE":0,"TOWNNAME":"北區","LI":"重興里","LIN":"17鄰","STREET":"林森路","SECT":"三段","MAREA":" ","LANE":"１４０巷","ALLEY":" ","HOUSE_NO":"１５號八樓","E_COORD97":170614.54000000001,"N_COORD97":2545008.0800000001,"ADDRESS":"林森路三段１４０巷１５號八樓","OBJECTID":294732},"geometry":{"x":170614.54000000004,"y":2545008.0800000019}},{"attributes":{"ID":294741,"DIS_CODE":0,"TOWNNAME":"歸仁區","LI":"武東里","LIN":"14鄰","STREET":"歸仁八路","SECT":" ","MAREA":" ","LANE":" ","ALLEY":" ","HOUSE_NO":"３２７號","E_COORD97":175762.97,"N_COORD97":2536374.4100000001,"ADDRESS":"歸仁八路３２７號","OBJECTID":294733},"geometry":{"x":175762.96999999974,"y":2536374.410000002}},{"attributes":{"ID":294742,"DIS_CODE":0,"TOWNNAME":"歸仁區","LI":"武東里","LIN":"14鄰","STREET":"歸仁八路","SECT":" ","MAREA":" ","LANE":" ","ALLEY":" ","HOUSE_NO":"３２７號","E_COORD97":175759.20999999999,"N_COORD97":2536367.96,"ADDRESS":"歸仁八路３２７號","OBJECTID":294734},"geometry":{"x":175759.21000000089,"y":2536367.9600000028}},{"attributes":{"ID":294743,"DIS_CODE":0,"TOWNNAME":"歸仁區","LI":"武東里","LIN":"14鄰","STREET":"歸仁八路","SECT":" ","MAREA":" ","LANE":" ","ALLEY":" ","HOUSE_NO":"３３１號","E_COORD97":175757.85000000001,"N_COORD97":2536364.21,"ADDRESS":"歸仁八路３３１號","OBJECTID":294735},"geometry":{"x":175757.85000000056,"y":2536364.2100000009}},{"attributes":{"ID":294744,"DIS_CODE":0,"TOWNNAME":"歸仁區","LI":"武東里","LIN":"14鄰","STREET":"歸仁八路","SECT":" ","MAREA":" ","LANE":" ","ALLEY":" ","HOUSE_NO":"３３３號","E_COORD97":175756.87,"N_COORD97":2536360.0299999998,"ADDRESS":"歸仁八路３３３號","OBJECTID":294736},"geometry":{"x":175756.87000000104,"y":2536360.0299999993}},{"attributes":{"ID":294745,"DIS_CODE":0,"TOWNNAME":"歸仁區","LI":"武東里","LIN":"14鄰","STREET":"歸仁八路","SECT":" ","MAREA":" ","LANE":" ","ALLEY":" ","HOUSE_NO":"３３５號","E_COORD97":175755.26000000001,"N_COORD97":2536356.1400000001,"ADDRESS":"歸仁八路３３５號","OBJECTID":294737},"geometry":{"x":175755.26000000071,"y":2536356.1400000025}},{"attributes":{"ID":294746,"DIS_CODE":0,"TOWNNAME":"歸仁區","LI":"武東里","LIN":"14鄰","STREET":"歸仁八路","SECT":" ","MAREA":" ","LANE":" ","ALLEY":" ","HOUSE_NO":"３３７號","E_COORD97":175753.76999999999,"N_COORD97":2536352.1299999999,"ADDRESS":"歸仁八路３３７號","OBJECTID":294738},"geometry":{"x":175753.76999999955,"y":2536352.129999999}},{"attributes":{"ID":294747,"DIS_CODE":0,"TOWNNAME":"歸仁區","LI":"武東里","LIN":"14鄰","STREET":"歸仁八路","SECT":" ","MAREA":" ","LANE":" ","ALLEY":" ","HOUSE_NO":"３３９號","E_COORD97":175752.28,"N_COORD97":2536348.1099999999,"ADDRESS":"歸仁八路３３９號","OBJECTID":294739},"geometry":{"x":175752.28000000119,"y":2536348.1100000013}},{"attributes":{"ID":294748,"DIS_CODE":0,"TOWNNAME":"歸仁區","LI":"武東里","LIN":"14鄰","STREET":"歸仁八路","SECT":" ","MAREA":" ","LANE":" ","ALLEY":" ","HOUSE_NO":"３４１號","E_COORD97":175750.73999999999,"N_COORD97":2536344.4900000002,"ADDRESS":"歸仁八路３４１號","OBJECTID":294740},"geometry":{"x":175750.74000000115,"y":2536344.4900000002}},{"attributes":{"ID":294749,"DIS_CODE":0,"TOWNNAME":"歸仁區","LI":"武東里","LIN":"14鄰","STREET":"歸仁八路","SECT":" ","MAREA":" ","LANE":" ","ALLEY":" ","HOUSE_NO":"３４３號","E_COORD97":175749.07000000001,"N_COORD97":2536340.1899999999,"ADDRESS":"歸仁八路３４３號","OBJECTID":294741},"geometry":{"x":175749.07000000123,"y":2536340.1900000013}},{"attributes":{"ID":294750,"DIS_CODE":0,"TOWNNAME":"永康區","LI":"尚頂里","LIN":"4鄰","STREET":"正南一街","SECT":" ","MAREA":" ","LANE":"１９０巷","ALLEY":" ","HOUSE_NO":"２２號","E_COORD97":170733.09,"N_COORD97":2547448.8100000001,"ADDRESS":"正南一街１９０巷２２號","OBJECTID":294742},"geometry":{"x":170733.08999999985,"y":2547448.8100000005}},{"attributes":{"ID":294751,"DIS_CODE":0,"TOWNNAME":"永康區","LI":"西灣里","LIN":"25鄰","STREET":"國光七街","SECT":" ","MAREA":" ","LANE":"２０巷","ALLEY":" ","HOUSE_NO":"１號","E_COORD97":174308.69,"N_COORD97":2545560.8900000001,"ADDRESS":"國光七街２０巷１號","OBJECTID":294743},"geometry":{"x":174308.69000000134,"y":2545560.8900000006}},{"attributes":{"ID":294752,"DIS_CODE":0,"TOWNNAME":"永康區","LI":"西灣里","LIN":"41鄰","STREET":"國光六街","SECT":" ","MAREA":" ","LANE":"９０巷","ALLEY":" ","HOUSE_NO":"２號","E_COORD97":174043.35000000001,"N_COORD97":2545364.9300000002,"ADDRESS":"國光六街９０巷２號","OBJECTID":294744},"geometry":{"x":174043.34999999963,"y":2545364.9300000016}},{"attributes":{"ID":294753,"DIS_CODE":0,"TOWNNAME":"永康區","LI":"永康里","LIN":"13鄰","STREET":"永康街","SECT":" ","MAREA":" ","LANE":"１８６巷","ALLEY":" ","HOUSE_NO":"１９號","E_COORD97":174001.75,"N_COORD97":2547001.9300000002,"ADDRESS":"永康街１８６巷１９號","OBJECTID":294745},"geometry":{"x":174001.75,"y":2547001.9300000016}},{"attributes":{"ID":294754,"DIS_CODE":0,"TOWNNAME":"永康區","LI":"\u25A0洲里","LIN":"5鄰","STREET":"仁愛街","SECT":" ","MAREA":" ","LANE":"１０３巷","ALLEY":" ","HOUSE_NO":"３０號","E_COORD97":171971.35000000001,"N_COORD97":2549518.0299999998,"ADDRESS":"仁愛街１０３巷３０號","OBJECTID":294746},"geometry":{"x":171971.34999999963,"y":2549518.0299999993}},{"attributes":{"ID":294755,"DIS_CODE":0,"TOWNNAME":"永康區","LI":"尚頂里","LIN":"20鄰","STREET":"中華路","SECT":" ","MAREA":" ","LANE":"９６２巷","ALLEY":" ","HOUSE_NO":"１０號","E_COORD97":170470.59,"N_COORD97":2546772.7400000002,"ADDRESS":"中華路９６２巷１０號","OBJECTID":294747},"geometry":{"x":170470.59000000171,"y":2546772.7400000021}},{"attributes":{"ID":294756,"DIS_CODE":0,"TOWNNAME":"永康區","LI":"南灣里","LIN":"20鄰","STREET":"大灣路","SECT":" ","MAREA":" ","LANE":"７６４巷","ALLEY":" ","HOUSE_NO":"８０號","E_COORD97":174276.66,"N_COORD97":2544677.1000000001,"ADDRESS":"大灣路７６４巷８０號","OBJECTID":294748},"geometry":{"x":174276.66000000108,"y":2544677.0999999996}},{"attributes":{"ID":294757,"DIS_CODE":0,"TOWNNAME":"永康區","LI":"西灣里","LIN":"25鄰","STREET":"國光七街","SECT":" ","MAREA":" ","LANE":"２０巷","ALLEY":" ","HOUSE_NO":"２０號","E_COORD97":174329.31,"N_COORD97":2545585.2599999998,"ADDRESS":"國光七街２０巷２０號","OBJECTID":294749},"geometry":{"x":174329.31000000052,"y":2545585.2600000035}},{"attributes":{"ID":294758,"DIS_CODE":0,"TOWNNAME":"永康區","LI":"西灣里","LIN":"26鄰","STREET":"國光八街","SECT":" ","MAREA":" ","LANE":"４１巷","ALLEY":" ","HOUSE_NO":"４０號","E_COORD97":174329.42000000001,"N_COORD97":2545663.2400000002,"ADDRESS":"國光八街４１巷４０號","OBJECTID":294750},"geometry":{"x":174329.41999999993,"y":2545663.2400000002}},{"attributes":{"ID":294759,"DIS_CODE":0,"TOWNNAME":"永康區","LI":"西灣里","LIN":"25鄰","STREET":"國光七街","SECT":" ","MAREA":" ","LANE":"２０巷","ALLEY":" ","HOUSE_NO":"２８號","E_COORD97":174332.84,"N_COORD97":2545601.7599999998,"ADDRESS":"國光七街２０巷２８號","OBJECTID":294751},"geometry":{"x":174332.84000000078,"y":2545601.7599999998}},{"attributes":{"ID":294760,"DIS_CODE":0,"TOWNNAME":"北區","LI":"重興里","LIN":"17鄰","STREET":"林森路","SECT":"三段","MAREA":" ","LANE":"１４０巷","ALLEY":" ","HOUSE_NO":"１５號三樓","E_COORD97":170614.54000000001,"N_COORD97":2545008.0800000001,"ADDRESS":"林森路三段１４０巷１５號三樓","OBJECTID":294752},"geometry":{"x":170614.54000000004,"y":2545008.0800000019}},{"attributes":{"ID":294761,"DIS_CODE":0,"TOWNNAME":"北區","LI":"重興里","LIN":"17鄰","STREET":"林森路","SECT":"三段","MAREA":" ","LANE":"１４０巷","ALLEY":" ","HOUSE_NO":"１５號五樓","E_COORD97":170614.54000000001,"N_COORD97":2545008.0800000001,"ADDRESS":"林森路三段１４０巷１５號五樓","OBJECTID":294753},"geometry":{"x":170614.54000000004,"y":2545008.0800000019}},{"attributes":{"ID":294762,"DIS_CODE":0,"TOWNNAME":"北區","LI":"重興里","LIN":"17鄰","STREET":"林森路","SECT":"三段","MAREA":" ","LANE":"１４０巷","ALLEY":" ","HOUSE_NO":"１５號六樓","E_COORD97":170614.54000000001,"N_COORD97":2545008.0800000001,"ADDRESS":"林森路三段１４０巷１５號六樓","OBJECTID":294754},"geometry":{"x":170614.54000000004,"y":2545008.0800000019}},{"attributes":{"ID":294763,"DIS_CODE":0,"TOWNNAME":"歸仁區","LI":"武東里","LIN":"14鄰","STREET":"歸仁八路","SECT":" ","MAREA":" ","LANE":" ","ALLEY":" ","HOUSE_NO":"３４５號","E_COORD97":175747.28,"N_COORD97":2536336,"ADDRESS":"歸仁八路３４５號","OBJECTID":294755},"geometry":{"x":175747.28000000119,"y":2536336.0000000019}},{"attributes":{"ID":294764,"DIS_CODE":0,"TOWNNAME":"歸仁區","LI":"武東里","LIN":"14鄰","STREET":"歸仁八路","SECT":" ","MAREA":" ","LANE":" ","ALLEY":" ","HOUSE_NO":"３４７號","E_COORD97":175745.78,"N_COORD97":2536332.3100000001,"ADDRESS":"歸仁八路３４７號","OBJECTID":294756},"geometry":{"x":175745.78000000119,"y":2536332.3100000005}},{"attributes":{"ID":294765,"DIS_CODE":0,"TOWNNAME":"歸仁區","LI":"武東里","LIN":"14鄰","STREET":"歸仁八路","SECT":" ","MAREA":" ","LANE":" ","ALLEY":" ","HOUSE_NO":"３４９號","E_COORD97":175744.03,"N_COORD97":2536328.1200000001,"ADDRESS":"歸仁八路３４９號","OBJECTID":294757},"geometry":{"x":175744.03000000119,"y":2536328.1199999992}},{"attributes":{"ID":294766,"DIS_CODE":0,"TOWNNAME":"歸仁區","LI":"武東里","LIN":"14鄰","STREET":"歸仁八路","SECT":" ","MAREA":" ","LANE":" ","ALLEY":" ","HOUSE_NO":"３５１號","E_COORD97":175742.59,"N_COORD97":2536324.1899999999,"ADDRESS":"歸仁八路３５１號","OBJECTID":294758},"geometry":{"x":175742.59000000171,"y":2536324.1900000013}},{"attributes":{"ID":294767,"DIS_CODE":0,"TOWNNAME":"歸仁區","LI":"武東里","LIN":"14鄰","STREET":"歸仁八路","SECT":" ","MAREA":" ","LANE":" ","ALLEY":" ","HOUSE_NO":"３５３號","E_COORD97":175740.70000000001,"N_COORD97":2536320.23,"ADDRESS":"歸仁八路３５３號","OBJECTID":294759},"geometry":{"x":175740.70000000112,"y":2536320.2300000042}},{"attributes":{"ID":294768,"DIS_CODE":0,"TOWNNAME":"歸仁區","LI":"武東里","LIN":"14鄰","STREET":"歸仁八路","SECT":" ","MAREA":" ","LANE":" ","ALLEY":" ","HOUSE_NO":"３５５號","E_COORD97":175739.14000000001,"N_COORD97":2536316.23,"ADDRESS":"歸仁八路３５５號","OBJECTID":294760},"geometry":{"x":175739.1400000006,"y":2536316.2300000004}},{"attributes":{"ID":294769,"DIS_CODE":0,"TOWNNAME":"歸仁區","LI":"武東里","LIN":"14鄰","STREET":"歸仁八路","SECT":" ","MAREA":" ","LANE":" ","ALLEY":" ","HOUSE_NO":"３５７號","E_COORD97":175737.41,"N_COORD97":2536312.1299999999,"ADDRESS":"歸仁八路３５７號","OBJECTID":294761},"geometry":{"x":175737.41000000201,"y":2536312.129999999}},{"attributes":{"ID":294770,"DIS_CODE":0,"TOWNNAME":"歸仁區","LI":"武東里","LIN":"14鄰","STREET":"歸仁八路","SECT":" ","MAREA":" ","LANE":" ","ALLEY":" ","HOUSE_NO":"３５９號","E_COORD97":175735.73999999999,"N_COORD97":2536307.9700000002,"ADDRESS":"歸仁八路３５９號","OBJECTID":294762},"geometry":{"x":175735.74000000115,"y":2536307.9700000007}},{"attributes":{"ID":294771,"DIS_CODE":0,"TOWNNAME":"歸仁區","LI":"後市里","LIN":"14鄰","STREET":"大吉一街","SECT":" ","MAREA":" ","LANE":" ","ALLEY":" ","HOUSE_NO":"１０之１號","E_COORD97":177173.25,"N_COORD97":2540760.4500000002,"ADDRESS":"大吉一街１０之１號","OBJECTID":294763},"geometry":{"x":177173.25,"y":2540760.4500000011}},{"attributes":{"ID":294772,"DIS_CODE":0,"TOWNNAME":"歸仁區","LI":"後市里","LIN":"14鄰","STREET":"大吉一街","SECT":" ","MAREA":" ","LANE":" ","ALLEY":" ","HOUSE_NO":"１０之２號","E_COORD97":177168.75,"N_COORD97":2540760.6099999999,"ADDRESS":"大吉一街１０之２號","OBJECTID":294764},"geometry":{"x":177168.75,"y":2540760.6099999994}},{"attributes":{"ID":294773,"DIS_CODE":0,"TOWNNAME":"永康區","LI":"南灣里","LIN":" ","STREET":"南興路","SECT":" ","MAREA":" ","LANE":" ","ALLEY":" ","HOUSE_NO":"３０號","E_COORD97":174208.85000000001,"N_COORD97":2543967.5,"ADDRESS":"南興路３０號","OBJECTID":294765},"geometry":{"x":174208.85000000056,"y":2543967.5000000019}},{"attributes":{"ID":294774,"DIS_CODE":0,"TOWNNAME":"永康區","LI":"東灣里","LIN":"18鄰","STREET":"大灣三街","SECT":" ","MAREA":" ","LANE":"２１巷","ALLEY":" ","HOUSE_NO":"１２號","E_COORD97":174986.41,"N_COORD97":2544886.3999999999,"ADDRESS":"大灣三街２１巷１２號","OBJECTID":294766},"geometry":{"x":174986.41000000201,"y":2544886.4000000041}},{"attributes":{"ID":294775,"DIS_CODE":0,"TOWNNAME":"永康區","LI":"尚頂里","LIN":"20鄰","STREET":"中華路","SECT":" ","MAREA":" ","LANE":"９６２巷","ALLEY":" ","HOUSE_NO":"１８號","E_COORD97":170486.17999999999,"N_COORD97":2546761.75,"ADDRESS":"中華路９６２巷１８號","OBJECTID":294767},"geometry":{"x":170486.1799999997,"y":2546761.7499999981}},{"attributes":{"ID":294776,"DIS_CODE":0,"TOWNNAME":"永康區","LI":"南灣里","LIN":"20鄰","STREET":"大灣路","SECT":" ","MAREA":" ","LANE":"７６４巷","ALLEY":" ","HOUSE_NO":"３２號","E_COORD97":174234.39999999999,"N_COORD97":2544582.9399999999,"ADDRESS":"大灣路７６４巷３２號","OBJECTID":294768},"geometry":{"x":174234.4000000013,"y":2544582.9399999995}},{"attributes":{"ID":294777,"DIS_CODE":0,"TOWNNAME":"永康區","LI":"南灣里","LIN":"26鄰","STREET":"立興街","SECT":" ","MAREA":" ","LANE":"７４巷","ALLEY":" ","HOUSE_NO":"１６號","E_COORD97":174527.63,"N_COORD97":2544853,"ADDRESS":"立興街７４巷１６號","OBJECTID":294769},"geometry":{"x":174527.63000000082,"y":2544853.0000000019}},{"attributes":{"ID":294778,"DIS_CODE":0,"TOWNNAME":"永康區","LI":"東灣里","LIN":"25鄰","STREET":"大灣二街","SECT":" ","MAREA":" ","LANE":"７１巷","ALLEY":" ","HOUSE_NO":"４９號","E_COORD97":174799.06,"N_COORD97":2544639.8399999999,"ADDRESS":"大灣二街７１巷４９號","OBJECTID":294770},"geometry":{"x":174799.06000000052,"y":2544639.8400000017}},{"attributes":{"ID":294779,"DIS_CODE":0,"TOWNNAME":"永康區","LI":"東灣里","LIN":"18鄰","STREET":"大灣三街","SECT":" ","MAREA":" ","LANE":"５７巷","ALLEY":" ","HOUSE_NO":"７號","E_COORD97":174951.79999999999,"N_COORD97":2544885.48,"ADDRESS":"大灣三街５７巷７號","OBJECTID":294771},"geometry":{"x":174951.80000000075,"y":2544885.4800000004}},{"attributes":{"ID":294780,"DIS_CODE":0,"TOWNNAME":"永康區","LI":"南灣里","LIN":"26鄰","STREET":"立興街","SECT":" ","MAREA":" ","LANE":"７４巷","ALLEY":" ","HOUSE_NO":"４０號","E_COORD97":174493.38,"N_COORD97":2544854.7999999998,"ADDRESS":"立興街７４巷４０號","OBJECTID":294772},"geometry":{"x":174493.38000000082,"y":2544854.8000000026}},{"attributes":{"ID":294781,"DIS_CODE":0,"TOWNNAME":"永康區","LI":"南灣里","LIN":"25鄰","STREET":"立興街","SECT":" ","MAREA":" ","LANE":"７４巷","ALLEY":" ","HOUSE_NO":"１３號","E_COORD97":174503.70999999999,"N_COORD97":2544814.5699999998,"ADDRESS":"立興街７４巷１３號","OBJECTID":294773},"geometry":{"x":174503.70999999996,"y":2544814.5700000022}},{"attributes":{"ID":294782,"DIS_CODE":0,"TOWNNAME":"永康區","LI":"東橋里","LIN":"25鄰","STREET":"中正路","SECT":" ","MAREA":" ","LANE":"３５４巷","ALLEY":" ","HOUSE_NO":"４０號","E_COORD97":172901.60000000001,"N_COORD97":2548138.7400000002,"ADDRESS":"中正路３５４巷４０號","OBJECTID":294774},"geometry":{"x":172901.60000000056,"y":2548138.7400000039}},{"attributes":{"ID":294783,"DIS_CODE":0,"TOWNNAME":"永康區","LI":"尚頂里","LIN":"20鄰","STREET":"中華路","SECT":" ","MAREA":" ","LANE":"９６２巷","ALLEY":" ","HOUSE_NO":"１６號","E_COORD97":170482.98000000001,"N_COORD97":2546764,"ADDRESS":"中華路９６２巷１６號","OBJECTID":294775},"geometry":{"x":170482.98000000045,"y":2546764.0000000019}},{"attributes":{"ID":294784,"DIS_CODE":0,"TOWNNAME":"永康區","LI":"南灣里","LIN":"38鄰","STREET":"大安街","SECT":" ","MAREA":" ","LANE":"９７巷","ALLEY":" ","HOUSE_NO":"２５號","E_COORD97":174475.82000000001,"N_COORD97":2545007.5600000001,"ADDRESS":"大安街９７巷２５號","OBJECTID":294776},"geometry":{"x":174475.82000000123,"y":2545007.5600000042}},{"attributes":{"ID":294785,"DIS_CODE":0,"TOWNNAME":"永康區","LI":"西灣里","LIN":"38鄰","STREET":"國光七街","SECT":" ","MAREA":" ","LANE":"３８巷","ALLEY":" ","HOUSE_NO":"２０號","E_COORD97":174224.26000000001,"N_COORD97":2545597.04,"ADDRESS":"國光七街３８巷２０號","OBJECTID":294777},"geometry":{"x":174224.26000000164,"y":2545597.040000001}},{"attributes":{"ID":294786,"DIS_CODE":0,"TOWNNAME":"永康區","LI":"西灣里","LIN":"38鄰","STREET":"國光七街","SECT":" ","MAREA":" ","LANE":"３８巷","ALLEY":" ","HOUSE_NO":"２４號","E_COORD97":174226.67999999999,"N_COORD97":2545607.54,"ADDRESS":"國光七街３８巷２４號","OBJECTID":294778},"geometry":{"x":174226.68000000063,"y":2545607.540000001}},{"attributes":{"ID":294787,"DIS_CODE":0,"TOWNNAME":"北區","LI":"重興里","LIN":"17鄰","STREET":"林森路","SECT":"三段","MAREA":" ","LANE":"１４０巷","ALLEY":" ","HOUSE_NO":"５號三樓","E_COORD97":170603.01000000001,"N_COORD97":2544978.8399999999,"ADDRESS":"林森路三段１４０巷５號三樓","OBJECTID":294779},"geometry":{"x":170603.00999999978,"y":2544978.8400000017}},{"attributes":{"ID":294788,"DIS_CODE":0,"TOWNNAME":"北區","LI":"重興里","LIN":"17鄰","STREET":"林森路","SECT":"三段","MAREA":" ","LANE":"１４０巷","ALLEY":" ","HOUSE_NO":"５號五樓","E_COORD97":170603.01000000001,"N_COORD97":2544978.8399999999,"ADDRESS":"林森路三段１４０巷５號五樓","OBJECTID":294780},"geometry":{"x":170603.00999999978,"y":2544978.8400000017}},{"attributes":{"ID":294789,"DIS_CODE":0,"TOWNNAME":"北區","LI":"重興里","LIN":"17鄰","STREET":"林森路","SECT":"三段","MAREA":" ","LANE":"１４０巷","ALLEY":" ","HOUSE_NO":"５號六樓","E_COORD97":170603.01000000001,"N_COORD97":2544978.8399999999,"ADDRESS":"林森路三段１４０巷５號六樓","OBJECTID":294781},"geometry":{"x":170603.00999999978,"y":2544978.8400000017}},{"attributes":{"ID":294790,"DIS_CODE":0,"TOWNNAME":"北區","LI":"重興里","LIN":"17鄰","STREET":"林森路","SECT":"三段","MAREA":" ","LANE":"１４０巷","ALLEY":" ","HOUSE_NO":"５號四樓","E_COORD97":170603.01000000001,"N_COORD97":2544978.8399999999,"ADDRESS":"林森路三段１４０巷５號四樓","OBJECTID":294782},"geometry":{"x":170603.00999999978,"y":2544978.8400000017}},{"attributes":{"ID":294791,"DIS_CODE":0,"TOWNNAME":"歸仁區","LI":"後市里","LIN":"14鄰","STREET":"大吉一街","SECT":" ","MAREA":" ","LANE":" ","ALLEY":" ","HOUSE_NO":"１０之３號","E_COORD97":177163.81,"N_COORD97":2540761.0600000001,"ADDRESS":"大吉一街１０之３號","OBJECTID":294783},"geometry":{"x":177163.81000000052,"y":2540761.0600000024}},{"attributes":{"ID":294792,"DIS_CODE":0,"TOWNNAME":"歸仁區","LI":"後市里","LIN":"14鄰","STREET":"大吉一街","SECT":" ","MAREA":" ","LANE":" ","ALLEY":" ","HOUSE_NO":"１０之５號","E_COORD97":177159.25,"N_COORD97":2540761.1899999999,"ADDRESS":"大吉一街１０之５號","OBJECTID":294784},"geometry":{"x":177159.25000000093,"y":2540761.1900000013}},{"attributes":{"ID":294793,"DIS_CODE":0,"TOWNNAME":"南區","LI":"廣州里","LIN":"14鄰","STREET":"福吉一街","SECT":" ","MAREA":" ","LANE":" ","ALLEY":" ","HOUSE_NO":"１１號","E_COORD97":167368.70000000001,"N_COORD97":2542724.75,"ADDRESS":"福吉一街１１號","OBJECTID":294785},"geometry":{"x":167368.70000000112,"y":2542724.7500000019}},{"attributes":{"ID":294794,"DIS_CODE":0,"TOWNNAME":"安南區","LI":"顯宮里","LIN":"1鄰","STREET":"顯宮二街","SECT":" ","MAREA":" ","LANE":" ","ALLEY":" ","HOUSE_NO":"２６號","E_COORD97":160533.389287,"N_COORD97":2548643.6073400001,"ADDRESS":"顯宮二街２６號","OBJECTID":294786},"geometry":{"x":160533.38928700145,"y":2548643.6073449999}},{"attributes":{"ID":294795,"DIS_CODE":0,"TOWNNAME":"南區","LI":"廣州里","LIN":"14鄰","STREET":"福吉一街","SECT":" ","MAREA":" ","LANE":" ","ALLEY":" ","HOUSE_NO":"１３號","E_COORD97":167363.63,"N_COORD97":2542726.4399999999,"ADDRESS":"福吉一街１３號","OBJECTID":294787},"geometry":{"x":167363.63000000082,"y":2542726.4400000013}},{"attributes":{"ID":294796,"DIS_CODE":0,"TOWNNAME":"南區","LI":"廣州里","LIN":"14鄰","STREET":"福吉一街","SECT":" ","MAREA":" ","LANE":" ","ALLEY":" ","HOUSE_NO":"１５號","E_COORD97":167359.82999999999,"N_COORD97":2542729.8100000001,"ADDRESS":"福吉一街１５號","OBJECTID":294788},"geometry":{"x":167359.83000000007,"y":2542729.8100000005}},{"attributes":{"ID":294797,"DIS_CODE":0,"TOWNNAME":"南區","LI":"廣州里","LIN":"14鄰","STREET":"福吉一街","SECT":" ","MAREA":" ","LANE":" ","ALLEY":" ","HOUSE_NO":"１７號","E_COORD97":167355.60999999999,"N_COORD97":2542731.9199999999,"ADDRESS":"福吉一街１７號","OBJECTID":294789},"geometry":{"x":167355.61000000127,"y":2542731.9199999999}},{"attributes":{"ID":294798,"DIS_CODE":0,"TOWNNAME":"南區","LI":"廣州里","LIN":"14鄰","STREET":"福吉一街","SECT":" ","MAREA":" ","LANE":" ","ALLEY":" ","HOUSE_NO":"１９號","E_COORD97":167357.29999999999,"N_COORD97":2542738.6699999999,"ADDRESS":"福吉一街１９號","OBJECTID":294790},"geometry":{"x":167357.30000000075,"y":2542738.6700000018}},{"attributes":{"ID":294799,"DIS_CODE":0,"TOWNNAME":"南區","LI":"廣州里","LIN":"14鄰","STREET":"福吉一街","SECT":" ","MAREA":" ","LANE":" ","ALLEY":" ","HOUSE_NO":"１號","E_COORD97":167385.17000000001,"N_COORD97":2542709.1499999999,"ADDRESS":"福吉一街１號","OBJECTID":294791},"geometry":{"x":167385.17000000086,"y":2542709.1500000022}},{"attributes":{"ID":294800,"DIS_CODE":0,"TOWNNAME":"南區","LI":"廣州里","LIN":"14鄰","STREET":"福吉一街","SECT":" ","MAREA":" ","LANE":" ","ALLEY":" ","HOUSE_NO":"２１號","E_COORD97":167353.07999999999,"N_COORD97":2542739.9300000002,"ADDRESS":"福吉一街２１號","OBJECTID":294792},"geometry":{"x":167353.08000000007,"y":2542739.9300000016}},{"attributes":{"ID":294801,"DIS_CODE":0,"TOWNNAME":"南區","LI":"廣州里","LIN":"14鄰","STREET":"福吉一街","SECT":" ","MAREA":" ","LANE":" ","ALLEY":" ","HOUSE_NO":"２３號","E_COORD97":167350.12,"N_COORD97":2542742.04,"ADDRESS":"福吉一街２３號","OBJECTID":294793},"geometry":{"x":167350.12000000104,"y":2542742.040000001}},{"attributes":{"ID":294802,"DIS_CODE":0,"TOWNNAME":"南區","LI":"廣州里","LIN":"14鄰","STREET":"福吉一街","SECT":" ","MAREA":" ","LANE":" ","ALLEY":" ","HOUSE_NO":"２５號","E_COORD97":167344.63,"N_COORD97":2542744.5699999998,"ADDRESS":"福吉一街２５號","OBJECTID":294794},"geometry":{"x":167344.63000000082,"y":2542744.5700000003}},{"attributes":{"ID":294803,"DIS_CODE":0,"TOWNNAME":"南區","LI":"廣州里","LIN":"14鄰","STREET":"福吉一街","SECT":" ","MAREA":" ","LANE":" ","ALLEY":" ","HOUSE_NO":"２７號","E_COORD97":167341.67999999999,"N_COORD97":2542749.6299999999,"ADDRESS":"福吉一街２７號","OBJECTID":294795},"geometry":{"x":167341.6799999997,"y":2542749.629999999}},{"attributes":{"ID":294804,"DIS_CODE":0,"TOWNNAME":"南區","LI":"廣州里","LIN":"14鄰","STREET":"福吉一街","SECT":" ","MAREA":" ","LANE":" ","ALLEY":" ","HOUSE_NO":"３號","E_COORD97":167381.37,"N_COORD97":2542712.1000000001,"ADDRESS":"福吉一街３號","OBJECTID":294796},"geometry":{"x":167381.37000000011,"y":2542712.1000000015}},{"attributes":{"ID":294805,"DIS_CODE":0,"TOWNNAME":"南區","LI":"廣州里","LIN":"14鄰","STREET":"福吉一街","SECT":" ","MAREA":" ","LANE":" ","ALLEY":" ","HOUSE_NO":"５號","E_COORD97":167377.98999999999,"N_COORD97":2542714.21,"ADDRESS":"福吉一街５號","OBJECTID":294797},"geometry":{"x":167377.99000000209,"y":2542714.2100000009}},{"attributes":{"ID":294806,"DIS_CODE":0,"TOWNNAME":"永康區","LI":"南灣里","LIN":"26鄰","STREET":"立興街","SECT":" ","MAREA":" ","LANE":"７４巷","ALLEY":" ","HOUSE_NO":"２４號","E_COORD97":174517.35999999999,"N_COORD97":2544845.9900000002,"ADDRESS":"立興街７４巷２４號","OBJECTID":294798},"geometry":{"x":174517.3600000022,"y":2544845.9900000021}},{"attributes":{"ID":294807,"DIS_CODE":0,"TOWNNAME":"永康區","LI":"南灣里","LIN":"40鄰","STREET":"南灣街","SECT":" ","MAREA":" ","LANE":"１３８巷","ALLEY":" ","HOUSE_NO":"５號","E_COORD97":174319.17000000001,"N_COORD97":2545068.3700000001,"ADDRESS":"南灣街１３８巷５號","OBJECTID":294799},"geometry":{"x":174319.16999999993,"y":2545068.3700000029}},{"attributes":{"ID":294808,"DIS_CODE":0,"TOWNNAME":"永康區","LI":"南灣里","LIN":"38鄰","STREET":"大安街","SECT":" ","MAREA":" ","LANE":"９７巷","ALLEY":" ","HOUSE_NO":"２９號","E_COORD97":174461.26000000001,"N_COORD97":2545022.9300000002,"ADDRESS":"大安街９７巷２９號","OBJECTID":294800},"geometry":{"x":174461.25999999978,"y":2545022.9299999997}}]}