{"displayFieldName":"TOWNNAME","fieldAliases":{"ID":"ID","DIS_CODE":"DIS_CODE","TOWNNAME":"TOWNNAME","LI":"LI","LIN":"LIN","STREET":"STREET","SECT":"SECT","MAREA":"MAREA","LANE":"LANE","ALLEY":"ALLEY","HOUSE_NO":"HOUSE_NO","E_COORD97":"E_COORD97","N_COORD97":"N_COORD97","ADDRESS":"ADDRESS","OBJECTID":"OBJECTID"},"geometryType":"esriGeometryPoint","spatialReference":{"wkid":102443,"latestWkid":3826},"fields":[{"name":"ID","type":"esriFieldTypeDouble","alias":"ID"},{"name":"DIS_CODE","type":"esriFieldTypeInteger","alias":"DIS_CODE"},{"name":"TOWNNAME","type":"esriFieldTypeString","alias":"TOWNNAME","length":8},{"name":"LI","type":"esriFieldTypeString","alias":"LI","length":8},{"name":"LIN","type":"esriFieldTypeString","alias":"LIN","length":12},{"name":"STREET","type":"esriFieldTypeString","alias":"STREET","length":20},{"name":"SECT","type":"esriFieldTypeString","alias":"SECT","length":8},{"name":"MAREA","type":"esriFieldTypeString","alias":"MAREA","length":12},{"name":"LANE","type":"esriFieldTypeString","alias":"LANE","length":10},{"name":"ALLEY","type":"esriFieldTypeString","alias":"ALLEY","length":10},{"name":"HOUSE_NO","type":"esriFieldTypeString","alias":"HOUSE_NO","length":20},{"name":"E_COORD97","type":"esriFieldTypeDouble","alias":"E_COORD97"},{"name":"N_COORD97","type":"esriFieldTypeDouble","alias":"N_COORD97"},{"name":"ADDRESS","type":"esriFieldTypeString","alias":"ADDRESS","length":50},{"name":"OBJECTID","type":"esriFieldTypeOID","alias":"OBJECTID"}],"features":[{"attributes":{"ID":428026,"DIS_CODE":0,"TOWNNAME":"永康區","LI":"五王里","LIN":"26鄰","STREET":"五福街","SECT":" ","MAREA":" ","LANE":"８２巷","ALLEY":" ","HOUSE_NO":"４１號","E_COORD97":171535.72,"N_COORD97":2545889.6299999999,"ADDRESS":"五福街８２巷４１號","OBJECTID":428001},"geometry":{"x":171535.71999999881,"y":2545889.629999999}},{"attributes":{"ID":428027,"DIS_CODE":0,"TOWNNAME":"東山區","LI":"南溪里","LIN":"9鄰","STREET":" ","SECT":" ","MAREA":"二重溪","LANE":" ","ALLEY":" ","HOUSE_NO":"１０９號","E_COORD97":189486.40395800001,"N_COORD97":2574381.3168899999,"ADDRESS":"二重溪１０９號","OBJECTID":428002},"geometry":{"x":189486.40395800117,"y":2574381.3168940023}},{"attributes":{"ID":428028,"DIS_CODE":0,"TOWNNAME":"永康區","LI":"五王里","LIN":"26鄰","STREET":"五福街","SECT":" ","MAREA":" ","LANE":"８２巷","ALLEY":" ","HOUSE_NO":"２１號","E_COORD97":171503.29000000001,"N_COORD97":2545916.0099999998,"ADDRESS":"五福街８２巷２１號","OBJECTID":428003},"geometry":{"x":171503.29000000004,"y":2545916.0100000035}},{"attributes":{"ID":428029,"DIS_CODE":0,"TOWNNAME":"永康區","LI":"五王里","LIN":"39鄰","STREET":"中華路","SECT":" ","MAREA":" ","LANE":"５７８巷","ALLEY":" ","HOUSE_NO":"１７號之８４","E_COORD97":171333.59,"N_COORD97":2545989.54,"ADDRESS":"中華路５７８巷１７號之８４","OBJECTID":428004},"geometry":{"x":171333.59000000078,"y":2545989.5400000028}},{"attributes":{"ID":428030,"DIS_CODE":0,"TOWNNAME":"永康區","LI":"王行里","LIN":"4鄰","STREET":"育樂街","SECT":" ","MAREA":" ","LANE":"１３９巷","ALLEY":" ","HOUSE_NO":"１１號","E_COORD97":175107.28,"N_COORD97":2548307.8199999998,"ADDRESS":"育樂街１３９巷１１號","OBJECTID":428005},"geometry":{"x":175107.28000000026,"y":2548307.820000004}},{"attributes":{"ID":428031,"DIS_CODE":0,"TOWNNAME":"永康區","LI":"五王里","LIN":"26鄰","STREET":"五福街","SECT":" ","MAREA":" ","LANE":"８２巷","ALLEY":" ","HOUSE_NO":"５９號","E_COORD97":171563.75,"N_COORD97":2545812.5699999998,"ADDRESS":"五福街８２巷５９號","OBJECTID":428006},"geometry":{"x":171563.75000000093,"y":2545812.5700000003}},{"attributes":{"ID":428032,"DIS_CODE":0,"TOWNNAME":"永康區","LI":"五王里","LIN":"26鄰","STREET":"五福街","SECT":" ","MAREA":" ","LANE":"８２巷","ALLEY":" ","HOUSE_NO":"９號","E_COORD97":171502.92000000001,"N_COORD97":2545942.3999999999,"ADDRESS":"五福街８２巷９號","OBJECTID":428007},"geometry":{"x":171502.92000000086,"y":2545942.4000000022}},{"attributes":{"ID":428033,"DIS_CODE":0,"TOWNNAME":"永康區","LI":"五王里","LIN":"39鄰","STREET":"中華路","SECT":" ","MAREA":" ","LANE":"５７８巷","ALLEY":" ","HOUSE_NO":"１７號之６０","E_COORD97":171333.62,"N_COORD97":2545989.54,"ADDRESS":"中華路５７８巷１７號之６０","OBJECTID":428008},"geometry":{"x":171333.62000000104,"y":2545989.5400000028}},{"attributes":{"ID":428034,"DIS_CODE":0,"TOWNNAME":"永康區","LI":"五王里","LIN":"32鄰","STREET":"中華路","SECT":" ","MAREA":" ","LANE":"５７８巷","ALLEY":" ","HOUSE_NO":"２號之３","E_COORD97":171242.84,"N_COORD97":2545918.5499999998,"ADDRESS":"中華路５７８巷２號之３","OBJECTID":428009},"geometry":{"x":171242.83999999985,"y":2545918.5500000007}},{"attributes":{"ID":428035,"DIS_CODE":0,"TOWNNAME":"永康區","LI":"五王里","LIN":"25鄰","STREET":"五福街","SECT":" ","MAREA":" ","LANE":"３８巷","ALLEY":" ","HOUSE_NO":"６號","E_COORD97":171342.59,"N_COORD97":2545855.2400000002,"ADDRESS":"五福街３８巷６號","OBJECTID":428010},"geometry":{"x":171342.59000000078,"y":2545855.2400000021}},{"attributes":{"ID":428036,"DIS_CODE":0,"TOWNNAME":"永康區","LI":"五王里","LIN":"39鄰","STREET":"中華路","SECT":" ","MAREA":" ","LANE":"５７８巷","ALLEY":" ","HOUSE_NO":"１７號之６３","E_COORD97":171333.67000000001,"N_COORD97":2545989.54,"ADDRESS":"中華路５７８巷１７號之６３","OBJECTID":428011},"geometry":{"x":171333.67000000086,"y":2545989.5400000028}},{"attributes":{"ID":428037,"DIS_CODE":0,"TOWNNAME":"永康區","LI":"五王里","LIN":"39鄰","STREET":"中華路","SECT":" ","MAREA":" ","LANE":"５７８巷","ALLEY":" ","HOUSE_NO":"１７號之５８","E_COORD97":171333.72,"N_COORD97":2545989.54,"ADDRESS":"中華路５７８巷１７號之５８","OBJECTID":428012},"geometry":{"x":171333.71999999974,"y":2545989.5400000028}},{"attributes":{"ID":428038,"DIS_CODE":0,"TOWNNAME":"永康區","LI":"五王里","LIN":"41鄰","STREET":"中山南路","SECT":" ","MAREA":" ","LANE":"２６２巷","ALLEY":" ","HOUSE_NO":"６號","E_COORD97":171555.62,"N_COORD97":2546015.1499999999,"ADDRESS":"中山南路２６２巷６號","OBJECTID":428013},"geometry":{"x":171555.62000000197,"y":2546015.1500000022}},{"attributes":{"ID":428039,"DIS_CODE":0,"TOWNNAME":"永康區","LI":"五王里","LIN":"38鄰","STREET":"中華路","SECT":" ","MAREA":" ","LANE":"５７８巷","ALLEY":" ","HOUSE_NO":"１７號之３４","E_COORD97":171333.59,"N_COORD97":2545989.54,"ADDRESS":"中華路５７８巷１７號之３４","OBJECTID":428014},"geometry":{"x":171333.59000000078,"y":2545989.5400000028}},{"attributes":{"ID":428040,"DIS_CODE":0,"TOWNNAME":"永康區","LI":"五王里","LIN":"26鄰","STREET":"五福街","SECT":" ","MAREA":" ","LANE":"８２巷","ALLEY":" ","HOUSE_NO":"１９號","E_COORD97":171500.51000000001,"N_COORD97":2545921.0099999998,"ADDRESS":"五福街８２巷１９號","OBJECTID":428015},"geometry":{"x":171500.51000000071,"y":2545921.0099999998}},{"attributes":{"ID":428041,"DIS_CODE":0,"TOWNNAME":"永康區","LI":"五王里","LIN":"26鄰","STREET":"五福街","SECT":" ","MAREA":" ","LANE":"８２巷","ALLEY":" ","HOUSE_NO":"１３號","E_COORD97":171516.38,"N_COORD97":2545937.25,"ADDRESS":"五福街８２巷１３號","OBJECTID":428016},"geometry":{"x":171516.38000000082,"y":2545937.25}},{"attributes":{"ID":428042,"DIS_CODE":0,"TOWNNAME":"永康區","LI":"五王里","LIN":"39鄰","STREET":"中華路","SECT":" ","MAREA":" ","LANE":"５７８巷","ALLEY":" ","HOUSE_NO":"１７號之９１","E_COORD97":171333.57000000001,"N_COORD97":2545989.54,"ADDRESS":"中華路５７８巷１７號之９１","OBJECTID":428017},"geometry":{"x":171333.5700000003,"y":2545989.5400000028}},{"attributes":{"ID":428043,"DIS_CODE":0,"TOWNNAME":"永康區","LI":"五王里","LIN":"39鄰","STREET":"中華路","SECT":" ","MAREA":" ","LANE":"５７８巷","ALLEY":" ","HOUSE_NO":"１７號之６２","E_COORD97":171333.70000000001,"N_COORD97":2545989.54,"ADDRESS":"中華路５７８巷１７號之６２","OBJECTID":428018},"geometry":{"x":171333.70000000112,"y":2545989.5400000028}},{"attributes":{"ID":428044,"DIS_CODE":0,"TOWNNAME":"永康區","LI":"五王里","LIN":"39鄰","STREET":"中華路","SECT":" ","MAREA":" ","LANE":"５７８巷","ALLEY":" ","HOUSE_NO":"１７號之７３","E_COORD97":171333.67000000001,"N_COORD97":2545989.54,"ADDRESS":"中華路５７８巷１７號之７３","OBJECTID":428019},"geometry":{"x":171333.67000000086,"y":2545989.5400000028}},{"attributes":{"ID":428045,"DIS_CODE":0,"TOWNNAME":"永康區","LI":"王行里","LIN":"13鄰","STREET":"王行路","SECT":" ","MAREA":" ","LANE":"１０１８巷","ALLEY":" ","HOUSE_NO":"３７號","E_COORD97":175816.57000000001,"N_COORD97":2550201.9900000002,"ADDRESS":"王行路１０１８巷３７號","OBJECTID":428020},"geometry":{"x":175816.57000000123,"y":2550201.9900000039}},{"attributes":{"ID":428046,"DIS_CODE":0,"TOWNNAME":"永康區","LI":"王行里","LIN":"4鄰","STREET":"育樂街","SECT":" ","MAREA":" ","LANE":"１８３巷","ALLEY":" ","HOUSE_NO":"２３號","E_COORD97":174962.79999999999,"N_COORD97":2548271.77,"ADDRESS":"育樂街１８３巷２３號","OBJECTID":428021},"geometry":{"x":174962.79999999981,"y":2548271.7700000014}},{"attributes":{"ID":428047,"DIS_CODE":0,"TOWNNAME":"永康區","LI":"五王里","LIN":"38鄰","STREET":"中華路","SECT":" ","MAREA":" ","LANE":"５７８巷","ALLEY":" ","HOUSE_NO":"１７號之１５","E_COORD97":171333.72,"N_COORD97":2545989.54,"ADDRESS":"中華路５７８巷１７號之１５","OBJECTID":428022},"geometry":{"x":171333.71999999974,"y":2545989.5400000028}},{"attributes":{"ID":428048,"DIS_CODE":0,"TOWNNAME":"永康區","LI":"中興里","LIN":"18鄰","STREET":"中華路","SECT":" ","MAREA":" ","LANE":"２８６巷","ALLEY":" ","HOUSE_NO":"７８號","E_COORD97":171737.42999999999,"N_COORD97":2545293.5,"ADDRESS":"中華路２８６巷７８號","OBJECTID":428023},"geometry":{"x":171737.4299999997,"y":2545293.5000000019}},{"attributes":{"ID":428049,"DIS_CODE":0,"TOWNNAME":"永康區","LI":"五王里","LIN":"26鄰","STREET":"五福街","SECT":" ","MAREA":" ","LANE":"８２巷","ALLEY":" ","HOUSE_NO":"５０號","E_COORD97":171543.31,"N_COORD97":2545818.25,"ADDRESS":"五福街８２巷５０號","OBJECTID":428024},"geometry":{"x":171543.30999999959,"y":2545818.25}},{"attributes":{"ID":428050,"DIS_CODE":0,"TOWNNAME":"永康區","LI":"五王里","LIN":"39鄰","STREET":"中華路","SECT":" ","MAREA":" ","LANE":"５７８巷","ALLEY":" ","HOUSE_NO":"１７號之１１２","E_COORD97":171334.95000000001,"N_COORD97":2545989.54,"ADDRESS":"中華路５７８巷１７號之１１２","OBJECTID":428025},"geometry":{"x":171334.95000000112,"y":2545989.5400000028}},{"attributes":{"ID":428051,"DIS_CODE":0,"TOWNNAME":"永康區","LI":"五王里","LIN":"39鄰","STREET":"中華路","SECT":" ","MAREA":" ","LANE":"５７８巷","ALLEY":" ","HOUSE_NO":"１７號之１１３","E_COORD97":171334.92000000001,"N_COORD97":2545989.54,"ADDRESS":"中華路５７８巷１７號之１１３","OBJECTID":428026},"geometry":{"x":171334.92000000086,"y":2545989.5400000028}},{"attributes":{"ID":428052,"DIS_CODE":0,"TOWNNAME":"永康區","LI":"五王里","LIN":"39鄰","STREET":"中華路","SECT":" ","MAREA":" ","LANE":"５７８巷","ALLEY":" ","HOUSE_NO":"１７號之７０","E_COORD97":171333.62,"N_COORD97":2545989.54,"ADDRESS":"中華路５７８巷１７號之７０","OBJECTID":428027},"geometry":{"x":171333.62000000104,"y":2545989.5400000028}},{"attributes":{"ID":428053,"DIS_CODE":0,"TOWNNAME":"永康區","LI":"五王里","LIN":"39鄰","STREET":"中華路","SECT":" ","MAREA":" ","LANE":"５７８巷","ALLEY":" ","HOUSE_NO":"１７號之９５","E_COORD97":171333.72,"N_COORD97":2545989.54,"ADDRESS":"中華路５７８巷１７號之９５","OBJECTID":428028},"geometry":{"x":171333.71999999974,"y":2545989.5400000028}},{"attributes":{"ID":428054,"DIS_CODE":0,"TOWNNAME":"永康區","LI":"王行里","LIN":"4鄰","STREET":"育樂街","SECT":" ","MAREA":" ","LANE":"１８３巷","ALLEY":" ","HOUSE_NO":"３１號","E_COORD97":174989.29000000001,"N_COORD97":2548274.3199999998,"ADDRESS":"育樂街１８３巷３１號","OBJECTID":428029},"geometry":{"x":174989.29000000097,"y":2548274.3200000022}},{"attributes":{"ID":428055,"DIS_CODE":0,"TOWNNAME":"永康區","LI":"中興里","LIN":"4鄰","STREET":"中華路","SECT":" ","MAREA":" ","LANE":"２１２巷","ALLEY":" ","HOUSE_NO":"５１號","E_COORD97":171826.75,"N_COORD97":2545028.9900000002,"ADDRESS":"中華路２１２巷５１號","OBJECTID":428030},"geometry":{"x":171826.75,"y":2545028.9900000021}},{"attributes":{"ID":428056,"DIS_CODE":0,"TOWNNAME":"永康區","LI":"王行里","LIN":"4鄰","STREET":"育樂街","SECT":" ","MAREA":" ","LANE":"２０６巷","ALLEY":" ","HOUSE_NO":"６號","E_COORD97":175024.85000000001,"N_COORD97":2548382.73,"ADDRESS":"育樂街２０６巷６號","OBJECTID":428031},"geometry":{"x":175024.84999999963,"y":2548382.7300000004}},{"attributes":{"ID":428057,"DIS_CODE":0,"TOWNNAME":"永康區","LI":"五王里","LIN":"41鄰","STREET":"中華路","SECT":" ","MAREA":" ","LANE":"５７８巷","ALLEY":" ","HOUSE_NO":"２０號","E_COORD97":171382.95999999999,"N_COORD97":2545985.9900000002,"ADDRESS":"中華路５７８巷２０號","OBJECTID":428032},"geometry":{"x":171382.95999999996,"y":2545985.9900000002}},{"attributes":{"ID":428058,"DIS_CODE":0,"TOWNNAME":"永康區","LI":"五王里","LIN":"18鄰","STREET":"成功路","SECT":" ","MAREA":" ","LANE":"１８８巷","ALLEY":" ","HOUSE_NO":"２２號","E_COORD97":171488.42000000001,"N_COORD97":2545699.52,"ADDRESS":"成功路１８８巷２２號","OBJECTID":428033},"geometry":{"x":171488.41999999993,"y":2545699.5200000014}},{"attributes":{"ID":428059,"DIS_CODE":0,"TOWNNAME":"永康區","LI":"崑山里","LIN":"41鄰","STREET":"崑山街","SECT":" ","MAREA":" ","LANE":"２１９巷","ALLEY":" ","HOUSE_NO":"１６號","E_COORD97":174049.57000000001,"N_COORD97":2545068.96,"ADDRESS":"崑山街２１９巷１６號","OBJECTID":428034},"geometry":{"x":174049.56999999937,"y":2545068.9600000009}},{"attributes":{"ID":428060,"DIS_CODE":0,"TOWNNAME":"永康區","LI":"復國里","LIN":"17鄰","STREET":"國華街","SECT":" ","MAREA":" ","LANE":"１８巷","ALLEY":" ","HOUSE_NO":"８號","E_COORD97":172860.20999999999,"N_COORD97":2545603.25,"ADDRESS":"國華街１８巷８號","OBJECTID":428035},"geometry":{"x":172860.21000000089,"y":2545603.2500000019}},{"attributes":{"ID":428061,"DIS_CODE":0,"TOWNNAME":"永康區","LI":"崑山里","LIN":"18鄰","STREET":"大灣路","SECT":" ","MAREA":" ","LANE":"９４２巷","ALLEY":" ","HOUSE_NO":"２６號","E_COORD97":173642.54999999999,"N_COORD97":2544522.1200000001,"ADDRESS":"大灣路９４２巷２６號","OBJECTID":428036},"geometry":{"x":173642.55000000168,"y":2544522.120000001}},{"attributes":{"ID":428062,"DIS_CODE":0,"TOWNNAME":"永康區","LI":"復國里","LIN":"4鄰","STREET":"復國一路","SECT":" ","MAREA":" ","LANE":"６８巷","ALLEY":" ","HOUSE_NO":"２７號","E_COORD97":172789.34,"N_COORD97":2544878.2799999998,"ADDRESS":"復國一路６８巷２７號","OBJECTID":428037},"geometry":{"x":172789.33999999985,"y":2544878.2799999993}},{"attributes":{"ID":428063,"DIS_CODE":0,"TOWNNAME":"永康區","LI":"勝利里","LIN":"20鄰","STREET":"勝學路","SECT":" ","MAREA":" ","LANE":"２６９巷","ALLEY":" ","HOUSE_NO":"７號","E_COORD97":171147.95000000001,"N_COORD97":2545300.7599999998,"ADDRESS":"勝學路２６９巷７號","OBJECTID":428038},"geometry":{"x":171147.95000000019,"y":2545300.7600000016}},{"attributes":{"ID":428064,"DIS_CODE":0,"TOWNNAME":"永康區","LI":"復華里","LIN":"32鄰","STREET":"國華街","SECT":" ","MAREA":" ","LANE":"１６２巷","ALLEY":" ","HOUSE_NO":"６號","E_COORD97":172581.84,"N_COORD97":2546314,"ADDRESS":"國華街１６２巷６號","OBJECTID":428039},"geometry":{"x":172581.84000000078,"y":2546314.0000000019}},{"attributes":{"ID":428065,"DIS_CODE":0,"TOWNNAME":"永康區","LI":"復國里","LIN":"4鄰","STREET":"復國一路","SECT":" ","MAREA":" ","LANE":"６８巷","ALLEY":" ","HOUSE_NO":"４６號","E_COORD97":172826.44,"N_COORD97":2544863.52,"ADDRESS":"復國一路６８巷４６號","OBJECTID":428040},"geometry":{"x":172826.44000000041,"y":2544863.5199999996}},{"attributes":{"ID":428066,"DIS_CODE":0,"TOWNNAME":"永康區","LI":"復華里","LIN":"4鄰","STREET":"復國二路","SECT":" ","MAREA":" ","LANE":"２６９巷","ALLEY":" ","HOUSE_NO":"１３號","E_COORD97":172998.64000000001,"N_COORD97":2546190.5600000001,"ADDRESS":"復國二路２６９巷１３號","OBJECTID":428041},"geometry":{"x":172998.63999999966,"y":2546190.5600000005}},{"attributes":{"ID":428067,"DIS_CODE":0,"TOWNNAME":"新營區","LI":"民榮里","LIN":"39鄰","STREET":"太子路","SECT":" ","MAREA":" ","LANE":"５３巷","ALLEY":"７弄","HOUSE_NO":"３３號","E_COORD97":178286.397631,"N_COORD97":2577896.2006299999,"ADDRESS":"太子路５３巷７弄３３號","OBJECTID":428042},"geometry":{"x":178286.3976309998,"y":2577896.2006289978}},{"attributes":{"ID":428068,"DIS_CODE":0,"TOWNNAME":"永康區","LI":"勝利里","LIN":"5鄰","STREET":"勝學路","SECT":" ","MAREA":" ","LANE":"６１巷","ALLEY":" ","HOUSE_NO":"１２號","E_COORD97":171112.37,"N_COORD97":2544749.0099999998,"ADDRESS":"勝學路６１巷１２號","OBJECTID":428043},"geometry":{"x":171112.37000000011,"y":2544749.0099999998}},{"attributes":{"ID":428069,"DIS_CODE":0,"TOWNNAME":"永康區","LI":"復國里","LIN":"4鄰","STREET":"復國一路","SECT":" ","MAREA":" ","LANE":"６８巷","ALLEY":" ","HOUSE_NO":"４３號","E_COORD97":172821.48000000001,"N_COORD97":2544880.7799999998,"ADDRESS":"復國一路６８巷４３號","OBJECTID":428044},"geometry":{"x":172821.48000000231,"y":2544880.7800000012}},{"attributes":{"ID":428070,"DIS_CODE":0,"TOWNNAME":"永康區","LI":"復國里","LIN":"5鄰","STREET":"復國一路","SECT":" ","MAREA":" ","LANE":"９０巷","ALLEY":" ","HOUSE_NO":"１５號","E_COORD97":172748.45999999999,"N_COORD97":2544967.7799999998,"ADDRESS":"復國一路９０巷１５號","OBJECTID":428045},"geometry":{"x":172748.46000000089,"y":2544967.7800000031}},{"attributes":{"ID":428071,"DIS_CODE":0,"TOWNNAME":"永康區","LI":"復國里","LIN":"5鄰","STREET":"復國一路","SECT":" ","MAREA":" ","LANE":"９０巷","ALLEY":" ","HOUSE_NO":"１６號","E_COORD97":172760.57000000001,"N_COORD97":2544895.7799999998,"ADDRESS":"復國一路９０巷１６號","OBJECTID":428046},"geometry":{"x":172760.5700000003,"y":2544895.7799999993}},{"attributes":{"ID":428072,"DIS_CODE":0,"TOWNNAME":"永康區","LI":"復國里","LIN":"18鄰","STREET":"復國一路","SECT":" ","MAREA":" ","LANE":"３６４巷","ALLEY":" ","HOUSE_NO":"１７號","E_COORD97":172835.75,"N_COORD97":2545805.9900000002,"ADDRESS":"復國一路３６４巷１７號","OBJECTID":428047},"geometry":{"x":172835.75,"y":2545805.9900000021}},{"attributes":{"ID":428073,"DIS_CODE":0,"TOWNNAME":"永康區","LI":"勝利里","LIN":"20鄰","STREET":"勝華街","SECT":" ","MAREA":" ","LANE":"１４０巷","ALLEY":" ","HOUSE_NO":"５號","E_COORD97":171221.14999999999,"N_COORD97":2545248,"ADDRESS":"勝華街１４０巷５號","OBJECTID":428048},"geometry":{"x":171221.15000000037,"y":2545247.9999999981}},{"attributes":{"ID":428074,"DIS_CODE":0,"TOWNNAME":"永康區","LI":"復華里","LIN":"25鄰","STREET":"復華八街","SECT":" ","MAREA":" ","LANE":"４９巷","ALLEY":" ","HOUSE_NO":"２０號","E_COORD97":172752.63,"N_COORD97":2546424.2799999998,"ADDRESS":"復華八街４９巷２０號","OBJECTID":428049},"geometry":{"x":172752.63000000082,"y":2546424.2799999993}},{"attributes":{"ID":428075,"DIS_CODE":0,"TOWNNAME":"永康區","LI":"復國里","LIN":"32鄰","STREET":"復華一街","SECT":" ","MAREA":" ","LANE":"２８巷","ALLEY":" ","HOUSE_NO":"３７號","E_COORD97":172645.51000000001,"N_COORD97":2545192.0299999998,"ADDRESS":"復華一街２８巷３７號","OBJECTID":428050},"geometry":{"x":172645.50999999978,"y":2545192.0299999993}},{"attributes":{"ID":428076,"DIS_CODE":0,"TOWNNAME":"永康區","LI":"復華里","LIN":"4鄰","STREET":"復國二路","SECT":" ","MAREA":" ","LANE":"２４３巷","ALLEY":" ","HOUSE_NO":"２０號","E_COORD97":172959.44,"N_COORD97":2546136.0699999998,"ADDRESS":"復國二路２４３巷２０號","OBJECTID":428051},"geometry":{"x":172959.44000000134,"y":2546136.0699999984}},{"attributes":{"ID":428077,"DIS_CODE":0,"TOWNNAME":"永康區","LI":"勝利里","LIN":"39鄰","STREET":"勝華街","SECT":" ","MAREA":" ","LANE":"３７巷","ALLEY":" ","HOUSE_NO":"５２號","E_COORD97":171436.85000000001,"N_COORD97":2545101.7599999998,"ADDRESS":"勝華街３７巷５２號","OBJECTID":428052},"geometry":{"x":171436.85000000056,"y":2545101.7600000016}},{"attributes":{"ID":428078,"DIS_CODE":0,"TOWNNAME":"永康區","LI":"復華里","LIN":"4鄰","STREET":"復國二路","SECT":" ","MAREA":" ","LANE":"２６９巷","ALLEY":" ","HOUSE_NO":"１９號","E_COORD97":172987.03,"N_COORD97":2546193.5600000001,"ADDRESS":"復國二路２６９巷１９號","OBJECTID":428053},"geometry":{"x":172987.03000000212,"y":2546193.5600000005}},{"attributes":{"ID":428079,"DIS_CODE":0,"TOWNNAME":"永康區","LI":"復國里","LIN":"18鄰","STREET":"復國一路","SECT":" ","MAREA":" ","LANE":"３６２巷","ALLEY":" ","HOUSE_NO":"１７號","E_COORD97":172825.63,"N_COORD97":2545784.5299999998,"ADDRESS":"復國一路３６２巷１７號","OBJECTID":428054},"geometry":{"x":172825.63000000082,"y":2545784.5300000012}},{"attributes":{"ID":428080,"DIS_CODE":0,"TOWNNAME":"永康區","LI":"復華里","LIN":"25鄰","STREET":"復華八街","SECT":" ","MAREA":" ","LANE":"４９巷","ALLEY":" ","HOUSE_NO":"２４號","E_COORD97":172743.01999999999,"N_COORD97":2546424.2799999998,"ADDRESS":"復華八街４９巷２４號","OBJECTID":428055},"geometry":{"x":172743.02000000048,"y":2546424.2799999993}},{"attributes":{"ID":428081,"DIS_CODE":0,"TOWNNAME":"永康區","LI":"復華里","LIN":"4鄰","STREET":"復國二路","SECT":" ","MAREA":" ","LANE":"２４３巷","ALLEY":" ","HOUSE_NO":"２６號","E_COORD97":172948.04999999999,"N_COORD97":2546140.5699999998,"ADDRESS":"復國二路２４３巷２６號","OBJECTID":428056},"geometry":{"x":172948.05000000075,"y":2546140.5700000022}},{"attributes":{"ID":428082,"DIS_CODE":0,"TOWNNAME":"永康區","LI":"復華里","LIN":"4鄰","STREET":"復國二路","SECT":" ","MAREA":" ","LANE":"２６９巷","ALLEY":" ","HOUSE_NO":"２５號","E_COORD97":172975.34,"N_COORD97":2546196.0600000001,"ADDRESS":"復國二路２６９巷２５號","OBJECTID":428057},"geometry":{"x":172975.33999999985,"y":2546196.0600000005}},{"attributes":{"ID":428083,"DIS_CODE":0,"TOWNNAME":"永康區","LI":"復國里","LIN":"5鄰","STREET":"復國一路","SECT":" ","MAREA":" ","LANE":"９０巷","ALLEY":" ","HOUSE_NO":"１３號","E_COORD97":172748.01000000001,"N_COORD97":2544963.2799999998,"ADDRESS":"復國一路９０巷１３號","OBJECTID":428058},"geometry":{"x":172748.01000000071,"y":2544963.2799999993}},{"attributes":{"ID":428084,"DIS_CODE":0,"TOWNNAME":"永康區","LI":"復國里","LIN":"5鄰","STREET":"復國一路","SECT":" ","MAREA":" ","LANE":"９０巷","ALLEY":" ","HOUSE_NO":"２２號","E_COORD97":172758.64999999999,"N_COORD97":2544922.77,"ADDRESS":"復國一路９０巷２２號","OBJECTID":428059},"geometry":{"x":172758.65000000037,"y":2544922.7699999996}},{"attributes":{"ID":428085,"DIS_CODE":0,"TOWNNAME":"永康區","LI":"勝利里","LIN":"5鄰","STREET":"勝學路","SECT":" ","MAREA":" ","LANE":"６１巷","ALLEY":" ","HOUSE_NO":"５號","E_COORD97":171118.31,"N_COORD97":2544734.5,"ADDRESS":"勝學路６１巷５號","OBJECTID":428060},"geometry":{"x":171118.31000000052,"y":2544734.5000000019}},{"attributes":{"ID":428086,"DIS_CODE":0,"TOWNNAME":"永康區","LI":"復國里","LIN":"32鄰","STREET":"復華一街","SECT":" ","MAREA":" ","LANE":"２８巷","ALLEY":" ","HOUSE_NO":"２７號","E_COORD97":172641.54999999999,"N_COORD97":2545162.0299999998,"ADDRESS":"復華一街２８巷２７號","OBJECTID":428061},"geometry":{"x":172641.54999999981,"y":2545162.0299999993}},{"attributes":{"ID":428087,"DIS_CODE":0,"TOWNNAME":"永康區","LI":"復國里","LIN":"32鄰","STREET":"復華一街","SECT":" ","MAREA":" ","LANE":"１９巷","ALLEY":" ","HOUSE_NO":"１１號","E_COORD97":172650.88,"N_COORD97":2545033.27,"ADDRESS":"復華一街１９巷１１號","OBJECTID":428062},"geometry":{"x":172650.88000000082,"y":2545033.2700000014}},{"attributes":{"ID":428088,"DIS_CODE":0,"TOWNNAME":"永康區","LI":"復國里","LIN":"4鄰","STREET":"復國一路","SECT":" ","MAREA":" ","LANE":"６８巷","ALLEY":" ","HOUSE_NO":"３９號","E_COORD97":172813.48000000001,"N_COORD97":2544880.27,"ADDRESS":"復國一路６８巷３９號","OBJECTID":428063},"geometry":{"x":172813.48000000138,"y":2544880.2700000014}},{"attributes":{"ID":428089,"DIS_CODE":0,"TOWNNAME":"永康區","LI":"勝利里","LIN":"20鄰","STREET":"勝學路","SECT":" ","MAREA":" ","LANE":"２６９巷","ALLEY":" ","HOUSE_NO":"２３號","E_COORD97":171148.60000000001,"N_COORD97":2545253.5,"ADDRESS":"勝學路２６９巷２３號","OBJECTID":428064},"geometry":{"x":171148.60000000056,"y":2545253.5}},{"attributes":{"ID":428090,"DIS_CODE":0,"TOWNNAME":"永康區","LI":"復華里","LIN":"25鄰","STREET":"復華八街","SECT":" ","MAREA":" ","LANE":"４９巷","ALLEY":" ","HOUSE_NO":"１２號","E_COORD97":172771.42999999999,"N_COORD97":2546424.0299999998,"ADDRESS":"復華八街４９巷１２號","OBJECTID":428065},"geometry":{"x":172771.4299999997,"y":2546424.0300000012}},{"attributes":{"ID":428091,"DIS_CODE":0,"TOWNNAME":"永康區","LI":"勝利里","LIN":"36鄰","STREET":"勝學路","SECT":" ","MAREA":" ","LANE":"６０巷","ALLEY":" ","HOUSE_NO":"６號","E_COORD97":171167.45999999999,"N_COORD97":2544728.5,"ADDRESS":"勝學路６０巷６號","OBJECTID":428066},"geometry":{"x":171167.45999999996,"y":2544728.5}},{"attributes":{"ID":428092,"DIS_CODE":0,"TOWNNAME":"永康區","LI":"復國里","LIN":"5鄰","STREET":"復國一路","SECT":" ","MAREA":" ","LANE":"９０巷","ALLEY":" ","HOUSE_NO":"２３號","E_COORD97":172758.66,"N_COORD97":2544972.2799999998,"ADDRESS":"復國一路９０巷２３號","OBJECTID":428067},"geometry":{"x":172758.66000000015,"y":2544972.2800000012}},{"attributes":{"ID":428093,"DIS_CODE":0,"TOWNNAME":"永康區","LI":"復華里","LIN":"32鄰","STREET":"國華街","SECT":" ","MAREA":" ","LANE":"１２５巷","ALLEY":" ","HOUSE_NO":"３號","E_COORD97":172582.16,"N_COORD97":2546283.4900000002,"ADDRESS":"國華街１２５巷３號","OBJECTID":428068},"geometry":{"x":172582.16000000015,"y":2546283.4900000021}},{"attributes":{"ID":428094,"DIS_CODE":0,"TOWNNAME":"永康區","LI":"崑山里","LIN":"4鄰","STREET":"永大路","SECT":"一段","MAREA":" ","LANE":"２８７巷","ALLEY":" ","HOUSE_NO":"９１號","E_COORD97":173761.56,"N_COORD97":2544292.8100000001,"ADDRESS":"永大路一段２８７巷９１號","OBJECTID":428069},"geometry":{"x":173761.56000000052,"y":2544292.8100000005}},{"attributes":{"ID":428095,"DIS_CODE":0,"TOWNNAME":"永康區","LI":"崑山里","LIN":"4鄰","STREET":"永大路","SECT":"一段","MAREA":" ","LANE":"２８７巷","ALLEY":" ","HOUSE_NO":"７９號","E_COORD97":173768.26000000001,"N_COORD97":2544303.7599999998,"ADDRESS":"永大路一段２８７巷７９號","OBJECTID":428070},"geometry":{"x":173768.26000000164,"y":2544303.7600000035}},{"attributes":{"ID":428096,"DIS_CODE":0,"TOWNNAME":"永康區","LI":"勝利里","LIN":"40鄰","STREET":"中華一路","SECT":" ","MAREA":" ","LANE":" ","ALLEY":" ","HOUSE_NO":"１９２號","E_COORD97":171483.29999999999,"N_COORD97":2544980.75,"ADDRESS":"中華一路１９２號","OBJECTID":428071},"geometry":{"x":171483.30000000075,"y":2544980.75}},{"attributes":{"ID":428097,"DIS_CODE":0,"TOWNNAME":"永康區","LI":"勝利里","LIN":"26鄰","STREET":"勝利街","SECT":" ","MAREA":" ","LANE":"７４巷","ALLEY":" ","HOUSE_NO":"１１號","E_COORD97":171393.82000000001,"N_COORD97":2544709.75,"ADDRESS":"勝利街７４巷１１號","OBJECTID":428072},"geometry":{"x":171393.82000000123,"y":2544709.75}},{"attributes":{"ID":428098,"DIS_CODE":0,"TOWNNAME":"永康區","LI":"勝利里","LIN":"39鄰","STREET":"勝華街","SECT":" ","MAREA":" ","LANE":"３７巷","ALLEY":" ","HOUSE_NO":"７０號","E_COORD97":171435.14999999999,"N_COORD97":2545068.5099999998,"ADDRESS":"勝華街３７巷７０號","OBJECTID":428073},"geometry":{"x":171435.14999999944,"y":2545068.5100000016}},{"attributes":{"ID":428099,"DIS_CODE":0,"TOWNNAME":"永康區","LI":"崑山里","LIN":"32鄰","STREET":"大灣路","SECT":" ","MAREA":" ","LANE":"７９８巷","ALLEY":" ","HOUSE_NO":"７８號","E_COORD97":174110.85000000001,"N_COORD97":2544791.3700000001,"ADDRESS":"大灣路７９８巷７８號","OBJECTID":428074},"geometry":{"x":174110.84999999963,"y":2544791.370000001}},{"attributes":{"ID":428100,"DIS_CODE":0,"TOWNNAME":"永康區","LI":"勝利里","LIN":"26鄰","STREET":"勝利街","SECT":" ","MAREA":" ","LANE":"７４巷","ALLEY":" ","HOUSE_NO":"２４號","E_COORD97":171432.70999999999,"N_COORD97":2544698.75,"ADDRESS":"勝利街７４巷２４號","OBJECTID":428075},"geometry":{"x":171432.71000000183,"y":2544698.7500000019}},{"attributes":{"ID":428101,"DIS_CODE":0,"TOWNNAME":"永康區","LI":"復國里","LIN":"5鄰","STREET":"復國二路","SECT":" ","MAREA":" ","LANE":"３８巷","ALLEY":" ","HOUSE_NO":"７號","E_COORD97":172855.57999999999,"N_COORD97":2544943.77,"ADDRESS":"復國二路３８巷７號","OBJECTID":428076},"geometry":{"x":172855.58000000007,"y":2544943.7699999996}},{"attributes":{"ID":428102,"DIS_CODE":0,"TOWNNAME":"永康區","LI":"勝利里","LIN":"20鄰","STREET":"勝學路","SECT":" ","MAREA":" ","LANE":"２６９巷","ALLEY":" ","HOUSE_NO":"２號","E_COORD97":171168.64999999999,"N_COORD97":2545316.0099999998,"ADDRESS":"勝學路２６９巷２號","OBJECTID":428077},"geometry":{"x":171168.65000000037,"y":2545316.0100000016}},{"attributes":{"ID":428103,"DIS_CODE":0,"TOWNNAME":"永康區","LI":"崑山里","LIN":"26鄰","STREET":"大灣路","SECT":" ","MAREA":" ","LANE":"９４２巷","ALLEY":" ","HOUSE_NO":"１６７號","E_COORD97":173714.39999999999,"N_COORD97":2544778.25,"ADDRESS":"大灣路９４２巷１６７號","OBJECTID":428078},"geometry":{"x":173714.4000000013,"y":2544778.25}},{"attributes":{"ID":428104,"DIS_CODE":0,"TOWNNAME":"永康區","LI":"神洲里","LIN":"4鄰","STREET":"忠孝路","SECT":" ","MAREA":" ","LANE":"３８巷","ALLEY":" ","HOUSE_NO":"２４號之１","E_COORD97":172184.57000000001,"N_COORD97":2544702.79,"ADDRESS":"忠孝路３８巷２４號之１","OBJECTID":428079},"geometry":{"x":172184.5700000003,"y":2544702.7900000028}},{"attributes":{"ID":428105,"DIS_CODE":0,"TOWNNAME":"永康區","LI":"崑山里","LIN":" ","STREET":"大灣路","SECT":" ","MAREA":" ","LANE":"８９１巷","ALLEY":" ","HOUSE_NO":"３３之１７號","E_COORD97":173650.35000000001,"N_COORD97":2544258.8999999999,"ADDRESS":"大灣路８９１巷３３之１７號","OBJECTID":428080},"geometry":{"x":173650.35000000149,"y":2544258.9000000004}},{"attributes":{"ID":428106,"DIS_CODE":0,"TOWNNAME":"永康區","LI":"崑山里","LIN":"26鄰","STREET":"大灣路","SECT":" ","MAREA":" ","LANE":"９４２巷","ALLEY":" ","HOUSE_NO":"１５３號","E_COORD97":173704.63,"N_COORD97":2544750.5,"ADDRESS":"大灣路９４２巷１５３號","OBJECTID":428081},"geometry":{"x":173704.62999999896,"y":2544750.5000000019}},{"attributes":{"ID":428107,"DIS_CODE":0,"TOWNNAME":"永康區","LI":"崑山里","LIN":"4鄰","STREET":"永大路","SECT":"一段","MAREA":" ","LANE":"２８７巷","ALLEY":" ","HOUSE_NO":"８１號","E_COORD97":173769.64000000001,"N_COORD97":2544297.7599999998,"ADDRESS":"永大路一段２８７巷８１號","OBJECTID":428082},"geometry":{"x":173769.6400000006,"y":2544297.7600000016}},{"attributes":{"ID":428108,"DIS_CODE":0,"TOWNNAME":"永康區","LI":"勝利里","LIN":"4鄰","STREET":"勝學路","SECT":" ","MAREA":" ","LANE":"８９巷","ALLEY":" ","HOUSE_NO":"１３號","E_COORD97":171088.69,"N_COORD97":2544827.5,"ADDRESS":"勝學路８９巷１３號","OBJECTID":428083},"geometry":{"x":171088.69000000041,"y":2544827.4999999981}},{"attributes":{"ID":428109,"DIS_CODE":0,"TOWNNAME":"永康區","LI":"崑山里","LIN":"4鄰","STREET":"永大路","SECT":"一段","MAREA":" ","LANE":"２８７巷","ALLEY":" ","HOUSE_NO":"１０７號","E_COORD97":173737.48999999999,"N_COORD97":2544326.3500000001,"ADDRESS":"永大路一段２８７巷１０７號","OBJECTID":428084},"geometry":{"x":173737.49000000022,"y":2544326.3499999978}},{"attributes":{"ID":428110,"DIS_CODE":0,"TOWNNAME":"永康區","LI":"復國里","LIN":"5鄰","STREET":"復國一路","SECT":" ","MAREA":" ","LANE":"９０巷","ALLEY":" ","HOUSE_NO":"３１號","E_COORD97":172758.51000000001,"N_COORD97":2544953.77,"ADDRESS":"復國一路９０巷３１號","OBJECTID":428085},"geometry":{"x":172758.51000000071,"y":2544953.7699999996}},{"attributes":{"ID":428111,"DIS_CODE":0,"TOWNNAME":"永康區","LI":"崑山里","LIN":"20鄰","STREET":"崑山街","SECT":" ","MAREA":" ","LANE":"２１巷","ALLEY":" ","HOUSE_NO":"８號","E_COORD97":173877.19,"N_COORD97":2544581.6699999999,"ADDRESS":"崑山街２１巷８號","OBJECTID":428086},"geometry":{"x":173877.19000000041,"y":2544581.6699999999}},{"attributes":{"ID":428112,"DIS_CODE":0,"TOWNNAME":"永康區","LI":"崑山里","LIN":"32鄰","STREET":"大灣路","SECT":" ","MAREA":" ","LANE":"７９８巷","ALLEY":" ","HOUSE_NO":"９４號","E_COORD97":174122.10000000001,"N_COORD97":2544822.6099999999,"ADDRESS":"大灣路７９８巷９４號","OBJECTID":428087},"geometry":{"x":174122.10000000056,"y":2544822.6099999994}},{"attributes":{"ID":428113,"DIS_CODE":0,"TOWNNAME":"永康區","LI":"崑山里","LIN":"32鄰","STREET":"大灣路","SECT":" ","MAREA":" ","LANE":"７９８巷","ALLEY":" ","HOUSE_NO":"１０２號","E_COORD97":174129.35000000001,"N_COORD97":2544838.8599999999,"ADDRESS":"大灣路７９８巷１０２號","OBJECTID":428088},"geometry":{"x":174129.34999999963,"y":2544838.8600000013}},{"attributes":{"ID":428114,"DIS_CODE":0,"TOWNNAME":"永康區","LI":"復國里","LIN":"13鄰","STREET":"復國二路","SECT":" ","MAREA":" ","LANE":"１１５巷","ALLEY":" ","HOUSE_NO":"１號","E_COORD97":172875.06,"N_COORD97":2545576.6899999999,"ADDRESS":"復國二路１１５巷１號","OBJECTID":428089},"geometry":{"x":172875.06000000052,"y":2545576.6900000013}},{"attributes":{"ID":428115,"DIS_CODE":0,"TOWNNAME":"永康區","LI":"復華里","LIN":"4鄰","STREET":"國華街","SECT":" ","MAREA":" ","LANE":"１０２巷","ALLEY":" ","HOUSE_NO":"７２號","E_COORD97":172938,"N_COORD97":2546155.0299999998,"ADDRESS":"國華街１０２巷７２號","OBJECTID":428090},"geometry":{"x":172938.00000000093,"y":2546155.0299999993}},{"attributes":{"ID":428116,"DIS_CODE":0,"TOWNNAME":"永康區","LI":"勝利里","LIN":"39鄰","STREET":"勝華街","SECT":" ","MAREA":" ","LANE":"３７巷","ALLEY":" ","HOUSE_NO":"６０號","E_COORD97":171435.81,"N_COORD97":2545085.5099999998,"ADDRESS":"勝華街３７巷６０號","OBJECTID":428091},"geometry":{"x":171435.81000000052,"y":2545085.5100000016}},{"attributes":{"ID":428117,"DIS_CODE":0,"TOWNNAME":"安南區","LI":"\u25A0南里","LIN":"32鄰","STREET":"安昌街","SECT":" ","MAREA":" ","LANE":"１７４巷","ALLEY":" ","HOUSE_NO":"５１號","E_COORD97":170119.44,"N_COORD97":2552311.7000000002,"ADDRESS":"安昌街１７４巷５１號","OBJECTID":428092},"geometry":{"x":170119.43999999948,"y":2552311.700000003}},{"attributes":{"ID":428118,"DIS_CODE":0,"TOWNNAME":"安南區","LI":"\u25A0南里","LIN":"32鄰","STREET":"安昌街","SECT":" ","MAREA":" ","LANE":"１７４巷","ALLEY":" ","HOUSE_NO":"１５號","E_COORD97":170126.04999999999,"N_COORD97":2552423.6699999999,"ADDRESS":"安昌街１７４巷１５號","OBJECTID":428093},"geometry":{"x":170126.04999999981,"y":2552423.6699999999}},{"attributes":{"ID":428119,"DIS_CODE":0,"TOWNNAME":"安南區","LI":"州北里","LIN":"19鄰","STREET":"安昌街","SECT":" ","MAREA":" ","LANE":"８５巷","ALLEY":" ","HOUSE_NO":"１１號","E_COORD97":169910.57999999999,"N_COORD97":2552192.7400000002,"ADDRESS":"安昌街８５巷１１號","OBJECTID":428094},"geometry":{"x":169910.58000000007,"y":2552192.7400000002}},{"attributes":{"ID":428120,"DIS_CODE":0,"TOWNNAME":"安南區","LI":"州北里","LIN":"19鄰","STREET":"安昌街","SECT":" ","MAREA":" ","LANE":"８５巷","ALLEY":" ","HOUSE_NO":"１３號","E_COORD97":169917.85999999999,"N_COORD97":2552205.1099999999,"ADDRESS":"安昌街８５巷１３號","OBJECTID":428095},"geometry":{"x":169917.86000000034,"y":2552205.1100000013}},{"attributes":{"ID":428121,"DIS_CODE":0,"TOWNNAME":"安南區","LI":"州北里","LIN":"19鄰","STREET":"安昌街","SECT":" ","MAREA":" ","LANE":"８５巷","ALLEY":" ","HOUSE_NO":"７號","E_COORD97":169910.14999999999,"N_COORD97":2552181.3700000001,"ADDRESS":"安昌街８５巷７號","OBJECTID":428096},"geometry":{"x":169910.1500000013,"y":2552181.3700000029}},{"attributes":{"ID":428122,"DIS_CODE":0,"TOWNNAME":"安南區","LI":"州北里","LIN":"19鄰","STREET":"安昌街","SECT":" ","MAREA":" ","LANE":"８５巷","ALLEY":" ","HOUSE_NO":"９號","E_COORD97":169911.06,"N_COORD97":2552187.21,"ADDRESS":"安昌街８５巷９號","OBJECTID":428097},"geometry":{"x":169911.06000000145,"y":2552187.2100000009}},{"attributes":{"ID":428123,"DIS_CODE":0,"TOWNNAME":"安南區","LI":"州北里","LIN":"21鄰","STREET":"安和路","SECT":"五段","MAREA":" ","LANE":"３２５巷","ALLEY":" ","HOUSE_NO":"１４號","E_COORD97":169625.84,"N_COORD97":2552103.5299999998,"ADDRESS":"安和路五段３２５巷１４號","OBJECTID":428098},"geometry":{"x":169625.83999999985,"y":2552103.5300000012}},{"attributes":{"ID":428124,"DIS_CODE":0,"TOWNNAME":"安南區","LI":"州北里","LIN":"21鄰","STREET":"安和路","SECT":"五段","MAREA":" ","LANE":"３２５巷","ALLEY":" ","HOUSE_NO":"１６號","E_COORD97":169627.09,"N_COORD97":2552096.2200000002,"ADDRESS":"安和路五段３２５巷１６號","OBJECTID":428099},"geometry":{"x":169627.09000000078,"y":2552096.2200000044}},{"attributes":{"ID":428125,"DIS_CODE":0,"TOWNNAME":"安南區","LI":"梅花里","LIN":"3鄰","STREET":"安中路","SECT":"一段","MAREA":" ","LANE":"６９９巷","ALLEY":" ","HOUSE_NO":"６號","E_COORD97":167616.66,"N_COORD97":2549174.3799999999,"ADDRESS":"安中路一段６９９巷６號","OBJECTID":428100},"geometry":{"x":167616.66000000015,"y":2549174.3800000008}},{"attributes":{"ID":428126,"DIS_CODE":0,"TOWNNAME":"安南區","LI":"州北里","LIN":"21鄰","STREET":"安和路","SECT":"五段","MAREA":" ","LANE":"３２５巷","ALLEY":" ","HOUSE_NO":"１８號","E_COORD97":169628.64999999999,"N_COORD97":2552089.8399999999,"ADDRESS":"安和路五段３２５巷１８號","OBJECTID":428101},"geometry":{"x":169628.6500000013,"y":2552089.8399999999}},{"attributes":{"ID":428127,"DIS_CODE":0,"TOWNNAME":"安南區","LI":"州北里","LIN":"21鄰","STREET":"安和路","SECT":"五段","MAREA":" ","LANE":"３２５巷","ALLEY":" ","HOUSE_NO":"２０號","E_COORD97":169631.14000000001,"N_COORD97":2552084.3900000001,"ADDRESS":"安和路五段３２５巷２０號","OBJECTID":428102},"geometry":{"x":169631.1400000006,"y":2552084.3899999987}},{"attributes":{"ID":428128,"DIS_CODE":0,"TOWNNAME":"安南區","LI":"州北里","LIN":"21鄰","STREET":"安和路","SECT":"五段","MAREA":" ","LANE":"３２５巷","ALLEY":" ","HOUSE_NO":"２２號","E_COORD97":169633.01999999999,"N_COORD97":2552078.8599999999,"ADDRESS":"安和路五段３２５巷２２號","OBJECTID":428103},"geometry":{"x":169633.01999999955,"y":2552078.8599999994}},{"attributes":{"ID":428129,"DIS_CODE":0,"TOWNNAME":"安南區","LI":"州北里","LIN":"21鄰","STREET":"安和路","SECT":"五段","MAREA":" ","LANE":"３２５巷","ALLEY":" ","HOUSE_NO":"２４號","E_COORD97":169636.29000000001,"N_COORD97":2552070.77,"ADDRESS":"安和路五段３２５巷２４號","OBJECTID":428104},"geometry":{"x":169636.29000000004,"y":2552070.7700000033}},{"attributes":{"ID":428130,"DIS_CODE":0,"TOWNNAME":"安南區","LI":"州北里","LIN":"21鄰","STREET":"安和路","SECT":"五段","MAREA":" ","LANE":"３２５巷","ALLEY":" ","HOUSE_NO":"２８號","E_COORD97":169644.44,"N_COORD97":2552049.9700000002,"ADDRESS":"安和路五段３２５巷２８號","OBJECTID":428105},"geometry":{"x":169644.44000000041,"y":2552049.9699999988}},{"attributes":{"ID":428131,"DIS_CODE":0,"TOWNNAME":"安南區","LI":"鳳凰里","LIN":"12鄰","STREET":"安中路","SECT":"一段","MAREA":" ","LANE":"７００巷","ALLEY":" ","HOUSE_NO":"８５號之３","E_COORD97":167900.48999999999,"N_COORD97":2549274.7400000002,"ADDRESS":"安中路一段７００巷８５號之３","OBJECTID":428106},"geometry":{"x":167900.49000000115,"y":2549274.7400000039}},{"attributes":{"ID":428132,"DIS_CODE":0,"TOWNNAME":"安南區","LI":"理想里","LIN":"13鄰","STREET":"大安街","SECT":" ","MAREA":" ","LANE":"５９巷","ALLEY":" ","HOUSE_NO":"４號","E_COORD97":167171.89000000001,"N_COORD97":2548033.6499999999,"ADDRESS":"大安街５９巷４號","OBJECTID":428107},"geometry":{"x":167171.8900000006,"y":2548033.6500000004}},{"attributes":{"ID":428133,"DIS_CODE":0,"TOWNNAME":"安南區","LI":"溪心里","LIN":"14鄰","STREET":"本原街","SECT":"二段","MAREA":" ","LANE":"５１０巷","ALLEY":" ","HOUSE_NO":"４號","E_COORD97":165897.34,"N_COORD97":2550545.75,"ADDRESS":"本原街二段５１０巷４號","OBJECTID":428108},"geometry":{"x":165897.34000000078,"y":2550545.7500000037}},{"attributes":{"ID":428134,"DIS_CODE":0,"TOWNNAME":"安南區","LI":"南興里","LIN":"12鄰","STREET":"公學路","SECT":"五段","MAREA":" ","LANE":"６５６巷","ALLEY":" ","HOUSE_NO":"３００號","E_COORD97":164458.07000000001,"N_COORD97":2553613.9700000002,"ADDRESS":"公學路五段６５６巷３００號","OBJECTID":428109},"geometry":{"x":164458.0700000003,"y":2553613.9700000025}},{"attributes":{"ID":428135,"DIS_CODE":0,"TOWNNAME":"安南區","LI":"鳳凰里","LIN":"13鄰","STREET":"安中路","SECT":"一段","MAREA":" ","LANE":"７０２巷","ALLEY":" ","HOUSE_NO":"６號","E_COORD97":167655.70000000001,"N_COORD97":2549337.5899999999,"ADDRESS":"安中路一段７０２巷６號","OBJECTID":428110},"geometry":{"x":167655.70000000019,"y":2549337.5900000017}},{"attributes":{"ID":428136,"DIS_CODE":0,"TOWNNAME":"安南區","LI":"鳳凰里","LIN":"4鄰","STREET":"安中路","SECT":"一段","MAREA":" ","LANE":"６９８巷","ALLEY":" ","HOUSE_NO":"２１號","E_COORD97":167748.5,"N_COORD97":2549234.1699999999,"ADDRESS":"安中路一段６９８巷２１號","OBJECTID":428111},"geometry":{"x":167748.5,"y":2549234.1700000037}},{"attributes":{"ID":428137,"DIS_CODE":0,"TOWNNAME":"安南區","LI":"鳳凰里","LIN":"4鄰","STREET":"安中路","SECT":"一段","MAREA":" ","LANE":"６９８巷","ALLEY":" ","HOUSE_NO":"２２號","E_COORD97":167748.10000000001,"N_COORD97":2549227.1800000002,"ADDRESS":"安中路一段６９８巷２２號","OBJECTID":428112},"geometry":{"x":167748.10000000056,"y":2549227.1800000034}},{"attributes":{"ID":428138,"DIS_CODE":0,"TOWNNAME":"安南區","LI":"鳳凰里","LIN":"4鄰","STREET":"安中路","SECT":"一段","MAREA":" ","LANE":"６９８巷","ALLEY":" ","HOUSE_NO":"２３號","E_COORD97":167748.29999999999,"N_COORD97":2549220.79,"ADDRESS":"安中路一段６９８巷２３號","OBJECTID":428113},"geometry":{"x":167748.30000000168,"y":2549220.7899999991}},{"attributes":{"ID":428139,"DIS_CODE":0,"TOWNNAME":"安南區","LI":"鳳凰里","LIN":"4鄰","STREET":"安中路","SECT":"一段","MAREA":" ","LANE":"６９８巷","ALLEY":" ","HOUSE_NO":"２５號","E_COORD97":167760.79999999999,"N_COORD97":2549206.4500000002,"ADDRESS":"安中路一段６９８巷２５號","OBJECTID":428114},"geometry":{"x":167760.80000000075,"y":2549206.4499999993}},{"attributes":{"ID":428140,"DIS_CODE":0,"TOWNNAME":"安南區","LI":"鳳凰里","LIN":"4鄰","STREET":"安中路","SECT":"一段","MAREA":" ","LANE":"６９８巷","ALLEY":" ","HOUSE_NO":"２６號","E_COORD97":167770.25,"N_COORD97":2549206.5699999998,"ADDRESS":"安中路一段６９８巷２６號","OBJECTID":428115},"geometry":{"x":167770.25,"y":2549206.5700000003}},{"attributes":{"ID":428141,"DIS_CODE":0,"TOWNNAME":"安南區","LI":"鳳凰里","LIN":"4鄰","STREET":"安中路","SECT":"一段","MAREA":" ","LANE":"６９８巷","ALLEY":" ","HOUSE_NO":"２７號","E_COORD97":167775.92000000001,"N_COORD97":2549206.2000000002,"ADDRESS":"安中路一段６９８巷２７號","OBJECTID":428116},"geometry":{"x":167775.91999999993,"y":2549206.200000003}},{"attributes":{"ID":428142,"DIS_CODE":0,"TOWNNAME":"安南區","LI":"鳳凰里","LIN":"4鄰","STREET":"安中路","SECT":"一段","MAREA":" ","LANE":"６９８巷","ALLEY":" ","HOUSE_NO":"２８號","E_COORD97":167781.07999999999,"N_COORD97":2549217.8900000001,"ADDRESS":"安中路一段６９８巷２８號","OBJECTID":428117},"geometry":{"x":167781.08000000101,"y":2549217.8900000025}},{"attributes":{"ID":428143,"DIS_CODE":0,"TOWNNAME":"安南區","LI":"鳳凰里","LIN":"4鄰","STREET":"安中路","SECT":"一段","MAREA":" ","LANE":"６９８巷","ALLEY":" ","HOUSE_NO":"２９號","E_COORD97":167781.45999999999,"N_COORD97":2549224.6800000002,"ADDRESS":"安中路一段６９８巷２９號","OBJECTID":428118},"geometry":{"x":167781.46000000089,"y":2549224.6800000016}},{"attributes":{"ID":428144,"DIS_CODE":0,"TOWNNAME":"安南區","LI":"鳳凰里","LIN":"4鄰","STREET":"安中路","SECT":"一段","MAREA":" ","LANE":"６９８巷","ALLEY":" ","HOUSE_NO":"３０號","E_COORD97":167782.09,"N_COORD97":2549232.23,"ADDRESS":"安中路一段６９８巷３０號","OBJECTID":428119},"geometry":{"x":167782.09000000171,"y":2549232.2300000023}},{"attributes":{"ID":428145,"DIS_CODE":0,"TOWNNAME":"安南區","LI":"鳳凰里","LIN":"6鄰","STREET":"安中路","SECT":"一段","MAREA":" ","LANE":"６９８巷","ALLEY":" ","HOUSE_NO":"５５號","E_COORD97":167886.51000000001,"N_COORD97":2549225.4500000002,"ADDRESS":"安中路一段６９８巷５５號","OBJECTID":428120},"geometry":{"x":167886.51000000071,"y":2549225.4500000011}},{"attributes":{"ID":428146,"DIS_CODE":0,"TOWNNAME":"安南區","LI":"鳳凰里","LIN":"6鄰","STREET":"安中路","SECT":"一段","MAREA":" ","LANE":"６９８巷","ALLEY":" ","HOUSE_NO":"５９號","E_COORD97":167886.38,"N_COORD97":2549197.8199999998,"ADDRESS":"安中路一段６９８巷５９號","OBJECTID":428121},"geometry":{"x":167886.37999999989,"y":2549197.8200000003}},{"attributes":{"ID":428147,"DIS_CODE":0,"TOWNNAME":"安南區","LI":"鳳凰里","LIN":"6鄰","STREET":"安中路","SECT":"一段","MAREA":" ","LANE":"６９８巷","ALLEY":" ","HOUSE_NO":"６１號","E_COORD97":167888.20000000001,"N_COORD97":2549183.8799999999,"ADDRESS":"安中路一段６９８巷６１號","OBJECTID":428122},"geometry":{"x":167888.20000000019,"y":2549183.8799999971}},{"attributes":{"ID":428148,"DIS_CODE":0,"TOWNNAME":"安南區","LI":"鳳凰里","LIN":"6鄰","STREET":"安中路","SECT":"一段","MAREA":" ","LANE":"６９８巷","ALLEY":" ","HOUSE_NO":"６２號","E_COORD97":167894.51999999999,"N_COORD97":2549170.5899999999,"ADDRESS":"安中路一段６９８巷６２號","OBJECTID":428123},"geometry":{"x":167894.52000000048,"y":2549170.5900000017}},{"attributes":{"ID":428149,"DIS_CODE":0,"TOWNNAME":"安南區","LI":"鳳凰里","LIN":"6鄰","STREET":"安中路","SECT":"一段","MAREA":" ","LANE":"６９８巷","ALLEY":" ","HOUSE_NO":"６３號","E_COORD97":167900.57000000001,"N_COORD97":2549170.3900000001,"ADDRESS":"安中路一段６９８巷６３號","OBJECTID":428124},"geometry":{"x":167900.5700000003,"y":2549170.3900000025}},{"attributes":{"ID":428150,"DIS_CODE":0,"TOWNNAME":"安南區","LI":"鳳凰里","LIN":"6鄰","STREET":"安中路","SECT":"一段","MAREA":" ","LANE":"６９８巷","ALLEY":" ","HOUSE_NO":"６４號","E_COORD97":167910.07000000001,"N_COORD97":2549169.9500000002,"ADDRESS":"安中路一段６９８巷６４號","OBJECTID":428125},"geometry":{"x":167910.07000000123,"y":2549169.9499999993}},{"attributes":{"ID":428151,"DIS_CODE":0,"TOWNNAME":"安南區","LI":"鳳凰里","LIN":"3鄰","STREET":"安中路","SECT":"一段","MAREA":" ","LANE":"５６０巷","ALLEY":" ","HOUSE_NO":"９號","E_COORD97":168027.13,"N_COORD97":2549060.7200000002,"ADDRESS":"安中路一段５６０巷９號","OBJECTID":428126},"geometry":{"x":168027.12999999989,"y":2549060.7200000007}},{"attributes":{"ID":428152,"DIS_CODE":0,"TOWNNAME":"仁德區","LI":"太子里","LIN":"20鄰","STREET":"長興四街","SECT":" ","MAREA":" ","LANE":"６０巷","ALLEY":" ","HOUSE_NO":"２號","E_COORD97":173939.23000000001,"N_COORD97":2543565,"ADDRESS":"長興四街６０巷２號","OBJECTID":428127},"geometry":{"x":173939.23000000138,"y":2543565}},{"attributes":{"ID":428153,"DIS_CODE":0,"TOWNNAME":"安南區","LI":"鳳凰里","LIN":"2鄰","STREET":"怡安路","SECT":"二段","MAREA":" ","LANE":"５９巷","ALLEY":" ","HOUSE_NO":"５號","E_COORD97":168290.13,"N_COORD97":2549227.79,"ADDRESS":"怡安路二段５９巷５號","OBJECTID":428128},"geometry":{"x":168290.12999999989,"y":2549227.7899999991}},{"attributes":{"ID":428154,"DIS_CODE":0,"TOWNNAME":"安南區","LI":"鳳凰里","LIN":"14鄰","STREET":"安中路","SECT":"一段","MAREA":" ","LANE":"７０２巷","ALLEY":" ","HOUSE_NO":"３１號之１","E_COORD97":167754.07999999999,"N_COORD97":2549374.5699999998,"ADDRESS":"安中路一段７０２巷３１號之１","OBJECTID":428129},"geometry":{"x":167754.08000000101,"y":2549374.5700000022}},{"attributes":{"ID":428155,"DIS_CODE":0,"TOWNNAME":"安南區","LI":"鳳凰里","LIN":"14鄰","STREET":"安中路","SECT":"一段","MAREA":" ","LANE":"７０２巷","ALLEY":" ","HOUSE_NO":"３２號","E_COORD97":167756.32000000001,"N_COORD97":2549370.2200000002,"ADDRESS":"安中路一段７０２巷３２號","OBJECTID":428130},"geometry":{"x":167756.3200000003,"y":2549370.2200000044}},{"attributes":{"ID":428156,"DIS_CODE":0,"TOWNNAME":"安南區","LI":"鳳凰里","LIN":"14鄰","STREET":"安中路","SECT":"一段","MAREA":" ","LANE":"７０２巷","ALLEY":" ","HOUSE_NO":"３４號","E_COORD97":167756.20000000001,"N_COORD97":2549354.23,"ADDRESS":"安中路一段７０２巷３４號","OBJECTID":428131},"geometry":{"x":167756.20000000205,"y":2549354.2300000023}},{"attributes":{"ID":428157,"DIS_CODE":0,"TOWNNAME":"安南區","LI":"鳳凰里","LIN":"17鄰","STREET":"安中路","SECT":"一段","MAREA":" ","LANE":"７０２巷","ALLEY":" ","HOUSE_NO":"７６號","E_COORD97":167806.23999999999,"N_COORD97":2549319.98,"ADDRESS":"安中路一段７０２巷７６號","OBJECTID":428132},"geometry":{"x":167806.24000000022,"y":2549319.9800000004}},{"attributes":{"ID":428158,"DIS_CODE":0,"TOWNNAME":"安南區","LI":"鳳凰里","LIN":"17鄰","STREET":"安中路","SECT":"一段","MAREA":" ","LANE":"７０２巷","ALLEY":" ","HOUSE_NO":"７８號","E_COORD97":167823.67000000001,"N_COORD97":2549319.7400000002,"ADDRESS":"安中路一段７０２巷７８號","OBJECTID":428133},"geometry":{"x":167823.66999999993,"y":2549319.7400000021}},{"attributes":{"ID":428159,"DIS_CODE":0,"TOWNNAME":"安南區","LI":"鳳凰里","LIN":"17鄰","STREET":"安中路","SECT":"一段","MAREA":" ","LANE":"７０２巷","ALLEY":" ","HOUSE_NO":"７９號","E_COORD97":167828.5,"N_COORD97":2549319.3900000001,"ADDRESS":"安中路一段７０２巷７９號","OBJECTID":428134},"geometry":{"x":167828.50000000186,"y":2549319.3900000025}},{"attributes":{"ID":428160,"DIS_CODE":0,"TOWNNAME":"安南區","LI":"鳳凰里","LIN":"17鄰","STREET":"安中路","SECT":"一段","MAREA":" ","LANE":"７０２巷","ALLEY":" ","HOUSE_NO":"８１號","E_COORD97":167844.98999999999,"N_COORD97":2549319.04,"ADDRESS":"安中路一段７０２巷８１號","OBJECTID":428135},"geometry":{"x":167844.99000000022,"y":2549319.0400000028}},{"attributes":{"ID":428161,"DIS_CODE":0,"TOWNNAME":"永康區","LI":"勝利里","LIN":"40鄰","STREET":"中華一路","SECT":" ","MAREA":" ","LANE":" ","ALLEY":" ","HOUSE_NO":"１８４號","E_COORD97":171498.57000000001,"N_COORD97":2544980.2400000002,"ADDRESS":"中華一路１８４號","OBJECTID":428136},"geometry":{"x":171498.57000000123,"y":2544980.2400000021}},{"attributes":{"ID":428162,"DIS_CODE":0,"TOWNNAME":"安南區","LI":"鳳凰里","LIN":"17鄰","STREET":"安中路","SECT":"一段","MAREA":" ","LANE":"７０２巷","ALLEY":" ","HOUSE_NO":"８２號","E_COORD97":167836.73999999999,"N_COORD97":2549334.2599999998,"ADDRESS":"安中路一段７０２巷８２號","OBJECTID":428137},"geometry":{"x":167836.74000000022,"y":2549334.2599999998}},{"attributes":{"ID":428163,"DIS_CODE":0,"TOWNNAME":"仁德區","LI":"仁義里","LIN":"39鄰","STREET":"仁義五街","SECT":" ","MAREA":" ","LANE":"４４巷","ALLEY":" ","HOUSE_NO":"５號","E_COORD97":173611.82999999999,"N_COORD97":2540416.02,"ADDRESS":"仁義五街４４巷５號","OBJECTID":428138},"geometry":{"x":173611.83000000007,"y":2540416.0199999977}},{"attributes":{"ID":428164,"DIS_CODE":0,"TOWNNAME":"安南區","LI":"鳳凰里","LIN":"17鄰","STREET":"安中路","SECT":"一段","MAREA":" ","LANE":"７０２巷","ALLEY":" ","HOUSE_NO":"８３號","E_COORD97":167836.73999999999,"N_COORD97":2549342.8399999999,"ADDRESS":"安中路一段７０２巷８３號","OBJECTID":428139},"geometry":{"x":167836.74000000022,"y":2549342.8400000017}},{"attributes":{"ID":428165,"DIS_CODE":0,"TOWNNAME":"安南區","LI":"鳳凰里","LIN":"17鄰","STREET":"安中路","SECT":"一段","MAREA":" ","LANE":"７０２巷","ALLEY":" ","HOUSE_NO":"８４號","E_COORD97":167845.10000000001,"N_COORD97":2549347.23,"ADDRESS":"安中路一段７０２巷８４號","OBJECTID":428140},"geometry":{"x":167845.10000000056,"y":2549347.2300000023}},{"attributes":{"ID":428166,"DIS_CODE":0,"TOWNNAME":"安南區","LI":"鳳凰里","LIN":"17鄰","STREET":"安中路","SECT":"一段","MAREA":" ","LANE":"７０２巷","ALLEY":" ","HOUSE_NO":"８５號","E_COORD97":167850.39999999999,"N_COORD97":2549347.1099999999,"ADDRESS":"安中路一段７０２巷８５號","OBJECTID":428141},"geometry":{"x":167850.4000000013,"y":2549347.1100000013}},{"attributes":{"ID":428167,"DIS_CODE":0,"TOWNNAME":"安南區","LI":"鳳凰里","LIN":"17鄰","STREET":"安中路","SECT":"一段","MAREA":" ","LANE":"７０２巷","ALLEY":" ","HOUSE_NO":"８７號之１","E_COORD97":167866.76999999999,"N_COORD97":2549346.1699999999,"ADDRESS":"安中路一段７０２巷８７號之１","OBJECTID":428142},"geometry":{"x":167866.76999999862,"y":2549346.1700000037}},{"attributes":{"ID":428168,"DIS_CODE":0,"TOWNNAME":"安南區","LI":"鳳凰里","LIN":"17鄰","STREET":"安中路","SECT":"一段","MAREA":" ","LANE":"７０２巷","ALLEY":" ","HOUSE_NO":"８９號","E_COORD97":167868.89000000001,"N_COORD97":2549331.5499999998,"ADDRESS":"安中路一段７０２巷８９號","OBJECTID":428143},"geometry":{"x":167868.88999999966,"y":2549331.5500000026}},{"attributes":{"ID":428169,"DIS_CODE":0,"TOWNNAME":"仁德區","LI":"成功里","LIN":"36鄰","STREET":"保華路","SECT":" ","MAREA":" ","LANE":"４６巷","ALLEY":" ","HOUSE_NO":"９號","E_COORD97":170652.64000000001,"N_COORD97":2540026.25,"ADDRESS":"保華路４６巷９號","OBJECTID":428144},"geometry":{"x":170652.63999999966,"y":2540026.2500000019}},{"attributes":{"ID":428170,"DIS_CODE":0,"TOWNNAME":"安南區","LI":"梅花里","LIN":"4鄰","STREET":"安中路","SECT":"一段","MAREA":" ","LANE":"６９９巷","ALLEY":" ","HOUSE_NO":"１９號","E_COORD97":167656.81,"N_COORD97":2549143.1499999999,"ADDRESS":"安中路一段６９９巷１９號","OBJECTID":428145},"geometry":{"x":167656.81000000052,"y":2549143.1500000041}},{"attributes":{"ID":428171,"DIS_CODE":0,"TOWNNAME":"安南區","LI":"梅花里","LIN":"4鄰","STREET":"安中路","SECT":"一段","MAREA":" ","LANE":"６９９巷","ALLEY":" ","HOUSE_NO":"２０號","E_COORD97":167660.34,"N_COORD97":2549139.5099999998,"ADDRESS":"安中路一段６９９巷２０號","OBJECTID":428146},"geometry":{"x":167660.34000000078,"y":2549139.5099999998}},{"attributes":{"ID":428172,"DIS_CODE":0,"TOWNNAME":"安南區","LI":"梅花里","LIN":"4鄰","STREET":"安中路","SECT":"一段","MAREA":" ","LANE":"６９９巷","ALLEY":" ","HOUSE_NO":"２１號","E_COORD97":167663.07999999999,"N_COORD97":2549135.1200000001,"ADDRESS":"安中路一段６９９巷２１號","OBJECTID":428147},"geometry":{"x":167663.08000000007,"y":2549135.1200000029}},{"attributes":{"ID":428173,"DIS_CODE":0,"TOWNNAME":"安南區","LI":"梅花里","LIN":"4鄰","STREET":"安中路","SECT":"一段","MAREA":" ","LANE":"６９９巷","ALLEY":" ","HOUSE_NO":"２２號","E_COORD97":167659.35999999999,"N_COORD97":2549125.73,"ADDRESS":"安中路一段６９９巷２２號","OBJECTID":428148},"geometry":{"x":167659.36000000127,"y":2549125.7300000042}},{"attributes":{"ID":428174,"DIS_CODE":0,"TOWNNAME":"安南區","LI":"梅花里","LIN":"4鄰","STREET":"安中路","SECT":"一段","MAREA":" ","LANE":"６９９巷","ALLEY":" ","HOUSE_NO":"２３號","E_COORD97":167656.23000000001,"N_COORD97":2549121.0299999998,"ADDRESS":"安中路一段６９９巷２３號","OBJECTID":428149},"geometry":{"x":167656.23000000231,"y":2549121.0299999993}},{"attributes":{"ID":428175,"DIS_CODE":0,"TOWNNAME":"安南區","LI":"梅花里","LIN":"4鄰","STREET":"安中路","SECT":"一段","MAREA":" ","LANE":"６９９巷","ALLEY":" ","HOUSE_NO":"２４號","E_COORD97":167649.95999999999,"N_COORD97":2549117.3100000001,"ADDRESS":"安中路一段６９９巷２４號","OBJECTID":428150},"geometry":{"x":167649.95999999996,"y":2549117.3100000005}},{"attributes":{"ID":428176,"DIS_CODE":0,"TOWNNAME":"安南區","LI":"梅花里","LIN":"4鄰","STREET":"安中路","SECT":"一段","MAREA":" ","LANE":"６９９巷","ALLEY":" ","HOUSE_NO":"２５號","E_COORD97":167642.13,"N_COORD97":2549108.7000000002,"ADDRESS":"安中路一段６９９巷２５號","OBJECTID":428151},"geometry":{"x":167642.12999999989,"y":2549108.7000000011}},{"attributes":{"ID":428177,"DIS_CODE":0,"TOWNNAME":"安南區","LI":"梅花里","LIN":"4鄰","STREET":"安中路","SECT":"一段","MAREA":" ","LANE":"６９９巷","ALLEY":" ","HOUSE_NO":"２６號之１","E_COORD97":167629.59,"N_COORD97":2549113.0099999998,"ADDRESS":"安中路一段６９９巷２６號之１","OBJECTID":428152},"geometry":{"x":167629.59000000078,"y":2549113.0100000035}},{"attributes":{"ID":428178,"DIS_CODE":0,"TOWNNAME":"安南區","LI":"梅花里","LIN":"4鄰","STREET":"安中路","SECT":"一段","MAREA":" ","LANE":"６９９巷","ALLEY":" ","HOUSE_NO":"２７號","E_COORD97":167622.73999999999,"N_COORD97":2549121.0299999998,"ADDRESS":"安中路一段６９９巷２７號","OBJECTID":428153},"geometry":{"x":167622.74000000115,"y":2549121.0299999993}},{"attributes":{"ID":428179,"DIS_CODE":0,"TOWNNAME":"安南區","LI":"梅花里","LIN":"3鄰","STREET":"安中路","SECT":"一段","MAREA":" ","LANE":"６９９巷","ALLEY":" ","HOUSE_NO":"１４號","E_COORD97":167648.98000000001,"N_COORD97":2549152.6499999999,"ADDRESS":"安中路一段６９９巷１４號","OBJECTID":428154},"geometry":{"x":167648.98000000045,"y":2549152.6500000004}},{"attributes":{"ID":428180,"DIS_CODE":0,"TOWNNAME":"安南區","LI":"梅花里","LIN":"3鄰","STREET":"安中路","SECT":"一段","MAREA":" ","LANE":"６９９巷","ALLEY":" ","HOUSE_NO":"１５號","E_COORD97":167636.84,"N_COORD97":2549150.1099999999,"ADDRESS":"安中路一段６９９巷１５號","OBJECTID":428155},"geometry":{"x":167636.84000000078,"y":2549150.1100000013}},{"attributes":{"ID":428181,"DIS_CODE":0,"TOWNNAME":"安南區","LI":"鳳凰里","LIN":"2鄰","STREET":"怡安路","SECT":"二段","MAREA":" ","LANE":"５９巷","ALLEY":" ","HOUSE_NO":"２３號","E_COORD97":168277.22378100001,"N_COORD97":2549181.76798,"ADDRESS":"怡安路二段５９巷２３號","OBJECTID":428156},"geometry":{"x":168277.22378099989,"y":2549181.7679800019}},{"attributes":{"ID":428182,"DIS_CODE":0,"TOWNNAME":"安南區","LI":"梅花里","LIN":"3鄰","STREET":"安中路","SECT":"一段","MAREA":" ","LANE":"６９９巷","ALLEY":" ","HOUSE_NO":"１６號","E_COORD97":167630.76999999999,"N_COORD97":2549157.3500000001,"ADDRESS":"安中路一段６９９巷１６號","OBJECTID":428157},"geometry":{"x":167630.76999999955,"y":2549157.3499999996}},{"attributes":{"ID":428183,"DIS_CODE":0,"TOWNNAME":"安南區","LI":"梅花里","LIN":"3鄰","STREET":"安中路","SECT":"一段","MAREA":" ","LANE":"６９９巷","ALLEY":" ","HOUSE_NO":"１號","E_COORD97":167643.72,"N_COORD97":2549199.6299999999,"ADDRESS":"安中路一段６９９巷１號","OBJECTID":428158},"geometry":{"x":167643.7200000016,"y":2549199.6300000027}},{"attributes":{"ID":428184,"DIS_CODE":0,"TOWNNAME":"安南區","LI":"梅花里","LIN":"3鄰","STREET":"安中路","SECT":"一段","MAREA":" ","LANE":"６９９巷","ALLEY":" ","HOUSE_NO":"２號之１","E_COORD97":167639.81,"N_COORD97":2549194.8900000001,"ADDRESS":"安中路一段６９９巷２號之１","OBJECTID":428159},"geometry":{"x":167639.81000000052,"y":2549194.8900000006}},{"attributes":{"ID":428185,"DIS_CODE":0,"TOWNNAME":"安南區","LI":"梅花里","LIN":"3鄰","STREET":"安中路","SECT":"一段","MAREA":" ","LANE":"６９９巷","ALLEY":" ","HOUSE_NO":"４號","E_COORD97":167628.14000000001,"N_COORD97":2549185.0699999998,"ADDRESS":"安中路一段６９９巷４號","OBJECTID":428160},"geometry":{"x":167628.13999999966,"y":2549185.0700000022}},{"attributes":{"ID":428186,"DIS_CODE":0,"TOWNNAME":"安南區","LI":"梅花里","LIN":"3鄰","STREET":"安中路","SECT":"一段","MAREA":" ","LANE":"６９９巷","ALLEY":" ","HOUSE_NO":"５號","E_COORD97":167623.32000000001,"N_COORD97":2549179.0699999998,"ADDRESS":"安中路一段６９９巷５號","OBJECTID":428161},"geometry":{"x":167623.32000000216,"y":2549179.0700000022}},{"attributes":{"ID":428187,"DIS_CODE":0,"TOWNNAME":"安南區","LI":"梅花里","LIN":"8鄰","STREET":"安中路","SECT":"一段","MAREA":" ","LANE":"７０１巷","ALLEY":" ","HOUSE_NO":"１０號","E_COORD97":167572.17000000001,"N_COORD97":2549211.2799999998,"ADDRESS":"安中路一段７０１巷１０號","OBJECTID":428162},"geometry":{"x":167572.16999999993,"y":2549211.2799999993}},{"attributes":{"ID":428188,"DIS_CODE":0,"TOWNNAME":"安南區","LI":"梅花里","LIN":"8鄰","STREET":"安中路","SECT":"一段","MAREA":" ","LANE":"７０１巷","ALLEY":" ","HOUSE_NO":"１２號","E_COORD97":167568.12,"N_COORD97":2549206.6000000001,"ADDRESS":"安中路一段７０１巷１２號","OBJECTID":428163},"geometry":{"x":167568.12000000011,"y":2549206.5999999996}},{"attributes":{"ID":428189,"DIS_CODE":0,"TOWNNAME":"安南區","LI":"梅花里","LIN":"8鄰","STREET":"安中路","SECT":"一段","MAREA":" ","LANE":"７０１巷","ALLEY":" ","HOUSE_NO":"１８號之１","E_COORD97":167550.07000000001,"N_COORD97":2549188.75,"ADDRESS":"安中路一段７０１巷１８號之１","OBJECTID":428164},"geometry":{"x":167550.0700000003,"y":2549188.75}},{"attributes":{"ID":428190,"DIS_CODE":0,"TOWNNAME":"仁德區","LI":"保安里","LIN":"20鄰","STREET":"保安路","SECT":"一段","MAREA":" ","LANE":"１９巷","ALLEY":" ","HOUSE_NO":"５號","E_COORD97":170459.87,"N_COORD97":2536214.3100000001,"ADDRESS":"保安路一段１９巷５號","OBJECTID":428165},"geometry":{"x":170459.87000000011,"y":2536214.3100000005}},{"attributes":{"ID":428191,"DIS_CODE":0,"TOWNNAME":"仁德區","LI":"成功里","LIN":"4鄰","STREET":"成功三街","SECT":" ","MAREA":" ","LANE":"９３巷","ALLEY":" ","HOUSE_NO":"３號","E_COORD97":171205.60000000001,"N_COORD97":2539806.52,"ADDRESS":"成功三街９３巷３號","OBJECTID":428166},"geometry":{"x":171205.59999999963,"y":2539806.5200000014}},{"attributes":{"ID":428192,"DIS_CODE":0,"TOWNNAME":"仁德區","LI":"保安里","LIN":"5鄰","STREET":"中正路","SECT":"一段","MAREA":" ","LANE":"２００巷","ALLEY":" ","HOUSE_NO":"２８號","E_COORD97":171635.79000000001,"N_COORD97":2535724.02,"ADDRESS":"中正路一段２００巷２８號","OBJECTID":428167},"geometry":{"x":171635.7900000019,"y":2535724.0200000033}},{"attributes":{"ID":428193,"DIS_CODE":0,"TOWNNAME":"仁德區","LI":"仁義里","LIN":"39鄰","STREET":"仁義五街","SECT":" ","MAREA":" ","LANE":"４４巷","ALLEY":" ","HOUSE_NO":"１４號","E_COORD97":173591.26000000001,"N_COORD97":2540398.9300000002,"ADDRESS":"仁義五街４４巷１４號","OBJECTID":428168},"geometry":{"x":173591.25999999978,"y":2540398.9299999997}},{"attributes":{"ID":428194,"DIS_CODE":0,"TOWNNAME":"仁德區","LI":"太子里","LIN":"38鄰","STREET":"長興一街","SECT":" ","MAREA":" ","LANE":"９７巷","ALLEY":" ","HOUSE_NO":"１號","E_COORD97":174264.95999999999,"N_COORD97":2543849.0099999998,"ADDRESS":"長興一街９７巷１號","OBJECTID":428169},"geometry":{"x":174264.95999999996,"y":2543849.0100000016}},{"attributes":{"ID":428195,"DIS_CODE":0,"TOWNNAME":"仁德區","LI":"成功里","LIN":"4鄰","STREET":"成功三街","SECT":" ","MAREA":" ","LANE":"９３巷","ALLEY":" ","HOUSE_NO":"１６號","E_COORD97":171231.31,"N_COORD97":2539788.77,"ADDRESS":"成功三街９３巷１６號","OBJECTID":428170},"geometry":{"x":171231.30999999959,"y":2539788.7700000014}},{"attributes":{"ID":428196,"DIS_CODE":0,"TOWNNAME":"仁德區","LI":"成功里","LIN":"4鄰","STREET":"成功三街","SECT":" ","MAREA":" ","LANE":"８１巷","ALLEY":" ","HOUSE_NO":"１０號","E_COORD97":171237.16,"N_COORD97":2539831.2599999998,"ADDRESS":"成功三街８１巷１０號","OBJECTID":428171},"geometry":{"x":171237.16000000108,"y":2539831.2599999998}},{"attributes":{"ID":428197,"DIS_CODE":0,"TOWNNAME":"仁德區","LI":"成功里","LIN":"36鄰","STREET":"保華路","SECT":" ","MAREA":" ","LANE":"４６巷","ALLEY":" ","HOUSE_NO":"３１號","E_COORD97":170654.66,"N_COORD97":2540069.7400000002,"ADDRESS":"保華路４６巷３１號","OBJECTID":428172},"geometry":{"x":170654.66000000015,"y":2540069.7400000039}},{"attributes":{"ID":428198,"DIS_CODE":0,"TOWNNAME":"仁德區","LI":"成功里","LIN":"26鄰","STREET":"成功一街","SECT":" ","MAREA":" ","LANE":"４４巷","ALLEY":" ","HOUSE_NO":"３號","E_COORD97":170501.98000000001,"N_COORD97":2540019.27,"ADDRESS":"成功一街４４巷３號","OBJECTID":428173},"geometry":{"x":170501.98000000045,"y":2540019.2700000014}},{"attributes":{"ID":428199,"DIS_CODE":0,"TOWNNAME":"仁德區","LI":"太子里","LIN":"46鄰","STREET":"太子一街","SECT":" ","MAREA":" ","LANE":"２７巷","ALLEY":" ","HOUSE_NO":"１４號","E_COORD97":174851.12,"N_COORD97":2543337.7599999998,"ADDRESS":"太子一街２７巷１４號","OBJECTID":428174},"geometry":{"x":174851.12000000104,"y":2543337.7600000016}},{"attributes":{"ID":428200,"DIS_CODE":0,"TOWNNAME":"仁德區","LI":"成功里","LIN":"43鄰","STREET":"文華路","SECT":"二段","MAREA":" ","LANE":"３１６巷","ALLEY":" ","HOUSE_NO":"１號","E_COORD97":170996.38,"N_COORD97":2537763.0099999998,"ADDRESS":"文華路二段３１６巷１號","OBJECTID":428175},"geometry":{"x":170996.38000000082,"y":2537763.0100000016}},{"attributes":{"ID":428201,"DIS_CODE":0,"TOWNNAME":"仁德區","LI":"仁德里","LIN":"5鄰","STREET":"仁德四街","SECT":" ","MAREA":" ","LANE":"７巷","ALLEY":" ","HOUSE_NO":"１７號","E_COORD97":173355.57999999999,"N_COORD97":2540785.7599999998,"ADDRESS":"仁德四街７巷１７號","OBJECTID":428176},"geometry":{"x":173355.58000000007,"y":2540785.7600000016}},{"attributes":{"ID":428202,"DIS_CODE":0,"TOWNNAME":"仁德區","LI":"太子里","LIN":"46鄰","STREET":"太子一街","SECT":" ","MAREA":" ","LANE":"４３巷","ALLEY":" ","HOUSE_NO":"２８號","E_COORD97":174823.32000000001,"N_COORD97":2543298.7599999998,"ADDRESS":"太子一街４３巷２８號","OBJECTID":428177},"geometry":{"x":174823.32000000123,"y":2543298.7599999998}},{"attributes":{"ID":428203,"DIS_CODE":0,"TOWNNAME":"仁德區","LI":"仁德里","LIN":"18鄰","STREET":"文華路","SECT":"三段","MAREA":" ","LANE":"１８９巷","ALLEY":" ","HOUSE_NO":"５２號","E_COORD97":172132.03,"N_COORD97":2540480.0699999998,"ADDRESS":"文華路三段１８９巷５２號","OBJECTID":428178},"geometry":{"x":172132.03000000026,"y":2540480.0700000003}},{"attributes":{"ID":428204,"DIS_CODE":0,"TOWNNAME":"仁德區","LI":"仁德里","LIN":"18鄰","STREET":"文華路","SECT":"三段","MAREA":" ","LANE":"１８９巷","ALLEY":" ","HOUSE_NO":"３６號","E_COORD97":172159.78,"N_COORD97":2540476.8199999998,"ADDRESS":"文華路三段１８９巷３６號","OBJECTID":428179},"geometry":{"x":172159.78000000212,"y":2540476.8200000022}},{"attributes":{"ID":428205,"DIS_CODE":0,"TOWNNAME":"仁德區","LI":"太子里","LIN":"46鄰","STREET":"太子一街","SECT":" ","MAREA":" ","LANE":"４３巷","ALLEY":" ","HOUSE_NO":"１１之２號","E_COORD97":174844.81,"N_COORD97":2543303.0499999998,"ADDRESS":"太子一街４３巷１１之２號","OBJECTID":428180},"geometry":{"x":174844.81000000052,"y":2543303.0500000026}},{"attributes":{"ID":428206,"DIS_CODE":0,"TOWNNAME":"仁德區","LI":"仁德里","LIN":"43鄰","STREET":"中山路","SECT":" ","MAREA":" ","LANE":"９１０巷","ALLEY":" ","HOUSE_NO":"２９號","E_COORD97":171999.73999999999,"N_COORD97":2541814.9900000002,"ADDRESS":"中山路９１０巷２９號","OBJECTID":428181},"geometry":{"x":171999.74000000115,"y":2541814.9900000021}},{"attributes":{"ID":428207,"DIS_CODE":0,"TOWNNAME":"仁德區","LI":"太子里","LIN":"7鄰","STREET":"太子路","SECT":" ","MAREA":" ","LANE":"１９０巷","ALLEY":" ","HOUSE_NO":"２之１３號","E_COORD97":174345.51000000001,"N_COORD97":2543580.79,"ADDRESS":"太子路１９０巷２之１３號","OBJECTID":428182},"geometry":{"x":174345.50999999978,"y":2543580.7900000028}},{"attributes":{"ID":428208,"DIS_CODE":0,"TOWNNAME":"仁德區","LI":"田厝里","LIN":"1鄰","STREET":"保安路","SECT":"二段","MAREA":" ","LANE":"６３０巷","ALLEY":" ","HOUSE_NO":"２６號","E_COORD97":172774.04000000001,"N_COORD97":2537511.6600000001,"ADDRESS":"保安路二段６３０巷２６號","OBJECTID":428183},"geometry":{"x":172774.04000000004,"y":2537511.660000002}},{"attributes":{"ID":428209,"DIS_CODE":0,"TOWNNAME":"仁德區","LI":"田厝里","LIN":"1鄰","STREET":"保安路","SECT":"二段","MAREA":" ","LANE":"６３０巷","ALLEY":" ","HOUSE_NO":"１８號","E_COORD97":172771.98999999999,"N_COORD97":2537527.5600000001,"ADDRESS":"保安路二段６３０巷１８號","OBJECTID":428184},"geometry":{"x":172771.99000000209,"y":2537527.5600000005}},{"attributes":{"ID":428210,"DIS_CODE":0,"TOWNNAME":"仁德區","LI":"成功里","LIN":"4鄰","STREET":"成功三街","SECT":" ","MAREA":" ","LANE":"９３巷","ALLEY":" ","HOUSE_NO":"２２號","E_COORD97":171232.76000000001,"N_COORD97":2539802.52,"ADDRESS":"成功三街９３巷２２號","OBJECTID":428185},"geometry":{"x":171232.76000000071,"y":2539802.5200000033}},{"attributes":{"ID":428211,"DIS_CODE":0,"TOWNNAME":"仁德區","LI":"仁德里","LIN":"39鄰","STREET":"文華路","SECT":"三段","MAREA":" ","LANE":"６１８巷","ALLEY":" ","HOUSE_NO":"３２號","E_COORD97":172630.69,"N_COORD97":2541858.3300000001,"ADDRESS":"文華路三段６１８巷３２號","OBJECTID":428186},"geometry":{"x":172630.69000000134,"y":2541858.3300000001}},{"attributes":{"ID":428212,"DIS_CODE":0,"TOWNNAME":"仁德區","LI":"仁德里","LIN":"5鄰","STREET":"仁德四街","SECT":" ","MAREA":" ","LANE":"７巷","ALLEY":" ","HOUSE_NO":"７號","E_COORD97":173355.78,"N_COORD97":2540806.2599999998,"ADDRESS":"仁德四街７巷７號","OBJECTID":428187},"geometry":{"x":173355.78000000026,"y":2540806.2600000016}},{"attributes":{"ID":428213,"DIS_CODE":0,"TOWNNAME":"仁德區","LI":"仁義里","LIN":"20鄰","STREET":"中山路","SECT":" ","MAREA":" ","LANE":"３２８巷","ALLEY":" ","HOUSE_NO":"９號","E_COORD97":173947.59,"N_COORD97":2541316.4900000002,"ADDRESS":"中山路３２８巷９號","OBJECTID":428188},"geometry":{"x":173947.59000000078,"y":2541316.4900000021}},{"attributes":{"ID":428214,"DIS_CODE":0,"TOWNNAME":"仁德區","LI":"仁義里","LIN":"39鄰","STREET":"仁義五街","SECT":" ","MAREA":" ","LANE":"４４巷","ALLEY":" ","HOUSE_NO":"２２號","E_COORD97":173588.32999999999,"N_COORD97":2540383.1699999999,"ADDRESS":"仁義五街４４巷２２號","OBJECTID":428189},"geometry":{"x":173588.33000000194,"y":2540383.1700000018}},{"attributes":{"ID":428215,"DIS_CODE":0,"TOWNNAME":"仁德區","LI":"保安里","LIN":"5鄰","STREET":"中正路","SECT":"一段","MAREA":" ","LANE":"２００巷","ALLEY":" ","HOUSE_NO":"１６號","E_COORD97":171616.88,"N_COORD97":2535740.7799999998,"ADDRESS":"中正路一段２００巷１６號","OBJECTID":428190},"geometry":{"x":171616.88000000082,"y":2535740.7799999993}},{"attributes":{"ID":428216,"DIS_CODE":0,"TOWNNAME":"東區","LI":"東聖里","LIN":"18鄰","STREET":"中華東路","SECT":"二段","MAREA":" ","LANE":"１３３巷","ALLEY":" ","HOUSE_NO":"３７號","E_COORD97":171492.88,"N_COORD97":2542848.9500000002,"ADDRESS":"中華東路二段１３３巷３７號","OBJECTID":428191},"geometry":{"x":171492.88000000082,"y":2542848.9500000011}},{"attributes":{"ID":428217,"DIS_CODE":0,"TOWNNAME":"東區","LI":"崇善里","LIN":"4鄰","STREET":"崇善二街","SECT":" ","MAREA":" ","LANE":"８２巷","ALLEY":" ","HOUSE_NO":"２８號","E_COORD97":171010.06,"N_COORD97":2541997.9100000001,"ADDRESS":"崇善二街８２巷２８號","OBJECTID":428192},"geometry":{"x":171010.06000000052,"y":2541997.910000002}},{"attributes":{"ID":428218,"DIS_CODE":0,"TOWNNAME":"東區","LI":"崇善里","LIN":"4鄰","STREET":"崇善二街","SECT":" ","MAREA":" ","LANE":"８２巷","ALLEY":" ","HOUSE_NO":"１９號","E_COORD97":171015.95000000001,"N_COORD97":2542079.2400000002,"ADDRESS":"崇善二街８２巷１９號","OBJECTID":428193},"geometry":{"x":171015.95000000205,"y":2542079.2400000002}},{"attributes":{"ID":428219,"DIS_CODE":0,"TOWNNAME":"七股區","LI":"樹林里","LIN":"8鄰","STREET":" ","SECT":" ","MAREA":"樹林","LANE":" ","ALLEY":" ","HOUSE_NO":"７７號","E_COORD97":163802.69832600001,"N_COORD97":2557004.6648900001,"ADDRESS":"樹林７７號","OBJECTID":428194},"geometry":{"x":163802.69832600094,"y":2557004.6648900043}},{"attributes":{"ID":428220,"DIS_CODE":0,"TOWNNAME":"東區","LI":"崇善里","LIN":"4鄰","STREET":"崇善二街","SECT":" ","MAREA":" ","LANE":"８２巷","ALLEY":" ","HOUSE_NO":"３１號","E_COORD97":171018.67000000001,"N_COORD97":2542051.0299999998,"ADDRESS":"崇善二街８２巷３１號","OBJECTID":428195},"geometry":{"x":171018.66999999993,"y":2542051.0300000012}},{"attributes":{"ID":428221,"DIS_CODE":0,"TOWNNAME":"東區","LI":"崇善里","LIN":"4鄰","STREET":"崇善二街","SECT":" ","MAREA":" ","LANE":"８２巷","ALLEY":" ","HOUSE_NO":"３５號","E_COORD97":171019.87,"N_COORD97":2542041.5299999998,"ADDRESS":"崇善二街８２巷３５號","OBJECTID":428196},"geometry":{"x":171019.87000000197,"y":2542041.5300000012}},{"attributes":{"ID":428222,"DIS_CODE":0,"TOWNNAME":"東區","LI":"東聖里","LIN":"14鄰","STREET":"中華東路","SECT":"二段","MAREA":" ","LANE":"４１巷","ALLEY":" ","HOUSE_NO":"６４號","E_COORD97":171618.73000000001,"N_COORD97":2543079.2799999998,"ADDRESS":"中華東路二段４１巷６４號","OBJECTID":428197},"geometry":{"x":171618.73000000045,"y":2543079.2800000031}},{"attributes":{"ID":428223,"DIS_CODE":0,"TOWNNAME":"東區","LI":"崇善里","LIN":"14鄰","STREET":"崇善十街","SECT":" ","MAREA":" ","LANE":"３６巷","ALLEY":" ","HOUSE_NO":"１１號","E_COORD97":171233.98000000001,"N_COORD97":2541282.5099999998,"ADDRESS":"崇善十街３６巷１１號","OBJECTID":428198},"geometry":{"x":171233.98000000045,"y":2541282.5100000016}},{"attributes":{"ID":428224,"DIS_CODE":0,"TOWNNAME":"東區","LI":"後甲里","LIN":"17鄰","STREET":"建東街","SECT":" ","MAREA":" ","LANE":"５４巷","ALLEY":" ","HOUSE_NO":"２９號","E_COORD97":171843.09,"N_COORD97":2543470.7400000002,"ADDRESS":"建東街５４巷２９號","OBJECTID":428199},"geometry":{"x":171843.08999999985,"y":2543470.7400000021}},{"attributes":{"ID":428225,"DIS_CODE":0,"TOWNNAME":"東區","LI":"後甲里","LIN":"17鄰","STREET":"建東街","SECT":" ","MAREA":" ","LANE":"５４巷","ALLEY":" ","HOUSE_NO":"２號","E_COORD97":171784.04999999999,"N_COORD97":2543449.5,"ADDRESS":"建東街５４巷２號","OBJECTID":428200},"geometry":{"x":171784.04999999981,"y":2543449.5000000019}}]}