{"displayFieldName":"TOWNNAME","fieldAliases":{"ID":"ID","DIS_CODE":"DIS_CODE","TOWNNAME":"TOWNNAME","LI":"LI","LIN":"LIN","STREET":"STREET","SECT":"SECT","MAREA":"MAREA","LANE":"LANE","ALLEY":"ALLEY","HOUSE_NO":"HOUSE_NO","E_COORD97":"E_COORD97","N_COORD97":"N_COORD97","ADDRESS":"ADDRESS","OBJECTID":"OBJECTID"},"geometryType":"esriGeometryPoint","spatialReference":{"wkid":102443,"latestWkid":3826},"fields":[{"name":"ID","type":"esriFieldTypeDouble","alias":"ID"},{"name":"DIS_CODE","type":"esriFieldTypeInteger","alias":"DIS_CODE"},{"name":"TOWNNAME","type":"esriFieldTypeString","alias":"TOWNNAME","length":8},{"name":"LI","type":"esriFieldTypeString","alias":"LI","length":8},{"name":"LIN","type":"esriFieldTypeString","alias":"LIN","length":12},{"name":"STREET","type":"esriFieldTypeString","alias":"STREET","length":20},{"name":"SECT","type":"esriFieldTypeString","alias":"SECT","length":8},{"name":"MAREA","type":"esriFieldTypeString","alias":"MAREA","length":12},{"name":"LANE","type":"esriFieldTypeString","alias":"LANE","length":10},{"name":"ALLEY","type":"esriFieldTypeString","alias":"ALLEY","length":10},{"name":"HOUSE_NO","type":"esriFieldTypeString","alias":"HOUSE_NO","length":20},{"name":"E_COORD97","type":"esriFieldTypeDouble","alias":"E_COORD97"},{"name":"N_COORD97","type":"esriFieldTypeDouble","alias":"N_COORD97"},{"name":"ADDRESS","type":"esriFieldTypeString","alias":"ADDRESS","length":50},{"name":"OBJECTID","type":"esriFieldTypeOID","alias":"OBJECTID"}],"features":[{"attributes":{"ID":101001,"DIS_CODE":0,"TOWNNAME":"安南區","LI":"州北里","LIN":"9鄰","STREET":"安和路","SECT":"五段","MAREA":" ","LANE":"１７１巷","ALLEY":"１４６弄","HOUSE_NO":"１３號","E_COORD97":169556.44,"N_COORD97":2551663.21,"ADDRESS":"安和路五段１７１巷１４６弄１３號","OBJECTID":101001},"geometry":{"x":169556.44000000041,"y":2551663.2100000028}},{"attributes":{"ID":101002,"DIS_CODE":0,"TOWNNAME":"佳里區","LI":"民安里","LIN":"1鄰","STREET":" ","SECT":" ","MAREA":"同安寮","LANE":" ","ALLEY":" ","HOUSE_NO":"２號之５","E_COORD97":166806.70000000001,"N_COORD97":2562524.9300000002,"ADDRESS":"同安寮２號之５","OBJECTID":101002},"geometry":{"x":166806.69999999925,"y":2562524.9299999997}},{"attributes":{"ID":101003,"DIS_CODE":0,"TOWNNAME":"佳里區","LI":"民安里","LIN":"1鄰","STREET":" ","SECT":" ","MAREA":"同安寮","LANE":" ","ALLEY":" ","HOUSE_NO":"２號之７","E_COORD97":166895.54999999999,"N_COORD97":2562404.1299999999,"ADDRESS":"同安寮２號之７","OBJECTID":101003},"geometry":{"x":166895.55000000168,"y":2562404.129999999}},{"attributes":{"ID":101004,"DIS_CODE":0,"TOWNNAME":"永康區","LI":"尚頂里","LIN":"9鄰","STREET":"正南一街","SECT":" ","MAREA":" ","LANE":"１２９巷","ALLEY":"４６弄","HOUSE_NO":"２號","E_COORD97":170695.67999999999,"N_COORD97":2547132.4700000002,"ADDRESS":"正南一街１２９巷４６弄２號","OBJECTID":101004},"geometry":{"x":170695.68000000063,"y":2547132.4700000007}},{"attributes":{"ID":101005,"DIS_CODE":0,"TOWNNAME":"佳里區","LI":"民安里","LIN":"1鄰","STREET":" ","SECT":" ","MAREA":"同安寮","LANE":" ","ALLEY":" ","HOUSE_NO":"２號之８","E_COORD97":166847.95000000001,"N_COORD97":2562280.2400000002,"ADDRESS":"同安寮２號之８","OBJECTID":101005},"geometry":{"x":166847.95000000112,"y":2562280.2400000039}},{"attributes":{"ID":101006,"DIS_CODE":0,"TOWNNAME":"佳里區","LI":"民安里","LIN":"1鄰","STREET":" ","SECT":" ","MAREA":"同安寮","LANE":" ","ALLEY":" ","HOUSE_NO":"２號之９","E_COORD97":166745.42999999999,"N_COORD97":2562549.9500000002,"ADDRESS":"同安寮２號之９","OBJECTID":101006},"geometry":{"x":166745.43000000156,"y":2562549.9500000011}},{"attributes":{"ID":101007,"DIS_CODE":0,"TOWNNAME":"永康區","LI":"尚頂里","LIN":"9鄰","STREET":"正南一街","SECT":" ","MAREA":" ","LANE":"１２９巷","ALLEY":"４６弄","HOUSE_NO":"２０號","E_COORD97":170673.45000000001,"N_COORD97":2547198.2999999998,"ADDRESS":"正南一街１２９巷４６弄２０號","OBJECTID":101007},"geometry":{"x":170673.44999999925,"y":2547198.3000000007}},{"attributes":{"ID":101008,"DIS_CODE":0,"TOWNNAME":"永康區","LI":"尚頂里","LIN":"9鄰","STREET":"正南一街","SECT":" ","MAREA":" ","LANE":"１２９巷","ALLEY":"３８弄","HOUSE_NO":"３號","E_COORD97":170746.48999999999,"N_COORD97":2547170.5,"ADDRESS":"正南一街１２９巷３８弄３號","OBJECTID":101008},"geometry":{"x":170746.49000000115,"y":2547170.5000000037}},{"attributes":{"ID":101009,"DIS_CODE":0,"TOWNNAME":"永康區","LI":"東橋里","LIN":"9鄰","STREET":"中山南路","SECT":" ","MAREA":" ","LANE":"１９５巷","ALLEY":"２４弄","HOUSE_NO":"１４號","E_COORD97":171526.63,"N_COORD97":2546321.7999999998,"ADDRESS":"中山南路１９５巷２４弄１４號","OBJECTID":101009},"geometry":{"x":171526.63000000082,"y":2546321.8000000045}},{"attributes":{"ID":101010,"DIS_CODE":0,"TOWNNAME":"永康區","LI":"東橋里","LIN":"9鄰","STREET":"中山南路","SECT":" ","MAREA":" ","LANE":"１９５巷","ALLEY":"２４弄","HOUSE_NO":"１６號","E_COORD97":171530.23000000001,"N_COORD97":2546324.0499999998,"ADDRESS":"中山南路１９５巷２４弄１６號","OBJECTID":101010},"geometry":{"x":171530.23000000138,"y":2546324.0500000026}},{"attributes":{"ID":101011,"DIS_CODE":0,"TOWNNAME":"永康區","LI":"東橋里","LIN":"9鄰","STREET":"中山南路","SECT":" ","MAREA":" ","LANE":"１９５巷","ALLEY":"２４弄","HOUSE_NO":"６號","E_COORD97":171531.64999999999,"N_COORD97":2546298.54,"ADDRESS":"中山南路１９５巷２４弄６號","OBJECTID":101011},"geometry":{"x":171531.65000000037,"y":2546298.540000001}},{"attributes":{"ID":101012,"DIS_CODE":0,"TOWNNAME":"南區","LI":"文南里","LIN":"24鄰","STREET":"育南街","SECT":" ","MAREA":" ","LANE":" ","ALLEY":" ","HOUSE_NO":"８２號","E_COORD97":166888.89999999999,"N_COORD97":2542787.8500000001,"ADDRESS":"育南街８２號","OBJECTID":101012},"geometry":{"x":166888.9000000013,"y":2542787.8500000015}},{"attributes":{"ID":101013,"DIS_CODE":0,"TOWNNAME":"安平區","LI":"金城里","LIN":"15鄰","STREET":"州平三街","SECT":" ","MAREA":" ","LANE":" ","ALLEY":" ","HOUSE_NO":"１１號","E_COORD97":162750.01000000001,"N_COORD97":2544379.96,"ADDRESS":"州平三街１１號","OBJECTID":101013},"geometry":{"x":162750.01000000071,"y":2544379.9600000009}},{"attributes":{"ID":101014,"DIS_CODE":0,"TOWNNAME":"安南區","LI":"布袋里","LIN":"1鄰","STREET":"工明南三路","SECT":" ","MAREA":" ","LANE":" ","ALLEY":" ","HOUSE_NO":"２２０號","E_COORD97":168628.51999999999,"N_COORD97":2550957.29,"ADDRESS":"工明南三路２２０號","OBJECTID":101014},"geometry":{"x":168628.52000000048,"y":2550957.2899999991}},{"attributes":{"ID":101015,"DIS_CODE":0,"TOWNNAME":"佳里區","LI":"民安里","LIN":"1鄰","STREET":" ","SECT":" ","MAREA":"同安寮","LANE":" ","ALLEY":" ","HOUSE_NO":"２號","E_COORD97":166919.54999999999,"N_COORD97":2562394.3300000001,"ADDRESS":"同安寮２號","OBJECTID":101015},"geometry":{"x":166919.55000000075,"y":2562394.3299999982}},{"attributes":{"ID":101016,"DIS_CODE":0,"TOWNNAME":"永康區","LI":"東橋里","LIN":"9鄰","STREET":"中山南路","SECT":" ","MAREA":" ","LANE":"１９５巷","ALLEY":"２４弄","HOUSE_NO":"２２號","E_COORD97":171541.32000000001,"N_COORD97":2546331.0499999998,"ADDRESS":"中山南路１９５巷２４弄２２號","OBJECTID":101016},"geometry":{"x":171541.32000000123,"y":2546331.0500000026}},{"attributes":{"ID":101017,"DIS_CODE":0,"TOWNNAME":"永康區","LI":"東橋里","LIN":"9鄰","STREET":"中山南路","SECT":" ","MAREA":" ","LANE":"１９５巷","ALLEY":"２４弄","HOUSE_NO":"１２號","E_COORD97":171523.28,"N_COORD97":2546319.2999999998,"ADDRESS":"中山南路１９５巷２４弄１２號","OBJECTID":101017},"geometry":{"x":171523.28000000026,"y":2546319.3000000026}},{"attributes":{"ID":101018,"DIS_CODE":0,"TOWNNAME":"永康區","LI":"東橋里","LIN":"9鄰","STREET":"中山南路","SECT":" ","MAREA":" ","LANE":"１９５巷","ALLEY":"２４弄","HOUSE_NO":"２０號","E_COORD97":171537.09,"N_COORD97":2546328.2999999998,"ADDRESS":"中山南路１９５巷２４弄２０號","OBJECTID":101018},"geometry":{"x":171537.09000000078,"y":2546328.2999999989}},{"attributes":{"ID":101019,"DIS_CODE":0,"TOWNNAME":"永康區","LI":"北灣里","LIN":"36鄰","STREET":"大灣路","SECT":" ","MAREA":" ","LANE":"４０巷","ALLEY":"１３０弄","HOUSE_NO":"２０號","E_COORD97":174961.98999999999,"N_COORD97":2546332.96,"ADDRESS":"大灣路４０巷１３０弄２０號","OBJECTID":101019},"geometry":{"x":174961.99000000022,"y":2546332.9600000009}},{"attributes":{"ID":101020,"DIS_CODE":0,"TOWNNAME":"永康區","LI":"復華里","LIN":"35鄰","STREET":"復華七街","SECT":" ","MAREA":" ","LANE":"３９巷","ALLEY":"１４弄","HOUSE_NO":"８號","E_COORD97":172622.79000000001,"N_COORD97":2546079.73,"ADDRESS":"復華七街３９巷１４弄８號","OBJECTID":101020},"geometry":{"x":172622.79000000097,"y":2546079.7300000004}},{"attributes":{"ID":101021,"DIS_CODE":0,"TOWNNAME":"永康區","LI":"三合里","LIN":"9鄰","STREET":"南工街","SECT":" ","MAREA":" ","LANE":"２４７巷","ALLEY":"３５弄","HOUSE_NO":"４０號","E_COORD97":172003.95999999999,"N_COORD97":2545681.25,"ADDRESS":"南工街２４７巷３５弄４０號","OBJECTID":101021},"geometry":{"x":172003.96000000183,"y":2545681.2500000019}},{"attributes":{"ID":101022,"DIS_CODE":0,"TOWNNAME":"永康區","LI":"甲頂里","LIN":" ","STREET":"大武街","SECT":" ","MAREA":" ","LANE":"５９７巷","ALLEY":"５４弄","HOUSE_NO":"１７號","E_COORD97":170309.17999999999,"N_COORD97":2546573.7400000002,"ADDRESS":"大武街５９７巷５４弄１７號","OBJECTID":101022},"geometry":{"x":170309.18000000063,"y":2546573.7400000021}},{"attributes":{"ID":101023,"DIS_CODE":0,"TOWNNAME":"永康區","LI":"北灣里","LIN":"21鄰","STREET":"大同街","SECT":" ","MAREA":" ","LANE":"３８０巷","ALLEY":"３１弄","HOUSE_NO":"２８號","E_COORD97":174870.85000000001,"N_COORD97":2546114.0499999998,"ADDRESS":"大同街３８０巷３１弄２８號","OBJECTID":101023},"geometry":{"x":174870.8499999987,"y":2546114.0500000026}},{"attributes":{"ID":101024,"DIS_CODE":0,"TOWNNAME":"安南區","LI":"\u25A0南里","LIN":"9鄰","STREET":"安昌街","SECT":" ","MAREA":" ","LANE":"２７５巷","ALLEY":"５５弄","HOUSE_NO":"４２之１號","E_COORD97":169938.79000000001,"N_COORD97":2552592.1000000001,"ADDRESS":"安昌街２７５巷５５弄４２之１號","OBJECTID":101024},"geometry":{"x":169938.7900000019,"y":2552592.1000000015}},{"attributes":{"ID":101025,"DIS_CODE":0,"TOWNNAME":"安南區","LI":"溪東里","LIN":"9鄰","STREET":"府安路","SECT":"五段","MAREA":" ","LANE":"１１巷","ALLEY":"２７弄","HOUSE_NO":"２號","E_COORD97":168451.51999999999,"N_COORD97":2547305.2799999998,"ADDRESS":"府安路五段１１巷２７弄２號","OBJECTID":101025},"geometry":{"x":168451.51999999955,"y":2547305.2799999993}},{"attributes":{"ID":101026,"DIS_CODE":0,"TOWNNAME":"安南區","LI":"溪東里","LIN":"9鄰","STREET":"府安路","SECT":"五段","MAREA":" ","LANE":"１１巷","ALLEY":"２７弄","HOUSE_NO":"６號","E_COORD97":168445.78,"N_COORD97":2547305.8900000001,"ADDRESS":"府安路五段１１巷２７弄６號","OBJECTID":101026},"geometry":{"x":168445.78000000119,"y":2547305.8900000006}},{"attributes":{"ID":101027,"DIS_CODE":0,"TOWNNAME":"安南區","LI":"溪東里","LIN":"9鄰","STREET":"府安路","SECT":"五段","MAREA":" ","LANE":"１１巷","ALLEY":"２７弄","HOUSE_NO":"８號","E_COORD97":168440.82999999999,"N_COORD97":2547309.7400000002,"ADDRESS":"府安路五段１１巷２７弄８號","OBJECTID":101027},"geometry":{"x":168440.83000000101,"y":2547309.7400000021}},{"attributes":{"ID":101028,"DIS_CODE":0,"TOWNNAME":"七股區","LI":"竹橋里","LIN":"1鄰","STREET":" ","SECT":" ","MAREA":"竹橋","LANE":" ","ALLEY":" ","HOUSE_NO":"４號","E_COORD97":164419.98000000001,"N_COORD97":2556090.2999999998,"ADDRESS":"竹橋４號","OBJECTID":101028},"geometry":{"x":164419.97999999952,"y":2556090.3000000026}},{"attributes":{"ID":101029,"DIS_CODE":0,"TOWNNAME":"左鎮區","LI":"左鎮里","LIN":"10鄰","STREET":" ","SECT":" ","MAREA":"左鎮","LANE":" ","ALLEY":" ","HOUSE_NO":"１０３號之６","E_COORD97":188924.64000000001,"N_COORD97":2550387.9500000002,"ADDRESS":"左鎮１０３號之６","OBJECTID":101029},"geometry":{"x":188924.6400000006,"y":2550387.9500000011}},{"attributes":{"ID":101030,"DIS_CODE":0,"TOWNNAME":"左鎮區","LI":"左鎮里","LIN":"10鄰","STREET":" ","SECT":" ","MAREA":"左鎮","LANE":" ","ALLEY":" ","HOUSE_NO":"１０３號之８","E_COORD97":189033.20000000001,"N_COORD97":2550316.73,"ADDRESS":"左鎮１０３號之８","OBJECTID":101030},"geometry":{"x":189033.20000000112,"y":2550316.7300000023}},{"attributes":{"ID":101031,"DIS_CODE":0,"TOWNNAME":"學甲區","LI":"秀昌里","LIN":"10鄰","STREET":" ","SECT":" ","MAREA":"一秀","LANE":" ","ALLEY":" ","HOUSE_NO":"１００號之１５","E_COORD97":165977.44,"N_COORD97":2571006.7000000002,"ADDRESS":"一秀１００號之１５","OBJECTID":101031},"geometry":{"x":165977.44000000041,"y":2571006.7000000011}},{"attributes":{"ID":101032,"DIS_CODE":0,"TOWNNAME":"學甲區","LI":"秀昌里","LIN":"10鄰","STREET":" ","SECT":" ","MAREA":"一秀","LANE":" ","ALLEY":" ","HOUSE_NO":"１００號之１６","E_COORD97":165975.45000000001,"N_COORD97":2571010.6800000002,"ADDRESS":"一秀１００號之１６","OBJECTID":101032},"geometry":{"x":165975.45000000019,"y":2571010.6800000016}},{"attributes":{"ID":101033,"DIS_CODE":0,"TOWNNAME":"學甲區","LI":"秀昌里","LIN":"10鄰","STREET":" ","SECT":" ","MAREA":"一秀","LANE":" ","ALLEY":" ","HOUSE_NO":"１００號之１７","E_COORD97":165973.45000000001,"N_COORD97":2571014.6699999999,"ADDRESS":"一秀１００號之１７","OBJECTID":101033},"geometry":{"x":165973.45000000112,"y":2571014.6700000018}},{"attributes":{"ID":101034,"DIS_CODE":0,"TOWNNAME":"鹽水區","LI":"三生里","LIN":"5鄰","STREET":"朝琴路","SECT":" ","MAREA":" ","LANE":" ","ALLEY":" ","HOUSE_NO":"２９號","E_COORD97":175182.91,"N_COORD97":2580020.5099999998,"ADDRESS":"朝琴路２９號","OBJECTID":101034},"geometry":{"x":175182.90999999922,"y":2580020.5100000016}},{"attributes":{"ID":101035,"DIS_CODE":0,"TOWNNAME":"安南區","LI":"淵東里","LIN":"1鄰","STREET":"海佃路","SECT":"四段","MAREA":" ","LANE":" ","ALLEY":" ","HOUSE_NO":"６８之５號","E_COORD97":165699.75,"N_COORD97":2550630.7599999998,"ADDRESS":"海佃路四段６８之５號","OBJECTID":101035},"geometry":{"x":165699.75000000093,"y":2550630.7600000016}},{"attributes":{"ID":101036,"DIS_CODE":0,"TOWNNAME":"學甲區","LI":"秀昌里","LIN":"10鄰","STREET":" ","SECT":" ","MAREA":"一秀","LANE":" ","ALLEY":" ","HOUSE_NO":"１００號之１８","E_COORD97":165971.45999999999,"N_COORD97":2571018.6499999999,"ADDRESS":"一秀１００號之１８","OBJECTID":101036},"geometry":{"x":165971.46000000089,"y":2571018.6500000022}},{"attributes":{"ID":101037,"DIS_CODE":0,"TOWNNAME":"學甲區","LI":"秀昌里","LIN":"10鄰","STREET":" ","SECT":" ","MAREA":"一秀","LANE":" ","ALLEY":" ","HOUSE_NO":"１００號之１９","E_COORD97":165969.45999999999,"N_COORD97":2571022.6400000001,"ADDRESS":"一秀１００號之１９","OBJECTID":101037},"geometry":{"x":165969.46000000089,"y":2571022.6400000025}},{"attributes":{"ID":101038,"DIS_CODE":0,"TOWNNAME":"學甲區","LI":"秀昌里","LIN":"10鄰","STREET":" ","SECT":" ","MAREA":"一秀","LANE":" ","ALLEY":" ","HOUSE_NO":"１００號之２０","E_COORD97":165967.47,"N_COORD97":2571026.6200000001,"ADDRESS":"一秀１００號之２０","OBJECTID":101038},"geometry":{"x":165967.47000000067,"y":2571026.6200000029}},{"attributes":{"ID":101039,"DIS_CODE":0,"TOWNNAME":"安南區","LI":"淵東里","LIN":"1鄰","STREET":"海佃路","SECT":"四段","MAREA":" ","LANE":" ","ALLEY":" ","HOUSE_NO":"４號","E_COORD97":165802.01999999999,"N_COORD97":2550487.6099999999,"ADDRESS":"海佃路四段４號","OBJECTID":101039},"geometry":{"x":165802.01999999862,"y":2550487.6099999994}},{"attributes":{"ID":101040,"DIS_CODE":0,"TOWNNAME":"安南區","LI":"淵東里","LIN":"1鄰","STREET":"海佃路","SECT":"四段","MAREA":" ","LANE":" ","ALLEY":" ","HOUSE_NO":"１０號","E_COORD97":165796.81,"N_COORD97":2550499.1699999999,"ADDRESS":"海佃路四段１０號","OBJECTID":101040},"geometry":{"x":165796.81000000145,"y":2550499.1700000018}},{"attributes":{"ID":101041,"DIS_CODE":0,"TOWNNAME":"安南區","LI":"大安里","LIN":"1鄰","STREET":"海佃路","SECT":"二段","MAREA":" ","LANE":" ","ALLEY":" ","HOUSE_NO":"２４之３號","E_COORD97":167043.20000000001,"N_COORD97":2547844.9100000001,"ADDRESS":"海佃路二段２４之３號","OBJECTID":101041},"geometry":{"x":167043.20000000112,"y":2547844.9100000001}},{"attributes":{"ID":101042,"DIS_CODE":0,"TOWNNAME":"安南區","LI":"佃西里","LIN":"1鄰","STREET":"公學路","SECT":"四段","MAREA":" ","LANE":" ","ALLEY":" ","HOUSE_NO":"２５９號","E_COORD97":165504.23000000001,"N_COORD97":2551815.5699999998,"ADDRESS":"公學路四段２５９號","OBJECTID":101042},"geometry":{"x":165504.23000000045,"y":2551815.5700000022}},{"attributes":{"ID":101043,"DIS_CODE":0,"TOWNNAME":"安南區","LI":"佃西里","LIN":"1鄰","STREET":"公學路","SECT":"四段","MAREA":" ","LANE":" ","ALLEY":" ","HOUSE_NO":"２６１號","E_COORD97":165483.75,"N_COORD97":2551818.5899999999,"ADDRESS":"公學路四段２６１號","OBJECTID":101043},"geometry":{"x":165483.75,"y":2551818.5900000017}},{"attributes":{"ID":101044,"DIS_CODE":0,"TOWNNAME":"安南區","LI":"理想里","LIN":"1鄰","STREET":"海佃路","SECT":"二段","MAREA":" ","LANE":" ","ALLEY":" ","HOUSE_NO":"３６２之２號","E_COORD97":166849.84,"N_COORD97":2548640.8599999999,"ADDRESS":"海佃路二段３６２之２號","OBJECTID":101044},"geometry":{"x":166849.84000000078,"y":2548640.8599999994}},{"attributes":{"ID":101045,"DIS_CODE":0,"TOWNNAME":"安平區","LI":"國平里","LIN":"14鄰","STREET":"新港路","SECT":"二段","MAREA":" ","LANE":" ","ALLEY":" ","HOUSE_NO":"４號","E_COORD97":165823.23999999999,"N_COORD97":2542605.4100000001,"ADDRESS":"新港路二段４號","OBJECTID":101045},"geometry":{"x":165823.24000000022,"y":2542605.410000002}},{"attributes":{"ID":101046,"DIS_CODE":0,"TOWNNAME":"七股區","LI":"西寮里","LIN":"1鄰","STREET":" ","SECT":" ","MAREA":"西寮","LANE":" ","ALLEY":" ","HOUSE_NO":"５號","E_COORD97":157496.78,"N_COORD97":2563421.5099999998,"ADDRESS":"西寮５號","OBJECTID":101046},"geometry":{"x":157496.78000000119,"y":2563421.5100000016}},{"attributes":{"ID":101047,"DIS_CODE":0,"TOWNNAME":"安南區","LI":"溪東里","LIN":"9鄰","STREET":"府安路","SECT":"五段","MAREA":" ","LANE":"１１巷","ALLEY":"２７弄","HOUSE_NO":"１０號","E_COORD97":168435.62,"N_COORD97":2547312.9399999999,"ADDRESS":"府安路五段１１巷２７弄１０號","OBJECTID":101047},"geometry":{"x":168435.62000000011,"y":2547312.9400000032}},{"attributes":{"ID":101048,"DIS_CODE":0,"TOWNNAME":"學甲區","LI":"秀昌里","LIN":"10鄰","STREET":" ","SECT":" ","MAREA":"一秀","LANE":" ","ALLEY":" ","HOUSE_NO":"１００號之２１","E_COORD97":165965.48000000001,"N_COORD97":2571030.6099999999,"ADDRESS":"一秀１００號之２１","OBJECTID":101048},"geometry":{"x":165965.48000000045,"y":2571030.6100000031}},{"attributes":{"ID":101049,"DIS_CODE":0,"TOWNNAME":"學甲區","LI":"秀昌里","LIN":"10鄰","STREET":" ","SECT":" ","MAREA":"一秀","LANE":" ","ALLEY":" ","HOUSE_NO":"１００號之２２","E_COORD97":165963.48000000001,"N_COORD97":2571034.5899999999,"ADDRESS":"一秀１００號之２２","OBJECTID":101049},"geometry":{"x":165963.48000000138,"y":2571034.5900000036}},{"attributes":{"ID":101050,"DIS_CODE":0,"TOWNNAME":"學甲區","LI":"秀昌里","LIN":"10鄰","STREET":" ","SECT":" ","MAREA":"一秀","LANE":" ","ALLEY":" ","HOUSE_NO":"９３號","E_COORD97":165909.89000000001,"N_COORD97":2570982.4199999999,"ADDRESS":"一秀９３號","OBJECTID":101050},"geometry":{"x":165909.89000000153,"y":2570982.4200000018}},{"attributes":{"ID":101051,"DIS_CODE":0,"TOWNNAME":"安南區","LI":"溪東里","LIN":"9鄰","STREET":"府安路","SECT":"五段","MAREA":" ","LANE":"１１巷","ALLEY":"２７弄","HOUSE_NO":"１２號","E_COORD97":168430.06,"N_COORD97":2547307.0600000001,"ADDRESS":"府安路五段１１巷２７弄１２號","OBJECTID":101051},"geometry":{"x":168430.06000000052,"y":2547307.0600000024}},{"attributes":{"ID":101052,"DIS_CODE":0,"TOWNNAME":"安南區","LI":"溪東里","LIN":"9鄰","STREET":"府安路","SECT":"五段","MAREA":" ","LANE":"１１巷","ALLEY":"２７弄","HOUSE_NO":"１６號","E_COORD97":168425.69,"N_COORD97":2547311.5899999999,"ADDRESS":"府安路五段１１巷２７弄１６號","OBJECTID":101052},"geometry":{"x":168425.69000000041,"y":2547311.5899999999}},{"attributes":{"ID":101053,"DIS_CODE":0,"TOWNNAME":"安南區","LI":"溪東里","LIN":"9鄰","STREET":"府安路","SECT":"五段","MAREA":" ","LANE":"１１巷","ALLEY":"２７弄","HOUSE_NO":"１８號","E_COORD97":168420.88,"N_COORD97":2547309.6899999999,"ADDRESS":"府安路五段１１巷２７弄１８號","OBJECTID":101053},"geometry":{"x":168420.88000000175,"y":2547309.6899999995}},{"attributes":{"ID":101054,"DIS_CODE":0,"TOWNNAME":"安南區","LI":"溪東里","LIN":"9鄰","STREET":"府安路","SECT":"五段","MAREA":" ","LANE":"１１巷","ALLEY":"２７弄","HOUSE_NO":"２０號","E_COORD97":168415.44,"N_COORD97":2547311.54,"ADDRESS":"府安路五段１１巷２７弄２０號","OBJECTID":101054},"geometry":{"x":168415.44000000041,"y":2547311.5399999972}},{"attributes":{"ID":101055,"DIS_CODE":0,"TOWNNAME":"安南區","LI":"溪東里","LIN":"9鄰","STREET":"府安路","SECT":"五段","MAREA":" ","LANE":"１１巷","ALLEY":"２７弄","HOUSE_NO":"２２號","E_COORD97":168408.70000000001,"N_COORD97":2547311.7200000002,"ADDRESS":"府安路五段１１巷２７弄２２號","OBJECTID":101055},"geometry":{"x":168408.69999999925,"y":2547311.7200000007}},{"attributes":{"ID":101056,"DIS_CODE":0,"TOWNNAME":"安南區","LI":"溪東里","LIN":"9鄰","STREET":"府安路","SECT":"五段","MAREA":" ","LANE":"１１巷","ALLEY":"２８弄","HOUSE_NO":"１號","E_COORD97":168468.95000000001,"N_COORD97":2547305.8900000001,"ADDRESS":"府安路五段１１巷２８弄１號","OBJECTID":101056},"geometry":{"x":168468.95000000112,"y":2547305.8900000006}},{"attributes":{"ID":101057,"DIS_CODE":0,"TOWNNAME":"安南區","LI":"溪東里","LIN":"9鄰","STREET":"府安路","SECT":"五段","MAREA":" ","LANE":"１１巷","ALLEY":"２８弄","HOUSE_NO":"３號","E_COORD97":168475.29999999999,"N_COORD97":2547302.4100000001,"ADDRESS":"府安路五段１１巷２８弄３號","OBJECTID":101057},"geometry":{"x":168475.29999999981,"y":2547302.4100000001}},{"attributes":{"ID":101058,"DIS_CODE":0,"TOWNNAME":"安南區","LI":"溪東里","LIN":"9鄰","STREET":"府安路","SECT":"五段","MAREA":" ","LANE":"１１巷","ALLEY":"２８弄","HOUSE_NO":"５號","E_COORD97":168481.04000000001,"N_COORD97":2547307.9399999999,"ADDRESS":"府安路五段１１巷２８弄５號","OBJECTID":101058},"geometry":{"x":168481.0400000019,"y":2547307.9399999995}},{"attributes":{"ID":101059,"DIS_CODE":0,"TOWNNAME":"安南區","LI":"溪東里","LIN":"9鄰","STREET":"府安路","SECT":"五段","MAREA":" ","LANE":"１１巷","ALLEY":"２８弄","HOUSE_NO":"７號","E_COORD97":168485.95999999999,"N_COORD97":2547305.0699999998,"ADDRESS":"府安路五段１１巷２８弄７號","OBJECTID":101059},"geometry":{"x":168485.95999999996,"y":2547305.0700000003}},{"attributes":{"ID":101060,"DIS_CODE":0,"TOWNNAME":"安南區","LI":"溪東里","LIN":"9鄰","STREET":"府安路","SECT":"五段","MAREA":" ","LANE":"１１巷","ALLEY":"２８弄","HOUSE_NO":"９號","E_COORD97":168490.47,"N_COORD97":2547301.1800000002,"ADDRESS":"府安路五段１１巷２８弄９號","OBJECTID":101060},"geometry":{"x":168490.46999999974,"y":2547301.1800000034}},{"attributes":{"ID":101061,"DIS_CODE":0,"TOWNNAME":"永康區","LI":"西灣里","LIN":"50鄰","STREET":"大灣路","SECT":" ","MAREA":" ","LANE":"９４２巷","ALLEY":"５００弄","HOUSE_NO":"８號","E_COORD97":173917.72,"N_COORD97":2545826.29,"ADDRESS":"大灣路９４２巷５００弄８號","OBJECTID":101061},"geometry":{"x":173917.72000000067,"y":2545826.290000001}},{"attributes":{"ID":101062,"DIS_CODE":0,"TOWNNAME":"安平區","LI":"國平里","LIN":"14鄰","STREET":"新港路","SECT":"二段","MAREA":" ","LANE":" ","ALLEY":" ","HOUSE_NO":"８號","E_COORD97":165980.14000000001,"N_COORD97":2542590.1600000001,"ADDRESS":"新港路二段８號","OBJECTID":101062},"geometry":{"x":165980.1400000006,"y":2542590.160000002}},{"attributes":{"ID":101063,"DIS_CODE":0,"TOWNNAME":"安平區","LI":"國平里","LIN":"14鄰","STREET":"新港路","SECT":"二段","MAREA":" ","LANE":" ","ALLEY":" ","HOUSE_NO":"１０號","E_COORD97":165970.51999999999,"N_COORD97":2542591.54,"ADDRESS":"新港路二段１０號","OBJECTID":101063},"geometry":{"x":165970.52000000048,"y":2542591.5399999991}},{"attributes":{"ID":101064,"DIS_CODE":0,"TOWNNAME":"學甲區","LI":"秀昌里","LIN":"10鄰","STREET":" ","SECT":" ","MAREA":"一秀","LANE":" ","ALLEY":" ","HOUSE_NO":"９４號","E_COORD97":165925.37,"N_COORD97":2571009.1299999999,"ADDRESS":"一秀９４號","OBJECTID":101064},"geometry":{"x":165925.37000000011,"y":2571009.129999999}},{"attributes":{"ID":101065,"DIS_CODE":0,"TOWNNAME":"學甲區","LI":"秀昌里","LIN":"10鄰","STREET":" ","SECT":" ","MAREA":"一秀","LANE":" ","ALLEY":" ","HOUSE_NO":"９５號之１０","E_COORD97":165893.25,"N_COORD97":2571032.27,"ADDRESS":"一秀９５號之１０","OBJECTID":101065},"geometry":{"x":165893.25000000093,"y":2571032.2699999996}},{"attributes":{"ID":101066,"DIS_CODE":0,"TOWNNAME":"安平區","LI":"金城里","LIN":"14鄰","STREET":"世平二街","SECT":" ","MAREA":" ","LANE":" ","ALLEY":" ","HOUSE_NO":"２６號","E_COORD97":162922.54000000001,"N_COORD97":2544067.3799999999,"ADDRESS":"世平二街２６號","OBJECTID":101066},"geometry":{"x":162922.54000000097,"y":2544067.379999999}},{"attributes":{"ID":101067,"DIS_CODE":0,"TOWNNAME":"學甲區","LI":"秀昌里","LIN":"10鄰","STREET":" ","SECT":" ","MAREA":"一秀","LANE":" ","ALLEY":" ","HOUSE_NO":"９５號之１１","E_COORD97":165895.94,"N_COORD97":2571036.0800000001,"ADDRESS":"一秀９５號之１１","OBJECTID":101067},"geometry":{"x":165895.94000000134,"y":2571036.0800000019}},{"attributes":{"ID":101068,"DIS_CODE":0,"TOWNNAME":"學甲區","LI":"秀昌里","LIN":"10鄰","STREET":" ","SECT":" ","MAREA":"一秀","LANE":" ","ALLEY":" ","HOUSE_NO":"９５號之１２","E_COORD97":165898.78,"N_COORD97":2571039.1499999999,"ADDRESS":"一秀９５號之１２","OBJECTID":101068},"geometry":{"x":165898.78000000026,"y":2571039.1500000022}},{"attributes":{"ID":101069,"DIS_CODE":0,"TOWNNAME":"學甲區","LI":"秀昌里","LIN":"10鄰","STREET":" ","SECT":" ","MAREA":"一秀","LANE":" ","ALLEY":" ","HOUSE_NO":"９５號之１","E_COORD97":165848.31,"N_COORD97":2571010.6899999999,"ADDRESS":"一秀９５號之１","OBJECTID":101069},"geometry":{"x":165848.31000000052,"y":2571010.6900000013}},{"attributes":{"ID":101070,"DIS_CODE":0,"TOWNNAME":"學甲區","LI":"秀昌里","LIN":"10鄰","STREET":" ","SECT":" ","MAREA":"一秀","LANE":" ","ALLEY":" ","HOUSE_NO":"９５號之９","E_COORD97":165890.45999999999,"N_COORD97":2571028.48,"ADDRESS":"一秀９５號之９","OBJECTID":101070},"geometry":{"x":165890.45999999996,"y":2571028.4800000004}},{"attributes":{"ID":101071,"DIS_CODE":0,"TOWNNAME":"學甲區","LI":"秀昌里","LIN":"10鄰","STREET":" ","SECT":" ","MAREA":"一秀","LANE":" ","ALLEY":" ","HOUSE_NO":"９５號","E_COORD97":165872.25,"N_COORD97":2571015.54,"ADDRESS":"一秀９５號","OBJECTID":101071},"geometry":{"x":165872.25000000186,"y":2571015.5399999991}},{"attributes":{"ID":101072,"DIS_CODE":0,"TOWNNAME":"學甲區","LI":"秀昌里","LIN":"10鄰","STREET":" ","SECT":" ","MAREA":"一秀","LANE":" ","ALLEY":" ","HOUSE_NO":"９６號之１","E_COORD97":165917.69,"N_COORD97":2571073.75,"ADDRESS":"一秀９６號之１","OBJECTID":101072},"geometry":{"x":165917.69000000134,"y":2571073.75}},{"attributes":{"ID":101073,"DIS_CODE":0,"TOWNNAME":"安平區","LI":"西門里","LIN":"1鄰","STREET":"國勝路","SECT":" ","MAREA":" ","LANE":" ","ALLEY":" ","HOUSE_NO":"４５號","E_COORD97":163896.07000000001,"N_COORD97":2544694.3700000001,"ADDRESS":"國勝路４５號","OBJECTID":101073},"geometry":{"x":163896.07000000123,"y":2544694.3700000048}},{"attributes":{"ID":101074,"DIS_CODE":0,"TOWNNAME":"安南區","LI":"海西里","LIN":"1鄰","STREET":"海中街","SECT":" ","MAREA":" ","LANE":" ","ALLEY":" ","HOUSE_NO":"２２７號","E_COORD97":166247.16,"N_COORD97":2549250.4500000002,"ADDRESS":"海中街２２７號","OBJECTID":101074},"geometry":{"x":166247.16000000015,"y":2549250.4499999993}},{"attributes":{"ID":101075,"DIS_CODE":0,"TOWNNAME":"安南區","LI":"安和里","LIN":"1鄰","STREET":"府安路","SECT":"三段","MAREA":" ","LANE":" ","ALLEY":" ","HOUSE_NO":"３６２號","E_COORD97":169647.25,"N_COORD97":2547424.7599999998,"ADDRESS":"府安路三段３６２號","OBJECTID":101075},"geometry":{"x":169647.25,"y":2547424.7599999998}},{"attributes":{"ID":101076,"DIS_CODE":0,"TOWNNAME":"東山區","LI":"嶺南里","LIN":"10鄰","STREET":" ","SECT":" ","MAREA":"宅子內","LANE":" ","ALLEY":" ","HOUSE_NO":"３４號","E_COORD97":192724.20999999999,"N_COORD97":2572000.29,"ADDRESS":"宅子內３４號","OBJECTID":101076},"geometry":{"x":192724.21000000183,"y":2572000.290000001}},{"attributes":{"ID":101077,"DIS_CODE":0,"TOWNNAME":"安南區","LI":"安和里","LIN":"1鄰","STREET":"府安路","SECT":"三段","MAREA":" ","LANE":" ","ALLEY":" ","HOUSE_NO":"３６７號","E_COORD97":169616.82000000001,"N_COORD97":2547402,"ADDRESS":"府安路三段３６７號","OBJECTID":101077},"geometry":{"x":169616.82000000216,"y":2547402.0000000019}},{"attributes":{"ID":101078,"DIS_CODE":0,"TOWNNAME":"安南區","LI":"安和里","LIN":"1鄰","STREET":"府安路","SECT":"三段","MAREA":" ","LANE":" ","ALLEY":" ","HOUSE_NO":"３５８號","E_COORD97":169681.38,"N_COORD97":2547453.3300000001,"ADDRESS":"府安路三段３５８號","OBJECTID":101078},"geometry":{"x":169681.37999999989,"y":2547453.3300000038}},{"attributes":{"ID":101079,"DIS_CODE":0,"TOWNNAME":"永康區","LI":"西灣里","LIN":"26鄰","STREET":"國光七街","SECT":" ","MAREA":" ","LANE":"６巷","ALLEY":"１１弄","HOUSE_NO":"１５號","E_COORD97":174349.60000000001,"N_COORD97":2545638,"ADDRESS":"國光七街６巷１１弄１５號","OBJECTID":101079},"geometry":{"x":174349.60000000056,"y":2545638.0000000037}},{"attributes":{"ID":101080,"DIS_CODE":0,"TOWNNAME":"永康區","LI":"西灣里","LIN":"32鄰","STREET":"國光八街","SECT":" ","MAREA":" ","LANE":"６０巷","ALLEY":"３弄","HOUSE_NO":"１７號","E_COORD97":174218.32000000001,"N_COORD97":2545803.8999999999,"ADDRESS":"國光八街６０巷３弄１７號","OBJECTID":101080},"geometry":{"x":174218.32000000123,"y":2545803.9000000004}},{"attributes":{"ID":101081,"DIS_CODE":0,"TOWNNAME":"永康區","LI":"西灣里","LIN":"17鄰","STREET":"民族路","SECT":" ","MAREA":" ","LANE":"５１３巷","ALLEY":"１弄","HOUSE_NO":"１號","E_COORD97":174501.89999999999,"N_COORD97":2545444.0299999998,"ADDRESS":"民族路５１３巷１弄１號","OBJECTID":101081},"geometry":{"x":174501.90000000224,"y":2545444.0300000031}},{"attributes":{"ID":101082,"DIS_CODE":0,"TOWNNAME":"永康區","LI":"西灣里","LIN":"44鄰","STREET":"大灣路","SECT":" ","MAREA":" ","LANE":"９４２巷","ALLEY":"５６１弄","HOUSE_NO":"１１７號","E_COORD97":173594.69,"N_COORD97":2545695.6499999999,"ADDRESS":"大灣路９４２巷５６１弄１１７號","OBJECTID":101082},"geometry":{"x":173594.69000000227,"y":2545695.6500000022}},{"attributes":{"ID":101083,"DIS_CODE":0,"TOWNNAME":"學甲區","LI":"大灣里","LIN":"10鄰","STREET":" ","SECT":" ","MAREA":"大灣","LANE":" ","ALLEY":" ","HOUSE_NO":"１０１號之１８","E_COORD97":166763.97,"N_COORD97":2567778.46,"ADDRESS":"大灣１０１號之１８","OBJECTID":101083},"geometry":{"x":166763.9700000016,"y":2567778.4600000046}},{"attributes":{"ID":101084,"DIS_CODE":0,"TOWNNAME":"學甲區","LI":"大灣里","LIN":"10鄰","STREET":" ","SECT":" ","MAREA":"大灣","LANE":" ","ALLEY":" ","HOUSE_NO":"１０１號之１９","E_COORD97":166761.75,"N_COORD97":2567783.96,"ADDRESS":"大灣１０１號之１９","OBJECTID":101084},"geometry":{"x":166761.75,"y":2567783.9600000009}},{"attributes":{"ID":101085,"DIS_CODE":0,"TOWNNAME":"永康區","LI":"西灣里","LIN":"49鄰","STREET":"永華路","SECT":" ","MAREA":" ","LANE":"２７３巷","ALLEY":"４弄","HOUSE_NO":"２號之１","E_COORD97":174020.39000000001,"N_COORD97":2545829.4300000002,"ADDRESS":"永華路２７３巷４弄２號之１","OBJECTID":101085},"geometry":{"x":174020.3900000006,"y":2545829.4300000016}},{"attributes":{"ID":101086,"DIS_CODE":0,"TOWNNAME":"學甲區","LI":"大灣里","LIN":"10鄰","STREET":" ","SECT":" ","MAREA":"大灣","LANE":" ","ALLEY":" ","HOUSE_NO":"１０１號之１","E_COORD97":166811.17999999999,"N_COORD97":2567786.3500000001,"ADDRESS":"大灣１０１號之１","OBJECTID":101086},"geometry":{"x":166811.1799999997,"y":2567786.3499999996}},{"attributes":{"ID":101087,"DIS_CODE":0,"TOWNNAME":"永康區","LI":"西灣里","LIN":"32鄰","STREET":"國光八街","SECT":" ","MAREA":" ","LANE":"６０巷","ALLEY":"３弄","HOUSE_NO":"１３號","E_COORD97":174226.59,"N_COORD97":2545803.5,"ADDRESS":"國光八街６０巷３弄１３號","OBJECTID":101087},"geometry":{"x":174226.58999999985,"y":2545803.5}},{"attributes":{"ID":101088,"DIS_CODE":0,"TOWNNAME":"永康區","LI":"西勢里","LIN":"21鄰","STREET":"富強路","SECT":"一段","MAREA":" ","LANE":"９８巷","ALLEY":"３８弄","HOUSE_NO":"３８號","E_COORD97":175527.42999999999,"N_COORD97":2546030.9399999999,"ADDRESS":"富強路一段９８巷３８弄３８號","OBJECTID":101088},"geometry":{"x":175527.4299999997,"y":2546030.9399999976}},{"attributes":{"ID":101089,"DIS_CODE":0,"TOWNNAME":"學甲區","LI":"大灣里","LIN":"10鄰","STREET":" ","SECT":" ","MAREA":"大灣","LANE":" ","ALLEY":" ","HOUSE_NO":"１０１號之２０","E_COORD97":166759.54000000001,"N_COORD97":2567789.7200000002,"ADDRESS":"大灣１０１號之２０","OBJECTID":101089},"geometry":{"x":166759.54000000004,"y":2567789.7200000007}},{"attributes":{"ID":101090,"DIS_CODE":0,"TOWNNAME":"學甲區","LI":"大灣里","LIN":"10鄰","STREET":" ","SECT":" ","MAREA":"大灣","LANE":" ","ALLEY":" ","HOUSE_NO":"１０１號之２１","E_COORD97":166756.88,"N_COORD97":2567795.75,"ADDRESS":"大灣１０１號之２１","OBJECTID":101090},"geometry":{"x":166756.88000000082,"y":2567795.7499999981}},{"attributes":{"ID":101091,"DIS_CODE":0,"TOWNNAME":"永康區","LI":"西灣里","LIN":"26鄰","STREET":"國光七街","SECT":" ","MAREA":" ","LANE":"６巷","ALLEY":"１１弄","HOUSE_NO":"８號","E_COORD97":174375.82000000001,"N_COORD97":2545662.6299999999,"ADDRESS":"國光七街６巷１１弄８號","OBJECTID":101091},"geometry":{"x":174375.82000000123,"y":2545662.629999999}},{"attributes":{"ID":101092,"DIS_CODE":0,"TOWNNAME":"學甲區","LI":"大灣里","LIN":"10鄰","STREET":" ","SECT":" ","MAREA":"大灣","LANE":" ","ALLEY":" ","HOUSE_NO":"１０１號之２２","E_COORD97":166754.87,"N_COORD97":2567801.3300000001,"ADDRESS":"大灣１０１號之２２","OBJECTID":101092},"geometry":{"x":166754.87000000197,"y":2567801.3300000001}},{"attributes":{"ID":101093,"DIS_CODE":0,"TOWNNAME":"學甲區","LI":"大灣里","LIN":"10鄰","STREET":" ","SECT":" ","MAREA":"大灣","LANE":" ","ALLEY":" ","HOUSE_NO":"１０１號之２３","E_COORD97":166752.59,"N_COORD97":2567806.8999999999,"ADDRESS":"大灣１０１號之２３","OBJECTID":101093},"geometry":{"x":166752.58999999985,"y":2567806.9000000022}},{"attributes":{"ID":101094,"DIS_CODE":0,"TOWNNAME":"學甲區","LI":"大灣里","LIN":"10鄰","STREET":" ","SECT":" ","MAREA":"大灣","LANE":" ","ALLEY":" ","HOUSE_NO":"１０１號之２","E_COORD97":166789.37,"N_COORD97":2567761.27,"ADDRESS":"大灣１０１號之２","OBJECTID":101094},"geometry":{"x":166789.37000000104,"y":2567761.2700000033}},{"attributes":{"ID":101095,"DIS_CODE":0,"TOWNNAME":"學甲區","LI":"大灣里","LIN":"10鄰","STREET":" ","SECT":" ","MAREA":"大灣","LANE":" ","ALLEY":" ","HOUSE_NO":"１０１號之３","E_COORD97":166788.26000000001,"N_COORD97":2567767.6400000001,"ADDRESS":"大灣１０１號之３","OBJECTID":101095},"geometry":{"x":166788.25999999978,"y":2567767.6400000025}},{"attributes":{"ID":101096,"DIS_CODE":0,"TOWNNAME":"學甲區","LI":"大灣里","LIN":"10鄰","STREET":" ","SECT":" ","MAREA":"大灣","LANE":" ","ALLEY":" ","HOUSE_NO":"１０１號之４","E_COORD97":166786,"N_COORD97":2567773.73,"ADDRESS":"大灣１０１號之４","OBJECTID":101096},"geometry":{"x":166786.00000000186,"y":2567773.7300000023}},{"attributes":{"ID":101097,"DIS_CODE":0,"TOWNNAME":"學甲區","LI":"大灣里","LIN":"10鄰","STREET":" ","SECT":" ","MAREA":"大灣","LANE":" ","ALLEY":" ","HOUSE_NO":"１０１號之５","E_COORD97":166783.70999999999,"N_COORD97":2567779.1299999999,"ADDRESS":"大灣１０１號之５","OBJECTID":101097},"geometry":{"x":166783.70999999996,"y":2567779.1300000008}},{"attributes":{"ID":101098,"DIS_CODE":0,"TOWNNAME":"學甲區","LI":"大灣里","LIN":"10鄰","STREET":" ","SECT":" ","MAREA":"大灣","LANE":" ","ALLEY":" ","HOUSE_NO":"１０１號之６","E_COORD97":166781.57000000001,"N_COORD97":2567785.1800000002,"ADDRESS":"大灣１０１號之６","OBJECTID":101098},"geometry":{"x":166781.5700000003,"y":2567785.1799999997}},{"attributes":{"ID":101099,"DIS_CODE":0,"TOWNNAME":"學甲區","LI":"大灣里","LIN":"10鄰","STREET":" ","SECT":" ","MAREA":"大灣","LANE":" ","ALLEY":" ","HOUSE_NO":"１０１號之７","E_COORD97":166779.10999999999,"N_COORD97":2567790.8599999999,"ADDRESS":"大灣１０１號之７","OBJECTID":101099},"geometry":{"x":166779.11000000127,"y":2567790.8599999975}},{"attributes":{"ID":101100,"DIS_CODE":0,"TOWNNAME":"學甲區","LI":"大灣里","LIN":"10鄰","STREET":" ","SECT":" ","MAREA":"大灣","LANE":" ","ALLEY":" ","HOUSE_NO":"１０１號之８","E_COORD97":166776.94,"N_COORD97":2567796.4700000002,"ADDRESS":"大灣１０１號之８","OBJECTID":101100},"geometry":{"x":166776.94000000134,"y":2567796.4700000025}},{"attributes":{"ID":101101,"DIS_CODE":0,"TOWNNAME":"學甲區","LI":"大灣里","LIN":"10鄰","STREET":" ","SECT":" ","MAREA":"大灣","LANE":" ","ALLEY":" ","HOUSE_NO":"１０１號之９","E_COORD97":166774.44,"N_COORD97":2567802.1099999999,"ADDRESS":"大灣１０１號之９","OBJECTID":101101},"geometry":{"x":166774.44000000041,"y":2567802.1099999994}},{"attributes":{"ID":101102,"DIS_CODE":0,"TOWNNAME":"學甲區","LI":"大灣里","LIN":"10鄰","STREET":" ","SECT":" ","MAREA":"大灣","LANE":" ","ALLEY":" ","HOUSE_NO":"１０１號","E_COORD97":166827.41,"N_COORD97":2567794.1600000001,"ADDRESS":"大灣１０１號","OBJECTID":101102},"geometry":{"x":166827.41000000201,"y":2567794.160000002}},{"attributes":{"ID":101103,"DIS_CODE":0,"TOWNNAME":"學甲區","LI":"大灣里","LIN":"10鄰","STREET":" ","SECT":" ","MAREA":"大灣","LANE":" ","ALLEY":" ","HOUSE_NO":"１０２號之２","E_COORD97":166734.29999999999,"N_COORD97":2567748.1499999999,"ADDRESS":"大灣１０２號之２","OBJECTID":101103},"geometry":{"x":166734.29999999981,"y":2567748.1500000004}},{"attributes":{"ID":101104,"DIS_CODE":0,"TOWNNAME":"學甲區","LI":"大灣里","LIN":"10鄰","STREET":" ","SECT":" ","MAREA":"大灣","LANE":" ","ALLEY":" ","HOUSE_NO":"１０２號","E_COORD97":166754,"N_COORD97":2567757.1099999999,"ADDRESS":"大灣１０２號","OBJECTID":101104},"geometry":{"x":166754.00000000093,"y":2567757.1100000013}},{"attributes":{"ID":101105,"DIS_CODE":0,"TOWNNAME":"學甲區","LI":"大灣里","LIN":"10鄰","STREET":" ","SECT":" ","MAREA":"大灣","LANE":" ","ALLEY":" ","HOUSE_NO":"１０３號之１","E_COORD97":166706.45000000001,"N_COORD97":2567720.4500000002,"ADDRESS":"大灣１０３號之１","OBJECTID":101105},"geometry":{"x":166706.45000000019,"y":2567720.4500000011}},{"attributes":{"ID":101106,"DIS_CODE":0,"TOWNNAME":"學甲區","LI":"大灣里","LIN":"10鄰","STREET":" ","SECT":" ","MAREA":"大灣","LANE":" ","ALLEY":" ","HOUSE_NO":"１０３號","E_COORD97":166711.04000000001,"N_COORD97":2567722.9199999999,"ADDRESS":"大灣１０３號","OBJECTID":101106},"geometry":{"x":166711.03999999911,"y":2567722.9199999999}},{"attributes":{"ID":101107,"DIS_CODE":0,"TOWNNAME":"東山區","LI":"東河里","LIN":"10鄰","STREET":" ","SECT":" ","MAREA":"吉貝耍","LANE":" ","ALLEY":" ","HOUSE_NO":"９５號之２","E_COORD97":186840.64000000001,"N_COORD97":2577212.21,"ADDRESS":"吉貝耍９５號之２","OBJECTID":101107},"geometry":{"x":186840.6400000006,"y":2577212.2100000046}},{"attributes":{"ID":101108,"DIS_CODE":0,"TOWNNAME":"永康區","LI":"西灣里","LIN":"42鄰","STREET":"大灣路","SECT":" ","MAREA":" ","LANE":"９４２巷","ALLEY":"４４９弄","HOUSE_NO":"５６號","E_COORD97":173794.01000000001,"N_COORD97":2545461.7400000002,"ADDRESS":"大灣路９４２巷４４９弄５６號","OBJECTID":101108},"geometry":{"x":173794.01000000071,"y":2545461.7400000021}},{"attributes":{"ID":101109,"DIS_CODE":0,"TOWNNAME":"安南區","LI":"城北里","LIN":"1鄰","STREET":"城北路","SECT":" ","MAREA":" ","LANE":" ","ALLEY":" ","HOUSE_NO":"１６之２號","E_COORD97":160872.01000000001,"N_COORD97":2551486.2799999998,"ADDRESS":"城北路１６之２號","OBJECTID":101109},"geometry":{"x":160872.00999999978,"y":2551486.2799999993}},{"attributes":{"ID":101110,"DIS_CODE":0,"TOWNNAME":"安南區","LI":"城北里","LIN":"1鄰","STREET":"城北路","SECT":" ","MAREA":" ","LANE":" ","ALLEY":" ","HOUSE_NO":"１６之１號","E_COORD97":160878.82999999999,"N_COORD97":2551487.23,"ADDRESS":"城北路１６之１號","OBJECTID":101110},"geometry":{"x":160878.83000000007,"y":2551487.2300000004}},{"attributes":{"ID":101111,"DIS_CODE":0,"TOWNNAME":"永康區","LI":"西勢里","LIN":"30鄰","STREET":"富強路","SECT":"一段","MAREA":" ","LANE":"２巷","ALLEY":"３１弄","HOUSE_NO":"５號","E_COORD97":175487.63,"N_COORD97":2545927.3799999999,"ADDRESS":"富強路一段２巷３１弄５號","OBJECTID":101111},"geometry":{"x":175487.62999999989,"y":2545927.3800000008}},{"attributes":{"ID":101112,"DIS_CODE":0,"TOWNNAME":"永康區","LI":"西灣里","LIN":"44鄰","STREET":"大灣路","SECT":" ","MAREA":" ","LANE":"９４２巷","ALLEY":"５６１弄","HOUSE_NO":"１１５號","E_COORD97":173600.72,"N_COORD97":2545693.8999999999,"ADDRESS":"大灣路９４２巷５６１弄１１５號","OBJECTID":101112},"geometry":{"x":173600.72000000067,"y":2545693.9000000022}},{"attributes":{"ID":101113,"DIS_CODE":0,"TOWNNAME":"永康區","LI":"西勢里","LIN":"21鄰","STREET":"富強路","SECT":"一段","MAREA":" ","LANE":"９８巷","ALLEY":"５６弄","HOUSE_NO":"１６號","E_COORD97":175577.73000000001,"N_COORD97":2546039.3999999999,"ADDRESS":"富強路一段９８巷５６弄１６號","OBJECTID":101113},"geometry":{"x":175577.72999999952,"y":2546039.4000000041}},{"attributes":{"ID":101114,"DIS_CODE":0,"TOWNNAME":"永康區","LI":"尚頂里","LIN":"21鄰","STREET":"南台街","SECT":" ","MAREA":" ","LANE":"１３巷","ALLEY":"１４弄","HOUSE_NO":"１６號","E_COORD97":170354.73999999999,"N_COORD97":2546930,"ADDRESS":"南台街１３巷１４弄１６號","OBJECTID":101114},"geometry":{"x":170354.74000000209,"y":2546930.0000000037}},{"attributes":{"ID":101115,"DIS_CODE":0,"TOWNNAME":"永康區","LI":"西灣里","LIN":"27鄰","STREET":"國光八街","SECT":" ","MAREA":" ","LANE":"１２巷","ALLEY":"３弄","HOUSE_NO":"２１號","E_COORD97":174375.16,"N_COORD97":2545804.25,"ADDRESS":"國光八街１２巷３弄２１號","OBJECTID":101115},"geometry":{"x":174375.16000000108,"y":2545804.25}},{"attributes":{"ID":101116,"DIS_CODE":0,"TOWNNAME":"永康區","LI":"尚頂里","LIN":"9鄰","STREET":"正南一街","SECT":" ","MAREA":" ","LANE":"１２９巷","ALLEY":"３８弄","HOUSE_NO":"１號","E_COORD97":170749.41,"N_COORD97":2547159.54,"ADDRESS":"正南一街１２９巷３８弄１號","OBJECTID":101116},"geometry":{"x":170749.41000000015,"y":2547159.540000001}},{"attributes":{"ID":101117,"DIS_CODE":0,"TOWNNAME":"永康區","LI":"尚頂里","LIN":"26鄰","STREET":"南台街","SECT":" ","MAREA":" ","LANE":"５４巷","ALLEY":"１０弄","HOUSE_NO":"３９號","E_COORD97":170412.34,"N_COORD97":2547076.25,"ADDRESS":"南台街５４巷１０弄３９號","OBJECTID":101117},"geometry":{"x":170412.33999999985,"y":2547076.25}},{"attributes":{"ID":101118,"DIS_CODE":0,"TOWNNAME":"學甲區","LI":"仁得里","LIN":"15鄰","STREET":"和平路","SECT":" ","MAREA":" ","LANE":" ","ALLEY":" ","HOUSE_NO":"２５９號","E_COORD97":165956.78,"N_COORD97":2570317.0600000001,"ADDRESS":"和平路２５９號","OBJECTID":101118},"geometry":{"x":165956.78000000026,"y":2570317.0600000024}},{"attributes":{"ID":101119,"DIS_CODE":0,"TOWNNAME":"七股區","LI":"看坪里","LIN":"1鄰","STREET":" ","SECT":" ","MAREA":"看坪","LANE":" ","ALLEY":" ","HOUSE_NO":"３號之１","E_COORD97":162409.95999999999,"N_COORD97":2558682.02,"ADDRESS":"看坪３號之１","OBJECTID":101119},"geometry":{"x":162409.96000000089,"y":2558682.0199999996}},{"attributes":{"ID":101120,"DIS_CODE":0,"TOWNNAME":"七股區","LI":"看坪里","LIN":"1鄰","STREET":" ","SECT":" ","MAREA":"看坪","LANE":" ","ALLEY":" ","HOUSE_NO":"５號之１０","E_COORD97":162458,"N_COORD97":2558680.73,"ADDRESS":"看坪５號之１０","OBJECTID":101120},"geometry":{"x":162457.99999999907,"y":2558680.7300000023}},{"attributes":{"ID":101121,"DIS_CODE":0,"TOWNNAME":"七股區","LI":"看坪里","LIN":"1鄰","STREET":" ","SECT":" ","MAREA":"看坪","LANE":" ","ALLEY":" ","HOUSE_NO":"５號之１","E_COORD97":162419.92000000001,"N_COORD97":2558684.27,"ADDRESS":"看坪５號之１","OBJECTID":101121},"geometry":{"x":162419.92000000086,"y":2558684.2699999996}},{"attributes":{"ID":101122,"DIS_CODE":0,"TOWNNAME":"七股區","LI":"看坪里","LIN":"1鄰","STREET":" ","SECT":" ","MAREA":"看坪","LANE":" ","ALLEY":" ","HOUSE_NO":"５號之２","E_COORD97":162424.22,"N_COORD97":2558683.8700000001,"ADDRESS":"看坪５號之２","OBJECTID":101122},"geometry":{"x":162424.2200000016,"y":2558683.8700000029}},{"attributes":{"ID":101123,"DIS_CODE":0,"TOWNNAME":"永康區","LI":"尚頂里","LIN":"9鄰","STREET":"正南一街","SECT":" ","MAREA":" ","LANE":"１２９巷","ALLEY":"４６弄","HOUSE_NO":"１６號","E_COORD97":170677.70000000001,"N_COORD97":2547182.5499999998,"ADDRESS":"正南一街１２９巷４６弄１６號","OBJECTID":101123},"geometry":{"x":170677.70000000112,"y":2547182.5500000026}},{"attributes":{"ID":101124,"DIS_CODE":0,"TOWNNAME":"永康區","LI":"西勢里","LIN":"17鄰","STREET":"富強路","SECT":"一段","MAREA":" ","LANE":"２５４巷","ALLEY":"１６弄","HOUSE_NO":"２號","E_COORD97":175717.09,"N_COORD97":2546441.6400000001,"ADDRESS":"富強路一段２５４巷１６弄２號","OBJECTID":101124},"geometry":{"x":175717.09000000171,"y":2546441.6400000025}},{"attributes":{"ID":101125,"DIS_CODE":0,"TOWNNAME":"七股區","LI":"龍山里","LIN":"1鄰","STREET":" ","SECT":" ","MAREA":"龍山","LANE":" ","ALLEY":" ","HOUSE_NO":"２號之７","E_COORD97":159826.72,"N_COORD97":2559667.1499999999,"ADDRESS":"龍山２號之７","OBJECTID":101125},"geometry":{"x":159826.71999999974,"y":2559667.1500000022}},{"attributes":{"ID":101126,"DIS_CODE":0,"TOWNNAME":"七股區","LI":"龍山里","LIN":"1鄰","STREET":" ","SECT":" ","MAREA":"龍山","LANE":" ","ALLEY":" ","HOUSE_NO":"２號之８","E_COORD97":159826.26000000001,"N_COORD97":2559660.3300000001,"ADDRESS":"龍山２號之８","OBJECTID":101126},"geometry":{"x":159826.25999999978,"y":2559660.3300000001}},{"attributes":{"ID":101127,"DIS_CODE":0,"TOWNNAME":"七股區","LI":"龍山里","LIN":"1鄰","STREET":" ","SECT":" ","MAREA":"龍山","LANE":" ","ALLEY":" ","HOUSE_NO":"２號之９","E_COORD97":159825.81,"N_COORD97":2559654.2200000002,"ADDRESS":"龍山２號之９","OBJECTID":101127},"geometry":{"x":159825.80999999959,"y":2559654.2200000025}},{"attributes":{"ID":101128,"DIS_CODE":0,"TOWNNAME":"七股區","LI":"龍山里","LIN":"1鄰","STREET":" ","SECT":" ","MAREA":"龍山","LANE":" ","ALLEY":" ","HOUSE_NO":"２號","E_COORD97":159874.32999999999,"N_COORD97":2559682.9900000002,"ADDRESS":"龍山２號","OBJECTID":101128},"geometry":{"x":159874.33000000194,"y":2559682.9900000021}},{"attributes":{"ID":101129,"DIS_CODE":0,"TOWNNAME":"將軍區","LI":"仁和里","LIN":"1鄰","STREET":" ","SECT":" ","MAREA":"仁巷","LANE":" ","ALLEY":" ","HOUSE_NO":"１０號","E_COORD97":164085.98999999999,"N_COORD97":2569456.02,"ADDRESS":"仁巷１０號","OBJECTID":101129},"geometry":{"x":164085.99000000115,"y":2569456.0200000014}},{"attributes":{"ID":101130,"DIS_CODE":0,"TOWNNAME":"將軍區","LI":"仁和里","LIN":"1鄰","STREET":" ","SECT":" ","MAREA":"仁巷","LANE":" ","ALLEY":" ","HOUSE_NO":"１１號","E_COORD97":164090.22,"N_COORD97":2569434.3199999998,"ADDRESS":"仁巷１１號","OBJECTID":101130},"geometry":{"x":164090.21999999974,"y":2569434.3200000022}},{"attributes":{"ID":101131,"DIS_CODE":0,"TOWNNAME":"官田區","LI":"大崎里","LIN":"1鄰","STREET":" ","SECT":" ","MAREA":"大崎","LANE":" ","ALLEY":" ","HOUSE_NO":"１０號之１","E_COORD97":185597.32999999999,"N_COORD97":2565649.21,"ADDRESS":"大崎１０號之１","OBJECTID":101131},"geometry":{"x":185597.33000000101,"y":2565649.2100000028}},{"attributes":{"ID":101132,"DIS_CODE":0,"TOWNNAME":"官田區","LI":"大崎里","LIN":"1鄰","STREET":" ","SECT":" ","MAREA":"大崎","LANE":" ","ALLEY":" ","HOUSE_NO":"１０號之６","E_COORD97":185567.10999999999,"N_COORD97":2565661.0499999998,"ADDRESS":"大崎１０號之６","OBJECTID":101132},"geometry":{"x":185567.11000000127,"y":2565661.0500000007}},{"attributes":{"ID":101133,"DIS_CODE":0,"TOWNNAME":"官田區","LI":"大崎里","LIN":"1鄰","STREET":" ","SECT":" ","MAREA":"大崎","LANE":" ","ALLEY":" ","HOUSE_NO":"１０號","E_COORD97":185566.10999999999,"N_COORD97":2565595.27,"ADDRESS":"大崎１０號","OBJECTID":101133},"geometry":{"x":185566.11000000034,"y":2565595.2700000014}},{"attributes":{"ID":101134,"DIS_CODE":0,"TOWNNAME":"官田區","LI":"大崎里","LIN":"1鄰","STREET":" ","SECT":" ","MAREA":"大崎","LANE":" ","ALLEY":" ","HOUSE_NO":"１２號","E_COORD97":185611.64000000001,"N_COORD97":2565593.2999999998,"ADDRESS":"大崎１２號","OBJECTID":101134},"geometry":{"x":185611.6400000006,"y":2565593.3000000026}},{"attributes":{"ID":101135,"DIS_CODE":0,"TOWNNAME":"官田區","LI":"大崎里","LIN":"1鄰","STREET":" ","SECT":" ","MAREA":"大崎","LANE":" ","ALLEY":" ","HOUSE_NO":"２號之５","E_COORD97":185531.20999999999,"N_COORD97":2565680.9399999999,"ADDRESS":"大崎２號之５","OBJECTID":101135},"geometry":{"x":185531.20999999996,"y":2565680.9399999995}},{"attributes":{"ID":101136,"DIS_CODE":0,"TOWNNAME":"官田區","LI":"大崎里","LIN":"1鄰","STREET":" ","SECT":" ","MAREA":"大崎","LANE":" ","ALLEY":" ","HOUSE_NO":"３號","E_COORD97":185482.42000000001,"N_COORD97":2565661.6699999999,"ADDRESS":"大崎３號","OBJECTID":101136},"geometry":{"x":185482.41999999993,"y":2565661.6700000018}},{"attributes":{"ID":101137,"DIS_CODE":0,"TOWNNAME":"官田區","LI":"大崎里","LIN":"1鄰","STREET":" ","SECT":" ","MAREA":"大崎","LANE":" ","ALLEY":" ","HOUSE_NO":"５號之１","E_COORD97":185516.31,"N_COORD97":2565646.1800000002,"ADDRESS":"大崎５號之１","OBJECTID":101137},"geometry":{"x":185516.30999999959,"y":2565646.1799999997}},{"attributes":{"ID":101138,"DIS_CODE":0,"TOWNNAME":"官田區","LI":"大崎里","LIN":"1鄰","STREET":" ","SECT":" ","MAREA":"大崎","LANE":" ","ALLEY":" ","HOUSE_NO":"５號","E_COORD97":185540.14000000001,"N_COORD97":2565660.1699999999,"ADDRESS":"大崎５號","OBJECTID":101138},"geometry":{"x":185540.13999999873,"y":2565660.1699999981}},{"attributes":{"ID":101139,"DIS_CODE":0,"TOWNNAME":"官田區","LI":"大崎里","LIN":"1鄰","STREET":" ","SECT":" ","MAREA":"大崎","LANE":" ","ALLEY":" ","HOUSE_NO":"７號","E_COORD97":185511.60000000001,"N_COORD97":2565595.4300000002,"ADDRESS":"大崎７號","OBJECTID":101139},"geometry":{"x":185511.60000000149,"y":2565595.4300000016}},{"attributes":{"ID":101140,"DIS_CODE":0,"TOWNNAME":"官田區","LI":"大崎里","LIN":"1鄰","STREET":" ","SECT":" ","MAREA":"大崎","LANE":" ","ALLEY":" ","HOUSE_NO":"８號之１","E_COORD97":185536.79999999999,"N_COORD97":2565593.3500000001,"ADDRESS":"大崎８號之１","OBJECTID":101140},"geometry":{"x":185536.79999999981,"y":2565593.3499999996}},{"attributes":{"ID":101141,"DIS_CODE":0,"TOWNNAME":"官田區","LI":"大崎里","LIN":"1鄰","STREET":" ","SECT":" ","MAREA":"大崎","LANE":" ","ALLEY":" ","HOUSE_NO":"８號","E_COORD97":185539.41,"N_COORD97":2565605.8100000001,"ADDRESS":"大崎８號","OBJECTID":101141},"geometry":{"x":185539.41000000108,"y":2565605.8100000042}},{"attributes":{"ID":101142,"DIS_CODE":0,"TOWNNAME":"官田區","LI":"大崎里","LIN":"1鄰","STREET":" ","SECT":" ","MAREA":"大崎","LANE":" ","ALLEY":" ","HOUSE_NO":"９號之１","E_COORD97":185580.67000000001,"N_COORD97":2565643.7200000002,"ADDRESS":"大崎９號之１","OBJECTID":101142},"geometry":{"x":185580.66999999993,"y":2565643.7199999988}},{"attributes":{"ID":101143,"DIS_CODE":0,"TOWNNAME":"官田區","LI":"大崎里","LIN":"1鄰","STREET":" ","SECT":" ","MAREA":"大崎","LANE":" ","ALLEY":" ","HOUSE_NO":"９號之２","E_COORD97":185541.41,"N_COORD97":2565638.5800000001,"ADDRESS":"大崎９號之２","OBJECTID":101143},"geometry":{"x":185541.41000000108,"y":2565638.5800000019}},{"attributes":{"ID":101144,"DIS_CODE":0,"TOWNNAME":"官田區","LI":"大崎里","LIN":"1鄰","STREET":" ","SECT":" ","MAREA":"大崎","LANE":" ","ALLEY":" ","HOUSE_NO":"９號","E_COORD97":185554.70999999999,"N_COORD97":2565621.5600000001,"ADDRESS":"大崎９號","OBJECTID":101144},"geometry":{"x":185554.70999999996,"y":2565621.5600000024}},{"attributes":{"ID":101145,"DIS_CODE":0,"TOWNNAME":"東山區","LI":"東河里","LIN":"10鄰","STREET":" ","SECT":" ","MAREA":"吉貝耍","LANE":" ","ALLEY":" ","HOUSE_NO":"９５號之３","E_COORD97":186840.35000000001,"N_COORD97":2577207.6400000001,"ADDRESS":"吉貝耍９５號之３","OBJECTID":101145},"geometry":{"x":186840.34999999963,"y":2577207.6400000006}},{"attributes":{"ID":101146,"DIS_CODE":0,"TOWNNAME":"東山區","LI":"嶺南里","LIN":"10鄰","STREET":" ","SECT":" ","MAREA":"宅子內","LANE":" ","ALLEY":" ","HOUSE_NO":"３５號之１","E_COORD97":192704.60999999999,"N_COORD97":2571970.7000000002,"ADDRESS":"宅子內３５號之１","OBJECTID":101146},"geometry":{"x":192704.61000000034,"y":2571970.6999999993}},{"attributes":{"ID":101147,"DIS_CODE":0,"TOWNNAME":"東山區","LI":"嶺南里","LIN":"10鄰","STREET":" ","SECT":" ","MAREA":"宅子內","LANE":" ","ALLEY":" ","HOUSE_NO":"３５號","E_COORD97":192712.95000000001,"N_COORD97":2571988.7000000002,"ADDRESS":"宅子內３５號","OBJECTID":101147},"geometry":{"x":192712.95000000112,"y":2571988.6999999993}},{"attributes":{"ID":101148,"DIS_CODE":0,"TOWNNAME":"東山區","LI":"嶺南里","LIN":"10鄰","STREET":" ","SECT":" ","MAREA":"宅子內","LANE":" ","ALLEY":" ","HOUSE_NO":"３６號","E_COORD97":192704.57000000001,"N_COORD97":2571946.5299999998,"ADDRESS":"宅子內３６號","OBJECTID":101148},"geometry":{"x":192704.5700000003,"y":2571946.5300000031}},{"attributes":{"ID":101149,"DIS_CODE":0,"TOWNNAME":"東山區","LI":"嶺南里","LIN":"10鄰","STREET":" ","SECT":" ","MAREA":"宅子內","LANE":" ","ALLEY":" ","HOUSE_NO":"３７號","E_COORD97":192730.42999999999,"N_COORD97":2571926.7799999998,"ADDRESS":"宅子內３７號","OBJECTID":101149},"geometry":{"x":192730.4299999997,"y":2571926.7799999993}},{"attributes":{"ID":101150,"DIS_CODE":0,"TOWNNAME":"東山區","LI":"東正里","LIN":"10鄰","STREET":" ","SECT":" ","MAREA":"東勢","LANE":" ","ALLEY":" ","HOUSE_NO":"７０號","E_COORD97":189362.60999999999,"N_COORD97":2580146.5499999998,"ADDRESS":"東勢７０號","OBJECTID":101150},"geometry":{"x":189362.61000000127,"y":2580146.5500000026}},{"attributes":{"ID":101151,"DIS_CODE":0,"TOWNNAME":"東山區","LI":"東正里","LIN":"10鄰","STREET":" ","SECT":" ","MAREA":"東勢","LANE":" ","ALLEY":" ","HOUSE_NO":"７１號","E_COORD97":189342.72,"N_COORD97":2580178.1099999999,"ADDRESS":"東勢７１號","OBJECTID":101151},"geometry":{"x":189342.72000000067,"y":2580178.1100000031}},{"attributes":{"ID":101152,"DIS_CODE":0,"TOWNNAME":"東山區","LI":"東正里","LIN":"10鄰","STREET":" ","SECT":" ","MAREA":"東勢","LANE":" ","ALLEY":" ","HOUSE_NO":"７２號之１","E_COORD97":189325.42000000001,"N_COORD97":2580175.6400000001,"ADDRESS":"東勢７２號之１","OBJECTID":101152},"geometry":{"x":189325.41999999993,"y":2580175.6400000043}},{"attributes":{"ID":101153,"DIS_CODE":0,"TOWNNAME":"東山區","LI":"東正里","LIN":"10鄰","STREET":" ","SECT":" ","MAREA":"東勢","LANE":" ","ALLEY":" ","HOUSE_NO":"７３號","E_COORD97":189325.07999999999,"N_COORD97":2580208.0800000001,"ADDRESS":"東勢７３號","OBJECTID":101153},"geometry":{"x":189325.08000000101,"y":2580208.0800000001}},{"attributes":{"ID":101154,"DIS_CODE":0,"TOWNNAME":"東山區","LI":"東正里","LIN":"10鄰","STREET":" ","SECT":" ","MAREA":"東勢","LANE":" ","ALLEY":" ","HOUSE_NO":"７９號","E_COORD97":189307.48999999999,"N_COORD97":2580212.9500000002,"ADDRESS":"東勢７９號","OBJECTID":101154},"geometry":{"x":189307.49000000115,"y":2580212.950000003}},{"attributes":{"ID":101155,"DIS_CODE":0,"TOWNNAME":"東山區","LI":"東正里","LIN":"10鄰","STREET":" ","SECT":" ","MAREA":"東勢","LANE":" ","ALLEY":" ","HOUSE_NO":"８０號","E_COORD97":189300.23999999999,"N_COORD97":2580168.7799999998,"ADDRESS":"東勢８０號","OBJECTID":101155},"geometry":{"x":189300.24000000115,"y":2580168.7799999993}},{"attributes":{"ID":101156,"DIS_CODE":0,"TOWNNAME":"將軍區","LI":"仁和里","LIN":"1鄰","STREET":" ","SECT":" ","MAREA":"仁巷","LANE":" ","ALLEY":" ","HOUSE_NO":"１２號","E_COORD97":164099.03,"N_COORD97":2569410.1200000001,"ADDRESS":"仁巷１２號","OBJECTID":101156},"geometry":{"x":164099.02999999933,"y":2569410.120000001}},{"attributes":{"ID":101157,"DIS_CODE":0,"TOWNNAME":"將軍區","LI":"仁和里","LIN":"1鄰","STREET":" ","SECT":" ","MAREA":"仁巷","LANE":" ","ALLEY":" ","HOUSE_NO":"１之１號","E_COORD97":164027.51000000001,"N_COORD97":2569459.73,"ADDRESS":"仁巷１之１號","OBJECTID":101157},"geometry":{"x":164027.51000000164,"y":2569459.7300000004}},{"attributes":{"ID":101158,"DIS_CODE":0,"TOWNNAME":"東山區","LI":"東中里","LIN":"10鄰","STREET":" ","SECT":" ","MAREA":"鳳尾厝","LANE":" ","ALLEY":" ","HOUSE_NO":"１４號之１","E_COORD97":188637.01000000001,"N_COORD97":2579664.3399999999,"ADDRESS":"鳳尾厝１４號之１","OBJECTID":101158},"geometry":{"x":188637.01000000071,"y":2579664.3399999999}},{"attributes":{"ID":101159,"DIS_CODE":0,"TOWNNAME":"東山區","LI":"東中里","LIN":"10鄰","STREET":" ","SECT":" ","MAREA":"鳳尾厝","LANE":" ","ALLEY":" ","HOUSE_NO":"１４號","E_COORD97":188657.70000000001,"N_COORD97":2579657.21,"ADDRESS":"鳳尾厝１４號","OBJECTID":101159},"geometry":{"x":188657.69999999925,"y":2579657.2100000028}},{"attributes":{"ID":101160,"DIS_CODE":0,"TOWNNAME":"東山區","LI":"東中里","LIN":"10鄰","STREET":" ","SECT":" ","MAREA":"鳳尾厝","LANE":" ","ALLEY":" ","HOUSE_NO":"１８號","E_COORD97":188689.39999999999,"N_COORD97":2579609.8300000001,"ADDRESS":"鳳尾厝１８號","OBJECTID":101160},"geometry":{"x":188689.4000000013,"y":2579609.8300000001}},{"attributes":{"ID":101161,"DIS_CODE":0,"TOWNNAME":"東山區","LI":"東中里","LIN":"10鄰","STREET":" ","SECT":" ","MAREA":"鳳尾厝","LANE":" ","ALLEY":" ","HOUSE_NO":"１９號之２","E_COORD97":188628.37,"N_COORD97":2579574.7999999998,"ADDRESS":"鳳尾厝１９號之２","OBJECTID":101161},"geometry":{"x":188628.37000000104,"y":2579574.8000000026}},{"attributes":{"ID":101162,"DIS_CODE":0,"TOWNNAME":"新化區","LI":"山\u25A0里","LIN":"10鄰","STREET":" ","SECT":" ","MAREA":"五甲勢","LANE":" ","ALLEY":" ","HOUSE_NO":"４７號之１","E_COORD97":181881.10999999999,"N_COORD97":2545606.2599999998,"ADDRESS":"五甲勢４７號之１","OBJECTID":101162},"geometry":{"x":181881.1099999994,"y":2545606.2600000016}},{"attributes":{"ID":101163,"DIS_CODE":0,"TOWNNAME":"新化區","LI":"\u25A0拔里","LIN":"10鄰","STREET":" ","SECT":" ","MAREA":"牧場","LANE":" ","ALLEY":" ","HOUSE_NO":"６３號之２","E_COORD97":181629.19,"N_COORD97":2551326.2599999998,"ADDRESS":"牧場６３號之２","OBJECTID":101163},"geometry":{"x":181629.19000000041,"y":2551326.2600000016}},{"attributes":{"ID":101164,"DIS_CODE":0,"TOWNNAME":"新化區","LI":"全興里","LIN":"10鄰","STREET":" ","SECT":" ","MAREA":"竹子\u25A0","LANE":" ","ALLEY":" ","HOUSE_NO":"１３７號","E_COORD97":177605.53,"N_COORD97":2547621.25,"ADDRESS":"竹子\u25A0１３７號","OBJECTID":101164},"geometry":{"x":177605.53000000119,"y":2547621.2500000019}},{"attributes":{"ID":101165,"DIS_CODE":0,"TOWNNAME":"新化區","LI":"山\u25A0里","LIN":"10鄰","STREET":" ","SECT":" ","MAREA":"五甲勢","LANE":" ","ALLEY":" ","HOUSE_NO":"３５號","E_COORD97":181842.67999999999,"N_COORD97":2545738.2599999998,"ADDRESS":"五甲勢３５號","OBJECTID":101165},"geometry":{"x":181842.67999999877,"y":2545738.2600000016}},{"attributes":{"ID":101166,"DIS_CODE":0,"TOWNNAME":"新化區","LI":"\u25A0拔里","LIN":"10鄰","STREET":" ","SECT":" ","MAREA":"牧場","LANE":" ","ALLEY":" ","HOUSE_NO":"５８號","E_COORD97":181801.73000000001,"N_COORD97":2551246.25,"ADDRESS":"牧場５８號","OBJECTID":101166},"geometry":{"x":181801.73000000045,"y":2551246.25}},{"attributes":{"ID":101167,"DIS_CODE":0,"TOWNNAME":"新化區","LI":"崙頂里","LIN":"10鄰","STREET":" ","SECT":" ","MAREA":"崙子頂","LANE":" ","ALLEY":" ","HOUSE_NO":"３６９號","E_COORD97":176843.23000000001,"N_COORD97":2546856.25,"ADDRESS":"崙子頂３６９號","OBJECTID":101167},"geometry":{"x":176843.23000000138,"y":2546856.25}},{"attributes":{"ID":101168,"DIS_CODE":0,"TOWNNAME":"新化區","LI":"\u25A0拔里","LIN":"10鄰","STREET":" ","SECT":" ","MAREA":"牧場","LANE":" ","ALLEY":" ","HOUSE_NO":"１０４號","E_COORD97":181846.28,"N_COORD97":2551187.25,"ADDRESS":"牧場１０４號","OBJECTID":101168},"geometry":{"x":181846.28000000119,"y":2551187.2500000019}},{"attributes":{"ID":101169,"DIS_CODE":0,"TOWNNAME":"新化區","LI":"全興里","LIN":"10鄰","STREET":" ","SECT":" ","MAREA":"竹子\u25A0","LANE":" ","ALLEY":" ","HOUSE_NO":"１７３號之３","E_COORD97":177485.98000000001,"N_COORD97":2547415.2599999998,"ADDRESS":"竹子\u25A0１７３號之３","OBJECTID":101169},"geometry":{"x":177485.98000000045,"y":2547415.2599999998}},{"attributes":{"ID":101170,"DIS_CODE":0,"TOWNNAME":"新化區","LI":"知義里","LIN":"10鄰","STREET":" ","SECT":" ","MAREA":"新和庄","LANE":" ","ALLEY":" ","HOUSE_NO":"１８９號之２","E_COORD97":181648.34,"N_COORD97":2547128.2599999998,"ADDRESS":"新和庄１８９號之２","OBJECTID":101170},"geometry":{"x":181648.33999999985,"y":2547128.2600000016}},{"attributes":{"ID":101171,"DIS_CODE":0,"TOWNNAME":"仁德區","LI":"中生里","LIN":"15鄰","STREET":" ","SECT":" ","MAREA":"中洲","LANE":" ","ALLEY":" ","HOUSE_NO":"２５１號之２６","E_COORD97":173249.70000000001,"N_COORD97":2533988.5499999998,"ADDRESS":"中洲２５１號之２６","OBJECTID":101171},"geometry":{"x":173249.70000000019,"y":2533988.5500000007}},{"attributes":{"ID":101172,"DIS_CODE":0,"TOWNNAME":"新化區","LI":"唪口里","LIN":"10鄰","STREET":" ","SECT":" ","MAREA":"唪口","LANE":" ","ALLEY":" ","HOUSE_NO":"１４７號之１","E_COORD97":177706.78,"N_COORD97":2549037.2599999998,"ADDRESS":"唪口１４７號之１","OBJECTID":101172},"geometry":{"x":177706.78000000119,"y":2549037.2600000016}},{"attributes":{"ID":101173,"DIS_CODE":0,"TOWNNAME":"新化區","LI":"全興里","LIN":"10鄰","STREET":" ","SECT":" ","MAREA":"竹子\u25A0","LANE":" ","ALLEY":" ","HOUSE_NO":"１６８號之１０","E_COORD97":177225.92000000001,"N_COORD97":2547095.2599999998,"ADDRESS":"竹子\u25A0１６８號之１０","OBJECTID":101173},"geometry":{"x":177225.92000000086,"y":2547095.2600000016}},{"attributes":{"ID":101174,"DIS_CODE":0,"TOWNNAME":"新化區","LI":"全興里","LIN":"10鄰","STREET":" ","SECT":" ","MAREA":"竹子\u25A0","LANE":" ","ALLEY":" ","HOUSE_NO":"１７１號之６","E_COORD97":177578.07999999999,"N_COORD97":2547013.2599999998,"ADDRESS":"竹子\u25A0１７１號之６","OBJECTID":101174},"geometry":{"x":177578.08000000007,"y":2547013.2600000016}},{"attributes":{"ID":101175,"DIS_CODE":0,"TOWNNAME":"新化區","LI":"唪口里","LIN":"10鄰","STREET":" ","SECT":" ","MAREA":"唪口","LANE":" ","ALLEY":" ","HOUSE_NO":"１４７號","E_COORD97":177706.25,"N_COORD97":2549028.25,"ADDRESS":"唪口１４７號","OBJECTID":101175},"geometry":{"x":177706.24999999907,"y":2549028.2500000019}},{"attributes":{"ID":101176,"DIS_CODE":0,"TOWNNAME":"新化區","LI":"山\u25A0里","LIN":"10鄰","STREET":" ","SECT":" ","MAREA":"五甲勢","LANE":" ","ALLEY":" ","HOUSE_NO":"３３號","E_COORD97":181879.67999999999,"N_COORD97":2545727.2599999998,"ADDRESS":"五甲勢３３號","OBJECTID":101176},"geometry":{"x":181879.6799999997,"y":2545727.2599999998}},{"attributes":{"ID":101177,"DIS_CODE":0,"TOWNNAME":"新化區","LI":"\u25A0拔里","LIN":"10鄰","STREET":" ","SECT":" ","MAREA":"牧場","LANE":" ","ALLEY":" ","HOUSE_NO":"９０號之２","E_COORD97":181944.89000000001,"N_COORD97":2551255.2599999998,"ADDRESS":"牧場９０號之２","OBJECTID":101177},"geometry":{"x":181944.8900000006,"y":2551255.2600000016}},{"attributes":{"ID":101178,"DIS_CODE":0,"TOWNNAME":"新化區","LI":"全興里","LIN":"10鄰","STREET":" ","SECT":" ","MAREA":"竹子\u25A0","LANE":" ","ALLEY":" ","HOUSE_NO":"１６１號之４","E_COORD97":177372.37,"N_COORD97":2547362.2599999998,"ADDRESS":"竹子\u25A0１６１號之４","OBJECTID":101178},"geometry":{"x":177372.37000000104,"y":2547362.2600000016}},{"attributes":{"ID":101179,"DIS_CODE":0,"TOWNNAME":"新化區","LI":"崙頂里","LIN":"10鄰","STREET":" ","SECT":" ","MAREA":"崙子頂","LANE":" ","ALLEY":" ","HOUSE_NO":"３７４號之１","E_COORD97":176852.95999999999,"N_COORD97":2546831.2599999998,"ADDRESS":"崙子頂３７４號之１","OBJECTID":101179},"geometry":{"x":176852.96000000089,"y":2546831.2599999998}},{"attributes":{"ID":101180,"DIS_CODE":0,"TOWNNAME":"新化區","LI":"\u25A0拔里","LIN":"10鄰","STREET":" ","SECT":" ","MAREA":"牧場","LANE":" ","ALLEY":" ","HOUSE_NO":"７１號","E_COORD97":182047.42999999999,"N_COORD97":2551546.25,"ADDRESS":"牧場７１號","OBJECTID":101180},"geometry":{"x":182047.4299999997,"y":2551546.2500000019}},{"attributes":{"ID":101181,"DIS_CODE":0,"TOWNNAME":"新化區","LI":"山\u25A0里","LIN":"10鄰","STREET":" ","SECT":" ","MAREA":"五甲勢","LANE":" ","ALLEY":" ","HOUSE_NO":"４８號","E_COORD97":181896.48000000001,"N_COORD97":2545680.2599999998,"ADDRESS":"五甲勢４８號","OBJECTID":101181},"geometry":{"x":181896.48000000138,"y":2545680.2600000035}},{"attributes":{"ID":101182,"DIS_CODE":0,"TOWNNAME":"新化區","LI":"大坑里","LIN":"10鄰","STREET":" ","SECT":" ","MAREA":"大坑尾","LANE":" ","ALLEY":" ","HOUSE_NO":"２４０號","E_COORD97":186888.17000000001,"N_COORD97":2547216.2799999998,"ADDRESS":"大坑尾２４０號","OBJECTID":101182},"geometry":{"x":186888.17000000086,"y":2547216.2800000012}},{"attributes":{"ID":101183,"DIS_CODE":0,"TOWNNAME":"新化區","LI":"唪口里","LIN":"10鄰","STREET":" ","SECT":" ","MAREA":"唪口","LANE":" ","ALLEY":" ","HOUSE_NO":"１４８號之１","E_COORD97":177682.98000000001,"N_COORD97":2549019.2599999998,"ADDRESS":"唪口１４８號之１","OBJECTID":101183},"geometry":{"x":177682.98000000045,"y":2549019.2599999998}},{"attributes":{"ID":101184,"DIS_CODE":0,"TOWNNAME":"新化區","LI":"全興里","LIN":"10鄰","STREET":" ","SECT":" ","MAREA":"竹子\u25A0","LANE":" ","ALLEY":" ","HOUSE_NO":"１６１號","E_COORD97":177395.73000000001,"N_COORD97":2547367.25,"ADDRESS":"竹子\u25A0１６１號","OBJECTID":101184},"geometry":{"x":177395.73000000138,"y":2547367.25}},{"attributes":{"ID":101185,"DIS_CODE":0,"TOWNNAME":"新化區","LI":"全興里","LIN":"10鄰","STREET":" ","SECT":" ","MAREA":"竹子\u25A0","LANE":" ","ALLEY":" ","HOUSE_NO":"１７１號之１０","E_COORD97":177386.01999999999,"N_COORD97":2547234.2599999998,"ADDRESS":"竹子\u25A0１７１號之１０","OBJECTID":101185},"geometry":{"x":177386.02000000048,"y":2547234.2600000016}},{"attributes":{"ID":101186,"DIS_CODE":0,"TOWNNAME":"新化區","LI":"唪口里","LIN":"10鄰","STREET":" ","SECT":" ","MAREA":"唪口","LANE":" ","ALLEY":" ","HOUSE_NO":"１４７號之１０","E_COORD97":177705.04000000001,"N_COORD97":2549118.2599999998,"ADDRESS":"唪口１４７號之１０","OBJECTID":101186},"geometry":{"x":177705.04000000097,"y":2549118.2600000035}},{"attributes":{"ID":101187,"DIS_CODE":0,"TOWNNAME":"新化區","LI":"全興里","LIN":"10鄰","STREET":" ","SECT":" ","MAREA":"竹子\u25A0","LANE":" ","ALLEY":" ","HOUSE_NO":"１６８號之１５","E_COORD97":177462.84,"N_COORD97":2546931.2599999998,"ADDRESS":"竹子\u25A0１６８號之１５","OBJECTID":101187},"geometry":{"x":177462.83999999985,"y":2546931.2600000035}},{"attributes":{"ID":101188,"DIS_CODE":0,"TOWNNAME":"新化區","LI":"唪口里","LIN":"10鄰","STREET":" ","SECT":" ","MAREA":"唪口","LANE":" ","ALLEY":" ","HOUSE_NO":"１４２號之６","E_COORD97":177521.20000000001,"N_COORD97":2549183.2599999998,"ADDRESS":"唪口１４２號之６","OBJECTID":101188},"geometry":{"x":177521.20000000112,"y":2549183.2600000016}},{"attributes":{"ID":101189,"DIS_CODE":0,"TOWNNAME":"新化區","LI":"\u25A0拔里","LIN":"10鄰","STREET":" ","SECT":" ","MAREA":"牧場","LANE":" ","ALLEY":" ","HOUSE_NO":"８７號","E_COORD97":181892.42999999999,"N_COORD97":2551298.25,"ADDRESS":"牧場８７號","OBJECTID":101189},"geometry":{"x":181892.43000000063,"y":2551298.2500000037}},{"attributes":{"ID":101190,"DIS_CODE":0,"TOWNNAME":"新化區","LI":"唪口里","LIN":"10鄰","STREET":" ","SECT":" ","MAREA":"唪口","LANE":" ","ALLEY":" ","HOUSE_NO":"１４２號之８","E_COORD97":177600.29999999999,"N_COORD97":2549156.2599999998,"ADDRESS":"唪口１４２號之８","OBJECTID":101190},"geometry":{"x":177600.29999999981,"y":2549156.2600000016}},{"attributes":{"ID":101191,"DIS_CODE":0,"TOWNNAME":"新化區","LI":"\u25A0拔里","LIN":"10鄰","STREET":" ","SECT":" ","MAREA":"牧場","LANE":" ","ALLEY":" ","HOUSE_NO":"７０號","E_COORD97":181831.73000000001,"N_COORD97":2551309.25,"ADDRESS":"牧場７０號","OBJECTID":101191},"geometry":{"x":181831.73000000138,"y":2551309.2500000019}},{"attributes":{"ID":101192,"DIS_CODE":0,"TOWNNAME":"新化區","LI":"\u25A0拔里","LIN":"10鄰","STREET":" ","SECT":" ","MAREA":"牧場","LANE":" ","ALLEY":" ","HOUSE_NO":"８５號","E_COORD97":181861.53,"N_COORD97":2551302.25,"ADDRESS":"牧場８５號","OBJECTID":101192},"geometry":{"x":181861.53000000119,"y":2551302.2500000019}},{"attributes":{"ID":101193,"DIS_CODE":0,"TOWNNAME":"官田區","LI":"二鎮里","LIN":"1鄰","STREET":"工業南路","SECT":" ","MAREA":" ","LANE":" ","ALLEY":" ","HOUSE_NO":"２４號","E_COORD97":180873.37,"N_COORD97":2566831.0099999998,"ADDRESS":"工業南路２４號","OBJECTID":101193},"geometry":{"x":180873.37000000011,"y":2566831.0100000035}},{"attributes":{"ID":101194,"DIS_CODE":0,"TOWNNAME":"官田區","LI":"二鎮里","LIN":"1鄰","STREET":"工業南路","SECT":" ","MAREA":" ","LANE":" ","ALLEY":" ","HOUSE_NO":"２５號","E_COORD97":180947.63,"N_COORD97":2566938.8900000001,"ADDRESS":"工業南路２５號","OBJECTID":101194},"geometry":{"x":180947.62999999989,"y":2566938.8900000025}},{"attributes":{"ID":101195,"DIS_CODE":0,"TOWNNAME":"官田區","LI":"隆田里","LIN":"1鄰","STREET":"中山路","SECT":"一段","MAREA":" ","LANE":" ","ALLEY":" ","HOUSE_NO":"１３號","E_COORD97":180267.79000000001,"N_COORD97":2565766.8799999999,"ADDRESS":"中山路一段１３號","OBJECTID":101195},"geometry":{"x":180267.79000000097,"y":2565766.8800000008}},{"attributes":{"ID":101196,"DIS_CODE":0,"TOWNNAME":"官田區","LI":"隆田里","LIN":"1鄰","STREET":"中山路","SECT":"一段","MAREA":" ","LANE":" ","ALLEY":" ","HOUSE_NO":"１５號","E_COORD97":180261.03,"N_COORD97":2565766.8199999998,"ADDRESS":"中山路一段１５號","OBJECTID":101196},"geometry":{"x":180261.03000000212,"y":2565766.8200000003}},{"attributes":{"ID":101197,"DIS_CODE":0,"TOWNNAME":"中西區","LI":"法華里","LIN":"1鄰","STREET":"府連路","SECT":" ","MAREA":" ","LANE":" ","ALLEY":" ","HOUSE_NO":"１３９之１號","E_COORD97":169077.10999999999,"N_COORD97":2542768.1499999999,"ADDRESS":"府連路１３９之１號","OBJECTID":101197},"geometry":{"x":169077.11000000034,"y":2542768.1500000004}},{"attributes":{"ID":101198,"DIS_CODE":0,"TOWNNAME":"中西區","LI":"法華里","LIN":"1鄰","STREET":"法華街","SECT":" ","MAREA":" ","LANE":" ","ALLEY":" ","HOUSE_NO":"１１號","E_COORD97":169063.14000000001,"N_COORD97":2542776.3999999999,"ADDRESS":"法華街１１號","OBJECTID":101198},"geometry":{"x":169063.1400000006,"y":2542776.4000000004}},{"attributes":{"ID":101199,"DIS_CODE":0,"TOWNNAME":"中西區","LI":"法華里","LIN":"1鄰","STREET":"法華街","SECT":" ","MAREA":" ","LANE":" ","ALLEY":" ","HOUSE_NO":"１３號","E_COORD97":169057.73999999999,"N_COORD97":2542772.1200000001,"ADDRESS":"法華街１３號","OBJECTID":101199},"geometry":{"x":169057.73999999929,"y":2542772.120000001}},{"attributes":{"ID":101200,"DIS_CODE":0,"TOWNNAME":"中西區","LI":"文賢里","LIN":"1鄰","STREET":"文賢路","SECT":" ","MAREA":" ","LANE":" ","ALLEY":" ","HOUSE_NO":"２４１之５號","E_COORD97":167331.35000000001,"N_COORD97":2545071.9700000002,"ADDRESS":"文賢路２４１之５號","OBJECTID":101200},"geometry":{"x":167331.35000000056,"y":2545071.9700000007}}]}