{"displayFieldName":"TOWNNAME","fieldAliases":{"ID":"ID","DIS_CODE":"DIS_CODE","TOWNNAME":"TOWNNAME","LI":"LI","LIN":"LIN","STREET":"STREET","SECT":"SECT","MAREA":"MAREA","LANE":"LANE","ALLEY":"ALLEY","HOUSE_NO":"HOUSE_NO","E_COORD97":"E_COORD97","N_COORD97":"N_COORD97","ADDRESS":"ADDRESS","OBJECTID":"OBJECTID"},"geometryType":"esriGeometryPoint","spatialReference":{"wkid":102443,"latestWkid":3826},"fields":[{"name":"ID","type":"esriFieldTypeDouble","alias":"ID"},{"name":"DIS_CODE","type":"esriFieldTypeInteger","alias":"DIS_CODE"},{"name":"TOWNNAME","type":"esriFieldTypeString","alias":"TOWNNAME","length":8},{"name":"LI","type":"esriFieldTypeString","alias":"LI","length":8},{"name":"LIN","type":"esriFieldTypeString","alias":"LIN","length":12},{"name":"STREET","type":"esriFieldTypeString","alias":"STREET","length":20},{"name":"SECT","type":"esriFieldTypeString","alias":"SECT","length":8},{"name":"MAREA","type":"esriFieldTypeString","alias":"MAREA","length":12},{"name":"LANE","type":"esriFieldTypeString","alias":"LANE","length":10},{"name":"ALLEY","type":"esriFieldTypeString","alias":"ALLEY","length":10},{"name":"HOUSE_NO","type":"esriFieldTypeString","alias":"HOUSE_NO","length":20},{"name":"E_COORD97","type":"esriFieldTypeDouble","alias":"E_COORD97"},{"name":"N_COORD97","type":"esriFieldTypeDouble","alias":"N_COORD97"},{"name":"ADDRESS","type":"esriFieldTypeString","alias":"ADDRESS","length":50},{"name":"OBJECTID","type":"esriFieldTypeOID","alias":"OBJECTID"}],"features":[{"attributes":{"ID":493028,"DIS_CODE":0,"TOWNNAME":"學甲區","LI":"仁得里","LIN":"1鄰","STREET":"公園街","SECT":" ","MAREA":" ","LANE":" ","ALLEY":" ","HOUSE_NO":"７號之３","E_COORD97":166271.73000000001,"N_COORD97":2569661.6099999999,"ADDRESS":"公園街７號之３","OBJECTID":493001},"geometry":{"x":166271.73000000138,"y":2569661.6100000013}},{"attributes":{"ID":493029,"DIS_CODE":0,"TOWNNAME":"學甲區","LI":"仁得里","LIN":"1鄰","STREET":"公園街","SECT":" ","MAREA":" ","LANE":" ","ALLEY":" ","HOUSE_NO":"７號之４","E_COORD97":166265.45000000001,"N_COORD97":2569661.6800000002,"ADDRESS":"公園街７號之４","OBJECTID":493002},"geometry":{"x":166265.45000000019,"y":2569661.6800000016}},{"attributes":{"ID":493030,"DIS_CODE":0,"TOWNNAME":"學甲區","LI":"仁得里","LIN":"1鄰","STREET":"公園街","SECT":" ","MAREA":" ","LANE":" ","ALLEY":" ","HOUSE_NO":"７號之５","E_COORD97":166259.17000000001,"N_COORD97":2569661.75,"ADDRESS":"公園街７號之５","OBJECTID":493003},"geometry":{"x":166259.17000000179,"y":2569661.7500000019}},{"attributes":{"ID":493031,"DIS_CODE":0,"TOWNNAME":"學甲區","LI":"仁得里","LIN":"1鄰","STREET":"公園街","SECT":" ","MAREA":" ","LANE":" ","ALLEY":" ","HOUSE_NO":"７號之６","E_COORD97":166252.89000000001,"N_COORD97":2569661.8199999998,"ADDRESS":"公園街７號之６","OBJECTID":493004},"geometry":{"x":166252.8900000006,"y":2569661.8200000022}},{"attributes":{"ID":493032,"DIS_CODE":0,"TOWNNAME":"學甲區","LI":"仁得里","LIN":"1鄰","STREET":"公園街","SECT":" ","MAREA":" ","LANE":" ","ALLEY":" ","HOUSE_NO":"８０號","E_COORD97":166287.57000000001,"N_COORD97":2569933.0099999998,"ADDRESS":"公園街８０號","OBJECTID":493005},"geometry":{"x":166287.57000000123,"y":2569933.0099999979}},{"attributes":{"ID":493033,"DIS_CODE":0,"TOWNNAME":"學甲區","LI":"仁得里","LIN":"1鄰","STREET":"公園街","SECT":" ","MAREA":" ","LANE":" ","ALLEY":" ","HOUSE_NO":"８２號","E_COORD97":166288.06,"N_COORD97":2569928.5600000001,"ADDRESS":"公園街８２號","OBJECTID":493006},"geometry":{"x":166288.05999999959,"y":2569928.5600000024}},{"attributes":{"ID":493034,"DIS_CODE":0,"TOWNNAME":"學甲區","LI":"仁得里","LIN":"1鄰","STREET":"公園街","SECT":" ","MAREA":" ","LANE":" ","ALLEY":" ","HOUSE_NO":"８號","E_COORD97":166321.94,"N_COORD97":2569654.75,"ADDRESS":"公園街８號","OBJECTID":493007},"geometry":{"x":166321.94000000041,"y":2569654.7500000019}},{"attributes":{"ID":493035,"DIS_CODE":0,"TOWNNAME":"學甲區","LI":"仁得里","LIN":"1鄰","STREET":"公園街","SECT":" ","MAREA":" ","LANE":" ","ALLEY":" ","HOUSE_NO":"９號","E_COORD97":166298.19,"N_COORD97":2569665.3399999999,"ADDRESS":"公園街９號","OBJECTID":493008},"geometry":{"x":166298.19000000041,"y":2569665.3399999999}},{"attributes":{"ID":493036,"DIS_CODE":0,"TOWNNAME":"學甲區","LI":"仁得里","LIN":"1鄰","STREET":"四維街","SECT":" ","MAREA":" ","LANE":" ","ALLEY":" ","HOUSE_NO":"１０號","E_COORD97":166261.20000000001,"N_COORD97":2569777.5600000001,"ADDRESS":"四維街１０號","OBJECTID":493009},"geometry":{"x":166261.20000000112,"y":2569777.5599999987}},{"attributes":{"ID":493037,"DIS_CODE":0,"TOWNNAME":"學甲區","LI":"仁得里","LIN":"1鄰","STREET":"四維街","SECT":" ","MAREA":" ","LANE":" ","ALLEY":" ","HOUSE_NO":"１１號","E_COORD97":166261.29999999999,"N_COORD97":2569742.98,"ADDRESS":"四維街１１號","OBJECTID":493010},"geometry":{"x":166261.29999999981,"y":2569742.9800000004}},{"attributes":{"ID":493038,"DIS_CODE":0,"TOWNNAME":"學甲區","LI":"仁得里","LIN":"1鄰","STREET":"四維街","SECT":" ","MAREA":" ","LANE":" ","ALLEY":" ","HOUSE_NO":"１２號","E_COORD97":166255.41,"N_COORD97":2569777.79,"ADDRESS":"四維街１２號","OBJECTID":493011},"geometry":{"x":166255.41000000015,"y":2569777.7899999972}},{"attributes":{"ID":493039,"DIS_CODE":0,"TOWNNAME":"學甲區","LI":"仁得里","LIN":"1鄰","STREET":"四維街","SECT":" ","MAREA":" ","LANE":" ","ALLEY":" ","HOUSE_NO":"１３號","E_COORD97":166236.39999999999,"N_COORD97":2569752.0800000001,"ADDRESS":"四維街１３號","OBJECTID":493012},"geometry":{"x":166236.4000000013,"y":2569752.0800000001}},{"attributes":{"ID":493040,"DIS_CODE":0,"TOWNNAME":"學甲區","LI":"仁得里","LIN":"1鄰","STREET":"四維街","SECT":" ","MAREA":" ","LANE":" ","ALLEY":" ","HOUSE_NO":"１５號","E_COORD97":166231.63,"N_COORD97":2569752.25,"ADDRESS":"四維街１５號","OBJECTID":493013},"geometry":{"x":166231.62999999989,"y":2569752.2500000037}},{"attributes":{"ID":493041,"DIS_CODE":0,"TOWNNAME":"學甲區","LI":"仁得里","LIN":"1鄰","STREET":"四維街","SECT":" ","MAREA":" ","LANE":" ","ALLEY":" ","HOUSE_NO":"１７號","E_COORD97":166228.03,"N_COORD97":2569752.9300000002,"ADDRESS":"四維街１７號","OBJECTID":493014},"geometry":{"x":166228.03000000026,"y":2569752.9299999997}},{"attributes":{"ID":493042,"DIS_CODE":0,"TOWNNAME":"學甲區","LI":"仁得里","LIN":"1鄰","STREET":"四維街","SECT":" ","MAREA":" ","LANE":" ","ALLEY":" ","HOUSE_NO":"１９號之１","E_COORD97":166227.01000000001,"N_COORD97":2569738.8700000001,"ADDRESS":"四維街１９號之１","OBJECTID":493015},"geometry":{"x":166227.01000000071,"y":2569738.8700000048}},{"attributes":{"ID":493043,"DIS_CODE":0,"TOWNNAME":"學甲區","LI":"仁得里","LIN":"1鄰","STREET":"四維街","SECT":" ","MAREA":" ","LANE":" ","ALLEY":" ","HOUSE_NO":"１９號之２","E_COORD97":166226.64000000001,"N_COORD97":2569732.73,"ADDRESS":"四維街１９號之２","OBJECTID":493016},"geometry":{"x":166226.63999999966,"y":2569732.7300000023}},{"attributes":{"ID":493044,"DIS_CODE":0,"TOWNNAME":"學甲區","LI":"仁得里","LIN":"1鄰","STREET":"四維街","SECT":" ","MAREA":" ","LANE":" ","ALLEY":" ","HOUSE_NO":"１９號","E_COORD97":166223.19,"N_COORD97":2569753.25,"ADDRESS":"四維街１９號","OBJECTID":493017},"geometry":{"x":166223.19000000041,"y":2569753.2500000019}},{"attributes":{"ID":493045,"DIS_CODE":0,"TOWNNAME":"學甲區","LI":"仁得里","LIN":"1鄰","STREET":"四維街","SECT":" ","MAREA":" ","LANE":" ","ALLEY":" ","HOUSE_NO":"２０號","E_COORD97":166233.29999999999,"N_COORD97":2569781,"ADDRESS":"四維街２０號","OBJECTID":493018},"geometry":{"x":166233.30000000075,"y":2569781.0000000037}},{"attributes":{"ID":493046,"DIS_CODE":0,"TOWNNAME":"學甲區","LI":"仁得里","LIN":"1鄰","STREET":"四維街","SECT":" ","MAREA":" ","LANE":" ","ALLEY":" ","HOUSE_NO":"２１號之１","E_COORD97":166205.19,"N_COORD97":2569728,"ADDRESS":"四維街２１號之１","OBJECTID":493019},"geometry":{"x":166205.19000000041,"y":2569728.0000000019}},{"attributes":{"ID":493047,"DIS_CODE":0,"TOWNNAME":"學甲區","LI":"仁得里","LIN":"1鄰","STREET":"四維街","SECT":" ","MAREA":" ","LANE":" ","ALLEY":" ","HOUSE_NO":"２１號之２","E_COORD97":166205.29000000001,"N_COORD97":2569723.9399999999,"ADDRESS":"四維街２１號之２","OBJECTID":493020},"geometry":{"x":166205.29000000004,"y":2569723.9400000013}},{"attributes":{"ID":493048,"DIS_CODE":0,"TOWNNAME":"學甲區","LI":"仁得里","LIN":"1鄰","STREET":"四維街","SECT":" ","MAREA":" ","LANE":" ","ALLEY":" ","HOUSE_NO":"２１號之３","E_COORD97":166205.09,"N_COORD97":2569719.8500000001,"ADDRESS":"四維街２１號之３","OBJECTID":493021},"geometry":{"x":166205.08999999985,"y":2569719.8499999996}},{"attributes":{"ID":493049,"DIS_CODE":0,"TOWNNAME":"學甲區","LI":"仁得里","LIN":"1鄰","STREET":"四維街","SECT":" ","MAREA":" ","LANE":" ","ALLEY":" ","HOUSE_NO":"２１號","E_COORD97":166214.73999999999,"N_COORD97":2569752.5,"ADDRESS":"四維街２１號","OBJECTID":493022},"geometry":{"x":166214.74000000022,"y":2569752.5}},{"attributes":{"ID":493050,"DIS_CODE":0,"TOWNNAME":"學甲區","LI":"仁得里","LIN":"1鄰","STREET":"四維街","SECT":" ","MAREA":" ","LANE":" ","ALLEY":" ","HOUSE_NO":"２２號","E_COORD97":166228.14000000001,"N_COORD97":2569781.46,"ADDRESS":"四維街２２號","OBJECTID":493023},"geometry":{"x":166228.13999999966,"y":2569781.4600000009}},{"attributes":{"ID":493051,"DIS_CODE":0,"TOWNNAME":"學甲區","LI":"仁得里","LIN":"1鄰","STREET":"四維街","SECT":" ","MAREA":" ","LANE":" ","ALLEY":" ","HOUSE_NO":"２３號","E_COORD97":166210.34,"N_COORD97":2569753,"ADDRESS":"四維街２３號","OBJECTID":493024},"geometry":{"x":166210.33999999985,"y":2569753}},{"attributes":{"ID":493052,"DIS_CODE":0,"TOWNNAME":"學甲區","LI":"仁得里","LIN":"1鄰","STREET":"四維街","SECT":" ","MAREA":" ","LANE":" ","ALLEY":" ","HOUSE_NO":"２４號","E_COORD97":166223.09,"N_COORD97":2569781.98,"ADDRESS":"四維街２４號","OBJECTID":493025},"geometry":{"x":166223.09000000078,"y":2569781.9800000023}},{"attributes":{"ID":493053,"DIS_CODE":0,"TOWNNAME":"學甲區","LI":"仁得里","LIN":"1鄰","STREET":"四維街","SECT":" ","MAREA":" ","LANE":" ","ALLEY":" ","HOUSE_NO":"２５號","E_COORD97":166204.48999999999,"N_COORD97":2569737.96,"ADDRESS":"四維街２５號","OBJECTID":493026},"geometry":{"x":166204.49000000022,"y":2569737.9600000046}},{"attributes":{"ID":493054,"DIS_CODE":0,"TOWNNAME":"學甲區","LI":"仁得里","LIN":"1鄰","STREET":"四維街","SECT":" ","MAREA":" ","LANE":" ","ALLEY":" ","HOUSE_NO":"２６號","E_COORD97":166218.19,"N_COORD97":2569781.9900000002,"ADDRESS":"四維街２６號","OBJECTID":493027},"geometry":{"x":166218.19000000041,"y":2569781.9900000021}},{"attributes":{"ID":493055,"DIS_CODE":0,"TOWNNAME":"學甲區","LI":"仁得里","LIN":"1鄰","STREET":"四維街","SECT":" ","MAREA":" ","LANE":" ","ALLEY":" ","HOUSE_NO":"２７號","E_COORD97":166199.79000000001,"N_COORD97":2569738.3999999999,"ADDRESS":"四維街２７號","OBJECTID":493028},"geometry":{"x":166199.79000000097,"y":2569738.4000000022}},{"attributes":{"ID":493056,"DIS_CODE":0,"TOWNNAME":"學甲區","LI":"仁得里","LIN":"1鄰","STREET":"四維街","SECT":" ","MAREA":" ","LANE":" ","ALLEY":" ","HOUSE_NO":"４６號","E_COORD97":166149.70000000001,"N_COORD97":2569777.2799999998,"ADDRESS":"四維街４６號","OBJECTID":493029},"geometry":{"x":166149.70000000112,"y":2569777.2799999993}},{"attributes":{"ID":493057,"DIS_CODE":0,"TOWNNAME":"學甲區","LI":"仁得里","LIN":"1鄰","STREET":"四維街","SECT":" ","MAREA":" ","LANE":" ","ALLEY":" ","HOUSE_NO":"４８號","E_COORD97":166145.04999999999,"N_COORD97":2569778.3599999999,"ADDRESS":"四維街４８號","OBJECTID":493030},"geometry":{"x":166145.05000000075,"y":2569778.3600000013}},{"attributes":{"ID":493058,"DIS_CODE":0,"TOWNNAME":"學甲區","LI":"仁得里","LIN":"1鄰","STREET":"四維街","SECT":" ","MAREA":" ","LANE":" ","ALLEY":" ","HOUSE_NO":"４號","E_COORD97":166279.16,"N_COORD97":2569770.25,"ADDRESS":"四維街４號","OBJECTID":493031},"geometry":{"x":166279.16000000015,"y":2569770.2500000019}},{"attributes":{"ID":493059,"DIS_CODE":0,"TOWNNAME":"學甲區","LI":"仁得里","LIN":"1鄰","STREET":"四維街","SECT":" ","MAREA":" ","LANE":" ","ALLEY":" ","HOUSE_NO":"５０號","E_COORD97":166140.70000000001,"N_COORD97":2569779.4199999999,"ADDRESS":"四維街５０號","OBJECTID":493032},"geometry":{"x":166140.70000000205,"y":2569779.4200000018}},{"attributes":{"ID":493060,"DIS_CODE":0,"TOWNNAME":"學甲區","LI":"仁得里","LIN":"1鄰","STREET":"四維街","SECT":" ","MAREA":" ","LANE":" ","ALLEY":" ","HOUSE_NO":"５２號之１","E_COORD97":166137.45000000001,"N_COORD97":2569793.3500000001,"ADDRESS":"四維街５２號之１","OBJECTID":493033},"geometry":{"x":166137.45000000112,"y":2569793.3500000015}},{"attributes":{"ID":493061,"DIS_CODE":0,"TOWNNAME":"學甲區","LI":"仁得里","LIN":"1鄰","STREET":"四維街","SECT":" ","MAREA":" ","LANE":" ","ALLEY":" ","HOUSE_NO":"５２號之２","E_COORD97":166138.42000000001,"N_COORD97":2569797.48,"ADDRESS":"四維街５２號之２","OBJECTID":493034},"geometry":{"x":166138.41999999993,"y":2569797.4800000004}},{"attributes":{"ID":493062,"DIS_CODE":0,"TOWNNAME":"學甲區","LI":"仁得里","LIN":"1鄰","STREET":"四維街","SECT":" ","MAREA":" ","LANE":" ","ALLEY":" ","HOUSE_NO":"５２號之３","E_COORD97":166139.01999999999,"N_COORD97":2569802.2999999998,"ADDRESS":"四維街５２號之３","OBJECTID":493035},"geometry":{"x":166139.01999999955,"y":2569802.3000000007}},{"attributes":{"ID":493063,"DIS_CODE":0,"TOWNNAME":"學甲區","LI":"仁得里","LIN":"1鄰","STREET":"四維街","SECT":" ","MAREA":" ","LANE":" ","ALLEY":" ","HOUSE_NO":"５２號之４","E_COORD97":166139.56,"N_COORD97":2569806.71,"ADDRESS":"四維街５２號之４","OBJECTID":493036},"geometry":{"x":166139.56000000052,"y":2569806.7100000009}},{"attributes":{"ID":493064,"DIS_CODE":0,"TOWNNAME":"學甲區","LI":"仁得里","LIN":"1鄰","STREET":"四維街","SECT":" ","MAREA":" ","LANE":" ","ALLEY":" ","HOUSE_NO":"５４號之２","E_COORD97":166123.32999999999,"N_COORD97":2569800.5099999998,"ADDRESS":"四維街５４號之２","OBJECTID":493037},"geometry":{"x":166123.33000000101,"y":2569800.5099999998}},{"attributes":{"ID":493065,"DIS_CODE":0,"TOWNNAME":"學甲區","LI":"仁得里","LIN":"1鄰","STREET":"四維街","SECT":" ","MAREA":" ","LANE":" ","ALLEY":" ","HOUSE_NO":"５４號之３","E_COORD97":166124.26000000001,"N_COORD97":2569804.8300000001,"ADDRESS":"四維街５４號之３","OBJECTID":493038},"geometry":{"x":166124.25999999978,"y":2569804.8300000001}},{"attributes":{"ID":493066,"DIS_CODE":0,"TOWNNAME":"學甲區","LI":"仁得里","LIN":"1鄰","STREET":"四維街","SECT":" ","MAREA":" ","LANE":" ","ALLEY":" ","HOUSE_NO":"５４號之４","E_COORD97":166124.94,"N_COORD97":2569808.9399999999,"ADDRESS":"四維街５４號之４","OBJECTID":493039},"geometry":{"x":166124.94000000041,"y":2569808.9400000013}},{"attributes":{"ID":493067,"DIS_CODE":0,"TOWNNAME":"學甲區","LI":"仁得里","LIN":"1鄰","STREET":"四維街","SECT":" ","MAREA":" ","LANE":" ","ALLEY":" ","HOUSE_NO":"６２號","E_COORD97":166106.66,"N_COORD97":2569795.4100000001,"ADDRESS":"四維街６２號","OBJECTID":493040},"geometry":{"x":166106.66000000015,"y":2569795.4100000039}},{"attributes":{"ID":493068,"DIS_CODE":0,"TOWNNAME":"學甲區","LI":"仁得里","LIN":"1鄰","STREET":"四維街","SECT":" ","MAREA":" ","LANE":" ","ALLEY":" ","HOUSE_NO":"６號","E_COORD97":166274.04999999999,"N_COORD97":2569770.3100000001,"ADDRESS":"四維街６號","OBJECTID":493041},"geometry":{"x":166274.05000000075,"y":2569770.3100000024}},{"attributes":{"ID":493069,"DIS_CODE":0,"TOWNNAME":"學甲區","LI":"仁得里","LIN":"1鄰","STREET":"四維街","SECT":" ","MAREA":" ","LANE":" ","ALLEY":" ","HOUSE_NO":"７號","E_COORD97":166270.67999999999,"N_COORD97":2569742.8300000001,"ADDRESS":"四維街７號","OBJECTID":493042},"geometry":{"x":166270.67999999877,"y":2569742.8300000019}},{"attributes":{"ID":493070,"DIS_CODE":0,"TOWNNAME":"歸仁區","LI":"南保里","LIN":"1鄰","STREET":"民權二街","SECT":" ","MAREA":" ","LANE":" ","ALLEY":" ","HOUSE_NO":"１６號","E_COORD97":176954.91,"N_COORD97":2541380.2400000002,"ADDRESS":"民權二街１６號","OBJECTID":493043},"geometry":{"x":176954.91000000108,"y":2541380.2400000002}},{"attributes":{"ID":493071,"DIS_CODE":0,"TOWNNAME":"歸仁區","LI":"後市里","LIN":"1鄰","STREET":"大順街","SECT":" ","MAREA":" ","LANE":" ","ALLEY":" ","HOUSE_NO":"１４９號","E_COORD97":177032.13,"N_COORD97":2540596.25,"ADDRESS":"大順街１４９號","OBJECTID":493044},"geometry":{"x":177032.12999999989,"y":2540596.2500000019}},{"attributes":{"ID":493072,"DIS_CODE":0,"TOWNNAME":"歸仁區","LI":"南興里","LIN":"1鄰","STREET":"文化十二街","SECT":" ","MAREA":" ","LANE":" ","ALLEY":" ","HOUSE_NO":"１８號","E_COORD97":176412.07000000001,"N_COORD97":2541243.2599999998,"ADDRESS":"文化十二街１８號","OBJECTID":493045},"geometry":{"x":176412.0700000003,"y":2541243.2600000016}},{"attributes":{"ID":493073,"DIS_CODE":0,"TOWNNAME":"歸仁區","LI":"辜厝里","LIN":"1鄰","STREET":"中正南路","SECT":"一段","MAREA":" ","LANE":" ","ALLEY":" ","HOUSE_NO":"８號","E_COORD97":177614.31,"N_COORD97":2540721.1200000001,"ADDRESS":"中正南路一段８號","OBJECTID":493046},"geometry":{"x":177614.31000000052,"y":2540721.120000001}},{"attributes":{"ID":493074,"DIS_CODE":0,"TOWNNAME":"歸仁區","LI":"南保里","LIN":"1鄰","STREET":"民權二街","SECT":" ","MAREA":" ","LANE":" ","ALLEY":" ","HOUSE_NO":"４２號","E_COORD97":176958.20999999999,"N_COORD97":2541434.25,"ADDRESS":"民權二街４２號","OBJECTID":493047},"geometry":{"x":176958.20999999996,"y":2541434.25}},{"attributes":{"ID":493075,"DIS_CODE":0,"TOWNNAME":"歸仁區","LI":"南保里","LIN":"1鄰","STREET":"民權二街","SECT":" ","MAREA":" ","LANE":" ","ALLEY":" ","HOUSE_NO":"５８號","E_COORD97":176960.41,"N_COORD97":2541463.25,"ADDRESS":"民權二街５８號","OBJECTID":493048},"geometry":{"x":176960.41000000015,"y":2541463.2500000019}},{"attributes":{"ID":493076,"DIS_CODE":0,"TOWNNAME":"歸仁區","LI":"南保里","LIN":"1鄰","STREET":"民權北路","SECT":" ","MAREA":" ","LANE":" ","ALLEY":" ","HOUSE_NO":"２３９號","E_COORD97":177010.54000000001,"N_COORD97":2541458.29,"ADDRESS":"民權北路２３９號","OBJECTID":493049},"geometry":{"x":177010.54000000004,"y":2541458.2900000028}},{"attributes":{"ID":493077,"DIS_CODE":0,"TOWNNAME":"歸仁區","LI":"後市里","LIN":"1鄰","STREET":"大順街","SECT":" ","MAREA":" ","LANE":" ","ALLEY":" ","HOUSE_NO":"１３７號","E_COORD97":177033.03,"N_COORD97":2540578.25,"ADDRESS":"大順街１３７號","OBJECTID":493050},"geometry":{"x":177033.03000000026,"y":2540578.2500000019}},{"attributes":{"ID":493078,"DIS_CODE":0,"TOWNNAME":"歸仁區","LI":"南保里","LIN":"1鄰","STREET":"民權北路","SECT":" ","MAREA":" ","LANE":" ","ALLEY":" ","HOUSE_NO":"２５３號","E_COORD97":177015.73999999999,"N_COORD97":2541472.29,"ADDRESS":"民權北路２５３號","OBJECTID":493051},"geometry":{"x":177015.74000000115,"y":2541472.290000001}},{"attributes":{"ID":493079,"DIS_CODE":0,"TOWNNAME":"歸仁區","LI":"看東里","LIN":"1鄰","STREET":"忠孝南路","SECT":" ","MAREA":" ","LANE":" ","ALLEY":" ","HOUSE_NO":"４０號","E_COORD97":178505.42999999999,"N_COORD97":2540528.0499999998,"ADDRESS":"忠孝南路４０號","OBJECTID":493052},"geometry":{"x":178505.43000000063,"y":2540528.0500000007}},{"attributes":{"ID":493080,"DIS_CODE":0,"TOWNNAME":"歸仁區","LI":"新厝里","LIN":"1鄰","STREET":"中山路","SECT":"一段","MAREA":" ","LANE":" ","ALLEY":" ","HOUSE_NO":"６１３號","E_COORD97":177728.89000000001,"N_COORD97":2540747.6800000002,"ADDRESS":"中山路一段６１３號","OBJECTID":493053},"geometry":{"x":177728.89000000153,"y":2540747.6800000034}},{"attributes":{"ID":493081,"DIS_CODE":0,"TOWNNAME":"歸仁區","LI":"看西里","LIN":"1鄰","STREET":"仁愛三街","SECT":" ","MAREA":" ","LANE":" ","ALLEY":" ","HOUSE_NO":"３號","E_COORD97":178313.57000000001,"N_COORD97":2540418.1499999999,"ADDRESS":"仁愛三街３號","OBJECTID":493054},"geometry":{"x":178313.57000000123,"y":2540418.1500000004}},{"attributes":{"ID":493082,"DIS_CODE":0,"TOWNNAME":"歸仁區","LI":"看西里","LIN":"1鄰","STREET":"仁愛三街","SECT":" ","MAREA":" ","LANE":" ","ALLEY":" ","HOUSE_NO":"２１號","E_COORD97":178349.54000000001,"N_COORD97":2540467.2200000002,"ADDRESS":"仁愛三街２１號","OBJECTID":493055},"geometry":{"x":178349.54000000004,"y":2540467.2200000044}},{"attributes":{"ID":493083,"DIS_CODE":0,"TOWNNAME":"歸仁區","LI":"媽廟里","LIN":"1鄰","STREET":"媽廟一街","SECT":" ","MAREA":" ","LANE":" ","ALLEY":" ","HOUSE_NO":"１９號","E_COORD97":177455.92999999999,"N_COORD97":2543527.7200000002,"ADDRESS":"媽廟一街１９號","OBJECTID":493056},"geometry":{"x":177455.93000000063,"y":2543527.7200000007}},{"attributes":{"ID":493084,"DIS_CODE":0,"TOWNNAME":"歸仁區","LI":"媽廟里","LIN":"1鄰","STREET":"媽廟一街","SECT":" ","MAREA":" ","LANE":" ","ALLEY":" ","HOUSE_NO":"２３號","E_COORD97":177444.73000000001,"N_COORD97":2543530.7200000002,"ADDRESS":"媽廟一街２３號","OBJECTID":493057},"geometry":{"x":177444.73000000138,"y":2543530.7200000007}},{"attributes":{"ID":493085,"DIS_CODE":0,"TOWNNAME":"歸仁區","LI":"歸仁里","LIN":"1鄰","STREET":"中正北路","SECT":"一段","MAREA":" ","LANE":" ","ALLEY":" ","HOUSE_NO":"１４８號","E_COORD97":177766.66,"N_COORD97":2541355.25,"ADDRESS":"中正北路一段１４８號","OBJECTID":493058},"geometry":{"x":177766.66000000108,"y":2541355.2500000019}},{"attributes":{"ID":493086,"DIS_CODE":0,"TOWNNAME":"歸仁區","LI":"看西里","LIN":"1鄰","STREET":"仁愛南街","SECT":" ","MAREA":" ","LANE":" ","ALLEY":" ","HOUSE_NO":"９３號","E_COORD97":178287.22,"N_COORD97":2540437.1499999999,"ADDRESS":"仁愛南街９３號","OBJECTID":493059},"geometry":{"x":178287.21999999974,"y":2540437.1500000022}},{"attributes":{"ID":493087,"DIS_CODE":0,"TOWNNAME":"歸仁區","LI":"歸仁里","LIN":"1鄰","STREET":"中正北路","SECT":"一段","MAREA":" ","LANE":" ","ALLEY":" ","HOUSE_NO":"１４６號","E_COORD97":177726.85999999999,"N_COORD97":2541190.25,"ADDRESS":"中正北路一段１４６號","OBJECTID":493060},"geometry":{"x":177726.86000000127,"y":2541190.25}},{"attributes":{"ID":493088,"DIS_CODE":0,"TOWNNAME":"歸仁區","LI":"新厝里","LIN":"1鄰","STREET":"中山路","SECT":"一段","MAREA":" ","LANE":" ","ALLEY":" ","HOUSE_NO":"６２３號","E_COORD97":177709.48999999999,"N_COORD97":2540750.6800000002,"ADDRESS":"中山路一段６２３號","OBJECTID":493061},"geometry":{"x":177709.49000000022,"y":2540750.6799999997}},{"attributes":{"ID":493089,"DIS_CODE":0,"TOWNNAME":"歸仁區","LI":"崙頂里","LIN":"1鄰","STREET":"成功路","SECT":"一段","MAREA":" ","LANE":" ","ALLEY":" ","HOUSE_NO":"３２８號","E_COORD97":178242.14999999999,"N_COORD97":2539951.6800000002,"ADDRESS":"成功路一段３２８號","OBJECTID":493062},"geometry":{"x":178242.1500000013,"y":2539951.6800000016}},{"attributes":{"ID":493090,"DIS_CODE":0,"TOWNNAME":"歸仁區","LI":"新厝里","LIN":"1鄰","STREET":"中山路","SECT":"一段","MAREA":" ","LANE":" ","ALLEY":" ","HOUSE_NO":"６３７號","E_COORD97":177664.29000000001,"N_COORD97":2540735.6800000002,"ADDRESS":"中山路一段６３７號","OBJECTID":493063},"geometry":{"x":177664.29000000097,"y":2540735.6800000016}},{"attributes":{"ID":493091,"DIS_CODE":0,"TOWNNAME":"歸仁區","LI":"歸仁里","LIN":"1鄰","STREET":"中正北路","SECT":"一段","MAREA":" ","LANE":" ","ALLEY":" ","HOUSE_NO":"１４２號","E_COORD97":177725.76000000001,"N_COORD97":2541181.25,"ADDRESS":"中正北路一段１４２號","OBJECTID":493064},"geometry":{"x":177725.75999999978,"y":2541181.2499999981}},{"attributes":{"ID":493092,"DIS_CODE":0,"TOWNNAME":"歸仁區","LI":"看東里","LIN":"1鄰","STREET":"忠孝南路","SECT":" ","MAREA":" ","LANE":" ","ALLEY":" ","HOUSE_NO":"３８號","E_COORD97":178505.53,"N_COORD97":2540531.0499999998,"ADDRESS":"忠孝南路３８號","OBJECTID":493065},"geometry":{"x":178505.53000000119,"y":2540531.0500000007}},{"attributes":{"ID":493093,"DIS_CODE":0,"TOWNNAME":"歸仁區","LI":"看東里","LIN":"1鄰","STREET":"忠孝南路","SECT":" ","MAREA":" ","LANE":" ","ALLEY":" ","HOUSE_NO":"１６號","E_COORD97":178497.42000000001,"N_COORD97":2540585.25,"ADDRESS":"忠孝南路１６號","OBJECTID":493066},"geometry":{"x":178497.42000000086,"y":2540585.2500000019}},{"attributes":{"ID":493094,"DIS_CODE":0,"TOWNNAME":"歸仁區","LI":"新厝里","LIN":"1鄰","STREET":"中山路","SECT":"一段","MAREA":" ","LANE":" ","ALLEY":" ","HOUSE_NO":"６０１號","E_COORD97":177749.39000000001,"N_COORD97":2540745.6800000002,"ADDRESS":"中山路一段６０１號","OBJECTID":493067},"geometry":{"x":177749.3900000006,"y":2540745.6800000016}},{"attributes":{"ID":493095,"DIS_CODE":0,"TOWNNAME":"歸仁區","LI":"看東里","LIN":"1鄰","STREET":"忠孝南路","SECT":" ","MAREA":" ","LANE":" ","ALLEY":" ","HOUSE_NO":"５０號","E_COORD97":178505.42999999999,"N_COORD97":2540511.0499999998,"ADDRESS":"忠孝南路５０號","OBJECTID":493068},"geometry":{"x":178505.43000000063,"y":2540511.0500000007}},{"attributes":{"ID":493096,"DIS_CODE":0,"TOWNNAME":"歸仁區","LI":"許厝里","LIN":"1鄰","STREET":"中山路","SECT":"一段","MAREA":" ","LANE":" ","ALLEY":" ","HOUSE_NO":"３６５號","E_COORD97":178344.44,"N_COORD97":2540671.0099999998,"ADDRESS":"中山路一段３６５號","OBJECTID":493069},"geometry":{"x":178344.44000000041,"y":2540671.0100000035}},{"attributes":{"ID":493097,"DIS_CODE":0,"TOWNNAME":"歸仁區","LI":"許厝里","LIN":"1鄰","STREET":"中山路","SECT":"一段","MAREA":" ","LANE":" ","ALLEY":" ","HOUSE_NO":"３２７號","E_COORD97":178442.84,"N_COORD97":2540657.0099999998,"ADDRESS":"中山路一段３２７號","OBJECTID":493070},"geometry":{"x":178442.83999999985,"y":2540657.0099999998}},{"attributes":{"ID":493098,"DIS_CODE":0,"TOWNNAME":"歸仁區","LI":"看西里","LIN":"1鄰","STREET":"仁愛南街","SECT":" ","MAREA":" ","LANE":" ","ALLEY":" ","HOUSE_NO":"１０１號","E_COORD97":178289.47,"N_COORD97":2540419.1499999999,"ADDRESS":"仁愛南街１０１號","OBJECTID":493071},"geometry":{"x":178289.4700000016,"y":2540419.1500000004}},{"attributes":{"ID":493099,"DIS_CODE":0,"TOWNNAME":"歸仁區","LI":"新厝里","LIN":"1鄰","STREET":"中山路","SECT":"一段","MAREA":" ","LANE":" ","ALLEY":" ","HOUSE_NO":"６３１號","E_COORD97":177697.19,"N_COORD97":2540752.6800000002,"ADDRESS":"中山路一段６３１號","OBJECTID":493072},"geometry":{"x":177697.19000000134,"y":2540752.6800000016}},{"attributes":{"ID":493100,"DIS_CODE":0,"TOWNNAME":"歸仁區","LI":"新厝里","LIN":"1鄰","STREET":"中山路","SECT":"一段","MAREA":" ","LANE":" ","ALLEY":" ","HOUSE_NO":"６０５號","E_COORD97":177742.29000000001,"N_COORD97":2540746.6800000002,"ADDRESS":"中山路一段６０５號","OBJECTID":493073},"geometry":{"x":177742.29000000097,"y":2540746.6799999997}},{"attributes":{"ID":493101,"DIS_CODE":0,"TOWNNAME":"歸仁區","LI":"看東里","LIN":"1鄰","STREET":"忠孝南路","SECT":" ","MAREA":" ","LANE":" ","ALLEY":" ","HOUSE_NO":"４６號","E_COORD97":178505.42999999999,"N_COORD97":2540520.0499999998,"ADDRESS":"忠孝南路４６號","OBJECTID":493074},"geometry":{"x":178505.43000000063,"y":2540520.0500000026}},{"attributes":{"ID":493102,"DIS_CODE":0,"TOWNNAME":"歸仁區","LI":"看西里","LIN":"1鄰","STREET":"仁愛南街","SECT":" ","MAREA":" ","LANE":" ","ALLEY":" ","HOUSE_NO":"９５號","E_COORD97":178288.22,"N_COORD97":2540433.1499999999,"ADDRESS":"仁愛南街９５號","OBJECTID":493075},"geometry":{"x":178288.22000000067,"y":2540433.1500000041}},{"attributes":{"ID":493103,"DIS_CODE":0,"TOWNNAME":"歸仁區","LI":"許厝里","LIN":"1鄰","STREET":"中山路","SECT":"一段","MAREA":" ","LANE":" ","ALLEY":" ","HOUSE_NO":"３２１號","E_COORD97":178459.23999999999,"N_COORD97":2540656.0099999998,"ADDRESS":"中山路一段３２１號","OBJECTID":493076},"geometry":{"x":178459.23999999929,"y":2540656.0099999998}},{"attributes":{"ID":493104,"DIS_CODE":0,"TOWNNAME":"歸仁區","LI":"看東里","LIN":"1鄰","STREET":"忠孝南路","SECT":" ","MAREA":" ","LANE":" ","ALLEY":" ","HOUSE_NO":"３４號","E_COORD97":178505.53,"N_COORD97":2540539.0499999998,"ADDRESS":"忠孝南路３４號","OBJECTID":493077},"geometry":{"x":178505.53000000119,"y":2540539.0500000007}},{"attributes":{"ID":493105,"DIS_CODE":0,"TOWNNAME":"新營區","LI":"民榮里","LIN":"1鄰","STREET":"復興路","SECT":" ","MAREA":" ","LANE":" ","ALLEY":" ","HOUSE_NO":"１３１之６號","E_COORD97":179336.14999999999,"N_COORD97":2578031.0699999998,"ADDRESS":"復興路１３１之６號","OBJECTID":493078},"geometry":{"x":179336.15000000037,"y":2578031.0700000022}},{"attributes":{"ID":493106,"DIS_CODE":0,"TOWNNAME":"新營區","LI":"延平里","LIN":"1鄰","STREET":"延平路","SECT":" ","MAREA":" ","LANE":" ","ALLEY":" ","HOUSE_NO":"５６號","E_COORD97":179774.12,"N_COORD97":2577775.3100000001,"ADDRESS":"延平路５６號","OBJECTID":493079},"geometry":{"x":179774.12000000104,"y":2577775.3100000024}},{"attributes":{"ID":493107,"DIS_CODE":0,"TOWNNAME":"新營區","LI":"埤寮里","LIN":"1鄰","STREET":"中正路","SECT":" ","MAREA":" ","LANE":" ","ALLEY":" ","HOUSE_NO":"５２５號","E_COORD97":180043.89999999999,"N_COORD97":2580701.04,"ADDRESS":"中正路５２５號","OBJECTID":493080},"geometry":{"x":180043.9000000013,"y":2580701.040000001}},{"attributes":{"ID":493108,"DIS_CODE":0,"TOWNNAME":"新營區","LI":"新東里","LIN":"1鄰","STREET":"開元路","SECT":" ","MAREA":" ","LANE":" ","ALLEY":" ","HOUSE_NO":"２２１號","E_COORD97":181713.98000000001,"N_COORD97":2579582.4700000002,"ADDRESS":"開元路２２１號","OBJECTID":493081},"geometry":{"x":181713.98000000045,"y":2579582.4700000007}},{"attributes":{"ID":493109,"DIS_CODE":0,"TOWNNAME":"新營區","LI":"新東里","LIN":"1鄰","STREET":"開元路","SECT":" ","MAREA":" ","LANE":" ","ALLEY":" ","HOUSE_NO":"２１５號","E_COORD97":181693.48999999999,"N_COORD97":2579575.9199999999,"ADDRESS":"開元路２１５號","OBJECTID":493082},"geometry":{"x":181693.49000000022,"y":2579575.9199999999}},{"attributes":{"ID":493110,"DIS_CODE":0,"TOWNNAME":"新營區","LI":"新東里","LIN":"1鄰","STREET":"開元路","SECT":" ","MAREA":" ","LANE":" ","ALLEY":" ","HOUSE_NO":"１５１號","E_COORD97":181316.04999999999,"N_COORD97":2579142.4399999999,"ADDRESS":"開元路１５１號","OBJECTID":493083},"geometry":{"x":181316.04999999981,"y":2579142.4400000013}},{"attributes":{"ID":493111,"DIS_CODE":0,"TOWNNAME":"新營區","LI":"中營里","LIN":"1鄰","STREET":"文昌街","SECT":" ","MAREA":" ","LANE":" ","ALLEY":" ","HOUSE_NO":"３３號之５","E_COORD97":180239.17999999999,"N_COORD97":2578282.6000000001,"ADDRESS":"文昌街３３號之５","OBJECTID":493084},"geometry":{"x":180239.18000000156,"y":2578282.5999999996}},{"attributes":{"ID":493112,"DIS_CODE":0,"TOWNNAME":"新營區","LI":"新北里","LIN":"1鄰","STREET":"三興街","SECT":" ","MAREA":" ","LANE":" ","ALLEY":" ","HOUSE_NO":"５３號之５","E_COORD97":179436.10999999999,"N_COORD97":2578919.8700000001,"ADDRESS":"三興街５３號之５","OBJECTID":493085},"geometry":{"x":179436.11000000034,"y":2578919.8699999992}},{"attributes":{"ID":493113,"DIS_CODE":0,"TOWNNAME":"新營區","LI":"忠政里","LIN":"1鄰","STREET":"中正路","SECT":" ","MAREA":" ","LANE":" ","ALLEY":" ","HOUSE_NO":"２７號之７","E_COORD97":180107.70000000001,"N_COORD97":2578993.1000000001,"ADDRESS":"中正路２７號之７","OBJECTID":493086},"geometry":{"x":180107.70000000112,"y":2578993.1000000015}},{"attributes":{"ID":493114,"DIS_CODE":0,"TOWNNAME":"新營區","LI":"護鎮里","LIN":"1鄰","STREET":"建國路","SECT":" ","MAREA":" ","LANE":" ","ALLEY":" ","HOUSE_NO":"１８６號","E_COORD97":179497.35000000001,"N_COORD97":2581044.73,"ADDRESS":"建國路１８６號","OBJECTID":493087},"geometry":{"x":179497.35000000056,"y":2581044.7300000004}},{"attributes":{"ID":493115,"DIS_CODE":0,"TOWNNAME":"新營區","LI":"新南里","LIN":"1鄰","STREET":"民治路","SECT":" ","MAREA":" ","LANE":" ","ALLEY":" ","HOUSE_NO":"２１０號","E_COORD97":178879.17999999999,"N_COORD97":2578592.46,"ADDRESS":"民治路２１０號","OBJECTID":493088},"geometry":{"x":178879.1799999997,"y":2578592.4600000009}},{"attributes":{"ID":493116,"DIS_CODE":0,"TOWNNAME":"新營區","LI":"護鎮里","LIN":"1鄰","STREET":"建國路","SECT":" ","MAREA":" ","LANE":" ","ALLEY":" ","HOUSE_NO":"１６６號","E_COORD97":179581.17999999999,"N_COORD97":2581039.8999999999,"ADDRESS":"建國路１６６號","OBJECTID":493089},"geometry":{"x":179581.1799999997,"y":2581039.9000000004}},{"attributes":{"ID":493117,"DIS_CODE":0,"TOWNNAME":"新營區","LI":"新東里","LIN":"1鄰","STREET":"開元路","SECT":" ","MAREA":" ","LANE":" ","ALLEY":" ","HOUSE_NO":"１８１號","E_COORD97":181454.29000000001,"N_COORD97":2579397.6099999999,"ADDRESS":"開元路１８１號","OBJECTID":493090},"geometry":{"x":181454.2900000019,"y":2579397.6099999994}},{"attributes":{"ID":493118,"DIS_CODE":0,"TOWNNAME":"新營區","LI":"民權里","LIN":"1鄰","STREET":"中山路","SECT":" ","MAREA":" ","LANE":" ","ALLEY":" ","HOUSE_NO":"２０４號","E_COORD97":179988.62,"N_COORD97":2578083.2799999998,"ADDRESS":"中山路２０４號","OBJECTID":493091},"geometry":{"x":179988.62000000011,"y":2578083.2799999993}},{"attributes":{"ID":493119,"DIS_CODE":0,"TOWNNAME":"新營區","LI":"護鎮里","LIN":"1鄰","STREET":"建國路","SECT":" ","MAREA":" ","LANE":" ","ALLEY":" ","HOUSE_NO":"２２２號","E_COORD97":179434,"N_COORD97":2581042.8199999998,"ADDRESS":"建國路２２２號","OBJECTID":493092},"geometry":{"x":179434.00000000093,"y":2581042.8200000022}},{"attributes":{"ID":493120,"DIS_CODE":0,"TOWNNAME":"新營區","LI":"埤寮里","LIN":"1鄰","STREET":"中正路","SECT":" ","MAREA":" ","LANE":" ","ALLEY":" ","HOUSE_NO":"５９３號","E_COORD97":180100.79000000001,"N_COORD97":2581054.0499999998,"ADDRESS":"中正路５９３號","OBJECTID":493093},"geometry":{"x":180100.79000000004,"y":2581054.0500000007}},{"attributes":{"ID":493121,"DIS_CODE":0,"TOWNNAME":"新營區","LI":"新北里","LIN":"1鄰","STREET":"周武街","SECT":" ","MAREA":" ","LANE":" ","ALLEY":" ","HOUSE_NO":"１８號","E_COORD97":179412.04999999999,"N_COORD97":2578860.1200000001,"ADDRESS":"周武街１８號","OBJECTID":493094},"geometry":{"x":179412.04999999981,"y":2578860.120000001}},{"attributes":{"ID":493122,"DIS_CODE":0,"TOWNNAME":"新營區","LI":"埤寮里","LIN":"1鄰","STREET":"中正路","SECT":" ","MAREA":" ","LANE":" ","ALLEY":" ","HOUSE_NO":"５８７號","E_COORD97":180096.57999999999,"N_COORD97":2581028.6000000001,"ADDRESS":"中正路５８７號","OBJECTID":493095},"geometry":{"x":180096.58000000101,"y":2581028.5999999996}},{"attributes":{"ID":493123,"DIS_CODE":0,"TOWNNAME":"新營區","LI":"護鎮里","LIN":"1鄰","STREET":"建國路","SECT":" ","MAREA":" ","LANE":" ","ALLEY":" ","HOUSE_NO":"２１２號","E_COORD97":179451.38,"N_COORD97":2581041.6299999999,"ADDRESS":"建國路２１２號","OBJECTID":493096},"geometry":{"x":179451.38000000175,"y":2581041.6299999971}},{"attributes":{"ID":493124,"DIS_CODE":0,"TOWNNAME":"新營區","LI":"延平里","LIN":"1鄰","STREET":"延平路","SECT":" ","MAREA":" ","LANE":" ","ALLEY":" ","HOUSE_NO":"４６之１４號","E_COORD97":179733.06,"N_COORD97":2577806.5899999999,"ADDRESS":"延平路４６之１４號","OBJECTID":493097},"geometry":{"x":179733.06000000145,"y":2577806.5900000017}},{"attributes":{"ID":493125,"DIS_CODE":0,"TOWNNAME":"北區","LI":"小康里","LIN":"1鄰","STREET":"大武街","SECT":" ","MAREA":" ","LANE":" ","ALLEY":" ","HOUSE_NO":"３５４號","E_COORD97":169832.64000000001,"N_COORD97":2546362.5899999999,"ADDRESS":"大武街３５４號","OBJECTID":493098},"geometry":{"x":169832.64000000153,"y":2546362.589999998}},{"attributes":{"ID":493126,"DIS_CODE":0,"TOWNNAME":"北區","LI":"小康里","LIN":"1鄰","STREET":"大武街","SECT":" ","MAREA":" ","LANE":" ","ALLEY":" ","HOUSE_NO":"３５６號","E_COORD97":169832.57000000001,"N_COORD97":2546367.4399999999,"ADDRESS":"大武街３５６號","OBJECTID":493099},"geometry":{"x":169832.57000000123,"y":2546367.4400000013}},{"attributes":{"ID":493127,"DIS_CODE":0,"TOWNNAME":"北區","LI":"小康里","LIN":"1鄰","STREET":"大武街","SECT":" ","MAREA":" ","LANE":" ","ALLEY":" ","HOUSE_NO":"３５８號","E_COORD97":169832.51000000001,"N_COORD97":2546371.3700000001,"ADDRESS":"大武街３５８號","OBJECTID":493100},"geometry":{"x":169832.51000000071,"y":2546371.370000001}},{"attributes":{"ID":493128,"DIS_CODE":0,"TOWNNAME":"北區","LI":"小康里","LIN":"1鄰","STREET":"大武街","SECT":" ","MAREA":" ","LANE":" ","ALLEY":" ","HOUSE_NO":"３６０號","E_COORD97":169832.31,"N_COORD97":2546376.2200000002,"ADDRESS":"大武街３６０號","OBJECTID":493101},"geometry":{"x":169832.30999999959,"y":2546376.2199999988}},{"attributes":{"ID":493129,"DIS_CODE":0,"TOWNNAME":"北區","LI":"小康里","LIN":"1鄰","STREET":"大武街","SECT":" ","MAREA":" ","LANE":" ","ALLEY":" ","HOUSE_NO":"３６２號","E_COORD97":169832.17000000001,"N_COORD97":2546380.4100000001,"ADDRESS":"大武街３６２號","OBJECTID":493102},"geometry":{"x":169832.16999999993,"y":2546380.4100000001}},{"attributes":{"ID":493130,"DIS_CODE":0,"TOWNNAME":"北區","LI":"小康里","LIN":"1鄰","STREET":"大武街","SECT":" ","MAREA":" ","LANE":" ","ALLEY":" ","HOUSE_NO":"３６４號","E_COORD97":169832.04000000001,"N_COORD97":2546383.3399999999,"ADDRESS":"大武街３６４號","OBJECTID":493103},"geometry":{"x":169832.0400000019,"y":2546383.3399999999}},{"attributes":{"ID":493131,"DIS_CODE":0,"TOWNNAME":"北區","LI":"小康里","LIN":"1鄰","STREET":"大武街","SECT":" ","MAREA":" ","LANE":" ","ALLEY":" ","HOUSE_NO":"３６６號","E_COORD97":169831.97,"N_COORD97":2546388.0600000001,"ADDRESS":"大武街３６６號","OBJECTID":493104},"geometry":{"x":169831.96999999974,"y":2546388.0600000024}},{"attributes":{"ID":493132,"DIS_CODE":0,"TOWNNAME":"北區","LI":"小康里","LIN":"1鄰","STREET":"大武街","SECT":" ","MAREA":" ","LANE":" ","ALLEY":" ","HOUSE_NO":"３７０號","E_COORD97":169831.70999999999,"N_COORD97":2546395.8500000001,"ADDRESS":"大武街３７０號","OBJECTID":493105},"geometry":{"x":169831.70999999996,"y":2546395.8500000015}},{"attributes":{"ID":493133,"DIS_CODE":0,"TOWNNAME":"北區","LI":"小康里","LIN":"1鄰","STREET":"大武街","SECT":" ","MAREA":" ","LANE":" ","ALLEY":" ","HOUSE_NO":"３７２號","E_COORD97":169831.84,"N_COORD97":2546399.4399999999,"ADDRESS":"大武街３７２號","OBJECTID":493106},"geometry":{"x":169831.84000000078,"y":2546399.4399999995}},{"attributes":{"ID":493134,"DIS_CODE":0,"TOWNNAME":"北區","LI":"小康里","LIN":"1鄰","STREET":"大武街","SECT":" ","MAREA":" ","LANE":" ","ALLEY":" ","HOUSE_NO":"３７４號","E_COORD97":169831.64000000001,"N_COORD97":2546404.5699999998,"ADDRESS":"大武街３７４號","OBJECTID":493107},"geometry":{"x":169831.6400000006,"y":2546404.5700000022}},{"attributes":{"ID":493135,"DIS_CODE":0,"TOWNNAME":"北區","LI":"小康里","LIN":"1鄰","STREET":"大武街","SECT":" ","MAREA":" ","LANE":" ","ALLEY":" ","HOUSE_NO":"３７６號","E_COORD97":169831.57999999999,"N_COORD97":2546408.6899999999,"ADDRESS":"大武街３７６號","OBJECTID":493108},"geometry":{"x":169831.58000000007,"y":2546408.6899999995}},{"attributes":{"ID":493136,"DIS_CODE":0,"TOWNNAME":"北區","LI":"小康里","LIN":"1鄰","STREET":"大武街","SECT":" ","MAREA":" ","LANE":" ","ALLEY":" ","HOUSE_NO":"３７８號","E_COORD97":169831.51000000001,"N_COORD97":2546413.1499999999,"ADDRESS":"大武街３７８號","OBJECTID":493109},"geometry":{"x":169831.50999999978,"y":2546413.1500000004}},{"attributes":{"ID":493137,"DIS_CODE":0,"TOWNNAME":"北區","LI":"小康里","LIN":"1鄰","STREET":"大武街","SECT":" ","MAREA":" ","LANE":" ","ALLEY":" ","HOUSE_NO":"３８０號","E_COORD97":169831.44,"N_COORD97":2546417.0699999998,"ADDRESS":"大武街３８０號","OBJECTID":493110},"geometry":{"x":169831.44000000227,"y":2546417.0700000003}},{"attributes":{"ID":493138,"DIS_CODE":0,"TOWNNAME":"北區","LI":"小康里","LIN":"1鄰","STREET":"大武街","SECT":" ","MAREA":" ","LANE":" ","ALLEY":" ","HOUSE_NO":"３８０號之１","E_COORD97":169830.98000000001,"N_COORD97":2546421.3399999999,"ADDRESS":"大武街３８０號之１","OBJECTID":493111},"geometry":{"x":169830.98000000045,"y":2546421.3399999999}},{"attributes":{"ID":493139,"DIS_CODE":0,"TOWNNAME":"北區","LI":"小康里","LIN":"1鄰","STREET":"大武街","SECT":" ","MAREA":" ","LANE":" ","ALLEY":" ","HOUSE_NO":"３８２號","E_COORD97":169831.31,"N_COORD97":2546425.7999999998,"ADDRESS":"大武街３８２號","OBJECTID":493112},"geometry":{"x":169831.31000000145,"y":2546425.8000000007}},{"attributes":{"ID":493140,"DIS_CODE":0,"TOWNNAME":"北區","LI":"小康里","LIN":"1鄰","STREET":"大武街","SECT":" ","MAREA":" ","LANE":" ","ALLEY":" ","HOUSE_NO":"３８４號","E_COORD97":169832.44,"N_COORD97":2546431.3199999998,"ADDRESS":"大武街３８４號","OBJECTID":493113},"geometry":{"x":169832.44000000041,"y":2546431.3200000003}},{"attributes":{"ID":493141,"DIS_CODE":0,"TOWNNAME":"北區","LI":"小康里","LIN":"1鄰","STREET":"大武街","SECT":" ","MAREA":" ","LANE":" ","ALLEY":" ","HOUSE_NO":"３８６號","E_COORD97":169832.84,"N_COORD97":2546436.3799999999,"ADDRESS":"大武街３８６號","OBJECTID":493114},"geometry":{"x":169832.83999999985,"y":2546436.379999999}},{"attributes":{"ID":493142,"DIS_CODE":0,"TOWNNAME":"北區","LI":"小康里","LIN":"1鄰","STREET":"大武街","SECT":" ","MAREA":" ","LANE":" ","ALLEY":" ","HOUSE_NO":"３８８號","E_COORD97":169835.44,"N_COORD97":2546442.5,"ADDRESS":"大武街３８８號","OBJECTID":493115},"geometry":{"x":169835.44000000134,"y":2546442.5000000019}},{"attributes":{"ID":493143,"DIS_CODE":0,"TOWNNAME":"北區","LI":"小康里","LIN":"1鄰","STREET":"大武街","SECT":" ","MAREA":" ","LANE":" ","ALLEY":" ","HOUSE_NO":"３９０號","E_COORD97":169849.57000000001,"N_COORD97":2546456.0600000001,"ADDRESS":"大武街３９０號","OBJECTID":493116},"geometry":{"x":169849.57000000123,"y":2546456.0600000024}},{"attributes":{"ID":493144,"DIS_CODE":0,"TOWNNAME":"北區","LI":"小康里","LIN":"1鄰","STREET":"大武街","SECT":" ","MAREA":" ","LANE":" ","ALLEY":" ","HOUSE_NO":"３９２號","E_COORD97":169855.95999999999,"N_COORD97":2546459.5299999998,"ADDRESS":"大武街３９２號","OBJECTID":493117},"geometry":{"x":169855.95999999996,"y":2546459.5299999993}},{"attributes":{"ID":493145,"DIS_CODE":0,"TOWNNAME":"北區","LI":"小康里","LIN":"1鄰","STREET":"大武街","SECT":" ","MAREA":" ","LANE":" ","ALLEY":" ","HOUSE_NO":"３９４號","E_COORD97":169860.48000000001,"N_COORD97":2546459.46,"ADDRESS":"大武街３９４號","OBJECTID":493118},"geometry":{"x":169860.48000000138,"y":2546459.4600000009}},{"attributes":{"ID":493146,"DIS_CODE":0,"TOWNNAME":"北區","LI":"小康里","LIN":"1鄰","STREET":"大武街","SECT":" ","MAREA":" ","LANE":" ","ALLEY":" ","HOUSE_NO":"３９８號","E_COORD97":169871.45999999999,"N_COORD97":2546460.5800000001,"ADDRESS":"大武街３９８號","OBJECTID":493119},"geometry":{"x":169871.46000000183,"y":2546460.5800000001}},{"attributes":{"ID":493147,"DIS_CODE":0,"TOWNNAME":"北區","LI":"小康里","LIN":"1鄰","STREET":"大武街","SECT":" ","MAREA":" ","LANE":" ","ALLEY":" ","HOUSE_NO":"４００號","E_COORD97":169876.19,"N_COORD97":2546460.3100000001,"ADDRESS":"大武街４００號","OBJECTID":493120},"geometry":{"x":169876.19000000134,"y":2546460.3100000042}},{"attributes":{"ID":493148,"DIS_CODE":0,"TOWNNAME":"北區","LI":"小康里","LIN":"1鄰","STREET":"大武街","SECT":" ","MAREA":" ","LANE":" ","ALLEY":" ","HOUSE_NO":"４０２號","E_COORD97":169881.17999999999,"N_COORD97":2546460.6499999999,"ADDRESS":"大武街４０２號","OBJECTID":493121},"geometry":{"x":169881.1799999997,"y":2546460.6500000004}},{"attributes":{"ID":493149,"DIS_CODE":0,"TOWNNAME":"北區","LI":"小康里","LIN":"1鄰","STREET":"大武街","SECT":" ","MAREA":" ","LANE":" ","ALLEY":" ","HOUSE_NO":"４０６號","E_COORD97":169890.10000000001,"N_COORD97":2546460.4500000002,"ADDRESS":"大武街４０６號","OBJECTID":493122},"geometry":{"x":169890.09999999963,"y":2546460.4499999993}},{"attributes":{"ID":493150,"DIS_CODE":0,"TOWNNAME":"北區","LI":"小康里","LIN":"1鄰","STREET":"大武街","SECT":" ","MAREA":" ","LANE":" ","ALLEY":" ","HOUSE_NO":"４０８號","E_COORD97":169894.63,"N_COORD97":2546460.5099999998,"ADDRESS":"大武街４０８號","OBJECTID":493123},"geometry":{"x":169894.63000000082,"y":2546460.5099999998}},{"attributes":{"ID":493151,"DIS_CODE":0,"TOWNNAME":"北區","LI":"小康里","LIN":"1鄰","STREET":"大武街","SECT":" ","MAREA":" ","LANE":" ","ALLEY":" ","HOUSE_NO":"４１０號","E_COORD97":169899.01999999999,"N_COORD97":2546460.3799999999,"ADDRESS":"大武街４１０號","OBJECTID":493124},"geometry":{"x":169899.01999999955,"y":2546460.379999999}},{"attributes":{"ID":493152,"DIS_CODE":0,"TOWNNAME":"北區","LI":"小康里","LIN":"1鄰","STREET":"大武街","SECT":" ","MAREA":" ","LANE":" ","ALLEY":" ","HOUSE_NO":"４１２號","E_COORD97":169903.95000000001,"N_COORD97":2546460.4500000002,"ADDRESS":"大武街４１２號","OBJECTID":493125},"geometry":{"x":169903.95000000205,"y":2546460.4499999993}},{"attributes":{"ID":493153,"DIS_CODE":0,"TOWNNAME":"北區","LI":"小康里","LIN":"1鄰","STREET":"大武街","SECT":" ","MAREA":" ","LANE":" ","ALLEY":" ","HOUSE_NO":"４１４號","E_COORD97":169908.14000000001,"N_COORD97":2546459.1200000001,"ADDRESS":"大武街４１４號","OBJECTID":493126},"geometry":{"x":169908.13999999966,"y":2546459.1200000029}},{"attributes":{"ID":493154,"DIS_CODE":0,"TOWNNAME":"北區","LI":"小康里","LIN":"1鄰","STREET":"大武街","SECT":" ","MAREA":" ","LANE":" ","ALLEY":" ","HOUSE_NO":"４１６號","E_COORD97":169912.54000000001,"N_COORD97":2546459.25,"ADDRESS":"大武街４１６號","OBJECTID":493127},"geometry":{"x":169912.54000000004,"y":2546459.25}},{"attributes":{"ID":493155,"DIS_CODE":0,"TOWNNAME":"北區","LI":"仁愛里","LIN":"1鄰","STREET":"勝利路","SECT":" ","MAREA":" ","LANE":" ","ALLEY":" ","HOUSE_NO":"１８０號","E_COORD97":169929.257644,"N_COORD97":2544913.5423900001,"ADDRESS":"勝利路１８０號","OBJECTID":493128},"geometry":{"x":169929.2576439986,"y":2544913.542394001}},{"attributes":{"ID":493156,"DIS_CODE":0,"TOWNNAME":"北區","LI":"仁愛里","LIN":"1鄰","STREET":"勝利路","SECT":" ","MAREA":" ","LANE":" ","ALLEY":" ","HOUSE_NO":"１８２號","E_COORD97":169930.10488200001,"N_COORD97":2544916.92906,"ADDRESS":"勝利路１８２號","OBJECTID":493129},"geometry":{"x":169930.10488200188,"y":2544916.9290590025}},{"attributes":{"ID":493157,"DIS_CODE":0,"TOWNNAME":"北區","LI":"五福里","LIN":"1鄰","STREET":"長北街","SECT":" ","MAREA":" ","LANE":" ","ALLEY":" ","HOUSE_NO":"９１號","E_COORD97":168430.92999999999,"N_COORD97":2544705.0499999998,"ADDRESS":"長北街９１號","OBJECTID":493130},"geometry":{"x":168430.93000000063,"y":2544705.0500000007}},{"attributes":{"ID":493158,"DIS_CODE":0,"TOWNNAME":"北區","LI":"五福里","LIN":"1鄰","STREET":"長北街","SECT":" ","MAREA":" ","LANE":" ","ALLEY":" ","HOUSE_NO":"９９號","E_COORD97":168436.38,"N_COORD97":2544725.4500000002,"ADDRESS":"長北街９９號","OBJECTID":493131},"geometry":{"x":168436.38000000082,"y":2544725.4499999974}},{"attributes":{"ID":493159,"DIS_CODE":0,"TOWNNAME":"安平區","LI":"國平里","LIN":"1鄰","STREET":"華平路","SECT":" ","MAREA":" ","LANE":" ","ALLEY":" ","HOUSE_NO":"２１４號","E_COORD97":165417.35000000001,"N_COORD97":2543393.4100000001,"ADDRESS":"華平路２１４號","OBJECTID":493132},"geometry":{"x":165417.35000000056,"y":2543393.4100000001}},{"attributes":{"ID":493160,"DIS_CODE":0,"TOWNNAME":"安平區","LI":"華平里","LIN":"1鄰","STREET":"慶平路","SECT":" ","MAREA":" ","LANE":" ","ALLEY":" ","HOUSE_NO":"５１１號","E_COORD97":165162.19,"N_COORD97":2544200.6600000001,"ADDRESS":"慶平路５１１號","OBJECTID":493133},"geometry":{"x":165162.19000000041,"y":2544200.660000002}},{"attributes":{"ID":493161,"DIS_CODE":0,"TOWNNAME":"安平區","LI":"金城里","LIN":"1鄰","STREET":"國勝路","SECT":" ","MAREA":" ","LANE":" ","ALLEY":" ","HOUSE_NO":"１１號","E_COORD97":164004.85999999999,"N_COORD97":2544469.0600000001,"ADDRESS":"國勝路１１號","OBJECTID":493134},"geometry":{"x":164004.86000000034,"y":2544469.0600000024}},{"attributes":{"ID":493162,"DIS_CODE":0,"TOWNNAME":"安平區","LI":"金城里","LIN":"1鄰","STREET":"國勝路","SECT":" ","MAREA":" ","LANE":" ","ALLEY":" ","HOUSE_NO":"１３號","E_COORD97":164004.47,"N_COORD97":2544472.7799999998,"ADDRESS":"國勝路１３號","OBJECTID":493135},"geometry":{"x":164004.47000000067,"y":2544472.7800000031}},{"attributes":{"ID":493163,"DIS_CODE":0,"TOWNNAME":"安平區","LI":"金城里","LIN":"1鄰","STREET":"國勝路","SECT":" ","MAREA":" ","LANE":" ","ALLEY":" ","HOUSE_NO":"１５號","E_COORD97":164003.95999999999,"N_COORD97":2544485.9199999999,"ADDRESS":"國勝路１５號","OBJECTID":493136},"geometry":{"x":164003.95999999996,"y":2544485.9200000037}},{"attributes":{"ID":493164,"DIS_CODE":0,"TOWNNAME":"安平區","LI":"金城里","LIN":"1鄰","STREET":"國勝路","SECT":" ","MAREA":" ","LANE":" ","ALLEY":" ","HOUSE_NO":"１５號之１","E_COORD97":164004.47,"N_COORD97":2544491.2999999998,"ADDRESS":"國勝路１５號之１","OBJECTID":493137},"geometry":{"x":164004.47000000067,"y":2544491.3000000026}},{"attributes":{"ID":493165,"DIS_CODE":0,"TOWNNAME":"安平區","LI":"金城里","LIN":"1鄰","STREET":"國勝路","SECT":" ","MAREA":" ","LANE":" ","ALLEY":" ","HOUSE_NO":"１５號之２","E_COORD97":164004.73000000001,"N_COORD97":2544495.9199999999,"ADDRESS":"國勝路１５號之２","OBJECTID":493138},"geometry":{"x":164004.73000000231,"y":2544495.9200000037}},{"attributes":{"ID":493166,"DIS_CODE":0,"TOWNNAME":"安平區","LI":"金城里","LIN":"1鄰","STREET":"國勝路","SECT":" ","MAREA":" ","LANE":" ","ALLEY":" ","HOUSE_NO":"１５號之３","E_COORD97":164004.73000000001,"N_COORD97":2544500.5299999998,"ADDRESS":"國勝路１５號之３","OBJECTID":493139},"geometry":{"x":164004.73000000231,"y":2544500.5299999993}},{"attributes":{"ID":493167,"DIS_CODE":0,"TOWNNAME":"安平區","LI":"金城里","LIN":"1鄰","STREET":"國勝路","SECT":" ","MAREA":" ","LANE":" ","ALLEY":" ","HOUSE_NO":"１７號之１","E_COORD97":164011.01999999999,"N_COORD97":2544513.4199999999,"ADDRESS":"國勝路１７號之１","OBJECTID":493140},"geometry":{"x":164011.02000000048,"y":2544513.4200000018}},{"attributes":{"ID":493168,"DIS_CODE":0,"TOWNNAME":"安平區","LI":"金城里","LIN":"1鄰","STREET":"國勝路","SECT":" ","MAREA":" ","LANE":" ","ALLEY":" ","HOUSE_NO":"１７號之３","E_COORD97":164010.25,"N_COORD97":2544521.2400000002,"ADDRESS":"國勝路１７號之３","OBJECTID":493141},"geometry":{"x":164010.25,"y":2544521.2400000039}},{"attributes":{"ID":493169,"DIS_CODE":0,"TOWNNAME":"安平區","LI":"金城里","LIN":"1鄰","STREET":"國勝路","SECT":" ","MAREA":" ","LANE":" ","ALLEY":" ","HOUSE_NO":"１９號","E_COORD97":163992.01999999999,"N_COORD97":2544512.2599999998,"ADDRESS":"國勝路１９號","OBJECTID":493142},"geometry":{"x":163992.02000000048,"y":2544512.2599999998}},{"attributes":{"ID":493170,"DIS_CODE":0,"TOWNNAME":"安平區","LI":"金城里","LIN":"1鄰","STREET":"國勝路","SECT":" ","MAREA":" ","LANE":" ","ALLEY":" ","HOUSE_NO":"９號","E_COORD97":164004.20999999999,"N_COORD97":2544465.0899999999,"ADDRESS":"國勝路９號","OBJECTID":493143},"geometry":{"x":164004.20999999996,"y":2544465.0900000017}},{"attributes":{"ID":493171,"DIS_CODE":0,"TOWNNAME":"安平區","LI":"金城里","LIN":"1鄰","STREET":"國勝路","SECT":" ","MAREA":" ","LANE":" ","ALLEY":" ","HOUSE_NO":"９號之１","E_COORD97":164007.54999999999,"N_COORD97":2544458.29,"ADDRESS":"國勝路９號之１","OBJECTID":493144},"geometry":{"x":164007.55000000075,"y":2544458.2899999991}},{"attributes":{"ID":493172,"DIS_CODE":0,"TOWNNAME":"安平區","LI":"金城里","LIN":"1鄰","STREET":"國勝路","SECT":" ","MAREA":" ","LANE":" ","ALLEY":" ","HOUSE_NO":"９號之２","E_COORD97":164009.78,"N_COORD97":2544454.5600000001,"ADDRESS":"國勝路９號之２","OBJECTID":493145},"geometry":{"x":164009.78000000119,"y":2544454.5600000005}},{"attributes":{"ID":493173,"DIS_CODE":0,"TOWNNAME":"安平區","LI":"金城里","LIN":"1鄰","STREET":"國勝路","SECT":" ","MAREA":" ","LANE":" ","ALLEY":" ","HOUSE_NO":"５號","E_COORD97":164025,"N_COORD97":2544445.2799999998,"ADDRESS":"國勝路５號","OBJECTID":493146},"geometry":{"x":164025.00000000093,"y":2544445.2799999975}},{"attributes":{"ID":493174,"DIS_CODE":0,"TOWNNAME":"安平區","LI":"金城里","LIN":"1鄰","STREET":"運河路","SECT":" ","MAREA":" ","LANE":" ","ALLEY":" ","HOUSE_NO":"３１號","E_COORD97":164023.72,"N_COORD97":2544408.7400000002,"ADDRESS":"運河路３１號","OBJECTID":493147},"geometry":{"x":164023.71999999974,"y":2544408.7400000002}},{"attributes":{"ID":493175,"DIS_CODE":0,"TOWNNAME":"安平區","LI":"金城里","LIN":"1鄰","STREET":"運河路","SECT":" ","MAREA":" ","LANE":" ","ALLEY":" ","HOUSE_NO":"３３號","E_COORD97":164008.07999999999,"N_COORD97":2544411.8799999999,"ADDRESS":"運河路３３號","OBJECTID":493148},"geometry":{"x":164008.08000000007,"y":2544411.8800000008}},{"attributes":{"ID":493176,"DIS_CODE":0,"TOWNNAME":"安平區","LI":"金城里","LIN":"1鄰","STREET":"運河路","SECT":" ","MAREA":" ","LANE":" ","ALLEY":" ","HOUSE_NO":"３５號","E_COORD97":164008.59,"N_COORD97":2544401.2400000002,"ADDRESS":"運河路３５號","OBJECTID":493149},"geometry":{"x":164008.59000000171,"y":2544401.2400000002}},{"attributes":{"ID":493177,"DIS_CODE":0,"TOWNNAME":"安平區","LI":"平通里","LIN":"1鄰","STREET":"國平路","SECT":" ","MAREA":" ","LANE":" ","ALLEY":" ","HOUSE_NO":"５９９號地下一層","E_COORD97":165057.29000000001,"N_COORD97":2544138.6800000002,"ADDRESS":"國平路５９９號地下一層","OBJECTID":493150},"geometry":{"x":165057.29000000097,"y":2544138.6800000016}},{"attributes":{"ID":493178,"DIS_CODE":0,"TOWNNAME":"安平區","LI":"億載里","LIN":"1鄰","STREET":"平豐路","SECT":" ","MAREA":" ","LANE":" ","ALLEY":" ","HOUSE_NO":"４６５號","E_COORD97":164266.09,"N_COORD97":2543845.3199999998,"ADDRESS":"平豐路４６５號","OBJECTID":493151},"geometry":{"x":164266.09000000171,"y":2543845.3200000003}},{"attributes":{"ID":493179,"DIS_CODE":0,"TOWNNAME":"北區","LI":"中樓里","LIN":"1鄰","STREET":"前鋒路","SECT":" ","MAREA":" ","LANE":" ","ALLEY":" ","HOUSE_NO":"１５９號","E_COORD97":169476.53,"N_COORD97":2544684.9300000002,"ADDRESS":"前鋒路１５９號","OBJECTID":493152},"geometry":{"x":169476.53000000119,"y":2544684.9299999997}},{"attributes":{"ID":493180,"DIS_CODE":0,"TOWNNAME":"北區","LI":"中樓里","LIN":"1鄰","STREET":"前鋒路","SECT":" ","MAREA":" ","LANE":" ","ALLEY":" ","HOUSE_NO":"１６３號","E_COORD97":169477.14000000001,"N_COORD97":2544690.2599999998,"ADDRESS":"前鋒路１６３號","OBJECTID":493153},"geometry":{"x":169477.1400000006,"y":2544690.2600000035}},{"attributes":{"ID":493181,"DIS_CODE":0,"TOWNNAME":"北區","LI":"中樓里","LIN":"1鄰","STREET":"前鋒路","SECT":" ","MAREA":" ","LANE":" ","ALLEY":" ","HOUSE_NO":"１６５號","E_COORD97":169477.73999999999,"N_COORD97":2544694.2799999998,"ADDRESS":"前鋒路１６５號","OBJECTID":493154},"geometry":{"x":169477.74000000022,"y":2544694.2800000012}},{"attributes":{"ID":493182,"DIS_CODE":0,"TOWNNAME":"北區","LI":"中樓里","LIN":"1鄰","STREET":"前鋒路","SECT":" ","MAREA":" ","LANE":" ","ALLEY":" ","HOUSE_NO":"１６７號","E_COORD97":169479.35000000001,"N_COORD97":2544698.7999999998,"ADDRESS":"前鋒路１６７號","OBJECTID":493155},"geometry":{"x":169479.35000000056,"y":2544698.8000000026}},{"attributes":{"ID":493183,"DIS_CODE":0,"TOWNNAME":"永康區","LI":"龍潭里","LIN":"39鄰","STREET":"永明街","SECT":" ","MAREA":" ","LANE":"２３１巷","ALLEY":"４２弄","HOUSE_NO":"１２號","E_COORD97":174618.13445099999,"N_COORD97":2547297.4289600002,"ADDRESS":"永明街２３１巷４２弄１２號","OBJECTID":493156},"geometry":{"x":174618.13445100002,"y":2547297.4289599992}},{"attributes":{"ID":493184,"DIS_CODE":0,"TOWNNAME":"北區","LI":"中樓里","LIN":"1鄰","STREET":"前鋒路","SECT":" ","MAREA":" ","LANE":" ","ALLEY":" ","HOUSE_NO":"１６９號","E_COORD97":169469.48999999999,"N_COORD97":2544705.27,"ADDRESS":"前鋒路１６９號","OBJECTID":493157},"geometry":{"x":169469.49000000022,"y":2544705.2699999996}},{"attributes":{"ID":493185,"DIS_CODE":0,"TOWNNAME":"北區","LI":"中樓里","LIN":"1鄰","STREET":"前鋒路","SECT":" ","MAREA":" ","LANE":" ","ALLEY":" ","HOUSE_NO":"１７３號","E_COORD97":169481.26000000001,"N_COORD97":2544712.5,"ADDRESS":"前鋒路１７３號","OBJECTID":493158},"geometry":{"x":169481.26000000071,"y":2544712.5000000037}},{"attributes":{"ID":493186,"DIS_CODE":0,"TOWNNAME":"北區","LI":"五福里","LIN":"1鄰","STREET":"長北街","SECT":" ","MAREA":" ","LANE":" ","ALLEY":" ","HOUSE_NO":"８９號","E_COORD97":168429.14999999999,"N_COORD97":2544700.4300000002,"ADDRESS":"長北街８９號","OBJECTID":493159},"geometry":{"x":168429.15000000037,"y":2544700.4300000016}},{"attributes":{"ID":493187,"DIS_CODE":0,"TOWNNAME":"北區","LI":"五福里","LIN":"1鄰","STREET":"長北街","SECT":" ","MAREA":" ","LANE":" ","ALLEY":" ","HOUSE_NO":"７５號","E_COORD97":168417.76999999999,"N_COORD97":2544669.6800000002,"ADDRESS":"長北街７５號","OBJECTID":493160},"geometry":{"x":168417.77000000142,"y":2544669.6799999997}},{"attributes":{"ID":493188,"DIS_CODE":0,"TOWNNAME":"北區","LI":"五福里","LIN":"1鄰","STREET":"長北街","SECT":" ","MAREA":" ","LANE":" ","ALLEY":" ","HOUSE_NO":"７９號","E_COORD97":168423.22,"N_COORD97":2544681.7599999998,"ADDRESS":"長北街７９號","OBJECTID":493161},"geometry":{"x":168423.21999999974,"y":2544681.7599999998}},{"attributes":{"ID":493189,"DIS_CODE":0,"TOWNNAME":"北區","LI":"五福里","LIN":"1鄰","STREET":"長北街","SECT":" ","MAREA":" ","LANE":" ","ALLEY":" ","HOUSE_NO":"８１號","E_COORD97":168424.64000000001,"N_COORD97":2544686.7400000002,"ADDRESS":"長北街８１號","OBJECTID":493162},"geometry":{"x":168424.6400000006,"y":2544686.7400000002}},{"attributes":{"ID":493190,"DIS_CODE":0,"TOWNNAME":"北區","LI":"五福里","LIN":"1鄰","STREET":"長北街","SECT":" ","MAREA":" ","LANE":" ","ALLEY":" ","HOUSE_NO":"８３號","E_COORD97":168413.60000000001,"N_COORD97":2544698.3199999998,"ADDRESS":"長北街８３號","OBJECTID":493163},"geometry":{"x":168413.59999999963,"y":2544698.3200000022}},{"attributes":{"ID":493191,"DIS_CODE":0,"TOWNNAME":"北區","LI":"五福里","LIN":"1鄰","STREET":"長北街","SECT":" ","MAREA":" ","LANE":" ","ALLEY":" ","HOUSE_NO":"８５號","E_COORD97":168418.35000000001,"N_COORD97":2544696.6600000001,"ADDRESS":"長北街８５號","OBJECTID":493164},"geometry":{"x":168418.34999999963,"y":2544696.6600000001}},{"attributes":{"ID":493192,"DIS_CODE":0,"TOWNNAME":"北區","LI":"五福里","LIN":"1鄰","STREET":"北華街","SECT":" ","MAREA":" ","LANE":" ","ALLEY":" ","HOUSE_NO":"２３２號","E_COORD97":168361.95999999999,"N_COORD97":2544669.5899999999,"ADDRESS":"北華街２３２號","OBJECTID":493165},"geometry":{"x":168361.95999999996,"y":2544669.5899999999}},{"attributes":{"ID":493193,"DIS_CODE":0,"TOWNNAME":"北區","LI":"五福里","LIN":"1鄰","STREET":"北華街","SECT":" ","MAREA":" ","LANE":" ","ALLEY":" ","HOUSE_NO":"２３４號","E_COORD97":168362.60999999999,"N_COORD97":2544672.2200000002,"ADDRESS":"北華街２３４號","OBJECTID":493166},"geometry":{"x":168362.61000000127,"y":2544672.2200000025}},{"attributes":{"ID":493194,"DIS_CODE":0,"TOWNNAME":"北區","LI":"五福里","LIN":"1鄰","STREET":"自強街","SECT":" ","MAREA":" ","LANE":" ","ALLEY":" ","HOUSE_NO":"１２０號","E_COORD97":168350.48000000001,"N_COORD97":2544671,"ADDRESS":"自強街１２０號","OBJECTID":493167},"geometry":{"x":168350.48000000045,"y":2544671}},{"attributes":{"ID":493195,"DIS_CODE":0,"TOWNNAME":"北區","LI":"五福里","LIN":"1鄰","STREET":"自強街","SECT":" ","MAREA":" ","LANE":" ","ALLEY":" ","HOUSE_NO":"１２２號","E_COORD97":168353.34,"N_COORD97":2544677.3999999999,"ADDRESS":"自強街１２２號","OBJECTID":493168},"geometry":{"x":168353.34000000171,"y":2544677.4000000022}},{"attributes":{"ID":493196,"DIS_CODE":0,"TOWNNAME":"北區","LI":"五福里","LIN":"1鄰","STREET":"自強街","SECT":" ","MAREA":" ","LANE":" ","ALLEY":" ","HOUSE_NO":"１２８號","E_COORD97":168356.34,"N_COORD97":2544684.3500000001,"ADDRESS":"自強街１２８號","OBJECTID":493169},"geometry":{"x":168356.33999999985,"y":2544684.3499999996}},{"attributes":{"ID":493197,"DIS_CODE":0,"TOWNNAME":"北區","LI":"五福里","LIN":"1鄰","STREET":"自強街","SECT":" ","MAREA":" ","LANE":" ","ALLEY":" ","HOUSE_NO":"１３０號","E_COORD97":168357.57000000001,"N_COORD97":2544687.8900000001,"ADDRESS":"自強街１３０號","OBJECTID":493170},"geometry":{"x":168357.57000000123,"y":2544687.8900000025}},{"attributes":{"ID":493198,"DIS_CODE":0,"TOWNNAME":"北區","LI":"五福里","LIN":"1鄰","STREET":"自強街","SECT":" ","MAREA":" ","LANE":" ","ALLEY":" ","HOUSE_NO":"１３２號","E_COORD97":168358.66,"N_COORD97":2544691.98,"ADDRESS":"自強街１３２號","OBJECTID":493171},"geometry":{"x":168358.66000000108,"y":2544691.9800000004}},{"attributes":{"ID":493199,"DIS_CODE":0,"TOWNNAME":"北區","LI":"五福里","LIN":"1鄰","STREET":"自強街","SECT":" ","MAREA":" ","LANE":" ","ALLEY":" ","HOUSE_NO":"１３４號","E_COORD97":168359.64999999999,"N_COORD97":2544695.5899999999,"ADDRESS":"自強街１３４號","OBJECTID":493172},"geometry":{"x":168359.65000000037,"y":2544695.5900000017}},{"attributes":{"ID":493200,"DIS_CODE":0,"TOWNNAME":"北區","LI":"五福里","LIN":"1鄰","STREET":"自強街","SECT":" ","MAREA":" ","LANE":" ","ALLEY":" ","HOUSE_NO":"１３６號","E_COORD97":168361.89999999999,"N_COORD97":2544699.0299999998,"ADDRESS":"自強街１３６號","OBJECTID":493173},"geometry":{"x":168361.90000000224,"y":2544699.0300000012}},{"attributes":{"ID":493201,"DIS_CODE":0,"TOWNNAME":"北區","LI":"五福里","LIN":"1鄰","STREET":"自強街","SECT":" ","MAREA":" ","LANE":" ","ALLEY":" ","HOUSE_NO":"１３８號","E_COORD97":168363.32999999999,"N_COORD97":2544702.7000000002,"ADDRESS":"自強街１３８號","OBJECTID":493174},"geometry":{"x":168363.33000000007,"y":2544702.6999999993}},{"attributes":{"ID":493202,"DIS_CODE":0,"TOWNNAME":"北區","LI":"五福里","LIN":"1鄰","STREET":"自強街","SECT":" ","MAREA":" ","LANE":" ","ALLEY":" ","HOUSE_NO":"１４０號","E_COORD97":168364.04000000001,"N_COORD97":2544706.3799999999,"ADDRESS":"自強街１４０號","OBJECTID":493175},"geometry":{"x":168364.0400000019,"y":2544706.3800000008}},{"attributes":{"ID":493203,"DIS_CODE":0,"TOWNNAME":"北區","LI":"五福里","LIN":"1鄰","STREET":"自強街","SECT":" ","MAREA":" ","LANE":" ","ALLEY":" ","HOUSE_NO":"１４２號","E_COORD97":168365.70000000001,"N_COORD97":2544711.5899999999,"ADDRESS":"自強街１４２號","OBJECTID":493176},"geometry":{"x":168365.70000000019,"y":2544711.5900000036}},{"attributes":{"ID":493204,"DIS_CODE":0,"TOWNNAME":"北區","LI":"五福里","LIN":"1鄰","STREET":"自強街","SECT":" ","MAREA":" ","LANE":" ","ALLEY":" ","HOUSE_NO":"１４４號","E_COORD97":168367.48000000001,"N_COORD97":2544715.8599999999,"ADDRESS":"自強街１４４號","OBJECTID":493177},"geometry":{"x":168367.48000000045,"y":2544715.8599999994}},{"attributes":{"ID":493205,"DIS_CODE":0,"TOWNNAME":"北區","LI":"五福里","LIN":"1鄰","STREET":"公園南路","SECT":" ","MAREA":" ","LANE":" ","ALLEY":" ","HOUSE_NO":"２８１號","E_COORD97":168386.92000000001,"N_COORD97":2544749.0899999999,"ADDRESS":"公園南路２８１號","OBJECTID":493178},"geometry":{"x":168386.92000000086,"y":2544749.0900000036}},{"attributes":{"ID":493206,"DIS_CODE":0,"TOWNNAME":"北區","LI":"五福里","LIN":"1鄰","STREET":"自強街","SECT":" ","MAREA":" ","LANE":" ","ALLEY":" ","HOUSE_NO":"１４８號","E_COORD97":168372.45999999999,"N_COORD97":2544726.1000000001,"ADDRESS":"自強街１４８號","OBJECTID":493179},"geometry":{"x":168372.45999999996,"y":2544726.1000000015}},{"attributes":{"ID":493207,"DIS_CODE":0,"TOWNNAME":"北區","LI":"五福里","LIN":"1鄰","STREET":"自強街","SECT":" ","MAREA":" ","LANE":" ","ALLEY":" ","HOUSE_NO":"１５０號","E_COORD97":168375.78,"N_COORD97":2544733.4399999999,"ADDRESS":"自強街１５０號","OBJECTID":493180},"geometry":{"x":168375.78000000026,"y":2544733.4400000013}},{"attributes":{"ID":493208,"DIS_CODE":0,"TOWNNAME":"北區","LI":"五福里","LIN":"1鄰","STREET":"自強街","SECT":" ","MAREA":" ","LANE":" ","ALLEY":" ","HOUSE_NO":"１５２號","E_COORD97":168377.73000000001,"N_COORD97":2544736.2400000002,"ADDRESS":"自強街１５２號","OBJECTID":493181},"geometry":{"x":168377.73000000045,"y":2544736.2400000021}},{"attributes":{"ID":493209,"DIS_CODE":0,"TOWNNAME":"北區","LI":"五福里","LIN":"1鄰","STREET":"自強街","SECT":" ","MAREA":" ","LANE":" ","ALLEY":" ","HOUSE_NO":"１５４號","E_COORD97":168378.14999999999,"N_COORD97":2544738.6600000001,"ADDRESS":"自強街１５４號","OBJECTID":493182},"geometry":{"x":168378.15000000037,"y":2544738.6600000039}},{"attributes":{"ID":493210,"DIS_CODE":0,"TOWNNAME":"北區","LI":"五福里","LIN":"1鄰","STREET":"自強街","SECT":" ","MAREA":" ","LANE":" ","ALLEY":" ","HOUSE_NO":"１５６號","E_COORD97":168380.76000000001,"N_COORD97":2544743.8700000001,"ADDRESS":"自強街１５６號","OBJECTID":493183},"geometry":{"x":168380.76000000164,"y":2544743.870000001}},{"attributes":{"ID":493211,"DIS_CODE":0,"TOWNNAME":"北區","LI":"五福里","LIN":"1鄰","STREET":"自強街","SECT":" ","MAREA":" ","LANE":" ","ALLEY":" ","HOUSE_NO":"１５８號","E_COORD97":168382.06,"N_COORD97":2544747.1899999999,"ADDRESS":"自強街１５８號","OBJECTID":493184},"geometry":{"x":168382.06000000145,"y":2544747.1899999995}},{"attributes":{"ID":493212,"DIS_CODE":0,"TOWNNAME":"歸仁區","LI":"歸仁里","LIN":"1鄰","STREET":"文化街","SECT":"一段","MAREA":" ","LANE":" ","ALLEY":" ","HOUSE_NO":"１０６號","E_COORD97":177783.72,"N_COORD97":2541130.2599999998,"ADDRESS":"文化街一段１０６號","OBJECTID":493185},"geometry":{"x":177783.71999999974,"y":2541130.2600000035}},{"attributes":{"ID":493213,"DIS_CODE":0,"TOWNNAME":"歸仁區","LI":"南保里","LIN":"1鄰","STREET":"大德路","SECT":" ","MAREA":" ","LANE":" ","ALLEY":" ","HOUSE_NO":"３３１號","E_COORD97":176938.97,"N_COORD97":2541521.27,"ADDRESS":"大德路３３１號","OBJECTID":493186},"geometry":{"x":176938.97000000067,"y":2541521.2700000014}},{"attributes":{"ID":493214,"DIS_CODE":0,"TOWNNAME":"歸仁區","LI":"後市里","LIN":"1鄰","STREET":"大順街","SECT":" ","MAREA":" ","LANE":" ","ALLEY":" ","HOUSE_NO":"１５１號","E_COORD97":177026.92999999999,"N_COORD97":2540590.25,"ADDRESS":"大順街１５１號","OBJECTID":493187},"geometry":{"x":177026.93000000063,"y":2540590.25}},{"attributes":{"ID":493215,"DIS_CODE":0,"TOWNNAME":"歸仁區","LI":"辜厝里","LIN":"1鄰","STREET":"中山路","SECT":"二段","MAREA":" ","LANE":" ","ALLEY":" ","HOUSE_NO":"３３號","E_COORD97":177515.10999999999,"N_COORD97":2540774.1200000001,"ADDRESS":"中山路二段３３號","OBJECTID":493188},"geometry":{"x":177515.11000000127,"y":2540774.1200000029}},{"attributes":{"ID":493216,"DIS_CODE":0,"TOWNNAME":"歸仁區","LI":"南保里","LIN":"1鄰","STREET":"民權二街","SECT":" ","MAREA":" ","LANE":" ","ALLEY":" ","HOUSE_NO":"４６號","E_COORD97":176966.19,"N_COORD97":2541440.29,"ADDRESS":"民權二街４６號","OBJECTID":493189},"geometry":{"x":176966.19000000041,"y":2541440.2899999991}},{"attributes":{"ID":493217,"DIS_CODE":0,"TOWNNAME":"歸仁區","LI":"媽廟里","LIN":"1鄰","STREET":"中正北路","SECT":"三段","MAREA":" ","LANE":" ","ALLEY":" ","HOUSE_NO":"５１號","E_COORD97":177486.01000000001,"N_COORD97":2543488.7200000002,"ADDRESS":"中正北路三段５１號","OBJECTID":493190},"geometry":{"x":177486.01000000071,"y":2543488.7200000025}},{"attributes":{"ID":493218,"DIS_CODE":0,"TOWNNAME":"歸仁區","LI":"南保里","LIN":"1鄰","STREET":"大德路","SECT":" ","MAREA":" ","LANE":" ","ALLEY":" ","HOUSE_NO":"３１３號","E_COORD97":176976.97,"N_COORD97":2541536.27,"ADDRESS":"大德路３１３號","OBJECTID":493191},"geometry":{"x":176976.96999999974,"y":2541536.2699999996}},{"attributes":{"ID":493219,"DIS_CODE":0,"TOWNNAME":"玉井區","LI":"中正里","LIN":"1鄰","STREET":"中正路","SECT":" ","MAREA":" ","LANE":" ","ALLEY":" ","HOUSE_NO":"３４１號","E_COORD97":195285.26000000001,"N_COORD97":2558445.25,"ADDRESS":"中正路３４１號","OBJECTID":493192},"geometry":{"x":195285.26000000164,"y":2558445.2500000037}},{"attributes":{"ID":493220,"DIS_CODE":0,"TOWNNAME":"玉井區","LI":"中正里","LIN":"1鄰","STREET":"前園街","SECT":" ","MAREA":" ","LANE":" ","ALLEY":" ","HOUSE_NO":"７８號","E_COORD97":195226.54999999999,"N_COORD97":2558613.2400000002,"ADDRESS":"前園街７８號","OBJECTID":493193},"geometry":{"x":195226.54999999981,"y":2558613.2400000021}},{"attributes":{"ID":493221,"DIS_CODE":0,"TOWNNAME":"玉井區","LI":"玉井里","LIN":"1鄰","STREET":"憲政街","SECT":" ","MAREA":" ","LANE":" ","ALLEY":" ","HOUSE_NO":"２６號","E_COORD97":194635.42000000001,"N_COORD97":2558093.2599999998,"ADDRESS":"憲政街２６號","OBJECTID":493194},"geometry":{"x":194635.42000000086,"y":2558093.2600000016}},{"attributes":{"ID":493222,"DIS_CODE":0,"TOWNNAME":"玉井區","LI":"玉田里","LIN":"1鄰","STREET":"中正路","SECT":" ","MAREA":" ","LANE":" ","ALLEY":" ","HOUSE_NO":"１９２號","E_COORD97":195010.76000000001,"N_COORD97":2558222.25,"ADDRESS":"中正路１９２號","OBJECTID":493195},"geometry":{"x":195010.76000000071,"y":2558222.2500000019}},{"attributes":{"ID":493223,"DIS_CODE":0,"TOWNNAME":"玉井區","LI":"玉田里","LIN":"1鄰","STREET":"中正路","SECT":" ","MAREA":" ","LANE":" ","ALLEY":" ","HOUSE_NO":"１５７號","E_COORD97":194981.26000000001,"N_COORD97":2558231.25,"ADDRESS":"中正路１５７號","OBJECTID":493196},"geometry":{"x":194981.25999999978,"y":2558231.25}},{"attributes":{"ID":493224,"DIS_CODE":0,"TOWNNAME":"玉井區","LI":"玉田里","LIN":"1鄰","STREET":"中正路","SECT":" ","MAREA":" ","LANE":" ","ALLEY":" ","HOUSE_NO":"２２３號","E_COORD97":195105.45999999999,"N_COORD97":2558262.25,"ADDRESS":"中正路２２３號","OBJECTID":493197},"geometry":{"x":195105.45999999996,"y":2558262.2500000037}},{"attributes":{"ID":493225,"DIS_CODE":0,"TOWNNAME":"玉井區","LI":"玉井里","LIN":"1鄰","STREET":"憲政街","SECT":" ","MAREA":" ","LANE":" ","ALLEY":" ","HOUSE_NO":"３２號","E_COORD97":194626.91,"N_COORD97":2558090.2599999998,"ADDRESS":"憲政街３２號","OBJECTID":493198},"geometry":{"x":194626.91000000201,"y":2558090.2600000016}},{"attributes":{"ID":493226,"DIS_CODE":0,"TOWNNAME":"玉井區","LI":"玉井里","LIN":"1鄰","STREET":"憲政街","SECT":" ","MAREA":" ","LANE":" ","ALLEY":" ","HOUSE_NO":"６號","E_COORD97":194678,"N_COORD97":2558109.0600000001,"ADDRESS":"憲政街６號","OBJECTID":493199},"geometry":{"x":194678,"y":2558109.0600000024}},{"attributes":{"ID":493227,"DIS_CODE":0,"TOWNNAME":"玉井區","LI":"玉井里","LIN":"1鄰","STREET":"憲政街","SECT":" ","MAREA":" ","LANE":" ","ALLEY":" ","HOUSE_NO":"２號","E_COORD97":194690.60000000001,"N_COORD97":2558115.0600000001,"ADDRESS":"憲政街２號","OBJECTID":493200},"geometry":{"x":194690.59999999963,"y":2558115.0600000042}}]}