{"displayFieldName":"TOWNNAME","fieldAliases":{"ID":"ID","DIS_CODE":"DIS_CODE","TOWNNAME":"TOWNNAME","LI":"LI","LIN":"LIN","STREET":"STREET","SECT":"SECT","MAREA":"MAREA","LANE":"LANE","ALLEY":"ALLEY","HOUSE_NO":"HOUSE_NO","E_COORD97":"E_COORD97","N_COORD97":"N_COORD97","ADDRESS":"ADDRESS","OBJECTID":"OBJECTID"},"geometryType":"esriGeometryPoint","spatialReference":{"wkid":102443,"latestWkid":3826},"fields":[{"name":"ID","type":"esriFieldTypeDouble","alias":"ID"},{"name":"DIS_CODE","type":"esriFieldTypeInteger","alias":"DIS_CODE"},{"name":"TOWNNAME","type":"esriFieldTypeString","alias":"TOWNNAME","length":8},{"name":"LI","type":"esriFieldTypeString","alias":"LI","length":8},{"name":"LIN","type":"esriFieldTypeString","alias":"LIN","length":12},{"name":"STREET","type":"esriFieldTypeString","alias":"STREET","length":20},{"name":"SECT","type":"esriFieldTypeString","alias":"SECT","length":8},{"name":"MAREA","type":"esriFieldTypeString","alias":"MAREA","length":12},{"name":"LANE","type":"esriFieldTypeString","alias":"LANE","length":10},{"name":"ALLEY","type":"esriFieldTypeString","alias":"ALLEY","length":10},{"name":"HOUSE_NO","type":"esriFieldTypeString","alias":"HOUSE_NO","length":20},{"name":"E_COORD97","type":"esriFieldTypeDouble","alias":"E_COORD97"},{"name":"N_COORD97","type":"esriFieldTypeDouble","alias":"N_COORD97"},{"name":"ADDRESS","type":"esriFieldTypeString","alias":"ADDRESS","length":50},{"name":"OBJECTID","type":"esriFieldTypeOID","alias":"OBJECTID"}],"features":[{"attributes":{"ID":424626,"DIS_CODE":0,"TOWNNAME":"南區","LI":"郡南里","LIN":"13鄰","STREET":"永成路","SECT":"三段","MAREA":" ","LANE":"７１巷","ALLEY":" ","HOUSE_NO":"２７號二樓之２","E_COORD97":167402.87,"N_COORD97":2540552.0800000001,"ADDRESS":"永成路三段７１巷２７號二樓之２","OBJECTID":424601},"geometry":{"x":167402.87000000104,"y":2540552.0800000038}},{"attributes":{"ID":424627,"DIS_CODE":0,"TOWNNAME":"北區","LI":"元寶里","LIN":"3鄰","STREET":"北園街","SECT":" ","MAREA":" ","LANE":"８０巷","ALLEY":" ","HOUSE_NO":"６８號二樓之１４","E_COORD97":170404.51999999999,"N_COORD97":2545885.3300000001,"ADDRESS":"北園街８０巷６８號二樓之１４","OBJECTID":424602},"geometry":{"x":170404.52000000142,"y":2545885.3300000001}},{"attributes":{"ID":424628,"DIS_CODE":0,"TOWNNAME":"北區","LI":"元寶里","LIN":"3鄰","STREET":"北園街","SECT":" ","MAREA":" ","LANE":"８０巷","ALLEY":" ","HOUSE_NO":"６８號二樓之１５","E_COORD97":170404.51999999999,"N_COORD97":2545885.3300000001,"ADDRESS":"北園街８０巷６８號二樓之１５","OBJECTID":424603},"geometry":{"x":170404.52000000142,"y":2545885.3300000001}},{"attributes":{"ID":424629,"DIS_CODE":0,"TOWNNAME":"北區","LI":"元寶里","LIN":"3鄰","STREET":"北園街","SECT":" ","MAREA":" ","LANE":"８０巷","ALLEY":" ","HOUSE_NO":"６８號二樓之１６","E_COORD97":170404.51999999999,"N_COORD97":2545885.3300000001,"ADDRESS":"北園街８０巷６８號二樓之１６","OBJECTID":424604},"geometry":{"x":170404.52000000142,"y":2545885.3300000001}},{"attributes":{"ID":424630,"DIS_CODE":0,"TOWNNAME":"北區","LI":"元寶里","LIN":"3鄰","STREET":"北園街","SECT":" ","MAREA":" ","LANE":"８０巷","ALLEY":" ","HOUSE_NO":"６８號二樓之１７","E_COORD97":170404.51999999999,"N_COORD97":2545885.3300000001,"ADDRESS":"北園街８０巷６８號二樓之１７","OBJECTID":424605},"geometry":{"x":170404.52000000142,"y":2545885.3300000001}},{"attributes":{"ID":424631,"DIS_CODE":0,"TOWNNAME":"北區","LI":"元寶里","LIN":"3鄰","STREET":"北園街","SECT":" ","MAREA":" ","LANE":"８０巷","ALLEY":" ","HOUSE_NO":"６８號二樓之１８","E_COORD97":170404.51999999999,"N_COORD97":2545885.3300000001,"ADDRESS":"北園街８０巷６８號二樓之１８","OBJECTID":424606},"geometry":{"x":170404.52000000142,"y":2545885.3300000001}},{"attributes":{"ID":424632,"DIS_CODE":0,"TOWNNAME":"歸仁區","LI":"沙崙里","LIN":"10鄰","STREET":" ","SECT":" ","MAREA":"沙崙","LANE":" ","ALLEY":" ","HOUSE_NO":"５１６號","E_COORD97":180607.14098200001,"N_COORD97":2537731.89537,"ADDRESS":"沙崙５１６號","OBJECTID":424607},"geometry":{"x":180607.14098200202,"y":2537731.8953730017}},{"attributes":{"ID":424633,"DIS_CODE":0,"TOWNNAME":"北區","LI":"元寶里","LIN":"3鄰","STREET":"北園街","SECT":" ","MAREA":" ","LANE":"８０巷","ALLEY":" ","HOUSE_NO":"６８號二樓之１９","E_COORD97":170404.51999999999,"N_COORD97":2545885.3300000001,"ADDRESS":"北園街８０巷６８號二樓之１９","OBJECTID":424608},"geometry":{"x":170404.52000000142,"y":2545885.3300000001}},{"attributes":{"ID":424634,"DIS_CODE":0,"TOWNNAME":"北區","LI":"元寶里","LIN":"3鄰","STREET":"北園街","SECT":" ","MAREA":" ","LANE":"８０巷","ALLEY":" ","HOUSE_NO":"６８號二樓之２","E_COORD97":170404.51999999999,"N_COORD97":2545885.3300000001,"ADDRESS":"北園街８０巷６８號二樓之２","OBJECTID":424609},"geometry":{"x":170404.52000000142,"y":2545885.3300000001}},{"attributes":{"ID":424635,"DIS_CODE":0,"TOWNNAME":"北區","LI":"元寶里","LIN":"3鄰","STREET":"北園街","SECT":" ","MAREA":" ","LANE":"８０巷","ALLEY":" ","HOUSE_NO":"６８號二樓之３","E_COORD97":170404.51999999999,"N_COORD97":2545885.3300000001,"ADDRESS":"北園街８０巷６８號二樓之３","OBJECTID":424610},"geometry":{"x":170404.52000000142,"y":2545885.3300000001}},{"attributes":{"ID":424636,"DIS_CODE":0,"TOWNNAME":"北區","LI":"元寶里","LIN":"3鄰","STREET":"北園街","SECT":" ","MAREA":" ","LANE":"８０巷","ALLEY":" ","HOUSE_NO":"６８號二樓之４","E_COORD97":170404.51999999999,"N_COORD97":2545885.3300000001,"ADDRESS":"北園街８０巷６８號二樓之４","OBJECTID":424611},"geometry":{"x":170404.52000000142,"y":2545885.3300000001}},{"attributes":{"ID":424637,"DIS_CODE":0,"TOWNNAME":"北區","LI":"元寶里","LIN":"3鄰","STREET":"北園街","SECT":" ","MAREA":" ","LANE":"８０巷","ALLEY":" ","HOUSE_NO":"６８號二樓之５","E_COORD97":170404.51999999999,"N_COORD97":2545885.3300000001,"ADDRESS":"北園街８０巷６８號二樓之５","OBJECTID":424612},"geometry":{"x":170404.52000000142,"y":2545885.3300000001}},{"attributes":{"ID":424638,"DIS_CODE":0,"TOWNNAME":"北區","LI":"元寶里","LIN":"3鄰","STREET":"北園街","SECT":" ","MAREA":" ","LANE":"８０巷","ALLEY":" ","HOUSE_NO":"６８號二樓之６","E_COORD97":170404.51999999999,"N_COORD97":2545885.3300000001,"ADDRESS":"北園街８０巷６８號二樓之６","OBJECTID":424613},"geometry":{"x":170404.52000000142,"y":2545885.3300000001}},{"attributes":{"ID":424639,"DIS_CODE":0,"TOWNNAME":"北區","LI":"元寶里","LIN":"3鄰","STREET":"北園街","SECT":" ","MAREA":" ","LANE":"８０巷","ALLEY":" ","HOUSE_NO":"６８號二樓之７","E_COORD97":170404.51999999999,"N_COORD97":2545885.3300000001,"ADDRESS":"北園街８０巷６８號二樓之７","OBJECTID":424614},"geometry":{"x":170404.52000000142,"y":2545885.3300000001}},{"attributes":{"ID":424640,"DIS_CODE":0,"TOWNNAME":"北區","LI":"元寶里","LIN":"3鄰","STREET":"北園街","SECT":" ","MAREA":" ","LANE":"８０巷","ALLEY":" ","HOUSE_NO":"６８號二樓之８","E_COORD97":170404.51999999999,"N_COORD97":2545885.3300000001,"ADDRESS":"北園街８０巷６８號二樓之８","OBJECTID":424615},"geometry":{"x":170404.52000000142,"y":2545885.3300000001}},{"attributes":{"ID":424641,"DIS_CODE":0,"TOWNNAME":"北區","LI":"元寶里","LIN":"3鄰","STREET":"北園街","SECT":" ","MAREA":" ","LANE":"８０巷","ALLEY":" ","HOUSE_NO":"６８號二樓之９","E_COORD97":170404.51999999999,"N_COORD97":2545885.3300000001,"ADDRESS":"北園街８０巷６８號二樓之９","OBJECTID":424616},"geometry":{"x":170404.52000000142,"y":2545885.3300000001}},{"attributes":{"ID":424642,"DIS_CODE":0,"TOWNNAME":"北區","LI":"元寶里","LIN":"3鄰","STREET":"北園街","SECT":" ","MAREA":" ","LANE":"８０巷","ALLEY":" ","HOUSE_NO":"６８號三樓之１","E_COORD97":170404.51999999999,"N_COORD97":2545885.3300000001,"ADDRESS":"北園街８０巷６８號三樓之１","OBJECTID":424617},"geometry":{"x":170404.52000000142,"y":2545885.3300000001}},{"attributes":{"ID":424643,"DIS_CODE":0,"TOWNNAME":"南區","LI":"再興里","LIN":"15鄰","STREET":"三官路","SECT":" ","MAREA":" ","LANE":"２２２巷","ALLEY":" ","HOUSE_NO":"１７號二樓","E_COORD97":167113.94,"N_COORD97":2542039.1499999999,"ADDRESS":"三官路２２２巷１７號二樓","OBJECTID":424618},"geometry":{"x":167113.94000000227,"y":2542039.1500000004}},{"attributes":{"ID":424644,"DIS_CODE":0,"TOWNNAME":"東區","LI":"虎尾里","LIN":"21鄰","STREET":"東門路","SECT":"三段","MAREA":" ","LANE":"２７３巷","ALLEY":" ","HOUSE_NO":"２０號","E_COORD97":171743.82000000001,"N_COORD97":2541911.6499999999,"ADDRESS":"東門路三段２７３巷２０號","OBJECTID":424619},"geometry":{"x":171743.8200000003,"y":2541911.6500000041}},{"attributes":{"ID":424645,"DIS_CODE":0,"TOWNNAME":"南區","LI":"明德里","LIN":"1鄰","STREET":"大成路","SECT":"一段","MAREA":" ","LANE":"１６８巷","ALLEY":" ","HOUSE_NO":"１４號之１一樓","E_COORD97":167897.51999999999,"N_COORD97":2541779.2000000002,"ADDRESS":"大成路一段１６８巷１４號之１一樓","OBJECTID":424620},"geometry":{"x":167897.52000000142,"y":2541779.2000000011}},{"attributes":{"ID":424646,"DIS_CODE":0,"TOWNNAME":"南區","LI":"明德里","LIN":"1鄰","STREET":"大成路","SECT":"一段","MAREA":" ","LANE":"１６８巷","ALLEY":" ","HOUSE_NO":"１４號之１二樓","E_COORD97":167897.51999999999,"N_COORD97":2541779.2000000002,"ADDRESS":"大成路一段１６８巷１４號之１二樓","OBJECTID":424621},"geometry":{"x":167897.52000000142,"y":2541779.2000000011}},{"attributes":{"ID":424647,"DIS_CODE":0,"TOWNNAME":"南區","LI":"明德里","LIN":"1鄰","STREET":"大成路","SECT":"一段","MAREA":" ","LANE":"１６８巷","ALLEY":" ","HOUSE_NO":"１４號之１三樓","E_COORD97":167897.51999999999,"N_COORD97":2541779.2000000002,"ADDRESS":"大成路一段１６８巷１４號之１三樓","OBJECTID":424622},"geometry":{"x":167897.52000000142,"y":2541779.2000000011}},{"attributes":{"ID":424648,"DIS_CODE":0,"TOWNNAME":"南區","LI":"明德里","LIN":"1鄰","STREET":"大成路","SECT":"一段","MAREA":" ","LANE":"１６８巷","ALLEY":" ","HOUSE_NO":"１４號之１四樓","E_COORD97":167897.51999999999,"N_COORD97":2541779.2000000002,"ADDRESS":"大成路一段１６８巷１４號之１四樓","OBJECTID":424623},"geometry":{"x":167897.52000000142,"y":2541779.2000000011}},{"attributes":{"ID":424649,"DIS_CODE":0,"TOWNNAME":"南區","LI":"開南里","LIN":"17鄰","STREET":"新建路","SECT":" ","MAREA":" ","LANE":"２４巷","ALLEY":" ","HOUSE_NO":"１號八樓","E_COORD97":166424.38,"N_COORD97":2541098.9300000002,"ADDRESS":"新建路２４巷１號八樓","OBJECTID":424624},"geometry":{"x":166424.38000000082,"y":2541098.9300000016}},{"attributes":{"ID":424650,"DIS_CODE":0,"TOWNNAME":"南區","LI":"開南里","LIN":"17鄰","STREET":"新建路","SECT":" ","MAREA":" ","LANE":"２４巷","ALLEY":" ","HOUSE_NO":"１號三樓之１","E_COORD97":166424.38,"N_COORD97":2541098.9300000002,"ADDRESS":"新建路２４巷１號三樓之１","OBJECTID":424625},"geometry":{"x":166424.38000000082,"y":2541098.9300000016}},{"attributes":{"ID":424651,"DIS_CODE":0,"TOWNNAME":"南區","LI":"開南里","LIN":"17鄰","STREET":"新建路","SECT":" ","MAREA":" ","LANE":"２４巷","ALLEY":" ","HOUSE_NO":"２號十樓","E_COORD97":166424.95999999999,"N_COORD97":2541140.1800000002,"ADDRESS":"新建路２４巷２號十樓","OBJECTID":424626},"geometry":{"x":166424.95999999996,"y":2541140.1799999997}},{"attributes":{"ID":424652,"DIS_CODE":0,"TOWNNAME":"南區","LI":"開南里","LIN":"17鄰","STREET":"新建路","SECT":" ","MAREA":" ","LANE":"２４巷","ALLEY":" ","HOUSE_NO":"２號十樓之１","E_COORD97":166424.95999999999,"N_COORD97":2541140.1800000002,"ADDRESS":"新建路２４巷２號十樓之１","OBJECTID":424627},"geometry":{"x":166424.95999999996,"y":2541140.1799999997}},{"attributes":{"ID":424653,"DIS_CODE":0,"TOWNNAME":"南區","LI":"開南里","LIN":"17鄰","STREET":"新建路","SECT":" ","MAREA":" ","LANE":"２４巷","ALLEY":" ","HOUSE_NO":"２號十樓之２","E_COORD97":166424.95999999999,"N_COORD97":2541140.1800000002,"ADDRESS":"新建路２４巷２號十樓之２","OBJECTID":424628},"geometry":{"x":166424.95999999996,"y":2541140.1799999997}},{"attributes":{"ID":424654,"DIS_CODE":0,"TOWNNAME":"南區","LI":"開南里","LIN":"17鄰","STREET":"新建路","SECT":" ","MAREA":" ","LANE":"２４巷","ALLEY":" ","HOUSE_NO":"２號十樓之３","E_COORD97":166424.95999999999,"N_COORD97":2541140.1800000002,"ADDRESS":"新建路２４巷２號十樓之３","OBJECTID":424629},"geometry":{"x":166424.95999999996,"y":2541140.1799999997}},{"attributes":{"ID":424655,"DIS_CODE":0,"TOWNNAME":"南區","LI":"開南里","LIN":"18鄰","STREET":"新建路","SECT":" ","MAREA":" ","LANE":"３３巷","ALLEY":" ","HOUSE_NO":"１號八樓","E_COORD97":166490.81,"N_COORD97":2541189.3399999999,"ADDRESS":"新建路３３巷１號八樓","OBJECTID":424630},"geometry":{"x":166490.81000000052,"y":2541189.3399999999}},{"attributes":{"ID":424656,"DIS_CODE":0,"TOWNNAME":"南區","LI":"開南里","LIN":"18鄰","STREET":"新建路","SECT":" ","MAREA":" ","LANE":"３７巷","ALLEY":" ","HOUSE_NO":"２號十三樓","E_COORD97":166493.70999999999,"N_COORD97":2541048.3599999999,"ADDRESS":"新建路３７巷２號十三樓","OBJECTID":424631},"geometry":{"x":166493.71000000089,"y":2541048.3600000013}},{"attributes":{"ID":424657,"DIS_CODE":0,"TOWNNAME":"南區","LI":"開南里","LIN":"7鄰","STREET":"中華西路","SECT":"一段","MAREA":" ","LANE":"８巷","ALLEY":" ","HOUSE_NO":"１號三樓","E_COORD97":166338.69,"N_COORD97":2540577.3199999998,"ADDRESS":"中華西路一段８巷１號三樓","OBJECTID":424632},"geometry":{"x":166338.69000000041,"y":2540577.3200000003}},{"attributes":{"ID":424658,"DIS_CODE":0,"TOWNNAME":"南區","LI":"開南里","LIN":"7鄰","STREET":"中華西路","SECT":"一段","MAREA":" ","LANE":"８巷","ALLEY":" ","HOUSE_NO":"１號三樓之１","E_COORD97":166338.69,"N_COORD97":2540577.3199999998,"ADDRESS":"中華西路一段８巷１號三樓之１","OBJECTID":424633},"geometry":{"x":166338.69000000041,"y":2540577.3200000003}},{"attributes":{"ID":424659,"DIS_CODE":0,"TOWNNAME":"南區","LI":"開南里","LIN":"7鄰","STREET":"中華西路","SECT":"一段","MAREA":" ","LANE":"８巷","ALLEY":" ","HOUSE_NO":"１號三樓之３","E_COORD97":166338.69,"N_COORD97":2540577.3199999998,"ADDRESS":"中華西路一段８巷１號三樓之３","OBJECTID":424634},"geometry":{"x":166338.69000000041,"y":2540577.3200000003}},{"attributes":{"ID":424660,"DIS_CODE":0,"TOWNNAME":"南區","LI":"開南里","LIN":"7鄰","STREET":"中華西路","SECT":"一段","MAREA":" ","LANE":"８巷","ALLEY":" ","HOUSE_NO":"１號四樓","E_COORD97":166338.69,"N_COORD97":2540577.3199999998,"ADDRESS":"中華西路一段８巷１號四樓","OBJECTID":424635},"geometry":{"x":166338.69000000041,"y":2540577.3200000003}},{"attributes":{"ID":424661,"DIS_CODE":0,"TOWNNAME":"安平區","LI":"育平里","LIN":"39鄰","STREET":"平豐路","SECT":" ","MAREA":" ","LANE":"４４巷","ALLEY":" ","HOUSE_NO":"２０號二樓之１","E_COORD97":164397.97,"N_COORD97":2542996.75,"ADDRESS":"平豐路４４巷２０號二樓之１","OBJECTID":424636},"geometry":{"x":164397.97000000067,"y":2542996.7500000019}},{"attributes":{"ID":424662,"DIS_CODE":0,"TOWNNAME":"安平區","LI":"平通里","LIN":"6鄰","STREET":"健康三街","SECT":" ","MAREA":" ","LANE":"５９２巷","ALLEY":" ","HOUSE_NO":"５５號九樓之１２","E_COORD97":164996.92999999999,"N_COORD97":2544199.8500000001,"ADDRESS":"健康三街５９２巷５５號九樓之１２","OBJECTID":424637},"geometry":{"x":164996.9299999997,"y":2544199.8499999996}},{"attributes":{"ID":424663,"DIS_CODE":0,"TOWNNAME":"安平區","LI":"平通里","LIN":"6鄰","STREET":"健康三街","SECT":" ","MAREA":" ","LANE":"５９２巷","ALLEY":" ","HOUSE_NO":"５５號九樓之２","E_COORD97":164996.92999999999,"N_COORD97":2544199.8500000001,"ADDRESS":"健康三街５９２巷５５號九樓之２","OBJECTID":424638},"geometry":{"x":164996.9299999997,"y":2544199.8499999996}},{"attributes":{"ID":424664,"DIS_CODE":0,"TOWNNAME":"安平區","LI":"平通里","LIN":"6鄰","STREET":"健康三街","SECT":" ","MAREA":" ","LANE":"５９２巷","ALLEY":" ","HOUSE_NO":"５５號九樓之３","E_COORD97":164996.92999999999,"N_COORD97":2544199.8500000001,"ADDRESS":"健康三街５９２巷５５號九樓之３","OBJECTID":424639},"geometry":{"x":164996.9299999997,"y":2544199.8499999996}},{"attributes":{"ID":424665,"DIS_CODE":0,"TOWNNAME":"安平區","LI":"平通里","LIN":"6鄰","STREET":"健康三街","SECT":" ","MAREA":" ","LANE":"５９２巷","ALLEY":" ","HOUSE_NO":"５５號二十一樓之１","E_COORD97":164996.92999999999,"N_COORD97":2544199.8500000001,"ADDRESS":"健康三街５９２巷５５號二十一樓之１","OBJECTID":424640},"geometry":{"x":164996.9299999997,"y":2544199.8499999996}},{"attributes":{"ID":424666,"DIS_CODE":0,"TOWNNAME":"安平區","LI":"平通里","LIN":"6鄰","STREET":"健康三街","SECT":" ","MAREA":" ","LANE":"５９２巷","ALLEY":" ","HOUSE_NO":"５５號二十一樓之１０","E_COORD97":164996.92999999999,"N_COORD97":2544199.8500000001,"ADDRESS":"健康三街５９２巷５５號二十一樓之１０","OBJECTID":424641},"geometry":{"x":164996.9299999997,"y":2544199.8499999996}},{"attributes":{"ID":424667,"DIS_CODE":0,"TOWNNAME":"安平區","LI":"平通里","LIN":"6鄰","STREET":"健康三街","SECT":" ","MAREA":" ","LANE":"５９２巷","ALLEY":" ","HOUSE_NO":"５５號二十一樓之１１","E_COORD97":164996.92999999999,"N_COORD97":2544199.8500000001,"ADDRESS":"健康三街５９２巷５５號二十一樓之１１","OBJECTID":424642},"geometry":{"x":164996.9299999997,"y":2544199.8499999996}},{"attributes":{"ID":424668,"DIS_CODE":0,"TOWNNAME":"安平區","LI":"平通里","LIN":"6鄰","STREET":"健康三街","SECT":" ","MAREA":" ","LANE":"５９２巷","ALLEY":" ","HOUSE_NO":"５５號二十一樓之２","E_COORD97":164996.92999999999,"N_COORD97":2544199.8500000001,"ADDRESS":"健康三街５９２巷５５號二十一樓之２","OBJECTID":424643},"geometry":{"x":164996.9299999997,"y":2544199.8499999996}},{"attributes":{"ID":424669,"DIS_CODE":0,"TOWNNAME":"安平區","LI":"平通里","LIN":"6鄰","STREET":"健康三街","SECT":" ","MAREA":" ","LANE":"５９２巷","ALLEY":" ","HOUSE_NO":"５５號二十一樓之３","E_COORD97":164996.92999999999,"N_COORD97":2544199.8500000001,"ADDRESS":"健康三街５９２巷５５號二十一樓之３","OBJECTID":424644},"geometry":{"x":164996.9299999997,"y":2544199.8499999996}},{"attributes":{"ID":424670,"DIS_CODE":0,"TOWNNAME":"安平區","LI":"平通里","LIN":"6鄰","STREET":"健康三街","SECT":" ","MAREA":" ","LANE":"５９２巷","ALLEY":" ","HOUSE_NO":"５５號二十二樓之１","E_COORD97":164996.92999999999,"N_COORD97":2544199.8500000001,"ADDRESS":"健康三街５９２巷５５號二十二樓之１","OBJECTID":424645},"geometry":{"x":164996.9299999997,"y":2544199.8499999996}},{"attributes":{"ID":424671,"DIS_CODE":0,"TOWNNAME":"安平區","LI":"平通里","LIN":"6鄰","STREET":"健康三街","SECT":" ","MAREA":" ","LANE":"５９２巷","ALLEY":" ","HOUSE_NO":"５５號二十二樓之１０","E_COORD97":164996.92999999999,"N_COORD97":2544199.8500000001,"ADDRESS":"健康三街５９２巷５５號二十二樓之１０","OBJECTID":424646},"geometry":{"x":164996.9299999997,"y":2544199.8499999996}},{"attributes":{"ID":424672,"DIS_CODE":0,"TOWNNAME":"安平區","LI":"平通里","LIN":"6鄰","STREET":"健康三街","SECT":" ","MAREA":" ","LANE":"５９２巷","ALLEY":" ","HOUSE_NO":"５５號二十二樓之１１","E_COORD97":164996.92999999999,"N_COORD97":2544199.8500000001,"ADDRESS":"健康三街５９２巷５５號二十二樓之１１","OBJECTID":424647},"geometry":{"x":164996.9299999997,"y":2544199.8499999996}},{"attributes":{"ID":424673,"DIS_CODE":0,"TOWNNAME":"安平區","LI":"平通里","LIN":"6鄰","STREET":"健康三街","SECT":" ","MAREA":" ","LANE":"５９２巷","ALLEY":" ","HOUSE_NO":"５５號二十二樓之２","E_COORD97":164996.92999999999,"N_COORD97":2544199.8500000001,"ADDRESS":"健康三街５９２巷５５號二十二樓之２","OBJECTID":424648},"geometry":{"x":164996.9299999997,"y":2544199.8499999996}},{"attributes":{"ID":424674,"DIS_CODE":0,"TOWNNAME":"安平區","LI":"平通里","LIN":"6鄰","STREET":"健康三街","SECT":" ","MAREA":" ","LANE":"５９２巷","ALLEY":" ","HOUSE_NO":"５５號二十二樓之３","E_COORD97":164996.92999999999,"N_COORD97":2544199.8500000001,"ADDRESS":"健康三街５９２巷５５號二十二樓之３","OBJECTID":424649},"geometry":{"x":164996.9299999997,"y":2544199.8499999996}},{"attributes":{"ID":424675,"DIS_CODE":0,"TOWNNAME":"安平區","LI":"平通里","LIN":"6鄰","STREET":"健康三街","SECT":" ","MAREA":" ","LANE":"５９２巷","ALLEY":" ","HOUSE_NO":"５５號二十三樓之１","E_COORD97":164996.92999999999,"N_COORD97":2544199.8500000001,"ADDRESS":"健康三街５９２巷５５號二十三樓之１","OBJECTID":424650},"geometry":{"x":164996.9299999997,"y":2544199.8499999996}},{"attributes":{"ID":424676,"DIS_CODE":0,"TOWNNAME":"安平區","LI":"平通里","LIN":"6鄰","STREET":"健康三街","SECT":" ","MAREA":" ","LANE":"５９２巷","ALLEY":" ","HOUSE_NO":"５５號二十三樓之１０","E_COORD97":164996.92999999999,"N_COORD97":2544199.8500000001,"ADDRESS":"健康三街５９２巷５５號二十三樓之１０","OBJECTID":424651},"geometry":{"x":164996.9299999997,"y":2544199.8499999996}},{"attributes":{"ID":424677,"DIS_CODE":0,"TOWNNAME":"東區","LI":"虎尾里","LIN":"24鄰","STREET":"東成街","SECT":" ","MAREA":" ","LANE":"２２２巷","ALLEY":" ","HOUSE_NO":"９號","E_COORD97":171954.16,"N_COORD97":2542254.4100000001,"ADDRESS":"東成街２２２巷９號","OBJECTID":424652},"geometry":{"x":171954.16000000108,"y":2542254.4100000001}},{"attributes":{"ID":424678,"DIS_CODE":0,"TOWNNAME":"安平區","LI":"平通里","LIN":"6鄰","STREET":"健康三街","SECT":" ","MAREA":" ","LANE":"５９２巷","ALLEY":" ","HOUSE_NO":"５５號二十三樓之１１","E_COORD97":164996.92999999999,"N_COORD97":2544199.8500000001,"ADDRESS":"健康三街５９２巷５５號二十三樓之１１","OBJECTID":424653},"geometry":{"x":164996.9299999997,"y":2544199.8499999996}},{"attributes":{"ID":424679,"DIS_CODE":0,"TOWNNAME":"安平區","LI":"平通里","LIN":"6鄰","STREET":"健康三街","SECT":" ","MAREA":" ","LANE":"５９２巷","ALLEY":" ","HOUSE_NO":"５５號二十三樓之２","E_COORD97":164996.92999999999,"N_COORD97":2544199.8500000001,"ADDRESS":"健康三街５９２巷５５號二十三樓之２","OBJECTID":424654},"geometry":{"x":164996.9299999997,"y":2544199.8499999996}},{"attributes":{"ID":424680,"DIS_CODE":0,"TOWNNAME":"安平區","LI":"平通里","LIN":"6鄰","STREET":"健康三街","SECT":" ","MAREA":" ","LANE":"５９２巷","ALLEY":" ","HOUSE_NO":"５５號二十三樓之３","E_COORD97":164996.92999999999,"N_COORD97":2544199.8500000001,"ADDRESS":"健康三街５９２巷５５號二十三樓之３","OBJECTID":424655},"geometry":{"x":164996.9299999997,"y":2544199.8499999996}},{"attributes":{"ID":424681,"DIS_CODE":0,"TOWNNAME":"安平區","LI":"平通里","LIN":"6鄰","STREET":"健康三街","SECT":" ","MAREA":" ","LANE":"５９２巷","ALLEY":" ","HOUSE_NO":"５５號二十四樓之１","E_COORD97":164996.92999999999,"N_COORD97":2544199.8500000001,"ADDRESS":"健康三街５９２巷５５號二十四樓之１","OBJECTID":424656},"geometry":{"x":164996.9299999997,"y":2544199.8499999996}},{"attributes":{"ID":424682,"DIS_CODE":0,"TOWNNAME":"安平區","LI":"平通里","LIN":"6鄰","STREET":"健康三街","SECT":" ","MAREA":" ","LANE":"５９２巷","ALLEY":" ","HOUSE_NO":"５５號二十四樓之１０","E_COORD97":164996.92999999999,"N_COORD97":2544199.8500000001,"ADDRESS":"健康三街５９２巷５５號二十四樓之１０","OBJECTID":424657},"geometry":{"x":164996.9299999997,"y":2544199.8499999996}},{"attributes":{"ID":424683,"DIS_CODE":0,"TOWNNAME":"安平區","LI":"平通里","LIN":"6鄰","STREET":"健康三街","SECT":" ","MAREA":" ","LANE":"５９２巷","ALLEY":" ","HOUSE_NO":"５５號二十四樓之１１","E_COORD97":164996.92999999999,"N_COORD97":2544199.8500000001,"ADDRESS":"健康三街５９２巷５５號二十四樓之１１","OBJECTID":424658},"geometry":{"x":164996.9299999997,"y":2544199.8499999996}},{"attributes":{"ID":424684,"DIS_CODE":0,"TOWNNAME":"東區","LI":"龍山里","LIN":"4鄰","STREET":"德光街","SECT":" ","MAREA":" ","LANE":"１５巷","ALLEY":" ","HOUSE_NO":"２７號二樓","E_COORD97":170603.54999999999,"N_COORD97":2542625.7400000002,"ADDRESS":"德光街１５巷２７號二樓","OBJECTID":424659},"geometry":{"x":170603.55000000075,"y":2542625.7400000002}},{"attributes":{"ID":424685,"DIS_CODE":0,"TOWNNAME":"安平區","LI":"平通里","LIN":"6鄰","STREET":"健康三街","SECT":" ","MAREA":" ","LANE":"５９２巷","ALLEY":" ","HOUSE_NO":"５５號二十四樓之２","E_COORD97":164996.92999999999,"N_COORD97":2544199.8500000001,"ADDRESS":"健康三街５９２巷５５號二十四樓之２","OBJECTID":424660},"geometry":{"x":164996.9299999997,"y":2544199.8499999996}},{"attributes":{"ID":424686,"DIS_CODE":0,"TOWNNAME":"安平區","LI":"平通里","LIN":"6鄰","STREET":"健康三街","SECT":" ","MAREA":" ","LANE":"５９２巷","ALLEY":" ","HOUSE_NO":"５５號二十四樓之３","E_COORD97":164996.92999999999,"N_COORD97":2544199.8500000001,"ADDRESS":"健康三街５９２巷５５號二十四樓之３","OBJECTID":424661},"geometry":{"x":164996.9299999997,"y":2544199.8499999996}},{"attributes":{"ID":424687,"DIS_CODE":0,"TOWNNAME":"安平區","LI":"平通里","LIN":"6鄰","STREET":"健康三街","SECT":" ","MAREA":" ","LANE":"５９２巷","ALLEY":" ","HOUSE_NO":"５５號二十樓之１","E_COORD97":164996.92999999999,"N_COORD97":2544199.8500000001,"ADDRESS":"健康三街５９２巷５５號二十樓之１","OBJECTID":424662},"geometry":{"x":164996.9299999997,"y":2544199.8499999996}},{"attributes":{"ID":424688,"DIS_CODE":0,"TOWNNAME":"安平區","LI":"平通里","LIN":"6鄰","STREET":"健康三街","SECT":" ","MAREA":" ","LANE":"５９２巷","ALLEY":" ","HOUSE_NO":"５５號二十樓之１０","E_COORD97":164996.92999999999,"N_COORD97":2544199.8500000001,"ADDRESS":"健康三街５９２巷５５號二十樓之１０","OBJECTID":424663},"geometry":{"x":164996.9299999997,"y":2544199.8499999996}},{"attributes":{"ID":424689,"DIS_CODE":0,"TOWNNAME":"安平區","LI":"平通里","LIN":"6鄰","STREET":"健康三街","SECT":" ","MAREA":" ","LANE":"５９２巷","ALLEY":" ","HOUSE_NO":"５５號二十樓之１１","E_COORD97":164996.92999999999,"N_COORD97":2544199.8500000001,"ADDRESS":"健康三街５９２巷５５號二十樓之１１","OBJECTID":424664},"geometry":{"x":164996.9299999997,"y":2544199.8499999996}},{"attributes":{"ID":424690,"DIS_CODE":0,"TOWNNAME":"新市區","LI":"社內里","LIN":"7鄰","STREET":" ","SECT":" ","MAREA":"社內","LANE":" ","ALLEY":" ","HOUSE_NO":"６６號","E_COORD97":176649.33459899999,"N_COORD97":2552700.30926,"ADDRESS":"社內６６號","OBJECTID":424665},"geometry":{"x":176649.3345990004,"y":2552700.309263004}},{"attributes":{"ID":424691,"DIS_CODE":0,"TOWNNAME":"安平區","LI":"平通里","LIN":"6鄰","STREET":"健康三街","SECT":" ","MAREA":" ","LANE":"５９２巷","ALLEY":" ","HOUSE_NO":"５５號二十樓之２","E_COORD97":164996.92999999999,"N_COORD97":2544199.8500000001,"ADDRESS":"健康三街５９２巷５５號二十樓之２","OBJECTID":424666},"geometry":{"x":164996.9299999997,"y":2544199.8499999996}},{"attributes":{"ID":424692,"DIS_CODE":0,"TOWNNAME":"安平區","LI":"平通里","LIN":"6鄰","STREET":"健康三街","SECT":" ","MAREA":" ","LANE":"５９２巷","ALLEY":" ","HOUSE_NO":"５５號二十樓之３","E_COORD97":164996.92999999999,"N_COORD97":2544199.8500000001,"ADDRESS":"健康三街５９２巷５５號二十樓之３","OBJECTID":424667},"geometry":{"x":164996.9299999997,"y":2544199.8499999996}},{"attributes":{"ID":424693,"DIS_CODE":0,"TOWNNAME":"安平區","LI":"平通里","LIN":"6鄰","STREET":"健康三街","SECT":" ","MAREA":" ","LANE":"５９２巷","ALLEY":" ","HOUSE_NO":"５５號二樓之１","E_COORD97":164996.92999999999,"N_COORD97":2544199.8500000001,"ADDRESS":"健康三街５９２巷５５號二樓之１","OBJECTID":424668},"geometry":{"x":164996.9299999997,"y":2544199.8499999996}},{"attributes":{"ID":424694,"DIS_CODE":0,"TOWNNAME":"安平區","LI":"平通里","LIN":"6鄰","STREET":"健康三街","SECT":" ","MAREA":" ","LANE":"５９２巷","ALLEY":" ","HOUSE_NO":"５５號二樓之２","E_COORD97":164996.92999999999,"N_COORD97":2544199.8500000001,"ADDRESS":"健康三街５９２巷５５號二樓之２","OBJECTID":424669},"geometry":{"x":164996.9299999997,"y":2544199.8499999996}},{"attributes":{"ID":424695,"DIS_CODE":0,"TOWNNAME":"安平區","LI":"平通里","LIN":"6鄰","STREET":"健康三街","SECT":" ","MAREA":" ","LANE":"５９２巷","ALLEY":" ","HOUSE_NO":"５５號八樓之１","E_COORD97":164996.92999999999,"N_COORD97":2544199.8500000001,"ADDRESS":"健康三街５９２巷５５號八樓之１","OBJECTID":424670},"geometry":{"x":164996.9299999997,"y":2544199.8499999996}},{"attributes":{"ID":424696,"DIS_CODE":0,"TOWNNAME":"安平區","LI":"平通里","LIN":"6鄰","STREET":"健康三街","SECT":" ","MAREA":" ","LANE":"５９２巷","ALLEY":" ","HOUSE_NO":"５５號八樓之１０","E_COORD97":164996.92999999999,"N_COORD97":2544199.8500000001,"ADDRESS":"健康三街５９２巷５５號八樓之１０","OBJECTID":424671},"geometry":{"x":164996.9299999997,"y":2544199.8499999996}},{"attributes":{"ID":424697,"DIS_CODE":0,"TOWNNAME":"安平區","LI":"平通里","LIN":"6鄰","STREET":"健康三街","SECT":" ","MAREA":" ","LANE":"５９２巷","ALLEY":" ","HOUSE_NO":"５５號八樓之１１","E_COORD97":164996.92999999999,"N_COORD97":2544199.8500000001,"ADDRESS":"健康三街５９２巷５５號八樓之１１","OBJECTID":424672},"geometry":{"x":164996.9299999997,"y":2544199.8499999996}},{"attributes":{"ID":424698,"DIS_CODE":0,"TOWNNAME":"安平區","LI":"平通里","LIN":"6鄰","STREET":"健康三街","SECT":" ","MAREA":" ","LANE":"５９２巷","ALLEY":" ","HOUSE_NO":"５５號八樓之１２","E_COORD97":164996.92999999999,"N_COORD97":2544199.8500000001,"ADDRESS":"健康三街５９２巷５５號八樓之１２","OBJECTID":424673},"geometry":{"x":164996.9299999997,"y":2544199.8499999996}},{"attributes":{"ID":424699,"DIS_CODE":0,"TOWNNAME":"安平區","LI":"平通里","LIN":"6鄰","STREET":"健康三街","SECT":" ","MAREA":" ","LANE":"５９２巷","ALLEY":" ","HOUSE_NO":"５５號八樓之２","E_COORD97":164996.92999999999,"N_COORD97":2544199.8500000001,"ADDRESS":"健康三街５９２巷５５號八樓之２","OBJECTID":424674},"geometry":{"x":164996.9299999997,"y":2544199.8499999996}},{"attributes":{"ID":424700,"DIS_CODE":0,"TOWNNAME":"東區","LI":"和平里","LIN":"1鄰","STREET":"文化二街","SECT":" ","MAREA":" ","LANE":" ","ALLEY":" ","HOUSE_NO":"１號二樓","E_COORD97":171099.45000000001,"N_COORD97":2542097.2200000002,"ADDRESS":"文化二街１號二樓","OBJECTID":424675},"geometry":{"x":171099.45000000112,"y":2542097.2200000007}},{"attributes":{"ID":424701,"DIS_CODE":0,"TOWNNAME":"安平區","LI":"平通里","LIN":"6鄰","STREET":"健康三街","SECT":" ","MAREA":" ","LANE":"５９２巷","ALLEY":" ","HOUSE_NO":"５５號八樓之３","E_COORD97":164996.92999999999,"N_COORD97":2544199.8500000001,"ADDRESS":"健康三街５９２巷５５號八樓之３","OBJECTID":424676},"geometry":{"x":164996.9299999997,"y":2544199.8499999996}},{"attributes":{"ID":424702,"DIS_CODE":0,"TOWNNAME":"安平區","LI":"平通里","LIN":"6鄰","STREET":"健康三街","SECT":" ","MAREA":" ","LANE":"５９２巷","ALLEY":" ","HOUSE_NO":"５５號十一樓之１","E_COORD97":164996.92999999999,"N_COORD97":2544199.8500000001,"ADDRESS":"健康三街５９２巷５５號十一樓之１","OBJECTID":424677},"geometry":{"x":164996.9299999997,"y":2544199.8499999996}},{"attributes":{"ID":424703,"DIS_CODE":0,"TOWNNAME":"安平區","LI":"平通里","LIN":"6鄰","STREET":"健康三街","SECT":" ","MAREA":" ","LANE":"５９２巷","ALLEY":" ","HOUSE_NO":"５５號十一樓之１０","E_COORD97":164996.92999999999,"N_COORD97":2544199.8500000001,"ADDRESS":"健康三街５９２巷５５號十一樓之１０","OBJECTID":424678},"geometry":{"x":164996.9299999997,"y":2544199.8499999996}},{"attributes":{"ID":424704,"DIS_CODE":0,"TOWNNAME":"安平區","LI":"平通里","LIN":"6鄰","STREET":"健康三街","SECT":" ","MAREA":" ","LANE":"５９２巷","ALLEY":" ","HOUSE_NO":"５５號十一樓之１１","E_COORD97":164996.92999999999,"N_COORD97":2544199.8500000001,"ADDRESS":"健康三街５９２巷５５號十一樓之１１","OBJECTID":424679},"geometry":{"x":164996.9299999997,"y":2544199.8499999996}},{"attributes":{"ID":424705,"DIS_CODE":0,"TOWNNAME":"安平區","LI":"平通里","LIN":"6鄰","STREET":"健康三街","SECT":" ","MAREA":" ","LANE":"５９２巷","ALLEY":" ","HOUSE_NO":"５５號十一樓之１２","E_COORD97":164996.92999999999,"N_COORD97":2544199.8500000001,"ADDRESS":"健康三街５９２巷５５號十一樓之１２","OBJECTID":424680},"geometry":{"x":164996.9299999997,"y":2544199.8499999996}},{"attributes":{"ID":424706,"DIS_CODE":0,"TOWNNAME":"安平區","LI":"平通里","LIN":"6鄰","STREET":"健康三街","SECT":" ","MAREA":" ","LANE":"５９２巷","ALLEY":" ","HOUSE_NO":"５５號十一樓之２","E_COORD97":164996.92999999999,"N_COORD97":2544199.8500000001,"ADDRESS":"健康三街５９２巷５５號十一樓之２","OBJECTID":424681},"geometry":{"x":164996.9299999997,"y":2544199.8499999996}},{"attributes":{"ID":424707,"DIS_CODE":0,"TOWNNAME":"安平區","LI":"平通里","LIN":"6鄰","STREET":"健康三街","SECT":" ","MAREA":" ","LANE":"５９２巷","ALLEY":" ","HOUSE_NO":"５５號十一樓之３","E_COORD97":164996.92999999999,"N_COORD97":2544199.8500000001,"ADDRESS":"健康三街５９２巷５５號十一樓之３","OBJECTID":424682},"geometry":{"x":164996.9299999997,"y":2544199.8499999996}},{"attributes":{"ID":424708,"DIS_CODE":0,"TOWNNAME":"安平區","LI":"平通里","LIN":"6鄰","STREET":"健康三街","SECT":" ","MAREA":" ","LANE":"５９２巷","ALLEY":" ","HOUSE_NO":"５５號十七樓之３","E_COORD97":164996.92999999999,"N_COORD97":2544199.8500000001,"ADDRESS":"健康三街５９２巷５５號十七樓之３","OBJECTID":424683},"geometry":{"x":164996.9299999997,"y":2544199.8499999996}},{"attributes":{"ID":424709,"DIS_CODE":0,"TOWNNAME":"安平區","LI":"平通里","LIN":"6鄰","STREET":"健康三街","SECT":" ","MAREA":" ","LANE":"５９２巷","ALLEY":" ","HOUSE_NO":"５５號十九樓之１","E_COORD97":164996.92999999999,"N_COORD97":2544199.8500000001,"ADDRESS":"健康三街５９２巷５５號十九樓之１","OBJECTID":424684},"geometry":{"x":164996.9299999997,"y":2544199.8499999996}},{"attributes":{"ID":424710,"DIS_CODE":0,"TOWNNAME":"安平區","LI":"平通里","LIN":"6鄰","STREET":"健康三街","SECT":" ","MAREA":" ","LANE":"５９２巷","ALLEY":" ","HOUSE_NO":"５５號十九樓之１０","E_COORD97":164996.92999999999,"N_COORD97":2544199.8500000001,"ADDRESS":"健康三街５９２巷５５號十九樓之１０","OBJECTID":424685},"geometry":{"x":164996.9299999997,"y":2544199.8499999996}},{"attributes":{"ID":424711,"DIS_CODE":0,"TOWNNAME":"安平區","LI":"平通里","LIN":"6鄰","STREET":"健康三街","SECT":" ","MAREA":" ","LANE":"５９２巷","ALLEY":" ","HOUSE_NO":"５５號十九樓之１１","E_COORD97":164996.92999999999,"N_COORD97":2544199.8500000001,"ADDRESS":"健康三街５９２巷５５號十九樓之１１","OBJECTID":424686},"geometry":{"x":164996.9299999997,"y":2544199.8499999996}},{"attributes":{"ID":424712,"DIS_CODE":0,"TOWNNAME":"安平區","LI":"平通里","LIN":"6鄰","STREET":"健康三街","SECT":" ","MAREA":" ","LANE":"５９２巷","ALLEY":" ","HOUSE_NO":"５５號十九樓之２","E_COORD97":164996.92999999999,"N_COORD97":2544199.8500000001,"ADDRESS":"健康三街５９２巷５５號十九樓之２","OBJECTID":424687},"geometry":{"x":164996.9299999997,"y":2544199.8499999996}},{"attributes":{"ID":424713,"DIS_CODE":0,"TOWNNAME":"安平區","LI":"平通里","LIN":"6鄰","STREET":"健康三街","SECT":" ","MAREA":" ","LANE":"５９２巷","ALLEY":" ","HOUSE_NO":"５５號十九樓之３","E_COORD97":164996.92999999999,"N_COORD97":2544199.8500000001,"ADDRESS":"健康三街５９２巷５５號十九樓之３","OBJECTID":424688},"geometry":{"x":164996.9299999997,"y":2544199.8499999996}},{"attributes":{"ID":424714,"DIS_CODE":0,"TOWNNAME":"安平區","LI":"平通里","LIN":"6鄰","STREET":"健康三街","SECT":" ","MAREA":" ","LANE":"５９２巷","ALLEY":" ","HOUSE_NO":"５５號十二樓之１","E_COORD97":164996.92999999999,"N_COORD97":2544199.8500000001,"ADDRESS":"健康三街５９２巷５５號十二樓之１","OBJECTID":424689},"geometry":{"x":164996.9299999997,"y":2544199.8499999996}},{"attributes":{"ID":424715,"DIS_CODE":0,"TOWNNAME":"安平區","LI":"平通里","LIN":"6鄰","STREET":"健康三街","SECT":" ","MAREA":" ","LANE":"５９２巷","ALLEY":" ","HOUSE_NO":"５５號十二樓之１０","E_COORD97":164996.92999999999,"N_COORD97":2544199.8500000001,"ADDRESS":"健康三街５９２巷５５號十二樓之１０","OBJECTID":424690},"geometry":{"x":164996.9299999997,"y":2544199.8499999996}},{"attributes":{"ID":424716,"DIS_CODE":0,"TOWNNAME":"安平區","LI":"平通里","LIN":"6鄰","STREET":"健康三街","SECT":" ","MAREA":" ","LANE":"５９２巷","ALLEY":" ","HOUSE_NO":"５５號十二樓之１１","E_COORD97":164996.92999999999,"N_COORD97":2544199.8500000001,"ADDRESS":"健康三街５９２巷５５號十二樓之１１","OBJECTID":424691},"geometry":{"x":164996.9299999997,"y":2544199.8499999996}},{"attributes":{"ID":424717,"DIS_CODE":0,"TOWNNAME":"安平區","LI":"平通里","LIN":"6鄰","STREET":"健康三街","SECT":" ","MAREA":" ","LANE":"５９２巷","ALLEY":" ","HOUSE_NO":"５５號十二樓之１２","E_COORD97":164996.92999999999,"N_COORD97":2544199.8500000001,"ADDRESS":"健康三街５９２巷５５號十二樓之１２","OBJECTID":424692},"geometry":{"x":164996.9299999997,"y":2544199.8499999996}},{"attributes":{"ID":424718,"DIS_CODE":0,"TOWNNAME":"安平區","LI":"平通里","LIN":"6鄰","STREET":"健康三街","SECT":" ","MAREA":" ","LANE":"５９２巷","ALLEY":" ","HOUSE_NO":"５５號十二樓之２","E_COORD97":164996.92999999999,"N_COORD97":2544199.8500000001,"ADDRESS":"健康三街５９２巷５５號十二樓之２","OBJECTID":424693},"geometry":{"x":164996.9299999997,"y":2544199.8499999996}},{"attributes":{"ID":424719,"DIS_CODE":0,"TOWNNAME":"安平區","LI":"平通里","LIN":"6鄰","STREET":"健康三街","SECT":" ","MAREA":" ","LANE":"５９２巷","ALLEY":" ","HOUSE_NO":"５５號十二樓之３","E_COORD97":164996.92999999999,"N_COORD97":2544199.8500000001,"ADDRESS":"健康三街５９２巷５５號十二樓之３","OBJECTID":424694},"geometry":{"x":164996.9299999997,"y":2544199.8499999996}},{"attributes":{"ID":424720,"DIS_CODE":0,"TOWNNAME":"安平區","LI":"平通里","LIN":"6鄰","STREET":"健康三街","SECT":" ","MAREA":" ","LANE":"５９２巷","ALLEY":" ","HOUSE_NO":"５５號十八樓之１","E_COORD97":164996.92999999999,"N_COORD97":2544199.8500000001,"ADDRESS":"健康三街５９２巷５５號十八樓之１","OBJECTID":424695},"geometry":{"x":164996.9299999997,"y":2544199.8499999996}},{"attributes":{"ID":424721,"DIS_CODE":0,"TOWNNAME":"安平區","LI":"平通里","LIN":"6鄰","STREET":"健康三街","SECT":" ","MAREA":" ","LANE":"５９２巷","ALLEY":" ","HOUSE_NO":"５５號十八樓之１０","E_COORD97":164996.92999999999,"N_COORD97":2544199.8500000001,"ADDRESS":"健康三街５９２巷５５號十八樓之１０","OBJECTID":424696},"geometry":{"x":164996.9299999997,"y":2544199.8499999996}},{"attributes":{"ID":424722,"DIS_CODE":0,"TOWNNAME":"安平區","LI":"平通里","LIN":"6鄰","STREET":"健康三街","SECT":" ","MAREA":" ","LANE":"５９２巷","ALLEY":" ","HOUSE_NO":"５５號十八樓之１１","E_COORD97":164996.92999999999,"N_COORD97":2544199.8500000001,"ADDRESS":"健康三街５９２巷５５號十八樓之１１","OBJECTID":424697},"geometry":{"x":164996.9299999997,"y":2544199.8499999996}},{"attributes":{"ID":424723,"DIS_CODE":0,"TOWNNAME":"安平區","LI":"平通里","LIN":"6鄰","STREET":"健康三街","SECT":" ","MAREA":" ","LANE":"５９２巷","ALLEY":" ","HOUSE_NO":"５５號十八樓之２","E_COORD97":164996.92999999999,"N_COORD97":2544199.8500000001,"ADDRESS":"健康三街５９２巷５５號十八樓之２","OBJECTID":424698},"geometry":{"x":164996.9299999997,"y":2544199.8499999996}},{"attributes":{"ID":424724,"DIS_CODE":0,"TOWNNAME":"安平區","LI":"平通里","LIN":"6鄰","STREET":"健康三街","SECT":" ","MAREA":" ","LANE":"５９２巷","ALLEY":" ","HOUSE_NO":"５５號十八樓之３","E_COORD97":164996.92999999999,"N_COORD97":2544199.8500000001,"ADDRESS":"健康三街５９２巷５５號十八樓之３","OBJECTID":424699},"geometry":{"x":164996.9299999997,"y":2544199.8499999996}},{"attributes":{"ID":424725,"DIS_CODE":0,"TOWNNAME":"安平區","LI":"平通里","LIN":"6鄰","STREET":"健康三街","SECT":" ","MAREA":" ","LANE":"５９２巷","ALLEY":" ","HOUSE_NO":"５５號十三樓之１","E_COORD97":164996.92999999999,"N_COORD97":2544199.8500000001,"ADDRESS":"健康三街５９２巷５５號十三樓之１","OBJECTID":424700},"geometry":{"x":164996.9299999997,"y":2544199.8499999996}},{"attributes":{"ID":424726,"DIS_CODE":0,"TOWNNAME":"安平區","LI":"平通里","LIN":"6鄰","STREET":"健康三街","SECT":" ","MAREA":" ","LANE":"５９２巷","ALLEY":" ","HOUSE_NO":"５５號十三樓之１０","E_COORD97":164996.92999999999,"N_COORD97":2544199.8500000001,"ADDRESS":"健康三街５９２巷５５號十三樓之１０","OBJECTID":424701},"geometry":{"x":164996.9299999997,"y":2544199.8499999996}},{"attributes":{"ID":424727,"DIS_CODE":0,"TOWNNAME":"安平區","LI":"平通里","LIN":"6鄰","STREET":"健康三街","SECT":" ","MAREA":" ","LANE":"５９２巷","ALLEY":" ","HOUSE_NO":"５５號十三樓之１１","E_COORD97":164996.92999999999,"N_COORD97":2544199.8500000001,"ADDRESS":"健康三街５９２巷５５號十三樓之１１","OBJECTID":424702},"geometry":{"x":164996.9299999997,"y":2544199.8499999996}},{"attributes":{"ID":424728,"DIS_CODE":0,"TOWNNAME":"安平區","LI":"平通里","LIN":"6鄰","STREET":"健康三街","SECT":" ","MAREA":" ","LANE":"５９２巷","ALLEY":" ","HOUSE_NO":"５５號十三樓之２","E_COORD97":164996.92999999999,"N_COORD97":2544199.8500000001,"ADDRESS":"健康三街５９２巷５５號十三樓之２","OBJECTID":424703},"geometry":{"x":164996.9299999997,"y":2544199.8499999996}},{"attributes":{"ID":424729,"DIS_CODE":0,"TOWNNAME":"安平區","LI":"平通里","LIN":"6鄰","STREET":"健康三街","SECT":" ","MAREA":" ","LANE":"５９２巷","ALLEY":" ","HOUSE_NO":"５５號十三樓之３","E_COORD97":164996.92999999999,"N_COORD97":2544199.8500000001,"ADDRESS":"健康三街５９２巷５５號十三樓之３","OBJECTID":424704},"geometry":{"x":164996.9299999997,"y":2544199.8499999996}},{"attributes":{"ID":424730,"DIS_CODE":0,"TOWNNAME":"安平區","LI":"平通里","LIN":"6鄰","STREET":"健康三街","SECT":" ","MAREA":" ","LANE":"５９２巷","ALLEY":" ","HOUSE_NO":"５５號十五樓之１","E_COORD97":164996.92999999999,"N_COORD97":2544199.8500000001,"ADDRESS":"健康三街５９２巷５５號十五樓之１","OBJECTID":424705},"geometry":{"x":164996.9299999997,"y":2544199.8499999996}},{"attributes":{"ID":424731,"DIS_CODE":0,"TOWNNAME":"安平區","LI":"平通里","LIN":"6鄰","STREET":"健康三街","SECT":" ","MAREA":" ","LANE":"５９２巷","ALLEY":" ","HOUSE_NO":"５５號十五樓之１０","E_COORD97":164996.92999999999,"N_COORD97":2544199.8500000001,"ADDRESS":"健康三街５９２巷５５號十五樓之１０","OBJECTID":424706},"geometry":{"x":164996.9299999997,"y":2544199.8499999996}},{"attributes":{"ID":424732,"DIS_CODE":0,"TOWNNAME":"安平區","LI":"平通里","LIN":"6鄰","STREET":"健康三街","SECT":" ","MAREA":" ","LANE":"５９２巷","ALLEY":" ","HOUSE_NO":"５５號十五樓之１１","E_COORD97":164996.92999999999,"N_COORD97":2544199.8500000001,"ADDRESS":"健康三街５９２巷５５號十五樓之１１","OBJECTID":424707},"geometry":{"x":164996.9299999997,"y":2544199.8499999996}},{"attributes":{"ID":424733,"DIS_CODE":0,"TOWNNAME":"安平區","LI":"平通里","LIN":"6鄰","STREET":"健康三街","SECT":" ","MAREA":" ","LANE":"５９２巷","ALLEY":" ","HOUSE_NO":"５５號十五樓之２","E_COORD97":164996.92999999999,"N_COORD97":2544199.8500000001,"ADDRESS":"健康三街５９２巷５５號十五樓之２","OBJECTID":424708},"geometry":{"x":164996.9299999997,"y":2544199.8499999996}},{"attributes":{"ID":424734,"DIS_CODE":0,"TOWNNAME":"安平區","LI":"平通里","LIN":"6鄰","STREET":"健康三街","SECT":" ","MAREA":" ","LANE":"５９２巷","ALLEY":" ","HOUSE_NO":"５５號十五樓之３","E_COORD97":164996.92999999999,"N_COORD97":2544199.8500000001,"ADDRESS":"健康三街５９２巷５５號十五樓之３","OBJECTID":424709},"geometry":{"x":164996.9299999997,"y":2544199.8499999996}},{"attributes":{"ID":424735,"DIS_CODE":0,"TOWNNAME":"安平區","LI":"平通里","LIN":"6鄰","STREET":"健康三街","SECT":" ","MAREA":" ","LANE":"５９２巷","ALLEY":" ","HOUSE_NO":"５５號十六樓之１","E_COORD97":164996.92999999999,"N_COORD97":2544199.8500000001,"ADDRESS":"健康三街５９２巷５５號十六樓之１","OBJECTID":424710},"geometry":{"x":164996.9299999997,"y":2544199.8499999996}},{"attributes":{"ID":424736,"DIS_CODE":0,"TOWNNAME":"安平區","LI":"平通里","LIN":"6鄰","STREET":"健康三街","SECT":" ","MAREA":" ","LANE":"５９２巷","ALLEY":" ","HOUSE_NO":"５５號十六樓之１０","E_COORD97":164996.92999999999,"N_COORD97":2544199.8500000001,"ADDRESS":"健康三街５９２巷５５號十六樓之１０","OBJECTID":424711},"geometry":{"x":164996.9299999997,"y":2544199.8499999996}},{"attributes":{"ID":424737,"DIS_CODE":0,"TOWNNAME":"安平區","LI":"平通里","LIN":"6鄰","STREET":"健康三街","SECT":" ","MAREA":" ","LANE":"５９２巷","ALLEY":" ","HOUSE_NO":"５５號十六樓之１１","E_COORD97":164996.92999999999,"N_COORD97":2544199.8500000001,"ADDRESS":"健康三街５９２巷５５號十六樓之１１","OBJECTID":424712},"geometry":{"x":164996.9299999997,"y":2544199.8499999996}},{"attributes":{"ID":424738,"DIS_CODE":0,"TOWNNAME":"安平區","LI":"平通里","LIN":"6鄰","STREET":"健康三街","SECT":" ","MAREA":" ","LANE":"５９２巷","ALLEY":" ","HOUSE_NO":"５５號十六樓之２","E_COORD97":164996.92999999999,"N_COORD97":2544199.8500000001,"ADDRESS":"健康三街５９２巷５５號十六樓之２","OBJECTID":424713},"geometry":{"x":164996.9299999997,"y":2544199.8499999996}},{"attributes":{"ID":424739,"DIS_CODE":0,"TOWNNAME":"安平區","LI":"平通里","LIN":"6鄰","STREET":"健康三街","SECT":" ","MAREA":" ","LANE":"５９２巷","ALLEY":" ","HOUSE_NO":"５５號十六樓之３","E_COORD97":164996.92999999999,"N_COORD97":2544199.8500000001,"ADDRESS":"健康三街５９２巷５５號十六樓之３","OBJECTID":424714},"geometry":{"x":164996.9299999997,"y":2544199.8499999996}},{"attributes":{"ID":424740,"DIS_CODE":0,"TOWNNAME":"安平區","LI":"平通里","LIN":"6鄰","STREET":"健康三街","SECT":" ","MAREA":" ","LANE":"５９２巷","ALLEY":" ","HOUSE_NO":"５５號十四樓之１","E_COORD97":164996.92999999999,"N_COORD97":2544199.8500000001,"ADDRESS":"健康三街５９２巷５５號十四樓之１","OBJECTID":424715},"geometry":{"x":164996.9299999997,"y":2544199.8499999996}},{"attributes":{"ID":424741,"DIS_CODE":0,"TOWNNAME":"安平區","LI":"建平里","LIN":" ","STREET":"平通路","SECT":" ","MAREA":" ","LANE":"８４巷","ALLEY":" ","HOUSE_NO":"１號二樓","E_COORD97":166046.98999999999,"N_COORD97":2543695.3500000001,"ADDRESS":"平通路８４巷１號二樓","OBJECTID":424716},"geometry":{"x":166046.99000000022,"y":2543695.3499999996}},{"attributes":{"ID":424742,"DIS_CODE":0,"TOWNNAME":"安平區","LI":"建平里","LIN":" ","STREET":"平通路","SECT":" ","MAREA":" ","LANE":"８４巷","ALLEY":" ","HOUSE_NO":"４號二樓","E_COORD97":166084.56,"N_COORD97":2543691.6299999999,"ADDRESS":"平通路８４巷４號二樓","OBJECTID":424717},"geometry":{"x":166084.55999999959,"y":2543691.6300000008}},{"attributes":{"ID":424743,"DIS_CODE":0,"TOWNNAME":"安平區","LI":"華平里","LIN":" ","STREET":"怡平路","SECT":" ","MAREA":" ","LANE":"４４２巷","ALLEY":" ","HOUSE_NO":"６３號二樓之７","E_COORD97":165296.39000000001,"N_COORD97":2544009.0899999999,"ADDRESS":"怡平路４４２巷６３號二樓之７","OBJECTID":424718},"geometry":{"x":165296.39000000153,"y":2544009.0899999999}},{"attributes":{"ID":424744,"DIS_CODE":0,"TOWNNAME":"北區","LI":"振興里","LIN":"1鄰","STREET":"勝利路","SECT":" ","MAREA":" ","LANE":"２７６巷","ALLEY":" ","HOUSE_NO":"３號二樓之１","E_COORD97":169938.89999999999,"N_COORD97":2545170.3100000001,"ADDRESS":"勝利路２７６巷３號二樓之１","OBJECTID":424719},"geometry":{"x":169938.9000000013,"y":2545170.3100000024}},{"attributes":{"ID":424745,"DIS_CODE":0,"TOWNNAME":"南區","LI":"再興里","LIN":"3鄰","STREET":"金華路","SECT":"二段","MAREA":" ","LANE":"２２８巷","ALLEY":" ","HOUSE_NO":"１８號七樓之１","E_COORD97":167199.23000000001,"N_COORD97":2542377.3500000001,"ADDRESS":"金華路二段２２８巷１８號七樓之１","OBJECTID":424720},"geometry":{"x":167199.23000000138,"y":2542377.3500000034}},{"attributes":{"ID":424746,"DIS_CODE":0,"TOWNNAME":"南區","LI":"再興里","LIN":"3鄰","STREET":"金華路","SECT":"二段","MAREA":" ","LANE":"２２８巷","ALLEY":" ","HOUSE_NO":"１８號七樓之２","E_COORD97":167199.23000000001,"N_COORD97":2542377.3500000001,"ADDRESS":"金華路二段２２８巷１８號七樓之２","OBJECTID":424721},"geometry":{"x":167199.23000000138,"y":2542377.3500000034}},{"attributes":{"ID":424747,"DIS_CODE":0,"TOWNNAME":"南區","LI":"再興里","LIN":"3鄰","STREET":"金華路","SECT":"二段","MAREA":" ","LANE":"２２８巷","ALLEY":" ","HOUSE_NO":"１８號七樓之３","E_COORD97":167199.23000000001,"N_COORD97":2542377.3500000001,"ADDRESS":"金華路二段２２８巷１８號七樓之３","OBJECTID":424722},"geometry":{"x":167199.23000000138,"y":2542377.3500000034}},{"attributes":{"ID":424748,"DIS_CODE":0,"TOWNNAME":"南區","LI":"再興里","LIN":"3鄰","STREET":"金華路","SECT":"二段","MAREA":" ","LANE":"２２８巷","ALLEY":" ","HOUSE_NO":"１８號七樓之５","E_COORD97":167199.23000000001,"N_COORD97":2542377.3500000001,"ADDRESS":"金華路二段２２８巷１８號七樓之５","OBJECTID":424723},"geometry":{"x":167199.23000000138,"y":2542377.3500000034}},{"attributes":{"ID":424749,"DIS_CODE":0,"TOWNNAME":"南區","LI":"再興里","LIN":"3鄰","STREET":"金華路","SECT":"二段","MAREA":" ","LANE":"２２８巷","ALLEY":" ","HOUSE_NO":"１８號九樓之１","E_COORD97":167199.23000000001,"N_COORD97":2542377.3500000001,"ADDRESS":"金華路二段２２８巷１８號九樓之１","OBJECTID":424724},"geometry":{"x":167199.23000000138,"y":2542377.3500000034}},{"attributes":{"ID":424750,"DIS_CODE":0,"TOWNNAME":"南區","LI":"再興里","LIN":"3鄰","STREET":"金華路","SECT":"二段","MAREA":" ","LANE":"２２８巷","ALLEY":" ","HOUSE_NO":"１８號九樓之２","E_COORD97":167199.23000000001,"N_COORD97":2542377.3500000001,"ADDRESS":"金華路二段２２８巷１８號九樓之２","OBJECTID":424725},"geometry":{"x":167199.23000000138,"y":2542377.3500000034}},{"attributes":{"ID":424751,"DIS_CODE":0,"TOWNNAME":"南區","LI":"再興里","LIN":"3鄰","STREET":"金華路","SECT":"二段","MAREA":" ","LANE":"２２８巷","ALLEY":" ","HOUSE_NO":"１８號九樓之３","E_COORD97":167199.23000000001,"N_COORD97":2542377.3500000001,"ADDRESS":"金華路二段２２８巷１８號九樓之３","OBJECTID":424726},"geometry":{"x":167199.23000000138,"y":2542377.3500000034}},{"attributes":{"ID":424752,"DIS_CODE":0,"TOWNNAME":"南區","LI":"再興里","LIN":"3鄰","STREET":"金華路","SECT":"二段","MAREA":" ","LANE":"２２８巷","ALLEY":" ","HOUSE_NO":"１８號九樓之５","E_COORD97":167199.23000000001,"N_COORD97":2542377.3500000001,"ADDRESS":"金華路二段２２８巷１８號九樓之５","OBJECTID":424727},"geometry":{"x":167199.23000000138,"y":2542377.3500000034}},{"attributes":{"ID":424753,"DIS_CODE":0,"TOWNNAME":"南區","LI":"再興里","LIN":"3鄰","STREET":"金華路","SECT":"二段","MAREA":" ","LANE":"２２８巷","ALLEY":" ","HOUSE_NO":"１８號二樓","E_COORD97":167199.23000000001,"N_COORD97":2542377.3500000001,"ADDRESS":"金華路二段２２８巷１８號二樓","OBJECTID":424728},"geometry":{"x":167199.23000000138,"y":2542377.3500000034}},{"attributes":{"ID":424754,"DIS_CODE":0,"TOWNNAME":"南區","LI":"再興里","LIN":"3鄰","STREET":"金華路","SECT":"二段","MAREA":" ","LANE":"２２８巷","ALLEY":" ","HOUSE_NO":"１８號八樓之１","E_COORD97":167199.23000000001,"N_COORD97":2542377.3500000001,"ADDRESS":"金華路二段２２８巷１８號八樓之１","OBJECTID":424729},"geometry":{"x":167199.23000000138,"y":2542377.3500000034}},{"attributes":{"ID":424755,"DIS_CODE":0,"TOWNNAME":"南區","LI":"再興里","LIN":"3鄰","STREET":"金華路","SECT":"二段","MAREA":" ","LANE":"２２８巷","ALLEY":" ","HOUSE_NO":"１８號八樓之２","E_COORD97":167199.23000000001,"N_COORD97":2542377.3500000001,"ADDRESS":"金華路二段２２８巷１８號八樓之２","OBJECTID":424730},"geometry":{"x":167199.23000000138,"y":2542377.3500000034}},{"attributes":{"ID":424756,"DIS_CODE":0,"TOWNNAME":"南區","LI":"再興里","LIN":"3鄰","STREET":"金華路","SECT":"二段","MAREA":" ","LANE":"２２８巷","ALLEY":" ","HOUSE_NO":"１８號八樓之３","E_COORD97":167199.23000000001,"N_COORD97":2542377.3500000001,"ADDRESS":"金華路二段２２８巷１８號八樓之３","OBJECTID":424731},"geometry":{"x":167199.23000000138,"y":2542377.3500000034}},{"attributes":{"ID":424757,"DIS_CODE":0,"TOWNNAME":"南區","LI":"再興里","LIN":"3鄰","STREET":"金華路","SECT":"二段","MAREA":" ","LANE":"２２８巷","ALLEY":" ","HOUSE_NO":"１８號十樓之１","E_COORD97":167199.23000000001,"N_COORD97":2542377.3500000001,"ADDRESS":"金華路二段２２８巷１８號十樓之１","OBJECTID":424732},"geometry":{"x":167199.23000000138,"y":2542377.3500000034}},{"attributes":{"ID":424758,"DIS_CODE":0,"TOWNNAME":"南區","LI":"再興里","LIN":"3鄰","STREET":"金華路","SECT":"二段","MAREA":" ","LANE":"２２８巷","ALLEY":" ","HOUSE_NO":"１８號十樓之２","E_COORD97":167199.23000000001,"N_COORD97":2542377.3500000001,"ADDRESS":"金華路二段２２８巷１８號十樓之２","OBJECTID":424733},"geometry":{"x":167199.23000000138,"y":2542377.3500000034}},{"attributes":{"ID":424759,"DIS_CODE":0,"TOWNNAME":"南區","LI":"再興里","LIN":"3鄰","STREET":"金華路","SECT":"二段","MAREA":" ","LANE":"２２８巷","ALLEY":" ","HOUSE_NO":"１８號三樓之１","E_COORD97":167199.23000000001,"N_COORD97":2542377.3500000001,"ADDRESS":"金華路二段２２８巷１８號三樓之１","OBJECTID":424734},"geometry":{"x":167199.23000000138,"y":2542377.3500000034}},{"attributes":{"ID":424760,"DIS_CODE":0,"TOWNNAME":"南區","LI":"再興里","LIN":"3鄰","STREET":"金華路","SECT":"二段","MAREA":" ","LANE":"２２８巷","ALLEY":" ","HOUSE_NO":"１８號三樓之２","E_COORD97":167199.23000000001,"N_COORD97":2542377.3500000001,"ADDRESS":"金華路二段２２８巷１８號三樓之２","OBJECTID":424735},"geometry":{"x":167199.23000000138,"y":2542377.3500000034}},{"attributes":{"ID":424761,"DIS_CODE":0,"TOWNNAME":"南區","LI":"再興里","LIN":"3鄰","STREET":"金華路","SECT":"二段","MAREA":" ","LANE":"２２８巷","ALLEY":" ","HOUSE_NO":"１８號三樓之３","E_COORD97":167199.23000000001,"N_COORD97":2542377.3500000001,"ADDRESS":"金華路二段２２８巷１８號三樓之３","OBJECTID":424736},"geometry":{"x":167199.23000000138,"y":2542377.3500000034}},{"attributes":{"ID":424762,"DIS_CODE":0,"TOWNNAME":"南區","LI":"再興里","LIN":"3鄰","STREET":"金華路","SECT":"二段","MAREA":" ","LANE":"２２８巷","ALLEY":" ","HOUSE_NO":"１８號三樓之５","E_COORD97":167199.23000000001,"N_COORD97":2542377.3500000001,"ADDRESS":"金華路二段２２８巷１８號三樓之５","OBJECTID":424737},"geometry":{"x":167199.23000000138,"y":2542377.3500000034}},{"attributes":{"ID":424763,"DIS_CODE":0,"TOWNNAME":"南區","LI":"再興里","LIN":"3鄰","STREET":"金華路","SECT":"二段","MAREA":" ","LANE":"２２８巷","ALLEY":" ","HOUSE_NO":"１８號五樓之１","E_COORD97":167199.23000000001,"N_COORD97":2542377.3500000001,"ADDRESS":"金華路二段２２８巷１８號五樓之１","OBJECTID":424738},"geometry":{"x":167199.23000000138,"y":2542377.3500000034}},{"attributes":{"ID":424764,"DIS_CODE":0,"TOWNNAME":"南區","LI":"再興里","LIN":"3鄰","STREET":"金華路","SECT":"二段","MAREA":" ","LANE":"２２８巷","ALLEY":" ","HOUSE_NO":"１８號五樓之２","E_COORD97":167199.23000000001,"N_COORD97":2542377.3500000001,"ADDRESS":"金華路二段２２８巷１８號五樓之２","OBJECTID":424739},"geometry":{"x":167199.23000000138,"y":2542377.3500000034}},{"attributes":{"ID":424765,"DIS_CODE":0,"TOWNNAME":"東區","LI":"關聖里","LIN":"8鄰","STREET":"裕農路","SECT":" ","MAREA":" ","LANE":"６６８巷","ALLEY":"３５弄","HOUSE_NO":"４６號之１９","E_COORD97":171834.25183200001,"N_COORD97":2543000.1636600001,"ADDRESS":"裕農路６６８巷３５弄４６號之１９","OBJECTID":424740},"geometry":{"x":171834.25183199998,"y":2543000.1636620015}},{"attributes":{"ID":424766,"DIS_CODE":0,"TOWNNAME":"南區","LI":"再興里","LIN":"3鄰","STREET":"金華路","SECT":"二段","MAREA":" ","LANE":"２２８巷","ALLEY":" ","HOUSE_NO":"１８號五樓之３","E_COORD97":167199.23000000001,"N_COORD97":2542377.3500000001,"ADDRESS":"金華路二段２２８巷１８號五樓之３","OBJECTID":424741},"geometry":{"x":167199.23000000138,"y":2542377.3500000034}},{"attributes":{"ID":424767,"DIS_CODE":0,"TOWNNAME":"南區","LI":"再興里","LIN":"3鄰","STREET":"金華路","SECT":"二段","MAREA":" ","LANE":"２２８巷","ALLEY":" ","HOUSE_NO":"１８號五樓之５","E_COORD97":167199.23000000001,"N_COORD97":2542377.3500000001,"ADDRESS":"金華路二段２２８巷１８號五樓之５","OBJECTID":424742},"geometry":{"x":167199.23000000138,"y":2542377.3500000034}},{"attributes":{"ID":424768,"DIS_CODE":0,"TOWNNAME":"南區","LI":"再興里","LIN":"3鄰","STREET":"金華路","SECT":"二段","MAREA":" ","LANE":"２２８巷","ALLEY":" ","HOUSE_NO":"１８號六樓之１","E_COORD97":167199.23000000001,"N_COORD97":2542377.3500000001,"ADDRESS":"金華路二段２２８巷１８號六樓之１","OBJECTID":424743},"geometry":{"x":167199.23000000138,"y":2542377.3500000034}},{"attributes":{"ID":424769,"DIS_CODE":0,"TOWNNAME":"北區","LI":"成德里","LIN":"17鄰","STREET":"西門路","SECT":"四段","MAREA":" ","LANE":"３４１巷","ALLEY":" ","HOUSE_NO":"１６號二樓","E_COORD97":168967.20999999999,"N_COORD97":2546214.2799999998,"ADDRESS":"西門路四段３４１巷１６號二樓","OBJECTID":424744},"geometry":{"x":168967.20999999996,"y":2546214.2799999993}},{"attributes":{"ID":424770,"DIS_CODE":0,"TOWNNAME":"北區","LI":"成德里","LIN":"17鄰","STREET":"西門路","SECT":"四段","MAREA":" ","LANE":"３４１巷","ALLEY":" ","HOUSE_NO":"１６號三樓","E_COORD97":168967.20999999999,"N_COORD97":2546214.2799999998,"ADDRESS":"西門路四段３４１巷１６號三樓","OBJECTID":424745},"geometry":{"x":168967.20999999996,"y":2546214.2799999993}},{"attributes":{"ID":424771,"DIS_CODE":0,"TOWNNAME":"北區","LI":"成德里","LIN":"17鄰","STREET":"西門路","SECT":"四段","MAREA":" ","LANE":"３４１巷","ALLEY":" ","HOUSE_NO":"１６號五樓","E_COORD97":168967.20999999999,"N_COORD97":2546214.2799999998,"ADDRESS":"西門路四段３４１巷１６號五樓","OBJECTID":424746},"geometry":{"x":168967.20999999996,"y":2546214.2799999993}},{"attributes":{"ID":424772,"DIS_CODE":0,"TOWNNAME":"北區","LI":"成德里","LIN":"17鄰","STREET":"西門路","SECT":"四段","MAREA":" ","LANE":"３４１巷","ALLEY":" ","HOUSE_NO":"１６號四樓","E_COORD97":168967.20999999999,"N_COORD97":2546214.2799999998,"ADDRESS":"西門路四段３４１巷１６號四樓","OBJECTID":424747},"geometry":{"x":168967.20999999996,"y":2546214.2799999993}},{"attributes":{"ID":424773,"DIS_CODE":0,"TOWNNAME":"關廟區","LI":"埤頭里","LIN":"4鄰","STREET":"保東路","SECT":" ","MAREA":" ","LANE":"１１５巷","ALLEY":" ","HOUSE_NO":"１７號三樓","E_COORD97":178810.82000000001,"N_COORD97":2543959.2999999998,"ADDRESS":"保東路１１５巷１７號三樓","OBJECTID":424748},"geometry":{"x":178810.8200000003,"y":2543959.3000000026}},{"attributes":{"ID":424774,"DIS_CODE":0,"TOWNNAME":"新營區","LI":"新南里","LIN":"25鄰","STREET":"復興路","SECT":" ","MAREA":" ","LANE":"６２０巷","ALLEY":" ","HOUSE_NO":"６６號五樓之２","E_COORD97":178065.13,"N_COORD97":2578543.2999999998,"ADDRESS":"復興路６２０巷６６號五樓之２","OBJECTID":424749},"geometry":{"x":178065.13000000082,"y":2578543.3000000007}},{"attributes":{"ID":424775,"DIS_CODE":0,"TOWNNAME":"新營區","LI":"忠政里","LIN":"4鄰","STREET":"中正路","SECT":" ","MAREA":" ","LANE":"３７巷","ALLEY":" ","HOUSE_NO":"４號二樓","E_COORD97":180058.09,"N_COORD97":2579146.1200000001,"ADDRESS":"中正路３７巷４號二樓","OBJECTID":424750},"geometry":{"x":180058.08999999985,"y":2579146.1200000029}},{"attributes":{"ID":424776,"DIS_CODE":0,"TOWNNAME":"新營區","LI":"新南里","LIN":"25鄰","STREET":"復興路","SECT":" ","MAREA":" ","LANE":"６２０巷","ALLEY":" ","HOUSE_NO":"６６號四樓之７","E_COORD97":178065.07999999999,"N_COORD97":2578543.2999999998,"ADDRESS":"復興路６２０巷６６號四樓之７","OBJECTID":424751},"geometry":{"x":178065.08000000007,"y":2578543.3000000007}},{"attributes":{"ID":424777,"DIS_CODE":0,"TOWNNAME":"新營區","LI":"新南里","LIN":"25鄰","STREET":"復興路","SECT":" ","MAREA":" ","LANE":"６２０巷","ALLEY":" ","HOUSE_NO":"６６號五樓之６","E_COORD97":178065.10999999999,"N_COORD97":2578543.2999999998,"ADDRESS":"復興路６２０巷６６號五樓之６","OBJECTID":424752},"geometry":{"x":178065.11000000034,"y":2578543.3000000007}},{"attributes":{"ID":424778,"DIS_CODE":0,"TOWNNAME":"新營區","LI":"忠政里","LIN":"4鄰","STREET":"中正路","SECT":" ","MAREA":" ","LANE":"３７巷","ALLEY":" ","HOUSE_NO":"６號三樓","E_COORD97":180047.79000000001,"N_COORD97":2579146.1699999999,"ADDRESS":"中正路３７巷６號三樓","OBJECTID":424753},"geometry":{"x":180047.79000000097,"y":2579146.1699999999}},{"attributes":{"ID":424779,"DIS_CODE":0,"TOWNNAME":"新營區","LI":"新南里","LIN":"25鄰","STREET":"復興路","SECT":" ","MAREA":" ","LANE":"６２０巷","ALLEY":" ","HOUSE_NO":"６６號三樓之６","E_COORD97":178065.10999999999,"N_COORD97":2578543.2999999998,"ADDRESS":"復興路６２０巷６６號三樓之６","OBJECTID":424754},"geometry":{"x":178065.11000000034,"y":2578543.3000000007}},{"attributes":{"ID":424780,"DIS_CODE":0,"TOWNNAME":"新營區","LI":"新南里","LIN":"25鄰","STREET":"復興路","SECT":" ","MAREA":" ","LANE":"６２０巷","ALLEY":" ","HOUSE_NO":"６６號三樓之３","E_COORD97":178065.10000000001,"N_COORD97":2578543.2999999998,"ADDRESS":"復興路６２０巷６６號三樓之３","OBJECTID":424755},"geometry":{"x":178065.10000000056,"y":2578543.3000000007}},{"attributes":{"ID":424781,"DIS_CODE":0,"TOWNNAME":"新營區","LI":"忠政里","LIN":"4鄰","STREET":"中正路","SECT":" ","MAREA":" ","LANE":"３９巷","ALLEY":" ","HOUSE_NO":"７號四樓","E_COORD97":180034.64999999999,"N_COORD97":2579173.9199999999,"ADDRESS":"中正路３９巷７號四樓","OBJECTID":424756},"geometry":{"x":180034.65000000037,"y":2579173.9200000018}},{"attributes":{"ID":424782,"DIS_CODE":0,"TOWNNAME":"新營區","LI":"忠政里","LIN":"4鄰","STREET":"中正路","SECT":" ","MAREA":" ","LANE":"３９巷","ALLEY":" ","HOUSE_NO":"１號三樓","E_COORD97":180068.38,"N_COORD97":2579175.9700000002,"ADDRESS":"中正路３９巷１號三樓","OBJECTID":424757},"geometry":{"x":180068.37999999896,"y":2579175.9700000007}},{"attributes":{"ID":424783,"DIS_CODE":0,"TOWNNAME":"新營區","LI":"永生里","LIN":" ","STREET":"康樂街","SECT":" ","MAREA":" ","LANE":"１巷","ALLEY":" ","HOUSE_NO":"２號１樓","E_COORD97":180078.88,"N_COORD97":2577920.0699999998,"ADDRESS":"康樂街１巷２號１樓","OBJECTID":424758},"geometry":{"x":180078.88000000082,"y":2577920.0700000003}},{"attributes":{"ID":424784,"DIS_CODE":0,"TOWNNAME":"新營區","LI":"新南里","LIN":"25鄰","STREET":"復興路","SECT":" ","MAREA":" ","LANE":"６２０巷","ALLEY":" ","HOUSE_NO":"６６號三樓之７","E_COORD97":178065.07999999999,"N_COORD97":2578543.2999999998,"ADDRESS":"復興路６２０巷６６號三樓之７","OBJECTID":424759},"geometry":{"x":178065.08000000007,"y":2578543.3000000007}},{"attributes":{"ID":424785,"DIS_CODE":0,"TOWNNAME":"新營區","LI":"民權里","LIN":"24鄰","STREET":"民治路","SECT":" ","MAREA":" ","LANE":"５３巷","ALLEY":" ","HOUSE_NO":"５之１號三樓","E_COORD97":179701.70999999999,"N_COORD97":2578755.8199999998,"ADDRESS":"民治路５３巷５之１號三樓","OBJECTID":424760},"geometry":{"x":179701.70999999903,"y":2578755.8200000003}},{"attributes":{"ID":424786,"DIS_CODE":0,"TOWNNAME":"新營區","LI":"忠政里","LIN":"4鄰","STREET":"中正路","SECT":" ","MAREA":" ","LANE":"３９巷","ALLEY":" ","HOUSE_NO":"１號四樓","E_COORD97":180068.38,"N_COORD97":2579175.9700000002,"ADDRESS":"中正路３９巷１號四樓","OBJECTID":424761},"geometry":{"x":180068.37999999896,"y":2579175.9700000007}},{"attributes":{"ID":424787,"DIS_CODE":0,"TOWNNAME":"新營區","LI":"新南里","LIN":"25鄰","STREET":"復興路","SECT":" ","MAREA":" ","LANE":"６２０巷","ALLEY":" ","HOUSE_NO":"６６號二樓之１","E_COORD97":178065,"N_COORD97":2578543.2999999998,"ADDRESS":"復興路６２０巷６６號二樓之１","OBJECTID":424762},"geometry":{"x":178065,"y":2578543.3000000007}},{"attributes":{"ID":424788,"DIS_CODE":0,"TOWNNAME":"新營區","LI":"新北里","LIN":"24鄰","STREET":"民生路","SECT":" ","MAREA":" ","LANE":"４２０巷","ALLEY":" ","HOUSE_NO":"４１號六樓之２","E_COORD97":178928.59,"N_COORD97":2579414.02,"ADDRESS":"民生路４２０巷４１號六樓之２","OBJECTID":424763},"geometry":{"x":178928.59000000078,"y":2579414.0200000014}},{"attributes":{"ID":424789,"DIS_CODE":0,"TOWNNAME":"新營區","LI":"民權里","LIN":"24鄰","STREET":"民治路","SECT":" ","MAREA":" ","LANE":"５３巷","ALLEY":" ","HOUSE_NO":"５號二樓","E_COORD97":179688.97,"N_COORD97":2578753.6099999999,"ADDRESS":"民治路５３巷５號二樓","OBJECTID":424764},"geometry":{"x":179688.96999999974,"y":2578753.6099999994}},{"attributes":{"ID":424790,"DIS_CODE":0,"TOWNNAME":"新營區","LI":"民權里","LIN":"24鄰","STREET":"民治路","SECT":" ","MAREA":" ","LANE":"５３巷","ALLEY":" ","HOUSE_NO":"１１號五樓","E_COORD97":179660.17000000001,"N_COORD97":2578676.23,"ADDRESS":"民治路５３巷１１號五樓","OBJECTID":424765},"geometry":{"x":179660.17000000086,"y":2578676.2300000042}},{"attributes":{"ID":424791,"DIS_CODE":0,"TOWNNAME":"新營區","LI":"民權里","LIN":"24鄰","STREET":"民治路","SECT":" ","MAREA":" ","LANE":"５３巷","ALLEY":" ","HOUSE_NO":"１１號二樓","E_COORD97":179660.17000000001,"N_COORD97":2578676.23,"ADDRESS":"民治路５３巷１１號二樓","OBJECTID":424766},"geometry":{"x":179660.17000000086,"y":2578676.2300000042}},{"attributes":{"ID":424792,"DIS_CODE":0,"TOWNNAME":"新營區","LI":"民權里","LIN":"24鄰","STREET":"民治路","SECT":" ","MAREA":" ","LANE":"５３巷","ALLEY":" ","HOUSE_NO":"３號六樓","E_COORD97":179682,"N_COORD97":2578778.0099999998,"ADDRESS":"民治路５３巷３號六樓","OBJECTID":424767},"geometry":{"x":179682.00000000093,"y":2578778.0099999998}},{"attributes":{"ID":424793,"DIS_CODE":0,"TOWNNAME":"新營區","LI":"忠政里","LIN":"4鄰","STREET":"中正路","SECT":" ","MAREA":" ","LANE":"３９巷","ALLEY":" ","HOUSE_NO":"５號二樓","E_COORD97":180044.85999999999,"N_COORD97":2579174.9700000002,"ADDRESS":"中正路３９巷５號二樓","OBJECTID":424768},"geometry":{"x":180044.86000000034,"y":2579174.9700000007}},{"attributes":{"ID":424794,"DIS_CODE":0,"TOWNNAME":"南區","LI":"竹溪里","LIN":"4鄰","STREET":"體育路","SECT":" ","MAREA":" ","LANE":"４１巷","ALLEY":" ","HOUSE_NO":"３０號之１二樓","E_COORD97":168826.23999999999,"N_COORD97":2542234.9300000002,"ADDRESS":"體育路４１巷３０號之１二樓","OBJECTID":424769},"geometry":{"x":168826.24000000115,"y":2542234.9300000016}},{"attributes":{"ID":424795,"DIS_CODE":0,"TOWNNAME":"南區","LI":"竹溪里","LIN":"4鄰","STREET":"體育路","SECT":" ","MAREA":" ","LANE":"４１巷","ALLEY":" ","HOUSE_NO":"３０號之１三樓","E_COORD97":168826.23999999999,"N_COORD97":2542234.9300000002,"ADDRESS":"體育路４１巷３０號之１三樓","OBJECTID":424770},"geometry":{"x":168826.24000000115,"y":2542234.9300000016}},{"attributes":{"ID":424796,"DIS_CODE":0,"TOWNNAME":"南區","LI":"竹溪里","LIN":"4鄰","STREET":"體育路","SECT":" ","MAREA":" ","LANE":"４１巷","ALLEY":" ","HOUSE_NO":"３０號之１五樓","E_COORD97":168826.23999999999,"N_COORD97":2542234.9300000002,"ADDRESS":"體育路４１巷３０號之１五樓","OBJECTID":424771},"geometry":{"x":168826.24000000115,"y":2542234.9300000016}},{"attributes":{"ID":424797,"DIS_CODE":0,"TOWNNAME":"南區","LI":"竹溪里","LIN":"4鄰","STREET":"體育路","SECT":" ","MAREA":" ","LANE":"４１巷","ALLEY":" ","HOUSE_NO":"３０號之１四樓","E_COORD97":168826.23999999999,"N_COORD97":2542234.9300000002,"ADDRESS":"體育路４１巷３０號之１四樓","OBJECTID":424772},"geometry":{"x":168826.24000000115,"y":2542234.9300000016}},{"attributes":{"ID":424798,"DIS_CODE":0,"TOWNNAME":"南區","LI":"竹溪里","LIN":"4鄰","STREET":"體育路","SECT":" ","MAREA":" ","LANE":"４１巷","ALLEY":" ","HOUSE_NO":"３４號之１二樓","E_COORD97":168852.35999999999,"N_COORD97":2542235.96,"ADDRESS":"體育路４１巷３４號之１二樓","OBJECTID":424773},"geometry":{"x":168852.36000000127,"y":2542235.9600000028}},{"attributes":{"ID":424799,"DIS_CODE":0,"TOWNNAME":"南區","LI":"竹溪里","LIN":"4鄰","STREET":"體育路","SECT":" ","MAREA":" ","LANE":"４１巷","ALLEY":" ","HOUSE_NO":"３４號之１三樓","E_COORD97":168852.35999999999,"N_COORD97":2542235.96,"ADDRESS":"體育路４１巷３４號之１三樓","OBJECTID":424774},"geometry":{"x":168852.36000000127,"y":2542235.9600000028}},{"attributes":{"ID":424800,"DIS_CODE":0,"TOWNNAME":"南區","LI":"竹溪里","LIN":"4鄰","STREET":"體育路","SECT":" ","MAREA":" ","LANE":"４１巷","ALLEY":" ","HOUSE_NO":"３４號之１五樓","E_COORD97":168852.35999999999,"N_COORD97":2542235.96,"ADDRESS":"體育路４１巷３４號之１五樓","OBJECTID":424775},"geometry":{"x":168852.36000000127,"y":2542235.9600000028}},{"attributes":{"ID":424801,"DIS_CODE":0,"TOWNNAME":"南區","LI":"竹溪里","LIN":"4鄰","STREET":"體育路","SECT":" ","MAREA":" ","LANE":"４１巷","ALLEY":" ","HOUSE_NO":"３４號之１四樓","E_COORD97":168852.35999999999,"N_COORD97":2542235.96,"ADDRESS":"體育路４１巷３４號之１四樓","OBJECTID":424776},"geometry":{"x":168852.36000000127,"y":2542235.9600000028}},{"attributes":{"ID":424802,"DIS_CODE":0,"TOWNNAME":"南區","LI":"竹溪里","LIN":"4鄰","STREET":"體育路","SECT":" ","MAREA":" ","LANE":"４１巷","ALLEY":" ","HOUSE_NO":"３２號三樓","E_COORD97":168833.41,"N_COORD97":2542237.04,"ADDRESS":"體育路４１巷３２號三樓","OBJECTID":424777},"geometry":{"x":168833.41000000108,"y":2542237.040000001}},{"attributes":{"ID":424803,"DIS_CODE":0,"TOWNNAME":"南區","LI":"竹溪里","LIN":"4鄰","STREET":"體育路","SECT":" ","MAREA":" ","LANE":"４１巷","ALLEY":" ","HOUSE_NO":"３２號五樓","E_COORD97":168833.41,"N_COORD97":2542237.04,"ADDRESS":"體育路４１巷３２號五樓","OBJECTID":424778},"geometry":{"x":168833.41000000108,"y":2542237.040000001}},{"attributes":{"ID":424804,"DIS_CODE":0,"TOWNNAME":"南區","LI":"竹溪里","LIN":"4鄰","STREET":"體育路","SECT":" ","MAREA":" ","LANE":"４１巷","ALLEY":" ","HOUSE_NO":"３２號四樓","E_COORD97":168833.41,"N_COORD97":2542237.04,"ADDRESS":"體育路４１巷３２號四樓","OBJECTID":424779},"geometry":{"x":168833.41000000108,"y":2542237.040000001}},{"attributes":{"ID":424805,"DIS_CODE":0,"TOWNNAME":"南區","LI":"竹溪里","LIN":"4鄰","STREET":"體育路","SECT":" ","MAREA":" ","LANE":"４１巷","ALLEY":" ","HOUSE_NO":"３２號二樓","E_COORD97":168833.41,"N_COORD97":2542237.04,"ADDRESS":"體育路４１巷３２號二樓","OBJECTID":424780},"geometry":{"x":168833.41000000108,"y":2542237.040000001}},{"attributes":{"ID":424806,"DIS_CODE":0,"TOWNNAME":"南區","LI":"竹溪里","LIN":"4鄰","STREET":"體育路","SECT":" ","MAREA":" ","LANE":"４１巷","ALLEY":" ","HOUSE_NO":"３２號之１二樓","E_COORD97":168837.20000000001,"N_COORD97":2542236.5,"ADDRESS":"體育路４１巷３２號之１二樓","OBJECTID":424781},"geometry":{"x":168837.20000000019,"y":2542236.5}},{"attributes":{"ID":424807,"DIS_CODE":0,"TOWNNAME":"南區","LI":"竹溪里","LIN":"4鄰","STREET":"體育路","SECT":" ","MAREA":" ","LANE":"４１巷","ALLEY":" ","HOUSE_NO":"３２號之１三樓","E_COORD97":168837.20000000001,"N_COORD97":2542236.5,"ADDRESS":"體育路４１巷３２號之１三樓","OBJECTID":424782},"geometry":{"x":168837.20000000019,"y":2542236.5}},{"attributes":{"ID":424808,"DIS_CODE":0,"TOWNNAME":"南區","LI":"竹溪里","LIN":"4鄰","STREET":"體育路","SECT":" ","MAREA":" ","LANE":"４１巷","ALLEY":" ","HOUSE_NO":"３２號之１五樓","E_COORD97":168837.20000000001,"N_COORD97":2542236.5,"ADDRESS":"體育路４１巷３２號之１五樓","OBJECTID":424783},"geometry":{"x":168837.20000000019,"y":2542236.5}},{"attributes":{"ID":424809,"DIS_CODE":0,"TOWNNAME":"南區","LI":"竹溪里","LIN":"4鄰","STREET":"體育路","SECT":" ","MAREA":" ","LANE":"４１巷","ALLEY":" ","HOUSE_NO":"３２號之１四樓","E_COORD97":168837.20000000001,"N_COORD97":2542236.5,"ADDRESS":"體育路４１巷３２號之１四樓","OBJECTID":424784},"geometry":{"x":168837.20000000019,"y":2542236.5}},{"attributes":{"ID":424810,"DIS_CODE":0,"TOWNNAME":"南區","LI":"大林里","LIN":"15鄰","STREET":"大同路","SECT":"二段","MAREA":" ","LANE":"４３０巷","ALLEY":" ","HOUSE_NO":"８號二樓之１","E_COORD97":169420.92999999999,"N_COORD97":2541567.7400000002,"ADDRESS":"大同路二段４３０巷８號二樓之１","OBJECTID":424785},"geometry":{"x":169420.93000000063,"y":2541567.7400000002}},{"attributes":{"ID":424811,"DIS_CODE":0,"TOWNNAME":"南區","LI":"大林里","LIN":"15鄰","STREET":"大同路","SECT":"二段","MAREA":" ","LANE":"４３０巷","ALLEY":" ","HOUSE_NO":"８號一樓之１","E_COORD97":169420.92999999999,"N_COORD97":2541567.7400000002,"ADDRESS":"大同路二段４３０巷８號一樓之１","OBJECTID":424786},"geometry":{"x":169420.93000000063,"y":2541567.7400000002}},{"attributes":{"ID":424812,"DIS_CODE":0,"TOWNNAME":"南區","LI":"大林里","LIN":"15鄰","STREET":"大同路","SECT":"二段","MAREA":" ","LANE":"４３０巷","ALLEY":" ","HOUSE_NO":"８號三樓之１","E_COORD97":169420.92999999999,"N_COORD97":2541567.7400000002,"ADDRESS":"大同路二段４３０巷８號三樓之１","OBJECTID":424787},"geometry":{"x":169420.93000000063,"y":2541567.7400000002}},{"attributes":{"ID":424813,"DIS_CODE":0,"TOWNNAME":"東區","LI":"和平里","LIN":"1鄰","STREET":"文化二街","SECT":" ","MAREA":" ","LANE":" ","ALLEY":" ","HOUSE_NO":"１號三樓","E_COORD97":171099.45000000001,"N_COORD97":2542097.2200000002,"ADDRESS":"文化二街１號三樓","OBJECTID":424788},"geometry":{"x":171099.45000000112,"y":2542097.2200000007}},{"attributes":{"ID":424814,"DIS_CODE":0,"TOWNNAME":"南區","LI":"明興里","LIN":"4鄰","STREET":"德興路","SECT":" ","MAREA":" ","LANE":"２０巷","ALLEY":" ","HOUSE_NO":"２４號二樓之１","E_COORD97":167084.16,"N_COORD97":2540839.8399999999,"ADDRESS":"德興路２０巷２４號二樓之１","OBJECTID":424789},"geometry":{"x":167084.16000000108,"y":2540839.8400000017}},{"attributes":{"ID":424815,"DIS_CODE":0,"TOWNNAME":"南區","LI":"明興里","LIN":"4鄰","STREET":"德興路","SECT":" ","MAREA":" ","LANE":"２０巷","ALLEY":" ","HOUSE_NO":"２４號二樓之２","E_COORD97":167084.16,"N_COORD97":2540839.8399999999,"ADDRESS":"德興路２０巷２４號二樓之２","OBJECTID":424790},"geometry":{"x":167084.16000000108,"y":2540839.8400000017}},{"attributes":{"ID":424816,"DIS_CODE":0,"TOWNNAME":"南區","LI":"明興里","LIN":"4鄰","STREET":"德興路","SECT":" ","MAREA":" ","LANE":"２０巷","ALLEY":" ","HOUSE_NO":"２４號三樓之１","E_COORD97":167084.16,"N_COORD97":2540839.8399999999,"ADDRESS":"德興路２０巷２４號三樓之１","OBJECTID":424791},"geometry":{"x":167084.16000000108,"y":2540839.8400000017}},{"attributes":{"ID":424817,"DIS_CODE":0,"TOWNNAME":"南區","LI":"明興里","LIN":"4鄰","STREET":"德興路","SECT":" ","MAREA":" ","LANE":"２０巷","ALLEY":" ","HOUSE_NO":"２４號三樓之２","E_COORD97":167084.16,"N_COORD97":2540839.8399999999,"ADDRESS":"德興路２０巷２４號三樓之２","OBJECTID":424792},"geometry":{"x":167084.16000000108,"y":2540839.8400000017}},{"attributes":{"ID":424818,"DIS_CODE":0,"TOWNNAME":"南區","LI":"明興里","LIN":"4鄰","STREET":"德興路","SECT":" ","MAREA":" ","LANE":"２０巷","ALLEY":" ","HOUSE_NO":"２４號四樓之１","E_COORD97":167084.16,"N_COORD97":2540839.8399999999,"ADDRESS":"德興路２０巷２４號四樓之１","OBJECTID":424793},"geometry":{"x":167084.16000000108,"y":2540839.8400000017}},{"attributes":{"ID":424819,"DIS_CODE":0,"TOWNNAME":"南區","LI":"明興里","LIN":"4鄰","STREET":"德興路","SECT":" ","MAREA":" ","LANE":"２０巷","ALLEY":" ","HOUSE_NO":"２４號四樓之２","E_COORD97":167084.16,"N_COORD97":2540839.8399999999,"ADDRESS":"德興路２０巷２４號四樓之２","OBJECTID":424794},"geometry":{"x":167084.16000000108,"y":2540839.8400000017}},{"attributes":{"ID":424820,"DIS_CODE":0,"TOWNNAME":"安平區","LI":"文平里","LIN":"17鄰","STREET":"建平三街","SECT":" ","MAREA":" ","LANE":"６５巷","ALLEY":" ","HOUSE_NO":"１８號四樓之３之１","E_COORD97":165743.35000000001,"N_COORD97":2542877.1400000001,"ADDRESS":"建平三街６５巷１８號四樓之３之１","OBJECTID":424795},"geometry":{"x":165743.34999999963,"y":2542877.1400000006}},{"attributes":{"ID":424821,"DIS_CODE":0,"TOWNNAME":"安平區","LI":"建平里","LIN":"19鄰","STREET":"怡平路","SECT":" ","MAREA":" ","LANE":"１４０巷","ALLEY":" ","HOUSE_NO":"１９號二樓","E_COORD97":165890.25,"N_COORD97":2543826.3500000001,"ADDRESS":"怡平路１４０巷１９號二樓","OBJECTID":424796},"geometry":{"x":165890.25,"y":2543826.3500000015}},{"attributes":{"ID":424822,"DIS_CODE":0,"TOWNNAME":"安平區","LI":"建平里","LIN":"19鄰","STREET":"怡平路","SECT":" ","MAREA":" ","LANE":"１４０巷","ALLEY":" ","HOUSE_NO":"１９號三樓","E_COORD97":165890.25,"N_COORD97":2543826.3500000001,"ADDRESS":"怡平路１４０巷１９號三樓","OBJECTID":424797},"geometry":{"x":165890.25,"y":2543826.3500000015}},{"attributes":{"ID":424823,"DIS_CODE":0,"TOWNNAME":"安平區","LI":"建平里","LIN":"25鄰","STREET":"建平九街","SECT":" ","MAREA":" ","LANE":"６０巷","ALLEY":" ","HOUSE_NO":"３６號之６四樓","E_COORD97":166055.67999999999,"N_COORD97":2543606.6800000002,"ADDRESS":"建平九街６０巷３６號之６四樓","OBJECTID":424798},"geometry":{"x":166055.68000000063,"y":2543606.6800000016}},{"attributes":{"ID":424824,"DIS_CODE":0,"TOWNNAME":"佳里區","LI":"建南里","LIN":"24鄰","STREET":"成功路","SECT":" ","MAREA":" ","LANE":"２３１巷","ALLEY":" ","HOUSE_NO":"９號","E_COORD97":165397.16,"N_COORD97":2561076.27,"ADDRESS":"成功路２３１巷９號","OBJECTID":424799},"geometry":{"x":165397.16000000108,"y":2561076.2700000014}},{"attributes":{"ID":424825,"DIS_CODE":0,"TOWNNAME":"安平區","LI":"文平里","LIN":"17鄰","STREET":"建平三街","SECT":" ","MAREA":" ","LANE":"６５巷","ALLEY":" ","HOUSE_NO":"１８號二樓之２","E_COORD97":165743.35000000001,"N_COORD97":2542877.1400000001,"ADDRESS":"建平三街６５巷１８號二樓之２","OBJECTID":424800},"geometry":{"x":165743.34999999963,"y":2542877.1400000006}}]}