{"displayFieldName":"TOWNNAME","fieldAliases":{"ID":"ID","DIS_CODE":"DIS_CODE","TOWNNAME":"TOWNNAME","LI":"LI","LIN":"LIN","STREET":"STREET","SECT":"SECT","MAREA":"MAREA","LANE":"LANE","ALLEY":"ALLEY","HOUSE_NO":"HOUSE_NO","E_COORD97":"E_COORD97","N_COORD97":"N_COORD97","ADDRESS":"ADDRESS","OBJECTID":"OBJECTID"},"geometryType":"esriGeometryPoint","spatialReference":{"wkid":102443,"latestWkid":3826},"fields":[{"name":"ID","type":"esriFieldTypeDouble","alias":"ID"},{"name":"DIS_CODE","type":"esriFieldTypeInteger","alias":"DIS_CODE"},{"name":"TOWNNAME","type":"esriFieldTypeString","alias":"TOWNNAME","length":8},{"name":"LI","type":"esriFieldTypeString","alias":"LI","length":8},{"name":"LIN","type":"esriFieldTypeString","alias":"LIN","length":12},{"name":"STREET","type":"esriFieldTypeString","alias":"STREET","length":20},{"name":"SECT","type":"esriFieldTypeString","alias":"SECT","length":8},{"name":"MAREA","type":"esriFieldTypeString","alias":"MAREA","length":12},{"name":"LANE","type":"esriFieldTypeString","alias":"LANE","length":10},{"name":"ALLEY","type":"esriFieldTypeString","alias":"ALLEY","length":10},{"name":"HOUSE_NO","type":"esriFieldTypeString","alias":"HOUSE_NO","length":20},{"name":"E_COORD97","type":"esriFieldTypeDouble","alias":"E_COORD97"},{"name":"N_COORD97","type":"esriFieldTypeDouble","alias":"N_COORD97"},{"name":"ADDRESS","type":"esriFieldTypeString","alias":"ADDRESS","length":50},{"name":"OBJECTID","type":"esriFieldTypeOID","alias":"OBJECTID"}],"features":[{"attributes":{"ID":319009,"DIS_CODE":0,"TOWNNAME":"歸仁區","LI":"後市里","LIN":"26鄰","STREET":"中山路","SECT":"二段","MAREA":" ","LANE":" ","ALLEY":" ","HOUSE_NO":"１０２號","E_COORD97":177335.73000000001,"N_COORD97":2540827.7400000002,"ADDRESS":"中山路二段１０２號","OBJECTID":319001},"geometry":{"x":177335.73000000231,"y":2540827.7400000002}},{"attributes":{"ID":319010,"DIS_CODE":0,"TOWNNAME":"歸仁區","LI":"許厝里","LIN":"39鄰","STREET":"公園路","SECT":" ","MAREA":" ","LANE":" ","ALLEY":" ","HOUSE_NO":"１０２號","E_COORD97":177957.79000000001,"N_COORD97":2540509.2799999998,"ADDRESS":"公園路１０２號","OBJECTID":319002},"geometry":{"x":177957.79000000097,"y":2540509.2800000031}},{"attributes":{"ID":319011,"DIS_CODE":0,"TOWNNAME":"歸仁區","LI":"後市里","LIN":"4鄰","STREET":"大吉街","SECT":" ","MAREA":" ","LANE":" ","ALLEY":" ","HOUSE_NO":"３１號","E_COORD97":177221.56,"N_COORD97":2540726.25,"ADDRESS":"大吉街３１號","OBJECTID":319003},"geometry":{"x":177221.55999999959,"y":2540726.25}},{"attributes":{"ID":319012,"DIS_CODE":0,"TOWNNAME":"歸仁區","LI":"崙頂里","LIN":"18鄰","STREET":"大成一街","SECT":" ","MAREA":" ","LANE":" ","ALLEY":" ","HOUSE_NO":"４１號","E_COORD97":177865.17999999999,"N_COORD97":2540255.9100000001,"ADDRESS":"大成一街４１號","OBJECTID":319004},"geometry":{"x":177865.1799999997,"y":2540255.910000002}},{"attributes":{"ID":319013,"DIS_CODE":0,"TOWNNAME":"歸仁區","LI":"南興里","LIN":"39鄰","STREET":"中山路","SECT":"三段","MAREA":" ","LANE":" ","ALLEY":" ","HOUSE_NO":"６１２號","E_COORD97":175527.51000000001,"N_COORD97":2541060.25,"ADDRESS":"中山路三段６１２號","OBJECTID":319005},"geometry":{"x":175527.50999999978,"y":2541060.2500000019}},{"attributes":{"ID":319014,"DIS_CODE":0,"TOWNNAME":"歸仁區","LI":"南保里","LIN":"20鄰","STREET":"文化街","SECT":"三段","MAREA":" ","LANE":" ","ALLEY":" ","HOUSE_NO":"９５號","E_COORD97":176803.57000000001,"N_COORD97":2541216.2599999998,"ADDRESS":"文化街三段９５號","OBJECTID":319006},"geometry":{"x":176803.5700000003,"y":2541216.2600000016}},{"attributes":{"ID":319015,"DIS_CODE":0,"TOWNNAME":"歸仁區","LI":"後市里","LIN":"26鄰","STREET":"中山路","SECT":"二段","MAREA":" ","LANE":" ","ALLEY":" ","HOUSE_NO":"１４２號","E_COORD97":177237.42999999999,"N_COORD97":2540839.7400000002,"ADDRESS":"中山路二段１４２號","OBJECTID":319007},"geometry":{"x":177237.43000000063,"y":2540839.7400000021}},{"attributes":{"ID":319016,"DIS_CODE":0,"TOWNNAME":"歸仁區","LI":"後市里","LIN":"39鄰","STREET":"民權三街","SECT":" ","MAREA":" ","LANE":" ","ALLEY":" ","HOUSE_NO":"６３號","E_COORD97":177315.92999999999,"N_COORD97":2541073.75,"ADDRESS":"民權三街６３號","OBJECTID":319008},"geometry":{"x":177315.9299999997,"y":2541073.7500000019}},{"attributes":{"ID":319017,"DIS_CODE":0,"TOWNNAME":"歸仁區","LI":"許厝里","LIN":"39鄰","STREET":"公園路","SECT":" ","MAREA":" ","LANE":" ","ALLEY":" ","HOUSE_NO":"１０４號","E_COORD97":177953.69,"N_COORD97":2540508.2799999998,"ADDRESS":"公園路１０４號","OBJECTID":319009},"geometry":{"x":177953.69000000134,"y":2540508.2799999993}},{"attributes":{"ID":319018,"DIS_CODE":0,"TOWNNAME":"北區","LI":"大山里","LIN":" ","STREET":"精忠街","SECT":" ","MAREA":" ","LANE":"２８巷","ALLEY":" ","HOUSE_NO":"１３號","E_COORD97":169535.57999999999,"N_COORD97":2545522.71,"ADDRESS":"精忠街２８巷１３號","OBJECTID":319010},"geometry":{"x":169535.58000000101,"y":2545522.7100000028}},{"attributes":{"ID":319019,"DIS_CODE":0,"TOWNNAME":"北區","LI":"大山里","LIN":" ","STREET":"精忠街","SECT":" ","MAREA":" ","LANE":"２５巷","ALLEY":" ","HOUSE_NO":"１２號","E_COORD97":169452.31,"N_COORD97":2545445.6699999999,"ADDRESS":"精忠街２５巷１２號","OBJECTID":319011},"geometry":{"x":169452.31000000052,"y":2545445.6699999999}},{"attributes":{"ID":319020,"DIS_CODE":0,"TOWNNAME":"北區","LI":"大山里","LIN":" ","STREET":"精忠街","SECT":" ","MAREA":" ","LANE":"１０３巷","ALLEY":" ","HOUSE_NO":"８之７號","E_COORD97":169306.09,"N_COORD97":2545479.8399999999,"ADDRESS":"精忠街１０３巷８之７號","OBJECTID":319012},"geometry":{"x":169306.09000000078,"y":2545479.8400000036}},{"attributes":{"ID":319021,"DIS_CODE":0,"TOWNNAME":"北區","LI":"大山里","LIN":" ","STREET":"精忠街","SECT":" ","MAREA":" ","LANE":"１０３巷","ALLEY":" ","HOUSE_NO":"２９號","E_COORD97":169304.19,"N_COORD97":2545421.1499999999,"ADDRESS":"精忠街１０３巷２９號","OBJECTID":319013},"geometry":{"x":169304.19000000227,"y":2545421.1500000022}},{"attributes":{"ID":319022,"DIS_CODE":0,"TOWNNAME":"北區","LI":"大山里","LIN":" ","STREET":"旭日街","SECT":" ","MAREA":" ","LANE":"１４３巷","ALLEY":" ","HOUSE_NO":"８之１號","E_COORD97":169363.79999999999,"N_COORD97":2545718.46,"ADDRESS":"旭日街１４３巷８之１號","OBJECTID":319014},"geometry":{"x":169363.80000000168,"y":2545718.4600000028}},{"attributes":{"ID":319023,"DIS_CODE":0,"TOWNNAME":"北區","LI":"大山里","LIN":" ","STREET":"旭日街","SECT":" ","MAREA":" ","LANE":"１４３巷","ALLEY":" ","HOUSE_NO":"８之２號","E_COORD97":169361.06,"N_COORD97":2545713.0800000001,"ADDRESS":"旭日街１４３巷８之２號","OBJECTID":319015},"geometry":{"x":169361.05999999959,"y":2545713.0800000019}},{"attributes":{"ID":319024,"DIS_CODE":0,"TOWNNAME":"北區","LI":"大山里","LIN":" ","STREET":"旭日街","SECT":" ","MAREA":" ","LANE":"１４３巷","ALLEY":" ","HOUSE_NO":"２０之３號","E_COORD97":169379.63,"N_COORD97":2545749.02,"ADDRESS":"旭日街１４３巷２０之３號","OBJECTID":319016},"geometry":{"x":169379.62999999989,"y":2545749.0199999996}},{"attributes":{"ID":319025,"DIS_CODE":0,"TOWNNAME":"北區","LI":"大仁里","LIN":" ","STREET":"北門路","SECT":"二段","MAREA":" ","LANE":"３４４巷","ALLEY":" ","HOUSE_NO":"１９之１號","E_COORD97":169598.97,"N_COORD97":2545352.6000000001,"ADDRESS":"北門路二段３４４巷１９之１號","OBJECTID":319017},"geometry":{"x":169598.97000000067,"y":2545352.6000000015}},{"attributes":{"ID":319026,"DIS_CODE":0,"TOWNNAME":"北區","LI":"大仁里","LIN":" ","STREET":"北門路","SECT":"二段","MAREA":" ","LANE":"３４４巷","ALLEY":" ","HOUSE_NO":"２３號","E_COORD97":169593.76000000001,"N_COORD97":2545343.5,"ADDRESS":"北門路二段３４４巷２３號","OBJECTID":319018},"geometry":{"x":169593.75999999978,"y":2545343.5000000019}},{"attributes":{"ID":319027,"DIS_CODE":0,"TOWNNAME":"北區","LI":"大仁里","LIN":" ","STREET":"北門路","SECT":"二段","MAREA":" ","LANE":"２４７巷","ALLEY":" ","HOUSE_NO":"１８號","E_COORD97":169502.10999999999,"N_COORD97":2545370.7999999998,"ADDRESS":"北門路二段２４７巷１８號","OBJECTID":319019},"geometry":{"x":169502.11000000034,"y":2545370.8000000007}},{"attributes":{"ID":319028,"DIS_CODE":0,"TOWNNAME":"北區","LI":"大仁里","LIN":" ","STREET":"北門路","SECT":"二段","MAREA":" ","LANE":"２１７巷","ALLEY":" ","HOUSE_NO":"１８號","E_COORD97":169463.45000000001,"N_COORD97":2545279.1000000001,"ADDRESS":"北門路二段２１７巷１８號","OBJECTID":319020},"geometry":{"x":169463.45000000112,"y":2545279.1000000015}},{"attributes":{"ID":319029,"DIS_CODE":0,"TOWNNAME":"北區","LI":"三德里","LIN":" ","STREET":"裕民街","SECT":" ","MAREA":" ","LANE":" ","ALLEY":" ","HOUSE_NO":"４９號","E_COORD97":168478.29000000001,"N_COORD97":2544481.4500000002,"ADDRESS":"裕民街４９號","OBJECTID":319021},"geometry":{"x":168478.29000000097,"y":2544481.450000003}},{"attributes":{"ID":319030,"DIS_CODE":0,"TOWNNAME":"北區","LI":"三德里","LIN":" ","STREET":"忠義路","SECT":"三段","MAREA":" ","LANE":" ","ALLEY":" ","HOUSE_NO":"２５號","E_COORD97":168511.03,"N_COORD97":2544418.9399999999,"ADDRESS":"忠義路三段２５號","OBJECTID":319022},"geometry":{"x":168511.03000000026,"y":2544418.9400000013}},{"attributes":{"ID":319031,"DIS_CODE":0,"TOWNNAME":"北區","LI":"三德里","LIN":" ","STREET":"忠義路","SECT":"三段","MAREA":" ","LANE":" ","ALLEY":" ","HOUSE_NO":"５９號","E_COORD97":168538.89000000001,"N_COORD97":2544492.29,"ADDRESS":"忠義路三段５９號","OBJECTID":319023},"geometry":{"x":168538.88999999966,"y":2544492.2899999991}},{"attributes":{"ID":319032,"DIS_CODE":0,"TOWNNAME":"北區","LI":"大山里","LIN":" ","STREET":"精忠街","SECT":" ","MAREA":" ","LANE":" ","ALLEY":" ","HOUSE_NO":"１０５號","E_COORD97":169335.79000000001,"N_COORD97":2545502.71,"ADDRESS":"精忠街１０５號","OBJECTID":319024},"geometry":{"x":169335.79000000097,"y":2545502.7100000028}},{"attributes":{"ID":319033,"DIS_CODE":0,"TOWNNAME":"北區","LI":"大山里","LIN":" ","STREET":"旭日街","SECT":" ","MAREA":" ","LANE":" ","ALLEY":" ","HOUSE_NO":"１５３之１號","E_COORD97":169390.19,"N_COORD97":2545713.1600000001,"ADDRESS":"旭日街１５３之１號","OBJECTID":319025},"geometry":{"x":169390.19000000041,"y":2545713.160000002}},{"attributes":{"ID":319034,"DIS_CODE":0,"TOWNNAME":"北區","LI":"大山里","LIN":" ","STREET":"旭日街","SECT":" ","MAREA":" ","LANE":" ","ALLEY":" ","HOUSE_NO":"１５３之３號","E_COORD97":169392.16,"N_COORD97":2545708.4900000002,"ADDRESS":"旭日街１５３之３號","OBJECTID":319026},"geometry":{"x":169392.16000000201,"y":2545708.4900000002}},{"attributes":{"ID":319035,"DIS_CODE":0,"TOWNNAME":"北區","LI":"大山里","LIN":" ","STREET":"旭日街","SECT":" ","MAREA":" ","LANE":" ","ALLEY":" ","HOUSE_NO":"１７３之１號","E_COORD97":169406.89000000001,"N_COORD97":2545740.8700000001,"ADDRESS":"旭日街１７３之１號","OBJECTID":319027},"geometry":{"x":169406.88999999966,"y":2545740.870000001}},{"attributes":{"ID":319036,"DIS_CODE":0,"TOWNNAME":"北區","LI":"大仁里","LIN":" ","STREET":"北門路","SECT":"二段","MAREA":" ","LANE":" ","ALLEY":" ","HOUSE_NO":"３４０號","E_COORD97":169568.32999999999,"N_COORD97":2545377.6099999999,"ADDRESS":"北門路二段３４０號","OBJECTID":319028},"geometry":{"x":169568.33000000007,"y":2545377.6099999994}},{"attributes":{"ID":319037,"DIS_CODE":0,"TOWNNAME":"北區","LI":"大仁里","LIN":" ","STREET":"北門路","SECT":"二段","MAREA":" ","LANE":" ","ALLEY":" ","HOUSE_NO":"３２０號","E_COORD97":169546.76999999999,"N_COORD97":2545339.29,"ADDRESS":"北門路二段３２０號","OBJECTID":319029},"geometry":{"x":169546.77000000142,"y":2545339.2899999991}},{"attributes":{"ID":319038,"DIS_CODE":0,"TOWNNAME":"北區","LI":"大仁里","LIN":" ","STREET":"北門路","SECT":"二段","MAREA":" ","LANE":" ","ALLEY":" ","HOUSE_NO":"２２１號","E_COORD97":169509.35000000001,"N_COORD97":2545276.1800000002,"ADDRESS":"北門路二段２２１號","OBJECTID":319030},"geometry":{"x":169509.35000000056,"y":2545276.1799999997}},{"attributes":{"ID":319039,"DIS_CODE":0,"TOWNNAME":"北區","LI":"大仁里","LIN":" ","STREET":"北門路","SECT":"二段","MAREA":" ","LANE":" ","ALLEY":" ","HOUSE_NO":"２２３號","E_COORD97":169510.92999999999,"N_COORD97":2545279.3300000001,"ADDRESS":"北門路二段２２３號","OBJECTID":319031},"geometry":{"x":169510.93000000063,"y":2545279.3300000001}},{"attributes":{"ID":319040,"DIS_CODE":0,"TOWNNAME":"仁德區","LI":"仁義里","LIN":"4鄰","STREET":"仁義三街","SECT":" ","MAREA":" ","LANE":" ","ALLEY":" ","HOUSE_NO":"２０６號","E_COORD97":173854.17000000001,"N_COORD97":2541112.0099999998,"ADDRESS":"仁義三街２０６號","OBJECTID":319032},"geometry":{"x":173854.17000000086,"y":2541112.0100000016}},{"attributes":{"ID":319041,"DIS_CODE":0,"TOWNNAME":"仁德區","LI":"仁德里","LIN":"38鄰","STREET":"文宏二街","SECT":" ","MAREA":" ","LANE":" ","ALLEY":" ","HOUSE_NO":"１號","E_COORD97":172434.60999999999,"N_COORD97":2541707.3199999998,"ADDRESS":"文宏二街１號","OBJECTID":319033},"geometry":{"x":172434.61000000127,"y":2541707.3200000022}},{"attributes":{"ID":319042,"DIS_CODE":0,"TOWNNAME":"麻豆區","LI":"大埕里","LIN":"9鄰","STREET":" ","SECT":" ","MAREA":"大埕","LANE":" ","ALLEY":" ","HOUSE_NO":"５１號","E_COORD97":173069.32000000001,"N_COORD97":2565406.4500000002,"ADDRESS":"大埕５１號","OBJECTID":319034},"geometry":{"x":173069.3200000003,"y":2565406.4499999993}},{"attributes":{"ID":319043,"DIS_CODE":0,"TOWNNAME":"歸仁區","LI":"看東里","LIN":"11鄰","STREET":"中山一街","SECT":" ","MAREA":" ","LANE":" ","ALLEY":" ","HOUSE_NO":"１１２之５號","E_COORD97":178630.62455499999,"N_COORD97":2540361.79641,"ADDRESS":"中山一街１１２之５號","OBJECTID":319035},"geometry":{"x":178630.6245550001,"y":2540361.7964120023}},{"attributes":{"ID":319044,"DIS_CODE":0,"TOWNNAME":"北區","LI":"大豐里","LIN":"19鄰","STREET":"大興街","SECT":" ","MAREA":" ","LANE":"２３３巷","ALLEY":" ","HOUSE_NO":"３２號","E_COORD97":166851.10000000001,"N_COORD97":2545598.25,"ADDRESS":"大興街２３３巷３２號","OBJECTID":319036},"geometry":{"x":166851.10000000149,"y":2545598.25}},{"attributes":{"ID":319045,"DIS_CODE":0,"TOWNNAME":"安南區","LI":"溪頂里","LIN":"15鄰","STREET":"北安路","SECT":"二段","MAREA":" ","LANE":"３２巷","ALLEY":" ","HOUSE_NO":"８號","E_COORD97":168606.17999999999,"N_COORD97":2547307.79,"ADDRESS":"北安路二段３２巷８號","OBJECTID":319037},"geometry":{"x":168606.1799999997,"y":2547307.790000001}},{"attributes":{"ID":319046,"DIS_CODE":0,"TOWNNAME":"安南區","LI":"溪頂里","LIN":"15鄰","STREET":"北安路","SECT":"二段","MAREA":" ","LANE":"３２巷","ALLEY":" ","HOUSE_NO":"１９號","E_COORD97":168647.42000000001,"N_COORD97":2547333.8199999998,"ADDRESS":"北安路二段３２巷１９號","OBJECTID":319038},"geometry":{"x":168647.41999999993,"y":2547333.8200000003}},{"attributes":{"ID":319047,"DIS_CODE":0,"TOWNNAME":"安南區","LI":"淵中里","LIN":"15鄰","STREET":"安中路","SECT":"四段","MAREA":" ","LANE":"１５４巷","ALLEY":" ","HOUSE_NO":"７３號","E_COORD97":165082.29999999999,"N_COORD97":2550179.9900000002,"ADDRESS":"安中路四段１５４巷７３號","OBJECTID":319039},"geometry":{"x":165082.30000000075,"y":2550179.9900000002}},{"attributes":{"ID":319048,"DIS_CODE":0,"TOWNNAME":"南區","LI":"明興里","LIN":"20鄰","STREET":"金華路","SECT":"一段","MAREA":" ","LANE":"８４巷","ALLEY":" ","HOUSE_NO":"２７號","E_COORD97":166992.51999999999,"N_COORD97":2540440.2799999998,"ADDRESS":"金華路一段８４巷２７號","OBJECTID":319040},"geometry":{"x":166992.52000000048,"y":2540440.2799999993}},{"attributes":{"ID":319049,"DIS_CODE":0,"TOWNNAME":"南區","LI":"明興里","LIN":"20鄰","STREET":"金華路","SECT":"一段","MAREA":" ","LANE":"８４巷","ALLEY":" ","HOUSE_NO":"２９號","E_COORD97":166996.39999999999,"N_COORD97":2540440.2799999998,"ADDRESS":"金華路一段８４巷２９號","OBJECTID":319041},"geometry":{"x":166996.40000000037,"y":2540440.2799999993}},{"attributes":{"ID":319050,"DIS_CODE":0,"TOWNNAME":"南區","LI":"明興里","LIN":"20鄰","STREET":"金華路","SECT":"一段","MAREA":" ","LANE":"８４巷","ALLEY":" ","HOUSE_NO":"３１號","E_COORD97":167001.35999999999,"N_COORD97":2540440.6099999999,"ADDRESS":"金華路一段８４巷３１號","OBJECTID":319042},"geometry":{"x":167001.36000000127,"y":2540440.6100000013}},{"attributes":{"ID":319051,"DIS_CODE":0,"TOWNNAME":"南區","LI":"明興里","LIN":"20鄰","STREET":"金華路","SECT":"一段","MAREA":" ","LANE":"８４巷","ALLEY":" ","HOUSE_NO":"３３號","E_COORD97":167005.89999999999,"N_COORD97":2540440.5299999998,"ADDRESS":"金華路一段８４巷３３號","OBJECTID":319043},"geometry":{"x":167005.9000000013,"y":2540440.5300000012}},{"attributes":{"ID":319052,"DIS_CODE":0,"TOWNNAME":"南區","LI":"同安里","LIN":"13鄰","STREET":"明興路","SECT":" ","MAREA":" ","LANE":"１２８５巷","ALLEY":" ","HOUSE_NO":"６０號","E_COORD97":166496.94,"N_COORD97":2535958.3300000001,"ADDRESS":"明興路１２８５巷６０號","OBJECTID":319044},"geometry":{"x":166496.94000000227,"y":2535958.3300000001}},{"attributes":{"ID":319053,"DIS_CODE":0,"TOWNNAME":"仁德區","LI":"後壁里","LIN":"15鄰","STREET":"德善路","SECT":" ","MAREA":" ","LANE":"１０６巷","ALLEY":" ","HOUSE_NO":"３號","E_COORD97":173409.67000000001,"N_COORD97":2538792.0099999998,"ADDRESS":"德善路１０６巷３號","OBJECTID":319045},"geometry":{"x":173409.67000000086,"y":2538792.0099999998}},{"attributes":{"ID":319054,"DIS_CODE":0,"TOWNNAME":"安南區","LI":"佃西里","LIN":"15鄰","STREET":"海佃路","SECT":"四段","MAREA":" ","LANE":"４５６巷","ALLEY":" ","HOUSE_NO":"４０號","E_COORD97":165469.60999999999,"N_COORD97":2551641.0600000001,"ADDRESS":"海佃路四段４５６巷４０號","OBJECTID":319046},"geometry":{"x":165469.61000000034,"y":2551641.0600000005}},{"attributes":{"ID":319055,"DIS_CODE":0,"TOWNNAME":"中西區","LI":"銀同里","LIN":"15鄰","STREET":"開山路","SECT":" ","MAREA":" ","LANE":"３巷","ALLEY":" ","HOUSE_NO":"１１號","E_COORD97":168627.01000000001,"N_COORD97":2543622.3799999999,"ADDRESS":"開山路３巷１１號","OBJECTID":319047},"geometry":{"x":168627.01000000071,"y":2543622.379999999}},{"attributes":{"ID":319056,"DIS_CODE":0,"TOWNNAME":"中西區","LI":"銀同里","LIN":"15鄰","STREET":"開山路","SECT":" ","MAREA":" ","LANE":"３巷","ALLEY":" ","HOUSE_NO":"１５號","E_COORD97":168629.25,"N_COORD97":2543615.6800000002,"ADDRESS":"開山路３巷１５號","OBJECTID":319048},"geometry":{"x":168629.25000000093,"y":2543615.6799999978}},{"attributes":{"ID":319057,"DIS_CODE":0,"TOWNNAME":"中西區","LI":"銀同里","LIN":"15鄰","STREET":"開山路","SECT":" ","MAREA":" ","LANE":"３巷","ALLEY":" ","HOUSE_NO":"１７號","E_COORD97":168628.62,"N_COORD97":2543605.7599999998,"ADDRESS":"開山路３巷１７號","OBJECTID":319049},"geometry":{"x":168628.62000000104,"y":2543605.7600000016}},{"attributes":{"ID":319058,"DIS_CODE":0,"TOWNNAME":"中西區","LI":"銀同里","LIN":"15鄰","STREET":"開山路","SECT":" ","MAREA":" ","LANE":"３巷","ALLEY":" ","HOUSE_NO":"１９號","E_COORD97":168632.39999999999,"N_COORD97":2543605.27,"ADDRESS":"開山路３巷１９號","OBJECTID":319050},"geometry":{"x":168632.40000000037,"y":2543605.2700000014}},{"attributes":{"ID":319059,"DIS_CODE":0,"TOWNNAME":"中西區","LI":"銀同里","LIN":"15鄰","STREET":"開山路","SECT":" ","MAREA":" ","LANE":"３巷","ALLEY":" ","HOUSE_NO":"２１號","E_COORD97":168634.87,"N_COORD97":2543606.75,"ADDRESS":"開山路３巷２１號","OBJECTID":319051},"geometry":{"x":168634.87000000104,"y":2543606.7500000019}},{"attributes":{"ID":319060,"DIS_CODE":0,"TOWNNAME":"南區","LI":"竹溪里","LIN":"6鄰","STREET":"體育路","SECT":" ","MAREA":" ","LANE":"２１巷","ALLEY":" ","HOUSE_NO":"２４號","E_COORD97":168806.04999999999,"N_COORD97":2542331.3199999998,"ADDRESS":"體育路２１巷２４號","OBJECTID":319052},"geometry":{"x":168806.05000000168,"y":2542331.3200000022}},{"attributes":{"ID":319061,"DIS_CODE":0,"TOWNNAME":"南區","LI":"再興里","LIN":"19鄰","STREET":"新慶街","SECT":" ","MAREA":" ","LANE":"３３巷","ALLEY":" ","HOUSE_NO":"４２號之１","E_COORD97":167199.5,"N_COORD97":2542212.8100000001,"ADDRESS":"新慶街３３巷４２號之１","OBJECTID":319053},"geometry":{"x":167199.49999999907,"y":2542212.8100000024}},{"attributes":{"ID":319062,"DIS_CODE":0,"TOWNNAME":"南區","LI":"明興里","LIN":"12鄰","STREET":"金華路","SECT":"一段","MAREA":" ","LANE":"１００巷","ALLEY":" ","HOUSE_NO":"１３號之２","E_COORD97":166998.82000000001,"N_COORD97":2540467.4500000002,"ADDRESS":"金華路一段１００巷１３號之２","OBJECTID":319054},"geometry":{"x":166998.8200000003,"y":2540467.450000003}},{"attributes":{"ID":319063,"DIS_CODE":0,"TOWNNAME":"南區","LI":"明興里","LIN":"12鄰","STREET":"金華路","SECT":"一段","MAREA":" ","LANE":"１００巷","ALLEY":" ","HOUSE_NO":"１３號之３","E_COORD97":167003.94,"N_COORD97":2540467.7799999998,"ADDRESS":"金華路一段１００巷１３號之３","OBJECTID":319055},"geometry":{"x":167003.94000000134,"y":2540467.7799999993}},{"attributes":{"ID":319064,"DIS_CODE":0,"TOWNNAME":"中西區","LI":"銀同里","LIN":"15鄰","STREET":"開山路","SECT":" ","MAREA":" ","LANE":"３巷","ALLEY":" ","HOUSE_NO":"２３號","E_COORD97":168638.48999999999,"N_COORD97":2543605.27,"ADDRESS":"開山路３巷２３號","OBJECTID":319056},"geometry":{"x":168638.49000000022,"y":2543605.2700000014}},{"attributes":{"ID":319065,"DIS_CODE":0,"TOWNNAME":"中西區","LI":"銀同里","LIN":"15鄰","STREET":"開山路","SECT":" ","MAREA":" ","LANE":"３巷","ALLEY":" ","HOUSE_NO":"２５號","E_COORD97":168642.92999999999,"N_COORD97":2543605.9300000002,"ADDRESS":"開山路３巷２５號","OBJECTID":319057},"geometry":{"x":168642.93000000063,"y":2543605.9299999997}},{"attributes":{"ID":319066,"DIS_CODE":0,"TOWNNAME":"中西區","LI":"安海里","LIN":"17鄰","STREET":"民生路","SECT":"二段","MAREA":" ","LANE":" ","ALLEY":" ","HOUSE_NO":"３０５號五樓之２","E_COORD97":167078.95999999999,"N_COORD97":2544161.6899999999,"ADDRESS":"民生路二段３０５號五樓之２","OBJECTID":319058},"geometry":{"x":167078.95999999996,"y":2544161.6900000013}},{"attributes":{"ID":319067,"DIS_CODE":0,"TOWNNAME":"北區","LI":"大豐里","LIN":"21鄰","STREET":"大興街","SECT":" ","MAREA":" ","LANE":"２７５巷","ALLEY":" ","HOUSE_NO":"６號","E_COORD97":166740.35999999999,"N_COORD97":2545696.9100000001,"ADDRESS":"大興街２７５巷６號","OBJECTID":319059},"geometry":{"x":166740.36000000127,"y":2545696.910000002}},{"attributes":{"ID":319068,"DIS_CODE":0,"TOWNNAME":"新營區","LI":"太南里","LIN":"1鄰","STREET":" ","SECT":" ","MAREA":"太子宮","LANE":" ","ALLEY":" ","HOUSE_NO":"１９３之１號","E_COORD97":176120.56,"N_COORD97":2576971.3599999999,"ADDRESS":"太子宮１９３之１號","OBJECTID":319060},"geometry":{"x":176120.56000000145,"y":2576971.3599999994}},{"attributes":{"ID":319069,"DIS_CODE":0,"TOWNNAME":"北區","LI":"大豐里","LIN":"21鄰","STREET":"大興街","SECT":" ","MAREA":" ","LANE":"２７５巷","ALLEY":" ","HOUSE_NO":"８號","E_COORD97":166740.48999999999,"N_COORD97":2545690.6600000001,"ADDRESS":"大興街２７５巷８號","OBJECTID":319061},"geometry":{"x":166740.49000000209,"y":2545690.6600000001}},{"attributes":{"ID":319070,"DIS_CODE":0,"TOWNNAME":"北區","LI":"大豐里","LIN":"21鄰","STREET":"大興街","SECT":" ","MAREA":" ","LANE":"２７５巷","ALLEY":" ","HOUSE_NO":"１０號","E_COORD97":166740.48999999999,"N_COORD97":2545684.0899999999,"ADDRESS":"大興街２７５巷１０號","OBJECTID":319062},"geometry":{"x":166740.49000000209,"y":2545684.0899999999}},{"attributes":{"ID":319071,"DIS_CODE":0,"TOWNNAME":"北區","LI":"大豐里","LIN":"21鄰","STREET":"大興街","SECT":" ","MAREA":" ","LANE":"２７５巷","ALLEY":" ","HOUSE_NO":"１２號","E_COORD97":166740.56,"N_COORD97":2545677.96,"ADDRESS":"大興街２７５巷１２號","OBJECTID":319063},"geometry":{"x":166740.55999999959,"y":2545677.9600000028}},{"attributes":{"ID":319072,"DIS_CODE":0,"TOWNNAME":"北區","LI":"大豐里","LIN":"4鄰","STREET":"武聖路","SECT":" ","MAREA":" ","LANE":"３６巷","ALLEY":" ","HOUSE_NO":"１２號","E_COORD97":167228.92000000001,"N_COORD97":2545166.54,"ADDRESS":"武聖路３６巷１２號","OBJECTID":319064},"geometry":{"x":167228.92000000179,"y":2545166.540000001}},{"attributes":{"ID":319073,"DIS_CODE":0,"TOWNNAME":"北區","LI":"大豐里","LIN":"4鄰","STREET":"武聖路","SECT":" ","MAREA":" ","LANE":"３６巷","ALLEY":" ","HOUSE_NO":"１４號","E_COORD97":167223.76000000001,"N_COORD97":2545168.5699999998,"ADDRESS":"武聖路３６巷１４號","OBJECTID":319065},"geometry":{"x":167223.76000000071,"y":2545168.5700000003}},{"attributes":{"ID":319074,"DIS_CODE":0,"TOWNNAME":"北區","LI":"大豐里","LIN":"4鄰","STREET":"武聖路","SECT":" ","MAREA":" ","LANE":"３６巷","ALLEY":" ","HOUSE_NO":"１６號","E_COORD97":167219.14999999999,"N_COORD97":2545170.8399999999,"ADDRESS":"武聖路３６巷１６號","OBJECTID":319066},"geometry":{"x":167219.15000000037,"y":2545170.8399999999}},{"attributes":{"ID":319075,"DIS_CODE":0,"TOWNNAME":"北區","LI":"大豐里","LIN":"4鄰","STREET":"武聖路","SECT":" ","MAREA":" ","LANE":"３６巷","ALLEY":" ","HOUSE_NO":"１８號","E_COORD97":167215.39999999999,"N_COORD97":2545172.71,"ADDRESS":"武聖路３６巷１８號","OBJECTID":319067},"geometry":{"x":167215.40000000037,"y":2545172.7100000009}},{"attributes":{"ID":319076,"DIS_CODE":0,"TOWNNAME":"北區","LI":"大豐里","LIN":"4鄰","STREET":"武聖路","SECT":" ","MAREA":" ","LANE":"３６巷","ALLEY":" ","HOUSE_NO":"２０號","E_COORD97":167211.64999999999,"N_COORD97":2545175.1299999999,"ADDRESS":"武聖路３６巷２０號","OBJECTID":319068},"geometry":{"x":167211.6500000013,"y":2545175.1300000027}},{"attributes":{"ID":319077,"DIS_CODE":0,"TOWNNAME":"北區","LI":"大豐里","LIN":"4鄰","STREET":"武聖路","SECT":" ","MAREA":" ","LANE":"３６巷","ALLEY":" ","HOUSE_NO":"２２號","E_COORD97":167207.66,"N_COORD97":2545177.3199999998,"ADDRESS":"武聖路３６巷２２號","OBJECTID":319069},"geometry":{"x":167207.66000000108,"y":2545177.3200000003}},{"attributes":{"ID":319078,"DIS_CODE":0,"TOWNNAME":"北區","LI":"大豐里","LIN":"4鄰","STREET":"武聖路","SECT":" ","MAREA":" ","LANE":"３６巷","ALLEY":" ","HOUSE_NO":"２４號","E_COORD97":167203.91,"N_COORD97":2545179.1099999999,"ADDRESS":"武聖路３６巷２４號","OBJECTID":319070},"geometry":{"x":167203.91000000108,"y":2545179.1100000031}},{"attributes":{"ID":319079,"DIS_CODE":0,"TOWNNAME":"北區","LI":"大豐里","LIN":"4鄰","STREET":"武聖路","SECT":" ","MAREA":" ","LANE":"３６巷","ALLEY":" ","HOUSE_NO":"２６號","E_COORD97":167200.47,"N_COORD97":2545180.9900000002,"ADDRESS":"武聖路３６巷２６號","OBJECTID":319071},"geometry":{"x":167200.46999999974,"y":2545180.9900000021}},{"attributes":{"ID":319080,"DIS_CODE":0,"TOWNNAME":"北區","LI":"大豐里","LIN":"4鄰","STREET":"武聖路","SECT":" ","MAREA":" ","LANE":"３６巷","ALLEY":" ","HOUSE_NO":"２８號","E_COORD97":167196.64000000001,"N_COORD97":2545182.9399999999,"ADDRESS":"武聖路３６巷２８號","OBJECTID":319072},"geometry":{"x":167196.64000000153,"y":2545182.9399999995}},{"attributes":{"ID":319081,"DIS_CODE":0,"TOWNNAME":"北區","LI":"大豐里","LIN":"4鄰","STREET":"武聖路","SECT":" ","MAREA":" ","LANE":"３６巷","ALLEY":" ","HOUSE_NO":"３０號","E_COORD97":167192.42000000001,"N_COORD97":2545185.1800000002,"ADDRESS":"武聖路３６巷３０號","OBJECTID":319073},"geometry":{"x":167192.41999999993,"y":2545185.1799999997}},{"attributes":{"ID":319082,"DIS_CODE":0,"TOWNNAME":"北區","LI":"大豐里","LIN":"4鄰","STREET":"武聖路","SECT":" ","MAREA":" ","LANE":"３６巷","ALLEY":" ","HOUSE_NO":"３２號","E_COORD97":167188.59,"N_COORD97":2545187.29,"ADDRESS":"武聖路３６巷３２號","OBJECTID":319074},"geometry":{"x":167188.59000000171,"y":2545187.2899999991}},{"attributes":{"ID":319083,"DIS_CODE":0,"TOWNNAME":"中西區","LI":"安海里","LIN":"17鄰","STREET":"民生路","SECT":"二段","MAREA":" ","LANE":" ","ALLEY":" ","HOUSE_NO":"３０５號五樓之３","E_COORD97":167078.95999999999,"N_COORD97":2544161.6899999999,"ADDRESS":"民生路二段３０５號五樓之３","OBJECTID":319075},"geometry":{"x":167078.95999999996,"y":2544161.6900000013}},{"attributes":{"ID":319084,"DIS_CODE":0,"TOWNNAME":"楠西區","LI":"鹿田里","LIN":"10鄰","STREET":" ","SECT":" ","MAREA":"油車","LANE":" ","ALLEY":" ","HOUSE_NO":"５４號","E_COORD97":198403.54000000001,"N_COORD97":2562150.25,"ADDRESS":"油車５４號","OBJECTID":319076},"geometry":{"x":198403.54000000097,"y":2562150.25}},{"attributes":{"ID":319085,"DIS_CODE":0,"TOWNNAME":"中西區","LI":"安海里","LIN":"17鄰","STREET":"民生路","SECT":"二段","MAREA":" ","LANE":" ","ALLEY":" ","HOUSE_NO":"３０５號五樓之５","E_COORD97":167078.95999999999,"N_COORD97":2544161.6899999999,"ADDRESS":"民生路二段３０５號五樓之５","OBJECTID":319077},"geometry":{"x":167078.95999999996,"y":2544161.6900000013}},{"attributes":{"ID":319086,"DIS_CODE":0,"TOWNNAME":"中西區","LI":"安海里","LIN":"17鄰","STREET":"民生路","SECT":"二段","MAREA":" ","LANE":" ","ALLEY":" ","HOUSE_NO":"３０５號五樓之６","E_COORD97":167078.95999999999,"N_COORD97":2544161.6899999999,"ADDRESS":"民生路二段３０５號五樓之６","OBJECTID":319078},"geometry":{"x":167078.95999999996,"y":2544161.6900000013}},{"attributes":{"ID":319087,"DIS_CODE":0,"TOWNNAME":"中西區","LI":"安海里","LIN":"17鄰","STREET":"民生路","SECT":"二段","MAREA":" ","LANE":" ","ALLEY":" ","HOUSE_NO":"３０５號五樓之７","E_COORD97":167078.95999999999,"N_COORD97":2544161.6899999999,"ADDRESS":"民生路二段３０５號五樓之７","OBJECTID":319079},"geometry":{"x":167078.95999999996,"y":2544161.6900000013}},{"attributes":{"ID":319088,"DIS_CODE":0,"TOWNNAME":"中西區","LI":"安海里","LIN":"17鄰","STREET":"民生路","SECT":"二段","MAREA":" ","LANE":" ","ALLEY":" ","HOUSE_NO":"３０５號五樓之８","E_COORD97":167078.95999999999,"N_COORD97":2544161.6899999999,"ADDRESS":"民生路二段３０５號五樓之８","OBJECTID":319080},"geometry":{"x":167078.95999999996,"y":2544161.6900000013}},{"attributes":{"ID":319089,"DIS_CODE":0,"TOWNNAME":"中西區","LI":"安海里","LIN":"17鄰","STREET":"民生路","SECT":"二段","MAREA":" ","LANE":" ","ALLEY":" ","HOUSE_NO":"３０５號五樓之９","E_COORD97":167078.95999999999,"N_COORD97":2544161.6899999999,"ADDRESS":"民生路二段３０５號五樓之９","OBJECTID":319081},"geometry":{"x":167078.95999999996,"y":2544161.6900000013}},{"attributes":{"ID":319090,"DIS_CODE":0,"TOWNNAME":"仁德區","LI":"後壁里","LIN":"15鄰","STREET":"德善路","SECT":" ","MAREA":" ","LANE":"１０８巷","ALLEY":" ","HOUSE_NO":"６號","E_COORD97":173454.97,"N_COORD97":2538811.2599999998,"ADDRESS":"德善路１０８巷６號","OBJECTID":319082},"geometry":{"x":173454.97000000067,"y":2538811.2600000035}},{"attributes":{"ID":319091,"DIS_CODE":0,"TOWNNAME":"中西區","LI":"安海里","LIN":"17鄰","STREET":"民生路","SECT":"二段","MAREA":" ","LANE":" ","ALLEY":" ","HOUSE_NO":"３０５號六樓之１","E_COORD97":167078.95999999999,"N_COORD97":2544161.6899999999,"ADDRESS":"民生路二段３０５號六樓之１","OBJECTID":319083},"geometry":{"x":167078.95999999996,"y":2544161.6900000013}},{"attributes":{"ID":319092,"DIS_CODE":0,"TOWNNAME":"中西區","LI":"安海里","LIN":"17鄰","STREET":"民生路","SECT":"二段","MAREA":" ","LANE":" ","ALLEY":" ","HOUSE_NO":"３０５號六樓之２","E_COORD97":167078.95999999999,"N_COORD97":2544161.6899999999,"ADDRESS":"民生路二段３０５號六樓之２","OBJECTID":319084},"geometry":{"x":167078.95999999996,"y":2544161.6900000013}},{"attributes":{"ID":319093,"DIS_CODE":0,"TOWNNAME":"中西區","LI":"安海里","LIN":"17鄰","STREET":"民生路","SECT":"二段","MAREA":" ","LANE":" ","ALLEY":" ","HOUSE_NO":"３０５號六樓之３","E_COORD97":167078.95999999999,"N_COORD97":2544161.6899999999,"ADDRESS":"民生路二段３０５號六樓之３","OBJECTID":319085},"geometry":{"x":167078.95999999996,"y":2544161.6900000013}},{"attributes":{"ID":319094,"DIS_CODE":0,"TOWNNAME":"中西區","LI":"安海里","LIN":"17鄰","STREET":"民生路","SECT":"二段","MAREA":" ","LANE":" ","ALLEY":" ","HOUSE_NO":"３０５號六樓之５","E_COORD97":167078.95999999999,"N_COORD97":2544161.6899999999,"ADDRESS":"民生路二段３０５號六樓之５","OBJECTID":319086},"geometry":{"x":167078.95999999996,"y":2544161.6900000013}},{"attributes":{"ID":319095,"DIS_CODE":0,"TOWNNAME":"中西區","LI":"安海里","LIN":"17鄰","STREET":"民生路","SECT":"二段","MAREA":" ","LANE":" ","ALLEY":" ","HOUSE_NO":"３０５號六樓之６","E_COORD97":167078.95999999999,"N_COORD97":2544161.6899999999,"ADDRESS":"民生路二段３０５號六樓之６","OBJECTID":319087},"geometry":{"x":167078.95999999996,"y":2544161.6900000013}},{"attributes":{"ID":319096,"DIS_CODE":0,"TOWNNAME":"中西區","LI":"安海里","LIN":"17鄰","STREET":"民生路","SECT":"二段","MAREA":" ","LANE":" ","ALLEY":" ","HOUSE_NO":"３０５號六樓之７","E_COORD97":167078.95999999999,"N_COORD97":2544161.6899999999,"ADDRESS":"民生路二段３０５號六樓之７","OBJECTID":319088},"geometry":{"x":167078.95999999996,"y":2544161.6900000013}},{"attributes":{"ID":319097,"DIS_CODE":0,"TOWNNAME":"歸仁區","LI":"看東里","LIN":"11鄰","STREET":"中山一街","SECT":" ","MAREA":" ","LANE":" ","ALLEY":" ","HOUSE_NO":"１１２之６號","E_COORD97":178626.59810100001,"N_COORD97":2540362.0080800001,"ADDRESS":"中山一街１１２之６號","OBJECTID":319089},"geometry":{"x":178626.59810100123,"y":2540362.0080779996}},{"attributes":{"ID":319098,"DIS_CODE":0,"TOWNNAME":"北區","LI":"大豐里","LIN":"4鄰","STREET":"武聖路","SECT":" ","MAREA":" ","LANE":"３６巷","ALLEY":" ","HOUSE_NO":"３８號","E_COORD97":167176.87,"N_COORD97":2545193.2200000002,"ADDRESS":"武聖路３６巷３８號","OBJECTID":319090},"geometry":{"x":167176.87000000197,"y":2545193.2200000044}},{"attributes":{"ID":319099,"DIS_CODE":0,"TOWNNAME":"北區","LI":"大豐里","LIN":"4鄰","STREET":"武聖路","SECT":" ","MAREA":" ","LANE":"３６巷","ALLEY":" ","HOUSE_NO":"４０號","E_COORD97":167172.72,"N_COORD97":2545195.4900000002,"ADDRESS":"武聖路３６巷４０號","OBJECTID":319091},"geometry":{"x":167172.72000000067,"y":2545195.4900000021}},{"attributes":{"ID":319100,"DIS_CODE":0,"TOWNNAME":"北區","LI":"大豐里","LIN":"4鄰","STREET":"武聖路","SECT":" ","MAREA":" ","LANE":"３６巷","ALLEY":" ","HOUSE_NO":"４２號","E_COORD97":167168.89000000001,"N_COORD97":2545196.7400000002,"ADDRESS":"武聖路３６巷４２號","OBJECTID":319092},"geometry":{"x":167168.88999999966,"y":2545196.7400000021}},{"attributes":{"ID":319101,"DIS_CODE":0,"TOWNNAME":"北區","LI":"大豐里","LIN":"4鄰","STREET":"武聖路","SECT":" ","MAREA":" ","LANE":"３６巷","ALLEY":" ","HOUSE_NO":"４４號","E_COORD97":167165.06,"N_COORD97":2545199.1600000001,"ADDRESS":"武聖路３６巷４４號","OBJECTID":319093},"geometry":{"x":167165.06000000052,"y":2545199.1600000001}},{"attributes":{"ID":319102,"DIS_CODE":0,"TOWNNAME":"北區","LI":"大豐里","LIN":"4鄰","STREET":"武聖路","SECT":" ","MAREA":" ","LANE":"３６巷","ALLEY":" ","HOUSE_NO":"４６號","E_COORD97":167162.41,"N_COORD97":2545201.0299999998,"ADDRESS":"武聖路３６巷４６號","OBJECTID":319094},"geometry":{"x":167162.41000000015,"y":2545201.0300000012}},{"attributes":{"ID":319103,"DIS_CODE":0,"TOWNNAME":"北區","LI":"大豐里","LIN":"4鄰","STREET":"武聖路","SECT":" ","MAREA":" ","LANE":"３６巷","ALLEY":" ","HOUSE_NO":"４８號","E_COORD97":167158.92999999999,"N_COORD97":2545203.1299999999,"ADDRESS":"武聖路３６巷４８號","OBJECTID":319095},"geometry":{"x":167158.92999999877,"y":2545203.1300000008}},{"attributes":{"ID":319104,"DIS_CODE":0,"TOWNNAME":"北區","LI":"大豐里","LIN":"4鄰","STREET":"武聖路","SECT":" ","MAREA":" ","LANE":"３６巷","ALLEY":" ","HOUSE_NO":"５０號","E_COORD97":167154.70999999999,"N_COORD97":2545205.0099999998,"ADDRESS":"武聖路３６巷５０號","OBJECTID":319096},"geometry":{"x":167154.71000000089,"y":2545205.0100000016}},{"attributes":{"ID":319105,"DIS_CODE":0,"TOWNNAME":"北區","LI":"大豐里","LIN":"4鄰","STREET":"武聖路","SECT":" ","MAREA":" ","LANE":"３６巷","ALLEY":" ","HOUSE_NO":"５２號","E_COORD97":167150.95999999999,"N_COORD97":2545206.8799999999,"ADDRESS":"武聖路３６巷５２號","OBJECTID":319097},"geometry":{"x":167150.96000000089,"y":2545206.879999999}},{"attributes":{"ID":319106,"DIS_CODE":0,"TOWNNAME":"北區","LI":"大豐里","LIN":"4鄰","STREET":"武聖路","SECT":" ","MAREA":" ","LANE":"３６巷","ALLEY":" ","HOUSE_NO":"５４號","E_COORD97":167147.35999999999,"N_COORD97":2545208.9100000001,"ADDRESS":"武聖路３６巷５４號","OBJECTID":319098},"geometry":{"x":167147.36000000127,"y":2545208.910000002}},{"attributes":{"ID":319107,"DIS_CODE":0,"TOWNNAME":"北區","LI":"大豐里","LIN":"4鄰","STREET":"武聖路","SECT":" ","MAREA":" ","LANE":"３６巷","ALLEY":" ","HOUSE_NO":"５６號","E_COORD97":167143.53,"N_COORD97":2545210.9399999999,"ADDRESS":"武聖路３６巷５６號","OBJECTID":319099},"geometry":{"x":167143.53000000026,"y":2545210.9400000032}},{"attributes":{"ID":319108,"DIS_CODE":0,"TOWNNAME":"中西區","LI":"銀同里","LIN":"15鄰","STREET":"開山路","SECT":" ","MAREA":" ","LANE":"３巷","ALLEY":" ","HOUSE_NO":"２７號","E_COORD97":168648.45000000001,"N_COORD97":2543612.0099999998,"ADDRESS":"開山路３巷２７號","OBJECTID":319100},"geometry":{"x":168648.45000000112,"y":2543612.0100000016}},{"attributes":{"ID":319109,"DIS_CODE":0,"TOWNNAME":"中西區","LI":"銀同里","LIN":"15鄰","STREET":"開山路","SECT":" ","MAREA":" ","LANE":"３巷","ALLEY":" ","HOUSE_NO":"２９號","E_COORD97":168654.66,"N_COORD97":2543608.9700000002,"ADDRESS":"開山路３巷２９號","OBJECTID":319101},"geometry":{"x":168654.66000000015,"y":2543608.9700000025}},{"attributes":{"ID":319110,"DIS_CODE":0,"TOWNNAME":"中西區","LI":"銀同里","LIN":"15鄰","STREET":"開山路","SECT":" ","MAREA":" ","LANE":"３巷","ALLEY":" ","HOUSE_NO":"３１號","E_COORD97":168660.29000000001,"N_COORD97":2543610.77,"ADDRESS":"開山路３巷３１號","OBJECTID":319102},"geometry":{"x":168660.29000000004,"y":2543610.7699999996}},{"attributes":{"ID":319111,"DIS_CODE":0,"TOWNNAME":"中西區","LI":"銀同里","LIN":"15鄰","STREET":"開山路","SECT":" ","MAREA":" ","LANE":"３巷","ALLEY":" ","HOUSE_NO":"３３號","E_COORD97":168663.67000000001,"N_COORD97":2543610.3199999998,"ADDRESS":"開山路３巷３３號","OBJECTID":319103},"geometry":{"x":168663.67000000086,"y":2543610.3200000022}},{"attributes":{"ID":319112,"DIS_CODE":0,"TOWNNAME":"中西區","LI":"銀同里","LIN":"15鄰","STREET":"開山路","SECT":" ","MAREA":" ","LANE":"３巷","ALLEY":" ","HOUSE_NO":"３５號","E_COORD97":168669.10000000001,"N_COORD97":2543608.8599999999,"ADDRESS":"開山路３巷３５號","OBJECTID":319104},"geometry":{"x":168669.09999999963,"y":2543608.8600000013}},{"attributes":{"ID":319113,"DIS_CODE":0,"TOWNNAME":"中西區","LI":"銀同里","LIN":"15鄰","STREET":"開山路","SECT":" ","MAREA":" ","LANE":"３巷","ALLEY":" ","HOUSE_NO":"３７號","E_COORD97":168675.51999999999,"N_COORD97":2543610.1000000001,"ADDRESS":"開山路３巷３７號","OBJECTID":319105},"geometry":{"x":168675.52000000142,"y":2543610.1000000015}},{"attributes":{"ID":319114,"DIS_CODE":0,"TOWNNAME":"中西區","LI":"銀同里","LIN":"15鄰","STREET":"開山路","SECT":" ","MAREA":" ","LANE":"３巷","ALLEY":" ","HOUSE_NO":"３９號","E_COORD97":168685.66,"N_COORD97":2543606.1600000001,"ADDRESS":"開山路３巷３９號","OBJECTID":319106},"geometry":{"x":168685.66000000108,"y":2543606.1599999983}},{"attributes":{"ID":319115,"DIS_CODE":0,"TOWNNAME":"中西區","LI":"銀同里","LIN":"15鄰","STREET":"開山路","SECT":" ","MAREA":" ","LANE":"３巷","ALLEY":" ","HOUSE_NO":"４１號","E_COORD97":168687.25,"N_COORD97":2543616.27,"ADDRESS":"開山路３巷４１號","OBJECTID":319107},"geometry":{"x":168687.25,"y":2543616.2700000014}},{"attributes":{"ID":319116,"DIS_CODE":0,"TOWNNAME":"中西區","LI":"銀同里","LIN":"15鄰","STREET":"開山路","SECT":" ","MAREA":" ","LANE":"３巷","ALLEY":" ","HOUSE_NO":"４３號","E_COORD97":168686.10000000001,"N_COORD97":2543619.7400000002,"ADDRESS":"開山路３巷４３號","OBJECTID":319108},"geometry":{"x":168686.09999999963,"y":2543619.7400000021}},{"attributes":{"ID":319117,"DIS_CODE":0,"TOWNNAME":"中西區","LI":"天后里","LIN":"15鄰","STREET":"赤嵌街","SECT":" ","MAREA":" ","LANE":"１５巷","ALLEY":" ","HOUSE_NO":"１１號","E_COORD97":168167.73999999999,"N_COORD97":2544252.2999999998,"ADDRESS":"赤嵌街１５巷１１號","OBJECTID":319109},"geometry":{"x":168167.73999999929,"y":2544252.3000000007}},{"attributes":{"ID":319118,"DIS_CODE":0,"TOWNNAME":"中西區","LI":"天后里","LIN":"15鄰","STREET":"赤嵌街","SECT":" ","MAREA":" ","LANE":"１５巷","ALLEY":" ","HOUSE_NO":"１３號","E_COORD97":168162.32999999999,"N_COORD97":2544256.3500000001,"ADDRESS":"赤嵌街１５巷１３號","OBJECTID":319110},"geometry":{"x":168162.33000000101,"y":2544256.3500000015}},{"attributes":{"ID":319119,"DIS_CODE":0,"TOWNNAME":"中西區","LI":"安海里","LIN":"17鄰","STREET":"民生路","SECT":"二段","MAREA":" ","LANE":" ","ALLEY":" ","HOUSE_NO":"３０５號六樓之８","E_COORD97":167078.95999999999,"N_COORD97":2544161.6899999999,"ADDRESS":"民生路二段３０５號六樓之８","OBJECTID":319111},"geometry":{"x":167078.95999999996,"y":2544161.6900000013}},{"attributes":{"ID":319120,"DIS_CODE":0,"TOWNNAME":"中西區","LI":"安海里","LIN":"17鄰","STREET":"民生路","SECT":"二段","MAREA":" ","LANE":" ","ALLEY":" ","HOUSE_NO":"３０５號六樓之９","E_COORD97":167078.95999999999,"N_COORD97":2544161.6899999999,"ADDRESS":"民生路二段３０５號六樓之９","OBJECTID":319112},"geometry":{"x":167078.95999999996,"y":2544161.6900000013}},{"attributes":{"ID":319121,"DIS_CODE":0,"TOWNNAME":"中西區","LI":"安海里","LIN":"17鄰","STREET":"民生路","SECT":"二段","MAREA":" ","LANE":" ","ALLEY":" ","HOUSE_NO":"３０５號四樓之１","E_COORD97":167078.95999999999,"N_COORD97":2544161.6899999999,"ADDRESS":"民生路二段３０５號四樓之１","OBJECTID":319113},"geometry":{"x":167078.95999999996,"y":2544161.6900000013}},{"attributes":{"ID":319122,"DIS_CODE":0,"TOWNNAME":"中西區","LI":"安海里","LIN":"17鄰","STREET":"民生路","SECT":"二段","MAREA":" ","LANE":" ","ALLEY":" ","HOUSE_NO":"３０５號四樓之２","E_COORD97":167078.95999999999,"N_COORD97":2544161.6899999999,"ADDRESS":"民生路二段３０５號四樓之２","OBJECTID":319114},"geometry":{"x":167078.95999999996,"y":2544161.6900000013}},{"attributes":{"ID":319123,"DIS_CODE":0,"TOWNNAME":"中西區","LI":"安海里","LIN":"17鄰","STREET":"民生路","SECT":"二段","MAREA":" ","LANE":" ","ALLEY":" ","HOUSE_NO":"３０５號四樓之３","E_COORD97":167078.95999999999,"N_COORD97":2544161.6899999999,"ADDRESS":"民生路二段３０５號四樓之３","OBJECTID":319115},"geometry":{"x":167078.95999999996,"y":2544161.6900000013}},{"attributes":{"ID":319124,"DIS_CODE":0,"TOWNNAME":"中西區","LI":"安海里","LIN":"17鄰","STREET":"民生路","SECT":"二段","MAREA":" ","LANE":" ","ALLEY":" ","HOUSE_NO":"３０５號四樓之７","E_COORD97":167078.95999999999,"N_COORD97":2544161.6899999999,"ADDRESS":"民生路二段３０５號四樓之７","OBJECTID":319116},"geometry":{"x":167078.95999999996,"y":2544161.6900000013}},{"attributes":{"ID":319125,"DIS_CODE":0,"TOWNNAME":"中西區","LI":"安海里","LIN":"17鄰","STREET":"民生路","SECT":"二段","MAREA":" ","LANE":" ","ALLEY":" ","HOUSE_NO":"３０５號四樓之８","E_COORD97":167078.95999999999,"N_COORD97":2544161.6899999999,"ADDRESS":"民生路二段３０５號四樓之８","OBJECTID":319117},"geometry":{"x":167078.95999999996,"y":2544161.6900000013}},{"attributes":{"ID":319126,"DIS_CODE":0,"TOWNNAME":"中西區","LI":"安海里","LIN":"17鄰","STREET":"民生路","SECT":"二段","MAREA":" ","LANE":" ","ALLEY":" ","HOUSE_NO":"３０５號四樓之９","E_COORD97":167078.95999999999,"N_COORD97":2544161.6899999999,"ADDRESS":"民生路二段３０５號四樓之９","OBJECTID":319118},"geometry":{"x":167078.95999999996,"y":2544161.6900000013}},{"attributes":{"ID":319127,"DIS_CODE":0,"TOWNNAME":"永康區","LI":"烏竹里","LIN":"17鄰","STREET":"竹園一街","SECT":" ","MAREA":" ","LANE":" ","ALLEY":" ","HOUSE_NO":"５３號六樓之２","E_COORD97":174393.59,"N_COORD97":2548940.3300000001,"ADDRESS":"竹園一街５３號六樓之２","OBJECTID":319119},"geometry":{"x":174393.59000000078,"y":2548940.3300000001}},{"attributes":{"ID":319128,"DIS_CODE":0,"TOWNNAME":"永康區","LI":"烏竹里","LIN":"17鄰","STREET":"竹園一街","SECT":" ","MAREA":" ","LANE":" ","ALLEY":" ","HOUSE_NO":"５１號七樓之２","E_COORD97":174398.45000000001,"N_COORD97":2548942.0800000001,"ADDRESS":"竹園一街５１號七樓之２","OBJECTID":319120},"geometry":{"x":174398.45000000112,"y":2548942.0800000001}},{"attributes":{"ID":319129,"DIS_CODE":0,"TOWNNAME":"北區","LI":"小康里","LIN":" ","STREET":"實踐街","SECT":" ","MAREA":" ","LANE":"３９巷","ALLEY":" ","HOUSE_NO":"８７號","E_COORD97":169905.53,"N_COORD97":2546274.5800000001,"ADDRESS":"實踐街３９巷８７號","OBJECTID":319121},"geometry":{"x":169905.53000000119,"y":2546274.5800000001}},{"attributes":{"ID":319130,"DIS_CODE":0,"TOWNNAME":"北區","LI":"中樓里","LIN":" ","STREET":"東豐路","SECT":" ","MAREA":" ","LANE":"８５巷","ALLEY":" ","HOUSE_NO":"２７號","E_COORD97":169685.97,"N_COORD97":2544991.6499999999,"ADDRESS":"東豐路８５巷２７號","OBJECTID":319122},"geometry":{"x":169685.96999999974,"y":2544991.6500000004}},{"attributes":{"ID":319131,"DIS_CODE":0,"TOWNNAME":"北區","LI":"中樓里","LIN":" ","STREET":"東豐路","SECT":" ","MAREA":" ","LANE":"１０５巷","ALLEY":" ","HOUSE_NO":"１號","E_COORD97":169708.48999999999,"N_COORD97":2544935.9300000002,"ADDRESS":"東豐路１０５巷１號","OBJECTID":319123},"geometry":{"x":169708.49000000022,"y":2544935.9299999997}},{"attributes":{"ID":319132,"DIS_CODE":0,"TOWNNAME":"北區","LI":"中樓里","LIN":" ","STREET":"東豐路","SECT":" ","MAREA":" ","LANE":"１０５巷","ALLEY":" ","HOUSE_NO":"２號","E_COORD97":169713.85999999999,"N_COORD97":2544936.8799999999,"ADDRESS":"東豐路１０５巷２號","OBJECTID":319124},"geometry":{"x":169713.86000000127,"y":2544936.8800000008}},{"attributes":{"ID":319133,"DIS_CODE":0,"TOWNNAME":"北區","LI":"中樓里","LIN":" ","STREET":"東豐路","SECT":" ","MAREA":" ","LANE":"１４３巷","ALLEY":" ","HOUSE_NO":"２０號","E_COORD97":169839.75,"N_COORD97":2544948.1000000001,"ADDRESS":"東豐路１４３巷２０號","OBJECTID":319125},"geometry":{"x":169839.75000000093,"y":2544948.0999999996}},{"attributes":{"ID":319134,"DIS_CODE":0,"TOWNNAME":"北區","LI":"中樓里","LIN":" ","STREET":"東豐路","SECT":" ","MAREA":" ","LANE":"１３３巷","ALLEY":" ","HOUSE_NO":"６６號","E_COORD97":169774.54999999999,"N_COORD97":2545005.1899999999,"ADDRESS":"東豐路１３３巷６６號","OBJECTID":319126},"geometry":{"x":169774.55000000075,"y":2545005.1899999995}},{"attributes":{"ID":319135,"DIS_CODE":0,"TOWNNAME":"北區","LI":"中樓里","LIN":" ","STREET":"開元路","SECT":" ","MAREA":" ","LANE":"９０巷","ALLEY":" ","HOUSE_NO":"１２１號","E_COORD97":169871.5,"N_COORD97":2545064.7200000002,"ADDRESS":"開元路９０巷１２１號","OBJECTID":319127},"geometry":{"x":169871.50000000093,"y":2545064.7200000025}},{"attributes":{"ID":319136,"DIS_CODE":0,"TOWNNAME":"北區","LI":"中樓里","LIN":" ","STREET":"開元路","SECT":" ","MAREA":" ","LANE":"９０巷","ALLEY":" ","HOUSE_NO":"３號","E_COORD97":169798.66,"N_COORD97":2545170.7000000002,"ADDRESS":"開元路９０巷３號","OBJECTID":319128},"geometry":{"x":169798.66000000015,"y":2545170.6999999993}},{"attributes":{"ID":319137,"DIS_CODE":0,"TOWNNAME":"中西區","LI":"天后里","LIN":"15鄰","STREET":"赤嵌街","SECT":" ","MAREA":" ","LANE":"１５巷","ALLEY":" ","HOUSE_NO":"１７號","E_COORD97":168152.89000000001,"N_COORD97":2544256.71,"ADDRESS":"赤嵌街１５巷１７號","OBJECTID":319129},"geometry":{"x":168152.8900000006,"y":2544256.7100000009}},{"attributes":{"ID":319138,"DIS_CODE":0,"TOWNNAME":"中西區","LI":"天后里","LIN":"15鄰","STREET":"赤嵌街","SECT":" ","MAREA":" ","LANE":"１５巷","ALLEY":" ","HOUSE_NO":"９號","E_COORD97":168160.44,"N_COORD97":2544237.7000000002,"ADDRESS":"赤嵌街１５巷９號","OBJECTID":319130},"geometry":{"x":168160.44000000134,"y":2544237.6999999993}},{"attributes":{"ID":319139,"DIS_CODE":0,"TOWNNAME":"中西區","LI":"青年里","LIN":"15鄰","STREET":"青年路","SECT":" ","MAREA":" ","LANE":"４７巷","ALLEY":" ","HOUSE_NO":"１２號","E_COORD97":168657.5,"N_COORD97":2543693.6200000001,"ADDRESS":"青年路４７巷１２號","OBJECTID":319131},"geometry":{"x":168657.50000000186,"y":2543693.6200000029}},{"attributes":{"ID":319140,"DIS_CODE":0,"TOWNNAME":"仁德區","LI":"後壁里","LIN":"15鄰","STREET":"德善路","SECT":" ","MAREA":" ","LANE":"１０８巷","ALLEY":" ","HOUSE_NO":"４０號","E_COORD97":173490.13,"N_COORD97":2538730.2599999998,"ADDRESS":"德善路１０８巷４０號","OBJECTID":319132},"geometry":{"x":173490.13000000082,"y":2538730.2600000016}},{"attributes":{"ID":319141,"DIS_CODE":0,"TOWNNAME":"仁德區","LI":"後壁里","LIN":"15鄰","STREET":"德南路","SECT":" ","MAREA":" ","LANE":"１３７巷","ALLEY":" ","HOUSE_NO":"６６之１號","E_COORD97":173625.53,"N_COORD97":2538661.1200000001,"ADDRESS":"德南路１３７巷６６之１號","OBJECTID":319133},"geometry":{"x":173625.53000000026,"y":2538661.1200000048}},{"attributes":{"ID":319142,"DIS_CODE":0,"TOWNNAME":"永康區","LI":"烏竹里","LIN":"17鄰","STREET":"竹園一街","SECT":" ","MAREA":" ","LANE":" ","ALLEY":" ","HOUSE_NO":"５１號四樓之２","E_COORD97":174398.45000000001,"N_COORD97":2548942.0800000001,"ADDRESS":"竹園一街５１號四樓之２","OBJECTID":319134},"geometry":{"x":174398.45000000112,"y":2548942.0800000001}},{"attributes":{"ID":319143,"DIS_CODE":0,"TOWNNAME":"永康區","LI":"烏竹里","LIN":"17鄰","STREET":"竹園一街","SECT":" ","MAREA":" ","LANE":" ","ALLEY":" ","HOUSE_NO":"５３號四樓之２","E_COORD97":174393.59,"N_COORD97":2548940.3300000001,"ADDRESS":"竹園一街５３號四樓之２","OBJECTID":319135},"geometry":{"x":174393.59000000078,"y":2548940.3300000001}},{"attributes":{"ID":319144,"DIS_CODE":0,"TOWNNAME":"永康區","LI":"烏竹里","LIN":"17鄰","STREET":"竹園一街","SECT":" ","MAREA":" ","LANE":" ","ALLEY":" ","HOUSE_NO":"５９號六樓之１","E_COORD97":174399.67000000001,"N_COORD97":2548923.0800000001,"ADDRESS":"竹園一街５９號六樓之１","OBJECTID":319136},"geometry":{"x":174399.67000000086,"y":2548923.0800000038}},{"attributes":{"ID":319145,"DIS_CODE":0,"TOWNNAME":"永康區","LI":"烏竹里","LIN":"17鄰","STREET":"竹園一街","SECT":" ","MAREA":" ","LANE":" ","ALLEY":" ","HOUSE_NO":"６１號三樓之２","E_COORD97":174414.39000000001,"N_COORD97":2548929.3300000001,"ADDRESS":"竹園一街６１號三樓之２","OBJECTID":319137},"geometry":{"x":174414.38999999966,"y":2548929.3300000019}},{"attributes":{"ID":319146,"DIS_CODE":0,"TOWNNAME":"永康區","LI":"烏竹里","LIN":"17鄰","STREET":"竹園一街","SECT":" ","MAREA":" ","LANE":" ","ALLEY":" ","HOUSE_NO":"５７號七樓之１","E_COORD97":174385.79999999999,"N_COORD97":2548919.0800000001,"ADDRESS":"竹園一街５７號七樓之１","OBJECTID":319138},"geometry":{"x":174385.79999999981,"y":2548919.0800000001}},{"attributes":{"ID":319147,"DIS_CODE":0,"TOWNNAME":"永康區","LI":"烏竹里","LIN":"17鄰","STREET":"竹園一街","SECT":" ","MAREA":" ","LANE":" ","ALLEY":" ","HOUSE_NO":"５３號四樓之１","E_COORD97":174393.45999999999,"N_COORD97":2548940.3300000001,"ADDRESS":"竹園一街５３號四樓之１","OBJECTID":319139},"geometry":{"x":174393.45999999996,"y":2548940.3300000001}},{"attributes":{"ID":319148,"DIS_CODE":0,"TOWNNAME":"永康區","LI":"烏竹里","LIN":"17鄰","STREET":"竹園一街","SECT":" ","MAREA":" ","LANE":" ","ALLEY":" ","HOUSE_NO":"５１號四樓之１","E_COORD97":174398.32000000001,"N_COORD97":2548942.0800000001,"ADDRESS":"竹園一街５１號四樓之１","OBJECTID":319140},"geometry":{"x":174398.3200000003,"y":2548942.0800000001}},{"attributes":{"ID":319149,"DIS_CODE":0,"TOWNNAME":"歸仁區","LI":"看東里","LIN":"11鄰","STREET":"中山一街","SECT":" ","MAREA":" ","LANE":" ","ALLEY":" ","HOUSE_NO":"１１２之８號","E_COORD97":178616.426007,"N_COORD97":2540361.5847499999,"ADDRESS":"中山一街１１２之８號","OBJECTID":319141},"geometry":{"x":178616.42600700073,"y":2540361.584745001}},{"attributes":{"ID":319150,"DIS_CODE":0,"TOWNNAME":"仁德區","LI":"後壁里","LIN":"15鄰","STREET":"德南路","SECT":" ","MAREA":" ","LANE":"１３７巷","ALLEY":" ","HOUSE_NO":"６６之６號","E_COORD97":173639.23999999999,"N_COORD97":2538649.8700000001,"ADDRESS":"德南路１３７巷６６之６號","OBJECTID":319142},"geometry":{"x":173639.24000000022,"y":2538649.8700000029}},{"attributes":{"ID":319151,"DIS_CODE":0,"TOWNNAME":"仁德區","LI":"後壁里","LIN":"15鄰","STREET":"德南路","SECT":" ","MAREA":" ","LANE":"１３７巷","ALLEY":" ","HOUSE_NO":"６８之２號","E_COORD97":173636.60999999999,"N_COORD97":2538667.6200000001,"ADDRESS":"德南路１３７巷６８之２號","OBJECTID":319143},"geometry":{"x":173636.61000000127,"y":2538667.6200000048}},{"attributes":{"ID":319152,"DIS_CODE":0,"TOWNNAME":"仁德區","LI":"後壁里","LIN":"15鄰","STREET":"德善路","SECT":" ","MAREA":" ","LANE":"１０８巷","ALLEY":" ","HOUSE_NO":"４號","E_COORD97":173449.37,"N_COORD97":2538813.5099999998,"ADDRESS":"德善路１０８巷４號","OBJECTID":319144},"geometry":{"x":173449.37000000104,"y":2538813.5100000016}},{"attributes":{"ID":319153,"DIS_CODE":0,"TOWNNAME":"仁德區","LI":"後壁里","LIN":"15鄰","STREET":"德南路","SECT":" ","MAREA":" ","LANE":"１３７巷","ALLEY":" ","HOUSE_NO":"６８之３號","E_COORD97":173640.07999999999,"N_COORD97":2538664.6200000001,"ADDRESS":"德南路１３７巷６８之３號","OBJECTID":319145},"geometry":{"x":173640.08000000007,"y":2538664.6200000048}},{"attributes":{"ID":319154,"DIS_CODE":0,"TOWNNAME":"仁德區","LI":"新田里","LIN":"15鄰","STREET":"北保東路","SECT":" ","MAREA":" ","LANE":"８巷","ALLEY":" ","HOUSE_NO":"５號","E_COORD97":173370.98000000001,"N_COORD97":2539383.75,"ADDRESS":"北保東路８巷５號","OBJECTID":319146},"geometry":{"x":173370.98000000138,"y":2539383.75}},{"attributes":{"ID":319155,"DIS_CODE":0,"TOWNNAME":"仁德區","LI":"後壁里","LIN":"15鄰","STREET":"德善路","SECT":" ","MAREA":" ","LANE":"１０８巷","ALLEY":" ","HOUSE_NO":"３４號","E_COORD97":173489,"N_COORD97":2538756.02,"ADDRESS":"德善路１０８巷３４號","OBJECTID":319147},"geometry":{"x":173489.00000000093,"y":2538756.0200000014}},{"attributes":{"ID":319156,"DIS_CODE":0,"TOWNNAME":"永康區","LI":"烏竹里","LIN":"17鄰","STREET":"竹園一街","SECT":" ","MAREA":" ","LANE":" ","ALLEY":" ","HOUSE_NO":"５９號五樓之１","E_COORD97":174399.67000000001,"N_COORD97":2548923.0800000001,"ADDRESS":"竹園一街５９號五樓之１","OBJECTID":319148},"geometry":{"x":174399.67000000086,"y":2548923.0800000038}},{"attributes":{"ID":319157,"DIS_CODE":0,"TOWNNAME":"北區","LI":"六甲里","LIN":"4鄰","STREET":"公園路","SECT":" ","MAREA":" ","LANE":"４８７巷","ALLEY":" ","HOUSE_NO":"４０號","E_COORD97":168948.51000000001,"N_COORD97":2545568.2200000002,"ADDRESS":"公園路４８７巷４０號","OBJECTID":319149},"geometry":{"x":168948.50999999978,"y":2545568.2200000007}},{"attributes":{"ID":319158,"DIS_CODE":0,"TOWNNAME":"北區","LI":"六甲里","LIN":"4鄰","STREET":"公園路","SECT":" ","MAREA":" ","LANE":"５０９巷","ALLEY":" ","HOUSE_NO":"２號","E_COORD97":169034.95000000001,"N_COORD97":2545559.3700000001,"ADDRESS":"公園路５０９巷２號","OBJECTID":319150},"geometry":{"x":169034.95000000112,"y":2545559.3700000029}},{"attributes":{"ID":319159,"DIS_CODE":0,"TOWNNAME":"北區","LI":"六甲里","LIN":"4鄰","STREET":"公園路","SECT":" ","MAREA":" ","LANE":"５０９巷","ALLEY":" ","HOUSE_NO":"１２號","E_COORD97":168998.97,"N_COORD97":2545553.6200000001,"ADDRESS":"公園路５０９巷１２號","OBJECTID":319151},"geometry":{"x":168998.96999999974,"y":2545553.6200000048}},{"attributes":{"ID":319160,"DIS_CODE":0,"TOWNNAME":"北區","LI":"六甲里","LIN":"4鄰","STREET":"公園路","SECT":" ","MAREA":" ","LANE":"５０９巷","ALLEY":" ","HOUSE_NO":"１４號","E_COORD97":168993.97,"N_COORD97":2545556.1200000001,"ADDRESS":"公園路５０９巷１４號","OBJECTID":319152},"geometry":{"x":168993.96999999974,"y":2545556.120000001}},{"attributes":{"ID":319161,"DIS_CODE":0,"TOWNNAME":"北區","LI":"六甲里","LIN":"4鄰","STREET":"公園路","SECT":" ","MAREA":" ","LANE":"５０９巷","ALLEY":" ","HOUSE_NO":"１１號","E_COORD97":168988.76999999999,"N_COORD97":2545529.9199999999,"ADDRESS":"公園路５０９巷１１號","OBJECTID":319153},"geometry":{"x":168988.76999999955,"y":2545529.9200000037}},{"attributes":{"ID":319162,"DIS_CODE":0,"TOWNNAME":"北區","LI":"六甲里","LIN":"4鄰","STREET":"公園路","SECT":" ","MAREA":" ","LANE":"５０９巷","ALLEY":" ","HOUSE_NO":"１３號","E_COORD97":168984.07000000001,"N_COORD97":2545530.0800000001,"ADDRESS":"公園路５０９巷１３號","OBJECTID":319154},"geometry":{"x":168984.0700000003,"y":2545530.0800000019}},{"attributes":{"ID":319163,"DIS_CODE":0,"TOWNNAME":"永康區","LI":"蔦松里","LIN":"9鄰","STREET":"中正北路","SECT":" ","MAREA":" ","LANE":" ","ALLEY":" ","HOUSE_NO":"６０６號","E_COORD97":174431.79388899999,"N_COORD97":2549605.0368300001,"ADDRESS":"中正北路６０６號","OBJECTID":319155},"geometry":{"x":174431.79388900008,"y":2549605.036830999}},{"attributes":{"ID":319164,"DIS_CODE":0,"TOWNNAME":"北區","LI":"六甲里","LIN":"4鄰","STREET":"公園路","SECT":" ","MAREA":" ","LANE":"５０９巷","ALLEY":" ","HOUSE_NO":"１５號","E_COORD97":168980.63,"N_COORD97":2545530.0800000001,"ADDRESS":"公園路５０９巷１５號","OBJECTID":319156},"geometry":{"x":168980.63000000082,"y":2545530.0800000019}},{"attributes":{"ID":319165,"DIS_CODE":0,"TOWNNAME":"北區","LI":"六甲里","LIN":"4鄰","STREET":"公園路","SECT":" ","MAREA":" ","LANE":"５０９巷","ALLEY":" ","HOUSE_NO":"１７號","E_COORD97":168976.88,"N_COORD97":2545529.6099999999,"ADDRESS":"公園路５０９巷１７號","OBJECTID":319157},"geometry":{"x":168976.88000000175,"y":2545529.6100000013}},{"attributes":{"ID":319166,"DIS_CODE":0,"TOWNNAME":"北區","LI":"六甲里","LIN":"4鄰","STREET":"公園路","SECT":" ","MAREA":" ","LANE":"５０９巷","ALLEY":" ","HOUSE_NO":"２１號","E_COORD97":168981.67000000001,"N_COORD97":2545544.1699999999,"ADDRESS":"公園路５０９巷２１號","OBJECTID":319158},"geometry":{"x":168981.67000000179,"y":2545544.1699999999}},{"attributes":{"ID":319167,"DIS_CODE":0,"TOWNNAME":"北區","LI":"六甲里","LIN":"4鄰","STREET":"公園路","SECT":" ","MAREA":" ","LANE":"５０９巷","ALLEY":" ","HOUSE_NO":"２３號","E_COORD97":168982.45999999999,"N_COORD97":2545549.3199999998,"ADDRESS":"公園路５０９巷２３號","OBJECTID":319159},"geometry":{"x":168982.45999999996,"y":2545549.3200000022}},{"attributes":{"ID":319168,"DIS_CODE":0,"TOWNNAME":"北區","LI":"六甲里","LIN":"4鄰","STREET":"公園路","SECT":" ","MAREA":" ","LANE":"５０９巷","ALLEY":" ","HOUSE_NO":"２５號","E_COORD97":168982.92000000001,"N_COORD97":2545554.1600000001,"ADDRESS":"公園路５０９巷２５號","OBJECTID":319160},"geometry":{"x":168982.91999999993,"y":2545554.1600000001}},{"attributes":{"ID":319169,"DIS_CODE":0,"TOWNNAME":"北區","LI":"六甲里","LIN":"4鄰","STREET":"公園路","SECT":" ","MAREA":" ","LANE":"５０９巷","ALLEY":" ","HOUSE_NO":"２７號","E_COORD97":168983.54999999999,"N_COORD97":2545559.1600000001,"ADDRESS":"公園路５０９巷２７號","OBJECTID":319161},"geometry":{"x":168983.54999999981,"y":2545559.1600000039}},{"attributes":{"ID":319170,"DIS_CODE":0,"TOWNNAME":"北區","LI":"六甲里","LIN":"4鄰","STREET":"公園路","SECT":" ","MAREA":" ","LANE":"５０９巷","ALLEY":" ","HOUSE_NO":"２９號","E_COORD97":168984.48999999999,"N_COORD97":2545564.79,"ADDRESS":"公園路５０９巷２９號","OBJECTID":319162},"geometry":{"x":168984.49000000022,"y":2545564.790000001}},{"attributes":{"ID":319171,"DIS_CODE":0,"TOWNNAME":"善化區","LI":"西關里","LIN":"4鄰","STREET":"中華路","SECT":" ","MAREA":" ","LANE":"１５７巷","ALLEY":" ","HOUSE_NO":"４號","E_COORD97":177199.95000000001,"N_COORD97":2559116,"ADDRESS":"中華路１５７巷４號","OBJECTID":319163},"geometry":{"x":177199.94999999925,"y":2559116.0000000019}},{"attributes":{"ID":319172,"DIS_CODE":0,"TOWNNAME":"北區","LI":"六甲里","LIN":" ","STREET":"公園路","SECT":" ","MAREA":" ","LANE":"５０９巷","ALLEY":" ","HOUSE_NO":"６號","E_COORD97":169010.54999999999,"N_COORD97":2545555.3399999999,"ADDRESS":"公園路５０９巷６號","OBJECTID":319164},"geometry":{"x":169010.54999999981,"y":2545555.3400000017}},{"attributes":{"ID":319173,"DIS_CODE":0,"TOWNNAME":"仁德區","LI":"新田里","LIN":"15鄰","STREET":"北保東路","SECT":" ","MAREA":" ","LANE":"８巷","ALLEY":" ","HOUSE_NO":"１４號","E_COORD97":173351.63,"N_COORD97":2539369.25,"ADDRESS":"北保東路８巷１４號","OBJECTID":319165},"geometry":{"x":173351.62999999989,"y":2539369.2500000019}},{"attributes":{"ID":319174,"DIS_CODE":0,"TOWNNAME":"東區","LI":"崇善里","LIN":"17鄰","STREET":"崇善路","SECT":" ","MAREA":" ","LANE":" ","ALLEY":" ","HOUSE_NO":"７５７號七樓之１","E_COORD97":171202.04999999999,"N_COORD97":2540958.7799999998,"ADDRESS":"崇善路７５７號七樓之１","OBJECTID":319166},"geometry":{"x":171202.05000000075,"y":2540958.7799999993}},{"attributes":{"ID":319175,"DIS_CODE":0,"TOWNNAME":"東區","LI":"崇善里","LIN":"17鄰","STREET":"崇善路","SECT":" ","MAREA":" ","LANE":" ","ALLEY":" ","HOUSE_NO":"７５７號八樓","E_COORD97":171202.04999999999,"N_COORD97":2540958.7799999998,"ADDRESS":"崇善路７５７號八樓","OBJECTID":319167},"geometry":{"x":171202.05000000075,"y":2540958.7799999993}},{"attributes":{"ID":319176,"DIS_CODE":0,"TOWNNAME":"東區","LI":"崇善里","LIN":"17鄰","STREET":"崇善路","SECT":" ","MAREA":" ","LANE":" ","ALLEY":" ","HOUSE_NO":"７５７號八樓之１","E_COORD97":171202.04999999999,"N_COORD97":2540958.7799999998,"ADDRESS":"崇善路７５７號八樓之１","OBJECTID":319168},"geometry":{"x":171202.05000000075,"y":2540958.7799999993}},{"attributes":{"ID":319177,"DIS_CODE":0,"TOWNNAME":"東區","LI":"崇善里","LIN":"17鄰","STREET":"崇善路","SECT":" ","MAREA":" ","LANE":" ","ALLEY":" ","HOUSE_NO":"７５７號五樓","E_COORD97":171202.04999999999,"N_COORD97":2540958.7799999998,"ADDRESS":"崇善路７５７號五樓","OBJECTID":319169},"geometry":{"x":171202.05000000075,"y":2540958.7799999993}},{"attributes":{"ID":319178,"DIS_CODE":0,"TOWNNAME":"東區","LI":"崇善里","LIN":"17鄰","STREET":"崇善路","SECT":" ","MAREA":" ","LANE":" ","ALLEY":" ","HOUSE_NO":"７５７號五樓之１","E_COORD97":171202.04999999999,"N_COORD97":2540958.7799999998,"ADDRESS":"崇善路７５７號五樓之１","OBJECTID":319170},"geometry":{"x":171202.05000000075,"y":2540958.7799999993}},{"attributes":{"ID":319179,"DIS_CODE":0,"TOWNNAME":"東區","LI":"崇善里","LIN":"17鄰","STREET":"崇善路","SECT":" ","MAREA":" ","LANE":" ","ALLEY":" ","HOUSE_NO":"７５７號六樓","E_COORD97":171202.04999999999,"N_COORD97":2540958.7799999998,"ADDRESS":"崇善路７５７號六樓","OBJECTID":319171},"geometry":{"x":171202.05000000075,"y":2540958.7799999993}},{"attributes":{"ID":319180,"DIS_CODE":0,"TOWNNAME":"東區","LI":"崇善里","LIN":"17鄰","STREET":"崇善路","SECT":" ","MAREA":" ","LANE":" ","ALLEY":" ","HOUSE_NO":"７５７號六樓之１","E_COORD97":171202.04999999999,"N_COORD97":2540958.7799999998,"ADDRESS":"崇善路７５７號六樓之１","OBJECTID":319172},"geometry":{"x":171202.05000000075,"y":2540958.7799999993}},{"attributes":{"ID":319181,"DIS_CODE":0,"TOWNNAME":"東區","LI":"崇善里","LIN":"17鄰","STREET":"崇善路","SECT":" ","MAREA":" ","LANE":" ","ALLEY":" ","HOUSE_NO":"７５７號四樓","E_COORD97":171202.04999999999,"N_COORD97":2540958.7799999998,"ADDRESS":"崇善路７５７號四樓","OBJECTID":319173},"geometry":{"x":171202.05000000075,"y":2540958.7799999993}},{"attributes":{"ID":319182,"DIS_CODE":0,"TOWNNAME":"東區","LI":"崇善里","LIN":"17鄰","STREET":"崇善路","SECT":" ","MAREA":" ","LANE":" ","ALLEY":" ","HOUSE_NO":"７５７號四樓之１","E_COORD97":171202.04999999999,"N_COORD97":2540958.7799999998,"ADDRESS":"崇善路７５７號四樓之１","OBJECTID":319174},"geometry":{"x":171202.05000000075,"y":2540958.7799999993}},{"attributes":{"ID":319183,"DIS_CODE":0,"TOWNNAME":"東區","LI":"崇善里","LIN":"17鄰","STREET":"崇善路","SECT":" ","MAREA":" ","LANE":" ","ALLEY":" ","HOUSE_NO":"８０３號七樓","E_COORD97":171239.29999999999,"N_COORD97":2540936.98,"ADDRESS":"崇善路８０３號七樓","OBJECTID":319175},"geometry":{"x":171239.30000000075,"y":2540936.9800000023}},{"attributes":{"ID":319184,"DIS_CODE":0,"TOWNNAME":"東區","LI":"崇善里","LIN":"17鄰","STREET":"崇善路","SECT":" ","MAREA":" ","LANE":" ","ALLEY":" ","HOUSE_NO":"８０３號二樓","E_COORD97":171239.29999999999,"N_COORD97":2540936.98,"ADDRESS":"崇善路８０３號二樓","OBJECTID":319176},"geometry":{"x":171239.30000000075,"y":2540936.9800000023}},{"attributes":{"ID":319185,"DIS_CODE":0,"TOWNNAME":"東區","LI":"崇善里","LIN":"17鄰","STREET":"崇善路","SECT":" ","MAREA":" ","LANE":" ","ALLEY":" ","HOUSE_NO":"８０３號三樓","E_COORD97":171239.29999999999,"N_COORD97":2540936.98,"ADDRESS":"崇善路８０３號三樓","OBJECTID":319177},"geometry":{"x":171239.30000000075,"y":2540936.9800000023}},{"attributes":{"ID":319186,"DIS_CODE":0,"TOWNNAME":"東區","LI":"崇善里","LIN":"17鄰","STREET":"崇善路","SECT":" ","MAREA":" ","LANE":" ","ALLEY":" ","HOUSE_NO":"８０３號五樓","E_COORD97":171239.29999999999,"N_COORD97":2540936.98,"ADDRESS":"崇善路８０３號五樓","OBJECTID":319178},"geometry":{"x":171239.30000000075,"y":2540936.9800000023}},{"attributes":{"ID":319187,"DIS_CODE":0,"TOWNNAME":"東區","LI":"崇善里","LIN":"17鄰","STREET":"崇善路","SECT":" ","MAREA":" ","LANE":" ","ALLEY":" ","HOUSE_NO":"８０３號六樓","E_COORD97":171239.29999999999,"N_COORD97":2540936.98,"ADDRESS":"崇善路８０３號六樓","OBJECTID":319179},"geometry":{"x":171239.30000000075,"y":2540936.9800000023}},{"attributes":{"ID":319188,"DIS_CODE":0,"TOWNNAME":"北區","LI":"公園里","LIN":" ","STREET":"北忠街","SECT":" ","MAREA":" ","LANE":" ","ALLEY":" ","HOUSE_NO":"９號","E_COORD97":169213.29000000001,"N_COORD97":2544344.9199999999,"ADDRESS":"北忠街９號","OBJECTID":319180},"geometry":{"x":169213.2900000019,"y":2544344.9200000018}},{"attributes":{"ID":319189,"DIS_CODE":0,"TOWNNAME":"佳里區","LI":"建南里","LIN":"1鄰","STREET":"中山路","SECT":" ","MAREA":" ","LANE":" ","ALLEY":" ","HOUSE_NO":"２８７號","E_COORD97":165695.85163399999,"N_COORD97":2562366.95823,"ADDRESS":"中山路２８７號","OBJECTID":319181},"geometry":{"x":165695.85163400136,"y":2562366.9582279995}},{"attributes":{"ID":319190,"DIS_CODE":0,"TOWNNAME":"佳里區","LI":"建南里","LIN":"1鄰","STREET":"中山路","SECT":" ","MAREA":" ","LANE":" ","ALLEY":" ","HOUSE_NO":"２９３號","E_COORD97":165694.36856199999,"N_COORD97":2562378.5998900002,"ADDRESS":"中山路２９３號","OBJECTID":319182},"geometry":{"x":165694.36856200173,"y":2562378.599888999}},{"attributes":{"ID":319191,"DIS_CODE":0,"TOWNNAME":"北區","LI":"文元里","LIN":"7鄰","STREET":"文賢路","SECT":" ","MAREA":" ","LANE":"１１２２巷","ALLEY":" ","HOUSE_NO":"８２號","E_COORD97":167547.35999999999,"N_COORD97":2546383.23,"ADDRESS":"文賢路１１２２巷８２號","OBJECTID":319183},"geometry":{"x":167547.36000000127,"y":2546383.2300000023}},{"attributes":{"ID":319192,"DIS_CODE":0,"TOWNNAME":"北區","LI":"文元里","LIN":"12鄰","STREET":"文賢路","SECT":" ","MAREA":" ","LANE":"１１２２巷","ALLEY":" ","HOUSE_NO":"２９號","E_COORD97":167433.41,"N_COORD97":2546356.7599999998,"ADDRESS":"文賢路１１２２巷２９號","OBJECTID":319184},"geometry":{"x":167433.41000000108,"y":2546356.7599999998}},{"attributes":{"ID":319193,"DIS_CODE":0,"TOWNNAME":"北區","LI":"文元里","LIN":"12鄰","STREET":"文賢路","SECT":" ","MAREA":" ","LANE":"１１２２巷","ALLEY":" ","HOUSE_NO":"３１號","E_COORD97":167437.92999999999,"N_COORD97":2546358.5,"ADDRESS":"文賢路１１２２巷３１號","OBJECTID":319185},"geometry":{"x":167437.9299999997,"y":2546358.5000000019}},{"attributes":{"ID":319194,"DIS_CODE":0,"TOWNNAME":"北區","LI":"文元里","LIN":"12鄰","STREET":"文賢路","SECT":" ","MAREA":" ","LANE":"１１２２巷","ALLEY":" ","HOUSE_NO":"３３號","E_COORD97":167443.14000000001,"N_COORD97":2546356.7599999998,"ADDRESS":"文賢路１１２２巷３３號","OBJECTID":319186},"geometry":{"x":167443.1400000006,"y":2546356.7599999998}},{"attributes":{"ID":319195,"DIS_CODE":0,"TOWNNAME":"北區","LI":"文元里","LIN":"12鄰","STREET":"文賢路","SECT":" ","MAREA":" ","LANE":"１１２２巷","ALLEY":" ","HOUSE_NO":"３５號","E_COORD97":167446.95999999999,"N_COORD97":2546360.23,"ADDRESS":"文賢路１１２２巷３５號","OBJECTID":319187},"geometry":{"x":167446.95999999996,"y":2546360.2300000023}},{"attributes":{"ID":319196,"DIS_CODE":0,"TOWNNAME":"北區","LI":"文元里","LIN":"12鄰","STREET":"文賢路","SECT":" ","MAREA":" ","LANE":"１１２２巷","ALLEY":" ","HOUSE_NO":"３７號","E_COORD97":167451.47,"N_COORD97":2546362.3100000001,"ADDRESS":"文賢路１１２２巷３７號","OBJECTID":319188},"geometry":{"x":167451.46999999974,"y":2546362.3100000042}},{"attributes":{"ID":319197,"DIS_CODE":0,"TOWNNAME":"北區","LI":"文元里","LIN":"12鄰","STREET":"文賢路","SECT":" ","MAREA":" ","LANE":"１１２２巷","ALLEY":" ","HOUSE_NO":"３９號","E_COORD97":167456.32999999999,"N_COORD97":2546360.9300000002,"ADDRESS":"文賢路１１２２巷３９號","OBJECTID":319189},"geometry":{"x":167456.33000000007,"y":2546360.9300000016}},{"attributes":{"ID":319198,"DIS_CODE":0,"TOWNNAME":"北區","LI":"文元里","LIN":"12鄰","STREET":"文賢路","SECT":" ","MAREA":" ","LANE":"１１２２巷","ALLEY":" ","HOUSE_NO":"４１號","E_COORD97":167460.14999999999,"N_COORD97":2546363.7000000002,"ADDRESS":"文賢路１１２２巷４１號","OBJECTID":319190},"geometry":{"x":167460.15000000224,"y":2546363.6999999993}},{"attributes":{"ID":319199,"DIS_CODE":0,"TOWNNAME":"北區","LI":"文元里","LIN":"12鄰","STREET":"文賢路","SECT":" ","MAREA":" ","LANE":"１１２２巷","ALLEY":" ","HOUSE_NO":"４５號","E_COORD97":167472.31,"N_COORD97":2546368.5499999998,"ADDRESS":"文賢路１１２２巷４５號","OBJECTID":319191},"geometry":{"x":167472.31000000052,"y":2546368.5500000026}},{"attributes":{"ID":319200,"DIS_CODE":0,"TOWNNAME":"北區","LI":"文元里","LIN":"12鄰","STREET":"文賢路","SECT":" ","MAREA":" ","LANE":"１１２２巷","ALLEY":" ","HOUSE_NO":"４７號","E_COORD97":167478.56,"N_COORD97":2546370.98,"ADDRESS":"文賢路１１２２巷４７號","OBJECTID":319192},"geometry":{"x":167478.56000000145,"y":2546370.9800000042}},{"attributes":{"ID":319201,"DIS_CODE":0,"TOWNNAME":"北區","LI":"文元里","LIN":"12鄰","STREET":"文賢路","SECT":" ","MAREA":" ","LANE":"１１２２巷","ALLEY":" ","HOUSE_NO":"４９號","E_COORD97":167483.07000000001,"N_COORD97":2546372.7200000002,"ADDRESS":"文賢路１１２２巷４９號","OBJECTID":319193},"geometry":{"x":167483.07000000123,"y":2546372.7200000007}},{"attributes":{"ID":319202,"DIS_CODE":0,"TOWNNAME":"仁德區","LI":"後壁里","LIN":"15鄰","STREET":"德善路","SECT":" ","MAREA":" ","LANE":"１０８巷","ALLEY":" ","HOUSE_NO":"８號","E_COORD97":173457.67999999999,"N_COORD97":2538805.7599999998,"ADDRESS":"德善路１０８巷８號","OBJECTID":319194},"geometry":{"x":173457.6799999997,"y":2538805.7600000016}},{"attributes":{"ID":319203,"DIS_CODE":0,"TOWNNAME":"東區","LI":"崇善里","LIN":"17鄰","STREET":"崇善路","SECT":" ","MAREA":" ","LANE":" ","ALLEY":" ","HOUSE_NO":"８０３號四樓","E_COORD97":171239.29999999999,"N_COORD97":2540936.98,"ADDRESS":"崇善路８０３號四樓","OBJECTID":319195},"geometry":{"x":171239.30000000075,"y":2540936.9800000023}},{"attributes":{"ID":319204,"DIS_CODE":0,"TOWNNAME":"東區","LI":"崇善里","LIN":"17鄰","STREET":"崇善路","SECT":" ","MAREA":" ","LANE":" ","ALLEY":" ","HOUSE_NO":"８０５號七樓","E_COORD97":171248.20999999999,"N_COORD97":2540941.4300000002,"ADDRESS":"崇善路８０５號七樓","OBJECTID":319196},"geometry":{"x":171248.21000000089,"y":2540941.4299999997}},{"attributes":{"ID":319205,"DIS_CODE":0,"TOWNNAME":"東區","LI":"崇善里","LIN":"17鄰","STREET":"崇善路","SECT":" ","MAREA":" ","LANE":" ","ALLEY":" ","HOUSE_NO":"８０５號二樓","E_COORD97":171248.20999999999,"N_COORD97":2540941.4300000002,"ADDRESS":"崇善路８０５號二樓","OBJECTID":319197},"geometry":{"x":171248.21000000089,"y":2540941.4299999997}},{"attributes":{"ID":319206,"DIS_CODE":0,"TOWNNAME":"東區","LI":"崇善里","LIN":"17鄰","STREET":"崇善路","SECT":" ","MAREA":" ","LANE":" ","ALLEY":" ","HOUSE_NO":"８０５號三樓","E_COORD97":171248.20999999999,"N_COORD97":2540941.4300000002,"ADDRESS":"崇善路８０５號三樓","OBJECTID":319198},"geometry":{"x":171248.21000000089,"y":2540941.4299999997}},{"attributes":{"ID":319207,"DIS_CODE":0,"TOWNNAME":"東區","LI":"崇善里","LIN":"17鄰","STREET":"崇善路","SECT":" ","MAREA":" ","LANE":" ","ALLEY":" ","HOUSE_NO":"８０５號五樓","E_COORD97":171248.20999999999,"N_COORD97":2540941.4300000002,"ADDRESS":"崇善路８０５號五樓","OBJECTID":319199},"geometry":{"x":171248.21000000089,"y":2540941.4299999997}},{"attributes":{"ID":319208,"DIS_CODE":0,"TOWNNAME":"東區","LI":"崇善里","LIN":"17鄰","STREET":"崇善路","SECT":" ","MAREA":" ","LANE":" ","ALLEY":" ","HOUSE_NO":"８０５號六樓","E_COORD97":171248.20999999999,"N_COORD97":2540941.4300000002,"ADDRESS":"崇善路８０５號六樓","OBJECTID":319200},"geometry":{"x":171248.21000000089,"y":2540941.4299999997}}]}