{"displayFieldName":"TOWNNAME","fieldAliases":{"ID":"ID","DIS_CODE":"DIS_CODE","TOWNNAME":"TOWNNAME","LI":"LI","LIN":"LIN","STREET":"STREET","SECT":"SECT","MAREA":"MAREA","LANE":"LANE","ALLEY":"ALLEY","HOUSE_NO":"HOUSE_NO","E_COORD97":"E_COORD97","N_COORD97":"N_COORD97","ADDRESS":"ADDRESS","OBJECTID":"OBJECTID"},"geometryType":"esriGeometryPoint","spatialReference":{"wkid":102443,"latestWkid":3826},"fields":[{"name":"ID","type":"esriFieldTypeDouble","alias":"ID"},{"name":"DIS_CODE","type":"esriFieldTypeInteger","alias":"DIS_CODE"},{"name":"TOWNNAME","type":"esriFieldTypeString","alias":"TOWNNAME","length":8},{"name":"LI","type":"esriFieldTypeString","alias":"LI","length":8},{"name":"LIN","type":"esriFieldTypeString","alias":"LIN","length":12},{"name":"STREET","type":"esriFieldTypeString","alias":"STREET","length":20},{"name":"SECT","type":"esriFieldTypeString","alias":"SECT","length":8},{"name":"MAREA","type":"esriFieldTypeString","alias":"MAREA","length":12},{"name":"LANE","type":"esriFieldTypeString","alias":"LANE","length":10},{"name":"ALLEY","type":"esriFieldTypeString","alias":"ALLEY","length":10},{"name":"HOUSE_NO","type":"esriFieldTypeString","alias":"HOUSE_NO","length":20},{"name":"E_COORD97","type":"esriFieldTypeDouble","alias":"E_COORD97"},{"name":"N_COORD97","type":"esriFieldTypeDouble","alias":"N_COORD97"},{"name":"ADDRESS","type":"esriFieldTypeString","alias":"ADDRESS","length":50},{"name":"OBJECTID","type":"esriFieldTypeOID","alias":"OBJECTID"}],"features":[{"attributes":{"ID":360411,"DIS_CODE":0,"TOWNNAME":"中西區","LI":"開山里","LIN":"19鄰","STREET":"開山路","SECT":" ","MAREA":" ","LANE":"２３５巷","ALLEY":" ","HOUSE_NO":"１２號三樓之６","E_COORD97":169031.16,"N_COORD97":2543009.54,"ADDRESS":"開山路２３５巷１２號三樓之６","OBJECTID":360401},"geometry":{"x":169031.16000000201,"y":2543009.5400000028}},{"attributes":{"ID":360412,"DIS_CODE":0,"TOWNNAME":"中西區","LI":"開山里","LIN":"19鄰","STREET":"開山路","SECT":" ","MAREA":" ","LANE":"２３５巷","ALLEY":" ","HOUSE_NO":"１２號三樓之７","E_COORD97":169031.16,"N_COORD97":2543009.54,"ADDRESS":"開山路２３５巷１２號三樓之７","OBJECTID":360402},"geometry":{"x":169031.16000000201,"y":2543009.5400000028}},{"attributes":{"ID":360413,"DIS_CODE":0,"TOWNNAME":"中西區","LI":"開山里","LIN":"19鄰","STREET":"開山路","SECT":" ","MAREA":" ","LANE":"２３５巷","ALLEY":" ","HOUSE_NO":"１２號三樓之８","E_COORD97":169031.16,"N_COORD97":2543009.54,"ADDRESS":"開山路２３５巷１２號三樓之８","OBJECTID":360403},"geometry":{"x":169031.16000000201,"y":2543009.5400000028}},{"attributes":{"ID":360414,"DIS_CODE":0,"TOWNNAME":"中西區","LI":"開山里","LIN":"19鄰","STREET":"開山路","SECT":" ","MAREA":" ","LANE":"２３５巷","ALLEY":" ","HOUSE_NO":"１２號三樓之９","E_COORD97":169031.16,"N_COORD97":2543009.54,"ADDRESS":"開山路２３５巷１２號三樓之９","OBJECTID":360404},"geometry":{"x":169031.16000000201,"y":2543009.5400000028}},{"attributes":{"ID":360415,"DIS_CODE":0,"TOWNNAME":"中西區","LI":"開山里","LIN":"19鄰","STREET":"開山路","SECT":" ","MAREA":" ","LANE":"２３５巷","ALLEY":" ","HOUSE_NO":"１２號五樓之２","E_COORD97":169031.16,"N_COORD97":2543009.54,"ADDRESS":"開山路２３５巷１２號五樓之２","OBJECTID":360405},"geometry":{"x":169031.16000000201,"y":2543009.5400000028}},{"attributes":{"ID":360416,"DIS_CODE":0,"TOWNNAME":"下營區","LI":"仁里里","LIN":"8鄰","STREET":"公園路","SECT":" ","MAREA":" ","LANE":" ","ALLEY":" ","HOUSE_NO":"２０２號","E_COORD97":173981.35000000001,"N_COORD97":2570279.5,"ADDRESS":"公園路２０２號","OBJECTID":360406},"geometry":{"x":173981.35000000056,"y":2570279.5000000037}},{"attributes":{"ID":360417,"DIS_CODE":0,"TOWNNAME":"中西區","LI":"西賢里","LIN":"8鄰","STREET":"西賢一街","SECT":" ","MAREA":" ","LANE":"５６巷","ALLEY":" ","HOUSE_NO":"３號","E_COORD97":165736.82999999999,"N_COORD97":2544565.4100000001,"ADDRESS":"西賢一街５６巷３號","OBJECTID":360407},"geometry":{"x":165736.83000000101,"y":2544565.410000002}},{"attributes":{"ID":360418,"DIS_CODE":0,"TOWNNAME":"中西區","LI":"西賢里","LIN":"8鄰","STREET":"西賢一街","SECT":" ","MAREA":" ","LANE":"５６巷","ALLEY":" ","HOUSE_NO":"５號","E_COORD97":165741.66,"N_COORD97":2544565.29,"ADDRESS":"西賢一街５６巷５號","OBJECTID":360408},"geometry":{"x":165741.66000000015,"y":2544565.290000001}},{"attributes":{"ID":360419,"DIS_CODE":0,"TOWNNAME":"中西區","LI":"西賢里","LIN":"8鄰","STREET":"西賢一街","SECT":" ","MAREA":" ","LANE":"５６巷","ALLEY":" ","HOUSE_NO":"７號","E_COORD97":165744.82999999999,"N_COORD97":2544565.4100000001,"ADDRESS":"西賢一街５６巷７號","OBJECTID":360409},"geometry":{"x":165744.83000000101,"y":2544565.410000002}},{"attributes":{"ID":360420,"DIS_CODE":0,"TOWNNAME":"中西區","LI":"西賢里","LIN":"8鄰","STREET":"西賢一街","SECT":" ","MAREA":" ","LANE":"８８巷","ALLEY":" ","HOUSE_NO":"１０號","E_COORD97":165748.67999999999,"N_COORD97":2544615.04,"ADDRESS":"西賢一街８８巷１０號","OBJECTID":360410},"geometry":{"x":165748.68000000156,"y":2544615.0399999991}},{"attributes":{"ID":360421,"DIS_CODE":0,"TOWNNAME":"中西區","LI":"西賢里","LIN":"8鄰","STREET":"西賢一街","SECT":" ","MAREA":" ","LANE":"８８巷","ALLEY":" ","HOUSE_NO":"１２號","E_COORD97":165753.88,"N_COORD97":2544615.29,"ADDRESS":"西賢一街８８巷１２號","OBJECTID":360411},"geometry":{"x":165753.87999999989,"y":2544615.290000001}},{"attributes":{"ID":360422,"DIS_CODE":0,"TOWNNAME":"中西區","LI":"西賢里","LIN":"8鄰","STREET":"西賢一街","SECT":" ","MAREA":" ","LANE":"８８巷","ALLEY":" ","HOUSE_NO":"１６號","E_COORD97":165759.09,"N_COORD97":2544615.7999999998,"ADDRESS":"西賢一街８８巷１６號","OBJECTID":360412},"geometry":{"x":165759.08999999985,"y":2544615.8000000007}},{"attributes":{"ID":360423,"DIS_CODE":0,"TOWNNAME":"中西區","LI":"開山里","LIN":"19鄰","STREET":"開山路","SECT":" ","MAREA":" ","LANE":"２３５巷","ALLEY":" ","HOUSE_NO":"１２號五樓之３","E_COORD97":169031.16,"N_COORD97":2543009.54,"ADDRESS":"開山路２３５巷１２號五樓之３","OBJECTID":360413},"geometry":{"x":169031.16000000201,"y":2543009.5400000028}},{"attributes":{"ID":360424,"DIS_CODE":0,"TOWNNAME":"中西區","LI":"開山里","LIN":"19鄰","STREET":"開山路","SECT":" ","MAREA":" ","LANE":"２３５巷","ALLEY":" ","HOUSE_NO":"１２號五樓之４","E_COORD97":169031.16,"N_COORD97":2543009.54,"ADDRESS":"開山路２３５巷１２號五樓之４","OBJECTID":360414},"geometry":{"x":169031.16000000201,"y":2543009.5400000028}},{"attributes":{"ID":360425,"DIS_CODE":0,"TOWNNAME":"中西區","LI":"開山里","LIN":"19鄰","STREET":"開山路","SECT":" ","MAREA":" ","LANE":"２３５巷","ALLEY":" ","HOUSE_NO":"１２號五樓之５","E_COORD97":169031.16,"N_COORD97":2543009.54,"ADDRESS":"開山路２３５巷１２號五樓之５","OBJECTID":360415},"geometry":{"x":169031.16000000201,"y":2543009.5400000028}},{"attributes":{"ID":360426,"DIS_CODE":0,"TOWNNAME":"中西區","LI":"開山里","LIN":"19鄰","STREET":"開山路","SECT":" ","MAREA":" ","LANE":"２３５巷","ALLEY":" ","HOUSE_NO":"１２號五樓之６","E_COORD97":169031.16,"N_COORD97":2543009.54,"ADDRESS":"開山路２３５巷１２號五樓之６","OBJECTID":360416},"geometry":{"x":169031.16000000201,"y":2543009.5400000028}},{"attributes":{"ID":360427,"DIS_CODE":0,"TOWNNAME":"中西區","LI":"開山里","LIN":"19鄰","STREET":"開山路","SECT":" ","MAREA":" ","LANE":"２３５巷","ALLEY":" ","HOUSE_NO":"１２號五樓之７","E_COORD97":169031.16,"N_COORD97":2543009.54,"ADDRESS":"開山路２３５巷１２號五樓之７","OBJECTID":360417},"geometry":{"x":169031.16000000201,"y":2543009.5400000028}},{"attributes":{"ID":360428,"DIS_CODE":0,"TOWNNAME":"中西區","LI":"開山里","LIN":"19鄰","STREET":"開山路","SECT":" ","MAREA":" ","LANE":"２３５巷","ALLEY":" ","HOUSE_NO":"１２號四樓之１","E_COORD97":169031.16,"N_COORD97":2543009.54,"ADDRESS":"開山路２３５巷１２號四樓之１","OBJECTID":360418},"geometry":{"x":169031.16000000201,"y":2543009.5400000028}},{"attributes":{"ID":360429,"DIS_CODE":0,"TOWNNAME":"中西區","LI":"開山里","LIN":"19鄰","STREET":"開山路","SECT":" ","MAREA":" ","LANE":"２３５巷","ALLEY":" ","HOUSE_NO":"１２號四樓之２","E_COORD97":169031.16,"N_COORD97":2543009.54,"ADDRESS":"開山路２３５巷１２號四樓之２","OBJECTID":360419},"geometry":{"x":169031.16000000201,"y":2543009.5400000028}},{"attributes":{"ID":360430,"DIS_CODE":0,"TOWNNAME":"中西區","LI":"開山里","LIN":"19鄰","STREET":"開山路","SECT":" ","MAREA":" ","LANE":"２３５巷","ALLEY":" ","HOUSE_NO":"１２號四樓之３","E_COORD97":169031.16,"N_COORD97":2543009.54,"ADDRESS":"開山路２３５巷１２號四樓之３","OBJECTID":360420},"geometry":{"x":169031.16000000201,"y":2543009.5400000028}},{"attributes":{"ID":360431,"DIS_CODE":0,"TOWNNAME":"北區","LI":"國姓里","LIN":"8鄰","STREET":"小北路","SECT":" ","MAREA":" ","LANE":" ","ALLEY":" ","HOUSE_NO":"９３號三樓","E_COORD97":168952.59,"N_COORD97":2545341.3799999999,"ADDRESS":"小北路９３號三樓","OBJECTID":360421},"geometry":{"x":168952.58999999985,"y":2545341.379999999}},{"attributes":{"ID":360432,"DIS_CODE":0,"TOWNNAME":"北區","LI":"國姓里","LIN":"8鄰","STREET":"小北路","SECT":" ","MAREA":" ","LANE":" ","ALLEY":" ","HOUSE_NO":"９３號五樓","E_COORD97":168952.59,"N_COORD97":2545341.3799999999,"ADDRESS":"小北路９３號五樓","OBJECTID":360422},"geometry":{"x":168952.58999999985,"y":2545341.379999999}},{"attributes":{"ID":360433,"DIS_CODE":0,"TOWNNAME":"北區","LI":"國姓里","LIN":"8鄰","STREET":"小北路","SECT":" ","MAREA":" ","LANE":" ","ALLEY":" ","HOUSE_NO":"９３號四樓","E_COORD97":168952.59,"N_COORD97":2545341.3799999999,"ADDRESS":"小北路９３號四樓","OBJECTID":360423},"geometry":{"x":168952.58999999985,"y":2545341.379999999}},{"attributes":{"ID":360434,"DIS_CODE":0,"TOWNNAME":"新營區","LI":"大宏里","LIN":"8鄰","STREET":"文昌街","SECT":" ","MAREA":" ","LANE":" ","ALLEY":" ","HOUSE_NO":"１６號二樓之３","E_COORD97":180442.63,"N_COORD97":2578413.4500000002,"ADDRESS":"文昌街１６號二樓之３","OBJECTID":360424},"geometry":{"x":180442.62999999989,"y":2578413.4500000011}},{"attributes":{"ID":360435,"DIS_CODE":0,"TOWNNAME":"新營區","LI":"大宏里","LIN":"8鄰","STREET":"文昌街","SECT":" ","MAREA":" ","LANE":" ","ALLEY":" ","HOUSE_NO":"１６號七樓之４","E_COORD97":180442.56,"N_COORD97":2578413.4500000002,"ADDRESS":"文昌街１６號七樓之４","OBJECTID":360425},"geometry":{"x":180442.55999999959,"y":2578413.4500000011}},{"attributes":{"ID":360436,"DIS_CODE":0,"TOWNNAME":"北區","LI":"大道里","LIN":"8鄰","STREET":"和緯路","SECT":"一段","MAREA":" ","LANE":"八六巷","ALLEY":" ","HOUSE_NO":"２號","E_COORD97":169481.39000000001,"N_COORD97":2545581.1200000001,"ADDRESS":"和緯路一段八六巷２號","OBJECTID":360426},"geometry":{"x":169481.38999999966,"y":2545581.1200000029}},{"attributes":{"ID":360437,"DIS_CODE":0,"TOWNNAME":"北區","LI":"大道里","LIN":"8鄰","STREET":"和緯路","SECT":"一段","MAREA":" ","LANE":"八六巷","ALLEY":" ","HOUSE_NO":"６號","E_COORD97":169481.70999999999,"N_COORD97":2545586.2000000002,"ADDRESS":"和緯路一段八六巷６號","OBJECTID":360427},"geometry":{"x":169481.71000000089,"y":2545586.2000000011}},{"attributes":{"ID":360438,"DIS_CODE":0,"TOWNNAME":"北區","LI":"大道里","LIN":"8鄰","STREET":"和緯路","SECT":"一段","MAREA":" ","LANE":"八六巷","ALLEY":" ","HOUSE_NO":"８號","E_COORD97":169482.66,"N_COORD97":2545591.2799999998,"ADDRESS":"和緯路一段八六巷８號","OBJECTID":360428},"geometry":{"x":169482.66000000108,"y":2545591.2800000031}},{"attributes":{"ID":360439,"DIS_CODE":0,"TOWNNAME":"北區","LI":"大道里","LIN":"8鄰","STREET":"和緯路","SECT":"一段","MAREA":" ","LANE":"八六巷","ALLEY":" ","HOUSE_NO":"１０號","E_COORD97":169483.60999999999,"N_COORD97":2545596.6800000002,"ADDRESS":"和緯路一段八六巷１０號","OBJECTID":360429},"geometry":{"x":169483.61000000034,"y":2545596.6800000016}},{"attributes":{"ID":360440,"DIS_CODE":0,"TOWNNAME":"北區","LI":"大道里","LIN":"8鄰","STREET":"和緯路","SECT":"一段","MAREA":" ","LANE":"八六巷","ALLEY":" ","HOUSE_NO":"１２號","E_COORD97":169484.88,"N_COORD97":2545605.8900000001,"ADDRESS":"和緯路一段八六巷１２號","OBJECTID":360430},"geometry":{"x":169484.87999999989,"y":2545605.8900000025}},{"attributes":{"ID":360441,"DIS_CODE":0,"TOWNNAME":"北區","LI":"大道里","LIN":"8鄰","STREET":"和緯路","SECT":"一段","MAREA":" ","LANE":"八六巷","ALLEY":" ","HOUSE_NO":"１６號","E_COORD97":169486.14999999999,"N_COORD97":2545611.6000000001,"ADDRESS":"和緯路一段八六巷１６號","OBJECTID":360431},"geometry":{"x":169486.1500000013,"y":2545611.5999999996}},{"attributes":{"ID":360442,"DIS_CODE":0,"TOWNNAME":"北區","LI":"大道里","LIN":"8鄰","STREET":"和緯路","SECT":"一段","MAREA":" ","LANE":"八六巷","ALLEY":" ","HOUSE_NO":"１８號","E_COORD97":169486.79000000001,"N_COORD97":2545616.6800000002,"ADDRESS":"和緯路一段八六巷１８號","OBJECTID":360432},"geometry":{"x":169486.79000000097,"y":2545616.6800000016}},{"attributes":{"ID":360443,"DIS_CODE":0,"TOWNNAME":"北區","LI":"大道里","LIN":"8鄰","STREET":"和緯路","SECT":"一段","MAREA":" ","LANE":"八六巷","ALLEY":" ","HOUSE_NO":"２０號","E_COORD97":169488.06,"N_COORD97":2545622.0800000001,"ADDRESS":"和緯路一段八六巷２０號","OBJECTID":360433},"geometry":{"x":169488.06000000052,"y":2545622.0800000019}},{"attributes":{"ID":360444,"DIS_CODE":0,"TOWNNAME":"北區","LI":"大道里","LIN":"8鄰","STREET":"和緯路","SECT":"一段","MAREA":" ","LANE":"八六巷","ALLEY":" ","HOUSE_NO":"２２號","E_COORD97":169488.69,"N_COORD97":2545628.1099999999,"ADDRESS":"和緯路一段八六巷２２號","OBJECTID":360434},"geometry":{"x":169488.69000000041,"y":2545628.1100000013}},{"attributes":{"ID":360445,"DIS_CODE":0,"TOWNNAME":"北區","LI":"大道里","LIN":"8鄰","STREET":"和緯路","SECT":"一段","MAREA":" ","LANE":"八六巷","ALLEY":" ","HOUSE_NO":"２６號","E_COORD97":169489.64000000001,"N_COORD97":2545633.8300000001,"ADDRESS":"和緯路一段八六巷２６號","OBJECTID":360435},"geometry":{"x":169489.63999999966,"y":2545633.8300000019}},{"attributes":{"ID":360446,"DIS_CODE":0,"TOWNNAME":"中西區","LI":"青年里","LIN":"19鄰","STREET":"中山路","SECT":" ","MAREA":" ","LANE":"８巷","ALLEY":" ","HOUSE_NO":"１號六樓之２","E_COORD97":168601.67999999999,"N_COORD97":2543710.5600000001,"ADDRESS":"中山路８巷１號六樓之２","OBJECTID":360436},"geometry":{"x":168601.68000000156,"y":2543710.5600000024}},{"attributes":{"ID":360447,"DIS_CODE":0,"TOWNNAME":"永康區","LI":"中興里","LIN":"19鄰","STREET":"中山東路","SECT":" ","MAREA":" ","LANE":"３５０巷","ALLEY":" ","HOUSE_NO":"１１號四樓之２","E_COORD97":171861.54000000001,"N_COORD97":2545345.29,"ADDRESS":"中山東路３５０巷１１號四樓之２","OBJECTID":360437},"geometry":{"x":171861.54000000097,"y":2545345.2899999991}},{"attributes":{"ID":360448,"DIS_CODE":0,"TOWNNAME":"永康區","LI":"中興里","LIN":"19鄰","STREET":"中山東路","SECT":" ","MAREA":" ","LANE":"３５０巷","ALLEY":" ","HOUSE_NO":"１１號三樓之３","E_COORD97":171861.51000000001,"N_COORD97":2545345.29,"ADDRESS":"中山東路３５０巷１１號三樓之３","OBJECTID":360438},"geometry":{"x":171861.51000000071,"y":2545345.2899999991}},{"attributes":{"ID":360449,"DIS_CODE":0,"TOWNNAME":"永康區","LI":"中興里","LIN":"19鄰","STREET":"中山東路","SECT":" ","MAREA":" ","LANE":"３５０巷","ALLEY":" ","HOUSE_NO":"７號二樓之１","E_COORD97":171860.16,"N_COORD97":2545345.29,"ADDRESS":"中山東路３５０巷７號二樓之１","OBJECTID":360439},"geometry":{"x":171860.16000000015,"y":2545345.2899999991}},{"attributes":{"ID":360450,"DIS_CODE":0,"TOWNNAME":"永康區","LI":"中興里","LIN":"19鄰","STREET":"中山東路","SECT":" ","MAREA":" ","LANE":"３５０巷","ALLEY":" ","HOUSE_NO":"７號二樓之３","E_COORD97":171860.26000000001,"N_COORD97":2545345.29,"ADDRESS":"中山東路３５０巷７號二樓之３","OBJECTID":360440},"geometry":{"x":171860.25999999978,"y":2545345.2899999991}},{"attributes":{"ID":360451,"DIS_CODE":0,"TOWNNAME":"永康區","LI":"中興里","LIN":"19鄰","STREET":"中山東路","SECT":" ","MAREA":" ","LANE":"３５０巷","ALLEY":" ","HOUSE_NO":"７號六樓之３","E_COORD97":171860.26000000001,"N_COORD97":2545345.29,"ADDRESS":"中山東路３５０巷７號六樓之３","OBJECTID":360441},"geometry":{"x":171860.25999999978,"y":2545345.2899999991}},{"attributes":{"ID":360452,"DIS_CODE":0,"TOWNNAME":"永康區","LI":"中興里","LIN":"19鄰","STREET":"中山東路","SECT":" ","MAREA":" ","LANE":"３５０巷","ALLEY":" ","HOUSE_NO":"１１號五樓之３","E_COORD97":171861.51000000001,"N_COORD97":2545345.29,"ADDRESS":"中山東路３５０巷１１號五樓之３","OBJECTID":360442},"geometry":{"x":171861.51000000071,"y":2545345.2899999991}},{"attributes":{"ID":360453,"DIS_CODE":0,"TOWNNAME":"永康區","LI":"中興里","LIN":"19鄰","STREET":"中山東路","SECT":" ","MAREA":" ","LANE":"３５０巷","ALLEY":" ","HOUSE_NO":"１１號四樓之１","E_COORD97":171861.41,"N_COORD97":2545345.29,"ADDRESS":"中山東路３５０巷１１號四樓之１","OBJECTID":360443},"geometry":{"x":171861.41000000015,"y":2545345.2899999991}},{"attributes":{"ID":360454,"DIS_CODE":0,"TOWNNAME":"永康區","LI":"中興里","LIN":"19鄰","STREET":"中山東路","SECT":" ","MAREA":" ","LANE":"３５０巷","ALLEY":" ","HOUSE_NO":"１１號三樓之２","E_COORD97":171861.54000000001,"N_COORD97":2545345.29,"ADDRESS":"中山東路３５０巷１１號三樓之２","OBJECTID":360444},"geometry":{"x":171861.54000000097,"y":2545345.2899999991}},{"attributes":{"ID":360455,"DIS_CODE":0,"TOWNNAME":"永康區","LI":"中興里","LIN":"19鄰","STREET":"中山東路","SECT":" ","MAREA":" ","LANE":"３５０巷","ALLEY":" ","HOUSE_NO":"７號二樓之２","E_COORD97":171860.29000000001,"N_COORD97":2545345.29,"ADDRESS":"中山東路３５０巷７號二樓之２","OBJECTID":360445},"geometry":{"x":171860.29000000004,"y":2545345.2899999991}},{"attributes":{"ID":360456,"DIS_CODE":0,"TOWNNAME":"永康區","LI":"中興里","LIN":"19鄰","STREET":"中山東路","SECT":" ","MAREA":" ","LANE":"３５０巷","ALLEY":" ","HOUSE_NO":"７號三樓之３","E_COORD97":171860.26000000001,"N_COORD97":2545345.29,"ADDRESS":"中山東路３５０巷７號三樓之３","OBJECTID":360446},"geometry":{"x":171860.25999999978,"y":2545345.2899999991}},{"attributes":{"ID":360457,"DIS_CODE":0,"TOWNNAME":"玉井區","LI":"玉井里","LIN":"13鄰","STREET":"富強街","SECT":" ","MAREA":" ","LANE":" ","ALLEY":" ","HOUSE_NO":"１１號","E_COORD97":194891.01000000001,"N_COORD97":2558240.25,"ADDRESS":"富強街１１號","OBJECTID":360447},"geometry":{"x":194891.01000000071,"y":2558240.25}},{"attributes":{"ID":360458,"DIS_CODE":0,"TOWNNAME":"玉井區","LI":"玉井里","LIN":"13鄰","STREET":"富強街","SECT":" ","MAREA":" ","LANE":" ","ALLEY":" ","HOUSE_NO":"３３號","E_COORD97":194852.62,"N_COORD97":2558240.25,"ADDRESS":"富強街３３號","OBJECTID":360448},"geometry":{"x":194852.62000000197,"y":2558240.25}},{"attributes":{"ID":360459,"DIS_CODE":0,"TOWNNAME":"玉井區","LI":"玉井里","LIN":"13鄰","STREET":"富強街","SECT":" ","MAREA":" ","LANE":" ","ALLEY":" ","HOUSE_NO":"１９號","E_COORD97":194880.32999999999,"N_COORD97":2558241.25,"ADDRESS":"富強街１９號","OBJECTID":360449},"geometry":{"x":194880.33000000101,"y":2558241.25}},{"attributes":{"ID":360460,"DIS_CODE":0,"TOWNNAME":"玉井區","LI":"玉井里","LIN":"13鄰","STREET":"富強街","SECT":" ","MAREA":" ","LANE":" ","ALLEY":" ","HOUSE_NO":"２７號","E_COORD97":194868.62,"N_COORD97":2558241.25,"ADDRESS":"富強街２７號","OBJECTID":360450},"geometry":{"x":194868.62000000011,"y":2558241.25}},{"attributes":{"ID":360461,"DIS_CODE":0,"TOWNNAME":"玉井區","LI":"玉井里","LIN":"13鄰","STREET":"富強街","SECT":" ","MAREA":" ","LANE":" ","ALLEY":" ","HOUSE_NO":"２９號","E_COORD97":194865.32000000001,"N_COORD97":2558241.25,"ADDRESS":"富強街２９號","OBJECTID":360451},"geometry":{"x":194865.32000000123,"y":2558241.25}},{"attributes":{"ID":360462,"DIS_CODE":0,"TOWNNAME":"玉井區","LI":"玉井里","LIN":"13鄰","STREET":"富強街","SECT":" ","MAREA":" ","LANE":" ","ALLEY":" ","HOUSE_NO":"２１號","E_COORD97":194876.32000000001,"N_COORD97":2558241.25,"ADDRESS":"富強街２１號","OBJECTID":360452},"geometry":{"x":194876.3200000003,"y":2558241.25}},{"attributes":{"ID":360463,"DIS_CODE":0,"TOWNNAME":"玉井區","LI":"玉井里","LIN":"13鄰","STREET":"富強街","SECT":" ","MAREA":" ","LANE":" ","ALLEY":" ","HOUSE_NO":"７號","E_COORD97":194899.45999999999,"N_COORD97":2558240.25,"ADDRESS":"富強街７號","OBJECTID":360453},"geometry":{"x":194899.46000000089,"y":2558240.25}},{"attributes":{"ID":360464,"DIS_CODE":0,"TOWNNAME":"歸仁區","LI":"新厝里","LIN":"13鄰","STREET":"大成路","SECT":" ","MAREA":" ","LANE":" ","ALLEY":" ","HOUSE_NO":"９號","E_COORD97":177559.51999999999,"N_COORD97":2540482.5899999999,"ADDRESS":"大成路９號","OBJECTID":360454},"geometry":{"x":177559.51999999955,"y":2540482.5899999999}},{"attributes":{"ID":360465,"DIS_CODE":0,"TOWNNAME":"歸仁區","LI":"後市里","LIN":"13鄰","STREET":"中山路","SECT":"二段","MAREA":" ","LANE":" ","ALLEY":" ","HOUSE_NO":"２６５號","E_COORD97":176998.19,"N_COORD97":2540839.25,"ADDRESS":"中山路二段２６５號","OBJECTID":360455},"geometry":{"x":176998.19000000041,"y":2540839.2500000037}},{"attributes":{"ID":360466,"DIS_CODE":0,"TOWNNAME":"歸仁區","LI":"歸仁里","LIN":"13鄰","STREET":"和平北街","SECT":" ","MAREA":" ","LANE":" ","ALLEY":" ","HOUSE_NO":"９４號","E_COORD97":177864.5,"N_COORD97":2541056.1800000002,"ADDRESS":"和平北街９４號","OBJECTID":360456},"geometry":{"x":177864.50000000093,"y":2541056.1800000034}},{"attributes":{"ID":360467,"DIS_CODE":0,"TOWNNAME":"玉井區","LI":"玉井里","LIN":"13鄰","STREET":"富強街","SECT":" ","MAREA":" ","LANE":" ","ALLEY":" ","HOUSE_NO":"９號","E_COORD97":194894.57000000001,"N_COORD97":2558240.25,"ADDRESS":"富強街９號","OBJECTID":360457},"geometry":{"x":194894.57000000123,"y":2558240.25}},{"attributes":{"ID":360468,"DIS_CODE":0,"TOWNNAME":"歸仁區","LI":"歸仁里","LIN":"13鄰","STREET":"和平北街","SECT":" ","MAREA":" ","LANE":" ","ALLEY":" ","HOUSE_NO":"９２號","E_COORD97":177864.5,"N_COORD97":2541050.1800000002,"ADDRESS":"和平北街９２號","OBJECTID":360458},"geometry":{"x":177864.50000000093,"y":2541050.1800000016}},{"attributes":{"ID":360469,"DIS_CODE":0,"TOWNNAME":"安南區","LI":"安東里","LIN":"22鄰","STREET":"安和路","SECT":"二段","MAREA":" ","LANE":"５４巷","ALLEY":" ","HOUSE_NO":"２３號","E_COORD97":169551.82000000001,"N_COORD97":2548649.77,"ADDRESS":"安和路二段５４巷２３號","OBJECTID":360459},"geometry":{"x":169551.8200000003,"y":2548649.7700000033}},{"attributes":{"ID":360470,"DIS_CODE":0,"TOWNNAME":"安南區","LI":"安東里","LIN":"22鄰","STREET":"安和路","SECT":"二段","MAREA":" ","LANE":"５４巷","ALLEY":" ","HOUSE_NO":"２５７號","E_COORD97":169801.061919,"N_COORD97":2548389.7313600001,"ADDRESS":"安和路二段５４巷２５７號","OBJECTID":360460},"geometry":{"x":169801.06191900186,"y":2548389.7313589994}},{"attributes":{"ID":360471,"DIS_CODE":0,"TOWNNAME":"永康區","LI":"中興里","LIN":"19鄰","STREET":"中山東路","SECT":" ","MAREA":" ","LANE":"３５０巷","ALLEY":" ","HOUSE_NO":"１１號七樓之２","E_COORD97":171861.54000000001,"N_COORD97":2545345.29,"ADDRESS":"中山東路３５０巷１１號七樓之２","OBJECTID":360461},"geometry":{"x":171861.54000000097,"y":2545345.2899999991}},{"attributes":{"ID":360472,"DIS_CODE":0,"TOWNNAME":"永康區","LI":"中興里","LIN":"19鄰","STREET":"中山東路","SECT":" ","MAREA":" ","LANE":"３５０巷","ALLEY":" ","HOUSE_NO":"７號三樓之１","E_COORD97":171860.16,"N_COORD97":2545345.29,"ADDRESS":"中山東路３５０巷７號三樓之１","OBJECTID":360462},"geometry":{"x":171860.16000000015,"y":2545345.2899999991}},{"attributes":{"ID":360473,"DIS_CODE":0,"TOWNNAME":"永康區","LI":"中興里","LIN":"19鄰","STREET":"中山東路","SECT":" ","MAREA":" ","LANE":"３５０巷","ALLEY":" ","HOUSE_NO":"１１號六樓之２","E_COORD97":171861.54000000001,"N_COORD97":2545345.29,"ADDRESS":"中山東路３５０巷１１號六樓之２","OBJECTID":360463},"geometry":{"x":171861.54000000097,"y":2545345.2899999991}},{"attributes":{"ID":360474,"DIS_CODE":0,"TOWNNAME":"永康區","LI":"中興里","LIN":"19鄰","STREET":"中山東路","SECT":" ","MAREA":" ","LANE":"３５０巷","ALLEY":" ","HOUSE_NO":"７號五樓之２","E_COORD97":171860.29000000001,"N_COORD97":2545345.29,"ADDRESS":"中山東路３５０巷７號五樓之２","OBJECTID":360464},"geometry":{"x":171860.29000000004,"y":2545345.2899999991}},{"attributes":{"ID":360475,"DIS_CODE":0,"TOWNNAME":"永康區","LI":"中興里","LIN":"19鄰","STREET":"中山東路","SECT":" ","MAREA":" ","LANE":"３５０巷","ALLEY":" ","HOUSE_NO":"７號三樓之２","E_COORD97":171860.29000000001,"N_COORD97":2545345.29,"ADDRESS":"中山東路３５０巷７號三樓之２","OBJECTID":360465},"geometry":{"x":171860.29000000004,"y":2545345.2899999991}},{"attributes":{"ID":360476,"DIS_CODE":0,"TOWNNAME":"永康區","LI":"中興里","LIN":"19鄰","STREET":"中山東路","SECT":" ","MAREA":" ","LANE":"３５０巷","ALLEY":" ","HOUSE_NO":"７號六樓之２","E_COORD97":171860.29000000001,"N_COORD97":2545345.29,"ADDRESS":"中山東路３５０巷７號六樓之２","OBJECTID":360466},"geometry":{"x":171860.29000000004,"y":2545345.2899999991}},{"attributes":{"ID":360477,"DIS_CODE":0,"TOWNNAME":"永康區","LI":"中興里","LIN":"19鄰","STREET":"中山東路","SECT":" ","MAREA":" ","LANE":"３５０巷","ALLEY":" ","HOUSE_NO":"１１號二樓之２","E_COORD97":171861.54000000001,"N_COORD97":2545345.29,"ADDRESS":"中山東路３５０巷１１號二樓之２","OBJECTID":360467},"geometry":{"x":171861.54000000097,"y":2545345.2899999991}},{"attributes":{"ID":360478,"DIS_CODE":0,"TOWNNAME":"仁德區","LI":"保安里","LIN":"19鄰","STREET":"文賢路","SECT":"二段","MAREA":" ","LANE":"１５巷","ALLEY":" ","HOUSE_NO":"２６號二樓之１","E_COORD97":171861.04999999999,"N_COORD97":2535903.5699999998,"ADDRESS":"文賢路二段１５巷２６號二樓之１","OBJECTID":360468},"geometry":{"x":171861.05000000075,"y":2535903.5700000003}},{"attributes":{"ID":360479,"DIS_CODE":0,"TOWNNAME":"仁德區","LI":"保安里","LIN":"19鄰","STREET":"文賢路","SECT":"二段","MAREA":" ","LANE":"１５巷","ALLEY":" ","HOUSE_NO":"２６號一樓之２","E_COORD97":171861.17999999999,"N_COORD97":2535903.5699999998,"ADDRESS":"文賢路二段１５巷２６號一樓之２","OBJECTID":360469},"geometry":{"x":171861.1799999997,"y":2535903.5700000003}},{"attributes":{"ID":360480,"DIS_CODE":0,"TOWNNAME":"東區","LI":"泉南里","LIN":"19鄰","STREET":"府連東路","SECT":" ","MAREA":" ","LANE":"２２巷","ALLEY":" ","HOUSE_NO":"８２號三樓","E_COORD97":169708.79000000001,"N_COORD97":2542682.73,"ADDRESS":"府連東路２２巷８２號三樓","OBJECTID":360470},"geometry":{"x":169708.79000000097,"y":2542682.7300000004}},{"attributes":{"ID":360481,"DIS_CODE":0,"TOWNNAME":"歸仁區","LI":"後市里","LIN":"13鄰","STREET":"中山路","SECT":"二段","MAREA":" ","LANE":" ","ALLEY":" ","HOUSE_NO":"２４９號","E_COORD97":177030.98999999999,"N_COORD97":2540835.25,"ADDRESS":"中山路二段２４９號","OBJECTID":360471},"geometry":{"x":177030.99000000115,"y":2540835.25}},{"attributes":{"ID":360482,"DIS_CODE":0,"TOWNNAME":"歸仁區","LI":"辜厝里","LIN":"13鄰","STREET":"大順街","SECT":" ","MAREA":" ","LANE":" ","ALLEY":" ","HOUSE_NO":"１６號","E_COORD97":177490.26999999999,"N_COORD97":2540538.5899999999,"ADDRESS":"大順街１６號","OBJECTID":360472},"geometry":{"x":177490.26999999955,"y":2540538.5900000017}},{"attributes":{"ID":360483,"DIS_CODE":0,"TOWNNAME":"歸仁區","LI":"歸仁里","LIN":"13鄰","STREET":"和平北街","SECT":" ","MAREA":" ","LANE":" ","ALLEY":" ","HOUSE_NO":"１００號","E_COORD97":177862.23999999999,"N_COORD97":2541080.04,"ADDRESS":"和平北街１００號","OBJECTID":360473},"geometry":{"x":177862.24000000022,"y":2541080.0399999972}},{"attributes":{"ID":360484,"DIS_CODE":0,"TOWNNAME":"歸仁區","LI":"新厝里","LIN":"13鄰","STREET":"大成路","SECT":" ","MAREA":" ","LANE":" ","ALLEY":" ","HOUSE_NO":"３號","E_COORD97":177550.32000000001,"N_COORD97":2540491.5899999999,"ADDRESS":"大成路３號","OBJECTID":360474},"geometry":{"x":177550.32000000216,"y":2540491.5900000017}},{"attributes":{"ID":360485,"DIS_CODE":0,"TOWNNAME":"歸仁區","LI":"歸仁里","LIN":"13鄰","STREET":"和平北街","SECT":" ","MAREA":" ","LANE":" ","ALLEY":" ","HOUSE_NO":"１０４號","E_COORD97":177862.23999999999,"N_COORD97":2541087.04,"ADDRESS":"和平北街１０４號","OBJECTID":360475},"geometry":{"x":177862.24000000022,"y":2541087.0400000028}},{"attributes":{"ID":360486,"DIS_CODE":0,"TOWNNAME":"歸仁區","LI":"新厝里","LIN":"13鄰","STREET":"大成路","SECT":" ","MAREA":" ","LANE":" ","ALLEY":" ","HOUSE_NO":"７號","E_COORD97":177556.42000000001,"N_COORD97":2540485.5899999999,"ADDRESS":"大成路７號","OBJECTID":360476},"geometry":{"x":177556.42000000086,"y":2540485.5900000017}},{"attributes":{"ID":360487,"DIS_CODE":0,"TOWNNAME":"歸仁區","LI":"歸仁里","LIN":"13鄰","STREET":"和平北街","SECT":" ","MAREA":" ","LANE":" ","ALLEY":" ","HOUSE_NO":"９８號","E_COORD97":177861.98999999999,"N_COORD97":2541076.04,"ADDRESS":"和平北街９８號","OBJECTID":360477},"geometry":{"x":177861.99000000022,"y":2541076.0399999991}},{"attributes":{"ID":360488,"DIS_CODE":0,"TOWNNAME":"歸仁區","LI":"新厝里","LIN":"13鄰","STREET":"大成路","SECT":" ","MAREA":" ","LANE":" ","ALLEY":" ","HOUSE_NO":"１號","E_COORD97":177548.32000000001,"N_COORD97":2540493.5899999999,"ADDRESS":"大成路１號","OBJECTID":360478},"geometry":{"x":177548.3200000003,"y":2540493.5899999999}},{"attributes":{"ID":360489,"DIS_CODE":0,"TOWNNAME":"麻豆區","LI":"\u25A0江里","LIN":"13鄰","STREET":"民權路","SECT":" ","MAREA":" ","LANE":" ","ALLEY":" ","HOUSE_NO":"６９號之１","E_COORD97":173410.57000000001,"N_COORD97":2564420.9199999999,"ADDRESS":"民權路６９號之１","OBJECTID":360479},"geometry":{"x":173410.57000000216,"y":2564420.9199999999}},{"attributes":{"ID":360490,"DIS_CODE":0,"TOWNNAME":"麻豆區","LI":"\u25A0江里","LIN":"13鄰","STREET":"民權路","SECT":" ","MAREA":" ","LANE":" ","ALLEY":" ","HOUSE_NO":"６９號之２","E_COORD97":173396.10000000001,"N_COORD97":2564424.7000000002,"ADDRESS":"民權路６９號之２","OBJECTID":360480},"geometry":{"x":173396.10000000149,"y":2564424.6999999993}},{"attributes":{"ID":360491,"DIS_CODE":0,"TOWNNAME":"麻豆區","LI":"東角里","LIN":"13鄰","STREET":"民生路","SECT":" ","MAREA":" ","LANE":" ","ALLEY":" ","HOUSE_NO":"１７號之１０","E_COORD97":173639.13,"N_COORD97":2564775.8799999999,"ADDRESS":"民生路１７號之１０","OBJECTID":360481},"geometry":{"x":173639.13000000082,"y":2564775.879999999}},{"attributes":{"ID":360492,"DIS_CODE":0,"TOWNNAME":"麻豆區","LI":"東角里","LIN":"13鄰","STREET":"民生路","SECT":" ","MAREA":" ","LANE":" ","ALLEY":" ","HOUSE_NO":"１７號之１１","E_COORD97":173635.39000000001,"N_COORD97":2564761.3500000001,"ADDRESS":"民生路１７號之１１","OBJECTID":360482},"geometry":{"x":173635.3900000006,"y":2564761.3500000015}},{"attributes":{"ID":360493,"DIS_CODE":0,"TOWNNAME":"東區","LI":"泉南里","LIN":"19鄰","STREET":"府連東路","SECT":" ","MAREA":" ","LANE":"２２巷","ALLEY":" ","HOUSE_NO":"８２號四樓","E_COORD97":169708.79000000001,"N_COORD97":2542682.73,"ADDRESS":"府連東路２２巷８２號四樓","OBJECTID":360483},"geometry":{"x":169708.79000000097,"y":2542682.7300000004}},{"attributes":{"ID":360494,"DIS_CODE":0,"TOWNNAME":"東區","LI":"泉南里","LIN":"19鄰","STREET":"府連東路","SECT":" ","MAREA":" ","LANE":"２２巷","ALLEY":" ","HOUSE_NO":"８２號五樓","E_COORD97":169708.79000000001,"N_COORD97":2542682.73,"ADDRESS":"府連東路２２巷８２號五樓","OBJECTID":360484},"geometry":{"x":169708.79000000097,"y":2542682.7300000004}},{"attributes":{"ID":360495,"DIS_CODE":0,"TOWNNAME":"東區","LI":"崇德里","LIN":"19鄰","STREET":"崇明十三街","SECT":" ","MAREA":" ","LANE":"１１巷","ALLEY":" ","HOUSE_NO":"６７號二樓","E_COORD97":170505.84,"N_COORD97":2541718.5600000001,"ADDRESS":"崇明十三街１１巷６７號二樓","OBJECTID":360485},"geometry":{"x":170505.83999999985,"y":2541718.5600000005}},{"attributes":{"ID":360496,"DIS_CODE":0,"TOWNNAME":"東區","LI":"崇德里","LIN":"19鄰","STREET":"崇明十三街","SECT":" ","MAREA":" ","LANE":"１１巷","ALLEY":" ","HOUSE_NO":"６７號二樓之１","E_COORD97":170505.84,"N_COORD97":2541718.5600000001,"ADDRESS":"崇明十三街１１巷６７號二樓之１","OBJECTID":360486},"geometry":{"x":170505.83999999985,"y":2541718.5600000005}},{"attributes":{"ID":360497,"DIS_CODE":0,"TOWNNAME":"西港區","LI":"西港里","LIN":"6鄰","STREET":"文化路","SECT":" ","MAREA":" ","LANE":"９２巷","ALLEY":" ","HOUSE_NO":"３號","E_COORD97":168775.75,"N_COORD97":2558199.8300000001,"ADDRESS":"文化路９２巷３號","OBJECTID":360487},"geometry":{"x":168775.75,"y":2558199.8300000001}},{"attributes":{"ID":360498,"DIS_CODE":0,"TOWNNAME":"西港區","LI":"西港里","LIN":"6鄰","STREET":"文化路","SECT":" ","MAREA":" ","LANE":"９２巷","ALLEY":" ","HOUSE_NO":"４號","E_COORD97":168766.98999999999,"N_COORD97":2558224.1499999999,"ADDRESS":"文化路９２巷４號","OBJECTID":360488},"geometry":{"x":168766.99000000115,"y":2558224.1500000022}},{"attributes":{"ID":360499,"DIS_CODE":0,"TOWNNAME":"西港區","LI":"西港里","LIN":"6鄰","STREET":"文化路","SECT":" ","MAREA":" ","LANE":"９２巷","ALLEY":" ","HOUSE_NO":"６號","E_COORD97":168763.22,"N_COORD97":2558222.48,"ADDRESS":"文化路９２巷６號","OBJECTID":360489},"geometry":{"x":168763.22000000067,"y":2558222.4800000004}},{"attributes":{"ID":360500,"DIS_CODE":0,"TOWNNAME":"西港區","LI":"西港里","LIN":"6鄰","STREET":"文化路","SECT":" ","MAREA":" ","LANE":"９２巷","ALLEY":" ","HOUSE_NO":"７號","E_COORD97":168779.12,"N_COORD97":2558185.5800000001,"ADDRESS":"文化路９２巷７號","OBJECTID":360490},"geometry":{"x":168779.12000000104,"y":2558185.5800000038}},{"attributes":{"ID":360501,"DIS_CODE":0,"TOWNNAME":"西港區","LI":"西港里","LIN":"6鄰","STREET":"文化路","SECT":" ","MAREA":" ","LANE":"９２巷","ALLEY":" ","HOUSE_NO":"８號","E_COORD97":168759.53,"N_COORD97":2558220.4399999999,"ADDRESS":"文化路９２巷８號","OBJECTID":360491},"geometry":{"x":168759.53000000119,"y":2558220.4400000013}},{"attributes":{"ID":360502,"DIS_CODE":0,"TOWNNAME":"西港區","LI":"西港里","LIN":"6鄰","STREET":"文化路","SECT":" ","MAREA":" ","LANE":"９２巷","ALLEY":" ","HOUSE_NO":"９號","E_COORD97":168761.17000000001,"N_COORD97":2558200.8399999999,"ADDRESS":"文化路９２巷９號","OBJECTID":360492},"geometry":{"x":168761.16999999993,"y":2558200.8400000017}},{"attributes":{"ID":360503,"DIS_CODE":0,"TOWNNAME":"東區","LI":"崇德里","LIN":"19鄰","STREET":"崇明十三街","SECT":" ","MAREA":" ","LANE":"１１巷","ALLEY":" ","HOUSE_NO":"６７號二樓之２","E_COORD97":170505.84,"N_COORD97":2541718.5600000001,"ADDRESS":"崇明十三街１１巷６７號二樓之２","OBJECTID":360493},"geometry":{"x":170505.83999999985,"y":2541718.5600000005}},{"attributes":{"ID":360504,"DIS_CODE":0,"TOWNNAME":"東區","LI":"崇德里","LIN":"19鄰","STREET":"崇明十三街","SECT":" ","MAREA":" ","LANE":"１１巷","ALLEY":" ","HOUSE_NO":"６７號三樓","E_COORD97":170505.84,"N_COORD97":2541718.5600000001,"ADDRESS":"崇明十三街１１巷６７號三樓","OBJECTID":360494},"geometry":{"x":170505.83999999985,"y":2541718.5600000005}},{"attributes":{"ID":360505,"DIS_CODE":0,"TOWNNAME":"東區","LI":"崇德里","LIN":"19鄰","STREET":"崇明十三街","SECT":" ","MAREA":" ","LANE":"１１巷","ALLEY":" ","HOUSE_NO":"６７號三樓之１","E_COORD97":170505.84,"N_COORD97":2541718.5600000001,"ADDRESS":"崇明十三街１１巷６７號三樓之１","OBJECTID":360495},"geometry":{"x":170505.83999999985,"y":2541718.5600000005}},{"attributes":{"ID":360506,"DIS_CODE":0,"TOWNNAME":"東區","LI":"崇德里","LIN":"19鄰","STREET":"崇明十三街","SECT":" ","MAREA":" ","LANE":"１１巷","ALLEY":" ","HOUSE_NO":"６７號三樓之２","E_COORD97":170505.84,"N_COORD97":2541718.5600000001,"ADDRESS":"崇明十三街１１巷６７號三樓之２","OBJECTID":360496},"geometry":{"x":170505.83999999985,"y":2541718.5600000005}},{"attributes":{"ID":360507,"DIS_CODE":0,"TOWNNAME":"東區","LI":"崇德里","LIN":"19鄰","STREET":"崇明十三街","SECT":" ","MAREA":" ","LANE":"１１巷","ALLEY":" ","HOUSE_NO":"６７號四樓","E_COORD97":170505.84,"N_COORD97":2541718.5600000001,"ADDRESS":"崇明十三街１１巷６７號四樓","OBJECTID":360497},"geometry":{"x":170505.83999999985,"y":2541718.5600000005}},{"attributes":{"ID":360508,"DIS_CODE":0,"TOWNNAME":"東區","LI":"崇德里","LIN":"19鄰","STREET":"崇明十三街","SECT":" ","MAREA":" ","LANE":"１１巷","ALLEY":" ","HOUSE_NO":"６７號四樓之１","E_COORD97":170505.84,"N_COORD97":2541718.5600000001,"ADDRESS":"崇明十三街１１巷６７號四樓之１","OBJECTID":360498},"geometry":{"x":170505.83999999985,"y":2541718.5600000005}},{"attributes":{"ID":360509,"DIS_CODE":0,"TOWNNAME":"東區","LI":"崇德里","LIN":"19鄰","STREET":"崇明十三街","SECT":" ","MAREA":" ","LANE":"１１巷","ALLEY":" ","HOUSE_NO":"６７號四樓之２","E_COORD97":170505.84,"N_COORD97":2541718.5600000001,"ADDRESS":"崇明十三街１１巷６７號四樓之２","OBJECTID":360499},"geometry":{"x":170505.83999999985,"y":2541718.5600000005}},{"attributes":{"ID":360510,"DIS_CODE":0,"TOWNNAME":"東區","LI":"崇德里","LIN":"19鄰","STREET":"崇明十三街","SECT":" ","MAREA":" ","LANE":"１１巷","ALLEY":" ","HOUSE_NO":"６７號五樓","E_COORD97":170505.84,"N_COORD97":2541718.5600000001,"ADDRESS":"崇明十三街１１巷６７號五樓","OBJECTID":360500},"geometry":{"x":170505.83999999985,"y":2541718.5600000005}},{"attributes":{"ID":360511,"DIS_CODE":0,"TOWNNAME":"東區","LI":"崇德里","LIN":"19鄰","STREET":"崇明十三街","SECT":" ","MAREA":" ","LANE":"１１巷","ALLEY":" ","HOUSE_NO":"６７號五樓之１","E_COORD97":170505.84,"N_COORD97":2541718.5600000001,"ADDRESS":"崇明十三街１１巷６７號五樓之１","OBJECTID":360501},"geometry":{"x":170505.83999999985,"y":2541718.5600000005}},{"attributes":{"ID":360512,"DIS_CODE":0,"TOWNNAME":"東區","LI":"崇德里","LIN":"19鄰","STREET":"崇明十三街","SECT":" ","MAREA":" ","LANE":"１１巷","ALLEY":" ","HOUSE_NO":"６７號五樓之２","E_COORD97":170505.84,"N_COORD97":2541718.5600000001,"ADDRESS":"崇明十三街１１巷６７號五樓之２","OBJECTID":360502},"geometry":{"x":170505.83999999985,"y":2541718.5600000005}},{"attributes":{"ID":360513,"DIS_CODE":0,"TOWNNAME":"東區","LI":"崇德里","LIN":"19鄰","STREET":"崇明十三街","SECT":" ","MAREA":" ","LANE":"１１巷","ALLEY":" ","HOUSE_NO":"６７號六樓","E_COORD97":170505.84,"N_COORD97":2541718.5600000001,"ADDRESS":"崇明十三街１１巷６７號六樓","OBJECTID":360503},"geometry":{"x":170505.83999999985,"y":2541718.5600000005}},{"attributes":{"ID":360514,"DIS_CODE":0,"TOWNNAME":"東區","LI":"崇德里","LIN":"19鄰","STREET":"崇明十三街","SECT":" ","MAREA":" ","LANE":"１１巷","ALLEY":" ","HOUSE_NO":"６７號六樓之１","E_COORD97":170505.84,"N_COORD97":2541718.5600000001,"ADDRESS":"崇明十三街１１巷６７號六樓之１","OBJECTID":360504},"geometry":{"x":170505.83999999985,"y":2541718.5600000005}},{"attributes":{"ID":360515,"DIS_CODE":0,"TOWNNAME":"東區","LI":"崇德里","LIN":"19鄰","STREET":"崇明十三街","SECT":" ","MAREA":" ","LANE":"１１巷","ALLEY":" ","HOUSE_NO":"６７號六樓之２","E_COORD97":170505.84,"N_COORD97":2541718.5600000001,"ADDRESS":"崇明十三街１１巷６７號六樓之２","OBJECTID":360505},"geometry":{"x":170505.83999999985,"y":2541718.5600000005}},{"attributes":{"ID":360516,"DIS_CODE":0,"TOWNNAME":"東區","LI":"崇德里","LIN":"19鄰","STREET":"崇明十三街","SECT":" ","MAREA":" ","LANE":"１１巷","ALLEY":" ","HOUSE_NO":"６７號七樓","E_COORD97":170505.84,"N_COORD97":2541718.5600000001,"ADDRESS":"崇明十三街１１巷６７號七樓","OBJECTID":360506},"geometry":{"x":170505.83999999985,"y":2541718.5600000005}},{"attributes":{"ID":360517,"DIS_CODE":0,"TOWNNAME":"東區","LI":"崇德里","LIN":"19鄰","STREET":"崇明十三街","SECT":" ","MAREA":" ","LANE":"１１巷","ALLEY":" ","HOUSE_NO":"６７號七樓之１","E_COORD97":170505.84,"N_COORD97":2541718.5600000001,"ADDRESS":"崇明十三街１１巷６７號七樓之１","OBJECTID":360507},"geometry":{"x":170505.83999999985,"y":2541718.5600000005}},{"attributes":{"ID":360518,"DIS_CODE":0,"TOWNNAME":"東區","LI":"崇德里","LIN":"19鄰","STREET":"崇明十三街","SECT":" ","MAREA":" ","LANE":"１１巷","ALLEY":" ","HOUSE_NO":"６７號七樓之２","E_COORD97":170505.84,"N_COORD97":2541718.5600000001,"ADDRESS":"崇明十三街１１巷６７號七樓之２","OBJECTID":360508},"geometry":{"x":170505.83999999985,"y":2541718.5600000005}},{"attributes":{"ID":360519,"DIS_CODE":0,"TOWNNAME":"東區","LI":"崇德里","LIN":"19鄰","STREET":"崇明十三街","SECT":" ","MAREA":" ","LANE":"１１巷","ALLEY":" ","HOUSE_NO":"６７號八樓","E_COORD97":170505.84,"N_COORD97":2541718.5600000001,"ADDRESS":"崇明十三街１１巷６７號八樓","OBJECTID":360509},"geometry":{"x":170505.83999999985,"y":2541718.5600000005}},{"attributes":{"ID":360520,"DIS_CODE":0,"TOWNNAME":"東區","LI":"崇德里","LIN":"19鄰","STREET":"崇明十三街","SECT":" ","MAREA":" ","LANE":"１１巷","ALLEY":" ","HOUSE_NO":"６７號八樓之１","E_COORD97":170505.84,"N_COORD97":2541718.5600000001,"ADDRESS":"崇明十三街１１巷６７號八樓之１","OBJECTID":360510},"geometry":{"x":170505.83999999985,"y":2541718.5600000005}},{"attributes":{"ID":360521,"DIS_CODE":0,"TOWNNAME":"東區","LI":"崇德里","LIN":"19鄰","STREET":"崇明十三街","SECT":" ","MAREA":" ","LANE":"１１巷","ALLEY":" ","HOUSE_NO":"６７號八樓之２","E_COORD97":170505.84,"N_COORD97":2541718.5600000001,"ADDRESS":"崇明十三街１１巷６７號八樓之２","OBJECTID":360511},"geometry":{"x":170505.83999999985,"y":2541718.5600000005}},{"attributes":{"ID":360522,"DIS_CODE":0,"TOWNNAME":"北區","LI":"文元里","LIN":"22鄰","STREET":"和緯路","SECT":"三段","MAREA":" ","LANE":"１８０巷","ALLEY":" ","HOUSE_NO":"７２號","E_COORD97":167936.94,"N_COORD97":2545872.73,"ADDRESS":"和緯路三段１８０巷７２號","OBJECTID":360512},"geometry":{"x":167936.94000000134,"y":2545872.7300000004}},{"attributes":{"ID":360523,"DIS_CODE":0,"TOWNNAME":"東區","LI":"崇德里","LIN":"19鄰","STREET":"崇明十三街","SECT":" ","MAREA":" ","LANE":"１１巷","ALLEY":" ","HOUSE_NO":"６７號六樓之３","E_COORD97":170505.84,"N_COORD97":2541718.5600000001,"ADDRESS":"崇明十三街１１巷６７號六樓之３","OBJECTID":360513},"geometry":{"x":170505.83999999985,"y":2541718.5600000005}},{"attributes":{"ID":360524,"DIS_CODE":0,"TOWNNAME":"東區","LI":"崇德里","LIN":"19鄰","STREET":"崇明十三街","SECT":" ","MAREA":" ","LANE":"１１巷","ALLEY":" ","HOUSE_NO":"６７號七樓之３","E_COORD97":170505.84,"N_COORD97":2541718.5600000001,"ADDRESS":"崇明十三街１１巷６７號七樓之３","OBJECTID":360514},"geometry":{"x":170505.83999999985,"y":2541718.5600000005}},{"attributes":{"ID":360525,"DIS_CODE":0,"TOWNNAME":"東區","LI":"崇德里","LIN":"19鄰","STREET":"崇明十三街","SECT":" ","MAREA":" ","LANE":"１１巷","ALLEY":" ","HOUSE_NO":"７３號二樓","E_COORD97":170514.22,"N_COORD97":2541739.5,"ADDRESS":"崇明十三街１１巷７３號二樓","OBJECTID":360515},"geometry":{"x":170514.22000000067,"y":2541739.5000000019}},{"attributes":{"ID":360526,"DIS_CODE":0,"TOWNNAME":"東區","LI":"崇德里","LIN":"19鄰","STREET":"崇明十三街","SECT":" ","MAREA":" ","LANE":"１１巷","ALLEY":" ","HOUSE_NO":"７３號二樓之１","E_COORD97":170514.22,"N_COORD97":2541739.5,"ADDRESS":"崇明十三街１１巷７３號二樓之１","OBJECTID":360516},"geometry":{"x":170514.22000000067,"y":2541739.5000000019}},{"attributes":{"ID":360527,"DIS_CODE":0,"TOWNNAME":"東區","LI":"崇德里","LIN":"19鄰","STREET":"崇明十三街","SECT":" ","MAREA":" ","LANE":"１１巷","ALLEY":" ","HOUSE_NO":"７３號二樓之２","E_COORD97":170514.22,"N_COORD97":2541739.5,"ADDRESS":"崇明十三街１１巷７３號二樓之２","OBJECTID":360517},"geometry":{"x":170514.22000000067,"y":2541739.5000000019}},{"attributes":{"ID":360528,"DIS_CODE":0,"TOWNNAME":"東區","LI":"崇德里","LIN":"19鄰","STREET":"崇明十三街","SECT":" ","MAREA":" ","LANE":"１１巷","ALLEY":" ","HOUSE_NO":"７３號三樓","E_COORD97":170514.22,"N_COORD97":2541739.5,"ADDRESS":"崇明十三街１１巷７３號三樓","OBJECTID":360518},"geometry":{"x":170514.22000000067,"y":2541739.5000000019}},{"attributes":{"ID":360529,"DIS_CODE":0,"TOWNNAME":"東區","LI":"崇德里","LIN":"19鄰","STREET":"崇明十三街","SECT":" ","MAREA":" ","LANE":"１１巷","ALLEY":" ","HOUSE_NO":"７３號三樓之１","E_COORD97":170514.22,"N_COORD97":2541739.5,"ADDRESS":"崇明十三街１１巷７３號三樓之１","OBJECTID":360519},"geometry":{"x":170514.22000000067,"y":2541739.5000000019}},{"attributes":{"ID":360530,"DIS_CODE":0,"TOWNNAME":"東區","LI":"崇德里","LIN":"19鄰","STREET":"崇明十三街","SECT":" ","MAREA":" ","LANE":"１１巷","ALLEY":" ","HOUSE_NO":"７３號三樓之２","E_COORD97":170514.22,"N_COORD97":2541739.5,"ADDRESS":"崇明十三街１１巷７３號三樓之２","OBJECTID":360520},"geometry":{"x":170514.22000000067,"y":2541739.5000000019}},{"attributes":{"ID":360531,"DIS_CODE":0,"TOWNNAME":"東區","LI":"崇德里","LIN":"19鄰","STREET":"崇明十三街","SECT":" ","MAREA":" ","LANE":"１１巷","ALLEY":" ","HOUSE_NO":"７３號四樓","E_COORD97":170514.22,"N_COORD97":2541739.5,"ADDRESS":"崇明十三街１１巷７３號四樓","OBJECTID":360521},"geometry":{"x":170514.22000000067,"y":2541739.5000000019}},{"attributes":{"ID":360532,"DIS_CODE":0,"TOWNNAME":"東區","LI":"崇德里","LIN":"19鄰","STREET":"崇明十三街","SECT":" ","MAREA":" ","LANE":"１１巷","ALLEY":" ","HOUSE_NO":"７３號四樓之１","E_COORD97":170514.22,"N_COORD97":2541739.5,"ADDRESS":"崇明十三街１１巷７３號四樓之１","OBJECTID":360522},"geometry":{"x":170514.22000000067,"y":2541739.5000000019}},{"attributes":{"ID":360533,"DIS_CODE":0,"TOWNNAME":"東區","LI":"崇德里","LIN":"19鄰","STREET":"崇明十三街","SECT":" ","MAREA":" ","LANE":"１１巷","ALLEY":" ","HOUSE_NO":"７３號四樓之２","E_COORD97":170514.22,"N_COORD97":2541739.5,"ADDRESS":"崇明十三街１１巷７３號四樓之２","OBJECTID":360523},"geometry":{"x":170514.22000000067,"y":2541739.5000000019}},{"attributes":{"ID":360534,"DIS_CODE":0,"TOWNNAME":"東區","LI":"崇德里","LIN":"19鄰","STREET":"崇明十三街","SECT":" ","MAREA":" ","LANE":"１１巷","ALLEY":" ","HOUSE_NO":"７３號五樓","E_COORD97":170514.22,"N_COORD97":2541739.5,"ADDRESS":"崇明十三街１１巷７３號五樓","OBJECTID":360524},"geometry":{"x":170514.22000000067,"y":2541739.5000000019}},{"attributes":{"ID":360535,"DIS_CODE":0,"TOWNNAME":"東區","LI":"崇德里","LIN":"19鄰","STREET":"崇明十三街","SECT":" ","MAREA":" ","LANE":"１１巷","ALLEY":" ","HOUSE_NO":"７３號七樓之２","E_COORD97":170514.22,"N_COORD97":2541739.5,"ADDRESS":"崇明十三街１１巷７３號七樓之２","OBJECTID":360525},"geometry":{"x":170514.22000000067,"y":2541739.5000000019}},{"attributes":{"ID":360536,"DIS_CODE":0,"TOWNNAME":"東區","LI":"崇德里","LIN":"19鄰","STREET":"崇明十三街","SECT":" ","MAREA":" ","LANE":"１１巷","ALLEY":" ","HOUSE_NO":"７３號八樓","E_COORD97":170514.22,"N_COORD97":2541739.5,"ADDRESS":"崇明十三街１１巷７３號八樓","OBJECTID":360526},"geometry":{"x":170514.22000000067,"y":2541739.5000000019}},{"attributes":{"ID":360537,"DIS_CODE":0,"TOWNNAME":"東區","LI":"崇德里","LIN":"19鄰","STREET":"崇明十三街","SECT":" ","MAREA":" ","LANE":"１１巷","ALLEY":" ","HOUSE_NO":"７３號八樓之１","E_COORD97":170514.22,"N_COORD97":2541739.5,"ADDRESS":"崇明十三街１１巷７３號八樓之１","OBJECTID":360527},"geometry":{"x":170514.22000000067,"y":2541739.5000000019}},{"attributes":{"ID":360538,"DIS_CODE":0,"TOWNNAME":"東區","LI":"崇德里","LIN":"19鄰","STREET":"崇明十三街","SECT":" ","MAREA":" ","LANE":"１１巷","ALLEY":" ","HOUSE_NO":"７３號八樓之２","E_COORD97":170514.22,"N_COORD97":2541739.5,"ADDRESS":"崇明十三街１１巷７３號八樓之２","OBJECTID":360528},"geometry":{"x":170514.22000000067,"y":2541739.5000000019}},{"attributes":{"ID":360539,"DIS_CODE":0,"TOWNNAME":"永康區","LI":"崑山里","LIN":"19鄰","STREET":"大灣路","SECT":" ","MAREA":" ","LANE":"７９８巷","ALLEY":" ","HOUSE_NO":"１２號五樓","E_COORD97":174024.95000000001,"N_COORD97":2544554.4700000002,"ADDRESS":"大灣路７９８巷１２號五樓","OBJECTID":360529},"geometry":{"x":174024.95000000205,"y":2544554.4700000025}},{"attributes":{"ID":360540,"DIS_CODE":0,"TOWNNAME":"永康區","LI":"崑山里","LIN":"19鄰","STREET":"大灣路","SECT":" ","MAREA":" ","LANE":"７９８巷","ALLEY":" ","HOUSE_NO":"１２號三樓","E_COORD97":174024.95000000001,"N_COORD97":2544554.4700000002,"ADDRESS":"大灣路７９８巷１２號三樓","OBJECTID":360530},"geometry":{"x":174024.95000000205,"y":2544554.4700000025}},{"attributes":{"ID":360541,"DIS_CODE":0,"TOWNNAME":"永康區","LI":"崑山里","LIN":"19鄰","STREET":"大灣路","SECT":" ","MAREA":" ","LANE":"７９８巷","ALLEY":" ","HOUSE_NO":"１２號二樓","E_COORD97":174024.95000000001,"N_COORD97":2544554.4700000002,"ADDRESS":"大灣路７９８巷１２號二樓","OBJECTID":360531},"geometry":{"x":174024.95000000205,"y":2544554.4700000025}},{"attributes":{"ID":360542,"DIS_CODE":0,"TOWNNAME":"中西區","LI":"青年里","LIN":"19鄰","STREET":"中山路","SECT":" ","MAREA":" ","LANE":"８巷","ALLEY":" ","HOUSE_NO":"１號一樓之３","E_COORD97":168601.67999999999,"N_COORD97":2543710.5600000001,"ADDRESS":"中山路８巷１號一樓之３","OBJECTID":360532},"geometry":{"x":168601.68000000156,"y":2543710.5600000024}},{"attributes":{"ID":360543,"DIS_CODE":0,"TOWNNAME":"中西區","LI":"青年里","LIN":"19鄰","STREET":"中山路","SECT":" ","MAREA":" ","LANE":"８巷","ALLEY":" ","HOUSE_NO":"１號一樓之４","E_COORD97":168601.67999999999,"N_COORD97":2543710.5600000001,"ADDRESS":"中山路８巷１號一樓之４","OBJECTID":360533},"geometry":{"x":168601.68000000156,"y":2543710.5600000024}},{"attributes":{"ID":360544,"DIS_CODE":0,"TOWNNAME":"中西區","LI":"青年里","LIN":"19鄰","STREET":"中山路","SECT":" ","MAREA":" ","LANE":"８巷","ALLEY":" ","HOUSE_NO":"１號七樓之１","E_COORD97":168601.67999999999,"N_COORD97":2543710.5600000001,"ADDRESS":"中山路８巷１號七樓之１","OBJECTID":360534},"geometry":{"x":168601.68000000156,"y":2543710.5600000024}},{"attributes":{"ID":360545,"DIS_CODE":0,"TOWNNAME":"中西區","LI":"青年里","LIN":"19鄰","STREET":"中山路","SECT":" ","MAREA":" ","LANE":"８巷","ALLEY":" ","HOUSE_NO":"１號七樓之２","E_COORD97":168601.67999999999,"N_COORD97":2543710.5600000001,"ADDRESS":"中山路８巷１號七樓之２","OBJECTID":360535},"geometry":{"x":168601.68000000156,"y":2543710.5600000024}},{"attributes":{"ID":360546,"DIS_CODE":0,"TOWNNAME":"中西區","LI":"青年里","LIN":"19鄰","STREET":"中山路","SECT":" ","MAREA":" ","LANE":"８巷","ALLEY":" ","HOUSE_NO":"１號七樓之３","E_COORD97":168601.67999999999,"N_COORD97":2543710.5600000001,"ADDRESS":"中山路８巷１號七樓之３","OBJECTID":360536},"geometry":{"x":168601.68000000156,"y":2543710.5600000024}},{"attributes":{"ID":360547,"DIS_CODE":0,"TOWNNAME":"中西區","LI":"青年里","LIN":"19鄰","STREET":"中山路","SECT":" ","MAREA":" ","LANE":"８巷","ALLEY":" ","HOUSE_NO":"１號二樓之１","E_COORD97":168601.67999999999,"N_COORD97":2543710.5600000001,"ADDRESS":"中山路８巷１號二樓之１","OBJECTID":360537},"geometry":{"x":168601.68000000156,"y":2543710.5600000024}},{"attributes":{"ID":360548,"DIS_CODE":0,"TOWNNAME":"麻豆區","LI":"東角里","LIN":"13鄰","STREET":"民生路","SECT":" ","MAREA":" ","LANE":" ","ALLEY":" ","HOUSE_NO":"１７號之１２","E_COORD97":173636.72,"N_COORD97":2564757.3199999998,"ADDRESS":"民生路１７號之１２","OBJECTID":360538},"geometry":{"x":173636.72000000067,"y":2564757.3200000003}},{"attributes":{"ID":360549,"DIS_CODE":0,"TOWNNAME":"中西區","LI":"青年里","LIN":"19鄰","STREET":"中山路","SECT":" ","MAREA":" ","LANE":"８巷","ALLEY":" ","HOUSE_NO":"１號二樓之２","E_COORD97":168601.67999999999,"N_COORD97":2543710.5600000001,"ADDRESS":"中山路８巷１號二樓之２","OBJECTID":360539},"geometry":{"x":168601.68000000156,"y":2543710.5600000024}},{"attributes":{"ID":360550,"DIS_CODE":0,"TOWNNAME":"中西區","LI":"青年里","LIN":"19鄰","STREET":"中山路","SECT":" ","MAREA":" ","LANE":"８巷","ALLEY":" ","HOUSE_NO":"１號二樓之３","E_COORD97":168601.67999999999,"N_COORD97":2543710.5600000001,"ADDRESS":"中山路８巷１號二樓之３","OBJECTID":360540},"geometry":{"x":168601.68000000156,"y":2543710.5600000024}},{"attributes":{"ID":360551,"DIS_CODE":0,"TOWNNAME":"中西區","LI":"青年里","LIN":"19鄰","STREET":"中山路","SECT":" ","MAREA":" ","LANE":"８巷","ALLEY":" ","HOUSE_NO":"１號二樓之４","E_COORD97":168601.67999999999,"N_COORD97":2543710.5600000001,"ADDRESS":"中山路８巷１號二樓之４","OBJECTID":360541},"geometry":{"x":168601.68000000156,"y":2543710.5600000024}},{"attributes":{"ID":360552,"DIS_CODE":0,"TOWNNAME":"中西區","LI":"青年里","LIN":"19鄰","STREET":"中山路","SECT":" ","MAREA":" ","LANE":"８巷","ALLEY":" ","HOUSE_NO":"１號二樓之５","E_COORD97":168601.67999999999,"N_COORD97":2543710.5600000001,"ADDRESS":"中山路８巷１號二樓之５","OBJECTID":360542},"geometry":{"x":168601.68000000156,"y":2543710.5600000024}},{"attributes":{"ID":360553,"DIS_CODE":0,"TOWNNAME":"中西區","LI":"青年里","LIN":"19鄰","STREET":"中山路","SECT":" ","MAREA":" ","LANE":"８巷","ALLEY":" ","HOUSE_NO":"１號二樓之６","E_COORD97":168601.67999999999,"N_COORD97":2543710.5600000001,"ADDRESS":"中山路８巷１號二樓之６","OBJECTID":360543},"geometry":{"x":168601.68000000156,"y":2543710.5600000024}},{"attributes":{"ID":360554,"DIS_CODE":0,"TOWNNAME":"中西區","LI":"青年里","LIN":"19鄰","STREET":"中山路","SECT":" ","MAREA":" ","LANE":"８巷","ALLEY":" ","HOUSE_NO":"１號三樓之１","E_COORD97":168601.67999999999,"N_COORD97":2543710.5600000001,"ADDRESS":"中山路８巷１號三樓之１","OBJECTID":360544},"geometry":{"x":168601.68000000156,"y":2543710.5600000024}},{"attributes":{"ID":360555,"DIS_CODE":0,"TOWNNAME":"中西區","LI":"青年里","LIN":"19鄰","STREET":"中山路","SECT":" ","MAREA":" ","LANE":"８巷","ALLEY":" ","HOUSE_NO":"１號三樓之２","E_COORD97":168601.67999999999,"N_COORD97":2543710.5600000001,"ADDRESS":"中山路８巷１號三樓之２","OBJECTID":360545},"geometry":{"x":168601.68000000156,"y":2543710.5600000024}},{"attributes":{"ID":360556,"DIS_CODE":0,"TOWNNAME":"中西區","LI":"青年里","LIN":"19鄰","STREET":"中山路","SECT":" ","MAREA":" ","LANE":"８巷","ALLEY":" ","HOUSE_NO":"１號三樓之３","E_COORD97":168601.67999999999,"N_COORD97":2543710.5600000001,"ADDRESS":"中山路８巷１號三樓之３","OBJECTID":360546},"geometry":{"x":168601.68000000156,"y":2543710.5600000024}},{"attributes":{"ID":360557,"DIS_CODE":0,"TOWNNAME":"中西區","LI":"青年里","LIN":"19鄰","STREET":"中山路","SECT":" ","MAREA":" ","LANE":"８巷","ALLEY":" ","HOUSE_NO":"１號三樓之４","E_COORD97":168601.67999999999,"N_COORD97":2543710.5600000001,"ADDRESS":"中山路８巷１號三樓之４","OBJECTID":360547},"geometry":{"x":168601.68000000156,"y":2543710.5600000024}},{"attributes":{"ID":360558,"DIS_CODE":0,"TOWNNAME":"中西區","LI":"青年里","LIN":"19鄰","STREET":"中山路","SECT":" ","MAREA":" ","LANE":"８巷","ALLEY":" ","HOUSE_NO":"１號五樓之１","E_COORD97":168601.67999999999,"N_COORD97":2543710.5600000001,"ADDRESS":"中山路８巷１號五樓之１","OBJECTID":360548},"geometry":{"x":168601.68000000156,"y":2543710.5600000024}},{"attributes":{"ID":360559,"DIS_CODE":0,"TOWNNAME":"中西區","LI":"青年里","LIN":"19鄰","STREET":"中山路","SECT":" ","MAREA":" ","LANE":"８巷","ALLEY":" ","HOUSE_NO":"１號五樓之２","E_COORD97":168601.67999999999,"N_COORD97":2543710.5600000001,"ADDRESS":"中山路８巷１號五樓之２","OBJECTID":360549},"geometry":{"x":168601.68000000156,"y":2543710.5600000024}},{"attributes":{"ID":360560,"DIS_CODE":0,"TOWNNAME":"中西區","LI":"青年里","LIN":"19鄰","STREET":"中山路","SECT":" ","MAREA":" ","LANE":"８巷","ALLEY":" ","HOUSE_NO":"１號五樓之３","E_COORD97":168601.67999999999,"N_COORD97":2543710.5600000001,"ADDRESS":"中山路８巷１號五樓之３","OBJECTID":360550},"geometry":{"x":168601.68000000156,"y":2543710.5600000024}},{"attributes":{"ID":360561,"DIS_CODE":0,"TOWNNAME":"中西區","LI":"青年里","LIN":"19鄰","STREET":"中山路","SECT":" ","MAREA":" ","LANE":"８巷","ALLEY":" ","HOUSE_NO":"１號五樓之４","E_COORD97":168601.67999999999,"N_COORD97":2543710.5600000001,"ADDRESS":"中山路８巷１號五樓之４","OBJECTID":360551},"geometry":{"x":168601.68000000156,"y":2543710.5600000024}},{"attributes":{"ID":360562,"DIS_CODE":0,"TOWNNAME":"中西區","LI":"青年里","LIN":"19鄰","STREET":"中山路","SECT":" ","MAREA":" ","LANE":"８巷","ALLEY":" ","HOUSE_NO":"１號五樓之５","E_COORD97":168601.67999999999,"N_COORD97":2543710.5600000001,"ADDRESS":"中山路８巷１號五樓之５","OBJECTID":360552},"geometry":{"x":168601.68000000156,"y":2543710.5600000024}},{"attributes":{"ID":360563,"DIS_CODE":0,"TOWNNAME":"中西區","LI":"青年里","LIN":"19鄰","STREET":"中山路","SECT":" ","MAREA":" ","LANE":"８巷","ALLEY":" ","HOUSE_NO":"１號六樓之１","E_COORD97":168601.67999999999,"N_COORD97":2543710.5600000001,"ADDRESS":"中山路８巷１號六樓之１","OBJECTID":360553},"geometry":{"x":168601.68000000156,"y":2543710.5600000024}},{"attributes":{"ID":360564,"DIS_CODE":0,"TOWNNAME":"中西區","LI":"青年里","LIN":"19鄰","STREET":"中山路","SECT":" ","MAREA":" ","LANE":"８巷","ALLEY":" ","HOUSE_NO":"１號六樓之３","E_COORD97":168601.67999999999,"N_COORD97":2543710.5600000001,"ADDRESS":"中山路８巷１號六樓之３","OBJECTID":360554},"geometry":{"x":168601.68000000156,"y":2543710.5600000024}},{"attributes":{"ID":360565,"DIS_CODE":0,"TOWNNAME":"中西區","LI":"青年里","LIN":"19鄰","STREET":"中山路","SECT":" ","MAREA":" ","LANE":"８巷","ALLEY":" ","HOUSE_NO":"１號六樓之４","E_COORD97":168601.67999999999,"N_COORD97":2543710.5600000001,"ADDRESS":"中山路８巷１號六樓之４","OBJECTID":360555},"geometry":{"x":168601.68000000156,"y":2543710.5600000024}},{"attributes":{"ID":360566,"DIS_CODE":0,"TOWNNAME":"中西區","LI":"青年里","LIN":"19鄰","STREET":"中山路","SECT":" ","MAREA":" ","LANE":"８巷","ALLEY":" ","HOUSE_NO":"１號六樓之５","E_COORD97":168601.67999999999,"N_COORD97":2543710.5600000001,"ADDRESS":"中山路８巷１號六樓之５","OBJECTID":360556},"geometry":{"x":168601.68000000156,"y":2543710.5600000024}},{"attributes":{"ID":360567,"DIS_CODE":0,"TOWNNAME":"中西區","LI":"青年里","LIN":"19鄰","STREET":"中山路","SECT":" ","MAREA":" ","LANE":"８巷","ALLEY":" ","HOUSE_NO":"１號六樓之６","E_COORD97":168601.67999999999,"N_COORD97":2543710.5600000001,"ADDRESS":"中山路８巷１號六樓之６","OBJECTID":360557},"geometry":{"x":168601.68000000156,"y":2543710.5600000024}},{"attributes":{"ID":360568,"DIS_CODE":0,"TOWNNAME":"中西區","LI":"青年里","LIN":"19鄰","STREET":"中山路","SECT":" ","MAREA":" ","LANE":"８巷","ALLEY":" ","HOUSE_NO":"１號四樓之１","E_COORD97":168601.67999999999,"N_COORD97":2543710.5600000001,"ADDRESS":"中山路８巷１號四樓之１","OBJECTID":360558},"geometry":{"x":168601.68000000156,"y":2543710.5600000024}},{"attributes":{"ID":360569,"DIS_CODE":0,"TOWNNAME":"中西區","LI":"青年里","LIN":"19鄰","STREET":"中山路","SECT":" ","MAREA":" ","LANE":"８巷","ALLEY":" ","HOUSE_NO":"１號四樓之２","E_COORD97":168601.67999999999,"N_COORD97":2543710.5600000001,"ADDRESS":"中山路８巷１號四樓之２","OBJECTID":360559},"geometry":{"x":168601.68000000156,"y":2543710.5600000024}},{"attributes":{"ID":360570,"DIS_CODE":0,"TOWNNAME":"中西區","LI":"青年里","LIN":"19鄰","STREET":"中山路","SECT":" ","MAREA":" ","LANE":"８巷","ALLEY":" ","HOUSE_NO":"１號四樓之３","E_COORD97":168601.67999999999,"N_COORD97":2543710.5600000001,"ADDRESS":"中山路８巷１號四樓之３","OBJECTID":360560},"geometry":{"x":168601.68000000156,"y":2543710.5600000024}},{"attributes":{"ID":360571,"DIS_CODE":0,"TOWNNAME":"中西區","LI":"青年里","LIN":"19鄰","STREET":"中山路","SECT":" ","MAREA":" ","LANE":"８巷","ALLEY":" ","HOUSE_NO":"１號四樓之４","E_COORD97":168601.67999999999,"N_COORD97":2543710.5600000001,"ADDRESS":"中山路８巷１號四樓之４","OBJECTID":360561},"geometry":{"x":168601.68000000156,"y":2543710.5600000024}},{"attributes":{"ID":360572,"DIS_CODE":0,"TOWNNAME":"中西區","LI":"青年里","LIN":"19鄰","STREET":"中山路","SECT":" ","MAREA":" ","LANE":"８巷","ALLEY":" ","HOUSE_NO":"１號四樓之５","E_COORD97":168601.67999999999,"N_COORD97":2543710.5600000001,"ADDRESS":"中山路８巷１號四樓之５","OBJECTID":360562},"geometry":{"x":168601.68000000156,"y":2543710.5600000024}},{"attributes":{"ID":360573,"DIS_CODE":0,"TOWNNAME":"東區","LI":"虎尾里","LIN":"19鄰","STREET":"東成街","SECT":" ","MAREA":" ","LANE":"２８巷","ALLEY":" ","HOUSE_NO":"１０號二樓之１","E_COORD97":171325.72,"N_COORD97":2542219.9399999999,"ADDRESS":"東成街２８巷１０號二樓之１","OBJECTID":360563},"geometry":{"x":171325.7200000016,"y":2542219.9399999995}},{"attributes":{"ID":360574,"DIS_CODE":0,"TOWNNAME":"東區","LI":"虎尾里","LIN":"19鄰","STREET":"東成街","SECT":" ","MAREA":" ","LANE":"２８巷","ALLEY":" ","HOUSE_NO":"１０號二樓之２","E_COORD97":171325.72,"N_COORD97":2542219.9399999999,"ADDRESS":"東成街２８巷１０號二樓之２","OBJECTID":360564},"geometry":{"x":171325.7200000016,"y":2542219.9399999995}},{"attributes":{"ID":360575,"DIS_CODE":0,"TOWNNAME":"東區","LI":"虎尾里","LIN":"19鄰","STREET":"東成街","SECT":" ","MAREA":" ","LANE":"２８巷","ALLEY":" ","HOUSE_NO":"１０號三樓之１","E_COORD97":171325.72,"N_COORD97":2542219.9399999999,"ADDRESS":"東成街２８巷１０號三樓之１","OBJECTID":360565},"geometry":{"x":171325.7200000016,"y":2542219.9399999995}},{"attributes":{"ID":360576,"DIS_CODE":0,"TOWNNAME":"東區","LI":"虎尾里","LIN":"19鄰","STREET":"東成街","SECT":" ","MAREA":" ","LANE":"２８巷","ALLEY":" ","HOUSE_NO":"１０號三樓之２","E_COORD97":171325.72,"N_COORD97":2542219.9399999999,"ADDRESS":"東成街２８巷１０號三樓之２","OBJECTID":360566},"geometry":{"x":171325.7200000016,"y":2542219.9399999995}},{"attributes":{"ID":360577,"DIS_CODE":0,"TOWNNAME":"東區","LI":"虎尾里","LIN":"19鄰","STREET":"東成街","SECT":" ","MAREA":" ","LANE":"２８巷","ALLEY":" ","HOUSE_NO":"１０號五樓之１","E_COORD97":171325.72,"N_COORD97":2542219.9399999999,"ADDRESS":"東成街２８巷１０號五樓之１","OBJECTID":360567},"geometry":{"x":171325.7200000016,"y":2542219.9399999995}},{"attributes":{"ID":360578,"DIS_CODE":0,"TOWNNAME":"東區","LI":"虎尾里","LIN":"19鄰","STREET":"東成街","SECT":" ","MAREA":" ","LANE":"２８巷","ALLEY":" ","HOUSE_NO":"１０號五樓之２","E_COORD97":171325.72,"N_COORD97":2542219.9399999999,"ADDRESS":"東成街２８巷１０號五樓之２","OBJECTID":360568},"geometry":{"x":171325.7200000016,"y":2542219.9399999995}},{"attributes":{"ID":360579,"DIS_CODE":0,"TOWNNAME":"東區","LI":"虎尾里","LIN":"19鄰","STREET":"東成街","SECT":" ","MAREA":" ","LANE":"２８巷","ALLEY":" ","HOUSE_NO":"１０號四樓之１","E_COORD97":171325.72,"N_COORD97":2542219.9399999999,"ADDRESS":"東成街２８巷１０號四樓之１","OBJECTID":360569},"geometry":{"x":171325.7200000016,"y":2542219.9399999995}},{"attributes":{"ID":360580,"DIS_CODE":0,"TOWNNAME":"東區","LI":"虎尾里","LIN":"19鄰","STREET":"東成街","SECT":" ","MAREA":" ","LANE":"２８巷","ALLEY":" ","HOUSE_NO":"１４號二樓之１","E_COORD97":171335.04000000001,"N_COORD97":2542212.5899999999,"ADDRESS":"東成街２８巷１４號二樓之１","OBJECTID":360570},"geometry":{"x":171335.04000000004,"y":2542212.5899999999}},{"attributes":{"ID":360581,"DIS_CODE":0,"TOWNNAME":"東區","LI":"虎尾里","LIN":"19鄰","STREET":"東成街","SECT":" ","MAREA":" ","LANE":"２８巷","ALLEY":" ","HOUSE_NO":"１４號二樓之２","E_COORD97":171335.04000000001,"N_COORD97":2542212.5899999999,"ADDRESS":"東成街２８巷１４號二樓之２","OBJECTID":360571},"geometry":{"x":171335.04000000004,"y":2542212.5899999999}},{"attributes":{"ID":360582,"DIS_CODE":0,"TOWNNAME":"東區","LI":"虎尾里","LIN":"19鄰","STREET":"東成街","SECT":" ","MAREA":" ","LANE":"２８巷","ALLEY":" ","HOUSE_NO":"１４號三樓之１","E_COORD97":171335.04000000001,"N_COORD97":2542212.5899999999,"ADDRESS":"東成街２８巷１４號三樓之１","OBJECTID":360572},"geometry":{"x":171335.04000000004,"y":2542212.5899999999}},{"attributes":{"ID":360583,"DIS_CODE":0,"TOWNNAME":"東區","LI":"虎尾里","LIN":"19鄰","STREET":"東成街","SECT":" ","MAREA":" ","LANE":"２８巷","ALLEY":" ","HOUSE_NO":"１４號三樓之２","E_COORD97":171335.04000000001,"N_COORD97":2542212.5899999999,"ADDRESS":"東成街２８巷１４號三樓之２","OBJECTID":360573},"geometry":{"x":171335.04000000004,"y":2542212.5899999999}},{"attributes":{"ID":360584,"DIS_CODE":0,"TOWNNAME":"東區","LI":"虎尾里","LIN":"19鄰","STREET":"東成街","SECT":" ","MAREA":" ","LANE":"２８巷","ALLEY":" ","HOUSE_NO":"１４號五樓之１","E_COORD97":171335.04000000001,"N_COORD97":2542212.5899999999,"ADDRESS":"東成街２８巷１４號五樓之１","OBJECTID":360574},"geometry":{"x":171335.04000000004,"y":2542212.5899999999}},{"attributes":{"ID":360585,"DIS_CODE":0,"TOWNNAME":"東區","LI":"虎尾里","LIN":"19鄰","STREET":"東成街","SECT":" ","MAREA":" ","LANE":"２８巷","ALLEY":" ","HOUSE_NO":"１４號五樓之２","E_COORD97":171335.04000000001,"N_COORD97":2542212.5899999999,"ADDRESS":"東成街２８巷１４號五樓之２","OBJECTID":360575},"geometry":{"x":171335.04000000004,"y":2542212.5899999999}},{"attributes":{"ID":360586,"DIS_CODE":0,"TOWNNAME":"東區","LI":"虎尾里","LIN":"19鄰","STREET":"東成街","SECT":" ","MAREA":" ","LANE":"２８巷","ALLEY":" ","HOUSE_NO":"１４號四樓之１","E_COORD97":171335.04000000001,"N_COORD97":2542212.5899999999,"ADDRESS":"東成街２８巷１４號四樓之１","OBJECTID":360576},"geometry":{"x":171335.04000000004,"y":2542212.5899999999}},{"attributes":{"ID":360587,"DIS_CODE":0,"TOWNNAME":"東區","LI":"虎尾里","LIN":"19鄰","STREET":"東成街","SECT":" ","MAREA":" ","LANE":"２８巷","ALLEY":" ","HOUSE_NO":"１４號四樓之２","E_COORD97":171335.04000000001,"N_COORD97":2542212.5899999999,"ADDRESS":"東成街２８巷１４號四樓之２","OBJECTID":360577},"geometry":{"x":171335.04000000004,"y":2542212.5899999999}},{"attributes":{"ID":360588,"DIS_CODE":0,"TOWNNAME":"東區","LI":"虎尾里","LIN":"19鄰","STREET":"東成街","SECT":" ","MAREA":" ","LANE":"２８巷","ALLEY":" ","HOUSE_NO":"１８號二樓","E_COORD97":171344.85000000001,"N_COORD97":2542205.1200000001,"ADDRESS":"東成街２８巷１８號二樓","OBJECTID":360578},"geometry":{"x":171344.8499999987,"y":2542205.1200000029}},{"attributes":{"ID":360589,"DIS_CODE":0,"TOWNNAME":"東區","LI":"虎尾里","LIN":"19鄰","STREET":"東成街","SECT":" ","MAREA":" ","LANE":"２８巷","ALLEY":" ","HOUSE_NO":"１８號三樓","E_COORD97":171344.85000000001,"N_COORD97":2542205.1200000001,"ADDRESS":"東成街２８巷１８號三樓","OBJECTID":360579},"geometry":{"x":171344.8499999987,"y":2542205.1200000029}},{"attributes":{"ID":360590,"DIS_CODE":0,"TOWNNAME":"東區","LI":"虎尾里","LIN":"19鄰","STREET":"東成街","SECT":" ","MAREA":" ","LANE":"２８巷","ALLEY":" ","HOUSE_NO":"１８號五樓","E_COORD97":171344.85000000001,"N_COORD97":2542205.1200000001,"ADDRESS":"東成街２８巷１８號五樓","OBJECTID":360580},"geometry":{"x":171344.8499999987,"y":2542205.1200000029}},{"attributes":{"ID":360591,"DIS_CODE":0,"TOWNNAME":"東區","LI":"虎尾里","LIN":"19鄰","STREET":"東成街","SECT":" ","MAREA":" ","LANE":"２８巷","ALLEY":" ","HOUSE_NO":"１８號四樓","E_COORD97":171344.85000000001,"N_COORD97":2542205.1200000001,"ADDRESS":"東成街２８巷１８號四樓","OBJECTID":360581},"geometry":{"x":171344.8499999987,"y":2542205.1200000029}},{"attributes":{"ID":360592,"DIS_CODE":0,"TOWNNAME":"東區","LI":"虎尾里","LIN":"19鄰","STREET":"東成街","SECT":" ","MAREA":" ","LANE":"２８巷","ALLEY":" ","HOUSE_NO":"２號二樓之１","E_COORD97":171304.32999999999,"N_COORD97":2542236.9700000002,"ADDRESS":"東成街２８巷２號二樓之１","OBJECTID":360582},"geometry":{"x":171304.33000000007,"y":2542236.9700000007}},{"attributes":{"ID":360593,"DIS_CODE":0,"TOWNNAME":"東區","LI":"虎尾里","LIN":"19鄰","STREET":"東成街","SECT":" ","MAREA":" ","LANE":"２８巷","ALLEY":" ","HOUSE_NO":"２號二樓之２","E_COORD97":171304.32999999999,"N_COORD97":2542236.9700000002,"ADDRESS":"東成街２８巷２號二樓之２","OBJECTID":360583},"geometry":{"x":171304.33000000007,"y":2542236.9700000007}},{"attributes":{"ID":360594,"DIS_CODE":0,"TOWNNAME":"東區","LI":"虎尾里","LIN":"19鄰","STREET":"東成街","SECT":" ","MAREA":" ","LANE":"２８巷","ALLEY":" ","HOUSE_NO":"２號三樓之１","E_COORD97":171304.32999999999,"N_COORD97":2542236.9700000002,"ADDRESS":"東成街２８巷２號三樓之１","OBJECTID":360584},"geometry":{"x":171304.33000000007,"y":2542236.9700000007}},{"attributes":{"ID":360595,"DIS_CODE":0,"TOWNNAME":"東區","LI":"虎尾里","LIN":"19鄰","STREET":"東成街","SECT":" ","MAREA":" ","LANE":"２８巷","ALLEY":" ","HOUSE_NO":"２號三樓之２","E_COORD97":171304.32999999999,"N_COORD97":2542236.9700000002,"ADDRESS":"東成街２８巷２號三樓之２","OBJECTID":360585},"geometry":{"x":171304.33000000007,"y":2542236.9700000007}},{"attributes":{"ID":360596,"DIS_CODE":0,"TOWNNAME":"東區","LI":"虎尾里","LIN":"19鄰","STREET":"東成街","SECT":" ","MAREA":" ","LANE":"２８巷","ALLEY":" ","HOUSE_NO":"２號五樓之１","E_COORD97":171304.32999999999,"N_COORD97":2542236.9700000002,"ADDRESS":"東成街２８巷２號五樓之１","OBJECTID":360586},"geometry":{"x":171304.33000000007,"y":2542236.9700000007}},{"attributes":{"ID":360597,"DIS_CODE":0,"TOWNNAME":"東區","LI":"虎尾里","LIN":"19鄰","STREET":"東成街","SECT":" ","MAREA":" ","LANE":"２８巷","ALLEY":" ","HOUSE_NO":"２號五樓之２","E_COORD97":171304.32999999999,"N_COORD97":2542236.9700000002,"ADDRESS":"東成街２８巷２號五樓之２","OBJECTID":360587},"geometry":{"x":171304.33000000007,"y":2542236.9700000007}},{"attributes":{"ID":360598,"DIS_CODE":0,"TOWNNAME":"東區","LI":"虎尾里","LIN":"19鄰","STREET":"東成街","SECT":" ","MAREA":" ","LANE":"２８巷","ALLEY":" ","HOUSE_NO":"２號四樓之１","E_COORD97":171304.32999999999,"N_COORD97":2542236.9700000002,"ADDRESS":"東成街２８巷２號四樓之１","OBJECTID":360588},"geometry":{"x":171304.33000000007,"y":2542236.9700000007}},{"attributes":{"ID":360599,"DIS_CODE":0,"TOWNNAME":"東區","LI":"虎尾里","LIN":"19鄰","STREET":"東成街","SECT":" ","MAREA":" ","LANE":"２８巷","ALLEY":" ","HOUSE_NO":"２號四樓之２","E_COORD97":171304.32999999999,"N_COORD97":2542236.9700000002,"ADDRESS":"東成街２８巷２號四樓之２","OBJECTID":360589},"geometry":{"x":171304.33000000007,"y":2542236.9700000007}},{"attributes":{"ID":360600,"DIS_CODE":0,"TOWNNAME":"東區","LI":"虎尾里","LIN":"19鄰","STREET":"東成街","SECT":" ","MAREA":" ","LANE":"２８巷","ALLEY":" ","HOUSE_NO":"６號二樓之１","E_COORD97":171317.14000000001,"N_COORD97":2542227.0499999998,"ADDRESS":"東成街２８巷６號二樓之１","OBJECTID":360590},"geometry":{"x":171317.13999999966,"y":2542227.0500000007}},{"attributes":{"ID":360601,"DIS_CODE":0,"TOWNNAME":"仁德區","LI":"仁德里","LIN":"39鄰","STREET":"文宏二街","SECT":" ","MAREA":" ","LANE":" ","ALLEY":" ","HOUSE_NO":"７２號","E_COORD97":172485.85999999999,"N_COORD97":2541741.3199999998,"ADDRESS":"文宏二街７２號","OBJECTID":360591},"geometry":{"x":172485.86000000034,"y":2541741.3200000022}},{"attributes":{"ID":360602,"DIS_CODE":0,"TOWNNAME":"北區","LI":"成功里","LIN":"22鄰","STREET":"北安路","SECT":"一段","MAREA":" ","LANE":"十七六巷","ALLEY":" ","HOUSE_NO":"２０號四樓","E_COORD97":168955.19,"N_COORD97":2546513.52,"ADDRESS":"北安路一段十七六巷２０號四樓","OBJECTID":360592},"geometry":{"x":168955.19000000134,"y":2546513.5200000014}},{"attributes":{"ID":360603,"DIS_CODE":0,"TOWNNAME":"東區","LI":"虎尾里","LIN":"19鄰","STREET":"東成街","SECT":" ","MAREA":" ","LANE":"２８巷","ALLEY":" ","HOUSE_NO":"６號二樓之２","E_COORD97":171317.14000000001,"N_COORD97":2542227.0499999998,"ADDRESS":"東成街２８巷６號二樓之２","OBJECTID":360593},"geometry":{"x":171317.13999999966,"y":2542227.0500000007}},{"attributes":{"ID":360604,"DIS_CODE":0,"TOWNNAME":"東區","LI":"虎尾里","LIN":"19鄰","STREET":"東成街","SECT":" ","MAREA":" ","LANE":"２８巷","ALLEY":" ","HOUSE_NO":"６號三樓之１","E_COORD97":171317.14000000001,"N_COORD97":2542227.0499999998,"ADDRESS":"東成街２８巷６號三樓之１","OBJECTID":360594},"geometry":{"x":171317.13999999966,"y":2542227.0500000007}},{"attributes":{"ID":360605,"DIS_CODE":0,"TOWNNAME":"東區","LI":"虎尾里","LIN":"19鄰","STREET":"東成街","SECT":" ","MAREA":" ","LANE":"２８巷","ALLEY":" ","HOUSE_NO":"６號三樓之２","E_COORD97":171317.14000000001,"N_COORD97":2542227.0499999998,"ADDRESS":"東成街２８巷６號三樓之２","OBJECTID":360595},"geometry":{"x":171317.13999999966,"y":2542227.0500000007}},{"attributes":{"ID":360606,"DIS_CODE":0,"TOWNNAME":"東區","LI":"虎尾里","LIN":"19鄰","STREET":"東成街","SECT":" ","MAREA":" ","LANE":"２８巷","ALLEY":" ","HOUSE_NO":"６號五樓之１","E_COORD97":171317.14000000001,"N_COORD97":2542227.0499999998,"ADDRESS":"東成街２８巷６號五樓之１","OBJECTID":360596},"geometry":{"x":171317.13999999966,"y":2542227.0500000007}},{"attributes":{"ID":360607,"DIS_CODE":0,"TOWNNAME":"東區","LI":"虎尾里","LIN":"19鄰","STREET":"東成街","SECT":" ","MAREA":" ","LANE":"２８巷","ALLEY":" ","HOUSE_NO":"６號五樓之２","E_COORD97":171317.14000000001,"N_COORD97":2542227.0499999998,"ADDRESS":"東成街２８巷６號五樓之２","OBJECTID":360597},"geometry":{"x":171317.13999999966,"y":2542227.0500000007}},{"attributes":{"ID":360608,"DIS_CODE":0,"TOWNNAME":"東區","LI":"虎尾里","LIN":"19鄰","STREET":"東成街","SECT":" ","MAREA":" ","LANE":"２８巷","ALLEY":" ","HOUSE_NO":"６號四樓之１","E_COORD97":171317.14000000001,"N_COORD97":2542227.0499999998,"ADDRESS":"東成街２８巷６號四樓之１","OBJECTID":360598},"geometry":{"x":171317.13999999966,"y":2542227.0500000007}},{"attributes":{"ID":360609,"DIS_CODE":0,"TOWNNAME":"東區","LI":"虎尾里","LIN":"19鄰","STREET":"東成街","SECT":" ","MAREA":" ","LANE":"２８巷","ALLEY":" ","HOUSE_NO":"６號四樓之２","E_COORD97":171317.14000000001,"N_COORD97":2542227.0499999998,"ADDRESS":"東成街２８巷６號四樓之２","OBJECTID":360599},"geometry":{"x":171317.13999999966,"y":2542227.0500000007}},{"attributes":{"ID":360610,"DIS_CODE":0,"TOWNNAME":"南區","LI":"省躬里","LIN":"10鄰","STREET":"灣裡路","SECT":" ","MAREA":" ","LANE":"６２巷","ALLEY":" ","HOUSE_NO":"１８號","E_COORD97":165746.10000000001,"N_COORD97":2537162.9700000002,"ADDRESS":"灣裡路６２巷１８號","OBJECTID":360600},"geometry":{"x":165746.10000000056,"y":2537162.9700000044}}]}