{"displayFieldName":"TOWNNAME","fieldAliases":{"ID":"ID","DIS_CODE":"DIS_CODE","TOWNNAME":"TOWNNAME","LI":"LI","LIN":"LIN","STREET":"STREET","SECT":"SECT","MAREA":"MAREA","LANE":"LANE","ALLEY":"ALLEY","HOUSE_NO":"HOUSE_NO","E_COORD97":"E_COORD97","N_COORD97":"N_COORD97","ADDRESS":"ADDRESS","OBJECTID":"OBJECTID"},"geometryType":"esriGeometryPoint","spatialReference":{"wkid":102443,"latestWkid":3826},"fields":[{"name":"ID","type":"esriFieldTypeDouble","alias":"ID"},{"name":"DIS_CODE","type":"esriFieldTypeInteger","alias":"DIS_CODE"},{"name":"TOWNNAME","type":"esriFieldTypeString","alias":"TOWNNAME","length":8},{"name":"LI","type":"esriFieldTypeString","alias":"LI","length":8},{"name":"LIN","type":"esriFieldTypeString","alias":"LIN","length":12},{"name":"STREET","type":"esriFieldTypeString","alias":"STREET","length":20},{"name":"SECT","type":"esriFieldTypeString","alias":"SECT","length":8},{"name":"MAREA","type":"esriFieldTypeString","alias":"MAREA","length":12},{"name":"LANE","type":"esriFieldTypeString","alias":"LANE","length":10},{"name":"ALLEY","type":"esriFieldTypeString","alias":"ALLEY","length":10},{"name":"HOUSE_NO","type":"esriFieldTypeString","alias":"HOUSE_NO","length":20},{"name":"E_COORD97","type":"esriFieldTypeDouble","alias":"E_COORD97"},{"name":"N_COORD97","type":"esriFieldTypeDouble","alias":"N_COORD97"},{"name":"ADDRESS","type":"esriFieldTypeString","alias":"ADDRESS","length":50},{"name":"OBJECTID","type":"esriFieldTypeOID","alias":"OBJECTID"}],"features":[{"attributes":{"ID":28001,"DIS_CODE":0,"TOWNNAME":"東區","LI":"德高里","LIN":"17鄰","STREET":"崇善路","SECT":" ","MAREA":" ","LANE":"１０８９巷","ALLEY":"１６弄","HOUSE_NO":"７號","E_COORD97":171615.10999999999,"N_COORD97":2540533.6000000001,"ADDRESS":"崇善路１０８９巷１６弄７號","OBJECTID":28001},"geometry":{"x":171615.1100000022,"y":2540533.5999999996}},{"attributes":{"ID":28002,"DIS_CODE":0,"TOWNNAME":"麻豆區","LI":"謝安里","LIN":"8鄰","STREET":" ","SECT":" ","MAREA":"謝厝寮","LANE":" ","ALLEY":" ","HOUSE_NO":"２００號","E_COORD97":171803.91,"N_COORD97":2561198.7200000002,"ADDRESS":"謝厝寮２００號","OBJECTID":28002},"geometry":{"x":171803.91000000015,"y":2561198.7200000007}},{"attributes":{"ID":28003,"DIS_CODE":0,"TOWNNAME":"麻豆區","LI":"謝安里","LIN":"8鄰","STREET":" ","SECT":" ","MAREA":"謝厝寮","LANE":" ","ALLEY":" ","HOUSE_NO":"２０１號","E_COORD97":171822.82000000001,"N_COORD97":2561202.7400000002,"ADDRESS":"謝厝寮２０１號","OBJECTID":28003},"geometry":{"x":171822.82000000123,"y":2561202.7400000021}},{"attributes":{"ID":28004,"DIS_CODE":0,"TOWNNAME":"東區","LI":"德高里","LIN":"17鄰","STREET":"崇善路","SECT":" ","MAREA":" ","LANE":"１０８９巷","ALLEY":"１６弄","HOUSE_NO":"９號","E_COORD97":171619.26000000001,"N_COORD97":2540536.1800000002,"ADDRESS":"崇善路１０８９巷１６弄９號","OBJECTID":28004},"geometry":{"x":171619.26000000071,"y":2540536.1799999997}},{"attributes":{"ID":28005,"DIS_CODE":0,"TOWNNAME":"東區","LI":"德高里","LIN":"17鄰","STREET":"崇善路","SECT":" ","MAREA":" ","LANE":"１０８９巷","ALLEY":"５８弄","HOUSE_NO":"１２號","E_COORD97":171663.76999999999,"N_COORD97":2540516.4700000002,"ADDRESS":"崇善路１０８９巷５８弄１２號","OBJECTID":28005},"geometry":{"x":171663.76999999955,"y":2540516.4700000025}},{"attributes":{"ID":28006,"DIS_CODE":0,"TOWNNAME":"麻豆區","LI":"謝安里","LIN":"8鄰","STREET":" ","SECT":" ","MAREA":"謝厝寮","LANE":" ","ALLEY":" ","HOUSE_NO":"２０２號之１","E_COORD97":171835.04999999999,"N_COORD97":2561205.4300000002,"ADDRESS":"謝厝寮２０２號之１","OBJECTID":28006},"geometry":{"x":171835.04999999981,"y":2561205.4299999997}},{"attributes":{"ID":28007,"DIS_CODE":0,"TOWNNAME":"東區","LI":"德高里","LIN":"17鄰","STREET":"崇善路","SECT":" ","MAREA":" ","LANE":"１０８９巷","ALLEY":"５８弄","HOUSE_NO":"１６號","E_COORD97":171664.09,"N_COORD97":2540508.4900000002,"ADDRESS":"崇善路１０８９巷５８弄１６號","OBJECTID":28007},"geometry":{"x":171664.09000000078,"y":2540508.4899999984}},{"attributes":{"ID":28008,"DIS_CODE":0,"TOWNNAME":"東區","LI":"德高里","LIN":"17鄰","STREET":"崇善路","SECT":" ","MAREA":" ","LANE":"１０８９巷","ALLEY":"５８弄","HOUSE_NO":"１８號","E_COORD97":171664.19,"N_COORD97":2540504.4399999999,"ADDRESS":"崇善路１０８９巷５８弄１８號","OBJECTID":28008},"geometry":{"x":171664.19000000134,"y":2540504.4399999995}},{"attributes":{"ID":28009,"DIS_CODE":0,"TOWNNAME":"東區","LI":"德高里","LIN":"17鄰","STREET":"崇善路","SECT":" ","MAREA":" ","LANE":"１０８９巷","ALLEY":"５８弄","HOUSE_NO":"２號","E_COORD97":171668.10000000001,"N_COORD97":2540543.23,"ADDRESS":"崇善路１０８９巷５８弄２號","OBJECTID":28009},"geometry":{"x":171668.09999999963,"y":2540543.2300000004}},{"attributes":{"ID":28010,"DIS_CODE":0,"TOWNNAME":"東區","LI":"德高里","LIN":"17鄰","STREET":"崇善路","SECT":" ","MAREA":" ","LANE":"１０８９巷","ALLEY":"１６弄","HOUSE_NO":"３號","E_COORD97":171607.10000000001,"N_COORD97":2540535.1800000002,"ADDRESS":"崇善路１０８９巷１６弄３號","OBJECTID":28010},"geometry":{"x":171607.09999999963,"y":2540535.1800000016}},{"attributes":{"ID":28011,"DIS_CODE":0,"TOWNNAME":"東區","LI":"德高里","LIN":"17鄰","STREET":"崇善路","SECT":" ","MAREA":" ","LANE":"１０８９巷","ALLEY":"１６弄","HOUSE_NO":"５號","E_COORD97":171611.82000000001,"N_COORD97":2540536.1800000002,"ADDRESS":"崇善路１０８９巷１６弄５號","OBJECTID":28011},"geometry":{"x":171611.8200000003,"y":2540536.1799999997}},{"attributes":{"ID":28012,"DIS_CODE":0,"TOWNNAME":"麻豆區","LI":"謝安里","LIN":"8鄰","STREET":" ","SECT":" ","MAREA":"謝厝寮","LANE":" ","ALLEY":" ","HOUSE_NO":"２０７號之１","E_COORD97":171764.04999999999,"N_COORD97":2561142.8900000001,"ADDRESS":"謝厝寮２０７號之１","OBJECTID":28012},"geometry":{"x":171764.04999999981,"y":2561142.8900000006}},{"attributes":{"ID":28013,"DIS_CODE":0,"TOWNNAME":"安定區","LI":"新吉里","LIN":"8鄰","STREET":" ","SECT":" ","MAREA":"新吉","LANE":" ","ALLEY":" ","HOUSE_NO":"７１號之１","E_COORD97":169168.60000000001,"N_COORD97":2553970.2999999998,"ADDRESS":"新吉７１號之１","OBJECTID":28013},"geometry":{"x":169168.60000000056,"y":2553970.3000000045}},{"attributes":{"ID":28014,"DIS_CODE":0,"TOWNNAME":"東區","LI":"德高里","LIN":"17鄰","STREET":"崇善路","SECT":" ","MAREA":" ","LANE":"１０８９巷","ALLEY":"１６弄","HOUSE_NO":"２５號","E_COORD97":171651.09,"N_COORD97":2540540.6600000001,"ADDRESS":"崇善路１０８９巷１６弄２５號","OBJECTID":28014},"geometry":{"x":171651.09000000078,"y":2540540.6600000001}},{"attributes":{"ID":28015,"DIS_CODE":0,"TOWNNAME":"麻豆區","LI":"謝安里","LIN":"8鄰","STREET":" ","SECT":" ","MAREA":"謝厝寮","LANE":" ","ALLEY":" ","HOUSE_NO":"２０７號之２","E_COORD97":171768.85999999999,"N_COORD97":2561136.73,"ADDRESS":"謝厝寮２０７號之２","OBJECTID":28015},"geometry":{"x":171768.86000000034,"y":2561136.7300000004}},{"attributes":{"ID":28016,"DIS_CODE":0,"TOWNNAME":"新市區","LI":"新和里","LIN":"47鄰","STREET":"和平街","SECT":" ","MAREA":" ","LANE":" ","ALLEY":" ","HOUSE_NO":"２０２號","E_COORD97":177387.82000000001,"N_COORD97":2553252.75,"ADDRESS":"和平街２０２號","OBJECTID":28016},"geometry":{"x":177387.82000000123,"y":2553252.7500000019}},{"attributes":{"ID":28017,"DIS_CODE":0,"TOWNNAME":"新市區","LI":"新和里","LIN":"47鄰","STREET":"和平街","SECT":" ","MAREA":" ","LANE":" ","ALLEY":" ","HOUSE_NO":"１６４號","E_COORD97":177460.42999999999,"N_COORD97":2553306.75,"ADDRESS":"和平街１６４號","OBJECTID":28017},"geometry":{"x":177460.4299999997,"y":2553306.7500000019}},{"attributes":{"ID":28018,"DIS_CODE":0,"TOWNNAME":"麻豆區","LI":"中民里","LIN":"8鄰","STREET":" ","SECT":" ","MAREA":"謝厝寮","LANE":" ","ALLEY":" ","HOUSE_NO":"１６２號之３","E_COORD97":171712.82000000001,"N_COORD97":2561176.3199999998,"ADDRESS":"謝厝寮１６２號之３","OBJECTID":28018},"geometry":{"x":171712.82000000123,"y":2561176.3200000003}},{"attributes":{"ID":28019,"DIS_CODE":0,"TOWNNAME":"麻豆區","LI":"中民里","LIN":"8鄰","STREET":" ","SECT":" ","MAREA":"謝厝寮","LANE":" ","ALLEY":" ","HOUSE_NO":"１６２號之４","E_COORD97":171714.81,"N_COORD97":2561186.5800000001,"ADDRESS":"謝厝寮１６２號之４","OBJECTID":28019},"geometry":{"x":171714.81000000145,"y":2561186.5800000019}},{"attributes":{"ID":28020,"DIS_CODE":0,"TOWNNAME":"麻豆區","LI":"中民里","LIN":"8鄰","STREET":" ","SECT":" ","MAREA":"謝厝寮","LANE":" ","ALLEY":" ","HOUSE_NO":"１６２號之５","E_COORD97":171703.48000000001,"N_COORD97":2561188.0699999998,"ADDRESS":"謝厝寮１６２號之５","OBJECTID":28020},"geometry":{"x":171703.48000000045,"y":2561188.0700000003}},{"attributes":{"ID":28021,"DIS_CODE":0,"TOWNNAME":"麻豆區","LI":"中民里","LIN":"8鄰","STREET":" ","SECT":" ","MAREA":"謝厝寮","LANE":" ","ALLEY":" ","HOUSE_NO":"１６２號","E_COORD97":171690.35999999999,"N_COORD97":2561160.96,"ADDRESS":"謝厝寮１６２號","OBJECTID":28021},"geometry":{"x":171690.36000000127,"y":2561160.9600000028}},{"attributes":{"ID":28022,"DIS_CODE":0,"TOWNNAME":"永康區","LI":"二王里","LIN":"47鄰","STREET":"南工街","SECT":" ","MAREA":" ","LANE":" ","ALLEY":" ","HOUSE_NO":"２５０號","E_COORD97":171929.22,"N_COORD97":2545969.4900000002,"ADDRESS":"南工街２５０號","OBJECTID":28022},"geometry":{"x":171929.2200000016,"y":2545969.4900000002}},{"attributes":{"ID":28023,"DIS_CODE":0,"TOWNNAME":"麻豆區","LI":"中民里","LIN":"8鄰","STREET":" ","SECT":" ","MAREA":"謝厝寮","LANE":" ","ALLEY":" ","HOUSE_NO":"１６３號之１","E_COORD97":171702.42999999999,"N_COORD97":2561193.1899999999,"ADDRESS":"謝厝寮１６３號之１","OBJECTID":28023},"geometry":{"x":171702.43000000063,"y":2561193.1899999995}},{"attributes":{"ID":28024,"DIS_CODE":0,"TOWNNAME":"麻豆區","LI":"中民里","LIN":"8鄰","STREET":" ","SECT":" ","MAREA":"謝厝寮","LANE":" ","ALLEY":" ","HOUSE_NO":"１６３號之２","E_COORD97":171703,"N_COORD97":2561199.0800000001,"ADDRESS":"謝厝寮１６３號之２","OBJECTID":28024},"geometry":{"x":171703,"y":2561199.0800000001}},{"attributes":{"ID":28025,"DIS_CODE":0,"TOWNNAME":"麻豆區","LI":"總榮里","LIN":"8鄰","STREET":" ","SECT":" ","MAREA":"總爺\u25A0","LANE":" ","ALLEY":" ","HOUSE_NO":"７３號","E_COORD97":175055.87,"N_COORD97":2564498.1000000001,"ADDRESS":"總爺\u25A0７３號","OBJECTID":28025},"geometry":{"x":175055.87000000011,"y":2564498.1000000015}},{"attributes":{"ID":28026,"DIS_CODE":0,"TOWNNAME":"麻豆區","LI":"中民里","LIN":"8鄰","STREET":" ","SECT":" ","MAREA":"謝厝寮","LANE":" ","ALLEY":" ","HOUSE_NO":"１６３號之８","E_COORD97":171687.09,"N_COORD97":2561225.0499999998,"ADDRESS":"謝厝寮１６３號之８","OBJECTID":28026},"geometry":{"x":171687.08999999985,"y":2561225.0500000026}},{"attributes":{"ID":28027,"DIS_CODE":0,"TOWNNAME":"麻豆區","LI":"中民里","LIN":"8鄰","STREET":" ","SECT":" ","MAREA":"謝厝寮","LANE":" ","ALLEY":" ","HOUSE_NO":"１６４號之１","E_COORD97":171683.57999999999,"N_COORD97":2561227.48,"ADDRESS":"謝厝寮１６４號之１","OBJECTID":28027},"geometry":{"x":171683.58000000101,"y":2561227.4799999986}},{"attributes":{"ID":28028,"DIS_CODE":0,"TOWNNAME":"麻豆區","LI":"中民里","LIN":"8鄰","STREET":" ","SECT":" ","MAREA":"謝厝寮","LANE":" ","ALLEY":" ","HOUSE_NO":"１６４號","E_COORD97":171680.57000000001,"N_COORD97":2561245.21,"ADDRESS":"謝厝寮１６４號","OBJECTID":28028},"geometry":{"x":171680.57000000123,"y":2561245.2100000009}},{"attributes":{"ID":28029,"DIS_CODE":0,"TOWNNAME":"東區","LI":"德高里","LIN":"17鄰","STREET":"崇善路","SECT":" ","MAREA":" ","LANE":"１０８９巷","ALLEY":"５８弄","HOUSE_NO":"１４號","E_COORD97":171663.66,"N_COORD97":2540513.0600000001,"ADDRESS":"崇善路１０８９巷５８弄１４號","OBJECTID":28029},"geometry":{"x":171663.65999999922,"y":2540513.0600000024}},{"attributes":{"ID":28030,"DIS_CODE":0,"TOWNNAME":"東區","LI":"德高里","LIN":"17鄰","STREET":"崇善路","SECT":" ","MAREA":" ","LANE":"１０８９巷","ALLEY":"５８弄","HOUSE_NO":"２０號","E_COORD97":171663.13,"N_COORD97":2540500.6099999999,"ADDRESS":"崇善路１０８９巷５８弄２０號","OBJECTID":28030},"geometry":{"x":171663.12999999989,"y":2540500.6100000013}},{"attributes":{"ID":28031,"DIS_CODE":0,"TOWNNAME":"東區","LI":"東聖里","LIN":"17鄰","STREET":"中華東路","SECT":"二段","MAREA":" ","LANE":"１３３巷","ALLEY":"１７弄","HOUSE_NO":"３７號","E_COORD97":171516.76000000001,"N_COORD97":2542956.3399999999,"ADDRESS":"中華東路二段１３３巷１７弄３７號","OBJECTID":28031},"geometry":{"x":171516.75999999978,"y":2542956.3399999999}},{"attributes":{"ID":28032,"DIS_CODE":0,"TOWNNAME":"東區","LI":"東聖里","LIN":"17鄰","STREET":"中華東路","SECT":"二段","MAREA":" ","LANE":"１３３巷","ALLEY":"１７弄","HOUSE_NO":"２５號","E_COORD97":171465.39999999999,"N_COORD97":2542960.25,"ADDRESS":"中華東路二段１３３巷１７弄２５號","OBJECTID":28032},"geometry":{"x":171465.40000000037,"y":2542960.25}},{"attributes":{"ID":28033,"DIS_CODE":0,"TOWNNAME":"永康區","LI":"二王里","LIN":"17鄰","STREET":"忠孝路","SECT":" ","MAREA":" ","LANE":"４１０巷","ALLEY":"７０弄","HOUSE_NO":"２２號","E_COORD97":172644.39999999999,"N_COORD97":2546471.7000000002,"ADDRESS":"忠孝路４１０巷７０弄２２號","OBJECTID":28033},"geometry":{"x":172644.4000000013,"y":2546471.6999999993}},{"attributes":{"ID":28034,"DIS_CODE":0,"TOWNNAME":"麻豆區","LI":"中民里","LIN":"8鄰","STREET":" ","SECT":" ","MAREA":"謝厝寮","LANE":" ","ALLEY":" ","HOUSE_NO":"１６５號","E_COORD97":171698.26999999999,"N_COORD97":2561112.3399999999,"ADDRESS":"謝厝寮１６５號","OBJECTID":28034},"geometry":{"x":171698.27000000048,"y":2561112.3399999999}},{"attributes":{"ID":28035,"DIS_CODE":0,"TOWNNAME":"麻豆區","LI":"中民里","LIN":"8鄰","STREET":" ","SECT":" ","MAREA":"謝厝寮","LANE":" ","ALLEY":" ","HOUSE_NO":"１６６之１號","E_COORD97":171685.70000000001,"N_COORD97":2561099.46,"ADDRESS":"謝厝寮１６６之１號","OBJECTID":28035},"geometry":{"x":171685.70000000205,"y":2561099.4600000046}},{"attributes":{"ID":28036,"DIS_CODE":0,"TOWNNAME":"麻豆區","LI":"中民里","LIN":"8鄰","STREET":" ","SECT":" ","MAREA":"謝厝寮","LANE":" ","ALLEY":" ","HOUSE_NO":"１６６之３號","E_COORD97":171676.73000000001,"N_COORD97":2561092.9300000002,"ADDRESS":"謝厝寮１６６之３號","OBJECTID":28036},"geometry":{"x":171676.73000000045,"y":2561092.9300000016}},{"attributes":{"ID":28037,"DIS_CODE":0,"TOWNNAME":"麻豆區","LI":"中民里","LIN":"8鄰","STREET":" ","SECT":" ","MAREA":"謝厝寮","LANE":" ","ALLEY":" ","HOUSE_NO":"１６７號之１","E_COORD97":171657.48000000001,"N_COORD97":2561072.6800000002,"ADDRESS":"謝厝寮１６７號之１","OBJECTID":28037},"geometry":{"x":171657.48000000138,"y":2561072.6799999978}},{"attributes":{"ID":28038,"DIS_CODE":0,"TOWNNAME":"麻豆區","LI":"中民里","LIN":"8鄰","STREET":" ","SECT":" ","MAREA":"謝厝寮","LANE":" ","ALLEY":" ","HOUSE_NO":"１６７號","E_COORD97":171665.98000000001,"N_COORD97":2561091.3199999998,"ADDRESS":"謝厝寮１６７號","OBJECTID":28038},"geometry":{"x":171665.98000000138,"y":2561091.3200000003}},{"attributes":{"ID":28039,"DIS_CODE":0,"TOWNNAME":"麻豆區","LI":"中民里","LIN":"8鄰","STREET":" ","SECT":" ","MAREA":"謝厝寮","LANE":" ","ALLEY":" ","HOUSE_NO":"１６８號","E_COORD97":171653.51000000001,"N_COORD97":2561099.3100000001,"ADDRESS":"謝厝寮１６８號","OBJECTID":28039},"geometry":{"x":171653.50999999978,"y":2561099.3100000005}},{"attributes":{"ID":28040,"DIS_CODE":0,"TOWNNAME":"麻豆區","LI":"謝安里","LIN":"8鄰","STREET":" ","SECT":" ","MAREA":"謝厝寮","LANE":" ","ALLEY":" ","HOUSE_NO":"１９３號之２","E_COORD97":171733.26999999999,"N_COORD97":2561244.3500000001,"ADDRESS":"謝厝寮１９３號之２","OBJECTID":28040},"geometry":{"x":171733.26999999955,"y":2561244.3499999978}},{"attributes":{"ID":28041,"DIS_CODE":0,"TOWNNAME":"麻豆區","LI":"謝安里","LIN":"8鄰","STREET":" ","SECT":" ","MAREA":"謝厝寮","LANE":" ","ALLEY":" ","HOUSE_NO":"１９３號之８","E_COORD97":171734.25,"N_COORD97":2561202.7400000002,"ADDRESS":"謝厝寮１９３號之８","OBJECTID":28041},"geometry":{"x":171734.25000000186,"y":2561202.7400000021}},{"attributes":{"ID":28042,"DIS_CODE":0,"TOWNNAME":"麻豆區","LI":"謝安里","LIN":"8鄰","STREET":" ","SECT":" ","MAREA":"謝厝寮","LANE":" ","ALLEY":" ","HOUSE_NO":"１９３號之９","E_COORD97":171738.07999999999,"N_COORD97":2561196.2999999998,"ADDRESS":"謝厝寮１９３號之９","OBJECTID":28042},"geometry":{"x":171738.08000000007,"y":2561196.3000000026}},{"attributes":{"ID":28043,"DIS_CODE":0,"TOWNNAME":"永康區","LI":"二王里","LIN":"17鄰","STREET":"忠孝路","SECT":" ","MAREA":" ","LANE":"４１０巷","ALLEY":"７０弄","HOUSE_NO":"２號","E_COORD97":172642.39999999999,"N_COORD97":2546513.2400000002,"ADDRESS":"忠孝路４１０巷７０弄２號","OBJECTID":28043},"geometry":{"x":172642.4000000013,"y":2546513.2400000002}},{"attributes":{"ID":28044,"DIS_CODE":0,"TOWNNAME":"永康區","LI":"二王里","LIN":"17鄰","STREET":"忠孝路","SECT":" ","MAREA":" ","LANE":"４１０巷","ALLEY":"７０弄","HOUSE_NO":"１０號","E_COORD97":172644.03,"N_COORD97":2546499.73,"ADDRESS":"忠孝路４１０巷７０弄１０號","OBJECTID":28044},"geometry":{"x":172644.03000000026,"y":2546499.7300000023}},{"attributes":{"ID":28045,"DIS_CODE":0,"TOWNNAME":"永康區","LI":"二王里","LIN":"17鄰","STREET":"忠孝路","SECT":" ","MAREA":" ","LANE":"４１０巷","ALLEY":"５０弄","HOUSE_NO":"１８號","E_COORD97":172584.98000000001,"N_COORD97":2546442.75,"ADDRESS":"忠孝路４１０巷５０弄１８號","OBJECTID":28045},"geometry":{"x":172584.98000000045,"y":2546442.75}},{"attributes":{"ID":28046,"DIS_CODE":0,"TOWNNAME":"永康區","LI":"二王里","LIN":"17鄰","STREET":"忠孝路","SECT":" ","MAREA":" ","LANE":"４１０巷","ALLEY":"７０弄","HOUSE_NO":"２６號","E_COORD97":172644.54000000001,"N_COORD97":2546466.9500000002,"ADDRESS":"忠孝路４１０巷７０弄２６號","OBJECTID":28046},"geometry":{"x":172644.54000000097,"y":2546466.9499999993}},{"attributes":{"ID":28047,"DIS_CODE":0,"TOWNNAME":"永康區","LI":"二王里","LIN":"17鄰","STREET":"忠孝路","SECT":" ","MAREA":" ","LANE":"４１０巷","ALLEY":"７０弄","HOUSE_NO":"２０號","E_COORD97":172644.39999999999,"N_COORD97":2546476.2000000002,"ADDRESS":"忠孝路４１０巷７０弄２０號","OBJECTID":28047},"geometry":{"x":172644.4000000013,"y":2546476.1999999993}},{"attributes":{"ID":28048,"DIS_CODE":0,"TOWNNAME":"永康區","LI":"崑山里","LIN":"47鄰","STREET":"永大路","SECT":"二段","MAREA":" ","LANE":" ","ALLEY":" ","HOUSE_NO":"１５１號","E_COORD97":174267.06,"N_COORD97":2545089.3999999999,"ADDRESS":"永大路二段１５１號","OBJECTID":28048},"geometry":{"x":174267.05999999959,"y":2545089.4000000004}},{"attributes":{"ID":28049,"DIS_CODE":0,"TOWNNAME":"永康區","LI":"崑山里","LIN":"47鄰","STREET":"永大路","SECT":"二段","MAREA":" ","LANE":" ","ALLEY":" ","HOUSE_NO":"１５３號","E_COORD97":174268.35999999999,"N_COORD97":2545093.1499999999,"ADDRESS":"永大路二段１５３號","OBJECTID":28049},"geometry":{"x":174268.36000000127,"y":2545093.1500000022}},{"attributes":{"ID":28050,"DIS_CODE":0,"TOWNNAME":"仁德區","LI":"成功里","LIN":"47鄰","STREET":"文賢路","SECT":"一段","MAREA":" ","LANE":" ","ALLEY":" ","HOUSE_NO":"４２號","E_COORD97":170133.60999999999,"N_COORD97":2538210.8199999998,"ADDRESS":"文賢路一段４２號","OBJECTID":28050},"geometry":{"x":170133.6100000022,"y":2538210.8200000003}},{"attributes":{"ID":28051,"DIS_CODE":0,"TOWNNAME":"仁德區","LI":"成功里","LIN":"47鄰","STREET":"文賢路","SECT":"一段","MAREA":" ","LANE":" ","ALLEY":" ","HOUSE_NO":"４６號","E_COORD97":171674.31,"N_COORD97":2536198.0800000001,"ADDRESS":"文賢路一段４６號","OBJECTID":28051},"geometry":{"x":171674.31000000052,"y":2536198.0800000001}},{"attributes":{"ID":28052,"DIS_CODE":0,"TOWNNAME":"仁德區","LI":"成功里","LIN":"47鄰","STREET":"文賢路","SECT":"一段","MAREA":" ","LANE":" ","ALLEY":" ","HOUSE_NO":"２８號","E_COORD97":170094.17999999999,"N_COORD97":2538265.8300000001,"ADDRESS":"文賢路一段２８號","OBJECTID":28052},"geometry":{"x":170094.18000000063,"y":2538265.8300000019}},{"attributes":{"ID":28053,"DIS_CODE":0,"TOWNNAME":"仁德區","LI":"成功里","LIN":"47鄰","STREET":"文賢路","SECT":"一段","MAREA":" ","LANE":" ","ALLEY":" ","HOUSE_NO":"３７號","E_COORD97":170216.98000000001,"N_COORD97":2538291.5699999998,"ADDRESS":"文賢路一段３７號","OBJECTID":28053},"geometry":{"x":170216.98000000045,"y":2538291.5700000022}},{"attributes":{"ID":28054,"DIS_CODE":0,"TOWNNAME":"永康區","LI":"二王里","LIN":"47鄰","STREET":"南工街","SECT":" ","MAREA":" ","LANE":" ","ALLEY":" ","HOUSE_NO":"２２６巷２１８號","E_COORD97":172021.76999999999,"N_COORD97":2545957.7400000002,"ADDRESS":"南工街２２６巷２１８號","OBJECTID":28054},"geometry":{"x":172021.77000000142,"y":2545957.7400000002}},{"attributes":{"ID":28055,"DIS_CODE":0,"TOWNNAME":"永康區","LI":"二王里","LIN":"17鄰","STREET":"忠孝路","SECT":" ","MAREA":" ","LANE":"４１０巷","ALLEY":"５０弄","HOUSE_NO":"１號","E_COORD97":172597.62,"N_COORD97":2546508.8300000001,"ADDRESS":"忠孝路４１０巷５０弄１號","OBJECTID":28055},"geometry":{"x":172597.62000000011,"y":2546508.8300000019}},{"attributes":{"ID":28056,"DIS_CODE":0,"TOWNNAME":"永康區","LI":"中興里","LIN":"17鄰","STREET":"中華路","SECT":" ","MAREA":" ","LANE":"２８６巷","ALLEY":"２５弄","HOUSE_NO":"１３號","E_COORD97":171598.06,"N_COORD97":2545355.4900000002,"ADDRESS":"中華路２８６巷２５弄１３號","OBJECTID":28056},"geometry":{"x":171598.06000000052,"y":2545355.4900000002}},{"attributes":{"ID":28057,"DIS_CODE":0,"TOWNNAME":"永康區","LI":"中興里","LIN":"17鄰","STREET":"中華路","SECT":" ","MAREA":" ","LANE":"２８６巷","ALLEY":"２５弄","HOUSE_NO":"８號","E_COORD97":171637.37,"N_COORD97":2545355.4900000002,"ADDRESS":"中華路２８６巷２５弄８號","OBJECTID":28057},"geometry":{"x":171637.37000000104,"y":2545355.4900000002}},{"attributes":{"ID":28058,"DIS_CODE":0,"TOWNNAME":"麻豆區","LI":"謝安里","LIN":"8鄰","STREET":" ","SECT":" ","MAREA":"謝厝寮","LANE":" ","ALLEY":" ","HOUSE_NO":"１９４號","E_COORD97":171740.04999999999,"N_COORD97":2561184.9100000001,"ADDRESS":"謝厝寮１９４號","OBJECTID":28058},"geometry":{"x":171740.04999999981,"y":2561184.910000002}},{"attributes":{"ID":28059,"DIS_CODE":0,"TOWNNAME":"麻豆區","LI":"謝安里","LIN":"8鄰","STREET":" ","SECT":" ","MAREA":"謝厝寮","LANE":" ","ALLEY":" ","HOUSE_NO":"１９５號之１","E_COORD97":171750.84,"N_COORD97":2561235.9900000002,"ADDRESS":"謝厝寮１９５號之１","OBJECTID":28059},"geometry":{"x":171750.84000000078,"y":2561235.9900000002}},{"attributes":{"ID":28060,"DIS_CODE":0,"TOWNNAME":"麻豆區","LI":"謝安里","LIN":"8鄰","STREET":" ","SECT":" ","MAREA":"謝厝寮","LANE":" ","ALLEY":" ","HOUSE_NO":"１９５號之３","E_COORD97":171797.89999999999,"N_COORD97":2561247.6299999999,"ADDRESS":"謝厝寮１９５號之３","OBJECTID":28060},"geometry":{"x":171797.89999999944,"y":2561247.629999999}},{"attributes":{"ID":28061,"DIS_CODE":0,"TOWNNAME":"麻豆區","LI":"謝安里","LIN":"8鄰","STREET":" ","SECT":" ","MAREA":"謝厝寮","LANE":" ","ALLEY":" ","HOUSE_NO":"１９５號","E_COORD97":171760.73000000001,"N_COORD97":2561218.1299999999,"ADDRESS":"謝厝寮１９５號","OBJECTID":28061},"geometry":{"x":171760.73000000138,"y":2561218.1300000027}},{"attributes":{"ID":28062,"DIS_CODE":0,"TOWNNAME":"麻豆區","LI":"謝安里","LIN":"8鄰","STREET":" ","SECT":" ","MAREA":"謝厝寮","LANE":" ","ALLEY":" ","HOUSE_NO":"１９６號","E_COORD97":171781.81,"N_COORD97":2561221.6200000001,"ADDRESS":"謝厝寮１９６號","OBJECTID":28062},"geometry":{"x":171781.80999999959,"y":2561221.6200000029}},{"attributes":{"ID":28063,"DIS_CODE":0,"TOWNNAME":"麻豆區","LI":"謝安里","LIN":"8鄰","STREET":" ","SECT":" ","MAREA":"謝厝寮","LANE":" ","ALLEY":" ","HOUSE_NO":"１９７號","E_COORD97":171742.01000000001,"N_COORD97":2561177.2999999998,"ADDRESS":"謝厝寮１９７號","OBJECTID":28063},"geometry":{"x":171742.00999999978,"y":2561177.3000000007}},{"attributes":{"ID":28064,"DIS_CODE":0,"TOWNNAME":"麻豆區","LI":"謝安里","LIN":"8鄰","STREET":" ","SECT":" ","MAREA":"謝厝寮","LANE":" ","ALLEY":" ","HOUSE_NO":"１９８號之１","E_COORD97":171752.62,"N_COORD97":2561170.29,"ADDRESS":"謝厝寮１９８號之１","OBJECTID":28064},"geometry":{"x":171752.62000000104,"y":2561170.290000001}},{"attributes":{"ID":28065,"DIS_CODE":0,"TOWNNAME":"麻豆區","LI":"謝安里","LIN":"8鄰","STREET":" ","SECT":" ","MAREA":"謝厝寮","LANE":" ","ALLEY":" ","HOUSE_NO":"１９８號","E_COORD97":171748.95999999999,"N_COORD97":2561173.4900000002,"ADDRESS":"謝厝寮１９８號","OBJECTID":28065},"geometry":{"x":171748.95999999996,"y":2561173.4900000021}},{"attributes":{"ID":28066,"DIS_CODE":0,"TOWNNAME":"永康區","LI":"五王里","LIN":"17鄰","STREET":"成功路","SECT":" ","MAREA":" ","LANE":"１７２巷","ALLEY":"７６弄","HOUSE_NO":"１１號","E_COORD97":171605.62,"N_COORD97":2545791.52,"ADDRESS":"成功路１７２巷７６弄１１號","OBJECTID":28066},"geometry":{"x":171605.62000000011,"y":2545791.5200000014}},{"attributes":{"ID":28067,"DIS_CODE":0,"TOWNNAME":"永康區","LI":"五王里","LIN":"17鄰","STREET":"成功路","SECT":" ","MAREA":" ","LANE":"１７２巷","ALLEY":"７６弄","HOUSE_NO":"１９號","E_COORD97":171622.72,"N_COORD97":2545796.27,"ADDRESS":"成功路１７２巷７６弄１９號","OBJECTID":28067},"geometry":{"x":171622.72000000067,"y":2545796.2700000014}},{"attributes":{"ID":28068,"DIS_CODE":0,"TOWNNAME":"永康區","LI":"復興里","LIN":"17鄰","STREET":"復興路","SECT":" ","MAREA":" ","LANE":"３５６巷","ALLEY":"７１弄","HOUSE_NO":"３４號","E_COORD97":172309.23999999999,"N_COORD97":2544519.77,"ADDRESS":"復興路３５６巷７１弄３４號","OBJECTID":28068},"geometry":{"x":172309.24000000209,"y":2544519.7699999996}},{"attributes":{"ID":28069,"DIS_CODE":0,"TOWNNAME":"永康區","LI":"網寮里","LIN":"17鄰","STREET":"永興路","SECT":" ","MAREA":" ","LANE":"４２７巷","ALLEY":"２弄","HOUSE_NO":"５５號","E_COORD97":173210.04999999999,"N_COORD97":2546832.3500000001,"ADDRESS":"永興路４２７巷２弄５５號","OBJECTID":28069},"geometry":{"x":173210.04999999888,"y":2546832.3500000034}},{"attributes":{"ID":28070,"DIS_CODE":0,"TOWNNAME":"永康區","LI":"崑山里","LIN":"17鄰","STREET":"大灣路","SECT":" ","MAREA":" ","LANE":"９４２巷","ALLEY":"７１弄","HOUSE_NO":"２１號","E_COORD97":173612.10000000001,"N_COORD97":2544530.4900000002,"ADDRESS":"大灣路９４２巷７１弄２１號","OBJECTID":28070},"geometry":{"x":173612.10000000056,"y":2544530.4900000021}},{"attributes":{"ID":28071,"DIS_CODE":0,"TOWNNAME":"永康區","LI":"崑山里","LIN":"17鄰","STREET":"大灣路","SECT":" ","MAREA":" ","LANE":"９４２巷","ALLEY":"７１弄","HOUSE_NO":"１７號","E_COORD97":173616.47,"N_COORD97":2544541.75,"ADDRESS":"大灣路９４２巷７１弄１７號","OBJECTID":28071},"geometry":{"x":173616.47000000067,"y":2544541.7500000019}},{"attributes":{"ID":28072,"DIS_CODE":0,"TOWNNAME":"永康區","LI":"崑山里","LIN":"17鄰","STREET":"大灣路","SECT":" ","MAREA":" ","LANE":"９４２巷","ALLEY":"７１弄","HOUSE_NO":"１１號","E_COORD97":173622.53,"N_COORD97":2544558.5,"ADDRESS":"大灣路９４２巷７１弄１１號","OBJECTID":28072},"geometry":{"x":173622.53000000026,"y":2544558.5}},{"attributes":{"ID":28073,"DIS_CODE":0,"TOWNNAME":"永康區","LI":"崑山里","LIN":"17鄰","STREET":"大灣路","SECT":" ","MAREA":" ","LANE":"９４２巷","ALLEY":"７１弄","HOUSE_NO":"２３號","E_COORD97":173610.16,"N_COORD97":2544524.7400000002,"ADDRESS":"大灣路９４２巷７１弄２３號","OBJECTID":28073},"geometry":{"x":173610.16000000108,"y":2544524.7400000039}},{"attributes":{"ID":28074,"DIS_CODE":0,"TOWNNAME":"麻豆區","LI":"謝安里","LIN":"8鄰","STREET":" ","SECT":" ","MAREA":"謝厝寮","LANE":" ","ALLEY":" ","HOUSE_NO":"１９９號之１","E_COORD97":171773.23000000001,"N_COORD97":2561175.21,"ADDRESS":"謝厝寮１９９號之１","OBJECTID":28074},"geometry":{"x":171773.23000000045,"y":2561175.2100000009}},{"attributes":{"ID":28075,"DIS_CODE":0,"TOWNNAME":"麻豆區","LI":"謝安里","LIN":"8鄰","STREET":" ","SECT":" ","MAREA":"謝厝寮","LANE":" ","ALLEY":" ","HOUSE_NO":"１９９號","E_COORD97":171765.29999999999,"N_COORD97":2561162.75,"ADDRESS":"謝厝寮１９９號","OBJECTID":28075},"geometry":{"x":171765.29999999981,"y":2561162.75}},{"attributes":{"ID":28076,"DIS_CODE":0,"TOWNNAME":"麻豆區","LI":"謝安里","LIN":"8鄰","STREET":" ","SECT":" ","MAREA":"謝厝寮","LANE":" ","ALLEY":" ","HOUSE_NO":"２１３號之１","E_COORD97":171791.17999999999,"N_COORD97":2561095.3999999999,"ADDRESS":"謝厝寮２１３號之１","OBJECTID":28076},"geometry":{"x":171791.1799999997,"y":2561095.4000000004}},{"attributes":{"ID":28077,"DIS_CODE":0,"TOWNNAME":"七股區","LI":"三股里","LIN":"7鄰","STREET":" ","SECT":" ","MAREA":"三股","LANE":" ","ALLEY":" ","HOUSE_NO":"９８號","E_COORD97":159753.5,"N_COORD97":2555863.8300000001,"ADDRESS":"三股９８號","OBJECTID":28077},"geometry":{"x":159753.5,"y":2555863.8300000001}},{"attributes":{"ID":28078,"DIS_CODE":0,"TOWNNAME":"麻豆區","LI":"謝安里","LIN":"8鄰","STREET":" ","SECT":" ","MAREA":"謝厝寮","LANE":" ","ALLEY":" ","HOUSE_NO":"２１３號之２","E_COORD97":171796.13,"N_COORD97":2561087.2200000002,"ADDRESS":"謝厝寮２１３號之２","OBJECTID":28078},"geometry":{"x":171796.13000000082,"y":2561087.2200000044}},{"attributes":{"ID":28079,"DIS_CODE":0,"TOWNNAME":"麻豆區","LI":"謝安里","LIN":"8鄰","STREET":" ","SECT":" ","MAREA":"謝厝寮","LANE":" ","ALLEY":" ","HOUSE_NO":"２１３號之５","E_COORD97":171788.73999999999,"N_COORD97":2561106.27,"ADDRESS":"謝厝寮２１３號之５","OBJECTID":28079},"geometry":{"x":171788.74000000209,"y":2561106.2700000033}},{"attributes":{"ID":28080,"DIS_CODE":0,"TOWNNAME":"麻豆區","LI":"謝安里","LIN":"8鄰","STREET":" ","SECT":" ","MAREA":"謝厝寮","LANE":" ","ALLEY":" ","HOUSE_NO":"２１３號","E_COORD97":171799.89000000001,"N_COORD97":2561079.4700000002,"ADDRESS":"謝厝寮２１３號","OBJECTID":28080},"geometry":{"x":171799.88999999966,"y":2561079.4700000025}},{"attributes":{"ID":28081,"DIS_CODE":0,"TOWNNAME":"安定區","LI":"新吉里","LIN":"8鄰","STREET":" ","SECT":" ","MAREA":"新吉","LANE":" ","ALLEY":" ","HOUSE_NO":"７０號之４","E_COORD97":169125.23000000001,"N_COORD97":2554032.2999999998,"ADDRESS":"新吉７０號之４","OBJECTID":28081},"geometry":{"x":169125.23000000045,"y":2554032.3000000026}},{"attributes":{"ID":28082,"DIS_CODE":0,"TOWNNAME":"安定區","LI":"新吉里","LIN":"8鄰","STREET":" ","SECT":" ","MAREA":"新吉","LANE":" ","ALLEY":" ","HOUSE_NO":"７０號之８","E_COORD97":169125.07000000001,"N_COORD97":2554048.2999999998,"ADDRESS":"新吉７０之８號","OBJECTID":28082},"geometry":{"x":169125.06999999937,"y":2554048.3000000045}},{"attributes":{"ID":28083,"DIS_CODE":0,"TOWNNAME":"安定區","LI":"安加里","LIN":"8鄰","STREET":" ","SECT":" ","MAREA":"安定","LANE":" ","ALLEY":" ","HOUSE_NO":"２４３號之４","E_COORD97":171954.51999999999,"N_COORD97":2557448.3199999998,"ADDRESS":"安定２４３之４號","OBJECTID":28083},"geometry":{"x":171954.52000000048,"y":2557448.320000004}},{"attributes":{"ID":28084,"DIS_CODE":0,"TOWNNAME":"安定區","LI":"安定里","LIN":"8鄰","STREET":" ","SECT":" ","MAREA":"安定","LANE":" ","ALLEY":" ","HOUSE_NO":"６８號","E_COORD97":171865.97,"N_COORD97":2557925.3199999998,"ADDRESS":"安定６８號","OBJECTID":28084},"geometry":{"x":171865.96999999974,"y":2557925.3200000003}},{"attributes":{"ID":28085,"DIS_CODE":0,"TOWNNAME":"安定區","LI":"保西里","LIN":"8鄰","STREET":" ","SECT":" ","MAREA":"安定","LANE":" ","ALLEY":" ","HOUSE_NO":"４０４號","E_COORD97":171727.62,"N_COORD97":2557811.3199999998,"ADDRESS":"安定４０４號","OBJECTID":28085},"geometry":{"x":171727.62000000011,"y":2557811.320000004}},{"attributes":{"ID":28086,"DIS_CODE":0,"TOWNNAME":"安定區","LI":"新吉里","LIN":"8鄰","STREET":" ","SECT":" ","MAREA":"新吉","LANE":" ","ALLEY":" ","HOUSE_NO":"６８號","E_COORD97":169170.97,"N_COORD97":2553929.25,"ADDRESS":"新吉６８號","OBJECTID":28086},"geometry":{"x":169170.9700000016,"y":2553929.2500000037}},{"attributes":{"ID":28087,"DIS_CODE":0,"TOWNNAME":"安定區","LI":"安定里","LIN":"8鄰","STREET":" ","SECT":" ","MAREA":"安定","LANE":" ","ALLEY":" ","HOUSE_NO":"５８號之５６","E_COORD97":171861.76000000001,"N_COORD97":2558075.3199999998,"ADDRESS":"安定５８號之５６","OBJECTID":28087},"geometry":{"x":171861.76000000071,"y":2558075.3199999984}},{"attributes":{"ID":28088,"DIS_CODE":0,"TOWNNAME":"安定區","LI":"安定里","LIN":"8鄰","STREET":" ","SECT":" ","MAREA":"安定","LANE":" ","ALLEY":" ","HOUSE_NO":"７１號之１","E_COORD97":171824.35996500001,"N_COORD97":2557897.4190000002,"ADDRESS":"安定７１號之１","OBJECTID":28088},"geometry":{"x":171824.3599650003,"y":2557897.4189990014}},{"attributes":{"ID":28089,"DIS_CODE":0,"TOWNNAME":"安定區","LI":"安加里","LIN":"8鄰","STREET":" ","SECT":" ","MAREA":"安定","LANE":" ","ALLEY":" ","HOUSE_NO":"２４０號","E_COORD97":171889.32000000001,"N_COORD97":2557579.3199999998,"ADDRESS":"安定２４０號","OBJECTID":28089},"geometry":{"x":171889.3200000003,"y":2557579.3200000003}},{"attributes":{"ID":28090,"DIS_CODE":0,"TOWNNAME":"安定區","LI":"安加里","LIN":"8鄰","STREET":" ","SECT":" ","MAREA":"安定","LANE":" ","ALLEY":" ","HOUSE_NO":"２３８之５號","E_COORD97":171912.51999999999,"N_COORD97":2557441.3199999998,"ADDRESS":"安定２３８之５號","OBJECTID":28090},"geometry":{"x":171912.51999999955,"y":2557441.3199999984}},{"attributes":{"ID":28091,"DIS_CODE":0,"TOWNNAME":"安定區","LI":"安定里","LIN":"8鄰","STREET":" ","SECT":" ","MAREA":"安定","LANE":" ","ALLEY":" ","HOUSE_NO":"５８之２５號","E_COORD97":171927.12,"N_COORD97":2558079.3199999998,"ADDRESS":"安定５８之２５號","OBJECTID":28091},"geometry":{"x":171927.12000000104,"y":2558079.3200000022}},{"attributes":{"ID":28092,"DIS_CODE":0,"TOWNNAME":"安定區","LI":"保西里","LIN":"8鄰","STREET":" ","SECT":" ","MAREA":"安定","LANE":" ","ALLEY":" ","HOUSE_NO":"４０２號","E_COORD97":171750.42000000001,"N_COORD97":2557821.3199999998,"ADDRESS":"安定４０２號","OBJECTID":28092},"geometry":{"x":171750.42000000086,"y":2557821.320000004}},{"attributes":{"ID":28093,"DIS_CODE":0,"TOWNNAME":"新營區","LI":"埤寮里","LIN":"13鄰","STREET":"中正路","SECT":" ","MAREA":" ","LANE":"４７９巷","ALLEY":"２弄","HOUSE_NO":"８號","E_COORD97":179914.04999999999,"N_COORD97":2580579.8199999998,"ADDRESS":"中正路４７９巷２弄８號","OBJECTID":28093},"geometry":{"x":179914.04999999981,"y":2580579.8200000003}},{"attributes":{"ID":28094,"DIS_CODE":0,"TOWNNAME":"新營區","LI":"南紙里","LIN":"26鄰","STREET":"建業路","SECT":" ","MAREA":" ","LANE":"２２７巷","ALLEY":"２４弄","HOUSE_NO":"４號","E_COORD97":178062.54999999999,"N_COORD97":2577338.3199999998,"ADDRESS":"建業路２２７巷２４弄４號","OBJECTID":28094},"geometry":{"x":178062.55000000075,"y":2577338.3200000003}},{"attributes":{"ID":28095,"DIS_CODE":0,"TOWNNAME":"新營區","LI":"新南里","LIN":"19鄰","STREET":"隋唐街","SECT":" ","MAREA":" ","LANE":"３１巷","ALLEY":"４８弄","HOUSE_NO":"１號","E_COORD97":178648.13,"N_COORD97":2578300.0800000001,"ADDRESS":"隋唐街３１巷４８弄１號","OBJECTID":28095},"geometry":{"x":178648.13000000082,"y":2578300.0800000001}},{"attributes":{"ID":28096,"DIS_CODE":0,"TOWNNAME":"安定區","LI":"安加里","LIN":"8鄰","STREET":" ","SECT":" ","MAREA":"安定","LANE":" ","ALLEY":" ","HOUSE_NO":"２３７之５號","E_COORD97":171887.51999999999,"N_COORD97":2557474.3199999998,"ADDRESS":"安定２３７之５號","OBJECTID":28096},"geometry":{"x":171887.51999999955,"y":2557474.3200000003}},{"attributes":{"ID":28097,"DIS_CODE":0,"TOWNNAME":"東區","LI":"東聖里","LIN":"17鄰","STREET":"中華東路","SECT":"二段","MAREA":" ","LANE":"１３３巷","ALLEY":"１７弄","HOUSE_NO":"４５號","E_COORD97":171548.39000000001,"N_COORD97":2542956.8999999999,"ADDRESS":"中華東路二段１３３巷１７弄４５號","OBJECTID":28097},"geometry":{"x":171548.3900000006,"y":2542956.9000000004}},{"attributes":{"ID":28098,"DIS_CODE":0,"TOWNNAME":"仁德區","LI":"成功里","LIN":"17鄰","STREET":"全福路","SECT":" ","MAREA":" ","LANE":"８０巷","ALLEY":"１３弄","HOUSE_NO":"９號","E_COORD97":171069.57000000001,"N_COORD97":2539272.75,"ADDRESS":"全福路８０巷１３弄９號","OBJECTID":28098},"geometry":{"x":171069.57000000216,"y":2539272.7500000037}},{"attributes":{"ID":28099,"DIS_CODE":0,"TOWNNAME":"東區","LI":"東聖里","LIN":"17鄰","STREET":"中華東路","SECT":"二段","MAREA":" ","LANE":"１３３巷","ALLEY":"１７弄","HOUSE_NO":"４７號","E_COORD97":171552.48000000001,"N_COORD97":2542956.1600000001,"ADDRESS":"中華東路二段１３３巷１７弄４７號","OBJECTID":28099},"geometry":{"x":171552.48000000138,"y":2542956.160000002}},{"attributes":{"ID":28100,"DIS_CODE":0,"TOWNNAME":"安定區","LI":"新吉里","LIN":"8鄰","STREET":" ","SECT":" ","MAREA":"新吉","LANE":" ","ALLEY":" ","HOUSE_NO":"７０號之５","E_COORD97":169125.26000000001,"N_COORD97":2554036.2999999998,"ADDRESS":"新吉７０號之５","OBJECTID":28100},"geometry":{"x":169125.26000000071,"y":2554036.3000000026}},{"attributes":{"ID":28101,"DIS_CODE":0,"TOWNNAME":"新營區","LI":"南紙里","LIN":"13鄰","STREET":"太子路","SECT":" ","MAREA":" ","LANE":"２３８巷","ALLEY":"４０弄","HOUSE_NO":"２６號","E_COORD97":177856.06,"N_COORD97":2577955.0800000001,"ADDRESS":"太子路２３８巷４０弄２６號","OBJECTID":28101},"geometry":{"x":177856.05999999959,"y":2577955.0800000019}},{"attributes":{"ID":28102,"DIS_CODE":0,"TOWNNAME":"安定區","LI":"保西里","LIN":"8鄰","STREET":" ","SECT":" ","MAREA":"安定","LANE":" ","ALLEY":" ","HOUSE_NO":"４０８號","E_COORD97":171759.42000000001,"N_COORD97":2557847.3199999998,"ADDRESS":"安定４０８號","OBJECTID":28102},"geometry":{"x":171759.41999999993,"y":2557847.3200000003}},{"attributes":{"ID":28103,"DIS_CODE":0,"TOWNNAME":"仁德區","LI":"保安里","LIN":"17鄰","STREET":"中正路","SECT":"一段","MAREA":" ","LANE":"１１６巷","ALLEY":"２弄","HOUSE_NO":"２８號","E_COORD97":171344.66,"N_COORD97":2535461.5299999998,"ADDRESS":"中正路一段１１６巷２弄２８號","OBJECTID":28103},"geometry":{"x":171344.66000000015,"y":2535461.5299999993}},{"attributes":{"ID":28104,"DIS_CODE":0,"TOWNNAME":"仁德區","LI":"保安里","LIN":"17鄰","STREET":"中正路","SECT":"一段","MAREA":" ","LANE":"１１６巷","ALLEY":"２弄","HOUSE_NO":"９號","E_COORD97":171369.32000000001,"N_COORD97":2535486.52,"ADDRESS":"中正路一段１１６巷２弄９號","OBJECTID":28104},"geometry":{"x":171369.3200000003,"y":2535486.5199999977}},{"attributes":{"ID":28105,"DIS_CODE":0,"TOWNNAME":"仁德區","LI":"成功里","LIN":"17鄰","STREET":"全福路","SECT":" ","MAREA":" ","LANE":"８０巷","ALLEY":"１３弄","HOUSE_NO":"２號","E_COORD97":171048.67999999999,"N_COORD97":2539251.9900000002,"ADDRESS":"全福路８０巷１３弄２號","OBJECTID":28105},"geometry":{"x":171048.6799999997,"y":2539251.9900000021}},{"attributes":{"ID":28106,"DIS_CODE":0,"TOWNNAME":"仁德區","LI":"成功里","LIN":"17鄰","STREET":"全福路","SECT":" ","MAREA":" ","LANE":"８０巷","ALLEY":"１３弄","HOUSE_NO":"３號","E_COORD97":171056.87,"N_COORD97":2539274,"ADDRESS":"全福路８０巷１３弄３號","OBJECTID":28106},"geometry":{"x":171056.87000000011,"y":2539274}},{"attributes":{"ID":28107,"DIS_CODE":0,"TOWNNAME":"仁德區","LI":"成功里","LIN":"17鄰","STREET":"全福路","SECT":" ","MAREA":" ","LANE":"８０巷","ALLEY":"１３弄","HOUSE_NO":"１２號","E_COORD97":171056.39000000001,"N_COORD97":2539235.7400000002,"ADDRESS":"全福路８０巷１３弄１２號","OBJECTID":28107},"geometry":{"x":171056.38999999966,"y":2539235.7400000039}},{"attributes":{"ID":28108,"DIS_CODE":0,"TOWNNAME":"安定區","LI":"新吉里","LIN":"8鄰","STREET":" ","SECT":" ","MAREA":"新吉","LANE":" ","ALLEY":" ","HOUSE_NO":"７０號之１０","E_COORD97":169126.20000000001,"N_COORD97":2554056.2999999998,"ADDRESS":"新吉７０號之１０","OBJECTID":28108},"geometry":{"x":169126.20000000112,"y":2554056.3000000026}},{"attributes":{"ID":28109,"DIS_CODE":0,"TOWNNAME":"仁德區","LI":"成功里","LIN":"17鄰","STREET":"全福路","SECT":" ","MAREA":" ","LANE":"８０巷","ALLEY":"１３弄","HOUSE_NO":"１６號","E_COORD97":171055.79000000001,"N_COORD97":2539226.7400000002,"ADDRESS":"全福路８０巷１３弄１６號","OBJECTID":28109},"geometry":{"x":171055.78999999911,"y":2539226.7400000021}},{"attributes":{"ID":28110,"DIS_CODE":0,"TOWNNAME":"仁德區","LI":"成功里","LIN":"17鄰","STREET":"全福路","SECT":" ","MAREA":" ","LANE":"８０巷","ALLEY":"１３弄","HOUSE_NO":"１號","E_COORD97":171052.12,"N_COORD97":2539274.25,"ADDRESS":"全福路８０巷１３弄１號","OBJECTID":28110},"geometry":{"x":171052.12000000197,"y":2539274.2500000019}},{"attributes":{"ID":28111,"DIS_CODE":0,"TOWNNAME":"仁德區","LI":"新田里","LIN":"17鄰","STREET":"北保東路","SECT":" ","MAREA":" ","LANE":"４６巷","ALLEY":"３弄","HOUSE_NO":"１１號","E_COORD97":173526.39000000001,"N_COORD97":2539368.25,"ADDRESS":"北保東路４６巷３弄１１號","OBJECTID":28111},"geometry":{"x":173526.39000000153,"y":2539368.2500000019}},{"attributes":{"ID":28112,"DIS_CODE":0,"TOWNNAME":"永康區","LI":"二王里","LIN":"17鄰","STREET":"忠孝路","SECT":" ","MAREA":" ","LANE":"４１０巷","ALLEY":"５０弄","HOUSE_NO":"９號","E_COORD97":172603.72,"N_COORD97":2546477.6600000001,"ADDRESS":"忠孝路４１０巷５０弄９號","OBJECTID":28112},"geometry":{"x":172603.7200000016,"y":2546477.6600000001}},{"attributes":{"ID":28113,"DIS_CODE":0,"TOWNNAME":"新營區","LI":"南紙里","LIN":"26鄰","STREET":"建業路","SECT":" ","MAREA":" ","LANE":"２２７巷","ALLEY":"２４弄","HOUSE_NO":"１３號","E_COORD97":178022.81,"N_COORD97":2577341.8399999999,"ADDRESS":"建業路２２７巷２４弄１３號","OBJECTID":28113},"geometry":{"x":178022.81000000052,"y":2577341.8399999999}},{"attributes":{"ID":28114,"DIS_CODE":0,"TOWNNAME":"永康區","LI":"崑山里","LIN":"47鄰","STREET":"國光五街","SECT":" ","MAREA":" ","LANE":" ","ALLEY":" ","HOUSE_NO":"２號十四樓之２","E_COORD97":174238.62,"N_COORD97":2545059.54,"ADDRESS":"國光五街２號十四樓之２","OBJECTID":28114},"geometry":{"x":174238.62000000011,"y":2545059.5399999991}},{"attributes":{"ID":28115,"DIS_CODE":0,"TOWNNAME":"安定區","LI":"安定里","LIN":"8鄰","STREET":" ","SECT":" ","MAREA":"安定","LANE":" ","ALLEY":" ","HOUSE_NO":"５８號之４９","E_COORD97":171888.14000000001,"N_COORD97":2558053.3199999998,"ADDRESS":"安定５８號之４９","OBJECTID":28115},"geometry":{"x":171888.13999999966,"y":2558053.3200000022}},{"attributes":{"ID":28116,"DIS_CODE":0,"TOWNNAME":"安定區","LI":"安定里","LIN":"8鄰","STREET":" ","SECT":" ","MAREA":"安定","LANE":" ","ALLEY":" ","HOUSE_NO":"５８號之３８","E_COORD97":171933.39999999999,"N_COORD97":2558027.3199999998,"ADDRESS":"安定５８號之３８","OBJECTID":28116},"geometry":{"x":171933.40000000037,"y":2558027.3200000003}},{"attributes":{"ID":28117,"DIS_CODE":0,"TOWNNAME":"安定區","LI":"保西里","LIN":"8鄰","STREET":" ","SECT":" ","MAREA":"安定","LANE":" ","ALLEY":" ","HOUSE_NO":"４０５號","E_COORD97":171697.92000000001,"N_COORD97":2557789.3199999998,"ADDRESS":"安定４０５號","OBJECTID":28117},"geometry":{"x":171697.92000000086,"y":2557789.3200000003}},{"attributes":{"ID":28118,"DIS_CODE":0,"TOWNNAME":"安定區","LI":"安加里","LIN":"8鄰","STREET":" ","SECT":" ","MAREA":"安定","LANE":" ","ALLEY":" ","HOUSE_NO":"２３８之７號","E_COORD97":171921.22,"N_COORD97":2557441.3199999998,"ADDRESS":"安定２３８之７號","OBJECTID":28118},"geometry":{"x":171921.22000000067,"y":2557441.3199999984}},{"attributes":{"ID":28119,"DIS_CODE":0,"TOWNNAME":"永康區","LI":"崑山里","LIN":"47鄰","STREET":"國光五街","SECT":" ","MAREA":" ","LANE":" ","ALLEY":" ","HOUSE_NO":"２號十三樓之１","E_COORD97":174238.48999999999,"N_COORD97":2545059.54,"ADDRESS":"國光五街２號十三樓之１","OBJECTID":28119},"geometry":{"x":174238.49000000115,"y":2545059.5399999991}},{"attributes":{"ID":28120,"DIS_CODE":0,"TOWNNAME":"安定區","LI":"安加里","LIN":"8鄰","STREET":" ","SECT":" ","MAREA":"安定","LANE":" ","ALLEY":" ","HOUSE_NO":"２４３之２號","E_COORD97":171941.22,"N_COORD97":2557477.3199999998,"ADDRESS":"安定２４３之２號","OBJECTID":28120},"geometry":{"x":171941.22000000067,"y":2557477.3200000003}},{"attributes":{"ID":28121,"DIS_CODE":0,"TOWNNAME":"永康區","LI":"崑山里","LIN":"47鄰","STREET":"國光五街","SECT":" ","MAREA":" ","LANE":" ","ALLEY":" ","HOUSE_NO":"２號十三樓之２","E_COORD97":174238.62,"N_COORD97":2545059.54,"ADDRESS":"國光五街２號十三樓之２","OBJECTID":28121},"geometry":{"x":174238.62000000011,"y":2545059.5399999991}},{"attributes":{"ID":28122,"DIS_CODE":0,"TOWNNAME":"永康區","LI":"崑山里","LIN":"47鄰","STREET":"國光五街","SECT":" ","MAREA":" ","LANE":" ","ALLEY":" ","HOUSE_NO":"２號三樓","E_COORD97":174235.10000000001,"N_COORD97":2545059.5,"ADDRESS":"國光五街２號三樓","OBJECTID":28122},"geometry":{"x":174235.09999999963,"y":2545059.5000000019}},{"attributes":{"ID":28123,"DIS_CODE":0,"TOWNNAME":"安定區","LI":"安加里","LIN":"8鄰","STREET":" ","SECT":" ","MAREA":"安定","LANE":" ","ALLEY":" ","HOUSE_NO":"２３８號","E_COORD97":171893.12,"N_COORD97":2557443.3199999998,"ADDRESS":"安定２３８號","OBJECTID":28123},"geometry":{"x":171893.12000000104,"y":2557443.3200000003}},{"attributes":{"ID":28124,"DIS_CODE":0,"TOWNNAME":"永康區","LI":"五王里","LIN":"17鄰","STREET":"成功路","SECT":" ","MAREA":" ","LANE":"１７２巷","ALLEY":"７６弄","HOUSE_NO":"３號","E_COORD97":171586.67000000001,"N_COORD97":2545787.27,"ADDRESS":"成功路１７２巷７６弄３號","OBJECTID":28124},"geometry":{"x":171586.66999999993,"y":2545787.2699999996}},{"attributes":{"ID":28125,"DIS_CODE":0,"TOWNNAME":"永康區","LI":"二王里","LIN":"17鄰","STREET":"忠孝路","SECT":" ","MAREA":" ","LANE":"４１０巷","ALLEY":"５０弄","HOUSE_NO":"２號","E_COORD97":172588.87,"N_COORD97":2546507.0600000001,"ADDRESS":"忠孝路４１０巷５０弄２號","OBJECTID":28125},"geometry":{"x":172588.87000000011,"y":2546507.0600000024}},{"attributes":{"ID":28126,"DIS_CODE":0,"TOWNNAME":"安定區","LI":"安加里","LIN":"8鄰","STREET":" ","SECT":" ","MAREA":"安定","LANE":" ","ALLEY":" ","HOUSE_NO":"２４２號","E_COORD97":171929.51999999999,"N_COORD97":2557523.3199999998,"ADDRESS":"安定２４２號","OBJECTID":28126},"geometry":{"x":171929.51999999955,"y":2557523.3200000022}},{"attributes":{"ID":28127,"DIS_CODE":0,"TOWNNAME":"安定區","LI":"港口里","LIN":"8鄰","STREET":" ","SECT":" ","MAREA":"港口","LANE":" ","ALLEY":" ","HOUSE_NO":"２９４之５號","E_COORD97":171381.79000000001,"N_COORD97":2554688.2999999998,"ADDRESS":"港口２９４之５號","OBJECTID":28127},"geometry":{"x":171381.79000000097,"y":2554688.3000000007}},{"attributes":{"ID":28128,"DIS_CODE":0,"TOWNNAME":"安定區","LI":"安定里","LIN":"8鄰","STREET":" ","SECT":" ","MAREA":"安定","LANE":" ","ALLEY":" ","HOUSE_NO":"５８之２０號","E_COORD97":171926.62,"N_COORD97":2558058.3199999998,"ADDRESS":"安定５８之２０號","OBJECTID":28128},"geometry":{"x":171926.62000000011,"y":2558058.3199999984}},{"attributes":{"ID":28129,"DIS_CODE":0,"TOWNNAME":"安定區","LI":"安定里","LIN":"8鄰","STREET":" ","SECT":" ","MAREA":"安定","LANE":" ","ALLEY":" ","HOUSE_NO":"５８之１９號","E_COORD97":171926.23999999999,"N_COORD97":2558054.3199999998,"ADDRESS":"安定５８號之１９","OBJECTID":28129},"geometry":{"x":171926.24000000115,"y":2558054.3200000003}},{"attributes":{"ID":28130,"DIS_CODE":0,"TOWNNAME":"安定區","LI":"新吉里","LIN":"8鄰","STREET":" ","SECT":" ","MAREA":"新吉","LANE":" ","ALLEY":" ","HOUSE_NO":"７１之１６號","E_COORD97":169155.12,"N_COORD97":2553978.2999999998,"ADDRESS":"新吉７１之１６號","OBJECTID":28130},"geometry":{"x":169155.12000000197,"y":2553978.3000000026}},{"attributes":{"ID":28131,"DIS_CODE":0,"TOWNNAME":"安定區","LI":"安定里","LIN":"8鄰","STREET":" ","SECT":" ","MAREA":"安定","LANE":" ","ALLEY":" ","HOUSE_NO":"５８號之１４","E_COORD97":171925.07999999999,"N_COORD97":2558028.3199999998,"ADDRESS":"安定５８號之１４","OBJECTID":28131},"geometry":{"x":171925.08000000007,"y":2558028.320000004}},{"attributes":{"ID":28132,"DIS_CODE":0,"TOWNNAME":"安定區","LI":"新吉里","LIN":"8鄰","STREET":" ","SECT":" ","MAREA":"新吉","LANE":" ","ALLEY":" ","HOUSE_NO":"７１之２號","E_COORD97":169168.87,"N_COORD97":2553975.2999999998,"ADDRESS":"新吉７１之２號","OBJECTID":28132},"geometry":{"x":169168.87000000104,"y":2553975.3000000026}},{"attributes":{"ID":28133,"DIS_CODE":0,"TOWNNAME":"安定區","LI":"新吉里","LIN":"8鄰","STREET":" ","SECT":" ","MAREA":"新吉","LANE":" ","ALLEY":" ","HOUSE_NO":"７１號之６","E_COORD97":169167.41,"N_COORD97":2553992.2999999998,"ADDRESS":"新吉７１號之６","OBJECTID":28133},"geometry":{"x":169167.41000000108,"y":2553992.3000000026}},{"attributes":{"ID":28134,"DIS_CODE":0,"TOWNNAME":"安定區","LI":"新吉里","LIN":"8鄰","STREET":" ","SECT":" ","MAREA":"新吉","LANE":" ","ALLEY":" ","HOUSE_NO":"７１之１７號","E_COORD97":169155.01999999999,"N_COORD97":2553983.2999999998,"ADDRESS":"新吉７１之１７號","OBJECTID":28134},"geometry":{"x":169155.01999999955,"y":2553983.3000000007}},{"attributes":{"ID":28135,"DIS_CODE":0,"TOWNNAME":"安定區","LI":"新吉里","LIN":"8鄰","STREET":" ","SECT":" ","MAREA":"新吉","LANE":" ","ALLEY":" ","HOUSE_NO":"７１號之５","E_COORD97":169167.45999999999,"N_COORD97":2553988.2999999998,"ADDRESS":"新吉７１號之５","OBJECTID":28135},"geometry":{"x":169167.45999999996,"y":2553988.3000000026}},{"attributes":{"ID":28136,"DIS_CODE":0,"TOWNNAME":"安定區","LI":"港南里","LIN":"8鄰","STREET":" ","SECT":" ","MAREA":"港口","LANE":" ","ALLEY":" ","HOUSE_NO":"５９號之２","E_COORD97":171498.91,"N_COORD97":2554314.2999999998,"ADDRESS":"港口５９號之２","OBJECTID":28136},"geometry":{"x":171498.91000000015,"y":2554314.3000000026}},{"attributes":{"ID":28137,"DIS_CODE":0,"TOWNNAME":"安定區","LI":"安定里","LIN":"8鄰","STREET":" ","SECT":" ","MAREA":"安定","LANE":" ","ALLEY":" ","HOUSE_NO":"５８之２１號","E_COORD97":171926.62,"N_COORD97":2558062.3199999998,"ADDRESS":"安定５８之２１號","OBJECTID":28137},"geometry":{"x":171926.62000000011,"y":2558062.3200000022}},{"attributes":{"ID":28138,"DIS_CODE":0,"TOWNNAME":"安定區","LI":"安定里","LIN":"8鄰","STREET":" ","SECT":" ","MAREA":"安定","LANE":" ","ALLEY":" ","HOUSE_NO":"５８之２８號","E_COORD97":171936.22,"N_COORD97":2558073.3199999998,"ADDRESS":"安定５８之２８號","OBJECTID":28138},"geometry":{"x":171936.22000000067,"y":2558073.3200000022}},{"attributes":{"ID":28139,"DIS_CODE":0,"TOWNNAME":"永康區","LI":"崑山里","LIN":"17鄰","STREET":"大灣路","SECT":" ","MAREA":" ","LANE":"９４２巷","ALLEY":"７１弄","HOUSE_NO":"９號","E_COORD97":173623.23000000001,"N_COORD97":2544564.25,"ADDRESS":"大灣路９４２巷７１弄９號","OBJECTID":28139},"geometry":{"x":173623.23000000231,"y":2544564.25}},{"attributes":{"ID":28140,"DIS_CODE":0,"TOWNNAME":"安定區","LI":"安定里","LIN":"8鄰","STREET":" ","SECT":" ","MAREA":"安定","LANE":" ","ALLEY":" ","HOUSE_NO":"５８號之１６","E_COORD97":171925.45999999999,"N_COORD97":2558036.3199999998,"ADDRESS":"安定５８號之１６","OBJECTID":28140},"geometry":{"x":171925.45999999996,"y":2558036.3200000022}},{"attributes":{"ID":28141,"DIS_CODE":0,"TOWNNAME":"安定區","LI":"安定里","LIN":"8鄰","STREET":" ","SECT":" ","MAREA":"安定","LANE":" ","ALLEY":" ","HOUSE_NO":"５８號之５１","E_COORD97":171898.85000000001,"N_COORD97":2558070.3199999998,"ADDRESS":"安定５８號之５１","OBJECTID":28141},"geometry":{"x":171898.84999999963,"y":2558070.3200000022}},{"attributes":{"ID":28142,"DIS_CODE":0,"TOWNNAME":"新營區","LI":"護鎮里","LIN":" ","STREET":" ","SECT":" ","MAREA":"後鎮","LANE":" ","ALLEY":" ","HOUSE_NO":"６２之２號","E_COORD97":179038.98999999999,"N_COORD97":2581169.8999999999,"ADDRESS":"後鎮６２之２號","OBJECTID":28142},"geometry":{"x":179038.98999999929,"y":2581169.9000000004}},{"attributes":{"ID":28143,"DIS_CODE":0,"TOWNNAME":"安定區","LI":"安定里","LIN":"8鄰","STREET":" ","SECT":" ","MAREA":"安定","LANE":" ","ALLEY":" ","HOUSE_NO":"５８之４８號","E_COORD97":171889.12,"N_COORD97":2558059.3199999998,"ADDRESS":"安定５８之４８號","OBJECTID":28143},"geometry":{"x":171889.12000000011,"y":2558059.3200000022}},{"attributes":{"ID":28144,"DIS_CODE":0,"TOWNNAME":"安定區","LI":"新吉里","LIN":"8鄰","STREET":" ","SECT":" ","MAREA":"新吉","LANE":" ","ALLEY":" ","HOUSE_NO":"７０號之７","E_COORD97":169125.17999999999,"N_COORD97":2554044.2999999998,"ADDRESS":"新吉７０號之７","OBJECTID":28144},"geometry":{"x":169125.1799999997,"y":2554044.3000000007}},{"attributes":{"ID":28145,"DIS_CODE":0,"TOWNNAME":"安定區","LI":"安定里","LIN":"8鄰","STREET":" ","SECT":" ","MAREA":"安定","LANE":" ","ALLEY":" ","HOUSE_NO":"５８之１５號","E_COORD97":171925.51999999999,"N_COORD97":2558031.3199999998,"ADDRESS":"安定５８之１５號","OBJECTID":28145},"geometry":{"x":171925.52000000048,"y":2558031.320000004}},{"attributes":{"ID":28146,"DIS_CODE":0,"TOWNNAME":"永康區","LI":"崑山里","LIN":"17鄰","STREET":"大灣路","SECT":" ","MAREA":" ","LANE":"９４２巷","ALLEY":"７１弄","HOUSE_NO":"３１號","E_COORD97":173602.29999999999,"N_COORD97":2544502.2400000002,"ADDRESS":"大灣路９４２巷７１弄３１號","OBJECTID":28146},"geometry":{"x":173602.30000000075,"y":2544502.2400000021}},{"attributes":{"ID":28147,"DIS_CODE":0,"TOWNNAME":"新營區","LI":"新南里","LIN":"17鄰","STREET":"隋唐街","SECT":" ","MAREA":" ","LANE":"３１巷","ALLEY":"６弄","HOUSE_NO":"１２號","E_COORD97":178664.53,"N_COORD97":2578473.8799999999,"ADDRESS":"隋唐街３１巷６弄１２號","OBJECTID":28147},"geometry":{"x":178664.53000000119,"y":2578473.8800000008}},{"attributes":{"ID":28148,"DIS_CODE":0,"TOWNNAME":"安南區","LI":"安富里","LIN":"17鄰","STREET":"安富街","SECT":" ","MAREA":" ","LANE":"１９９巷","ALLEY":"６弄","HOUSE_NO":"１１號","E_COORD97":167682.51000000001,"N_COORD97":2547353.3199999998,"ADDRESS":"安富街１９９巷６弄１１號","OBJECTID":28148},"geometry":{"x":167682.51000000164,"y":2547353.3200000022}},{"attributes":{"ID":28149,"DIS_CODE":0,"TOWNNAME":"安南區","LI":"安富里","LIN":"17鄰","STREET":"安富街","SECT":" ","MAREA":" ","LANE":"１９９巷","ALLEY":"６弄","HOUSE_NO":"１２號","E_COORD97":167673.48999999999,"N_COORD97":2547371.4300000002,"ADDRESS":"安富街１９９巷６弄１２號","OBJECTID":28149},"geometry":{"x":167673.49000000115,"y":2547371.4300000016}},{"attributes":{"ID":28150,"DIS_CODE":0,"TOWNNAME":"仁德區","LI":"太子里","LIN":"47鄰","STREET":"太子路","SECT":" ","MAREA":" ","LANE":"９巷","ALLEY":" ","HOUSE_NO":"１３號","E_COORD97":175481.26000000001,"N_COORD97":2543492,"ADDRESS":"太子路９巷１３號","OBJECTID":28150},"geometry":{"x":175481.25999999978,"y":2543492.0000000037}},{"attributes":{"ID":28151,"DIS_CODE":0,"TOWNNAME":"新市區","LI":"新和里","LIN":"47鄰","STREET":"和平街","SECT":" ","MAREA":" ","LANE":" ","ALLEY":" ","HOUSE_NO":"１９２號","E_COORD97":177402.87,"N_COORD97":2553264.25,"ADDRESS":"和平街１９２號","OBJECTID":28151},"geometry":{"x":177402.87000000104,"y":2553264.25}},{"attributes":{"ID":28152,"DIS_CODE":0,"TOWNNAME":"新市區","LI":"新和里","LIN":"47鄰","STREET":"和平街","SECT":" ","MAREA":" ","LANE":" ","ALLEY":" ","HOUSE_NO":"１７０號","E_COORD97":177441.28,"N_COORD97":2553293,"ADDRESS":"和平街１７０號","OBJECTID":28152},"geometry":{"x":177441.28000000026,"y":2553293}},{"attributes":{"ID":28153,"DIS_CODE":0,"TOWNNAME":"歸仁區","LI":"後市里","LIN":"47鄰","STREET":"文化街","SECT":"二段","MAREA":" ","LANE":" ","ALLEY":" ","HOUSE_NO":"１２９號","E_COORD97":177177.54000000001,"N_COORD97":2541195.7599999998,"ADDRESS":"文化街二段１２９號","OBJECTID":28153},"geometry":{"x":177177.54000000097,"y":2541195.7600000016}},{"attributes":{"ID":28154,"DIS_CODE":0,"TOWNNAME":"歸仁區","LI":"南保里","LIN":"47鄰","STREET":"民權十街","SECT":" ","MAREA":" ","LANE":" ","ALLEY":" ","HOUSE_NO":"１３１號","E_COORD97":176725.64000000001,"N_COORD97":2540649.29,"ADDRESS":"民權十街１３１號","OBJECTID":28154},"geometry":{"x":176725.6400000006,"y":2540649.290000001}},{"attributes":{"ID":28155,"DIS_CODE":0,"TOWNNAME":"歸仁區","LI":"南保里","LIN":"47鄰","STREET":"民權十街","SECT":" ","MAREA":" ","LANE":" ","ALLEY":" ","HOUSE_NO":"１２７號","E_COORD97":176725.73999999999,"N_COORD97":2540657.29,"ADDRESS":"民權十街１２７號","OBJECTID":28155},"geometry":{"x":176725.74000000115,"y":2540657.2899999991}},{"attributes":{"ID":28156,"DIS_CODE":0,"TOWNNAME":"新營區","LI":"中營里","LIN":"13鄰","STREET":"東山路","SECT":" ","MAREA":" ","LANE":" ","ALLEY":" ","HOUSE_NO":"１２２號","E_COORD97":181419.23000000001,"N_COORD97":2578673.5,"ADDRESS":"東山路１２２號","OBJECTID":28156},"geometry":{"x":181419.23000000045,"y":2578673.5}},{"attributes":{"ID":28157,"DIS_CODE":0,"TOWNNAME":"新營區","LI":"三仙里","LIN":"14鄰","STREET":"武昌街","SECT":" ","MAREA":" ","LANE":" ","ALLEY":" ","HOUSE_NO":"８５號","E_COORD97":179487.09,"N_COORD97":2578281.6699999999,"ADDRESS":"武昌街８５號","OBJECTID":28157},"geometry":{"x":179487.08999999985,"y":2578281.6699999999}},{"attributes":{"ID":28158,"DIS_CODE":0,"TOWNNAME":"新營區","LI":"中營里","LIN":"14鄰","STREET":"東山中路","SECT":" ","MAREA":" ","LANE":" ","ALLEY":" ","HOUSE_NO":"６２號","E_COORD97":181865.54999999999,"N_COORD97":2579243.9900000002,"ADDRESS":"東山中路６２號","OBJECTID":28158},"geometry":{"x":181865.54999999981,"y":2579243.9900000039}},{"attributes":{"ID":28159,"DIS_CODE":0,"TOWNNAME":"安定區","LI":"新吉里","LIN":"8鄰","STREET":" ","SECT":" ","MAREA":"新吉","LANE":" ","ALLEY":" ","HOUSE_NO":"７１之４號","E_COORD97":169167.97,"N_COORD97":2553983.2999999998,"ADDRESS":"新吉７１之４號","OBJECTID":28159},"geometry":{"x":169167.97000000067,"y":2553983.3000000007}},{"attributes":{"ID":28160,"DIS_CODE":0,"TOWNNAME":"安南區","LI":"安富里","LIN":"17鄰","STREET":"安富街","SECT":" ","MAREA":" ","LANE":"１９９巷","ALLEY":"６弄","HOUSE_NO":"１３號","E_COORD97":167677.39999999999,"N_COORD97":2547351.52,"ADDRESS":"安富街１９９巷６弄１３號","OBJECTID":28160},"geometry":{"x":167677.4000000013,"y":2547351.5199999996}},{"attributes":{"ID":28161,"DIS_CODE":0,"TOWNNAME":"安南區","LI":"安富里","LIN":"17鄰","STREET":"安富街","SECT":" ","MAREA":" ","LANE":"１９９巷","ALLEY":"６弄","HOUSE_NO":"１４號","E_COORD97":167667.17999999999,"N_COORD97":2547370.23,"ADDRESS":"安富街１９９巷６弄１４號","OBJECTID":28161},"geometry":{"x":167667.1799999997,"y":2547370.2300000023}},{"attributes":{"ID":28162,"DIS_CODE":0,"TOWNNAME":"將軍區","LI":"將貴里","LIN":"7鄰","STREET":" ","SECT":" ","MAREA":"將貴","LANE":" ","ALLEY":" ","HOUSE_NO":"６９號","E_COORD97":161962.04999999999,"N_COORD97":2567309.7400000002,"ADDRESS":"將貴６９號","OBJECTID":28162},"geometry":{"x":161962.04999999981,"y":2567309.7400000002}},{"attributes":{"ID":28163,"DIS_CODE":0,"TOWNNAME":"安定區","LI":"安加里","LIN":"8鄰","STREET":" ","SECT":" ","MAREA":"安定","LANE":" ","ALLEY":" ","HOUSE_NO":"２３８之８號","E_COORD97":171925.42000000001,"N_COORD97":2557441.3199999998,"ADDRESS":"安定２３８之８號","OBJECTID":28163},"geometry":{"x":171925.41999999993,"y":2557441.3199999984}},{"attributes":{"ID":28164,"DIS_CODE":0,"TOWNNAME":"安南區","LI":"安富里","LIN":"17鄰","STREET":"安富街","SECT":" ","MAREA":" ","LANE":"１９９巷","ALLEY":"６弄","HOUSE_NO":"１５號","E_COORD97":167671.98999999999,"N_COORD97":2547349.71,"ADDRESS":"安富街１９９巷６弄１５號","OBJECTID":28164},"geometry":{"x":167671.99000000115,"y":2547349.7100000046}},{"attributes":{"ID":28165,"DIS_CODE":0,"TOWNNAME":"安南區","LI":"安富里","LIN":"17鄰","STREET":"安富街","SECT":" ","MAREA":" ","LANE":"１９９巷","ALLEY":"６弄","HOUSE_NO":"１６號","E_COORD97":167657.54999999999,"N_COORD97":2547368.73,"ADDRESS":"安富街１９９巷６弄１６號","OBJECTID":28165},"geometry":{"x":167657.55000000075,"y":2547368.7300000004}},{"attributes":{"ID":28166,"DIS_CODE":0,"TOWNNAME":"安定區","LI":"安加里","LIN":"8鄰","STREET":" ","SECT":" ","MAREA":"安定","LANE":" ","ALLEY":" ","HOUSE_NO":"２４１之３號","E_COORD97":171919.62,"N_COORD97":2557578.3199999998,"ADDRESS":"安定２４１之３號","OBJECTID":28166},"geometry":{"x":171919.62000000011,"y":2557578.3200000022}},{"attributes":{"ID":28167,"DIS_CODE":0,"TOWNNAME":"安南區","LI":"安富里","LIN":"17鄰","STREET":"安富街","SECT":" ","MAREA":" ","LANE":"１９９巷","ALLEY":"６弄","HOUSE_NO":"１７號","E_COORD97":167660.85999999999,"N_COORD97":2547351.2200000002,"ADDRESS":"安富街１９９巷６弄１７號","OBJECTID":28167},"geometry":{"x":167660.86000000127,"y":2547351.2200000007}},{"attributes":{"ID":28168,"DIS_CODE":0,"TOWNNAME":"安定區","LI":"安加里","LIN":"8鄰","STREET":" ","SECT":" ","MAREA":"安定","LANE":" ","ALLEY":" ","HOUSE_NO":"２３７號之７","E_COORD97":171887.13,"N_COORD97":2557464.3199999998,"ADDRESS":"安定２３７號之７","OBJECTID":28168},"geometry":{"x":171887.12999999989,"y":2557464.3200000003}},{"attributes":{"ID":28169,"DIS_CODE":0,"TOWNNAME":"安定區","LI":"新吉里","LIN":"8鄰","STREET":" ","SECT":" ","MAREA":"新吉","LANE":" ","ALLEY":" ","HOUSE_NO":"７１號之９","E_COORD97":169166.19,"N_COORD97":2554005.2999999998,"ADDRESS":"新吉７１號之９","OBJECTID":28169},"geometry":{"x":169166.19000000041,"y":2554005.3000000026}},{"attributes":{"ID":28170,"DIS_CODE":0,"TOWNNAME":"安定區","LI":"新吉里","LIN":"8鄰","STREET":" ","SECT":" ","MAREA":"新吉","LANE":" ","ALLEY":" ","HOUSE_NO":"７１之１５號","E_COORD97":169155.22,"N_COORD97":2553974.2999999998,"ADDRESS":"新吉７１之１５號","OBJECTID":28170},"geometry":{"x":169155.21999999974,"y":2553974.3000000026}},{"attributes":{"ID":28171,"DIS_CODE":0,"TOWNNAME":"安定區","LI":"蘇林里","LIN":"8鄰","STREET":" ","SECT":" ","MAREA":"蘇厝","LANE":" ","ALLEY":" ","HOUSE_NO":"９５之１號","E_COORD97":173576.37,"N_COORD97":2558787.2999999998,"ADDRESS":"蘇厝９５之１號","OBJECTID":28171},"geometry":{"x":173576.37000000104,"y":2558787.3000000007}},{"attributes":{"ID":28172,"DIS_CODE":0,"TOWNNAME":"安定區","LI":"蘇林里","LIN":"8鄰","STREET":" ","SECT":" ","MAREA":"蘇厝","LANE":" ","ALLEY":" ","HOUSE_NO":"９４號之３","E_COORD97":173552.11093,"N_COORD97":2558776.4772999999,"ADDRESS":"蘇厝９４號之３","OBJECTID":28172},"geometry":{"x":173552.11093000136,"y":2558776.477303002}},{"attributes":{"ID":28173,"DIS_CODE":0,"TOWNNAME":"安南區","LI":"安富里","LIN":"17鄰","STREET":"安富街","SECT":" ","MAREA":" ","LANE":"１９９巷","ALLEY":"６弄","HOUSE_NO":"１８號","E_COORD97":167651.23999999999,"N_COORD97":2547367.23,"ADDRESS":"安富街１９９巷６弄１８號","OBJECTID":28173},"geometry":{"x":167651.24000000115,"y":2547367.2300000023}},{"attributes":{"ID":28174,"DIS_CODE":0,"TOWNNAME":"安南區","LI":"安富里","LIN":"17鄰","STREET":"安富街","SECT":" ","MAREA":" ","LANE":"１９９巷","ALLEY":"６弄","HOUSE_NO":"２９號","E_COORD97":167630.78,"N_COORD97":2547341.6099999999,"ADDRESS":"安富街１９９巷６弄２９號","OBJECTID":28174},"geometry":{"x":167630.78000000119,"y":2547341.6099999994}},{"attributes":{"ID":28175,"DIS_CODE":0,"TOWNNAME":"安南區","LI":"安富里","LIN":"17鄰","STREET":"安富街","SECT":" ","MAREA":" ","LANE":"１９９巷","ALLEY":"６弄","HOUSE_NO":"２號","E_COORD97":167703.26999999999,"N_COORD97":2547377.1400000001,"ADDRESS":"安富街１９９巷６弄２號","OBJECTID":28175},"geometry":{"x":167703.27000000048,"y":2547377.1400000043}},{"attributes":{"ID":28176,"DIS_CODE":0,"TOWNNAME":"安南區","LI":"安富里","LIN":"17鄰","STREET":"安富街","SECT":" ","MAREA":" ","LANE":"１９９巷","ALLEY":"６弄","HOUSE_NO":"３１號","E_COORD97":167625.97,"N_COORD97":2547342.21,"ADDRESS":"安富街１９９巷６弄３１號","OBJECTID":28176},"geometry":{"x":167625.96999999974,"y":2547342.2100000009}},{"attributes":{"ID":28177,"DIS_CODE":0,"TOWNNAME":"安南區","LI":"安富里","LIN":"17鄰","STREET":"安富街","SECT":" ","MAREA":" ","LANE":"１９９巷","ALLEY":"６弄","HOUSE_NO":"３號","E_COORD97":167702.66,"N_COORD97":2547357.2200000002,"ADDRESS":"安富街１９９巷６弄３號","OBJECTID":28177},"geometry":{"x":167702.66000000108,"y":2547357.2200000025}},{"attributes":{"ID":28178,"DIS_CODE":0,"TOWNNAME":"安南區","LI":"安富里","LIN":"17鄰","STREET":"安富街","SECT":" ","MAREA":" ","LANE":"１９９巷","ALLEY":"６弄","HOUSE_NO":"４號","E_COORD97":167697.85000000001,"N_COORD97":2547375.3399999999,"ADDRESS":"安富街１９９巷６弄４號","OBJECTID":28178},"geometry":{"x":167697.84999999963,"y":2547375.3400000017}},{"attributes":{"ID":28179,"DIS_CODE":0,"TOWNNAME":"安南區","LI":"安富里","LIN":"17鄰","STREET":"安富街","SECT":" ","MAREA":" ","LANE":"１９９巷","ALLEY":"６弄","HOUSE_NO":"５號","E_COORD97":167697.54999999999,"N_COORD97":2547355.7200000002,"ADDRESS":"安富街１９９巷６弄５號","OBJECTID":28179},"geometry":{"x":167697.55000000168,"y":2547355.7200000007}},{"attributes":{"ID":28180,"DIS_CODE":0,"TOWNNAME":"安南區","LI":"安富里","LIN":"17鄰","STREET":"安富街","SECT":" ","MAREA":" ","LANE":"１９９巷","ALLEY":"６弄","HOUSE_NO":"６號","E_COORD97":167691.84,"N_COORD97":2547375.04,"ADDRESS":"安富街１９９巷６弄６號","OBJECTID":28180},"geometry":{"x":167691.83999999985,"y":2547375.0399999991}},{"attributes":{"ID":28181,"DIS_CODE":0,"TOWNNAME":"歸仁區","LI":"辜厝里","LIN":"47鄰","STREET":"民權九街","SECT":" ","MAREA":" ","LANE":" ","ALLEY":" ","HOUSE_NO":"５８號","E_COORD97":177085.42000000001,"N_COORD97":2540340.0299999998,"ADDRESS":"民權九街５８號","OBJECTID":28181},"geometry":{"x":177085.42000000086,"y":2540340.0299999993}},{"attributes":{"ID":28182,"DIS_CODE":0,"TOWNNAME":"歸仁區","LI":"辜厝里","LIN":"47鄰","STREET":"民權九街","SECT":" ","MAREA":" ","LANE":" ","ALLEY":" ","HOUSE_NO":"６８號","E_COORD97":177105.92000000001,"N_COORD97":2540338.0299999998,"ADDRESS":"民權九街６８號","OBJECTID":28182},"geometry":{"x":177105.91999999993,"y":2540338.0300000031}},{"attributes":{"ID":28183,"DIS_CODE":0,"TOWNNAME":"歸仁區","LI":"後市里","LIN":"47鄰","STREET":"文化街","SECT":"二段","MAREA":" ","LANE":" ","ALLEY":" ","HOUSE_NO":"１０３號","E_COORD97":177225.73999999999,"N_COORD97":2541177.7599999998,"ADDRESS":"文化街二段１０３號","OBJECTID":28183},"geometry":{"x":177225.74000000115,"y":2541177.7600000035}},{"attributes":{"ID":28184,"DIS_CODE":0,"TOWNNAME":"歸仁區","LI":"後市里","LIN":"47鄰","STREET":"文化街","SECT":"二段","MAREA":" ","LANE":" ","ALLEY":" ","HOUSE_NO":"１２５號","E_COORD97":177184.73999999999,"N_COORD97":2541193.7599999998,"ADDRESS":"文化街二段１２５號","OBJECTID":28184},"geometry":{"x":177184.74000000115,"y":2541193.7599999998}},{"attributes":{"ID":28185,"DIS_CODE":0,"TOWNNAME":"歸仁區","LI":"後市里","LIN":"47鄰","STREET":"文化街","SECT":"二段","MAREA":" ","LANE":" ","ALLEY":" ","HOUSE_NO":"１２７號","E_COORD97":177181.73999999999,"N_COORD97":2541194.7599999998,"ADDRESS":"文化街二段１２７號","OBJECTID":28185},"geometry":{"x":177181.74000000115,"y":2541194.7600000035}},{"attributes":{"ID":28186,"DIS_CODE":0,"TOWNNAME":"歸仁區","LI":"後市里","LIN":"47鄰","STREET":"文化街","SECT":"二段","MAREA":" ","LANE":" ","ALLEY":" ","HOUSE_NO":"１１３號","E_COORD97":177206.23999999999,"N_COORD97":2541184.7599999998,"ADDRESS":"文化街二段１１３號","OBJECTID":28186},"geometry":{"x":177206.24000000022,"y":2541184.7600000035}},{"attributes":{"ID":28187,"DIS_CODE":0,"TOWNNAME":"歸仁區","LI":"後市里","LIN":"47鄰","STREET":"文化街","SECT":"二段","MAREA":" ","LANE":" ","ALLEY":" ","HOUSE_NO":"１３７號","E_COORD97":177161.23999999999,"N_COORD97":2541198.7599999998,"ADDRESS":"文化街二段１３７號","OBJECTID":28187},"geometry":{"x":177161.24000000115,"y":2541198.7600000016}},{"attributes":{"ID":28188,"DIS_CODE":0,"TOWNNAME":"歸仁區","LI":"南保里","LIN":"47鄰","STREET":"大順街","SECT":" ","MAREA":" ","LANE":" ","ALLEY":" ","HOUSE_NO":"２４２號","E_COORD97":176757.17000000001,"N_COORD97":2540617.25,"ADDRESS":"大順街２４２號","OBJECTID":28188},"geometry":{"x":176757.16999999993,"y":2540617.25}},{"attributes":{"ID":28189,"DIS_CODE":0,"TOWNNAME":"歸仁區","LI":"南保里","LIN":"47鄰","STREET":"大順街","SECT":" ","MAREA":" ","LANE":" ","ALLEY":" ","HOUSE_NO":"２５８號","E_COORD97":176723.26999999999,"N_COORD97":2540616.25,"ADDRESS":"大順街２５８號","OBJECTID":28189},"geometry":{"x":176723.27000000048,"y":2540616.2500000019}},{"attributes":{"ID":28190,"DIS_CODE":0,"TOWNNAME":"安定區","LI":"蘇林里","LIN":"8鄰","STREET":" ","SECT":" ","MAREA":"蘇厝","LANE":" ","ALLEY":" ","HOUSE_NO":"９３之１號","E_COORD97":173596.89999999999,"N_COORD97":2558738.2999999998,"ADDRESS":"蘇厝９３號之１","OBJECTID":28190},"geometry":{"x":173596.9000000013,"y":2558738.3000000026}},{"attributes":{"ID":28191,"DIS_CODE":0,"TOWNNAME":"安定區","LI":"蘇林里","LIN":"8鄰","STREET":" ","SECT":" ","MAREA":"蘇厝","LANE":" ","ALLEY":" ","HOUSE_NO":"９３之３號","E_COORD97":173549.76837100001,"N_COORD97":2558730.8632,"ADDRESS":"蘇厝９３之３號","OBJECTID":28191},"geometry":{"x":173549.76837099995,"y":2558730.863202}},{"attributes":{"ID":28192,"DIS_CODE":0,"TOWNNAME":"安南區","LI":"安富里","LIN":"17鄰","STREET":"安富街","SECT":" ","MAREA":" ","LANE":"１９９巷","ALLEY":"６弄","HOUSE_NO":"８號","E_COORD97":167686.12,"N_COORD97":2547374.4399999999,"ADDRESS":"安富街１９９巷６弄８號","OBJECTID":28192},"geometry":{"x":167686.12000000104,"y":2547374.4400000013}},{"attributes":{"ID":28193,"DIS_CODE":0,"TOWNNAME":"安南區","LI":"安富里","LIN":"17鄰","STREET":"安富街","SECT":" ","MAREA":" ","LANE":"１９９巷","ALLEY":"６弄","HOUSE_NO":"９號","E_COORD97":167687.63,"N_COORD97":2547352.7200000002,"ADDRESS":"安富街１９９巷６弄９號","OBJECTID":28193},"geometry":{"x":167687.63000000082,"y":2547352.7200000044}},{"attributes":{"ID":28194,"DIS_CODE":0,"TOWNNAME":"安定區","LI":"蘇林里","LIN":"8鄰","STREET":" ","SECT":" ","MAREA":"蘇厝","LANE":" ","ALLEY":" ","HOUSE_NO":"９４號","E_COORD97":173549.238847,"N_COORD97":2558755.7340199999,"ADDRESS":"蘇厝９４號","OBJECTID":28194},"geometry":{"x":173549.23884700052,"y":2558755.7340220008}},{"attributes":{"ID":28195,"DIS_CODE":0,"TOWNNAME":"安南區","LI":"溪東里","LIN":"17鄰","STREET":"府安路","SECT":"五段","MAREA":" ","LANE":"１１巷","ALLEY":"７７弄","HOUSE_NO":"１１號","E_COORD97":168380.29000000001,"N_COORD97":2547539.3100000001,"ADDRESS":"府安路五段１１巷７７弄１１號","OBJECTID":28195},"geometry":{"x":168380.29000000004,"y":2547539.3100000024}},{"attributes":{"ID":28196,"DIS_CODE":0,"TOWNNAME":"大內區","LI":"二溪里","LIN":"14鄰","STREET":" ","SECT":" ","MAREA":"其子瓦","LANE":" ","ALLEY":" ","HOUSE_NO":"４７號","E_COORD97":190594.51999999999,"N_COORD97":2557981.25,"ADDRESS":"其子瓦４７號","OBJECTID":28196},"geometry":{"x":190594.52000000048,"y":2557981.2500000019}},{"attributes":{"ID":28197,"DIS_CODE":0,"TOWNNAME":"安南區","LI":"溪東里","LIN":"17鄰","STREET":"府安路","SECT":"五段","MAREA":" ","LANE":"１１巷","ALLEY":"７７弄","HOUSE_NO":"２０號","E_COORD97":168351.48000000001,"N_COORD97":2547557.9100000001,"ADDRESS":"府安路五段１１巷７７弄２０號","OBJECTID":28197},"geometry":{"x":168351.48000000138,"y":2547557.9100000039}},{"attributes":{"ID":28198,"DIS_CODE":0,"TOWNNAME":"安南區","LI":"溪東里","LIN":"17鄰","STREET":"府安路","SECT":"五段","MAREA":" ","LANE":"１１巷","ALLEY":"７７弄","HOUSE_NO":"２１號","E_COORD97":168347.72,"N_COORD97":2547534.3500000001,"ADDRESS":"府安路五段１１巷７７弄２１號","OBJECTID":28198},"geometry":{"x":168347.72000000067,"y":2547534.3500000015}},{"attributes":{"ID":28199,"DIS_CODE":0,"TOWNNAME":"安定區","LI":"蘇林里","LIN":"8鄰","STREET":" ","SECT":" ","MAREA":"蘇厝","LANE":" ","ALLEY":" ","HOUSE_NO":"９５號","E_COORD97":173579.91015000001,"N_COORD97":2558769.4574500001,"ADDRESS":"蘇厝９５號","OBJECTID":28199},"geometry":{"x":173579.91014999989,"y":2558769.457448002}},{"attributes":{"ID":28200,"DIS_CODE":0,"TOWNNAME":"安南區","LI":"溪東里","LIN":"17鄰","STREET":"府安路","SECT":"五段","MAREA":" ","LANE":"１１巷","ALLEY":"７７弄","HOUSE_NO":"２２號","E_COORD97":168345.51999999999,"N_COORD97":2547557.0099999998,"ADDRESS":"府安路五段１１巷７７弄２２號","OBJECTID":28200},"geometry":{"x":168345.52000000048,"y":2547557.0100000016}}]}