{"displayFieldName":"TOWNNAME","fieldAliases":{"ID":"ID","DIS_CODE":"DIS_CODE","TOWNNAME":"TOWNNAME","LI":"LI","LIN":"LIN","STREET":"STREET","SECT":"SECT","MAREA":"MAREA","LANE":"LANE","ALLEY":"ALLEY","HOUSE_NO":"HOUSE_NO","E_COORD97":"E_COORD97","N_COORD97":"N_COORD97","ADDRESS":"ADDRESS","OBJECTID":"OBJECTID"},"geometryType":"esriGeometryPoint","spatialReference":{"wkid":102443,"latestWkid":3826},"fields":[{"name":"ID","type":"esriFieldTypeDouble","alias":"ID"},{"name":"DIS_CODE","type":"esriFieldTypeInteger","alias":"DIS_CODE"},{"name":"TOWNNAME","type":"esriFieldTypeString","alias":"TOWNNAME","length":8},{"name":"LI","type":"esriFieldTypeString","alias":"LI","length":8},{"name":"LIN","type":"esriFieldTypeString","alias":"LIN","length":12},{"name":"STREET","type":"esriFieldTypeString","alias":"STREET","length":20},{"name":"SECT","type":"esriFieldTypeString","alias":"SECT","length":8},{"name":"MAREA","type":"esriFieldTypeString","alias":"MAREA","length":12},{"name":"LANE","type":"esriFieldTypeString","alias":"LANE","length":10},{"name":"ALLEY","type":"esriFieldTypeString","alias":"ALLEY","length":10},{"name":"HOUSE_NO","type":"esriFieldTypeString","alias":"HOUSE_NO","length":20},{"name":"E_COORD97","type":"esriFieldTypeDouble","alias":"E_COORD97"},{"name":"N_COORD97","type":"esriFieldTypeDouble","alias":"N_COORD97"},{"name":"ADDRESS","type":"esriFieldTypeString","alias":"ADDRESS","length":50},{"name":"OBJECTID","type":"esriFieldTypeOID","alias":"OBJECTID"}],"features":[{"attributes":{"ID":142801,"DIS_CODE":0,"TOWNNAME":"大內區","LI":"石湖里","LIN":" ","STREET":" ","SECT":" ","MAREA":"石子瀨","LANE":" ","ALLEY":" ","HOUSE_NO":"２８８之５號","E_COORD97":183906.87,"N_COORD97":2557554.2999999998,"ADDRESS":"石子瀨２８８之５號","OBJECTID":142801},"geometry":{"x":183906.87000000104,"y":2557554.3000000026}},{"attributes":{"ID":142802,"DIS_CODE":0,"TOWNNAME":"鹽水區","LI":"河南里","LIN":"3鄰","STREET":" ","SECT":" ","MAREA":"?頭港","LANE":" ","ALLEY":" ","HOUSE_NO":"１０號","E_COORD97":173130.20000000001,"N_COORD97":2572788.29,"ADDRESS":"?頭港１０號","OBJECTID":142802},"geometry":{"x":173130.20000000112,"y":2572788.2899999991}},{"attributes":{"ID":142803,"DIS_CODE":0,"TOWNNAME":"大內區","LI":"石湖里","LIN":" ","STREET":" ","SECT":" ","MAREA":"石子瀨","LANE":" ","ALLEY":" ","HOUSE_NO":"２８８之３號","E_COORD97":183974.87,"N_COORD97":2558298.2999999998,"ADDRESS":"石子瀨２８８之３號","OBJECTID":142803},"geometry":{"x":183974.87000000104,"y":2558298.3000000007}},{"attributes":{"ID":142804,"DIS_CODE":0,"TOWNNAME":"大內區","LI":"石湖里","LIN":" ","STREET":" ","SECT":" ","MAREA":"石子瀨","LANE":" ","ALLEY":" ","HOUSE_NO":"４０６號","E_COORD97":183635.67000000001,"N_COORD97":2558172.25,"ADDRESS":"石子瀨４０６號","OBJECTID":142804},"geometry":{"x":183635.67000000086,"y":2558172.2500000019}},{"attributes":{"ID":142805,"DIS_CODE":0,"TOWNNAME":"大內區","LI":"環湖里","LIN":" ","STREET":" ","SECT":" ","MAREA":"環湖","LANE":" ","ALLEY":" ","HOUSE_NO":"８０之１號","E_COORD97":190500.64000000001,"N_COORD97":2560644.2999999998,"ADDRESS":"環湖８０之１號","OBJECTID":142805},"geometry":{"x":190500.6400000006,"y":2560644.3000000026}},{"attributes":{"ID":142806,"DIS_CODE":0,"TOWNNAME":"大內區","LI":"石湖里","LIN":" ","STREET":" ","SECT":" ","MAREA":"石子瀨","LANE":" ","ALLEY":" ","HOUSE_NO":"２８８之６號","E_COORD97":183928.07000000001,"N_COORD97":2557560.2999999998,"ADDRESS":"石子瀨２８８之６號","OBJECTID":142806},"geometry":{"x":183928.07000000123,"y":2557560.3000000007}},{"attributes":{"ID":142807,"DIS_CODE":0,"TOWNNAME":"大內區","LI":"石湖里","LIN":" ","STREET":" ","SECT":" ","MAREA":"石子瀨","LANE":" ","ALLEY":" ","HOUSE_NO":"２９０之２號","E_COORD97":183962.87,"N_COORD97":2558217.2999999998,"ADDRESS":"石子瀨２９０之２號","OBJECTID":142807},"geometry":{"x":183962.87000000104,"y":2558217.3000000007}},{"attributes":{"ID":142808,"DIS_CODE":0,"TOWNNAME":"大內區","LI":"曲溪里","LIN":" ","STREET":" ","SECT":" ","MAREA":"二重溪","LANE":" ","ALLEY":" ","HOUSE_NO":"５７之３號","E_COORD97":187504.09,"N_COORD97":2558129.3100000001,"ADDRESS":"二重溪５７之３號","OBJECTID":142808},"geometry":{"x":187504.09000000078,"y":2558129.3100000005}},{"attributes":{"ID":142809,"DIS_CODE":0,"TOWNNAME":"大內區","LI":"曲溪里","LIN":" ","STREET":" ","SECT":" ","MAREA":"二重溪","LANE":" ","ALLEY":" ","HOUSE_NO":"１１５之１號","E_COORD97":187468.34,"N_COORD97":2557722.3100000001,"ADDRESS":"二重溪１１５之１號","OBJECTID":142809},"geometry":{"x":187468.34000000078,"y":2557722.3100000005}},{"attributes":{"ID":142810,"DIS_CODE":0,"TOWNNAME":"永康區","LI":"北灣里","LIN":"22鄰","STREET":"大灣路","SECT":" ","MAREA":" ","LANE":"４０巷","ALLEY":"９８弄","HOUSE_NO":"１４號","E_COORD97":174981.59,"N_COORD97":2546232.5499999998,"ADDRESS":"大灣路４０巷９８弄１４號","OBJECTID":142810},"geometry":{"x":174981.59000000078,"y":2546232.5500000026}},{"attributes":{"ID":142811,"DIS_CODE":0,"TOWNNAME":"永康區","LI":"北灣里","LIN":"22鄰","STREET":"大灣路","SECT":" ","MAREA":" ","LANE":"４０巷","ALLEY":"９８弄","HOUSE_NO":"６６號","E_COORD97":174988.01000000001,"N_COORD97":2546297.6400000001,"ADDRESS":"大灣路４０巷９８弄６６號","OBJECTID":142811},"geometry":{"x":174988.00999999978,"y":2546297.6400000006}},{"attributes":{"ID":142812,"DIS_CODE":0,"TOWNNAME":"永康區","LI":"北灣里","LIN":"22鄰","STREET":"大灣路","SECT":" ","MAREA":" ","LANE":"４０巷","ALLEY":"９８弄","HOUSE_NO":"３２號","E_COORD97":175006.29000000001,"N_COORD97":2546258.79,"ADDRESS":"大灣路４０巷９８弄３２號","OBJECTID":142812},"geometry":{"x":175006.29000000097,"y":2546258.7899999972}},{"attributes":{"ID":142813,"DIS_CODE":0,"TOWNNAME":"永康區","LI":"北灣里","LIN":"22鄰","STREET":"大灣路","SECT":" ","MAREA":" ","LANE":"４０巷","ALLEY":"９８弄","HOUSE_NO":"３號","E_COORD97":174966.01999999999,"N_COORD97":2546238.3300000001,"ADDRESS":"大灣路４０巷９８弄３號","OBJECTID":142813},"geometry":{"x":174966.01999999955,"y":2546238.3300000001}},{"attributes":{"ID":142814,"DIS_CODE":0,"TOWNNAME":"永康區","LI":"北灣里","LIN":"22鄰","STREET":"大灣路","SECT":" ","MAREA":" ","LANE":"４０巷","ALLEY":"９８弄","HOUSE_NO":"７號","E_COORD97":174971.31,"N_COORD97":2546244.3300000001,"ADDRESS":"大灣路４０巷９８弄７號","OBJECTID":142814},"geometry":{"x":174971.31000000145,"y":2546244.3300000019}},{"attributes":{"ID":142815,"DIS_CODE":0,"TOWNNAME":"永康區","LI":"北灣里","LIN":"22鄰","STREET":"大灣路","SECT":" ","MAREA":" ","LANE":"４０巷","ALLEY":"９８弄","HOUSE_NO":"３４號","E_COORD97":175009.01000000001,"N_COORD97":2546261.54,"ADDRESS":"大灣路４０巷９８弄３４號","OBJECTID":142815},"geometry":{"x":175009.01000000164,"y":2546261.540000001}},{"attributes":{"ID":142816,"DIS_CODE":0,"TOWNNAME":"永康區","LI":"北灣里","LIN":"22鄰","STREET":"大灣路","SECT":" ","MAREA":" ","LANE":"４０巷","ALLEY":"９８弄","HOUSE_NO":"１６號","E_COORD97":174984.20999999999,"N_COORD97":2546235.2999999998,"ADDRESS":"大灣路４０巷９８弄１６號","OBJECTID":142816},"geometry":{"x":174984.21000000183,"y":2546235.3000000007}},{"attributes":{"ID":142817,"DIS_CODE":0,"TOWNNAME":"北區","LI":"大港里","LIN":"33鄰","STREET":"大興街","SECT":" ","MAREA":" ","LANE":"６０２巷","ALLEY":" ","HOUSE_NO":"４號","E_COORD97":165854.88,"N_COORD97":2545413.0600000001,"ADDRESS":"大興街６０２巷４號","OBJECTID":142817},"geometry":{"x":165854.88000000082,"y":2545413.0600000005}},{"attributes":{"ID":142818,"DIS_CODE":0,"TOWNNAME":"鹽水區","LI":"岸內里","LIN":"15鄰","STREET":"蔦松路","SECT":" ","MAREA":" ","LANE":" ","ALLEY":" ","HOUSE_NO":"５３號","E_COORD97":175536.07999999999,"N_COORD97":2580474.5800000001,"ADDRESS":"蔦松路５３號","OBJECTID":142818},"geometry":{"x":175536.08000000194,"y":2580474.5800000019}},{"attributes":{"ID":142819,"DIS_CODE":0,"TOWNNAME":"鹽水區","LI":"岸內里","LIN":"15鄰","STREET":"蔦松路","SECT":" ","MAREA":" ","LANE":" ","ALLEY":" ","HOUSE_NO":"７號","E_COORD97":175551.44,"N_COORD97":2580362.7000000002,"ADDRESS":"蔦松路７號","OBJECTID":142819},"geometry":{"x":175551.44000000134,"y":2580362.6999999993}},{"attributes":{"ID":142820,"DIS_CODE":0,"TOWNNAME":"永康區","LI":"北灣里","LIN":"22鄰","STREET":"大灣路","SECT":" ","MAREA":" ","LANE":"４０巷","ALLEY":"９８弄","HOUSE_NO":"５２號","E_COORD97":175009.56,"N_COORD97":2546277.8900000001,"ADDRESS":"大灣路４０巷９８弄５２號","OBJECTID":142820},"geometry":{"x":175009.55999999959,"y":2546277.8900000025}},{"attributes":{"ID":142821,"DIS_CODE":0,"TOWNNAME":"鹽水區","LI":"岸內里","LIN":"13鄰","STREET":"蔦松路","SECT":" ","MAREA":" ","LANE":" ","ALLEY":" ","HOUSE_NO":"７８號","E_COORD97":175576.17999999999,"N_COORD97":2580483.0800000001,"ADDRESS":"蔦松路７８號","OBJECTID":142821},"geometry":{"x":175576.18000000063,"y":2580483.0800000001}},{"attributes":{"ID":142822,"DIS_CODE":0,"TOWNNAME":"永康區","LI":"北灣里","LIN":"22鄰","STREET":"大灣路","SECT":" ","MAREA":" ","LANE":"４０巷","ALLEY":"９８弄","HOUSE_NO":"３８號","E_COORD97":175030.92000000001,"N_COORD97":2546258.6400000001,"ADDRESS":"大灣路４０巷９８弄３８號","OBJECTID":142822},"geometry":{"x":175030.92000000086,"y":2546258.6400000025}},{"attributes":{"ID":142823,"DIS_CODE":0,"TOWNNAME":"永康區","LI":"北灣里","LIN":"22鄰","STREET":"大灣路","SECT":" ","MAREA":" ","LANE":"４０巷","ALLEY":"９８弄","HOUSE_NO":"５８號","E_COORD97":175000.26000000001,"N_COORD97":2546286.3900000001,"ADDRESS":"大灣路４０巷９８弄５８號","OBJECTID":142823},"geometry":{"x":175000.25999999978,"y":2546286.3900000006}},{"attributes":{"ID":142824,"DIS_CODE":0,"TOWNNAME":"永康區","LI":"北灣里","LIN":"22鄰","STREET":"大灣路","SECT":" ","MAREA":" ","LANE":"４０巷","ALLEY":"９８弄","HOUSE_NO":"２８號","E_COORD97":175000.92999999999,"N_COORD97":2546252.54,"ADDRESS":"大灣路４０巷９８弄２８號","OBJECTID":142824},"geometry":{"x":175000.92999999877,"y":2546252.5399999991}},{"attributes":{"ID":142825,"DIS_CODE":0,"TOWNNAME":"永康區","LI":"北灣里","LIN":"22鄰","STREET":"大灣路","SECT":" ","MAREA":" ","LANE":"４０巷","ALLEY":"９８弄","HOUSE_NO":"１９號","E_COORD97":174988.67999999999,"N_COORD97":2546262.3199999998,"ADDRESS":"大灣路４０巷９８弄１９號","OBJECTID":142825},"geometry":{"x":174988.6799999997,"y":2546262.3200000003}},{"attributes":{"ID":142826,"DIS_CODE":0,"TOWNNAME":"永康區","LI":"北灣里","LIN":"22鄰","STREET":"大灣路","SECT":" ","MAREA":" ","LANE":"４０巷","ALLEY":"９８弄","HOUSE_NO":"１５號","E_COORD97":174983.22,"N_COORD97":2546256.0699999998,"ADDRESS":"大灣路４０巷９８弄１５號","OBJECTID":142826},"geometry":{"x":174983.21999999974,"y":2546256.0700000022}},{"attributes":{"ID":142827,"DIS_CODE":0,"TOWNNAME":"安平區","LI":"華平里","LIN":"33鄰","STREET":"永華八街","SECT":" ","MAREA":" ","LANE":" ","ALLEY":" ","HOUSE_NO":"３７７號","E_COORD97":165208.41,"N_COORD97":2544161.8999999999,"ADDRESS":"永華八街３７７號","OBJECTID":142827},"geometry":{"x":165208.40999999922,"y":2544161.9000000022}},{"attributes":{"ID":142828,"DIS_CODE":0,"TOWNNAME":"安平區","LI":"育平里","LIN":"33鄰","STREET":"永華路","SECT":"二段","MAREA":" ","LANE":" ","ALLEY":" ","HOUSE_NO":"１０７５號","E_COORD97":164437.79000000001,"N_COORD97":2543584.3300000001,"ADDRESS":"永華路二段１０７５號","OBJECTID":142828},"geometry":{"x":164437.78999999911,"y":2543584.3300000001}},{"attributes":{"ID":142829,"DIS_CODE":0,"TOWNNAME":"安平區","LI":"育平里","LIN":"33鄰","STREET":"永華路","SECT":"二段","MAREA":" ","LANE":" ","ALLEY":" ","HOUSE_NO":"１０７７號","E_COORD97":164432.39000000001,"N_COORD97":2543584.1699999999,"ADDRESS":"永華路二段１０７７號","OBJECTID":142829},"geometry":{"x":164432.3900000006,"y":2543584.1699999999}},{"attributes":{"ID":142830,"DIS_CODE":0,"TOWNNAME":"安平區","LI":"育平里","LIN":"33鄰","STREET":"永華路","SECT":"二段","MAREA":" ","LANE":" ","ALLEY":" ","HOUSE_NO":"１０７９號","E_COORD97":164427.63,"N_COORD97":2543584.6499999999,"ADDRESS":"永華路二段１０７９號","OBJECTID":142830},"geometry":{"x":164427.63000000082,"y":2543584.6500000004}},{"attributes":{"ID":142831,"DIS_CODE":0,"TOWNNAME":"安平區","LI":"育平里","LIN":"33鄰","STREET":"永華路","SECT":"二段","MAREA":" ","LANE":" ","ALLEY":" ","HOUSE_NO":"１０８１號","E_COORD97":164420.32999999999,"N_COORD97":2543585.2799999998,"ADDRESS":"永華路二段１０８１號","OBJECTID":142831},"geometry":{"x":164420.33000000007,"y":2543585.2800000012}},{"attributes":{"ID":142832,"DIS_CODE":0,"TOWNNAME":"永康區","LI":"北灣里","LIN":"22鄰","STREET":"大灣路","SECT":" ","MAREA":" ","LANE":"４０巷","ALLEY":"９８弄","HOUSE_NO":"１２號","E_COORD97":174978.88,"N_COORD97":2546229.2999999998,"ADDRESS":"大灣路４０巷９８弄１２號","OBJECTID":142832},"geometry":{"x":174978.87999999989,"y":2546229.3000000007}},{"attributes":{"ID":142833,"DIS_CODE":0,"TOWNNAME":"永康區","LI":"北灣里","LIN":"22鄰","STREET":"大灣路","SECT":" ","MAREA":" ","LANE":"４０巷","ALLEY":"９８弄","HOUSE_NO":"４號","E_COORD97":174966.29000000001,"N_COORD97":2546218.0499999998,"ADDRESS":"大灣路４０巷９８弄４號","OBJECTID":142833},"geometry":{"x":174966.29000000004,"y":2546218.0499999989}},{"attributes":{"ID":142834,"DIS_CODE":0,"TOWNNAME":"永康區","LI":"北灣里","LIN":"22鄰","STREET":"大灣路","SECT":" ","MAREA":" ","LANE":"４０巷","ALLEY":"９８弄","HOUSE_NO":"６２號","E_COORD97":174994.35999999999,"N_COORD97":2546292.3900000001,"ADDRESS":"大灣路４０巷９８弄６２號","OBJECTID":142834},"geometry":{"x":174994.36000000127,"y":2546292.3900000006}},{"attributes":{"ID":142835,"DIS_CODE":0,"TOWNNAME":"大內區","LI":"曲溪里","LIN":" ","STREET":" ","SECT":" ","MAREA":"二重溪","LANE":" ","ALLEY":" ","HOUSE_NO":"２９６號","E_COORD97":188522.04000000001,"N_COORD97":2557334.3100000001,"ADDRESS":"二重溪２９６號","OBJECTID":142835},"geometry":{"x":188522.04000000097,"y":2557334.3100000024}},{"attributes":{"ID":142836,"DIS_CODE":0,"TOWNNAME":"大內區","LI":"石林里","LIN":" ","STREET":" ","SECT":" ","MAREA":"石子瀨","LANE":" ","ALLEY":" ","HOUSE_NO":"１９１之４號","E_COORD97":183925.17000000001,"N_COORD97":2558200.2999999998,"ADDRESS":"石子瀨１９１之４號","OBJECTID":142836},"geometry":{"x":183925.17000000086,"y":2558200.3000000007}},{"attributes":{"ID":142837,"DIS_CODE":0,"TOWNNAME":"大內區","LI":"石林里","LIN":" ","STREET":" ","SECT":" ","MAREA":"石子瀨","LANE":" ","ALLEY":" ","HOUSE_NO":"２１２之２號","E_COORD97":184137.47,"N_COORD97":2558204.2999999998,"ADDRESS":"石子瀨２１２之２號","OBJECTID":142837},"geometry":{"x":184137.46999999974,"y":2558204.3000000007}},{"attributes":{"ID":142838,"DIS_CODE":0,"TOWNNAME":"大內區","LI":"石林里","LIN":" ","STREET":" ","SECT":" ","MAREA":"石子瀨","LANE":" ","ALLEY":" ","HOUSE_NO":"１４８之１號","E_COORD97":184084.67000000001,"N_COORD97":2558080.2999999998,"ADDRESS":"石子瀨１４８之１號","OBJECTID":142838},"geometry":{"x":184084.67000000086,"y":2558080.3000000026}},{"attributes":{"ID":142839,"DIS_CODE":0,"TOWNNAME":"大內區","LI":"內江里","LIN":" ","STREET":" ","SECT":" ","MAREA":"內庄","LANE":" ","ALLEY":" ","HOUSE_NO":"２８４號","E_COORD97":184473.98000000001,"N_COORD97":2557487.25,"ADDRESS":"內庄２８４號","OBJECTID":142839},"geometry":{"x":184473.98000000045,"y":2557487.2500000019}},{"attributes":{"ID":142840,"DIS_CODE":0,"TOWNNAME":"大內區","LI":"大內里","LIN":" ","STREET":" ","SECT":" ","MAREA":"內庄","LANE":" ","ALLEY":" ","HOUSE_NO":"６６之１號","E_COORD97":184432.13,"N_COORD97":2557631.2999999998,"ADDRESS":"內庄６６之１號","OBJECTID":142840},"geometry":{"x":184432.13000000082,"y":2557631.3000000007}},{"attributes":{"ID":142841,"DIS_CODE":0,"TOWNNAME":"大內區","LI":"大內里","LIN":" ","STREET":" ","SECT":" ","MAREA":"內庄","LANE":" ","ALLEY":" ","HOUSE_NO":"７之１４號","E_COORD97":184433.13,"N_COORD97":2557582.2999999998,"ADDRESS":"內庄７之１４號","OBJECTID":142841},"geometry":{"x":184433.12999999989,"y":2557582.3000000026}},{"attributes":{"ID":142842,"DIS_CODE":0,"TOWNNAME":"大內區","LI":"內江里","LIN":" ","STREET":" ","SECT":" ","MAREA":"蒙正","LANE":" ","ALLEY":" ","HOUSE_NO":"１５號","E_COORD97":185711.14000000001,"N_COORD97":2556210.25,"ADDRESS":"蒙正１５號","OBJECTID":142842},"geometry":{"x":185711.13999999966,"y":2556210.25}},{"attributes":{"ID":142843,"DIS_CODE":0,"TOWNNAME":"大內區","LI":"內郭里","LIN":" ","STREET":" ","SECT":" ","MAREA":"內庄","LANE":" ","ALLEY":" ","HOUSE_NO":"１７２之３號","E_COORD97":184754.88,"N_COORD97":2557407.2999999998,"ADDRESS":"內庄１７２之３號","OBJECTID":142843},"geometry":{"x":184754.87999999989,"y":2557407.3000000007}},{"attributes":{"ID":142844,"DIS_CODE":0,"TOWNNAME":"大內區","LI":"內江里","LIN":" ","STREET":" ","SECT":" ","MAREA":"蒙正","LANE":" ","ALLEY":" ","HOUSE_NO":"２９之３號","E_COORD97":185910.23999999999,"N_COORD97":2556245.2999999998,"ADDRESS":"蒙正２９之３號","OBJECTID":142844},"geometry":{"x":185910.24000000115,"y":2556245.3000000045}},{"attributes":{"ID":142845,"DIS_CODE":0,"TOWNNAME":"大內區","LI":"內郭里","LIN":" ","STREET":" ","SECT":" ","MAREA":"內庄","LANE":" ","ALLEY":" ","HOUSE_NO":"１６７之４號","E_COORD97":184947.78,"N_COORD97":2557304.2999999998,"ADDRESS":"內庄１６７之４號","OBJECTID":142845},"geometry":{"x":184947.78000000026,"y":2557304.3000000026}},{"attributes":{"ID":142846,"DIS_CODE":0,"TOWNNAME":"大內區","LI":"石湖里","LIN":" ","STREET":" ","SECT":" ","MAREA":"石子瀨","LANE":" ","ALLEY":" ","HOUSE_NO":"２９３之４號","E_COORD97":183913.76999999999,"N_COORD97":2558237.2999999998,"ADDRESS":"石子瀨２９３之４號","OBJECTID":142846},"geometry":{"x":183913.77000000048,"y":2558237.3000000007}},{"attributes":{"ID":142847,"DIS_CODE":0,"TOWNNAME":"大內區","LI":"內江里","LIN":" ","STREET":" ","SECT":" ","MAREA":"內庄","LANE":" ","ALLEY":" ","HOUSE_NO":"２９３之１號","E_COORD97":184511.57999999999,"N_COORD97":2557372.2999999998,"ADDRESS":"內庄２９３之１號","OBJECTID":142847},"geometry":{"x":184511.58000000007,"y":2557372.3000000026}},{"attributes":{"ID":142848,"DIS_CODE":0,"TOWNNAME":"大內區","LI":"內江里","LIN":" ","STREET":" ","SECT":" ","MAREA":"內庄","LANE":" ","ALLEY":" ","HOUSE_NO":"２６９之４號","E_COORD97":184565.67999999999,"N_COORD97":2557458.2999999998,"ADDRESS":"內庄２６９之４號","OBJECTID":142848},"geometry":{"x":184565.68000000063,"y":2557458.3000000007}},{"attributes":{"ID":142849,"DIS_CODE":0,"TOWNNAME":"大內區","LI":"內郭里","LIN":" ","STREET":" ","SECT":" ","MAREA":"內庄","LANE":" ","ALLEY":" ","HOUSE_NO":"１７２之４號","E_COORD97":184751.17999999999,"N_COORD97":2557408.2999999998,"ADDRESS":"內庄１７２之４號","OBJECTID":142849},"geometry":{"x":184751.1799999997,"y":2557408.3000000045}},{"attributes":{"ID":142850,"DIS_CODE":0,"TOWNNAME":"大內區","LI":"二溪里","LIN":" ","STREET":" ","SECT":" ","MAREA":"二重溪","LANE":" ","ALLEY":" ","HOUSE_NO":"２２１之３號","E_COORD97":188746.34,"N_COORD97":2560084.3100000001,"ADDRESS":"二重溪２２１之３號","OBJECTID":142850},"geometry":{"x":188746.34000000171,"y":2560084.3100000024}},{"attributes":{"ID":142851,"DIS_CODE":0,"TOWNNAME":"安定區","LI":"安定里","LIN":" ","STREET":" ","SECT":" ","MAREA":"安定","LANE":" ","ALLEY":" ","HOUSE_NO":"１４之１號","E_COORD97":172539.87,"N_COORD97":2558212.3199999998,"ADDRESS":"安定１４之１號","OBJECTID":142851},"geometry":{"x":172539.87000000011,"y":2558212.3200000022}},{"attributes":{"ID":142852,"DIS_CODE":0,"TOWNNAME":"安定區","LI":"新吉里","LIN":" ","STREET":" ","SECT":" ","MAREA":"新吉","LANE":" ","ALLEY":" ","HOUSE_NO":"５之４６號","E_COORD97":168076.17000000001,"N_COORD97":2554419.2999999998,"ADDRESS":"新吉５之４６號","OBJECTID":142852},"geometry":{"x":168076.16999999993,"y":2554419.3000000026}},{"attributes":{"ID":142853,"DIS_CODE":0,"TOWNNAME":"新市區","LI":"豐華里","LIN":" ","STREET":" ","SECT":" ","MAREA":"豐華","LANE":" ","ALLEY":" ","HOUSE_NO":"４３之１３號","E_COORD97":173906.07000000001,"N_COORD97":2554351.5499999998,"ADDRESS":"豐華４３之１３號","OBJECTID":142853},"geometry":{"x":173906.07000000123,"y":2554351.5499999989}},{"attributes":{"ID":142854,"DIS_CODE":0,"TOWNNAME":"新市區","LI":"永就里","LIN":"5鄰","STREET":" ","SECT":" ","MAREA":"永就","LANE":" ","ALLEY":" ","HOUSE_NO":"４９之２３號","E_COORD97":178232.60999999999,"N_COORD97":2551343.7999999998,"ADDRESS":"永就４９之２３號","OBJECTID":142854},"geometry":{"x":178232.61000000034,"y":2551343.8000000026}},{"attributes":{"ID":142855,"DIS_CODE":0,"TOWNNAME":"安南區","LI":"州北里","LIN":"22鄰","STREET":"安和路","SECT":"五段","MAREA":" ","LANE":"２６９巷","ALLEY":"１３弄","HOUSE_NO":"７號","E_COORD97":169705.03,"N_COORD97":2551968.5099999998,"ADDRESS":"安和路五段２６９巷１３弄７號","OBJECTID":142855},"geometry":{"x":169705.02999999933,"y":2551968.5100000016}},{"attributes":{"ID":142856,"DIS_CODE":0,"TOWNNAME":"新市區","LI":"大營里","LIN":"5鄰","STREET":" ","SECT":" ","MAREA":"大營","LANE":" ","ALLEY":" ","HOUSE_NO":"７９之１７號","E_COORD97":179786.54000000001,"N_COORD97":2555427.7999999998,"ADDRESS":"大營７９之１７號","OBJECTID":142856},"geometry":{"x":179786.54000000097,"y":2555427.8000000007}},{"attributes":{"ID":142857,"DIS_CODE":0,"TOWNNAME":"安定區","LI":"新吉里","LIN":"14鄰","STREET":" ","SECT":" ","MAREA":"新吉","LANE":" ","ALLEY":" ","HOUSE_NO":"１９６號","E_COORD97":168970.22,"N_COORD97":2554106.25,"ADDRESS":"新吉１９６號","OBJECTID":142857},"geometry":{"x":168970.21999999974,"y":2554106.2500000019}},{"attributes":{"ID":142858,"DIS_CODE":0,"TOWNNAME":"新市區","LI":"永就里","LIN":"8鄰","STREET":" ","SECT":" ","MAREA":"永就","LANE":" ","ALLEY":" ","HOUSE_NO":"８２之１號","E_COORD97":177622.70999999999,"N_COORD97":2551595.0499999998,"ADDRESS":"永就８２之１號","OBJECTID":142858},"geometry":{"x":177622.70999999996,"y":2551595.0500000007}},{"attributes":{"ID":142859,"DIS_CODE":0,"TOWNNAME":"新市區","LI":"大社里","LIN":"25鄰","STREET":" ","SECT":" ","MAREA":"大社","LANE":" ","ALLEY":" ","HOUSE_NO":"９１８之７號","E_COORD97":179937.59,"N_COORD97":2554047.5499999998,"ADDRESS":"大社９１８之７號","OBJECTID":142859},"geometry":{"x":179937.58999999985,"y":2554047.5500000026}},{"attributes":{"ID":142860,"DIS_CODE":0,"TOWNNAME":"新市區","LI":"大社里","LIN":" ","STREET":" ","SECT":" ","MAREA":"大庄","LANE":" ","ALLEY":" ","HOUSE_NO":"５６號","E_COORD97":182739.39000000001,"N_COORD97":2554204.75,"ADDRESS":"大庄５６號","OBJECTID":142860},"geometry":{"x":182739.38999999966,"y":2554204.7500000019}},{"attributes":{"ID":142861,"DIS_CODE":0,"TOWNNAME":"新市區","LI":"永就里","LIN":"4鄰","STREET":" ","SECT":" ","MAREA":"永就","LANE":" ","ALLEY":" ","HOUSE_NO":"４６之７號","E_COORD97":178524.82000000001,"N_COORD97":2551647.5499999998,"ADDRESS":"永就４６之７號","OBJECTID":142861},"geometry":{"x":178524.8200000003,"y":2551647.5500000026}},{"attributes":{"ID":142862,"DIS_CODE":0,"TOWNNAME":"新市區","LI":"大洲里","LIN":"4鄰","STREET":" ","SECT":" ","MAREA":"大洲","LANE":" ","ALLEY":" ","HOUSE_NO":"４１之１號","E_COORD97":174295.64999999999,"N_COORD97":2552226.0499999998,"ADDRESS":"大洲４１之１號","OBJECTID":142862},"geometry":{"x":174295.6500000013,"y":2552226.0500000045}},{"attributes":{"ID":142863,"DIS_CODE":0,"TOWNNAME":"新市區","LI":"大洲里","LIN":"4鄰","STREET":" ","SECT":" ","MAREA":"大洲","LANE":" ","ALLEY":" ","HOUSE_NO":"３６之１號","E_COORD97":174359.10000000001,"N_COORD97":2552332.7999999998,"ADDRESS":"大洲３６之１號","OBJECTID":142863},"geometry":{"x":174359.10000000149,"y":2552332.8000000045}},{"attributes":{"ID":142864,"DIS_CODE":0,"TOWNNAME":"新市區","LI":"大社里","LIN":" ","STREET":" ","SECT":" ","MAREA":"大社","LANE":" ","ALLEY":" ","HOUSE_NO":"２００號","E_COORD97":180081.98000000001,"N_COORD97":2554391.25,"ADDRESS":"大社２００號","OBJECTID":142864},"geometry":{"x":180081.98000000231,"y":2554391.2500000019}},{"attributes":{"ID":142865,"DIS_CODE":0,"TOWNNAME":"安南區","LI":"州北里","LIN":"22鄰","STREET":"安和路","SECT":"五段","MAREA":" ","LANE":"２６９巷","ALLEY":"１３弄","HOUSE_NO":"３號","E_COORD97":169701.62,"N_COORD97":2551985.0099999998,"ADDRESS":"安和路五段２６９巷１３弄３號","OBJECTID":142865},"geometry":{"x":169701.62000000104,"y":2551985.0100000016}},{"attributes":{"ID":142866,"DIS_CODE":0,"TOWNNAME":"安南區","LI":"州北里","LIN":"22鄰","STREET":"安和路","SECT":"五段","MAREA":" ","LANE":"２６９巷","ALLEY":"１３弄","HOUSE_NO":"５號","E_COORD97":169702.85999999999,"N_COORD97":2551977.2799999998,"ADDRESS":"安和路五段２６９巷１３弄５號","OBJECTID":142866},"geometry":{"x":169702.8599999994,"y":2551977.2799999993}},{"attributes":{"ID":142867,"DIS_CODE":0,"TOWNNAME":"鹽水區","LI":"河南里","LIN":"1鄰","STREET":" ","SECT":" ","MAREA":"?頭港","LANE":" ","ALLEY":" ","HOUSE_NO":"２９號","E_COORD97":173226.04000000001,"N_COORD97":2572805.4900000002,"ADDRESS":"?頭港２９號","OBJECTID":142867},"geometry":{"x":173226.04000000097,"y":2572805.4900000039}},{"attributes":{"ID":142868,"DIS_CODE":0,"TOWNNAME":"安南區","LI":"州北里","LIN":"22鄰","STREET":"安和路","SECT":"五段","MAREA":" ","LANE":"２６９巷","ALLEY":"２１弄","HOUSE_NO":"１０號","E_COORD97":169567.82000000001,"N_COORD97":2551927.1499999999,"ADDRESS":"安和路五段２６９巷２１弄１０號","OBJECTID":142868},"geometry":{"x":169567.82000000123,"y":2551927.1500000022}},{"attributes":{"ID":142869,"DIS_CODE":0,"TOWNNAME":"安南區","LI":"州北里","LIN":"22鄰","STREET":"安和路","SECT":"五段","MAREA":" ","LANE":"２６９巷","ALLEY":"２１弄","HOUSE_NO":"１１號","E_COORD97":169600.79999999999,"N_COORD97":2551936.96,"ADDRESS":"安和路五段２６９巷２１弄１１號","OBJECTID":142869},"geometry":{"x":169600.79999999981,"y":2551936.9600000009}},{"attributes":{"ID":142870,"DIS_CODE":0,"TOWNNAME":"安南區","LI":"州北里","LIN":"22鄰","STREET":"安和路","SECT":"五段","MAREA":" ","LANE":"２６９巷","ALLEY":"２１弄","HOUSE_NO":"１２號","E_COORD97":169569.37,"N_COORD97":2551923.2999999998,"ADDRESS":"安和路五段２６９巷２１弄１２號","OBJECTID":142870},"geometry":{"x":169569.37000000104,"y":2551923.3000000026}},{"attributes":{"ID":142871,"DIS_CODE":0,"TOWNNAME":"安南區","LI":"州北里","LIN":"22鄰","STREET":"安和路","SECT":"五段","MAREA":" ","LANE":"２６９巷","ALLEY":"２１弄","HOUSE_NO":"１３號","E_COORD97":169602.45000000001,"N_COORD97":2551932.6099999999,"ADDRESS":"安和路五段２６９巷２１弄１３號","OBJECTID":142871},"geometry":{"x":169602.45000000112,"y":2551932.6100000031}},{"attributes":{"ID":142872,"DIS_CODE":0,"TOWNNAME":"安南區","LI":"州北里","LIN":"22鄰","STREET":"安和路","SECT":"五段","MAREA":" ","LANE":"２６９巷","ALLEY":"２１弄","HOUSE_NO":"１６號","E_COORD97":169569.94,"N_COORD97":2551913.5099999998,"ADDRESS":"安和路五段２６９巷２１弄１６號","OBJECTID":142872},"geometry":{"x":169569.94000000041,"y":2551913.5100000035}},{"attributes":{"ID":142873,"DIS_CODE":0,"TOWNNAME":"安南區","LI":"州北里","LIN":"22鄰","STREET":"安和路","SECT":"五段","MAREA":" ","LANE":"２６９巷","ALLEY":"２１弄","HOUSE_NO":"１號","E_COORD97":169590.92000000001,"N_COORD97":2551957.73,"ADDRESS":"安和路五段２６９巷２１弄１號","OBJECTID":142873},"geometry":{"x":169590.92000000086,"y":2551957.7300000023}},{"attributes":{"ID":142874,"DIS_CODE":0,"TOWNNAME":"安南區","LI":"州北里","LIN":"22鄰","STREET":"安和路","SECT":"五段","MAREA":" ","LANE":"２６９巷","ALLEY":"２１弄","HOUSE_NO":"２號","E_COORD97":169567.76999999999,"N_COORD97":2551947.2200000002,"ADDRESS":"安和路五段２６９巷２１弄２號","OBJECTID":142874},"geometry":{"x":169567.77000000048,"y":2551947.2200000025}},{"attributes":{"ID":142875,"DIS_CODE":0,"TOWNNAME":"東區","LI":"圍下里","LIN":"21鄰","STREET":"前鋒路","SECT":" ","MAREA":" ","LANE":"１１９巷","ALLEY":" ","HOUSE_NO":"８號","E_COORD97":169267.85999999999,"N_COORD97":2543774.1099999999,"ADDRESS":"前鋒路１１９巷８號","OBJECTID":142875},"geometry":{"x":169267.86000000127,"y":2543774.1099999994}},{"attributes":{"ID":142876,"DIS_CODE":0,"TOWNNAME":"鹽水區","LI":"岸內里","LIN":"15鄰","STREET":"蔦松路","SECT":" ","MAREA":" ","LANE":" ","ALLEY":" ","HOUSE_NO":"９號","E_COORD97":175551.42999999999,"N_COORD97":2580368.3999999999,"ADDRESS":"蔦松路９號","OBJECTID":142876},"geometry":{"x":175551.4299999997,"y":2580368.4000000022}},{"attributes":{"ID":142877,"DIS_CODE":0,"TOWNNAME":"安平區","LI":"石門里","LIN":"15鄰","STREET":"民權路","SECT":"四段","MAREA":" ","LANE":" ","ALLEY":" ","HOUSE_NO":"８９３號","E_COORD97":164390.07000000001,"N_COORD97":2544804.0699999998,"ADDRESS":"民權路四段８９３號","OBJECTID":142877},"geometry":{"x":164390.0700000003,"y":2544804.070000004}},{"attributes":{"ID":142878,"DIS_CODE":0,"TOWNNAME":"安平區","LI":"石門里","LIN":"15鄰","STREET":"民權路","SECT":"四段","MAREA":" ","LANE":" ","ALLEY":" ","HOUSE_NO":"８９５號","E_COORD97":164384.51000000001,"N_COORD97":2544804.8599999999,"ADDRESS":"民權路四段８９５號","OBJECTID":142878},"geometry":{"x":164384.50999999978,"y":2544804.8600000013}},{"attributes":{"ID":142879,"DIS_CODE":0,"TOWNNAME":"安平區","LI":"石門里","LIN":"15鄰","STREET":"民權路","SECT":"四段","MAREA":" ","LANE":" ","ALLEY":" ","HOUSE_NO":"８９７號","E_COORD97":164377.04999999999,"N_COORD97":2544806.7599999998,"ADDRESS":"民權路四段８９７號","OBJECTID":142879},"geometry":{"x":164377.05000000075,"y":2544806.7600000016}},{"attributes":{"ID":142880,"DIS_CODE":0,"TOWNNAME":"新市區","LI":"大洲里","LIN":"2鄰","STREET":" ","SECT":" ","MAREA":"大洲","LANE":" ","ALLEY":" ","HOUSE_NO":"７之２號","E_COORD97":174569.51000000001,"N_COORD97":2552481.7999999998,"ADDRESS":"大洲７之２號","OBJECTID":142880},"geometry":{"x":174569.50999999978,"y":2552481.7999999989}},{"attributes":{"ID":142881,"DIS_CODE":0,"TOWNNAME":"鹽水區","LI":"岸內里","LIN":"13鄰","STREET":"蔦松路","SECT":" ","MAREA":" ","LANE":" ","ALLEY":" ","HOUSE_NO":"８２號","E_COORD97":175575.70999999999,"N_COORD97":2580493.1099999999,"ADDRESS":"蔦松路８２號","OBJECTID":142881},"geometry":{"x":175575.71000000183,"y":2580493.1100000031}},{"attributes":{"ID":142882,"DIS_CODE":0,"TOWNNAME":"安南區","LI":"州北里","LIN":"22鄰","STREET":"安和路","SECT":"五段","MAREA":" ","LANE":"２６９巷","ALLEY":"２１弄","HOUSE_NO":"３號","E_COORD97":169593.03,"N_COORD97":2551953.4100000001,"ADDRESS":"安和路五段２６９巷２１弄３號","OBJECTID":142882},"geometry":{"x":169593.03000000026,"y":2551953.410000002}},{"attributes":{"ID":142883,"DIS_CODE":0,"TOWNNAME":"安南區","LI":"州北里","LIN":"22鄰","STREET":"安和路","SECT":"五段","MAREA":" ","LANE":"２６９巷","ALLEY":"２１弄","HOUSE_NO":"４號","E_COORD97":169569.31,"N_COORD97":2551942.8100000001,"ADDRESS":"安和路五段２６９巷２１弄４號","OBJECTID":142883},"geometry":{"x":169569.31000000052,"y":2551942.8100000042}},{"attributes":{"ID":142884,"DIS_CODE":0,"TOWNNAME":"安南區","LI":"顯宮里","LIN":"3鄰","STREET":"工業七路","SECT":" ","MAREA":" ","LANE":" ","ALLEY":" ","HOUSE_NO":"１０９號","E_COORD97":161445.23999999999,"N_COORD97":2548593.1299999999,"ADDRESS":"工業七路１０９號","OBJECTID":142884},"geometry":{"x":161445.24000000115,"y":2548593.1300000008}},{"attributes":{"ID":142885,"DIS_CODE":0,"TOWNNAME":"安南區","LI":"顯宮里","LIN":"3鄰","STREET":"科技三路","SECT":" ","MAREA":" ","LANE":" ","ALLEY":" ","HOUSE_NO":"８３號","E_COORD97":161737.97,"N_COORD97":2548762.6699999999,"ADDRESS":"科技三路８３號","OBJECTID":142885},"geometry":{"x":161737.97000000067,"y":2548762.6700000037}},{"attributes":{"ID":142886,"DIS_CODE":0,"TOWNNAME":"安平區","LI":"建平里","LIN":"3鄰","STREET":"建平路","SECT":" ","MAREA":" ","LANE":" ","ALLEY":" ","HOUSE_NO":"３３號","E_COORD97":166316.57000000001,"N_COORD97":2544159.3300000001,"ADDRESS":"建平路３３號","OBJECTID":142886},"geometry":{"x":166316.57000000123,"y":2544159.3300000019}},{"attributes":{"ID":142887,"DIS_CODE":0,"TOWNNAME":"安平區","LI":"華平里","LIN":"3鄰","STREET":"育平九街","SECT":" ","MAREA":" ","LANE":" ","ALLEY":" ","HOUSE_NO":"７０號","E_COORD97":165234.35603699999,"N_COORD97":2543983.1129299998,"ADDRESS":"育平九街７０號","OBJECTID":142887},"geometry":{"x":165234.35603700019,"y":2543983.1129250005}},{"attributes":{"ID":142888,"DIS_CODE":0,"TOWNNAME":"安平區","LI":"華平里","LIN":"3鄰","STREET":"育平九街","SECT":" ","MAREA":" ","LANE":" ","ALLEY":" ","HOUSE_NO":"７２號","E_COORD97":165227.57499699999,"N_COORD97":2543983.9595900001,"ADDRESS":"育平九街７２號","OBJECTID":142888},"geometry":{"x":165227.57499700226,"y":2543983.9595909975}},{"attributes":{"ID":142889,"DIS_CODE":0,"TOWNNAME":"安平區","LI":"金城里","LIN":"3鄰","STREET":"運河路","SECT":" ","MAREA":" ","LANE":" ","ALLEY":" ","HOUSE_NO":"４９－１號","E_COORD97":163956.57000000001,"N_COORD97":2544325.0099999998,"ADDRESS":"運河路４９－１號","OBJECTID":142889},"geometry":{"x":163956.57000000216,"y":2544325.0099999998}},{"attributes":{"ID":142890,"DIS_CODE":0,"TOWNNAME":"安平區","LI":"億載里","LIN":"3鄰","STREET":"永華十二街","SECT":" ","MAREA":" ","LANE":" ","ALLEY":" ","HOUSE_NO":"１２號","E_COORD97":163773.81,"N_COORD97":2543618.0499999998,"ADDRESS":"永華十二街１２號","OBJECTID":142890},"geometry":{"x":163773.80999999959,"y":2543618.0500000045}},{"attributes":{"ID":142891,"DIS_CODE":0,"TOWNNAME":"南區","LI":"松安里","LIN":" ","STREET":"興南街","SECT":" ","MAREA":" ","LANE":" ","ALLEY":" ","HOUSE_NO":"９２號","E_COORD97":166203.63,"N_COORD97":2536017.3599999999,"ADDRESS":"興南街９２號","OBJECTID":142891},"geometry":{"x":166203.63000000175,"y":2536017.3600000013}},{"attributes":{"ID":142892,"DIS_CODE":0,"TOWNNAME":"南區","LI":"金華里","LIN":" ","STREET":"新孝路","SECT":" ","MAREA":" ","LANE":" ","ALLEY":" ","HOUSE_NO":"６號","E_COORD97":167048.29000000001,"N_COORD97":2542052.1499999999,"ADDRESS":"新孝路６號","OBJECTID":142892},"geometry":{"x":167048.29000000004,"y":2542052.1500000004}},{"attributes":{"ID":142893,"DIS_CODE":0,"TOWNNAME":"南區","LI":"金華里","LIN":" ","STREET":"尊南街","SECT":" ","MAREA":" ","LANE":" ","ALLEY":" ","HOUSE_NO":"２１９號","E_COORD97":166834.69,"N_COORD97":2542275.71,"ADDRESS":"尊南街２１９號","OBJECTID":142893},"geometry":{"x":166834.69000000134,"y":2542275.7100000028}},{"attributes":{"ID":142894,"DIS_CODE":0,"TOWNNAME":"南區","LI":"金華里","LIN":" ","STREET":"聖南街","SECT":" ","MAREA":" ","LANE":" ","ALLEY":" ","HOUSE_NO":"１２０號","E_COORD97":166828.66,"N_COORD97":2542261.1000000001,"ADDRESS":"聖南街１２０號","OBJECTID":142894},"geometry":{"x":166828.66000000015,"y":2542261.1000000015}},{"attributes":{"ID":142895,"DIS_CODE":0,"TOWNNAME":"六甲區","LI":"甲東里","LIN":"14鄰","STREET":"忠孝街","SECT":" ","MAREA":" ","LANE":" ","ALLEY":" ","HOUSE_NO":"１４８號","E_COORD97":184009.169597,"N_COORD97":2569825.0318900002,"ADDRESS":"忠孝街１４８號","OBJECTID":142895},"geometry":{"x":184009.16959699988,"y":2569825.0318909995}},{"attributes":{"ID":142896,"DIS_CODE":0,"TOWNNAME":"鹽水區","LI":"南港里","LIN":"3鄰","STREET":" ","SECT":" ","MAREA":"?頭港","LANE":" ","ALLEY":" ","HOUSE_NO":"１３４之１號","E_COORD97":172906.82999999999,"N_COORD97":2572415.8300000001,"ADDRESS":"?頭港１３４之１號","OBJECTID":142896},"geometry":{"x":172906.83000000194,"y":2572415.8300000001}},{"attributes":{"ID":142897,"DIS_CODE":0,"TOWNNAME":"鹽水區","LI":"南港里","LIN":"3鄰","STREET":" ","SECT":" ","MAREA":"?頭港","LANE":" ","ALLEY":" ","HOUSE_NO":"１３４之２號","E_COORD97":172915.76000000001,"N_COORD97":2572392.0800000001,"ADDRESS":"?頭港１３４之２號","OBJECTID":142897},"geometry":{"x":172915.76000000071,"y":2572392.0800000019}},{"attributes":{"ID":142898,"DIS_CODE":0,"TOWNNAME":"鹽水區","LI":"南港里","LIN":"3鄰","STREET":" ","SECT":" ","MAREA":"?頭港","LANE":" ","ALLEY":" ","HOUSE_NO":"１３４之３號","E_COORD97":172900.44,"N_COORD97":2572406.4700000002,"ADDRESS":"?頭港１３４之３號","OBJECTID":142898},"geometry":{"x":172900.44000000134,"y":2572406.4700000025}},{"attributes":{"ID":142899,"DIS_CODE":0,"TOWNNAME":"鹽水區","LI":"南港里","LIN":"3鄰","STREET":" ","SECT":" ","MAREA":"?頭港","LANE":" ","ALLEY":" ","HOUSE_NO":"１３４號","E_COORD97":172904.17000000001,"N_COORD97":2572389.3999999999,"ADDRESS":"?頭港１３４號","OBJECTID":142899},"geometry":{"x":172904.16999999993,"y":2572389.4000000041}},{"attributes":{"ID":142900,"DIS_CODE":0,"TOWNNAME":"安南區","LI":"州北里","LIN":"22鄰","STREET":"安和路","SECT":"五段","MAREA":" ","LANE":"２６９巷","ALLEY":"２１弄","HOUSE_NO":"５號","E_COORD97":169595.03,"N_COORD97":2551949.2599999998,"ADDRESS":"安和路五段２６９巷２１弄５號","OBJECTID":142900},"geometry":{"x":169595.03000000212,"y":2551949.2600000016}},{"attributes":{"ID":142901,"DIS_CODE":0,"TOWNNAME":"安南區","LI":"州北里","LIN":"22鄰","STREET":"安和路","SECT":"五段","MAREA":" ","LANE":"２６９巷","ALLEY":"２１弄","HOUSE_NO":"６號","E_COORD97":169570.54999999999,"N_COORD97":2551938.6000000001,"ADDRESS":"安和路五段２６９巷２１弄６號","OBJECTID":142901},"geometry":{"x":169570.55000000168,"y":2551938.5999999996}},{"attributes":{"ID":142902,"DIS_CODE":0,"TOWNNAME":"安南區","LI":"州北里","LIN":"22鄰","STREET":"安和路","SECT":"五段","MAREA":" ","LANE":"２６９巷","ALLEY":"２１弄","HOUSE_NO":"７號","E_COORD97":169596.79000000001,"N_COORD97":2551944.9100000001,"ADDRESS":"安和路五段２６９巷２１弄７號","OBJECTID":142902},"geometry":{"x":169596.79000000097,"y":2551944.9100000039}},{"attributes":{"ID":142903,"DIS_CODE":0,"TOWNNAME":"鹽水區","LI":"南港里","LIN":"3鄰","STREET":" ","SECT":" ","MAREA":"?頭港","LANE":" ","ALLEY":" ","HOUSE_NO":"１４３號之１","E_COORD97":172950,"N_COORD97":2572570.21,"ADDRESS":"?頭港１４３號之１","OBJECTID":142903},"geometry":{"x":172950.00000000093,"y":2572570.2100000009}},{"attributes":{"ID":142904,"DIS_CODE":0,"TOWNNAME":"安南區","LI":"州北里","LIN":"22鄰","STREET":"安和路","SECT":"五段","MAREA":" ","LANE":"２６９巷","ALLEY":"２１弄","HOUSE_NO":"９號","E_COORD97":169598.64000000001,"N_COORD97":2551941.0099999998,"ADDRESS":"安和路五段２６９巷２１弄９號","OBJECTID":142904},"geometry":{"x":169598.64000000153,"y":2551941.0100000016}},{"attributes":{"ID":142905,"DIS_CODE":0,"TOWNNAME":"永康區","LI":"永康里","LIN":"22鄰","STREET":"中山南路","SECT":" ","MAREA":" ","LANE":"４７１巷","ALLEY":"３８弄","HOUSE_NO":"２號","E_COORD97":173163.57000000001,"N_COORD97":2547135,"ADDRESS":"中山南路４７１巷３８弄２號","OBJECTID":142905},"geometry":{"x":173163.57000000123,"y":2547135}},{"attributes":{"ID":142906,"DIS_CODE":0,"TOWNNAME":"永康區","LI":"尚頂里","LIN":"22鄰","STREET":"南台街","SECT":" ","MAREA":" ","LANE":"１３巷","ALLEY":"３８弄","HOUSE_NO":"７號","E_COORD97":170324.85999999999,"N_COORD97":2546868.9700000002,"ADDRESS":"南台街１３巷３８弄７號","OBJECTID":142906},"geometry":{"x":170324.86000000034,"y":2546868.9700000007}},{"attributes":{"ID":142907,"DIS_CODE":0,"TOWNNAME":"永康區","LI":"永康里","LIN":"22鄰","STREET":"中山南路","SECT":" ","MAREA":" ","LANE":"４７１巷","ALLEY":"３８弄","HOUSE_NO":"７號","E_COORD97":173186.38,"N_COORD97":2547127.2400000002,"ADDRESS":"中山南路４７１巷３８弄７號","OBJECTID":142907},"geometry":{"x":173186.38000000082,"y":2547127.2400000002}},{"attributes":{"ID":142908,"DIS_CODE":0,"TOWNNAME":"永康區","LI":"北灣里","LIN":"22鄰","STREET":"大灣路","SECT":" ","MAREA":" ","LANE":"４０巷","ALLEY":"９８弄","HOUSE_NO":"３０號","E_COORD97":175003.42999999999,"N_COORD97":2546256.04,"ADDRESS":"大灣路４０巷９８弄３０號","OBJECTID":142908},"geometry":{"x":175003.43000000063,"y":2546256.0399999991}},{"attributes":{"ID":142909,"DIS_CODE":0,"TOWNNAME":"永康區","LI":"安康里","LIN":"22鄰","STREET":"中華西街","SECT":" ","MAREA":" ","LANE":"１２２巷","ALLEY":"９弄","HOUSE_NO":"１１號","E_COORD97":170732.07000000001,"N_COORD97":2546180.7400000002,"ADDRESS":"中華西街１２２巷９弄１１號","OBJECTID":142909},"geometry":{"x":170732.06999999937,"y":2546180.7400000021}},{"attributes":{"ID":142910,"DIS_CODE":0,"TOWNNAME":"永康區","LI":"北灣里","LIN":"22鄰","STREET":"大灣路","SECT":" ","MAREA":" ","LANE":"４０巷","ALLEY":"９８弄","HOUSE_NO":"７０號","E_COORD97":174981.87,"N_COORD97":2546303.3999999999,"ADDRESS":"大灣路４０巷９８弄７０號","OBJECTID":142910},"geometry":{"x":174981.87000000104,"y":2546303.3999999985}},{"attributes":{"ID":142911,"DIS_CODE":0,"TOWNNAME":"永康區","LI":"北灣里","LIN":"22鄰","STREET":"大灣路","SECT":" ","MAREA":" ","LANE":"４０巷","ALLEY":"９８弄","HOUSE_NO":"５０號","E_COORD97":175011.64000000001,"N_COORD97":2546275.8199999998,"ADDRESS":"大灣路４０巷９８弄５０號","OBJECTID":142911},"geometry":{"x":175011.6400000006,"y":2546275.8200000003}},{"attributes":{"ID":142912,"DIS_CODE":0,"TOWNNAME":"永康區","LI":"二王里","LIN":"22鄰","STREET":"中山南路","SECT":" ","MAREA":" ","LANE":"５６８巷","ALLEY":"１弄","HOUSE_NO":"２９號","E_COORD97":172311.60000000001,"N_COORD97":2546595.3599999999,"ADDRESS":"中山南路５６８巷１弄２９號","OBJECTID":142912},"geometry":{"x":172311.60000000056,"y":2546595.3600000013}},{"attributes":{"ID":142913,"DIS_CODE":0,"TOWNNAME":"永康區","LI":"大橋里","LIN":"22鄰","STREET":"大橋一街","SECT":" ","MAREA":" ","LANE":"１３９巷","ALLEY":"２２弄","HOUSE_NO":"２８號","E_COORD97":171074.64000000001,"N_COORD97":2546568.4500000002,"ADDRESS":"大橋一街１３９巷２２弄２８號","OBJECTID":142913},"geometry":{"x":171074.63999999966,"y":2546568.4499999993}},{"attributes":{"ID":142914,"DIS_CODE":0,"TOWNNAME":"永康區","LI":"西橋里","LIN":"22鄰","STREET":"大橋三街","SECT":" ","MAREA":" ","LANE":"５７巷","ALLEY":"７弄","HOUSE_NO":"２號","E_COORD97":170551.10999999999,"N_COORD97":2546550.75,"ADDRESS":"大橋三街５７巷７弄２號","OBJECTID":142914},"geometry":{"x":170551.11000000127,"y":2546550.75}},{"attributes":{"ID":142915,"DIS_CODE":0,"TOWNNAME":"永康區","LI":"安康里","LIN":"22鄰","STREET":"中華西街","SECT":" ","MAREA":" ","LANE":"１２２巷","ALLEY":"９弄","HOUSE_NO":"６號","E_COORD97":170738.5,"N_COORD97":2546196.4900000002,"ADDRESS":"中華西街１２２巷９弄６號","OBJECTID":142915},"geometry":{"x":170738.5,"y":2546196.4900000002}},{"attributes":{"ID":142916,"DIS_CODE":0,"TOWNNAME":"永康區","LI":"復國里","LIN":"22鄰","STREET":"復華六街","SECT":" ","MAREA":" ","LANE":"９３巷","ALLEY":"３４弄","HOUSE_NO":"７號","E_COORD97":172575.26999999999,"N_COORD97":2545737.7000000002,"ADDRESS":"復華六街９３巷３４弄７號","OBJECTID":142916},"geometry":{"x":172575.26999999955,"y":2545737.700000003}},{"attributes":{"ID":142917,"DIS_CODE":0,"TOWNNAME":"永康區","LI":"西橋里","LIN":"22鄰","STREET":"大橋三街","SECT":" ","MAREA":" ","LANE":"５７巷","ALLEY":"７弄","HOUSE_NO":"４６號","E_COORD97":170494.95000000001,"N_COORD97":2546482.9500000002,"ADDRESS":"大橋三街５７巷７弄４６號","OBJECTID":142917},"geometry":{"x":170494.95000000019,"y":2546482.9500000011}},{"attributes":{"ID":142918,"DIS_CODE":0,"TOWNNAME":"安南區","LI":"海東里","LIN":"22鄰","STREET":"同安路","SECT":" ","MAREA":" ","LANE":"１７巷","ALLEY":"１弄","HOUSE_NO":"２號","E_COORD97":166831.97,"N_COORD97":2548901.8799999999,"ADDRESS":"同安路１７巷１弄２號","OBJECTID":142918},"geometry":{"x":166831.97000000067,"y":2548901.879999999}},{"attributes":{"ID":142919,"DIS_CODE":0,"TOWNNAME":"安南區","LI":"海東里","LIN":"22鄰","STREET":"同安路","SECT":" ","MAREA":" ","LANE":"１７巷","ALLEY":"１弄","HOUSE_NO":"１號","E_COORD97":166833.70999999999,"N_COORD97":2548887.6600000001,"ADDRESS":"同安路１７巷１弄１號","OBJECTID":142919},"geometry":{"x":166833.71000000183,"y":2548887.6600000001}},{"attributes":{"ID":142920,"DIS_CODE":0,"TOWNNAME":"南區","LI":"大忠里","LIN":"15鄰","STREET":"公英六街","SECT":" ","MAREA":" ","LANE":" ","ALLEY":" ","HOUSE_NO":"１４號","E_COORD97":169402.45000000001,"N_COORD97":2541105.3999999999,"ADDRESS":"公英六街１４號","OBJECTID":142920},"geometry":{"x":169402.45000000112,"y":2541105.4000000004}},{"attributes":{"ID":142921,"DIS_CODE":0,"TOWNNAME":"安南區","LI":"海東里","LIN":"22鄰","STREET":"同安路","SECT":" ","MAREA":" ","LANE":"１７巷","ALLEY":"１弄","HOUSE_NO":"１０號","E_COORD97":166816.98000000001,"N_COORD97":2548899.3900000001,"ADDRESS":"同安路１７巷１弄１０號","OBJECTID":142921},"geometry":{"x":166816.97999999952,"y":2548899.3900000006}},{"attributes":{"ID":142922,"DIS_CODE":0,"TOWNNAME":"安南區","LI":"海東里","LIN":"22鄰","STREET":"同安路","SECT":" ","MAREA":" ","LANE":"１７巷","ALLEY":"１弄","HOUSE_NO":"１１號","E_COORD97":166805.62,"N_COORD97":2548880.3199999998,"ADDRESS":"同安路１７巷１弄１１號","OBJECTID":142922},"geometry":{"x":166805.62000000197,"y":2548880.3200000003}},{"attributes":{"ID":142923,"DIS_CODE":0,"TOWNNAME":"安南區","LI":"海東里","LIN":"22鄰","STREET":"同安路","SECT":" ","MAREA":" ","LANE":"１７巷","ALLEY":"１弄","HOUSE_NO":"１２號","E_COORD97":166812.32000000001,"N_COORD97":2548898.4199999999,"ADDRESS":"同安路１７巷１弄１２號","OBJECTID":142923},"geometry":{"x":166812.3200000003,"y":2548898.4199999999}},{"attributes":{"ID":142924,"DIS_CODE":0,"TOWNNAME":"安南區","LI":"海東里","LIN":"22鄰","STREET":"同安路","SECT":" ","MAREA":" ","LANE":"１７巷","ALLEY":"１弄","HOUSE_NO":"１６號","E_COORD97":166807.37,"N_COORD97":2548897.5800000001,"ADDRESS":"同安路１７巷１弄１６號","OBJECTID":142924},"geometry":{"x":166807.37000000197,"y":2548897.5800000001}},{"attributes":{"ID":142925,"DIS_CODE":0,"TOWNNAME":"安南區","LI":"海東里","LIN":"22鄰","STREET":"同安路","SECT":" ","MAREA":" ","LANE":"１７巷","ALLEY":"１弄","HOUSE_NO":"１８號","E_COORD97":166802.20000000001,"N_COORD97":2548897.02,"ADDRESS":"同安路１７巷１弄１８號","OBJECTID":142925},"geometry":{"x":166802.20000000112,"y":2548897.0200000014}},{"attributes":{"ID":142926,"DIS_CODE":0,"TOWNNAME":"安南區","LI":"海東里","LIN":"22鄰","STREET":"同安路","SECT":" ","MAREA":" ","LANE":"１７巷","ALLEY":"３弄","HOUSE_NO":"１號","E_COORD97":166829.01000000001,"N_COORD97":2548917.3500000001,"ADDRESS":"同安路１７巷３弄１號","OBJECTID":142926},"geometry":{"x":166829.00999999978,"y":2548917.3500000034}},{"attributes":{"ID":142927,"DIS_CODE":0,"TOWNNAME":"安南區","LI":"海東里","LIN":"22鄰","STREET":"同安路","SECT":" ","MAREA":" ","LANE":"１７巷","ALLEY":"３弄","HOUSE_NO":"２號","E_COORD97":166826.20999999999,"N_COORD97":2548933.1600000001,"ADDRESS":"同安路１７巷３弄２號","OBJECTID":142927},"geometry":{"x":166826.20999999996,"y":2548933.160000002}},{"attributes":{"ID":142928,"DIS_CODE":0,"TOWNNAME":"安南區","LI":"海東里","LIN":"22鄰","STREET":"同安路","SECT":" ","MAREA":" ","LANE":"１７巷","ALLEY":"３弄","HOUSE_NO":"３號","E_COORD97":166824.17999999999,"N_COORD97":2548916.6299999999,"ADDRESS":"同安路１７巷３弄３號","OBJECTID":142928},"geometry":{"x":166824.18000000063,"y":2548916.629999999}},{"attributes":{"ID":142929,"DIS_CODE":0,"TOWNNAME":"安南區","LI":"海東里","LIN":"22鄰","STREET":"同安路","SECT":" ","MAREA":" ","LANE":"１７巷","ALLEY":"３弄","HOUSE_NO":"５號","E_COORD97":166819.13,"N_COORD97":2548915.5600000001,"ADDRESS":"同安路１７巷３弄５號","OBJECTID":142929},"geometry":{"x":166819.13000000082,"y":2548915.5600000005}},{"attributes":{"ID":142930,"DIS_CODE":0,"TOWNNAME":"安南區","LI":"海東里","LIN":"22鄰","STREET":"同安路","SECT":" ","MAREA":" ","LANE":"１７巷","ALLEY":"３弄","HOUSE_NO":"６號","E_COORD97":166821.32000000001,"N_COORD97":2548932.04,"ADDRESS":"同安路１７巷３弄６號","OBJECTID":142930},"geometry":{"x":166821.31999999937,"y":2548932.0399999972}},{"attributes":{"ID":142931,"DIS_CODE":0,"TOWNNAME":"安南區","LI":"海東里","LIN":"22鄰","STREET":"同安路","SECT":" ","MAREA":" ","LANE":"１７巷","ALLEY":"３弄","HOUSE_NO":"７號","E_COORD97":166814.39000000001,"N_COORD97":2548914.8999999999,"ADDRESS":"同安路１７巷３弄７號","OBJECTID":142931},"geometry":{"x":166814.38999999966,"y":2548914.9000000022}},{"attributes":{"ID":142932,"DIS_CODE":0,"TOWNNAME":"安南區","LI":"海東里","LIN":"22鄰","STREET":"同安路","SECT":" ","MAREA":" ","LANE":"１７巷","ALLEY":"３弄","HOUSE_NO":"８號","E_COORD97":166816.26999999999,"N_COORD97":2548931.3300000001,"ADDRESS":"同安路１７巷３弄８號","OBJECTID":142932},"geometry":{"x":166816.27000000048,"y":2548931.3300000038}},{"attributes":{"ID":142933,"DIS_CODE":0,"TOWNNAME":"安南區","LI":"海東里","LIN":"22鄰","STREET":"同安路","SECT":" ","MAREA":" ","LANE":"１７巷","ALLEY":"３弄","HOUSE_NO":"９號","E_COORD97":166809.38,"N_COORD97":2548913.6600000001,"ADDRESS":"同安路１７巷３弄９號","OBJECTID":142933},"geometry":{"x":166809.38000000082,"y":2548913.660000002}},{"attributes":{"ID":142934,"DIS_CODE":0,"TOWNNAME":"安南區","LI":"海東里","LIN":"22鄰","STREET":"同安路","SECT":" ","MAREA":" ","LANE":"１７巷","ALLEY":"３弄","HOUSE_NO":"１０號","E_COORD97":166811.47,"N_COORD97":2548930.8599999999,"ADDRESS":"同安路１７巷３弄１０號","OBJECTID":142934},"geometry":{"x":166811.47000000067,"y":2548930.8600000013}},{"attributes":{"ID":142935,"DIS_CODE":0,"TOWNNAME":"安南區","LI":"海東里","LIN":"22鄰","STREET":"同安路","SECT":" ","MAREA":" ","LANE":"１７巷","ALLEY":"３弄","HOUSE_NO":"１１號","E_COORD97":166804.39000000001,"N_COORD97":2548912.7999999998,"ADDRESS":"同安路１７巷３弄１１號","OBJECTID":142935},"geometry":{"x":166804.38999999966,"y":2548912.8000000026}},{"attributes":{"ID":142936,"DIS_CODE":0,"TOWNNAME":"安南區","LI":"海東里","LIN":"22鄰","STREET":"同安路","SECT":" ","MAREA":" ","LANE":"１７巷","ALLEY":"３弄","HOUSE_NO":"１２號","E_COORD97":166807.14000000001,"N_COORD97":2548930.0499999998,"ADDRESS":"同安路１７巷３弄１２號","OBJECTID":142936},"geometry":{"x":166807.1400000006,"y":2548930.0500000007}},{"attributes":{"ID":142937,"DIS_CODE":0,"TOWNNAME":"安南區","LI":"海東里","LIN":"22鄰","STREET":"同安路","SECT":" ","MAREA":" ","LANE":"１７巷","ALLEY":"３弄","HOUSE_NO":"１３號","E_COORD97":166799.75,"N_COORD97":2548911.8300000001,"ADDRESS":"同安路１７巷３弄１３號","OBJECTID":142937},"geometry":{"x":166799.75000000093,"y":2548911.8300000019}},{"attributes":{"ID":142938,"DIS_CODE":0,"TOWNNAME":"安南區","LI":"海東里","LIN":"22鄰","STREET":"同安路","SECT":" ","MAREA":" ","LANE":"１７巷","ALLEY":"３弄","HOUSE_NO":"１６號","E_COORD97":166801.73999999999,"N_COORD97":2548928.77,"ADDRESS":"同安路１７巷３弄１６號","OBJECTID":142938},"geometry":{"x":166801.74000000115,"y":2548928.7700000014}},{"attributes":{"ID":142939,"DIS_CODE":0,"TOWNNAME":"安南區","LI":"海東里","LIN":"22鄰","STREET":"同安路","SECT":" ","MAREA":" ","LANE":"１７巷","ALLEY":"３弄","HOUSE_NO":"１８號","E_COORD97":166796.79999999999,"N_COORD97":2548927.8599999999,"ADDRESS":"同安路１７巷３弄１８號","OBJECTID":142939},"geometry":{"x":166796.79999999981,"y":2548927.8600000013}},{"attributes":{"ID":142940,"DIS_CODE":0,"TOWNNAME":"安南區","LI":"溪東里","LIN":"22鄰","STREET":"郡安路","SECT":"五段","MAREA":" ","LANE":"１５３巷","ALLEY":"１１弄","HOUSE_NO":"４１號","E_COORD97":167898.78,"N_COORD97":2547639.8900000001,"ADDRESS":"郡安路五段１５３巷１１弄４１號","OBJECTID":142940},"geometry":{"x":167898.78000000119,"y":2547639.8900000043}},{"attributes":{"ID":142941,"DIS_CODE":0,"TOWNNAME":"安南區","LI":"溪東里","LIN":"22鄰","STREET":"郡安路","SECT":"五段","MAREA":" ","LANE":"１５３巷","ALLEY":"１１弄","HOUSE_NO":"５３號","E_COORD97":167901.14000000001,"N_COORD97":2547647.7000000002,"ADDRESS":"郡安路五段１５３巷１１弄５３號","OBJECTID":142941},"geometry":{"x":167901.13999999966,"y":2547647.7000000011}},{"attributes":{"ID":142942,"DIS_CODE":0,"TOWNNAME":"南區","LI":"建南里","LIN":"4鄰","STREET":"德興路","SECT":" ","MAREA":" ","LANE":" ","ALLEY":" ","HOUSE_NO":"２４９號","E_COORD97":167225.89999999999,"N_COORD97":2540040.6299999999,"ADDRESS":"德興路２４９號","OBJECTID":142942},"geometry":{"x":167225.90000000037,"y":2540040.629999999}},{"attributes":{"ID":142943,"DIS_CODE":0,"TOWNNAME":"南區","LI":"建南里","LIN":"4鄰","STREET":"德興路","SECT":" ","MAREA":" ","LANE":" ","ALLEY":" ","HOUSE_NO":"２７９號","E_COORD97":167225.35999999999,"N_COORD97":2539986.29,"ADDRESS":"德興路２７９號","OBJECTID":142943},"geometry":{"x":167225.36000000127,"y":2539986.2899999991}},{"attributes":{"ID":142944,"DIS_CODE":0,"TOWNNAME":"南區","LI":"建南里","LIN":" ","STREET":"中華南路","SECT":"二段","MAREA":" ","LANE":" ","ALLEY":" ","HOUSE_NO":"２１７號","E_COORD97":166917.12,"N_COORD97":2540202.4900000002,"ADDRESS":"中華南路二段２１７號","OBJECTID":142944},"geometry":{"x":166917.12000000011,"y":2540202.4900000002}},{"attributes":{"ID":142945,"DIS_CODE":0,"TOWNNAME":"鹽水區","LI":"福得里","LIN":"5鄰","STREET":" ","SECT":" ","MAREA":"後厝","LANE":" ","ALLEY":" ","HOUSE_NO":"８９號","E_COORD97":175379.88,"N_COORD97":2579809.4500000002,"ADDRESS":"後厝８９號","OBJECTID":142945},"geometry":{"x":175379.88000000082,"y":2579809.450000003}},{"attributes":{"ID":142946,"DIS_CODE":0,"TOWNNAME":"鹽水區","LI":"南港里","LIN":"1鄰","STREET":" ","SECT":" ","MAREA":"?頭港","LANE":" ","ALLEY":" ","HOUSE_NO":"１１３號之１","E_COORD97":172689.64000000001,"N_COORD97":2572441.23,"ADDRESS":"?頭港１１３號之１","OBJECTID":142946},"geometry":{"x":172689.6400000006,"y":2572441.2300000042}},{"attributes":{"ID":142947,"DIS_CODE":0,"TOWNNAME":"安南區","LI":"溪東里","LIN":"22鄰","STREET":"郡安路","SECT":"五段","MAREA":" ","LANE":"１５３巷","ALLEY":"１１弄","HOUSE_NO":"８１號","E_COORD97":167901.35999999999,"N_COORD97":2547655.3599999999,"ADDRESS":"郡安路五段１５３巷１１弄８１號","OBJECTID":142947},"geometry":{"x":167901.36000000127,"y":2547655.3599999994}},{"attributes":{"ID":142948,"DIS_CODE":0,"TOWNNAME":"柳營區","LI":"重溪里","LIN":"1鄰","STREET":" ","SECT":" ","MAREA":"小腳腿","LANE":" ","ALLEY":" ","HOUSE_NO":"５號之３３","E_COORD97":185058.78,"N_COORD97":2575676.48,"ADDRESS":"小腳腿５號之３３","OBJECTID":142948},"geometry":{"x":185058.78000000119,"y":2575676.4800000004}},{"attributes":{"ID":142949,"DIS_CODE":0,"TOWNNAME":"東區","LI":"成大里","LIN":"22鄰","STREET":"育樂街","SECT":" ","MAREA":" ","LANE":"５７巷","ALLEY":"２弄","HOUSE_NO":"１４號","E_COORD97":169623.67000000001,"N_COORD97":2543985.8799999999,"ADDRESS":"育樂街５７巷２弄１４號","OBJECTID":142949},"geometry":{"x":169623.66999999993,"y":2543985.879999999}},{"attributes":{"ID":142950,"DIS_CODE":0,"TOWNNAME":"仁德區","LI":"後壁里","LIN":"15鄰","STREET":"德南路","SECT":" ","MAREA":" ","LANE":" ","ALLEY":" ","HOUSE_NO":"１５３號","E_COORD97":173595.45999999999,"N_COORD97":2538594.7599999998,"ADDRESS":"德南路１５３號","OBJECTID":142950},"geometry":{"x":173595.45999999996,"y":2538594.7600000016}},{"attributes":{"ID":142951,"DIS_CODE":0,"TOWNNAME":"西港區","LI":"檨林里","LIN":"1鄰","STREET":" ","SECT":" ","MAREA":"檨子林","LANE":" ","ALLEY":" ","HOUSE_NO":"３號之４","E_COORD97":171341.81,"N_COORD97":2559093.29,"ADDRESS":"檨子林３號之４","OBJECTID":142951},"geometry":{"x":171341.81000000145,"y":2559093.2899999991}},{"attributes":{"ID":142952,"DIS_CODE":0,"TOWNNAME":"後壁區","LI":"後部里","LIN":"1鄰","STREET":" ","SECT":" ","MAREA":"後部","LANE":" ","ALLEY":" ","HOUSE_NO":"３號","E_COORD97":182183.04999999999,"N_COORD97":2586749.3500000001,"ADDRESS":"後部３號","OBJECTID":142952},"geometry":{"x":182183.05000000075,"y":2586749.3499999996}},{"attributes":{"ID":142953,"DIS_CODE":0,"TOWNNAME":"仁德區","LI":"仁愛里","LIN":"24鄰","STREET":" ","SECT":" ","MAREA":"仁愛","LANE":" ","ALLEY":" ","HOUSE_NO":"５０７號","E_COORD97":170035.35275799999,"N_COORD97":2540094.4500000002,"ADDRESS":"仁愛５０７號","OBJECTID":142953},"geometry":{"x":170035.35275799967,"y":2540094.450000003}},{"attributes":{"ID":142954,"DIS_CODE":0,"TOWNNAME":"東區","LI":"成大里","LIN":"22鄰","STREET":"育樂街","SECT":" ","MAREA":" ","LANE":"５７巷","ALLEY":"２弄","HOUSE_NO":"１６號","E_COORD97":169612.29999999999,"N_COORD97":2543985.54,"ADDRESS":"育樂街５７巷２弄１６號","OBJECTID":142954},"geometry":{"x":169612.29999999981,"y":2543985.5399999972}},{"attributes":{"ID":142955,"DIS_CODE":0,"TOWNNAME":"佳里區","LI":"海澄里","LIN":"1鄰","STREET":" ","SECT":" ","MAREA":"萊竿寮","LANE":" ","ALLEY":" ","HOUSE_NO":"１號之１８","E_COORD97":165773.57000000001,"N_COORD97":2564109.9700000002,"ADDRESS":"萊竿寮１號之１８","OBJECTID":142955},"geometry":{"x":165773.5700000003,"y":2564109.9700000044}},{"attributes":{"ID":142956,"DIS_CODE":0,"TOWNNAME":"東區","LI":"成大里","LIN":"22鄰","STREET":"育樂街","SECT":" ","MAREA":" ","LANE":"５７巷","ALLEY":"２弄","HOUSE_NO":"１７號","E_COORD97":169622.98999999999,"N_COORD97":2543972.4900000002,"ADDRESS":"育樂街５７巷２弄１７號","OBJECTID":142956},"geometry":{"x":169622.99000000115,"y":2543972.4900000002}},{"attributes":{"ID":142957,"DIS_CODE":0,"TOWNNAME":"永康區","LI":"尚頂里","LIN":"22鄰","STREET":"南台街","SECT":" ","MAREA":" ","LANE":"１３巷","ALLEY":"３８弄","HOUSE_NO":"２號","E_COORD97":170368.67999999999,"N_COORD97":2546864.75,"ADDRESS":"南台街１３巷３８弄２號","OBJECTID":142957},"geometry":{"x":170368.68000000063,"y":2546864.7500000019}},{"attributes":{"ID":142958,"DIS_CODE":0,"TOWNNAME":"佳里區","LI":"海澄里","LIN":"1鄰","STREET":" ","SECT":" ","MAREA":"萊竿寮","LANE":" ","ALLEY":" ","HOUSE_NO":"１號之８","E_COORD97":165631.78,"N_COORD97":2564207.3199999998,"ADDRESS":"萊竿寮１號之８","OBJECTID":142958},"geometry":{"x":165631.78000000119,"y":2564207.3200000003}},{"attributes":{"ID":142959,"DIS_CODE":0,"TOWNNAME":"南區","LI":"大忠里","LIN":"15鄰","STREET":"公英六街","SECT":" ","MAREA":" ","LANE":" ","ALLEY":" ","HOUSE_NO":"１５號","E_COORD97":169401.32999999999,"N_COORD97":2541087.3500000001,"ADDRESS":"公英六街１５號","OBJECTID":142959},"geometry":{"x":169401.33000000101,"y":2541087.3499999996}},{"attributes":{"ID":142960,"DIS_CODE":0,"TOWNNAME":"學甲區","LI":"仁得里","LIN":"1鄰","STREET":"公館路","SECT":" ","MAREA":" ","LANE":" ","ALLEY":" ","HOUSE_NO":"１４５號","E_COORD97":166152.64999999999,"N_COORD97":2569897.0499999998,"ADDRESS":"公館路１４５號","OBJECTID":142960},"geometry":{"x":166152.65000000037,"y":2569897.0500000026}},{"attributes":{"ID":142961,"DIS_CODE":0,"TOWNNAME":"麻豆區","LI":"南勢里","LIN":"1鄰","STREET":" ","SECT":" ","MAREA":"\u25A0帝\u25A0","LANE":" ","ALLEY":" ","HOUSE_NO":"３號之８","E_COORD97":173537.60000000001,"N_COORD97":2565885.6800000002,"ADDRESS":"\u25A0帝\u25A0３號之８","OBJECTID":142961},"geometry":{"x":173537.60000000056,"y":2565885.6799999997}},{"attributes":{"ID":142962,"DIS_CODE":0,"TOWNNAME":"佳里區","LI":"海澄里","LIN":"1鄰","STREET":" ","SECT":" ","MAREA":"萊竿寮","LANE":" ","ALLEY":" ","HOUSE_NO":"５號之２","E_COORD97":165416.51000000001,"N_COORD97":2564365.5699999998,"ADDRESS":"萊竿寮５號之２","OBJECTID":142962},"geometry":{"x":165416.51000000071,"y":2564365.5700000003}},{"attributes":{"ID":142963,"DIS_CODE":0,"TOWNNAME":"佳里區","LI":"海澄里","LIN":"1鄰","STREET":" ","SECT":" ","MAREA":"萊竿寮","LANE":" ","ALLEY":" ","HOUSE_NO":"５號","E_COORD97":165421,"N_COORD97":2564439.2999999998,"ADDRESS":"萊竿寮５號","OBJECTID":142963},"geometry":{"x":165421,"y":2564439.3000000007}},{"attributes":{"ID":142964,"DIS_CODE":0,"TOWNNAME":"佳里區","LI":"海澄里","LIN":"1鄰","STREET":" ","SECT":" ","MAREA":"萊竿寮","LANE":" ","ALLEY":" ","HOUSE_NO":"７號","E_COORD97":165424.10999999999,"N_COORD97":2564455.1000000001,"ADDRESS":"萊竿寮７號","OBJECTID":142964},"geometry":{"x":165424.11000000034,"y":2564455.1000000015}},{"attributes":{"ID":142965,"DIS_CODE":0,"TOWNNAME":"佳里區","LI":"海澄里","LIN":"1鄰","STREET":" ","SECT":" ","MAREA":"萊竿寮","LANE":" ","ALLEY":" ","HOUSE_NO":"８號之１","E_COORD97":165419.98999999999,"N_COORD97":2564482.6000000001,"ADDRESS":"萊竿寮８號之１","OBJECTID":142965},"geometry":{"x":165419.99000000209,"y":2564482.5999999996}},{"attributes":{"ID":142966,"DIS_CODE":0,"TOWNNAME":"永康區","LI":"永康里","LIN":"22鄰","STREET":"中山南路","SECT":" ","MAREA":" ","LANE":"４７１巷","ALLEY":"３８弄","HOUSE_NO":"５號","E_COORD97":173185.59,"N_COORD97":2547131.25,"ADDRESS":"中山南路４７１巷３８弄５號","OBJECTID":142966},"geometry":{"x":173185.58999999985,"y":2547131.25}},{"attributes":{"ID":142967,"DIS_CODE":0,"TOWNNAME":"佳里區","LI":"海澄里","LIN":"1鄰","STREET":" ","SECT":" ","MAREA":"萊竿寮","LANE":" ","ALLEY":" ","HOUSE_NO":"８號之２","E_COORD97":165420.85000000001,"N_COORD97":2564477.4399999999,"ADDRESS":"萊竿寮８號之２","OBJECTID":142967},"geometry":{"x":165420.85000000056,"y":2564477.4399999995}},{"attributes":{"ID":142968,"DIS_CODE":0,"TOWNNAME":"佳里區","LI":"海澄里","LIN":"1鄰","STREET":" ","SECT":" ","MAREA":"萊竿寮","LANE":" ","ALLEY":" ","HOUSE_NO":"８號","E_COORD97":165421.48999999999,"N_COORD97":2564491.5499999998,"ADDRESS":"萊竿寮８號","OBJECTID":142968},"geometry":{"x":165421.49000000022,"y":2564491.5500000007}},{"attributes":{"ID":142969,"DIS_CODE":0,"TOWNNAME":"佳里區","LI":"海澄里","LIN":"1鄰","STREET":" ","SECT":" ","MAREA":"萊竿寮","LANE":" ","ALLEY":" ","HOUSE_NO":"９號之１","E_COORD97":165435.39999999999,"N_COORD97":2564505.9900000002,"ADDRESS":"萊竿寮９號之１","OBJECTID":142969},"geometry":{"x":165435.40000000037,"y":2564505.9900000039}},{"attributes":{"ID":142970,"DIS_CODE":0,"TOWNNAME":"佳里區","LI":"海澄里","LIN":"1鄰","STREET":" ","SECT":" ","MAREA":"萊竿寮","LANE":" ","ALLEY":" ","HOUSE_NO":"９號之２","E_COORD97":165418.12,"N_COORD97":2564505.7000000002,"ADDRESS":"萊竿寮９號之２","OBJECTID":142970},"geometry":{"x":165418.12000000011,"y":2564505.6999999993}},{"attributes":{"ID":142971,"DIS_CODE":0,"TOWNNAME":"佳里區","LI":"海澄里","LIN":"1鄰","STREET":" ","SECT":" ","MAREA":"萊竿寮","LANE":" ","ALLEY":" ","HOUSE_NO":"９號","E_COORD97":165456.10999999999,"N_COORD97":2564507.6499999999,"ADDRESS":"萊竿寮９號","OBJECTID":142971},"geometry":{"x":165456.11000000034,"y":2564507.6500000004}},{"attributes":{"ID":142972,"DIS_CODE":0,"TOWNNAME":"後壁區","LI":"後部里","LIN":"1鄰","STREET":" ","SECT":" ","MAREA":"後部","LANE":" ","ALLEY":" ","HOUSE_NO":"６號","E_COORD97":182148.70999999999,"N_COORD97":2586756.2400000002,"ADDRESS":"後部６號","OBJECTID":142972},"geometry":{"x":182148.71000000089,"y":2586756.2400000021}},{"attributes":{"ID":142973,"DIS_CODE":0,"TOWNNAME":"麻豆區","LI":"大山里","LIN":"1鄰","STREET":" ","SECT":" ","MAREA":"大山\u25A0","LANE":" ","ALLEY":" ","HOUSE_NO":"１０號之１０","E_COORD97":170302.06,"N_COORD97":2565850.4500000002,"ADDRESS":"大山\u25A0１０號之１０","OBJECTID":142973},"geometry":{"x":170302.05999999959,"y":2565850.4499999993}},{"attributes":{"ID":142974,"DIS_CODE":0,"TOWNNAME":"麻豆區","LI":"北勢里","LIN":"1鄰","STREET":" ","SECT":" ","MAREA":"加輦邦","LANE":" ","ALLEY":" ","HOUSE_NO":"８之１５號","E_COORD97":173531.81,"N_COORD97":2566309.8900000001,"ADDRESS":"加輦邦８之１５號","OBJECTID":142974},"geometry":{"x":173531.80999999959,"y":2566309.8900000006}},{"attributes":{"ID":142975,"DIS_CODE":0,"TOWNNAME":"佳里區","LI":"嘉福里","LIN":"1鄰","STREET":" ","SECT":" ","MAREA":"下營","LANE":" ","ALLEY":" ","HOUSE_NO":"１０號之１","E_COORD97":163053.82999999999,"N_COORD97":2563634.5,"ADDRESS":"下營１０號之１","OBJECTID":142975},"geometry":{"x":163053.83000000007,"y":2563634.5000000019}},{"attributes":{"ID":142976,"DIS_CODE":0,"TOWNNAME":"佳里區","LI":"嘉福里","LIN":"1鄰","STREET":" ","SECT":" ","MAREA":"下營","LANE":" ","ALLEY":" ","HOUSE_NO":"１０號之２","E_COORD97":163058.95999999999,"N_COORD97":2563634.9100000001,"ADDRESS":"下營１０號之２","OBJECTID":142976},"geometry":{"x":163058.96000000089,"y":2563634.9100000039}},{"attributes":{"ID":142977,"DIS_CODE":0,"TOWNNAME":"佳里區","LI":"嘉福里","LIN":"1鄰","STREET":" ","SECT":" ","MAREA":"下營","LANE":" ","ALLEY":" ","HOUSE_NO":"１０號之４","E_COORD97":163043.91,"N_COORD97":2563633.3500000001,"ADDRESS":"下營１０號之４","OBJECTID":142977},"geometry":{"x":163043.91000000108,"y":2563633.3499999996}},{"attributes":{"ID":142978,"DIS_CODE":0,"TOWNNAME":"佳里區","LI":"嘉福里","LIN":"1鄰","STREET":" ","SECT":" ","MAREA":"下營","LANE":" ","ALLEY":" ","HOUSE_NO":"１０號之５","E_COORD97":163040.12,"N_COORD97":2563632.9100000001,"ADDRESS":"下營１０號之５","OBJECTID":142978},"geometry":{"x":163040.12000000011,"y":2563632.910000002}},{"attributes":{"ID":142979,"DIS_CODE":0,"TOWNNAME":"新市區","LI":"大社里","LIN":" ","STREET":" ","SECT":" ","MAREA":"大社","LANE":" ","ALLEY":" ","HOUSE_NO":"５２２號","E_COORD97":179881.48999999999,"N_COORD97":2554789,"ADDRESS":"大社５２２號","OBJECTID":142979},"geometry":{"x":179881.48999999929,"y":2554789.0000000019}},{"attributes":{"ID":142980,"DIS_CODE":0,"TOWNNAME":"仁德區","LI":"仁愛里","LIN":"16鄰","STREET":" ","SECT":" ","MAREA":"仁愛","LANE":" ","ALLEY":" ","HOUSE_NO":"３１６號","E_COORD97":170205.138626,"N_COORD97":2539958.02,"ADDRESS":"仁愛３１６號","OBJECTID":142980},"geometry":{"x":170205.13862600084,"y":2539958.0199999996}},{"attributes":{"ID":142981,"DIS_CODE":0,"TOWNNAME":"佳里區","LI":"嘉福里","LIN":"1鄰","STREET":" ","SECT":" ","MAREA":"下營","LANE":" ","ALLEY":" ","HOUSE_NO":"１０號之６","E_COORD97":163035.92999999999,"N_COORD97":2563632.52,"ADDRESS":"下營１０號之６","OBJECTID":142981},"geometry":{"x":163035.9299999997,"y":2563632.5199999996}},{"attributes":{"ID":142982,"DIS_CODE":0,"TOWNNAME":"佳里區","LI":"嘉福里","LIN":"1鄰","STREET":" ","SECT":" ","MAREA":"下營","LANE":" ","ALLEY":" ","HOUSE_NO":"１０號之７","E_COORD97":163031.82000000001,"N_COORD97":2563631.9900000002,"ADDRESS":"下營１０號之７","OBJECTID":142982},"geometry":{"x":163031.8200000003,"y":2563631.9900000021}},{"attributes":{"ID":142983,"DIS_CODE":0,"TOWNNAME":"佳里區","LI":"嘉福里","LIN":"1鄰","STREET":" ","SECT":" ","MAREA":"下營","LANE":" ","ALLEY":" ","HOUSE_NO":"１０號","E_COORD97":163043.28,"N_COORD97":2563616.4300000002,"ADDRESS":"下營１０號","OBJECTID":142983},"geometry":{"x":163043.28000000119,"y":2563616.4299999997}},{"attributes":{"ID":142984,"DIS_CODE":0,"TOWNNAME":"佳里區","LI":"嘉福里","LIN":"1鄰","STREET":" ","SECT":" ","MAREA":"下營","LANE":" ","ALLEY":" ","HOUSE_NO":"１１號","E_COORD97":163012.85999999999,"N_COORD97":2563576.6400000001,"ADDRESS":"下營１１號","OBJECTID":142984},"geometry":{"x":163012.86000000127,"y":2563576.6400000025}},{"attributes":{"ID":142985,"DIS_CODE":0,"TOWNNAME":"佳里區","LI":"嘉福里","LIN":"1鄰","STREET":" ","SECT":" ","MAREA":"下營","LANE":" ","ALLEY":" ","HOUSE_NO":"１２號","E_COORD97":163046.14999999999,"N_COORD97":2563586.5800000001,"ADDRESS":"下營１２號","OBJECTID":142985},"geometry":{"x":163046.1500000013,"y":2563586.5800000019}},{"attributes":{"ID":142986,"DIS_CODE":0,"TOWNNAME":"佳里區","LI":"嘉福里","LIN":"1鄰","STREET":" ","SECT":" ","MAREA":"下營","LANE":" ","ALLEY":" ","HOUSE_NO":"１號之１","E_COORD97":163042.89999999999,"N_COORD97":2563688.7200000002,"ADDRESS":"下營１號之１","OBJECTID":142986},"geometry":{"x":163042.9000000013,"y":2563688.7200000025}},{"attributes":{"ID":142987,"DIS_CODE":0,"TOWNNAME":"佳里區","LI":"嘉福里","LIN":"1鄰","STREET":" ","SECT":" ","MAREA":"下營","LANE":" ","ALLEY":" ","HOUSE_NO":"１號","E_COORD97":163030.14999999999,"N_COORD97":2563687.1499999999,"ADDRESS":"下營１號","OBJECTID":142987},"geometry":{"x":163030.15000000037,"y":2563687.1500000004}},{"attributes":{"ID":142988,"DIS_CODE":0,"TOWNNAME":"佳里區","LI":"嘉福里","LIN":"1鄰","STREET":" ","SECT":" ","MAREA":"下營","LANE":" ","ALLEY":" ","HOUSE_NO":"３號之２","E_COORD97":163031.84,"N_COORD97":2563662.73,"ADDRESS":"下營３號之２","OBJECTID":142988},"geometry":{"x":163031.83999999985,"y":2563662.7300000004}},{"attributes":{"ID":142989,"DIS_CODE":0,"TOWNNAME":"佳里區","LI":"嘉福里","LIN":"1鄰","STREET":" ","SECT":" ","MAREA":"下營","LANE":" ","ALLEY":" ","HOUSE_NO":"３號之３","E_COORD97":163018.98999999999,"N_COORD97":2563671.5,"ADDRESS":"下營３號之３","OBJECTID":142989},"geometry":{"x":163018.99000000022,"y":2563671.5000000037}},{"attributes":{"ID":142990,"DIS_CODE":0,"TOWNNAME":"佳里區","LI":"嘉福里","LIN":"1鄰","STREET":" ","SECT":" ","MAREA":"下營","LANE":" ","ALLEY":" ","HOUSE_NO":"３號","E_COORD97":163032.35999999999,"N_COORD97":2563678.52,"ADDRESS":"下營３號","OBJECTID":142990},"geometry":{"x":163032.3600000022,"y":2563678.5200000014}},{"attributes":{"ID":142991,"DIS_CODE":0,"TOWNNAME":"佳里區","LI":"嘉福里","LIN":"1鄰","STREET":" ","SECT":" ","MAREA":"下營","LANE":" ","ALLEY":" ","HOUSE_NO":"４號之１","E_COORD97":163016.31,"N_COORD97":2563676.7799999998,"ADDRESS":"下營４號之１","OBJECTID":142991},"geometry":{"x":163016.30999999959,"y":2563676.7800000012}},{"attributes":{"ID":142992,"DIS_CODE":0,"TOWNNAME":"佳里區","LI":"嘉福里","LIN":"1鄰","STREET":" ","SECT":" ","MAREA":"下營","LANE":" ","ALLEY":" ","HOUSE_NO":"４號之２","E_COORD97":163003.28,"N_COORD97":2563685.3599999999,"ADDRESS":"下營４號之２","OBJECTID":142992},"geometry":{"x":163003.28000000026,"y":2563685.3600000031}},{"attributes":{"ID":142993,"DIS_CODE":0,"TOWNNAME":"佳里區","LI":"嘉福里","LIN":"1鄰","STREET":" ","SECT":" ","MAREA":"下營","LANE":" ","ALLEY":" ","HOUSE_NO":"４號之５","E_COORD97":163015.09,"N_COORD97":2563688.0099999998,"ADDRESS":"下營４號之５","OBJECTID":142993},"geometry":{"x":163015.09000000171,"y":2563688.0100000035}},{"attributes":{"ID":142994,"DIS_CODE":0,"TOWNNAME":"佳里區","LI":"嘉福里","LIN":"1鄰","STREET":" ","SECT":" ","MAREA":"下營","LANE":" ","ALLEY":" ","HOUSE_NO":"４號","E_COORD97":163020.75,"N_COORD97":2563664.7799999998,"ADDRESS":"下營４號","OBJECTID":142994},"geometry":{"x":163020.75,"y":2563664.7799999993}},{"attributes":{"ID":142995,"DIS_CODE":0,"TOWNNAME":"仁德區","LI":"仁愛里","LIN":"28鄰","STREET":"大同路","SECT":"三段","MAREA":" ","LANE":"３５８巷","ALLEY":" ","HOUSE_NO":"５８號","E_COORD97":169717.65700000001,"N_COORD97":2539419.4270000001,"ADDRESS":"大同路三段３５８巷５８號","OBJECTID":142995},"geometry":{"x":169717.65700000059,"y":2539419.4270000029}},{"attributes":{"ID":142996,"DIS_CODE":0,"TOWNNAME":"佳里區","LI":"嘉福里","LIN":"1鄰","STREET":" ","SECT":" ","MAREA":"下營","LANE":" ","ALLEY":" ","HOUSE_NO":"５號","E_COORD97":163021.06,"N_COORD97":2563657.3199999998,"ADDRESS":"下營５號","OBJECTID":142996},"geometry":{"x":163021.05999999959,"y":2563657.3200000022}},{"attributes":{"ID":142997,"DIS_CODE":0,"TOWNNAME":"佳里區","LI":"嘉福里","LIN":"1鄰","STREET":" ","SECT":" ","MAREA":"下營","LANE":" ","ALLEY":" ","HOUSE_NO":"６號","E_COORD97":163021.39999999999,"N_COORD97":2563650.7400000002,"ADDRESS":"下營６號","OBJECTID":142997},"geometry":{"x":163021.40000000037,"y":2563650.7400000021}},{"attributes":{"ID":142998,"DIS_CODE":0,"TOWNNAME":"佳里區","LI":"嘉福里","LIN":"1鄰","STREET":" ","SECT":" ","MAREA":"下營","LANE":" ","ALLEY":" ","HOUSE_NO":"７號之１","E_COORD97":163019.44,"N_COORD97":2563627.5899999999,"ADDRESS":"下營７號之１","OBJECTID":142998},"geometry":{"x":163019.44000000041,"y":2563627.5900000017}},{"attributes":{"ID":142999,"DIS_CODE":0,"TOWNNAME":"佳里區","LI":"嘉福里","LIN":"1鄰","STREET":" ","SECT":" ","MAREA":"下營","LANE":" ","ALLEY":" ","HOUSE_NO":"７號之３","E_COORD97":162998.89999999999,"N_COORD97":2563624.3700000001,"ADDRESS":"下營７號之３","OBJECTID":142999},"geometry":{"x":162998.9000000013,"y":2563624.370000001}},{"attributes":{"ID":143000,"DIS_CODE":0,"TOWNNAME":"新市區","LI":"大社里","LIN":" ","STREET":" ","SECT":" ","MAREA":"大社","LANE":" ","ALLEY":" ","HOUSE_NO":"９７４之１號","E_COORD97":180155.01999999999,"N_COORD97":2553995.7999999998,"ADDRESS":"大社９７４之１號","OBJECTID":143000},"geometry":{"x":180155.01999999955,"y":2553995.8000000007}}]}