{"displayFieldName":"TOWNNAME","fieldAliases":{"ID":"ID","DIS_CODE":"DIS_CODE","TOWNNAME":"TOWNNAME","LI":"LI","LIN":"LIN","STREET":"STREET","SECT":"SECT","MAREA":"MAREA","LANE":"LANE","ALLEY":"ALLEY","HOUSE_NO":"HOUSE_NO","E_COORD97":"E_COORD97","N_COORD97":"N_COORD97","ADDRESS":"ADDRESS","OBJECTID":"OBJECTID"},"geometryType":"esriGeometryPoint","spatialReference":{"wkid":102443,"latestWkid":3826},"fields":[{"name":"ID","type":"esriFieldTypeDouble","alias":"ID"},{"name":"DIS_CODE","type":"esriFieldTypeInteger","alias":"DIS_CODE"},{"name":"TOWNNAME","type":"esriFieldTypeString","alias":"TOWNNAME","length":8},{"name":"LI","type":"esriFieldTypeString","alias":"LI","length":8},{"name":"LIN","type":"esriFieldTypeString","alias":"LIN","length":12},{"name":"STREET","type":"esriFieldTypeString","alias":"STREET","length":20},{"name":"SECT","type":"esriFieldTypeString","alias":"SECT","length":8},{"name":"MAREA","type":"esriFieldTypeString","alias":"MAREA","length":12},{"name":"LANE","type":"esriFieldTypeString","alias":"LANE","length":10},{"name":"ALLEY","type":"esriFieldTypeString","alias":"ALLEY","length":10},{"name":"HOUSE_NO","type":"esriFieldTypeString","alias":"HOUSE_NO","length":20},{"name":"E_COORD97","type":"esriFieldTypeDouble","alias":"E_COORD97"},{"name":"N_COORD97","type":"esriFieldTypeDouble","alias":"N_COORD97"},{"name":"ADDRESS","type":"esriFieldTypeString","alias":"ADDRESS","length":50},{"name":"OBJECTID","type":"esriFieldTypeOID","alias":"OBJECTID"}],"features":[{"attributes":{"ID":648428,"DIS_CODE":0,"TOWNNAME":"中西區","LI":"民權里","LIN":"13鄰","STREET":"海安路","SECT":"二段","MAREA":" ","LANE":"２５９巷","ALLEY":" ","HOUSE_NO":"７號","E_COORD97":167720.574039,"N_COORD97":2544278.4828300001,"ADDRESS":"海安路二段２５９巷７號","OBJECTID":648401},"geometry":{"x":167720.57403900102,"y":2544278.4828299992}},{"attributes":{"ID":648429,"DIS_CODE":0,"TOWNNAME":"中西區","LI":"民權里","LIN":"16鄰","STREET":"海安路","SECT":"二段","MAREA":" ","LANE":"２５９巷","ALLEY":" ","HOUSE_NO":"４１號","E_COORD97":167638.000111,"N_COORD97":2544303.2478200002,"ADDRESS":"海安路二段２５９巷４１號","OBJECTID":648402},"geometry":{"x":167638.00011099875,"y":2544303.2478170041}},{"attributes":{"ID":648430,"DIS_CODE":0,"TOWNNAME":"中西區","LI":"民權里","LIN":"16鄰","STREET":"海安路","SECT":"二段","MAREA":" ","LANE":"２５９巷","ALLEY":" ","HOUSE_NO":"４５號","E_COORD97":167641.17603100001,"N_COORD97":2544308.3278100002,"ADDRESS":"海安路二段２５９巷４５號","OBJECTID":648403},"geometry":{"x":167641.17603100091,"y":2544308.3278140035}},{"attributes":{"ID":648431,"DIS_CODE":0,"TOWNNAME":"中西區","LI":"民權里","LIN":"16鄰","STREET":"海安路","SECT":"二段","MAREA":" ","LANE":"２５９巷","ALLEY":" ","HOUSE_NO":"８號","E_COORD97":167721.20922300001,"N_COORD97":2544283.7744900002,"ADDRESS":"海安路二段２５９巷８號","OBJECTID":648404},"geometry":{"x":167721.20922300033,"y":2544283.7744939998}},{"attributes":{"ID":648432,"DIS_CODE":0,"TOWNNAME":"中西區","LI":"民權里","LIN":"16鄰","STREET":"海安路","SECT":"二段","MAREA":" ","LANE":"２５９巷","ALLEY":" ","HOUSE_NO":"１２號","E_COORD97":167713.375287,"N_COORD97":2544288.00783,"ADDRESS":"海安路二段２５９巷１２號","OBJECTID":648405},"geometry":{"x":167713.37528700009,"y":2544288.0078250021}},{"attributes":{"ID":648433,"DIS_CODE":0,"TOWNNAME":"中西區","LI":"民權里","LIN":"16鄰","STREET":"海安路","SECT":"二段","MAREA":" ","LANE":"２５９巷","ALLEY":" ","HOUSE_NO":"１６號","E_COORD97":167709.14072600001,"N_COORD97":2544290.9711600002,"ADDRESS":"海安路二段２５９巷１６號","OBJECTID":648406},"geometry":{"x":167709.14072600007,"y":2544290.9711569995}},{"attributes":{"ID":648434,"DIS_CODE":0,"TOWNNAME":"中西區","LI":"民權里","LIN":"13鄰","STREET":"海安路","SECT":"二段","MAREA":" ","LANE":"２５９巷","ALLEY":" ","HOUSE_NO":"１１號","E_COORD97":167712.52837399999,"N_COORD97":2544281.8695,"ADDRESS":"海安路二段２５９巷１１號","OBJECTID":648407},"geometry":{"x":167712.52837400045,"y":2544281.8694949988}},{"attributes":{"ID":648435,"DIS_CODE":0,"TOWNNAME":"中西區","LI":"民權里","LIN":"13鄰","STREET":"海安路","SECT":"二段","MAREA":" ","LANE":"２５９巷","ALLEY":" ","HOUSE_NO":"１１號之１","E_COORD97":167709.564182,"N_COORD97":2544274.6728300001,"ADDRESS":"海安路二段２５９巷１１號之１","OBJECTID":648408},"geometry":{"x":167709.56418200023,"y":2544274.6728320047}},{"attributes":{"ID":648436,"DIS_CODE":0,"TOWNNAME":"中西區","LI":"民權里","LIN":"16鄰","STREET":"海安路","SECT":"二段","MAREA":" ","LANE":"２６９巷","ALLEY":" ","HOUSE_NO":"１號","E_COORD97":167723.326504,"N_COORD97":2544288.21949,"ADDRESS":"海安路二段２６９巷１號","OBJECTID":648409},"geometry":{"x":167723.32650399953,"y":2544288.2194920033}},{"attributes":{"ID":648437,"DIS_CODE":0,"TOWNNAME":"中西區","LI":"民權里","LIN":"16鄰","STREET":"海安路","SECT":"二段","MAREA":" ","LANE":"２６９巷","ALLEY":" ","HOUSE_NO":"２號","E_COORD97":167722.26786299999,"N_COORD97":2544288.21949,"ADDRESS":"海安路二段２６９巷２號","OBJECTID":648410},"geometry":{"x":167722.26786300074,"y":2544288.2194920033}},{"attributes":{"ID":648438,"DIS_CODE":0,"TOWNNAME":"中西區","LI":"民權里","LIN":"16鄰","STREET":"海安路","SECT":"二段","MAREA":" ","LANE":"２６９巷","ALLEY":" ","HOUSE_NO":"１０號","E_COORD97":167707.446902,"N_COORD97":2544305.15282,"ADDRESS":"海安路二段２６９巷１０號","OBJECTID":648411},"geometry":{"x":167707.44690200035,"y":2544305.1528159995}},{"attributes":{"ID":648439,"DIS_CODE":0,"TOWNNAME":"中西區","LI":"民權里","LIN":"16鄰","STREET":"海安路","SECT":"二段","MAREA":" ","LANE":"２６９巷","ALLEY":" ","HOUSE_NO":"１２號","E_COORD97":167700.88333300001,"N_COORD97":2544308.3278100002,"ADDRESS":"海安路二段２６９巷１２號","OBJECTID":648412},"geometry":{"x":167700.88333300129,"y":2544308.3278140035}},{"attributes":{"ID":648440,"DIS_CODE":0,"TOWNNAME":"中西區","LI":"民權里","LIN":"16鄰","STREET":"海安路","SECT":"二段","MAREA":" ","LANE":"２６９巷","ALLEY":" ","HOUSE_NO":"１４號","E_COORD97":167694.95494900001,"N_COORD97":2544310.4444800001,"ADDRESS":"海安路二段２６９巷１４號","OBJECTID":648413},"geometry":{"x":167694.95494900085,"y":2544310.4444799982}},{"attributes":{"ID":648441,"DIS_CODE":0,"TOWNNAME":"中西區","LI":"民權里","LIN":"16鄰","STREET":"海安路","SECT":"二段","MAREA":" ","LANE":"２６９巷","ALLEY":" ","HOUSE_NO":"２５號","E_COORD97":167659.59636900001,"N_COORD97":2544328.2244699998,"ADDRESS":"海安路二段２６９巷２５號","OBJECTID":648414},"geometry":{"x":167659.59636900201,"y":2544328.2244700007}},{"attributes":{"ID":648442,"DIS_CODE":0,"TOWNNAME":"中西區","LI":"民權里","LIN":"16鄰","STREET":"海安路","SECT":"二段","MAREA":" ","LANE":"２６９巷","ALLEY":" ","HOUSE_NO":"２４號","E_COORD97":167662.56056099999,"N_COORD97":2544326.31947,"ADDRESS":"海安路二段２６９巷２４號","OBJECTID":648415},"geometry":{"x":167662.5605610013,"y":2544326.3194710016}},{"attributes":{"ID":648443,"DIS_CODE":0,"TOWNNAME":"中西區","LI":"民權里","LIN":"16鄰","STREET":"海安路","SECT":"二段","MAREA":" ","LANE":"２６９巷","ALLEY":" ","HOUSE_NO":"２３號","E_COORD97":167666.159938,"N_COORD97":2544324.6261399998,"ADDRESS":"海安路二段２６９巷２３號","OBJECTID":648416},"geometry":{"x":167666.15993800014,"y":2544324.6261390019}},{"attributes":{"ID":648444,"DIS_CODE":0,"TOWNNAME":"中西區","LI":"民權里","LIN":"16鄰","STREET":"海安路","SECT":"二段","MAREA":" ","LANE":"２６９巷","ALLEY":" ","HOUSE_NO":"９號","E_COORD97":167714.43392700001,"N_COORD97":2544301.9778200001,"ADDRESS":"海安路二段２６９巷９號","OBJECTID":648417},"geometry":{"x":167714.43392699957,"y":2544301.977816999}},{"attributes":{"ID":648445,"DIS_CODE":0,"TOWNNAME":"中西區","LI":"民權里","LIN":"9鄰","STREET":"民權路","SECT":"三段","MAREA":" ","LANE":" ","ALLEY":" ","HOUSE_NO":"１８１號","E_COORD97":167497.83616000001,"N_COORD97":2544231.9161899998,"ADDRESS":"民權路三段１８１號","OBJECTID":648418},"geometry":{"x":167497.83616000041,"y":2544231.916189}},{"attributes":{"ID":648446,"DIS_CODE":0,"TOWNNAME":"中西區","LI":"民權里","LIN":"7鄰","STREET":"和平街","SECT":" ","MAREA":" ","LANE":"１１８巷","ALLEY":" ","HOUSE_NO":"２號","E_COORD97":167461.630668,"N_COORD97":2544167.3578900001,"ADDRESS":"和平街１１８巷２號","OBJECTID":648419},"geometry":{"x":167461.63066800032,"y":2544167.3578900006}},{"attributes":{"ID":648447,"DIS_CODE":0,"TOWNNAME":"中西區","LI":"民權里","LIN":"7鄰","STREET":"康樂街","SECT":" ","MAREA":" ","LANE":" ","ALLEY":" ","HOUSE_NO":"２８９號","E_COORD97":167548.862613,"N_COORD97":2544173.7078900002,"ADDRESS":"康樂街２８９號","OBJECTID":648420},"geometry":{"x":167548.86261300091,"y":2544173.7078869976}},{"attributes":{"ID":648448,"DIS_CODE":0,"TOWNNAME":"中西區","LI":"民權里","LIN":"7鄰","STREET":"康樂街","SECT":" ","MAREA":" ","LANE":" ","ALLEY":" ","HOUSE_NO":"２９１號","E_COORD97":167551.403349,"N_COORD97":2544180.69288,"ADDRESS":"康樂街２９１號","OBJECTID":648421},"geometry":{"x":167551.40334900096,"y":2544180.6928830016}},{"attributes":{"ID":648449,"DIS_CODE":0,"TOWNNAME":"新市區","LI":"豐華里","LIN":"5鄰","STREET":" ","SECT":" ","MAREA":"豐華","LANE":" ","ALLEY":" ","HOUSE_NO":"３７之６號","E_COORD97":173721.820462,"N_COORD97":2554293.25147,"ADDRESS":"豐華３７之６號","OBJECTID":648422},"geometry":{"x":173721.82046199962,"y":2554293.251472}},{"attributes":{"ID":648450,"DIS_CODE":0,"TOWNNAME":"新市區","LI":"豐華里","LIN":"5鄰","STREET":" ","SECT":" ","MAREA":"豐華","LANE":" ","ALLEY":" ","HOUSE_NO":"３８之６號","E_COORD97":173443.63854000001,"N_COORD97":2554448.61472,"ADDRESS":"豐華３８之６號","OBJECTID":648423},"geometry":{"x":173443.63854000159,"y":2554448.6147210039}},{"attributes":{"ID":648451,"DIS_CODE":0,"TOWNNAME":"新市區","LI":"豐華里","LIN":"5鄰","STREET":" ","SECT":" ","MAREA":"豐華","LANE":" ","ALLEY":" ","HOUSE_NO":"３９之６號","E_COORD97":173762.49900700001,"N_COORD97":2554391.1472499999,"ADDRESS":"豐華３９之６號","OBJECTID":648424},"geometry":{"x":173762.49900700059,"y":2554391.1472520009}},{"attributes":{"ID":648452,"DIS_CODE":0,"TOWNNAME":"新市區","LI":"豐華里","LIN":"5鄰","STREET":" ","SECT":" ","MAREA":"豐華","LANE":" ","ALLEY":" ","HOUSE_NO":"４６之９號","E_COORD97":173892.79746999999,"N_COORD97":2554373.0497599998,"ADDRESS":"豐華４６之９號","OBJECTID":648425},"geometry":{"x":173892.79747000057,"y":2554373.0497620031}},{"attributes":{"ID":648453,"DIS_CODE":0,"TOWNNAME":"新市區","LI":"豐華里","LIN":"6鄰","STREET":" ","SECT":" ","MAREA":"豐華","LANE":" ","ALLEY":" ","HOUSE_NO":"５３之８號","E_COORD97":175084.763573,"N_COORD97":2554484.91554,"ADDRESS":"豐華５３之８號","OBJECTID":648426},"geometry":{"x":175084.76357300207,"y":2554484.9155350029}},{"attributes":{"ID":648454,"DIS_CODE":0,"TOWNNAME":"新市區","LI":"豐華里","LIN":"7鄰","STREET":" ","SECT":" ","MAREA":"豐華","LANE":" ","ALLEY":" ","HOUSE_NO":"６５之１９號","E_COORD97":175457.22649599999,"N_COORD97":2554284.57314,"ADDRESS":"豐華６５之１９號","OBJECTID":648427},"geometry":{"x":175457.22649599984,"y":2554284.5731430035}},{"attributes":{"ID":648455,"DIS_CODE":0,"TOWNNAME":"新市區","LI":"大營里","LIN":"6鄰","STREET":" ","SECT":" ","MAREA":"大營","LANE":" ","ALLEY":" ","HOUSE_NO":"１５３之７號","E_COORD97":179433.766095,"N_COORD97":2555252.6301199999,"ADDRESS":"大營１５３之７號","OBJECTID":648428},"geometry":{"x":179433.76609500125,"y":2555252.6301200017}},{"attributes":{"ID":648456,"DIS_CODE":0,"TOWNNAME":"新市區","LI":"大營里","LIN":"6鄰","STREET":" ","SECT":" ","MAREA":"大營","LANE":" ","ALLEY":" ","HOUSE_NO":"１２６之１號","E_COORD97":179635.252011,"N_COORD97":2555064.9877200001,"ADDRESS":"大營１２６之１號","OBJECTID":648429},"geometry":{"x":179635.25201100111,"y":2555064.9877220001}},{"attributes":{"ID":648457,"DIS_CODE":0,"TOWNNAME":"新市區","LI":"大營里","LIN":"6鄰","STREET":" ","SECT":" ","MAREA":"大營","LANE":" ","ALLEY":" ","HOUSE_NO":"１２６之２號","E_COORD97":179629.95532499999,"N_COORD97":2555062.23606,"ADDRESS":"大營１２６之２號","OBJECTID":648430},"geometry":{"x":179629.95532500092,"y":2555062.2360570021}},{"attributes":{"ID":648458,"DIS_CODE":0,"TOWNNAME":"新市區","LI":"大營里","LIN":"6鄰","STREET":" ","SECT":" ","MAREA":"大營","LANE":" ","ALLEY":" ","HOUSE_NO":"１２６之３號","E_COORD97":179626.565447,"N_COORD97":2555059.4843899999,"ADDRESS":"大營１２６之３號","OBJECTID":648431},"geometry":{"x":179626.56544700079,"y":2555059.484391002}},{"attributes":{"ID":648459,"DIS_CODE":0,"TOWNNAME":"新市區","LI":"大營里","LIN":"6鄰","STREET":" ","SECT":" ","MAREA":"大營","LANE":" ","ALLEY":" ","HOUSE_NO":"１２６之５號","E_COORD97":179622.328098,"N_COORD97":2555056.3093900001,"ADDRESS":"大營１２６之５號","OBJECTID":648432},"geometry":{"x":179622.32809800189,"y":2555056.3093930036}},{"attributes":{"ID":648460,"DIS_CODE":0,"TOWNNAME":"新市區","LI":"大營里","LIN":"6鄰","STREET":" ","SECT":" ","MAREA":"大營","LANE":" ","ALLEY":" ","HOUSE_NO":"１２６之６號","E_COORD97":179619.57382200001,"N_COORD97":2555051.4410600001,"ADDRESS":"大營１２６之６號","OBJECTID":648433},"geometry":{"x":179619.57382200193,"y":2555051.4410620015}},{"attributes":{"ID":648461,"DIS_CODE":0,"TOWNNAME":"新市區","LI":"大營里","LIN":"6鄰","STREET":" ","SECT":" ","MAREA":"大營","LANE":" ","ALLEY":" ","HOUSE_NO":"１２６之７號","E_COORD97":179614.91273899999,"N_COORD97":2555049.1127300002,"ADDRESS":"大營１２６之７號","OBJECTID":648434},"geometry":{"x":179614.91273900028,"y":2555049.112730002}},{"attributes":{"ID":648462,"DIS_CODE":0,"TOWNNAME":"新市區","LI":"大營里","LIN":"6鄰","STREET":" ","SECT":" ","MAREA":"大營","LANE":" ","ALLEY":" ","HOUSE_NO":"１２６之８號","E_COORD97":179612.37033000001,"N_COORD97":2555044.8794,"ADDRESS":"大營１２６之８號","OBJECTID":648435},"geometry":{"x":179612.37033000123,"y":2555044.8793989997}},{"attributes":{"ID":648463,"DIS_CODE":0,"TOWNNAME":"新市區","LI":"大營里","LIN":"6鄰","STREET":" ","SECT":" ","MAREA":"大營","LANE":" ","ALLEY":" ","HOUSE_NO":"１２６之９號","E_COORD97":179607.921114,"N_COORD97":2555041.28107,"ADDRESS":"大營１２６之９號","OBJECTID":648436},"geometry":{"x":179607.92111400049,"y":2555041.2810680028}},{"attributes":{"ID":648464,"DIS_CODE":0,"TOWNNAME":"新市區","LI":"大營里","LIN":"6鄰","STREET":" ","SECT":" ","MAREA":"大營","LANE":" ","ALLEY":" ","HOUSE_NO":"１２６之１０號","E_COORD97":179604.74310200001,"N_COORD97":2555037.8944000001,"ADDRESS":"大營１２６之１０號","OBJECTID":648437},"geometry":{"x":179604.74310200009,"y":2555037.8944030013}},{"attributes":{"ID":648465,"DIS_CODE":0,"TOWNNAME":"新市區","LI":"大營里","LIN":"6鄰","STREET":" ","SECT":" ","MAREA":"大營","LANE":" ","ALLEY":" ","HOUSE_NO":"１２６之１１號","E_COORD97":179601.565091,"N_COORD97":2555034.9310699999,"ADDRESS":"大營１２６之１１號","OBJECTID":648438},"geometry":{"x":179601.5650910018,"y":2555034.9310709983}},{"attributes":{"ID":648466,"DIS_CODE":0,"TOWNNAME":"新市區","LI":"大營里","LIN":"6鄰","STREET":" ","SECT":" ","MAREA":"大營","LANE":" ","ALLEY":" ","HOUSE_NO":"１２６之１２號","E_COORD97":179598.810815,"N_COORD97":2555031.1210699999,"ADDRESS":"大營１２６之１２號","OBJECTID":648439},"geometry":{"x":179598.81081500184,"y":2555031.1210730001}},{"attributes":{"ID":648467,"DIS_CODE":0,"TOWNNAME":"新市區","LI":"大營里","LIN":"6鄰","STREET":" ","SECT":" ","MAREA":"大營","LANE":" ","ALLEY":" ","HOUSE_NO":"１２６之１３號","E_COORD97":179633.768939,"N_COORD97":2555056.9443899998,"ADDRESS":"大營１２６之１３號","OBJECTID":648440},"geometry":{"x":179633.76893900149,"y":2555056.9443930034}},{"attributes":{"ID":648468,"DIS_CODE":0,"TOWNNAME":"新市區","LI":"大營里","LIN":"6鄰","STREET":" ","SECT":" ","MAREA":"大營","LANE":" ","ALLEY":" ","HOUSE_NO":"１２６之１５號","E_COORD97":179635.887613,"N_COORD97":2555052.9227300002,"ADDRESS":"大營１２６之１５號","OBJECTID":648441},"geometry":{"x":179635.88761300128,"y":2555052.9227280021}},{"attributes":{"ID":648469,"DIS_CODE":0,"TOWNNAME":"新市區","LI":"大營里","LIN":"6鄰","STREET":" ","SECT":" ","MAREA":"大營","LANE":" ","ALLEY":" ","HOUSE_NO":"１２６之１６號","E_COORD97":179638.006287,"N_COORD97":2555048.4777299999,"ADDRESS":"大營１２６之１６號","OBJECTID":648442},"geometry":{"x":179638.00628700107,"y":2555048.4777310025}},{"attributes":{"ID":648470,"DIS_CODE":0,"TOWNNAME":"新市區","LI":"大營里","LIN":"6鄰","STREET":" ","SECT":" ","MAREA":"大營","LANE":" ","ALLEY":" ","HOUSE_NO":"１２６之１７號","E_COORD97":179640.12496099999,"N_COORD97":2555044.6677299999,"ADDRESS":"大營１２６之１７號","OBJECTID":648443},"geometry":{"x":179640.12496100087,"y":2555044.6677330025}},{"attributes":{"ID":648471,"DIS_CODE":0,"TOWNNAME":"新市區","LI":"大營里","LIN":"6鄰","STREET":" ","SECT":" ","MAREA":"大營","LANE":" ","ALLEY":" ","HOUSE_NO":"１２６之１８號","E_COORD97":179632.285867,"N_COORD97":2555044.4560699998,"ADDRESS":"大營１２６之１８號","OBJECTID":648444},"geometry":{"x":179632.28586700093,"y":2555044.4560660012}},{"attributes":{"ID":648472,"DIS_CODE":0,"TOWNNAME":"新市區","LI":"大營里","LIN":"6鄰","STREET":" ","SECT":" ","MAREA":"大營","LANE":" ","ALLEY":" ","HOUSE_NO":"１２６之１９號","E_COORD97":179628.26038600001,"N_COORD97":2555042.1277299998,"ADDRESS":"大營１２６之１９號","OBJECTID":648445},"geometry":{"x":179628.26038600225,"y":2555042.1277339999}},{"attributes":{"ID":648473,"DIS_CODE":0,"TOWNNAME":"新市區","LI":"大營里","LIN":"6鄰","STREET":" ","SECT":" ","MAREA":"大營","LANE":" ","ALLEY":" ","HOUSE_NO":"１２６之２０號","E_COORD97":179624.23490499999,"N_COORD97":2555039.5877399999,"ADDRESS":"大營１２６之２０號","OBJECTID":648446},"geometry":{"x":179624.23490500078,"y":2555039.5877349991}},{"attributes":{"ID":648474,"DIS_CODE":0,"TOWNNAME":"新市區","LI":"大營里","LIN":"6鄰","STREET":" ","SECT":" ","MAREA":"大營","LANE":" ","ALLEY":" ","HOUSE_NO":"１２６之２１號","E_COORD97":179621.26876100001,"N_COORD97":2555036.8360700002,"ADDRESS":"大營１２６之２１號","OBJECTID":648447},"geometry":{"x":179621.2687610006,"y":2555036.836070003}},{"attributes":{"ID":648475,"DIS_CODE":0,"TOWNNAME":"新市區","LI":"大營里","LIN":"6鄰","STREET":" ","SECT":" ","MAREA":"大營","LANE":" ","ALLEY":" ","HOUSE_NO":"１２６之２２號","E_COORD97":179607.921114,"N_COORD97":2555031.7560700001,"ADDRESS":"大營１２６之２２號","OBJECTID":648448},"geometry":{"x":179607.92111400049,"y":2555031.7560729999}},{"attributes":{"ID":648476,"DIS_CODE":0,"TOWNNAME":"新市區","LI":"大營里","LIN":"6鄰","STREET":" ","SECT":" ","MAREA":"大營","LANE":" ","ALLEY":" ","HOUSE_NO":"１２６之２３號","E_COORD97":179610.03978799999,"N_COORD97":2555027.9460700001,"ADDRESS":"大營１２６之２３號","OBJECTID":648449},"geometry":{"x":179610.03978800122,"y":2555027.9460749999}},{"attributes":{"ID":648477,"DIS_CODE":0,"TOWNNAME":"新市區","LI":"大營里","LIN":"6鄰","STREET":" ","SECT":" ","MAREA":"大營","LANE":" ","ALLEY":" ","HOUSE_NO":"１２６之２５號","E_COORD97":179612.37033000001,"N_COORD97":2555023.92441,"ADDRESS":"大營１２６之２５號","OBJECTID":648450},"geometry":{"x":179612.37033000123,"y":2555023.9244110044}},{"attributes":{"ID":648478,"DIS_CODE":0,"TOWNNAME":"新市區","LI":"大營里","LIN":"6鄰","STREET":" ","SECT":" ","MAREA":"大營","LANE":" ","ALLEY":" ","HOUSE_NO":"１２６之２６號","E_COORD97":179614.70087100001,"N_COORD97":2555020.32608,"ADDRESS":"大營１２６之２６號","OBJECTID":648451},"geometry":{"x":179614.70087100007,"y":2555020.3260790017}},{"attributes":{"ID":648479,"DIS_CODE":0,"TOWNNAME":"安南區","LI":"安西里","LIN":"12鄰","STREET":"安通路","SECT":"四段","MAREA":" ","LANE":" ","ALLEY":" ","HOUSE_NO":"８號","E_COORD97":169331.73464899999,"N_COORD97":2547772.8818999999,"ADDRESS":"安通路四段８號","OBJECTID":648452},"geometry":{"x":169331.73464900069,"y":2547772.8819020018}},{"attributes":{"ID":648480,"DIS_CODE":0,"TOWNNAME":"安南區","LI":"安慶里","LIN":"23鄰","STREET":"慈安路","SECT":" ","MAREA":" ","LANE":" ","ALLEY":" ","HOUSE_NO":"１０８號","E_COORD97":168718.70051,"N_COORD97":2548174.7653199998,"ADDRESS":"慈安路１０８號","OBJECTID":648453},"geometry":{"x":168718.70051000174,"y":2548174.7653200012}},{"attributes":{"ID":648481,"DIS_CODE":0,"TOWNNAME":"安南區","LI":"安慶里","LIN":"23鄰","STREET":"慈安路","SECT":" ","MAREA":" ","LANE":" ","ALLEY":" ","HOUSE_NO":"１０６號","E_COORD97":168718.70051,"N_COORD97":2548169.26199,"ADDRESS":"慈安路１０６號","OBJECTID":648454},"geometry":{"x":168718.70051000174,"y":2548169.2619900033}},{"attributes":{"ID":648482,"DIS_CODE":0,"TOWNNAME":"安南區","LI":"安慶里","LIN":"23鄰","STREET":"慈安路","SECT":" ","MAREA":" ","LANE":" ","ALLEY":" ","HOUSE_NO":"１０２號","E_COORD97":168719.12426400001,"N_COORD97":2548163.9703299999,"ADDRESS":"慈安路１０２號","OBJECTID":648455},"geometry":{"x":168719.12426400091,"y":2548163.9703260027}},{"attributes":{"ID":648483,"DIS_CODE":0,"TOWNNAME":"安南區","LI":"安慶里","LIN":"23鄰","STREET":"慈安路","SECT":" ","MAREA":" ","LANE":" ","ALLEY":" ","HOUSE_NO":"１００號","E_COORD97":168719.54801900001,"N_COORD97":2548158.2553300001,"ADDRESS":"慈安路１００號","OBJECTID":648456},"geometry":{"x":168719.54801900126,"y":2548158.255328998}},{"attributes":{"ID":648484,"DIS_CODE":0,"TOWNNAME":"安南區","LI":"安慶里","LIN":"23鄰","STREET":"慈安路","SECT":" ","MAREA":" ","LANE":" ","ALLEY":" ","HOUSE_NO":"９８號","E_COORD97":168719.971773,"N_COORD97":2548153.3870000001,"ADDRESS":"慈安路９８號","OBJECTID":648457},"geometry":{"x":168719.97177300043,"y":2548153.3869980015}},{"attributes":{"ID":648485,"DIS_CODE":0,"TOWNNAME":"安南區","LI":"安慶里","LIN":"23鄰","STREET":"慈安路","SECT":" ","MAREA":" ","LANE":" ","ALLEY":" ","HOUSE_NO":"９６號","E_COORD97":168720.60740400001,"N_COORD97":2548148.0953299999,"ADDRESS":"慈安路９６號","OBJECTID":648458},"geometry":{"x":168720.60740400013,"y":2548148.0953340009}},{"attributes":{"ID":648486,"DIS_CODE":0,"TOWNNAME":"安南區","LI":"安慶里","LIN":"23鄰","STREET":"慈安路","SECT":" ","MAREA":" ","LANE":" ","ALLEY":" ","HOUSE_NO":"９０號","E_COORD97":168725.05682500001,"N_COORD97":2548134.54868,"ADDRESS":"慈安路９０號","OBJECTID":648459},"geometry":{"x":168725.05682499986,"y":2548134.5486750007}},{"attributes":{"ID":648487,"DIS_CODE":0,"TOWNNAME":"安南區","LI":"安慶里","LIN":"23鄰","STREET":"慈安路","SECT":" ","MAREA":" ","LANE":" ","ALLEY":" ","HOUSE_NO":"１１０號","E_COORD97":168703.44535200001,"N_COORD97":2548172.6486499999,"ADDRESS":"慈安路１１０號","OBJECTID":648460},"geometry":{"x":168703.44535199925,"y":2548172.648653999}},{"attributes":{"ID":648488,"DIS_CODE":0,"TOWNNAME":"安南區","LI":"安慶里","LIN":"23鄰","STREET":"慈安路","SECT":" ","MAREA":" ","LANE":" ","ALLEY":" ","HOUSE_NO":"１１２號","E_COORD97":168704.080984,"N_COORD97":2548167.1453200001,"ADDRESS":"慈安路１１２號","OBJECTID":648461},"geometry":{"x":168704.08098400105,"y":2548167.1453240011}},{"attributes":{"ID":648489,"DIS_CODE":0,"TOWNNAME":"安南區","LI":"安慶里","LIN":"23鄰","STREET":"慈安路","SECT":" ","MAREA":" ","LANE":" ","ALLEY":" ","HOUSE_NO":"１１６號","E_COORD97":168704.71661500001,"N_COORD97":2548161.85366,"ADDRESS":"慈安路１１６號","OBJECTID":648462},"geometry":{"x":168704.71661500074,"y":2548161.8536600024}},{"attributes":{"ID":648490,"DIS_CODE":0,"TOWNNAME":"安南區","LI":"安慶里","LIN":"23鄰","STREET":"慈安路","SECT":" ","MAREA":" ","LANE":" ","ALLEY":" ","HOUSE_NO":"１１８號","E_COORD97":168705.77600099999,"N_COORD97":2548156.5619999999,"ADDRESS":"慈安路１１８號","OBJECTID":648463},"geometry":{"x":168705.77600099985,"y":2548156.5619960018}},{"attributes":{"ID":648491,"DIS_CODE":0,"TOWNNAME":"安南區","LI":"安慶里","LIN":"23鄰","STREET":"慈安路","SECT":" ","MAREA":" ","LANE":" ","ALLEY":" ","HOUSE_NO":"１２０號","E_COORD97":168706.62351,"N_COORD97":2548151.6936699999,"ADDRESS":"慈安路１２０號","OBJECTID":648464},"geometry":{"x":168706.62351000123,"y":2548151.6936660036}},{"attributes":{"ID":648492,"DIS_CODE":0,"TOWNNAME":"安南區","LI":"安慶里","LIN":"23鄰","STREET":"慈安路","SECT":" ","MAREA":" ","LANE":" ","ALLEY":" ","HOUSE_NO":"１２２號","E_COORD97":168707.47101899999,"N_COORD97":2548146.4019999998,"ADDRESS":"慈安路１２２號","OBJECTID":648465},"geometry":{"x":168707.47101899981,"y":2548146.402002003}},{"attributes":{"ID":648493,"DIS_CODE":0,"TOWNNAME":"安南區","LI":"安慶里","LIN":"23鄰","STREET":"慈安路","SECT":" ","MAREA":" ","LANE":" ","ALLEY":" ","HOUSE_NO":"１２６號","E_COORD97":168708.74228199999,"N_COORD97":2548133.27868,"ADDRESS":"慈安路１２６號","OBJECTID":648466},"geometry":{"x":168708.74228200037,"y":2548133.2786760014}},{"attributes":{"ID":648494,"DIS_CODE":0,"TOWNNAME":"安南區","LI":"安慶里","LIN":"23鄰","STREET":"慈安路","SECT":" ","MAREA":" ","LANE":" ","ALLEY":" ","HOUSE_NO":"１２８號","E_COORD97":168703.44535200001,"N_COORD97":2548131.5853400002,"ADDRESS":"慈安路１２８號","OBJECTID":648467},"geometry":{"x":168703.44535199925,"y":2548131.5853429995}},{"attributes":{"ID":648495,"DIS_CODE":0,"TOWNNAME":"安南區","LI":"安慶里","LIN":"23鄰","STREET":"慈安路","SECT":" ","MAREA":" ","LANE":" ","ALLEY":" ","HOUSE_NO":"９２號","E_COORD97":168719.971773,"N_COORD97":2548132.5378399999,"ADDRESS":"慈安路９２號","OBJECTID":648468},"geometry":{"x":168719.97177300043,"y":2548132.5378430001}},{"attributes":{"ID":648496,"DIS_CODE":0,"TOWNNAME":"安南區","LI":"安慶里","LIN":"32鄰","STREET":"怡安路","SECT":"一段","MAREA":" ","LANE":" ","ALLEY":" ","HOUSE_NO":"３３０號","E_COORD97":168838.411123,"N_COORD97":2549150.75979,"ADDRESS":"怡安路一段３３０號","OBJECTID":648469},"geometry":{"x":168838.41112300009,"y":2549150.7597930003}},{"attributes":{"ID":648497,"DIS_CODE":0,"TOWNNAME":"安南區","LI":"安慶里","LIN":"32鄰","STREET":"怡安路","SECT":"一段","MAREA":" ","LANE":"３２８巷","ALLEY":" ","HOUSE_NO":"１號","E_COORD97":168842.648667,"N_COORD97":2549167.90478,"ADDRESS":"怡安路一段３２８巷１號","OBJECTID":648470},"geometry":{"x":168842.64866700023,"y":2549167.9047840014}},{"attributes":{"ID":648498,"DIS_CODE":0,"TOWNNAME":"安南區","LI":"安慶里","LIN":"32鄰","STREET":"怡安路","SECT":"一段","MAREA":" ","LANE":"３２８巷","ALLEY":" ","HOUSE_NO":"３號","E_COORD97":168843.70805300001,"N_COORD97":2549175.5247800001,"ADDRESS":"怡安路一段３２８巷３號","OBJECTID":648471},"geometry":{"x":168843.7080530012,"y":2549175.5247790013}},{"attributes":{"ID":648499,"DIS_CODE":0,"TOWNNAME":"安南區","LI":"安慶里","LIN":"32鄰","STREET":"怡安路","SECT":"一段","MAREA":" ","LANE":"３２８巷","ALLEY":" ","HOUSE_NO":"５號","E_COORD97":168844.76743899999,"N_COORD97":2549182.72144,"ADDRESS":"怡安路一段３２８巷５號","OBJECTID":648472},"geometry":{"x":168844.76743900124,"y":2549182.7214420009}},{"attributes":{"ID":648500,"DIS_CODE":0,"TOWNNAME":"安南區","LI":"安慶里","LIN":"32鄰","STREET":"怡安路","SECT":"一段","MAREA":" ","LANE":"３２８巷","ALLEY":" ","HOUSE_NO":"７號","E_COORD97":168846.25057900001,"N_COORD97":2549189.91811,"ADDRESS":"怡安路一段３２８巷７號","OBJECTID":648473},"geometry":{"x":168846.25057900138,"y":2549189.9181050006}},{"attributes":{"ID":648501,"DIS_CODE":0,"TOWNNAME":"安南區","LI":"安慶里","LIN":"32鄰","STREET":"怡安路","SECT":"一段","MAREA":" ","LANE":"３２８巷","ALLEY":" ","HOUSE_NO":"９號","E_COORD97":168849.640614,"N_COORD97":2549206.21643,"ADDRESS":"怡安路一段３２８巷９號","OBJECTID":648474},"geometry":{"x":168849.64061400201,"y":2549206.216430001}},{"attributes":{"ID":648502,"DIS_CODE":0,"TOWNNAME":"安南區","LI":"安慶里","LIN":"32鄰","STREET":"怡安路","SECT":"一段","MAREA":" ","LANE":"３２８巷","ALLEY":" ","HOUSE_NO":"１１號","E_COORD97":168849.640614,"N_COORD97":2549212.35476,"ADDRESS":"怡安路一段３２８巷１１號","OBJECTID":648475},"geometry":{"x":168849.64061400201,"y":2549212.3547600042}},{"attributes":{"ID":648503,"DIS_CODE":0,"TOWNNAME":"安南區","LI":"安慶里","LIN":"32鄰","STREET":"怡安路","SECT":"一段","MAREA":" ","LANE":"３２８巷","ALLEY":" ","HOUSE_NO":"１３號","E_COORD97":168849.640614,"N_COORD97":2549217.0114199999,"ADDRESS":"怡安路一段３２８巷１３號","OBJECTID":648476},"geometry":{"x":168849.64061400201,"y":2549217.0114239994}},{"attributes":{"ID":648504,"DIS_CODE":0,"TOWNNAME":"安南區","LI":"安慶里","LIN":"32鄰","STREET":"怡安路","SECT":"一段","MAREA":" ","LANE":"３２８巷","ALLEY":" ","HOUSE_NO":"１５號","E_COORD97":168849.42873700001,"N_COORD97":2549221.2447500001,"ADDRESS":"怡安路一段３２８巷１５號","OBJECTID":648477},"geometry":{"x":168849.42873700149,"y":2549221.2447550017}},{"attributes":{"ID":648505,"DIS_CODE":0,"TOWNNAME":"安南區","LI":"安慶里","LIN":"32鄰","STREET":"怡安路","SECT":"一段","MAREA":" ","LANE":"３２８巷","ALLEY":" ","HOUSE_NO":"１７號","E_COORD97":168849.21685999999,"N_COORD97":2549225.6897499999,"ADDRESS":"怡安路一段３２８巷１７號","OBJECTID":648478},"geometry":{"x":168849.21686000004,"y":2549225.6897520013}},{"attributes":{"ID":648506,"DIS_CODE":0,"TOWNNAME":"安南區","LI":"安慶里","LIN":"32鄰","STREET":"怡安路","SECT":"一段","MAREA":" ","LANE":"３２８巷","ALLEY":" ","HOUSE_NO":"１９號","E_COORD97":168849.00498200001,"N_COORD97":2549229.7114200001,"ADDRESS":"怡安路一段３２８巷１９號","OBJECTID":648479},"geometry":{"x":168849.00498200022,"y":2549229.7114170026}},{"attributes":{"ID":648507,"DIS_CODE":0,"TOWNNAME":"安南區","LI":"安慶里","LIN":"32鄰","STREET":"怡安路","SECT":"一段","MAREA":" ","LANE":"３２８巷","ALLEY":" ","HOUSE_NO":"２１號","E_COORD97":168848.369351,"N_COORD97":2549233.52141,"ADDRESS":"怡安路一段３２８巷２１號","OBJECTID":648480},"geometry":{"x":168848.36935100053,"y":2549233.5214150008}},{"attributes":{"ID":648508,"DIS_CODE":0,"TOWNNAME":"安南區","LI":"安慶里","LIN":"32鄰","STREET":"怡安路","SECT":"一段","MAREA":" ","LANE":"３２８巷","ALLEY":" ","HOUSE_NO":"２３號","E_COORD97":168848.369351,"N_COORD97":2549233.52141,"ADDRESS":"怡安路一段３２８巷２３號","OBJECTID":648481},"geometry":{"x":168848.36935100053,"y":2549233.5214150008}},{"attributes":{"ID":648509,"DIS_CODE":0,"TOWNNAME":"安南區","LI":"安慶里","LIN":"32鄰","STREET":"怡安路","SECT":"一段","MAREA":" ","LANE":"３２８巷","ALLEY":" ","HOUSE_NO":"２５號","E_COORD97":168848.581228,"N_COORD97":2549250.2430699999,"ADDRESS":"怡安路一段３２８巷２５號","OBJECTID":648482},"geometry":{"x":168848.58122800104,"y":2549250.2430720013}},{"attributes":{"ID":648510,"DIS_CODE":0,"TOWNNAME":"安南區","LI":"安慶里","LIN":"32鄰","STREET":"怡安路","SECT":"一段","MAREA":" ","LANE":"３２８巷","ALLEY":" ","HOUSE_NO":"２７號","E_COORD97":168842.860544,"N_COORD97":2549249.39641,"ADDRESS":"怡安路一段３２８巷２７號","OBJECTID":648483},"geometry":{"x":168842.86054400075,"y":2549249.3964060042}},{"attributes":{"ID":648511,"DIS_CODE":0,"TOWNNAME":"安南區","LI":"安慶里","LIN":"32鄰","STREET":"怡安路","SECT":"一段","MAREA":" ","LANE":"３２８巷","ALLEY":" ","HOUSE_NO":"２９號","E_COORD97":168836.716105,"N_COORD97":2549248.3380700001,"ADDRESS":"怡安路一段３２８巷２９號","OBJECTID":648484},"geometry":{"x":168836.71610500012,"y":2549248.3380730003}},{"attributes":{"ID":648512,"DIS_CODE":0,"TOWNNAME":"安南區","LI":"安慶里","LIN":"32鄰","STREET":"怡安路","SECT":"一段","MAREA":" ","LANE":"３２８巷","ALLEY":" ","HOUSE_NO":"３１號","E_COORD97":168830.57166700001,"N_COORD97":2549249.1847399999,"ADDRESS":"怡安路一段３２８巷３１號","OBJECTID":648485},"geometry":{"x":168830.57166700065,"y":2549249.1847400013}},{"attributes":{"ID":648513,"DIS_CODE":0,"TOWNNAME":"安南區","LI":"安慶里","LIN":"32鄰","STREET":"怡安路","SECT":"一段","MAREA":" ","LANE":"３２８巷","ALLEY":" ","HOUSE_NO":"４６號","E_COORD97":168867.01454400001,"N_COORD97":2549241.1414100002,"ADDRESS":"怡安路一段３２８巷４６號","OBJECTID":648486},"geometry":{"x":168867.01454400085,"y":2549241.1414110009}},{"attributes":{"ID":648514,"DIS_CODE":0,"TOWNNAME":"安南區","LI":"安慶里","LIN":"32鄰","STREET":"怡安路","SECT":"一段","MAREA":" ","LANE":"３２８巷","ALLEY":" ","HOUSE_NO":"４２號","E_COORD97":168867.43829799999,"N_COORD97":2549235.6380799999,"ADDRESS":"怡安路一段３２８巷４２號","OBJECTID":648487},"geometry":{"x":168867.43829800002,"y":2549235.6380800027}},{"attributes":{"ID":648515,"DIS_CODE":0,"TOWNNAME":"安南區","LI":"安慶里","LIN":"32鄰","STREET":"怡安路","SECT":"一段","MAREA":" ","LANE":"３２８巷","ALLEY":" ","HOUSE_NO":"４０號","E_COORD97":168867.43829799999,"N_COORD97":2549231.4047500002,"ADDRESS":"怡安路一段３２８巷４０號","OBJECTID":648488},"geometry":{"x":168867.43829800002,"y":2549231.4047490004}},{"attributes":{"ID":648516,"DIS_CODE":0,"TOWNNAME":"安南區","LI":"安慶里","LIN":"32鄰","STREET":"怡安路","SECT":"一段","MAREA":" ","LANE":"３２８巷","ALLEY":" ","HOUSE_NO":"３８號","E_COORD97":168867.65017499999,"N_COORD97":2549226.9597499999,"ADDRESS":"怡安路一段３２８巷３８號","OBJECTID":648489},"geometry":{"x":168867.65017500054,"y":2549226.9597520009}},{"attributes":{"ID":648517,"DIS_CODE":0,"TOWNNAME":"安南區","LI":"安慶里","LIN":"32鄰","STREET":"怡安路","SECT":"一段","MAREA":" ","LANE":"３２８巷","ALLEY":" ","HOUSE_NO":"３６號","E_COORD97":168868.28580700001,"N_COORD97":2549222.09142,"ADDRESS":"怡安路一段３２８巷３６號","OBJECTID":648490},"geometry":{"x":168868.2858070014,"y":2549222.0914210025}},{"attributes":{"ID":648518,"DIS_CODE":0,"TOWNNAME":"安南區","LI":"安慶里","LIN":"32鄰","STREET":"怡安路","SECT":"一段","MAREA":" ","LANE":"３２８巷","ALLEY":" ","HOUSE_NO":"３２號","E_COORD97":168868.709561,"N_COORD97":2549217.8580900002,"ADDRESS":"怡安路一段３２８巷３２號","OBJECTID":648491},"geometry":{"x":168868.70956100151,"y":2549217.8580900021}},{"attributes":{"ID":648519,"DIS_CODE":0,"TOWNNAME":"安南區","LI":"安慶里","LIN":"32鄰","STREET":"怡安路","SECT":"一段","MAREA":" ","LANE":"３２８巷","ALLEY":" ","HOUSE_NO":"３０號","E_COORD97":168868.709561,"N_COORD97":2549214.0480900002,"ADDRESS":"怡安路一段３２８巷３０號","OBJECTID":648492},"geometry":{"x":168868.70956100151,"y":2549214.048092002}},{"attributes":{"ID":648520,"DIS_CODE":0,"TOWNNAME":"安南區","LI":"安慶里","LIN":"32鄰","STREET":"怡安路","SECT":"一段","MAREA":" ","LANE":"３２８巷","ALLEY":" ","HOUSE_NO":"２８號","E_COORD97":168869.34519299999,"N_COORD97":2549209.81476,"ADDRESS":"怡安路一段３２８巷２８號","OBJECTID":648493},"geometry":{"x":168869.34519300051,"y":2549209.8147609998}},{"attributes":{"ID":648521,"DIS_CODE":0,"TOWNNAME":"安南區","LI":"安慶里","LIN":"32鄰","STREET":"怡安路","SECT":"一段","MAREA":" ","LANE":"３２８巷","ALLEY":" ","HOUSE_NO":"２６號","E_COORD97":168869.768947,"N_COORD97":2549205.5814299998,"ADDRESS":"怡安路一段３２８巷２６號","OBJECTID":648494},"geometry":{"x":168869.76894699968,"y":2549205.5814300012}},{"attributes":{"ID":648522,"DIS_CODE":0,"TOWNNAME":"安南區","LI":"安慶里","LIN":"32鄰","STREET":"怡安路","SECT":"一段","MAREA":" ","LANE":"３２８巷","ALLEY":" ","HOUSE_NO":"２２號","E_COORD97":168870.192702,"N_COORD97":2549201.5597600001,"ADDRESS":"怡安路一段３２８巷２２號","OBJECTID":648495},"geometry":{"x":168870.19270200003,"y":2549201.5597650018}},{"attributes":{"ID":648523,"DIS_CODE":0,"TOWNNAME":"安南區","LI":"安慶里","LIN":"32鄰","STREET":"怡安路","SECT":"一段","MAREA":" ","LANE":"３２８巷","ALLEY":" ","HOUSE_NO":"２０號","E_COORD97":168876.33713999999,"N_COORD97":2549196.4797700001,"ADDRESS":"怡安路一段３２８巷２０號","OBJECTID":648496},"geometry":{"x":168876.33714000229,"y":2549196.4797680024}},{"attributes":{"ID":648524,"DIS_CODE":0,"TOWNNAME":"安南區","LI":"安慶里","LIN":"32鄰","STREET":"怡安路","SECT":"一段","MAREA":" ","LANE":"３２８巷","ALLEY":" ","HOUSE_NO":"１８號","E_COORD97":168890.95666600001,"N_COORD97":2549196.2681,"ADDRESS":"怡安路一段３２８巷１８號","OBJECTID":648497},"geometry":{"x":168890.95666600019,"y":2549196.2681019995}},{"attributes":{"ID":648525,"DIS_CODE":0,"TOWNNAME":"安南區","LI":"安慶里","LIN":"32鄰","STREET":"怡安路","SECT":"一段","MAREA":" ","LANE":"３２８巷","ALLEY":" ","HOUSE_NO":"４８號","E_COORD97":168883.75284199999,"N_COORD97":2549236.6964099999,"ADDRESS":"怡安路一段３２８巷４８號","OBJECTID":648498},"geometry":{"x":168883.75284199975,"y":2549236.696413001}},{"attributes":{"ID":648526,"DIS_CODE":0,"TOWNNAME":"安南區","LI":"安慶里","LIN":"32鄰","STREET":"怡安路","SECT":"一段","MAREA":" ","LANE":"３２８巷","ALLEY":" ","HOUSE_NO":"５０號","E_COORD97":168887.77850799999,"N_COORD97":2549235.6380799999,"ADDRESS":"怡安路一段３２８巷５０號","OBJECTID":648499},"geometry":{"x":168887.77850800008,"y":2549235.6380800027}},{"attributes":{"ID":648527,"DIS_CODE":0,"TOWNNAME":"安南區","LI":"安慶里","LIN":"32鄰","STREET":"怡安路","SECT":"一段","MAREA":" ","LANE":"３２８巷","ALLEY":" ","HOUSE_NO":"１６號","E_COORD97":168867.226421,"N_COORD97":2549183.3564399998,"ADDRESS":"怡安路一段３２８巷１６號","OBJECTID":648500},"geometry":{"x":168867.22642100137,"y":2549183.3564420007}},{"attributes":{"ID":648528,"DIS_CODE":0,"TOWNNAME":"安南區","LI":"安慶里","LIN":"32鄰","STREET":"怡安路","SECT":"一段","MAREA":" ","LANE":"３２８巷","ALLEY":" ","HOUSE_NO":"１２號","E_COORD97":168864.89577199999,"N_COORD97":2549177.85311,"ADDRESS":"怡安路一段３２８巷１２號","OBJECTID":648501},"geometry":{"x":168864.89577200171,"y":2549177.8531120028}},{"attributes":{"ID":648529,"DIS_CODE":0,"TOWNNAME":"安南區","LI":"安慶里","LIN":"32鄰","STREET":"怡安路","SECT":"一段","MAREA":" ","LANE":"３２８巷","ALLEY":" ","HOUSE_NO":"１０號","E_COORD97":168863.41263100001,"N_COORD97":2549172.9847800001,"ADDRESS":"怡安路一段３２８巷１０號","OBJECTID":648502},"geometry":{"x":168863.41263100039,"y":2549172.9847810008}},{"attributes":{"ID":648530,"DIS_CODE":0,"TOWNNAME":"安南區","LI":"安慶里","LIN":"32鄰","STREET":"怡安路","SECT":"一段","MAREA":" ","LANE":"３２８巷","ALLEY":" ","HOUSE_NO":"８號","E_COORD97":168862.35324600001,"N_COORD97":2549168.7514499999,"ADDRESS":"怡安路一段３２８巷８號","OBJECTID":648503},"geometry":{"x":168862.3532460006,"y":2549168.7514500041}},{"attributes":{"ID":648531,"DIS_CODE":0,"TOWNNAME":"安南區","LI":"安慶里","LIN":"32鄰","STREET":"怡安路","SECT":"一段","MAREA":" ","LANE":"３２８巷","ALLEY":" ","HOUSE_NO":"６號","E_COORD97":168861.29386000001,"N_COORD97":2549164.9414499998,"ADDRESS":"怡安路一段３２８巷６號","OBJECTID":648504},"geometry":{"x":168861.29386000056,"y":2549164.9414520003}},{"attributes":{"ID":648532,"DIS_CODE":0,"TOWNNAME":"安南區","LI":"安慶里","LIN":"32鄰","STREET":"怡安路","SECT":"一段","MAREA":" ","LANE":"３２８巷","ALLEY":" ","HOUSE_NO":"２號","E_COORD97":168860.44635099999,"N_COORD97":2549160.9197900002,"ADDRESS":"怡安路一段３２８巷２號","OBJECTID":648505},"geometry":{"x":168860.44635100011,"y":2549160.9197870027}},{"attributes":{"ID":648533,"DIS_CODE":0,"TOWNNAME":"安南區","LI":"安慶里","LIN":"32鄰","STREET":"怡安路","SECT":"一段","MAREA":" ","LANE":" ","ALLEY":" ","HOUSE_NO":"３２６號","E_COORD97":168856.20880699999,"N_COORD97":2549145.8914600001,"ADDRESS":"怡安路一段３２６號","OBJECTID":648506},"geometry":{"x":168856.20880699996,"y":2549145.8914620038}},{"attributes":{"ID":648534,"DIS_CODE":0,"TOWNNAME":"安南區","LI":"安慶里","LIN":"32鄰","STREET":"怡安路","SECT":"一段","MAREA":" ","LANE":" ","ALLEY":" ","HOUSE_NO":"３２２號","E_COORD97":168862.35324600001,"N_COORD97":2549143.35146,"ADDRESS":"怡安路一段３２２號","OBJECTID":648507},"geometry":{"x":168862.3532460006,"y":2549143.3514639977}},{"attributes":{"ID":648535,"DIS_CODE":0,"TOWNNAME":"安南區","LI":"安慶里","LIN":"32鄰","STREET":"怡安路","SECT":"一段","MAREA":" ","LANE":" ","ALLEY":" ","HOUSE_NO":"３２０號","E_COORD97":168867.86205200001,"N_COORD97":2549142.9281299999,"ADDRESS":"怡安路一段３２０號","OBJECTID":648508},"geometry":{"x":168867.86205200106,"y":2549142.9281300008}},{"attributes":{"ID":648536,"DIS_CODE":0,"TOWNNAME":"安南區","LI":"安慶里","LIN":"32鄰","STREET":"怡安路","SECT":"一段","MAREA":" ","LANE":" ","ALLEY":" ","HOUSE_NO":"３１８號","E_COORD97":168875.06587699999,"N_COORD97":2549142.2931300001,"ADDRESS":"怡安路一段３１８號","OBJECTID":648509},"geometry":{"x":168875.0658770008,"y":2549142.2931310013}},{"attributes":{"ID":648537,"DIS_CODE":0,"TOWNNAME":"仁德區","LI":"保安里","LIN":"19鄰","STREET":"文賢路","SECT":"二段","MAREA":" ","LANE":"１５巷","ALLEY":" ","HOUSE_NO":"５３號","E_COORD97":171896.70796299999,"N_COORD97":2535962.4901800002,"ADDRESS":"文賢路二段１５巷５３號","OBJECTID":648510},"geometry":{"x":171896.70796300098,"y":2535962.4901760016}},{"attributes":{"ID":648538,"DIS_CODE":0,"TOWNNAME":"仁德區","LI":"保安里","LIN":"19鄰","STREET":"文賢路","SECT":"二段","MAREA":" ","LANE":"１５巷","ALLEY":" ","HOUSE_NO":"５３號二樓之１","E_COORD97":171896.70796299999,"N_COORD97":2535962.4901800002,"ADDRESS":"文賢路二段１５巷５３號二樓之１","OBJECTID":648511},"geometry":{"x":171896.70796300098,"y":2535962.4901760016}},{"attributes":{"ID":648539,"DIS_CODE":0,"TOWNNAME":"仁德區","LI":"保安里","LIN":"19鄰","STREET":"文賢路","SECT":"二段","MAREA":" ","LANE":"１５巷","ALLEY":" ","HOUSE_NO":"５３號二樓之２","E_COORD97":171896.70796299999,"N_COORD97":2535962.4901800002,"ADDRESS":"文賢路二段１５巷５３號二樓之２","OBJECTID":648512},"geometry":{"x":171896.70796300098,"y":2535962.4901760016}},{"attributes":{"ID":648540,"DIS_CODE":0,"TOWNNAME":"仁德區","LI":"保安里","LIN":"19鄰","STREET":"文賢路","SECT":"二段","MAREA":" ","LANE":"１５巷","ALLEY":" ","HOUSE_NO":"５３號三樓之１","E_COORD97":171896.70796299999,"N_COORD97":2535962.4901800002,"ADDRESS":"文賢路二段１５巷５３號三樓之１","OBJECTID":648513},"geometry":{"x":171896.70796300098,"y":2535962.4901760016}},{"attributes":{"ID":648541,"DIS_CODE":0,"TOWNNAME":"仁德區","LI":"保安里","LIN":"19鄰","STREET":"文賢路","SECT":"二段","MAREA":" ","LANE":"１５巷","ALLEY":" ","HOUSE_NO":"５３號三樓之２","E_COORD97":171896.70796299999,"N_COORD97":2535962.4901800002,"ADDRESS":"文賢路二段１５巷５３號三樓之２","OBJECTID":648514},"geometry":{"x":171896.70796300098,"y":2535962.4901760016}},{"attributes":{"ID":648542,"DIS_CODE":0,"TOWNNAME":"仁德區","LI":"保安里","LIN":"19鄰","STREET":"文賢路","SECT":"二段","MAREA":" ","LANE":"１５巷","ALLEY":" ","HOUSE_NO":"５３號四樓之１","E_COORD97":171896.70796299999,"N_COORD97":2535962.4901800002,"ADDRESS":"文賢路二段１５巷５３號四樓之１","OBJECTID":648515},"geometry":{"x":171896.70796300098,"y":2535962.4901760016}},{"attributes":{"ID":648543,"DIS_CODE":0,"TOWNNAME":"仁德區","LI":"保安里","LIN":"19鄰","STREET":"文賢路","SECT":"二段","MAREA":" ","LANE":"１５巷","ALLEY":" ","HOUSE_NO":"５３號四樓之２","E_COORD97":171896.70796299999,"N_COORD97":2535962.4901800002,"ADDRESS":"文賢路二段１５巷５３號四樓之２","OBJECTID":648516},"geometry":{"x":171896.70796300098,"y":2535962.4901760016}},{"attributes":{"ID":648544,"DIS_CODE":0,"TOWNNAME":"仁德區","LI":"保安里","LIN":"19鄰","STREET":"文賢路","SECT":"二段","MAREA":" ","LANE":"１５巷","ALLEY":" ","HOUSE_NO":"５３號五樓之１","E_COORD97":171896.70796299999,"N_COORD97":2535962.4901800002,"ADDRESS":"文賢路二段１５巷５３號五樓之１","OBJECTID":648517},"geometry":{"x":171896.70796300098,"y":2535962.4901760016}},{"attributes":{"ID":648545,"DIS_CODE":0,"TOWNNAME":"仁德區","LI":"保安里","LIN":"19鄰","STREET":"文賢路","SECT":"二段","MAREA":" ","LANE":"１５巷","ALLEY":" ","HOUSE_NO":"５３號五樓之２","E_COORD97":171896.70796299999,"N_COORD97":2535962.4901800002,"ADDRESS":"文賢路二段１５巷５３號五樓之２","OBJECTID":648518},"geometry":{"x":171896.70796300098,"y":2535962.4901760016}},{"attributes":{"ID":648546,"DIS_CODE":0,"TOWNNAME":"仁德區","LI":"保安里","LIN":"10鄰","STREET":"中正路","SECT":"一段","MAREA":" ","LANE":"２７３巷","ALLEY":" ","HOUSE_NO":"５號七樓之１","E_COORD97":171836.019791,"N_COORD97":2536045.0401300001,"ADDRESS":"中正路一段２７３巷５號七樓之１","OBJECTID":648519},"geometry":{"x":171836.01979099959,"y":2536045.0401310008}},{"attributes":{"ID":648547,"DIS_CODE":0,"TOWNNAME":"仁德區","LI":"保安里","LIN":"10鄰","STREET":"中正路","SECT":"一段","MAREA":" ","LANE":"２７３巷","ALLEY":" ","HOUSE_NO":"５號七樓之２","E_COORD97":171836.019791,"N_COORD97":2536045.0401300001,"ADDRESS":"中正路一段２７３巷５號七樓之２","OBJECTID":648520},"geometry":{"x":171836.01979099959,"y":2536045.0401310008}},{"attributes":{"ID":648548,"DIS_CODE":0,"TOWNNAME":"仁德區","LI":"保安里","LIN":"10鄰","STREET":"中正路","SECT":"一段","MAREA":" ","LANE":"２７３巷","ALLEY":" ","HOUSE_NO":"５號九樓之１","E_COORD97":171836.019791,"N_COORD97":2536045.0401300001,"ADDRESS":"中正路一段２７３巷５號九樓之１","OBJECTID":648521},"geometry":{"x":171836.01979099959,"y":2536045.0401310008}},{"attributes":{"ID":648549,"DIS_CODE":0,"TOWNNAME":"仁德區","LI":"保安里","LIN":"10鄰","STREET":"中正路","SECT":"一段","MAREA":" ","LANE":"２７３巷","ALLEY":" ","HOUSE_NO":"５號二樓之１","E_COORD97":171836.019791,"N_COORD97":2536045.0401300001,"ADDRESS":"中正路一段２７３巷５號二樓之１","OBJECTID":648522},"geometry":{"x":171836.01979099959,"y":2536045.0401310008}},{"attributes":{"ID":648550,"DIS_CODE":0,"TOWNNAME":"仁德區","LI":"保安里","LIN":"10鄰","STREET":"中正路","SECT":"一段","MAREA":" ","LANE":"２７３巷","ALLEY":" ","HOUSE_NO":"５號二樓之２","E_COORD97":171836.019791,"N_COORD97":2536045.0401300001,"ADDRESS":"中正路一段２７３巷５號二樓之２","OBJECTID":648523},"geometry":{"x":171836.01979099959,"y":2536045.0401310008}},{"attributes":{"ID":648551,"DIS_CODE":0,"TOWNNAME":"仁德區","LI":"保安里","LIN":"10鄰","STREET":"中正路","SECT":"一段","MAREA":" ","LANE":"２７３巷","ALLEY":" ","HOUSE_NO":"５號八樓之１","E_COORD97":171836.019791,"N_COORD97":2536045.0401300001,"ADDRESS":"中正路一段２７３巷５號八樓之１","OBJECTID":648524},"geometry":{"x":171836.01979099959,"y":2536045.0401310008}},{"attributes":{"ID":648552,"DIS_CODE":0,"TOWNNAME":"仁德區","LI":"保安里","LIN":"10鄰","STREET":"中正路","SECT":"一段","MAREA":" ","LANE":"２７３巷","ALLEY":" ","HOUSE_NO":"５號八樓之２","E_COORD97":171836.019791,"N_COORD97":2536045.0401300001,"ADDRESS":"中正路一段２７３巷５號八樓之２","OBJECTID":648525},"geometry":{"x":171836.01979099959,"y":2536045.0401310008}},{"attributes":{"ID":648553,"DIS_CODE":0,"TOWNNAME":"仁德區","LI":"保安里","LIN":"10鄰","STREET":"中正路","SECT":"一段","MAREA":" ","LANE":"２７３巷","ALLEY":" ","HOUSE_NO":"５號三樓之１","E_COORD97":171836.019791,"N_COORD97":2536045.0401300001,"ADDRESS":"中正路一段２７３巷５號三樓之１","OBJECTID":648526},"geometry":{"x":171836.01979099959,"y":2536045.0401310008}},{"attributes":{"ID":648554,"DIS_CODE":0,"TOWNNAME":"仁德區","LI":"保安里","LIN":"10鄰","STREET":"中正路","SECT":"一段","MAREA":" ","LANE":"２７３巷","ALLEY":" ","HOUSE_NO":"５號三樓之２","E_COORD97":171836.019791,"N_COORD97":2536045.0401300001,"ADDRESS":"中正路一段２７３巷５號三樓之２","OBJECTID":648527},"geometry":{"x":171836.01979099959,"y":2536045.0401310008}},{"attributes":{"ID":648555,"DIS_CODE":0,"TOWNNAME":"仁德區","LI":"保安里","LIN":"10鄰","STREET":"中正路","SECT":"一段","MAREA":" ","LANE":"２７３巷","ALLEY":" ","HOUSE_NO":"５號五樓之１","E_COORD97":171836.019791,"N_COORD97":2536045.0401300001,"ADDRESS":"中正路一段２７３巷５號五樓之１","OBJECTID":648528},"geometry":{"x":171836.01979099959,"y":2536045.0401310008}},{"attributes":{"ID":648556,"DIS_CODE":0,"TOWNNAME":"仁德區","LI":"保安里","LIN":"10鄰","STREET":"中正路","SECT":"一段","MAREA":" ","LANE":"２７３巷","ALLEY":" ","HOUSE_NO":"５號五樓之２","E_COORD97":171836.019791,"N_COORD97":2536045.0401300001,"ADDRESS":"中正路一段２７３巷５號五樓之２","OBJECTID":648529},"geometry":{"x":171836.01979099959,"y":2536045.0401310008}},{"attributes":{"ID":648557,"DIS_CODE":0,"TOWNNAME":"仁德區","LI":"保安里","LIN":"10鄰","STREET":"中正路","SECT":"一段","MAREA":" ","LANE":"２７３巷","ALLEY":" ","HOUSE_NO":"５號六樓之１","E_COORD97":171836.019791,"N_COORD97":2536045.0401300001,"ADDRESS":"中正路一段２７３巷５號六樓之１","OBJECTID":648530},"geometry":{"x":171836.01979099959,"y":2536045.0401310008}},{"attributes":{"ID":648558,"DIS_CODE":0,"TOWNNAME":"仁德區","LI":"保安里","LIN":"10鄰","STREET":"中正路","SECT":"一段","MAREA":" ","LANE":"２７３巷","ALLEY":" ","HOUSE_NO":"５號六樓之２","E_COORD97":171836.019791,"N_COORD97":2536045.0401300001,"ADDRESS":"中正路一段２７３巷５號六樓之２","OBJECTID":648531},"geometry":{"x":171836.01979099959,"y":2536045.0401310008}},{"attributes":{"ID":648559,"DIS_CODE":0,"TOWNNAME":"仁德區","LI":"保安里","LIN":"10鄰","STREET":"中正路","SECT":"一段","MAREA":" ","LANE":"２７３巷","ALLEY":" ","HOUSE_NO":"５號四樓之１","E_COORD97":171836.019791,"N_COORD97":2536045.0401300001,"ADDRESS":"中正路一段２７３巷５號四樓之１","OBJECTID":648532},"geometry":{"x":171836.01979099959,"y":2536045.0401310008}},{"attributes":{"ID":648560,"DIS_CODE":0,"TOWNNAME":"仁德區","LI":"保安里","LIN":"10鄰","STREET":"中正路","SECT":"一段","MAREA":" ","LANE":"２７３巷","ALLEY":" ","HOUSE_NO":"５號四樓之２","E_COORD97":171836.019791,"N_COORD97":2536045.0401300001,"ADDRESS":"中正路一段２７３巷５號四樓之２","OBJECTID":648533},"geometry":{"x":171836.01979099959,"y":2536045.0401310008}},{"attributes":{"ID":648561,"DIS_CODE":0,"TOWNNAME":"仁德區","LI":"保安里","LIN":"10鄰","STREET":"中正路","SECT":"一段","MAREA":" ","LANE":"２７３巷","ALLEY":" ","HOUSE_NO":"５號四樓之２","E_COORD97":171836.019791,"N_COORD97":2536045.0401300001,"ADDRESS":"中正路一段２７３巷５號四樓之２","OBJECTID":648534},"geometry":{"x":171836.01979099959,"y":2536045.0401310008}},{"attributes":{"ID":648562,"DIS_CODE":0,"TOWNNAME":"中西區","LI":"郡西里","LIN":"8鄰","STREET":"海安路","SECT":"一段","MAREA":" ","LANE":" ","ALLEY":" ","HOUSE_NO":"４１號","E_COORD97":167440.798415,"N_COORD97":2543266.6913999999,"ADDRESS":"海安路一段４１號","OBJECTID":648535},"geometry":{"x":167440.79841500055,"y":2543266.6914019994}},{"attributes":{"ID":648563,"DIS_CODE":0,"TOWNNAME":"中西區","LI":"郡西里","LIN":"8鄰","STREET":"海安路","SECT":"一段","MAREA":" ","LANE":" ","ALLEY":" ","HOUSE_NO":"４５號","E_COORD97":167440.798415,"N_COORD97":2543271.7714,"ADDRESS":"海安路一段４５號","OBJECTID":648536},"geometry":{"x":167440.79841500055,"y":2543271.7713990025}},{"attributes":{"ID":648564,"DIS_CODE":0,"TOWNNAME":"中西區","LI":"郡西里","LIN":"8鄰","STREET":"海安路","SECT":"一段","MAREA":" ","LANE":" ","ALLEY":" ","HOUSE_NO":"７７號","E_COORD97":167458.17184699999,"N_COORD97":2543344.5846899999,"ADDRESS":"海安路一段７７號","OBJECTID":648537},"geometry":{"x":167458.17184699979,"y":2543344.5846930034}},{"attributes":{"ID":648565,"DIS_CODE":0,"TOWNNAME":"中西區","LI":"郡西里","LIN":"8鄰","STREET":"海安路","SECT":"一段","MAREA":" ","LANE":" ","ALLEY":" ","HOUSE_NO":"７５號","E_COORD97":167458.595589,"N_COORD97":2543340.3513600002,"ADDRESS":"海安路一段７５號","OBJECTID":648538},"geometry":{"x":167458.59558900073,"y":2543340.3513620012}},{"attributes":{"ID":648566,"DIS_CODE":0,"TOWNNAME":"中西區","LI":"郡西里","LIN":"8鄰","STREET":"海安路","SECT":"一段","MAREA":" ","LANE":" ","ALLEY":" ","HOUSE_NO":"７３號","E_COORD97":167457.11249100001,"N_COORD97":2543336.3297000001,"ADDRESS":"海安路一段７３號","OBJECTID":648539},"geometry":{"x":167457.11249100138,"y":2543336.3296980001}},{"attributes":{"ID":648567,"DIS_CODE":0,"TOWNNAME":"中西區","LI":"郡西里","LIN":"8鄰","STREET":"海安路","SECT":"一段","MAREA":" ","LANE":" ","ALLEY":" ","HOUSE_NO":"７１號","E_COORD97":167456.68874899999,"N_COORD97":2543332.30803,"ADDRESS":"海安路一段７１號","OBJECTID":648540},"geometry":{"x":167456.68874900043,"y":2543332.3080330025}},{"attributes":{"ID":648568,"DIS_CODE":0,"TOWNNAME":"北門區","LI":"雙春里","LIN":"2鄰","STREET":" ","SECT":" ","MAREA":"雙春","LANE":" ","ALLEY":" ","HOUSE_NO":"１１號","E_COORD97":160987.96311499999,"N_COORD97":2577799.5245400001,"ADDRESS":"雙春１１號","OBJECTID":648541},"geometry":{"x":160987.96311500017,"y":2577799.5245389994}},{"attributes":{"ID":648569,"DIS_CODE":0,"TOWNNAME":"北門區","LI":"雙春里","LIN":"2鄰","STREET":" ","SECT":" ","MAREA":"雙春","LANE":" ","ALLEY":" ","HOUSE_NO":"９號","E_COORD97":160987.32736200001,"N_COORD97":2577780.68622,"ADDRESS":"雙春９號","OBJECTID":648542},"geometry":{"x":160987.32736200001,"y":2577780.6862160042}},{"attributes":{"ID":648570,"DIS_CODE":0,"TOWNNAME":"北門區","LI":"雙春里","LIN":"1鄰","STREET":" ","SECT":" ","MAREA":"雙春","LANE":" ","ALLEY":" ","HOUSE_NO":"１號之３","E_COORD97":161041.36632,"N_COORD97":2577771.7962199999,"ADDRESS":"雙春１號之３","OBJECTID":648543},"geometry":{"x":161041.36632000096,"y":2577771.7962200008}},{"attributes":{"ID":648571,"DIS_CODE":0,"TOWNNAME":"北門區","LI":"雙春里","LIN":"1鄰","STREET":" ","SECT":" ","MAREA":"雙春","LANE":" ","ALLEY":" ","HOUSE_NO":"５號５","E_COORD97":161045.60467,"N_COORD97":2577818.5745299999,"ADDRESS":"雙春５號５","OBJECTID":648544},"geometry":{"x":161045.60467000119,"y":2577818.5745289996}},{"attributes":{"ID":648572,"DIS_CODE":0,"TOWNNAME":"北門區","LI":"雙春里","LIN":"1鄰","STREET":" ","SECT":" ","MAREA":"雙春","LANE":" ","ALLEY":" ","HOUSE_NO":"５號６","E_COORD97":161041.36632,"N_COORD97":2577821.7495300001,"ADDRESS":"雙春５號６","OBJECTID":648545},"geometry":{"x":161041.36632000096,"y":2577821.7495269999}},{"attributes":{"ID":648573,"DIS_CODE":0,"TOWNNAME":"北門區","LI":"雙春里","LIN":"1鄰","STREET":" ","SECT":" ","MAREA":"雙春","LANE":" ","ALLEY":" ","HOUSE_NO":"５之７號","E_COORD97":161037.551805,"N_COORD97":2577825.3478600001,"ADDRESS":"雙春５之７號","OBJECTID":648546},"geometry":{"x":161037.55180499982,"y":2577825.3478580024}},{"attributes":{"ID":648574,"DIS_CODE":0,"TOWNNAME":"南區","LI":"建南里","LIN":"23鄰","STREET":"永成路","SECT":"二段","MAREA":" ","LANE":" ","ALLEY":" ","HOUSE_NO":"６５２之２號","E_COORD97":167519.72325400001,"N_COORD97":2539180.1343899998,"ADDRESS":"永成路二段６５２之２號","OBJECTID":648547},"geometry":{"x":167519.7232540017,"y":2539180.1343920007}},{"attributes":{"ID":648575,"DIS_CODE":0,"TOWNNAME":"南區","LI":"建南里","LIN":"23鄰","STREET":"永成路","SECT":"二段","MAREA":" ","LANE":" ","ALLEY":" ","HOUSE_NO":"６６５號","E_COORD97":167480.968601,"N_COORD97":2539233.5802000002,"ADDRESS":"永成路二段６６５號","OBJECTID":648548},"geometry":{"x":167480.96860099956,"y":2539233.5801960006}},{"attributes":{"ID":648576,"DIS_CODE":0,"TOWNNAME":"北門區","LI":"雙春里","LIN":"3鄰","STREET":" ","SECT":" ","MAREA":"雙春","LANE":" ","ALLEY":" ","HOUSE_NO":"１９號","E_COORD97":160970.16204600001,"N_COORD97":2577824.8716099998,"ADDRESS":"雙春１９號","OBJECTID":648549},"geometry":{"x":160970.16204600222,"y":2577824.8716080021}},{"attributes":{"ID":648577,"DIS_CODE":0,"TOWNNAME":"南區","LI":"彰南里","LIN":"6鄰","STREET":"新建路","SECT":" ","MAREA":" ","LANE":" ","ALLEY":" ","HOUSE_NO":"１２號","E_COORD97":166437.346035,"N_COORD97":2541358.2890499998,"ADDRESS":"新建路１２號","OBJECTID":648550},"geometry":{"x":166437.34603500087,"y":2541358.2890490033}},{"attributes":{"ID":648578,"DIS_CODE":0,"TOWNNAME":"北門區","LI":"雙春里","LIN":"3鄰","STREET":" ","SECT":" ","MAREA":"雙春","LANE":" ","ALLEY":" ","HOUSE_NO":"２２號之１","E_COORD97":160923.32828300001,"N_COORD97":2577814.4999500001,"ADDRESS":"雙春２２號之１","OBJECTID":648551},"geometry":{"x":160923.32828299981,"y":2577814.4999470022}},{"attributes":{"ID":648579,"DIS_CODE":0,"TOWNNAME":"北門區","LI":"雙春里","LIN":"3鄰","STREET":" ","SECT":" ","MAREA":"雙春","LANE":" ","ALLEY":" ","HOUSE_NO":"２１號","E_COORD97":160934.98374500001,"N_COORD97":2577826.1416099998,"ADDRESS":"雙春２１號","OBJECTID":648552},"geometry":{"x":160934.98374500033,"y":2577826.1416080017}},{"attributes":{"ID":648580,"DIS_CODE":0,"TOWNNAME":"南區","LI":"明興里","LIN":"19鄰","STREET":"德興路","SECT":" ","MAREA":" ","LANE":"１３０巷","ALLEY":" ","HOUSE_NO":"６７號","E_COORD97":167155.47187199999,"N_COORD97":2540403.6729000001,"ADDRESS":"德興路１３０巷６７號","OBJECTID":648553},"geometry":{"x":167155.47187200096,"y":2540403.672898002}},{"attributes":{"ID":648581,"DIS_CODE":0,"TOWNNAME":"南區","LI":"再興里","LIN":"8鄰","STREET":"三官路","SECT":" ","MAREA":" ","LANE":"７０巷","ALLEY":" ","HOUSE_NO":"５８號","E_COORD97":167191.15580099999,"N_COORD97":2542293.88167,"ADDRESS":"三官路７０巷５８號","OBJECTID":648554},"geometry":{"x":167191.15580100194,"y":2542293.8816689979}},{"attributes":{"ID":648582,"DIS_CODE":0,"TOWNNAME":"中西區","LI":"郡西里","LIN":"8鄰","STREET":"海安路","SECT":"一段","MAREA":" ","LANE":" ","ALLEY":" ","HOUSE_NO":"６９號","E_COORD97":167456.37760800001,"N_COORD97":2543329.24553,"ADDRESS":"海安路一段６９號","OBJECTID":648555},"geometry":{"x":167456.3776080003,"y":2543329.2455280013}},{"attributes":{"ID":648583,"DIS_CODE":0,"TOWNNAME":"安平區","LI":"金城里","LIN":"13鄰","STREET":"世平五街","SECT":" ","MAREA":" ","LANE":"４０巷","ALLEY":" ","HOUSE_NO":"５５號","E_COORD97":162594.10608500001,"N_COORD97":2544208.4789700001,"ADDRESS":"世平五街４０巷５５號","OBJECTID":648556},"geometry":{"x":162594.10608499963,"y":2544208.4789700024}},{"attributes":{"ID":648584,"DIS_CODE":0,"TOWNNAME":"中西區","LI":"郡西里","LIN":"8鄰","STREET":"海","SECT":" ","MAREA":" ","LANE":" ","ALLEY":" ","HOUSE_NO":"６７號","E_COORD97":167455.53012400001,"N_COORD97":2543325.2238599998,"ADDRESS":"海６７號","OBJECTID":648557},"geometry":{"x":167455.5301240012,"y":2543325.2238640003}},{"attributes":{"ID":648585,"DIS_CODE":0,"TOWNNAME":"安平區","LI":"億載里","LIN":"14鄰","STREET":"平豐路","SECT":" ","MAREA":" ","LANE":"１０１巷","ALLEY":" ","HOUSE_NO":"１６號","E_COORD97":164270.08269400001,"N_COORD97":2543269.3144800002,"ADDRESS":"平豐路１０１巷１６號","OBJECTID":648558},"geometry":{"x":164270.08269400056,"y":2543269.3144770004}},{"attributes":{"ID":648586,"DIS_CODE":0,"TOWNNAME":"安平區","LI":"億載里","LIN":"14鄰","STREET":"平豐路","SECT":" ","MAREA":" ","LANE":"１０１巷","ALLEY":" ","HOUSE_NO":"１２號","E_COORD97":164274.95656699999,"N_COORD97":2543269.1028100001,"ADDRESS":"平豐路１０１巷１２號","OBJECTID":648559},"geometry":{"x":164274.95656699967,"y":2543269.1028109994}},{"attributes":{"ID":648587,"DIS_CODE":0,"TOWNNAME":"安平區","LI":"億載里","LIN":"13鄰","STREET":"光州五街","SECT":" ","MAREA":" ","LANE":" ","ALLEY":" ","HOUSE_NO":"３３號","E_COORD97":163987.18614899999,"N_COORD97":2543308.8961200002,"ADDRESS":"光州五街３３號","OBJECTID":648560},"geometry":{"x":163987.18614899926,"y":2543308.8961229995}},{"attributes":{"ID":648588,"DIS_CODE":0,"TOWNNAME":"安平區","LI":"建平里","LIN":"18鄰","STREET":"建平十一街","SECT":" ","MAREA":" ","LANE":" ","ALLEY":" ","HOUSE_NO":"２０５號","E_COORD97":165904.313521,"N_COORD97":2543946.2241099998,"ADDRESS":"建平十一街２０５號","OBJECTID":648561},"geometry":{"x":165904.31352100056,"y":2543946.2241120022}},{"attributes":{"ID":648589,"DIS_CODE":0,"TOWNNAME":"安平區","LI":"建平里","LIN":"18鄰","STREET":"怡平路","SECT":" ","MAREA":" ","LANE":"１４０巷","ALLEY":" ","HOUSE_NO":"３９號","E_COORD97":165902.406353,"N_COORD97":2543923.7874599998,"ADDRESS":"怡平路１４０巷３９號","OBJECTID":648562},"geometry":{"x":165902.40635300148,"y":2543923.7874570005}},{"attributes":{"ID":648590,"DIS_CODE":0,"TOWNNAME":"安平區","LI":"金城里","LIN":"15鄰","STREET":"安北路","SECT":" ","MAREA":" ","LANE":" ","ALLEY":" ","HOUSE_NO":"６１６號","E_COORD97":162716.80054200001,"N_COORD97":2544331.0339000002,"ADDRESS":"安北路６１６號","OBJECTID":648563},"geometry":{"x":162716.80054200068,"y":2544331.033904003}},{"attributes":{"ID":648591,"DIS_CODE":0,"TOWNNAME":"安平區","LI":"國平里","LIN":"2鄰","STREET":"建平七街","SECT":" ","MAREA":" ","LANE":"４５３巷","ALLEY":" ","HOUSE_NO":"８６號","E_COORD97":165426.67396099999,"N_COORD97":2543152.0512100002,"ADDRESS":"建平七街４５３巷８６號","OBJECTID":648564},"geometry":{"x":165426.67396100052,"y":2543152.0512070004}},{"attributes":{"ID":648592,"DIS_CODE":0,"TOWNNAME":"安平區","LI":"建平里","LIN":"7鄰","STREET":"建平十二街","SECT":" ","MAREA":" ","LANE":"２４巷","ALLEY":" ","HOUSE_NO":"５５號","E_COORD97":166388.73412099999,"N_COORD97":2544061.7940500001,"ADDRESS":"建平十二街２４巷５５號","OBJECTID":648565},"geometry":{"x":166388.73412100039,"y":2544061.7940490004}},{"attributes":{"ID":648593,"DIS_CODE":0,"TOWNNAME":"新化區","LI":"羊林里","LIN":"1鄰","STREET":" ","SECT":" ","MAREA":"\u25A0拔林","LANE":" ","ALLEY":" ","HOUSE_NO":"４３１號之９","E_COORD97":183910.50610999999,"N_COORD97":2551643.6848499998,"ADDRESS":"\u25A0拔林４３１號之９","OBJECTID":648566},"geometry":{"x":183910.50611000042,"y":2551643.6848540027}},{"attributes":{"ID":648594,"DIS_CODE":0,"TOWNNAME":"安平區","LI":"億載里","LIN":"17鄰","STREET":"光州二街","SECT":" ","MAREA":" ","LANE":" ","ALLEY":" ","HOUSE_NO":"１０６號","E_COORD97":164287.671019,"N_COORD97":2543046.2179299998,"ADDRESS":"光州二街１０６號","OBJECTID":648567},"geometry":{"x":164287.67101900093,"y":2543046.2179310005}},{"attributes":{"ID":648595,"DIS_CODE":0,"TOWNNAME":"安平區","LI":"億載里","LIN":"17鄰","STREET":"光州二街","SECT":" ","MAREA":" ","LANE":" ","ALLEY":" ","HOUSE_NO":"１０８號","E_COORD97":164292.33298400001,"N_COORD97":2543046.4295999999,"ADDRESS":"光州二街１０８號","OBJECTID":648568},"geometry":{"x":164292.33298400044,"y":2543046.4295980018}},{"attributes":{"ID":648596,"DIS_CODE":0,"TOWNNAME":"安平區","LI":"平通里","LIN":"8鄰","STREET":"平通路","SECT":" ","MAREA":" ","LANE":"５８０巷","ALLEY":" ","HOUSE_NO":"１３７號","E_COORD97":164968.52989400001,"N_COORD97":2544219.0622999999,"ADDRESS":"平通路５８０巷１３７號","OBJECTID":648569},"geometry":{"x":164968.52989399992,"y":2544219.062297998}},{"attributes":{"ID":648597,"DIS_CODE":0,"TOWNNAME":"新化區","LI":"羊林里","LIN":"1鄰","STREET":" ","SECT":" ","MAREA":"\u25A0拔林","LANE":" ","ALLEY":" ","HOUSE_NO":"４５４號之１","E_COORD97":183626.04621299999,"N_COORD97":2551756.05333,"ADDRESS":"\u25A0拔林４５４號之１","OBJECTID":648570},"geometry":{"x":183626.04621300008,"y":2551756.0533349998}},{"attributes":{"ID":648598,"DIS_CODE":0,"TOWNNAME":"安平區","LI":"漁光里","LIN":"1鄰","STREET":"漁光路","SECT":" ","MAREA":" ","LANE":" ","ALLEY":" ","HOUSE_NO":"４３號","E_COORD97":164120.89979699999,"N_COORD97":2541694.0919900001,"ADDRESS":"漁光路４３號","OBJECTID":648571},"geometry":{"x":164120.89979700185,"y":2541694.0919950008}},{"attributes":{"ID":648599,"DIS_CODE":0,"TOWNNAME":"安平區","LI":"國平里","LIN":"2鄰","STREET":"建平七街","SECT":" ","MAREA":" ","LANE":" ","ALLEY":" ","HOUSE_NO":"４５７號","E_COORD97":165443.20274800001,"N_COORD97":2543332.8144399999,"ADDRESS":"建平七街４５７號","OBJECTID":648572},"geometry":{"x":165443.20274800062,"y":2543332.8144429978}},{"attributes":{"ID":648600,"DIS_CODE":0,"TOWNNAME":"下營區","LI":"大埤里","LIN":"1鄰","STREET":" ","SECT":" ","MAREA":"大埤寮","LANE":" ","ALLEY":" ","HOUSE_NO":"１之７號","E_COORD97":173197.18082400001,"N_COORD97":2569846.96722,"ADDRESS":"大埤寮１之７號","OBJECTID":648573},"geometry":{"x":173197.18082400225,"y":2569846.9672149997}},{"attributes":{"ID":648601,"DIS_CODE":0,"TOWNNAME":"安平區","LI":"億載里","LIN":"1鄰","STREET":"永華十一街","SECT":" ","MAREA":" ","LANE":" ","ALLEY":" ","HOUSE_NO":"１３６號","E_COORD97":164087.84222300001,"N_COORD97":2543756.1475499999,"ADDRESS":"永華十一街１３６號","OBJECTID":648574},"geometry":{"x":164087.84222299978,"y":2543756.1475480013}},{"attributes":{"ID":648602,"DIS_CODE":0,"TOWNNAME":"安平區","LI":"億載里","LIN":"1鄰","STREET":"永華十一街","SECT":" ","MAREA":" ","LANE":" ","ALLEY":" ","HOUSE_NO":"１３８號","E_COORD97":164086.99459300001,"N_COORD97":2543761.6508800001,"ADDRESS":"永華十一街１３８號","OBJECTID":648575},"geometry":{"x":164086.99459300097,"y":2543761.6508780029}},{"attributes":{"ID":648603,"DIS_CODE":0,"TOWNNAME":"安平區","LI":"億載里","LIN":"1鄰","STREET":"永華十一街","SECT":" ","MAREA":" ","LANE":" ","ALLEY":" ","HOUSE_NO":"１４０號","E_COORD97":164085.93505599999,"N_COORD97":2543767.7892100001,"ADDRESS":"永華十一街１４０號","OBJECTID":648576},"geometry":{"x":164085.93505600002,"y":2543767.7892080005}},{"attributes":{"ID":648604,"DIS_CODE":0,"TOWNNAME":"中西區","LI":"仙草里","LIN":"15鄰","STREET":"五妃街","SECT":" ","MAREA":" ","LANE":"３０９巷","ALLEY":" ","HOUSE_NO":"１６號之１","E_COORD97":167886.056293,"N_COORD97":2542521.9129300001,"ADDRESS":"五妃街３０９巷１６號之１","OBJECTID":648577},"geometry":{"x":167886.05629299954,"y":2542521.9129310008}},{"attributes":{"ID":648605,"DIS_CODE":0,"TOWNNAME":"北門區","LI":"雙春里","LIN":"5鄰","STREET":" ","SECT":" ","MAREA":"雙春","LANE":" ","ALLEY":" ","HOUSE_NO":"３５號之５","E_COORD97":160334.81750400001,"N_COORD97":2578143.91133,"ADDRESS":"雙春３５號之５","OBJECTID":648578},"geometry":{"x":160334.81750399992,"y":2578143.9113250021}},{"attributes":{"ID":648606,"DIS_CODE":0,"TOWNNAME":"安平區","LI":"億載里","LIN":"14鄰","STREET":"府平路","SECT":" ","MAREA":" ","LANE":"４８２巷","ALLEY":" ","HOUSE_NO":"７號","E_COORD97":164266.692174,"N_COORD97":2543144.4312100001,"ADDRESS":"府平路４８２巷７號","OBJECTID":648579},"geometry":{"x":164266.6921739988,"y":2543144.4312110003}},{"attributes":{"ID":648607,"DIS_CODE":0,"TOWNNAME":"安平區","LI":"億載里","LIN":"14鄰","STREET":"府平路","SECT":" ","MAREA":" ","LANE":"４８２巷","ALLEY":" ","HOUSE_NO":"９號","E_COORD97":164265.84454399999,"N_COORD97":2543152.0512100002,"ADDRESS":"府平路４８２巷９號","OBJECTID":648580},"geometry":{"x":164265.84454400092,"y":2543152.0512070004}},{"attributes":{"ID":648608,"DIS_CODE":0,"TOWNNAME":"北門區","LI":"雙春里","LIN":"5鄰","STREET":" ","SECT":" ","MAREA":"雙春","LANE":" ","ALLEY":" ","HOUSE_NO":"３５之１１號","E_COORD97":160555.423602,"N_COORD97":2577654.0090899998,"ADDRESS":"雙春３５之１１號","OBJECTID":648581},"geometry":{"x":160555.42360200081,"y":2577654.0090890042}},{"attributes":{"ID":648609,"DIS_CODE":0,"TOWNNAME":"安平區","LI":"港仔里","LIN":"1鄰","STREET":"安平路","SECT":" ","MAREA":" ","LANE":" ","ALLEY":" ","HOUSE_NO":"３１號","E_COORD97":164661.68779900001,"N_COORD97":2544427.3421900002,"ADDRESS":"安平路３１號","OBJECTID":648582},"geometry":{"x":164661.68779900204,"y":2544427.342185}},{"attributes":{"ID":648610,"DIS_CODE":0,"TOWNNAME":"安平區","LI":"港仔里","LIN":"1鄰","STREET":"安平路","SECT":" ","MAREA":" ","LANE":" ","ALLEY":" ","HOUSE_NO":"３１之１號","E_COORD97":164656.39011099999,"N_COORD97":2544429.2471799999,"ADDRESS":"安平路３１之１號","OBJECTID":648583},"geometry":{"x":164656.39011100121,"y":2544429.2471840046}},{"attributes":{"ID":648611,"DIS_CODE":0,"TOWNNAME":"安平區","LI":"港仔里","LIN":"1鄰","STREET":"安平路","SECT":" ","MAREA":" ","LANE":" ","ALLEY":" ","HOUSE_NO":"３１之２號","E_COORD97":164650.45670000001,"N_COORD97":2544430.51718,"ADDRESS":"安平路３１之２號","OBJECTID":648584},"geometry":{"x":164650.45669999998,"y":2544430.5171840023}},{"attributes":{"ID":648612,"DIS_CODE":0,"TOWNNAME":"安平區","LI":"金城里","LIN":"15鄰","STREET":"州平二街","SECT":" ","MAREA":" ","LANE":"３８巷","ALLEY":" ","HOUSE_NO":"２２號","E_COORD97":162939.09153500001,"N_COORD97":2544527.0371300001,"ADDRESS":"州平二街３８巷２２號","OBJECTID":648585},"geometry":{"x":162939.09153500013,"y":2544527.0371310003}},{"attributes":{"ID":648613,"DIS_CODE":0,"TOWNNAME":"安平區","LI":"金城里","LIN":"15鄰","STREET":"州平二街","SECT":" ","MAREA":" ","LANE":"３８巷","ALLEY":" ","HOUSE_NO":"２０號","E_COORD97":162933.15812400001,"N_COORD97":2544525.9788000002,"ADDRESS":"州平二街３８巷２０號","OBJECTID":648586},"geometry":{"x":162933.15812400077,"y":2544525.9787990022}},{"attributes":{"ID":648614,"DIS_CODE":0,"TOWNNAME":"後壁區","LI":"仕安里","LIN":"10鄰","STREET":" ","SECT":" ","MAREA":"下長","LANE":" ","ALLEY":" ","HOUSE_NO":"８１號之２５","E_COORD97":179955.97781400001,"N_COORD97":2582619.49266,"ADDRESS":"下長８１號之２５","OBJECTID":648587},"geometry":{"x":179955.97781399917,"y":2582619.4926650021}},{"attributes":{"ID":648615,"DIS_CODE":0,"TOWNNAME":"北門區","LI":"雙春里","LIN":"1鄰","STREET":" ","SECT":" ","MAREA":"雙春","LANE":" ","ALLEY":" ","HOUSE_NO":"３之１號","E_COORD97":161009.986599,"N_COORD97":2577763.9698600001,"ADDRESS":"雙春３之１號","OBJECTID":648588},"geometry":{"x":161009.98659900017,"y":2577763.9698629994}},{"attributes":{"ID":648616,"DIS_CODE":0,"TOWNNAME":"北門區","LI":"雙春里","LIN":"5鄰","STREET":" ","SECT":" ","MAREA":"雙春","LANE":" ","ALLEY":" ","HOUSE_NO":"３３之１號","E_COORD97":160860.796692,"N_COORD97":2577758.7840300002,"ADDRESS":"雙春３３之１號","OBJECTID":648589},"geometry":{"x":160860.7966920007,"y":2577758.7840330023}},{"attributes":{"ID":648617,"DIS_CODE":0,"TOWNNAME":"北門區","LI":"雙春里","LIN":"4鄰","STREET":" ","SECT":" ","MAREA":"雙春","LANE":" ","ALLEY":" ","HOUSE_NO":"３０號之","E_COORD97":160863.76353699999,"N_COORD97":2577772.75403,"ADDRESS":"雙春３０號之","OBJECTID":648590},"geometry":{"x":160863.76353699993,"y":2577772.7540250011}},{"attributes":{"ID":648618,"DIS_CODE":0,"TOWNNAME":"北門區","LI":"雙春里","LIN":"4鄰","STREET":" ","SECT":" ","MAREA":"雙春","LANE":" ","ALLEY":" ","HOUSE_NO":"２９號之１","E_COORD97":160886.86254199999,"N_COORD97":2577813.7115000002,"ADDRESS":"雙春２９號之１","OBJECTID":648591},"geometry":{"x":160886.8625420006,"y":2577813.7115030009}},{"attributes":{"ID":648619,"DIS_CODE":0,"TOWNNAME":"北門區","LI":"雙春里","LIN":"6鄰","STREET":" ","SECT":" ","MAREA":"雙春","LANE":" ","ALLEY":" ","HOUSE_NO":"３９之１號","E_COORD97":160908.05429,"N_COORD97":2577795.5081799999,"ADDRESS":"雙春３９之１號","OBJECTID":648592},"geometry":{"x":160908.05429000035,"y":2577795.5081790015}},{"attributes":{"ID":648620,"DIS_CODE":0,"TOWNNAME":"北門區","LI":"雙春里","LIN":"9鄰","STREET":" ","SECT":" ","MAREA":"雙春","LANE":" ","ALLEY":" ","HOUSE_NO":"６４號","E_COORD97":160945.35176699999,"N_COORD97":2577764.9223600002,"ADDRESS":"雙春６４號","OBJECTID":648593},"geometry":{"x":160945.35176699981,"y":2577764.922363}},{"attributes":{"ID":648621,"DIS_CODE":0,"TOWNNAME":"北門區","LI":"雙春里","LIN":"9鄰","STREET":" ","SECT":" ","MAREA":"雙春","LANE":" ","ALLEY":" ","HOUSE_NO":"６６號","E_COORD97":160960.82174300001,"N_COORD97":2577742.06238,"ADDRESS":"雙春６６號","OBJECTID":648594},"geometry":{"x":160960.8217430003,"y":2577742.0623749997}},{"attributes":{"ID":648622,"DIS_CODE":0,"TOWNNAME":"北門區","LI":"雙春里","LIN":"10鄰","STREET":" ","SECT":" ","MAREA":"雙春","LANE":" ","ALLEY":" ","HOUSE_NO":"６７號","E_COORD97":160971.20569999999,"N_COORD97":2577736.3473800002,"ADDRESS":"雙春６７號","OBJECTID":648595},"geometry":{"x":160971.20569999982,"y":2577736.3473780006}},{"attributes":{"ID":648623,"DIS_CODE":0,"TOWNNAME":"安平區","LI":"文平里","LIN":"12鄰","STREET":"永華四街","SECT":" ","MAREA":" ","LANE":"１７巷","ALLEY":" ","HOUSE_NO":"３號","E_COORD97":165909.611209,"N_COORD97":2543177.2395299999,"ADDRESS":"永華四街１７巷３號","OBJECTID":648596},"geometry":{"x":165909.61120900046,"y":2543177.239527002}},{"attributes":{"ID":648624,"DIS_CODE":0,"TOWNNAME":"安平區","LI":"文平里","LIN":"12鄰","STREET":"永華四街","SECT":" ","MAREA":" ","LANE":"１７巷","ALLEY":" ","HOUSE_NO":"５號","E_COORD97":165904.73733599999,"N_COORD97":2543177.66286,"ADDRESS":"永華四街１７巷５號","OBJECTID":648597},"geometry":{"x":165904.73733600136,"y":2543177.6628600005}},{"attributes":{"ID":648625,"DIS_CODE":0,"TOWNNAME":"安平區","LI":"文平里","LIN":"12鄰","STREET":"永華四街","SECT":" ","MAREA":" ","LANE":"１７巷","ALLEY":" ","HOUSE_NO":"７號","E_COORD97":165899.01583300001,"N_COORD97":2543178.2978599998,"ADDRESS":"永華四街１７巷７號","OBJECTID":648598},"geometry":{"x":165899.01583299972,"y":2543178.2978600003}},{"attributes":{"ID":648626,"DIS_CODE":0,"TOWNNAME":"安平區","LI":"文平里","LIN":"12鄰","STREET":"永華四街","SECT":" ","MAREA":" ","LANE":"１７巷","ALLEY":" ","HOUSE_NO":"９號","E_COORD97":165893.93005200001,"N_COORD97":2543178.9328600001,"ADDRESS":"永華四街１７巷９號","OBJECTID":648599},"geometry":{"x":165893.93005200196,"y":2543178.9328590017}},{"attributes":{"ID":648627,"DIS_CODE":0,"TOWNNAME":"北門區","LI":"雙春里","LIN":"10鄰","STREET":" ","SECT":" ","MAREA":"雙春","LANE":" ","ALLEY":" ","HOUSE_NO":"７２號之１","E_COORD97":161018.88713300001,"N_COORD97":2577727.7748799999,"ADDRESS":"雙春７２號之１","OBJECTID":648600},"geometry":{"x":161018.88713300135,"y":2577727.7748830002}}]}