{"displayFieldName":"TOWNNAME","fieldAliases":{"ID":"ID","DIS_CODE":"DIS_CODE","TOWNNAME":"TOWNNAME","LI":"LI","LIN":"LIN","STREET":"STREET","SECT":"SECT","MAREA":"MAREA","LANE":"LANE","ALLEY":"ALLEY","HOUSE_NO":"HOUSE_NO","E_COORD97":"E_COORD97","N_COORD97":"N_COORD97","ADDRESS":"ADDRESS","OBJECTID":"OBJECTID"},"geometryType":"esriGeometryPoint","spatialReference":{"wkid":102443,"latestWkid":3826},"fields":[{"name":"ID","type":"esriFieldTypeDouble","alias":"ID"},{"name":"DIS_CODE","type":"esriFieldTypeInteger","alias":"DIS_CODE"},{"name":"TOWNNAME","type":"esriFieldTypeString","alias":"TOWNNAME","length":8},{"name":"LI","type":"esriFieldTypeString","alias":"LI","length":8},{"name":"LIN","type":"esriFieldTypeString","alias":"LIN","length":12},{"name":"STREET","type":"esriFieldTypeString","alias":"STREET","length":20},{"name":"SECT","type":"esriFieldTypeString","alias":"SECT","length":8},{"name":"MAREA","type":"esriFieldTypeString","alias":"MAREA","length":12},{"name":"LANE","type":"esriFieldTypeString","alias":"LANE","length":10},{"name":"ALLEY","type":"esriFieldTypeString","alias":"ALLEY","length":10},{"name":"HOUSE_NO","type":"esriFieldTypeString","alias":"HOUSE_NO","length":20},{"name":"E_COORD97","type":"esriFieldTypeDouble","alias":"E_COORD97"},{"name":"N_COORD97","type":"esriFieldTypeDouble","alias":"N_COORD97"},{"name":"ADDRESS","type":"esriFieldTypeString","alias":"ADDRESS","length":50},{"name":"OBJECTID","type":"esriFieldTypeOID","alias":"OBJECTID"}],"features":[{"attributes":{"ID":644028,"DIS_CODE":0,"TOWNNAME":"鹽水區","LI":"橋南里","LIN":"6鄰","STREET":"南門路","SECT":" ","MAREA":" ","LANE":" ","ALLEY":" ","HOUSE_NO":"１１７號","E_COORD97":175296.20999999999,"N_COORD97":2579150.2799999998,"ADDRESS":"南門路１１７號","OBJECTID":644001},"geometry":{"x":175296.21000000089,"y":2579150.2800000012}},{"attributes":{"ID":644029,"DIS_CODE":0,"TOWNNAME":"鹽水區","LI":"橋南里","LIN":"6鄰","STREET":"南門路","SECT":" ","MAREA":" ","LANE":" ","ALLEY":" ","HOUSE_NO":"１２３號","E_COORD97":175314.87,"N_COORD97":2579147.7599999998,"ADDRESS":"南門路１２３號","OBJECTID":644002},"geometry":{"x":175314.87000000011,"y":2579147.7600000016}},{"attributes":{"ID":644030,"DIS_CODE":0,"TOWNNAME":"鹽水區","LI":"橋南里","LIN":"6鄰","STREET":"南門路","SECT":" ","MAREA":" ","LANE":" ","ALLEY":" ","HOUSE_NO":"１２９號","E_COORD97":175300.97,"N_COORD97":2579130.3799999999,"ADDRESS":"南門路１２９號","OBJECTID":644003},"geometry":{"x":175300.97000000067,"y":2579130.379999999}},{"attributes":{"ID":644031,"DIS_CODE":0,"TOWNNAME":"鹽水區","LI":"水秀里","LIN":"13鄰","STREET":"清泉路","SECT":" ","MAREA":" ","LANE":" ","ALLEY":" ","HOUSE_NO":"１６號","E_COORD97":175263.57000000001,"N_COORD97":2580073.7799999998,"ADDRESS":"清泉路１６號","OBJECTID":644004},"geometry":{"x":175263.57000000216,"y":2580073.7799999993}},{"attributes":{"ID":644032,"DIS_CODE":0,"TOWNNAME":"鹽水區","LI":"水正里","LIN":"14鄰","STREET":"康樂路","SECT":" ","MAREA":" ","LANE":" ","ALLEY":" ","HOUSE_NO":"１０號之１","E_COORD97":175108.48000000001,"N_COORD97":2579667.4199999999,"ADDRESS":"康樂路１０號之１","OBJECTID":644005},"geometry":{"x":175108.48000000138,"y":2579667.4199999999}},{"attributes":{"ID":644033,"DIS_CODE":0,"TOWNNAME":"鹽水區","LI":"水正里","LIN":"14鄰","STREET":"康樂路","SECT":" ","MAREA":" ","LANE":" ","ALLEY":" ","HOUSE_NO":"１０號之２","E_COORD97":175114.95000000001,"N_COORD97":2579667.7200000002,"ADDRESS":"康樂路１０號之２","OBJECTID":644006},"geometry":{"x":175114.95000000205,"y":2579667.7200000025}},{"attributes":{"ID":644034,"DIS_CODE":0,"TOWNNAME":"鹽水區","LI":"水正里","LIN":"14鄰","STREET":"康樂路","SECT":" ","MAREA":" ","LANE":" ","ALLEY":" ","HOUSE_NO":"１０號之３","E_COORD97":175105.25,"N_COORD97":2579664.48,"ADDRESS":"康樂路１０號之３","OBJECTID":644007},"geometry":{"x":175105.25,"y":2579664.4800000042}},{"attributes":{"ID":644035,"DIS_CODE":0,"TOWNNAME":"鹽水區","LI":"水正里","LIN":"14鄰","STREET":"康樂路","SECT":" ","MAREA":" ","LANE":" ","ALLEY":" ","HOUSE_NO":"１０號之５","E_COORD97":175117.54999999999,"N_COORD97":2579670.9700000002,"ADDRESS":"康樂路１０號之５","OBJECTID":644008},"geometry":{"x":175117.55000000075,"y":2579670.9700000007}},{"attributes":{"ID":644036,"DIS_CODE":0,"TOWNNAME":"鹽水區","LI":"福得里","LIN":"1鄰","STREET":"康樂路","SECT":" ","MAREA":" ","LANE":" ","ALLEY":" ","HOUSE_NO":"１０５號","E_COORD97":175194.14999999999,"N_COORD97":2579960.2200000002,"ADDRESS":"康樂路１０５號","OBJECTID":644009},"geometry":{"x":175194.1500000013,"y":2579960.2200000007}},{"attributes":{"ID":644037,"DIS_CODE":0,"TOWNNAME":"鹽水區","LI":"福得里","LIN":"1鄰","STREET":"康樂路","SECT":" ","MAREA":" ","LANE":" ","ALLEY":" ","HOUSE_NO":"１０７號之１","E_COORD97":175206.29000000001,"N_COORD97":2579962.1600000001,"ADDRESS":"康樂路１０７號之１","OBJECTID":644010},"geometry":{"x":175206.29000000097,"y":2579962.160000002}},{"attributes":{"ID":644038,"DIS_CODE":0,"TOWNNAME":"鹽水區","LI":"福得里","LIN":"4鄰","STREET":"康樂路","SECT":" ","MAREA":" ","LANE":" ","ALLEY":" ","HOUSE_NO":"１４１號","E_COORD97":175266.06,"N_COORD97":2580010.3300000001,"ADDRESS":"康樂路１４１號","OBJECTID":644011},"geometry":{"x":175266.05999999866,"y":2580010.3300000001}},{"attributes":{"ID":644039,"DIS_CODE":0,"TOWNNAME":"鹽水區","LI":"福得里","LIN":"7鄰","STREET":"康樂路","SECT":" ","MAREA":" ","LANE":" ","ALLEY":" ","HOUSE_NO":"１５２號","E_COORD97":175338.89000000001,"N_COORD97":2580008.98,"ADDRESS":"康樂路１５２號","OBJECTID":644012},"geometry":{"x":175338.8900000006,"y":2580008.9800000004}},{"attributes":{"ID":644040,"DIS_CODE":0,"TOWNNAME":"鹽水區","LI":"福得里","LIN":"7鄰","STREET":"康樂路","SECT":" ","MAREA":" ","LANE":" ","ALLEY":" ","HOUSE_NO":"１６０號","E_COORD97":175357.62,"N_COORD97":2580014.6600000001,"ADDRESS":"康樂路１６０號","OBJECTID":644013},"geometry":{"x":175357.62000000011,"y":2580014.6600000001}},{"attributes":{"ID":644041,"DIS_CODE":0,"TOWNNAME":"鹽水區","LI":"福得里","LIN":"7鄰","STREET":"康樂路","SECT":" ","MAREA":" ","LANE":" ","ALLEY":" ","HOUSE_NO":"１６２號","E_COORD97":175361.84,"N_COORD97":2580016.4300000002,"ADDRESS":"康樂路１６２號","OBJECTID":644014},"geometry":{"x":175361.84000000078,"y":2580016.4299999978}},{"attributes":{"ID":644042,"DIS_CODE":0,"TOWNNAME":"鹽水區","LI":"福得里","LIN":"7鄰","STREET":"康樂路","SECT":" ","MAREA":" ","LANE":" ","ALLEY":" ","HOUSE_NO":"１７３號","E_COORD97":175349.84,"N_COORD97":2580043.1099999999,"ADDRESS":"康樂路１７３號","OBJECTID":644015},"geometry":{"x":175349.84000000078,"y":2580043.1100000013}},{"attributes":{"ID":644043,"DIS_CODE":0,"TOWNNAME":"鹽水區","LI":"福得里","LIN":"7鄰","STREET":"康樂路","SECT":" ","MAREA":" ","LANE":" ","ALLEY":" ","HOUSE_NO":"１８１號","E_COORD97":175364.20999999999,"N_COORD97":2580039.29,"ADDRESS":"康樂路１８１號","OBJECTID":644016},"geometry":{"x":175364.21000000089,"y":2580039.2899999991}},{"attributes":{"ID":644044,"DIS_CODE":0,"TOWNNAME":"鹽水區","LI":"福得里","LIN":"7鄰","STREET":"康樂路","SECT":" ","MAREA":" ","LANE":" ","ALLEY":" ","HOUSE_NO":"１９０號","E_COORD97":175410.16,"N_COORD97":2580043.1699999999,"ADDRESS":"康樂路１９０號","OBJECTID":644017},"geometry":{"x":175410.16000000201,"y":2580043.1700000018}},{"attributes":{"ID":644045,"DIS_CODE":0,"TOWNNAME":"鹽水區","LI":"福得里","LIN":"7鄰","STREET":"康樂路","SECT":" ","MAREA":" ","LANE":" ","ALLEY":" ","HOUSE_NO":"１９２號","E_COORD97":175415.17000000001,"N_COORD97":2580046.0800000001,"ADDRESS":"康樂路１９２號","OBJECTID":644018},"geometry":{"x":175415.17000000086,"y":2580046.0800000001}},{"attributes":{"ID":644046,"DIS_CODE":0,"TOWNNAME":"鹽水區","LI":"福得里","LIN":"6鄰","STREET":"康樂路","SECT":" ","MAREA":" ","LANE":" ","ALLEY":" ","HOUSE_NO":"１６５號之２","E_COORD97":175327.06,"N_COORD97":2580031.1699999999,"ADDRESS":"康樂路１６５號之２","OBJECTID":644019},"geometry":{"x":175327.05999999866,"y":2580031.1699999999}},{"attributes":{"ID":644047,"DIS_CODE":0,"TOWNNAME":"鹽水區","LI":"福得里","LIN":"6鄰","STREET":"康樂路","SECT":" ","MAREA":" ","LANE":" ","ALLEY":" ","HOUSE_NO":"１６５號","E_COORD97":175322.91,"N_COORD97":2580029.5499999998,"ADDRESS":"康樂路１６５號","OBJECTID":644020},"geometry":{"x":175322.91000000015,"y":2580029.5500000007}},{"attributes":{"ID":644048,"DIS_CODE":0,"TOWNNAME":"鹽水區","LI":"福得里","LIN":"6鄰","STREET":"康樂路","SECT":" ","MAREA":" ","LANE":" ","ALLEY":" ","HOUSE_NO":"１６７號之１","E_COORD97":175335.51999999999,"N_COORD97":2580035.2000000002,"ADDRESS":"康樂路１６７號之１","OBJECTID":644021},"geometry":{"x":175335.51999999955,"y":2580035.2000000011}},{"attributes":{"ID":644049,"DIS_CODE":0,"TOWNNAME":"鹽水區","LI":"福得里","LIN":"6鄰","STREET":"康樂路","SECT":" ","MAREA":" ","LANE":" ","ALLEY":" ","HOUSE_NO":"１６７號","E_COORD97":175339.44,"N_COORD97":2580037.48,"ADDRESS":"康樂路１６７號","OBJECTID":644022},"geometry":{"x":175339.44000000134,"y":2580037.4800000042}},{"attributes":{"ID":644050,"DIS_CODE":0,"TOWNNAME":"鹽水區","LI":"福得里","LIN":"6鄰","STREET":"康樂路","SECT":" ","MAREA":" ","LANE":" ","ALLEY":" ","HOUSE_NO":"１６９號","E_COORD97":175325.89999999999,"N_COORD97":2580047.1499999999,"ADDRESS":"康樂路１６９號","OBJECTID":644023},"geometry":{"x":175325.9000000013,"y":2580047.1500000022}},{"attributes":{"ID":644051,"DIS_CODE":0,"TOWNNAME":"鹽水區","LI":"福得里","LIN":"6鄰","STREET":"康樂路","SECT":" ","MAREA":" ","LANE":" ","ALLEY":" ","HOUSE_NO":"１７１號","E_COORD97":175346.26999999999,"N_COORD97":2580041.02,"ADDRESS":"康樂路１７１號","OBJECTID":644024},"geometry":{"x":175346.27000000048,"y":2580041.0200000014}},{"attributes":{"ID":644052,"DIS_CODE":0,"TOWNNAME":"鹽水區","LI":"水正里","LIN":"14鄰","STREET":"康樂路","SECT":" ","MAREA":" ","LANE":" ","ALLEY":" ","HOUSE_NO":"５號","E_COORD97":175079.32000000001,"N_COORD97":2579635.8999999999,"ADDRESS":"康樂路５號","OBJECTID":644025},"geometry":{"x":175079.32000000123,"y":2579635.9000000022}},{"attributes":{"ID":644053,"DIS_CODE":0,"TOWNNAME":"鹽水區","LI":"水正里","LIN":"4鄰","STREET":"康樂路","SECT":" ","MAREA":" ","LANE":" ","ALLEY":" ","HOUSE_NO":"９３號","E_COORD97":175175.44,"N_COORD97":2579938.0299999998,"ADDRESS":"康樂路９３號","OBJECTID":644026},"geometry":{"x":175175.44000000041,"y":2579938.0300000012}},{"attributes":{"ID":644054,"DIS_CODE":0,"TOWNNAME":"鹽水區","LI":"水正里","LIN":"14鄰","STREET":"康樂路","SECT":" ","MAREA":" ","LANE":" ","ALLEY":" ","HOUSE_NO":"８號","E_COORD97":175095.79999999999,"N_COORD97":2579655.8199999998,"ADDRESS":"康樂路８號","OBJECTID":644027},"geometry":{"x":175095.80000000075,"y":2579655.8200000022}},{"attributes":{"ID":644055,"DIS_CODE":0,"TOWNNAME":"北區","LI":"成德里","LIN":"25鄰","STREET":"和緯路","SECT":"二段","MAREA":" ","LANE":" ","ALLEY":" ","HOUSE_NO":"２２３號","E_COORD97":168567.29000000001,"N_COORD97":2545845.7999999998,"ADDRESS":"和緯路二段２２３號","OBJECTID":644028},"geometry":{"x":168567.28999999911,"y":2545845.8000000007}},{"attributes":{"ID":644056,"DIS_CODE":0,"TOWNNAME":"北區","LI":"成德里","LIN":"25鄰","STREET":"和緯路","SECT":"二段","MAREA":" ","LANE":" ","ALLEY":" ","HOUSE_NO":"２２５號","E_COORD97":168555.66,"N_COORD97":2545848.1499999999,"ADDRESS":"和緯路二段２２５號","OBJECTID":644029},"geometry":{"x":168555.66000000015,"y":2545848.1500000022}},{"attributes":{"ID":644057,"DIS_CODE":0,"TOWNNAME":"北區","LI":"成德里","LIN":"25鄰","STREET":"和緯路","SECT":"二段","MAREA":" ","LANE":" ","ALLEY":" ","HOUSE_NO":"２２７號","E_COORD97":168545.03,"N_COORD97":2545849.2599999998,"ADDRESS":"和緯路二段２２７號","OBJECTID":644030},"geometry":{"x":168545.03000000026,"y":2545849.2599999998}},{"attributes":{"ID":644058,"DIS_CODE":0,"TOWNNAME":"北區","LI":"成德里","LIN":"25鄰","STREET":"和緯路","SECT":"二段","MAREA":" ","LANE":" ","ALLEY":" ","HOUSE_NO":"２２９號","E_COORD97":168531.37,"N_COORD97":2545850.21,"ADDRESS":"和緯路二段２２９號","OBJECTID":644031},"geometry":{"x":168531.37000000197,"y":2545850.2100000009}},{"attributes":{"ID":644059,"DIS_CODE":0,"TOWNNAME":"北區","LI":"成德里","LIN":"23鄰","STREET":"北成路","SECT":" ","MAREA":" ","LANE":" ","ALLEY":" ","HOUSE_NO":"４１２號","E_COORD97":168209.38,"N_COORD97":2546643.1299999999,"ADDRESS":"北成路４１２號","OBJECTID":644032},"geometry":{"x":168209.38000000082,"y":2546643.1300000027}},{"attributes":{"ID":644060,"DIS_CODE":0,"TOWNNAME":"北區","LI":"成德里","LIN":"34鄰","STREET":"育德路","SECT":" ","MAREA":" ","LANE":" ","ALLEY":" ","HOUSE_NO":"３６３號","E_COORD97":168644.88,"N_COORD97":2545891.6400000001,"ADDRESS":"育德路３６３號","OBJECTID":644033},"geometry":{"x":168644.88000000082,"y":2545891.6400000006}},{"attributes":{"ID":644061,"DIS_CODE":0,"TOWNNAME":"北區","LI":"成德里","LIN":"34鄰","STREET":"育德路","SECT":" ","MAREA":" ","LANE":" ","ALLEY":" ","HOUSE_NO":"４２１號","E_COORD97":168654.25,"N_COORD97":2545998.7999999998,"ADDRESS":"育德路４２１號","OBJECTID":644034},"geometry":{"x":168654.25000000093,"y":2545998.8000000007}},{"attributes":{"ID":644062,"DIS_CODE":0,"TOWNNAME":"新化區","LI":"武安里","LIN":"4鄰","STREET":"大同街","SECT":" ","MAREA":" ","LANE":" ","ALLEY":" ","HOUSE_NO":"３６號","E_COORD97":179008.88,"N_COORD97":2548184.25,"ADDRESS":"大同街３６號","OBJECTID":644035},"geometry":{"x":179008.87999999896,"y":2548184.25}},{"attributes":{"ID":644063,"DIS_CODE":0,"TOWNNAME":"北區","LI":"成德里","LIN":"20鄰","STREET":"文成三路","SECT":" ","MAREA":" ","LANE":" ","ALLEY":" ","HOUSE_NO":"２６９號","E_COORD97":168311.76000000001,"N_COORD97":2546303.1800000002,"ADDRESS":"文成三路２６９號","OBJECTID":644036},"geometry":{"x":168311.76000000071,"y":2546303.1799999997}},{"attributes":{"ID":644064,"DIS_CODE":0,"TOWNNAME":"北區","LI":"成德里","LIN":"20鄰","STREET":"文成三路","SECT":" ","MAREA":" ","LANE":" ","ALLEY":" ","HOUSE_NO":"２７１號","E_COORD97":168305.72,"N_COORD97":2546302.23,"ADDRESS":"文成三路２７１號","OBJECTID":644037},"geometry":{"x":168305.71999999974,"y":2546302.2300000023}},{"attributes":{"ID":644065,"DIS_CODE":0,"TOWNNAME":"北區","LI":"成德里","LIN":"20鄰","STREET":"文成三路","SECT":" ","MAREA":" ","LANE":" ","ALLEY":" ","HOUSE_NO":"２７３號","E_COORD97":168299.69,"N_COORD97":2546301.2799999998,"ADDRESS":"文成三路２７３號","OBJECTID":644038},"geometry":{"x":168299.69000000134,"y":2546301.2800000012}},{"attributes":{"ID":644066,"DIS_CODE":0,"TOWNNAME":"北區","LI":"成德里","LIN":"20鄰","STREET":"文成三路","SECT":" ","MAREA":" ","LANE":" ","ALLEY":" ","HOUSE_NO":"２７５號","E_COORD97":168293.5,"N_COORD97":2546299.3700000001,"ADDRESS":"文成三路２７５號","OBJECTID":644039},"geometry":{"x":168293.50000000093,"y":2546299.3700000029}},{"attributes":{"ID":644067,"DIS_CODE":0,"TOWNNAME":"北區","LI":"成德里","LIN":"20鄰","STREET":"文成三路","SECT":" ","MAREA":" ","LANE":" ","ALLEY":" ","HOUSE_NO":"２７７號","E_COORD97":168287.14999999999,"N_COORD97":2546297.79,"ADDRESS":"文成三路２７７號","OBJECTID":644040},"geometry":{"x":168287.14999999944,"y":2546297.790000001}},{"attributes":{"ID":644068,"DIS_CODE":0,"TOWNNAME":"北區","LI":"成德里","LIN":"20鄰","STREET":"文成三路","SECT":" ","MAREA":" ","LANE":" ","ALLEY":" ","HOUSE_NO":"２７９號","E_COORD97":168281.42999999999,"N_COORD97":2546296.6800000002,"ADDRESS":"文成三路２７９號","OBJECTID":644041},"geometry":{"x":168281.43000000063,"y":2546296.6799999997}},{"attributes":{"ID":644069,"DIS_CODE":0,"TOWNNAME":"北區","LI":"成德里","LIN":"20鄰","STREET":"文成三路","SECT":" ","MAREA":" ","LANE":" ","ALLEY":" ","HOUSE_NO":"２８１號","E_COORD97":168275.39999999999,"N_COORD97":2546294.9300000002,"ADDRESS":"文成三路２８１號","OBJECTID":644042},"geometry":{"x":168275.40000000224,"y":2546294.9299999997}},{"attributes":{"ID":644070,"DIS_CODE":0,"TOWNNAME":"北區","LI":"成德里","LIN":"20鄰","STREET":"育德二路","SECT":" ","MAREA":" ","LANE":" ","ALLEY":" ","HOUSE_NO":"４０２號","E_COORD97":168283.70000000001,"N_COORD97":2546276.4300000002,"ADDRESS":"育德二路４０２號","OBJECTID":644043},"geometry":{"x":168283.70000000112,"y":2546276.4300000016}},{"attributes":{"ID":644071,"DIS_CODE":0,"TOWNNAME":"北區","LI":"成德里","LIN":"20鄰","STREET":"育德二路","SECT":" ","MAREA":" ","LANE":" ","ALLEY":" ","HOUSE_NO":"４０６號","E_COORD97":168281.95000000001,"N_COORD97":2546280.71,"ADDRESS":"育德二路４０６號","OBJECTID":644044},"geometry":{"x":168281.95000000112,"y":2546280.7100000009}},{"attributes":{"ID":644072,"DIS_CODE":0,"TOWNNAME":"北區","LI":"成德里","LIN":"20鄰","STREET":"育德二路","SECT":" ","MAREA":" ","LANE":" ","ALLEY":" ","HOUSE_NO":"４０８號","E_COORD97":168279.57000000001,"N_COORD97":2546285.3199999998,"ADDRESS":"育德二路４０８號","OBJECTID":644045},"geometry":{"x":168279.57000000123,"y":2546285.3200000022}},{"attributes":{"ID":644073,"DIS_CODE":0,"TOWNNAME":"北區","LI":"成德里","LIN":"20鄰","STREET":"育德二路","SECT":" ","MAREA":" ","LANE":" ","ALLEY":" ","HOUSE_NO":"４１０號","E_COORD97":168277.19,"N_COORD97":2546289.6000000001,"ADDRESS":"育德二路４１０號","OBJECTID":644046},"geometry":{"x":168277.19000000134,"y":2546289.6000000015}},{"attributes":{"ID":644074,"DIS_CODE":0,"TOWNNAME":"北區","LI":"成功里","LIN":"26鄰","STREET":"北安路","SECT":"一段","MAREA":" ","LANE":" ","ALLEY":" ","HOUSE_NO":"３５０號","E_COORD97":168642.20000000001,"N_COORD97":2546780.4900000002,"ADDRESS":"北安路一段３５０號","OBJECTID":644047},"geometry":{"x":168642.20000000019,"y":2546780.4900000002}},{"attributes":{"ID":644075,"DIS_CODE":0,"TOWNNAME":"北區","LI":"成功里","LIN":"26鄰","STREET":"北安路","SECT":"一段","MAREA":" ","LANE":" ","ALLEY":" ","HOUSE_NO":"３５２號","E_COORD97":168644.10000000001,"N_COORD97":2546775.5699999998,"ADDRESS":"北安路一段３５２號","OBJECTID":644048},"geometry":{"x":168644.09999999963,"y":2546775.5700000003}},{"attributes":{"ID":644076,"DIS_CODE":0,"TOWNNAME":"北區","LI":"成德里","LIN":"18鄰","STREET":"北安路","SECT":"一段","MAREA":" ","LANE":" ","ALLEY":" ","HOUSE_NO":"１８７號","E_COORD97":168828.07000000001,"N_COORD97":2546485.02,"ADDRESS":"北安路一段１８７號","OBJECTID":644049},"geometry":{"x":168828.0700000003,"y":2546485.0200000033}},{"attributes":{"ID":644077,"DIS_CODE":0,"TOWNNAME":"北區","LI":"成德里","LIN":"32鄰","STREET":"育德路","SECT":" ","MAREA":" ","LANE":" ","ALLEY":" ","HOUSE_NO":"５７６號","E_COORD97":168735.53,"N_COORD97":2546293.3399999999,"ADDRESS":"育德路５７６號","OBJECTID":644050},"geometry":{"x":168735.53000000212,"y":2546293.3400000036}},{"attributes":{"ID":644078,"DIS_CODE":0,"TOWNNAME":"北區","LI":"成德里","LIN":"32鄰","STREET":"育德路","SECT":" ","MAREA":" ","LANE":" ","ALLEY":" ","HOUSE_NO":"５７８號","E_COORD97":168736.64000000001,"N_COORD97":2546298.8999999999,"ADDRESS":"育德路５７８號","OBJECTID":644051},"geometry":{"x":168736.6400000006,"y":2546298.9000000004}},{"attributes":{"ID":644079,"DIS_CODE":0,"TOWNNAME":"北區","LI":"裕民里","LIN":"4鄰","STREET":"臨安路","SECT":"二段","MAREA":" ","LANE":" ","ALLEY":" ","HOUSE_NO":"９２號","E_COORD97":167777.72,"N_COORD97":2544846.0800000001,"ADDRESS":"臨安路二段９２號","OBJECTID":644052},"geometry":{"x":167777.72000000067,"y":2544846.0800000001}},{"attributes":{"ID":644080,"DIS_CODE":0,"TOWNNAME":"北區","LI":"裕民里","LIN":"4鄰","STREET":"臨安路","SECT":"二段","MAREA":" ","LANE":" ","ALLEY":" ","HOUSE_NO":"９４號","E_COORD97":167783.44,"N_COORD97":2544847.5099999998,"ADDRESS":"臨安路二段９４號","OBJECTID":644053},"geometry":{"x":167783.43999999948,"y":2544847.5099999998}},{"attributes":{"ID":644081,"DIS_CODE":0,"TOWNNAME":"北區","LI":"文元里","LIN":"25鄰","STREET":"文成三路","SECT":" ","MAREA":" ","LANE":" ","ALLEY":" ","HOUSE_NO":"６９９號","E_COORD97":167696.54999999999,"N_COORD97":2546239.3700000001,"ADDRESS":"文成三路６９９號","OBJECTID":644054},"geometry":{"x":167696.55000000075,"y":2546239.370000001}},{"attributes":{"ID":644082,"DIS_CODE":0,"TOWNNAME":"北區","LI":"玉皇里","LIN":"14鄰","STREET":"忠義路","SECT":"三段","MAREA":" ","LANE":" ","ALLEY":" ","HOUSE_NO":"３８號","E_COORD97":168550.45000000001,"N_COORD97":2544456.04,"ADDRESS":"忠義路三段３８號","OBJECTID":644055},"geometry":{"x":168550.45000000019,"y":2544456.0399999991}},{"attributes":{"ID":644083,"DIS_CODE":0,"TOWNNAME":"北區","LI":"文元里","LIN":"22鄰","STREET":"文成路","SECT":" ","MAREA":" ","LANE":" ","ALLEY":" ","HOUSE_NO":"５８７號","E_COORD97":167980.01000000001,"N_COORD97":2545888.4300000002,"ADDRESS":"文成路５８７號","OBJECTID":644056},"geometry":{"x":167980.00999999978,"y":2545888.4299999997}},{"attributes":{"ID":644084,"DIS_CODE":0,"TOWNNAME":"北區","LI":"文元里","LIN":"22鄰","STREET":"文成路","SECT":" ","MAREA":" ","LANE":" ","ALLEY":" ","HOUSE_NO":"５９３號","E_COORD97":167966.67000000001,"N_COORD97":2545887.79,"ADDRESS":"文成路５９３號","OBJECTID":644057},"geometry":{"x":167966.67000000086,"y":2545887.7899999991}},{"attributes":{"ID":644085,"DIS_CODE":0,"TOWNNAME":"北區","LI":"文元里","LIN":"22鄰","STREET":"文賢三街","SECT":" ","MAREA":" ","LANE":" ","ALLEY":" ","HOUSE_NO":"１１２號","E_COORD97":167838.56,"N_COORD97":2545797.1499999999,"ADDRESS":"文賢三街１１２號","OBJECTID":644058},"geometry":{"x":167838.56000000052,"y":2545797.1500000022}},{"attributes":{"ID":644086,"DIS_CODE":0,"TOWNNAME":"北區","LI":"成德里","LIN":"41鄰","STREET":"文成二路","SECT":" ","MAREA":" ","LANE":" ","ALLEY":" ","HOUSE_NO":"３４０號","E_COORD97":168194.60000000001,"N_COORD97":2546177.5899999999,"ADDRESS":"文成二路３４０號","OBJECTID":644059},"geometry":{"x":168194.59999999963,"y":2546177.5900000017}},{"attributes":{"ID":644087,"DIS_CODE":0,"TOWNNAME":"北區","LI":"成德里","LIN":"41鄰","STREET":"文成二路","SECT":" ","MAREA":" ","LANE":" ","ALLEY":" ","HOUSE_NO":"３４２號","E_COORD97":168187.14000000001,"N_COORD97":2546177.27,"ADDRESS":"文成二路３４２號","OBJECTID":644060},"geometry":{"x":168187.1400000006,"y":2546177.2699999996}},{"attributes":{"ID":644088,"DIS_CODE":0,"TOWNNAME":"北區","LI":"成德里","LIN":"41鄰","STREET":"文成二路","SECT":" ","MAREA":" ","LANE":" ","ALLEY":" ","HOUSE_NO":"３４６號","E_COORD97":168176.98000000001,"N_COORD97":2546176.3199999998,"ADDRESS":"文成二路３４６號","OBJECTID":644061},"geometry":{"x":168176.98000000138,"y":2546176.3200000022}},{"attributes":{"ID":644089,"DIS_CODE":0,"TOWNNAME":"北區","LI":"成德里","LIN":"17鄰","STREET":"文成三路","SECT":" ","MAREA":" ","LANE":" ","ALLEY":" ","HOUSE_NO":"９號","E_COORD97":168986.03,"N_COORD97":2546220.21,"ADDRESS":"文成三路９號","OBJECTID":644062},"geometry":{"x":168986.03000000026,"y":2546220.2100000009}},{"attributes":{"ID":644090,"DIS_CODE":0,"TOWNNAME":"北區","LI":"小康里","LIN":"6鄰","STREET":"北門路","SECT":"三段","MAREA":" ","LANE":" ","ALLEY":" ","HOUSE_NO":"１０８號","E_COORD97":169814.59,"N_COORD97":2546203.0299999998,"ADDRESS":"北門路三段１０８號","OBJECTID":644063},"geometry":{"x":169814.59000000171,"y":2546203.0299999993}},{"attributes":{"ID":644091,"DIS_CODE":0,"TOWNNAME":"北區","LI":"大仁里","LIN":"4鄰","STREET":"和緯路","SECT":"一段","MAREA":" ","LANE":" ","ALLEY":" ","HOUSE_NO":"１號","E_COORD97":169681.82000000001,"N_COORD97":2545488.0800000001,"ADDRESS":"和緯路一段１號","OBJECTID":644064},"geometry":{"x":169681.82000000123,"y":2545488.0800000001}},{"attributes":{"ID":644092,"DIS_CODE":0,"TOWNNAME":"北區","LI":"大仁里","LIN":"4鄰","STREET":"和緯路","SECT":"一段","MAREA":" ","LANE":" ","ALLEY":" ","HOUSE_NO":"５號","E_COORD97":169658.64000000001,"N_COORD97":2545499.9900000002,"ADDRESS":"和緯路一段５號","OBJECTID":644065},"geometry":{"x":169658.6400000006,"y":2545499.9900000021}},{"attributes":{"ID":644093,"DIS_CODE":0,"TOWNNAME":"北區","LI":"成德里","LIN":"14鄰","STREET":"育德二路","SECT":" ","MAREA":" ","LANE":" ","ALLEY":" ","HOUSE_NO":"１９５號","E_COORD97":168349.17999999999,"N_COORD97":2545705.3999999999,"ADDRESS":"育德二路１９５號","OBJECTID":644066},"geometry":{"x":168349.18000000156,"y":2545705.4000000004}},{"attributes":{"ID":644094,"DIS_CODE":0,"TOWNNAME":"北區","LI":"賢北里","LIN":"1鄰","STREET":"和緯路","SECT":"五段","MAREA":" ","LANE":" ","ALLEY":" ","HOUSE_NO":"４６號","E_COORD97":166464.31,"N_COORD97":2545241.3599999999,"ADDRESS":"和緯路五段４６號","OBJECTID":644067},"geometry":{"x":166464.30999999959,"y":2545241.3599999994}},{"attributes":{"ID":644095,"DIS_CODE":0,"TOWNNAME":"北區","LI":"成德里","LIN":"12鄰","STREET":"立賢路","SECT":"一段","MAREA":" ","LANE":" ","ALLEY":" ","HOUSE_NO":"５６７號","E_COORD97":168120.39000000001,"N_COORD97":2545562.7000000002,"ADDRESS":"立賢路一段５６７號","OBJECTID":644068},"geometry":{"x":168120.38999999873,"y":2545562.7000000011}},{"attributes":{"ID":644096,"DIS_CODE":0,"TOWNNAME":"北區","LI":"成德里","LIN":"12鄰","STREET":"立賢路","SECT":"一段","MAREA":" ","LANE":" ","ALLEY":" ","HOUSE_NO":"５６９號","E_COORD97":168114.98999999999,"N_COORD97":2545563.02,"ADDRESS":"立賢路一段５６９號","OBJECTID":644069},"geometry":{"x":168114.99000000022,"y":2545563.0200000033}},{"attributes":{"ID":644097,"DIS_CODE":0,"TOWNNAME":"北區","LI":"成德里","LIN":"12鄰","STREET":"立賢路","SECT":"一段","MAREA":" ","LANE":" ","ALLEY":" ","HOUSE_NO":"５７１號","E_COORD97":168110.07000000001,"N_COORD97":2545563.02,"ADDRESS":"立賢路一段５７１號","OBJECTID":644070},"geometry":{"x":168110.07000000123,"y":2545563.0200000033}},{"attributes":{"ID":644098,"DIS_CODE":0,"TOWNNAME":"北區","LI":"大道里","LIN":"20鄰","STREET":"和緯路","SECT":"一段","MAREA":" ","LANE":" ","ALLEY":" ","HOUSE_NO":"９０號","E_COORD97":169462.26000000001,"N_COORD97":2545582.4700000002,"ADDRESS":"和緯路一段９０號","OBJECTID":644071},"geometry":{"x":169462.25999999885,"y":2545582.4700000025}},{"attributes":{"ID":644099,"DIS_CODE":0,"TOWNNAME":"北區","LI":"大港里","LIN":"20鄰","STREET":"中華北路","SECT":"一段","MAREA":" ","LANE":" ","ALLEY":" ","HOUSE_NO":"４０２之１號","E_COORD97":166722.94,"N_COORD97":2546119.2799999998,"ADDRESS":"中華北路一段４０２之１號","OBJECTID":644072},"geometry":{"x":166722.94000000134,"y":2546119.2799999993}},{"attributes":{"ID":644100,"DIS_CODE":0,"TOWNNAME":"北區","LI":"成德里","LIN":"34鄰","STREET":"文成路","SECT":" ","MAREA":" ","LANE":" ","ALLEY":" ","HOUSE_NO":"２９２號","E_COORD97":168146.23999999999,"N_COORD97":2545924.98,"ADDRESS":"文成路２９２號","OBJECTID":644073},"geometry":{"x":168146.24000000115,"y":2545924.9800000023}},{"attributes":{"ID":644101,"DIS_CODE":0,"TOWNNAME":"北區","LI":"成德里","LIN":"18鄰","STREET":"北安路","SECT":"一段","MAREA":" ","LANE":" ","ALLEY":" ","HOUSE_NO":"１８３號","E_COORD97":168842.70000000001,"N_COORD97":2546473.0899999999,"ADDRESS":"北安路一段１８３號","OBJECTID":644074},"geometry":{"x":168842.70000000205,"y":2546473.0899999999}},{"attributes":{"ID":644102,"DIS_CODE":0,"TOWNNAME":"北區","LI":"成德里","LIN":"18鄰","STREET":"文成三路","SECT":" ","MAREA":" ","LANE":" ","ALLEY":" ","HOUSE_NO":"９６號","E_COORD97":168835.63,"N_COORD97":2546341.0299999998,"ADDRESS":"文成三路９６號","OBJECTID":644075},"geometry":{"x":168835.62999999989,"y":2546341.0299999993}},{"attributes":{"ID":644103,"DIS_CODE":0,"TOWNNAME":"北區","LI":"和順里","LIN":"25鄰","STREET":"公園南路","SECT":" ","MAREA":" ","LANE":" ","ALLEY":" ","HOUSE_NO":"３３７號","E_COORD97":168252.29000000001,"N_COORD97":2544773.8100000001,"ADDRESS":"公園南路３３７號","OBJECTID":644076},"geometry":{"x":168252.29000000097,"y":2544773.8100000005}},{"attributes":{"ID":644104,"DIS_CODE":0,"TOWNNAME":"北區","LI":"成德里","LIN":"34鄰","STREET":"文成一路","SECT":" ","MAREA":" ","LANE":" ","ALLEY":" ","HOUSE_NO":"２０９號","E_COORD97":168290.60000000001,"N_COORD97":2546038.2000000002,"ADDRESS":"文成一路２０９號","OBJECTID":644077},"geometry":{"x":168290.60000000056,"y":2546038.1999999993}},{"attributes":{"ID":644105,"DIS_CODE":0,"TOWNNAME":"北區","LI":"成德里","LIN":"34鄰","STREET":"育德三街","SECT":" ","MAREA":" ","LANE":" ","ALLEY":" ","HOUSE_NO":"４２號","E_COORD97":168187.88,"N_COORD97":2545975.1099999999,"ADDRESS":"育德三街４２號","OBJECTID":644078},"geometry":{"x":168187.87999999989,"y":2545975.1099999994}},{"attributes":{"ID":644106,"DIS_CODE":0,"TOWNNAME":"北區","LI":"文成里","LIN":"1鄰","STREET":"和緯路","SECT":"三段","MAREA":" ","LANE":" ","ALLEY":" ","HOUSE_NO":"３３５號","E_COORD97":167542.54999999999,"N_COORD97":2545581.8100000001,"ADDRESS":"和緯路三段３３５號","OBJECTID":644079},"geometry":{"x":167542.54999999981,"y":2545581.8100000005}},{"attributes":{"ID":644107,"DIS_CODE":0,"TOWNNAME":"南區","LI":"建南里","LIN":"18鄰","STREET":"明興路","SECT":" ","MAREA":" ","LANE":" ","ALLEY":" ","HOUSE_NO":"１０９號","E_COORD97":166629.75,"N_COORD97":2539883.0800000001,"ADDRESS":"明興路１０９號","OBJECTID":644080},"geometry":{"x":166629.75,"y":2539883.0800000001}},{"attributes":{"ID":644108,"DIS_CODE":0,"TOWNNAME":"南區","LI":"文南里","LIN":"14鄰","STREET":"永南街","SECT":" ","MAREA":" ","LANE":" ","ALLEY":" ","HOUSE_NO":"５７號","E_COORD97":166814.42000000001,"N_COORD97":2542735.8799999999,"ADDRESS":"永南街５７號","OBJECTID":644081},"geometry":{"x":166814.41999999993,"y":2542735.8800000027}},{"attributes":{"ID":644109,"DIS_CODE":0,"TOWNNAME":"南區","LI":"文華里","LIN":"17鄰","STREET":"德南街","SECT":" ","MAREA":" ","LANE":" ","ALLEY":" ","HOUSE_NO":"２８號","E_COORD97":166829.22,"N_COORD97":2543101.8300000001,"ADDRESS":"德南街２８號","OBJECTID":644082},"geometry":{"x":166829.21999999974,"y":2543101.8300000001}},{"attributes":{"ID":644110,"DIS_CODE":0,"TOWNNAME":"南區","LI":"大林里","LIN":"4鄰","STREET":"大同路","SECT":"二段","MAREA":" ","LANE":" ","ALLEY":" ","HOUSE_NO":"４０２號","E_COORD97":169406.48000000001,"N_COORD97":2541712.0600000001,"ADDRESS":"大同路二段４０２號","OBJECTID":644083},"geometry":{"x":169406.48000000045,"y":2541712.0600000042}},{"attributes":{"ID":644111,"DIS_CODE":0,"TOWNNAME":"南區","LI":"大忠里","LIN":"24鄰","STREET":"中華南路","SECT":"一段","MAREA":" ","LANE":" ","ALLEY":" ","HOUSE_NO":"９９號","E_COORD97":169246.41,"N_COORD97":2541280.1800000002,"ADDRESS":"中華南路一段９９號","OBJECTID":644084},"geometry":{"x":169246.41000000201,"y":2541280.1800000016}},{"attributes":{"ID":644112,"DIS_CODE":0,"TOWNNAME":"南區","LI":"文南里","LIN":"18鄰","STREET":"健康路","SECT":"二段","MAREA":" ","LANE":" ","ALLEY":" ","HOUSE_NO":"３９６號","E_COORD97":166619.56,"N_COORD97":2542540.1000000001,"ADDRESS":"健康路二段３９６號","OBJECTID":644085},"geometry":{"x":166619.56000000052,"y":2542540.0999999996}},{"attributes":{"ID":644113,"DIS_CODE":0,"TOWNNAME":"南區","LI":"新昌里","LIN":"4鄰","STREET":"夏林路","SECT":" ","MAREA":" ","LANE":" ","ALLEY":" ","HOUSE_NO":"７號之２","E_COORD97":167485.19,"N_COORD97":2542851.3799999999,"ADDRESS":"夏林路７號之２","OBJECTID":644086},"geometry":{"x":167485.19000000227,"y":2542851.3800000008}},{"attributes":{"ID":644114,"DIS_CODE":0,"TOWNNAME":"南區","LI":"郡南里","LIN":"20鄰","STREET":"中華南路","SECT":"一段","MAREA":" ","LANE":" ","ALLEY":" ","HOUSE_NO":"９００號","E_COORD97":167660.70999999999,"N_COORD97":2540413.3300000001,"ADDRESS":"中華南路一段９００號","OBJECTID":644087},"geometry":{"x":167660.70999999996,"y":2540413.3300000001}},{"attributes":{"ID":644115,"DIS_CODE":0,"TOWNNAME":"南區","LI":"白雪里","LIN":"4鄰","STREET":"利南街","SECT":" ","MAREA":" ","LANE":" ","ALLEY":" ","HOUSE_NO":"６５號","E_COORD97":166787.56,"N_COORD97":2541162.1400000001,"ADDRESS":"利南街６５號","OBJECTID":644088},"geometry":{"x":166787.56000000052,"y":2541162.1400000006}},{"attributes":{"ID":644116,"DIS_CODE":0,"TOWNNAME":"南區","LI":"建南里","LIN":"14鄰","STREET":"中華南路","SECT":"二段","MAREA":" ","LANE":" ","ALLEY":" ","HOUSE_NO":"１９１號之１","E_COORD97":167008.98000000001,"N_COORD97":2540218.73,"ADDRESS":"中華南路二段１９１號之１","OBJECTID":644089},"geometry":{"x":167008.98000000138,"y":2540218.7300000004}},{"attributes":{"ID":644117,"DIS_CODE":0,"TOWNNAME":"新化區","LI":"觀音里","LIN":"4鄰","STREET":"中正路","SECT":" ","MAREA":" ","LANE":" ","ALLEY":" ","HOUSE_NO":"４９７號","E_COORD97":179032.01000000001,"N_COORD97":2548550.25,"ADDRESS":"中正路４９７號","OBJECTID":644090},"geometry":{"x":179032.01000000071,"y":2548550.2500000019}},{"attributes":{"ID":644118,"DIS_CODE":0,"TOWNNAME":"新化區","LI":"武安里","LIN":"4鄰","STREET":"大同街","SECT":" ","MAREA":" ","LANE":" ","ALLEY":" ","HOUSE_NO":"４０號之１","E_COORD97":179008.91,"N_COORD97":2548198.2599999998,"ADDRESS":"大同街４０號之１","OBJECTID":644091},"geometry":{"x":179008.90999999922,"y":2548198.2599999998}},{"attributes":{"ID":644119,"DIS_CODE":0,"TOWNNAME":"新化區","LI":"唪口里","LIN":"4鄰","STREET":"大德路","SECT":" ","MAREA":" ","LANE":" ","ALLEY":" ","HOUSE_NO":"８６號之８","E_COORD97":178196.14000000001,"N_COORD97":2549505.2599999998,"ADDRESS":"大德路８６號之８","OBJECTID":644092},"geometry":{"x":178196.13999999966,"y":2549505.2600000016}},{"attributes":{"ID":644120,"DIS_CODE":0,"TOWNNAME":"新化區","LI":"東榮里","LIN":"4鄰","STREET":"信義路","SECT":" ","MAREA":" ","LANE":" ","ALLEY":" ","HOUSE_NO":"５１號","E_COORD97":180364.17999999999,"N_COORD97":2548597.25,"ADDRESS":"信義路５１號","OBJECTID":644093},"geometry":{"x":180364.1799999997,"y":2548597.2500000019}},{"attributes":{"ID":644121,"DIS_CODE":0,"TOWNNAME":"新化區","LI":"東榮里","LIN":"24鄰","STREET":"中正路","SECT":" ","MAREA":" ","LANE":" ","ALLEY":" ","HOUSE_NO":"２９８號","E_COORD97":179281.51000000001,"N_COORD97":2547954.25,"ADDRESS":"中正路２９８號","OBJECTID":644094},"geometry":{"x":179281.51000000071,"y":2547954.25}},{"attributes":{"ID":644122,"DIS_CODE":0,"TOWNNAME":"新化區","LI":"武安里","LIN":"4鄰","STREET":"中正路","SECT":" ","MAREA":" ","LANE":" ","ALLEY":" ","HOUSE_NO":"３３５號之１","E_COORD97":179114.84,"N_COORD97":2548198.2599999998,"ADDRESS":"中正路３３５號之１","OBJECTID":644095},"geometry":{"x":179114.84000000078,"y":2548198.2599999998}},{"attributes":{"ID":644123,"DIS_CODE":0,"TOWNNAME":"新化區","LI":"知義里","LIN":"14鄰","STREET":"復興路","SECT":" ","MAREA":" ","LANE":" ","ALLEY":" ","HOUSE_NO":"８６號","E_COORD97":179530.07000000001,"N_COORD97":2547602.25,"ADDRESS":"復興路８６號","OBJECTID":644096},"geometry":{"x":179530.0700000003,"y":2547602.25}},{"attributes":{"ID":644124,"DIS_CODE":0,"TOWNNAME":"新化區","LI":"東榮里","LIN":"17鄰","STREET":"中興路","SECT":" ","MAREA":" ","LANE":" ","ALLEY":" ","HOUSE_NO":"６６１號","E_COORD97":179661.01000000001,"N_COORD97":2548014.25,"ADDRESS":"中興路６６１號","OBJECTID":644097},"geometry":{"x":179661.01000000071,"y":2548014.2500000019}},{"attributes":{"ID":644125,"DIS_CODE":0,"TOWNNAME":"新化區","LI":"清水里","LIN":"8鄰","STREET":"民權街","SECT":" ","MAREA":" ","LANE":" ","ALLEY":" ","HOUSE_NO":"７５號之１","E_COORD97":178740.39000000001,"N_COORD97":2548608.2599999998,"ADDRESS":"民權街７５號之１","OBJECTID":644098},"geometry":{"x":178740.38999999966,"y":2548608.2599999998}},{"attributes":{"ID":644126,"DIS_CODE":0,"TOWNNAME":"新化區","LI":"東榮里","LIN":"4鄰","STREET":"信義路","SECT":" ","MAREA":" ","LANE":" ","ALLEY":" ","HOUSE_NO":"８５號之９","E_COORD97":179834.51999999999,"N_COORD97":2548696.2599999998,"ADDRESS":"信義路８５號之９","OBJECTID":644099},"geometry":{"x":179834.51999999955,"y":2548696.2599999998}},{"attributes":{"ID":644127,"DIS_CODE":0,"TOWNNAME":"新化區","LI":"中央里","LIN":"4鄰","STREET":"中山路","SECT":" ","MAREA":" ","LANE":" ","ALLEY":" ","HOUSE_NO":"２４９號","E_COORD97":179056.70999999999,"N_COORD97":2548416.25,"ADDRESS":"中山路２４９號","OBJECTID":644100},"geometry":{"x":179056.71000000089,"y":2548416.2499999981}},{"attributes":{"ID":644128,"DIS_CODE":0,"TOWNNAME":"新化區","LI":"豐榮里","LIN":"4鄰","STREET":"中山路","SECT":" ","MAREA":" ","LANE":" ","ALLEY":" ","HOUSE_NO":"６７９號之４","E_COORD97":178031.84,"N_COORD97":2548473.2599999998,"ADDRESS":"中山路６７９號之４","OBJECTID":644101},"geometry":{"x":178031.84000000078,"y":2548473.2599999998}},{"attributes":{"ID":644129,"DIS_CODE":0,"TOWNNAME":"新化區","LI":"東榮里","LIN":"34鄰","STREET":"護安街","SECT":" ","MAREA":" ","LANE":" ","ALLEY":" ","HOUSE_NO":"９３號","E_COORD97":179189.57999999999,"N_COORD97":2548424.2599999998,"ADDRESS":"護安街９３號","OBJECTID":644102},"geometry":{"x":179189.58000000101,"y":2548424.2600000016}},{"attributes":{"ID":644130,"DIS_CODE":0,"TOWNNAME":"新化區","LI":"觀音里","LIN":"4鄰","STREET":"中正路","SECT":" ","MAREA":" ","LANE":" ","ALLEY":" ","HOUSE_NO":"４９３號","E_COORD97":179034.51000000001,"N_COORD97":2548543.25,"ADDRESS":"中正路４９３號","OBJECTID":644103},"geometry":{"x":179034.50999999978,"y":2548543.2500000019}},{"attributes":{"ID":644131,"DIS_CODE":0,"TOWNNAME":"新化區","LI":"觀音里","LIN":"4鄰","STREET":"中正路","SECT":" ","MAREA":" ","LANE":" ","ALLEY":" ","HOUSE_NO":"５０７號","E_COORD97":179026.60999999999,"N_COORD97":2548569.25,"ADDRESS":"中正路５０７號","OBJECTID":644104},"geometry":{"x":179026.6100000022,"y":2548569.2500000037}},{"attributes":{"ID":644132,"DIS_CODE":0,"TOWNNAME":"新化區","LI":"唪口里","LIN":"4鄰","STREET":"大德路","SECT":" ","MAREA":" ","LANE":" ","ALLEY":" ","HOUSE_NO":"８６號之１３","E_COORD97":178177.48000000001,"N_COORD97":2549487.2599999998,"ADDRESS":"大德路８６號之１３","OBJECTID":644105},"geometry":{"x":178177.48000000045,"y":2549487.2599999998}},{"attributes":{"ID":644133,"DIS_CODE":0,"TOWNNAME":"新化區","LI":"觀音里","LIN":"4鄰","STREET":"仁愛街","SECT":" ","MAREA":" ","LANE":" ","ALLEY":" ","HOUSE_NO":"６１號之１","E_COORD97":178984.91,"N_COORD97":2548568.2599999998,"ADDRESS":"仁愛街６１號之１","OBJECTID":644106},"geometry":{"x":178984.91000000015,"y":2548568.2599999998}},{"attributes":{"ID":644134,"DIS_CODE":0,"TOWNNAME":"北區","LI":"大港里","LIN":"4鄰","STREET":"大港街","SECT":" ","MAREA":" ","LANE":" ","ALLEY":" ","HOUSE_NO":"９５號","E_COORD97":166849.04000000001,"N_COORD97":2545942.96,"ADDRESS":"大港街９５號","OBJECTID":644107},"geometry":{"x":166849.04000000097,"y":2545942.9600000009}},{"attributes":{"ID":644135,"DIS_CODE":0,"TOWNNAME":"新化區","LI":"中央里","LIN":"4鄰","STREET":"大同街","SECT":" ","MAREA":" ","LANE":" ","ALLEY":" ","HOUSE_NO":"１２６號","E_COORD97":178974.73000000001,"N_COORD97":2548390.25,"ADDRESS":"大同街１２６號","OBJECTID":644108},"geometry":{"x":178974.73000000045,"y":2548390.2500000019}},{"attributes":{"ID":644136,"DIS_CODE":0,"TOWNNAME":"新化區","LI":"知義里","LIN":"14鄰","STREET":"中正路","SECT":" ","MAREA":" ","LANE":" ","ALLEY":" ","HOUSE_NO":"３５號","E_COORD97":179123.95999999999,"N_COORD97":2547154.25,"ADDRESS":"中正路３５號","OBJECTID":644109},"geometry":{"x":179123.96000000089,"y":2547154.25}},{"attributes":{"ID":644137,"DIS_CODE":0,"TOWNNAME":"北區","LI":"成德里","LIN":"19鄰","STREET":"育成路","SECT":" ","MAREA":" ","LANE":" ","ALLEY":" ","HOUSE_NO":"２６號","E_COORD97":168988.76999999999,"N_COORD97":2546331.3500000001,"ADDRESS":"育成路２６號","OBJECTID":644110},"geometry":{"x":168988.76999999955,"y":2546331.3500000015}},{"attributes":{"ID":644138,"DIS_CODE":0,"TOWNNAME":"北區","LI":"成德里","LIN":"19鄰","STREET":"育成路","SECT":" ","MAREA":" ","LANE":" ","ALLEY":" ","HOUSE_NO":"２８號","E_COORD97":168984.92999999999,"N_COORD97":2546334.23,"ADDRESS":"育成路２８號","OBJECTID":644111},"geometry":{"x":168984.93000000063,"y":2546334.2300000004}},{"attributes":{"ID":644139,"DIS_CODE":0,"TOWNNAME":"北區","LI":"賢北里","LIN":"7鄰","STREET":"賢北街","SECT":" ","MAREA":" ","LANE":" ","ALLEY":" ","HOUSE_NO":"１３號","E_COORD97":166332.79000000001,"N_COORD97":2545225.1299999999,"ADDRESS":"賢北街１３號","OBJECTID":644112},"geometry":{"x":166332.79000000004,"y":2545225.129999999}},{"attributes":{"ID":644140,"DIS_CODE":0,"TOWNNAME":"北區","LI":"大港里","LIN":"4鄰","STREET":"大港街","SECT":" ","MAREA":" ","LANE":" ","ALLEY":" ","HOUSE_NO":"８５號","E_COORD97":166882.67000000001,"N_COORD97":2545957,"ADDRESS":"大港街８５號","OBJECTID":644113},"geometry":{"x":166882.66999999993,"y":2545957.0000000037}},{"attributes":{"ID":644141,"DIS_CODE":0,"TOWNNAME":"北區","LI":"大港里","LIN":"4鄰","STREET":"大港街","SECT":" ","MAREA":" ","LANE":" ","ALLEY":" ","HOUSE_NO":"８７號","E_COORD97":166877.69,"N_COORD97":2545956.29,"ADDRESS":"大港街８７號","OBJECTID":644114},"geometry":{"x":166877.69000000041,"y":2545956.2899999991}},{"attributes":{"ID":644142,"DIS_CODE":0,"TOWNNAME":"北區","LI":"大港里","LIN":"4鄰","STREET":"大港街","SECT":" ","MAREA":" ","LANE":" ","ALLEY":" ","HOUSE_NO":"８９號","E_COORD97":166873.95000000001,"N_COORD97":2545954.1600000001,"ADDRESS":"大港街８９號","OBJECTID":644115},"geometry":{"x":166873.95000000019,"y":2545954.1600000001}},{"attributes":{"ID":644143,"DIS_CODE":0,"TOWNNAME":"北區","LI":"大港里","LIN":"4鄰","STREET":"大港街","SECT":" ","MAREA":" ","LANE":" ","ALLEY":" ","HOUSE_NO":"９１號","E_COORD97":166870.20999999999,"N_COORD97":2545952.2000000002,"ADDRESS":"大港街９１號","OBJECTID":644116},"geometry":{"x":166870.20999999996,"y":2545952.2000000011}},{"attributes":{"ID":644144,"DIS_CODE":0,"TOWNNAME":"北區","LI":"大港里","LIN":"4鄰","STREET":"大港街","SECT":" ","MAREA":" ","LANE":" ","ALLEY":" ","HOUSE_NO":"９３號","E_COORD97":166865.59,"N_COORD97":2545950.25,"ADDRESS":"大港街９３號","OBJECTID":644117},"geometry":{"x":166865.59000000078,"y":2545950.25}},{"attributes":{"ID":644145,"DIS_CODE":0,"TOWNNAME":"北區","LI":"大港里","LIN":"4鄰","STREET":"大港街","SECT":" ","MAREA":" ","LANE":" ","ALLEY":" ","HOUSE_NO":"１０３號","E_COORD97":166829.28,"N_COORD97":2545937.4500000002,"ADDRESS":"大港街１０３號","OBJECTID":644118},"geometry":{"x":166829.28000000026,"y":2545937.4500000011}},{"attributes":{"ID":644146,"DIS_CODE":0,"TOWNNAME":"北區","LI":"大港里","LIN":"4鄰","STREET":"大港街","SECT":" ","MAREA":" ","LANE":" ","ALLEY":" ","HOUSE_NO":"１０５號","E_COORD97":166825.16,"N_COORD97":2545935.0600000001,"ADDRESS":"大港街１０５號","OBJECTID":644119},"geometry":{"x":166825.16000000015,"y":2545935.0600000005}},{"attributes":{"ID":644147,"DIS_CODE":0,"TOWNNAME":"北區","LI":"大港里","LIN":"4鄰","STREET":"大港街","SECT":" ","MAREA":" ","LANE":" ","ALLEY":" ","HOUSE_NO":"１０７號","E_COORD97":166817.81,"N_COORD97":2545933.0600000001,"ADDRESS":"大港街１０７號","OBJECTID":644120},"geometry":{"x":166817.81000000052,"y":2545933.0600000042}},{"attributes":{"ID":644148,"DIS_CODE":0,"TOWNNAME":"北區","LI":"大港里","LIN":"4鄰","STREET":"大港街","SECT":" ","MAREA":" ","LANE":" ","ALLEY":" ","HOUSE_NO":"９７號","E_COORD97":166844.04999999999,"N_COORD97":2545942.0699999998,"ADDRESS":"大港街９７號","OBJECTID":644121},"geometry":{"x":166844.04999999981,"y":2545942.0700000003}},{"attributes":{"ID":644149,"DIS_CODE":0,"TOWNNAME":"北區","LI":"大港里","LIN":"4鄰","STREET":"大港街","SECT":" ","MAREA":" ","LANE":" ","ALLEY":" ","HOUSE_NO":"９９號","E_COORD97":166839.95999999999,"N_COORD97":2545940.4700000002,"ADDRESS":"大港街９９號","OBJECTID":644122},"geometry":{"x":166839.95999999996,"y":2545940.4699999988}},{"attributes":{"ID":644150,"DIS_CODE":0,"TOWNNAME":"北區","LI":"大港里","LIN":"3鄰","STREET":"大興街","SECT":" ","MAREA":" ","LANE":" ","ALLEY":" ","HOUSE_NO":"１７６號","E_COORD97":166869.69,"N_COORD97":2545692.2400000002,"ADDRESS":"大興街１７６號","OBJECTID":644123},"geometry":{"x":166869.69000000041,"y":2545692.2400000021}},{"attributes":{"ID":644151,"DIS_CODE":0,"TOWNNAME":"北區","LI":"大港里","LIN":"6鄰","STREET":"大興街","SECT":" ","MAREA":" ","LANE":" ","ALLEY":" ","HOUSE_NO":"１９４號","E_COORD97":166818.89000000001,"N_COORD97":2545705.27,"ADDRESS":"大興街１９４號","OBJECTID":644124},"geometry":{"x":166818.8900000006,"y":2545705.2699999996}},{"attributes":{"ID":644152,"DIS_CODE":0,"TOWNNAME":"關廟區","LI":"五甲里","LIN":"17鄰","STREET":"五義街","SECT":" ","MAREA":" ","LANE":" ","ALLEY":" ","HOUSE_NO":"５７號","E_COORD97":181073.92000000001,"N_COORD97":2539042.27,"ADDRESS":"五義街５７號","OBJECTID":644125},"geometry":{"x":181073.92000000086,"y":2539042.2700000014}},{"attributes":{"ID":644153,"DIS_CODE":0,"TOWNNAME":"北區","LI":"大和里","LIN":"17鄰","STREET":"文賢路","SECT":" ","MAREA":" ","LANE":" ","ALLEY":" ","HOUSE_NO":"８５９號","E_COORD97":167286.34,"N_COORD97":2546443.79,"ADDRESS":"文賢路８５９號","OBJECTID":644126},"geometry":{"x":167286.33999999985,"y":2546443.7899999991}},{"attributes":{"ID":644154,"DIS_CODE":0,"TOWNNAME":"北區","LI":"大港里","LIN":"20鄰","STREET":"中華北路","SECT":"一段","MAREA":" ","LANE":" ","ALLEY":" ","HOUSE_NO":"３６４號","E_COORD97":166650.89999999999,"N_COORD97":2546065.9100000001,"ADDRESS":"中華北路一段３６４號","OBJECTID":644127},"geometry":{"x":166650.90000000037,"y":2546065.9100000039}},{"attributes":{"ID":644155,"DIS_CODE":0,"TOWNNAME":"北區","LI":"大港里","LIN":"20鄰","STREET":"中華北路","SECT":"一段","MAREA":" ","LANE":" ","ALLEY":" ","HOUSE_NO":"３６６號","E_COORD97":166654.57999999999,"N_COORD97":2546068.0800000001,"ADDRESS":"中華北路一段３６６號","OBJECTID":644128},"geometry":{"x":166654.58000000007,"y":2546068.0800000038}},{"attributes":{"ID":644156,"DIS_CODE":0,"TOWNNAME":"北區","LI":"大港里","LIN":"20鄰","STREET":"中華北路","SECT":"一段","MAREA":" ","LANE":" ","ALLEY":" ","HOUSE_NO":"３６８號","E_COORD97":166658.42000000001,"N_COORD97":2546070.5800000001,"ADDRESS":"中華北路一段３６８號","OBJECTID":644129},"geometry":{"x":166658.42000000086,"y":2546070.5800000001}},{"attributes":{"ID":644157,"DIS_CODE":0,"TOWNNAME":"北區","LI":"大港里","LIN":"20鄰","STREET":"中華北路","SECT":"一段","MAREA":" ","LANE":" ","ALLEY":" ","HOUSE_NO":"３７０號","E_COORD97":166661.92999999999,"N_COORD97":2546073.4100000001,"ADDRESS":"中華北路一段３７０號","OBJECTID":644130},"geometry":{"x":166661.9299999997,"y":2546073.410000002}},{"attributes":{"ID":644158,"DIS_CODE":0,"TOWNNAME":"北區","LI":"賢北里","LIN":"1鄰","STREET":"賢北街","SECT":" ","MAREA":" ","LANE":" ","ALLEY":" ","HOUSE_NO":"３２號","E_COORD97":166338.35999999999,"N_COORD97":2545281.4199999999,"ADDRESS":"賢北街３２號","OBJECTID":644131},"geometry":{"x":166338.36000000127,"y":2545281.4199999999}},{"attributes":{"ID":644159,"DIS_CODE":0,"TOWNNAME":"北區","LI":"大和里","LIN":"17鄰","STREET":"文賢路","SECT":" ","MAREA":" ","LANE":" ","ALLEY":" ","HOUSE_NO":"８６７號","E_COORD97":167286.75,"N_COORD97":2546459.9700000002,"ADDRESS":"文賢路８６７號","OBJECTID":644132},"geometry":{"x":167286.75000000093,"y":2546459.9700000025}},{"attributes":{"ID":644160,"DIS_CODE":0,"TOWNNAME":"北區","LI":"大港里","LIN":"12鄰","STREET":"大興街","SECT":" ","MAREA":" ","LANE":" ","ALLEY":" ","HOUSE_NO":"２９６號","E_COORD97":166534.70999999999,"N_COORD97":2545663.23,"ADDRESS":"大興街２９６號","OBJECTID":644133},"geometry":{"x":166534.70999999996,"y":2545663.2300000004}},{"attributes":{"ID":644161,"DIS_CODE":0,"TOWNNAME":"北區","LI":"大和里","LIN":"17鄰","STREET":"文賢路","SECT":" ","MAREA":" ","LANE":" ","ALLEY":" ","HOUSE_NO":"８７１號","E_COORD97":167286.39999999999,"N_COORD97":2546469.1699999999,"ADDRESS":"文賢路８７１號","OBJECTID":644134},"geometry":{"x":167286.40000000037,"y":2546469.1700000018}},{"attributes":{"ID":644162,"DIS_CODE":0,"TOWNNAME":"北區","LI":"大和里","LIN":"17鄰","STREET":"文賢路","SECT":" ","MAREA":" ","LANE":" ","ALLEY":" ","HOUSE_NO":"８３７號","E_COORD97":167298.32000000001,"N_COORD97":2546395.54,"ADDRESS":"文賢路８３７號","OBJECTID":644135},"geometry":{"x":167298.32000000123,"y":2546395.5399999991}},{"attributes":{"ID":644163,"DIS_CODE":0,"TOWNNAME":"北區","LI":"大和里","LIN":"17鄰","STREET":"文賢路","SECT":" ","MAREA":" ","LANE":" ","ALLEY":" ","HOUSE_NO":"８４１號","E_COORD97":167296.17999999999,"N_COORD97":2546403.6699999999,"ADDRESS":"文賢路８４１號","OBJECTID":644136},"geometry":{"x":167296.1799999997,"y":2546403.6700000018}},{"attributes":{"ID":644164,"DIS_CODE":0,"TOWNNAME":"北區","LI":"大和里","LIN":"17鄰","STREET":"文賢路","SECT":" ","MAREA":" ","LANE":" ","ALLEY":" ","HOUSE_NO":"８４３號","E_COORD97":167294.63,"N_COORD97":2546413.1400000001,"ADDRESS":"文賢路８４３號","OBJECTID":644137},"geometry":{"x":167294.62999999989,"y":2546413.1400000006}},{"attributes":{"ID":644165,"DIS_CODE":0,"TOWNNAME":"北區","LI":"大和里","LIN":"17鄰","STREET":"文賢路","SECT":" ","MAREA":" ","LANE":" ","ALLEY":" ","HOUSE_NO":"８４５號","E_COORD97":167293.01000000001,"N_COORD97":2546421.9300000002,"ADDRESS":"文賢路８４５號","OBJECTID":644138},"geometry":{"x":167293.01000000071,"y":2546421.9300000016}},{"attributes":{"ID":644166,"DIS_CODE":0,"TOWNNAME":"北區","LI":"大港里","LIN":"35鄰","STREET":"大興街","SECT":" ","MAREA":" ","LANE":" ","ALLEY":" ","HOUSE_NO":"６０４號","E_COORD97":165854.97,"N_COORD97":2545383.1299999999,"ADDRESS":"大興街６０４號","OBJECTID":644139},"geometry":{"x":165854.96999999974,"y":2545383.1300000008}},{"attributes":{"ID":644167,"DIS_CODE":0,"TOWNNAME":"北區","LI":"大港里","LIN":"35鄰","STREET":"大興街","SECT":" ","MAREA":" ","LANE":" ","ALLEY":" ","HOUSE_NO":"６０６號","E_COORD97":165851.32999999999,"N_COORD97":2545380.29,"ADDRESS":"大興街６０６號","OBJECTID":644140},"geometry":{"x":165851.32999999914,"y":2545380.2899999991}},{"attributes":{"ID":644168,"DIS_CODE":0,"TOWNNAME":"北區","LI":"大港里","LIN":"35鄰","STREET":"大興街","SECT":" ","MAREA":" ","LANE":" ","ALLEY":" ","HOUSE_NO":"６０８號","E_COORD97":165847.28,"N_COORD97":2545378.73,"ADDRESS":"大興街６０８號","OBJECTID":644141},"geometry":{"x":165847.28000000119,"y":2545378.7300000004}},{"attributes":{"ID":644169,"DIS_CODE":0,"TOWNNAME":"北區","LI":"大港里","LIN":"35鄰","STREET":"大興街","SECT":" ","MAREA":" ","LANE":" ","ALLEY":" ","HOUSE_NO":"６１０號","E_COORD97":165842.92999999999,"N_COORD97":2545377.0299999998,"ADDRESS":"大興街６１０號","OBJECTID":644142},"geometry":{"x":165842.9299999997,"y":2545377.0300000012}},{"attributes":{"ID":644170,"DIS_CODE":0,"TOWNNAME":"北區","LI":"大港里","LIN":"35鄰","STREET":"大興街","SECT":" ","MAREA":" ","LANE":" ","ALLEY":" ","HOUSE_NO":"６１２號","E_COORD97":165839.31,"N_COORD97":2545374.8999999999,"ADDRESS":"大興街６１２號","OBJECTID":644143},"geometry":{"x":165839.31000000145,"y":2545374.9000000041}},{"attributes":{"ID":644171,"DIS_CODE":0,"TOWNNAME":"北區","LI":"大港里","LIN":"35鄰","STREET":"大興街","SECT":" ","MAREA":" ","LANE":" ","ALLEY":" ","HOUSE_NO":"６１４號","E_COORD97":165835.39000000001,"N_COORD97":2545372.9199999999,"ADDRESS":"大興街６１４號","OBJECTID":644144},"geometry":{"x":165835.39000000153,"y":2545372.9199999999}},{"attributes":{"ID":644172,"DIS_CODE":0,"TOWNNAME":"北區","LI":"大港里","LIN":"35鄰","STREET":"大興街","SECT":" ","MAREA":" ","LANE":" ","ALLEY":" ","HOUSE_NO":"６１６號","E_COORD97":165830.60999999999,"N_COORD97":2545371.3599999999,"ADDRESS":"大興街６１６號","OBJECTID":644145},"geometry":{"x":165830.61000000034,"y":2545371.3600000013}},{"attributes":{"ID":644173,"DIS_CODE":0,"TOWNNAME":"北區","LI":"大港里","LIN":"35鄰","STREET":"大興街","SECT":" ","MAREA":" ","LANE":" ","ALLEY":" ","HOUSE_NO":"６１８號","E_COORD97":165826.70000000001,"N_COORD97":2545369.6499999999,"ADDRESS":"大興街６１８號","OBJECTID":644146},"geometry":{"x":165826.70000000019,"y":2545369.6500000041}},{"attributes":{"ID":644174,"DIS_CODE":0,"TOWNNAME":"北區","LI":"大港里","LIN":"35鄰","STREET":"大興街","SECT":" ","MAREA":" ","LANE":" ","ALLEY":" ","HOUSE_NO":"６２０號","E_COORD97":165823.07999999999,"N_COORD97":2545367.9500000002,"ADDRESS":"大興街６２０號","OBJECTID":644147},"geometry":{"x":165823.08000000101,"y":2545367.9500000011}},{"attributes":{"ID":644175,"DIS_CODE":0,"TOWNNAME":"北區","LI":"大港里","LIN":"35鄰","STREET":"大興街","SECT":" ","MAREA":" ","LANE":" ","ALLEY":" ","HOUSE_NO":"６２２號","E_COORD97":165818.57999999999,"N_COORD97":2545365.8199999998,"ADDRESS":"大興街６２２號","OBJECTID":644148},"geometry":{"x":165818.58000000007,"y":2545365.8200000022}},{"attributes":{"ID":644176,"DIS_CODE":0,"TOWNNAME":"北區","LI":"大港里","LIN":"35鄰","STREET":"大興街","SECT":" ","MAREA":" ","LANE":" ","ALLEY":" ","HOUSE_NO":"６２４號","E_COORD97":165814.14999999999,"N_COORD97":2545363.9300000002,"ADDRESS":"大興街６２４號","OBJECTID":644149},"geometry":{"x":165814.1500000013,"y":2545363.9300000016}},{"attributes":{"ID":644177,"DIS_CODE":0,"TOWNNAME":"北區","LI":"大港里","LIN":"35鄰","STREET":"大興街","SECT":" ","MAREA":" ","LANE":" ","ALLEY":" ","HOUSE_NO":"６２６號","E_COORD97":165810.23999999999,"N_COORD97":2545362.0899999999,"ADDRESS":"大興街６２６號","OBJECTID":644150},"geometry":{"x":165810.24000000115,"y":2545362.0899999999}},{"attributes":{"ID":644178,"DIS_CODE":0,"TOWNNAME":"北區","LI":"大港里","LIN":"35鄰","STREET":"大興街","SECT":" ","MAREA":" ","LANE":" ","ALLEY":" ","HOUSE_NO":"６２８號","E_COORD97":165805.45000000001,"N_COORD97":2545359.96,"ADDRESS":"大興街６２８號","OBJECTID":644151},"geometry":{"x":165805.45000000112,"y":2545359.9600000009}},{"attributes":{"ID":644179,"DIS_CODE":0,"TOWNNAME":"北區","LI":"大港里","LIN":"35鄰","STREET":"大興街","SECT":" ","MAREA":" ","LANE":" ","ALLEY":" ","HOUSE_NO":"６３０號","E_COORD97":165802.13,"N_COORD97":2545358.9700000002,"ADDRESS":"大興街６３０號","OBJECTID":644152},"geometry":{"x":165802.13000000082,"y":2545358.9700000025}},{"attributes":{"ID":644180,"DIS_CODE":0,"TOWNNAME":"關廟區","LI":"香洋里","LIN":"25鄰","STREET":"南雄路","SECT":"一段","MAREA":" ","LANE":" ","ALLEY":" ","HOUSE_NO":"１１５７號","E_COORD97":181052.29000000001,"N_COORD97":2539930.79,"ADDRESS":"南雄路一段１１５７號","OBJECTID":644153},"geometry":{"x":181052.29000000004,"y":2539930.790000001}},{"attributes":{"ID":644181,"DIS_CODE":0,"TOWNNAME":"關廟區","LI":"松腳里","LIN":"4鄰","STREET":"松平街","SECT":" ","MAREA":" ","LANE":" ","ALLEY":" ","HOUSE_NO":"２２號","E_COORD97":182069.72,"N_COORD97":2539734.25,"ADDRESS":"松平街２２號","OBJECTID":644154},"geometry":{"x":182069.7200000016,"y":2539734.2500000019}},{"attributes":{"ID":644182,"DIS_CODE":0,"TOWNNAME":"關廟區","LI":"關廟里","LIN":"4鄰","STREET":"正義街","SECT":" ","MAREA":" ","LANE":" ","ALLEY":" ","HOUSE_NO":"１２之１號","E_COORD97":180833.85999999999,"N_COORD97":2540126.2999999998,"ADDRESS":"正義街１２之１號","OBJECTID":644155},"geometry":{"x":180833.86000000127,"y":2540126.3000000007}},{"attributes":{"ID":644183,"DIS_CODE":0,"TOWNNAME":"關廟區","LI":"埤頭里","LIN":"4鄰","STREET":"保東路","SECT":" ","MAREA":" ","LANE":" ","ALLEY":" ","HOUSE_NO":"７７號","E_COORD97":178904.17000000001,"N_COORD97":2544016.2999999998,"ADDRESS":"保東路７７號","OBJECTID":644156},"geometry":{"x":178904.17000000086,"y":2544016.3000000045}},{"attributes":{"ID":644184,"DIS_CODE":0,"TOWNNAME":"關廟區","LI":"香洋里","LIN":"25鄰","STREET":"中山路","SECT":"二段","MAREA":" ","LANE":" ","ALLEY":" ","HOUSE_NO":"９５號","E_COORD97":180976.20999999999,"N_COORD97":2539989.2799999998,"ADDRESS":"中山路二段９５號","OBJECTID":644157},"geometry":{"x":180976.20999999996,"y":2539989.2799999993}},{"attributes":{"ID":644185,"DIS_CODE":0,"TOWNNAME":"關廟區","LI":"北花里","LIN":"13鄰","STREET":"中正路","SECT":" ","MAREA":" ","LANE":" ","ALLEY":" ","HOUSE_NO":"２６２號","E_COORD97":183170.85999999999,"N_COORD97":2540894.25,"ADDRESS":"中正路２６２號","OBJECTID":644158},"geometry":{"x":183170.86000000034,"y":2540894.2500000019}},{"attributes":{"ID":644186,"DIS_CODE":0,"TOWNNAME":"關廟區","LI":"北勢里","LIN":"4鄰","STREET":"北仁街","SECT":" ","MAREA":" ","LANE":" ","ALLEY":" ","HOUSE_NO":"７０號","E_COORD97":181496.94,"N_COORD97":2540330.25,"ADDRESS":"北仁街７０號","OBJECTID":644159},"geometry":{"x":181496.94000000041,"y":2540330.2499999981}},{"attributes":{"ID":644187,"DIS_CODE":0,"TOWNNAME":"關廟區","LI":"北花里","LIN":"13鄰","STREET":"中正路","SECT":" ","MAREA":" ","LANE":" ","ALLEY":" ","HOUSE_NO":"２３１號","E_COORD97":183332.56,"N_COORD97":2540878.25,"ADDRESS":"中正路２３１號","OBJECTID":644160},"geometry":{"x":183332.56000000052,"y":2540878.25}},{"attributes":{"ID":644188,"DIS_CODE":0,"TOWNNAME":"關廟區","LI":"東勢里","LIN":"24鄰","STREET":"東安街","SECT":" ","MAREA":" ","LANE":" ","ALLEY":" ","HOUSE_NO":"２２９號","E_COORD97":181596.47,"N_COORD97":2539372.3199999998,"ADDRESS":"東安街２２９號","OBJECTID":644161},"geometry":{"x":181596.46999999974,"y":2539372.3200000022}},{"attributes":{"ID":644189,"DIS_CODE":0,"TOWNNAME":"關廟區","LI":"龜洞里","LIN":"4鄰","STREET":"南雄南路","SECT":" ","MAREA":" ","LANE":" ","ALLEY":" ","HOUSE_NO":"７６２號","E_COORD97":183274.44,"N_COORD97":2533446.25,"ADDRESS":"南雄南路７６２號","OBJECTID":644162},"geometry":{"x":183274.44000000134,"y":2533446.2500000019}},{"attributes":{"ID":644190,"DIS_CODE":0,"TOWNNAME":"關廟區","LI":"北花里","LIN":"20鄰","STREET":"中正路","SECT":" ","MAREA":" ","LANE":" ","ALLEY":" ","HOUSE_NO":"６９號","E_COORD97":183693.20999999999,"N_COORD97":2540932.25,"ADDRESS":"中正路６９號","OBJECTID":644163},"geometry":{"x":183693.20999999996,"y":2540932.25}},{"attributes":{"ID":644191,"DIS_CODE":0,"TOWNNAME":"關廟區","LI":"香洋里","LIN":"26鄰","STREET":"南雄路","SECT":"一段","MAREA":" ","LANE":" ","ALLEY":" ","HOUSE_NO":"１１１２號","E_COORD97":181089.23999999999,"N_COORD97":2539795.2799999998,"ADDRESS":"南雄路一段１１１２號","OBJECTID":644164},"geometry":{"x":181089.24000000115,"y":2539795.2800000012}},{"attributes":{"ID":644192,"DIS_CODE":0,"TOWNNAME":"關廟區","LI":"新光里","LIN":"8鄰","STREET":"新光街","SECT":" ","MAREA":" ","LANE":" ","ALLEY":" ","HOUSE_NO":"２５３號","E_COORD97":184310.47,"N_COORD97":2541897.25,"ADDRESS":"新光街２５３號","OBJECTID":644165},"geometry":{"x":184310.46999999974,"y":2541897.2500000019}},{"attributes":{"ID":644193,"DIS_CODE":0,"TOWNNAME":"關廟區","LI":"關廟里","LIN":"8鄰","STREET":"大仁街","SECT":" ","MAREA":" ","LANE":" ","ALLEY":" ","HOUSE_NO":"３７２號","E_COORD97":180908.67000000001,"N_COORD97":2539748.25,"ADDRESS":"大仁街３７２號","OBJECTID":644166},"geometry":{"x":180908.66999999993,"y":2539748.2500000019}},{"attributes":{"ID":644194,"DIS_CODE":0,"TOWNNAME":"關廟區","LI":"關廟里","LIN":"8鄰","STREET":"大仁街","SECT":" ","MAREA":" ","LANE":" ","ALLEY":" ","HOUSE_NO":"３６８號","E_COORD97":180901.67000000001,"N_COORD97":2539743.25,"ADDRESS":"大仁街３６８號","OBJECTID":644167},"geometry":{"x":180901.66999999993,"y":2539743.25}},{"attributes":{"ID":644195,"DIS_CODE":0,"TOWNNAME":"關廟區","LI":"龜洞里","LIN":"8鄰","STREET":"官崙街","SECT":" ","MAREA":" ","LANE":" ","ALLEY":" ","HOUSE_NO":"３１號","E_COORD97":183477.64000000001,"N_COORD97":2533414.2999999998,"ADDRESS":"官崙街３１號","OBJECTID":644168},"geometry":{"x":183477.6400000006,"y":2533414.2999999989}},{"attributes":{"ID":644196,"DIS_CODE":0,"TOWNNAME":"關廟區","LI":"關廟里","LIN":"4鄰","STREET":"正義街","SECT":" ","MAREA":" ","LANE":" ","ALLEY":" ","HOUSE_NO":"３７號","E_COORD97":180809.45999999999,"N_COORD97":2540204.27,"ADDRESS":"正義街３７號","OBJECTID":644169},"geometry":{"x":180809.46000000089,"y":2540204.2700000033}},{"attributes":{"ID":644197,"DIS_CODE":0,"TOWNNAME":"關廟區","LI":"北花里","LIN":"20鄰","STREET":"中正路","SECT":" ","MAREA":" ","LANE":" ","ALLEY":" ","HOUSE_NO":"１１５號","E_COORD97":183583.95999999999,"N_COORD97":2540916.25,"ADDRESS":"中正路１１５號","OBJECTID":644170},"geometry":{"x":183583.96000000089,"y":2540916.25}},{"attributes":{"ID":644198,"DIS_CODE":0,"TOWNNAME":"關廟區","LI":"北花里","LIN":"20鄰","STREET":"中正路","SECT":" ","MAREA":" ","LANE":" ","ALLEY":" ","HOUSE_NO":"１１７號","E_COORD97":183580.06,"N_COORD97":2540916.25,"ADDRESS":"中正路１１７號","OBJECTID":644171},"geometry":{"x":183580.06000000052,"y":2540916.25}},{"attributes":{"ID":644199,"DIS_CODE":0,"TOWNNAME":"關廟區","LI":"香洋里","LIN":"25鄰","STREET":"南雄路","SECT":"一段","MAREA":" ","LANE":" ","ALLEY":" ","HOUSE_NO":"１１４３號","E_COORD97":181046.89000000001,"N_COORD97":2539902.79,"ADDRESS":"南雄路一段１１４３號","OBJECTID":644172},"geometry":{"x":181046.8900000006,"y":2539902.790000001}},{"attributes":{"ID":644200,"DIS_CODE":0,"TOWNNAME":"關廟區","LI":"南花里","LIN":"13鄰","STREET":"和平路","SECT":" ","MAREA":" ","LANE":" ","ALLEY":" ","HOUSE_NO":"３８６號","E_COORD97":181604.94,"N_COORD97":2540250.25,"ADDRESS":"和平路３８６號","OBJECTID":644173},"geometry":{"x":181604.94000000134,"y":2540250.2500000019}},{"attributes":{"ID":644201,"DIS_CODE":0,"TOWNNAME":"關廟區","LI":"松腳里","LIN":"14鄰","STREET":"四維街","SECT":" ","MAREA":" ","LANE":" ","ALLEY":" ","HOUSE_NO":"１０８號","E_COORD97":181893.85999999999,"N_COORD97":2539656.25,"ADDRESS":"四維街１０８號","OBJECTID":644174},"geometry":{"x":181893.86000000127,"y":2539656.2500000019}},{"attributes":{"ID":644202,"DIS_CODE":0,"TOWNNAME":"關廟區","LI":"北勢里","LIN":"4鄰","STREET":"北仁街","SECT":" ","MAREA":" ","LANE":" ","ALLEY":" ","HOUSE_NO":"６６號","E_COORD97":181505.84,"N_COORD97":2540330.25,"ADDRESS":"北仁街６６號","OBJECTID":644175},"geometry":{"x":181505.83999999985,"y":2540330.2499999981}},{"attributes":{"ID":644203,"DIS_CODE":0,"TOWNNAME":"關廟區","LI":"北勢里","LIN":"20鄰","STREET":"北新街","SECT":" ","MAREA":" ","LANE":" ","ALLEY":" ","HOUSE_NO":"６９號","E_COORD97":181312.34,"N_COORD97":2540447.25,"ADDRESS":"北新街６９號","OBJECTID":644176},"geometry":{"x":181312.33999999985,"y":2540447.2500000019}},{"attributes":{"ID":644204,"DIS_CODE":0,"TOWNNAME":"關廟區","LI":"北花里","LIN":"13鄰","STREET":"中正路","SECT":" ","MAREA":" ","LANE":" ","ALLEY":" ","HOUSE_NO":"２５３號","E_COORD97":183277.66,"N_COORD97":2540871.25,"ADDRESS":"中正路２５３號","OBJECTID":644177},"geometry":{"x":183277.66000000108,"y":2540871.25}},{"attributes":{"ID":644205,"DIS_CODE":0,"TOWNNAME":"關廟區","LI":"關廟里","LIN":"4鄰","STREET":"正義街","SECT":" ","MAREA":" ","LANE":" ","ALLEY":" ","HOUSE_NO":"２之１號","E_COORD97":180827.81,"N_COORD97":2540109.27,"ADDRESS":"正義街２之１號","OBJECTID":644178},"geometry":{"x":180827.80999999959,"y":2540109.2699999977}},{"attributes":{"ID":644206,"DIS_CODE":0,"TOWNNAME":"關廟區","LI":"東勢里","LIN":"20鄰","STREET":"東昌街","SECT":" ","MAREA":" ","LANE":" ","ALLEY":" ","HOUSE_NO":"６號","E_COORD97":181958.26999999999,"N_COORD97":2539296.25,"ADDRESS":"東昌街６號","OBJECTID":644179},"geometry":{"x":181958.26999999955,"y":2539296.2500000037}},{"attributes":{"ID":644207,"DIS_CODE":0,"TOWNNAME":"關廟區","LI":"北勢里","LIN":"20鄰","STREET":"北新街","SECT":" ","MAREA":" ","LANE":" ","ALLEY":" ","HOUSE_NO":"７６號","E_COORD97":181318.54000000001,"N_COORD97":2540403.25,"ADDRESS":"北新街７６號","OBJECTID":644180},"geometry":{"x":181318.5400000019,"y":2540403.2500000019}},{"attributes":{"ID":644208,"DIS_CODE":0,"TOWNNAME":"關廟區","LI":"北花里","LIN":"13鄰","STREET":"中正路","SECT":" ","MAREA":" ","LANE":" ","ALLEY":" ","HOUSE_NO":"２９６號","E_COORD97":183081.45999999999,"N_COORD97":2540869.25,"ADDRESS":"中正路２９６號","OBJECTID":644181},"geometry":{"x":183081.45999999996,"y":2540869.2499999981}},{"attributes":{"ID":644209,"DIS_CODE":0,"TOWNNAME":"關廟區","LI":"香洋里","LIN":"20鄰","STREET":"中山路","SECT":"一段","MAREA":" ","LANE":" ","ALLEY":" ","HOUSE_NO":"４０８號","E_COORD97":181518.66,"N_COORD97":2539881.2799999998,"ADDRESS":"中山路一段４０８號","OBJECTID":644182},"geometry":{"x":181518.66000000108,"y":2539881.2799999993}},{"attributes":{"ID":644210,"DIS_CODE":0,"TOWNNAME":"關廟區","LI":"香洋里","LIN":"25鄰","STREET":"中山路","SECT":"二段","MAREA":" ","LANE":" ","ALLEY":" ","HOUSE_NO":"１０１號","E_COORD97":180959.76000000001,"N_COORD97":2540010.2799999998,"ADDRESS":"中山路二段１０１號","OBJECTID":644183},"geometry":{"x":180959.76000000071,"y":2540010.2799999993}},{"attributes":{"ID":644211,"DIS_CODE":0,"TOWNNAME":"關廟區","LI":"東勢里","LIN":"26鄰","STREET":"東安街","SECT":" ","MAREA":" ","LANE":" ","ALLEY":" ","HOUSE_NO":"９９號","E_COORD97":181434.82000000001,"N_COORD97":2539651.3199999998,"ADDRESS":"東安街９９號","OBJECTID":644184},"geometry":{"x":181434.8200000003,"y":2539651.3200000003}},{"attributes":{"ID":644212,"DIS_CODE":0,"TOWNNAME":"關廟區","LI":"東勢里","LIN":"24鄰","STREET":"東安街","SECT":" ","MAREA":" ","LANE":" ","ALLEY":" ","HOUSE_NO":"２５０號","E_COORD97":181607.97,"N_COORD97":2539351.3199999998,"ADDRESS":"東安街２５０號","OBJECTID":644185},"geometry":{"x":181607.96999999974,"y":2539351.3200000022}},{"attributes":{"ID":644213,"DIS_CODE":0,"TOWNNAME":"關廟區","LI":"北勢里","LIN":"24鄰","STREET":"北仁街","SECT":" ","MAREA":" ","LANE":" ","ALLEY":" ","HOUSE_NO":"９０號","E_COORD97":181447.84,"N_COORD97":2540333.25,"ADDRESS":"北仁街９０號","OBJECTID":644186},"geometry":{"x":181447.83999999985,"y":2540333.25}},{"attributes":{"ID":644214,"DIS_CODE":0,"TOWNNAME":"關廟區","LI":"香洋里","LIN":"18鄰","STREET":"花園一街","SECT":" ","MAREA":" ","LANE":" ","ALLEY":" ","HOUSE_NO":"２０１號","E_COORD97":181627.69,"N_COORD97":2540130.25,"ADDRESS":"花園一街２０１號","OBJECTID":644187},"geometry":{"x":181627.69000000041,"y":2540130.2499999981}},{"attributes":{"ID":644215,"DIS_CODE":0,"TOWNNAME":"關廟區","LI":"香洋里","LIN":"20鄰","STREET":"中山路","SECT":"一段","MAREA":" ","LANE":" ","ALLEY":" ","HOUSE_NO":"４１８號","E_COORD97":181502.56,"N_COORD97":2539884.2799999998,"ADDRESS":"中山路一段４１８號","OBJECTID":644188},"geometry":{"x":181502.55999999959,"y":2539884.2799999993}},{"attributes":{"ID":644216,"DIS_CODE":0,"TOWNNAME":"關廟區","LI":"東勢里","LIN":"24鄰","STREET":"東安街","SECT":" ","MAREA":" ","LANE":" ","ALLEY":" ","HOUSE_NO":"２２７號","E_COORD97":181592.67000000001,"N_COORD97":2539373.3199999998,"ADDRESS":"東安街２２７號","OBJECTID":644189},"geometry":{"x":181592.67000000086,"y":2539373.3200000003}},{"attributes":{"ID":644217,"DIS_CODE":0,"TOWNNAME":"關廟區","LI":"新光里","LIN":"14鄰","STREET":"南寮街","SECT":" ","MAREA":" ","LANE":" ","ALLEY":" ","HOUSE_NO":"８號","E_COORD97":184238.26999999999,"N_COORD97":2541568.25,"ADDRESS":"南寮街８號","OBJECTID":644190},"geometry":{"x":184238.26999999955,"y":2541568.2500000019}},{"attributes":{"ID":644218,"DIS_CODE":0,"TOWNNAME":"關廟區","LI":"北花里","LIN":"20鄰","STREET":"中正路","SECT":" ","MAREA":" ","LANE":" ","ALLEY":" ","HOUSE_NO":"４１號","E_COORD97":183863.60999999999,"N_COORD97":2540980.25,"ADDRESS":"中正路４１號","OBJECTID":644191},"geometry":{"x":183863.61000000127,"y":2540980.25}},{"attributes":{"ID":644219,"DIS_CODE":0,"TOWNNAME":"關廟區","LI":"關廟里","LIN":"13鄰","STREET":"大富街","SECT":" ","MAREA":" ","LANE":" ","ALLEY":" ","HOUSE_NO":"１９１號","E_COORD97":181048.37,"N_COORD97":2539440.25,"ADDRESS":"大富街１９１號","OBJECTID":644192},"geometry":{"x":181048.37000000011,"y":2539440.2500000019}},{"attributes":{"ID":644220,"DIS_CODE":0,"TOWNNAME":"關廟區","LI":"北花里","LIN":"13鄰","STREET":"中正路","SECT":" ","MAREA":" ","LANE":" ","ALLEY":" ","HOUSE_NO":"２４３號","E_COORD97":183304.45999999999,"N_COORD97":2540871.25,"ADDRESS":"中正路２４３號","OBJECTID":644193},"geometry":{"x":183304.46000000089,"y":2540871.25}},{"attributes":{"ID":644221,"DIS_CODE":0,"TOWNNAME":"關廟區","LI":"香洋里","LIN":"24鄰","STREET":"民族街","SECT":" ","MAREA":" ","LANE":" ","ALLEY":" ","HOUSE_NO":"２４０號","E_COORD97":181200.69,"N_COORD97":2539906.29,"ADDRESS":"民族街２４０號","OBJECTID":644194},"geometry":{"x":181200.69000000041,"y":2539906.290000001}},{"attributes":{"ID":644222,"DIS_CODE":0,"TOWNNAME":"關廟區","LI":"松腳里","LIN":"14鄰","STREET":"四維街","SECT":" ","MAREA":" ","LANE":" ","ALLEY":" ","HOUSE_NO":"９５號","E_COORD97":181870.70999999999,"N_COORD97":2539685.2400000002,"ADDRESS":"四維街９５號","OBJECTID":644195},"geometry":{"x":181870.71000000089,"y":2539685.2400000002}},{"attributes":{"ID":644223,"DIS_CODE":0,"TOWNNAME":"關廟區","LI":"布袋里","LIN":"4鄰","STREET":"長文街","SECT":" ","MAREA":" ","LANE":" ","ALLEY":" ","HOUSE_NO":"２２６號","E_COORD97":182570.84,"N_COORD97":2535267.25,"ADDRESS":"長文街２２６號","OBJECTID":644196},"geometry":{"x":182570.84000000171,"y":2535267.25}},{"attributes":{"ID":644224,"DIS_CODE":0,"TOWNNAME":"關廟區","LI":"北勢里","LIN":"20鄰","STREET":"北新街","SECT":" ","MAREA":" ","LANE":" ","ALLEY":" ","HOUSE_NO":"８６號","E_COORD97":181320.04000000001,"N_COORD97":2540422.25,"ADDRESS":"北新街８６號","OBJECTID":644197},"geometry":{"x":181320.04000000004,"y":2540422.2500000019}},{"attributes":{"ID":644225,"DIS_CODE":0,"TOWNNAME":"關廟區","LI":"香洋里","LIN":"25鄰","STREET":"南雄路","SECT":"一段","MAREA":" ","LANE":" ","ALLEY":" ","HOUSE_NO":"１１４２號","E_COORD97":181070.44,"N_COORD97":2539878.2799999998,"ADDRESS":"南雄路一段１１４２號","OBJECTID":644198},"geometry":{"x":181070.44000000227,"y":2539878.2799999993}},{"attributes":{"ID":644226,"DIS_CODE":0,"TOWNNAME":"關廟區","LI":"松腳里","LIN":"4鄰","STREET":"松平街","SECT":" ","MAREA":" ","LANE":" ","ALLEY":" ","HOUSE_NO":"１６號","E_COORD97":182081.51999999999,"N_COORD97":2539733.25,"ADDRESS":"松平街１６號","OBJECTID":644199},"geometry":{"x":182081.52000000048,"y":2539733.25}},{"attributes":{"ID":644227,"DIS_CODE":0,"TOWNNAME":"關廟區","LI":"關廟里","LIN":"4鄰","STREET":"中山路","SECT":"二段","MAREA":" ","LANE":" ","ALLEY":" ","HOUSE_NO":"２４６號","E_COORD97":179985.16,"N_COORD97":2540260.2799999998,"ADDRESS":"中山路二段２４６號","OBJECTID":644200},"geometry":{"x":179985.16000000015,"y":2540260.2799999993}}]}