{"displayFieldName":"TOWNNAME","fieldAliases":{"ID":"ID","DIS_CODE":"DIS_CODE","TOWNNAME":"TOWNNAME","LI":"LI","LIN":"LIN","STREET":"STREET","SECT":"SECT","MAREA":"MAREA","LANE":"LANE","ALLEY":"ALLEY","HOUSE_NO":"HOUSE_NO","E_COORD97":"E_COORD97","N_COORD97":"N_COORD97","ADDRESS":"ADDRESS","OBJECTID":"OBJECTID"},"geometryType":"esriGeometryPoint","spatialReference":{"wkid":102443,"latestWkid":3826},"fields":[{"name":"ID","type":"esriFieldTypeDouble","alias":"ID"},{"name":"DIS_CODE","type":"esriFieldTypeInteger","alias":"DIS_CODE"},{"name":"TOWNNAME","type":"esriFieldTypeString","alias":"TOWNNAME","length":8},{"name":"LI","type":"esriFieldTypeString","alias":"LI","length":8},{"name":"LIN","type":"esriFieldTypeString","alias":"LIN","length":12},{"name":"STREET","type":"esriFieldTypeString","alias":"STREET","length":20},{"name":"SECT","type":"esriFieldTypeString","alias":"SECT","length":8},{"name":"MAREA","type":"esriFieldTypeString","alias":"MAREA","length":12},{"name":"LANE","type":"esriFieldTypeString","alias":"LANE","length":10},{"name":"ALLEY","type":"esriFieldTypeString","alias":"ALLEY","length":10},{"name":"HOUSE_NO","type":"esriFieldTypeString","alias":"HOUSE_NO","length":20},{"name":"E_COORD97","type":"esriFieldTypeDouble","alias":"E_COORD97"},{"name":"N_COORD97","type":"esriFieldTypeDouble","alias":"N_COORD97"},{"name":"ADDRESS","type":"esriFieldTypeString","alias":"ADDRESS","length":50},{"name":"OBJECTID","type":"esriFieldTypeOID","alias":"OBJECTID"}],"features":[{"attributes":{"ID":590228,"DIS_CODE":0,"TOWNNAME":"中西區","LI":"郡王里","LIN":"11鄰","STREET":"南門路","SECT":" ","MAREA":" ","LANE":" ","ALLEY":" ","HOUSE_NO":"１３９號","E_COORD97":168506.13,"N_COORD97":2543037.48,"ADDRESS":"南門路１３９號","OBJECTID":590201},"geometry":{"x":168506.13000000082,"y":2543037.4800000004}},{"attributes":{"ID":590229,"DIS_CODE":0,"TOWNNAME":"中西區","LI":"郡王里","LIN":"11鄰","STREET":"南門路","SECT":" ","MAREA":" ","LANE":" ","ALLEY":" ","HOUSE_NO":"１４１號","E_COORD97":168502.72,"N_COORD97":2543039.3300000001,"ADDRESS":"南門路１４１號","OBJECTID":590202},"geometry":{"x":168502.71999999974,"y":2543039.3300000019}},{"attributes":{"ID":590230,"DIS_CODE":0,"TOWNNAME":"中西區","LI":"郡王里","LIN":"11鄰","STREET":"南門路","SECT":" ","MAREA":" ","LANE":" ","ALLEY":" ","HOUSE_NO":"１４３號","E_COORD97":168488.38,"N_COORD97":2543037.8700000001,"ADDRESS":"南門路１４３號","OBJECTID":590203},"geometry":{"x":168488.37999999989,"y":2543037.8700000029}},{"attributes":{"ID":590231,"DIS_CODE":0,"TOWNNAME":"中西區","LI":"郡王里","LIN":"11鄰","STREET":"南門路","SECT":" ","MAREA":" ","LANE":" ","ALLEY":" ","HOUSE_NO":"１４５號","E_COORD97":168473.39000000001,"N_COORD97":2543020.9399999999,"ADDRESS":"南門路１４５號","OBJECTID":590204},"geometry":{"x":168473.3900000006,"y":2543020.9400000013}},{"attributes":{"ID":590232,"DIS_CODE":0,"TOWNNAME":"中西區","LI":"郡王里","LIN":"11鄰","STREET":"南門路","SECT":" ","MAREA":" ","LANE":" ","ALLEY":" ","HOUSE_NO":"１５１號","E_COORD97":168489.57000000001,"N_COORD97":2543013.1899999999,"ADDRESS":"南門路１５１號","OBJECTID":590205},"geometry":{"x":168489.57000000216,"y":2543013.1900000013}},{"attributes":{"ID":590233,"DIS_CODE":0,"TOWNNAME":"中西區","LI":"郡王里","LIN":"11鄰","STREET":"南門路","SECT":" ","MAREA":" ","LANE":" ","ALLEY":" ","HOUSE_NO":"１５３號","E_COORD97":168494.84,"N_COORD97":2542995.6699999999,"ADDRESS":"南門路１５３號","OBJECTID":590206},"geometry":{"x":168494.83999999985,"y":2542995.6700000037}},{"attributes":{"ID":590234,"DIS_CODE":0,"TOWNNAME":"中西區","LI":"郡王里","LIN":"11鄰","STREET":"南門路","SECT":" ","MAREA":" ","LANE":" ","ALLEY":" ","HOUSE_NO":"１５３號之１","E_COORD97":168490.32000000001,"N_COORD97":2542994.52,"ADDRESS":"南門路１５３號之１","OBJECTID":590207},"geometry":{"x":168490.3200000003,"y":2542994.5200000014}},{"attributes":{"ID":590235,"DIS_CODE":0,"TOWNNAME":"永康區","LI":"六合里","LIN":"1鄰","STREET":"新興街","SECT":" ","MAREA":" ","LANE":" ","ALLEY":" ","HOUSE_NO":"８之１號地下一層之２","E_COORD97":170950.51000000001,"N_COORD97":2545766.79,"ADDRESS":"新興街８之１號地下一層之２","OBJECTID":590208},"geometry":{"x":170950.50999999978,"y":2545766.7899999991}},{"attributes":{"ID":590236,"DIS_CODE":0,"TOWNNAME":"永康區","LI":"六合里","LIN":"1鄰","STREET":"新興街","SECT":" ","MAREA":" ","LANE":" ","ALLEY":" ","HOUSE_NO":"８之２號地下一層之３","E_COORD97":170941.37,"N_COORD97":2545746.29,"ADDRESS":"新興街８之２號地下一層之３","OBJECTID":590209},"geometry":{"x":170941.37000000011,"y":2545746.2899999991}},{"attributes":{"ID":590237,"DIS_CODE":0,"TOWNNAME":"永康區","LI":"王行里","LIN":"16鄰","STREET":"中山北路","SECT":" ","MAREA":" ","LANE":" ","ALLEY":" ","HOUSE_NO":"６０３號","E_COORD97":175485.60000000001,"N_COORD97":2547783.6200000001,"ADDRESS":"中山北路６０３號","OBJECTID":590210},"geometry":{"x":175485.59999999963,"y":2547783.620000001}},{"attributes":{"ID":590238,"DIS_CODE":0,"TOWNNAME":"中西區","LI":"郡王里","LIN":"11鄰","STREET":"南門路","SECT":" ","MAREA":" ","LANE":" ","ALLEY":" ","HOUSE_NO":"１５５號","E_COORD97":168485.53,"N_COORD97":2542994.6099999999,"ADDRESS":"南門路１５５號","OBJECTID":590211},"geometry":{"x":168485.53000000026,"y":2542994.6099999994}},{"attributes":{"ID":590239,"DIS_CODE":0,"TOWNNAME":"仁德區","LI":"保安里","LIN":"11鄰","STREET":"中正路","SECT":"一段","MAREA":" ","LANE":" ","ALLEY":" ","HOUSE_NO":"２１９號","E_COORD97":171705.54999999999,"N_COORD97":2535921.77,"ADDRESS":"中正路一段２１９號","OBJECTID":590212},"geometry":{"x":171705.55000000075,"y":2535921.7699999996}},{"attributes":{"ID":590240,"DIS_CODE":0,"TOWNNAME":"仁德區","LI":"成功里","LIN":"11鄰","STREET":"成功二街","SECT":" ","MAREA":" ","LANE":" ","ALLEY":" ","HOUSE_NO":"４５號","E_COORD97":170918.70000000001,"N_COORD97":2539818.77,"ADDRESS":"成功二街４５號","OBJECTID":590213},"geometry":{"x":170918.70000000019,"y":2539818.7700000014}},{"attributes":{"ID":590241,"DIS_CODE":0,"TOWNNAME":"新化區","LI":"東榮里","LIN":"22鄰","STREET":"復興路","SECT":" ","MAREA":" ","LANE":" ","ALLEY":" ","HOUSE_NO":"２２７號之２","E_COORD97":179372.78,"N_COORD97":2548134.2599999998,"ADDRESS":"復興路２２７號之２","OBJECTID":590214},"geometry":{"x":179372.78000000212,"y":2548134.2599999998}},{"attributes":{"ID":590242,"DIS_CODE":0,"TOWNNAME":"新化區","LI":"東榮里","LIN":"22鄰","STREET":"復興路","SECT":" ","MAREA":" ","LANE":" ","ALLEY":" ","HOUSE_NO":"２２５號之２","E_COORD97":179372.78,"N_COORD97":2548134.2599999998,"ADDRESS":"復興路２２５號之２","OBJECTID":590215},"geometry":{"x":179372.78000000212,"y":2548134.2599999998}},{"attributes":{"ID":590243,"DIS_CODE":0,"TOWNNAME":"新化區","LI":"東榮里","LIN":"22鄰","STREET":"復興路","SECT":" ","MAREA":" ","LANE":" ","ALLEY":" ","HOUSE_NO":"２２３號之５","E_COORD97":179372.78,"N_COORD97":2548134.2599999998,"ADDRESS":"復興路２２３號之５","OBJECTID":590216},"geometry":{"x":179372.78000000212,"y":2548134.2599999998}},{"attributes":{"ID":590244,"DIS_CODE":0,"TOWNNAME":"新化區","LI":"東榮里","LIN":"22鄰","STREET":"復興路","SECT":" ","MAREA":" ","LANE":" ","ALLEY":" ","HOUSE_NO":"２２３號之２","E_COORD97":179372.78,"N_COORD97":2548134.2599999998,"ADDRESS":"復興路２２３號之２","OBJECTID":590217},"geometry":{"x":179372.78000000212,"y":2548134.2599999998}},{"attributes":{"ID":590245,"DIS_CODE":0,"TOWNNAME":"新化區","LI":"東榮里","LIN":"22鄰","STREET":"復興路","SECT":" ","MAREA":" ","LANE":" ","ALLEY":" ","HOUSE_NO":"２２１號之４","E_COORD97":179372.76000000001,"N_COORD97":2548134.2599999998,"ADDRESS":"復興路２２１號之４","OBJECTID":590218},"geometry":{"x":179372.76000000071,"y":2548134.2599999998}},{"attributes":{"ID":590246,"DIS_CODE":0,"TOWNNAME":"永康區","LI":"中興里","LIN":"11鄰","STREET":"中興街","SECT":" ","MAREA":" ","LANE":" ","ALLEY":" ","HOUSE_NO":"２８號","E_COORD97":172098.54999999999,"N_COORD97":2545171.54,"ADDRESS":"中興街２８號","OBJECTID":590219},"geometry":{"x":172098.55000000075,"y":2545171.5399999991}},{"attributes":{"ID":590247,"DIS_CODE":0,"TOWNNAME":"仁德區","LI":"成功里","LIN":"11鄰","STREET":"成功二街","SECT":" ","MAREA":" ","LANE":" ","ALLEY":" ","HOUSE_NO":"４９號","E_COORD97":170918.89999999999,"N_COORD97":2539810.52,"ADDRESS":"成功二街４９號","OBJECTID":590220},"geometry":{"x":170918.9000000013,"y":2539810.5200000014}},{"attributes":{"ID":590248,"DIS_CODE":0,"TOWNNAME":"仁德區","LI":"成功里","LIN":"11鄰","STREET":"成功二街","SECT":" ","MAREA":" ","LANE":" ","ALLEY":" ","HOUSE_NO":"５７號","E_COORD97":170919.14999999999,"N_COORD97":2539794.27,"ADDRESS":"成功二街５７號","OBJECTID":590221},"geometry":{"x":170919.15000000037,"y":2539794.2700000033}},{"attributes":{"ID":590249,"DIS_CODE":0,"TOWNNAME":"仁德區","LI":"成功里","LIN":"11鄰","STREET":"成功二街","SECT":" ","MAREA":" ","LANE":" ","ALLEY":" ","HOUSE_NO":"４１號","E_COORD97":170918.29999999999,"N_COORD97":2539826.7599999998,"ADDRESS":"成功二街４１號","OBJECTID":590222},"geometry":{"x":170918.30000000168,"y":2539826.7599999998}},{"attributes":{"ID":590250,"DIS_CODE":0,"TOWNNAME":"仁德區","LI":"保安里","LIN":"11鄰","STREET":"中正路","SECT":"一段","MAREA":" ","LANE":" ","ALLEY":" ","HOUSE_NO":"２２５之１號","E_COORD97":171745.45999999999,"N_COORD97":2535937.54,"ADDRESS":"中正路一段２２５之１號","OBJECTID":590223},"geometry":{"x":171745.46000000089,"y":2535937.540000001}},{"attributes":{"ID":590251,"DIS_CODE":0,"TOWNNAME":"永康區","LI":"王行里","LIN":"13鄰","STREET":"王行路","SECT":" ","MAREA":" ","LANE":" ","ALLEY":" ","HOUSE_NO":"１１５８號","E_COORD97":175522.38,"N_COORD97":2550291.4900000002,"ADDRESS":"王行路１１５８號","OBJECTID":590224},"geometry":{"x":175522.38000000082,"y":2550291.4900000021}},{"attributes":{"ID":590252,"DIS_CODE":0,"TOWNNAME":"永康區","LI":"中興里","LIN":"13鄰","STREET":"中興街","SECT":" ","MAREA":" ","LANE":" ","ALLEY":" ","HOUSE_NO":"８２號","E_COORD97":172088.34,"N_COORD97":2545316.7400000002,"ADDRESS":"中興街８２號","OBJECTID":590225},"geometry":{"x":172088.34000000078,"y":2545316.7400000002}},{"attributes":{"ID":590253,"DIS_CODE":0,"TOWNNAME":"永康區","LI":"中興里","LIN":"13鄰","STREET":"中興街","SECT":" ","MAREA":" ","LANE":" ","ALLEY":" ","HOUSE_NO":"４２號","E_COORD97":172091.41,"N_COORD97":2545224.4300000002,"ADDRESS":"中興街４２號","OBJECTID":590226},"geometry":{"x":172091.41000000108,"y":2545224.4299999978}},{"attributes":{"ID":590254,"DIS_CODE":0,"TOWNNAME":"永康區","LI":"中興里","LIN":"12鄰","STREET":"中興街","SECT":" ","MAREA":" ","LANE":" ","ALLEY":" ","HOUSE_NO":"４０號","E_COORD97":172095.66,"N_COORD97":2545216.7799999998,"ADDRESS":"中興街４０號","OBJECTID":590227},"geometry":{"x":172095.66000000015,"y":2545216.7799999993}},{"attributes":{"ID":590255,"DIS_CODE":0,"TOWNNAME":"永康區","LI":"中興里","LIN":"11鄰","STREET":"中興街","SECT":" ","MAREA":" ","LANE":" ","ALLEY":" ","HOUSE_NO":"３２號","E_COORD97":172097.57000000001,"N_COORD97":2545181.29,"ADDRESS":"中興街３２號","OBJECTID":590228},"geometry":{"x":172097.57000000123,"y":2545181.290000001}},{"attributes":{"ID":590256,"DIS_CODE":0,"TOWNNAME":"仁德區","LI":"保安里","LIN":"11鄰","STREET":"文賢二街","SECT":" ","MAREA":" ","LANE":" ","ALLEY":" ","HOUSE_NO":"１４號","E_COORD97":171623.13,"N_COORD97":2536071.8300000001,"ADDRESS":"文賢二街１４號","OBJECTID":590229},"geometry":{"x":171623.13000000175,"y":2536071.8300000038}},{"attributes":{"ID":590257,"DIS_CODE":0,"TOWNNAME":"仁德區","LI":"成功里","LIN":"11鄰","STREET":"成功二街","SECT":" ","MAREA":" ","LANE":" ","ALLEY":" ","HOUSE_NO":"１１９號","E_COORD97":170932.89999999999,"N_COORD97":2539646.2599999998,"ADDRESS":"成功二街１１９號","OBJECTID":590230},"geometry":{"x":170932.90000000037,"y":2539646.2600000016}},{"attributes":{"ID":590258,"DIS_CODE":0,"TOWNNAME":"仁德區","LI":"成功里","LIN":"11鄰","STREET":"成功二街","SECT":" ","MAREA":" ","LANE":" ","ALLEY":" ","HOUSE_NO":"４３號","E_COORD97":170918.60000000001,"N_COORD97":2539822.77,"ADDRESS":"成功二街４３號","OBJECTID":590231},"geometry":{"x":170918.60000000056,"y":2539822.7700000014}},{"attributes":{"ID":590259,"DIS_CODE":0,"TOWNNAME":"永康區","LI":"中興里","LIN":"22鄰","STREET":"中華路","SECT":" ","MAREA":" ","LANE":" ","ALLEY":" ","HOUSE_NO":"１９６號之１０","E_COORD97":171634.56,"N_COORD97":2544991.2999999998,"ADDRESS":"中華路１９６號之１０","OBJECTID":590232},"geometry":{"x":171634.55999999959,"y":2544991.3000000007}},{"attributes":{"ID":590260,"DIS_CODE":0,"TOWNNAME":"永康區","LI":"五王里","LIN":"42鄰","STREET":"中山南路","SECT":" ","MAREA":" ","LANE":" ","ALLEY":" ","HOUSE_NO":"３１８號","E_COORD97":171639.35000000001,"N_COORD97":2546168.2400000002,"ADDRESS":"中山南路３１８號","OBJECTID":590233},"geometry":{"x":171639.34999999963,"y":2546168.2400000002}},{"attributes":{"ID":590261,"DIS_CODE":0,"TOWNNAME":"永康區","LI":"王行里","LIN":"16鄰","STREET":"中山北路","SECT":" ","MAREA":" ","LANE":" ","ALLEY":" ","HOUSE_NO":"９９３號","E_COORD97":176330.42999999999,"N_COORD97":2548031.0499999998,"ADDRESS":"中山北路９９３號","OBJECTID":590234},"geometry":{"x":176330.43000000063,"y":2548031.0500000007}},{"attributes":{"ID":590262,"DIS_CODE":0,"TOWNNAME":"仁德區","LI":"田厝里","LIN":"11鄰","STREET":"田厝二街","SECT":" ","MAREA":" ","LANE":" ","ALLEY":" ","HOUSE_NO":"１０２號","E_COORD97":172303.09,"N_COORD97":2537709.75,"ADDRESS":"田厝二街１０２號","OBJECTID":590235},"geometry":{"x":172303.09000000171,"y":2537709.7500000037}},{"attributes":{"ID":590263,"DIS_CODE":0,"TOWNNAME":"仁德區","LI":"保安里","LIN":"11鄰","STREET":"中正路","SECT":"一段","MAREA":" ","LANE":" ","ALLEY":" ","HOUSE_NO":"２１５號","E_COORD97":171698.14999999999,"N_COORD97":2535906.77,"ADDRESS":"中正路一段２１５號","OBJECTID":590236},"geometry":{"x":171698.1500000013,"y":2535906.7700000014}},{"attributes":{"ID":590264,"DIS_CODE":0,"TOWNNAME":"仁德區","LI":"成功里","LIN":"11鄰","STREET":"成功二街","SECT":" ","MAREA":" ","LANE":" ","ALLEY":" ","HOUSE_NO":"５１號","E_COORD97":170918.95000000001,"N_COORD97":2539806.52,"ADDRESS":"成功二街５１號","OBJECTID":590237},"geometry":{"x":170918.95000000019,"y":2539806.5200000014}},{"attributes":{"ID":590265,"DIS_CODE":0,"TOWNNAME":"仁德區","LI":"成功里","LIN":"11鄰","STREET":"成功二街","SECT":" ","MAREA":" ","LANE":" ","ALLEY":" ","HOUSE_NO":"８５號","E_COORD97":170939.20000000001,"N_COORD97":2539722.77,"ADDRESS":"成功二街８５號","OBJECTID":590238},"geometry":{"x":170939.20000000019,"y":2539722.7699999977}},{"attributes":{"ID":590266,"DIS_CODE":0,"TOWNNAME":"仁德區","LI":"保安里","LIN":"11鄰","STREET":"中正路","SECT":"一段","MAREA":" ","LANE":" ","ALLEY":" ","HOUSE_NO":"２２５號","E_COORD97":171734.82000000001,"N_COORD97":2535932.02,"ADDRESS":"中正路一段２２５號","OBJECTID":590239},"geometry":{"x":171734.82000000123,"y":2535932.0200000014}},{"attributes":{"ID":590267,"DIS_CODE":0,"TOWNNAME":"仁德區","LI":"保安里","LIN":"11鄰","STREET":"中正路","SECT":"一段","MAREA":" ","LANE":" ","ALLEY":" ","HOUSE_NO":"２１１號","E_COORD97":171689.54000000001,"N_COORD97":2535901.27,"ADDRESS":"中正路一段２１１號","OBJECTID":590240},"geometry":{"x":171689.54000000004,"y":2535901.2699999996}},{"attributes":{"ID":590268,"DIS_CODE":0,"TOWNNAME":"仁德區","LI":"保安里","LIN":"11鄰","STREET":"中正路","SECT":"一段","MAREA":" ","LANE":" ","ALLEY":" ","HOUSE_NO":"２１３號","E_COORD97":171693.45999999999,"N_COORD97":2535904.27,"ADDRESS":"中正路一段２１３號","OBJECTID":590241},"geometry":{"x":171693.45999999996,"y":2535904.2699999996}},{"attributes":{"ID":590269,"DIS_CODE":0,"TOWNNAME":"永康區","LI":"中興里","LIN":"17鄰","STREET":"中華路","SECT":" ","MAREA":" ","LANE":" ","ALLEY":" ","HOUSE_NO":"３２４號","E_COORD97":171507.54000000001,"N_COORD97":2545400.5,"ADDRESS":"中華路３２４號","OBJECTID":590242},"geometry":{"x":171507.54000000097,"y":2545400.4999999981}},{"attributes":{"ID":590270,"DIS_CODE":0,"TOWNNAME":"永康區","LI":"王行里","LIN":"16鄰","STREET":"中山北路","SECT":" ","MAREA":" ","LANE":" ","ALLEY":" ","HOUSE_NO":"７３１號","E_COORD97":175803.47,"N_COORD97":2547919.21,"ADDRESS":"中山北路７３１號","OBJECTID":590243},"geometry":{"x":175803.46999999974,"y":2547919.2100000046}},{"attributes":{"ID":590271,"DIS_CODE":0,"TOWNNAME":"仁德區","LI":"太子里","LIN":"11鄰","STREET":"長興二街","SECT":" ","MAREA":" ","LANE":" ","ALLEY":" ","HOUSE_NO":"８８號","E_COORD97":174215.13,"N_COORD97":2543699.5,"ADDRESS":"長興二街８８號","OBJECTID":590244},"geometry":{"x":174215.13000000082,"y":2543699.5000000019}},{"attributes":{"ID":590272,"DIS_CODE":0,"TOWNNAME":"仁德區","LI":"成功里","LIN":"11鄰","STREET":"成功二街","SECT":" ","MAREA":" ","LANE":" ","ALLEY":" ","HOUSE_NO":"５３號","E_COORD97":170919.04999999999,"N_COORD97":2539802.27,"ADDRESS":"成功二街５３號","OBJECTID":590245},"geometry":{"x":170919.05000000075,"y":2539802.2700000014}},{"attributes":{"ID":590273,"DIS_CODE":0,"TOWNNAME":"仁德區","LI":"保安里","LIN":"11鄰","STREET":"文賢路","SECT":"一段","MAREA":" ","LANE":" ","ALLEY":" ","HOUSE_NO":"８４３號","E_COORD97":171627.85000000001,"N_COORD97":2536004.3199999998,"ADDRESS":"文賢路一段８４３號","OBJECTID":590246},"geometry":{"x":171627.84999999963,"y":2536004.320000004}},{"attributes":{"ID":590274,"DIS_CODE":0,"TOWNNAME":"仁德區","LI":"成功里","LIN":"11鄰","STREET":"保生東路","SECT":" ","MAREA":" ","LANE":" ","ALLEY":" ","HOUSE_NO":"２９８號","E_COORD97":171015.04000000001,"N_COORD97":2539792.52,"ADDRESS":"保生東路２９８號","OBJECTID":590247},"geometry":{"x":171015.04000000004,"y":2539792.5200000033}},{"attributes":{"ID":590275,"DIS_CODE":0,"TOWNNAME":"仁德區","LI":"保安里","LIN":"11鄰","STREET":"文賢路","SECT":"一段","MAREA":" ","LANE":" ","ALLEY":" ","HOUSE_NO":"８４１號","E_COORD97":171626.59,"N_COORD97":2536008.5699999998,"ADDRESS":"文賢路一段８４１號","OBJECTID":590248},"geometry":{"x":171626.59000000171,"y":2536008.5700000003}},{"attributes":{"ID":590276,"DIS_CODE":0,"TOWNNAME":"仁德區","LI":"保安里","LIN":"11鄰","STREET":"文賢路","SECT":"一段","MAREA":" ","LANE":" ","ALLEY":" ","HOUSE_NO":"８５１號","E_COORD97":171635.29000000001,"N_COORD97":2535985.5800000001,"ADDRESS":"文賢路一段８５１號","OBJECTID":590249},"geometry":{"x":171635.29000000004,"y":2535985.5800000019}},{"attributes":{"ID":590277,"DIS_CODE":0,"TOWNNAME":"仁德區","LI":"保安里","LIN":"11鄰","STREET":"中正路","SECT":"一段","MAREA":" ","LANE":" ","ALLEY":" ","HOUSE_NO":"２２９號之２","E_COORD97":171772.32000000001,"N_COORD97":2535957.2999999998,"ADDRESS":"中正路一段２２９號之２","OBJECTID":590250},"geometry":{"x":171772.3200000003,"y":2535957.3000000045}},{"attributes":{"ID":590278,"DIS_CODE":0,"TOWNNAME":"仁德區","LI":"新田里","LIN":"11鄰","STREET":"北保一街","SECT":" ","MAREA":" ","LANE":" ","ALLEY":" ","HOUSE_NO":"３６號","E_COORD97":173221.51999999999,"N_COORD97":2539465.75,"ADDRESS":"北保一街３６號","OBJECTID":590251},"geometry":{"x":173221.51999999955,"y":2539465.7500000037}},{"attributes":{"ID":590279,"DIS_CODE":0,"TOWNNAME":"仁德區","LI":"新田里","LIN":"11鄰","STREET":"北保一街","SECT":" ","MAREA":" ","LANE":" ","ALLEY":" ","HOUSE_NO":"１０８號","E_COORD97":173140.22,"N_COORD97":2539592,"ADDRESS":"北保一街１０８號","OBJECTID":590252},"geometry":{"x":173140.22000000067,"y":2539592}},{"attributes":{"ID":590280,"DIS_CODE":0,"TOWNNAME":"永康區","LI":"王行里","LIN":"13鄰","STREET":"王行路","SECT":" ","MAREA":" ","LANE":" ","ALLEY":" ","HOUSE_NO":"１１５４號","E_COORD97":175530.98000000001,"N_COORD97":2550286.3599999999,"ADDRESS":"王行路１１５４號","OBJECTID":590253},"geometry":{"x":175530.98000000138,"y":2550286.3599999975}},{"attributes":{"ID":590281,"DIS_CODE":0,"TOWNNAME":"永康區","LI":"王行里","LIN":"8鄰","STREET":"育樂街","SECT":" ","MAREA":" ","LANE":" ","ALLEY":" ","HOUSE_NO":"６號","E_COORD97":175465.70999999999,"N_COORD97":2548416.5,"ADDRESS":"育樂街６號","OBJECTID":590254},"geometry":{"x":175465.71000000089,"y":2548416.5}},{"attributes":{"ID":590282,"DIS_CODE":0,"TOWNNAME":"永康區","LI":"五王里","LIN":"1鄰","STREET":"中華二路","SECT":" ","MAREA":" ","LANE":" ","ALLEY":" ","HOUSE_NO":"２１８號","E_COORD97":171575.64000000001,"N_COORD97":2545440.8999999999,"ADDRESS":"中華二路２１８號","OBJECTID":590255},"geometry":{"x":171575.6400000006,"y":2545440.9000000004}},{"attributes":{"ID":590283,"DIS_CODE":0,"TOWNNAME":"永康區","LI":"王行里","LIN":"6鄰","STREET":"育樂街","SECT":" ","MAREA":" ","LANE":" ","ALLEY":" ","HOUSE_NO":"１４１號","E_COORD97":175089.48999999999,"N_COORD97":2548335.2400000002,"ADDRESS":"育樂街１４１號","OBJECTID":590256},"geometry":{"x":175089.49000000115,"y":2548335.2399999984}},{"attributes":{"ID":590284,"DIS_CODE":0,"TOWNNAME":"永康區","LI":"中興里","LIN":"11鄰","STREET":"中興街","SECT":" ","MAREA":" ","LANE":" ","ALLEY":" ","HOUSE_NO":"１３號","E_COORD97":172084.51999999999,"N_COORD97":2545131.9900000002,"ADDRESS":"中興街１３號","OBJECTID":590257},"geometry":{"x":172084.52000000142,"y":2545131.9900000002}},{"attributes":{"ID":590285,"DIS_CODE":0,"TOWNNAME":"仁德區","LI":"後壁里","LIN":"11鄰","STREET":"德善路","SECT":" ","MAREA":" ","LANE":" ","ALLEY":" ","HOUSE_NO":"２４５號","E_COORD97":173834.14999999999,"N_COORD97":2538747.27,"ADDRESS":"德善路２４５號","OBJECTID":590258},"geometry":{"x":173834.1500000013,"y":2538747.2700000014}},{"attributes":{"ID":590286,"DIS_CODE":0,"TOWNNAME":"仁德區","LI":"新田里","LIN":"11鄰","STREET":"北保一街","SECT":" ","MAREA":" ","LANE":" ","ALLEY":" ","HOUSE_NO":"３８號","E_COORD97":173217.32999999999,"N_COORD97":2539469.75,"ADDRESS":"北保一街３８號","OBJECTID":590259},"geometry":{"x":173217.33000000101,"y":2539469.7500000019}},{"attributes":{"ID":590287,"DIS_CODE":0,"TOWNNAME":"仁德區","LI":"後壁里","LIN":"11鄰","STREET":"德善路","SECT":" ","MAREA":" ","LANE":" ","ALLEY":" ","HOUSE_NO":"２１３號之１０","E_COORD97":173790.95000000001,"N_COORD97":2538817.04,"ADDRESS":"德善路２１３號之１０","OBJECTID":590260},"geometry":{"x":173790.95000000205,"y":2538817.040000001}},{"attributes":{"ID":590288,"DIS_CODE":0,"TOWNNAME":"仁德區","LI":"後壁里","LIN":"11鄰","STREET":"德善路","SECT":" ","MAREA":" ","LANE":" ","ALLEY":" ","HOUSE_NO":"２１３號之１","E_COORD97":173755.67999999999,"N_COORD97":2538758.0499999998,"ADDRESS":"德善路２１３號之１","OBJECTID":590261},"geometry":{"x":173755.68000000063,"y":2538758.0500000007}},{"attributes":{"ID":590289,"DIS_CODE":0,"TOWNNAME":"仁德區","LI":"新田里","LIN":"11鄰","STREET":"北保一街","SECT":" ","MAREA":" ","LANE":" ","ALLEY":" ","HOUSE_NO":"１１６號","E_COORD97":173114.23999999999,"N_COORD97":2539601.75,"ADDRESS":"北保一街１１６號","OBJECTID":590262},"geometry":{"x":173114.24000000022,"y":2539601.7500000037}},{"attributes":{"ID":590290,"DIS_CODE":0,"TOWNNAME":"仁德區","LI":"新田里","LIN":"11鄰","STREET":"北保路","SECT":" ","MAREA":" ","LANE":" ","ALLEY":" ","HOUSE_NO":"６８號","E_COORD97":173187.01999999999,"N_COORD97":2539502.3599999999,"ADDRESS":"北保路６８號","OBJECTID":590263},"geometry":{"x":173187.02000000048,"y":2539502.3600000013}},{"attributes":{"ID":590291,"DIS_CODE":0,"TOWNNAME":"仁德區","LI":"後壁里","LIN":"11鄰","STREET":"德善路","SECT":" ","MAREA":" ","LANE":" ","ALLEY":" ","HOUSE_NO":"２１３號之３","E_COORD97":173764.66,"N_COORD97":2538775.5499999998,"ADDRESS":"德善路２１３號之３","OBJECTID":590264},"geometry":{"x":173764.66000000108,"y":2538775.5500000007}},{"attributes":{"ID":590292,"DIS_CODE":0,"TOWNNAME":"仁德區","LI":"新田里","LIN":"11鄰","STREET":"北保路","SECT":" ","MAREA":" ","LANE":" ","ALLEY":" ","HOUSE_NO":"８２之３號","E_COORD97":173220.85000000001,"N_COORD97":2539524.29,"ADDRESS":"北保路８２之３號","OBJECTID":590265},"geometry":{"x":173220.84999999963,"y":2539524.2899999991}},{"attributes":{"ID":590293,"DIS_CODE":0,"TOWNNAME":"仁德區","LI":"後壁里","LIN":"11鄰","STREET":"德善路","SECT":" ","MAREA":" ","LANE":" ","ALLEY":" ","HOUSE_NO":"２１３號之６","E_COORD97":173773.59,"N_COORD97":2538791.04,"ADDRESS":"德善路２１３號之６","OBJECTID":590266},"geometry":{"x":173773.59000000078,"y":2538791.0399999991}},{"attributes":{"ID":590294,"DIS_CODE":0,"TOWNNAME":"仁德區","LI":"新田里","LIN":"11鄰","STREET":"北保路","SECT":" ","MAREA":" ","LANE":" ","ALLEY":" ","HOUSE_NO":"８５號","E_COORD97":173234.95000000001,"N_COORD97":2539569.3999999999,"ADDRESS":"北保路８５號","OBJECTID":590267},"geometry":{"x":173234.95000000205,"y":2539569.4000000004}},{"attributes":{"ID":590295,"DIS_CODE":0,"TOWNNAME":"仁德區","LI":"新田里","LIN":"11鄰","STREET":"北保路","SECT":" ","MAREA":" ","LANE":" ","ALLEY":" ","HOUSE_NO":"８２之６號","E_COORD97":173219.95000000001,"N_COORD97":2539533.04,"ADDRESS":"北保路８２之６號","OBJECTID":590268},"geometry":{"x":173219.95000000112,"y":2539533.0399999991}},{"attributes":{"ID":590296,"DIS_CODE":0,"TOWNNAME":"永康區","LI":"五王里","LIN":"42鄰","STREET":"中山南路","SECT":" ","MAREA":" ","LANE":" ","ALLEY":" ","HOUSE_NO":"３２０號","E_COORD97":171644.19,"N_COORD97":2546171.7400000002,"ADDRESS":"中山南路３２０號","OBJECTID":590269},"geometry":{"x":171644.19000000134,"y":2546171.7400000002}},{"attributes":{"ID":590297,"DIS_CODE":0,"TOWNNAME":"永康區","LI":"中興里","LIN":"13鄰","STREET":"中興街","SECT":" ","MAREA":" ","LANE":" ","ALLEY":" ","HOUSE_NO":"９０號","E_COORD97":172089.10000000001,"N_COORD97":2545338.4900000002,"ADDRESS":"中興街９０號","OBJECTID":590270},"geometry":{"x":172089.10000000149,"y":2545338.4900000002}},{"attributes":{"ID":590298,"DIS_CODE":0,"TOWNNAME":"永康區","LI":"中興里","LIN":"17鄰","STREET":"中華路","SECT":" ","MAREA":" ","LANE":" ","ALLEY":" ","HOUSE_NO":"３１６號","E_COORD97":171517.53,"N_COORD97":2545382.75,"ADDRESS":"中華路３１６號","OBJECTID":590271},"geometry":{"x":171517.53000000119,"y":2545382.7500000019}},{"attributes":{"ID":590299,"DIS_CODE":0,"TOWNNAME":"永康區","LI":"六合里","LIN":"1鄰","STREET":"新興街","SECT":" ","MAREA":" ","LANE":" ","ALLEY":" ","HOUSE_NO":"８之３號地下一層之７","E_COORD97":170949.73000000001,"N_COORD97":2545728.0499999998,"ADDRESS":"新興街８之３號地下一層之７","OBJECTID":590272},"geometry":{"x":170949.73000000045,"y":2545728.0500000026}},{"attributes":{"ID":590300,"DIS_CODE":0,"TOWNNAME":"仁德區","LI":"新田里","LIN":"11鄰","STREET":"北保路","SECT":" ","MAREA":" ","LANE":" ","ALLEY":" ","HOUSE_NO":"７２號","E_COORD97":173190.85000000001,"N_COORD97":2539510.3599999999,"ADDRESS":"北保路７２號","OBJECTID":590273},"geometry":{"x":173190.84999999963,"y":2539510.3599999994}},{"attributes":{"ID":590301,"DIS_CODE":0,"TOWNNAME":"仁德區","LI":"新田里","LIN":"11鄰","STREET":"北保路","SECT":" ","MAREA":" ","LANE":" ","ALLEY":" ","HOUSE_NO":"７３號","E_COORD97":173217.29999999999,"N_COORD97":2539561.4900000002,"ADDRESS":"北保路７３號","OBJECTID":590274},"geometry":{"x":173217.30000000075,"y":2539561.4900000002}},{"attributes":{"ID":590302,"DIS_CODE":0,"TOWNNAME":"仁德區","LI":"後壁里","LIN":"11鄰","STREET":"德善路","SECT":" ","MAREA":" ","LANE":" ","ALLEY":" ","HOUSE_NO":"２１３號之９","E_COORD97":173786.95000000001,"N_COORD97":2538812.79,"ADDRESS":"德善路２１３號之９","OBJECTID":590275},"geometry":{"x":173786.95000000019,"y":2538812.7899999991}},{"attributes":{"ID":590303,"DIS_CODE":0,"TOWNNAME":"仁德區","LI":"後壁里","LIN":"11鄰","STREET":"德善路","SECT":" ","MAREA":" ","LANE":" ","ALLEY":" ","HOUSE_NO":"２２１號","E_COORD97":173772.72,"N_COORD97":2538745.02,"ADDRESS":"德善路２２１號","OBJECTID":590276},"geometry":{"x":173772.71999999974,"y":2538745.0200000033}},{"attributes":{"ID":590304,"DIS_CODE":0,"TOWNNAME":"永康區","LI":"王行里","LIN":"4鄰","STREET":"育樂街","SECT":" ","MAREA":" ","LANE":" ","ALLEY":" ","HOUSE_NO":"１３５號","E_COORD97":175109.94,"N_COORD97":2548323.1699999999,"ADDRESS":"育樂街１３５號","OBJECTID":590277},"geometry":{"x":175109.94000000041,"y":2548323.1700000018}},{"attributes":{"ID":590305,"DIS_CODE":0,"TOWNNAME":"官田區","LI":"隆本里","LIN":"11鄰","STREET":"復興街","SECT":" ","MAREA":" ","LANE":" ","ALLEY":" ","HOUSE_NO":"１８號","E_COORD97":179941.5,"N_COORD97":2566463.0699999998,"ADDRESS":"復興街１８號","OBJECTID":590278},"geometry":{"x":179941.5,"y":2566463.0700000022}},{"attributes":{"ID":590306,"DIS_CODE":0,"TOWNNAME":"永康區","LI":"中興里","LIN":"13鄰","STREET":"中興街","SECT":" ","MAREA":" ","LANE":" ","ALLEY":" ","HOUSE_NO":"５６號","E_COORD97":172090.98999999999,"N_COORD97":2545251.9900000002,"ADDRESS":"中興街５６號","OBJECTID":590279},"geometry":{"x":172090.99000000115,"y":2545251.9900000039}},{"attributes":{"ID":590307,"DIS_CODE":0,"TOWNNAME":"永康區","LI":"王行里","LIN":"16鄰","STREET":"中山北路","SECT":" ","MAREA":" ","LANE":" ","ALLEY":" ","HOUSE_NO":"６１１號","E_COORD97":175513.95000000001,"N_COORD97":2547789.0299999998,"ADDRESS":"中山北路６１１號","OBJECTID":590280},"geometry":{"x":175513.95000000112,"y":2547789.0299999993}},{"attributes":{"ID":590308,"DIS_CODE":0,"TOWNNAME":"官田區","LI":"隆本里","LIN":"11鄰","STREET":"復興街","SECT":" ","MAREA":" ","LANE":" ","ALLEY":" ","HOUSE_NO":"２０號","E_COORD97":179936.70999999999,"N_COORD97":2566463.0800000001,"ADDRESS":"復興街２０號","OBJECTID":590281},"geometry":{"x":179936.70999999996,"y":2566463.0800000001}},{"attributes":{"ID":590309,"DIS_CODE":0,"TOWNNAME":"官田區","LI":"隆本里","LIN":"11鄰","STREET":"復興街","SECT":" ","MAREA":" ","LANE":" ","ALLEY":" ","HOUSE_NO":"２２號","E_COORD97":179932.39000000001,"N_COORD97":2566462.6200000001,"ADDRESS":"復興街２２號","OBJECTID":590282},"geometry":{"x":179932.38999999966,"y":2566462.6200000029}},{"attributes":{"ID":590310,"DIS_CODE":0,"TOWNNAME":"官田區","LI":"隆本里","LIN":"11鄰","STREET":"復興街","SECT":" ","MAREA":" ","LANE":" ","ALLEY":" ","HOUSE_NO":"２６號","E_COORD97":179927.88,"N_COORD97":2566461.7999999998,"ADDRESS":"復興街２６號","OBJECTID":590283},"geometry":{"x":179927.88000000175,"y":2566461.8000000026}},{"attributes":{"ID":590311,"DIS_CODE":0,"TOWNNAME":"官田區","LI":"隆本里","LIN":"11鄰","STREET":"復興街","SECT":" ","MAREA":" ","LANE":" ","ALLEY":" ","HOUSE_NO":"２８號","E_COORD97":179923.29999999999,"N_COORD97":2566461.9199999999,"ADDRESS":"復興街２８號","OBJECTID":590284},"geometry":{"x":179923.30000000075,"y":2566461.9199999999}},{"attributes":{"ID":590312,"DIS_CODE":0,"TOWNNAME":"官田區","LI":"隆本里","LIN":"11鄰","STREET":"復興街","SECT":" ","MAREA":" ","LANE":" ","ALLEY":" ","HOUSE_NO":"３０號","E_COORD97":179919.04999999999,"N_COORD97":2566461.5800000001,"ADDRESS":"復興街３０號","OBJECTID":590285},"geometry":{"x":179919.04999999981,"y":2566461.5800000038}},{"attributes":{"ID":590313,"DIS_CODE":0,"TOWNNAME":"永康區","LI":"中興里","LIN":"15鄰","STREET":"中興街","SECT":" ","MAREA":" ","LANE":" ","ALLEY":" ","HOUSE_NO":"９９號","E_COORD97":172066.14999999999,"N_COORD97":2545395.25,"ADDRESS":"中興街９９號","OBJECTID":590286},"geometry":{"x":172066.1500000013,"y":2545395.25}},{"attributes":{"ID":590314,"DIS_CODE":0,"TOWNNAME":"永康區","LI":"中興里","LIN":"23鄰","STREET":"中華路","SECT":" ","MAREA":" ","LANE":" ","ALLEY":" ","HOUSE_NO":"２１８號之７","E_COORD97":171690.29000000001,"N_COORD97":2545060.5499999998,"ADDRESS":"中華路２１８號之７","OBJECTID":590287},"geometry":{"x":171690.29000000097,"y":2545060.5500000007}},{"attributes":{"ID":590315,"DIS_CODE":0,"TOWNNAME":"永康區","LI":"王行里","LIN":"16鄰","STREET":"中山北路","SECT":" ","MAREA":" ","LANE":" ","ALLEY":" ","HOUSE_NO":"７９１號","E_COORD97":176035.22,"N_COORD97":2547931.6000000001,"ADDRESS":"中山北路７９１號","OBJECTID":590288},"geometry":{"x":176035.22000000067,"y":2547931.5999999996}},{"attributes":{"ID":590316,"DIS_CODE":0,"TOWNNAME":"官田區","LI":"隆本里","LIN":"11鄰","STREET":"興隆街","SECT":" ","MAREA":" ","LANE":" ","ALLEY":" ","HOUSE_NO":"１８號","E_COORD97":180036.51000000001,"N_COORD97":2566412.6299999999,"ADDRESS":"興隆街１８號","OBJECTID":590289},"geometry":{"x":180036.50999999978,"y":2566412.6300000008}},{"attributes":{"ID":590317,"DIS_CODE":0,"TOWNNAME":"官田區","LI":"隆本里","LIN":"11鄰","STREET":"興隆街","SECT":" ","MAREA":" ","LANE":" ","ALLEY":" ","HOUSE_NO":"２０號","E_COORD97":180032.41,"N_COORD97":2566412.21,"ADDRESS":"興隆街２０號","OBJECTID":590290},"geometry":{"x":180032.41000000015,"y":2566412.2100000009}},{"attributes":{"ID":590318,"DIS_CODE":0,"TOWNNAME":"官田區","LI":"隆本里","LIN":"11鄰","STREET":"興隆街","SECT":" ","MAREA":" ","LANE":" ","ALLEY":" ","HOUSE_NO":"２２號","E_COORD97":180028.48000000001,"N_COORD97":2566411.4900000002,"ADDRESS":"興隆街２２號","OBJECTID":590291},"geometry":{"x":180028.48000000138,"y":2566411.4900000039}},{"attributes":{"ID":590319,"DIS_CODE":0,"TOWNNAME":"官田區","LI":"隆本里","LIN":"11鄰","STREET":"興隆街","SECT":" ","MAREA":" ","LANE":" ","ALLEY":" ","HOUSE_NO":"２６號","E_COORD97":180024.31,"N_COORD97":2566410.6600000001,"ADDRESS":"興隆街２６號","OBJECTID":590292},"geometry":{"x":180024.30999999959,"y":2566410.660000002}},{"attributes":{"ID":590320,"DIS_CODE":0,"TOWNNAME":"官田區","LI":"隆本里","LIN":"11鄰","STREET":"興隆街","SECT":" ","MAREA":" ","LANE":" ","ALLEY":" ","HOUSE_NO":"２８號","E_COORD97":180019.85000000001,"N_COORD97":2566409.9399999999,"ADDRESS":"興隆街２８號","OBJECTID":590293},"geometry":{"x":180019.85000000056,"y":2566409.9399999995}},{"attributes":{"ID":590321,"DIS_CODE":0,"TOWNNAME":"官田區","LI":"隆本里","LIN":"11鄰","STREET":"興隆街","SECT":" ","MAREA":" ","LANE":" ","ALLEY":" ","HOUSE_NO":"２號","E_COORD97":180063.26999999999,"N_COORD97":2566422,"ADDRESS":"興隆街２號","OBJECTID":590294},"geometry":{"x":180063.26999999955,"y":2566422.0000000019}},{"attributes":{"ID":590322,"DIS_CODE":0,"TOWNNAME":"官田區","LI":"隆本里","LIN":"11鄰","STREET":"興隆街","SECT":" ","MAREA":" ","LANE":" ","ALLEY":" ","HOUSE_NO":"３０號","E_COORD97":180015.57999999999,"N_COORD97":2566409.27,"ADDRESS":"興隆街３０號","OBJECTID":590295},"geometry":{"x":180015.58000000101,"y":2566409.2700000014}},{"attributes":{"ID":590323,"DIS_CODE":0,"TOWNNAME":"官田區","LI":"隆本里","LIN":"11鄰","STREET":"興隆街","SECT":" ","MAREA":" ","LANE":" ","ALLEY":" ","HOUSE_NO":"３２號","E_COORD97":180010.72,"N_COORD97":2566407.6200000001,"ADDRESS":"興隆街３２號","OBJECTID":590296},"geometry":{"x":180010.72000000067,"y":2566407.6199999992}},{"attributes":{"ID":590324,"DIS_CODE":0,"TOWNNAME":"永康區","LI":"王行里","LIN":"13鄰","STREET":"王行路","SECT":" ","MAREA":" ","LANE":" ","ALLEY":" ","HOUSE_NO":"１１０２號之７","E_COORD97":175631.54999999999,"N_COORD97":2550235.54,"ADDRESS":"王行路１１０２號之７","OBJECTID":590297},"geometry":{"x":175631.55000000075,"y":2550235.540000001}},{"attributes":{"ID":590325,"DIS_CODE":0,"TOWNNAME":"永康區","LI":"六合里","LIN":"1鄰","STREET":"新興街","SECT":" ","MAREA":" ","LANE":" ","ALLEY":" ","HOUSE_NO":"８之２號地下一層之５","E_COORD97":170941.42999999999,"N_COORD97":2545746.29,"ADDRESS":"新興街８之２號地下一層之５","OBJECTID":590298},"geometry":{"x":170941.43000000063,"y":2545746.2899999991}},{"attributes":{"ID":590326,"DIS_CODE":0,"TOWNNAME":"永康區","LI":"王行里","LIN":"16鄰","STREET":"中山北路","SECT":" ","MAREA":" ","LANE":" ","ALLEY":" ","HOUSE_NO":"７７１號","E_COORD97":175984.19,"N_COORD97":2547922.4700000002,"ADDRESS":"中山北路７７１號","OBJECTID":590299},"geometry":{"x":175984.19000000041,"y":2547922.4700000007}},{"attributes":{"ID":590327,"DIS_CODE":0,"TOWNNAME":"官田區","LI":"隆本里","LIN":"11鄰","STREET":"興隆街","SECT":" ","MAREA":" ","LANE":" ","ALLEY":" ","HOUSE_NO":"３６號","E_COORD97":180006.37,"N_COORD97":2566406.7599999998,"ADDRESS":"興隆街３６號","OBJECTID":590300},"geometry":{"x":180006.37000000104,"y":2566406.7600000016}},{"attributes":{"ID":590328,"DIS_CODE":0,"TOWNNAME":"官田區","LI":"隆本里","LIN":"11鄰","STREET":"興隆街","SECT":" ","MAREA":" ","LANE":" ","ALLEY":" ","HOUSE_NO":"３８號","E_COORD97":180001.07999999999,"N_COORD97":2566405.5800000001,"ADDRESS":"興隆街３８號","OBJECTID":590301},"geometry":{"x":180001.07999999914,"y":2566405.5800000001}},{"attributes":{"ID":590329,"DIS_CODE":0,"TOWNNAME":"官田區","LI":"隆本里","LIN":"11鄰","STREET":"興隆街","SECT":" ","MAREA":" ","LANE":" ","ALLEY":" ","HOUSE_NO":"８號","E_COORD97":180054.29000000001,"N_COORD97":2566420.8700000001,"ADDRESS":"興隆街８號","OBJECTID":590302},"geometry":{"x":180054.29000000097,"y":2566420.8700000029}},{"attributes":{"ID":590330,"DIS_CODE":0,"TOWNNAME":"永康區","LI":"五王里","LIN":"34鄰","STREET":"五福街","SECT":" ","MAREA":" ","LANE":" ","ALLEY":" ","HOUSE_NO":"５３號","E_COORD97":171362.47,"N_COORD97":2545920,"ADDRESS":"五福街５３號","OBJECTID":590303},"geometry":{"x":171362.46999999974,"y":2545920.0000000019}},{"attributes":{"ID":590331,"DIS_CODE":0,"TOWNNAME":"永康區","LI":"王行里","LIN":"14鄰","STREET":"興工路","SECT":" ","MAREA":" ","LANE":" ","ALLEY":" ","HOUSE_NO":"２４號","E_COORD97":175222.34,"N_COORD97":2549871.25,"ADDRESS":"興工路２４號","OBJECTID":590304},"geometry":{"x":175222.34000000078,"y":2549871.2500000019}},{"attributes":{"ID":590332,"DIS_CODE":0,"TOWNNAME":"永康區","LI":"王行里","LIN":"8鄰","STREET":"育樂街","SECT":" ","MAREA":" ","LANE":" ","ALLEY":" ","HOUSE_NO":"２８號","E_COORD97":175435.92999999999,"N_COORD97":2548386.0499999998,"ADDRESS":"育樂街２８號","OBJECTID":590305},"geometry":{"x":175435.9299999997,"y":2548386.0500000026}},{"attributes":{"ID":590333,"DIS_CODE":0,"TOWNNAME":"永康區","LI":"北灣里","LIN":"1鄰","STREET":"大同街","SECT":" ","MAREA":" ","LANE":" ","ALLEY":" ","HOUSE_NO":"７０號","E_COORD97":175209.45000000001,"N_COORD97":2545435.7799999998,"ADDRESS":"大同街７０號","OBJECTID":590306},"geometry":{"x":175209.45000000019,"y":2545435.7800000012}},{"attributes":{"ID":590334,"DIS_CODE":0,"TOWNNAME":"新市區","LI":"新和里","LIN":"11鄰","STREET":"仁愛街","SECT":" ","MAREA":" ","LANE":" ","ALLEY":" ","HOUSE_NO":"１６７號","E_COORD97":177575.95000000001,"N_COORD97":2552704.5299999998,"ADDRESS":"仁愛街１６７號","OBJECTID":590307},"geometry":{"x":177575.95000000019,"y":2552704.5299999993}},{"attributes":{"ID":590335,"DIS_CODE":0,"TOWNNAME":"新市區","LI":"新和里","LIN":"11鄰","STREET":"仁愛街","SECT":" ","MAREA":" ","LANE":" ","ALLEY":" ","HOUSE_NO":"１５８號","E_COORD97":177602.06,"N_COORD97":2552648.0299999998,"ADDRESS":"仁愛街１５８號","OBJECTID":590308},"geometry":{"x":177602.06000000145,"y":2552648.0299999993}},{"attributes":{"ID":590336,"DIS_CODE":0,"TOWNNAME":"新市區","LI":"新和里","LIN":"11鄰","STREET":"仁愛街","SECT":" ","MAREA":" ","LANE":" ","ALLEY":" ","HOUSE_NO":"１５７號","E_COORD97":177570.59,"N_COORD97":2552677.7799999998,"ADDRESS":"仁愛街１５７號","OBJECTID":590309},"geometry":{"x":177570.59000000078,"y":2552677.7800000012}},{"attributes":{"ID":590337,"DIS_CODE":0,"TOWNNAME":"新市區","LI":"新和里","LIN":"11鄰","STREET":"仁愛街","SECT":" ","MAREA":" ","LANE":" ","ALLEY":" ","HOUSE_NO":"１６５號","E_COORD97":177575.34,"N_COORD97":2552700.0299999998,"ADDRESS":"仁愛街１６５號","OBJECTID":590310},"geometry":{"x":177575.34000000078,"y":2552700.0300000012}},{"attributes":{"ID":590338,"DIS_CODE":0,"TOWNNAME":"新市區","LI":"新和里","LIN":"11鄰","STREET":"仁愛街","SECT":" ","MAREA":" ","LANE":" ","ALLEY":" ","HOUSE_NO":"１７９號","E_COORD97":177583.89000000001,"N_COORD97":2552743.5299999998,"ADDRESS":"仁愛街１７９號","OBJECTID":590311},"geometry":{"x":177583.88999999966,"y":2552743.5300000031}},{"attributes":{"ID":590339,"DIS_CODE":0,"TOWNNAME":"永康區","LI":"中興里","LIN":"22鄰","STREET":"中華路","SECT":" ","MAREA":" ","LANE":" ","ALLEY":" ","HOUSE_NO":"２０２號之７","E_COORD97":171637.51000000001,"N_COORD97":2545025.54,"ADDRESS":"中華路２０２號之７","OBJECTID":590312},"geometry":{"x":171637.51000000071,"y":2545025.5399999991}},{"attributes":{"ID":590340,"DIS_CODE":0,"TOWNNAME":"永康區","LI":"北灣里","LIN":"32鄰","STREET":"大同街","SECT":" ","MAREA":" ","LANE":" ","ALLEY":" ","HOUSE_NO":"６７號","E_COORD97":175151.07999999999,"N_COORD97":2545417.98,"ADDRESS":"大同街６７號","OBJECTID":590313},"geometry":{"x":175151.08000000007,"y":2545417.9800000004}},{"attributes":{"ID":590341,"DIS_CODE":0,"TOWNNAME":"永康區","LI":"王行里","LIN":"6鄰","STREET":"育樂路","SECT":" ","MAREA":" ","LANE":" ","ALLEY":" ","HOUSE_NO":"１５６號","E_COORD97":175150.97,"N_COORD97":2548387.5,"ADDRESS":"育樂路１５６號","OBJECTID":590314},"geometry":{"x":175150.96999999974,"y":2548387.4999999981}},{"attributes":{"ID":590342,"DIS_CODE":0,"TOWNNAME":"永康區","LI":"王行里","LIN":"16鄰","STREET":"中山北路","SECT":" ","MAREA":" ","LANE":" ","ALLEY":" ","HOUSE_NO":"７３５號","E_COORD97":175894.06,"N_COORD97":2547915.52,"ADDRESS":"中山北路７３５號","OBJECTID":590315},"geometry":{"x":175894.06000000052,"y":2547915.5199999996}},{"attributes":{"ID":590343,"DIS_CODE":0,"TOWNNAME":"永康區","LI":"中興里","LIN":"11鄰","STREET":"中興街","SECT":" ","MAREA":" ","LANE":" ","ALLEY":" ","HOUSE_NO":"２６號","E_COORD97":172098.78,"N_COORD97":2545167.54,"ADDRESS":"中興街２６號","OBJECTID":590316},"geometry":{"x":172098.78000000212,"y":2545167.5399999991}},{"attributes":{"ID":590344,"DIS_CODE":0,"TOWNNAME":"新市區","LI":"新和里","LIN":"11鄰","STREET":"仁愛街","SECT":" ","MAREA":" ","LANE":" ","ALLEY":" ","HOUSE_NO":"１５４之１號","E_COORD97":177578.29000000001,"N_COORD97":2552620.2999999998,"ADDRESS":"仁愛街１５４之１號","OBJECTID":590317},"geometry":{"x":177578.29000000004,"y":2552620.3000000007}},{"attributes":{"ID":590345,"DIS_CODE":0,"TOWNNAME":"新市區","LI":"新和里","LIN":"11鄰","STREET":"仁愛街","SECT":" ","MAREA":" ","LANE":" ","ALLEY":" ","HOUSE_NO":"１５５號","E_COORD97":177569.75,"N_COORD97":2552673.2799999998,"ADDRESS":"仁愛街１５５號","OBJECTID":590318},"geometry":{"x":177569.75000000093,"y":2552673.2799999993}},{"attributes":{"ID":590346,"DIS_CODE":0,"TOWNNAME":"永康區","LI":"北灣里","LIN":"11鄰","STREET":"大灣七街","SECT":" ","MAREA":" ","LANE":" ","ALLEY":" ","HOUSE_NO":"６７號","E_COORD97":175064.45999999999,"N_COORD97":2545712.9300000002,"ADDRESS":"大灣七街６７號","OBJECTID":590319},"geometry":{"x":175064.46000000089,"y":2545712.9300000034}},{"attributes":{"ID":590347,"DIS_CODE":0,"TOWNNAME":"永康區","LI":"北灣里","LIN":"11鄰","STREET":"信義二街","SECT":" ","MAREA":" ","LANE":" ","ALLEY":" ","HOUSE_NO":"６５號","E_COORD97":175010.73000000001,"N_COORD97":2545725.52,"ADDRESS":"信義二街６５號","OBJECTID":590320},"geometry":{"x":175010.73000000138,"y":2545725.5200000033}},{"attributes":{"ID":590348,"DIS_CODE":0,"TOWNNAME":"永康區","LI":"北灣里","LIN":"11鄰","STREET":"大灣七街","SECT":" ","MAREA":" ","LANE":" ","ALLEY":" ","HOUSE_NO":"５７號","E_COORD97":175072.09,"N_COORD97":2545687.5600000001,"ADDRESS":"大灣七街５７號","OBJECTID":590321},"geometry":{"x":175072.09000000078,"y":2545687.5600000005}},{"attributes":{"ID":590349,"DIS_CODE":0,"TOWNNAME":"永康區","LI":"北灣里","LIN":"11鄰","STREET":"大灣七街","SECT":" ","MAREA":" ","LANE":" ","ALLEY":" ","HOUSE_NO":"５９號","E_COORD97":175071.29000000001,"N_COORD97":2545691.5600000001,"ADDRESS":"大灣七街５９號","OBJECTID":590322},"geometry":{"x":175071.29000000004,"y":2545691.5600000005}},{"attributes":{"ID":590350,"DIS_CODE":0,"TOWNNAME":"永康區","LI":"北灣里","LIN":"11鄰","STREET":"信義二街","SECT":" ","MAREA":" ","LANE":" ","ALLEY":" ","HOUSE_NO":"５７號","E_COORD97":175028.47,"N_COORD97":2545708.2799999998,"ADDRESS":"信義二街５７號","OBJECTID":590323},"geometry":{"x":175028.47000000067,"y":2545708.2800000012}},{"attributes":{"ID":590351,"DIS_CODE":0,"TOWNNAME":"永康區","LI":"北灣里","LIN":"11鄰","STREET":"大灣七街","SECT":" ","MAREA":" ","LANE":" ","ALLEY":" ","HOUSE_NO":"５５號","E_COORD97":175072.72,"N_COORD97":2545684.0600000001,"ADDRESS":"大灣七街５５號","OBJECTID":590324},"geometry":{"x":175072.72000000067,"y":2545684.0600000005}},{"attributes":{"ID":590352,"DIS_CODE":0,"TOWNNAME":"永康區","LI":"王行里","LIN":"11鄰","STREET":"王行路","SECT":" ","MAREA":" ","LANE":" ","ALLEY":" ","HOUSE_NO":"１００６號","E_COORD97":175850.51999999999,"N_COORD97":2550101.77,"ADDRESS":"王行路１００６號","OBJECTID":590325},"geometry":{"x":175850.51999999955,"y":2550101.7700000014}},{"attributes":{"ID":590353,"DIS_CODE":0,"TOWNNAME":"永康區","LI":"北灣里","LIN":"11鄰","STREET":"大灣七街","SECT":" ","MAREA":" ","LANE":" ","ALLEY":" ","HOUSE_NO":"６３號","E_COORD97":175066.16,"N_COORD97":2545703.4300000002,"ADDRESS":"大灣七街６３號","OBJECTID":590326},"geometry":{"x":175066.16000000201,"y":2545703.4300000016}},{"attributes":{"ID":590354,"DIS_CODE":0,"TOWNNAME":"永康區","LI":"北灣里","LIN":"11鄰","STREET":"大灣七街","SECT":" ","MAREA":" ","LANE":" ","ALLEY":" ","HOUSE_NO":"７１號","E_COORD97":175062.67000000001,"N_COORD97":2545721.4300000002,"ADDRESS":"大灣七街７１號","OBJECTID":590327},"geometry":{"x":175062.67000000086,"y":2545721.4299999997}},{"attributes":{"ID":590355,"DIS_CODE":0,"TOWNNAME":"永康區","LI":"北灣里","LIN":"11鄰","STREET":"信義二街","SECT":" ","MAREA":" ","LANE":" ","ALLEY":" ","HOUSE_NO":"６７號","E_COORD97":175000.66,"N_COORD97":2545723.02,"ADDRESS":"信義二街６７號","OBJECTID":590328},"geometry":{"x":175000.66000000108,"y":2545723.0200000014}},{"attributes":{"ID":590356,"DIS_CODE":0,"TOWNNAME":"永康區","LI":"北灣里","LIN":"11鄰","STREET":"信義二街","SECT":" ","MAREA":" ","LANE":" ","ALLEY":" ","HOUSE_NO":"７１號","E_COORD97":174988.22,"N_COORD97":2545711.4399999999,"ADDRESS":"信義二街７１號","OBJECTID":590329},"geometry":{"x":174988.21999999974,"y":2545711.4399999995}},{"attributes":{"ID":590357,"DIS_CODE":0,"TOWNNAME":"永康區","LI":"王行里","LIN":"11鄰","STREET":"王行路","SECT":" ","MAREA":" ","LANE":" ","ALLEY":" ","HOUSE_NO":"５５９號之１","E_COORD97":175797.72,"N_COORD97":2550112.73,"ADDRESS":"王行路５５９號之１","OBJECTID":590330},"geometry":{"x":175797.72000000067,"y":2550112.7300000023}},{"attributes":{"ID":590358,"DIS_CODE":0,"TOWNNAME":"永康區","LI":"北灣里","LIN":"32鄰","STREET":"大同街","SECT":" ","MAREA":" ","LANE":" ","ALLEY":" ","HOUSE_NO":"６５號","E_COORD97":175153.91,"N_COORD97":2545413.21,"ADDRESS":"大同街６５號","OBJECTID":590331},"geometry":{"x":175153.91000000015,"y":2545413.2100000009}},{"attributes":{"ID":590359,"DIS_CODE":0,"TOWNNAME":"永康區","LI":"王行里","LIN":"14鄰","STREET":"經華路","SECT":" ","MAREA":" ","LANE":" ","ALLEY":" ","HOUSE_NO":"２１號之１","E_COORD97":175319.97,"N_COORD97":2549608.4300000002,"ADDRESS":"經華路２１號之１","OBJECTID":590332},"geometry":{"x":175319.97000000067,"y":2549608.4300000034}},{"attributes":{"ID":590360,"DIS_CODE":0,"TOWNNAME":"永康區","LI":"王行里","LIN":"16鄰","STREET":"中山北路","SECT":" ","MAREA":" ","LANE":" ","ALLEY":" ","HOUSE_NO":"６６３號","E_COORD97":175631.17999999999,"N_COORD97":2547820.7999999998,"ADDRESS":"中山北路６６３號","OBJECTID":590333},"geometry":{"x":175631.1799999997,"y":2547820.8000000026}},{"attributes":{"ID":590361,"DIS_CODE":0,"TOWNNAME":"永康區","LI":"王行里","LIN":"16鄰","STREET":"中山北路","SECT":" ","MAREA":" ","LANE":" ","ALLEY":" ","HOUSE_NO":"６３３號之１","E_COORD97":175548.64999999999,"N_COORD97":2547799.5299999998,"ADDRESS":"中山北路６３３號之１","OBJECTID":590334},"geometry":{"x":175548.65000000037,"y":2547799.5299999993}},{"attributes":{"ID":590362,"DIS_CODE":0,"TOWNNAME":"永康區","LI":"北灣里","LIN":"11鄰","STREET":"大灣七街","SECT":" ","MAREA":" ","LANE":" ","ALLEY":" ","HOUSE_NO":"５１號","E_COORD97":175074.69,"N_COORD97":2545674.3900000001,"ADDRESS":"大灣七街５１號","OBJECTID":590335},"geometry":{"x":175074.69000000227,"y":2545674.3900000025}},{"attributes":{"ID":590363,"DIS_CODE":0,"TOWNNAME":"永康區","LI":"北灣里","LIN":"11鄰","STREET":"信義二街","SECT":" ","MAREA":" ","LANE":" ","ALLEY":" ","HOUSE_NO":"７７號","E_COORD97":174971.5,"N_COORD97":2545707.9199999999,"ADDRESS":"信義二街７７號","OBJECTID":590336},"geometry":{"x":174971.5,"y":2545707.9200000018}},{"attributes":{"ID":590364,"DIS_CODE":0,"TOWNNAME":"永康區","LI":"北灣里","LIN":"11鄰","STREET":"信義二街","SECT":" ","MAREA":" ","LANE":" ","ALLEY":" ","HOUSE_NO":"５５號","E_COORD97":175031.81,"N_COORD97":2545730.02,"ADDRESS":"信義二街５５號","OBJECTID":590337},"geometry":{"x":175031.80999999959,"y":2545730.0200000014}},{"attributes":{"ID":590365,"DIS_CODE":0,"TOWNNAME":"永康區","LI":"王行里","LIN":"11鄰","STREET":"王行路","SECT":" ","MAREA":" ","LANE":" ","ALLEY":" ","HOUSE_NO":"５５９號","E_COORD97":175810.87,"N_COORD97":2550077.25,"ADDRESS":"王行路５５９號","OBJECTID":590338},"geometry":{"x":175810.87000000104,"y":2550077.25}},{"attributes":{"ID":590366,"DIS_CODE":0,"TOWNNAME":"永康區","LI":"五王里","LIN":"24鄰","STREET":"五福街","SECT":" ","MAREA":" ","LANE":" ","ALLEY":" ","HOUSE_NO":"２６號","E_COORD97":171319.42000000001,"N_COORD97":2545869.7999999998,"ADDRESS":"五福街２６號","OBJECTID":590339},"geometry":{"x":171319.42000000179,"y":2545869.8000000007}},{"attributes":{"ID":590367,"DIS_CODE":0,"TOWNNAME":"永康區","LI":"正強里","LIN":"40鄰","STREET":"四維街","SECT":" ","MAREA":" ","LANE":" ","ALLEY":" ","HOUSE_NO":"１９５號","E_COORD97":173254.98999999999,"N_COORD97":2548465.5699999998,"ADDRESS":"四維街１９５號","OBJECTID":590340},"geometry":{"x":173254.98999999929,"y":2548465.570000004}},{"attributes":{"ID":590368,"DIS_CODE":0,"TOWNNAME":"永康區","LI":"六合里","LIN":"1鄰","STREET":"新興街","SECT":" ","MAREA":" ","LANE":" ","ALLEY":" ","HOUSE_NO":"６之１號地下一層之７","E_COORD97":170935.44,"N_COORD97":2545719.7999999998,"ADDRESS":"新興街６之１號地下一層之７","OBJECTID":590341},"geometry":{"x":170935.44000000134,"y":2545719.8000000026}},{"attributes":{"ID":590369,"DIS_CODE":0,"TOWNNAME":"永康區","LI":"中興里","LIN":"27鄰","STREET":"中興街","SECT":" ","MAREA":" ","LANE":" ","ALLEY":" ","HOUSE_NO":"８９號","E_COORD97":172066.04000000001,"N_COORD97":2545342.9900000002,"ADDRESS":"中興街８９號","OBJECTID":590342},"geometry":{"x":172066.04000000004,"y":2545342.9900000002}},{"attributes":{"ID":590370,"DIS_CODE":0,"TOWNNAME":"永康區","LI":"北灣里","LIN":"1鄰","STREET":"大同街","SECT":" ","MAREA":" ","LANE":" ","ALLEY":" ","HOUSE_NO":"６６號","E_COORD97":175218.35000000001,"N_COORD97":2545437.0299999998,"ADDRESS":"大同街６６號","OBJECTID":590343},"geometry":{"x":175218.3499999987,"y":2545437.0300000031}},{"attributes":{"ID":590371,"DIS_CODE":0,"TOWNNAME":"永康區","LI":"六合里","LIN":"1鄰","STREET":"新興街","SECT":" ","MAREA":" ","LANE":" ","ALLEY":" ","HOUSE_NO":"８之３號地下一層之５","E_COORD97":170949.81,"N_COORD97":2545728.0499999998,"ADDRESS":"新興街８之３號地下一層之５","OBJECTID":590344},"geometry":{"x":170949.80999999959,"y":2545728.0500000026}},{"attributes":{"ID":590372,"DIS_CODE":0,"TOWNNAME":"永康區","LI":"東灣里","LIN":"11鄰","STREET":"大灣路","SECT":" ","MAREA":" ","LANE":" ","ALLEY":" ","HOUSE_NO":"５０８號","E_COORD97":174689.47,"N_COORD97":2544852.3300000001,"ADDRESS":"大灣路５０８號","OBJECTID":590345},"geometry":{"x":174689.47000000067,"y":2544852.3300000001}},{"attributes":{"ID":590373,"DIS_CODE":0,"TOWNNAME":"新市區","LI":"新和里","LIN":"11鄰","STREET":"仁愛街","SECT":" ","MAREA":" ","LANE":" ","ALLEY":" ","HOUSE_NO":"１８７號","E_COORD97":177587.45000000001,"N_COORD97":2552759.5299999998,"ADDRESS":"仁愛街１８７號","OBJECTID":590346},"geometry":{"x":177587.45000000019,"y":2552759.5299999993}},{"attributes":{"ID":590374,"DIS_CODE":0,"TOWNNAME":"新市區","LI":"新和里","LIN":"11鄰","STREET":"仁愛街","SECT":" ","MAREA":" ","LANE":" ","ALLEY":" ","HOUSE_NO":"１８５號","E_COORD97":177586.25,"N_COORD97":2552755.2799999998,"ADDRESS":"仁愛街１８５號","OBJECTID":590347},"geometry":{"x":177586.25000000093,"y":2552755.2800000031}},{"attributes":{"ID":590375,"DIS_CODE":0,"TOWNNAME":"新市區","LI":"新和里","LIN":"11鄰","STREET":"仁愛街","SECT":" ","MAREA":" ","LANE":" ","ALLEY":" ","HOUSE_NO":"１６３號","E_COORD97":177572.95000000001,"N_COORD97":2552690.5299999998,"ADDRESS":"仁愛街１６３號","OBJECTID":590348},"geometry":{"x":177572.95000000205,"y":2552690.5300000012}},{"attributes":{"ID":590376,"DIS_CODE":0,"TOWNNAME":"新市區","LI":"新和里","LIN":"11鄰","STREET":"仁愛街","SECT":" ","MAREA":" ","LANE":" ","ALLEY":" ","HOUSE_NO":"１４３號","E_COORD97":177561.34,"N_COORD97":2552631.7799999998,"ADDRESS":"仁愛街１４３號","OBJECTID":590349},"geometry":{"x":177561.33999999985,"y":2552631.7799999993}},{"attributes":{"ID":590377,"DIS_CODE":0,"TOWNNAME":"新市區","LI":"新和里","LIN":"11鄰","STREET":"仁愛街","SECT":" ","MAREA":" ","LANE":" ","ALLEY":" ","HOUSE_NO":"１２５號","E_COORD97":177549.25,"N_COORD97":2552588.2799999998,"ADDRESS":"仁愛街１２５號","OBJECTID":590350},"geometry":{"x":177549.25000000093,"y":2552588.2799999993}},{"attributes":{"ID":590378,"DIS_CODE":0,"TOWNNAME":"新市區","LI":"新和里","LIN":"11鄰","STREET":"仁愛街","SECT":" ","MAREA":" ","LANE":" ","ALLEY":" ","HOUSE_NO":"１６０號","E_COORD97":177592.04000000001,"N_COORD97":2552670.77,"ADDRESS":"仁愛街１６０號","OBJECTID":590351},"geometry":{"x":177592.04000000004,"y":2552670.7700000033}},{"attributes":{"ID":590379,"DIS_CODE":0,"TOWNNAME":"新市區","LI":"新和里","LIN":"11鄰","STREET":"仁愛街","SECT":" ","MAREA":" ","LANE":" ","ALLEY":" ","HOUSE_NO":"１８１號","E_COORD97":177584.84,"N_COORD97":2552747.5299999998,"ADDRESS":"仁愛街１８１號","OBJECTID":590352},"geometry":{"x":177584.83999999985,"y":2552747.5300000012}},{"attributes":{"ID":590380,"DIS_CODE":0,"TOWNNAME":"新市區","LI":"新和里","LIN":"11鄰","STREET":"仁愛街","SECT":" ","MAREA":" ","LANE":" ","ALLEY":" ","HOUSE_NO":"１７７號","E_COORD97":177583.20000000001,"N_COORD97":2552739.2799999998,"ADDRESS":"仁愛街１７７號","OBJECTID":590353},"geometry":{"x":177583.20000000205,"y":2552739.2800000012}},{"attributes":{"ID":590381,"DIS_CODE":0,"TOWNNAME":"新市區","LI":"新和里","LIN":"11鄰","STREET":"仁愛街","SECT":" ","MAREA":" ","LANE":" ","ALLEY":" ","HOUSE_NO":"１７１號","E_COORD97":177576.20000000001,"N_COORD97":2552716.0299999998,"ADDRESS":"仁愛街１７１號","OBJECTID":590354},"geometry":{"x":177576.20000000019,"y":2552716.0299999975}},{"attributes":{"ID":590382,"DIS_CODE":0,"TOWNNAME":"永康區","LI":"北灣里","LIN":"32鄰","STREET":"大同街","SECT":" ","MAREA":" ","LANE":" ","ALLEY":" ","HOUSE_NO":"７５號","E_COORD97":175145.35999999999,"N_COORD97":2545445.5299999998,"ADDRESS":"大同街７５號","OBJECTID":590355},"geometry":{"x":175145.36000000127,"y":2545445.5300000012}},{"attributes":{"ID":590383,"DIS_CODE":0,"TOWNNAME":"永康區","LI":"王行里","LIN":"13鄰","STREET":"王行路","SECT":" ","MAREA":" ","LANE":" ","ALLEY":" ","HOUSE_NO":"１１２６號","E_COORD97":175608.54000000001,"N_COORD97":2550258.25,"ADDRESS":"王行路１１２６號","OBJECTID":590356},"geometry":{"x":175608.54000000004,"y":2550258.2500000019}},{"attributes":{"ID":590384,"DIS_CODE":0,"TOWNNAME":"永康區","LI":"王行里","LIN":"15鄰","STREET":"龍昌街","SECT":" ","MAREA":" ","LANE":" ","ALLEY":" ","HOUSE_NO":"８７號","E_COORD97":174973.26000000001,"N_COORD97":2548124.79,"ADDRESS":"龍昌街８７號","OBJECTID":590357},"geometry":{"x":174973.25999999978,"y":2548124.790000001}},{"attributes":{"ID":590385,"DIS_CODE":0,"TOWNNAME":"永康區","LI":"王行里","LIN":"6鄰","STREET":"龍國街","SECT":" ","MAREA":" ","LANE":" ","ALLEY":" ","HOUSE_NO":"４０５號","E_COORD97":174979.51999999999,"N_COORD97":2548019.3500000001,"ADDRESS":"龍國街４０５號","OBJECTID":590358},"geometry":{"x":174979.51999999955,"y":2548019.3500000015}},{"attributes":{"ID":590386,"DIS_CODE":0,"TOWNNAME":"永康區","LI":"五王里","LIN":"21鄰","STREET":"振興路","SECT":" ","MAREA":" ","LANE":" ","ALLEY":" ","HOUSE_NO":"３８號","E_COORD97":171445.16,"N_COORD97":2545771.77,"ADDRESS":"振興路３８號","OBJECTID":590359},"geometry":{"x":171445.16000000201,"y":2545771.7700000014}},{"attributes":{"ID":590387,"DIS_CODE":0,"TOWNNAME":"永康區","LI":"五王里","LIN":"28鄰","STREET":"五福街","SECT":" ","MAREA":" ","LANE":" ","ALLEY":" ","HOUSE_NO":"１６６號","E_COORD97":171629.01999999999,"N_COORD97":2546026.75,"ADDRESS":"五福街１６６號","OBJECTID":590360},"geometry":{"x":171629.02000000048,"y":2546026.7500000019}},{"attributes":{"ID":590388,"DIS_CODE":0,"TOWNNAME":"中西區","LI":"三合里","LIN":"11鄰","STREET":"文賢路","SECT":" ","MAREA":" ","LANE":" ","ALLEY":" ","HOUSE_NO":"６０號","E_COORD97":167404.12,"N_COORD97":2544544.7000000002,"ADDRESS":"文賢路６０號","OBJECTID":590361},"geometry":{"x":167404.12000000197,"y":2544544.7000000011}},{"attributes":{"ID":590389,"DIS_CODE":0,"TOWNNAME":"永康區","LI":"五王里","LIN":"1鄰","STREET":"中華二路","SECT":" ","MAREA":" ","LANE":" ","ALLEY":" ","HOUSE_NO":"１９８號","E_COORD97":171611.64000000001,"N_COORD97":2545440.9900000002,"ADDRESS":"中華二路１９８號","OBJECTID":590362},"geometry":{"x":171611.6400000006,"y":2545440.9900000002}},{"attributes":{"ID":590390,"DIS_CODE":0,"TOWNNAME":"永康區","LI":"五王里","LIN":"28鄰","STREET":"五福街","SECT":" ","MAREA":" ","LANE":" ","ALLEY":" ","HOUSE_NO":"１１８號","E_COORD97":171558.57000000001,"N_COORD97":2545993,"ADDRESS":"五福街１１８號","OBJECTID":590363},"geometry":{"x":171558.57000000123,"y":2545993}},{"attributes":{"ID":590391,"DIS_CODE":0,"TOWNNAME":"新市區","LI":"新和里","LIN":"11鄰","STREET":"仁愛街","SECT":" ","MAREA":" ","LANE":" ","ALLEY":" ","HOUSE_NO":"１３９之１號","E_COORD97":177561.54999999999,"N_COORD97":2552620.8900000001,"ADDRESS":"仁愛街１３９之１號","OBJECTID":590364},"geometry":{"x":177561.54999999981,"y":2552620.8900000025}},{"attributes":{"ID":590392,"DIS_CODE":0,"TOWNNAME":"東區","LI":"關聖里","LIN":"11鄰","STREET":"裕平路","SECT":" ","MAREA":" ","LANE":" ","ALLEY":" ","HOUSE_NO":"７號","E_COORD97":171947.35000000001,"N_COORD97":2542842.7599999998,"ADDRESS":"裕平路７號","OBJECTID":590365},"geometry":{"x":171947.35000000056,"y":2542842.7600000016}},{"attributes":{"ID":590393,"DIS_CODE":0,"TOWNNAME":"東區","LI":"關聖里","LIN":"11鄰","STREET":"裕農一街","SECT":" ","MAREA":" ","LANE":" ","ALLEY":" ","HOUSE_NO":"８１號","E_COORD97":171936.45000000001,"N_COORD97":2543087.5499999998,"ADDRESS":"裕農一街８１號","OBJECTID":590366},"geometry":{"x":171936.45000000205,"y":2543087.5500000007}},{"attributes":{"ID":590394,"DIS_CODE":0,"TOWNNAME":"東區","LI":"崇德里","LIN":"11鄰","STREET":"崇德十街","SECT":" ","MAREA":" ","LANE":" ","ALLEY":" ","HOUSE_NO":"４６號","E_COORD97":170925.78,"N_COORD97":2541496.4300000002,"ADDRESS":"崇德十街４６號","OBJECTID":590367},"geometry":{"x":170925.78000000212,"y":2541496.4300000016}},{"attributes":{"ID":590395,"DIS_CODE":0,"TOWNNAME":"永康區","LI":"王行里","LIN":"14鄰","STREET":"興工路","SECT":" ","MAREA":" ","LANE":" ","ALLEY":" ","HOUSE_NO":"２８號","E_COORD97":175185.59,"N_COORD97":2549925.2400000002,"ADDRESS":"興工路２８號","OBJECTID":590368},"geometry":{"x":175185.59000000078,"y":2549925.2399999984}},{"attributes":{"ID":590396,"DIS_CODE":0,"TOWNNAME":"永康區","LI":"北灣里","LIN":"31鄰","STREET":"大同街","SECT":" ","MAREA":" ","LANE":" ","ALLEY":" ","HOUSE_NO":"３５號","E_COORD97":175248.23000000001,"N_COORD97":2545407.1299999999,"ADDRESS":"大同街３５號","OBJECTID":590369},"geometry":{"x":175248.23000000045,"y":2545407.1300000008}},{"attributes":{"ID":590397,"DIS_CODE":0,"TOWNNAME":"東區","LI":"崇德里","LIN":"11鄰","STREET":"崇德十街","SECT":" ","MAREA":" ","LANE":" ","ALLEY":" ","HOUSE_NO":"４８號","E_COORD97":170929.06,"N_COORD97":2541500.2999999998,"ADDRESS":"崇德十街４８號","OBJECTID":590370},"geometry":{"x":170929.05999999959,"y":2541500.2999999989}},{"attributes":{"ID":590398,"DIS_CODE":0,"TOWNNAME":"東區","LI":"關聖里","LIN":"11鄰","STREET":"裕平路","SECT":" ","MAREA":" ","LANE":" ","ALLEY":" ","HOUSE_NO":"１３號","E_COORD97":171959.38,"N_COORD97":2542846.73,"ADDRESS":"裕平路１３號","OBJECTID":590371},"geometry":{"x":171959.38000000082,"y":2542846.7300000042}},{"attributes":{"ID":590399,"DIS_CODE":0,"TOWNNAME":"東區","LI":"關聖里","LIN":"11鄰","STREET":"裕平路","SECT":" ","MAREA":" ","LANE":" ","ALLEY":" ","HOUSE_NO":"５號","E_COORD97":171943.16,"N_COORD97":2542846.1000000001,"ADDRESS":"裕平路５號","OBJECTID":590372},"geometry":{"x":171943.16000000015,"y":2542846.0999999996}},{"attributes":{"ID":590400,"DIS_CODE":0,"TOWNNAME":"東區","LI":"崇德里","LIN":"11鄰","STREET":"崇德十街","SECT":" ","MAREA":" ","LANE":" ","ALLEY":" ","HOUSE_NO":"４８之１號","E_COORD97":170933.81,"N_COORD97":2541497.96,"ADDRESS":"崇德十街４８之１號","OBJECTID":590373},"geometry":{"x":170933.81000000052,"y":2541497.9600000009}},{"attributes":{"ID":590401,"DIS_CODE":0,"TOWNNAME":"東區","LI":"崇德里","LIN":"11鄰","STREET":"崇德十街","SECT":" ","MAREA":" ","LANE":" ","ALLEY":" ","HOUSE_NO":"４８之２號","E_COORD97":170937.82000000001,"N_COORD97":2541501.0299999998,"ADDRESS":"崇德十街４８之２號","OBJECTID":590374},"geometry":{"x":170937.82000000123,"y":2541501.0300000031}},{"attributes":{"ID":590402,"DIS_CODE":0,"TOWNNAME":"東區","LI":"東門里","LIN":"11鄰","STREET":"東榮街","SECT":" ","MAREA":" ","LANE":" ","ALLEY":" ","HOUSE_NO":"２２號","E_COORD97":169546.42000000001,"N_COORD97":2543454.1499999999,"ADDRESS":"東榮街２２號","OBJECTID":590375},"geometry":{"x":169546.42000000086,"y":2543454.1500000041}},{"attributes":{"ID":590403,"DIS_CODE":0,"TOWNNAME":"永康區","LI":"王行里","LIN":"15鄰","STREET":"龍國街","SECT":" ","MAREA":" ","LANE":" ","ALLEY":" ","HOUSE_NO":"４０３號","E_COORD97":174967.88,"N_COORD97":2548027.8500000001,"ADDRESS":"龍國街４０３號","OBJECTID":590376},"geometry":{"x":174967.88000000082,"y":2548027.8499999996}},{"attributes":{"ID":590404,"DIS_CODE":0,"TOWNNAME":"永康區","LI":"五王里","LIN":"1鄰","STREET":"中華二路","SECT":" ","MAREA":" ","LANE":" ","ALLEY":" ","HOUSE_NO":"１７６號","E_COORD97":171652.32999999999,"N_COORD97":2545442.4900000002,"ADDRESS":"中華二路１７６號","OBJECTID":590377},"geometry":{"x":171652.33000000194,"y":2545442.4900000021}},{"attributes":{"ID":590405,"DIS_CODE":0,"TOWNNAME":"東區","LI":"莊敬里","LIN":"11鄰","STREET":"莊敬路","SECT":" ","MAREA":" ","LANE":" ","ALLEY":" ","HOUSE_NO":"２８２號","E_COORD97":171398.23000000001,"N_COORD97":2544218.4900000002,"ADDRESS":"莊敬路２８２號","OBJECTID":590378},"geometry":{"x":171398.23000000138,"y":2544218.4900000021}},{"attributes":{"ID":590406,"DIS_CODE":0,"TOWNNAME":"東區","LI":"莊敬里","LIN":"11鄰","STREET":"莊敬路","SECT":" ","MAREA":" ","LANE":" ","ALLEY":" ","HOUSE_NO":"２８６號","E_COORD97":171398.41,"N_COORD97":2544225.3599999999,"ADDRESS":"莊敬路２８６號","OBJECTID":590379},"geometry":{"x":171398.41000000108,"y":2544225.3600000013}},{"attributes":{"ID":590407,"DIS_CODE":0,"TOWNNAME":"東區","LI":"莊敬里","LIN":"11鄰","STREET":"莊敬路","SECT":" ","MAREA":" ","LANE":" ","ALLEY":" ","HOUSE_NO":"２８８號","E_COORD97":171399.91,"N_COORD97":2544237.7599999998,"ADDRESS":"莊敬路２８８號","OBJECTID":590380},"geometry":{"x":171399.91000000108,"y":2544237.7599999998}},{"attributes":{"ID":590408,"DIS_CODE":0,"TOWNNAME":"東區","LI":"莊敬里","LIN":"11鄰","STREET":"莊敬路","SECT":" ","MAREA":" ","LANE":" ","ALLEY":" ","HOUSE_NO":"２９０號","E_COORD97":171400.64999999999,"N_COORD97":2544246.4900000002,"ADDRESS":"莊敬路２９０號","OBJECTID":590381},"geometry":{"x":171400.65000000037,"y":2544246.4900000021}},{"attributes":{"ID":590409,"DIS_CODE":0,"TOWNNAME":"永康區","LI":"王行里","LIN":"15鄰","STREET":"龍國街","SECT":" ","MAREA":" ","LANE":" ","ALLEY":" ","HOUSE_NO":"３９５號","E_COORD97":174938.09,"N_COORD97":2548013.3999999999,"ADDRESS":"龍國街３９５號","OBJECTID":590382},"geometry":{"x":174938.09000000078,"y":2548013.4000000022}},{"attributes":{"ID":590410,"DIS_CODE":0,"TOWNNAME":"永康區","LI":"六合里","LIN":"1鄰","STREET":"新興街","SECT":" ","MAREA":" ","LANE":" ","ALLEY":" ","HOUSE_NO":"８之２號地下一層之６","E_COORD97":170941.38,"N_COORD97":2545746.29,"ADDRESS":"新興街８之２號地下一層之６","OBJECTID":590383},"geometry":{"x":170941.37999999989,"y":2545746.2899999991}},{"attributes":{"ID":590411,"DIS_CODE":0,"TOWNNAME":"東區","LI":"莊敬里","LIN":"11鄰","STREET":"莊敬路","SECT":" ","MAREA":" ","LANE":" ","ALLEY":" ","HOUSE_NO":"２９６號","E_COORD97":171403.45000000001,"N_COORD97":2544269.1400000001,"ADDRESS":"莊敬路２９６號","OBJECTID":590384},"geometry":{"x":171403.45000000019,"y":2544269.1400000025}},{"attributes":{"ID":590412,"DIS_CODE":0,"TOWNNAME":"東區","LI":"東門里","LIN":"11鄰","STREET":"青年路","SECT":" ","MAREA":" ","LANE":" ","ALLEY":" ","HOUSE_NO":"３６０號之１４","E_COORD97":169419.23000000001,"N_COORD97":2543436.0299999998,"ADDRESS":"青年路３６０號之１４","OBJECTID":590385},"geometry":{"x":169419.23000000231,"y":2543436.0299999993}},{"attributes":{"ID":590413,"DIS_CODE":0,"TOWNNAME":"東區","LI":"東門里","LIN":"11鄰","STREET":"青年路","SECT":" ","MAREA":" ","LANE":" ","ALLEY":" ","HOUSE_NO":"３６０號之１５","E_COORD97":169401.07999999999,"N_COORD97":2543440.6400000001,"ADDRESS":"青年路３６０號之１５","OBJECTID":590386},"geometry":{"x":169401.07999999914,"y":2543440.6399999987}},{"attributes":{"ID":590414,"DIS_CODE":0,"TOWNNAME":"東區","LI":"東門里","LIN":"11鄰","STREET":"青年路","SECT":" ","MAREA":" ","LANE":" ","ALLEY":" ","HOUSE_NO":"３６０號之１６","E_COORD97":169392.04999999999,"N_COORD97":2543440.8700000001,"ADDRESS":"青年路３６０號之１６","OBJECTID":590387},"geometry":{"x":169392.04999999981,"y":2543440.8700000029}},{"attributes":{"ID":590415,"DIS_CODE":0,"TOWNNAME":"東區","LI":"東門里","LIN":"11鄰","STREET":"青年路","SECT":" ","MAREA":" ","LANE":" ","ALLEY":" ","HOUSE_NO":"３６０號之１７","E_COORD97":169415.98999999999,"N_COORD97":2543410.7400000002,"ADDRESS":"青年路３６０號之１７","OBJECTID":590388},"geometry":{"x":169415.99000000115,"y":2543410.7400000021}},{"attributes":{"ID":590416,"DIS_CODE":0,"TOWNNAME":"東區","LI":"東門里","LIN":"11鄰","STREET":"青年路","SECT":" ","MAREA":" ","LANE":" ","ALLEY":" ","HOUSE_NO":"３６０號之１８","E_COORD97":169389.10999999999,"N_COORD97":2543412.52,"ADDRESS":"青年路３６０號之１８","OBJECTID":590389},"geometry":{"x":169389.11000000034,"y":2543412.5199999996}},{"attributes":{"ID":590417,"DIS_CODE":0,"TOWNNAME":"東區","LI":"東門里","LIN":"11鄰","STREET":"青年路","SECT":" ","MAREA":" ","LANE":" ","ALLEY":" ","HOUSE_NO":"３６０號之２３","E_COORD97":169423.70999999999,"N_COORD97":2543374.1499999999,"ADDRESS":"青年路３６０號之２３","OBJECTID":590390},"geometry":{"x":169423.70999999996,"y":2543374.1500000022}},{"attributes":{"ID":590418,"DIS_CODE":0,"TOWNNAME":"東區","LI":"東門里","LIN":"11鄰","STREET":"青年路","SECT":" ","MAREA":" ","LANE":" ","ALLEY":" ","HOUSE_NO":"３６０號之３","E_COORD97":169444.42999999999,"N_COORD97":2543509.1000000001,"ADDRESS":"青年路３６０號之３","OBJECTID":590391},"geometry":{"x":169444.43000000063,"y":2543509.1000000015}},{"attributes":{"ID":590419,"DIS_CODE":0,"TOWNNAME":"東區","LI":"東門里","LIN":"11鄰","STREET":"青年路","SECT":" ","MAREA":" ","LANE":" ","ALLEY":" ","HOUSE_NO":"３６０號之４","E_COORD97":169434.85000000001,"N_COORD97":2543509.4300000002,"ADDRESS":"青年路３６０號之４","OBJECTID":590392},"geometry":{"x":169434.85000000056,"y":2543509.4300000016}},{"attributes":{"ID":590420,"DIS_CODE":0,"TOWNNAME":"永康區","LI":"六合里","LIN":"1鄰","STREET":"新興街","SECT":" ","MAREA":" ","LANE":" ","ALLEY":" ","HOUSE_NO":"８之３號地下一層之６","E_COORD97":170949.76000000001,"N_COORD97":2545728.0499999998,"ADDRESS":"新興街８之３號地下一層之６","OBJECTID":590393},"geometry":{"x":170949.76000000071,"y":2545728.0500000026}},{"attributes":{"ID":590421,"DIS_CODE":0,"TOWNNAME":"永康區","LI":"六合里","LIN":"1鄰","STREET":"新興街","SECT":" ","MAREA":" ","LANE":" ","ALLEY":" ","HOUSE_NO":"８之２號地下一層之２","E_COORD97":170941.41,"N_COORD97":2545746.29,"ADDRESS":"新興街８之２號地下一層之２","OBJECTID":590394},"geometry":{"x":170941.41000000015,"y":2545746.2899999991}},{"attributes":{"ID":590422,"DIS_CODE":0,"TOWNNAME":"東區","LI":"東門里","LIN":"11鄰","STREET":"青年路","SECT":" ","MAREA":" ","LANE":" ","ALLEY":" ","HOUSE_NO":"３６０號之５","E_COORD97":169442.95000000001,"N_COORD97":2543481.96,"ADDRESS":"青年路３６０號之５","OBJECTID":590395},"geometry":{"x":169442.95000000205,"y":2543481.9600000009}},{"attributes":{"ID":590423,"DIS_CODE":0,"TOWNNAME":"東區","LI":"東門里","LIN":"11鄰","STREET":"青年路","SECT":" ","MAREA":" ","LANE":" ","ALLEY":" ","HOUSE_NO":"３６０號之６","E_COORD97":169432.82000000001,"N_COORD97":2543483,"ADDRESS":"青年路３６０號之６","OBJECTID":590396},"geometry":{"x":169432.82000000123,"y":2543483.0000000019}},{"attributes":{"ID":590424,"DIS_CODE":0,"TOWNNAME":"東區","LI":"東門里","LIN":"11鄰","STREET":"青年路","SECT":" ","MAREA":" ","LANE":" ","ALLEY":" ","HOUSE_NO":"３６０號之７","E_COORD97":169474.45000000001,"N_COORD97":2543449.27,"ADDRESS":"青年路３６０號之７","OBJECTID":590397},"geometry":{"x":169474.45000000019,"y":2543449.2700000014}},{"attributes":{"ID":590425,"DIS_CODE":0,"TOWNNAME":"東區","LI":"東門里","LIN":"11鄰","STREET":"東榮街","SECT":" ","MAREA":" ","LANE":" ","ALLEY":" ","HOUSE_NO":"１０號","E_COORD97":169549.78,"N_COORD97":2543486.52,"ADDRESS":"東榮街１０號","OBJECTID":590398},"geometry":{"x":169549.78000000119,"y":2543486.5199999996}},{"attributes":{"ID":590426,"DIS_CODE":0,"TOWNNAME":"東區","LI":"東門里","LIN":"11鄰","STREET":"東榮街","SECT":" ","MAREA":" ","LANE":" ","ALLEY":" ","HOUSE_NO":"１２之１號","E_COORD97":169533.38,"N_COORD97":2543477.5499999998,"ADDRESS":"東榮街１２之１號","OBJECTID":590399},"geometry":{"x":169533.38000000082,"y":2543477.5500000007}},{"attributes":{"ID":590427,"DIS_CODE":0,"TOWNNAME":"東區","LI":"東門里","LIN":"11鄰","STREET":"東榮街","SECT":" ","MAREA":" ","LANE":" ","ALLEY":" ","HOUSE_NO":"１２號","E_COORD97":169546.73000000001,"N_COORD97":2543483.5699999998,"ADDRESS":"東榮街１２號","OBJECTID":590400},"geometry":{"x":169546.73000000138,"y":2543483.5700000003}}]}