{"displayFieldName":"TOWNNAME","fieldAliases":{"ID":"ID","DIS_CODE":"DIS_CODE","TOWNNAME":"TOWNNAME","LI":"LI","LIN":"LIN","STREET":"STREET","SECT":"SECT","MAREA":"MAREA","LANE":"LANE","ALLEY":"ALLEY","HOUSE_NO":"HOUSE_NO","E_COORD97":"E_COORD97","N_COORD97":"N_COORD97","ADDRESS":"ADDRESS","OBJECTID":"OBJECTID"},"geometryType":"esriGeometryPoint","spatialReference":{"wkid":102443,"latestWkid":3826},"fields":[{"name":"ID","type":"esriFieldTypeDouble","alias":"ID"},{"name":"DIS_CODE","type":"esriFieldTypeInteger","alias":"DIS_CODE"},{"name":"TOWNNAME","type":"esriFieldTypeString","alias":"TOWNNAME","length":8},{"name":"LI","type":"esriFieldTypeString","alias":"LI","length":8},{"name":"LIN","type":"esriFieldTypeString","alias":"LIN","length":12},{"name":"STREET","type":"esriFieldTypeString","alias":"STREET","length":20},{"name":"SECT","type":"esriFieldTypeString","alias":"SECT","length":8},{"name":"MAREA","type":"esriFieldTypeString","alias":"MAREA","length":12},{"name":"LANE","type":"esriFieldTypeString","alias":"LANE","length":10},{"name":"ALLEY","type":"esriFieldTypeString","alias":"ALLEY","length":10},{"name":"HOUSE_NO","type":"esriFieldTypeString","alias":"HOUSE_NO","length":20},{"name":"E_COORD97","type":"esriFieldTypeDouble","alias":"E_COORD97"},{"name":"N_COORD97","type":"esriFieldTypeDouble","alias":"N_COORD97"},{"name":"ADDRESS","type":"esriFieldTypeString","alias":"ADDRESS","length":50},{"name":"OBJECTID","type":"esriFieldTypeOID","alias":"OBJECTID"}],"features":[{"attributes":{"ID":147402,"DIS_CODE":0,"TOWNNAME":"安南區","LI":"南興里","LIN":"3鄰","STREET":"安興街","SECT":" ","MAREA":" ","LANE":"３８１巷","ALLEY":"２８弄","HOUSE_NO":"２號之２","E_COORD97":163654.13,"N_COORD97":2552297.25,"ADDRESS":"安興街３８１巷２８弄２號之２","OBJECTID":147401},"geometry":{"x":163654.13000000082,"y":2552297.25}},{"attributes":{"ID":147403,"DIS_CODE":0,"TOWNNAME":"安南區","LI":"南興里","LIN":"3鄰","STREET":"安興街","SECT":" ","MAREA":" ","LANE":"３８１巷","ALLEY":"２８弄","HOUSE_NO":"２號之３","E_COORD97":163653.60000000001,"N_COORD97":2552303.0299999998,"ADDRESS":"安興街３８１巷２８弄２號之３","OBJECTID":147402},"geometry":{"x":163653.59999999963,"y":2552303.0300000012}},{"attributes":{"ID":147404,"DIS_CODE":0,"TOWNNAME":"永康區","LI":"崑山里","LIN":"30鄰","STREET":"國光二街","SECT":" ","MAREA":" ","LANE":"７０巷","ALLEY":" ","HOUSE_NO":"１９號","E_COORD97":173890.54000000001,"N_COORD97":2544805.2799999998,"ADDRESS":"國光二街７０巷１９號","OBJECTID":147403},"geometry":{"x":173890.54000000097,"y":2544805.2800000012}},{"attributes":{"ID":147405,"DIS_CODE":0,"TOWNNAME":"西港區","LI":"西港里","LIN":"4鄰","STREET":"文化路","SECT":" ","MAREA":" ","LANE":" ","ALLEY":" ","HOUSE_NO":"３１號","E_COORD97":168530.57000000001,"N_COORD97":2558181.5600000001,"ADDRESS":"文化路３１號","OBJECTID":147404},"geometry":{"x":168530.57000000123,"y":2558181.5600000005}},{"attributes":{"ID":147406,"DIS_CODE":0,"TOWNNAME":"西港區","LI":"西港里","LIN":"4鄰","STREET":"文化路","SECT":" ","MAREA":" ","LANE":" ","ALLEY":" ","HOUSE_NO":"３３號","E_COORD97":168534.39999999999,"N_COORD97":2558183.5299999998,"ADDRESS":"文化路３３號","OBJECTID":147405},"geometry":{"x":168534.40000000037,"y":2558183.5299999993}},{"attributes":{"ID":147407,"DIS_CODE":0,"TOWNNAME":"西港區","LI":"西港里","LIN":"4鄰","STREET":"文化路","SECT":" ","MAREA":" ","LANE":" ","ALLEY":" ","HOUSE_NO":"３５號","E_COORD97":168538.35000000001,"N_COORD97":2558185.3399999999,"ADDRESS":"文化路３５號","OBJECTID":147406},"geometry":{"x":168538.35000000056,"y":2558185.3399999999}},{"attributes":{"ID":147408,"DIS_CODE":0,"TOWNNAME":"西港區","LI":"西港里","LIN":"4鄰","STREET":"文化路","SECT":" ","MAREA":" ","LANE":" ","ALLEY":" ","HOUSE_NO":"３７號","E_COORD97":168542.17999999999,"N_COORD97":2558187.8500000001,"ADDRESS":"文化路３７號","OBJECTID":147407},"geometry":{"x":168542.1799999997,"y":2558187.8500000015}},{"attributes":{"ID":147409,"DIS_CODE":0,"TOWNNAME":"善化區","LI":"胡厝里","LIN":"4鄰","STREET":" ","SECT":" ","MAREA":"胡厝寮","LANE":" ","ALLEY":" ","HOUSE_NO":"１０９號之１","E_COORD97":175219.07000000001,"N_COORD97":2560582.77,"ADDRESS":"胡厝寮１０９號之１","OBJECTID":147408},"geometry":{"x":175219.0700000003,"y":2560582.7699999996}},{"attributes":{"ID":147410,"DIS_CODE":0,"TOWNNAME":"永康區","LI":"埔園里","LIN":"30鄰","STREET":"中山路","SECT":" ","MAREA":" ","LANE":" ","ALLEY":" ","HOUSE_NO":"４３２號","E_COORD97":173605.14000000001,"N_COORD97":2548445.7400000002,"ADDRESS":"中山路４３２號","OBJECTID":147409},"geometry":{"x":173605.1400000006,"y":2548445.7400000002}},{"attributes":{"ID":147411,"DIS_CODE":0,"TOWNNAME":"安南區","LI":"溪心里","LIN":"3鄰","STREET":"海佃路","SECT":"三段","MAREA":" ","LANE":"４８巷","ALLEY":"６０弄","HOUSE_NO":"１０號","E_COORD97":166436.45999999999,"N_COORD97":2549927.8700000001,"ADDRESS":"海佃路三段４８巷６０弄１０號","OBJECTID":147410},"geometry":{"x":166436.45999999996,"y":2549927.870000001}},{"attributes":{"ID":147412,"DIS_CODE":0,"TOWNNAME":"西港區","LI":"西港里","LIN":"4鄰","STREET":"文化路","SECT":" ","MAREA":" ","LANE":" ","ALLEY":" ","HOUSE_NO":"４１之１０號","E_COORD97":168645.34,"N_COORD97":2558284.9900000002,"ADDRESS":"文化路４１之１０號","OBJECTID":147411},"geometry":{"x":168645.34000000078,"y":2558284.9900000021}},{"attributes":{"ID":147413,"DIS_CODE":0,"TOWNNAME":"安南區","LI":"溪心里","LIN":"3鄰","STREET":"海佃路","SECT":"三段","MAREA":" ","LANE":"４８巷","ALLEY":"６０弄","HOUSE_NO":"１２號","E_COORD97":166441.37,"N_COORD97":2549924.3999999999,"ADDRESS":"海佃路三段４８巷６０弄１２號","OBJECTID":147412},"geometry":{"x":166441.37000000104,"y":2549924.3999999985}},{"attributes":{"ID":147414,"DIS_CODE":0,"TOWNNAME":"安南區","LI":"溪心里","LIN":"3鄰","STREET":"海佃路","SECT":"三段","MAREA":" ","LANE":"４８巷","ALLEY":"６０弄","HOUSE_NO":"１４號","E_COORD97":166436.98000000001,"N_COORD97":2549911.3100000001,"ADDRESS":"海佃路三段４８巷６０弄１４號","OBJECTID":147413},"geometry":{"x":166436.98000000045,"y":2549911.3100000005}},{"attributes":{"ID":147415,"DIS_CODE":0,"TOWNNAME":"西港區","LI":"西港里","LIN":"4鄰","STREET":"文化路","SECT":" ","MAREA":" ","LANE":" ","ALLEY":" ","HOUSE_NO":"４１之１１號","E_COORD97":168649.56,"N_COORD97":2558286.6200000001,"ADDRESS":"文化路４１之１１號","OBJECTID":147414},"geometry":{"x":168649.55999999959,"y":2558286.620000001}},{"attributes":{"ID":147416,"DIS_CODE":0,"TOWNNAME":"安南區","LI":"溪心里","LIN":"3鄰","STREET":"海佃路","SECT":"三段","MAREA":" ","LANE":"４８巷","ALLEY":"６０弄","HOUSE_NO":"１６號","E_COORD97":166431.28,"N_COORD97":2549910.6200000001,"ADDRESS":"海佃路三段４８巷６０弄１６號","OBJECTID":147415},"geometry":{"x":166431.28000000026,"y":2549910.6200000029}},{"attributes":{"ID":147417,"DIS_CODE":0,"TOWNNAME":"西港區","LI":"西港里","LIN":"4鄰","STREET":"文化路","SECT":" ","MAREA":" ","LANE":" ","ALLEY":" ","HOUSE_NO":"４１之１２號","E_COORD97":168653.78,"N_COORD97":2558288.2400000002,"ADDRESS":"文化路４１之１２號","OBJECTID":147416},"geometry":{"x":168653.78000000026,"y":2558288.2400000002}},{"attributes":{"ID":147418,"DIS_CODE":0,"TOWNNAME":"安南區","LI":"溪心里","LIN":"3鄰","STREET":"海佃路","SECT":"三段","MAREA":" ","LANE":"４８巷","ALLEY":"６０弄","HOUSE_NO":"１８號","E_COORD97":166424.72,"N_COORD97":2549909.8100000001,"ADDRESS":"海佃路三段４８巷６０弄１８號","OBJECTID":147417},"geometry":{"x":166424.71999999881,"y":2549909.8100000024}},{"attributes":{"ID":147419,"DIS_CODE":0,"TOWNNAME":"西港區","LI":"西港里","LIN":"4鄰","STREET":"文化路","SECT":" ","MAREA":" ","LANE":" ","ALLEY":" ","HOUSE_NO":"４１之１３號","E_COORD97":168658,"N_COORD97":2558289.8599999999,"ADDRESS":"文化路４１之１３號","OBJECTID":147418},"geometry":{"x":168658.00000000093,"y":2558289.8599999994}},{"attributes":{"ID":147420,"DIS_CODE":0,"TOWNNAME":"西港區","LI":"西港里","LIN":"4鄰","STREET":"文化路","SECT":" ","MAREA":" ","LANE":" ","ALLEY":" ","HOUSE_NO":"４１之１５號","E_COORD97":168662.22,"N_COORD97":2558291.48,"ADDRESS":"文化路４１之１５號","OBJECTID":147419},"geometry":{"x":168662.21999999974,"y":2558291.4800000042}},{"attributes":{"ID":147421,"DIS_CODE":0,"TOWNNAME":"安南區","LI":"溪心里","LIN":"3鄰","STREET":"海佃路","SECT":"三段","MAREA":" ","LANE":"４８巷","ALLEY":"６０弄","HOUSE_NO":"２０號","E_COORD97":166420.95999999999,"N_COORD97":2549911.1600000001,"ADDRESS":"海佃路三段４８巷６０弄２０號","OBJECTID":147420},"geometry":{"x":166420.95999999996,"y":2549911.1600000001}},{"attributes":{"ID":147422,"DIS_CODE":0,"TOWNNAME":"安南區","LI":"溪心里","LIN":"3鄰","STREET":"海佃路","SECT":"三段","MAREA":" ","LANE":"４８巷","ALLEY":"６０弄","HOUSE_NO":"２２號","E_COORD97":166415.57000000001,"N_COORD97":2549894.29,"ADDRESS":"海佃路三段４８巷６０弄２２號","OBJECTID":147421},"geometry":{"x":166415.5700000003,"y":2549894.290000001}},{"attributes":{"ID":147423,"DIS_CODE":0,"TOWNNAME":"安南區","LI":"溪心里","LIN":"3鄰","STREET":"海佃路","SECT":"三段","MAREA":" ","LANE":"４８巷","ALLEY":"６０弄","HOUSE_NO":"６號","E_COORD97":166428.35000000001,"N_COORD97":2549935.1200000001,"ADDRESS":"海佃路三段４８巷６０弄６號","OBJECTID":147422},"geometry":{"x":166428.34999999963,"y":2549935.1200000029}},{"attributes":{"ID":147424,"DIS_CODE":0,"TOWNNAME":"安南區","LI":"溪心里","LIN":"3鄰","STREET":"海佃路","SECT":"三段","MAREA":" ","LANE":"４８巷","ALLEY":"６０弄","HOUSE_NO":"８號","E_COORD97":166432.84,"N_COORD97":2549932.5299999998,"ADDRESS":"海佃路三段４８巷６０弄８號","OBJECTID":147423},"geometry":{"x":166432.84000000078,"y":2549932.5299999975}},{"attributes":{"ID":147425,"DIS_CODE":0,"TOWNNAME":"西港區","LI":"西港里","LIN":"4鄰","STREET":"文化路","SECT":" ","MAREA":" ","LANE":" ","ALLEY":" ","HOUSE_NO":"４１之１６號","E_COORD97":168666.44,"N_COORD97":2558293.1099999999,"ADDRESS":"文化路４１之１６號","OBJECTID":147424},"geometry":{"x":168666.44000000041,"y":2558293.1100000031}},{"attributes":{"ID":147426,"DIS_CODE":0,"TOWNNAME":"安南區","LI":"安慶里","LIN":"3鄰","STREET":"長溪路","SECT":"一段","MAREA":" ","LANE":"１６８巷","ALLEY":"１３１弄","HOUSE_NO":"３７號","E_COORD97":168986.20999999999,"N_COORD97":2548783.4100000001,"ADDRESS":"長溪路一段１６８巷１３１弄３７號","OBJECTID":147425},"geometry":{"x":168986.20999999996,"y":2548783.410000002}},{"attributes":{"ID":147427,"DIS_CODE":0,"TOWNNAME":"安南區","LI":"南興里","LIN":"3鄰","STREET":"安興街","SECT":" ","MAREA":" ","LANE":"３８１巷","ALLEY":"２８弄","HOUSE_NO":"１８號之１","E_COORD97":163612.01999999999,"N_COORD97":2552283.7599999998,"ADDRESS":"安興街３８１巷２８弄１８號之１","OBJECTID":147426},"geometry":{"x":163612.02000000142,"y":2552283.7599999998}},{"attributes":{"ID":147428,"DIS_CODE":0,"TOWNNAME":"西港區","LI":"西港里","LIN":"4鄰","STREET":"文化路","SECT":" ","MAREA":" ","LANE":" ","ALLEY":" ","HOUSE_NO":"４１之１７號","E_COORD97":168670.66,"N_COORD97":2558294.73,"ADDRESS":"文化路４１之１７號","OBJECTID":147427},"geometry":{"x":168670.66000000108,"y":2558294.7300000023}},{"attributes":{"ID":147429,"DIS_CODE":0,"TOWNNAME":"西港區","LI":"西港里","LIN":"4鄰","STREET":"文化路","SECT":" ","MAREA":" ","LANE":" ","ALLEY":" ","HOUSE_NO":"４１之１８號","E_COORD97":168674.87,"N_COORD97":2558296.3500000001,"ADDRESS":"文化路４１之１８號","OBJECTID":147428},"geometry":{"x":168674.87000000011,"y":2558296.3500000015}},{"attributes":{"ID":147430,"DIS_CODE":0,"TOWNNAME":"安南區","LI":"南興里","LIN":"3鄰","STREET":"安興街","SECT":" ","MAREA":" ","LANE":"３８１巷","ALLEY":"２８弄","HOUSE_NO":"１８號之２","E_COORD97":163611.48999999999,"N_COORD97":2552291.1200000001,"ADDRESS":"安興街３８１巷２８弄１８號之２","OBJECTID":147429},"geometry":{"x":163611.49000000115,"y":2552291.1200000029}},{"attributes":{"ID":147431,"DIS_CODE":0,"TOWNNAME":"西港區","LI":"西港里","LIN":"4鄰","STREET":"文化路","SECT":" ","MAREA":" ","LANE":" ","ALLEY":" ","HOUSE_NO":"４１之１９號","E_COORD97":168679.09,"N_COORD97":2558297.9700000002,"ADDRESS":"文化路４１之１９號","OBJECTID":147430},"geometry":{"x":168679.09000000078,"y":2558297.9700000007}},{"attributes":{"ID":147432,"DIS_CODE":0,"TOWNNAME":"西港區","LI":"西港里","LIN":"4鄰","STREET":"文化路","SECT":" ","MAREA":" ","LANE":" ","ALLEY":" ","HOUSE_NO":"４１之２０號","E_COORD97":168623.82000000001,"N_COORD97":2558304.3399999999,"ADDRESS":"文化路４１之２０號","OBJECTID":147431},"geometry":{"x":168623.82000000123,"y":2558304.3399999999}},{"attributes":{"ID":147433,"DIS_CODE":0,"TOWNNAME":"安南區","LI":"南興里","LIN":"3鄰","STREET":"安興街","SECT":" ","MAREA":" ","LANE":"３８１巷","ALLEY":"２８弄","HOUSE_NO":"１８號","E_COORD97":163615.17999999999,"N_COORD97":2552273.25,"ADDRESS":"安興街３８１巷２８弄１８號","OBJECTID":147432},"geometry":{"x":163615.18000000063,"y":2552273.25}},{"attributes":{"ID":147434,"DIS_CODE":0,"TOWNNAME":"安南區","LI":"南興里","LIN":"3鄰","STREET":"安興街","SECT":" ","MAREA":" ","LANE":"３８１巷","ALLEY":"２８弄","HOUSE_NO":"２０號","E_COORD97":163609.39000000001,"N_COORD97":2552273.25,"ADDRESS":"安興街３８１巷２８弄２０號","OBJECTID":147433},"geometry":{"x":163609.38999999966,"y":2552273.25}},{"attributes":{"ID":147435,"DIS_CODE":0,"TOWNNAME":"善化區","LI":"光文里","LIN":"30鄰","STREET":" ","SECT":" ","MAREA":"北子店","LANE":"５７７巷","ALLEY":" ","HOUSE_NO":"３號","E_COORD97":179321.19,"N_COORD97":2559981.5,"ADDRESS":"北子店５７７巷３號","OBJECTID":147434},"geometry":{"x":179321.19000000134,"y":2559981.5}},{"attributes":{"ID":147436,"DIS_CODE":0,"TOWNNAME":"善化區","LI":"溪美里","LIN":"22鄰","STREET":" ","SECT":" ","MAREA":"溪尾","LANE":" ","ALLEY":" ","HOUSE_NO":"５８２號","E_COORD97":177044.48999999999,"N_COORD97":2561006.77,"ADDRESS":"溪尾５８２號","OBJECTID":147435},"geometry":{"x":177044.49000000115,"y":2561006.7699999996}},{"attributes":{"ID":147437,"DIS_CODE":0,"TOWNNAME":"仁德區","LI":"仁義里","LIN":"30鄰","STREET":"正義路","SECT":" ","MAREA":" ","LANE":" ","ALLEY":" ","HOUSE_NO":"９９號","E_COORD97":173606.53,"N_COORD97":2541442.02,"ADDRESS":"正義路９９號","OBJECTID":147436},"geometry":{"x":173606.53000000119,"y":2541442.0199999996}},{"attributes":{"ID":147438,"DIS_CODE":0,"TOWNNAME":"安南區","LI":"南興里","LIN":"3鄰","STREET":"安興街","SECT":" ","MAREA":" ","LANE":"３８１巷","ALLEY":"２８弄","HOUSE_NO":"１８號之３","E_COORD97":163612.01999999999,"N_COORD97":2552297.9500000002,"ADDRESS":"安興街３８１巷２８弄１８號之３","OBJECTID":147437},"geometry":{"x":163612.02000000142,"y":2552297.9500000011}},{"attributes":{"ID":147439,"DIS_CODE":0,"TOWNNAME":"官田區","LI":"嘉南里","LIN":"1鄰","STREET":" ","SECT":" ","MAREA":"嘉南","LANE":" ","ALLEY":" ","HOUSE_NO":"１號之３１","E_COORD97":183812.10467,"N_COORD97":2568181.2963200002,"ADDRESS":"嘉南１號之３１","OBJECTID":147438},"geometry":{"x":183812.10467000119,"y":2568181.2963200025}},{"attributes":{"ID":147440,"DIS_CODE":0,"TOWNNAME":"仁德區","LI":"太子里","LIN":"30鄰","STREET":"太子三街","SECT":" ","MAREA":" ","LANE":" ","ALLEY":" ","HOUSE_NO":"８５號","E_COORD97":173812.63,"N_COORD97":2543496.25,"ADDRESS":"太子三街８５號","OBJECTID":147439},"geometry":{"x":173812.62999999989,"y":2543496.25}},{"attributes":{"ID":147441,"DIS_CODE":0,"TOWNNAME":"仁德區","LI":"仁義里","LIN":"30鄰","STREET":"正義路","SECT":" ","MAREA":" ","LANE":" ","ALLEY":" ","HOUSE_NO":"９１號","E_COORD97":173589.20000000001,"N_COORD97":2541444.27,"ADDRESS":"正義路９１號","OBJECTID":147440},"geometry":{"x":173589.19999999925,"y":2541444.2699999996}},{"attributes":{"ID":147442,"DIS_CODE":0,"TOWNNAME":"永康區","LI":"五王里","LIN":"4鄰","STREET":"中華二路","SECT":" ","MAREA":" ","LANE":"２０６巷","ALLEY":"３０弄","HOUSE_NO":"２１號","E_COORD97":171683.82999999999,"N_COORD97":2545590.3599999999,"ADDRESS":"中華二路２０６巷３０弄２１號","OBJECTID":147441},"geometry":{"x":171683.83000000007,"y":2545590.3599999994}},{"attributes":{"ID":147443,"DIS_CODE":0,"TOWNNAME":"永康區","LI":"王行里","LIN":"12鄰","STREET":"王行路","SECT":" ","MAREA":" ","LANE":"８６６巷","ALLEY":"２９弄","HOUSE_NO":"１０號","E_COORD97":175987.17999999999,"N_COORD97":2549908.2400000002,"ADDRESS":"王行路８６６巷２９弄１０號","OBJECTID":147442},"geometry":{"x":175987.1799999997,"y":2549908.2400000002}},{"attributes":{"ID":147444,"DIS_CODE":0,"TOWNNAME":"仁德區","LI":"仁義里","LIN":"30鄰","STREET":"中清二街","SECT":" ","MAREA":" ","LANE":" ","ALLEY":" ","HOUSE_NO":"４０號","E_COORD97":173577.35000000001,"N_COORD97":2541499.79,"ADDRESS":"中清二街４０號","OBJECTID":147443},"geometry":{"x":173577.34999999963,"y":2541499.790000001}},{"attributes":{"ID":147445,"DIS_CODE":0,"TOWNNAME":"永康區","LI":"北灣里","LIN":"27鄰","STREET":"文賢街","SECT":" ","MAREA":" ","LANE":"１０８巷","ALLEY":"５弄","HOUSE_NO":"６號","E_COORD97":175407.95000000001,"N_COORD97":2545484.5800000001,"ADDRESS":"文賢街１０８巷５弄６號","OBJECTID":147444},"geometry":{"x":175407.95000000019,"y":2545484.5800000001}},{"attributes":{"ID":147446,"DIS_CODE":0,"TOWNNAME":"永康區","LI":"北灣里","LIN":"22鄰","STREET":"大灣路","SECT":" ","MAREA":" ","LANE":"４０巷","ALLEY":"９８弄","HOUSE_NO":"１０號","E_COORD97":174975.92999999999,"N_COORD97":2546226.5499999998,"ADDRESS":"大灣路４０巷９８弄１０號","OBJECTID":147445},"geometry":{"x":174975.93000000063,"y":2546226.5500000026}},{"attributes":{"ID":147447,"DIS_CODE":0,"TOWNNAME":"新化區","LI":"東榮里","LIN":"30鄰","STREET":"信義路","SECT":" ","MAREA":" ","LANE":" ","ALLEY":" ","HOUSE_NO":"１７３號之７","E_COORD97":179256.87,"N_COORD97":2548310.2599999998,"ADDRESS":"信義路１７３號之７","OBJECTID":147446},"geometry":{"x":179256.87000000197,"y":2548310.2599999998}},{"attributes":{"ID":147448,"DIS_CODE":0,"TOWNNAME":"永康區","LI":"王行里","LIN":"6鄰","STREET":"育樂街","SECT":" ","MAREA":" ","LANE":"１４３巷","ALLEY":"２５弄","HOUSE_NO":"２０號","E_COORD97":175135.76999999999,"N_COORD97":2548192.0299999998,"ADDRESS":"育樂街１４３巷２５弄２０號","OBJECTID":147447},"geometry":{"x":175135.76999999862,"y":2548192.0299999993}},{"attributes":{"ID":147449,"DIS_CODE":0,"TOWNNAME":"新化區","LI":"東榮里","LIN":"30鄰","STREET":"信義路","SECT":" ","MAREA":" ","LANE":" ","ALLEY":" ","HOUSE_NO":"１７３號之２","E_COORD97":179250.17999999999,"N_COORD97":2548332.2599999998,"ADDRESS":"信義路１７３號之２","OBJECTID":147448},"geometry":{"x":179250.1799999997,"y":2548332.2600000016}},{"attributes":{"ID":147450,"DIS_CODE":0,"TOWNNAME":"永康區","LI":"北灣里","LIN":"39鄰","STREET":"大同街","SECT":" ","MAREA":" ","LANE":"４２５巷","ALLEY":"１弄","HOUSE_NO":"２２號","E_COORD97":174589.98000000001,"N_COORD97":2546276.4900000002,"ADDRESS":"大同街４２５巷１弄２２號","OBJECTID":147449},"geometry":{"x":174589.98000000138,"y":2546276.4900000021}},{"attributes":{"ID":147451,"DIS_CODE":0,"TOWNNAME":"麻豆區","LI":"海埔里","LIN":"7鄰","STREET":" ","SECT":" ","MAREA":"海埔","LANE":" ","ALLEY":" ","HOUSE_NO":"２７號","E_COORD97":169481.35999999999,"N_COORD97":2566880.48,"ADDRESS":"海埔２７號","OBJECTID":147450},"geometry":{"x":169481.36000000127,"y":2566880.4800000023}},{"attributes":{"ID":147452,"DIS_CODE":0,"TOWNNAME":"永康區","LI":"王行里","LIN":"13鄰","STREET":"王行路","SECT":" ","MAREA":" ","LANE":"１０１８巷","ALLEY":"４９弄","HOUSE_NO":"３號","E_COORD97":175802.04000000001,"N_COORD97":2550177.5,"ADDRESS":"王行路１０１８巷４９弄３號","OBJECTID":147451},"geometry":{"x":175802.04000000004,"y":2550177.5}},{"attributes":{"ID":147453,"DIS_CODE":0,"TOWNNAME":"南區","LI":"竹溪里","LIN":"3鄰","STREET":"健康路","SECT":"一段","MAREA":" ","LANE":"１３３巷","ALLEY":"８５弄","HOUSE_NO":"２８號","E_COORD97":168934.07999999999,"N_COORD97":2542195.96,"ADDRESS":"健康路一段１３３巷８５弄２８號","OBJECTID":147452},"geometry":{"x":168934.08000000101,"y":2542195.9600000028}},{"attributes":{"ID":147454,"DIS_CODE":0,"TOWNNAME":"南區","LI":"竹溪里","LIN":"3鄰","STREET":"健康路","SECT":"一段","MAREA":" ","LANE":"１３３巷","ALLEY":"８５弄","HOUSE_NO":"２４號","E_COORD97":168928.13,"N_COORD97":2542194.3399999999,"ADDRESS":"健康路一段１３３巷８５弄２４號","OBJECTID":147453},"geometry":{"x":168928.13000000082,"y":2542194.3400000036}},{"attributes":{"ID":147455,"DIS_CODE":0,"TOWNNAME":"永康區","LI":"埔園里","LIN":"30鄰","STREET":"中山路","SECT":" ","MAREA":" ","LANE":" ","ALLEY":" ","HOUSE_NO":"３９８號","E_COORD97":173616.67000000001,"N_COORD97":2548398.25,"ADDRESS":"中山路３９８號","OBJECTID":147454},"geometry":{"x":173616.67000000086,"y":2548398.25}},{"attributes":{"ID":147456,"DIS_CODE":0,"TOWNNAME":"永康區","LI":"甲頂里","LIN":"30鄰","STREET":"中央路","SECT":" ","MAREA":" ","LANE":" ","ALLEY":" ","HOUSE_NO":"２８號","E_COORD97":169654.09,"N_COORD97":2547050.7200000002,"ADDRESS":"中央路２８號","OBJECTID":147455},"geometry":{"x":169654.09000000078,"y":2547050.7200000007}},{"attributes":{"ID":147457,"DIS_CODE":0,"TOWNNAME":"西港區","LI":"西港里","LIN":"4鄰","STREET":"文化路","SECT":" ","MAREA":" ","LANE":" ","ALLEY":" ","HOUSE_NO":"４１之２１號","E_COORD97":168628.04999999999,"N_COORD97":2558305.9199999999,"ADDRESS":"文化路４１之２１號","OBJECTID":147456},"geometry":{"x":168628.05000000168,"y":2558305.9200000018}},{"attributes":{"ID":147458,"DIS_CODE":0,"TOWNNAME":"西港區","LI":"西港里","LIN":"4鄰","STREET":"文化路","SECT":" ","MAREA":" ","LANE":" ","ALLEY":" ","HOUSE_NO":"４１之２２號","E_COORD97":168632.26999999999,"N_COORD97":2558307.4900000002,"ADDRESS":"文化路４１之２２號","OBJECTID":147457},"geometry":{"x":168632.26999999955,"y":2558307.4900000002}},{"attributes":{"ID":147459,"DIS_CODE":0,"TOWNNAME":"西港區","LI":"西港里","LIN":"4鄰","STREET":"文化路","SECT":" ","MAREA":" ","LANE":" ","ALLEY":" ","HOUSE_NO":"４１之２３號","E_COORD97":168636.48999999999,"N_COORD97":2558309.0699999998,"ADDRESS":"文化路４１之２３號","OBJECTID":147458},"geometry":{"x":168636.49000000115,"y":2558309.0700000022}},{"attributes":{"ID":147460,"DIS_CODE":0,"TOWNNAME":"西港區","LI":"西港里","LIN":"4鄰","STREET":"文化路","SECT":" ","MAREA":" ","LANE":" ","ALLEY":" ","HOUSE_NO":"４１之２５號","E_COORD97":168640.70999999999,"N_COORD97":2558310.6499999999,"ADDRESS":"文化路４１之２５號","OBJECTID":147459},"geometry":{"x":168640.71000000183,"y":2558310.6500000041}},{"attributes":{"ID":147461,"DIS_CODE":0,"TOWNNAME":"善化區","LI":"光文里","LIN":"30鄰","STREET":" ","SECT":" ","MAREA":"北子店","LANE":" ","ALLEY":" ","HOUSE_NO":"５０７號","E_COORD97":179274.92999999999,"N_COORD97":2559836.5,"ADDRESS":"北子店５０７號","OBJECTID":147460},"geometry":{"x":179274.93000000063,"y":2559836.5}},{"attributes":{"ID":147462,"DIS_CODE":0,"TOWNNAME":"善化區","LI":"溪美里","LIN":"30鄰","STREET":" ","SECT":" ","MAREA":"溪尾","LANE":" ","ALLEY":" ","HOUSE_NO":"１９０之２號","E_COORD97":176889.70000000001,"N_COORD97":2561168.77,"ADDRESS":"溪尾１９０之２號","OBJECTID":147461},"geometry":{"x":176889.69999999925,"y":2561168.7700000014}},{"attributes":{"ID":147463,"DIS_CODE":0,"TOWNNAME":"善化區","LI":"光文里","LIN":"30鄰","STREET":" ","SECT":" ","MAREA":"北子店","LANE":" ","ALLEY":" ","HOUSE_NO":"５３７號","E_COORD97":179302.57000000001,"N_COORD97":2559893.5,"ADDRESS":"北子店５３７號","OBJECTID":147462},"geometry":{"x":179302.5700000003,"y":2559893.5}},{"attributes":{"ID":147464,"DIS_CODE":0,"TOWNNAME":"善化區","LI":"坐駕里","LIN":"20鄰","STREET":" ","SECT":" ","MAREA":"坐駕","LANE":" ","ALLEY":" ","HOUSE_NO":"１１５號","E_COORD97":178250.64000000001,"N_COORD97":2558316,"ADDRESS":"坐駕１１５號","OBJECTID":147463},"geometry":{"x":178250.63999999966,"y":2558316.0000000019}},{"attributes":{"ID":147465,"DIS_CODE":0,"TOWNNAME":"善化區","LI":"胡家里","LIN":"4鄰","STREET":" ","SECT":" ","MAREA":"胡厝寮","LANE":" ","ALLEY":" ","HOUSE_NO":"３２４號之３","E_COORD97":175474.03,"N_COORD97":2560423.77,"ADDRESS":"胡厝寮３２４號之３","OBJECTID":147464},"geometry":{"x":175474.03000000119,"y":2560423.7699999996}},{"attributes":{"ID":147466,"DIS_CODE":0,"TOWNNAME":"善化區","LI":"牛庄里","LIN":"13鄰","STREET":" ","SECT":" ","MAREA":"牛庄","LANE":" ","ALLEY":" ","HOUSE_NO":"１號之１０","E_COORD97":180082.45000000001,"N_COORD97":2559541.27,"ADDRESS":"牛庄１號之１０","OBJECTID":147465},"geometry":{"x":180082.45000000112,"y":2559541.2700000014}},{"attributes":{"ID":147467,"DIS_CODE":0,"TOWNNAME":"善化區","LI":"溪美里","LIN":"18鄰","STREET":" ","SECT":" ","MAREA":"溪尾","LANE":" ","ALLEY":" ","HOUSE_NO":"２１７號","E_COORD97":177283.98999999999,"N_COORD97":2561196.02,"ADDRESS":"溪尾２１７號","OBJECTID":147466},"geometry":{"x":177283.99000000022,"y":2561196.0200000033}},{"attributes":{"ID":147468,"DIS_CODE":0,"TOWNNAME":"西港區","LI":"西港里","LIN":"30鄰","STREET":" ","SECT":" ","MAREA":"堀子頭","LANE":" ","ALLEY":" ","HOUSE_NO":"１７４號","E_COORD97":168709.73999999999,"N_COORD97":2557433.1400000001,"ADDRESS":"堀子頭１７４號","OBJECTID":147467},"geometry":{"x":168709.74000000022,"y":2557433.1400000043}},{"attributes":{"ID":147469,"DIS_CODE":0,"TOWNNAME":"南區","LI":"竹溪里","LIN":"3鄰","STREET":"健康路","SECT":"一段","MAREA":" ","LANE":"１３３巷","ALLEY":"８５弄","HOUSE_NO":"８號","E_COORD97":168916.76000000001,"N_COORD97":2542196.5,"ADDRESS":"健康路一段１３３巷８５弄８號","OBJECTID":147468},"geometry":{"x":168916.76000000071,"y":2542196.5}},{"attributes":{"ID":147470,"DIS_CODE":0,"TOWNNAME":"西港區","LI":"西港里","LIN":"30鄰","STREET":" ","SECT":" ","MAREA":"堀子頭","LANE":" ","ALLEY":" ","HOUSE_NO":"１７５號","E_COORD97":168713.54000000001,"N_COORD97":2557433.6699999999,"ADDRESS":"堀子頭１７５號","OBJECTID":147469},"geometry":{"x":168713.54000000097,"y":2557433.6699999999}},{"attributes":{"ID":147471,"DIS_CODE":0,"TOWNNAME":"永康區","LI":"尚頂里","LIN":"30鄰","STREET":"中正南路","SECT":" ","MAREA":" ","LANE":" ","ALLEY":" ","HOUSE_NO":"１７３號","E_COORD97":169886.26999999999,"N_COORD97":2547160.75,"ADDRESS":"中正南路１７３號","OBJECTID":147470},"geometry":{"x":169886.27000000048,"y":2547160.75}},{"attributes":{"ID":147472,"DIS_CODE":0,"TOWNNAME":"永康區","LI":"西灣里","LIN":"30鄰","STREET":"大勇路","SECT":" ","MAREA":" ","LANE":" ","ALLEY":" ","HOUSE_NO":"２２１號","E_COORD97":174300.70999999999,"N_COORD97":2545829.27,"ADDRESS":"大勇路２２１號","OBJECTID":147471},"geometry":{"x":174300.70999999996,"y":2545829.2700000033}},{"attributes":{"ID":147473,"DIS_CODE":0,"TOWNNAME":"永康區","LI":"西灣里","LIN":"30鄰","STREET":"大勇路","SECT":" ","MAREA":" ","LANE":" ","ALLEY":" ","HOUSE_NO":"２３１號","E_COORD97":174299.35000000001,"N_COORD97":2545852.0099999998,"ADDRESS":"大勇路２３１號","OBJECTID":147472},"geometry":{"x":174299.34999999963,"y":2545852.0100000016}},{"attributes":{"ID":147474,"DIS_CODE":0,"TOWNNAME":"永康區","LI":"西灣里","LIN":"30鄰","STREET":"大勇路","SECT":" ","MAREA":" ","LANE":" ","ALLEY":" ","HOUSE_NO":"２１３號","E_COORD97":174301.16,"N_COORD97":2545812.02,"ADDRESS":"大勇路２１３號","OBJECTID":147473},"geometry":{"x":174301.16000000015,"y":2545812.0200000014}},{"attributes":{"ID":147475,"DIS_CODE":0,"TOWNNAME":"西港區","LI":"西港里","LIN":"30鄰","STREET":" ","SECT":" ","MAREA":"堀子頭","LANE":" ","ALLEY":" ","HOUSE_NO":"１７６號","E_COORD97":168717.53,"N_COORD97":2557434.1000000001,"ADDRESS":"堀子頭１７６號","OBJECTID":147474},"geometry":{"x":168717.53000000119,"y":2557434.0999999996}},{"attributes":{"ID":147476,"DIS_CODE":0,"TOWNNAME":"南區","LI":"竹溪里","LIN":"3鄰","STREET":"健康路","SECT":"一段","MAREA":" ","LANE":"１３３巷","ALLEY":"８５弄","HOUSE_NO":"１０號","E_COORD97":168912.97,"N_COORD97":2542180.8300000001,"ADDRESS":"健康路一段１３３巷８５弄１０號","OBJECTID":147475},"geometry":{"x":168912.96999999974,"y":2542180.8300000001}},{"attributes":{"ID":147477,"DIS_CODE":0,"TOWNNAME":"永康區","LI":"西灣里","LIN":"30鄰","STREET":"大勇路","SECT":" ","MAREA":" ","LANE":" ","ALLEY":" ","HOUSE_NO":"２２３號","E_COORD97":174300.62,"N_COORD97":2545833.27,"ADDRESS":"大勇路２２３號","OBJECTID":147476},"geometry":{"x":174300.62000000104,"y":2545833.2700000014}},{"attributes":{"ID":147478,"DIS_CODE":0,"TOWNNAME":"南區","LI":"竹溪里","LIN":"3鄰","STREET":"健康路","SECT":"一段","MAREA":" ","LANE":"１３３巷","ALLEY":"８５弄","HOUSE_NO":"１２號","E_COORD97":168912.97,"N_COORD97":2542172.7200000002,"ADDRESS":"健康路一段１３３巷８５弄１２號","OBJECTID":147477},"geometry":{"x":168912.96999999974,"y":2542172.7200000025}},{"attributes":{"ID":147479,"DIS_CODE":0,"TOWNNAME":"南區","LI":"竹溪里","LIN":"3鄰","STREET":"健康路","SECT":"一段","MAREA":" ","LANE":"１３３巷","ALLEY":"８５弄","HOUSE_NO":"１４號","E_COORD97":168923.26000000001,"N_COORD97":2542159.21,"ADDRESS":"健康路一段１３３巷８５弄１４號","OBJECTID":147478},"geometry":{"x":168923.26000000164,"y":2542159.2100000046}},{"attributes":{"ID":147480,"DIS_CODE":0,"TOWNNAME":"永康區","LI":"正強里","LIN":"15鄰","STREET":"中山南路","SECT":" ","MAREA":" ","LANE":"４７１巷","ALLEY":"８１弄","HOUSE_NO":"３８號","E_COORD97":173329.85999999999,"N_COORD97":2547253.25,"ADDRESS":"中山南路４７１巷８１弄３８號","OBJECTID":147479},"geometry":{"x":173329.86000000034,"y":2547253.25}},{"attributes":{"ID":147481,"DIS_CODE":0,"TOWNNAME":"永康區","LI":"五王里","LIN":"16鄰","STREET":"成功路","SECT":" ","MAREA":" ","LANE":"１７２巷","ALLEY":"７６弄","HOUSE_NO":"８號","E_COORD97":171597.82000000001,"N_COORD97":2545776.7599999998,"ADDRESS":"成功路１７２巷７６弄８號","OBJECTID":147480},"geometry":{"x":171597.8200000003,"y":2545776.7600000016}},{"attributes":{"ID":147482,"DIS_CODE":0,"TOWNNAME":"永康區","LI":"北灣里","LIN":"13鄰","STREET":"大灣路","SECT":" ","MAREA":" ","LANE":"４４巷","ALLEY":"３５弄","HOUSE_NO":"１號","E_COORD97":175109.88,"N_COORD97":2545874.73,"ADDRESS":"大灣路４４巷３５弄１號","OBJECTID":147481},"geometry":{"x":175109.87999999989,"y":2545874.7300000023}},{"attributes":{"ID":147483,"DIS_CODE":0,"TOWNNAME":"永康區","LI":"王行里","LIN":"6鄰","STREET":"育樂街","SECT":" ","MAREA":" ","LANE":"１４３巷","ALLEY":"２５弄","HOUSE_NO":"４６號","E_COORD97":175139.82999999999,"N_COORD97":2548138.0099999998,"ADDRESS":"育樂街１４３巷２５弄４６號","OBJECTID":147482},"geometry":{"x":175139.83000000101,"y":2548138.0100000016}},{"attributes":{"ID":147484,"DIS_CODE":0,"TOWNNAME":"永康區","LI":"王行里","LIN":"12鄰","STREET":"王行路","SECT":" ","MAREA":" ","LANE":"８６６巷","ALLEY":"２９弄","HOUSE_NO":"２２號","E_COORD97":176009.01000000001,"N_COORD97":2549919.2400000002,"ADDRESS":"王行路８６６巷２９弄２２號","OBJECTID":147483},"geometry":{"x":176009.00999999978,"y":2549919.2400000021}},{"attributes":{"ID":147485,"DIS_CODE":0,"TOWNNAME":"永康區","LI":"北灣里","LIN":"23鄰","STREET":"大灣路","SECT":" ","MAREA":" ","LANE":"４０巷","ALLEY":"８弄","HOUSE_NO":"１號","E_COORD97":175278.92000000001,"N_COORD97":2545943.9900000002,"ADDRESS":"大灣路４０巷８弄１號","OBJECTID":147484},"geometry":{"x":175278.91999999993,"y":2545943.9900000021}},{"attributes":{"ID":147486,"DIS_CODE":0,"TOWNNAME":"永康區","LI":"五王里","LIN":"10鄰","STREET":"中山東路","SECT":" ","MAREA":" ","LANE":"２１８巷","ALLEY":"９弄","HOUSE_NO":"３７號","E_COORD97":171777.44,"N_COORD97":2545636.7400000002,"ADDRESS":"中山東路２１８巷９弄３７號","OBJECTID":147485},"geometry":{"x":171777.44000000227,"y":2545636.7400000039}},{"attributes":{"ID":147487,"DIS_CODE":0,"TOWNNAME":"安南區","LI":"溪心里","LIN":"3鄰","STREET":"安中路","SECT":"二段","MAREA":" ","LANE":"１３８巷","ALLEY":"３９弄","HOUSE_NO":"３號","E_COORD97":166775.10999999999,"N_COORD97":2549749.1299999999,"ADDRESS":"安中路二段１３８巷３９弄３號","OBJECTID":147486},"geometry":{"x":166775.11000000034,"y":2549749.1300000008}},{"attributes":{"ID":147488,"DIS_CODE":0,"TOWNNAME":"安南區","LI":"溪心里","LIN":"3鄰","STREET":"安中路","SECT":"二段","MAREA":" ","LANE":"１３８巷","ALLEY":"３９弄","HOUSE_NO":"１號","E_COORD97":166779.87,"N_COORD97":2549748.6000000001,"ADDRESS":"安中路二段１３８巷３９弄１號","OBJECTID":147487},"geometry":{"x":166779.87000000011,"y":2549748.5999999996}},{"attributes":{"ID":147489,"DIS_CODE":0,"TOWNNAME":"西港區","LI":"西港里","LIN":"30鄰","STREET":" ","SECT":" ","MAREA":"堀子頭","LANE":" ","ALLEY":" ","HOUSE_NO":"１７７號","E_COORD97":168721.88,"N_COORD97":2557434.3999999999,"ADDRESS":"堀子頭１７７號","OBJECTID":147488},"geometry":{"x":168721.87999999989,"y":2557434.4000000041}},{"attributes":{"ID":147490,"DIS_CODE":0,"TOWNNAME":"西港區","LI":"西港里","LIN":"30鄰","STREET":" ","SECT":" ","MAREA":"堀子頭","LANE":" ","ALLEY":" ","HOUSE_NO":"１７８號","E_COORD97":168725.98999999999,"N_COORD97":2557434.7599999998,"ADDRESS":"堀子頭１７８號","OBJECTID":147489},"geometry":{"x":168725.99000000115,"y":2557434.7600000035}},{"attributes":{"ID":147491,"DIS_CODE":0,"TOWNNAME":"西港區","LI":"西港里","LIN":"30鄰","STREET":" ","SECT":" ","MAREA":"堀子頭","LANE":" ","ALLEY":" ","HOUSE_NO":"１７９號","E_COORD97":168729.92000000001,"N_COORD97":2557435.6499999999,"ADDRESS":"堀子頭１７９號","OBJECTID":147490},"geometry":{"x":168729.92000000086,"y":2557435.6500000004}},{"attributes":{"ID":147492,"DIS_CODE":0,"TOWNNAME":"西港區","LI":"西港里","LIN":"30鄰","STREET":" ","SECT":" ","MAREA":"堀子頭","LANE":" ","ALLEY":" ","HOUSE_NO":"１８０號","E_COORD97":168733.73999999999,"N_COORD97":2557436.0800000001,"ADDRESS":"堀子頭１８０號","OBJECTID":147491},"geometry":{"x":168733.74000000022,"y":2557436.0800000038}},{"attributes":{"ID":147493,"DIS_CODE":0,"TOWNNAME":"西港區","LI":"西港里","LIN":"30鄰","STREET":" ","SECT":" ","MAREA":"堀子頭","LANE":" ","ALLEY":" ","HOUSE_NO":"１８１號","E_COORD97":168737.82999999999,"N_COORD97":2557436.4300000002,"ADDRESS":"堀子頭１８１號","OBJECTID":147492},"geometry":{"x":168737.83000000007,"y":2557436.4299999997}},{"attributes":{"ID":147494,"DIS_CODE":0,"TOWNNAME":"安南區","LI":"溪心里","LIN":"3鄰","STREET":"安中路","SECT":"二段","MAREA":" ","LANE":"１３８巷","ALLEY":"３９弄","HOUSE_NO":"１１號","E_COORD97":166757.91,"N_COORD97":2549752.04,"ADDRESS":"安中路二段１３８巷３９弄１１號","OBJECTID":147493},"geometry":{"x":166757.91000000201,"y":2549752.0399999991}},{"attributes":{"ID":147495,"DIS_CODE":0,"TOWNNAME":"安南區","LI":"溪心里","LIN":"3鄰","STREET":"安中路","SECT":"二段","MAREA":" ","LANE":"１３８巷","ALLEY":"３９弄","HOUSE_NO":"５號","E_COORD97":166770.88,"N_COORD97":2549749.9199999999,"ADDRESS":"安中路二段１３８巷３９弄５號","OBJECTID":147494},"geometry":{"x":166770.87999999989,"y":2549749.9199999999}},{"attributes":{"ID":147496,"DIS_CODE":0,"TOWNNAME":"安南區","LI":"溪心里","LIN":"3鄰","STREET":"安中路","SECT":"二段","MAREA":" ","LANE":"１３８巷","ALLEY":"３９弄","HOUSE_NO":"７號","E_COORD97":166766.91,"N_COORD97":2549750.7200000002,"ADDRESS":"安中路二段１３８巷３９弄７號","OBJECTID":147495},"geometry":{"x":166766.91000000108,"y":2549750.7200000025}},{"attributes":{"ID":147497,"DIS_CODE":0,"TOWNNAME":"安南區","LI":"溪心里","LIN":"3鄰","STREET":"安中路","SECT":"二段","MAREA":" ","LANE":"１３８巷","ALLEY":"３９弄","HOUSE_NO":"９號","E_COORD97":166762.41,"N_COORD97":2549751.5099999998,"ADDRESS":"安中路二段１３８巷３９弄９號","OBJECTID":147496},"geometry":{"x":166762.41000000015,"y":2549751.5100000016}},{"attributes":{"ID":147498,"DIS_CODE":0,"TOWNNAME":"安南區","LI":"溪心里","LIN":"3鄰","STREET":"安中路","SECT":"二段","MAREA":" ","LANE":"１３８巷","ALLEY":"３９弄","HOUSE_NO":"１３號","E_COORD97":166753.14999999999,"N_COORD97":2549752.2999999998,"ADDRESS":"安中路二段１３８巷３９弄１３號","OBJECTID":147497},"geometry":{"x":166753.15000000224,"y":2549752.3000000007}},{"attributes":{"ID":147499,"DIS_CODE":0,"TOWNNAME":"安南區","LI":"溪心里","LIN":"3鄰","STREET":"安中路","SECT":"二段","MAREA":" ","LANE":"１３８巷","ALLEY":"３９弄","HOUSE_NO":"１５號","E_COORD97":166748.92000000001,"N_COORD97":2549753.3599999999,"ADDRESS":"安中路二段１３８巷３９弄１５號","OBJECTID":147498},"geometry":{"x":166748.91999999993,"y":2549753.3599999994}},{"attributes":{"ID":147500,"DIS_CODE":0,"TOWNNAME":"安南區","LI":"溪心里","LIN":"3鄰","STREET":"安中路","SECT":"二段","MAREA":" ","LANE":"１３８巷","ALLEY":"３９弄","HOUSE_NO":"１７號","E_COORD97":166744.14999999999,"N_COORD97":2549754.1600000001,"ADDRESS":"安中路二段１３８巷３９弄１７號","OBJECTID":147499},"geometry":{"x":166744.15000000037,"y":2549754.160000002}},{"attributes":{"ID":147501,"DIS_CODE":0,"TOWNNAME":"安南區","LI":"溪心里","LIN":"3鄰","STREET":"安中路","SECT":"二段","MAREA":" ","LANE":"１３８巷","ALLEY":"３９弄","HOUSE_NO":"１９號","E_COORD97":166738.85999999999,"N_COORD97":2549755.48,"ADDRESS":"安中路二段１３８巷３９弄１９號","OBJECTID":147500},"geometry":{"x":166738.86000000127,"y":2549755.4800000023}},{"attributes":{"ID":147502,"DIS_CODE":0,"TOWNNAME":"永康區","LI":"北灣里","LIN":"22鄰","STREET":"大灣路","SECT":" ","MAREA":" ","LANE":"４０巷","ALLEY":"９８弄","HOUSE_NO":"４８號","E_COORD97":175015.26999999999,"N_COORD97":2546272.1400000001,"ADDRESS":"大灣路４０巷９８弄４８號","OBJECTID":147501},"geometry":{"x":175015.26999999955,"y":2546272.1400000025}},{"attributes":{"ID":147503,"DIS_CODE":0,"TOWNNAME":"安南區","LI":"溪心里","LIN":"3鄰","STREET":"安中路","SECT":"二段","MAREA":" ","LANE":"１３８巷","ALLEY":"３９弄","HOUSE_NO":"５２號","E_COORD97":166657.04999999999,"N_COORD97":2549787.02,"ADDRESS":"安中路二段１３８巷３９弄５２號","OBJECTID":147502},"geometry":{"x":166657.05000000075,"y":2549787.0199999977}},{"attributes":{"ID":147504,"DIS_CODE":0,"TOWNNAME":"安南區","LI":"溪心里","LIN":"3鄰","STREET":"安中路","SECT":"二段","MAREA":" ","LANE":"１３８巷","ALLEY":"３９弄","HOUSE_NO":"５０號","E_COORD97":166662.13,"N_COORD97":2549786.8599999999,"ADDRESS":"安中路二段１３８巷３９弄５０號","OBJECTID":147503},"geometry":{"x":166662.12999999989,"y":2549786.8599999994}},{"attributes":{"ID":147505,"DIS_CODE":0,"TOWNNAME":"安南區","LI":"溪心里","LIN":"3鄰","STREET":"安中路","SECT":"二段","MAREA":" ","LANE":"１３８巷","ALLEY":"３９弄","HOUSE_NO":"４８號","E_COORD97":166706.26999999999,"N_COORD97":2549776.2200000002,"ADDRESS":"安中路二段１３８巷３９弄４８號","OBJECTID":147504},"geometry":{"x":166706.27000000048,"y":2549776.2200000007}},{"attributes":{"ID":147506,"DIS_CODE":0,"TOWNNAME":"安南區","LI":"溪心里","LIN":"3鄰","STREET":"安中路","SECT":"二段","MAREA":" ","LANE":"１３８巷","ALLEY":"３９弄","HOUSE_NO":"４６號","E_COORD97":166710.07999999999,"N_COORD97":2549775.8999999999,"ADDRESS":"安中路二段１３８巷３９弄４６號","OBJECTID":147505},"geometry":{"x":166710.08000000007,"y":2549775.9000000022}},{"attributes":{"ID":147507,"DIS_CODE":0,"TOWNNAME":"安南區","LI":"溪心里","LIN":"3鄰","STREET":"安中路","SECT":"二段","MAREA":" ","LANE":"１３８巷","ALLEY":"３９弄","HOUSE_NO":"２８號","E_COORD97":166738.17000000001,"N_COORD97":2549771.2999999998,"ADDRESS":"安中路二段１３８巷３９弄２８號","OBJECTID":147506},"geometry":{"x":166738.16999999993,"y":2549771.3000000026}},{"attributes":{"ID":147508,"DIS_CODE":0,"TOWNNAME":"安南區","LI":"溪心里","LIN":"3鄰","STREET":"安中路","SECT":"二段","MAREA":" ","LANE":"１３８巷","ALLEY":"３９弄","HOUSE_NO":"３０號","E_COORD97":166734.84,"N_COORD97":2549772.4100000001,"ADDRESS":"安中路二段１３８巷３９弄３０號","OBJECTID":147507},"geometry":{"x":166734.84000000078,"y":2549772.410000002}},{"attributes":{"ID":147509,"DIS_CODE":0,"TOWNNAME":"永康區","LI":"五王里","LIN":"4鄰","STREET":"中華二路","SECT":" ","MAREA":" ","LANE":"２０６巷","ALLEY":"３０弄","HOUSE_NO":"３９號","E_COORD97":171719.85999999999,"N_COORD97":2545599.0499999998,"ADDRESS":"中華二路２０６巷３０弄３９號","OBJECTID":147508},"geometry":{"x":171719.86000000034,"y":2545599.0500000026}},{"attributes":{"ID":147510,"DIS_CODE":0,"TOWNNAME":"永康區","LI":"王行里","LIN":"12鄰","STREET":"王行路","SECT":" ","MAREA":" ","LANE":"８６６巷","ALLEY":"２９弄","HOUSE_NO":"１０８號","E_COORD97":175987.75,"N_COORD97":2550120.6000000001,"ADDRESS":"王行路８６６巷２９弄１０８號","OBJECTID":147509},"geometry":{"x":175987.75000000093,"y":2550120.6000000015}},{"attributes":{"ID":147511,"DIS_CODE":0,"TOWNNAME":"永康區","LI":"五王里","LIN":"10鄰","STREET":"中山東路","SECT":" ","MAREA":" ","LANE":"２１８巷","ALLEY":"９弄","HOUSE_NO":"３６號","E_COORD97":171754.57000000001,"N_COORD97":2545658.0699999998,"ADDRESS":"中山東路２１８巷９弄３６號","OBJECTID":147510},"geometry":{"x":171754.57000000123,"y":2545658.0699999984}},{"attributes":{"ID":147512,"DIS_CODE":0,"TOWNNAME":"永康區","LI":"王行里","LIN":"12鄰","STREET":"王行路","SECT":" ","MAREA":" ","LANE":"８６６巷","ALLEY":"２９弄","HOUSE_NO":"４１號","E_COORD97":176041.32999999999,"N_COORD97":2550014.1499999999,"ADDRESS":"王行路８６６巷２９弄４１號","OBJECTID":147511},"geometry":{"x":176041.33000000194,"y":2550014.1499999985}},{"attributes":{"ID":147513,"DIS_CODE":0,"TOWNNAME":"安南區","LI":"溪心里","LIN":"3鄰","STREET":"安中路","SECT":"二段","MAREA":" ","LANE":"１３８巷","ALLEY":"１７弄","HOUSE_NO":"１２號","E_COORD97":166756.26999999999,"N_COORD97":2549717.8500000001,"ADDRESS":"安中路二段１３８巷１７弄１２號","OBJECTID":147512},"geometry":{"x":166756.26999999955,"y":2549717.8500000015}},{"attributes":{"ID":147514,"DIS_CODE":0,"TOWNNAME":"安南區","LI":"城西里","LIN":"3鄰","STREET":"城西街","SECT":"三段","MAREA":" ","LANE":"５１０巷","ALLEY":"６１弄","HOUSE_NO":"２４之７號","E_COORD97":157161.48000000001,"N_COORD97":2551022.6299999999,"ADDRESS":"城西街三段５１０巷６１弄２４之７號","OBJECTID":147513},"geometry":{"x":157161.48000000138,"y":2551022.629999999}},{"attributes":{"ID":147515,"DIS_CODE":0,"TOWNNAME":"安南區","LI":"砂崙里","LIN":"3鄰","STREET":"城北路","SECT":" ","MAREA":" ","LANE":"８７１巷","ALLEY":"１４０弄","HOUSE_NO":"５８號之１","E_COORD97":160586.35999999999,"N_COORD97":2553406.4700000002,"ADDRESS":"城北路８７１巷１４０弄５８號之１","OBJECTID":147514},"geometry":{"x":160586.3600000022,"y":2553406.4700000044}},{"attributes":{"ID":147516,"DIS_CODE":0,"TOWNNAME":"安南區","LI":"砂崙里","LIN":"3鄰","STREET":"城北路","SECT":" ","MAREA":" ","LANE":"８７１巷","ALLEY":"１４０弄","HOUSE_NO":"３０號","E_COORD97":160552.07999999999,"N_COORD97":2553335.3599999999,"ADDRESS":"城北路８７１巷１４０弄３０號","OBJECTID":147515},"geometry":{"x":160552.08000000007,"y":2553335.3600000013}},{"attributes":{"ID":147517,"DIS_CODE":0,"TOWNNAME":"永康區","LI":"埔園里","LIN":"3鄰","STREET":"聖龍街","SECT":" ","MAREA":" ","LANE":"２２巷","ALLEY":"２８弄","HOUSE_NO":"９號","E_COORD97":173926.67000000001,"N_COORD97":2547769,"ADDRESS":"聖龍街２２巷２８弄９號","OBJECTID":147516},"geometry":{"x":173926.67000000179,"y":2547769}},{"attributes":{"ID":147518,"DIS_CODE":0,"TOWNNAME":"安南區","LI":"淵東里","LIN":"3鄰","STREET":"本原街","SECT":"三段","MAREA":" ","LANE":"２３４巷","ALLEY":"１０６弄","HOUSE_NO":"１６號","E_COORD97":165309.25,"N_COORD97":2550574.5899999999,"ADDRESS":"本原街三段２３４巷１０６弄１６號","OBJECTID":147517},"geometry":{"x":165309.25,"y":2550574.5900000017}},{"attributes":{"ID":147519,"DIS_CODE":0,"TOWNNAME":"仁德區","LI":"二行里","LIN":"3鄰","STREET":"中正西路","SECT":" ","MAREA":" ","LANE":"１２巷","ALLEY":"１５弄","HOUSE_NO":"２號","E_COORD97":170443.14999999999,"N_COORD97":2535533.75,"ADDRESS":"中正西路１２巷１５弄２號","OBJECTID":147518},"geometry":{"x":170443.15000000037,"y":2535533.7500000019}},{"attributes":{"ID":147520,"DIS_CODE":0,"TOWNNAME":"善化區","LI":"光文里","LIN":"30鄰","STREET":" ","SECT":" ","MAREA":"北子店","LANE":" ","ALLEY":" ","HOUSE_NO":"５０１號之２５","E_COORD97":179157.85000000001,"N_COORD97":2559819.52,"ADDRESS":"北子店５０１號之２５","OBJECTID":147519},"geometry":{"x":179157.84999999963,"y":2559819.5200000033}},{"attributes":{"ID":147521,"DIS_CODE":0,"TOWNNAME":"善化區","LI":"光文里","LIN":"30鄰","STREET":" ","SECT":" ","MAREA":"北子店","LANE":" ","ALLEY":" ","HOUSE_NO":"５０１號之５","E_COORD97":179222.97,"N_COORD97":2559776.77,"ADDRESS":"北子店５０１號之５","OBJECTID":147520},"geometry":{"x":179222.96999999974,"y":2559776.7699999977}},{"attributes":{"ID":147522,"DIS_CODE":0,"TOWNNAME":"善化區","LI":"溪美里","LIN":"22鄰","STREET":" ","SECT":" ","MAREA":"溪尾","LANE":" ","ALLEY":" ","HOUSE_NO":"５４６號","E_COORD97":177024.14999999999,"N_COORD97":2561131.27,"ADDRESS":"溪尾５４６號","OBJECTID":147521},"geometry":{"x":177024.14999999944,"y":2561131.2700000014}},{"attributes":{"ID":147523,"DIS_CODE":0,"TOWNNAME":"善化區","LI":"光文里","LIN":"30鄰","STREET":" ","SECT":" ","MAREA":"北子店","LANE":" ","ALLEY":" ","HOUSE_NO":"５６５號","E_COORD97":179329.22,"N_COORD97":2559949.5,"ADDRESS":"北子店５６５號","OBJECTID":147522},"geometry":{"x":179329.22000000067,"y":2559949.5000000019}},{"attributes":{"ID":147524,"DIS_CODE":0,"TOWNNAME":"善化區","LI":"光文里","LIN":"30鄰","STREET":" ","SECT":" ","MAREA":"北子店","LANE":" ","ALLEY":" ","HOUSE_NO":"５３５號","E_COORD97":179300.85999999999,"N_COORD97":2559890,"ADDRESS":"北子店５３５號","OBJECTID":147523},"geometry":{"x":179300.86000000034,"y":2559890}},{"attributes":{"ID":147525,"DIS_CODE":0,"TOWNNAME":"善化區","LI":"溪美里","LIN":"22鄰","STREET":" ","SECT":" ","MAREA":"溪尾","LANE":" ","ALLEY":" ","HOUSE_NO":"５６５號","E_COORD97":177035.14999999999,"N_COORD97":2561232.27,"ADDRESS":"溪尾５６５號","OBJECTID":147524},"geometry":{"x":177035.1500000013,"y":2561232.2700000014}},{"attributes":{"ID":147526,"DIS_CODE":0,"TOWNNAME":"善化區","LI":"光文里","LIN":"30鄰","STREET":" ","SECT":" ","MAREA":"北子店","LANE":" ","ALLEY":" ","HOUSE_NO":"４９９號之２","E_COORD97":179217.95999999999,"N_COORD97":2559762.77,"ADDRESS":"北子店４９９號之２","OBJECTID":147525},"geometry":{"x":179217.95999999996,"y":2559762.7699999996}},{"attributes":{"ID":147527,"DIS_CODE":0,"TOWNNAME":"善化區","LI":"溪美里","LIN":"22鄰","STREET":" ","SECT":" ","MAREA":"溪尾","LANE":" ","ALLEY":" ","HOUSE_NO":"５８７號","E_COORD97":177047.10000000001,"N_COORD97":2561182.52,"ADDRESS":"溪尾５８７號","OBJECTID":147526},"geometry":{"x":177047.09999999963,"y":2561182.5200000033}},{"attributes":{"ID":147528,"DIS_CODE":0,"TOWNNAME":"善化區","LI":"溪美里","LIN":"22鄰","STREET":" ","SECT":" ","MAREA":"溪尾","LANE":" ","ALLEY":" ","HOUSE_NO":"５８１號","E_COORD97":177043.54999999999,"N_COORD97":2561197.77,"ADDRESS":"溪尾５８１號","OBJECTID":147527},"geometry":{"x":177043.55000000075,"y":2561197.7700000033}},{"attributes":{"ID":147529,"DIS_CODE":0,"TOWNNAME":"善化區","LI":"溪美里","LIN":"22鄰","STREET":" ","SECT":" ","MAREA":"溪尾","LANE":" ","ALLEY":" ","HOUSE_NO":"５７５號","E_COORD97":177040.95999999999,"N_COORD97":2561210.52,"ADDRESS":"溪尾５７５號","OBJECTID":147528},"geometry":{"x":177040.96000000089,"y":2561210.5200000014}},{"attributes":{"ID":147530,"DIS_CODE":0,"TOWNNAME":"善化區","LI":"溪美里","LIN":"22鄰","STREET":" ","SECT":" ","MAREA":"溪尾","LANE":" ","ALLEY":" ","HOUSE_NO":"５９５號","E_COORD97":177072.62,"N_COORD97":2561170.02,"ADDRESS":"溪尾５９５號","OBJECTID":147529},"geometry":{"x":177072.62000000011,"y":2561170.0200000014}},{"attributes":{"ID":147531,"DIS_CODE":0,"TOWNNAME":"善化區","LI":"光文里","LIN":"30鄰","STREET":" ","SECT":" ","MAREA":"北子店","LANE":" ","ALLEY":" ","HOUSE_NO":"５０１號之１５","E_COORD97":179165.72,"N_COORD97":2559772.27,"ADDRESS":"北子店５０１號之１５","OBJECTID":147530},"geometry":{"x":179165.71999999881,"y":2559772.2699999996}},{"attributes":{"ID":147532,"DIS_CODE":0,"TOWNNAME":"善化區","LI":"光文里","LIN":"30鄰","STREET":" ","SECT":" ","MAREA":"北子店","LANE":" ","ALLEY":" ","HOUSE_NO":"５０１號之２６","E_COORD97":179157.69,"N_COORD97":2559824.02,"ADDRESS":"北子店５０１號之２６","OBJECTID":147531},"geometry":{"x":179157.69000000041,"y":2559824.0200000014}},{"attributes":{"ID":147533,"DIS_CODE":0,"TOWNNAME":"仁德區","LI":"太子里","LIN":"3鄰","STREET":"太子路","SECT":" ","MAREA":" ","LANE":"１９０巷","ALLEY":"２３弄","HOUSE_NO":"３２號","E_COORD97":174242.25,"N_COORD97":2543629.0099999998,"ADDRESS":"太子路１９０巷２３弄３２號","OBJECTID":147532},"geometry":{"x":174242.25,"y":2543629.0099999998}},{"attributes":{"ID":147534,"DIS_CODE":0,"TOWNNAME":"官田區","LI":"嘉南里","LIN":"1鄰","STREET":" ","SECT":" ","MAREA":"嘉南","LANE":" ","ALLEY":" ","HOUSE_NO":"８號之１","E_COORD97":184658.312913,"N_COORD97":2568068.6929199998,"ADDRESS":"嘉南８號之１","OBJECTID":147533},"geometry":{"x":184658.31291299965,"y":2568068.692919001}},{"attributes":{"ID":147535,"DIS_CODE":0,"TOWNNAME":"仁德區","LI":"成功里","LIN":"3鄰","STREET":"保生東路","SECT":" ","MAREA":" ","LANE":"２１８巷","ALLEY":"６６弄","HOUSE_NO":"１６號","E_COORD97":171218.20999999999,"N_COORD97":2539657.3300000001,"ADDRESS":"保生東路２１８巷６６弄１６號","OBJECTID":147534},"geometry":{"x":171218.21000000089,"y":2539657.3300000001}},{"attributes":{"ID":147536,"DIS_CODE":0,"TOWNNAME":"新化區","LI":"知義里","LIN":"15鄰","STREET":"中興路","SECT":" ","MAREA":" ","LANE":" ","ALLEY":" ","HOUSE_NO":"４５３號","E_COORD97":180510.60999999999,"N_COORD97":2547561.25,"ADDRESS":"中興路４５３號","OBJECTID":147535},"geometry":{"x":180510.61000000127,"y":2547561.25}},{"attributes":{"ID":147537,"DIS_CODE":0,"TOWNNAME":"永康區","LI":"北灣里","LIN":"22鄰","STREET":"大灣路","SECT":" ","MAREA":" ","LANE":"４０巷","ALLEY":"９８弄","HOUSE_NO":"１８號","E_COORD97":174987.26000000001,"N_COORD97":2546238.2999999998,"ADDRESS":"大灣路４０巷９８弄１８號","OBJECTID":147536},"geometry":{"x":174987.26000000071,"y":2546238.3000000026}},{"attributes":{"ID":147538,"DIS_CODE":0,"TOWNNAME":"仁德區","LI":"太子里","LIN":"3鄰","STREET":"太子路","SECT":" ","MAREA":" ","LANE":"１９０巷","ALLEY":"２３弄","HOUSE_NO":"１號","E_COORD97":174299.20000000001,"N_COORD97":2543582,"ADDRESS":"太子路１９０巷２３弄１號","OBJECTID":147537},"geometry":{"x":174299.20000000019,"y":2543582}},{"attributes":{"ID":147539,"DIS_CODE":0,"TOWNNAME":"仁德區","LI":"太子里","LIN":"3鄰","STREET":"太子路","SECT":" ","MAREA":" ","LANE":"１９０巷","ALLEY":"２３弄","HOUSE_NO":"２０號","E_COORD97":174262.35999999999,"N_COORD97":2543592.6000000001,"ADDRESS":"太子路１９０巷２３弄２０號","OBJECTID":147538},"geometry":{"x":174262.36000000034,"y":2543592.6000000034}},{"attributes":{"ID":147540,"DIS_CODE":0,"TOWNNAME":"永康區","LI":"北灣里","LIN":"37鄰","STREET":"大同街","SECT":" ","MAREA":" ","LANE":"３８０巷","ALLEY":"１１弄","HOUSE_NO":"１７號","E_COORD97":174796.10999999999,"N_COORD97":2546160.2599999998,"ADDRESS":"大同街３８０巷１１弄１７號","OBJECTID":147539},"geometry":{"x":174796.11000000127,"y":2546160.2599999998}},{"attributes":{"ID":147541,"DIS_CODE":0,"TOWNNAME":"西港區","LI":"西港里","LIN":"4鄰","STREET":"文化路","SECT":" ","MAREA":" ","LANE":" ","ALLEY":" ","HOUSE_NO":"４１之３２號","E_COORD97":168670.26000000001,"N_COORD97":2558321.6899999999,"ADDRESS":"文化路４１之３２號","OBJECTID":147540},"geometry":{"x":168670.25999999978,"y":2558321.6899999995}},{"attributes":{"ID":147542,"DIS_CODE":0,"TOWNNAME":"西港區","LI":"西港里","LIN":"4鄰","STREET":"文化路","SECT":" ","MAREA":" ","LANE":" ","ALLEY":" ","HOUSE_NO":"４１號之３","E_COORD97":168651.35000000001,"N_COORD97":2558254.8500000001,"ADDRESS":"文化路４１號之３","OBJECTID":147541},"geometry":{"x":168651.35000000149,"y":2558254.8500000015}},{"attributes":{"ID":147543,"DIS_CODE":0,"TOWNNAME":"西港區","LI":"西港里","LIN":"4鄰","STREET":"文化路","SECT":" ","MAREA":" ","LANE":" ","ALLEY":" ","HOUSE_NO":"４１之７號","E_COORD97":168632.67999999999,"N_COORD97":2558280.1299999999,"ADDRESS":"文化路４１之７號","OBJECTID":147542},"geometry":{"x":168632.68000000063,"y":2558280.1300000008}},{"attributes":{"ID":147544,"DIS_CODE":0,"TOWNNAME":"西港區","LI":"西港里","LIN":"4鄰","STREET":"文化路","SECT":" ","MAREA":" ","LANE":" ","ALLEY":" ","HOUSE_NO":"４１之８號","E_COORD97":168636.89999999999,"N_COORD97":2558281.75,"ADDRESS":"文化路４１之８號","OBJECTID":147543},"geometry":{"x":168636.9000000013,"y":2558281.75}},{"attributes":{"ID":147545,"DIS_CODE":0,"TOWNNAME":"永康區","LI":"五王里","LIN":"18鄰","STREET":"成功路","SECT":" ","MAREA":" ","LANE":"１７２巷","ALLEY":"４３弄","HOUSE_NO":"１１號","E_COORD97":171524.06,"N_COORD97":2545759.5099999998,"ADDRESS":"成功路１７２巷４３弄１１號","OBJECTID":147544},"geometry":{"x":171524.05999999959,"y":2545759.5099999998}},{"attributes":{"ID":147546,"DIS_CODE":0,"TOWNNAME":"永康區","LI":"北灣里","LIN":"39鄰","STREET":"大同街","SECT":" ","MAREA":" ","LANE":"６３９巷","ALLEY":"２弄","HOUSE_NO":"１２號","E_COORD97":174540.20000000001,"N_COORD97":2546501.3799999999,"ADDRESS":"大同街６３９巷２弄１２號","OBJECTID":147545},"geometry":{"x":174540.19999999925,"y":2546501.379999999}},{"attributes":{"ID":147547,"DIS_CODE":0,"TOWNNAME":"永康區","LI":"王行里","LIN":"12鄰","STREET":"王行路","SECT":" ","MAREA":" ","LANE":"８６６巷","ALLEY":"２９弄","HOUSE_NO":"６號","E_COORD97":175981.23000000001,"N_COORD97":2549902.9900000002,"ADDRESS":"王行路８６６巷２９弄６號","OBJECTID":147546},"geometry":{"x":175981.23000000231,"y":2549902.9900000002}},{"attributes":{"ID":147548,"DIS_CODE":0,"TOWNNAME":"永康區","LI":"五王里","LIN":"2鄰","STREET":"成功路","SECT":" ","MAREA":" ","LANE":"１７２巷","ALLEY":"８弄","HOUSE_NO":"１６號","E_COORD97":171493.32000000001,"N_COORD97":2545587.4700000002,"ADDRESS":"成功路１７２巷８弄１６號","OBJECTID":147547},"geometry":{"x":171493.32000000216,"y":2545587.4700000007}},{"attributes":{"ID":147549,"DIS_CODE":0,"TOWNNAME":"永康區","LI":"正強里","LIN":"15鄰","STREET":"中山南路","SECT":" ","MAREA":" ","LANE":"４７１巷","ALLEY":"８１弄","HOUSE_NO":"６８號","E_COORD97":173330.42999999999,"N_COORD97":2547282,"ADDRESS":"中山南路４７１巷８１弄６８號","OBJECTID":147548},"geometry":{"x":173330.4299999997,"y":2547282}},{"attributes":{"ID":147550,"DIS_CODE":0,"TOWNNAME":"永康區","LI":"六合里","LIN":"3鄰","STREET":"新興街","SECT":" ","MAREA":" ","LANE":"３５巷","ALLEY":"１５弄","HOUSE_NO":"６號","E_COORD97":170992.53,"N_COORD97":2545854.2400000002,"ADDRESS":"新興街３５巷１５弄６號","OBJECTID":147549},"geometry":{"x":170992.53000000119,"y":2545854.2400000021}},{"attributes":{"ID":147551,"DIS_CODE":0,"TOWNNAME":"永康區","LI":"北灣里","LIN":"14鄰","STREET":"大灣路","SECT":" ","MAREA":" ","LANE":"４４巷","ALLEY":"２２弄","HOUSE_NO":"２號","E_COORD97":175199.70000000001,"N_COORD97":2545882.3199999998,"ADDRESS":"大灣路４４巷２２弄２號","OBJECTID":147550},"geometry":{"x":175199.70000000205,"y":2545882.3200000003}},{"attributes":{"ID":147552,"DIS_CODE":0,"TOWNNAME":"永康區","LI":"正強里","LIN":"3鄰","STREET":"中正路","SECT":" ","MAREA":" ","LANE":"１巷","ALLEY":"２０弄","HOUSE_NO":"５號","E_COORD97":173643.07000000001,"N_COORD97":2547641.4900000002,"ADDRESS":"中正路１巷２０弄５號","OBJECTID":147551},"geometry":{"x":173643.07000000123,"y":2547641.4900000002}},{"attributes":{"ID":147553,"DIS_CODE":0,"TOWNNAME":"永康區","LI":"王行里","LIN":"3鄰","STREET":"王行路","SECT":" ","MAREA":" ","LANE":"２２４巷","ALLEY":" ","HOUSE_NO":"２８號","E_COORD97":175753.84,"N_COORD97":2548189.6600000001,"ADDRESS":"王行路２２４巷２８號","OBJECTID":147552},"geometry":{"x":175753.83999999985,"y":2548189.6600000001}},{"attributes":{"ID":147554,"DIS_CODE":0,"TOWNNAME":"永康區","LI":"埔園里","LIN":"3鄰","STREET":"聖龍街","SECT":" ","MAREA":" ","LANE":"２２巷","ALLEY":"２８弄","HOUSE_NO":"８號","E_COORD97":173922.03,"N_COORD97":2547756.25,"ADDRESS":"聖龍街２２巷２８弄８號","OBJECTID":147553},"geometry":{"x":173922.03000000026,"y":2547756.2500000019}},{"attributes":{"ID":147555,"DIS_CODE":0,"TOWNNAME":"永康區","LI":"復興里","LIN":"3鄰","STREET":"復興路","SECT":" ","MAREA":" ","LANE":"２７７巷","ALLEY":"７８弄","HOUSE_NO":"８號","E_COORD97":172305.26000000001,"N_COORD97":2544120.77,"ADDRESS":"復興路２７７巷７８弄８號","OBJECTID":147554},"geometry":{"x":172305.26000000164,"y":2544120.7700000014}},{"attributes":{"ID":147556,"DIS_CODE":0,"TOWNNAME":"永康區","LI":"正強里","LIN":"3鄰","STREET":"中正路","SECT":" ","MAREA":" ","LANE":"１巷","ALLEY":"２０弄","HOUSE_NO":"１７號","E_COORD97":173623.17999999999,"N_COORD97":2547628.2400000002,"ADDRESS":"中正路１巷２０弄１７號","OBJECTID":147555},"geometry":{"x":173623.18000000063,"y":2547628.2400000021}},{"attributes":{"ID":147557,"DIS_CODE":0,"TOWNNAME":"永康區","LI":"五王里","LIN":"3鄰","STREET":"成功路","SECT":" ","MAREA":" ","LANE":"１７２巷","ALLEY":"１８弄","HOUSE_NO":"８號","E_COORD97":171523.09,"N_COORD97":2545618.02,"ADDRESS":"成功路１７２巷１８弄８號","OBJECTID":147556},"geometry":{"x":171523.08999999985,"y":2545618.0200000014}},{"attributes":{"ID":147558,"DIS_CODE":0,"TOWNNAME":"永康區","LI":"北灣里","LIN":"3鄰","STREET":"文賢街","SECT":" ","MAREA":" ","LANE":"１３６巷","ALLEY":"１弄","HOUSE_NO":"８號","E_COORD97":175421.88,"N_COORD97":2545583.48,"ADDRESS":"文賢街１３６巷１弄８號","OBJECTID":147557},"geometry":{"x":175421.88000000175,"y":2545583.4800000004}},{"attributes":{"ID":147559,"DIS_CODE":0,"TOWNNAME":"永康區","LI":"勝利里","LIN":"3鄰","STREET":"勝利街","SECT":" ","MAREA":" ","LANE":"２巷","ALLEY":"４８弄","HOUSE_NO":"２７號","E_COORD97":171031.92999999999,"N_COORD97":2544762.7599999998,"ADDRESS":"勝利街２巷４８弄２７號","OBJECTID":147558},"geometry":{"x":171031.9299999997,"y":2544762.7600000016}},{"attributes":{"ID":147560,"DIS_CODE":0,"TOWNNAME":"永康區","LI":"中興里","LIN":"3鄰","STREET":"中華一路","SECT":" ","MAREA":" ","LANE":"５８巷","ALLEY":"２弄","HOUSE_NO":"１９號","E_COORD97":171928.73000000001,"N_COORD97":2545006.2400000002,"ADDRESS":"中華一路５８巷２弄１９號","OBJECTID":147559},"geometry":{"x":171928.73000000138,"y":2545006.2400000039}},{"attributes":{"ID":147561,"DIS_CODE":0,"TOWNNAME":"永康區","LI":"王行里","LIN":"6鄰","STREET":"育樂街","SECT":" ","MAREA":" ","LANE":"１４３巷","ALLEY":"２５弄","HOUSE_NO":"２４號","E_COORD97":175135.92000000001,"N_COORD97":2548183.27,"ADDRESS":"育樂街１４３巷２５弄２４號","OBJECTID":147560},"geometry":{"x":175135.92000000086,"y":2548183.2700000014}},{"attributes":{"ID":147562,"DIS_CODE":0,"TOWNNAME":"永康區","LI":"王行里","LIN":"12鄰","STREET":"王行路","SECT":" ","MAREA":" ","LANE":"８６６巷","ALLEY":"７弄","HOUSE_NO":"６號","E_COORD97":175894.79000000001,"N_COORD97":2549985.0699999998,"ADDRESS":"王行路８６６巷７弄６號","OBJECTID":147561},"geometry":{"x":175894.79000000097,"y":2549985.0700000022}},{"attributes":{"ID":147563,"DIS_CODE":0,"TOWNNAME":"永康區","LI":"中興里","LIN":"3鄰","STREET":"忠孝路","SECT":" ","MAREA":" ","LANE":"１９５巷","ALLEY":"１３０弄","HOUSE_NO":"４０號","E_COORD97":171937.06,"N_COORD97":2544994,"ADDRESS":"忠孝路１９５巷１３０弄４０號","OBJECTID":147562},"geometry":{"x":171937.06000000052,"y":2544994.0000000037}},{"attributes":{"ID":147564,"DIS_CODE":0,"TOWNNAME":"永康區","LI":"五王里","LIN":"3鄰","STREET":"中華二路","SECT":" ","MAREA":" ","LANE":"２０６巷","ALLEY":"５１弄","HOUSE_NO":"１６號","E_COORD97":171552.51999999999,"N_COORD97":2545601.5,"ADDRESS":"中華二路２０６巷５１弄１６號","OBJECTID":147563},"geometry":{"x":171552.52000000048,"y":2545601.5000000019}},{"attributes":{"ID":147565,"DIS_CODE":0,"TOWNNAME":"永康區","LI":"復興里","LIN":"3鄰","STREET":"復興路","SECT":" ","MAREA":" ","LANE":"２７７巷","ALLEY":"７８弄","HOUSE_NO":"３８號","E_COORD97":172318.29000000001,"N_COORD97":2544153.5299999998,"ADDRESS":"復興路２７７巷７８弄３８號","OBJECTID":147564},"geometry":{"x":172318.29000000004,"y":2544153.5300000012}},{"attributes":{"ID":147566,"DIS_CODE":0,"TOWNNAME":"官田區","LI":"嘉南里","LIN":"1鄰","STREET":" ","SECT":" ","MAREA":"嘉南","LANE":" ","ALLEY":" ","HOUSE_NO":"１０號","E_COORD97":184670.81200100001,"N_COORD97":2568070.5979200001,"ADDRESS":"嘉南１０號","OBJECTID":147565},"geometry":{"x":184670.81200100109,"y":2568070.5979180001}},{"attributes":{"ID":147567,"DIS_CODE":0,"TOWNNAME":"永康區","LI":"勝利里","LIN":"3鄰","STREET":"勝利街","SECT":" ","MAREA":" ","LANE":"２巷","ALLEY":"４８弄","HOUSE_NO":"２０號","E_COORD97":171084.17000000001,"N_COORD97":2544733,"ADDRESS":"勝利街２巷４８弄２０號","OBJECTID":147566},"geometry":{"x":171084.17000000086,"y":2544733.0000000037}},{"attributes":{"ID":147568,"DIS_CODE":0,"TOWNNAME":"永康區","LI":"埔園里","LIN":"3鄰","STREET":"聖龍街","SECT":" ","MAREA":" ","LANE":"２２巷","ALLEY":"２８弄","HOUSE_NO":"２號","E_COORD97":173900.92000000001,"N_COORD97":2547746.4900000002,"ADDRESS":"聖龍街２２巷２８弄２號","OBJECTID":147567},"geometry":{"x":173900.91999999993,"y":2547746.4900000002}},{"attributes":{"ID":147569,"DIS_CODE":0,"TOWNNAME":"永康區","LI":"甲頂里","LIN":"30鄰","STREET":"中央路","SECT":" ","MAREA":" ","LANE":" ","ALLEY":" ","HOUSE_NO":"２號","E_COORD97":169674.07000000001,"N_COORD97":2546997.5299999998,"ADDRESS":"中央路２號","OBJECTID":147568},"geometry":{"x":169674.0700000003,"y":2546997.5300000012}},{"attributes":{"ID":147570,"DIS_CODE":0,"TOWNNAME":"永康區","LI":"西灣里","LIN":"30鄰","STREET":"大勇路","SECT":" ","MAREA":" ","LANE":" ","ALLEY":" ","HOUSE_NO":"２１７號","E_COORD97":174301.06,"N_COORD97":2545820.52,"ADDRESS":"大勇路２１７號","OBJECTID":147569},"geometry":{"x":174301.05999999959,"y":2545820.5200000033}},{"attributes":{"ID":147571,"DIS_CODE":0,"TOWNNAME":"永康區","LI":"甲頂里","LIN":"30鄰","STREET":"中央路","SECT":" ","MAREA":" ","LANE":" ","ALLEY":" ","HOUSE_NO":"１８號","E_COORD97":169666.89000000001,"N_COORD97":2547002.2400000002,"ADDRESS":"中央路１８號","OBJECTID":147570},"geometry":{"x":169666.8900000006,"y":2547002.2400000002}},{"attributes":{"ID":147572,"DIS_CODE":0,"TOWNNAME":"永康區","LI":"埔園里","LIN":"3鄰","STREET":"聖龍街","SECT":" ","MAREA":" ","LANE":"２２巷","ALLEY":"２８弄","HOUSE_NO":"７號","E_COORD97":173919.32000000001,"N_COORD97":2547767.25,"ADDRESS":"聖龍街２２巷２８弄７號","OBJECTID":147571},"geometry":{"x":173919.32000000123,"y":2547767.25}},{"attributes":{"ID":147573,"DIS_CODE":0,"TOWNNAME":"永康區","LI":"五王里","LIN":"13鄰","STREET":"成功路","SECT":" ","MAREA":" ","LANE":"１７２巷","ALLEY":"６２弄","HOUSE_NO":"２０號","E_COORD97":171644.10000000001,"N_COORD97":2545747.8799999999,"ADDRESS":"成功路１７２巷６２弄２０號","OBJECTID":147572},"geometry":{"x":171644.10000000056,"y":2545747.8800000008}},{"attributes":{"ID":147574,"DIS_CODE":0,"TOWNNAME":"永康區","LI":"王行里","LIN":"12鄰","STREET":"王行路","SECT":" ","MAREA":" ","LANE":"８６６巷","ALLEY":"２９弄","HOUSE_NO":"９０號","E_COORD97":176002.67999999999,"N_COORD97":2550077,"ADDRESS":"王行路８６６巷２９弄９０號","OBJECTID":147573},"geometry":{"x":176002.6799999997,"y":2550077.0000000019}},{"attributes":{"ID":147575,"DIS_CODE":0,"TOWNNAME":"安南區","LI":"溪心里","LIN":"3鄰","STREET":"安中路","SECT":"二段","MAREA":" ","LANE":"１３８巷","ALLEY":"１７弄","HOUSE_NO":"５５號","E_COORD97":166642.5,"N_COORD97":2549728.8399999999,"ADDRESS":"安中路二段１３８巷１７弄５５號","OBJECTID":147574},"geometry":{"x":166642.50000000093,"y":2549728.8400000017}},{"attributes":{"ID":147576,"DIS_CODE":0,"TOWNNAME":"安南區","LI":"溪心里","LIN":"3鄰","STREET":"安中路","SECT":"二段","MAREA":" ","LANE":"１３８巷","ALLEY":"１７弄","HOUSE_NO":"５７號","E_COORD97":166637.73999999999,"N_COORD97":2549729.6299999999,"ADDRESS":"安中路二段１３８巷１７弄５７號","OBJECTID":147575},"geometry":{"x":166637.74000000115,"y":2549729.6300000008}},{"attributes":{"ID":147577,"DIS_CODE":0,"TOWNNAME":"安南區","LI":"溪心里","LIN":"3鄰","STREET":"安中路","SECT":"二段","MAREA":" ","LANE":"１３８巷","ALLEY":"１７弄","HOUSE_NO":"５９號","E_COORD97":166632.70999999999,"N_COORD97":2549730.1600000001,"ADDRESS":"安中路二段１３８巷１７弄５９號","OBJECTID":147576},"geometry":{"x":166632.71000000089,"y":2549730.160000002}},{"attributes":{"ID":147578,"DIS_CODE":0,"TOWNNAME":"善化區","LI":"光文里","LIN":"30鄰","STREET":" ","SECT":" ","MAREA":"北子店","LANE":" ","ALLEY":" ","HOUSE_NO":"５０１號之１４","E_COORD97":179171.47,"N_COORD97":2559772.77,"ADDRESS":"北子店５０１號之１４","OBJECTID":147577},"geometry":{"x":179171.47000000067,"y":2559772.7699999996}},{"attributes":{"ID":147579,"DIS_CODE":0,"TOWNNAME":"西港區","LI":"西港里","LIN":"30鄰","STREET":" ","SECT":" ","MAREA":"堀子頭","LANE":" ","ALLEY":" ","HOUSE_NO":"７７號之１０","E_COORD97":168698.39000000001,"N_COORD97":2557493.8300000001,"ADDRESS":"堀子頭７７號之１０","OBJECTID":147578},"geometry":{"x":168698.38999999873,"y":2557493.8300000001}},{"attributes":{"ID":147580,"DIS_CODE":0,"TOWNNAME":"永康區","LI":"甲頂里","LIN":"30鄰","STREET":"中央路","SECT":" ","MAREA":" ","LANE":" ","ALLEY":" ","HOUSE_NO":"３０號","E_COORD97":169653.35000000001,"N_COORD97":2547055.0600000001,"ADDRESS":"中央路３０號","OBJECTID":147579},"geometry":{"x":169653.35000000056,"y":2547055.0600000005}},{"attributes":{"ID":147581,"DIS_CODE":0,"TOWNNAME":"西港區","LI":"西港里","LIN":"30鄰","STREET":" ","SECT":" ","MAREA":"堀子頭","LANE":" ","ALLEY":" ","HOUSE_NO":"７７號之１１","E_COORD97":168698.79000000001,"N_COORD97":2557490.04,"ADDRESS":"堀子頭７７號之１１","OBJECTID":147580},"geometry":{"x":168698.79000000004,"y":2557490.040000001}},{"attributes":{"ID":147582,"DIS_CODE":0,"TOWNNAME":"西港區","LI":"西港里","LIN":"30鄰","STREET":" ","SECT":" ","MAREA":"堀子頭","LANE":" ","ALLEY":" ","HOUSE_NO":"７７號之１２","E_COORD97":168699.44,"N_COORD97":2557485.6299999999,"ADDRESS":"堀子頭７７號之１２","OBJECTID":147581},"geometry":{"x":168699.44000000134,"y":2557485.6300000027}},{"attributes":{"ID":147583,"DIS_CODE":0,"TOWNNAME":"西港區","LI":"西港里","LIN":"30鄰","STREET":" ","SECT":" ","MAREA":"堀子頭","LANE":" ","ALLEY":" ","HOUSE_NO":"７７號之１３","E_COORD97":168699.53,"N_COORD97":2557481.6099999999,"ADDRESS":"堀子頭７７號之１３","OBJECTID":147582},"geometry":{"x":168699.53000000026,"y":2557481.6099999994}},{"attributes":{"ID":147584,"DIS_CODE":0,"TOWNNAME":"西港區","LI":"西港里","LIN":"30鄰","STREET":" ","SECT":" ","MAREA":"堀子頭","LANE":" ","ALLEY":" ","HOUSE_NO":"７７號之１４","E_COORD97":168700.16,"N_COORD97":2557477.9700000002,"ADDRESS":"堀子頭７７號之１４","OBJECTID":147583},"geometry":{"x":168700.16000000015,"y":2557477.9699999988}},{"attributes":{"ID":147585,"DIS_CODE":0,"TOWNNAME":"西港區","LI":"西港里","LIN":"30鄰","STREET":" ","SECT":" ","MAREA":"堀子頭","LANE":" ","ALLEY":" ","HOUSE_NO":"７７號之１５","E_COORD97":168701.09,"N_COORD97":2557473.5499999998,"ADDRESS":"堀子頭７７號之１５","OBJECTID":147584},"geometry":{"x":168701.09000000078,"y":2557473.5500000007}},{"attributes":{"ID":147586,"DIS_CODE":0,"TOWNNAME":"西港區","LI":"西港里","LIN":"30鄰","STREET":" ","SECT":" ","MAREA":"堀子頭","LANE":" ","ALLEY":" ","HOUSE_NO":"７７號之２","E_COORD97":168755.57999999999,"N_COORD97":2557462.8799999999,"ADDRESS":"堀子頭７７號之２","OBJECTID":147585},"geometry":{"x":168755.58000000101,"y":2557462.879999999}},{"attributes":{"ID":147587,"DIS_CODE":0,"TOWNNAME":"西港區","LI":"西港里","LIN":"30鄰","STREET":" ","SECT":" ","MAREA":"堀子頭","LANE":" ","ALLEY":" ","HOUSE_NO":"７７號之３","E_COORD97":168737.85000000001,"N_COORD97":2557461.9900000002,"ADDRESS":"堀子頭７７號之３","OBJECTID":147586},"geometry":{"x":168737.85000000149,"y":2557461.9900000021}},{"attributes":{"ID":147588,"DIS_CODE":0,"TOWNNAME":"西港區","LI":"西港里","LIN":"30鄰","STREET":" ","SECT":" ","MAREA":"堀子頭","LANE":" ","ALLEY":" ","HOUSE_NO":"７７號之４","E_COORD97":168715.85999999999,"N_COORD97":2557455.2000000002,"ADDRESS":"堀子頭７７號之４","OBJECTID":147587},"geometry":{"x":168715.86000000034,"y":2557455.2000000011}},{"attributes":{"ID":147589,"DIS_CODE":0,"TOWNNAME":"西港區","LI":"西港里","LIN":"30鄰","STREET":" ","SECT":" ","MAREA":"堀子頭","LANE":" ","ALLEY":" ","HOUSE_NO":"７７號之５","E_COORD97":168707.51000000001,"N_COORD97":2557456.27,"ADDRESS":"堀子頭７７號之５","OBJECTID":147588},"geometry":{"x":168707.50999999978,"y":2557456.2700000014}},{"attributes":{"ID":147590,"DIS_CODE":0,"TOWNNAME":"西港區","LI":"西港里","LIN":"30鄰","STREET":" ","SECT":" ","MAREA":"堀子頭","LANE":" ","ALLEY":" ","HOUSE_NO":"７７號之６","E_COORD97":168735.51999999999,"N_COORD97":2557493.0800000001,"ADDRESS":"堀子頭７７號之６","OBJECTID":147589},"geometry":{"x":168735.52000000048,"y":2557493.0800000001}},{"attributes":{"ID":147591,"DIS_CODE":0,"TOWNNAME":"善化區","LI":"小新里","LIN":"20鄰","STREET":" ","SECT":" ","MAREA":"小新營","LANE":" ","ALLEY":" ","HOUSE_NO":"１６５之１６號","E_COORD97":180131.45999999999,"N_COORD97":2558196.02,"ADDRESS":"小新營１６５之１６號","OBJECTID":147590},"geometry":{"x":180131.46000000089,"y":2558196.0200000014}},{"attributes":{"ID":147592,"DIS_CODE":0,"TOWNNAME":"西港區","LI":"西港里","LIN":"30鄰","STREET":" ","SECT":" ","MAREA":"堀子頭","LANE":" ","ALLEY":" ","HOUSE_NO":"７７號之７","E_COORD97":168724.78,"N_COORD97":2557493.4900000002,"ADDRESS":"堀子頭７７號之７","OBJECTID":147591},"geometry":{"x":168724.78000000026,"y":2557493.4900000002}},{"attributes":{"ID":147593,"DIS_CODE":0,"TOWNNAME":"永康區","LI":"王行里","LIN":"3鄰","STREET":"王行路","SECT":" ","MAREA":" ","LANE":"２４６巷","ALLEY":"９３弄","HOUSE_NO":"３號","E_COORD97":175832.97,"N_COORD97":2548173.1899999999,"ADDRESS":"王行路２４６巷９３弄３號","OBJECTID":147592},"geometry":{"x":175832.96999999974,"y":2548173.1900000013}},{"attributes":{"ID":147594,"DIS_CODE":0,"TOWNNAME":"永康區","LI":"中興里","LIN":"27鄰","STREET":"中興街","SECT":" ","MAREA":" ","LANE":"９１巷","ALLEY":"２７弄","HOUSE_NO":"１４號","E_COORD97":171965.14999999999,"N_COORD97":2545298.8999999999,"ADDRESS":"中興街９１巷２７弄１４號","OBJECTID":147593},"geometry":{"x":171965.15000000037,"y":2545298.9000000004}},{"attributes":{"ID":147595,"DIS_CODE":0,"TOWNNAME":"永康區","LI":"尚頂里","LIN":"30鄰","STREET":"中正南路","SECT":" ","MAREA":" ","LANE":" ","ALLEY":" ","HOUSE_NO":"１８３號","E_COORD97":169936.16,"N_COORD97":2547199.7799999998,"ADDRESS":"中正南路１８３號","OBJECTID":147594},"geometry":{"x":169936.16000000015,"y":2547199.7800000012}},{"attributes":{"ID":147596,"DIS_CODE":0,"TOWNNAME":"西港區","LI":"西港里","LIN":"4鄰","STREET":"文化路","SECT":" ","MAREA":" ","LANE":" ","ALLEY":" ","HOUSE_NO":"４１之９號","E_COORD97":168641.12,"N_COORD97":2558283.3700000001,"ADDRESS":"文化路４１之９號","OBJECTID":147595},"geometry":{"x":168641.12000000011,"y":2558283.3700000029}},{"attributes":{"ID":147597,"DIS_CODE":0,"TOWNNAME":"西港區","LI":"西港里","LIN":"7鄰","STREET":"文化路","SECT":" ","MAREA":" ","LANE":" ","ALLEY":" ","HOUSE_NO":"４２號","E_COORD97":168610.60999999999,"N_COORD97":2558187.98,"ADDRESS":"文化路４２號","OBJECTID":147596},"geometry":{"x":168610.61000000034,"y":2558187.9800000023}},{"attributes":{"ID":147598,"DIS_CODE":0,"TOWNNAME":"安南區","LI":"溪心里","LIN":"3鄰","STREET":"安中路","SECT":"二段","MAREA":" ","LANE":"１３８巷","ALLEY":"１７弄","HOUSE_NO":"６０號","E_COORD97":166644.35000000001,"N_COORD97":2549735.98,"ADDRESS":"安中路二段１３８巷１７弄６０號","OBJECTID":147597},"geometry":{"x":166644.35000000056,"y":2549735.9800000004}},{"attributes":{"ID":147599,"DIS_CODE":0,"TOWNNAME":"安南區","LI":"溪心里","LIN":"3鄰","STREET":"安中路","SECT":"二段","MAREA":" ","LANE":"１３８巷","ALLEY":"１７弄","HOUSE_NO":"６２號","E_COORD97":166638.79999999999,"N_COORD97":2549737.04,"ADDRESS":"安中路二段１３８巷１７弄６２號","OBJECTID":147598},"geometry":{"x":166638.79999999981,"y":2549737.040000001}},{"attributes":{"ID":147600,"DIS_CODE":0,"TOWNNAME":"安南區","LI":"溪心里","LIN":"3鄰","STREET":"安中路","SECT":"二段","MAREA":" ","LANE":"１３８巷","ALLEY":"１７弄","HOUSE_NO":"６６號","E_COORD97":166634.03,"N_COORD97":2549738.3599999999,"ADDRESS":"安中路二段１３８巷１７弄６６號","OBJECTID":147599},"geometry":{"x":166634.03000000119,"y":2549738.3600000013}},{"attributes":{"ID":147601,"DIS_CODE":0,"TOWNNAME":"西港區","LI":"西港里","LIN":"7鄰","STREET":"文化路","SECT":" ","MAREA":" ","LANE":" ","ALLEY":" ","HOUSE_NO":"４６號之１","E_COORD97":168630.42999999999,"N_COORD97":2558194.9199999999,"ADDRESS":"文化路４６號之１","OBJECTID":147600},"geometry":{"x":168630.43000000156,"y":2558194.9199999999}}]}