{"displayFieldName":"TOWNNAME","fieldAliases":{"ID":"ID","DIS_CODE":"DIS_CODE","TOWNNAME":"TOWNNAME","LI":"LI","LIN":"LIN","STREET":"STREET","SECT":"SECT","MAREA":"MAREA","LANE":"LANE","ALLEY":"ALLEY","HOUSE_NO":"HOUSE_NO","E_COORD97":"E_COORD97","N_COORD97":"N_COORD97","ADDRESS":"ADDRESS","OBJECTID":"OBJECTID"},"geometryType":"esriGeometryPoint","spatialReference":{"wkid":102443,"latestWkid":3826},"fields":[{"name":"ID","type":"esriFieldTypeDouble","alias":"ID"},{"name":"DIS_CODE","type":"esriFieldTypeInteger","alias":"DIS_CODE"},{"name":"TOWNNAME","type":"esriFieldTypeString","alias":"TOWNNAME","length":8},{"name":"LI","type":"esriFieldTypeString","alias":"LI","length":8},{"name":"LIN","type":"esriFieldTypeString","alias":"LIN","length":12},{"name":"STREET","type":"esriFieldTypeString","alias":"STREET","length":20},{"name":"SECT","type":"esriFieldTypeString","alias":"SECT","length":8},{"name":"MAREA","type":"esriFieldTypeString","alias":"MAREA","length":12},{"name":"LANE","type":"esriFieldTypeString","alias":"LANE","length":10},{"name":"ALLEY","type":"esriFieldTypeString","alias":"ALLEY","length":10},{"name":"HOUSE_NO","type":"esriFieldTypeString","alias":"HOUSE_NO","length":20},{"name":"E_COORD97","type":"esriFieldTypeDouble","alias":"E_COORD97"},{"name":"N_COORD97","type":"esriFieldTypeDouble","alias":"N_COORD97"},{"name":"ADDRESS","type":"esriFieldTypeString","alias":"ADDRESS","length":50},{"name":"OBJECTID","type":"esriFieldTypeOID","alias":"OBJECTID"}],"features":[{"attributes":{"ID":120401,"DIS_CODE":0,"TOWNNAME":"永康區","LI":"二王里","LIN":"31鄰","STREET":"中山南路","SECT":" ","MAREA":" ","LANE":" ","ALLEY":" ","HOUSE_NO":"５０８號","E_COORD97":172096.35000000001,"N_COORD97":2546487.27,"ADDRESS":"中山南路５０８號","OBJECTID":120401},"geometry":{"x":172096.35000000056,"y":2546487.2700000014}},{"attributes":{"ID":120402,"DIS_CODE":0,"TOWNNAME":"南區","LI":"府南里","LIN":"16鄰","STREET":"大成路","SECT":"二段","MAREA":" ","LANE":"２２３巷","ALLEY":"１弄","HOUSE_NO":"３號","E_COORD97":167165.85999999999,"N_COORD97":2541707.1000000001,"ADDRESS":"大成路二段２２３巷１弄３號","OBJECTID":120402},"geometry":{"x":167165.86000000127,"y":2541707.0999999996}},{"attributes":{"ID":120403,"DIS_CODE":0,"TOWNNAME":"仁德區","LI":"太子里","LIN":"31鄰","STREET":"太子南路","SECT":" ","MAREA":" ","LANE":" ","ALLEY":" ","HOUSE_NO":"１４２號","E_COORD97":173893.06,"N_COORD97":2543450.0099999998,"ADDRESS":"太子南路１４２號","OBJECTID":120403},"geometry":{"x":173893.06000000145,"y":2543450.0099999998}},{"attributes":{"ID":120404,"DIS_CODE":0,"TOWNNAME":"南區","LI":"府南里","LIN":"16鄰","STREET":"大成路","SECT":"二段","MAREA":" ","LANE":"２２３巷","ALLEY":"１弄","HOUSE_NO":"４號","E_COORD97":167156.82999999999,"N_COORD97":2541700.2599999998,"ADDRESS":"大成路二段２２３巷１弄４號","OBJECTID":120404},"geometry":{"x":167156.83000000194,"y":2541700.2600000016}},{"attributes":{"ID":120405,"DIS_CODE":0,"TOWNNAME":"南區","LI":"府南里","LIN":"16鄰","STREET":"大成路","SECT":"二段","MAREA":" ","LANE":"２２３巷","ALLEY":"１弄","HOUSE_NO":"６號","E_COORD97":167162.67999999999,"N_COORD97":2541697.9700000002,"ADDRESS":"大成路二段２２３巷１弄６號","OBJECTID":120405},"geometry":{"x":167162.68000000063,"y":2541697.9700000007}},{"attributes":{"ID":120406,"DIS_CODE":0,"TOWNNAME":"南區","LI":"府南里","LIN":"16鄰","STREET":"大成路","SECT":"二段","MAREA":" ","LANE":"２２３巷","ALLEY":"１弄","HOUSE_NO":"８號","E_COORD97":167169.16,"N_COORD97":2541695.5099999998,"ADDRESS":"大成路二段２２３巷１弄８號","OBJECTID":120406},"geometry":{"x":167169.16000000015,"y":2541695.5100000016}},{"attributes":{"ID":120407,"DIS_CODE":0,"TOWNNAME":"南區","LI":"府南里","LIN":"16鄰","STREET":"大成路","SECT":"二段","MAREA":" ","LANE":"２２３巷","ALLEY":"５弄","HOUSE_NO":"１０號","E_COORD97":167155.04999999999,"N_COORD97":2541672.5699999998,"ADDRESS":"大成路二段２２３巷５弄１０號","OBJECTID":120407},"geometry":{"x":167155.05000000168,"y":2541672.5700000022}},{"attributes":{"ID":120408,"DIS_CODE":0,"TOWNNAME":"南區","LI":"府南里","LIN":"16鄰","STREET":"大成路","SECT":"二段","MAREA":" ","LANE":"２２３巷","ALLEY":"５弄","HOUSE_NO":"１１號","E_COORD97":167163.23999999999,"N_COORD97":2541678.7599999998,"ADDRESS":"大成路二段２２３巷５弄１１號","OBJECTID":120408},"geometry":{"x":167163.24000000115,"y":2541678.7599999998}},{"attributes":{"ID":120409,"DIS_CODE":0,"TOWNNAME":"南區","LI":"府南里","LIN":"16鄰","STREET":"大成路","SECT":"二段","MAREA":" ","LANE":"２２３巷","ALLEY":"５弄","HOUSE_NO":"１２號","E_COORD97":167161.23999999999,"N_COORD97":2541670.77,"ADDRESS":"大成路二段２２３巷５弄１２號","OBJECTID":120409},"geometry":{"x":167161.24000000115,"y":2541670.7699999996}},{"attributes":{"ID":120410,"DIS_CODE":0,"TOWNNAME":"南區","LI":"府南里","LIN":"16鄰","STREET":"大成路","SECT":"二段","MAREA":" ","LANE":"２２３巷","ALLEY":"５弄","HOUSE_NO":"１３號","E_COORD97":167170.57000000001,"N_COORD97":2541676.0899999999,"ADDRESS":"大成路二段２２３巷５弄１３號","OBJECTID":120410},"geometry":{"x":167170.57000000216,"y":2541676.0899999999}},{"attributes":{"ID":120411,"DIS_CODE":0,"TOWNNAME":"南區","LI":"府南里","LIN":"16鄰","STREET":"大成路","SECT":"二段","MAREA":" ","LANE":"２２３巷","ALLEY":"５弄","HOUSE_NO":"１４號","E_COORD97":167169.64999999999,"N_COORD97":2541667.6099999999,"ADDRESS":"大成路二段２２３巷５弄１４號","OBJECTID":120411},"geometry":{"x":167169.65000000037,"y":2541667.6100000013}},{"attributes":{"ID":120412,"DIS_CODE":0,"TOWNNAME":"南區","LI":"府南里","LIN":"16鄰","STREET":"大成路","SECT":"二段","MAREA":" ","LANE":"２２３巷","ALLEY":"５弄","HOUSE_NO":"１５號","E_COORD97":167178.13,"N_COORD97":2541673.7000000002,"ADDRESS":"大成路二段２２３巷５弄１５號","OBJECTID":120412},"geometry":{"x":167178.12999999896,"y":2541673.7000000011}},{"attributes":{"ID":120413,"DIS_CODE":0,"TOWNNAME":"仁德區","LI":"太子里","LIN":"31鄰","STREET":"太子路","SECT":" ","MAREA":" ","LANE":" ","ALLEY":" ","HOUSE_NO":"５６３號","E_COORD97":173869.87,"N_COORD97":2543508.2599999998,"ADDRESS":"太子路５６３號","OBJECTID":120413},"geometry":{"x":173869.87000000104,"y":2543508.2600000016}},{"attributes":{"ID":120414,"DIS_CODE":0,"TOWNNAME":"南區","LI":"府南里","LIN":"16鄰","STREET":"大成路","SECT":"二段","MAREA":" ","LANE":"２２３巷","ALLEY":"５弄","HOUSE_NO":"１６號","E_COORD97":167175.45999999999,"N_COORD97":2541665.7999999998,"ADDRESS":"大成路二段２２３巷５弄１６號","OBJECTID":120414},"geometry":{"x":167175.45999999996,"y":2541665.8000000007}},{"attributes":{"ID":120415,"DIS_CODE":0,"TOWNNAME":"南區","LI":"府南里","LIN":"16鄰","STREET":"大成路","SECT":"二段","MAREA":" ","LANE":"２２３巷","ALLEY":"５弄","HOUSE_NO":"１７號","E_COORD97":167184.03,"N_COORD97":2541671.8900000001,"ADDRESS":"大成路二段２２３巷５弄１７號","OBJECTID":120415},"geometry":{"x":167184.03000000026,"y":2541671.8900000006}},{"attributes":{"ID":120416,"DIS_CODE":0,"TOWNNAME":"南區","LI":"府南里","LIN":"16鄰","STREET":"大成路","SECT":"二段","MAREA":" ","LANE":"２２３巷","ALLEY":"５弄","HOUSE_NO":"１８號","E_COORD97":167180.70000000001,"N_COORD97":2541664.6600000001,"ADDRESS":"大成路二段２２３巷５弄１８號","OBJECTID":120416},"geometry":{"x":167180.70000000019,"y":2541664.660000002}},{"attributes":{"ID":120417,"DIS_CODE":0,"TOWNNAME":"南區","LI":"府南里","LIN":"16鄰","STREET":"大成路","SECT":"二段","MAREA":" ","LANE":"２２３巷","ALLEY":"５弄","HOUSE_NO":"１９號","E_COORD97":167190.13,"N_COORD97":2541669.5099999998,"ADDRESS":"大成路二段２２３巷５弄１９號","OBJECTID":120417},"geometry":{"x":167190.13000000175,"y":2541669.5099999998}},{"attributes":{"ID":120418,"DIS_CODE":0,"TOWNNAME":"仁德區","LI":"太子里","LIN":"31鄰","STREET":"太子南路","SECT":" ","MAREA":" ","LANE":" ","ALLEY":" ","HOUSE_NO":"１５０號","E_COORD97":173889.20000000001,"N_COORD97":2543469.25,"ADDRESS":"太子南路１５０號","OBJECTID":120418},"geometry":{"x":173889.19999999925,"y":2543469.25}},{"attributes":{"ID":120419,"DIS_CODE":0,"TOWNNAME":"新市區","LI":"大社里","LIN":"31鄰","STREET":" ","SECT":" ","MAREA":"大社","LANE":" ","ALLEY":" ","HOUSE_NO":"７８之１５號","E_COORD97":180757.07000000001,"N_COORD97":2554184.5499999998,"ADDRESS":"大社７８之１５號","OBJECTID":120419},"geometry":{"x":180757.0700000003,"y":2554184.5500000007}},{"attributes":{"ID":120420,"DIS_CODE":0,"TOWNNAME":"新市區","LI":"大社里","LIN":"31鄰","STREET":" ","SECT":" ","MAREA":"大社","LANE":" ","ALLEY":" ","HOUSE_NO":"７８之６３號","E_COORD97":180836.39999999999,"N_COORD97":2554215.0499999998,"ADDRESS":"大社７８之６３號","OBJECTID":120420},"geometry":{"x":180836.40000000037,"y":2554215.0500000007}},{"attributes":{"ID":120421,"DIS_CODE":0,"TOWNNAME":"新市區","LI":"大社里","LIN":"31鄰","STREET":" ","SECT":" ","MAREA":"大社","LANE":" ","ALLEY":" ","HOUSE_NO":"７８之５４號","E_COORD97":180849.67999999999,"N_COORD97":2554170.0499999998,"ADDRESS":"大社７８之５４號","OBJECTID":120421},"geometry":{"x":180849.68000000063,"y":2554170.0500000026}},{"attributes":{"ID":120422,"DIS_CODE":0,"TOWNNAME":"新市區","LI":"大社里","LIN":"31鄰","STREET":" ","SECT":" ","MAREA":"大社","LANE":" ","ALLEY":" ","HOUSE_NO":"７８之５９號","E_COORD97":180827.51000000001,"N_COORD97":2554214.5499999998,"ADDRESS":"大社７８之５９號","OBJECTID":120422},"geometry":{"x":180827.51000000071,"y":2554214.5500000007}},{"attributes":{"ID":120423,"DIS_CODE":0,"TOWNNAME":"麻豆區","LI":"大山里","LIN":"8鄰","STREET":" ","SECT":" ","MAREA":"大山\u25A0","LANE":" ","ALLEY":" ","HOUSE_NO":"１號之２","E_COORD97":170346.26999999999,"N_COORD97":2565665.8500000001,"ADDRESS":"大山\u25A0１號之２","OBJECTID":120423},"geometry":{"x":170346.26999999955,"y":2565665.8500000034}},{"attributes":{"ID":120424,"DIS_CODE":0,"TOWNNAME":"麻豆區","LI":"大山里","LIN":"8鄰","STREET":" ","SECT":" ","MAREA":"大山\u25A0","LANE":" ","ALLEY":" ","HOUSE_NO":"１號之３６","E_COORD97":170405.16,"N_COORD97":2565635.1800000002,"ADDRESS":"大山\u25A0１號之３６","OBJECTID":120424},"geometry":{"x":170405.16000000015,"y":2565635.1799999997}},{"attributes":{"ID":120425,"DIS_CODE":0,"TOWNNAME":"麻豆區","LI":"大山里","LIN":"8鄰","STREET":" ","SECT":" ","MAREA":"大山\u25A0","LANE":" ","ALLEY":" ","HOUSE_NO":"１號之３７","E_COORD97":170400.47,"N_COORD97":2565632.79,"ADDRESS":"大山\u25A0１號之３７","OBJECTID":120425},"geometry":{"x":170400.47000000067,"y":2565632.790000001}},{"attributes":{"ID":120426,"DIS_CODE":0,"TOWNNAME":"麻豆區","LI":"大山里","LIN":"8鄰","STREET":" ","SECT":" ","MAREA":"大山\u25A0","LANE":" ","ALLEY":" ","HOUSE_NO":"１號之３８","E_COORD97":170395.37,"N_COORD97":2565632,"ADDRESS":"大山\u25A0１號之３８","OBJECTID":120426},"geometry":{"x":170395.37000000011,"y":2565632.0000000019}},{"attributes":{"ID":120427,"DIS_CODE":0,"TOWNNAME":"麻豆區","LI":"大山里","LIN":"8鄰","STREET":" ","SECT":" ","MAREA":"大山\u25A0","LANE":" ","ALLEY":" ","HOUSE_NO":"１號之３９","E_COORD97":170390.44,"N_COORD97":2565632.4900000002,"ADDRESS":"大山\u25A0１號之３９","OBJECTID":120427},"geometry":{"x":170390.44000000041,"y":2565632.4900000021}},{"attributes":{"ID":120428,"DIS_CODE":0,"TOWNNAME":"南區","LI":"府南里","LIN":"16鄰","STREET":"大成路","SECT":"二段","MAREA":" ","LANE":"２２３巷","ALLEY":"５弄","HOUSE_NO":"１號","E_COORD97":167133.32999999999,"N_COORD97":2541689.4199999999,"ADDRESS":"大成路二段２２３巷５弄１號","OBJECTID":120428},"geometry":{"x":167133.33000000101,"y":2541689.4200000018}},{"attributes":{"ID":120429,"DIS_CODE":0,"TOWNNAME":"南區","LI":"府南里","LIN":"16鄰","STREET":"大成路","SECT":"二段","MAREA":" ","LANE":"２２３巷","ALLEY":"５弄","HOUSE_NO":"２０號","E_COORD97":167184.79000000001,"N_COORD97":2541663.23,"ADDRESS":"大成路二段２２３巷５弄２０號","OBJECTID":120429},"geometry":{"x":167184.79000000097,"y":2541663.2299999986}},{"attributes":{"ID":120430,"DIS_CODE":0,"TOWNNAME":"仁德區","LI":"中生里","LIN":"3鄰","STREET":" ","SECT":" ","MAREA":"中洲","LANE":" ","ALLEY":" ","HOUSE_NO":"９４之１１號","E_COORD97":173057.866767,"N_COORD97":2534344.5312899998,"ADDRESS":"中洲９４之１１號","OBJECTID":120430},"geometry":{"x":173057.86676700041,"y":2534344.5312880017}},{"attributes":{"ID":120431,"DIS_CODE":0,"TOWNNAME":"南區","LI":"府南里","LIN":"16鄰","STREET":"大成路","SECT":"二段","MAREA":" ","LANE":"２２３巷","ALLEY":"５弄","HOUSE_NO":"２２號","E_COORD97":167188.60000000001,"N_COORD97":2541661.8999999999,"ADDRESS":"大成路二段２２３巷５弄２２號","OBJECTID":120431},"geometry":{"x":167188.60000000056,"y":2541661.9000000004}},{"attributes":{"ID":120432,"DIS_CODE":0,"TOWNNAME":"南區","LI":"府南里","LIN":"16鄰","STREET":"大成路","SECT":"二段","MAREA":" ","LANE":"２２３巷","ALLEY":"５弄","HOUSE_NO":"２４號","E_COORD97":167192.51000000001,"N_COORD97":2541660.5699999998,"ADDRESS":"大成路二段２２３巷５弄２４號","OBJECTID":120432},"geometry":{"x":167192.51000000164,"y":2541660.5700000003}},{"attributes":{"ID":120433,"DIS_CODE":0,"TOWNNAME":"南區","LI":"府南里","LIN":"16鄰","STREET":"大成路","SECT":"二段","MAREA":" ","LANE":"２２３巷","ALLEY":"５弄","HOUSE_NO":"２６號","E_COORD97":167196.79999999999,"N_COORD97":2541659.1400000001,"ADDRESS":"大成路二段２２３巷５弄２６號","OBJECTID":120433},"geometry":{"x":167196.79999999981,"y":2541659.1400000006}},{"attributes":{"ID":120434,"DIS_CODE":0,"TOWNNAME":"仁德區","LI":"太子里","LIN":"31鄰","STREET":"太子路","SECT":" ","MAREA":" ","LANE":" ","ALLEY":" ","HOUSE_NO":"５２９號","E_COORD97":173942.06,"N_COORD97":2543504.0099999998,"ADDRESS":"太子路５２９號","OBJECTID":120434},"geometry":{"x":173942.05999999959,"y":2543504.0099999998}},{"attributes":{"ID":120435,"DIS_CODE":0,"TOWNNAME":"佳里區","LI":"龍安里","LIN":"10鄰","STREET":" ","SECT":" ","MAREA":"塭子內","LANE":" ","ALLEY":" ","HOUSE_NO":"９７號","E_COORD97":164524.06,"N_COORD97":2558172.71,"ADDRESS":"塭子內９７號","OBJECTID":120435},"geometry":{"x":164524.06000000052,"y":2558172.7100000028}},{"attributes":{"ID":120436,"DIS_CODE":0,"TOWNNAME":"仁德區","LI":"太子里","LIN":"31鄰","STREET":"太子南路","SECT":" ","MAREA":" ","LANE":" ","ALLEY":" ","HOUSE_NO":"１６５號","E_COORD97":173874.42999999999,"N_COORD97":2543489.25,"ADDRESS":"太子南路１６５號","OBJECTID":120436},"geometry":{"x":173874.43000000063,"y":2543489.25}},{"attributes":{"ID":120437,"DIS_CODE":0,"TOWNNAME":"仁德區","LI":"太子里","LIN":"31鄰","STREET":"太子路","SECT":" ","MAREA":" ","LANE":" ","ALLEY":" ","HOUSE_NO":"５５３號","E_COORD97":173889.64000000001,"N_COORD97":2543504.7599999998,"ADDRESS":"太子路５５３號","OBJECTID":120437},"geometry":{"x":173889.6400000006,"y":2543504.7600000016}},{"attributes":{"ID":120438,"DIS_CODE":0,"TOWNNAME":"佳里區","LI":"龍安里","LIN":"10鄰","STREET":" ","SECT":" ","MAREA":"塭子內","LANE":" ","ALLEY":" ","HOUSE_NO":"９８號","E_COORD97":164537.69,"N_COORD97":2558179.3399999999,"ADDRESS":"塭子內９８號","OBJECTID":120438},"geometry":{"x":164537.69000000134,"y":2558179.3399999999}},{"attributes":{"ID":120439,"DIS_CODE":0,"TOWNNAME":"麻豆區","LI":"大埕里","LIN":"10鄰","STREET":" ","SECT":" ","MAREA":"\u25A0祖\u25A0","LANE":" ","ALLEY":" ","HOUSE_NO":"２號","E_COORD97":173050.79999999999,"N_COORD97":2565173.8199999998,"ADDRESS":"\u25A0祖\u25A0２號","OBJECTID":120439},"geometry":{"x":173050.80000000168,"y":2565173.8200000003}},{"attributes":{"ID":120440,"DIS_CODE":0,"TOWNNAME":"仁德區","LI":"中洲里","LIN":"10鄰","STREET":" ","SECT":" ","MAREA":"中洲","LANE":" ","ALLEY":" ","HOUSE_NO":"３１８號之６","E_COORD97":173358.62,"N_COORD97":2533966.79,"ADDRESS":"中洲３１８號之６","OBJECTID":120440},"geometry":{"x":173358.62000000011,"y":2533966.790000001}},{"attributes":{"ID":120441,"DIS_CODE":0,"TOWNNAME":"仁德區","LI":"中洲里","LIN":"10鄰","STREET":" ","SECT":" ","MAREA":"中洲","LANE":" ","ALLEY":" ","HOUSE_NO":"３１８號之１２","E_COORD97":173390.70000000001,"N_COORD97":2533998.7999999998,"ADDRESS":"中洲３１８號之１２","OBJECTID":120441},"geometry":{"x":173390.70000000019,"y":2533998.8000000026}},{"attributes":{"ID":120442,"DIS_CODE":0,"TOWNNAME":"仁德區","LI":"中洲里","LIN":"10鄰","STREET":" ","SECT":" ","MAREA":"中洲","LANE":" ","ALLEY":" ","HOUSE_NO":"３１６號之４","E_COORD97":173349.32000000001,"N_COORD97":2534054.04,"ADDRESS":"中洲３１６號之４","OBJECTID":120442},"geometry":{"x":173349.3200000003,"y":2534054.0399999991}},{"attributes":{"ID":120443,"DIS_CODE":0,"TOWNNAME":"仁德區","LI":"中洲里","LIN":"10鄰","STREET":" ","SECT":" ","MAREA":"中洲","LANE":" ","ALLEY":" ","HOUSE_NO":"３１７號之２８","E_COORD97":173461.75,"N_COORD97":2534005.2999999998,"ADDRESS":"中洲３１７號之２８","OBJECTID":120443},"geometry":{"x":173461.75000000093,"y":2534005.3000000026}},{"attributes":{"ID":120444,"DIS_CODE":0,"TOWNNAME":"仁德區","LI":"中洲里","LIN":"10鄰","STREET":" ","SECT":" ","MAREA":"中洲","LANE":" ","ALLEY":" ","HOUSE_NO":"３１３號","E_COORD97":173396.26999999999,"N_COORD97":2534078.75,"ADDRESS":"中洲３１３號","OBJECTID":120444},"geometry":{"x":173396.26999999955,"y":2534078.7500000037}},{"attributes":{"ID":120445,"DIS_CODE":0,"TOWNNAME":"仁德區","LI":"中洲里","LIN":"10鄰","STREET":" ","SECT":" ","MAREA":"中洲","LANE":" ","ALLEY":" ","HOUSE_NO":"３１６號之８","E_COORD97":173364.48999999999,"N_COORD97":2534068.04,"ADDRESS":"中洲３１６號之８","OBJECTID":120445},"geometry":{"x":173364.49000000022,"y":2534068.0399999991}},{"attributes":{"ID":120446,"DIS_CODE":0,"TOWNNAME":"仁德區","LI":"太子里","LIN":"31鄰","STREET":"土庫五街","SECT":" ","MAREA":" ","LANE":" ","ALLEY":" ","HOUSE_NO":"１５號","E_COORD97":174010.48999999999,"N_COORD97":2543118.25,"ADDRESS":"土庫五街１５號","OBJECTID":120446},"geometry":{"x":174010.49000000022,"y":2543118.2500000019}},{"attributes":{"ID":120447,"DIS_CODE":0,"TOWNNAME":"麻豆區","LI":"大山里","LIN":"8鄰","STREET":" ","SECT":" ","MAREA":"大山\u25A0","LANE":" ","ALLEY":" ","HOUSE_NO":"１號之３","E_COORD97":170353.92000000001,"N_COORD97":2565666.2400000002,"ADDRESS":"大山\u25A0１號之３","OBJECTID":120447},"geometry":{"x":170353.92000000086,"y":2565666.2400000002}},{"attributes":{"ID":120448,"DIS_CODE":0,"TOWNNAME":"麻豆區","LI":"大山里","LIN":"8鄰","STREET":" ","SECT":" ","MAREA":"大山\u25A0","LANE":" ","ALLEY":" ","HOUSE_NO":"１號之４０","E_COORD97":170386.10000000001,"N_COORD97":2565631.52,"ADDRESS":"大山\u25A0１號之４０","OBJECTID":120448},"geometry":{"x":170386.10000000056,"y":2565631.5200000014}},{"attributes":{"ID":120449,"DIS_CODE":0,"TOWNNAME":"麻豆區","LI":"大山里","LIN":"8鄰","STREET":" ","SECT":" ","MAREA":"大山\u25A0","LANE":" ","ALLEY":" ","HOUSE_NO":"１號之４３","E_COORD97":170373.29999999999,"N_COORD97":2565629.75,"ADDRESS":"大山\u25A0１號之４３","OBJECTID":120449},"geometry":{"x":170373.29999999981,"y":2565629.7500000019}},{"attributes":{"ID":120450,"DIS_CODE":0,"TOWNNAME":"麻豆區","LI":"大山里","LIN":"8鄰","STREET":" ","SECT":" ","MAREA":"大山\u25A0","LANE":" ","ALLEY":" ","HOUSE_NO":"１號之４５","E_COORD97":170409.45000000001,"N_COORD97":2565667.7200000002,"ADDRESS":"大山\u25A0１號之４５","OBJECTID":120450},"geometry":{"x":170409.45000000112,"y":2565667.7200000044}},{"attributes":{"ID":120451,"DIS_CODE":0,"TOWNNAME":"麻豆區","LI":"大山里","LIN":"8鄰","STREET":" ","SECT":" ","MAREA":"大山\u25A0","LANE":" ","ALLEY":" ","HOUSE_NO":"１號之４６","E_COORD97":170413.85000000001,"N_COORD97":2565667.7200000002,"ADDRESS":"大山\u25A0１號之４６","OBJECTID":120451},"geometry":{"x":170413.84999999963,"y":2565667.7200000044}},{"attributes":{"ID":120452,"DIS_CODE":0,"TOWNNAME":"麻豆區","LI":"大山里","LIN":"8鄰","STREET":" ","SECT":" ","MAREA":"大山\u25A0","LANE":" ","ALLEY":" ","HOUSE_NO":"１號之４７","E_COORD97":170456.34,"N_COORD97":2565671.2599999998,"ADDRESS":"大山\u25A0１號之４７","OBJECTID":120452},"geometry":{"x":170456.33999999985,"y":2565671.2600000016}},{"attributes":{"ID":120453,"DIS_CODE":0,"TOWNNAME":"麻豆區","LI":"大山里","LIN":"8鄰","STREET":" ","SECT":" ","MAREA":"大山\u25A0","LANE":" ","ALLEY":" ","HOUSE_NO":"１號之４８","E_COORD97":170460.45999999999,"N_COORD97":2565671.2599999998,"ADDRESS":"大山\u25A0１號之４８","OBJECTID":120453},"geometry":{"x":170460.46000000089,"y":2565671.2600000016}},{"attributes":{"ID":120454,"DIS_CODE":0,"TOWNNAME":"南區","LI":"府南里","LIN":"16鄰","STREET":"大成路","SECT":"二段","MAREA":" ","LANE":"２２３巷","ALLEY":"５弄","HOUSE_NO":"２８號","E_COORD97":167201.37,"N_COORD97":2541657.4300000002,"ADDRESS":"大成路二段２２３巷５弄２８號","OBJECTID":120454},"geometry":{"x":167201.37000000104,"y":2541657.4299999997}},{"attributes":{"ID":120455,"DIS_CODE":0,"TOWNNAME":"南區","LI":"府南里","LIN":"16鄰","STREET":"大成路","SECT":"二段","MAREA":" ","LANE":"２２３巷","ALLEY":"５弄","HOUSE_NO":"２號","E_COORD97":167129.04000000001,"N_COORD97":2541681.8999999999,"ADDRESS":"大成路二段２２３巷５弄２號","OBJECTID":120455},"geometry":{"x":167129.04000000004,"y":2541681.9000000004}},{"attributes":{"ID":120456,"DIS_CODE":0,"TOWNNAME":"南區","LI":"府南里","LIN":"16鄰","STREET":"大成路","SECT":"二段","MAREA":" ","LANE":"２２３巷","ALLEY":"５弄","HOUSE_NO":"３號","E_COORD97":167139.04000000001,"N_COORD97":2541686.9399999999,"ADDRESS":"大成路二段２２３巷５弄３號","OBJECTID":120456},"geometry":{"x":167139.04000000097,"y":2541686.9399999995}},{"attributes":{"ID":120457,"DIS_CODE":0,"TOWNNAME":"南區","LI":"府南里","LIN":"16鄰","STREET":"大成路","SECT":"二段","MAREA":" ","LANE":"２２３巷","ALLEY":"５弄","HOUSE_NO":"４號","E_COORD97":167137.42000000001,"N_COORD97":2541679.3300000001,"ADDRESS":"大成路二段２２３巷５弄４號","OBJECTID":120457},"geometry":{"x":167137.42000000179,"y":2541679.3300000038}},{"attributes":{"ID":120458,"DIS_CODE":0,"TOWNNAME":"仁德區","LI":"新田里","LIN":"10鄰","STREET":"中正路","SECT":"二段","MAREA":" ","LANE":" ","ALLEY":" ","HOUSE_NO":"４５１號","E_COORD97":173326.87,"N_COORD97":2539460.27,"ADDRESS":"中正路二段４５１號","OBJECTID":120458},"geometry":{"x":173326.86999999918,"y":2539460.2699999996}},{"attributes":{"ID":120459,"DIS_CODE":0,"TOWNNAME":"仁德區","LI":"上崙里","LIN":"10鄰","STREET":"德善路","SECT":" ","MAREA":" ","LANE":" ","ALLEY":" ","HOUSE_NO":"４４５號","E_COORD97":174052.62,"N_COORD97":2538218.7599999998,"ADDRESS":"德善路４４５號","OBJECTID":120459},"geometry":{"x":174052.62000000197,"y":2538218.7600000016}},{"attributes":{"ID":120460,"DIS_CODE":0,"TOWNNAME":"南區","LI":"府南里","LIN":"16鄰","STREET":"大成路","SECT":"二段","MAREA":" ","LANE":"２２３巷","ALLEY":"５弄","HOUSE_NO":"５號","E_COORD97":167144.95000000001,"N_COORD97":2541685.1400000001,"ADDRESS":"大成路二段２２３巷５弄５號","OBJECTID":120460},"geometry":{"x":167144.95000000112,"y":2541685.1400000025}},{"attributes":{"ID":120461,"DIS_CODE":0,"TOWNNAME":"南區","LI":"府南里","LIN":"16鄰","STREET":"大成路","SECT":"二段","MAREA":" ","LANE":"２２３巷","ALLEY":"５弄","HOUSE_NO":"６號","E_COORD97":167143.14000000001,"N_COORD97":2541677.8100000001,"ADDRESS":"大成路二段２２３巷５弄６號","OBJECTID":120461},"geometry":{"x":167143.1400000006,"y":2541677.8100000024}},{"attributes":{"ID":120462,"DIS_CODE":0,"TOWNNAME":"仁德區","LI":"太子里","LIN":"31鄰","STREET":"太子路","SECT":" ","MAREA":" ","LANE":" ","ALLEY":" ","HOUSE_NO":"５４９號","E_COORD97":173897.95999999999,"N_COORD97":2543506.7599999998,"ADDRESS":"太子路５４９號","OBJECTID":120462},"geometry":{"x":173897.96000000089,"y":2543506.7599999979}},{"attributes":{"ID":120463,"DIS_CODE":0,"TOWNNAME":"仁德區","LI":"後壁里","LIN":"31鄰","STREET":"德洋路","SECT":" ","MAREA":" ","LANE":" ","ALLEY":" ","HOUSE_NO":"１２６之１號","E_COORD97":172739.45000000001,"N_COORD97":2539285.7999999998,"ADDRESS":"德洋路１２６之１號","OBJECTID":120463},"geometry":{"x":172739.45000000019,"y":2539285.8000000007}},{"attributes":{"ID":120464,"DIS_CODE":0,"TOWNNAME":"永康區","LI":"永康里","LIN":"31鄰","STREET":"永大路","SECT":"三段","MAREA":" ","LANE":" ","ALLEY":" ","HOUSE_NO":"３８號","E_COORD97":174221.54999999999,"N_COORD97":2547589.7200000002,"ADDRESS":"永大路三段３８號","OBJECTID":120464},"geometry":{"x":174221.54999999981,"y":2547589.7200000007}},{"attributes":{"ID":120465,"DIS_CODE":0,"TOWNNAME":"永康區","LI":"永康里","LIN":"31鄰","STREET":"永大路","SECT":"三段","MAREA":" ","LANE":" ","ALLEY":" ","HOUSE_NO":"４８號","E_COORD97":174218.53,"N_COORD97":2547611.46,"ADDRESS":"永大路三段４８號","OBJECTID":120465},"geometry":{"x":174218.53000000119,"y":2547611.4600000009}},{"attributes":{"ID":120466,"DIS_CODE":0,"TOWNNAME":"永康區","LI":"北灣里","LIN":"31鄰","STREET":"大同街","SECT":" ","MAREA":" ","LANE":" ","ALLEY":" ","HOUSE_NO":"３０號","E_COORD97":175275.94,"N_COORD97":2545421.9900000002,"ADDRESS":"大同街３０號","OBJECTID":120466},"geometry":{"x":175275.94000000041,"y":2545421.9900000021}},{"attributes":{"ID":120467,"DIS_CODE":0,"TOWNNAME":"南區","LI":"府南里","LIN":"16鄰","STREET":"大成路","SECT":"二段","MAREA":" ","LANE":"２２３巷","ALLEY":"５弄","HOUSE_NO":"７號","E_COORD97":167151.32999999999,"N_COORD97":2541682.9500000002,"ADDRESS":"大成路二段２２３巷５弄７號","OBJECTID":120467},"geometry":{"x":167151.33000000007,"y":2541682.9499999993}},{"attributes":{"ID":120468,"DIS_CODE":0,"TOWNNAME":"南區","LI":"府南里","LIN":"16鄰","STREET":"大成路","SECT":"二段","MAREA":" ","LANE":"２２３巷","ALLEY":"５弄","HOUSE_NO":"８號","E_COORD97":167148.95000000001,"N_COORD97":2541675.3300000001,"ADDRESS":"大成路二段２２３巷５弄８號","OBJECTID":120468},"geometry":{"x":167148.95000000019,"y":2541675.3300000001}},{"attributes":{"ID":120469,"DIS_CODE":0,"TOWNNAME":"南區","LI":"府南里","LIN":"16鄰","STREET":"大成路","SECT":"二段","MAREA":" ","LANE":"２２３巷","ALLEY":"５弄","HOUSE_NO":"９號","E_COORD97":167157.89999999999,"N_COORD97":2541681.23,"ADDRESS":"大成路二段２２３巷５弄９號","OBJECTID":120469},"geometry":{"x":167157.90000000037,"y":2541681.2300000023}},{"attributes":{"ID":120470,"DIS_CODE":0,"TOWNNAME":"仁德區","LI":"仁義里","LIN":"16鄰","STREET":"義林路","SECT":" ","MAREA":" ","LANE":"２４１巷","ALLEY":"１弄","HOUSE_NO":"１號","E_COORD97":174515.20000000001,"N_COORD97":2541278.9700000002,"ADDRESS":"義林路２４１巷１弄１號","OBJECTID":120470},"geometry":{"x":174515.20000000112,"y":2541278.9700000044}},{"attributes":{"ID":120471,"DIS_CODE":0,"TOWNNAME":"仁德區","LI":"仁義里","LIN":"16鄰","STREET":"義林路","SECT":" ","MAREA":" ","LANE":"２４１巷","ALLEY":"２弄","HOUSE_NO":"８號","E_COORD97":174533.88,"N_COORD97":2541292.2599999998,"ADDRESS":"義林路２４１巷２弄８號","OBJECTID":120471},"geometry":{"x":174533.88000000082,"y":2541292.2599999998}},{"attributes":{"ID":120472,"DIS_CODE":0,"TOWNNAME":"仁德區","LI":"成功里","LIN":"16鄰","STREET":"全福路","SECT":" ","MAREA":" ","LANE":"７５巷","ALLEY":"１４弄","HOUSE_NO":"５號","E_COORD97":171067.17999999999,"N_COORD97":2539356.7400000002,"ADDRESS":"全福路７５巷１４弄５號","OBJECTID":120472},"geometry":{"x":171067.18000000063,"y":2539356.7400000002}},{"attributes":{"ID":120473,"DIS_CODE":0,"TOWNNAME":"仁德區","LI":"新田里","LIN":"16鄰","STREET":"北保東路","SECT":" ","MAREA":" ","LANE":"３２巷","ALLEY":"８弄","HOUSE_NO":"２２號","E_COORD97":173390.31,"N_COORD97":2539355.7400000002,"ADDRESS":"北保東路３２巷８弄２２號","OBJECTID":120473},"geometry":{"x":173390.31000000052,"y":2539355.7400000021}},{"attributes":{"ID":120474,"DIS_CODE":0,"TOWNNAME":"仁德區","LI":"上崙里","LIN":"16鄰","STREET":"德崙路","SECT":" ","MAREA":" ","LANE":"３７０巷","ALLEY":"４９弄","HOUSE_NO":"１０號","E_COORD97":174043.53,"N_COORD97":2537933.27,"ADDRESS":"德崙路３７０巷４９弄１０號","OBJECTID":120474},"geometry":{"x":174043.53000000119,"y":2537933.2700000014}},{"attributes":{"ID":120475,"DIS_CODE":0,"TOWNNAME":"仁德區","LI":"土庫里","LIN":"16鄰","STREET":"土庫一街","SECT":" ","MAREA":" ","LANE":"２２巷","ALLEY":"２３弄","HOUSE_NO":"１６號","E_COORD97":174541.20999999999,"N_COORD97":2543020.5,"ADDRESS":"土庫一街２２巷２３弄１６號","OBJECTID":120475},"geometry":{"x":174541.20999999996,"y":2543020.4999999981}},{"attributes":{"ID":120476,"DIS_CODE":0,"TOWNNAME":"仁德區","LI":"仁義里","LIN":"16鄰","STREET":"義林路","SECT":" ","MAREA":" ","LANE":"２４１巷","ALLEY":"２弄","HOUSE_NO":"１８號","E_COORD97":174538.23999999999,"N_COORD97":2541312.5099999998,"ADDRESS":"義林路２４１巷２弄１８號","OBJECTID":120476},"geometry":{"x":174538.23999999929,"y":2541312.5100000016}},{"attributes":{"ID":120477,"DIS_CODE":0,"TOWNNAME":"麻豆區","LI":"大山里","LIN":"8鄰","STREET":" ","SECT":" ","MAREA":"大山\u25A0","LANE":" ","ALLEY":" ","HOUSE_NO":"１號之５０","E_COORD97":170360.13,"N_COORD97":2565628.4399999999,"ADDRESS":"大山\u25A0１號之５０","OBJECTID":120477},"geometry":{"x":170360.13000000175,"y":2565628.4400000013}},{"attributes":{"ID":120478,"DIS_CODE":0,"TOWNNAME":"永康區","LI":"正強里","LIN":"16鄰","STREET":"自強路","SECT":" ","MAREA":" ","LANE":"１８８巷","ALLEY":"２弄","HOUSE_NO":"５號","E_COORD97":173164.53,"N_COORD97":2547458.02,"ADDRESS":"自強路１８８巷２弄５號","OBJECTID":120478},"geometry":{"x":173164.53000000026,"y":2547458.0200000033}},{"attributes":{"ID":120479,"DIS_CODE":0,"TOWNNAME":"永康區","LI":"正強里","LIN":"16鄰","STREET":"自強路","SECT":" ","MAREA":" ","LANE":"１８８巷","ALLEY":"２弄","HOUSE_NO":"９號","E_COORD97":173156.67999999999,"N_COORD97":2547456.77,"ADDRESS":"自強路１８８巷２弄９號","OBJECTID":120479},"geometry":{"x":173156.68000000156,"y":2547456.7700000014}},{"attributes":{"ID":120480,"DIS_CODE":0,"TOWNNAME":"麻豆區","LI":"大山里","LIN":"8鄰","STREET":" ","SECT":" ","MAREA":"大山\u25A0","LANE":" ","ALLEY":" ","HOUSE_NO":"１號之５９","E_COORD97":170299.76999999999,"N_COORD97":2565601.3700000001,"ADDRESS":"大山\u25A0１號之５９","OBJECTID":120480},"geometry":{"x":170299.77000000048,"y":2565601.370000001}},{"attributes":{"ID":120481,"DIS_CODE":0,"TOWNNAME":"麻豆區","LI":"大山里","LIN":"8鄰","STREET":" ","SECT":" ","MAREA":"大山\u25A0","LANE":" ","ALLEY":" ","HOUSE_NO":"１號之６０","E_COORD97":170267,"N_COORD97":2565615.4399999999,"ADDRESS":"大山\u25A0１號之６０","OBJECTID":120481},"geometry":{"x":170267.00000000093,"y":2565615.4400000013}},{"attributes":{"ID":120482,"DIS_CODE":0,"TOWNNAME":"麻豆區","LI":"大山里","LIN":"8鄰","STREET":" ","SECT":" ","MAREA":"大山\u25A0","LANE":" ","ALLEY":" ","HOUSE_NO":"１號之６５","E_COORD97":170188.28,"N_COORD97":2565551.4300000002,"ADDRESS":"大山\u25A0１號之６５","OBJECTID":120482},"geometry":{"x":170188.28000000212,"y":2565551.4300000016}},{"attributes":{"ID":120483,"DIS_CODE":0,"TOWNNAME":"麻豆區","LI":"大山里","LIN":"8鄰","STREET":" ","SECT":" ","MAREA":"大山\u25A0","LANE":" ","ALLEY":" ","HOUSE_NO":"１號之６","E_COORD97":170361.04999999999,"N_COORD97":2565666.1699999999,"ADDRESS":"大山\u25A0１號之６","OBJECTID":120483},"geometry":{"x":170361.05000000075,"y":2565666.1699999999}},{"attributes":{"ID":120484,"DIS_CODE":0,"TOWNNAME":"麻豆區","LI":"大山里","LIN":"8鄰","STREET":" ","SECT":" ","MAREA":"大山\u25A0","LANE":" ","ALLEY":" ","HOUSE_NO":"１號之８","E_COORD97":170372.84,"N_COORD97":2565664.3500000001,"ADDRESS":"大山\u25A0１號之８","OBJECTID":120484},"geometry":{"x":170372.84000000078,"y":2565664.3499999996}},{"attributes":{"ID":120485,"DIS_CODE":0,"TOWNNAME":"麻豆區","LI":"大山里","LIN":"8鄰","STREET":" ","SECT":" ","MAREA":"大山\u25A0","LANE":" ","ALLEY":" ","HOUSE_NO":"１號之９","E_COORD97":170381.75,"N_COORD97":2565662.9199999999,"ADDRESS":"大山\u25A0１號之９","OBJECTID":120485},"geometry":{"x":170381.75000000093,"y":2565662.9200000018}},{"attributes":{"ID":120486,"DIS_CODE":0,"TOWNNAME":"麻豆區","LI":"大山里","LIN":"2鄰","STREET":" ","SECT":" ","MAREA":"大山\u25A0","LANE":" ","ALLEY":" ","HOUSE_NO":"１５號","E_COORD97":170212.89999999999,"N_COORD97":2565986.4900000002,"ADDRESS":"大山\u25A0１５號","OBJECTID":120486},"geometry":{"x":170212.89999999944,"y":2565986.4900000002}},{"attributes":{"ID":120487,"DIS_CODE":0,"TOWNNAME":"永康區","LI":"復興里","LIN":"16鄰","STREET":"復興路","SECT":" ","MAREA":" ","LANE":"３５６巷","ALLEY":"４１弄","HOUSE_NO":"１３號","E_COORD97":172255.57000000001,"N_COORD97":2544415.27,"ADDRESS":"復興路３５６巷４１弄１３號","OBJECTID":120487},"geometry":{"x":172255.5700000003,"y":2544415.2700000033}},{"attributes":{"ID":120488,"DIS_CODE":0,"TOWNNAME":"永康區","LI":"中興里","LIN":"16鄰","STREET":"中華二路","SECT":" ","MAREA":" ","LANE":"１２７巷","ALLEY":"２弄","HOUSE_NO":"３６號","E_COORD97":171951.60999999999,"N_COORD97":2545400,"ADDRESS":"中華二路１２７巷２弄３６號","OBJECTID":120488},"geometry":{"x":171951.61000000127,"y":2545400}},{"attributes":{"ID":120489,"DIS_CODE":0,"TOWNNAME":"永康區","LI":"安康里","LIN":"16鄰","STREET":"中華路","SECT":" ","MAREA":" ","LANE":"６１９巷","ALLEY":"２２弄","HOUSE_NO":"２１號","E_COORD97":170956.23999999999,"N_COORD97":2546148.9900000002,"ADDRESS":"中華路６１９巷２２弄２１號","OBJECTID":120489},"geometry":{"x":170956.24000000022,"y":2546148.9900000002}},{"attributes":{"ID":120490,"DIS_CODE":0,"TOWNNAME":"永康區","LI":"網寮里","LIN":"16鄰","STREET":"永二街","SECT":" ","MAREA":" ","LANE":"２４４巷","ALLEY":"６２弄","HOUSE_NO":"１０號","E_COORD97":173287.01999999999,"N_COORD97":2546680.79,"ADDRESS":"永二街２４４巷６２弄１０號","OBJECTID":120490},"geometry":{"x":173287.02000000048,"y":2546680.790000001}},{"attributes":{"ID":120491,"DIS_CODE":0,"TOWNNAME":"永康區","LI":"崑山里","LIN":"16鄰","STREET":"大灣路","SECT":" ","MAREA":" ","LANE":"９４２巷","ALLEY":"７１弄","HOUSE_NO":"８５號","E_COORD97":173605.59,"N_COORD97":2544589.75,"ADDRESS":"大灣路９４２巷７１弄８５號","OBJECTID":120491},"geometry":{"x":173605.59000000078,"y":2544589.7500000019}},{"attributes":{"ID":120492,"DIS_CODE":0,"TOWNNAME":"永康區","LI":"五王里","LIN":"16鄰","STREET":"成功路","SECT":" ","MAREA":" ","LANE":"１７２巷","ALLEY":"６２弄","HOUSE_NO":"１５號","E_COORD97":171623.19,"N_COORD97":2545755.2000000002,"ADDRESS":"成功路１７２巷６２弄１５號","OBJECTID":120492},"geometry":{"x":171623.19000000227,"y":2545755.2000000011}},{"attributes":{"ID":120493,"DIS_CODE":0,"TOWNNAME":"永康區","LI":"二王里","LIN":"16鄰","STREET":"忠孝路","SECT":" ","MAREA":" ","LANE":"４５０巷","ALLEY":"１６弄","HOUSE_NO":"１０號","E_COORD97":172525.29999999999,"N_COORD97":2546577.3599999999,"ADDRESS":"忠孝路４５０巷１６弄１０號","OBJECTID":120493},"geometry":{"x":172525.30000000168,"y":2546577.3599999975}},{"attributes":{"ID":120494,"DIS_CODE":0,"TOWNNAME":"永康區","LI":"網寮里","LIN":"16鄰","STREET":"永興路","SECT":" ","MAREA":" ","LANE":"４２７巷","ALLEY":"２３弄","HOUSE_NO":"１２號","E_COORD97":173295.01000000001,"N_COORD97":2546777.7000000002,"ADDRESS":"永興路４２７巷２３弄１２號","OBJECTID":120494},"geometry":{"x":173295.00999999978,"y":2546777.6999999993}},{"attributes":{"ID":120495,"DIS_CODE":0,"TOWNNAME":"麻豆區","LI":"大山里","LIN":"2鄰","STREET":" ","SECT":" ","MAREA":"大山\u25A0","LANE":" ","ALLEY":" ","HOUSE_NO":"１６號","E_COORD97":170220.10000000001,"N_COORD97":2565959.3100000001,"ADDRESS":"大山\u25A0１６號","OBJECTID":120495},"geometry":{"x":170220.10000000056,"y":2565959.3100000024}},{"attributes":{"ID":120496,"DIS_CODE":0,"TOWNNAME":"麻豆區","LI":"大山里","LIN":"2鄰","STREET":" ","SECT":" ","MAREA":"大山\u25A0","LANE":" ","ALLEY":" ","HOUSE_NO":"１７號之１","E_COORD97":170181.42999999999,"N_COORD97":2565960.1299999999,"ADDRESS":"大山\u25A0１７號之１","OBJECTID":120496},"geometry":{"x":170181.4299999997,"y":2565960.129999999}},{"attributes":{"ID":120497,"DIS_CODE":0,"TOWNNAME":"永康區","LI":"甲頂里","LIN":"16鄰","STREET":"中正南路","SECT":" ","MAREA":" ","LANE":"５２巷","ALLEY":"２１弄","HOUSE_NO":"６號","E_COORD97":169864.35000000001,"N_COORD97":2546815.8199999998,"ADDRESS":"中正南路５２巷２１弄６號","OBJECTID":120497},"geometry":{"x":169864.34999999963,"y":2546815.8199999984}},{"attributes":{"ID":120498,"DIS_CODE":0,"TOWNNAME":"永康區","LI":"中興里","LIN":"16鄰","STREET":"中華二路","SECT":" ","MAREA":" ","LANE":"１２７巷","ALLEY":"２弄","HOUSE_NO":"９號","E_COORD97":171985.98000000001,"N_COORD97":2545389.75,"ADDRESS":"中華二路１２７巷２弄９號","OBJECTID":120498},"geometry":{"x":171985.98000000138,"y":2545389.7500000019}},{"attributes":{"ID":120499,"DIS_CODE":0,"TOWNNAME":"永康區","LI":"三合里","LIN":"16鄰","STREET":"南工街","SECT":" ","MAREA":" ","LANE":"２４７巷","ALLEY":"２弄","HOUSE_NO":"２０號","E_COORD97":171936.17000000001,"N_COORD97":2545925.25,"ADDRESS":"南工街２４７巷２弄２０號","OBJECTID":120499},"geometry":{"x":171936.16999999993,"y":2545925.2500000019}},{"attributes":{"ID":120500,"DIS_CODE":0,"TOWNNAME":"永康區","LI":"崑山里","LIN":"16鄰","STREET":"大灣路","SECT":" ","MAREA":" ","LANE":"９４２巷","ALLEY":"７１弄","HOUSE_NO":"４３號","E_COORD97":173603.23000000001,"N_COORD97":2544560.75,"ADDRESS":"大灣路９４２巷７１弄４３號","OBJECTID":120500},"geometry":{"x":173603.23000000138,"y":2544560.75}},{"attributes":{"ID":120501,"DIS_CODE":0,"TOWNNAME":"永康區","LI":"三合里","LIN":"16鄰","STREET":"南工街","SECT":" ","MAREA":" ","LANE":"２４７巷","ALLEY":"４弄","HOUSE_NO":"５號","E_COORD97":171954.84,"N_COORD97":2545867.1099999999,"ADDRESS":"南工街２４７巷４弄５號","OBJECTID":120501},"geometry":{"x":171954.83999999985,"y":2545867.1100000031}},{"attributes":{"ID":120502,"DIS_CODE":0,"TOWNNAME":"永康區","LI":"埔園里","LIN":"16鄰","STREET":"中山路","SECT":" ","MAREA":" ","LANE":"３８３巷","ALLEY":"２４弄","HOUSE_NO":"６號","E_COORD97":173464.59,"N_COORD97":2548529.5600000001,"ADDRESS":"中山路３８３巷２４弄６號","OBJECTID":120502},"geometry":{"x":173464.59000000078,"y":2548529.5600000005}},{"attributes":{"ID":120503,"DIS_CODE":0,"TOWNNAME":"南區","LI":"明亮里","LIN":"16鄰","STREET":"金華路","SECT":"一段","MAREA":" ","LANE":"３５２巷","ALLEY":"１１１弄","HOUSE_NO":"２號","E_COORD97":167274.51999999999,"N_COORD97":2541059.3900000001,"ADDRESS":"金華路一段３５２巷１１１弄２號","OBJECTID":120503},"geometry":{"x":167274.51999999955,"y":2541059.3900000025}},{"attributes":{"ID":120504,"DIS_CODE":0,"TOWNNAME":"南區","LI":"明亮里","LIN":"16鄰","STREET":"金華路","SECT":"一段","MAREA":" ","LANE":"３５２巷","ALLEY":"１１１弄","HOUSE_NO":"４號","E_COORD97":167278.13,"N_COORD97":2541060.5899999999,"ADDRESS":"金華路一段３５２巷１１１弄４號","OBJECTID":120504},"geometry":{"x":167278.12999999896,"y":2541060.5900000017}},{"attributes":{"ID":120505,"DIS_CODE":0,"TOWNNAME":"南區","LI":"明亮里","LIN":"16鄰","STREET":"金華路","SECT":"一段","MAREA":" ","LANE":"３５２巷","ALLEY":"１１１弄","HOUSE_NO":"６號","E_COORD97":167282.95000000001,"N_COORD97":2541063.3999999999,"ADDRESS":"金華路一段３５２巷１１１弄６號","OBJECTID":120505},"geometry":{"x":167282.95000000019,"y":2541063.4000000022}},{"attributes":{"ID":120506,"DIS_CODE":0,"TOWNNAME":"南區","LI":"明亮里","LIN":"16鄰","STREET":"金華路","SECT":"一段","MAREA":" ","LANE":"３５２巷","ALLEY":"１１１弄","HOUSE_NO":"９號","E_COORD97":167285.29999999999,"N_COORD97":2541079.6099999999,"ADDRESS":"金華路一段３５２巷１１１弄９號","OBJECTID":120506},"geometry":{"x":167285.29999999981,"y":2541079.6099999994}},{"attributes":{"ID":120507,"DIS_CODE":0,"TOWNNAME":"學甲區","LI":"秀昌里","LIN":"6鄰","STREET":" ","SECT":" ","MAREA":"一秀","LANE":" ","ALLEY":" ","HOUSE_NO":"７０號","E_COORD97":165759.38,"N_COORD97":2570870.98,"ADDRESS":"一秀７０號","OBJECTID":120507},"geometry":{"x":165759.38000000175,"y":2570870.9800000023}},{"attributes":{"ID":120508,"DIS_CODE":0,"TOWNNAME":"南區","LI":"明亮里","LIN":"16鄰","STREET":"金華路","SECT":"一段","MAREA":" ","LANE":"３５２巷","ALLEY":"１１１弄","HOUSE_NO":"１１號","E_COORD97":167289.72,"N_COORD97":2541086.4300000002,"ADDRESS":"金華路一段３５２巷１１１弄１１號","OBJECTID":120508},"geometry":{"x":167289.72000000067,"y":2541086.4300000016}},{"attributes":{"ID":120509,"DIS_CODE":0,"TOWNNAME":"南區","LI":"明亮里","LIN":"16鄰","STREET":"金華路","SECT":"一段","MAREA":" ","LANE":"３５２巷","ALLEY":"１１１弄","HOUSE_NO":"１２號","E_COORD97":167300.63,"N_COORD97":2541076.6400000001,"ADDRESS":"金華路一段３５２巷１１１弄１２號","OBJECTID":120509},"geometry":{"x":167300.63000000082,"y":2541076.6400000006}},{"attributes":{"ID":120510,"DIS_CODE":0,"TOWNNAME":"麻豆區","LI":"大山里","LIN":"2鄰","STREET":" ","SECT":" ","MAREA":"大山\u25A0","LANE":" ","ALLEY":" ","HOUSE_NO":"１７號之２","E_COORD97":170189.60000000001,"N_COORD97":2565965.2999999998,"ADDRESS":"大山\u25A0１７號之２","OBJECTID":120510},"geometry":{"x":170189.60000000056,"y":2565965.2999999989}},{"attributes":{"ID":120511,"DIS_CODE":0,"TOWNNAME":"麻豆區","LI":"大山里","LIN":"2鄰","STREET":" ","SECT":" ","MAREA":"大山\u25A0","LANE":" ","ALLEY":" ","HOUSE_NO":"１７號","E_COORD97":170201.60000000001,"N_COORD97":2565962.7000000002,"ADDRESS":"大山\u25A0１７號","OBJECTID":120511},"geometry":{"x":170201.59999999963,"y":2565962.7000000011}},{"attributes":{"ID":120512,"DIS_CODE":0,"TOWNNAME":"麻豆區","LI":"大山里","LIN":"2鄰","STREET":" ","SECT":" ","MAREA":"大山\u25A0","LANE":" ","ALLEY":" ","HOUSE_NO":"１９號之１","E_COORD97":170155.14000000001,"N_COORD97":2565969.6800000002,"ADDRESS":"大山\u25A0１９號之１","OBJECTID":120512},"geometry":{"x":170155.1400000006,"y":2565969.6800000016}},{"attributes":{"ID":120513,"DIS_CODE":0,"TOWNNAME":"麻豆區","LI":"大山里","LIN":"2鄰","STREET":" ","SECT":" ","MAREA":"大山\u25A0","LANE":" ","ALLEY":" ","HOUSE_NO":"１９號","E_COORD97":170161.70000000001,"N_COORD97":2565951.1099999999,"ADDRESS":"大山\u25A0１９號","OBJECTID":120513},"geometry":{"x":170161.70000000205,"y":2565951.1099999994}},{"attributes":{"ID":120514,"DIS_CODE":0,"TOWNNAME":"麻豆區","LI":"大山里","LIN":"2鄰","STREET":" ","SECT":" ","MAREA":"大山\u25A0","LANE":" ","ALLEY":" ","HOUSE_NO":"２０之１０號","E_COORD97":170154.5,"N_COORD97":2565674.1400000001,"ADDRESS":"大山\u25A0２０之１０號","OBJECTID":120514},"geometry":{"x":170154.50000000093,"y":2565674.1400000006}},{"attributes":{"ID":120515,"DIS_CODE":0,"TOWNNAME":"麻豆區","LI":"大山里","LIN":"2鄰","STREET":" ","SECT":" ","MAREA":"大山\u25A0","LANE":" ","ALLEY":" ","HOUSE_NO":"２０號之１","E_COORD97":170138.72,"N_COORD97":2565897.8500000001,"ADDRESS":"大山\u25A0２０號之１","OBJECTID":120515},"geometry":{"x":170138.71999999974,"y":2565897.8500000015}},{"attributes":{"ID":120516,"DIS_CODE":0,"TOWNNAME":"麻豆區","LI":"大山里","LIN":"2鄰","STREET":" ","SECT":" ","MAREA":"大山\u25A0","LANE":" ","ALLEY":" ","HOUSE_NO":"２０號之２７","E_COORD97":170143.48999999999,"N_COORD97":2565781.6200000001,"ADDRESS":"大山\u25A0２０號之２７","OBJECTID":120516},"geometry":{"x":170143.49000000115,"y":2565781.6200000029}},{"attributes":{"ID":120517,"DIS_CODE":0,"TOWNNAME":"麻豆區","LI":"大山里","LIN":"2鄰","STREET":" ","SECT":" ","MAREA":"大山\u25A0","LANE":" ","ALLEY":" ","HOUSE_NO":"２０號之２８","E_COORD97":170108.09,"N_COORD97":2565815.9199999999,"ADDRESS":"大山\u25A0２０號之２８","OBJECTID":120517},"geometry":{"x":170108.09000000078,"y":2565815.9200000018}},{"attributes":{"ID":120518,"DIS_CODE":0,"TOWNNAME":"麻豆區","LI":"大山里","LIN":"2鄰","STREET":" ","SECT":" ","MAREA":"大山\u25A0","LANE":" ","ALLEY":" ","HOUSE_NO":"２０號之２","E_COORD97":170125.17000000001,"N_COORD97":2565898.02,"ADDRESS":"大山\u25A0２０號之２","OBJECTID":120518},"geometry":{"x":170125.16999999993,"y":2565898.0199999996}},{"attributes":{"ID":120519,"DIS_CODE":0,"TOWNNAME":"麻豆區","LI":"大山里","LIN":"2鄰","STREET":" ","SECT":" ","MAREA":"大山\u25A0","LANE":" ","ALLEY":" ","HOUSE_NO":"２０號之３","E_COORD97":170112.73999999999,"N_COORD97":2565895.6899999999,"ADDRESS":"大山\u25A0２０號之３","OBJECTID":120519},"geometry":{"x":170112.74000000115,"y":2565895.6899999995}},{"attributes":{"ID":120520,"DIS_CODE":0,"TOWNNAME":"麻豆區","LI":"大山里","LIN":"2鄰","STREET":" ","SECT":" ","MAREA":"大山\u25A0","LANE":" ","ALLEY":" ","HOUSE_NO":"２０號之４８","E_COORD97":170104.12,"N_COORD97":2565647.1400000001,"ADDRESS":"大山\u25A0２０號之４８","OBJECTID":120520},"geometry":{"x":170104.12000000011,"y":2565647.1400000006}},{"attributes":{"ID":120521,"DIS_CODE":0,"TOWNNAME":"麻豆區","LI":"大山里","LIN":"2鄰","STREET":" ","SECT":" ","MAREA":"大山\u25A0","LANE":" ","ALLEY":" ","HOUSE_NO":"２０號之４","E_COORD97":170131.54000000001,"N_COORD97":2565913.54,"ADDRESS":"大山\u25A0２０號之４","OBJECTID":120521},"geometry":{"x":170131.54000000004,"y":2565913.5399999991}},{"attributes":{"ID":120522,"DIS_CODE":0,"TOWNNAME":"中西區","LI":"西賢里","LIN":"31鄰","STREET":"西賢六街","SECT":" ","MAREA":" ","LANE":" ","ALLEY":" ","HOUSE_NO":"３７號","E_COORD97":165060.70999999999,"N_COORD97":2544695.9399999999,"ADDRESS":"西賢六街３７號","OBJECTID":120522},"geometry":{"x":165060.71000000089,"y":2544695.9400000013}},{"attributes":{"ID":120523,"DIS_CODE":0,"TOWNNAME":"中西區","LI":"西賢里","LIN":"31鄰","STREET":"西賢六街","SECT":" ","MAREA":" ","LANE":" ","ALLEY":" ","HOUSE_NO":"３９號","E_COORD97":165063.07000000001,"N_COORD97":2544700.0600000001,"ADDRESS":"西賢六街３９號","OBJECTID":120523},"geometry":{"x":165063.0700000003,"y":2544700.0600000024}},{"attributes":{"ID":120524,"DIS_CODE":0,"TOWNNAME":"中西區","LI":"西賢里","LIN":"31鄰","STREET":"西賢六街","SECT":" ","MAREA":" ","LANE":" ","ALLEY":" ","HOUSE_NO":"３號","E_COORD97":165048.16,"N_COORD97":2544622.6600000001,"ADDRESS":"西賢六街３號","OBJECTID":120524},"geometry":{"x":165048.16000000108,"y":2544622.6600000001}},{"attributes":{"ID":120525,"DIS_CODE":0,"TOWNNAME":"中西區","LI":"西賢里","LIN":"31鄰","STREET":"西賢六街","SECT":" ","MAREA":" ","LANE":" ","ALLEY":" ","HOUSE_NO":"４１號","E_COORD97":165064.14999999999,"N_COORD97":2544704.27,"ADDRESS":"西賢六街４１號","OBJECTID":120525},"geometry":{"x":165064.15000000037,"y":2544704.2700000014}},{"attributes":{"ID":120526,"DIS_CODE":0,"TOWNNAME":"中西區","LI":"西賢里","LIN":"31鄰","STREET":"西賢六街","SECT":" ","MAREA":" ","LANE":" ","ALLEY":" ","HOUSE_NO":"４３號","E_COORD97":165065.76999999999,"N_COORD97":2544708.0499999998,"ADDRESS":"西賢六街４３號","OBJECTID":120526},"geometry":{"x":165065.76999999955,"y":2544708.0500000007}},{"attributes":{"ID":120527,"DIS_CODE":0,"TOWNNAME":"中西區","LI":"西賢里","LIN":"31鄰","STREET":"西賢六街","SECT":" ","MAREA":" ","LANE":" ","ALLEY":" ","HOUSE_NO":"４５號","E_COORD97":165066.42000000001,"N_COORD97":2544712.04,"ADDRESS":"西賢六街４５號","OBJECTID":120527},"geometry":{"x":165066.42000000086,"y":2544712.040000001}},{"attributes":{"ID":120528,"DIS_CODE":0,"TOWNNAME":"中西區","LI":"西賢里","LIN":"31鄰","STREET":"西賢六街","SECT":" ","MAREA":" ","LANE":" ","ALLEY":" ","HOUSE_NO":"５號","E_COORD97":165049.01000000001,"N_COORD97":2544626.8900000001,"ADDRESS":"西賢六街５號","OBJECTID":120528},"geometry":{"x":165049.00999999978,"y":2544626.8900000025}},{"attributes":{"ID":120529,"DIS_CODE":0,"TOWNNAME":"中西區","LI":"西賢里","LIN":"31鄰","STREET":"西賢六街","SECT":" ","MAREA":" ","LANE":" ","ALLEY":" ","HOUSE_NO":"７號","E_COORD97":165049.17999999999,"N_COORD97":2544631.6299999999,"ADDRESS":"西賢六街７號","OBJECTID":120529},"geometry":{"x":165049.18000000063,"y":2544631.629999999}},{"attributes":{"ID":120530,"DIS_CODE":0,"TOWNNAME":"南區","LI":"明亮里","LIN":"16鄰","STREET":"金華路","SECT":"一段","MAREA":" ","LANE":"３５２巷","ALLEY":"１１１弄","HOUSE_NO":"１２號之１","E_COORD97":167303.04000000001,"N_COORD97":2541072.6299999999,"ADDRESS":"金華路一段３５２巷１１１弄１２號之１","OBJECTID":120530},"geometry":{"x":167303.04000000097,"y":2541072.6300000027}},{"attributes":{"ID":120531,"DIS_CODE":0,"TOWNNAME":"南區","LI":"明亮里","LIN":"16鄰","STREET":"金華路","SECT":"一段","MAREA":" ","LANE":"３５２巷","ALLEY":"１１１弄","HOUSE_NO":"１２號之２","E_COORD97":167305.04999999999,"N_COORD97":2541069.8100000001,"ADDRESS":"金華路一段３５２巷１１１弄１２號之２","OBJECTID":120531},"geometry":{"x":167305.04999999981,"y":2541069.8100000042}},{"attributes":{"ID":120532,"DIS_CODE":0,"TOWNNAME":"南區","LI":"明亮里","LIN":"16鄰","STREET":"金華路","SECT":"一段","MAREA":" ","LANE":"３５２巷","ALLEY":"１１１弄","HOUSE_NO":"１２號之３","E_COORD97":167307.45999999999,"N_COORD97":2541066.21,"ADDRESS":"金華路一段３５２巷１１１弄１２號之３","OBJECTID":120532},"geometry":{"x":167307.45999999996,"y":2541066.2100000009}},{"attributes":{"ID":120533,"DIS_CODE":0,"TOWNNAME":"南區","LI":"明亮里","LIN":"16鄰","STREET":"金華路","SECT":"一段","MAREA":" ","LANE":"３５２巷","ALLEY":"１１１弄","HOUSE_NO":"１２號之４","E_COORD97":167309.47,"N_COORD97":2541063,"ADDRESS":"金華路一段３５２巷１１１弄１２號之４","OBJECTID":120533},"geometry":{"x":167309.46999999974,"y":2541063}},{"attributes":{"ID":120534,"DIS_CODE":0,"TOWNNAME":"南區","LI":"明亮里","LIN":"16鄰","STREET":"金華路","SECT":"一段","MAREA":" ","LANE":"３５２巷","ALLEY":"１１１弄","HOUSE_NO":"１２號之５","E_COORD97":167311.07999999999,"N_COORD97":2541059.79,"ADDRESS":"金華路一段３５２巷１１１弄１２號之５","OBJECTID":120534},"geometry":{"x":167311.08000000194,"y":2541059.790000001}},{"attributes":{"ID":120535,"DIS_CODE":0,"TOWNNAME":"南區","LI":"明亮里","LIN":"16鄰","STREET":"金華路","SECT":"一段","MAREA":" ","LANE":"３５２巷","ALLEY":"１１１弄","HOUSE_NO":"１２號之６","E_COORD97":167313.89000000001,"N_COORD97":2541055.77,"ADDRESS":"金華路一段３５２巷１１１弄１２號之６","OBJECTID":120535},"geometry":{"x":167313.8900000006,"y":2541055.7700000014}},{"attributes":{"ID":120536,"DIS_CODE":0,"TOWNNAME":"南區","LI":"明亮里","LIN":"16鄰","STREET":"金華路","SECT":"一段","MAREA":" ","LANE":"３５２巷","ALLEY":"１１１弄","HOUSE_NO":"１２號之７","E_COORD97":167315.10000000001,"N_COORD97":2541052.5600000001,"ADDRESS":"金華路一段３５２巷１１１弄１２號之７","OBJECTID":120536},"geometry":{"x":167315.09999999963,"y":2541052.5600000024}},{"attributes":{"ID":120537,"DIS_CODE":0,"TOWNNAME":"南區","LI":"明亮里","LIN":"16鄰","STREET":"金華路","SECT":"一段","MAREA":" ","LANE":"３５２巷","ALLEY":"１１１弄","HOUSE_NO":"１２號之８","E_COORD97":167317.51000000001,"N_COORD97":2541048.1499999999,"ADDRESS":"金華路一段３５２巷１１１弄１２號之８","OBJECTID":120537},"geometry":{"x":167317.50999999978,"y":2541048.1500000022}},{"attributes":{"ID":120538,"DIS_CODE":0,"TOWNNAME":"南區","LI":"明亮里","LIN":"16鄰","STREET":"金華路","SECT":"一段","MAREA":" ","LANE":"３５２巷","ALLEY":"１１１弄","HOUSE_NO":"１２號之９","E_COORD97":167319.92000000001,"N_COORD97":2541044.9399999999,"ADDRESS":"金華路一段３５２巷１１１弄１２號之９","OBJECTID":120538},"geometry":{"x":167319.91999999993,"y":2541044.9400000013}},{"attributes":{"ID":120539,"DIS_CODE":0,"TOWNNAME":"東區","LI":"成大里","LIN":"31鄰","STREET":"北門路","SECT":"二段","MAREA":" ","LANE":" ","ALLEY":" ","HOUSE_NO":"３０號","E_COORD97":169325.39000000001,"N_COORD97":2544563.52,"ADDRESS":"北門路二段３０號","OBJECTID":120539},"geometry":{"x":169325.38999999966,"y":2544563.5200000014}},{"attributes":{"ID":120540,"DIS_CODE":0,"TOWNNAME":"南區","LI":"明亮里","LIN":"16鄰","STREET":"金華路","SECT":"一段","MAREA":" ","LANE":"３５２巷","ALLEY":"１１１弄","HOUSE_NO":"１２號之１０","E_COORD97":167321.92999999999,"N_COORD97":2541041.3300000001,"ADDRESS":"金華路一段３５２巷１１１弄１２號之１０","OBJECTID":120540},"geometry":{"x":167321.93000000063,"y":2541041.3300000001}},{"attributes":{"ID":120541,"DIS_CODE":0,"TOWNNAME":"南區","LI":"明亮里","LIN":"16鄰","STREET":"金華路","SECT":"一段","MAREA":" ","LANE":"３５２巷","ALLEY":"１１１弄","HOUSE_NO":"１２號之１１","E_COORD97":167323.54000000001,"N_COORD97":2541037.3199999998,"ADDRESS":"金華路一段３５２巷１１１弄１２號之１１","OBJECTID":120541},"geometry":{"x":167323.54000000097,"y":2541037.3200000003}},{"attributes":{"ID":120542,"DIS_CODE":0,"TOWNNAME":"南區","LI":"明亮里","LIN":"16鄰","STREET":"金華路","SECT":"一段","MAREA":" ","LANE":"３５２巷","ALLEY":"１１１弄","HOUSE_NO":"１２號之１２","E_COORD97":167325.14000000001,"N_COORD97":2541034.5099999998,"ADDRESS":"金華路一段３５２巷１１１弄１２號之１２","OBJECTID":120542},"geometry":{"x":167325.13999999966,"y":2541034.5100000016}},{"attributes":{"ID":120543,"DIS_CODE":0,"TOWNNAME":"中西區","LI":"西賢里","LIN":"31鄰","STREET":"西賢六街","SECT":" ","MAREA":" ","LANE":" ","ALLEY":" ","HOUSE_NO":"９號","E_COORD97":165049.01000000001,"N_COORD97":2544635.3500000001,"ADDRESS":"西賢六街９號","OBJECTID":120543},"geometry":{"x":165049.00999999978,"y":2544635.3500000034}},{"attributes":{"ID":120544,"DIS_CODE":0,"TOWNNAME":"麻豆區","LI":"大山里","LIN":"2鄰","STREET":" ","SECT":" ","MAREA":"大山\u25A0","LANE":" ","ALLEY":" ","HOUSE_NO":"２０號之５０","E_COORD97":170127.35999999999,"N_COORD97":2565646.6499999999,"ADDRESS":"大山\u25A0２０號之５０","OBJECTID":120544},"geometry":{"x":170127.36000000127,"y":2565646.6500000004}},{"attributes":{"ID":120545,"DIS_CODE":0,"TOWNNAME":"麻豆區","LI":"大山里","LIN":"2鄰","STREET":" ","SECT":" ","MAREA":"大山\u25A0","LANE":" ","ALLEY":" ","HOUSE_NO":"２０號之５","E_COORD97":170121.20999999999,"N_COORD97":2565926.71,"ADDRESS":"大山\u25A0２０號之５","OBJECTID":120545},"geometry":{"x":170121.21000000089,"y":2565926.7100000028}},{"attributes":{"ID":120546,"DIS_CODE":0,"TOWNNAME":"麻豆區","LI":"大山里","LIN":"2鄰","STREET":" ","SECT":" ","MAREA":"大山\u25A0","LANE":" ","ALLEY":" ","HOUSE_NO":"２０號之６０","E_COORD97":170023.85999999999,"N_COORD97":2565547.2000000002,"ADDRESS":"大山\u25A0２０號之６０","OBJECTID":120546},"geometry":{"x":170023.86000000127,"y":2565547.1999999993}},{"attributes":{"ID":120547,"DIS_CODE":0,"TOWNNAME":"麻豆區","LI":"大山里","LIN":"2鄰","STREET":" ","SECT":" ","MAREA":"大山\u25A0","LANE":" ","ALLEY":" ","HOUSE_NO":"２０號","E_COORD97":170112.17000000001,"N_COORD97":2565927.9700000002,"ADDRESS":"大山\u25A0２０號","OBJECTID":120547},"geometry":{"x":170112.16999999993,"y":2565927.9700000025}},{"attributes":{"ID":120548,"DIS_CODE":0,"TOWNNAME":"麻豆區","LI":"大山里","LIN":"2鄰","STREET":" ","SECT":" ","MAREA":"大山\u25A0","LANE":" ","ALLEY":" ","HOUSE_NO":"２３號之１０","E_COORD97":169953.60000000001,"N_COORD97":2565933.0899999999,"ADDRESS":"大山\u25A0２３號之１０","OBJECTID":120548},"geometry":{"x":169953.60000000056,"y":2565933.0900000017}},{"attributes":{"ID":120549,"DIS_CODE":0,"TOWNNAME":"麻豆區","LI":"大山里","LIN":"2鄰","STREET":" ","SECT":" ","MAREA":"大山\u25A0","LANE":" ","ALLEY":" ","HOUSE_NO":"２３號之１６","E_COORD97":169999.82999999999,"N_COORD97":2565957.0499999998,"ADDRESS":"大山\u25A0２３號之１６","OBJECTID":120549},"geometry":{"x":169999.83000000101,"y":2565957.0500000045}},{"attributes":{"ID":120550,"DIS_CODE":0,"TOWNNAME":"麻豆區","LI":"大山里","LIN":"2鄰","STREET":" ","SECT":" ","MAREA":"大山\u25A0","LANE":" ","ALLEY":" ","HOUSE_NO":"２３號之１８","E_COORD97":169996.32999999999,"N_COORD97":2565976.6899999999,"ADDRESS":"大山\u25A0２３號之１８","OBJECTID":120550},"geometry":{"x":169996.33000000101,"y":2565976.6900000013}},{"attributes":{"ID":120551,"DIS_CODE":0,"TOWNNAME":"南區","LI":"明亮里","LIN":"16鄰","STREET":"金華路","SECT":"一段","MAREA":" ","LANE":"３５２巷","ALLEY":"１１１弄","HOUSE_NO":"１２號之１３","E_COORD97":167327.54999999999,"N_COORD97":2541031.7000000002,"ADDRESS":"金華路一段３５２巷１１１弄１２號之１３","OBJECTID":120551},"geometry":{"x":167327.54999999981,"y":2541031.700000003}},{"attributes":{"ID":120552,"DIS_CODE":0,"TOWNNAME":"南區","LI":"明亮里","LIN":"16鄰","STREET":"金華路","SECT":"一段","MAREA":" ","LANE":"３５２巷","ALLEY":"１１１弄","HOUSE_NO":"１２號之１４","E_COORD97":167328.35999999999,"N_COORD97":2541026.8799999999,"ADDRESS":"金華路一段３５２巷１１１弄１２號之１４","OBJECTID":120552},"geometry":{"x":167328.36000000127,"y":2541026.8800000027}},{"attributes":{"ID":120553,"DIS_CODE":0,"TOWNNAME":"南區","LI":"明亮里","LIN":"16鄰","STREET":"金華路","SECT":"一段","MAREA":" ","LANE":"３５２巷","ALLEY":"１１１弄","HOUSE_NO":"１３號","E_COORD97":167296.54999999999,"N_COORD97":2541089.2400000002,"ADDRESS":"金華路一段３５２巷１１１弄１３號","OBJECTID":120553},"geometry":{"x":167296.54999999981,"y":2541089.2400000002}},{"attributes":{"ID":120554,"DIS_CODE":0,"TOWNNAME":"南區","LI":"明亮里","LIN":"16鄰","STREET":"金華路","SECT":"一段","MAREA":" ","LANE":"３５２巷","ALLEY":"１１１弄","HOUSE_NO":"１４號","E_COORD97":167319.92000000001,"N_COORD97":2541084.2599999998,"ADDRESS":"金華路一段３５２巷１１１弄１４號","OBJECTID":120554},"geometry":{"x":167319.91999999993,"y":2541084.2600000016}},{"attributes":{"ID":120555,"DIS_CODE":0,"TOWNNAME":"南區","LI":"明亮里","LIN":"16鄰","STREET":"金華路","SECT":"一段","MAREA":" ","LANE":"３５２巷","ALLEY":"１１１弄","HOUSE_NO":"１５號","E_COORD97":167305.39000000001,"N_COORD97":2541094.46,"ADDRESS":"金華路一段３５２巷１１１弄１５號","OBJECTID":120555},"geometry":{"x":167305.3900000006,"y":2541094.4600000028}},{"attributes":{"ID":120556,"DIS_CODE":0,"TOWNNAME":"南區","LI":"明亮里","LIN":"16鄰","STREET":"金華路","SECT":"一段","MAREA":" ","LANE":"３５２巷","ALLEY":"１１１弄","HOUSE_NO":"１６號","E_COORD97":167323.54000000001,"N_COORD97":2541087.0699999998,"ADDRESS":"金華路一段３５２巷１１１弄１６號","OBJECTID":120556},"geometry":{"x":167323.54000000097,"y":2541087.0700000003}},{"attributes":{"ID":120557,"DIS_CODE":0,"TOWNNAME":"南區","LI":"明亮里","LIN":"16鄰","STREET":"金華路","SECT":"一段","MAREA":" ","LANE":"３５２巷","ALLEY":"１１１弄","HOUSE_NO":"１７號","E_COORD97":167314.23000000001,"N_COORD97":2541096.8599999999,"ADDRESS":"金華路一段３５２巷１１１弄１７號","OBJECTID":120557},"geometry":{"x":167314.23000000138,"y":2541096.8600000013}},{"attributes":{"ID":120558,"DIS_CODE":0,"TOWNNAME":"南區","LI":"明亮里","LIN":"16鄰","STREET":"金華路","SECT":"一段","MAREA":" ","LANE":"３５２巷","ALLEY":"１１１弄","HOUSE_NO":"１８號","E_COORD97":167327.14999999999,"N_COORD97":2541087.8700000001,"ADDRESS":"金華路一段３５２巷１１１弄１８號","OBJECTID":120558},"geometry":{"x":167327.15000000037,"y":2541087.8700000029}},{"attributes":{"ID":120559,"DIS_CODE":0,"TOWNNAME":"南區","LI":"明亮里","LIN":"16鄰","STREET":"金華路","SECT":"一段","MAREA":" ","LANE":"３５２巷","ALLEY":"１１１弄","HOUSE_NO":"１９號","E_COORD97":167319.45000000001,"N_COORD97":2541100.0699999998,"ADDRESS":"金華路一段３５２巷１１１弄１９號","OBJECTID":120559},"geometry":{"x":167319.45000000112,"y":2541100.0700000003}},{"attributes":{"ID":120560,"DIS_CODE":0,"TOWNNAME":"南區","LI":"明亮里","LIN":"16鄰","STREET":"金華路","SECT":"一段","MAREA":" ","LANE":"３５２巷","ALLEY":"１１１弄","HOUSE_NO":"２０號","E_COORD97":167336.39000000001,"N_COORD97":2541073.4300000002,"ADDRESS":"金華路一段３５２巷１１１弄２０號","OBJECTID":120560},"geometry":{"x":167336.3900000006,"y":2541073.4299999997}},{"attributes":{"ID":120561,"DIS_CODE":0,"TOWNNAME":"南區","LI":"明亮里","LIN":"16鄰","STREET":"金華路","SECT":"一段","MAREA":" ","LANE":"３５２巷","ALLEY":"１１１弄","HOUSE_NO":"２２號","E_COORD97":167338.39999999999,"N_COORD97":2541068.6099999999,"ADDRESS":"金華路一段３５２巷１１１弄２２號","OBJECTID":120561},"geometry":{"x":167338.4000000013,"y":2541068.6099999994}},{"attributes":{"ID":120562,"DIS_CODE":0,"TOWNNAME":"南區","LI":"明亮里","LIN":"16鄰","STREET":"金華路","SECT":"一段","MAREA":" ","LANE":"３５２巷","ALLEY":"１１１弄","HOUSE_NO":"２３號","E_COORD97":167330.29999999999,"N_COORD97":2541106.8900000001,"ADDRESS":"金華路一段３５２巷１１１弄２３號","OBJECTID":120562},"geometry":{"x":167330.30000000075,"y":2541106.8900000025}},{"attributes":{"ID":120563,"DIS_CODE":0,"TOWNNAME":"南區","LI":"明亮里","LIN":"16鄰","STREET":"金華路","SECT":"一段","MAREA":" ","LANE":"３５２巷","ALLEY":"１１１弄","HOUSE_NO":"２４號","E_COORD97":167340.41,"N_COORD97":2541063.7999999998,"ADDRESS":"金華路一段３５２巷１１１弄２４號","OBJECTID":120563},"geometry":{"x":167340.41000000015,"y":2541063.8000000026}},{"attributes":{"ID":120564,"DIS_CODE":0,"TOWNNAME":"南區","LI":"明亮里","LIN":"16鄰","STREET":"金華路","SECT":"一段","MAREA":" ","LANE":"３５２巷","ALLEY":"１１１弄","HOUSE_NO":"２６號","E_COORD97":167343.63,"N_COORD97":2541058.1800000002,"ADDRESS":"金華路一段３５２巷１１１弄２６號","OBJECTID":120564},"geometry":{"x":167343.62999999989,"y":2541058.1799999997}},{"attributes":{"ID":120565,"DIS_CODE":0,"TOWNNAME":"南區","LI":"明亮里","LIN":"16鄰","STREET":"金華路","SECT":"一段","MAREA":" ","LANE":"３５２巷","ALLEY":"１１１弄","HOUSE_NO":"２８號","E_COORD97":167346.44,"N_COORD97":2541053.3700000001,"ADDRESS":"金華路一段３５２巷１１１弄２８號","OBJECTID":120565},"geometry":{"x":167346.44000000134,"y":2541053.3700000029}},{"attributes":{"ID":120566,"DIS_CODE":0,"TOWNNAME":"南區","LI":"明亮里","LIN":"16鄰","STREET":"金華路","SECT":"一段","MAREA":" ","LANE":"３５２巷","ALLEY":"１１１弄","HOUSE_NO":"３０號","E_COORD97":167349.64999999999,"N_COORD97":2541044.9399999999,"ADDRESS":"金華路一段３５２巷１１１弄３０號","OBJECTID":120566},"geometry":{"x":167349.65000000037,"y":2541044.9400000013}},{"attributes":{"ID":120567,"DIS_CODE":0,"TOWNNAME":"將軍區","LI":"西華里","LIN":" ","STREET":" ","SECT":" ","MAREA":"西華","LANE":" ","ALLEY":" ","HOUSE_NO":"３８號","E_COORD97":163829.35000000001,"N_COORD97":2566399.8700000001,"ADDRESS":"西華３８號","OBJECTID":120567},"geometry":{"x":163829.34999999963,"y":2566399.8700000029}},{"attributes":{"ID":120568,"DIS_CODE":0,"TOWNNAME":"南區","LI":"明亮里","LIN":"16鄰","STREET":"金華路","SECT":"一段","MAREA":" ","LANE":"３５２巷","ALLEY":"１１１弄","HOUSE_NO":"３２號","E_COORD97":167362.10999999999,"N_COORD97":2541049.75,"ADDRESS":"金華路一段３５２巷１１１弄３２號","OBJECTID":120568},"geometry":{"x":167362.11000000127,"y":2541049.7500000019}},{"attributes":{"ID":120569,"DIS_CODE":0,"TOWNNAME":"安南區","LI":" ","LIN":" ","STREET":"安通路","SECT":"五段","MAREA":" ","LANE":" ","ALLEY":" ","HOUSE_NO":"８１之９８號","E_COORD97":168298.47,"N_COORD97":2547809.2400000002,"ADDRESS":"安通路五段８１之９８號","OBJECTID":120569},"geometry":{"x":168298.47000000067,"y":2547809.2400000002}},{"attributes":{"ID":120570,"DIS_CODE":0,"TOWNNAME":"安南區","LI":" ","LIN":" ","STREET":"安通路","SECT":"五段","MAREA":" ","LANE":" ","ALLEY":" ","HOUSE_NO":"８１之９９號","E_COORD97":168294.82000000001,"N_COORD97":2547809.0800000001,"ADDRESS":"安通路五段８１之９９號","OBJECTID":120570},"geometry":{"x":168294.82000000123,"y":2547809.0800000019}},{"attributes":{"ID":120571,"DIS_CODE":0,"TOWNNAME":"安南區","LI":"安慶里","LIN":"13鄰","STREET":"培安路","SECT":" ","MAREA":" ","LANE":" ","ALLEY":" ","HOUSE_NO":"３６３號","E_COORD97":169383.64000000001,"N_COORD97":2548704.3300000001,"ADDRESS":"培安路３６３號","OBJECTID":120571},"geometry":{"x":169383.6400000006,"y":2548704.3300000038}},{"attributes":{"ID":120572,"DIS_CODE":0,"TOWNNAME":"南區","LI":"明亮里","LIN":"16鄰","STREET":"金華路","SECT":"一段","MAREA":" ","LANE":"３５２巷","ALLEY":"１１１弄","HOUSE_NO":"３４號","E_COORD97":167358.09,"N_COORD97":2541053.3700000001,"ADDRESS":"金華路一段３５２巷１１１弄３４號","OBJECTID":120572},"geometry":{"x":167358.08999999892,"y":2541053.3700000029}},{"attributes":{"ID":120573,"DIS_CODE":0,"TOWNNAME":"南區","LI":"明亮里","LIN":"16鄰","STREET":"金華路","SECT":"一段","MAREA":" ","LANE":"３５２巷","ALLEY":"１１１弄","HOUSE_NO":"３６號","E_COORD97":167356.89000000001,"N_COORD97":2541058.1800000002,"ADDRESS":"金華路一段３５２巷１１１弄３６號","OBJECTID":120573},"geometry":{"x":167356.88999999966,"y":2541058.1799999997}},{"attributes":{"ID":120574,"DIS_CODE":0,"TOWNNAME":"南區","LI":"明亮里","LIN":"16鄰","STREET":"金華路","SECT":"一段","MAREA":" ","LANE":"３５２巷","ALLEY":"１１１弄","HOUSE_NO":"３８號","E_COORD97":167354.88,"N_COORD97":2541061.79,"ADDRESS":"金華路一段３５２巷１１１弄３８號","OBJECTID":120574},"geometry":{"x":167354.88000000082,"y":2541061.7900000028}},{"attributes":{"ID":120575,"DIS_CODE":0,"TOWNNAME":"南區","LI":"明亮里","LIN":"16鄰","STREET":"金華路","SECT":"一段","MAREA":" ","LANE":"３５２巷","ALLEY":"１１１弄","HOUSE_NO":"４０號","E_COORD97":167352.47,"N_COORD97":2541065.7999999998,"ADDRESS":"金華路一段３５２巷１１１弄４０號","OBJECTID":120575},"geometry":{"x":167352.47000000067,"y":2541065.8000000007}},{"attributes":{"ID":120576,"DIS_CODE":0,"TOWNNAME":"南區","LI":"明亮里","LIN":"16鄰","STREET":"金華路","SECT":"一段","MAREA":" ","LANE":"３５２巷","ALLEY":"１１１弄","HOUSE_NO":"４２號","E_COORD97":167350.04999999999,"N_COORD97":2541069.8100000001,"ADDRESS":"金華路一段３５２巷１１１弄４２號","OBJECTID":120576},"geometry":{"x":167350.05000000168,"y":2541069.8100000042}},{"attributes":{"ID":120577,"DIS_CODE":0,"TOWNNAME":"安南區","LI":"海西里","LIN":"9鄰","STREET":"海中街","SECT":" ","MAREA":" ","LANE":"７７巷","ALLEY":" ","HOUSE_NO":"９７號","E_COORD97":166235.70000000001,"N_COORD97":2548785.77,"ADDRESS":"海中街７７巷９７號","OBJECTID":120577},"geometry":{"x":166235.70000000112,"y":2548785.7700000014}},{"attributes":{"ID":120578,"DIS_CODE":0,"TOWNNAME":"安南區","LI":"安慶里","LIN":"13鄰","STREET":"培安路","SECT":" ","MAREA":" ","LANE":" ","ALLEY":" ","HOUSE_NO":"４９８號","E_COORD97":169372.67999999999,"N_COORD97":2548565.1000000001,"ADDRESS":"培安路４９８號","OBJECTID":120578},"geometry":{"x":169372.6799999997,"y":2548565.0999999996}},{"attributes":{"ID":120579,"DIS_CODE":0,"TOWNNAME":"東區","LI":"南聖里","LIN":"9鄰","STREET":"裕和路","SECT":" ","MAREA":" ","LANE":" ","ALLEY":" ","HOUSE_NO":"９３號","E_COORD97":172131.29000000001,"N_COORD97":2543144.9500000002,"ADDRESS":"裕和路９３號","OBJECTID":120579},"geometry":{"x":172131.29000000097,"y":2543144.9499999993}},{"attributes":{"ID":120580,"DIS_CODE":0,"TOWNNAME":"南區","LI":"明亮里","LIN":"16鄰","STREET":"金華路","SECT":"一段","MAREA":" ","LANE":"３５２巷","ALLEY":"１１１弄","HOUSE_NO":"４４號","E_COORD97":167346.84,"N_COORD97":2541073.8300000001,"ADDRESS":"金華路一段３５２巷１１１弄４４號","OBJECTID":120580},"geometry":{"x":167346.84000000078,"y":2541073.8300000019}},{"attributes":{"ID":120581,"DIS_CODE":0,"TOWNNAME":"南區","LI":"明亮里","LIN":"16鄰","STREET":"金華路","SECT":"一段","MAREA":" ","LANE":"３５２巷","ALLEY":"１１１弄","HOUSE_NO":"４６號","E_COORD97":167344.42999999999,"N_COORD97":2541078.2400000002,"ADDRESS":"金華路一段３５２巷１１１弄４６號","OBJECTID":120581},"geometry":{"x":167344.43000000063,"y":2541078.2400000021}},{"attributes":{"ID":120582,"DIS_CODE":0,"TOWNNAME":"南區","LI":"明亮里","LIN":"16鄰","STREET":"金華路","SECT":"一段","MAREA":" ","LANE":"３５２巷","ALLEY":"１１１弄","HOUSE_NO":"４８號","E_COORD97":167342.42000000001,"N_COORD97":2541082.2599999998,"ADDRESS":"金華路一段３５２巷１１１弄４８號","OBJECTID":120582},"geometry":{"x":167342.42000000179,"y":2541082.2599999998}},{"attributes":{"ID":120583,"DIS_CODE":0,"TOWNNAME":"南區","LI":"明亮里","LIN":"16鄰","STREET":"金華路","SECT":"一段","MAREA":" ","LANE":"３５２巷","ALLEY":"１１１弄","HOUSE_NO":"５０號","E_COORD97":167335.98999999999,"N_COORD97":2541094.7000000002,"ADDRESS":"金華路一段３５２巷１１１弄５０號","OBJECTID":120583},"geometry":{"x":167335.99000000115,"y":2541094.6999999993}},{"attributes":{"ID":120584,"DIS_CODE":0,"TOWNNAME":"永康區","LI":"埔園里","LIN":"31鄰","STREET":"八德街","SECT":" ","MAREA":" ","LANE":" ","ALLEY":" ","HOUSE_NO":"１７２號","E_COORD97":173913.64999999999,"N_COORD97":2548561.7400000002,"ADDRESS":"八德街１７２號","OBJECTID":120584},"geometry":{"x":173913.65000000224,"y":2548561.7400000002}},{"attributes":{"ID":120585,"DIS_CODE":0,"TOWNNAME":"南區","LI":"明亮里","LIN":"16鄰","STREET":"金華路","SECT":"一段","MAREA":" ","LANE":"３５２巷","ALLEY":"１１１弄","HOUSE_NO":"５２號","E_COORD97":167339.20999999999,"N_COORD97":2541097.1000000001,"ADDRESS":"金華路一段３５２巷１１１弄５２號","OBJECTID":120585},"geometry":{"x":167339.21000000089,"y":2541097.0999999978}},{"attributes":{"ID":120586,"DIS_CODE":0,"TOWNNAME":"麻豆區","LI":"大山里","LIN":"2鄰","STREET":" ","SECT":" ","MAREA":"大山\u25A0","LANE":" ","ALLEY":" ","HOUSE_NO":"２３號之１","E_COORD97":170119.38,"N_COORD97":2565950.5,"ADDRESS":"大山\u25A0２３號之１","OBJECTID":120586},"geometry":{"x":170119.38000000175,"y":2565950.5000000019}},{"attributes":{"ID":120587,"DIS_CODE":0,"TOWNNAME":"麻豆區","LI":"大山里","LIN":"2鄰","STREET":" ","SECT":" ","MAREA":"大山\u25A0","LANE":" ","ALLEY":" ","HOUSE_NO":"２３號之２","E_COORD97":170120.64999999999,"N_COORD97":2565964.6000000001,"ADDRESS":"大山\u25A0２３號之２","OBJECTID":120587},"geometry":{"x":170120.65000000037,"y":2565964.5999999996}},{"attributes":{"ID":120588,"DIS_CODE":0,"TOWNNAME":"永康區","LI":"埔園里","LIN":"31鄰","STREET":"八德街","SECT":" ","MAREA":" ","LANE":" ","ALLEY":" ","HOUSE_NO":"１７６號","E_COORD97":173908.78,"N_COORD97":2548568.27,"ADDRESS":"八德街１７６號","OBJECTID":120588},"geometry":{"x":173908.78000000026,"y":2548568.2699999977}},{"attributes":{"ID":120589,"DIS_CODE":0,"TOWNNAME":"永康區","LI":"埔園里","LIN":"31鄰","STREET":"八德街","SECT":" ","MAREA":" ","LANE":" ","ALLEY":" ","HOUSE_NO":"１７８號","E_COORD97":173904.26000000001,"N_COORD97":2548568.8700000001,"ADDRESS":"八德街１７８號","OBJECTID":120589},"geometry":{"x":173904.26000000071,"y":2548568.870000001}},{"attributes":{"ID":120590,"DIS_CODE":0,"TOWNNAME":"永康區","LI":"埔園里","LIN":"31鄰","STREET":"八德街","SECT":" ","MAREA":" ","LANE":" ","ALLEY":" ","HOUSE_NO":"１８０號","E_COORD97":173899.22,"N_COORD97":2548565.79,"ADDRESS":"八德街１８０號","OBJECTID":120590},"geometry":{"x":173899.22000000067,"y":2548565.790000001}},{"attributes":{"ID":120591,"DIS_CODE":0,"TOWNNAME":"南區","LI":"明亮里","LIN":"16鄰","STREET":"金華路","SECT":"一段","MAREA":" ","LANE":"３５２巷","ALLEY":"１１１弄","HOUSE_NO":"５４號","E_COORD97":167344.03,"N_COORD97":2541100.3100000001,"ADDRESS":"金華路一段３５２巷１１１弄５４號","OBJECTID":120591},"geometry":{"x":167344.03000000119,"y":2541100.3100000042}},{"attributes":{"ID":120592,"DIS_CODE":0,"TOWNNAME":"永康區","LI":"埔園里","LIN":"31鄰","STREET":"八德街","SECT":" ","MAREA":" ","LANE":" ","ALLEY":" ","HOUSE_NO":"１８２號","E_COORD97":173896.10000000001,"N_COORD97":2548573.9399999999,"ADDRESS":"八德街１８２號","OBJECTID":120592},"geometry":{"x":173896.0999999987,"y":2548573.9400000032}},{"attributes":{"ID":120593,"DIS_CODE":0,"TOWNNAME":"南區","LI":"明亮里","LIN":"16鄰","STREET":"金華路","SECT":"一段","MAREA":" ","LANE":"３５２巷","ALLEY":"１１１弄","HOUSE_NO":"６６號","E_COORD97":167388.63,"N_COORD97":2541125.9900000002,"ADDRESS":"金華路一段３５２巷１１１弄６６號","OBJECTID":120593},"geometry":{"x":167388.63000000082,"y":2541125.9900000039}},{"attributes":{"ID":120594,"DIS_CODE":0,"TOWNNAME":"永康區","LI":"埔園里","LIN":"31鄰","STREET":"八德街","SECT":" ","MAREA":" ","LANE":" ","ALLEY":" ","HOUSE_NO":"１８６號","E_COORD97":173889.89999999999,"N_COORD97":2548571.4100000001,"ADDRESS":"八德街１８６號","OBJECTID":120594},"geometry":{"x":173889.90000000224,"y":2548571.4100000039}},{"attributes":{"ID":120595,"DIS_CODE":0,"TOWNNAME":"麻豆區","LI":"大山里","LIN":"2鄰","STREET":" ","SECT":" ","MAREA":"大山\u25A0","LANE":" ","ALLEY":" ","HOUSE_NO":"２３號","E_COORD97":170133.29000000001,"N_COORD97":2565955.46,"ADDRESS":"大山\u25A0２３號","OBJECTID":120595},"geometry":{"x":170133.29000000004,"y":2565955.4600000028}},{"attributes":{"ID":120596,"DIS_CODE":0,"TOWNNAME":"麻豆區","LI":"大山里","LIN":" ","STREET":" ","SECT":" ","MAREA":"大山\u25A0","LANE":" ","ALLEY":" ","HOUSE_NO":"３６號","E_COORD97":170209.53,"N_COORD97":2566103.2000000002,"ADDRESS":"大山\u25A0３６號","OBJECTID":120596},"geometry":{"x":170209.53000000026,"y":2566103.1999999993}},{"attributes":{"ID":120597,"DIS_CODE":0,"TOWNNAME":"新化區","LI":"東榮里","LIN":"31鄰","STREET":"中正路","SECT":" ","MAREA":" ","LANE":" ","ALLEY":" ","HOUSE_NO":"３４８號","E_COORD97":179116.51000000001,"N_COORD97":2548309.25,"ADDRESS":"中正路３４８號","OBJECTID":120597},"geometry":{"x":179116.51000000164,"y":2548309.2500000019}},{"attributes":{"ID":120598,"DIS_CODE":0,"TOWNNAME":"麻豆區","LI":"大山里","LIN":" ","STREET":" ","SECT":" ","MAREA":"大山\u25A0","LANE":" ","ALLEY":" ","HOUSE_NO":"４７之７號","E_COORD97":170356.38,"N_COORD97":2566023.8999999999,"ADDRESS":"大山\u25A0４７之７號","OBJECTID":120598},"geometry":{"x":170356.37999999989,"y":2566023.9000000004}},{"attributes":{"ID":120599,"DIS_CODE":0,"TOWNNAME":"麻豆區","LI":"大山里","LIN":" ","STREET":" ","SECT":" ","MAREA":"大山\u25A0","LANE":" ","ALLEY":" ","HOUSE_NO":"５０之１號","E_COORD97":170255.85999999999,"N_COORD97":2566236.8500000001,"ADDRESS":"大山\u25A0５０之１號","OBJECTID":120599},"geometry":{"x":170255.86000000127,"y":2566236.8500000015}},{"attributes":{"ID":120600,"DIS_CODE":0,"TOWNNAME":"永康區","LI":"大灣里","LIN":"31鄰","STREET":"文賢街","SECT":" ","MAREA":" ","LANE":" ","ALLEY":" ","HOUSE_NO":"６０號","E_COORD97":175318.29000000001,"N_COORD97":2545058.8300000001,"ADDRESS":"文賢街６０號","OBJECTID":120600},"geometry":{"x":175318.29000000097,"y":2545058.8300000001}}]}