{"displayFieldName":"TOWNNAME","fieldAliases":{"ID":"ID","DIS_CODE":"DIS_CODE","TOWNNAME":"TOWNNAME","LI":"LI","LIN":"LIN","STREET":"STREET","SECT":"SECT","MAREA":"MAREA","LANE":"LANE","ALLEY":"ALLEY","HOUSE_NO":"HOUSE_NO","E_COORD97":"E_COORD97","N_COORD97":"N_COORD97","ADDRESS":"ADDRESS","OBJECTID":"OBJECTID"},"geometryType":"esriGeometryPoint","spatialReference":{"wkid":102443,"latestWkid":3826},"fields":[{"name":"ID","type":"esriFieldTypeDouble","alias":"ID"},{"name":"DIS_CODE","type":"esriFieldTypeInteger","alias":"DIS_CODE"},{"name":"TOWNNAME","type":"esriFieldTypeString","alias":"TOWNNAME","length":8},{"name":"LI","type":"esriFieldTypeString","alias":"LI","length":8},{"name":"LIN","type":"esriFieldTypeString","alias":"LIN","length":12},{"name":"STREET","type":"esriFieldTypeString","alias":"STREET","length":20},{"name":"SECT","type":"esriFieldTypeString","alias":"SECT","length":8},{"name":"MAREA","type":"esriFieldTypeString","alias":"MAREA","length":12},{"name":"LANE","type":"esriFieldTypeString","alias":"LANE","length":10},{"name":"ALLEY","type":"esriFieldTypeString","alias":"ALLEY","length":10},{"name":"HOUSE_NO","type":"esriFieldTypeString","alias":"HOUSE_NO","length":20},{"name":"E_COORD97","type":"esriFieldTypeDouble","alias":"E_COORD97"},{"name":"N_COORD97","type":"esriFieldTypeDouble","alias":"N_COORD97"},{"name":"ADDRESS","type":"esriFieldTypeString","alias":"ADDRESS","length":50},{"name":"OBJECTID","type":"esriFieldTypeOID","alias":"OBJECTID"}],"features":[{"attributes":{"ID":558628,"DIS_CODE":0,"TOWNNAME":"中西區","LI":"光賢里","LIN":"9鄰","STREET":"和善街","SECT":" ","MAREA":" ","LANE":" ","ALLEY":" ","HOUSE_NO":"１２６號","E_COORD97":166892.63,"N_COORD97":2544838.7400000002,"ADDRESS":"和善街１２６號","OBJECTID":558601},"geometry":{"x":166892.62999999989,"y":2544838.7400000002}},{"attributes":{"ID":558629,"DIS_CODE":0,"TOWNNAME":"中西區","LI":"光賢里","LIN":"9鄰","STREET":"和善街","SECT":" ","MAREA":" ","LANE":" ","ALLEY":" ","HOUSE_NO":"１２８號","E_COORD97":166888.91,"N_COORD97":2544841.6800000002,"ADDRESS":"和善街１２８號","OBJECTID":558602},"geometry":{"x":166888.91000000108,"y":2544841.6799999997}},{"attributes":{"ID":558630,"DIS_CODE":0,"TOWNNAME":"中西區","LI":"光賢里","LIN":"9鄰","STREET":"和善街","SECT":" ","MAREA":" ","LANE":" ","ALLEY":" ","HOUSE_NO":"１３０號","E_COORD97":166885.10000000001,"N_COORD97":2544844.8500000001,"ADDRESS":"和善街１３０號","OBJECTID":558603},"geometry":{"x":166885.10000000056,"y":2544844.8499999996}},{"attributes":{"ID":558631,"DIS_CODE":0,"TOWNNAME":"中西區","LI":"光賢里","LIN":"9鄰","STREET":"和善街","SECT":" ","MAREA":" ","LANE":" ","ALLEY":" ","HOUSE_NO":"１３２號","E_COORD97":166881.70999999999,"N_COORD97":2544848.0299999998,"ADDRESS":"和善街１３２號","OBJECTID":558604},"geometry":{"x":166881.71000000089,"y":2544848.0300000012}},{"attributes":{"ID":558632,"DIS_CODE":0,"TOWNNAME":"中西區","LI":"光賢里","LIN":"9鄰","STREET":"和善街","SECT":" ","MAREA":" ","LANE":" ","ALLEY":" ","HOUSE_NO":"１３４號","E_COORD97":166878.10999999999,"N_COORD97":2544850.7799999998,"ADDRESS":"和善街１３４號","OBJECTID":558605},"geometry":{"x":166878.11000000034,"y":2544850.7799999993}},{"attributes":{"ID":558633,"DIS_CODE":0,"TOWNNAME":"東區","LI":"忠孝里","LIN":"24鄰","STREET":"崇明五街","SECT":" ","MAREA":" ","LANE":" ","ALLEY":" ","HOUSE_NO":"２１號","E_COORD97":169622.67999999999,"N_COORD97":2542253.8399999999,"ADDRESS":"崇明五街２１號","OBJECTID":558606},"geometry":{"x":169622.68000000063,"y":2542253.8399999999}},{"attributes":{"ID":558634,"DIS_CODE":0,"TOWNNAME":"東區","LI":"忠孝里","LIN":"24鄰","STREET":"崇明五街","SECT":" ","MAREA":" ","LANE":" ","ALLEY":" ","HOUSE_NO":"３５號","E_COORD97":169673.06,"N_COORD97":2542265.5099999998,"ADDRESS":"崇明五街３５號","OBJECTID":558607},"geometry":{"x":169673.05999999959,"y":2542265.5100000016}},{"attributes":{"ID":558635,"DIS_CODE":0,"TOWNNAME":"南區","LI":"大忠里","LIN":"3鄰","STREET":"公英一街","SECT":" ","MAREA":" ","LANE":" ","ALLEY":" ","HOUSE_NO":"５號","E_COORD97":169478.29999999999,"N_COORD97":2541275.8500000001,"ADDRESS":"公英一街５號","OBJECTID":558608},"geometry":{"x":169478.29999999981,"y":2541275.8500000015}},{"attributes":{"ID":558636,"DIS_CODE":0,"TOWNNAME":"中西區","LI":"光賢里","LIN":"9鄰","STREET":"和善街","SECT":" ","MAREA":" ","LANE":" ","ALLEY":" ","HOUSE_NO":"１３６號","E_COORD97":166874.70999999999,"N_COORD97":2544853.71,"ADDRESS":"和善街１３６號","OBJECTID":558609},"geometry":{"x":166874.71000000089,"y":2544853.7100000009}},{"attributes":{"ID":558637,"DIS_CODE":0,"TOWNNAME":"中西區","LI":"光賢里","LIN":"9鄰","STREET":"和善街","SECT":" ","MAREA":" ","LANE":" ","ALLEY":" ","HOUSE_NO":"１３８號","E_COORD97":166871.78,"N_COORD97":2544856.3100000001,"ADDRESS":"和善街１３８號","OBJECTID":558610},"geometry":{"x":166871.78000000026,"y":2544856.3100000005}},{"attributes":{"ID":558638,"DIS_CODE":0,"TOWNNAME":"中西區","LI":"光賢里","LIN":"9鄰","STREET":"和善街","SECT":" ","MAREA":" ","LANE":" ","ALLEY":" ","HOUSE_NO":"１４０號","E_COORD97":166867.53,"N_COORD97":2544859.46,"ADDRESS":"和善街１４０號","OBJECTID":558611},"geometry":{"x":166867.53000000212,"y":2544859.4600000046}},{"attributes":{"ID":558639,"DIS_CODE":0,"TOWNNAME":"中西區","LI":"光賢里","LIN":"9鄰","STREET":"和善街","SECT":" ","MAREA":" ","LANE":" ","ALLEY":" ","HOUSE_NO":"１４２號","E_COORD97":166863.92999999999,"N_COORD97":2544862.21,"ADDRESS":"和善街１４２號","OBJECTID":558612},"geometry":{"x":166863.9299999997,"y":2544862.2100000028}},{"attributes":{"ID":558640,"DIS_CODE":0,"TOWNNAME":"中西區","LI":"光賢里","LIN":"9鄰","STREET":"和善街","SECT":" ","MAREA":" ","LANE":" ","ALLEY":" ","HOUSE_NO":"１４４號","E_COORD97":166860.32999999999,"N_COORD97":2544864.75,"ADDRESS":"和善街１４４號","OBJECTID":558613},"geometry":{"x":166860.33000000101,"y":2544864.7500000019}},{"attributes":{"ID":558641,"DIS_CODE":0,"TOWNNAME":"中西區","LI":"光賢里","LIN":"9鄰","STREET":"和善街","SECT":" ","MAREA":" ","LANE":" ","ALLEY":" ","HOUSE_NO":"１４６號","E_COORD97":166856.31,"N_COORD97":2544867.71,"ADDRESS":"和善街１４６號","OBJECTID":558614},"geometry":{"x":166856.31000000145,"y":2544867.709999999}},{"attributes":{"ID":558642,"DIS_CODE":0,"TOWNNAME":"中西區","LI":"光賢里","LIN":"9鄰","STREET":"和善街","SECT":" ","MAREA":" ","LANE":" ","ALLEY":" ","HOUSE_NO":"９２號","E_COORD97":166958.12,"N_COORD97":2544785.3700000001,"ADDRESS":"和善街９２號","OBJECTID":558615},"geometry":{"x":166958.12000000197,"y":2544785.370000001}},{"attributes":{"ID":558643,"DIS_CODE":0,"TOWNNAME":"中西區","LI":"光賢里","LIN":"9鄰","STREET":"和善街","SECT":" ","MAREA":" ","LANE":" ","ALLEY":" ","HOUSE_NO":"９４號","E_COORD97":166954.10000000001,"N_COORD97":2544788.3399999999,"ADDRESS":"和善街９４號","OBJECTID":558616},"geometry":{"x":166954.09999999963,"y":2544788.3400000017}},{"attributes":{"ID":558644,"DIS_CODE":0,"TOWNNAME":"中西區","LI":"光賢里","LIN":"9鄰","STREET":"和善街","SECT":" ","MAREA":" ","LANE":" ","ALLEY":" ","HOUSE_NO":"９６號","E_COORD97":166950.70999999999,"N_COORD97":2544790.8799999999,"ADDRESS":"和善街９６號","OBJECTID":558617},"geometry":{"x":166950.71000000183,"y":2544790.8800000008}},{"attributes":{"ID":558645,"DIS_CODE":0,"TOWNNAME":"中西區","LI":"民主里","LIN":"9鄰","STREET":"大智街","SECT":" ","MAREA":" ","LANE":" ","ALLEY":" ","HOUSE_NO":"５６號","E_COORD97":167306.63,"N_COORD97":2543589.4500000002,"ADDRESS":"大智街５６號","OBJECTID":558618},"geometry":{"x":167306.62999999989,"y":2543589.4499999993}},{"attributes":{"ID":558646,"DIS_CODE":0,"TOWNNAME":"中西區","LI":"民主里","LIN":"9鄰","STREET":"大智街","SECT":" ","MAREA":" ","LANE":" ","ALLEY":" ","HOUSE_NO":"５６號之１","E_COORD97":167305.85000000001,"N_COORD97":2543585.0299999998,"ADDRESS":"大智街５６號之１","OBJECTID":558619},"geometry":{"x":167305.85000000056,"y":2543585.0299999993}},{"attributes":{"ID":558647,"DIS_CODE":0,"TOWNNAME":"中西區","LI":"民主里","LIN":"9鄰","STREET":"金華路","SECT":"三段","MAREA":" ","LANE":" ","ALLEY":" ","HOUSE_NO":"１０８號","E_COORD97":167263.42000000001,"N_COORD97":2543584.25,"ADDRESS":"金華路三段１０８號","OBJECTID":558620},"geometry":{"x":167263.42000000086,"y":2543584.25}},{"attributes":{"ID":558648,"DIS_CODE":0,"TOWNNAME":"中西區","LI":"民主里","LIN":"9鄰","STREET":"金華路","SECT":"三段","MAREA":" ","LANE":" ","ALLEY":" ","HOUSE_NO":"１１０號","E_COORD97":167265.91,"N_COORD97":2543589.6400000001,"ADDRESS":"金華路三段１１０號","OBJECTID":558621},"geometry":{"x":167265.91000000015,"y":2543589.6400000006}},{"attributes":{"ID":558649,"DIS_CODE":0,"TOWNNAME":"中西區","LI":"民主里","LIN":"9鄰","STREET":"金華路","SECT":"三段","MAREA":" ","LANE":" ","ALLEY":" ","HOUSE_NO":"１１２號","E_COORD97":167267.92000000001,"N_COORD97":2543594.02,"ADDRESS":"金華路三段１１２號","OBJECTID":558622},"geometry":{"x":167267.92000000179,"y":2543594.0200000014}},{"attributes":{"ID":558650,"DIS_CODE":0,"TOWNNAME":"中西區","LI":"民主里","LIN":"9鄰","STREET":"金華路","SECT":"三段","MAREA":" ","LANE":" ","ALLEY":" ","HOUSE_NO":"１１４號","E_COORD97":167268.75,"N_COORD97":2543598.4300000002,"ADDRESS":"金華路三段１１４號","OBJECTID":558623},"geometry":{"x":167268.75,"y":2543598.4300000016}},{"attributes":{"ID":558651,"DIS_CODE":0,"TOWNNAME":"中西區","LI":"民主里","LIN":"9鄰","STREET":"金華路","SECT":"三段","MAREA":" ","LANE":" ","ALLEY":" ","HOUSE_NO":"１１６號","E_COORD97":167269.88,"N_COORD97":2543602.8100000001,"ADDRESS":"金華路三段１１６號","OBJECTID":558624},"geometry":{"x":167269.88000000175,"y":2543602.8100000024}},{"attributes":{"ID":558652,"DIS_CODE":0,"TOWNNAME":"中西區","LI":"民主里","LIN":"9鄰","STREET":"金華路","SECT":"三段","MAREA":" ","LANE":" ","ALLEY":" ","HOUSE_NO":"１１８號","E_COORD97":167270.35000000001,"N_COORD97":2543606.2999999998,"ADDRESS":"金華路三段１１８號","OBJECTID":558625},"geometry":{"x":167270.35000000056,"y":2543606.3000000026}},{"attributes":{"ID":558653,"DIS_CODE":0,"TOWNNAME":"永康區","LI":"中華里","LIN":"9鄰","STREET":"華興街","SECT":" ","MAREA":" ","LANE":" ","ALLEY":" ","HOUSE_NO":"６３號","E_COORD97":171921.98999999999,"N_COORD97":2544561.25,"ADDRESS":"華興街６３號","OBJECTID":558626},"geometry":{"x":171921.99000000022,"y":2544561.25}},{"attributes":{"ID":558654,"DIS_CODE":0,"TOWNNAME":"永康區","LI":"中華里","LIN":"9鄰","STREET":"忠勇街","SECT":" ","MAREA":" ","LANE":" ","ALLEY":" ","HOUSE_NO":"９２號","E_COORD97":171901.20000000001,"N_COORD97":2544562.27,"ADDRESS":"忠勇街９２號","OBJECTID":558627},"geometry":{"x":171901.20000000112,"y":2544562.2700000014}},{"attributes":{"ID":558655,"DIS_CODE":0,"TOWNNAME":"中西區","LI":"民主里","LIN":"9鄰","STREET":"府前路","SECT":"二段","MAREA":" ","LANE":" ","ALLEY":" ","HOUSE_NO":"１８８號","E_COORD97":167284.70999999999,"N_COORD97":2543578.3500000001,"ADDRESS":"府前路二段１８８號","OBJECTID":558628},"geometry":{"x":167284.71000000089,"y":2543578.3500000015}},{"attributes":{"ID":558656,"DIS_CODE":0,"TOWNNAME":"中西區","LI":"民主里","LIN":"9鄰","STREET":"府前路","SECT":"二段","MAREA":" ","LANE":" ","ALLEY":" ","HOUSE_NO":"１９０號","E_COORD97":167280.39000000001,"N_COORD97":2543579,"ADDRESS":"府前路二段１９０號","OBJECTID":558629},"geometry":{"x":167280.3900000006,"y":2543579}},{"attributes":{"ID":558657,"DIS_CODE":0,"TOWNNAME":"中西區","LI":"民主里","LIN":"9鄰","STREET":"府前路","SECT":"二段","MAREA":" ","LANE":" ","ALLEY":" ","HOUSE_NO":"１９２號","E_COORD97":167277.78,"N_COORD97":2543579.1800000002,"ADDRESS":"府前路二段１９２號","OBJECTID":558630},"geometry":{"x":167277.78000000119,"y":2543579.1800000016}},{"attributes":{"ID":558658,"DIS_CODE":0,"TOWNNAME":"中西區","LI":"民主里","LIN":"9鄰","STREET":"府前路","SECT":"二段","MAREA":" ","LANE":" ","ALLEY":" ","HOUSE_NO":"１９４號","E_COORD97":167271.85000000001,"N_COORD97":2543580.0099999998,"ADDRESS":"府前路二段１９４號","OBJECTID":558631},"geometry":{"x":167271.85000000056,"y":2543580.0100000035}},{"attributes":{"ID":558659,"DIS_CODE":0,"TOWNNAME":"中西區","LI":"民主里","LIN":"9鄰","STREET":"府前路","SECT":"二段","MAREA":" ","LANE":" ","ALLEY":" ","HOUSE_NO":"１９６號","E_COORD97":167267.82000000001,"N_COORD97":2543580.6000000001,"ADDRESS":"府前路二段１９６號","OBJECTID":558632},"geometry":{"x":167267.82000000123,"y":2543580.6000000015}},{"attributes":{"ID":558660,"DIS_CODE":0,"TOWNNAME":"中西區","LI":"西湖里","LIN":"9鄰","STREET":"湖美二街","SECT":" ","MAREA":" ","LANE":" ","ALLEY":" ","HOUSE_NO":"１０號","E_COORD97":166151.14000000001,"N_COORD97":2544456.6600000001,"ADDRESS":"湖美二街１０號","OBJECTID":558633},"geometry":{"x":166151.1400000006,"y":2544456.6600000001}},{"attributes":{"ID":558661,"DIS_CODE":0,"TOWNNAME":"中西區","LI":"西湖里","LIN":"9鄰","STREET":"湖美二街","SECT":" ","MAREA":" ","LANE":" ","ALLEY":" ","HOUSE_NO":"１２號","E_COORD97":166150.17000000001,"N_COORD97":2544463.2200000002,"ADDRESS":"湖美二街１２號","OBJECTID":558634},"geometry":{"x":166150.16999999993,"y":2544463.2200000007}},{"attributes":{"ID":558662,"DIS_CODE":0,"TOWNNAME":"中西區","LI":"西湖里","LIN":"9鄰","STREET":"民權路","SECT":"四段","MAREA":" ","LANE":" ","ALLEY":" ","HOUSE_NO":"１５６號","E_COORD97":166164.51999999999,"N_COORD97":2544434.54,"ADDRESS":"民權路四段１５６號","OBJECTID":558635},"geometry":{"x":166164.51999999955,"y":2544434.540000001}},{"attributes":{"ID":558663,"DIS_CODE":0,"TOWNNAME":"中西區","LI":"西湖里","LIN":"9鄰","STREET":"民權路","SECT":"四段","MAREA":" ","LANE":" ","ALLEY":" ","HOUSE_NO":"１５８號","E_COORD97":166158.19,"N_COORD97":2544434.5099999998,"ADDRESS":"民權路四段１５８號","OBJECTID":558636},"geometry":{"x":166158.19000000134,"y":2544434.5100000016}},{"attributes":{"ID":558664,"DIS_CODE":0,"TOWNNAME":"中西區","LI":"西湖里","LIN":"9鄰","STREET":"民權路","SECT":"四段","MAREA":" ","LANE":" ","ALLEY":" ","HOUSE_NO":"１６２號","E_COORD97":166132.39999999999,"N_COORD97":2544440.6200000001,"ADDRESS":"民權路四段１６２號","OBJECTID":558637},"geometry":{"x":166132.40000000037,"y":2544440.620000001}},{"attributes":{"ID":558665,"DIS_CODE":0,"TOWNNAME":"中西區","LI":"西湖里","LIN":"9鄰","STREET":"民權路","SECT":"四段","MAREA":" ","LANE":" ","ALLEY":" ","HOUSE_NO":"１６４號","E_COORD97":166126.07999999999,"N_COORD97":2544441.5899999999,"ADDRESS":"民權路四段１６４號","OBJECTID":558638},"geometry":{"x":166126.08000000194,"y":2544441.5900000017}},{"attributes":{"ID":558666,"DIS_CODE":0,"TOWNNAME":"中西區","LI":"西湖里","LIN":"9鄰","STREET":"民權路","SECT":"四段","MAREA":" ","LANE":" ","ALLEY":" ","HOUSE_NO":"１７０號","E_COORD97":166101.98999999999,"N_COORD97":2544437.46,"ADDRESS":"民權路四段１７０號","OBJECTID":558639},"geometry":{"x":166101.99000000115,"y":2544437.4600000009}},{"attributes":{"ID":558667,"DIS_CODE":0,"TOWNNAME":"中西區","LI":"西湖里","LIN":"9鄰","STREET":"民權路","SECT":"四段","MAREA":" ","LANE":" ","ALLEY":" ","HOUSE_NO":"１７２號","E_COORD97":166097.60999999999,"N_COORD97":2544437.7000000002,"ADDRESS":"民權路四段１７２號","OBJECTID":558640},"geometry":{"x":166097.61000000127,"y":2544437.6999999993}},{"attributes":{"ID":558668,"DIS_CODE":0,"TOWNNAME":"中西區","LI":"西湖里","LIN":"9鄰","STREET":"民權路","SECT":"四段","MAREA":" ","LANE":" ","ALLEY":" ","HOUSE_NO":"１７４號","E_COORD97":166092.5,"N_COORD97":2544438.1899999999,"ADDRESS":"民權路四段１７４號","OBJECTID":558641},"geometry":{"x":166092.49999999907,"y":2544438.1899999995}},{"attributes":{"ID":558669,"DIS_CODE":0,"TOWNNAME":"中西區","LI":"西湖里","LIN":"9鄰","STREET":"民權路","SECT":"四段","MAREA":" ","LANE":" ","ALLEY":" ","HOUSE_NO":"１７６號","E_COORD97":166087.87,"N_COORD97":2544438.1899999999,"ADDRESS":"民權路四段１７６號","OBJECTID":558642},"geometry":{"x":166087.87000000011,"y":2544438.1899999995}},{"attributes":{"ID":558670,"DIS_CODE":0,"TOWNNAME":"南區","LI":"大忠里","LIN":"3鄰","STREET":"公英一街","SECT":" ","MAREA":" ","LANE":" ","ALLEY":" ","HOUSE_NO":"７號","E_COORD97":169474.06,"N_COORD97":2541275.3999999999,"ADDRESS":"公英一街７號","OBJECTID":558643},"geometry":{"x":169474.06000000052,"y":2541275.4000000004}},{"attributes":{"ID":558671,"DIS_CODE":0,"TOWNNAME":"中西區","LI":"西湖里","LIN":"9鄰","STREET":"民權路","SECT":"四段","MAREA":" ","LANE":" ","ALLEY":" ","HOUSE_NO":"１７８號","E_COORD97":166081.54999999999,"N_COORD97":2544438.9199999999,"ADDRESS":"民權路四段１７８號","OBJECTID":558644},"geometry":{"x":166081.54999999981,"y":2544438.9200000018}},{"attributes":{"ID":558672,"DIS_CODE":0,"TOWNNAME":"中西區","LI":"西湖里","LIN":"9鄰","STREET":"民權路","SECT":"四段","MAREA":" ","LANE":" ","ALLEY":" ","HOUSE_NO":"１８２號","E_COORD97":166057.20999999999,"N_COORD97":2544437.9199999999,"ADDRESS":"民權路四段１８２號","OBJECTID":558645},"geometry":{"x":166057.21000000183,"y":2544437.9199999999}},{"attributes":{"ID":558673,"DIS_CODE":0,"TOWNNAME":"中西區","LI":"西湖里","LIN":"9鄰","STREET":"民權路","SECT":"四段","MAREA":" ","LANE":" ","ALLEY":" ","HOUSE_NO":"１８４號","E_COORD97":166044.32000000001,"N_COORD97":2544439.6200000001,"ADDRESS":"民權路四段１８４號","OBJECTID":558646},"geometry":{"x":166044.3200000003,"y":2544439.6200000029}},{"attributes":{"ID":558674,"DIS_CODE":0,"TOWNNAME":"中西區","LI":"西湖里","LIN":"9鄰","STREET":"民權路","SECT":"四段","MAREA":" ","LANE":" ","ALLEY":" ","HOUSE_NO":"１８６號","E_COORD97":166037.01999999999,"N_COORD97":2544439.1400000001,"ADDRESS":"民權路四段１８６號","OBJECTID":558647},"geometry":{"x":166037.01999999955,"y":2544439.1400000025}},{"attributes":{"ID":558675,"DIS_CODE":0,"TOWNNAME":"仁德區","LI":"太子里","LIN":"9鄰","STREET":"太子路","SECT":" ","MAREA":" ","LANE":" ","ALLEY":" ","HOUSE_NO":"１４２號","E_COORD97":174453.76000000001,"N_COORD97":2543525.5099999998,"ADDRESS":"太子路１４２號","OBJECTID":558648},"geometry":{"x":174453.76000000071,"y":2543525.5100000035}},{"attributes":{"ID":558676,"DIS_CODE":0,"TOWNNAME":"仁德區","LI":"仁義里","LIN":"9鄰","STREET":"仁義一街","SECT":" ","MAREA":" ","LANE":" ","ALLEY":" ","HOUSE_NO":"１５０號","E_COORD97":173648.57999999999,"N_COORD97":2541174.7599999998,"ADDRESS":"仁義一街１５０號","OBJECTID":558649},"geometry":{"x":173648.58000000007,"y":2541174.7600000016}},{"attributes":{"ID":558677,"DIS_CODE":0,"TOWNNAME":"仁德區","LI":"太子里","LIN":"9鄰","STREET":"太子路","SECT":" ","MAREA":" ","LANE":" ","ALLEY":" ","HOUSE_NO":"１２２號","E_COORD97":174720.01000000001,"N_COORD97":2543536.2599999998,"ADDRESS":"太子路１２２號","OBJECTID":558650},"geometry":{"x":174720.00999999978,"y":2543536.2599999998}},{"attributes":{"ID":558678,"DIS_CODE":0,"TOWNNAME":"仁德區","LI":"太子里","LIN":"9鄰","STREET":"長興二街","SECT":" ","MAREA":" ","LANE":" ","ALLEY":" ","HOUSE_NO":"１７號","E_COORD97":174518.20000000001,"N_COORD97":2543703.25,"ADDRESS":"長興二街１７號","OBJECTID":558651},"geometry":{"x":174518.20000000205,"y":2543703.25}},{"attributes":{"ID":558679,"DIS_CODE":0,"TOWNNAME":"仁德區","LI":"太子里","LIN":"9鄰","STREET":"太子路","SECT":" ","MAREA":" ","LANE":" ","ALLEY":" ","HOUSE_NO":"１４４號","E_COORD97":174449.48000000001,"N_COORD97":2543525.5099999998,"ADDRESS":"太子路１４４號","OBJECTID":558652},"geometry":{"x":174449.48000000138,"y":2543525.5100000035}},{"attributes":{"ID":558680,"DIS_CODE":0,"TOWNNAME":"仁德區","LI":"上崙里","LIN":"9鄰","STREET":"德善路","SECT":" ","MAREA":" ","LANE":" ","ALLEY":" ","HOUSE_NO":"３３５號","E_COORD97":173980.98000000001,"N_COORD97":2538464.77,"ADDRESS":"德善路３３５號","OBJECTID":558653},"geometry":{"x":173980.98000000231,"y":2538464.7699999996}},{"attributes":{"ID":558681,"DIS_CODE":0,"TOWNNAME":"仁德區","LI":"仁義里","LIN":"9鄰","STREET":"仁義一街","SECT":" ","MAREA":" ","LANE":" ","ALLEY":" ","HOUSE_NO":"１１８號","E_COORD97":173578.95999999999,"N_COORD97":2541181.7599999998,"ADDRESS":"仁義一街１１８號","OBJECTID":558654},"geometry":{"x":173578.96000000089,"y":2541181.7600000016}},{"attributes":{"ID":558682,"DIS_CODE":0,"TOWNNAME":"仁德區","LI":"土庫里","LIN":"9鄰","STREET":"土庫六街","SECT":" ","MAREA":" ","LANE":" ","ALLEY":" ","HOUSE_NO":"６號","E_COORD97":174286.23000000001,"N_COORD97":2543298.75,"ADDRESS":"土庫六街６號","OBJECTID":558655},"geometry":{"x":174286.23000000138,"y":2543298.75}},{"attributes":{"ID":558683,"DIS_CODE":0,"TOWNNAME":"仁德區","LI":"仁義里","LIN":"9鄰","STREET":"仁義一街","SECT":" ","MAREA":" ","LANE":" ","ALLEY":" ","HOUSE_NO":"１１２號","E_COORD97":173564.07000000001,"N_COORD97":2541182.5099999998,"ADDRESS":"仁義一街１１２號","OBJECTID":558656},"geometry":{"x":173564.0700000003,"y":2541182.5099999998}},{"attributes":{"ID":558684,"DIS_CODE":0,"TOWNNAME":"仁德區","LI":"仁義里","LIN":"9鄰","STREET":"仁義一街","SECT":" ","MAREA":" ","LANE":" ","ALLEY":" ","HOUSE_NO":"１０６號","E_COORD97":173540.94,"N_COORD97":2541184.0099999998,"ADDRESS":"仁義一街１０６號","OBJECTID":558657},"geometry":{"x":173540.94000000134,"y":2541184.0100000016}},{"attributes":{"ID":558685,"DIS_CODE":0,"TOWNNAME":"仁德區","LI":"仁義里","LIN":"9鄰","STREET":"仁義一街","SECT":" ","MAREA":" ","LANE":" ","ALLEY":" ","HOUSE_NO":"１２２號","E_COORD97":173588.57999999999,"N_COORD97":2541180.5099999998,"ADDRESS":"仁義一街１２２號","OBJECTID":558658},"geometry":{"x":173588.58000000101,"y":2541180.5100000016}},{"attributes":{"ID":558686,"DIS_CODE":0,"TOWNNAME":"仁德區","LI":"仁義里","LIN":"9鄰","STREET":"仁義三街","SECT":" ","MAREA":" ","LANE":" ","ALLEY":" ","HOUSE_NO":"１１１號","E_COORD97":173630.72,"N_COORD97":2541134.27,"ADDRESS":"仁義三街１１１號","OBJECTID":558659},"geometry":{"x":173630.71999999974,"y":2541134.2700000014}},{"attributes":{"ID":558687,"DIS_CODE":0,"TOWNNAME":"仁德區","LI":"上崙里","LIN":"9鄰","STREET":"德善路","SECT":" ","MAREA":" ","LANE":" ","ALLEY":" ","HOUSE_NO":"３４１號","E_COORD97":173985.20000000001,"N_COORD97":2538451.52,"ADDRESS":"德善路３４１號","OBJECTID":558660},"geometry":{"x":173985.20000000019,"y":2538451.5200000014}},{"attributes":{"ID":558688,"DIS_CODE":0,"TOWNNAME":"仁德區","LI":"仁義里","LIN":"9鄰","STREET":"仁義一街","SECT":" ","MAREA":" ","LANE":" ","ALLEY":" ","HOUSE_NO":"１２０號","E_COORD97":173583.60999999999,"N_COORD97":2541181.2599999998,"ADDRESS":"仁義一街１２０號","OBJECTID":558661},"geometry":{"x":173583.61000000127,"y":2541181.2600000035}},{"attributes":{"ID":558689,"DIS_CODE":0,"TOWNNAME":"東區","LI":"圍下里","LIN":"9鄰","STREET":"東寧路","SECT":"西段","MAREA":" ","LANE":" ","ALLEY":" ","HOUSE_NO":"１號","E_COORD97":169792.89999999999,"N_COORD97":2543639.71,"ADDRESS":"東寧路西段１號","OBJECTID":558662},"geometry":{"x":169792.9000000013,"y":2543639.7100000009}},{"attributes":{"ID":558690,"DIS_CODE":0,"TOWNNAME":"東區","LI":"崇德里","LIN":"9鄰","STREET":"崇善路","SECT":" ","MAREA":" ","LANE":" ","ALLEY":" ","HOUSE_NO":"４５８號","E_COORD97":170986.53,"N_COORD97":2541513.3799999999,"ADDRESS":"崇善路４５８號","OBJECTID":558663},"geometry":{"x":170986.53000000026,"y":2541513.3800000008}},{"attributes":{"ID":558691,"DIS_CODE":0,"TOWNNAME":"東區","LI":"崇德里","LIN":"9鄰","STREET":"崇善路","SECT":" ","MAREA":" ","LANE":" ","ALLEY":" ","HOUSE_NO":"４４０號","E_COORD97":170968.14999999999,"N_COORD97":2541559.75,"ADDRESS":"崇善路４４０號","OBJECTID":558664},"geometry":{"x":170968.1500000013,"y":2541559.75}},{"attributes":{"ID":558692,"DIS_CODE":0,"TOWNNAME":"安南區","LI":"國安里","LIN":"9鄰","STREET":"國安街","SECT":" ","MAREA":" ","LANE":" ","ALLEY":" ","HOUSE_NO":"２３８號","E_COORD97":166540.51000000001,"N_COORD97":2546934.4700000002,"ADDRESS":"國安街２３８號","OBJECTID":558665},"geometry":{"x":166540.51000000071,"y":2546934.4700000025}},{"attributes":{"ID":558693,"DIS_CODE":0,"TOWNNAME":"安南區","LI":"國安里","LIN":"9鄰","STREET":"國安街","SECT":" ","MAREA":" ","LANE":" ","ALLEY":" ","HOUSE_NO":"２４８號","E_COORD97":166522.12,"N_COORD97":2546931.0499999998,"ADDRESS":"國安街２４８號","OBJECTID":558666},"geometry":{"x":166522.12000000011,"y":2546931.0500000026}},{"attributes":{"ID":558694,"DIS_CODE":0,"TOWNNAME":"安南區","LI":"國安里","LIN":"9鄰","STREET":"國安街","SECT":" ","MAREA":" ","LANE":" ","ALLEY":" ","HOUSE_NO":"２５０號","E_COORD97":166517.89999999999,"N_COORD97":2546930.79,"ADDRESS":"國安街２５０號","OBJECTID":558667},"geometry":{"x":166517.9000000013,"y":2546930.790000001}},{"attributes":{"ID":558695,"DIS_CODE":0,"TOWNNAME":"安南區","LI":"國安里","LIN":"9鄰","STREET":"國安街","SECT":" ","MAREA":" ","LANE":" ","ALLEY":" ","HOUSE_NO":"２５２號","E_COORD97":166508.97,"N_COORD97":2546928.29,"ADDRESS":"國安街２５２號","OBJECTID":558668},"geometry":{"x":166508.96999999974,"y":2546928.290000001}},{"attributes":{"ID":558696,"DIS_CODE":0,"TOWNNAME":"新市區","LI":"豐華里","LIN":"9鄰","STREET":"南科七路","SECT":" ","MAREA":" ","LANE":" ","ALLEY":" ","HOUSE_NO":"５２號","E_COORD97":174657.73999999999,"N_COORD97":2556259.9700000002,"ADDRESS":"南科七路５２號","OBJECTID":558669},"geometry":{"x":174657.74000000115,"y":2556259.9700000007}},{"attributes":{"ID":558697,"DIS_CODE":0,"TOWNNAME":"善化區","LI":"西關里","LIN":"9鄰","STREET":"復興街","SECT":" ","MAREA":" ","LANE":" ","ALLEY":" ","HOUSE_NO":"３０號","E_COORD97":177039.5,"N_COORD97":2559055.2599999998,"ADDRESS":"復興街３０號","OBJECTID":558670},"geometry":{"x":177039.5,"y":2559055.2600000035}},{"attributes":{"ID":558698,"DIS_CODE":0,"TOWNNAME":"善化區","LI":"光文里","LIN":"9鄰","STREET":"民生路","SECT":" ","MAREA":" ","LANE":" ","ALLEY":" ","HOUSE_NO":"３２號","E_COORD97":178823.70999999999,"N_COORD97":2559036.0099999998,"ADDRESS":"民生路３２號","OBJECTID":558671},"geometry":{"x":178823.71000000183,"y":2559036.0099999998}},{"attributes":{"ID":558699,"DIS_CODE":0,"TOWNNAME":"善化區","LI":"東關里","LIN":"9鄰","STREET":"中山路","SECT":" ","MAREA":" ","LANE":" ","ALLEY":" ","HOUSE_NO":"４３５號","E_COORD97":177315.45999999999,"N_COORD97":2559113,"ADDRESS":"中山路４３５號","OBJECTID":558672},"geometry":{"x":177315.46000000089,"y":2559113.0000000019}},{"attributes":{"ID":558700,"DIS_CODE":0,"TOWNNAME":"善化區","LI":"東關里","LIN":"9鄰","STREET":"大同路","SECT":" ","MAREA":" ","LANE":" ","ALLEY":" ","HOUSE_NO":"３９３號","E_COORD97":177326.63,"N_COORD97":2559081.25,"ADDRESS":"大同路３９３號","OBJECTID":558673},"geometry":{"x":177326.62999999989,"y":2559081.25}},{"attributes":{"ID":558701,"DIS_CODE":0,"TOWNNAME":"善化區","LI":"東關里","LIN":"9鄰","STREET":"大同路","SECT":" ","MAREA":" ","LANE":" ","ALLEY":" ","HOUSE_NO":"３９５號","E_COORD97":177327.59,"N_COORD97":2559086,"ADDRESS":"大同路３９５號","OBJECTID":558674},"geometry":{"x":177327.59000000171,"y":2559086.0000000019}},{"attributes":{"ID":558702,"DIS_CODE":0,"TOWNNAME":"永康區","LI":"蔦松里","LIN":"9鄰","STREET":"正北一路","SECT":" ","MAREA":" ","LANE":" ","ALLEY":" ","HOUSE_NO":"１２２號","E_COORD97":174299.23999999999,"N_COORD97":2549845.7400000002,"ADDRESS":"正北一路１２２號","OBJECTID":558675},"geometry":{"x":174299.23999999929,"y":2549845.7400000021}},{"attributes":{"ID":558703,"DIS_CODE":0,"TOWNNAME":"永康區","LI":"蔦松里","LIN":"9鄰","STREET":"正北一路","SECT":" ","MAREA":" ","LANE":" ","ALLEY":" ","HOUSE_NO":"１３８號","E_COORD97":174181.37,"N_COORD97":2549954.5299999998,"ADDRESS":"正北一路１３８號","OBJECTID":558676},"geometry":{"x":174181.37000000197,"y":2549954.5300000012}},{"attributes":{"ID":558704,"DIS_CODE":0,"TOWNNAME":"永康區","LI":"蔦松里","LIN":"9鄰","STREET":"正北一路","SECT":" ","MAREA":" ","LANE":" ","ALLEY":" ","HOUSE_NO":"１４２號","E_COORD97":174171.04000000001,"N_COORD97":2549982.27,"ADDRESS":"正北一路１４２號","OBJECTID":558677},"geometry":{"x":174171.04000000004,"y":2549982.2700000033}},{"attributes":{"ID":558705,"DIS_CODE":0,"TOWNNAME":"永康區","LI":"蔦松里","LIN":"9鄰","STREET":"正北一路","SECT":" ","MAREA":" ","LANE":" ","ALLEY":" ","HOUSE_NO":"１２８號","E_COORD97":174252.20999999999,"N_COORD97":2549903.7400000002,"ADDRESS":"正北一路１２８號","OBJECTID":558678},"geometry":{"x":174252.21000000089,"y":2549903.7400000002}},{"attributes":{"ID":558706,"DIS_CODE":0,"TOWNNAME":"永康區","LI":"蔦松里","LIN":"9鄰","STREET":"正北一路","SECT":" ","MAREA":" ","LANE":" ","ALLEY":" ","HOUSE_NO":"６６號","E_COORD97":174416.70999999999,"N_COORD97":2549701.9900000002,"ADDRESS":"正北一路６６號","OBJECTID":558679},"geometry":{"x":174416.71000000089,"y":2549701.9900000002}},{"attributes":{"ID":558707,"DIS_CODE":0,"TOWNNAME":"永康區","LI":"蔦松里","LIN":"9鄰","STREET":"中正北路","SECT":" ","MAREA":" ","LANE":" ","ALLEY":" ","HOUSE_NO":"５８６號之１","E_COORD97":174377.67000000001,"N_COORD97":2549558.0499999998,"ADDRESS":"中正北路５８６號之１","OBJECTID":558680},"geometry":{"x":174377.67000000086,"y":2549558.0500000045}},{"attributes":{"ID":558708,"DIS_CODE":0,"TOWNNAME":"永康區","LI":"蔦松里","LIN":"9鄰","STREET":"中正北路","SECT":" ","MAREA":" ","LANE":" ","ALLEY":" ","HOUSE_NO":"５８８之２號","E_COORD97":174403.10999999999,"N_COORD97":2549576.3599999999,"ADDRESS":"中正北路５８８之２號","OBJECTID":558681},"geometry":{"x":174403.11000000034,"y":2549576.3599999994}},{"attributes":{"ID":558709,"DIS_CODE":0,"TOWNNAME":"永康區","LI":"蔦松里","LIN":"9鄰","STREET":"中正北路","SECT":" ","MAREA":" ","LANE":" ","ALLEY":" ","HOUSE_NO":"５８８號之１","E_COORD97":174395.84,"N_COORD97":2549570.3599999999,"ADDRESS":"中正北路５８８號之１","OBJECTID":558682},"geometry":{"x":174395.83999999985,"y":2549570.3599999994}},{"attributes":{"ID":558710,"DIS_CODE":0,"TOWNNAME":"永康區","LI":"蔦松里","LIN":"9鄰","STREET":"正北三路","SECT":" ","MAREA":" ","LANE":" ","ALLEY":" ","HOUSE_NO":"１１５號","E_COORD97":174380.37,"N_COORD97":2550024.1800000002,"ADDRESS":"正北三路１１５號","OBJECTID":558683},"geometry":{"x":174380.37000000104,"y":2550024.1800000016}},{"attributes":{"ID":558711,"DIS_CODE":0,"TOWNNAME":"永康區","LI":"蔦松里","LIN":"9鄰","STREET":"正北三路","SECT":" ","MAREA":" ","LANE":" ","ALLEY":" ","HOUSE_NO":"１０９號","E_COORD97":174397.76999999999,"N_COORD97":2550004.1099999999,"ADDRESS":"正北三路１０９號","OBJECTID":558684},"geometry":{"x":174397.76999999955,"y":2550004.1100000013}},{"attributes":{"ID":558712,"DIS_CODE":0,"TOWNNAME":"永康區","LI":"蔦松里","LIN":"9鄰","STREET":"中正北路","SECT":" ","MAREA":" ","LANE":" ","ALLEY":" ","HOUSE_NO":"５７８號","E_COORD97":174316.26000000001,"N_COORD97":2549503.9900000002,"ADDRESS":"中正北路５７８號","OBJECTID":558685},"geometry":{"x":174316.26000000071,"y":2549503.9900000021}},{"attributes":{"ID":558713,"DIS_CODE":0,"TOWNNAME":"東區","LI":"關聖里","LIN":"6鄰","STREET":"富農街","SECT":"二段","MAREA":" ","LANE":" ","ALLEY":" ","HOUSE_NO":"５０號","E_COORD97":171684.04000000001,"N_COORD97":2542955.1800000002,"ADDRESS":"富農街二段５０號","OBJECTID":558686},"geometry":{"x":171684.04000000004,"y":2542955.1800000016}},{"attributes":{"ID":558714,"DIS_CODE":0,"TOWNNAME":"善化區","LI":"坐駕里","LIN":"9鄰","STREET":"青年路","SECT":" ","MAREA":" ","LANE":" ","ALLEY":" ","HOUSE_NO":"９４號之２","E_COORD97":177891.89999999999,"N_COORD97":2558661.02,"ADDRESS":"青年路９４號之２","OBJECTID":558687},"geometry":{"x":177891.90000000037,"y":2558661.0200000014}},{"attributes":{"ID":558715,"DIS_CODE":0,"TOWNNAME":"善化區","LI":"坐駕里","LIN":"9鄰","STREET":"青年路","SECT":" ","MAREA":" ","LANE":" ","ALLEY":" ","HOUSE_NO":"９２號","E_COORD97":177896.95999999999,"N_COORD97":2558644,"ADDRESS":"青年路９２號","OBJECTID":558688},"geometry":{"x":177896.96000000089,"y":2558644.0000000019}},{"attributes":{"ID":558716,"DIS_CODE":0,"TOWNNAME":"善化區","LI":"東關里","LIN":"9鄰","STREET":"中山路","SECT":" ","MAREA":" ","LANE":" ","ALLEY":" ","HOUSE_NO":"４３１號","E_COORD97":177324.73000000001,"N_COORD97":2559110.25,"ADDRESS":"中山路４３１號","OBJECTID":558689},"geometry":{"x":177324.73000000045,"y":2559110.2500000019}},{"attributes":{"ID":558717,"DIS_CODE":0,"TOWNNAME":"善化區","LI":"東關里","LIN":"9鄰","STREET":"大同路","SECT":" ","MAREA":" ","LANE":" ","ALLEY":" ","HOUSE_NO":"４０１號","E_COORD97":177328.89999999999,"N_COORD97":2559100.25,"ADDRESS":"大同路４０１號","OBJECTID":558690},"geometry":{"x":177328.90000000037,"y":2559100.2500000019}},{"attributes":{"ID":558718,"DIS_CODE":0,"TOWNNAME":"善化區","LI":"坐駕里","LIN":"9鄰","STREET":"青年路","SECT":" ","MAREA":" ","LANE":" ","ALLEY":" ","HOUSE_NO":"３２號","E_COORD97":177895.32999999999,"N_COORD97":2558594.75,"ADDRESS":"青年路３２號","OBJECTID":558691},"geometry":{"x":177895.33000000007,"y":2558594.7500000019}},{"attributes":{"ID":558719,"DIS_CODE":0,"TOWNNAME":"善化區","LI":"坐駕里","LIN":"9鄰","STREET":"青年路","SECT":" ","MAREA":" ","LANE":" ","ALLEY":" ","HOUSE_NO":"１０８號","E_COORD97":177873.75,"N_COORD97":2558755.25,"ADDRESS":"青年路１０８號","OBJECTID":558692},"geometry":{"x":177873.75,"y":2558755.2500000019}},{"attributes":{"ID":558720,"DIS_CODE":0,"TOWNNAME":"善化區","LI":"東關里","LIN":"9鄰","STREET":"中山路","SECT":" ","MAREA":" ","LANE":" ","ALLEY":" ","HOUSE_NO":"４３７號","E_COORD97":177311.35999999999,"N_COORD97":2559113.75,"ADDRESS":"中山路４３７號","OBJECTID":558693},"geometry":{"x":177311.36000000127,"y":2559113.7500000019}},{"attributes":{"ID":558721,"DIS_CODE":0,"TOWNNAME":"善化區","LI":"坐駕里","LIN":"9鄰","STREET":"青年路","SECT":" ","MAREA":" ","LANE":" ","ALLEY":" ","HOUSE_NO":"１００號","E_COORD97":177885.76999999999,"N_COORD97":2558706,"ADDRESS":"青年路１００號","OBJECTID":558694},"geometry":{"x":177885.77000000048,"y":2558706.0000000019}},{"attributes":{"ID":558722,"DIS_CODE":0,"TOWNNAME":"東區","LI":"虎尾里","LIN":"6鄰","STREET":"富農街","SECT":"一段","MAREA":" ","LANE":" ","ALLEY":" ","HOUSE_NO":"７６號","E_COORD97":171527.72,"N_COORD97":2542205.5499999998,"ADDRESS":"富農街一段７６號","OBJECTID":558695},"geometry":{"x":171527.72000000067,"y":2542205.5500000026}},{"attributes":{"ID":558723,"DIS_CODE":0,"TOWNNAME":"善化區","LI":"東關里","LIN":"9鄰","STREET":"中山路","SECT":" ","MAREA":" ","LANE":" ","ALLEY":" ","HOUSE_NO":"４３３號","E_COORD97":177320.54000000001,"N_COORD97":2559110.25,"ADDRESS":"中山路４３３號","OBJECTID":558696},"geometry":{"x":177320.54000000004,"y":2559110.2500000019}},{"attributes":{"ID":558724,"DIS_CODE":0,"TOWNNAME":"善化區","LI":"坐駕里","LIN":"9鄰","STREET":"青年路","SECT":" ","MAREA":" ","LANE":" ","ALLEY":" ","HOUSE_NO":"１００號之４","E_COORD97":177922.10999999999,"N_COORD97":2558731.02,"ADDRESS":"青年路１００號之４","OBJECTID":558697},"geometry":{"x":177922.11000000034,"y":2558731.0200000033}},{"attributes":{"ID":558725,"DIS_CODE":0,"TOWNNAME":"善化區","LI":"東關里","LIN":"9鄰","STREET":"中興路","SECT":" ","MAREA":" ","LANE":" ","ALLEY":" ","HOUSE_NO":"１４０號","E_COORD97":177306.31,"N_COORD97":2559053.25,"ADDRESS":"中興路１４０號","OBJECTID":558698},"geometry":{"x":177306.30999999959,"y":2559053.2500000019}},{"attributes":{"ID":558726,"DIS_CODE":0,"TOWNNAME":"善化區","LI":"坐駕里","LIN":"9鄰","STREET":"青年路","SECT":" ","MAREA":" ","LANE":" ","ALLEY":" ","HOUSE_NO":"９６號之１","E_COORD97":177884.60999999999,"N_COORD97":2558668.77,"ADDRESS":"青年路９６號之１","OBJECTID":558699},"geometry":{"x":177884.61000000127,"y":2558668.7700000014}},{"attributes":{"ID":558727,"DIS_CODE":0,"TOWNNAME":"善化區","LI":"坐駕里","LIN":"9鄰","STREET":"青年路","SECT":" ","MAREA":" ","LANE":" ","ALLEY":" ","HOUSE_NO":"１０４號（半毀）","E_COORD97":177904.92000000001,"N_COORD97":2558733.5,"ADDRESS":"青年路１０４號（半毀）","OBJECTID":558700},"geometry":{"x":177904.91999999993,"y":2558733.5}},{"attributes":{"ID":558728,"DIS_CODE":0,"TOWNNAME":"善化區","LI":"東關里","LIN":"9鄰","STREET":"中興路","SECT":" ","MAREA":" ","LANE":" ","ALLEY":" ","HOUSE_NO":"１３６號","E_COORD97":177314.01000000001,"N_COORD97":2559049,"ADDRESS":"中興路１３６號","OBJECTID":558701},"geometry":{"x":177314.00999999978,"y":2559049}},{"attributes":{"ID":558729,"DIS_CODE":0,"TOWNNAME":"善化區","LI":"坐駕里","LIN":"9鄰","STREET":"青年路","SECT":" ","MAREA":" ","LANE":" ","ALLEY":" ","HOUSE_NO":"１００號之１","E_COORD97":177902.73999999999,"N_COORD97":2558702.27,"ADDRESS":"青年路１００號之１","OBJECTID":558702},"geometry":{"x":177902.74000000022,"y":2558702.2700000033}},{"attributes":{"ID":558730,"DIS_CODE":0,"TOWNNAME":"東區","LI":"崇德里","LIN":"9鄰","STREET":"崇善路","SECT":" ","MAREA":" ","LANE":" ","ALLEY":" ","HOUSE_NO":"４７０號","E_COORD97":170992.32999999999,"N_COORD97":2541491.8900000001,"ADDRESS":"崇善路４７０號","OBJECTID":558703},"geometry":{"x":170992.33000000007,"y":2541491.8900000006}},{"attributes":{"ID":558731,"DIS_CODE":0,"TOWNNAME":"永康區","LI":"北灣里","LIN":"9鄰","STREET":"大灣七街","SECT":" ","MAREA":" ","LANE":" ","ALLEY":" ","HOUSE_NO":"３０號","E_COORD97":175102.34,"N_COORD97":2545633.0699999998,"ADDRESS":"大灣七街３０號","OBJECTID":558704},"geometry":{"x":175102.34000000078,"y":2545633.0700000003}},{"attributes":{"ID":558732,"DIS_CODE":0,"TOWNNAME":"永康區","LI":"正強里","LIN":"9鄰","STREET":"正強街","SECT":" ","MAREA":" ","LANE":" ","ALLEY":" ","HOUSE_NO":"１７２號","E_COORD97":173331.12,"N_COORD97":2547538.9900000002,"ADDRESS":"正強街１７２號","OBJECTID":558705},"geometry":{"x":173331.12000000104,"y":2547538.9900000002}},{"attributes":{"ID":558733,"DIS_CODE":0,"TOWNNAME":"永康區","LI":"二王里","LIN":"9鄰","STREET":"中山南路","SECT":" ","MAREA":" ","LANE":" ","ALLEY":" ","HOUSE_NO":"７５０號","E_COORD97":172693.87,"N_COORD97":2546757.7200000002,"ADDRESS":"中山南路７５０號","OBJECTID":558706},"geometry":{"x":172693.87000000011,"y":2546757.7200000025}},{"attributes":{"ID":558734,"DIS_CODE":0,"TOWNNAME":"永康區","LI":"二王里","LIN":"9鄰","STREET":"中山南路","SECT":" ","MAREA":" ","LANE":" ","ALLEY":" ","HOUSE_NO":"７１８號","E_COORD97":172627.20999999999,"N_COORD97":2546734.0299999998,"ADDRESS":"中山南路７１８號","OBJECTID":558707},"geometry":{"x":172627.20999999996,"y":2546734.0299999993}},{"attributes":{"ID":558735,"DIS_CODE":0,"TOWNNAME":"永康區","LI":"二王里","LIN":"9鄰","STREET":"中山南路","SECT":" ","MAREA":" ","LANE":" ","ALLEY":" ","HOUSE_NO":"７４６號","E_COORD97":172687.01000000001,"N_COORD97":2546753.7200000002,"ADDRESS":"中山南路７４６號","OBJECTID":558708},"geometry":{"x":172687.01000000071,"y":2546753.7200000025}},{"attributes":{"ID":558736,"DIS_CODE":0,"TOWNNAME":"永康區","LI":"二王里","LIN":"9鄰","STREET":"中山南路","SECT":" ","MAREA":" ","LANE":" ","ALLEY":" ","HOUSE_NO":"７２４號","E_COORD97":172637.79999999999,"N_COORD97":2546738.2799999998,"ADDRESS":"中山南路７２４號","OBJECTID":558709},"geometry":{"x":172637.80000000075,"y":2546738.2800000012}},{"attributes":{"ID":558737,"DIS_CODE":0,"TOWNNAME":"永康區","LI":"二王里","LIN":"9鄰","STREET":"中山南路","SECT":" ","MAREA":" ","LANE":" ","ALLEY":" ","HOUSE_NO":"７１６號","E_COORD97":172623.01999999999,"N_COORD97":2546732.0299999998,"ADDRESS":"中山南路７１６號","OBJECTID":558710},"geometry":{"x":172623.01999999955,"y":2546732.0299999975}},{"attributes":{"ID":558738,"DIS_CODE":0,"TOWNNAME":"永康區","LI":"二王里","LIN":"9鄰","STREET":"中山南路","SECT":" ","MAREA":" ","LANE":" ","ALLEY":" ","HOUSE_NO":"７２８號","E_COORD97":172649.91,"N_COORD97":2546742.5299999998,"ADDRESS":"中山南路７２８號","OBJECTID":558711},"geometry":{"x":172649.91000000015,"y":2546742.5300000031}},{"attributes":{"ID":558739,"DIS_CODE":0,"TOWNNAME":"永康區","LI":"二王里","LIN":"9鄰","STREET":"中山南路","SECT":" ","MAREA":" ","LANE":" ","ALLEY":" ","HOUSE_NO":"７５８號","E_COORD97":172708.70999999999,"N_COORD97":2546763.2200000002,"ADDRESS":"中山南路７５８號","OBJECTID":558712},"geometry":{"x":172708.70999999996,"y":2546763.2200000025}},{"attributes":{"ID":558740,"DIS_CODE":0,"TOWNNAME":"永康區","LI":"二王里","LIN":"9鄰","STREET":"中山南路","SECT":" ","MAREA":" ","LANE":" ","ALLEY":" ","HOUSE_NO":"７１４號","E_COORD97":172619.09,"N_COORD97":2546730.7799999998,"ADDRESS":"中山南路７１４號","OBJECTID":558713},"geometry":{"x":172619.09000000078,"y":2546730.7800000031}},{"attributes":{"ID":558741,"DIS_CODE":0,"TOWNNAME":"永康區","LI":"二王里","LIN":"9鄰","STREET":"中山南路","SECT":" ","MAREA":" ","LANE":" ","ALLEY":" ","HOUSE_NO":"７５４號","E_COORD97":172700.85999999999,"N_COORD97":2546760.2200000002,"ADDRESS":"中山南路７５４號","OBJECTID":558714},"geometry":{"x":172700.86000000127,"y":2546760.2200000025}},{"attributes":{"ID":558742,"DIS_CODE":0,"TOWNNAME":"永康區","LI":"二王里","LIN":"9鄰","STREET":"中山南路","SECT":" ","MAREA":" ","LANE":" ","ALLEY":" ","HOUSE_NO":"７３４號","E_COORD97":172658.16,"N_COORD97":2546745.7799999998,"ADDRESS":"中山南路７３４號","OBJECTID":558715},"geometry":{"x":172658.16000000015,"y":2546745.7800000012}},{"attributes":{"ID":558743,"DIS_CODE":0,"TOWNNAME":"永康區","LI":"二王里","LIN":"9鄰","STREET":"中山南路","SECT":" ","MAREA":" ","LANE":" ","ALLEY":" ","HOUSE_NO":"７５２號","E_COORD97":172697.37,"N_COORD97":2546759.2200000002,"ADDRESS":"中山南路７５２號","OBJECTID":558716},"geometry":{"x":172697.37000000011,"y":2546759.2200000007}},{"attributes":{"ID":558744,"DIS_CODE":0,"TOWNNAME":"永康區","LI":"二王里","LIN":"9鄰","STREET":"中山南路","SECT":" ","MAREA":" ","LANE":" ","ALLEY":" ","HOUSE_NO":"７３２號","E_COORD97":173303.98999999999,"N_COORD97":2547112.9900000002,"ADDRESS":"中山南路７３２號","OBJECTID":558717},"geometry":{"x":173303.99000000022,"y":2547112.9899999984}},{"attributes":{"ID":558745,"DIS_CODE":0,"TOWNNAME":"永康區","LI":"二王里","LIN":"9鄰","STREET":"永二街","SECT":" ","MAREA":" ","LANE":" ","ALLEY":" ","HOUSE_NO":"４２６號","E_COORD97":172657.26000000001,"N_COORD97":2546703.23,"ADDRESS":"永二街４２６號","OBJECTID":558718},"geometry":{"x":172657.25999999978,"y":2546703.2300000023}},{"attributes":{"ID":558746,"DIS_CODE":0,"TOWNNAME":"永康區","LI":"二王里","LIN":"9鄰","STREET":"永二街","SECT":" ","MAREA":" ","LANE":" ","ALLEY":" ","HOUSE_NO":"４３４號","E_COORD97":172628.95000000001,"N_COORD97":2546710.7599999998,"ADDRESS":"永二街４３４號","OBJECTID":558719},"geometry":{"x":172628.95000000112,"y":2546710.7600000035}},{"attributes":{"ID":558747,"DIS_CODE":0,"TOWNNAME":"永康區","LI":"二王里","LIN":"9鄰","STREET":"永二街","SECT":" ","MAREA":" ","LANE":" ","ALLEY":" ","HOUSE_NO":"４２０號","E_COORD97":172720.12,"N_COORD97":2546691.75,"ADDRESS":"永二街４２０號","OBJECTID":558720},"geometry":{"x":172720.12000000197,"y":2546691.7500000019}},{"attributes":{"ID":558748,"DIS_CODE":0,"TOWNNAME":"永康區","LI":"二王里","LIN":"9鄰","STREET":"永二街","SECT":" ","MAREA":" ","LANE":" ","ALLEY":" ","HOUSE_NO":"４３６號","E_COORD97":172624.35000000001,"N_COORD97":2546712.2599999998,"ADDRESS":"永二街４３６號","OBJECTID":558721},"geometry":{"x":172624.34999999963,"y":2546712.2600000016}},{"attributes":{"ID":558749,"DIS_CODE":0,"TOWNNAME":"永康區","LI":"二王里","LIN":"9鄰","STREET":"永二街","SECT":" ","MAREA":" ","LANE":" ","ALLEY":" ","HOUSE_NO":"４２８號","E_COORD97":172650.25,"N_COORD97":2546700.98,"ADDRESS":"永二街４２８號","OBJECTID":558722},"geometry":{"x":172650.25000000093,"y":2546700.9800000023}},{"attributes":{"ID":558750,"DIS_CODE":0,"TOWNNAME":"永康區","LI":"二王里","LIN":"9鄰","STREET":"永二街","SECT":" ","MAREA":" ","LANE":" ","ALLEY":" ","HOUSE_NO":"４２６之２號","E_COORD97":172668.01000000001,"N_COORD97":2546702.48,"ADDRESS":"永二街４２６之２號","OBJECTID":558723},"geometry":{"x":172668.01000000164,"y":2546702.4800000004}},{"attributes":{"ID":558751,"DIS_CODE":0,"TOWNNAME":"永康區","LI":"西灣里","LIN":"9鄰","STREET":"永大路","SECT":"二段","MAREA":" ","LANE":" ","ALLEY":" ","HOUSE_NO":"４６２號","E_COORD97":174379.23000000001,"N_COORD97":2545304.7799999998,"ADDRESS":"永大路二段４６２號","OBJECTID":558724},"geometry":{"x":174379.22999999952,"y":2545304.7800000012}},{"attributes":{"ID":558752,"DIS_CODE":0,"TOWNNAME":"永康區","LI":"二王里","LIN":"9鄰","STREET":"永二街","SECT":" ","MAREA":" ","LANE":" ","ALLEY":" ","HOUSE_NO":"４３２號","E_COORD97":172634.14000000001,"N_COORD97":2546708.5099999998,"ADDRESS":"永二街４３２號","OBJECTID":558725},"geometry":{"x":172634.13999999966,"y":2546708.5099999998}},{"attributes":{"ID":558753,"DIS_CODE":0,"TOWNNAME":"永康區","LI":"二王里","LIN":"9鄰","STREET":"永二街","SECT":" ","MAREA":" ","LANE":" ","ALLEY":" ","HOUSE_NO":"４３０號","E_COORD97":172640.95999999999,"N_COORD97":2546707.98,"ADDRESS":"永二街４３０號","OBJECTID":558726},"geometry":{"x":172640.95999999996,"y":2546707.9800000023}},{"attributes":{"ID":558754,"DIS_CODE":0,"TOWNNAME":"麻豆區","LI":"小埤里","LIN":"9鄰","STREET":"工業路","SECT":" ","MAREA":" ","LANE":" ","ALLEY":" ","HOUSE_NO":"２２７號","E_COORD97":171261.56,"N_COORD97":2565494.1000000001,"ADDRESS":"工業路２２７號","OBJECTID":558727},"geometry":{"x":171261.55999999959,"y":2565494.0999999996}},{"attributes":{"ID":558755,"DIS_CODE":0,"TOWNNAME":"新市區","LI":"三舍里","LIN":"9鄰","STREET":"大順三路","SECT":" ","MAREA":" ","LANE":" ","ALLEY":" ","HOUSE_NO":"６１號","E_COORD97":177201.64999999999,"N_COORD97":2555423,"ADDRESS":"大順三路６１號","OBJECTID":558728},"geometry":{"x":177201.65000000037,"y":2555423.0000000019}},{"attributes":{"ID":558756,"DIS_CODE":0,"TOWNNAME":"新市區","LI":"永就里","LIN":"9鄰","STREET":"中山路","SECT":" ","MAREA":" ","LANE":" ","ALLEY":" ","HOUSE_NO":"２０２之１５號","E_COORD97":177764.92999999999,"N_COORD97":2552289.0499999998,"ADDRESS":"中山路２０２之１５號","OBJECTID":558729},"geometry":{"x":177764.93000000063,"y":2552289.0500000007}},{"attributes":{"ID":558757,"DIS_CODE":0,"TOWNNAME":"新市區","LI":"永就里","LIN":"9鄰","STREET":"中山路","SECT":" ","MAREA":" ","LANE":" ","ALLEY":" ","HOUSE_NO":"１９９之３號","E_COORD97":177566.39999999999,"N_COORD97":2552054.2999999998,"ADDRESS":"中山路１９９之３號","OBJECTID":558730},"geometry":{"x":177566.40000000037,"y":2552054.3000000007}},{"attributes":{"ID":558758,"DIS_CODE":0,"TOWNNAME":"新市區","LI":"永就里","LIN":"9鄰","STREET":"中山路","SECT":" ","MAREA":" ","LANE":" ","ALLEY":" ","HOUSE_NO":"２０２之４號","E_COORD97":177742.73999999999,"N_COORD97":2552242.5499999998,"ADDRESS":"中山路２０２之４號","OBJECTID":558731},"geometry":{"x":177742.74000000115,"y":2552242.5500000007}},{"attributes":{"ID":558759,"DIS_CODE":0,"TOWNNAME":"新市區","LI":"永就里","LIN":"9鄰","STREET":"中山路","SECT":" ","MAREA":" ","LANE":" ","ALLEY":" ","HOUSE_NO":"２０１之１號","E_COORD97":177468.95999999999,"N_COORD97":2552003.0499999998,"ADDRESS":"中山路２０１之１號","OBJECTID":558732},"geometry":{"x":177468.95999999996,"y":2552003.0500000026}},{"attributes":{"ID":558760,"DIS_CODE":0,"TOWNNAME":"新市區","LI":"新和里","LIN":"9鄰","STREET":"可口街","SECT":" ","MAREA":" ","LANE":" ","ALLEY":" ","HOUSE_NO":"２９號","E_COORD97":177584.42999999999,"N_COORD97":2552431.75,"ADDRESS":"可口街２９號","OBJECTID":558733},"geometry":{"x":177584.43000000156,"y":2552431.7500000019}},{"attributes":{"ID":558761,"DIS_CODE":0,"TOWNNAME":"新市區","LI":"港墘里","LIN":"9鄰","STREET":"長安街","SECT":" ","MAREA":" ","LANE":" ","ALLEY":" ","HOUSE_NO":"９號","E_COORD97":178475.51999999999,"N_COORD97":2552675.8199999998,"ADDRESS":"長安街９號","OBJECTID":558734},"geometry":{"x":178475.52000000048,"y":2552675.8200000022}},{"attributes":{"ID":558762,"DIS_CODE":0,"TOWNNAME":"新市區","LI":"永就里","LIN":"9鄰","STREET":"中山路","SECT":" ","MAREA":" ","LANE":" ","ALLEY":" ","HOUSE_NO":"２０２之８號","E_COORD97":177717.45000000001,"N_COORD97":2552226.5499999998,"ADDRESS":"中山路２０２之８號","OBJECTID":558735},"geometry":{"x":177717.45000000112,"y":2552226.5500000026}},{"attributes":{"ID":558763,"DIS_CODE":0,"TOWNNAME":"新市區","LI":"三舍里","LIN":"9鄰","STREET":"大順一路","SECT":" ","MAREA":" ","LANE":" ","ALLEY":" ","HOUSE_NO":"１３號","E_COORD97":177148.57000000001,"N_COORD97":2555426.5,"ADDRESS":"大順一路１３號","OBJECTID":558736},"geometry":{"x":177148.57000000216,"y":2555426.5000000019}},{"attributes":{"ID":558764,"DIS_CODE":0,"TOWNNAME":"新市區","LI":"三舍里","LIN":"9鄰","STREET":"大順一路","SECT":" ","MAREA":" ","LANE":" ","ALLEY":" ","HOUSE_NO":"５號","E_COORD97":177182.26000000001,"N_COORD97":2555447,"ADDRESS":"大順一路５號","OBJECTID":558737},"geometry":{"x":177182.26000000164,"y":2555447.0000000019}},{"attributes":{"ID":558765,"DIS_CODE":0,"TOWNNAME":"新市區","LI":"港墘里","LIN":"9鄰","STREET":"長安街","SECT":" ","MAREA":" ","LANE":" ","ALLEY":" ","HOUSE_NO":"１號","E_COORD97":178494.20999999999,"N_COORD97":2552671.3199999998,"ADDRESS":"長安街１號","OBJECTID":558738},"geometry":{"x":178494.20999999996,"y":2552671.320000004}},{"attributes":{"ID":558766,"DIS_CODE":0,"TOWNNAME":"新市區","LI":"三舍里","LIN":"9鄰","STREET":"大順三路","SECT":" ","MAREA":" ","LANE":" ","ALLEY":" ","HOUSE_NO":"７９號","E_COORD97":177131.57000000001,"N_COORD97":2555407,"ADDRESS":"大順三路７９號","OBJECTID":558739},"geometry":{"x":177131.57000000216,"y":2555407.0000000019}},{"attributes":{"ID":558767,"DIS_CODE":0,"TOWNNAME":"中西區","LI":"青年里","LIN":"9鄰","STREET":"衛民街","SECT":" ","MAREA":" ","LANE":" ","ALLEY":" ","HOUSE_NO":"１０３號之１","E_COORD97":168881.57999999999,"N_COORD97":2543735.5600000001,"ADDRESS":"衛民街１０３號之１","OBJECTID":558740},"geometry":{"x":168881.58000000101,"y":2543735.5600000005}},{"attributes":{"ID":558768,"DIS_CODE":0,"TOWNNAME":"中西區","LI":"青年里","LIN":"9鄰","STREET":"衛民街","SECT":" ","MAREA":" ","LANE":" ","ALLEY":" ","HOUSE_NO":"１０７號","E_COORD97":168857.37,"N_COORD97":2543741.21,"ADDRESS":"衛民街１０７號","OBJECTID":558741},"geometry":{"x":168857.37000000104,"y":2543741.2100000009}},{"attributes":{"ID":558769,"DIS_CODE":0,"TOWNNAME":"中西區","LI":"青年里","LIN":"9鄰","STREET":"衛民街","SECT":" ","MAREA":" ","LANE":" ","ALLEY":" ","HOUSE_NO":"１０９號","E_COORD97":168851.53,"N_COORD97":2543743.5,"ADDRESS":"衛民街１０９號","OBJECTID":558742},"geometry":{"x":168851.53000000119,"y":2543743.5000000019}},{"attributes":{"ID":558770,"DIS_CODE":0,"TOWNNAME":"中西區","LI":"青年里","LIN":"9鄰","STREET":"衛民街","SECT":" ","MAREA":" ","LANE":" ","ALLEY":" ","HOUSE_NO":"１１１號","E_COORD97":168844.98999999999,"N_COORD97":2543744.2000000002,"ADDRESS":"衛民街１１１號","OBJECTID":558743},"geometry":{"x":168844.99000000115,"y":2543744.200000003}},{"attributes":{"ID":558771,"DIS_CODE":0,"TOWNNAME":"中西區","LI":"青年里","LIN":"9鄰","STREET":"衛民街","SECT":" ","MAREA":" ","LANE":" ","ALLEY":" ","HOUSE_NO":"１１５號","E_COORD97":168836.10999999999,"N_COORD97":2543745.8300000001,"ADDRESS":"衛民街１１５號","OBJECTID":558744},"geometry":{"x":168836.11000000034,"y":2543745.8300000001}},{"attributes":{"ID":558772,"DIS_CODE":0,"TOWNNAME":"仁德區","LI":"仁德里","LIN":"9鄰","STREET":"仁德二街","SECT":" ","MAREA":" ","LANE":" ","ALLEY":" ","HOUSE_NO":"８號","E_COORD97":173280.89000000001,"N_COORD97":2541090.0099999998,"ADDRESS":"仁德二街８號","OBJECTID":558745},"geometry":{"x":173280.8900000006,"y":2541090.0099999998}},{"attributes":{"ID":558773,"DIS_CODE":0,"TOWNNAME":"仁德區","LI":"仁德里","LIN":"9鄰","STREET":"仁德二街","SECT":" ","MAREA":" ","LANE":" ","ALLEY":" ","HOUSE_NO":"１２號","E_COORD97":173271.63,"N_COORD97":2541086.2599999998,"ADDRESS":"仁德二街１２號","OBJECTID":558746},"geometry":{"x":173271.62999999989,"y":2541086.2600000035}},{"attributes":{"ID":558774,"DIS_CODE":0,"TOWNNAME":"仁德區","LI":"仁德里","LIN":"9鄰","STREET":"仁德二街","SECT":" ","MAREA":" ","LANE":" ","ALLEY":" ","HOUSE_NO":"３５號","E_COORD97":173227.89999999999,"N_COORD97":2541065.52,"ADDRESS":"仁德二街３５號","OBJECTID":558747},"geometry":{"x":173227.90000000037,"y":2541065.5200000014}},{"attributes":{"ID":558775,"DIS_CODE":0,"TOWNNAME":"仁德區","LI":"仁德里","LIN":"9鄰","STREET":"仁德二街","SECT":" ","MAREA":" ","LANE":" ","ALLEY":" ","HOUSE_NO":"２號","E_COORD97":173291.67000000001,"N_COORD97":2541093.7599999998,"ADDRESS":"仁德二街２號","OBJECTID":558748},"geometry":{"x":173291.67000000086,"y":2541093.7600000016}},{"attributes":{"ID":558776,"DIS_CODE":0,"TOWNNAME":"仁德區","LI":"仁德里","LIN":"9鄰","STREET":"仁德二街","SECT":" ","MAREA":" ","LANE":" ","ALLEY":" ","HOUSE_NO":"３２號","E_COORD97":173224.95999999999,"N_COORD97":2541078.7599999998,"ADDRESS":"仁德二街３２號","OBJECTID":558749},"geometry":{"x":173224.96000000089,"y":2541078.7599999998}},{"attributes":{"ID":558777,"DIS_CODE":0,"TOWNNAME":"仁德區","LI":"仁德里","LIN":"9鄰","STREET":"仁德二街","SECT":" ","MAREA":" ","LANE":" ","ALLEY":" ","HOUSE_NO":"１５號","E_COORD97":173270.60999999999,"N_COORD97":2541074.5099999998,"ADDRESS":"仁德二街１５號","OBJECTID":558750},"geometry":{"x":173270.61000000034,"y":2541074.5100000035}},{"attributes":{"ID":558778,"DIS_CODE":0,"TOWNNAME":"仁德區","LI":"仁德里","LIN":"9鄰","STREET":"仁德二街","SECT":" ","MAREA":" ","LANE":" ","ALLEY":" ","HOUSE_NO":"２３號","E_COORD97":173253.22,"N_COORD97":2541068.27,"ADDRESS":"仁德二街２３號","OBJECTID":558751},"geometry":{"x":173253.22000000067,"y":2541068.2699999996}},{"attributes":{"ID":558779,"DIS_CODE":0,"TOWNNAME":"仁德區","LI":"仁德里","LIN":"9鄰","STREET":"仁德二街","SECT":" ","MAREA":" ","LANE":" ","ALLEY":" ","HOUSE_NO":"２８號","E_COORD97":173234.62,"N_COORD97":2541078.7599999998,"ADDRESS":"仁德二街２８號","OBJECTID":558752},"geometry":{"x":173234.62000000011,"y":2541078.7599999998}},{"attributes":{"ID":558780,"DIS_CODE":0,"TOWNNAME":"仁德區","LI":"仁德里","LIN":"9鄰","STREET":"仁德二街","SECT":" ","MAREA":" ","LANE":" ","ALLEY":" ","HOUSE_NO":"２１號","E_COORD97":173258.59,"N_COORD97":2541070.2599999998,"ADDRESS":"仁德二街２１號","OBJECTID":558753},"geometry":{"x":173258.58999999985,"y":2541070.2600000016}},{"attributes":{"ID":558781,"DIS_CODE":0,"TOWNNAME":"仁德區","LI":"仁德里","LIN":"9鄰","STREET":"仁德二街","SECT":" ","MAREA":" ","LANE":" ","ALLEY":" ","HOUSE_NO":"１６號","E_COORD97":173263.89999999999,"N_COORD97":2541083.75,"ADDRESS":"仁德二街１６號","OBJECTID":558754},"geometry":{"x":173263.90000000037,"y":2541083.7500000019}},{"attributes":{"ID":558782,"DIS_CODE":0,"TOWNNAME":"仁德區","LI":"仁德里","LIN":"9鄰","STREET":"仁德二街","SECT":" ","MAREA":" ","LANE":" ","ALLEY":" ","HOUSE_NO":"１１號","E_COORD97":173278.60000000001,"N_COORD97":2541077.0099999998,"ADDRESS":"仁德二街１１號","OBJECTID":558755},"geometry":{"x":173278.59999999963,"y":2541077.0099999998}},{"attributes":{"ID":558783,"DIS_CODE":0,"TOWNNAME":"仁德區","LI":"仁德里","LIN":"9鄰","STREET":"仁德二街","SECT":" ","MAREA":" ","LANE":" ","ALLEY":" ","HOUSE_NO":"１８號","E_COORD97":173259.66,"N_COORD97":2541082.2599999998,"ADDRESS":"仁德二街１８號","OBJECTID":558756},"geometry":{"x":173259.66000000108,"y":2541082.2599999998}},{"attributes":{"ID":558784,"DIS_CODE":0,"TOWNNAME":"仁德區","LI":"田厝里","LIN":"9鄰","STREET":"田厝一街","SECT":" ","MAREA":" ","LANE":" ","ALLEY":" ","HOUSE_NO":"８１號","E_COORD97":172553.45999999999,"N_COORD97":2537742,"ADDRESS":"田厝一街８１號","OBJECTID":558757},"geometry":{"x":172553.46000000089,"y":2537742.0000000037}},{"attributes":{"ID":558785,"DIS_CODE":0,"TOWNNAME":"仁德區","LI":"保安里","LIN":"9鄰","STREET":"文賢二街","SECT":" ","MAREA":" ","LANE":" ","ALLEY":" ","HOUSE_NO":"５號","E_COORD97":171604.73000000001,"N_COORD97":2536084.3300000001,"ADDRESS":"文賢二街５號","OBJECTID":558758},"geometry":{"x":171604.73000000138,"y":2536084.3300000001}},{"attributes":{"ID":558786,"DIS_CODE":0,"TOWNNAME":"仁德區","LI":"仁德里","LIN":"9鄰","STREET":"仁德二街","SECT":" ","MAREA":" ","LANE":" ","ALLEY":" ","HOUSE_NO":"６號","E_COORD97":173284.41,"N_COORD97":2541091.0099999998,"ADDRESS":"仁德二街６號","OBJECTID":558759},"geometry":{"x":173284.41000000201,"y":2541091.0099999979}},{"attributes":{"ID":558787,"DIS_CODE":0,"TOWNNAME":"仁德區","LI":"保安里","LIN":"9鄰","STREET":"文賢二街","SECT":" ","MAREA":" ","LANE":" ","ALLEY":" ","HOUSE_NO":"３號","E_COORD97":171606.01000000001,"N_COORD97":2536079.5800000001,"ADDRESS":"文賢二街３號","OBJECTID":558760},"geometry":{"x":171606.00999999978,"y":2536079.5800000001}},{"attributes":{"ID":558788,"DIS_CODE":0,"TOWNNAME":"仁德區","LI":"保安里","LIN":"9鄰","STREET":"文賢二街","SECT":" ","MAREA":" ","LANE":" ","ALLEY":" ","HOUSE_NO":"１號","E_COORD97":171608.17000000001,"N_COORD97":2536064.3300000001,"ADDRESS":"文賢二街１號","OBJECTID":558761},"geometry":{"x":171608.17000000086,"y":2536064.3300000001}},{"attributes":{"ID":558789,"DIS_CODE":0,"TOWNNAME":"仁德區","LI":"成功里","LIN":"9鄰","STREET":"成功二街","SECT":" ","MAREA":" ","LANE":" ","ALLEY":" ","HOUSE_NO":"２之２號","E_COORD97":170919.45999999999,"N_COORD97":2539999.0499999998,"ADDRESS":"成功二街２之２號","OBJECTID":558762},"geometry":{"x":170919.46000000089,"y":2539999.0500000007}},{"attributes":{"ID":558790,"DIS_CODE":0,"TOWNNAME":"仁德區","LI":"新田里","LIN":"9鄰","STREET":"北保路","SECT":" ","MAREA":" ","LANE":" ","ALLEY":" ","HOUSE_NO":"１６５號","E_COORD97":173455.45999999999,"N_COORD97":2539461.4900000002,"ADDRESS":"北保路１６５號","OBJECTID":558763},"geometry":{"x":173455.46000000089,"y":2539461.4900000021}},{"attributes":{"ID":558791,"DIS_CODE":0,"TOWNNAME":"仁德區","LI":"後壁里","LIN":"9鄰","STREET":"德善二街","SECT":" ","MAREA":" ","LANE":" ","ALLEY":" ","HOUSE_NO":"６０號","E_COORD97":173699.76000000001,"N_COORD97":2538985.02,"ADDRESS":"德善二街６０號","OBJECTID":558764},"geometry":{"x":173699.75999999978,"y":2538985.0199999996}},{"attributes":{"ID":558792,"DIS_CODE":0,"TOWNNAME":"新市區","LI":"新和里","LIN":"9鄰","STREET":"可口街","SECT":" ","MAREA":" ","LANE":" ","ALLEY":" ","HOUSE_NO":"３１號","E_COORD97":177585.32000000001,"N_COORD97":2552435.75,"ADDRESS":"可口街３１號","OBJECTID":558765},"geometry":{"x":177585.3200000003,"y":2552435.7500000019}},{"attributes":{"ID":558793,"DIS_CODE":0,"TOWNNAME":"新市區","LI":"新和里","LIN":"9鄰","STREET":"可口街","SECT":" ","MAREA":" ","LANE":" ","ALLEY":" ","HOUSE_NO":"２１號","E_COORD97":177576.42000000001,"N_COORD97":2552417,"ADDRESS":"可口街２１號","OBJECTID":558766},"geometry":{"x":177576.42000000179,"y":2552417.0000000019}},{"attributes":{"ID":558794,"DIS_CODE":0,"TOWNNAME":"新市區","LI":"豐華里","LIN":"9鄰","STREET":"環西路","SECT":"一段","MAREA":" ","LANE":" ","ALLEY":" ","HOUSE_NO":"１２號","E_COORD97":175873.87,"N_COORD97":2555616.0299999998,"ADDRESS":"環西路一段１２號","OBJECTID":558767},"geometry":{"x":175873.87000000104,"y":2555616.0300000012}},{"attributes":{"ID":558795,"DIS_CODE":0,"TOWNNAME":"永康區","LI":"六合里","LIN":"9鄰","STREET":"新興街","SECT":" ","MAREA":" ","LANE":" ","ALLEY":" ","HOUSE_NO":"７８號之２","E_COORD97":171167.95000000001,"N_COORD97":2545837.4700000002,"ADDRESS":"新興街７８號之２","OBJECTID":558768},"geometry":{"x":171167.95000000019,"y":2545837.4700000007}},{"attributes":{"ID":558796,"DIS_CODE":0,"TOWNNAME":"永康區","LI":"北灣里","LIN":"9鄰","STREET":"大灣七街","SECT":" ","MAREA":" ","LANE":" ","ALLEY":" ","HOUSE_NO":"４６號","E_COORD97":175095.44,"N_COORD97":2545658.04,"ADDRESS":"大灣七街４６號","OBJECTID":558769},"geometry":{"x":175095.44000000134,"y":2545658.040000001}},{"attributes":{"ID":558797,"DIS_CODE":0,"TOWNNAME":"永康區","LI":"王行里","LIN":"9鄰","STREET":"王行路","SECT":" ","MAREA":" ","LANE":" ","ALLEY":" ","HOUSE_NO":"３６２號","E_COORD97":175449.32000000001,"N_COORD97":2548539.0699999998,"ADDRESS":"王行路３６２號","OBJECTID":558770},"geometry":{"x":175449.3200000003,"y":2548539.0700000003}},{"attributes":{"ID":558798,"DIS_CODE":0,"TOWNNAME":"永康區","LI":"北灣里","LIN":"9鄰","STREET":"大灣七街","SECT":" ","MAREA":" ","LANE":" ","ALLEY":" ","HOUSE_NO":"３８號","E_COORD97":175116.59,"N_COORD97":2545647.1200000001,"ADDRESS":"大灣七街３８號","OBJECTID":558771},"geometry":{"x":175116.58999999985,"y":2545647.120000001}},{"attributes":{"ID":558799,"DIS_CODE":0,"TOWNNAME":"永康區","LI":"王行里","LIN":"9鄰","STREET":"王行路","SECT":" ","MAREA":" ","LANE":" ","ALLEY":" ","HOUSE_NO":"３６０號","E_COORD97":175452.23000000001,"N_COORD97":2548533.5699999998,"ADDRESS":"王行路３６０號","OBJECTID":558772},"geometry":{"x":175452.23000000045,"y":2548533.5700000022}},{"attributes":{"ID":558800,"DIS_CODE":0,"TOWNNAME":"永康區","LI":"北灣里","LIN":"9鄰","STREET":"大灣七街","SECT":" ","MAREA":" ","LANE":" ","ALLEY":" ","HOUSE_NO":"２５號","E_COORD97":175082.10999999999,"N_COORD97":2545612.0299999998,"ADDRESS":"大灣七街２５號","OBJECTID":558773},"geometry":{"x":175082.11000000127,"y":2545612.0299999993}},{"attributes":{"ID":558801,"DIS_CODE":0,"TOWNNAME":"永康區","LI":"王行里","LIN":"9鄰","STREET":"王行路","SECT":" ","MAREA":" ","LANE":" ","ALLEY":" ","HOUSE_NO":"３６４之１號","E_COORD97":175494.60000000001,"N_COORD97":2548553.4700000002,"ADDRESS":"王行路３６４之１號","OBJECTID":558774},"geometry":{"x":175494.59999999963,"y":2548553.4700000007}},{"attributes":{"ID":558802,"DIS_CODE":0,"TOWNNAME":"永康區","LI":"王行里","LIN":"9鄰","STREET":"王行路","SECT":" ","MAREA":" ","LANE":" ","ALLEY":" ","HOUSE_NO":"３８６號之４","E_COORD97":175436.53,"N_COORD97":2548615.9900000002,"ADDRESS":"王行路３８６號之４","OBJECTID":558775},"geometry":{"x":175436.53000000212,"y":2548615.9900000021}},{"attributes":{"ID":558803,"DIS_CODE":0,"TOWNNAME":"永康區","LI":"北灣里","LIN":"9鄰","STREET":"大灣七街","SECT":" ","MAREA":" ","LANE":" ","ALLEY":" ","HOUSE_NO":"２３號","E_COORD97":175082.45999999999,"N_COORD97":2545604.0699999998,"ADDRESS":"大灣七街２３號","OBJECTID":558776},"geometry":{"x":175082.46000000183,"y":2545604.070000004}},{"attributes":{"ID":558804,"DIS_CODE":0,"TOWNNAME":"永康區","LI":"王行里","LIN":"9鄰","STREET":"王行路","SECT":" ","MAREA":" ","LANE":" ","ALLEY":" ","HOUSE_NO":"３７０號","E_COORD97":175433.57000000001,"N_COORD97":2548558.98,"ADDRESS":"王行路３７０號","OBJECTID":558777},"geometry":{"x":175433.57000000123,"y":2548558.9800000023}},{"attributes":{"ID":558805,"DIS_CODE":0,"TOWNNAME":"永康區","LI":"王行里","LIN":"9鄰","STREET":"王行路","SECT":" ","MAREA":" ","LANE":" ","ALLEY":" ","HOUSE_NO":"３８０號","E_COORD97":175431.98999999999,"N_COORD97":2548586.1899999999,"ADDRESS":"王行路３８０號","OBJECTID":558778},"geometry":{"x":175431.99000000115,"y":2548586.1900000013}},{"attributes":{"ID":558806,"DIS_CODE":0,"TOWNNAME":"永康區","LI":"王行里","LIN":"9鄰","STREET":"王行路","SECT":" ","MAREA":" ","LANE":" ","ALLEY":" ","HOUSE_NO":"３６８號","E_COORD97":175435.67999999999,"N_COORD97":2548554.73,"ADDRESS":"王行路３６８號","OBJECTID":558779},"geometry":{"x":175435.68000000063,"y":2548554.7300000004}},{"attributes":{"ID":558807,"DIS_CODE":0,"TOWNNAME":"永康區","LI":"北灣里","LIN":"9鄰","STREET":"大灣七街","SECT":" ","MAREA":" ","LANE":" ","ALLEY":" ","HOUSE_NO":"４３號","E_COORD97":175072.19,"N_COORD97":2545649.71,"ADDRESS":"大灣七街４３號","OBJECTID":558780},"geometry":{"x":175072.19000000041,"y":2545649.7100000009}},{"attributes":{"ID":558808,"DIS_CODE":0,"TOWNNAME":"東區","LI":"忠孝里","LIN":"25鄰","STREET":"崇明三街","SECT":" ","MAREA":" ","LANE":" ","ALLEY":" ","HOUSE_NO":"４６號","E_COORD97":169646.03,"N_COORD97":2542350.2999999998,"ADDRESS":"崇明三街４６號","OBJECTID":558781},"geometry":{"x":169646.03000000119,"y":2542350.3000000007}},{"attributes":{"ID":558809,"DIS_CODE":0,"TOWNNAME":"永康區","LI":"正強里","LIN":"9鄰","STREET":"自強路","SECT":" ","MAREA":" ","LANE":" ","ALLEY":" ","HOUSE_NO":"２９２號","E_COORD97":173342.64999999999,"N_COORD97":2547635.2999999998,"ADDRESS":"自強路２９２號","OBJECTID":558782},"geometry":{"x":173342.6500000013,"y":2547635.3000000026}},{"attributes":{"ID":558810,"DIS_CODE":0,"TOWNNAME":"永康區","LI":"王行里","LIN":"9鄰","STREET":"王行路","SECT":" ","MAREA":" ","LANE":" ","ALLEY":" ","HOUSE_NO":"３８１號","E_COORD97":175397.89999999999,"N_COORD97":2548633.29,"ADDRESS":"王行路３８１號","OBJECTID":558783},"geometry":{"x":175397.90000000037,"y":2548633.290000001}},{"attributes":{"ID":558811,"DIS_CODE":0,"TOWNNAME":"永康區","LI":"王行里","LIN":"9鄰","STREET":"王行路","SECT":" ","MAREA":" ","LANE":" ","ALLEY":" ","HOUSE_NO":"３７２號","E_COORD97":175434.10000000001,"N_COORD97":2548568.9300000002,"ADDRESS":"王行路３７２號","OBJECTID":558784},"geometry":{"x":175434.10000000056,"y":2548568.9300000016}},{"attributes":{"ID":558812,"DIS_CODE":0,"TOWNNAME":"東區","LI":"忠孝里","LIN":"25鄰","STREET":"崇明三街","SECT":" ","MAREA":" ","LANE":" ","ALLEY":" ","HOUSE_NO":"４８號","E_COORD97":169649.79000000001,"N_COORD97":2542351.54,"ADDRESS":"崇明三街４８號","OBJECTID":558785},"geometry":{"x":169649.79000000004,"y":2542351.5400000028}},{"attributes":{"ID":558813,"DIS_CODE":0,"TOWNNAME":"東區","LI":"忠孝里","LIN":"25鄰","STREET":"崇明三街","SECT":" ","MAREA":" ","LANE":" ","ALLEY":" ","HOUSE_NO":"５０號","E_COORD97":169653.75,"N_COORD97":2542352.1699999999,"ADDRESS":"崇明三街５０號","OBJECTID":558786},"geometry":{"x":169653.75,"y":2542352.1700000018}},{"attributes":{"ID":558814,"DIS_CODE":0,"TOWNNAME":"東區","LI":"忠孝里","LIN":"25鄰","STREET":"崇明三街","SECT":" ","MAREA":" ","LANE":" ","ALLEY":" ","HOUSE_NO":"５２號","E_COORD97":169657.92000000001,"N_COORD97":2542353.6299999999,"ADDRESS":"崇明三街５２號","OBJECTID":558787},"geometry":{"x":169657.91999999993,"y":2542353.629999999}},{"attributes":{"ID":558815,"DIS_CODE":0,"TOWNNAME":"東區","LI":"忠孝里","LIN":"25鄰","STREET":"崇明三街","SECT":" ","MAREA":" ","LANE":" ","ALLEY":" ","HOUSE_NO":"５６號","E_COORD97":169664.79000000001,"N_COORD97":2542356.1200000001,"ADDRESS":"崇明三街５６號","OBJECTID":558788},"geometry":{"x":169664.79000000097,"y":2542356.120000001}},{"attributes":{"ID":558816,"DIS_CODE":0,"TOWNNAME":"東區","LI":"忠孝里","LIN":"25鄰","STREET":"崇明四街","SECT":" ","MAREA":" ","LANE":" ","ALLEY":" ","HOUSE_NO":"３５號","E_COORD97":169655,"N_COORD97":2542321.71,"ADDRESS":"崇明四街３５號","OBJECTID":558789},"geometry":{"x":169655.00000000093,"y":2542321.7100000046}},{"attributes":{"ID":558817,"DIS_CODE":0,"TOWNNAME":"東區","LI":"忠孝里","LIN":"25鄰","STREET":"崇明四街","SECT":" ","MAREA":" ","LANE":" ","ALLEY":" ","HOUSE_NO":"３７號","E_COORD97":169657.91,"N_COORD97":2542322.54,"ADDRESS":"崇明四街３７號","OBJECTID":558790},"geometry":{"x":169657.91000000015,"y":2542322.540000001}},{"attributes":{"ID":558818,"DIS_CODE":0,"TOWNNAME":"東區","LI":"忠孝里","LIN":"25鄰","STREET":"崇明四街","SECT":" ","MAREA":" ","LANE":" ","ALLEY":" ","HOUSE_NO":"３９號","E_COORD97":169662.07999999999,"N_COORD97":2542324.21,"ADDRESS":"崇明四街３９號","OBJECTID":558791},"geometry":{"x":169662.08000000007,"y":2542324.2100000009}},{"attributes":{"ID":558819,"DIS_CODE":0,"TOWNNAME":"東區","LI":"忠孝里","LIN":"25鄰","STREET":"崇明四街","SECT":" ","MAREA":" ","LANE":" ","ALLEY":" ","HOUSE_NO":"４１號","E_COORD97":169665.84,"N_COORD97":2542325.4500000002,"ADDRESS":"崇明四街４１號","OBJECTID":558792},"geometry":{"x":169665.84000000078,"y":2542325.450000003}},{"attributes":{"ID":558820,"DIS_CODE":0,"TOWNNAME":"東區","LI":"忠孝里","LIN":"25鄰","STREET":"崇明四街","SECT":" ","MAREA":" ","LANE":" ","ALLEY":" ","HOUSE_NO":"４３號","E_COORD97":169669.38,"N_COORD97":2542326.9100000001,"ADDRESS":"崇明四街４３號","OBJECTID":558793},"geometry":{"x":169669.37999999989,"y":2542326.910000002}},{"attributes":{"ID":558821,"DIS_CODE":0,"TOWNNAME":"東區","LI":"忠孝里","LIN":"25鄰","STREET":"崇明四街","SECT":" ","MAREA":" ","LANE":" ","ALLEY":" ","HOUSE_NO":"４５號","E_COORD97":169673.54999999999,"N_COORD97":2542328.3700000001,"ADDRESS":"崇明四街４５號","OBJECTID":558794},"geometry":{"x":169673.54999999981,"y":2542328.3700000029}},{"attributes":{"ID":558822,"DIS_CODE":0,"TOWNNAME":"東區","LI":"忠孝里","LIN":"25鄰","STREET":"崇明四街","SECT":" ","MAREA":" ","LANE":" ","ALLEY":" ","HOUSE_NO":"４７號","E_COORD97":169677.51000000001,"N_COORD97":2542328.9900000002,"ADDRESS":"崇明四街４７號","OBJECTID":558795},"geometry":{"x":169677.50999999885,"y":2542328.9900000002}},{"attributes":{"ID":558823,"DIS_CODE":0,"TOWNNAME":"東區","LI":"南聖里","LIN":"8鄰","STREET":"裕農路","SECT":" ","MAREA":" ","LANE":" ","ALLEY":" ","HOUSE_NO":"７５０號","E_COORD97":171890.57000000001,"N_COORD97":2543239.2400000002,"ADDRESS":"裕農路７５０號","OBJECTID":558796},"geometry":{"x":171890.57000000123,"y":2543239.2400000002}},{"attributes":{"ID":558824,"DIS_CODE":0,"TOWNNAME":"東區","LI":"南聖里","LIN":"8鄰","STREET":"裕農路","SECT":" ","MAREA":" ","LANE":" ","ALLEY":" ","HOUSE_NO":"７５２號","E_COORD97":171896.60000000001,"N_COORD97":2543238.2000000002,"ADDRESS":"裕農路７５２號","OBJECTID":558797},"geometry":{"x":171896.60000000056,"y":2543238.1999999993}},{"attributes":{"ID":558825,"DIS_CODE":0,"TOWNNAME":"永康區","LI":"王行里","LIN":"9鄰","STREET":"王行路","SECT":" ","MAREA":" ","LANE":" ","ALLEY":" ","HOUSE_NO":"３８９號","E_COORD97":175395.38,"N_COORD97":2548663.5600000001,"ADDRESS":"王行路３８９號","OBJECTID":558798},"geometry":{"x":175395.38000000082,"y":2548663.5600000024}},{"attributes":{"ID":558826,"DIS_CODE":0,"TOWNNAME":"永康區","LI":"王行里","LIN":"9鄰","STREET":"王行路","SECT":" ","MAREA":" ","LANE":" ","ALLEY":" ","HOUSE_NO":"３９０號","E_COORD97":175431.95000000001,"N_COORD97":2548630.9700000002,"ADDRESS":"王行路３９０號","OBJECTID":558799},"geometry":{"x":175431.95000000205,"y":2548630.9700000025}},{"attributes":{"ID":558827,"DIS_CODE":0,"TOWNNAME":"永康區","LI":"王行里","LIN":"9鄰","STREET":"王行路","SECT":" ","MAREA":" ","LANE":" ","ALLEY":" ","HOUSE_NO":"３８２號","E_COORD97":175431.98000000001,"N_COORD97":2548590.4399999999,"ADDRESS":"王行路３８２號","OBJECTID":558800},"geometry":{"x":175431.98000000231,"y":2548590.4399999995}}]}