{"displayFieldName":"TOWNNAME","fieldAliases":{"ID":"ID","DIS_CODE":"DIS_CODE","TOWNNAME":"TOWNNAME","LI":"LI","LIN":"LIN","STREET":"STREET","SECT":"SECT","MAREA":"MAREA","LANE":"LANE","ALLEY":"ALLEY","HOUSE_NO":"HOUSE_NO","E_COORD97":"E_COORD97","N_COORD97":"N_COORD97","ADDRESS":"ADDRESS","OBJECTID":"OBJECTID"},"geometryType":"esriGeometryPoint","spatialReference":{"wkid":102443,"latestWkid":3826},"fields":[{"name":"ID","type":"esriFieldTypeDouble","alias":"ID"},{"name":"DIS_CODE","type":"esriFieldTypeInteger","alias":"DIS_CODE"},{"name":"TOWNNAME","type":"esriFieldTypeString","alias":"TOWNNAME","length":8},{"name":"LI","type":"esriFieldTypeString","alias":"LI","length":8},{"name":"LIN","type":"esriFieldTypeString","alias":"LIN","length":12},{"name":"STREET","type":"esriFieldTypeString","alias":"STREET","length":20},{"name":"SECT","type":"esriFieldTypeString","alias":"SECT","length":8},{"name":"MAREA","type":"esriFieldTypeString","alias":"MAREA","length":12},{"name":"LANE","type":"esriFieldTypeString","alias":"LANE","length":10},{"name":"ALLEY","type":"esriFieldTypeString","alias":"ALLEY","length":10},{"name":"HOUSE_NO","type":"esriFieldTypeString","alias":"HOUSE_NO","length":20},{"name":"E_COORD97","type":"esriFieldTypeDouble","alias":"E_COORD97"},{"name":"N_COORD97","type":"esriFieldTypeDouble","alias":"N_COORD97"},{"name":"ADDRESS","type":"esriFieldTypeString","alias":"ADDRESS","length":50},{"name":"OBJECTID","type":"esriFieldTypeOID","alias":"OBJECTID"}],"features":[{"attributes":{"ID":468826,"DIS_CODE":0,"TOWNNAME":"安平區","LI":"平安里","LIN":"5鄰","STREET":"安平路","SECT":" ","MAREA":" ","LANE":" ","ALLEY":" ","HOUSE_NO":"３２２號","E_COORD97":165694.88,"N_COORD97":2544349.6499999999,"ADDRESS":"安平路３２２號","OBJECTID":468801},"geometry":{"x":165694.88000000175,"y":2544349.6500000022}},{"attributes":{"ID":468827,"DIS_CODE":0,"TOWNNAME":"安平區","LI":"平安里","LIN":"5鄰","STREET":"安平路","SECT":" ","MAREA":" ","LANE":" ","ALLEY":" ","HOUSE_NO":"３２６號","E_COORD97":165685.5,"N_COORD97":2544349.3599999999,"ADDRESS":"安平路３２６號","OBJECTID":468802},"geometry":{"x":165685.5,"y":2544349.3599999994}},{"attributes":{"ID":468828,"DIS_CODE":0,"TOWNNAME":"安平區","LI":"平安里","LIN":"5鄰","STREET":"安平路","SECT":" ","MAREA":" ","LANE":" ","ALLEY":" ","HOUSE_NO":"３２８號","E_COORD97":165680.41,"N_COORD97":2544345.3700000001,"ADDRESS":"安平路３２８號","OBJECTID":468803},"geometry":{"x":165680.41000000108,"y":2544345.3700000029}},{"attributes":{"ID":468829,"DIS_CODE":0,"TOWNNAME":"安平區","LI":"平安里","LIN":"5鄰","STREET":"安平路","SECT":" ","MAREA":" ","LANE":" ","ALLEY":" ","HOUSE_NO":"３３０號","E_COORD97":165675.76000000001,"N_COORD97":2544345.52,"ADDRESS":"安平路３３０號","OBJECTID":468804},"geometry":{"x":165675.76000000071,"y":2544345.5199999977}},{"attributes":{"ID":468830,"DIS_CODE":0,"TOWNNAME":"安平區","LI":"平安里","LIN":"5鄰","STREET":"安平路","SECT":" ","MAREA":" ","LANE":" ","ALLEY":" ","HOUSE_NO":"３３２號","E_COORD97":165670.66,"N_COORD97":2544343.8599999999,"ADDRESS":"安平路３３２號","OBJECTID":468805},"geometry":{"x":165670.66000000015,"y":2544343.8600000013}},{"attributes":{"ID":468831,"DIS_CODE":0,"TOWNNAME":"安平區","LI":"平安里","LIN":"5鄰","STREET":"安平路","SECT":" ","MAREA":" ","LANE":" ","ALLEY":" ","HOUSE_NO":"３３４號","E_COORD97":165666.31,"N_COORD97":2544343.1899999999,"ADDRESS":"安平路３３４號","OBJECTID":468806},"geometry":{"x":165666.31000000145,"y":2544343.1899999995}},{"attributes":{"ID":468832,"DIS_CODE":0,"TOWNNAME":"安平區","LI":"海頭里","LIN":"5鄰","STREET":"中興街","SECT":" ","MAREA":" ","LANE":" ","ALLEY":" ","HOUSE_NO":"１６號","E_COORD97":164258.07999999999,"N_COORD97":2544685.96,"ADDRESS":"中興街１６號","OBJECTID":468807},"geometry":{"x":164258.08000000194,"y":2544685.9600000009}},{"attributes":{"ID":468833,"DIS_CODE":0,"TOWNNAME":"安平區","LI":"海頭里","LIN":"5鄰","STREET":"中興街","SECT":" ","MAREA":" ","LANE":" ","ALLEY":" ","HOUSE_NO":"１２號","E_COORD97":164284.85999999999,"N_COORD97":2544682.8500000001,"ADDRESS":"中興街１２號","OBJECTID":468808},"geometry":{"x":164284.86000000034,"y":2544682.8500000034}},{"attributes":{"ID":468834,"DIS_CODE":0,"TOWNNAME":"北區","LI":"大和里","LIN":"5鄰","STREET":"大港街","SECT":" ","MAREA":" ","LANE":" ","ALLEY":" ","HOUSE_NO":"６９號","E_COORD97":167029.76000000001,"N_COORD97":2546005.9199999999,"ADDRESS":"大港街６９號","OBJECTID":468809},"geometry":{"x":167029.76000000164,"y":2546005.9200000018}},{"attributes":{"ID":468835,"DIS_CODE":0,"TOWNNAME":"北區","LI":"大和里","LIN":"5鄰","STREET":"大港街","SECT":" ","MAREA":" ","LANE":" ","ALLEY":" ","HOUSE_NO":"７１號","E_COORD97":167022.34,"N_COORD97":2546005,"ADDRESS":"大港街７１號","OBJECTID":468810},"geometry":{"x":167022.33999999985,"y":2546005.0000000019}},{"attributes":{"ID":468836,"DIS_CODE":0,"TOWNNAME":"北區","LI":"大和里","LIN":"5鄰","STREET":"大興街","SECT":" ","MAREA":" ","LANE":" ","ALLEY":" ","HOUSE_NO":"１１８號","E_COORD97":167071.85000000001,"N_COORD97":2545760.7599999998,"ADDRESS":"大興街１１８號","OBJECTID":468811},"geometry":{"x":167071.85000000056,"y":2545760.7599999998}},{"attributes":{"ID":468837,"DIS_CODE":0,"TOWNNAME":"北區","LI":"大和里","LIN":"5鄰","STREET":"大興街","SECT":" ","MAREA":" ","LANE":" ","ALLEY":" ","HOUSE_NO":"１２４號","E_COORD97":167055.82999999999,"N_COORD97":2545755.4100000001,"ADDRESS":"大興街１２４號","OBJECTID":468812},"geometry":{"x":167055.83000000101,"y":2545755.410000002}},{"attributes":{"ID":468838,"DIS_CODE":0,"TOWNNAME":"北區","LI":"大和里","LIN":"5鄰","STREET":"大興街","SECT":" ","MAREA":" ","LANE":" ","ALLEY":" ","HOUSE_NO":"１２８號","E_COORD97":167046.19,"N_COORD97":2545756.0099999998,"ADDRESS":"大興街１２８號","OBJECTID":468813},"geometry":{"x":167046.19000000227,"y":2545756.0099999998}},{"attributes":{"ID":468839,"DIS_CODE":0,"TOWNNAME":"麻豆區","LI":"大埕里","LIN":"5鄰","STREET":"博愛路","SECT":" ","MAREA":" ","LANE":" ","ALLEY":" ","HOUSE_NO":"２２號","E_COORD97":173320.47,"N_COORD97":2564912.46,"ADDRESS":"博愛路２２號","OBJECTID":468814},"geometry":{"x":173320.46999999974,"y":2564912.4600000009}},{"attributes":{"ID":468840,"DIS_CODE":0,"TOWNNAME":"麻豆區","LI":"大埕里","LIN":"5鄰","STREET":"博愛路","SECT":" ","MAREA":" ","LANE":" ","ALLEY":" ","HOUSE_NO":"２４號之５","E_COORD97":173318.10000000001,"N_COORD97":2564956.8399999999,"ADDRESS":"博愛路２４號之５","OBJECTID":468815},"geometry":{"x":173318.10000000149,"y":2564956.8399999999}},{"attributes":{"ID":468841,"DIS_CODE":0,"TOWNNAME":"麻豆區","LI":"大埕里","LIN":"5鄰","STREET":"博愛路","SECT":" ","MAREA":" ","LANE":" ","ALLEY":" ","HOUSE_NO":"２４號","E_COORD97":173344.60999999999,"N_COORD97":2564944.4100000001,"ADDRESS":"博愛路２４號","OBJECTID":468816},"geometry":{"x":173344.61000000127,"y":2564944.410000002}},{"attributes":{"ID":468842,"DIS_CODE":0,"TOWNNAME":"麻豆區","LI":"大埕里","LIN":"5鄰","STREET":"博愛路","SECT":" ","MAREA":" ","LANE":" ","ALLEY":" ","HOUSE_NO":"２６號","E_COORD97":173315.54000000001,"N_COORD97":2564967.4199999999,"ADDRESS":"博愛路２６號","OBJECTID":468817},"geometry":{"x":173315.5400000019,"y":2564967.4200000018}},{"attributes":{"ID":468843,"DIS_CODE":0,"TOWNNAME":"麻豆區","LI":"大埕里","LIN":"5鄰","STREET":"博愛路","SECT":" ","MAREA":" ","LANE":" ","ALLEY":" ","HOUSE_NO":"２８號","E_COORD97":173312.37,"N_COORD97":2564970.9300000002,"ADDRESS":"博愛路２８號","OBJECTID":468818},"geometry":{"x":173312.37000000104,"y":2564970.9300000016}},{"attributes":{"ID":468844,"DIS_CODE":0,"TOWNNAME":"麻豆區","LI":"大埕里","LIN":"5鄰","STREET":"博愛路","SECT":" ","MAREA":" ","LANE":" ","ALLEY":" ","HOUSE_NO":"３０號","E_COORD97":173312.14999999999,"N_COORD97":2564975.71,"ADDRESS":"博愛路３０號","OBJECTID":468819},"geometry":{"x":173312.1500000013,"y":2564975.7100000009}},{"attributes":{"ID":468845,"DIS_CODE":0,"TOWNNAME":"麻豆區","LI":"大埕里","LIN":"5鄰","STREET":"博愛路","SECT":" ","MAREA":" ","LANE":" ","ALLEY":" ","HOUSE_NO":"３２號","E_COORD97":173313.17000000001,"N_COORD97":2564980.23,"ADDRESS":"博愛路３２號","OBJECTID":468820},"geometry":{"x":173313.17000000086,"y":2564980.2300000023}},{"attributes":{"ID":468846,"DIS_CODE":0,"TOWNNAME":"麻豆區","LI":"保安里","LIN":"5鄰","STREET":"復興街","SECT":" ","MAREA":" ","LANE":" ","ALLEY":" ","HOUSE_NO":"１７號","E_COORD97":173224.5,"N_COORD97":2564870.1600000001,"ADDRESS":"復興街１７號","OBJECTID":468821},"geometry":{"x":173224.50000000093,"y":2564870.1600000001}},{"attributes":{"ID":468847,"DIS_CODE":0,"TOWNNAME":"麻豆區","LI":"大埕里","LIN":"5鄰","STREET":"復興街","SECT":" ","MAREA":" ","LANE":" ","ALLEY":" ","HOUSE_NO":"２號之１０","E_COORD97":173387.19,"N_COORD97":2564935.8599999999,"ADDRESS":"復興街２號之１０","OBJECTID":468822},"geometry":{"x":173387.19000000041,"y":2564935.8599999994}},{"attributes":{"ID":468848,"DIS_CODE":0,"TOWNNAME":"麻豆區","LI":"大埕里","LIN":"5鄰","STREET":"復興街","SECT":" ","MAREA":" ","LANE":" ","ALLEY":" ","HOUSE_NO":"２號之１１","E_COORD97":173358.26000000001,"N_COORD97":2564934.02,"ADDRESS":"復興街２號之１１","OBJECTID":468823},"geometry":{"x":173358.26000000071,"y":2564934.0199999996}},{"attributes":{"ID":468849,"DIS_CODE":0,"TOWNNAME":"麻豆區","LI":"大埕里","LIN":"5鄰","STREET":"復興街","SECT":" ","MAREA":" ","LANE":" ","ALLEY":" ","HOUSE_NO":"２號之１２","E_COORD97":173358.03,"N_COORD97":2564938.0499999998,"ADDRESS":"復興街２號之１２","OBJECTID":468824},"geometry":{"x":173358.03000000026,"y":2564938.0500000026}},{"attributes":{"ID":468850,"DIS_CODE":0,"TOWNNAME":"麻豆區","LI":"大埕里","LIN":"5鄰","STREET":"復興街","SECT":" ","MAREA":" ","LANE":" ","ALLEY":" ","HOUSE_NO":"２號之１３","E_COORD97":173358,"N_COORD97":2564943.1099999999,"ADDRESS":"復興街２號之１３","OBJECTID":468825},"geometry":{"x":173358,"y":2564943.1100000013}},{"attributes":{"ID":468851,"DIS_CODE":0,"TOWNNAME":"麻豆區","LI":"大埕里","LIN":"5鄰","STREET":"復興街","SECT":" ","MAREA":" ","LANE":" ","ALLEY":" ","HOUSE_NO":"２號之１４","E_COORD97":173358.01000000001,"N_COORD97":2564948.9100000001,"ADDRESS":"復興街２號之１４","OBJECTID":468826},"geometry":{"x":173358.01000000164,"y":2564948.9100000001}},{"attributes":{"ID":468852,"DIS_CODE":0,"TOWNNAME":"麻豆區","LI":"大埕里","LIN":"5鄰","STREET":"復興街","SECT":" ","MAREA":" ","LANE":" ","ALLEY":" ","HOUSE_NO":"２號之１５","E_COORD97":173374.76000000001,"N_COORD97":2564950.9199999999,"ADDRESS":"復興街２號之１５","OBJECTID":468827},"geometry":{"x":173374.75999999885,"y":2564950.9200000018}},{"attributes":{"ID":468853,"DIS_CODE":0,"TOWNNAME":"麻豆區","LI":"大埕里","LIN":"5鄰","STREET":"復興街","SECT":" ","MAREA":" ","LANE":" ","ALLEY":" ","HOUSE_NO":"２號之１６","E_COORD97":173374.92000000001,"N_COORD97":2564946.3599999999,"ADDRESS":"復興街２號之１６","OBJECTID":468828},"geometry":{"x":173374.91999999993,"y":2564946.3599999975}},{"attributes":{"ID":468854,"DIS_CODE":0,"TOWNNAME":"麻豆區","LI":"大埕里","LIN":"5鄰","STREET":"復興街","SECT":" ","MAREA":" ","LANE":" ","ALLEY":" ","HOUSE_NO":"２號之１７","E_COORD97":173375.29999999999,"N_COORD97":2564942.0499999998,"ADDRESS":"復興街２號之１７","OBJECTID":468829},"geometry":{"x":173375.30000000075,"y":2564942.0500000007}},{"attributes":{"ID":468855,"DIS_CODE":0,"TOWNNAME":"麻豆區","LI":"大埕里","LIN":"5鄰","STREET":"復興街","SECT":" ","MAREA":" ","LANE":" ","ALLEY":" ","HOUSE_NO":"２號之１８","E_COORD97":173374.72,"N_COORD97":2564937.5499999998,"ADDRESS":"復興街２號之１８","OBJECTID":468830},"geometry":{"x":173374.71999999974,"y":2564937.5500000026}},{"attributes":{"ID":468856,"DIS_CODE":0,"TOWNNAME":"麻豆區","LI":"大埕里","LIN":"5鄰","STREET":"復興街","SECT":" ","MAREA":" ","LANE":" ","ALLEY":" ","HOUSE_NO":"２號之１","E_COORD97":173321.34,"N_COORD97":2564894.04,"ADDRESS":"復興街２號之１","OBJECTID":468831},"geometry":{"x":173321.33999999985,"y":2564894.0399999972}},{"attributes":{"ID":468857,"DIS_CODE":0,"TOWNNAME":"麻豆區","LI":"大埕里","LIN":"5鄰","STREET":"復興街","SECT":" ","MAREA":" ","LANE":" ","ALLEY":" ","HOUSE_NO":"２號之２","E_COORD97":173347.59,"N_COORD97":2564915.8199999998,"ADDRESS":"復興街２號之２","OBJECTID":468832},"geometry":{"x":173347.59000000078,"y":2564915.8200000003}},{"attributes":{"ID":468858,"DIS_CODE":0,"TOWNNAME":"麻豆區","LI":"大埕里","LIN":"5鄰","STREET":"復興街","SECT":" ","MAREA":" ","LANE":" ","ALLEY":" ","HOUSE_NO":"２號之３","E_COORD97":173353.29999999999,"N_COORD97":2564918.7400000002,"ADDRESS":"復興街２號之３","OBJECTID":468833},"geometry":{"x":173353.30000000075,"y":2564918.7400000021}},{"attributes":{"ID":468859,"DIS_CODE":0,"TOWNNAME":"麻豆區","LI":"大埕里","LIN":"5鄰","STREET":"復興街","SECT":" ","MAREA":" ","LANE":" ","ALLEY":" ","HOUSE_NO":"２號之４","E_COORD97":173363.91,"N_COORD97":2564923.8399999999,"ADDRESS":"復興街２號之４","OBJECTID":468834},"geometry":{"x":173363.91000000015,"y":2564923.8400000017}},{"attributes":{"ID":468860,"DIS_CODE":0,"TOWNNAME":"麻豆區","LI":"大埕里","LIN":"5鄰","STREET":"復興街","SECT":" ","MAREA":" ","LANE":" ","ALLEY":" ","HOUSE_NO":"２號之５","E_COORD97":173368.17999999999,"N_COORD97":2564925.7599999998,"ADDRESS":"復興街２號之５","OBJECTID":468835},"geometry":{"x":173368.1799999997,"y":2564925.7599999998}},{"attributes":{"ID":468861,"DIS_CODE":0,"TOWNNAME":"麻豆區","LI":"大埕里","LIN":"5鄰","STREET":"復興街","SECT":" ","MAREA":" ","LANE":" ","ALLEY":" ","HOUSE_NO":"２號之６","E_COORD97":173391.14999999999,"N_COORD97":2564937.2000000002,"ADDRESS":"復興街２號之６","OBJECTID":468836},"geometry":{"x":173391.15000000037,"y":2564937.1999999974}},{"attributes":{"ID":468862,"DIS_CODE":0,"TOWNNAME":"麻豆區","LI":"大埕里","LIN":"5鄰","STREET":"復興街","SECT":" ","MAREA":" ","LANE":" ","ALLEY":" ","HOUSE_NO":"２號之７","E_COORD97":173395.44,"N_COORD97":2564940.8500000001,"ADDRESS":"復興街２號之７","OBJECTID":468837},"geometry":{"x":173395.44000000134,"y":2564940.8500000015}},{"attributes":{"ID":468863,"DIS_CODE":0,"TOWNNAME":"麻豆區","LI":"大埕里","LIN":"5鄰","STREET":"復興街","SECT":" ","MAREA":" ","LANE":" ","ALLEY":" ","HOUSE_NO":"２號之８","E_COORD97":173378.42000000001,"N_COORD97":2564932.8199999998,"ADDRESS":"復興街２號之８","OBJECTID":468838},"geometry":{"x":173378.41999999993,"y":2564932.8200000003}},{"attributes":{"ID":468864,"DIS_CODE":0,"TOWNNAME":"麻豆區","LI":"大埕里","LIN":"5鄰","STREET":"復興街","SECT":" ","MAREA":" ","LANE":" ","ALLEY":" ","HOUSE_NO":"２號之９","E_COORD97":173382.51000000001,"N_COORD97":2564933.6400000001,"ADDRESS":"復興街２號之９","OBJECTID":468839},"geometry":{"x":173382.50999999978,"y":2564933.6400000025}},{"attributes":{"ID":468865,"DIS_CODE":0,"TOWNNAME":"麻豆區","LI":"興農里","LIN":"5鄰","STREET":"新生南路","SECT":" ","MAREA":" ","LANE":" ","ALLEY":" ","HOUSE_NO":"１９５號","E_COORD97":172408.42000000001,"N_COORD97":2564404,"ADDRESS":"新生南路１９５號","OBJECTID":468840},"geometry":{"x":172408.42000000086,"y":2564404.0000000037}},{"attributes":{"ID":468866,"DIS_CODE":0,"TOWNNAME":"麻豆區","LI":"興農里","LIN":"5鄰","STREET":"新生南路","SECT":" ","MAREA":" ","LANE":" ","ALLEY":" ","HOUSE_NO":"１９７號","E_COORD97":172397.73000000001,"N_COORD97":2564403,"ADDRESS":"新生南路１９７號","OBJECTID":468841},"geometry":{"x":172397.73000000231,"y":2564403}},{"attributes":{"ID":468867,"DIS_CODE":0,"TOWNNAME":"麻豆區","LI":"興農里","LIN":"5鄰","STREET":"新生南路","SECT":" ","MAREA":" ","LANE":" ","ALLEY":" ","HOUSE_NO":"１９９號之１","E_COORD97":172386.01000000001,"N_COORD97":2564382.79,"ADDRESS":"新生南路１９９號之１","OBJECTID":468842},"geometry":{"x":172386.00999999978,"y":2564382.7899999991}},{"attributes":{"ID":468868,"DIS_CODE":0,"TOWNNAME":"麻豆區","LI":"興農里","LIN":"5鄰","STREET":"新生南路","SECT":" ","MAREA":" ","LANE":" ","ALLEY":" ","HOUSE_NO":"１９９號","E_COORD97":172381.45999999999,"N_COORD97":2564396.9700000002,"ADDRESS":"新生南路１９９號","OBJECTID":468843},"geometry":{"x":172381.45999999996,"y":2564396.9700000007}},{"attributes":{"ID":468869,"DIS_CODE":0,"TOWNNAME":"麻豆區","LI":"興農里","LIN":"5鄰","STREET":"新生南路","SECT":" ","MAREA":" ","LANE":" ","ALLEY":" ","HOUSE_NO":"２０１號","E_COORD97":172386.92000000001,"N_COORD97":2564377.7000000002,"ADDRESS":"新生南路２０１號","OBJECTID":468844},"geometry":{"x":172386.91999999993,"y":2564377.6999999974}},{"attributes":{"ID":468870,"DIS_CODE":0,"TOWNNAME":"麻豆區","LI":"興農里","LIN":"5鄰","STREET":"新生南路","SECT":" ","MAREA":" ","LANE":" ","ALLEY":" ","HOUSE_NO":"２０３號","E_COORD97":172362.22,"N_COORD97":2564387.4900000002,"ADDRESS":"新生南路２０３號","OBJECTID":468845},"geometry":{"x":172362.21999999974,"y":2564387.4900000021}},{"attributes":{"ID":468871,"DIS_CODE":0,"TOWNNAME":"麻豆區","LI":"興農里","LIN":"5鄰","STREET":"新生南路","SECT":" ","MAREA":" ","LANE":" ","ALLEY":" ","HOUSE_NO":"２０９號","E_COORD97":172366.73999999999,"N_COORD97":2564364.5899999999,"ADDRESS":"新生南路２０９號","OBJECTID":468846},"geometry":{"x":172366.73999999929,"y":2564364.5899999999}},{"attributes":{"ID":468872,"DIS_CODE":0,"TOWNNAME":"麻豆區","LI":"興農里","LIN":"5鄰","STREET":"新生南路","SECT":" ","MAREA":" ","LANE":" ","ALLEY":" ","HOUSE_NO":"２１１號","E_COORD97":172367.67000000001,"N_COORD97":2564360.1600000001,"ADDRESS":"新生南路２１１號","OBJECTID":468847},"geometry":{"x":172367.67000000086,"y":2564360.160000002}},{"attributes":{"ID":468873,"DIS_CODE":0,"TOWNNAME":"麻豆區","LI":"興農里","LIN":"5鄰","STREET":"新生南路","SECT":" ","MAREA":" ","LANE":" ","ALLEY":" ","HOUSE_NO":"２１３號","E_COORD97":172371.75,"N_COORD97":2564353.1200000001,"ADDRESS":"新生南路２１３號","OBJECTID":468848},"geometry":{"x":172371.75000000093,"y":2564353.1200000048}},{"attributes":{"ID":468874,"DIS_CODE":0,"TOWNNAME":"麻豆區","LI":"興農里","LIN":"5鄰","STREET":"新生南路","SECT":" ","MAREA":" ","LANE":" ","ALLEY":" ","HOUSE_NO":"２１７號","E_COORD97":172372.97,"N_COORD97":2564346.3900000001,"ADDRESS":"新生南路２１７號","OBJECTID":468849},"geometry":{"x":172372.96999999974,"y":2564346.3900000006}},{"attributes":{"ID":468875,"DIS_CODE":0,"TOWNNAME":"麻豆區","LI":"油車里","LIN":"5鄰","STREET":"新興街","SECT":" ","MAREA":" ","LANE":" ","ALLEY":" ","HOUSE_NO":"１６號","E_COORD97":172576.04999999999,"N_COORD97":2565294.5499999998,"ADDRESS":"新興街１６號","OBJECTID":468850},"geometry":{"x":172576.04999999888,"y":2565294.5500000007}},{"attributes":{"ID":468876,"DIS_CODE":0,"TOWNNAME":"麻豆區","LI":"興農里","LIN":"5鄰","STREET":"新生南路","SECT":" ","MAREA":" ","LANE":" ","ALLEY":" ","HOUSE_NO":"２２１號","E_COORD97":172373.60999999999,"N_COORD97":2564337.5299999998,"ADDRESS":"新生南路２２１號","OBJECTID":468851},"geometry":{"x":172373.61000000127,"y":2564337.5299999993}},{"attributes":{"ID":468877,"DIS_CODE":0,"TOWNNAME":"麻豆區","LI":"興農里","LIN":"5鄰","STREET":"新生南路","SECT":" ","MAREA":" ","LANE":" ","ALLEY":" ","HOUSE_NO":"２２７號","E_COORD97":172422.12,"N_COORD97":2564362.2999999998,"ADDRESS":"新生南路２２７號","OBJECTID":468852},"geometry":{"x":172422.12000000104,"y":2564362.3000000026}},{"attributes":{"ID":468878,"DIS_CODE":0,"TOWNNAME":"麻豆區","LI":"興農里","LIN":"5鄰","STREET":"新生南路","SECT":" ","MAREA":" ","LANE":" ","ALLEY":" ","HOUSE_NO":"２３３號","E_COORD97":172381.17000000001,"N_COORD97":2564320.1400000001,"ADDRESS":"新生南路２３３號","OBJECTID":468853},"geometry":{"x":172381.17000000086,"y":2564320.1400000025}},{"attributes":{"ID":468879,"DIS_CODE":0,"TOWNNAME":"麻豆區","LI":"興農里","LIN":"5鄰","STREET":"新生南路","SECT":" ","MAREA":" ","LANE":" ","ALLEY":" ","HOUSE_NO":"２４７號","E_COORD97":172367.34,"N_COORD97":2564289.4700000002,"ADDRESS":"新生南路２４７號","OBJECTID":468854},"geometry":{"x":172367.33999999892,"y":2564289.4700000044}},{"attributes":{"ID":468880,"DIS_CODE":0,"TOWNNAME":"麻豆區","LI":"興農里","LIN":"5鄰","STREET":"新生南路","SECT":" ","MAREA":" ","LANE":" ","ALLEY":" ","HOUSE_NO":"２６５號","E_COORD97":172372.89000000001,"N_COORD97":2564216.8399999999,"ADDRESS":"新生南路２６５號","OBJECTID":468855},"geometry":{"x":172372.88999999966,"y":2564216.8399999999}},{"attributes":{"ID":468881,"DIS_CODE":0,"TOWNNAME":"麻豆區","LI":"興農里","LIN":"5鄰","STREET":"新生南路","SECT":" ","MAREA":" ","LANE":" ","ALLEY":" ","HOUSE_NO":"２６９號","E_COORD97":172373.54999999999,"N_COORD97":2564207.6800000002,"ADDRESS":"新生南路２６９號","OBJECTID":468856},"geometry":{"x":172373.55000000075,"y":2564207.6799999997}},{"attributes":{"ID":468882,"DIS_CODE":0,"TOWNNAME":"麻豆區","LI":"興農里","LIN":"5鄰","STREET":"新生南路","SECT":" ","MAREA":" ","LANE":" ","ALLEY":" ","HOUSE_NO":"２７１號","E_COORD97":172374.14999999999,"N_COORD97":2564202.52,"ADDRESS":"新生南路２７１號","OBJECTID":468857},"geometry":{"x":172374.15000000037,"y":2564202.5199999996}},{"attributes":{"ID":468883,"DIS_CODE":0,"TOWNNAME":"麻豆區","LI":"興農里","LIN":"5鄰","STREET":"新生南路","SECT":" ","MAREA":" ","LANE":" ","ALLEY":" ","HOUSE_NO":"２７３號","E_COORD97":172374.14000000001,"N_COORD97":2564196.6400000001,"ADDRESS":"新生南路２７３號","OBJECTID":468858},"geometry":{"x":172374.1400000006,"y":2564196.6400000043}},{"attributes":{"ID":468884,"DIS_CODE":0,"TOWNNAME":"麻豆區","LI":"興農里","LIN":"5鄰","STREET":"新生南路","SECT":" ","MAREA":" ","LANE":" ","ALLEY":" ","HOUSE_NO":"２７５號","E_COORD97":172374.95999999999,"N_COORD97":2564192.0800000001,"ADDRESS":"新生南路２７５號","OBJECTID":468859},"geometry":{"x":172374.95999999996,"y":2564192.0800000001}},{"attributes":{"ID":468885,"DIS_CODE":0,"TOWNNAME":"麻豆區","LI":"興農里","LIN":"5鄰","STREET":"新生南路","SECT":" ","MAREA":" ","LANE":" ","ALLEY":" ","HOUSE_NO":"２７７號","E_COORD97":172375.63,"N_COORD97":2564186.3700000001,"ADDRESS":"新生南路２７７號","OBJECTID":468860},"geometry":{"x":172375.63000000175,"y":2564186.3700000029}},{"attributes":{"ID":468886,"DIS_CODE":0,"TOWNNAME":"麻豆區","LI":"興農里","LIN":"5鄰","STREET":"新生南路","SECT":" ","MAREA":" ","LANE":" ","ALLEY":" ","HOUSE_NO":"２８７號","E_COORD97":172378.53,"N_COORD97":2564162.7999999998,"ADDRESS":"新生南路２８７號","OBJECTID":468861},"geometry":{"x":172378.53000000212,"y":2564162.8000000026}},{"attributes":{"ID":468887,"DIS_CODE":0,"TOWNNAME":"麻豆區","LI":"興農里","LIN":"5鄰","STREET":"新生南路","SECT":" ","MAREA":" ","LANE":" ","ALLEY":" ","HOUSE_NO":"２９１號","E_COORD97":172383.64000000001,"N_COORD97":2564149.0699999998,"ADDRESS":"新生南路２９１號","OBJECTID":468862},"geometry":{"x":172383.63999999966,"y":2564149.0700000003}},{"attributes":{"ID":468888,"DIS_CODE":0,"TOWNNAME":"麻豆區","LI":"興農里","LIN":"5鄰","STREET":"新生南路","SECT":" ","MAREA":" ","LANE":" ","ALLEY":" ","HOUSE_NO":"２９３號","E_COORD97":172383.73999999999,"N_COORD97":2564138.8199999998,"ADDRESS":"新生南路２９３號","OBJECTID":468863},"geometry":{"x":172383.74000000209,"y":2564138.8200000022}},{"attributes":{"ID":468889,"DIS_CODE":0,"TOWNNAME":"麻豆區","LI":"興農里","LIN":"5鄰","STREET":"新生南路","SECT":" ","MAREA":" ","LANE":" ","ALLEY":" ","HOUSE_NO":"３０１號","E_COORD97":172394.13,"N_COORD97":2564130.8900000001,"ADDRESS":"新生南路３０１號","OBJECTID":468864},"geometry":{"x":172394.12999999989,"y":2564130.8900000025}},{"attributes":{"ID":468890,"DIS_CODE":0,"TOWNNAME":"麻豆區","LI":"興農里","LIN":"5鄰","STREET":"新生南路","SECT":" ","MAREA":" ","LANE":" ","ALLEY":" ","HOUSE_NO":"３０３號","E_COORD97":172379.5,"N_COORD97":2564122.3500000001,"ADDRESS":"新生南路３０３號","OBJECTID":468865},"geometry":{"x":172379.5,"y":2564122.3499999996}},{"attributes":{"ID":468891,"DIS_CODE":0,"TOWNNAME":"麻豆區","LI":"興農里","LIN":"5鄰","STREET":"新生南路","SECT":" ","MAREA":" ","LANE":" ","ALLEY":" ","HOUSE_NO":"３０５號","E_COORD97":172379.85999999999,"N_COORD97":2564116.6600000001,"ADDRESS":"新生南路３０５號","OBJECTID":468866},"geometry":{"x":172379.86000000127,"y":2564116.6600000001}},{"attributes":{"ID":468892,"DIS_CODE":0,"TOWNNAME":"麻豆區","LI":"興農里","LIN":"5鄰","STREET":"新生南路","SECT":" ","MAREA":" ","LANE":" ","ALLEY":" ","HOUSE_NO":"３０７號","E_COORD97":172380.06,"N_COORD97":2564111.8799999999,"ADDRESS":"新生南路３０７號","OBJECTID":468867},"geometry":{"x":172380.06000000052,"y":2564111.8800000027}},{"attributes":{"ID":468893,"DIS_CODE":0,"TOWNNAME":"麻豆區","LI":"興農里","LIN":"5鄰","STREET":"新生南路","SECT":" ","MAREA":" ","LANE":" ","ALLEY":" ","HOUSE_NO":"３０９號","E_COORD97":172380.85999999999,"N_COORD97":2564105.5899999999,"ADDRESS":"新生南路３０９號","OBJECTID":468868},"geometry":{"x":172380.86000000034,"y":2564105.5900000017}},{"attributes":{"ID":468894,"DIS_CODE":0,"TOWNNAME":"麻豆區","LI":"興農里","LIN":"5鄰","STREET":"新生南路","SECT":" ","MAREA":" ","LANE":" ","ALLEY":" ","HOUSE_NO":"３１１號","E_COORD97":172386.29000000001,"N_COORD97":2564097.9100000001,"ADDRESS":"新生南路３１１號","OBJECTID":468869},"geometry":{"x":172386.29000000004,"y":2564097.9100000001}},{"attributes":{"ID":468895,"DIS_CODE":0,"TOWNNAME":"麻豆區","LI":"興農里","LIN":"5鄰","STREET":"新生南路","SECT":" ","MAREA":" ","LANE":" ","ALLEY":" ","HOUSE_NO":"３１８號","E_COORD97":172330.95000000001,"N_COORD97":2564214.5299999998,"ADDRESS":"新生南路３１８號","OBJECTID":468870},"geometry":{"x":172330.95000000019,"y":2564214.5300000012}},{"attributes":{"ID":468896,"DIS_CODE":0,"TOWNNAME":"麻豆區","LI":"興農里","LIN":"5鄰","STREET":"新生南路","SECT":" ","MAREA":" ","LANE":" ","ALLEY":" ","HOUSE_NO":"３３０號","E_COORD97":172332.42000000001,"N_COORD97":2564194.54,"ADDRESS":"新生南路３３０號","OBJECTID":468871},"geometry":{"x":172332.41999999993,"y":2564194.5399999991}},{"attributes":{"ID":468897,"DIS_CODE":0,"TOWNNAME":"麻豆區","LI":"興農里","LIN":"5鄰","STREET":"新生南路","SECT":" ","MAREA":" ","LANE":" ","ALLEY":" ","HOUSE_NO":"３３６號","E_COORD97":172335.01000000001,"N_COORD97":2564171.8199999998,"ADDRESS":"新生南路３３６號","OBJECTID":468872},"geometry":{"x":172335.00999999978,"y":2564171.8200000022}},{"attributes":{"ID":468898,"DIS_CODE":0,"TOWNNAME":"麻豆區","LI":"油車里","LIN":"5鄰","STREET":"新興街","SECT":" ","MAREA":" ","LANE":" ","ALLEY":" ","HOUSE_NO":"１２號","E_COORD97":172605.04999999999,"N_COORD97":2565296.29,"ADDRESS":"新興街１２號","OBJECTID":468873},"geometry":{"x":172605.05000000168,"y":2565296.290000001}},{"attributes":{"ID":468899,"DIS_CODE":0,"TOWNNAME":"麻豆區","LI":"油車里","LIN":"5鄰","STREET":"新興街","SECT":" ","MAREA":" ","LANE":" ","ALLEY":" ","HOUSE_NO":"１３號之１","E_COORD97":172618.41,"N_COORD97":2565258.4300000002,"ADDRESS":"新興街１３號之１","OBJECTID":468874},"geometry":{"x":172618.41000000108,"y":2565258.4300000034}},{"attributes":{"ID":468900,"DIS_CODE":0,"TOWNNAME":"麻豆區","LI":"油車里","LIN":"5鄰","STREET":"新興街","SECT":" ","MAREA":" ","LANE":" ","ALLEY":" ","HOUSE_NO":"１３號之２","E_COORD97":172618.94,"N_COORD97":2565254.4900000002,"ADDRESS":"新興街１３號之２","OBJECTID":468875},"geometry":{"x":172618.94000000134,"y":2565254.4900000002}},{"attributes":{"ID":468901,"DIS_CODE":0,"TOWNNAME":"麻豆區","LI":"油車里","LIN":"5鄰","STREET":"新興街","SECT":" ","MAREA":" ","LANE":" ","ALLEY":" ","HOUSE_NO":"１３號之３","E_COORD97":172630.59,"N_COORD97":2565243.9199999999,"ADDRESS":"新興街１３號之３","OBJECTID":468876},"geometry":{"x":172630.59000000078,"y":2565243.9199999999}},{"attributes":{"ID":468902,"DIS_CODE":0,"TOWNNAME":"麻豆區","LI":"油車里","LIN":"5鄰","STREET":"新興街","SECT":" ","MAREA":" ","LANE":" ","ALLEY":" ","HOUSE_NO":"１３號之４","E_COORD97":172624.53,"N_COORD97":2565243.5099999998,"ADDRESS":"新興街１３號之４","OBJECTID":468877},"geometry":{"x":172624.53000000119,"y":2565243.5099999998}},{"attributes":{"ID":468903,"DIS_CODE":0,"TOWNNAME":"麻豆區","LI":"油車里","LIN":"5鄰","STREET":"新興街","SECT":" ","MAREA":" ","LANE":" ","ALLEY":" ","HOUSE_NO":"１３號之５","E_COORD97":172618.95000000001,"N_COORD97":2565242.9900000002,"ADDRESS":"新興街１３號之５","OBJECTID":468878},"geometry":{"x":172618.95000000019,"y":2565242.9900000021}},{"attributes":{"ID":468904,"DIS_CODE":0,"TOWNNAME":"麻豆區","LI":"油車里","LIN":"5鄰","STREET":"新興街","SECT":" ","MAREA":" ","LANE":" ","ALLEY":" ","HOUSE_NO":"１３號之６","E_COORD97":172612.89999999999,"N_COORD97":2565242.27,"ADDRESS":"新興街１３號之６","OBJECTID":468879},"geometry":{"x":172612.90000000037,"y":2565242.2700000033}},{"attributes":{"ID":468905,"DIS_CODE":0,"TOWNNAME":"麻豆區","LI":"油車里","LIN":"5鄰","STREET":"新興街","SECT":" ","MAREA":" ","LANE":" ","ALLEY":" ","HOUSE_NO":"１３號之７","E_COORD97":172602.67000000001,"N_COORD97":2565240.1800000002,"ADDRESS":"新興街１３號之７","OBJECTID":468880},"geometry":{"x":172602.67000000179,"y":2565240.1800000016}},{"attributes":{"ID":468906,"DIS_CODE":0,"TOWNNAME":"麻豆區","LI":"油車里","LIN":"5鄰","STREET":"新興街","SECT":" ","MAREA":" ","LANE":" ","ALLEY":" ","HOUSE_NO":"１３號","E_COORD97":172605.01000000001,"N_COORD97":2565276,"ADDRESS":"新興街１３號","OBJECTID":468881},"geometry":{"x":172605.00999999978,"y":2565276.0000000019}},{"attributes":{"ID":468907,"DIS_CODE":0,"TOWNNAME":"麻豆區","LI":"油車里","LIN":"5鄰","STREET":"新興街","SECT":" ","MAREA":" ","LANE":" ","ALLEY":" ","HOUSE_NO":"１６號之１０","E_COORD97":172574.89999999999,"N_COORD97":2565263.6600000001,"ADDRESS":"新興街１６號之１０","OBJECTID":468882},"geometry":{"x":172574.9000000013,"y":2565263.6600000001}},{"attributes":{"ID":468908,"DIS_CODE":0,"TOWNNAME":"麻豆區","LI":"油車里","LIN":"5鄰","STREET":"新興街","SECT":" ","MAREA":" ","LANE":" ","ALLEY":" ","HOUSE_NO":"１６號之１１","E_COORD97":172574.63,"N_COORD97":2565267.8999999999,"ADDRESS":"新興街１６號之１１","OBJECTID":468883},"geometry":{"x":172574.63000000082,"y":2565267.9000000004}},{"attributes":{"ID":468909,"DIS_CODE":0,"TOWNNAME":"麻豆區","LI":"油車里","LIN":"5鄰","STREET":"新興街","SECT":" ","MAREA":" ","LANE":" ","ALLEY":" ","HOUSE_NO":"１６號之１２","E_COORD97":172574.35000000001,"N_COORD97":2565272.1400000001,"ADDRESS":"新興街１６號之１２","OBJECTID":468884},"geometry":{"x":172574.35000000056,"y":2565272.1400000025}},{"attributes":{"ID":468910,"DIS_CODE":0,"TOWNNAME":"麻豆區","LI":"油車里","LIN":"5鄰","STREET":"新興街","SECT":" ","MAREA":" ","LANE":" ","ALLEY":" ","HOUSE_NO":"１６號之１３","E_COORD97":172574.07000000001,"N_COORD97":2565276.3799999999,"ADDRESS":"新興街１６號之１３","OBJECTID":468885},"geometry":{"x":172574.0700000003,"y":2565276.3800000008}},{"attributes":{"ID":468911,"DIS_CODE":0,"TOWNNAME":"麻豆區","LI":"油車里","LIN":"5鄰","STREET":"新興街","SECT":" ","MAREA":" ","LANE":" ","ALLEY":" ","HOUSE_NO":"１６號之１５","E_COORD97":172573.79999999999,"N_COORD97":2565280.6200000001,"ADDRESS":"新興街１６號之１５","OBJECTID":468886},"geometry":{"x":172573.79999999981,"y":2565280.620000001}},{"attributes":{"ID":468912,"DIS_CODE":0,"TOWNNAME":"麻豆區","LI":"油車里","LIN":"5鄰","STREET":"新興街","SECT":" ","MAREA":" ","LANE":" ","ALLEY":" ","HOUSE_NO":"１６號之１６","E_COORD97":172573.51999999999,"N_COORD97":2565284.8599999999,"ADDRESS":"新興街１６號之１６","OBJECTID":468887},"geometry":{"x":172573.52000000048,"y":2565284.8599999994}},{"attributes":{"ID":468913,"DIS_CODE":0,"TOWNNAME":"麻豆區","LI":"油車里","LIN":"5鄰","STREET":"新興街","SECT":" ","MAREA":" ","LANE":" ","ALLEY":" ","HOUSE_NO":"１６號之１","E_COORD97":172565.01000000001,"N_COORD97":2565284.3100000001,"ADDRESS":"新興街１６號之１","OBJECTID":468888},"geometry":{"x":172565.01000000071,"y":2565284.3100000024}},{"attributes":{"ID":468914,"DIS_CODE":0,"TOWNNAME":"麻豆區","LI":"油車里","LIN":"5鄰","STREET":"新興街","SECT":" ","MAREA":" ","LANE":" ","ALLEY":" ","HOUSE_NO":"１６號之２","E_COORD97":172565.20999999999,"N_COORD97":2565280.1099999999,"ADDRESS":"新興街１６號之２","OBJECTID":468889},"geometry":{"x":172565.21000000183,"y":2565280.1099999994}},{"attributes":{"ID":468915,"DIS_CODE":0,"TOWNNAME":"麻豆區","LI":"油車里","LIN":"5鄰","STREET":"新興街","SECT":" ","MAREA":" ","LANE":" ","ALLEY":" ","HOUSE_NO":"１６號之３","E_COORD97":172565.42000000001,"N_COORD97":2565275.8999999999,"ADDRESS":"新興街１６號之３","OBJECTID":468890},"geometry":{"x":172565.42000000179,"y":2565275.9000000004}},{"attributes":{"ID":468916,"DIS_CODE":0,"TOWNNAME":"麻豆區","LI":"油車里","LIN":"5鄰","STREET":"新興街","SECT":" ","MAREA":" ","LANE":" ","ALLEY":" ","HOUSE_NO":"１６號之５","E_COORD97":172565.63,"N_COORD97":2565271.6899999999,"ADDRESS":"新興街１６號之５","OBJECTID":468891},"geometry":{"x":172565.63000000175,"y":2565271.6899999995}},{"attributes":{"ID":468917,"DIS_CODE":0,"TOWNNAME":"麻豆區","LI":"油車里","LIN":"5鄰","STREET":"新興街","SECT":" ","MAREA":" ","LANE":" ","ALLEY":" ","HOUSE_NO":"１６號之６","E_COORD97":172565.84,"N_COORD97":2565267.48,"ADDRESS":"新興街１６號之６","OBJECTID":468892},"geometry":{"x":172565.84000000171,"y":2565267.4800000004}},{"attributes":{"ID":468918,"DIS_CODE":0,"TOWNNAME":"麻豆區","LI":"油車里","LIN":"5鄰","STREET":"新興街","SECT":" ","MAREA":" ","LANE":" ","ALLEY":" ","HOUSE_NO":"１６號之７","E_COORD97":172566.04999999999,"N_COORD97":2565263.27,"ADDRESS":"新興街１６號之７","OBJECTID":468893},"geometry":{"x":172566.05000000168,"y":2565263.2700000014}},{"attributes":{"ID":468919,"DIS_CODE":0,"TOWNNAME":"麻豆區","LI":"油車里","LIN":"5鄰","STREET":"新興街","SECT":" ","MAREA":" ","LANE":" ","ALLEY":" ","HOUSE_NO":"１６號之８","E_COORD97":172566.25,"N_COORD97":2565259.0600000001,"ADDRESS":"新興街１６號之８","OBJECTID":468894},"geometry":{"x":172566.25,"y":2565259.0600000024}},{"attributes":{"ID":468920,"DIS_CODE":0,"TOWNNAME":"麻豆區","LI":"油車里","LIN":"5鄰","STREET":"新興街","SECT":" ","MAREA":" ","LANE":" ","ALLEY":" ","HOUSE_NO":"１６號之９","E_COORD97":172575.20999999999,"N_COORD97":2565259.96,"ADDRESS":"新興街１６號之９","OBJECTID":468895},"geometry":{"x":172575.21000000183,"y":2565259.9600000028}},{"attributes":{"ID":468921,"DIS_CODE":0,"TOWNNAME":"歸仁區","LI":"南興里","LIN":"5鄰","STREET":"民生北街","SECT":" ","MAREA":" ","LANE":" ","ALLEY":" ","HOUSE_NO":"１２１號","E_COORD97":176224.04000000001,"N_COORD97":2541242.29,"ADDRESS":"民生北街１２１號","OBJECTID":468896},"geometry":{"x":176224.04000000004,"y":2541242.290000001}},{"attributes":{"ID":468922,"DIS_CODE":0,"TOWNNAME":"歸仁區","LI":"南保里","LIN":"5鄰","STREET":"文化街","SECT":"三段","MAREA":" ","LANE":" ","ALLEY":" ","HOUSE_NO":"２６號","E_COORD97":176934.79000000001,"N_COORD97":2541249.3300000001,"ADDRESS":"文化街三段２６號","OBJECTID":468897},"geometry":{"x":176934.7900000019,"y":2541249.3300000019}},{"attributes":{"ID":468923,"DIS_CODE":0,"TOWNNAME":"歸仁區","LI":"南保里","LIN":"5鄰","STREET":"文化街","SECT":"三段","MAREA":" ","LANE":" ","ALLEY":" ","HOUSE_NO":"３６號","E_COORD97":176915.29000000001,"N_COORD97":2541251.3300000001,"ADDRESS":"文化街三段３６號","OBJECTID":468898},"geometry":{"x":176915.29000000097,"y":2541251.3300000001}},{"attributes":{"ID":468924,"DIS_CODE":0,"TOWNNAME":"歸仁區","LI":"南興里","LIN":"5鄰","STREET":"民生二街","SECT":" ","MAREA":" ","LANE":" ","ALLEY":" ","HOUSE_NO":"２５號","E_COORD97":176190.29000000001,"N_COORD97":2541304.29,"ADDRESS":"民生二街２５號","OBJECTID":468899},"geometry":{"x":176190.29000000004,"y":2541304.2899999991}},{"attributes":{"ID":468925,"DIS_CODE":0,"TOWNNAME":"歸仁區","LI":"辜厝里","LIN":"5鄰","STREET":"大順街","SECT":" ","MAREA":" ","LANE":" ","ALLEY":" ","HOUSE_NO":"５６號","E_COORD97":177372.76000000001,"N_COORD97":2540613.54,"ADDRESS":"大順街５６號","OBJECTID":468900},"geometry":{"x":177372.76000000071,"y":2540613.540000001}},{"attributes":{"ID":468926,"DIS_CODE":0,"TOWNNAME":"歸仁區","LI":"南興里","LIN":"5鄰","STREET":"民生北街","SECT":" ","MAREA":" ","LANE":" ","ALLEY":" ","HOUSE_NO":"１６７號","E_COORD97":176266.23999999999,"N_COORD97":2541274.29,"ADDRESS":"民生北街１６７號","OBJECTID":468901},"geometry":{"x":176266.24000000115,"y":2541274.2899999991}},{"attributes":{"ID":468927,"DIS_CODE":0,"TOWNNAME":"歸仁區","LI":"媽廟里","LIN":"5鄰","STREET":"中正北路","SECT":"三段","MAREA":" ","LANE":" ","ALLEY":" ","HOUSE_NO":"１７１號","E_COORD97":177583.95999999999,"N_COORD97":2543777.7200000002,"ADDRESS":"中正北路三段１７１號","OBJECTID":468902},"geometry":{"x":177583.95999999996,"y":2543777.7200000007}},{"attributes":{"ID":468928,"DIS_CODE":0,"TOWNNAME":"歸仁區","LI":"歸仁里","LIN":"5鄰","STREET":"大通路","SECT":" ","MAREA":" ","LANE":" ","ALLEY":" ","HOUSE_NO":"５６號","E_COORD97":177775.88,"N_COORD97":2540894.3399999999,"ADDRESS":"大通路５６號","OBJECTID":468903},"geometry":{"x":177775.87999999989,"y":2540894.3399999999}},{"attributes":{"ID":468929,"DIS_CODE":0,"TOWNNAME":"歸仁區","LI":"辜厝里","LIN":"5鄰","STREET":"民族南街","SECT":" ","MAREA":" ","LANE":" ","ALLEY":" ","HOUSE_NO":"６８號","E_COORD97":177385.29000000001,"N_COORD97":2540615.5499999998,"ADDRESS":"民族南街６８號","OBJECTID":468904},"geometry":{"x":177385.29000000004,"y":2540615.5500000026}},{"attributes":{"ID":468930,"DIS_CODE":0,"TOWNNAME":"歸仁區","LI":"新厝里","LIN":"5鄰","STREET":"復興路","SECT":" ","MAREA":" ","LANE":" ","ALLEY":" ","HOUSE_NO":"１７９號","E_COORD97":177650.60000000001,"N_COORD97":2540631.9399999999,"ADDRESS":"復興路１７９號","OBJECTID":468905},"geometry":{"x":177650.59999999963,"y":2540631.9400000013}},{"attributes":{"ID":468931,"DIS_CODE":0,"TOWNNAME":"歸仁區","LI":"辜厝里","LIN":"5鄰","STREET":"民族南街","SECT":" ","MAREA":" ","LANE":" ","ALLEY":" ","HOUSE_NO":"６０號","E_COORD97":177395.69,"N_COORD97":2540640.5499999998,"ADDRESS":"民族南街６０號","OBJECTID":468906},"geometry":{"x":177395.69000000134,"y":2540640.5500000007}},{"attributes":{"ID":468932,"DIS_CODE":0,"TOWNNAME":"歸仁區","LI":"新厝里","LIN":"5鄰","STREET":"復興路","SECT":" ","MAREA":" ","LANE":" ","ALLEY":" ","HOUSE_NO":"１７１號","E_COORD97":177664,"N_COORD97":2540629.9399999999,"ADDRESS":"復興路１７１號","OBJECTID":468907},"geometry":{"x":177664.00000000186,"y":2540629.9399999995}},{"attributes":{"ID":468933,"DIS_CODE":0,"TOWNNAME":"歸仁區","LI":"媽廟里","LIN":"5鄰","STREET":"中正北路","SECT":"三段","MAREA":" ","LANE":" ","ALLEY":" ","HOUSE_NO":"１５７號","E_COORD97":177575.66,"N_COORD97":2543747.7200000002,"ADDRESS":"中正北路三段１５７號","OBJECTID":468908},"geometry":{"x":177575.66000000108,"y":2543747.7200000007}},{"attributes":{"ID":468934,"DIS_CODE":0,"TOWNNAME":"歸仁區","LI":"媽廟里","LIN":"5鄰","STREET":"中正北路","SECT":"三段","MAREA":" ","LANE":" ","ALLEY":" ","HOUSE_NO":"１５３號","E_COORD97":177571.45999999999,"N_COORD97":2543737.7200000002,"ADDRESS":"中正北路三段１５３號","OBJECTID":468909},"geometry":{"x":177571.46000000089,"y":2543737.7200000007}},{"attributes":{"ID":468935,"DIS_CODE":0,"TOWNNAME":"歸仁區","LI":"歸南里","LIN":"5鄰","STREET":"中正南路","SECT":"一段","MAREA":" ","LANE":" ","ALLEY":" ","HOUSE_NO":"５０６號","E_COORD97":176866.34,"N_COORD97":2540033.25,"ADDRESS":"中正南路一段５０６號","OBJECTID":468910},"geometry":{"x":176866.33999999985,"y":2540033.2500000019}},{"attributes":{"ID":468936,"DIS_CODE":0,"TOWNNAME":"歸仁區","LI":"新厝里","LIN":"5鄰","STREET":"中正南路","SECT":"一段","MAREA":" ","LANE":" ","ALLEY":" ","HOUSE_NO":"３５號","E_COORD97":177624.38,"N_COORD97":2540625.9300000002,"ADDRESS":"中正南路一段３５號","OBJECTID":468911},"geometry":{"x":177624.38000000082,"y":2540625.9299999997}},{"attributes":{"ID":468937,"DIS_CODE":0,"TOWNNAME":"歸仁區","LI":"媽廟里","LIN":"5鄰","STREET":"中正北路","SECT":"三段","MAREA":" ","LANE":" ","ALLEY":" ","HOUSE_NO":"１５９號","E_COORD97":177576.66,"N_COORD97":2543751.7200000002,"ADDRESS":"中正北路三段１５９號","OBJECTID":468912},"geometry":{"x":177576.66000000201,"y":2543751.7200000007}},{"attributes":{"ID":468938,"DIS_CODE":0,"TOWNNAME":"歸仁區","LI":"辜厝里","LIN":"5鄰","STREET":"民族南街","SECT":" ","MAREA":" ","LANE":" ","ALLEY":" ","HOUSE_NO":"５２號","E_COORD97":177397.79000000001,"N_COORD97":2540657.5499999998,"ADDRESS":"民族南街５２號","OBJECTID":468913},"geometry":{"x":177397.79000000097,"y":2540657.5500000007}},{"attributes":{"ID":468939,"DIS_CODE":0,"TOWNNAME":"歸仁區","LI":"歸仁里","LIN":"5鄰","STREET":"大通路","SECT":" ","MAREA":" ","LANE":" ","ALLEY":" ","HOUSE_NO":"５０號","E_COORD97":177828.66,"N_COORD97":2540891.4900000002,"ADDRESS":"大通路５０號","OBJECTID":468914},"geometry":{"x":177828.66000000015,"y":2540891.4900000002}},{"attributes":{"ID":468940,"DIS_CODE":0,"TOWNNAME":"歸仁區","LI":"崙頂里","LIN":"5鄰","STREET":"大成路","SECT":" ","MAREA":" ","LANE":" ","ALLEY":" ","HOUSE_NO":"３７６號","E_COORD97":178011.37,"N_COORD97":2540109.6800000002,"ADDRESS":"大成路３７６號","OBJECTID":468915},"geometry":{"x":178011.37000000104,"y":2540109.6799999997}},{"attributes":{"ID":468941,"DIS_CODE":0,"TOWNNAME":"歸仁區","LI":"歸南里","LIN":"5鄰","STREET":"中正南路","SECT":"一段","MAREA":" ","LANE":" ","ALLEY":" ","HOUSE_NO":"５１２號","E_COORD97":176851.94,"N_COORD97":2540027.25,"ADDRESS":"中正南路一段５１２號","OBJECTID":468916},"geometry":{"x":176851.94000000134,"y":2540027.25}},{"attributes":{"ID":468942,"DIS_CODE":0,"TOWNNAME":"歸仁區","LI":"新厝里","LIN":"5鄰","STREET":"中正南路","SECT":"一段","MAREA":" ","LANE":" ","ALLEY":" ","HOUSE_NO":"３３號","E_COORD97":177625.48000000001,"N_COORD97":2540629.9300000002,"ADDRESS":"中正南路一段３３號","OBJECTID":468917},"geometry":{"x":177625.47999999952,"y":2540629.9299999997}},{"attributes":{"ID":468943,"DIS_CODE":0,"TOWNNAME":"歸仁區","LI":"新厝里","LIN":"5鄰","STREET":"中正南路","SECT":"一段","MAREA":" ","LANE":" ","ALLEY":" ","HOUSE_NO":"４１號","E_COORD97":177622.38,"N_COORD97":2540615.9300000002,"ADDRESS":"中正南路一段４１號","OBJECTID":468918},"geometry":{"x":177622.38000000175,"y":2540615.9299999997}},{"attributes":{"ID":468944,"DIS_CODE":0,"TOWNNAME":"歸仁區","LI":"看西里","LIN":"5鄰","STREET":"仁愛十街","SECT":" ","MAREA":" ","LANE":" ","ALLEY":" ","HOUSE_NO":"５３號","E_COORD97":178175.14999999999,"N_COORD97":2540318.4900000002,"ADDRESS":"仁愛十街５３號","OBJECTID":468919},"geometry":{"x":178175.15000000037,"y":2540318.4900000002}},{"attributes":{"ID":468945,"DIS_CODE":0,"TOWNNAME":"歸仁區","LI":"歸南里","LIN":"5鄰","STREET":"中正南路","SECT":"一段","MAREA":" ","LANE":" ","ALLEY":" ","HOUSE_NO":"４６０號","E_COORD97":176927.14000000001,"N_COORD97":2540078.25,"ADDRESS":"中正南路一段４６０號","OBJECTID":468920},"geometry":{"x":176927.1400000006,"y":2540078.25}},{"attributes":{"ID":468946,"DIS_CODE":0,"TOWNNAME":"歸仁區","LI":"辜厝里","LIN":"5鄰","STREET":"民族南街","SECT":" ","MAREA":" ","LANE":" ","ALLEY":" ","HOUSE_NO":"５８號","E_COORD97":177395.69,"N_COORD97":2540645.5499999998,"ADDRESS":"民族南街５８號","OBJECTID":468921},"geometry":{"x":177395.69000000134,"y":2540645.5500000026}},{"attributes":{"ID":468947,"DIS_CODE":0,"TOWNNAME":"歸仁區","LI":"歸南里","LIN":"5鄰","STREET":"中正南路","SECT":"一段","MAREA":" ","LANE":" ","ALLEY":" ","HOUSE_NO":"４９４號","E_COORD97":176889.04000000001,"N_COORD97":2540048.25,"ADDRESS":"中正南路一段４９４號","OBJECTID":468922},"geometry":{"x":176889.0400000019,"y":2540048.25}},{"attributes":{"ID":468948,"DIS_CODE":0,"TOWNNAME":"歸仁區","LI":"歸南里","LIN":"5鄰","STREET":"中正南路","SECT":"一段","MAREA":" ","LANE":" ","ALLEY":" ","HOUSE_NO":"５００號","E_COORD97":176877.64000000001,"N_COORD97":2540039.25,"ADDRESS":"中正南路一段５００號","OBJECTID":468923},"geometry":{"x":176877.63999999966,"y":2540039.2500000019}},{"attributes":{"ID":468949,"DIS_CODE":0,"TOWNNAME":"歸仁區","LI":"歸南里","LIN":"5鄰","STREET":"中正南路","SECT":"一段","MAREA":" ","LANE":" ","ALLEY":" ","HOUSE_NO":"４８６號","E_COORD97":176907.54000000001,"N_COORD97":2540060.25,"ADDRESS":"中正南路一段４８６號","OBJECTID":468924},"geometry":{"x":176907.54000000004,"y":2540060.2500000019}},{"attributes":{"ID":468950,"DIS_CODE":0,"TOWNNAME":"歸仁區","LI":"新厝里","LIN":"5鄰","STREET":"中正三街","SECT":" ","MAREA":" ","LANE":" ","ALLEY":" ","HOUSE_NO":"１１號","E_COORD97":177656.57999999999,"N_COORD97":2540590.9300000002,"ADDRESS":"中正三街１１號","OBJECTID":468925},"geometry":{"x":177656.58000000007,"y":2540590.9300000016}},{"attributes":{"ID":468951,"DIS_CODE":0,"TOWNNAME":"歸仁區","LI":"歸南里","LIN":"5鄰","STREET":"中正南路","SECT":"一段","MAREA":" ","LANE":" ","ALLEY":" ","HOUSE_NO":"４８４號","E_COORD97":176911.64000000001,"N_COORD97":2540062.25,"ADDRESS":"中正南路一段４８４號","OBJECTID":468926},"geometry":{"x":176911.63999999873,"y":2540062.25}},{"attributes":{"ID":468952,"DIS_CODE":0,"TOWNNAME":"歸仁區","LI":"新厝里","LIN":"5鄰","STREET":"中正三街","SECT":" ","MAREA":" ","LANE":" ","ALLEY":" ","HOUSE_NO":"９號","E_COORD97":177651.23000000001,"N_COORD97":2540593.9300000002,"ADDRESS":"中正三街９號","OBJECTID":468927},"geometry":{"x":177651.23000000138,"y":2540593.9300000016}},{"attributes":{"ID":468953,"DIS_CODE":0,"TOWNNAME":"歸仁區","LI":"新厝里","LIN":"5鄰","STREET":"中正三街","SECT":" ","MAREA":" ","LANE":" ","ALLEY":" ","HOUSE_NO":"１號","E_COORD97":177627.89999999999,"N_COORD97":2540580.6400000001,"ADDRESS":"中正三街１號","OBJECTID":468928},"geometry":{"x":177627.9000000013,"y":2540580.6400000025}},{"attributes":{"ID":468954,"DIS_CODE":0,"TOWNNAME":"歸仁區","LI":"新厝里","LIN":"5鄰","STREET":"中正三街","SECT":" ","MAREA":" ","LANE":" ","ALLEY":" ","HOUSE_NO":"３號","E_COORD97":177632,"N_COORD97":2540579.6400000001,"ADDRESS":"中正三街３號","OBJECTID":468929},"geometry":{"x":177632.00000000093,"y":2540579.6400000025}},{"attributes":{"ID":468955,"DIS_CODE":0,"TOWNNAME":"歸仁區","LI":"歸南里","LIN":"5鄰","STREET":"中正南路","SECT":"一段","MAREA":" ","LANE":" ","ALLEY":" ","HOUSE_NO":"４６２號","E_COORD97":176921.94,"N_COORD97":2540070.25,"ADDRESS":"中正南路一段４６２號","OBJECTID":468930},"geometry":{"x":176921.94000000041,"y":2540070.2500000019}},{"attributes":{"ID":468956,"DIS_CODE":0,"TOWNNAME":"歸仁區","LI":"新厝里","LIN":"5鄰","STREET":"中正南路","SECT":"一段","MAREA":" ","LANE":" ","ALLEY":" ","HOUSE_NO":"５７號","E_COORD97":177618.03,"N_COORD97":2540583.5699999998,"ADDRESS":"中正南路一段５７號","OBJECTID":468931},"geometry":{"x":177618.03000000026,"y":2540583.5700000022}},{"attributes":{"ID":468957,"DIS_CODE":0,"TOWNNAME":"歸仁區","LI":"崙頂里","LIN":"5鄰","STREET":"成功八街","SECT":" ","MAREA":" ","LANE":" ","ALLEY":" ","HOUSE_NO":"１１１號","E_COORD97":178106.20000000001,"N_COORD97":2540100.6800000002,"ADDRESS":"成功八街１１１號","OBJECTID":468932},"geometry":{"x":178106.20000000019,"y":2540100.6800000016}},{"attributes":{"ID":468958,"DIS_CODE":0,"TOWNNAME":"歸仁區","LI":"看東里","LIN":"5鄰","STREET":"成功三街","SECT":" ","MAREA":" ","LANE":" ","ALLEY":" ","HOUSE_NO":"２４號","E_COORD97":178425.25,"N_COORD97":2540010.4500000002,"ADDRESS":"成功三街２４號","OBJECTID":468933},"geometry":{"x":178425.25000000186,"y":2540010.4500000011}},{"attributes":{"ID":468959,"DIS_CODE":0,"TOWNNAME":"歸仁區","LI":"南興里","LIN":"5鄰","STREET":"民生二街","SECT":" ","MAREA":" ","LANE":" ","ALLEY":" ","HOUSE_NO":"２１號","E_COORD97":176203.69,"N_COORD97":2541309.29,"ADDRESS":"民生二街２１號","OBJECTID":468934},"geometry":{"x":176203.69000000227,"y":2541309.2900000028}},{"attributes":{"ID":468960,"DIS_CODE":0,"TOWNNAME":"歸仁區","LI":"南保里","LIN":"5鄰","STREET":"文化街","SECT":"三段","MAREA":" ","LANE":" ","ALLEY":" ","HOUSE_NO":"３０號","E_COORD97":176926.59,"N_COORD97":2541249.3300000001,"ADDRESS":"文化街三段３０號","OBJECTID":468935},"geometry":{"x":176926.59000000078,"y":2541249.3300000019}},{"attributes":{"ID":468961,"DIS_CODE":0,"TOWNNAME":"歸仁區","LI":"南興里","LIN":"5鄰","STREET":"民生北街","SECT":" ","MAREA":" ","LANE":" ","ALLEY":" ","HOUSE_NO":"１２７號","E_COORD97":176229.23999999999,"N_COORD97":2541265.29,"ADDRESS":"民生北街１２７號","OBJECTID":468936},"geometry":{"x":176229.24000000115,"y":2541265.290000001}},{"attributes":{"ID":468962,"DIS_CODE":0,"TOWNNAME":"歸仁區","LI":"南興里","LIN":"5鄰","STREET":"民生北街","SECT":" ","MAREA":" ","LANE":" ","ALLEY":" ","HOUSE_NO":"１７１號","E_COORD97":176265.23999999999,"N_COORD97":2541282.29,"ADDRESS":"民生北街１７１號","OBJECTID":468937},"geometry":{"x":176265.24000000022,"y":2541282.290000001}},{"attributes":{"ID":468963,"DIS_CODE":0,"TOWNNAME":"歸仁區","LI":"南興里","LIN":"5鄰","STREET":"民生北街","SECT":" ","MAREA":" ","LANE":" ","ALLEY":" ","HOUSE_NO":"１７７號","E_COORD97":176263.34,"N_COORD97":2541299.29,"ADDRESS":"民生北街１７７號","OBJECTID":468938},"geometry":{"x":176263.34000000078,"y":2541299.290000001}},{"attributes":{"ID":468964,"DIS_CODE":0,"TOWNNAME":"歸仁區","LI":"南興里","LIN":"5鄰","STREET":"民生北街","SECT":" ","MAREA":" ","LANE":" ","ALLEY":" ","HOUSE_NO":"１８５號","E_COORD97":176219.14000000001,"N_COORD97":2541283.29,"ADDRESS":"民生北街１８５號","OBJECTID":468939},"geometry":{"x":176219.1400000006,"y":2541283.290000001}},{"attributes":{"ID":468965,"DIS_CODE":0,"TOWNNAME":"歸仁區","LI":"南興里","LIN":"5鄰","STREET":"民生北街","SECT":" ","MAREA":" ","LANE":" ","ALLEY":" ","HOUSE_NO":"１６１號","E_COORD97":176268.23999999999,"N_COORD97":2541260.29,"ADDRESS":"民生北街１６１號","OBJECTID":468940},"geometry":{"x":176268.24000000115,"y":2541260.2899999991}},{"attributes":{"ID":468966,"DIS_CODE":0,"TOWNNAME":"歸仁區","LI":"南興里","LIN":"5鄰","STREET":"民生北街","SECT":" ","MAREA":" ","LANE":" ","ALLEY":" ","HOUSE_NO":"２２１號","E_COORD97":176262.34,"N_COORD97":2541315.29,"ADDRESS":"民生北街２２１號","OBJECTID":468941},"geometry":{"x":176262.33999999985,"y":2541315.2899999991}},{"attributes":{"ID":468967,"DIS_CODE":0,"TOWNNAME":"歸仁區","LI":"大潭里","LIN":"5鄰","STREET":"大潭一街","SECT":" ","MAREA":" ","LANE":" ","ALLEY":" ","HOUSE_NO":"５０號","E_COORD97":175253.97,"N_COORD97":2534651.25,"ADDRESS":"大潭一街５０號","OBJECTID":468942},"geometry":{"x":175253.97000000067,"y":2534651.25}},{"attributes":{"ID":468968,"DIS_CODE":0,"TOWNNAME":"歸仁區","LI":"文化里","LIN":"5鄰","STREET":"民權一街","SECT":" ","MAREA":" ","LANE":" ","ALLEY":" ","HOUSE_NO":"５０號","E_COORD97":177318.70999999999,"N_COORD97":2541333.25,"ADDRESS":"民權一街５０號","OBJECTID":468943},"geometry":{"x":177318.71000000089,"y":2541333.25}},{"attributes":{"ID":468969,"DIS_CODE":0,"TOWNNAME":"歸仁區","LI":"媽廟里","LIN":"5鄰","STREET":"中正北路","SECT":"三段","MAREA":" ","LANE":" ","ALLEY":" ","HOUSE_NO":"１６９號","E_COORD97":177583.95999999999,"N_COORD97":2543773.7200000002,"ADDRESS":"中正北路三段１６９號","OBJECTID":468944},"geometry":{"x":177583.95999999996,"y":2543773.7200000025}},{"attributes":{"ID":468970,"DIS_CODE":0,"TOWNNAME":"歸仁區","LI":"七甲里","LIN":"5鄰","STREET":"中正北路","SECT":"二段","MAREA":" ","LANE":" ","ALLEY":" ","HOUSE_NO":"４３４號","E_COORD97":177490.32000000001,"N_COORD97":2543079.2599999998,"ADDRESS":"中正北路二段４３４號","OBJECTID":468945},"geometry":{"x":177490.3200000003,"y":2543079.2599999998}},{"attributes":{"ID":468971,"DIS_CODE":0,"TOWNNAME":"歸仁區","LI":"歸南里","LIN":"5鄰","STREET":"中正南路","SECT":"一段","MAREA":" ","LANE":" ","ALLEY":" ","HOUSE_NO":"４８２號","E_COORD97":176924.59,"N_COORD97":2540066.2799999998,"ADDRESS":"中正南路一段４８２號","OBJECTID":468946},"geometry":{"x":176924.59000000078,"y":2540066.2800000012}},{"attributes":{"ID":468972,"DIS_CODE":0,"TOWNNAME":"新營區","LI":"大宏里","LIN":"5鄰","STREET":"三民路","SECT":" ","MAREA":" ","LANE":" ","ALLEY":" ","HOUSE_NO":"７６之７號","E_COORD97":180114.47,"N_COORD97":2578484.75,"ADDRESS":"三民路７６之７號","OBJECTID":468947},"geometry":{"x":180114.46999999974,"y":2578484.75}},{"attributes":{"ID":468973,"DIS_CODE":0,"TOWNNAME":"新營區","LI":"忠政里","LIN":"5鄰","STREET":"中正路","SECT":" ","MAREA":" ","LANE":" ","ALLEY":" ","HOUSE_NO":"３９之５號","E_COORD97":180093.47,"N_COORD97":2579225.73,"ADDRESS":"中正路３９之５號","OBJECTID":468948},"geometry":{"x":180093.47000000067,"y":2579225.7300000042}},{"attributes":{"ID":468974,"DIS_CODE":0,"TOWNNAME":"新營區","LI":"新北里","LIN":"5鄰","STREET":"三興街","SECT":" ","MAREA":" ","LANE":" ","ALLEY":" ","HOUSE_NO":"９５號之１０","E_COORD97":179361.76000000001,"N_COORD97":2579182.7000000002,"ADDRESS":"三興街９５號之１０","OBJECTID":468949},"geometry":{"x":179361.75999999978,"y":2579182.6999999993}},{"attributes":{"ID":468975,"DIS_CODE":0,"TOWNNAME":"新營區","LI":"忠政里","LIN":"5鄰","STREET":"中正路","SECT":" ","MAREA":" ","LANE":" ","ALLEY":" ","HOUSE_NO":"３９之６號","E_COORD97":180093.5,"N_COORD97":2579230.1600000001,"ADDRESS":"中正路３９之６號","OBJECTID":468950},"geometry":{"x":180093.50000000093,"y":2579230.160000002}},{"attributes":{"ID":468976,"DIS_CODE":0,"TOWNNAME":"新營區","LI":"大宏里","LIN":"5鄰","STREET":"三民路","SECT":" ","MAREA":" ","LANE":" ","ALLEY":" ","HOUSE_NO":"５４之１號","E_COORD97":180280.23000000001,"N_COORD97":2578499.4700000002,"ADDRESS":"三民路５４之１號","OBJECTID":468951},"geometry":{"x":180280.23000000231,"y":2578499.4700000025}},{"attributes":{"ID":468977,"DIS_CODE":0,"TOWNNAME":"新營區","LI":"大宏里","LIN":"5鄰","STREET":"三民路","SECT":" ","MAREA":" ","LANE":" ","ALLEY":" ","HOUSE_NO":"７６之３號","E_COORD97":180127.76999999999,"N_COORD97":2578485.79,"ADDRESS":"三民路７６之３號","OBJECTID":468952},"geometry":{"x":180127.76999999955,"y":2578485.790000001}},{"attributes":{"ID":468978,"DIS_CODE":0,"TOWNNAME":"新營區","LI":"忠政里","LIN":"5鄰","STREET":"中正路","SECT":" ","MAREA":" ","LANE":" ","ALLEY":" ","HOUSE_NO":"３９之１號","E_COORD97":180095.44,"N_COORD97":2579208,"ADDRESS":"中正路３９之１號","OBJECTID":468953},"geometry":{"x":180095.44000000041,"y":2579208}},{"attributes":{"ID":468979,"DIS_CODE":0,"TOWNNAME":"新營區","LI":"大宏里","LIN":"5鄰","STREET":"三民路","SECT":" ","MAREA":" ","LANE":" ","ALLEY":" ","HOUSE_NO":"７６號","E_COORD97":180138.57999999999,"N_COORD97":2578487.8900000001,"ADDRESS":"三民路７６號","OBJECTID":468954},"geometry":{"x":180138.58000000194,"y":2578487.8900000006}},{"attributes":{"ID":468980,"DIS_CODE":0,"TOWNNAME":"新營區","LI":"忠政里","LIN":"5鄰","STREET":"中正路","SECT":" ","MAREA":" ","LANE":" ","ALLEY":" ","HOUSE_NO":"３９之３號","E_COORD97":180093.42999999999,"N_COORD97":2579216.8700000001,"ADDRESS":"中正路３９之３號","OBJECTID":468955},"geometry":{"x":180093.43000000156,"y":2579216.870000001}},{"attributes":{"ID":468981,"DIS_CODE":0,"TOWNNAME":"新營區","LI":"大宏里","LIN":"5鄰","STREET":"三民路","SECT":" ","MAREA":" ","LANE":" ","ALLEY":" ","HOUSE_NO":"５６號","E_COORD97":180270.57000000001,"N_COORD97":2578498.3399999999,"ADDRESS":"三民路５６號","OBJECTID":468956},"geometry":{"x":180270.5700000003,"y":2578498.339999998}},{"attributes":{"ID":468982,"DIS_CODE":0,"TOWNNAME":"新營區","LI":"忠政里","LIN":"5鄰","STREET":"安和街","SECT":" ","MAREA":" ","LANE":" ","ALLEY":" ","HOUSE_NO":"４９號","E_COORD97":179934.64999999999,"N_COORD97":2579261.8599999999,"ADDRESS":"安和街４９號","OBJECTID":468957},"geometry":{"x":179934.65000000037,"y":2579261.8600000013}},{"attributes":{"ID":468983,"DIS_CODE":0,"TOWNNAME":"新營區","LI":"大宏里","LIN":"5鄰","STREET":"三民路","SECT":" ","MAREA":" ","LANE":" ","ALLEY":" ","HOUSE_NO":"７６之２號","E_COORD97":180132.89000000001,"N_COORD97":2578486.8700000001,"ADDRESS":"三民路７６之２號","OBJECTID":468958},"geometry":{"x":180132.8900000006,"y":2578486.8700000029}},{"attributes":{"ID":468984,"DIS_CODE":0,"TOWNNAME":"新營區","LI":"新北里","LIN":"5鄰","STREET":"三興街","SECT":" ","MAREA":" ","LANE":" ","ALLEY":" ","HOUSE_NO":"１０５之４號","E_COORD97":179400.13,"N_COORD97":2579222.3799999999,"ADDRESS":"三興街１０５之４號","OBJECTID":468959},"geometry":{"x":179400.12999999989,"y":2579222.379999999}},{"attributes":{"ID":468985,"DIS_CODE":0,"TOWNNAME":"新營區","LI":"忠政里","LIN":"5鄰","STREET":"安和街","SECT":" ","MAREA":" ","LANE":" ","ALLEY":" ","HOUSE_NO":"１５號","E_COORD97":180039.87,"N_COORD97":2579252.5099999998,"ADDRESS":"安和街１５號","OBJECTID":468960},"geometry":{"x":180039.86999999918,"y":2579252.5099999998}},{"attributes":{"ID":468986,"DIS_CODE":0,"TOWNNAME":"新營區","LI":"民權里","LIN":"5鄰","STREET":"三民路","SECT":" ","MAREA":" ","LANE":" ","ALLEY":" ","HOUSE_NO":"９２號之２","E_COORD97":179963.89999999999,"N_COORD97":2578503.1699999999,"ADDRESS":"三民路９２號之２","OBJECTID":468961},"geometry":{"x":179963.9000000013,"y":2578503.1700000037}},{"attributes":{"ID":468987,"DIS_CODE":0,"TOWNNAME":"新營區","LI":"新北里","LIN":"5鄰","STREET":"三興街","SECT":" ","MAREA":" ","LANE":" ","ALLEY":" ","HOUSE_NO":"１０５號之８","E_COORD97":179406.10999999999,"N_COORD97":2579236.75,"ADDRESS":"三興街１０５號之８","OBJECTID":468962},"geometry":{"x":179406.1099999994,"y":2579236.75}},{"attributes":{"ID":468988,"DIS_CODE":0,"TOWNNAME":"新營區","LI":"新北里","LIN":"5鄰","STREET":"三興街","SECT":" ","MAREA":" ","LANE":" ","ALLEY":" ","HOUSE_NO":"１０５之３號","E_COORD97":179405.25,"N_COORD97":2579222.3599999999,"ADDRESS":"三興街１０５之３號","OBJECTID":468963},"geometry":{"x":179405.25000000093,"y":2579222.3599999994}},{"attributes":{"ID":468989,"DIS_CODE":0,"TOWNNAME":"新營區","LI":"新北里","LIN":"5鄰","STREET":"三興街","SECT":" ","MAREA":" ","LANE":" ","ALLEY":" ","HOUSE_NO":"１０５之９號","E_COORD97":179401.22,"N_COORD97":2579235.6600000001,"ADDRESS":"三興街１０５之９號","OBJECTID":468964},"geometry":{"x":179401.21999999974,"y":2579235.6600000039}},{"attributes":{"ID":468990,"DIS_CODE":0,"TOWNNAME":"新營區","LI":"南紙里","LIN":"5鄰","STREET":"南紙街","SECT":" ","MAREA":" ","LANE":" ","ALLEY":" ","HOUSE_NO":"４７號","E_COORD97":177827.07999999999,"N_COORD97":2577673.9199999999,"ADDRESS":"南紙街４７號","OBJECTID":468965},"geometry":{"x":177827.08000000101,"y":2577673.9199999999}},{"attributes":{"ID":468991,"DIS_CODE":0,"TOWNNAME":"新營區","LI":"南紙里","LIN":"5鄰","STREET":"南紙街","SECT":" ","MAREA":" ","LANE":" ","ALLEY":" ","HOUSE_NO":"４５號","E_COORD97":177827.10000000001,"N_COORD97":2577677.2400000002,"ADDRESS":"南紙街４５號","OBJECTID":468966},"geometry":{"x":177827.09999999963,"y":2577677.2400000021}},{"attributes":{"ID":468992,"DIS_CODE":0,"TOWNNAME":"新營區","LI":"民權里","LIN":"5鄰","STREET":"三民路","SECT":" ","MAREA":" ","LANE":" ","ALLEY":" ","HOUSE_NO":"９４之３號","E_COORD97":179957.03,"N_COORD97":2578515.3999999999,"ADDRESS":"三民路９４之３號","OBJECTID":468967},"geometry":{"x":179957.03000000026,"y":2578515.3999999985}},{"attributes":{"ID":468993,"DIS_CODE":0,"TOWNNAME":"新營區","LI":"新北里","LIN":"5鄰","STREET":"三興街","SECT":" ","MAREA":" ","LANE":" ","ALLEY":" ","HOUSE_NO":"９５號之１８","E_COORD97":179348.72,"N_COORD97":2579215.98,"ADDRESS":"三興街９５號之１８","OBJECTID":468968},"geometry":{"x":179348.71999999974,"y":2579215.9800000004}},{"attributes":{"ID":468994,"DIS_CODE":0,"TOWNNAME":"新營區","LI":"忠政里","LIN":"5鄰","STREET":"安和街","SECT":" ","MAREA":" ","LANE":" ","ALLEY":" ","HOUSE_NO":"２７號","E_COORD97":179992.91,"N_COORD97":2579256.0499999998,"ADDRESS":"安和街２７號","OBJECTID":468969},"geometry":{"x":179992.91000000108,"y":2579256.0500000007}},{"attributes":{"ID":468995,"DIS_CODE":0,"TOWNNAME":"新營區","LI":"民權里","LIN":"5鄰","STREET":"三民路","SECT":" ","MAREA":" ","LANE":" ","ALLEY":" ","HOUSE_NO":"９２號","E_COORD97":179961.63,"N_COORD97":2578503.1200000001,"ADDRESS":"三民路９２號","OBJECTID":468970},"geometry":{"x":179961.63000000175,"y":2578503.120000001}},{"attributes":{"ID":468996,"DIS_CODE":0,"TOWNNAME":"新營區","LI":"新北里","LIN":"5鄰","STREET":"三興街","SECT":" ","MAREA":" ","LANE":" ","ALLEY":" ","HOUSE_NO":"１０３號","E_COORD97":179425.23999999999,"N_COORD97":2579219.98,"ADDRESS":"三興街１０３號","OBJECTID":468971},"geometry":{"x":179425.24000000022,"y":2579219.9800000004}},{"attributes":{"ID":468997,"DIS_CODE":0,"TOWNNAME":"新營區","LI":"民權里","LIN":"5鄰","STREET":"信義街","SECT":" ","MAREA":" ","LANE":" ","ALLEY":" ","HOUSE_NO":"６６號之１","E_COORD97":179918.82999999999,"N_COORD97":2578511.1400000001,"ADDRESS":"信義街６６號之１","OBJECTID":468972},"geometry":{"x":179918.83000000101,"y":2578511.1400000025}},{"attributes":{"ID":468998,"DIS_CODE":0,"TOWNNAME":"新營區","LI":"新北里","LIN":"5鄰","STREET":"三興街","SECT":" ","MAREA":" ","LANE":" ","ALLEY":" ","HOUSE_NO":"１０５號","E_COORD97":179417.07000000001,"N_COORD97":2579224.4500000002,"ADDRESS":"三興街１０５號","OBJECTID":468973},"geometry":{"x":179417.07000000123,"y":2579224.4499999993}},{"attributes":{"ID":468999,"DIS_CODE":0,"TOWNNAME":"歸仁區","LI":"歸南里","LIN":"5鄰","STREET":"中正南路","SECT":"一段","MAREA":" ","LANE":" ","ALLEY":" ","HOUSE_NO":"４９０號","E_COORD97":176909.09,"N_COORD97":2540056.2799999998,"ADDRESS":"中正南路一段４９０號","OBJECTID":468974},"geometry":{"x":176909.09000000078,"y":2540056.2800000012}},{"attributes":{"ID":469000,"DIS_CODE":0,"TOWNNAME":"歸仁區","LI":"大廟里","LIN":"5鄰","STREET":"和順路","SECT":"二段","MAREA":" ","LANE":" ","ALLEY":" ","HOUSE_NO":"２８９號","E_COORD97":175769.23999999999,"N_COORD97":2543576.2799999998,"ADDRESS":"和順路二段２８９號","OBJECTID":468975},"geometry":{"x":175769.24000000115,"y":2543576.2799999993}},{"attributes":{"ID":469001,"DIS_CODE":0,"TOWNNAME":"歸仁區","LI":"大廟里","LIN":"5鄰","STREET":"和順路","SECT":"二段","MAREA":" ","LANE":" ","ALLEY":" ","HOUSE_NO":"３３９號","E_COORD97":175567.04000000001,"N_COORD97":2543534.2799999998,"ADDRESS":"和順路二段３３９號","OBJECTID":468976},"geometry":{"x":175567.04000000097,"y":2543534.2800000012}},{"attributes":{"ID":469002,"DIS_CODE":0,"TOWNNAME":"關廟區","LI":"北花里","LIN":"5鄰","STREET":"園東街","SECT":" ","MAREA":" ","LANE":" ","ALLEY":" ","HOUSE_NO":"１１６號","E_COORD97":182044.41,"N_COORD97":2540193.25,"ADDRESS":"園東街１１６號","OBJECTID":468977},"geometry":{"x":182044.41000000015,"y":2540193.25}},{"attributes":{"ID":469003,"DIS_CODE":0,"TOWNNAME":"佳里區","LI":"六安里","LIN":"3鄰","STREET":"林園街","SECT":" ","MAREA":" ","LANE":" ","ALLEY":" ","HOUSE_NO":"２３號","E_COORD97":166185.38,"N_COORD97":2562848.96,"ADDRESS":"林園街２３號","OBJECTID":468978},"geometry":{"x":166185.38000000082,"y":2562848.9600000046}},{"attributes":{"ID":469004,"DIS_CODE":0,"TOWNNAME":"關廟區","LI":"東勢里","LIN":"5鄰","STREET":"東興路","SECT":" ","MAREA":" ","LANE":" ","ALLEY":" ","HOUSE_NO":"３０６號","E_COORD97":181847.17000000001,"N_COORD97":2539554.25,"ADDRESS":"東興路３０６號","OBJECTID":468979},"geometry":{"x":181847.17000000086,"y":2539554.2500000037}},{"attributes":{"ID":469005,"DIS_CODE":0,"TOWNNAME":"關廟區","LI":"松腳里","LIN":"5鄰","STREET":"中山路","SECT":"一段","MAREA":" ","LANE":" ","ALLEY":" ","HOUSE_NO":"１５號","E_COORD97":182081.31,"N_COORD97":2539944.2799999998,"ADDRESS":"中山路一段１５號","OBJECTID":468980},"geometry":{"x":182081.31000000052,"y":2539944.2800000012}},{"attributes":{"ID":469006,"DIS_CODE":0,"TOWNNAME":"關廟區","LI":"山西里","LIN":"5鄰","STREET":"文衡路","SECT":" ","MAREA":" ","LANE":" ","ALLEY":" ","HOUSE_NO":"９１號","E_COORD97":180895.09,"N_COORD97":2540285.3300000001,"ADDRESS":"文衡路９１號","OBJECTID":468981},"geometry":{"x":180895.09000000078,"y":2540285.3300000001}},{"attributes":{"ID":469007,"DIS_CODE":0,"TOWNNAME":"關廟區","LI":"布袋里","LIN":"5鄰","STREET":"長和街","SECT":" ","MAREA":" ","LANE":" ","ALLEY":" ","HOUSE_NO":"２９號","E_COORD97":183178.98999999999,"N_COORD97":2535254.25,"ADDRESS":"長和街２７號","OBJECTID":468982},"geometry":{"x":183178.99000000115,"y":2535254.25}},{"attributes":{"ID":469008,"DIS_CODE":0,"TOWNNAME":"關廟區","LI":"松腳里","LIN":"5鄰","STREET":"中山路","SECT":"一段","MAREA":" ","LANE":" ","ALLEY":" ","HOUSE_NO":"５號","E_COORD97":182100.35999999999,"N_COORD97":2539943.2799999998,"ADDRESS":"中山路一段５號","OBJECTID":468983},"geometry":{"x":182100.36000000127,"y":2539943.2800000031}},{"attributes":{"ID":469009,"DIS_CODE":0,"TOWNNAME":"關廟區","LI":"五甲里","LIN":"5鄰","STREET":"南雄路","SECT":"一段","MAREA":" ","LANE":" ","ALLEY":" ","HOUSE_NO":"８２５號","E_COORD97":181357.48999999999,"N_COORD97":2539123.2799999998,"ADDRESS":"南雄路一段８２５號","OBJECTID":468984},"geometry":{"x":181357.49000000022,"y":2539123.2800000012}},{"attributes":{"ID":469010,"DIS_CODE":0,"TOWNNAME":"關廟區","LI":"五甲里","LIN":"5鄰","STREET":"南雄路","SECT":"一段","MAREA":" ","LANE":" ","ALLEY":" ","HOUSE_NO":"８０９號","E_COORD97":181365.48999999999,"N_COORD97":2539094.2799999998,"ADDRESS":"南雄路一段８０９號","OBJECTID":468985},"geometry":{"x":181365.49000000115,"y":2539094.2799999993}},{"attributes":{"ID":469011,"DIS_CODE":0,"TOWNNAME":"關廟區","LI":"松腳里","LIN":"5鄰","STREET":"中山路","SECT":"一段","MAREA":" ","LANE":" ","ALLEY":" ","HOUSE_NO":"７號","E_COORD97":182096.56,"N_COORD97":2539943.2799999998,"ADDRESS":"中山路一段７號","OBJECTID":468986},"geometry":{"x":182096.56000000052,"y":2539943.2800000031}},{"attributes":{"ID":469012,"DIS_CODE":0,"TOWNNAME":"關廟區","LI":"山西里","LIN":"5鄰","STREET":"文衡路","SECT":" ","MAREA":" ","LANE":" ","ALLEY":" ","HOUSE_NO":"１０５號","E_COORD97":180900.54000000001,"N_COORD97":2540326.3300000001,"ADDRESS":"文衡路１０５號","OBJECTID":468987},"geometry":{"x":180900.54000000097,"y":2540326.3299999982}},{"attributes":{"ID":469013,"DIS_CODE":0,"TOWNNAME":"關廟區","LI":"松腳里","LIN":"5鄰","STREET":"中山路","SECT":"一段","MAREA":" ","LANE":" ","ALLEY":" ","HOUSE_NO":"１９號","E_COORD97":182071.31,"N_COORD97":2539945.2799999998,"ADDRESS":"中山路一段１９號","OBJECTID":468988},"geometry":{"x":182071.31000000052,"y":2539945.2799999993}},{"attributes":{"ID":469014,"DIS_CODE":0,"TOWNNAME":"關廟區","LI":"山西里","LIN":"5鄰","STREET":"文衡路","SECT":" ","MAREA":" ","LANE":" ","ALLEY":" ","HOUSE_NO":"８５號","E_COORD97":180893.48999999999,"N_COORD97":2540272.3300000001,"ADDRESS":"文衡路８５號","OBJECTID":468989},"geometry":{"x":180893.48999999929,"y":2540272.3300000038}},{"attributes":{"ID":469015,"DIS_CODE":0,"TOWNNAME":"關廟區","LI":"松腳里","LIN":"5鄰","STREET":"中山路","SECT":"一段","MAREA":" ","LANE":" ","ALLEY":" ","HOUSE_NO":"５５號","E_COORD97":181983.81,"N_COORD97":2539950.2799999998,"ADDRESS":"中山路一段５５號","OBJECTID":468990},"geometry":{"x":181983.80999999959,"y":2539950.2800000012}},{"attributes":{"ID":469016,"DIS_CODE":0,"TOWNNAME":"關廟區","LI":"松腳里","LIN":"5鄰","STREET":"中山路","SECT":"一段","MAREA":" ","LANE":" ","ALLEY":" ","HOUSE_NO":"３號","E_COORD97":182104.56,"N_COORD97":2539942.2799999998,"ADDRESS":"中山路一段３號","OBJECTID":468991},"geometry":{"x":182104.56000000145,"y":2539942.2799999993}},{"attributes":{"ID":469017,"DIS_CODE":0,"TOWNNAME":"關廟區","LI":"北花里","LIN":"5鄰","STREET":"園東街","SECT":" ","MAREA":" ","LANE":" ","ALLEY":" ","HOUSE_NO":"１２８號","E_COORD97":182047.81,"N_COORD97":2540235.25,"ADDRESS":"園東街１２８號","OBJECTID":468992},"geometry":{"x":182047.80999999959,"y":2540235.2499999981}},{"attributes":{"ID":469018,"DIS_CODE":0,"TOWNNAME":"關廟區","LI":"山西里","LIN":"5鄰","STREET":"文衡路","SECT":" ","MAREA":" ","LANE":" ","ALLEY":" ","HOUSE_NO":"９３號","E_COORD97":180896.59,"N_COORD97":2540300.3300000001,"ADDRESS":"文衡路９３號","OBJECTID":468993},"geometry":{"x":180896.59000000078,"y":2540300.3300000019}},{"attributes":{"ID":469019,"DIS_CODE":0,"TOWNNAME":"關廟區","LI":"松腳里","LIN":"5鄰","STREET":"中山路","SECT":"一段","MAREA":" ","LANE":" ","ALLEY":" ","HOUSE_NO":"１７號","E_COORD97":182077.01000000001,"N_COORD97":2539945.2799999998,"ADDRESS":"中山路一段１７號","OBJECTID":468994},"geometry":{"x":182077.01000000071,"y":2539945.2799999993}},{"attributes":{"ID":469020,"DIS_CODE":0,"TOWNNAME":"關廟區","LI":"山西里","LIN":"5鄰","STREET":"文衡路","SECT":" ","MAREA":" ","LANE":" ","ALLEY":" ","HOUSE_NO":"１０３號","E_COORD97":180899.73999999999,"N_COORD97":2540320.3300000001,"ADDRESS":"文衡路１０３號","OBJECTID":468995},"geometry":{"x":180899.74000000022,"y":2540320.3300000019}},{"attributes":{"ID":469021,"DIS_CODE":0,"TOWNNAME":"關廟區","LI":"山西里","LIN":"5鄰","STREET":"文衡路","SECT":" ","MAREA":" ","LANE":" ","ALLEY":" ","HOUSE_NO":"１１１號","E_COORD97":180901.64000000001,"N_COORD97":2540354.3300000001,"ADDRESS":"文衡路１１１號","OBJECTID":468996},"geometry":{"x":180901.63999999966,"y":2540354.3300000019}},{"attributes":{"ID":469022,"DIS_CODE":0,"TOWNNAME":"關廟區","LI":"北花里","LIN":"5鄰","STREET":"花園二街","SECT":" ","MAREA":" ","LANE":" ","ALLEY":" ","HOUSE_NO":"３１號","E_COORD97":182122.73999999999,"N_COORD97":2540278.25,"ADDRESS":"花園二街３１號","OBJECTID":468997},"geometry":{"x":182122.74000000209,"y":2540278.25}},{"attributes":{"ID":469023,"DIS_CODE":0,"TOWNNAME":"關廟區","LI":"松腳里","LIN":"5鄰","STREET":"中山路","SECT":"一段","MAREA":" ","LANE":" ","ALLEY":" ","HOUSE_NO":"１３號","E_COORD97":182085.10999999999,"N_COORD97":2539944.2799999998,"ADDRESS":"中山路一段１３號","OBJECTID":468998},"geometry":{"x":182085.11000000127,"y":2539944.2800000012}},{"attributes":{"ID":469024,"DIS_CODE":0,"TOWNNAME":"關廟區","LI":"山西里","LIN":"5鄰","STREET":"文衡路","SECT":" ","MAREA":" ","LANE":" ","ALLEY":" ","HOUSE_NO":"１０７號","E_COORD97":180900.54000000001,"N_COORD97":2540330.3300000001,"ADDRESS":"文衡路１０７號","OBJECTID":468999},"geometry":{"x":180900.54000000097,"y":2540330.3300000019}},{"attributes":{"ID":469025,"DIS_CODE":0,"TOWNNAME":"關廟區","LI":"山西里","LIN":"5鄰","STREET":"文衡路","SECT":" ","MAREA":" ","LANE":" ","ALLEY":" ","HOUSE_NO":"９５號","E_COORD97":180898.48999999999,"N_COORD97":2540304.3300000001,"ADDRESS":"文衡路９５號","OBJECTID":469000},"geometry":{"x":180898.49000000022,"y":2540304.3300000019}}]}