{"displayFieldName":"TOWNNAME","fieldAliases":{"ID":"ID","DIS_CODE":"DIS_CODE","TOWNNAME":"TOWNNAME","LI":"LI","LIN":"LIN","STREET":"STREET","SECT":"SECT","MAREA":"MAREA","LANE":"LANE","ALLEY":"ALLEY","HOUSE_NO":"HOUSE_NO","E_COORD97":"E_COORD97","N_COORD97":"N_COORD97","ADDRESS":"ADDRESS","OBJECTID":"OBJECTID"},"geometryType":"esriGeometryPoint","spatialReference":{"wkid":102443,"latestWkid":3826},"fields":[{"name":"ID","type":"esriFieldTypeDouble","alias":"ID"},{"name":"DIS_CODE","type":"esriFieldTypeInteger","alias":"DIS_CODE"},{"name":"TOWNNAME","type":"esriFieldTypeString","alias":"TOWNNAME","length":8},{"name":"LI","type":"esriFieldTypeString","alias":"LI","length":8},{"name":"LIN","type":"esriFieldTypeString","alias":"LIN","length":12},{"name":"STREET","type":"esriFieldTypeString","alias":"STREET","length":20},{"name":"SECT","type":"esriFieldTypeString","alias":"SECT","length":8},{"name":"MAREA","type":"esriFieldTypeString","alias":"MAREA","length":12},{"name":"LANE","type":"esriFieldTypeString","alias":"LANE","length":10},{"name":"ALLEY","type":"esriFieldTypeString","alias":"ALLEY","length":10},{"name":"HOUSE_NO","type":"esriFieldTypeString","alias":"HOUSE_NO","length":20},{"name":"E_COORD97","type":"esriFieldTypeDouble","alias":"E_COORD97"},{"name":"N_COORD97","type":"esriFieldTypeDouble","alias":"N_COORD97"},{"name":"ADDRESS","type":"esriFieldTypeString","alias":"ADDRESS","length":50},{"name":"OBJECTID","type":"esriFieldTypeOID","alias":"OBJECTID"}],"features":[{"attributes":{"ID":448026,"DIS_CODE":0,"TOWNNAME":"永康區","LI":"\u25A0洲里","LIN":"4鄰","STREET":"\u25A0洲二街","SECT":" ","MAREA":" ","LANE":"１５３巷","ALLEY":" ","HOUSE_NO":"２０號","E_COORD97":171656.84,"N_COORD97":2549417.1699999999,"ADDRESS":"\u25A0洲二街１５３巷２０號","OBJECTID":448001},"geometry":{"x":171656.83999999985,"y":2549417.1700000037}},{"attributes":{"ID":448027,"DIS_CODE":0,"TOWNNAME":"安南區","LI":"幸福里","LIN":"18鄰","STREET":"府安路","SECT":"六段","MAREA":" ","LANE":"２２巷","ALLEY":" ","HOUSE_NO":"１號","E_COORD97":167070.67999999999,"N_COORD97":2546719.25,"ADDRESS":"府安路六段２２巷１號","OBJECTID":448002},"geometry":{"x":167070.6799999997,"y":2546719.2500000019}},{"attributes":{"ID":448028,"DIS_CODE":0,"TOWNNAME":"永康區","LI":"甲頂里","LIN":" ","STREET":"中正南路","SECT":" ","MAREA":" ","LANE":"１６８巷","ALLEY":" ","HOUSE_NO":"１號","E_COORD97":169882.06,"N_COORD97":2546987.4900000002,"ADDRESS":"中正南路１６８巷１號","OBJECTID":448003},"geometry":{"x":169882.05999999959,"y":2546987.4899999984}},{"attributes":{"ID":448029,"DIS_CODE":0,"TOWNNAME":"永康區","LI":"\u25A0洲里","LIN":"38鄰","STREET":"\u25A0行路","SECT":" ","MAREA":" ","LANE":"１８８巷","ALLEY":" ","HOUSE_NO":"２５號","E_COORD97":171283.45999999999,"N_COORD97":2549260.3500000001,"ADDRESS":"\u25A0行路１８８巷２５號","OBJECTID":448004},"geometry":{"x":171283.46000000183,"y":2549260.3500000015}},{"attributes":{"ID":448030,"DIS_CODE":0,"TOWNNAME":"安南區","LI":"幸福里","LIN":"18鄰","STREET":"府安路","SECT":"六段","MAREA":" ","LANE":"２７巷","ALLEY":" ","HOUSE_NO":"６號","E_COORD97":167053.45999999999,"N_COORD97":2546730.7400000002,"ADDRESS":"府安路六段２７巷６號","OBJECTID":448005},"geometry":{"x":167053.45999999996,"y":2546730.7400000002}},{"attributes":{"ID":448031,"DIS_CODE":0,"TOWNNAME":"中西區","LI":"天后里","LIN":"18鄰","STREET":"郡緯街","SECT":" ","MAREA":" ","LANE":"１８巷","ALLEY":" ","HOUSE_NO":"１號","E_COORD97":168116.76999999999,"N_COORD97":2544333.6600000001,"ADDRESS":"郡緯街１８巷１號","OBJECTID":448006},"geometry":{"x":168116.77000000048,"y":2544333.6600000001}},{"attributes":{"ID":448032,"DIS_CODE":0,"TOWNNAME":"安南區","LI":"幸福里","LIN":"18鄰","STREET":"府安路","SECT":"六段","MAREA":" ","LANE":"２７巷","ALLEY":" ","HOUSE_NO":"７０號","E_COORD97":167021.16,"N_COORD97":2546909.1800000002,"ADDRESS":"府安路六段２７巷７０號","OBJECTID":448007},"geometry":{"x":167021.16000000108,"y":2546909.1800000016}},{"attributes":{"ID":448033,"DIS_CODE":0,"TOWNNAME":"安南區","LI":"幸福里","LIN":"18鄰","STREET":"府安路","SECT":"六段","MAREA":" ","LANE":"２７巷","ALLEY":" ","HOUSE_NO":"８號","E_COORD97":167052.12,"N_COORD97":2546739.5299999998,"ADDRESS":"府安路六段２７巷８號","OBJECTID":448008},"geometry":{"x":167052.12000000104,"y":2546739.5300000012}},{"attributes":{"ID":448034,"DIS_CODE":0,"TOWNNAME":"東區","LI":"崇德里","LIN":"18鄰","STREET":"崇明十三街","SECT":" ","MAREA":" ","LANE":"１１巷","ALLEY":" ","HOUSE_NO":"１０號","E_COORD97":170461.78,"N_COORD97":2541631.52,"ADDRESS":"崇明十三街１１巷１０號","OBJECTID":448009},"geometry":{"x":170461.78000000119,"y":2541631.5200000014}},{"attributes":{"ID":448035,"DIS_CODE":0,"TOWNNAME":"東區","LI":"崇德里","LIN":"18鄰","STREET":"崇明十三街","SECT":" ","MAREA":" ","LANE":"１１巷","ALLEY":" ","HOUSE_NO":"１２號","E_COORD97":170464.98999999999,"N_COORD97":2541634.2400000002,"ADDRESS":"崇明十三街１１巷１２號","OBJECTID":448010},"geometry":{"x":170464.99000000115,"y":2541634.2400000021}},{"attributes":{"ID":448036,"DIS_CODE":0,"TOWNNAME":"東區","LI":"崇德里","LIN":"18鄰","STREET":"崇明十三街","SECT":" ","MAREA":" ","LANE":"１１巷","ALLEY":" ","HOUSE_NO":"１４號","E_COORD97":170467.70999999999,"N_COORD97":2541637.9300000002,"ADDRESS":"崇明十三街１１巷１４號","OBJECTID":448011},"geometry":{"x":170467.70999999996,"y":2541637.9300000016}},{"attributes":{"ID":448037,"DIS_CODE":0,"TOWNNAME":"東區","LI":"崇德里","LIN":"18鄰","STREET":"崇明十三街","SECT":" ","MAREA":" ","LANE":"１１巷","ALLEY":" ","HOUSE_NO":"２２號","E_COORD97":170480.06,"N_COORD97":2541652.3399999999,"ADDRESS":"崇明十三街１１巷２２號","OBJECTID":448012},"geometry":{"x":170480.05999999959,"y":2541652.3400000017}},{"attributes":{"ID":448038,"DIS_CODE":0,"TOWNNAME":"東區","LI":"崇德里","LIN":"18鄰","STREET":"崇明十三街","SECT":" ","MAREA":" ","LANE":"１１巷","ALLEY":" ","HOUSE_NO":"２４號","E_COORD97":170482.62,"N_COORD97":2541655.2200000002,"ADDRESS":"崇明十三街１１巷２４號","OBJECTID":448013},"geometry":{"x":170482.62000000104,"y":2541655.2200000025}},{"attributes":{"ID":448039,"DIS_CODE":0,"TOWNNAME":"東區","LI":"崇德里","LIN":"18鄰","STREET":"崇明十三街","SECT":" ","MAREA":" ","LANE":"１１巷","ALLEY":" ","HOUSE_NO":"２號","E_COORD97":170478.51999999999,"N_COORD97":2541607.0800000001,"ADDRESS":"崇明十三街１１巷２號","OBJECTID":448014},"geometry":{"x":170478.51999999955,"y":2541607.0800000019}},{"attributes":{"ID":448040,"DIS_CODE":0,"TOWNNAME":"東區","LI":"崇德里","LIN":"18鄰","STREET":"崇明十三街","SECT":" ","MAREA":" ","LANE":"１１巷","ALLEY":" ","HOUSE_NO":"３０號","E_COORD97":170494.16,"N_COORD97":2541663.5499999998,"ADDRESS":"崇明十三街１１巷３０號","OBJECTID":448015},"geometry":{"x":170494.16000000201,"y":2541663.5500000007}},{"attributes":{"ID":448041,"DIS_CODE":0,"TOWNNAME":"東區","LI":"崇德里","LIN":"18鄰","STREET":"崇明十三街","SECT":" ","MAREA":" ","LANE":"１１巷","ALLEY":" ","HOUSE_NO":"３２號","E_COORD97":170496.07999999999,"N_COORD97":2541667.0699999998,"ADDRESS":"崇明十三街１１巷３２號","OBJECTID":448016},"geometry":{"x":170496.08000000007,"y":2541667.0700000003}},{"attributes":{"ID":448042,"DIS_CODE":0,"TOWNNAME":"東區","LI":"崇德里","LIN":"18鄰","STREET":"崇明十三街","SECT":" ","MAREA":" ","LANE":"１１巷","ALLEY":" ","HOUSE_NO":"３４號","E_COORD97":170498.17000000001,"N_COORD97":2541669.96,"ADDRESS":"崇明十三街１１巷３４號","OBJECTID":448017},"geometry":{"x":170498.16999999993,"y":2541669.9600000028}},{"attributes":{"ID":448043,"DIS_CODE":0,"TOWNNAME":"東區","LI":"崇德里","LIN":"18鄰","STREET":"崇明十三街","SECT":" ","MAREA":" ","LANE":"１１巷","ALLEY":" ","HOUSE_NO":"３８號","E_COORD97":170512.5,"N_COORD97":2541683.1000000001,"ADDRESS":"崇明十三街１１巷３８號","OBJECTID":448018},"geometry":{"x":170512.50000000093,"y":2541683.0999999996}},{"attributes":{"ID":448044,"DIS_CODE":0,"TOWNNAME":"東區","LI":"崇德里","LIN":"18鄰","STREET":"崇明十三街","SECT":" ","MAREA":" ","LANE":"１１巷","ALLEY":" ","HOUSE_NO":"４０號","E_COORD97":170514.76000000001,"N_COORD97":2541687.02,"ADDRESS":"崇明十三街１１巷４０號","OBJECTID":448019},"geometry":{"x":170514.75999999978,"y":2541687.0199999996}},{"attributes":{"ID":448045,"DIS_CODE":0,"TOWNNAME":"東區","LI":"崇德里","LIN":"18鄰","STREET":"崇明十三街","SECT":" ","MAREA":" ","LANE":"１１巷","ALLEY":" ","HOUSE_NO":"４２號","E_COORD97":170517.47,"N_COORD97":2541689.5800000001,"ADDRESS":"崇明十三街１１巷４２號","OBJECTID":448020},"geometry":{"x":170517.47000000067,"y":2541689.5800000001}},{"attributes":{"ID":448046,"DIS_CODE":0,"TOWNNAME":"東區","LI":"崇德里","LIN":"18鄰","STREET":"崇明十三街","SECT":" ","MAREA":" ","LANE":"１１巷","ALLEY":" ","HOUSE_NO":"４４號","E_COORD97":170520.78,"N_COORD97":2541692.1400000001,"ADDRESS":"崇明十三街１１巷４４號","OBJECTID":448021},"geometry":{"x":170520.78000000119,"y":2541692.1400000025}},{"attributes":{"ID":448047,"DIS_CODE":0,"TOWNNAME":"安南區","LI":"新順里","LIN":"1鄰","STREET":"培安四街","SECT":" ","MAREA":" ","LANE":" ","ALLEY":" ","HOUSE_NO":"８６號","E_COORD97":169495.17999999999,"N_COORD97":2549784.52,"ADDRESS":"培安四街８６號","OBJECTID":448022},"geometry":{"x":169495.18000000063,"y":2549784.5200000014}},{"attributes":{"ID":448048,"DIS_CODE":0,"TOWNNAME":"東區","LI":"崇德里","LIN":"18鄰","STREET":"崇明十三街","SECT":" ","MAREA":" ","LANE":"１１巷","ALLEY":" ","HOUSE_NO":"４６號","E_COORD97":170524.54999999999,"N_COORD97":2541694.3999999999,"ADDRESS":"崇明十三街１１巷４６號","OBJECTID":448023},"geometry":{"x":170524.54999999981,"y":2541694.4000000022}},{"attributes":{"ID":448049,"DIS_CODE":0,"TOWNNAME":"東區","LI":"崇德里","LIN":"18鄰","STREET":"崇明十三街","SECT":" ","MAREA":" ","LANE":"１１巷","ALLEY":" ","HOUSE_NO":"４８號","E_COORD97":170526.51000000001,"N_COORD97":2541697.8599999999,"ADDRESS":"崇明十三街１１巷４８號","OBJECTID":448024},"geometry":{"x":170526.50999999978,"y":2541697.8599999994}},{"attributes":{"ID":448050,"DIS_CODE":0,"TOWNNAME":"永康區","LI":"\u25A0洲里","LIN":"25鄰","STREET":"中正南路","SECT":" ","MAREA":" ","LANE":"４５３巷","ALLEY":" ","HOUSE_NO":"１６號","E_COORD97":170783.07999999999,"N_COORD97":2548168.25,"ADDRESS":"中正南路４５３巷１６號","OBJECTID":448025},"geometry":{"x":170783.08000000101,"y":2548168.25}},{"attributes":{"ID":448051,"DIS_CODE":0,"TOWNNAME":"東區","LI":"崇德里","LIN":"18鄰","STREET":"崇明十三街","SECT":" ","MAREA":" ","LANE":"１１巷","ALLEY":" ","HOUSE_NO":"５０號","E_COORD97":170528.76999999999,"N_COORD97":2541701.3199999998,"ADDRESS":"崇明十三街１１巷５０號","OBJECTID":448026},"geometry":{"x":170528.77000000048,"y":2541701.3200000022}},{"attributes":{"ID":448052,"DIS_CODE":0,"TOWNNAME":"東區","LI":"崇德里","LIN":"18鄰","STREET":"崇明十三街","SECT":" ","MAREA":" ","LANE":"１１巷","ALLEY":" ","HOUSE_NO":"５２號","E_COORD97":170530.57999999999,"N_COORD97":2541704.3399999999,"ADDRESS":"崇明十三街１１巷５２號","OBJECTID":448027},"geometry":{"x":170530.58000000101,"y":2541704.3400000017}},{"attributes":{"ID":448053,"DIS_CODE":0,"TOWNNAME":"東區","LI":"崇德里","LIN":"18鄰","STREET":"崇明十三街","SECT":" ","MAREA":" ","LANE":"１１巷","ALLEY":" ","HOUSE_NO":"５４號","E_COORD97":170532.84,"N_COORD97":2541707.6499999999,"ADDRESS":"崇明十三街１１巷５４號","OBJECTID":448028},"geometry":{"x":170532.83999999985,"y":2541707.6500000004}},{"attributes":{"ID":448054,"DIS_CODE":0,"TOWNNAME":"東區","LI":"崇德里","LIN":"18鄰","STREET":"崇明十三街","SECT":" ","MAREA":" ","LANE":"１１巷","ALLEY":" ","HOUSE_NO":"５６號","E_COORD97":170534.64999999999,"N_COORD97":2541710.6600000001,"ADDRESS":"崇明十三街１１巷５６號","OBJECTID":448029},"geometry":{"x":170534.65000000037,"y":2541710.6600000001}},{"attributes":{"ID":448055,"DIS_CODE":0,"TOWNNAME":"東區","LI":"崇德里","LIN":"18鄰","STREET":"崇明十三街","SECT":" ","MAREA":" ","LANE":"１１巷","ALLEY":" ","HOUSE_NO":"５８號","E_COORD97":170537.35999999999,"N_COORD97":2541714.8799999999,"ADDRESS":"崇明十三街１１巷５８號","OBJECTID":448030},"geometry":{"x":170537.36000000127,"y":2541714.8799999971}},{"attributes":{"ID":448056,"DIS_CODE":0,"TOWNNAME":"東區","LI":"崇德里","LIN":"18鄰","STREET":"崇明十三街","SECT":" ","MAREA":" ","LANE":"１１巷","ALLEY":" ","HOUSE_NO":"６０號","E_COORD97":170539.62,"N_COORD97":2541718.1899999999,"ADDRESS":"崇明十三街１１巷６０號","OBJECTID":448031},"geometry":{"x":170539.62000000011,"y":2541718.1900000013}},{"attributes":{"ID":448057,"DIS_CODE":0,"TOWNNAME":"東區","LI":"東光里","LIN":"18鄰","STREET":"東興路","SECT":" ","MAREA":" ","LANE":"１６９巷","ALLEY":" ","HOUSE_NO":"１號之１","E_COORD97":170969.57000000001,"N_COORD97":2543793.1400000001,"ADDRESS":"東興路１６９巷１號之１","OBJECTID":448032},"geometry":{"x":170969.57000000216,"y":2543793.1399999987}},{"attributes":{"ID":448058,"DIS_CODE":0,"TOWNNAME":"東區","LI":"東光里","LIN":"18鄰","STREET":"東興路","SECT":" ","MAREA":" ","LANE":"１６９巷","ALLEY":" ","HOUSE_NO":"３號之１","E_COORD97":170965.45999999999,"N_COORD97":2543795.3300000001,"ADDRESS":"東興路１６９巷３號之１","OBJECTID":448033},"geometry":{"x":170965.46000000089,"y":2543795.3300000019}},{"attributes":{"ID":448059,"DIS_CODE":0,"TOWNNAME":"東區","LI":"東光里","LIN":"18鄰","STREET":"東興路","SECT":" ","MAREA":" ","LANE":"１６９巷","ALLEY":" ","HOUSE_NO":"５號之１","E_COORD97":170958.89000000001,"N_COORD97":2543796.4700000002,"ADDRESS":"東興路１６９巷５號之１","OBJECTID":448034},"geometry":{"x":170958.8900000006,"y":2543796.4700000007}},{"attributes":{"ID":448060,"DIS_CODE":0,"TOWNNAME":"東區","LI":"東光里","LIN":"18鄰","STREET":"東興路","SECT":" ","MAREA":" ","LANE":"１６９巷","ALLEY":" ","HOUSE_NO":"７號之１","E_COORD97":170954.34,"N_COORD97":2543794.4500000002,"ADDRESS":"東興路１６９巷７號之１","OBJECTID":448035},"geometry":{"x":170954.34000000078,"y":2543794.4500000011}},{"attributes":{"ID":448061,"DIS_CODE":0,"TOWNNAME":"東區","LI":"東光里","LIN":"18鄰","STREET":"東興路","SECT":" ","MAREA":" ","LANE":"１６９巷","ALLEY":" ","HOUSE_NO":"９號之１","E_COORD97":170948.82000000001,"N_COORD97":2543797.0800000001,"ADDRESS":"東興路１６９巷９號之１","OBJECTID":448036},"geometry":{"x":170948.8200000003,"y":2543797.0800000019}},{"attributes":{"ID":448062,"DIS_CODE":0,"TOWNNAME":"東區","LI":"東光里","LIN":"18鄰","STREET":"東興路","SECT":" ","MAREA":" ","LANE":"１６９巷","ALLEY":" ","HOUSE_NO":"１１號之１","E_COORD97":170944.44,"N_COORD97":2543796.0299999998,"ADDRESS":"東興路１６９巷１１號之１","OBJECTID":448037},"geometry":{"x":170944.44000000041,"y":2543796.0299999975}},{"attributes":{"ID":448063,"DIS_CODE":0,"TOWNNAME":"東區","LI":"東光里","LIN":"18鄰","STREET":"東興路","SECT":" ","MAREA":" ","LANE":"１６９巷","ALLEY":" ","HOUSE_NO":"１３號之１","E_COORD97":170938.92999999999,"N_COORD97":2543799.4399999999,"ADDRESS":"東興路１６９巷１３號之１","OBJECTID":448038},"geometry":{"x":170938.9299999997,"y":2543799.4399999995}},{"attributes":{"ID":448064,"DIS_CODE":0,"TOWNNAME":"東區","LI":"東光里","LIN":"18鄰","STREET":"東興路","SECT":" ","MAREA":" ","LANE":"１６９巷","ALLEY":" ","HOUSE_NO":"１５號之１","E_COORD97":170934.37,"N_COORD97":2543797.52,"ADDRESS":"東興路１６９巷１５號之１","OBJECTID":448039},"geometry":{"x":170934.37000000011,"y":2543797.5200000014}},{"attributes":{"ID":448065,"DIS_CODE":0,"TOWNNAME":"東區","LI":"東光里","LIN":"18鄰","STREET":"東興路","SECT":" ","MAREA":" ","LANE":"１６９巷","ALLEY":" ","HOUSE_NO":"１７號之１","E_COORD97":170928.67999999999,"N_COORD97":2543799.8799999999,"ADDRESS":"東興路１６９巷１７號之１","OBJECTID":448040},"geometry":{"x":170928.6799999997,"y":2543799.879999999}},{"attributes":{"ID":448066,"DIS_CODE":0,"TOWNNAME":"東區","LI":"東光里","LIN":"18鄰","STREET":"東興路","SECT":" ","MAREA":" ","LANE":"１６９巷","ALLEY":" ","HOUSE_NO":"２１號之１","E_COORD97":170918.44,"N_COORD97":2543801.02,"ADDRESS":"東興路１６９巷２１號之１","OBJECTID":448041},"geometry":{"x":170918.44000000134,"y":2543801.0200000014}},{"attributes":{"ID":448067,"DIS_CODE":0,"TOWNNAME":"東區","LI":"東光里","LIN":"18鄰","STREET":"東興路","SECT":" ","MAREA":" ","LANE":"１６９巷","ALLEY":" ","HOUSE_NO":"２３號之１","E_COORD97":170914.5,"N_COORD97":2543798.6499999999,"ADDRESS":"東興路１６９巷２３號之１","OBJECTID":448042},"geometry":{"x":170914.50000000093,"y":2543798.6500000004}},{"attributes":{"ID":448068,"DIS_CODE":0,"TOWNNAME":"東區","LI":"東光里","LIN":"18鄰","STREET":"東興路","SECT":" ","MAREA":" ","LANE":"１６９巷","ALLEY":" ","HOUSE_NO":"２５號之１","E_COORD97":170910.98999999999,"N_COORD97":2543801.1899999999,"ADDRESS":"東興路１６９巷２５號之１","OBJECTID":448043},"geometry":{"x":170910.99000000115,"y":2543801.1899999995}},{"attributes":{"ID":448069,"DIS_CODE":0,"TOWNNAME":"東區","LI":"崇德里","LIN":"18鄰","STREET":"崇明十三街","SECT":" ","MAREA":" ","LANE":"１１巷","ALLEY":" ","HOUSE_NO":"６號","E_COORD97":170456.48999999999,"N_COORD97":2541623.8300000001,"ADDRESS":"崇明十三街１１巷６號","OBJECTID":448044},"geometry":{"x":170456.49000000115,"y":2541623.8300000001}},{"attributes":{"ID":448070,"DIS_CODE":0,"TOWNNAME":"東區","LI":"崇德里","LIN":"18鄰","STREET":"崇明十三街","SECT":" ","MAREA":" ","LANE":"１１巷","ALLEY":" ","HOUSE_NO":"２０號","E_COORD97":170477.32999999999,"N_COORD97":2541648.3399999999,"ADDRESS":"崇明十三街１１巷２０號","OBJECTID":448045},"geometry":{"x":170477.33000000007,"y":2541648.339999998}},{"attributes":{"ID":448071,"DIS_CODE":0,"TOWNNAME":"永康區","LI":"\u25A0洲里","LIN":"38鄰","STREET":"\u25A0行路","SECT":" ","MAREA":" ","LANE":"２０４巷","ALLEY":" ","HOUSE_NO":"１７號","E_COORD97":171249.26999999999,"N_COORD97":2549222.1200000001,"ADDRESS":"\u25A0行路２０４巷１７號","OBJECTID":448046},"geometry":{"x":171249.27000000048,"y":2549222.1200000048}},{"attributes":{"ID":448072,"DIS_CODE":0,"TOWNNAME":"麻豆區","LI":"中興里","LIN":"18鄰","STREET":"仁愛路","SECT":" ","MAREA":" ","LANE":"２９巷","ALLEY":" ","HOUSE_NO":"３號之１０","E_COORD97":172569.57999999999,"N_COORD97":2564490,"ADDRESS":"仁愛路２９巷３號之１０","OBJECTID":448047},"geometry":{"x":172569.58000000194,"y":2564490.0000000019}},{"attributes":{"ID":448073,"DIS_CODE":0,"TOWNNAME":"麻豆區","LI":"中興里","LIN":"18鄰","STREET":"仁愛路","SECT":" ","MAREA":" ","LANE":"２９巷","ALLEY":" ","HOUSE_NO":"３號之１１","E_COORD97":172569.95999999999,"N_COORD97":2564485.8100000001,"ADDRESS":"仁愛路２９巷３號之１１","OBJECTID":448048},"geometry":{"x":172569.95999999996,"y":2564485.8100000005}},{"attributes":{"ID":448074,"DIS_CODE":0,"TOWNNAME":"麻豆區","LI":"中興里","LIN":"18鄰","STREET":"仁愛路","SECT":" ","MAREA":" ","LANE":"２９巷","ALLEY":" ","HOUSE_NO":"３號之１２","E_COORD97":172585.79000000001,"N_COORD97":2564497.96,"ADDRESS":"仁愛路２９巷３號之１２","OBJECTID":448049},"geometry":{"x":172585.79000000097,"y":2564497.9600000028}},{"attributes":{"ID":448075,"DIS_CODE":0,"TOWNNAME":"麻豆區","LI":"中興里","LIN":"18鄰","STREET":"仁愛路","SECT":" ","MAREA":" ","LANE":"２９巷","ALLEY":" ","HOUSE_NO":"３號之１３","E_COORD97":172589.97,"N_COORD97":2564498.8199999998,"ADDRESS":"仁愛路２９巷３號之１３","OBJECTID":448050},"geometry":{"x":172589.96999999974,"y":2564498.8200000003}},{"attributes":{"ID":448076,"DIS_CODE":0,"TOWNNAME":"麻豆區","LI":"中興里","LIN":"18鄰","STREET":"仁愛路","SECT":" ","MAREA":" ","LANE":"２９巷","ALLEY":" ","HOUSE_NO":"３號之１４","E_COORD97":172594.17000000001,"N_COORD97":2564499.1600000001,"ADDRESS":"仁愛路２９巷３號之１４","OBJECTID":448051},"geometry":{"x":172594.17000000179,"y":2564499.160000002}},{"attributes":{"ID":448077,"DIS_CODE":0,"TOWNNAME":"麻豆區","LI":"中興里","LIN":"18鄰","STREET":"仁愛路","SECT":" ","MAREA":" ","LANE":"２９巷","ALLEY":" ","HOUSE_NO":"３號之１５","E_COORD97":172598.07000000001,"N_COORD97":2564499.8300000001,"ADDRESS":"仁愛路２９巷３號之１５","OBJECTID":448052},"geometry":{"x":172598.0700000003,"y":2564499.8299999982}},{"attributes":{"ID":448078,"DIS_CODE":0,"TOWNNAME":"麻豆區","LI":"中興里","LIN":"18鄰","STREET":"仁愛路","SECT":" ","MAREA":" ","LANE":"２９巷","ALLEY":" ","HOUSE_NO":"３號之１６","E_COORD97":172602.28,"N_COORD97":2564500.5600000001,"ADDRESS":"仁愛路２９巷３號之１６","OBJECTID":448053},"geometry":{"x":172602.28000000212,"y":2564500.5600000024}},{"attributes":{"ID":448079,"DIS_CODE":0,"TOWNNAME":"麻豆區","LI":"中興里","LIN":"18鄰","STREET":"仁愛路","SECT":" ","MAREA":" ","LANE":"２９巷","ALLEY":" ","HOUSE_NO":"３號之１７","E_COORD97":172606.45000000001,"N_COORD97":2564500.7000000002,"ADDRESS":"仁愛路２９巷３號之１７","OBJECTID":448054},"geometry":{"x":172606.45000000112,"y":2564500.7000000011}},{"attributes":{"ID":448080,"DIS_CODE":0,"TOWNNAME":"永康區","LI":"二王里","LIN":" ","STREET":"中山南路","SECT":" ","MAREA":" ","LANE":"５４４巷","ALLEY":" ","HOUSE_NO":"２號","E_COORD97":172270.32000000001,"N_COORD97":2546545.9300000002,"ADDRESS":"中山南路５４４巷２號","OBJECTID":448055},"geometry":{"x":172270.32000000123,"y":2546545.9299999997}},{"attributes":{"ID":448081,"DIS_CODE":0,"TOWNNAME":"麻豆區","LI":"中興里","LIN":"18鄰","STREET":"仁愛路","SECT":" ","MAREA":" ","LANE":"２９巷","ALLEY":" ","HOUSE_NO":"３號之７","E_COORD97":172567.92000000001,"N_COORD97":2564502.5099999998,"ADDRESS":"仁愛路２９巷３號之７","OBJECTID":448056},"geometry":{"x":172567.91999999993,"y":2564502.5100000016}},{"attributes":{"ID":448082,"DIS_CODE":0,"TOWNNAME":"麻豆區","LI":"中興里","LIN":"18鄰","STREET":"仁愛路","SECT":" ","MAREA":" ","LANE":"２９巷","ALLEY":" ","HOUSE_NO":"３號之８","E_COORD97":172568.54999999999,"N_COORD97":2564498.3900000001,"ADDRESS":"仁愛路２９巷３號之８","OBJECTID":448057},"geometry":{"x":172568.55000000075,"y":2564498.3900000025}},{"attributes":{"ID":448083,"DIS_CODE":0,"TOWNNAME":"麻豆區","LI":"中興里","LIN":"18鄰","STREET":"仁愛路","SECT":" ","MAREA":" ","LANE":"２９巷","ALLEY":" ","HOUSE_NO":"３號之９","E_COORD97":172568.92999999999,"N_COORD97":2564494.3199999998,"ADDRESS":"仁愛路２９巷３號之９","OBJECTID":448058},"geometry":{"x":172568.93000000063,"y":2564494.3200000022}},{"attributes":{"ID":448084,"DIS_CODE":0,"TOWNNAME":"麻豆區","LI":"中興里","LIN":"18鄰","STREET":"仁愛路","SECT":" ","MAREA":" ","LANE":"２９巷","ALLEY":" ","HOUSE_NO":"３號","E_COORD97":172579.92999999999,"N_COORD97":2564577.5499999998,"ADDRESS":"仁愛路２９巷３號","OBJECTID":448059},"geometry":{"x":172579.9299999997,"y":2564577.5500000026}},{"attributes":{"ID":448085,"DIS_CODE":0,"TOWNNAME":"麻豆區","LI":"中興里","LIN":"18鄰","STREET":"仁愛路","SECT":" ","MAREA":" ","LANE":"２９巷","ALLEY":" ","HOUSE_NO":"７號之１","E_COORD97":172586.72,"N_COORD97":2564396.1600000001,"ADDRESS":"仁愛路２９巷７號之１","OBJECTID":448060},"geometry":{"x":172586.71999999881,"y":2564396.1600000039}},{"attributes":{"ID":448086,"DIS_CODE":0,"TOWNNAME":"麻豆區","LI":"中興里","LIN":"18鄰","STREET":"仁愛路","SECT":" ","MAREA":" ","LANE":"２９巷","ALLEY":" ","HOUSE_NO":"７號","E_COORD97":172602.72,"N_COORD97":2564384.25,"ADDRESS":"仁愛路２９巷７號","OBJECTID":448061},"geometry":{"x":172602.72000000067,"y":2564384.25}},{"attributes":{"ID":448087,"DIS_CODE":0,"TOWNNAME":"麻豆區","LI":"中興里","LIN":"18鄰","STREET":"仁愛路","SECT":" ","MAREA":" ","LANE":"２９巷","ALLEY":" ","HOUSE_NO":"９號","E_COORD97":172588.91,"N_COORD97":2564388.8900000001,"ADDRESS":"仁愛路２９巷９號","OBJECTID":448062},"geometry":{"x":172588.91000000015,"y":2564388.8900000025}},{"attributes":{"ID":448088,"DIS_CODE":0,"TOWNNAME":"永康區","LI":"尚頂里","LIN":" ","STREET":"國聖街","SECT":" ","MAREA":" ","LANE":"４３巷","ALLEY":" ","HOUSE_NO":"６１號","E_COORD97":170268.35000000001,"N_COORD97":2547653.7400000002,"ADDRESS":"國聖街４３巷６１號","OBJECTID":448063},"geometry":{"x":170268.34999999963,"y":2547653.7399999984}},{"attributes":{"ID":448089,"DIS_CODE":0,"TOWNNAME":"永康區","LI":"六合里","LIN":" ","STREET":"中華路","SECT":" ","MAREA":" ","LANE":"４５９巷","ALLEY":" ","HOUSE_NO":"１之１號","E_COORD97":171293.64000000001,"N_COORD97":2545637.54,"ADDRESS":"中華路４５９巷１之１號","OBJECTID":448064},"geometry":{"x":171293.63999999966,"y":2545637.540000001}},{"attributes":{"ID":448090,"DIS_CODE":0,"TOWNNAME":"永康區","LI":"\u25A0行里","LIN":"4鄰","STREET":"新行街","SECT":" ","MAREA":" ","LANE":"４巷","ALLEY":" ","HOUSE_NO":"１２號","E_COORD97":172263.07000000001,"N_COORD97":2548749.2400000002,"ADDRESS":"新行街４巷１２號","OBJECTID":448065},"geometry":{"x":172263.07000000216,"y":2548749.2400000039}},{"attributes":{"ID":448091,"DIS_CODE":0,"TOWNNAME":"永康區","LI":"中華里","LIN":"5鄰","STREET":"忠勇街","SECT":" ","MAREA":" ","LANE":"３２巷","ALLEY":" ","HOUSE_NO":"２１號","E_COORD97":171988.41,"N_COORD97":2544432.7799999998,"ADDRESS":"忠勇街３２巷２１號","OBJECTID":448066},"geometry":{"x":171988.41000000015,"y":2544432.7800000012}},{"attributes":{"ID":448092,"DIS_CODE":0,"TOWNNAME":"永康區","LI":"永康里","LIN":"38鄰","STREET":"大同街","SECT":" ","MAREA":" ","LANE":"７１５巷","ALLEY":" ","HOUSE_NO":"１２號","E_COORD97":174458.60999999999,"N_COORD97":2546674.1800000002,"ADDRESS":"大同街７１５巷１２號","OBJECTID":448067},"geometry":{"x":174458.61000000127,"y":2546674.1800000034}},{"attributes":{"ID":448093,"DIS_CODE":0,"TOWNNAME":"永康區","LI":"永康里","LIN":"13鄰","STREET":"永康街","SECT":" ","MAREA":" ","LANE":"１３６巷","ALLEY":" ","HOUSE_NO":"９號","E_COORD97":173912.57000000001,"N_COORD97":2547048.54,"ADDRESS":"永康街１３６巷９號","OBJECTID":448068},"geometry":{"x":173912.57000000123,"y":2547048.540000001}},{"attributes":{"ID":448094,"DIS_CODE":0,"TOWNNAME":"永康區","LI":"北灣里","LIN":"18鄰","STREET":"文賢街","SECT":" ","MAREA":" ","LANE":"４２２巷","ALLEY":" ","HOUSE_NO":"４２號","E_COORD97":174653.85000000001,"N_COORD97":2545888.3300000001,"ADDRESS":"文賢街４２２巷４２號","OBJECTID":448069},"geometry":{"x":174653.8499999987,"y":2545888.3300000019}},{"attributes":{"ID":448095,"DIS_CODE":0,"TOWNNAME":"東區","LI":"崇善里","LIN":"18鄰","STREET":"崇善十一街","SECT":" ","MAREA":" ","LANE":"５４巷","ALLEY":" ","HOUSE_NO":"２號","E_COORD97":171292.32999999999,"N_COORD97":2541238.1499999999,"ADDRESS":"崇善十一街５４巷２號","OBJECTID":448070},"geometry":{"x":171292.33000000007,"y":2541238.1500000022}},{"attributes":{"ID":448096,"DIS_CODE":0,"TOWNNAME":"東區","LI":"崇善里","LIN":"18鄰","STREET":"崇善十一街","SECT":" ","MAREA":" ","LANE":"５４巷","ALLEY":" ","HOUSE_NO":"６號","E_COORD97":171295.29999999999,"N_COORD97":2541231.5099999998,"ADDRESS":"崇善十一街５４巷６號","OBJECTID":448071},"geometry":{"x":171295.30000000075,"y":2541231.5100000016}},{"attributes":{"ID":448097,"DIS_CODE":0,"TOWNNAME":"東區","LI":"崇善里","LIN":"18鄰","STREET":"崇善十一街","SECT":" ","MAREA":" ","LANE":"５４巷","ALLEY":" ","HOUSE_NO":"８號","E_COORD97":171297.22,"N_COORD97":2541226.0899999999,"ADDRESS":"崇善十一街５４巷８號","OBJECTID":448072},"geometry":{"x":171297.22000000067,"y":2541226.0899999999}},{"attributes":{"ID":448098,"DIS_CODE":0,"TOWNNAME":"東區","LI":"崇善里","LIN":"18鄰","STREET":"崇善十一街","SECT":" ","MAREA":" ","LANE":"５４巷","ALLEY":" ","HOUSE_NO":"１０號","E_COORD97":171302.12,"N_COORD97":2541218.9300000002,"ADDRESS":"崇善十一街５４巷１０號","OBJECTID":448073},"geometry":{"x":171302.12000000011,"y":2541218.9299999997}},{"attributes":{"ID":448099,"DIS_CODE":0,"TOWNNAME":"東區","LI":"崇善里","LIN":"18鄰","STREET":"崇善十一街","SECT":" ","MAREA":" ","LANE":"５４巷","ALLEY":" ","HOUSE_NO":"１２號","E_COORD97":171304.39000000001,"N_COORD97":2541215.0899999999,"ADDRESS":"崇善十一街５４巷１２號","OBJECTID":448074},"geometry":{"x":171304.3900000006,"y":2541215.0899999999}},{"attributes":{"ID":448100,"DIS_CODE":0,"TOWNNAME":"東區","LI":"崇善里","LIN":"18鄰","STREET":"崇善十一街","SECT":" ","MAREA":" ","LANE":"５４巷","ALLEY":" ","HOUSE_NO":"１８號","E_COORD97":171308.5,"N_COORD97":2541206.1000000001,"ADDRESS":"崇善十一街５４巷１８號","OBJECTID":448075},"geometry":{"x":171308.5,"y":2541206.1000000015}},{"attributes":{"ID":448101,"DIS_CODE":0,"TOWNNAME":"東區","LI":"崇善里","LIN":"18鄰","STREET":"崇善十一街","SECT":" ","MAREA":" ","LANE":"５４巷","ALLEY":" ","HOUSE_NO":"３６號","E_COORD97":171327.12,"N_COORD97":2541167.5899999999,"ADDRESS":"崇善十一街５４巷３６號","OBJECTID":448076},"geometry":{"x":171327.12000000104,"y":2541167.5899999999}},{"attributes":{"ID":448102,"DIS_CODE":0,"TOWNNAME":"東區","LI":"崇善里","LIN":"18鄰","STREET":"崇善十一街","SECT":" ","MAREA":" ","LANE":"５４巷","ALLEY":" ","HOUSE_NO":"３６之１號","E_COORD97":171321.54999999999,"N_COORD97":2541164.4199999999,"ADDRESS":"崇善十一街５４巷３６之１號","OBJECTID":448077},"geometry":{"x":171321.54999999981,"y":2541164.4200000018}},{"attributes":{"ID":448103,"DIS_CODE":0,"TOWNNAME":"東區","LI":"崇善里","LIN":"18鄰","STREET":"崇善十一街","SECT":" ","MAREA":" ","LANE":"５４巷","ALLEY":" ","HOUSE_NO":"３６之２號","E_COORD97":171316.51999999999,"N_COORD97":2541161.5099999998,"ADDRESS":"崇善十一街５４巷３６之２號","OBJECTID":448078},"geometry":{"x":171316.52000000142,"y":2541161.5099999998}},{"attributes":{"ID":448104,"DIS_CODE":0,"TOWNNAME":"東區","LI":"崇善里","LIN":"18鄰","STREET":"崇善十一街","SECT":" ","MAREA":" ","LANE":"５４巷","ALLEY":" ","HOUSE_NO":"３６之３號","E_COORD97":171311.23000000001,"N_COORD97":2541159.6600000001,"ADDRESS":"崇善十一街５４巷３６之３號","OBJECTID":448079},"geometry":{"x":171311.23000000138,"y":2541159.660000002}},{"attributes":{"ID":448105,"DIS_CODE":0,"TOWNNAME":"東區","LI":"崇善里","LIN":"18鄰","STREET":"崇善十一街","SECT":" ","MAREA":" ","LANE":"５４巷","ALLEY":" ","HOUSE_NO":"３６之５號","E_COORD97":171305.66,"N_COORD97":2541156.48,"ADDRESS":"崇善十一街５４巷３６之５號","OBJECTID":448080},"geometry":{"x":171305.66000000015,"y":2541156.4800000042}},{"attributes":{"ID":448106,"DIS_CODE":0,"TOWNNAME":"東區","LI":"崇善里","LIN":"18鄰","STREET":"崇善十一街","SECT":" ","MAREA":" ","LANE":"５４巷","ALLEY":" ","HOUSE_NO":"３８號","E_COORD97":171332.67999999999,"N_COORD97":2541154.6299999999,"ADDRESS":"崇善十一街５４巷３８號","OBJECTID":448081},"geometry":{"x":171332.68000000156,"y":2541154.6300000008}},{"attributes":{"ID":448107,"DIS_CODE":0,"TOWNNAME":"東區","LI":"崇善里","LIN":"18鄰","STREET":"崇善十一街","SECT":" ","MAREA":" ","LANE":"５４巷","ALLEY":" ","HOUSE_NO":"３８之１號","E_COORD97":171327.91,"N_COORD97":2541151.7200000002,"ADDRESS":"崇善十一街５４巷３８之１號","OBJECTID":448082},"geometry":{"x":171327.91000000015,"y":2541151.7200000044}},{"attributes":{"ID":448108,"DIS_CODE":0,"TOWNNAME":"東區","LI":"崇善里","LIN":"18鄰","STREET":"崇善十一街","SECT":" ","MAREA":" ","LANE":"５４巷","ALLEY":" ","HOUSE_NO":"３８之２號","E_COORD97":171322.35000000001,"N_COORD97":2541149.6000000001,"ADDRESS":"崇善十一街５４巷３８之２號","OBJECTID":448083},"geometry":{"x":171322.34999999963,"y":2541149.6000000015}},{"attributes":{"ID":448109,"DIS_CODE":0,"TOWNNAME":"東區","LI":"崇善里","LIN":"18鄰","STREET":"崇善十一街","SECT":" ","MAREA":" ","LANE":"５４巷","ALLEY":" ","HOUSE_NO":"３８之３號","E_COORD97":171318.10999999999,"N_COORD97":2541146.1600000001,"ADDRESS":"崇善十一街５４巷３８之３號","OBJECTID":448084},"geometry":{"x":171318.11000000034,"y":2541146.160000002}},{"attributes":{"ID":448110,"DIS_CODE":0,"TOWNNAME":"東區","LI":"崇文里","LIN":"40鄰","STREET":"生產路","SECT":" ","MAREA":" ","LANE":" ","ALLEY":" ","HOUSE_NO":"２７３號九樓","E_COORD97":170903.01999999999,"N_COORD97":2540618.1099999999,"ADDRESS":"生產路２７３號九樓","OBJECTID":448085},"geometry":{"x":170903.02000000142,"y":2540618.1099999994}},{"attributes":{"ID":448111,"DIS_CODE":0,"TOWNNAME":"東區","LI":"崇善里","LIN":"18鄰","STREET":"崇善十一街","SECT":" ","MAREA":" ","LANE":"５４巷","ALLEY":" ","HOUSE_NO":"３８之５號","E_COORD97":171312.81,"N_COORD97":2541143.52,"ADDRESS":"崇善十一街５４巷３８之５號","OBJECTID":448086},"geometry":{"x":171312.80999999959,"y":2541143.5199999996}},{"attributes":{"ID":448112,"DIS_CODE":0,"TOWNNAME":"永康區","LI":"網寮里","LIN":"18鄰","STREET":"永大一路","SECT":" ","MAREA":" ","LANE":"３３６巷","ALLEY":" ","HOUSE_NO":"５號","E_COORD97":173532.60999999999,"N_COORD97":2546255.1200000001,"ADDRESS":"永大一路３３６巷５號","OBJECTID":448087},"geometry":{"x":173532.61000000127,"y":2546255.120000001}},{"attributes":{"ID":448113,"DIS_CODE":0,"TOWNNAME":"永康區","LI":"網寮里","LIN":"18鄰","STREET":"永大一路","SECT":" ","MAREA":" ","LANE":"３３６巷","ALLEY":" ","HOUSE_NO":"７號","E_COORD97":173525.73999999999,"N_COORD97":2546260.1200000001,"ADDRESS":"永大一路３３６巷７號","OBJECTID":448088},"geometry":{"x":173525.74000000022,"y":2546260.1200000029}},{"attributes":{"ID":448114,"DIS_CODE":0,"TOWNNAME":"永康區","LI":"網寮里","LIN":"18鄰","STREET":"永大一路","SECT":" ","MAREA":" ","LANE":"３３８巷","ALLEY":" ","HOUSE_NO":"２號","E_COORD97":173540.88,"N_COORD97":2546235.0099999998,"ADDRESS":"永大一路３３８巷２號","OBJECTID":448089},"geometry":{"x":173540.88000000082,"y":2546235.0100000016}},{"attributes":{"ID":448115,"DIS_CODE":0,"TOWNNAME":"永康區","LI":"網寮里","LIN":"18鄰","STREET":"永大一路","SECT":" ","MAREA":" ","LANE":"３３８巷","ALLEY":" ","HOUSE_NO":"６號","E_COORD97":173536.82999999999,"N_COORD97":2546238.9900000002,"ADDRESS":"永大一路３３８巷６號","OBJECTID":448090},"geometry":{"x":173536.83000000007,"y":2546238.9900000021}},{"attributes":{"ID":448116,"DIS_CODE":0,"TOWNNAME":"永康區","LI":"網寮里","LIN":"18鄰","STREET":"永大一路","SECT":" ","MAREA":" ","LANE":"３３８巷","ALLEY":" ","HOUSE_NO":"８號","E_COORD97":173531.82999999999,"N_COORD97":2546241.8500000001,"ADDRESS":"永大一路３３８巷８號","OBJECTID":448091},"geometry":{"x":173531.83000000007,"y":2546241.8499999996}},{"attributes":{"ID":448117,"DIS_CODE":0,"TOWNNAME":"永康區","LI":"網寮里","LIN":"18鄰","STREET":"永大一路","SECT":" ","MAREA":" ","LANE":"３３８巷","ALLEY":" ","HOUSE_NO":"１０號","E_COORD97":173528.20999999999,"N_COORD97":2546245.52,"ADDRESS":"永大一路３３８巷１０號","OBJECTID":448092},"geometry":{"x":173528.21000000089,"y":2546245.5200000014}},{"attributes":{"ID":448118,"DIS_CODE":0,"TOWNNAME":"永康區","LI":"網寮里","LIN":"18鄰","STREET":"永大一路","SECT":" ","MAREA":" ","LANE":"３３８巷","ALLEY":" ","HOUSE_NO":"１２號","E_COORD97":173523.34,"N_COORD97":2546249.2000000002,"ADDRESS":"永大一路３３８巷１２號","OBJECTID":448093},"geometry":{"x":173523.33999999985,"y":2546249.1999999993}},{"attributes":{"ID":448119,"DIS_CODE":0,"TOWNNAME":"永康區","LI":"網寮里","LIN":"18鄰","STREET":"永大一路","SECT":" ","MAREA":" ","LANE":"３３８巷","ALLEY":" ","HOUSE_NO":"１６號","E_COORD97":173517.97,"N_COORD97":2546252.3599999999,"ADDRESS":"永大一路３３８巷１６號","OBJECTID":448094},"geometry":{"x":173517.97000000067,"y":2546252.3600000013}},{"attributes":{"ID":448120,"DIS_CODE":0,"TOWNNAME":"永康區","LI":"網寮里","LIN":"18鄰","STREET":"永大一路","SECT":" ","MAREA":" ","LANE":"３３８巷","ALLEY":" ","HOUSE_NO":"１號","E_COORD97":173529.35000000001,"N_COORD97":2546219.0099999998,"ADDRESS":"永大一路３３８巷１號","OBJECTID":448095},"geometry":{"x":173529.34999999963,"y":2546219.0100000016}},{"attributes":{"ID":448121,"DIS_CODE":0,"TOWNNAME":"永康區","LI":"網寮里","LIN":"18鄰","STREET":"永大一路","SECT":" ","MAREA":" ","LANE":"３３８巷","ALLEY":" ","HOUSE_NO":"３號","E_COORD97":173525.91,"N_COORD97":2546224.6600000001,"ADDRESS":"永大一路３３８巷３號","OBJECTID":448096},"geometry":{"x":173525.91000000108,"y":2546224.660000002}},{"attributes":{"ID":448122,"DIS_CODE":0,"TOWNNAME":"永康區","LI":"網寮里","LIN":"18鄰","STREET":"永大一路","SECT":" ","MAREA":" ","LANE":"３３８巷","ALLEY":" ","HOUSE_NO":"５號","E_COORD97":173520.60000000001,"N_COORD97":2546227.1200000001,"ADDRESS":"永大一路３３８巷５號","OBJECTID":448097},"geometry":{"x":173520.60000000056,"y":2546227.120000001}},{"attributes":{"ID":448123,"DIS_CODE":0,"TOWNNAME":"永康區","LI":"網寮里","LIN":"18鄰","STREET":"永大一路","SECT":" ","MAREA":" ","LANE":"３３８巷","ALLEY":" ","HOUSE_NO":"７號","E_COORD97":173516.95000000001,"N_COORD97":2546231.54,"ADDRESS":"永大一路３３８巷７號","OBJECTID":448098},"geometry":{"x":173516.95000000112,"y":2546231.540000001}},{"attributes":{"ID":448124,"DIS_CODE":0,"TOWNNAME":"永康區","LI":"網寮里","LIN":"18鄰","STREET":"永大一路","SECT":" ","MAREA":" ","LANE":"３３８巷","ALLEY":" ","HOUSE_NO":"９號","E_COORD97":173512.57999999999,"N_COORD97":2546235.1299999999,"ADDRESS":"永大一路３３８巷９號","OBJECTID":448099},"geometry":{"x":173512.58000000101,"y":2546235.129999999}},{"attributes":{"ID":448125,"DIS_CODE":0,"TOWNNAME":"永康區","LI":"網寮里","LIN":"18鄰","STREET":"永大一路","SECT":" ","MAREA":" ","LANE":"３３８巷","ALLEY":" ","HOUSE_NO":"１１號","E_COORD97":173508.16,"N_COORD97":2546238.7599999998,"ADDRESS":"永大一路３３８巷１１號","OBJECTID":448100},"geometry":{"x":173508.16000000201,"y":2546238.7599999998}},{"attributes":{"ID":448126,"DIS_CODE":0,"TOWNNAME":"中西區","LI":"天后里","LIN":"18鄰","STREET":"郡緯街","SECT":" ","MAREA":" ","LANE":"１８巷","ALLEY":" ","HOUSE_NO":"１２號","E_COORD97":168129.45999999999,"N_COORD97":2544360.4700000002,"ADDRESS":"郡緯街１８巷１２號","OBJECTID":448101},"geometry":{"x":168129.46000000089,"y":2544360.4700000007}},{"attributes":{"ID":448127,"DIS_CODE":0,"TOWNNAME":"中西區","LI":"天后里","LIN":"18鄰","STREET":"郡緯街","SECT":" ","MAREA":" ","LANE":"１８巷","ALLEY":" ","HOUSE_NO":"３號","E_COORD97":168121.82000000001,"N_COORD97":2544339.23,"ADDRESS":"郡緯街１８巷３號","OBJECTID":448102},"geometry":{"x":168121.82000000123,"y":2544339.2300000023}},{"attributes":{"ID":448128,"DIS_CODE":0,"TOWNNAME":"中西區","LI":"天后里","LIN":"18鄰","STREET":"郡緯街","SECT":" ","MAREA":" ","LANE":"１８巷","ALLEY":" ","HOUSE_NO":"５號","E_COORD97":168106.39999999999,"N_COORD97":2544344.2799999998,"ADDRESS":"郡緯街１８巷５號","OBJECTID":448103},"geometry":{"x":168106.4000000013,"y":2544344.2800000012}},{"attributes":{"ID":448129,"DIS_CODE":0,"TOWNNAME":"中西區","LI":"天后里","LIN":"18鄰","STREET":"郡緯街","SECT":" ","MAREA":" ","LANE":"１８巷","ALLEY":" ","HOUSE_NO":"６號","E_COORD97":168107.95000000001,"N_COORD97":2544346.6099999999,"ADDRESS":"郡緯街１８巷６號","OBJECTID":448104},"geometry":{"x":168107.95000000019,"y":2544346.6100000013}},{"attributes":{"ID":448130,"DIS_CODE":0,"TOWNNAME":"中西區","LI":"天后里","LIN":"18鄰","STREET":"郡緯街","SECT":" ","MAREA":" ","LANE":"１８巷","ALLEY":" ","HOUSE_NO":"７號","E_COORD97":168109.38,"N_COORD97":2544348.8100000001,"ADDRESS":"郡緯街１８巷７號","OBJECTID":448105},"geometry":{"x":168109.38000000082,"y":2544348.8100000024}},{"attributes":{"ID":448131,"DIS_CODE":0,"TOWNNAME":"中西區","LI":"天后里","LIN":"18鄰","STREET":"郡緯街","SECT":" ","MAREA":" ","LANE":"１８巷","ALLEY":" ","HOUSE_NO":"８號","E_COORD97":168122.45999999999,"N_COORD97":2544342.5099999998,"ADDRESS":"郡緯街１８巷８號","OBJECTID":448106},"geometry":{"x":168122.46000000089,"y":2544342.5100000035}},{"attributes":{"ID":448132,"DIS_CODE":0,"TOWNNAME":"中西區","LI":"天后里","LIN":"18鄰","STREET":"郡緯街","SECT":" ","MAREA":" ","LANE":"１８巷","ALLEY":" ","HOUSE_NO":"９號","E_COORD97":168120.85000000001,"N_COORD97":2544349.7799999998,"ADDRESS":"郡緯街１８巷９號","OBJECTID":448107},"geometry":{"x":168120.85000000056,"y":2544349.7799999993}},{"attributes":{"ID":448133,"DIS_CODE":0,"TOWNNAME":"下營區","LI":"宅內里","LIN":"18鄰","STREET":"人和三街","SECT":" ","MAREA":" ","LANE":"４１巷","ALLEY":" ","HOUSE_NO":"８號","E_COORD97":174296.10999999999,"N_COORD97":2570693.4500000002,"ADDRESS":"人和三街４１巷８號","OBJECTID":448108},"geometry":{"x":174296.11000000034,"y":2570693.4500000011}},{"attributes":{"ID":448134,"DIS_CODE":0,"TOWNNAME":"新市區","LI":"港墘里","LIN":"18鄰","STREET":"華美街","SECT":" ","MAREA":" ","LANE":"１巷","ALLEY":" ","HOUSE_NO":"１１號","E_COORD97":178070.81,"N_COORD97":2552667.5499999998,"ADDRESS":"華美街１巷１１號","OBJECTID":448109},"geometry":{"x":178070.81000000052,"y":2552667.5500000026}},{"attributes":{"ID":448135,"DIS_CODE":0,"TOWNNAME":"安南區","LI":"新順里","LIN":"18鄰","STREET":"育安四街","SECT":" ","MAREA":" ","LANE":"３１巷","ALLEY":" ","HOUSE_NO":"１０號","E_COORD97":169656.12,"N_COORD97":2549572.3599999999,"ADDRESS":"育安四街３１巷１０號","OBJECTID":448110},"geometry":{"x":169656.12000000011,"y":2549572.3600000013}},{"attributes":{"ID":448136,"DIS_CODE":0,"TOWNNAME":"安南區","LI":"新順里","LIN":"18鄰","STREET":"安和路","SECT":"三段","MAREA":" ","LANE":"７３巷","ALLEY":" ","HOUSE_NO":"１１號","E_COORD97":169727.60999999999,"N_COORD97":2549519.7200000002,"ADDRESS":"安和路三段７３巷１１號","OBJECTID":448111},"geometry":{"x":169727.61000000034,"y":2549519.7200000025}},{"attributes":{"ID":448137,"DIS_CODE":0,"TOWNNAME":"安南區","LI":"新順里","LIN":"18鄰","STREET":"安和路","SECT":"三段","MAREA":" ","LANE":"７３巷","ALLEY":" ","HOUSE_NO":"１３號","E_COORD97":169721.51000000001,"N_COORD97":2549520.9399999999,"ADDRESS":"安和路三段７３巷１３號","OBJECTID":448112},"geometry":{"x":169721.50999999978,"y":2549520.9400000013}},{"attributes":{"ID":448138,"DIS_CODE":0,"TOWNNAME":"安南區","LI":"新順里","LIN":"18鄰","STREET":"安和路","SECT":"三段","MAREA":" ","LANE":"７３巷","ALLEY":" ","HOUSE_NO":"１５號","E_COORD97":169716.62,"N_COORD97":2549522.77,"ADDRESS":"安和路三段７３巷１５號","OBJECTID":448113},"geometry":{"x":169716.62000000104,"y":2549522.7700000014}},{"attributes":{"ID":448139,"DIS_CODE":0,"TOWNNAME":"安南區","LI":"新順里","LIN":"18鄰","STREET":"安和路","SECT":"三段","MAREA":" ","LANE":"７３巷","ALLEY":" ","HOUSE_NO":"１７號","E_COORD97":169711.53,"N_COORD97":2549524.6000000001,"ADDRESS":"安和路三段７３巷１７號","OBJECTID":448114},"geometry":{"x":169711.53000000026,"y":2549524.5999999996}},{"attributes":{"ID":448140,"DIS_CODE":0,"TOWNNAME":"安南區","LI":"新順里","LIN":"18鄰","STREET":"安和路","SECT":"三段","MAREA":" ","LANE":"７３巷","ALLEY":" ","HOUSE_NO":"１９號","E_COORD97":169707.66,"N_COORD97":2549525.21,"ADDRESS":"安和路三段７３巷１９號","OBJECTID":448115},"geometry":{"x":169707.66000000201,"y":2549525.2100000009}},{"attributes":{"ID":448141,"DIS_CODE":0,"TOWNNAME":"安南區","LI":"新順里","LIN":"18鄰","STREET":"安和路","SECT":"三段","MAREA":" ","LANE":"７３巷","ALLEY":" ","HOUSE_NO":"２１號","E_COORD97":169703.17999999999,"N_COORD97":2549526.6299999999,"ADDRESS":"安和路三段７３巷２１號","OBJECTID":448116},"geometry":{"x":169703.1799999997,"y":2549526.629999999}},{"attributes":{"ID":448142,"DIS_CODE":0,"TOWNNAME":"安南區","LI":"新順里","LIN":"18鄰","STREET":"安和路","SECT":"三段","MAREA":" ","LANE":"７３巷","ALLEY":" ","HOUSE_NO":"２３號","E_COORD97":169698.5,"N_COORD97":2549527.6499999999,"ADDRESS":"安和路三段７３巷２３號","OBJECTID":448117},"geometry":{"x":169698.50000000093,"y":2549527.6500000022}},{"attributes":{"ID":448143,"DIS_CODE":0,"TOWNNAME":"安南區","LI":"新順里","LIN":"18鄰","STREET":"安和路","SECT":"三段","MAREA":" ","LANE":"７３巷","ALLEY":" ","HOUSE_NO":"２５號","E_COORD97":169694.22,"N_COORD97":2549528.8700000001,"ADDRESS":"安和路三段７３巷２５號","OBJECTID":448118},"geometry":{"x":169694.21999999974,"y":2549528.8700000048}},{"attributes":{"ID":448144,"DIS_CODE":0,"TOWNNAME":"安南區","LI":"新順里","LIN":"18鄰","STREET":"安和路","SECT":"三段","MAREA":" ","LANE":"７３巷","ALLEY":" ","HOUSE_NO":"２７號","E_COORD97":169690.97,"N_COORD97":2549530.29,"ADDRESS":"安和路三段７３巷２７號","OBJECTID":448119},"geometry":{"x":169690.96999999974,"y":2549530.2899999991}},{"attributes":{"ID":448145,"DIS_CODE":0,"TOWNNAME":"安南區","LI":"新順里","LIN":"18鄰","STREET":"安和路","SECT":"三段","MAREA":" ","LANE":"７３巷","ALLEY":" ","HOUSE_NO":"５號","E_COORD97":169746.54999999999,"N_COORD97":2549514.2200000002,"ADDRESS":"安和路三段７３巷５號","OBJECTID":448120},"geometry":{"x":169746.54999999981,"y":2549514.2200000007}},{"attributes":{"ID":448146,"DIS_CODE":0,"TOWNNAME":"安南區","LI":"新順里","LIN":"18鄰","STREET":"安和路","SECT":"三段","MAREA":" ","LANE":"７３巷","ALLEY":" ","HOUSE_NO":"７號","E_COORD97":169739.42000000001,"N_COORD97":2549516.6600000001,"ADDRESS":"安和路三段７３巷７號","OBJECTID":448121},"geometry":{"x":169739.42000000179,"y":2549516.660000002}},{"attributes":{"ID":448147,"DIS_CODE":0,"TOWNNAME":"安南區","LI":"新順里","LIN":"18鄰","STREET":"安和路","SECT":"三段","MAREA":" ","LANE":"７３巷","ALLEY":" ","HOUSE_NO":"９號","E_COORD97":169733.32000000001,"N_COORD97":2549518.0899999999,"ADDRESS":"安和路三段７３巷９號","OBJECTID":448122},"geometry":{"x":169733.3200000003,"y":2549518.0899999999}},{"attributes":{"ID":448148,"DIS_CODE":0,"TOWNNAME":"安南區","LI":"新順里","LIN":"18鄰","STREET":"育安四街","SECT":" ","MAREA":" ","LANE":"３１巷","ALLEY":" ","HOUSE_NO":"１２號","E_COORD97":169653.48999999999,"N_COORD97":2549562.4500000002,"ADDRESS":"育安四街３１巷１２號","OBJECTID":448123},"geometry":{"x":169653.49000000115,"y":2549562.4499999993}},{"attributes":{"ID":448149,"DIS_CODE":0,"TOWNNAME":"安南區","LI":"新順里","LIN":"18鄰","STREET":"育安四街","SECT":" ","MAREA":" ","LANE":"３１巷","ALLEY":" ","HOUSE_NO":"１３號","E_COORD97":169651.67000000001,"N_COORD97":2549557.5899999999,"ADDRESS":"育安四街３１巷１３號","OBJECTID":448124},"geometry":{"x":169651.67000000086,"y":2549557.5900000017}},{"attributes":{"ID":448150,"DIS_CODE":0,"TOWNNAME":"永康區","LI":"永康里","LIN":"38鄰","STREET":"大同街","SECT":" ","MAREA":" ","LANE":"７１５巷","ALLEY":" ","HOUSE_NO":"２８號","E_COORD97":174435.37,"N_COORD97":2546667.9300000002,"ADDRESS":"大同街７１５巷２８號","OBJECTID":448125},"geometry":{"x":174435.37000000011,"y":2546667.9299999997}},{"attributes":{"ID":448151,"DIS_CODE":0,"TOWNNAME":"安南區","LI":"新順里","LIN":"18鄰","STREET":"育安四街","SECT":" ","MAREA":" ","LANE":"３１巷","ALLEY":" ","HOUSE_NO":"１４號","E_COORD97":169650.45000000001,"N_COORD97":2549552.9399999999,"ADDRESS":"育安四街３１巷１４號","OBJECTID":448126},"geometry":{"x":169650.45000000112,"y":2549552.9399999995}},{"attributes":{"ID":448152,"DIS_CODE":0,"TOWNNAME":"安南區","LI":"新順里","LIN":"18鄰","STREET":"育安四街","SECT":" ","MAREA":" ","LANE":"３１巷","ALLEY":" ","HOUSE_NO":"１５號","E_COORD97":169648.63,"N_COORD97":2549547.6800000002,"ADDRESS":"育安四街３１巷１５號","OBJECTID":448127},"geometry":{"x":169648.63000000082,"y":2549547.6799999997}},{"attributes":{"ID":448153,"DIS_CODE":0,"TOWNNAME":"安南區","LI":"新順里","LIN":"18鄰","STREET":"育安四街","SECT":" ","MAREA":" ","LANE":"３１巷","ALLEY":" ","HOUSE_NO":"１６號","E_COORD97":169647.20999999999,"N_COORD97":2549542.8199999998,"ADDRESS":"育安四街３１巷１６號","OBJECTID":448128},"geometry":{"x":169647.20999999996,"y":2549542.8200000022}},{"attributes":{"ID":448154,"DIS_CODE":0,"TOWNNAME":"安南區","LI":"新順里","LIN":"18鄰","STREET":"育安四街","SECT":" ","MAREA":" ","LANE":"３１巷","ALLEY":" ","HOUSE_NO":"１８號","E_COORD97":169656.48999999999,"N_COORD97":2549534.2599999998,"ADDRESS":"育安四街３１巷１８號","OBJECTID":448129},"geometry":{"x":169656.49000000115,"y":2549534.2599999998}},{"attributes":{"ID":448155,"DIS_CODE":0,"TOWNNAME":"安南區","LI":"新順里","LIN":"18鄰","STREET":"育安四街","SECT":" ","MAREA":" ","LANE":"３１巷","ALLEY":" ","HOUSE_NO":"１號","E_COORD97":169664.82999999999,"N_COORD97":2549558.7999999998,"ADDRESS":"育安四街３１巷１號","OBJECTID":448130},"geometry":{"x":169664.83000000007,"y":2549558.8000000007}},{"attributes":{"ID":448156,"DIS_CODE":0,"TOWNNAME":"安南區","LI":"新順里","LIN":"18鄰","STREET":"育安四街","SECT":" ","MAREA":" ","LANE":"３１巷","ALLEY":" ","HOUSE_NO":"２號","E_COORD97":169666.64999999999,"N_COORD97":2549562.6499999999,"ADDRESS":"育安四街３１巷２號","OBJECTID":448131},"geometry":{"x":169666.65000000037,"y":2549562.6500000004}},{"attributes":{"ID":448157,"DIS_CODE":0,"TOWNNAME":"安南區","LI":"新順里","LIN":"18鄰","STREET":"育安四街","SECT":" ","MAREA":" ","LANE":"３１巷","ALLEY":" ","HOUSE_NO":"３號","E_COORD97":169668.88,"N_COORD97":2549566.8999999999,"ADDRESS":"育安四街３１巷３號","OBJECTID":448132},"geometry":{"x":169668.88000000082,"y":2549566.9000000004}},{"attributes":{"ID":448158,"DIS_CODE":0,"TOWNNAME":"安南區","LI":"新順里","LIN":"18鄰","STREET":"育安四街","SECT":" ","MAREA":" ","LANE":"３１巷","ALLEY":" ","HOUSE_NO":"４號","E_COORD97":169670.5,"N_COORD97":2549571.75,"ADDRESS":"育安四街３１巷４號","OBJECTID":448133},"geometry":{"x":169670.5,"y":2549571.75}},{"attributes":{"ID":448159,"DIS_CODE":0,"TOWNNAME":"安南區","LI":"新順里","LIN":"18鄰","STREET":"育安四街","SECT":" ","MAREA":" ","LANE":"３１巷","ALLEY":" ","HOUSE_NO":"５號","E_COORD97":169672.92999999999,"N_COORD97":2549577.0099999998,"ADDRESS":"育安四街３１巷５號","OBJECTID":448134},"geometry":{"x":169672.92999999877,"y":2549577.0099999998}},{"attributes":{"ID":448160,"DIS_CODE":0,"TOWNNAME":"安南區","LI":"新順里","LIN":"18鄰","STREET":"育安四街","SECT":" ","MAREA":" ","LANE":"３１巷","ALLEY":" ","HOUSE_NO":"６號","E_COORD97":169674.14999999999,"N_COORD97":2549581.8700000001,"ADDRESS":"育安四街３１巷６號","OBJECTID":448135},"geometry":{"x":169674.1500000013,"y":2549581.870000001}},{"attributes":{"ID":448161,"DIS_CODE":0,"TOWNNAME":"安南區","LI":"新順里","LIN":"18鄰","STREET":"育安四街","SECT":" ","MAREA":" ","LANE":"３１巷","ALLEY":" ","HOUSE_NO":"７號","E_COORD97":169659.35999999999,"N_COORD97":2549586.7200000002,"ADDRESS":"育安四街３１巷７號","OBJECTID":448136},"geometry":{"x":169659.36000000127,"y":2549586.7200000007}},{"attributes":{"ID":448162,"DIS_CODE":0,"TOWNNAME":"安南區","LI":"新順里","LIN":"18鄰","STREET":"育安四街","SECT":" ","MAREA":" ","LANE":"３１巷","ALLEY":" ","HOUSE_NO":"８號","E_COORD97":169658.14999999999,"N_COORD97":2549581.46,"ADDRESS":"育安四街３１巷８號","OBJECTID":448137},"geometry":{"x":169658.15000000037,"y":2549581.4600000009}},{"attributes":{"ID":448163,"DIS_CODE":0,"TOWNNAME":"安南區","LI":"新順里","LIN":"18鄰","STREET":"育安四街","SECT":" ","MAREA":" ","LANE":"３１巷","ALLEY":" ","HOUSE_NO":"９號","E_COORD97":169657.14000000001,"N_COORD97":2549576.4100000001,"ADDRESS":"育安四街３１巷９號","OBJECTID":448138},"geometry":{"x":169657.1400000006,"y":2549576.410000002}},{"attributes":{"ID":448164,"DIS_CODE":0,"TOWNNAME":"東區","LI":"自強里","LIN":"18鄰","STREET":"中華東路","SECT":"二段","MAREA":" ","LANE":"２０３巷","ALLEY":" ","HOUSE_NO":"４８號","E_COORD97":171280.59,"N_COORD97":2542628.1200000001,"ADDRESS":"中華東路二段２０３巷４８號","OBJECTID":448139},"geometry":{"x":171280.58999999985,"y":2542628.1200000029}},{"attributes":{"ID":448165,"DIS_CODE":0,"TOWNNAME":"東區","LI":"自強里","LIN":"18鄰","STREET":"中華東路","SECT":"二段","MAREA":" ","LANE":"２０３巷","ALLEY":" ","HOUSE_NO":"４號","E_COORD97":171292.70999999999,"N_COORD97":2542698.77,"ADDRESS":"中華東路二段２０３巷４號","OBJECTID":448140},"geometry":{"x":171292.71000000089,"y":2542698.7699999996}},{"attributes":{"ID":448166,"DIS_CODE":0,"TOWNNAME":"東區","LI":"自強里","LIN":"18鄰","STREET":"中華東路","SECT":"二段","MAREA":" ","LANE":"２０３巷","ALLEY":" ","HOUSE_NO":"５０號","E_COORD97":171279.78,"N_COORD97":2542633.1899999999,"ADDRESS":"中華東路二段２０３巷５０號","OBJECTID":448141},"geometry":{"x":171279.78000000026,"y":2542633.1900000013}},{"attributes":{"ID":448167,"DIS_CODE":0,"TOWNNAME":"東區","LI":"自強里","LIN":"18鄰","STREET":"中華東路","SECT":"二段","MAREA":" ","LANE":"２０３巷","ALLEY":" ","HOUSE_NO":"５２號","E_COORD97":171279.17000000001,"N_COORD97":2542638.0499999998,"ADDRESS":"中華東路二段２０３巷５２號","OBJECTID":448142},"geometry":{"x":171279.17000000086,"y":2542638.0500000045}},{"attributes":{"ID":448168,"DIS_CODE":0,"TOWNNAME":"東區","LI":"自強里","LIN":"18鄰","STREET":"中華東路","SECT":"二段","MAREA":" ","LANE":"２０３巷","ALLEY":" ","HOUSE_NO":"５４號","E_COORD97":171278.76000000001,"N_COORD97":2542641.0899999999,"ADDRESS":"中華東路二段２０３巷５４號","OBJECTID":448143},"geometry":{"x":171278.75999999978,"y":2542641.0900000017}},{"attributes":{"ID":448169,"DIS_CODE":0,"TOWNNAME":"東區","LI":"自強里","LIN":"18鄰","STREET":"中華東路","SECT":"二段","MAREA":" ","LANE":"２０３巷","ALLEY":" ","HOUSE_NO":"５６號","E_COORD97":171280.19,"N_COORD97":2542651.8300000001,"ADDRESS":"中華東路二段２０３巷５６號","OBJECTID":448144},"geometry":{"x":171280.19000000041,"y":2542651.8300000001}},{"attributes":{"ID":448170,"DIS_CODE":0,"TOWNNAME":"東區","LI":"自強里","LIN":"18鄰","STREET":"中華東路","SECT":"二段","MAREA":" ","LANE":"２０３巷","ALLEY":" ","HOUSE_NO":"５８號","E_COORD97":171286.48000000001,"N_COORD97":2542652.6400000001,"ADDRESS":"中華東路二段２０３巷５８號","OBJECTID":448145},"geometry":{"x":171286.48000000045,"y":2542652.6400000006}},{"attributes":{"ID":448171,"DIS_CODE":0,"TOWNNAME":"東區","LI":"自強里","LIN":"18鄰","STREET":"中華東路","SECT":"二段","MAREA":" ","LANE":"２０３巷","ALLEY":" ","HOUSE_NO":"６０號","E_COORD97":171293.98999999999,"N_COORD97":2542653.8599999999,"ADDRESS":"中華東路二段２０３巷６０號","OBJECTID":448146},"geometry":{"x":171293.99000000115,"y":2542653.8599999994}},{"attributes":{"ID":448172,"DIS_CODE":0,"TOWNNAME":"東區","LI":"自強里","LIN":"18鄰","STREET":"中華東路","SECT":"二段","MAREA":" ","LANE":"２０３巷","ALLEY":" ","HOUSE_NO":"６２號","E_COORD97":171300.28,"N_COORD97":2542654.4700000002,"ADDRESS":"中華東路二段２０３巷６２號","OBJECTID":448147},"geometry":{"x":171300.28000000212,"y":2542654.4700000007}},{"attributes":{"ID":448173,"DIS_CODE":0,"TOWNNAME":"東區","LI":"自強里","LIN":"18鄰","STREET":"中華東路","SECT":"二段","MAREA":" ","LANE":"２０３巷","ALLEY":" ","HOUSE_NO":"６４號","E_COORD97":171301.70000000001,"N_COORD97":2542644.3300000001,"ADDRESS":"中華東路二段２０３巷６４號","OBJECTID":448148},"geometry":{"x":171301.70000000019,"y":2542644.3300000001}},{"attributes":{"ID":448174,"DIS_CODE":0,"TOWNNAME":"東區","LI":"自強里","LIN":"18鄰","STREET":"中華東路","SECT":"二段","MAREA":" ","LANE":"２０３巷","ALLEY":" ","HOUSE_NO":"６６號","E_COORD97":171302.51000000001,"N_COORD97":2542634.3999999999,"ADDRESS":"中華東路二段２０３巷６６號","OBJECTID":448149},"geometry":{"x":171302.50999999978,"y":2542634.4000000004}},{"attributes":{"ID":448175,"DIS_CODE":0,"TOWNNAME":"佳里區","LI":"建南里","LIN":"18鄰","STREET":"平等街","SECT":" ","MAREA":" ","LANE":"１６３巷","ALLEY":" ","HOUSE_NO":"１０號","E_COORD97":165727.16,"N_COORD97":2561837.3500000001,"ADDRESS":"平等街１６３巷１０號","OBJECTID":448150},"geometry":{"x":165727.16000000201,"y":2561837.3499999996}},{"attributes":{"ID":448176,"DIS_CODE":0,"TOWNNAME":"佳里區","LI":"建南里","LIN":"18鄰","STREET":"平等街","SECT":" ","MAREA":" ","LANE":"１６３巷","ALLEY":" ","HOUSE_NO":"１號","E_COORD97":165739.31,"N_COORD97":2561853.5499999998,"ADDRESS":"平等街１６３巷１號","OBJECTID":448151},"geometry":{"x":165739.31000000145,"y":2561853.5500000007}},{"attributes":{"ID":448177,"DIS_CODE":0,"TOWNNAME":"佳里區","LI":"建南里","LIN":"18鄰","STREET":"平等街","SECT":" ","MAREA":" ","LANE":"１６３巷","ALLEY":" ","HOUSE_NO":"６號","E_COORD97":165724.85999999999,"N_COORD97":2561845.1899999999,"ADDRESS":"平等街１６３巷６號","OBJECTID":448152},"geometry":{"x":165724.86000000127,"y":2561845.1899999995}},{"attributes":{"ID":448178,"DIS_CODE":0,"TOWNNAME":"佳里區","LI":"建南里","LIN":"18鄰","STREET":"平等街","SECT":" ","MAREA":" ","LANE":"１６３巷","ALLEY":" ","HOUSE_NO":"７號","E_COORD97":165741.98000000001,"N_COORD97":2561841.2599999998,"ADDRESS":"平等街１６３巷７號","OBJECTID":448153},"geometry":{"x":165741.98000000045,"y":2561841.2599999998}},{"attributes":{"ID":448179,"DIS_CODE":0,"TOWNNAME":"佳里區","LI":"建南里","LIN":"18鄰","STREET":"平等街","SECT":" ","MAREA":" ","LANE":"１６３巷","ALLEY":" ","HOUSE_NO":"８號","E_COORD97":165725.98000000001,"N_COORD97":2561841.4900000002,"ADDRESS":"平等街１６３巷８號","OBJECTID":448154},"geometry":{"x":165725.98000000138,"y":2561841.4900000021}},{"attributes":{"ID":448180,"DIS_CODE":0,"TOWNNAME":"佳里區","LI":"建南里","LIN":"18鄰","STREET":"平等街","SECT":" ","MAREA":" ","LANE":"１７３巷","ALLEY":" ","HOUSE_NO":"２號","E_COORD97":165689.51999999999,"N_COORD97":2561857.0499999998,"ADDRESS":"平等街１７３巷２號","OBJECTID":448155},"geometry":{"x":165689.51999999955,"y":2561857.0500000007}},{"attributes":{"ID":448181,"DIS_CODE":0,"TOWNNAME":"永康區","LI":"東灣里","LIN":"18鄰","STREET":"大灣三街","SECT":" ","MAREA":" ","LANE":"２１巷","ALLEY":" ","HOUSE_NO":"４２號","E_COORD97":175004.98999999999,"N_COORD97":2544828.1499999999,"ADDRESS":"大灣三街２１巷４２號","OBJECTID":448156},"geometry":{"x":175004.99000000115,"y":2544828.1500000022}},{"attributes":{"ID":448182,"DIS_CODE":0,"TOWNNAME":"永康區","LI":"東灣里","LIN":"18鄰","STREET":"大灣三街","SECT":" ","MAREA":" ","LANE":"２１巷","ALLEY":" ","HOUSE_NO":"４８號","E_COORD97":175012.85000000001,"N_COORD97":2544823.1499999999,"ADDRESS":"大灣三街２１巷４８號","OBJECTID":448157},"geometry":{"x":175012.84999999963,"y":2544823.1500000004}},{"attributes":{"ID":448183,"DIS_CODE":0,"TOWNNAME":"永康區","LI":"東灣里","LIN":"18鄰","STREET":"大灣三街","SECT":" ","MAREA":" ","LANE":"２１巷","ALLEY":" ","HOUSE_NO":"１９號","E_COORD97":175026.17000000001,"N_COORD97":2544838.5699999998,"ADDRESS":"大灣三街２１巷１９號","OBJECTID":448158},"geometry":{"x":175026.16999999993,"y":2544838.5700000022}},{"attributes":{"ID":448184,"DIS_CODE":0,"TOWNNAME":"永康區","LI":"東灣里","LIN":"18鄰","STREET":"大灣三街","SECT":" ","MAREA":" ","LANE":"２１巷","ALLEY":" ","HOUSE_NO":"３２號","E_COORD97":174982.78,"N_COORD97":2544820.6000000001,"ADDRESS":"大灣三街２１巷３２號","OBJECTID":448159},"geometry":{"x":174982.78000000119,"y":2544820.6000000015}},{"attributes":{"ID":448185,"DIS_CODE":0,"TOWNNAME":"永康區","LI":"東灣里","LIN":"18鄰","STREET":"大灣三街","SECT":" ","MAREA":" ","LANE":"２１巷","ALLEY":" ","HOUSE_NO":"１０號","E_COORD97":174989.76000000001,"N_COORD97":2544894.25,"ADDRESS":"大灣三街２１巷１０號","OBJECTID":448160},"geometry":{"x":174989.75999999978,"y":2544894.2500000019}},{"attributes":{"ID":448186,"DIS_CODE":0,"TOWNNAME":"永康區","LI":"東灣里","LIN":"18鄰","STREET":"大灣三街","SECT":" ","MAREA":" ","LANE":"２１巷","ALLEY":" ","HOUSE_NO":"１６號","E_COORD97":174994.19,"N_COORD97":2544881.6499999999,"ADDRESS":"大灣三街２１巷１６號","OBJECTID":448161},"geometry":{"x":174994.19000000041,"y":2544881.6500000041}},{"attributes":{"ID":448187,"DIS_CODE":0,"TOWNNAME":"永康區","LI":"東灣里","LIN":"18鄰","STREET":"大灣三街","SECT":" ","MAREA":" ","LANE":"２１巷","ALLEY":" ","HOUSE_NO":"１７號","E_COORD97":175020.04000000001,"N_COORD97":2544842.5699999998,"ADDRESS":"大灣三街２１巷１７號","OBJECTID":448162},"geometry":{"x":175020.04000000097,"y":2544842.5700000022}},{"attributes":{"ID":448188,"DIS_CODE":0,"TOWNNAME":"永康區","LI":"東灣里","LIN":"18鄰","STREET":"大灣三街","SECT":" ","MAREA":" ","LANE":"５７巷","ALLEY":" ","HOUSE_NO":"３６號","E_COORD97":174971.81,"N_COORD97":2544850.8799999999,"ADDRESS":"大灣三街５７巷３６號","OBJECTID":448163},"geometry":{"x":174971.81000000052,"y":2544850.879999999}},{"attributes":{"ID":448189,"DIS_CODE":0,"TOWNNAME":"永康區","LI":"永康里","LIN":"38鄰","STREET":"西勢路","SECT":" ","MAREA":" ","LANE":"７３３巷","ALLEY":" ","HOUSE_NO":"８號","E_COORD97":174411.32999999999,"N_COORD97":2546670.5699999998,"ADDRESS":"西勢路７３３巷８號","OBJECTID":448164},"geometry":{"x":174411.33000000007,"y":2546670.5700000003}},{"attributes":{"ID":448190,"DIS_CODE":0,"TOWNNAME":"永康區","LI":"東灣里","LIN":"18鄰","STREET":"大灣三街","SECT":" ","MAREA":" ","LANE":"５７巷","ALLEY":" ","HOUSE_NO":"１１號","E_COORD97":174963.01999999999,"N_COORD97":2544887,"ADDRESS":"大灣三街５７巷１１號","OBJECTID":448165},"geometry":{"x":174963.02000000142,"y":2544887.0000000019}},{"attributes":{"ID":448191,"DIS_CODE":0,"TOWNNAME":"佳里區","LI":"建南里","LIN":"18鄰","STREET":"平等街","SECT":" ","MAREA":" ","LANE":"１７３巷","ALLEY":" ","HOUSE_NO":"６號","E_COORD97":165690.42999999999,"N_COORD97":2561848.1299999999,"ADDRESS":"平等街１７３巷６號","OBJECTID":448166},"geometry":{"x":165690.4299999997,"y":2561848.129999999}},{"attributes":{"ID":448192,"DIS_CODE":0,"TOWNNAME":"佳里區","LI":"建南里","LIN":"18鄰","STREET":"平等街","SECT":" ","MAREA":" ","LANE":"１９７巷","ALLEY":" ","HOUSE_NO":"２號","E_COORD97":165641.44,"N_COORD97":2561855.6200000001,"ADDRESS":"平等街１９７巷２號","OBJECTID":448167},"geometry":{"x":165641.44000000134,"y":2561855.6200000029}},{"attributes":{"ID":448193,"DIS_CODE":0,"TOWNNAME":"永康區","LI":"安康里","LIN":"20鄰","STREET":"中華路","SECT":" ","MAREA":" ","LANE":"６６１巷","ALLEY":" ","HOUSE_NO":"１８號之１","E_COORD97":170893.92999999999,"N_COORD97":2546198.5499999998,"ADDRESS":"中華路６６１巷１８號之１","OBJECTID":448168},"geometry":{"x":170893.93000000063,"y":2546198.5500000026}},{"attributes":{"ID":448194,"DIS_CODE":0,"TOWNNAME":"永康區","LI":"正強里","LIN":"13鄰","STREET":"自強路","SECT":" ","MAREA":" ","LANE":"１８８巷","ALLEY":" ","HOUSE_NO":"１３號","E_COORD97":173212.98999999999,"N_COORD97":2547475,"ADDRESS":"自強路１８８巷１３號","OBJECTID":448169},"geometry":{"x":173212.99000000115,"y":2547475}},{"attributes":{"ID":448195,"DIS_CODE":0,"TOWNNAME":"安南區","LI":"安順里","LIN":"18鄰","STREET":"育安二街","SECT":" ","MAREA":" ","LANE":"１３５巷","ALLEY":" ","HOUSE_NO":"１１號","E_COORD97":169638.64000000001,"N_COORD97":2550013.1299999999,"ADDRESS":"育安二街１３５巷１１號","OBJECTID":448170},"geometry":{"x":169638.63999999966,"y":2550013.1300000027}},{"attributes":{"ID":448196,"DIS_CODE":0,"TOWNNAME":"安南區","LI":"安順里","LIN":"18鄰","STREET":"育安二街","SECT":" ","MAREA":" ","LANE":"１３５巷","ALLEY":" ","HOUSE_NO":"１３號","E_COORD97":169633.10000000001,"N_COORD97":2550012.9399999999,"ADDRESS":"育安二街１３５巷１３號","OBJECTID":448171},"geometry":{"x":169633.10000000056,"y":2550012.9400000013}},{"attributes":{"ID":448197,"DIS_CODE":0,"TOWNNAME":"下營區","LI":"新興里","LIN":"18鄰","STREET":"中華街","SECT":" ","MAREA":" ","LANE":"１３８巷","ALLEY":" ","HOUSE_NO":"１號","E_COORD97":175129.69,"N_COORD97":2570552.2200000002,"ADDRESS":"中華街１３８巷１號","OBJECTID":448172},"geometry":{"x":175129.69000000041,"y":2570552.2200000007}},{"attributes":{"ID":448198,"DIS_CODE":0,"TOWNNAME":"下營區","LI":"新興里","LIN":"18鄰","STREET":"中華街","SECT":" ","MAREA":" ","LANE":"１３８巷","ALLEY":" ","HOUSE_NO":"２號","E_COORD97":175124.76999999999,"N_COORD97":2570507.3999999999,"ADDRESS":"中華街１３８巷２號","OBJECTID":448173},"geometry":{"x":175124.77000000048,"y":2570507.3999999985}},{"attributes":{"ID":448199,"DIS_CODE":0,"TOWNNAME":"下營區","LI":"新興里","LIN":"18鄰","STREET":"中華街","SECT":" ","MAREA":" ","LANE":"８７巷","ALLEY":" ","HOUSE_NO":"１號","E_COORD97":175073.20000000001,"N_COORD97":2570541.4300000002,"ADDRESS":"中華街８７巷１號","OBJECTID":448174},"geometry":{"x":175073.20000000112,"y":2570541.4300000016}},{"attributes":{"ID":448200,"DIS_CODE":0,"TOWNNAME":"下營區","LI":"新興里","LIN":"18鄰","STREET":"中華街","SECT":" ","MAREA":" ","LANE":"８７巷","ALLEY":" ","HOUSE_NO":"２號","E_COORD97":175069.87,"N_COORD97":2570543.7799999998,"ADDRESS":"中華街８７巷２號","OBJECTID":448175},"geometry":{"x":175069.87000000104,"y":2570543.7799999993}},{"attributes":{"ID":448201,"DIS_CODE":0,"TOWNNAME":"下營區","LI":"新興里","LIN":"18鄰","STREET":"中華街","SECT":" ","MAREA":" ","LANE":"８７巷","ALLEY":" ","HOUSE_NO":"３號","E_COORD97":175066.41,"N_COORD97":2570546.46,"ADDRESS":"中華街８７巷３號","OBJECTID":448176},"geometry":{"x":175066.41000000108,"y":2570546.4600000028}},{"attributes":{"ID":448202,"DIS_CODE":0,"TOWNNAME":"下營區","LI":"新興里","LIN":"18鄰","STREET":"中華街","SECT":" ","MAREA":" ","LANE":"８７巷","ALLEY":" ","HOUSE_NO":"５號","E_COORD97":175063.34,"N_COORD97":2570549.2400000002,"ADDRESS":"中華街８７巷５號","OBJECTID":448177},"geometry":{"x":175063.34000000078,"y":2570549.2400000039}},{"attributes":{"ID":448203,"DIS_CODE":0,"TOWNNAME":"下營區","LI":"新興里","LIN":"18鄰","STREET":"中華街","SECT":" ","MAREA":" ","LANE":"８７巷","ALLEY":" ","HOUSE_NO":"６號","E_COORD97":175060.42999999999,"N_COORD97":2570551.29,"ADDRESS":"中華街８７巷６號","OBJECTID":448178},"geometry":{"x":175060.43000000156,"y":2570551.2900000028}},{"attributes":{"ID":448204,"DIS_CODE":0,"TOWNNAME":"永康區","LI":"西灣里","LIN":"42鄰","STREET":"大灣路","SECT":" ","MAREA":" ","LANE":"９４２巷","ALLEY":" ","HOUSE_NO":"４８１號","E_COORD97":173948.44,"N_COORD97":2545446.4900000002,"ADDRESS":"大灣路９４２巷４８１號","OBJECTID":448179},"geometry":{"x":173948.44000000041,"y":2545446.4900000021}},{"attributes":{"ID":448205,"DIS_CODE":0,"TOWNNAME":"永康區","LI":"甲頂里","LIN":"20鄰","STREET":"中正南路","SECT":" ","MAREA":" ","LANE":"５２巷","ALLEY":" ","HOUSE_NO":"５４號","E_COORD97":169866,"N_COORD97":2546774.3300000001,"ADDRESS":"中正南路５２巷５４號","OBJECTID":448180},"geometry":{"x":169865.99999999907,"y":2546774.3300000001}},{"attributes":{"ID":448206,"DIS_CODE":0,"TOWNNAME":"安南區","LI":"佃東里","LIN":"18鄰","STREET":"安吉路","SECT":"三段","MAREA":" ","LANE":"４５１巷","ALLEY":" ","HOUSE_NO":"２１號","E_COORD97":167259.14000000001,"N_COORD97":2553057.0800000001,"ADDRESS":"安吉路三段４５１巷２１號","OBJECTID":448181},"geometry":{"x":167259.13999999966,"y":2553057.0800000019}},{"attributes":{"ID":448207,"DIS_CODE":0,"TOWNNAME":"安南區","LI":"佃東里","LIN":"18鄰","STREET":"公學路","SECT":"四段","MAREA":" ","LANE":"２巷","ALLEY":" ","HOUSE_NO":"１１３號","E_COORD97":166067.54999999999,"N_COORD97":2552426.6899999999,"ADDRESS":"公學路四段２巷１１３號","OBJECTID":448182},"geometry":{"x":166067.54999999981,"y":2552426.6899999995}},{"attributes":{"ID":448208,"DIS_CODE":0,"TOWNNAME":"安南區","LI":"溪心里","LIN":"18鄰","STREET":"仁安六街","SECT":" ","MAREA":" ","LANE":"２５巷","ALLEY":" ","HOUSE_NO":"１號","E_COORD97":166140.29000000001,"N_COORD97":2549987.1699999999,"ADDRESS":"仁安六街２５巷１號","OBJECTID":448183},"geometry":{"x":166140.29000000097,"y":2549987.1700000018}},{"attributes":{"ID":448209,"DIS_CODE":0,"TOWNNAME":"安南區","LI":"溪心里","LIN":"18鄰","STREET":"仁安六街","SECT":" ","MAREA":" ","LANE":"２５巷","ALLEY":" ","HOUSE_NO":"３１號","E_COORD97":166078.57000000001,"N_COORD97":2550057.0899999999,"ADDRESS":"仁安六街２５巷３１號","OBJECTID":448184},"geometry":{"x":166078.5700000003,"y":2550057.0899999999}},{"attributes":{"ID":448210,"DIS_CODE":0,"TOWNNAME":"安南區","LI":"溪心里","LIN":"18鄰","STREET":"仁安六街","SECT":" ","MAREA":" ","LANE":"２５巷","ALLEY":" ","HOUSE_NO":"２９號","E_COORD97":166080.09,"N_COORD97":2550054.6099999999,"ADDRESS":"仁安六街２５巷２９號","OBJECTID":448185},"geometry":{"x":166080.09000000171,"y":2550054.6100000031}},{"attributes":{"ID":448211,"DIS_CODE":0,"TOWNNAME":"安南區","LI":"溪心里","LIN":"18鄰","STREET":"仁安六街","SECT":" ","MAREA":" ","LANE":"２５巷","ALLEY":" ","HOUSE_NO":"２７號","E_COORD97":166082.38,"N_COORD97":2550051.3700000001,"ADDRESS":"仁安六街２５巷２７號","OBJECTID":448186},"geometry":{"x":166082.37999999989,"y":2550051.3700000029}},{"attributes":{"ID":448212,"DIS_CODE":0,"TOWNNAME":"安南區","LI":"溪心里","LIN":"18鄰","STREET":"仁安六街","SECT":" ","MAREA":" ","LANE":"２５巷","ALLEY":" ","HOUSE_NO":"３號","E_COORD97":166135.72,"N_COORD97":2549992.7000000002,"ADDRESS":"仁安六街２５巷３號","OBJECTID":448187},"geometry":{"x":166135.72000000067,"y":2549992.700000003}},{"attributes":{"ID":448213,"DIS_CODE":0,"TOWNNAME":"安南區","LI":"溪心里","LIN":"18鄰","STREET":"仁安六街","SECT":" ","MAREA":" ","LANE":"２５巷","ALLEY":" ","HOUSE_NO":"５號","E_COORD97":166131.72,"N_COORD97":2549997.27,"ADDRESS":"仁安六街２５巷５號","OBJECTID":448188},"geometry":{"x":166131.72000000067,"y":2549997.2700000014}},{"attributes":{"ID":448214,"DIS_CODE":0,"TOWNNAME":"安南區","LI":"溪心里","LIN":"18鄰","STREET":"仁安六街","SECT":" ","MAREA":" ","LANE":"２５巷","ALLEY":" ","HOUSE_NO":"７號","E_COORD97":166127.53,"N_COORD97":2550002.4100000001,"ADDRESS":"仁安六街２５巷７號","OBJECTID":448189},"geometry":{"x":166127.53000000026,"y":2550002.4100000039}},{"attributes":{"ID":448215,"DIS_CODE":0,"TOWNNAME":"安南區","LI":"溪心里","LIN":"18鄰","STREET":"仁安六街","SECT":" ","MAREA":" ","LANE":"２５巷","ALLEY":" ","HOUSE_NO":"９號","E_COORD97":166122.76999999999,"N_COORD97":2550006.6000000001,"ADDRESS":"仁安六街２５巷９號","OBJECTID":448190},"geometry":{"x":166122.77000000048,"y":2550006.5999999996}},{"attributes":{"ID":448216,"DIS_CODE":0,"TOWNNAME":"安南區","LI":"溪心里","LIN":"18鄰","STREET":"仁安六街","SECT":" ","MAREA":" ","LANE":"２５巷","ALLEY":" ","HOUSE_NO":"１５號","E_COORD97":166108.29000000001,"N_COORD97":2550023.3700000001,"ADDRESS":"仁安六街２５巷１５號","OBJECTID":448191},"geometry":{"x":166108.29000000097,"y":2550023.370000001}},{"attributes":{"ID":448217,"DIS_CODE":0,"TOWNNAME":"安南區","LI":"溪心里","LIN":"18鄰","STREET":"仁安六街","SECT":" ","MAREA":" ","LANE":"２５巷","ALLEY":" ","HOUSE_NO":"１３號","E_COORD97":166113.04999999999,"N_COORD97":2550017.0800000001,"ADDRESS":"仁安六街２５巷１３號","OBJECTID":448192},"geometry":{"x":166113.05000000075,"y":2550017.0800000001}},{"attributes":{"ID":448218,"DIS_CODE":0,"TOWNNAME":"安南區","LI":"溪心里","LIN":"18鄰","STREET":"仁安六街","SECT":" ","MAREA":" ","LANE":"２５巷","ALLEY":" ","HOUSE_NO":"１１號","E_COORD97":166118.19,"N_COORD97":2550011.75,"ADDRESS":"仁安六街２５巷１１號","OBJECTID":448193},"geometry":{"x":166118.19000000041,"y":2550011.75}},{"attributes":{"ID":448219,"DIS_CODE":0,"TOWNNAME":"安南區","LI":"溪心里","LIN":"18鄰","STREET":"仁安六街","SECT":" ","MAREA":" ","LANE":"２５巷","ALLEY":" ","HOUSE_NO":"１７號","E_COORD97":166102.95000000001,"N_COORD97":2550029.27,"ADDRESS":"仁安六街２５巷１７號","OBJECTID":448194},"geometry":{"x":166102.95000000019,"y":2550029.2699999996}},{"attributes":{"ID":448220,"DIS_CODE":0,"TOWNNAME":"安南區","LI":"溪心里","LIN":"18鄰","STREET":"仁安六街","SECT":" ","MAREA":" ","LANE":"２５巷","ALLEY":" ","HOUSE_NO":"１９號","E_COORD97":166099.14000000001,"N_COORD97":2550033.8500000001,"ADDRESS":"仁安六街２５巷１９號","OBJECTID":448195},"geometry":{"x":166099.13999999966,"y":2550033.8500000015}},{"attributes":{"ID":448221,"DIS_CODE":0,"TOWNNAME":"安南區","LI":"溪心里","LIN":"18鄰","STREET":"仁安六街","SECT":" ","MAREA":" ","LANE":"２５巷","ALLEY":" ","HOUSE_NO":"２１號","E_COORD97":166095.51999999999,"N_COORD97":2550038.9900000002,"ADDRESS":"仁安六街２５巷２１號","OBJECTID":448196},"geometry":{"x":166095.52000000142,"y":2550038.9900000039}},{"attributes":{"ID":448222,"DIS_CODE":0,"TOWNNAME":"安南區","LI":"溪心里","LIN":"18鄰","STREET":"仁安六街","SECT":" ","MAREA":" ","LANE":"２５巷","ALLEY":" ","HOUSE_NO":"２３號","E_COORD97":166091.32999999999,"N_COORD97":2550044.1299999999,"ADDRESS":"仁安六街２５巷２３號","OBJECTID":448197},"geometry":{"x":166091.33000000007,"y":2550044.1300000008}},{"attributes":{"ID":448223,"DIS_CODE":0,"TOWNNAME":"安南區","LI":"溪心里","LIN":"18鄰","STREET":"仁安六街","SECT":" ","MAREA":" ","LANE":"２５巷","ALLEY":" ","HOUSE_NO":"２５號","E_COORD97":166087.14000000001,"N_COORD97":2550047.9399999999,"ADDRESS":"仁安六街２５巷２５號","OBJECTID":448198},"geometry":{"x":166087.13999999966,"y":2550047.9399999995}},{"attributes":{"ID":448224,"DIS_CODE":0,"TOWNNAME":"東區","LI":"成大里","LIN":"18鄰","STREET":"前鋒路","SECT":" ","MAREA":" ","LANE":"１５４巷","ALLEY":" ","HOUSE_NO":"１０號","E_COORD97":169376.92999999999,"N_COORD97":2543972.5699999998,"ADDRESS":"前鋒路１５４巷１０號","OBJECTID":448199},"geometry":{"x":169376.93000000063,"y":2543972.5700000003}},{"attributes":{"ID":448225,"DIS_CODE":0,"TOWNNAME":"東區","LI":"成大里","LIN":"18鄰","STREET":"前鋒路","SECT":" ","MAREA":" ","LANE":"１５４巷","ALLEY":" ","HOUSE_NO":"１１號","E_COORD97":169391.57999999999,"N_COORD97":2544016.2799999998,"ADDRESS":"前鋒路１５４巷１１號","OBJECTID":448200},"geometry":{"x":169391.58000000101,"y":2544016.2800000012}}]}