{"displayFieldName":"TOWNNAME","fieldAliases":{"ID":"ID","DIS_CODE":"DIS_CODE","TOWNNAME":"TOWNNAME","LI":"LI","LIN":"LIN","STREET":"STREET","SECT":"SECT","MAREA":"MAREA","LANE":"LANE","ALLEY":"ALLEY","HOUSE_NO":"HOUSE_NO","E_COORD97":"E_COORD97","N_COORD97":"N_COORD97","ADDRESS":"ADDRESS","OBJECTID":"OBJECTID"},"geometryType":"esriGeometryPoint","spatialReference":{"wkid":102443,"latestWkid":3826},"fields":[{"name":"ID","type":"esriFieldTypeDouble","alias":"ID"},{"name":"DIS_CODE","type":"esriFieldTypeInteger","alias":"DIS_CODE"},{"name":"TOWNNAME","type":"esriFieldTypeString","alias":"TOWNNAME","length":8},{"name":"LI","type":"esriFieldTypeString","alias":"LI","length":8},{"name":"LIN","type":"esriFieldTypeString","alias":"LIN","length":12},{"name":"STREET","type":"esriFieldTypeString","alias":"STREET","length":20},{"name":"SECT","type":"esriFieldTypeString","alias":"SECT","length":8},{"name":"MAREA","type":"esriFieldTypeString","alias":"MAREA","length":12},{"name":"LANE","type":"esriFieldTypeString","alias":"LANE","length":10},{"name":"ALLEY","type":"esriFieldTypeString","alias":"ALLEY","length":10},{"name":"HOUSE_NO","type":"esriFieldTypeString","alias":"HOUSE_NO","length":20},{"name":"E_COORD97","type":"esriFieldTypeDouble","alias":"E_COORD97"},{"name":"N_COORD97","type":"esriFieldTypeDouble","alias":"N_COORD97"},{"name":"ADDRESS","type":"esriFieldTypeString","alias":"ADDRESS","length":50},{"name":"OBJECTID","type":"esriFieldTypeOID","alias":"OBJECTID"}],"features":[{"attributes":{"ID":475026,"DIS_CODE":0,"TOWNNAME":"南區","LI":"彰南里","LIN":"18鄰","STREET":"新和橫路","SECT":" ","MAREA":" ","LANE":" ","ALLEY":" ","HOUSE_NO":"２號","E_COORD97":165955.53,"N_COORD97":2540768.7200000002,"ADDRESS":"新和橫路２號","OBJECTID":475001},"geometry":{"x":165955.53000000119,"y":2540768.7200000044}},{"attributes":{"ID":475027,"DIS_CODE":0,"TOWNNAME":"南區","LI":"郡南里","LIN":"18鄰","STREET":"德興路","SECT":" ","MAREA":" ","LANE":" ","ALLEY":" ","HOUSE_NO":"１８５號","E_COORD97":167220.26999999999,"N_COORD97":2540339.1400000001,"ADDRESS":"德興路１８５號","OBJECTID":475002},"geometry":{"x":167220.26999999955,"y":2540339.1400000025}},{"attributes":{"ID":475028,"DIS_CODE":0,"TOWNNAME":"南區","LI":"彰南里","LIN":"18鄰","STREET":"新和橫路","SECT":" ","MAREA":" ","LANE":" ","ALLEY":" ","HOUSE_NO":"４號","E_COORD97":165930.13,"N_COORD97":2540775.23,"ADDRESS":"新和橫路４號","OBJECTID":475003},"geometry":{"x":165930.12999999989,"y":2540775.2300000042}},{"attributes":{"ID":475029,"DIS_CODE":0,"TOWNNAME":"南區","LI":"彰南里","LIN":"18鄰","STREET":"新和橫路","SECT":" ","MAREA":" ","LANE":" ","ALLEY":" ","HOUSE_NO":"５號","E_COORD97":165909.29000000001,"N_COORD97":2540702.3399999999,"ADDRESS":"新和橫路５號","OBJECTID":475004},"geometry":{"x":165909.2900000019,"y":2540702.339999998}},{"attributes":{"ID":475030,"DIS_CODE":0,"TOWNNAME":"南區","LI":"彰南里","LIN":"18鄰","STREET":"新和橫路","SECT":" ","MAREA":" ","LANE":" ","ALLEY":" ","HOUSE_NO":"６號","E_COORD97":165913.85000000001,"N_COORD97":2540773.2799999998,"ADDRESS":"新和橫路６號","OBJECTID":475005},"geometry":{"x":165913.85000000056,"y":2540773.2799999993}},{"attributes":{"ID":475031,"DIS_CODE":0,"TOWNNAME":"南區","LI":"彰南里","LIN":"18鄰","STREET":"新平路","SECT":" ","MAREA":" ","LANE":" ","ALLEY":" ","HOUSE_NO":"１０號","E_COORD97":166003.07999999999,"N_COORD97":2540620.3500000001,"ADDRESS":"新平路１０號","OBJECTID":475006},"geometry":{"x":166003.08000000101,"y":2540620.3499999996}},{"attributes":{"ID":475032,"DIS_CODE":0,"TOWNNAME":"南區","LI":"彰南里","LIN":"18鄰","STREET":"新平路","SECT":" ","MAREA":" ","LANE":" ","ALLEY":" ","HOUSE_NO":"１２號","E_COORD97":165980.28,"N_COORD97":2540620.3500000001,"ADDRESS":"新平路１２號","OBJECTID":475007},"geometry":{"x":165980.28000000026,"y":2540620.3499999996}},{"attributes":{"ID":475033,"DIS_CODE":0,"TOWNNAME":"南區","LI":"彰南里","LIN":"18鄰","STREET":"新平路","SECT":" ","MAREA":" ","LANE":" ","ALLEY":" ","HOUSE_NO":"１４號","E_COORD97":165954.88,"N_COORD97":2540660.7000000002,"ADDRESS":"新平路１４號","OBJECTID":475008},"geometry":{"x":165954.88000000082,"y":2540660.6999999993}},{"attributes":{"ID":475034,"DIS_CODE":0,"TOWNNAME":"南區","LI":"彰南里","LIN":"18鄰","STREET":"新平路","SECT":" ","MAREA":" ","LANE":" ","ALLEY":" ","HOUSE_NO":"１６號","E_COORD97":165922.95999999999,"N_COORD97":2540646.3799999999,"ADDRESS":"新平路１６號","OBJECTID":475009},"geometry":{"x":165922.95999999996,"y":2540646.379999999}},{"attributes":{"ID":475035,"DIS_CODE":0,"TOWNNAME":"南區","LI":"彰南里","LIN":"18鄰","STREET":"新平路","SECT":" ","MAREA":" ","LANE":" ","ALLEY":" ","HOUSE_NO":"１８號","E_COORD97":165889.92999999999,"N_COORD97":2540649.6299999999,"ADDRESS":"新平路１８號","OBJECTID":475010},"geometry":{"x":165889.93000000063,"y":2540649.6300000008}},{"attributes":{"ID":475036,"DIS_CODE":0,"TOWNNAME":"南區","LI":"彰南里","LIN":"18鄰","STREET":"新平路","SECT":" ","MAREA":" ","LANE":" ","ALLEY":" ","HOUSE_NO":"２０號","E_COORD97":165861.26999999999,"N_COORD97":2540646.3799999999,"ADDRESS":"新平路２０號","OBJECTID":475011},"geometry":{"x":165861.26999999955,"y":2540646.379999999}},{"attributes":{"ID":475037,"DIS_CODE":0,"TOWNNAME":"南區","LI":"彰南里","LIN":"18鄰","STREET":"新平路","SECT":" ","MAREA":" ","LANE":" ","ALLEY":" ","HOUSE_NO":"２２號","E_COORD97":165830.01000000001,"N_COORD97":2540641.8199999998,"ADDRESS":"新平路２２號","OBJECTID":475012},"geometry":{"x":165830.01000000071,"y":2540641.8200000003}},{"attributes":{"ID":475038,"DIS_CODE":0,"TOWNNAME":"南區","LI":"彰南里","LIN":"18鄰","STREET":"新平路","SECT":" ","MAREA":" ","LANE":" ","ALLEY":" ","HOUSE_NO":"２４號","E_COORD97":165800.70000000001,"N_COORD97":2540655.48,"ADDRESS":"新平路２４號","OBJECTID":475013},"geometry":{"x":165800.70000000112,"y":2540655.4800000023}},{"attributes":{"ID":475039,"DIS_CODE":0,"TOWNNAME":"南區","LI":"彰南里","LIN":"18鄰","STREET":"新平路","SECT":" ","MAREA":" ","LANE":" ","ALLEY":" ","HOUSE_NO":"２６號","E_COORD97":165764.22,"N_COORD97":2540624.25,"ADDRESS":"新平路２６號","OBJECTID":475014},"geometry":{"x":165764.22000000067,"y":2540624.25}},{"attributes":{"ID":475040,"DIS_CODE":0,"TOWNNAME":"南區","LI":"彰南里","LIN":"18鄰","STREET":"新平路","SECT":" ","MAREA":" ","LANE":" ","ALLEY":" ","HOUSE_NO":"２８號","E_COORD97":165736.87,"N_COORD97":2540626.21,"ADDRESS":"新平路２８號","OBJECTID":475015},"geometry":{"x":165736.87000000011,"y":2540626.2100000009}},{"attributes":{"ID":475041,"DIS_CODE":0,"TOWNNAME":"南區","LI":"彰南里","LIN":"18鄰","STREET":"新和路","SECT":" ","MAREA":" ","LANE":" ","ALLEY":" ","HOUSE_NO":"１１號","E_COORD97":165979.84,"N_COORD97":2540869.6200000001,"ADDRESS":"新和路１１號","OBJECTID":475016},"geometry":{"x":165979.83999999892,"y":2540869.6200000029}},{"attributes":{"ID":475042,"DIS_CODE":0,"TOWNNAME":"南區","LI":"彰南里","LIN":"18鄰","STREET":"新和路","SECT":" ","MAREA":" ","LANE":" ","ALLEY":" ","HOUSE_NO":"１５號","E_COORD97":165915.82999999999,"N_COORD97":2540868.2000000002,"ADDRESS":"新和路１５號","OBJECTID":475017},"geometry":{"x":165915.83000000194,"y":2540868.1999999993}},{"attributes":{"ID":475043,"DIS_CODE":0,"TOWNNAME":"南區","LI":"彰南里","LIN":"18鄰","STREET":"新和路","SECT":" ","MAREA":" ","LANE":" ","ALLEY":" ","HOUSE_NO":"１９號","E_COORD97":165886.51000000001,"N_COORD97":2540857.7799999998,"ADDRESS":"新和路１９號","OBJECTID":475018},"geometry":{"x":165886.50999999978,"y":2540857.7799999993}},{"attributes":{"ID":475044,"DIS_CODE":0,"TOWNNAME":"南區","LI":"彰南里","LIN":"18鄰","STREET":"新和路","SECT":" ","MAREA":" ","LANE":" ","ALLEY":" ","HOUSE_NO":"１號","E_COORD97":166165.42999999999,"N_COORD97":2540877.79,"ADDRESS":"新和路１號","OBJECTID":475019},"geometry":{"x":166165.4299999997,"y":2540877.7899999991}},{"attributes":{"ID":475045,"DIS_CODE":0,"TOWNNAME":"南區","LI":"彰南里","LIN":"18鄰","STREET":"新和路","SECT":" ","MAREA":" ","LANE":" ","ALLEY":" ","HOUSE_NO":"２１號","E_COORD97":165847.62,"N_COORD97":2540853.9900000002,"ADDRESS":"新和路２１號","OBJECTID":475020},"geometry":{"x":165847.62000000011,"y":2540853.9900000002}},{"attributes":{"ID":475046,"DIS_CODE":0,"TOWNNAME":"南區","LI":"彰南里","LIN":"18鄰","STREET":"新和路","SECT":" ","MAREA":" ","LANE":" ","ALLEY":" ","HOUSE_NO":"２３號","E_COORD97":165829.60999999999,"N_COORD97":2540853.52,"ADDRESS":"新和路２３號","OBJECTID":475021},"geometry":{"x":165829.6100000022,"y":2540853.5200000033}},{"attributes":{"ID":475047,"DIS_CODE":0,"TOWNNAME":"南區","LI":"彰南里","LIN":"18鄰","STREET":"新和路","SECT":" ","MAREA":" ","LANE":" ","ALLEY":" ","HOUSE_NO":"２５號","E_COORD97":165792.62,"N_COORD97":2540858.2599999998,"ADDRESS":"新和路２５號","OBJECTID":475022},"geometry":{"x":165792.62000000104,"y":2540858.2599999998}},{"attributes":{"ID":475048,"DIS_CODE":0,"TOWNNAME":"南區","LI":"彰南里","LIN":"18鄰","STREET":"新和路","SECT":" ","MAREA":" ","LANE":" ","ALLEY":" ","HOUSE_NO":"２７號","E_COORD97":165774.13,"N_COORD97":2540870.5699999998,"ADDRESS":"新和路２７號","OBJECTID":475023},"geometry":{"x":165774.12999999989,"y":2540870.5700000003}},{"attributes":{"ID":475049,"DIS_CODE":0,"TOWNNAME":"南區","LI":"彰南里","LIN":"18鄰","STREET":"新和路","SECT":" ","MAREA":" ","LANE":" ","ALLEY":" ","HOUSE_NO":"３號","E_COORD97":166130.63,"N_COORD97":2540878.4199999999,"ADDRESS":"新和路３號","OBJECTID":475024},"geometry":{"x":166130.63000000175,"y":2540878.4200000037}},{"attributes":{"ID":475050,"DIS_CODE":0,"TOWNNAME":"南區","LI":"彰南里","LIN":"18鄰","STREET":"新和路","SECT":" ","MAREA":" ","LANE":" ","ALLEY":" ","HOUSE_NO":"５號","E_COORD97":166081.57999999999,"N_COORD97":2540878.9500000002,"ADDRESS":"新和路５號","OBJECTID":475025},"geometry":{"x":166081.58000000007,"y":2540878.9500000011}},{"attributes":{"ID":475051,"DIS_CODE":0,"TOWNNAME":"南區","LI":"彰南里","LIN":"18鄰","STREET":"新和路","SECT":" ","MAREA":" ","LANE":" ","ALLEY":" ","HOUSE_NO":"９號","E_COORD97":166001.66,"N_COORD97":2540874.3599999999,"ADDRESS":"新和路９號","OBJECTID":475026},"geometry":{"x":166001.66000000015,"y":2540874.3599999994}},{"attributes":{"ID":475052,"DIS_CODE":0,"TOWNNAME":"南區","LI":"彰南里","LIN":"18鄰","STREET":"新和橫路","SECT":" ","MAREA":" ","LANE":" ","ALLEY":" ","HOUSE_NO":"１０號","E_COORD97":165867.14000000001,"N_COORD97":2540783.04,"ADDRESS":"新和橫路１０號","OBJECTID":475027},"geometry":{"x":165867.13999999966,"y":2540783.040000001}},{"attributes":{"ID":475053,"DIS_CODE":0,"TOWNNAME":"南區","LI":"彰南里","LIN":"18鄰","STREET":"新和橫路","SECT":" ","MAREA":" ","LANE":" ","ALLEY":" ","HOUSE_NO":"１１號","E_COORD97":165843.04000000001,"N_COORD97":2540712.7599999998,"ADDRESS":"新和橫路１１號","OBJECTID":475028},"geometry":{"x":165843.04000000004,"y":2540712.7599999998}},{"attributes":{"ID":475054,"DIS_CODE":0,"TOWNNAME":"南區","LI":"彰南里","LIN":"18鄰","STREET":"新和橫路","SECT":" ","MAREA":" ","LANE":" ","ALLEY":" ","HOUSE_NO":"１２號","E_COORD97":165843.04000000001,"N_COORD97":2540779.1299999999,"ADDRESS":"新和橫路１２號","OBJECTID":475029},"geometry":{"x":165843.04000000004,"y":2540779.1300000008}},{"attributes":{"ID":475055,"DIS_CODE":0,"TOWNNAME":"南區","LI":"彰南里","LIN":"18鄰","STREET":"新和橫路","SECT":" ","MAREA":" ","LANE":" ","ALLEY":" ","HOUSE_NO":"１３號","E_COORD97":165828.06,"N_COORD97":2540719.9100000001,"ADDRESS":"新和橫路１３號","OBJECTID":475030},"geometry":{"x":165828.06000000052,"y":2540719.910000002}},{"attributes":{"ID":475056,"DIS_CODE":0,"TOWNNAME":"南區","LI":"彰南里","LIN":"18鄰","STREET":"新和橫路","SECT":" ","MAREA":" ","LANE":" ","ALLEY":" ","HOUSE_NO":"１４號","E_COORD97":165825.45000000001,"N_COORD97":2540784.9900000002,"ADDRESS":"新和橫路１４號","OBJECTID":475031},"geometry":{"x":165825.45000000205,"y":2540784.9900000021}},{"attributes":{"ID":475057,"DIS_CODE":0,"TOWNNAME":"南區","LI":"彰南里","LIN":"18鄰","STREET":"新和橫路","SECT":" ","MAREA":" ","LANE":" ","ALLEY":" ","HOUSE_NO":"１６號","E_COORD97":165802,"N_COORD97":2540781.0899999999,"ADDRESS":"新和橫路１６號","OBJECTID":475032},"geometry":{"x":165802,"y":2540781.0899999999}},{"attributes":{"ID":475058,"DIS_CODE":0,"TOWNNAME":"南區","LI":"彰南里","LIN":"18鄰","STREET":"新和橫路","SECT":" ","MAREA":" ","LANE":" ","ALLEY":" ","HOUSE_NO":"１７號","E_COORD97":165783.10999999999,"N_COORD97":2540725.1200000001,"ADDRESS":"新和橫路１７號","OBJECTID":475033},"geometry":{"x":165783.11000000034,"y":2540725.120000001}},{"attributes":{"ID":475059,"DIS_CODE":0,"TOWNNAME":"南區","LI":"彰南里","LIN":"18鄰","STREET":"新和橫路","SECT":" ","MAREA":" ","LANE":" ","ALLEY":" ","HOUSE_NO":"１８號","E_COORD97":165785.72,"N_COORD97":2540779.1299999999,"ADDRESS":"新和橫路１８號","OBJECTID":475034},"geometry":{"x":165785.7200000016,"y":2540779.1300000008}},{"attributes":{"ID":475060,"DIS_CODE":0,"TOWNNAME":"南區","LI":"彰南里","LIN":"18鄰","STREET":"新和橫路","SECT":" ","MAREA":" ","LANE":" ","ALLEY":" ","HOUSE_NO":"１９號","E_COORD97":165761.62,"N_COORD97":2540703.6499999999,"ADDRESS":"新和橫路１９號","OBJECTID":475035},"geometry":{"x":165761.62000000104,"y":2540703.6500000004}},{"attributes":{"ID":475061,"DIS_CODE":0,"TOWNNAME":"南區","LI":"彰南里","LIN":"18鄰","STREET":"新和橫路","SECT":" ","MAREA":" ","LANE":" ","ALLEY":" ","HOUSE_NO":"２０號","E_COORD97":165759.01000000001,"N_COORD97":2540786.29,"ADDRESS":"新和橫路２０號","OBJECTID":475036},"geometry":{"x":165759.01000000071,"y":2540786.2899999991}},{"attributes":{"ID":475062,"DIS_CODE":0,"TOWNNAME":"南區","LI":"彰南里","LIN":"18鄰","STREET":"新和橫路","SECT":" ","MAREA":" ","LANE":" ","ALLEY":" ","HOUSE_NO":"６號之１","E_COORD97":165886.03,"N_COORD97":2540777.8300000001,"ADDRESS":"新和橫路６號之１","OBJECTID":475037},"geometry":{"x":165886.03000000119,"y":2540777.8300000019}},{"attributes":{"ID":475063,"DIS_CODE":0,"TOWNNAME":"南區","LI":"彰南里","LIN":"18鄰","STREET":"新和橫路","SECT":" ","MAREA":" ","LANE":" ","ALLEY":" ","HOUSE_NO":"７號","E_COORD97":165886.03,"N_COORD97":2540712.1099999999,"ADDRESS":"新和橫路７號","OBJECTID":475038},"geometry":{"x":165886.03000000119,"y":2540712.1100000013}},{"attributes":{"ID":475064,"DIS_CODE":0,"TOWNNAME":"南區","LI":"彰南里","LIN":"18鄰","STREET":"新和橫路","SECT":" ","MAREA":" ","LANE":" ","ALLEY":" ","HOUSE_NO":"９號","E_COORD97":165867.79000000001,"N_COORD97":2540699.0899999999,"ADDRESS":"新和橫路９號","OBJECTID":475039},"geometry":{"x":165867.79000000004,"y":2540699.0900000017}},{"attributes":{"ID":475065,"DIS_CODE":0,"TOWNNAME":"南區","LI":"文南里","LIN":"18鄰","STREET":"永南一街","SECT":" ","MAREA":" ","LANE":" ","ALLEY":" ","HOUSE_NO":"６７號","E_COORD97":166676.98000000001,"N_COORD97":2542574.98,"ADDRESS":"永南一街６７號","OBJECTID":475040},"geometry":{"x":166676.98000000138,"y":2542574.9800000023}},{"attributes":{"ID":475066,"DIS_CODE":0,"TOWNNAME":"南區","LI":"文南里","LIN":"18鄰","STREET":"永南一街","SECT":" ","MAREA":" ","LANE":" ","ALLEY":" ","HOUSE_NO":"６９號","E_COORD97":166672.07000000001,"N_COORD97":2542575.5099999998,"ADDRESS":"永南一街６９號","OBJECTID":475041},"geometry":{"x":166672.0700000003,"y":2542575.5099999998}},{"attributes":{"ID":475067,"DIS_CODE":0,"TOWNNAME":"南區","LI":"郡南里","LIN":"18鄰","STREET":"德興路","SECT":" ","MAREA":" ","LANE":" ","ALLEY":" ","HOUSE_NO":"１５１號","E_COORD97":167216.82999999999,"N_COORD97":2540420.5099999998,"ADDRESS":"德興路１５１號","OBJECTID":475042},"geometry":{"x":167216.83000000101,"y":2540420.5100000016}},{"attributes":{"ID":475068,"DIS_CODE":0,"TOWNNAME":"南區","LI":"廣州里","LIN":"18鄰","STREET":"福吉四街","SECT":" ","MAREA":" ","LANE":" ","ALLEY":" ","HOUSE_NO":"６號","E_COORD97":167315.07999999999,"N_COORD97":2542613.6699999999,"ADDRESS":"福吉四街６號","OBJECTID":475043},"geometry":{"x":167315.08000000101,"y":2542613.6700000018}},{"attributes":{"ID":475069,"DIS_CODE":0,"TOWNNAME":"南區","LI":"廣州里","LIN":"18鄰","STREET":"福吉四街","SECT":" ","MAREA":" ","LANE":" ","ALLEY":" ","HOUSE_NO":"８號","E_COORD97":167313.39000000001,"N_COORD97":2542617.4700000002,"ADDRESS":"福吉四街８號","OBJECTID":475044},"geometry":{"x":167313.38999999966,"y":2542617.4700000007}},{"attributes":{"ID":475070,"DIS_CODE":0,"TOWNNAME":"南區","LI":"佛壇里","LIN":"18鄰","STREET":"灣裡路","SECT":" ","MAREA":" ","LANE":" ","ALLEY":" ","HOUSE_NO":"６９８號","E_COORD97":166131.57000000001,"N_COORD97":2535602.29,"ADDRESS":"灣裡路６９８號","OBJECTID":475045},"geometry":{"x":166131.57000000216,"y":2535602.2899999991}},{"attributes":{"ID":475071,"DIS_CODE":0,"TOWNNAME":"南區","LI":"佛壇里","LIN":"18鄰","STREET":"灣裡路","SECT":" ","MAREA":" ","LANE":" ","ALLEY":" ","HOUSE_NO":"７０２號","E_COORD97":166139.42999999999,"N_COORD97":2535607.7799999998,"ADDRESS":"灣裡路７０２號","OBJECTID":475046},"geometry":{"x":166139.4299999997,"y":2535607.7800000012}},{"attributes":{"ID":475072,"DIS_CODE":0,"TOWNNAME":"南區","LI":"佛壇里","LIN":"18鄰","STREET":"灣裡路","SECT":" ","MAREA":" ","LANE":" ","ALLEY":" ","HOUSE_NO":"６５４號","E_COORD97":166159.06,"N_COORD97":2535558.77,"ADDRESS":"灣裡路６５４號","OBJECTID":475047},"geometry":{"x":166159.05999999959,"y":2535558.7699999996}},{"attributes":{"ID":475073,"DIS_CODE":0,"TOWNNAME":"南區","LI":"佛壇里","LIN":"18鄰","STREET":"灣裡路","SECT":" ","MAREA":" ","LANE":" ","ALLEY":" ","HOUSE_NO":"６５６號","E_COORD97":166157.10000000001,"N_COORD97":2535554.8500000001,"ADDRESS":"灣裡路６５６號","OBJECTID":475048},"geometry":{"x":166157.09999999963,"y":2535554.8499999996}},{"attributes":{"ID":475074,"DIS_CODE":0,"TOWNNAME":"南區","LI":"佛壇里","LIN":"18鄰","STREET":"灣裡路","SECT":" ","MAREA":" ","LANE":" ","ALLEY":" ","HOUSE_NO":"６５８號","E_COORD97":166151.20999999999,"N_COORD97":2535556.4199999999,"ADDRESS":"灣裡路６５８號","OBJECTID":475049},"geometry":{"x":166151.21000000089,"y":2535556.4200000018}},{"attributes":{"ID":475075,"DIS_CODE":0,"TOWNNAME":"南區","LI":"佛壇里","LIN":"18鄰","STREET":"灣裡路","SECT":" ","MAREA":" ","LANE":" ","ALLEY":" ","HOUSE_NO":"６６０號","E_COORD97":166149.23999999999,"N_COORD97":2535550.1400000001,"ADDRESS":"灣裡路６６０號","OBJECTID":475050},"geometry":{"x":166149.24000000115,"y":2535550.1400000006}},{"attributes":{"ID":475076,"DIS_CODE":0,"TOWNNAME":"南區","LI":"佛壇里","LIN":"18鄰","STREET":"灣裡路","SECT":" ","MAREA":" ","LANE":" ","ALLEY":" ","HOUSE_NO":"６６２號","E_COORD97":166143.75,"N_COORD97":2535550.5299999998,"ADDRESS":"灣裡路６６２號","OBJECTID":475051},"geometry":{"x":166143.75000000093,"y":2535550.5299999975}},{"attributes":{"ID":475077,"DIS_CODE":0,"TOWNNAME":"南區","LI":"佛壇里","LIN":"18鄰","STREET":"灣裡路","SECT":" ","MAREA":" ","LANE":" ","ALLEY":" ","HOUSE_NO":"６６４號","E_COORD97":166141.39000000001,"N_COORD97":2535545.4399999999,"ADDRESS":"灣裡路６６４號","OBJECTID":475052},"geometry":{"x":166141.38999999966,"y":2535545.4400000013}},{"attributes":{"ID":475078,"DIS_CODE":0,"TOWNNAME":"南區","LI":"佛壇里","LIN":"18鄰","STREET":"灣裡路","SECT":" ","MAREA":" ","LANE":" ","ALLEY":" ","HOUSE_NO":"６６６號","E_COORD97":166135.10999999999,"N_COORD97":2535547.3999999999,"ADDRESS":"灣裡路６６６號","OBJECTID":475053},"geometry":{"x":166135.11000000127,"y":2535547.4000000022}},{"attributes":{"ID":475079,"DIS_CODE":0,"TOWNNAME":"南區","LI":"佛壇里","LIN":"18鄰","STREET":"灣裡路","SECT":" ","MAREA":" ","LANE":" ","ALLEY":" ","HOUSE_NO":"６６８號","E_COORD97":166132.35999999999,"N_COORD97":2535544.2599999998,"ADDRESS":"灣裡路６６８號","OBJECTID":475054},"geometry":{"x":166132.36000000034,"y":2535544.2600000016}},{"attributes":{"ID":475080,"DIS_CODE":0,"TOWNNAME":"南區","LI":"佛壇里","LIN":"18鄰","STREET":"灣裡路","SECT":" ","MAREA":" ","LANE":" ","ALLEY":" ","HOUSE_NO":"６７０號","E_COORD97":166129.60999999999,"N_COORD97":2535539.9500000002,"ADDRESS":"灣裡路６７０號","OBJECTID":475055},"geometry":{"x":166129.6100000022,"y":2535539.9499999993}},{"attributes":{"ID":475081,"DIS_CODE":0,"TOWNNAME":"南區","LI":"佛壇里","LIN":"18鄰","STREET":"灣裡路","SECT":" ","MAREA":" ","LANE":" ","ALLEY":" ","HOUSE_NO":"６７２號","E_COORD97":166123.72,"N_COORD97":2535553.6699999999,"ADDRESS":"灣裡路６７２號","OBJECTID":475056},"geometry":{"x":166123.72000000067,"y":2535553.6699999981}},{"attributes":{"ID":475082,"DIS_CODE":0,"TOWNNAME":"南區","LI":"佛壇里","LIN":"18鄰","STREET":"灣裡路","SECT":" ","MAREA":" ","LANE":" ","ALLEY":" ","HOUSE_NO":"６７４號","E_COORD97":166121.76000000001,"N_COORD97":2535556.4199999999,"ADDRESS":"灣裡路６７４號","OBJECTID":475057},"geometry":{"x":166121.76000000071,"y":2535556.4200000018}},{"attributes":{"ID":475083,"DIS_CODE":0,"TOWNNAME":"南區","LI":"佛壇里","LIN":"18鄰","STREET":"灣裡路","SECT":" ","MAREA":" ","LANE":" ","ALLEY":" ","HOUSE_NO":"６７６號","E_COORD97":166118.22,"N_COORD97":2535560.3399999999,"ADDRESS":"灣裡路６７６號","OBJECTID":475058},"geometry":{"x":166118.22000000067,"y":2535560.3400000017}},{"attributes":{"ID":475084,"DIS_CODE":0,"TOWNNAME":"南區","LI":"佛壇里","LIN":"18鄰","STREET":"灣裡路","SECT":" ","MAREA":" ","LANE":" ","ALLEY":" ","HOUSE_NO":"６７８號","E_COORD97":166117.04000000001,"N_COORD97":2535564.2599999998,"ADDRESS":"灣裡路６７８號","OBJECTID":475059},"geometry":{"x":166117.04000000004,"y":2535564.2600000016}},{"attributes":{"ID":475085,"DIS_CODE":0,"TOWNNAME":"南區","LI":"佛壇里","LIN":"18鄰","STREET":"灣裡路","SECT":" ","MAREA":" ","LANE":" ","ALLEY":" ","HOUSE_NO":"６８０號","E_COORD97":166115.87,"N_COORD97":2535568.1800000002,"ADDRESS":"灣裡路６８０號","OBJECTID":475060},"geometry":{"x":166115.87000000104,"y":2535568.1800000016}},{"attributes":{"ID":475086,"DIS_CODE":0,"TOWNNAME":"南區","LI":"佛壇里","LIN":"18鄰","STREET":"灣裡路","SECT":" ","MAREA":" ","LANE":" ","ALLEY":" ","HOUSE_NO":"６８２號","E_COORD97":166113.51000000001,"N_COORD97":2535571.3199999998,"ADDRESS":"灣裡路６８２號","OBJECTID":475061},"geometry":{"x":166113.50999999978,"y":2535571.3200000022}},{"attributes":{"ID":475087,"DIS_CODE":0,"TOWNNAME":"南區","LI":"佛壇里","LIN":"18鄰","STREET":"灣裡路","SECT":" ","MAREA":" ","LANE":" ","ALLEY":" ","HOUSE_NO":"６８４號","E_COORD97":166103.29999999999,"N_COORD97":2535585.8300000001,"ADDRESS":"灣裡路６８４號","OBJECTID":475062},"geometry":{"x":166103.29999999981,"y":2535585.8300000001}},{"attributes":{"ID":475088,"DIS_CODE":0,"TOWNNAME":"南區","LI":"佛壇里","LIN":"18鄰","STREET":"灣裡路","SECT":" ","MAREA":" ","LANE":" ","ALLEY":" ","HOUSE_NO":"６８６號","E_COORD97":166105.66,"N_COORD97":2535589.3500000001,"ADDRESS":"灣裡路６８６號","OBJECTID":475063},"geometry":{"x":166105.66000000108,"y":2535589.3499999978}},{"attributes":{"ID":475089,"DIS_CODE":0,"TOWNNAME":"南區","LI":"佛壇里","LIN":"18鄰","STREET":"灣裡路","SECT":" ","MAREA":" ","LANE":" ","ALLEY":" ","HOUSE_NO":"６８８號","E_COORD97":166111.94,"N_COORD97":2535587.3900000001,"ADDRESS":"灣裡路６８８號","OBJECTID":475064},"geometry":{"x":166111.94000000041,"y":2535587.3900000025}},{"attributes":{"ID":475090,"DIS_CODE":0,"TOWNNAME":"南區","LI":"佛壇里","LIN":"18鄰","STREET":"灣裡路","SECT":" ","MAREA":" ","LANE":" ","ALLEY":" ","HOUSE_NO":"６９０號","E_COORD97":166114.69,"N_COORD97":2535591.3199999998,"ADDRESS":"灣裡路６９０號","OBJECTID":475065},"geometry":{"x":166114.69000000041,"y":2535591.3200000022}},{"attributes":{"ID":475091,"DIS_CODE":0,"TOWNNAME":"南區","LI":"佛壇里","LIN":"18鄰","STREET":"灣裡路","SECT":" ","MAREA":" ","LANE":" ","ALLEY":" ","HOUSE_NO":"６９２號","E_COORD97":166118.22,"N_COORD97":2535595.2400000002,"ADDRESS":"灣裡路６９２號","OBJECTID":475066},"geometry":{"x":166118.22000000067,"y":2535595.2400000021}},{"attributes":{"ID":475092,"DIS_CODE":0,"TOWNNAME":"南區","LI":"佛壇里","LIN":"18鄰","STREET":"灣裡路","SECT":" ","MAREA":" ","LANE":" ","ALLEY":" ","HOUSE_NO":"６９４號","E_COORD97":166122.14999999999,"N_COORD97":2535598.77,"ADDRESS":"灣裡路６９４號","OBJECTID":475067},"geometry":{"x":166122.15000000037,"y":2535598.7699999996}},{"attributes":{"ID":475093,"DIS_CODE":0,"TOWNNAME":"南區","LI":"佛壇里","LIN":"18鄰","STREET":"灣裡路","SECT":" ","MAREA":" ","LANE":" ","ALLEY":" ","HOUSE_NO":"６９６號","E_COORD97":166128.82000000001,"N_COORD97":2535597.2000000002,"ADDRESS":"灣裡路６９６號","OBJECTID":475068},"geometry":{"x":166128.82000000123,"y":2535597.200000003}},{"attributes":{"ID":475094,"DIS_CODE":0,"TOWNNAME":"南區","LI":"佛壇里","LIN":"18鄰","STREET":"灣裡路","SECT":" ","MAREA":" ","LANE":" ","ALLEY":" ","HOUSE_NO":"７００號","E_COORD97":166134.32000000001,"N_COORD97":2535604.2599999998,"ADDRESS":"灣裡路７００號","OBJECTID":475069},"geometry":{"x":166134.3200000003,"y":2535604.2600000016}},{"attributes":{"ID":475095,"DIS_CODE":0,"TOWNNAME":"南區","LI":"佛壇里","LIN":"18鄰","STREET":"灣裡路","SECT":" ","MAREA":" ","LANE":" ","ALLEY":" ","HOUSE_NO":"７０４號","E_COORD97":166144.92000000001,"N_COORD97":2535605.8199999998,"ADDRESS":"灣裡路７０４號","OBJECTID":475070},"geometry":{"x":166144.91999999993,"y":2535605.8200000003}},{"attributes":{"ID":475096,"DIS_CODE":0,"TOWNNAME":"南區","LI":"佛壇里","LIN":"18鄰","STREET":"灣裡路","SECT":" ","MAREA":" ","LANE":" ","ALLEY":" ","HOUSE_NO":"７０６號","E_COORD97":166146.89000000001,"N_COORD97":2535610.9199999999,"ADDRESS":"灣裡路７０６號","OBJECTID":475071},"geometry":{"x":166146.88999999966,"y":2535610.9200000018}},{"attributes":{"ID":475097,"DIS_CODE":0,"TOWNNAME":"南區","LI":"佛壇里","LIN":"18鄰","STREET":"灣裡路","SECT":" ","MAREA":" ","LANE":" ","ALLEY":" ","HOUSE_NO":"７０８號","E_COORD97":166148.06,"N_COORD97":2535589.3500000001,"ADDRESS":"灣裡路７０８號","OBJECTID":475072},"geometry":{"x":166148.06000000052,"y":2535589.3499999978}},{"attributes":{"ID":475098,"DIS_CODE":0,"TOWNNAME":"南區","LI":"佛壇里","LIN":"18鄰","STREET":"灣裡路","SECT":" ","MAREA":" ","LANE":" ","ALLEY":" ","HOUSE_NO":"７１０號","E_COORD97":166148.85000000001,"N_COORD97":2535585.4300000002,"ADDRESS":"灣裡路７１０號","OBJECTID":475073},"geometry":{"x":166148.84999999963,"y":2535585.4299999997}},{"attributes":{"ID":475099,"DIS_CODE":0,"TOWNNAME":"南區","LI":"佛壇里","LIN":"18鄰","STREET":"灣裡路","SECT":" ","MAREA":" ","LANE":" ","ALLEY":" ","HOUSE_NO":"７１２號","E_COORD97":166152.38,"N_COORD97":2535583.0800000001,"ADDRESS":"灣裡路７１２號","OBJECTID":475074},"geometry":{"x":166152.37999999989,"y":2535583.0800000019}},{"attributes":{"ID":475100,"DIS_CODE":0,"TOWNNAME":"南區","LI":"佛壇里","LIN":"18鄰","STREET":"灣裡路","SECT":" ","MAREA":" ","LANE":" ","ALLEY":" ","HOUSE_NO":"７１４號","E_COORD97":166153.17000000001,"N_COORD97":2535578.77,"ADDRESS":"灣裡路７１４號","OBJECTID":475075},"geometry":{"x":166153.17000000086,"y":2535578.7699999996}},{"attributes":{"ID":475101,"DIS_CODE":0,"TOWNNAME":"南區","LI":"佛壇里","LIN":"18鄰","STREET":"灣裡路","SECT":" ","MAREA":" ","LANE":" ","ALLEY":" ","HOUSE_NO":"７１６號","E_COORD97":166156.31,"N_COORD97":2535575.6299999999,"ADDRESS":"灣裡路７１６號","OBJECTID":475076},"geometry":{"x":166156.31000000145,"y":2535575.629999999}},{"attributes":{"ID":475102,"DIS_CODE":0,"TOWNNAME":"南區","LI":"佛壇里","LIN":"18鄰","STREET":"灣裡路","SECT":" ","MAREA":" ","LANE":" ","ALLEY":" ","HOUSE_NO":"７１８號","E_COORD97":166157.88,"N_COORD97":2535571.3199999998,"ADDRESS":"灣裡路７１８號","OBJECTID":475077},"geometry":{"x":166157.88000000082,"y":2535571.3200000022}},{"attributes":{"ID":475103,"DIS_CODE":0,"TOWNNAME":"歸仁區","LI":"南保里","LIN":"18鄰","STREET":"文化街","SECT":"三段","MAREA":" ","LANE":" ","ALLEY":" ","HOUSE_NO":"１９８號","E_COORD97":176526.92000000001,"N_COORD97":2541192.2599999998,"ADDRESS":"文化街三段１９８號","OBJECTID":475078},"geometry":{"x":176526.92000000179,"y":2541192.2600000016}},{"attributes":{"ID":475104,"DIS_CODE":0,"TOWNNAME":"歸仁區","LI":"後市里","LIN":"18鄰","STREET":"中山路","SECT":"二段","MAREA":" ","LANE":" ","ALLEY":" ","HOUSE_NO":"２２號","E_COORD97":177537.12,"N_COORD97":2540799.25,"ADDRESS":"中山路二段２２號","OBJECTID":475079},"geometry":{"x":177537.12000000011,"y":2540799.2500000019}},{"attributes":{"ID":475105,"DIS_CODE":0,"TOWNNAME":"歸仁區","LI":"南保里","LIN":"18鄰","STREET":"文化十街","SECT":" ","MAREA":" ","LANE":" ","ALLEY":" ","HOUSE_NO":"７號","E_COORD97":176536.29000000001,"N_COORD97":2541225.3300000001,"ADDRESS":"文化十街７號","OBJECTID":475080},"geometry":{"x":176536.29000000004,"y":2541225.3300000019}},{"attributes":{"ID":475106,"DIS_CODE":0,"TOWNNAME":"歸仁區","LI":"文化里","LIN":"18鄰","STREET":"文化北二街","SECT":" ","MAREA":" ","LANE":" ","ALLEY":" ","HOUSE_NO":"３１號","E_COORD97":177162.31,"N_COORD97":2541462.3399999999,"ADDRESS":"文化北二街３１號","OBJECTID":475081},"geometry":{"x":177162.30999999959,"y":2541462.3400000017}},{"attributes":{"ID":475107,"DIS_CODE":0,"TOWNNAME":"歸仁區","LI":"文化里","LIN":"18鄰","STREET":"文化北二街","SECT":" ","MAREA":" ","LANE":" ","ALLEY":" ","HOUSE_NO":"５３號","E_COORD97":177117.20999999999,"N_COORD97":2541461.3399999999,"ADDRESS":"文化北二街５３號","OBJECTID":475082},"geometry":{"x":177117.21000000089,"y":2541461.3399999999}},{"attributes":{"ID":475108,"DIS_CODE":0,"TOWNNAME":"歸仁區","LI":"南興里","LIN":"18鄰","STREET":"南興街","SECT":" ","MAREA":" ","LANE":" ","ALLEY":" ","HOUSE_NO":"２１７號","E_COORD97":175673.89000000001,"N_COORD97":2541386.25,"ADDRESS":"南興街２１７號","OBJECTID":475083},"geometry":{"x":175673.88999999966,"y":2541386.2500000019}},{"attributes":{"ID":475109,"DIS_CODE":0,"TOWNNAME":"歸仁區","LI":"南興里","LIN":"18鄰","STREET":"南興街","SECT":" ","MAREA":" ","LANE":" ","ALLEY":" ","HOUSE_NO":"１２２之１號","E_COORD97":175695.98999999999,"N_COORD97":2541408.2999999998,"ADDRESS":"南興街１２２之１號","OBJECTID":475084},"geometry":{"x":175695.99000000022,"y":2541408.3000000007}},{"attributes":{"ID":475110,"DIS_CODE":0,"TOWNNAME":"歸仁區","LI":"文化里","LIN":"18鄰","STREET":"文化北二街","SECT":" ","MAREA":" ","LANE":" ","ALLEY":" ","HOUSE_NO":"９號","E_COORD97":177206.16,"N_COORD97":2541458.3399999999,"ADDRESS":"文化北二街９號","OBJECTID":475085},"geometry":{"x":177206.16000000108,"y":2541458.3399999999}},{"attributes":{"ID":475111,"DIS_CODE":0,"TOWNNAME":"歸仁區","LI":"文化里","LIN":"18鄰","STREET":"文化北二街","SECT":" ","MAREA":" ","LANE":" ","ALLEY":" ","HOUSE_NO":"２７號","E_COORD97":177170.51000000001,"N_COORD97":2541461.3399999999,"ADDRESS":"文化北二街２７號","OBJECTID":475086},"geometry":{"x":177170.51000000164,"y":2541461.3399999999}},{"attributes":{"ID":475112,"DIS_CODE":0,"TOWNNAME":"南區","LI":"田寮里","LIN":"18鄰","STREET":"西門路","SECT":"一段","MAREA":" ","LANE":" ","ALLEY":" ","HOUSE_NO":"２０１號","E_COORD97":167713.72,"N_COORD97":2541751.6299999999,"ADDRESS":"西門路一段２０１號","OBJECTID":475087},"geometry":{"x":167713.72000000067,"y":2541751.6300000008}},{"attributes":{"ID":475113,"DIS_CODE":0,"TOWNNAME":"南區","LI":"田寮里","LIN":"18鄰","STREET":"西門路","SECT":"一段","MAREA":" ","LANE":" ","ALLEY":" ","HOUSE_NO":"２０３號","E_COORD97":167713.72,"N_COORD97":2541756.0499999998,"ADDRESS":"西門路一段２０３號","OBJECTID":475088},"geometry":{"x":167713.72000000067,"y":2541756.0500000007}},{"attributes":{"ID":475114,"DIS_CODE":0,"TOWNNAME":"南區","LI":"田寮里","LIN":"18鄰","STREET":"西門路","SECT":"一段","MAREA":" ","LANE":" ","ALLEY":" ","HOUSE_NO":"２０５號","E_COORD97":167713.72,"N_COORD97":2541760.48,"ADDRESS":"西門路一段２０５號","OBJECTID":475089},"geometry":{"x":167713.72000000067,"y":2541760.4800000023}},{"attributes":{"ID":475115,"DIS_CODE":0,"TOWNNAME":"南區","LI":"田寮里","LIN":"18鄰","STREET":"西門路","SECT":"一段","MAREA":" ","LANE":" ","ALLEY":" ","HOUSE_NO":"２０７號","E_COORD97":167713.91,"N_COORD97":2541765.2799999998,"ADDRESS":"西門路一段２０７號","OBJECTID":475090},"geometry":{"x":167713.90999999922,"y":2541765.2800000012}},{"attributes":{"ID":475116,"DIS_CODE":0,"TOWNNAME":"南區","LI":"田寮里","LIN":"18鄰","STREET":"西門路","SECT":"一段","MAREA":" ","LANE":" ","ALLEY":" ","HOUSE_NO":"２０９號","E_COORD97":167714.09,"N_COORD97":2541769.1499999999,"ADDRESS":"西門路一段２０９號","OBJECTID":475091},"geometry":{"x":167714.09000000171,"y":2541769.1500000041}},{"attributes":{"ID":475117,"DIS_CODE":0,"TOWNNAME":"南區","LI":"田寮里","LIN":"18鄰","STREET":"西門路","SECT":"一段","MAREA":" ","LANE":" ","ALLEY":" ","HOUSE_NO":"２１１號","E_COORD97":167713.72,"N_COORD97":2541773.02,"ADDRESS":"西門路一段２１１號","OBJECTID":475092},"geometry":{"x":167713.72000000067,"y":2541773.0200000014}},{"attributes":{"ID":475118,"DIS_CODE":0,"TOWNNAME":"南區","LI":"田寮里","LIN":"18鄰","STREET":"西門路","SECT":"一段","MAREA":" ","LANE":" ","ALLEY":" ","HOUSE_NO":"２１３號","E_COORD97":167713.54000000001,"N_COORD97":2541777.8199999998,"ADDRESS":"西門路一段２１３號","OBJECTID":475093},"geometry":{"x":167713.54000000097,"y":2541777.8199999984}},{"attributes":{"ID":475119,"DIS_CODE":0,"TOWNNAME":"南區","LI":"田寮里","LIN":"18鄰","STREET":"西門路","SECT":"一段","MAREA":" ","LANE":" ","ALLEY":" ","HOUSE_NO":"２１５號","E_COORD97":167713.72,"N_COORD97":2541781.5099999998,"ADDRESS":"西門路一段２１５號","OBJECTID":475094},"geometry":{"x":167713.72000000067,"y":2541781.5099999998}},{"attributes":{"ID":475120,"DIS_CODE":0,"TOWNNAME":"南區","LI":"田寮里","LIN":"18鄰","STREET":"西門路","SECT":"一段","MAREA":" ","LANE":" ","ALLEY":" ","HOUSE_NO":"２１７號","E_COORD97":167713.35000000001,"N_COORD97":2541785.9399999999,"ADDRESS":"西門路一段２１７號","OBJECTID":475095},"geometry":{"x":167713.34999999963,"y":2541785.9399999995}},{"attributes":{"ID":475121,"DIS_CODE":0,"TOWNNAME":"南區","LI":"田寮里","LIN":"18鄰","STREET":"西門路","SECT":"一段","MAREA":" ","LANE":" ","ALLEY":" ","HOUSE_NO":"２１９號","E_COORD97":167713.17000000001,"N_COORD97":2541790.1800000002,"ADDRESS":"西門路一段２１９號","OBJECTID":475096},"geometry":{"x":167713.16999999993,"y":2541790.1799999997}},{"attributes":{"ID":475122,"DIS_CODE":0,"TOWNNAME":"南區","LI":"田寮里","LIN":"18鄰","STREET":"西門路","SECT":"一段","MAREA":" ","LANE":" ","ALLEY":" ","HOUSE_NO":"２２１號","E_COORD97":167712.98000000001,"N_COORD97":2541794.7799999998,"ADDRESS":"西門路一段２２１號","OBJECTID":475097},"geometry":{"x":167712.98000000138,"y":2541794.7800000012}},{"attributes":{"ID":475123,"DIS_CODE":0,"TOWNNAME":"南區","LI":"田寮里","LIN":"18鄰","STREET":"西門路","SECT":"一段","MAREA":" ","LANE":" ","ALLEY":" ","HOUSE_NO":"２２９號","E_COORD97":167714.67999999999,"N_COORD97":2541816.1800000002,"ADDRESS":"西門路一段２２９號","OBJECTID":475098},"geometry":{"x":167714.6799999997,"y":2541816.1800000016}},{"attributes":{"ID":475124,"DIS_CODE":0,"TOWNNAME":"南區","LI":"田寮里","LIN":"18鄰","STREET":"西門路","SECT":"一段","MAREA":" ","LANE":" ","ALLEY":" ","HOUSE_NO":"２３１號","E_COORD97":167714.51999999999,"N_COORD97":2541820.1099999999,"ADDRESS":"西門路一段２３１號","OBJECTID":475099},"geometry":{"x":167714.52000000048,"y":2541820.1100000013}},{"attributes":{"ID":475125,"DIS_CODE":0,"TOWNNAME":"南區","LI":"田寮里","LIN":"18鄰","STREET":"西門路","SECT":"一段","MAREA":" ","LANE":" ","ALLEY":" ","HOUSE_NO":"２３３號","E_COORD97":167715.01000000001,"N_COORD97":2541825.02,"ADDRESS":"西門路一段２３３號","OBJECTID":475100},"geometry":{"x":167715.01000000071,"y":2541825.0199999996}},{"attributes":{"ID":475126,"DIS_CODE":0,"TOWNNAME":"南區","LI":"田寮里","LIN":"18鄰","STREET":"西門路","SECT":"一段","MAREA":" ","LANE":" ","ALLEY":" ","HOUSE_NO":"２３５號","E_COORD97":167715.17000000001,"N_COORD97":2541828.4700000002,"ADDRESS":"西門路一段２３５號","OBJECTID":475101},"geometry":{"x":167715.16999999993,"y":2541828.4700000025}},{"attributes":{"ID":475127,"DIS_CODE":0,"TOWNNAME":"南區","LI":"田寮里","LIN":"18鄰","STREET":"西門路","SECT":"一段","MAREA":" ","LANE":" ","ALLEY":" ","HOUSE_NO":"２３７號","E_COORD97":167714.85000000001,"N_COORD97":2541832.8900000001,"ADDRESS":"西門路一段２３７號","OBJECTID":475102},"geometry":{"x":167714.84999999963,"y":2541832.8900000025}},{"attributes":{"ID":475128,"DIS_CODE":0,"TOWNNAME":"南區","LI":"田寮里","LIN":"18鄰","STREET":"西門路","SECT":"一段","MAREA":" ","LANE":" ","ALLEY":" ","HOUSE_NO":"２３９號","E_COORD97":167715.01000000001,"N_COORD97":2541837.7999999998,"ADDRESS":"西門路一段２３９號","OBJECTID":475103},"geometry":{"x":167715.01000000071,"y":2541837.8000000026}},{"attributes":{"ID":475129,"DIS_CODE":0,"TOWNNAME":"南區","LI":"田寮里","LIN":"18鄰","STREET":"西門路","SECT":"一段","MAREA":" ","LANE":" ","ALLEY":" ","HOUSE_NO":"２４１號","E_COORD97":167715.01000000001,"N_COORD97":2541842.5600000001,"ADDRESS":"西門路一段２４１號","OBJECTID":475104},"geometry":{"x":167715.01000000071,"y":2541842.5600000024}},{"attributes":{"ID":475130,"DIS_CODE":0,"TOWNNAME":"南區","LI":"田寮里","LIN":"18鄰","STREET":"西門路","SECT":"一段","MAREA":" ","LANE":" ","ALLEY":" ","HOUSE_NO":"２４３號","E_COORD97":167715.5,"N_COORD97":2541845.6699999999,"ADDRESS":"西門路一段２４３號","OBJECTID":475105},"geometry":{"x":167715.50000000093,"y":2541845.6699999999}},{"attributes":{"ID":475131,"DIS_CODE":0,"TOWNNAME":"南區","LI":"田寮里","LIN":"18鄰","STREET":"西門路","SECT":"一段","MAREA":" ","LANE":" ","ALLEY":" ","HOUSE_NO":"２４５號","E_COORD97":167714.85000000001,"N_COORD97":2541849.9700000002,"ADDRESS":"西門路一段２４５號","OBJECTID":475106},"geometry":{"x":167714.84999999963,"y":2541849.9700000025}},{"attributes":{"ID":475132,"DIS_CODE":0,"TOWNNAME":"南區","LI":"田寮里","LIN":"18鄰","STREET":"西門路","SECT":"一段","MAREA":" ","LANE":" ","ALLEY":" ","HOUSE_NO":"２４７號","E_COORD97":167714.51999999999,"N_COORD97":2541854.7200000002,"ADDRESS":"西門路一段２４７號","OBJECTID":475107},"geometry":{"x":167714.52000000048,"y":2541854.7200000025}},{"attributes":{"ID":475133,"DIS_CODE":0,"TOWNNAME":"南區","LI":"田寮里","LIN":"18鄰","STREET":"西門路","SECT":"一段","MAREA":" ","LANE":" ","ALLEY":" ","HOUSE_NO":"２４９號","E_COORD97":167714.76999999999,"N_COORD97":2541858.8199999998,"ADDRESS":"西門路一段２４９號","OBJECTID":475108},"geometry":{"x":167714.77000000048,"y":2541858.8200000003}},{"attributes":{"ID":475134,"DIS_CODE":0,"TOWNNAME":"南區","LI":"田寮里","LIN":"18鄰","STREET":"西門路","SECT":"一段","MAREA":" ","LANE":" ","ALLEY":" ","HOUSE_NO":"２５１號","E_COORD97":167714.26000000001,"N_COORD97":2541863.2999999998,"ADDRESS":"西門路一段２５１號","OBJECTID":475109},"geometry":{"x":167714.25999999978,"y":2541863.3000000045}},{"attributes":{"ID":475135,"DIS_CODE":0,"TOWNNAME":"南區","LI":"田寮里","LIN":"18鄰","STREET":"西門路","SECT":"一段","MAREA":" ","LANE":" ","ALLEY":" ","HOUSE_NO":"２５３號","E_COORD97":167714.13,"N_COORD97":2541867.7799999998,"ADDRESS":"西門路一段２５３號","OBJECTID":475110},"geometry":{"x":167714.13000000082,"y":2541867.7799999993}},{"attributes":{"ID":475136,"DIS_CODE":0,"TOWNNAME":"南區","LI":"田寮里","LIN":"18鄰","STREET":"西門路","SECT":"一段","MAREA":" ","LANE":" ","ALLEY":" ","HOUSE_NO":"２５５號","E_COORD97":167714.51999999999,"N_COORD97":2541871.8700000001,"ADDRESS":"西門路一段２５５號","OBJECTID":475111},"geometry":{"x":167714.52000000048,"y":2541871.870000001}},{"attributes":{"ID":475137,"DIS_CODE":0,"TOWNNAME":"南區","LI":"田寮里","LIN":"18鄰","STREET":"西門路","SECT":"一段","MAREA":" ","LANE":" ","ALLEY":" ","HOUSE_NO":"２５７號","E_COORD97":167714.39000000001,"N_COORD97":2541876.48,"ADDRESS":"西門路一段２５７號","OBJECTID":475112},"geometry":{"x":167714.3900000006,"y":2541876.4800000023}},{"attributes":{"ID":475138,"DIS_CODE":0,"TOWNNAME":"南區","LI":"田寮里","LIN":"18鄰","STREET":"西門路","SECT":"一段","MAREA":" ","LANE":" ","ALLEY":" ","HOUSE_NO":"２５９號","E_COORD97":167714.39000000001,"N_COORD97":2541880.4500000002,"ADDRESS":"西門路一段２５９號","OBJECTID":475113},"geometry":{"x":167714.3900000006,"y":2541880.4499999993}},{"attributes":{"ID":475139,"DIS_CODE":0,"TOWNNAME":"南區","LI":"田寮里","LIN":"18鄰","STREET":"西門路","SECT":"一段","MAREA":" ","LANE":" ","ALLEY":" ","HOUSE_NO":"２６１號","E_COORD97":167714.01000000001,"N_COORD97":2541884.77,"ADDRESS":"西門路一段２６１號","OBJECTID":475114},"geometry":{"x":167714.00999999978,"y":2541884.7699999996}},{"attributes":{"ID":475140,"DIS_CODE":0,"TOWNNAME":"南區","LI":"田寮里","LIN":"18鄰","STREET":"西門路","SECT":"一段","MAREA":" ","LANE":" ","ALLEY":" ","HOUSE_NO":"２６３號","E_COORD97":167714.13,"N_COORD97":2541889,"ADDRESS":"西門路一段２６３號","OBJECTID":475115},"geometry":{"x":167714.13000000082,"y":2541889.0000000019}},{"attributes":{"ID":475141,"DIS_CODE":0,"TOWNNAME":"南區","LI":"田寮里","LIN":"18鄰","STREET":"西門路","SECT":"一段","MAREA":" ","LANE":" ","ALLEY":" ","HOUSE_NO":"２６５號","E_COORD97":167714.01000000001,"N_COORD97":2541893.3500000001,"ADDRESS":"西門路一段２６５號","OBJECTID":475116},"geometry":{"x":167714.00999999978,"y":2541893.3500000015}},{"attributes":{"ID":475142,"DIS_CODE":0,"TOWNNAME":"南區","LI":"田寮里","LIN":"18鄰","STREET":"西門路","SECT":"一段","MAREA":" ","LANE":" ","ALLEY":" ","HOUSE_NO":"２６７號","E_COORD97":167714.13,"N_COORD97":2541897.96,"ADDRESS":"西門路一段２６７號","OBJECTID":475117},"geometry":{"x":167714.13000000082,"y":2541897.9600000028}},{"attributes":{"ID":475143,"DIS_CODE":0,"TOWNNAME":"南區","LI":"田寮里","LIN":"18鄰","STREET":"西門路","SECT":"一段","MAREA":" ","LANE":" ","ALLEY":" ","HOUSE_NO":"２６９號","E_COORD97":167714.01000000001,"N_COORD97":2541901.7999999998,"ADDRESS":"西門路一段２６９號","OBJECTID":475118},"geometry":{"x":167714.00999999978,"y":2541901.8000000026}},{"attributes":{"ID":475144,"DIS_CODE":0,"TOWNNAME":"南區","LI":"田寮里","LIN":"18鄰","STREET":"西門路","SECT":"一段","MAREA":" ","LANE":" ","ALLEY":" ","HOUSE_NO":"２７１號","E_COORD97":167714.01000000001,"N_COORD97":2541906.6600000001,"ADDRESS":"西門路一段２７１號","OBJECTID":475119},"geometry":{"x":167714.00999999978,"y":2541906.6600000001}},{"attributes":{"ID":475145,"DIS_CODE":0,"TOWNNAME":"南區","LI":"田寮里","LIN":"18鄰","STREET":"西門路","SECT":"一段","MAREA":" ","LANE":" ","ALLEY":" ","HOUSE_NO":"２７３號","E_COORD97":167713.75,"N_COORD97":2541910.25,"ADDRESS":"西門路一段２７３號","OBJECTID":475120},"geometry":{"x":167713.75000000093,"y":2541910.2500000037}},{"attributes":{"ID":475146,"DIS_CODE":0,"TOWNNAME":"南區","LI":"田寮里","LIN":"18鄰","STREET":"西門路","SECT":"一段","MAREA":" ","LANE":" ","ALLEY":" ","HOUSE_NO":"２７５號","E_COORD97":167713.88,"N_COORD97":2541914.98,"ADDRESS":"西門路一段２７５號","OBJECTID":475121},"geometry":{"x":167713.88000000175,"y":2541914.9800000004}},{"attributes":{"ID":475147,"DIS_CODE":0,"TOWNNAME":"南區","LI":"田寮里","LIN":"18鄰","STREET":"西門路","SECT":"一段","MAREA":" ","LANE":" ","ALLEY":" ","HOUSE_NO":"２７７號","E_COORD97":167713.88,"N_COORD97":2541920.4900000002,"ADDRESS":"西門路一段２７７號","OBJECTID":475122},"geometry":{"x":167713.88000000175,"y":2541920.4900000021}},{"attributes":{"ID":475148,"DIS_CODE":0,"TOWNNAME":"玉井區","LI":"玉田里","LIN":"18鄰","STREET":"中華路","SECT":" ","MAREA":" ","LANE":" ","ALLEY":" ","HOUSE_NO":"８９號","E_COORD97":194971.10000000001,"N_COORD97":2558046.25,"ADDRESS":"中華路８９號","OBJECTID":475123},"geometry":{"x":194971.10000000056,"y":2558046.2500000019}},{"attributes":{"ID":475149,"DIS_CODE":0,"TOWNNAME":"玉井區","LI":"玉田里","LIN":"18鄰","STREET":"中華路","SECT":" ","MAREA":" ","LANE":" ","ALLEY":" ","HOUSE_NO":"９９號","E_COORD97":194985.60000000001,"N_COORD97":2558040.25,"ADDRESS":"中華路９９號","OBJECTID":475124},"geometry":{"x":194985.59999999963,"y":2558040.25}},{"attributes":{"ID":475150,"DIS_CODE":0,"TOWNNAME":"玉井區","LI":"玉井里","LIN":"18鄰","STREET":"中正路","SECT":" ","MAREA":" ","LANE":" ","ALLEY":" ","HOUSE_NO":"８０號","E_COORD97":194806.81,"N_COORD97":2558134.25,"ADDRESS":"中正路８０號","OBJECTID":475125},"geometry":{"x":194806.81000000052,"y":2558134.2500000019}},{"attributes":{"ID":475151,"DIS_CODE":0,"TOWNNAME":"玉井區","LI":"玉井里","LIN":"18鄰","STREET":"中正路","SECT":" ","MAREA":" ","LANE":" ","ALLEY":" ","HOUSE_NO":"９８號","E_COORD97":194837.79999999999,"N_COORD97":2558120.25,"ADDRESS":"中正路９８號","OBJECTID":475126},"geometry":{"x":194837.80000000075,"y":2558120.2500000019}},{"attributes":{"ID":475152,"DIS_CODE":0,"TOWNNAME":"歸仁區","LI":"歸仁里","LIN":"18鄰","STREET":"大仁二街","SECT":" ","MAREA":" ","LANE":" ","ALLEY":" ","HOUSE_NO":"４１號","E_COORD97":178109.94,"N_COORD97":2541101.1099999999,"ADDRESS":"大仁二街４１號","OBJECTID":475127},"geometry":{"x":178109.94000000041,"y":2541101.1100000013}},{"attributes":{"ID":475153,"DIS_CODE":0,"TOWNNAME":"麻豆區","LI":"\u25A0江里","LIN":"18鄰","STREET":"民權路","SECT":" ","MAREA":" ","LANE":" ","ALLEY":" ","HOUSE_NO":"５號","E_COORD97":173386.07000000001,"N_COORD97":2564773.5299999998,"ADDRESS":"民權路５號","OBJECTID":475128},"geometry":{"x":173386.0700000003,"y":2564773.5300000012}},{"attributes":{"ID":475154,"DIS_CODE":0,"TOWNNAME":"北區","LI":"中樓里","LIN":"18鄰","STREET":"東豐路","SECT":" ","MAREA":" ","LANE":" ","ALLEY":" ","HOUSE_NO":"１４５號","E_COORD97":169845.51000000001,"N_COORD97":2544910.0600000001,"ADDRESS":"東豐路１４５號","OBJECTID":475129},"geometry":{"x":169845.51000000164,"y":2544910.0600000024}},{"attributes":{"ID":475155,"DIS_CODE":0,"TOWNNAME":"北區","LI":"中樓里","LIN":"18鄰","STREET":"東豐路","SECT":" ","MAREA":" ","LANE":" ","ALLEY":" ","HOUSE_NO":"１５１號","E_COORD97":169865.79000000001,"N_COORD97":2544902.4700000002,"ADDRESS":"東豐路１５１號","OBJECTID":475130},"geometry":{"x":169865.78999999911,"y":2544902.4700000007}},{"attributes":{"ID":475156,"DIS_CODE":0,"TOWNNAME":"北區","LI":"正覺里","LIN":"18鄰","STREET":"公園路","SECT":" ","MAREA":" ","LANE":" ","ALLEY":" ","HOUSE_NO":"６６７號","E_COORD97":169431.42000000001,"N_COORD97":2546281.9500000002,"ADDRESS":"公園路６６７號","OBJECTID":475131},"geometry":{"x":169431.42000000086,"y":2546281.950000003}},{"attributes":{"ID":475157,"DIS_CODE":0,"TOWNNAME":"北區","LI":"正覺里","LIN":"18鄰","STREET":"公園路","SECT":" ","MAREA":" ","LANE":" ","ALLEY":" ","HOUSE_NO":"６６９號","E_COORD97":169434.41,"N_COORD97":2546285.0299999998,"ADDRESS":"公園路６６９號","OBJECTID":475132},"geometry":{"x":169434.41000000015,"y":2546285.0300000012}},{"attributes":{"ID":475158,"DIS_CODE":0,"TOWNNAME":"北區","LI":"正覺里","LIN":"18鄰","STREET":"公園路","SECT":" ","MAREA":" ","LANE":" ","ALLEY":" ","HOUSE_NO":"６６９號之１","E_COORD97":169439.48999999999,"N_COORD97":2546287.6099999999,"ADDRESS":"公園路６６９號之１","OBJECTID":475133},"geometry":{"x":169439.49000000115,"y":2546287.6100000031}},{"attributes":{"ID":475159,"DIS_CODE":0,"TOWNNAME":"北區","LI":"正覺里","LIN":"18鄰","STREET":"公園路","SECT":" ","MAREA":" ","LANE":" ","ALLEY":" ","HOUSE_NO":"６６９號之２","E_COORD97":169441.82000000001,"N_COORD97":2546290.4300000002,"ADDRESS":"公園路６６９號之２","OBJECTID":475134},"geometry":{"x":169441.8200000003,"y":2546290.4300000016}},{"attributes":{"ID":475160,"DIS_CODE":0,"TOWNNAME":"北區","LI":"正覺里","LIN":"18鄰","STREET":"公園路","SECT":" ","MAREA":" ","LANE":" ","ALLEY":" ","HOUSE_NO":"６６９號之３","E_COORD97":169444.81,"N_COORD97":2546293.6699999999,"ADDRESS":"公園路６６９號之３","OBJECTID":475135},"geometry":{"x":169444.81000000145,"y":2546293.6699999999}},{"attributes":{"ID":475161,"DIS_CODE":0,"TOWNNAME":"北區","LI":"正覺里","LIN":"18鄰","STREET":"公園路","SECT":" ","MAREA":" ","LANE":" ","ALLEY":" ","HOUSE_NO":"６７３號","E_COORD97":169447.97,"N_COORD97":2546295.75,"ADDRESS":"公園路６７３號","OBJECTID":475136},"geometry":{"x":169447.97000000067,"y":2546295.7500000019}},{"attributes":{"ID":475162,"DIS_CODE":0,"TOWNNAME":"北區","LI":"正覺里","LIN":"18鄰","STREET":"公園路","SECT":" ","MAREA":" ","LANE":" ","ALLEY":" ","HOUSE_NO":"６７５號","E_COORD97":169451.14000000001,"N_COORD97":2546300.4900000002,"ADDRESS":"公園路６７５號","OBJECTID":475137},"geometry":{"x":169451.14000000153,"y":2546300.4900000021}},{"attributes":{"ID":475163,"DIS_CODE":0,"TOWNNAME":"北區","LI":"正覺里","LIN":"18鄰","STREET":"公園路","SECT":" ","MAREA":" ","LANE":" ","ALLEY":" ","HOUSE_NO":"６７５號之１","E_COORD97":169455.81,"N_COORD97":2546305.3300000001,"ADDRESS":"公園路６７５號之１","OBJECTID":475138},"geometry":{"x":169455.81000000052,"y":2546305.3300000019}},{"attributes":{"ID":475164,"DIS_CODE":0,"TOWNNAME":"北區","LI":"正覺里","LIN":"18鄰","STREET":"公園路","SECT":" ","MAREA":" ","LANE":" ","ALLEY":" ","HOUSE_NO":"６７７號","E_COORD97":169458.97,"N_COORD97":2546307.9900000002,"ADDRESS":"公園路６７７號","OBJECTID":475139},"geometry":{"x":169458.96999999974,"y":2546307.9900000002}},{"attributes":{"ID":475165,"DIS_CODE":0,"TOWNNAME":"北區","LI":"正覺里","LIN":"18鄰","STREET":"公園路","SECT":" ","MAREA":" ","LANE":" ","ALLEY":" ","HOUSE_NO":"６７９號","E_COORD97":169459.97,"N_COORD97":2546311.48,"ADDRESS":"公園路６７９號","OBJECTID":475140},"geometry":{"x":169459.97000000067,"y":2546311.4800000023}},{"attributes":{"ID":475166,"DIS_CODE":0,"TOWNNAME":"北區","LI":"正覺里","LIN":"18鄰","STREET":"公園路","SECT":" ","MAREA":" ","LANE":" ","ALLEY":" ","HOUSE_NO":"６７９號之２","E_COORD97":169441.23999999999,"N_COORD97":2546323.3999999999,"ADDRESS":"公園路６７９號之２","OBJECTID":475141},"geometry":{"x":169441.24000000115,"y":2546323.4000000004}},{"attributes":{"ID":475167,"DIS_CODE":0,"TOWNNAME":"麻豆區","LI":"大埕里","LIN":"18鄰","STREET":"光復路","SECT":" ","MAREA":" ","LANE":" ","ALLEY":" ","HOUSE_NO":"２２號","E_COORD97":173020.23999999999,"N_COORD97":2564920.3799999999,"ADDRESS":"光復路２２號","OBJECTID":475142},"geometry":{"x":173020.24000000115,"y":2564920.3800000008}},{"attributes":{"ID":475168,"DIS_CODE":0,"TOWNNAME":"麻豆區","LI":"大埕里","LIN":"18鄰","STREET":"光復路","SECT":" ","MAREA":" ","LANE":" ","ALLEY":" ","HOUSE_NO":"２４號","E_COORD97":173017.35999999999,"N_COORD97":2564920.3700000001,"ADDRESS":"光復路２４號","OBJECTID":475143},"geometry":{"x":173017.36000000127,"y":2564920.370000001}},{"attributes":{"ID":475169,"DIS_CODE":0,"TOWNNAME":"麻豆區","LI":"大埕里","LIN":"18鄰","STREET":"光復路","SECT":" ","MAREA":" ","LANE":" ","ALLEY":" ","HOUSE_NO":"２６號","E_COORD97":173012.51999999999,"N_COORD97":2564920.79,"ADDRESS":"光復路２６號","OBJECTID":475144},"geometry":{"x":173012.52000000048,"y":2564920.790000001}},{"attributes":{"ID":475170,"DIS_CODE":0,"TOWNNAME":"麻豆區","LI":"大埕里","LIN":"18鄰","STREET":"光復路","SECT":" ","MAREA":" ","LANE":" ","ALLEY":" ","HOUSE_NO":"２８號","E_COORD97":173007.81,"N_COORD97":2564921.27,"ADDRESS":"光復路２８號","OBJECTID":475145},"geometry":{"x":173007.80999999959,"y":2564921.2700000014}},{"attributes":{"ID":475171,"DIS_CODE":0,"TOWNNAME":"安平區","LI":"怡平里","LIN":"18鄰","STREET":"永華六街","SECT":" ","MAREA":" ","LANE":" ","ALLEY":" ","HOUSE_NO":"１４８號","E_COORD97":165639,"N_COORD97":2543876.6600000001,"ADDRESS":"永華六街１４８號","OBJECTID":475146},"geometry":{"x":165639.00000000093,"y":2543876.6600000001}},{"attributes":{"ID":475172,"DIS_CODE":0,"TOWNNAME":"六甲區","LI":"甲南里","LIN":"18鄰","STREET":"永安街","SECT":" ","MAREA":" ","LANE":" ","ALLEY":" ","HOUSE_NO":"６號","E_COORD97":183967.22,"N_COORD97":2569873.2799999998,"ADDRESS":"永安街６號","OBJECTID":475147},"geometry":{"x":183967.22000000067,"y":2569873.2800000031}},{"attributes":{"ID":475173,"DIS_CODE":0,"TOWNNAME":"六甲區","LI":"甲南里","LIN":"18鄰","STREET":"永安街","SECT":" ","MAREA":" ","LANE":" ","ALLEY":" ","HOUSE_NO":"８號","E_COORD97":183953.14999999999,"N_COORD97":2569872.0499999998,"ADDRESS":"永安街８號","OBJECTID":475148},"geometry":{"x":183953.1500000013,"y":2569872.0500000007}},{"attributes":{"ID":475174,"DIS_CODE":0,"TOWNNAME":"六甲區","LI":"二甲里","LIN":"18鄰","STREET":"和平街","SECT":" ","MAREA":" ","LANE":" ","ALLEY":" ","HOUSE_NO":"２２５之１號","E_COORD97":182673.87,"N_COORD97":2569596.0299999998,"ADDRESS":"和平街２２５之１號","OBJECTID":475149},"geometry":{"x":182673.87000000011,"y":2569596.0299999993}},{"attributes":{"ID":475175,"DIS_CODE":0,"TOWNNAME":"六甲區","LI":"二甲里","LIN":"18鄰","STREET":"和平街","SECT":" ","MAREA":" ","LANE":" ","ALLEY":" ","HOUSE_NO":"２８３號","E_COORD97":182712.85999999999,"N_COORD97":2569618.75,"ADDRESS":"和平街２８３號","OBJECTID":475150},"geometry":{"x":182712.86000000034,"y":2569618.75}},{"attributes":{"ID":475176,"DIS_CODE":0,"TOWNNAME":"六甲區","LI":"二甲里","LIN":"18鄰","STREET":"和平街","SECT":" ","MAREA":" ","LANE":" ","ALLEY":" ","HOUSE_NO":"２８７號","E_COORD97":182704.14999999999,"N_COORD97":2569647.9199999999,"ADDRESS":"和平街２８７號","OBJECTID":475151},"geometry":{"x":182704.15000000037,"y":2569647.9199999999}},{"attributes":{"ID":475177,"DIS_CODE":0,"TOWNNAME":"六甲區","LI":"二甲里","LIN":"18鄰","STREET":"和平街","SECT":" ","MAREA":" ","LANE":" ","ALLEY":" ","HOUSE_NO":"２８９號","E_COORD97":182720.57000000001,"N_COORD97":2569636.6299999999,"ADDRESS":"和平街２８９號","OBJECTID":475152},"geometry":{"x":182720.57000000216,"y":2569636.6300000027}},{"attributes":{"ID":475178,"DIS_CODE":0,"TOWNNAME":"六甲區","LI":"二甲里","LIN":"18鄰","STREET":"和平街","SECT":" ","MAREA":" ","LANE":" ","ALLEY":" ","HOUSE_NO":"２９７號","E_COORD97":182730.94,"N_COORD97":2569651.2599999998,"ADDRESS":"和平街２９７號","OBJECTID":475153},"geometry":{"x":182730.94000000041,"y":2569651.2600000016}},{"attributes":{"ID":475179,"DIS_CODE":0,"TOWNNAME":"六甲區","LI":"二甲里","LIN":"18鄰","STREET":"和平街","SECT":" ","MAREA":" ","LANE":" ","ALLEY":" ","HOUSE_NO":"３０３號","E_COORD97":182721.35999999999,"N_COORD97":2569678.6600000001,"ADDRESS":"和平街３０３號","OBJECTID":475154},"geometry":{"x":182721.36000000034,"y":2569678.660000002}},{"attributes":{"ID":475180,"DIS_CODE":0,"TOWNNAME":"六甲區","LI":"二甲里","LIN":"18鄰","STREET":"和平街","SECT":" ","MAREA":" ","LANE":" ","ALLEY":" ","HOUSE_NO":"３１９號","E_COORD97":182735.26000000001,"N_COORD97":2569715.9199999999,"ADDRESS":"和平街３１９號","OBJECTID":475155},"geometry":{"x":182735.25999999978,"y":2569715.9199999999}},{"attributes":{"ID":475181,"DIS_CODE":0,"TOWNNAME":"六甲區","LI":"二甲里","LIN":"18鄰","STREET":"和平街","SECT":" ","MAREA":" ","LANE":" ","ALLEY":" ","HOUSE_NO":"３２３號","E_COORD97":182742.73999999999,"N_COORD97":2569730.3799999999,"ADDRESS":"和平街３２３號","OBJECTID":475156},"geometry":{"x":182742.74000000022,"y":2569730.3800000008}},{"attributes":{"ID":475182,"DIS_CODE":0,"TOWNNAME":"六甲區","LI":"二甲里","LIN":"18鄰","STREET":"和平街","SECT":" ","MAREA":" ","LANE":" ","ALLEY":" ","HOUSE_NO":"３３１號","E_COORD97":182767.17999999999,"N_COORD97":2569762.4399999999,"ADDRESS":"和平街３３１號","OBJECTID":475157},"geometry":{"x":182767.18000000063,"y":2569762.4399999995}},{"attributes":{"ID":475183,"DIS_CODE":0,"TOWNNAME":"六甲區","LI":"二甲里","LIN":"18鄰","STREET":"和平街","SECT":" ","MAREA":" ","LANE":" ","ALLEY":" ","HOUSE_NO":"３３５號","E_COORD97":182780.54999999999,"N_COORD97":2569777.9100000001,"ADDRESS":"和平街３３５號","OBJECTID":475158},"geometry":{"x":182780.54999999981,"y":2569777.9100000001}},{"attributes":{"ID":475184,"DIS_CODE":0,"TOWNNAME":"六甲區","LI":"二甲里","LIN":"18鄰","STREET":"和平街","SECT":" ","MAREA":" ","LANE":" ","ALLEY":" ","HOUSE_NO":"３３７號","E_COORD97":182783.42000000001,"N_COORD97":2569788.8500000001,"ADDRESS":"和平街３３７號","OBJECTID":475159},"geometry":{"x":182783.41999999993,"y":2569788.8500000015}},{"attributes":{"ID":475185,"DIS_CODE":0,"TOWNNAME":"六甲區","LI":"二甲里","LIN":"18鄰","STREET":"和平街","SECT":" ","MAREA":" ","LANE":" ","ALLEY":" ","HOUSE_NO":"４２７號","E_COORD97":182826.59,"N_COORD97":2569925.5299999998,"ADDRESS":"和平街４２７號","OBJECTID":475160},"geometry":{"x":182826.58999999985,"y":2569925.5299999993}},{"attributes":{"ID":475186,"DIS_CODE":0,"TOWNNAME":"六甲區","LI":"二甲里","LIN":"18鄰","STREET":"和平街","SECT":" ","MAREA":" ","LANE":" ","ALLEY":" ","HOUSE_NO":"４３９號","E_COORD97":182837.10999999999,"N_COORD97":2569960.46,"ADDRESS":"和平街４３９號","OBJECTID":475161},"geometry":{"x":182837.11000000034,"y":2569960.4600000009}},{"attributes":{"ID":475187,"DIS_CODE":0,"TOWNNAME":"六甲區","LI":"甲南里","LIN":"18鄰","STREET":"忠孝街","SECT":" ","MAREA":" ","LANE":" ","ALLEY":" ","HOUSE_NO":"１４１號","E_COORD97":183976.97,"N_COORD97":2569862.8199999998,"ADDRESS":"忠孝街１４１號","OBJECTID":475162},"geometry":{"x":183976.97000000067,"y":2569862.8200000003}},{"attributes":{"ID":475188,"DIS_CODE":0,"TOWNNAME":"安平區","LI":"育平里","LIN":"18鄰","STREET":"建平七街","SECT":" ","MAREA":" ","LANE":" ","ALLEY":" ","HOUSE_NO":"６９７號","E_COORD97":164739.54000000001,"N_COORD97":2543429.79,"ADDRESS":"建平七街６９７號","OBJECTID":475163},"geometry":{"x":164739.53999999911,"y":2543429.7899999991}},{"attributes":{"ID":475189,"DIS_CODE":0,"TOWNNAME":"新營區","LI":"土庫里","LIN":"18鄰","STREET":"開元路","SECT":" ","MAREA":" ","LANE":" ","ALLEY":" ","HOUSE_NO":"２４３號","E_COORD97":181847.54999999999,"N_COORD97":2579714.7400000002,"ADDRESS":"開元路２４３號","OBJECTID":475164},"geometry":{"x":181847.55000000075,"y":2579714.7400000021}},{"attributes":{"ID":475190,"DIS_CODE":0,"TOWNNAME":"麻豆區","LI":"中興里","LIN":"18鄰","STREET":"自由路","SECT":" ","MAREA":" ","LANE":" ","ALLEY":" ","HOUSE_NO":"１７號之１０","E_COORD97":172597.67999999999,"N_COORD97":2564584.8500000001,"ADDRESS":"自由路１７號之１０","OBJECTID":475165},"geometry":{"x":172597.68000000063,"y":2564584.8500000015}},{"attributes":{"ID":475191,"DIS_CODE":0,"TOWNNAME":"麻豆區","LI":"中興里","LIN":"18鄰","STREET":"自由路","SECT":" ","MAREA":" ","LANE":" ","ALLEY":" ","HOUSE_NO":"１７號之１１","E_COORD97":172593.60000000001,"N_COORD97":2564584.2000000002,"ADDRESS":"自由路１７號之１１","OBJECTID":475166},"geometry":{"x":172593.59999999963,"y":2564584.1999999993}},{"attributes":{"ID":475192,"DIS_CODE":0,"TOWNNAME":"麻豆區","LI":"中興里","LIN":"18鄰","STREET":"自由路","SECT":" ","MAREA":" ","LANE":" ","ALLEY":" ","HOUSE_NO":"１７號之１２","E_COORD97":172589.67999999999,"N_COORD97":2564583.6699999999,"ADDRESS":"自由路１７號之１２","OBJECTID":475167},"geometry":{"x":172589.6799999997,"y":2564583.6700000018}},{"attributes":{"ID":475193,"DIS_CODE":0,"TOWNNAME":"麻豆區","LI":"中興里","LIN":"18鄰","STREET":"自由路","SECT":" ","MAREA":" ","LANE":" ","ALLEY":" ","HOUSE_NO":"１７號之１３","E_COORD97":172600.67999999999,"N_COORD97":2564601.52,"ADDRESS":"自由路１７號之１３","OBJECTID":475168},"geometry":{"x":172600.68000000156,"y":2564601.5200000014}},{"attributes":{"ID":475194,"DIS_CODE":0,"TOWNNAME":"麻豆區","LI":"中興里","LIN":"18鄰","STREET":"自由路","SECT":" ","MAREA":" ","LANE":" ","ALLEY":" ","HOUSE_NO":"１７號之１４","E_COORD97":172594.53,"N_COORD97":2564600.6800000002,"ADDRESS":"自由路１７號之１４","OBJECTID":475169},"geometry":{"x":172594.53000000119,"y":2564600.6799999997}},{"attributes":{"ID":475195,"DIS_CODE":0,"TOWNNAME":"麻豆區","LI":"中興里","LIN":"18鄰","STREET":"自由路","SECT":" ","MAREA":" ","LANE":" ","ALLEY":" ","HOUSE_NO":"１７號之１５","E_COORD97":172588.01000000001,"N_COORD97":2564599.7200000002,"ADDRESS":"自由路１７號之１５","OBJECTID":475170},"geometry":{"x":172588.00999999978,"y":2564599.7200000044}},{"attributes":{"ID":475196,"DIS_CODE":0,"TOWNNAME":"麻豆區","LI":"中興里","LIN":"18鄰","STREET":"自由路","SECT":" ","MAREA":" ","LANE":" ","ALLEY":" ","HOUSE_NO":"１７號之１","E_COORD97":172619.75,"N_COORD97":2564562.3199999998,"ADDRESS":"自由路１７號之１","OBJECTID":475171},"geometry":{"x":172619.75000000093,"y":2564562.3200000022}},{"attributes":{"ID":475197,"DIS_CODE":0,"TOWNNAME":"麻豆區","LI":"中興里","LIN":"18鄰","STREET":"自由路","SECT":" ","MAREA":" ","LANE":" ","ALLEY":" ","HOUSE_NO":"１７號之２","E_COORD97":172619.79000000001,"N_COORD97":2564567.2799999998,"ADDRESS":"自由路１７號之２","OBJECTID":475172},"geometry":{"x":172619.79000000004,"y":2564567.2800000031}},{"attributes":{"ID":475198,"DIS_CODE":0,"TOWNNAME":"麻豆區","LI":"中興里","LIN":"18鄰","STREET":"自由路","SECT":" ","MAREA":" ","LANE":" ","ALLEY":" ","HOUSE_NO":"１７號之３","E_COORD97":172619.85000000001,"N_COORD97":2564571.9199999999,"ADDRESS":"自由路１７號之３","OBJECTID":475173},"geometry":{"x":172619.85000000149,"y":2564571.9200000018}},{"attributes":{"ID":475199,"DIS_CODE":0,"TOWNNAME":"麻豆區","LI":"中興里","LIN":"18鄰","STREET":"自由路","SECT":" ","MAREA":" ","LANE":" ","ALLEY":" ","HOUSE_NO":"１７號之４","E_COORD97":172619.95000000001,"N_COORD97":2564578.52,"ADDRESS":"自由路１７號之４","OBJECTID":475174},"geometry":{"x":172619.95000000112,"y":2564578.5199999996}},{"attributes":{"ID":475200,"DIS_CODE":0,"TOWNNAME":"麻豆區","LI":"中興里","LIN":"18鄰","STREET":"自由路","SECT":" ","MAREA":" ","LANE":" ","ALLEY":" ","HOUSE_NO":"１７號之５","E_COORD97":172619.44,"N_COORD97":2564582.71,"ADDRESS":"自由路１７號之５","OBJECTID":475175},"geometry":{"x":172619.44000000041,"y":2564582.7100000009}},{"attributes":{"ID":475201,"DIS_CODE":0,"TOWNNAME":"麻豆區","LI":"中興里","LIN":"18鄰","STREET":"自由路","SECT":" ","MAREA":" ","LANE":" ","ALLEY":" ","HOUSE_NO":"１７號之６","E_COORD97":172618.51999999999,"N_COORD97":2564586.9900000002,"ADDRESS":"自由路１７號之６","OBJECTID":475176},"geometry":{"x":172618.52000000142,"y":2564586.9899999984}},{"attributes":{"ID":475202,"DIS_CODE":0,"TOWNNAME":"麻豆區","LI":"中興里","LIN":"18鄰","STREET":"自由路","SECT":" ","MAREA":" ","LANE":" ","ALLEY":" ","HOUSE_NO":"１７號之７","E_COORD97":172609.97,"N_COORD97":2564586.1800000002,"ADDRESS":"自由路１７號之７","OBJECTID":475177},"geometry":{"x":172609.96999999974,"y":2564586.1800000016}},{"attributes":{"ID":475203,"DIS_CODE":0,"TOWNNAME":"麻豆區","LI":"中興里","LIN":"18鄰","STREET":"自由路","SECT":" ","MAREA":" ","LANE":" ","ALLEY":" ","HOUSE_NO":"１７號之８","E_COORD97":172605.85000000001,"N_COORD97":2564585.6699999999,"ADDRESS":"自由路１７號之８","OBJECTID":475178},"geometry":{"x":172605.84999999963,"y":2564585.6700000037}},{"attributes":{"ID":475204,"DIS_CODE":0,"TOWNNAME":"麻豆區","LI":"中興里","LIN":"18鄰","STREET":"自由路","SECT":" ","MAREA":" ","LANE":" ","ALLEY":" ","HOUSE_NO":"１７號之９","E_COORD97":172602.09,"N_COORD97":2564585.5,"ADDRESS":"自由路１７號之９","OBJECTID":475179},"geometry":{"x":172602.09000000078,"y":2564585.5}},{"attributes":{"ID":475205,"DIS_CODE":0,"TOWNNAME":"麻豆區","LI":"中興里","LIN":"18鄰","STREET":"自由路","SECT":" ","MAREA":" ","LANE":" ","ALLEY":" ","HOUSE_NO":"１７號","E_COORD97":172620.06,"N_COORD97":2564556.3599999999,"ADDRESS":"自由路１７號","OBJECTID":475180},"geometry":{"x":172620.06000000145,"y":2564556.3599999994}},{"attributes":{"ID":475206,"DIS_CODE":0,"TOWNNAME":"麻豆區","LI":"中興里","LIN":"18鄰","STREET":"自由路","SECT":" ","MAREA":" ","LANE":" ","ALLEY":" ","HOUSE_NO":"１９號之１","E_COORD97":172622.47,"N_COORD97":2564623.48,"ADDRESS":"自由路１９號之１","OBJECTID":475181},"geometry":{"x":172622.4700000016,"y":2564623.4800000004}},{"attributes":{"ID":475207,"DIS_CODE":0,"TOWNNAME":"麻豆區","LI":"中興里","LIN":"18鄰","STREET":"自由路","SECT":" ","MAREA":" ","LANE":" ","ALLEY":" ","HOUSE_NO":"１９號之２","E_COORD97":172622.73999999999,"N_COORD97":2564618.54,"ADDRESS":"自由路１９號之２","OBJECTID":475182},"geometry":{"x":172622.74000000209,"y":2564618.5399999991}},{"attributes":{"ID":475208,"DIS_CODE":0,"TOWNNAME":"麻豆區","LI":"中興里","LIN":"18鄰","STREET":"自由路","SECT":" ","MAREA":" ","LANE":" ","ALLEY":" ","HOUSE_NO":"１９號","E_COORD97":172622.39999999999,"N_COORD97":2564627.5699999998,"ADDRESS":"自由路１９號","OBJECTID":475183},"geometry":{"x":172622.4000000013,"y":2564627.570000004}},{"attributes":{"ID":475209,"DIS_CODE":0,"TOWNNAME":"麻豆區","LI":"中興里","LIN":"18鄰","STREET":"自由路","SECT":" ","MAREA":" ","LANE":" ","ALLEY":" ","HOUSE_NO":"１號之２","E_COORD97":172608.29000000001,"N_COORD97":2564339.6800000002,"ADDRESS":"自由路１號之２","OBJECTID":475184},"geometry":{"x":172608.29000000004,"y":2564339.6799999997}},{"attributes":{"ID":475210,"DIS_CODE":0,"TOWNNAME":"麻豆區","LI":"中興里","LIN":"18鄰","STREET":"自由路","SECT":" ","MAREA":" ","LANE":" ","ALLEY":" ","HOUSE_NO":"２１號之１","E_COORD97":172622.85999999999,"N_COORD97":2564637.29,"ADDRESS":"自由路２１號之１","OBJECTID":475185},"geometry":{"x":172622.86000000127,"y":2564637.2899999991}},{"attributes":{"ID":475211,"DIS_CODE":0,"TOWNNAME":"麻豆區","LI":"中興里","LIN":"18鄰","STREET":"自由路","SECT":" ","MAREA":" ","LANE":" ","ALLEY":" ","HOUSE_NO":"２１號之２","E_COORD97":172623.19,"N_COORD97":2564632.3100000001,"ADDRESS":"自由路２１號之２","OBJECTID":475186},"geometry":{"x":172623.19000000041,"y":2564632.3100000005}},{"attributes":{"ID":475212,"DIS_CODE":0,"TOWNNAME":"麻豆區","LI":"中興里","LIN":"18鄰","STREET":"自由路","SECT":" ","MAREA":" ","LANE":" ","ALLEY":" ","HOUSE_NO":"２１號之３","E_COORD97":172602.51000000001,"N_COORD97":2564632.02,"ADDRESS":"自由路２１號之３","OBJECTID":475187},"geometry":{"x":172602.51000000071,"y":2564632.0200000014}},{"attributes":{"ID":475213,"DIS_CODE":0,"TOWNNAME":"麻豆區","LI":"中興里","LIN":"18鄰","STREET":"自由路","SECT":" ","MAREA":" ","LANE":" ","ALLEY":" ","HOUSE_NO":"２１號","E_COORD97":172624.28,"N_COORD97":2564642.0099999998,"ADDRESS":"自由路２１號","OBJECTID":475188},"geometry":{"x":172624.28000000212,"y":2564642.0100000016}},{"attributes":{"ID":475214,"DIS_CODE":0,"TOWNNAME":"麻豆區","LI":"中興里","LIN":"18鄰","STREET":"自由路","SECT":" ","MAREA":" ","LANE":" ","ALLEY":" ","HOUSE_NO":"２３號","E_COORD97":172626.01000000001,"N_COORD97":2564648.0299999998,"ADDRESS":"自由路２３號","OBJECTID":475189},"geometry":{"x":172626.01000000071,"y":2564648.0300000012}},{"attributes":{"ID":475215,"DIS_CODE":0,"TOWNNAME":"麻豆區","LI":"中興里","LIN":"18鄰","STREET":"自由路","SECT":" ","MAREA":" ","LANE":" ","ALLEY":" ","HOUSE_NO":"５號之１","E_COORD97":172618.51999999999,"N_COORD97":2564388.75,"ADDRESS":"自由路５號之１","OBJECTID":475190},"geometry":{"x":172618.52000000142,"y":2564388.7500000037}},{"attributes":{"ID":475216,"DIS_CODE":0,"TOWNNAME":"麻豆區","LI":"中興里","LIN":"18鄰","STREET":"自由路","SECT":" ","MAREA":" ","LANE":" ","ALLEY":" ","HOUSE_NO":"５號","E_COORD97":172613.97,"N_COORD97":2564395.1600000001,"ADDRESS":"自由路５號","OBJECTID":475191},"geometry":{"x":172613.9700000016,"y":2564395.1600000001}},{"attributes":{"ID":475217,"DIS_CODE":0,"TOWNNAME":"麻豆區","LI":"中興里","LIN":"18鄰","STREET":"自由路","SECT":" ","MAREA":" ","LANE":" ","ALLEY":" ","HOUSE_NO":"７號","E_COORD97":172598.37,"N_COORD97":2564455.4399999999,"ADDRESS":"自由路７號","OBJECTID":475192},"geometry":{"x":172598.37000000104,"y":2564455.4400000013}},{"attributes":{"ID":475218,"DIS_CODE":0,"TOWNNAME":"麻豆區","LI":"中興里","LIN":"18鄰","STREET":"自由路","SECT":" ","MAREA":" ","LANE":" ","ALLEY":" ","HOUSE_NO":"９號之１","E_COORD97":172620.70999999999,"N_COORD97":2564504.4900000002,"ADDRESS":"自由路９號之１","OBJECTID":475193},"geometry":{"x":172620.70999999996,"y":2564504.4900000002}},{"attributes":{"ID":475219,"DIS_CODE":0,"TOWNNAME":"麻豆區","LI":"中興里","LIN":"18鄰","STREET":"自由路","SECT":" ","MAREA":" ","LANE":" ","ALLEY":" ","HOUSE_NO":"９號之２","E_COORD97":172623.92999999999,"N_COORD97":2564517.5699999998,"ADDRESS":"自由路９號之２","OBJECTID":475194},"geometry":{"x":172623.9299999997,"y":2564517.5700000003}},{"attributes":{"ID":475220,"DIS_CODE":0,"TOWNNAME":"麻豆區","LI":"中興里","LIN":"18鄰","STREET":"自由路","SECT":" ","MAREA":" ","LANE":" ","ALLEY":" ","HOUSE_NO":"９號之３","E_COORD97":172624.01999999999,"N_COORD97":2564521.6400000001,"ADDRESS":"自由路９號之３","OBJECTID":475195},"geometry":{"x":172624.02000000048,"y":2564521.6400000006}},{"attributes":{"ID":475221,"DIS_CODE":0,"TOWNNAME":"麻豆區","LI":"中興里","LIN":"18鄰","STREET":"自由路","SECT":" ","MAREA":" ","LANE":" ","ALLEY":" ","HOUSE_NO":"９號之４","E_COORD97":172623.79999999999,"N_COORD97":2564526.3300000001,"ADDRESS":"自由路９號之４","OBJECTID":475196},"geometry":{"x":172623.80000000075,"y":2564526.3300000001}},{"attributes":{"ID":475222,"DIS_CODE":0,"TOWNNAME":"麻豆區","LI":"中興里","LIN":"18鄰","STREET":"自由路","SECT":" ","MAREA":" ","LANE":" ","ALLEY":" ","HOUSE_NO":"９號之５","E_COORD97":172623.94,"N_COORD97":2564530.3999999999,"ADDRESS":"自由路９號之５","OBJECTID":475197},"geometry":{"x":172623.94000000134,"y":2564530.4000000041}},{"attributes":{"ID":475223,"DIS_CODE":0,"TOWNNAME":"麻豆區","LI":"中興里","LIN":"18鄰","STREET":"自由路","SECT":" ","MAREA":" ","LANE":" ","ALLEY":" ","HOUSE_NO":"９號之６","E_COORD97":172623.64999999999,"N_COORD97":2564534.5800000001,"ADDRESS":"自由路９號之６","OBJECTID":475198},"geometry":{"x":172623.65000000224,"y":2564534.5800000001}},{"attributes":{"ID":475224,"DIS_CODE":0,"TOWNNAME":"麻豆區","LI":"中興里","LIN":"18鄰","STREET":"自由路","SECT":" ","MAREA":" ","LANE":" ","ALLEY":" ","HOUSE_NO":"９號之７","E_COORD97":172624.89000000001,"N_COORD97":2564538.73,"ADDRESS":"自由路９號之７","OBJECTID":475199},"geometry":{"x":172624.8900000006,"y":2564538.7300000023}},{"attributes":{"ID":475225,"DIS_CODE":0,"TOWNNAME":"麻豆區","LI":"中興里","LIN":"18鄰","STREET":"自由路","SECT":" ","MAREA":" ","LANE":" ","ALLEY":" ","HOUSE_NO":"９號","E_COORD97":172623.35999999999,"N_COORD97":2564467.96,"ADDRESS":"自由路９號","OBJECTID":475200},"geometry":{"x":172623.36000000034,"y":2564467.9600000009}}]}