{"displayFieldName":"TOWNNAME","fieldAliases":{"ID":"ID","DIS_CODE":"DIS_CODE","TOWNNAME":"TOWNNAME","LI":"LI","LIN":"LIN","STREET":"STREET","SECT":"SECT","MAREA":"MAREA","LANE":"LANE","ALLEY":"ALLEY","HOUSE_NO":"HOUSE_NO","E_COORD97":"E_COORD97","N_COORD97":"N_COORD97","ADDRESS":"ADDRESS","OBJECTID":"OBJECTID"},"geometryType":"esriGeometryPoint","spatialReference":{"wkid":102443,"latestWkid":3826},"fields":[{"name":"ID","type":"esriFieldTypeDouble","alias":"ID"},{"name":"DIS_CODE","type":"esriFieldTypeInteger","alias":"DIS_CODE"},{"name":"TOWNNAME","type":"esriFieldTypeString","alias":"TOWNNAME","length":8},{"name":"LI","type":"esriFieldTypeString","alias":"LI","length":8},{"name":"LIN","type":"esriFieldTypeString","alias":"LIN","length":12},{"name":"STREET","type":"esriFieldTypeString","alias":"STREET","length":20},{"name":"SECT","type":"esriFieldTypeString","alias":"SECT","length":8},{"name":"MAREA","type":"esriFieldTypeString","alias":"MAREA","length":12},{"name":"LANE","type":"esriFieldTypeString","alias":"LANE","length":10},{"name":"ALLEY","type":"esriFieldTypeString","alias":"ALLEY","length":10},{"name":"HOUSE_NO","type":"esriFieldTypeString","alias":"HOUSE_NO","length":20},{"name":"E_COORD97","type":"esriFieldTypeDouble","alias":"E_COORD97"},{"name":"N_COORD97","type":"esriFieldTypeDouble","alias":"N_COORD97"},{"name":"ADDRESS","type":"esriFieldTypeString","alias":"ADDRESS","length":50},{"name":"OBJECTID","type":"esriFieldTypeOID","alias":"OBJECTID"}],"features":[{"attributes":{"ID":242805,"DIS_CODE":0,"TOWNNAME":"善化區","LI":"嘉南里","LIN":"12鄰","STREET":" ","SECT":" ","MAREA":"茄拔","LANE":" ","ALLEY":" ","HOUSE_NO":"３１４號","E_COORD97":180883.51000000001,"N_COORD97":2559579.0099999998,"ADDRESS":"茄拔３１４號","OBJECTID":242801},"geometry":{"x":180883.51000000071,"y":2559579.0100000035}},{"attributes":{"ID":242806,"DIS_CODE":0,"TOWNNAME":"東山區","LI":"東正里","LIN":"22鄰","STREET":" ","SECT":" ","MAREA":"東勢","LANE":" ","ALLEY":" ","HOUSE_NO":"１５３號之１","E_COORD97":189438.31,"N_COORD97":2580389.8199999998,"ADDRESS":"東勢１５３號之１","OBJECTID":242802},"geometry":{"x":189438.31000000052,"y":2580389.8200000003}},{"attributes":{"ID":242807,"DIS_CODE":0,"TOWNNAME":"新營區","LI":"新南里","LIN":"16鄰","STREET":"隋唐街","SECT":" ","MAREA":" ","LANE":"３１巷","ALLEY":" ","HOUSE_NO":"６１號九樓","E_COORD97":178686.76999999999,"N_COORD97":2578323.1800000002,"ADDRESS":"隋唐街３１巷６１號九樓","OBJECTID":242803},"geometry":{"x":178686.76999999955,"y":2578323.1800000034}},{"attributes":{"ID":242808,"DIS_CODE":0,"TOWNNAME":"新營區","LI":"新南里","LIN":"16鄰","STREET":"隋唐街","SECT":" ","MAREA":" ","LANE":"３１巷","ALLEY":" ","HOUSE_NO":"５７號九樓之１","E_COORD97":178688.92000000001,"N_COORD97":2578323.2200000002,"ADDRESS":"隋唐街３１巷５７號九樓之１","OBJECTID":242804},"geometry":{"x":178688.92000000086,"y":2578323.2200000007}},{"attributes":{"ID":242809,"DIS_CODE":0,"TOWNNAME":"新營區","LI":"新南里","LIN":"16鄰","STREET":"隋唐街","SECT":" ","MAREA":" ","LANE":"３１巷","ALLEY":" ","HOUSE_NO":"５５號三樓之２","E_COORD97":178689.04999999999,"N_COORD97":2578323.2200000002,"ADDRESS":"隋唐街３１巷５５號三樓之２","OBJECTID":242805},"geometry":{"x":178689.05000000168,"y":2578323.2200000007}},{"attributes":{"ID":242810,"DIS_CODE":0,"TOWNNAME":"新營區","LI":"新南里","LIN":"16鄰","STREET":"隋唐街","SECT":" ","MAREA":" ","LANE":"３１巷","ALLEY":" ","HOUSE_NO":"５７號七樓之２","E_COORD97":178689.04999999999,"N_COORD97":2578323.2200000002,"ADDRESS":"隋唐街３１巷５７號七樓之２","OBJECTID":242806},"geometry":{"x":178689.05000000168,"y":2578323.2200000007}},{"attributes":{"ID":242811,"DIS_CODE":0,"TOWNNAME":"新營區","LI":"新南里","LIN":"16鄰","STREET":"隋唐街","SECT":" ","MAREA":" ","LANE":"３１巷","ALLEY":" ","HOUSE_NO":"５７號六樓之２","E_COORD97":178689.04999999999,"N_COORD97":2578323.2200000002,"ADDRESS":"隋唐街３１巷５７號六樓之２","OBJECTID":242807},"geometry":{"x":178689.05000000168,"y":2578323.2200000007}},{"attributes":{"ID":242812,"DIS_CODE":0,"TOWNNAME":"新營區","LI":"新南里","LIN":"16鄰","STREET":"隋唐街","SECT":" ","MAREA":" ","LANE":"３１巷","ALLEY":" ","HOUSE_NO":"６１號七樓","E_COORD97":178686.76999999999,"N_COORD97":2578323.1800000002,"ADDRESS":"隋唐街３１巷６１號七樓","OBJECTID":242808},"geometry":{"x":178686.76999999955,"y":2578323.1800000034}},{"attributes":{"ID":242813,"DIS_CODE":0,"TOWNNAME":"新營區","LI":"新南里","LIN":"16鄰","STREET":"隋唐街","SECT":" ","MAREA":" ","LANE":"３１巷","ALLEY":" ","HOUSE_NO":"５５號六樓之１","E_COORD97":178688.92000000001,"N_COORD97":2578323.2200000002,"ADDRESS":"隋唐街３１巷５５號六樓之１","OBJECTID":242809},"geometry":{"x":178688.92000000086,"y":2578323.2200000007}},{"attributes":{"ID":242814,"DIS_CODE":0,"TOWNNAME":"新營區","LI":"新南里","LIN":"16鄰","STREET":"隋唐街","SECT":" ","MAREA":" ","LANE":"３１巷","ALLEY":" ","HOUSE_NO":"５７號三樓之１","E_COORD97":178688.92000000001,"N_COORD97":2578323.2200000002,"ADDRESS":"隋唐街３１巷５７號三樓之１","OBJECTID":242810},"geometry":{"x":178688.92000000086,"y":2578323.2200000007}},{"attributes":{"ID":242815,"DIS_CODE":0,"TOWNNAME":"新營區","LI":"新南里","LIN":"16鄰","STREET":"隋唐街","SECT":" ","MAREA":" ","LANE":"３１巷","ALLEY":" ","HOUSE_NO":"５７號七樓之１","E_COORD97":178688.92000000001,"N_COORD97":2578323.2200000002,"ADDRESS":"隋唐街３１巷５７號七樓之１","OBJECTID":242811},"geometry":{"x":178688.92000000086,"y":2578323.2200000007}},{"attributes":{"ID":242816,"DIS_CODE":0,"TOWNNAME":"新營區","LI":"新南里","LIN":"16鄰","STREET":"隋唐街","SECT":" ","MAREA":" ","LANE":"３１巷","ALLEY":" ","HOUSE_NO":"５７號八樓之１","E_COORD97":178688.92000000001,"N_COORD97":2578323.2200000002,"ADDRESS":"隋唐街３１巷５７號八樓之１","OBJECTID":242812},"geometry":{"x":178688.92000000086,"y":2578323.2200000007}},{"attributes":{"ID":242817,"DIS_CODE":0,"TOWNNAME":"南區","LI":"建南里","LIN":"24鄰","STREET":"明興路","SECT":" ","MAREA":" ","LANE":"１１９巷","ALLEY":" ","HOUSE_NO":"３號十二樓之３","E_COORD97":166694.79999999999,"N_COORD97":2539874,"ADDRESS":"明興路１１９巷３號十二樓之３","OBJECTID":242813},"geometry":{"x":166694.79999999981,"y":2539874}},{"attributes":{"ID":242818,"DIS_CODE":0,"TOWNNAME":"南區","LI":"建南里","LIN":"24鄰","STREET":"明興路","SECT":" ","MAREA":" ","LANE":"１１９巷","ALLEY":" ","HOUSE_NO":"３號十二樓之４","E_COORD97":166694.79999999999,"N_COORD97":2539874,"ADDRESS":"明興路１１９巷３號十二樓之４","OBJECTID":242814},"geometry":{"x":166694.79999999981,"y":2539874}},{"attributes":{"ID":242819,"DIS_CODE":0,"TOWNNAME":"南區","LI":"建南里","LIN":"24鄰","STREET":"明興路","SECT":" ","MAREA":" ","LANE":"１１９巷","ALLEY":" ","HOUSE_NO":"３號十三樓之１","E_COORD97":166694.79999999999,"N_COORD97":2539874,"ADDRESS":"明興路１１９巷３號十三樓之１","OBJECTID":242815},"geometry":{"x":166694.79999999981,"y":2539874}},{"attributes":{"ID":242820,"DIS_CODE":0,"TOWNNAME":"南區","LI":"建南里","LIN":"24鄰","STREET":"明興路","SECT":" ","MAREA":" ","LANE":"１１９巷","ALLEY":" ","HOUSE_NO":"３號十三樓之２","E_COORD97":166694.79999999999,"N_COORD97":2539874,"ADDRESS":"明興路１１９巷３號十三樓之２","OBJECTID":242816},"geometry":{"x":166694.79999999981,"y":2539874}},{"attributes":{"ID":242821,"DIS_CODE":0,"TOWNNAME":"永康區","LI":"建國里","LIN":"14鄰","STREET":"復國路","SECT":" ","MAREA":" ","LANE":" ","ALLEY":" ","HOUSE_NO":"８９號六樓之５","E_COORD97":172703.29000000001,"N_COORD97":2544638.3799999999,"ADDRESS":"復國路８９號六樓之５","OBJECTID":242817},"geometry":{"x":172703.29000000004,"y":2544638.3800000008}},{"attributes":{"ID":242822,"DIS_CODE":0,"TOWNNAME":"永康區","LI":"建國里","LIN":"14鄰","STREET":"復國路","SECT":" ","MAREA":" ","LANE":" ","ALLEY":" ","HOUSE_NO":"８９號七樓之１","E_COORD97":172703.29000000001,"N_COORD97":2544638.3799999999,"ADDRESS":"復國路８９號七樓之１","OBJECTID":242818},"geometry":{"x":172703.29000000004,"y":2544638.3800000008}},{"attributes":{"ID":242823,"DIS_CODE":0,"TOWNNAME":"永康區","LI":"建國里","LIN":"14鄰","STREET":"復國路","SECT":" ","MAREA":" ","LANE":" ","ALLEY":" ","HOUSE_NO":"８９號七樓之２","E_COORD97":172703.29000000001,"N_COORD97":2544638.3799999999,"ADDRESS":"復國路８９號七樓之２","OBJECTID":242819},"geometry":{"x":172703.29000000004,"y":2544638.3800000008}},{"attributes":{"ID":242824,"DIS_CODE":0,"TOWNNAME":"永康區","LI":"建國里","LIN":"14鄰","STREET":"復國路","SECT":" ","MAREA":" ","LANE":" ","ALLEY":" ","HOUSE_NO":"８９號七樓之３","E_COORD97":172703.29000000001,"N_COORD97":2544638.3799999999,"ADDRESS":"復國路８９號七樓之３","OBJECTID":242820},"geometry":{"x":172703.29000000004,"y":2544638.3800000008}},{"attributes":{"ID":242825,"DIS_CODE":0,"TOWNNAME":"永康區","LI":"建國里","LIN":"14鄰","STREET":"復國路","SECT":" ","MAREA":" ","LANE":" ","ALLEY":" ","HOUSE_NO":"８９號七樓之５","E_COORD97":172703.29000000001,"N_COORD97":2544638.3799999999,"ADDRESS":"復國路８９號七樓之５","OBJECTID":242821},"geometry":{"x":172703.29000000004,"y":2544638.3800000008}},{"attributes":{"ID":242826,"DIS_CODE":0,"TOWNNAME":"永康區","LI":"建國里","LIN":"14鄰","STREET":"復國路","SECT":" ","MAREA":" ","LANE":" ","ALLEY":" ","HOUSE_NO":"８９號八樓之１","E_COORD97":172703.29000000001,"N_COORD97":2544638.3799999999,"ADDRESS":"復國路８９號八樓之１","OBJECTID":242822},"geometry":{"x":172703.29000000004,"y":2544638.3800000008}},{"attributes":{"ID":242827,"DIS_CODE":0,"TOWNNAME":"永康區","LI":"建國里","LIN":"14鄰","STREET":"復國路","SECT":" ","MAREA":" ","LANE":" ","ALLEY":" ","HOUSE_NO":"８９號八樓之２","E_COORD97":172703.29000000001,"N_COORD97":2544638.3799999999,"ADDRESS":"復國路８９號八樓之２","OBJECTID":242823},"geometry":{"x":172703.29000000004,"y":2544638.3800000008}},{"attributes":{"ID":242828,"DIS_CODE":0,"TOWNNAME":"永康區","LI":"建國里","LIN":"14鄰","STREET":"復國路","SECT":" ","MAREA":" ","LANE":" ","ALLEY":" ","HOUSE_NO":"８９號八樓之３","E_COORD97":172703.29000000001,"N_COORD97":2544638.3799999999,"ADDRESS":"復國路８９號八樓之３","OBJECTID":242824},"geometry":{"x":172703.29000000004,"y":2544638.3800000008}},{"attributes":{"ID":242829,"DIS_CODE":0,"TOWNNAME":"永康區","LI":"建國里","LIN":"14鄰","STREET":"復國路","SECT":" ","MAREA":" ","LANE":" ","ALLEY":" ","HOUSE_NO":"８９號八樓之５","E_COORD97":172703.29000000001,"N_COORD97":2544638.3799999999,"ADDRESS":"復國路８９號八樓之５","OBJECTID":242825},"geometry":{"x":172703.29000000004,"y":2544638.3800000008}},{"attributes":{"ID":242830,"DIS_CODE":0,"TOWNNAME":"永康區","LI":"建國里","LIN":"14鄰","STREET":"復國路","SECT":" ","MAREA":" ","LANE":" ","ALLEY":" ","HOUSE_NO":"８９號九樓之１","E_COORD97":172703.29000000001,"N_COORD97":2544638.3799999999,"ADDRESS":"復國路８９號九樓之１","OBJECTID":242826},"geometry":{"x":172703.29000000004,"y":2544638.3800000008}},{"attributes":{"ID":242831,"DIS_CODE":0,"TOWNNAME":"永康區","LI":"建國里","LIN":"14鄰","STREET":"復國路","SECT":" ","MAREA":" ","LANE":" ","ALLEY":" ","HOUSE_NO":"８９號九樓之２","E_COORD97":172703.29000000001,"N_COORD97":2544638.3799999999,"ADDRESS":"復國路８９號九樓之２","OBJECTID":242827},"geometry":{"x":172703.29000000004,"y":2544638.3800000008}},{"attributes":{"ID":242832,"DIS_CODE":0,"TOWNNAME":"安南區","LI":"州南里","LIN":"16鄰","STREET":"安和路","SECT":"五段","MAREA":" ","LANE":"８１巷","ALLEY":" ","HOUSE_NO":"９號","E_COORD97":169891.45000000001,"N_COORD97":2551660,"ADDRESS":"安和路五段８１巷９號","OBJECTID":242828},"geometry":{"x":169891.45000000019,"y":2551660.0000000019}},{"attributes":{"ID":242833,"DIS_CODE":0,"TOWNNAME":"善化區","LI":"光文里","LIN":"12鄰","STREET":"民生路","SECT":" ","MAREA":" ","LANE":"８６巷","ALLEY":" ","HOUSE_NO":"１號","E_COORD97":178715.37,"N_COORD97":2559029.5800000001,"ADDRESS":"民生路８６巷１號","OBJECTID":242829},"geometry":{"x":178715.37000000011,"y":2559029.5800000038}},{"attributes":{"ID":242834,"DIS_CODE":0,"TOWNNAME":"善化區","LI":"光文里","LIN":"12鄰","STREET":"民生路","SECT":" ","MAREA":" ","LANE":"８６巷","ALLEY":" ","HOUSE_NO":"２號","E_COORD97":178725.62,"N_COORD97":2559030.7400000002,"ADDRESS":"民生路８６巷２號","OBJECTID":242830},"geometry":{"x":178725.62000000011,"y":2559030.7400000002}},{"attributes":{"ID":242835,"DIS_CODE":0,"TOWNNAME":"善化區","LI":"光文里","LIN":"12鄰","STREET":"民生路","SECT":" ","MAREA":" ","LANE":"８６巷","ALLEY":" ","HOUSE_NO":"３號","E_COORD97":178715.04000000001,"N_COORD97":2559033.7400000002,"ADDRESS":"民生路８６巷３號","OBJECTID":242831},"geometry":{"x":178715.04000000097,"y":2559033.7400000021}},{"attributes":{"ID":242836,"DIS_CODE":0,"TOWNNAME":"善化區","LI":"光文里","LIN":"12鄰","STREET":"民生路","SECT":" ","MAREA":" ","LANE":"８６巷","ALLEY":" ","HOUSE_NO":"５號","E_COORD97":178714.70000000001,"N_COORD97":2559038,"ADDRESS":"民生路８６巷５號","OBJECTID":242832},"geometry":{"x":178714.70000000019,"y":2559038.0000000019}},{"attributes":{"ID":242837,"DIS_CODE":0,"TOWNNAME":"善化區","LI":"光文里","LIN":"12鄰","STREET":"民生路","SECT":" ","MAREA":" ","LANE":"８６巷","ALLEY":" ","HOUSE_NO":"６號","E_COORD97":178724.91,"N_COORD97":2559034.98,"ADDRESS":"民生路８６巷６號","OBJECTID":242833},"geometry":{"x":178724.91000000108,"y":2559034.9800000023}},{"attributes":{"ID":242838,"DIS_CODE":0,"TOWNNAME":"善化區","LI":"光文里","LIN":"12鄰","STREET":"民生路","SECT":" ","MAREA":" ","LANE":"８６巷","ALLEY":" ","HOUSE_NO":"８號","E_COORD97":178724.51000000001,"N_COORD97":2559039.3300000001,"ADDRESS":"民生路８６巷８號","OBJECTID":242834},"geometry":{"x":178724.50999999978,"y":2559039.3300000019}},{"attributes":{"ID":242839,"DIS_CODE":0,"TOWNNAME":"南區","LI":"建南里","LIN":"24鄰","STREET":"明興路","SECT":" ","MAREA":" ","LANE":"１１９巷","ALLEY":" ","HOUSE_NO":"３號十三樓之３","E_COORD97":166694.79999999999,"N_COORD97":2539874,"ADDRESS":"明興路１１９巷３號十三樓之３","OBJECTID":242835},"geometry":{"x":166694.79999999981,"y":2539874}},{"attributes":{"ID":242840,"DIS_CODE":0,"TOWNNAME":"南區","LI":"建南里","LIN":"24鄰","STREET":"明興路","SECT":" ","MAREA":" ","LANE":"１１９巷","ALLEY":" ","HOUSE_NO":"３號十三樓之４","E_COORD97":166694.79999999999,"N_COORD97":2539874,"ADDRESS":"明興路１１９巷３號十三樓之４","OBJECTID":242836},"geometry":{"x":166694.79999999981,"y":2539874}},{"attributes":{"ID":242841,"DIS_CODE":0,"TOWNNAME":"南區","LI":"建南里","LIN":"24鄰","STREET":"明興路","SECT":" ","MAREA":" ","LANE":"１１９巷","ALLEY":" ","HOUSE_NO":"３號十五樓之１","E_COORD97":166694.79999999999,"N_COORD97":2539874,"ADDRESS":"明興路１１９巷３號十五樓之１","OBJECTID":242837},"geometry":{"x":166694.79999999981,"y":2539874}},{"attributes":{"ID":242842,"DIS_CODE":0,"TOWNNAME":"南區","LI":"建南里","LIN":"24鄰","STREET":"明興路","SECT":" ","MAREA":" ","LANE":"１１９巷","ALLEY":" ","HOUSE_NO":"３號十五樓之２","E_COORD97":166694.79999999999,"N_COORD97":2539874,"ADDRESS":"明興路１１９巷３號十五樓之２","OBJECTID":242838},"geometry":{"x":166694.79999999981,"y":2539874}},{"attributes":{"ID":242843,"DIS_CODE":0,"TOWNNAME":"南區","LI":"建南里","LIN":"24鄰","STREET":"明興路","SECT":" ","MAREA":" ","LANE":"１１９巷","ALLEY":" ","HOUSE_NO":"３號十五樓之３","E_COORD97":166694.79999999999,"N_COORD97":2539874,"ADDRESS":"明興路１１９巷３號十五樓之３","OBJECTID":242839},"geometry":{"x":166694.79999999981,"y":2539874}},{"attributes":{"ID":242844,"DIS_CODE":0,"TOWNNAME":"南區","LI":"建南里","LIN":"24鄰","STREET":"明興路","SECT":" ","MAREA":" ","LANE":"１１９巷","ALLEY":" ","HOUSE_NO":"３號十五樓之４","E_COORD97":166694.79999999999,"N_COORD97":2539874,"ADDRESS":"明興路１１９巷３號十五樓之４","OBJECTID":242840},"geometry":{"x":166694.79999999981,"y":2539874}},{"attributes":{"ID":242845,"DIS_CODE":0,"TOWNNAME":"南區","LI":"建南里","LIN":"24鄰","STREET":"明興路","SECT":" ","MAREA":" ","LANE":"１１９巷","ALLEY":" ","HOUSE_NO":"３號十四樓之１","E_COORD97":166694.79999999999,"N_COORD97":2539874,"ADDRESS":"明興路１１９巷３號十四樓之１","OBJECTID":242841},"geometry":{"x":166694.79999999981,"y":2539874}},{"attributes":{"ID":242846,"DIS_CODE":0,"TOWNNAME":"南區","LI":"建南里","LIN":"24鄰","STREET":"明興路","SECT":" ","MAREA":" ","LANE":"１１９巷","ALLEY":" ","HOUSE_NO":"３號十四樓之２","E_COORD97":166694.79999999999,"N_COORD97":2539874,"ADDRESS":"明興路１１９巷３號十四樓之２","OBJECTID":242842},"geometry":{"x":166694.79999999981,"y":2539874}},{"attributes":{"ID":242847,"DIS_CODE":0,"TOWNNAME":"南區","LI":"建南里","LIN":"24鄰","STREET":"明興路","SECT":" ","MAREA":" ","LANE":"１１９巷","ALLEY":" ","HOUSE_NO":"３號十四樓之３","E_COORD97":166694.79999999999,"N_COORD97":2539874,"ADDRESS":"明興路１１９巷３號十四樓之３","OBJECTID":242843},"geometry":{"x":166694.79999999981,"y":2539874}},{"attributes":{"ID":242848,"DIS_CODE":0,"TOWNNAME":"東山區","LI":"東正里","LIN":"22鄰","STREET":" ","SECT":" ","MAREA":"東勢","LANE":" ","ALLEY":" ","HOUSE_NO":"１５３號之２","E_COORD97":189407.42999999999,"N_COORD97":2580373.8900000001,"ADDRESS":"東勢１５３號之２","OBJECTID":242844},"geometry":{"x":189407.43000000063,"y":2580373.8900000043}},{"attributes":{"ID":242849,"DIS_CODE":0,"TOWNNAME":"南區","LI":"建南里","LIN":"24鄰","STREET":"明興路","SECT":" ","MAREA":" ","LANE":"１１９巷","ALLEY":" ","HOUSE_NO":"３號十樓之１","E_COORD97":166694.79999999999,"N_COORD97":2539874,"ADDRESS":"明興路１１９巷３號十樓之１","OBJECTID":242845},"geometry":{"x":166694.79999999981,"y":2539874}},{"attributes":{"ID":242850,"DIS_CODE":0,"TOWNNAME":"南區","LI":"建南里","LIN":"24鄰","STREET":"明興路","SECT":" ","MAREA":" ","LANE":"１１９巷","ALLEY":" ","HOUSE_NO":"３號十樓之２","E_COORD97":166694.79999999999,"N_COORD97":2539874,"ADDRESS":"明興路１１９巷３號十樓之２","OBJECTID":242846},"geometry":{"x":166694.79999999981,"y":2539874}},{"attributes":{"ID":242851,"DIS_CODE":0,"TOWNNAME":"南區","LI":"建南里","LIN":"24鄰","STREET":"明興路","SECT":" ","MAREA":" ","LANE":"１１９巷","ALLEY":" ","HOUSE_NO":"３號十樓之３","E_COORD97":166694.79999999999,"N_COORD97":2539874,"ADDRESS":"明興路１１９巷３號十樓之３","OBJECTID":242847},"geometry":{"x":166694.79999999981,"y":2539874}},{"attributes":{"ID":242852,"DIS_CODE":0,"TOWNNAME":"南區","LI":"建南里","LIN":"24鄰","STREET":"明興路","SECT":" ","MAREA":" ","LANE":"１１９巷","ALLEY":" ","HOUSE_NO":"３號十樓之４","E_COORD97":166694.79999999999,"N_COORD97":2539874,"ADDRESS":"明興路１１９巷３號十樓之４","OBJECTID":242848},"geometry":{"x":166694.79999999981,"y":2539874}},{"attributes":{"ID":242853,"DIS_CODE":0,"TOWNNAME":"南區","LI":"建南里","LIN":"24鄰","STREET":"明興路","SECT":" ","MAREA":" ","LANE":"１１９巷","ALLEY":" ","HOUSE_NO":"３號三樓之１","E_COORD97":166694.79999999999,"N_COORD97":2539874,"ADDRESS":"明興路１１９巷３號三樓之１","OBJECTID":242849},"geometry":{"x":166694.79999999981,"y":2539874}},{"attributes":{"ID":242854,"DIS_CODE":0,"TOWNNAME":"南區","LI":"建南里","LIN":"24鄰","STREET":"明興路","SECT":" ","MAREA":" ","LANE":"１１９巷","ALLEY":" ","HOUSE_NO":"３號三樓之２","E_COORD97":166694.79999999999,"N_COORD97":2539874,"ADDRESS":"明興路１１９巷３號三樓之２","OBJECTID":242850},"geometry":{"x":166694.79999999981,"y":2539874}},{"attributes":{"ID":242855,"DIS_CODE":0,"TOWNNAME":"南區","LI":"建南里","LIN":"24鄰","STREET":"明興路","SECT":" ","MAREA":" ","LANE":"１１９巷","ALLEY":" ","HOUSE_NO":"３號三樓之３","E_COORD97":166694.79999999999,"N_COORD97":2539874,"ADDRESS":"明興路１１９巷３號三樓之３","OBJECTID":242851},"geometry":{"x":166694.79999999981,"y":2539874}},{"attributes":{"ID":242856,"DIS_CODE":0,"TOWNNAME":"永康區","LI":"建國里","LIN":"14鄰","STREET":"復國路","SECT":" ","MAREA":" ","LANE":" ","ALLEY":" ","HOUSE_NO":"８９號九樓之３","E_COORD97":172703.29000000001,"N_COORD97":2544638.3799999999,"ADDRESS":"復國路８９號九樓之３","OBJECTID":242852},"geometry":{"x":172703.29000000004,"y":2544638.3800000008}},{"attributes":{"ID":242857,"DIS_CODE":0,"TOWNNAME":"永康區","LI":"建國里","LIN":"14鄰","STREET":"復國路","SECT":" ","MAREA":" ","LANE":" ","ALLEY":" ","HOUSE_NO":"８９號九樓之５","E_COORD97":172703.29000000001,"N_COORD97":2544638.3799999999,"ADDRESS":"復國路８９號九樓之５","OBJECTID":242853},"geometry":{"x":172703.29000000004,"y":2544638.3800000008}},{"attributes":{"ID":242858,"DIS_CODE":0,"TOWNNAME":"永康區","LI":"建國里","LIN":"14鄰","STREET":"復國路","SECT":" ","MAREA":" ","LANE":" ","ALLEY":" ","HOUSE_NO":"８９號十樓之１","E_COORD97":172703.29000000001,"N_COORD97":2544638.3799999999,"ADDRESS":"復國路８９號十樓之１","OBJECTID":242854},"geometry":{"x":172703.29000000004,"y":2544638.3800000008}},{"attributes":{"ID":242859,"DIS_CODE":0,"TOWNNAME":"永康區","LI":"建國里","LIN":"14鄰","STREET":"復國路","SECT":" ","MAREA":" ","LANE":" ","ALLEY":" ","HOUSE_NO":"８９號十樓之２","E_COORD97":172703.29000000001,"N_COORD97":2544638.3799999999,"ADDRESS":"復國路８９號十樓之２","OBJECTID":242855},"geometry":{"x":172703.29000000004,"y":2544638.3800000008}},{"attributes":{"ID":242860,"DIS_CODE":0,"TOWNNAME":"永康區","LI":"建國里","LIN":"14鄰","STREET":"復國路","SECT":" ","MAREA":" ","LANE":" ","ALLEY":" ","HOUSE_NO":"８９號十樓之３","E_COORD97":172703.29000000001,"N_COORD97":2544638.3799999999,"ADDRESS":"復國路８９號十樓之３","OBJECTID":242856},"geometry":{"x":172703.29000000004,"y":2544638.3800000008}},{"attributes":{"ID":242861,"DIS_CODE":0,"TOWNNAME":"永康區","LI":"建國里","LIN":"14鄰","STREET":"復國路","SECT":" ","MAREA":" ","LANE":" ","ALLEY":" ","HOUSE_NO":"８９號十樓之５","E_COORD97":172703.29000000001,"N_COORD97":2544638.3799999999,"ADDRESS":"復國路８９號十樓之５","OBJECTID":242857},"geometry":{"x":172703.29000000004,"y":2544638.3800000008}},{"attributes":{"ID":242862,"DIS_CODE":0,"TOWNNAME":"善化區","LI":"光文里","LIN":"9鄰","STREET":"民生路","SECT":" ","MAREA":" ","LANE":"３６巷","ALLEY":" ","HOUSE_NO":"１０號","E_COORD97":178802.76000000001,"N_COORD97":2559064.1800000002,"ADDRESS":"民生路３６巷１０號","OBJECTID":242858},"geometry":{"x":178802.75999999885,"y":2559064.1799999997}},{"attributes":{"ID":242863,"DIS_CODE":0,"TOWNNAME":"善化區","LI":"光文里","LIN":"9鄰","STREET":"民生路","SECT":" ","MAREA":" ","LANE":"３６巷","ALLEY":" ","HOUSE_NO":"１１號","E_COORD97":178802.31,"N_COORD97":2559069.1899999999,"ADDRESS":"民生路３６巷１１號","OBJECTID":242859},"geometry":{"x":178802.31000000145,"y":2559069.1900000013}},{"attributes":{"ID":242864,"DIS_CODE":0,"TOWNNAME":"南區","LI":"建南里","LIN":"24鄰","STREET":"明興路","SECT":" ","MAREA":" ","LANE":"１１９巷","ALLEY":" ","HOUSE_NO":"３號三樓之４","E_COORD97":166694.79999999999,"N_COORD97":2539874,"ADDRESS":"明興路１１９巷３號三樓之４","OBJECTID":242860},"geometry":{"x":166694.79999999981,"y":2539874}},{"attributes":{"ID":242865,"DIS_CODE":0,"TOWNNAME":"南區","LI":"建南里","LIN":"24鄰","STREET":"明興路","SECT":" ","MAREA":" ","LANE":"１１９巷","ALLEY":" ","HOUSE_NO":"３號五樓之１","E_COORD97":166694.79999999999,"N_COORD97":2539874,"ADDRESS":"明興路１１９巷３號五樓之１","OBJECTID":242861},"geometry":{"x":166694.79999999981,"y":2539874}},{"attributes":{"ID":242866,"DIS_CODE":0,"TOWNNAME":"南區","LI":"建南里","LIN":"24鄰","STREET":"明興路","SECT":" ","MAREA":" ","LANE":"１１９巷","ALLEY":" ","HOUSE_NO":"３號五樓之２","E_COORD97":166694.79999999999,"N_COORD97":2539874,"ADDRESS":"明興路１１９巷３號五樓之２","OBJECTID":242862},"geometry":{"x":166694.79999999981,"y":2539874}},{"attributes":{"ID":242867,"DIS_CODE":0,"TOWNNAME":"南區","LI":"建南里","LIN":"24鄰","STREET":"明興路","SECT":" ","MAREA":" ","LANE":"１１９巷","ALLEY":" ","HOUSE_NO":"３號五樓之３","E_COORD97":166694.79999999999,"N_COORD97":2539874,"ADDRESS":"明興路１１９巷３號五樓之３","OBJECTID":242863},"geometry":{"x":166694.79999999981,"y":2539874}},{"attributes":{"ID":242868,"DIS_CODE":0,"TOWNNAME":"南區","LI":"建南里","LIN":"24鄰","STREET":"明興路","SECT":" ","MAREA":" ","LANE":"１１９巷","ALLEY":" ","HOUSE_NO":"３號五樓之５","E_COORD97":166694.79999999999,"N_COORD97":2539874,"ADDRESS":"明興路１１９巷３號五樓之５","OBJECTID":242864},"geometry":{"x":166694.79999999981,"y":2539874}},{"attributes":{"ID":242869,"DIS_CODE":0,"TOWNNAME":"南區","LI":"建南里","LIN":"24鄰","STREET":"明興路","SECT":" ","MAREA":" ","LANE":"１１９巷","ALLEY":" ","HOUSE_NO":"３號六樓之１","E_COORD97":166694.79999999999,"N_COORD97":2539874,"ADDRESS":"明興路１１９巷３號六樓之１","OBJECTID":242865},"geometry":{"x":166694.79999999981,"y":2539874}},{"attributes":{"ID":242870,"DIS_CODE":0,"TOWNNAME":"南區","LI":"建南里","LIN":"24鄰","STREET":"明興路","SECT":" ","MAREA":" ","LANE":"１１９巷","ALLEY":" ","HOUSE_NO":"３號六樓之２","E_COORD97":166694.79999999999,"N_COORD97":2539874,"ADDRESS":"明興路１１９巷３號六樓之２","OBJECTID":242866},"geometry":{"x":166694.79999999981,"y":2539874}},{"attributes":{"ID":242871,"DIS_CODE":0,"TOWNNAME":"南區","LI":"建南里","LIN":"24鄰","STREET":"明興路","SECT":" ","MAREA":" ","LANE":"１１９巷","ALLEY":" ","HOUSE_NO":"３號六樓之３","E_COORD97":166694.79999999999,"N_COORD97":2539874,"ADDRESS":"明興路１１９巷３號六樓之３","OBJECTID":242867},"geometry":{"x":166694.79999999981,"y":2539874}},{"attributes":{"ID":242872,"DIS_CODE":0,"TOWNNAME":"南區","LI":"建南里","LIN":"24鄰","STREET":"明興路","SECT":" ","MAREA":" ","LANE":"１１９巷","ALLEY":" ","HOUSE_NO":"３號六樓之４","E_COORD97":166694.79999999999,"N_COORD97":2539874,"ADDRESS":"明興路１１９巷３號六樓之４","OBJECTID":242868},"geometry":{"x":166694.79999999981,"y":2539874}},{"attributes":{"ID":242873,"DIS_CODE":0,"TOWNNAME":"南區","LI":"建南里","LIN":"24鄰","STREET":"明興路","SECT":" ","MAREA":" ","LANE":"１１９巷","ALLEY":" ","HOUSE_NO":"３號四樓之１","E_COORD97":166694.79999999999,"N_COORD97":2539874,"ADDRESS":"明興路１１９巷３號四樓之１","OBJECTID":242869},"geometry":{"x":166694.79999999981,"y":2539874}},{"attributes":{"ID":242874,"DIS_CODE":0,"TOWNNAME":"南區","LI":"建南里","LIN":"24鄰","STREET":"明興路","SECT":" ","MAREA":" ","LANE":"１１９巷","ALLEY":" ","HOUSE_NO":"３號四樓之２","E_COORD97":166694.79999999999,"N_COORD97":2539874,"ADDRESS":"明興路１１９巷３號四樓之２","OBJECTID":242870},"geometry":{"x":166694.79999999981,"y":2539874}},{"attributes":{"ID":242875,"DIS_CODE":0,"TOWNNAME":"南區","LI":"建南里","LIN":"24鄰","STREET":"明興路","SECT":" ","MAREA":" ","LANE":"１１９巷","ALLEY":" ","HOUSE_NO":"３號四樓之３","E_COORD97":166694.79999999999,"N_COORD97":2539874,"ADDRESS":"明興路１１９巷３號四樓之３","OBJECTID":242871},"geometry":{"x":166694.79999999981,"y":2539874}},{"attributes":{"ID":242876,"DIS_CODE":0,"TOWNNAME":"南區","LI":"建南里","LIN":"24鄰","STREET":"明興路","SECT":" ","MAREA":" ","LANE":"１１９巷","ALLEY":" ","HOUSE_NO":"３號四樓之５","E_COORD97":166694.79999999999,"N_COORD97":2539874,"ADDRESS":"明興路１１９巷３號四樓之５","OBJECTID":242872},"geometry":{"x":166694.79999999981,"y":2539874}},{"attributes":{"ID":242877,"DIS_CODE":0,"TOWNNAME":"北區","LI":"重興里","LIN":"24鄰","STREET":"東豐路","SECT":" ","MAREA":" ","LANE":"４５１巷","ALLEY":" ","HOUSE_NO":"３１號二樓","E_COORD97":170806.60999999999,"N_COORD97":2544794.3300000001,"ADDRESS":"東豐路４５１巷３１號二樓","OBJECTID":242873},"geometry":{"x":170806.6100000022,"y":2544794.3300000001}},{"attributes":{"ID":242878,"DIS_CODE":0,"TOWNNAME":"北區","LI":"重興里","LIN":"24鄰","STREET":"東豐路","SECT":" ","MAREA":" ","LANE":"４５１巷","ALLEY":" ","HOUSE_NO":"３１號三樓","E_COORD97":170806.60999999999,"N_COORD97":2544794.3300000001,"ADDRESS":"東豐路４５１巷３１號三樓","OBJECTID":242874},"geometry":{"x":170806.6100000022,"y":2544794.3300000001}},{"attributes":{"ID":242879,"DIS_CODE":0,"TOWNNAME":"北區","LI":"重興里","LIN":"24鄰","STREET":"東豐路","SECT":" ","MAREA":" ","LANE":"４５１巷","ALLEY":" ","HOUSE_NO":"３１號四樓","E_COORD97":170806.60999999999,"N_COORD97":2544794.3300000001,"ADDRESS":"東豐路４５１巷３１號四樓","OBJECTID":242875},"geometry":{"x":170806.6100000022,"y":2544794.3300000001}},{"attributes":{"ID":242880,"DIS_CODE":0,"TOWNNAME":"北區","LI":"重興里","LIN":"24鄰","STREET":"東豐路","SECT":" ","MAREA":" ","LANE":"４５１巷","ALLEY":" ","HOUSE_NO":"３３號二樓","E_COORD97":170813.75,"N_COORD97":2544803.6699999999,"ADDRESS":"東豐路４５１巷３３號二樓","OBJECTID":242876},"geometry":{"x":170813.75000000186,"y":2544803.6700000018}},{"attributes":{"ID":242881,"DIS_CODE":0,"TOWNNAME":"北區","LI":"重興里","LIN":"24鄰","STREET":"東豐路","SECT":" ","MAREA":" ","LANE":"４５１巷","ALLEY":" ","HOUSE_NO":"３３號三樓","E_COORD97":170813.75,"N_COORD97":2544803.6699999999,"ADDRESS":"東豐路４５１巷３３號三樓","OBJECTID":242877},"geometry":{"x":170813.75000000186,"y":2544803.6700000018}},{"attributes":{"ID":242882,"DIS_CODE":0,"TOWNNAME":"北區","LI":"重興里","LIN":"24鄰","STREET":"東豐路","SECT":" ","MAREA":" ","LANE":"４５１巷","ALLEY":" ","HOUSE_NO":"３３號四樓","E_COORD97":170813.75,"N_COORD97":2544803.6699999999,"ADDRESS":"東豐路４５１巷３３號四樓","OBJECTID":242878},"geometry":{"x":170813.75000000186,"y":2544803.6700000018}},{"attributes":{"ID":242883,"DIS_CODE":0,"TOWNNAME":"北區","LI":"重興里","LIN":"24鄰","STREET":"東豐路","SECT":" ","MAREA":" ","LANE":"４５１巷","ALLEY":" ","HOUSE_NO":"３５號二樓","E_COORD97":170818.94,"N_COORD97":2544811.73,"ADDRESS":"東豐路４５１巷３５號二樓","OBJECTID":242879},"geometry":{"x":170818.94000000041,"y":2544811.7300000004}},{"attributes":{"ID":242884,"DIS_CODE":0,"TOWNNAME":"北區","LI":"重興里","LIN":"24鄰","STREET":"東豐路","SECT":" ","MAREA":" ","LANE":"４５１巷","ALLEY":" ","HOUSE_NO":"３５號三樓","E_COORD97":170818.94,"N_COORD97":2544811.73,"ADDRESS":"東豐路４５１巷３５號三樓","OBJECTID":242880},"geometry":{"x":170818.94000000041,"y":2544811.7300000004}},{"attributes":{"ID":242885,"DIS_CODE":0,"TOWNNAME":"北區","LI":"重興里","LIN":"24鄰","STREET":"東豐路","SECT":" ","MAREA":" ","LANE":"４５１巷","ALLEY":" ","HOUSE_NO":"３５號四樓","E_COORD97":170818.94,"N_COORD97":2544811.73,"ADDRESS":"東豐路４５１巷３５號四樓","OBJECTID":242881},"geometry":{"x":170818.94000000041,"y":2544811.7300000004}},{"attributes":{"ID":242886,"DIS_CODE":0,"TOWNNAME":"下營區","LI":"紅厝里","LIN":"16鄰","STREET":" ","SECT":" ","MAREA":"紅毛厝","LANE":" ","ALLEY":" ","HOUSE_NO":"１２１號","E_COORD97":175084.67000000001,"N_COORD97":2571391.4199999999,"ADDRESS":"紅毛厝１２１號","OBJECTID":242882},"geometry":{"x":175084.67000000086,"y":2571391.4199999999}},{"attributes":{"ID":242887,"DIS_CODE":0,"TOWNNAME":"北區","LI":"重興里","LIN":"24鄰","STREET":"東豐路","SECT":" ","MAREA":" ","LANE":"４５１巷","ALLEY":" ","HOUSE_NO":"３７號二樓","E_COORD97":170823.17999999999,"N_COORD97":2544818.8399999999,"ADDRESS":"東豐路４５１巷３７號二樓","OBJECTID":242883},"geometry":{"x":170823.18000000063,"y":2544818.8400000017}},{"attributes":{"ID":242888,"DIS_CODE":0,"TOWNNAME":"北區","LI":"重興里","LIN":"24鄰","STREET":"東豐路","SECT":" ","MAREA":" ","LANE":"４５１巷","ALLEY":" ","HOUSE_NO":"３７號三樓","E_COORD97":170823.17999999999,"N_COORD97":2544818.8399999999,"ADDRESS":"東豐路４５１巷３７號三樓","OBJECTID":242884},"geometry":{"x":170823.18000000063,"y":2544818.8400000017}},{"attributes":{"ID":242889,"DIS_CODE":0,"TOWNNAME":"北區","LI":"重興里","LIN":"24鄰","STREET":"東豐路","SECT":" ","MAREA":" ","LANE":"４５１巷","ALLEY":" ","HOUSE_NO":"３７號四樓","E_COORD97":170823.17999999999,"N_COORD97":2544818.8399999999,"ADDRESS":"東豐路４５１巷３７號四樓","OBJECTID":242885},"geometry":{"x":170823.18000000063,"y":2544818.8400000017}},{"attributes":{"ID":242890,"DIS_CODE":0,"TOWNNAME":"永康區","LI":"建國里","LIN":"14鄰","STREET":"復國路","SECT":" ","MAREA":" ","LANE":" ","ALLEY":" ","HOUSE_NO":"８９號十一樓之１","E_COORD97":172703.29000000001,"N_COORD97":2544638.3799999999,"ADDRESS":"復國路８９號十一樓之１","OBJECTID":242886},"geometry":{"x":172703.29000000004,"y":2544638.3800000008}},{"attributes":{"ID":242891,"DIS_CODE":0,"TOWNNAME":"永康區","LI":"建國里","LIN":"14鄰","STREET":"復國路","SECT":" ","MAREA":" ","LANE":" ","ALLEY":" ","HOUSE_NO":"８９號十一樓之２","E_COORD97":172703.29000000001,"N_COORD97":2544638.3799999999,"ADDRESS":"復國路８９號十一樓之２","OBJECTID":242887},"geometry":{"x":172703.29000000004,"y":2544638.3800000008}},{"attributes":{"ID":242892,"DIS_CODE":0,"TOWNNAME":"安南區","LI":"海南里","LIN":"16鄰","STREET":"府安路","SECT":"七段","MAREA":" ","LANE":"９３巷","ALLEY":" ","HOUSE_NO":"１４號","E_COORD97":165798.79999999999,"N_COORD97":2545879.3300000001,"ADDRESS":"府安路七段９３巷１４號","OBJECTID":242888},"geometry":{"x":165798.80000000168,"y":2545879.3300000001}},{"attributes":{"ID":242893,"DIS_CODE":0,"TOWNNAME":"安南區","LI":"城南里","LIN":"16鄰","STREET":"青砂街","SECT":"一段","MAREA":" ","LANE":"６５巷","ALLEY":" ","HOUSE_NO":"６２號之４","E_COORD97":160435.13,"N_COORD97":2551630.9199999999,"ADDRESS":"青砂街一段６５巷６２號之４","OBJECTID":242889},"geometry":{"x":160435.13000000082,"y":2551630.9200000018}},{"attributes":{"ID":242894,"DIS_CODE":0,"TOWNNAME":"安南區","LI":"安西里","LIN":"16鄰","STREET":"安和路","SECT":"一段","MAREA":" ","LANE":"４５９巷","ALLEY":" ","HOUSE_NO":"１７號","E_COORD97":169314.92999999999,"N_COORD97":2548486.9199999999,"ADDRESS":"安和路一段４５９巷１７號","OBJECTID":242890},"geometry":{"x":169314.9299999997,"y":2548486.9200000018}},{"attributes":{"ID":242895,"DIS_CODE":0,"TOWNNAME":"中西區","LI":"三合里","LIN":"16鄰","STREET":"文賢路","SECT":" ","MAREA":" ","LANE":"１１０巷","ALLEY":" ","HOUSE_NO":"１０號","E_COORD97":167466.07999999999,"N_COORD97":2544658.6299999999,"ADDRESS":"文賢路１１０巷１０號","OBJECTID":242891},"geometry":{"x":167466.08000000101,"y":2544658.629999999}},{"attributes":{"ID":242896,"DIS_CODE":0,"TOWNNAME":"中西區","LI":"三合里","LIN":"16鄰","STREET":"文賢路","SECT":" ","MAREA":" ","LANE":"１１０巷","ALLEY":" ","HOUSE_NO":"２號","E_COORD97":167447.66,"N_COORD97":2544661.7000000002,"ADDRESS":"文賢路１１０巷２號","OBJECTID":242892},"geometry":{"x":167447.66000000015,"y":2544661.6999999993}},{"attributes":{"ID":242897,"DIS_CODE":0,"TOWNNAME":"中西區","LI":"三合里","LIN":"16鄰","STREET":"文賢路","SECT":" ","MAREA":" ","LANE":"１１０巷","ALLEY":" ","HOUSE_NO":"４號","E_COORD97":167452.01000000001,"N_COORD97":2544659.9100000001,"ADDRESS":"文賢路１１０巷４號","OBJECTID":242893},"geometry":{"x":167452.01000000071,"y":2544659.910000002}},{"attributes":{"ID":242898,"DIS_CODE":0,"TOWNNAME":"中西區","LI":"三合里","LIN":"16鄰","STREET":"文賢路","SECT":" ","MAREA":" ","LANE":"１１０巷","ALLEY":" ","HOUSE_NO":"６號","E_COORD97":167455.47,"N_COORD97":2544655.1299999999,"ADDRESS":"文賢路１１０巷６號","OBJECTID":242894},"geometry":{"x":167455.4700000016,"y":2544655.129999999}},{"attributes":{"ID":242899,"DIS_CODE":0,"TOWNNAME":"中西區","LI":"三合里","LIN":"16鄰","STREET":"文賢路","SECT":" ","MAREA":" ","LANE":"１１０巷","ALLEY":" ","HOUSE_NO":"８號","E_COORD97":167463.78,"N_COORD97":2544664,"ADDRESS":"文賢路１１０巷８號","OBJECTID":242895},"geometry":{"x":167463.78000000026,"y":2544664}},{"attributes":{"ID":242900,"DIS_CODE":0,"TOWNNAME":"安南區","LI":"頂安里","LIN":"16鄰","STREET":"安中路","SECT":"一段","MAREA":" ","LANE":" ","ALLEY":" ","HOUSE_NO":"２２２號之１","E_COORD97":168680.95999999999,"N_COORD97":2548570.2400000002,"ADDRESS":"安中路一段２２２號之１","OBJECTID":242896},"geometry":{"x":168680.95999999996,"y":2548570.2400000021}},{"attributes":{"ID":242901,"DIS_CODE":0,"TOWNNAME":"安南區","LI":"頂安里","LIN":"16鄰","STREET":"安中路","SECT":"一段","MAREA":" ","LANE":" ","ALLEY":" ","HOUSE_NO":"２２２號之１０","E_COORD97":168646.14999999999,"N_COORD97":2548592.3199999998,"ADDRESS":"安中路一段２２２號之１０","OBJECTID":242897},"geometry":{"x":168646.15000000037,"y":2548592.3200000003}},{"attributes":{"ID":242902,"DIS_CODE":0,"TOWNNAME":"安南區","LI":"頂安里","LIN":"16鄰","STREET":"安中路","SECT":"一段","MAREA":" ","LANE":" ","ALLEY":" ","HOUSE_NO":"２２２號之１１","E_COORD97":168642.32999999999,"N_COORD97":2548594.23,"ADDRESS":"安中路一段２２２號之１１","OBJECTID":242898},"geometry":{"x":168642.33000000101,"y":2548594.2300000023}},{"attributes":{"ID":242903,"DIS_CODE":0,"TOWNNAME":"安南區","LI":"頂安里","LIN":"16鄰","STREET":"安中路","SECT":"一段","MAREA":" ","LANE":" ","ALLEY":" ","HOUSE_NO":"２８０號","E_COORD97":168637.69,"N_COORD97":2548598.3199999998,"ADDRESS":"安中路一段２８０號","OBJECTID":242899},"geometry":{"x":168637.69000000041,"y":2548598.3200000003}},{"attributes":{"ID":242904,"DIS_CODE":0,"TOWNNAME":"安南區","LI":"頂安里","LIN":"16鄰","STREET":"安中路","SECT":"一段","MAREA":" ","LANE":" ","ALLEY":" ","HOUSE_NO":"２２２號之２","E_COORD97":168677.01999999999,"N_COORD97":2548572.71,"ADDRESS":"安中路一段２２２號之２","OBJECTID":242900},"geometry":{"x":168677.01999999955,"y":2548572.7100000009}},{"attributes":{"ID":242905,"DIS_CODE":0,"TOWNNAME":"安南區","LI":"頂安里","LIN":"16鄰","STREET":"安中路","SECT":"一段","MAREA":" ","LANE":" ","ALLEY":" ","HOUSE_NO":"２２２號之３","E_COORD97":168673.07999999999,"N_COORD97":2548574.6800000002,"ADDRESS":"安中路一段２２２號之３","OBJECTID":242901},"geometry":{"x":168673.08000000101,"y":2548574.6799999997}},{"attributes":{"ID":242906,"DIS_CODE":0,"TOWNNAME":"安南區","LI":"頂安里","LIN":"16鄰","STREET":"安中路","SECT":"一段","MAREA":" ","LANE":" ","ALLEY":" ","HOUSE_NO":"２２２號之４","E_COORD97":168669.14000000001,"N_COORD97":2548577.1400000001,"ADDRESS":"安中路一段２２２號之４","OBJECTID":242902},"geometry":{"x":168669.13999999966,"y":2548577.1400000043}},{"attributes":{"ID":242907,"DIS_CODE":0,"TOWNNAME":"安南區","LI":"頂安里","LIN":"16鄰","STREET":"安中路","SECT":"一段","MAREA":" ","LANE":" ","ALLEY":" ","HOUSE_NO":"２２２號之５","E_COORD97":168665.44,"N_COORD97":2548579.8399999999,"ADDRESS":"安中路一段２２２號之５","OBJECTID":242903},"geometry":{"x":168665.44000000134,"y":2548579.8400000017}},{"attributes":{"ID":242908,"DIS_CODE":0,"TOWNNAME":"中西區","LI":"三合里","LIN":"16鄰","STREET":"文賢路","SECT":" ","MAREA":" ","LANE":" ","ALLEY":" ","HOUSE_NO":"１０８號","E_COORD97":167437.38,"N_COORD97":2544671.75,"ADDRESS":"文賢路１０８號","OBJECTID":242904},"geometry":{"x":167437.37999999989,"y":2544671.7500000019}},{"attributes":{"ID":242909,"DIS_CODE":0,"TOWNNAME":"北區","LI":"重興里","LIN":"24鄰","STREET":"東豐路","SECT":" ","MAREA":" ","LANE":"４５１巷","ALLEY":" ","HOUSE_NO":"３９號二樓","E_COORD97":170828.17999999999,"N_COORD97":2544826.1400000001,"ADDRESS":"東豐路４５１巷３９號二樓","OBJECTID":242905},"geometry":{"x":170828.18000000063,"y":2544826.1400000006}},{"attributes":{"ID":242910,"DIS_CODE":0,"TOWNNAME":"北區","LI":"重興里","LIN":"24鄰","STREET":"東豐路","SECT":" ","MAREA":" ","LANE":"４５１巷","ALLEY":" ","HOUSE_NO":"３９號三樓","E_COORD97":170828.17999999999,"N_COORD97":2544826.1400000001,"ADDRESS":"東豐路４５１巷３９號三樓","OBJECTID":242906},"geometry":{"x":170828.18000000063,"y":2544826.1400000006}},{"attributes":{"ID":242911,"DIS_CODE":0,"TOWNNAME":"北區","LI":"重興里","LIN":"24鄰","STREET":"東豐路","SECT":" ","MAREA":" ","LANE":"４５１巷","ALLEY":" ","HOUSE_NO":"３９號四樓","E_COORD97":170828.17999999999,"N_COORD97":2544826.1400000001,"ADDRESS":"東豐路４５１巷３９號四樓","OBJECTID":242907},"geometry":{"x":170828.18000000063,"y":2544826.1400000006}},{"attributes":{"ID":242912,"DIS_CODE":0,"TOWNNAME":"北區","LI":"重興里","LIN":"24鄰","STREET":"東豐路","SECT":" ","MAREA":" ","LANE":"４５１巷","ALLEY":" ","HOUSE_NO":"４１號二樓","E_COORD97":170832.03,"N_COORD97":2544834.02,"ADDRESS":"東豐路４５１巷４１號二樓","OBJECTID":242908},"geometry":{"x":170832.03000000026,"y":2544834.0200000033}},{"attributes":{"ID":242913,"DIS_CODE":0,"TOWNNAME":"北區","LI":"重興里","LIN":"24鄰","STREET":"東豐路","SECT":" ","MAREA":" ","LANE":"４５１巷","ALLEY":" ","HOUSE_NO":"４１號三樓","E_COORD97":170832.03,"N_COORD97":2544834.02,"ADDRESS":"東豐路４５１巷４１號三樓","OBJECTID":242909},"geometry":{"x":170832.03000000026,"y":2544834.0200000033}},{"attributes":{"ID":242914,"DIS_CODE":0,"TOWNNAME":"北區","LI":"重興里","LIN":"24鄰","STREET":"東豐路","SECT":" ","MAREA":" ","LANE":"４５１巷","ALLEY":" ","HOUSE_NO":"４１號四樓","E_COORD97":170832.03,"N_COORD97":2544834.02,"ADDRESS":"東豐路４５１巷４１號四樓","OBJECTID":242910},"geometry":{"x":170832.03000000026,"y":2544834.0200000033}},{"attributes":{"ID":242915,"DIS_CODE":0,"TOWNNAME":"北區","LI":"重興里","LIN":"24鄰","STREET":"東豐路","SECT":" ","MAREA":" ","LANE":"４５１巷","ALLEY":" ","HOUSE_NO":"４３號二樓","E_COORD97":170836.29999999999,"N_COORD97":2544841.5099999998,"ADDRESS":"東豐路４５１巷４３號二樓","OBJECTID":242911},"geometry":{"x":170836.29999999981,"y":2544841.5100000016}},{"attributes":{"ID":242916,"DIS_CODE":0,"TOWNNAME":"佳里區","LI":"佳化里","LIN":"16鄰","STREET":" ","SECT":" ","MAREA":"佳里興","LANE":" ","ALLEY":" ","HOUSE_NO":"１５５號之１","E_COORD97":167296.88,"N_COORD97":2565107.4500000002,"ADDRESS":"佳里興１５５號之１","OBJECTID":242912},"geometry":{"x":167296.88000000175,"y":2565107.4499999993}},{"attributes":{"ID":242917,"DIS_CODE":0,"TOWNNAME":"佳里區","LI":"佳化里","LIN":"16鄰","STREET":" ","SECT":" ","MAREA":"佳里興","LANE":" ","ALLEY":" ","HOUSE_NO":"１５５號之２","E_COORD97":167294.45999999999,"N_COORD97":2565113.2200000002,"ADDRESS":"佳里興１５５號之２","OBJECTID":242913},"geometry":{"x":167294.45999999996,"y":2565113.2200000025}},{"attributes":{"ID":242918,"DIS_CODE":0,"TOWNNAME":"下營區","LI":"紅厝里","LIN":"16鄰","STREET":" ","SECT":" ","MAREA":"紅毛厝","LANE":" ","ALLEY":" ","HOUSE_NO":"１２２號","E_COORD97":175095.23999999999,"N_COORD97":2571381.5,"ADDRESS":"紅毛厝１２２號","OBJECTID":242914},"geometry":{"x":175095.24000000022,"y":2571381.5000000019}},{"attributes":{"ID":242919,"DIS_CODE":0,"TOWNNAME":"佳里區","LI":"佳化里","LIN":"16鄰","STREET":" ","SECT":" ","MAREA":"佳里興","LANE":" ","ALLEY":" ","HOUSE_NO":"１５５號之５","E_COORD97":167297.69,"N_COORD97":2565092.9100000001,"ADDRESS":"佳里興１５５號之５","OBJECTID":242915},"geometry":{"x":167297.69000000134,"y":2565092.9100000039}},{"attributes":{"ID":242920,"DIS_CODE":0,"TOWNNAME":"佳里區","LI":"佳化里","LIN":"16鄰","STREET":" ","SECT":" ","MAREA":"佳里興","LANE":" ","ALLEY":" ","HOUSE_NO":"１５５號","E_COORD97":167306.94,"N_COORD97":2565099.3399999999,"ADDRESS":"佳里興１５５號","OBJECTID":242916},"geometry":{"x":167306.94000000041,"y":2565099.3399999999}},{"attributes":{"ID":242921,"DIS_CODE":0,"TOWNNAME":"佳里區","LI":"佳化里","LIN":"16鄰","STREET":" ","SECT":" ","MAREA":"佳里興","LANE":" ","ALLEY":" ","HOUSE_NO":"１５６號","E_COORD97":167321.04000000001,"N_COORD97":2565125.7200000002,"ADDRESS":"佳里興１５６號","OBJECTID":242917},"geometry":{"x":167321.04000000004,"y":2565125.7200000025}},{"attributes":{"ID":242922,"DIS_CODE":0,"TOWNNAME":"佳里區","LI":"佳化里","LIN":"16鄰","STREET":" ","SECT":" ","MAREA":"佳里興","LANE":" ","ALLEY":" ","HOUSE_NO":"１５７號","E_COORD97":167321.16,"N_COORD97":2565143.9199999999,"ADDRESS":"佳里興１５７號","OBJECTID":242918},"geometry":{"x":167321.16000000108,"y":2565143.9200000018}},{"attributes":{"ID":242923,"DIS_CODE":0,"TOWNNAME":"佳里區","LI":"佳化里","LIN":"16鄰","STREET":" ","SECT":" ","MAREA":"佳里興","LANE":" ","ALLEY":" ","HOUSE_NO":"１５８號之１","E_COORD97":167348.89000000001,"N_COORD97":2565180.5899999999,"ADDRESS":"佳里興１５８號之１","OBJECTID":242919},"geometry":{"x":167348.88999999966,"y":2565180.5900000017}},{"attributes":{"ID":242924,"DIS_CODE":0,"TOWNNAME":"佳里區","LI":"佳化里","LIN":"16鄰","STREET":" ","SECT":" ","MAREA":"佳里興","LANE":" ","ALLEY":" ","HOUSE_NO":"１５８號之２","E_COORD97":167344.92999999999,"N_COORD97":2565158.6899999999,"ADDRESS":"佳里興１５８號之２","OBJECTID":242920},"geometry":{"x":167344.9299999997,"y":2565158.6900000013}},{"attributes":{"ID":242925,"DIS_CODE":0,"TOWNNAME":"佳里區","LI":"佳化里","LIN":"16鄰","STREET":" ","SECT":" ","MAREA":"佳里興","LANE":" ","ALLEY":" ","HOUSE_NO":"１５８號","E_COORD97":167325.07999999999,"N_COORD97":2565161.5899999999,"ADDRESS":"佳里興１５８號","OBJECTID":242921},"geometry":{"x":167325.08000000101,"y":2565161.5899999999}},{"attributes":{"ID":242926,"DIS_CODE":0,"TOWNNAME":"佳里區","LI":"佳化里","LIN":"16鄰","STREET":" ","SECT":" ","MAREA":"佳里興","LANE":" ","ALLEY":" ","HOUSE_NO":"１５９號之１３","E_COORD97":167329.67999999999,"N_COORD97":2565209.8199999998,"ADDRESS":"佳里興１５９號之１３","OBJECTID":242922},"geometry":{"x":167329.6799999997,"y":2565209.8200000022}},{"attributes":{"ID":242927,"DIS_CODE":0,"TOWNNAME":"佳里區","LI":"佳化里","LIN":"16鄰","STREET":" ","SECT":" ","MAREA":"佳里興","LANE":" ","ALLEY":" ","HOUSE_NO":"１５９號之１","E_COORD97":167344.19,"N_COORD97":2565209.1299999999,"ADDRESS":"佳里興１５９號之１","OBJECTID":242923},"geometry":{"x":167344.19000000041,"y":2565209.1300000008}},{"attributes":{"ID":242928,"DIS_CODE":0,"TOWNNAME":"佳里區","LI":"佳化里","LIN":"16鄰","STREET":" ","SECT":" ","MAREA":"佳里興","LANE":" ","ALLEY":" ","HOUSE_NO":"１５９號之２","E_COORD97":167356.19,"N_COORD97":2565208.9700000002,"ADDRESS":"佳里興１５９號之２","OBJECTID":242924},"geometry":{"x":167356.19000000041,"y":2565208.9700000025}},{"attributes":{"ID":242929,"DIS_CODE":0,"TOWNNAME":"佳里區","LI":"佳化里","LIN":"16鄰","STREET":" ","SECT":" ","MAREA":"佳里興","LANE":" ","ALLEY":" ","HOUSE_NO":"１５９號之３","E_COORD97":167361.44,"N_COORD97":2565208.2799999998,"ADDRESS":"佳里興１５９號之３","OBJECTID":242925},"geometry":{"x":167361.44000000227,"y":2565208.2800000031}},{"attributes":{"ID":242930,"DIS_CODE":0,"TOWNNAME":"佳里區","LI":"佳化里","LIN":"16鄰","STREET":" ","SECT":" ","MAREA":"佳里興","LANE":" ","ALLEY":" ","HOUSE_NO":"１５９號","E_COORD97":167319.85999999999,"N_COORD97":2565206.3700000001,"ADDRESS":"佳里興１５９號","OBJECTID":242926},"geometry":{"x":167319.86000000127,"y":2565206.3700000029}},{"attributes":{"ID":242931,"DIS_CODE":0,"TOWNNAME":"佳里區","LI":"興化里","LIN":"16鄰","STREET":" ","SECT":" ","MAREA":"佳里興","LANE":" ","ALLEY":" ","HOUSE_NO":"５７５號之１","E_COORD97":166468.29999999999,"N_COORD97":2564850.21,"ADDRESS":"佳里興５７５號之１","OBJECTID":242927},"geometry":{"x":166468.29999999888,"y":2564850.2100000009}},{"attributes":{"ID":242932,"DIS_CODE":0,"TOWNNAME":"佳里區","LI":"興化里","LIN":"16鄰","STREET":" ","SECT":" ","MAREA":"佳里興","LANE":" ","ALLEY":" ","HOUSE_NO":"６０６號","E_COORD97":166425.75,"N_COORD97":2564637.8199999998,"ADDRESS":"佳里興６０６號","OBJECTID":242928},"geometry":{"x":166425.75,"y":2564637.8200000003}},{"attributes":{"ID":242933,"DIS_CODE":0,"TOWNNAME":"佳里區","LI":"興化里","LIN":"16鄰","STREET":" ","SECT":" ","MAREA":"佳里興","LANE":" ","ALLEY":" ","HOUSE_NO":"５６０號","E_COORD97":166551.10000000001,"N_COORD97":2565371.6699999999,"ADDRESS":"佳里興５６０號","OBJECTID":242929},"geometry":{"x":166551.10000000056,"y":2565371.6699999999}},{"attributes":{"ID":242934,"DIS_CODE":0,"TOWNNAME":"佳里區","LI":"興化里","LIN":"16鄰","STREET":" ","SECT":" ","MAREA":"佳里興","LANE":" ","ALLEY":" ","HOUSE_NO":"５６３號之１","E_COORD97":166533.51999999999,"N_COORD97":2565367.8199999998,"ADDRESS":"佳里興５６３號之１","OBJECTID":242930},"geometry":{"x":166533.52000000048,"y":2565367.8200000003}},{"attributes":{"ID":242935,"DIS_CODE":0,"TOWNNAME":"佳里區","LI":"興化里","LIN":"16鄰","STREET":" ","SECT":" ","MAREA":"佳里興","LANE":" ","ALLEY":" ","HOUSE_NO":"５６４號","E_COORD97":166557.13,"N_COORD97":2565344.8199999998,"ADDRESS":"佳里興５６４號","OBJECTID":242931},"geometry":{"x":166557.12999999989,"y":2565344.8200000022}},{"attributes":{"ID":242936,"DIS_CODE":0,"TOWNNAME":"北區","LI":"重興里","LIN":"24鄰","STREET":"東豐路","SECT":" ","MAREA":" ","LANE":"４５１巷","ALLEY":" ","HOUSE_NO":"４３號三樓","E_COORD97":170836.29999999999,"N_COORD97":2544841.5099999998,"ADDRESS":"東豐路４５１巷４３號三樓","OBJECTID":242932},"geometry":{"x":170836.29999999981,"y":2544841.5100000016}},{"attributes":{"ID":242937,"DIS_CODE":0,"TOWNNAME":"北區","LI":"重興里","LIN":"24鄰","STREET":"東豐路","SECT":" ","MAREA":" ","LANE":"４５１巷","ALLEY":" ","HOUSE_NO":"４３號四樓","E_COORD97":170836.29999999999,"N_COORD97":2544841.5099999998,"ADDRESS":"東豐路４５１巷４３號四樓","OBJECTID":242933},"geometry":{"x":170836.29999999981,"y":2544841.5100000016}},{"attributes":{"ID":242938,"DIS_CODE":0,"TOWNNAME":"佳里區","LI":"興化里","LIN":"16鄰","STREET":" ","SECT":" ","MAREA":"佳里興","LANE":" ","ALLEY":" ","HOUSE_NO":"５６５號","E_COORD97":166518.29000000001,"N_COORD97":2565336.7400000002,"ADDRESS":"佳里興５６５號","OBJECTID":242934},"geometry":{"x":166518.29000000097,"y":2565336.7400000002}},{"attributes":{"ID":242939,"DIS_CODE":0,"TOWNNAME":"佳里區","LI":"興化里","LIN":"16鄰","STREET":" ","SECT":" ","MAREA":"佳里興","LANE":" ","ALLEY":" ","HOUSE_NO":"５６６號","E_COORD97":166561.67999999999,"N_COORD97":2565308.6299999999,"ADDRESS":"佳里興５６６號","OBJECTID":242935},"geometry":{"x":166561.6799999997,"y":2565308.6300000008}},{"attributes":{"ID":242940,"DIS_CODE":0,"TOWNNAME":"北區","LI":"重興里","LIN":"24鄰","STREET":"東豐路","SECT":" ","MAREA":" ","LANE":"４５１巷","ALLEY":" ","HOUSE_NO":"６１號二樓","E_COORD97":170798.29000000001,"N_COORD97":2544813.6699999999,"ADDRESS":"東豐路４５１巷６１號二樓","OBJECTID":242936},"geometry":{"x":170798.2900000019,"y":2544813.6700000018}},{"attributes":{"ID":242941,"DIS_CODE":0,"TOWNNAME":"北區","LI":"重興里","LIN":"24鄰","STREET":"東豐路","SECT":" ","MAREA":" ","LANE":"４５１巷","ALLEY":" ","HOUSE_NO":"６１號三樓","E_COORD97":170798.29000000001,"N_COORD97":2544813.6699999999,"ADDRESS":"東豐路４５１巷６１號三樓","OBJECTID":242937},"geometry":{"x":170798.2900000019,"y":2544813.6700000018}},{"attributes":{"ID":242942,"DIS_CODE":0,"TOWNNAME":"佳里區","LI":"興化里","LIN":"16鄰","STREET":" ","SECT":" ","MAREA":"佳里興","LANE":" ","ALLEY":" ","HOUSE_NO":"５６７號","E_COORD97":166542.48000000001,"N_COORD97":2565318.3199999998,"ADDRESS":"佳里興５６７號","OBJECTID":242938},"geometry":{"x":166542.48000000231,"y":2565318.3200000022}},{"attributes":{"ID":242943,"DIS_CODE":0,"TOWNNAME":"佳里區","LI":"興化里","LIN":"16鄰","STREET":" ","SECT":" ","MAREA":"佳里興","LANE":" ","ALLEY":" ","HOUSE_NO":"５６８號之１","E_COORD97":166477.29000000001,"N_COORD97":2565333.6499999999,"ADDRESS":"佳里興５６８號之１","OBJECTID":242939},"geometry":{"x":166477.2900000019,"y":2565333.6500000022}},{"attributes":{"ID":242944,"DIS_CODE":0,"TOWNNAME":"佳里區","LI":"興化里","LIN":"16鄰","STREET":" ","SECT":" ","MAREA":"佳里興","LANE":" ","ALLEY":" ","HOUSE_NO":"５６８號","E_COORD97":166524.28,"N_COORD97":2565305.6499999999,"ADDRESS":"佳里興５６８號","OBJECTID":242940},"geometry":{"x":166524.28000000026,"y":2565305.6500000022}},{"attributes":{"ID":242945,"DIS_CODE":0,"TOWNNAME":"佳里區","LI":"興化里","LIN":"16鄰","STREET":" ","SECT":" ","MAREA":"佳里興","LANE":" ","ALLEY":" ","HOUSE_NO":"５６９號","E_COORD97":166505.78,"N_COORD97":2565304.3799999999,"ADDRESS":"佳里興５６９號","OBJECTID":242941},"geometry":{"x":166505.78000000026,"y":2565304.379999999}},{"attributes":{"ID":242946,"DIS_CODE":0,"TOWNNAME":"佳里區","LI":"興化里","LIN":"16鄰","STREET":" ","SECT":" ","MAREA":"佳里興","LANE":" ","ALLEY":" ","HOUSE_NO":"５７５號","E_COORD97":166392.85000000001,"N_COORD97":2564880.5899999999,"ADDRESS":"佳里興５７５號","OBJECTID":242942},"geometry":{"x":166392.84999999963,"y":2564880.5899999999}},{"attributes":{"ID":242947,"DIS_CODE":0,"TOWNNAME":"佳里區","LI":"興化里","LIN":"16鄰","STREET":" ","SECT":" ","MAREA":"佳里興","LANE":" ","ALLEY":" ","HOUSE_NO":"５８０號之６","E_COORD97":166420.14000000001,"N_COORD97":2565235.8999999999,"ADDRESS":"佳里興５８０號之６","OBJECTID":242943},"geometry":{"x":166420.14000000153,"y":2565235.9000000022}},{"attributes":{"ID":242948,"DIS_CODE":0,"TOWNNAME":"佳里區","LI":"興化里","LIN":"16鄰","STREET":" ","SECT":" ","MAREA":"佳里興","LANE":" ","ALLEY":" ","HOUSE_NO":"６０６號之５０","E_COORD97":166324.73999999999,"N_COORD97":2564971.0499999998,"ADDRESS":"佳里興６０６號之５０","OBJECTID":242944},"geometry":{"x":166324.74000000022,"y":2564971.0500000026}},{"attributes":{"ID":242949,"DIS_CODE":0,"TOWNNAME":"佳里區","LI":"興化里","LIN":"16鄰","STREET":" ","SECT":" ","MAREA":"佳里興","LANE":" ","ALLEY":" ","HOUSE_NO":"６０６號之５１","E_COORD97":166319.09,"N_COORD97":2564928.1099999999,"ADDRESS":"佳里興６０６號之５１","OBJECTID":242945},"geometry":{"x":166319.09000000171,"y":2564928.1100000031}},{"attributes":{"ID":242950,"DIS_CODE":0,"TOWNNAME":"佳里區","LI":"興化里","LIN":"16鄰","STREET":" ","SECT":" ","MAREA":"佳里興","LANE":" ","ALLEY":" ","HOUSE_NO":"６０６號之６","E_COORD97":166350.17999999999,"N_COORD97":2564653.8900000001,"ADDRESS":"佳里興６０６號之６","OBJECTID":242946},"geometry":{"x":166350.1799999997,"y":2564653.8900000025}},{"attributes":{"ID":242951,"DIS_CODE":0,"TOWNNAME":"下營區","LI":"紅厝里","LIN":"16鄰","STREET":" ","SECT":" ","MAREA":"紅毛厝","LANE":" ","ALLEY":" ","HOUSE_NO":"１１５號之１０","E_COORD97":174970.5,"N_COORD97":2571415.2599999998,"ADDRESS":"紅毛厝１１５號之１０","OBJECTID":242947},"geometry":{"x":174970.50000000093,"y":2571415.2599999998}},{"attributes":{"ID":242952,"DIS_CODE":0,"TOWNNAME":"下營區","LI":"紅厝里","LIN":"16鄰","STREET":" ","SECT":" ","MAREA":"紅毛厝","LANE":" ","ALLEY":" ","HOUSE_NO":"１１５號之１１","E_COORD97":174823.73999999999,"N_COORD97":2571279.75,"ADDRESS":"紅毛厝１１５號之１１","OBJECTID":242948},"geometry":{"x":174823.74000000115,"y":2571279.75}},{"attributes":{"ID":242953,"DIS_CODE":0,"TOWNNAME":"下營區","LI":"紅厝里","LIN":"16鄰","STREET":" ","SECT":" ","MAREA":"紅毛厝","LANE":" ","ALLEY":" ","HOUSE_NO":"１１５號之１２","E_COORD97":174908.22,"N_COORD97":2571311.29,"ADDRESS":"紅毛厝１１５號之１２","OBJECTID":242949},"geometry":{"x":174908.22000000067,"y":2571311.290000001}},{"attributes":{"ID":242954,"DIS_CODE":0,"TOWNNAME":"下營區","LI":"紅厝里","LIN":"16鄰","STREET":" ","SECT":" ","MAREA":"紅毛厝","LANE":" ","ALLEY":" ","HOUSE_NO":"１１５號之１３","E_COORD97":174878.51000000001,"N_COORD97":2571283.3399999999,"ADDRESS":"紅毛厝１１５號之１３","OBJECTID":242950},"geometry":{"x":174878.51000000164,"y":2571283.3399999999}},{"attributes":{"ID":242955,"DIS_CODE":0,"TOWNNAME":"下營區","LI":"紅厝里","LIN":"16鄰","STREET":" ","SECT":" ","MAREA":"紅毛厝","LANE":" ","ALLEY":" ","HOUSE_NO":"１１５號之１６","E_COORD97":174720.01000000001,"N_COORD97":2571438.1699999999,"ADDRESS":"紅毛厝１１５號之１６","OBJECTID":242951},"geometry":{"x":174720.00999999978,"y":2571438.1700000018}},{"attributes":{"ID":242956,"DIS_CODE":0,"TOWNNAME":"下營區","LI":"紅厝里","LIN":"16鄰","STREET":" ","SECT":" ","MAREA":"紅毛厝","LANE":" ","ALLEY":" ","HOUSE_NO":"１１５號之１８","E_COORD97":174814.35000000001,"N_COORD97":2571278.3700000001,"ADDRESS":"紅毛厝１１５號之１８","OBJECTID":242952},"geometry":{"x":174814.34999999963,"y":2571278.3700000029}},{"attributes":{"ID":242957,"DIS_CODE":0,"TOWNNAME":"下營區","LI":"紅厝里","LIN":"16鄰","STREET":" ","SECT":" ","MAREA":"紅毛厝","LANE":" ","ALLEY":" ","HOUSE_NO":"１１５之１９號","E_COORD97":174791.23999999999,"N_COORD97":2571342.5899999999,"ADDRESS":"紅毛厝１１５之１９號","OBJECTID":242953},"geometry":{"x":174791.24000000115,"y":2571342.5899999999}},{"attributes":{"ID":242958,"DIS_CODE":0,"TOWNNAME":"北區","LI":"重興里","LIN":"24鄰","STREET":"東豐路","SECT":" ","MAREA":" ","LANE":"４５１巷","ALLEY":" ","HOUSE_NO":"６１號四樓","E_COORD97":170798.29000000001,"N_COORD97":2544813.6699999999,"ADDRESS":"東豐路４５１巷６１號四樓","OBJECTID":242954},"geometry":{"x":170798.2900000019,"y":2544813.6700000018}},{"attributes":{"ID":242959,"DIS_CODE":0,"TOWNNAME":"北區","LI":"重興里","LIN":"24鄰","STREET":"東豐路","SECT":" ","MAREA":" ","LANE":"４５１巷","ALLEY":" ","HOUSE_NO":"６３號二樓","E_COORD97":170802.56,"N_COORD97":2544821.7999999998,"ADDRESS":"東豐路４５１巷６３號二樓","OBJECTID":242955},"geometry":{"x":170802.55999999959,"y":2544821.8000000007}},{"attributes":{"ID":242960,"DIS_CODE":0,"TOWNNAME":"北區","LI":"重興里","LIN":"24鄰","STREET":"東豐路","SECT":" ","MAREA":" ","LANE":"４５１巷","ALLEY":" ","HOUSE_NO":"６３號三樓","E_COORD97":170802.56,"N_COORD97":2544821.7999999998,"ADDRESS":"東豐路４５１巷６３號三樓","OBJECTID":242956},"geometry":{"x":170802.55999999959,"y":2544821.8000000007}},{"attributes":{"ID":242961,"DIS_CODE":0,"TOWNNAME":"北區","LI":"重興里","LIN":"24鄰","STREET":"東豐路","SECT":" ","MAREA":" ","LANE":"４５１巷","ALLEY":" ","HOUSE_NO":"６３號四樓","E_COORD97":170802.56,"N_COORD97":2544821.7999999998,"ADDRESS":"東豐路４５１巷６３號四樓","OBJECTID":242957},"geometry":{"x":170802.55999999959,"y":2544821.8000000007}},{"attributes":{"ID":242962,"DIS_CODE":0,"TOWNNAME":"下營區","LI":"紅厝里","LIN":"16鄰","STREET":" ","SECT":" ","MAREA":"紅毛厝","LANE":" ","ALLEY":" ","HOUSE_NO":"１１５號之１","E_COORD97":174930.42999999999,"N_COORD97":2571343.5600000001,"ADDRESS":"紅毛厝１１５號之１","OBJECTID":242958},"geometry":{"x":174930.43000000063,"y":2571343.5600000005}},{"attributes":{"ID":242963,"DIS_CODE":0,"TOWNNAME":"下營區","LI":"紅厝里","LIN":"16鄰","STREET":" ","SECT":" ","MAREA":"紅毛厝","LANE":" ","ALLEY":" ","HOUSE_NO":"１１５之２６號","E_COORD97":174959.07000000001,"N_COORD97":2571291.3999999999,"ADDRESS":"紅毛厝１１５之２６號","OBJECTID":242959},"geometry":{"x":174959.07000000123,"y":2571291.4000000022}},{"attributes":{"ID":242964,"DIS_CODE":0,"TOWNNAME":"下營區","LI":"紅厝里","LIN":"16鄰","STREET":" ","SECT":" ","MAREA":"紅毛厝","LANE":" ","ALLEY":" ","HOUSE_NO":"１１５之２７號","E_COORD97":174964.20000000001,"N_COORD97":2571292.0800000001,"ADDRESS":"紅毛厝１１５之２７號","OBJECTID":242960},"geometry":{"x":174964.20000000205,"y":2571292.0800000001}},{"attributes":{"ID":242965,"DIS_CODE":0,"TOWNNAME":"下營區","LI":"紅厝里","LIN":"16鄰","STREET":" ","SECT":" ","MAREA":"紅毛厝","LANE":" ","ALLEY":" ","HOUSE_NO":"１１５號之２","E_COORD97":174906.95000000001,"N_COORD97":2571343.7000000002,"ADDRESS":"紅毛厝１１５號之２","OBJECTID":242961},"geometry":{"x":174906.95000000112,"y":2571343.6999999993}},{"attributes":{"ID":242966,"DIS_CODE":0,"TOWNNAME":"下營區","LI":"紅厝里","LIN":"16鄰","STREET":" ","SECT":" ","MAREA":"紅毛厝","LANE":" ","ALLEY":" ","HOUSE_NO":"１１５號之７","E_COORD97":174920.85999999999,"N_COORD97":2571287.1699999999,"ADDRESS":"紅毛厝１１５號之７","OBJECTID":242962},"geometry":{"x":174920.8600000022,"y":2571287.1699999999}},{"attributes":{"ID":242967,"DIS_CODE":0,"TOWNNAME":"下營區","LI":"紅厝里","LIN":"16鄰","STREET":" ","SECT":" ","MAREA":"紅毛厝","LANE":" ","ALLEY":" ","HOUSE_NO":"１１５號之８","E_COORD97":174972.60000000001,"N_COORD97":2571294.4900000002,"ADDRESS":"紅毛厝１１５號之８","OBJECTID":242963},"geometry":{"x":174972.60000000149,"y":2571294.4900000021}},{"attributes":{"ID":242968,"DIS_CODE":0,"TOWNNAME":"北區","LI":"重興里","LIN":"24鄰","STREET":"東豐路","SECT":" ","MAREA":" ","LANE":"４５１巷","ALLEY":" ","HOUSE_NO":"６５號二樓","E_COORD97":170807.57000000001,"N_COORD97":2544830.04,"ADDRESS":"東豐路４５１巷６５號二樓","OBJECTID":242964},"geometry":{"x":170807.57000000123,"y":2544830.0400000028}},{"attributes":{"ID":242969,"DIS_CODE":0,"TOWNNAME":"北區","LI":"重興里","LIN":"24鄰","STREET":"東豐路","SECT":" ","MAREA":" ","LANE":"４５１巷","ALLEY":" ","HOUSE_NO":"６５號三樓","E_COORD97":170807.57000000001,"N_COORD97":2544830.04,"ADDRESS":"東豐路４５１巷６５號三樓","OBJECTID":242965},"geometry":{"x":170807.57000000123,"y":2544830.0400000028}},{"attributes":{"ID":242970,"DIS_CODE":0,"TOWNNAME":"北區","LI":"重興里","LIN":"24鄰","STREET":"東豐路","SECT":" ","MAREA":" ","LANE":"４５１巷","ALLEY":" ","HOUSE_NO":"６５號四樓","E_COORD97":170807.57000000001,"N_COORD97":2544830.04,"ADDRESS":"東豐路４５１巷６５號四樓","OBJECTID":242966},"geometry":{"x":170807.57000000123,"y":2544830.0400000028}},{"attributes":{"ID":242971,"DIS_CODE":0,"TOWNNAME":"北區","LI":"重興里","LIN":"24鄰","STREET":"東豐路","SECT":" ","MAREA":" ","LANE":"４５１巷","ALLEY":" ","HOUSE_NO":"６７號二樓","E_COORD97":170812.87,"N_COORD97":2544838.27,"ADDRESS":"東豐路４５１巷６７號二樓","OBJECTID":242967},"geometry":{"x":170812.87000000011,"y":2544838.2699999996}},{"attributes":{"ID":242972,"DIS_CODE":0,"TOWNNAME":"北區","LI":"重興里","LIN":"24鄰","STREET":"東豐路","SECT":" ","MAREA":" ","LANE":"４５１巷","ALLEY":" ","HOUSE_NO":"６７號三樓","E_COORD97":170812.87,"N_COORD97":2544838.27,"ADDRESS":"東豐路４５１巷６７號三樓","OBJECTID":242968},"geometry":{"x":170812.87000000011,"y":2544838.2699999996}},{"attributes":{"ID":242973,"DIS_CODE":0,"TOWNNAME":"北區","LI":"重興里","LIN":"24鄰","STREET":"東豐路","SECT":" ","MAREA":" ","LANE":"４５１巷","ALLEY":" ","HOUSE_NO":"６７號四樓","E_COORD97":170812.87,"N_COORD97":2544838.27,"ADDRESS":"東豐路４５１巷６７號四樓","OBJECTID":242969},"geometry":{"x":170812.87000000011,"y":2544838.2699999996}},{"attributes":{"ID":242974,"DIS_CODE":0,"TOWNNAME":"北區","LI":"重興里","LIN":"24鄰","STREET":"東豐路","SECT":" ","MAREA":" ","LANE":"４５１巷","ALLEY":" ","HOUSE_NO":"６９號二樓","E_COORD97":170818.32000000001,"N_COORD97":2544846.2200000002,"ADDRESS":"東豐路４５１巷６９號二樓","OBJECTID":242970},"geometry":{"x":170818.3200000003,"y":2544846.2200000007}},{"attributes":{"ID":242975,"DIS_CODE":0,"TOWNNAME":"北區","LI":"重興里","LIN":"24鄰","STREET":"東豐路","SECT":" ","MAREA":" ","LANE":"４５１巷","ALLEY":" ","HOUSE_NO":"６９號三樓","E_COORD97":170818.32000000001,"N_COORD97":2544846.2200000002,"ADDRESS":"東豐路４５１巷６９號三樓","OBJECTID":242971},"geometry":{"x":170818.3200000003,"y":2544846.2200000007}},{"attributes":{"ID":242976,"DIS_CODE":0,"TOWNNAME":"北區","LI":"重興里","LIN":"24鄰","STREET":"東豐路","SECT":" ","MAREA":" ","LANE":"４５１巷","ALLEY":" ","HOUSE_NO":"６９號四樓","E_COORD97":170818.32000000001,"N_COORD97":2544846.2200000002,"ADDRESS":"東豐路４５１巷６９號四樓","OBJECTID":242972},"geometry":{"x":170818.3200000003,"y":2544846.2200000007}},{"attributes":{"ID":242977,"DIS_CODE":0,"TOWNNAME":"北區","LI":"重興里","LIN":"24鄰","STREET":"東豐路","SECT":" ","MAREA":" ","LANE":"４５１巷","ALLEY":" ","HOUSE_NO":"７１號二樓","E_COORD97":170821.85999999999,"N_COORD97":2544852.8399999999,"ADDRESS":"東豐路４５１巷７１號二樓","OBJECTID":242973},"geometry":{"x":170821.8600000022,"y":2544852.8400000017}},{"attributes":{"ID":242978,"DIS_CODE":0,"TOWNNAME":"下營區","LI":"紅厝里","LIN":"16鄰","STREET":" ","SECT":" ","MAREA":"紅毛厝","LANE":" ","ALLEY":" ","HOUSE_NO":"１１５之９號","E_COORD97":174892.06,"N_COORD97":2571384.1899999999,"ADDRESS":"紅毛厝１１５之９號","OBJECTID":242974},"geometry":{"x":174892.06000000052,"y":2571384.1900000013}},{"attributes":{"ID":242979,"DIS_CODE":0,"TOWNNAME":"下營區","LI":"紅厝里","LIN":"16鄰","STREET":" ","SECT":" ","MAREA":"紅毛厝","LANE":" ","ALLEY":" ","HOUSE_NO":"１１５號之９","E_COORD97":174892.06,"N_COORD97":2571384.1899999999,"ADDRESS":"紅毛厝１１５號之９","OBJECTID":242975},"geometry":{"x":174892.06000000052,"y":2571384.1900000013}},{"attributes":{"ID":242980,"DIS_CODE":0,"TOWNNAME":"下營區","LI":"紅厝里","LIN":"16鄰","STREET":" ","SECT":" ","MAREA":"紅毛厝","LANE":" ","ALLEY":" ","HOUSE_NO":"１１５號","E_COORD97":175001.73999999999,"N_COORD97":2571343.4500000002,"ADDRESS":"紅毛厝１１５號","OBJECTID":242976},"geometry":{"x":175001.74000000115,"y":2571343.450000003}},{"attributes":{"ID":242981,"DIS_CODE":0,"TOWNNAME":"下營區","LI":"紅厝里","LIN":"16鄰","STREET":" ","SECT":" ","MAREA":"紅毛厝","LANE":" ","ALLEY":" ","HOUSE_NO":"１１６號之１","E_COORD97":175085.70999999999,"N_COORD97":2571306.3500000001,"ADDRESS":"紅毛厝１１６號之１","OBJECTID":242977},"geometry":{"x":175085.70999999903,"y":2571306.3499999996}},{"attributes":{"ID":242982,"DIS_CODE":0,"TOWNNAME":"下營區","LI":"紅厝里","LIN":"16鄰","STREET":" ","SECT":" ","MAREA":"紅毛厝","LANE":" ","ALLEY":" ","HOUSE_NO":"１１６號之６","E_COORD97":175140.34,"N_COORD97":2571314.8999999999,"ADDRESS":"紅毛厝１１６號之６","OBJECTID":242978},"geometry":{"x":175140.33999999985,"y":2571314.9000000022}},{"attributes":{"ID":242983,"DIS_CODE":0,"TOWNNAME":"下營區","LI":"紅厝里","LIN":"16鄰","STREET":" ","SECT":" ","MAREA":"紅毛厝","LANE":" ","ALLEY":" ","HOUSE_NO":"１１６號","E_COORD97":175045.95000000001,"N_COORD97":2571303.6499999999,"ADDRESS":"紅毛厝１１６號","OBJECTID":242979},"geometry":{"x":175045.95000000112,"y":2571303.6500000022}},{"attributes":{"ID":242984,"DIS_CODE":0,"TOWNNAME":"下營區","LI":"紅厝里","LIN":"16鄰","STREET":" ","SECT":" ","MAREA":"紅毛厝","LANE":" ","ALLEY":" ","HOUSE_NO":"１１７號","E_COORD97":175018.66,"N_COORD97":2571356.96,"ADDRESS":"紅毛厝１１７號","OBJECTID":242980},"geometry":{"x":175018.66000000201,"y":2571356.9600000028}},{"attributes":{"ID":242985,"DIS_CODE":0,"TOWNNAME":"北區","LI":"重興里","LIN":"24鄰","STREET":"東豐路","SECT":" ","MAREA":" ","LANE":"４５１巷","ALLEY":" ","HOUSE_NO":"７１號三樓","E_COORD97":170821.85999999999,"N_COORD97":2544852.8399999999,"ADDRESS":"東豐路４５１巷７１號三樓","OBJECTID":242981},"geometry":{"x":170821.8600000022,"y":2544852.8400000017}},{"attributes":{"ID":242986,"DIS_CODE":0,"TOWNNAME":"北區","LI":"重興里","LIN":"24鄰","STREET":"東豐路","SECT":" ","MAREA":" ","LANE":"４５１巷","ALLEY":" ","HOUSE_NO":"７１號四樓","E_COORD97":170821.85999999999,"N_COORD97":2544852.8399999999,"ADDRESS":"東豐路４５１巷７１號四樓","OBJECTID":242982},"geometry":{"x":170821.8600000022,"y":2544852.8400000017}},{"attributes":{"ID":242987,"DIS_CODE":0,"TOWNNAME":"北區","LI":"大豐里","LIN":"24鄰","STREET":"和緯路","SECT":"四段","MAREA":" ","LANE":"９５巷","ALLEY":" ","HOUSE_NO":"２３號二樓","E_COORD97":167129.56,"N_COORD97":2545415.7599999998,"ADDRESS":"和緯路四段９５巷２３號二樓","OBJECTID":242983},"geometry":{"x":167129.56000000052,"y":2545415.7600000035}},{"attributes":{"ID":242988,"DIS_CODE":0,"TOWNNAME":"佳里區","LI":"建南里","LIN":"24鄰","STREET":"佳南路","SECT":" ","MAREA":" ","LANE":"５９０巷","ALLEY":" ","HOUSE_NO":"１號","E_COORD97":165365.67999999999,"N_COORD97":2561028.5099999998,"ADDRESS":"佳南路５９０巷１號","OBJECTID":242984},"geometry":{"x":165365.68000000156,"y":2561028.5099999998}},{"attributes":{"ID":242989,"DIS_CODE":0,"TOWNNAME":"北區","LI":"大豐里","LIN":"24鄰","STREET":"和緯路","SECT":"四段","MAREA":" ","LANE":"９５巷","ALLEY":" ","HOUSE_NO":"２３號三樓","E_COORD97":167129.56,"N_COORD97":2545415.7599999998,"ADDRESS":"和緯路四段９５巷２３號三樓","OBJECTID":242985},"geometry":{"x":167129.56000000052,"y":2545415.7600000035}},{"attributes":{"ID":242990,"DIS_CODE":0,"TOWNNAME":"北區","LI":"大豐里","LIN":"24鄰","STREET":"和緯路","SECT":"四段","MAREA":" ","LANE":"９５巷","ALLEY":" ","HOUSE_NO":"２３號五樓","E_COORD97":167129.56,"N_COORD97":2545415.7599999998,"ADDRESS":"和緯路四段９５巷２３號五樓","OBJECTID":242986},"geometry":{"x":167129.56000000052,"y":2545415.7600000035}},{"attributes":{"ID":242991,"DIS_CODE":0,"TOWNNAME":"北區","LI":"大豐里","LIN":"24鄰","STREET":"和緯路","SECT":"四段","MAREA":" ","LANE":"９５巷","ALLEY":" ","HOUSE_NO":"２５號二樓","E_COORD97":167127.54000000001,"N_COORD97":2545405.8500000001,"ADDRESS":"和緯路四段９５巷２５號二樓","OBJECTID":242987},"geometry":{"x":167127.54000000004,"y":2545405.8500000015}},{"attributes":{"ID":242992,"DIS_CODE":0,"TOWNNAME":"北區","LI":"大豐里","LIN":"24鄰","STREET":"和緯路","SECT":"四段","MAREA":" ","LANE":"９５巷","ALLEY":" ","HOUSE_NO":"２５號三樓","E_COORD97":167127.54000000001,"N_COORD97":2545405.8500000001,"ADDRESS":"和緯路四段９５巷２５號三樓","OBJECTID":242988},"geometry":{"x":167127.54000000004,"y":2545405.8500000015}},{"attributes":{"ID":242993,"DIS_CODE":0,"TOWNNAME":"北區","LI":"大豐里","LIN":"24鄰","STREET":"和緯路","SECT":"四段","MAREA":" ","LANE":"９５巷","ALLEY":" ","HOUSE_NO":"２５號五樓","E_COORD97":167127.54000000001,"N_COORD97":2545405.8500000001,"ADDRESS":"和緯路四段９５巷２５號五樓","OBJECTID":242989},"geometry":{"x":167127.54000000004,"y":2545405.8500000015}},{"attributes":{"ID":242994,"DIS_CODE":0,"TOWNNAME":"北區","LI":"大豐里","LIN":"24鄰","STREET":"和緯路","SECT":"四段","MAREA":" ","LANE":"９５巷","ALLEY":" ","HOUSE_NO":"２５號四樓","E_COORD97":167127.54000000001,"N_COORD97":2545405.8500000001,"ADDRESS":"和緯路四段９５巷２５號四樓","OBJECTID":242990},"geometry":{"x":167127.54000000004,"y":2545405.8500000015}},{"attributes":{"ID":242995,"DIS_CODE":0,"TOWNNAME":"北區","LI":"大豐里","LIN":"24鄰","STREET":"和緯路","SECT":"四段","MAREA":" ","LANE":"９５巷","ALLEY":" ","HOUSE_NO":"２７號二樓","E_COORD97":167127.37,"N_COORD97":2545402.8700000001,"ADDRESS":"和緯路四段９５巷２７號二樓","OBJECTID":242991},"geometry":{"x":167127.37000000011,"y":2545402.8700000048}},{"attributes":{"ID":242996,"DIS_CODE":0,"TOWNNAME":"北區","LI":"大豐里","LIN":"24鄰","STREET":"和緯路","SECT":"四段","MAREA":" ","LANE":"９５巷","ALLEY":" ","HOUSE_NO":"２７號三樓","E_COORD97":167127.37,"N_COORD97":2545402.8700000001,"ADDRESS":"和緯路四段９５巷２７號三樓","OBJECTID":242992},"geometry":{"x":167127.37000000011,"y":2545402.8700000048}},{"attributes":{"ID":242997,"DIS_CODE":0,"TOWNNAME":"北區","LI":"大豐里","LIN":"24鄰","STREET":"和緯路","SECT":"四段","MAREA":" ","LANE":"９５巷","ALLEY":" ","HOUSE_NO":"２７號五樓","E_COORD97":167127.37,"N_COORD97":2545402.8700000001,"ADDRESS":"和緯路四段９５巷２７號五樓","OBJECTID":242993},"geometry":{"x":167127.37000000011,"y":2545402.8700000048}},{"attributes":{"ID":242998,"DIS_CODE":0,"TOWNNAME":"北區","LI":"大豐里","LIN":"24鄰","STREET":"和緯路","SECT":"四段","MAREA":" ","LANE":"９５巷","ALLEY":" ","HOUSE_NO":"２９號二樓","E_COORD97":167125.35000000001,"N_COORD97":2545393.3100000001,"ADDRESS":"和緯路四段９５巷２９號二樓","OBJECTID":242994},"geometry":{"x":167125.34999999963,"y":2545393.3100000024}},{"attributes":{"ID":242999,"DIS_CODE":0,"TOWNNAME":"北區","LI":"大豐里","LIN":"24鄰","STREET":"和緯路","SECT":"四段","MAREA":" ","LANE":"９５巷","ALLEY":" ","HOUSE_NO":"２９號三樓","E_COORD97":167125.35000000001,"N_COORD97":2545393.3100000001,"ADDRESS":"和緯路四段９５巷２９號三樓","OBJECTID":242995},"geometry":{"x":167125.34999999963,"y":2545393.3100000024}},{"attributes":{"ID":243000,"DIS_CODE":0,"TOWNNAME":"北區","LI":"大豐里","LIN":"24鄰","STREET":"和緯路","SECT":"四段","MAREA":" ","LANE":"９５巷","ALLEY":" ","HOUSE_NO":"２９號五樓","E_COORD97":167125.35000000001,"N_COORD97":2545393.3100000001,"ADDRESS":"和緯路四段９５巷２９號五樓","OBJECTID":242996},"geometry":{"x":167125.34999999963,"y":2545393.3100000024}},{"attributes":{"ID":243001,"DIS_CODE":0,"TOWNNAME":"北區","LI":"大豐里","LIN":"24鄰","STREET":"和緯路","SECT":"四段","MAREA":" ","LANE":"９５巷","ALLEY":" ","HOUSE_NO":"２９號四樓","E_COORD97":167125.35000000001,"N_COORD97":2545393.3100000001,"ADDRESS":"和緯路四段９５巷２９號四樓","OBJECTID":242997},"geometry":{"x":167125.34999999963,"y":2545393.3100000024}},{"attributes":{"ID":243002,"DIS_CODE":0,"TOWNNAME":"北區","LI":"大豐里","LIN":"24鄰","STREET":"和緯路","SECT":"四段","MAREA":" ","LANE":"９５巷","ALLEY":" ","HOUSE_NO":"３１號二樓","E_COORD97":167125.17000000001,"N_COORD97":2545390.21,"ADDRESS":"和緯路四段９５巷３１號二樓","OBJECTID":242998},"geometry":{"x":167125.16999999993,"y":2545390.2100000046}},{"attributes":{"ID":243003,"DIS_CODE":0,"TOWNNAME":"北區","LI":"大豐里","LIN":"24鄰","STREET":"和緯路","SECT":"四段","MAREA":" ","LANE":"９５巷","ALLEY":" ","HOUSE_NO":"３１號三樓","E_COORD97":167125.17000000001,"N_COORD97":2545390.21,"ADDRESS":"和緯路四段９５巷３１號三樓","OBJECTID":242999},"geometry":{"x":167125.16999999993,"y":2545390.2100000046}},{"attributes":{"ID":243004,"DIS_CODE":0,"TOWNNAME":"歸仁區","LI":"文化里","LIN":"8鄰","STREET":"民權一街","SECT":" ","MAREA":" ","LANE":"２５巷","ALLEY":" ","HOUSE_NO":"６號","E_COORD97":177133.45000000001,"N_COORD97":2541383.3199999998,"ADDRESS":"民權一街２５巷６號","OBJECTID":243000},"geometry":{"x":177133.45000000019,"y":2541383.3200000003}}]}