{"displayFieldName":"TOWNNAME","fieldAliases":{"ID":"ID","DIS_CODE":"DIS_CODE","TOWNNAME":"TOWNNAME","LI":"LI","LIN":"LIN","STREET":"STREET","SECT":"SECT","MAREA":"MAREA","LANE":"LANE","ALLEY":"ALLEY","HOUSE_NO":"HOUSE_NO","E_COORD97":"E_COORD97","N_COORD97":"N_COORD97","ADDRESS":"ADDRESS","OBJECTID":"OBJECTID"},"geometryType":"esriGeometryPoint","spatialReference":{"wkid":102443,"latestWkid":3826},"fields":[{"name":"ID","type":"esriFieldTypeDouble","alias":"ID"},{"name":"DIS_CODE","type":"esriFieldTypeInteger","alias":"DIS_CODE"},{"name":"TOWNNAME","type":"esriFieldTypeString","alias":"TOWNNAME","length":8},{"name":"LI","type":"esriFieldTypeString","alias":"LI","length":8},{"name":"LIN","type":"esriFieldTypeString","alias":"LIN","length":12},{"name":"STREET","type":"esriFieldTypeString","alias":"STREET","length":20},{"name":"SECT","type":"esriFieldTypeString","alias":"SECT","length":8},{"name":"MAREA","type":"esriFieldTypeString","alias":"MAREA","length":12},{"name":"LANE","type":"esriFieldTypeString","alias":"LANE","length":10},{"name":"ALLEY","type":"esriFieldTypeString","alias":"ALLEY","length":10},{"name":"HOUSE_NO","type":"esriFieldTypeString","alias":"HOUSE_NO","length":20},{"name":"E_COORD97","type":"esriFieldTypeDouble","alias":"E_COORD97"},{"name":"N_COORD97","type":"esriFieldTypeDouble","alias":"N_COORD97"},{"name":"ADDRESS","type":"esriFieldTypeString","alias":"ADDRESS","length":50},{"name":"OBJECTID","type":"esriFieldTypeOID","alias":"OBJECTID"}],"features":[{"attributes":{"ID":150802,"DIS_CODE":0,"TOWNNAME":"安南區","LI":"鳳凰里","LIN":"3鄰","STREET":"安中路","SECT":"一段","MAREA":" ","LANE":"５６０巷","ALLEY":"２５弄","HOUSE_NO":"８號","E_COORD97":168044.62160499999,"N_COORD97":2549108.9613999999,"ADDRESS":"安中路一段５６０巷２５弄８號","OBJECTID":150801},"geometry":{"x":168044.62160499953,"y":2549108.9613969978}},{"attributes":{"ID":150803,"DIS_CODE":0,"TOWNNAME":"安南區","LI":"鳳凰里","LIN":"3鄰","STREET":"安中路","SECT":"一段","MAREA":" ","LANE":"５６０巷","ALLEY":"２５弄","HOUSE_NO":"１９號","E_COORD97":167996.98167000001,"N_COORD97":2549122.93139,"ADDRESS":"安中路一段５６０巷２５弄１９號","OBJECTID":150802},"geometry":{"x":167996.98167000059,"y":2549122.9313890003}},{"attributes":{"ID":150804,"DIS_CODE":0,"TOWNNAME":"安南區","LI":"鳳凰里","LIN":"3鄰","STREET":"安中路","SECT":"一段","MAREA":" ","LANE":"５６０巷","ALLEY":"３６弄","HOUSE_NO":"４０號","E_COORD97":168124.73622399999,"N_COORD97":2549038.1852699998,"ADDRESS":"安中路一段５６０巷３６弄４０號","OBJECTID":150803},"geometry":{"x":168124.73622400127,"y":2549038.1852650009}},{"attributes":{"ID":150805,"DIS_CODE":0,"TOWNNAME":"大內區","LI":"二溪里","LIN":"5鄰","STREET":" ","SECT":" ","MAREA":"二重溪","LANE":" ","ALLEY":" ","HOUSE_NO":"１８７號之１","E_COORD97":187826.28,"N_COORD97":2558128.3100000001,"ADDRESS":"二重溪１８７號之１","OBJECTID":150804},"geometry":{"x":187826.28000000026,"y":2558128.3100000024}},{"attributes":{"ID":150806,"DIS_CODE":0,"TOWNNAME":"大內區","LI":"內江里","LIN":"5鄰","STREET":" ","SECT":" ","MAREA":"內庄","LANE":" ","ALLEY":" ","HOUSE_NO":"２６６號","E_COORD97":184611.78,"N_COORD97":2557444.25,"ADDRESS":"內庄２６６號","OBJECTID":150805},"geometry":{"x":184611.78000000119,"y":2557444.25}},{"attributes":{"ID":150807,"DIS_CODE":0,"TOWNNAME":"安南區","LI":"鳳凰里","LIN":"3鄰","STREET":"安中路","SECT":"一段","MAREA":" ","LANE":"５６０巷","ALLEY":"３６弄","HOUSE_NO":"５６號","E_COORD97":168146.75646100001,"N_COORD97":2549024.4269400002,"ADDRESS":"安中路一段５６０巷３６弄５６號","OBJECTID":150806},"geometry":{"x":168146.756461001,"y":2549024.4269389994}},{"attributes":{"ID":150808,"DIS_CODE":0,"TOWNNAME":"安南區","LI":"布袋里","LIN":"3鄰","STREET":"長和路","SECT":"四段","MAREA":" ","LANE":"２３１巷","ALLEY":"１２８弄","HOUSE_NO":"１０號","E_COORD97":168791.82999999999,"N_COORD97":2551436.0299999998,"ADDRESS":"長和路四段２３１巷１２８弄１０號","OBJECTID":150807},"geometry":{"x":168791.83000000007,"y":2551436.0300000012}},{"attributes":{"ID":150809,"DIS_CODE":0,"TOWNNAME":"大內區","LI":"內江里","LIN":"5鄰","STREET":" ","SECT":" ","MAREA":"內庄","LANE":" ","ALLEY":" ","HOUSE_NO":"２６８號之１１","E_COORD97":184570.66,"N_COORD97":2557420.2999999998,"ADDRESS":"內庄２６８號之１１","OBJECTID":150808},"geometry":{"x":184570.66000000015,"y":2557420.3000000007}},{"attributes":{"ID":150810,"DIS_CODE":0,"TOWNNAME":"麻豆區","LI":"北勢里","LIN":"5鄰","STREET":" ","SECT":" ","MAREA":"北勢寮","LANE":" ","ALLEY":" ","HOUSE_NO":"６號","E_COORD97":172584.22,"N_COORD97":2567179.6800000002,"ADDRESS":"北勢寮６號","OBJECTID":150809},"geometry":{"x":172584.22000000067,"y":2567179.6800000016}},{"attributes":{"ID":150811,"DIS_CODE":0,"TOWNNAME":"安南區","LI":"淵東里","LIN":"3鄰","STREET":"本原街","SECT":"三段","MAREA":" ","LANE":"２３４巷","ALLEY":"１００弄","HOUSE_NO":"２６號","E_COORD97":165309.12,"N_COORD97":2550530.7799999998,"ADDRESS":"本原街三段２３４巷１００弄２６號","OBJECTID":150810},"geometry":{"x":165309.12000000104,"y":2550530.7799999993}},{"attributes":{"ID":150812,"DIS_CODE":0,"TOWNNAME":"安南區","LI":"大安里","LIN":"3鄰","STREET":"大安街","SECT":" ","MAREA":" ","LANE":"２６巷","ALLEY":"３弄","HOUSE_NO":"２２號","E_COORD97":167179.47,"N_COORD97":2547899.75,"ADDRESS":"大安街２６巷３弄２２號","OBJECTID":150811},"geometry":{"x":167179.47000000067,"y":2547899.75}},{"attributes":{"ID":150813,"DIS_CODE":0,"TOWNNAME":"大內區","LI":"大內里","LIN":"5鄰","STREET":" ","SECT":" ","MAREA":"內庄","LANE":" ","ALLEY":" ","HOUSE_NO":"７０之７號","E_COORD97":184399.63,"N_COORD97":2557797.2999999998,"ADDRESS":"內庄７０之７號","OBJECTID":150812},"geometry":{"x":184399.63000000175,"y":2557797.3000000007}},{"attributes":{"ID":150814,"DIS_CODE":0,"TOWNNAME":"大內區","LI":"內江里","LIN":"5鄰","STREET":" ","SECT":" ","MAREA":"內庄","LANE":" ","ALLEY":" ","HOUSE_NO":"２６８號之１０","E_COORD97":184560.62,"N_COORD97":2557412.2999999998,"ADDRESS":"內庄２６８號之１０","OBJECTID":150813},"geometry":{"x":184560.62000000011,"y":2557412.3000000026}},{"attributes":{"ID":150815,"DIS_CODE":0,"TOWNNAME":"大內區","LI":"內江里","LIN":"5鄰","STREET":" ","SECT":" ","MAREA":"內庄","LANE":" ","ALLEY":" ","HOUSE_NO":"２６８號之３","E_COORD97":184584.10999999999,"N_COORD97":2557453.2999999998,"ADDRESS":"內庄２６８號之３","OBJECTID":150814},"geometry":{"x":184584.11000000127,"y":2557453.3000000026}},{"attributes":{"ID":150816,"DIS_CODE":0,"TOWNNAME":"大內區","LI":"二溪里","LIN":"5鄰","STREET":" ","SECT":" ","MAREA":"二重溪","LANE":" ","ALLEY":" ","HOUSE_NO":"１８０號","E_COORD97":187773.34,"N_COORD97":2558114.3100000001,"ADDRESS":"二重溪１８０號","OBJECTID":150815},"geometry":{"x":187773.34000000171,"y":2558114.3100000024}},{"attributes":{"ID":150817,"DIS_CODE":0,"TOWNNAME":"大內區","LI":"二溪里","LIN":"5鄰","STREET":" ","SECT":" ","MAREA":"二重溪","LANE":" ","ALLEY":" ","HOUSE_NO":"１９０號之１","E_COORD97":187837.28,"N_COORD97":2558091.3100000001,"ADDRESS":"二重溪１９０號之１","OBJECTID":150816},"geometry":{"x":187837.28000000119,"y":2558091.3100000005}},{"attributes":{"ID":150818,"DIS_CODE":0,"TOWNNAME":"大內區","LI":"內江里","LIN":"5鄰","STREET":" ","SECT":" ","MAREA":"內庄","LANE":" ","ALLEY":" ","HOUSE_NO":"２６３號之４","E_COORD97":184594.54000000001,"N_COORD97":2557411.2999999998,"ADDRESS":"內庄２６３號之４","OBJECTID":150817},"geometry":{"x":184594.54000000004,"y":2557411.3000000007}},{"attributes":{"ID":150819,"DIS_CODE":0,"TOWNNAME":"大內區","LI":"二溪里","LIN":"5鄰","STREET":" ","SECT":" ","MAREA":"二重溪","LANE":" ","ALLEY":" ","HOUSE_NO":"１９０號","E_COORD97":187833.23999999999,"N_COORD97":2558074.3100000001,"ADDRESS":"二重溪１９０號","OBJECTID":150818},"geometry":{"x":187833.24000000022,"y":2558074.3100000005}},{"attributes":{"ID":150820,"DIS_CODE":0,"TOWNNAME":"安南區","LI":"大安里","LIN":"3鄰","STREET":"大安街","SECT":" ","MAREA":" ","LANE":"２６巷","ALLEY":"３弄","HOUSE_NO":"２６號","E_COORD97":167184.04000000001,"N_COORD97":2547901.27,"ADDRESS":"大安街２６巷３弄２６號","OBJECTID":150819},"geometry":{"x":167184.0400000019,"y":2547901.2700000014}},{"attributes":{"ID":150821,"DIS_CODE":0,"TOWNNAME":"安南區","LI":"大安里","LIN":"3鄰","STREET":"大安街","SECT":" ","MAREA":" ","LANE":"２６巷","ALLEY":"３弄","HOUSE_NO":"２８號","E_COORD97":167188.60999999999,"N_COORD97":2547901.9100000001,"ADDRESS":"大安街２６巷３弄２８號","OBJECTID":150820},"geometry":{"x":167188.61000000034,"y":2547901.910000002}},{"attributes":{"ID":150822,"DIS_CODE":0,"TOWNNAME":"安南區","LI":"大安里","LIN":"3鄰","STREET":"大安街","SECT":" ","MAREA":" ","LANE":"２６巷","ALLEY":"３弄","HOUSE_NO":"３０號","E_COORD97":167192.54999999999,"N_COORD97":2547902.7999999998,"ADDRESS":"大安街２６巷３弄３０號","OBJECTID":150821},"geometry":{"x":167192.55000000075,"y":2547902.8000000026}},{"attributes":{"ID":150823,"DIS_CODE":0,"TOWNNAME":"安南區","LI":"大安里","LIN":"3鄰","STREET":"大安街","SECT":" ","MAREA":" ","LANE":"２６巷","ALLEY":"３弄","HOUSE_NO":"３２號","E_COORD97":167196.73999999999,"N_COORD97":2547903.4300000002,"ADDRESS":"大安街２６巷３弄３２號","OBJECTID":150822},"geometry":{"x":167196.74000000115,"y":2547903.4300000016}},{"attributes":{"ID":150824,"DIS_CODE":0,"TOWNNAME":"永康區","LI":"龍潭里","LIN":"19鄰","STREET":"自強路","SECT":" ","MAREA":" ","LANE":" ","ALLEY":" ","HOUSE_NO":"８８０號","E_COORD97":174737.51999999999,"N_COORD97":2548731.7400000002,"ADDRESS":"自強路８８０號","OBJECTID":150823},"geometry":{"x":174737.52000000142,"y":2548731.7400000002}},{"attributes":{"ID":150825,"DIS_CODE":0,"TOWNNAME":"永康區","LI":"龍潭里","LIN":"19鄰","STREET":"自強路","SECT":" ","MAREA":" ","LANE":" ","ALLEY":" ","HOUSE_NO":"８８２號","E_COORD97":174742.34,"N_COORD97":2548737.4100000001,"ADDRESS":"自強路８８２號","OBJECTID":150824},"geometry":{"x":174742.34000000171,"y":2548737.4099999983}},{"attributes":{"ID":150826,"DIS_CODE":0,"TOWNNAME":"永康區","LI":"北灣里","LIN":"19鄰","STREET":"大同街","SECT":" ","MAREA":" ","LANE":" ","ALLEY":" ","HOUSE_NO":"２６３號","E_COORD97":174756.38,"N_COORD97":2545864.9500000002,"ADDRESS":"大同街２６３號","OBJECTID":150825},"geometry":{"x":174756.38000000082,"y":2545864.950000003}},{"attributes":{"ID":150827,"DIS_CODE":0,"TOWNNAME":"安南區","LI":"大安里","LIN":"3鄰","STREET":"大安街","SECT":" ","MAREA":" ","LANE":"２６巷","ALLEY":"３弄","HOUSE_NO":"３６號","E_COORD97":167199.41,"N_COORD97":2547903.1800000002,"ADDRESS":"大安街２６巷３弄３６號","OBJECTID":150826},"geometry":{"x":167199.41000000108,"y":2547903.1799999997}},{"attributes":{"ID":150828,"DIS_CODE":0,"TOWNNAME":"安南區","LI":"大安里","LIN":"3鄰","STREET":"大安街","SECT":" ","MAREA":" ","LANE":"２６巷","ALLEY":"３弄","HOUSE_NO":"３８號","E_COORD97":167201.56,"N_COORD97":2547901.5299999998,"ADDRESS":"大安街２６巷３弄３８號","OBJECTID":150827},"geometry":{"x":167201.55999999959,"y":2547901.5299999993}},{"attributes":{"ID":150829,"DIS_CODE":0,"TOWNNAME":"安南區","LI":"大安里","LIN":"3鄰","STREET":"大安街","SECT":" ","MAREA":" ","LANE":"２６巷","ALLEY":"３弄","HOUSE_NO":"４０號","E_COORD97":167204.48999999999,"N_COORD97":2547899.75,"ADDRESS":"大安街２６巷３弄４０號","OBJECTID":150828},"geometry":{"x":167204.49000000022,"y":2547899.75}},{"attributes":{"ID":150830,"DIS_CODE":0,"TOWNNAME":"安南區","LI":"淵西里","LIN":"3鄰","STREET":"安中路","SECT":"四段","MAREA":" ","LANE":"２９０巷","ALLEY":"２６３弄","HOUSE_NO":"２８號","E_COORD97":165079.73000000001,"N_COORD97":2550347.4300000002,"ADDRESS":"安中路四段２９０巷２６３弄２８號","OBJECTID":150829},"geometry":{"x":165079.73000000138,"y":2550347.4300000034}},{"attributes":{"ID":150831,"DIS_CODE":0,"TOWNNAME":"歸仁區","LI":"南保里","LIN":"19鄰","STREET":"民權六街","SECT":" ","MAREA":" ","LANE":" ","ALLEY":" ","HOUSE_NO":"１８號","E_COORD97":176954.29000000001,"N_COORD97":2541114.29,"ADDRESS":"民權六街１８號","OBJECTID":150830},"geometry":{"x":176954.29000000097,"y":2541114.2899999991}},{"attributes":{"ID":150832,"DIS_CODE":0,"TOWNNAME":"東區","LI":"東安里","LIN":"21鄰","STREET":"衛國街","SECT":" ","MAREA":" ","LANE":" ","ALLEY":" ","HOUSE_NO":"１８號之１","E_COORD97":170263.94,"N_COORD97":2542986.4399999999,"ADDRESS":"衛國街１８號之１","OBJECTID":150831},"geometry":{"x":170263.94000000134,"y":2542986.4399999976}},{"attributes":{"ID":150833,"DIS_CODE":0,"TOWNNAME":"安南區","LI":"州南里","LIN":"3鄰","STREET":"安和路","SECT":"四段","MAREA":" ","LANE":"５３３巷","ALLEY":"１７２弄","HOUSE_NO":"３之１號","E_COORD97":169531.97,"N_COORD97":2551249.6000000001,"ADDRESS":"安和路四段５３３巷１７２弄３之１號","OBJECTID":150832},"geometry":{"x":169531.96999999881,"y":2551249.6000000015}},{"attributes":{"ID":150834,"DIS_CODE":0,"TOWNNAME":"安南區","LI":"顯宮里","LIN":"3鄰","STREET":"安中路","SECT":"五段","MAREA":" ","LANE":"１巷","ALLEY":"２１弄","HOUSE_NO":"３６之１０號","E_COORD97":162792.78,"N_COORD97":2550510.52,"ADDRESS":"安中路五段１巷２１弄３６之１０號","OBJECTID":150833},"geometry":{"x":162792.78000000119,"y":2550510.5200000014}},{"attributes":{"ID":150835,"DIS_CODE":0,"TOWNNAME":"安南區","LI":"安慶里","LIN":"3鄰","STREET":"長溪路","SECT":"一段","MAREA":" ","LANE":"１６８巷","ALLEY":"１３１弄","HOUSE_NO":"１４號","E_COORD97":169024.92999999999,"N_COORD97":2548894.5600000001,"ADDRESS":"長溪路一段１６８巷１３１弄１４號","OBJECTID":150834},"geometry":{"x":169024.9299999997,"y":2548894.5600000024}},{"attributes":{"ID":150836,"DIS_CODE":0,"TOWNNAME":"安南區","LI":"溪墘里","LIN":"3鄰","STREET":"海佃路","SECT":"一段","MAREA":" ","LANE":"１５８巷","ALLEY":"３７弄","HOUSE_NO":"７號","E_COORD97":167267.67999999999,"N_COORD97":2547257.77,"ADDRESS":"海佃路一段１５８巷３７弄７號","OBJECTID":150835},"geometry":{"x":167267.68000000156,"y":2547257.7700000014}},{"attributes":{"ID":150837,"DIS_CODE":0,"TOWNNAME":"安南區","LI":"布袋里","LIN":"3鄰","STREET":"長和路","SECT":"四段","MAREA":" ","LANE":"２３１巷","ALLEY":"６０弄","HOUSE_NO":"６５號","E_COORD97":168665.67999999999,"N_COORD97":2551464.1899999999,"ADDRESS":"長和路四段２３１巷６０弄６５號","OBJECTID":150836},"geometry":{"x":168665.6799999997,"y":2551464.1900000032}},{"attributes":{"ID":150838,"DIS_CODE":0,"TOWNNAME":"安南區","LI":"溪心里","LIN":"3鄰","STREET":"安中路","SECT":"二段","MAREA":" ","LANE":"１３８巷","ALLEY":"３９弄","HOUSE_NO":"２９號","E_COORD97":166709.81,"N_COORD97":2549762.1600000001,"ADDRESS":"安中路二段１３８巷３９弄２９號","OBJECTID":150837},"geometry":{"x":166709.80999999959,"y":2549762.1600000001}},{"attributes":{"ID":150839,"DIS_CODE":0,"TOWNNAME":"安南區","LI":"溪心里","LIN":"3鄰","STREET":"安中路","SECT":"二段","MAREA":" ","LANE":"１３８巷","ALLEY":"３９弄","HOUSE_NO":"３５號","E_COORD97":166701.48000000001,"N_COORD97":2549763.2200000002,"ADDRESS":"安中路二段１３８巷３９弄３５號","OBJECTID":150838},"geometry":{"x":166701.48000000045,"y":2549763.2199999988}},{"attributes":{"ID":150840,"DIS_CODE":0,"TOWNNAME":"安南區","LI":"溪心里","LIN":"3鄰","STREET":"安中路","SECT":"二段","MAREA":" ","LANE":"１３８巷","ALLEY":"３９弄","HOUSE_NO":"３３號","E_COORD97":166705.04999999999,"N_COORD97":2549763.6099999999,"ADDRESS":"安中路二段１３８巷３９弄３３號","OBJECTID":150839},"geometry":{"x":166705.04999999981,"y":2549763.6100000013}},{"attributes":{"ID":150841,"DIS_CODE":0,"TOWNNAME":"東區","LI":"東安里","LIN":" ","STREET":"東門路","SECT":"二段","MAREA":" ","LANE":" ","ALLEY":" ","HOUSE_NO":"３９號","E_COORD97":170029.06,"N_COORD97":2543019.4100000001,"ADDRESS":"東門路二段３９號","OBJECTID":150840},"geometry":{"x":170029.05999999959,"y":2543019.410000002}},{"attributes":{"ID":150842,"DIS_CODE":0,"TOWNNAME":"東區","LI":"東安里","LIN":"22鄰","STREET":"衛國街","SECT":" ","MAREA":" ","LANE":" ","ALLEY":" ","HOUSE_NO":"２號之１","E_COORD97":170234.66,"N_COORD97":2542937.23,"ADDRESS":"衛國街２號之１","OBJECTID":150841},"geometry":{"x":170234.65999999922,"y":2542937.2300000004}},{"attributes":{"ID":150843,"DIS_CODE":0,"TOWNNAME":"安南區","LI":"溪心里","LIN":"3鄰","STREET":"安中路","SECT":"二段","MAREA":" ","LANE":"１３８巷","ALLEY":"３９弄","HOUSE_NO":"３１號","E_COORD97":166707.03,"N_COORD97":2549762.0299999998,"ADDRESS":"安中路二段１３８巷３９弄３１號","OBJECTID":150842},"geometry":{"x":166707.03000000119,"y":2549762.0299999993}},{"attributes":{"ID":150844,"DIS_CODE":0,"TOWNNAME":"安南區","LI":"溪心里","LIN":"3鄰","STREET":"安中路","SECT":"二段","MAREA":" ","LANE":"１３８巷","ALLEY":"３９弄","HOUSE_NO":"２７號","E_COORD97":166713.51000000001,"N_COORD97":2549761.8900000001,"ADDRESS":"安中路二段１３８巷３９弄２７號","OBJECTID":150843},"geometry":{"x":166713.51000000071,"y":2549761.8899999987}},{"attributes":{"ID":150845,"DIS_CODE":0,"TOWNNAME":"安南區","LI":"溪心里","LIN":"3鄰","STREET":"安中路","SECT":"二段","MAREA":" ","LANE":"１３８巷","ALLEY":"３９弄","HOUSE_NO":"２５號","E_COORD97":166717.75,"N_COORD97":2549760.4399999999,"ADDRESS":"安中路二段１３８巷３９弄２５號","OBJECTID":150844},"geometry":{"x":166717.75,"y":2549760.4399999976}},{"attributes":{"ID":150846,"DIS_CODE":0,"TOWNNAME":"安南區","LI":"溪心里","LIN":"3鄰","STREET":"安中路","SECT":"二段","MAREA":" ","LANE":"１３８巷","ALLEY":"３９弄","HOUSE_NO":"２３號","E_COORD97":166721.32000000001,"N_COORD97":2549760.4399999999,"ADDRESS":"安中路二段１３８巷３９弄２３號","OBJECTID":150845},"geometry":{"x":166721.32000000216,"y":2549760.4399999976}},{"attributes":{"ID":150847,"DIS_CODE":0,"TOWNNAME":"大內區","LI":"內江里","LIN":"5鄰","STREET":" ","SECT":" ","MAREA":"內庄","LANE":" ","ALLEY":" ","HOUSE_NO":"２７４號","E_COORD97":184545.38,"N_COORD97":2557463.25,"ADDRESS":"內庄２７４號","OBJECTID":150846},"geometry":{"x":184545.37999999896,"y":2557463.2500000019}},{"attributes":{"ID":150848,"DIS_CODE":0,"TOWNNAME":"大內區","LI":"內江里","LIN":"5鄰","STREET":" ","SECT":" ","MAREA":"內庄","LANE":" ","ALLEY":" ","HOUSE_NO":"２６８號之２","E_COORD97":184586.85000000001,"N_COORD97":2557452.2999999998,"ADDRESS":"內庄２６８號之２","OBJECTID":150847},"geometry":{"x":184586.85000000056,"y":2557452.3000000045}},{"attributes":{"ID":150849,"DIS_CODE":0,"TOWNNAME":"大內區","LI":"內江里","LIN":"5鄰","STREET":" ","SECT":" ","MAREA":"內庄","LANE":" ","ALLEY":" ","HOUSE_NO":"２６８號之５","E_COORD97":184553.97,"N_COORD97":2557416.2999999998,"ADDRESS":"內庄２６８號之５","OBJECTID":150848},"geometry":{"x":184553.97000000067,"y":2557416.3000000026}},{"attributes":{"ID":150850,"DIS_CODE":0,"TOWNNAME":"大內區","LI":"大內里","LIN":"5鄰","STREET":" ","SECT":" ","MAREA":"內庄","LANE":" ","ALLEY":" ","HOUSE_NO":"７１號","E_COORD97":184455.32999999999,"N_COORD97":2557769.25,"ADDRESS":"內庄７１號","OBJECTID":150849},"geometry":{"x":184455.33000000007,"y":2557769.25}},{"attributes":{"ID":150851,"DIS_CODE":0,"TOWNNAME":"安南區","LI":"溪心里","LIN":"3鄰","STREET":"安中路","SECT":"二段","MAREA":" ","LANE":"１３８巷","ALLEY":"３９弄","HOUSE_NO":"２１號","E_COORD97":166723.70000000001,"N_COORD97":2549760.8399999999,"ADDRESS":"安中路二段１３８巷３９弄２１號","OBJECTID":150850},"geometry":{"x":166723.70000000205,"y":2549760.8399999999}},{"attributes":{"ID":150852,"DIS_CODE":0,"TOWNNAME":"安南區","LI":"溪心里","LIN":"3鄰","STREET":"安中路","SECT":"二段","MAREA":" ","LANE":"１３８巷","ALLEY":"１７弄","HOUSE_NO":"４６之１號","E_COORD97":166691.17999999999,"N_COORD97":2549729.7599999998,"ADDRESS":"安中路二段１３８巷１７弄４６之１號","OBJECTID":150851},"geometry":{"x":166691.18000000156,"y":2549729.7600000016}},{"attributes":{"ID":150853,"DIS_CODE":0,"TOWNNAME":"安南區","LI":"新順里","LIN":"3鄰","STREET":"安和路","SECT":"二段","MAREA":" ","LANE":"３１８巷","ALLEY":"３５弄","HOUSE_NO":"１６號","E_COORD97":169852.38,"N_COORD97":2549330.9199999999,"ADDRESS":"安和路二段３１８巷３５弄１６號","OBJECTID":150852},"geometry":{"x":169852.38000000082,"y":2549330.9200000037}},{"attributes":{"ID":150854,"DIS_CODE":0,"TOWNNAME":"永康區","LI":"正強里","LIN":"3鄰","STREET":"中正路","SECT":" ","MAREA":" ","LANE":"１巷","ALLEY":"２０弄","HOUSE_NO":"１８號","E_COORD97":173602.48999999999,"N_COORD97":2547638.7400000002,"ADDRESS":"中正路１巷２０弄１８號","OBJECTID":150853},"geometry":{"x":173602.48999999929,"y":2547638.7400000002}},{"attributes":{"ID":150855,"DIS_CODE":0,"TOWNNAME":"永康區","LI":"正強里","LIN":"3鄰","STREET":"中正路","SECT":" ","MAREA":" ","LANE":"１巷","ALLEY":"２０弄","HOUSE_NO":"２０號","E_COORD97":173598.98999999999,"N_COORD97":2547636.7400000002,"ADDRESS":"中正路１巷２０弄２０號","OBJECTID":150854},"geometry":{"x":173598.99000000022,"y":2547636.7399999984}},{"attributes":{"ID":150856,"DIS_CODE":0,"TOWNNAME":"永康區","LI":"正強里","LIN":"3鄰","STREET":"中正路","SECT":" ","MAREA":" ","LANE":"１巷","ALLEY":"２０弄","HOUSE_NO":"１２號","E_COORD97":173613.09,"N_COORD97":2547644.7400000002,"ADDRESS":"中正路１巷２０弄１２號","OBJECTID":150855},"geometry":{"x":173613.08999999985,"y":2547644.7400000021}},{"attributes":{"ID":150857,"DIS_CODE":0,"TOWNNAME":"永康區","LI":"正強里","LIN":"3鄰","STREET":"中正路","SECT":" ","MAREA":" ","LANE":"１巷","ALLEY":"２０弄","HOUSE_NO":"９號","E_COORD97":173636.16,"N_COORD97":2547637.2400000002,"ADDRESS":"中正路１巷２０弄９號","OBJECTID":150856},"geometry":{"x":173636.16000000015,"y":2547637.2400000039}},{"attributes":{"ID":150858,"DIS_CODE":0,"TOWNNAME":"永康區","LI":"正強里","LIN":"3鄰","STREET":"中正路","SECT":" ","MAREA":" ","LANE":"１巷","ALLEY":"２０弄","HOUSE_NO":"２３號","E_COORD97":173608.01999999999,"N_COORD97":2547620.6299999999,"ADDRESS":"中正路１巷２０弄２３號","OBJECTID":150857},"geometry":{"x":173608.01999999955,"y":2547620.6300000008}},{"attributes":{"ID":150859,"DIS_CODE":0,"TOWNNAME":"永康區","LI":"正強里","LIN":"3鄰","STREET":"中正路","SECT":" ","MAREA":" ","LANE":"１巷","ALLEY":"２０弄","HOUSE_NO":"７號","E_COORD97":173639.62,"N_COORD97":2547639.4900000002,"ADDRESS":"中正路１巷２０弄７號","OBJECTID":150858},"geometry":{"x":173639.62000000104,"y":2547639.4900000021}},{"attributes":{"ID":150860,"DIS_CODE":0,"TOWNNAME":"永康區","LI":"正強里","LIN":"3鄰","STREET":"中正路","SECT":" ","MAREA":" ","LANE":"１巷","ALLEY":"２０弄","HOUSE_NO":"２６號","E_COORD97":173587.39000000001,"N_COORD97":2547630.2400000002,"ADDRESS":"中正路１巷２０弄２６號","OBJECTID":150859},"geometry":{"x":173587.39000000153,"y":2547630.2400000039}},{"attributes":{"ID":150861,"DIS_CODE":0,"TOWNNAME":"東區","LI":"東安里","LIN":"22鄰","STREET":"衛國街","SECT":" ","MAREA":" ","LANE":" ","ALLEY":" ","HOUSE_NO":"２號之２","E_COORD97":170235.79999999999,"N_COORD97":2542940.8399999999,"ADDRESS":"衛國街２號之２","OBJECTID":150860},"geometry":{"x":170235.80000000075,"y":2542940.8400000017}},{"attributes":{"ID":150862,"DIS_CODE":0,"TOWNNAME":"東區","LI":"東智里","LIN":" ","STREET":"崇德路","SECT":" ","MAREA":" ","LANE":" ","ALLEY":" ","HOUSE_NO":"９１２之１號","E_COORD97":170775.20000000001,"N_COORD97":2540214.8599999999,"ADDRESS":"崇德路９１２之１號","OBJECTID":150861},"geometry":{"x":170775.19999999925,"y":2540214.8600000013}},{"attributes":{"ID":150863,"DIS_CODE":0,"TOWNNAME":"東區","LI":"東智里","LIN":" ","STREET":"崇德路","SECT":" ","MAREA":" ","LANE":" ","ALLEY":" ","HOUSE_NO":"９３６號","E_COORD97":170749.37,"N_COORD97":2540179.6600000001,"ADDRESS":"崇德路９３６號","OBJECTID":150862},"geometry":{"x":170749.37000000104,"y":2540179.660000002}},{"attributes":{"ID":150864,"DIS_CODE":0,"TOWNNAME":"永康區","LI":"六合里","LIN":"3鄰","STREET":"新興街","SECT":" ","MAREA":" ","LANE":"３５巷","ALLEY":"１５弄","HOUSE_NO":"６號三樓","E_COORD97":170995.03,"N_COORD97":2545854.25,"ADDRESS":"新興街３５巷１５弄６號三樓","OBJECTID":150863},"geometry":{"x":170995.03000000026,"y":2545854.2500000019}},{"attributes":{"ID":150865,"DIS_CODE":0,"TOWNNAME":"永康區","LI":"龍潭里","LIN":"19鄰","STREET":"自強路","SECT":" ","MAREA":" ","LANE":"８７２巷","ALLEY":" ","HOUSE_NO":"１２號","E_COORD97":174745.64000000001,"N_COORD97":2548673.71,"ADDRESS":"自強路８７２巷１２號","OBJECTID":150864},"geometry":{"x":174745.6400000006,"y":2548673.7100000009}},{"attributes":{"ID":150866,"DIS_CODE":0,"TOWNNAME":"東區","LI":"虎尾里","LIN":" ","STREET":"東門路","SECT":"三段","MAREA":" ","LANE":" ","ALLEY":" ","HOUSE_NO":"１３１之１號","E_COORD97":171375.03,"N_COORD97":2542115.8100000001,"ADDRESS":"東門路三段１３１之１號","OBJECTID":150865},"geometry":{"x":171375.03000000212,"y":2542115.8100000005}},{"attributes":{"ID":150867,"DIS_CODE":0,"TOWNNAME":"將軍區","LI":"鯤鯓里","LIN":"19鄰","STREET":" ","SECT":" ","MAREA":"鯤鯓","LANE":" ","ALLEY":" ","HOUSE_NO":"２２２之１３號","E_COORD97":156907.92999999999,"N_COORD97":2565546.3900000001,"ADDRESS":"鯤鯓２２２之１３號","OBJECTID":150866},"geometry":{"x":156907.9299999997,"y":2565546.3900000006}},{"attributes":{"ID":150868,"DIS_CODE":0,"TOWNNAME":"歸仁區","LI":"新厝里","LIN":"19鄰","STREET":"大成路","SECT":" ","MAREA":" ","LANE":" ","ALLEY":" ","HOUSE_NO":"６８號","E_COORD97":177635.59,"N_COORD97":2540370.1800000002,"ADDRESS":"大成路６８號","OBJECTID":150867},"geometry":{"x":177635.58999999985,"y":2540370.1799999997}},{"attributes":{"ID":150869,"DIS_CODE":0,"TOWNNAME":"下營區","LI":"新興里","LIN":"19鄰","STREET":"新興街","SECT":" ","MAREA":" ","LANE":" ","ALLEY":" ","HOUSE_NO":"８號","E_COORD97":175091.79999999999,"N_COORD97":2570715.21,"ADDRESS":"新興街８號","OBJECTID":150868},"geometry":{"x":175091.80000000168,"y":2570715.2100000009}},{"attributes":{"ID":150870,"DIS_CODE":0,"TOWNNAME":"永康區","LI":"六合里","LIN":"3鄰","STREET":"新興街","SECT":" ","MAREA":" ","LANE":"３５巷","ALLEY":"１５弄","HOUSE_NO":"４號五樓","E_COORD97":170999.42999999999,"N_COORD97":2545860,"ADDRESS":"新興街３５巷１５弄４號五樓","OBJECTID":150869},"geometry":{"x":170999.43000000063,"y":2545860.0000000019}},{"attributes":{"ID":150871,"DIS_CODE":0,"TOWNNAME":"龍崎區","LI":"崎頂里","LIN":"19鄰","STREET":" ","SECT":" ","MAREA":"水坑","LANE":" ","ALLEY":" ","HOUSE_NO":"１１號","E_COORD97":186395.76999999999,"N_COORD97":2541430.2799999998,"ADDRESS":"水坑１１號","OBJECTID":150870},"geometry":{"x":186395.77000000048,"y":2541430.2799999993}},{"attributes":{"ID":150872,"DIS_CODE":0,"TOWNNAME":"龍崎區","LI":"崎頂里","LIN":"19鄰","STREET":" ","SECT":" ","MAREA":"水坑","LANE":" ","ALLEY":" ","HOUSE_NO":"１２號","E_COORD97":186313.07000000001,"N_COORD97":2541542.2799999998,"ADDRESS":"水坑１２號","OBJECTID":150871},"geometry":{"x":186313.07000000123,"y":2541542.2799999993}},{"attributes":{"ID":150873,"DIS_CODE":0,"TOWNNAME":"龍崎區","LI":"崎頂里","LIN":"19鄰","STREET":" ","SECT":" ","MAREA":"水坑","LANE":" ","ALLEY":" ","HOUSE_NO":"９號","E_COORD97":186570.72,"N_COORD97":2541662.2799999998,"ADDRESS":"水坑９號","OBJECTID":150872},"geometry":{"x":186570.72000000067,"y":2541662.2800000012}},{"attributes":{"ID":150874,"DIS_CODE":0,"TOWNNAME":"龍崎區","LI":"崎頂里","LIN":"19鄰","STREET":" ","SECT":" ","MAREA":"水坑","LANE":" ","ALLEY":" ","HOUSE_NO":"８號","E_COORD97":187035.01999999999,"N_COORD97":2542432.2799999998,"ADDRESS":"水坑８號","OBJECTID":150873},"geometry":{"x":187035.02000000048,"y":2542432.2800000012}},{"attributes":{"ID":150875,"DIS_CODE":0,"TOWNNAME":"龍崎區","LI":"崎頂里","LIN":"19鄰","STREET":" ","SECT":" ","MAREA":"水坑","LANE":" ","ALLEY":" ","HOUSE_NO":"１０號","E_COORD97":186454.37,"N_COORD97":2541584.27,"ADDRESS":"水坑１０號","OBJECTID":150874},"geometry":{"x":186454.37000000011,"y":2541584.2700000033}},{"attributes":{"ID":150876,"DIS_CODE":0,"TOWNNAME":"新化區","LI":"全興里","LIN":"19鄰","STREET":" ","SECT":" ","MAREA":"竹子\u25A0","LANE":" ","ALLEY":" ","HOUSE_NO":"２４７號之１８８","E_COORD97":178541.39000000001,"N_COORD97":2546711.2599999998,"ADDRESS":"竹子\u25A0２４７號之１８８","OBJECTID":150875},"geometry":{"x":178541.3900000006,"y":2546711.2600000016}},{"attributes":{"ID":150877,"DIS_CODE":0,"TOWNNAME":"新化區","LI":"全興里","LIN":"19鄰","STREET":" ","SECT":" ","MAREA":"竹子\u25A0","LANE":" ","ALLEY":" ","HOUSE_NO":"２４７號之２５４","E_COORD97":178348.76999999999,"N_COORD97":2546719.2599999998,"ADDRESS":"竹子\u25A0２４７號之２５４","OBJECTID":150876},"geometry":{"x":178348.77000000048,"y":2546719.2600000016}},{"attributes":{"ID":150878,"DIS_CODE":0,"TOWNNAME":"安定區","LI":"蘇林里","LIN":"19鄰","STREET":" ","SECT":" ","MAREA":"蘇厝","LANE":" ","ALLEY":" ","HOUSE_NO":"２２３號","E_COORD97":173327.42000000001,"N_COORD97":2558884.25,"ADDRESS":"蘇厝２２３號","OBJECTID":150877},"geometry":{"x":173327.41999999993,"y":2558884.2500000019}},{"attributes":{"ID":150879,"DIS_CODE":0,"TOWNNAME":"大內區","LI":"內江里","LIN":"5鄰","STREET":" ","SECT":" ","MAREA":"內庄","LANE":" ","ALLEY":" ","HOUSE_NO":"２７２號","E_COORD97":184554.88,"N_COORD97":2557461.25,"ADDRESS":"內庄２７２號","OBJECTID":150878},"geometry":{"x":184554.87999999989,"y":2557461.25}},{"attributes":{"ID":150880,"DIS_CODE":0,"TOWNNAME":"大內區","LI":"內江里","LIN":"5鄰","STREET":" ","SECT":" ","MAREA":"內庄","LANE":" ","ALLEY":" ","HOUSE_NO":"２６３號之５","E_COORD97":184597.17000000001,"N_COORD97":2557414.2999999998,"ADDRESS":"內庄２６３號之５","OBJECTID":150879},"geometry":{"x":184597.16999999993,"y":2557414.3000000007}},{"attributes":{"ID":150881,"DIS_CODE":0,"TOWNNAME":"大內區","LI":"大內里","LIN":"5鄰","STREET":" ","SECT":" ","MAREA":"內庄","LANE":" ","ALLEY":" ","HOUSE_NO":"６７號之６","E_COORD97":184307.67000000001,"N_COORD97":2557749.2999999998,"ADDRESS":"內庄６７號之６","OBJECTID":150880},"geometry":{"x":184307.66999999993,"y":2557749.3000000007}},{"attributes":{"ID":150882,"DIS_CODE":0,"TOWNNAME":"大內區","LI":"內郭里","LIN":"5鄰","STREET":" ","SECT":" ","MAREA":"內庄","LANE":" ","ALLEY":" ","HOUSE_NO":"１８９號","E_COORD97":184824.88,"N_COORD97":2557359.25,"ADDRESS":"內庄１８９號","OBJECTID":150881},"geometry":{"x":184824.87999999989,"y":2557359.25}},{"attributes":{"ID":150883,"DIS_CODE":0,"TOWNNAME":"仁德區","LI":"中洲里","LIN":"5鄰","STREET":" ","SECT":" ","MAREA":"中洲","LANE":" ","ALLEY":" ","HOUSE_NO":"２５３號","E_COORD97":173231.37,"N_COORD97":2534066.2400000002,"ADDRESS":"中洲２５３號","OBJECTID":150882},"geometry":{"x":173231.37000000011,"y":2534066.2400000021}},{"attributes":{"ID":150884,"DIS_CODE":0,"TOWNNAME":"善化區","LI":"光文里","LIN":"5鄰","STREET":" ","SECT":" ","MAREA":"北子店","LANE":" ","ALLEY":" ","HOUSE_NO":"３０９號","E_COORD97":179215.13,"N_COORD97":2559702.75,"ADDRESS":"北子店３０９號","OBJECTID":150883},"geometry":{"x":179215.12999999989,"y":2559702.75}},{"attributes":{"ID":150885,"DIS_CODE":0,"TOWNNAME":"善化區","LI":"光文里","LIN":"5鄰","STREET":" ","SECT":" ","MAREA":"北子店","LANE":" ","ALLEY":" ","HOUSE_NO":"２２３號","E_COORD97":179245.66,"N_COORD97":2559644.5,"ADDRESS":"北子店２２３號","OBJECTID":150884},"geometry":{"x":179245.66000000015,"y":2559644.5000000019}},{"attributes":{"ID":150886,"DIS_CODE":0,"TOWNNAME":"善化區","LI":"田寮里","LIN":"5鄰","STREET":" ","SECT":" ","MAREA":"六分寮","LANE":" ","ALLEY":" ","HOUSE_NO":"６３號之１","E_COORD97":178544.01000000001,"N_COORD97":2561216.77,"ADDRESS":"六分寮６３號之１","OBJECTID":150885},"geometry":{"x":178544.01000000071,"y":2561216.7699999996}},{"attributes":{"ID":150887,"DIS_CODE":0,"TOWNNAME":"善化區","LI":"嘉北里","LIN":"5鄰","STREET":" ","SECT":" ","MAREA":"茄拔","LANE":" ","ALLEY":" ","HOUSE_NO":"１５１號之１２","E_COORD97":181072.22,"N_COORD97":2559726.52,"ADDRESS":"茄拔１５１號之１２","OBJECTID":150886},"geometry":{"x":181072.21999999974,"y":2559726.5199999996}},{"attributes":{"ID":150888,"DIS_CODE":0,"TOWNNAME":"善化區","LI":"嘉北里","LIN":"5鄰","STREET":" ","SECT":" ","MAREA":"茄拔","LANE":" ","ALLEY":" ","HOUSE_NO":"１５３號","E_COORD97":180989.76000000001,"N_COORD97":2559712.0099999998,"ADDRESS":"茄拔１５３號","OBJECTID":150887},"geometry":{"x":180989.76000000164,"y":2559712.0100000016}},{"attributes":{"ID":150889,"DIS_CODE":0,"TOWNNAME":"善化區","LI":"田寮里","LIN":"5鄰","STREET":" ","SECT":" ","MAREA":"六分寮","LANE":" ","ALLEY":" ","HOUSE_NO":"５７號","E_COORD97":178444.04999999999,"N_COORD97":2561269.25,"ADDRESS":"六分寮５７號","OBJECTID":150888},"geometry":{"x":178444.05000000075,"y":2561269.2499999981}},{"attributes":{"ID":150890,"DIS_CODE":0,"TOWNNAME":"善化區","LI":"光文里","LIN":"5鄰","STREET":" ","SECT":" ","MAREA":"北子店","LANE":" ","ALLEY":" ","HOUSE_NO":"２０９號","E_COORD97":179268.38,"N_COORD97":2559651.5,"ADDRESS":"北子店２０９號","OBJECTID":150889},"geometry":{"x":179268.38000000175,"y":2559651.5000000019}},{"attributes":{"ID":150891,"DIS_CODE":0,"TOWNNAME":"善化區","LI":"胡家里","LIN":"5鄰","STREET":" ","SECT":" ","MAREA":"胡厝寮","LANE":" ","ALLEY":" ","HOUSE_NO":"４６號","E_COORD97":175464.04999999999,"N_COORD97":2560540,"ADDRESS":"胡厝寮４６號","OBJECTID":150890},"geometry":{"x":175464.04999999981,"y":2560540.0000000019}},{"attributes":{"ID":150892,"DIS_CODE":0,"TOWNNAME":"善化區","LI":"嘉北里","LIN":"5鄰","STREET":" ","SECT":" ","MAREA":"茄拔","LANE":" ","ALLEY":" ","HOUSE_NO":"１５１號之１１","E_COORD97":181072.51000000001,"N_COORD97":2559722.27,"ADDRESS":"茄拔１５１號之１１","OBJECTID":150891},"geometry":{"x":181072.50999999978,"y":2559722.2699999996}},{"attributes":{"ID":150893,"DIS_CODE":0,"TOWNNAME":"永康區","LI":"六合里","LIN":"3鄰","STREET":"新興街","SECT":" ","MAREA":" ","LANE":"３５巷","ALLEY":"１５弄","HOUSE_NO":"２號五樓之１","E_COORD97":171005.79000000001,"N_COORD97":2545852.29,"ADDRESS":"新興街３５巷１５弄２號五樓之１","OBJECTID":150892},"geometry":{"x":171005.79000000097,"y":2545852.2900000028}},{"attributes":{"ID":150894,"DIS_CODE":0,"TOWNNAME":"學甲區","LI":"中洲里","LIN":"19鄰","STREET":" ","SECT":" ","MAREA":"中洲","LANE":" ","ALLEY":" ","HOUSE_NO":"１９３號之５","E_COORD97":162926.82999999999,"N_COORD97":2571078.77,"ADDRESS":"中洲１９３號之５","OBJECTID":150893},"geometry":{"x":162926.83000000007,"y":2571078.7700000014}},{"attributes":{"ID":150895,"DIS_CODE":0,"TOWNNAME":"永康區","LI":"六合里","LIN":"3鄰","STREET":"新興街","SECT":" ","MAREA":" ","LANE":"３５巷","ALLEY":"１５弄","HOUSE_NO":"６號五樓","E_COORD97":170995.03,"N_COORD97":2545854.25,"ADDRESS":"新興街３５巷１５弄６號五樓","OBJECTID":150894},"geometry":{"x":170995.03000000026,"y":2545854.2500000019}},{"attributes":{"ID":150896,"DIS_CODE":0,"TOWNNAME":"永康區","LI":"六合里","LIN":"3鄰","STREET":"新興街","SECT":" ","MAREA":" ","LANE":"３５巷","ALLEY":"１５弄","HOUSE_NO":"６號二樓","E_COORD97":170995.03,"N_COORD97":2545854.25,"ADDRESS":"新興街３５巷１５弄６號二樓","OBJECTID":150895},"geometry":{"x":170995.03000000026,"y":2545854.2500000019}},{"attributes":{"ID":150897,"DIS_CODE":0,"TOWNNAME":"永康區","LI":"六合里","LIN":"3鄰","STREET":"新興街","SECT":" ","MAREA":" ","LANE":"３５巷","ALLEY":"１５弄","HOUSE_NO":"４號三樓","E_COORD97":170999.42999999999,"N_COORD97":2545860,"ADDRESS":"新興街３５巷１５弄４號三樓","OBJECTID":150896},"geometry":{"x":170999.43000000063,"y":2545860.0000000019}},{"attributes":{"ID":150898,"DIS_CODE":0,"TOWNNAME":"永康區","LI":"六合里","LIN":"3鄰","STREET":"新興街","SECT":" ","MAREA":" ","LANE":"３５巷","ALLEY":"１５弄","HOUSE_NO":"４號六樓","E_COORD97":170999.42999999999,"N_COORD97":2545860,"ADDRESS":"新興街３５巷１５弄４號六樓","OBJECTID":150897},"geometry":{"x":170999.43000000063,"y":2545860.0000000019}},{"attributes":{"ID":150899,"DIS_CODE":0,"TOWNNAME":"永康區","LI":"六合里","LIN":"3鄰","STREET":"新興街","SECT":" ","MAREA":" ","LANE":"３５巷","ALLEY":"１５弄","HOUSE_NO":"２號二樓","E_COORD97":171003.66,"N_COORD97":2545852.25,"ADDRESS":"新興街３５巷１５弄２號二樓","OBJECTID":150898},"geometry":{"x":171003.66000000015,"y":2545852.25}},{"attributes":{"ID":150900,"DIS_CODE":0,"TOWNNAME":"永康區","LI":"六合里","LIN":"3鄰","STREET":"新興街","SECT":" ","MAREA":" ","LANE":"３５巷","ALLEY":"１５弄","HOUSE_NO":"６號六樓","E_COORD97":170995.03,"N_COORD97":2545854.25,"ADDRESS":"新興街３５巷１５弄６號六樓","OBJECTID":150899},"geometry":{"x":170995.03000000026,"y":2545854.2500000019}},{"attributes":{"ID":150901,"DIS_CODE":0,"TOWNNAME":"永康區","LI":"六合里","LIN":"3鄰","STREET":"新興街","SECT":" ","MAREA":" ","LANE":"３５巷","ALLEY":"１５弄","HOUSE_NO":"６號四樓","E_COORD97":170995.03,"N_COORD97":2545854.25,"ADDRESS":"新興街３５巷１５弄６號四樓","OBJECTID":150900},"geometry":{"x":170995.03000000026,"y":2545854.2500000019}},{"attributes":{"ID":150902,"DIS_CODE":0,"TOWNNAME":"南區","LI":"竹溪里","LIN":"3鄰","STREET":"健康路","SECT":"一段","MAREA":" ","LANE":"１３３巷","ALLEY":"８５弄","HOUSE_NO":"１０號四樓","E_COORD97":168912.97,"N_COORD97":2542180.8300000001,"ADDRESS":"健康路一段１３３巷８５弄１０號四樓","OBJECTID":150901},"geometry":{"x":168912.96999999974,"y":2542180.8300000001}},{"attributes":{"ID":150903,"DIS_CODE":0,"TOWNNAME":"南區","LI":"竹溪里","LIN":"3鄰","STREET":"健康路","SECT":"一段","MAREA":" ","LANE":"１３３巷","ALLEY":"８５弄","HOUSE_NO":"１０號五樓","E_COORD97":168912.97,"N_COORD97":2542180.8300000001,"ADDRESS":"健康路一段１３３巷８５弄１０號五樓","OBJECTID":150902},"geometry":{"x":168912.96999999974,"y":2542180.8300000001}},{"attributes":{"ID":150904,"DIS_CODE":0,"TOWNNAME":"南區","LI":"竹溪里","LIN":"3鄰","STREET":"健康路","SECT":"一段","MAREA":" ","LANE":"１３３巷","ALLEY":"８５弄","HOUSE_NO":"１２號二樓","E_COORD97":168912.97,"N_COORD97":2542172.7200000002,"ADDRESS":"健康路一段１３３巷８５弄１２號二樓","OBJECTID":150903},"geometry":{"x":168912.96999999974,"y":2542172.7200000025}},{"attributes":{"ID":150905,"DIS_CODE":0,"TOWNNAME":"南區","LI":"竹溪里","LIN":"3鄰","STREET":"健康路","SECT":"一段","MAREA":" ","LANE":"１３３巷","ALLEY":"８５弄","HOUSE_NO":"１２號三樓","E_COORD97":168912.97,"N_COORD97":2542172.7200000002,"ADDRESS":"健康路一段１３３巷８５弄１２號三樓","OBJECTID":150904},"geometry":{"x":168912.96999999974,"y":2542172.7200000025}},{"attributes":{"ID":150906,"DIS_CODE":0,"TOWNNAME":"南區","LI":"竹溪里","LIN":"3鄰","STREET":"健康路","SECT":"一段","MAREA":" ","LANE":"１３３巷","ALLEY":"８５弄","HOUSE_NO":"１２號四樓","E_COORD97":168912.97,"N_COORD97":2542172.7200000002,"ADDRESS":"健康路一段１３３巷８５弄１２號四樓","OBJECTID":150905},"geometry":{"x":168912.96999999974,"y":2542172.7200000025}},{"attributes":{"ID":150907,"DIS_CODE":0,"TOWNNAME":"南區","LI":"竹溪里","LIN":"3鄰","STREET":"健康路","SECT":"一段","MAREA":" ","LANE":"１３３巷","ALLEY":"８５弄","HOUSE_NO":"１２號五樓","E_COORD97":168912.97,"N_COORD97":2542172.7200000002,"ADDRESS":"健康路一段１３３巷８５弄１２號五樓","OBJECTID":150906},"geometry":{"x":168912.96999999974,"y":2542172.7200000025}},{"attributes":{"ID":150908,"DIS_CODE":0,"TOWNNAME":"南區","LI":"竹溪里","LIN":"3鄰","STREET":"健康路","SECT":"一段","MAREA":" ","LANE":"１３３巷","ALLEY":"８５弄","HOUSE_NO":"１４號二樓","E_COORD97":168923.26000000001,"N_COORD97":2542159.21,"ADDRESS":"健康路一段１３３巷８５弄１４號二樓","OBJECTID":150907},"geometry":{"x":168923.26000000164,"y":2542159.2100000046}},{"attributes":{"ID":150909,"DIS_CODE":0,"TOWNNAME":"南區","LI":"竹溪里","LIN":"3鄰","STREET":"健康路","SECT":"一段","MAREA":" ","LANE":"１３３巷","ALLEY":"８５弄","HOUSE_NO":"１４號四樓","E_COORD97":168923.26000000001,"N_COORD97":2542159.21,"ADDRESS":"健康路一段１３３巷８５弄１４號四樓","OBJECTID":150908},"geometry":{"x":168923.26000000164,"y":2542159.2100000046}},{"attributes":{"ID":150910,"DIS_CODE":0,"TOWNNAME":"南區","LI":"竹溪里","LIN":"3鄰","STREET":"健康路","SECT":"一段","MAREA":" ","LANE":"１３３巷","ALLEY":"８５弄","HOUSE_NO":"１４號五樓","E_COORD97":168923.26000000001,"N_COORD97":2542159.21,"ADDRESS":"健康路一段１３３巷８５弄１４號五樓","OBJECTID":150909},"geometry":{"x":168923.26000000164,"y":2542159.2100000046}},{"attributes":{"ID":150911,"DIS_CODE":0,"TOWNNAME":"南區","LI":"竹溪里","LIN":"3鄰","STREET":"健康路","SECT":"一段","MAREA":" ","LANE":"１３３巷","ALLEY":"８５弄","HOUSE_NO":"１４號三樓","E_COORD97":168923.26000000001,"N_COORD97":2542159.21,"ADDRESS":"健康路一段１３３巷８５弄１４號三樓","OBJECTID":150910},"geometry":{"x":168923.26000000164,"y":2542159.2100000046}},{"attributes":{"ID":150912,"DIS_CODE":0,"TOWNNAME":"南區","LI":"竹溪里","LIN":"3鄰","STREET":"健康路","SECT":"一段","MAREA":" ","LANE":"１３３巷","ALLEY":"８５弄","HOUSE_NO":"１６號二樓","E_COORD97":168931.92000000001,"N_COORD97":2542166.23,"ADDRESS":"健康路一段１３３巷８５弄１６號二樓","OBJECTID":150911},"geometry":{"x":168931.91999999993,"y":2542166.2300000023}},{"attributes":{"ID":150913,"DIS_CODE":0,"TOWNNAME":"南區","LI":"竹溪里","LIN":"3鄰","STREET":"健康路","SECT":"一段","MAREA":" ","LANE":"１３３巷","ALLEY":"８５弄","HOUSE_NO":"１６號三樓","E_COORD97":168931.92000000001,"N_COORD97":2542166.23,"ADDRESS":"健康路一段１３３巷８５弄１６號三樓","OBJECTID":150912},"geometry":{"x":168931.91999999993,"y":2542166.2300000023}},{"attributes":{"ID":150914,"DIS_CODE":0,"TOWNNAME":"南區","LI":"竹溪里","LIN":"3鄰","STREET":"健康路","SECT":"一段","MAREA":" ","LANE":"１３３巷","ALLEY":"８５弄","HOUSE_NO":"１６號四樓","E_COORD97":168931.92000000001,"N_COORD97":2542166.23,"ADDRESS":"健康路一段１３３巷８５弄１６號四樓","OBJECTID":150913},"geometry":{"x":168931.91999999993,"y":2542166.2300000023}},{"attributes":{"ID":150915,"DIS_CODE":0,"TOWNNAME":"南區","LI":"竹溪里","LIN":"3鄰","STREET":"健康路","SECT":"一段","MAREA":" ","LANE":"１３３巷","ALLEY":"８５弄","HOUSE_NO":"１６號五樓","E_COORD97":168931.92000000001,"N_COORD97":2542166.23,"ADDRESS":"健康路一段１３３巷８５弄１６號五樓","OBJECTID":150914},"geometry":{"x":168931.91999999993,"y":2542166.2300000023}},{"attributes":{"ID":150916,"DIS_CODE":0,"TOWNNAME":"南區","LI":"竹溪里","LIN":"3鄰","STREET":"健康路","SECT":"一段","MAREA":" ","LANE":"１３３巷","ALLEY":"８５弄","HOUSE_NO":"１８號二樓","E_COORD97":168933.54000000001,"N_COORD97":2542180.29,"ADDRESS":"健康路一段１３３巷８５弄１８號二樓","OBJECTID":150915},"geometry":{"x":168933.5400000019,"y":2542180.2900000028}},{"attributes":{"ID":150917,"DIS_CODE":0,"TOWNNAME":"善化區","LI":"田寮里","LIN":"5鄰","STREET":" ","SECT":" ","MAREA":"六分寮","LANE":" ","ALLEY":" ","HOUSE_NO":"５５之３號","E_COORD97":178562.87,"N_COORD97":2561048.02,"ADDRESS":"六分寮５５之３號","OBJECTID":150916},"geometry":{"x":178562.87000000011,"y":2561048.0200000014}},{"attributes":{"ID":150918,"DIS_CODE":0,"TOWNNAME":"麻豆區","LI":"北勢里","LIN":"5鄰","STREET":" ","SECT":" ","MAREA":"北勢寮","LANE":" ","ALLEY":" ","HOUSE_NO":"３號之２","E_COORD97":172624.26000000001,"N_COORD97":2567152.2599999998,"ADDRESS":"北勢寮３號之２","OBJECTID":150917},"geometry":{"x":172624.26000000071,"y":2567152.2600000016}},{"attributes":{"ID":150919,"DIS_CODE":0,"TOWNNAME":"麻豆區","LI":"北勢里","LIN":"5鄰","STREET":" ","SECT":" ","MAREA":"北勢寮","LANE":" ","ALLEY":" ","HOUSE_NO":"３號之３","E_COORD97":172634.45999999999,"N_COORD97":2567111.1000000001,"ADDRESS":"北勢寮３號之３","OBJECTID":150918},"geometry":{"x":172634.45999999903,"y":2567111.0999999996}},{"attributes":{"ID":150920,"DIS_CODE":0,"TOWNNAME":"麻豆區","LI":"北勢里","LIN":"5鄰","STREET":" ","SECT":" ","MAREA":"北勢寮","LANE":" ","ALLEY":" ","HOUSE_NO":"３號之５","E_COORD97":172698.19,"N_COORD97":2567018.2200000002,"ADDRESS":"北勢寮３號之５","OBJECTID":150919},"geometry":{"x":172698.19000000134,"y":2567018.2200000025}},{"attributes":{"ID":150921,"DIS_CODE":0,"TOWNNAME":"麻豆區","LI":"北勢里","LIN":"5鄰","STREET":" ","SECT":" ","MAREA":"北勢寮","LANE":" ","ALLEY":" ","HOUSE_NO":"３號","E_COORD97":172605.88,"N_COORD97":2567167.48,"ADDRESS":"北勢寮３號","OBJECTID":150920},"geometry":{"x":172605.87999999989,"y":2567167.4800000042}},{"attributes":{"ID":150922,"DIS_CODE":0,"TOWNNAME":"麻豆區","LI":"北勢里","LIN":"5鄰","STREET":" ","SECT":" ","MAREA":"北勢寮","LANE":" ","ALLEY":" ","HOUSE_NO":"４號","E_COORD97":172598.62,"N_COORD97":2567153.3999999999,"ADDRESS":"北勢寮４號","OBJECTID":150921},"geometry":{"x":172598.62000000104,"y":2567153.4000000004}},{"attributes":{"ID":150923,"DIS_CODE":0,"TOWNNAME":"麻豆區","LI":"北勢里","LIN":"5鄰","STREET":" ","SECT":" ","MAREA":"北勢寮","LANE":" ","ALLEY":" ","HOUSE_NO":"５號","E_COORD97":172591.14999999999,"N_COORD97":2567142.8999999999,"ADDRESS":"北勢寮５號","OBJECTID":150922},"geometry":{"x":172591.15000000037,"y":2567142.9000000004}},{"attributes":{"ID":150924,"DIS_CODE":0,"TOWNNAME":"安定區","LI":"保西里","LIN":"5鄰","STREET":" ","SECT":" ","MAREA":"安定","LANE":" ","ALLEY":" ","HOUSE_NO":"３７３號","E_COORD97":171571.22,"N_COORD97":2557623.3199999998,"ADDRESS":"安定３７３號","OBJECTID":150923},"geometry":{"x":171571.21999999974,"y":2557623.3200000003}},{"attributes":{"ID":150925,"DIS_CODE":0,"TOWNNAME":"南區","LI":"竹溪里","LIN":"3鄰","STREET":"健康路","SECT":"一段","MAREA":" ","LANE":"１３３巷","ALLEY":"８５弄","HOUSE_NO":"１８號三樓","E_COORD97":168933.54000000001,"N_COORD97":2542180.29,"ADDRESS":"健康路一段１３３巷８５弄１８號三樓","OBJECTID":150924},"geometry":{"x":168933.5400000019,"y":2542180.2900000028}},{"attributes":{"ID":150926,"DIS_CODE":0,"TOWNNAME":"歸仁區","LI":"崙頂里","LIN":"19鄰","STREET":"大成路","SECT":" ","MAREA":" ","LANE":"１６１巷","ALLEY":" ","HOUSE_NO":"３２號","E_COORD97":177841.92999999999,"N_COORD97":2540242.98,"ADDRESS":"大成路１６１巷３２號","OBJECTID":150925},"geometry":{"x":177841.9299999997,"y":2540242.9800000004}},{"attributes":{"ID":150927,"DIS_CODE":0,"TOWNNAME":"南區","LI":"文南里","LIN":"15鄰","STREET":"美南街","SECT":" ","MAREA":" ","LANE":" ","ALLEY":" ","HOUSE_NO":"１５２號","E_COORD97":166695.94,"N_COORD97":2542792.0099999998,"ADDRESS":"美南街１５２號","OBJECTID":150926},"geometry":{"x":166695.94000000134,"y":2542792.0099999998}},{"attributes":{"ID":150928,"DIS_CODE":0,"TOWNNAME":"南區","LI":"文南里","LIN":"15鄰","STREET":"美南街","SECT":" ","MAREA":" ","LANE":" ","ALLEY":" ","HOUSE_NO":"１５４號","E_COORD97":166695.94,"N_COORD97":2542787.79,"ADDRESS":"美南街１５４號","OBJECTID":150927},"geometry":{"x":166695.94000000134,"y":2542787.790000001}},{"attributes":{"ID":150929,"DIS_CODE":0,"TOWNNAME":"南區","LI":"竹溪里","LIN":"3鄰","STREET":"健康路","SECT":"一段","MAREA":" ","LANE":"１３３巷","ALLEY":"８５弄","HOUSE_NO":"１８號四樓","E_COORD97":168933.54000000001,"N_COORD97":2542180.29,"ADDRESS":"健康路一段１３３巷８５弄１８號四樓","OBJECTID":150928},"geometry":{"x":168933.5400000019,"y":2542180.2900000028}},{"attributes":{"ID":150930,"DIS_CODE":0,"TOWNNAME":"南區","LI":"竹溪里","LIN":"3鄰","STREET":"健康路","SECT":"一段","MAREA":" ","LANE":"１３３巷","ALLEY":"８５弄","HOUSE_NO":"１８號五樓","E_COORD97":168933.54000000001,"N_COORD97":2542180.29,"ADDRESS":"健康路一段１３３巷８５弄１８號五樓","OBJECTID":150929},"geometry":{"x":168933.5400000019,"y":2542180.2900000028}},{"attributes":{"ID":150931,"DIS_CODE":0,"TOWNNAME":"南區","LI":"竹溪里","LIN":"3鄰","STREET":"健康路","SECT":"一段","MAREA":" ","LANE":"１３３巷","ALLEY":"８５弄","HOUSE_NO":"２０號二樓","E_COORD97":168916.22,"N_COORD97":2542175.96,"ADDRESS":"健康路一段１３３巷８５弄２０號二樓","OBJECTID":150930},"geometry":{"x":168916.21999999974,"y":2542175.9600000028}},{"attributes":{"ID":150932,"DIS_CODE":0,"TOWNNAME":"南區","LI":"竹溪里","LIN":"3鄰","STREET":"健康路","SECT":"一段","MAREA":" ","LANE":"１３３巷","ALLEY":"８５弄","HOUSE_NO":"２０號三樓","E_COORD97":168916.22,"N_COORD97":2542175.96,"ADDRESS":"健康路一段１３３巷８５弄２０號三樓","OBJECTID":150931},"geometry":{"x":168916.21999999974,"y":2542175.9600000028}},{"attributes":{"ID":150933,"DIS_CODE":0,"TOWNNAME":"南區","LI":"竹溪里","LIN":"3鄰","STREET":"健康路","SECT":"一段","MAREA":" ","LANE":"１３３巷","ALLEY":"８５弄","HOUSE_NO":"２０號四樓","E_COORD97":168916.22,"N_COORD97":2542175.96,"ADDRESS":"健康路一段１３３巷８５弄２０號四樓","OBJECTID":150932},"geometry":{"x":168916.21999999974,"y":2542175.9600000028}},{"attributes":{"ID":150934,"DIS_CODE":0,"TOWNNAME":"南區","LI":"竹溪里","LIN":"3鄰","STREET":"健康路","SECT":"一段","MAREA":" ","LANE":"１３３巷","ALLEY":"８５弄","HOUSE_NO":"２０號五樓","E_COORD97":168916.22,"N_COORD97":2542175.96,"ADDRESS":"健康路一段１３３巷８５弄２０號五樓","OBJECTID":150933},"geometry":{"x":168916.21999999974,"y":2542175.9600000028}},{"attributes":{"ID":150935,"DIS_CODE":0,"TOWNNAME":"南區","LI":"竹溪里","LIN":"3鄰","STREET":"健康路","SECT":"一段","MAREA":" ","LANE":"１３３巷","ALLEY":"８５弄","HOUSE_NO":"２２號二樓","E_COORD97":168929.75,"N_COORD97":2542179.21,"ADDRESS":"健康路一段１３３巷８５弄２２號二樓","OBJECTID":150934},"geometry":{"x":168929.75,"y":2542179.209999999}},{"attributes":{"ID":150936,"DIS_CODE":0,"TOWNNAME":"南區","LI":"竹溪里","LIN":"3鄰","STREET":"健康路","SECT":"一段","MAREA":" ","LANE":"１３３巷","ALLEY":"８５弄","HOUSE_NO":"２２號三樓","E_COORD97":168929.75,"N_COORD97":2542179.21,"ADDRESS":"健康路一段１３３巷８５弄２２號三樓","OBJECTID":150935},"geometry":{"x":168929.75,"y":2542179.209999999}},{"attributes":{"ID":150937,"DIS_CODE":0,"TOWNNAME":"北區","LI":"永祥里","LIN":"19鄰","STREET":"大武街","SECT":" ","MAREA":" ","LANE":" ","ALLEY":" ","HOUSE_NO":"５４３號","E_COORD97":170100.78,"N_COORD97":2546430.8700000001,"ADDRESS":"大武街５４３號","OBJECTID":150936},"geometry":{"x":170100.78000000119,"y":2546430.8700000029}},{"attributes":{"ID":150938,"DIS_CODE":0,"TOWNNAME":"麻豆區","LI":"北勢里","LIN":"5鄰","STREET":" ","SECT":" ","MAREA":"北勢寮","LANE":" ","ALLEY":" ","HOUSE_NO":"６號之２","E_COORD97":172607.64999999999,"N_COORD97":2567191.0499999998,"ADDRESS":"北勢寮６號之２","OBJECTID":150937},"geometry":{"x":172607.65000000037,"y":2567191.0500000045}},{"attributes":{"ID":150939,"DIS_CODE":0,"TOWNNAME":"麻豆區","LI":"北勢里","LIN":"5鄰","STREET":" ","SECT":" ","MAREA":"北勢寮","LANE":" ","ALLEY":" ","HOUSE_NO":"９號之２","E_COORD97":172523.03,"N_COORD97":2567142.2999999998,"ADDRESS":"北勢寮９號之２","OBJECTID":150938},"geometry":{"x":172523.03000000119,"y":2567142.3000000026}},{"attributes":{"ID":150940,"DIS_CODE":0,"TOWNNAME":"麻豆區","LI":"北勢里","LIN":"5鄰","STREET":" ","SECT":" ","MAREA":"北勢寮","LANE":" ","ALLEY":" ","HOUSE_NO":"９號","E_COORD97":172547.5,"N_COORD97":2567173.5,"ADDRESS":"北勢寮９號","OBJECTID":150939},"geometry":{"x":172547.5,"y":2567173.4999999981}},{"attributes":{"ID":150941,"DIS_CODE":0,"TOWNNAME":"新市區","LI":"三舍里","LIN":"5鄰","STREET":" ","SECT":" ","MAREA":"三舍","LANE":" ","ALLEY":" ","HOUSE_NO":"１３２之３號","E_COORD97":177901.39999999999,"N_COORD97":2554512.5499999998,"ADDRESS":"三舍１３２之３號","OBJECTID":150940},"geometry":{"x":177901.4000000013,"y":2554512.5500000026}},{"attributes":{"ID":150942,"DIS_CODE":0,"TOWNNAME":"新市區","LI":"三舍里","LIN":"5鄰","STREET":" ","SECT":" ","MAREA":"三舍","LANE":" ","ALLEY":" ","HOUSE_NO":"１２４號","E_COORD97":177883.76000000001,"N_COORD97":2554610.25,"ADDRESS":"三舍１２４號","OBJECTID":150941},"geometry":{"x":177883.75999999978,"y":2554610.25}},{"attributes":{"ID":150943,"DIS_CODE":0,"TOWNNAME":"新市區","LI":"永就里","LIN":"5鄰","STREET":" ","SECT":" ","MAREA":"永就","LANE":" ","ALLEY":" ","HOUSE_NO":"５５號","E_COORD97":178055.09,"N_COORD97":2551234.5,"ADDRESS":"永就５５號","OBJECTID":150942},"geometry":{"x":178055.09000000078,"y":2551234.5}},{"attributes":{"ID":150944,"DIS_CODE":0,"TOWNNAME":"安定區","LI":"中沙里","LIN":"5鄰","STREET":" ","SECT":" ","MAREA":"沙崙","LANE":" ","ALLEY":" ","HOUSE_NO":"１之１２號","E_COORD97":168821.57000000001,"N_COORD97":2552355.2999999998,"ADDRESS":"沙崙１之１２號","OBJECTID":150943},"geometry":{"x":168821.5700000003,"y":2552355.3000000007}},{"attributes":{"ID":150945,"DIS_CODE":0,"TOWNNAME":"安定區","LI":"中榮里","LIN":"5鄰","STREET":" ","SECT":" ","MAREA":"許中營","LANE":" ","ALLEY":" ","HOUSE_NO":"５０號","E_COORD97":172325.84,"N_COORD97":2555034.25,"ADDRESS":"許中營５０號","OBJECTID":150944},"geometry":{"x":172325.84000000078,"y":2555034.2499999981}},{"attributes":{"ID":150946,"DIS_CODE":0,"TOWNNAME":"安定區","LI":"中沙里","LIN":"5鄰","STREET":" ","SECT":" ","MAREA":"沙崙","LANE":" ","ALLEY":" ","HOUSE_NO":"１號","E_COORD97":168661.22,"N_COORD97":2552274.2799999998,"ADDRESS":"沙崙１號","OBJECTID":150945},"geometry":{"x":168661.22000000067,"y":2552274.2800000012}},{"attributes":{"ID":150947,"DIS_CODE":0,"TOWNNAME":"安定區","LI":"中沙里","LIN":"5鄰","STREET":" ","SECT":" ","MAREA":"沙崙","LANE":" ","ALLEY":" ","HOUSE_NO":"８號","E_COORD97":168566.92000000001,"N_COORD97":2552272.29,"ADDRESS":"沙崙８號","OBJECTID":150946},"geometry":{"x":168566.92000000086,"y":2552272.2899999991}},{"attributes":{"ID":150948,"DIS_CODE":0,"TOWNNAME":"安定區","LI":"大同里","LIN":"5鄰","STREET":" ","SECT":" ","MAREA":"大同","LANE":" ","ALLEY":" ","HOUSE_NO":"５０號","E_COORD97":170351.97,"N_COORD97":2553919.25,"ADDRESS":"大同５０號","OBJECTID":150947},"geometry":{"x":170351.96999999974,"y":2553919.2500000037}},{"attributes":{"ID":150949,"DIS_CODE":0,"TOWNNAME":"安定區","LI":"安定里","LIN":"5鄰","STREET":" ","SECT":" ","MAREA":"安定","LANE":" ","ALLEY":" ","HOUSE_NO":"１８號之４","E_COORD97":172193.13,"N_COORD97":2558240.3199999998,"ADDRESS":"安定１８號之４","OBJECTID":150948},"geometry":{"x":172193.13000000082,"y":2558240.3200000003}},{"attributes":{"ID":150950,"DIS_CODE":0,"TOWNNAME":"安定區","LI":"安定里","LIN":"5鄰","STREET":" ","SECT":" ","MAREA":"安定","LANE":" ","ALLEY":" ","HOUSE_NO":"１８之６號","E_COORD97":172154.57000000001,"N_COORD97":2558093.3199999998,"ADDRESS":"安定１８之６號","OBJECTID":150949},"geometry":{"x":172154.57000000216,"y":2558093.3200000022}},{"attributes":{"ID":150951,"DIS_CODE":0,"TOWNNAME":"安定區","LI":"大同里","LIN":"5鄰","STREET":" ","SECT":" ","MAREA":"大同","LANE":" ","ALLEY":" ","HOUSE_NO":"５０之２號","E_COORD97":170349.87,"N_COORD97":2553915.2999999998,"ADDRESS":"大同５０之２號","OBJECTID":150950},"geometry":{"x":170349.87000000011,"y":2553915.3000000007}},{"attributes":{"ID":150952,"DIS_CODE":0,"TOWNNAME":"安定區","LI":"大同里","LIN":"5鄰","STREET":" ","SECT":" ","MAREA":"大同","LANE":" ","ALLEY":" ","HOUSE_NO":"５３號","E_COORD97":170339.75607100001,"N_COORD97":2553885.67282,"ADDRESS":"大同５３號","OBJECTID":150951},"geometry":{"x":170339.75607100129,"y":2553885.67282}},{"attributes":{"ID":150953,"DIS_CODE":0,"TOWNNAME":"安定區","LI":"六嘉里","LIN":"5鄰","STREET":" ","SECT":" ","MAREA":"六塊寮","LANE":" ","ALLEY":" ","HOUSE_NO":"４１號之１６","E_COORD97":170256.31,"N_COORD97":2553439.2999999998,"ADDRESS":"六塊寮４１號之１６","OBJECTID":150952},"geometry":{"x":170256.30999999959,"y":2553439.3000000026}},{"attributes":{"ID":150954,"DIS_CODE":0,"TOWNNAME":"安定區","LI":"大同里","LIN":"5鄰","STREET":" ","SECT":" ","MAREA":"大同","LANE":" ","ALLEY":" ","HOUSE_NO":"５３之２號","E_COORD97":170344.76999999999,"N_COORD97":2553881.2999999998,"ADDRESS":"大同５３之２號","OBJECTID":150953},"geometry":{"x":170344.76999999955,"y":2553881.3000000007}},{"attributes":{"ID":150955,"DIS_CODE":0,"TOWNNAME":"安定區","LI":"港尾里","LIN":"5鄰","STREET":" ","SECT":" ","MAREA":"港子尾","LANE":" ","ALLEY":" ","HOUSE_NO":"９號","E_COORD97":171536.64000000001,"N_COORD97":2556132.2599999998,"ADDRESS":"港子尾９號","OBJECTID":150954},"geometry":{"x":171536.6400000006,"y":2556132.2599999998}},{"attributes":{"ID":150956,"DIS_CODE":0,"TOWNNAME":"安定區","LI":"大同里","LIN":"5鄰","STREET":" ","SECT":" ","MAREA":"大同","LANE":" ","ALLEY":" ","HOUSE_NO":"５２之１號","E_COORD97":170317.34,"N_COORD97":2553932.7200000002,"ADDRESS":"大同５２之１號","OBJECTID":150955},"geometry":{"x":170317.33999999985,"y":2553932.7200000007}},{"attributes":{"ID":150957,"DIS_CODE":0,"TOWNNAME":"安定區","LI":"港尾里","LIN":"5鄰","STREET":" ","SECT":" ","MAREA":"港子尾","LANE":" ","ALLEY":" ","HOUSE_NO":"７號","E_COORD97":171501.94,"N_COORD97":2556129.2599999998,"ADDRESS":"港子尾７號","OBJECTID":150956},"geometry":{"x":171501.94000000134,"y":2556129.2600000035}},{"attributes":{"ID":150958,"DIS_CODE":0,"TOWNNAME":"安定區","LI":"港尾里","LIN":"5鄰","STREET":" ","SECT":" ","MAREA":"港子尾","LANE":" ","ALLEY":" ","HOUSE_NO":"９之１號","E_COORD97":171542.67999999999,"N_COORD97":2556160.2999999998,"ADDRESS":"港子尾９號之１","OBJECTID":150957},"geometry":{"x":171542.67999999877,"y":2556160.2999999989}},{"attributes":{"ID":150959,"DIS_CODE":0,"TOWNNAME":"安定區","LI":"港口里","LIN":"5鄰","STREET":" ","SECT":" ","MAREA":"港口","LANE":" ","ALLEY":" ","HOUSE_NO":"２６４之６號","E_COORD97":171511.09,"N_COORD97":2554687.2999999998,"ADDRESS":"港口２６４之６號","OBJECTID":150958},"geometry":{"x":171511.08999999985,"y":2554687.3000000026}},{"attributes":{"ID":150960,"DIS_CODE":0,"TOWNNAME":"新營區","LI":"太南里","LIN":"19鄰","STREET":" ","SECT":" ","MAREA":"太子宮","LANE":" ","ALLEY":" ","HOUSE_NO":"３１３之１８號","E_COORD97":175917.32000000001,"N_COORD97":2576475.1899999999,"ADDRESS":"太子宮３１３之１８號","OBJECTID":150959},"geometry":{"x":175917.3200000003,"y":2576475.1900000032}},{"attributes":{"ID":150961,"DIS_CODE":0,"TOWNNAME":"新營區","LI":"太北里","LIN":"19鄰","STREET":" ","SECT":" ","MAREA":"太子宮","LANE":" ","ALLEY":" ","HOUSE_NO":"４３號之１３","E_COORD97":175752.48000000001,"N_COORD97":2577161.52,"ADDRESS":"太子宮４３號之１３","OBJECTID":150960},"geometry":{"x":175752.48000000231,"y":2577161.5200000014}},{"attributes":{"ID":150962,"DIS_CODE":0,"TOWNNAME":"新營區","LI":"太北里","LIN":"19鄰","STREET":" ","SECT":" ","MAREA":"太子宮","LANE":" ","ALLEY":" ","HOUSE_NO":"４４號之１２","E_COORD97":175673.09,"N_COORD97":2577232.7999999998,"ADDRESS":"太子宮４４號之１２","OBJECTID":150961},"geometry":{"x":175673.09000000171,"y":2577232.8000000026}},{"attributes":{"ID":150963,"DIS_CODE":0,"TOWNNAME":"新營區","LI":"太南里","LIN":"19鄰","STREET":" ","SECT":" ","MAREA":"太子宮","LANE":" ","ALLEY":" ","HOUSE_NO":"３１５號","E_COORD97":175996.03,"N_COORD97":2576599.8700000001,"ADDRESS":"太子宮３１５號","OBJECTID":150962},"geometry":{"x":175996.03000000212,"y":2576599.870000001}},{"attributes":{"ID":150964,"DIS_CODE":0,"TOWNNAME":"新營區","LI":"太北里","LIN":"19鄰","STREET":" ","SECT":" ","MAREA":"太子宮","LANE":" ","ALLEY":" ","HOUSE_NO":"４４號之８","E_COORD97":175735.09,"N_COORD97":2577195.9399999999,"ADDRESS":"太子宮４４號之８","OBJECTID":150963},"geometry":{"x":175735.08999999985,"y":2577195.9400000013}},{"attributes":{"ID":150965,"DIS_CODE":0,"TOWNNAME":"新營區","LI":"太南里","LIN":"19鄰","STREET":" ","SECT":" ","MAREA":"太子宮","LANE":" ","ALLEY":" ","HOUSE_NO":"３１４之１１號","E_COORD97":175899.10000000001,"N_COORD97":2576309.1600000001,"ADDRESS":"太子宮３１４之１１號","OBJECTID":150964},"geometry":{"x":175899.09999999963,"y":2576309.1600000001}},{"attributes":{"ID":150966,"DIS_CODE":0,"TOWNNAME":"北區","LI":"永祥里","LIN":"19鄰","STREET":"大武街","SECT":" ","MAREA":" ","LANE":" ","ALLEY":" ","HOUSE_NO":"５９３號","E_COORD97":170208.01999999999,"N_COORD97":2546428.6800000002,"ADDRESS":"大武街５９３號","OBJECTID":150965},"geometry":{"x":170208.02000000142,"y":2546428.6799999997}},{"attributes":{"ID":150967,"DIS_CODE":0,"TOWNNAME":"南區","LI":"竹溪里","LIN":"3鄰","STREET":"健康路","SECT":"一段","MAREA":" ","LANE":"１３３巷","ALLEY":"８５弄","HOUSE_NO":"２２號四樓","E_COORD97":168929.75,"N_COORD97":2542179.21,"ADDRESS":"健康路一段１３３巷８５弄２２號四樓","OBJECTID":150966},"geometry":{"x":168929.75,"y":2542179.209999999}},{"attributes":{"ID":150968,"DIS_CODE":0,"TOWNNAME":"新營區","LI":"太南里","LIN":"19鄰","STREET":" ","SECT":" ","MAREA":"太子宮","LANE":" ","ALLEY":" ","HOUSE_NO":"３１４之２號","E_COORD97":175882.34,"N_COORD97":2576274.9100000001,"ADDRESS":"太子宮３１４之２號","OBJECTID":150967},"geometry":{"x":175882.34000000078,"y":2576274.910000002}},{"attributes":{"ID":150969,"DIS_CODE":0,"TOWNNAME":"安定區","LI":"海寮里","LIN":"5鄰","STREET":" ","SECT":" ","MAREA":"海寮","LANE":" ","ALLEY":" ","HOUSE_NO":"５１之１號","E_COORD97":169480.79000000001,"N_COORD97":2555397.2999999998,"ADDRESS":"海寮５１之１號","OBJECTID":150968},"geometry":{"x":169480.79000000004,"y":2555397.3000000007}},{"attributes":{"ID":150970,"DIS_CODE":0,"TOWNNAME":"安定區","LI":"港南里","LIN":"5鄰","STREET":" ","SECT":" ","MAREA":"港口","LANE":" ","ALLEY":" ","HOUSE_NO":"３５之７號","E_COORD97":171485.35000000001,"N_COORD97":2554214.2999999998,"ADDRESS":"港口３５號之７","OBJECTID":150969},"geometry":{"x":171485.34999999963,"y":2554214.2999999989}},{"attributes":{"ID":150971,"DIS_CODE":0,"TOWNNAME":"安定區","LI":"海寮里","LIN":"5鄰","STREET":" ","SECT":" ","MAREA":"海寮","LANE":" ","ALLEY":" ","HOUSE_NO":"５５號之１","E_COORD97":169469.42999999999,"N_COORD97":2555356.2999999998,"ADDRESS":"海寮５５號之１","OBJECTID":150970},"geometry":{"x":169469.4299999997,"y":2555356.3000000007}},{"attributes":{"ID":150972,"DIS_CODE":0,"TOWNNAME":"安定區","LI":"港南里","LIN":"5鄰","STREET":" ","SECT":" ","MAREA":"港口","LANE":" ","ALLEY":" ","HOUSE_NO":"３９之２號","E_COORD97":171574.14000000001,"N_COORD97":2554190.2999999998,"ADDRESS":"港口３９之２號","OBJECTID":150971},"geometry":{"x":171574.1400000006,"y":2554190.3000000007}},{"attributes":{"ID":150973,"DIS_CODE":0,"TOWNNAME":"安定區","LI":"海寮里","LIN":"5鄰","STREET":" ","SECT":" ","MAREA":"海寮","LANE":" ","ALLEY":" ","HOUSE_NO":"５１之２號","E_COORD97":169476.79000000001,"N_COORD97":2555396.2999999998,"ADDRESS":"海寮５１之２號","OBJECTID":150972},"geometry":{"x":169476.79000000097,"y":2555396.3000000007}},{"attributes":{"ID":150974,"DIS_CODE":0,"TOWNNAME":"南區","LI":"竹溪里","LIN":"3鄰","STREET":"健康路","SECT":"一段","MAREA":" ","LANE":"１３３巷","ALLEY":"８５弄","HOUSE_NO":"１號二樓","E_COORD97":168905.39999999999,"N_COORD97":2542219.75,"ADDRESS":"健康路一段１３３巷８５弄１號二樓","OBJECTID":150973},"geometry":{"x":168905.40000000037,"y":2542219.7500000019}},{"attributes":{"ID":150975,"DIS_CODE":0,"TOWNNAME":"安定區","LI":"安加里","LIN":"5鄰","STREET":" ","SECT":" ","MAREA":"安定","LANE":" ","ALLEY":" ","HOUSE_NO":"２０４號","E_COORD97":171852.51999999999,"N_COORD97":2557664.3199999998,"ADDRESS":"安定２０４號","OBJECTID":150974},"geometry":{"x":171852.52000000048,"y":2557664.3200000003}},{"attributes":{"ID":150976,"DIS_CODE":0,"TOWNNAME":"南區","LI":"竹溪里","LIN":"3鄰","STREET":"健康路","SECT":"一段","MAREA":" ","LANE":"１３３巷","ALLEY":"８５弄","HOUSE_NO":"１號三樓","E_COORD97":168905.39999999999,"N_COORD97":2542219.75,"ADDRESS":"健康路一段１３３巷８５弄１號三樓","OBJECTID":150975},"geometry":{"x":168905.40000000037,"y":2542219.7500000019}},{"attributes":{"ID":150977,"DIS_CODE":0,"TOWNNAME":"安定區","LI":"六嘉里","LIN":"5鄰","STREET":" ","SECT":" ","MAREA":"六塊寮","LANE":" ","ALLEY":" ","HOUSE_NO":"３９號之２","E_COORD97":170210.19,"N_COORD97":2553503.2999999998,"ADDRESS":"六塊寮３９號之２","OBJECTID":150976},"geometry":{"x":170210.19000000134,"y":2553503.3000000026}},{"attributes":{"ID":150978,"DIS_CODE":0,"TOWNNAME":"安定區","LI":"六嘉里","LIN":"5鄰","STREET":" ","SECT":" ","MAREA":"六塊寮","LANE":" ","ALLEY":" ","HOUSE_NO":"３３之１０號","E_COORD97":170214.67000000001,"N_COORD97":2553421.2999999998,"ADDRESS":"六塊寮３３之１０號","OBJECTID":150977},"geometry":{"x":170214.67000000086,"y":2553421.3000000045}},{"attributes":{"ID":150979,"DIS_CODE":0,"TOWNNAME":"南區","LI":"竹溪里","LIN":"3鄰","STREET":"健康路","SECT":"一段","MAREA":" ","LANE":"１３３巷","ALLEY":"８５弄","HOUSE_NO":"１號四樓","E_COORD97":168905.39999999999,"N_COORD97":2542219.75,"ADDRESS":"健康路一段１３３巷８５弄１號四樓","OBJECTID":150978},"geometry":{"x":168905.40000000037,"y":2542219.7500000019}},{"attributes":{"ID":150980,"DIS_CODE":0,"TOWNNAME":"南區","LI":"竹溪里","LIN":"3鄰","STREET":"健康路","SECT":"一段","MAREA":" ","LANE":"１３３巷","ALLEY":"８５弄","HOUSE_NO":"１號五樓","E_COORD97":168905.39999999999,"N_COORD97":2542219.75,"ADDRESS":"健康路一段１３３巷８５弄１號五樓","OBJECTID":150979},"geometry":{"x":168905.40000000037,"y":2542219.7500000019}},{"attributes":{"ID":150981,"DIS_CODE":0,"TOWNNAME":"南區","LI":"竹溪里","LIN":"3鄰","STREET":"健康路","SECT":"一段","MAREA":" ","LANE":"１３３巷","ALLEY":"８５弄","HOUSE_NO":"３號二樓","E_COORD97":168918.39000000001,"N_COORD97":2542220.29,"ADDRESS":"健康路一段１３３巷８５弄３號二樓","OBJECTID":150980},"geometry":{"x":168918.38999999966,"y":2542220.2899999991}},{"attributes":{"ID":150982,"DIS_CODE":0,"TOWNNAME":"南區","LI":"竹溪里","LIN":"3鄰","STREET":"健康路","SECT":"一段","MAREA":" ","LANE":"１３３巷","ALLEY":"８５弄","HOUSE_NO":"３號三樓","E_COORD97":168918.39000000001,"N_COORD97":2542220.29,"ADDRESS":"健康路一段１３３巷８５弄３號三樓","OBJECTID":150981},"geometry":{"x":168918.38999999966,"y":2542220.2899999991}},{"attributes":{"ID":150983,"DIS_CODE":0,"TOWNNAME":"南區","LI":"竹溪里","LIN":"3鄰","STREET":"健康路","SECT":"一段","MAREA":" ","LANE":"１３３巷","ALLEY":"８５弄","HOUSE_NO":"３號四樓","E_COORD97":168918.39000000001,"N_COORD97":2542220.29,"ADDRESS":"健康路一段１３３巷８５弄３號四樓","OBJECTID":150982},"geometry":{"x":168918.38999999966,"y":2542220.2899999991}},{"attributes":{"ID":150984,"DIS_CODE":0,"TOWNNAME":"安定區","LI":"南安里","LIN":"5鄰","STREET":" ","SECT":" ","MAREA":"油車","LANE":" ","ALLEY":" ","HOUSE_NO":"５４之１號","E_COORD97":170557.94,"N_COORD97":2555569.2999999998,"ADDRESS":"油車５４之１號","OBJECTID":150983},"geometry":{"x":170557.94000000041,"y":2555569.3000000007}},{"attributes":{"ID":150985,"DIS_CODE":0,"TOWNNAME":"南區","LI":"竹溪里","LIN":"3鄰","STREET":"健康路","SECT":"一段","MAREA":" ","LANE":"１３３巷","ALLEY":"８５弄","HOUSE_NO":"３號五樓","E_COORD97":168918.39000000001,"N_COORD97":2542220.29,"ADDRESS":"健康路一段１３３巷８５弄３號五樓","OBJECTID":150984},"geometry":{"x":168918.38999999966,"y":2542220.2899999991}},{"attributes":{"ID":150986,"DIS_CODE":0,"TOWNNAME":"南區","LI":"竹溪里","LIN":"3鄰","STREET":"健康路","SECT":"一段","MAREA":" ","LANE":"１３３巷","ALLEY":"８５弄","HOUSE_NO":"５號二樓","E_COORD97":168923.26000000001,"N_COORD97":2542219.75,"ADDRESS":"健康路一段１３３巷８５弄５號二樓","OBJECTID":150985},"geometry":{"x":168923.26000000164,"y":2542219.7500000019}},{"attributes":{"ID":150987,"DIS_CODE":0,"TOWNNAME":"南區","LI":"新興里","LIN":"19鄰","STREET":"新興路","SECT":" ","MAREA":" ","LANE":" ","ALLEY":" ","HOUSE_NO":"１４４號","E_COORD97":167448.73000000001,"N_COORD97":2542096.6000000001,"ADDRESS":"新興路１４４號","OBJECTID":150986},"geometry":{"x":167448.73000000045,"y":2542096.5999999996}},{"attributes":{"ID":150988,"DIS_CODE":0,"TOWNNAME":"南區","LI":"新興里","LIN":"19鄰","STREET":"新興路","SECT":" ","MAREA":" ","LANE":" ","ALLEY":" ","HOUSE_NO":"１４８號","E_COORD97":167441.17999999999,"N_COORD97":2542091.0099999998,"ADDRESS":"新興路１４８號","OBJECTID":150987},"geometry":{"x":167441.18000000063,"y":2542091.0099999998}},{"attributes":{"ID":150989,"DIS_CODE":0,"TOWNNAME":"南區","LI":"新興里","LIN":"19鄰","STREET":"新興路","SECT":" ","MAREA":" ","LANE":" ","ALLEY":" ","HOUSE_NO":"１５０號","E_COORD97":167440.98000000001,"N_COORD97":2542086.0099999998,"ADDRESS":"新興路１５０號","OBJECTID":150988},"geometry":{"x":167440.98000000231,"y":2542086.0100000016}},{"attributes":{"ID":150990,"DIS_CODE":0,"TOWNNAME":"西港區","LI":"慶安里","LIN":"36鄰","STREET":"中山路","SECT":" ","MAREA":" ","LANE":" ","ALLEY":" ","HOUSE_NO":"２１號","E_COORD97":168399.94,"N_COORD97":2557096.9199999999,"ADDRESS":"中山路２１號","OBJECTID":150989},"geometry":{"x":168399.94000000041,"y":2557096.9199999999}},{"attributes":{"ID":150991,"DIS_CODE":0,"TOWNNAME":"南區","LI":"新興里","LIN":"19鄰","STREET":"新興路","SECT":" ","MAREA":" ","LANE":" ","ALLEY":" ","HOUSE_NO":"１５２號","E_COORD97":167436.98000000001,"N_COORD97":2542080.21,"ADDRESS":"新興路１５２號","OBJECTID":150990},"geometry":{"x":167436.98000000045,"y":2542080.2100000009}},{"attributes":{"ID":150992,"DIS_CODE":0,"TOWNNAME":"南區","LI":"新興里","LIN":"19鄰","STREET":"新興路","SECT":" ","MAREA":" ","LANE":" ","ALLEY":" ","HOUSE_NO":"１５４號","E_COORD97":167429.98000000001,"N_COORD97":2542079.6099999999,"ADDRESS":"新興路１５４號","OBJECTID":150991},"geometry":{"x":167429.98000000045,"y":2542079.6099999994}},{"attributes":{"ID":150993,"DIS_CODE":0,"TOWNNAME":"南區","LI":"新興里","LIN":"19鄰","STREET":"新興路","SECT":" ","MAREA":" ","LANE":" ","ALLEY":" ","HOUSE_NO":"１５８號","E_COORD97":167417.62,"N_COORD97":2542067.54,"ADDRESS":"新興路１５８號","OBJECTID":150992},"geometry":{"x":167417.62000000197,"y":2542067.540000001}},{"attributes":{"ID":150994,"DIS_CODE":0,"TOWNNAME":"南區","LI":"新興里","LIN":"19鄰","STREET":"新興路","SECT":" ","MAREA":" ","LANE":" ","ALLEY":" ","HOUSE_NO":"１６０號","E_COORD97":167405.62,"N_COORD97":2542056.2400000002,"ADDRESS":"新興路１６０號","OBJECTID":150993},"geometry":{"x":167405.61999999918,"y":2542056.2399999984}},{"attributes":{"ID":150995,"DIS_CODE":0,"TOWNNAME":"東區","LI":"富裕里","LIN":"4鄰","STREET":"裕農路","SECT":" ","MAREA":" ","LANE":" ","ALLEY":" ","HOUSE_NO":"３４號","E_COORD97":170575.54000000001,"N_COORD97":2542848.8900000001,"ADDRESS":"裕農路３４號","OBJECTID":150994},"geometry":{"x":170575.54000000004,"y":2542848.8899999987}},{"attributes":{"ID":150996,"DIS_CODE":0,"TOWNNAME":"東區","LI":"虎尾里","LIN":" ","STREET":"富農街","SECT":"一段","MAREA":" ","LANE":" ","ALLEY":" ","HOUSE_NO":"１００號","E_COORD97":171511.06,"N_COORD97":2542297.6200000001,"ADDRESS":"富農街一段１００號","OBJECTID":150995},"geometry":{"x":171511.05999999959,"y":2542297.620000001}},{"attributes":{"ID":150997,"DIS_CODE":0,"TOWNNAME":"東區","LI":"虎尾里","LIN":" ","STREET":"富農街","SECT":"一段","MAREA":" ","LANE":" ","ALLEY":" ","HOUSE_NO":"４４號","E_COORD97":171505.54999999999,"N_COORD97":2542114.21,"ADDRESS":"富農街一段４４號","OBJECTID":150996},"geometry":{"x":171505.55000000075,"y":2542114.2100000009}},{"attributes":{"ID":150998,"DIS_CODE":0,"TOWNNAME":"南區","LI":"竹溪里","LIN":"3鄰","STREET":"健康路","SECT":"一段","MAREA":" ","LANE":"１３３巷","ALLEY":"８５弄","HOUSE_NO":"５號三樓","E_COORD97":168923.26000000001,"N_COORD97":2542219.75,"ADDRESS":"健康路一段１３３巷８５弄５號三樓","OBJECTID":150997},"geometry":{"x":168923.26000000164,"y":2542219.7500000019}},{"attributes":{"ID":150999,"DIS_CODE":0,"TOWNNAME":"南區","LI":"竹溪里","LIN":"3鄰","STREET":"健康路","SECT":"一段","MAREA":" ","LANE":"１３３巷","ALLEY":"８５弄","HOUSE_NO":"５號四樓","E_COORD97":168923.26000000001,"N_COORD97":2542219.75,"ADDRESS":"健康路一段１３３巷８５弄５號四樓","OBJECTID":150998},"geometry":{"x":168923.26000000164,"y":2542219.7500000019}},{"attributes":{"ID":151000,"DIS_CODE":0,"TOWNNAME":"南區","LI":"竹溪里","LIN":"3鄰","STREET":"健康路","SECT":"一段","MAREA":" ","LANE":"１３３巷","ALLEY":"８５弄","HOUSE_NO":"５號五樓","E_COORD97":168923.26000000001,"N_COORD97":2542219.75,"ADDRESS":"健康路一段１３３巷８５弄５號五樓","OBJECTID":150999},"geometry":{"x":168923.26000000164,"y":2542219.7500000019}},{"attributes":{"ID":151001,"DIS_CODE":0,"TOWNNAME":"永康區","LI":"六合里","LIN":"3鄰","STREET":"新興街","SECT":" ","MAREA":" ","LANE":"３５巷","ALLEY":"１５弄","HOUSE_NO":"２號六樓之１","E_COORD97":171005.79000000001,"N_COORD97":2545852.29,"ADDRESS":"新興街３５巷１５弄２號六樓之１","OBJECTID":151000},"geometry":{"x":171005.79000000097,"y":2545852.2900000028}}]}