{"displayFieldName":"TOWNNAME","fieldAliases":{"ID":"ID","DIS_CODE":"DIS_CODE","TOWNNAME":"TOWNNAME","LI":"LI","LIN":"LIN","STREET":"STREET","SECT":"SECT","MAREA":"MAREA","LANE":"LANE","ALLEY":"ALLEY","HOUSE_NO":"HOUSE_NO","E_COORD97":"E_COORD97","N_COORD97":"N_COORD97","ADDRESS":"ADDRESS","OBJECTID":"OBJECTID"},"geometryType":"esriGeometryPoint","spatialReference":{"wkid":102443,"latestWkid":3826},"fields":[{"name":"ID","type":"esriFieldTypeDouble","alias":"ID"},{"name":"DIS_CODE","type":"esriFieldTypeInteger","alias":"DIS_CODE"},{"name":"TOWNNAME","type":"esriFieldTypeString","alias":"TOWNNAME","length":8},{"name":"LI","type":"esriFieldTypeString","alias":"LI","length":8},{"name":"LIN","type":"esriFieldTypeString","alias":"LIN","length":12},{"name":"STREET","type":"esriFieldTypeString","alias":"STREET","length":20},{"name":"SECT","type":"esriFieldTypeString","alias":"SECT","length":8},{"name":"MAREA","type":"esriFieldTypeString","alias":"MAREA","length":12},{"name":"LANE","type":"esriFieldTypeString","alias":"LANE","length":10},{"name":"ALLEY","type":"esriFieldTypeString","alias":"ALLEY","length":10},{"name":"HOUSE_NO","type":"esriFieldTypeString","alias":"HOUSE_NO","length":20},{"name":"E_COORD97","type":"esriFieldTypeDouble","alias":"E_COORD97"},{"name":"N_COORD97","type":"esriFieldTypeDouble","alias":"N_COORD97"},{"name":"ADDRESS","type":"esriFieldTypeString","alias":"ADDRESS","length":50},{"name":"OBJECTID","type":"esriFieldTypeOID","alias":"OBJECTID"}],"features":[{"attributes":{"ID":660628,"DIS_CODE":0,"TOWNNAME":"新營區","LI":"忠政里","LIN":"30鄰","STREET":"府西路","SECT":" ","MAREA":" ","LANE":" ","ALLEY":" ","HOUSE_NO":"８５號","E_COORD97":179802.614282,"N_COORD97":2579189.6861899998,"ADDRESS":"府西路８５號","OBJECTID":660601},"geometry":{"x":179802.61428199988,"y":2579189.6861900017}},{"attributes":{"ID":660629,"DIS_CODE":0,"TOWNNAME":"東區","LI":"和平里","LIN":"6鄰","STREET":"自由路","SECT":"二段","MAREA":" ","LANE":"１７５巷","ALLEY":" ","HOUSE_NO":"１７號","E_COORD97":171746.82190400001,"N_COORD97":2541630.4297400001,"ADDRESS":"自由路二段１７５巷１７號","OBJECTID":660602},"geometry":{"x":171746.82190400083,"y":2541630.4297429975}},{"attributes":{"ID":660630,"DIS_CODE":0,"TOWNNAME":"東區","LI":"和平里","LIN":"6鄰","STREET":"自由路","SECT":"二段","MAREA":" ","LANE":"１７５巷","ALLEY":" ","HOUSE_NO":"１９號","E_COORD97":171746.82190400001,"N_COORD97":2541630.4297400001,"ADDRESS":"自由路二段１７５巷１９號","OBJECTID":660603},"geometry":{"x":171746.82190400083,"y":2541630.4297429975}},{"attributes":{"ID":660631,"DIS_CODE":0,"TOWNNAME":"東區","LI":"和平里","LIN":"6鄰","STREET":"自由路","SECT":"二段","MAREA":" ","LANE":"１７５巷","ALLEY":" ","HOUSE_NO":"２１號","E_COORD97":171741.30738899999,"N_COORD97":2541630.4297400001,"ADDRESS":"自由路二段１７５巷２１號","OBJECTID":660604},"geometry":{"x":171741.30738900043,"y":2541630.4297429975}},{"attributes":{"ID":660632,"DIS_CODE":0,"TOWNNAME":"東區","LI":"和平里","LIN":"6鄰","STREET":"自由路","SECT":"二段","MAREA":" ","LANE":"１７５巷","ALLEY":" ","HOUSE_NO":"２３號","E_COORD97":171735.580777,"N_COORD97":2541630.2178500001,"ADDRESS":"自由路二段１７５巷２３號","OBJECTID":660605},"geometry":{"x":171735.58077700064,"y":2541630.2178540044}},{"attributes":{"ID":660633,"DIS_CODE":0,"TOWNNAME":"東區","LI":"和平里","LIN":"6鄰","STREET":"自由路","SECT":"二段","MAREA":" ","LANE":"１７５巷","ALLEY":" ","HOUSE_NO":"２５號","E_COORD97":171730.91464900001,"N_COORD97":2541630.2178500001,"ADDRESS":"自由路二段１７５巷２５號","OBJECTID":660606},"geometry":{"x":171730.91464900039,"y":2541630.2178540044}},{"attributes":{"ID":660634,"DIS_CODE":0,"TOWNNAME":"東區","LI":"和平里","LIN":"6鄰","STREET":"自由路","SECT":"二段","MAREA":" ","LANE":"１７５巷","ALLEY":" ","HOUSE_NO":"２７號","E_COORD97":171725.400135,"N_COORD97":2541631.2773000002,"ADDRESS":"自由路二段１７５巷２７號","OBJECTID":660607},"geometry":{"x":171725.4001350021,"y":2541631.2773010023}},{"attributes":{"ID":660635,"DIS_CODE":0,"TOWNNAME":"東區","LI":"和平里","LIN":"6鄰","STREET":"自由路","SECT":"二段","MAREA":" ","LANE":"１７５巷","ALLEY":" ","HOUSE_NO":"２９號","E_COORD97":171721.58239299999,"N_COORD97":2541631.2773000002,"ADDRESS":"自由路二段１７５巷２９號","OBJECTID":660608},"geometry":{"x":171721.5823929999,"y":2541631.2773010023}},{"attributes":{"ID":660636,"DIS_CODE":0,"TOWNNAME":"東區","LI":"和平里","LIN":"6鄰","STREET":"自由路","SECT":"二段","MAREA":" ","LANE":"１７５巷","ALLEY":" ","HOUSE_NO":"３１號","E_COORD97":171713.31062100001,"N_COORD97":2541630.64163,"ADDRESS":"自由路二段１７５巷３１號","OBJECTID":660609},"geometry":{"x":171713.31062100176,"y":2541630.6416320018}},{"attributes":{"ID":660637,"DIS_CODE":0,"TOWNNAME":"東區","LI":"和平里","LIN":"6鄰","STREET":"自由路","SECT":"二段","MAREA":" ","LANE":"１７５巷","ALLEY":" ","HOUSE_NO":"３３號","E_COORD97":171698.67594700001,"N_COORD97":2541628.0989600001,"ADDRESS":"自由路二段１７５巷３３號","OBJECTID":660610},"geometry":{"x":171698.67594700214,"y":2541628.0989600029}},{"attributes":{"ID":660638,"DIS_CODE":0,"TOWNNAME":"東區","LI":"和平里","LIN":"6鄰","STREET":"自由路","SECT":"二段","MAREA":" ","LANE":"１７５巷","ALLEY":" ","HOUSE_NO":"３５號","E_COORD97":171693.373529,"N_COORD97":2541626.8276200001,"ADDRESS":"自由路二段１７５巷３５號","OBJECTID":660611},"geometry":{"x":171693.37352900021,"y":2541626.8276240006}},{"attributes":{"ID":660639,"DIS_CODE":0,"TOWNNAME":"東區","LI":"和平里","LIN":"6鄰","STREET":"自由路","SECT":"二段","MAREA":" ","LANE":"１７５巷","ALLEY":" ","HOUSE_NO":"３７號","E_COORD97":171687.01062700001,"N_COORD97":2541627.2514,"ADDRESS":"自由路二段１７５巷３７號","OBJECTID":660612},"geometry":{"x":171687.01062699873,"y":2541627.2514030021}},{"attributes":{"ID":660640,"DIS_CODE":0,"TOWNNAME":"東區","LI":"和平里","LIN":"23鄰","STREET":"自由路","SECT":"二段","MAREA":" ","LANE":"１７５巷","ALLEY":" ","HOUSE_NO":"９號","E_COORD97":171780.96947700001,"N_COORD97":2541628.5227399999,"ADDRESS":"自由路二段１７５巷９號","OBJECTID":660613},"geometry":{"x":171780.96947700065,"y":2541628.5227389988}},{"attributes":{"ID":660641,"DIS_CODE":0,"TOWNNAME":"東區","LI":"和平里","LIN":"23鄰","STREET":"自由路","SECT":"二段","MAREA":" ","LANE":"１７５巷","ALLEY":" ","HOUSE_NO":"１３號","E_COORD97":171768.03157600001,"N_COORD97":2541592.7134400001,"ADDRESS":"自由路二段１７５巷１３號","OBJECTID":660614},"geometry":{"x":171768.03157600109,"y":2541592.7134370022}},{"attributes":{"ID":660642,"DIS_CODE":0,"TOWNNAME":"新營區","LI":"忠政里","LIN":"31鄰","STREET":"府西路","SECT":" ","MAREA":" ","LANE":"４７巷","ALLEY":" ","HOUSE_NO":"８號","E_COORD97":179780.79041300001,"N_COORD97":2579037.7096099998,"ADDRESS":"府西路４７巷８號","OBJECTID":660615},"geometry":{"x":179780.79041299969,"y":2579037.7096050028}},{"attributes":{"ID":660643,"DIS_CODE":0,"TOWNNAME":"新營區","LI":"忠政里","LIN":"31鄰","STREET":"府西路","SECT":" ","MAREA":" ","LANE":"６３巷","ALLEY":" ","HOUSE_NO":"２８號","E_COORD97":179730.36244500001,"N_COORD97":2579092.9545700001,"ADDRESS":"府西路６３巷２８號","OBJECTID":660616},"geometry":{"x":179730.36244499963,"y":2579092.9545750041}},{"attributes":{"ID":660644,"DIS_CODE":0,"TOWNNAME":"安南區","LI":"南興里","LIN":"8鄰","STREET":"安興街","SECT":" ","MAREA":" ","LANE":"７９９巷","ALLEY":" ","HOUSE_NO":"１０５號","E_COORD97":163416.50132700001,"N_COORD97":2552518.9669900001,"ADDRESS":"安興街７９９巷１０５號","OBJECTID":660617},"geometry":{"x":163416.50132700056,"y":2552518.966992002}},{"attributes":{"ID":660645,"DIS_CODE":0,"TOWNNAME":"新營區","LI":"忠政里","LIN":"31鄰","STREET":"府西路","SECT":" ","MAREA":" ","LANE":"６３巷","ALLEY":"３２弄","HOUSE_NO":"１７號","E_COORD97":179710.44551600001,"N_COORD97":2579139.6270499998,"ADDRESS":"府西路６３巷３２弄１７號","OBJECTID":660618},"geometry":{"x":179710.44551599957,"y":2579139.6270500012}},{"attributes":{"ID":660646,"DIS_CODE":0,"TOWNNAME":"新營區","LI":"忠政里","LIN":"31鄰","STREET":"府西路","SECT":" ","MAREA":" ","LANE":"６３巷","ALLEY":"３２弄","HOUSE_NO":"７號","E_COORD97":179710.44551600001,"N_COORD97":2579139.6270499998,"ADDRESS":"府西路６３巷３２弄７號","OBJECTID":660619},"geometry":{"x":179710.44551599957,"y":2579139.6270500012}},{"attributes":{"ID":660647,"DIS_CODE":0,"TOWNNAME":"新營區","LI":"忠政里","LIN":"31鄰","STREET":"府西路","SECT":" ","MAREA":" ","LANE":"６３巷","ALLEY":"３２弄","HOUSE_NO":"７號","E_COORD97":179708.96234100001,"N_COORD97":2579107.4537300002,"ADDRESS":"府西路６３巷３２弄７號","OBJECTID":660620},"geometry":{"x":179708.96234100126,"y":2579107.4537339993}},{"attributes":{"ID":660648,"DIS_CODE":0,"TOWNNAME":"安南區","LI":"南興里","LIN":"8鄰","STREET":"安興街","SECT":" ","MAREA":" ","LANE":" ","ALLEY":" ","HOUSE_NO":"７９２號","E_COORD97":163528.142257,"N_COORD97":2552933.8334300001,"ADDRESS":"安興街７９２號","OBJECTID":660621},"geometry":{"x":163528.14225700032,"y":2552933.8334340006}},{"attributes":{"ID":660649,"DIS_CODE":0,"TOWNNAME":"新營區","LI":"忠政里","LIN":"31鄰","STREET":"府西路","SECT":" ","MAREA":" ","LANE":"６３巷","ALLEY":" ","HOUSE_NO":"４號","E_COORD97":179783.12111800001,"N_COORD97":2579095.7062400002,"ADDRESS":"府西路６３巷４號","OBJECTID":660622},"geometry":{"x":179783.12111800071,"y":2579095.7062400002}},{"attributes":{"ID":660650,"DIS_CODE":0,"TOWNNAME":"新營區","LI":"忠政里","LIN":"31鄰","STREET":"府西路","SECT":" ","MAREA":" ","LANE":"７７巷","ALLEY":" ","HOUSE_NO":"１６號","E_COORD97":179750.27937400001,"N_COORD97":2579152.9620400001,"ADDRESS":"府西路７７巷１６號","OBJECTID":660623},"geometry":{"x":179750.27937400062,"y":2579152.9620429985}},{"attributes":{"ID":660651,"DIS_CODE":0,"TOWNNAME":"安南區","LI":"溪北里","LIN":"1鄰","STREET":"安和路","SECT":"一段","MAREA":" ","LANE":"１２３巷","ALLEY":" ","HOUSE_NO":"１９號","E_COORD97":169399.98909799999,"N_COORD97":2547633.1738,"ADDRESS":"安和路一段１２３巷１９號","OBJECTID":660624},"geometry":{"x":169399.98909800034,"y":2547633.1737970021}},{"attributes":{"ID":660652,"DIS_CODE":0,"TOWNNAME":"安南區","LI":"溪北里","LIN":"1鄰","STREET":"安和路","SECT":"一段","MAREA":" ","LANE":"１２３巷","ALLEY":" ","HOUSE_NO":"２１號","E_COORD97":169395.540408,"N_COORD97":2547631.6921299999,"ADDRESS":"安和路一段１２３巷２１號","OBJECTID":660625},"geometry":{"x":169395.54040800128,"y":2547631.6921310015}},{"attributes":{"ID":660653,"DIS_CODE":0,"TOWNNAME":"新營區","LI":"忠政里","LIN":"31鄰","STREET":"府西路","SECT":" ","MAREA":" ","LANE":"７７巷","ALLEY":" ","HOUSE_NO":"２２號","E_COORD97":179738.837734,"N_COORD97":2579152.4328800002,"ADDRESS":"府西路７７巷２２號","OBJECTID":660626},"geometry":{"x":179738.83773400169,"y":2579152.4328760002}},{"attributes":{"ID":660654,"DIS_CODE":0,"TOWNNAME":"安南區","LI":"溪北里","LIN":"1鄰","STREET":"安和路","SECT":"一段","MAREA":" ","LANE":"１２３巷","ALLEY":" ","HOUSE_NO":"２３號","E_COORD97":169390.032507,"N_COORD97":2547630.4221299998,"ADDRESS":"安和路一段１２３巷２３號","OBJECTID":660627},"geometry":{"x":169390.03250700142,"y":2547630.4221310019}},{"attributes":{"ID":660655,"DIS_CODE":0,"TOWNNAME":"新營區","LI":"忠政里","LIN":"31鄰","STREET":"府西路","SECT":" ","MAREA":" ","LANE":"７７巷","ALLEY":" ","HOUSE_NO":"３０號","E_COORD97":179718.708923,"N_COORD97":2579151.3745400002,"ADDRESS":"府西路７７巷３０號","OBJECTID":660628},"geometry":{"x":179718.70892299991,"y":2579151.3745440021}},{"attributes":{"ID":660656,"DIS_CODE":0,"TOWNNAME":"安南區","LI":"溪北里","LIN":"1鄰","STREET":"安和路","SECT":"一段","MAREA":" ","LANE":"１２３巷","ALLEY":" ","HOUSE_NO":"２５之１號","E_COORD97":169382.292609,"N_COORD97":2547626.5613699998,"ADDRESS":"安和路一段１２３巷２５之１號","OBJECTID":660629},"geometry":{"x":169382.29260900058,"y":2547626.5613670014}},{"attributes":{"ID":660657,"DIS_CODE":0,"TOWNNAME":"安南區","LI":"溪北里","LIN":"1鄰","STREET":"安和路","SECT":"一段","MAREA":" ","LANE":"１２３巷","ALLEY":" ","HOUSE_NO":"２５之２號","E_COORD97":169377.88659800001,"N_COORD97":2547624.86815,"ADDRESS":"安和路一段１２３巷２５之２號","OBJECTID":660630},"geometry":{"x":169377.88659800217,"y":2547624.8681540005}},{"attributes":{"ID":660658,"DIS_CODE":0,"TOWNNAME":"新營區","LI":"忠政里","LIN":"31鄰","STREET":"府西路","SECT":" ","MAREA":" ","LANE":"１７巷","ALLEY":" ","HOUSE_NO":"１２號","E_COORD97":179785.451822,"N_COORD97":2578923.3038300001,"ADDRESS":"府西路１７巷１２號","OBJECTID":660631},"geometry":{"x":179785.45182200056,"y":2578923.3038330004}},{"attributes":{"ID":660659,"DIS_CODE":0,"TOWNNAME":"安南區","LI":"南興里","LIN":"8鄰","STREET":"安興街","SECT":" ","MAREA":" ","LANE":"７９９巷","ALLEY":" ","HOUSE_NO":"１０５之１２５號","E_COORD97":163438.69743500001,"N_COORD97":2552419.8215200002,"ADDRESS":"安興街７９９巷１０５之１２５號","OBJECTID":660632},"geometry":{"x":163438.69743499998,"y":2552419.8215180021}},{"attributes":{"ID":660660,"DIS_CODE":0,"TOWNNAME":"安南區","LI":"南興里","LIN":"3鄰","STREET":"安興街","SECT":" ","MAREA":" ","LANE":" ","ALLEY":" ","HOUSE_NO":"４７９之１２號","E_COORD97":163473.49361999999,"N_COORD97":2552308.5209900001,"ADDRESS":"安興街４７９之１２號","OBJECTID":660633},"geometry":{"x":163473.49362000078,"y":2552308.5209860001}},{"attributes":{"ID":660661,"DIS_CODE":0,"TOWNNAME":"安南區","LI":"南興里","LIN":"2鄰","STREET":"安興街","SECT":" ","MAREA":" ","LANE":" ","ALLEY":" ","HOUSE_NO":"４７９之１０號","E_COORD97":163470.21735600001,"N_COORD97":2552321.2765199998,"ADDRESS":"安興街４７９之１０號","OBJECTID":660634},"geometry":{"x":163470.21735600103,"y":2552321.2765239999}},{"attributes":{"ID":660662,"DIS_CODE":0,"TOWNNAME":"官田區","LI":"大崎里","LIN":"6鄰","STREET":" ","SECT":" ","MAREA":"大崎","LANE":" ","ALLEY":" ","HOUSE_NO":"５３號之３","E_COORD97":185768.82961099999,"N_COORD97":2565302.8397300001,"ADDRESS":"大崎５３號之３","OBJECTID":660635},"geometry":{"x":185768.8296110006,"y":2565302.8397310022}},{"attributes":{"ID":660663,"DIS_CODE":0,"TOWNNAME":"官田區","LI":"二鎮里","LIN":"8鄰","STREET":" ","SECT":" ","MAREA":"二鎮","LANE":" ","ALLEY":" ","HOUSE_NO":"７５號之１０","E_COORD97":181465.20501199999,"N_COORD97":2568691.1345700002,"ADDRESS":"二鎮７５號之１０","OBJECTID":660636},"geometry":{"x":181465.20501200017,"y":2568691.1345680021}},{"attributes":{"ID":660664,"DIS_CODE":0,"TOWNNAME":"新營區","LI":"新東里","LIN":"20鄰","STREET":"東明街","SECT":" ","MAREA":" ","LANE":"２巷","ALLEY":" ","HOUSE_NO":"４２號","E_COORD97":180873.86271300001,"N_COORD97":2579527.4068200001,"ADDRESS":"東明街２巷４２號","OBJECTID":660637},"geometry":{"x":180873.86271299981,"y":2579527.4068240002}},{"attributes":{"ID":660665,"DIS_CODE":0,"TOWNNAME":"新營區","LI":"新東里","LIN":"28鄰","STREET":"東興七街","SECT":" ","MAREA":" ","LANE":"９巷","ALLEY":" ","HOUSE_NO":"２號","E_COORD97":180698.63611600001,"N_COORD97":2579730.6596300001,"ADDRESS":"東興七街９巷２號","OBJECTID":660638},"geometry":{"x":180698.63611600082,"y":2579730.6596310008}},{"attributes":{"ID":660666,"DIS_CODE":0,"TOWNNAME":"官田區","LI":"二鎮里","LIN":"5鄰","STREET":" ","SECT":" ","MAREA":"二鎮","LANE":" ","ALLEY":" ","HOUSE_NO":"３９號","E_COORD97":181326.855587,"N_COORD97":2568291.0318700001,"ADDRESS":"二鎮３９號","OBJECTID":660639},"geometry":{"x":181326.85558700003,"y":2568291.0318679996}},{"attributes":{"ID":660667,"DIS_CODE":0,"TOWNNAME":"新營區","LI":"新東里","LIN":"28鄰","STREET":"東興九街","SECT":" ","MAREA":" ","LANE":"１２巷","ALLEY":" ","HOUSE_NO":"１０號","E_COORD97":180710.50151999999,"N_COORD97":2579819.2949999999,"ADDRESS":"東興九街１２巷１０號","OBJECTID":660640},"geometry":{"x":180710.50152000133,"y":2579819.2949989997}},{"attributes":{"ID":660668,"DIS_CODE":0,"TOWNNAME":"官田區","LI":"官田里","LIN":"10鄰","STREET":" ","SECT":" ","MAREA":"官田","LANE":" ","ALLEY":" ","HOUSE_NO":"９７號","E_COORD97":182370.27034399999,"N_COORD97":2565074.3899900001,"ADDRESS":"官田９７號","OBJECTID":660641},"geometry":{"x":182370.27034400031,"y":2565074.3899860028}},{"attributes":{"ID":660669,"DIS_CODE":0,"TOWNNAME":"新營區","LI":"新東里","LIN":"28鄰","STREET":"東興九街","SECT":" ","MAREA":" ","LANE":"１２巷","ALLEY":" ","HOUSE_NO":"３號","E_COORD97":180697.78858699999,"N_COORD97":2579793.1541800001,"ADDRESS":"東興九街１２巷３號","OBJECTID":660642},"geometry":{"x":180697.78858700115,"y":2579793.1541799977}},{"attributes":{"ID":660670,"DIS_CODE":0,"TOWNNAME":"東山區","LI":"聖賢里","LIN":"16鄰","STREET":" ","SECT":" ","MAREA":"頂窩","LANE":" ","ALLEY":" ","HOUSE_NO":"１５號","E_COORD97":183308.50566,"N_COORD97":2578586.1810499998,"ADDRESS":"頂窩１５號","OBJECTID":660643},"geometry":{"x":183308.50566000026,"y":2578586.1810500007}},{"attributes":{"ID":660671,"DIS_CODE":0,"TOWNNAME":"新營區","LI":"新東里","LIN":"22鄰","STREET":"東興十街","SECT":" ","MAREA":" ","LANE":"７７巷","ALLEY":" ","HOUSE_NO":"１號","E_COORD97":180949.07947699999,"N_COORD97":2579757.11252,"ADDRESS":"東興十街７７巷１號","OBJECTID":660644},"geometry":{"x":180949.07947700005,"y":2579757.1125160009}},{"attributes":{"ID":660672,"DIS_CODE":0,"TOWNNAME":"新營區","LI":"新東里","LIN":"22鄰","STREET":"東興十街","SECT":" ","MAREA":" ","LANE":"７７巷","ALLEY":" ","HOUSE_NO":"３號","E_COORD97":180946.96065399999,"N_COORD97":2579765.5791799999,"ADDRESS":"東興十街７７巷３號","OBJECTID":660645},"geometry":{"x":180946.96065400075,"y":2579765.5791780017}},{"attributes":{"ID":660673,"DIS_CODE":0,"TOWNNAME":"新營區","LI":"新東里","LIN":"22鄰","STREET":"東興十街","SECT":" ","MAREA":" ","LANE":"７７巷","ALLEY":" ","HOUSE_NO":"５號","E_COORD97":180946.11312600001,"N_COORD97":2579772.14084,"ADDRESS":"東興十街７７巷５號","OBJECTID":660646},"geometry":{"x":180946.11312600039,"y":2579772.1408410016}},{"attributes":{"ID":660674,"DIS_CODE":0,"TOWNNAME":"新營區","LI":"新東里","LIN":"22鄰","STREET":"東興十街","SECT":" ","MAREA":" ","LANE":"７７巷","ALLEY":" ","HOUSE_NO":"７號","E_COORD97":180944.62995,"N_COORD97":2579777.8558399999,"ADDRESS":"東興十街７７巷７號","OBJECTID":660647},"geometry":{"x":180944.6299500009,"y":2579777.8558380008}},{"attributes":{"ID":660675,"DIS_CODE":0,"TOWNNAME":"新營區","LI":"新東里","LIN":"22鄰","STREET":"東興十街","SECT":" ","MAREA":" ","LANE":"７７巷","ALLEY":" ","HOUSE_NO":"９號","E_COORD97":180945.26559699999,"N_COORD97":2579783.4517700002,"ADDRESS":"東興十街７７巷９號","OBJECTID":660648},"geometry":{"x":180945.26559700072,"y":2579783.4517720006}},{"attributes":{"ID":660676,"DIS_CODE":0,"TOWNNAME":"新營區","LI":"新東里","LIN":"22鄰","STREET":"東興十街","SECT":" ","MAREA":" ","LANE":"７７巷","ALLEY":" ","HOUSE_NO":"１１號","E_COORD97":180945.68935999999,"N_COORD97":2579788.0158299999,"ADDRESS":"東興十街７７巷１１號","OBJECTID":660649},"geometry":{"x":180945.68936000019,"y":2579788.0158300009}},{"attributes":{"ID":660677,"DIS_CODE":0,"TOWNNAME":"新營區","LI":"新東里","LIN":"22鄰","STREET":"東興十街","SECT":" ","MAREA":" ","LANE":"７７巷","ALLEY":" ","HOUSE_NO":"２號","E_COORD97":180955.647826,"N_COORD97":2579759.2291799998,"ADDRESS":"東興十街７７巷２號","OBJECTID":660650},"geometry":{"x":180955.64782600105,"y":2579759.2291810028}},{"attributes":{"ID":660678,"DIS_CODE":0,"TOWNNAME":"新營區","LI":"新東里","LIN":"22鄰","STREET":"東興十街","SECT":" ","MAREA":" ","LANE":"７７巷","ALLEY":" ","HOUSE_NO":"６號","E_COORD97":180955.647826,"N_COORD97":2579766.2141800001,"ADDRESS":"東興十街７７巷６號","OBJECTID":660651},"geometry":{"x":180955.64782600105,"y":2579766.2141770013}},{"attributes":{"ID":660679,"DIS_CODE":0,"TOWNNAME":"新營區","LI":"新東里","LIN":"22鄰","STREET":"東興十街","SECT":" ","MAREA":" ","LANE":"７７巷","ALLEY":" ","HOUSE_NO":"８號","E_COORD97":180954.588414,"N_COORD97":2579772.9742800002,"ADDRESS":"東興十街７７巷８號","OBJECTID":660652},"geometry":{"x":180954.58841400128,"y":2579772.9742779993}},{"attributes":{"ID":660680,"DIS_CODE":0,"TOWNNAME":"新營區","LI":"新東里","LIN":"22鄰","STREET":"東興十街","SECT":" ","MAREA":" ","LANE":"７７巷","ALLEY":" ","HOUSE_NO":"１０號","E_COORD97":180954.588414,"N_COORD97":2579777.4325000001,"ADDRESS":"東興十街７７巷１０號","OBJECTID":660653},"geometry":{"x":180954.58841400128,"y":2579777.4325050022}},{"attributes":{"ID":660681,"DIS_CODE":0,"TOWNNAME":"新營區","LI":"新東里","LIN":"22鄰","STREET":"東興十街","SECT":" ","MAREA":" ","LANE":"７７巷","ALLEY":" ","HOUSE_NO":"１２號","E_COORD97":180954.80029700001,"N_COORD97":2579782.5125000002,"ADDRESS":"東興十街７７巷１２號","OBJECTID":660654},"geometry":{"x":180954.80029700231,"y":2579782.5125020016}},{"attributes":{"ID":660682,"DIS_CODE":0,"TOWNNAME":"新營區","LI":"新東里","LIN":"22鄰","STREET":"東興十街","SECT":" ","MAREA":" ","LANE":"７７巷","ALLEY":" ","HOUSE_NO":"１６號","E_COORD97":180953.529003,"N_COORD97":2579788.4391600001,"ADDRESS":"東興十街７７巷１６號","OBJECTID":660655},"geometry":{"x":180953.52900299989,"y":2579788.4391650017}},{"attributes":{"ID":660683,"DIS_CODE":0,"TOWNNAME":"東山區","LI":"聖賢里","LIN":"15鄰","STREET":" ","SECT":" ","MAREA":"頂窩","LANE":" ","ALLEY":" ","HOUSE_NO":"１號之８","E_COORD97":183685.73575200001,"N_COORD97":2578482.4644399998,"ADDRESS":"頂窩１號之８","OBJECTID":660656},"geometry":{"x":183685.7357520014,"y":2578482.4644390028}},{"attributes":{"ID":660684,"DIS_CODE":0,"TOWNNAME":"官田區","LI":"官田里","LIN":"6鄰","STREET":" ","SECT":" ","MAREA":"大崎","LANE":" ","ALLEY":" ","HOUSE_NO":"５１號","E_COORD97":185776.10848900001,"N_COORD97":2565332.5345800002,"ADDRESS":"大崎５１號","OBJECTID":660657},"geometry":{"x":185776.10848900024,"y":2565332.5345830005}},{"attributes":{"ID":660685,"DIS_CODE":0,"TOWNNAME":"麻豆區","LI":"中興里","LIN":"5鄰","STREET":"興國路","SECT":" ","MAREA":" ","LANE":"３８巷","ALLEY":" ","HOUSE_NO":"４號","E_COORD97":172922.39977600001,"N_COORD97":2564559.8257499998,"ADDRESS":"興國路３８巷４號","OBJECTID":660658},"geometry":{"x":172922.39977600053,"y":2564559.8257470001}},{"attributes":{"ID":660686,"DIS_CODE":0,"TOWNNAME":"官田區","LI":"二鎮里","LIN":"2鄰","STREET":" ","SECT":" ","MAREA":"二鎮","LANE":" ","ALLEY":" ","HOUSE_NO":"１０號","E_COORD97":181242.58168900001,"N_COORD97":2568167.6429699999,"ADDRESS":"二鎮１０號","OBJECTID":660659},"geometry":{"x":181242.58168900013,"y":2568167.642967999}},{"attributes":{"ID":660687,"DIS_CODE":0,"TOWNNAME":"東山區","LI":"聖賢里","LIN":"15鄰","STREET":" ","SECT":" ","MAREA":"頂窩","LANE":" ","ALLEY":" ","HOUSE_NO":"１號","E_COORD97":183418.14720100001,"N_COORD97":2578557.0769000002,"ADDRESS":"頂窩１號","OBJECTID":660660},"geometry":{"x":183418.14720099978,"y":2578557.0768990014}},{"attributes":{"ID":660688,"DIS_CODE":0,"TOWNNAME":"新營區","LI":"新東里","LIN":"26鄰","STREET":"東興五街","SECT":" ","MAREA":" ","LANE":" ","ALLEY":" ","HOUSE_NO":"３５號","E_COORD97":180656.47012899999,"N_COORD97":2579513.3652499998,"ADDRESS":"東興五街３５號","OBJECTID":660661},"geometry":{"x":180656.47012900095,"y":2579513.3652519993}},{"attributes":{"ID":660689,"DIS_CODE":0,"TOWNNAME":"新營區","LI":"新東里","LIN":"21鄰","STREET":"東興路","SECT":" ","MAREA":" ","LANE":" ","ALLEY":" ","HOUSE_NO":"３６２號","E_COORD97":180766.43700199999,"N_COORD97":2579649.9960099999,"ADDRESS":"東興路３６２號","OBJECTID":660662},"geometry":{"x":180766.43700200226,"y":2579649.9960110001}},{"attributes":{"ID":660690,"DIS_CODE":0,"TOWNNAME":"新營區","LI":"新東里","LIN":"21鄰","STREET":"東興路","SECT":" ","MAREA":" ","LANE":" ","ALLEY":" ","HOUSE_NO":"３６６號","E_COORD97":180766.01323800001,"N_COORD97":2579658.4626699998,"ADDRESS":"東興路３６６號","OBJECTID":660663},"geometry":{"x":180766.01323800068,"y":2579658.4626729991}},{"attributes":{"ID":660691,"DIS_CODE":0,"TOWNNAME":"新營區","LI":"新東里","LIN":"21鄰","STREET":"東興路","SECT":" ","MAREA":" ","LANE":" ","ALLEY":" ","HOUSE_NO":"３６８號","E_COORD97":180765.377591,"N_COORD97":2579664.6009999998,"ADDRESS":"東興路３６８號","OBJECTID":660664},"geometry":{"x":180765.37759100087,"y":2579664.6010030024}},{"attributes":{"ID":660692,"DIS_CODE":0,"TOWNNAME":"新營區","LI":"新東里","LIN":"21鄰","STREET":"東興路","SECT":" ","MAREA":" ","LANE":" ","ALLEY":" ","HOUSE_NO":"３７０號","E_COORD97":180765.16570899999,"N_COORD97":2579669.89267,"ADDRESS":"東興路３７０號","OBJECTID":660665},"geometry":{"x":180765.16570900101,"y":2579669.892667003}},{"attributes":{"ID":660693,"DIS_CODE":0,"TOWNNAME":"新營區","LI":"新東里","LIN":"16鄰","STREET":"東泰路","SECT":" ","MAREA":" ","LANE":" ","ALLEY":" ","HOUSE_NO":"７７號","E_COORD97":181111.16937600001,"N_COORD97":2579748.8442899999,"ADDRESS":"東泰路７７號","OBJECTID":660666},"geometry":{"x":181111.16937600076,"y":2579748.8442909997}},{"attributes":{"ID":660694,"DIS_CODE":0,"TOWNNAME":"官田區","LI":"二鎮里","LIN":"1鄰","STREET":" ","SECT":" ","MAREA":"二鎮","LANE":" ","ALLEY":" ","HOUSE_NO":"９號","E_COORD97":181214.403322,"N_COORD97":2566956.2223700001,"ADDRESS":"二鎮９號","OBJECTID":660667},"geometry":{"x":181214.40332200006,"y":2566956.2223719992}},{"attributes":{"ID":660695,"DIS_CODE":0,"TOWNNAME":"安南區","LI":"南興里","LIN":"1鄰","STREET":"安中路","SECT":"五段","MAREA":" ","LANE":" ","ALLEY":" ","HOUSE_NO":"２８６號","E_COORD97":162666.87477600001,"N_COORD97":2551072.7605499998,"ADDRESS":"安中路五段２８６號","OBJECTID":660668},"geometry":{"x":162666.87477600109,"y":2551072.7605489995}},{"attributes":{"ID":660696,"DIS_CODE":0,"TOWNNAME":"官田區","LI":"二鎮里","LIN":"1鄰","STREET":"工業路","SECT":" ","MAREA":" ","LANE":" ","ALLEY":" ","HOUSE_NO":"２９號之１","E_COORD97":180748.930601,"N_COORD97":2567971.0576599999,"ADDRESS":"工業路２９號之１","OBJECTID":660669},"geometry":{"x":180748.93060100079,"y":2567971.0576570015}},{"attributes":{"ID":660697,"DIS_CODE":0,"TOWNNAME":"新營區","LI":"新東里","LIN":"20鄰","STREET":"東明街","SECT":" ","MAREA":" ","LANE":" ","ALLEY":" ","HOUSE_NO":"９號","E_COORD97":180798.96092300001,"N_COORD97":2579576.1773000001,"ADDRESS":"東明街９號","OBJECTID":660670},"geometry":{"x":180798.96092300024,"y":2579576.1773010008}},{"attributes":{"ID":660698,"DIS_CODE":0,"TOWNNAME":"新營區","LI":"新東里","LIN":"20鄰","STREET":"東明街","SECT":" ","MAREA":" ","LANE":" ","ALLEY":" ","HOUSE_NO":"１１號","E_COORD97":180799.06686399999,"N_COORD97":2579582.4214599999,"ADDRESS":"東明街１１號","OBJECTID":660671},"geometry":{"x":180799.0668639997,"y":2579582.4214640036}},{"attributes":{"ID":660699,"DIS_CODE":0,"TOWNNAME":"麻豆區","LI":"中興里","LIN":"7鄰","STREET":"三民路","SECT":" ","MAREA":" ","LANE":" ","ALLEY":" ","HOUSE_NO":"４７號","E_COORD97":172901.21255,"N_COORD97":2564448.0430200002,"ADDRESS":"三民路４７號","OBJECTID":660672},"geometry":{"x":172901.21255000215,"y":2564448.0430159997}},{"attributes":{"ID":660700,"DIS_CODE":0,"TOWNNAME":"新營區","LI":"新東里","LIN":"20鄰","STREET":"東明街","SECT":" ","MAREA":" ","LANE":"４２巷","ALLEY":" ","HOUSE_NO":"１２號","E_COORD97":180838.265075,"N_COORD97":2579642.05852,"ADDRESS":"東明街４２巷１２號","OBJECTID":660673},"geometry":{"x":180838.26507500093,"y":2579642.058515003}},{"attributes":{"ID":660701,"DIS_CODE":0,"TOWNNAME":"新營區","LI":"新東里","LIN":"20鄰","STREET":"東明街","SECT":" ","MAREA":" ","LANE":"４２巷","ALLEY":" ","HOUSE_NO":"１６號","E_COORD97":180842.29083700001,"N_COORD97":2579642.27018,"ADDRESS":"東明街４２巷１６號","OBJECTID":660674},"geometry":{"x":180842.29083700012,"y":2579642.2701820005}},{"attributes":{"ID":660702,"DIS_CODE":0,"TOWNNAME":"新營區","LI":"新東里","LIN":"21鄰","STREET":"東明街","SECT":" ","MAREA":" ","LANE":"４２巷","ALLEY":" ","HOUSE_NO":"７之１號","E_COORD97":180831.06108000001,"N_COORD97":2579653.4885100001,"ADDRESS":"東明街４２巷７之１號","OBJECTID":660675},"geometry":{"x":180831.06108000129,"y":2579653.4885090012}},{"attributes":{"ID":660703,"DIS_CODE":0,"TOWNNAME":"新營區","LI":"新東里","LIN":"21鄰","STREET":"東明街","SECT":" ","MAREA":" ","LANE":"４２巷","ALLEY":" ","HOUSE_NO":"７號","E_COORD97":180827.24720000001,"N_COORD97":2579653.7001800002,"ADDRESS":"東明街４２巷７號","OBJECTID":660676},"geometry":{"x":180827.2472000001,"y":2579653.7001760025}},{"attributes":{"ID":660704,"DIS_CODE":0,"TOWNNAME":"新營區","LI":"新東里","LIN":"21鄰","STREET":"東明街","SECT":" ","MAREA":" ","LANE":"４２巷","ALLEY":" ","HOUSE_NO":"５號","E_COORD97":180823.221437,"N_COORD97":2579653.4885100001,"ADDRESS":"東明街４２巷５號","OBJECTID":660677},"geometry":{"x":180823.22143699974,"y":2579653.4885090012}},{"attributes":{"ID":660705,"DIS_CODE":0,"TOWNNAME":"新營區","LI":"新東里","LIN":"21鄰","STREET":"東明街","SECT":" ","MAREA":" ","LANE":"４２巷","ALLEY":" ","HOUSE_NO":"３號","E_COORD97":180816.864971,"N_COORD97":2579653.7530899998,"ADDRESS":"東明街４２巷３號","OBJECTID":660678},"geometry":{"x":180816.86497100163,"y":2579653.7530920021}},{"attributes":{"ID":660706,"DIS_CODE":0,"TOWNNAME":"新營區","LI":"新東里","LIN":"21鄰","STREET":"東明街","SECT":" ","MAREA":" ","LANE":"４２巷","ALLEY":" ","HOUSE_NO":"１號","E_COORD97":180812.62732599999,"N_COORD97":2579653.64726,"ADDRESS":"東明街４２巷１號","OBJECTID":660679},"geometry":{"x":180812.62732599955,"y":2579653.6472590007}},{"attributes":{"ID":660707,"DIS_CODE":0,"TOWNNAME":"新營區","LI":"新東里","LIN":"21鄰","STREET":"東明街","SECT":" ","MAREA":" ","LANE":"４巷","ALLEY":" ","HOUSE_NO":"４６號","E_COORD97":180809.237211,"N_COORD97":2579653.9118400002,"ADDRESS":"東明街４巷４６號","OBJECTID":660680},"geometry":{"x":180809.23721100111,"y":2579653.9118419997}},{"attributes":{"ID":660708,"DIS_CODE":0,"TOWNNAME":"新營區","LI":"新東里","LIN":"10鄰","STREET":"東仁街","SECT":" ","MAREA":" ","LANE":" ","ALLEY":" ","HOUSE_NO":"８８號","E_COORD97":181325.06447799999,"N_COORD97":2579763.0259500002,"ADDRESS":"東仁街８８號","OBJECTID":660681},"geometry":{"x":181325.06447800063,"y":2579763.0259500034}},{"attributes":{"ID":660709,"DIS_CODE":0,"TOWNNAME":"新營區","LI":"新東里","LIN":"10鄰","STREET":"東勇街","SECT":" ","MAREA":" ","LANE":" ","ALLEY":" ","HOUSE_NO":"７２號","E_COORD97":181434.607586,"N_COORD97":2579637.40185,"ADDRESS":"東勇街７２號","OBJECTID":660682},"geometry":{"x":181434.60758600198,"y":2579637.4018510021}},{"attributes":{"ID":660710,"DIS_CODE":0,"TOWNNAME":"麻豆區","LI":"中興里","LIN":"12鄰","STREET":"仁愛路","SECT":" ","MAREA":" ","LANE":" ","ALLEY":" ","HOUSE_NO":"２１號之４","E_COORD97":172762.41340799999,"N_COORD97":2564736.5901100002,"ADDRESS":"仁愛路２１號之４","OBJECTID":660683},"geometry":{"x":172762.41340800188,"y":2564736.5901090018}},{"attributes":{"ID":660711,"DIS_CODE":0,"TOWNNAME":"官田區","LI":"二鎮里","LIN":"1鄰","STREET":"工業路","SECT":" ","MAREA":" ","LANE":" ","ALLEY":" ","HOUSE_NO":"２號之１","E_COORD97":180515.87643900001,"N_COORD97":2566980.4581900002,"ADDRESS":"工業路２號之１","OBJECTID":660684},"geometry":{"x":180515.87643900048,"y":2566980.4581920002}},{"attributes":{"ID":660712,"DIS_CODE":0,"TOWNNAME":"新營區","LI":"新東里","LIN":"10鄰","STREET":"東仁街","SECT":" ","MAREA":" ","LANE":"１０巷","ALLEY":" ","HOUSE_NO":"３９號","E_COORD97":181342.43882000001,"N_COORD97":2579497.0669300002,"ADDRESS":"東仁街１０巷３９號","OBJECTID":660685},"geometry":{"x":181342.43881999981,"y":2579497.0669270046}},{"attributes":{"ID":660713,"DIS_CODE":0,"TOWNNAME":"麻豆區","LI":"中興里","LIN":"12鄰","STREET":"仁愛路","SECT":" ","MAREA":" ","LANE":" ","ALLEY":" ","HOUSE_NO":"２１號之５","E_COORD97":172752.45541200001,"N_COORD97":2564735.7434399999,"ADDRESS":"仁愛路２１號之５","OBJECTID":660686},"geometry":{"x":172752.45541200135,"y":2564735.7434430011}},{"attributes":{"ID":660714,"DIS_CODE":0,"TOWNNAME":"善化區","LI":"坐駕里","LIN":"21鄰","STREET":" ","SECT":" ","MAREA":"坐駕","LANE":" ","ALLEY":" ","HOUSE_NO":"１５號","E_COORD97":178237.00576900001,"N_COORD97":2558379.3363899998,"ADDRESS":"坐駕１５號","OBJECTID":660687},"geometry":{"x":178237.00576900225,"y":2558379.3363930024}},{"attributes":{"ID":660715,"DIS_CODE":0,"TOWNNAME":"新營區","LI":"新東里","LIN":"25鄰","STREET":"東興路","SECT":" ","MAREA":" ","LANE":" ","ALLEY":" ","HOUSE_NO":"１４９號","E_COORD97":180756.374021,"N_COORD97":2579279.6626900001,"ADDRESS":"東興路１４９號","OBJECTID":660688},"geometry":{"x":180756.37402100023,"y":2579279.6626910008}},{"attributes":{"ID":660716,"DIS_CODE":0,"TOWNNAME":"麻豆區","LI":"中興里","LIN":"15鄰","STREET":"三民路","SECT":" ","MAREA":" ","LANE":" ","ALLEY":" ","HOUSE_NO":"５２號之１","E_COORD97":172782.32939999999,"N_COORD97":2564478.2510799998,"ADDRESS":"三民路５２號之１","OBJECTID":660689},"geometry":{"x":172782.32940000109,"y":2564478.2510820013}},{"attributes":{"ID":660717,"DIS_CODE":0,"TOWNNAME":"新營區","LI":"新東里","LIN":"28鄰","STREET":"東光街","SECT":" ","MAREA":" ","LANE":"８２巷","ALLEY":" ","HOUSE_NO":"３１號","E_COORD97":180692.91529599999,"N_COORD97":2579645.5812400002,"ADDRESS":"東光街８２巷３１號","OBJECTID":660690},"geometry":{"x":180692.91529600136,"y":2579645.5812430009}},{"attributes":{"ID":660718,"DIS_CODE":0,"TOWNNAME":"新營區","LI":"新東里","LIN":"28鄰","STREET":"東光街","SECT":" ","MAREA":" ","LANE":"８２巷","ALLEY":" ","HOUSE_NO":"３３號","E_COORD97":180698.742057,"N_COORD97":2579645.47541,"ADDRESS":"東光街８２巷３３號","OBJECTID":660691},"geometry":{"x":180698.74205700029,"y":2579645.4754099995}},{"attributes":{"ID":660719,"DIS_CODE":0,"TOWNNAME":"新營區","LI":"新東里","LIN":"28鄰","STREET":"東光街","SECT":" ","MAREA":" ","LANE":"８２巷","ALLEY":" ","HOUSE_NO":"３５號","E_COORD97":180705.310406,"N_COORD97":2579645.8987400001,"ADDRESS":"東光街８２巷３５號","OBJECTID":660692},"geometry":{"x":180705.31040600222,"y":2579645.8987430017}},{"attributes":{"ID":660720,"DIS_CODE":0,"TOWNNAME":"新營區","LI":"新東里","LIN":"20鄰","STREET":"東明街","SECT":" ","MAREA":" ","LANE":"２８巷","ALLEY":" ","HOUSE_NO":"４１號","E_COORD97":180909.03516199999,"N_COORD97":2579598.48544,"ADDRESS":"東明街２８巷４１號","OBJECTID":660693},"geometry":{"x":180909.03516199999,"y":2579598.4854349978}},{"attributes":{"ID":660721,"DIS_CODE":0,"TOWNNAME":"東山區","LI":"聖賢里","LIN":"18鄰","STREET":" ","SECT":" ","MAREA":"頂窩","LANE":" ","ALLEY":" ","HOUSE_NO":"４１號","E_COORD97":183043.29993899999,"N_COORD97":2578629.8899699999,"ADDRESS":"頂窩４１號","OBJECTID":660694},"geometry":{"x":183043.29993900005,"y":2578629.889967002}},{"attributes":{"ID":660722,"DIS_CODE":0,"TOWNNAME":"新營區","LI":"新東里","LIN":"22鄰","STREET":"東明街","SECT":" ","MAREA":" ","LANE":"８０巷","ALLEY":" ","HOUSE_NO":"３６之３號","E_COORD97":180897.381639,"N_COORD97":2579783.00575,"ADDRESS":"東明街８０巷３６之３號","OBJECTID":660695},"geometry":{"x":180897.38163900003,"y":2579783.0057520028}},{"attributes":{"ID":660723,"DIS_CODE":0,"TOWNNAME":"永康區","LI":"埔園里","LIN":"31鄰","STREET":"八德街","SECT":" ","MAREA":" ","LANE":"３２６巷","ALLEY":"５３弄","HOUSE_NO":"１５號","E_COORD97":173624.051611,"N_COORD97":2548774.4122199998,"ADDRESS":"八德街３２６巷５３弄１５號","OBJECTID":660696},"geometry":{"x":173624.05161100067,"y":2548774.4122160003}},{"attributes":{"ID":660724,"DIS_CODE":0,"TOWNNAME":"麻豆區","LI":"中興里","LIN":"10鄰","STREET":"興國路","SECT":" ","MAREA":" ","LANE":" ","ALLEY":" ","HOUSE_NO":"４２號之１","E_COORD97":172987.783348,"N_COORD97":2564397.0586299999,"ADDRESS":"興國路４２號之１","OBJECTID":660697},"geometry":{"x":172987.78334800061,"y":2564397.0586259998}},{"attributes":{"ID":660725,"DIS_CODE":0,"TOWNNAME":"新營區","LI":"新東里","LIN":"22鄰","STREET":"東明街","SECT":" ","MAREA":" ","LANE":"８０巷","ALLEY":" ","HOUSE_NO":"３６之２號","E_COORD97":180894.097465,"N_COORD97":2579783.1115899999,"ADDRESS":"東明街８０巷３６之２號","OBJECTID":660698},"geometry":{"x":180894.09746500105,"y":2579783.1115860045}},{"attributes":{"ID":660726,"DIS_CODE":0,"TOWNNAME":"永康區","LI":"埔園里","LIN":"31鄰","STREET":"八德街","SECT":" ","MAREA":" ","LANE":"３２６巷","ALLEY":"５３弄","HOUSE_NO":"１號","E_COORD97":173645.45869199999,"N_COORD97":2548770.3905500001,"ADDRESS":"八德街３２６巷５３弄１號","OBJECTID":660699},"geometry":{"x":173645.45869200118,"y":2548770.3905519992}},{"attributes":{"ID":660727,"DIS_CODE":0,"TOWNNAME":"善化區","LI":"坐駕里","LIN":"19鄰","STREET":" ","SECT":" ","MAREA":"坐駕","LANE":" ","ALLEY":" ","HOUSE_NO":"２之８號","E_COORD97":178328.65967600001,"N_COORD97":2558503.0545399999,"ADDRESS":"坐駕２之８號","OBJECTID":660700},"geometry":{"x":178328.65967600141,"y":2558503.0545380004}},{"attributes":{"ID":660728,"DIS_CODE":0,"TOWNNAME":"新營區","LI":"新東里","LIN":"25鄰","STREET":"東興路","SECT":" ","MAREA":" ","LANE":" ","ALLEY":" ","HOUSE_NO":"１５３號","E_COORD97":180761.35325300001,"N_COORD97":2579296.3843499999,"ADDRESS":"東興路１５３號","OBJECTID":660701},"geometry":{"x":180761.35325300228,"y":2579296.3843489997}},{"attributes":{"ID":660729,"DIS_CODE":0,"TOWNNAME":"新營區","LI":"新東里","LIN":"25鄰","STREET":"東興路","SECT":" ","MAREA":" ","LANE":" ","ALLEY":" ","HOUSE_NO":"１５５號","E_COORD97":180760.505725,"N_COORD97":2579301.2526799999,"ADDRESS":"東興路１５５號","OBJECTID":660702},"geometry":{"x":180760.50572500005,"y":2579301.2526790015}},{"attributes":{"ID":660730,"DIS_CODE":0,"TOWNNAME":"新營區","LI":"新東里","LIN":"25鄰","STREET":"東興路","SECT":" ","MAREA":" ","LANE":" ","ALLEY":" ","HOUSE_NO":"１５７號","E_COORD97":180760.29384200001,"N_COORD97":2579305.6976800002,"ADDRESS":"東興路１５７號","OBJECTID":660703},"geometry":{"x":180760.29384200089,"y":2579305.6976770014}},{"attributes":{"ID":660731,"DIS_CODE":0,"TOWNNAME":"新營區","LI":"新東里","LIN":"25鄰","STREET":"東興路","SECT":" ","MAREA":" ","LANE":" ","ALLEY":" ","HOUSE_NO":"１５９號","E_COORD97":180759.23443099999,"N_COORD97":2579310.3543400001,"ADDRESS":"東興路１５９號","OBJECTID":660704},"geometry":{"x":180759.23443100229,"y":2579310.3543410022}},{"attributes":{"ID":660732,"DIS_CODE":0,"TOWNNAME":"永康區","LI":"埔園里","LIN":"31鄰","STREET":"八德街","SECT":" ","MAREA":" ","LANE":"３２６巷","ALLEY":"５３弄","HOUSE_NO":"３號","E_COORD97":173642.70332500001,"N_COORD97":2548771.44888,"ADDRESS":"八德街３２６巷５３弄３號","OBJECTID":660705},"geometry":{"x":173642.70332500059,"y":2548771.4488850012}},{"attributes":{"ID":660733,"DIS_CODE":0,"TOWNNAME":"新營區","LI":"新東里","LIN":"25鄰","STREET":"東興三街","SECT":" ","MAREA":" ","LANE":" ","ALLEY":" ","HOUSE_NO":"７號","E_COORD97":180727.24021600001,"N_COORD97":2579293.6326799998,"ADDRESS":"東興三街７號","OBJECTID":660706},"geometry":{"x":180727.24021600001,"y":2579293.6326829977}},{"attributes":{"ID":660734,"DIS_CODE":0,"TOWNNAME":"新營區","LI":"新東里","LIN":"25鄰","STREET":"東興三街","SECT":" ","MAREA":" ","LANE":" ","ALLEY":" ","HOUSE_NO":"５號","E_COORD97":180726.81645099999,"N_COORD97":2579299.13601,"ADDRESS":"東興三街５號","OBJECTID":660707},"geometry":{"x":180726.81645100191,"y":2579299.1360139996}},{"attributes":{"ID":660735,"DIS_CODE":0,"TOWNNAME":"新營區","LI":"新東里","LIN":"25鄰","STREET":"東興三街","SECT":" ","MAREA":" ","LANE":" ","ALLEY":" ","HOUSE_NO":"３號","E_COORD97":180726.39268700001,"N_COORD97":2579304.4276800002,"ADDRESS":"東興三街３號","OBJECTID":660708},"geometry":{"x":180726.39268700033,"y":2579304.4276780002}},{"attributes":{"ID":660736,"DIS_CODE":0,"TOWNNAME":"新營區","LI":"新東里","LIN":"25鄰","STREET":"東興三街","SECT":" ","MAREA":" ","LANE":" ","ALLEY":" ","HOUSE_NO":"１號","E_COORD97":180726.60456899999,"N_COORD97":2579309.5076799998,"ADDRESS":"東興三街１號","OBJECTID":660709},"geometry":{"x":180726.60456900019,"y":2579309.5076749995}},{"attributes":{"ID":660737,"DIS_CODE":0,"TOWNNAME":"新營區","LI":"新東里","LIN":"25鄰","STREET":"東興三街","SECT":" ","MAREA":" ","LANE":" ","ALLEY":" ","HOUSE_NO":"９號","E_COORD97":180718.12927999999,"N_COORD97":2579293.8443499999,"ADDRESS":"東興三街９號","OBJECTID":660710},"geometry":{"x":180718.12927999999,"y":2579293.844349999}},{"attributes":{"ID":660738,"DIS_CODE":0,"TOWNNAME":"新營區","LI":"新東里","LIN":"25鄰","STREET":"東興三街","SECT":" ","MAREA":" ","LANE":" ","ALLEY":" ","HOUSE_NO":"１１號","E_COORD97":180717.91739799999,"N_COORD97":2579299.13601,"ADDRESS":"東興三街１１號","OBJECTID":660711},"geometry":{"x":180717.91739800014,"y":2579299.1360139996}},{"attributes":{"ID":660739,"DIS_CODE":0,"TOWNNAME":"新營區","LI":"新東里","LIN":"25鄰","STREET":"東興三街","SECT":" ","MAREA":" ","LANE":" ","ALLEY":" ","HOUSE_NO":"１３號","E_COORD97":180717.28175200001,"N_COORD97":2579304.2160100001,"ADDRESS":"東興三街１３號","OBJECTID":660712},"geometry":{"x":180717.28175199963,"y":2579304.2160109989}},{"attributes":{"ID":660740,"DIS_CODE":0,"TOWNNAME":"新營區","LI":"新東里","LIN":"25鄰","STREET":"東興三街","SECT":" ","MAREA":" ","LANE":" ","ALLEY":" ","HOUSE_NO":"１５號","E_COORD97":180716.857987,"N_COORD97":2579309.5076799998,"ADDRESS":"東興三街１５號","OBJECTID":660713},"geometry":{"x":180716.85798699874,"y":2579309.5076749995}},{"attributes":{"ID":660741,"DIS_CODE":0,"TOWNNAME":"永康區","LI":"埔園里","LIN":"31鄰","STREET":"八德街","SECT":" ","MAREA":" ","LANE":"３２６巷","ALLEY":"５３弄","HOUSE_NO":"２號","E_COORD97":173645.882594,"N_COORD97":2548778.2222099998,"ADDRESS":"八德街３２６巷５３弄２號","OBJECTID":660714},"geometry":{"x":173645.88259400055,"y":2548778.222214004}},{"attributes":{"ID":660742,"DIS_CODE":0,"TOWNNAME":"永康區","LI":"埔園里","LIN":"31鄰","STREET":"八德街","SECT":" ","MAREA":" ","LANE":"３２６巷","ALLEY":"５３弄","HOUSE_NO":"５號","E_COORD97":173639.947958,"N_COORD97":2548772.0838799998,"ADDRESS":"八德街３２６巷５３弄５號","OBJECTID":660715},"geometry":{"x":173639.947958,"y":2548772.0838840008}},{"attributes":{"ID":660743,"DIS_CODE":0,"TOWNNAME":"永康區","LI":"埔園里","LIN":"31鄰","STREET":"八德街","SECT":" ","MAREA":" ","LANE":"３２６巷","ALLEY":"５３弄","HOUSE_NO":"６號","E_COORD97":173642.70332500001,"N_COORD97":2548777.7988800001,"ADDRESS":"八德街３２６巷５３弄６號","OBJECTID":660716},"geometry":{"x":173642.70332500059,"y":2548777.7988809999}},{"attributes":{"ID":660744,"DIS_CODE":0,"TOWNNAME":"永康區","LI":"埔園里","LIN":"31鄰","STREET":"八德街","SECT":" ","MAREA":" ","LANE":"３２６巷","ALLEY":"５３弄","HOUSE_NO":"１６號","E_COORD97":173626.80697800001,"N_COORD97":2548783.0905499998,"ADDRESS":"八德街３２６巷５３弄１６號","OBJECTID":660717},"geometry":{"x":173626.80697800126,"y":2548783.0905450005}},{"attributes":{"ID":660745,"DIS_CODE":0,"TOWNNAME":"永康區","LI":"埔園里","LIN":"31鄰","STREET":"八德街","SECT":" ","MAREA":" ","LANE":"３２６巷","ALLEY":"５３弄","HOUSE_NO":"８號","E_COORD97":173638.040396,"N_COORD97":2548778.85721,"ADDRESS":"八德街３２６巷５３弄８號","OBJECTID":660718},"geometry":{"x":173638.04039600119,"y":2548778.8572140038}},{"attributes":{"ID":660746,"DIS_CODE":0,"TOWNNAME":"新營區","LI":"新東里","LIN":"27鄰","STREET":"東光街","SECT":" ","MAREA":" ","LANE":"４０巷","ALLEY":" ","HOUSE_NO":"３３號","E_COORD97":180691.22023800001,"N_COORD97":2579591.5004400001,"ADDRESS":"東光街４０巷３３號","OBJECTID":660719},"geometry":{"x":180691.22023800015,"y":2579591.5004389994}},{"attributes":{"ID":660747,"DIS_CODE":0,"TOWNNAME":"永康區","LI":"埔園里","LIN":"31鄰","STREET":"八德街","SECT":" ","MAREA":" ","LANE":"３２６巷","ALLEY":"５３弄","HOUSE_NO":"９號","E_COORD97":173634.22527299999,"N_COORD97":2548773.1422199998,"ADDRESS":"八德街３２６巷５３弄９號","OBJECTID":660720},"geometry":{"x":173634.22527300008,"y":2548773.1422169991}},{"attributes":{"ID":660748,"DIS_CODE":0,"TOWNNAME":"永康區","LI":"埔園里","LIN":"31鄰","STREET":"八德街","SECT":" ","MAREA":" ","LANE":"３２６巷","ALLEY":"５３弄","HOUSE_NO":"７號","E_COORD97":173636.76868899999,"N_COORD97":2548772.7188800001,"ADDRESS":"八德街３２６巷５３弄７號","OBJECTID":660721},"geometry":{"x":173636.76868899912,"y":2548772.7188840006}},{"attributes":{"ID":660749,"DIS_CODE":0,"TOWNNAME":"新營區","LI":"新東里","LIN":"27鄰","STREET":"東光街","SECT":" ","MAREA":" ","LANE":"４０巷","ALLEY":" ","HOUSE_NO":"３１號","E_COORD97":180685.92318300001,"N_COORD97":2579591.28877,"ADDRESS":"東光街４０巷３１號","OBJECTID":660722},"geometry":{"x":180685.92318300065,"y":2579591.2887730021}},{"attributes":{"ID":660750,"DIS_CODE":0,"TOWNNAME":"新營區","LI":"新東里","LIN":"27鄰","STREET":"東光街","SECT":" ","MAREA":" ","LANE":"４０巷","ALLEY":" ","HOUSE_NO":"２９號","E_COORD97":180681.47365599999,"N_COORD97":2579590.4421100002,"ADDRESS":"東光街４０巷２９號","OBJECTID":660723},"geometry":{"x":180681.47365599871,"y":2579590.4421060011}},{"attributes":{"ID":660751,"DIS_CODE":0,"TOWNNAME":"新營區","LI":"新東里","LIN":"27鄰","STREET":"東光街","SECT":" ","MAREA":" ","LANE":"４０巷","ALLEY":" ","HOUSE_NO":"２７號","E_COORD97":180677.65977599999,"N_COORD97":2579590.4421100002,"ADDRESS":"東光街４０巷２７號","OBJECTID":660724},"geometry":{"x":180677.65977600031,"y":2579590.4421060011}},{"attributes":{"ID":660752,"DIS_CODE":0,"TOWNNAME":"新營區","LI":"新東里","LIN":"27鄰","STREET":"東光街","SECT":" ","MAREA":" ","LANE":"４０巷","ALLEY":" ","HOUSE_NO":"２５號","E_COORD97":180672.99836699999,"N_COORD97":2579589.5954399998,"ADDRESS":"東光街４０巷２５號","OBJECTID":660725},"geometry":{"x":180672.9983670013,"y":2579589.5954400003}},{"attributes":{"ID":660753,"DIS_CODE":0,"TOWNNAME":"麻豆區","LI":"中興里","LIN":"13鄰","STREET":"仁愛路","SECT":" ","MAREA":" ","LANE":" ","ALLEY":" ","HOUSE_NO":"２５號","E_COORD97":172692.071818,"N_COORD97":2564720.60928,"ADDRESS":"仁愛路２５號","OBJECTID":660726},"geometry":{"x":172692.07181800064,"y":2564720.6092839986}},{"attributes":{"ID":660754,"DIS_CODE":0,"TOWNNAME":"新營區","LI":"新東里","LIN":"27鄰","STREET":"東光街","SECT":" ","MAREA":" ","LANE":"４０巷","ALLEY":" ","HOUSE_NO":"２３號","E_COORD97":180669.39637,"N_COORD97":2579589.1721100002,"ADDRESS":"東光街４０巷２３號","OBJECTID":660727},"geometry":{"x":180669.39637000114,"y":2579589.1721070018}},{"attributes":{"ID":660755,"DIS_CODE":0,"TOWNNAME":"麻豆區","LI":"中興里","LIN":"14鄰","STREET":"三民路","SECT":" ","MAREA":" ","LANE":" ","ALLEY":" ","HOUSE_NO":"３６號","E_COORD97":172719.40333999999,"N_COORD97":2564609.2498900001,"ADDRESS":"三民路３６號","OBJECTID":660728},"geometry":{"x":172719.40334000159,"y":2564609.2498870008}},{"attributes":{"ID":660756,"DIS_CODE":0,"TOWNNAME":"官田區","LI":"二鎮里","LIN":"1鄰","STREET":"建業路","SECT":" ","MAREA":" ","LANE":" ","ALLEY":" ","HOUSE_NO":"３１號","E_COORD97":181135.16846399999,"N_COORD97":2567739.5873599998,"ADDRESS":"建業路３１號","OBJECTID":660729},"geometry":{"x":181135.16846400034,"y":2567739.5873560049}},{"attributes":{"ID":660757,"DIS_CODE":0,"TOWNNAME":"東區","LI":"和平里","LIN":"8鄰","STREET":"自由路","SECT":"二段","MAREA":" ","LANE":" ","ALLEY":" ","HOUSE_NO":"１００號","E_COORD97":171832.55684199999,"N_COORD97":2541449.5213299999,"ADDRESS":"自由路二段１００號","OBJECTID":660730},"geometry":{"x":171832.55684200116,"y":2541449.5213270001}},{"attributes":{"ID":660758,"DIS_CODE":0,"TOWNNAME":"東區","LI":"和平里","LIN":"8鄰","STREET":"自由路","SECT":"二段","MAREA":" ","LANE":" ","ALLEY":" ","HOUSE_NO":"１１２號","E_COORD97":171831.2856,"N_COORD97":2541477.4613100002,"ADDRESS":"自由路二段１１２號","OBJECTID":660731},"geometry":{"x":171831.28560000006,"y":2541477.4613109995}},{"attributes":{"ID":660759,"DIS_CODE":0,"TOWNNAME":"新營區","LI":"新東里","LIN":"21鄰","STREET":"東安街","SECT":" ","MAREA":" ","LANE":" ","ALLEY":" ","HOUSE_NO":"７９號","E_COORD97":180929.69367800001,"N_COORD97":2579687.0149699999,"ADDRESS":"東安街７９號","OBJECTID":660732},"geometry":{"x":180929.69367800001,"y":2579687.0149710011}},{"attributes":{"ID":660760,"DIS_CODE":0,"TOWNNAME":"東區","LI":"和平里","LIN":"8鄰","STREET":"自由路","SECT":"二段","MAREA":" ","LANE":" ","ALLEY":" ","HOUSE_NO":"１１６號","E_COORD97":171832.34496799999,"N_COORD97":2541487.8329699999,"ADDRESS":"自由路二段１１６號","OBJECTID":660733},"geometry":{"x":171832.34496800043,"y":2541487.8329729997}},{"attributes":{"ID":660761,"DIS_CODE":0,"TOWNNAME":"新營區","LI":"新東里","LIN":"21鄰","STREET":"東安街","SECT":" ","MAREA":" ","LANE":" ","ALLEY":" ","HOUSE_NO":"９７號","E_COORD97":180927.15109100001,"N_COORD97":2579730.1949499999,"ADDRESS":"東安街９７號","OBJECTID":660734},"geometry":{"x":180927.15109100007,"y":2579730.1949480027}},{"attributes":{"ID":660762,"DIS_CODE":0,"TOWNNAME":"官田區","LI":"官田里","LIN":"13鄰","STREET":" ","SECT":" ","MAREA":"官田","LANE":" ","ALLEY":" ","HOUSE_NO":"１４０號","E_COORD97":182391.55020100001,"N_COORD97":2565028.67001,"ADDRESS":"官田１４０號","OBJECTID":660735},"geometry":{"x":182391.55020100065,"y":2565028.6700100023}},{"attributes":{"ID":660763,"DIS_CODE":0,"TOWNNAME":"新營區","LI":"新東里","LIN":"11鄰","STREET":"長榮路","SECT":"一段","MAREA":" ","LANE":" ","ALLEY":" ","HOUSE_NO":"１５７號","E_COORD97":181315.74308499999,"N_COORD97":2579806.2890699999,"ADDRESS":"長榮路一段１５７號","OBJECTID":660736},"geometry":{"x":181315.74308500066,"y":2579806.2890730016}},{"attributes":{"ID":660764,"DIS_CODE":0,"TOWNNAME":"新營區","LI":"新東里","LIN":"11鄰","STREET":"長榮路","SECT":"一段","MAREA":" ","LANE":" ","ALLEY":" ","HOUSE_NO":"１５９號","E_COORD97":181310.65791099999,"N_COORD97":2579807.55907,"ADDRESS":"長榮路一段１５９號","OBJECTID":660737},"geometry":{"x":181310.65791100077,"y":2579807.5590719972}},{"attributes":{"ID":660765,"DIS_CODE":0,"TOWNNAME":"新營區","LI":"新東里","LIN":"11鄰","STREET":"長榮路","SECT":"一段","MAREA":" ","LANE":" ","ALLEY":" ","HOUSE_NO":"１７１號","E_COORD97":181282.90134099999,"N_COORD97":2579814.7557399999,"ADDRESS":"長榮路一段１７１號","OBJECTID":660738},"geometry":{"x":181282.90134100057,"y":2579814.7557350025}},{"attributes":{"ID":660766,"DIS_CODE":0,"TOWNNAME":"新營區","LI":"新東里","LIN":"11鄰","STREET":"長榮路","SECT":"一段","MAREA":" ","LANE":" ","ALLEY":" ","HOUSE_NO":"１６９號","E_COORD97":181287.138985,"N_COORD97":2579811.7924000002,"ADDRESS":"長榮路一段１６９號","OBJECTID":660739},"geometry":{"x":181287.13898500148,"y":2579811.7924039997}},{"attributes":{"ID":660767,"DIS_CODE":0,"TOWNNAME":"東區","LI":"和平里","LIN":"8鄰","STREET":"自由路","SECT":"二段","MAREA":" ","LANE":" ","ALLEY":" ","HOUSE_NO":"１３８號","E_COORD97":171829.59061000001,"N_COORD97":2541531.8596199998,"ADDRESS":"自由路二段１３８號","OBJECTID":660740},"geometry":{"x":171829.59061000124,"y":2541531.8596150018}},{"attributes":{"ID":660768,"DIS_CODE":0,"TOWNNAME":"新營區","LI":"新東里","LIN":"11鄰","STREET":"長榮路","SECT":"一段","MAREA":" ","LANE":" ","ALLEY":" ","HOUSE_NO":"１６７號","E_COORD97":181291.58851199999,"N_COORD97":2579810.7340699998,"ADDRESS":"長榮路一段１６７號","OBJECTID":660741},"geometry":{"x":181291.58851200063,"y":2579810.7340710014}},{"attributes":{"ID":660769,"DIS_CODE":0,"TOWNNAME":"新營區","LI":"新東里","LIN":"11鄰","STREET":"長榮路","SECT":"一段","MAREA":" ","LANE":" ","ALLEY":" ","HOUSE_NO":"１６５號","E_COORD97":181296.88556699999,"N_COORD97":2579809.4640700002,"ADDRESS":"長榮路一段１６５號","OBJECTID":660742},"geometry":{"x":181296.8855669992,"y":2579809.4640710019}},{"attributes":{"ID":660770,"DIS_CODE":0,"TOWNNAME":"新營區","LI":"新東里","LIN":"11鄰","STREET":"長榮路","SECT":"一段","MAREA":" ","LANE":" ","ALLEY":" ","HOUSE_NO":"１６３號","E_COORD97":181301.75885799999,"N_COORD97":2579808.4057399998,"ADDRESS":"長榮路一段１６３號","OBJECTID":660743},"geometry":{"x":181301.75885799993,"y":2579808.4057390038}},{"attributes":{"ID":660771,"DIS_CODE":0,"TOWNNAME":"新營區","LI":"新東里","LIN":"11鄰","STREET":"長榮路","SECT":"一段","MAREA":" ","LANE":" ","ALLEY":" ","HOUSE_NO":"１６１號","E_COORD97":181306.42026700001,"N_COORD97":2579807.3474099999,"ADDRESS":"長榮路一段１６１號","OBJECTID":660744},"geometry":{"x":181306.42026700079,"y":2579807.3474059999}},{"attributes":{"ID":660772,"DIS_CODE":0,"TOWNNAME":"官田區","LI":"官田里","LIN":"13鄰","STREET":" ","SECT":" ","MAREA":"官田","LANE":" ","ALLEY":" ","HOUSE_NO":"１４１號","E_COORD97":182386.796566,"N_COORD97":2565017.2400199999,"ADDRESS":"官田１４１號","OBJECTID":660745},"geometry":{"x":182386.79656600114,"y":2565017.2400170043}},{"attributes":{"ID":660773,"DIS_CODE":0,"TOWNNAME":"東區","LI":"和平里","LIN":"8鄰","STREET":"自由路","SECT":"二段","MAREA":" ","LANE":" ","ALLEY":" ","HOUSE_NO":"１３６號","E_COORD97":171829.59061000001,"N_COORD97":2541527.2029499998,"ADDRESS":"自由路二段１３６號","OBJECTID":660746},"geometry":{"x":171829.59061000124,"y":2541527.202951001}},{"attributes":{"ID":660774,"DIS_CODE":0,"TOWNNAME":"東區","LI":"和平里","LIN":"8鄰","STREET":"自由路","SECT":"二段","MAREA":" ","LANE":" ","ALLEY":" ","HOUSE_NO":"１３２號","E_COORD97":171828.95498899999,"N_COORD97":2541522.3346199999,"ADDRESS":"自由路二段１３２號","OBJECTID":660747},"geometry":{"x":171828.95498900115,"y":2541522.3346210029}},{"attributes":{"ID":660775,"DIS_CODE":0,"TOWNNAME":"東區","LI":"和平里","LIN":"8鄰","STREET":"自由路","SECT":"二段","MAREA":" ","LANE":" ","ALLEY":" ","HOUSE_NO":"１３０號","E_COORD97":171830.01435799999,"N_COORD97":2541517.0429600002,"ADDRESS":"自由路二段１３０號","OBJECTID":660748},"geometry":{"x":171830.0143579999,"y":2541517.0429570023}},{"attributes":{"ID":660776,"DIS_CODE":0,"TOWNNAME":"東區","LI":"和平里","LIN":"8鄰","STREET":"自由路","SECT":"二段","MAREA":" ","LANE":" ","ALLEY":" ","HOUSE_NO":"１２８號","E_COORD97":171829.59061000001,"N_COORD97":2541513.0212900001,"ADDRESS":"自由路二段１２８號","OBJECTID":660749},"geometry":{"x":171829.59061000124,"y":2541513.0212920029}},{"attributes":{"ID":660777,"DIS_CODE":0,"TOWNNAME":"東區","LI":"和平里","LIN":"8鄰","STREET":"自由路","SECT":"二段","MAREA":" ","LANE":" ","ALLEY":" ","HOUSE_NO":"１１８號","E_COORD97":171830.64997900001,"N_COORD97":2541493.7596399998,"ADDRESS":"自由路二段１１８號","OBJECTID":660750},"geometry":{"x":171830.64997899998,"y":2541493.7596359998}},{"attributes":{"ID":660778,"DIS_CODE":0,"TOWNNAME":"東區","LI":"和平里","LIN":"8鄰","STREET":"自由路","SECT":"二段","MAREA":" ","LANE":" ","ALLEY":" ","HOUSE_NO":"１２６號","E_COORD97":171830.22623100001,"N_COORD97":2541509.6346300002,"ADDRESS":"自由路二段１２６號","OBJECTID":660751},"geometry":{"x":171830.22623100132,"y":2541509.6346270014}},{"attributes":{"ID":660779,"DIS_CODE":0,"TOWNNAME":"東區","LI":"和平里","LIN":"8鄰","STREET":"自由路","SECT":"二段","MAREA":" ","LANE":" ","ALLEY":" ","HOUSE_NO":"１２２號","E_COORD97":171830.01435799999,"N_COORD97":2541504.1313,"ADDRESS":"自由路二段１２２號","OBJECTID":660752},"geometry":{"x":171830.0143579999,"y":2541504.1312969998}},{"attributes":{"ID":660780,"DIS_CODE":0,"TOWNNAME":"官田區","LI":"官田里","LIN":"13鄰","STREET":" ","SECT":" ","MAREA":"官田","LANE":" ","ALLEY":" ","HOUSE_NO":"１２８號","E_COORD97":182363.59629300001,"N_COORD97":2565018.5100199999,"ADDRESS":"官田１２８號","OBJECTID":660753},"geometry":{"x":182363.5962930005,"y":2565018.5100159999}},{"attributes":{"ID":660781,"DIS_CODE":0,"TOWNNAME":"東區","LI":"和平里","LIN":"8鄰","STREET":"自由路","SECT":"二段","MAREA":" ","LANE":" ","ALLEY":" ","HOUSE_NO":"１２０號","E_COORD97":171830.43810500001,"N_COORD97":2541499.6863000002,"ADDRESS":"自由路二段１２０號","OBJECTID":660754},"geometry":{"x":171830.43810500018,"y":2541499.6862989999}},{"attributes":{"ID":660782,"DIS_CODE":0,"TOWNNAME":"新營區","LI":"新東里","LIN":"15鄰","STREET":"東智街","SECT":" ","MAREA":" ","LANE":" ","ALLEY":" ","HOUSE_NO":"５９號","E_COORD97":180982.24046900001,"N_COORD97":2579721.93995,"ADDRESS":"東智街５９號","OBJECTID":660755},"geometry":{"x":180982.2404690003,"y":2579721.9399520047}},{"attributes":{"ID":660783,"DIS_CODE":0,"TOWNNAME":"東區","LI":"和平里","LIN":"8鄰","STREET":"自由路","SECT":"二段","MAREA":" ","LANE":" ","ALLEY":" ","HOUSE_NO":"１１０號","E_COORD97":171831.073726,"N_COORD97":2541472.5929800002,"ADDRESS":"自由路二段１１０號","OBJECTID":660756},"geometry":{"x":171831.07372600026,"y":2541472.5929810014}},{"attributes":{"ID":660784,"DIS_CODE":0,"TOWNNAME":"東區","LI":"和平里","LIN":"8鄰","STREET":"自由路","SECT":"二段","MAREA":" ","LANE":" ","ALLEY":" ","HOUSE_NO":"１０８號","E_COORD97":171831.2856,"N_COORD97":2541468.5713200001,"ADDRESS":"自由路二段１０８號","OBJECTID":660757},"geometry":{"x":171831.28560000006,"y":2541468.5713160019}},{"attributes":{"ID":660785,"DIS_CODE":0,"TOWNNAME":"新營區","LI":"新東里","LIN":"15鄰","STREET":"東智街","SECT":" ","MAREA":" ","LANE":" ","ALLEY":" ","HOUSE_NO":"６１號","E_COORD97":180981.39293999999,"N_COORD97":2579728.07828,"ADDRESS":"東智街６１號","OBJECTID":660758},"geometry":{"x":180981.39294000063,"y":2579728.0782820005}},{"attributes":{"ID":660786,"DIS_CODE":0,"TOWNNAME":"東區","LI":"和平里","LIN":"8鄰","STREET":"自由路","SECT":"二段","MAREA":" ","LANE":" ","ALLEY":" ","HOUSE_NO":"１０６號","E_COORD97":171831.497474,"N_COORD97":2541462.22132,"ADDRESS":"自由路二段１０６號","OBJECTID":660759},"geometry":{"x":171831.49747400079,"y":2541462.2213200014}},{"attributes":{"ID":660787,"DIS_CODE":0,"TOWNNAME":"新營區","LI":"新東里","LIN":"15鄰","STREET":"東智街","SECT":" ","MAREA":" ","LANE":" ","ALLEY":" ","HOUSE_NO":"６３號","E_COORD97":180980.96917600001,"N_COORD97":2579733.8991100001,"ADDRESS":"東智街６３號","OBJECTID":660760},"geometry":{"x":180980.96917600185,"y":2579733.8991120011}},{"attributes":{"ID":660788,"DIS_CODE":0,"TOWNNAME":"東區","LI":"和平里","LIN":"8鄰","STREET":"自由路","SECT":"二段","MAREA":" ","LANE":" ","ALLEY":" ","HOUSE_NO":"１０２號","E_COORD97":171832.133095,"N_COORD97":2541456.9296599999,"ADDRESS":"自由路二段１０２號","OBJECTID":660761},"geometry":{"x":171832.13309500087,"y":2541456.9296560008}},{"attributes":{"ID":660789,"DIS_CODE":0,"TOWNNAME":"新營區","LI":"新東里","LIN":"27鄰","STREET":"東光街","SECT":" ","MAREA":" ","LANE":"４０巷","ALLEY":" ","HOUSE_NO":"１６號","E_COORD97":180662.29831499999,"N_COORD97":2579573.6675300002,"ADDRESS":"東光街４０巷１６號","OBJECTID":660762},"geometry":{"x":180662.29831499886,"y":2579573.6675320007}},{"attributes":{"ID":660790,"DIS_CODE":0,"TOWNNAME":"新營區","LI":"新東里","LIN":"27鄰","STREET":"東光街","SECT":" ","MAREA":" ","LANE":"４０巷","ALLEY":" ","HOUSE_NO":"１８號","E_COORD97":180668.866664,"N_COORD97":2579573.8791999999,"ADDRESS":"東光街４０巷１８號","OBJECTID":660763},"geometry":{"x":180668.86666400079,"y":2579573.8791990019}},{"attributes":{"ID":660791,"DIS_CODE":0,"TOWNNAME":"新營區","LI":"新東里","LIN":"27鄰","STREET":"東光街","SECT":" ","MAREA":" ","LANE":"４０巷","ALLEY":" ","HOUSE_NO":"２０號","E_COORD97":180674.37560199999,"N_COORD97":2579573.5617,"ADDRESS":"東光街４０巷２０號","OBJECTID":660764},"geometry":{"x":180674.37560200132,"y":2579573.5616989993}},{"attributes":{"ID":660792,"DIS_CODE":0,"TOWNNAME":"東區","LI":"和平里","LIN":"1鄰","STREET":"文化二街","SECT":" ","MAREA":" ","LANE":" ","ALLEY":" ","HOUSE_NO":"５６號","E_COORD97":171191.215149,"N_COORD97":2542019.64518,"ADDRESS":"文化二街５６號","OBJECTID":660765},"geometry":{"x":171191.21514900122,"y":2542019.6451850012}},{"attributes":{"ID":660793,"DIS_CODE":0,"TOWNNAME":"東區","LI":"和平里","LIN":"15鄰","STREET":"文化六街","SECT":" ","MAREA":" ","LANE":" ","ALLEY":" ","HOUSE_NO":"７６號","E_COORD97":171342.70484600001,"N_COORD97":2541699.81703,"ADDRESS":"文化六街７６號","OBJECTID":660766},"geometry":{"x":171342.70484600123,"y":2541699.8170250021}},{"attributes":{"ID":660794,"DIS_CODE":0,"TOWNNAME":"永康區","LI":"埔園里","LIN":"36鄰","STREET":"龍中街","SECT":" ","MAREA":" ","LANE":" ","ALLEY":" ","HOUSE_NO":"５０１號","E_COORD97":174374.57114399999,"N_COORD97":2548415.0024100002,"ADDRESS":"龍中街５０１號","OBJECTID":660767},"geometry":{"x":174374.5711439997,"y":2548415.0024100021}},{"attributes":{"ID":660795,"DIS_CODE":0,"TOWNNAME":"東區","LI":"和平里","LIN":"15鄰","STREET":"文化六街","SECT":" ","MAREA":" ","LANE":" ","ALLEY":" ","HOUSE_NO":"７８號","E_COORD97":171348.84918300001,"N_COORD97":2541700.8753599999,"ADDRESS":"文化六街７８號","OBJECTID":660768},"geometry":{"x":171348.84918299969,"y":2541700.8753580004}},{"attributes":{"ID":660796,"DIS_CODE":0,"TOWNNAME":"龍崎區","LI":"土崎里","LIN":"13鄰","STREET":" ","SECT":" ","MAREA":"觀音山","LANE":" ","ALLEY":" ","HOUSE_NO":"５號","E_COORD97":186914.09217600001,"N_COORD97":2545125.2332199998,"ADDRESS":"觀音山５號","OBJECTID":660769},"geometry":{"x":186914.09217599966,"y":2545125.2332150042}},{"attributes":{"ID":660797,"DIS_CODE":0,"TOWNNAME":"東區","LI":"和平里","LIN":"15鄰","STREET":"文化六街","SECT":" ","MAREA":" ","LANE":" ","ALLEY":" ","HOUSE_NO":"８０號","E_COORD97":171354.357899,"N_COORD97":2541700.6636899998,"ADDRESS":"文化六街８０號","OBJECTID":660770},"geometry":{"x":171354.35789899994,"y":2541700.6636909992}},{"attributes":{"ID":660798,"DIS_CODE":0,"TOWNNAME":"東區","LI":"和平里","LIN":"15鄰","STREET":"文化六街","SECT":" ","MAREA":" ","LANE":" ","ALLEY":" ","HOUSE_NO":"８２號","E_COORD97":171360.29036300001,"N_COORD97":2541702.7803600002,"ADDRESS":"文化六街８２號","OBJECTID":660771},"geometry":{"x":171360.29036300071,"y":2541702.7803560011}},{"attributes":{"ID":660799,"DIS_CODE":0,"TOWNNAME":"東區","LI":"和平里","LIN":"15鄰","STREET":"文化六街","SECT":" ","MAREA":" ","LANE":" ","ALLEY":" ","HOUSE_NO":"９０號","E_COORD97":171370.67217400001,"N_COORD97":2541706.5903500002,"ADDRESS":"文化六街９０號","OBJECTID":660772},"geometry":{"x":171370.67217400111,"y":2541706.5903540011}},{"attributes":{"ID":660800,"DIS_CODE":0,"TOWNNAME":"東區","LI":"和平里","LIN":"15鄰","STREET":"文化六街","SECT":" ","MAREA":" ","LANE":" ","ALLEY":" ","HOUSE_NO":"９２號","E_COORD97":171375.54526899999,"N_COORD97":2541707.22535,"ADDRESS":"文化六街９２號","OBJECTID":660773},"geometry":{"x":171375.54526900128,"y":2541707.2253540009}},{"attributes":{"ID":660801,"DIS_CODE":0,"TOWNNAME":"東區","LI":"和平里","LIN":"15鄰","STREET":"文化六街","SECT":" ","MAREA":" ","LANE":" ","ALLEY":" ","HOUSE_NO":"９６號","E_COORD97":171380.20649099999,"N_COORD97":2541707.8603500002,"ADDRESS":"文化六街９６號","OBJECTID":660774},"geometry":{"x":171380.20649100002,"y":2541707.8603539988}},{"attributes":{"ID":660802,"DIS_CODE":0,"TOWNNAME":"龍崎區","LI":"土崎里","LIN":"13鄰","STREET":" ","SECT":" ","MAREA":"觀音山","LANE":" ","ALLEY":" ","HOUSE_NO":"７之１號","E_COORD97":186548.77564899999,"N_COORD97":2544225.1211999999,"ADDRESS":"觀音山７之１號","OBJECTID":660775},"geometry":{"x":186548.77564900089,"y":2544225.1212010011}},{"attributes":{"ID":660803,"DIS_CODE":0,"TOWNNAME":"永康區","LI":"網寮里","LIN":"23鄰","STREET":"永春街","SECT":" ","MAREA":" ","LANE":"１２巷","ALLEY":" ","HOUSE_NO":"１８之１號","E_COORD97":173836.63875899999,"N_COORD97":2546251.4527400001,"ADDRESS":"永春街１２巷１８之１號","OBJECTID":660776},"geometry":{"x":173836.63875900209,"y":2546251.4527450018}},{"attributes":{"ID":660804,"DIS_CODE":0,"TOWNNAME":"東區","LI":"和平里","LIN":"15鄰","STREET":"文化二街","SECT":" ","MAREA":" ","LANE":" ","ALLEY":" ","HOUSE_NO":"２３６號","E_COORD97":171380.84211200001,"N_COORD97":2541697.0653599999,"ADDRESS":"文化二街２３６號","OBJECTID":660777},"geometry":{"x":171380.8421120001,"y":2541697.0653600022}},{"attributes":{"ID":660805,"DIS_CODE":0,"TOWNNAME":"東區","LI":"和平里","LIN":"15鄰","STREET":"文化二街","SECT":" ","MAREA":" ","LANE":" ","ALLEY":" ","HOUSE_NO":"２３８號","E_COORD97":171380.63023800001,"N_COORD97":2541693.67869,"ADDRESS":"文化二街２３８號","OBJECTID":660778},"geometry":{"x":171380.63023800217,"y":2541693.6786950007}},{"attributes":{"ID":660806,"DIS_CODE":0,"TOWNNAME":"龍崎區","LI":"土崎里","LIN":"14鄰","STREET":" ","SECT":" ","MAREA":"觀音山","LANE":" ","ALLEY":" ","HOUSE_NO":"９之１號","E_COORD97":186786.39022500001,"N_COORD97":2544240.67869,"ADDRESS":"觀音山９之１號","OBJECTID":660779},"geometry":{"x":186786.39022500161,"y":2544240.6786930002}},{"attributes":{"ID":660807,"DIS_CODE":0,"TOWNNAME":"永康區","LI":"網寮里","LIN":"26鄰","STREET":"永大一路","SECT":" ","MAREA":" ","LANE":"１０８巷","ALLEY":" ","HOUSE_NO":"１８號","E_COORD97":174030.57419300001,"N_COORD97":2546474.2317900001,"ADDRESS":"永大一路１０８巷１８號","OBJECTID":660780},"geometry":{"x":174030.57419300079,"y":2546474.2317919992}},{"attributes":{"ID":660808,"DIS_CODE":0,"TOWNNAME":"龍崎區","LI":"土崎里","LIN":"14鄰","STREET":" ","SECT":" ","MAREA":"觀音山","LANE":" ","ALLEY":" ","HOUSE_NO":"１１號","E_COORD97":186850.77064500001,"N_COORD97":2544762.33091,"ADDRESS":"觀音山１１號","OBJECTID":660781},"geometry":{"x":186850.77064500097,"y":2544762.3309109993}},{"attributes":{"ID":660809,"DIS_CODE":0,"TOWNNAME":"龍崎區","LI":"土崎里","LIN":"12鄰","STREET":" ","SECT":" ","MAREA":"觀音山","LANE":" ","ALLEY":" ","HOUSE_NO":"２９號","E_COORD97":187683.268771,"N_COORD97":2544996.32828,"ADDRESS":"觀音山２９號","OBJECTID":660782},"geometry":{"x":187683.26877100021,"y":2544996.3282850031}},{"attributes":{"ID":660810,"DIS_CODE":0,"TOWNNAME":"東區","LI":"和平里","LIN":"22鄰","STREET":"自由路","SECT":"二段","MAREA":" ","LANE":"１７５巷","ALLEY":" ","HOUSE_NO":"７０號","E_COORD97":171660.51539700001,"N_COORD97":2541652.0862199999,"ADDRESS":"自由路二段１７５巷７０號","OBJECTID":660783},"geometry":{"x":171660.51539700106,"y":2541652.0862170011}},{"attributes":{"ID":660811,"DIS_CODE":0,"TOWNNAME":"永康區","LI":"網寮里","LIN":"26鄰","STREET":"永興路","SECT":" ","MAREA":" ","LANE":" ","ALLEY":" ","HOUSE_NO":"５１號","E_COORD97":174072.75250100001,"N_COORD97":2546436.6609800002,"ADDRESS":"永興路５１號","OBJECTID":660784},"geometry":{"x":174072.75250099972,"y":2546436.660978999}},{"attributes":{"ID":660812,"DIS_CODE":0,"TOWNNAME":"龍崎區","LI":"土崎里","LIN":"12鄰","STREET":" ","SECT":" ","MAREA":"烏樹林","LANE":" ","ALLEY":" ","HOUSE_NO":"２４之１號","E_COORD97":187820.500718,"N_COORD97":2544579.8743400001,"ADDRESS":"烏樹林２４之１號","OBJECTID":660785},"geometry":{"x":187820.50071800128,"y":2544579.8743430022}},{"attributes":{"ID":660813,"DIS_CODE":0,"TOWNNAME":"官田區","LI":"湖山里","LIN":"4鄰","STREET":" ","SECT":" ","MAREA":"烏山頭","LANE":" ","ALLEY":" ","HOUSE_NO":"２５號之４","E_COORD97":183357.42881700001,"N_COORD97":2567629.32222,"ADDRESS":"烏山頭２５號之４","OBJECTID":660786},"geometry":{"x":183357.42881700024,"y":2567629.3222240023}},{"attributes":{"ID":660814,"DIS_CODE":0,"TOWNNAME":"官田區","LI":"湖山里","LIN":"4鄰","STREET":" ","SECT":" ","MAREA":"烏山頭","LANE":" ","ALLEY":" ","HOUSE_NO":"２５號之５","E_COORD97":183360.81881200001,"N_COORD97":2567628.8988899998,"ADDRESS":"烏山頭２５號之５","OBJECTID":660787},"geometry":{"x":183360.81881199963,"y":2567628.8988910001}},{"attributes":{"ID":660815,"DIS_CODE":0,"TOWNNAME":"官田區","LI":"湖山里","LIN":"4鄰","STREET":" ","SECT":" ","MAREA":"烏山頭","LANE":" ","ALLEY":" ","HOUSE_NO":"２５號之６","E_COORD97":183365.26817900001,"N_COORD97":2567628.4755600002,"ADDRESS":"烏山頭２５號之６","OBJECTID":660788},"geometry":{"x":183365.26817900036,"y":2567628.4755580015}},{"attributes":{"ID":660816,"DIS_CODE":0,"TOWNNAME":"龍崎區","LI":"土崎里","LIN":"10鄰","STREET":" ","SECT":" ","MAREA":"烏樹林","LANE":" ","ALLEY":" ","HOUSE_NO":"１號","E_COORD97":188219.886982,"N_COORD97":2544008.7086900002,"ADDRESS":"烏樹林１號","OBJECTID":660789},"geometry":{"x":188219.88698200136,"y":2544008.7086880002}},{"attributes":{"ID":660817,"DIS_CODE":0,"TOWNNAME":"龍崎區","LI":"土崎里","LIN":"11鄰","STREET":" ","SECT":" ","MAREA":"烏樹林","LANE":" ","ALLEY":" ","HOUSE_NO":"８號","E_COORD97":188242.75897299999,"N_COORD97":2544209.2627500002,"ADDRESS":"烏樹林８號","OBJECTID":660790},"geometry":{"x":188242.75897299964,"y":2544209.2627470009}},{"attributes":{"ID":660818,"DIS_CODE":0,"TOWNNAME":"東區","LI":"忠孝里","LIN":"12鄰","STREET":"榮譽街","SECT":" ","MAREA":" ","LANE":" ","ALLEY":" ","HOUSE_NO":"７７號之１","E_COORD97":169759.16080499999,"N_COORD97":2541705.2145199999,"ADDRESS":"榮譽街７７號之１","OBJECTID":660791},"geometry":{"x":169759.16080500092,"y":2541705.2145220004}},{"attributes":{"ID":660819,"DIS_CODE":0,"TOWNNAME":"東區","LI":"忠孝里","LIN":"12鄰","STREET":"榮譽街","SECT":" ","MAREA":" ","LANE":" ","ALLEY":" ","HOUSE_NO":"８９號","E_COORD97":169796.238702,"N_COORD97":2541724.8995099999,"ADDRESS":"榮譽街８９號","OBJECTID":660792},"geometry":{"x":169796.23870200012,"y":2541724.8995110001}},{"attributes":{"ID":660820,"DIS_CODE":0,"TOWNNAME":"官田區","LI":"湖山里","LIN":"7鄰","STREET":" ","SECT":" ","MAREA":"烏山頭","LANE":" ","ALLEY":" ","HOUSE_NO":"３７號之１","E_COORD97":183311.24014499999,"N_COORD97":2567719.9155100002,"ADDRESS":"烏山頭３７號之１","OBJECTID":660793},"geometry":{"x":183311.24014499877,"y":2567719.9155080002}},{"attributes":{"ID":660821,"DIS_CODE":0,"TOWNNAME":"東區","LI":"忠孝里","LIN":"25鄰","STREET":"崇明三街","SECT":" ","MAREA":" ","LANE":" ","ALLEY":" ","HOUSE_NO":"４２號","E_COORD97":169635.63843699999,"N_COORD97":2542348.3633400002,"ADDRESS":"崇明三街４２號","OBJECTID":660794},"geometry":{"x":169635.6384370001,"y":2542348.3633410018}},{"attributes":{"ID":660822,"DIS_CODE":0,"TOWNNAME":"東區","LI":"忠孝里","LIN":"25鄰","STREET":"崇明三街","SECT":" ","MAREA":" ","LANE":" ","ALLEY":" ","HOUSE_NO":"１６號之２","E_COORD97":169583.09375900001,"N_COORD97":2542329.9483500002,"ADDRESS":"崇明三街１６號之２","OBJECTID":660795},"geometry":{"x":169583.0937590003,"y":2542329.9483509995}},{"attributes":{"ID":660823,"DIS_CODE":0,"TOWNNAME":"東區","LI":"忠孝里","LIN":"32鄰","STREET":"崇明六街","SECT":" ","MAREA":" ","LANE":"８巷","ALLEY":" ","HOUSE_NO":"１號","E_COORD97":169638.60466899999,"N_COORD97":2542175.4317700001,"ADDRESS":"崇明六街８巷１號","OBJECTID":660796},"geometry":{"x":169638.60466900188,"y":2542175.431768002}},{"attributes":{"ID":660824,"DIS_CODE":0,"TOWNNAME":"東區","LI":"忠孝里","LIN":"32鄰","STREET":"榮譽街","SECT":" ","MAREA":" ","LANE":"８７巷","ALLEY":" ","HOUSE_NO":"１５號","E_COORD97":169730.13410699999,"N_COORD97":2541753.3686600002,"ADDRESS":"榮譽街８７巷１５號","OBJECTID":660797},"geometry":{"x":169730.13410700113,"y":2541753.3686629999}},{"attributes":{"ID":660825,"DIS_CODE":0,"TOWNNAME":"善化區","LI":"文正里","LIN":"2鄰","STREET":"文正路","SECT":" ","MAREA":" ","LANE":"７９巷","ALLEY":" ","HOUSE_NO":"２２號之２","E_COORD97":177084.31229,"N_COORD97":2559424.78889,"ADDRESS":"文正路７９巷２２號之２","OBJECTID":660798},"geometry":{"x":177084.3122899998,"y":2559424.7888900023}},{"attributes":{"ID":660826,"DIS_CODE":0,"TOWNNAME":"善化區","LI":"文正里","LIN":"3鄰","STREET":"文正路","SECT":" ","MAREA":" ","LANE":"７９巷","ALLEY":" ","HOUSE_NO":"６號之１","E_COORD97":177134.84933,"N_COORD97":2559362.1355900001,"ADDRESS":"文正路７９巷６號之１","OBJECTID":660799},"geometry":{"x":177134.84932999965,"y":2559362.1355900019}},{"attributes":{"ID":660827,"DIS_CODE":0,"TOWNNAME":"善化區","LI":"文正里","LIN":"3鄰","STREET":"文正路","SECT":" ","MAREA":" ","LANE":" ","ALLEY":" ","HOUSE_NO":"８５號之１","E_COORD97":177181.89009999999,"N_COORD97":2559344.3555999999,"ADDRESS":"文正路８５號之１","OBJECTID":660800},"geometry":{"x":177181.89010000043,"y":2559344.3555999994}}]}