{"displayFieldName":"TOWNNAME","fieldAliases":{"ID":"ID","DIS_CODE":"DIS_CODE","TOWNNAME":"TOWNNAME","LI":"LI","LIN":"LIN","STREET":"STREET","SECT":"SECT","MAREA":"MAREA","LANE":"LANE","ALLEY":"ALLEY","HOUSE_NO":"HOUSE_NO","E_COORD97":"E_COORD97","N_COORD97":"N_COORD97","ADDRESS":"ADDRESS","OBJECTID":"OBJECTID"},"geometryType":"esriGeometryPoint","spatialReference":{"wkid":102443,"latestWkid":3826},"fields":[{"name":"ID","type":"esriFieldTypeDouble","alias":"ID"},{"name":"DIS_CODE","type":"esriFieldTypeInteger","alias":"DIS_CODE"},{"name":"TOWNNAME","type":"esriFieldTypeString","alias":"TOWNNAME","length":8},{"name":"LI","type":"esriFieldTypeString","alias":"LI","length":8},{"name":"LIN","type":"esriFieldTypeString","alias":"LIN","length":12},{"name":"STREET","type":"esriFieldTypeString","alias":"STREET","length":20},{"name":"SECT","type":"esriFieldTypeString","alias":"SECT","length":8},{"name":"MAREA","type":"esriFieldTypeString","alias":"MAREA","length":12},{"name":"LANE","type":"esriFieldTypeString","alias":"LANE","length":10},{"name":"ALLEY","type":"esriFieldTypeString","alias":"ALLEY","length":10},{"name":"HOUSE_NO","type":"esriFieldTypeString","alias":"HOUSE_NO","length":20},{"name":"E_COORD97","type":"esriFieldTypeDouble","alias":"E_COORD97"},{"name":"N_COORD97","type":"esriFieldTypeDouble","alias":"N_COORD97"},{"name":"ADDRESS","type":"esriFieldTypeString","alias":"ADDRESS","length":50},{"name":"OBJECTID","type":"esriFieldTypeOID","alias":"OBJECTID"}],"features":[{"attributes":{"ID":182602,"DIS_CODE":0,"TOWNNAME":"新化區","LI":"礁坑里","LIN":"11鄰","STREET":" ","SECT":" ","MAREA":"茄冬坑","LANE":" ","ALLEY":" ","HOUSE_NO":"４號之１","E_COORD97":182704.75,"N_COORD97":2548476.2599999998,"ADDRESS":"茄冬坑４號之１","OBJECTID":182601},"geometry":{"x":182704.75,"y":2548476.2599999998}},{"attributes":{"ID":182603,"DIS_CODE":0,"TOWNNAME":"新化區","LI":"全興里","LIN":"11鄰","STREET":" ","SECT":" ","MAREA":"竹子\u25A0","LANE":" ","ALLEY":" ","HOUSE_NO":"２６０號","E_COORD97":178961.32999999999,"N_COORD97":2546995.25,"ADDRESS":"竹子\u25A0２６０號","OBJECTID":182602},"geometry":{"x":178961.33000000007,"y":2546995.25}},{"attributes":{"ID":182604,"DIS_CODE":0,"TOWNNAME":"善化區","LI":"六德里","LIN":"11鄰","STREET":" ","SECT":" ","MAREA":"六分寮","LANE":" ","ALLEY":" ","HOUSE_NO":"２９４號之８","E_COORD97":178490.39999999999,"N_COORD97":2561656.27,"ADDRESS":"六分寮２９４號之８","OBJECTID":182603},"geometry":{"x":178490.40000000037,"y":2561656.2700000014}},{"attributes":{"ID":182605,"DIS_CODE":0,"TOWNNAME":"永康區","LI":"中華里","LIN":"13鄰","STREET":"忠義街","SECT":" ","MAREA":" ","LANE":"４４巷","ALLEY":"１８弄","HOUSE_NO":"５號","E_COORD97":171788.59,"N_COORD97":2544427.6299999999,"ADDRESS":"忠義街４４巷１８弄５號","OBJECTID":182604},"geometry":{"x":171788.58999999985,"y":2544427.629999999}},{"attributes":{"ID":182606,"DIS_CODE":0,"TOWNNAME":"永康區","LI":"大橋里","LIN":" ","STREET":"大橋一街","SECT":" ","MAREA":" ","LANE":"２３３巷","ALLEY":"３弄","HOUSE_NO":"２９號","E_COORD97":171169.29000000001,"N_COORD97":2546637.5,"ADDRESS":"大橋一街２３３巷３弄２９號","OBJECTID":182605},"geometry":{"x":171169.29000000004,"y":2546637.5}},{"attributes":{"ID":182607,"DIS_CODE":0,"TOWNNAME":"永康區","LI":"龍潭里","LIN":" ","STREET":"中山北路","SECT":" ","MAREA":" ","LANE":"１６４巷","ALLEY":"１１０弄","HOUSE_NO":"１４之６號","E_COORD97":174505.70999999999,"N_COORD97":2547331.1699999999,"ADDRESS":"中山北路１６４巷１１０弄１４之６號","OBJECTID":182606},"geometry":{"x":174505.70999999996,"y":2547331.1699999999}},{"attributes":{"ID":182608,"DIS_CODE":0,"TOWNNAME":"永康區","LI":"埔園里","LIN":" ","STREET":"八德街","SECT":" ","MAREA":" ","LANE":"３２６巷","ALLEY":"２９弄","HOUSE_NO":"１２號","E_COORD97":173627.67999999999,"N_COORD97":2548726.0899999999,"ADDRESS":"八德街３２６巷２９弄１２號","OBJECTID":182607},"geometry":{"x":173627.6799999997,"y":2548726.0900000036}},{"attributes":{"ID":182609,"DIS_CODE":0,"TOWNNAME":"永康區","LI":"尚頂里","LIN":" ","STREET":"南台街","SECT":" ","MAREA":" ","LANE":"５４巷","ALLEY":"４５弄","HOUSE_NO":"４３之２號","E_COORD97":170321.95999999999,"N_COORD97":2547130.5499999998,"ADDRESS":"南台街５４巷４５弄４３之２號","OBJECTID":182608},"geometry":{"x":170321.95999999996,"y":2547130.5500000045}},{"attributes":{"ID":182610,"DIS_CODE":0,"TOWNNAME":"大內區","LI":"石湖里","LIN":"11鄰","STREET":" ","SECT":" ","MAREA":"石子瀨","LANE":" ","ALLEY":" ","HOUSE_NO":"３４５號","E_COORD97":183870.26999999999,"N_COORD97":2558199.25,"ADDRESS":"石子瀨３４５號","OBJECTID":182609},"geometry":{"x":183870.27000000048,"y":2558199.2500000019}},{"attributes":{"ID":182611,"DIS_CODE":0,"TOWNNAME":"永康區","LI":"安康里","LIN":" ","STREET":"中華路","SECT":" ","MAREA":" ","LANE":"６１９巷","ALLEY":"８８弄","HOUSE_NO":"６３之１號","E_COORD97":170880.79000000001,"N_COORD97":2546094.5499999998,"ADDRESS":"中華路６１９巷８８弄６３之１號","OBJECTID":182610},"geometry":{"x":170880.79000000004,"y":2546094.5500000007}},{"attributes":{"ID":182612,"DIS_CODE":0,"TOWNNAME":"永康區","LI":"中華里","LIN":"13鄰","STREET":"忠義街","SECT":" ","MAREA":" ","LANE":"４４巷","ALLEY":"１８弄","HOUSE_NO":"３號","E_COORD97":171789.13,"N_COORD97":2544440.0299999998,"ADDRESS":"忠義街４４巷１８弄３號","OBJECTID":182611},"geometry":{"x":171789.13000000175,"y":2544440.0299999993}},{"attributes":{"ID":182613,"DIS_CODE":0,"TOWNNAME":"永康區","LI":"西橋里","LIN":" ","STREET":"中華西街","SECT":" ","MAREA":" ","LANE":"６１９巷","ALLEY":"２３弄","HOUSE_NO":"５號","E_COORD97":171007.01999999999,"N_COORD97":2546031,"ADDRESS":"中華西街６１９巷２３弄５號","OBJECTID":182612},"geometry":{"x":171007.02000000048,"y":2546031}},{"attributes":{"ID":182614,"DIS_CODE":0,"TOWNNAME":"永康區","LI":"安康里","LIN":" ","STREET":"中山南路","SECT":" ","MAREA":" ","LANE":"１２３巷","ALLEY":"２１弄","HOUSE_NO":"１３號","E_COORD97":170916.34,"N_COORD97":2545949.4900000002,"ADDRESS":"中山南路１２３巷２１弄１３號","OBJECTID":182613},"geometry":{"x":170916.34000000171,"y":2545949.4900000002}},{"attributes":{"ID":182615,"DIS_CODE":0,"TOWNNAME":"永康區","LI":"中華里","LIN":"13鄰","STREET":"忠義街","SECT":" ","MAREA":" ","LANE":"４４巷","ALLEY":"１８弄","HOUSE_NO":"１５號","E_COORD97":171789.73000000001,"N_COORD97":2544390.4300000002,"ADDRESS":"忠義街４４巷１８弄１５號","OBJECTID":182614},"geometry":{"x":171789.73000000138,"y":2544390.4299999978}},{"attributes":{"ID":182616,"DIS_CODE":0,"TOWNNAME":"永康區","LI":"埔園里","LIN":" ","STREET":"八德街","SECT":" ","MAREA":" ","LANE":"３２６巷","ALLEY":"２９弄","HOUSE_NO":"１３號","E_COORD97":173617.63,"N_COORD97":2548710.0899999999,"ADDRESS":"八德街３２６巷２９弄１３號","OBJECTID":182615},"geometry":{"x":173617.62999999989,"y":2548710.0900000017}},{"attributes":{"ID":182617,"DIS_CODE":0,"TOWNNAME":"大內區","LI":"石城里","LIN":"11鄰","STREET":" ","SECT":" ","MAREA":"石子瀨","LANE":" ","ALLEY":" ","HOUSE_NO":"１０１號","E_COORD97":184107.07000000001,"N_COORD97":2558025.25,"ADDRESS":"石子瀨１０１號","OBJECTID":182616},"geometry":{"x":184107.0700000003,"y":2558025.2500000019}},{"attributes":{"ID":182618,"DIS_CODE":0,"TOWNNAME":"大內區","LI":"大內里","LIN":"11鄰","STREET":" ","SECT":" ","MAREA":"內庄","LANE":" ","ALLEY":" ","HOUSE_NO":"１２１號之１","E_COORD97":184732.51000000001,"N_COORD97":2557489.2999999998,"ADDRESS":"內庄１２１號之１","OBJECTID":182617},"geometry":{"x":184732.50999999885,"y":2557489.3000000007}},{"attributes":{"ID":182619,"DIS_CODE":0,"TOWNNAME":"大內區","LI":"曲溪里","LIN":"11鄰","STREET":" ","SECT":" ","MAREA":"二重溪","LANE":" ","ALLEY":" ","HOUSE_NO":"１０５號之１３","E_COORD97":187389.82000000001,"N_COORD97":2557826.3100000001,"ADDRESS":"二重溪１０５號之１３","OBJECTID":182618},"geometry":{"x":187389.82000000123,"y":2557826.3100000024}},{"attributes":{"ID":182620,"DIS_CODE":0,"TOWNNAME":"大內區","LI":"石林里","LIN":"11鄰","STREET":" ","SECT":" ","MAREA":"石子瀨","LANE":" ","ALLEY":" ","HOUSE_NO":"２１９號之１３","E_COORD97":184067.54999999999,"N_COORD97":2558214.2999999998,"ADDRESS":"石子瀨２１９號之１３","OBJECTID":182619},"geometry":{"x":184067.54999999981,"y":2558214.3000000007}},{"attributes":{"ID":182621,"DIS_CODE":0,"TOWNNAME":"大內區","LI":"石林里","LIN":"11鄰","STREET":" ","SECT":" ","MAREA":"石子瀨","LANE":" ","ALLEY":" ","HOUSE_NO":"２１９號之７","E_COORD97":184079.17999999999,"N_COORD97":2558239.2999999998,"ADDRESS":"石子瀨２１９號之７","OBJECTID":182620},"geometry":{"x":184079.18000000063,"y":2558239.3000000026}},{"attributes":{"ID":182622,"DIS_CODE":0,"TOWNNAME":"大內區","LI":"石林里","LIN":"11鄰","STREET":" ","SECT":" ","MAREA":"石子瀨","LANE":" ","ALLEY":" ","HOUSE_NO":"２２７號","E_COORD97":184028.67000000001,"N_COORD97":2558256.25,"ADDRESS":"石子瀨２２７號","OBJECTID":182621},"geometry":{"x":184028.67000000086,"y":2558256.2500000019}},{"attributes":{"ID":182623,"DIS_CODE":0,"TOWNNAME":"大內區","LI":"頭社里","LIN":"11鄰","STREET":" ","SECT":" ","MAREA":"頭社","LANE":" ","ALLEY":" ","HOUSE_NO":"１４８號","E_COORD97":186469.09,"N_COORD97":2561757.25,"ADDRESS":"頭社１４８號","OBJECTID":182622},"geometry":{"x":186469.08999999985,"y":2561757.25}},{"attributes":{"ID":182624,"DIS_CODE":0,"TOWNNAME":"大內區","LI":"頭社里","LIN":"11鄰","STREET":" ","SECT":" ","MAREA":"頭社","LANE":" ","ALLEY":" ","HOUSE_NO":"１４５號之１","E_COORD97":186641.53,"N_COORD97":2561903.2999999998,"ADDRESS":"頭社１４５號之１","OBJECTID":182623},"geometry":{"x":186641.53000000026,"y":2561903.3000000007}},{"attributes":{"ID":182625,"DIS_CODE":0,"TOWNNAME":"大內區","LI":"環湖里","LIN":"11鄰","STREET":" ","SECT":" ","MAREA":"燒灰子","LANE":" ","ALLEY":" ","HOUSE_NO":"１５號","E_COORD97":188936.04000000001,"N_COORD97":2562345.25,"ADDRESS":"燒灰子１５號","OBJECTID":182624},"geometry":{"x":188936.04000000004,"y":2562345.2500000019}},{"attributes":{"ID":182626,"DIS_CODE":0,"TOWNNAME":"大內區","LI":"曲溪里","LIN":"11鄰","STREET":" ","SECT":" ","MAREA":"二重溪","LANE":" ","ALLEY":" ","HOUSE_NO":"１０５號之８","E_COORD97":187389.32000000001,"N_COORD97":2557809.3100000001,"ADDRESS":"二重溪１０５號之８","OBJECTID":182625},"geometry":{"x":187389.32000000123,"y":2557809.3100000024}},{"attributes":{"ID":182627,"DIS_CODE":0,"TOWNNAME":"大內區","LI":"頭社里","LIN":"11鄰","STREET":" ","SECT":" ","MAREA":"頭社","LANE":" ","ALLEY":" ","HOUSE_NO":"１４２號","E_COORD97":186998.09,"N_COORD97":2562276.25,"ADDRESS":"頭社１４２號","OBJECTID":182626},"geometry":{"x":186998.08999999985,"y":2562276.2500000037}},{"attributes":{"ID":182628,"DIS_CODE":0,"TOWNNAME":"安平區","LI":"石門里","LIN":"10鄰","STREET":"安北路","SECT":" ","MAREA":" ","LANE":" ","ALLEY":" ","HOUSE_NO":"３３號之４","E_COORD97":164586.10000000001,"N_COORD97":2544561.3300000001,"ADDRESS":"安北路３３號之４","OBJECTID":182627},"geometry":{"x":164586.0999999987,"y":2544561.3300000038}},{"attributes":{"ID":182629,"DIS_CODE":0,"TOWNNAME":"安平區","LI":"石門里","LIN":"10鄰","STREET":"安北路","SECT":" ","MAREA":" ","LANE":" ","ALLEY":" ","HOUSE_NO":"３３號之５","E_COORD97":164583.78,"N_COORD97":2544565.1899999999,"ADDRESS":"安北路３３號之５","OBJECTID":182628},"geometry":{"x":164583.78000000026,"y":2544565.1900000013}},{"attributes":{"ID":182630,"DIS_CODE":0,"TOWNNAME":"安平區","LI":"石門里","LIN":"10鄰","STREET":"安北路","SECT":" ","MAREA":" ","LANE":" ","ALLEY":" ","HOUSE_NO":"３３號之６","E_COORD97":164580.42999999999,"N_COORD97":2544566.2200000002,"ADDRESS":"安北路３３號之６","OBJECTID":182629},"geometry":{"x":164580.4299999997,"y":2544566.2200000025}},{"attributes":{"ID":182631,"DIS_CODE":0,"TOWNNAME":"安平區","LI":"石門里","LIN":"10鄰","STREET":"安北路","SECT":" ","MAREA":" ","LANE":" ","ALLEY":" ","HOUSE_NO":"３７號","E_COORD97":164571.92000000001,"N_COORD97":2544577.3100000001,"ADDRESS":"安北路３７號","OBJECTID":182630},"geometry":{"x":164571.91999999993,"y":2544577.3100000005}},{"attributes":{"ID":182632,"DIS_CODE":0,"TOWNNAME":"大內區","LI":"頭社里","LIN":"11鄰","STREET":" ","SECT":" ","MAREA":"頭社","LANE":" ","ALLEY":" ","HOUSE_NO":"１５１號之１","E_COORD97":187049.32999999999,"N_COORD97":2561453.2999999998,"ADDRESS":"頭社１５１號之１","OBJECTID":182631},"geometry":{"x":187049.33000000007,"y":2561453.3000000026}},{"attributes":{"ID":182633,"DIS_CODE":0,"TOWNNAME":"永康區","LI":"甲頂里","LIN":" ","STREET":"大武街","SECT":" ","MAREA":" ","LANE":"５９７巷","ALLEY":"５４弄","HOUSE_NO":"３０號","E_COORD97":170318.17999999999,"N_COORD97":2546548.75,"ADDRESS":"大武街５９７巷５４弄３０號","OBJECTID":182632},"geometry":{"x":170318.1799999997,"y":2546548.7500000019}},{"attributes":{"ID":182634,"DIS_CODE":0,"TOWNNAME":"永康區","LI":"安康里","LIN":" ","STREET":"中華路","SECT":" ","MAREA":" ","LANE":"６１９巷","ALLEY":"８８弄","HOUSE_NO":"６５之１號","E_COORD97":170899.09,"N_COORD97":2546104.7999999998,"ADDRESS":"中華路６１９巷８８弄６５之１號","OBJECTID":182633},"geometry":{"x":170899.08999999985,"y":2546104.8000000045}},{"attributes":{"ID":182635,"DIS_CODE":0,"TOWNNAME":"安南區","LI":"海東里","LIN":"21鄰","STREET":"海東三街","SECT":" ","MAREA":" ","LANE":" ","ALLEY":" ","HOUSE_NO":"６２號","E_COORD97":166876.53731399999,"N_COORD97":2547969.5507100001,"ADDRESS":"海東三街６２號","OBJECTID":182634},"geometry":{"x":166876.53731399961,"y":2547969.5507100001}},{"attributes":{"ID":182636,"DIS_CODE":0,"TOWNNAME":"永康區","LI":"埔園里","LIN":" ","STREET":"八德街","SECT":" ","MAREA":" ","LANE":"３２６巷","ALLEY":"２９弄","HOUSE_NO":"２１號","E_COORD97":173601.67999999999,"N_COORD97":2548712.3399999999,"ADDRESS":"八德街３２６巷２９弄２１號","OBJECTID":182635},"geometry":{"x":173601.6799999997,"y":2548712.3400000017}},{"attributes":{"ID":182637,"DIS_CODE":0,"TOWNNAME":"大內區","LI":"二溪里","LIN":"11鄰","STREET":" ","SECT":" ","MAREA":"其子瓦","LANE":" ","ALLEY":" ","HOUSE_NO":"１８號","E_COORD97":190168.22,"N_COORD97":2557445.25,"ADDRESS":"其子瓦１８號","OBJECTID":182636},"geometry":{"x":190168.22000000067,"y":2557445.2500000037}},{"attributes":{"ID":182638,"DIS_CODE":0,"TOWNNAME":"大內區","LI":"石城里","LIN":"11鄰","STREET":" ","SECT":" ","MAREA":"石子瀨","LANE":" ","ALLEY":" ","HOUSE_NO":"９５號","E_COORD97":184127.92000000001,"N_COORD97":2558029.25,"ADDRESS":"石子瀨９５號","OBJECTID":182637},"geometry":{"x":184127.91999999993,"y":2558029.2500000019}},{"attributes":{"ID":182639,"DIS_CODE":0,"TOWNNAME":"大內區","LI":"石林里","LIN":"11鄰","STREET":" ","SECT":" ","MAREA":"石子瀨","LANE":" ","ALLEY":" ","HOUSE_NO":"２１９號之２","E_COORD97":184076.14000000001,"N_COORD97":2558259.2999999998,"ADDRESS":"石子瀨２１９號之２","OBJECTID":182638},"geometry":{"x":184076.1400000006,"y":2558259.3000000045}},{"attributes":{"ID":182640,"DIS_CODE":0,"TOWNNAME":"大內區","LI":"二溪里","LIN":"11鄰","STREET":" ","SECT":" ","MAREA":"其子瓦","LANE":" ","ALLEY":" ","HOUSE_NO":"１０號","E_COORD97":190077.12,"N_COORD97":2557427.25,"ADDRESS":"其子瓦１０號","OBJECTID":182639},"geometry":{"x":190077.12000000197,"y":2557427.25}},{"attributes":{"ID":182641,"DIS_CODE":0,"TOWNNAME":"大內區","LI":"內江里","LIN":"11鄰","STREET":" ","SECT":" ","MAREA":"內庄","LANE":" ","ALLEY":" ","HOUSE_NO":"３３８號","E_COORD97":184869.78,"N_COORD97":2556476.25,"ADDRESS":"內庄３３８號","OBJECTID":182640},"geometry":{"x":184869.78000000026,"y":2556476.2500000019}},{"attributes":{"ID":182642,"DIS_CODE":0,"TOWNNAME":"永康區","LI":"甲頂里","LIN":" ","STREET":"大武街","SECT":" ","MAREA":" ","LANE":"５９７巷","ALLEY":"５４弄","HOUSE_NO":"２５號","E_COORD97":170323.09,"N_COORD97":2546564.2400000002,"ADDRESS":"大武街５９７巷５４弄２５號","OBJECTID":182641},"geometry":{"x":170323.09000000171,"y":2546564.2400000002}},{"attributes":{"ID":182643,"DIS_CODE":0,"TOWNNAME":"永康區","LI":"甲頂里","LIN":" ","STREET":"大武街","SECT":" ","MAREA":" ","LANE":"５９７巷","ALLEY":"５４弄","HOUSE_NO":"３４號","E_COORD97":170331.03,"N_COORD97":2546540.75,"ADDRESS":"大武街５９７巷５４弄３４號","OBJECTID":182642},"geometry":{"x":170331.03000000119,"y":2546540.75}},{"attributes":{"ID":182644,"DIS_CODE":0,"TOWNNAME":"永康區","LI":"甲頂里","LIN":" ","STREET":"大武街","SECT":" ","MAREA":" ","LANE":"５９７巷","ALLEY":"５４弄","HOUSE_NO":"１９號","E_COORD97":170312.54000000001,"N_COORD97":2546571.4900000002,"ADDRESS":"大武街５９７巷５４弄１９號","OBJECTID":182643},"geometry":{"x":170312.54000000097,"y":2546571.4900000021}},{"attributes":{"ID":182645,"DIS_CODE":0,"TOWNNAME":"永康區","LI":"甲頂里","LIN":" ","STREET":"大武街","SECT":" ","MAREA":" ","LANE":"５９７巷","ALLEY":"５４弄","HOUSE_NO":"２７之１號","E_COORD97":170330.72,"N_COORD97":2546556.0499999998,"ADDRESS":"大武街５９７巷５４弄２７之１號","OBJECTID":182644},"geometry":{"x":170330.72000000067,"y":2546556.0500000007}},{"attributes":{"ID":182646,"DIS_CODE":0,"TOWNNAME":"大內區","LI":"環湖里","LIN":"11鄰","STREET":" ","SECT":" ","MAREA":"燒灰子","LANE":" ","ALLEY":" ","HOUSE_NO":"１５號之２","E_COORD97":188952.01000000001,"N_COORD97":2562379.2999999998,"ADDRESS":"燒灰子１５號之２","OBJECTID":182645},"geometry":{"x":188952.01000000164,"y":2562379.3000000026}},{"attributes":{"ID":182647,"DIS_CODE":0,"TOWNNAME":"大內區","LI":"石林里","LIN":"11鄰","STREET":" ","SECT":" ","MAREA":"石子瀨","LANE":" ","ALLEY":" ","HOUSE_NO":"２１９號之１４","E_COORD97":184064.07999999999,"N_COORD97":2558213.2999999998,"ADDRESS":"石子瀨２１９號之１４","OBJECTID":182646},"geometry":{"x":184064.08000000007,"y":2558213.3000000026}},{"attributes":{"ID":182648,"DIS_CODE":0,"TOWNNAME":"大內區","LI":"頭社里","LIN":"11鄰","STREET":" ","SECT":" ","MAREA":"頭社","LANE":" ","ALLEY":" ","HOUSE_NO":"１４５號","E_COORD97":186639.39000000001,"N_COORD97":2561888.25,"ADDRESS":"頭社１４５號","OBJECTID":182647},"geometry":{"x":186639.3900000006,"y":2561888.25}},{"attributes":{"ID":182649,"DIS_CODE":0,"TOWNNAME":"大內區","LI":"曲溪里","LIN":"11鄰","STREET":" ","SECT":" ","MAREA":"二重溪","LANE":" ","ALLEY":" ","HOUSE_NO":"１０５號","E_COORD97":187395.34,"N_COORD97":2557810.3100000001,"ADDRESS":"二重溪１０５號","OBJECTID":182648},"geometry":{"x":187395.34000000171,"y":2557810.3100000005}},{"attributes":{"ID":182650,"DIS_CODE":0,"TOWNNAME":"大內區","LI":"石城里","LIN":"11鄰","STREET":" ","SECT":" ","MAREA":"石子瀨","LANE":" ","ALLEY":" ","HOUSE_NO":"９９號","E_COORD97":184107.92000000001,"N_COORD97":2558051.25,"ADDRESS":"石子瀨９９號","OBJECTID":182649},"geometry":{"x":184107.92000000179,"y":2558051.25}},{"attributes":{"ID":182651,"DIS_CODE":0,"TOWNNAME":"大內區","LI":"內江里","LIN":"11鄰","STREET":" ","SECT":" ","MAREA":"內庄","LANE":" ","ALLEY":" ","HOUSE_NO":"３３９號","E_COORD97":184842.28,"N_COORD97":2556450.25,"ADDRESS":"內庄３３９號","OBJECTID":182650},"geometry":{"x":184842.28000000119,"y":2556450.25}},{"attributes":{"ID":182652,"DIS_CODE":0,"TOWNNAME":"大內區","LI":"石林里","LIN":"11鄰","STREET":" ","SECT":" ","MAREA":"石子瀨","LANE":" ","ALLEY":" ","HOUSE_NO":"２１９號之１２","E_COORD97":184070.79000000001,"N_COORD97":2558214.2999999998,"ADDRESS":"石子瀨２１９號之１２","OBJECTID":182651},"geometry":{"x":184070.79000000004,"y":2558214.3000000007}},{"attributes":{"ID":182653,"DIS_CODE":0,"TOWNNAME":"大內區","LI":"頭社里","LIN":"11鄰","STREET":" ","SECT":" ","MAREA":"頭社","LANE":" ","ALLEY":" ","HOUSE_NO":"１４５號之２","E_COORD97":186671.45999999999,"N_COORD97":2562168.2999999998,"ADDRESS":"頭社１４５號之２","OBJECTID":182652},"geometry":{"x":186671.46000000089,"y":2562168.3000000045}},{"attributes":{"ID":182654,"DIS_CODE":0,"TOWNNAME":"永康區","LI":"復國里","LIN":"29鄰","STREET":"復華二街","SECT":" ","MAREA":" ","LANE":"３巷","ALLEY":"１２弄","HOUSE_NO":"１４號","E_COORD97":172607.924035,"N_COORD97":2545294.8774199998,"ADDRESS":"復華二街３巷１２弄１４號","OBJECTID":182653},"geometry":{"x":172607.92403499968,"y":2545294.8774230033}},{"attributes":{"ID":182655,"DIS_CODE":0,"TOWNNAME":"大內區","LI":"環湖里","LIN":"11鄰","STREET":" ","SECT":" ","MAREA":"燒灰子","LANE":" ","ALLEY":" ","HOUSE_NO":"１４號","E_COORD97":188911.94,"N_COORD97":2562341.25,"ADDRESS":"燒灰子１４號","OBJECTID":182654},"geometry":{"x":188911.94000000041,"y":2562341.2500000019}},{"attributes":{"ID":182656,"DIS_CODE":0,"TOWNNAME":"大內區","LI":"環湖里","LIN":"11鄰","STREET":" ","SECT":" ","MAREA":"燒灰子","LANE":" ","ALLEY":" ","HOUSE_NO":"１４號之１","E_COORD97":188929.38,"N_COORD97":2562327.2999999998,"ADDRESS":"燒灰子１４號之１","OBJECTID":182655},"geometry":{"x":188929.38000000082,"y":2562327.3000000007}},{"attributes":{"ID":182657,"DIS_CODE":0,"TOWNNAME":"大內區","LI":"曲溪里","LIN":"11鄰","STREET":" ","SECT":" ","MAREA":"二重溪","LANE":" ","ALLEY":" ","HOUSE_NO":"１０５號之６","E_COORD97":187395.67999999999,"N_COORD97":2557836.3100000001,"ADDRESS":"二重溪１０５號之６","OBJECTID":182656},"geometry":{"x":187395.6799999997,"y":2557836.3100000024}},{"attributes":{"ID":182658,"DIS_CODE":0,"TOWNNAME":"大內區","LI":"曲溪里","LIN":"11鄰","STREET":" ","SECT":" ","MAREA":"二重溪","LANE":" ","ALLEY":" ","HOUSE_NO":"１０５號之９","E_COORD97":187389.16,"N_COORD97":2557813.3100000001,"ADDRESS":"二重溪１０５號之９","OBJECTID":182657},"geometry":{"x":187389.16000000108,"y":2557813.3100000005}},{"attributes":{"ID":182659,"DIS_CODE":0,"TOWNNAME":"永康區","LI":"甲頂里","LIN":" ","STREET":"大武街","SECT":" ","MAREA":" ","LANE":"５９７巷","ALLEY":"５４弄","HOUSE_NO":"１０號","E_COORD97":170277.35000000001,"N_COORD97":2546573.04,"ADDRESS":"大武街５９７巷５４弄１０號","OBJECTID":182658},"geometry":{"x":170277.35000000056,"y":2546573.040000001}},{"attributes":{"ID":182660,"DIS_CODE":0,"TOWNNAME":"永康區","LI":"甲頂里","LIN":" ","STREET":"中央路","SECT":" ","MAREA":" ","LANE":"２３巷","ALLEY":"５８弄","HOUSE_NO":"４號","E_COORD97":169424.57999999999,"N_COORD97":2546983.3599999999,"ADDRESS":"中央路２３巷５８弄４號","OBJECTID":182659},"geometry":{"x":169424.58000000007,"y":2546983.3599999994}},{"attributes":{"ID":182661,"DIS_CODE":0,"TOWNNAME":"永康區","LI":"甲頂里","LIN":" ","STREET":"大武街","SECT":" ","MAREA":" ","LANE":"５９７巷","ALLEY":"５４弄","HOUSE_NO":"３２號","E_COORD97":170325.32000000001,"N_COORD97":2546544.25,"ADDRESS":"大武街５９７巷５４弄３２號","OBJECTID":182660},"geometry":{"x":170325.32000000216,"y":2546544.25}},{"attributes":{"ID":182662,"DIS_CODE":0,"TOWNNAME":"永康區","LI":"五王里","LIN":" ","STREET":"中山東路","SECT":" ","MAREA":" ","LANE":"２１８巷","ALLEY":"９弄","HOUSE_NO":"４７號","E_COORD97":171795.79000000001,"N_COORD97":2545619.5,"ADDRESS":"中山東路２１８巷９弄４７號","OBJECTID":182661},"geometry":{"x":171795.79000000097,"y":2545619.5}},{"attributes":{"ID":182663,"DIS_CODE":0,"TOWNNAME":"永康區","LI":"復興里","LIN":" ","STREET":"復興路","SECT":" ","MAREA":" ","LANE":"２７７巷","ALLEY":"９４弄","HOUSE_NO":"８之２號","E_COORD97":172343.91,"N_COORD97":2544022.7999999998,"ADDRESS":"復興路２７７巷９４弄８之２號","OBJECTID":182662},"geometry":{"x":172343.91000000108,"y":2544022.7999999989}},{"attributes":{"ID":182664,"DIS_CODE":0,"TOWNNAME":"永康區","LI":"埔園里","LIN":" ","STREET":"八德街","SECT":" ","MAREA":" ","LANE":"３２６巷","ALLEY":"２９弄","HOUSE_NO":"８號","E_COORD97":173634.35000000001,"N_COORD97":2548725.0899999999,"ADDRESS":"八德街３２６巷２９弄８號","OBJECTID":182663},"geometry":{"x":173634.34999999963,"y":2548725.0899999999}},{"attributes":{"ID":182665,"DIS_CODE":0,"TOWNNAME":"永康區","LI":"埔園里","LIN":" ","STREET":"八德街","SECT":" ","MAREA":" ","LANE":"３２６巷","ALLEY":"２９弄","HOUSE_NO":"２３號","E_COORD97":173597.59,"N_COORD97":2548713.0899999999,"ADDRESS":"八德街３２６巷２９弄２３號","OBJECTID":182664},"geometry":{"x":173597.58999999985,"y":2548713.0900000017}},{"attributes":{"ID":182666,"DIS_CODE":0,"TOWNNAME":"永康區","LI":"西灣里","LIN":" ","STREET":"大安街","SECT":" ","MAREA":" ","LANE":"２９３巷","ALLEY":"５２弄","HOUSE_NO":"５８之１號","E_COORD97":174572.32000000001,"N_COORD97":2545693.3799999999,"ADDRESS":"大安街２９３巷５２弄５８之１號","OBJECTID":182665},"geometry":{"x":174572.32000000123,"y":2545693.3800000008}},{"attributes":{"ID":182667,"DIS_CODE":0,"TOWNNAME":"永康區","LI":"五王里","LIN":" ","STREET":"中山東路","SECT":" ","MAREA":" ","LANE":"２１８巷","ALLEY":"９弄","HOUSE_NO":"４５號","E_COORD97":171790.98999999999,"N_COORD97":2545618.75,"ADDRESS":"中山東路２１８巷９弄４５號","OBJECTID":182666},"geometry":{"x":171790.99000000115,"y":2545618.75}},{"attributes":{"ID":182668,"DIS_CODE":0,"TOWNNAME":"永康區","LI":"埔園里","LIN":" ","STREET":"八德街","SECT":" ","MAREA":" ","LANE":"３２６巷","ALLEY":"２９弄","HOUSE_NO":"２８號","E_COORD97":173603.98000000001,"N_COORD97":2548729.0899999999,"ADDRESS":"八德街３２６巷２９弄２８號","OBJECTID":182667},"geometry":{"x":173603.98000000045,"y":2548729.089999998}},{"attributes":{"ID":182669,"DIS_CODE":0,"TOWNNAME":"永康區","LI":"埔園里","LIN":" ","STREET":"八德街","SECT":" ","MAREA":" ","LANE":"３２６巷","ALLEY":"２９弄","HOUSE_NO":"１號","E_COORD97":173640.26999999999,"N_COORD97":2548706.3399999999,"ADDRESS":"八德街３２６巷２９弄１號","OBJECTID":182668},"geometry":{"x":173640.26999999955,"y":2548706.3399999999}},{"attributes":{"ID":182670,"DIS_CODE":0,"TOWNNAME":"永康區","LI":"東橋里","LIN":" ","STREET":"中山南路","SECT":" ","MAREA":" ","LANE":"３１９巷","ALLEY":"２３弄","HOUSE_NO":"７２號","E_COORD97":171589.17999999999,"N_COORD97":2546362.6499999999,"ADDRESS":"中山南路３１９巷２３弄７２號","OBJECTID":182669},"geometry":{"x":171589.18000000063,"y":2546362.6500000004}},{"attributes":{"ID":182671,"DIS_CODE":0,"TOWNNAME":"永康區","LI":"埔園里","LIN":" ","STREET":"八德街","SECT":" ","MAREA":" ","LANE":"３２６巷","ALLEY":"２９弄","HOUSE_NO":"２６號","E_COORD97":173607.82000000001,"N_COORD97":2548728.5899999999,"ADDRESS":"八德街３２６巷２９弄２６號","OBJECTID":182670},"geometry":{"x":173607.82000000123,"y":2548728.5899999999}},{"attributes":{"ID":182672,"DIS_CODE":0,"TOWNNAME":"永康區","LI":"新樹里","LIN":" ","STREET":"中山北路","SECT":" ","MAREA":" ","LANE":"６３４巷","ALLEY":"１８弄","HOUSE_NO":"１１號","E_COORD97":176048.25,"N_COORD97":2547763.7200000002,"ADDRESS":"中山北路６３４巷１８弄１１號","OBJECTID":182671},"geometry":{"x":176048.25,"y":2547763.7200000025}},{"attributes":{"ID":182673,"DIS_CODE":0,"TOWNNAME":"永康區","LI":"埔園里","LIN":" ","STREET":"中山路","SECT":" ","MAREA":" ","LANE":"１５８巷","ALLEY":"２４弄","HOUSE_NO":"２６號","E_COORD97":173842.01999999999,"N_COORD97":2547850.7799999998,"ADDRESS":"中山路１５８巷２４弄２６號","OBJECTID":182672},"geometry":{"x":173842.01999999955,"y":2547850.7800000012}},{"attributes":{"ID":182674,"DIS_CODE":0,"TOWNNAME":"永康區","LI":"東橋里","LIN":" ","STREET":"中山南路","SECT":" ","MAREA":" ","LANE":"２３１巷","ALLEY":"２６弄","HOUSE_NO":"３６號","E_COORD97":171570.04000000001,"N_COORD97":2546310.5499999998,"ADDRESS":"中山南路２３１巷２６弄３６號","OBJECTID":182673},"geometry":{"x":171570.04000000097,"y":2546310.5500000026}},{"attributes":{"ID":182675,"DIS_CODE":0,"TOWNNAME":"永康區","LI":"東橋里","LIN":" ","STREET":"大橋一街","SECT":" ","MAREA":" ","LANE":"３２４巷","ALLEY":"２５弄","HOUSE_NO":"８號","E_COORD97":171384.07000000001,"N_COORD97":2546631.04,"ADDRESS":"大橋一街３２４巷２５弄８號","OBJECTID":182674},"geometry":{"x":171384.0700000003,"y":2546631.040000001}},{"attributes":{"ID":182676,"DIS_CODE":0,"TOWNNAME":"安南區","LI":"\u25A0南里","LIN":"8鄰","STREET":"安昌街","SECT":" ","MAREA":" ","LANE":"２１９巷","ALLEY":"１０弄","HOUSE_NO":"１號","E_COORD97":170088.26999999999,"N_COORD97":2552525.0499999998,"ADDRESS":"安昌街２１９巷１０弄１號","OBJECTID":182675},"geometry":{"x":170088.27000000048,"y":2552525.0500000026}},{"attributes":{"ID":182677,"DIS_CODE":0,"TOWNNAME":"麻豆區","LI":"港尾里","LIN":"10鄰","STREET":" ","SECT":" ","MAREA":"港子尾","LANE":" ","ALLEY":" ","HOUSE_NO":"５９號","E_COORD97":168437.98999999999,"N_COORD97":2567056.75,"ADDRESS":"港子尾５９號","OBJECTID":182676},"geometry":{"x":168437.99000000115,"y":2567056.7500000037}},{"attributes":{"ID":182678,"DIS_CODE":0,"TOWNNAME":"永康區","LI":"\u25A0行里","LIN":" ","STREET":"中正路","SECT":" ","MAREA":" ","LANE":"４５９巷","ALLEY":"１弄","HOUSE_NO":"１４號","E_COORD97":172242,"N_COORD97":2548584.7000000002,"ADDRESS":"中正路４５９巷１弄１４號","OBJECTID":182677},"geometry":{"x":172242,"y":2548584.6999999993}},{"attributes":{"ID":182679,"DIS_CODE":0,"TOWNNAME":"永康區","LI":"\u25A0行里","LIN":" ","STREET":"中正路","SECT":" ","MAREA":" ","LANE":"６５３巷","ALLEY":"１５弄","HOUSE_NO":"２號","E_COORD97":171737.57999999999,"N_COORD97":2548896.75,"ADDRESS":"中正路６５３巷１５弄２號","OBJECTID":182678},"geometry":{"x":171737.58000000101,"y":2548896.75}},{"attributes":{"ID":182680,"DIS_CODE":0,"TOWNNAME":"永康區","LI":"\u25A0洲里","LIN":" ","STREET":"中正南路","SECT":" ","MAREA":" ","LANE":"７７９巷","ALLEY":"２弄","HOUSE_NO":"２４號","E_COORD97":171694.51000000001,"N_COORD97":2549043.75,"ADDRESS":"中正南路７７９巷２弄２４號","OBJECTID":182679},"geometry":{"x":171694.50999999978,"y":2549043.7500000037}},{"attributes":{"ID":182681,"DIS_CODE":0,"TOWNNAME":"南區","LI":"田寮里","LIN":"24鄰","STREET":"大成路","SECT":"二段","MAREA":" ","LANE":" ","ALLEY":" ","HOUSE_NO":"１２號","E_COORD97":167683.92000000001,"N_COORD97":2541748.5,"ADDRESS":"大成路二段１２號","OBJECTID":182680},"geometry":{"x":167683.92000000086,"y":2541748.5}},{"attributes":{"ID":182682,"DIS_CODE":0,"TOWNNAME":"麻豆區","LI":"麻口里","LIN":"10鄰","STREET":" ","SECT":" ","MAREA":"番子寮","LANE":" ","ALLEY":" ","HOUSE_NO":"１號之５５","E_COORD97":169703.64999999999,"N_COORD97":2562944.1600000001,"ADDRESS":"番子寮１號之５５","OBJECTID":182681},"geometry":{"x":169703.65000000037,"y":2562944.1600000001}},{"attributes":{"ID":182683,"DIS_CODE":0,"TOWNNAME":"麻豆區","LI":"麻口里","LIN":"10鄰","STREET":" ","SECT":" ","MAREA":"番子寮","LANE":" ","ALLEY":" ","HOUSE_NO":"１號之５","E_COORD97":170141.82999999999,"N_COORD97":2563226.9700000002,"ADDRESS":"番子寮１號之５","OBJECTID":182682},"geometry":{"x":170141.82999999914,"y":2563226.9700000007}},{"attributes":{"ID":182684,"DIS_CODE":0,"TOWNNAME":"麻豆區","LI":"麻口里","LIN":"10鄰","STREET":" ","SECT":" ","MAREA":"番子寮","LANE":" ","ALLEY":" ","HOUSE_NO":"１號之６","E_COORD97":170142.67000000001,"N_COORD97":2563223.02,"ADDRESS":"番子寮１號之６","OBJECTID":182683},"geometry":{"x":170142.66999999993,"y":2563223.0199999996}},{"attributes":{"ID":182685,"DIS_CODE":0,"TOWNNAME":"麻豆區","LI":"麻口里","LIN":"10鄰","STREET":" ","SECT":" ","MAREA":"番子寮","LANE":" ","ALLEY":" ","HOUSE_NO":"１號之７","E_COORD97":170145.91,"N_COORD97":2563213.6299999999,"ADDRESS":"番子寮１號之７","OBJECTID":182684},"geometry":{"x":170145.91000000015,"y":2563213.629999999}},{"attributes":{"ID":182686,"DIS_CODE":0,"TOWNNAME":"大內區","LI":"曲溪里","LIN":"11鄰","STREET":" ","SECT":" ","MAREA":"二重溪","LANE":" ","ALLEY":" ","HOUSE_NO":"１０５號之４","E_COORD97":187396.29999999999,"N_COORD97":2557827.3100000001,"ADDRESS":"二重溪１０５號之４","OBJECTID":182685},"geometry":{"x":187396.30000000075,"y":2557827.3100000005}},{"attributes":{"ID":182687,"DIS_CODE":0,"TOWNNAME":"大內區","LI":"頭社里","LIN":"11鄰","STREET":" ","SECT":" ","MAREA":"頭社","LANE":" ","ALLEY":" ","HOUSE_NO":"１４５之５號","E_COORD97":186406.69,"N_COORD97":2561969.2999999998,"ADDRESS":"頭社１４５之５號","OBJECTID":182686},"geometry":{"x":186406.69000000041,"y":2561969.3000000026}},{"attributes":{"ID":182688,"DIS_CODE":0,"TOWNNAME":"大內區","LI":"曲溪里","LIN":"11鄰","STREET":" ","SECT":" ","MAREA":"二重溪","LANE":" ","ALLEY":" ","HOUSE_NO":"１０５號之１２","E_COORD97":187389.95999999999,"N_COORD97":2557823.3100000001,"ADDRESS":"二重溪１０５號之１２","OBJECTID":182687},"geometry":{"x":187389.96000000089,"y":2557823.3100000005}},{"attributes":{"ID":182689,"DIS_CODE":0,"TOWNNAME":"大內區","LI":"環湖里","LIN":"11鄰","STREET":" ","SECT":" ","MAREA":"燒灰子","LANE":" ","ALLEY":" ","HOUSE_NO":"２４號","E_COORD97":189167.14000000001,"N_COORD97":2562587.25,"ADDRESS":"燒灰子２４號","OBJECTID":182688},"geometry":{"x":189167.13999999966,"y":2562587.25}},{"attributes":{"ID":182690,"DIS_CODE":0,"TOWNNAME":"大內區","LI":"環湖里","LIN":"11鄰","STREET":" ","SECT":" ","MAREA":"燒灰子","LANE":" ","ALLEY":" ","HOUSE_NO":"１７號","E_COORD97":188967.44,"N_COORD97":2562343.25,"ADDRESS":"燒灰子１７號","OBJECTID":182689},"geometry":{"x":188967.44000000134,"y":2562343.25}},{"attributes":{"ID":182691,"DIS_CODE":0,"TOWNNAME":"大內區","LI":"環湖里","LIN":"11鄰","STREET":" ","SECT":" ","MAREA":"燒灰子","LANE":" ","ALLEY":" ","HOUSE_NO":"２１號","E_COORD97":188880.54000000001,"N_COORD97":2562342.25,"ADDRESS":"燒灰子２１號","OBJECTID":182690},"geometry":{"x":188880.54000000004,"y":2562342.2500000019}},{"attributes":{"ID":182692,"DIS_CODE":0,"TOWNNAME":"大內區","LI":"曲溪里","LIN":"11鄰","STREET":" ","SECT":" ","MAREA":"二重溪","LANE":" ","ALLEY":" ","HOUSE_NO":"１０５號之２","E_COORD97":187396.91,"N_COORD97":2557819.3100000001,"ADDRESS":"二重溪１０５號之２","OBJECTID":182691},"geometry":{"x":187396.91000000201,"y":2557819.3100000024}},{"attributes":{"ID":182693,"DIS_CODE":0,"TOWNNAME":"大內區","LI":"石湖里","LIN":"11鄰","STREET":" ","SECT":" ","MAREA":"石子瀨","LANE":" ","ALLEY":" ","HOUSE_NO":"３４５號之１","E_COORD97":183836.70000000001,"N_COORD97":2558211.2999999998,"ADDRESS":"石子瀨３４５號之１","OBJECTID":182692},"geometry":{"x":183836.70000000205,"y":2558211.3000000007}},{"attributes":{"ID":182694,"DIS_CODE":0,"TOWNNAME":"大內區","LI":"石湖里","LIN":"11鄰","STREET":" ","SECT":" ","MAREA":"石子瀨","LANE":" ","ALLEY":" ","HOUSE_NO":"３４３號之１","E_COORD97":183893.29999999999,"N_COORD97":2558256.2999999998,"ADDRESS":"石子瀨３４３號之１","OBJECTID":182693},"geometry":{"x":183893.30000000168,"y":2558256.3000000026}},{"attributes":{"ID":182695,"DIS_CODE":0,"TOWNNAME":"大內區","LI":"石湖里","LIN":"11鄰","STREET":" ","SECT":" ","MAREA":"石子瀨","LANE":" ","ALLEY":" ","HOUSE_NO":"３４３號","E_COORD97":183875.67000000001,"N_COORD97":2558239.25,"ADDRESS":"石子瀨３４３號","OBJECTID":182694},"geometry":{"x":183875.67000000179,"y":2558239.2500000019}},{"attributes":{"ID":182696,"DIS_CODE":0,"TOWNNAME":"大內區","LI":"環湖里","LIN":"11鄰","STREET":" ","SECT":" ","MAREA":"燒灰子","LANE":" ","ALLEY":" ","HOUSE_NO":"１８號","E_COORD97":188976.73999999999,"N_COORD97":2562398.25,"ADDRESS":"燒灰子１８號","OBJECTID":182695},"geometry":{"x":188976.74000000115,"y":2562398.2499999981}},{"attributes":{"ID":182697,"DIS_CODE":0,"TOWNNAME":"大內區","LI":"環湖里","LIN":"11鄰","STREET":" ","SECT":" ","MAREA":"燒灰子","LANE":" ","ALLEY":" ","HOUSE_NO":"１７號之１","E_COORD97":188986.07999999999,"N_COORD97":2562329.2999999998,"ADDRESS":"燒灰子１７號之１","OBJECTID":182696},"geometry":{"x":188986.08000000101,"y":2562329.3000000026}},{"attributes":{"ID":182698,"DIS_CODE":0,"TOWNNAME":"大內區","LI":"石湖里","LIN":"11鄰","STREET":" ","SECT":" ","MAREA":"石子瀨","LANE":" ","ALLEY":" ","HOUSE_NO":"３４０號","E_COORD97":183828.37,"N_COORD97":2558234.25,"ADDRESS":"石子瀨３４０號","OBJECTID":182697},"geometry":{"x":183828.37000000011,"y":2558234.25}},{"attributes":{"ID":182699,"DIS_CODE":0,"TOWNNAME":"安南區","LI":"\u25A0南里","LIN":"32鄰","STREET":"安昌街","SECT":" ","MAREA":" ","LANE":"１７４巷","ALLEY":"７９弄","HOUSE_NO":"７號","E_COORD97":170135.51000000001,"N_COORD97":2552237.1699999999,"ADDRESS":"安昌街１７４巷７９弄７號","OBJECTID":182698},"geometry":{"x":170135.51000000071,"y":2552237.1699999999}},{"attributes":{"ID":182700,"DIS_CODE":0,"TOWNNAME":"安南區","LI":"\u25A0南里","LIN":"32鄰","STREET":"安昌街","SECT":" ","MAREA":" ","LANE":"１７４巷","ALLEY":"７９弄","HOUSE_NO":"９號","E_COORD97":170140.39999999999,"N_COORD97":2552237.1699999999,"ADDRESS":"安昌街１７４巷７９弄９號","OBJECTID":182699},"geometry":{"x":170140.4000000013,"y":2552237.1699999999}},{"attributes":{"ID":182701,"DIS_CODE":0,"TOWNNAME":"安南區","LI":"\u25A0南里","LIN":"1鄰","STREET":"安昌街","SECT":" ","MAREA":" ","LANE":"１７４巷","ALLEY":"３９弄","HOUSE_NO":"２７號","E_COORD97":170213.41,"N_COORD97":2552351.5600000001,"ADDRESS":"安昌街１７４巷３９弄２７號","OBJECTID":182700},"geometry":{"x":170213.41000000108,"y":2552351.5600000024}},{"attributes":{"ID":182702,"DIS_CODE":0,"TOWNNAME":"安南區","LI":"\u25A0南里","LIN":"1鄰","STREET":"安昌街","SECT":" ","MAREA":" ","LANE":"１７４巷","ALLEY":"３９弄","HOUSE_NO":"２９號","E_COORD97":170218.51999999999,"N_COORD97":2552351.8999999999,"ADDRESS":"安昌街１７４巷３９弄２９號","OBJECTID":182701},"geometry":{"x":170218.52000000048,"y":2552351.8999999985}},{"attributes":{"ID":182703,"DIS_CODE":0,"TOWNNAME":"安南區","LI":"海東里","LIN":"21鄰","STREET":"海東三街","SECT":" ","MAREA":" ","LANE":" ","ALLEY":" ","HOUSE_NO":"６６號","E_COORD97":166871.666666,"N_COORD97":2547969.12738,"ADDRESS":"海東三街６６號","OBJECTID":182702},"geometry":{"x":166871.66666600108,"y":2547969.1273770016}},{"attributes":{"ID":182704,"DIS_CODE":0,"TOWNNAME":"安南區","LI":"\u25A0南里","LIN":"1鄰","STREET":"安昌街","SECT":" ","MAREA":" ","LANE":"１７４巷","ALLEY":"３９弄","HOUSE_NO":"３１號","E_COORD97":170223.47,"N_COORD97":2552352.2400000002,"ADDRESS":"安昌街１７４巷３９弄３１號","OBJECTID":182703},"geometry":{"x":170223.46999999974,"y":2552352.2400000002}},{"attributes":{"ID":182705,"DIS_CODE":0,"TOWNNAME":"安南區","LI":"顯宮里","LIN":"6鄰","STREET":"媽祖宮二街","SECT":" ","MAREA":" ","LANE":" ","ALLEY":" ","HOUSE_NO":"１２７號","E_COORD97":160479.20999999999,"N_COORD97":2548827.1000000001,"ADDRESS":"媽祖宮二街１２７號","OBJECTID":182704},"geometry":{"x":160479.21000000089,"y":2548827.0999999978}},{"attributes":{"ID":182706,"DIS_CODE":0,"TOWNNAME":"安南區","LI":"城西里","LIN":"7鄰","STREET":"城西街","SECT":"三段","MAREA":" ","LANE":"１１０５巷","ALLEY":"１２１弄","HOUSE_NO":"１４６號","E_COORD97":155211.29999999999,"N_COORD97":2549806.2400000002,"ADDRESS":"城西街三段１１０５巷１２１弄１４６號","OBJECTID":182705},"geometry":{"x":155211.30000000075,"y":2549806.2400000002}},{"attributes":{"ID":182707,"DIS_CODE":0,"TOWNNAME":"安南區","LI":"城東里","LIN":"4鄰","STREET":"城北路","SECT":" ","MAREA":" ","LANE":"２３４巷","ALLEY":"７２弄","HOUSE_NO":"２號","E_COORD97":161147.62,"N_COORD97":2551822.6600000001,"ADDRESS":"城北路２３４巷７２弄２號","OBJECTID":182706},"geometry":{"x":161147.62000000104,"y":2551822.660000002}},{"attributes":{"ID":182708,"DIS_CODE":0,"TOWNNAME":"大內區","LI":"環湖里","LIN":"11鄰","STREET":" ","SECT":" ","MAREA":"燒灰子","LANE":" ","ALLEY":" ","HOUSE_NO":"１７號之２","E_COORD97":188973.31,"N_COORD97":2562374.2999999998,"ADDRESS":"燒灰子１７號之２","OBJECTID":182707},"geometry":{"x":188973.30999999959,"y":2562374.3000000007}},{"attributes":{"ID":182709,"DIS_CODE":0,"TOWNNAME":"大內區","LI":"內江里","LIN":"11鄰","STREET":" ","SECT":" ","MAREA":"內庄","LANE":" ","ALLEY":" ","HOUSE_NO":"３３７號之１","E_COORD97":184908.10999999999,"N_COORD97":2556502.2999999998,"ADDRESS":"內庄３３７號之１","OBJECTID":182708},"geometry":{"x":184908.11000000034,"y":2556502.3000000007}},{"attributes":{"ID":182710,"DIS_CODE":0,"TOWNNAME":"安南區","LI":"州北里","LIN":"24鄰","STREET":"長和路","SECT":"二段","MAREA":" ","LANE":"１４０巷","ALLEY":"２１３弄","HOUSE_NO":"６號","E_COORD97":170332.98000000001,"N_COORD97":2551989.8399999999,"ADDRESS":"長和路二段１４０巷２１３弄６號","OBJECTID":182709},"geometry":{"x":170332.98000000231,"y":2551989.8400000017}},{"attributes":{"ID":182711,"DIS_CODE":0,"TOWNNAME":"安南區","LI":"州北里","LIN":"24鄰","STREET":"長和路","SECT":"二段","MAREA":" ","LANE":"１４０巷","ALLEY":"２１３弄","HOUSE_NO":"８號","E_COORD97":170328.29999999999,"N_COORD97":2551989.2400000002,"ADDRESS":"長和路二段１４０巷２１３弄８號","OBJECTID":182710},"geometry":{"x":170328.30000000168,"y":2551989.2400000002}},{"attributes":{"ID":182712,"DIS_CODE":0,"TOWNNAME":"安南區","LI":"州北里","LIN":"24鄰","STREET":"長和路","SECT":"二段","MAREA":" ","LANE":"１４０巷","ALLEY":"２１３弄","HOUSE_NO":"１０號","E_COORD97":170323.37,"N_COORD97":2551989,"ADDRESS":"長和路二段１４０巷２１３弄１０號","OBJECTID":182711},"geometry":{"x":170323.37000000104,"y":2551989.0000000019}},{"attributes":{"ID":182713,"DIS_CODE":0,"TOWNNAME":"安南區","LI":"州北里","LIN":"24鄰","STREET":"長和路","SECT":"二段","MAREA":" ","LANE":"１４０巷","ALLEY":"２１３弄","HOUSE_NO":"１２號","E_COORD97":170317.72,"N_COORD97":2551988.3999999999,"ADDRESS":"長和路二段１４０巷２１３弄１２號","OBJECTID":182712},"geometry":{"x":170317.72000000067,"y":2551988.4000000004}},{"attributes":{"ID":182714,"DIS_CODE":0,"TOWNNAME":"安南區","LI":"州北里","LIN":"24鄰","STREET":"長和路","SECT":"二段","MAREA":" ","LANE":"１４０巷","ALLEY":"２１３弄","HOUSE_NO":"１６號","E_COORD97":170311.59,"N_COORD97":2551987.7999999998,"ADDRESS":"長和路二段１４０巷２１３弄１６號","OBJECTID":182713},"geometry":{"x":170311.59000000078,"y":2551987.8000000026}},{"attributes":{"ID":182715,"DIS_CODE":0,"TOWNNAME":"安南區","LI":"州北里","LIN":"24鄰","STREET":"長和路","SECT":"二段","MAREA":" ","LANE":"１４０巷","ALLEY":"２１３弄","HOUSE_NO":"１８號","E_COORD97":170307.26999999999,"N_COORD97":2551986.96,"ADDRESS":"長和路二段１４０巷２１３弄１８號","OBJECTID":182714},"geometry":{"x":170307.26999999955,"y":2551986.9600000028}},{"attributes":{"ID":182716,"DIS_CODE":0,"TOWNNAME":"安南區","LI":"\u25A0南里","LIN":"4鄰","STREET":"安昌街","SECT":" ","MAREA":" ","LANE":"２２２巷","ALLEY":"３０弄","HOUSE_NO":"１２號","E_COORD97":170177.07000000001,"N_COORD97":2552523.5899999999,"ADDRESS":"安昌街２２２巷３０弄１２號","OBJECTID":182715},"geometry":{"x":170177.0700000003,"y":2552523.5900000017}},{"attributes":{"ID":182717,"DIS_CODE":0,"TOWNNAME":"麻豆區","LI":"龍泉里","LIN":"10鄰","STREET":" ","SECT":" ","MAREA":"溝子墘","LANE":" ","ALLEY":" ","HOUSE_NO":"１００號","E_COORD97":174110.13,"N_COORD97":2564205.9399999999,"ADDRESS":"溝子墘１００號","OBJECTID":182716},"geometry":{"x":174110.13000000082,"y":2564205.9399999995}},{"attributes":{"ID":182718,"DIS_CODE":0,"TOWNNAME":"麻豆區","LI":"龍泉里","LIN":"10鄰","STREET":" ","SECT":" ","MAREA":"溝子墘","LANE":" ","ALLEY":" ","HOUSE_NO":"１０１號","E_COORD97":174108.98999999999,"N_COORD97":2564242.1000000001,"ADDRESS":"溝子墘１０１號","OBJECTID":182717},"geometry":{"x":174108.99000000022,"y":2564242.0999999996}},{"attributes":{"ID":182719,"DIS_CODE":0,"TOWNNAME":"麻豆區","LI":"龍泉里","LIN":"10鄰","STREET":" ","SECT":" ","MAREA":"溝子墘","LANE":" ","ALLEY":" ","HOUSE_NO":"１０２號之１０","E_COORD97":174061.66,"N_COORD97":2564233.3900000001,"ADDRESS":"溝子墘１０２號之１０","OBJECTID":182718},"geometry":{"x":174061.66000000015,"y":2564233.3900000025}},{"attributes":{"ID":182720,"DIS_CODE":0,"TOWNNAME":"安南區","LI":"\u25A0南里","LIN":"1鄰","STREET":"長和路","SECT":"二段","MAREA":" ","LANE":"１２巷","ALLEY":"３２３弄","HOUSE_NO":"６６號","E_COORD97":170267.78,"N_COORD97":2552366.6299999999,"ADDRESS":"長和路二段１２巷３２３弄６６號","OBJECTID":182719},"geometry":{"x":170267.78000000026,"y":2552366.6300000008}},{"attributes":{"ID":182721,"DIS_CODE":0,"TOWNNAME":"安定區","LI":"南安里","LIN":"3鄰","STREET":" ","SECT":" ","MAREA":"油車","LANE":" ","ALLEY":" ","HOUSE_NO":"２８號","E_COORD97":170729.44,"N_COORD97":2555763.25,"ADDRESS":"油車２８號","OBJECTID":182720},"geometry":{"x":170729.44000000041,"y":2555763.2499999981}},{"attributes":{"ID":182722,"DIS_CODE":0,"TOWNNAME":"麻豆區","LI":"龍泉里","LIN":"10鄰","STREET":" ","SECT":" ","MAREA":"溝子墘","LANE":" ","ALLEY":" ","HOUSE_NO":"１０２號之１１","E_COORD97":174058.57000000001,"N_COORD97":2564236.3700000001,"ADDRESS":"溝子墘１０２號之１１","OBJECTID":182721},"geometry":{"x":174058.57000000123,"y":2564236.3700000048}},{"attributes":{"ID":182723,"DIS_CODE":0,"TOWNNAME":"安南區","LI":"\u25A0南里","LIN":"1鄰","STREET":"長和路","SECT":"二段","MAREA":" ","LANE":"１２巷","ALLEY":"３２３弄","HOUSE_NO":"６４號","E_COORD97":170284.25,"N_COORD97":2552367.7200000002,"ADDRESS":"長和路二段１２巷３２３弄６４號","OBJECTID":182722},"geometry":{"x":170284.25,"y":2552367.7200000025}},{"attributes":{"ID":182724,"DIS_CODE":0,"TOWNNAME":"麻豆區","LI":"龍泉里","LIN":"10鄰","STREET":" ","SECT":" ","MAREA":"溝子墘","LANE":" ","ALLEY":" ","HOUSE_NO":"１０２號之１５","E_COORD97":174044.67000000001,"N_COORD97":2564282.0699999998,"ADDRESS":"溝子墘１０２號之１５","OBJECTID":182723},"geometry":{"x":174044.66999999993,"y":2564282.0700000022}},{"attributes":{"ID":182725,"DIS_CODE":0,"TOWNNAME":"麻豆區","LI":"龍泉里","LIN":"10鄰","STREET":" ","SECT":" ","MAREA":"溝子墘","LANE":" ","ALLEY":" ","HOUSE_NO":"１０２號之１７","E_COORD97":174065.19,"N_COORD97":2564229.4900000002,"ADDRESS":"溝子墘１０２號之１７","OBJECTID":182724},"geometry":{"x":174065.19000000041,"y":2564229.4900000021}},{"attributes":{"ID":182726,"DIS_CODE":0,"TOWNNAME":"歸仁區","LI":"南保里","LIN":"10鄰","STREET":"文化八街","SECT":" ","MAREA":" ","LANE":" ","ALLEY":" ","HOUSE_NO":"７號","E_COORD97":176743.59,"N_COORD97":2541257.3300000001,"ADDRESS":"文化八街７號","OBJECTID":182725},"geometry":{"x":176743.58999999985,"y":2541257.3300000001}},{"attributes":{"ID":182727,"DIS_CODE":0,"TOWNNAME":"歸仁區","LI":"後市里","LIN":"10鄰","STREET":"大順六街","SECT":" ","MAREA":" ","LANE":" ","ALLEY":" ","HOUSE_NO":"４５號","E_COORD97":177028.91,"N_COORD97":2540710.25,"ADDRESS":"大順六街４５號","OBJECTID":182726},"geometry":{"x":177028.91000000015,"y":2540710.2500000037}},{"attributes":{"ID":182728,"DIS_CODE":0,"TOWNNAME":"麻豆區","LI":"龍泉里","LIN":"10鄰","STREET":" ","SECT":" ","MAREA":"溝子墘","LANE":" ","ALLEY":" ","HOUSE_NO":"９６號之８","E_COORD97":174146.29000000001,"N_COORD97":2564190.71,"ADDRESS":"溝子墘９６號之８","OBJECTID":182727},"geometry":{"x":174146.2900000019,"y":2564190.7100000028}},{"attributes":{"ID":182729,"DIS_CODE":0,"TOWNNAME":"麻豆區","LI":"龍泉里","LIN":"10鄰","STREET":" ","SECT":" ","MAREA":"溝子墘","LANE":" ","ALLEY":" ","HOUSE_NO":"９６號之９","E_COORD97":174150.57000000001,"N_COORD97":2564192.3199999998,"ADDRESS":"溝子墘９６號之９","OBJECTID":182728},"geometry":{"x":174150.5700000003,"y":2564192.3200000022}},{"attributes":{"ID":182730,"DIS_CODE":0,"TOWNNAME":"麻豆區","LI":"龍泉里","LIN":"10鄰","STREET":" ","SECT":" ","MAREA":"溝子墘","LANE":" ","ALLEY":" ","HOUSE_NO":"９６號","E_COORD97":174124.75,"N_COORD97":2564161.8900000001,"ADDRESS":"溝子墘９６號","OBJECTID":182729},"geometry":{"x":174124.75000000093,"y":2564161.8900000025}},{"attributes":{"ID":182731,"DIS_CODE":0,"TOWNNAME":"大內區","LI":"頭社里","LIN":"11鄰","STREET":" ","SECT":" ","MAREA":"頭社","LANE":" ","ALLEY":" ","HOUSE_NO":"１４０號","E_COORD97":186997.19,"N_COORD97":2562434.25,"ADDRESS":"頭社１４０號","OBJECTID":182730},"geometry":{"x":186997.19000000134,"y":2562434.25}},{"attributes":{"ID":182732,"DIS_CODE":0,"TOWNNAME":"安南區","LI":"\u25A0南里","LIN":"25鄰","STREET":"長和路","SECT":"二段","MAREA":" ","LANE":"１２巷","ALLEY":"２９９弄","HOUSE_NO":"３３號","E_COORD97":170312.57000000001,"N_COORD97":2552254.29,"ADDRESS":"長和路二段１２巷２９９弄３３號","OBJECTID":182731},"geometry":{"x":170312.57000000123,"y":2552254.290000001}},{"attributes":{"ID":182733,"DIS_CODE":0,"TOWNNAME":"麻豆區","LI":"龍泉里","LIN":"10鄰","STREET":" ","SECT":" ","MAREA":"溝子墘","LANE":" ","ALLEY":" ","HOUSE_NO":"９７號之１","E_COORD97":174166.17000000001,"N_COORD97":2564229.3999999999,"ADDRESS":"溝子墘９７號之１","OBJECTID":182732},"geometry":{"x":174166.17000000086,"y":2564229.4000000022}},{"attributes":{"ID":182734,"DIS_CODE":0,"TOWNNAME":"麻豆區","LI":"龍泉里","LIN":"10鄰","STREET":" ","SECT":" ","MAREA":"溝子墘","LANE":" ","ALLEY":" ","HOUSE_NO":"９７號","E_COORD97":174177.56,"N_COORD97":2564194.71,"ADDRESS":"溝子墘９７號","OBJECTID":182733},"geometry":{"x":174177.55999999959,"y":2564194.7100000028}},{"attributes":{"ID":182735,"DIS_CODE":0,"TOWNNAME":"麻豆區","LI":"龍泉里","LIN":"10鄰","STREET":" ","SECT":" ","MAREA":"溝子墘","LANE":" ","ALLEY":" ","HOUSE_NO":"９８號","E_COORD97":174137.87,"N_COORD97":2564232.6400000001,"ADDRESS":"溝子墘９８號","OBJECTID":182734},"geometry":{"x":174137.87000000104,"y":2564232.6400000006}},{"attributes":{"ID":182736,"DIS_CODE":0,"TOWNNAME":"安南區","LI":"\u25A0南里","LIN":"13鄰","STREET":"安昌街","SECT":" ","MAREA":" ","LANE":"１０６巷","ALLEY":"１３弄","HOUSE_NO":"５號","E_COORD97":170025.25,"N_COORD97":2552192.2200000002,"ADDRESS":"安昌街１０６巷１３弄５號","OBJECTID":182735},"geometry":{"x":170025.25,"y":2552192.2200000025}},{"attributes":{"ID":182737,"DIS_CODE":0,"TOWNNAME":"安南區","LI":"公\u25A0里","LIN":"8鄰","STREET":"安興街","SECT":" ","MAREA":" ","LANE":"１８１巷","ALLEY":"６３弄","HOUSE_NO":"６號","E_COORD97":163962.76000000001,"N_COORD97":2551941.3100000001,"ADDRESS":"安興街１８１巷６３弄６號","OBJECTID":182736},"geometry":{"x":163962.75999999978,"y":2551941.3100000005}},{"attributes":{"ID":182738,"DIS_CODE":0,"TOWNNAME":"安南區","LI":"公\u25A0里","LIN":"8鄰","STREET":"安興街","SECT":" ","MAREA":" ","LANE":"１８１巷","ALLEY":"６３弄","HOUSE_NO":"１１號","E_COORD97":164000.19,"N_COORD97":2551928.52,"ADDRESS":"安興街１８１巷６３弄１１號","OBJECTID":182737},"geometry":{"x":164000.19000000134,"y":2551928.5199999996}},{"attributes":{"ID":182739,"DIS_CODE":0,"TOWNNAME":"安南區","LI":"公親里","LIN":"4鄰","STREET":"公學路","SECT":"一段","MAREA":" ","LANE":"１２４巷","ALLEY":"２９弄","HOUSE_NO":"８號","E_COORD97":168247.53,"N_COORD97":2553094.3100000001,"ADDRESS":"公學路一段１２４巷２９弄８號","OBJECTID":182738},"geometry":{"x":168247.53000000119,"y":2553094.3100000005}},{"attributes":{"ID":182740,"DIS_CODE":0,"TOWNNAME":"新營區","LI":"民榮里","LIN":"31鄰","STREET":"太子路","SECT":" ","MAREA":" ","LANE":"５３巷","ALLEY":"１３弄","HOUSE_NO":"１號","E_COORD97":178362.669903,"N_COORD97":2578009.70689,"ADDRESS":"太子路５３巷１３弄１號","OBJECTID":182739},"geometry":{"x":178362.66990299989,"y":2578009.7068929989}},{"attributes":{"ID":182741,"DIS_CODE":0,"TOWNNAME":"麻豆區","LI":"龍泉里","LIN":"10鄰","STREET":" ","SECT":" ","MAREA":"溝子墘","LANE":" ","ALLEY":" ","HOUSE_NO":"９９號之１","E_COORD97":174128.88,"N_COORD97":2564203.6099999999,"ADDRESS":"溝子墘９９號之１","OBJECTID":182740},"geometry":{"x":174128.88000000082,"y":2564203.6100000013}},{"attributes":{"ID":182742,"DIS_CODE":0,"TOWNNAME":"麻豆區","LI":"龍泉里","LIN":"10鄰","STREET":" ","SECT":" ","MAREA":"溝子墘","LANE":" ","ALLEY":" ","HOUSE_NO":"９９號","E_COORD97":174125.62,"N_COORD97":2564212.3900000001,"ADDRESS":"溝子墘９９號","OBJECTID":182741},"geometry":{"x":174125.62000000104,"y":2564212.3900000025}},{"attributes":{"ID":182743,"DIS_CODE":0,"TOWNNAME":"大內區","LI":"環湖里","LIN":"11鄰","STREET":" ","SECT":" ","MAREA":"燒灰子","LANE":" ","ALLEY":" ","HOUSE_NO":"２４號之２","E_COORD97":189342.41,"N_COORD97":2562743.2999999998,"ADDRESS":"燒灰子２４號之２","OBJECTID":182742},"geometry":{"x":189342.41000000015,"y":2562743.3000000007}},{"attributes":{"ID":182744,"DIS_CODE":0,"TOWNNAME":"大內區","LI":"環湖里","LIN":"11鄰","STREET":" ","SECT":" ","MAREA":"燒灰子","LANE":" ","ALLEY":" ","HOUSE_NO":"２４之３號","E_COORD97":189361.54000000001,"N_COORD97":2562609.2999999998,"ADDRESS":"燒灰子２４之３號","OBJECTID":182743},"geometry":{"x":189361.54000000004,"y":2562609.3000000045}},{"attributes":{"ID":182745,"DIS_CODE":0,"TOWNNAME":"大內區","LI":"內江里","LIN":"11鄰","STREET":" ","SECT":" ","MAREA":"內庄","LANE":" ","ALLEY":" ","HOUSE_NO":"３３１號之２","E_COORD97":184917.54999999999,"N_COORD97":2556653.2999999998,"ADDRESS":"內庄３３１號之２","OBJECTID":182744},"geometry":{"x":184917.55000000075,"y":2556653.3000000026}},{"attributes":{"ID":182746,"DIS_CODE":0,"TOWNNAME":"大內區","LI":"石湖里","LIN":"11鄰","STREET":" ","SECT":" ","MAREA":"石子瀨","LANE":" ","ALLEY":" ","HOUSE_NO":"３４１號之１","E_COORD97":183855.10000000001,"N_COORD97":2558227.2999999998,"ADDRESS":"石子瀨３４１號之１","OBJECTID":182745},"geometry":{"x":183855.09999999963,"y":2558227.3000000007}},{"attributes":{"ID":182747,"DIS_CODE":0,"TOWNNAME":"大內區","LI":"內江里","LIN":"11鄰","STREET":" ","SECT":" ","MAREA":"內庄","LANE":" ","ALLEY":" ","HOUSE_NO":"３３６之３號","E_COORD97":184826.67999999999,"N_COORD97":2556523.2999999998,"ADDRESS":"內庄３３６之３號","OBJECTID":182746},"geometry":{"x":184826.68000000063,"y":2556523.3000000045}},{"attributes":{"ID":182748,"DIS_CODE":0,"TOWNNAME":"大內區","LI":"內江里","LIN":"11鄰","STREET":" ","SECT":" ","MAREA":"內庄","LANE":" ","ALLEY":" ","HOUSE_NO":"３２９號之３","E_COORD97":184755.70999999999,"N_COORD97":2556600.2999999998,"ADDRESS":"內庄３２９號之３","OBJECTID":182747},"geometry":{"x":184755.71000000089,"y":2556600.3000000007}},{"attributes":{"ID":182749,"DIS_CODE":0,"TOWNNAME":"安南區","LI":"公親里","LIN":" ","STREET":"公學路","SECT":"一段","MAREA":" ","LANE":"１２４巷","ALLEY":"２９弄","HOUSE_NO":"７號","E_COORD97":168247.53,"N_COORD97":2553098.1899999999,"ADDRESS":"公學路一段１２４巷２９弄７號","OBJECTID":182748},"geometry":{"x":168247.53000000119,"y":2553098.1899999976}},{"attributes":{"ID":182750,"DIS_CODE":0,"TOWNNAME":"大內區","LI":"石林里","LIN":"11鄰","STREET":" ","SECT":" ","MAREA":"石子瀨","LANE":" ","ALLEY":" ","HOUSE_NO":"２１９號之１５","E_COORD97":184060.51000000001,"N_COORD97":2558213.2999999998,"ADDRESS":"石子瀨２１９號之１５","OBJECTID":182749},"geometry":{"x":184060.50999999978,"y":2558213.3000000026}},{"attributes":{"ID":182751,"DIS_CODE":0,"TOWNNAME":"大內區","LI":"石城里","LIN":"11鄰","STREET":" ","SECT":" ","MAREA":"石子瀨","LANE":" ","ALLEY":" ","HOUSE_NO":"９４號","E_COORD97":184132.22,"N_COORD97":2558015.25,"ADDRESS":"石子瀨９４號","OBJECTID":182750},"geometry":{"x":184132.21999999974,"y":2558015.2500000019}},{"attributes":{"ID":182752,"DIS_CODE":0,"TOWNNAME":"大內區","LI":"石城里","LIN":"11鄰","STREET":" ","SECT":" ","MAREA":"石子瀨","LANE":" ","ALLEY":" ","HOUSE_NO":"１０３號","E_COORD97":184116.37,"N_COORD97":2558008.25,"ADDRESS":"石子瀨１０３號","OBJECTID":182751},"geometry":{"x":184116.37000000011,"y":2558008.2500000019}},{"attributes":{"ID":182753,"DIS_CODE":0,"TOWNNAME":"大內區","LI":"石林里","LIN":"11鄰","STREET":" ","SECT":" ","MAREA":"石子瀨","LANE":" ","ALLEY":" ","HOUSE_NO":"２２３號","E_COORD97":184069.17000000001,"N_COORD97":2558291.25,"ADDRESS":"石子瀨２２３號","OBJECTID":182752},"geometry":{"x":184069.17000000086,"y":2558291.25}},{"attributes":{"ID":182754,"DIS_CODE":0,"TOWNNAME":"安南區","LI":"公親里","LIN":" ","STREET":"公學路","SECT":"一段","MAREA":" ","LANE":"１２４巷","ALLEY":"２９弄","HOUSE_NO":"４號","E_COORD97":168253.35999999999,"N_COORD97":2553111.1499999999,"ADDRESS":"公學路一段１２４巷２９弄４號","OBJECTID":182753},"geometry":{"x":168253.36000000034,"y":2553111.1500000022}},{"attributes":{"ID":182755,"DIS_CODE":0,"TOWNNAME":"新營區","LI":"南紙里","LIN":"10鄰","STREET":"南紙街","SECT":" ","MAREA":" ","LANE":" ","ALLEY":" ","HOUSE_NO":"７０號","E_COORD97":177806.45000000001,"N_COORD97":2577648.5499999998,"ADDRESS":"南紙街７０號","OBJECTID":182754},"geometry":{"x":177806.45000000019,"y":2577648.5500000026}},{"attributes":{"ID":182756,"DIS_CODE":0,"TOWNNAME":"歸仁區","LI":"新厝里","LIN":"10鄰","STREET":"中正三街","SECT":" ","MAREA":" ","LANE":" ","ALLEY":" ","HOUSE_NO":"４２號","E_COORD97":177720.38,"N_COORD97":2540555.5099999998,"ADDRESS":"中正三街４２號","OBJECTID":182755},"geometry":{"x":177720.37999999989,"y":2540555.5100000035}},{"attributes":{"ID":182757,"DIS_CODE":0,"TOWNNAME":"大內區","LI":"石城里","LIN":"11鄰","STREET":" ","SECT":" ","MAREA":"石子瀨","LANE":" ","ALLEY":" ","HOUSE_NO":"９８號","E_COORD97":184131.55040899999,"N_COORD97":2558049.6732100002,"ADDRESS":"石子瀨９８號","OBJECTID":182756},"geometry":{"x":184131.55040900037,"y":2558049.6732110009}},{"attributes":{"ID":182758,"DIS_CODE":0,"TOWNNAME":"大內區","LI":"曲溪里","LIN":"11鄰","STREET":" ","SECT":" ","MAREA":"二重溪","LANE":" ","ALLEY":" ","HOUSE_NO":"１０５號之１０","E_COORD97":187390.17999999999,"N_COORD97":2557816.3100000001,"ADDRESS":"二重溪１０５號之１０","OBJECTID":182757},"geometry":{"x":187390.18000000063,"y":2557816.3100000024}},{"attributes":{"ID":182759,"DIS_CODE":0,"TOWNNAME":"歸仁區","LI":"媽廟里","LIN":"10鄰","STREET":"中正北路","SECT":"三段","MAREA":" ","LANE":" ","ALLEY":" ","HOUSE_NO":"２１３號","E_COORD97":177600.85999999999,"N_COORD97":2543877.7200000002,"ADDRESS":"中正北路三段２１３號","OBJECTID":182758},"geometry":{"x":177600.8600000022,"y":2543877.7200000044}},{"attributes":{"ID":182760,"DIS_CODE":0,"TOWNNAME":"大內區","LI":"石林里","LIN":"11鄰","STREET":" ","SECT":" ","MAREA":"石子瀨","LANE":" ","ALLEY":" ","HOUSE_NO":"２１９號之８","E_COORD97":184062.35000000001,"N_COORD97":2558240.2999999998,"ADDRESS":"石子瀨２１９號之８","OBJECTID":182759},"geometry":{"x":184062.35000000149,"y":2558240.3000000026}},{"attributes":{"ID":182761,"DIS_CODE":0,"TOWNNAME":"歸仁區","LI":"歸仁里","LIN":"10鄰","STREET":"大通一街","SECT":" ","MAREA":" ","LANE":" ","ALLEY":" ","HOUSE_NO":"２號","E_COORD97":177906.45999999999,"N_COORD97":2540877.4900000002,"ADDRESS":"大通一街２號","OBJECTID":182760},"geometry":{"x":177906.45999999996,"y":2540877.4900000002}},{"attributes":{"ID":182762,"DIS_CODE":0,"TOWNNAME":"安南區","LI":"海東里","LIN":"21鄰","STREET":"海東三街","SECT":" ","MAREA":" ","LANE":" ","ALLEY":" ","HOUSE_NO":"７０號","E_COORD97":166861.77437699999,"N_COORD97":2547967.7893699999,"ADDRESS":"海東三街７０號","OBJECTID":182761},"geometry":{"x":166861.77437699959,"y":2547967.7893739976}},{"attributes":{"ID":182763,"DIS_CODE":0,"TOWNNAME":"安南區","LI":"\u25A0南里","LIN":"25鄰","STREET":"長和路","SECT":"二段","MAREA":" ","LANE":"１２巷","ALLEY":"２７７弄","HOUSE_NO":"２８號","E_COORD97":170297.37,"N_COORD97":2552241.1200000001,"ADDRESS":"長和路二段１２巷２７７弄２８號","OBJECTID":182762},"geometry":{"x":170297.37000000011,"y":2552241.120000001}},{"attributes":{"ID":182764,"DIS_CODE":0,"TOWNNAME":"安南區","LI":"\u25A0南里","LIN":"25鄰","STREET":"長和路","SECT":"二段","MAREA":" ","LANE":"１２巷","ALLEY":"２７７弄","HOUSE_NO":"２６號","E_COORD97":170301.75,"N_COORD97":2552240.8900000001,"ADDRESS":"長和路二段１２巷２７７弄２６號","OBJECTID":182763},"geometry":{"x":170301.75000000186,"y":2552240.8900000025}},{"attributes":{"ID":182765,"DIS_CODE":0,"TOWNNAME":"安南區","LI":"安西里","LIN":"13鄰","STREET":"安和路","SECT":"一段","MAREA":" ","LANE":"１５９巷","ALLEY":"５３弄","HOUSE_NO":"３號","E_COORD97":169226.97,"N_COORD97":2547788.0499999998,"ADDRESS":"安和路一段１５９巷５３弄３號","OBJECTID":182764},"geometry":{"x":169226.9700000016,"y":2547788.0500000045}},{"attributes":{"ID":182766,"DIS_CODE":0,"TOWNNAME":"歸仁區","LI":"歸南里","LIN":"10鄰","STREET":"民生九街","SECT":" ","MAREA":" ","LANE":" ","ALLEY":" ","HOUSE_NO":"１３２號","E_COORD97":176223.45999999999,"N_COORD97":2540011.25,"ADDRESS":"民生九街１３２號","OBJECTID":182765},"geometry":{"x":176223.46000000089,"y":2540011.25}},{"attributes":{"ID":182767,"DIS_CODE":0,"TOWNNAME":"大內區","LI":"環湖里","LIN":"11鄰","STREET":" ","SECT":" ","MAREA":"燒灰子","LANE":" ","ALLEY":" ","HOUSE_NO":"１５號之１","E_COORD97":188926.07999999999,"N_COORD97":2562357.2999999998,"ADDRESS":"燒灰子１５號之１","OBJECTID":182766},"geometry":{"x":188926.08000000007,"y":2562357.3000000007}},{"attributes":{"ID":182768,"DIS_CODE":0,"TOWNNAME":"歸仁區","LI":"大廟里","LIN":"10鄰","STREET":"保大路","SECT":"三段","MAREA":" ","LANE":" ","ALLEY":" ","HOUSE_NO":"１９３號","E_COORD97":175927.13,"N_COORD97":2544128.25,"ADDRESS":"保大路三段１９３號","OBJECTID":182767},"geometry":{"x":175927.13000000175,"y":2544128.2500000019}},{"attributes":{"ID":182769,"DIS_CODE":0,"TOWNNAME":"安南區","LI":"安東里","LIN":"4鄰","STREET":"安和路","SECT":"一段","MAREA":" ","LANE":"２８８巷","ALLEY":"１０９弄","HOUSE_NO":"１１號","E_COORD97":169556.14999999999,"N_COORD97":2548304,"ADDRESS":"安和路一段２８８巷１０９弄１１號","OBJECTID":182768},"geometry":{"x":169556.15000000037,"y":2548304.0000000019}},{"attributes":{"ID":182770,"DIS_CODE":0,"TOWNNAME":"安南區","LI":"安東里","LIN":" ","STREET":"安和路","SECT":"一段","MAREA":" ","LANE":"２２０巷","ALLEY":"４４弄","HOUSE_NO":"８號","E_COORD97":169457.32999999999,"N_COORD97":2547938.96,"ADDRESS":"安和路一段２２０巷４４弄８號","OBJECTID":182769},"geometry":{"x":169457.33000000101,"y":2547938.9600000028}},{"attributes":{"ID":182771,"DIS_CODE":0,"TOWNNAME":"安南區","LI":"安東里","LIN":"4鄰","STREET":"安和路","SECT":"一段","MAREA":" ","LANE":"２８８巷","ALLEY":"１０９弄","HOUSE_NO":"３號","E_COORD97":169561.17999999999,"N_COORD97":2548266.8999999999,"ADDRESS":"安和路一段２８８巷１０９弄３號","OBJECTID":182770},"geometry":{"x":169561.18000000156,"y":2548266.9000000041}},{"attributes":{"ID":182772,"DIS_CODE":0,"TOWNNAME":"安南區","LI":"安東里","LIN":"13鄰","STREET":"安和路","SECT":"一段","MAREA":" ","LANE":"２２０巷","ALLEY":"５４弄","HOUSE_NO":"１９號之３","E_COORD97":169518.95999999999,"N_COORD97":2547965.3500000001,"ADDRESS":"安和路一段２２０巷５４弄１９號之３","OBJECTID":182771},"geometry":{"x":169518.96000000183,"y":2547965.3500000015}},{"attributes":{"ID":182773,"DIS_CODE":0,"TOWNNAME":"大內區","LI":"曲溪里","LIN":"11鄰","STREET":" ","SECT":" ","MAREA":"二重溪","LANE":" ","ALLEY":" ","HOUSE_NO":"１０５號之５","E_COORD97":187395.92999999999,"N_COORD97":2557832.3100000001,"ADDRESS":"二重溪１０５號之５","OBJECTID":182772},"geometry":{"x":187395.9299999997,"y":2557832.3100000024}},{"attributes":{"ID":182774,"DIS_CODE":0,"TOWNNAME":"大內區","LI":"頭社里","LIN":"11鄰","STREET":" ","SECT":" ","MAREA":"頭社","LANE":" ","ALLEY":" ","HOUSE_NO":"１４３號","E_COORD97":187033.69,"N_COORD97":2562291.25,"ADDRESS":"頭社１４３號","OBJECTID":182773},"geometry":{"x":187033.69000000041,"y":2562291.2500000019}},{"attributes":{"ID":182775,"DIS_CODE":0,"TOWNNAME":"安南區","LI":"安東里","LIN":"20鄰","STREET":"安和路","SECT":"一段","MAREA":" ","LANE":"４９６巷","ALLEY":"２３弄","HOUSE_NO":"７７號","E_COORD97":169670.87,"N_COORD97":2548464.2599999998,"ADDRESS":"安和路一段４９６巷２３弄７７號","OBJECTID":182774},"geometry":{"x":169670.87000000104,"y":2548464.2600000016}},{"attributes":{"ID":182776,"DIS_CODE":0,"TOWNNAME":"安南區","LI":"安東里","LIN":"20鄰","STREET":"安和路","SECT":"一段","MAREA":" ","LANE":"４９６巷","ALLEY":"２３弄","HOUSE_NO":"１７號","E_COORD97":169551.32000000001,"N_COORD97":2548453.2999999998,"ADDRESS":"安和路一段４９６巷２３弄１７號","OBJECTID":182775},"geometry":{"x":169551.32000000123,"y":2548453.3000000007}},{"attributes":{"ID":182777,"DIS_CODE":0,"TOWNNAME":"安南區","LI":"安東里","LIN":"4鄰","STREET":"安和路","SECT":"一段","MAREA":" ","LANE":"２８８巷","ALLEY":"１５７弄","HOUSE_NO":"１２號","E_COORD97":169729.14000000001,"N_COORD97":2548274.6299999999,"ADDRESS":"安和路一段２８８巷１５７弄１２號","OBJECTID":182776},"geometry":{"x":169729.14000000153,"y":2548274.6300000008}},{"attributes":{"ID":182778,"DIS_CODE":0,"TOWNNAME":"大內區","LI":"曲溪里","LIN":"11鄰","STREET":" ","SECT":" ","MAREA":"二重溪","LANE":" ","ALLEY":" ","HOUSE_NO":"１０２號","E_COORD97":187390.73999999999,"N_COORD97":2557793.3100000001,"ADDRESS":"二重溪１０２號","OBJECTID":182777},"geometry":{"x":187390.74000000022,"y":2557793.3100000005}},{"attributes":{"ID":182779,"DIS_CODE":0,"TOWNNAME":"大內區","LI":"頭社里","LIN":"11鄰","STREET":" ","SECT":" ","MAREA":"頭社","LANE":" ","ALLEY":" ","HOUSE_NO":"１４５號之６","E_COORD97":186440.13,"N_COORD97":2561971.2999999998,"ADDRESS":"頭社１４５號之６","OBJECTID":182778},"geometry":{"x":186440.12999999989,"y":2561971.3000000007}},{"attributes":{"ID":182780,"DIS_CODE":0,"TOWNNAME":"大內區","LI":"曲溪里","LIN":"11鄰","STREET":" ","SECT":" ","MAREA":"二重溪","LANE":" ","ALLEY":" ","HOUSE_NO":"１０２號之１","E_COORD97":187405.88,"N_COORD97":2557774.3100000001,"ADDRESS":"二重溪１０２號之１","OBJECTID":182779},"geometry":{"x":187405.88000000082,"y":2557774.3100000042}},{"attributes":{"ID":182781,"DIS_CODE":0,"TOWNNAME":"大內區","LI":"頭社里","LIN":"11鄰","STREET":" ","SECT":" ","MAREA":"頭社","LANE":" ","ALLEY":" ","HOUSE_NO":"１５３號","E_COORD97":186886.19,"N_COORD97":2561386.25,"ADDRESS":"頭社１５３號","OBJECTID":182780},"geometry":{"x":186886.19000000041,"y":2561386.2500000019}},{"attributes":{"ID":182782,"DIS_CODE":0,"TOWNNAME":"大內區","LI":"石林里","LIN":"11鄰","STREET":" ","SECT":" ","MAREA":"石子瀨","LANE":" ","ALLEY":" ","HOUSE_NO":"２１９號之５","E_COORD97":184078.16,"N_COORD97":2558247.2999999998,"ADDRESS":"石子瀨２１９號之５","OBJECTID":182781},"geometry":{"x":184078.16000000108,"y":2558247.3000000026}},{"attributes":{"ID":182783,"DIS_CODE":0,"TOWNNAME":"大內區","LI":"石林里","LIN":"11鄰","STREET":" ","SECT":" ","MAREA":"石子瀨","LANE":" ","ALLEY":" ","HOUSE_NO":"２１９號之９","E_COORD97":184057.89000000001,"N_COORD97":2558238.2999999998,"ADDRESS":"石子瀨２１９號之９","OBJECTID":182782},"geometry":{"x":184057.88999999966,"y":2558238.3000000007}},{"attributes":{"ID":182784,"DIS_CODE":0,"TOWNNAME":"大內區","LI":"頭社里","LIN":"11鄰","STREET":" ","SECT":" ","MAREA":"頭社","LANE":" ","ALLEY":" ","HOUSE_NO":"１４９號之２","E_COORD97":187078.66,"N_COORD97":2561450.2999999998,"ADDRESS":"頭社１４９號之２","OBJECTID":182783},"geometry":{"x":187078.66000000108,"y":2561450.3000000026}},{"attributes":{"ID":182785,"DIS_CODE":0,"TOWNNAME":"安南區","LI":"安東里","LIN":"4鄰","STREET":"安和路","SECT":"一段","MAREA":" ","LANE":"２８８巷","ALLEY":"１５７弄","HOUSE_NO":"３號","E_COORD97":169718.09,"N_COORD97":2548246.27,"ADDRESS":"安和路一段２８８巷１５７弄３號","OBJECTID":182784},"geometry":{"x":169718.09000000078,"y":2548246.2700000033}},{"attributes":{"ID":182786,"DIS_CODE":0,"TOWNNAME":"安南區","LI":"安富里","LIN":" ","STREET":"安富街","SECT":" ","MAREA":" ","LANE":"２５１巷","ALLEY":"４２弄","HOUSE_NO":"１３號","E_COORD97":167500.10000000001,"N_COORD97":2547315.2999999998,"ADDRESS":"安富街２５１巷４２弄１３號","OBJECTID":182785},"geometry":{"x":167500.09999999963,"y":2547315.3000000045}},{"attributes":{"ID":182787,"DIS_CODE":0,"TOWNNAME":"安南區","LI":"安富里","LIN":" ","STREET":"安富街","SECT":" ","MAREA":" ","LANE":"２５１巷","ALLEY":"５６弄","HOUSE_NO":"３１號","E_COORD97":167454.06,"N_COORD97":2547269.3100000001,"ADDRESS":"安富街２５１巷５６弄３１號","OBJECTID":182786},"geometry":{"x":167454.05999999959,"y":2547269.3100000005}},{"attributes":{"ID":182788,"DIS_CODE":0,"TOWNNAME":"大內區","LI":"曲溪里","LIN":"11鄰","STREET":" ","SECT":" ","MAREA":"二重溪","LANE":" ","ALLEY":" ","HOUSE_NO":"１１０號","E_COORD97":187443.14000000001,"N_COORD97":2557767.2999999998,"ADDRESS":"二重溪１１０號","OBJECTID":182787},"geometry":{"x":187443.13999999966,"y":2557767.3000000007}},{"attributes":{"ID":182789,"DIS_CODE":0,"TOWNNAME":"大內區","LI":"頭社里","LIN":"11鄰","STREET":" ","SECT":" ","MAREA":"頭社","LANE":" ","ALLEY":" ","HOUSE_NO":"１４６號","E_COORD97":186647.29000000001,"N_COORD97":2561859.25,"ADDRESS":"頭社１４６號","OBJECTID":182788},"geometry":{"x":186647.29000000097,"y":2561859.2500000037}},{"attributes":{"ID":182790,"DIS_CODE":0,"TOWNNAME":"大內區","LI":"大內里","LIN":"11鄰","STREET":" ","SECT":" ","MAREA":"內庄","LANE":" ","ALLEY":" ","HOUSE_NO":"１２１號","E_COORD97":184722.78,"N_COORD97":2557498.25,"ADDRESS":"內庄１２１號","OBJECTID":182789},"geometry":{"x":184722.78000000212,"y":2557498.25}},{"attributes":{"ID":182791,"DIS_CODE":0,"TOWNNAME":"歸仁區","LI":"媽廟里","LIN":"10鄰","STREET":"保大路","SECT":"一段","MAREA":" ","LANE":" ","ALLEY":" ","HOUSE_NO":"１８５號","E_COORD97":177580.92999999999,"N_COORD97":2544027.7200000002,"ADDRESS":"保大路一段１８５號","OBJECTID":182790},"geometry":{"x":177580.9299999997,"y":2544027.7200000025}},{"attributes":{"ID":182792,"DIS_CODE":0,"TOWNNAME":"大內區","LI":"大內里","LIN":"11鄰","STREET":" ","SECT":" ","MAREA":"內庄","LANE":" ","ALLEY":" ","HOUSE_NO":"１２４號","E_COORD97":184707.57999999999,"N_COORD97":2557532.25,"ADDRESS":"內庄１２４號","OBJECTID":182791},"geometry":{"x":184707.58000000101,"y":2557532.25}},{"attributes":{"ID":182793,"DIS_CODE":0,"TOWNNAME":"歸仁區","LI":"歸南里","LIN":"10鄰","STREET":"民生九街","SECT":" ","MAREA":" ","LANE":" ","ALLEY":" ","HOUSE_NO":"１０２號","E_COORD97":176205.35999999999,"N_COORD97":2540075.25,"ADDRESS":"民生九街１０２號","OBJECTID":182792},"geometry":{"x":176205.36000000034,"y":2540075.25}},{"attributes":{"ID":182794,"DIS_CODE":0,"TOWNNAME":"麻豆區","LI":"油車里","LIN":"11鄰","STREET":" ","SECT":" ","MAREA":"油車","LANE":" ","ALLEY":" ","HOUSE_NO":"７０號","E_COORD97":172568.76000000001,"N_COORD97":2565921.7400000002,"ADDRESS":"油車７０號","OBJECTID":182793},"geometry":{"x":172568.76000000071,"y":2565921.7400000021}},{"attributes":{"ID":182795,"DIS_CODE":0,"TOWNNAME":"歸仁區","LI":"媽廟里","LIN":"10鄰","STREET":"中正北路","SECT":"三段","MAREA":" ","LANE":" ","ALLEY":" ","HOUSE_NO":"２４７號","E_COORD97":177609.45999999999,"N_COORD97":2543944.7200000002,"ADDRESS":"中正北路三段２４７號","OBJECTID":182794},"geometry":{"x":177609.45999999996,"y":2543944.7200000007}},{"attributes":{"ID":182796,"DIS_CODE":0,"TOWNNAME":"麻豆區","LI":"油車里","LIN":"11鄰","STREET":" ","SECT":" ","MAREA":"油車","LANE":" ","ALLEY":" ","HOUSE_NO":"７２號之１","E_COORD97":172637.76999999999,"N_COORD97":2565904.3100000001,"ADDRESS":"油車７２號之１","OBJECTID":182795},"geometry":{"x":172637.77000000048,"y":2565904.3100000042}},{"attributes":{"ID":182797,"DIS_CODE":0,"TOWNNAME":"麻豆區","LI":"油車里","LIN":"11鄰","STREET":" ","SECT":" ","MAREA":"油車","LANE":" ","ALLEY":" ","HOUSE_NO":"７２號之２","E_COORD97":172627.70000000001,"N_COORD97":2565905.46,"ADDRESS":"油車７２號之２","OBJECTID":182796},"geometry":{"x":172627.70000000019,"y":2565905.4600000009}},{"attributes":{"ID":182798,"DIS_CODE":0,"TOWNNAME":"麻豆區","LI":"油車里","LIN":"11鄰","STREET":" ","SECT":" ","MAREA":"油車","LANE":" ","ALLEY":" ","HOUSE_NO":"７２號","E_COORD97":172601.06,"N_COORD97":2565909.96,"ADDRESS":"油車７２號","OBJECTID":182797},"geometry":{"x":172601.05999999959,"y":2565909.9600000009}},{"attributes":{"ID":182799,"DIS_CODE":0,"TOWNNAME":"安南區","LI":"安富里","LIN":" ","STREET":"安富街","SECT":" ","MAREA":" ","LANE":"２５１巷","ALLEY":"１４弄","HOUSE_NO":"４３號","E_COORD97":167361.5,"N_COORD97":2547354.8700000001,"ADDRESS":"安富街２５１巷１４弄４３號","OBJECTID":182798},"geometry":{"x":167361.5,"y":2547354.870000001}},{"attributes":{"ID":182800,"DIS_CODE":0,"TOWNNAME":"安南區","LI":"安富里","LIN":" ","STREET":"安富街","SECT":" ","MAREA":" ","LANE":"２５１巷","ALLEY":"１４弄","HOUSE_NO":"４１號","E_COORD97":167366.29999999999,"N_COORD97":2547356.7000000002,"ADDRESS":"安富街２５１巷１４弄４１號","OBJECTID":182799},"geometry":{"x":167366.29999999981,"y":2547356.6999999993}},{"attributes":{"ID":182801,"DIS_CODE":0,"TOWNNAME":"麻豆區","LI":"油車里","LIN":"11鄰","STREET":" ","SECT":" ","MAREA":"油車","LANE":" ","ALLEY":" ","HOUSE_NO":"７４號","E_COORD97":172612.87,"N_COORD97":2565902.2599999998,"ADDRESS":"油車７４號","OBJECTID":182800},"geometry":{"x":172612.87000000011,"y":2565902.2599999998}}]}