{"displayFieldName":"TOWNNAME","fieldAliases":{"ID":"ID","DIS_CODE":"DIS_CODE","TOWNNAME":"TOWNNAME","LI":"LI","LIN":"LIN","STREET":"STREET","SECT":"SECT","MAREA":"MAREA","LANE":"LANE","ALLEY":"ALLEY","HOUSE_NO":"HOUSE_NO","E_COORD97":"E_COORD97","N_COORD97":"N_COORD97","ADDRESS":"ADDRESS","OBJECTID":"OBJECTID"},"geometryType":"esriGeometryPoint","spatialReference":{"wkid":102443,"latestWkid":3826},"fields":[{"name":"ID","type":"esriFieldTypeDouble","alias":"ID"},{"name":"DIS_CODE","type":"esriFieldTypeInteger","alias":"DIS_CODE"},{"name":"TOWNNAME","type":"esriFieldTypeString","alias":"TOWNNAME","length":8},{"name":"LI","type":"esriFieldTypeString","alias":"LI","length":8},{"name":"LIN","type":"esriFieldTypeString","alias":"LIN","length":12},{"name":"STREET","type":"esriFieldTypeString","alias":"STREET","length":20},{"name":"SECT","type":"esriFieldTypeString","alias":"SECT","length":8},{"name":"MAREA","type":"esriFieldTypeString","alias":"MAREA","length":12},{"name":"LANE","type":"esriFieldTypeString","alias":"LANE","length":10},{"name":"ALLEY","type":"esriFieldTypeString","alias":"ALLEY","length":10},{"name":"HOUSE_NO","type":"esriFieldTypeString","alias":"HOUSE_NO","length":20},{"name":"E_COORD97","type":"esriFieldTypeDouble","alias":"E_COORD97"},{"name":"N_COORD97","type":"esriFieldTypeDouble","alias":"N_COORD97"},{"name":"ADDRESS","type":"esriFieldTypeString","alias":"ADDRESS","length":50},{"name":"OBJECTID","type":"esriFieldTypeOID","alias":"OBJECTID"}],"features":[{"attributes":{"ID":457026,"DIS_CODE":0,"TOWNNAME":"北區","LI":"成德里","LIN":"41鄰","STREET":"文成二路","SECT":" ","MAREA":" ","LANE":"２２７巷","ALLEY":" ","HOUSE_NO":"７號","E_COORD97":168243.17999999999,"N_COORD97":2546138.6600000001,"ADDRESS":"文成二路２２７巷７號","OBJECTID":457001},"geometry":{"x":168243.1799999997,"y":2546138.6599999983}},{"attributes":{"ID":457027,"DIS_CODE":0,"TOWNNAME":"北區","LI":"成德里","LIN":"41鄰","STREET":"文成二路","SECT":" ","MAREA":" ","LANE":"２２７巷","ALLEY":" ","HOUSE_NO":"１５號","E_COORD97":168245.20999999999,"N_COORD97":2546115.29,"ADDRESS":"文成二路２２７巷１５號","OBJECTID":457002},"geometry":{"x":168245.20999999996,"y":2546115.2899999991}},{"attributes":{"ID":457028,"DIS_CODE":0,"TOWNNAME":"北區","LI":"成德里","LIN":"41鄰","STREET":"文成二路","SECT":" ","MAREA":" ","LANE":"２２７巷","ALLEY":" ","HOUSE_NO":"２號","E_COORD97":168230.98000000001,"N_COORD97":2546156.0600000001,"ADDRESS":"文成二路２２７巷２號","OBJECTID":457003},"geometry":{"x":168230.98000000231,"y":2546156.0600000005}},{"attributes":{"ID":457029,"DIS_CODE":0,"TOWNNAME":"北區","LI":"成德里","LIN":"41鄰","STREET":"文成二路","SECT":" ","MAREA":" ","LANE":"２２７巷","ALLEY":" ","HOUSE_NO":"６號","E_COORD97":168231.37,"N_COORD97":2546149.46,"ADDRESS":"文成二路２２７巷６號","OBJECTID":457004},"geometry":{"x":168231.37000000197,"y":2546149.4600000028}},{"attributes":{"ID":457030,"DIS_CODE":0,"TOWNNAME":"北區","LI":"成德里","LIN":"41鄰","STREET":"文成二路","SECT":" ","MAREA":" ","LANE":"２２７巷","ALLEY":" ","HOUSE_NO":"８號","E_COORD97":168231.75,"N_COORD97":2546143.3599999999,"ADDRESS":"文成二路２２７巷８號","OBJECTID":457005},"geometry":{"x":168231.75,"y":2546143.3599999975}},{"attributes":{"ID":457031,"DIS_CODE":0,"TOWNNAME":"北區","LI":"成德里","LIN":"41鄰","STREET":"文成二路","SECT":" ","MAREA":" ","LANE":"２２７巷","ALLEY":" ","HOUSE_NO":"１０號","E_COORD97":168232.13,"N_COORD97":2546137.8999999999,"ADDRESS":"文成二路２２７巷１０號","OBJECTID":457006},"geometry":{"x":168232.12999999989,"y":2546137.9000000022}},{"attributes":{"ID":457032,"DIS_CODE":0,"TOWNNAME":"北區","LI":"成德里","LIN":"41鄰","STREET":"文成二路","SECT":" ","MAREA":" ","LANE":"２２７巷","ALLEY":" ","HOUSE_NO":"１２號","E_COORD97":168232.38,"N_COORD97":2546132.1899999999,"ADDRESS":"文成二路２２７巷１２號","OBJECTID":457007},"geometry":{"x":168232.37999999989,"y":2546132.1900000013}},{"attributes":{"ID":457033,"DIS_CODE":0,"TOWNNAME":"永康區","LI":"六合里","LIN":"8鄰","STREET":"六合路","SECT":" ","MAREA":" ","LANE":"４７巷","ALLEY":" ","HOUSE_NO":"９號","E_COORD97":171141.39000000001,"N_COORD97":2545582.7200000002,"ADDRESS":"六合路４７巷９號","OBJECTID":457008},"geometry":{"x":171141.39000000153,"y":2545582.7200000007}},{"attributes":{"ID":457034,"DIS_CODE":0,"TOWNNAME":"北區","LI":"成德里","LIN":"41鄰","STREET":"文成二路","SECT":" ","MAREA":" ","LANE":"２２７巷","ALLEY":" ","HOUSE_NO":"１６號","E_COORD97":168232.76000000001,"N_COORD97":2546125.96,"ADDRESS":"文成二路２２７巷１６號","OBJECTID":457009},"geometry":{"x":168232.75999999978,"y":2546125.9600000009}},{"attributes":{"ID":457035,"DIS_CODE":0,"TOWNNAME":"永康區","LI":"五王里","LIN":"41鄰","STREET":"中山南路","SECT":" ","MAREA":" ","LANE":"２６２巷","ALLEY":" ","HOUSE_NO":"２號十二樓之１１","E_COORD97":171551.70000000001,"N_COORD97":2546054.6200000001,"ADDRESS":"中山南路２６２巷２號十二樓之１１","OBJECTID":457010},"geometry":{"x":171551.70000000205,"y":2546054.620000001}},{"attributes":{"ID":457036,"DIS_CODE":0,"TOWNNAME":"永康區","LI":"五王里","LIN":"41鄰","STREET":"中山南路","SECT":" ","MAREA":" ","LANE":"２６２巷","ALLEY":" ","HOUSE_NO":"２號十三樓之９","E_COORD97":171550.53,"N_COORD97":2546054.6200000001,"ADDRESS":"中山南路２６２巷２號十三樓之９","OBJECTID":457011},"geometry":{"x":171550.53000000026,"y":2546054.620000001}},{"attributes":{"ID":457037,"DIS_CODE":0,"TOWNNAME":"永康區","LI":"五王里","LIN":"41鄰","STREET":"中山南路","SECT":" ","MAREA":" ","LANE":"２６２巷","ALLEY":" ","HOUSE_NO":"２號十二樓之８","E_COORD97":171550.60000000001,"N_COORD97":2546054.6200000001,"ADDRESS":"中山南路２６２巷２號十二樓之８","OBJECTID":457012},"geometry":{"x":171550.60000000056,"y":2546054.620000001}},{"attributes":{"ID":457038,"DIS_CODE":0,"TOWNNAME":"永康區","LI":"五王里","LIN":"41鄰","STREET":"中山南路","SECT":" ","MAREA":" ","LANE":"２６２巷","ALLEY":" ","HOUSE_NO":"２號十一樓之１５","E_COORD97":171551.72,"N_COORD97":2546054.6200000001,"ADDRESS":"中山南路２６２巷２號十一樓之１５","OBJECTID":457013},"geometry":{"x":171551.72000000067,"y":2546054.620000001}},{"attributes":{"ID":457039,"DIS_CODE":0,"TOWNNAME":"永康區","LI":"五王里","LIN":"41鄰","STREET":"中山南路","SECT":" ","MAREA":" ","LANE":"２６２巷","ALLEY":" ","HOUSE_NO":"２號十三樓之１４","E_COORD97":171551.72,"N_COORD97":2546054.6200000001,"ADDRESS":"中山南路２６２巷２號十三樓之１４","OBJECTID":457014},"geometry":{"x":171551.72000000067,"y":2546054.620000001}},{"attributes":{"ID":457040,"DIS_CODE":0,"TOWNNAME":"永康區","LI":"五王里","LIN":"41鄰","STREET":"中山南路","SECT":" ","MAREA":" ","LANE":"２６２巷","ALLEY":" ","HOUSE_NO":"２號十樓之１６","E_COORD97":171550.54999999999,"N_COORD97":2546054.6200000001,"ADDRESS":"中山南路２６２巷２號十樓之１６","OBJECTID":457015},"geometry":{"x":171550.55000000168,"y":2546054.620000001}},{"attributes":{"ID":457041,"DIS_CODE":0,"TOWNNAME":"永康區","LI":"五王里","LIN":"41鄰","STREET":"中山南路","SECT":" ","MAREA":" ","LANE":"２６２巷","ALLEY":" ","HOUSE_NO":"２號十五樓之７","E_COORD97":171550.53,"N_COORD97":2546054.6200000001,"ADDRESS":"中山南路２６２巷２號十五樓之７","OBJECTID":457016},"geometry":{"x":171550.53000000026,"y":2546054.620000001}},{"attributes":{"ID":457042,"DIS_CODE":0,"TOWNNAME":"永康區","LI":"五王里","LIN":"41鄰","STREET":"中山南路","SECT":" ","MAREA":" ","LANE":"２６２巷","ALLEY":" ","HOUSE_NO":"２號十四樓之５","E_COORD97":171550.60000000001,"N_COORD97":2546054.6200000001,"ADDRESS":"中山南路２６２巷２號十四樓之５","OBJECTID":457017},"geometry":{"x":171550.60000000056,"y":2546054.620000001}},{"attributes":{"ID":457043,"DIS_CODE":0,"TOWNNAME":"永康區","LI":"五王里","LIN":"41鄰","STREET":"中山南路","SECT":" ","MAREA":" ","LANE":"２６２巷","ALLEY":" ","HOUSE_NO":"２號十樓之３","E_COORD97":171549.29999999999,"N_COORD97":2546054.6200000001,"ADDRESS":"中山南路２６２巷２號十樓之３","OBJECTID":457018},"geometry":{"x":171549.30000000075,"y":2546054.620000001}},{"attributes":{"ID":457044,"DIS_CODE":0,"TOWNNAME":"永康區","LI":"五王里","LIN":"41鄰","STREET":"中山南路","SECT":" ","MAREA":" ","LANE":"２６２巷","ALLEY":" ","HOUSE_NO":"２號十三樓之８","E_COORD97":171550.60000000001,"N_COORD97":2546054.6200000001,"ADDRESS":"中山南路２６２巷２號十三樓之８","OBJECTID":457019},"geometry":{"x":171550.60000000056,"y":2546054.620000001}},{"attributes":{"ID":457045,"DIS_CODE":0,"TOWNNAME":"永康區","LI":"五王里","LIN":"41鄰","STREET":"中山南路","SECT":" ","MAREA":" ","LANE":"２６２巷","ALLEY":" ","HOUSE_NO":"２號十二樓之１４","E_COORD97":171551.72,"N_COORD97":2546054.6200000001,"ADDRESS":"中山南路２６２巷２號十二樓之１４","OBJECTID":457020},"geometry":{"x":171551.72000000067,"y":2546054.620000001}},{"attributes":{"ID":457046,"DIS_CODE":0,"TOWNNAME":"永康區","LI":"五王里","LIN":"41鄰","STREET":"中山南路","SECT":" ","MAREA":" ","LANE":"２６２巷","ALLEY":" ","HOUSE_NO":"２號十三樓之５","E_COORD97":171550.60000000001,"N_COORD97":2546054.6200000001,"ADDRESS":"中山南路２６２巷２號十三樓之５","OBJECTID":457021},"geometry":{"x":171550.60000000056,"y":2546054.620000001}},{"attributes":{"ID":457047,"DIS_CODE":0,"TOWNNAME":"永康區","LI":"五王里","LIN":"41鄰","STREET":"中山南路","SECT":" ","MAREA":" ","LANE":"２６２巷","ALLEY":" ","HOUSE_NO":"２號十一樓之９","E_COORD97":171550.53,"N_COORD97":2546054.6200000001,"ADDRESS":"中山南路２６２巷２號十一樓之９","OBJECTID":457022},"geometry":{"x":171550.53000000026,"y":2546054.620000001}},{"attributes":{"ID":457048,"DIS_CODE":0,"TOWNNAME":"永康區","LI":"五王里","LIN":"41鄰","STREET":"中山南路","SECT":" ","MAREA":" ","LANE":"２６２巷","ALLEY":" ","HOUSE_NO":"２號七樓之１０","E_COORD97":171550.5,"N_COORD97":2546054.6200000001,"ADDRESS":"中山南路２６２巷２號七樓之１０","OBJECTID":457023},"geometry":{"x":171550.5,"y":2546054.620000001}},{"attributes":{"ID":457049,"DIS_CODE":0,"TOWNNAME":"永康區","LI":"五王里","LIN":"41鄰","STREET":"中山南路","SECT":" ","MAREA":" ","LANE":"２６２巷","ALLEY":" ","HOUSE_NO":"２號九樓之１２","E_COORD97":171550.57999999999,"N_COORD97":2546054.6200000001,"ADDRESS":"中山南路２６２巷２號九樓之１２","OBJECTID":457024},"geometry":{"x":171550.57999999914,"y":2546054.620000001}},{"attributes":{"ID":457050,"DIS_CODE":0,"TOWNNAME":"永康區","LI":"五王里","LIN":"41鄰","STREET":"中山南路","SECT":" ","MAREA":" ","LANE":"２６２巷","ALLEY":" ","HOUSE_NO":"２號七樓之１４","E_COORD97":171550.47,"N_COORD97":2546054.6200000001,"ADDRESS":"中山南路２６２巷２號七樓之１４","OBJECTID":457025},"geometry":{"x":171550.46999999974,"y":2546054.620000001}},{"attributes":{"ID":457051,"DIS_CODE":0,"TOWNNAME":"永康區","LI":"五王里","LIN":"41鄰","STREET":"中山南路","SECT":" ","MAREA":" ","LANE":"２６２巷","ALLEY":" ","HOUSE_NO":"２號八樓之１０","E_COORD97":171550.5,"N_COORD97":2546054.6200000001,"ADDRESS":"中山南路２６２巷２號八樓之１０","OBJECTID":457026},"geometry":{"x":171550.5,"y":2546054.620000001}},{"attributes":{"ID":457052,"DIS_CODE":0,"TOWNNAME":"永康區","LI":"五王里","LIN":"41鄰","STREET":"中山南路","SECT":" ","MAREA":" ","LANE":"２６２巷","ALLEY":" ","HOUSE_NO":"２號八樓之１４","E_COORD97":171550.47,"N_COORD97":2546054.6200000001,"ADDRESS":"中山南路２６２巷２號八樓之１４","OBJECTID":457027},"geometry":{"x":171550.46999999974,"y":2546054.620000001}},{"attributes":{"ID":457053,"DIS_CODE":0,"TOWNNAME":"永康區","LI":"五王里","LIN":"41鄰","STREET":"中山南路","SECT":" ","MAREA":" ","LANE":"２６２巷","ALLEY":" ","HOUSE_NO":"２號十一樓之１０","E_COORD97":171551.75,"N_COORD97":2546054.6200000001,"ADDRESS":"中山南路２６２巷２號十一樓之１０","OBJECTID":457028},"geometry":{"x":171551.75000000093,"y":2546054.620000001}},{"attributes":{"ID":457054,"DIS_CODE":0,"TOWNNAME":"永康區","LI":"五王里","LIN":"41鄰","STREET":"中山南路","SECT":" ","MAREA":" ","LANE":"２６２巷","ALLEY":" ","HOUSE_NO":"６號二樓之９","E_COORD97":171560.34,"N_COORD97":2546015.2000000002,"ADDRESS":"中山南路２６２巷６號二樓之９","OBJECTID":457029},"geometry":{"x":171560.33999999985,"y":2546015.1999999993}},{"attributes":{"ID":457055,"DIS_CODE":0,"TOWNNAME":"永康區","LI":"五王里","LIN":"41鄰","STREET":"中山南路","SECT":" ","MAREA":" ","LANE":"２６２巷","ALLEY":" ","HOUSE_NO":"２號十一樓之１２","E_COORD97":171551.82999999999,"N_COORD97":2546054.6200000001,"ADDRESS":"中山南路２６２巷２號十一樓之１２","OBJECTID":457030},"geometry":{"x":171551.83000000007,"y":2546054.620000001}},{"attributes":{"ID":457056,"DIS_CODE":0,"TOWNNAME":"永康區","LI":"五王里","LIN":"41鄰","STREET":"中山南路","SECT":" ","MAREA":" ","LANE":"２６２巷","ALLEY":" ","HOUSE_NO":"２號八樓之１７","E_COORD97":171550.53,"N_COORD97":2546054.6200000001,"ADDRESS":"中山南路２６２巷２號八樓之１７","OBJECTID":457031},"geometry":{"x":171550.53000000026,"y":2546054.620000001}},{"attributes":{"ID":457057,"DIS_CODE":0,"TOWNNAME":"永康區","LI":"五王里","LIN":"41鄰","STREET":"中山南路","SECT":" ","MAREA":" ","LANE":"２６２巷","ALLEY":" ","HOUSE_NO":"２號八樓之１１","E_COORD97":171550.45000000001,"N_COORD97":2546054.6200000001,"ADDRESS":"中山南路２６２巷２號八樓之１１","OBJECTID":457032},"geometry":{"x":171550.45000000112,"y":2546054.620000001}},{"attributes":{"ID":457058,"DIS_CODE":0,"TOWNNAME":"永康區","LI":"五王里","LIN":"41鄰","STREET":"中山南路","SECT":" ","MAREA":" ","LANE":"２６２巷","ALLEY":" ","HOUSE_NO":"２號八樓之１６","E_COORD97":171550.54999999999,"N_COORD97":2546054.6200000001,"ADDRESS":"中山南路２６２巷２號八樓之１６","OBJECTID":457033},"geometry":{"x":171550.55000000168,"y":2546054.620000001}},{"attributes":{"ID":457059,"DIS_CODE":0,"TOWNNAME":"永康區","LI":"五王里","LIN":"41鄰","STREET":"中山南路","SECT":" ","MAREA":" ","LANE":"２６２巷","ALLEY":" ","HOUSE_NO":"２號十一樓之６","E_COORD97":171550.54999999999,"N_COORD97":2546054.6200000001,"ADDRESS":"中山南路２６２巷２號十一樓之６","OBJECTID":457034},"geometry":{"x":171550.55000000168,"y":2546054.620000001}},{"attributes":{"ID":457060,"DIS_CODE":0,"TOWNNAME":"永康區","LI":"五王里","LIN":"41鄰","STREET":"中山南路","SECT":" ","MAREA":" ","LANE":"２６２巷","ALLEY":" ","HOUSE_NO":"２號八樓之３","E_COORD97":171549.29999999999,"N_COORD97":2546054.6200000001,"ADDRESS":"中山南路２６２巷２號八樓之３","OBJECTID":457035},"geometry":{"x":171549.30000000075,"y":2546054.620000001}},{"attributes":{"ID":457061,"DIS_CODE":0,"TOWNNAME":"東區","LI":"崇文里","LIN":"40鄰","STREET":"生產路","SECT":" ","MAREA":" ","LANE":" ","ALLEY":" ","HOUSE_NO":"２７７號十樓","E_COORD97":170920.14000000001,"N_COORD97":2540618.3100000001,"ADDRESS":"生產路２７７號十樓","OBJECTID":457036},"geometry":{"x":170920.13999999966,"y":2540618.3100000005}},{"attributes":{"ID":457062,"DIS_CODE":0,"TOWNNAME":"永康區","LI":"五王里","LIN":"41鄰","STREET":"中山南路","SECT":" ","MAREA":" ","LANE":"２６２巷","ALLEY":" ","HOUSE_NO":"２號八樓之５","E_COORD97":171549.35000000001,"N_COORD97":2546054.6200000001,"ADDRESS":"中山南路２６２巷２號八樓之５","OBJECTID":457037},"geometry":{"x":171549.34999999963,"y":2546054.620000001}},{"attributes":{"ID":457063,"DIS_CODE":0,"TOWNNAME":"永康區","LI":"五王里","LIN":"41鄰","STREET":"中山南路","SECT":" ","MAREA":" ","LANE":"２６２巷","ALLEY":" ","HOUSE_NO":"２號七樓之１","E_COORD97":171549.20000000001,"N_COORD97":2546054.6200000001,"ADDRESS":"中山南路２６２巷２號七樓之１","OBJECTID":457038},"geometry":{"x":171549.20000000019,"y":2546054.620000001}},{"attributes":{"ID":457064,"DIS_CODE":0,"TOWNNAME":"中西區","LI":"中正里","LIN":"13鄰","STREET":"正德街","SECT":" ","MAREA":" ","LANE":"２９巷","ALLEY":" ","HOUSE_NO":"７號","E_COORD97":167498,"N_COORD97":2543875.3500000001,"ADDRESS":"正德街２９巷７號","OBJECTID":457039},"geometry":{"x":167498.00000000186,"y":2543875.3499999996}},{"attributes":{"ID":457065,"DIS_CODE":0,"TOWNNAME":"永康區","LI":"五王里","LIN":"41鄰","STREET":"中山南路","SECT":" ","MAREA":" ","LANE":"２６２巷","ALLEY":" ","HOUSE_NO":"２號八樓之１９","E_COORD97":171550.53,"N_COORD97":2546054.6200000001,"ADDRESS":"中山南路２６２巷２號八樓之１９","OBJECTID":457040},"geometry":{"x":171550.53000000026,"y":2546054.620000001}},{"attributes":{"ID":457066,"DIS_CODE":0,"TOWNNAME":"永康區","LI":"五王里","LIN":"41鄰","STREET":"中山南路","SECT":" ","MAREA":" ","LANE":"２６２巷","ALLEY":" ","HOUSE_NO":"６號二樓之７","E_COORD97":171560.34,"N_COORD97":2546015.2000000002,"ADDRESS":"中山南路２６２巷６號二樓之７","OBJECTID":457041},"geometry":{"x":171560.33999999985,"y":2546015.1999999993}},{"attributes":{"ID":457067,"DIS_CODE":0,"TOWNNAME":"永康區","LI":"五王里","LIN":"41鄰","STREET":"中山南路","SECT":" ","MAREA":" ","LANE":"２６２巷","ALLEY":" ","HOUSE_NO":"６號十二樓之６","E_COORD97":171561.60999999999,"N_COORD97":2546015.2000000002,"ADDRESS":"中山南路２６２巷６號十二樓之６","OBJECTID":457042},"geometry":{"x":171561.61000000127,"y":2546015.1999999993}},{"attributes":{"ID":457068,"DIS_CODE":0,"TOWNNAME":"永康區","LI":"五王里","LIN":"41鄰","STREET":"中山南路","SECT":" ","MAREA":" ","LANE":"２６２巷","ALLEY":" ","HOUSE_NO":"２號七樓之８","E_COORD97":171549.35000000001,"N_COORD97":2546054.6200000001,"ADDRESS":"中山南路２６２巷２號七樓之８","OBJECTID":457043},"geometry":{"x":171549.34999999963,"y":2546054.620000001}},{"attributes":{"ID":457069,"DIS_CODE":0,"TOWNNAME":"東區","LI":"忠孝里","LIN":"41鄰","STREET":"崇明路","SECT":" ","MAREA":" ","LANE":"２６６巷","ALLEY":" ","HOUSE_NO":"１號十樓","E_COORD97":169948.45999999999,"N_COORD97":2542032.73,"ADDRESS":"崇明路２６６巷１號十樓","OBJECTID":457044},"geometry":{"x":169948.46000000089,"y":2542032.7300000004}},{"attributes":{"ID":457070,"DIS_CODE":0,"TOWNNAME":"永康區","LI":"五王里","LIN":"41鄰","STREET":"中山南路","SECT":" ","MAREA":" ","LANE":"２６２巷","ALLEY":" ","HOUSE_NO":"２號十一樓之１","E_COORD97":171550.45000000001,"N_COORD97":2546054.6200000001,"ADDRESS":"中山南路２６２巷２號十一樓之１","OBJECTID":457045},"geometry":{"x":171550.45000000112,"y":2546054.620000001}},{"attributes":{"ID":457071,"DIS_CODE":0,"TOWNNAME":"永康區","LI":"五王里","LIN":"41鄰","STREET":"中山南路","SECT":" ","MAREA":" ","LANE":"２６２巷","ALLEY":" ","HOUSE_NO":"２號七樓之１３","E_COORD97":171550.54999999999,"N_COORD97":2546054.6200000001,"ADDRESS":"中山南路２６２巷２號七樓之１３","OBJECTID":457046},"geometry":{"x":171550.55000000168,"y":2546054.620000001}},{"attributes":{"ID":457072,"DIS_CODE":0,"TOWNNAME":"永康區","LI":"五王里","LIN":"41鄰","STREET":"中山南路","SECT":" ","MAREA":" ","LANE":"２６２巷","ALLEY":" ","HOUSE_NO":"２號八樓之１５","E_COORD97":171550.60000000001,"N_COORD97":2546054.6200000001,"ADDRESS":"中山南路２６２巷２號八樓之１５","OBJECTID":457047},"geometry":{"x":171550.60000000056,"y":2546054.620000001}},{"attributes":{"ID":457073,"DIS_CODE":0,"TOWNNAME":"永康區","LI":"五王里","LIN":"41鄰","STREET":"中山南路","SECT":" ","MAREA":" ","LANE":"２６２巷","ALLEY":" ","HOUSE_NO":"６號七樓之５","E_COORD97":171560.41,"N_COORD97":2546015.2000000002,"ADDRESS":"中山南路２６２巷６號七樓之５","OBJECTID":457048},"geometry":{"x":171560.41000000201,"y":2546015.1999999993}},{"attributes":{"ID":457074,"DIS_CODE":0,"TOWNNAME":"永康區","LI":"五王里","LIN":"41鄰","STREET":"中山南路","SECT":" ","MAREA":" ","LANE":"２６２巷","ALLEY":" ","HOUSE_NO":"２號七樓之１５","E_COORD97":171550.60000000001,"N_COORD97":2546054.6200000001,"ADDRESS":"中山南路２６２巷２號七樓之１５","OBJECTID":457049},"geometry":{"x":171550.60000000056,"y":2546054.620000001}},{"attributes":{"ID":457075,"DIS_CODE":0,"TOWNNAME":"永康區","LI":"五王里","LIN":"41鄰","STREET":"中山南路","SECT":" ","MAREA":" ","LANE":"２６２巷","ALLEY":" ","HOUSE_NO":"２號八樓之７","E_COORD97":171549.28,"N_COORD97":2546054.6200000001,"ADDRESS":"中山南路２６２巷２號八樓之７","OBJECTID":457050},"geometry":{"x":171549.28000000026,"y":2546054.620000001}},{"attributes":{"ID":457076,"DIS_CODE":0,"TOWNNAME":"永康區","LI":"五王里","LIN":"41鄰","STREET":"中山南路","SECT":" ","MAREA":" ","LANE":"２６２巷","ALLEY":" ","HOUSE_NO":"６號九樓之２","E_COORD97":171560.39000000001,"N_COORD97":2546015.2000000002,"ADDRESS":"中山南路２６２巷６號九樓之２","OBJECTID":457051},"geometry":{"x":171560.3900000006,"y":2546015.1999999993}},{"attributes":{"ID":457077,"DIS_CODE":0,"TOWNNAME":"永康區","LI":"五王里","LIN":"41鄰","STREET":"中山南路","SECT":" ","MAREA":" ","LANE":"２６２巷","ALLEY":" ","HOUSE_NO":"６號六樓之８","E_COORD97":171560.41,"N_COORD97":2546015.2000000002,"ADDRESS":"中山南路２６２巷６號六樓之８","OBJECTID":457052},"geometry":{"x":171560.41000000201,"y":2546015.1999999993}},{"attributes":{"ID":457078,"DIS_CODE":0,"TOWNNAME":"永康區","LI":"五王里","LIN":"41鄰","STREET":"中山南路","SECT":" ","MAREA":" ","LANE":"２６２巷","ALLEY":" ","HOUSE_NO":"２號八樓之６","E_COORD97":171549.29999999999,"N_COORD97":2546054.6200000001,"ADDRESS":"中山南路２６２巷２號八樓之６","OBJECTID":457053},"geometry":{"x":171549.30000000075,"y":2546054.620000001}},{"attributes":{"ID":457079,"DIS_CODE":0,"TOWNNAME":"永康區","LI":"五王里","LIN":"41鄰","STREET":"中山南路","SECT":" ","MAREA":" ","LANE":"２６２巷","ALLEY":" ","HOUSE_NO":"６號二樓之１０","E_COORD97":171561.56,"N_COORD97":2546015.2000000002,"ADDRESS":"中山南路２６２巷６號二樓之１０","OBJECTID":457054},"geometry":{"x":171561.55999999959,"y":2546015.1999999993}},{"attributes":{"ID":457080,"DIS_CODE":0,"TOWNNAME":"永康區","LI":"五王里","LIN":"41鄰","STREET":"中山南路","SECT":" ","MAREA":" ","LANE":"２６２巷","ALLEY":" ","HOUSE_NO":"６號七樓之１","E_COORD97":171560.26000000001,"N_COORD97":2546015.2000000002,"ADDRESS":"中山南路２６２巷６號七樓之１","OBJECTID":457055},"geometry":{"x":171560.25999999978,"y":2546015.1999999993}},{"attributes":{"ID":457081,"DIS_CODE":0,"TOWNNAME":"永康區","LI":"五王里","LIN":"41鄰","STREET":"中山南路","SECT":" ","MAREA":" ","LANE":"２６２巷","ALLEY":" ","HOUSE_NO":"２號九樓之３","E_COORD97":171549.29999999999,"N_COORD97":2546054.6200000001,"ADDRESS":"中山南路２６２巷２號九樓之３","OBJECTID":457056},"geometry":{"x":171549.30000000075,"y":2546054.620000001}},{"attributes":{"ID":457082,"DIS_CODE":0,"TOWNNAME":"永康區","LI":"五王里","LIN":"41鄰","STREET":"中山南路","SECT":" ","MAREA":" ","LANE":"２６２巷","ALLEY":" ","HOUSE_NO":"２號九樓之６","E_COORD97":171549.29999999999,"N_COORD97":2546054.6200000001,"ADDRESS":"中山南路２６２巷２號九樓之６","OBJECTID":457057},"geometry":{"x":171549.30000000075,"y":2546054.620000001}},{"attributes":{"ID":457083,"DIS_CODE":0,"TOWNNAME":"永康區","LI":"五王里","LIN":"41鄰","STREET":"中山南路","SECT":" ","MAREA":" ","LANE":"２６２巷","ALLEY":" ","HOUSE_NO":"６號十五樓之２","E_COORD97":171561.64000000001,"N_COORD97":2546015.2000000002,"ADDRESS":"中山南路２６２巷６號十五樓之２","OBJECTID":457058},"geometry":{"x":171561.64000000153,"y":2546015.1999999993}},{"attributes":{"ID":457084,"DIS_CODE":0,"TOWNNAME":"永康區","LI":"五王里","LIN":"41鄰","STREET":"中山南路","SECT":" ","MAREA":" ","LANE":"２６２巷","ALLEY":" ","HOUSE_NO":"２號七樓之２","E_COORD97":171549.32999999999,"N_COORD97":2546054.6200000001,"ADDRESS":"中山南路２６２巷２號七樓之２","OBJECTID":457059},"geometry":{"x":171549.33000000101,"y":2546054.620000001}},{"attributes":{"ID":457085,"DIS_CODE":0,"TOWNNAME":"永康區","LI":"五王里","LIN":"41鄰","STREET":"中山南路","SECT":" ","MAREA":" ","LANE":"２６２巷","ALLEY":" ","HOUSE_NO":"６號六樓之３","E_COORD97":171560.35999999999,"N_COORD97":2546015.2000000002,"ADDRESS":"中山南路２６２巷６號六樓之３","OBJECTID":457060},"geometry":{"x":171560.36000000034,"y":2546015.1999999993}},{"attributes":{"ID":457086,"DIS_CODE":0,"TOWNNAME":"永康區","LI":"五王里","LIN":"41鄰","STREET":"中山南路","SECT":" ","MAREA":" ","LANE":"２６２巷","ALLEY":" ","HOUSE_NO":"２號九樓之１１","E_COORD97":171550.45000000001,"N_COORD97":2546054.6200000001,"ADDRESS":"中山南路２６２巷２號九樓之１１","OBJECTID":457061},"geometry":{"x":171550.45000000112,"y":2546054.620000001}},{"attributes":{"ID":457087,"DIS_CODE":0,"TOWNNAME":"永康區","LI":"五王里","LIN":"41鄰","STREET":"中山南路","SECT":" ","MAREA":" ","LANE":"２６２巷","ALLEY":" ","HOUSE_NO":"２號九樓之８","E_COORD97":171549.35000000001,"N_COORD97":2546054.6200000001,"ADDRESS":"中山南路２６２巷２號九樓之８","OBJECTID":457062},"geometry":{"x":171549.34999999963,"y":2546054.620000001}},{"attributes":{"ID":457088,"DIS_CODE":0,"TOWNNAME":"永康區","LI":"五王里","LIN":"41鄰","STREET":"中山南路","SECT":" ","MAREA":" ","LANE":"２６２巷","ALLEY":" ","HOUSE_NO":"２號十樓之１１","E_COORD97":171550.45000000001,"N_COORD97":2546054.6200000001,"ADDRESS":"中山南路２６２巷２號十樓之１１","OBJECTID":457063},"geometry":{"x":171550.45000000112,"y":2546054.620000001}},{"attributes":{"ID":457089,"DIS_CODE":0,"TOWNNAME":"永康區","LI":"五王里","LIN":"41鄰","STREET":"中山南路","SECT":" ","MAREA":" ","LANE":"２６２巷","ALLEY":" ","HOUSE_NO":"２號九樓之１６","E_COORD97":171550.54999999999,"N_COORD97":2546054.6200000001,"ADDRESS":"中山南路２６２巷２號九樓之１６","OBJECTID":457064},"geometry":{"x":171550.55000000168,"y":2546054.620000001}},{"attributes":{"ID":457090,"DIS_CODE":0,"TOWNNAME":"永康區","LI":"五王里","LIN":"41鄰","STREET":"中山南路","SECT":" ","MAREA":" ","LANE":"２６２巷","ALLEY":" ","HOUSE_NO":"２號十四樓之６","E_COORD97":171550.54999999999,"N_COORD97":2546054.6200000001,"ADDRESS":"中山南路２６２巷２號十四樓之６","OBJECTID":457065},"geometry":{"x":171550.55000000168,"y":2546054.620000001}},{"attributes":{"ID":457091,"DIS_CODE":0,"TOWNNAME":"永康區","LI":"五王里","LIN":"41鄰","STREET":"中山南路","SECT":" ","MAREA":" ","LANE":"２６２巷","ALLEY":" ","HOUSE_NO":"２號七樓之１６","E_COORD97":171550.54999999999,"N_COORD97":2546054.6200000001,"ADDRESS":"中山南路２６２巷２號七樓之１６","OBJECTID":457066},"geometry":{"x":171550.55000000168,"y":2546054.620000001}},{"attributes":{"ID":457092,"DIS_CODE":0,"TOWNNAME":"永康區","LI":"五王里","LIN":"41鄰","STREET":"中山南路","SECT":" ","MAREA":" ","LANE":"２６２巷","ALLEY":" ","HOUSE_NO":"６號十一樓之２","E_COORD97":171561.64000000001,"N_COORD97":2546015.2000000002,"ADDRESS":"中山南路２６２巷６號十一樓之２","OBJECTID":457067},"geometry":{"x":171561.64000000153,"y":2546015.1999999993}},{"attributes":{"ID":457093,"DIS_CODE":0,"TOWNNAME":"永康區","LI":"五王里","LIN":"41鄰","STREET":"中山南路","SECT":" ","MAREA":" ","LANE":"２６２巷","ALLEY":" ","HOUSE_NO":"６號十樓之３","E_COORD97":171560.35999999999,"N_COORD97":2546015.2000000002,"ADDRESS":"中山南路２６２巷６號十樓之３","OBJECTID":457068},"geometry":{"x":171560.36000000034,"y":2546015.1999999993}},{"attributes":{"ID":457094,"DIS_CODE":0,"TOWNNAME":"永康區","LI":"五王里","LIN":"41鄰","STREET":"中山南路","SECT":" ","MAREA":" ","LANE":"２６２巷","ALLEY":" ","HOUSE_NO":"６號十一樓之３","E_COORD97":171561.60999999999,"N_COORD97":2546015.2000000002,"ADDRESS":"中山南路２６２巷６號十一樓之３","OBJECTID":457069},"geometry":{"x":171561.61000000127,"y":2546015.1999999993}},{"attributes":{"ID":457095,"DIS_CODE":0,"TOWNNAME":"永康區","LI":"五王里","LIN":"41鄰","STREET":"中山南路","SECT":" ","MAREA":" ","LANE":"２６２巷","ALLEY":" ","HOUSE_NO":"２號十樓之１３","E_COORD97":171550.54999999999,"N_COORD97":2546054.6200000001,"ADDRESS":"中山南路２６２巷２號十樓之１３","OBJECTID":457070},"geometry":{"x":171550.55000000168,"y":2546054.620000001}},{"attributes":{"ID":457096,"DIS_CODE":0,"TOWNNAME":"永康區","LI":"五王里","LIN":"41鄰","STREET":"中山南路","SECT":" ","MAREA":" ","LANE":"２６２巷","ALLEY":" ","HOUSE_NO":"２號八樓之２","E_COORD97":171549.32999999999,"N_COORD97":2546054.6200000001,"ADDRESS":"中山南路２６２巷２號八樓之２","OBJECTID":457071},"geometry":{"x":171549.33000000101,"y":2546054.620000001}},{"attributes":{"ID":457097,"DIS_CODE":0,"TOWNNAME":"永康區","LI":"五王里","LIN":"41鄰","STREET":"中山南路","SECT":" ","MAREA":" ","LANE":"２６２巷","ALLEY":" ","HOUSE_NO":"６號十二樓之３","E_COORD97":171561.60999999999,"N_COORD97":2546015.2000000002,"ADDRESS":"中山南路２６２巷６號十二樓之３","OBJECTID":457072},"geometry":{"x":171561.61000000127,"y":2546015.1999999993}},{"attributes":{"ID":457098,"DIS_CODE":0,"TOWNNAME":"永康區","LI":"五王里","LIN":"41鄰","STREET":"中山南路","SECT":" ","MAREA":" ","LANE":"２６２巷","ALLEY":" ","HOUSE_NO":"２號七樓之１８","E_COORD97":171550.60000000001,"N_COORD97":2546054.6200000001,"ADDRESS":"中山南路２６２巷２號七樓之１８","OBJECTID":457073},"geometry":{"x":171550.60000000056,"y":2546054.620000001}},{"attributes":{"ID":457099,"DIS_CODE":0,"TOWNNAME":"永康區","LI":"五王里","LIN":"41鄰","STREET":"中山南路","SECT":" ","MAREA":" ","LANE":"２６２巷","ALLEY":" ","HOUSE_NO":"６號五樓之１","E_COORD97":171560.26000000001,"N_COORD97":2546015.2000000002,"ADDRESS":"中山南路２６２巷６號五樓之１","OBJECTID":457074},"geometry":{"x":171560.25999999978,"y":2546015.1999999993}},{"attributes":{"ID":457100,"DIS_CODE":0,"TOWNNAME":"永康區","LI":"五王里","LIN":"41鄰","STREET":"中山南路","SECT":" ","MAREA":" ","LANE":"２６２巷","ALLEY":" ","HOUSE_NO":"６號十一樓之５","E_COORD97":171561.66,"N_COORD97":2546015.2000000002,"ADDRESS":"中山南路２６２巷６號十一樓之５","OBJECTID":457075},"geometry":{"x":171561.66000000015,"y":2546015.1999999993}},{"attributes":{"ID":457101,"DIS_CODE":0,"TOWNNAME":"永康區","LI":"五王里","LIN":"41鄰","STREET":"中山南路","SECT":" ","MAREA":" ","LANE":"２６２巷","ALLEY":" ","HOUSE_NO":"６號四樓之６","E_COORD97":171560.35999999999,"N_COORD97":2546015.2000000002,"ADDRESS":"中山南路２６２巷６號四樓之６","OBJECTID":457076},"geometry":{"x":171560.36000000034,"y":2546015.1999999993}},{"attributes":{"ID":457102,"DIS_CODE":0,"TOWNNAME":"永康區","LI":"五王里","LIN":"41鄰","STREET":"中山南路","SECT":" ","MAREA":" ","LANE":"２６２巷","ALLEY":" ","HOUSE_NO":"２號十樓之１４","E_COORD97":171550.47,"N_COORD97":2546054.6200000001,"ADDRESS":"中山南路２６２巷２號十樓之１４","OBJECTID":457077},"geometry":{"x":171550.46999999974,"y":2546054.620000001}},{"attributes":{"ID":457103,"DIS_CODE":0,"TOWNNAME":"永康區","LI":"五王里","LIN":"41鄰","STREET":"中山南路","SECT":" ","MAREA":" ","LANE":"２６２巷","ALLEY":" ","HOUSE_NO":"６號二樓之３","E_COORD97":171560.35999999999,"N_COORD97":2546015.2000000002,"ADDRESS":"中山南路２６２巷６號二樓之３","OBJECTID":457078},"geometry":{"x":171560.36000000034,"y":2546015.1999999993}},{"attributes":{"ID":457104,"DIS_CODE":0,"TOWNNAME":"永康區","LI":"五王里","LIN":"41鄰","STREET":"中山南路","SECT":" ","MAREA":" ","LANE":"２６２巷","ALLEY":" ","HOUSE_NO":"２號九樓之１３","E_COORD97":171550.54999999999,"N_COORD97":2546054.6200000001,"ADDRESS":"中山南路２６２巷２號九樓之１３","OBJECTID":457079},"geometry":{"x":171550.55000000168,"y":2546054.620000001}},{"attributes":{"ID":457105,"DIS_CODE":0,"TOWNNAME":"永康區","LI":"五王里","LIN":"41鄰","STREET":"中山南路","SECT":" ","MAREA":" ","LANE":"２６２巷","ALLEY":" ","HOUSE_NO":"６號三樓之８","E_COORD97":171560.41,"N_COORD97":2546015.2000000002,"ADDRESS":"中山南路２６２巷６號三樓之８","OBJECTID":457080},"geometry":{"x":171560.41000000201,"y":2546015.1999999993}},{"attributes":{"ID":457106,"DIS_CODE":0,"TOWNNAME":"永康區","LI":"五王里","LIN":"41鄰","STREET":"中山南路","SECT":" ","MAREA":" ","LANE":"２６２巷","ALLEY":" ","HOUSE_NO":"６號五樓之１１","E_COORD97":171561.51000000001,"N_COORD97":2546015.2000000002,"ADDRESS":"中山南路２６２巷６號五樓之１１","OBJECTID":457081},"geometry":{"x":171561.51000000071,"y":2546015.1999999993}},{"attributes":{"ID":457107,"DIS_CODE":0,"TOWNNAME":"永康區","LI":"五王里","LIN":"41鄰","STREET":"中山南路","SECT":" ","MAREA":" ","LANE":"２６２巷","ALLEY":" ","HOUSE_NO":"２號七樓之１２","E_COORD97":171550.57999999999,"N_COORD97":2546054.6200000001,"ADDRESS":"中山南路２６２巷２號七樓之１２","OBJECTID":457082},"geometry":{"x":171550.57999999914,"y":2546054.620000001}},{"attributes":{"ID":457108,"DIS_CODE":0,"TOWNNAME":"永康區","LI":"五王里","LIN":"41鄰","STREET":"中山南路","SECT":" ","MAREA":" ","LANE":"２６２巷","ALLEY":" ","HOUSE_NO":"６號二樓之８","E_COORD97":171560.41,"N_COORD97":2546015.2000000002,"ADDRESS":"中山南路２６２巷６號二樓之８","OBJECTID":457083},"geometry":{"x":171560.41000000201,"y":2546015.1999999993}},{"attributes":{"ID":457109,"DIS_CODE":0,"TOWNNAME":"永康區","LI":"五王里","LIN":"41鄰","STREET":"中山南路","SECT":" ","MAREA":" ","LANE":"２６２巷","ALLEY":" ","HOUSE_NO":"６號五樓之７","E_COORD97":171560.34,"N_COORD97":2546015.2000000002,"ADDRESS":"中山南路２６２巷６號五樓之７","OBJECTID":457084},"geometry":{"x":171560.33999999985,"y":2546015.1999999993}},{"attributes":{"ID":457110,"DIS_CODE":0,"TOWNNAME":"永康區","LI":"五王里","LIN":"41鄰","STREET":"中山南路","SECT":" ","MAREA":" ","LANE":"２６２巷","ALLEY":" ","HOUSE_NO":"６號三樓之２","E_COORD97":171560.39000000001,"N_COORD97":2546015.2000000002,"ADDRESS":"中山南路２６２巷６號三樓之２","OBJECTID":457085},"geometry":{"x":171560.3900000006,"y":2546015.1999999993}},{"attributes":{"ID":457111,"DIS_CODE":0,"TOWNNAME":"永康區","LI":"五王里","LIN":"41鄰","STREET":"中山南路","SECT":" ","MAREA":" ","LANE":"２６２巷","ALLEY":" ","HOUSE_NO":"２號十四樓之８","E_COORD97":171550.60000000001,"N_COORD97":2546054.6200000001,"ADDRESS":"中山南路２６２巷２號十四樓之８","OBJECTID":457086},"geometry":{"x":171550.60000000056,"y":2546054.620000001}},{"attributes":{"ID":457112,"DIS_CODE":0,"TOWNNAME":"永康區","LI":"五王里","LIN":"41鄰","STREET":"中山南路","SECT":" ","MAREA":" ","LANE":"２６２巷","ALLEY":" ","HOUSE_NO":"６號四樓之１","E_COORD97":171560.26000000001,"N_COORD97":2546015.2000000002,"ADDRESS":"中山南路２６２巷６號四樓之１","OBJECTID":457087},"geometry":{"x":171560.25999999978,"y":2546015.1999999993}},{"attributes":{"ID":457113,"DIS_CODE":0,"TOWNNAME":"永康區","LI":"五王里","LIN":"41鄰","STREET":"中山南路","SECT":" ","MAREA":" ","LANE":"２６２巷","ALLEY":" ","HOUSE_NO":"６號十二樓之７","E_COORD97":171561.59,"N_COORD97":2546015.2000000002,"ADDRESS":"中山南路２６２巷６號十二樓之７","OBJECTID":457088},"geometry":{"x":171561.58999999985,"y":2546015.1999999993}},{"attributes":{"ID":457114,"DIS_CODE":0,"TOWNNAME":"永康區","LI":"五王里","LIN":"41鄰","STREET":"中山南路","SECT":" ","MAREA":" ","LANE":"２６２巷","ALLEY":" ","HOUSE_NO":"２號十五樓之５","E_COORD97":171550.60000000001,"N_COORD97":2546054.6200000001,"ADDRESS":"中山南路２６２巷２號十五樓之５","OBJECTID":457089},"geometry":{"x":171550.60000000056,"y":2546054.620000001}},{"attributes":{"ID":457115,"DIS_CODE":0,"TOWNNAME":"永康區","LI":"五王里","LIN":"41鄰","STREET":"中山南路","SECT":" ","MAREA":" ","LANE":"２６２巷","ALLEY":" ","HOUSE_NO":"２號九樓之１４","E_COORD97":171550.47,"N_COORD97":2546054.6200000001,"ADDRESS":"中山南路２６２巷２號九樓之１４","OBJECTID":457090},"geometry":{"x":171550.46999999974,"y":2546054.620000001}},{"attributes":{"ID":457116,"DIS_CODE":0,"TOWNNAME":"永康區","LI":"五王里","LIN":"41鄰","STREET":"中山南路","SECT":" ","MAREA":" ","LANE":"２６２巷","ALLEY":" ","HOUSE_NO":"６號三樓之１","E_COORD97":171560.26000000001,"N_COORD97":2546015.2000000002,"ADDRESS":"中山南路２６２巷６號三樓之１","OBJECTID":457091},"geometry":{"x":171560.25999999978,"y":2546015.1999999993}},{"attributes":{"ID":457117,"DIS_CODE":0,"TOWNNAME":"永康區","LI":"五王里","LIN":"41鄰","STREET":"中山南路","SECT":" ","MAREA":" ","LANE":"２６２巷","ALLEY":" ","HOUSE_NO":"６號三樓之７","E_COORD97":171560.34,"N_COORD97":2546015.2000000002,"ADDRESS":"中山南路２６２巷６號三樓之７","OBJECTID":457092},"geometry":{"x":171560.33999999985,"y":2546015.1999999993}},{"attributes":{"ID":457118,"DIS_CODE":0,"TOWNNAME":"永康區","LI":"五王里","LIN":"41鄰","STREET":"中山南路","SECT":" ","MAREA":" ","LANE":"２６２巷","ALLEY":" ","HOUSE_NO":"６號十三樓之２","E_COORD97":171561.64000000001,"N_COORD97":2546015.2000000002,"ADDRESS":"中山南路２６２巷６號十三樓之２","OBJECTID":457093},"geometry":{"x":171561.64000000153,"y":2546015.1999999993}},{"attributes":{"ID":457119,"DIS_CODE":0,"TOWNNAME":"永康區","LI":"五王里","LIN":"41鄰","STREET":"中山南路","SECT":" ","MAREA":" ","LANE":"２６２巷","ALLEY":" ","HOUSE_NO":"２號十樓之１２","E_COORD97":171550.57999999999,"N_COORD97":2546054.6200000001,"ADDRESS":"中山南路２６２巷２號十樓之１２","OBJECTID":457094},"geometry":{"x":171550.57999999914,"y":2546054.620000001}},{"attributes":{"ID":457120,"DIS_CODE":0,"TOWNNAME":"永康區","LI":"五王里","LIN":"41鄰","STREET":"中山南路","SECT":" ","MAREA":" ","LANE":"２６２巷","ALLEY":" ","HOUSE_NO":"６號三樓之５","E_COORD97":171560.41,"N_COORD97":2546015.2000000002,"ADDRESS":"中山南路２６２巷６號三樓之５","OBJECTID":457095},"geometry":{"x":171560.41000000201,"y":2546015.1999999993}},{"attributes":{"ID":457121,"DIS_CODE":0,"TOWNNAME":"永康區","LI":"五王里","LIN":"41鄰","STREET":"中山南路","SECT":" ","MAREA":" ","LANE":"２６２巷","ALLEY":" ","HOUSE_NO":"２號九樓之２","E_COORD97":171549.32999999999,"N_COORD97":2546054.6200000001,"ADDRESS":"中山南路２６２巷２號九樓之２","OBJECTID":457096},"geometry":{"x":171549.33000000101,"y":2546054.620000001}},{"attributes":{"ID":457122,"DIS_CODE":0,"TOWNNAME":"永康區","LI":"五王里","LIN":"41鄰","STREET":"中山南路","SECT":" ","MAREA":" ","LANE":"２６２巷","ALLEY":" ","HOUSE_NO":"２號十五樓之９","E_COORD97":171550.53,"N_COORD97":2546054.6200000001,"ADDRESS":"中山南路２６２巷２號十五樓之９","OBJECTID":457097},"geometry":{"x":171550.53000000026,"y":2546054.620000001}},{"attributes":{"ID":457123,"DIS_CODE":0,"TOWNNAME":"永康區","LI":"五王里","LIN":"41鄰","STREET":"中山南路","SECT":" ","MAREA":" ","LANE":"２６２巷","ALLEY":" ","HOUSE_NO":"２號十一樓之１１","E_COORD97":171551.70000000001,"N_COORD97":2546054.6200000001,"ADDRESS":"中山南路２６２巷２號十一樓之１１","OBJECTID":457098},"geometry":{"x":171551.70000000205,"y":2546054.620000001}},{"attributes":{"ID":457124,"DIS_CODE":0,"TOWNNAME":"永康區","LI":"五王里","LIN":"41鄰","STREET":"中山南路","SECT":" ","MAREA":" ","LANE":"２６２巷","ALLEY":" ","HOUSE_NO":"６號三樓之１１","E_COORD97":171561.51000000001,"N_COORD97":2546015.2000000002,"ADDRESS":"中山南路２６２巷６號三樓之１１","OBJECTID":457099},"geometry":{"x":171561.51000000071,"y":2546015.1999999993}},{"attributes":{"ID":457125,"DIS_CODE":0,"TOWNNAME":"永康區","LI":"五王里","LIN":"41鄰","STREET":"中山南路","SECT":" ","MAREA":" ","LANE":"２６２巷","ALLEY":" ","HOUSE_NO":"６號十三樓之１","E_COORD97":171561.51000000001,"N_COORD97":2546015.2000000002,"ADDRESS":"中山南路２６２巷６號十三樓之１","OBJECTID":457100},"geometry":{"x":171561.51000000071,"y":2546015.1999999993}},{"attributes":{"ID":457126,"DIS_CODE":0,"TOWNNAME":"永康區","LI":"五王里","LIN":"41鄰","STREET":"中山南路","SECT":" ","MAREA":" ","LANE":"２６２巷","ALLEY":" ","HOUSE_NO":"６號三樓之９","E_COORD97":171560.34,"N_COORD97":2546015.2000000002,"ADDRESS":"中山南路２６２巷６號三樓之９","OBJECTID":457101},"geometry":{"x":171560.33999999985,"y":2546015.1999999993}},{"attributes":{"ID":457127,"DIS_CODE":0,"TOWNNAME":"永康區","LI":"五王里","LIN":"41鄰","STREET":"中山南路","SECT":" ","MAREA":" ","LANE":"２６２巷","ALLEY":" ","HOUSE_NO":"６號六樓之６","E_COORD97":171560.35999999999,"N_COORD97":2546015.2000000002,"ADDRESS":"中山南路２６２巷６號六樓之６","OBJECTID":457102},"geometry":{"x":171560.36000000034,"y":2546015.1999999993}},{"attributes":{"ID":457128,"DIS_CODE":0,"TOWNNAME":"永康區","LI":"五王里","LIN":"41鄰","STREET":"中山南路","SECT":" ","MAREA":" ","LANE":"２６２巷","ALLEY":" ","HOUSE_NO":"６號九樓之１","E_COORD97":171560.26000000001,"N_COORD97":2546015.2000000002,"ADDRESS":"中山南路２６２巷６號九樓之１","OBJECTID":457103},"geometry":{"x":171560.25999999978,"y":2546015.1999999993}},{"attributes":{"ID":457129,"DIS_CODE":0,"TOWNNAME":"永康區","LI":"五王里","LIN":"41鄰","STREET":"中山南路","SECT":" ","MAREA":" ","LANE":"２６２巷","ALLEY":" ","HOUSE_NO":"６號八樓之３","E_COORD97":171560.35999999999,"N_COORD97":2546015.2000000002,"ADDRESS":"中山南路２６２巷６號八樓之３","OBJECTID":457104},"geometry":{"x":171560.36000000034,"y":2546015.1999999993}},{"attributes":{"ID":457130,"DIS_CODE":0,"TOWNNAME":"永康區","LI":"五王里","LIN":"41鄰","STREET":"中山南路","SECT":" ","MAREA":" ","LANE":"２６２巷","ALLEY":" ","HOUSE_NO":"２號八樓之２０","E_COORD97":171550.5,"N_COORD97":2546054.6200000001,"ADDRESS":"中山南路２６２巷２號八樓之２０","OBJECTID":457105},"geometry":{"x":171550.5,"y":2546054.620000001}},{"attributes":{"ID":457131,"DIS_CODE":0,"TOWNNAME":"永康區","LI":"五王里","LIN":"41鄰","STREET":"中山南路","SECT":" ","MAREA":" ","LANE":"２６２巷","ALLEY":" ","HOUSE_NO":"６號二樓之１１","E_COORD97":171561.51000000001,"N_COORD97":2546015.2000000002,"ADDRESS":"中山南路２６２巷６號二樓之１１","OBJECTID":457106},"geometry":{"x":171561.51000000071,"y":2546015.1999999993}},{"attributes":{"ID":457132,"DIS_CODE":0,"TOWNNAME":"永康區","LI":"五王里","LIN":"41鄰","STREET":"中山南路","SECT":" ","MAREA":" ","LANE":"２６２巷","ALLEY":" ","HOUSE_NO":"６號六樓之５","E_COORD97":171560.41,"N_COORD97":2546015.2000000002,"ADDRESS":"中山南路２６２巷６號六樓之５","OBJECTID":457107},"geometry":{"x":171560.41000000201,"y":2546015.1999999993}},{"attributes":{"ID":457133,"DIS_CODE":0,"TOWNNAME":"永康區","LI":"五王里","LIN":"41鄰","STREET":"中山南路","SECT":" ","MAREA":" ","LANE":"２６２巷","ALLEY":" ","HOUSE_NO":"６號四樓之１０","E_COORD97":171561.56,"N_COORD97":2546015.2000000002,"ADDRESS":"中山南路２６２巷６號四樓之１０","OBJECTID":457108},"geometry":{"x":171561.55999999959,"y":2546015.1999999993}},{"attributes":{"ID":457134,"DIS_CODE":0,"TOWNNAME":"永康區","LI":"五王里","LIN":"41鄰","STREET":"中山南路","SECT":" ","MAREA":" ","LANE":"２６２巷","ALLEY":" ","HOUSE_NO":"２號十一樓之１３","E_COORD97":171551.79999999999,"N_COORD97":2546054.6200000001,"ADDRESS":"中山南路２６２巷２號十一樓之１３","OBJECTID":457109},"geometry":{"x":171551.79999999981,"y":2546054.620000001}},{"attributes":{"ID":457135,"DIS_CODE":0,"TOWNNAME":"永康區","LI":"五王里","LIN":"41鄰","STREET":"中山南路","SECT":" ","MAREA":" ","LANE":"２６２巷","ALLEY":" ","HOUSE_NO":"６號八樓之２","E_COORD97":171560.39000000001,"N_COORD97":2546015.2000000002,"ADDRESS":"中山南路２６２巷６號八樓之２","OBJECTID":457110},"geometry":{"x":171560.3900000006,"y":2546015.1999999993}},{"attributes":{"ID":457136,"DIS_CODE":0,"TOWNNAME":"永康區","LI":"五王里","LIN":"41鄰","STREET":"中山南路","SECT":" ","MAREA":" ","LANE":"２６２巷","ALLEY":" ","HOUSE_NO":"６號六樓之９","E_COORD97":171560.34,"N_COORD97":2546015.2000000002,"ADDRESS":"中山南路２６２巷６號六樓之９","OBJECTID":457111},"geometry":{"x":171560.33999999985,"y":2546015.1999999993}},{"attributes":{"ID":457137,"DIS_CODE":0,"TOWNNAME":"永康區","LI":"五王里","LIN":"41鄰","STREET":"中山南路","SECT":" ","MAREA":" ","LANE":"２６２巷","ALLEY":" ","HOUSE_NO":"６號二樓之６","E_COORD97":171560.35999999999,"N_COORD97":2546015.2000000002,"ADDRESS":"中山南路２６２巷６號二樓之６","OBJECTID":457112},"geometry":{"x":171560.36000000034,"y":2546015.1999999993}},{"attributes":{"ID":457138,"DIS_CODE":0,"TOWNNAME":"永康區","LI":"五王里","LIN":"41鄰","STREET":"中山南路","SECT":" ","MAREA":" ","LANE":"２６２巷","ALLEY":" ","HOUSE_NO":"６號七樓之２","E_COORD97":171560.39000000001,"N_COORD97":2546015.2000000002,"ADDRESS":"中山南路２６２巷６號七樓之２","OBJECTID":457113},"geometry":{"x":171560.3900000006,"y":2546015.1999999993}},{"attributes":{"ID":457139,"DIS_CODE":0,"TOWNNAME":"永康區","LI":"五王里","LIN":"41鄰","STREET":"中山南路","SECT":" ","MAREA":" ","LANE":"２６２巷","ALLEY":" ","HOUSE_NO":"２號十四樓之３","E_COORD97":171550.54999999999,"N_COORD97":2546054.6200000001,"ADDRESS":"中山南路２６２巷２號十四樓之３","OBJECTID":457114},"geometry":{"x":171550.55000000168,"y":2546054.620000001}},{"attributes":{"ID":457140,"DIS_CODE":0,"TOWNNAME":"永康區","LI":"五王里","LIN":"41鄰","STREET":"中山南路","SECT":" ","MAREA":" ","LANE":"２６２巷","ALLEY":" ","HOUSE_NO":"６號四樓之８","E_COORD97":171560.41,"N_COORD97":2546015.2000000002,"ADDRESS":"中山南路２６２巷６號四樓之８","OBJECTID":457115},"geometry":{"x":171560.41000000201,"y":2546015.1999999993}},{"attributes":{"ID":457141,"DIS_CODE":0,"TOWNNAME":"永康區","LI":"五王里","LIN":"41鄰","STREET":"中山南路","SECT":" ","MAREA":" ","LANE":"２６２巷","ALLEY":" ","HOUSE_NO":"６號四樓之３","E_COORD97":171560.35999999999,"N_COORD97":2546015.2000000002,"ADDRESS":"中山南路２６２巷６號四樓之３","OBJECTID":457116},"geometry":{"x":171560.36000000034,"y":2546015.1999999993}},{"attributes":{"ID":457142,"DIS_CODE":0,"TOWNNAME":"永康區","LI":"五王里","LIN":"41鄰","STREET":"中山南路","SECT":" ","MAREA":" ","LANE":"２６２巷","ALLEY":" ","HOUSE_NO":"６號十二樓之１","E_COORD97":171561.51000000001,"N_COORD97":2546015.2000000002,"ADDRESS":"中山南路２６２巷６號十二樓之１","OBJECTID":457117},"geometry":{"x":171561.51000000071,"y":2546015.1999999993}},{"attributes":{"ID":457143,"DIS_CODE":0,"TOWNNAME":"永康區","LI":"五王里","LIN":"41鄰","STREET":"中山南路","SECT":" ","MAREA":" ","LANE":"２６２巷","ALLEY":" ","HOUSE_NO":"６號六樓之１１","E_COORD97":171561.51000000001,"N_COORD97":2546015.2000000002,"ADDRESS":"中山南路２６２巷６號六樓之１１","OBJECTID":457118},"geometry":{"x":171561.51000000071,"y":2546015.1999999993}},{"attributes":{"ID":457144,"DIS_CODE":0,"TOWNNAME":"永康區","LI":"五王里","LIN":"41鄰","STREET":"中山南路","SECT":" ","MAREA":" ","LANE":"２６２巷","ALLEY":" ","HOUSE_NO":"６號五樓之５","E_COORD97":171560.41,"N_COORD97":2546015.2000000002,"ADDRESS":"中山南路２６２巷６號五樓之５","OBJECTID":457119},"geometry":{"x":171560.41000000201,"y":2546015.1999999993}},{"attributes":{"ID":457145,"DIS_CODE":0,"TOWNNAME":"永康區","LI":"五王里","LIN":"41鄰","STREET":"中山南路","SECT":" ","MAREA":" ","LANE":"２６２巷","ALLEY":" ","HOUSE_NO":"６號十樓之１","E_COORD97":171560.26000000001,"N_COORD97":2546015.2000000002,"ADDRESS":"中山南路２６２巷６號十樓之１","OBJECTID":457120},"geometry":{"x":171560.25999999978,"y":2546015.1999999993}},{"attributes":{"ID":457146,"DIS_CODE":0,"TOWNNAME":"永康區","LI":"五王里","LIN":"41鄰","STREET":"中山南路","SECT":" ","MAREA":" ","LANE":"２６２巷","ALLEY":" ","HOUSE_NO":"６號四樓之１１","E_COORD97":171561.51000000001,"N_COORD97":2546015.2000000002,"ADDRESS":"中山南路２６２巷６號四樓之１１","OBJECTID":457121},"geometry":{"x":171561.51000000071,"y":2546015.1999999993}},{"attributes":{"ID":457147,"DIS_CODE":0,"TOWNNAME":"永康區","LI":"五王里","LIN":"41鄰","STREET":"中山南路","SECT":" ","MAREA":" ","LANE":"２６２巷","ALLEY":" ","HOUSE_NO":"６號十四樓之１","E_COORD97":171561.51000000001,"N_COORD97":2546015.2000000002,"ADDRESS":"中山南路２６２巷６號十四樓之１","OBJECTID":457122},"geometry":{"x":171561.51000000071,"y":2546015.1999999993}},{"attributes":{"ID":457148,"DIS_CODE":0,"TOWNNAME":"永康區","LI":"五王里","LIN":"41鄰","STREET":"中山南路","SECT":" ","MAREA":" ","LANE":"２６２巷","ALLEY":" ","HOUSE_NO":"６號十四樓之２","E_COORD97":171561.64000000001,"N_COORD97":2546015.2000000002,"ADDRESS":"中山南路２６２巷６號十四樓之２","OBJECTID":457123},"geometry":{"x":171561.64000000153,"y":2546015.1999999993}},{"attributes":{"ID":457149,"DIS_CODE":0,"TOWNNAME":"永康區","LI":"五王里","LIN":"41鄰","STREET":"中山南路","SECT":" ","MAREA":" ","LANE":"２６２巷","ALLEY":" ","HOUSE_NO":"６號六樓之７","E_COORD97":171560.34,"N_COORD97":2546015.2000000002,"ADDRESS":"中山南路２６２巷６號六樓之７","OBJECTID":457124},"geometry":{"x":171560.33999999985,"y":2546015.1999999993}},{"attributes":{"ID":457150,"DIS_CODE":0,"TOWNNAME":"永康區","LI":"正強里","LIN":"8鄰","STREET":"永正路","SECT":" ","MAREA":" ","LANE":"８５巷","ALLEY":" ","HOUSE_NO":"６號","E_COORD97":173485.73000000001,"N_COORD97":2547506.29,"ADDRESS":"永正路８５巷６號","OBJECTID":457125},"geometry":{"x":173485.73000000045,"y":2547506.2899999991}},{"attributes":{"ID":457151,"DIS_CODE":0,"TOWNNAME":"永康區","LI":"五王里","LIN":"41鄰","STREET":"中山南路","SECT":" ","MAREA":" ","LANE":"２６２巷","ALLEY":" ","HOUSE_NO":"６號六樓之１","E_COORD97":171560.26000000001,"N_COORD97":2546015.2000000002,"ADDRESS":"中山南路２６２巷６號六樓之１","OBJECTID":457126},"geometry":{"x":171560.25999999978,"y":2546015.1999999993}},{"attributes":{"ID":457152,"DIS_CODE":0,"TOWNNAME":"永康區","LI":"五王里","LIN":"41鄰","STREET":"中山南路","SECT":" ","MAREA":" ","LANE":"２６２巷","ALLEY":" ","HOUSE_NO":"６號五樓之３","E_COORD97":171560.35999999999,"N_COORD97":2546015.2000000002,"ADDRESS":"中山南路２６２巷６號五樓之３","OBJECTID":457127},"geometry":{"x":171560.36000000034,"y":2546015.1999999993}},{"attributes":{"ID":457153,"DIS_CODE":0,"TOWNNAME":"永康區","LI":"永康里","LIN":"41鄰","STREET":"永福街","SECT":" ","MAREA":" ","LANE":"９７巷","ALLEY":" ","HOUSE_NO":"１０號九樓之７","E_COORD97":174257.79000000001,"N_COORD97":2546628.23,"ADDRESS":"永福街９７巷１０號九樓之７","OBJECTID":457128},"geometry":{"x":174257.79000000004,"y":2546628.2300000023}},{"attributes":{"ID":457154,"DIS_CODE":0,"TOWNNAME":"永康區","LI":"五王里","LIN":"41鄰","STREET":"中山南路","SECT":" ","MAREA":" ","LANE":"２６２巷","ALLEY":" ","HOUSE_NO":"２號八樓之１","E_COORD97":171549.20000000001,"N_COORD97":2546054.6200000001,"ADDRESS":"中山南路２６２巷２號八樓之１","OBJECTID":457129},"geometry":{"x":171549.20000000019,"y":2546054.620000001}},{"attributes":{"ID":457155,"DIS_CODE":0,"TOWNNAME":"永康區","LI":"五王里","LIN":"41鄰","STREET":"中山南路","SECT":" ","MAREA":" ","LANE":"２６２巷","ALLEY":" ","HOUSE_NO":"２號九樓之５","E_COORD97":171549.35000000001,"N_COORD97":2546054.6200000001,"ADDRESS":"中山南路２６２巷２號九樓之５","OBJECTID":457130},"geometry":{"x":171549.34999999963,"y":2546054.620000001}},{"attributes":{"ID":457156,"DIS_CODE":0,"TOWNNAME":"永康區","LI":"永康里","LIN":"41鄰","STREET":"永福街","SECT":" ","MAREA":" ","LANE":"９７巷","ALLEY":" ","HOUSE_NO":"１０號八樓之８","E_COORD97":174257.85999999999,"N_COORD97":2546628.23,"ADDRESS":"永福街９７巷１０號八樓之８","OBJECTID":457131},"geometry":{"x":174257.8599999994,"y":2546628.2300000023}},{"attributes":{"ID":457157,"DIS_CODE":0,"TOWNNAME":"永康區","LI":"五王里","LIN":"41鄰","STREET":"中山南路","SECT":" ","MAREA":" ","LANE":"２６２巷","ALLEY":" ","HOUSE_NO":"２號八樓之１８","E_COORD97":171550.60000000001,"N_COORD97":2546054.6200000001,"ADDRESS":"中山南路２６２巷２號八樓之１８","OBJECTID":457132},"geometry":{"x":171550.60000000056,"y":2546054.620000001}},{"attributes":{"ID":457158,"DIS_CODE":0,"TOWNNAME":"永康區","LI":"五王里","LIN":"41鄰","STREET":"中山南路","SECT":" ","MAREA":" ","LANE":"２６２巷","ALLEY":" ","HOUSE_NO":"６號五樓之６","E_COORD97":171560.35999999999,"N_COORD97":2546015.2000000002,"ADDRESS":"中山南路２６２巷６號五樓之６","OBJECTID":457133},"geometry":{"x":171560.36000000034,"y":2546015.1999999993}},{"attributes":{"ID":457159,"DIS_CODE":0,"TOWNNAME":"永康區","LI":"五王里","LIN":"41鄰","STREET":"中山南路","SECT":" ","MAREA":" ","LANE":"２６２巷","ALLEY":" ","HOUSE_NO":"２號十三樓之２","E_COORD97":171550.57999999999,"N_COORD97":2546054.6200000001,"ADDRESS":"中山南路２６２巷２號十三樓之２","OBJECTID":457134},"geometry":{"x":171550.57999999914,"y":2546054.620000001}},{"attributes":{"ID":457160,"DIS_CODE":0,"TOWNNAME":"永康區","LI":"永康里","LIN":"41鄰","STREET":"永福街","SECT":" ","MAREA":" ","LANE":"９７巷","ALLEY":" ","HOUSE_NO":"１０號六樓之８","E_COORD97":174257.85999999999,"N_COORD97":2546628.23,"ADDRESS":"永福街９７巷１０號六樓之８","OBJECTID":457135},"geometry":{"x":174257.8599999994,"y":2546628.2300000023}},{"attributes":{"ID":457161,"DIS_CODE":0,"TOWNNAME":"永康區","LI":"西灣里","LIN":"41鄰","STREET":"國光六街","SECT":" ","MAREA":" ","LANE":"９０巷","ALLEY":" ","HOUSE_NO":"１４號五樓","E_COORD97":174056.78,"N_COORD97":2545396.21,"ADDRESS":"國光六街９０巷１４號五樓","OBJECTID":457136},"geometry":{"x":174056.78000000212,"y":2545396.2100000009}},{"attributes":{"ID":457162,"DIS_CODE":0,"TOWNNAME":"永康區","LI":"五王里","LIN":"41鄰","STREET":"中山南路","SECT":" ","MAREA":" ","LANE":"２６２巷","ALLEY":" ","HOUSE_NO":"６號二樓之１","E_COORD97":171560.26000000001,"N_COORD97":2546015.2000000002,"ADDRESS":"中山南路２６２巷６號二樓之１","OBJECTID":457137},"geometry":{"x":171560.25999999978,"y":2546015.1999999993}},{"attributes":{"ID":457163,"DIS_CODE":0,"TOWNNAME":"永康區","LI":"永康里","LIN":"41鄰","STREET":"永福街","SECT":" ","MAREA":" ","LANE":"９７巷","ALLEY":" ","HOUSE_NO":"１０號十樓之４","E_COORD97":174257.73999999999,"N_COORD97":2546628.23,"ADDRESS":"永福街９７巷１０號十樓之４","OBJECTID":457138},"geometry":{"x":174257.74000000115,"y":2546628.2300000023}},{"attributes":{"ID":457164,"DIS_CODE":0,"TOWNNAME":"東區","LI":"忠孝里","LIN":"41鄰","STREET":"崇明路","SECT":" ","MAREA":" ","LANE":"２６６巷","ALLEY":" ","HOUSE_NO":"１號十四樓之１","E_COORD97":169948.45999999999,"N_COORD97":2542032.73,"ADDRESS":"崇明路２６６巷１號十四樓之１","OBJECTID":457139},"geometry":{"x":169948.46000000089,"y":2542032.7300000004}},{"attributes":{"ID":457165,"DIS_CODE":0,"TOWNNAME":"東區","LI":"忠孝里","LIN":"41鄰","STREET":"崇明路","SECT":" ","MAREA":" ","LANE":"２６６巷","ALLEY":" ","HOUSE_NO":"１號十五樓之１","E_COORD97":169948.45999999999,"N_COORD97":2542032.73,"ADDRESS":"崇明路２６６巷１號十五樓之１","OBJECTID":457140},"geometry":{"x":169948.46000000089,"y":2542032.7300000004}},{"attributes":{"ID":457166,"DIS_CODE":0,"TOWNNAME":"東區","LI":"忠孝里","LIN":"41鄰","STREET":"崇明路","SECT":" ","MAREA":" ","LANE":"２６６巷","ALLEY":" ","HOUSE_NO":"１號七樓","E_COORD97":169948.45999999999,"N_COORD97":2542032.73,"ADDRESS":"崇明路２６６巷１號七樓","OBJECTID":457141},"geometry":{"x":169948.46000000089,"y":2542032.7300000004}},{"attributes":{"ID":457167,"DIS_CODE":0,"TOWNNAME":"東區","LI":"忠孝里","LIN":"41鄰","STREET":"崇明路","SECT":" ","MAREA":" ","LANE":"２６６巷","ALLEY":" ","HOUSE_NO":"１號七樓之１","E_COORD97":169948.45999999999,"N_COORD97":2542032.73,"ADDRESS":"崇明路２６６巷１號七樓之１","OBJECTID":457142},"geometry":{"x":169948.46000000089,"y":2542032.7300000004}},{"attributes":{"ID":457168,"DIS_CODE":0,"TOWNNAME":"東區","LI":"忠孝里","LIN":"41鄰","STREET":"崇明路","SECT":" ","MAREA":" ","LANE":"２６６巷","ALLEY":" ","HOUSE_NO":"１號七樓之２","E_COORD97":169948.45999999999,"N_COORD97":2542032.73,"ADDRESS":"崇明路２６６巷１號七樓之２","OBJECTID":457143},"geometry":{"x":169948.46000000089,"y":2542032.7300000004}},{"attributes":{"ID":457169,"DIS_CODE":0,"TOWNNAME":"東區","LI":"忠孝里","LIN":"41鄰","STREET":"崇明路","SECT":" ","MAREA":" ","LANE":"２６６巷","ALLEY":" ","HOUSE_NO":"１號九樓","E_COORD97":169948.45999999999,"N_COORD97":2542032.73,"ADDRESS":"崇明路２６６巷１號九樓","OBJECTID":457144},"geometry":{"x":169948.46000000089,"y":2542032.7300000004}},{"attributes":{"ID":457170,"DIS_CODE":0,"TOWNNAME":"東區","LI":"忠孝里","LIN":"41鄰","STREET":"崇明路","SECT":" ","MAREA":" ","LANE":"２６６巷","ALLEY":" ","HOUSE_NO":"１號九樓之１","E_COORD97":169948.45999999999,"N_COORD97":2542032.73,"ADDRESS":"崇明路２６６巷１號九樓之１","OBJECTID":457145},"geometry":{"x":169948.46000000089,"y":2542032.7300000004}},{"attributes":{"ID":457171,"DIS_CODE":0,"TOWNNAME":"東區","LI":"忠孝里","LIN":"41鄰","STREET":"崇明路","SECT":" ","MAREA":" ","LANE":"２６６巷","ALLEY":" ","HOUSE_NO":"１號九樓之２","E_COORD97":169948.45999999999,"N_COORD97":2542032.73,"ADDRESS":"崇明路２６６巷１號九樓之２","OBJECTID":457146},"geometry":{"x":169948.46000000089,"y":2542032.7300000004}},{"attributes":{"ID":457172,"DIS_CODE":0,"TOWNNAME":"東區","LI":"忠孝里","LIN":"41鄰","STREET":"崇明路","SECT":" ","MAREA":" ","LANE":"２６６巷","ALLEY":" ","HOUSE_NO":"１號八樓","E_COORD97":169948.45999999999,"N_COORD97":2542032.73,"ADDRESS":"崇明路２６６巷１號八樓","OBJECTID":457147},"geometry":{"x":169948.46000000089,"y":2542032.7300000004}},{"attributes":{"ID":457173,"DIS_CODE":0,"TOWNNAME":"東區","LI":"忠孝里","LIN":"41鄰","STREET":"崇明路","SECT":" ","MAREA":" ","LANE":"２６６巷","ALLEY":" ","HOUSE_NO":"１號八樓之１","E_COORD97":169948.45999999999,"N_COORD97":2542032.73,"ADDRESS":"崇明路２６６巷１號八樓之１","OBJECTID":457148},"geometry":{"x":169948.46000000089,"y":2542032.7300000004}},{"attributes":{"ID":457174,"DIS_CODE":0,"TOWNNAME":"東區","LI":"忠孝里","LIN":"41鄰","STREET":"崇明路","SECT":" ","MAREA":" ","LANE":"２６６巷","ALLEY":" ","HOUSE_NO":"１號八樓之２","E_COORD97":169948.45999999999,"N_COORD97":2542032.73,"ADDRESS":"崇明路２６６巷１號八樓之２","OBJECTID":457149},"geometry":{"x":169948.46000000089,"y":2542032.7300000004}},{"attributes":{"ID":457175,"DIS_CODE":0,"TOWNNAME":"東區","LI":"忠孝里","LIN":"41鄰","STREET":"崇明路","SECT":" ","MAREA":" ","LANE":"２６６巷","ALLEY":" ","HOUSE_NO":"１號十一樓","E_COORD97":169948.45999999999,"N_COORD97":2542032.73,"ADDRESS":"崇明路２６６巷１號十一樓","OBJECTID":457150},"geometry":{"x":169948.46000000089,"y":2542032.7300000004}},{"attributes":{"ID":457176,"DIS_CODE":0,"TOWNNAME":"東區","LI":"忠孝里","LIN":"41鄰","STREET":"崇明路","SECT":" ","MAREA":" ","LANE":"２６６巷","ALLEY":" ","HOUSE_NO":"１號十一樓之１","E_COORD97":169948.45999999999,"N_COORD97":2542032.73,"ADDRESS":"崇明路２６６巷１號十一樓之１","OBJECTID":457151},"geometry":{"x":169948.46000000089,"y":2542032.7300000004}},{"attributes":{"ID":457177,"DIS_CODE":0,"TOWNNAME":"東區","LI":"忠孝里","LIN":"41鄰","STREET":"崇明路","SECT":" ","MAREA":" ","LANE":"２６６巷","ALLEY":" ","HOUSE_NO":"１號十一樓之２","E_COORD97":169948.45999999999,"N_COORD97":2542032.73,"ADDRESS":"崇明路２６６巷１號十一樓之２","OBJECTID":457152},"geometry":{"x":169948.46000000089,"y":2542032.7300000004}},{"attributes":{"ID":457178,"DIS_CODE":0,"TOWNNAME":"東區","LI":"忠孝里","LIN":"41鄰","STREET":"崇明路","SECT":" ","MAREA":" ","LANE":"２６６巷","ALLEY":" ","HOUSE_NO":"１號十二樓","E_COORD97":169948.45999999999,"N_COORD97":2542032.73,"ADDRESS":"崇明路２６６巷１號十二樓","OBJECTID":457153},"geometry":{"x":169948.46000000089,"y":2542032.7300000004}},{"attributes":{"ID":457179,"DIS_CODE":0,"TOWNNAME":"東區","LI":"崇文里","LIN":"40鄰","STREET":"生產路","SECT":" ","MAREA":" ","LANE":" ","ALLEY":" ","HOUSE_NO":"２７７號三樓","E_COORD97":170920.14000000001,"N_COORD97":2540618.3100000001,"ADDRESS":"生產路２７７號三樓","OBJECTID":457154},"geometry":{"x":170920.13999999966,"y":2540618.3100000005}},{"attributes":{"ID":457180,"DIS_CODE":0,"TOWNNAME":"東區","LI":"和平里","LIN":"1鄰","STREET":"仁和路","SECT":" ","MAREA":" ","LANE":" ","ALLEY":" ","HOUSE_NO":"３７號六樓","E_COORD97":171099.45000000001,"N_COORD97":2542097.2200000002,"ADDRESS":"仁和路３７號六樓","OBJECTID":457155},"geometry":{"x":171099.45000000112,"y":2542097.2200000007}},{"attributes":{"ID":457181,"DIS_CODE":0,"TOWNNAME":"東區","LI":"忠孝里","LIN":"41鄰","STREET":"崇明路","SECT":" ","MAREA":" ","LANE":"２６６巷","ALLEY":" ","HOUSE_NO":"１號十二樓之１","E_COORD97":169948.45999999999,"N_COORD97":2542032.73,"ADDRESS":"崇明路２６６巷１號十二樓之１","OBJECTID":457156},"geometry":{"x":169948.46000000089,"y":2542032.7300000004}},{"attributes":{"ID":457182,"DIS_CODE":0,"TOWNNAME":"東區","LI":"忠孝里","LIN":"41鄰","STREET":"崇明路","SECT":" ","MAREA":" ","LANE":"２６６巷","ALLEY":" ","HOUSE_NO":"１號十二樓之２","E_COORD97":169948.45999999999,"N_COORD97":2542032.73,"ADDRESS":"崇明路２６６巷１號十二樓之２","OBJECTID":457157},"geometry":{"x":169948.46000000089,"y":2542032.7300000004}},{"attributes":{"ID":457183,"DIS_CODE":0,"TOWNNAME":"東區","LI":"忠孝里","LIN":"41鄰","STREET":"崇明路","SECT":" ","MAREA":" ","LANE":"２６６巷","ALLEY":" ","HOUSE_NO":"１號十三樓","E_COORD97":169948.45999999999,"N_COORD97":2542032.73,"ADDRESS":"崇明路２６６巷１號十三樓","OBJECTID":457158},"geometry":{"x":169948.46000000089,"y":2542032.7300000004}},{"attributes":{"ID":457184,"DIS_CODE":0,"TOWNNAME":"東區","LI":"忠孝里","LIN":"41鄰","STREET":"崇明路","SECT":" ","MAREA":" ","LANE":"２６６巷","ALLEY":" ","HOUSE_NO":"１號十三樓之１","E_COORD97":169948.45999999999,"N_COORD97":2542032.73,"ADDRESS":"崇明路２６６巷１號十三樓之１","OBJECTID":457159},"geometry":{"x":169948.46000000089,"y":2542032.7300000004}},{"attributes":{"ID":457185,"DIS_CODE":0,"TOWNNAME":"東區","LI":"忠孝里","LIN":"41鄰","STREET":"崇明路","SECT":" ","MAREA":" ","LANE":"２６６巷","ALLEY":" ","HOUSE_NO":"１號十三樓之２","E_COORD97":169948.45999999999,"N_COORD97":2542032.73,"ADDRESS":"崇明路２６６巷１號十三樓之２","OBJECTID":457160},"geometry":{"x":169948.46000000089,"y":2542032.7300000004}},{"attributes":{"ID":457186,"DIS_CODE":0,"TOWNNAME":"東區","LI":"忠孝里","LIN":"41鄰","STREET":"崇明路","SECT":" ","MAREA":" ","LANE":"２６６巷","ALLEY":" ","HOUSE_NO":"１號十五樓","E_COORD97":169948.45999999999,"N_COORD97":2542032.73,"ADDRESS":"崇明路２６６巷１號十五樓","OBJECTID":457161},"geometry":{"x":169948.46000000089,"y":2542032.7300000004}},{"attributes":{"ID":457187,"DIS_CODE":0,"TOWNNAME":"東區","LI":"忠孝里","LIN":"41鄰","STREET":"崇明路","SECT":" ","MAREA":" ","LANE":"２６６巷","ALLEY":" ","HOUSE_NO":"１號十五樓之２","E_COORD97":169948.45999999999,"N_COORD97":2542032.73,"ADDRESS":"崇明路２６６巷１號十五樓之２","OBJECTID":457162},"geometry":{"x":169948.46000000089,"y":2542032.7300000004}},{"attributes":{"ID":457188,"DIS_CODE":0,"TOWNNAME":"東區","LI":"忠孝里","LIN":"41鄰","STREET":"崇明路","SECT":" ","MAREA":" ","LANE":"２６６巷","ALLEY":" ","HOUSE_NO":"１號十四樓","E_COORD97":169948.45999999999,"N_COORD97":2542032.73,"ADDRESS":"崇明路２６６巷１號十四樓","OBJECTID":457163},"geometry":{"x":169948.46000000089,"y":2542032.7300000004}},{"attributes":{"ID":457189,"DIS_CODE":0,"TOWNNAME":"東區","LI":"忠孝里","LIN":"41鄰","STREET":"崇明路","SECT":" ","MAREA":" ","LANE":"２６６巷","ALLEY":" ","HOUSE_NO":"１號十四樓之２","E_COORD97":169948.45999999999,"N_COORD97":2542032.73,"ADDRESS":"崇明路２６６巷１號十四樓之２","OBJECTID":457164},"geometry":{"x":169948.46000000089,"y":2542032.7300000004}},{"attributes":{"ID":457190,"DIS_CODE":0,"TOWNNAME":"東區","LI":"忠孝里","LIN":"41鄰","STREET":"崇明路","SECT":" ","MAREA":" ","LANE":"２６６巷","ALLEY":" ","HOUSE_NO":"１號十樓之１","E_COORD97":169948.45999999999,"N_COORD97":2542032.73,"ADDRESS":"崇明路２６６巷１號十樓之１","OBJECTID":457165},"geometry":{"x":169948.46000000089,"y":2542032.7300000004}},{"attributes":{"ID":457191,"DIS_CODE":0,"TOWNNAME":"東區","LI":"忠孝里","LIN":"41鄰","STREET":"崇明路","SECT":" ","MAREA":" ","LANE":"２６６巷","ALLEY":" ","HOUSE_NO":"１號十樓之２","E_COORD97":169948.45999999999,"N_COORD97":2542032.73,"ADDRESS":"崇明路２６６巷１號十樓之２","OBJECTID":457166},"geometry":{"x":169948.46000000089,"y":2542032.7300000004}},{"attributes":{"ID":457192,"DIS_CODE":0,"TOWNNAME":"東區","LI":"忠孝里","LIN":"41鄰","STREET":"崇明路","SECT":" ","MAREA":" ","LANE":"２６６巷","ALLEY":" ","HOUSE_NO":"１號三樓","E_COORD97":169948.45999999999,"N_COORD97":2542032.73,"ADDRESS":"崇明路２６６巷１號三樓","OBJECTID":457167},"geometry":{"x":169948.46000000089,"y":2542032.7300000004}},{"attributes":{"ID":457193,"DIS_CODE":0,"TOWNNAME":"東區","LI":"忠孝里","LIN":"41鄰","STREET":"崇明路","SECT":" ","MAREA":" ","LANE":"２６６巷","ALLEY":" ","HOUSE_NO":"１號三樓之１","E_COORD97":169948.45999999999,"N_COORD97":2542032.73,"ADDRESS":"崇明路２６６巷１號三樓之１","OBJECTID":457168},"geometry":{"x":169948.46000000089,"y":2542032.7300000004}},{"attributes":{"ID":457194,"DIS_CODE":0,"TOWNNAME":"東區","LI":"忠孝里","LIN":"41鄰","STREET":"崇明路","SECT":" ","MAREA":" ","LANE":"２６６巷","ALLEY":" ","HOUSE_NO":"１號三樓之２","E_COORD97":169948.45999999999,"N_COORD97":2542032.73,"ADDRESS":"崇明路２６６巷１號三樓之２","OBJECTID":457169},"geometry":{"x":169948.46000000089,"y":2542032.7300000004}},{"attributes":{"ID":457195,"DIS_CODE":0,"TOWNNAME":"東區","LI":"忠孝里","LIN":"41鄰","STREET":"崇明路","SECT":" ","MAREA":" ","LANE":"２６６巷","ALLEY":" ","HOUSE_NO":"１號五樓","E_COORD97":169948.45999999999,"N_COORD97":2542032.73,"ADDRESS":"崇明路２６６巷１號五樓","OBJECTID":457170},"geometry":{"x":169948.46000000089,"y":2542032.7300000004}},{"attributes":{"ID":457196,"DIS_CODE":0,"TOWNNAME":"東區","LI":"忠孝里","LIN":"41鄰","STREET":"崇明路","SECT":" ","MAREA":" ","LANE":"２６６巷","ALLEY":" ","HOUSE_NO":"１號五樓之１","E_COORD97":169948.45999999999,"N_COORD97":2542032.73,"ADDRESS":"崇明路２６６巷１號五樓之１","OBJECTID":457171},"geometry":{"x":169948.46000000089,"y":2542032.7300000004}},{"attributes":{"ID":457197,"DIS_CODE":0,"TOWNNAME":"東區","LI":"忠孝里","LIN":"41鄰","STREET":"崇明路","SECT":" ","MAREA":" ","LANE":"２６６巷","ALLEY":" ","HOUSE_NO":"１號五樓之２","E_COORD97":169948.45999999999,"N_COORD97":2542032.73,"ADDRESS":"崇明路２６６巷１號五樓之２","OBJECTID":457172},"geometry":{"x":169948.46000000089,"y":2542032.7300000004}},{"attributes":{"ID":457198,"DIS_CODE":0,"TOWNNAME":"東區","LI":"忠孝里","LIN":"41鄰","STREET":"崇明路","SECT":" ","MAREA":" ","LANE":"２６６巷","ALLEY":" ","HOUSE_NO":"１號六樓","E_COORD97":169948.45999999999,"N_COORD97":2542032.73,"ADDRESS":"崇明路２６６巷１號六樓","OBJECTID":457173},"geometry":{"x":169948.46000000089,"y":2542032.7300000004}},{"attributes":{"ID":457199,"DIS_CODE":0,"TOWNNAME":"東區","LI":"忠孝里","LIN":"41鄰","STREET":"崇明路","SECT":" ","MAREA":" ","LANE":"２６６巷","ALLEY":" ","HOUSE_NO":"１號六樓之１","E_COORD97":169948.45999999999,"N_COORD97":2542032.73,"ADDRESS":"崇明路２６６巷１號六樓之１","OBJECTID":457174},"geometry":{"x":169948.46000000089,"y":2542032.7300000004}},{"attributes":{"ID":457200,"DIS_CODE":0,"TOWNNAME":"東區","LI":"忠孝里","LIN":"41鄰","STREET":"崇明路","SECT":" ","MAREA":" ","LANE":"２６６巷","ALLEY":" ","HOUSE_NO":"１號六樓之２","E_COORD97":169948.45999999999,"N_COORD97":2542032.73,"ADDRESS":"崇明路２６６巷１號六樓之２","OBJECTID":457175},"geometry":{"x":169948.46000000089,"y":2542032.7300000004}},{"attributes":{"ID":457201,"DIS_CODE":0,"TOWNNAME":"東區","LI":"忠孝里","LIN":"41鄰","STREET":"崇明路","SECT":" ","MAREA":" ","LANE":"２６６巷","ALLEY":" ","HOUSE_NO":"１號四樓","E_COORD97":169948.45999999999,"N_COORD97":2542032.73,"ADDRESS":"崇明路２６６巷１號四樓","OBJECTID":457176},"geometry":{"x":169948.46000000089,"y":2542032.7300000004}},{"attributes":{"ID":457202,"DIS_CODE":0,"TOWNNAME":"東區","LI":"忠孝里","LIN":"41鄰","STREET":"崇明路","SECT":" ","MAREA":" ","LANE":"２６６巷","ALLEY":" ","HOUSE_NO":"１號四樓之１","E_COORD97":169948.45999999999,"N_COORD97":2542032.73,"ADDRESS":"崇明路２６６巷１號四樓之１","OBJECTID":457177},"geometry":{"x":169948.46000000089,"y":2542032.7300000004}},{"attributes":{"ID":457203,"DIS_CODE":0,"TOWNNAME":"楠西區","LI":"楠西里","LIN":"26鄰","STREET":"博愛路","SECT":" ","MAREA":" ","LANE":"２０３巷","ALLEY":" ","HOUSE_NO":"１９號","E_COORD97":197073.01999999999,"N_COORD97":2563579.2799999998,"ADDRESS":"博愛路２０３巷１９號","OBJECTID":457178},"geometry":{"x":197073.01999999955,"y":2563579.2799999993}},{"attributes":{"ID":457204,"DIS_CODE":0,"TOWNNAME":"東區","LI":"忠孝里","LIN":"41鄰","STREET":"崇明路","SECT":" ","MAREA":" ","LANE":"２６６巷","ALLEY":" ","HOUSE_NO":"１號四樓之２","E_COORD97":169948.45999999999,"N_COORD97":2542032.73,"ADDRESS":"崇明路２６６巷１號四樓之２","OBJECTID":457179},"geometry":{"x":169948.46000000089,"y":2542032.7300000004}},{"attributes":{"ID":457205,"DIS_CODE":0,"TOWNNAME":"東區","LI":"忠孝里","LIN":"41鄰","STREET":"崇明路","SECT":" ","MAREA":" ","LANE":"２６６巷","ALLEY":" ","HOUSE_NO":"５號七樓","E_COORD97":169960.72,"N_COORD97":2542014.2599999998,"ADDRESS":"崇明路２６６巷５號七樓","OBJECTID":457180},"geometry":{"x":169960.71999999974,"y":2542014.2599999998}},{"attributes":{"ID":457206,"DIS_CODE":0,"TOWNNAME":"東區","LI":"忠孝里","LIN":"41鄰","STREET":"崇明路","SECT":" ","MAREA":" ","LANE":"２６６巷","ALLEY":" ","HOUSE_NO":"５號七樓之１","E_COORD97":169960.72,"N_COORD97":2542014.2599999998,"ADDRESS":"崇明路２６６巷５號七樓之１","OBJECTID":457181},"geometry":{"x":169960.71999999974,"y":2542014.2599999998}},{"attributes":{"ID":457207,"DIS_CODE":0,"TOWNNAME":"東區","LI":"忠孝里","LIN":"41鄰","STREET":"崇明路","SECT":" ","MAREA":" ","LANE":"２６６巷","ALLEY":" ","HOUSE_NO":"５號九樓","E_COORD97":169960.72,"N_COORD97":2542014.2599999998,"ADDRESS":"崇明路２６６巷５號九樓","OBJECTID":457182},"geometry":{"x":169960.71999999974,"y":2542014.2599999998}},{"attributes":{"ID":457208,"DIS_CODE":0,"TOWNNAME":"東區","LI":"忠孝里","LIN":"41鄰","STREET":"崇明路","SECT":" ","MAREA":" ","LANE":"２６６巷","ALLEY":" ","HOUSE_NO":"５號九樓之１","E_COORD97":169960.72,"N_COORD97":2542014.2599999998,"ADDRESS":"崇明路２６６巷５號九樓之１","OBJECTID":457183},"geometry":{"x":169960.71999999974,"y":2542014.2599999998}},{"attributes":{"ID":457209,"DIS_CODE":0,"TOWNNAME":"東區","LI":"忠孝里","LIN":"41鄰","STREET":"崇明路","SECT":" ","MAREA":" ","LANE":"２６６巷","ALLEY":" ","HOUSE_NO":"５號八樓","E_COORD97":169960.72,"N_COORD97":2542014.2599999998,"ADDRESS":"崇明路２６６巷５號八樓","OBJECTID":457184},"geometry":{"x":169960.71999999974,"y":2542014.2599999998}},{"attributes":{"ID":457210,"DIS_CODE":0,"TOWNNAME":"東區","LI":"忠孝里","LIN":"41鄰","STREET":"崇明路","SECT":" ","MAREA":" ","LANE":"２６６巷","ALLEY":" ","HOUSE_NO":"５號八樓之１","E_COORD97":169960.72,"N_COORD97":2542014.2599999998,"ADDRESS":"崇明路２６６巷５號八樓之１","OBJECTID":457185},"geometry":{"x":169960.71999999974,"y":2542014.2599999998}},{"attributes":{"ID":457211,"DIS_CODE":0,"TOWNNAME":"東區","LI":"忠孝里","LIN":"41鄰","STREET":"崇明路","SECT":" ","MAREA":" ","LANE":"２６６巷","ALLEY":" ","HOUSE_NO":"５號十一樓","E_COORD97":169960.72,"N_COORD97":2542014.2599999998,"ADDRESS":"崇明路２６６巷５號十一樓","OBJECTID":457186},"geometry":{"x":169960.71999999974,"y":2542014.2599999998}},{"attributes":{"ID":457212,"DIS_CODE":0,"TOWNNAME":"東區","LI":"忠孝里","LIN":"41鄰","STREET":"崇明路","SECT":" ","MAREA":" ","LANE":"２６６巷","ALLEY":" ","HOUSE_NO":"５號十一樓之１","E_COORD97":169960.72,"N_COORD97":2542014.2599999998,"ADDRESS":"崇明路２６６巷５號十一樓之１","OBJECTID":457187},"geometry":{"x":169960.71999999974,"y":2542014.2599999998}},{"attributes":{"ID":457213,"DIS_CODE":0,"TOWNNAME":"東區","LI":"忠孝里","LIN":"41鄰","STREET":"崇明路","SECT":" ","MAREA":" ","LANE":"２６６巷","ALLEY":" ","HOUSE_NO":"５號十二樓","E_COORD97":169960.72,"N_COORD97":2542014.2599999998,"ADDRESS":"崇明路２６６巷５號十二樓","OBJECTID":457188},"geometry":{"x":169960.71999999974,"y":2542014.2599999998}},{"attributes":{"ID":457214,"DIS_CODE":0,"TOWNNAME":"東區","LI":"忠孝里","LIN":"41鄰","STREET":"崇明路","SECT":" ","MAREA":" ","LANE":"２６６巷","ALLEY":" ","HOUSE_NO":"５號十二樓之１","E_COORD97":169960.72,"N_COORD97":2542014.2599999998,"ADDRESS":"崇明路２６６巷５號十二樓之１","OBJECTID":457189},"geometry":{"x":169960.71999999974,"y":2542014.2599999998}},{"attributes":{"ID":457215,"DIS_CODE":0,"TOWNNAME":"東區","LI":"忠孝里","LIN":"41鄰","STREET":"崇明路","SECT":" ","MAREA":" ","LANE":"２６６巷","ALLEY":" ","HOUSE_NO":"５號十三樓","E_COORD97":169960.72,"N_COORD97":2542014.2599999998,"ADDRESS":"崇明路２６６巷５號十三樓","OBJECTID":457190},"geometry":{"x":169960.71999999974,"y":2542014.2599999998}},{"attributes":{"ID":457216,"DIS_CODE":0,"TOWNNAME":"東區","LI":"忠孝里","LIN":"41鄰","STREET":"崇明路","SECT":" ","MAREA":" ","LANE":"２６６巷","ALLEY":" ","HOUSE_NO":"５號十三樓之１","E_COORD97":169960.72,"N_COORD97":2542014.2599999998,"ADDRESS":"崇明路２６６巷５號十三樓之１","OBJECTID":457191},"geometry":{"x":169960.71999999974,"y":2542014.2599999998}},{"attributes":{"ID":457217,"DIS_CODE":0,"TOWNNAME":"東區","LI":"忠孝里","LIN":"41鄰","STREET":"崇明路","SECT":" ","MAREA":" ","LANE":"２６６巷","ALLEY":" ","HOUSE_NO":"５號十五樓","E_COORD97":169960.72,"N_COORD97":2542014.2599999998,"ADDRESS":"崇明路２６６巷５號十五樓","OBJECTID":457192},"geometry":{"x":169960.71999999974,"y":2542014.2599999998}},{"attributes":{"ID":457218,"DIS_CODE":0,"TOWNNAME":"東區","LI":"忠孝里","LIN":"41鄰","STREET":"崇明路","SECT":" ","MAREA":" ","LANE":"２６６巷","ALLEY":" ","HOUSE_NO":"５號十五樓之１","E_COORD97":169960.72,"N_COORD97":2542014.2599999998,"ADDRESS":"崇明路２６６巷５號十五樓之１","OBJECTID":457193},"geometry":{"x":169960.71999999974,"y":2542014.2599999998}},{"attributes":{"ID":457219,"DIS_CODE":0,"TOWNNAME":"東區","LI":"忠孝里","LIN":"41鄰","STREET":"崇明路","SECT":" ","MAREA":" ","LANE":"２６６巷","ALLEY":" ","HOUSE_NO":"５號十四樓","E_COORD97":169960.72,"N_COORD97":2542014.2599999998,"ADDRESS":"崇明路２６６巷５號十四樓","OBJECTID":457194},"geometry":{"x":169960.71999999974,"y":2542014.2599999998}},{"attributes":{"ID":457220,"DIS_CODE":0,"TOWNNAME":"東區","LI":"忠孝里","LIN":"41鄰","STREET":"崇明路","SECT":" ","MAREA":" ","LANE":"２６６巷","ALLEY":" ","HOUSE_NO":"５號十四樓之１","E_COORD97":169960.72,"N_COORD97":2542014.2599999998,"ADDRESS":"崇明路２６６巷５號十四樓之１","OBJECTID":457195},"geometry":{"x":169960.71999999974,"y":2542014.2599999998}},{"attributes":{"ID":457221,"DIS_CODE":0,"TOWNNAME":"東區","LI":"忠孝里","LIN":"41鄰","STREET":"崇明路","SECT":" ","MAREA":" ","LANE":"２６６巷","ALLEY":" ","HOUSE_NO":"５號十樓","E_COORD97":169960.72,"N_COORD97":2542014.2599999998,"ADDRESS":"崇明路２６６巷５號十樓","OBJECTID":457196},"geometry":{"x":169960.71999999974,"y":2542014.2599999998}},{"attributes":{"ID":457222,"DIS_CODE":0,"TOWNNAME":"東區","LI":"忠孝里","LIN":"41鄰","STREET":"崇明路","SECT":" ","MAREA":" ","LANE":"２６６巷","ALLEY":" ","HOUSE_NO":"５號十樓之１","E_COORD97":169960.72,"N_COORD97":2542014.2599999998,"ADDRESS":"崇明路２６６巷５號十樓之１","OBJECTID":457197},"geometry":{"x":169960.71999999974,"y":2542014.2599999998}},{"attributes":{"ID":457223,"DIS_CODE":0,"TOWNNAME":"東區","LI":"忠孝里","LIN":"41鄰","STREET":"崇明路","SECT":" ","MAREA":" ","LANE":"２６６巷","ALLEY":" ","HOUSE_NO":"５號三樓","E_COORD97":169960.72,"N_COORD97":2542014.2599999998,"ADDRESS":"崇明路２６６巷５號三樓","OBJECTID":457198},"geometry":{"x":169960.71999999974,"y":2542014.2599999998}},{"attributes":{"ID":457224,"DIS_CODE":0,"TOWNNAME":"東區","LI":"忠孝里","LIN":"41鄰","STREET":"崇明路","SECT":" ","MAREA":" ","LANE":"２６６巷","ALLEY":" ","HOUSE_NO":"５號三樓之１","E_COORD97":169960.72,"N_COORD97":2542014.2599999998,"ADDRESS":"崇明路２６６巷５號三樓之１","OBJECTID":457199},"geometry":{"x":169960.71999999974,"y":2542014.2599999998}},{"attributes":{"ID":457225,"DIS_CODE":0,"TOWNNAME":"東區","LI":"忠孝里","LIN":"41鄰","STREET":"崇明路","SECT":" ","MAREA":" ","LANE":"２６６巷","ALLEY":" ","HOUSE_NO":"５號五樓","E_COORD97":169960.72,"N_COORD97":2542014.2599999998,"ADDRESS":"崇明路２６６巷５號五樓","OBJECTID":457200},"geometry":{"x":169960.71999999974,"y":2542014.2599999998}}]}