{"displayFieldName":"TOWNNAME","fieldAliases":{"ID":"ID","DIS_CODE":"DIS_CODE","TOWNNAME":"TOWNNAME","LI":"LI","LIN":"LIN","STREET":"STREET","SECT":"SECT","MAREA":"MAREA","LANE":"LANE","ALLEY":"ALLEY","HOUSE_NO":"HOUSE_NO","E_COORD97":"E_COORD97","N_COORD97":"N_COORD97","ADDRESS":"ADDRESS","OBJECTID":"OBJECTID"},"geometryType":"esriGeometryPoint","spatialReference":{"wkid":102443,"latestWkid":3826},"fields":[{"name":"ID","type":"esriFieldTypeDouble","alias":"ID"},{"name":"DIS_CODE","type":"esriFieldTypeInteger","alias":"DIS_CODE"},{"name":"TOWNNAME","type":"esriFieldTypeString","alias":"TOWNNAME","length":8},{"name":"LI","type":"esriFieldTypeString","alias":"LI","length":8},{"name":"LIN","type":"esriFieldTypeString","alias":"LIN","length":12},{"name":"STREET","type":"esriFieldTypeString","alias":"STREET","length":20},{"name":"SECT","type":"esriFieldTypeString","alias":"SECT","length":8},{"name":"MAREA","type":"esriFieldTypeString","alias":"MAREA","length":12},{"name":"LANE","type":"esriFieldTypeString","alias":"LANE","length":10},{"name":"ALLEY","type":"esriFieldTypeString","alias":"ALLEY","length":10},{"name":"HOUSE_NO","type":"esriFieldTypeString","alias":"HOUSE_NO","length":20},{"name":"E_COORD97","type":"esriFieldTypeDouble","alias":"E_COORD97"},{"name":"N_COORD97","type":"esriFieldTypeDouble","alias":"N_COORD97"},{"name":"ADDRESS","type":"esriFieldTypeString","alias":"ADDRESS","length":50},{"name":"OBJECTID","type":"esriFieldTypeOID","alias":"OBJECTID"}],"features":[{"attributes":{"ID":632828,"DIS_CODE":0,"TOWNNAME":"南區","LI":"大恩里","LIN":"4鄰","STREET":"國民路","SECT":" ","MAREA":" ","LANE":" ","ALLEY":" ","HOUSE_NO":"１４４號","E_COORD97":169228.23000000001,"N_COORD97":2540906.0800000001,"ADDRESS":"國民路１４４號","OBJECTID":632801},"geometry":{"x":169228.23000000138,"y":2540906.0800000019}},{"attributes":{"ID":632829,"DIS_CODE":0,"TOWNNAME":"南區","LI":"大恩里","LIN":"4鄰","STREET":"國民路","SECT":" ","MAREA":" ","LANE":" ","ALLEY":" ","HOUSE_NO":"１４６號","E_COORD97":169225.98000000001,"N_COORD97":2540907.52,"ADDRESS":"國民路１４６號","OBJECTID":632802},"geometry":{"x":169225.98000000231,"y":2540907.5199999996}},{"attributes":{"ID":632830,"DIS_CODE":0,"TOWNNAME":"南區","LI":"大恩里","LIN":"4鄰","STREET":"國民路","SECT":" ","MAREA":" ","LANE":" ","ALLEY":" ","HOUSE_NO":"１４８號","E_COORD97":169222.10999999999,"N_COORD97":2540908.4900000002,"ADDRESS":"國民路１４８號","OBJECTID":632803},"geometry":{"x":169222.11000000127,"y":2540908.4900000002}},{"attributes":{"ID":632831,"DIS_CODE":0,"TOWNNAME":"新營區","LI":"好平里","LIN":"13鄰","STREET":"復興路","SECT":" ","MAREA":" ","LANE":" ","ALLEY":" ","HOUSE_NO":"１２５之１號","E_COORD97":179440.41327399999,"N_COORD97":2578038.9194100001,"ADDRESS":"復興路１２５之１號","OBJECTID":632804},"geometry":{"x":179440.41327399947,"y":2578038.9194099978}},{"attributes":{"ID":632832,"DIS_CODE":0,"TOWNNAME":"新營區","LI":"好平里","LIN":"5鄰","STREET":"南昌街","SECT":" ","MAREA":" ","LANE":" ","ALLEY":" ","HOUSE_NO":"４４號之８","E_COORD97":179470.37,"N_COORD97":2577679.3599999999,"ADDRESS":"南昌街４４號之８","OBJECTID":632805},"geometry":{"x":179470.37000000197,"y":2577679.3599999994}},{"attributes":{"ID":632833,"DIS_CODE":0,"TOWNNAME":"新營區","LI":"大宏里","LIN":" ","STREET":"大同路","SECT":" ","MAREA":" ","LANE":" ","ALLEY":" ","HOUSE_NO":"２７之１１號","E_COORD97":180671.04999999999,"N_COORD97":2578678.1600000001,"ADDRESS":"大同路２７之１１號","OBJECTID":632806},"geometry":{"x":180671.05000000075,"y":2578678.1600000001}},{"attributes":{"ID":632834,"DIS_CODE":0,"TOWNNAME":"新營區","LI":"新北里","LIN":"18鄰","STREET":"民生路","SECT":" ","MAREA":" ","LANE":" ","ALLEY":" ","HOUSE_NO":"２２０號","E_COORD97":179060.29999999999,"N_COORD97":2579035.6800000002,"ADDRESS":"民生路２２０號","OBJECTID":632807},"geometry":{"x":179060.30000000168,"y":2579035.6800000016}},{"attributes":{"ID":632835,"DIS_CODE":0,"TOWNNAME":"新營區","LI":"大宏里","LIN":"20鄰","STREET":"民族路","SECT":" ","MAREA":" ","LANE":" ","ALLEY":" ","HOUSE_NO":"１２號","E_COORD97":180304.04000000001,"N_COORD97":2578441.71,"ADDRESS":"民族路１２號","OBJECTID":632808},"geometry":{"x":180304.04000000004,"y":2578441.7100000009}},{"attributes":{"ID":632836,"DIS_CODE":0,"TOWNNAME":"新營區","LI":"民生里","LIN":"2鄰","STREET":"三興街","SECT":" ","MAREA":" ","LANE":" ","ALLEY":" ","HOUSE_NO":"１號之４","E_COORD97":179471.19,"N_COORD97":2578131.1899999999,"ADDRESS":"三興街１號之４","OBJECTID":632809},"geometry":{"x":179471.19000000041,"y":2578131.1900000013}},{"attributes":{"ID":632837,"DIS_CODE":0,"TOWNNAME":"新營區","LI":"民榮里","LIN":" ","STREET":"興農街","SECT":" ","MAREA":" ","LANE":" ","ALLEY":" ","HOUSE_NO":"４號","E_COORD97":179253.31,"N_COORD97":2577993.73,"ADDRESS":"興農街４號","OBJECTID":632810},"geometry":{"x":179253.31000000145,"y":2577993.7300000004}},{"attributes":{"ID":632838,"DIS_CODE":0,"TOWNNAME":"新營區","LI":"新東里","LIN":"18鄰","STREET":"東興四街","SECT":" ","MAREA":" ","LANE":" ","ALLEY":" ","HOUSE_NO":"３７號","E_COORD97":180867.07999999999,"N_COORD97":2579182.1699999999,"ADDRESS":"東興四街３７號","OBJECTID":632811},"geometry":{"x":180867.08000000007,"y":2579182.1700000018}},{"attributes":{"ID":632839,"DIS_CODE":0,"TOWNNAME":"新營區","LI":"三仙里","LIN":"26鄰","STREET":"育德三街","SECT":" ","MAREA":" ","LANE":" ","ALLEY":" ","HOUSE_NO":"４０號","E_COORD97":179498.73000000001,"N_COORD97":2579004.7799999998,"ADDRESS":"育德三街４０號","OBJECTID":632812},"geometry":{"x":179498.73000000231,"y":2579004.7800000012}},{"attributes":{"ID":632840,"DIS_CODE":0,"TOWNNAME":"新營區","LI":"新南里","LIN":"25鄰","STREET":"隋唐街","SECT":" ","MAREA":" ","LANE":" ","ALLEY":" ","HOUSE_NO":"３０３號","E_COORD97":178161.09,"N_COORD97":2578580.4199999999,"ADDRESS":"隋唐街３０３號","OBJECTID":632813},"geometry":{"x":178161.08999999985,"y":2578580.4200000018}},{"attributes":{"ID":632841,"DIS_CODE":0,"TOWNNAME":"新營區","LI":"埤寮里","LIN":"13鄰","STREET":"中正路","SECT":" ","MAREA":" ","LANE":" ","ALLEY":" ","HOUSE_NO":"４６３號","E_COORD97":180046.73000000001,"N_COORD97":2580421.9500000002,"ADDRESS":"中正路４６３號","OBJECTID":632814},"geometry":{"x":180046.73000000138,"y":2580421.9499999993}},{"attributes":{"ID":632842,"DIS_CODE":0,"TOWNNAME":"新營區","LI":"興業里","LIN":"4鄰","STREET":"公誠街","SECT":" ","MAREA":" ","LANE":" ","ALLEY":" ","HOUSE_NO":"７之６號","E_COORD97":180299.31,"N_COORD97":2578036.46,"ADDRESS":"公誠街７之６號","OBJECTID":632815},"geometry":{"x":180299.31000000052,"y":2578036.4600000009}},{"attributes":{"ID":632843,"DIS_CODE":0,"TOWNNAME":"新營區","LI":"嘉芳里","LIN":"4鄰","STREET":"嘉芳街","SECT":" ","MAREA":" ","LANE":" ","ALLEY":" ","HOUSE_NO":"８５號","E_COORD97":176979.64000000001,"N_COORD97":2578412.3300000001,"ADDRESS":"嘉芳街８５號","OBJECTID":632816},"geometry":{"x":176979.64000000153,"y":2578412.3300000019}},{"attributes":{"ID":632844,"DIS_CODE":0,"TOWNNAME":"新營區","LI":"大宏里","LIN":" ","STREET":"三民路","SECT":" ","MAREA":" ","LANE":" ","ALLEY":" ","HOUSE_NO":"４５之９號","E_COORD97":180324.16,"N_COORD97":2578474.8999999999,"ADDRESS":"三民路４５之９號","OBJECTID":632817},"geometry":{"x":180324.16000000015,"y":2578474.9000000041}},{"attributes":{"ID":632845,"DIS_CODE":0,"TOWNNAME":"新營區","LI":"新北里","LIN":"20鄰","STREET":"民生路","SECT":" ","MAREA":" ","LANE":" ","ALLEY":" ","HOUSE_NO":"３３２之１號","E_COORD97":178923.42000000001,"N_COORD97":2579185.8999999999,"ADDRESS":"民生路３３２之１號","OBJECTID":632818},"geometry":{"x":178923.41999999993,"y":2579185.9000000004}},{"attributes":{"ID":632846,"DIS_CODE":0,"TOWNNAME":"新營區","LI":"新南里","LIN":"20鄰","STREET":"復興路","SECT":" ","MAREA":" ","LANE":" ","ALLEY":" ","HOUSE_NO":"３８８號","E_COORD97":178498.84,"N_COORD97":2578200.0299999998,"ADDRESS":"復興路３８８號","OBJECTID":632819},"geometry":{"x":178498.83999999892,"y":2578200.0300000012}},{"attributes":{"ID":632847,"DIS_CODE":0,"TOWNNAME":"新營區","LI":"新南里","LIN":"24鄰","STREET":"隋唐街","SECT":" ","MAREA":" ","LANE":" ","ALLEY":" ","HOUSE_NO":"２７９號","E_COORD97":178230.60999999999,"N_COORD97":2578574.54,"ADDRESS":"隋唐街２７９號","OBJECTID":632820},"geometry":{"x":178230.61000000127,"y":2578574.5400000028}},{"attributes":{"ID":632848,"DIS_CODE":0,"TOWNNAME":"新營區","LI":"民榮里","LIN":" ","STREET":"裕民路","SECT":" ","MAREA":" ","LANE":" ","ALLEY":" ","HOUSE_NO":"１１之３號","E_COORD97":179188.79000000001,"N_COORD97":2577851.25,"ADDRESS":"裕民路１１之３號","OBJECTID":632821},"geometry":{"x":179188.79000000004,"y":2577851.25}},{"attributes":{"ID":632849,"DIS_CODE":0,"TOWNNAME":"新營區","LI":"新東里","LIN":"25鄰","STREET":"東興路","SECT":" ","MAREA":" ","LANE":" ","ALLEY":" ","HOUSE_NO":"１６３號","E_COORD97":180745.37,"N_COORD97":2579372.1200000001,"ADDRESS":"東興路１６３號","OBJECTID":632822},"geometry":{"x":180745.37000000104,"y":2579372.120000001}},{"attributes":{"ID":632850,"DIS_CODE":0,"TOWNNAME":"新營區","LI":"民榮里","LIN":"24鄰","STREET":"裕民路","SECT":" ","MAREA":" ","LANE":" ","ALLEY":" ","HOUSE_NO":"１０號","E_COORD97":179133.64000000001,"N_COORD97":2577964.4100000001,"ADDRESS":"裕民路１０號","OBJECTID":632823},"geometry":{"x":179133.63999999966,"y":2577964.4100000001}},{"attributes":{"ID":632851,"DIS_CODE":0,"TOWNNAME":"新營區","LI":"南興里","LIN":" ","STREET":"建業路","SECT":" ","MAREA":" ","LANE":" ","ALLEY":" ","HOUSE_NO":"７６之２號","E_COORD97":179349.82000000001,"N_COORD97":2577507.1699999999,"ADDRESS":"建業路７６之２號","OBJECTID":632824},"geometry":{"x":179349.8200000003,"y":2577507.1700000018}},{"attributes":{"ID":632852,"DIS_CODE":0,"TOWNNAME":"新營區","LI":"三仙里","LIN":" ","STREET":"民權路","SECT":" ","MAREA":" ","LANE":" ","ALLEY":" ","HOUSE_NO":"２９之２號","E_COORD97":179715.23000000001,"N_COORD97":2578192.0499999998,"ADDRESS":"民權路２９之２號","OBJECTID":632825},"geometry":{"x":179715.23000000045,"y":2578192.0500000007}},{"attributes":{"ID":632853,"DIS_CODE":0,"TOWNNAME":"新營區","LI":"三仙里","LIN":"13鄰","STREET":"武昌街","SECT":" ","MAREA":" ","LANE":" ","ALLEY":" ","HOUSE_NO":"６５之３號","E_COORD97":179581.67000000001,"N_COORD97":2578299,"ADDRESS":"武昌街６５之３號","OBJECTID":632826},"geometry":{"x":179581.67000000179,"y":2578299.0000000019}},{"attributes":{"ID":632854,"DIS_CODE":0,"TOWNNAME":"新營區","LI":"新東里","LIN":"17鄰","STREET":"東興四街","SECT":" ","MAREA":" ","LANE":" ","ALLEY":" ","HOUSE_NO":"５４號","E_COORD97":180974.35999999999,"N_COORD97":2579171.7000000002,"ADDRESS":"東興四街５４號","OBJECTID":632827},"geometry":{"x":180974.3600000022,"y":2579171.7000000011}},{"attributes":{"ID":632855,"DIS_CODE":0,"TOWNNAME":"新營區","LI":"民生里","LIN":"4鄰","STREET":"三興街","SECT":" ","MAREA":" ","LANE":" ","ALLEY":" ","HOUSE_NO":"１３號之４","E_COORD97":179464.82000000001,"N_COORD97":2578248.6200000001,"ADDRESS":"三興街１３號之４","OBJECTID":632828},"geometry":{"x":179464.82000000123,"y":2578248.6200000029}},{"attributes":{"ID":632856,"DIS_CODE":0,"TOWNNAME":"新營區","LI":"民榮里","LIN":"5鄰","STREET":"興農街","SECT":" ","MAREA":" ","LANE":" ","ALLEY":" ","HOUSE_NO":"４３號","E_COORD97":179274.5,"N_COORD97":2577885.1099999999,"ADDRESS":"興農街４３號","OBJECTID":632829},"geometry":{"x":179274.50000000186,"y":2577885.1099999994}},{"attributes":{"ID":632857,"DIS_CODE":0,"TOWNNAME":"新營區","LI":"忠政里","LIN":"18鄰","STREET":"中正路","SECT":" ","MAREA":" ","LANE":" ","ALLEY":" ","HOUSE_NO":"２１９號之３","E_COORD97":180028.57999999999,"N_COORD97":2579789.7400000002,"ADDRESS":"中正路２１９號之３","OBJECTID":632830},"geometry":{"x":180028.58000000101,"y":2579789.7400000002}},{"attributes":{"ID":632858,"DIS_CODE":0,"TOWNNAME":"新營區","LI":"大宏里","LIN":"20鄰","STREET":"三民路","SECT":" ","MAREA":" ","LANE":" ","ALLEY":" ","HOUSE_NO":"４５之３號","E_COORD97":180351.76999999999,"N_COORD97":2578475.8799999999,"ADDRESS":"三民路４５之３號","OBJECTID":632831},"geometry":{"x":180351.76999999955,"y":2578475.879999999}},{"attributes":{"ID":632859,"DIS_CODE":0,"TOWNNAME":"新營區","LI":"民生里","LIN":"25鄰","STREET":"民生路","SECT":" ","MAREA":" ","LANE":" ","ALLEY":" ","HOUSE_NO":"１４７號","E_COORD97":179228.07000000001,"N_COORD97":2578627.3399999999,"ADDRESS":"民生路１４７號","OBJECTID":632832},"geometry":{"x":179228.0700000003,"y":2578627.3400000036}},{"attributes":{"ID":632860,"DIS_CODE":0,"TOWNNAME":"新營區","LI":"民生里","LIN":"25鄰","STREET":"民生路","SECT":" ","MAREA":" ","LANE":" ","ALLEY":" ","HOUSE_NO":"１５７號","E_COORD97":179221.04999999999,"N_COORD97":2578656.1600000001,"ADDRESS":"民生路１５７號","OBJECTID":632833},"geometry":{"x":179221.04999999981,"y":2578656.1600000039}},{"attributes":{"ID":632861,"DIS_CODE":0,"TOWNNAME":"新營區","LI":"民榮里","LIN":" ","STREET":"裕民路","SECT":" ","MAREA":" ","LANE":" ","ALLEY":" ","HOUSE_NO":"１９之１號","E_COORD97":179205.01999999999,"N_COORD97":2577823.4900000002,"ADDRESS":"裕民路１９之１號","OBJECTID":632834},"geometry":{"x":179205.02000000048,"y":2577823.4900000039}},{"attributes":{"ID":632862,"DIS_CODE":0,"TOWNNAME":"新營區","LI":"民榮里","LIN":" ","STREET":"復興路","SECT":" ","MAREA":" ","LANE":" ","ALLEY":" ","HOUSE_NO":"１５５之１號","E_COORD97":179185.64000000001,"N_COORD97":2578001.8900000001,"ADDRESS":"復興路１５５之１號","OBJECTID":632835},"geometry":{"x":179185.6400000006,"y":2578001.8900000025}},{"attributes":{"ID":632863,"DIS_CODE":0,"TOWNNAME":"新營區","LI":"大宏里","LIN":" ","STREET":"三民路","SECT":" ","MAREA":" ","LANE":" ","ALLEY":" ","HOUSE_NO":"２８之７號","E_COORD97":180368.76999999999,"N_COORD97":2578610.8999999999,"ADDRESS":"三民路２８之７號","OBJECTID":632836},"geometry":{"x":180368.76999999862,"y":2578610.9000000022}},{"attributes":{"ID":632864,"DIS_CODE":0,"TOWNNAME":"新營區","LI":"民權里","LIN":"20鄰","STREET":"仁愛街","SECT":" ","MAREA":" ","LANE":" ","ALLEY":" ","HOUSE_NO":"３９號","E_COORD97":179760.17999999999,"N_COORD97":2578272.6200000001,"ADDRESS":"仁愛街３９號","OBJECTID":632837},"geometry":{"x":179760.18000000063,"y":2578272.620000001}},{"attributes":{"ID":632865,"DIS_CODE":0,"TOWNNAME":"新營區","LI":"南興里","LIN":"26鄰","STREET":"建業路","SECT":" ","MAREA":" ","LANE":" ","ALLEY":" ","HOUSE_NO":"７４號","E_COORD97":179357.56,"N_COORD97":2577510.3999999999,"ADDRESS":"建業路７４號","OBJECTID":632838},"geometry":{"x":179357.55999999959,"y":2577510.4000000004}},{"attributes":{"ID":632866,"DIS_CODE":0,"TOWNNAME":"新營區","LI":"民生里","LIN":"13鄰","STREET":"復興路","SECT":" ","MAREA":" ","LANE":" ","ALLEY":" ","HOUSE_NO":"２８０號","E_COORD97":178720.48000000001,"N_COORD97":2578134.7400000002,"ADDRESS":"復興路２８０號","OBJECTID":632839},"geometry":{"x":178720.48000000045,"y":2578134.7400000021}},{"attributes":{"ID":632867,"DIS_CODE":0,"TOWNNAME":"新營區","LI":"民生里","LIN":"24鄰","STREET":"民生路","SECT":" ","MAREA":" ","LANE":" ","ALLEY":" ","HOUSE_NO":"１２９號","E_COORD97":179245.20000000001,"N_COORD97":2578574.0899999999,"ADDRESS":"民生路１２９號","OBJECTID":632840},"geometry":{"x":179245.20000000112,"y":2578574.0899999999}},{"attributes":{"ID":632868,"DIS_CODE":0,"TOWNNAME":"新營區","LI":"民權里","LIN":"24鄰","STREET":"信義街","SECT":" ","MAREA":" ","LANE":" ","ALLEY":" ","HOUSE_NO":"９１之４號","E_COORD97":179782.23000000001,"N_COORD97":2578752.1099999999,"ADDRESS":"信義街９１之４號","OBJECTID":632841},"geometry":{"x":179782.23000000138,"y":2578752.1100000013}},{"attributes":{"ID":632869,"DIS_CODE":0,"TOWNNAME":"新營區","LI":"三仙里","LIN":"14鄰","STREET":"武昌街","SECT":" ","MAREA":" ","LANE":" ","ALLEY":" ","HOUSE_NO":"７１號之４","E_COORD97":179545.44,"N_COORD97":2578275.9199999999,"ADDRESS":"武昌街７１號之４","OBJECTID":632842},"geometry":{"x":179545.44000000134,"y":2578275.9200000018}},{"attributes":{"ID":632870,"DIS_CODE":0,"TOWNNAME":"新營區","LI":"王公里","LIN":"6鄰","STREET":"民治路","SECT":" ","MAREA":" ","LANE":" ","ALLEY":" ","HOUSE_NO":"８號之１２","E_COORD97":180485.89000000001,"N_COORD97":2578938.1699999999,"ADDRESS":"民治路８號之１２","OBJECTID":632843},"geometry":{"x":180485.8900000006,"y":2578938.1700000018}},{"attributes":{"ID":632871,"DIS_CODE":0,"TOWNNAME":"新營區","LI":"延平里","LIN":" ","STREET":"復興路","SECT":" ","MAREA":" ","LANE":" ","ALLEY":" ","HOUSE_NO":"１之１５０號","E_COORD97":179715.17999999999,"N_COORD97":2577935.1299999999,"ADDRESS":"復興路１之１５０號","OBJECTID":632844},"geometry":{"x":179715.1799999997,"y":2577935.129999999}},{"attributes":{"ID":632872,"DIS_CODE":0,"TOWNNAME":"新營區","LI":"民生里","LIN":" ","STREET":"進修街","SECT":" ","MAREA":" ","LANE":" ","ALLEY":" ","HOUSE_NO":"９之３號","E_COORD97":178930.26999999999,"N_COORD97":2578389.6000000001,"ADDRESS":"進修街９之３號","OBJECTID":632845},"geometry":{"x":178930.27000000048,"y":2578389.6000000015}},{"attributes":{"ID":632873,"DIS_CODE":0,"TOWNNAME":"新營區","LI":"南紙里","LIN":" ","STREET":"南紙街","SECT":" ","MAREA":" ","LANE":" ","ALLEY":" ","HOUSE_NO":"３４號","E_COORD97":177809.98999999999,"N_COORD97":2577732.7000000002,"ADDRESS":"南紙街３４號","OBJECTID":632846},"geometry":{"x":177809.98999999929,"y":2577732.700000003}},{"attributes":{"ID":632874,"DIS_CODE":0,"TOWNNAME":"新營區","LI":"延平里","LIN":"18鄰","STREET":"長春街","SECT":" ","MAREA":" ","LANE":" ","ALLEY":" ","HOUSE_NO":"１３２之５號","E_COORD97":179580.53071600001,"N_COORD97":2577863.6661,"ADDRESS":"長春街１３２之５號","OBJECTID":632847},"geometry":{"x":179580.53071600012,"y":2577863.6661050003}},{"attributes":{"ID":632875,"DIS_CODE":0,"TOWNNAME":"新營區","LI":"大宏里","LIN":"20鄰","STREET":"三民路","SECT":" ","MAREA":" ","LANE":" ","ALLEY":" ","HOUSE_NO":"４５之１１號","E_COORD97":180315.17000000001,"N_COORD97":2578473.8399999999,"ADDRESS":"三民路４５之１１號","OBJECTID":632848},"geometry":{"x":180315.16999999993,"y":2578473.8399999999}},{"attributes":{"ID":632876,"DIS_CODE":0,"TOWNNAME":"新營區","LI":"新東里","LIN":"20鄰","STREET":"東明街","SECT":" ","MAREA":" ","LANE":" ","ALLEY":" ","HOUSE_NO":"７號","E_COORD97":180794.98000000001,"N_COORD97":2579571.2200000002,"ADDRESS":"東明街７號","OBJECTID":632849},"geometry":{"x":180794.98000000045,"y":2579571.2200000007}},{"attributes":{"ID":632877,"DIS_CODE":0,"TOWNNAME":"新營區","LI":"三仙里","LIN":"25鄰","STREET":"育德一街","SECT":" ","MAREA":" ","LANE":" ","ALLEY":" ","HOUSE_NO":"３０號","E_COORD97":179537.26999999999,"N_COORD97":2578933.73,"ADDRESS":"育德一街３０號","OBJECTID":632850},"geometry":{"x":179537.27000000048,"y":2578933.7299999986}},{"attributes":{"ID":632878,"DIS_CODE":0,"TOWNNAME":"新營區","LI":"永生里","LIN":" ","STREET":"康樂街","SECT":" ","MAREA":" ","LANE":" ","ALLEY":" ","HOUSE_NO":"９之２號","E_COORD97":180034.73999999999,"N_COORD97":2577908.1400000001,"ADDRESS":"康樂街９之２號","OBJECTID":632851},"geometry":{"x":180034.74000000115,"y":2577908.1400000025}},{"attributes":{"ID":632879,"DIS_CODE":0,"TOWNNAME":"新營區","LI":"民生里","LIN":"8鄰","STREET":"民生路","SECT":" ","MAREA":" ","LANE":" ","ALLEY":" ","HOUSE_NO":"９號之２","E_COORD97":179359.57999999999,"N_COORD97":2578111.79,"ADDRESS":"民生路９號之２","OBJECTID":632852},"geometry":{"x":179359.58000000007,"y":2578111.7900000028}},{"attributes":{"ID":632880,"DIS_CODE":0,"TOWNNAME":"新營區","LI":"永生里","LIN":"12鄰","STREET":"中山路","SECT":" ","MAREA":" ","LANE":" ","ALLEY":" ","HOUSE_NO":"１９５號之２","E_COORD97":179934.47,"N_COORD97":2578017.1600000001,"ADDRESS":"中山路１９５號之２","OBJECTID":632853},"geometry":{"x":179934.47000000067,"y":2578017.1600000001}},{"attributes":{"ID":632881,"DIS_CODE":0,"TOWNNAME":"新營區","LI":"永生里","LIN":"18鄰","STREET":"康樂街","SECT":" ","MAREA":" ","LANE":" ","ALLEY":" ","HOUSE_NO":"２５號","E_COORD97":179918.85000000001,"N_COORD97":2577870.9700000002,"ADDRESS":"康樂街２５號","OBJECTID":632854},"geometry":{"x":179918.84999999963,"y":2577870.9700000007}},{"attributes":{"ID":632882,"DIS_CODE":0,"TOWNNAME":"新營區","LI":"大宏里","LIN":"26鄰","STREET":"民族路","SECT":" ","MAREA":" ","LANE":" ","ALLEY":" ","HOUSE_NO":"９號之９","E_COORD97":180235.34,"N_COORD97":2578426.5899999999,"ADDRESS":"民族路９號之９","OBJECTID":632855},"geometry":{"x":180235.34000000078,"y":2578426.5900000017}},{"attributes":{"ID":632883,"DIS_CODE":0,"TOWNNAME":"新營區","LI":"延平里","LIN":" ","STREET":"復興路","SECT":" ","MAREA":" ","LANE":" ","ALLEY":" ","HOUSE_NO":"１之１２０號","E_COORD97":179715.17999999999,"N_COORD97":2577935.1299999999,"ADDRESS":"復興路１之１２０號","OBJECTID":632856},"geometry":{"x":179715.1799999997,"y":2577935.129999999}},{"attributes":{"ID":632884,"DIS_CODE":0,"TOWNNAME":"新營區","LI":"南紙里","LIN":"18鄰","STREET":"太子路","SECT":" ","MAREA":" ","LANE":" ","ALLEY":" ","HOUSE_NO":"２１９號","E_COORD97":177759.22,"N_COORD97":2577767.2799999998,"ADDRESS":"太子路２１９號","OBJECTID":632857},"geometry":{"x":177759.22000000067,"y":2577767.2800000012}},{"attributes":{"ID":632885,"DIS_CODE":0,"TOWNNAME":"新營區","LI":"王公里","LIN":"20鄰","STREET":"樂利街","SECT":" ","MAREA":" ","LANE":" ","ALLEY":" ","HOUSE_NO":"９３號","E_COORD97":180405.09,"N_COORD97":2579275.1499999999,"ADDRESS":"樂利街９３號","OBJECTID":632858},"geometry":{"x":180405.09000000078,"y":2579275.1500000004}},{"attributes":{"ID":632886,"DIS_CODE":0,"TOWNNAME":"新營區","LI":"新南里","LIN":"4鄰","STREET":"金華路","SECT":"二段","MAREA":" ","LANE":" ","ALLEY":" ","HOUSE_NO":"１０６號","E_COORD97":178646.88,"N_COORD97":2578795.1299999999,"ADDRESS":"金華路二段１０６號","OBJECTID":632859},"geometry":{"x":178646.88000000082,"y":2578795.1300000008}},{"attributes":{"ID":632887,"DIS_CODE":0,"TOWNNAME":"新營區","LI":"民生里","LIN":" ","STREET":"進修街","SECT":" ","MAREA":" ","LANE":" ","ALLEY":" ","HOUSE_NO":"１１之２４號","E_COORD97":179083.19,"N_COORD97":2578395.52,"ADDRESS":"進修街１１之２４號","OBJECTID":632860},"geometry":{"x":179083.19000000041,"y":2578395.5200000033}},{"attributes":{"ID":632888,"DIS_CODE":0,"TOWNNAME":"新營區","LI":"民榮里","LIN":" ","STREET":"南昌街","SECT":" ","MAREA":" ","LANE":" ","ALLEY":" ","HOUSE_NO":"５６之２號","E_COORD97":179325.98000000001,"N_COORD97":2577659,"ADDRESS":"南昌街５６之２號","OBJECTID":632861},"geometry":{"x":179325.98000000231,"y":2577659}},{"attributes":{"ID":632889,"DIS_CODE":0,"TOWNNAME":"新營區","LI":"延平里","LIN":" ","STREET":"復興路","SECT":" ","MAREA":" ","LANE":" ","ALLEY":" ","HOUSE_NO":"１之１３７號","E_COORD97":179715.17999999999,"N_COORD97":2577935.1299999999,"ADDRESS":"復興路１之１３７號","OBJECTID":632862},"geometry":{"x":179715.1799999997,"y":2577935.129999999}},{"attributes":{"ID":632890,"DIS_CODE":0,"TOWNNAME":"新營區","LI":"中營里","LIN":" ","STREET":"工業街","SECT":" ","MAREA":" ","LANE":" ","ALLEY":" ","HOUSE_NO":"１２之３號","E_COORD97":180925.57000000001,"N_COORD97":2578486.48,"ADDRESS":"工業街１２之３號","OBJECTID":632863},"geometry":{"x":180925.57000000123,"y":2578486.4800000004}},{"attributes":{"ID":632891,"DIS_CODE":0,"TOWNNAME":"新營區","LI":"王公里","LIN":"20鄰","STREET":"樂利街","SECT":" ","MAREA":" ","LANE":" ","ALLEY":" ","HOUSE_NO":"１６號","E_COORD97":180393.79000000001,"N_COORD97":2579257.48,"ADDRESS":"樂利街１６號","OBJECTID":632864},"geometry":{"x":180393.79000000097,"y":2579257.4799999986}},{"attributes":{"ID":632892,"DIS_CODE":0,"TOWNNAME":"新營區","LI":"忠政里","LIN":"24鄰","STREET":"健康路","SECT":" ","MAREA":" ","LANE":" ","ALLEY":" ","HOUSE_NO":"２９２號","E_COORD97":179670.66,"N_COORD97":2579624.1499999999,"ADDRESS":"健康路２９２號","OBJECTID":632865},"geometry":{"x":179670.66000000108,"y":2579624.1500000022}},{"attributes":{"ID":632893,"DIS_CODE":0,"TOWNNAME":"新營區","LI":"延平里","LIN":"14鄰","STREET":"復興路","SECT":" ","MAREA":" ","LANE":" ","ALLEY":" ","HOUSE_NO":"６９號","E_COORD97":179597.06073600001,"N_COORD97":2578029.3364599999,"ADDRESS":"復興路６９號","OBJECTID":632866},"geometry":{"x":179597.06073600054,"y":2578029.3364550006}},{"attributes":{"ID":632894,"DIS_CODE":0,"TOWNNAME":"新營區","LI":"大宏里","LIN":"4鄰","STREET":"綠川北街","SECT":" ","MAREA":" ","LANE":" ","ALLEY":" ","HOUSE_NO":"１２３號","E_COORD97":180242.94,"N_COORD97":2578669.02,"ADDRESS":"綠川北街１２３號","OBJECTID":632867},"geometry":{"x":180242.94000000041,"y":2578669.0199999996}},{"attributes":{"ID":632895,"DIS_CODE":0,"TOWNNAME":"新營區","LI":"民生里","LIN":"7鄰","STREET":"中華路","SECT":" ","MAREA":" ","LANE":" ","ALLEY":" ","HOUSE_NO":"９４號之１","E_COORD97":179295.60999999999,"N_COORD97":2578163.04,"ADDRESS":"中華路９４號之１","OBJECTID":632868},"geometry":{"x":179295.61000000034,"y":2578163.0399999991}},{"attributes":{"ID":632896,"DIS_CODE":0,"TOWNNAME":"新營區","LI":"延平里","LIN":"18鄰","STREET":"長春街","SECT":" ","MAREA":" ","LANE":" ","ALLEY":" ","HOUSE_NO":"１１０號之３","E_COORD97":179596.19,"N_COORD97":2577864.8199999998,"ADDRESS":"長春街１１０號之３","OBJECTID":632869},"geometry":{"x":179596.19000000134,"y":2577864.8200000003}},{"attributes":{"ID":632897,"DIS_CODE":0,"TOWNNAME":"新營區","LI":"延平里","LIN":" ","STREET":"復興路","SECT":" ","MAREA":" ","LANE":" ","ALLEY":" ","HOUSE_NO":"１之７３號","E_COORD97":179713.92999999999,"N_COORD97":2577935.1299999999,"ADDRESS":"復興路１之７３號","OBJECTID":632870},"geometry":{"x":179713.93000000063,"y":2577935.129999999}},{"attributes":{"ID":632898,"DIS_CODE":0,"TOWNNAME":"新營區","LI":"三仙里","LIN":" ","STREET":"復興路","SECT":" ","MAREA":" ","LANE":" ","ALLEY":" ","HOUSE_NO":"９０號","E_COORD97":179526.82000000001,"N_COORD97":2578052.2400000002,"ADDRESS":"復興路９０號","OBJECTID":632871},"geometry":{"x":179526.82000000216,"y":2578052.2400000039}},{"attributes":{"ID":632899,"DIS_CODE":0,"TOWNNAME":"新營區","LI":"新南里","LIN":"20鄰","STREET":"復興路","SECT":" ","MAREA":" ","LANE":" ","ALLEY":" ","HOUSE_NO":"３８６號","E_COORD97":178503.95999999999,"N_COORD97":2578198.8999999999,"ADDRESS":"復興路３８６號","OBJECTID":632872},"geometry":{"x":178503.96000000089,"y":2578198.9000000004}},{"attributes":{"ID":632900,"DIS_CODE":0,"TOWNNAME":"新營區","LI":"大宏里","LIN":"25鄰","STREET":"綠川北街","SECT":" ","MAREA":" ","LANE":" ","ALLEY":" ","HOUSE_NO":"６０號","E_COORD97":180541.63,"N_COORD97":2578719.6699999999,"ADDRESS":"綠川北街６０號","OBJECTID":632873},"geometry":{"x":180541.63000000082,"y":2578719.6699999999}},{"attributes":{"ID":632901,"DIS_CODE":0,"TOWNNAME":"新營區","LI":"延平里","LIN":"18鄰","STREET":"長春街","SECT":" ","MAREA":" ","LANE":" ","ALLEY":" ","HOUSE_NO":"１３２號之２","E_COORD97":179581.802256,"N_COORD97":2577848.3202800001,"ADDRESS":"長春街１３２號之２","OBJECTID":632874},"geometry":{"x":179581.80225600116,"y":2577848.3202800006}},{"attributes":{"ID":632902,"DIS_CODE":0,"TOWNNAME":"新營區","LI":"民生里","LIN":" ","STREET":"進修街","SECT":" ","MAREA":" ","LANE":" ","ALLEY":" ","HOUSE_NO":"２５之１５號","E_COORD97":179083.57000000001,"N_COORD97":2578460.8599999999,"ADDRESS":"進修街２５之１５號","OBJECTID":632875},"geometry":{"x":179083.5700000003,"y":2578460.8600000031}},{"attributes":{"ID":632903,"DIS_CODE":0,"TOWNNAME":"新營區","LI":"民生里","LIN":" ","STREET":"進修街","SECT":" ","MAREA":" ","LANE":" ","ALLEY":" ","HOUSE_NO":"２５之４號","E_COORD97":179027.09,"N_COORD97":2578461.1299999999,"ADDRESS":"進修街２５之４號","OBJECTID":632876},"geometry":{"x":179027.08999999985,"y":2578461.129999999}},{"attributes":{"ID":632904,"DIS_CODE":0,"TOWNNAME":"新營區","LI":"民生里","LIN":" ","STREET":"中華路","SECT":" ","MAREA":" ","LANE":" ","ALLEY":" ","HOUSE_NO":"１１８之１１號","E_COORD97":179157.25,"N_COORD97":2578219.0899999999,"ADDRESS":"中華路１１８之１１號","OBJECTID":632877},"geometry":{"x":179157.25,"y":2578219.0900000036}},{"attributes":{"ID":632905,"DIS_CODE":0,"TOWNNAME":"新營區","LI":"王公里","LIN":"18鄰","STREET":"樂利街","SECT":" ","MAREA":" ","LANE":" ","ALLEY":" ","HOUSE_NO":"７號","E_COORD97":180174.75,"N_COORD97":2579266.2599999998,"ADDRESS":"樂利街７號","OBJECTID":632878},"geometry":{"x":180174.75000000093,"y":2579266.2600000016}},{"attributes":{"ID":632906,"DIS_CODE":0,"TOWNNAME":"新營區","LI":"新北里","LIN":"13鄰","STREET":"周武街","SECT":" ","MAREA":" ","LANE":" ","ALLEY":" ","HOUSE_NO":"６１號","E_COORD97":179379.63,"N_COORD97":2578924.5,"ADDRESS":"周武街６１號","OBJECTID":632879},"geometry":{"x":179379.62999999989,"y":2578924.5}},{"attributes":{"ID":632907,"DIS_CODE":0,"TOWNNAME":"新營區","LI":"新東里","LIN":"13鄰","STREET":"東興六街","SECT":" ","MAREA":" ","LANE":" ","ALLEY":" ","HOUSE_NO":"１１１號","E_COORD97":181037.28,"N_COORD97":2579241.1899999999,"ADDRESS":"東興六街１１１號","OBJECTID":632880},"geometry":{"x":181037.28000000026,"y":2579241.1899999995}},{"attributes":{"ID":632908,"DIS_CODE":0,"TOWNNAME":"新營區","LI":"大宏里","LIN":" ","STREET":"三民路","SECT":" ","MAREA":" ","LANE":" ","ALLEY":" ","HOUSE_NO":"４６之４２號","E_COORD97":180346.14999999999,"N_COORD97":2578536.8199999998,"ADDRESS":"三民路４６之４２號","OBJECTID":632881},"geometry":{"x":180346.15000000037,"y":2578536.8200000022}},{"attributes":{"ID":632909,"DIS_CODE":0,"TOWNNAME":"新營區","LI":"南興里","LIN":" ","STREET":"建業路","SECT":" ","MAREA":" ","LANE":" ","ALLEY":" ","HOUSE_NO":"７０之３號","E_COORD97":179377.47,"N_COORD97":2577514.79,"ADDRESS":"建業路７０之３號","OBJECTID":632882},"geometry":{"x":179377.46999999974,"y":2577514.7900000028}},{"attributes":{"ID":632910,"DIS_CODE":0,"TOWNNAME":"新營區","LI":"新東里","LIN":"13鄰","STREET":"東興六街","SECT":" ","MAREA":" ","LANE":" ","ALLEY":" ","HOUSE_NO":"９５號","E_COORD97":180986.89000000001,"N_COORD97":2579238.0899999999,"ADDRESS":"東興六街９５號","OBJECTID":632883},"geometry":{"x":180986.89000000153,"y":2579238.0899999999}},{"attributes":{"ID":632911,"DIS_CODE":0,"TOWNNAME":"新營區","LI":"新東里","LIN":"13鄰","STREET":"東興六街","SECT":" ","MAREA":" ","LANE":" ","ALLEY":" ","HOUSE_NO":"１１９號","E_COORD97":181055.70000000001,"N_COORD97":2579242.21,"ADDRESS":"東興六街１１９號","OBJECTID":632884},"geometry":{"x":181055.70000000112,"y":2579242.2100000009}},{"attributes":{"ID":632912,"DIS_CODE":0,"TOWNNAME":"新營區","LI":"延平里","LIN":"4鄰","STREET":"長春街","SECT":" ","MAREA":" ","LANE":" ","ALLEY":" ","HOUSE_NO":"３７號","E_COORD97":179724.850507,"N_COORD97":2577889.7010900001,"ADDRESS":"長春街３７號","OBJECTID":632885},"geometry":{"x":179724.85050700139,"y":2577889.7010909989}},{"attributes":{"ID":632913,"DIS_CODE":0,"TOWNNAME":"新營區","LI":"南興里","LIN":" ","STREET":"延平路","SECT":" ","MAREA":" ","LANE":" ","ALLEY":" ","HOUSE_NO":"１４２之２６號","E_COORD97":179679.04999999999,"N_COORD97":2577386.02,"ADDRESS":"延平路１４２之２６號","OBJECTID":632886},"geometry":{"x":179679.05000000168,"y":2577386.0200000014}},{"attributes":{"ID":632914,"DIS_CODE":0,"TOWNNAME":"新營區","LI":"護鎮里","LIN":" ","STREET":"三興街","SECT":" ","MAREA":" ","LANE":" ","ALLEY":" ","HOUSE_NO":"７８號","E_COORD97":179389.98999999999,"N_COORD97":2580019.73,"ADDRESS":"三興街７８號","OBJECTID":632887},"geometry":{"x":179389.99000000209,"y":2580019.7300000023}},{"attributes":{"ID":632915,"DIS_CODE":0,"TOWNNAME":"新營區","LI":"新南里","LIN":"5鄰","STREET":"新北三街","SECT":" ","MAREA":" ","LANE":" ","ALLEY":" ","HOUSE_NO":"４５號","E_COORD97":178583.17999999999,"N_COORD97":2578767.75,"ADDRESS":"新北三街４５號","OBJECTID":632888},"geometry":{"x":178583.18000000063,"y":2578767.7500000019}},{"attributes":{"ID":632916,"DIS_CODE":0,"TOWNNAME":"新營區","LI":"延平里","LIN":"13鄰","STREET":"忠義街","SECT":" ","MAREA":" ","LANE":" ","ALLEY":" ","HOUSE_NO":"２４號","E_COORD97":179563.576849,"N_COORD97":2577944.0348299998,"ADDRESS":"忠義街２４號","OBJECTID":632889},"geometry":{"x":179563.57684900053,"y":2577944.0348340012}},{"attributes":{"ID":632917,"DIS_CODE":0,"TOWNNAME":"新營區","LI":"永生里","LIN":"13鄰","STREET":"中山路","SECT":" ","MAREA":" ","LANE":" ","ALLEY":" ","HOUSE_NO":"２２５號","E_COORD97":179878.66,"N_COORD97":2577976.3799999999,"ADDRESS":"中山路２２５號","OBJECTID":632890},"geometry":{"x":179878.66000000201,"y":2577976.3800000008}},{"attributes":{"ID":632918,"DIS_CODE":0,"TOWNNAME":"新營區","LI":"好平里","LIN":"7鄰","STREET":"和平路","SECT":" ","MAREA":" ","LANE":" ","ALLEY":" ","HOUSE_NO":"４５號之５","E_COORD97":179421.03,"N_COORD97":2577843.5,"ADDRESS":"和平路４５號之５","OBJECTID":632891},"geometry":{"x":179421.03000000119,"y":2577843.5000000037}},{"attributes":{"ID":632919,"DIS_CODE":0,"TOWNNAME":"新營區","LI":"新南里","LIN":"4鄰","STREET":"新北三街","SECT":" ","MAREA":" ","LANE":" ","ALLEY":" ","HOUSE_NO":"１０號","E_COORD97":178636.63,"N_COORD97":2578838.3700000001,"ADDRESS":"新北三街１０號","OBJECTID":632892},"geometry":{"x":178636.63000000082,"y":2578838.3699999992}},{"attributes":{"ID":632920,"DIS_CODE":0,"TOWNNAME":"新營區","LI":"南興里","LIN":"5鄰","STREET":"建業路","SECT":" ","MAREA":" ","LANE":" ","ALLEY":" ","HOUSE_NO":"５８號之１","E_COORD97":179458.35999999999,"N_COORD97":2577533.23,"ADDRESS":"建業路５８之１號","OBJECTID":632893},"geometry":{"x":179458.36000000034,"y":2577533.2300000004}},{"attributes":{"ID":632921,"DIS_CODE":0,"TOWNNAME":"新營區","LI":"王公里","LIN":"4鄰","STREET":"民族路","SECT":" ","MAREA":" ","LANE":" ","ALLEY":" ","HOUSE_NO":"７２號","E_COORD97":180287.95999999999,"N_COORD97":2578931.2799999998,"ADDRESS":"民族路７２號","OBJECTID":632894},"geometry":{"x":180287.95999999996,"y":2578931.2799999993}},{"attributes":{"ID":632922,"DIS_CODE":0,"TOWNNAME":"新營區","LI":"忠政里","LIN":"5鄰","STREET":"安和街","SECT":" ","MAREA":" ","LANE":" ","ALLEY":" ","HOUSE_NO":"４７號","E_COORD97":179938.75,"N_COORD97":2579262.9500000002,"ADDRESS":"安和街４７號","OBJECTID":632895},"geometry":{"x":179938.75,"y":2579262.9499999993}},{"attributes":{"ID":632923,"DIS_CODE":0,"TOWNNAME":"新營區","LI":"延平里","LIN":"5鄰","STREET":"長春街","SECT":" ","MAREA":" ","LANE":" ","ALLEY":" ","HOUSE_NO":"２０號","E_COORD97":179743.54108299999,"N_COORD97":2577915.19527,"ADDRESS":"長春街２０號","OBJECTID":632896},"geometry":{"x":179743.54108299967,"y":2577915.1952660028}},{"attributes":{"ID":632924,"DIS_CODE":0,"TOWNNAME":"新營區","LI":"新南里","LIN":"20鄰","STREET":"民治路","SECT":" ","MAREA":" ","LANE":" ","ALLEY":" ","HOUSE_NO":"４０６號","E_COORD97":178664.48999999999,"N_COORD97":2578189.27,"ADDRESS":"民治路４０６號","OBJECTID":632897},"geometry":{"x":178664.49000000209,"y":2578189.2699999996}},{"attributes":{"ID":632925,"DIS_CODE":0,"TOWNNAME":"新營區","LI":"延平里","LIN":"13鄰","STREET":"忠義街","SECT":" ","MAREA":" ","LANE":" ","ALLEY":" ","HOUSE_NO":"２０之１號","E_COORD97":179587.26000000001,"N_COORD97":2577955.6699999999,"ADDRESS":"忠義街２０之１號","OBJECTID":632898},"geometry":{"x":179587.25999999978,"y":2577955.6699999999}},{"attributes":{"ID":632926,"DIS_CODE":0,"TOWNNAME":"新營區","LI":"中營里","LIN":"13鄰","STREET":"東隆街","SECT":" ","MAREA":" ","LANE":" ","ALLEY":" ","HOUSE_NO":"１５號","E_COORD97":181148.60999999999,"N_COORD97":2578595.0099999998,"ADDRESS":"東隆街１５號","OBJECTID":632899},"geometry":{"x":181148.61000000034,"y":2578595.0099999998}},{"attributes":{"ID":632927,"DIS_CODE":0,"TOWNNAME":"新營區","LI":"好平里","LIN":"14鄰","STREET":"和平路","SECT":" ","MAREA":" ","LANE":" ","ALLEY":" ","HOUSE_NO":"２５號","E_COORD97":179413.95000000001,"N_COORD97":2577958.6400000001,"ADDRESS":"和平路２５號","OBJECTID":632900},"geometry":{"x":179413.95000000205,"y":2577958.6400000025}},{"attributes":{"ID":632928,"DIS_CODE":0,"TOWNNAME":"新營區","LI":"忠政里","LIN":"24鄰","STREET":"健康路","SECT":" ","MAREA":" ","LANE":" ","ALLEY":" ","HOUSE_NO":"２３０號","E_COORD97":179671.10999999999,"N_COORD97":2579461.3500000001,"ADDRESS":"健康路２３０號","OBJECTID":632901},"geometry":{"x":179671.11000000127,"y":2579461.3500000034}},{"attributes":{"ID":632929,"DIS_CODE":0,"TOWNNAME":"新營區","LI":"新南里","LIN":"4鄰","STREET":"新北三街","SECT":" ","MAREA":" ","LANE":" ","ALLEY":" ","HOUSE_NO":"１０之４號","E_COORD97":178635.14999999999,"N_COORD97":2578862.7999999998,"ADDRESS":"新北三街１０之４號","OBJECTID":632902},"geometry":{"x":178635.1500000013,"y":2578862.8000000045}},{"attributes":{"ID":632930,"DIS_CODE":0,"TOWNNAME":"新營區","LI":"埤寮里","LIN":"4鄰","STREET":"建國路","SECT":" ","MAREA":" ","LANE":" ","ALLEY":" ","HOUSE_NO":"１０４號","E_COORD97":179771.53,"N_COORD97":2581066.6800000002,"ADDRESS":"建國路１０４號","OBJECTID":632903},"geometry":{"x":179771.53000000119,"y":2581066.6800000016}},{"attributes":{"ID":632931,"DIS_CODE":0,"TOWNNAME":"新營區","LI":"大宏里","LIN":" ","STREET":"大同路","SECT":" ","MAREA":" ","LANE":" ","ALLEY":" ","HOUSE_NO":"３０之７號","E_COORD97":180723.70999999999,"N_COORD97":2578828.52,"ADDRESS":"大同路３０之７號","OBJECTID":632904},"geometry":{"x":180723.70999999996,"y":2578828.5199999996}},{"attributes":{"ID":632932,"DIS_CODE":0,"TOWNNAME":"新營區","LI":"民生里","LIN":" ","STREET":"民生路","SECT":" ","MAREA":" ","LANE":" ","ALLEY":" ","HOUSE_NO":"１１１之１號","E_COORD97":179233.12,"N_COORD97":2578518.8399999999,"ADDRESS":"民生路１１１之１號","OBJECTID":632905},"geometry":{"x":179233.12000000197,"y":2578518.8400000036}},{"attributes":{"ID":632933,"DIS_CODE":0,"TOWNNAME":"新營區","LI":"王公里","LIN":"4鄰","STREET":"民族路","SECT":" ","MAREA":" ","LANE":" ","ALLEY":" ","HOUSE_NO":"８０號之１","E_COORD97":180303.06,"N_COORD97":2578993.29,"ADDRESS":"民族路８０號之１","OBJECTID":632906},"geometry":{"x":180303.06000000052,"y":2578993.2900000028}},{"attributes":{"ID":632934,"DIS_CODE":0,"TOWNNAME":"新營區","LI":"王公里","LIN":"3鄰","STREET":"民族路","SECT":" ","MAREA":" ","LANE":" ","ALLEY":" ","HOUSE_NO":"５９號之２","E_COORD97":180286.66,"N_COORD97":2578995.5800000001,"ADDRESS":"民族路５９號之２","OBJECTID":632907},"geometry":{"x":180286.66000000015,"y":2578995.5800000038}},{"attributes":{"ID":632935,"DIS_CODE":0,"TOWNNAME":"新營區","LI":"嘉芳里","LIN":"2鄰","STREET":"復興路","SECT":" ","MAREA":" ","LANE":" ","ALLEY":" ","HOUSE_NO":"７７３號之１","E_COORD97":177181.45000000001,"N_COORD97":2578552.04,"ADDRESS":"復興路７７３之１號","OBJECTID":632908},"geometry":{"x":177181.45000000205,"y":2578552.040000001}},{"attributes":{"ID":632936,"DIS_CODE":0,"TOWNNAME":"新營區","LI":"民榮里","LIN":"34鄰","STREET":"新進路","SECT":"二段","MAREA":" ","LANE":" ","ALLEY":" ","HOUSE_NO":"４５５號","E_COORD97":178635.34,"N_COORD97":2578081.98,"ADDRESS":"新進路二段４５５號","OBJECTID":632909},"geometry":{"x":178635.34000000078,"y":2578081.9800000023}},{"attributes":{"ID":632937,"DIS_CODE":0,"TOWNNAME":"新營區","LI":"三仙里","LIN":" ","STREET":"正義街","SECT":" ","MAREA":" ","LANE":" ","ALLEY":" ","HOUSE_NO":"２０之３號","E_COORD97":179668.69,"N_COORD97":2578107.5600000001,"ADDRESS":"正義街２０之３號","OBJECTID":632910},"geometry":{"x":179668.69000000134,"y":2578107.5600000005}},{"attributes":{"ID":632938,"DIS_CODE":0,"TOWNNAME":"新營區","LI":"民生里","LIN":" ","STREET":"民生路","SECT":" ","MAREA":" ","LANE":" ","ALLEY":" ","HOUSE_NO":"１０５之１２號","E_COORD97":179177.16,"N_COORD97":2578533.5099999998,"ADDRESS":"民生路１０５之１２號","OBJECTID":632911},"geometry":{"x":179177.16000000108,"y":2578533.5099999998}},{"attributes":{"ID":632939,"DIS_CODE":0,"TOWNNAME":"新營區","LI":"延平里","LIN":" ","STREET":"復興路","SECT":" ","MAREA":" ","LANE":" ","ALLEY":" ","HOUSE_NO":"１之９２號","E_COORD97":179713.92999999999,"N_COORD97":2577935.1299999999,"ADDRESS":"復興路１之９２號","OBJECTID":632912},"geometry":{"x":179713.93000000063,"y":2577935.129999999}},{"attributes":{"ID":632940,"DIS_CODE":0,"TOWNNAME":"新營區","LI":"新南里","LIN":"5鄰","STREET":"新北三街","SECT":" ","MAREA":" ","LANE":" ","ALLEY":" ","HOUSE_NO":"４１號","E_COORD97":178590.37,"N_COORD97":2578774.3599999999,"ADDRESS":"新北三街４１號","OBJECTID":632913},"geometry":{"x":178590.37000000011,"y":2578774.3599999994}},{"attributes":{"ID":632941,"DIS_CODE":0,"TOWNNAME":"新營區","LI":"新北里","LIN":"25鄰","STREET":"民治路","SECT":" ","MAREA":" ","LANE":" ","ALLEY":" ","HOUSE_NO":"１９８號","E_COORD97":178927.38,"N_COORD97":2578633.21,"ADDRESS":"民治路１９８號","OBJECTID":632914},"geometry":{"x":178927.37999999989,"y":2578633.2100000028}},{"attributes":{"ID":632942,"DIS_CODE":0,"TOWNNAME":"新營區","LI":"大宏里","LIN":" ","STREET":"大同路","SECT":" ","MAREA":" ","LANE":" ","ALLEY":" ","HOUSE_NO":"４３之１３號","E_COORD97":180698.41,"N_COORD97":2578840.8300000001,"ADDRESS":"大同路４３之１３號","OBJECTID":632915},"geometry":{"x":180698.41000000015,"y":2578840.8300000001}},{"attributes":{"ID":632943,"DIS_CODE":0,"TOWNNAME":"新營區","LI":"南紙里","LIN":"4鄰","STREET":"南紙街","SECT":" ","MAREA":" ","LANE":" ","ALLEY":" ","HOUSE_NO":"３號","E_COORD97":177837.72,"N_COORD97":2577803.4399999999,"ADDRESS":"南紙街３號","OBJECTID":632916},"geometry":{"x":177837.71999999974,"y":2577803.4400000013}},{"attributes":{"ID":632944,"DIS_CODE":0,"TOWNNAME":"新營區","LI":"三仙里","LIN":" ","STREET":"三興街","SECT":" ","MAREA":" ","LANE":" ","ALLEY":" ","HOUSE_NO":"１２號","E_COORD97":179495.53,"N_COORD97":2578133.2400000002,"ADDRESS":"三興街１２號","OBJECTID":632917},"geometry":{"x":179495.53000000119,"y":2578133.2399999984}},{"attributes":{"ID":632945,"DIS_CODE":0,"TOWNNAME":"新營區","LI":"民榮里","LIN":"25鄰","STREET":"新進路","SECT":"二段","MAREA":" ","LANE":" ","ALLEY":" ","HOUSE_NO":"１５１號","E_COORD97":179342.37,"N_COORD97":2577715.3599999999,"ADDRESS":"新進路二段１５１號","OBJECTID":632918},"geometry":{"x":179342.37000000104,"y":2577715.3600000013}},{"attributes":{"ID":632946,"DIS_CODE":0,"TOWNNAME":"新營區","LI":"嘉芳里","LIN":" ","STREET":"復興路","SECT":" ","MAREA":" ","LANE":" ","ALLEY":" ","HOUSE_NO":"７７１之１號","E_COORD97":177200.85000000001,"N_COORD97":2578545.2999999998,"ADDRESS":"復興路７７１之１號","OBJECTID":632919},"geometry":{"x":177200.85000000056,"y":2578545.3000000026}},{"attributes":{"ID":632947,"DIS_CODE":0,"TOWNNAME":"新營區","LI":"土庫里","LIN":"18鄰","STREET":"開元路","SECT":" ","MAREA":" ","LANE":" ","ALLEY":" ","HOUSE_NO":"２４１號","E_COORD97":181841.38,"N_COORD97":2579708.1299999999,"ADDRESS":"開元路２４１號","OBJECTID":632920},"geometry":{"x":181841.37999999989,"y":2579708.129999999}},{"attributes":{"ID":632948,"DIS_CODE":0,"TOWNNAME":"新營區","LI":"忠政里","LIN":"20鄰","STREET":"府西路","SECT":" ","MAREA":" ","LANE":" ","ALLEY":" ","HOUSE_NO":"２５２號","E_COORD97":179811.94,"N_COORD97":2579654.4900000002,"ADDRESS":"府西路２５２號","OBJECTID":632921},"geometry":{"x":179811.94000000041,"y":2579654.4900000021}},{"attributes":{"ID":632949,"DIS_CODE":0,"TOWNNAME":"新營區","LI":"王公里","LIN":"26鄰","STREET":"大公街","SECT":" ","MAREA":" ","LANE":" ","ALLEY":" ","HOUSE_NO":"８號","E_COORD97":180128.59,"N_COORD97":2579664.0499999998,"ADDRESS":"大公街８號","OBJECTID":632922},"geometry":{"x":180128.59000000078,"y":2579664.0500000007}},{"attributes":{"ID":632950,"DIS_CODE":0,"TOWNNAME":"新營區","LI":"三仙里","LIN":"25鄰","STREET":"育德一街","SECT":" ","MAREA":" ","LANE":" ","ALLEY":" ","HOUSE_NO":"６號","E_COORD97":179584.06,"N_COORD97":2578944.5699999998,"ADDRESS":"育德一街６號","OBJECTID":632923},"geometry":{"x":179584.06000000052,"y":2578944.5700000003}},{"attributes":{"ID":632951,"DIS_CODE":0,"TOWNNAME":"新營區","LI":"嘉芳里","LIN":"14鄰","STREET":"八德路","SECT":" ","MAREA":" ","LANE":" ","ALLEY":" ","HOUSE_NO":"１２號","E_COORD97":176821.47,"N_COORD97":2578088.6099999999,"ADDRESS":"八德路１２號","OBJECTID":632924},"geometry":{"x":176821.4700000016,"y":2578088.6099999994}},{"attributes":{"ID":632952,"DIS_CODE":0,"TOWNNAME":"新營區","LI":"土庫里","LIN":"18鄰","STREET":"開元路","SECT":" ","MAREA":" ","LANE":" ","ALLEY":" ","HOUSE_NO":"２５１之１號","E_COORD97":181873.69,"N_COORD97":2579740.1499999999,"ADDRESS":"開元路２５１之１號","OBJECTID":632925},"geometry":{"x":181873.69000000041,"y":2579740.1500000004}},{"attributes":{"ID":632953,"DIS_CODE":0,"TOWNNAME":"新營區","LI":"忠政里","LIN":"20鄰","STREET":"府西路","SECT":" ","MAREA":" ","LANE":" ","ALLEY":" ","HOUSE_NO":"２４６號","E_COORD97":179811.88,"N_COORD97":2579641.1899999999,"ADDRESS":"府西路２４６號","OBJECTID":632926},"geometry":{"x":179811.87999999989,"y":2579641.1899999995}},{"attributes":{"ID":632954,"DIS_CODE":0,"TOWNNAME":"新營區","LI":"大宏里","LIN":"26鄰","STREET":"民族路","SECT":" ","MAREA":" ","LANE":" ","ALLEY":" ","HOUSE_NO":"９號之１２","E_COORD97":180224.35000000001,"N_COORD97":2578423.3199999998,"ADDRESS":"民族路９號之１２","OBJECTID":632927},"geometry":{"x":180224.35000000149,"y":2578423.3200000003}},{"attributes":{"ID":632955,"DIS_CODE":0,"TOWNNAME":"新營區","LI":"忠政里","LIN":"24鄰","STREET":"健康路","SECT":" ","MAREA":" ","LANE":" ","ALLEY":" ","HOUSE_NO":"１７６號","E_COORD97":179672.25,"N_COORD97":2579329.5499999998,"ADDRESS":"健康路１７６號","OBJECTID":632928},"geometry":{"x":179672.25,"y":2579329.5500000026}},{"attributes":{"ID":632956,"DIS_CODE":0,"TOWNNAME":"新營區","LI":"永生里","LIN":"8鄰","STREET":"富源街","SECT":" ","MAREA":" ","LANE":" ","ALLEY":" ","HOUSE_NO":"１９之２號","E_COORD97":180028.14000000001,"N_COORD97":2577971.2999999998,"ADDRESS":"富源街１９之２號","OBJECTID":632929},"geometry":{"x":180028.1400000006,"y":2577971.3000000026}},{"attributes":{"ID":632957,"DIS_CODE":0,"TOWNNAME":"新營區","LI":"嘉芳里","LIN":"4鄰","STREET":"嘉芳街","SECT":" ","MAREA":" ","LANE":" ","ALLEY":" ","HOUSE_NO":"１１０號","E_COORD97":176960.41,"N_COORD97":2578422.3900000001,"ADDRESS":"嘉芳街１１０號","OBJECTID":632930},"geometry":{"x":176960.41000000015,"y":2578422.3900000025}},{"attributes":{"ID":632958,"DIS_CODE":0,"TOWNNAME":"新營區","LI":"民權里","LIN":"18鄰","STREET":"民權路","SECT":" ","MAREA":" ","LANE":" ","ALLEY":" ","HOUSE_NO":"３８號之２","E_COORD97":179740.39999999999,"N_COORD97":2578154.2799999998,"ADDRESS":"民權路３８號之２","OBJECTID":632931},"geometry":{"x":179740.4000000013,"y":2578154.2799999993}},{"attributes":{"ID":632959,"DIS_CODE":0,"TOWNNAME":"新營區","LI":"延平里","LIN":"1鄰","STREET":"延平路","SECT":" ","MAREA":" ","LANE":" ","ALLEY":" ","HOUSE_NO":"４６號之１８","E_COORD97":179716.82549799999,"N_COORD97":2577805.3453500001,"ADDRESS":"延平路４６號之１８","OBJECTID":632932},"geometry":{"x":179716.82549799979,"y":2577805.3453550003}},{"attributes":{"ID":632960,"DIS_CODE":0,"TOWNNAME":"新營區","LI":"民生里","LIN":" ","STREET":"進修街","SECT":" ","MAREA":" ","LANE":" ","ALLEY":" ","HOUSE_NO":"１１之２號","E_COORD97":179016.51999999999,"N_COORD97":2578404.6899999999,"ADDRESS":"進修街１１之２號","OBJECTID":632933},"geometry":{"x":179016.52000000048,"y":2578404.6900000013}},{"attributes":{"ID":632961,"DIS_CODE":0,"TOWNNAME":"新營區","LI":"好平里","LIN":" ","STREET":"長春街","SECT":" ","MAREA":" ","LANE":" ","ALLEY":" ","HOUSE_NO":"１３７號","E_COORD97":179445.92999999999,"N_COORD97":2577766.9100000001,"ADDRESS":"長春街１３７號","OBJECTID":632934},"geometry":{"x":179445.93000000063,"y":2577766.910000002}},{"attributes":{"ID":632962,"DIS_CODE":0,"TOWNNAME":"新營區","LI":"民權里","LIN":"20鄰","STREET":"仁愛街","SECT":" ","MAREA":" ","LANE":" ","ALLEY":" ","HOUSE_NO":"４７之２號","E_COORD97":179770.95999999999,"N_COORD97":2578295.8900000001,"ADDRESS":"仁愛街４７之２號","OBJECTID":632935},"geometry":{"x":179770.95999999996,"y":2578295.8900000025}},{"attributes":{"ID":632963,"DIS_CODE":0,"TOWNNAME":"新營區","LI":"南紙里","LIN":"25鄰","STREET":"建業路","SECT":" ","MAREA":" ","LANE":" ","ALLEY":" ","HOUSE_NO":"２３７號","E_COORD97":178088.32999999999,"N_COORD97":2577501.0099999998,"ADDRESS":"建業路２３７號","OBJECTID":632936},"geometry":{"x":178088.33000000007,"y":2577501.0100000016}},{"attributes":{"ID":632964,"DIS_CODE":0,"TOWNNAME":"新營區","LI":"民生里","LIN":"4鄰","STREET":"三興街","SECT":" ","MAREA":" ","LANE":" ","ALLEY":" ","HOUSE_NO":"１５號之１","E_COORD97":179464.89000000001,"N_COORD97":2578261.9100000001,"ADDRESS":"三興街１５號之１","OBJECTID":632937},"geometry":{"x":179464.8900000006,"y":2578261.910000002}},{"attributes":{"ID":632965,"DIS_CODE":0,"TOWNNAME":"新營區","LI":"民榮里","LIN":" ","STREET":"和平路","SECT":" ","MAREA":" ","LANE":" ","ALLEY":" ","HOUSE_NO":"４之１號","E_COORD97":179398.07000000001,"N_COORD97":2578008.6200000001,"ADDRESS":"和平路４之１號","OBJECTID":632938},"geometry":{"x":179398.07000000216,"y":2578008.620000001}},{"attributes":{"ID":632966,"DIS_CODE":0,"TOWNNAME":"新營區","LI":"民榮里","LIN":" ","STREET":"復興路","SECT":" ","MAREA":" ","LANE":" ","ALLEY":" ","HOUSE_NO":"１９７號","E_COORD97":178931.73000000001,"N_COORD97":2578047.3399999999,"ADDRESS":"復興路１９７號","OBJECTID":632939},"geometry":{"x":178931.73000000138,"y":2578047.3399999999}},{"attributes":{"ID":632967,"DIS_CODE":0,"TOWNNAME":"新營區","LI":"大宏里","LIN":"25鄰","STREET":"同濟街","SECT":" ","MAREA":" ","LANE":" ","ALLEY":" ","HOUSE_NO":"１３０號","E_COORD97":180465.07000000001,"N_COORD97":2578707.8500000001,"ADDRESS":"同濟街１３０號","OBJECTID":632940},"geometry":{"x":180465.07000000123,"y":2578707.8499999996}},{"attributes":{"ID":632968,"DIS_CODE":0,"TOWNNAME":"新營區","LI":"民榮里","LIN":" ","STREET":"復興路","SECT":" ","MAREA":" ","LANE":" ","ALLEY":" ","HOUSE_NO":"１５７之１７號","E_COORD97":179070.17000000001,"N_COORD97":2577979.1800000002,"ADDRESS":"復興路１５７之１７號","OBJECTID":632941},"geometry":{"x":179070.17000000086,"y":2577979.1799999997}},{"attributes":{"ID":632969,"DIS_CODE":0,"TOWNNAME":"新營區","LI":"大宏里","LIN":"26鄰","STREET":"民族路","SECT":" ","MAREA":" ","LANE":" ","ALLEY":" ","HOUSE_NO":"９號之３","E_COORD97":180258.92000000001,"N_COORD97":2578432.0099999998,"ADDRESS":"民族路９號之３","OBJECTID":632942},"geometry":{"x":180258.92000000086,"y":2578432.0099999998}},{"attributes":{"ID":632970,"DIS_CODE":0,"TOWNNAME":"新營區","LI":"王公里","LIN":"26鄰","STREET":"大公街","SECT":" ","MAREA":" ","LANE":" ","ALLEY":" ","HOUSE_NO":"１６號","E_COORD97":180151.23999999999,"N_COORD97":2579661.7400000002,"ADDRESS":"大公街１６號","OBJECTID":632943},"geometry":{"x":180151.24000000209,"y":2579661.7400000002}},{"attributes":{"ID":632971,"DIS_CODE":0,"TOWNNAME":"新營區","LI":"民榮里","LIN":"25鄰","STREET":"新進路","SECT":"二段","MAREA":" ","LANE":" ","ALLEY":" ","HOUSE_NO":"１３９號","E_COORD97":179378.17000000001,"N_COORD97":2577715.1800000002,"ADDRESS":"新進路二段１３９號","OBJECTID":632944},"geometry":{"x":179378.16999999899,"y":2577715.1799999997}},{"attributes":{"ID":632972,"DIS_CODE":0,"TOWNNAME":"新營區","LI":"民權里","LIN":"4鄰","STREET":"武昌街","SECT":" ","MAREA":" ","LANE":" ","ALLEY":" ","HOUSE_NO":"２號","E_COORD97":180010.95000000001,"N_COORD97":2578358.9199999999,"ADDRESS":"武昌街２號","OBJECTID":632945},"geometry":{"x":180010.95000000112,"y":2578358.9199999981}},{"attributes":{"ID":632973,"DIS_CODE":0,"TOWNNAME":"新營區","LI":"民權里","LIN":"4鄰","STREET":"三民路","SECT":" ","MAREA":" ","LANE":" ","ALLEY":" ","HOUSE_NO":"７１之２號","E_COORD97":179975.19,"N_COORD97":2578448.8500000001,"ADDRESS":"三民路７１之２號","OBJECTID":632946},"geometry":{"x":179975.19000000041,"y":2578448.8500000015}},{"attributes":{"ID":632974,"DIS_CODE":0,"TOWNNAME":"新營區","LI":"南興里","LIN":" ","STREET":"延平路","SECT":" ","MAREA":" ","LANE":" ","ALLEY":" ","HOUSE_NO":"１４２之８號","E_COORD97":179698.17000000001,"N_COORD97":2577365.98,"ADDRESS":"延平路１４２之８號","OBJECTID":632947},"geometry":{"x":179698.16999999993,"y":2577365.9800000042}},{"attributes":{"ID":632975,"DIS_CODE":0,"TOWNNAME":"新營區","LI":"延平里","LIN":" ","STREET":"復興路","SECT":" ","MAREA":" ","LANE":" ","ALLEY":" ","HOUSE_NO":"１之１２５號","E_COORD97":179715.17999999999,"N_COORD97":2577935.1299999999,"ADDRESS":"復興路１之１２５號","OBJECTID":632948},"geometry":{"x":179715.1799999997,"y":2577935.129999999}},{"attributes":{"ID":632976,"DIS_CODE":0,"TOWNNAME":"新營區","LI":"民權里","LIN":"18鄰","STREET":"博愛街","SECT":" ","MAREA":" ","LANE":" ","ALLEY":" ","HOUSE_NO":"６２號","E_COORD97":179767.84,"N_COORD97":2578178.4500000002,"ADDRESS":"博愛街６２號","OBJECTID":632949},"geometry":{"x":179767.83999999985,"y":2578178.450000003}},{"attributes":{"ID":632977,"DIS_CODE":0,"TOWNNAME":"新營區","LI":"王公里","LIN":"32鄰","STREET":"大德街","SECT":" ","MAREA":" ","LANE":" ","ALLEY":" ","HOUSE_NO":"４１號","E_COORD97":180302.09,"N_COORD97":2579532.5600000001,"ADDRESS":"大德街４１號","OBJECTID":632950},"geometry":{"x":180302.08999999985,"y":2579532.5600000024}},{"attributes":{"ID":632978,"DIS_CODE":0,"TOWNNAME":"新營區","LI":"民生里","LIN":" ","STREET":"民生路","SECT":" ","MAREA":" ","LANE":" ","ALLEY":" ","HOUSE_NO":"６９之７號","E_COORD97":179192.85999999999,"N_COORD97":2578486.9100000001,"ADDRESS":"民生路６９之７號","OBJECTID":632951},"geometry":{"x":179192.86000000127,"y":2578486.9100000001}},{"attributes":{"ID":632979,"DIS_CODE":0,"TOWNNAME":"新營區","LI":"南紙里","LIN":"25鄰","STREET":"建業路","SECT":" ","MAREA":" ","LANE":" ","ALLEY":" ","HOUSE_NO":"２４５號","E_COORD97":178069.92000000001,"N_COORD97":2577502.2000000002,"ADDRESS":"建業路２４５號","OBJECTID":632952},"geometry":{"x":178069.92000000086,"y":2577502.200000003}},{"attributes":{"ID":632980,"DIS_CODE":0,"TOWNNAME":"新營區","LI":"三仙里","LIN":"25鄰","STREET":"育德一街","SECT":" ","MAREA":" ","LANE":" ","ALLEY":" ","HOUSE_NO":"２８號","E_COORD97":179541.35000000001,"N_COORD97":2578934.8199999998,"ADDRESS":"育德一街２８號","OBJECTID":632953},"geometry":{"x":179541.35000000056,"y":2578934.8200000003}},{"attributes":{"ID":632981,"DIS_CODE":0,"TOWNNAME":"新營區","LI":"延平里","LIN":"4鄰","STREET":"成功街","SECT":" ","MAREA":" ","LANE":" ","ALLEY":" ","HOUSE_NO":"１２號","E_COORD97":179717.07999999999,"N_COORD97":2577829.8500000001,"ADDRESS":"成功街１２號","OBJECTID":632954},"geometry":{"x":179717.08000000101,"y":2577829.8499999996}},{"attributes":{"ID":632982,"DIS_CODE":0,"TOWNNAME":"新營區","LI":"延平里","LIN":" ","STREET":"復興路","SECT":" ","MAREA":" ","LANE":" ","ALLEY":" ","HOUSE_NO":"１之４７號","E_COORD97":179713.92999999999,"N_COORD97":2577935.1299999999,"ADDRESS":"復興路１之４７號","OBJECTID":632955},"geometry":{"x":179713.93000000063,"y":2577935.129999999}},{"attributes":{"ID":632983,"DIS_CODE":0,"TOWNNAME":"新營區","LI":"嘉芳里","LIN":"14鄰","STREET":"八德路","SECT":" ","MAREA":" ","LANE":" ","ALLEY":" ","HOUSE_NO":"２號","E_COORD97":176910.28,"N_COORD97":2578083.7400000002,"ADDRESS":"八德路２號","OBJECTID":632956},"geometry":{"x":176910.28000000119,"y":2578083.7400000021}},{"attributes":{"ID":632984,"DIS_CODE":0,"TOWNNAME":"新營區","LI":"民權里","LIN":"14鄰","STREET":"三民路","SECT":" ","MAREA":" ","LANE":" ","ALLEY":" ","HOUSE_NO":"８５號之３","E_COORD97":179828.63,"N_COORD97":2578437.3700000001,"ADDRESS":"三民路８５號之３","OBJECTID":632957},"geometry":{"x":179828.62999999989,"y":2578437.370000001}},{"attributes":{"ID":632985,"DIS_CODE":0,"TOWNNAME":"新營區","LI":"民生里","LIN":" ","STREET":"進修街","SECT":" ","MAREA":" ","LANE":" ","ALLEY":" ","HOUSE_NO":"１１之７號","E_COORD97":179034.89000000001,"N_COORD97":2578395.7400000002,"ADDRESS":"進修街１１之７號","OBJECTID":632958},"geometry":{"x":179034.8900000006,"y":2578395.7400000021}},{"attributes":{"ID":632986,"DIS_CODE":0,"TOWNNAME":"新營區","LI":"中營里","LIN":" ","STREET":"中山路","SECT":" ","MAREA":" ","LANE":" ","ALLEY":" ","HOUSE_NO":"１２６號","E_COORD97":180237.81,"N_COORD97":2578232.7200000002,"ADDRESS":"中山路１２６號","OBJECTID":632959},"geometry":{"x":180237.80999999959,"y":2578232.7200000025}},{"attributes":{"ID":632987,"DIS_CODE":0,"TOWNNAME":"新營區","LI":"大宏里","LIN":" ","STREET":"三民路","SECT":" ","MAREA":" ","LANE":" ","ALLEY":" ","HOUSE_NO":"２８之１０號","E_COORD97":180371.91,"N_COORD97":2578577.6699999999,"ADDRESS":"三民路２８之１０號","OBJECTID":632960},"geometry":{"x":180371.91000000201,"y":2578577.6700000037}},{"attributes":{"ID":632988,"DIS_CODE":0,"TOWNNAME":"新營區","LI":"延平里","LIN":"4鄰","STREET":"長春街","SECT":" ","MAREA":" ","LANE":" ","ALLEY":" ","HOUSE_NO":"４７號","E_COORD97":179694.33354699999,"N_COORD97":2577871.4977699998,"ADDRESS":"長春街４７號","OBJECTID":632961},"geometry":{"x":179694.3335470017,"y":2577871.4977679998}},{"attributes":{"ID":632989,"DIS_CODE":0,"TOWNNAME":"新營區","LI":"永生里","LIN":"18鄰","STREET":"康樂街","SECT":" ","MAREA":" ","LANE":" ","ALLEY":" ","HOUSE_NO":"６１號","E_COORD97":179836.76999999999,"N_COORD97":2577831.5,"ADDRESS":"康樂街６１號","OBJECTID":632962},"geometry":{"x":179836.77000000048,"y":2577831.5}},{"attributes":{"ID":632990,"DIS_CODE":0,"TOWNNAME":"新營區","LI":"民權里","LIN":"20鄰","STREET":"仁愛街","SECT":" ","MAREA":" ","LANE":" ","ALLEY":" ","HOUSE_NO":"５７號","E_COORD97":179754.14999999999,"N_COORD97":2578309.2000000002,"ADDRESS":"仁愛街５７號","OBJECTID":632963},"geometry":{"x":179754.1500000013,"y":2578309.200000003}},{"attributes":{"ID":632991,"DIS_CODE":0,"TOWNNAME":"新營區","LI":"民榮里","LIN":"25鄰","STREET":"新進路","SECT":"二段","MAREA":" ","LANE":" ","ALLEY":" ","HOUSE_NO":"１４３號","E_COORD97":179369.98999999999,"N_COORD97":2577715.2200000002,"ADDRESS":"新進路二段１４３號","OBJECTID":632964},"geometry":{"x":179369.99000000115,"y":2577715.2200000025}},{"attributes":{"ID":632992,"DIS_CODE":0,"TOWNNAME":"新營區","LI":"三仙里","LIN":"32鄰","STREET":"三興街","SECT":" ","MAREA":" ","LANE":" ","ALLEY":" ","HOUSE_NO":"１４８號","E_COORD97":179438.91,"N_COORD97":2579300.77,"ADDRESS":"三興街１４８號","OBJECTID":632965},"geometry":{"x":179438.91000000015,"y":2579300.7699999996}},{"attributes":{"ID":632993,"DIS_CODE":0,"TOWNNAME":"新營區","LI":"民權里","LIN":" ","STREET":"仁愛街","SECT":" ","MAREA":" ","LANE":" ","ALLEY":" ","HOUSE_NO":"４１之１號","E_COORD97":179773.94,"N_COORD97":2578277.0499999998,"ADDRESS":"仁愛街４１之１號","OBJECTID":632966},"geometry":{"x":179773.94000000134,"y":2578277.0500000007}},{"attributes":{"ID":632994,"DIS_CODE":0,"TOWNNAME":"新營區","LI":"民生里","LIN":" ","STREET":"三民路","SECT":" ","MAREA":" ","LANE":" ","ALLEY":" ","HOUSE_NO":"１３７之２號","E_COORD97":179256.14000000001,"N_COORD97":2578198.6699999999,"ADDRESS":"三民路１３７之２號","OBJECTID":632967},"geometry":{"x":179256.14000000153,"y":2578198.6700000018}},{"attributes":{"ID":632995,"DIS_CODE":0,"TOWNNAME":"新營區","LI":"忠政里","LIN":"24鄰","STREET":"健康路","SECT":" ","MAREA":" ","LANE":" ","ALLEY":" ","HOUSE_NO":"１５２號","E_COORD97":179673.01999999999,"N_COORD97":2579275.29,"ADDRESS":"健康路１５２號","OBJECTID":632968},"geometry":{"x":179673.02000000048,"y":2579275.290000001}},{"attributes":{"ID":632996,"DIS_CODE":0,"TOWNNAME":"新營區","LI":"王公里","LIN":"14鄰","STREET":"中正路","SECT":" ","MAREA":" ","LANE":" ","ALLEY":" ","HOUSE_NO":"９０號","E_COORD97":180125.97,"N_COORD97":2579297.5,"ADDRESS":"中正路９０號","OBJECTID":632969},"geometry":{"x":180125.97000000067,"y":2579297.4999999981}},{"attributes":{"ID":632997,"DIS_CODE":0,"TOWNNAME":"新營區","LI":"民榮里","LIN":"17鄰","STREET":"富強街","SECT":" ","MAREA":" ","LANE":" ","ALLEY":" ","HOUSE_NO":"４９號","E_COORD97":178927.48000000001,"N_COORD97":2577832.5099999998,"ADDRESS":"富強街４９號","OBJECTID":632970},"geometry":{"x":178927.48000000231,"y":2577832.5099999998}},{"attributes":{"ID":632998,"DIS_CODE":0,"TOWNNAME":"新營區","LI":"永生里","LIN":" ","STREET":"新進路","SECT":" ","MAREA":" ","LANE":" ","ALLEY":" ","HOUSE_NO":"３１６號","E_COORD97":179969.01999999999,"N_COORD97":2577828.6600000001,"ADDRESS":"新進路３１６號","OBJECTID":632971},"geometry":{"x":179969.02000000048,"y":2577828.6600000039}},{"attributes":{"ID":632999,"DIS_CODE":0,"TOWNNAME":"新營區","LI":"三仙里","LIN":"25鄰","STREET":"育德三街","SECT":" ","MAREA":" ","LANE":" ","ALLEY":" ","HOUSE_NO":"９號","E_COORD97":179556.62,"N_COORD97":2578990.1099999999,"ADDRESS":"育德三街９號","OBJECTID":632972},"geometry":{"x":179556.62000000011,"y":2578990.1099999994}},{"attributes":{"ID":633000,"DIS_CODE":0,"TOWNNAME":"新營區","LI":"民榮里","LIN":"2鄰","STREET":"興農街","SECT":" ","MAREA":" ","LANE":" ","ALLEY":" ","HOUSE_NO":"３號","E_COORD97":179264.57000000001,"N_COORD97":2577992.5699999998,"ADDRESS":"興農街３號","OBJECTID":632973},"geometry":{"x":179264.57000000123,"y":2577992.5700000022}},{"attributes":{"ID":633001,"DIS_CODE":0,"TOWNNAME":"新營區","LI":"南興里","LIN":" ","STREET":"延平路","SECT":" ","MAREA":" ","LANE":" ","ALLEY":" ","HOUSE_NO":"１１２號","E_COORD97":179735.85999999999,"N_COORD97":2577645.9300000002,"ADDRESS":"延平路１１２號","OBJECTID":632974},"geometry":{"x":179735.86000000127,"y":2577645.9299999997}},{"attributes":{"ID":633002,"DIS_CODE":0,"TOWNNAME":"新營區","LI":"延平里","LIN":" ","STREET":"復興路","SECT":" ","MAREA":" ","LANE":" ","ALLEY":" ","HOUSE_NO":"１之５３號","E_COORD97":179713.92999999999,"N_COORD97":2577935.1299999999,"ADDRESS":"復興路１之５３號","OBJECTID":632975},"geometry":{"x":179713.93000000063,"y":2577935.129999999}},{"attributes":{"ID":633003,"DIS_CODE":0,"TOWNNAME":"新營區","LI":"大宏里","LIN":" ","STREET":"大同路","SECT":" ","MAREA":" ","LANE":" ","ALLEY":" ","HOUSE_NO":"２９之３號","E_COORD97":180703.57000000001,"N_COORD97":2578681.3199999998,"ADDRESS":"大同路２９之３號","OBJECTID":632976},"geometry":{"x":180703.57000000123,"y":2578681.3200000003}},{"attributes":{"ID":633004,"DIS_CODE":0,"TOWNNAME":"新營區","LI":"王公里","LIN":"25鄰","STREET":"中正路","SECT":" ","MAREA":" ","LANE":" ","ALLEY":" ","HOUSE_NO":"１３６之９號","E_COORD97":180096.53,"N_COORD97":2579626.6200000001,"ADDRESS":"中正路１３６之９號","OBJECTID":632977},"geometry":{"x":180096.52999999933,"y":2579626.620000001}},{"attributes":{"ID":633005,"DIS_CODE":0,"TOWNNAME":"新營區","LI":"王公里","LIN":"32鄰","STREET":"大德街","SECT":" ","MAREA":" ","LANE":" ","ALLEY":" ","HOUSE_NO":"１２號","E_COORD97":180194.60000000001,"N_COORD97":2579529.7400000002,"ADDRESS":"大德街１２號","OBJECTID":632978},"geometry":{"x":180194.60000000056,"y":2579529.7400000002}},{"attributes":{"ID":633006,"DIS_CODE":0,"TOWNNAME":"新營區","LI":"民權里","LIN":" ","STREET":"民權路","SECT":" ","MAREA":" ","LANE":" ","ALLEY":" ","HOUSE_NO":"４２號","E_COORD97":179736.14000000001,"N_COORD97":2578166.4199999999,"ADDRESS":"民權路４２號","OBJECTID":632979},"geometry":{"x":179736.1400000006,"y":2578166.4200000018}},{"attributes":{"ID":633007,"DIS_CODE":0,"TOWNNAME":"新營區","LI":"忠政里","LIN":"25鄰","STREET":"府西路","SECT":" ","MAREA":" ","LANE":" ","ALLEY":" ","HOUSE_NO":"１１５號之２","E_COORD97":179800.09,"N_COORD97":2579280.2799999998,"ADDRESS":"府西路１１５號之２","OBJECTID":632980},"geometry":{"x":179800.08999999985,"y":2579280.2799999993}},{"attributes":{"ID":633008,"DIS_CODE":0,"TOWNNAME":"新營區","LI":"延平里","LIN":"4鄰","STREET":"成功街","SECT":" ","MAREA":" ","LANE":" ","ALLEY":" ","HOUSE_NO":"１７號","E_COORD97":179688.61161699999,"N_COORD97":2577837.10195,"ADDRESS":"成功街１７號","OBJECTID":632981},"geometry":{"x":179688.61161700077,"y":2577837.1019529998}},{"attributes":{"ID":633009,"DIS_CODE":0,"TOWNNAME":"新營區","LI":"延平里","LIN":" ","STREET":"復興路","SECT":" ","MAREA":" ","LANE":" ","ALLEY":" ","HOUSE_NO":"４７號","E_COORD97":179663.76000000001,"N_COORD97":2578001.7599999998,"ADDRESS":"復興路４７號","OBJECTID":632982},"geometry":{"x":179663.75999999978,"y":2578001.7600000016}},{"attributes":{"ID":633010,"DIS_CODE":0,"TOWNNAME":"新營區","LI":"延平里","LIN":" ","STREET":"復興路","SECT":" ","MAREA":" ","LANE":" ","ALLEY":" ","HOUSE_NO":"１之１３２號","E_COORD97":179715.17999999999,"N_COORD97":2577935.1299999999,"ADDRESS":"復興路１之１３２號","OBJECTID":632983},"geometry":{"x":179715.1799999997,"y":2577935.129999999}},{"attributes":{"ID":633011,"DIS_CODE":0,"TOWNNAME":"新營區","LI":"中營里","LIN":" ","STREET":"東山路","SECT":" ","MAREA":" ","LANE":" ","ALLEY":" ","HOUSE_NO":"１４０號","E_COORD97":181591.13,"N_COORD97":2578687.1000000001,"ADDRESS":"東山路１４０號","OBJECTID":632984},"geometry":{"x":181591.13000000082,"y":2578687.1000000015}},{"attributes":{"ID":633012,"DIS_CODE":0,"TOWNNAME":"新營區","LI":"延平里","LIN":" ","STREET":"復興路","SECT":" ","MAREA":" ","LANE":" ","ALLEY":" ","HOUSE_NO":"１之１５２號","E_COORD97":179715.17999999999,"N_COORD97":2577935.1299999999,"ADDRESS":"復興路１之１５２號","OBJECTID":632985},"geometry":{"x":179715.1799999997,"y":2577935.129999999}},{"attributes":{"ID":633013,"DIS_CODE":0,"TOWNNAME":"新營區","LI":"民生里","LIN":" ","STREET":"民生路","SECT":" ","MAREA":" ","LANE":" ","ALLEY":" ","HOUSE_NO":"５９之１號","E_COORD97":179254.23999999999,"N_COORD97":2578486.6099999999,"ADDRESS":"民生路５９之１號","OBJECTID":632986},"geometry":{"x":179254.23999999929,"y":2578486.6100000013}},{"attributes":{"ID":633014,"DIS_CODE":0,"TOWNNAME":"新營區","LI":"延平里","LIN":" ","STREET":"忠義街","SECT":" ","MAREA":" ","LANE":" ","ALLEY":" ","HOUSE_NO":"１４之３號","E_COORD97":179578.17999999999,"N_COORD97":2577995.5699999998,"ADDRESS":"忠義街１４之３號","OBJECTID":632987},"geometry":{"x":179578.18000000063,"y":2577995.570000004}},{"attributes":{"ID":633015,"DIS_CODE":0,"TOWNNAME":"新營區","LI":"南紙里","LIN":"18鄰","STREET":"南紙街","SECT":" ","MAREA":" ","LANE":" ","ALLEY":" ","HOUSE_NO":"２２號","E_COORD97":177761.88,"N_COORD97":2577730.7200000002,"ADDRESS":"南紙街２２號","OBJECTID":632988},"geometry":{"x":177761.88000000082,"y":2577730.7200000044}},{"attributes":{"ID":633016,"DIS_CODE":0,"TOWNNAME":"新營區","LI":"民權里","LIN":"20鄰","STREET":"仁愛街","SECT":" ","MAREA":" ","LANE":" ","ALLEY":" ","HOUSE_NO":"３５號之３","E_COORD97":179777.73000000001,"N_COORD97":2578268.1699999999,"ADDRESS":"仁愛街３５號之３","OBJECTID":632989},"geometry":{"x":179777.73000000045,"y":2578268.1699999999}},{"attributes":{"ID":633017,"DIS_CODE":0,"TOWNNAME":"新營區","LI":"民榮里","LIN":"32鄰","STREET":"太子路","SECT":" ","MAREA":" ","LANE":" ","ALLEY":" ","HOUSE_NO":"５７號","E_COORD97":178295.37,"N_COORD97":2578064.79,"ADDRESS":"太子路５７號","OBJECTID":632990},"geometry":{"x":178295.37000000011,"y":2578064.790000001}},{"attributes":{"ID":633018,"DIS_CODE":0,"TOWNNAME":"新營區","LI":"埤寮里","LIN":"14鄰","STREET":"中正路","SECT":" ","MAREA":" ","LANE":" ","ALLEY":" ","HOUSE_NO":"３７０號","E_COORD97":180076.69,"N_COORD97":2580266.7599999998,"ADDRESS":"中正路３７０號","OBJECTID":632991},"geometry":{"x":180076.69000000041,"y":2580266.7600000016}},{"attributes":{"ID":633019,"DIS_CODE":0,"TOWNNAME":"新營區","LI":"民權里","LIN":"4鄰","STREET":"三民路","SECT":" ","MAREA":" ","LANE":" ","ALLEY":" ","HOUSE_NO":"７５號之２","E_COORD97":179955.51000000001,"N_COORD97":2578446.7400000002,"ADDRESS":"三民路７５號之２","OBJECTID":632992},"geometry":{"x":179955.51000000164,"y":2578446.7400000021}},{"attributes":{"ID":633020,"DIS_CODE":0,"TOWNNAME":"新營區","LI":"延平里","LIN":" ","STREET":"復興路","SECT":" ","MAREA":" ","LANE":" ","ALLEY":" ","HOUSE_NO":"１之４３號","E_COORD97":179713.92999999999,"N_COORD97":2577935.1299999999,"ADDRESS":"復興路１之４３號","OBJECTID":632993},"geometry":{"x":179713.93000000063,"y":2577935.129999999}},{"attributes":{"ID":633021,"DIS_CODE":0,"TOWNNAME":"新營區","LI":"新東里","LIN":" ","STREET":"民治路","SECT":" ","MAREA":" ","LANE":" ","ALLEY":" ","HOUSE_NO":"２４之１號","E_COORD97":180259.60999999999,"N_COORD97":2578890.5,"ADDRESS":"民治路２４之１號","OBJECTID":632994},"geometry":{"x":180259.61000000127,"y":2578890.5}},{"attributes":{"ID":633022,"DIS_CODE":0,"TOWNNAME":"新營區","LI":"延平里","LIN":"4鄰","STREET":"成功街","SECT":" ","MAREA":" ","LANE":" ","ALLEY":" ","HOUSE_NO":"１２號之２","E_COORD97":179718.48000000001,"N_COORD97":2577814.3999999999,"ADDRESS":"成功街１２號之２","OBJECTID":632995},"geometry":{"x":179718.48000000045,"y":2577814.4000000022}},{"attributes":{"ID":633023,"DIS_CODE":0,"TOWNNAME":"新營區","LI":"忠政里","LIN":"18鄰","STREET":"中正路","SECT":" ","MAREA":" ","LANE":" ","ALLEY":" ","HOUSE_NO":"２０７號之６","E_COORD97":180003.73000000001,"N_COORD97":2579724.5099999998,"ADDRESS":"中正路２０７號之６","OBJECTID":632996},"geometry":{"x":180003.73000000045,"y":2579724.5100000035}},{"attributes":{"ID":633024,"DIS_CODE":0,"TOWNNAME":"新營區","LI":"三仙里","LIN":"32鄰","STREET":"三興街","SECT":" ","MAREA":" ","LANE":" ","ALLEY":" ","HOUSE_NO":"１２２號","E_COORD97":179454.97,"N_COORD97":2579234.2400000002,"ADDRESS":"三興街１２２號","OBJECTID":632997},"geometry":{"x":179454.96999999974,"y":2579234.2400000002}},{"attributes":{"ID":633025,"DIS_CODE":0,"TOWNNAME":"新營區","LI":"興業里","LIN":"4鄰","STREET":"公誠街","SECT":" ","MAREA":" ","LANE":" ","ALLEY":" ","HOUSE_NO":"７之５號","E_COORD97":180304.45000000001,"N_COORD97":2578040.8700000001,"ADDRESS":"公誠街７之５號","OBJECTID":632998},"geometry":{"x":180304.45000000112,"y":2578040.870000001}},{"attributes":{"ID":633026,"DIS_CODE":0,"TOWNNAME":"新營區","LI":"大宏里","LIN":"4鄰","STREET":"民族路","SECT":" ","MAREA":" ","LANE":" ","ALLEY":" ","HOUSE_NO":"１３之９號","E_COORD97":180285.67999999999,"N_COORD97":2578573.6400000001,"ADDRESS":"民族路１３之９號","OBJECTID":632999},"geometry":{"x":180285.68000000063,"y":2578573.6400000006}},{"attributes":{"ID":633027,"DIS_CODE":0,"TOWNNAME":"新營區","LI":"南興里","LIN":" ","STREET":"延平路","SECT":" ","MAREA":" ","LANE":" ","ALLEY":" ","HOUSE_NO":"１４２之３５號","E_COORD97":179687.10000000001,"N_COORD97":2577358.29,"ADDRESS":"延平路１４２之３５號","OBJECTID":633000},"geometry":{"x":179687.10000000149,"y":2577358.2899999991}}]}