{"displayFieldName":"TOWNNAME","fieldAliases":{"ID":"ID","DIS_CODE":"DIS_CODE","TOWNNAME":"TOWNNAME","LI":"LI","LIN":"LIN","STREET":"STREET","SECT":"SECT","MAREA":"MAREA","LANE":"LANE","ALLEY":"ALLEY","HOUSE_NO":"HOUSE_NO","E_COORD97":"E_COORD97","N_COORD97":"N_COORD97","ADDRESS":"ADDRESS","OBJECTID":"OBJECTID"},"geometryType":"esriGeometryPoint","spatialReference":{"wkid":102443,"latestWkid":3826},"fields":[{"name":"ID","type":"esriFieldTypeDouble","alias":"ID"},{"name":"DIS_CODE","type":"esriFieldTypeInteger","alias":"DIS_CODE"},{"name":"TOWNNAME","type":"esriFieldTypeString","alias":"TOWNNAME","length":8},{"name":"LI","type":"esriFieldTypeString","alias":"LI","length":8},{"name":"LIN","type":"esriFieldTypeString","alias":"LIN","length":12},{"name":"STREET","type":"esriFieldTypeString","alias":"STREET","length":20},{"name":"SECT","type":"esriFieldTypeString","alias":"SECT","length":8},{"name":"MAREA","type":"esriFieldTypeString","alias":"MAREA","length":12},{"name":"LANE","type":"esriFieldTypeString","alias":"LANE","length":10},{"name":"ALLEY","type":"esriFieldTypeString","alias":"ALLEY","length":10},{"name":"HOUSE_NO","type":"esriFieldTypeString","alias":"HOUSE_NO","length":20},{"name":"E_COORD97","type":"esriFieldTypeDouble","alias":"E_COORD97"},{"name":"N_COORD97","type":"esriFieldTypeDouble","alias":"N_COORD97"},{"name":"ADDRESS","type":"esriFieldTypeString","alias":"ADDRESS","length":50},{"name":"OBJECTID","type":"esriFieldTypeOID","alias":"OBJECTID"}],"features":[{"attributes":{"ID":608228,"DIS_CODE":0,"TOWNNAME":"永康區","LI":"北灣里","LIN":"7鄰","STREET":"大灣路","SECT":" ","MAREA":" ","LANE":" ","ALLEY":" ","HOUSE_NO":"１３８之１號","E_COORD97":175132.79000000001,"N_COORD97":2545598.8199999998,"ADDRESS":"大灣路１３８之１號","OBJECTID":608201},"geometry":{"x":175132.7900000019,"y":2545598.820000004}},{"attributes":{"ID":608229,"DIS_CODE":0,"TOWNNAME":"中西區","LI":"中正里","LIN":"3鄰","STREET":"正興街","SECT":" ","MAREA":" ","LANE":" ","ALLEY":" ","HOUSE_NO":"１３號","E_COORD97":167804.16,"N_COORD97":2543845.5600000001,"ADDRESS":"正興街１３號","OBJECTID":608202},"geometry":{"x":167804.16000000108,"y":2543845.5600000024}},{"attributes":{"ID":608230,"DIS_CODE":0,"TOWNNAME":"中西區","LI":"中正里","LIN":"3鄰","STREET":"正興街","SECT":" ","MAREA":" ","LANE":" ","ALLEY":" ","HOUSE_NO":"１５號","E_COORD97":167796,"N_COORD97":2543847.4900000002,"ADDRESS":"正興街１５號","OBJECTID":608203},"geometry":{"x":167796,"y":2543847.4900000002}},{"attributes":{"ID":608231,"DIS_CODE":0,"TOWNNAME":"中西區","LI":"中正里","LIN":"3鄰","STREET":"正興街","SECT":" ","MAREA":" ","LANE":" ","ALLEY":" ","HOUSE_NO":"１９號","E_COORD97":167791.57000000001,"N_COORD97":2543846.3599999999,"ADDRESS":"正興街１９號","OBJECTID":608204},"geometry":{"x":167791.57000000123,"y":2543846.3600000013}},{"attributes":{"ID":608232,"DIS_CODE":0,"TOWNNAME":"中西區","LI":"中正里","LIN":"3鄰","STREET":"正興街","SECT":" ","MAREA":" ","LANE":" ","ALLEY":" ","HOUSE_NO":"１號","E_COORD97":167857.14000000001,"N_COORD97":2543842.75,"ADDRESS":"正興街１號","OBJECTID":608205},"geometry":{"x":167857.13999999966,"y":2543842.7500000037}},{"attributes":{"ID":608233,"DIS_CODE":0,"TOWNNAME":"中西區","LI":"中正里","LIN":"3鄰","STREET":"正興街","SECT":" ","MAREA":" ","LANE":" ","ALLEY":" ","HOUSE_NO":"２１號","E_COORD97":167782.69,"N_COORD97":2543849.3900000001,"ADDRESS":"正興街２１號","OBJECTID":608206},"geometry":{"x":167782.69000000134,"y":2543849.3900000043}},{"attributes":{"ID":608234,"DIS_CODE":0,"TOWNNAME":"中西區","LI":"中正里","LIN":"3鄰","STREET":"正興街","SECT":" ","MAREA":" ","LANE":" ","ALLEY":" ","HOUSE_NO":"２３號","E_COORD97":167780.01999999999,"N_COORD97":2543843.2599999998,"ADDRESS":"正興街２３號","OBJECTID":608207},"geometry":{"x":167780.01999999955,"y":2543843.2600000016}},{"attributes":{"ID":608235,"DIS_CODE":0,"TOWNNAME":"中西區","LI":"中正里","LIN":"3鄰","STREET":"正興街","SECT":" ","MAREA":" ","LANE":" ","ALLEY":" ","HOUSE_NO":"２５號","E_COORD97":167778.81,"N_COORD97":2543839.3799999999,"ADDRESS":"正興街２５號","OBJECTID":608208},"geometry":{"x":167778.81000000052,"y":2543839.379999999}},{"attributes":{"ID":608236,"DIS_CODE":0,"TOWNNAME":"中西區","LI":"中正里","LIN":"3鄰","STREET":"正興街","SECT":" ","MAREA":" ","LANE":" ","ALLEY":" ","HOUSE_NO":"２７號","E_COORD97":167773.23999999999,"N_COORD97":2543843.8799999999,"ADDRESS":"正興街２７號","OBJECTID":608209},"geometry":{"x":167773.24000000115,"y":2543843.879999999}},{"attributes":{"ID":608237,"DIS_CODE":0,"TOWNNAME":"中西區","LI":"中正里","LIN":"3鄰","STREET":"正興街","SECT":" ","MAREA":" ","LANE":" ","ALLEY":" ","HOUSE_NO":"２９號","E_COORD97":167778.48999999999,"N_COORD97":2543858.48,"ADDRESS":"正興街２９號","OBJECTID":608210},"geometry":{"x":167778.49000000115,"y":2543858.4799999986}},{"attributes":{"ID":608238,"DIS_CODE":0,"TOWNNAME":"中西區","LI":"中正里","LIN":"3鄰","STREET":"正興街","SECT":" ","MAREA":" ","LANE":" ","ALLEY":" ","HOUSE_NO":"３１號","E_COORD97":167774.44,"N_COORD97":2543863.5499999998,"ADDRESS":"正興街３１號","OBJECTID":608211},"geometry":{"x":167774.44000000041,"y":2543863.5500000026}},{"attributes":{"ID":608239,"DIS_CODE":0,"TOWNNAME":"中西區","LI":"中正里","LIN":"3鄰","STREET":"正興街","SECT":" ","MAREA":" ","LANE":" ","ALLEY":" ","HOUSE_NO":"３３號","E_COORD97":167766.26000000001,"N_COORD97":2543861.0899999999,"ADDRESS":"正興街３３號","OBJECTID":608212},"geometry":{"x":167766.26000000071,"y":2543861.0900000017}},{"attributes":{"ID":608240,"DIS_CODE":0,"TOWNNAME":"中西區","LI":"中正里","LIN":"3鄰","STREET":"正興街","SECT":" ","MAREA":" ","LANE":" ","ALLEY":" ","HOUSE_NO":"３５號","E_COORD97":167758.25,"N_COORD97":2543861.6099999999,"ADDRESS":"正興街３５號","OBJECTID":608213},"geometry":{"x":167758.25,"y":2543861.6100000013}},{"attributes":{"ID":608241,"DIS_CODE":0,"TOWNNAME":"中西區","LI":"中正里","LIN":"3鄰","STREET":"正興街","SECT":" ","MAREA":" ","LANE":" ","ALLEY":" ","HOUSE_NO":"７號","E_COORD97":167840.28,"N_COORD97":2543847.96,"ADDRESS":"正興街７號","OBJECTID":608214},"geometry":{"x":167840.28000000026,"y":2543847.9600000009}},{"attributes":{"ID":608242,"DIS_CODE":0,"TOWNNAME":"中西區","LI":"中正里","LIN":"3鄰","STREET":"正興街","SECT":" ","MAREA":" ","LANE":" ","ALLEY":" ","HOUSE_NO":"９號","E_COORD97":167831.23999999999,"N_COORD97":2543846.2799999998,"ADDRESS":"正興街９號","OBJECTID":608215},"geometry":{"x":167831.24000000115,"y":2543846.2800000012}},{"attributes":{"ID":608243,"DIS_CODE":0,"TOWNNAME":"中西區","LI":"中正里","LIN":"3鄰","STREET":"西門路","SECT":"二段","MAREA":" ","LANE":" ","ALLEY":" ","HOUSE_NO":"１７５號之１","E_COORD97":167866.79999999999,"N_COORD97":2543839.7999999998,"ADDRESS":"西門路二段１７５號之１","OBJECTID":608216},"geometry":{"x":167866.79999999981,"y":2543839.8000000045}},{"attributes":{"ID":608244,"DIS_CODE":0,"TOWNNAME":"中西區","LI":"中正里","LIN":"3鄰","STREET":"國華街","SECT":"三段","MAREA":" ","LANE":" ","ALLEY":" ","HOUSE_NO":"３６號","E_COORD97":167754.37,"N_COORD97":2543857.04,"ADDRESS":"國華街三段３６號","OBJECTID":608217},"geometry":{"x":167754.37000000011,"y":2543857.0400000028}},{"attributes":{"ID":608245,"DIS_CODE":0,"TOWNNAME":"中西區","LI":"中正里","LIN":"3鄰","STREET":"國華街","SECT":"三段","MAREA":" ","LANE":" ","ALLEY":" ","HOUSE_NO":"３８號","E_COORD97":167764.42999999999,"N_COORD97":2543852.0299999998,"ADDRESS":"國華街三段３８號","OBJECTID":608218},"geometry":{"x":167764.43000000063,"y":2543852.0300000012}},{"attributes":{"ID":608246,"DIS_CODE":0,"TOWNNAME":"中西區","LI":"中正里","LIN":"3鄰","STREET":"國華街","SECT":"三段","MAREA":" ","LANE":" ","ALLEY":" ","HOUSE_NO":"４２號","E_COORD97":167755.34,"N_COORD97":2543866.71,"ADDRESS":"國華街三段４２號","OBJECTID":608219},"geometry":{"x":167755.34000000078,"y":2543866.7100000009}},{"attributes":{"ID":608247,"DIS_CODE":0,"TOWNNAME":"中西區","LI":"中正里","LIN":"3鄰","STREET":"國華街","SECT":"三段","MAREA":" ","LANE":" ","ALLEY":" ","HOUSE_NO":"１０號","E_COORD97":167728.91,"N_COORD97":2543760.2200000002,"ADDRESS":"國華街三段１０號","OBJECTID":608220},"geometry":{"x":167728.91000000015,"y":2543760.2200000025}},{"attributes":{"ID":608248,"DIS_CODE":0,"TOWNNAME":"中西區","LI":"中正里","LIN":"3鄰","STREET":"國華街","SECT":"三段","MAREA":" ","LANE":" ","ALLEY":" ","HOUSE_NO":"１２號","E_COORD97":167729.32999999999,"N_COORD97":2543762.8100000001,"ADDRESS":"國華街三段１２號","OBJECTID":608221},"geometry":{"x":167729.33000000007,"y":2543762.8100000024}},{"attributes":{"ID":608249,"DIS_CODE":0,"TOWNNAME":"中西區","LI":"中正里","LIN":"3鄰","STREET":"國華街","SECT":"三段","MAREA":" ","LANE":" ","ALLEY":" ","HOUSE_NO":"１４號","E_COORD97":167729.60000000001,"N_COORD97":2543765.7000000002,"ADDRESS":"國華街三段１４號","OBJECTID":608222},"geometry":{"x":167729.60000000056,"y":2543765.7000000011}},{"attributes":{"ID":608250,"DIS_CODE":0,"TOWNNAME":"永康區","LI":"王行里","LIN":"14鄰","STREET":"環工路","SECT":" ","MAREA":" ","LANE":" ","ALLEY":" ","HOUSE_NO":"３號","E_COORD97":175735.54000000001,"N_COORD97":2550095.4900000002,"ADDRESS":"環工路３號","OBJECTID":608223},"geometry":{"x":175735.54000000004,"y":2550095.4900000002}},{"attributes":{"ID":608251,"DIS_CODE":0,"TOWNNAME":"永康區","LI":"北灣里","LIN":"8鄰","STREET":"大灣七街","SECT":" ","MAREA":" ","LANE":" ","ALLEY":" ","HOUSE_NO":"３號","E_COORD97":175071.45000000001,"N_COORD97":2545531.6899999999,"ADDRESS":"大灣七街３號","OBJECTID":608224},"geometry":{"x":175071.45000000112,"y":2545531.6900000013}},{"attributes":{"ID":608252,"DIS_CODE":0,"TOWNNAME":"永康區","LI":"北灣里","LIN":"33鄰","STREET":"文賢街","SECT":" ","MAREA":" ","LANE":" ","ALLEY":" ","HOUSE_NO":"２１８號","E_COORD97":175307.69,"N_COORD97":2545781.2200000002,"ADDRESS":"文賢街２１８號","OBJECTID":608225},"geometry":{"x":175307.69000000041,"y":2545781.2200000025}},{"attributes":{"ID":608253,"DIS_CODE":0,"TOWNNAME":"中西區","LI":"中正里","LIN":"3鄰","STREET":"國華街","SECT":"三段","MAREA":" ","LANE":" ","ALLEY":" ","HOUSE_NO":"２２號","E_COORD97":167735.35999999999,"N_COORD97":2543788.71,"ADDRESS":"國華街三段２２號","OBJECTID":608226},"geometry":{"x":167735.36000000127,"y":2543788.7100000009}},{"attributes":{"ID":608254,"DIS_CODE":0,"TOWNNAME":"中西區","LI":"中正里","LIN":"3鄰","STREET":"國華街","SECT":"三段","MAREA":" ","LANE":" ","ALLEY":" ","HOUSE_NO":"３０號","E_COORD97":167750.23999999999,"N_COORD97":2543845.5600000001,"ADDRESS":"國華街三段３０號","OBJECTID":608227},"geometry":{"x":167750.24000000022,"y":2543845.5600000024}},{"attributes":{"ID":608255,"DIS_CODE":0,"TOWNNAME":"中西區","LI":"中正里","LIN":"3鄰","STREET":"國華街","SECT":"三段","MAREA":" ","LANE":" ","ALLEY":" ","HOUSE_NO":"３２號","E_COORD97":167751.56,"N_COORD97":2543849.4300000002,"ADDRESS":"國華街三段３２號","OBJECTID":608228},"geometry":{"x":167751.56000000052,"y":2543849.4300000016}},{"attributes":{"ID":608256,"DIS_CODE":0,"TOWNNAME":"中西區","LI":"中正里","LIN":"3鄰","STREET":"國華街","SECT":"三段","MAREA":" ","LANE":" ","ALLEY":" ","HOUSE_NO":"３４號","E_COORD97":167753.14000000001,"N_COORD97":2543853.3500000001,"ADDRESS":"國華街三段３４號","OBJECTID":608229},"geometry":{"x":167753.1400000006,"y":2543853.3500000015}},{"attributes":{"ID":608257,"DIS_CODE":0,"TOWNNAME":"中西區","LI":"中正里","LIN":"3鄰","STREET":"國華街","SECT":"三段","MAREA":" ","LANE":" ","ALLEY":" ","HOUSE_NO":"６號","E_COORD97":167727.67999999999,"N_COORD97":2543755.4300000002,"ADDRESS":"國華街三段６號","OBJECTID":608230},"geometry":{"x":167727.68000000063,"y":2543755.4299999997}},{"attributes":{"ID":608258,"DIS_CODE":0,"TOWNNAME":"中西區","LI":"中正里","LIN":"3鄰","STREET":"國華街","SECT":"三段","MAREA":" ","LANE":" ","ALLEY":" ","HOUSE_NO":"８號","E_COORD97":167727.82000000001,"N_COORD97":2543757.4900000002,"ADDRESS":"國華街三段８號","OBJECTID":608231},"geometry":{"x":167727.8200000003,"y":2543757.4900000021}},{"attributes":{"ID":608259,"DIS_CODE":0,"TOWNNAME":"永康區","LI":"六合里","LIN":"3鄰","STREET":"中山南路","SECT":" ","MAREA":" ","LANE":" ","ALLEY":" ","HOUSE_NO":"９４號","E_COORD97":170967.34,"N_COORD97":2545909.8900000001,"ADDRESS":"中山南路９４號","OBJECTID":608232},"geometry":{"x":170967.34000000171,"y":2545909.8900000006}},{"attributes":{"ID":608260,"DIS_CODE":0,"TOWNNAME":"永康區","LI":"六合里","LIN":"3鄰","STREET":"中山南路","SECT":" ","MAREA":" ","LANE":" ","ALLEY":" ","HOUSE_NO":"９８號","E_COORD97":170974.60999999999,"N_COORD97":2545912.1400000001,"ADDRESS":"中山南路９８號","OBJECTID":608233},"geometry":{"x":170974.61000000127,"y":2545912.1399999987}},{"attributes":{"ID":608261,"DIS_CODE":0,"TOWNNAME":"永康區","LI":"永康里","LIN":"3鄰","STREET":"中山路","SECT":" ","MAREA":" ","LANE":" ","ALLEY":" ","HOUSE_NO":"２８號","E_COORD97":173862.26999999999,"N_COORD97":2547451.4100000001,"ADDRESS":"中山路２８號","OBJECTID":608234},"geometry":{"x":173862.26999999955,"y":2547451.4100000001}},{"attributes":{"ID":608262,"DIS_CODE":0,"TOWNNAME":"永康區","LI":"六合里","LIN":"3鄰","STREET":"中山南路","SECT":" ","MAREA":" ","LANE":" ","ALLEY":" ","HOUSE_NO":"１００號","E_COORD97":170979.39999999999,"N_COORD97":2545913.3900000001,"ADDRESS":"中山南路１００號","OBJECTID":608235},"geometry":{"x":170979.4000000013,"y":2545913.3900000006}},{"attributes":{"ID":608263,"DIS_CODE":0,"TOWNNAME":"永康區","LI":"六合里","LIN":"3鄰","STREET":"中山南路","SECT":" ","MAREA":" ","LANE":" ","ALLEY":" ","HOUSE_NO":"８６號","E_COORD97":170953.09,"N_COORD97":2545905.3900000001,"ADDRESS":"中山南路８６號","OBJECTID":608236},"geometry":{"x":170953.08999999985,"y":2545905.3900000025}},{"attributes":{"ID":608264,"DIS_CODE":0,"TOWNNAME":"永康區","LI":"正強里","LIN":"32鄰","STREET":"四維街","SECT":" ","MAREA":" ","LANE":" ","ALLEY":" ","HOUSE_NO":"４５號","E_COORD97":173399.75,"N_COORD97":2548045,"ADDRESS":"四維街４５號","OBJECTID":608237},"geometry":{"x":173399.75,"y":2548044.9999999981}},{"attributes":{"ID":608265,"DIS_CODE":0,"TOWNNAME":"永康區","LI":"永康里","LIN":"3鄰","STREET":"中山路","SECT":" ","MAREA":" ","LANE":" ","ALLEY":" ","HOUSE_NO":"３５號","E_COORD97":173822.04999999999,"N_COORD97":2547501.7400000002,"ADDRESS":"中山路３５號","OBJECTID":608238},"geometry":{"x":173822.04999999888,"y":2547501.7400000021}},{"attributes":{"ID":608266,"DIS_CODE":0,"TOWNNAME":"永康區","LI":"北灣里","LIN":"39鄰","STREET":"大同街","SECT":" ","MAREA":" ","LANE":" ","ALLEY":" ","HOUSE_NO":"６４３號","E_COORD97":174560.31,"N_COORD97":2546494.73,"ADDRESS":"大同街６４３號","OBJECTID":608239},"geometry":{"x":174560.30999999959,"y":2546494.7300000042}},{"attributes":{"ID":608267,"DIS_CODE":0,"TOWNNAME":"永康區","LI":"永康里","LIN":"3鄰","STREET":"中山路","SECT":" ","MAREA":" ","LANE":" ","ALLEY":" ","HOUSE_NO":"４２之１號","E_COORD97":173858.32000000001,"N_COORD97":2547494.5800000001,"ADDRESS":"中山路４２之１號","OBJECTID":608240},"geometry":{"x":173858.32000000123,"y":2547494.5800000001}},{"attributes":{"ID":608268,"DIS_CODE":0,"TOWNNAME":"永康區","LI":"永康里","LIN":"3鄰","STREET":"中山路","SECT":" ","MAREA":" ","LANE":" ","ALLEY":" ","HOUSE_NO":"１７號","E_COORD97":173835.42999999999,"N_COORD97":2547456.75,"ADDRESS":"中山路１７號","OBJECTID":608241},"geometry":{"x":173835.43000000063,"y":2547456.7499999981}},{"attributes":{"ID":608269,"DIS_CODE":0,"TOWNNAME":"永康區","LI":"六合里","LIN":"3鄰","STREET":"中山南路","SECT":" ","MAREA":" ","LANE":" ","ALLEY":" ","HOUSE_NO":"１４４號","E_COORD97":171126.79000000001,"N_COORD97":2545961.9900000002,"ADDRESS":"中山南路１４４號","OBJECTID":608242},"geometry":{"x":171126.79000000004,"y":2545961.9900000021}},{"attributes":{"ID":608270,"DIS_CODE":0,"TOWNNAME":"永康區","LI":"六合里","LIN":"3鄰","STREET":"中山南路","SECT":" ","MAREA":" ","LANE":" ","ALLEY":" ","HOUSE_NO":"１２８號","E_COORD97":171094.29000000001,"N_COORD97":2545950.4900000002,"ADDRESS":"中山南路１２８號","OBJECTID":608243},"geometry":{"x":171094.29000000004,"y":2545950.4900000039}},{"attributes":{"ID":608271,"DIS_CODE":0,"TOWNNAME":"永康區","LI":"永康里","LIN":"3鄰","STREET":"中山路","SECT":" ","MAREA":" ","LANE":" ","ALLEY":" ","HOUSE_NO":"４２之２號","E_COORD97":173857.23000000001,"N_COORD97":2547498.5800000001,"ADDRESS":"中山路４２之２號","OBJECTID":608244},"geometry":{"x":173857.23000000231,"y":2547498.5800000001}},{"attributes":{"ID":608272,"DIS_CODE":0,"TOWNNAME":"中西區","LI":"元安里","LIN":"3鄰","STREET":"國華街","SECT":"二段","MAREA":" ","LANE":" ","ALLEY":" ","HOUSE_NO":"４０號","E_COORD97":167609.85000000001,"N_COORD97":2543215.7200000002,"ADDRESS":"國華街二段４０號","OBJECTID":608245},"geometry":{"x":167609.84999999963,"y":2543215.7200000007}},{"attributes":{"ID":608273,"DIS_CODE":0,"TOWNNAME":"中西區","LI":"元安里","LIN":"3鄰","STREET":"國華街","SECT":"二段","MAREA":" ","LANE":" ","ALLEY":" ","HOUSE_NO":"４２號","E_COORD97":167609.37,"N_COORD97":2543222.6200000001,"ADDRESS":"國華街二段４２號","OBJECTID":608246},"geometry":{"x":167609.37000000104,"y":2543222.6200000029}},{"attributes":{"ID":608274,"DIS_CODE":0,"TOWNNAME":"中西區","LI":"元安里","LIN":"3鄰","STREET":"國華街","SECT":"二段","MAREA":" ","LANE":" ","ALLEY":" ","HOUSE_NO":"４５號","E_COORD97":167587.06,"N_COORD97":2543289.2999999998,"ADDRESS":"國華街二段４５號","OBJECTID":608247},"geometry":{"x":167587.06000000145,"y":2543289.3000000007}},{"attributes":{"ID":608275,"DIS_CODE":0,"TOWNNAME":"中西區","LI":"大涼里","LIN":"3鄰","STREET":"尊王路","SECT":" ","MAREA":" ","LANE":" ","ALLEY":" ","HOUSE_NO":"１６５號","E_COORD97":167212.97,"N_COORD97":2543650.8999999999,"ADDRESS":"尊王路１６５號","OBJECTID":608248},"geometry":{"x":167212.96999999881,"y":2543650.9000000004}},{"attributes":{"ID":608276,"DIS_CODE":0,"TOWNNAME":"中西區","LI":"大涼里","LIN":"3鄰","STREET":"尊王路","SECT":" ","MAREA":" ","LANE":" ","ALLEY":" ","HOUSE_NO":"１６３號","E_COORD97":167218.95000000001,"N_COORD97":2543649.1499999999,"ADDRESS":"尊王路１６３號","OBJECTID":608249},"geometry":{"x":167218.95000000112,"y":2543649.1500000004}},{"attributes":{"ID":608277,"DIS_CODE":0,"TOWNNAME":"中西區","LI":"大涼里","LIN":"3鄰","STREET":"尊王路","SECT":" ","MAREA":" ","LANE":" ","ALLEY":" ","HOUSE_NO":"１６１號","E_COORD97":167226.67000000001,"N_COORD97":2543647.5699999998,"ADDRESS":"尊王路１６１號","OBJECTID":608250},"geometry":{"x":167226.66999999993,"y":2543647.5699999984}},{"attributes":{"ID":608278,"DIS_CODE":0,"TOWNNAME":"中西區","LI":"大涼里","LIN":"3鄰","STREET":"尊王路","SECT":" ","MAREA":" ","LANE":" ","ALLEY":" ","HOUSE_NO":"１７７號","E_COORD97":167177.23999999999,"N_COORD97":2543654.0099999998,"ADDRESS":"尊王路１７７號","OBJECTID":608251},"geometry":{"x":167177.24000000022,"y":2543654.0099999998}},{"attributes":{"ID":608279,"DIS_CODE":0,"TOWNNAME":"中西區","LI":"大涼里","LIN":"3鄰","STREET":"尊王路","SECT":" ","MAREA":" ","LANE":" ","ALLEY":" ","HOUSE_NO":"１７９號","E_COORD97":167171.56,"N_COORD97":2543654.8199999998,"ADDRESS":"尊王路１７９號","OBJECTID":608252},"geometry":{"x":167171.56000000145,"y":2543654.8200000003}},{"attributes":{"ID":608280,"DIS_CODE":0,"TOWNNAME":"中西區","LI":"大涼里","LIN":"3鄰","STREET":"尊王路","SECT":" ","MAREA":" ","LANE":" ","ALLEY":" ","HOUSE_NO":"１７１號","E_COORD97":167193.64000000001,"N_COORD97":2543650.1899999999,"ADDRESS":"尊王路１７１號","OBJECTID":608253},"geometry":{"x":167193.6400000006,"y":2543650.1900000013}},{"attributes":{"ID":608281,"DIS_CODE":0,"TOWNNAME":"中西區","LI":"大涼里","LIN":"3鄰","STREET":"尊王路","SECT":" ","MAREA":" ","LANE":" ","ALLEY":" ","HOUSE_NO":"１６９號","E_COORD97":167198.79000000001,"N_COORD97":2543649.6800000002,"ADDRESS":"尊王路１６９號","OBJECTID":608254},"geometry":{"x":167198.79000000004,"y":2543649.6800000034}},{"attributes":{"ID":608282,"DIS_CODE":0,"TOWNNAME":"中西區","LI":"民主里","LIN":"3鄰","STREET":"尊王路","SECT":" ","MAREA":" ","LANE":" ","ALLEY":" ","HOUSE_NO":"１２５號","E_COORD97":167411.45999999999,"N_COORD97":2543602.75,"ADDRESS":"尊王路１２５號","OBJECTID":608255},"geometry":{"x":167411.45999999996,"y":2543602.7500000019}},{"attributes":{"ID":608283,"DIS_CODE":0,"TOWNNAME":"中西區","LI":"民主里","LIN":"3鄰","STREET":"尊王路","SECT":" ","MAREA":" ","LANE":" ","ALLEY":" ","HOUSE_NO":"１１３號","E_COORD97":167445.35000000001,"N_COORD97":2543596.54,"ADDRESS":"尊王路１１３號","OBJECTID":608256},"geometry":{"x":167445.34999999963,"y":2543596.540000001}},{"attributes":{"ID":608284,"DIS_CODE":0,"TOWNNAME":"中西區","LI":"民主里","LIN":"3鄰","STREET":"尊王路","SECT":" ","MAREA":" ","LANE":" ","ALLEY":" ","HOUSE_NO":"１１５號","E_COORD97":167438.82000000001,"N_COORD97":2543594.27,"ADDRESS":"尊王路１１５號","OBJECTID":608257},"geometry":{"x":167438.82000000123,"y":2543594.2699999996}},{"attributes":{"ID":608285,"DIS_CODE":0,"TOWNNAME":"中西區","LI":"民主里","LIN":"3鄰","STREET":"尊王路","SECT":" ","MAREA":" ","LANE":" ","ALLEY":" ","HOUSE_NO":"１１７號","E_COORD97":167433.16,"N_COORD97":2543597.3900000001,"ADDRESS":"尊王路１１７號","OBJECTID":608258},"geometry":{"x":167433.16000000108,"y":2543597.3900000006}},{"attributes":{"ID":608286,"DIS_CODE":0,"TOWNNAME":"中西區","LI":"民主里","LIN":"3鄰","STREET":"尊王路","SECT":" ","MAREA":" ","LANE":" ","ALLEY":" ","HOUSE_NO":"１１９號","E_COORD97":167429.03,"N_COORD97":2543597.9300000002,"ADDRESS":"尊王路１１９號","OBJECTID":608259},"geometry":{"x":167429.03000000119,"y":2543597.9300000016}},{"attributes":{"ID":608287,"DIS_CODE":0,"TOWNNAME":"中西區","LI":"民主里","LIN":"3鄰","STREET":"尊王路","SECT":" ","MAREA":" ","LANE":" ","ALLEY":" ","HOUSE_NO":"１２１號","E_COORD97":167424.38,"N_COORD97":2543598.6200000001,"ADDRESS":"尊王路１２１號","OBJECTID":608260},"geometry":{"x":167424.38000000082,"y":2543598.6200000029}},{"attributes":{"ID":608288,"DIS_CODE":0,"TOWNNAME":"中西區","LI":"民主里","LIN":"3鄰","STREET":"尊王路","SECT":" ","MAREA":" ","LANE":" ","ALLEY":" ","HOUSE_NO":"１２３號","E_COORD97":167421.01999999999,"N_COORD97":2543599.4700000002,"ADDRESS":"尊王路１２３號","OBJECTID":608261},"geometry":{"x":167421.02000000142,"y":2543599.4700000025}},{"attributes":{"ID":608289,"DIS_CODE":0,"TOWNNAME":"永康區","LI":"北灣里","LIN":"25鄰","STREET":"大灣路","SECT":" ","MAREA":" ","LANE":" ","ALLEY":" ","HOUSE_NO":"２１１號","E_COORD97":174983.59,"N_COORD97":2545324.79,"ADDRESS":"大灣路２１１號","OBJECTID":608262},"geometry":{"x":174983.59000000078,"y":2545324.790000001}},{"attributes":{"ID":608290,"DIS_CODE":0,"TOWNNAME":"永康區","LI":"北灣里","LIN":"41鄰","STREET":"大灣七街","SECT":" ","MAREA":" ","LANE":" ","ALLEY":" ","HOUSE_NO":"９６號","E_COORD97":175075.70999999999,"N_COORD97":2545809.2799999998,"ADDRESS":"大灣七街９６號","OBJECTID":608263},"geometry":{"x":175075.71000000183,"y":2545809.2800000012}},{"attributes":{"ID":608291,"DIS_CODE":0,"TOWNNAME":"永康區","LI":"北灣里","LIN":"33鄰","STREET":"文賢街","SECT":" ","MAREA":" ","LANE":" ","ALLEY":" ","HOUSE_NO":"２１２號","E_COORD97":175323.84,"N_COORD97":2545767.0699999998,"ADDRESS":"文賢街２１２號","OBJECTID":608264},"geometry":{"x":175323.84000000171,"y":2545767.0700000022}},{"attributes":{"ID":608292,"DIS_CODE":0,"TOWNNAME":"永康區","LI":"正強里","LIN":"31鄰","STREET":"自強路","SECT":" ","MAREA":" ","LANE":" ","ALLEY":" ","HOUSE_NO":"２０３號之１","E_COORD97":173144.39000000001,"N_COORD97":2547520.79,"ADDRESS":"自強路２０３號之１","OBJECTID":608265},"geometry":{"x":173144.38999999966,"y":2547520.790000001}},{"attributes":{"ID":608293,"DIS_CODE":0,"TOWNNAME":"新化區","LI":"清水里","LIN":"3鄰","STREET":"信義路","SECT":" ","MAREA":" ","LANE":" ","ALLEY":" ","HOUSE_NO":"４５４號","E_COORD97":178576.42999999999,"N_COORD97":2548284.25,"ADDRESS":"信義路４５４號","OBJECTID":608266},"geometry":{"x":178576.43000000063,"y":2548284.2500000037}},{"attributes":{"ID":608294,"DIS_CODE":0,"TOWNNAME":"新化區","LI":"清水里","LIN":"3鄰","STREET":"信義路","SECT":" ","MAREA":" ","LANE":" ","ALLEY":" ","HOUSE_NO":"４４６號","E_COORD97":178619.42999999999,"N_COORD97":2548308.25,"ADDRESS":"信義路４４６號","OBJECTID":608267},"geometry":{"x":178619.4299999997,"y":2548308.2500000037}},{"attributes":{"ID":608295,"DIS_CODE":0,"TOWNNAME":"永康區","LI":"北灣里","LIN":"25鄰","STREET":"大灣六街","SECT":" ","MAREA":" ","LANE":" ","ALLEY":" ","HOUSE_NO":"１０２號","E_COORD97":175055.91,"N_COORD97":2545362.1899999999,"ADDRESS":"大灣六街１０２號","OBJECTID":608268},"geometry":{"x":175055.91000000201,"y":2545362.1900000013}},{"attributes":{"ID":608296,"DIS_CODE":0,"TOWNNAME":"永康區","LI":"正強里","LIN":"14鄰","STREET":"正強街","SECT":" ","MAREA":" ","LANE":" ","ALLEY":" ","HOUSE_NO":"９３號","E_COORD97":173330.22,"N_COORD97":2547371.25,"ADDRESS":"正強街９３號","OBJECTID":608269},"geometry":{"x":173330.21999999974,"y":2547371.25}},{"attributes":{"ID":608297,"DIS_CODE":0,"TOWNNAME":"永康區","LI":"六合里","LIN":"1鄰","STREET":"新興街","SECT":" ","MAREA":" ","LANE":" ","ALLEY":" ","HOUSE_NO":"８之５號地下一層之３","E_COORD97":170953.41,"N_COORD97":2545708.7999999998,"ADDRESS":"新興街８之５號地下一層之３","OBJECTID":608270},"geometry":{"x":170953.40999999922,"y":2545708.8000000026}},{"attributes":{"ID":608298,"DIS_CODE":0,"TOWNNAME":"永康區","LI":"王行里","LIN":"10鄰","STREET":"王行路","SECT":" ","MAREA":" ","LANE":" ","ALLEY":" ","HOUSE_NO":"１１５２號","E_COORD97":175544.73999999999,"N_COORD97":2550289.0099999998,"ADDRESS":"王行路１１５２號","OBJECTID":608271},"geometry":{"x":175544.74000000022,"y":2550289.0099999998}},{"attributes":{"ID":608299,"DIS_CODE":0,"TOWNNAME":"新化區","LI":"清水里","LIN":"3鄰","STREET":"中山路","SECT":" ","MAREA":" ","LANE":" ","ALLEY":" ","HOUSE_NO":"４６１號","E_COORD97":178643.81,"N_COORD97":2548399.25,"ADDRESS":"中山路４６１號","OBJECTID":608272},"geometry":{"x":178643.81000000052,"y":2548399.25}},{"attributes":{"ID":608300,"DIS_CODE":0,"TOWNNAME":"新化區","LI":"清水里","LIN":"3鄰","STREET":"中山路","SECT":" ","MAREA":" ","LANE":" ","ALLEY":" ","HOUSE_NO":"４８９號","E_COORD97":178580.51000000001,"N_COORD97":2548403.25,"ADDRESS":"中山路４８９號","OBJECTID":608273},"geometry":{"x":178580.50999999978,"y":2548403.2500000019}},{"attributes":{"ID":608301,"DIS_CODE":0,"TOWNNAME":"新化區","LI":"清水里","LIN":"3鄰","STREET":"信義路","SECT":" ","MAREA":" ","LANE":" ","ALLEY":" ","HOUSE_NO":"４５６號","E_COORD97":178570.32999999999,"N_COORD97":2548284.25,"ADDRESS":"信義路４５６號","OBJECTID":608274},"geometry":{"x":178570.32999999914,"y":2548284.2500000037}},{"attributes":{"ID":608302,"DIS_CODE":0,"TOWNNAME":"新化區","LI":"太平里","LIN":"3鄰","STREET":"忠孝路","SECT":" ","MAREA":" ","LANE":" ","ALLEY":" ","HOUSE_NO":"５２號","E_COORD97":179038.37,"N_COORD97":2548731.25,"ADDRESS":"忠孝路５２號","OBJECTID":608275},"geometry":{"x":179038.37000000104,"y":2548731.25}},{"attributes":{"ID":608303,"DIS_CODE":0,"TOWNNAME":"新化區","LI":"清水里","LIN":"3鄰","STREET":"中山路","SECT":" ","MAREA":" ","LANE":" ","ALLEY":" ","HOUSE_NO":"４６５號","E_COORD97":178635.70999999999,"N_COORD97":2548399.25,"ADDRESS":"中山路４６５號","OBJECTID":608276},"geometry":{"x":178635.71000000089,"y":2548399.25}},{"attributes":{"ID":608304,"DIS_CODE":0,"TOWNNAME":"新化區","LI":"清水里","LIN":"3鄰","STREET":"中山路","SECT":" ","MAREA":" ","LANE":" ","ALLEY":" ","HOUSE_NO":"４６７號","E_COORD97":178631.51000000001,"N_COORD97":2548399.25,"ADDRESS":"中山路４６７號","OBJECTID":608277},"geometry":{"x":178631.50999999885,"y":2548399.25}},{"attributes":{"ID":608305,"DIS_CODE":0,"TOWNNAME":"新化區","LI":"清水里","LIN":"3鄰","STREET":"中山路","SECT":" ","MAREA":" ","LANE":" ","ALLEY":" ","HOUSE_NO":"４８７號","E_COORD97":178585.41,"N_COORD97":2548402.25,"ADDRESS":"中山路４８７號","OBJECTID":608278},"geometry":{"x":178585.41000000108,"y":2548402.25}},{"attributes":{"ID":608306,"DIS_CODE":0,"TOWNNAME":"新化區","LI":"清水里","LIN":"3鄰","STREET":"信義路","SECT":" ","MAREA":" ","LANE":" ","ALLEY":" ","HOUSE_NO":"４３６號","E_COORD97":178650.32999999999,"N_COORD97":2548284.25,"ADDRESS":"信義路４３６號","OBJECTID":608279},"geometry":{"x":178650.33000000101,"y":2548284.2500000037}},{"attributes":{"ID":608307,"DIS_CODE":0,"TOWNNAME":"新化區","LI":"太平里","LIN":"3鄰","STREET":"太平街","SECT":" ","MAREA":" ","LANE":" ","ALLEY":" ","HOUSE_NO":"２１號","E_COORD97":179003.26999999999,"N_COORD97":2548819.25,"ADDRESS":"太平街２１號","OBJECTID":608280},"geometry":{"x":179003.27000000048,"y":2548819.25}},{"attributes":{"ID":608308,"DIS_CODE":0,"TOWNNAME":"新化區","LI":"清水里","LIN":"3鄰","STREET":"中山路","SECT":" ","MAREA":" ","LANE":" ","ALLEY":" ","HOUSE_NO":"４６９號","E_COORD97":178627.91,"N_COORD97":2548399.25,"ADDRESS":"中山路４６９號","OBJECTID":608281},"geometry":{"x":178627.91000000108,"y":2548399.25}},{"attributes":{"ID":608309,"DIS_CODE":0,"TOWNNAME":"新化區","LI":"清水里","LIN":"3鄰","STREET":"信義路","SECT":" ","MAREA":" ","LANE":" ","ALLEY":" ","HOUSE_NO":"４４２號之３","E_COORD97":178621.98000000001,"N_COORD97":2548283.2599999998,"ADDRESS":"信義路４４２號之３","OBJECTID":608282},"geometry":{"x":178621.98000000045,"y":2548283.2599999998}},{"attributes":{"ID":608310,"DIS_CODE":0,"TOWNNAME":"新化區","LI":"清水里","LIN":"3鄰","STREET":"中山路","SECT":" ","MAREA":" ","LANE":" ","ALLEY":" ","HOUSE_NO":"４９１號","E_COORD97":178575.70999999999,"N_COORD97":2548404.25,"ADDRESS":"中山路４９１號","OBJECTID":608283},"geometry":{"x":178575.70999999996,"y":2548404.2500000019}},{"attributes":{"ID":608311,"DIS_CODE":0,"TOWNNAME":"新化區","LI":"太平里","LIN":"3鄰","STREET":"太平街","SECT":" ","MAREA":" ","LANE":" ","ALLEY":" ","HOUSE_NO":"９號","E_COORD97":179059.51999999999,"N_COORD97":2548831.25,"ADDRESS":"太平街９號","OBJECTID":608284},"geometry":{"x":179059.51999999955,"y":2548831.2500000019}},{"attributes":{"ID":608312,"DIS_CODE":0,"TOWNNAME":"新化區","LI":"清水里","LIN":"3鄰","STREET":"信義路","SECT":" ","MAREA":" ","LANE":" ","ALLEY":" ","HOUSE_NO":"４２８號","E_COORD97":178669.13,"N_COORD97":2548284.25,"ADDRESS":"信義路４２８號","OBJECTID":608285},"geometry":{"x":178669.12999999989,"y":2548284.2500000037}},{"attributes":{"ID":608313,"DIS_CODE":0,"TOWNNAME":"新化區","LI":"太平里","LIN":"3鄰","STREET":"忠孝路","SECT":" ","MAREA":" ","LANE":" ","ALLEY":" ","HOUSE_NO":"５６號","E_COORD97":179008.17000000001,"N_COORD97":2548722.25,"ADDRESS":"忠孝路５６號","OBJECTID":608286},"geometry":{"x":179008.16999999993,"y":2548722.2500000019}},{"attributes":{"ID":608314,"DIS_CODE":0,"TOWNNAME":"新化區","LI":"清水里","LIN":"3鄰","STREET":"中山路","SECT":" ","MAREA":" ","LANE":" ","ALLEY":" ","HOUSE_NO":"４５５號","E_COORD97":178654.81,"N_COORD97":2548398.25,"ADDRESS":"中山路４５５號","OBJECTID":608287},"geometry":{"x":178654.81000000145,"y":2548398.25}},{"attributes":{"ID":608315,"DIS_CODE":0,"TOWNNAME":"永康區","LI":"正強里","LIN":"21鄰","STREET":"中正路","SECT":" ","MAREA":" ","LANE":" ","ALLEY":" ","HOUSE_NO":"６５號","E_COORD97":173542.60000000001,"N_COORD97":2547831.4900000002,"ADDRESS":"中正路６５號","OBJECTID":608288},"geometry":{"x":173542.60000000056,"y":2547831.4900000002}},{"attributes":{"ID":608316,"DIS_CODE":0,"TOWNNAME":"安南區","LI":"海東里","LIN":"3鄰","STREET":"海環街","SECT":" ","MAREA":" ","LANE":" ","ALLEY":" ","HOUSE_NO":"５７４號","E_COORD97":166370.31,"N_COORD97":2549251.3700000001,"ADDRESS":"海環街５７４號","OBJECTID":608289},"geometry":{"x":166370.31000000052,"y":2549251.3700000029}},{"attributes":{"ID":608317,"DIS_CODE":0,"TOWNNAME":"安南區","LI":"海東里","LIN":"3鄰","STREET":"海環街","SECT":" ","MAREA":" ","LANE":" ","ALLEY":" ","HOUSE_NO":"５７６號","E_COORD97":166374.32999999999,"N_COORD97":2549251.9100000001,"ADDRESS":"海環街５７６號","OBJECTID":608290},"geometry":{"x":166374.33000000101,"y":2549251.9100000001}},{"attributes":{"ID":608318,"DIS_CODE":0,"TOWNNAME":"安南區","LI":"海東里","LIN":"3鄰","STREET":"海環街","SECT":" ","MAREA":" ","LANE":" ","ALLEY":" ","HOUSE_NO":"５７８號","E_COORD97":166378.95000000001,"N_COORD97":2549252.7200000002,"ADDRESS":"海環街５７８號","OBJECTID":608291},"geometry":{"x":166378.95000000019,"y":2549252.7200000025}},{"attributes":{"ID":608319,"DIS_CODE":0,"TOWNNAME":"安南區","LI":"海東里","LIN":"3鄰","STREET":"海環街","SECT":" ","MAREA":" ","LANE":" ","ALLEY":" ","HOUSE_NO":"５８０號","E_COORD97":166382.85000000001,"N_COORD97":2549253.2400000002,"ADDRESS":"海環街５８０號","OBJECTID":608292},"geometry":{"x":166382.84999999963,"y":2549253.2400000002}},{"attributes":{"ID":608320,"DIS_CODE":0,"TOWNNAME":"安南區","LI":"海東里","LIN":"3鄰","STREET":"海環街","SECT":" ","MAREA":" ","LANE":" ","ALLEY":" ","HOUSE_NO":"５８２號","E_COORD97":166387.01000000001,"N_COORD97":2549254.1200000001,"ADDRESS":"海環街５８２號","OBJECTID":608293},"geometry":{"x":166387.00999999978,"y":2549254.1200000029}},{"attributes":{"ID":608321,"DIS_CODE":0,"TOWNNAME":"安南區","LI":"海東里","LIN":"3鄰","STREET":"海環街","SECT":" ","MAREA":" ","LANE":" ","ALLEY":" ","HOUSE_NO":"５８６號","E_COORD97":166395.60000000001,"N_COORD97":2549256.6299999999,"ADDRESS":"海環街５８６號","OBJECTID":608294},"geometry":{"x":166395.60000000056,"y":2549256.629999999}},{"attributes":{"ID":608322,"DIS_CODE":0,"TOWNNAME":"安南區","LI":"海東里","LIN":"3鄰","STREET":"海環街","SECT":" ","MAREA":" ","LANE":" ","ALLEY":" ","HOUSE_NO":"５８８號","E_COORD97":166399.91,"N_COORD97":2549257.3999999999,"ADDRESS":"海環街５８８號","OBJECTID":608295},"geometry":{"x":166399.91000000015,"y":2549257.4000000022}},{"attributes":{"ID":608323,"DIS_CODE":0,"TOWNNAME":"安南區","LI":"鳳凰里","LIN":"3鄰","STREET":"安中路","SECT":"一段","MAREA":" ","LANE":" ","ALLEY":" ","HOUSE_NO":"５３６號","E_COORD97":168051.31,"N_COORD97":2548980.6299999999,"ADDRESS":"安中路一段５３６號","OBJECTID":608296},"geometry":{"x":168051.30999999866,"y":2548980.6300000008}},{"attributes":{"ID":608324,"DIS_CODE":0,"TOWNNAME":"安南區","LI":"州南里","LIN":"3鄰","STREET":"北安路","SECT":"四段","MAREA":" ","LANE":" ","ALLEY":" ","HOUSE_NO":"１０３號","E_COORD97":169415.95999999999,"N_COORD97":2551064.0299999998,"ADDRESS":"北安路四段１０３號","OBJECTID":608297},"geometry":{"x":169415.96000000089,"y":2551064.0299999993}},{"attributes":{"ID":608325,"DIS_CODE":0,"TOWNNAME":"新化區","LI":"清水里","LIN":"3鄰","STREET":"中山路","SECT":" ","MAREA":" ","LANE":" ","ALLEY":" ","HOUSE_NO":"４５７號","E_COORD97":178648.70999999999,"N_COORD97":2548399.25,"ADDRESS":"中山路４５７號","OBJECTID":608298},"geometry":{"x":178648.70999999996,"y":2548399.25}},{"attributes":{"ID":608326,"DIS_CODE":0,"TOWNNAME":"新化區","LI":"太平里","LIN":"3鄰","STREET":"太平街","SECT":" ","MAREA":" ","LANE":" ","ALLEY":" ","HOUSE_NO":"７號","E_COORD97":179067.82000000001,"N_COORD97":2548833.25,"ADDRESS":"太平街７號","OBJECTID":608299},"geometry":{"x":179067.82000000123,"y":2548833.2499999981}},{"attributes":{"ID":608327,"DIS_CODE":0,"TOWNNAME":"新化區","LI":"唪口里","LIN":"3鄰","STREET":"大德路","SECT":" ","MAREA":" ","LANE":" ","ALLEY":" ","HOUSE_NO":"８４號之６","E_COORD97":178232.92999999999,"N_COORD97":2549494.2599999998,"ADDRESS":"大德路８４號之６","OBJECTID":608300},"geometry":{"x":178232.9299999997,"y":2549494.2600000035}},{"attributes":{"ID":608328,"DIS_CODE":0,"TOWNNAME":"新化區","LI":"清水里","LIN":"3鄰","STREET":"中山路","SECT":" ","MAREA":" ","LANE":" ","ALLEY":" ","HOUSE_NO":"４９１號之１","E_COORD97":178571.23999999999,"N_COORD97":2548404.2599999998,"ADDRESS":"中山路４９１號之１","OBJECTID":608301},"geometry":{"x":178571.24000000209,"y":2548404.2600000016}},{"attributes":{"ID":608329,"DIS_CODE":0,"TOWNNAME":"新化區","LI":"唪口里","LIN":"3鄰","STREET":"大德路","SECT":" ","MAREA":" ","LANE":" ","ALLEY":" ","HOUSE_NO":"８４號之１７","E_COORD97":178276.17000000001,"N_COORD97":2549493.2599999998,"ADDRESS":"大德路８４號之１７","OBJECTID":608302},"geometry":{"x":178276.16999999993,"y":2549493.2599999998}},{"attributes":{"ID":608330,"DIS_CODE":0,"TOWNNAME":"新化區","LI":"唪口里","LIN":"3鄰","STREET":"大德路","SECT":" ","MAREA":" ","LANE":" ","ALLEY":" ","HOUSE_NO":"８４號之２６","E_COORD97":178246.88,"N_COORD97":2549514.2599999998,"ADDRESS":"大德路８４號之２６","OBJECTID":608303},"geometry":{"x":178246.88000000082,"y":2549514.2599999998}},{"attributes":{"ID":608331,"DIS_CODE":0,"TOWNNAME":"永康區","LI":"王行里","LIN":"14鄰","STREET":"經中路","SECT":" ","MAREA":" ","LANE":" ","ALLEY":" ","HOUSE_NO":"１２號之１","E_COORD97":175183.53,"N_COORD97":2549641.98,"ADDRESS":"經中路１２號之１","OBJECTID":608304},"geometry":{"x":175183.53000000026,"y":2549641.9800000004}},{"attributes":{"ID":608332,"DIS_CODE":0,"TOWNNAME":"新化區","LI":"觀音里","LIN":"3鄰","STREET":"中山路","SECT":" ","MAREA":" ","LANE":" ","ALLEY":" ","HOUSE_NO":"３４４號","E_COORD97":178920.91,"N_COORD97":2548428.25,"ADDRESS":"中山路３４４號","OBJECTID":608305},"geometry":{"x":178920.91000000201,"y":2548428.2500000019}},{"attributes":{"ID":608333,"DIS_CODE":0,"TOWNNAME":"新化區","LI":"唪口里","LIN":"3鄰","STREET":"大德路","SECT":" ","MAREA":" ","LANE":" ","ALLEY":" ","HOUSE_NO":"８４號之３１","E_COORD97":178268.26000000001,"N_COORD97":2549513.2599999998,"ADDRESS":"大德路８４號之３１","OBJECTID":608306},"geometry":{"x":178268.25999999978,"y":2549513.2599999998}},{"attributes":{"ID":608334,"DIS_CODE":0,"TOWNNAME":"新化區","LI":"清水里","LIN":"3鄰","STREET":"信義路","SECT":" ","MAREA":" ","LANE":" ","ALLEY":" ","HOUSE_NO":"４４２號之１","E_COORD97":178633.45999999999,"N_COORD97":2548284.2599999998,"ADDRESS":"信義路４４２號之１","OBJECTID":608307},"geometry":{"x":178633.45999999996,"y":2548284.2600000016}},{"attributes":{"ID":608335,"DIS_CODE":0,"TOWNNAME":"新化區","LI":"清水里","LIN":"3鄰","STREET":"信義路","SECT":" ","MAREA":" ","LANE":" ","ALLEY":" ","HOUSE_NO":"４５２號","E_COORD97":178583.63,"N_COORD97":2548283.25,"ADDRESS":"信義路４５２號","OBJECTID":608308},"geometry":{"x":178583.63000000082,"y":2548283.25}},{"attributes":{"ID":608336,"DIS_CODE":0,"TOWNNAME":"南區","LI":"再興里","LIN":"3鄰","STREET":"三和街","SECT":" ","MAREA":" ","LANE":" ","ALLEY":" ","HOUSE_NO":"２９號","E_COORD97":167233.34,"N_COORD97":2542402.4300000002,"ADDRESS":"三和街２９號","OBJECTID":608309},"geometry":{"x":167233.34000000078,"y":2542402.4299999997}},{"attributes":{"ID":608337,"DIS_CODE":0,"TOWNNAME":"新化區","LI":"竹林里","LIN":"3鄰","STREET":"中山路","SECT":" ","MAREA":" ","LANE":" ","ALLEY":" ","HOUSE_NO":"４０２號之１","E_COORD97":178808.23999999999,"N_COORD97":2548454.2599999998,"ADDRESS":"中山路４０２號之１","OBJECTID":608310},"geometry":{"x":178808.24000000022,"y":2548454.2600000016}},{"attributes":{"ID":608338,"DIS_CODE":0,"TOWNNAME":"新化區","LI":"唪口里","LIN":"3鄰","STREET":"大德路","SECT":" ","MAREA":" ","LANE":" ","ALLEY":" ","HOUSE_NO":"８４號之３","E_COORD97":178224.42999999999,"N_COORD97":2549495.2599999998,"ADDRESS":"大德路８４號之３","OBJECTID":608311},"geometry":{"x":178224.4299999997,"y":2549495.2600000016}},{"attributes":{"ID":608339,"DIS_CODE":0,"TOWNNAME":"南區","LI":"再興里","LIN":"3鄰","STREET":"三和街","SECT":" ","MAREA":" ","LANE":" ","ALLEY":" ","HOUSE_NO":"３３號","E_COORD97":167224.78,"N_COORD97":2542402.2799999998,"ADDRESS":"三和街３３號","OBJECTID":608312},"geometry":{"x":167224.78000000026,"y":2542402.2800000012}},{"attributes":{"ID":608340,"DIS_CODE":0,"TOWNNAME":"新化區","LI":"中央里","LIN":"3鄰","STREET":"中正路","SECT":" ","MAREA":" ","LANE":" ","ALLEY":" ","HOUSE_NO":"４２９號","E_COORD97":179081.31,"N_COORD97":2548384.25,"ADDRESS":"中正路４２９號","OBJECTID":608313},"geometry":{"x":179081.30999999959,"y":2548384.2500000019}},{"attributes":{"ID":608341,"DIS_CODE":0,"TOWNNAME":"新化區","LI":"武安里","LIN":"3鄰","STREET":"和平街","SECT":" ","MAREA":" ","LANE":" ","ALLEY":" ","HOUSE_NO":"７９號","E_COORD97":179055.67000000001,"N_COORD97":2548141.25,"ADDRESS":"和平街７９號","OBJECTID":608314},"geometry":{"x":179055.66999999993,"y":2548141.25}},{"attributes":{"ID":608342,"DIS_CODE":0,"TOWNNAME":"南區","LI":"再興里","LIN":"3鄰","STREET":"三和街","SECT":" ","MAREA":" ","LANE":" ","ALLEY":" ","HOUSE_NO":"３５號","E_COORD97":167220.07999999999,"N_COORD97":2542402.7200000002,"ADDRESS":"三和街３５號","OBJECTID":608315},"geometry":{"x":167220.08000000101,"y":2542402.7199999988}},{"attributes":{"ID":608343,"DIS_CODE":0,"TOWNNAME":"新化區","LI":"協興里","LIN":"3鄰","STREET":"忠孝路","SECT":" ","MAREA":" ","LANE":" ","ALLEY":" ","HOUSE_NO":"２０５號","E_COORD97":178536.51999999999,"N_COORD97":2548547.25,"ADDRESS":"忠孝路２０５號","OBJECTID":608316},"geometry":{"x":178536.52000000142,"y":2548547.25}},{"attributes":{"ID":608344,"DIS_CODE":0,"TOWNNAME":"南區","LI":"再興里","LIN":"3鄰","STREET":"三和街","SECT":" ","MAREA":" ","LANE":" ","ALLEY":" ","HOUSE_NO":"３７號","E_COORD97":167215.23999999999,"N_COORD97":2542403.02,"ADDRESS":"三和街３７號","OBJECTID":608317},"geometry":{"x":167215.24000000209,"y":2542403.0200000033}},{"attributes":{"ID":608345,"DIS_CODE":0,"TOWNNAME":"安南區","LI":"淵中里","LIN":"3鄰","STREET":"安中路","SECT":"四段","MAREA":" ","LANE":" ","ALLEY":" ","HOUSE_NO":"６７之１號","E_COORD97":165186.76999999999,"N_COORD97":2550022.9399999999,"ADDRESS":"安中路四段６７之１號","OBJECTID":608318},"geometry":{"x":165186.77000000142,"y":2550022.9400000013}},{"attributes":{"ID":608346,"DIS_CODE":0,"TOWNNAME":"南區","LI":"再興里","LIN":"3鄰","STREET":"三和街","SECT":" ","MAREA":" ","LANE":" ","ALLEY":" ","HOUSE_NO":"３９號","E_COORD97":167210.10000000001,"N_COORD97":2542403.02,"ADDRESS":"三和街３９號","OBJECTID":608319},"geometry":{"x":167210.09999999963,"y":2542403.0200000033}},{"attributes":{"ID":608347,"DIS_CODE":0,"TOWNNAME":"南區","LI":"再興里","LIN":"3鄰","STREET":"三和街","SECT":" ","MAREA":" ","LANE":" ","ALLEY":" ","HOUSE_NO":"７號","E_COORD97":167281.59,"N_COORD97":2542400.21,"ADDRESS":"三和街７號","OBJECTID":608320},"geometry":{"x":167281.58999999985,"y":2542400.2100000028}},{"attributes":{"ID":608348,"DIS_CODE":0,"TOWNNAME":"南區","LI":"再興里","LIN":"3鄰","STREET":"三和街","SECT":" ","MAREA":" ","LANE":" ","ALLEY":" ","HOUSE_NO":"９號","E_COORD97":167277.14000000001,"N_COORD97":2542401.1600000001,"ADDRESS":"三和街９號","OBJECTID":608321},"geometry":{"x":167277.13999999966,"y":2542401.1600000001}},{"attributes":{"ID":608349,"DIS_CODE":0,"TOWNNAME":"南區","LI":"再興里","LIN":"3鄰","STREET":"三和街","SECT":" ","MAREA":" ","LANE":" ","ALLEY":" ","HOUSE_NO":"１１號","E_COORD97":167272.48999999999,"N_COORD97":2542401.27,"ADDRESS":"三和街１１號","OBJECTID":608322},"geometry":{"x":167272.49000000022,"y":2542401.2700000033}},{"attributes":{"ID":608350,"DIS_CODE":0,"TOWNNAME":"南區","LI":"再興里","LIN":"3鄰","STREET":"三和街","SECT":" ","MAREA":" ","LANE":" ","ALLEY":" ","HOUSE_NO":"１７號","E_COORD97":167259.26000000001,"N_COORD97":2542402.3199999998,"ADDRESS":"三和街１７號","OBJECTID":608323},"geometry":{"x":167259.26000000071,"y":2542402.3200000022}},{"attributes":{"ID":608351,"DIS_CODE":0,"TOWNNAME":"南區","LI":"再興里","LIN":"3鄰","STREET":"三和街","SECT":" ","MAREA":" ","LANE":" ","ALLEY":" ","HOUSE_NO":"１９號","E_COORD97":167255.66,"N_COORD97":2542402.2200000002,"ADDRESS":"三和街１９號","OBJECTID":608324},"geometry":{"x":167255.66000000015,"y":2542402.2200000007}},{"attributes":{"ID":608352,"DIS_CODE":0,"TOWNNAME":"南區","LI":"再興里","LIN":"3鄰","STREET":"三和街","SECT":" ","MAREA":" ","LANE":" ","ALLEY":" ","HOUSE_NO":"２１號","E_COORD97":167250.79999999999,"N_COORD97":2542402.1099999999,"ADDRESS":"三和街２１號","OBJECTID":608325},"geometry":{"x":167250.79999999981,"y":2542402.1099999975}},{"attributes":{"ID":608353,"DIS_CODE":0,"TOWNNAME":"南區","LI":"再興里","LIN":"3鄰","STREET":"三和街","SECT":" ","MAREA":" ","LANE":" ","ALLEY":" ","HOUSE_NO":"２３號","E_COORD97":167246.35000000001,"N_COORD97":2542402.6400000001,"ADDRESS":"三和街２３號","OBJECTID":608326},"geometry":{"x":167246.35000000056,"y":2542402.6400000006}},{"attributes":{"ID":608354,"DIS_CODE":0,"TOWNNAME":"南區","LI":"再興里","LIN":"3鄰","STREET":"三和街","SECT":" ","MAREA":" ","LANE":" ","ALLEY":" ","HOUSE_NO":"２５號","E_COORD97":167241.91,"N_COORD97":2542402.3199999998,"ADDRESS":"三和街２５號","OBJECTID":608327},"geometry":{"x":167241.91000000015,"y":2542402.3200000022}},{"attributes":{"ID":608355,"DIS_CODE":0,"TOWNNAME":"南區","LI":"同安里","LIN":"3鄰","STREET":"興南街","SECT":" ","MAREA":" ","LANE":" ","ALLEY":" ","HOUSE_NO":"７６號","E_COORD97":166265.39999999999,"N_COORD97":2536093.0499999998,"ADDRESS":"興南街７６號","OBJECTID":608328},"geometry":{"x":166265.4000000013,"y":2536093.0500000007}},{"attributes":{"ID":608356,"DIS_CODE":0,"TOWNNAME":"南區","LI":"同安里","LIN":"3鄰","STREET":"興南街","SECT":" ","MAREA":" ","LANE":" ","ALLEY":" ","HOUSE_NO":"７８號","E_COORD97":166268.14999999999,"N_COORD97":2536098.9700000002,"ADDRESS":"興南街７８號","OBJECTID":608329},"geometry":{"x":166268.15000000037,"y":2536098.9700000025}},{"attributes":{"ID":608357,"DIS_CODE":0,"TOWNNAME":"南區","LI":"同安里","LIN":"3鄰","STREET":"興南街","SECT":" ","MAREA":" ","LANE":" ","ALLEY":" ","HOUSE_NO":"８０號","E_COORD97":166247.5,"N_COORD97":2536085.0899999999,"ADDRESS":"興南街８０號","OBJECTID":608330},"geometry":{"x":166247.50000000093,"y":2536085.0899999999}},{"attributes":{"ID":608358,"DIS_CODE":0,"TOWNNAME":"南區","LI":"同安里","LIN":"3鄰","STREET":"興南街","SECT":" ","MAREA":" ","LANE":" ","ALLEY":" ","HOUSE_NO":"８２號","E_COORD97":166239.56,"N_COORD97":2536071.73,"ADDRESS":"興南街８２號","OBJECTID":608331},"geometry":{"x":166239.56000000052,"y":2536071.7300000004}},{"attributes":{"ID":608359,"DIS_CODE":0,"TOWNNAME":"南區","LI":"同安里","LIN":"3鄰","STREET":"興南街","SECT":" ","MAREA":" ","LANE":" ","ALLEY":" ","HOUSE_NO":"８４號","E_COORD97":166236.44,"N_COORD97":2536066.0299999998,"ADDRESS":"興南街８４號","OBJECTID":608332},"geometry":{"x":166236.44000000134,"y":2536066.0300000031}},{"attributes":{"ID":608360,"DIS_CODE":0,"TOWNNAME":"南區","LI":"同安里","LIN":"3鄰","STREET":"灣裡路","SECT":" ","MAREA":" ","LANE":" ","ALLEY":" ","HOUSE_NO":"３７９號","E_COORD97":166222.26999999999,"N_COORD97":2536114.0699999998,"ADDRESS":"灣裡路３７９號","OBJECTID":608333},"geometry":{"x":166222.26999999955,"y":2536114.0699999984}},{"attributes":{"ID":608361,"DIS_CODE":0,"TOWNNAME":"南區","LI":"同安里","LIN":"3鄰","STREET":"灣裡路","SECT":" ","MAREA":" ","LANE":" ","ALLEY":" ","HOUSE_NO":"３８３號","E_COORD97":166221.85000000001,"N_COORD97":2536102.1299999999,"ADDRESS":"灣裡路３８３號","OBJECTID":608334},"geometry":{"x":166221.84999999963,"y":2536102.1299999971}},{"attributes":{"ID":608362,"DIS_CODE":0,"TOWNNAME":"南區","LI":"同安里","LIN":"3鄰","STREET":"灣裡路","SECT":" ","MAREA":" ","LANE":" ","ALLEY":" ","HOUSE_NO":"３８５號","E_COORD97":166223.12,"N_COORD97":2536097.4900000002,"ADDRESS":"灣裡路３８５號","OBJECTID":608335},"geometry":{"x":166223.12000000104,"y":2536097.4900000002}},{"attributes":{"ID":608363,"DIS_CODE":0,"TOWNNAME":"南區","LI":"同安里","LIN":"3鄰","STREET":"灣裡路","SECT":" ","MAREA":" ","LANE":" ","ALLEY":" ","HOUSE_NO":"３８７號","E_COORD97":166228.39999999999,"N_COORD97":2536092.6299999999,"ADDRESS":"灣裡路３８７號","OBJECTID":608336},"geometry":{"x":166228.4000000013,"y":2536092.6300000008}},{"attributes":{"ID":608364,"DIS_CODE":0,"TOWNNAME":"南區","LI":"同安里","LIN":"3鄰","STREET":"灣裡路","SECT":" ","MAREA":" ","LANE":" ","ALLEY":" ","HOUSE_NO":"３８９號","E_COORD97":166228.98000000001,"N_COORD97":2536090.77,"ADDRESS":"灣裡路３８９號","OBJECTID":608337},"geometry":{"x":166228.98000000231,"y":2536090.7699999996}},{"attributes":{"ID":608365,"DIS_CODE":0,"TOWNNAME":"南區","LI":"同安里","LIN":"3鄰","STREET":"灣裡路","SECT":" ","MAREA":" ","LANE":" ","ALLEY":" ","HOUSE_NO":"３９１號","E_COORD97":166229.45999999999,"N_COORD97":2536088.8300000001,"ADDRESS":"灣裡路３９１號","OBJECTID":608338},"geometry":{"x":166229.45999999996,"y":2536088.8300000038}},{"attributes":{"ID":608366,"DIS_CODE":0,"TOWNNAME":"南區","LI":"同安里","LIN":"3鄰","STREET":"灣裡路","SECT":" ","MAREA":" ","LANE":" ","ALLEY":" ","HOUSE_NO":"３９３號","E_COORD97":166230.29999999999,"N_COORD97":2536084.6099999999,"ADDRESS":"灣裡路３９３號","OBJECTID":608339},"geometry":{"x":166230.29999999981,"y":2536084.6099999994}},{"attributes":{"ID":608367,"DIS_CODE":0,"TOWNNAME":"南區","LI":"同安里","LIN":"3鄰","STREET":"灣裡路","SECT":" ","MAREA":" ","LANE":" ","ALLEY":" ","HOUSE_NO":"３９５號","E_COORD97":166227.98000000001,"N_COORD97":2536079.54,"ADDRESS":"灣裡路３９５號","OBJECTID":608340},"geometry":{"x":166227.98000000138,"y":2536079.5400000028}},{"attributes":{"ID":608368,"DIS_CODE":0,"TOWNNAME":"南區","LI":"同安里","LIN":"3鄰","STREET":"灣裡路","SECT":" ","MAREA":" ","LANE":" ","ALLEY":" ","HOUSE_NO":"３９９號","E_COORD97":166227.54999999999,"N_COORD97":2536069.2000000002,"ADDRESS":"灣裡路３９９號","OBJECTID":608341},"geometry":{"x":166227.54999999981,"y":2536069.2000000011}},{"attributes":{"ID":608369,"DIS_CODE":0,"TOWNNAME":"南區","LI":"佛壇里","LIN":"3鄰","STREET":"興南街","SECT":" ","MAREA":" ","LANE":" ","ALLEY":" ","HOUSE_NO":"１８６號","E_COORD97":166056.63,"N_COORD97":2535835.5800000001,"ADDRESS":"興南街１８６號","OBJECTID":608342},"geometry":{"x":166056.63000000082,"y":2535835.5800000001}},{"attributes":{"ID":608370,"DIS_CODE":0,"TOWNNAME":"南區","LI":"佛壇里","LIN":"3鄰","STREET":"興南街","SECT":" ","MAREA":" ","LANE":" ","ALLEY":" ","HOUSE_NO":"１８８號","E_COORD97":166054.42999999999,"N_COORD97":2535831.6499999999,"ADDRESS":"興南街１８８號","OBJECTID":608343},"geometry":{"x":166054.43000000063,"y":2535831.6500000004}},{"attributes":{"ID":608371,"DIS_CODE":0,"TOWNNAME":"永康區","LI":"北灣里","LIN":"1鄰","STREET":"大同街","SECT":" ","MAREA":" ","LANE":" ","ALLEY":" ","HOUSE_NO":"７８號","E_COORD97":175170.29999999999,"N_COORD97":2545453.3700000001,"ADDRESS":"大同街７８號","OBJECTID":608344},"geometry":{"x":175170.30000000075,"y":2545453.3699999992}},{"attributes":{"ID":608372,"DIS_CODE":0,"TOWNNAME":"南區","LI":"佛壇里","LIN":"3鄰","STREET":"興南街","SECT":" ","MAREA":" ","LANE":" ","ALLEY":" ","HOUSE_NO":"１６８號","E_COORD97":166093.85000000001,"N_COORD97":2535855.6000000001,"ADDRESS":"興南街１６８號","OBJECTID":608345},"geometry":{"x":166093.85000000056,"y":2535855.5999999978}},{"attributes":{"ID":608373,"DIS_CODE":0,"TOWNNAME":"南區","LI":"佛壇里","LIN":"3鄰","STREET":"興南街","SECT":" ","MAREA":" ","LANE":" ","ALLEY":" ","HOUSE_NO":"１７０號","E_COORD97":166086.39000000001,"N_COORD97":2535852.4900000002,"ADDRESS":"興南街１７０號","OBJECTID":608346},"geometry":{"x":166086.3900000006,"y":2535852.4900000002}},{"attributes":{"ID":608374,"DIS_CODE":0,"TOWNNAME":"南區","LI":"佛壇里","LIN":"3鄰","STREET":"興南街","SECT":" ","MAREA":" ","LANE":" ","ALLEY":" ","HOUSE_NO":"１７２號","E_COORD97":166085.34,"N_COORD97":2535851.4399999999,"ADDRESS":"興南街１７２號","OBJECTID":608347},"geometry":{"x":166085.34000000078,"y":2535851.4400000013}},{"attributes":{"ID":608375,"DIS_CODE":0,"TOWNNAME":"南區","LI":"佛壇里","LIN":"3鄰","STREET":"興南街","SECT":" ","MAREA":" ","LANE":" ","ALLEY":" ","HOUSE_NO":"１７４號","E_COORD97":166083.89999999999,"N_COORD97":2535850.0600000001,"ADDRESS":"興南街１７４號","OBJECTID":608348},"geometry":{"x":166083.9000000013,"y":2535850.0600000042}},{"attributes":{"ID":608376,"DIS_CODE":0,"TOWNNAME":"南區","LI":"佛壇里","LIN":"3鄰","STREET":"興南街","SECT":" ","MAREA":" ","LANE":" ","ALLEY":" ","HOUSE_NO":"１７６號","E_COORD97":166080.01999999999,"N_COORD97":2535848.8999999999,"ADDRESS":"興南街１７６號","OBJECTID":608349},"geometry":{"x":166080.01999999862,"y":2535848.9000000022}},{"attributes":{"ID":608377,"DIS_CODE":0,"TOWNNAME":"南區","LI":"佛壇里","LIN":"3鄰","STREET":"興南街","SECT":" ","MAREA":" ","LANE":" ","ALLEY":" ","HOUSE_NO":"１７８號","E_COORD97":166074.85999999999,"N_COORD97":2535850.0899999999,"ADDRESS":"興南街１７８號","OBJECTID":608350},"geometry":{"x":166074.86000000034,"y":2535850.0900000017}},{"attributes":{"ID":608378,"DIS_CODE":0,"TOWNNAME":"南區","LI":"佛壇里","LIN":"3鄰","STREET":"興南街","SECT":" ","MAREA":" ","LANE":" ","ALLEY":" ","HOUSE_NO":"１８０號","E_COORD97":166071.32000000001,"N_COORD97":2535847.0699999998,"ADDRESS":"興南街１８０號","OBJECTID":608351},"geometry":{"x":166071.3200000003,"y":2535847.0700000022}},{"attributes":{"ID":608379,"DIS_CODE":0,"TOWNNAME":"東區","LI":"德光里","LIN":"3鄰","STREET":"崇明二街","SECT":" ","MAREA":" ","LANE":" ","ALLEY":" ","HOUSE_NO":"５８號","E_COORD97":169718.26000000001,"N_COORD97":2542425.9900000002,"ADDRESS":"崇明二街５８號","OBJECTID":608352},"geometry":{"x":169718.26000000164,"y":2542425.9900000002}},{"attributes":{"ID":608380,"DIS_CODE":0,"TOWNNAME":"東區","LI":"德光里","LIN":"3鄰","STREET":"崇明二街","SECT":" ","MAREA":" ","LANE":" ","ALLEY":" ","HOUSE_NO":"６０號","E_COORD97":169721.88,"N_COORD97":2542427.7999999998,"ADDRESS":"崇明二街６０號","OBJECTID":608353},"geometry":{"x":169721.87999999989,"y":2542427.8000000026}},{"attributes":{"ID":608381,"DIS_CODE":0,"TOWNNAME":"東區","LI":"德光里","LIN":"3鄰","STREET":"崇明二街","SECT":" ","MAREA":" ","LANE":" ","ALLEY":" ","HOUSE_NO":"６２號","E_COORD97":169725.5,"N_COORD97":2542428.5499999998,"ADDRESS":"崇明二街６２號","OBJECTID":608354},"geometry":{"x":169725.50000000186,"y":2542428.5500000026}},{"attributes":{"ID":608382,"DIS_CODE":0,"TOWNNAME":"東區","LI":"德光里","LIN":"3鄰","STREET":"崇明二街","SECT":" ","MAREA":" ","LANE":" ","ALLEY":" ","HOUSE_NO":"６４號","E_COORD97":169729.57999999999,"N_COORD97":2542429.3100000001,"ADDRESS":"崇明二街６４號","OBJECTID":608355},"geometry":{"x":169729.58000000007,"y":2542429.3100000042}},{"attributes":{"ID":608383,"DIS_CODE":0,"TOWNNAME":"東區","LI":"德光里","LIN":"3鄰","STREET":"崇明二街","SECT":" ","MAREA":" ","LANE":" ","ALLEY":" ","HOUSE_NO":"６６號","E_COORD97":169734.10999999999,"N_COORD97":2542430.3599999999,"ADDRESS":"崇明二街６６號","OBJECTID":608356},"geometry":{"x":169734.11000000127,"y":2542430.3599999994}},{"attributes":{"ID":608384,"DIS_CODE":0,"TOWNNAME":"東區","LI":"德光里","LIN":"3鄰","STREET":"崇明二街","SECT":" ","MAREA":" ","LANE":" ","ALLEY":" ","HOUSE_NO":"６８號","E_COORD97":169737.57999999999,"N_COORD97":2542431.4199999999,"ADDRESS":"崇明二街６８號","OBJECTID":608357},"geometry":{"x":169737.58000000101,"y":2542431.4200000037}},{"attributes":{"ID":608385,"DIS_CODE":0,"TOWNNAME":"東區","LI":"德光里","LIN":"3鄰","STREET":"崇明二街","SECT":" ","MAREA":" ","LANE":" ","ALLEY":" ","HOUSE_NO":"７０號","E_COORD97":169741.51000000001,"N_COORD97":2542432.6200000001,"ADDRESS":"崇明二街７０號","OBJECTID":608358},"geometry":{"x":169741.50999999978,"y":2542432.6200000029}},{"attributes":{"ID":608386,"DIS_CODE":0,"TOWNNAME":"東區","LI":"德光里","LIN":"3鄰","STREET":"崇明二街","SECT":" ","MAREA":" ","LANE":" ","ALLEY":" ","HOUSE_NO":"７２號","E_COORD97":169745.29000000001,"N_COORD97":2542434.7400000002,"ADDRESS":"崇明二街７２號","OBJECTID":608359},"geometry":{"x":169745.29000000004,"y":2542434.7400000002}},{"attributes":{"ID":608387,"DIS_CODE":0,"TOWNNAME":"東區","LI":"德光里","LIN":"3鄰","STREET":"崇明二街","SECT":" ","MAREA":" ","LANE":" ","ALLEY":" ","HOUSE_NO":"７４號","E_COORD97":169749.20999999999,"N_COORD97":2542436.2400000002,"ADDRESS":"崇明二街７４號","OBJECTID":608360},"geometry":{"x":169749.20999999996,"y":2542436.2400000039}},{"attributes":{"ID":608388,"DIS_CODE":0,"TOWNNAME":"東區","LI":"德光里","LIN":"3鄰","STREET":"崇明二街","SECT":" ","MAREA":" ","LANE":" ","ALLEY":" ","HOUSE_NO":"７６號","E_COORD97":169752.53,"N_COORD97":2542437.75,"ADDRESS":"崇明二街７６號","OBJECTID":608361},"geometry":{"x":169752.52999999933,"y":2542437.75}},{"attributes":{"ID":608389,"DIS_CODE":0,"TOWNNAME":"東區","LI":"德光里","LIN":"3鄰","STREET":"崇明二街","SECT":" ","MAREA":" ","LANE":" ","ALLEY":" ","HOUSE_NO":"７８號","E_COORD97":169756.45999999999,"N_COORD97":2542439.1099999999,"ADDRESS":"崇明二街７８號","OBJECTID":608362},"geometry":{"x":169756.46000000089,"y":2542439.1099999994}},{"attributes":{"ID":608390,"DIS_CODE":0,"TOWNNAME":"東區","LI":"德光里","LIN":"3鄰","STREET":"崇明二街","SECT":" ","MAREA":" ","LANE":" ","ALLEY":" ","HOUSE_NO":"８０號","E_COORD97":169759.97,"N_COORD97":2542440.5099999998,"ADDRESS":"崇明二街８０號","OBJECTID":608363},"geometry":{"x":169759.97000000067,"y":2542440.5100000035}},{"attributes":{"ID":608391,"DIS_CODE":0,"TOWNNAME":"東區","LI":"德光里","LIN":"3鄰","STREET":"崇明二街","SECT":" ","MAREA":" ","LANE":" ","ALLEY":" ","HOUSE_NO":"８２號","E_COORD97":169764.5,"N_COORD97":2542441.7200000002,"ADDRESS":"崇明二街８２號","OBJECTID":608364},"geometry":{"x":169764.50000000186,"y":2542441.7200000025}},{"attributes":{"ID":608392,"DIS_CODE":0,"TOWNNAME":"東區","LI":"德光里","LIN":"3鄰","STREET":"崇明三街","SECT":" ","MAREA":" ","LANE":" ","ALLEY":" ","HOUSE_NO":"６７號","E_COORD97":169725.95999999999,"N_COORD97":2542400.9500000002,"ADDRESS":"崇明三街６７號","OBJECTID":608365},"geometry":{"x":169725.96000000089,"y":2542400.9500000011}},{"attributes":{"ID":608393,"DIS_CODE":0,"TOWNNAME":"東區","LI":"德光里","LIN":"3鄰","STREET":"崇明三街","SECT":" ","MAREA":" ","LANE":" ","ALLEY":" ","HOUSE_NO":"６９號","E_COORD97":169729.95000000001,"N_COORD97":2542402.21,"ADDRESS":"崇明三街６９號","OBJECTID":608366},"geometry":{"x":169729.95000000112,"y":2542402.2100000009}},{"attributes":{"ID":608394,"DIS_CODE":0,"TOWNNAME":"東區","LI":"德光里","LIN":"3鄰","STREET":"崇明三街","SECT":" ","MAREA":" ","LANE":" ","ALLEY":" ","HOUSE_NO":"７１號","E_COORD97":169733.53,"N_COORD97":2542403.6800000002,"ADDRESS":"崇明三街７１號","OBJECTID":608367},"geometry":{"x":169733.53000000026,"y":2542403.6800000016}},{"attributes":{"ID":608395,"DIS_CODE":0,"TOWNNAME":"東區","LI":"德光里","LIN":"3鄰","STREET":"崇明三街","SECT":" ","MAREA":" ","LANE":" ","ALLEY":" ","HOUSE_NO":"７３號","E_COORD97":169737.51999999999,"N_COORD97":2542404.73,"ADDRESS":"崇明三街７３號","OBJECTID":608368},"geometry":{"x":169737.51999999955,"y":2542404.7300000004}},{"attributes":{"ID":608396,"DIS_CODE":0,"TOWNNAME":"東區","LI":"德光里","LIN":"3鄰","STREET":"崇明三街","SECT":" ","MAREA":" ","LANE":" ","ALLEY":" ","HOUSE_NO":"７５號","E_COORD97":169741.94,"N_COORD97":2542405.7799999998,"ADDRESS":"崇明三街７５號","OBJECTID":608369},"geometry":{"x":169741.94000000134,"y":2542405.7800000012}},{"attributes":{"ID":608397,"DIS_CODE":0,"TOWNNAME":"東區","LI":"德光里","LIN":"3鄰","STREET":"崇明三街","SECT":" ","MAREA":" ","LANE":" ","ALLEY":" ","HOUSE_NO":"７７號","E_COORD97":169745.72,"N_COORD97":2542407.04,"ADDRESS":"崇明三街７７號","OBJECTID":608370},"geometry":{"x":169745.7200000016,"y":2542407.040000001}},{"attributes":{"ID":608398,"DIS_CODE":0,"TOWNNAME":"東區","LI":"德光里","LIN":"3鄰","STREET":"崇明三街","SECT":" ","MAREA":" ","LANE":" ","ALLEY":" ","HOUSE_NO":"７９號","E_COORD97":169749.51000000001,"N_COORD97":2542408.5099999998,"ADDRESS":"崇明三街７９號","OBJECTID":608371},"geometry":{"x":169749.51000000071,"y":2542408.5099999998}},{"attributes":{"ID":608399,"DIS_CODE":0,"TOWNNAME":"東區","LI":"德光里","LIN":"3鄰","STREET":"崇明三街","SECT":" ","MAREA":" ","LANE":" ","ALLEY":" ","HOUSE_NO":"８１號","E_COORD97":169753.29000000001,"N_COORD97":2542409.98,"ADDRESS":"崇明三街８１號","OBJECTID":608372},"geometry":{"x":169753.29000000004,"y":2542409.9800000004}},{"attributes":{"ID":608400,"DIS_CODE":0,"TOWNNAME":"東區","LI":"德光里","LIN":"3鄰","STREET":"崇明三街","SECT":" ","MAREA":" ","LANE":" ","ALLEY":" ","HOUSE_NO":"８３號","E_COORD97":169757.29000000001,"N_COORD97":2542411.0299999998,"ADDRESS":"崇明三街８３號","OBJECTID":608373},"geometry":{"x":169757.28999999911,"y":2542411.0300000012}},{"attributes":{"ID":608401,"DIS_CODE":0,"TOWNNAME":"東區","LI":"德光里","LIN":"3鄰","STREET":"崇明三街","SECT":" ","MAREA":" ","LANE":" ","ALLEY":" ","HOUSE_NO":"８５號","E_COORD97":169761.07000000001,"N_COORD97":2542412.0800000001,"ADDRESS":"崇明三街８５號","OBJECTID":608374},"geometry":{"x":169761.07000000123,"y":2542412.0800000001}},{"attributes":{"ID":608402,"DIS_CODE":0,"TOWNNAME":"東區","LI":"德光里","LIN":"3鄰","STREET":"崇明三街","SECT":" ","MAREA":" ","LANE":" ","ALLEY":" ","HOUSE_NO":"８７號","E_COORD97":169764.85999999999,"N_COORD97":2542413.5499999998,"ADDRESS":"崇明三街８７號","OBJECTID":608375},"geometry":{"x":169764.86000000034,"y":2542413.5500000007}},{"attributes":{"ID":608403,"DIS_CODE":0,"TOWNNAME":"東區","LI":"德光里","LIN":"3鄰","STREET":"崇明三街","SECT":" ","MAREA":" ","LANE":" ","ALLEY":" ","HOUSE_NO":"８９號","E_COORD97":169768.85000000001,"N_COORD97":2542414.8100000001,"ADDRESS":"崇明三街８９號","OBJECTID":608376},"geometry":{"x":169768.85000000056,"y":2542414.8100000005}},{"attributes":{"ID":608404,"DIS_CODE":0,"TOWNNAME":"永康區","LI":"五王里","LIN":"25鄰","STREET":"五福街","SECT":" ","MAREA":" ","LANE":" ","ALLEY":" ","HOUSE_NO":"５２號","E_COORD97":171370.82000000001,"N_COORD97":2545890.8100000001,"ADDRESS":"五福街５２號","OBJECTID":608377},"geometry":{"x":171370.8200000003,"y":2545890.8100000042}},{"attributes":{"ID":608405,"DIS_CODE":0,"TOWNNAME":"永康區","LI":"北灣里","LIN":"13鄰","STREET":"文賢街","SECT":" ","MAREA":" ","LANE":" ","ALLEY":" ","HOUSE_NO":"３２１號","E_COORD97":175098.70999999999,"N_COORD97":2545821.6499999999,"ADDRESS":"文賢街３２１號","OBJECTID":608378},"geometry":{"x":175098.70999999996,"y":2545821.6500000022}},{"attributes":{"ID":608406,"DIS_CODE":0,"TOWNNAME":"永康區","LI":"正強里","LIN":"40鄰","STREET":"四維街","SECT":" ","MAREA":" ","LANE":" ","ALLEY":" ","HOUSE_NO":"１８９號","E_COORD97":173258.88,"N_COORD97":2548454.3199999998,"ADDRESS":"四維街１８９號","OBJECTID":608379},"geometry":{"x":173258.88000000175,"y":2548454.3200000022}},{"attributes":{"ID":608407,"DIS_CODE":0,"TOWNNAME":"仁德區","LI":"仁德里","LIN":"3鄰","STREET":"仁中六街","SECT":" ","MAREA":" ","LANE":" ","ALLEY":" ","HOUSE_NO":"９７號","E_COORD97":173350.78,"N_COORD97":2540389.2400000002,"ADDRESS":"仁中六街９７號","OBJECTID":608380},"geometry":{"x":173350.78000000026,"y":2540389.2400000021}},{"attributes":{"ID":608408,"DIS_CODE":0,"TOWNNAME":"東區","LI":"德光里","LIN":"3鄰","STREET":"崇明路","SECT":" ","MAREA":" ","LANE":" ","ALLEY":" ","HOUSE_NO":"３９號","E_COORD97":169690.64000000001,"N_COORD97":2542422.1099999999,"ADDRESS":"崇明路３９號","OBJECTID":608381},"geometry":{"x":169690.6400000006,"y":2542422.1099999994}},{"attributes":{"ID":608409,"DIS_CODE":0,"TOWNNAME":"東區","LI":"德光里","LIN":"3鄰","STREET":"崇明路","SECT":" ","MAREA":" ","LANE":" ","ALLEY":" ","HOUSE_NO":"４１號","E_COORD97":169692.60000000001,"N_COORD97":2542418.1899999999,"ADDRESS":"崇明路４１號","OBJECTID":608382},"geometry":{"x":169692.60000000056,"y":2542418.1899999995}},{"attributes":{"ID":608410,"DIS_CODE":0,"TOWNNAME":"東區","LI":"德光里","LIN":"3鄰","STREET":"崇明路","SECT":" ","MAREA":" ","LANE":" ","ALLEY":" ","HOUSE_NO":"４３號","E_COORD97":169695.06,"N_COORD97":2542414.02,"ADDRESS":"崇明路４３號","OBJECTID":608383},"geometry":{"x":169695.05999999959,"y":2542414.0200000014}},{"attributes":{"ID":608411,"DIS_CODE":0,"TOWNNAME":"東區","LI":"德光里","LIN":"3鄰","STREET":"崇明路","SECT":" ","MAREA":" ","LANE":" ","ALLEY":" ","HOUSE_NO":"４５號","E_COORD97":169697.01999999999,"N_COORD97":2542409.8599999999,"ADDRESS":"崇明路４５號","OBJECTID":608384},"geometry":{"x":169697.01999999955,"y":2542409.8599999994}},{"attributes":{"ID":608412,"DIS_CODE":0,"TOWNNAME":"東區","LI":"德光里","LIN":"3鄰","STREET":"崇德路","SECT":" ","MAREA":" ","LANE":" ","ALLEY":" ","HOUSE_NO":"４４號","E_COORD97":169776.39000000001,"N_COORD97":2542440.3799999999,"ADDRESS":"崇德路４４號","OBJECTID":608385},"geometry":{"x":169776.38999999966,"y":2542440.3799999971}},{"attributes":{"ID":608413,"DIS_CODE":0,"TOWNNAME":"東區","LI":"德光里","LIN":"3鄰","STREET":"崇德路","SECT":" ","MAREA":" ","LANE":" ","ALLEY":" ","HOUSE_NO":"４６號","E_COORD97":169778.25,"N_COORD97":2542436.2000000002,"ADDRESS":"崇德路４６號","OBJECTID":608386},"geometry":{"x":169778.25000000093,"y":2542436.2000000011}},{"attributes":{"ID":608414,"DIS_CODE":0,"TOWNNAME":"東區","LI":"德光里","LIN":"3鄰","STREET":"崇德路","SECT":" ","MAREA":" ","LANE":" ","ALLEY":" ","HOUSE_NO":"４８號","E_COORD97":169779.64000000001,"N_COORD97":2542432.4900000002,"ADDRESS":"崇德路４８號","OBJECTID":608387},"geometry":{"x":169779.63999999966,"y":2542432.4900000021}},{"attributes":{"ID":608415,"DIS_CODE":0,"TOWNNAME":"東區","LI":"德光里","LIN":"3鄰","STREET":"崇德路","SECT":" ","MAREA":" ","LANE":" ","ALLEY":" ","HOUSE_NO":"５２號之１","E_COORD97":169784.29000000001,"N_COORD97":2542420.4100000001,"ADDRESS":"崇德路５２號之１","OBJECTID":608388},"geometry":{"x":169784.29000000004,"y":2542420.4100000001}},{"attributes":{"ID":608416,"DIS_CODE":0,"TOWNNAME":"東區","LI":"德光里","LIN":"3鄰","STREET":"崇德路","SECT":" ","MAREA":" ","LANE":" ","ALLEY":" ","HOUSE_NO":"５２號之２","E_COORD97":169785.69,"N_COORD97":2542415.5299999998,"ADDRESS":"崇德路５２號之２","OBJECTID":608389},"geometry":{"x":169785.69000000227,"y":2542415.5299999993}},{"attributes":{"ID":608417,"DIS_CODE":0,"TOWNNAME":"東區","LI":"德光里","LIN":"3鄰","STREET":"崇德路","SECT":" ","MAREA":" ","LANE":" ","ALLEY":" ","HOUSE_NO":"５２號之３","E_COORD97":169787.31,"N_COORD97":2542411.5800000001,"ADDRESS":"崇德路５２號之３","OBJECTID":608390},"geometry":{"x":169787.31000000145,"y":2542411.5800000019}},{"attributes":{"ID":608418,"DIS_CODE":0,"TOWNNAME":"東區","LI":"關聖里","LIN":"3鄰","STREET":"富農街","SECT":"二段","MAREA":" ","LANE":" ","ALLEY":" ","HOUSE_NO":"１００號","E_COORD97":171643.45999999999,"N_COORD97":2543067.6299999999,"ADDRESS":"富農街二段１００號","OBJECTID":608391},"geometry":{"x":171643.46000000089,"y":2543067.6300000008}},{"attributes":{"ID":608419,"DIS_CODE":0,"TOWNNAME":"東區","LI":"關聖里","LIN":"3鄰","STREET":"富農街","SECT":"二段","MAREA":" ","LANE":" ","ALLEY":" ","HOUSE_NO":"１０２號","E_COORD97":171642.92000000001,"N_COORD97":2543071.29,"ADDRESS":"富農街二段１０２號","OBJECTID":608392},"geometry":{"x":171642.91999999993,"y":2543071.2899999991}},{"attributes":{"ID":608420,"DIS_CODE":0,"TOWNNAME":"東區","LI":"關聖里","LIN":"3鄰","STREET":"富農街","SECT":"二段","MAREA":" ","LANE":" ","ALLEY":" ","HOUSE_NO":"１０４號","E_COORD97":171642.17000000001,"N_COORD97":2543075.0600000001,"ADDRESS":"富農街二段１０４號","OBJECTID":608393},"geometry":{"x":171642.17000000086,"y":2543075.0600000042}},{"attributes":{"ID":608421,"DIS_CODE":0,"TOWNNAME":"東區","LI":"關聖里","LIN":"3鄰","STREET":"富農街","SECT":"二段","MAREA":" ","LANE":" ","ALLEY":" ","HOUSE_NO":"１０６號","E_COORD97":171642.39000000001,"N_COORD97":2543080.4500000002,"ADDRESS":"富農街二段１０６號","OBJECTID":608394},"geometry":{"x":171642.38999999966,"y":2543080.4499999993}},{"attributes":{"ID":608422,"DIS_CODE":0,"TOWNNAME":"東區","LI":"關聖里","LIN":"3鄰","STREET":"富農街","SECT":"二段","MAREA":" ","LANE":" ","ALLEY":" ","HOUSE_NO":"９４號","E_COORD97":171645.07999999999,"N_COORD97":2543045.7599999998,"ADDRESS":"富農街二段９４號","OBJECTID":608395},"geometry":{"x":171645.08000000007,"y":2543045.7600000035}},{"attributes":{"ID":608423,"DIS_CODE":0,"TOWNNAME":"東區","LI":"關聖里","LIN":"3鄰","STREET":"富農街","SECT":"二段","MAREA":" ","LANE":" ","ALLEY":" ","HOUSE_NO":"９８號","E_COORD97":171643.67999999999,"N_COORD97":2543063.3199999998,"ADDRESS":"富農街二段９８號","OBJECTID":608396},"geometry":{"x":171643.6799999997,"y":2543063.3200000022}},{"attributes":{"ID":608424,"DIS_CODE":0,"TOWNNAME":"東區","LI":"大福里","LIN":"3鄰","STREET":"榮譽街","SECT":" ","MAREA":" ","LANE":" ","ALLEY":" ","HOUSE_NO":"３５號","E_COORD97":169613.51999999999,"N_COORD97":2541645.3599999999,"ADDRESS":"榮譽街３５號","OBJECTID":608397},"geometry":{"x":169613.52000000048,"y":2541645.3600000013}},{"attributes":{"ID":608425,"DIS_CODE":0,"TOWNNAME":"東區","LI":"大福里","LIN":"3鄰","STREET":"榮譽街","SECT":" ","MAREA":" ","LANE":" ","ALLEY":" ","HOUSE_NO":"３７號","E_COORD97":169616.82000000001,"N_COORD97":2541645.9100000001,"ADDRESS":"榮譽街３７號","OBJECTID":608398},"geometry":{"x":169616.82000000216,"y":2541645.910000002}},{"attributes":{"ID":608426,"DIS_CODE":0,"TOWNNAME":"東區","LI":"大福里","LIN":"3鄰","STREET":"榮譽街","SECT":" ","MAREA":" ","LANE":" ","ALLEY":" ","HOUSE_NO":"３９號","E_COORD97":169620.39000000001,"N_COORD97":2541648.1099999999,"ADDRESS":"榮譽街３９號","OBJECTID":608399},"geometry":{"x":169620.38999999966,"y":2541648.1099999994}},{"attributes":{"ID":608427,"DIS_CODE":0,"TOWNNAME":"東區","LI":"大福里","LIN":"3鄰","STREET":"榮譽街","SECT":" ","MAREA":" ","LANE":" ","ALLEY":" ","HOUSE_NO":"４１號","E_COORD97":169625.32999999999,"N_COORD97":2541653.6000000001,"ADDRESS":"榮譽街４１號","OBJECTID":608400},"geometry":{"x":169625.33000000101,"y":2541653.6000000015}}]}