{"displayFieldName":"TOWNNAME","fieldAliases":{"ID":"ID","DIS_CODE":"DIS_CODE","TOWNNAME":"TOWNNAME","LI":"LI","LIN":"LIN","STREET":"STREET","SECT":"SECT","MAREA":"MAREA","LANE":"LANE","ALLEY":"ALLEY","HOUSE_NO":"HOUSE_NO","E_COORD97":"E_COORD97","N_COORD97":"N_COORD97","ADDRESS":"ADDRESS","OBJECTID":"OBJECTID"},"geometryType":"esriGeometryPoint","spatialReference":{"wkid":102443,"latestWkid":3826},"fields":[{"name":"ID","type":"esriFieldTypeDouble","alias":"ID"},{"name":"DIS_CODE","type":"esriFieldTypeInteger","alias":"DIS_CODE"},{"name":"TOWNNAME","type":"esriFieldTypeString","alias":"TOWNNAME","length":8},{"name":"LI","type":"esriFieldTypeString","alias":"LI","length":8},{"name":"LIN","type":"esriFieldTypeString","alias":"LIN","length":12},{"name":"STREET","type":"esriFieldTypeString","alias":"STREET","length":20},{"name":"SECT","type":"esriFieldTypeString","alias":"SECT","length":8},{"name":"MAREA","type":"esriFieldTypeString","alias":"MAREA","length":12},{"name":"LANE","type":"esriFieldTypeString","alias":"LANE","length":10},{"name":"ALLEY","type":"esriFieldTypeString","alias":"ALLEY","length":10},{"name":"HOUSE_NO","type":"esriFieldTypeString","alias":"HOUSE_NO","length":20},{"name":"E_COORD97","type":"esriFieldTypeDouble","alias":"E_COORD97"},{"name":"N_COORD97","type":"esriFieldTypeDouble","alias":"N_COORD97"},{"name":"ADDRESS","type":"esriFieldTypeString","alias":"ADDRESS","length":50},{"name":"OBJECTID","type":"esriFieldTypeOID","alias":"OBJECTID"}],"features":[{"attributes":{"ID":651228,"DIS_CODE":0,"TOWNNAME":"安南區","LI":"城北里","LIN":"8鄰","STREET":"安中路","SECT":"六段","MAREA":" ","LANE":" ","ALLEY":" ","HOUSE_NO":"３５５號之２","E_COORD97":161196.153983,"N_COORD97":2551289.27299,"ADDRESS":"安中路六段３５５號之２","OBJECTID":651201},"geometry":{"x":161196.1539830016,"y":2551289.2729870025}},{"attributes":{"ID":651229,"DIS_CODE":0,"TOWNNAME":"東山區","LI":"東原里","LIN":"6鄰","STREET":" ","SECT":" ","MAREA":"前大埔","LANE":" ","ALLEY":" ","HOUSE_NO":"７１號之７","E_COORD97":193195.11353,"N_COORD97":2573472.80107,"ADDRESS":"前大埔７１號之７","OBJECTID":651202},"geometry":{"x":193195.11352999974,"y":2573472.8010700028}},{"attributes":{"ID":651230,"DIS_CODE":0,"TOWNNAME":"楠西區","LI":"龜丹里","LIN":"4鄰","STREET":" ","SECT":" ","MAREA":"龜丹","LANE":" ","ALLEY":" ","HOUSE_NO":"５０號之６","E_COORD97":198507.56168399999,"N_COORD97":2559294.8353300001,"ADDRESS":"龜丹５０號之６","OBJECTID":651203},"geometry":{"x":198507.56168400124,"y":2559294.8353270013}},{"attributes":{"ID":651231,"DIS_CODE":0,"TOWNNAME":"佳里區","LI":"建南里","LIN":"34鄰","STREET":" ","SECT":" ","MAREA":"建南","LANE":" ","ALLEY":" ","HOUSE_NO":"１０８號","E_COORD97":165925.47958099999,"N_COORD97":2560873.4743300001,"ADDRESS":"建南１０８號","OBJECTID":651204},"geometry":{"x":165925.47958100028,"y":2560873.4743310008}},{"attributes":{"ID":651232,"DIS_CODE":0,"TOWNNAME":"關廟區","LI":"埤頭里","LIN":"13鄰","STREET":"關新路","SECT":"二段","MAREA":" ","LANE":"５８６巷","ALLEY":" ","HOUSE_NO":"１８號","E_COORD97":179246.47529599999,"N_COORD97":2545408.5425100001,"ADDRESS":"關新路二段５８６巷１８號","OBJECTID":651205},"geometry":{"x":179246.47529600002,"y":2545408.5425119996}},{"attributes":{"ID":651233,"DIS_CODE":0,"TOWNNAME":"麻豆區","LI":"南勢里","LIN":"23鄰","STREET":" ","SECT":" ","MAREA":"南勢","LANE":" ","ALLEY":" ","HOUSE_NO":"６９號之１０","E_COORD97":174665.31517300001,"N_COORD97":2564847.5937899998,"ADDRESS":"南勢６９號之１０","OBJECTID":651206},"geometry":{"x":174665.3151730001,"y":2564847.5937910005}},{"attributes":{"ID":651234,"DIS_CODE":0,"TOWNNAME":"關廟區","LI":"埤頭里","LIN":"13鄰","STREET":"關新路","SECT":"二段","MAREA":" ","LANE":"５８６巷","ALLEY":" ","HOUSE_NO":"２６號","E_COORD97":179317.23901399999,"N_COORD97":2545382.0841899998,"ADDRESS":"關新路二段５８６巷２６號","OBJECTID":651207},"geometry":{"x":179317.2390139997,"y":2545382.0841930006}},{"attributes":{"ID":651235,"DIS_CODE":0,"TOWNNAME":"新營區","LI":"王公里","LIN":"9鄰","STREET":"義和街","SECT":" ","MAREA":" ","LANE":" ","ALLEY":" ","HOUSE_NO":"１７號之２","E_COORD97":180275.27720300001,"N_COORD97":2579039.5501199998,"ADDRESS":"義和街１７號之２","OBJECTID":651208},"geometry":{"x":180275.27720300201,"y":2579039.5501210019}},{"attributes":{"ID":651236,"DIS_CODE":0,"TOWNNAME":"新營區","LI":"王公里","LIN":"9鄰","STREET":"義和街","SECT":" ","MAREA":" ","LANE":" ","ALLEY":" ","HOUSE_NO":"１７號之２","E_COORD97":180330.36658100001,"N_COORD97":2579018.8067999999,"ADDRESS":"義和街１７號之２","OBJECTID":651209},"geometry":{"x":180330.36658100132,"y":2579018.806799002}},{"attributes":{"ID":651237,"DIS_CODE":0,"TOWNNAME":"新營區","LI":"王公里","LIN":"9鄰","STREET":"義和街","SECT":" ","MAREA":" ","LANE":" ","ALLEY":" ","HOUSE_NO":"１７號","E_COORD97":180351.55480300001,"N_COORD97":2579017.3251299998,"ADDRESS":"義和街１７號","OBJECTID":651210},"geometry":{"x":180351.55480299983,"y":2579017.3251330014}},{"attributes":{"ID":651238,"DIS_CODE":0,"TOWNNAME":"關廟區","LI":"埤頭里","LIN":"13鄰","STREET":"關新路","SECT":"二段","MAREA":" ","LANE":" ","ALLEY":" ","HOUSE_NO":"７１６號","E_COORD97":179209.18663000001,"N_COORD97":2545634.2848899998,"ADDRESS":"關新路二段７１６號","OBJECTID":651211},"geometry":{"x":179209.18663000036,"y":2545634.2848899998}},{"attributes":{"ID":651239,"DIS_CODE":0,"TOWNNAME":"後壁區","LI":"新東里","LIN":"12鄰","STREET":" ","SECT":" ","MAREA":"新港東","LANE":" ","ALLEY":" ","HOUSE_NO":"１２３號之１０","E_COORD97":181465.696834,"N_COORD97":2582249.7757199998,"ADDRESS":"新港東１２３號之１０","OBJECTID":651212},"geometry":{"x":181465.69683400076,"y":2582249.7757220007}},{"attributes":{"ID":651240,"DIS_CODE":0,"TOWNNAME":"新營區","LI":"王公里","LIN":"10鄰","STREET":"民族路","SECT":" ","MAREA":" ","LANE":"１０２巷","ALLEY":" ","HOUSE_NO":"２２號","E_COORD97":180372.10737799999,"N_COORD97":2579144.7483999999,"ADDRESS":"民族路１０２巷２２號","OBJECTID":651213},"geometry":{"x":180372.10737800039,"y":2579144.7483970001}},{"attributes":{"ID":651241,"DIS_CODE":0,"TOWNNAME":"楠西區","LI":"龜丹里","LIN":"5鄰","STREET":" ","SECT":" ","MAREA":"龜丹","LANE":" ","ALLEY":" ","HOUSE_NO":"５８號之１６","E_COORD97":199087.03231099999,"N_COORD97":2559276.1028399998,"ADDRESS":"龜丹５８號之１６","OBJECTID":651214},"geometry":{"x":199087.03231099993,"y":2559276.1028370019}},{"attributes":{"ID":651242,"DIS_CODE":0,"TOWNNAME":"新營區","LI":"王公里","LIN":"10鄰","STREET":"民族路","SECT":" ","MAREA":" ","LANE":"１０２巷","ALLEY":" ","HOUSE_NO":"２６號之１","E_COORD97":180372.95490700001,"N_COORD97":2579159.3533899998,"ADDRESS":"民族路１０２巷２６號之１","OBJECTID":651215},"geometry":{"x":180372.95490699913,"y":2579159.3533890024}},{"attributes":{"ID":651243,"DIS_CODE":0,"TOWNNAME":"關廟區","LI":"埤頭里","LIN":"12鄰","STREET":"保東路","SECT":" ","MAREA":" ","LANE":"３５６巷","ALLEY":"２９８弄","HOUSE_NO":"１９８號","E_COORD97":178496.46463,"N_COORD97":2545229.7901099999,"ADDRESS":"保東路３５６巷２９８弄１９８號","OBJECTID":651216},"geometry":{"x":178496.46463000122,"y":2545229.7901090011}},{"attributes":{"ID":651244,"DIS_CODE":0,"TOWNNAME":"新營區","LI":"王公里","LIN":"10鄰","STREET":"民族路","SECT":" ","MAREA":" ","LANE":"１０２巷","ALLEY":" ","HOUSE_NO":"２６號","E_COORD97":180372.95490700001,"N_COORD97":2579153.0033900002,"ADDRESS":"民族路１０２巷２６號","OBJECTID":651217},"geometry":{"x":180372.95490699913,"y":2579153.0033929981}},{"attributes":{"ID":651245,"DIS_CODE":0,"TOWNNAME":"後壁區","LI":"新東里","LIN":"12鄰","STREET":" ","SECT":" ","MAREA":"新港東","LANE":" ","ALLEY":" ","HOUSE_NO":"１３０號","E_COORD97":181481.37390499999,"N_COORD97":2582023.2925100001,"ADDRESS":"新港東１３０號","OBJECTID":651218},"geometry":{"x":181481.37390500028,"y":2582023.2925109994}},{"attributes":{"ID":651246,"DIS_CODE":0,"TOWNNAME":"新營區","LI":"王公里","LIN":"10鄰","STREET":"民族路","SECT":" ","MAREA":" ","LANE":" ","ALLEY":" ","HOUSE_NO":"１００號","E_COORD97":180326.340819,"N_COORD97":2579155.8608900001,"ADDRESS":"民族路１００號","OBJECTID":651219},"geometry":{"x":180326.3408190012,"y":2579155.8608910013}},{"attributes":{"ID":651247,"DIS_CODE":0,"TOWNNAME":"佳里區","LI":"溪州里","LIN":"1鄰","STREET":" ","SECT":" ","MAREA":"溪州","LANE":" ","ALLEY":" ","HOUSE_NO":"１號之６１","E_COORD97":166760.96264700001,"N_COORD97":2567361.6035799999,"ADDRESS":"溪州１號之６１","OBJECTID":651220},"geometry":{"x":166760.96264700219,"y":2567361.603583999}},{"attributes":{"ID":651248,"DIS_CODE":0,"TOWNNAME":"麻豆區","LI":"南勢里","LIN":"10鄰","STREET":" ","SECT":" ","MAREA":"南勢","LANE":" ","ALLEY":" ","HOUSE_NO":"１號之５１","E_COORD97":174486.40272300001,"N_COORD97":2565948.7890300001,"ADDRESS":"南勢１號之５１","OBJECTID":651221},"geometry":{"x":174486.40272300132,"y":2565948.7890290022}},{"attributes":{"ID":651249,"DIS_CODE":0,"TOWNNAME":"新營區","LI":"王公里","LIN":"10鄰","STREET":"民族路","SECT":" ","MAREA":" ","LANE":" ","ALLEY":" ","HOUSE_NO":"１００號之１","E_COORD97":180328.671523,"N_COORD97":2579160.7292200001,"ADDRESS":"民族路１００號之１","OBJECTID":651222},"geometry":{"x":180328.67152300011,"y":2579160.7292220034}},{"attributes":{"ID":651250,"DIS_CODE":0,"TOWNNAME":"新營區","LI":"王公里","LIN":"10鄰","STREET":"民族路","SECT":" ","MAREA":" ","LANE":"１０２巷","ALLEY":" ","HOUSE_NO":"６號","E_COORD97":180358.97068,"N_COORD97":2579150.2517200001,"ADDRESS":"民族路１０２巷６號","OBJECTID":651223},"geometry":{"x":180358.97068000119,"y":2579150.2517200038}},{"attributes":{"ID":651251,"DIS_CODE":0,"TOWNNAME":"楠西區","LI":"龜丹里","LIN":"5鄰","STREET":" ","SECT":" ","MAREA":"龜丹","LANE":" ","ALLEY":" ","HOUSE_NO":"５８號之２６","E_COORD97":199050.802154,"N_COORD97":2559234.1928599998,"ADDRESS":"龜丹５８號之２６","OBJECTID":651224},"geometry":{"x":199050.80215400085,"y":2559234.1928599998}},{"attributes":{"ID":651252,"DIS_CODE":0,"TOWNNAME":"新營區","LI":"王公里","LIN":"10鄰","STREET":"民族路","SECT":" ","MAREA":" ","LANE":"１０２巷","ALLEY":" ","HOUSE_NO":"８號","E_COORD97":180364.05585400001,"N_COORD97":2579149.51089,"ADDRESS":"民族路１０２巷８號","OBJECTID":651225},"geometry":{"x":180364.05585400108,"y":2579149.5108950008}},{"attributes":{"ID":651253,"DIS_CODE":0,"TOWNNAME":"安南區","LI":"城北里","LIN":"8鄰","STREET":"安清路","SECT":"一段","MAREA":" ","LANE":" ","ALLEY":" ","HOUSE_NO":"３０之１號","E_COORD97":161221.773682,"N_COORD97":2551005.6398100001,"ADDRESS":"安清路一段３０之１號","OBJECTID":651226},"geometry":{"x":161221.77368200105,"y":2551005.6398070026}},{"attributes":{"ID":651254,"DIS_CODE":0,"TOWNNAME":"新營區","LI":"王公里","LIN":"10鄰","STREET":"民族路","SECT":" ","MAREA":" ","LANE":" ","ALLEY":" ","HOUSE_NO":"１０４號","E_COORD97":180353.673625,"N_COORD97":2579163.6925499998,"ADDRESS":"民族路１０４號","OBJECTID":651227},"geometry":{"x":180353.67362499982,"y":2579163.6925540008}},{"attributes":{"ID":651255,"DIS_CODE":0,"TOWNNAME":"麻豆區","LI":"新建里","LIN":"10鄰","STREET":"麻佳路","SECT":"一段","MAREA":" ","LANE":" ","ALLEY":" ","HOUSE_NO":"４２號之３","E_COORD97":172189.41971700001,"N_COORD97":2564964.2884200001,"ADDRESS":"麻佳路一段４２號之３","OBJECTID":651228},"geometry":{"x":172189.4197170008,"y":2564964.2884190027}},{"attributes":{"ID":651256,"DIS_CODE":0,"TOWNNAME":"關廟區","LI":"埤頭里","LIN":"12鄰","STREET":"保東路","SECT":" ","MAREA":" ","LANE":"３５６巷","ALLEY":"２９８弄","HOUSE_NO":"８８號","E_COORD97":178229.51168200001,"N_COORD97":2544979.9177399999,"ADDRESS":"保東路３５６巷２９８弄８８號","OBJECTID":651229},"geometry":{"x":178229.51168200187,"y":2544979.9177440014}},{"attributes":{"ID":651257,"DIS_CODE":0,"TOWNNAME":"安南區","LI":"城南里","LIN":"13鄰","STREET":"城西街","SECT":"二段","MAREA":" ","LANE":" ","ALLEY":" ","HOUSE_NO":"３７５號","E_COORD97":159391.51313199999,"N_COORD97":2551008.9963799999,"ADDRESS":"城西街二段３７５號","OBJECTID":651230},"geometry":{"x":159391.51313200034,"y":2551008.9963819999}},{"attributes":{"ID":651258,"DIS_CODE":0,"TOWNNAME":"楠西區","LI":"龜丹里","LIN":"5鄰","STREET":" ","SECT":" ","MAREA":"龜丹","LANE":" ","ALLEY":" ","HOUSE_NO":"６０號","E_COORD97":199550.700064,"N_COORD97":2559581.8779600002,"ADDRESS":"龜丹６０號","OBJECTID":651231},"geometry":{"x":199550.70006400067,"y":2559581.877962999}},{"attributes":{"ID":651259,"DIS_CODE":0,"TOWNNAME":"楠西區","LI":"龜丹里","LIN":"5鄰","STREET":" ","SECT":" ","MAREA":"龜丹","LANE":" ","ALLEY":" ","HOUSE_NO":"６１號之３","E_COORD97":199996.691169,"N_COORD97":2558983.17912,"ADDRESS":"龜丹６１號之３","OBJECTID":651232},"geometry":{"x":199996.69116900116,"y":2558983.1791190039}},{"attributes":{"ID":651260,"DIS_CODE":0,"TOWNNAME":"新營區","LI":"王公里","LIN":"10鄰","STREET":"民族路","SECT":" ","MAREA":" ","LANE":"１０６巷","ALLEY":" ","HOUSE_NO":"９號","E_COORD97":180401.347125,"N_COORD97":2579179.0797299999,"ADDRESS":"民族路１０６巷９號","OBJECTID":651233},"geometry":{"x":180401.34712500125,"y":2579179.0797290038}},{"attributes":{"ID":651261,"DIS_CODE":0,"TOWNNAME":"安南區","LI":"城南里","LIN":"13鄰","STREET":"城西街","SECT":"二段","MAREA":" ","LANE":"３８３巷","ALLEY":" ","HOUSE_NO":"５號","E_COORD97":159394.90249099999,"N_COORD97":2550988.25306,"ADDRESS":"城西街二段３８３巷５號","OBJECTID":651234},"geometry":{"x":159394.90249100048,"y":2550988.25306}},{"attributes":{"ID":651262,"DIS_CODE":0,"TOWNNAME":"新營區","LI":"王公里","LIN":"10鄰","STREET":"民族路","SECT":" ","MAREA":" ","LANE":"１０６巷","ALLEY":" ","HOUSE_NO":"１１號","E_COORD97":180397.321363,"N_COORD97":2579178.23306,"ADDRESS":"民族路１０６巷１１號","OBJECTID":651235},"geometry":{"x":180397.3213630002,"y":2579178.2330620028}},{"attributes":{"ID":651263,"DIS_CODE":0,"TOWNNAME":"新營區","LI":"王公里","LIN":"10鄰","STREET":"民族路","SECT":" ","MAREA":" ","LANE":"１０６巷","ALLEY":" ","HOUSE_NO":"１３號","E_COORD97":180393.50748299999,"N_COORD97":2579178.6563900001,"ADDRESS":"民族路１０６巷１３號","OBJECTID":651236},"geometry":{"x":180393.5074830018,"y":2579178.6563950013}},{"attributes":{"ID":651264,"DIS_CODE":0,"TOWNNAME":"安南區","LI":"城南里","LIN":"13鄰","STREET":"城西街","SECT":"二段","MAREA":" ","LANE":"３８３巷","ALLEY":" ","HOUSE_NO":"９號","E_COORD97":159395.11432600001,"N_COORD97":2550966.4514000001,"ADDRESS":"城西街二段３８３巷９號","OBJECTID":651237},"geometry":{"x":159395.11432600114,"y":2550966.4514050037}},{"attributes":{"ID":651265,"DIS_CODE":0,"TOWNNAME":"新營區","LI":"王公里","LIN":"10鄰","STREET":"民族路","SECT":" ","MAREA":" ","LANE":"１０６巷","ALLEY":" ","HOUSE_NO":"１５號","E_COORD97":180390.117367,"N_COORD97":2579178.8680599998,"ADDRESS":"民族路１０６巷１５號","OBJECTID":651238},"geometry":{"x":180390.11736700125,"y":2579178.8680620026}},{"attributes":{"ID":651266,"DIS_CODE":0,"TOWNNAME":"麻豆區","LI":"小埤里","LIN":"2鄰","STREET":" ","SECT":" ","MAREA":"苓子林","LANE":" ","ALLEY":" ","HOUSE_NO":"１７號之２２","E_COORD97":171355.77722600001,"N_COORD97":2564450.3713500001,"ADDRESS":"苓子林１７號之２２","OBJECTID":651239},"geometry":{"x":171355.77722600009,"y":2564450.3713480029}},{"attributes":{"ID":651267,"DIS_CODE":0,"TOWNNAME":"新營區","LI":"王公里","LIN":"10鄰","STREET":"民族路","SECT":" ","MAREA":" ","LANE":"１０６巷","ALLEY":" ","HOUSE_NO":"２０號","E_COORD97":180409.61053199999,"N_COORD97":2579134.5239200001,"ADDRESS":"民族路１０６巷２０號","OBJECTID":651240},"geometry":{"x":180409.61053199973,"y":2579134.5239190012}},{"attributes":{"ID":651268,"DIS_CODE":0,"TOWNNAME":"楠西區","LI":"龜丹里","LIN":"5鄰","STREET":" ","SECT":" ","MAREA":"龜丹","LANE":" ","ALLEY":" ","HOUSE_NO":"６２號之３","E_COORD97":201306.69734300001,"N_COORD97":2558677.2151199998,"ADDRESS":"龜丹６２號之３","OBJECTID":651241},"geometry":{"x":201306.69734300021,"y":2558677.2151180021}},{"attributes":{"ID":651269,"DIS_CODE":0,"TOWNNAME":"新營區","LI":"王公里","LIN":"10鄰","STREET":"民族路","SECT":" ","MAREA":" ","LANE":"１０６巷","ALLEY":" ","HOUSE_NO":"１６號","E_COORD97":180409.18676700001,"N_COORD97":2579143.2022500001,"ADDRESS":"民族路１０６巷１６號","OBJECTID":651242},"geometry":{"x":180409.18676700164,"y":2579143.2022480033}},{"attributes":{"ID":651270,"DIS_CODE":0,"TOWNNAME":"楠西區","LI":"龜丹里","LIN":"5鄰","STREET":" ","SECT":" ","MAREA":"龜丹","LANE":" ","ALLEY":" ","HOUSE_NO":"６２號之５","E_COORD97":201267.500975,"N_COORD97":2558665.9967899998,"ADDRESS":"龜丹６２號之５","OBJECTID":651243},"geometry":{"x":201267.50097500067,"y":2558665.9967910014}},{"attributes":{"ID":651271,"DIS_CODE":0,"TOWNNAME":"新營區","LI":"王公里","LIN":"10鄰","STREET":"民族路","SECT":" ","MAREA":" ","LANE":"１０６巷","ALLEY":" ","HOUSE_NO":"１４號","E_COORD97":180403.46594699999,"N_COORD97":2579147.2239100002,"ADDRESS":"民族路１０６巷１４號","OBJECTID":651244},"geometry":{"x":180403.46594700124,"y":2579147.2239120044}},{"attributes":{"ID":651272,"DIS_CODE":0,"TOWNNAME":"麻豆區","LI":"小埤里","LIN":"2鄰","STREET":" ","SECT":" ","MAREA":"苓子林","LANE":" ","ALLEY":" ","HOUSE_NO":"１７號之２１","E_COORD97":171351.75165300001,"N_COORD97":2564449.5246799998,"ADDRESS":"苓子林１７號之２１","OBJECTID":651245},"geometry":{"x":171351.75165300071,"y":2564449.5246820003}},{"attributes":{"ID":651273,"DIS_CODE":0,"TOWNNAME":"新營區","LI":"王公里","LIN":"10鄰","STREET":"民族路","SECT":" ","MAREA":" ","LANE":"１０６巷","ALLEY":" ","HOUSE_NO":"２號","E_COORD97":180387.99854500001,"N_COORD97":2579165.3213999998,"ADDRESS":"民族路１０６巷２號","OBJECTID":651246},"geometry":{"x":180387.99854500126,"y":2579165.3214030024}},{"attributes":{"ID":651274,"DIS_CODE":0,"TOWNNAME":"麻豆區","LI":"小埤里","LIN":"2鄰","STREET":" ","SECT":" ","MAREA":"苓子林","LANE":" ","ALLEY":" ","HOUSE_NO":"１７號之２０","E_COORD97":171347.93795200001,"N_COORD97":2564449.3130199998,"ADDRESS":"苓子林１７號之２０","OBJECTID":651247},"geometry":{"x":171347.93795199972,"y":2564449.313014999}},{"attributes":{"ID":651275,"DIS_CODE":0,"TOWNNAME":"楠西區","LI":"龜丹里","LIN":"5鄰","STREET":" ","SECT":" ","MAREA":"龜丹","LANE":" ","ALLEY":" ","HOUSE_NO":"６３號之６","E_COORD97":200811.76374699999,"N_COORD97":2558903.0633299998,"ADDRESS":"龜丹６３號之６","OBJECTID":651248},"geometry":{"x":200811.76374700107,"y":2558903.0633290019}},{"attributes":{"ID":651276,"DIS_CODE":0,"TOWNNAME":"新營區","LI":"王公里","LIN":"10鄰","STREET":"民族路","SECT":" ","MAREA":" ","LANE":"１０６巷","ALLEY":" ","HOUSE_NO":"４號","E_COORD97":180391.81242500001,"N_COORD97":2579165.7976500001,"ADDRESS":"民族路１０６巷４號","OBJECTID":651249},"geometry":{"x":180391.81242500059,"y":2579165.7976520043}},{"attributes":{"ID":651277,"DIS_CODE":0,"TOWNNAME":"楠西區","LI":"龜丹里","LIN":"5鄰","STREET":" ","SECT":" ","MAREA":"龜丹","LANE":" ","ALLEY":" ","HOUSE_NO":"６３號之２","E_COORD97":200795.87332799999,"N_COORD97":2558890.9983399999,"ADDRESS":"龜丹６３號之２","OBJECTID":651250},"geometry":{"x":200795.87332800124,"y":2558890.9983360004}},{"attributes":{"ID":651278,"DIS_CODE":0,"TOWNNAME":"新營區","LI":"王公里","LIN":"10鄰","STREET":"民族路","SECT":" ","MAREA":" ","LANE":"１０６巷","ALLEY":" ","HOUSE_NO":"６號","E_COORD97":180395.20254,"N_COORD97":2579165.1626499998,"ADDRESS":"民族路１０６巷６號","OBJECTID":651251},"geometry":{"x":180395.2025400009,"y":2579165.1626529992}},{"attributes":{"ID":651279,"DIS_CODE":0,"TOWNNAME":"新營區","LI":"王公里","LIN":"10鄰","STREET":"民族路","SECT":" ","MAREA":" ","LANE":"１０６巷","ALLEY":" ","HOUSE_NO":"８號","E_COORD97":180399.01642,"N_COORD97":2579165.5859900001,"ADDRESS":"民族路１０６巷８號","OBJECTID":651252},"geometry":{"x":180399.01642000023,"y":2579165.5859860014}},{"attributes":{"ID":651280,"DIS_CODE":0,"TOWNNAME":"新營區","LI":"王公里","LIN":"10鄰","STREET":"民族路","SECT":" ","MAREA":" ","LANE":"１０６巷","ALLEY":" ","HOUSE_NO":"１０號","E_COORD97":180402.19465399999,"N_COORD97":2579165.7976500001,"ADDRESS":"民族路１０６巷１０號","OBJECTID":651253},"geometry":{"x":180402.19465400092,"y":2579165.7976520043}},{"attributes":{"ID":651281,"DIS_CODE":0,"TOWNNAME":"楠西區","LI":"龜丹里","LIN":"5鄰","STREET":" ","SECT":" ","MAREA":"龜丹","LANE":" ","ALLEY":" ","HOUSE_NO":"６３號之１","E_COORD97":200795.661456,"N_COORD97":2558881.0500099999,"ADDRESS":"龜丹６３號之１","OBJECTID":651254},"geometry":{"x":200795.66145600192,"y":2558881.0500079989}},{"attributes":{"ID":651282,"DIS_CODE":0,"TOWNNAME":"新營區","LI":"王公里","LIN":"10鄰","STREET":"民族路","SECT":" ","MAREA":" ","LANE":"１０６巷","ALLEY":" ","HOUSE_NO":"２號之１","E_COORD97":180383.33713599999,"N_COORD97":2579164.7393200002,"ADDRESS":"民族路１０６巷２號之１","OBJECTID":651255},"geometry":{"x":180383.33713600039,"y":2579164.7393200006}},{"attributes":{"ID":651283,"DIS_CODE":0,"TOWNNAME":"楠西區","LI":"龜丹里","LIN":"5鄰","STREET":" ","SECT":" ","MAREA":"龜丹","LANE":" ","ALLEY":" ","HOUSE_NO":"６３號之３","E_COORD97":200797.78017799999,"N_COORD97":2558865.38668,"ADDRESS":"龜丹６３號之３","OBJECTID":651256},"geometry":{"x":200797.78017799929,"y":2558865.3866830021}},{"attributes":{"ID":651284,"DIS_CODE":0,"TOWNNAME":"楠西區","LI":"龜丹里","LIN":"5鄰","STREET":" ","SECT":" ","MAREA":"龜丹","LANE":" ","ALLEY":" ","HOUSE_NO":"６３號之１６","E_COORD97":200856.46879399999,"N_COORD97":2558911.10666,"ADDRESS":"龜丹６３號之１６","OBJECTID":651257},"geometry":{"x":200856.46879400127,"y":2558911.1066580005}},{"attributes":{"ID":651285,"DIS_CODE":0,"TOWNNAME":"新營區","LI":"王公里","LIN":"10鄰","STREET":"民族路","SECT":" ","MAREA":" ","LANE":"１０６巷","ALLEY":" ","HOUSE_NO":"２２號","E_COORD97":180409.39864900001,"N_COORD97":2579117.85518,"ADDRESS":"民族路１０６巷２２號","OBJECTID":651258},"geometry":{"x":180409.39864900056,"y":2579117.8551780004}},{"attributes":{"ID":651286,"DIS_CODE":0,"TOWNNAME":"新營區","LI":"王公里","LIN":"10鄰","STREET":"民族路","SECT":" ","MAREA":" ","LANE":"１０６巷","ALLEY":" ","HOUSE_NO":"２４號","E_COORD97":180405.161005,"N_COORD97":2579117.2201800002,"ADDRESS":"民族路１０６巷２４號","OBJECTID":651259},"geometry":{"x":180405.16100500058,"y":2579117.2201790009}},{"attributes":{"ID":651287,"DIS_CODE":0,"TOWNNAME":"楠西區","LI":"龜丹里","LIN":"5鄰","STREET":" ","SECT":" ","MAREA":"龜丹","LANE":" ","ALLEY":" ","HOUSE_NO":"６３號之１１","E_COORD97":200886.766527,"N_COORD97":2558952.5932999998,"ADDRESS":"龜丹６３號之１１","OBJECTID":651260},"geometry":{"x":200886.76652699988,"y":2558952.5933030024}},{"attributes":{"ID":651288,"DIS_CODE":0,"TOWNNAME":"新營區","LI":"王公里","LIN":"10鄰","STREET":"民族路","SECT":" ","MAREA":" ","LANE":"１０６巷","ALLEY":" ","HOUSE_NO":"３０號","E_COORD97":180392.23618899999,"N_COORD97":2579117.2201800002,"ADDRESS":"民族路１０６巷３０號","OBJECTID":651261},"geometry":{"x":180392.23618900124,"y":2579117.2201790009}},{"attributes":{"ID":651289,"DIS_CODE":0,"TOWNNAME":"新營區","LI":"王公里","LIN":"10鄰","STREET":"民族路","SECT":" ","MAREA":" ","LANE":"１０６巷","ALLEY":" ","HOUSE_NO":"３２號","E_COORD97":180388.21042700001,"N_COORD97":2579117.2201800002,"ADDRESS":"民族路１０６巷３２號","OBJECTID":651262},"geometry":{"x":180388.21042700019,"y":2579117.2201790009}},{"attributes":{"ID":651290,"DIS_CODE":0,"TOWNNAME":"新營區","LI":"王公里","LIN":"10鄰","STREET":"民族路","SECT":" ","MAREA":" ","LANE":"１０６巷","ALLEY":" ","HOUSE_NO":"３４號","E_COORD97":180386.515369,"N_COORD97":2579117.4318499998,"ADDRESS":"民族路１０６巷３４號","OBJECTID":651263},"geometry":{"x":180386.51536900178,"y":2579117.4318450019}},{"attributes":{"ID":651291,"DIS_CODE":0,"TOWNNAME":"佳里區","LI":"溪州里","LIN":"2鄰","STREET":" ","SECT":" ","MAREA":"溪州","LANE":" ","ALLEY":" ","HOUSE_NO":"１７號","E_COORD97":166285.228822,"N_COORD97":2567306.5833700001,"ADDRESS":"溪州１７號","OBJECTID":651264},"geometry":{"x":166285.22882200032,"y":2567306.5833720006}},{"attributes":{"ID":651292,"DIS_CODE":0,"TOWNNAME":"楠西區","LI":"龜丹里","LIN":"5鄰","STREET":" ","SECT":" ","MAREA":"龜丹","LANE":" ","ALLEY":" ","HOUSE_NO":"６１號之３６","E_COORD97":199925.71396200001,"N_COORD97":2558954.3924699998,"ADDRESS":"龜丹６１號之３６","OBJECTID":651265},"geometry":{"x":199925.71396200173,"y":2558954.3924680017}},{"attributes":{"ID":651293,"DIS_CODE":0,"TOWNNAME":"山上區","LI":"平陽里","LIN":"3鄰","STREET":" ","SECT":" ","MAREA":"石子崎","LANE":" ","ALLEY":" ","HOUSE_NO":"３４號","E_COORD97":186613.93676099999,"N_COORD97":2553963.09345,"ADDRESS":"石子崎３４號","OBJECTID":651266},"geometry":{"x":186613.93676100019,"y":2553963.0934500024}},{"attributes":{"ID":651294,"DIS_CODE":0,"TOWNNAME":"楠西區","LI":"龜丹里","LIN":"6鄰","STREET":" ","SECT":" ","MAREA":"龜丹","LANE":" ","ALLEY":" ","HOUSE_NO":"７０號之１","E_COORD97":199521.88543699999,"N_COORD97":2559843.2861500001,"ADDRESS":"龜丹７０號之１","OBJECTID":651267},"geometry":{"x":199521.88543700054,"y":2559843.2861550022}},{"attributes":{"ID":651295,"DIS_CODE":0,"TOWNNAME":"楠西區","LI":"龜丹里","LIN":"6鄰","STREET":" ","SECT":" ","MAREA":"龜丹","LANE":" ","ALLEY":" ","HOUSE_NO":"７０號之５","E_COORD97":199543.92015200001,"N_COORD97":2559855.35115,"ADDRESS":"龜丹７０號之５","OBJECTID":651268},"geometry":{"x":199543.92015200108,"y":2559855.3511490002}},{"attributes":{"ID":651296,"DIS_CODE":0,"TOWNNAME":"楠西區","LI":"龜丹里","LIN":"6鄰","STREET":" ","SECT":" ","MAREA":"龜丹","LANE":" ","ALLEY":" ","HOUSE_NO":"７２號","E_COORD97":199490.740215,"N_COORD97":2559833.12616,"ADDRESS":"龜丹７２號","OBJECTID":651269},"geometry":{"x":199490.74021500163,"y":2559833.1261609998}},{"attributes":{"ID":651297,"DIS_CODE":0,"TOWNNAME":"佳里區","LI":"溪州里","LIN":"3鄰","STREET":" ","SECT":" ","MAREA":"溪州","LANE":" ","ALLEY":" ","HOUSE_NO":"２７號之１","E_COORD97":166340.51084900001,"N_COORD97":2567386.38166,"ADDRESS":"溪州２７號之１","OBJECTID":651270},"geometry":{"x":166340.51084900182,"y":2567386.3816620037}},{"attributes":{"ID":651298,"DIS_CODE":0,"TOWNNAME":"新營區","LI":"王公里","LIN":"13鄰","STREET":"民族路","SECT":" ","MAREA":" ","LANE":"１０６巷","ALLEY":" ","HOUSE_NO":"５６號","E_COORD97":180422.535347,"N_COORD97":2579151.5101600001,"ADDRESS":"民族路１０６巷５６號","OBJECTID":651271},"geometry":{"x":180422.53534699976,"y":2579151.5101599991}},{"attributes":{"ID":651299,"DIS_CODE":0,"TOWNNAME":"新營區","LI":"王公里","LIN":"13鄰","STREET":"民族路","SECT":" ","MAREA":" ","LANE":"１０６巷","ALLEY":" ","HOUSE_NO":"５８號","E_COORD97":180422.535347,"N_COORD97":2579157.0134899998,"ADDRESS":"民族路１０６巷５８號","OBJECTID":651272},"geometry":{"x":180422.53534699976,"y":2579157.0134900026}},{"attributes":{"ID":651300,"DIS_CODE":0,"TOWNNAME":"關廟區","LI":"南花里","LIN":"12鄰","STREET":"明德街","SECT":" ","MAREA":" ","LANE":"１５巷","ALLEY":" ","HOUSE_NO":"５５號之１","E_COORD97":181739.310543,"N_COORD97":2539967.2652400001,"ADDRESS":"明德街１５巷５５號之１","OBJECTID":651273},"geometry":{"x":181739.3105430007,"y":2539967.2652450018}},{"attributes":{"ID":651301,"DIS_CODE":0,"TOWNNAME":"新營區","LI":"王公里","LIN":"13鄰","STREET":"民族路","SECT":" ","MAREA":" ","LANE":"１０６巷","ALLEY":" ","HOUSE_NO":"６２號","E_COORD97":180423.80664,"N_COORD97":2579121.2418399998,"ADDRESS":"民族路１０６巷６２號","OBJECTID":651274},"geometry":{"x":180423.80664000008,"y":2579121.2418430019}},{"attributes":{"ID":651302,"DIS_CODE":0,"TOWNNAME":"楠西區","LI":"龜丹里","LIN":"6鄰","STREET":" ","SECT":" ","MAREA":"龜丹","LANE":" ","ALLEY":" ","HOUSE_NO":"７２號之２","E_COORD97":199487.13838700001,"N_COORD97":2559802.6461800002,"ADDRESS":"龜丹７２號之２","OBJECTID":651275},"geometry":{"x":199487.13838700019,"y":2559802.6461770013}},{"attributes":{"ID":651303,"DIS_CODE":0,"TOWNNAME":"安南區","LI":"城北里","LIN":"7鄰","STREET":"安中路","SECT":"六段","MAREA":" ","LANE":" ","ALLEY":" ","HOUSE_NO":"２１８之５０號","E_COORD97":161377.013768,"N_COORD97":2551310.6513100001,"ADDRESS":"安中路六段２１８之５０號","OBJECTID":651276},"geometry":{"x":161377.01376800146,"y":2551310.6513090022}},{"attributes":{"ID":651304,"DIS_CODE":0,"TOWNNAME":"楠西區","LI":"龜丹里","LIN":"6鄰","STREET":" ","SECT":" ","MAREA":"龜丹","LANE":" ","ALLEY":" ","HOUSE_NO":"７５號","E_COORD97":199515.74114200001,"N_COORD97":2559988.3835800001,"ADDRESS":"龜丹７５號","OBJECTID":651277},"geometry":{"x":199515.74114200007,"y":2559988.3835770022}},{"attributes":{"ID":651305,"DIS_CODE":0,"TOWNNAME":"關廟區","LI":"南花里","LIN":"11鄰","STREET":"明德街","SECT":" ","MAREA":" ","LANE":"１５巷","ALLEY":" ","HOUSE_NO":"６號","E_COORD97":181792.083808,"N_COORD97":2540033.4110400002,"ADDRESS":"明德街１５巷６號","OBJECTID":651278},"geometry":{"x":181792.0838080002,"y":2540033.4110430013}},{"attributes":{"ID":651306,"DIS_CODE":0,"TOWNNAME":"新營區","LI":"王公里","LIN":"13鄰","STREET":"民族路","SECT":" ","MAREA":" ","LANE":"１０６巷","ALLEY":" ","HOUSE_NO":"６３號","E_COORD97":180424.907443,"N_COORD97":2579116.9556,"ADDRESS":"民族路１０６巷６３號","OBJECTID":651279},"geometry":{"x":180424.90744300094,"y":2579116.9555950016}},{"attributes":{"ID":651307,"DIS_CODE":0,"TOWNNAME":"新營區","LI":"王公里","LIN":"13鄰","STREET":"民族路","SECT":" ","MAREA":" ","LANE":"１０６巷","ALLEY":" ","HOUSE_NO":"６１號","E_COORD97":180423.63615000001,"N_COORD97":2579125.84559,"ADDRESS":"民族路１０６巷６１號","OBJECTID":651280},"geometry":{"x":180423.63614999969,"y":2579125.8455909993}},{"attributes":{"ID":651308,"DIS_CODE":0,"TOWNNAME":"佳里區","LI":"溪州里","LIN":"4鄰","STREET":" ","SECT":" ","MAREA":"溪州","LANE":" ","ALLEY":" ","HOUSE_NO":"３７號","E_COORD97":166371.01127700001,"N_COORD97":2567323.9400300002,"ADDRESS":"溪州３７號","OBJECTID":651281},"geometry":{"x":166371.01127700135,"y":2567323.940028999}},{"attributes":{"ID":651309,"DIS_CODE":0,"TOWNNAME":"楠西區","LI":"龜丹里","LIN":"6鄰","STREET":" ","SECT":" ","MAREA":"龜丹","LANE":" ","ALLEY":" ","HOUSE_NO":"７６號","E_COORD97":199460.23061,"N_COORD97":2559955.5752599998,"ADDRESS":"龜丹７６號","OBJECTID":651282},"geometry":{"x":199460.2306100009,"y":2559955.5752610005}},{"attributes":{"ID":651310,"DIS_CODE":0,"TOWNNAME":"新營區","LI":"王公里","LIN":"13鄰","STREET":"民族路","SECT":" ","MAREA":" ","LANE":"１０６巷","ALLEY":" ","HOUSE_NO":"７０之２號","E_COORD97":180422.36485700001,"N_COORD97":2579174.1055600001,"ADDRESS":"民族路１０６巷７０之２號","OBJECTID":651283},"geometry":{"x":180422.36485700123,"y":2579174.1055650003}},{"attributes":{"ID":651311,"DIS_CODE":0,"TOWNNAME":"新營區","LI":"王公里","LIN":"13鄰","STREET":"民族路","SECT":" ","MAREA":" ","LANE":"１０６巷","ALLEY":" ","HOUSE_NO":"５２號","E_COORD97":180423.63615000001,"N_COORD97":2579139.39225,"ADDRESS":"民族路１０６巷５２號","OBJECTID":651284},"geometry":{"x":180423.63614999969,"y":2579139.3922499996}},{"attributes":{"ID":651312,"DIS_CODE":0,"TOWNNAME":"新營區","LI":"王公里","LIN":"13鄰","STREET":"民族路","SECT":" ","MAREA":" ","LANE":"１０６巷","ALLEY":" ","HOUSE_NO":"６４號","E_COORD97":180442.70555000001,"N_COORD97":2579131.45475,"ADDRESS":"民族路１０６巷６４號","OBJECTID":651285},"geometry":{"x":180442.70555000007,"y":2579131.4547540024}},{"attributes":{"ID":651313,"DIS_CODE":0,"TOWNNAME":"新營區","LI":"王公里","LIN":"13鄰","STREET":"義和街","SECT":" ","MAREA":" ","LANE":"８巷","ALLEY":" ","HOUSE_NO":"２５號","E_COORD97":180446.30754000001,"N_COORD97":2579160.2414000002,"ADDRESS":"義和街８巷２５號","OBJECTID":651286},"geometry":{"x":180446.30754000042,"y":2579160.2414000034}},{"attributes":{"ID":651314,"DIS_CODE":0,"TOWNNAME":"楠西區","LI":"龜丹里","LIN":"6鄰","STREET":" ","SECT":" ","MAREA":"龜丹","LANE":" ","ALLEY":" ","HOUSE_NO":"７９號","E_COORD97":200189.07117899999,"N_COORD97":2560103.63601,"ADDRESS":"龜丹７９號","OBJECTID":651287},"geometry":{"x":200189.07117900066,"y":2560103.6360139996}},{"attributes":{"ID":651315,"DIS_CODE":0,"TOWNNAME":"楠西區","LI":"龜丹里","LIN":"6鄰","STREET":" ","SECT":" ","MAREA":"龜丹","LANE":" ","ALLEY":" ","HOUSE_NO":"８３號","E_COORD97":200237.80179900001,"N_COORD97":2560113.1610099999,"ADDRESS":"龜丹８３號","OBJECTID":651288},"geometry":{"x":200237.80179900117,"y":2560113.1610090025}},{"attributes":{"ID":651316,"DIS_CODE":0,"TOWNNAME":"新營區","LI":"王公里","LIN":"13鄰","STREET":"民族路","SECT":" ","MAREA":" ","LANE":"１１４巷","ALLEY":" ","HOUSE_NO":"５０號之１","E_COORD97":180481.79782000001,"N_COORD97":2579176.1164000002,"ADDRESS":"民族路１１４巷５０號之１","OBJECTID":651289},"geometry":{"x":180481.79781999998,"y":2579176.1163970008}},{"attributes":{"ID":651317,"DIS_CODE":0,"TOWNNAME":"新營區","LI":"王公里","LIN":"13鄰","STREET":"民族路","SECT":" ","MAREA":" ","LANE":"１１４巷","ALLEY":" ","HOUSE_NO":"５６號之１","E_COORD97":180493.345401,"N_COORD97":2579177.3864000002,"ADDRESS":"民族路１１４巷５６號之１","OBJECTID":651290},"geometry":{"x":180493.34540100116,"y":2579177.3863960002}},{"attributes":{"ID":651318,"DIS_CODE":0,"TOWNNAME":"安南區","LI":"城北里","LIN":"8鄰","STREET":"安中路","SECT":"六段","MAREA":" ","LANE":" ","ALLEY":" ","HOUSE_NO":"２０５號之１","E_COORD97":161570.749503,"N_COORD97":2551264.5079999999,"ADDRESS":"安中路六段２０５號之１","OBJECTID":651291},"geometry":{"x":161570.74950300064,"y":2551264.5080000013}},{"attributes":{"ID":651319,"DIS_CODE":0,"TOWNNAME":"楠西區","LI":"龜丹里","LIN":"6鄰","STREET":" ","SECT":" ","MAREA":"龜丹","LANE":" ","ALLEY":" ","HOUSE_NO":"８３號之１","E_COORD97":199540.95394100001,"N_COORD97":2559813.97034,"ADDRESS":"龜丹８３號之１","OBJECTID":651292},"geometry":{"x":199540.95394100063,"y":2559813.9703380018}},{"attributes":{"ID":651320,"DIS_CODE":0,"TOWNNAME":"楠西區","LI":"龜丹里","LIN":"6鄰","STREET":" ","SECT":" ","MAREA":"龜丹","LANE":" ","ALLEY":" ","HOUSE_NO":"８３號之３","E_COORD97":199537.775857,"N_COORD97":2559793.01535,"ADDRESS":"龜丹８３號之３","OBJECTID":651293},"geometry":{"x":199537.77585700154,"y":2559793.0153490007}},{"attributes":{"ID":651321,"DIS_CODE":0,"TOWNNAME":"楠西區","LI":"龜丹里","LIN":"6鄰","STREET":" ","SECT":" ","MAREA":"龜丹","LANE":" ","ALLEY":" ","HOUSE_NO":"８３號之２","E_COORD97":199530.99594399999,"N_COORD97":2559805.9270100002,"ADDRESS":"龜丹８３號之２","OBJECTID":651294},"geometry":{"x":199530.99594400078,"y":2559805.9270089995}},{"attributes":{"ID":651322,"DIS_CODE":0,"TOWNNAME":"新營區","LI":"王公里","LIN":"13鄰","STREET":"義和街","SECT":" ","MAREA":" ","LANE":"８巷","ALLEY":" ","HOUSE_NO":"１７號之２","E_COORD97":180498.85433,"N_COORD97":2579134.8414099999,"ADDRESS":"義和街８巷１７號之２","OBJECTID":651295},"geometry":{"x":180498.8543300014,"y":2579134.8414099999}},{"attributes":{"ID":651323,"DIS_CODE":0,"TOWNNAME":"新營區","LI":"王公里","LIN":"13鄰","STREET":"義和街","SECT":" ","MAREA":" ","LANE":"８巷","ALLEY":" ","HOUSE_NO":"１７之１號","E_COORD97":180498.21869199999,"N_COORD97":2579130.18475,"ADDRESS":"義和街８巷１７之１號","OBJECTID":651296},"geometry":{"x":180498.21869200189,"y":2579130.1847550031}},{"attributes":{"ID":651324,"DIS_CODE":0,"TOWNNAME":"安南區","LI":"城北里","LIN":"8鄰","STREET":"安中路","SECT":"六段","MAREA":" ","LANE":"２０１巷","ALLEY":" ","HOUSE_NO":"５之１號","E_COORD97":161579.854024,"N_COORD97":2551249.0563400001,"ADDRESS":"安中路六段２０１巷５之１號","OBJECTID":651297},"geometry":{"x":161579.85402400233,"y":2551249.0563420039}},{"attributes":{"ID":651325,"DIS_CODE":0,"TOWNNAME":"新營區","LI":"王公里","LIN":"13鄰","STREET":"義和街","SECT":" ","MAREA":" ","LANE":"８巷","ALLEY":" ","HOUSE_NO":"１７號之４","E_COORD97":180478.93741000001,"N_COORD97":2579140.7680799998,"ADDRESS":"義和街８巷１７號之４","OBJECTID":651298},"geometry":{"x":180478.93740999978,"y":2579140.7680830043}},{"attributes":{"ID":651326,"DIS_CODE":0,"TOWNNAME":"新營區","LI":"王公里","LIN":"13鄰","STREET":"義和街","SECT":" ","MAREA":" ","LANE":"８巷","ALLEY":" ","HOUSE_NO":"１７號","E_COORD97":180478.93741000001,"N_COORD97":2579129.5497599998,"ADDRESS":"義和街８巷１７號","OBJECTID":651299},"geometry":{"x":180478.93740999978,"y":2579129.5497550033}},{"attributes":{"ID":651327,"DIS_CODE":0,"TOWNNAME":"楠西區","LI":"龜丹里","LIN":"7鄰","STREET":" ","SECT":" ","MAREA":"龜丹","LANE":" ","ALLEY":" ","HOUSE_NO":"８４號","E_COORD97":199972.961476,"N_COORD97":2560214.3376199999,"ADDRESS":"龜丹８４號","OBJECTID":651300},"geometry":{"x":199972.96147600096,"y":2560214.3376209997}},{"attributes":{"ID":651328,"DIS_CODE":0,"TOWNNAME":"新營區","LI":"王公里","LIN":"13鄰","STREET":"義和街","SECT":" ","MAREA":" ","LANE":"８巷","ALLEY":" ","HOUSE_NO":"２１號之２","E_COORD97":180470.03835700001,"N_COORD97":2579127.4330899999,"ADDRESS":"義和街８巷２１號之２","OBJECTID":651301},"geometry":{"x":180470.0383570008,"y":2579127.4330900013}},{"attributes":{"ID":651329,"DIS_CODE":0,"TOWNNAME":"新營區","LI":"王公里","LIN":"13鄰","STREET":"義和街","SECT":" ","MAREA":" ","LANE":"８巷","ALLEY":" ","HOUSE_NO":"２１號之３","E_COORD97":180467.07200499999,"N_COORD97":2579113.0397600001,"ADDRESS":"義和街８巷２１號之３","OBJECTID":651302},"geometry":{"x":180467.07200499997,"y":2579113.039764002}},{"attributes":{"ID":651330,"DIS_CODE":0,"TOWNNAME":"新營區","LI":"王公里","LIN":"13鄰","STREET":"義和街","SECT":" ","MAREA":" ","LANE":"８巷","ALLEY":" ","HOUSE_NO":"２１號之４","E_COORD97":180456.901659,"N_COORD97":2579114.9447599999,"ADDRESS":"義和街８巷２１號之４","OBJECTID":651303},"geometry":{"x":180456.90165899973,"y":2579114.9447630011}},{"attributes":{"ID":651331,"DIS_CODE":0,"TOWNNAME":"楠西區","LI":"龜丹里","LIN":"7鄰","STREET":" ","SECT":" ","MAREA":"龜丹","LANE":" ","ALLEY":" ","HOUSE_NO":"８６號之１","E_COORD97":200069.787098,"N_COORD97":2560314.5617300002,"ADDRESS":"龜丹８６號之１","OBJECTID":651304},"geometry":{"x":200069.78709800076,"y":2560314.5617340002}},{"attributes":{"ID":651332,"DIS_CODE":0,"TOWNNAME":"楠西區","LI":"龜丹里","LIN":"7鄰","STREET":" ","SECT":" ","MAREA":"龜丹","LANE":" ","ALLEY":" ","HOUSE_NO":"８８號","E_COORD97":200014.064694,"N_COORD97":2560263.33843,"ADDRESS":"龜丹８８號","OBJECTID":651305},"geometry":{"x":200014.06469400134,"y":2560263.338428}},{"attributes":{"ID":651333,"DIS_CODE":0,"TOWNNAME":"新營區","LI":"王公里","LIN":"13鄰","STREET":"義和街","SECT":" ","MAREA":" ","LANE":"８巷","ALLEY":" ","HOUSE_NO":"２７號","E_COORD97":180447.47289999999,"N_COORD97":2579182.73098,"ADDRESS":"義和街８巷２７號","OBJECTID":651306},"geometry":{"x":180447.4729000004,"y":2579182.7309770025}},{"attributes":{"ID":651334,"DIS_CODE":0,"TOWNNAME":"楠西區","LI":"龜丹里","LIN":"7鄰","STREET":" ","SECT":" ","MAREA":"龜丹","LANE":" ","ALLEY":" ","HOUSE_NO":"１０１號之３","E_COORD97":201688.91489799999,"N_COORD97":2560923.73807,"ADDRESS":"龜丹１０１號之３","OBJECTID":651307},"geometry":{"x":201688.91489800066,"y":2560923.7380720004}},{"attributes":{"ID":651335,"DIS_CODE":0,"TOWNNAME":"楠西區","LI":"龜丹里","LIN":"7鄰","STREET":" ","SECT":" ","MAREA":"龜丹","LANE":" ","ALLEY":" ","HOUSE_NO":"１０１號之５","E_COORD97":201686.58430300001,"N_COORD97":2560915.4830800002,"ADDRESS":"龜丹１０１號之５","OBJECTID":651308},"geometry":{"x":201686.58430300187,"y":2560915.4830760024}},{"attributes":{"ID":651336,"DIS_CODE":0,"TOWNNAME":"楠西區","LI":"龜丹里","LIN":"7鄰","STREET":" ","SECT":" ","MAREA":"龜丹","LANE":" ","ALLEY":" ","HOUSE_NO":"１０１號之３７","E_COORD97":201726.62815999999,"N_COORD97":2560945.1163900001,"ADDRESS":"龜丹１０１號之３７","OBJECTID":651309},"geometry":{"x":201726.62816000171,"y":2560945.1163929999}},{"attributes":{"ID":651337,"DIS_CODE":0,"TOWNNAME":"楠西區","LI":"龜丹里","LIN":"7鄰","STREET":" ","SECT":" ","MAREA":"龜丹","LANE":" ","ALLEY":" ","HOUSE_NO":"１０１號之８","E_COORD97":201714.12769600001,"N_COORD97":2560922.4680699999,"ADDRESS":"龜丹１０１號之８","OBJECTID":651310},"geometry":{"x":201714.12769600004,"y":2560922.4680720009}},{"attributes":{"ID":651338,"DIS_CODE":0,"TOWNNAME":"安南區","LI":"\u25A0田里","LIN":"1鄰","STREET":"\u25A0田路","SECT":" ","MAREA":" ","LANE":"３２３巷","ALLEY":"３弄","HOUSE_NO":"５之１號","E_COORD97":162055.89385299999,"N_COORD97":2548092.5128500001,"ADDRESS":"\u25A0田路３２３巷３弄５之１號","OBJECTID":651311},"geometry":{"x":162055.89385300037,"y":2548092.5128540024}},{"attributes":{"ID":651339,"DIS_CODE":0,"TOWNNAME":"安南區","LI":"\u25A0田里","LIN":"1鄰","STREET":"本田路","SECT":"二段","MAREA":" ","LANE":" ","ALLEY":" ","HOUSE_NO":"２３１號","E_COORD97":162178.72736200001,"N_COORD97":2548071.1345299999,"ADDRESS":"本田路二段２３１號","OBJECTID":651312},"geometry":{"x":162178.72736200038,"y":2548071.1345320027}},{"attributes":{"ID":651340,"DIS_CODE":0,"TOWNNAME":"安南區","LI":"\u25A0田里","LIN":"1鄰","STREET":"本田路","SECT":"二段","MAREA":" ","LANE":" ","ALLEY":" ","HOUSE_NO":"２３３號","E_COORD97":162189.52823900001,"N_COORD97":2548077.9078600002,"ADDRESS":"本田路二段２３３號","OBJECTID":651313},"geometry":{"x":162189.52823899966,"y":2548077.9078620002}},{"attributes":{"ID":651341,"DIS_CODE":0,"TOWNNAME":"安南區","LI":"\u25A0田里","LIN":"1鄰","STREET":"本田路","SECT":"二段","MAREA":" ","LANE":" ","ALLEY":" ","HOUSE_NO":"２３５號","E_COORD97":162206.47079200001,"N_COORD97":2548081.9295299998,"ADDRESS":"本田路二段２３５號","OBJECTID":651314},"geometry":{"x":162206.47079200018,"y":2548081.9295270015}},{"attributes":{"ID":651342,"DIS_CODE":0,"TOWNNAME":"安南區","LI":"\u25A0田里","LIN":"1鄰","STREET":"本田路","SECT":"二段","MAREA":" ","LANE":" ","ALLEY":" ","HOUSE_NO":"２３７號","E_COORD97":162220.23661600001,"N_COORD97":2548085.9511899999,"ADDRESS":"本田路二段２３７號","OBJECTID":651315},"geometry":{"x":162220.2366159996,"y":2548085.9511910025}},{"attributes":{"ID":651343,"DIS_CODE":0,"TOWNNAME":"楠西區","LI":"龜丹里","LIN":"8鄰","STREET":" ","SECT":" ","MAREA":"龜丹","LANE":" ","ALLEY":" ","HOUSE_NO":"１０２號之１","E_COORD97":198337.519512,"N_COORD97":2560282.49425,"ADDRESS":"龜丹１０２號之１","OBJECTID":651316},"geometry":{"x":198337.51951200049,"y":2560282.4942510035}},{"attributes":{"ID":651344,"DIS_CODE":0,"TOWNNAME":"楠西區","LI":"龜丹里","LIN":"8鄰","STREET":" ","SECT":" ","MAREA":"龜丹","LANE":" ","ALLEY":" ","HOUSE_NO":"１０２號之２","E_COORD97":198348.32499699999,"N_COORD97":2560260.9042600002,"ADDRESS":"龜丹１０２號之２","OBJECTID":651317},"geometry":{"x":198348.32499700133,"y":2560260.9042630009}},{"attributes":{"ID":651345,"DIS_CODE":0,"TOWNNAME":"楠西區","LI":"龜丹里","LIN":"8鄰","STREET":" ","SECT":" ","MAREA":"龜丹","LANE":" ","ALLEY":" ","HOUSE_NO":"１０２號之３１","E_COORD97":198410.615441,"N_COORD97":2560274.87426,"ADDRESS":"龜丹１０２號之３１","OBJECTID":651318},"geometry":{"x":198410.61544100009,"y":2560274.8742549997}},{"attributes":{"ID":651346,"DIS_CODE":0,"TOWNNAME":"楠西區","LI":"龜丹里","LIN":"8鄰","STREET":" ","SECT":" ","MAREA":"龜丹","LANE":" ","ALLEY":" ","HOUSE_NO":"１０２號之３６","E_COORD97":198439.218196,"N_COORD97":2560260.6926000002,"ADDRESS":"龜丹１０２號之３６","OBJECTID":651319},"geometry":{"x":198439.21819599997,"y":2560260.6925959997}},{"attributes":{"ID":651347,"DIS_CODE":0,"TOWNNAME":"佳里區","LI":"溪州里","LIN":"9鄰","STREET":" ","SECT":" ","MAREA":"溪州","LANE":" ","ALLEY":" ","HOUSE_NO":"８０號","E_COORD97":166483.51223299999,"N_COORD97":2567502.8594800001,"ADDRESS":"溪州８０號","OBJECTID":651320},"geometry":{"x":166483.51223300118,"y":2567502.859477004}},{"attributes":{"ID":651348,"DIS_CODE":0,"TOWNNAME":"楠西區","LI":"龜丹里","LIN":"8鄰","STREET":" ","SECT":" ","MAREA":"龜丹","LANE":" ","ALLEY":" ","HOUSE_NO":"１０６號","E_COORD97":198247.26193000001,"N_COORD97":2560382.2950300002,"ADDRESS":"龜丹１０６號","OBJECTID":651321},"geometry":{"x":198247.26193000004,"y":2560382.2950309999}},{"attributes":{"ID":651349,"DIS_CODE":0,"TOWNNAME":"楠西區","LI":"龜丹里","LIN":"8鄰","STREET":" ","SECT":" ","MAREA":"龜丹","LANE":" ","ALLEY":" ","HOUSE_NO":"１０６號之１","E_COORD97":198280.10213000001,"N_COORD97":2560396.68836,"ADDRESS":"龜丹１０６號之１","OBJECTID":651322},"geometry":{"x":198280.10213000048,"y":2560396.6883560009}},{"attributes":{"ID":651350,"DIS_CODE":0,"TOWNNAME":"楠西區","LI":"龜丹里","LIN":"9鄰","STREET":" ","SECT":" ","MAREA":"龜丹","LANE":" ","ALLEY":" ","HOUSE_NO":"１１２號","E_COORD97":198207.85368999999,"N_COORD97":2560416.9025099999,"ADDRESS":"龜丹１１２號","OBJECTID":651323},"geometry":{"x":198207.85369000118,"y":2560416.9025120009}},{"attributes":{"ID":651351,"DIS_CODE":0,"TOWNNAME":"楠西區","LI":"龜丹里","LIN":"9鄰","STREET":" ","SECT":" ","MAREA":"龜丹","LANE":" ","ALLEY":" ","HOUSE_NO":"１１６號","E_COORD97":198197.048205,"N_COORD97":2560441.87916,"ADDRESS":"龜丹１１６號","OBJECTID":651324},"geometry":{"x":198197.04820500035,"y":2560441.8791650031}},{"attributes":{"ID":651352,"DIS_CODE":0,"TOWNNAME":"楠西區","LI":"龜丹里","LIN":"9鄰","STREET":" ","SECT":" ","MAREA":"龜丹","LANE":" ","ALLEY":" ","HOUSE_NO":"１１５號之５","E_COORD97":198065.687404,"N_COORD97":2560635.2365600001,"ADDRESS":"龜丹１１５號之５","OBJECTID":651325},"geometry":{"x":198065.6874040002,"y":2560635.2365610022}},{"attributes":{"ID":651353,"DIS_CODE":0,"TOWNNAME":"楠西區","LI":"龜丹里","LIN":"9鄰","STREET":" ","SECT":" ","MAREA":"龜丹","LANE":" ","ALLEY":" ","HOUSE_NO":"１１８號之１","E_COORD97":198200.22628900001,"N_COORD97":2560457.3308199998,"ADDRESS":"龜丹１１８號之１","OBJECTID":651326},"geometry":{"x":198200.22628900222,"y":2560457.3308230024}},{"attributes":{"ID":651354,"DIS_CODE":0,"TOWNNAME":"楠西區","LI":"龜丹里","LIN":"9鄰","STREET":" ","SECT":" ","MAREA":"龜丹","LANE":" ","ALLEY":" ","HOUSE_NO":"１２２號","E_COORD97":198090.476459,"N_COORD97":2560455.3199900002,"ADDRESS":"龜丹１２２號","OBJECTID":651327},"geometry":{"x":198090.47645900212,"y":2560455.3199910019}},{"attributes":{"ID":651355,"DIS_CODE":0,"TOWNNAME":"楠西區","LI":"龜丹里","LIN":"9鄰","STREET":" ","SECT":" ","MAREA":"龜丹","LANE":" ","ALLEY":" ","HOUSE_NO":"１２１號","E_COORD97":198086.45088600001,"N_COORD97":2560461.0349900001,"ADDRESS":"龜丹１２１號","OBJECTID":651328},"geometry":{"x":198086.45088599902,"y":2560461.034988001}},{"attributes":{"ID":651356,"DIS_CODE":0,"TOWNNAME":"楠西區","LI":"龜丹里","LIN":"9鄰","STREET":" ","SECT":" ","MAREA":"龜丹","LANE":" ","ALLEY":" ","HOUSE_NO":"１２０號","E_COORD97":198081.57782400001,"N_COORD97":2560468.8666500002,"ADDRESS":"龜丹１２０號","OBJECTID":651329},"geometry":{"x":198081.5778240012,"y":2560468.8666510005}},{"attributes":{"ID":651357,"DIS_CODE":0,"TOWNNAME":"後壁區","LI":"新東里","LIN":"13鄰","STREET":" ","SECT":" ","MAREA":"新港東","LANE":" ","ALLEY":" ","HOUSE_NO":"１３１號之２","E_COORD97":181449.459447,"N_COORD97":2582034.1331099998,"ADDRESS":"新港東１３１號之２","OBJECTID":651330},"geometry":{"x":181449.45944700111,"y":2582034.1331140026}},{"attributes":{"ID":651358,"DIS_CODE":0,"TOWNNAME":"後壁區","LI":"新東里","LIN":"13鄰","STREET":" ","SECT":" ","MAREA":"新港東","LANE":" ","ALLEY":" ","HOUSE_NO":"１３７號之２","E_COORD97":181405.19129799999,"N_COORD97":2582070.9630900002,"ADDRESS":"新港東１３７號之２","OBJECTID":651331},"geometry":{"x":181405.19129800145,"y":2582070.9630939998}},{"attributes":{"ID":651359,"DIS_CODE":0,"TOWNNAME":"後壁區","LI":"新東里","LIN":"14鄰","STREET":" ","SECT":" ","MAREA":"新港東","LANE":" ","ALLEY":" ","HOUSE_NO":"１３９號之１","E_COORD97":181398.41339999999,"N_COORD97":2581995.6098000002,"ADDRESS":"新港東１３９號之１","OBJECTID":651332},"geometry":{"x":181398.41339999996,"y":2581995.6098010018}},{"attributes":{"ID":651360,"DIS_CODE":0,"TOWNNAME":"麻豆區","LI":"\u25A0江里","LIN":"12鄰","STREET":"建南街","SECT":" ","MAREA":" ","LANE":" ","ALLEY":" ","HOUSE_NO":"２７３號","E_COORD97":173710.912297,"N_COORD97":2564390.6889900002,"ADDRESS":"建南街２７３號","OBJECTID":651333},"geometry":{"x":173710.91229700018,"y":2564390.6889909972}},{"attributes":{"ID":651361,"DIS_CODE":0,"TOWNNAME":"下營區","LI":"仁里里","LIN":"6鄰","STREET":"九分街","SECT":" ","MAREA":" ","LANE":"５３巷","ALLEY":" ","HOUSE_NO":"１號","E_COORD97":174156.72721400001,"N_COORD97":2570092.72774,"ADDRESS":"九分街５３巷１號","OBJECTID":651334},"geometry":{"x":174156.72721400019,"y":2570092.7277429998}},{"attributes":{"ID":651362,"DIS_CODE":0,"TOWNNAME":"歸仁區","LI":"大廟里","LIN":"5鄰","STREET":"和順路","SECT":"二段","MAREA":" ","LANE":" ","ALLEY":" ","HOUSE_NO":"３０３號","E_COORD97":175702.36022800001,"N_COORD97":2543571.1664200001,"ADDRESS":"和順路二段３０３號","OBJECTID":651335},"geometry":{"x":175702.36022800021,"y":2543571.1664240006}},{"attributes":{"ID":651363,"DIS_CODE":0,"TOWNNAME":"新營區","LI":"永生里","LIN":"10鄰","STREET":"富源街","SECT":" ","MAREA":" ","LANE":" ","ALLEY":" ","HOUSE_NO":"４６號","E_COORD97":179957.11781299999,"N_COORD97":2577956.8624100001,"ADDRESS":"富源街４６號","OBJECTID":651336},"geometry":{"x":179957.11781300139,"y":2577956.8624060024}},{"attributes":{"ID":651364,"DIS_CODE":0,"TOWNNAME":"楠西區","LI":"鹿田里","LIN":"1鄰","STREET":" ","SECT":" ","MAREA":"鹿陶洋","LANE":" ","ALLEY":" ","HOUSE_NO":"１號之２","E_COORD97":197312.820573,"N_COORD97":2561003.8928999999,"ADDRESS":"鹿陶洋１號之２","OBJECTID":651337},"geometry":{"x":197312.82057300024,"y":2561003.8928950038}},{"attributes":{"ID":651365,"DIS_CODE":0,"TOWNNAME":"後壁區","LI":"新東里","LIN":"14鄰","STREET":" ","SECT":" ","MAREA":"新港東","LANE":" ","ALLEY":" ","HOUSE_NO":"１４７號之７","E_COORD97":181239.02688399999,"N_COORD97":2582087.5789200002,"ADDRESS":"新港東１４７號之７","OBJECTID":651338},"geometry":{"x":181239.02688400075,"y":2582087.5789180025}},{"attributes":{"ID":651366,"DIS_CODE":0,"TOWNNAME":"新營區","LI":"永生里","LIN":"11鄰","STREET":"新進路","SECT":" ","MAREA":" ","LANE":" ","ALLEY":" ","HOUSE_NO":"３１４之１號","E_COORD97":179978.09415300001,"N_COORD97":2577836.52997,"ADDRESS":"新進路３１４之１號","OBJECTID":651339},"geometry":{"x":179978.09415300004,"y":2577836.5299709998}},{"attributes":{"ID":651367,"DIS_CODE":0,"TOWNNAME":"楠西區","LI":"鹿田里","LIN":"1鄰","STREET":" ","SECT":" ","MAREA":"鹿陶洋","LANE":" ","ALLEY":" ","HOUSE_NO":"１號之２７","E_COORD97":197292.057091,"N_COORD97":2560991.1929000001,"ADDRESS":"鹿陶洋１號之２７","OBJECTID":651340},"geometry":{"x":197292.05709100049,"y":2560991.1929020006}},{"attributes":{"ID":651368,"DIS_CODE":0,"TOWNNAME":"新營區","LI":"永生里","LIN":"11鄰","STREET":"康樂街","SECT":" ","MAREA":" ","LANE":" ","ALLEY":" ","HOUSE_NO":"１５號之１","E_COORD97":179972.58521600001,"N_COORD97":2577888.3882800001,"ADDRESS":"康樂街１５號之１","OBJECTID":651341},"geometry":{"x":179972.58521600068,"y":2577888.3882760014}},{"attributes":{"ID":651369,"DIS_CODE":0,"TOWNNAME":"北門區","LI":"保吉里","LIN":"25鄰","STREET":" ","SECT":" ","MAREA":"海埔","LANE":" ","ALLEY":" ","HOUSE_NO":"１之３號","E_COORD97":156872.38954999999,"N_COORD97":2576850.0450900001,"ADDRESS":"海埔１之３號","OBJECTID":651342},"geometry":{"x":156872.38955000136,"y":2576850.0450900011}},{"attributes":{"ID":651370,"DIS_CODE":0,"TOWNNAME":"楠西區","LI":"鹿田里","LIN":"1鄰","STREET":" ","SECT":" ","MAREA":"鹿陶洋","LANE":" ","ALLEY":" ","HOUSE_NO":"１號之２８","E_COORD97":197310.489978,"N_COORD97":2560989.49957,"ADDRESS":"鹿陶洋１號之２８","OBJECTID":651343},"geometry":{"x":197310.48997800052,"y":2560989.4995690025}},{"attributes":{"ID":651371,"DIS_CODE":0,"TOWNNAME":"北門區","LI":"保吉里","LIN":"25鄰","STREET":" ","SECT":" ","MAREA":"海埔","LANE":" ","ALLEY":" ","HOUSE_NO":"１之６號","E_COORD97":156862.68546000001,"N_COORD97":2576823.1701600002,"ADDRESS":"海埔１之６號","OBJECTID":651344},"geometry":{"x":156862.68546000123,"y":2576823.1701600011}},{"attributes":{"ID":651372,"DIS_CODE":0,"TOWNNAME":"新營區","LI":"永生里","LIN":"11鄰","STREET":"新進路","SECT":" ","MAREA":" ","LANE":"３１８巷","ALLEY":" ","HOUSE_NO":"７號","E_COORD97":179970.25451100001,"N_COORD97":2577870.6082899999,"ADDRESS":"新進路３１８巷７號","OBJECTID":651345},"geometry":{"x":179970.25451099966,"y":2577870.6082860008}},{"attributes":{"ID":651373,"DIS_CODE":0,"TOWNNAME":"新營區","LI":"永生里","LIN":"11鄰","STREET":"新進路","SECT":" ","MAREA":" ","LANE":"３１８巷","ALLEY":" ","HOUSE_NO":"９號","E_COORD97":179969.40698199999,"N_COORD97":2577876.1116200001,"ADDRESS":"新進路３１８巷９號","OBJECTID":651346},"geometry":{"x":179969.40698199999,"y":2577876.1116160024}},{"attributes":{"ID":651374,"DIS_CODE":0,"TOWNNAME":"楠西區","LI":"鹿田里","LIN":"1鄰","STREET":" ","SECT":" ","MAREA":"鹿陶洋","LANE":" ","ALLEY":" ","HOUSE_NO":"１號之１８","E_COORD97":197284.595936,"N_COORD97":2561033.72976,"ADDRESS":"鹿陶洋１號之１８","OBJECTID":651347},"geometry":{"x":197284.59593600035,"y":2561033.729758}},{"attributes":{"ID":651375,"DIS_CODE":0,"TOWNNAME":"新營區","LI":"永生里","LIN":"11鄰","STREET":"新進路","SECT":" ","MAREA":" ","LANE":" ","ALLEY":" ","HOUSE_NO":"３０８之１號","E_COORD97":180005.003195,"N_COORD97":2577846.26663,"ADDRESS":"新進路３０８之１號","OBJECTID":651348},"geometry":{"x":180005.00319499988,"y":2577846.266632}},{"attributes":{"ID":651376,"DIS_CODE":0,"TOWNNAME":"楠西區","LI":"鹿田里","LIN":"1鄰","STREET":" ","SECT":" ","MAREA":"鹿陶洋","LANE":" ","ALLEY":" ","HOUSE_NO":"１號之１０","E_COORD97":197100.902688,"N_COORD97":2560169.3893900001,"ADDRESS":"鹿陶洋１號之１０","OBJECTID":651349},"geometry":{"x":197100.90268800035,"y":2560169.3893909995}},{"attributes":{"ID":651377,"DIS_CODE":0,"TOWNNAME":"善化區","LI":"什乃里","LIN":"10鄰","STREET":" ","SECT":" ","MAREA":"什乃","LANE":" ","ALLEY":" ","HOUSE_NO":"１１１號","E_COORD97":176169.749993,"N_COORD97":2560174.93823,"ADDRESS":"什乃１１１號","OBJECTID":651350},"geometry":{"x":176169.74999300111,"y":2560174.9382300023}},{"attributes":{"ID":651378,"DIS_CODE":0,"TOWNNAME":"仁德區","LI":"仁義里","LIN":"1鄰","STREET":"中山路","SECT":" ","MAREA":" ","LANE":" ","ALLEY":" ","HOUSE_NO":"４５號","E_COORD97":175141.68416500001,"N_COORD97":2541062.9500000002,"ADDRESS":"中山路４５號","OBJECTID":651351},"geometry":{"x":175141.68416500185,"y":2541062.9499980006}},{"attributes":{"ID":651379,"DIS_CODE":0,"TOWNNAME":"楠西區","LI":"鹿田里","LIN":"1鄰","STREET":" ","SECT":" ","MAREA":"鹿陶洋","LANE":" ","ALLEY":" ","HOUSE_NO":"１號之１３","E_COORD97":197135.248807,"N_COORD97":2560312.9221000001,"ADDRESS":"鹿陶洋１號之１３","OBJECTID":651352},"geometry":{"x":197135.248807,"y":2560312.9221040048}},{"attributes":{"ID":651380,"DIS_CODE":0,"TOWNNAME":"楠西區","LI":"鹿田里","LIN":"1鄰","STREET":" ","SECT":" ","MAREA":"鹿陶洋","LANE":" ","ALLEY":" ","HOUSE_NO":"１號之１１","E_COORD97":197322.755756,"N_COORD97":2561015.54923,"ADDRESS":"鹿陶洋１號之１１","OBJECTID":651353},"geometry":{"x":197322.75575600006,"y":2561015.5492250025}},{"attributes":{"ID":651381,"DIS_CODE":0,"TOWNNAME":"楠西區","LI":"鹿田里","LIN":"1鄰","STREET":" ","SECT":" ","MAREA":"鹿陶洋","LANE":" ","ALLEY":" ","HOUSE_NO":"１號之２６","E_COORD97":197323.39137299999,"N_COORD97":2560997.2400699998,"ADDRESS":"鹿陶洋１號之２６","OBJECTID":651354},"geometry":{"x":197323.39137300104,"y":2560997.2400680017}},{"attributes":{"ID":651382,"DIS_CODE":0,"TOWNNAME":"仁德區","LI":"仁義里","LIN":"1鄰","STREET":"中山路","SECT":" ","MAREA":" ","LANE":" ","ALLEY":" ","HOUSE_NO":"８３號","E_COORD97":175015.68354299999,"N_COORD97":2541094.2766499999,"ADDRESS":"中山路８３號","OBJECTID":651355},"geometry":{"x":175015.68354300037,"y":2541094.2766470015}},{"attributes":{"ID":651383,"DIS_CODE":0,"TOWNNAME":"新營區","LI":"永生里","LIN":"12鄰","STREET":"中山路","SECT":" ","MAREA":" ","LANE":" ","ALLEY":" ","HOUSE_NO":"２０９號","E_COORD97":179910.71560699999,"N_COORD97":2577996.8673800002,"ADDRESS":"中山路２０９號","OBJECTID":651356},"geometry":{"x":179910.71560699958,"y":2577996.8673840016}},{"attributes":{"ID":651384,"DIS_CODE":0,"TOWNNAME":"安南區","LI":"安富里","LIN":"28鄰","STREET":"府安路","SECT":"五段","MAREA":" ","LANE":"２３０巷","ALLEY":" ","HOUSE_NO":"２７號","E_COORD97":167463.351394,"N_COORD97":2546963.0099999998,"ADDRESS":"府安路五段２３０巷２７號","OBJECTID":651357},"geometry":{"x":167463.3513939986,"y":2546963.0099999998}},{"attributes":{"ID":651385,"DIS_CODE":0,"TOWNNAME":"安南區","LI":"安富里","LIN":"28鄰","STREET":"府安路","SECT":"五段","MAREA":" ","LANE":"２３０巷","ALLEY":" ","HOUSE_NO":"２９號","E_COORD97":167460.91130000001,"N_COORD97":2546969.97951,"ADDRESS":"府安路五段２３０巷２９號","OBJECTID":651358},"geometry":{"x":167460.91130000073,"y":2546969.9795090016}},{"attributes":{"ID":651386,"DIS_CODE":0,"TOWNNAME":"白河區","LI":"草店里","LIN":"3鄰","STREET":" ","SECT":" ","MAREA":"草店","LANE":" ","ALLEY":" ","HOUSE_NO":"２２之６號","E_COORD97":192130.11938700001,"N_COORD97":2588069.3541999999,"ADDRESS":"草店２２之６號","OBJECTID":651359},"geometry":{"x":192130.11938699987,"y":2588069.3541950025}},{"attributes":{"ID":651387,"DIS_CODE":0,"TOWNNAME":"北門區","LI":"保吉里","LIN":"1鄰","STREET":" ","SECT":" ","MAREA":"蚵寮","LANE":" ","ALLEY":" ","HOUSE_NO":"１之１００號","E_COORD97":160872.09776999999,"N_COORD97":2574829.24615,"ADDRESS":"蚵寮１之１００號","OBJECTID":651360},"geometry":{"x":160872.09776999988,"y":2574829.2461499982}},{"attributes":{"ID":651388,"DIS_CODE":0,"TOWNNAME":"安南區","LI":"安富里","LIN":"31鄰","STREET":"海佃路","SECT":"一段","MAREA":" ","LANE":"１５８巷","ALLEY":"１０２弄","HOUSE_NO":"１１號","E_COORD97":167467.627114,"N_COORD97":2547209.8831500001,"ADDRESS":"海佃路一段１５８巷１０２弄１１號","OBJECTID":651361},"geometry":{"x":167467.6271139998,"y":2547209.8831510022}},{"attributes":{"ID":651389,"DIS_CODE":0,"TOWNNAME":"關廟區","LI":"新埔里","LIN":"3鄰","STREET":"新埔三街","SECT":" ","MAREA":" ","LANE":"２７巷","ALLEY":" ","HOUSE_NO":"４７號","E_COORD97":181150.29898600001,"N_COORD97":2540816.9580299999,"ADDRESS":"新埔三街２７巷４７號","OBJECTID":651362},"geometry":{"x":181150.29898600094,"y":2540816.9580320027}},{"attributes":{"ID":651390,"DIS_CODE":0,"TOWNNAME":"安南區","LI":"安富里","LIN":"28鄰","STREET":"府安路","SECT":"五段","MAREA":" ","LANE":"２３０巷","ALLEY":" ","HOUSE_NO":"１１號","E_COORD97":167464.69667400001,"N_COORD97":2546937.03051,"ADDRESS":"府安路五段２３０巷１１號","OBJECTID":651363},"geometry":{"x":167464.69667400047,"y":2546937.0305119995}},{"attributes":{"ID":651391,"DIS_CODE":0,"TOWNNAME":"安南區","LI":"安富里","LIN":"28鄰","STREET":"府安路","SECT":"五段","MAREA":" ","LANE":"２３０巷","ALLEY":" ","HOUSE_NO":"１３號","E_COORD97":167463.30233400001,"N_COORD97":2546942.08341,"ADDRESS":"府安路五段２３０巷１３號","OBJECTID":651364},"geometry":{"x":167463.30233400036,"y":2546942.0834060013}},{"attributes":{"ID":651392,"DIS_CODE":0,"TOWNNAME":"安南區","LI":"安富里","LIN":"28鄰","STREET":"府安路","SECT":"五段","MAREA":" ","LANE":"２３０巷","ALLEY":" ","HOUSE_NO":"１５號","E_COORD97":167462.25657900001,"N_COORD97":2546946.9620599998,"ADDRESS":"府安路五段２３０巷１５號","OBJECTID":651365},"geometry":{"x":167462.25657900143,"y":2546946.9620620012}},{"attributes":{"ID":651393,"DIS_CODE":0,"TOWNNAME":"安南區","LI":"安富里","LIN":"28鄰","STREET":"府安路","SECT":"五段","MAREA":" ","LANE":"２３０巷","ALLEY":" ","HOUSE_NO":"１７號","E_COORD97":167459.81648499999,"N_COORD97":2546951.14377,"ADDRESS":"府安路五段２３０巷１７號","OBJECTID":651366},"geometry":{"x":167459.81648500077,"y":2546951.1437669992}},{"attributes":{"ID":651394,"DIS_CODE":0,"TOWNNAME":"安南區","LI":"安富里","LIN":"28鄰","STREET":"府安路","SECT":"五段","MAREA":" ","LANE":"２３０巷","ALLEY":" ","HOUSE_NO":"１９號","E_COORD97":167459.11931499999,"N_COORD97":2546956.7193700001,"ADDRESS":"府安路五段２３０巷１９號","OBJECTID":651367},"geometry":{"x":167459.11931499932,"y":2546956.7193730008}},{"attributes":{"ID":651395,"DIS_CODE":0,"TOWNNAME":"後壁區","LI":"新東里","LIN":"2鄰","STREET":" ","SECT":" ","MAREA":"新港東","LANE":" ","ALLEY":" ","HOUSE_NO":"２３號之２","E_COORD97":181251.68249100001,"N_COORD97":2581778.5986700002,"ADDRESS":"新港東２３號之２","OBJECTID":651368},"geometry":{"x":181251.68249099981,"y":2581778.5986680016}},{"attributes":{"ID":651396,"DIS_CODE":0,"TOWNNAME":"安南區","LI":"安富里","LIN":"28鄰","STREET":"府安路","SECT":"五段","MAREA":" ","LANE":"２３０巷","ALLEY":" ","HOUSE_NO":"２９號","E_COORD97":167464.6531,"N_COORD97":2546931.6291399999,"ADDRESS":"府安路五段２３０巷２９號","OBJECTID":651369},"geometry":{"x":167464.65309999976,"y":2546931.6291430015}},{"attributes":{"ID":651397,"DIS_CODE":0,"TOWNNAME":"安南區","LI":"安富里","LIN":"28鄰","STREET":"府安路","SECT":"五段","MAREA":" ","LANE":"２３０巷","ALLEY":" ","HOUSE_NO":"９號","E_COORD97":167464.6531,"N_COORD97":2546931.6291399999,"ADDRESS":"府安路五段２３０巷９號","OBJECTID":651370},"geometry":{"x":167464.65309999976,"y":2546931.6291430015}},{"attributes":{"ID":651398,"DIS_CODE":0,"TOWNNAME":"安南區","LI":"安富里","LIN":"28鄰","STREET":"府安路","SECT":"五段","MAREA":" ","LANE":"２３０巷","ALLEY":" ","HOUSE_NO":"１９號","E_COORD97":167464.6531,"N_COORD97":2546931.6291399999,"ADDRESS":"府安路五段２３０巷１９號","OBJECTID":651371},"geometry":{"x":167464.65309999976,"y":2546931.6291430015}},{"attributes":{"ID":651399,"DIS_CODE":0,"TOWNNAME":"安南區","LI":"安富里","LIN":"30鄰","STREET":"府安路","SECT":"五段","MAREA":" ","LANE":"２０５巷","ALLEY":" ","HOUSE_NO":"５３號","E_COORD97":167578.508672,"N_COORD97":2547025.6245800001,"ADDRESS":"府安路五段２０５巷５３號","OBJECTID":651372},"geometry":{"x":167578.50867199991,"y":2547025.6245799996}},{"attributes":{"ID":651400,"DIS_CODE":0,"TOWNNAME":"楠西區","LI":"鹿田里","LIN":"1鄰","STREET":" ","SECT":" ","MAREA":"鹿陶洋","LANE":" ","ALLEY":" ","HOUSE_NO":"１號之４","E_COORD97":197151.35109899999,"N_COORD97":2560358.0070799999,"ADDRESS":"鹿陶洋１號之４","OBJECTID":651373},"geometry":{"x":197151.35109900031,"y":2560358.0070799999}},{"attributes":{"ID":651401,"DIS_CODE":0,"TOWNNAME":"新營區","LI":"永生里","LIN":"13鄰","STREET":"永安街","SECT":" ","MAREA":" ","LANE":" ","ALLEY":" ","HOUSE_NO":"３號","E_COORD97":179877.450098,"N_COORD97":2577955.06324,"ADDRESS":"永安街３號","OBJECTID":651374},"geometry":{"x":179877.45009800233,"y":2577955.0632399991}},{"attributes":{"ID":651402,"DIS_CODE":0,"TOWNNAME":"安南區","LI":"安富里","LIN":"30鄰","STREET":"府安路","SECT":"五段","MAREA":" ","LANE":"２０５巷","ALLEY":" ","HOUSE_NO":"５６號","E_COORD97":167629.41310400001,"N_COORD97":2547030.5538300001,"ADDRESS":"府安路五段２０５巷５６號","OBJECTID":651375},"geometry":{"x":167629.4131040005,"y":2547030.5538299996}},{"attributes":{"ID":651403,"DIS_CODE":0,"TOWNNAME":"新營區","LI":"永生里","LIN":"13鄰","STREET":"永安街","SECT":" ","MAREA":" ","LANE":" ","ALLEY":" ","HOUSE_NO":"３號之１","E_COORD97":179880.20456700001,"N_COORD97":2577951.04158,"ADDRESS":"永安街３號之１","OBJECTID":651376},"geometry":{"x":179880.20456700027,"y":2577951.0415749997}},{"attributes":{"ID":651404,"DIS_CODE":0,"TOWNNAME":"下營區","LI":"仁里里","LIN":"6鄰","STREET":"九分街","SECT":" ","MAREA":" ","LANE":" ","ALLEY":" ","HOUSE_NO":"５７號","E_COORD97":174142.61870699999,"N_COORD97":2570090.18774,"ADDRESS":"九分街５７號","OBJECTID":651377},"geometry":{"x":174142.61870700028,"y":2570090.1877440009}},{"attributes":{"ID":651405,"DIS_CODE":0,"TOWNNAME":"新營區","LI":"永生里","LIN":"13鄰","STREET":"永安街","SECT":" ","MAREA":" ","LANE":" ","ALLEY":" ","HOUSE_NO":"３號之２","E_COORD97":179881.47586100001,"N_COORD97":2577947.4432399999,"ADDRESS":"永安街３號之２","OBJECTID":651378},"geometry":{"x":179881.4758609999,"y":2577947.4432440009}},{"attributes":{"ID":651406,"DIS_CODE":0,"TOWNNAME":"新營區","LI":"永生里","LIN":"13鄰","STREET":"永安街","SECT":" ","MAREA":" ","LANE":" ","ALLEY":" ","HOUSE_NO":"７號","E_COORD97":179882.11150699999,"N_COORD97":2577940.8815799998,"ADDRESS":"永安街７號","OBJECTID":651379},"geometry":{"x":179882.1115070004,"y":2577940.881581001}},{"attributes":{"ID":651407,"DIS_CODE":0,"TOWNNAME":"安南區","LI":"安富里","LIN":"32鄰","STREET":"府安路","SECT":"五段","MAREA":" ","LANE":" ","ALLEY":" ","HOUSE_NO":"１８２號之５","E_COORD97":167670.91278099999,"N_COORD97":2546981.2355200001,"ADDRESS":"府安路五段１８２號之５","OBJECTID":651380},"geometry":{"x":167670.91278100014,"y":2546981.2355230004}},{"attributes":{"ID":651408,"DIS_CODE":0,"TOWNNAME":"安南區","LI":"安富里","LIN":"32鄰","STREET":"府安路","SECT":"五段","MAREA":" ","LANE":" ","ALLEY":" ","HOUSE_NO":"１８２之９號","E_COORD97":167667.52505200001,"N_COORD97":2546979.3305199998,"ADDRESS":"府安路五段１８２之９號","OBJECTID":651381},"geometry":{"x":167667.52505199984,"y":2546979.3305240013}},{"attributes":{"ID":651409,"DIS_CODE":0,"TOWNNAME":"安南區","LI":"安富里","LIN":"32鄰","STREET":"府安路","SECT":"五段","MAREA":" ","LANE":" ","ALLEY":" ","HOUSE_NO":"１８２號之１０","E_COORD97":167664.77252299999,"N_COORD97":2546978.0605299999,"ADDRESS":"府安路五段１８２號之１０","OBJECTID":651382},"geometry":{"x":167664.77252300084,"y":2546978.0605250001}},{"attributes":{"ID":651410,"DIS_CODE":0,"TOWNNAME":"新營區","LI":"延平里","LIN":"3鄰","STREET":"長春街","SECT":" ","MAREA":" ","LANE":" ","ALLEY":" ","HOUSE_NO":"５號","E_COORD97":179777.236894,"N_COORD97":2577921.2394099999,"ADDRESS":"長春街５號","OBJECTID":651383},"geometry":{"x":179777.23689400125,"y":2577921.2394070011}},{"attributes":{"ID":651411,"DIS_CODE":0,"TOWNNAME":"楠西區","LI":"鹿田里","LIN":"1鄰","STREET":" ","SECT":" ","MAREA":"鹿陶洋","LANE":" ","ALLEY":" ","HOUSE_NO":"３號之１","E_COORD97":197431.234352,"N_COORD97":2561077.56752,"ADDRESS":"鹿陶洋３號之１","OBJECTID":651384},"geometry":{"x":197431.23435200099,"y":2561077.5675249994}},{"attributes":{"ID":651412,"DIS_CODE":0,"TOWNNAME":"新營區","LI":"延平里","LIN":"3鄰","STREET":"長春街","SECT":" ","MAREA":" ","LANE":" ","ALLEY":" ","HOUSE_NO":"７號","E_COORD97":179773.21035000001,"N_COORD97":2577918.6994099999,"ADDRESS":"長春街７號","OBJECTID":651385},"geometry":{"x":179773.2103500003,"y":2577918.6994090024}},{"attributes":{"ID":651413,"DIS_CODE":0,"TOWNNAME":"新營區","LI":"延平里","LIN":"3鄰","STREET":"長春街","SECT":" ","MAREA":" ","LANE":" ","ALLEY":" ","HOUSE_NO":"１１號","E_COORD97":179774.90573699999,"N_COORD97":2577898.5910899998,"ADDRESS":"長春街１１號","OBJECTID":651386},"geometry":{"x":179774.90573700052,"y":2577898.5910860021}},{"attributes":{"ID":651414,"DIS_CODE":0,"TOWNNAME":"新營區","LI":"永生里","LIN":"14鄰","STREET":"永安街","SECT":" ","MAREA":" ","LANE":" ","ALLEY":" ","HOUSE_NO":"２３號","E_COORD97":179895.03632000001,"N_COORD97":2577915.2699199999,"ADDRESS":"永安街２３號","OBJECTID":651387},"geometry":{"x":179895.03631999996,"y":2577915.2699200008}},{"attributes":{"ID":651415,"DIS_CODE":0,"TOWNNAME":"下營區","LI":"仁里里","LIN":"6鄰","STREET":"九分街","SECT":" ","MAREA":" ","LANE":"５９巷","ALLEY":" ","HOUSE_NO":"１７號","E_COORD97":174164.44205799999,"N_COORD97":2570042.7744399998,"ADDRESS":"九分街５９巷１７號","OBJECTID":651388},"geometry":{"x":174164.44205799978,"y":2570042.7744360007}},{"attributes":{"ID":651416,"DIS_CODE":0,"TOWNNAME":"楠西區","LI":"鹿田里","LIN":"1鄰","STREET":" ","SECT":" ","MAREA":"鹿陶洋","LANE":" ","ALLEY":" ","HOUSE_NO":"３號之１５","E_COORD97":197322.12013900001,"N_COORD97":2560990.0434099999,"ADDRESS":"鹿陶洋３號之１５","OBJECTID":651389},"geometry":{"x":197322.12013899907,"y":2560990.043405002}},{"attributes":{"ID":651417,"DIS_CODE":0,"TOWNNAME":"麻豆區","LI":"安業里","LIN":"6鄰","STREET":" ","SECT":" ","MAREA":"安業","LANE":" ","ALLEY":" ","HOUSE_NO":"１２１號之１","E_COORD97":172740.59056499999,"N_COORD97":2562181.5762499999,"ADDRESS":"安業１２１號之１","OBJECTID":651390},"geometry":{"x":172740.59056500066,"y":2562181.5762530025}},{"attributes":{"ID":651418,"DIS_CODE":0,"TOWNNAME":"楠西區","LI":"鹿田里","LIN":"1鄰","STREET":" ","SECT":" ","MAREA":"鹿陶洋","LANE":" ","ALLEY":" ","HOUSE_NO":"３號之１６","E_COORD97":197322.33201099999,"N_COORD97":2560978.6134100002,"ADDRESS":"鹿陶洋３號之１６","OBJECTID":651391},"geometry":{"x":197322.33201100118,"y":2560978.613411}},{"attributes":{"ID":651419,"DIS_CODE":0,"TOWNNAME":"安南區","LI":"淵中里","LIN":"6鄰","STREET":"安中路","SECT":"四段","MAREA":" ","LANE":" ","ALLEY":" ","HOUSE_NO":"１２５之１０號","E_COORD97":165033.19090799999,"N_COORD97":2549963.19569,"ADDRESS":"安中路四段１２５之１０號","OBJECTID":651392},"geometry":{"x":165033.1909080008,"y":2549963.1956859995}},{"attributes":{"ID":651420,"DIS_CODE":0,"TOWNNAME":"安南區","LI":"淵中里","LIN":"6鄰","STREET":"安中路","SECT":"四段","MAREA":" ","LANE":" ","ALLEY":" ","HOUSE_NO":"１５０號","E_COORD97":164963.50692099999,"N_COORD97":2550028.1773199998,"ADDRESS":"安中路四段１５０號","OBJECTID":651393},"geometry":{"x":164963.50692100078,"y":2550028.1773170028}},{"attributes":{"ID":651421,"DIS_CODE":0,"TOWNNAME":"新營區","LI":"延平里","LIN":"3鄰","STREET":"長春街","SECT":" ","MAREA":" ","LANE":" ","ALLEY":" ","HOUSE_NO":"２３號","E_COORD97":179746.51033399999,"N_COORD97":2577903.59497,"ADDRESS":"長春街２３號","OBJECTID":651394},"geometry":{"x":179746.51033400092,"y":2577903.5949719995}},{"attributes":{"ID":651422,"DIS_CODE":0,"TOWNNAME":"楠西區","LI":"鹿田里","LIN":"1鄰","STREET":" ","SECT":" ","MAREA":"鹿陶洋","LANE":" ","ALLEY":" ","HOUSE_NO":"２號之６","E_COORD97":197445.47542,"N_COORD97":2561053.0223300001,"ADDRESS":"鹿陶洋２號之６","OBJECTID":651395},"geometry":{"x":197445.47542000003,"y":2561053.0223260038}},{"attributes":{"ID":651423,"DIS_CODE":0,"TOWNNAME":"新營區","LI":"延平里","LIN":"3鄰","STREET":"長春街","SECT":" ","MAREA":" ","LANE":" ","ALLEY":" ","HOUSE_NO":"２７號","E_COORD97":179739.726463,"N_COORD97":2577899.22609,"ADDRESS":"長春街２７號","OBJECTID":651396},"geometry":{"x":179739.72646300215,"y":2577899.2260860018}},{"attributes":{"ID":651424,"DIS_CODE":0,"TOWNNAME":"新營區","LI":"延平里","LIN":"3鄰","STREET":"長春街","SECT":" ","MAREA":" ","LANE":" ","ALLEY":" ","HOUSE_NO":"２９號","E_COORD97":179735.91184300001,"N_COORD97":2577897.1094200001,"ADDRESS":"長春街２９號","OBJECTID":651397},"geometry":{"x":179735.91184299998,"y":2577897.1094200015}},{"attributes":{"ID":651425,"DIS_CODE":0,"TOWNNAME":"新營區","LI":"延平里","LIN":"3鄰","STREET":"長春街","SECT":" ","MAREA":" ","LANE":" ","ALLEY":" ","HOUSE_NO":"３３號","E_COORD97":179759.435333,"N_COORD97":2577880.2819300001,"ADDRESS":"長春街３３號","OBJECTID":651398},"geometry":{"x":179759.4353330005,"y":2577880.2819300015}},{"attributes":{"ID":651426,"DIS_CODE":0,"TOWNNAME":"北門區","LI":"保吉里","LIN":"14鄰","STREET":" ","SECT":" ","MAREA":"蚵寮","LANE":" ","ALLEY":" ","HOUSE_NO":"３６４之１３０號","E_COORD97":158985.19148199999,"N_COORD97":2576117.0317899999,"ADDRESS":"蚵寮３６４之１３０號","OBJECTID":651399},"geometry":{"x":158985.19148200005,"y":2576117.0317910016}},{"attributes":{"ID":651427,"DIS_CODE":0,"TOWNNAME":"新營區","LI":"永生里","LIN":"15鄰","STREET":"永安街","SECT":" ","MAREA":" ","LANE":" ","ALLEY":" ","HOUSE_NO":"３５號","E_COORD97":179904.782905,"N_COORD97":2577889.5524400002,"ADDRESS":"永安街３５號","OBJECTID":651400},"geometry":{"x":179904.78290500026,"y":2577889.5524420012}}]}