{"displayFieldName":"TOWNNAME","fieldAliases":{"ID":"ID","DIS_CODE":"DIS_CODE","TOWNNAME":"TOWNNAME","LI":"LI","LIN":"LIN","STREET":"STREET","SECT":"SECT","MAREA":"MAREA","LANE":"LANE","ALLEY":"ALLEY","HOUSE_NO":"HOUSE_NO","E_COORD97":"E_COORD97","N_COORD97":"N_COORD97","ADDRESS":"ADDRESS","OBJECTID":"OBJECTID"},"geometryType":"esriGeometryPoint","spatialReference":{"wkid":102443,"latestWkid":3826},"fields":[{"name":"ID","type":"esriFieldTypeDouble","alias":"ID"},{"name":"DIS_CODE","type":"esriFieldTypeInteger","alias":"DIS_CODE"},{"name":"TOWNNAME","type":"esriFieldTypeString","alias":"TOWNNAME","length":8},{"name":"LI","type":"esriFieldTypeString","alias":"LI","length":8},{"name":"LIN","type":"esriFieldTypeString","alias":"LIN","length":12},{"name":"STREET","type":"esriFieldTypeString","alias":"STREET","length":20},{"name":"SECT","type":"esriFieldTypeString","alias":"SECT","length":8},{"name":"MAREA","type":"esriFieldTypeString","alias":"MAREA","length":12},{"name":"LANE","type":"esriFieldTypeString","alias":"LANE","length":10},{"name":"ALLEY","type":"esriFieldTypeString","alias":"ALLEY","length":10},{"name":"HOUSE_NO","type":"esriFieldTypeString","alias":"HOUSE_NO","length":20},{"name":"E_COORD97","type":"esriFieldTypeDouble","alias":"E_COORD97"},{"name":"N_COORD97","type":"esriFieldTypeDouble","alias":"N_COORD97"},{"name":"ADDRESS","type":"esriFieldTypeString","alias":"ADDRESS","length":50},{"name":"OBJECTID","type":"esriFieldTypeOID","alias":"OBJECTID"}],"features":[{"attributes":{"ID":186602,"DIS_CODE":0,"TOWNNAME":"歸仁區","LI":"南保里","LIN":"59鄰","STREET":"中山路","SECT":"三段","MAREA":" ","LANE":"８１巷","ALLEY":"２３弄","HOUSE_NO":"５６號","E_COORD97":176824.94,"N_COORD97":2540764.0299999998,"ADDRESS":"中山路三段８１巷２３弄５６號","OBJECTID":186601},"geometry":{"x":176824.94000000041,"y":2540764.0299999993}},{"attributes":{"ID":186603,"DIS_CODE":0,"TOWNNAME":"歸仁區","LI":"南保里","LIN":"59鄰","STREET":"中山路","SECT":"三段","MAREA":" ","LANE":"８１巷","ALLEY":"２３弄","HOUSE_NO":"３６號","E_COORD97":176806.44,"N_COORD97":2540766.0299999998,"ADDRESS":"中山路三段８１巷２３弄３６號","OBJECTID":186602},"geometry":{"x":176806.44000000041,"y":2540766.0300000012}},{"attributes":{"ID":186604,"DIS_CODE":0,"TOWNNAME":"歸仁區","LI":"南保里","LIN":"59鄰","STREET":"中山路","SECT":"三段","MAREA":" ","LANE":"８１巷","ALLEY":"２３弄","HOUSE_NO":"５８號","E_COORD97":176823.84,"N_COORD97":2540759.02,"ADDRESS":"中山路三段８１巷２３弄５８號","OBJECTID":186603},"geometry":{"x":176823.83999999985,"y":2540759.0200000014}},{"attributes":{"ID":186605,"DIS_CODE":0,"TOWNNAME":"歸仁區","LI":"南保里","LIN":"59鄰","STREET":"中山路","SECT":"三段","MAREA":" ","LANE":"８１巷","ALLEY":"２３弄","HOUSE_NO":"１００號","E_COORD97":176871.29000000001,"N_COORD97":2540778.0299999998,"ADDRESS":"中山路三段８１巷２３弄１００號","OBJECTID":186604},"geometry":{"x":176871.29000000004,"y":2540778.0299999993}},{"attributes":{"ID":186606,"DIS_CODE":0,"TOWNNAME":"歸仁區","LI":"南保里","LIN":"59鄰","STREET":"中山路","SECT":"三段","MAREA":" ","LANE":"８１巷","ALLEY":"２３弄","HOUSE_NO":"５２號","E_COORD97":176825.94,"N_COORD97":2540771.0299999998,"ADDRESS":"中山路三段８１巷２３弄５２號","OBJECTID":186605},"geometry":{"x":176825.94000000134,"y":2540771.0299999993}},{"attributes":{"ID":186607,"DIS_CODE":0,"TOWNNAME":"歸仁區","LI":"南保里","LIN":"59鄰","STREET":"中山路","SECT":"三段","MAREA":" ","LANE":"８１巷","ALLEY":"２３弄","HOUSE_NO":"１７號","E_COORD97":176861.20999999999,"N_COORD97":2540833.2799999998,"ADDRESS":"中山路三段８１巷２３弄１７號","OBJECTID":186606},"geometry":{"x":176861.21000000089,"y":2540833.2799999993}},{"attributes":{"ID":186608,"DIS_CODE":0,"TOWNNAME":"東區","LI":"和平里","LIN":"20鄰","STREET":"文化路","SECT":" ","MAREA":" ","LANE":" ","ALLEY":" ","HOUSE_NO":"３５號","E_COORD97":171154.31,"N_COORD97":2541980.9100000001,"ADDRESS":"文化路３５號","OBJECTID":186607},"geometry":{"x":171154.31000000052,"y":2541980.910000002}},{"attributes":{"ID":186609,"DIS_CODE":0,"TOWNNAME":"東區","LI":"小東里","LIN":"4鄰","STREET":"光明街","SECT":" ","MAREA":" ","LANE":" ","ALLEY":" ","HOUSE_NO":"３２號","E_COORD97":170872.12,"N_COORD97":2544385.02,"ADDRESS":"光明街３２號","OBJECTID":186608},"geometry":{"x":170872.12000000011,"y":2544385.0199999996}},{"attributes":{"ID":186610,"DIS_CODE":0,"TOWNNAME":"歸仁區","LI":"南保里","LIN":"59鄰","STREET":"中山路","SECT":"三段","MAREA":" ","LANE":"８１巷","ALLEY":"２３弄","HOUSE_NO":"６４號","E_COORD97":176839.34,"N_COORD97":2540780.0299999998,"ADDRESS":"中山路三段８１巷２３弄６４號","OBJECTID":186609},"geometry":{"x":176839.34000000171,"y":2540780.0300000012}},{"attributes":{"ID":186611,"DIS_CODE":0,"TOWNNAME":"歸仁區","LI":"南保里","LIN":"59鄰","STREET":"中山路","SECT":"三段","MAREA":" ","LANE":"８１巷","ALLEY":"２３弄","HOUSE_NO":"８４號","E_COORD97":176857.73999999999,"N_COORD97":2540774.0299999998,"ADDRESS":"中山路三段８１巷２３弄８４號","OBJECTID":186610},"geometry":{"x":176857.74000000115,"y":2540774.0299999993}},{"attributes":{"ID":186612,"DIS_CODE":0,"TOWNNAME":"歸仁區","LI":"南保里","LIN":"59鄰","STREET":"中山路","SECT":"三段","MAREA":" ","LANE":"８１巷","ALLEY":"２３弄","HOUSE_NO":"５０號","E_COORD97":176825.94,"N_COORD97":2540776.0299999998,"ADDRESS":"中山路三段８１巷２３弄５０號","OBJECTID":186611},"geometry":{"x":176825.94000000134,"y":2540776.0300000012}},{"attributes":{"ID":186613,"DIS_CODE":0,"TOWNNAME":"歸仁區","LI":"南保里","LIN":"59鄰","STREET":"中山路","SECT":"三段","MAREA":" ","LANE":"８１巷","ALLEY":"２３弄","HOUSE_NO":"７２號","E_COORD97":176838.23999999999,"N_COORD97":2540763.0299999998,"ADDRESS":"中山路三段８１巷２３弄７２號","OBJECTID":186612},"geometry":{"x":176838.24000000022,"y":2540763.0300000012}},{"attributes":{"ID":186614,"DIS_CODE":0,"TOWNNAME":"歸仁區","LI":"南保里","LIN":"59鄰","STREET":"中山路","SECT":"三段","MAREA":" ","LANE":"８１巷","ALLEY":"２３弄","HOUSE_NO":"３０號","E_COORD97":176794.69,"N_COORD97":2540777.0099999998,"ADDRESS":"中山路三段８１巷２３弄３０號","OBJECTID":186613},"geometry":{"x":176794.69000000041,"y":2540777.0100000016}},{"attributes":{"ID":186615,"DIS_CODE":0,"TOWNNAME":"歸仁區","LI":"南保里","LIN":"59鄰","STREET":"中山路","SECT":"三段","MAREA":" ","LANE":"８１巷","ALLEY":"２３弄","HOUSE_NO":"１０６號","E_COORD97":176870.29000000001,"N_COORD97":2540765.0299999998,"ADDRESS":"中山路三段８１巷２３弄１０６號","OBJECTID":186614},"geometry":{"x":176870.28999999911,"y":2540765.0299999975}},{"attributes":{"ID":186616,"DIS_CODE":0,"TOWNNAME":"歸仁區","LI":"南保里","LIN":"59鄰","STREET":"中山路","SECT":"三段","MAREA":" ","LANE":"８１巷","ALLEY":"２３弄","HOUSE_NO":"２６號","E_COORD97":176809.64000000001,"N_COORD97":2540788.0299999998,"ADDRESS":"中山路三段８１巷２３弄２６號","OBJECTID":186615},"geometry":{"x":176809.63999999966,"y":2540788.0299999993}},{"attributes":{"ID":186617,"DIS_CODE":0,"TOWNNAME":"歸仁區","LI":"南保里","LIN":"59鄰","STREET":"中山路","SECT":"三段","MAREA":" ","LANE":"８１巷","ALLEY":"２３弄","HOUSE_NO":"９號","E_COORD97":176834.26000000001,"N_COORD97":2540814.2799999998,"ADDRESS":"中山路三段８１巷２３弄９號","OBJECTID":186616},"geometry":{"x":176834.25999999978,"y":2540814.2800000031}},{"attributes":{"ID":186618,"DIS_CODE":0,"TOWNNAME":"歸仁區","LI":"南保里","LIN":"59鄰","STREET":"中山路","SECT":"三段","MAREA":" ","LANE":"８１巷","ALLEY":"２３弄","HOUSE_NO":"６號","E_COORD97":176795.09,"N_COORD97":2540794.0299999998,"ADDRESS":"中山路三段８１巷２３弄６號","OBJECTID":186617},"geometry":{"x":176795.08999999985,"y":2540794.0299999993}},{"attributes":{"ID":186619,"DIS_CODE":0,"TOWNNAME":"歸仁區","LI":"南保里","LIN":"59鄰","STREET":"中山路","SECT":"三段","MAREA":" ","LANE":"８１巷","ALLEY":"２３弄","HOUSE_NO":"１３號","E_COORD97":176832.51000000001,"N_COORD97":2540832.2799999998,"ADDRESS":"中山路三段８１巷２３弄１３號","OBJECTID":186618},"geometry":{"x":176832.50999999978,"y":2540832.2800000012}},{"attributes":{"ID":186620,"DIS_CODE":0,"TOWNNAME":"歸仁區","LI":"南保里","LIN":"59鄰","STREET":"中山路","SECT":"三段","MAREA":" ","LANE":"８１巷","ALLEY":"２３弄","HOUSE_NO":"６２號","E_COORD97":176839.34,"N_COORD97":2540785.0299999998,"ADDRESS":"中山路三段８１巷２３弄６２號","OBJECTID":186619},"geometry":{"x":176839.34000000171,"y":2540785.0299999993}},{"attributes":{"ID":186621,"DIS_CODE":0,"TOWNNAME":"歸仁區","LI":"南保里","LIN":"59鄰","STREET":"中山路","SECT":"三段","MAREA":" ","LANE":"８１巷","ALLEY":"２３弄","HOUSE_NO":"９０號","E_COORD97":176855.64000000001,"N_COORD97":2540761.0299999998,"ADDRESS":"中山路三段８１巷２３弄９０號","OBJECTID":186620},"geometry":{"x":176855.63999999873,"y":2540761.0299999993}},{"attributes":{"ID":186622,"DIS_CODE":0,"TOWNNAME":"歸仁區","LI":"南保里","LIN":"59鄰","STREET":"中山路","SECT":"三段","MAREA":" ","LANE":"８１巷","ALLEY":"２３弄","HOUSE_NO":"６６號","E_COORD97":176839.34,"N_COORD97":2540776.0299999998,"ADDRESS":"中山路三段８１巷２３弄６６號","OBJECTID":186621},"geometry":{"x":176839.34000000171,"y":2540776.0300000012}},{"attributes":{"ID":186623,"DIS_CODE":0,"TOWNNAME":"歸仁區","LI":"南保里","LIN":"59鄰","STREET":"中山路","SECT":"三段","MAREA":" ","LANE":"８１巷","ALLEY":"２３弄","HOUSE_NO":"４０號","E_COORD97":176828.14000000001,"N_COORD97":2540795.0299999998,"ADDRESS":"中山路三段８１巷２３弄４０號","OBJECTID":186622},"geometry":{"x":176828.13999999966,"y":2540795.0299999993}},{"attributes":{"ID":186624,"DIS_CODE":0,"TOWNNAME":"歸仁區","LI":"南保里","LIN":"59鄰","STREET":"中山路","SECT":"三段","MAREA":" ","LANE":"８１巷","ALLEY":"２３弄","HOUSE_NO":"８６號","E_COORD97":176856.73999999999,"N_COORD97":2540770.0299999998,"ADDRESS":"中山路三段８１巷２３弄８６號","OBJECTID":186623},"geometry":{"x":176856.74000000022,"y":2540770.0300000012}},{"attributes":{"ID":186625,"DIS_CODE":0,"TOWNNAME":"東區","LI":"圍下里","LIN":"10鄰","STREET":"青年路","SECT":" ","MAREA":" ","LANE":" ","ALLEY":" ","HOUSE_NO":"２９５號","E_COORD97":169383.76999999999,"N_COORD97":2543560.1600000001,"ADDRESS":"青年路２９５號","OBJECTID":186624},"geometry":{"x":169383.76999999955,"y":2543560.160000002}},{"attributes":{"ID":186626,"DIS_CODE":0,"TOWNNAME":"東區","LI":"圍下里","LIN":"10鄰","STREET":"青年路","SECT":" ","MAREA":" ","LANE":" ","ALLEY":" ","HOUSE_NO":"３０１號","E_COORD97":169398.48999999999,"N_COORD97":2543559.1699999999,"ADDRESS":"青年路３０１號","OBJECTID":186625},"geometry":{"x":169398.49000000209,"y":2543559.1700000018}},{"attributes":{"ID":186627,"DIS_CODE":0,"TOWNNAME":"東區","LI":"圍下里","LIN":"10鄰","STREET":"青年路","SECT":" ","MAREA":" ","LANE":" ","ALLEY":" ","HOUSE_NO":"３０３號","E_COORD97":169403.16,"N_COORD97":2543558.7400000002,"ADDRESS":"青年路３０３號","OBJECTID":186626},"geometry":{"x":169403.16000000108,"y":2543558.7400000021}},{"attributes":{"ID":186628,"DIS_CODE":0,"TOWNNAME":"東區","LI":"圍下里","LIN":"10鄰","STREET":"青年路","SECT":" ","MAREA":" ","LANE":" ","ALLEY":" ","HOUSE_NO":"３２１號","E_COORD97":169438.60999999999,"N_COORD97":2543552.9199999999,"ADDRESS":"青年路３２１號","OBJECTID":186627},"geometry":{"x":169438.6100000022,"y":2543552.9199999999}},{"attributes":{"ID":186629,"DIS_CODE":0,"TOWNNAME":"大內區","LI":"曲溪里","LIN":"10鄰","STREET":" ","SECT":" ","MAREA":"二重溪","LANE":" ","ALLEY":" ","HOUSE_NO":"９５號","E_COORD97":187416.441919,"N_COORD97":2557712.09485,"ADDRESS":"二重溪９５號","OBJECTID":186628},"geometry":{"x":187416.44191900175,"y":2557712.0948540028}},{"attributes":{"ID":186630,"DIS_CODE":0,"TOWNNAME":"後壁區","LI":"後壁里","LIN":"11鄰","STREET":" ","SECT":" ","MAREA":"後壁","LANE":" ","ALLEY":" ","HOUSE_NO":"１８９號之３","E_COORD97":185109.22,"N_COORD97":2585068.1099999999,"ADDRESS":"後壁１８９號之３","OBJECTID":186629},"geometry":{"x":185109.2200000016,"y":2585068.1100000013}},{"attributes":{"ID":186631,"DIS_CODE":0,"TOWNNAME":"後壁區","LI":"後壁里","LIN":"11鄰","STREET":" ","SECT":" ","MAREA":"後壁","LANE":" ","ALLEY":" ","HOUSE_NO":"１８９號","E_COORD97":185131.39999999999,"N_COORD97":2585020.6200000001,"ADDRESS":"後壁１８９號","OBJECTID":186630},"geometry":{"x":185131.4000000013,"y":2585020.620000001}},{"attributes":{"ID":186632,"DIS_CODE":0,"TOWNNAME":"後壁區","LI":"後壁里","LIN":"11鄰","STREET":" ","SECT":" ","MAREA":"後壁","LANE":" ","ALLEY":" ","HOUSE_NO":"１９０號","E_COORD97":185149.28,"N_COORD97":2585025.9399999999,"ADDRESS":"後壁１９０號","OBJECTID":186631},"geometry":{"x":185149.28000000026,"y":2585025.9399999995}},{"attributes":{"ID":186633,"DIS_CODE":0,"TOWNNAME":"後壁區","LI":"侯伯里","LIN":"11鄰","STREET":" ","SECT":" ","MAREA":"後壁寮","LANE":" ","ALLEY":" ","HOUSE_NO":"８６號","E_COORD97":185336,"N_COORD97":2585418.48,"ADDRESS":"後壁寮８６號","OBJECTID":186632},"geometry":{"x":185336,"y":2585418.4800000023}},{"attributes":{"ID":186634,"DIS_CODE":0,"TOWNNAME":"後壁區","LI":"侯伯里","LIN":"11鄰","STREET":" ","SECT":" ","MAREA":"後壁寮","LANE":" ","ALLEY":" ","HOUSE_NO":"８７號","E_COORD97":185342.92999999999,"N_COORD97":2585382.1400000001,"ADDRESS":"後壁寮８７號","OBJECTID":186633},"geometry":{"x":185342.9299999997,"y":2585382.1400000006}},{"attributes":{"ID":186635,"DIS_CODE":0,"TOWNNAME":"後壁區","LI":"侯伯里","LIN":"11鄰","STREET":" ","SECT":" ","MAREA":"後壁寮","LANE":" ","ALLEY":" ","HOUSE_NO":"８９號之２","E_COORD97":185412.07999999999,"N_COORD97":2585395.2000000002,"ADDRESS":"後壁寮８９號之２","OBJECTID":186634},"geometry":{"x":185412.08000000007,"y":2585395.2000000011}},{"attributes":{"ID":186636,"DIS_CODE":0,"TOWNNAME":"後壁區","LI":"侯伯里","LIN":"11鄰","STREET":" ","SECT":" ","MAREA":"後壁寮","LANE":" ","ALLEY":" ","HOUSE_NO":"８９號","E_COORD97":185386.10000000001,"N_COORD97":2585394.5600000001,"ADDRESS":"後壁寮８９號","OBJECTID":186635},"geometry":{"x":185386.0999999987,"y":2585394.5600000024}},{"attributes":{"ID":186637,"DIS_CODE":0,"TOWNNAME":"後壁區","LI":"侯伯里","LIN":"11鄰","STREET":" ","SECT":" ","MAREA":"後壁寮","LANE":" ","ALLEY":" ","HOUSE_NO":"９０號","E_COORD97":185401.04999999999,"N_COORD97":2585416.6899999999,"ADDRESS":"後壁寮９０號","OBJECTID":186636},"geometry":{"x":185401.05000000075,"y":2585416.6900000013}},{"attributes":{"ID":186638,"DIS_CODE":0,"TOWNNAME":"後壁區","LI":"侯伯里","LIN":"11鄰","STREET":" ","SECT":" ","MAREA":"後壁寮","LANE":" ","ALLEY":" ","HOUSE_NO":"９１號之１","E_COORD97":185428.14999999999,"N_COORD97":2585412.3100000001,"ADDRESS":"後壁寮９１號之１","OBJECTID":186637},"geometry":{"x":185428.1500000013,"y":2585412.3100000042}},{"attributes":{"ID":186639,"DIS_CODE":0,"TOWNNAME":"大內區","LI":"石城里","LIN":"10鄰","STREET":" ","SECT":" ","MAREA":"石子瀨","LANE":" ","ALLEY":" ","HOUSE_NO":"８７號之２","E_COORD97":184144.19,"N_COORD97":2557956.2999999998,"ADDRESS":"石子瀨８７號之２","OBJECTID":186638},"geometry":{"x":184144.19000000134,"y":2557956.3000000007}},{"attributes":{"ID":186640,"DIS_CODE":0,"TOWNNAME":"大內區","LI":"曲溪里","LIN":"10鄰","STREET":" ","SECT":" ","MAREA":"二重溪","LANE":" ","ALLEY":" ","HOUSE_NO":"９６號","E_COORD97":187389.48999999999,"N_COORD97":2557702.3100000001,"ADDRESS":"二重溪９６號","OBJECTID":186639},"geometry":{"x":187389.48999999929,"y":2557702.3100000005}},{"attributes":{"ID":186641,"DIS_CODE":0,"TOWNNAME":"大內區","LI":"石湖里","LIN":"10鄰","STREET":" ","SECT":" ","MAREA":"石子瀨","LANE":" ","ALLEY":" ","HOUSE_NO":"３３３號之２","E_COORD97":183772.44,"N_COORD97":2558249.2999999998,"ADDRESS":"石子瀨３３３號之２","OBJECTID":186640},"geometry":{"x":183772.44000000041,"y":2558249.3000000045}},{"attributes":{"ID":186642,"DIS_CODE":0,"TOWNNAME":"大內區","LI":"曲溪里","LIN":"10鄰","STREET":" ","SECT":" ","MAREA":"二重溪","LANE":" ","ALLEY":" ","HOUSE_NO":"９４號之２","E_COORD97":187419.56,"N_COORD97":2557710.3100000001,"ADDRESS":"二重溪９４號之２","OBJECTID":186641},"geometry":{"x":187419.56000000052,"y":2557710.3100000024}},{"attributes":{"ID":186643,"DIS_CODE":0,"TOWNNAME":"大內區","LI":"石湖里","LIN":"10鄰","STREET":" ","SECT":" ","MAREA":"石子瀨","LANE":" ","ALLEY":" ","HOUSE_NO":"３２８號之１０","E_COORD97":183765.10000000001,"N_COORD97":2558277.2999999998,"ADDRESS":"石子瀨３２８號之１０","OBJECTID":186642},"geometry":{"x":183765.09999999963,"y":2558277.3000000026}},{"attributes":{"ID":186644,"DIS_CODE":0,"TOWNNAME":"大內區","LI":"內江里","LIN":"10鄰","STREET":" ","SECT":" ","MAREA":"內庄","LANE":" ","ALLEY":" ","HOUSE_NO":"３１７號之１","E_COORD97":184711.31,"N_COORD97":2556981.2999999998,"ADDRESS":"內庄３１７號之１","OBJECTID":186643},"geometry":{"x":184711.30999999959,"y":2556981.3000000045}},{"attributes":{"ID":186645,"DIS_CODE":0,"TOWNNAME":"後壁區","LI":"侯伯里","LIN":"11鄰","STREET":" ","SECT":" ","MAREA":"後壁寮","LANE":" ","ALLEY":" ","HOUSE_NO":"９１號","E_COORD97":185415.73999999999,"N_COORD97":2585417.1899999999,"ADDRESS":"後壁寮９１號","OBJECTID":186644},"geometry":{"x":185415.74000000022,"y":2585417.1900000013}},{"attributes":{"ID":186646,"DIS_CODE":0,"TOWNNAME":"後壁區","LI":"侯伯里","LIN":"11鄰","STREET":" ","SECT":" ","MAREA":"後壁寮","LANE":" ","ALLEY":" ","HOUSE_NO":"９２號之２","E_COORD97":185429.75,"N_COORD97":2585460.25,"ADDRESS":"後壁寮９２號之２","OBJECTID":186645},"geometry":{"x":185429.75000000186,"y":2585460.2500000019}},{"attributes":{"ID":186647,"DIS_CODE":0,"TOWNNAME":"東區","LI":"忠孝里","LIN":"10鄰","STREET":"榮譽街","SECT":" ","MAREA":" ","LANE":" ","ALLEY":" ","HOUSE_NO":"１９９號","E_COORD97":170055.62,"N_COORD97":2541888.54,"ADDRESS":"榮譽街１９９號","OBJECTID":186646},"geometry":{"x":170055.62000000104,"y":2541888.540000001}},{"attributes":{"ID":186648,"DIS_CODE":0,"TOWNNAME":"歸仁區","LI":"南保里","LIN":"59鄰","STREET":"中山路","SECT":"三段","MAREA":" ","LANE":"８１巷","ALLEY":"２３弄","HOUSE_NO":"７６號","E_COORD97":176859.94,"N_COORD97":2540792.0299999998,"ADDRESS":"中山路三段８１巷２３弄７６號","OBJECTID":186647},"geometry":{"x":176859.94000000134,"y":2540792.0299999993}},{"attributes":{"ID":186649,"DIS_CODE":0,"TOWNNAME":"東區","LI":"忠孝里","LIN":"10鄰","STREET":"榮譽街","SECT":" ","MAREA":" ","LANE":" ","ALLEY":" ","HOUSE_NO":"２０１號","E_COORD97":170061.62,"N_COORD97":2541894.8300000001,"ADDRESS":"榮譽街２０１號","OBJECTID":186648},"geometry":{"x":170061.62000000011,"y":2541894.8300000001}},{"attributes":{"ID":186650,"DIS_CODE":0,"TOWNNAME":"東區","LI":"忠孝里","LIN":"10鄰","STREET":"榮譽街","SECT":" ","MAREA":" ","LANE":" ","ALLEY":" ","HOUSE_NO":"２０４號","E_COORD97":170073.85999999999,"N_COORD97":2541874.48,"ADDRESS":"榮譽街２０４號","OBJECTID":186649},"geometry":{"x":170073.86000000034,"y":2541874.4800000004}},{"attributes":{"ID":186651,"DIS_CODE":0,"TOWNNAME":"後壁區","LI":"侯伯里","LIN":"11鄰","STREET":" ","SECT":" ","MAREA":"後壁寮","LANE":" ","ALLEY":" ","HOUSE_NO":"９２號之３","E_COORD97":185483.14999999999,"N_COORD97":2585434.9100000001,"ADDRESS":"後壁寮９２號之３","OBJECTID":186650},"geometry":{"x":185483.14999999944,"y":2585434.9099999983}},{"attributes":{"ID":186652,"DIS_CODE":0,"TOWNNAME":"歸仁區","LI":"南保里","LIN":"59鄰","STREET":"中山路","SECT":"三段","MAREA":" ","LANE":"８１巷","ALLEY":"２３弄","HOUSE_NO":"１２號","E_COORD97":176795.23999999999,"N_COORD97":2540779.0299999998,"ADDRESS":"中山路三段８１巷２３弄１２號","OBJECTID":186651},"geometry":{"x":176795.24000000115,"y":2540779.0300000012}},{"attributes":{"ID":186653,"DIS_CODE":0,"TOWNNAME":"歸仁區","LI":"南保里","LIN":"59鄰","STREET":"中山路","SECT":"三段","MAREA":" ","LANE":"８１巷","ALLEY":"２３弄","HOUSE_NO":"３３號","E_COORD97":176882.98000000001,"N_COORD97":2540805.98,"ADDRESS":"中山路三段８１巷２３弄３３號","OBJECTID":186652},"geometry":{"x":176882.97999999952,"y":2540805.9800000004}},{"attributes":{"ID":186654,"DIS_CODE":0,"TOWNNAME":"安南區","LI":"安富里","LIN":"5鄰","STREET":"郡安路","SECT":"五段","MAREA":" ","LANE":"１８４巷","ALLEY":"５２弄","HOUSE_NO":"５４號","E_COORD97":167295.91,"N_COORD97":2547591.29,"ADDRESS":"郡安路五段１８４巷５２弄５４號","OBJECTID":186653},"geometry":{"x":167295.91000000108,"y":2547591.2900000028}},{"attributes":{"ID":186655,"DIS_CODE":0,"TOWNNAME":"安南區","LI":"安順里","LIN":"5鄰","STREET":"安和路","SECT":"四段","MAREA":" ","LANE":"１３１巷","ALLEY":"３９弄","HOUSE_NO":"２８號","E_COORD97":169809.73999999999,"N_COORD97":2550331.7200000002,"ADDRESS":"安和路四段１３１巷３９弄２８號","OBJECTID":186654},"geometry":{"x":169809.74000000022,"y":2550331.7200000007}},{"attributes":{"ID":186656,"DIS_CODE":0,"TOWNNAME":"安南區","LI":"安慶里","LIN":"5鄰","STREET":"長溪路","SECT":"一段","MAREA":" ","LANE":"１６８巷","ALLEY":"１９０弄","HOUSE_NO":"５號","E_COORD97":169110.97,"N_COORD97":2549043.71,"ADDRESS":"長溪路一段１６８巷１９０弄５號","OBJECTID":186655},"geometry":{"x":169110.96999999974,"y":2549043.7100000009}},{"attributes":{"ID":186657,"DIS_CODE":0,"TOWNNAME":"安南區","LI":"州北里","LIN":"5鄰","STREET":"安和路","SECT":"五段","MAREA":" ","LANE":"１７１巷","ALLEY":"４７弄","HOUSE_NO":"３３號之５","E_COORD97":169732.81,"N_COORD97":2551725.7599999998,"ADDRESS":"安和路五段１７１巷４７弄３３號之５","OBJECTID":186656},"geometry":{"x":169732.80999999959,"y":2551725.7600000016}},{"attributes":{"ID":186658,"DIS_CODE":0,"TOWNNAME":"安南區","LI":"州北里","LIN":"5鄰","STREET":"安和路","SECT":"五段","MAREA":" ","LANE":"１７１巷","ALLEY":"４７弄","HOUSE_NO":"２９號之１５","E_COORD97":169728.17999999999,"N_COORD97":2551700.8599999999,"ADDRESS":"安和路五段１７１巷４７弄２９號之１５","OBJECTID":186657},"geometry":{"x":169728.1799999997,"y":2551700.8600000013}},{"attributes":{"ID":186659,"DIS_CODE":0,"TOWNNAME":"安南區","LI":"城中里","LIN":"5鄰","STREET":"城西街","SECT":"一段","MAREA":" ","LANE":"６１巷","ALLEY":"４１弄","HOUSE_NO":"１２號","E_COORD97":160804.24145199999,"N_COORD97":2551293.0707100001,"ADDRESS":"城西街一段６１巷４１弄１２號","OBJECTID":186658},"geometry":{"x":160804.2414520001,"y":2551293.0707130004}},{"attributes":{"ID":186660,"DIS_CODE":0,"TOWNNAME":"安南區","LI":"城中里","LIN":"5鄰","STREET":"安中路","SECT":"六段","MAREA":" ","LANE":"５１９巷","ALLEY":"４６弄","HOUSE_NO":"２號","E_COORD97":160845.41,"N_COORD97":2551283.0699999998,"ADDRESS":"安中路六段５１９巷４６弄２號","OBJECTID":186659},"geometry":{"x":160845.41000000108,"y":2551283.070000004}},{"attributes":{"ID":186661,"DIS_CODE":0,"TOWNNAME":"安南區","LI":"城中里","LIN":"5鄰","STREET":"城西街","SECT":"一段","MAREA":" ","LANE":"６１巷","ALLEY":"４１弄","HOUSE_NO":"６號","E_COORD97":160787.06,"N_COORD97":2551285.2200000002,"ADDRESS":"城西街一段６１巷４１弄６號","OBJECTID":186660},"geometry":{"x":160787.05999999959,"y":2551285.2200000007}},{"attributes":{"ID":186662,"DIS_CODE":0,"TOWNNAME":"東區","LI":"和平里","LIN":"10鄰","STREET":"仁和路","SECT":" ","MAREA":" ","LANE":" ","ALLEY":" ","HOUSE_NO":"８５號之２","E_COORD97":171261.31,"N_COORD97":2541513.3300000001,"ADDRESS":"仁和路８５號之２","OBJECTID":186661},"geometry":{"x":171261.30999999959,"y":2541513.3300000038}},{"attributes":{"ID":186663,"DIS_CODE":0,"TOWNNAME":"後壁區","LI":"侯伯里","LIN":"11鄰","STREET":" ","SECT":" ","MAREA":"後壁寮","LANE":" ","ALLEY":" ","HOUSE_NO":"９２號","E_COORD97":185447.98999999999,"N_COORD97":2585444.2599999998,"ADDRESS":"後壁寮９２號","OBJECTID":186662},"geometry":{"x":185447.99000000022,"y":2585444.2599999998}},{"attributes":{"ID":186664,"DIS_CODE":0,"TOWNNAME":"後壁區","LI":"侯伯里","LIN":"11鄰","STREET":" ","SECT":" ","MAREA":"後壁寮","LANE":" ","ALLEY":" ","HOUSE_NO":"９３號之２","E_COORD97":185379.70999999999,"N_COORD97":2585456.0899999999,"ADDRESS":"後壁寮９３號之２","OBJECTID":186663},"geometry":{"x":185379.71000000089,"y":2585456.0899999999}},{"attributes":{"ID":186665,"DIS_CODE":0,"TOWNNAME":"安南區","LI":"城中里","LIN":"5鄰","STREET":"城西街","SECT":"一段","MAREA":" ","LANE":"６１巷","ALLEY":"４１弄","HOUSE_NO":"８號","E_COORD97":160793.63,"N_COORD97":2551288.5899999999,"ADDRESS":"城西街一段６１巷４１弄８號","OBJECTID":186664},"geometry":{"x":160793.62999999989,"y":2551288.5899999999}},{"attributes":{"ID":186666,"DIS_CODE":0,"TOWNNAME":"安南區","LI":"城中里","LIN":"5鄰","STREET":"城西街","SECT":"一段","MAREA":" ","LANE":"６１巷","ALLEY":"４１弄","HOUSE_NO":"１０號","E_COORD97":160799.19,"N_COORD97":2551291.2799999998,"ADDRESS":"城西街一段６１巷４１弄１０號","OBJECTID":186665},"geometry":{"x":160799.19000000041,"y":2551291.2800000012}},{"attributes":{"ID":186667,"DIS_CODE":0,"TOWNNAME":"安南區","LI":"安順里","LIN":"5鄰","STREET":"安和路","SECT":"四段","MAREA":" ","LANE":"１３１巷","ALLEY":"３９弄","HOUSE_NO":"３７之１號","E_COORD97":169831.89999999999,"N_COORD97":2550301.4500000002,"ADDRESS":"安和路四段１３１巷３９弄３７之１號","OBJECTID":186666},"geometry":{"x":169831.9000000013,"y":2550301.4499999993}},{"attributes":{"ID":186668,"DIS_CODE":0,"TOWNNAME":"安南區","LI":"溪心里","LIN":"5鄰","STREET":"本原街","SECT":"二段","MAREA":" ","LANE":"１０６巷","ALLEY":"５９弄","HOUSE_NO":"２之８號","E_COORD97":166912.35000000001,"N_COORD97":2550961.4300000002,"ADDRESS":"本原街二段１０６巷５９弄２之８號","OBJECTID":186667},"geometry":{"x":166912.35000000056,"y":2550961.4300000016}},{"attributes":{"ID":186669,"DIS_CODE":0,"TOWNNAME":"大內區","LI":"石湖里","LIN":"10鄰","STREET":" ","SECT":" ","MAREA":"石子瀨","LANE":" ","ALLEY":" ","HOUSE_NO":"３２８號之５","E_COORD97":183766.45999999999,"N_COORD97":2558307.2999999998,"ADDRESS":"石子瀨３２８號之５","OBJECTID":186668},"geometry":{"x":183766.45999999996,"y":2558307.3000000026}},{"attributes":{"ID":186670,"DIS_CODE":0,"TOWNNAME":"大內區","LI":"內江里","LIN":"10鄰","STREET":" ","SECT":" ","MAREA":"內庄","LANE":" ","ALLEY":" ","HOUSE_NO":"３２５號","E_COORD97":184771.57999999999,"N_COORD97":2556919.25,"ADDRESS":"內庄３２５號","OBJECTID":186669},"geometry":{"x":184771.58000000194,"y":2556919.25}},{"attributes":{"ID":186671,"DIS_CODE":0,"TOWNNAME":"大內區","LI":"內江里","LIN":"10鄰","STREET":" ","SECT":" ","MAREA":"內庄","LANE":" ","ALLEY":" ","HOUSE_NO":"３２５號之３","E_COORD97":184734.51000000001,"N_COORD97":2556821.2999999998,"ADDRESS":"內庄３２５號之３","OBJECTID":186670},"geometry":{"x":184734.51000000071,"y":2556821.3000000007}},{"attributes":{"ID":186672,"DIS_CODE":0,"TOWNNAME":"大內區","LI":"內江里","LIN":"10鄰","STREET":" ","SECT":" ","MAREA":"內庄","LANE":" ","ALLEY":" ","HOUSE_NO":"３２５號之１","E_COORD97":184757.60999999999,"N_COORD97":2556885.2999999998,"ADDRESS":"內庄３２５號之１","OBJECTID":186671},"geometry":{"x":184757.61000000034,"y":2556885.3000000007}},{"attributes":{"ID":186673,"DIS_CODE":0,"TOWNNAME":"大內區","LI":"石湖里","LIN":"10鄰","STREET":" ","SECT":" ","MAREA":"石子瀨","LANE":" ","ALLEY":" ","HOUSE_NO":"３３３號之４","E_COORD97":183801.53,"N_COORD97":2558249.2999999998,"ADDRESS":"石子瀨３３３號之４","OBJECTID":186672},"geometry":{"x":183801.53000000026,"y":2558249.3000000045}},{"attributes":{"ID":186674,"DIS_CODE":0,"TOWNNAME":"大內區","LI":"內江里","LIN":"10鄰","STREET":" ","SECT":" ","MAREA":"內庄","LANE":" ","ALLEY":" ","HOUSE_NO":"３２０號之３","E_COORD97":184869.60999999999,"N_COORD97":2557227.2999999998,"ADDRESS":"內庄３２０號之３","OBJECTID":186673},"geometry":{"x":184869.61000000034,"y":2557227.3000000007}},{"attributes":{"ID":186675,"DIS_CODE":0,"TOWNNAME":"大內區","LI":"內江里","LIN":"10鄰","STREET":" ","SECT":" ","MAREA":"內庄","LANE":" ","ALLEY":" ","HOUSE_NO":"３１９之８號","E_COORD97":185163.57999999999,"N_COORD97":2556763.2999999998,"ADDRESS":"內庄３１９之８號","OBJECTID":186674},"geometry":{"x":185163.58000000101,"y":2556763.3000000007}},{"attributes":{"ID":186676,"DIS_CODE":0,"TOWNNAME":"大內區","LI":"石湖里","LIN":"10鄰","STREET":" ","SECT":" ","MAREA":"石子瀨","LANE":" ","ALLEY":" ","HOUSE_NO":"３２９號","E_COORD97":183855.47,"N_COORD97":2558354.25,"ADDRESS":"石子瀨３２９號","OBJECTID":186675},"geometry":{"x":183855.47000000067,"y":2558354.2500000019}},{"attributes":{"ID":186677,"DIS_CODE":0,"TOWNNAME":"大內區","LI":"石湖里","LIN":"10鄰","STREET":" ","SECT":" ","MAREA":"石子瀨","LANE":" ","ALLEY":" ","HOUSE_NO":"３３３號之３","E_COORD97":183817.89999999999,"N_COORD97":2558267.2999999998,"ADDRESS":"石子瀨３３３號之３","OBJECTID":186676},"geometry":{"x":183817.90000000037,"y":2558267.3000000026}},{"attributes":{"ID":186678,"DIS_CODE":0,"TOWNNAME":"大內區","LI":"石湖里","LIN":"10鄰","STREET":" ","SECT":" ","MAREA":"石子瀨","LANE":" ","ALLEY":" ","HOUSE_NO":"３３３號之１","E_COORD97":183762,"N_COORD97":2558266.2999999998,"ADDRESS":"石子瀨３３３號之１","OBJECTID":186677},"geometry":{"x":183762.00000000093,"y":2558266.3000000026}},{"attributes":{"ID":186679,"DIS_CODE":0,"TOWNNAME":"大內區","LI":"石湖里","LIN":"10鄰","STREET":" ","SECT":" ","MAREA":"石子瀨","LANE":" ","ALLEY":" ","HOUSE_NO":"３２３號","E_COORD97":183881.67000000001,"N_COORD97":2558318.25,"ADDRESS":"石子瀨３２３號","OBJECTID":186678},"geometry":{"x":183881.66999999993,"y":2558318.25}},{"attributes":{"ID":186680,"DIS_CODE":0,"TOWNNAME":"官田區","LI":"官田里","LIN":"1鄰","STREET":" ","SECT":" ","MAREA":"官田","LANE":" ","ALLEY":" ","HOUSE_NO":"９號之４","E_COORD97":182575.95000000001,"N_COORD97":2565302.29,"ADDRESS":"官田９號之４","OBJECTID":186679},"geometry":{"x":182575.95000000112,"y":2565302.2899999991}},{"attributes":{"ID":186681,"DIS_CODE":0,"TOWNNAME":"後壁區","LI":"侯伯里","LIN":"11鄰","STREET":" ","SECT":" ","MAREA":"後壁寮","LANE":" ","ALLEY":" ","HOUSE_NO":"９３號","E_COORD97":185395.20000000001,"N_COORD97":2585464.6499999999,"ADDRESS":"後壁寮９３號","OBJECTID":186680},"geometry":{"x":185395.20000000112,"y":2585464.6500000022}},{"attributes":{"ID":186682,"DIS_CODE":0,"TOWNNAME":"後壁區","LI":"烏樹里","LIN":"11鄰","STREET":" ","SECT":" ","MAREA":"烏樹林","LANE":" ","ALLEY":" ","HOUSE_NO":"１２４號","E_COORD97":186209.04999999999,"N_COORD97":2581063.2200000002,"ADDRESS":"烏樹林１２４號","OBJECTID":186681},"geometry":{"x":186209.05000000075,"y":2581063.2200000044}},{"attributes":{"ID":186683,"DIS_CODE":0,"TOWNNAME":"後壁區","LI":"烏樹里","LIN":"11鄰","STREET":" ","SECT":" ","MAREA":"烏樹林","LANE":" ","ALLEY":" ","HOUSE_NO":"１２５號之１","E_COORD97":186197.48999999999,"N_COORD97":2581042.1600000001,"ADDRESS":"烏樹林１２５號之１","OBJECTID":186682},"geometry":{"x":186197.49000000022,"y":2581042.1600000001}},{"attributes":{"ID":186684,"DIS_CODE":0,"TOWNNAME":"後壁區","LI":"烏樹里","LIN":"11鄰","STREET":" ","SECT":" ","MAREA":"烏樹林","LANE":" ","ALLEY":" ","HOUSE_NO":"１２５號","E_COORD97":186212.78,"N_COORD97":2581041.3500000001,"ADDRESS":"烏樹林１２５號","OBJECTID":186683},"geometry":{"x":186212.77999999933,"y":2581041.3500000015}},{"attributes":{"ID":186685,"DIS_CODE":0,"TOWNNAME":"安南區","LI":"原佃里","LIN":"5鄰","STREET":"本原街","SECT":"一段","MAREA":" ","LANE":"１８８巷","ALLEY":"６弄","HOUSE_NO":"１號","E_COORD97":167842.03,"N_COORD97":2550230.1499999999,"ADDRESS":"本原街一段１８８巷６弄１號","OBJECTID":186684},"geometry":{"x":167842.02999999933,"y":2550230.1500000004}},{"attributes":{"ID":186686,"DIS_CODE":0,"TOWNNAME":"安南區","LI":"原佃里","LIN":"5鄰","STREET":"本原街","SECT":"一段","MAREA":" ","LANE":"１８８巷","ALLEY":"６弄","HOUSE_NO":"２號","E_COORD97":167821.28,"N_COORD97":2550228.5699999998,"ADDRESS":"本原街一段１８８巷６弄２號","OBJECTID":186685},"geometry":{"x":167821.28000000026,"y":2550228.570000004}},{"attributes":{"ID":186687,"DIS_CODE":0,"TOWNNAME":"歸仁區","LI":"歸南里","LIN":"24鄰","STREET":"民生南街","SECT":"二段","MAREA":" ","LANE":" ","ALLEY":" ","HOUSE_NO":"１１２號","E_COORD97":176178.26000000001,"N_COORD97":2540315.25,"ADDRESS":"民生南街二段１１２號","OBJECTID":186686},"geometry":{"x":176178.25999999978,"y":2540315.25}},{"attributes":{"ID":186688,"DIS_CODE":0,"TOWNNAME":"安南區","LI":"原佃里","LIN":"5鄰","STREET":"本原街","SECT":"一段","MAREA":" ","LANE":"１８８巷","ALLEY":"６弄","HOUSE_NO":"３號","E_COORD97":167845.13,"N_COORD97":2550226.2999999998,"ADDRESS":"本原街一段１８８巷６弄３號","OBJECTID":186687},"geometry":{"x":167845.13000000082,"y":2550226.3000000007}},{"attributes":{"ID":186689,"DIS_CODE":0,"TOWNNAME":"安南區","LI":"原佃里","LIN":"5鄰","STREET":"本原街","SECT":"一段","MAREA":" ","LANE":"１８８巷","ALLEY":"６弄","HOUSE_NO":"６號","E_COORD97":167823.42000000001,"N_COORD97":2550223.7599999998,"ADDRESS":"本原街一段１８８巷６弄６號","OBJECTID":186688},"geometry":{"x":167823.41999999993,"y":2550223.7600000016}},{"attributes":{"ID":186690,"DIS_CODE":0,"TOWNNAME":"安南區","LI":"原佃里","LIN":"5鄰","STREET":"本原街","SECT":"一段","MAREA":" ","LANE":"１８８巷","ALLEY":"６弄","HOUSE_NO":"５號","E_COORD97":167847.26999999999,"N_COORD97":2550222.6699999999,"ADDRESS":"本原街一段１８８巷６弄５號","OBJECTID":186689},"geometry":{"x":167847.27000000048,"y":2550222.6699999999}},{"attributes":{"ID":186691,"DIS_CODE":0,"TOWNNAME":"安南區","LI":"原佃里","LIN":"5鄰","STREET":"本原街","SECT":"一段","MAREA":" ","LANE":"１８８巷","ALLEY":"６弄","HOUSE_NO":"８號","E_COORD97":167824.91,"N_COORD97":2550220.2400000002,"ADDRESS":"本原街一段１８８巷６弄８號","OBJECTID":186690},"geometry":{"x":167824.91000000108,"y":2550220.2399999984}},{"attributes":{"ID":186692,"DIS_CODE":0,"TOWNNAME":"大內區","LI":"石林里","LIN":"10鄰","STREET":" ","SECT":" ","MAREA":"石子瀨","LANE":" ","ALLEY":" ","HOUSE_NO":"２１２號","E_COORD97":184135.17000000001,"N_COORD97":2558226.25,"ADDRESS":"石子瀨２１２號","OBJECTID":186691},"geometry":{"x":184135.17000000086,"y":2558226.2500000019}},{"attributes":{"ID":186693,"DIS_CODE":0,"TOWNNAME":"麻豆區","LI":"巷口里","LIN":"10鄰","STREET":" ","SECT":" ","MAREA":"柯厝","LANE":" ","ALLEY":" ","HOUSE_NO":"６號","E_COORD97":173399.70999999999,"N_COORD97":2564113.9500000002,"ADDRESS":"柯厝６號","OBJECTID":186692},"geometry":{"x":173399.71000000089,"y":2564113.9499999993}},{"attributes":{"ID":186694,"DIS_CODE":0,"TOWNNAME":"大內區","LI":"內江里","LIN":"10鄰","STREET":" ","SECT":" ","MAREA":"內庄","LANE":" ","ALLEY":" ","HOUSE_NO":"３１６號","E_COORD97":184729.88,"N_COORD97":2557054.25,"ADDRESS":"內庄３１６號","OBJECTID":186693},"geometry":{"x":184729.87999999989,"y":2557054.25}},{"attributes":{"ID":186695,"DIS_CODE":0,"TOWNNAME":"大內區","LI":"石湖里","LIN":"10鄰","STREET":" ","SECT":" ","MAREA":"石子瀨","LANE":" ","ALLEY":" ","HOUSE_NO":"３２８號之２","E_COORD97":183755.14000000001,"N_COORD97":2558328.2999999998,"ADDRESS":"石子瀨３２８號之２","OBJECTID":186694},"geometry":{"x":183755.14000000153,"y":2558328.3000000026}},{"attributes":{"ID":186696,"DIS_CODE":0,"TOWNNAME":"安南區","LI":"原佃里","LIN":"5鄰","STREET":"本原街","SECT":"一段","MAREA":" ","LANE":"１８８巷","ALLEY":"６弄","HOUSE_NO":"７號","E_COORD97":167849.62,"N_COORD97":2550219.4700000002,"ADDRESS":"本原街一段１８８巷６弄７號","OBJECTID":186695},"geometry":{"x":167849.62000000011,"y":2550219.4700000044}},{"attributes":{"ID":186697,"DIS_CODE":0,"TOWNNAME":"大內區","LI":"石湖里","LIN":"10鄰","STREET":" ","SECT":" ","MAREA":"石子瀨","LANE":" ","ALLEY":" ","HOUSE_NO":"３３０號","E_COORD97":183858.37,"N_COORD97":2558333.25,"ADDRESS":"石子瀨３３０號","OBJECTID":186696},"geometry":{"x":183858.37000000011,"y":2558333.2500000037}},{"attributes":{"ID":186698,"DIS_CODE":0,"TOWNNAME":"安南區","LI":"原佃里","LIN":"5鄰","STREET":"本原街","SECT":"一段","MAREA":" ","LANE":"１８８巷","ALLEY":"６弄","HOUSE_NO":"９號","E_COORD97":167851.66,"N_COORD97":2550216.0499999998,"ADDRESS":"本原街一段１８８巷６弄９號","OBJECTID":186697},"geometry":{"x":167851.66000000108,"y":2550216.0500000026}},{"attributes":{"ID":186699,"DIS_CODE":0,"TOWNNAME":"安南區","LI":"原佃里","LIN":"5鄰","STREET":"本原街","SECT":"一段","MAREA":" ","LANE":"１８８巷","ALLEY":"６弄","HOUSE_NO":"１０號","E_COORD97":167826.63,"N_COORD97":2550216.7200000002,"ADDRESS":"本原街一段１８８巷６弄１０號","OBJECTID":186698},"geometry":{"x":167826.63000000082,"y":2550216.7200000007}},{"attributes":{"ID":186700,"DIS_CODE":0,"TOWNNAME":"安南區","LI":"原佃里","LIN":"5鄰","STREET":"本原街","SECT":"一段","MAREA":" ","LANE":"１８８巷","ALLEY":"６弄","HOUSE_NO":"１１號","E_COORD97":167853.57999999999,"N_COORD97":2550212.5299999998,"ADDRESS":"本原街一段１８８巷６弄１１號","OBJECTID":186699},"geometry":{"x":167853.58000000194,"y":2550212.5299999993}},{"attributes":{"ID":186701,"DIS_CODE":0,"TOWNNAME":"安南區","LI":"原佃里","LIN":"5鄰","STREET":"本原街","SECT":"一段","MAREA":" ","LANE":"１８８巷","ALLEY":"６弄","HOUSE_NO":"１２號","E_COORD97":167828.98000000001,"N_COORD97":2550212.71,"ADDRESS":"本原街一段１８８巷６弄１２號","OBJECTID":186700},"geometry":{"x":167828.97999999952,"y":2550212.7100000028}},{"attributes":{"ID":186702,"DIS_CODE":0,"TOWNNAME":"安南區","LI":"原佃里","LIN":"5鄰","STREET":"本原街","SECT":"一段","MAREA":" ","LANE":"１８８巷","ALLEY":"６弄","HOUSE_NO":"１３號","E_COORD97":167855.5,"N_COORD97":2550208.79,"ADDRESS":"本原街一段１８８巷６弄１３號","OBJECTID":186701},"geometry":{"x":167855.49999999907,"y":2550208.7900000028}},{"attributes":{"ID":186703,"DIS_CODE":0,"TOWNNAME":"大內區","LI":"內江里","LIN":"10鄰","STREET":" ","SECT":" ","MAREA":"內庄","LANE":" ","ALLEY":" ","HOUSE_NO":"３２０號之１","E_COORD97":184812.70999999999,"N_COORD97":2557101.2999999998,"ADDRESS":"內庄３２０號之１","OBJECTID":186702},"geometry":{"x":184812.70999999903,"y":2557101.3000000026}},{"attributes":{"ID":186704,"DIS_CODE":0,"TOWNNAME":"安南區","LI":"原佃里","LIN":"5鄰","STREET":"本原街","SECT":"一段","MAREA":" ","LANE":"１８８巷","ALLEY":"６弄","HOUSE_NO":"１５號","E_COORD97":167857.22,"N_COORD97":2550205.6899999999,"ADDRESS":"本原街一段１８８巷６弄１５號","OBJECTID":186703},"geometry":{"x":167857.2200000016,"y":2550205.6899999995}},{"attributes":{"ID":186705,"DIS_CODE":0,"TOWNNAME":"大內區","LI":"內江里","LIN":"10鄰","STREET":" ","SECT":" ","MAREA":"內庄","LANE":" ","ALLEY":" ","HOUSE_NO":"３２４號之１","E_COORD97":184822.81,"N_COORD97":2556865.2999999998,"ADDRESS":"內庄３２４號之１","OBJECTID":186704},"geometry":{"x":184822.80999999959,"y":2556865.3000000007}},{"attributes":{"ID":186706,"DIS_CODE":0,"TOWNNAME":"南區","LI":"文華里","LIN":"22鄰","STREET":"德南街","SECT":" ","MAREA":" ","LANE":" ","ALLEY":" ","HOUSE_NO":"８４號","E_COORD97":166705.73999999999,"N_COORD97":2543001.4199999999,"ADDRESS":"德南街８４號","OBJECTID":186705},"geometry":{"x":166705.74000000022,"y":2543001.4200000018}},{"attributes":{"ID":186707,"DIS_CODE":0,"TOWNNAME":"大內區","LI":"內江里","LIN":"10鄰","STREET":" ","SECT":" ","MAREA":"內庄","LANE":" ","ALLEY":" ","HOUSE_NO":"３２０號之２","E_COORD97":184861.25,"N_COORD97":2557196.2999999998,"ADDRESS":"內庄３２０號之２","OBJECTID":186706},"geometry":{"x":184861.25,"y":2557196.3000000026}},{"attributes":{"ID":186708,"DIS_CODE":0,"TOWNNAME":"大內區","LI":"內江里","LIN":"10鄰","STREET":" ","SECT":" ","MAREA":"內庄","LANE":" ","ALLEY":" ","HOUSE_NO":"３１４號","E_COORD97":184665.28,"N_COORD97":2557162.25,"ADDRESS":"內庄３１４號","OBJECTID":186707},"geometry":{"x":184665.28000000212,"y":2557162.25}},{"attributes":{"ID":186709,"DIS_CODE":0,"TOWNNAME":"大內區","LI":"石湖里","LIN":"10鄰","STREET":" ","SECT":" ","MAREA":"石子瀨","LANE":" ","ALLEY":" ","HOUSE_NO":"３２８號","E_COORD97":183819.87,"N_COORD97":2558331.25,"ADDRESS":"石子瀨３２８號","OBJECTID":186708},"geometry":{"x":183819.87000000011,"y":2558331.2500000019}},{"attributes":{"ID":186710,"DIS_CODE":0,"TOWNNAME":"後壁區","LI":"烏樹里","LIN":"11鄰","STREET":" ","SECT":" ","MAREA":"烏樹林","LANE":" ","ALLEY":" ","HOUSE_NO":"１２６號之２","E_COORD97":186205.26000000001,"N_COORD97":2580996.5499999998,"ADDRESS":"烏樹林１２６號之２","OBJECTID":186709},"geometry":{"x":186205.25999999978,"y":2580996.5499999989}},{"attributes":{"ID":186711,"DIS_CODE":0,"TOWNNAME":"安南區","LI":"原佃里","LIN":"5鄰","STREET":"本原街","SECT":"一段","MAREA":" ","LANE":"１８８巷","ALLEY":"６弄","HOUSE_NO":"１６號","E_COORD97":167830.69,"N_COORD97":2550209.5099999998,"ADDRESS":"本原街一段１８８巷６弄１６號","OBJECTID":186710},"geometry":{"x":167830.69000000041,"y":2550209.5100000016}},{"attributes":{"ID":186712,"DIS_CODE":0,"TOWNNAME":"大內區","LI":"內江里","LIN":"10鄰","STREET":" ","SECT":" ","MAREA":"內庄","LANE":" ","ALLEY":" ","HOUSE_NO":"３２１號","E_COORD97":184825.98000000001,"N_COORD97":2557055.25,"ADDRESS":"內庄３２１號","OBJECTID":186711},"geometry":{"x":184825.98000000045,"y":2557055.2500000037}},{"attributes":{"ID":186713,"DIS_CODE":0,"TOWNNAME":"大內區","LI":"內江里","LIN":"10鄰","STREET":" ","SECT":" ","MAREA":"內庄","LANE":" ","ALLEY":" ","HOUSE_NO":"３１５號","E_COORD97":184748.07999999999,"N_COORD97":2557071.25,"ADDRESS":"內庄３１５號","OBJECTID":186712},"geometry":{"x":184748.08000000101,"y":2557071.25}},{"attributes":{"ID":186714,"DIS_CODE":0,"TOWNNAME":"大內區","LI":"石湖里","LIN":"10鄰","STREET":" ","SECT":" ","MAREA":"石子瀨","LANE":" ","ALLEY":" ","HOUSE_NO":"３２４號","E_COORD97":183833.26999999999,"N_COORD97":2558350.25,"ADDRESS":"石子瀨３２４號","OBJECTID":186713},"geometry":{"x":183833.26999999955,"y":2558350.2500000037}},{"attributes":{"ID":186715,"DIS_CODE":0,"TOWNNAME":"大內區","LI":"內郭里","LIN":"10鄰","STREET":" ","SECT":" ","MAREA":"後堀","LANE":" ","ALLEY":" ","HOUSE_NO":"３６號之７","E_COORD97":186131.37,"N_COORD97":2557073.3199999998,"ADDRESS":"後堀３６號之７","OBJECTID":186714},"geometry":{"x":186131.37000000104,"y":2557073.3200000022}},{"attributes":{"ID":186716,"DIS_CODE":0,"TOWNNAME":"大內區","LI":"內郭里","LIN":"10鄰","STREET":" ","SECT":" ","MAREA":"後堀","LANE":" ","ALLEY":" ","HOUSE_NO":"４５號","E_COORD97":186643.45999999999,"N_COORD97":2557129.3199999998,"ADDRESS":"後堀４５號","OBJECTID":186715},"geometry":{"x":186643.45999999996,"y":2557129.3200000003}},{"attributes":{"ID":186717,"DIS_CODE":0,"TOWNNAME":"東區","LI":"關聖里","LIN":"13鄰","STREET":"裕和一街","SECT":" ","MAREA":" ","LANE":" ","ALLEY":" ","HOUSE_NO":"２５號","E_COORD97":172149.39999999999,"N_COORD97":2543042.52,"ADDRESS":"裕和一街２５號","OBJECTID":186716},"geometry":{"x":172149.4000000013,"y":2543042.5199999996}},{"attributes":{"ID":186718,"DIS_CODE":0,"TOWNNAME":"東區","LI":"龍山里","LIN":"19鄰","STREET":"崇仁街","SECT":" ","MAREA":" ","LANE":" ","ALLEY":" ","HOUSE_NO":"８７號","E_COORD97":170478.26999999999,"N_COORD97":2542662.6800000002,"ADDRESS":"崇仁街８７號","OBJECTID":186717},"geometry":{"x":170478.27000000048,"y":2542662.6799999997}},{"attributes":{"ID":186719,"DIS_CODE":0,"TOWNNAME":"麻豆區","LI":"巷口里","LIN":"10鄰","STREET":" ","SECT":" ","MAREA":"柯厝","LANE":" ","ALLEY":" ","HOUSE_NO":"１０號之１７","E_COORD97":173365.60000000001,"N_COORD97":2564214.9900000002,"ADDRESS":"柯厝１０號之１７","OBJECTID":186718},"geometry":{"x":173365.60000000149,"y":2564214.9900000021}},{"attributes":{"ID":186720,"DIS_CODE":0,"TOWNNAME":"安南區","LI":"原佃里","LIN":"5鄰","STREET":"本原街","SECT":"一段","MAREA":" ","LANE":"１８８巷","ALLEY":"６弄","HOUSE_NO":"１７號","E_COORD97":167859.38,"N_COORD97":2550201.6800000002,"ADDRESS":"本原街一段１８８巷６弄１７號","OBJECTID":186719},"geometry":{"x":167859.37999999989,"y":2550201.6799999997}},{"attributes":{"ID":186721,"DIS_CODE":0,"TOWNNAME":"安南區","LI":"原佃里","LIN":"5鄰","STREET":"本原街","SECT":"一段","MAREA":" ","LANE":"１８８巷","ALLEY":"６弄","HOUSE_NO":"１８號","E_COORD97":167832.60999999999,"N_COORD97":2550205.8799999999,"ADDRESS":"本原街一段１８８巷６弄１８號","OBJECTID":186720},"geometry":{"x":167832.61000000034,"y":2550205.8800000008}},{"attributes":{"ID":186722,"DIS_CODE":0,"TOWNNAME":"安南區","LI":"原佃里","LIN":"5鄰","STREET":"本原街","SECT":"一段","MAREA":" ","LANE":"１８８巷","ALLEY":"６弄","HOUSE_NO":"１９號","E_COORD97":167861.51999999999,"N_COORD97":2550197.8399999999,"ADDRESS":"本原街一段１８８巷６弄１９號","OBJECTID":186721},"geometry":{"x":167861.51999999955,"y":2550197.8399999999}},{"attributes":{"ID":186723,"DIS_CODE":0,"TOWNNAME":"麻豆區","LI":"油車里","LIN":"10鄰","STREET":" ","SECT":" ","MAREA":"油車","LANE":" ","ALLEY":" ","HOUSE_NO":"６６號之６","E_COORD97":172541.85999999999,"N_COORD97":2565763.6099999999,"ADDRESS":"油車６６號之６","OBJECTID":186722},"geometry":{"x":172541.86000000034,"y":2565763.6100000013}},{"attributes":{"ID":186724,"DIS_CODE":0,"TOWNNAME":"麻豆區","LI":"油車里","LIN":"10鄰","STREET":" ","SECT":" ","MAREA":"油車","LANE":" ","ALLEY":" ","HOUSE_NO":"６６號","E_COORD97":172538.20000000001,"N_COORD97":2565724.4900000002,"ADDRESS":"油車６６號","OBJECTID":186723},"geometry":{"x":172538.20000000205,"y":2565724.4900000021}},{"attributes":{"ID":186725,"DIS_CODE":0,"TOWNNAME":"安南區","LI":"原佃里","LIN":"5鄰","STREET":"本原街","SECT":"一段","MAREA":" ","LANE":"１８８巷","ALLEY":"６弄","HOUSE_NO":"２０號","E_COORD97":167834.64000000001,"N_COORD97":2550202.8900000001,"ADDRESS":"本原街一段１８８巷６弄２０號","OBJECTID":186724},"geometry":{"x":167834.6400000006,"y":2550202.8900000043}},{"attributes":{"ID":186726,"DIS_CODE":0,"TOWNNAME":"東區","LI":"龍山里","LIN":"19鄰","STREET":"崇仁街","SECT":" ","MAREA":" ","LANE":" ","ALLEY":" ","HOUSE_NO":"８９號","E_COORD97":170485.88,"N_COORD97":2542655.48,"ADDRESS":"崇仁街８９號","OBJECTID":186725},"geometry":{"x":170485.88000000082,"y":2542655.4800000023}},{"attributes":{"ID":186727,"DIS_CODE":0,"TOWNNAME":"麻豆區","LI":"南勢里","LIN":"10鄰","STREET":" ","SECT":" ","MAREA":"南勢","LANE":" ","ALLEY":" ","HOUSE_NO":"１號之１０","E_COORD97":174460.78,"N_COORD97":2565760.5499999998,"ADDRESS":"南勢１號之１０","OBJECTID":186726},"geometry":{"x":174460.78000000119,"y":2565760.5500000045}},{"attributes":{"ID":186728,"DIS_CODE":0,"TOWNNAME":"麻豆區","LI":"北勢里","LIN":"1鄰","STREET":" ","SECT":" ","MAREA":"加輦邦","LANE":" ","ALLEY":" ","HOUSE_NO":"１號之１２","E_COORD97":174989.56,"N_COORD97":2566648.3300000001,"ADDRESS":"加輦邦１號之１２","OBJECTID":186727},"geometry":{"x":174989.55999999959,"y":2566648.3300000001}},{"attributes":{"ID":186729,"DIS_CODE":0,"TOWNNAME":"麻豆區","LI":"南勢里","LIN":"10鄰","STREET":" ","SECT":" ","MAREA":"南勢","LANE":" ","ALLEY":" ","HOUSE_NO":"１號之１３","E_COORD97":174473.67000000001,"N_COORD97":2565809.3500000001,"ADDRESS":"南勢１號之１３","OBJECTID":186728},"geometry":{"x":174473.66999999993,"y":2565809.3500000015}},{"attributes":{"ID":186730,"DIS_CODE":0,"TOWNNAME":"麻豆區","LI":"南勢里","LIN":"10鄰","STREET":" ","SECT":" ","MAREA":"南勢","LANE":" ","ALLEY":" ","HOUSE_NO":"１號之１４","E_COORD97":174474.17000000001,"N_COORD97":2565814.9500000002,"ADDRESS":"南勢１號之１４","OBJECTID":186729},"geometry":{"x":174474.17000000179,"y":2565814.9500000011}},{"attributes":{"ID":186731,"DIS_CODE":0,"TOWNNAME":"麻豆區","LI":"南勢里","LIN":"10鄰","STREET":" ","SECT":" ","MAREA":"南勢","LANE":" ","ALLEY":" ","HOUSE_NO":"１號之１５","E_COORD97":174597.64000000001,"N_COORD97":2565796.4700000002,"ADDRESS":"南勢１號之１５","OBJECTID":186730},"geometry":{"x":174597.63999999966,"y":2565796.4700000025}},{"attributes":{"ID":186732,"DIS_CODE":0,"TOWNNAME":"麻豆區","LI":"南勢里","LIN":"10鄰","STREET":" ","SECT":" ","MAREA":"南勢","LANE":" ","ALLEY":" ","HOUSE_NO":"１號之１６","E_COORD97":174543.42000000001,"N_COORD97":2565827.2000000002,"ADDRESS":"南勢１號之１６","OBJECTID":186731},"geometry":{"x":174543.41999999993,"y":2565827.2000000011}},{"attributes":{"ID":186733,"DIS_CODE":0,"TOWNNAME":"麻豆區","LI":"南勢里","LIN":"10鄰","STREET":" ","SECT":" ","MAREA":"南勢","LANE":" ","ALLEY":" ","HOUSE_NO":"１號之１","E_COORD97":174510.07000000001,"N_COORD97":2565720.1000000001,"ADDRESS":"南勢１號之１","OBJECTID":186732},"geometry":{"x":174510.0700000003,"y":2565720.0999999996}},{"attributes":{"ID":186734,"DIS_CODE":0,"TOWNNAME":"麻豆區","LI":"南勢里","LIN":"10鄰","STREET":" ","SECT":" ","MAREA":"南勢","LANE":" ","ALLEY":" ","HOUSE_NO":"１號之２１","E_COORD97":174662.29999999999,"N_COORD97":2566017.48,"ADDRESS":"南勢１號之２１","OBJECTID":186733},"geometry":{"x":174662.29999999981,"y":2566017.4800000004}},{"attributes":{"ID":186735,"DIS_CODE":0,"TOWNNAME":"麻豆區","LI":"南勢里","LIN":"10鄰","STREET":" ","SECT":" ","MAREA":"南勢","LANE":" ","ALLEY":" ","HOUSE_NO":"１號之２２","E_COORD97":174474.94,"N_COORD97":2565784.9500000002,"ADDRESS":"南勢１號之２２","OBJECTID":186734},"geometry":{"x":174474.94000000134,"y":2565784.9499999993}},{"attributes":{"ID":186736,"DIS_CODE":0,"TOWNNAME":"麻豆區","LI":"南勢里","LIN":"10鄰","STREET":" ","SECT":" ","MAREA":"南勢","LANE":" ","ALLEY":" ","HOUSE_NO":"１號之２５","E_COORD97":174601.35000000001,"N_COORD97":2565828.5499999998,"ADDRESS":"南勢１號之２５","OBJECTID":186735},"geometry":{"x":174601.35000000149,"y":2565828.5500000026}},{"attributes":{"ID":186737,"DIS_CODE":0,"TOWNNAME":"麻豆區","LI":"南勢里","LIN":"10鄰","STREET":" ","SECT":" ","MAREA":"南勢","LANE":" ","ALLEY":" ","HOUSE_NO":"１號之２８","E_COORD97":174522.17999999999,"N_COORD97":2565815.27,"ADDRESS":"南勢１號之２８","OBJECTID":186736},"geometry":{"x":174522.1799999997,"y":2565815.2700000033}},{"attributes":{"ID":186738,"DIS_CODE":0,"TOWNNAME":"永康區","LI":"二王里","LIN":"5鄰","STREET":"二王路","SECT":" ","MAREA":" ","LANE":"４０巷","ALLEY":"３弄","HOUSE_NO":"１０號","E_COORD97":172945.14999999999,"N_COORD97":2546727.0099999998,"ADDRESS":"二王路４０巷３弄１０號","OBJECTID":186737},"geometry":{"x":172945.15000000037,"y":2546727.0100000016}},{"attributes":{"ID":186739,"DIS_CODE":0,"TOWNNAME":"安南區","LI":"原佃里","LIN":"5鄰","STREET":"本原街","SECT":"一段","MAREA":" ","LANE":"１８８巷","ALLEY":"６弄","HOUSE_NO":"２２號","E_COORD97":167836.25,"N_COORD97":2550198.8300000001,"ADDRESS":"本原街一段１８８巷６弄２２號","OBJECTID":186738},"geometry":{"x":167836.25,"y":2550198.8300000001}},{"attributes":{"ID":186740,"DIS_CODE":0,"TOWNNAME":"後壁區","LI":"烏樹里","LIN":"11鄰","STREET":" ","SECT":" ","MAREA":"烏樹林","LANE":" ","ALLEY":" ","HOUSE_NO":"１２６號之３","E_COORD97":186207.82000000001,"N_COORD97":2580983.23,"ADDRESS":"烏樹林１２６號之３","OBJECTID":186739},"geometry":{"x":186207.82000000123,"y":2580983.2300000023}},{"attributes":{"ID":186741,"DIS_CODE":0,"TOWNNAME":"後壁區","LI":"烏樹里","LIN":"11鄰","STREET":" ","SECT":" ","MAREA":"烏樹林","LANE":" ","ALLEY":" ","HOUSE_NO":"１２６號","E_COORD97":186211.57000000001,"N_COORD97":2581016.1000000001,"ADDRESS":"烏樹林１２６號","OBJECTID":186740},"geometry":{"x":186211.57000000123,"y":2581016.1000000015}},{"attributes":{"ID":186742,"DIS_CODE":0,"TOWNNAME":"後壁區","LI":"烏樹里","LIN":"11鄰","STREET":" ","SECT":" ","MAREA":"烏樹林","LANE":" ","ALLEY":" ","HOUSE_NO":"１２７號之１０","E_COORD97":186241.23000000001,"N_COORD97":2581052.25,"ADDRESS":"烏樹林１２７號之１０","OBJECTID":186741},"geometry":{"x":186241.23000000138,"y":2581052.2500000037}},{"attributes":{"ID":186743,"DIS_CODE":0,"TOWNNAME":"後壁區","LI":"烏樹里","LIN":"11鄰","STREET":" ","SECT":" ","MAREA":"烏樹林","LANE":" ","ALLEY":" ","HOUSE_NO":"１２７號之１１","E_COORD97":186244.85999999999,"N_COORD97":2581077.54,"ADDRESS":"烏樹林１２７號之１１","OBJECTID":186742},"geometry":{"x":186244.86000000127,"y":2581077.540000001}},{"attributes":{"ID":186744,"DIS_CODE":0,"TOWNNAME":"後壁區","LI":"烏樹里","LIN":"11鄰","STREET":" ","SECT":" ","MAREA":"烏樹林","LANE":" ","ALLEY":" ","HOUSE_NO":"１２７號之１","E_COORD97":186240.19,"N_COORD97":2581031.04,"ADDRESS":"烏樹林１２７號之１","OBJECTID":186743},"geometry":{"x":186240.19000000041,"y":2581031.0399999991}},{"attributes":{"ID":186745,"DIS_CODE":0,"TOWNNAME":"後壁區","LI":"烏樹里","LIN":"11鄰","STREET":" ","SECT":" ","MAREA":"烏樹林","LANE":" ","ALLEY":" ","HOUSE_NO":"１２９號之１","E_COORD97":186260.85999999999,"N_COORD97":2580997.7999999998,"ADDRESS":"烏樹林１２９號之１","OBJECTID":186744},"geometry":{"x":186260.86000000034,"y":2580997.8000000007}},{"attributes":{"ID":186746,"DIS_CODE":0,"TOWNNAME":"後壁區","LI":"烏樹里","LIN":"11鄰","STREET":" ","SECT":" ","MAREA":"烏樹林","LANE":" ","ALLEY":" ","HOUSE_NO":"１２９號","E_COORD97":186260.04999999999,"N_COORD97":2580983.3799999999,"ADDRESS":"烏樹林１２９號","OBJECTID":186745},"geometry":{"x":186260.05000000075,"y":2580983.3800000008}},{"attributes":{"ID":186747,"DIS_CODE":0,"TOWNNAME":"安南區","LI":"原佃里","LIN":"5鄰","STREET":"本原街","SECT":"一段","MAREA":" ","LANE":"１８８巷","ALLEY":"６弄","HOUSE_NO":"２６號","E_COORD97":167838.81,"N_COORD97":2550195.52,"ADDRESS":"本原街一段１８８巷６弄２６號","OBJECTID":186746},"geometry":{"x":167838.80999999959,"y":2550195.5200000014}},{"attributes":{"ID":186748,"DIS_CODE":0,"TOWNNAME":"後壁區","LI":"烏樹里","LIN":"11鄰","STREET":" ","SECT":" ","MAREA":"烏樹林","LANE":" ","ALLEY":" ","HOUSE_NO":"１３０號","E_COORD97":186275.98999999999,"N_COORD97":2580979.9399999999,"ADDRESS":"烏樹林１３０號","OBJECTID":186747},"geometry":{"x":186275.99000000115,"y":2580979.9400000013}},{"attributes":{"ID":186749,"DIS_CODE":0,"TOWNNAME":"後壁區","LI":"烏樹里","LIN":"11鄰","STREET":" ","SECT":" ","MAREA":"烏樹林","LANE":" ","ALLEY":" ","HOUSE_NO":"１３１號之１","E_COORD97":186292.63,"N_COORD97":2580971.1099999999,"ADDRESS":"烏樹林１３１號之１","OBJECTID":186748},"geometry":{"x":186292.62999999989,"y":2580971.1100000031}},{"attributes":{"ID":186750,"DIS_CODE":0,"TOWNNAME":"安南區","LI":"國安里","LIN":"5鄰","STREET":"國安街","SECT":" ","MAREA":" ","LANE":"１５６巷","ALLEY":"１７１弄","HOUSE_NO":"１０號","E_COORD97":166613.72,"N_COORD97":2547437.4100000001,"ADDRESS":"國安街１５６巷１７１弄１０號","OBJECTID":186749},"geometry":{"x":166613.72000000067,"y":2547437.410000002}},{"attributes":{"ID":186751,"DIS_CODE":0,"TOWNNAME":"中西區","LI":"光賢里","LIN":"5鄰","STREET":"武聖路","SECT":" ","MAREA":" ","LANE":"２７巷","ALLEY":"２６弄","HOUSE_NO":"２４號","E_COORD97":167140.79000000001,"N_COORD97":2544986.4100000001,"ADDRESS":"武聖路２７巷２６弄２４號","OBJECTID":186750},"geometry":{"x":167140.79000000097,"y":2544986.4100000001}},{"attributes":{"ID":186752,"DIS_CODE":0,"TOWNNAME":"後壁區","LI":"烏樹里","LIN":"11鄰","STREET":" ","SECT":" ","MAREA":"烏樹林","LANE":" ","ALLEY":" ","HOUSE_NO":"１３１號","E_COORD97":186292.82000000001,"N_COORD97":2580966.1899999999,"ADDRESS":"烏樹林１３１號","OBJECTID":186751},"geometry":{"x":186292.82000000123,"y":2580966.1899999995}},{"attributes":{"ID":186753,"DIS_CODE":0,"TOWNNAME":"中西區","LI":"光賢里","LIN":"5鄰","STREET":"武聖路","SECT":" ","MAREA":" ","LANE":"２７巷","ALLEY":"２６弄","HOUSE_NO":"２６號","E_COORD97":167136.76999999999,"N_COORD97":2544988.3199999998,"ADDRESS":"武聖路２７巷２６弄２６號","OBJECTID":186752},"geometry":{"x":167136.77000000048,"y":2544988.3200000003}},{"attributes":{"ID":186754,"DIS_CODE":0,"TOWNNAME":"後壁區","LI":"烏樹里","LIN":"11鄰","STREET":" ","SECT":" ","MAREA":"烏樹林","LANE":" ","ALLEY":" ","HOUSE_NO":"１３２號之１０","E_COORD97":186286.28,"N_COORD97":2581063,"ADDRESS":"烏樹林１３２號之１０","OBJECTID":186753},"geometry":{"x":186286.28000000119,"y":2581063}},{"attributes":{"ID":186755,"DIS_CODE":0,"TOWNNAME":"中西區","LI":"光賢里","LIN":"5鄰","STREET":"武聖路","SECT":" ","MAREA":" ","LANE":"２７巷","ALLEY":"２６弄","HOUSE_NO":"２８號","E_COORD97":167133.38,"N_COORD97":2544990.2200000002,"ADDRESS":"武聖路２７巷２６弄２８號","OBJECTID":186754},"geometry":{"x":167133.37999999989,"y":2544990.2200000025}},{"attributes":{"ID":186756,"DIS_CODE":0,"TOWNNAME":"中西區","LI":"光賢里","LIN":"5鄰","STREET":"武聖路","SECT":" ","MAREA":" ","LANE":"２７巷","ALLEY":"２６弄","HOUSE_NO":"３０號","E_COORD97":167129.57000000001,"N_COORD97":2544992.3399999999,"ADDRESS":"武聖路２７巷２６弄３０號","OBJECTID":186755},"geometry":{"x":167129.5700000003,"y":2544992.3400000017}},{"attributes":{"ID":186757,"DIS_CODE":0,"TOWNNAME":"中西區","LI":"光賢里","LIN":"5鄰","STREET":"武聖路","SECT":" ","MAREA":" ","LANE":"２７巷","ALLEY":"２６弄","HOUSE_NO":"３２號","E_COORD97":167126.39999999999,"N_COORD97":2544994.25,"ADDRESS":"武聖路２７巷２６弄３２號","OBJECTID":186756},"geometry":{"x":167126.4000000013,"y":2544994.25}},{"attributes":{"ID":186758,"DIS_CODE":0,"TOWNNAME":"中西區","LI":"光賢里","LIN":"5鄰","STREET":"武聖路","SECT":" ","MAREA":" ","LANE":"２７巷","ALLEY":"２６弄","HOUSE_NO":"３４號","E_COORD97":167122.59,"N_COORD97":2544996.1499999999,"ADDRESS":"武聖路２７巷２６弄３４號","OBJECTID":186757},"geometry":{"x":167122.59000000171,"y":2544996.1500000004}},{"attributes":{"ID":186759,"DIS_CODE":0,"TOWNNAME":"中西區","LI":"光賢里","LIN":"5鄰","STREET":"武聖路","SECT":" ","MAREA":" ","LANE":"２７巷","ALLEY":"２６弄","HOUSE_NO":"３６號","E_COORD97":167118.98999999999,"N_COORD97":2544998.27,"ADDRESS":"武聖路２７巷２６弄３６號","OBJECTID":186758},"geometry":{"x":167118.99000000115,"y":2544998.2700000033}},{"attributes":{"ID":186760,"DIS_CODE":0,"TOWNNAME":"中西區","LI":"光賢里","LIN":"5鄰","STREET":"武聖路","SECT":" ","MAREA":" ","LANE":"２７巷","ALLEY":"２６弄","HOUSE_NO":"３８號","E_COORD97":167115.17999999999,"N_COORD97":2545000.1699999999,"ADDRESS":"武聖路２７巷２６弄３８號","OBJECTID":186759},"geometry":{"x":167115.18000000063,"y":2545000.1700000018}},{"attributes":{"ID":186761,"DIS_CODE":0,"TOWNNAME":"中西區","LI":"光賢里","LIN":"5鄰","STREET":"武聖路","SECT":" ","MAREA":" ","LANE":"４５巷","ALLEY":"２４弄","HOUSE_NO":"１１號","E_COORD97":167137.16,"N_COORD97":2545047.5899999999,"ADDRESS":"武聖路４５巷２４弄１１號","OBJECTID":186760},"geometry":{"x":167137.16000000015,"y":2545047.5900000036}},{"attributes":{"ID":186762,"DIS_CODE":0,"TOWNNAME":"中西區","LI":"光賢里","LIN":"5鄰","STREET":"武聖路","SECT":" ","MAREA":" ","LANE":"４５巷","ALLEY":"２４弄","HOUSE_NO":"１３號","E_COORD97":167134.76000000001,"N_COORD97":2545043.6000000001,"ADDRESS":"武聖路４５巷２４弄１３號","OBJECTID":186761},"geometry":{"x":167134.75999999885,"y":2545043.6000000034}},{"attributes":{"ID":186763,"DIS_CODE":0,"TOWNNAME":"中西區","LI":"光賢里","LIN":"5鄰","STREET":"武聖路","SECT":" ","MAREA":" ","LANE":"４５巷","ALLEY":"２４弄","HOUSE_NO":"１號","E_COORD97":167213.17999999999,"N_COORD97":2545090.77,"ADDRESS":"武聖路４５巷２４弄１號","OBJECTID":186762},"geometry":{"x":167213.17999999877,"y":2545090.7700000014}},{"attributes":{"ID":186764,"DIS_CODE":0,"TOWNNAME":"中西區","LI":"光賢里","LIN":"5鄰","STREET":"武聖路","SECT":" ","MAREA":" ","LANE":"４５巷","ALLEY":"２４弄","HOUSE_NO":"３號","E_COORD97":167148.75,"N_COORD97":2545019.6299999999,"ADDRESS":"武聖路４５巷２４弄３號","OBJECTID":186763},"geometry":{"x":167148.75000000186,"y":2545019.6300000008}},{"attributes":{"ID":186765,"DIS_CODE":0,"TOWNNAME":"中西區","LI":"光賢里","LIN":"5鄰","STREET":"武聖路","SECT":" ","MAREA":" ","LANE":"４５巷","ALLEY":"２４弄","HOUSE_NO":"５號","E_COORD97":167147.54999999999,"N_COORD97":2545014.8399999999,"ADDRESS":"武聖路４５巷２４弄５號","OBJECTID":186764},"geometry":{"x":167147.54999999981,"y":2545014.8399999999}},{"attributes":{"ID":186766,"DIS_CODE":0,"TOWNNAME":"中西區","LI":"光賢里","LIN":"5鄰","STREET":"武聖路","SECT":" ","MAREA":" ","LANE":"４５巷","ALLEY":"２４弄","HOUSE_NO":"７號","E_COORD97":167143.56,"N_COORD97":2545040.3999999999,"ADDRESS":"武聖路４５巷２４弄７號","OBJECTID":186765},"geometry":{"x":167143.56000000052,"y":2545040.4000000022}},{"attributes":{"ID":186767,"DIS_CODE":0,"TOWNNAME":"中西區","LI":"光賢里","LIN":"5鄰","STREET":"武聖路","SECT":" ","MAREA":" ","LANE":"４５巷","ALLEY":"２４弄","HOUSE_NO":"９號","E_COORD97":167143.16,"N_COORD97":2545043.6000000001,"ADDRESS":"武聖路４５巷２４弄９號","OBJECTID":186766},"geometry":{"x":167143.16000000108,"y":2545043.6000000034}},{"attributes":{"ID":186768,"DIS_CODE":0,"TOWNNAME":"永康區","LI":"龍潭里","LIN":"10鄰","STREET":"龍潭街","SECT":" ","MAREA":" ","LANE":" ","ALLEY":" ","HOUSE_NO":"２０６號","E_COORD97":174905.10999999999,"N_COORD97":2548245.1200000001,"ADDRESS":"龍潭街２０６號","OBJECTID":186767},"geometry":{"x":174905.11000000034,"y":2548245.120000001}},{"attributes":{"ID":186769,"DIS_CODE":0,"TOWNNAME":"永康區","LI":"中華里","LIN":"5鄰","STREET":"小東路","SECT":" ","MAREA":" ","LANE":"６４７巷","ALLEY":"３６弄","HOUSE_NO":"６號","E_COORD97":171976.28,"N_COORD97":2544466.3399999999,"ADDRESS":"小東路６４７巷３６弄６號","OBJECTID":186768},"geometry":{"x":171976.28000000026,"y":2544466.3400000017}},{"attributes":{"ID":186770,"DIS_CODE":0,"TOWNNAME":"永康區","LI":"中華里","LIN":"5鄰","STREET":"小東路","SECT":" ","MAREA":" ","LANE":"６４７巷","ALLEY":"３６弄","HOUSE_NO":"４號","E_COORD97":171972.04000000001,"N_COORD97":2544466.3399999999,"ADDRESS":"小東路６４７巷３６弄４號","OBJECTID":186769},"geometry":{"x":171972.04000000097,"y":2544466.3400000017}},{"attributes":{"ID":186771,"DIS_CODE":0,"TOWNNAME":"中西區","LI":"西湖里","LIN":"5鄰","STREET":"頂美一街","SECT":" ","MAREA":" ","LANE":"４８巷","ALLEY":"１３弄","HOUSE_NO":"２號","E_COORD97":166383.64999999999,"N_COORD97":2544582.3700000001,"ADDRESS":"頂美一街４８巷１３弄２號","OBJECTID":186770},"geometry":{"x":166383.65000000224,"y":2544582.3700000048}},{"attributes":{"ID":186772,"DIS_CODE":0,"TOWNNAME":"中西區","LI":"西湖里","LIN":"5鄰","STREET":"頂美一街","SECT":" ","MAREA":" ","LANE":"４８巷","ALLEY":"１３弄","HOUSE_NO":"４號","E_COORD97":166384.87,"N_COORD97":2544597.9199999999,"ADDRESS":"頂美一街４８巷１３弄４號","OBJECTID":186771},"geometry":{"x":166384.87000000011,"y":2544597.9200000037}},{"attributes":{"ID":186773,"DIS_CODE":0,"TOWNNAME":"中西區","LI":"西湖里","LIN":"5鄰","STREET":"頂美一街","SECT":" ","MAREA":" ","LANE":"４８巷","ALLEY":"３弄","HOUSE_NO":"１０號","E_COORD97":166368.56,"N_COORD97":2544596.71,"ADDRESS":"頂美一街４８巷３弄１０號","OBJECTID":186772},"geometry":{"x":166368.56000000052,"y":2544596.7100000046}},{"attributes":{"ID":186774,"DIS_CODE":0,"TOWNNAME":"中西區","LI":"西湖里","LIN":"5鄰","STREET":"頂美一街","SECT":" ","MAREA":" ","LANE":"４８巷","ALLEY":"３弄","HOUSE_NO":"１２號","E_COORD97":166360.29000000001,"N_COORD97":2544595.98,"ADDRESS":"頂美一街４８巷３弄１２號","OBJECTID":186773},"geometry":{"x":166360.2900000019,"y":2544595.9800000023}},{"attributes":{"ID":186775,"DIS_CODE":0,"TOWNNAME":"中西區","LI":"西湖里","LIN":"5鄰","STREET":"頂美一街","SECT":" ","MAREA":" ","LANE":"４８巷","ALLEY":"３弄","HOUSE_NO":"１４號","E_COORD97":166351.76999999999,"N_COORD97":2544596.9500000002,"ADDRESS":"頂美一街４８巷３弄１４號","OBJECTID":186774},"geometry":{"x":166351.77000000048,"y":2544596.950000003}},{"attributes":{"ID":186776,"DIS_CODE":0,"TOWNNAME":"中西區","LI":"西湖里","LIN":"5鄰","STREET":"頂美一街","SECT":" ","MAREA":" ","LANE":"４８巷","ALLEY":"３弄","HOUSE_NO":"１６號","E_COORD97":166343.73999999999,"N_COORD97":2544596.46,"ADDRESS":"頂美一街４８巷３弄１６號","OBJECTID":186775},"geometry":{"x":166343.73999999929,"y":2544596.4600000028}},{"attributes":{"ID":186777,"DIS_CODE":0,"TOWNNAME":"中西區","LI":"西湖里","LIN":"5鄰","STREET":"頂美一街","SECT":" ","MAREA":" ","LANE":"４８巷","ALLEY":"３弄","HOUSE_NO":"２號","E_COORD97":166343.73999999999,"N_COORD97":2544580.6699999999,"ADDRESS":"頂美一街４８巷３弄２號","OBJECTID":186776},"geometry":{"x":166343.73999999929,"y":2544580.6700000018}},{"attributes":{"ID":186778,"DIS_CODE":0,"TOWNNAME":"中西區","LI":"西湖里","LIN":"5鄰","STREET":"頂美一街","SECT":" ","MAREA":" ","LANE":"４８巷","ALLEY":"３弄","HOUSE_NO":"３號","E_COORD97":166327.44,"N_COORD97":2544594.0299999998,"ADDRESS":"頂美一街４８巷３弄３號","OBJECTID":186777},"geometry":{"x":166327.44000000227,"y":2544594.0300000012}},{"attributes":{"ID":186779,"DIS_CODE":0,"TOWNNAME":"中西區","LI":"西湖里","LIN":"5鄰","STREET":"頂美一街","SECT":" ","MAREA":" ","LANE":"４８巷","ALLEY":"３弄","HOUSE_NO":"４號","E_COORD97":166352.01999999999,"N_COORD97":2544580.9100000001,"ADDRESS":"頂美一街４８巷３弄４號","OBJECTID":186778},"geometry":{"x":166352.02000000048,"y":2544580.9100000039}},{"attributes":{"ID":186780,"DIS_CODE":0,"TOWNNAME":"中西區","LI":"西湖里","LIN":"5鄰","STREET":"頂美一街","SECT":" ","MAREA":" ","LANE":"４８巷","ALLEY":"３弄","HOUSE_NO":"６號","E_COORD97":166360.04999999999,"N_COORD97":2544581.8799999999,"ADDRESS":"頂美一街４８巷３弄６號","OBJECTID":186779},"geometry":{"x":166360.05000000168,"y":2544581.879999999}},{"attributes":{"ID":186781,"DIS_CODE":0,"TOWNNAME":"仁德區","LI":"仁德里","LIN":"5鄰","STREET":"仁德四街","SECT":" ","MAREA":" ","LANE":"１２巷","ALLEY":"１弄","HOUSE_NO":"１２號","E_COORD97":173210.47,"N_COORD97":2540851.5499999998,"ADDRESS":"仁德四街１２巷１弄１２號","OBJECTID":186780},"geometry":{"x":173210.46999999974,"y":2540851.5500000045}},{"attributes":{"ID":186782,"DIS_CODE":0,"TOWNNAME":"仁德區","LI":"仁德里","LIN":"5鄰","STREET":"仁德四街","SECT":" ","MAREA":" ","LANE":"１２巷","ALLEY":"１５弄","HOUSE_NO":"２１號","E_COORD97":173181.98000000001,"N_COORD97":2540871.54,"ADDRESS":"仁德四街１２巷１５弄２１號","OBJECTID":186781},"geometry":{"x":173181.98000000045,"y":2540871.540000001}},{"attributes":{"ID":186783,"DIS_CODE":0,"TOWNNAME":"仁德區","LI":"仁德里","LIN":"5鄰","STREET":"仁德四街","SECT":" ","MAREA":" ","LANE":"１２巷","ALLEY":"１５弄","HOUSE_NO":"２２號","E_COORD97":173201.45999999999,"N_COORD97":2540887.29,"ADDRESS":"仁德四街１２巷１５弄２２號","OBJECTID":186782},"geometry":{"x":173201.46000000089,"y":2540887.2899999991}},{"attributes":{"ID":186784,"DIS_CODE":0,"TOWNNAME":"麻豆區","LI":"巷口里","LIN":"10鄰","STREET":" ","SECT":" ","MAREA":"柯厝","LANE":" ","ALLEY":" ","HOUSE_NO":"１０號之１２","E_COORD97":173369.12,"N_COORD97":2564195.3500000001,"ADDRESS":"柯厝１０號之１２","OBJECTID":186783},"geometry":{"x":173369.12000000011,"y":2564195.3500000015}},{"attributes":{"ID":186785,"DIS_CODE":0,"TOWNNAME":"麻豆區","LI":"巷口里","LIN":"10鄰","STREET":" ","SECT":" ","MAREA":"柯厝","LANE":" ","ALLEY":" ","HOUSE_NO":"１０號之１６","E_COORD97":173366.39999999999,"N_COORD97":2564210.9399999999,"ADDRESS":"柯厝１０號之１６","OBJECTID":186784},"geometry":{"x":173366.4000000013,"y":2564210.9400000013}},{"attributes":{"ID":186786,"DIS_CODE":0,"TOWNNAME":"麻豆區","LI":"巷口里","LIN":"10鄰","STREET":" ","SECT":" ","MAREA":"柯厝","LANE":" ","ALLEY":" ","HOUSE_NO":"１０號之１８","E_COORD97":173365.17999999999,"N_COORD97":2564218.7599999998,"ADDRESS":"柯厝１０號之１８","OBJECTID":186785},"geometry":{"x":173365.18000000156,"y":2564218.7600000035}},{"attributes":{"ID":186787,"DIS_CODE":0,"TOWNNAME":"麻豆區","LI":"巷口里","LIN":"10鄰","STREET":" ","SECT":" ","MAREA":"柯厝","LANE":" ","ALLEY":" ","HOUSE_NO":"１０號之１","E_COORD97":173315.72,"N_COORD97":2564194.1699999999,"ADDRESS":"柯厝１０號之１","OBJECTID":186786},"geometry":{"x":173315.7200000016,"y":2564194.1699999999}},{"attributes":{"ID":186788,"DIS_CODE":0,"TOWNNAME":"麻豆區","LI":"巷口里","LIN":"10鄰","STREET":" ","SECT":" ","MAREA":"柯厝","LANE":" ","ALLEY":" ","HOUSE_NO":"１０號之２","E_COORD97":173321.45999999999,"N_COORD97":2564194.1600000001,"ADDRESS":"柯厝１０號之２","OBJECTID":186787},"geometry":{"x":173321.46000000089,"y":2564194.160000002}},{"attributes":{"ID":186789,"DIS_CODE":0,"TOWNNAME":"麻豆區","LI":"巷口里","LIN":"10鄰","STREET":" ","SECT":" ","MAREA":"柯厝","LANE":" ","ALLEY":" ","HOUSE_NO":"１０號之３","E_COORD97":173316.17999999999,"N_COORD97":2564207.52,"ADDRESS":"柯厝１０號之３","OBJECTID":186788},"geometry":{"x":173316.18000000063,"y":2564207.5200000014}},{"attributes":{"ID":186790,"DIS_CODE":0,"TOWNNAME":"麻豆區","LI":"巷口里","LIN":"10鄰","STREET":" ","SECT":" ","MAREA":"柯厝","LANE":" ","ALLEY":" ","HOUSE_NO":"１０號之４","E_COORD97":173315.95999999999,"N_COORD97":2564212.7400000002,"ADDRESS":"柯厝１０號之４","OBJECTID":186789},"geometry":{"x":173315.95999999903,"y":2564212.7400000039}},{"attributes":{"ID":186791,"DIS_CODE":0,"TOWNNAME":"麻豆區","LI":"巷口里","LIN":"10鄰","STREET":" ","SECT":" ","MAREA":"柯厝","LANE":" ","ALLEY":" ","HOUSE_NO":"１０號之５","E_COORD97":173330.63,"N_COORD97":2564214.8300000001,"ADDRESS":"柯厝１０號之５","OBJECTID":186790},"geometry":{"x":173330.63000000082,"y":2564214.8300000001}},{"attributes":{"ID":186792,"DIS_CODE":0,"TOWNNAME":"麻豆區","LI":"巷口里","LIN":"10鄰","STREET":" ","SECT":" ","MAREA":"柯厝","LANE":" ","ALLEY":" ","HOUSE_NO":"１０號之６","E_COORD97":173330.79999999999,"N_COORD97":2564207.0099999998,"ADDRESS":"柯厝１０號之６","OBJECTID":186791},"geometry":{"x":173330.80000000075,"y":2564207.0100000035}},{"attributes":{"ID":186793,"DIS_CODE":0,"TOWNNAME":"後壁區","LI":"烏樹里","LIN":"11鄰","STREET":" ","SECT":" ","MAREA":"烏樹林","LANE":" ","ALLEY":" ","HOUSE_NO":"１３２號之１１","E_COORD97":186282.78,"N_COORD97":2581062.6000000001,"ADDRESS":"烏樹林１３２號之１１","OBJECTID":186792},"geometry":{"x":186282.78000000119,"y":2581062.5999999996}},{"attributes":{"ID":186794,"DIS_CODE":0,"TOWNNAME":"仁德區","LI":"仁德里","LIN":"5鄰","STREET":"仁德四街","SECT":" ","MAREA":" ","LANE":"１２巷","ALLEY":"１弄","HOUSE_NO":"６號","E_COORD97":173222.67000000001,"N_COORD97":2540856.0499999998,"ADDRESS":"仁德四街１２巷１弄６號","OBJECTID":186793},"geometry":{"x":173222.66999999993,"y":2540856.0500000026}},{"attributes":{"ID":186795,"DIS_CODE":0,"TOWNNAME":"安南區","LI":"國安里","LIN":"5鄰","STREET":"國安街","SECT":" ","MAREA":" ","LANE":"１５６巷","ALLEY":"１７１弄","HOUSE_NO":"３３號","E_COORD97":166568.73999999999,"N_COORD97":2547402.8599999999,"ADDRESS":"國安街１５６巷１７１弄３３號","OBJECTID":186794},"geometry":{"x":166568.74000000022,"y":2547402.8600000013}},{"attributes":{"ID":186796,"DIS_CODE":0,"TOWNNAME":"仁德區","LI":"一甲里","LIN":"10鄰","STREET":"忠義路","SECT":" ","MAREA":" ","LANE":" ","ALLEY":" ","HOUSE_NO":"２６０號","E_COORD97":173576.48999999999,"N_COORD97":2541927.7599999998,"ADDRESS":"忠義路２６０號","OBJECTID":186795},"geometry":{"x":173576.49000000022,"y":2541927.7600000016}},{"attributes":{"ID":186797,"DIS_CODE":0,"TOWNNAME":"東區","LI":"富強里","LIN":"5鄰","STREET":"東門路","SECT":"二段","MAREA":" ","LANE":"３０１巷","ALLEY":"９０弄","HOUSE_NO":"２２號","E_COORD97":170955.66,"N_COORD97":2542669.04,"ADDRESS":"東門路二段３０１巷９０弄２２號","OBJECTID":186796},"geometry":{"x":170955.66000000108,"y":2542669.0399999991}},{"attributes":{"ID":186798,"DIS_CODE":0,"TOWNNAME":"東區","LI":"富強里","LIN":"5鄰","STREET":"東門路","SECT":"二段","MAREA":" ","LANE":"３０１巷","ALLEY":"１２０弄","HOUSE_NO":"１８號","E_COORD97":171023.76999999999,"N_COORD97":2542689.2200000002,"ADDRESS":"東門路二段３０１巷１２０弄１８號","OBJECTID":186797},"geometry":{"x":171023.77000000048,"y":2542689.2200000025}},{"attributes":{"ID":186799,"DIS_CODE":0,"TOWNNAME":"仁德區","LI":"上崙里","LIN":"10鄰","STREET":"德善路","SECT":" ","MAREA":" ","LANE":" ","ALLEY":" ","HOUSE_NO":"３５３號","E_COORD97":173993.29000000001,"N_COORD97":2538423.7599999998,"ADDRESS":"德善路３５３號","OBJECTID":186798},"geometry":{"x":173993.29000000004,"y":2538423.7599999998}},{"attributes":{"ID":186800,"DIS_CODE":0,"TOWNNAME":"東區","LI":"富強里","LIN":"5鄰","STREET":"東門路","SECT":"二段","MAREA":" ","LANE":"３０１巷","ALLEY":"１２０弄","HOUSE_NO":"３６號","E_COORD97":170981.87,"N_COORD97":2542690.54,"ADDRESS":"東門路二段３０１巷１２０弄３６號","OBJECTID":186799},"geometry":{"x":170981.87000000011,"y":2542690.5400000028}},{"attributes":{"ID":186801,"DIS_CODE":0,"TOWNNAME":"東區","LI":"富強里","LIN":"5鄰","STREET":"東門路","SECT":"二段","MAREA":" ","LANE":"３０１巷","ALLEY":"１２０弄","HOUSE_NO":"３８號","E_COORD97":170977.57999999999,"N_COORD97":2542689.8500000001,"ADDRESS":"東門路二段３０１巷１２０弄３８號","OBJECTID":186800},"geometry":{"x":170977.57999999914,"y":2542689.8500000015}}]}