{"displayFieldName":"TOWNNAME","fieldAliases":{"ID":"ID","DIS_CODE":"DIS_CODE","TOWNNAME":"TOWNNAME","LI":"LI","LIN":"LIN","STREET":"STREET","SECT":"SECT","MAREA":"MAREA","LANE":"LANE","ALLEY":"ALLEY","HOUSE_NO":"HOUSE_NO","E_COORD97":"E_COORD97","N_COORD97":"N_COORD97","ADDRESS":"ADDRESS","OBJECTID":"OBJECTID"},"geometryType":"esriGeometryPoint","spatialReference":{"wkid":102443,"latestWkid":3826},"fields":[{"name":"ID","type":"esriFieldTypeDouble","alias":"ID"},{"name":"DIS_CODE","type":"esriFieldTypeInteger","alias":"DIS_CODE"},{"name":"TOWNNAME","type":"esriFieldTypeString","alias":"TOWNNAME","length":8},{"name":"LI","type":"esriFieldTypeString","alias":"LI","length":8},{"name":"LIN","type":"esriFieldTypeString","alias":"LIN","length":12},{"name":"STREET","type":"esriFieldTypeString","alias":"STREET","length":20},{"name":"SECT","type":"esriFieldTypeString","alias":"SECT","length":8},{"name":"MAREA","type":"esriFieldTypeString","alias":"MAREA","length":12},{"name":"LANE","type":"esriFieldTypeString","alias":"LANE","length":10},{"name":"ALLEY","type":"esriFieldTypeString","alias":"ALLEY","length":10},{"name":"HOUSE_NO","type":"esriFieldTypeString","alias":"HOUSE_NO","length":20},{"name":"E_COORD97","type":"esriFieldTypeDouble","alias":"E_COORD97"},{"name":"N_COORD97","type":"esriFieldTypeDouble","alias":"N_COORD97"},{"name":"ADDRESS","type":"esriFieldTypeString","alias":"ADDRESS","length":50},{"name":"OBJECTID","type":"esriFieldTypeOID","alias":"OBJECTID"}],"features":[{"attributes":{"ID":296009,"DIS_CODE":0,"TOWNNAME":"白河區","LI":"仙草里","LIN":"13鄰","STREET":" ","SECT":" ","MAREA":"白水溪","LANE":" ","ALLEY":" ","HOUSE_NO":"２９之１號","E_COORD97":197091.01000000001,"N_COORD97":2583491.9300000002,"ADDRESS":"白水溪２９之１號","OBJECTID":296001},"geometry":{"x":197091.01000000071,"y":2583491.9300000034}},{"attributes":{"ID":296010,"DIS_CODE":0,"TOWNNAME":"白河區","LI":"竹門里","LIN":"8鄰","STREET":" ","SECT":" ","MAREA":"竹子門","LANE":" ","ALLEY":" ","HOUSE_NO":"９０號","E_COORD97":193434.59,"N_COORD97":2586323.2000000002,"ADDRESS":"竹子門９０號","OBJECTID":296002},"geometry":{"x":193434.58999999985,"y":2586323.1999999993}},{"attributes":{"ID":296011,"DIS_CODE":0,"TOWNNAME":"白河區","LI":"竹門里","LIN":"8鄰","STREET":" ","SECT":" ","MAREA":"竹子門","LANE":" ","ALLEY":" ","HOUSE_NO":"９２號","E_COORD97":193465.60000000001,"N_COORD97":2586251.6000000001,"ADDRESS":"竹子門９２號","OBJECTID":296003},"geometry":{"x":193465.60000000149,"y":2586251.6000000015}},{"attributes":{"ID":296012,"DIS_CODE":0,"TOWNNAME":"白河區","LI":"竹門里","LIN":"8鄰","STREET":" ","SECT":" ","MAREA":"竹子門","LANE":" ","ALLEY":" ","HOUSE_NO":"９３號","E_COORD97":193479.87,"N_COORD97":2586165.4399999999,"ADDRESS":"竹子門９３號","OBJECTID":296004},"geometry":{"x":193479.87000000104,"y":2586165.4399999995}},{"attributes":{"ID":296013,"DIS_CODE":0,"TOWNNAME":"白河區","LI":"竹門里","LIN":"8鄰","STREET":" ","SECT":" ","MAREA":"竹子門","LANE":" ","ALLEY":" ","HOUSE_NO":"９４之２號","E_COORD97":193454.79999999999,"N_COORD97":2586147.3599999999,"ADDRESS":"竹子門９４之２號","OBJECTID":296005},"geometry":{"x":193454.80000000075,"y":2586147.3600000013}},{"attributes":{"ID":296014,"DIS_CODE":0,"TOWNNAME":"白河區","LI":"竹門里","LIN":"8鄰","STREET":" ","SECT":" ","MAREA":"竹子門","LANE":" ","ALLEY":" ","HOUSE_NO":"９４之５號","E_COORD97":193473.42000000001,"N_COORD97":2586164.9100000001,"ADDRESS":"竹子門９４之５號","OBJECTID":296006},"geometry":{"x":193473.41999999993,"y":2586164.910000002}},{"attributes":{"ID":296015,"DIS_CODE":0,"TOWNNAME":"白河區","LI":"竹門里","LIN":"8鄰","STREET":" ","SECT":" ","MAREA":"竹子門","LANE":" ","ALLEY":" ","HOUSE_NO":"９４之６號","E_COORD97":193469.29000000001,"N_COORD97":2586163.7400000002,"ADDRESS":"竹子門９４之６號","OBJECTID":296007},"geometry":{"x":193469.29000000004,"y":2586163.7400000002}},{"attributes":{"ID":296016,"DIS_CODE":0,"TOWNNAME":"白河區","LI":"竹門里","LIN":"8鄰","STREET":" ","SECT":" ","MAREA":"竹子門","LANE":" ","ALLEY":" ","HOUSE_NO":"９４號","E_COORD97":193461.47,"N_COORD97":2586184.6899999999,"ADDRESS":"竹子門９４號","OBJECTID":296008},"geometry":{"x":193461.4700000016,"y":2586184.6899999995}},{"attributes":{"ID":296017,"DIS_CODE":0,"TOWNNAME":"白河區","LI":"竹門里","LIN":"8鄰","STREET":" ","SECT":" ","MAREA":"竹子門","LANE":" ","ALLEY":" ","HOUSE_NO":"１００之１號","E_COORD97":193411.78,"N_COORD97":2586171.1000000001,"ADDRESS":"竹子門１００之１號","OBJECTID":296009},"geometry":{"x":193411.78000000026,"y":2586171.0999999996}},{"attributes":{"ID":296018,"DIS_CODE":0,"TOWNNAME":"白河區","LI":"竹門里","LIN":"4鄰","STREET":" ","SECT":" ","MAREA":"竹子門","LANE":" ","ALLEY":" ","HOUSE_NO":"４６之１號","E_COORD97":193571.48000000001,"N_COORD97":2586174.5899999999,"ADDRESS":"竹子門４６之１號","OBJECTID":296010},"geometry":{"x":193571.48000000045,"y":2586174.5899999999}},{"attributes":{"ID":296019,"DIS_CODE":0,"TOWNNAME":"白河區","LI":"竹門里","LIN":"4鄰","STREET":" ","SECT":" ","MAREA":"竹子門","LANE":" ","ALLEY":" ","HOUSE_NO":"４６之２號","E_COORD97":193564.98999999999,"N_COORD97":2586174.3900000001,"ADDRESS":"竹子門４６之２號","OBJECTID":296011},"geometry":{"x":193564.99000000022,"y":2586174.3900000006}},{"attributes":{"ID":296020,"DIS_CODE":0,"TOWNNAME":"白河區","LI":"竹門里","LIN":"4鄰","STREET":" ","SECT":" ","MAREA":"竹子門","LANE":" ","ALLEY":" ","HOUSE_NO":"４６號","E_COORD97":193576.79999999999,"N_COORD97":2586174.1699999999,"ADDRESS":"竹子門４６號","OBJECTID":296012},"geometry":{"x":193576.80000000075,"y":2586174.1699999999}},{"attributes":{"ID":296021,"DIS_CODE":0,"TOWNNAME":"白河區","LI":"竹門里","LIN":"4鄰","STREET":" ","SECT":" ","MAREA":"竹子門","LANE":" ","ALLEY":" ","HOUSE_NO":"４７之１號","E_COORD97":193557.20999999999,"N_COORD97":2586184.29,"ADDRESS":"竹子門４７之１號","OBJECTID":296013},"geometry":{"x":193557.21000000089,"y":2586184.2900000028}},{"attributes":{"ID":296022,"DIS_CODE":0,"TOWNNAME":"歸仁區","LI":"新厝里","LIN":"17鄰","STREET":"中正南路","SECT":"一段","MAREA":" ","LANE":"１３１巷","ALLEY":" ","HOUSE_NO":"３６號","E_COORD97":177536.17000000001,"N_COORD97":2540376.3999999999,"ADDRESS":"中正南路一段１３１巷３６號","OBJECTID":296014},"geometry":{"x":177536.17000000086,"y":2540376.4000000004}},{"attributes":{"ID":296023,"DIS_CODE":0,"TOWNNAME":"歸仁區","LI":"歸仁里","LIN":"17鄰","STREET":"信義北路","SECT":" ","MAREA":" ","LANE":"８２巷","ALLEY":" ","HOUSE_NO":"２０號","E_COORD97":178074.76000000001,"N_COORD97":2540960.6800000002,"ADDRESS":"信義北路８２巷２０號","OBJECTID":296015},"geometry":{"x":178074.76000000071,"y":2540960.6799999997}},{"attributes":{"ID":296024,"DIS_CODE":0,"TOWNNAME":"白河區","LI":"竹門里","LIN":"4鄰","STREET":" ","SECT":" ","MAREA":"竹子門","LANE":" ","ALLEY":" ","HOUSE_NO":"４７號","E_COORD97":193535.82000000001,"N_COORD97":2586178.7000000002,"ADDRESS":"竹子門４７號","OBJECTID":296016},"geometry":{"x":193535.82000000216,"y":2586178.7000000011}},{"attributes":{"ID":296025,"DIS_CODE":0,"TOWNNAME":"永康區","LI":"正強里","LIN":"38鄰","STREET":"正強街","SECT":" ","MAREA":" ","LANE":"３０５巷","ALLEY":" ","HOUSE_NO":"４６號","E_COORD97":173168.16,"N_COORD97":2548064.9900000002,"ADDRESS":"正強街３０５巷４６號","OBJECTID":296017},"geometry":{"x":173168.16000000108,"y":2548064.9900000002}},{"attributes":{"ID":296026,"DIS_CODE":0,"TOWNNAME":"歸仁區","LI":"歸仁里","LIN":"17鄰","STREET":"信義北路","SECT":" ","MAREA":" ","LANE":"８２巷","ALLEY":" ","HOUSE_NO":"１３號","E_COORD97":178072.85999999999,"N_COORD97":2540988.6800000002,"ADDRESS":"信義北路８２巷１３號","OBJECTID":296018},"geometry":{"x":178072.86000000127,"y":2540988.6800000016}},{"attributes":{"ID":296027,"DIS_CODE":0,"TOWNNAME":"歸仁區","LI":"新厝里","LIN":"17鄰","STREET":"中正南路","SECT":"一段","MAREA":" ","LANE":"１３１巷","ALLEY":" ","HOUSE_NO":"８號","E_COORD97":177510.81,"N_COORD97":2540419.7400000002,"ADDRESS":"中正南路一段１３１巷８號","OBJECTID":296019},"geometry":{"x":177510.81000000052,"y":2540419.7400000021}},{"attributes":{"ID":296028,"DIS_CODE":0,"TOWNNAME":"白河區","LI":"竹門里","LIN":"4鄰","STREET":" ","SECT":" ","MAREA":"竹子門","LANE":" ","ALLEY":" ","HOUSE_NO":"４９號","E_COORD97":193521.01999999999,"N_COORD97":2586182.7000000002,"ADDRESS":"竹子門４９號","OBJECTID":296020},"geometry":{"x":193521.02000000048,"y":2586182.7000000011}},{"attributes":{"ID":296029,"DIS_CODE":0,"TOWNNAME":"白河區","LI":"竹門里","LIN":"4鄰","STREET":" ","SECT":" ","MAREA":"竹子門","LANE":" ","ALLEY":" ","HOUSE_NO":"５０號","E_COORD97":193529.89000000001,"N_COORD97":2586196.4900000002,"ADDRESS":"竹子門５０號","OBJECTID":296021},"geometry":{"x":193529.8900000006,"y":2586196.4900000002}},{"attributes":{"ID":296030,"DIS_CODE":0,"TOWNNAME":"白河區","LI":"竹門里","LIN":"4鄰","STREET":" ","SECT":" ","MAREA":"竹子門","LANE":" ","ALLEY":" ","HOUSE_NO":"５１號","E_COORD97":193538.22,"N_COORD97":2586204.1200000001,"ADDRESS":"竹子門５１號","OBJECTID":296022},"geometry":{"x":193538.22000000067,"y":2586204.1200000048}},{"attributes":{"ID":296031,"DIS_CODE":0,"TOWNNAME":"白河區","LI":"竹門里","LIN":"4鄰","STREET":" ","SECT":" ","MAREA":"竹子門","LANE":" ","ALLEY":" ","HOUSE_NO":"５２號","E_COORD97":193558.57999999999,"N_COORD97":2586199.9100000001,"ADDRESS":"竹子門５２號","OBJECTID":296023},"geometry":{"x":193558.58000000007,"y":2586199.9100000001}},{"attributes":{"ID":296032,"DIS_CODE":0,"TOWNNAME":"白河區","LI":"竹門里","LIN":"4鄰","STREET":" ","SECT":" ","MAREA":"竹子門","LANE":" ","ALLEY":" ","HOUSE_NO":"５３號","E_COORD97":193579.85000000001,"N_COORD97":2586191.2200000002,"ADDRESS":"竹子門５３號","OBJECTID":296024},"geometry":{"x":193579.85000000056,"y":2586191.2200000025}},{"attributes":{"ID":296033,"DIS_CODE":0,"TOWNNAME":"歸仁區","LI":"新厝里","LIN":"17鄰","STREET":"中正南路","SECT":"一段","MAREA":" ","LANE":"１５３巷","ALLEY":" ","HOUSE_NO":"１５號","E_COORD97":177502.37,"N_COORD97":2540386.3999999999,"ADDRESS":"中正南路一段１５３巷１５號","OBJECTID":296025},"geometry":{"x":177502.37000000197,"y":2540386.4000000004}},{"attributes":{"ID":296034,"DIS_CODE":0,"TOWNNAME":"新化區","LI":"太平里","LIN":"14鄰","STREET":"太平街","SECT":" ","MAREA":" ","LANE":" ","ALLEY":" ","HOUSE_NO":"６４號之６","E_COORD97":178740.32000000001,"N_COORD97":2548775.2599999998,"ADDRESS":"太平街６４號之６","OBJECTID":296026},"geometry":{"x":178740.32000000216,"y":2548775.2599999998}},{"attributes":{"ID":296035,"DIS_CODE":0,"TOWNNAME":"白河區","LI":"竹門里","LIN":"4鄰","STREET":" ","SECT":" ","MAREA":"竹子門","LANE":" ","ALLEY":" ","HOUSE_NO":"５８之８號","E_COORD97":193670.60000000001,"N_COORD97":2586160.6800000002,"ADDRESS":"竹子門５８之８號","OBJECTID":296027},"geometry":{"x":193670.60000000149,"y":2586160.6799999997}},{"attributes":{"ID":296036,"DIS_CODE":0,"TOWNNAME":"白河區","LI":"竹門里","LIN":"4鄰","STREET":" ","SECT":" ","MAREA":"竹子門","LANE":" ","ALLEY":" ","HOUSE_NO":"５８之９號","E_COORD97":193671.97,"N_COORD97":2586155.6499999999,"ADDRESS":"竹子門５８之９號","OBJECTID":296028},"geometry":{"x":193671.97000000067,"y":2586155.6499999985}},{"attributes":{"ID":296037,"DIS_CODE":0,"TOWNNAME":"永康區","LI":"正強里","LIN":"14鄰","STREET":"自強路","SECT":" ","MAREA":" ","LANE":"１８８巷","ALLEY":" ","HOUSE_NO":"６９號","E_COORD97":173234.12,"N_COORD97":2547299.0800000001,"ADDRESS":"自強路１８８巷６９號","OBJECTID":296029},"geometry":{"x":173234.12000000104,"y":2547299.0800000038}},{"attributes":{"ID":296038,"DIS_CODE":0,"TOWNNAME":"永康區","LI":"北灣里","LIN":"35鄰","STREET":"大灣路","SECT":" ","MAREA":" ","LANE":"４０巷","ALLEY":" ","HOUSE_NO":"６６號之２","E_COORD97":175077.22,"N_COORD97":2546113.4199999999,"ADDRESS":"大灣路４０巷６６號之２","OBJECTID":296030},"geometry":{"x":175077.22000000067,"y":2546113.4200000037}},{"attributes":{"ID":296039,"DIS_CODE":0,"TOWNNAME":"永康區","LI":"甲頂里","LIN":"4鄰","STREET":"中正南路","SECT":" ","MAREA":" ","LANE":"１６８巷","ALLEY":" ","HOUSE_NO":"４號","E_COORD97":169874.95999999999,"N_COORD97":2546972.9700000002,"ADDRESS":"中正南路１６８巷４號","OBJECTID":296031},"geometry":{"x":169874.96000000089,"y":2546972.9700000025}},{"attributes":{"ID":296040,"DIS_CODE":0,"TOWNNAME":"永康區","LI":"正強里","LIN":"38鄰","STREET":"正強街","SECT":" ","MAREA":" ","LANE":"３０５巷","ALLEY":" ","HOUSE_NO":"１８號","E_COORD97":173220.04000000001,"N_COORD97":2548076.4900000002,"ADDRESS":"正強街３０５巷１８號","OBJECTID":296032},"geometry":{"x":173220.04000000004,"y":2548076.4900000021}},{"attributes":{"ID":296041,"DIS_CODE":0,"TOWNNAME":"永康區","LI":"安康里","LIN":"18鄰","STREET":"中華路","SECT":" ","MAREA":" ","LANE":"６６１巷","ALLEY":" ","HOUSE_NO":"１２２號","E_COORD97":170771.04000000001,"N_COORD97":2546101,"ADDRESS":"中華路６６１巷１２２號","OBJECTID":296033},"geometry":{"x":170771.03999999911,"y":2546101}},{"attributes":{"ID":296042,"DIS_CODE":0,"TOWNNAME":"永康區","LI":"北灣里","LIN":"25鄰","STREET":"大灣路","SECT":" ","MAREA":" ","LANE":"２１５巷","ALLEY":" ","HOUSE_NO":"１５號","E_COORD97":175028.97,"N_COORD97":2545316,"ADDRESS":"大灣路２１５巷１５號","OBJECTID":296034},"geometry":{"x":175028.96999999974,"y":2545316.0000000037}},{"attributes":{"ID":296043,"DIS_CODE":0,"TOWNNAME":"永康區","LI":"正強里","LIN":"46鄰","STREET":"中正路","SECT":" ","MAREA":" ","LANE":"２５６巷","ALLEY":" ","HOUSE_NO":"９號之２１","E_COORD97":173207.06,"N_COORD97":2547991.8799999999,"ADDRESS":"中正路２５６巷９號之２１","OBJECTID":296035},"geometry":{"x":173207.06000000052,"y":2547991.8800000008}},{"attributes":{"ID":296044,"DIS_CODE":0,"TOWNNAME":"歸仁區","LI":"新厝里","LIN":"17鄰","STREET":"中正南路","SECT":"一段","MAREA":" ","LANE":"１３１巷","ALLEY":" ","HOUSE_NO":"２號","E_COORD97":177505.70999999999,"N_COORD97":2540425.7400000002,"ADDRESS":"中正南路一段１３１巷２號","OBJECTID":296036},"geometry":{"x":177505.71000000089,"y":2540425.7400000039}},{"attributes":{"ID":296045,"DIS_CODE":0,"TOWNNAME":"歸仁區","LI":"新厝里","LIN":"17鄰","STREET":"中正南路","SECT":"一段","MAREA":" ","LANE":"１５３巷","ALLEY":" ","HOUSE_NO":"３號","E_COORD97":177479.62,"N_COORD97":2540400.3999999999,"ADDRESS":"中正南路一段１５３巷３號","OBJECTID":296037},"geometry":{"x":177479.62000000011,"y":2540400.4000000004}},{"attributes":{"ID":296046,"DIS_CODE":0,"TOWNNAME":"永康區","LI":"正強里","LIN":"38鄰","STREET":"正強街","SECT":" ","MAREA":" ","LANE":"３０３巷","ALLEY":" ","HOUSE_NO":"４６號","E_COORD97":173157.73999999999,"N_COORD97":2548014.1699999999,"ADDRESS":"正強街３０３巷４６號","OBJECTID":296038},"geometry":{"x":173157.74000000022,"y":2548014.1700000018}},{"attributes":{"ID":296047,"DIS_CODE":0,"TOWNNAME":"歸仁區","LI":"新厝里","LIN":"17鄰","STREET":"中正南路","SECT":"一段","MAREA":" ","LANE":"１３１巷","ALLEY":" ","HOUSE_NO":"２２號","E_COORD97":177534.26999999999,"N_COORD97":2540408.3999999999,"ADDRESS":"中正南路一段１３１巷２２號","OBJECTID":296039},"geometry":{"x":177534.26999999955,"y":2540408.4000000022}},{"attributes":{"ID":296048,"DIS_CODE":0,"TOWNNAME":"歸仁區","LI":"新厝里","LIN":"17鄰","STREET":"中正南路","SECT":"一段","MAREA":" ","LANE":"１３１巷","ALLEY":" ","HOUSE_NO":"１０號","E_COORD97":177515.16,"N_COORD97":2540416.7400000002,"ADDRESS":"中正南路一段１３１巷１０號","OBJECTID":296040},"geometry":{"x":177515.16000000015,"y":2540416.7400000021}},{"attributes":{"ID":296049,"DIS_CODE":0,"TOWNNAME":"歸仁區","LI":"新厝里","LIN":"17鄰","STREET":"中正南路","SECT":"一段","MAREA":" ","LANE":"１５３巷","ALLEY":" ","HOUSE_NO":"９號","E_COORD97":177492.82000000001,"N_COORD97":2540377.3999999999,"ADDRESS":"中正南路一段１５３巷９號","OBJECTID":296041},"geometry":{"x":177492.82000000123,"y":2540377.4000000041}},{"attributes":{"ID":296050,"DIS_CODE":0,"TOWNNAME":"歸仁區","LI":"新厝里","LIN":"17鄰","STREET":"中正南路","SECT":"一段","MAREA":" ","LANE":"１３１巷","ALLEY":" ","HOUSE_NO":"３８號","E_COORD97":177521.76999999999,"N_COORD97":2540376.3999999999,"ADDRESS":"中正南路一段１３１巷３８號","OBJECTID":296042},"geometry":{"x":177521.77000000048,"y":2540376.4000000004}},{"attributes":{"ID":296051,"DIS_CODE":0,"TOWNNAME":"歸仁區","LI":"新厝里","LIN":"17鄰","STREET":"中正南路","SECT":"一段","MAREA":" ","LANE":"１５３巷","ALLEY":" ","HOUSE_NO":"１１號","E_COORD97":177496.17000000001,"N_COORD97":2540381.3999999999,"ADDRESS":"中正南路一段１５３巷１１號","OBJECTID":296043},"geometry":{"x":177496.16999999993,"y":2540381.4000000022}},{"attributes":{"ID":296052,"DIS_CODE":0,"TOWNNAME":"歸仁區","LI":"媽廟里","LIN":"17鄰","STREET":"中正北路","SECT":"三段","MAREA":" ","LANE":"１４６巷","ALLEY":" ","HOUSE_NO":"６號","E_COORD97":177648.45999999999,"N_COORD97":2543851.7200000002,"ADDRESS":"中正北路三段１４６巷６號","OBJECTID":296044},"geometry":{"x":177648.45999999996,"y":2543851.7200000025}},{"attributes":{"ID":296053,"DIS_CODE":0,"TOWNNAME":"新化區","LI":"知義里","LIN":"14鄰","STREET":"復興路","SECT":" ","MAREA":" ","LANE":" ","ALLEY":" ","HOUSE_NO":"３８號","E_COORD97":179597.87,"N_COORD97":2547315.25,"ADDRESS":"復興路３８號","OBJECTID":296045},"geometry":{"x":179597.87000000104,"y":2547315.2500000019}},{"attributes":{"ID":296054,"DIS_CODE":0,"TOWNNAME":"新化區","LI":"武安里","LIN":"14鄰","STREET":"健康路","SECT":" ","MAREA":" ","LANE":" ","ALLEY":" ","HOUSE_NO":"１００號","E_COORD97":178817.23000000001,"N_COORD97":2548151.2599999998,"ADDRESS":"健康路１００號","OBJECTID":296046},"geometry":{"x":178817.22999999952,"y":2548151.2599999998}},{"attributes":{"ID":296055,"DIS_CODE":0,"TOWNNAME":"新化區","LI":"知義里","LIN":"14鄰","STREET":"復興路","SECT":" ","MAREA":" ","LANE":" ","ALLEY":" ","HOUSE_NO":"９８號之１","E_COORD97":179526.89999999999,"N_COORD97":2547635.2599999998,"ADDRESS":"復興路９８號之１","OBJECTID":296047},"geometry":{"x":179526.9000000013,"y":2547635.2599999998}},{"attributes":{"ID":296056,"DIS_CODE":0,"TOWNNAME":"新化區","LI":"武安里","LIN":"14鄰","STREET":"健康路","SECT":" ","MAREA":" ","LANE":" ","ALLEY":" ","HOUSE_NO":"８６號","E_COORD97":178834.57999999999,"N_COORD97":2548130.2599999998,"ADDRESS":"健康路８６號","OBJECTID":296048},"geometry":{"x":178834.58000000007,"y":2548130.2599999998}},{"attributes":{"ID":296057,"DIS_CODE":0,"TOWNNAME":"新化區","LI":"知義里","LIN":"14鄰","STREET":"復興路","SECT":" ","MAREA":" ","LANE":" ","ALLEY":" ","HOUSE_NO":"７４號","E_COORD97":179552.67000000001,"N_COORD97":2547559.25,"ADDRESS":"復興路７４號","OBJECTID":296049},"geometry":{"x":179552.66999999993,"y":2547559.2500000019}},{"attributes":{"ID":296058,"DIS_CODE":0,"TOWNNAME":"新化區","LI":"知義里","LIN":"14鄰","STREET":"復興路","SECT":" ","MAREA":" ","LANE":" ","ALLEY":" ","HOUSE_NO":"６３號","E_COORD97":179535.67000000001,"N_COORD97":2547485.25,"ADDRESS":"復興路６３號","OBJECTID":296050},"geometry":{"x":179535.66999999993,"y":2547485.2500000019}},{"attributes":{"ID":296059,"DIS_CODE":0,"TOWNNAME":"新化區","LI":"武安里","LIN":"14鄰","STREET":"健康路","SECT":" ","MAREA":" ","LANE":" ","ALLEY":" ","HOUSE_NO":"１１８號","E_COORD97":178811.23000000001,"N_COORD97":2548183.2599999998,"ADDRESS":"健康路１１８號","OBJECTID":296051},"geometry":{"x":178811.23000000138,"y":2548183.2600000016}},{"attributes":{"ID":296060,"DIS_CODE":0,"TOWNNAME":"新化區","LI":"太平里","LIN":"14鄰","STREET":"民權街","SECT":" ","MAREA":" ","LANE":" ","ALLEY":" ","HOUSE_NO":"１３７號","E_COORD97":178692.41,"N_COORD97":2548835.25,"ADDRESS":"民權街１３７號","OBJECTID":296052},"geometry":{"x":178692.41000000108,"y":2548835.25}},{"attributes":{"ID":296061,"DIS_CODE":0,"TOWNNAME":"永康區","LI":"北灣里","LIN":"4鄰","STREET":"信義街","SECT":" ","MAREA":" ","LANE":"６２巷","ALLEY":" ","HOUSE_NO":"３０號","E_COORD97":175429.20999999999,"N_COORD97":2545751.5099999998,"ADDRESS":"信義街６２巷３０號","OBJECTID":296053},"geometry":{"x":175429.20999999996,"y":2545751.5099999998}},{"attributes":{"ID":296062,"DIS_CODE":0,"TOWNNAME":"永康區","LI":"正強里","LIN":"38鄰","STREET":"正強街","SECT":" ","MAREA":" ","LANE":"３０５巷","ALLEY":" ","HOUSE_NO":"２５號","E_COORD97":173186.23999999999,"N_COORD97":2548047.4199999999,"ADDRESS":"正強街３０５巷２５號","OBJECTID":296054},"geometry":{"x":173186.24000000115,"y":2548047.4199999999}},{"attributes":{"ID":296063,"DIS_CODE":0,"TOWNNAME":"永康區","LI":"正強里","LIN":"38鄰","STREET":"正強街","SECT":" ","MAREA":" ","LANE":"３０５巷","ALLEY":" ","HOUSE_NO":"５號","E_COORD97":173239.13,"N_COORD97":2548058.6699999999,"ADDRESS":"正強街３０５巷５號","OBJECTID":296055},"geometry":{"x":173239.13000000082,"y":2548058.6700000018}},{"attributes":{"ID":296064,"DIS_CODE":0,"TOWNNAME":"永康區","LI":"正強里","LIN":"46鄰","STREET":"中正路","SECT":" ","MAREA":" ","LANE":"２５６巷","ALLEY":" ","HOUSE_NO":"９號之１","E_COORD97":173205.81,"N_COORD97":2547991.8799999999,"ADDRESS":"中正路２５６巷９號之１","OBJECTID":296056},"geometry":{"x":173205.80999999959,"y":2547991.8800000008}},{"attributes":{"ID":296065,"DIS_CODE":0,"TOWNNAME":"永康區","LI":"永康里","LIN":"24鄰","STREET":"中山南路","SECT":" ","MAREA":" ","LANE":"６２１巷","ALLEY":" ","HOUSE_NO":"１７號","E_COORD97":173549.87,"N_COORD97":2547286.7400000002,"ADDRESS":"中山南路６２１巷１７號","OBJECTID":296057},"geometry":{"x":173549.87000000104,"y":2547286.7400000002}},{"attributes":{"ID":296066,"DIS_CODE":0,"TOWNNAME":"永康區","LI":"正強里","LIN":"38鄰","STREET":"正強街","SECT":" ","MAREA":" ","LANE":"３０５巷","ALLEY":" ","HOUSE_NO":"３５號","E_COORD97":173158.79000000001,"N_COORD97":2548041.4199999999,"ADDRESS":"正強街３０５巷３５號","OBJECTID":296058},"geometry":{"x":173158.79000000004,"y":2548041.4199999999}},{"attributes":{"ID":296067,"DIS_CODE":0,"TOWNNAME":"永康區","LI":"正強里","LIN":"46鄰","STREET":"中正路","SECT":" ","MAREA":" ","LANE":"２５６巷","ALLEY":" ","HOUSE_NO":"９號之７","E_COORD97":173205.89000000001,"N_COORD97":2547991.8799999999,"ADDRESS":"中正路２５６巷９號之７","OBJECTID":296059},"geometry":{"x":173205.88999999966,"y":2547991.8800000008}},{"attributes":{"ID":296068,"DIS_CODE":0,"TOWNNAME":"永康區","LI":"正強里","LIN":"18鄰","STREET":"自強路","SECT":" ","MAREA":" ","LANE":"１８８巷","ALLEY":" ","HOUSE_NO":"７０號","E_COORD97":173226.97,"N_COORD97":2547256.75,"ADDRESS":"自強路１８８巷７０號","OBJECTID":296060},"geometry":{"x":173226.96999999974,"y":2547256.7499999981}},{"attributes":{"ID":296069,"DIS_CODE":0,"TOWNNAME":"永康區","LI":"甲頂里","LIN":"13鄰","STREET":"大武街","SECT":" ","MAREA":" ","LANE":"１８巷","ALLEY":" ","HOUSE_NO":"１０號","E_COORD97":170325.12,"N_COORD97":2546644.3399999999,"ADDRESS":"大武街１８巷１０號","OBJECTID":296061},"geometry":{"x":170325.12000000104,"y":2546644.3399999999}},{"attributes":{"ID":296070,"DIS_CODE":0,"TOWNNAME":"歸仁區","LI":"南興里","LIN":"17鄰","STREET":"南興街","SECT":" ","MAREA":" ","LANE":"２０７巷","ALLEY":" ","HOUSE_NO":"１號","E_COORD97":175702.98999999999,"N_COORD97":2541368.25,"ADDRESS":"南興街２０７巷１號","OBJECTID":296062},"geometry":{"x":175702.99000000209,"y":2541368.2500000019}},{"attributes":{"ID":296071,"DIS_CODE":0,"TOWNNAME":"新化區","LI":"武安里","LIN":"14鄰","STREET":"健康路","SECT":" ","MAREA":" ","LANE":" ","ALLEY":" ","HOUSE_NO":"７２號","E_COORD97":178856.17999999999,"N_COORD97":2548118.2599999998,"ADDRESS":"健康路７２號","OBJECTID":296063},"geometry":{"x":178856.18000000063,"y":2548118.2600000016}},{"attributes":{"ID":296072,"DIS_CODE":0,"TOWNNAME":"新化區","LI":"武安里","LIN":"14鄰","STREET":"健康路","SECT":" ","MAREA":" ","LANE":" ","ALLEY":" ","HOUSE_NO":"７７號","E_COORD97":178827.98000000001,"N_COORD97":2548118.2599999998,"ADDRESS":"健康路７７號","OBJECTID":296064},"geometry":{"x":178827.98000000138,"y":2548118.2600000016}},{"attributes":{"ID":296073,"DIS_CODE":0,"TOWNNAME":"新化區","LI":"武安里","LIN":"14鄰","STREET":"健康路","SECT":" ","MAREA":" ","LANE":" ","ALLEY":" ","HOUSE_NO":"１１２號","E_COORD97":178812.23000000001,"N_COORD97":2548174.2599999998,"ADDRESS":"健康路１１２號","OBJECTID":296065},"geometry":{"x":178812.23000000231,"y":2548174.2599999998}},{"attributes":{"ID":296074,"DIS_CODE":0,"TOWNNAME":"新化區","LI":"太平里","LIN":"14鄰","STREET":"民權街","SECT":" ","MAREA":" ","LANE":" ","ALLEY":" ","HOUSE_NO":"１５１號","E_COORD97":178704.60999999999,"N_COORD97":2548867.25,"ADDRESS":"民權街１５１號","OBJECTID":296066},"geometry":{"x":178704.61000000127,"y":2548867.2499999981}},{"attributes":{"ID":296075,"DIS_CODE":0,"TOWNNAME":"新化區","LI":"武安里","LIN":"14鄰","STREET":"健康路","SECT":" ","MAREA":" ","LANE":" ","ALLEY":" ","HOUSE_NO":"１０６號","E_COORD97":178813.23000000001,"N_COORD97":2548161.2599999998,"ADDRESS":"健康路１０６號","OBJECTID":296067},"geometry":{"x":178813.23000000045,"y":2548161.2599999998}},{"attributes":{"ID":296076,"DIS_CODE":0,"TOWNNAME":"新化區","LI":"太平里","LIN":"14鄰","STREET":"民權街","SECT":" ","MAREA":" ","LANE":" ","ALLEY":" ","HOUSE_NO":"１５８號之１","E_COORD97":178718.94,"N_COORD97":2548857.2599999998,"ADDRESS":"民權街１５８號之１","OBJECTID":296068},"geometry":{"x":178718.94000000041,"y":2548857.2600000016}},{"attributes":{"ID":296077,"DIS_CODE":0,"TOWNNAME":"新化區","LI":"武安里","LIN":"14鄰","STREET":"健康路","SECT":" ","MAREA":" ","LANE":" ","ALLEY":" ","HOUSE_NO":"１２０號","E_COORD97":178811.03,"N_COORD97":2548187.2599999998,"ADDRESS":"健康路１２０號","OBJECTID":296069},"geometry":{"x":178811.03000000026,"y":2548187.2600000016}},{"attributes":{"ID":296078,"DIS_CODE":0,"TOWNNAME":"新化區","LI":"太平里","LIN":"14鄰","STREET":"太平街","SECT":" ","MAREA":" ","LANE":" ","ALLEY":" ","HOUSE_NO":"８４號","E_COORD97":178645.17000000001,"N_COORD97":2548762.25,"ADDRESS":"太平街８４號","OBJECTID":296070},"geometry":{"x":178645.16999999993,"y":2548762.2500000037}},{"attributes":{"ID":296079,"DIS_CODE":0,"TOWNNAME":"新化區","LI":"協興里","LIN":"14鄰","STREET":"太平街","SECT":" ","MAREA":" ","LANE":" ","ALLEY":" ","HOUSE_NO":"１６６號","E_COORD97":178235.92000000001,"N_COORD97":2548663.25,"ADDRESS":"太平街１６６號","OBJECTID":296071},"geometry":{"x":178235.92000000086,"y":2548663.25}},{"attributes":{"ID":296080,"DIS_CODE":0,"TOWNNAME":"安平區","LI":"建平里","LIN":"14鄰","STREET":"建平十三街","SECT":" ","MAREA":" ","LANE":" ","ALLEY":" ","HOUSE_NO":"８９號","E_COORD97":166105.38,"N_COORD97":2544010.54,"ADDRESS":"建平十三街８９號","OBJECTID":296072},"geometry":{"x":166105.38000000082,"y":2544010.540000001}},{"attributes":{"ID":296081,"DIS_CODE":0,"TOWNNAME":"新營區","LI":"新南里","LIN":"29鄰","STREET":"明清一街","SECT":" ","MAREA":" ","LANE":" ","ALLEY":" ","HOUSE_NO":"１５號","E_COORD97":178128.41852199999,"N_COORD97":2578650.0241,"ADDRESS":"明清一街１５號","OBJECTID":296073},"geometry":{"x":178128.41852200218,"y":2578650.0240980014}},{"attributes":{"ID":296082,"DIS_CODE":0,"TOWNNAME":"永康區","LI":"永康里","LIN":"42鄰","STREET":"永福街","SECT":" ","MAREA":" ","LANE":"９７巷","ALLEY":" ","HOUSE_NO":"２１號","E_COORD97":174211.13,"N_COORD97":2546600.48,"ADDRESS":"永福街９７巷２１號","OBJECTID":296074},"geometry":{"x":174211.12999999989,"y":2546600.4800000004}},{"attributes":{"ID":296083,"DIS_CODE":0,"TOWNNAME":"永康區","LI":"正強里","LIN":"38鄰","STREET":"正強街","SECT":" ","MAREA":" ","LANE":"３０７巷","ALLEY":" ","HOUSE_NO":"１９號","E_COORD97":173203.29999999999,"N_COORD97":2548101.3799999999,"ADDRESS":"正強街３０７巷１９號","OBJECTID":296075},"geometry":{"x":173203.29999999888,"y":2548101.379999999}},{"attributes":{"ID":296084,"DIS_CODE":0,"TOWNNAME":"永康區","LI":"正強里","LIN":"38鄰","STREET":"正強街","SECT":" ","MAREA":" ","LANE":"３０５巷","ALLEY":" ","HOUSE_NO":"５０號","E_COORD97":173158.45999999999,"N_COORD97":2548062.7400000002,"ADDRESS":"正強街３０５巷５０號","OBJECTID":296076},"geometry":{"x":173158.46000000183,"y":2548062.7400000002}},{"attributes":{"ID":296085,"DIS_CODE":0,"TOWNNAME":"永康區","LI":"安康里","LIN":"18鄰","STREET":"中華路","SECT":" ","MAREA":" ","LANE":"６６１巷","ALLEY":" ","HOUSE_NO":"１２４號","E_COORD97":170767.10999999999,"N_COORD97":2546098.75,"ADDRESS":"中華路６６１巷１２４號","OBJECTID":296077},"geometry":{"x":170767.11000000034,"y":2546098.7500000019}},{"attributes":{"ID":296086,"DIS_CODE":0,"TOWNNAME":"永康區","LI":"正強里","LIN":"38鄰","STREET":"正強街","SECT":" ","MAREA":" ","LANE":"３０３巷","ALLEY":" ","HOUSE_NO":"３６號","E_COORD97":173181.12,"N_COORD97":2548018.9199999999,"ADDRESS":"正強街３０３巷３６號","OBJECTID":296078},"geometry":{"x":173181.11999999918,"y":2548018.9200000018}},{"attributes":{"ID":296087,"DIS_CODE":0,"TOWNNAME":"永康區","LI":"永康里","LIN":"5鄰","STREET":"中山北路","SECT":" ","MAREA":" ","LANE":"１８巷","ALLEY":" ","HOUSE_NO":"９號","E_COORD97":173955.01999999999,"N_COORD97":2547336.75,"ADDRESS":"中山北路１８巷９號","OBJECTID":296079},"geometry":{"x":173955.02000000048,"y":2547336.75}},{"attributes":{"ID":296088,"DIS_CODE":0,"TOWNNAME":"永康區","LI":"安康里","LIN":"25鄰","STREET":"中華路","SECT":" ","MAREA":" ","LANE":"７０３巷","ALLEY":" ","HOUSE_NO":"２８號","E_COORD97":170808.04000000001,"N_COORD97":2546281.7400000002,"ADDRESS":"中華路７０３巷２８號","OBJECTID":296080},"geometry":{"x":170808.04000000004,"y":2546281.7400000021}},{"attributes":{"ID":296089,"DIS_CODE":0,"TOWNNAME":"安平區","LI":"建平里","LIN":"14鄰","STREET":"建平十三街","SECT":" ","MAREA":" ","LANE":" ","ALLEY":" ","HOUSE_NO":"９１號","E_COORD97":166097.60000000001,"N_COORD97":2544011.5699999998,"ADDRESS":"建平十三街９１號","OBJECTID":296081},"geometry":{"x":166097.59999999963,"y":2544011.5700000022}},{"attributes":{"ID":296090,"DIS_CODE":0,"TOWNNAME":"北區","LI":"賢北里","LIN":"14鄰","STREET":"賢北街","SECT":" ","MAREA":" ","LANE":" ","ALLEY":" ","HOUSE_NO":"６１號","E_COORD97":166234.79000000001,"N_COORD97":2545483.4199999999,"ADDRESS":"賢北街６１號","OBJECTID":296082},"geometry":{"x":166234.7900000019,"y":2545483.4200000018}},{"attributes":{"ID":296091,"DIS_CODE":0,"TOWNNAME":"安平區","LI":"金城里","LIN":"14鄰","STREET":"世平路","SECT":" ","MAREA":" ","LANE":" ","ALLEY":" ","HOUSE_NO":"１３６號","E_COORD97":162883.92999999999,"N_COORD97":2544078.75,"ADDRESS":"世平路１３６號","OBJECTID":296083},"geometry":{"x":162883.93000000063,"y":2544078.75}},{"attributes":{"ID":296092,"DIS_CODE":0,"TOWNNAME":"安平區","LI":"金城里","LIN":"14鄰","STREET":"世平路","SECT":" ","MAREA":" ","LANE":" ","ALLEY":" ","HOUSE_NO":"１５０號","E_COORD97":162863.06,"N_COORD97":2544100.9500000002,"ADDRESS":"世平路１５０號","OBJECTID":296084},"geometry":{"x":162863.06000000052,"y":2544100.9499999993}},{"attributes":{"ID":296093,"DIS_CODE":0,"TOWNNAME":"安平區","LI":"建平里","LIN":"14鄰","STREET":"建平十三街","SECT":" ","MAREA":" ","LANE":" ","ALLEY":" ","HOUSE_NO":"５１之１號","E_COORD97":166193.44,"N_COORD97":2544000.8100000001,"ADDRESS":"建平十三街５１之１號","OBJECTID":296085},"geometry":{"x":166193.44000000227,"y":2544000.8100000005}},{"attributes":{"ID":296094,"DIS_CODE":0,"TOWNNAME":"南區","LI":"文南里","LIN":"14鄰","STREET":"永南三街","SECT":" ","MAREA":" ","LANE":" ","ALLEY":" ","HOUSE_NO":"４７號","E_COORD97":166712.26999999999,"N_COORD97":2542668.1899999999,"ADDRESS":"永南三街４７號","OBJECTID":296086},"geometry":{"x":166712.26999999955,"y":2542668.1899999995}},{"attributes":{"ID":296095,"DIS_CODE":0,"TOWNNAME":"永康區","LI":"東橋里","LIN":"14鄰","STREET":"東橋一路","SECT":" ","MAREA":" ","LANE":" ","ALLEY":" ","HOUSE_NO":"２８６號","E_COORD97":171384.76999999999,"N_COORD97":2546681.0800000001,"ADDRESS":"東橋一路２８６號","OBJECTID":296087},"geometry":{"x":171384.77000000048,"y":2546681.0800000001}},{"attributes":{"ID":296096,"DIS_CODE":0,"TOWNNAME":"永康區","LI":"龍潭里","LIN":"14鄰","STREET":"龍埔街","SECT":" ","MAREA":" ","LANE":" ","ALLEY":" ","HOUSE_NO":"１１０號","E_COORD97":174517.03,"N_COORD97":2548272.0099999998,"ADDRESS":"龍埔街１１０號","OBJECTID":296088},"geometry":{"x":174517.03000000026,"y":2548272.0100000035}},{"attributes":{"ID":296097,"DIS_CODE":0,"TOWNNAME":"永康區","LI":"龍潭里","LIN":"14鄰","STREET":"龍埔街","SECT":" ","MAREA":" ","LANE":" ","ALLEY":" ","HOUSE_NO":"１３２號","E_COORD97":174476.51000000001,"N_COORD97":2548272.8399999999,"ADDRESS":"龍埔街１３２號","OBJECTID":296089},"geometry":{"x":174476.50999999978,"y":2548272.8399999999}},{"attributes":{"ID":296098,"DIS_CODE":0,"TOWNNAME":"永康區","LI":"東橋里","LIN":"14鄰","STREET":"東橋一路","SECT":" ","MAREA":" ","LANE":" ","ALLEY":" ","HOUSE_NO":"２７２號","E_COORD97":171402.66,"N_COORD97":2546661.2599999998,"ADDRESS":"東橋一路２７２號","OBJECTID":296090},"geometry":{"x":171402.66000000201,"y":2546661.2600000016}},{"attributes":{"ID":296099,"DIS_CODE":0,"TOWNNAME":"永康區","LI":"永康里","LIN":"24鄰","STREET":"中山南路","SECT":" ","MAREA":" ","LANE":"６２１巷","ALLEY":" ","HOUSE_NO":"１９號","E_COORD97":173548.92000000001,"N_COORD97":2547291.4900000002,"ADDRESS":"中山南路６２１巷１９號","OBJECTID":296091},"geometry":{"x":173548.92000000086,"y":2547291.4900000002}},{"attributes":{"ID":296100,"DIS_CODE":0,"TOWNNAME":"永康區","LI":"永康里","LIN":"24鄰","STREET":"中山南路","SECT":" ","MAREA":" ","LANE":"５９７巷","ALLEY":" ","HOUSE_NO":"１６號之４","E_COORD97":173530.79000000001,"N_COORD97":2547254.7999999998,"ADDRESS":"中山南路５９７巷１６號之４","OBJECTID":296092},"geometry":{"x":173530.78999999911,"y":2547254.8000000026}},{"attributes":{"ID":296101,"DIS_CODE":0,"TOWNNAME":"永康區","LI":"正強里","LIN":"36鄰","STREET":"正強街","SECT":" ","MAREA":" ","LANE":"３０９巷","ALLEY":" ","HOUSE_NO":"１８號","E_COORD97":173205.35000000001,"N_COORD97":2548165.3300000001,"ADDRESS":"正強街３０９巷１８號","OBJECTID":296093},"geometry":{"x":173205.35000000056,"y":2548165.3300000038}},{"attributes":{"ID":296102,"DIS_CODE":0,"TOWNNAME":"永康區","LI":"正強里","LIN":"38鄰","STREET":"正強街","SECT":" ","MAREA":" ","LANE":"３０７巷","ALLEY":" ","HOUSE_NO":"１７號","E_COORD97":173208.23000000001,"N_COORD97":2548102.3799999999,"ADDRESS":"正強街３０７巷１７號","OBJECTID":296094},"geometry":{"x":173208.23000000138,"y":2548102.3799999971}},{"attributes":{"ID":296103,"DIS_CODE":0,"TOWNNAME":"永康區","LI":"甲頂里","LIN":"13鄰","STREET":"大武街","SECT":" ","MAREA":" ","LANE":"１８巷","ALLEY":" ","HOUSE_NO":"８號","E_COORD97":170320.04000000001,"N_COORD97":2546647.0899999999,"ADDRESS":"大武街１８巷８號","OBJECTID":296095},"geometry":{"x":170320.04000000004,"y":2546647.0899999999}},{"attributes":{"ID":296104,"DIS_CODE":0,"TOWNNAME":"永康區","LI":"永康里","LIN":"24鄰","STREET":"中山南路","SECT":" ","MAREA":" ","LANE":"５９７巷","ALLEY":" ","HOUSE_NO":"３２號之１","E_COORD97":173517.10000000001,"N_COORD97":2547288.54,"ADDRESS":"中山南路５９７巷３２號之１","OBJECTID":296096},"geometry":{"x":173517.10000000056,"y":2547288.540000001}},{"attributes":{"ID":296105,"DIS_CODE":0,"TOWNNAME":"永康區","LI":"永康里","LIN":"24鄰","STREET":"永正路","SECT":" ","MAREA":" ","LANE":" ","ALLEY":" ","HOUSE_NO":"２１號","E_COORD97":173556.25,"N_COORD97":2547310.9100000001,"ADDRESS":"永正路２１號","OBJECTID":296097},"geometry":{"x":173556.25,"y":2547310.910000002}},{"attributes":{"ID":296106,"DIS_CODE":0,"TOWNNAME":"永康區","LI":"正強里","LIN":"38鄰","STREET":"正強街","SECT":" ","MAREA":" ","LANE":"３０７巷","ALLEY":" ","HOUSE_NO":"９號","E_COORD97":173224.73000000001,"N_COORD97":2548106.3799999999,"ADDRESS":"正強街３０７巷９號","OBJECTID":296098},"geometry":{"x":173224.73000000045,"y":2548106.3800000008}},{"attributes":{"ID":296107,"DIS_CODE":0,"TOWNNAME":"永康區","LI":"永康里","LIN":"25鄰","STREET":"中山北路","SECT":" ","MAREA":" ","LANE":"１２３巷","ALLEY":" ","HOUSE_NO":"２１號","E_COORD97":174142.42999999999,"N_COORD97":2547560.1800000002,"ADDRESS":"中山北路１２３巷２１號","OBJECTID":296099},"geometry":{"x":174142.4299999997,"y":2547560.1800000016}},{"attributes":{"ID":296108,"DIS_CODE":0,"TOWNNAME":"永康區","LI":"安康里","LIN":"18鄰","STREET":"中華路","SECT":" ","MAREA":" ","LANE":"６６１巷","ALLEY":" ","HOUSE_NO":"１２６號","E_COORD97":170763.64999999999,"N_COORD97":2546096.5,"ADDRESS":"中華路６６１巷１２６號","OBJECTID":296100},"geometry":{"x":170763.65000000037,"y":2546096.5000000019}},{"attributes":{"ID":296109,"DIS_CODE":0,"TOWNNAME":"永康區","LI":"東橋里","LIN":"14鄰","STREET":"東橋一路","SECT":" ","MAREA":" ","LANE":" ","ALLEY":" ","HOUSE_NO":"２７６號","E_COORD97":171400.22,"N_COORD97":2546666.3799999999,"ADDRESS":"東橋一路２７６號","OBJECTID":296101},"geometry":{"x":171400.2200000016,"y":2546666.3800000008}},{"attributes":{"ID":296110,"DIS_CODE":0,"TOWNNAME":"永康區","LI":"東橋里","LIN":"14鄰","STREET":"東橋八街","SECT":" ","MAREA":" ","LANE":" ","ALLEY":" ","HOUSE_NO":"５２號","E_COORD97":171422.07000000001,"N_COORD97":2546768.1699999999,"ADDRESS":"東橋八街５２號","OBJECTID":296102},"geometry":{"x":171422.07000000216,"y":2546768.1699999999}},{"attributes":{"ID":296111,"DIS_CODE":0,"TOWNNAME":"永康區","LI":"龍潭里","LIN":"14鄰","STREET":"龍埔街","SECT":" ","MAREA":" ","LANE":" ","ALLEY":" ","HOUSE_NO":"１２８號","E_COORD97":174485.97,"N_COORD97":2548272.1699999999,"ADDRESS":"龍埔街１２８號","OBJECTID":296103},"geometry":{"x":174485.97000000067,"y":2548272.1700000018}},{"attributes":{"ID":296112,"DIS_CODE":0,"TOWNNAME":"永康區","LI":"東橋里","LIN":"14鄰","STREET":"東橋八街","SECT":" ","MAREA":" ","LANE":" ","ALLEY":" ","HOUSE_NO":"５０號","E_COORD97":171418.12,"N_COORD97":2546765.7599999998,"ADDRESS":"東橋八街５０號","OBJECTID":296104},"geometry":{"x":171418.11999999918,"y":2546765.7600000016}},{"attributes":{"ID":296113,"DIS_CODE":0,"TOWNNAME":"永康區","LI":"東橋里","LIN":"14鄰","STREET":"東橋一路","SECT":" ","MAREA":" ","LANE":" ","ALLEY":" ","HOUSE_NO":"２６２號","E_COORD97":171413.92999999999,"N_COORD97":2546643.8399999999,"ADDRESS":"東橋一路２６２號","OBJECTID":296105},"geometry":{"x":171413.93000000156,"y":2546643.8400000017}},{"attributes":{"ID":296114,"DIS_CODE":0,"TOWNNAME":"永康區","LI":"中興里","LIN":"14鄰","STREET":"中山東路","SECT":" ","MAREA":" ","LANE":" ","ALLEY":" ","HOUSE_NO":"３６５號","E_COORD97":171934.17000000001,"N_COORD97":2545219.4500000002,"ADDRESS":"中山東路３６５號","OBJECTID":296106},"geometry":{"x":171934.16999999993,"y":2545219.4499999993}},{"attributes":{"ID":296115,"DIS_CODE":0,"TOWNNAME":"永康區","LI":"中興里","LIN":"14鄰","STREET":"中山東路","SECT":" ","MAREA":" ","LANE":" ","ALLEY":" ","HOUSE_NO":"３６３號","E_COORD97":171932.64000000001,"N_COORD97":2545224.8399999999,"ADDRESS":"中山東路３６３號","OBJECTID":296107},"geometry":{"x":171932.63999999966,"y":2545224.8399999999}},{"attributes":{"ID":296116,"DIS_CODE":0,"TOWNNAME":"永康區","LI":"龍潭里","LIN":"14鄰","STREET":"龍埔街","SECT":" ","MAREA":" ","LANE":" ","ALLEY":" ","HOUSE_NO":"１２６號","E_COORD97":174490.26999999999,"N_COORD97":2548271.6099999999,"ADDRESS":"龍埔街１２６號","OBJECTID":296108},"geometry":{"x":174490.27000000048,"y":2548271.6100000013}},{"attributes":{"ID":296117,"DIS_CODE":0,"TOWNNAME":"永康區","LI":"東橋里","LIN":"14鄰","STREET":"東橋八街","SECT":" ","MAREA":" ","LANE":" ","ALLEY":" ","HOUSE_NO":"３６號","E_COORD97":171410.20000000001,"N_COORD97":2546760.9399999999,"ADDRESS":"東橋八街３６號","OBJECTID":296109},"geometry":{"x":171410.20000000019,"y":2546760.9400000013}},{"attributes":{"ID":296118,"DIS_CODE":0,"TOWNNAME":"永康區","LI":"龍潭里","LIN":"14鄰","STREET":"龍埔街","SECT":" ","MAREA":" ","LANE":" ","ALLEY":" ","HOUSE_NO":"１２０號","E_COORD97":174499.79999999999,"N_COORD97":2548277.6699999999,"ADDRESS":"龍埔街１２０號","OBJECTID":296110},"geometry":{"x":174499.79999999981,"y":2548277.6699999981}},{"attributes":{"ID":296119,"DIS_CODE":0,"TOWNNAME":"永康區","LI":"永康里","LIN":"25鄰","STREET":"中山北路","SECT":" ","MAREA":" ","LANE":"１２３巷","ALLEY":" ","HOUSE_NO":"５號","E_COORD97":174115.79999999999,"N_COORD97":2547521.1899999999,"ADDRESS":"中山北路１２３巷５號","OBJECTID":296111},"geometry":{"x":174115.80000000075,"y":2547521.1900000032}},{"attributes":{"ID":296120,"DIS_CODE":0,"TOWNNAME":"永康區","LI":"北灣里","LIN":"20鄰","STREET":"大同街","SECT":" ","MAREA":" ","LANE":"３１５巷","ALLEY":" ","HOUSE_NO":"５號","E_COORD97":174715.04000000001,"N_COORD97":2546000.8799999999,"ADDRESS":"大同街３１５巷５號","OBJECTID":296112},"geometry":{"x":174715.04000000004,"y":2546000.8800000008}},{"attributes":{"ID":296121,"DIS_CODE":0,"TOWNNAME":"永康區","LI":"北灣里","LIN":"20鄰","STREET":"大同街","SECT":" ","MAREA":" ","LANE":"４１３巷","ALLEY":" ","HOUSE_NO":"５５號","E_COORD97":174611.67000000001,"N_COORD97":2546075.75,"ADDRESS":"大同街４１３巷５５號","OBJECTID":296113},"geometry":{"x":174611.67000000086,"y":2546075.75}},{"attributes":{"ID":296122,"DIS_CODE":0,"TOWNNAME":"永康區","LI":"永康里","LIN":"26鄰","STREET":"中山北路","SECT":" ","MAREA":" ","LANE":"１０４巷","ALLEY":" ","HOUSE_NO":"９號","E_COORD97":174178.41,"N_COORD97":2547464.73,"ADDRESS":"中山北路１０４巷９號","OBJECTID":296114},"geometry":{"x":174178.41000000108,"y":2547464.7300000023}},{"attributes":{"ID":296123,"DIS_CODE":0,"TOWNNAME":"永康區","LI":"永康里","LIN":"26鄰","STREET":"永明街","SECT":" ","MAREA":" ","LANE":"５３巷","ALLEY":" ","HOUSE_NO":"２３號","E_COORD97":174131.94,"N_COORD97":2547375.3700000001,"ADDRESS":"永明街５３巷２３號","OBJECTID":296115},"geometry":{"x":174131.93999999948,"y":2547375.370000001}},{"attributes":{"ID":296124,"DIS_CODE":0,"TOWNNAME":"永康區","LI":"永康里","LIN":"32鄰","STREET":"大同街","SECT":" ","MAREA":" ","LANE":"８３９巷","ALLEY":" ","HOUSE_NO":"１號","E_COORD97":174377.98999999999,"N_COORD97":2547099.4900000002,"ADDRESS":"大同街８３９巷１號","OBJECTID":296116},"geometry":{"x":174377.99000000115,"y":2547099.4900000039}},{"attributes":{"ID":296125,"DIS_CODE":0,"TOWNNAME":"永康區","LI":"北灣里","LIN":"4鄰","STREET":"信義街","SECT":" ","MAREA":" ","LANE":"６２巷","ALLEY":" ","HOUSE_NO":"１５號","E_COORD97":175426.63,"N_COORD97":2545710.27,"ADDRESS":"信義街６２巷１５號","OBJECTID":296117},"geometry":{"x":175426.62999999989,"y":2545710.2700000033}},{"attributes":{"ID":296126,"DIS_CODE":0,"TOWNNAME":"永康區","LI":"北灣里","LIN":"4鄰","STREET":"信義街","SECT":" ","MAREA":" ","LANE":"１２９巷","ALLEY":" ","HOUSE_NO":"３號","E_COORD97":175203.04999999999,"N_COORD97":2545589.4500000002,"ADDRESS":"信義街１２９巷３號","OBJECTID":296118},"geometry":{"x":175203.04999999981,"y":2545589.4499999993}},{"attributes":{"ID":296127,"DIS_CODE":0,"TOWNNAME":"永康區","LI":"北灣里","LIN":"25鄰","STREET":"大灣路","SECT":" ","MAREA":" ","LANE":"２１５巷","ALLEY":" ","HOUSE_NO":"７號","E_COORD97":175012.04000000001,"N_COORD97":2545316.2999999998,"ADDRESS":"大灣路２１５巷７號","OBJECTID":296119},"geometry":{"x":175012.04000000004,"y":2545316.3000000026}},{"attributes":{"ID":296128,"DIS_CODE":0,"TOWNNAME":"永康區","LI":"北灣里","LIN":"39鄰","STREET":"大同街","SECT":" ","MAREA":" ","LANE":"４１３巷","ALLEY":" ","HOUSE_NO":"６號","E_COORD97":174628.38,"N_COORD97":2546293.0899999999,"ADDRESS":"大同街４１３巷６號","OBJECTID":296120},"geometry":{"x":174628.37999999989,"y":2546293.0900000017}},{"attributes":{"ID":296129,"DIS_CODE":0,"TOWNNAME":"永康區","LI":"北灣里","LIN":"4鄰","STREET":"信義街","SECT":" ","MAREA":" ","LANE":"４４巷","ALLEY":" ","HOUSE_NO":"３８號","E_COORD97":175481.81,"N_COORD97":2545763.9100000001,"ADDRESS":"信義街４４巷３８號","OBJECTID":296121},"geometry":{"x":175481.81000000052,"y":2545763.9100000001}},{"attributes":{"ID":296130,"DIS_CODE":0,"TOWNNAME":"永康區","LI":"北灣里","LIN":"4鄰","STREET":"信義街","SECT":" ","MAREA":" ","LANE":"６２巷","ALLEY":" ","HOUSE_NO":"５號","E_COORD97":175428.39999999999,"N_COORD97":2545683.77,"ADDRESS":"信義街６２巷５號","OBJECTID":296122},"geometry":{"x":175428.40000000037,"y":2545683.7700000014}},{"attributes":{"ID":296131,"DIS_CODE":0,"TOWNNAME":"永康區","LI":"正強里","LIN":"32鄰","STREET":"四維街","SECT":" ","MAREA":" ","LANE":"２９巷","ALLEY":" ","HOUSE_NO":"２４號","E_COORD97":173347.45000000001,"N_COORD97":2548004.6800000002,"ADDRESS":"四維街２９巷２４號","OBJECTID":296123},"geometry":{"x":173347.45000000112,"y":2548004.6800000016}},{"attributes":{"ID":296132,"DIS_CODE":0,"TOWNNAME":"歸仁區","LI":"南興里","LIN":"17鄰","STREET":"南興街","SECT":" ","MAREA":" ","LANE":"２０７巷","ALLEY":" ","HOUSE_NO":"５號","E_COORD97":175702.89000000001,"N_COORD97":2541359.25,"ADDRESS":"南興街２０７巷５號","OBJECTID":296124},"geometry":{"x":175702.88999999966,"y":2541359.2500000019}},{"attributes":{"ID":296133,"DIS_CODE":0,"TOWNNAME":"南區","LI":"文南里","LIN":"14鄰","STREET":"永南三街","SECT":" ","MAREA":" ","LANE":" ","ALLEY":" ","HOUSE_NO":"４９號","E_COORD97":166707.14000000001,"N_COORD97":2542668.0099999998,"ADDRESS":"永南三街４９號","OBJECTID":296125},"geometry":{"x":166707.1400000006,"y":2542668.0100000035}},{"attributes":{"ID":296134,"DIS_CODE":0,"TOWNNAME":"麻豆區","LI":"穀興里","LIN":"14鄰","STREET":"仁愛路","SECT":" ","MAREA":" ","LANE":" ","ALLEY":" ","HOUSE_NO":"８之２號","E_COORD97":172864.01000000001,"N_COORD97":2564761.0600000001,"ADDRESS":"仁愛路８之２號","OBJECTID":296126},"geometry":{"x":172864.00999999978,"y":2564761.0600000024}},{"attributes":{"ID":296135,"DIS_CODE":0,"TOWNNAME":"新營區","LI":"中營里","LIN":"14鄰","STREET":"東山五路","SECT":" ","MAREA":" ","LANE":" ","ALLEY":" ","HOUSE_NO":"９１號","E_COORD97":182006.81,"N_COORD97":2579029.6000000001,"ADDRESS":"東山五路９１號","OBJECTID":296127},"geometry":{"x":182006.81000000052,"y":2579029.6000000015}},{"attributes":{"ID":296136,"DIS_CODE":0,"TOWNNAME":"永康區","LI":"甲頂里","LIN":"14鄰","STREET":"大武街","SECT":" ","MAREA":" ","LANE":" ","ALLEY":" ","HOUSE_NO":"４２之１號","E_COORD97":170335.95999999999,"N_COORD97":2546728.1200000001,"ADDRESS":"大武街４２之１號","OBJECTID":296128},"geometry":{"x":170335.96000000183,"y":2546728.1200000029}},{"attributes":{"ID":296137,"DIS_CODE":0,"TOWNNAME":"東區","LI":"東門里","LIN":"14鄰","STREET":"慶東街","SECT":" ","MAREA":" ","LANE":" ","ALLEY":" ","HOUSE_NO":"９５號","E_COORD97":169640.53,"N_COORD97":2543247.1299999999,"ADDRESS":"慶東街９５號","OBJECTID":296129},"geometry":{"x":169640.53000000026,"y":2543247.1300000008}},{"attributes":{"ID":296138,"DIS_CODE":0,"TOWNNAME":"安平區","LI":"育平里","LIN":"4鄰","STREET":"育平五街","SECT":" ","MAREA":" ","LANE":" ","ALLEY":" ","HOUSE_NO":"３４號","E_COORD97":164764.66,"N_COORD97":2543507.2200000002,"ADDRESS":"育平五街３４號","OBJECTID":296130},"geometry":{"x":164764.66000000108,"y":2543507.2200000007}},{"attributes":{"ID":296139,"DIS_CODE":0,"TOWNNAME":"安平區","LI":"育平里","LIN":"4鄰","STREET":"育平五街","SECT":" ","MAREA":" ","LANE":" ","ALLEY":" ","HOUSE_NO":"３６號","E_COORD97":164748.92000000001,"N_COORD97":2543509.8100000001,"ADDRESS":"育平五街３６號","OBJECTID":296131},"geometry":{"x":164748.92000000179,"y":2543509.8100000005}},{"attributes":{"ID":296140,"DIS_CODE":0,"TOWNNAME":"新市區","LI":"永就里","LIN":"14鄰","STREET":"永華二街","SECT":" ","MAREA":" ","LANE":" ","ALLEY":" ","HOUSE_NO":"４９號","E_COORD97":177744.26000000001,"N_COORD97":2551109,"ADDRESS":"永華二街４９號","OBJECTID":296132},"geometry":{"x":177744.25999999978,"y":2551109}},{"attributes":{"ID":296141,"DIS_CODE":0,"TOWNNAME":"南區","LI":"文南里","LIN":"14鄰","STREET":"永南二街","SECT":" ","MAREA":" ","LANE":" ","ALLEY":" ","HOUSE_NO":"２２號","E_COORD97":166765.73000000001,"N_COORD97":2542625.6299999999,"ADDRESS":"永南二街２２號","OBJECTID":296133},"geometry":{"x":166765.73000000045,"y":2542625.6300000027}},{"attributes":{"ID":296142,"DIS_CODE":0,"TOWNNAME":"南區","LI":"文南里","LIN":"14鄰","STREET":"永南二街","SECT":" ","MAREA":" ","LANE":" ","ALLEY":" ","HOUSE_NO":"２４號","E_COORD97":166761.17999999999,"N_COORD97":2542626.7200000002,"ADDRESS":"永南二街２４號","OBJECTID":296134},"geometry":{"x":166761.18000000063,"y":2542626.7200000044}},{"attributes":{"ID":296143,"DIS_CODE":0,"TOWNNAME":"南區","LI":"文南里","LIN":"14鄰","STREET":"永南二街","SECT":" ","MAREA":" ","LANE":" ","ALLEY":" ","HOUSE_NO":"２６號","E_COORD97":166756.62,"N_COORD97":2542627.1600000001,"ADDRESS":"永南二街２６號","OBJECTID":296135},"geometry":{"x":166756.62000000104,"y":2542627.160000002}},{"attributes":{"ID":296144,"DIS_CODE":0,"TOWNNAME":"南區","LI":"文南里","LIN":"14鄰","STREET":"永南二街","SECT":" ","MAREA":" ","LANE":" ","ALLEY":" ","HOUSE_NO":"２８號","E_COORD97":166751.63,"N_COORD97":2542628.02,"ADDRESS":"永南二街２８號","OBJECTID":296136},"geometry":{"x":166751.63000000082,"y":2542628.0200000014}},{"attributes":{"ID":296145,"DIS_CODE":0,"TOWNNAME":"南區","LI":"文南里","LIN":"14鄰","STREET":"永南二街","SECT":" ","MAREA":" ","LANE":" ","ALLEY":" ","HOUSE_NO":"３０號","E_COORD97":166746.42999999999,"N_COORD97":2542628.6699999999,"ADDRESS":"永南二街３０號","OBJECTID":296137},"geometry":{"x":166746.4299999997,"y":2542628.6699999999}},{"attributes":{"ID":296146,"DIS_CODE":0,"TOWNNAME":"南區","LI":"文南里","LIN":"14鄰","STREET":"永南二街","SECT":" ","MAREA":" ","LANE":" ","ALLEY":" ","HOUSE_NO":"３２號","E_COORD97":166741.87,"N_COORD97":2542629.54,"ADDRESS":"永南二街３２號","OBJECTID":296138},"geometry":{"x":166741.87000000104,"y":2542629.5400000028}},{"attributes":{"ID":296147,"DIS_CODE":0,"TOWNNAME":"永康區","LI":"北灣里","LIN":"25鄰","STREET":"大灣路","SECT":" ","MAREA":" ","LANE":"１６１巷","ALLEY":" ","HOUSE_NO":"２號","E_COORD97":175050.14000000001,"N_COORD97":2545421.8399999999,"ADDRESS":"大灣路１６１巷２號","OBJECTID":296139},"geometry":{"x":175050.13999999966,"y":2545421.839999998}},{"attributes":{"ID":296148,"DIS_CODE":0,"TOWNNAME":"永康區","LI":"北灣里","LIN":"4鄰","STREET":"信義街","SECT":" ","MAREA":" ","LANE":"６２巷","ALLEY":" ","HOUSE_NO":"２３號","E_COORD97":175417.89000000001,"N_COORD97":2545735.98,"ADDRESS":"信義街６２巷２３號","OBJECTID":296140},"geometry":{"x":175417.88999999966,"y":2545735.9800000004}},{"attributes":{"ID":296149,"DIS_CODE":0,"TOWNNAME":"永康區","LI":"北灣里","LIN":"4鄰","STREET":"信義街","SECT":" ","MAREA":" ","LANE":"６２巷","ALLEY":" ","HOUSE_NO":"２１號","E_COORD97":175418.48000000001,"N_COORD97":2545730.4900000002,"ADDRESS":"信義街６２巷２１號","OBJECTID":296141},"geometry":{"x":175418.48000000231,"y":2545730.4900000021}},{"attributes":{"ID":296150,"DIS_CODE":0,"TOWNNAME":"永康區","LI":"永康里","LIN":"26鄰","STREET":"永明街","SECT":" ","MAREA":" ","LANE":"５３巷","ALLEY":" ","HOUSE_NO":"３７號","E_COORD97":174144.89999999999,"N_COORD97":2547404.8599999999,"ADDRESS":"永明街５３巷３７號","OBJECTID":296142},"geometry":{"x":174144.9000000013,"y":2547404.8600000031}},{"attributes":{"ID":296151,"DIS_CODE":0,"TOWNNAME":"永康區","LI":"正強里","LIN":"25鄰","STREET":"中正路","SECT":" ","MAREA":" ","LANE":"１２７巷","ALLEY":" ","HOUSE_NO":"１４號","E_COORD97":173371.60999999999,"N_COORD97":2547829.9900000002,"ADDRESS":"中正路１２７巷１４號","OBJECTID":296143},"geometry":{"x":173371.61000000127,"y":2547829.9900000021}},{"attributes":{"ID":296152,"DIS_CODE":0,"TOWNNAME":"永康區","LI":"北灣里","LIN":"4鄰","STREET":"信義街","SECT":" ","MAREA":" ","LANE":"４４巷","ALLEY":" ","HOUSE_NO":"４２號","E_COORD97":175480.95000000001,"N_COORD97":2545771.9100000001,"ADDRESS":"信義街４４巷４２號","OBJECTID":296144},"geometry":{"x":175480.95000000019,"y":2545771.910000002}},{"attributes":{"ID":296153,"DIS_CODE":0,"TOWNNAME":"永康區","LI":"北灣里","LIN":"25鄰","STREET":"大灣路","SECT":" ","MAREA":" ","LANE":"２１５巷","ALLEY":" ","HOUSE_NO":"９號","E_COORD97":175016.06,"N_COORD97":2545316.5499999998,"ADDRESS":"大灣路２１５巷９號","OBJECTID":296145},"geometry":{"x":175016.06000000052,"y":2545316.5500000045}},{"attributes":{"ID":296154,"DIS_CODE":0,"TOWNNAME":"歸仁區","LI":"六甲里","LIN":"17鄰","STREET":"六甲路","SECT":" ","MAREA":" ","LANE":"３２１巷","ALLEY":" ","HOUSE_NO":"２９號","E_COORD97":175735.32000000001,"N_COORD97":2539141.25,"ADDRESS":"六甲路３２１巷２９號","OBJECTID":296146},"geometry":{"x":175735.32000000123,"y":2539141.2500000019}},{"attributes":{"ID":296155,"DIS_CODE":0,"TOWNNAME":"新營區","LI":"新東里","LIN":"17鄰","STREET":"東興四街","SECT":" ","MAREA":" ","LANE":"３２巷","ALLEY":" ","HOUSE_NO":"２７號","E_COORD97":180906.54999999999,"N_COORD97":2579095.6000000001,"ADDRESS":"東興四街３２巷２７號","OBJECTID":296147},"geometry":{"x":180906.55000000075,"y":2579095.5999999996}},{"attributes":{"ID":296156,"DIS_CODE":0,"TOWNNAME":"新營區","LI":"忠政里","LIN":"17鄰","STREET":"府西路","SECT":" ","MAREA":" ","LANE":"２５８巷","ALLEY":" ","HOUSE_NO":"３９號","E_COORD97":179893.98999999999,"N_COORD97":2579743.79,"ADDRESS":"府西路２５８巷３９號","OBJECTID":296148},"geometry":{"x":179893.99000000115,"y":2579743.790000001}},{"attributes":{"ID":296157,"DIS_CODE":0,"TOWNNAME":"新營區","LI":"新東里","LIN":"17鄰","STREET":"東興四街","SECT":" ","MAREA":" ","LANE":"３２巷","ALLEY":" ","HOUSE_NO":"５號","E_COORD97":180902.47,"N_COORD97":2579157.6400000001,"ADDRESS":"東興四街３２巷５號","OBJECTID":296149},"geometry":{"x":180902.47000000067,"y":2579157.6400000006}},{"attributes":{"ID":296158,"DIS_CODE":0,"TOWNNAME":"南區","LI":"文南里","LIN":"14鄰","STREET":"永南二街","SECT":" ","MAREA":" ","LANE":" ","ALLEY":" ","HOUSE_NO":"３４號","E_COORD97":166737.09,"N_COORD97":2542630.1899999999,"ADDRESS":"永南二街３４號","OBJECTID":296150},"geometry":{"x":166737.08999999985,"y":2542630.1900000013}},{"attributes":{"ID":296159,"DIS_CODE":0,"TOWNNAME":"南區","LI":"文南里","LIN":"14鄰","STREET":"永南二街","SECT":" ","MAREA":" ","LANE":" ","ALLEY":" ","HOUSE_NO":"３６號","E_COORD97":166731.89000000001,"N_COORD97":2542630.8399999999,"ADDRESS":"永南二街３６號","OBJECTID":296151},"geometry":{"x":166731.88999999966,"y":2542630.8399999999}},{"attributes":{"ID":296160,"DIS_CODE":0,"TOWNNAME":"南區","LI":"文南里","LIN":"14鄰","STREET":"永南二街","SECT":" ","MAREA":" ","LANE":" ","ALLEY":" ","HOUSE_NO":"３８號","E_COORD97":166727.76000000001,"N_COORD97":2542631.4900000002,"ADDRESS":"永南二街３８號","OBJECTID":296152},"geometry":{"x":166727.75999999978,"y":2542631.4900000021}},{"attributes":{"ID":296161,"DIS_CODE":0,"TOWNNAME":"南區","LI":"文南里","LIN":"14鄰","STREET":"永南二街","SECT":" ","MAREA":" ","LANE":" ","ALLEY":" ","HOUSE_NO":"４０號","E_COORD97":166722.76999999999,"N_COORD97":2542632.5699999998,"ADDRESS":"永南二街４０號","OBJECTID":296153},"geometry":{"x":166722.77000000048,"y":2542632.5700000003}},{"attributes":{"ID":296162,"DIS_CODE":0,"TOWNNAME":"南區","LI":"文南里","LIN":"14鄰","STREET":"永南二街","SECT":" ","MAREA":" ","LANE":" ","ALLEY":" ","HOUSE_NO":"４２號","E_COORD97":166717.35000000001,"N_COORD97":2542632.5699999998,"ADDRESS":"永南二街４２號","OBJECTID":296154},"geometry":{"x":166717.35000000056,"y":2542632.5700000003}},{"attributes":{"ID":296163,"DIS_CODE":0,"TOWNNAME":"南區","LI":"文南里","LIN":"14鄰","STREET":"永南二街","SECT":" ","MAREA":" ","LANE":" ","ALLEY":" ","HOUSE_NO":"４２號之１","E_COORD97":166712.79000000001,"N_COORD97":2542633.6600000001,"ADDRESS":"永南二街４２號之１","OBJECTID":296155},"geometry":{"x":166712.7900000019,"y":2542633.660000002}},{"attributes":{"ID":296164,"DIS_CODE":0,"TOWNNAME":"南區","LI":"文南里","LIN":"14鄰","STREET":"永南二街","SECT":" ","MAREA":" ","LANE":" ","ALLEY":" ","HOUSE_NO":"４６號","E_COORD97":166707.81,"N_COORD97":2542634.3100000001,"ADDRESS":"永南二街４６號","OBJECTID":296156},"geometry":{"x":166707.81000000052,"y":2542634.3100000024}},{"attributes":{"ID":296165,"DIS_CODE":0,"TOWNNAME":"南區","LI":"文南里","LIN":"14鄰","STREET":"永南二街","SECT":" ","MAREA":" ","LANE":" ","ALLEY":" ","HOUSE_NO":"４８號","E_COORD97":166702.82000000001,"N_COORD97":2542634.96,"ADDRESS":"永南二街４８號","OBJECTID":296157},"geometry":{"x":166702.82000000216,"y":2542634.9600000009}},{"attributes":{"ID":296166,"DIS_CODE":0,"TOWNNAME":"新營區","LI":"新東里","LIN":"26鄰","STREET":"東興三街","SECT":" ","MAREA":" ","LANE":"２２巷","ALLEY":" ","HOUSE_NO":"６２號二樓","E_COORD97":180622.06,"N_COORD97":2579415.8999999999,"ADDRESS":"東興三街２２巷６２號二樓","OBJECTID":296158},"geometry":{"x":180622.06000000052,"y":2579415.9000000004}},{"attributes":{"ID":296167,"DIS_CODE":0,"TOWNNAME":"新營區","LI":"新東里","LIN":"26鄰","STREET":"東興三街","SECT":" ","MAREA":" ","LANE":"２２巷","ALLEY":" ","HOUSE_NO":"６８號四樓","E_COORD97":180604.66,"N_COORD97":2579414.8700000001,"ADDRESS":"東興三街２２巷６８號四樓","OBJECTID":296159},"geometry":{"x":180604.66000000108,"y":2579414.8700000048}},{"attributes":{"ID":296168,"DIS_CODE":0,"TOWNNAME":"永康區","LI":"正強里","LIN":"40鄰","STREET":"四維街","SECT":" ","MAREA":" ","LANE":"２０７巷","ALLEY":" ","HOUSE_NO":"１號","E_COORD97":173237.42000000001,"N_COORD97":2548479,"ADDRESS":"四維街２０７巷１號","OBJECTID":296160},"geometry":{"x":173237.42000000086,"y":2548478.9999999981}},{"attributes":{"ID":296169,"DIS_CODE":0,"TOWNNAME":"新營區","LI":"永生里","LIN":" ","STREET":"康樂街","SECT":" ","MAREA":" ","LANE":"１巷","ALLEY":" ","HOUSE_NO":"１號７樓","E_COORD97":180070.62,"N_COORD97":2577919,"ADDRESS":"康樂街１巷１號７樓","OBJECTID":296161},"geometry":{"x":180070.62000000104,"y":2577919.0000000019}},{"attributes":{"ID":296170,"DIS_CODE":0,"TOWNNAME":"新營區","LI":"忠政里","LIN":"17鄰","STREET":"府西路","SECT":" ","MAREA":" ","LANE":"２５８巷","ALLEY":" ","HOUSE_NO":"２５號","E_COORD97":179855.07999999999,"N_COORD97":2579739.5499999998,"ADDRESS":"府西路２５８巷２５號","OBJECTID":296162},"geometry":{"x":179855.08000000007,"y":2579739.5500000026}},{"attributes":{"ID":296171,"DIS_CODE":0,"TOWNNAME":"新營區","LI":"南紙里","LIN":"17鄰","STREET":"南紙街","SECT":" ","MAREA":" ","LANE":"１６２巷","ALLEY":" ","HOUSE_NO":"１１號","E_COORD97":177774.95999999999,"N_COORD97":2577281.0299999998,"ADDRESS":"南紙街１６２巷１１號","OBJECTID":296163},"geometry":{"x":177774.96000000089,"y":2577281.0300000012}},{"attributes":{"ID":296172,"DIS_CODE":0,"TOWNNAME":"新營區","LI":"忠政里","LIN":"17鄰","STREET":"府西路","SECT":" ","MAREA":" ","LANE":"２５８巷","ALLEY":" ","HOUSE_NO":"３號","E_COORD97":179801.67999999999,"N_COORD97":2579738.6899999999,"ADDRESS":"府西路２５８巷３號","OBJECTID":296164},"geometry":{"x":179801.67999999877,"y":2579738.6899999995}},{"attributes":{"ID":296173,"DIS_CODE":0,"TOWNNAME":"新營區","LI":"南紙里","LIN":"17鄰","STREET":"南紙街","SECT":" ","MAREA":" ","LANE":"１６２巷","ALLEY":" ","HOUSE_NO":"２９號","E_COORD97":177810.88,"N_COORD97":2577288.6099999999,"ADDRESS":"南紙街１６２巷２９號","OBJECTID":296165},"geometry":{"x":177810.88000000082,"y":2577288.6099999994}},{"attributes":{"ID":296174,"DIS_CODE":0,"TOWNNAME":"新營區","LI":"新東里","LIN":"17鄰","STREET":"東興四街","SECT":" ","MAREA":" ","LANE":"３２巷","ALLEY":" ","HOUSE_NO":"２５號","E_COORD97":180905.54999999999,"N_COORD97":2579100.04,"ADDRESS":"東興四街３２巷２５號","OBJECTID":296166},"geometry":{"x":180905.54999999981,"y":2579100.0400000028}},{"attributes":{"ID":296175,"DIS_CODE":0,"TOWNNAME":"新營區","LI":"忠政里","LIN":"17鄰","STREET":"府西路","SECT":" ","MAREA":" ","LANE":"２５８巷","ALLEY":" ","HOUSE_NO":"２之１號","E_COORD97":179806.14999999999,"N_COORD97":2579727.6499999999,"ADDRESS":"府西路２５８巷２之１號","OBJECTID":296167},"geometry":{"x":179806.15000000224,"y":2579727.6500000041}},{"attributes":{"ID":296176,"DIS_CODE":0,"TOWNNAME":"新營區","LI":"南紙里","LIN":"17鄰","STREET":"南紙街","SECT":" ","MAREA":" ","LANE":"１６２巷","ALLEY":" ","HOUSE_NO":"１５號","E_COORD97":177783.16,"N_COORD97":2577283.21,"ADDRESS":"南紙街１６２巷１５號","OBJECTID":296168},"geometry":{"x":177783.16000000015,"y":2577283.209999999}},{"attributes":{"ID":296177,"DIS_CODE":0,"TOWNNAME":"新營區","LI":"忠政里","LIN":"17鄰","STREET":"府西路","SECT":" ","MAREA":" ","LANE":"２５８巷","ALLEY":" ","HOUSE_NO":"３７號","E_COORD97":179888.87,"N_COORD97":2579743.8199999998,"ADDRESS":"府西路２５８巷３７號","OBJECTID":296169},"geometry":{"x":179888.87000000011,"y":2579743.8200000022}},{"attributes":{"ID":296178,"DIS_CODE":0,"TOWNNAME":"關廟區","LI":"布袋里","LIN":"3鄰","STREET":"南雄南路","SECT":" ","MAREA":" ","LANE":" ","ALLEY":" ","HOUSE_NO":"１１３號","E_COORD97":183033.745238,"N_COORD97":2535742.53217,"ADDRESS":"南雄南路１１３號","OBJECTID":296170},"geometry":{"x":183033.74523800053,"y":2535742.5321670026}},{"attributes":{"ID":296179,"DIS_CODE":0,"TOWNNAME":"新營區","LI":"忠政里","LIN":"17鄰","STREET":"府西路","SECT":" ","MAREA":" ","LANE":"２５８巷","ALLEY":" ","HOUSE_NO":"３５號","E_COORD97":179882.73999999999,"N_COORD97":2579743.8399999999,"ADDRESS":"府西路２５８巷３５號","OBJECTID":296171},"geometry":{"x":179882.74000000022,"y":2579743.8400000017}},{"attributes":{"ID":296180,"DIS_CODE":0,"TOWNNAME":"新營區","LI":"忠政里","LIN":"17鄰","STREET":"府西路","SECT":" ","MAREA":" ","LANE":"２５８巷","ALLEY":" ","HOUSE_NO":"３２號","E_COORD97":179911.28,"N_COORD97":2579725.9900000002,"ADDRESS":"府西路２５８巷３２號","OBJECTID":296172},"geometry":{"x":179911.28000000026,"y":2579725.9900000021}},{"attributes":{"ID":296181,"DIS_CODE":0,"TOWNNAME":"新營區","LI":"南紙里","LIN":"17鄰","STREET":"南紙街","SECT":" ","MAREA":" ","LANE":"１６２巷","ALLEY":" ","HOUSE_NO":"２５號","E_COORD97":177802.67999999999,"N_COORD97":2577286.4399999999,"ADDRESS":"南紙街１６２巷２５號","OBJECTID":296173},"geometry":{"x":177802.6799999997,"y":2577286.4399999995}},{"attributes":{"ID":296182,"DIS_CODE":0,"TOWNNAME":"新營區","LI":"忠政里","LIN":"17鄰","STREET":"府西路","SECT":" ","MAREA":" ","LANE":"２５８巷","ALLEY":" ","HOUSE_NO":"６號","E_COORD97":179807.67999999999,"N_COORD97":2579727.5800000001,"ADDRESS":"府西路２５８巷６號","OBJECTID":296174},"geometry":{"x":179807.68000000063,"y":2579727.5800000001}},{"attributes":{"ID":296183,"DIS_CODE":0,"TOWNNAME":"新營區","LI":"新東里","LIN":"17鄰","STREET":"東興四街","SECT":" ","MAREA":" ","LANE":"３２巷","ALLEY":" ","HOUSE_NO":"３號","E_COORD97":180901.53,"N_COORD97":2579160.96,"ADDRESS":"東興四街３２巷３號","OBJECTID":296175},"geometry":{"x":180901.53000000026,"y":2579160.9600000028}},{"attributes":{"ID":296184,"DIS_CODE":0,"TOWNNAME":"新營區","LI":"新東里","LIN":"17鄰","STREET":"東興四街","SECT":" ","MAREA":" ","LANE":"３２巷","ALLEY":" ","HOUSE_NO":"１１號","E_COORD97":180903.60999999999,"N_COORD97":2579137.71,"ADDRESS":"東興四街３２巷１１號","OBJECTID":296176},"geometry":{"x":180903.61000000127,"y":2579137.709999999}},{"attributes":{"ID":296185,"DIS_CODE":0,"TOWNNAME":"南區","LI":"文南里","LIN":"14鄰","STREET":"永南二街","SECT":" ","MAREA":" ","LANE":" ","ALLEY":" ","HOUSE_NO":"５０號","E_COORD97":166698.48000000001,"N_COORD97":2542635.6099999999,"ADDRESS":"永南二街５０號","OBJECTID":296177},"geometry":{"x":166698.48000000231,"y":2542635.6099999994}},{"attributes":{"ID":296186,"DIS_CODE":0,"TOWNNAME":"南區","LI":"文南里","LIN":"14鄰","STREET":"永南二街","SECT":" ","MAREA":" ","LANE":" ","ALLEY":" ","HOUSE_NO":"５２號","E_COORD97":166693.28,"N_COORD97":2542636.4700000002,"ADDRESS":"永南二街５２號","OBJECTID":296178},"geometry":{"x":166693.28000000119,"y":2542636.4700000025}},{"attributes":{"ID":296187,"DIS_CODE":0,"TOWNNAME":"南區","LI":"文南里","LIN":"14鄰","STREET":"永南三街","SECT":" ","MAREA":" ","LANE":" ","ALLEY":" ","HOUSE_NO":"２１號","E_COORD97":166779.79999999999,"N_COORD97":2542658.8799999999,"ADDRESS":"永南三街２１號","OBJECTID":296179},"geometry":{"x":166779.79999999981,"y":2542658.8800000008}},{"attributes":{"ID":296188,"DIS_CODE":0,"TOWNNAME":"南區","LI":"文南里","LIN":"14鄰","STREET":"永南三街","SECT":" ","MAREA":" ","LANE":" ","ALLEY":" ","HOUSE_NO":"２２號","E_COORD97":166794.64000000001,"N_COORD97":2542672.4700000002,"ADDRESS":"永南三街２２號","OBJECTID":296180},"geometry":{"x":166794.63999999966,"y":2542672.4700000044}},{"attributes":{"ID":296189,"DIS_CODE":0,"TOWNNAME":"關廟區","LI":"埤頭里","LIN":"4鄰","STREET":"保東路","SECT":" ","MAREA":" ","LANE":"１１５巷","ALLEY":" ","HOUSE_NO":"１７號二樓","E_COORD97":178810.82000000001,"N_COORD97":2543959.2999999998,"ADDRESS":"保東路１１５巷１７號二樓","OBJECTID":296181},"geometry":{"x":178810.8200000003,"y":2543959.3000000026}},{"attributes":{"ID":296190,"DIS_CODE":0,"TOWNNAME":"新營區","LI":"忠政里","LIN":"17鄰","STREET":"府西路","SECT":" ","MAREA":" ","LANE":"２６０巷","ALLEY":" ","HOUSE_NO":"１５號","E_COORD97":179838.82999999999,"N_COORD97":2579778.3900000001,"ADDRESS":"府西路２６０巷１５號","OBJECTID":296182},"geometry":{"x":179838.83000000101,"y":2579778.3900000025}},{"attributes":{"ID":296191,"DIS_CODE":0,"TOWNNAME":"新營區","LI":"忠政里","LIN":"17鄰","STREET":"府西路","SECT":" ","MAREA":" ","LANE":"２６０巷","ALLEY":" ","HOUSE_NO":"２之１號","E_COORD97":179801.82999999999,"N_COORD97":2579771.9199999999,"ADDRESS":"府西路２６０巷２之１號","OBJECTID":296183},"geometry":{"x":179801.83000000101,"y":2579771.9199999999}},{"attributes":{"ID":296192,"DIS_CODE":0,"TOWNNAME":"新營區","LI":"忠政里","LIN":"17鄰","STREET":"府西路","SECT":" ","MAREA":" ","LANE":"２６０巷","ALLEY":" ","HOUSE_NO":"１號","E_COORD97":179795.64999999999,"N_COORD97":2579778.5899999999,"ADDRESS":"府西路２６０巷１號","OBJECTID":296184},"geometry":{"x":179795.65000000037,"y":2579778.5900000036}},{"attributes":{"ID":296193,"DIS_CODE":0,"TOWNNAME":"新營區","LI":"忠政里","LIN":"17鄰","STREET":"府西路","SECT":" ","MAREA":" ","LANE":"２６０巷","ALLEY":" ","HOUSE_NO":"１６號","E_COORD97":179844.89999999999,"N_COORD97":2579765.0699999998,"ADDRESS":"府西路２６０巷１６號","OBJECTID":296185},"geometry":{"x":179844.90000000037,"y":2579765.0700000003}},{"attributes":{"ID":296194,"DIS_CODE":0,"TOWNNAME":"新營區","LI":"忠政里","LIN":"17鄰","STREET":"府西路","SECT":" ","MAREA":" ","LANE":"２６０巷","ALLEY":" ","HOUSE_NO":"１８號","E_COORD97":179844.88,"N_COORD97":2579759.54,"ADDRESS":"府西路２６０巷１８號","OBJECTID":296186},"geometry":{"x":179844.88000000082,"y":2579759.5399999991}},{"attributes":{"ID":296195,"DIS_CODE":0,"TOWNNAME":"新營區","LI":"忠政里","LIN":"17鄰","STREET":"府西路","SECT":" ","MAREA":" ","LANE":"２６０巷","ALLEY":" ","HOUSE_NO":"３號","E_COORD97":179800.87,"N_COORD97":2579781.8900000001,"ADDRESS":"府西路２６０巷３號","OBJECTID":296187},"geometry":{"x":179800.87000000197,"y":2579781.8900000025}},{"attributes":{"ID":296196,"DIS_CODE":0,"TOWNNAME":"北區","LI":"玉皇里","LIN":"5鄰","STREET":"公園南路","SECT":" ","MAREA":" ","LANE":"１２１巷","ALLEY":" ","HOUSE_NO":"８號","E_COORD97":168785.42999999999,"N_COORD97":2544605.6499999999,"ADDRESS":"公園南路１２１巷８號","OBJECTID":296188},"geometry":{"x":168785.43000000063,"y":2544605.6500000004}},{"attributes":{"ID":296197,"DIS_CODE":0,"TOWNNAME":"新營區","LI":"忠政里","LIN":"17鄰","STREET":"府西路","SECT":" ","MAREA":" ","LANE":"２６０巷","ALLEY":" ","HOUSE_NO":"１３號","E_COORD97":179832.69,"N_COORD97":2579778.4199999999,"ADDRESS":"府西路２６０巷１３號","OBJECTID":296189},"geometry":{"x":179832.69000000041,"y":2579778.4199999999}},{"attributes":{"ID":296198,"DIS_CODE":0,"TOWNNAME":"新營區","LI":"興業里","LIN":"17鄰","STREET":"中興路","SECT":" ","MAREA":" ","LANE":"１５巷","ALLEY":" ","HOUSE_NO":"１６之３號","E_COORD97":180219.16,"N_COORD97":2577917.2400000002,"ADDRESS":"中興路１５巷１６之３號","OBJECTID":296190},"geometry":{"x":180219.16000000015,"y":2577917.2400000021}},{"attributes":{"ID":296199,"DIS_CODE":0,"TOWNNAME":"歸仁區","LI":"大廟里","LIN":"17鄰","STREET":"大廟五街","SECT":" ","MAREA":" ","LANE":"１３１巷","ALLEY":" ","HOUSE_NO":"１１９號","E_COORD97":175779.51999999999,"N_COORD97":2544680.2400000002,"ADDRESS":"大廟五街１３１巷１１９號","OBJECTID":296191},"geometry":{"x":175779.51999999955,"y":2544680.2400000002}},{"attributes":{"ID":296200,"DIS_CODE":0,"TOWNNAME":"歸仁區","LI":"新厝里","LIN":"17鄰","STREET":"中正南路","SECT":"一段","MAREA":" ","LANE":"１５３巷","ALLEY":" ","HOUSE_NO":"１３號","E_COORD97":177499.26999999999,"N_COORD97":2540383.3900000001,"ADDRESS":"中正南路一段１５３巷１３號","OBJECTID":296192},"geometry":{"x":177499.27000000048,"y":2540383.3900000006}},{"attributes":{"ID":296201,"DIS_CODE":0,"TOWNNAME":"南區","LI":"文南里","LIN":"14鄰","STREET":"永南三街","SECT":" ","MAREA":" ","LANE":" ","ALLEY":" ","HOUSE_NO":"２３號","E_COORD97":166769.72,"N_COORD97":2542660.9700000002,"ADDRESS":"永南三街２３號","OBJECTID":296193},"geometry":{"x":166769.72000000067,"y":2542660.9700000007}},{"attributes":{"ID":296202,"DIS_CODE":0,"TOWNNAME":"安平區","LI":"億載里","LIN":"4鄰","STREET":"安億路","SECT":" ","MAREA":" ","LANE":" ","ALLEY":" ","HOUSE_NO":"２５０號","E_COORD97":163763.73000000001,"N_COORD97":2543830.3199999998,"ADDRESS":"安億路２５０號","OBJECTID":296194},"geometry":{"x":163763.73000000045,"y":2543830.3200000022}},{"attributes":{"ID":296203,"DIS_CODE":0,"TOWNNAME":"關廟區","LI":"松腳里","LIN":"17鄰","STREET":"民族街","SECT":" ","MAREA":" ","LANE":"５巷","ALLEY":" ","HOUSE_NO":"１６號","E_COORD97":181622.94,"N_COORD97":2539750.29,"ADDRESS":"民族街５巷１６號","OBJECTID":296195},"geometry":{"x":181622.94000000041,"y":2539750.290000001}},{"attributes":{"ID":296204,"DIS_CODE":0,"TOWNNAME":"關廟區","LI":"松腳里","LIN":"17鄰","STREET":"民族街","SECT":" ","MAREA":" ","LANE":"５巷","ALLEY":" ","HOUSE_NO":"１２號","E_COORD97":181623.34,"N_COORD97":2539754.29,"ADDRESS":"民族街５巷１２號","OBJECTID":296196},"geometry":{"x":181623.34000000078,"y":2539754.290000001}},{"attributes":{"ID":296205,"DIS_CODE":0,"TOWNNAME":"關廟區","LI":"北花里","LIN":"17鄰","STREET":"中正路","SECT":" ","MAREA":" ","LANE":"５３７巷","ALLEY":" ","HOUSE_NO":"１０號","E_COORD97":182356.03,"N_COORD97":2540446.4700000002,"ADDRESS":"中正路５３７巷１０號","OBJECTID":296197},"geometry":{"x":182356.03000000026,"y":2540446.4700000025}},{"attributes":{"ID":296206,"DIS_CODE":0,"TOWNNAME":"北區","LI":"玉皇里","LIN":"7鄰","STREET":"崇安街","SECT":" ","MAREA":" ","LANE":"７０巷","ALLEY":" ","HOUSE_NO":"５號","E_COORD97":168743.42000000001,"N_COORD97":2544543.6699999999,"ADDRESS":"崇安街７０巷５號","OBJECTID":296198},"geometry":{"x":168743.42000000086,"y":2544543.6699999999}},{"attributes":{"ID":296207,"DIS_CODE":0,"TOWNNAME":"關廟區","LI":"北花里","LIN":"17鄰","STREET":"中正路","SECT":" ","MAREA":" ","LANE":"５３７巷","ALLEY":" ","HOUSE_NO":"２２號","E_COORD97":182374.42999999999,"N_COORD97":2540438.4700000002,"ADDRESS":"中正路５３７巷２２號","OBJECTID":296199},"geometry":{"x":182374.4299999997,"y":2540438.4700000025}},{"attributes":{"ID":296208,"DIS_CODE":0,"TOWNNAME":"關廟區","LI":"松腳里","LIN":"17鄰","STREET":"民族街","SECT":" ","MAREA":" ","LANE":"１９巷","ALLEY":" ","HOUSE_NO":"６號","E_COORD97":181564.64000000001,"N_COORD97":2539774.29,"ADDRESS":"民族街１９巷６號","OBJECTID":296200},"geometry":{"x":181564.63999999966,"y":2539774.290000001}}]}