{"displayFieldName":"TOWNNAME","fieldAliases":{"ID":"ID","DIS_CODE":"DIS_CODE","TOWNNAME":"TOWNNAME","LI":"LI","LIN":"LIN","STREET":"STREET","SECT":"SECT","MAREA":"MAREA","LANE":"LANE","ALLEY":"ALLEY","HOUSE_NO":"HOUSE_NO","E_COORD97":"E_COORD97","N_COORD97":"N_COORD97","ADDRESS":"ADDRESS","OBJECTID":"OBJECTID"},"geometryType":"esriGeometryPoint","spatialReference":{"wkid":102443,"latestWkid":3826},"fields":[{"name":"ID","type":"esriFieldTypeDouble","alias":"ID"},{"name":"DIS_CODE","type":"esriFieldTypeInteger","alias":"DIS_CODE"},{"name":"TOWNNAME","type":"esriFieldTypeString","alias":"TOWNNAME","length":8},{"name":"LI","type":"esriFieldTypeString","alias":"LI","length":8},{"name":"LIN","type":"esriFieldTypeString","alias":"LIN","length":12},{"name":"STREET","type":"esriFieldTypeString","alias":"STREET","length":20},{"name":"SECT","type":"esriFieldTypeString","alias":"SECT","length":8},{"name":"MAREA","type":"esriFieldTypeString","alias":"MAREA","length":12},{"name":"LANE","type":"esriFieldTypeString","alias":"LANE","length":10},{"name":"ALLEY","type":"esriFieldTypeString","alias":"ALLEY","length":10},{"name":"HOUSE_NO","type":"esriFieldTypeString","alias":"HOUSE_NO","length":20},{"name":"E_COORD97","type":"esriFieldTypeDouble","alias":"E_COORD97"},{"name":"N_COORD97","type":"esriFieldTypeDouble","alias":"N_COORD97"},{"name":"ADDRESS","type":"esriFieldTypeString","alias":"ADDRESS","length":50},{"name":"OBJECTID","type":"esriFieldTypeOID","alias":"OBJECTID"}],"features":[{"attributes":{"ID":53801,"DIS_CODE":0,"TOWNNAME":"安平區","LI":"億載里","LIN":"1鄰","STREET":"平豐路","SECT":" ","MAREA":" ","LANE":"３９１巷","ALLEY":"２２弄","HOUSE_NO":"５８號","E_COORD97":164136.07000000001,"N_COORD97":2543877.2400000002,"ADDRESS":"平豐路３９１巷２２弄５８號","OBJECTID":53801},"geometry":{"x":164136.0700000003,"y":2543877.2400000039}},{"attributes":{"ID":53802,"DIS_CODE":0,"TOWNNAME":"安南區","LI":"原佃里","LIN":"1鄰","STREET":"本原街","SECT":"一段","MAREA":" ","LANE":"９７巷","ALLEY":"９３弄","HOUSE_NO":"２號","E_COORD97":167880.64999999999,"N_COORD97":2549896.8300000001,"ADDRESS":"本原街一段９７巷９３弄２號","OBJECTID":53802},"geometry":{"x":167880.6500000013,"y":2549896.8300000001}},{"attributes":{"ID":53803,"DIS_CODE":0,"TOWNNAME":"安南區","LI":"溪心里","LIN":"8鄰","STREET":"海佃路","SECT":"二段","MAREA":" ","LANE":" ","ALLEY":" ","HOUSE_NO":"７６８號","E_COORD97":166494.63,"N_COORD97":2549591.23,"ADDRESS":"海佃路二段７６８號","OBJECTID":53803},"geometry":{"x":166494.62999999989,"y":2549591.2300000023}},{"attributes":{"ID":53804,"DIS_CODE":0,"TOWNNAME":"安南區","LI":"溪心里","LIN":"8鄰","STREET":"海佃路","SECT":"二段","MAREA":" ","LANE":" ","ALLEY":" ","HOUSE_NO":"７７０號","E_COORD97":166491.88,"N_COORD97":2549594.8100000001,"ADDRESS":"海佃路二段７７０號","OBJECTID":53804},"geometry":{"x":166491.88000000082,"y":2549594.8100000005}},{"attributes":{"ID":53805,"DIS_CODE":0,"TOWNNAME":"安南區","LI":"溪心里","LIN":"8鄰","STREET":"海佃路","SECT":"二段","MAREA":" ","LANE":" ","ALLEY":" ","HOUSE_NO":"７７２號","E_COORD97":166489.81,"N_COORD97":2549599.0800000001,"ADDRESS":"海佃路二段７７２號","OBJECTID":53805},"geometry":{"x":166489.80999999959,"y":2549599.0800000019}},{"attributes":{"ID":53806,"DIS_CODE":0,"TOWNNAME":"安南區","LI":"城中里","LIN":"8鄰","STREET":"青砂街","SECT":"一段","MAREA":" ","LANE":" ","ALLEY":" ","HOUSE_NO":"９２號","E_COORD97":160667.19,"N_COORD97":2551557.3700000001,"ADDRESS":"青砂街一段９２號","OBJECTID":53806},"geometry":{"x":160667.19000000227,"y":2551557.3700000029}},{"attributes":{"ID":53807,"DIS_CODE":0,"TOWNNAME":"楠西區","LI":"楠西里","LIN":" ","STREET":"民權路","SECT":" ","MAREA":" ","LANE":" ","ALLEY":" ","HOUSE_NO":"２１號","E_COORD97":197278.84,"N_COORD97":2564276.29,"ADDRESS":"民權路２１號","OBJECTID":53807},"geometry":{"x":197278.84000000078,"y":2564276.290000001}},{"attributes":{"ID":53808,"DIS_CODE":0,"TOWNNAME":"楠西區","LI":"楠西里","LIN":" ","STREET":"中興路","SECT":" ","MAREA":" ","LANE":" ","ALLEY":" ","HOUSE_NO":"８１號","E_COORD97":197219.91,"N_COORD97":2564381.25,"ADDRESS":"中興路８１號","OBJECTID":53808},"geometry":{"x":197219.91000000015,"y":2564381.25}},{"attributes":{"ID":53809,"DIS_CODE":0,"TOWNNAME":"楠西區","LI":"東勢里","LIN":" ","STREET":"水庫路","SECT":" ","MAREA":" ","LANE":" ","ALLEY":" ","HOUSE_NO":"７５號","E_COORD97":197872.22,"N_COORD97":2564440.25,"ADDRESS":"水庫路７５號","OBJECTID":53809},"geometry":{"x":197872.2200000016,"y":2564440.2500000019}},{"attributes":{"ID":53810,"DIS_CODE":0,"TOWNNAME":"楠西區","LI":"楠西里","LIN":" ","STREET":"中興路","SECT":" ","MAREA":" ","LANE":" ","ALLEY":" ","HOUSE_NO":"５５號","E_COORD97":197200.01000000001,"N_COORD97":2564305.25,"ADDRESS":"中興路５５號","OBJECTID":53810},"geometry":{"x":197200.00999999978,"y":2564305.2500000019}},{"attributes":{"ID":53811,"DIS_CODE":0,"TOWNNAME":"楠西區","LI":"楠西里","LIN":" ","STREET":"中興路","SECT":" ","MAREA":" ","LANE":" ","ALLEY":" ","HOUSE_NO":"９２號","E_COORD97":197268.81,"N_COORD97":2564348.25,"ADDRESS":"中興路９２號","OBJECTID":53811},"geometry":{"x":197268.81000000052,"y":2564348.2500000019}},{"attributes":{"ID":53812,"DIS_CODE":0,"TOWNNAME":"楠西區","LI":"楠西里","LIN":" ","STREET":"中興路","SECT":" ","MAREA":" ","LANE":" ","ALLEY":" ","HOUSE_NO":"７０號","E_COORD97":197220.81,"N_COORD97":2564292.25,"ADDRESS":"中興路７０號","OBJECTID":53812},"geometry":{"x":197220.81000000052,"y":2564292.25}},{"attributes":{"ID":53813,"DIS_CODE":0,"TOWNNAME":"楠西區","LI":"楠西里","LIN":" ","STREET":"民權路","SECT":" ","MAREA":" ","LANE":" ","ALLEY":" ","HOUSE_NO":"２５號","E_COORD97":197288.14000000001,"N_COORD97":2564275.29,"ADDRESS":"民權路２５號","OBJECTID":53813},"geometry":{"x":197288.1400000006,"y":2564275.2899999972}},{"attributes":{"ID":53814,"DIS_CODE":0,"TOWNNAME":"楠西區","LI":"東勢里","LIN":" ","STREET":"中正路","SECT":" ","MAREA":" ","LANE":" ","ALLEY":" ","HOUSE_NO":"１７１號","E_COORD97":197380.35999999999,"N_COORD97":2563870.25,"ADDRESS":"中正路１７１號","OBJECTID":53814},"geometry":{"x":197380.3600000022,"y":2563870.2500000019}},{"attributes":{"ID":53815,"DIS_CODE":0,"TOWNNAME":"安南區","LI":"原佃里","LIN":"1鄰","STREET":"本原街","SECT":"一段","MAREA":" ","LANE":"９７巷","ALLEY":"９３弄","HOUSE_NO":"２之３號","E_COORD97":167889.29000000001,"N_COORD97":2549897.21,"ADDRESS":"本原街一段９７巷９３弄２之３號","OBJECTID":53815},"geometry":{"x":167889.2900000019,"y":2549897.2100000028}},{"attributes":{"ID":53816,"DIS_CODE":0,"TOWNNAME":"安南區","LI":"原佃里","LIN":"1鄰","STREET":"本原街","SECT":"一段","MAREA":" ","LANE":"９７巷","ALLEY":"９３弄","HOUSE_NO":"２之５號","E_COORD97":167894.88,"N_COORD97":2549897.46,"ADDRESS":"本原街一段９７巷９３弄２之５號","OBJECTID":53816},"geometry":{"x":167894.87999999989,"y":2549897.459999999}},{"attributes":{"ID":53817,"DIS_CODE":0,"TOWNNAME":"安南區","LI":"原佃里","LIN":"1鄰","STREET":"本原街","SECT":"一段","MAREA":" ","LANE":"９７巷","ALLEY":"９３弄","HOUSE_NO":"２之６號","E_COORD97":167899.19,"N_COORD97":2549897.5899999999,"ADDRESS":"本原街一段９７巷９３弄２之６號","OBJECTID":53817},"geometry":{"x":167899.19000000134,"y":2549897.5899999999}},{"attributes":{"ID":53818,"DIS_CODE":0,"TOWNNAME":"安南區","LI":"原佃里","LIN":"1鄰","STREET":"本原街","SECT":"一段","MAREA":" ","LANE":"９７巷","ALLEY":"９３弄","HOUSE_NO":"２８號","E_COORD97":167904.26999999999,"N_COORD97":2549897.3399999999,"ADDRESS":"本原街一段９７巷９３弄２８號","OBJECTID":53818},"geometry":{"x":167904.27000000142,"y":2549897.3400000036}},{"attributes":{"ID":53819,"DIS_CODE":0,"TOWNNAME":"安南區","LI":"原佃里","LIN":"1鄰","STREET":"本原街","SECT":"一段","MAREA":" ","LANE":"９７巷","ALLEY":"９３弄","HOUSE_NO":"２８之１號","E_COORD97":167908.85000000001,"N_COORD97":2549897.21,"ADDRESS":"本原街一段９７巷９３弄２８之１號","OBJECTID":53819},"geometry":{"x":167908.85000000149,"y":2549897.2100000028}},{"attributes":{"ID":53820,"DIS_CODE":0,"TOWNNAME":"安南區","LI":"原佃里","LIN":"1鄰","STREET":"本原街","SECT":"一段","MAREA":" ","LANE":"９７巷","ALLEY":"９３弄","HOUSE_NO":"２８之２號","E_COORD97":167914.17999999999,"N_COORD97":2549897.3399999999,"ADDRESS":"本原街一段９７巷９３弄２８之２號","OBJECTID":53820},"geometry":{"x":167914.18000000063,"y":2549897.3400000036}},{"attributes":{"ID":53821,"DIS_CODE":0,"TOWNNAME":"安南區","LI":"原佃里","LIN":"1鄰","STREET":"本原街","SECT":"一段","MAREA":" ","LANE":"９７巷","ALLEY":"９３弄","HOUSE_NO":"２８之３號","E_COORD97":167919.51000000001,"N_COORD97":2549897.3399999999,"ADDRESS":"本原街一段９７巷９３弄２８之３號","OBJECTID":53821},"geometry":{"x":167919.50999999978,"y":2549897.3400000036}},{"attributes":{"ID":53822,"DIS_CODE":0,"TOWNNAME":"安南區","LI":"淵東里","LIN":"1鄰","STREET":"海佃路","SECT":"四段","MAREA":" ","LANE":"１４０巷","ALLEY":"８弄","HOUSE_NO":"１號","E_COORD97":165733.76000000001,"N_COORD97":2550798.1000000001,"ADDRESS":"海佃路四段１４０巷８弄１號","OBJECTID":53822},"geometry":{"x":165733.76000000071,"y":2550798.1000000015}},{"attributes":{"ID":53823,"DIS_CODE":0,"TOWNNAME":"安南區","LI":"淵東里","LIN":"1鄰","STREET":"海佃路","SECT":"四段","MAREA":" ","LANE":"１４０巷","ALLEY":"８弄","HOUSE_NO":"３號","E_COORD97":165734.91,"N_COORD97":2550793.27,"ADDRESS":"海佃路四段１４０巷８弄３號","OBJECTID":53823},"geometry":{"x":165734.91000000015,"y":2550793.2700000014}},{"attributes":{"ID":53824,"DIS_CODE":0,"TOWNNAME":"安南區","LI":"淵東里","LIN":"1鄰","STREET":"海佃路","SECT":"四段","MAREA":" ","LANE":"１４０巷","ALLEY":"８弄","HOUSE_NO":"５號","E_COORD97":165735.41,"N_COORD97":2550790.48,"ADDRESS":"海佃路四段１４０巷８弄５號","OBJECTID":53824},"geometry":{"x":165735.41000000015,"y":2550790.4800000004}},{"attributes":{"ID":53825,"DIS_CODE":0,"TOWNNAME":"安南區","LI":"淵東里","LIN":"1鄰","STREET":"海佃路","SECT":"四段","MAREA":" ","LANE":"１４０巷","ALLEY":"８弄","HOUSE_NO":"２號","E_COORD97":165698.84,"N_COORD97":2550791.3599999999,"ADDRESS":"海佃路四段１４０巷８弄２號","OBJECTID":53825},"geometry":{"x":165698.84000000078,"y":2550791.3599999994}},{"attributes":{"ID":53826,"DIS_CODE":0,"TOWNNAME":"東區","LI":"崇德里","LIN":"8鄰","STREET":"崇德路","SECT":" ","MAREA":" ","LANE":" ","ALLEY":" ","HOUSE_NO":"４９５號","E_COORD97":170761.98999999999,"N_COORD97":2541656.1800000002,"ADDRESS":"崇德路４９５號","OBJECTID":53826},"geometry":{"x":170761.99000000115,"y":2541656.1800000034}},{"attributes":{"ID":53827,"DIS_CODE":0,"TOWNNAME":"東區","LI":"崇德里","LIN":"8鄰","STREET":"崇德路","SECT":" ","MAREA":" ","LANE":" ","ALLEY":" ","HOUSE_NO":"４８５號","E_COORD97":170744.67000000001,"N_COORD97":2541670.8599999999,"ADDRESS":"崇德路４８５號","OBJECTID":53827},"geometry":{"x":170744.67000000179,"y":2541670.8599999994}},{"attributes":{"ID":53828,"DIS_CODE":0,"TOWNNAME":"東區","LI":"崇德里","LIN":"8鄰","STREET":"崇德路","SECT":" ","MAREA":" ","LANE":" ","ALLEY":" ","HOUSE_NO":"４８７號","E_COORD97":170747.82000000001,"N_COORD97":2541667.98,"ADDRESS":"崇德路４８７號","OBJECTID":53828},"geometry":{"x":170747.82000000123,"y":2541667.9800000004}},{"attributes":{"ID":53829,"DIS_CODE":0,"TOWNNAME":"楠西區","LI":"楠西里","LIN":" ","STREET":"中正路","SECT":" ","MAREA":" ","LANE":" ","ALLEY":" ","HOUSE_NO":"１１４號","E_COORD97":197287.35999999999,"N_COORD97":2563947.25,"ADDRESS":"中正路１１４號","OBJECTID":53829},"geometry":{"x":197287.36000000127,"y":2563947.25}},{"attributes":{"ID":53830,"DIS_CODE":0,"TOWNNAME":"楠西區","LI":"東勢里","LIN":" ","STREET":"中正路","SECT":" ","MAREA":" ","LANE":" ","ALLEY":" ","HOUSE_NO":"１０９號","E_COORD97":197285.26000000001,"N_COORD97":2564013.25,"ADDRESS":"中正路１０９號","OBJECTID":53830},"geometry":{"x":197285.25999999978,"y":2564013.2500000019}},{"attributes":{"ID":53831,"DIS_CODE":0,"TOWNNAME":"楠西區","LI":"楠西里","LIN":" ","STREET":"中正路","SECT":" ","MAREA":" ","LANE":" ","ALLEY":" ","HOUSE_NO":"１２２號","E_COORD97":197299.35999999999,"N_COORD97":2563933.25,"ADDRESS":"中正路１２２號","OBJECTID":53831},"geometry":{"x":197299.36000000127,"y":2563933.25}},{"attributes":{"ID":53832,"DIS_CODE":0,"TOWNNAME":"楠西區","LI":"楠西里","LIN":" ","STREET":"中興路","SECT":" ","MAREA":" ","LANE":" ","ALLEY":" ","HOUSE_NO":"１９號","E_COORD97":197159.41,"N_COORD97":2564191.25,"ADDRESS":"中興路１９號","OBJECTID":53832},"geometry":{"x":197159.41000000201,"y":2564191.25}},{"attributes":{"ID":53833,"DIS_CODE":0,"TOWNNAME":"楠西區","LI":"楠西里","LIN":" ","STREET":"中正路","SECT":" ","MAREA":" ","LANE":" ","ALLEY":" ","HOUSE_NO":"２２６號","E_COORD97":197377.16,"N_COORD97":2563683.25,"ADDRESS":"中正路２２６號","OBJECTID":53833},"geometry":{"x":197377.16000000108,"y":2563683.2500000037}},{"attributes":{"ID":53834,"DIS_CODE":0,"TOWNNAME":"楠西區","LI":"東勢里","LIN":" ","STREET":"中正路","SECT":" ","MAREA":" ","LANE":" ","ALLEY":" ","HOUSE_NO":"２１５號","E_COORD97":197396.26000000001,"N_COORD97":2563758.25,"ADDRESS":"中正路２１５號","OBJECTID":53834},"geometry":{"x":197396.26000000071,"y":2563758.2500000019}},{"attributes":{"ID":53835,"DIS_CODE":0,"TOWNNAME":"楠西區","LI":"東勢里","LIN":" ","STREET":"中正路","SECT":" ","MAREA":" ","LANE":" ","ALLEY":" ","HOUSE_NO":"１５７號","E_COORD97":197322.56,"N_COORD97":2563925.25,"ADDRESS":"中正路１５７號","OBJECTID":53835},"geometry":{"x":197322.56000000052,"y":2563925.2500000019}},{"attributes":{"ID":53836,"DIS_CODE":0,"TOWNNAME":"麻豆區","LI":"小埤里","LIN":"8鄰","STREET":" ","SECT":" ","MAREA":"小埤頭","LANE":" ","ALLEY":" ","HOUSE_NO":"５２號之３","E_COORD97":171491.73999999999,"N_COORD97":2565838.7400000002,"ADDRESS":"小埤頭５２號之３","OBJECTID":53836},"geometry":{"x":171491.74000000022,"y":2565838.7400000002}},{"attributes":{"ID":53837,"DIS_CODE":0,"TOWNNAME":"麻豆區","LI":"小埤里","LIN":"8鄰","STREET":" ","SECT":" ","MAREA":"小埤頭","LANE":" ","ALLEY":" ","HOUSE_NO":"５７號","E_COORD97":171500.12,"N_COORD97":2565526.9399999999,"ADDRESS":"小埤頭５７號","OBJECTID":53837},"geometry":{"x":171500.12000000104,"y":2565526.9400000013}},{"attributes":{"ID":53838,"DIS_CODE":0,"TOWNNAME":"中西區","LI":"藥王里","LIN":"1鄰","STREET":" ","SECT":" ","MAREA":"協進市場","LANE":" ","ALLEY":" ","HOUSE_NO":"７８號","E_COORD97":167453.09,"N_COORD97":2544399.1400000001,"ADDRESS":"協進市場７８號","OBJECTID":53838},"geometry":{"x":167453.09000000171,"y":2544399.1400000006}},{"attributes":{"ID":53839,"DIS_CODE":0,"TOWNNAME":"楠西區","LI":"楠西里","LIN":" ","STREET":"民族路","SECT":" ","MAREA":" ","LANE":" ","ALLEY":" ","HOUSE_NO":"９９號","E_COORD97":197069.23999999999,"N_COORD97":2564147.29,"ADDRESS":"民族路９９號","OBJECTID":53839},"geometry":{"x":197069.24000000209,"y":2564147.290000001}},{"attributes":{"ID":53840,"DIS_CODE":0,"TOWNNAME":"楠西區","LI":"楠西里","LIN":" ","STREET":"中正路","SECT":" ","MAREA":" ","LANE":" ","ALLEY":" ","HOUSE_NO":"６９號","E_COORD97":197214.60999999999,"N_COORD97":2564055.25,"ADDRESS":"中正路６９號","OBJECTID":53840},"geometry":{"x":197214.61000000127,"y":2564055.25}},{"attributes":{"ID":53841,"DIS_CODE":0,"TOWNNAME":"楠西區","LI":"東勢里","LIN":" ","STREET":"水庫路","SECT":" ","MAREA":" ","LANE":" ","ALLEY":" ","HOUSE_NO":"２５８號","E_COORD97":197727.47,"N_COORD97":2564120.25,"ADDRESS":"水庫路２５８號","OBJECTID":53841},"geometry":{"x":197727.46999999974,"y":2564120.25}},{"attributes":{"ID":53842,"DIS_CODE":0,"TOWNNAME":"安南區","LI":"淵東里","LIN":"1鄰","STREET":"海佃路","SECT":"四段","MAREA":" ","LANE":"１４０巷","ALLEY":"８弄","HOUSE_NO":"６號","E_COORD97":165699.09,"N_COORD97":2550789.0800000001,"ADDRESS":"海佃路四段１４０巷８弄６號","OBJECTID":53842},"geometry":{"x":165699.09000000078,"y":2550789.0800000019}},{"attributes":{"ID":53843,"DIS_CODE":0,"TOWNNAME":"安南區","LI":"淵東里","LIN":"1鄰","STREET":"海佃路","SECT":"四段","MAREA":" ","LANE":"１４０巷","ALLEY":"８弄","HOUSE_NO":"７號","E_COORD97":165736.04999999999,"N_COORD97":2550787.9399999999,"ADDRESS":"海佃路四段１４０巷８弄７號","OBJECTID":53843},"geometry":{"x":165736.05000000168,"y":2550787.9400000032}},{"attributes":{"ID":53844,"DIS_CODE":0,"TOWNNAME":"安南區","LI":"淵東里","LIN":"1鄰","STREET":"海佃路","SECT":"四段","MAREA":" ","LANE":"１４０巷","ALLEY":"８弄","HOUSE_NO":"１０號","E_COORD97":165699.85000000001,"N_COORD97":2550784.1299999999,"ADDRESS":"海佃路四段１４０巷８弄１０號","OBJECTID":53844},"geometry":{"x":165699.8499999987,"y":2550784.1300000008}},{"attributes":{"ID":53845,"DIS_CODE":0,"TOWNNAME":"安南區","LI":"淵東里","LIN":"1鄰","STREET":"海佃路","SECT":"四段","MAREA":" ","LANE":"１４０巷","ALLEY":"８弄","HOUSE_NO":"８號","E_COORD97":165699.47,"N_COORD97":2550787.1699999999,"ADDRESS":"海佃路四段１４０巷８弄８號","OBJECTID":53845},"geometry":{"x":165699.47000000067,"y":2550787.1700000018}},{"attributes":{"ID":53846,"DIS_CODE":0,"TOWNNAME":"安南區","LI":"淵東里","LIN":"1鄰","STREET":"海佃路","SECT":"四段","MAREA":" ","LANE":"１４０巷","ALLEY":"８弄","HOUSE_NO":"９號","E_COORD97":165736.17999999999,"N_COORD97":2550783.2400000002,"ADDRESS":"海佃路四段１４０巷８弄９號","OBJECTID":53846},"geometry":{"x":165736.1799999997,"y":2550783.2400000039}},{"attributes":{"ID":53847,"DIS_CODE":0,"TOWNNAME":"安南區","LI":"淵東里","LIN":"1鄰","STREET":"海佃路","SECT":"四段","MAREA":" ","LANE":"１４０巷","ALLEY":"８弄","HOUSE_NO":"１１號","E_COORD97":165736.94,"N_COORD97":2550779.2999999998,"ADDRESS":"海佃路四段１４０巷８弄１１號","OBJECTID":53847},"geometry":{"x":165736.94000000041,"y":2550779.3000000007}},{"attributes":{"ID":53848,"DIS_CODE":0,"TOWNNAME":"安南區","LI":"淵東里","LIN":"1鄰","STREET":"海佃路","SECT":"四段","MAREA":" ","LANE":"１４０巷","ALLEY":"８弄","HOUSE_NO":"１２號","E_COORD97":165700.48999999999,"N_COORD97":2550782.0899999999,"ADDRESS":"海佃路四段１４０巷８弄１２號","OBJECTID":53848},"geometry":{"x":165700.49000000022,"y":2550782.0900000017}},{"attributes":{"ID":53849,"DIS_CODE":0,"TOWNNAME":"安南區","LI":"淵東里","LIN":"1鄰","STREET":"海佃路","SECT":"四段","MAREA":" ","LANE":"１４０巷","ALLEY":"８弄","HOUSE_NO":"１３號","E_COORD97":165737.82999999999,"N_COORD97":2550776.1200000001,"ADDRESS":"海佃路四段１４０巷８弄１３號","OBJECTID":53849},"geometry":{"x":165737.83000000194,"y":2550776.1200000029}},{"attributes":{"ID":53850,"DIS_CODE":0,"TOWNNAME":"安南區","LI":"淵東里","LIN":"1鄰","STREET":"海佃路","SECT":"四段","MAREA":" ","LANE":"１４０巷","ALLEY":"８弄","HOUSE_NO":"１５號","E_COORD97":165738.07999999999,"N_COORD97":2550772.8199999998,"ADDRESS":"海佃路四段１４０巷８弄１５號","OBJECTID":53850},"geometry":{"x":165738.08000000101,"y":2550772.820000004}},{"attributes":{"ID":53851,"DIS_CODE":0,"TOWNNAME":"安南區","LI":"淵東里","LIN":"1鄰","STREET":"海佃路","SECT":"四段","MAREA":" ","LANE":"１４０巷","ALLEY":"８弄","HOUSE_NO":"１６號","E_COORD97":165700.87,"N_COORD97":2550779.2999999998,"ADDRESS":"海佃路四段１４０巷８弄１６號","OBJECTID":53851},"geometry":{"x":165700.87000000104,"y":2550779.3000000007}},{"attributes":{"ID":53852,"DIS_CODE":0,"TOWNNAME":"安南區","LI":"淵東里","LIN":"1鄰","STREET":"海佃路","SECT":"四段","MAREA":" ","LANE":"１４０巷","ALLEY":"８弄","HOUSE_NO":"１７號","E_COORD97":165738.72,"N_COORD97":2550769.52,"ADDRESS":"海佃路四段１４０巷８弄１７號","OBJECTID":53852},"geometry":{"x":165738.72000000067,"y":2550769.5199999996}},{"attributes":{"ID":53853,"DIS_CODE":0,"TOWNNAME":"安南區","LI":"淵東里","LIN":"1鄰","STREET":"海佃路","SECT":"四段","MAREA":" ","LANE":"１４０巷","ALLEY":"８弄","HOUSE_NO":"１８號","E_COORD97":165701.63,"N_COORD97":2550775.8700000001,"ADDRESS":"海佃路四段１４０巷８弄１８號","OBJECTID":53853},"geometry":{"x":165701.62999999896,"y":2550775.870000001}},{"attributes":{"ID":53854,"DIS_CODE":0,"TOWNNAME":"安南區","LI":"淵東里","LIN":"1鄰","STREET":"海佃路","SECT":"四段","MAREA":" ","LANE":"１４０巷","ALLEY":"８弄","HOUSE_NO":"１９號","E_COORD97":165738.84,"N_COORD97":2550764.9500000002,"ADDRESS":"海佃路四段１４０巷８弄１９號","OBJECTID":53854},"geometry":{"x":165738.83999999985,"y":2550764.9500000011}},{"attributes":{"ID":53855,"DIS_CODE":0,"TOWNNAME":"楠西區","LI":"楠西里","LIN":" ","STREET":"中正路","SECT":" ","MAREA":" ","LANE":" ","ALLEY":" ","HOUSE_NO":"８８號","E_COORD97":197232.91,"N_COORD97":2563988.25,"ADDRESS":"中正路８８號","OBJECTID":53855},"geometry":{"x":197232.91000000108,"y":2563988.2499999981}},{"attributes":{"ID":53856,"DIS_CODE":0,"TOWNNAME":"麻豆區","LI":"小埤里","LIN":"8鄰","STREET":" ","SECT":" ","MAREA":"小埤頭","LANE":" ","ALLEY":" ","HOUSE_NO":"５９號之３","E_COORD97":171473.70999999999,"N_COORD97":2565556.96,"ADDRESS":"小埤頭５９號之３","OBJECTID":53856},"geometry":{"x":171473.71000000089,"y":2565556.9600000009}},{"attributes":{"ID":53857,"DIS_CODE":0,"TOWNNAME":"麻豆區","LI":"小埤里","LIN":"8鄰","STREET":" ","SECT":" ","MAREA":"小埤頭","LANE":" ","ALLEY":" ","HOUSE_NO":"５９號之４","E_COORD97":171474.76000000001,"N_COORD97":2565552.4100000001,"ADDRESS":"小埤頭５９號之４","OBJECTID":53857},"geometry":{"x":171474.76000000071,"y":2565552.4100000001}},{"attributes":{"ID":53858,"DIS_CODE":0,"TOWNNAME":"麻豆區","LI":"小埤里","LIN":"8鄰","STREET":" ","SECT":" ","MAREA":"小埤頭","LANE":" ","ALLEY":" ","HOUSE_NO":"５９號之５","E_COORD97":171496.92999999999,"N_COORD97":2565551.1299999999,"ADDRESS":"小埤頭５９號之５","OBJECTID":53858},"geometry":{"x":171496.92999999877,"y":2565551.1300000027}},{"attributes":{"ID":53859,"DIS_CODE":0,"TOWNNAME":"麻豆區","LI":"小埤里","LIN":"8鄰","STREET":" ","SECT":" ","MAREA":"小埤頭","LANE":" ","ALLEY":" ","HOUSE_NO":"５９號","E_COORD97":171499.12,"N_COORD97":2565566.02,"ADDRESS":"小埤頭５９號","OBJECTID":53859},"geometry":{"x":171499.12000000011,"y":2565566.0200000033}},{"attributes":{"ID":53860,"DIS_CODE":0,"TOWNNAME":"麻豆區","LI":"小埤里","LIN":"8鄰","STREET":" ","SECT":" ","MAREA":"小埤頭","LANE":" ","ALLEY":" ","HOUSE_NO":"８０號之１","E_COORD97":171564.22,"N_COORD97":2565529.2599999998,"ADDRESS":"小埤頭８０號之１","OBJECTID":53860},"geometry":{"x":171564.21999999974,"y":2565529.2599999998}},{"attributes":{"ID":53861,"DIS_CODE":0,"TOWNNAME":"麻豆區","LI":"小埤里","LIN":"8鄰","STREET":" ","SECT":" ","MAREA":"小埤頭","LANE":" ","ALLEY":" ","HOUSE_NO":"８０號","E_COORD97":171586.91,"N_COORD97":2565477.7200000002,"ADDRESS":"小埤頭８０號","OBJECTID":53861},"geometry":{"x":171586.91000000015,"y":2565477.7200000044}},{"attributes":{"ID":53862,"DIS_CODE":0,"TOWNNAME":"麻豆區","LI":"保安里","LIN":"8鄰","STREET":"文昌路","SECT":" ","MAREA":" ","LANE":" ","ALLEY":" ","HOUSE_NO":"１５號之１","E_COORD97":173426.73999999999,"N_COORD97":2564908.8100000001,"ADDRESS":"文昌路１５號之１","OBJECTID":53862},"geometry":{"x":173426.74000000115,"y":2564908.8100000024}},{"attributes":{"ID":53863,"DIS_CODE":0,"TOWNNAME":"麻豆區","LI":"小埤里","LIN":"8鄰","STREET":" ","SECT":" ","MAREA":"小埤頭","LANE":" ","ALLEY":" ","HOUSE_NO":"８７號","E_COORD97":171666.26000000001,"N_COORD97":2565420,"ADDRESS":"小埤頭８７號","OBJECTID":53863},"geometry":{"x":171666.26000000071,"y":2565420}},{"attributes":{"ID":53864,"DIS_CODE":0,"TOWNNAME":"安定區","LI":"安定里","LIN":"8鄰","STREET":" ","SECT":" ","MAREA":"安定","LANE":" ","ALLEY":" ","HOUSE_NO":"５８之３３號","E_COORD97":171935.12,"N_COORD97":2558053.3199999998,"ADDRESS":"安定５８之３３號","OBJECTID":53864},"geometry":{"x":171935.11999999918,"y":2558053.3200000022}},{"attributes":{"ID":53865,"DIS_CODE":0,"TOWNNAME":"安定區","LI":"新吉里","LIN":"8鄰","STREET":" ","SECT":" ","MAREA":"新吉","LANE":" ","ALLEY":" ","HOUSE_NO":"７０號","E_COORD97":169123.26999999999,"N_COORD97":2554023.25,"ADDRESS":"新吉７０號","OBJECTID":53865},"geometry":{"x":169123.27000000048,"y":2554023.25}},{"attributes":{"ID":53866,"DIS_CODE":0,"TOWNNAME":"安定區","LI":"安加里","LIN":"8鄰","STREET":" ","SECT":" ","MAREA":"安定","LANE":" ","ALLEY":" ","HOUSE_NO":"２３７號之９","E_COORD97":171886.73999999999,"N_COORD97":2557455.3199999998,"ADDRESS":"安定２３７號之９","OBJECTID":53866},"geometry":{"x":171886.74000000022,"y":2557455.320000004}},{"attributes":{"ID":53867,"DIS_CODE":0,"TOWNNAME":"安定區","LI":"安加里","LIN":"8鄰","STREET":" ","SECT":" ","MAREA":"安定","LANE":" ","ALLEY":" ","HOUSE_NO":"２３８之４號","E_COORD97":171908.12,"N_COORD97":2557441.3199999998,"ADDRESS":"安定２３８之４號","OBJECTID":53867},"geometry":{"x":171908.12000000197,"y":2557441.3199999984}},{"attributes":{"ID":53868,"DIS_CODE":0,"TOWNNAME":"安定區","LI":"安加里","LIN":"8鄰","STREET":" ","SECT":" ","MAREA":"安定","LANE":" ","ALLEY":" ","HOUSE_NO":"２３８之６號","E_COORD97":171916.92000000001,"N_COORD97":2557441.3199999998,"ADDRESS":"安定２３８之６號","OBJECTID":53868},"geometry":{"x":171916.91999999993,"y":2557441.3199999984}},{"attributes":{"ID":53869,"DIS_CODE":0,"TOWNNAME":"安南區","LI":"淵東里","LIN":"1鄰","STREET":"海佃路","SECT":"四段","MAREA":" ","LANE":"１４０巷","ALLEY":"８弄","HOUSE_NO":"２０號","E_COORD97":165702.01000000001,"N_COORD97":2550772.4399999999,"ADDRESS":"海佃路四段１４０巷８弄２０號","OBJECTID":53869},"geometry":{"x":165702.00999999978,"y":2550772.4400000013}},{"attributes":{"ID":53870,"DIS_CODE":0,"TOWNNAME":"安南區","LI":"淵東里","LIN":"1鄰","STREET":"海佃路","SECT":"四段","MAREA":" ","LANE":"１４０巷","ALLEY":"８弄","HOUSE_NO":"２２號","E_COORD97":165702.64999999999,"N_COORD97":2550768.7599999998,"ADDRESS":"海佃路四段１４０巷８弄２２號","OBJECTID":53870},"geometry":{"x":165702.6500000013,"y":2550768.7599999998}},{"attributes":{"ID":53871,"DIS_CODE":0,"TOWNNAME":"安南區","LI":"淵東里","LIN":"1鄰","STREET":"海佃路","SECT":"四段","MAREA":" ","LANE":"１４０巷","ALLEY":"８弄","HOUSE_NO":"２６號","E_COORD97":165703.03,"N_COORD97":2550764.3100000001,"ADDRESS":"海佃路四段１４０巷８弄２６號","OBJECTID":53871},"geometry":{"x":165703.03000000119,"y":2550764.3100000024}},{"attributes":{"ID":53872,"DIS_CODE":0,"TOWNNAME":"安南區","LI":"佃東里","LIN":"1鄰","STREET":"海佃路","SECT":"四段","MAREA":" ","LANE":"３８８巷","ALLEY":"２弄","HOUSE_NO":"１６７號","E_COORD97":166066.76000000001,"N_COORD97":2551416.0600000001,"ADDRESS":"海佃路四段３８８巷２弄１６７號","OBJECTID":53872},"geometry":{"x":166066.75999999885,"y":2551416.0600000024}},{"attributes":{"ID":53873,"DIS_CODE":0,"TOWNNAME":"安南區","LI":"佃東里","LIN":"1鄰","STREET":"海佃路","SECT":"四段","MAREA":" ","LANE":"３８８巷","ALLEY":"６弄","HOUSE_NO":"３７之１號","E_COORD97":165713.57000000001,"N_COORD97":2551570.0600000001,"ADDRESS":"海佃路四段３８８巷６弄３７之１號","OBJECTID":53873},"geometry":{"x":165713.57000000123,"y":2551570.0600000005}},{"attributes":{"ID":53874,"DIS_CODE":0,"TOWNNAME":"安南區","LI":"總頭里","LIN":"1鄰","STREET":"長溪路","SECT":"二段","MAREA":" ","LANE":"４１０巷","ALLEY":"１弄","HOUSE_NO":"４６號","E_COORD97":168430.17000000001,"N_COORD97":2550255.2000000002,"ADDRESS":"長溪路二段４１０巷１弄４６號","OBJECTID":53874},"geometry":{"x":168430.16999999993,"y":2550255.2000000011}},{"attributes":{"ID":53875,"DIS_CODE":0,"TOWNNAME":"安平區","LI":"海頭里","LIN":"6鄰","STREET":"安北路","SECT":" ","MAREA":" ","LANE":"１２１巷","ALLEY":"１５弄","HOUSE_NO":"１９號","E_COORD97":164196.51999999999,"N_COORD97":2544762,"ADDRESS":"安北路１２１巷１５弄１９號","OBJECTID":53875},"geometry":{"x":164196.51999999955,"y":2544762}},{"attributes":{"ID":53876,"DIS_CODE":0,"TOWNNAME":"新市區","LI":"大營里","LIN":"8鄰","STREET":" ","SECT":" ","MAREA":"大營","LANE":" ","ALLEY":" ","HOUSE_NO":"１７１號","E_COORD97":179419.59,"N_COORD97":2555595.5,"ADDRESS":"大營１７１號","OBJECTID":53876},"geometry":{"x":179419.59000000078,"y":2555595.5000000037}},{"attributes":{"ID":53877,"DIS_CODE":0,"TOWNNAME":"新市區","LI":"三舍里","LIN":"8鄰","STREET":" ","SECT":" ","MAREA":"三舍","LANE":" ","ALLEY":" ","HOUSE_NO":"１８３之３２號","E_COORD97":177324.79000000001,"N_COORD97":2554854.5499999998,"ADDRESS":"三舍１８３之３２號","OBJECTID":53877},"geometry":{"x":177324.7900000019,"y":2554854.5500000026}},{"attributes":{"ID":53878,"DIS_CODE":0,"TOWNNAME":"新市區","LI":"大社里","LIN":"8鄰","STREET":" ","SECT":" ","MAREA":"大社","LANE":" ","ALLEY":" ","HOUSE_NO":"２７５號","E_COORD97":180321.32000000001,"N_COORD97":2554444,"ADDRESS":"大社２７５號","OBJECTID":53878},"geometry":{"x":180321.3200000003,"y":2554444.0000000019}},{"attributes":{"ID":53879,"DIS_CODE":0,"TOWNNAME":"中西區","LI":"藥王里","LIN":"1鄰","STREET":" ","SECT":" ","MAREA":"協進市場","LANE":" ","ALLEY":" ","HOUSE_NO":"７９號","E_COORD97":167457.41,"N_COORD97":2544400.5600000001,"ADDRESS":"協進市場７９號","OBJECTID":53879},"geometry":{"x":167457.41000000015,"y":2544400.5599999987}},{"attributes":{"ID":53880,"DIS_CODE":0,"TOWNNAME":"中西區","LI":"藥王里","LIN":"1鄰","STREET":" ","SECT":" ","MAREA":"協進市場","LANE":" ","ALLEY":" ","HOUSE_NO":"８０號","E_COORD97":167455.10000000001,"N_COORD97":2544401.4500000002,"ADDRESS":"協進市場８０號","OBJECTID":53880},"geometry":{"x":167455.10000000056,"y":2544401.4500000011}},{"attributes":{"ID":53881,"DIS_CODE":0,"TOWNNAME":"中西區","LI":"藥王里","LIN":"1鄰","STREET":" ","SECT":" ","MAREA":"協進市場","LANE":" ","ALLEY":" ","HOUSE_NO":"８１號","E_COORD97":167451.29999999999,"N_COORD97":2544402.2000000002,"ADDRESS":"協進市場８１號","OBJECTID":53881},"geometry":{"x":167451.29999999981,"y":2544402.2000000011}},{"attributes":{"ID":53882,"DIS_CODE":0,"TOWNNAME":"中西區","LI":"藥王里","LIN":"1鄰","STREET":" ","SECT":" ","MAREA":"協進市場","LANE":" ","ALLEY":" ","HOUSE_NO":"８２號","E_COORD97":167448.09,"N_COORD97":2544401.2999999998,"ADDRESS":"協進市場８２號","OBJECTID":53882},"geometry":{"x":167448.09000000171,"y":2544401.3000000007}},{"attributes":{"ID":53883,"DIS_CODE":0,"TOWNNAME":"中西區","LI":"藥王里","LIN":"1鄰","STREET":" ","SECT":" ","MAREA":"協進市場","LANE":" ","ALLEY":" ","HOUSE_NO":"８３號","E_COORD97":167444.89000000001,"N_COORD97":2544401.9700000002,"ADDRESS":"協進市場８３號","OBJECTID":53883},"geometry":{"x":167444.8900000006,"y":2544401.9700000025}},{"attributes":{"ID":53884,"DIS_CODE":0,"TOWNNAME":"中西區","LI":"藥王里","LIN":"1鄰","STREET":" ","SECT":" ","MAREA":"協進市場","LANE":" ","ALLEY":" ","HOUSE_NO":"８４號","E_COORD97":167440.85999999999,"N_COORD97":2544401.23,"ADDRESS":"協進市場８４號","OBJECTID":53884},"geometry":{"x":167440.86000000034,"y":2544401.2300000004}},{"attributes":{"ID":53885,"DIS_CODE":0,"TOWNNAME":"中西區","LI":"藥王里","LIN":"1鄰","STREET":" ","SECT":" ","MAREA":"協進市場","LANE":" ","ALLEY":" ","HOUSE_NO":"８５號","E_COORD97":167436.98999999999,"N_COORD97":2544401.0800000001,"ADDRESS":"協進市場８５號","OBJECTID":53885},"geometry":{"x":167436.99000000022,"y":2544401.0800000019}},{"attributes":{"ID":53886,"DIS_CODE":0,"TOWNNAME":"中西區","LI":"藥王里","LIN":"1鄰","STREET":" ","SECT":" ","MAREA":"協進市場","LANE":" ","ALLEY":" ","HOUSE_NO":"８６號","E_COORD97":167433.41,"N_COORD97":2544400.7799999998,"ADDRESS":"協進市場８６號","OBJECTID":53886},"geometry":{"x":167433.41000000108,"y":2544400.7799999993}},{"attributes":{"ID":53887,"DIS_CODE":0,"TOWNNAME":"中西區","LI":"藥王里","LIN":"1鄰","STREET":" ","SECT":" ","MAREA":"協進市場","LANE":" ","ALLEY":" ","HOUSE_NO":"８７號","E_COORD97":167430.06,"N_COORD97":2544400.9300000002,"ADDRESS":"協進市場８７號","OBJECTID":53887},"geometry":{"x":167430.06000000052,"y":2544400.9300000034}},{"attributes":{"ID":53888,"DIS_CODE":0,"TOWNNAME":"中西區","LI":"藥王里","LIN":"1鄰","STREET":" ","SECT":" ","MAREA":"協進市場","LANE":" ","ALLEY":" ","HOUSE_NO":"８８號","E_COORD97":167426.10999999999,"N_COORD97":2544400.2599999998,"ADDRESS":"協進市場８８號","OBJECTID":53888},"geometry":{"x":167426.11000000034,"y":2544400.2600000016}},{"attributes":{"ID":53889,"DIS_CODE":0,"TOWNNAME":"中西區","LI":"藥王里","LIN":"1鄰","STREET":" ","SECT":" ","MAREA":"協進市場","LANE":" ","ALLEY":" ","HOUSE_NO":"８９號","E_COORD97":167426.32999999999,"N_COORD97":2544403.6899999999,"ADDRESS":"協進市場８９號","OBJECTID":53889},"geometry":{"x":167426.33000000194,"y":2544403.6900000013}},{"attributes":{"ID":53890,"DIS_CODE":0,"TOWNNAME":"後壁區","LI":"烏樹里","LIN":"1鄰","STREET":" ","SECT":" ","MAREA":"烏樹林","LANE":" ","ALLEY":" ","HOUSE_NO":"８號","E_COORD97":186356.64000000001,"N_COORD97":2581631.2999999998,"ADDRESS":"烏樹林８號","OBJECTID":53890},"geometry":{"x":186356.63999999966,"y":2581631.3000000007}},{"attributes":{"ID":53891,"DIS_CODE":0,"TOWNNAME":"中西區","LI":"藥王里","LIN":"1鄰","STREET":" ","SECT":" ","MAREA":"協進市場","LANE":" ","ALLEY":" ","HOUSE_NO":"９０號","E_COORD97":167429.45999999999,"N_COORD97":2544404.7999999998,"ADDRESS":"協進市場９０號","OBJECTID":53891},"geometry":{"x":167429.46000000089,"y":2544404.8000000007}},{"attributes":{"ID":53892,"DIS_CODE":0,"TOWNNAME":"中西區","LI":"藥王里","LIN":"1鄰","STREET":" ","SECT":" ","MAREA":"協進市場","LANE":" ","ALLEY":" ","HOUSE_NO":"９１號","E_COORD97":167433.48999999999,"N_COORD97":2544404.5800000001,"ADDRESS":"協進市場９１號","OBJECTID":53892},"geometry":{"x":167433.49000000022,"y":2544404.5800000019}},{"attributes":{"ID":53893,"DIS_CODE":0,"TOWNNAME":"中西區","LI":"藥王里","LIN":"1鄰","STREET":" ","SECT":" ","MAREA":"協進市場","LANE":" ","ALLEY":" ","HOUSE_NO":"９２號","E_COORD97":167436.62,"N_COORD97":2544404.1299999999,"ADDRESS":"協進市場９２號","OBJECTID":53893},"geometry":{"x":167436.62000000104,"y":2544404.129999999}},{"attributes":{"ID":53894,"DIS_CODE":0,"TOWNNAME":"中西區","LI":"藥王里","LIN":"1鄰","STREET":" ","SECT":" ","MAREA":"協進市場","LANE":" ","ALLEY":" ","HOUSE_NO":"９３號","E_COORD97":167439.75,"N_COORD97":2544403.8399999999,"ADDRESS":"協進市場９３號","OBJECTID":53894},"geometry":{"x":167439.75,"y":2544403.8399999999}},{"attributes":{"ID":53895,"DIS_CODE":0,"TOWNNAME":"中西區","LI":"藥王里","LIN":"1鄰","STREET":" ","SECT":" ","MAREA":"協進市場","LANE":" ","ALLEY":" ","HOUSE_NO":"９４號","E_COORD97":167442.95000000001,"N_COORD97":2544404.21,"ADDRESS":"協進市場９４號","OBJECTID":53895},"geometry":{"x":167442.95000000112,"y":2544404.2100000028}},{"attributes":{"ID":53896,"DIS_CODE":0,"TOWNNAME":"中西區","LI":"藥王里","LIN":"1鄰","STREET":" ","SECT":" ","MAREA":"協進市場","LANE":" ","ALLEY":" ","HOUSE_NO":"９５號","E_COORD97":167446.01000000001,"N_COORD97":2544403.8399999999,"ADDRESS":"協進市場９５號","OBJECTID":53896},"geometry":{"x":167446.00999999978,"y":2544403.8399999999}},{"attributes":{"ID":53897,"DIS_CODE":0,"TOWNNAME":"中西區","LI":"藥王里","LIN":"1鄰","STREET":" ","SECT":" ","MAREA":"協進市場","LANE":" ","ALLEY":" ","HOUSE_NO":"９６號","E_COORD97":167448.76999999999,"N_COORD97":2544404.0600000001,"ADDRESS":"協進市場９６號","OBJECTID":53897},"geometry":{"x":167448.77000000048,"y":2544404.0600000042}},{"attributes":{"ID":53898,"DIS_CODE":0,"TOWNNAME":"中西區","LI":"藥王里","LIN":"1鄰","STREET":" ","SECT":" ","MAREA":"協進市場","LANE":" ","ALLEY":" ","HOUSE_NO":"９７號","E_COORD97":167451.60000000001,"N_COORD97":2544404.21,"ADDRESS":"協進市場９７號","OBJECTID":53898},"geometry":{"x":167451.60000000056,"y":2544404.2100000028}},{"attributes":{"ID":53899,"DIS_CODE":0,"TOWNNAME":"新市區","LI":"三舍里","LIN":"1鄰","STREET":" ","SECT":" ","MAREA":"三舍","LANE":" ","ALLEY":" ","HOUSE_NO":"８號","E_COORD97":177779.64000000001,"N_COORD97":2554166.25,"ADDRESS":"三舍８號","OBJECTID":53899},"geometry":{"x":177779.64000000153,"y":2554166.25}},{"attributes":{"ID":53900,"DIS_CODE":0,"TOWNNAME":"新市區","LI":"大營里","LIN":"1鄰","STREET":" ","SECT":" ","MAREA":"大營","LANE":" ","ALLEY":" ","HOUSE_NO":"５號","E_COORD97":180222.98000000001,"N_COORD97":2555984.9900000002,"ADDRESS":"大營５號","OBJECTID":53900},"geometry":{"x":180222.98000000138,"y":2555984.9900000002}},{"attributes":{"ID":53901,"DIS_CODE":0,"TOWNNAME":"新市區","LI":"大社里","LIN":"1鄰","STREET":" ","SECT":" ","MAREA":"大社","LANE":" ","ALLEY":" ","HOUSE_NO":"１３５之５號","E_COORD97":180189.51000000001,"N_COORD97":2554251.0499999998,"ADDRESS":"大社１３５之５號","OBJECTID":53901},"geometry":{"x":180189.51000000164,"y":2554251.0500000026}},{"attributes":{"ID":53902,"DIS_CODE":0,"TOWNNAME":"北門區","LI":"永隆里","LIN":"1鄰","STREET":" ","SECT":" ","MAREA":"北門","LANE":" ","ALLEY":" ","HOUSE_NO":"５號","E_COORD97":160343.98000000001,"N_COORD97":2574315.9500000002,"ADDRESS":"北門５號","OBJECTID":53902},"geometry":{"x":160343.98000000138,"y":2574315.9499999993}},{"attributes":{"ID":53903,"DIS_CODE":0,"TOWNNAME":"新市區","LI":"大社里","LIN":"1鄰","STREET":" ","SECT":" ","MAREA":"大社","LANE":" ","ALLEY":" ","HOUSE_NO":"６３號","E_COORD97":180331.56,"N_COORD97":2554244.25,"ADDRESS":"大社６３號","OBJECTID":53903},"geometry":{"x":180331.56000000052,"y":2554244.25}},{"attributes":{"ID":53904,"DIS_CODE":0,"TOWNNAME":"新市區","LI":"社內里","LIN":"1鄰","STREET":" ","SECT":" ","MAREA":"社內","LANE":" ","ALLEY":" ","HOUSE_NO":"１３之３號","E_COORD97":176889.95000000001,"N_COORD97":2552960.7999999998,"ADDRESS":"社內１３之３號","OBJECTID":53904},"geometry":{"x":176889.95000000205,"y":2552960.8000000026}},{"attributes":{"ID":53905,"DIS_CODE":0,"TOWNNAME":"新市區","LI":"社內里","LIN":"1鄰","STREET":" ","SECT":" ","MAREA":"社內","LANE":" ","ALLEY":" ","HOUSE_NO":"１３之７號","E_COORD97":176888.39999999999,"N_COORD97":2552986.2999999998,"ADDRESS":"社內１３之７號","OBJECTID":53905},"geometry":{"x":176888.40000000037,"y":2552986.3000000007}},{"attributes":{"ID":53906,"DIS_CODE":0,"TOWNNAME":"新市區","LI":"大營里","LIN":"1鄰","STREET":" ","SECT":" ","MAREA":"大營","LANE":" ","ALLEY":" ","HOUSE_NO":"１號","E_COORD97":180112.48999999999,"N_COORD97":2556328.25,"ADDRESS":"大營１號","OBJECTID":53906},"geometry":{"x":180112.49000000115,"y":2556328.25}},{"attributes":{"ID":53907,"DIS_CODE":0,"TOWNNAME":"新市區","LI":"社內里","LIN":"1鄰","STREET":" ","SECT":" ","MAREA":"社內","LANE":" ","ALLEY":" ","HOUSE_NO":"１４之１２號","E_COORD97":176823.04000000001,"N_COORD97":2552922.7999999998,"ADDRESS":"社內１４之１２號","OBJECTID":53907},"geometry":{"x":176823.0400000019,"y":2552922.8000000045}},{"attributes":{"ID":53908,"DIS_CODE":0,"TOWNNAME":"安南區","LI":"\u25A0田里","LIN":"1鄰","STREET":"\u25A0田路","SECT":" ","MAREA":" ","LANE":"３２３巷","ALLEY":"３弄","HOUSE_NO":"２３號","E_COORD97":162130.22930400001,"N_COORD97":2548104.57785,"ADDRESS":"\u25A0田路３２３巷３弄２３號","OBJECTID":53908},"geometry":{"x":162130.2293039998,"y":2548104.5778480005}},{"attributes":{"ID":53909,"DIS_CODE":0,"TOWNNAME":"中西區","LI":"郡王里","LIN":"8鄰","STREET":"大埔街","SECT":" ","MAREA":" ","LANE":" ","ALLEY":" ","HOUSE_NO":"９７號之２９","E_COORD97":168789.92999999999,"N_COORD97":2543000.2000000002,"ADDRESS":"大埔街９７號之２９","OBJECTID":53909},"geometry":{"x":168789.93000000156,"y":2543000.1999999993}},{"attributes":{"ID":53910,"DIS_CODE":0,"TOWNNAME":"新市區","LI":"大社里","LIN":"1鄰","STREET":" ","SECT":" ","MAREA":"大社","LANE":" ","ALLEY":" ","HOUSE_NO":"６３之１號","E_COORD97":180339.01000000001,"N_COORD97":2554245.2999999998,"ADDRESS":"大社６３之１號","OBJECTID":53910},"geometry":{"x":180339.01000000071,"y":2554245.3000000026}},{"attributes":{"ID":53911,"DIS_CODE":0,"TOWNNAME":"新市區","LI":"永就里","LIN":"1鄰","STREET":" ","SECT":" ","MAREA":"永就","LANE":" ","ALLEY":" ","HOUSE_NO":"１３之２號","E_COORD97":178372.20000000001,"N_COORD97":2551256.5499999998,"ADDRESS":"永就１３之２號","OBJECTID":53911},"geometry":{"x":178372.20000000112,"y":2551256.5500000045}},{"attributes":{"ID":53912,"DIS_CODE":0,"TOWNNAME":"安南區","LI":"學東里","LIN":"1鄰","STREET":"公學路","SECT":"六段","MAREA":" ","LANE":"７２１巷","ALLEY":"３１６弄","HOUSE_NO":"１６０號之２００","E_COORD97":162032.753948,"N_COORD97":2552559.78052,"ADDRESS":"公學路六段７２１巷３１６弄１６０號之２００","OBJECTID":53912},"geometry":{"x":162032.75394800026,"y":2552559.780522}},{"attributes":{"ID":53913,"DIS_CODE":0,"TOWNNAME":"安定區","LI":"安定里","LIN":"8鄰","STREET":" ","SECT":" ","MAREA":"安定","LANE":" ","ALLEY":" ","HOUSE_NO":"５８號之３６","E_COORD97":171933.45999999999,"N_COORD97":2558035.3199999998,"ADDRESS":"安定５８號之３６","OBJECTID":53913},"geometry":{"x":171933.46000000089,"y":2558035.3200000022}},{"attributes":{"ID":53914,"DIS_CODE":0,"TOWNNAME":"安南區","LI":"原佃里","LIN":"1鄰","STREET":"本原街","SECT":"一段","MAREA":" ","LANE":"１６７巷","ALLEY":"８１弄","HOUSE_NO":"７０號","E_COORD97":167765.54000000001,"N_COORD97":2549905.0299999998,"ADDRESS":"本原街一段１６７巷８１弄７０號","OBJECTID":53914},"geometry":{"x":167765.5400000019,"y":2549905.0299999993}},{"attributes":{"ID":53915,"DIS_CODE":0,"TOWNNAME":"安南區","LI":"原佃里","LIN":"1鄰","STREET":"本原街","SECT":"一段","MAREA":" ","LANE":"９７巷","ALLEY":"２８弄","HOUSE_NO":"４５號","E_COORD97":167889.98000000001,"N_COORD97":2550054.6000000001,"ADDRESS":"本原街一段９７巷２８弄４５號","OBJECTID":53915},"geometry":{"x":167889.98000000045,"y":2550054.6000000034}},{"attributes":{"ID":53916,"DIS_CODE":0,"TOWNNAME":"安南區","LI":"原佃里","LIN":"1鄰","STREET":"本原街","SECT":"一段","MAREA":" ","LANE":"９７巷","ALLEY":"２８弄","HOUSE_NO":"５５之１號","E_COORD97":167898.10000000001,"N_COORD97":2550013.2000000002,"ADDRESS":"本原街一段９７巷２８弄５５之１號","OBJECTID":53916},"geometry":{"x":167898.09999999963,"y":2550013.2000000011}},{"attributes":{"ID":53917,"DIS_CODE":0,"TOWNNAME":"安南區","LI":"\u25A0田里","LIN":"1鄰","STREET":"\u25A0田路","SECT":" ","MAREA":" ","LANE":"３２３巷","ALLEY":"１弄","HOUSE_NO":"８號","E_COORD97":162061.82374699999,"N_COORD97":2548110.2928499999,"ADDRESS":"\u25A0田路３２３巷１弄８號","OBJECTID":53917},"geometry":{"x":162061.82374700066,"y":2548110.2928449996}},{"attributes":{"ID":53918,"DIS_CODE":0,"TOWNNAME":"安南區","LI":"\u25A0田里","LIN":"1鄰","STREET":"\u25A0田路","SECT":" ","MAREA":" ","LANE":"３２３巷","ALLEY":"１弄","HOUSE_NO":"１０號","E_COORD97":162069.44789499999,"N_COORD97":2548110.5045099999,"ADDRESS":"\u25A0田路３２３巷１弄１０號","OBJECTID":53918},"geometry":{"x":162069.44789499976,"y":2548110.5045110006}},{"attributes":{"ID":53919,"DIS_CODE":0,"TOWNNAME":"安南區","LI":"\u25A0田里","LIN":"1鄰","STREET":"\u25A0田路","SECT":" ","MAREA":" ","LANE":"３２３巷","ALLEY":"１弄","HOUSE_NO":"１２號","E_COORD97":162076.64848,"N_COORD97":2548110.5045099999,"ADDRESS":"\u25A0田路３２３巷１弄１２號","OBJECTID":53919},"geometry":{"x":162076.64848000091,"y":2548110.5045110006}},{"attributes":{"ID":53920,"DIS_CODE":0,"TOWNNAME":"安南區","LI":"\u25A0田里","LIN":"1鄰","STREET":"\u25A0田路","SECT":" ","MAREA":" ","LANE":"３２３巷","ALLEY":"１弄","HOUSE_NO":"１６號","E_COORD97":162083.425502,"N_COORD97":2548111.98618,"ADDRESS":"\u25A0田路３２３巷１弄１６號","OBJECTID":53920},"geometry":{"x":162083.42550200038,"y":2548111.986177003}},{"attributes":{"ID":53921,"DIS_CODE":0,"TOWNNAME":"安南區","LI":"\u25A0田里","LIN":"1鄰","STREET":"\u25A0田路","SECT":" ","MAREA":" ","LANE":"３２３巷","ALLEY":"１弄","HOUSE_NO":"１８號","E_COORD97":162091.89677799999,"N_COORD97":2548112.4095100001,"ADDRESS":"\u25A0田路３２３巷１弄１８號","OBJECTID":53921},"geometry":{"x":162091.89677799959,"y":2548112.4095100015}},{"attributes":{"ID":53922,"DIS_CODE":0,"TOWNNAME":"安南區","LI":"\u25A0田里","LIN":"1鄰","STREET":"\u25A0田路","SECT":" ","MAREA":" ","LANE":"３２３巷","ALLEY":"１弄","HOUSE_NO":"２０號","E_COORD97":162099.09736300001,"N_COORD97":2548113.8911799998,"ADDRESS":"\u25A0田路３２３巷１弄２０號","OBJECTID":53922},"geometry":{"x":162099.09736300074,"y":2548113.8911760021}},{"attributes":{"ID":53923,"DIS_CODE":0,"TOWNNAME":"安南區","LI":"\u25A0田里","LIN":"1鄰","STREET":"\u25A0田路","SECT":" ","MAREA":" ","LANE":"３２３巷","ALLEY":"１弄","HOUSE_NO":"２２號","E_COORD97":162106.08616599999,"N_COORD97":2548115.58451,"ADDRESS":"\u25A0田路３２３巷１弄２２號","OBJECTID":53923},"geometry":{"x":162106.08616599999,"y":2548115.5845079999}},{"attributes":{"ID":53924,"DIS_CODE":0,"TOWNNAME":"新市區","LI":"大營里","LIN":"1鄰","STREET":" ","SECT":" ","MAREA":"大營","LANE":" ","ALLEY":" ","HOUSE_NO":"１０號","E_COORD97":179746.98000000001,"N_COORD97":2555594.75,"ADDRESS":"大營１０號","OBJECTID":53924},"geometry":{"x":179746.98000000138,"y":2555594.7500000019}},{"attributes":{"ID":53925,"DIS_CODE":0,"TOWNNAME":"新市區","LI":"三舍里","LIN":"1鄰","STREET":" ","SECT":" ","MAREA":"三舍","LANE":" ","ALLEY":" ","HOUSE_NO":"４０號","E_COORD97":177891.12,"N_COORD97":2554369,"ADDRESS":"三舍４０號","OBJECTID":53925},"geometry":{"x":177891.12000000104,"y":2554369.0000000019}},{"attributes":{"ID":53926,"DIS_CODE":0,"TOWNNAME":"安南區","LI":"\u25A0田里","LIN":"1鄰","STREET":"\u25A0田路","SECT":" ","MAREA":" ","LANE":"３２３巷","ALLEY":"１弄","HOUSE_NO":"２６號","E_COORD97":162113.28675100001,"N_COORD97":2548115.79617,"ADDRESS":"\u25A0田路３２３巷１弄２６號","OBJECTID":53926},"geometry":{"x":162113.28675100114,"y":2548115.7961750012}},{"attributes":{"ID":53927,"DIS_CODE":0,"TOWNNAME":"新市區","LI":"社內里","LIN":"1鄰","STREET":" ","SECT":" ","MAREA":"社內","LANE":" ","ALLEY":" ","HOUSE_NO":"２之４號","E_COORD97":177045.92000000001,"N_COORD97":2553028.7999999998,"ADDRESS":"社內２之４號","OBJECTID":53927},"geometry":{"x":177045.92000000086,"y":2553028.8000000026}},{"attributes":{"ID":53928,"DIS_CODE":0,"TOWNNAME":"安南區","LI":"\u25A0田里","LIN":"1鄰","STREET":"\u25A0田路","SECT":" ","MAREA":" ","LANE":"３２３巷","ALLEY":"１弄","HOUSE_NO":"２８號","E_COORD97":162121.33446400001,"N_COORD97":2548116.6428399999,"ADDRESS":"\u25A0田路３２３巷１弄２８號","OBJECTID":53928},"geometry":{"x":162121.33446400054,"y":2548116.6428410038}},{"attributes":{"ID":53929,"DIS_CODE":0,"TOWNNAME":"新市區","LI":"大營里","LIN":"1鄰","STREET":" ","SECT":" ","MAREA":"大營","LANE":" ","ALLEY":" ","HOUSE_NO":"１５號","E_COORD97":179731.62,"N_COORD97":2555655.25,"ADDRESS":"大營１５號","OBJECTID":53929},"geometry":{"x":179731.62000000104,"y":2555655.2500000019}},{"attributes":{"ID":53930,"DIS_CODE":0,"TOWNNAME":"安南區","LI":"\u25A0田里","LIN":"1鄰","STREET":"\u25A0田路","SECT":" ","MAREA":" ","LANE":"３２３巷","ALLEY":"１弄","HOUSE_NO":"３０號","E_COORD97":162128.323267,"N_COORD97":2548118.33617,"ADDRESS":"\u25A0田路３２３巷１弄３０號","OBJECTID":53930},"geometry":{"x":162128.32326700073,"y":2548118.3361740019}},{"attributes":{"ID":53931,"DIS_CODE":0,"TOWNNAME":"安南區","LI":"\u25A0田里","LIN":"1鄰","STREET":"\u25A0田路","SECT":" ","MAREA":" ","LANE":"３２３巷","ALLEY":"１弄","HOUSE_NO":"３２號","E_COORD97":162135.52385200001,"N_COORD97":2548119.8178400001,"ADDRESS":"\u25A0田路３２３巷１弄３２號","OBJECTID":53931},"geometry":{"x":162135.52385200188,"y":2548119.8178400025}},{"attributes":{"ID":53932,"DIS_CODE":0,"TOWNNAME":"安南區","LI":"\u25A0田里","LIN":"1鄰","STREET":"\u25A0田路","SECT":" ","MAREA":" ","LANE":"３２３巷","ALLEY":"１弄","HOUSE_NO":"３６號","E_COORD97":162143.57156400001,"N_COORD97":2548120.66451,"ADDRESS":"\u25A0田路３２３巷１弄３６號","OBJECTID":53932},"geometry":{"x":162143.57156399917,"y":2548120.6645059995}},{"attributes":{"ID":53933,"DIS_CODE":0,"TOWNNAME":"安南區","LI":"\u25A0田里","LIN":"1鄰","STREET":"\u25A0田路","SECT":" ","MAREA":" ","LANE":"３２３巷","ALLEY":"１弄","HOUSE_NO":"３８號","E_COORD97":162149.71324000001,"N_COORD97":2548121.7228399999,"ADDRESS":"\u25A0田路３２３巷１弄３８號","OBJECTID":53933},"geometry":{"x":162149.71324000042,"y":2548121.7228380032}},{"attributes":{"ID":53934,"DIS_CODE":0,"TOWNNAME":"新市區","LI":"大營里","LIN":"1鄰","STREET":" ","SECT":" ","MAREA":"大營","LANE":" ","ALLEY":" ","HOUSE_NO":"２０之３號","E_COORD97":179243.62,"N_COORD97":2554594.2999999998,"ADDRESS":"大營２０之３號","OBJECTID":53934},"geometry":{"x":179243.62000000104,"y":2554594.3000000045}},{"attributes":{"ID":53935,"DIS_CODE":0,"TOWNNAME":"安南區","LI":"\u25A0田里","LIN":"1鄰","STREET":"\u25A0田路","SECT":" ","MAREA":" ","LANE":"３２３巷","ALLEY":"１弄","HOUSE_NO":"４０號","E_COORD97":162157.12560699999,"N_COORD97":2548122.5695099998,"ADDRESS":"\u25A0田路３２３巷１弄４０號","OBJECTID":53935},"geometry":{"x":162157.12560700066,"y":2548122.5695050042}},{"attributes":{"ID":53936,"DIS_CODE":0,"TOWNNAME":"安南區","LI":"\u25A0田里","LIN":"1鄰","STREET":"\u25A0田路","SECT":" ","MAREA":" ","LANE":"３２３巷","ALLEY":"３弄","HOUSE_NO":"５號","E_COORD97":162064.15334799999,"N_COORD97":2548094.62952,"ADDRESS":"\u25A0田路３２３巷３弄５號","OBJECTID":53936},"geometry":{"x":162064.15334800165,"y":2548094.629519999}},{"attributes":{"ID":53937,"DIS_CODE":0,"TOWNNAME":"仁德區","LI":"田厝里","LIN":"8鄰","STREET":"保安路","SECT":"二段","MAREA":" ","LANE":" ","ALLEY":" ","HOUSE_NO":"４５９號","E_COORD97":172355.92999999999,"N_COORD97":2537494.5600000001,"ADDRESS":"保安路二段４５９號","OBJECTID":53937},"geometry":{"x":172355.9299999997,"y":2537494.5600000042}},{"attributes":{"ID":53938,"DIS_CODE":0,"TOWNNAME":"新市區","LI":"大洲里","LIN":"1鄰","STREET":" ","SECT":" ","MAREA":"大洲","LANE":" ","ALLEY":" ","HOUSE_NO":"２之１號","E_COORD97":175135.10000000001,"N_COORD97":2552753.2999999998,"ADDRESS":"大洲２之１號","OBJECTID":53938},"geometry":{"x":175135.09999999963,"y":2552753.3000000045}},{"attributes":{"ID":53939,"DIS_CODE":0,"TOWNNAME":"仁德區","LI":"成功里","LIN":"8鄰","STREET":"保華路","SECT":" ","MAREA":" ","LANE":" ","ALLEY":" ","HOUSE_NO":"１６１號","E_COORD97":171030.79000000001,"N_COORD97":2540031.5,"ADDRESS":"保華路１６１號","OBJECTID":53939},"geometry":{"x":171030.79000000097,"y":2540031.5000000019}},{"attributes":{"ID":53940,"DIS_CODE":0,"TOWNNAME":"仁德區","LI":"田厝里","LIN":"8鄰","STREET":"田厝二街","SECT":" ","MAREA":" ","LANE":" ","ALLEY":" ","HOUSE_NO":"５２號","E_COORD97":172420.07000000001,"N_COORD97":2537625.5,"ADDRESS":"田厝二街５２號","OBJECTID":53940},"geometry":{"x":172420.0700000003,"y":2537625.5}},{"attributes":{"ID":53941,"DIS_CODE":0,"TOWNNAME":"仁德區","LI":"田厝里","LIN":"8鄰","STREET":"田厝二街","SECT":" ","MAREA":" ","LANE":" ","ALLEY":" ","HOUSE_NO":"４０號","E_COORD97":172438.60999999999,"N_COORD97":2537611.5,"ADDRESS":"田厝二街４０號","OBJECTID":53941},"geometry":{"x":172438.61000000034,"y":2537611.5}},{"attributes":{"ID":53942,"DIS_CODE":0,"TOWNNAME":"官田區","LI":"渡頭里","LIN":"8鄰","STREET":" ","SECT":" ","MAREA":"渡子頭","LANE":" ","ALLEY":" ","HOUSE_NO":"５４號","E_COORD97":181176.04000000001,"N_COORD97":2562993.3300000001,"ADDRESS":"渡子頭５４號","OBJECTID":53942},"geometry":{"x":181176.04000000004,"y":2562993.3300000001}},{"attributes":{"ID":53943,"DIS_CODE":0,"TOWNNAME":"官田區","LI":"渡頭里","LIN":"8鄰","STREET":" ","SECT":" ","MAREA":"渡子頭","LANE":" ","ALLEY":" ","HOUSE_NO":"５５號","E_COORD97":181159.51999999999,"N_COORD97":2563020.9300000002,"ADDRESS":"渡子頭５５號","OBJECTID":53943},"geometry":{"x":181159.52000000048,"y":2563020.9300000034}},{"attributes":{"ID":53944,"DIS_CODE":0,"TOWNNAME":"官田區","LI":"渡頭里","LIN":"8鄰","STREET":" ","SECT":" ","MAREA":"渡子頭","LANE":" ","ALLEY":" ","HOUSE_NO":"５６號","E_COORD97":181159.14999999999,"N_COORD97":2563005.5299999998,"ADDRESS":"渡子頭５６號","OBJECTID":53944},"geometry":{"x":181159.1500000013,"y":2563005.5299999993}},{"attributes":{"ID":53945,"DIS_CODE":0,"TOWNNAME":"官田區","LI":"渡頭里","LIN":"8鄰","STREET":" ","SECT":" ","MAREA":"渡子頭","LANE":" ","ALLEY":" ","HOUSE_NO":"５７號之１","E_COORD97":181156.85000000001,"N_COORD97":2562982.29,"ADDRESS":"渡子頭５７號之１","OBJECTID":53945},"geometry":{"x":181156.85000000056,"y":2562982.2899999991}},{"attributes":{"ID":53946,"DIS_CODE":0,"TOWNNAME":"官田區","LI":"渡頭里","LIN":"8鄰","STREET":" ","SECT":" ","MAREA":"渡子頭","LANE":" ","ALLEY":" ","HOUSE_NO":"５７號之２","E_COORD97":181152.94,"N_COORD97":2562981.1000000001,"ADDRESS":"渡子頭５７號之２","OBJECTID":53946},"geometry":{"x":181152.94000000041,"y":2562981.0999999996}},{"attributes":{"ID":53947,"DIS_CODE":0,"TOWNNAME":"安南區","LI":"\u25A0田里","LIN":"1鄰","STREET":"\u25A0田路","SECT":" ","MAREA":" ","LANE":"３２３巷","ALLEY":"３弄","HOUSE_NO":"７號","E_COORD97":162072.41284199999,"N_COORD97":2548096.1111900001,"ADDRESS":"\u25A0田路３２３巷３弄７號","OBJECTID":53947},"geometry":{"x":162072.41284200083,"y":2548096.1111859996}},{"attributes":{"ID":53948,"DIS_CODE":0,"TOWNNAME":"安南區","LI":"\u25A0田里","LIN":"1鄰","STREET":"\u25A0田路","SECT":" ","MAREA":" ","LANE":"３２３巷","ALLEY":"３弄","HOUSE_NO":"９號","E_COORD97":162079.40164500001,"N_COORD97":2548097.16952,"ADDRESS":"\u25A0田路３２３巷３弄９號","OBJECTID":53948},"geometry":{"x":162079.40164500102,"y":2548097.1695179995}},{"attributes":{"ID":53949,"DIS_CODE":0,"TOWNNAME":"官田區","LI":"渡頭里","LIN":"8鄰","STREET":" ","SECT":" ","MAREA":"渡子頭","LANE":" ","ALLEY":" ","HOUSE_NO":"５７號之３","E_COORD97":181120.64999999999,"N_COORD97":2562941.5499999998,"ADDRESS":"渡子頭５７號之３","OBJECTID":53949},"geometry":{"x":181120.6500000013,"y":2562941.5500000007}},{"attributes":{"ID":53950,"DIS_CODE":0,"TOWNNAME":"安南區","LI":"\u25A0田里","LIN":"1鄰","STREET":"\u25A0田路","SECT":" ","MAREA":" ","LANE":"３２３巷","ALLEY":"３弄","HOUSE_NO":"１１號","E_COORD97":162086.39044799999,"N_COORD97":2548098.0161899999,"ADDRESS":"\u25A0田路３２３巷３弄１１號","OBJECTID":53950},"geometry":{"x":162086.39044800028,"y":2548098.0161850005}},{"attributes":{"ID":53951,"DIS_CODE":0,"TOWNNAME":"安南區","LI":"\u25A0田里","LIN":"1鄰","STREET":"\u25A0田路","SECT":" ","MAREA":" ","LANE":"３２３巷","ALLEY":"３弄","HOUSE_NO":"１３號","E_COORD97":162092.95568799999,"N_COORD97":2548098.0161899999,"ADDRESS":"\u25A0田路３２３巷３弄１３號","OBJECTID":53951},"geometry":{"x":162092.95568799973,"y":2548098.0161850005}},{"attributes":{"ID":53952,"DIS_CODE":0,"TOWNNAME":"安南區","LI":"\u25A0田里","LIN":"1鄰","STREET":"\u25A0田路","SECT":" ","MAREA":" ","LANE":"３２３巷","ALLEY":"３弄","HOUSE_NO":"１５號","E_COORD97":162101.21518200001,"N_COORD97":2548098.65118,"ADDRESS":"\u25A0田路３２３巷３弄１５號","OBJECTID":53952},"geometry":{"x":162101.21518199984,"y":2548098.6511840001}},{"attributes":{"ID":53953,"DIS_CODE":0,"TOWNNAME":"安南區","LI":"\u25A0田里","LIN":"1鄰","STREET":"\u25A0田路","SECT":" ","MAREA":" ","LANE":"３２３巷","ALLEY":"３弄","HOUSE_NO":"１７號","E_COORD97":162108.839331,"N_COORD97":2548100.3445199998,"ADDRESS":"\u25A0田路３２３巷３弄１７號","OBJECTID":53953},"geometry":{"x":162108.83933100011,"y":2548100.3445170019}},{"attributes":{"ID":53954,"DIS_CODE":0,"TOWNNAME":"官田區","LI":"渡頭里","LIN":"8鄰","STREET":" ","SECT":" ","MAREA":"渡子頭","LANE":" ","ALLEY":" ","HOUSE_NO":"５７號之８","E_COORD97":181130.75,"N_COORD97":2562977.8700000001,"ADDRESS":"渡子頭５７號之８","OBJECTID":53954},"geometry":{"x":181130.75000000186,"y":2562977.870000001}},{"attributes":{"ID":53955,"DIS_CODE":0,"TOWNNAME":"安南區","LI":"\u25A0田里","LIN":"1鄰","STREET":"\u25A0田路","SECT":" ","MAREA":" ","LANE":"３２３巷","ALLEY":"３弄","HOUSE_NO":"１９號","E_COORD97":162115.19278799999,"N_COORD97":2548101.6145199998,"ADDRESS":"\u25A0田路３２３巷３弄１９號","OBJECTID":53955},"geometry":{"x":162115.19278800022,"y":2548101.6145160031}},{"attributes":{"ID":53956,"DIS_CODE":0,"TOWNNAME":"仁德區","LI":"田厝里","LIN":"8鄰","STREET":"田厝二街","SECT":" ","MAREA":" ","LANE":" ","ALLEY":" ","HOUSE_NO":"５０號","E_COORD97":172423.32000000001,"N_COORD97":2537623.25,"ADDRESS":"田厝二街５０號","OBJECTID":53956},"geometry":{"x":172423.3200000003,"y":2537623.25}},{"attributes":{"ID":53957,"DIS_CODE":0,"TOWNNAME":"永康區","LI":"三民里","LIN":"8鄰","STREET":"仁愛街","SECT":" ","MAREA":" ","LANE":" ","ALLEY":" ","HOUSE_NO":"３０１號","E_COORD97":172262.81,"N_COORD97":2550093.6499999999,"ADDRESS":"仁愛街３０１號","OBJECTID":53957},"geometry":{"x":172262.81000000052,"y":2550093.6500000022}},{"attributes":{"ID":53958,"DIS_CODE":0,"TOWNNAME":"官田區","LI":"渡頭里","LIN":"8鄰","STREET":" ","SECT":" ","MAREA":"渡子頭","LANE":" ","ALLEY":" ","HOUSE_NO":"５７號","E_COORD97":181145.09,"N_COORD97":2562993.6200000001,"ADDRESS":"渡子頭５７號","OBJECTID":53958},"geometry":{"x":181145.09000000171,"y":2562993.6200000048}},{"attributes":{"ID":53959,"DIS_CODE":0,"TOWNNAME":"官田區","LI":"渡頭里","LIN":"8鄰","STREET":" ","SECT":" ","MAREA":"渡子頭","LANE":" ","ALLEY":" ","HOUSE_NO":"５８號之３","E_COORD97":181128.97,"N_COORD97":2562999.7200000002,"ADDRESS":"渡子頭５８號之３","OBJECTID":53959},"geometry":{"x":181128.9700000016,"y":2562999.7200000025}},{"attributes":{"ID":53960,"DIS_CODE":0,"TOWNNAME":"官田區","LI":"渡頭里","LIN":"8鄰","STREET":" ","SECT":" ","MAREA":"渡子頭","LANE":" ","ALLEY":" ","HOUSE_NO":"５８號之５","E_COORD97":181117.82999999999,"N_COORD97":2562975.1000000001,"ADDRESS":"渡子頭５８號之５","OBJECTID":53960},"geometry":{"x":181117.83000000007,"y":2562975.0999999996}},{"attributes":{"ID":53961,"DIS_CODE":0,"TOWNNAME":"白河區","LI":"廣安里","LIN":"1鄰","STREET":" ","SECT":" ","MAREA":"埤斗子","LANE":" ","ALLEY":" ","HOUSE_NO":"９之２號","E_COORD97":189297.41,"N_COORD97":2587177.73,"ADDRESS":"埤斗子９之２號","OBJECTID":53961},"geometry":{"x":189297.41000000108,"y":2587177.7300000004}},{"attributes":{"ID":53962,"DIS_CODE":0,"TOWNNAME":"白河區","LI":"大林里","LIN":"1鄰","STREET":" ","SECT":" ","MAREA":"檨子林","LANE":" ","ALLEY":" ","HOUSE_NO":"２之３號","E_COORD97":192631.84,"N_COORD97":2581407.04,"ADDRESS":"檨子林２之３號","OBJECTID":53962},"geometry":{"x":192631.84000000171,"y":2581407.040000001}},{"attributes":{"ID":53963,"DIS_CODE":0,"TOWNNAME":"北門區","LI":"仁里里","LIN":"1鄰","STREET":" ","SECT":" ","MAREA":"二重港","LANE":" ","ALLEY":" ","HOUSE_NO":"１１號","E_COORD97":161946.45999999999,"N_COORD97":2571364.0699999998,"ADDRESS":"二重港１１號","OBJECTID":53963},"geometry":{"x":161946.46000000183,"y":2571364.070000004}},{"attributes":{"ID":53964,"DIS_CODE":0,"TOWNNAME":"北門區","LI":"仁里里","LIN":"1鄰","STREET":" ","SECT":" ","MAREA":"二重港","LANE":" ","ALLEY":" ","HOUSE_NO":"１２號","E_COORD97":161934.09,"N_COORD97":2571362.6699999999,"ADDRESS":"二重港１２號","OBJECTID":53964},"geometry":{"x":161934.09000000078,"y":2571362.6699999999}},{"attributes":{"ID":53965,"DIS_CODE":0,"TOWNNAME":"仁德區","LI":"後壁里","LIN":"8鄰","STREET":"德善二街","SECT":" ","MAREA":" ","LANE":" ","ALLEY":" ","HOUSE_NO":"６９號","E_COORD97":173680.89999999999,"N_COORD97":2538994.27,"ADDRESS":"德善二街６９號","OBJECTID":53965},"geometry":{"x":173680.90000000037,"y":2538994.2700000033}},{"attributes":{"ID":53966,"DIS_CODE":0,"TOWNNAME":"仁德區","LI":"新田里","LIN":"8鄰","STREET":"北保路","SECT":" ","MAREA":" ","LANE":" ","ALLEY":" ","HOUSE_NO":"２１４號","E_COORD97":173544.54999999999,"N_COORD97":2539401.5,"ADDRESS":"北保路２１４號","OBJECTID":53966},"geometry":{"x":173544.55000000075,"y":2539401.5}},{"attributes":{"ID":53967,"DIS_CODE":0,"TOWNNAME":"仁德區","LI":"新田里","LIN":"8鄰","STREET":"北保路","SECT":" ","MAREA":" ","LANE":" ","ALLEY":" ","HOUSE_NO":"２０１號","E_COORD97":173533.26000000001,"N_COORD97":2539424.7400000002,"ADDRESS":"北保路２０１號","OBJECTID":53967},"geometry":{"x":173533.26000000071,"y":2539424.7400000002}},{"attributes":{"ID":53968,"DIS_CODE":0,"TOWNNAME":"仁德區","LI":"新田里","LIN":"8鄰","STREET":"北保路","SECT":" ","MAREA":" ","LANE":" ","ALLEY":" ","HOUSE_NO":"２１５號","E_COORD97":173560.97,"N_COORD97":2539411.5,"ADDRESS":"北保路２１５號","OBJECTID":53968},"geometry":{"x":173560.96999999974,"y":2539411.5000000019}},{"attributes":{"ID":53969,"DIS_CODE":0,"TOWNNAME":"官田區","LI":"渡頭里","LIN":"8鄰","STREET":" ","SECT":" ","MAREA":"渡子頭","LANE":" ","ALLEY":" ","HOUSE_NO":"５８號之６","E_COORD97":181121.76000000001,"N_COORD97":2562974.3100000001,"ADDRESS":"渡子頭５８號之６","OBJECTID":53969},"geometry":{"x":181121.75999999885,"y":2562974.3100000005}},{"attributes":{"ID":53970,"DIS_CODE":0,"TOWNNAME":"官田區","LI":"渡頭里","LIN":"8鄰","STREET":" ","SECT":" ","MAREA":"渡子頭","LANE":" ","ALLEY":" ","HOUSE_NO":"５８號","E_COORD97":181132.39000000001,"N_COORD97":2563007.3999999999,"ADDRESS":"渡子頭５８號","OBJECTID":53970},"geometry":{"x":181132.38999999966,"y":2563007.4000000004}},{"attributes":{"ID":53971,"DIS_CODE":0,"TOWNNAME":"官田區","LI":"渡頭里","LIN":"8鄰","STREET":" ","SECT":" ","MAREA":"渡子頭","LANE":" ","ALLEY":" ","HOUSE_NO":"５９號","E_COORD97":181144.67999999999,"N_COORD97":2563018.8599999999,"ADDRESS":"渡子頭５９號","OBJECTID":53971},"geometry":{"x":181144.68000000063,"y":2563018.8600000013}},{"attributes":{"ID":53972,"DIS_CODE":0,"TOWNNAME":"安定區","LI":"新吉里","LIN":"8鄰","STREET":" ","SECT":" ","MAREA":"新吉","LANE":" ","ALLEY":" ","HOUSE_NO":"７１號","E_COORD97":169166.97,"N_COORD97":2553966.25,"ADDRESS":"新吉７１號","OBJECTID":53972},"geometry":{"x":169166.96999999974,"y":2553966.25}},{"attributes":{"ID":53973,"DIS_CODE":0,"TOWNNAME":"安定區","LI":"安定里","LIN":"8鄰","STREET":" ","SECT":" ","MAREA":"安定","LANE":" ","ALLEY":" ","HOUSE_NO":"５８之３５號","E_COORD97":171934.01999999999,"N_COORD97":2558039.3199999998,"ADDRESS":"安定５８之３５號","OBJECTID":53973},"geometry":{"x":171934.02000000048,"y":2558039.3200000022}},{"attributes":{"ID":53974,"DIS_CODE":0,"TOWNNAME":"安定區","LI":"港口里","LIN":"8鄰","STREET":" ","SECT":" ","MAREA":"港口","LANE":" ","ALLEY":" ","HOUSE_NO":"２９３之１號","E_COORD97":171405.09,"N_COORD97":2554637.2999999998,"ADDRESS":"港口２９３之１號","OBJECTID":53974},"geometry":{"x":171405.09000000078,"y":2554637.3000000007}},{"attributes":{"ID":53975,"DIS_CODE":0,"TOWNNAME":"安南區","LI":"\u25A0田里","LIN":"1鄰","STREET":"\u25A0田路","SECT":" ","MAREA":" ","LANE":"３２３巷","ALLEY":"３弄","HOUSE_NO":"２１號","E_COORD97":162122.181591,"N_COORD97":2548102.6728500002,"ADDRESS":"\u25A0田路３２３巷３弄２１號","OBJECTID":53975},"geometry":{"x":162122.18159099948,"y":2548102.6728490014}},{"attributes":{"ID":53976,"DIS_CODE":0,"TOWNNAME":"安定區","LI":"港口里","LIN":"8鄰","STREET":" ","SECT":" ","MAREA":"港口","LANE":" ","ALLEY":" ","HOUSE_NO":"２９０號","E_COORD97":171430.59,"N_COORD97":2554683.25,"ADDRESS":"港口２９０號","OBJECTID":53976},"geometry":{"x":171430.59000000078,"y":2554683.2500000019}},{"attributes":{"ID":53977,"DIS_CODE":0,"TOWNNAME":"安南區","LI":"\u25A0田里","LIN":"1鄰","STREET":"\u25A0田路","SECT":" ","MAREA":" ","LANE":"３２３巷","ALLEY":"３弄","HOUSE_NO":"２５號","E_COORD97":162137.00632499999,"N_COORD97":2548104.57785,"ADDRESS":"\u25A0田路３２３巷３弄２５號","OBJECTID":53977},"geometry":{"x":162137.00632500183,"y":2548104.5778480005}},{"attributes":{"ID":53978,"DIS_CODE":0,"TOWNNAME":"安南區","LI":"\u25A0田里","LIN":"1鄰","STREET":"\u25A0田路","SECT":" ","MAREA":" ","LANE":"３２３巷","ALLEY":"３弄","HOUSE_NO":"２７號","E_COORD97":162144.63047400001,"N_COORD97":2548105.84785,"ADDRESS":"\u25A0田路３２３巷３弄２７號","OBJECTID":53978},"geometry":{"x":162144.63047399931,"y":2548105.8478469998}},{"attributes":{"ID":53979,"DIS_CODE":0,"TOWNNAME":"新市區","LI":"新和里","LIN":"8鄰","STREET":"仁愛街","SECT":" ","MAREA":" ","LANE":" ","ALLEY":" ","HOUSE_NO":"６８號","E_COORD97":177527.34,"N_COORD97":2552384.0299999998,"ADDRESS":"仁愛街６８號","OBJECTID":53979},"geometry":{"x":177527.33999999985,"y":2552384.0300000031}},{"attributes":{"ID":53980,"DIS_CODE":0,"TOWNNAME":"安定區","LI":"六嘉里","LIN":"8鄰","STREET":" ","SECT":" ","MAREA":"六塊寮","LANE":" ","ALLEY":" ","HOUSE_NO":"６７號之１","E_COORD97":170160.14999999999,"N_COORD97":2553237.2999999998,"ADDRESS":"六塊寮６７號之１","OBJECTID":53980},"geometry":{"x":170160.15000000037,"y":2553237.3000000007}},{"attributes":{"ID":53981,"DIS_CODE":0,"TOWNNAME":"安定區","LI":"港口里","LIN":"8鄰","STREET":" ","SECT":" ","MAREA":"港口","LANE":" ","ALLEY":" ","HOUSE_NO":"２８６號","E_COORD97":171431.33560600001,"N_COORD97":2554706.2149899998,"ADDRESS":"港口２８６號","OBJECTID":53981},"geometry":{"x":171431.33560600225,"y":2554706.214993}},{"attributes":{"ID":53982,"DIS_CODE":0,"TOWNNAME":"安定區","LI":"港口里","LIN":"8鄰","STREET":" ","SECT":" ","MAREA":"港口","LANE":" ","ALLEY":" ","HOUSE_NO":"２９３號之６","E_COORD97":171395.42999999999,"N_COORD97":2554654.2999999998,"ADDRESS":"港口２９３號之６","OBJECTID":53982},"geometry":{"x":171395.43000000156,"y":2554654.3000000007}},{"attributes":{"ID":53983,"DIS_CODE":0,"TOWNNAME":"北門區","LI":"仁里里","LIN":"1鄰","STREET":" ","SECT":" ","MAREA":"二重港","LANE":" ","ALLEY":" ","HOUSE_NO":"１３號","E_COORD97":161927.17000000001,"N_COORD97":2571342.6099999999,"ADDRESS":"二重港１３號","OBJECTID":53983},"geometry":{"x":161927.16999999993,"y":2571342.6100000031}},{"attributes":{"ID":53984,"DIS_CODE":0,"TOWNNAME":"新市區","LI":"潭頂里","LIN":"8鄰","STREET":" ","SECT":" ","MAREA":"潭頂","LANE":" ","ALLEY":" ","HOUSE_NO":"３１３號","E_COORD97":180688.67000000001,"N_COORD97":2553000.5,"ADDRESS":"潭頂３１３號","OBJECTID":53984},"geometry":{"x":180688.67000000179,"y":2553000.5}},{"attributes":{"ID":53985,"DIS_CODE":0,"TOWNNAME":"安南區","LI":"\u25A0田里","LIN":"1鄰","STREET":"\u25A0田路","SECT":" ","MAREA":" ","LANE":"３２３巷","ALLEY":"３弄","HOUSE_NO":"２９號","E_COORD97":162151.19571299999,"N_COORD97":2548106.9061799999,"ADDRESS":"\u25A0田路３２３巷３弄２９號","OBJECTID":53985},"geometry":{"x":162151.19571300037,"y":2548106.9061800037}},{"attributes":{"ID":53986,"DIS_CODE":0,"TOWNNAME":"安南區","LI":"\u25A0田里","LIN":"1鄰","STREET":"\u25A0田路","SECT":" ","MAREA":" ","LANE":"３２３巷","ALLEY":"３弄","HOUSE_NO":"３１號","E_COORD97":162158.18451600001,"N_COORD97":2548108.3878500001,"ADDRESS":"\u25A0田路３２３巷３弄３１號","OBJECTID":53986},"geometry":{"x":162158.18451599963,"y":2548108.3878460005}},{"attributes":{"ID":53987,"DIS_CODE":0,"TOWNNAME":"安南區","LI":"公親里","LIN":"1鄰","STREET":"公學路","SECT":"一段","MAREA":" ","LANE":"２２６巷","ALLEY":"１３弄","HOUSE_NO":"８之１號","E_COORD97":168056.60000000001,"N_COORD97":2553183.77,"ADDRESS":"公學路一段２２６巷１３弄８之１號","OBJECTID":53987},"geometry":{"x":168056.60000000056,"y":2553183.7700000014}},{"attributes":{"ID":53988,"DIS_CODE":0,"TOWNNAME":"安南區","LI":"長安里","LIN":"1鄰","STREET":"長溪路","SECT":"三段","MAREA":" ","LANE":"３７３巷","ALLEY":"１２弄","HOUSE_NO":"１０號","E_COORD97":167642.72,"N_COORD97":2551997.0699999998,"ADDRESS":"長溪路三段３７３巷１２弄１０號","OBJECTID":53988},"geometry":{"x":167642.72000000067,"y":2551997.0700000003}},{"attributes":{"ID":53989,"DIS_CODE":0,"TOWNNAME":"安南區","LI":"國安里","LIN":"1鄰","STREET":"國安街","SECT":" ","MAREA":" ","LANE":"１５６巷","ALLEY":"１５弄","HOUSE_NO":"５之６號","E_COORD97":166672.85999999999,"N_COORD97":2546995.2000000002,"ADDRESS":"國安街１５６巷１５弄５之６號","OBJECTID":53989},"geometry":{"x":166672.86000000034,"y":2546995.1999999974}},{"attributes":{"ID":53990,"DIS_CODE":0,"TOWNNAME":"新市區","LI":"潭頂里","LIN":"8鄰","STREET":" ","SECT":" ","MAREA":"潭頂","LANE":" ","ALLEY":" ","HOUSE_NO":"３２３之２號","E_COORD97":180676.48000000001,"N_COORD97":2553208.2999999998,"ADDRESS":"潭頂３２３之２號","OBJECTID":53990},"geometry":{"x":180676.48000000045,"y":2553208.3000000026}},{"attributes":{"ID":53991,"DIS_CODE":0,"TOWNNAME":"新市區","LI":"潭頂里","LIN":"8鄰","STREET":" ","SECT":" ","MAREA":"潭頂","LANE":" ","ALLEY":" ","HOUSE_NO":"３２３之３號","E_COORD97":180674.60999999999,"N_COORD97":2553217.0499999998,"ADDRESS":"潭頂３２３之３號","OBJECTID":53991},"geometry":{"x":180674.61000000127,"y":2553217.0500000026}},{"attributes":{"ID":53992,"DIS_CODE":0,"TOWNNAME":"新市區","LI":"潭頂里","LIN":"8鄰","STREET":" ","SECT":" ","MAREA":"潭頂","LANE":" ","ALLEY":" ","HOUSE_NO":"３２１號","E_COORD97":180699.53,"N_COORD97":2553184,"ADDRESS":"潭頂３２１號","OBJECTID":53992},"geometry":{"x":180699.53000000026,"y":2553184}},{"attributes":{"ID":53993,"DIS_CODE":0,"TOWNNAME":"新市區","LI":"潭頂里","LIN":"8鄰","STREET":" ","SECT":" ","MAREA":"潭頂","LANE":" ","ALLEY":" ","HOUSE_NO":"３１３之１號","E_COORD97":180700.78,"N_COORD97":2553002.2999999998,"ADDRESS":"潭頂３１３之１號","OBJECTID":53993},"geometry":{"x":180700.78000000119,"y":2553002.3000000026}},{"attributes":{"ID":53994,"DIS_CODE":0,"TOWNNAME":"安南區","LI":"學東里","LIN":"1鄰","STREET":"公學路","SECT":"六段","MAREA":" ","LANE":"７２１巷","ALLEY":"３１６弄","HOUSE_NO":"１３２之１號","E_COORD97":162182.37097700001,"N_COORD97":2552732.3442699998,"ADDRESS":"公學路六段７２１巷３１６弄１３２之１號","OBJECTID":53994},"geometry":{"x":162182.37097700126,"y":2552732.3442650028}},{"attributes":{"ID":53995,"DIS_CODE":0,"TOWNNAME":"安南區","LI":"\u25A0田里","LIN":"1鄰","STREET":"\u25A0田路","SECT":" ","MAREA":" ","LANE":"３２９巷","ALLEY":"１０弄","HOUSE_NO":"３７號","E_COORD97":161924.07000000001,"N_COORD97":2548006.8300000001,"ADDRESS":"\u25A0田路３２９巷１０弄３７號","OBJECTID":53995},"geometry":{"x":161924.07000000216,"y":2548006.8300000019}},{"attributes":{"ID":53996,"DIS_CODE":0,"TOWNNAME":"安南區","LI":"\u25A0田里","LIN":"1鄰","STREET":"\u25A0田路","SECT":" ","MAREA":" ","LANE":"３２９巷","ALLEY":"１０弄","HOUSE_NO":"３８號","E_COORD97":161942.22,"N_COORD97":2548035.2200000002,"ADDRESS":"\u25A0田路３２９巷１０弄３８號","OBJECTID":53996},"geometry":{"x":161942.21999999974,"y":2548035.2200000025}},{"attributes":{"ID":53997,"DIS_CODE":0,"TOWNNAME":"安南區","LI":"\u25A0田里","LIN":"1鄰","STREET":"\u25A0田路","SECT":" ","MAREA":" ","LANE":"３２９巷","ALLEY":"１０弄","HOUSE_NO":"３９號","E_COORD97":161919.14999999999,"N_COORD97":2548005.5600000001,"ADDRESS":"\u25A0田路３２９巷１０弄３９號","OBJECTID":53997},"geometry":{"x":161919.1500000013,"y":2548005.5600000024}},{"attributes":{"ID":53998,"DIS_CODE":0,"TOWNNAME":"北門區","LI":"仁里里","LIN":"1鄰","STREET":" ","SECT":" ","MAREA":"二重港","LANE":" ","ALLEY":" ","HOUSE_NO":"１５號","E_COORD97":161867.47,"N_COORD97":2571349.0699999998,"ADDRESS":"二重港１５號","OBJECTID":53998},"geometry":{"x":161867.46999999974,"y":2571349.0700000003}},{"attributes":{"ID":53999,"DIS_CODE":0,"TOWNNAME":"北門區","LI":"仁里里","LIN":"1鄰","STREET":" ","SECT":" ","MAREA":"二重港","LANE":" ","ALLEY":" ","HOUSE_NO":"１６號","E_COORD97":161847.89000000001,"N_COORD97":2571330.7599999998,"ADDRESS":"二重港１６號","OBJECTID":53999},"geometry":{"x":161847.88999999966,"y":2571330.7599999998}},{"attributes":{"ID":54000,"DIS_CODE":0,"TOWNNAME":"安南區","LI":"\u25A0田里","LIN":"1鄰","STREET":"\u25A0田路","SECT":" ","MAREA":" ","LANE":"３２９巷","ALLEY":"１０弄","HOUSE_NO":"４０號","E_COORD97":161938.57000000001,"N_COORD97":2548034.4199999999,"ADDRESS":"\u25A0田路３２９巷１０弄４０號","OBJECTID":54000},"geometry":{"x":161938.5700000003,"y":2548034.4199999999}}]}