{"displayFieldName":"TOWNNAME","fieldAliases":{"ID":"ID","DIS_CODE":"DIS_CODE","TOWNNAME":"TOWNNAME","LI":"LI","LIN":"LIN","STREET":"STREET","SECT":"SECT","MAREA":"MAREA","LANE":"LANE","ALLEY":"ALLEY","HOUSE_NO":"HOUSE_NO","E_COORD97":"E_COORD97","N_COORD97":"N_COORD97","ADDRESS":"ADDRESS","OBJECTID":"OBJECTID"},"geometryType":"esriGeometryPoint","spatialReference":{"wkid":102443,"latestWkid":3826},"fields":[{"name":"ID","type":"esriFieldTypeDouble","alias":"ID"},{"name":"DIS_CODE","type":"esriFieldTypeInteger","alias":"DIS_CODE"},{"name":"TOWNNAME","type":"esriFieldTypeString","alias":"TOWNNAME","length":8},{"name":"LI","type":"esriFieldTypeString","alias":"LI","length":8},{"name":"LIN","type":"esriFieldTypeString","alias":"LIN","length":12},{"name":"STREET","type":"esriFieldTypeString","alias":"STREET","length":20},{"name":"SECT","type":"esriFieldTypeString","alias":"SECT","length":8},{"name":"MAREA","type":"esriFieldTypeString","alias":"MAREA","length":12},{"name":"LANE","type":"esriFieldTypeString","alias":"LANE","length":10},{"name":"ALLEY","type":"esriFieldTypeString","alias":"ALLEY","length":10},{"name":"HOUSE_NO","type":"esriFieldTypeString","alias":"HOUSE_NO","length":20},{"name":"E_COORD97","type":"esriFieldTypeDouble","alias":"E_COORD97"},{"name":"N_COORD97","type":"esriFieldTypeDouble","alias":"N_COORD97"},{"name":"ADDRESS","type":"esriFieldTypeString","alias":"ADDRESS","length":50},{"name":"OBJECTID","type":"esriFieldTypeOID","alias":"OBJECTID"}],"features":[{"attributes":{"ID":270406,"DIS_CODE":0,"TOWNNAME":"永康區","LI":"安康里","LIN":"8鄰","STREET":"中山南路","SECT":" ","MAREA":" ","LANE":"１１９巷","ALLEY":" ","HOUSE_NO":"５２號七樓","E_COORD97":171090.56,"N_COORD97":2546008.5099999998,"ADDRESS":"中山南路１１９巷５２號七樓","OBJECTID":270401},"geometry":{"x":171090.55999999959,"y":2546008.5100000016}},{"attributes":{"ID":270407,"DIS_CODE":0,"TOWNNAME":"安平區","LI":"華平里","LIN":"8鄰","STREET":"育平九街","SECT":" ","MAREA":" ","LANE":"２２巷","ALLEY":" ","HOUSE_NO":"５號六樓之９","E_COORD97":165413.85000000001,"N_COORD97":2543981.5499999998,"ADDRESS":"育平九街２２巷５號六樓之９","OBJECTID":270402},"geometry":{"x":165413.85000000056,"y":2543981.5500000026}},{"attributes":{"ID":270408,"DIS_CODE":0,"TOWNNAME":"安平區","LI":"華平里","LIN":"8鄰","STREET":"育平九街","SECT":" ","MAREA":" ","LANE":"２２巷","ALLEY":" ","HOUSE_NO":"５號四樓之１","E_COORD97":165413.85000000001,"N_COORD97":2543981.5499999998,"ADDRESS":"育平九街２２巷５號四樓之１","OBJECTID":270403},"geometry":{"x":165413.85000000056,"y":2543981.5500000026}},{"attributes":{"ID":270409,"DIS_CODE":0,"TOWNNAME":"歸仁區","LI":"武東里","LIN":"8鄰","STREET":"武東一街","SECT":" ","MAREA":" ","LANE":"４９巷","ALLEY":" ","HOUSE_NO":"６６號二樓之３","E_COORD97":175800.22,"N_COORD97":2535538.2999999998,"ADDRESS":"武東一街４９巷６６號二樓之３","OBJECTID":270404},"geometry":{"x":175800.21999999974,"y":2535538.3000000026}},{"attributes":{"ID":270410,"DIS_CODE":0,"TOWNNAME":"歸仁區","LI":"武東里","LIN":"8鄰","STREET":"武東一街","SECT":" ","MAREA":" ","LANE":"４９巷","ALLEY":" ","HOUSE_NO":"６８號二樓之１","E_COORD97":175800.13,"N_COORD97":2535538.2999999998,"ADDRESS":"武東一街４９巷６８號二樓之１","OBJECTID":270405},"geometry":{"x":175800.13000000082,"y":2535538.3000000026}},{"attributes":{"ID":270411,"DIS_CODE":0,"TOWNNAME":"南區","LI":"新生里","LIN":"8鄰","STREET":"大同路","SECT":"二段","MAREA":" ","LANE":"１６４巷","ALLEY":" ","HOUSE_NO":"１１號十二樓之１","E_COORD97":169249.92999999999,"N_COORD97":2541970.1299999999,"ADDRESS":"大同路二段１６４巷１１號十二樓之１","OBJECTID":270406},"geometry":{"x":169249.93000000063,"y":2541970.129999999}},{"attributes":{"ID":270412,"DIS_CODE":0,"TOWNNAME":"南區","LI":"新生里","LIN":"8鄰","STREET":"大同路","SECT":"二段","MAREA":" ","LANE":"１６４巷","ALLEY":" ","HOUSE_NO":"１１號十二樓之５","E_COORD97":169249.92999999999,"N_COORD97":2541970.1299999999,"ADDRESS":"大同路二段１６４巷１１號十二樓之５","OBJECTID":270407},"geometry":{"x":169249.93000000063,"y":2541970.129999999}},{"attributes":{"ID":270413,"DIS_CODE":0,"TOWNNAME":"新營區","LI":"南興里","LIN":"8鄰","STREET":"建業路","SECT":" ","MAREA":" ","LANE":"７８巷","ALLEY":" ","HOUSE_NO":"１１號九樓之２","E_COORD97":179329.63,"N_COORD97":2577522.7799999998,"ADDRESS":"建業路７８巷１１號九樓之２","OBJECTID":270408},"geometry":{"x":179329.63000000082,"y":2577522.7800000012}},{"attributes":{"ID":270414,"DIS_CODE":0,"TOWNNAME":"新營區","LI":"南興里","LIN":"8鄰","STREET":"建業路","SECT":" ","MAREA":" ","LANE":"７８巷","ALLEY":" ","HOUSE_NO":"２１號十二樓之１","E_COORD97":179332.95999999999,"N_COORD97":2577544.9199999999,"ADDRESS":"建業路７８巷２１號十二樓之１","OBJECTID":270409},"geometry":{"x":179332.96000000089,"y":2577544.9199999999}},{"attributes":{"ID":270415,"DIS_CODE":0,"TOWNNAME":"新營區","LI":"南興里","LIN":"8鄰","STREET":"建業路","SECT":" ","MAREA":" ","LANE":"７８巷","ALLEY":" ","HOUSE_NO":"１號十樓之２","E_COORD97":179327.28,"N_COORD97":2577506.1800000002,"ADDRESS":"建業路７８巷１號十樓之２","OBJECTID":270410},"geometry":{"x":179327.28000000119,"y":2577506.1800000034}},{"attributes":{"ID":270416,"DIS_CODE":0,"TOWNNAME":"新營區","LI":"南興里","LIN":"8鄰","STREET":"建業路","SECT":" ","MAREA":" ","LANE":"７８巷","ALLEY":" ","HOUSE_NO":"２１號八樓之１","E_COORD97":179331.70999999999,"N_COORD97":2577544.9199999999,"ADDRESS":"建業路７８巷２１號八樓之１","OBJECTID":270411},"geometry":{"x":179331.70999999996,"y":2577544.9199999999}},{"attributes":{"ID":270417,"DIS_CODE":0,"TOWNNAME":"新營區","LI":"南興里","LIN":"8鄰","STREET":"建業路","SECT":" ","MAREA":" ","LANE":"７８巷","ALLEY":" ","HOUSE_NO":"２１號十一樓之１","E_COORD97":179332.95999999999,"N_COORD97":2577544.9199999999,"ADDRESS":"建業路７８巷２１號十一樓之１","OBJECTID":270412},"geometry":{"x":179332.96000000089,"y":2577544.9199999999}},{"attributes":{"ID":270418,"DIS_CODE":0,"TOWNNAME":"新營區","LI":"南興里","LIN":"8鄰","STREET":"建業路","SECT":" ","MAREA":" ","LANE":"７８巷","ALLEY":" ","HOUSE_NO":"２１號三樓之３","E_COORD97":179331.81,"N_COORD97":2577544.9199999999,"ADDRESS":"建業路７８巷２１號三樓之３","OBJECTID":270413},"geometry":{"x":179331.81000000052,"y":2577544.9199999999}},{"attributes":{"ID":270419,"DIS_CODE":0,"TOWNNAME":"善化區","LI":"文昌里","LIN":"13鄰","STREET":"永福路","SECT":" ","MAREA":" ","LANE":" ","ALLEY":" ","HOUSE_NO":"５１號之２","E_COORD97":177524.82999999999,"N_COORD97":2558842.77,"ADDRESS":"永福路５１號之２","OBJECTID":270414},"geometry":{"x":177524.83000000101,"y":2558842.7700000014}},{"attributes":{"ID":270420,"DIS_CODE":0,"TOWNNAME":"南區","LI":"田寮里","LIN":"3鄰","STREET":"夏林路","SECT":" ","MAREA":" ","LANE":" ","ALLEY":" ","HOUSE_NO":"３１２號","E_COORD97":167477.70000000001,"N_COORD97":2541829.3599999999,"ADDRESS":"夏林路３１２號","OBJECTID":270415},"geometry":{"x":167477.70000000019,"y":2541829.3599999994}},{"attributes":{"ID":270421,"DIS_CODE":0,"TOWNNAME":"永康區","LI":"北灣里","LIN":"39鄰","STREET":"大同街","SECT":" ","MAREA":" ","LANE":" ","ALLEY":" ","HOUSE_NO":"７２０號","E_COORD97":174561.31,"N_COORD97":2546579.1499999999,"ADDRESS":"大同街７２０號","OBJECTID":270416},"geometry":{"x":174561.31000000052,"y":2546579.1500000004}},{"attributes":{"ID":270422,"DIS_CODE":0,"TOWNNAME":"新營區","LI":"南興里","LIN":"8鄰","STREET":"建業路","SECT":" ","MAREA":" ","LANE":"７８巷","ALLEY":" ","HOUSE_NO":"２１號八樓之３","E_COORD97":179331.81,"N_COORD97":2577544.9199999999,"ADDRESS":"建業路７８巷２１號八樓之３","OBJECTID":270417},"geometry":{"x":179331.81000000052,"y":2577544.9199999999}},{"attributes":{"ID":270423,"DIS_CODE":0,"TOWNNAME":"新營區","LI":"南興里","LIN":"8鄰","STREET":"建業路","SECT":" ","MAREA":" ","LANE":"７８巷","ALLEY":" ","HOUSE_NO":"１１號五樓之１","E_COORD97":179329.5,"N_COORD97":2577522.7799999998,"ADDRESS":"建業路７８巷１１號五樓之１","OBJECTID":270418},"geometry":{"x":179329.50000000093,"y":2577522.7800000012}},{"attributes":{"ID":270424,"DIS_CODE":0,"TOWNNAME":"新營區","LI":"南興里","LIN":"8鄰","STREET":"建業路","SECT":" ","MAREA":" ","LANE":"７８巷","ALLEY":" ","HOUSE_NO":"１１號五樓之２","E_COORD97":179329.63,"N_COORD97":2577522.7799999998,"ADDRESS":"建業路７８巷１１號五樓之２","OBJECTID":270419},"geometry":{"x":179329.63000000082,"y":2577522.7800000012}},{"attributes":{"ID":270425,"DIS_CODE":0,"TOWNNAME":"新營區","LI":"南興里","LIN":"8鄰","STREET":"建業路","SECT":" ","MAREA":" ","LANE":"７８巷","ALLEY":" ","HOUSE_NO":"１１號三樓之２","E_COORD97":179329.63,"N_COORD97":2577522.7799999998,"ADDRESS":"建業路７８巷１１號三樓之２","OBJECTID":270420},"geometry":{"x":179329.63000000082,"y":2577522.7800000012}},{"attributes":{"ID":270426,"DIS_CODE":0,"TOWNNAME":"新營區","LI":"南興里","LIN":"8鄰","STREET":"建業路","SECT":" ","MAREA":" ","LANE":"７８巷","ALLEY":" ","HOUSE_NO":"１１號十樓之２","E_COORD97":179329.63,"N_COORD97":2577522.7799999998,"ADDRESS":"建業路７８巷１１號十樓之２","OBJECTID":270421},"geometry":{"x":179329.63000000082,"y":2577522.7800000012}},{"attributes":{"ID":270427,"DIS_CODE":0,"TOWNNAME":"歸仁區","LI":"武東里","LIN":"8鄰","STREET":"武東一街","SECT":" ","MAREA":" ","LANE":"４９巷","ALLEY":" ","HOUSE_NO":"７０號五樓之４","E_COORD97":175800.14999999999,"N_COORD97":2535538.2999999998,"ADDRESS":"武東一街４９巷７０號五樓之４","OBJECTID":270422},"geometry":{"x":175800.15000000037,"y":2535538.3000000026}},{"attributes":{"ID":270428,"DIS_CODE":0,"TOWNNAME":"歸仁區","LI":"武東里","LIN":"8鄰","STREET":"武東一街","SECT":" ","MAREA":" ","LANE":"４９巷","ALLEY":" ","HOUSE_NO":"７０號五樓之１","E_COORD97":175800.13,"N_COORD97":2535538.2999999998,"ADDRESS":"武東一街４９巷７０號五樓之１","OBJECTID":270423},"geometry":{"x":175800.13000000082,"y":2535538.3000000026}},{"attributes":{"ID":270429,"DIS_CODE":0,"TOWNNAME":"北區","LI":"長榮里","LIN":"8鄰","STREET":"長榮路","SECT":"五段","MAREA":" ","LANE":"４１巷","ALLEY":" ","HOUSE_NO":"１０號七樓之３","E_COORD97":170043.01999999999,"N_COORD97":2545529.3300000001,"ADDRESS":"長榮路五段４１巷１０號七樓之３","OBJECTID":270424},"geometry":{"x":170043.01999999955,"y":2545529.3300000001}},{"attributes":{"ID":270430,"DIS_CODE":0,"TOWNNAME":"北區","LI":"長榮里","LIN":"8鄰","STREET":"長榮路","SECT":"五段","MAREA":" ","LANE":"４１巷","ALLEY":" ","HOUSE_NO":"１０號七樓之５","E_COORD97":170043.01999999999,"N_COORD97":2545529.3300000001,"ADDRESS":"長榮路五段４１巷１０號七樓之５","OBJECTID":270425},"geometry":{"x":170043.01999999955,"y":2545529.3300000001}},{"attributes":{"ID":270431,"DIS_CODE":0,"TOWNNAME":"永康區","LI":"正強里","LIN":"8鄰","STREET":"正義街","SECT":" ","MAREA":" ","LANE":"７９巷","ALLEY":" ","HOUSE_NO":"１７號","E_COORD97":173503.82000000001,"N_COORD97":2547525.3900000001,"ADDRESS":"正義街７９巷１７號","OBJECTID":270426},"geometry":{"x":173503.82000000216,"y":2547525.3900000025}},{"attributes":{"ID":270432,"DIS_CODE":0,"TOWNNAME":"安南區","LI":"淵中里","LIN":"8鄰","STREET":"安中路","SECT":"四段","MAREA":" ","LANE":"２９０巷","ALLEY":" ","HOUSE_NO":"２９０號","E_COORD97":165133.31,"N_COORD97":2550291.4700000002,"ADDRESS":"安中路四段２９０巷２９０號","OBJECTID":270427},"geometry":{"x":165133.30999999959,"y":2550291.4700000025}},{"attributes":{"ID":270433,"DIS_CODE":0,"TOWNNAME":"安南區","LI":"淵中里","LIN":"8鄰","STREET":"安中路","SECT":"四段","MAREA":" ","LANE":"２９０巷","ALLEY":" ","HOUSE_NO":"２９２號","E_COORD97":165136.47,"N_COORD97":2550294.5299999998,"ADDRESS":"安中路四段２９０巷２９２號","OBJECTID":270428},"geometry":{"x":165136.4700000016,"y":2550294.5299999993}},{"attributes":{"ID":270434,"DIS_CODE":0,"TOWNNAME":"安南區","LI":"淵中里","LIN":"8鄰","STREET":"安中路","SECT":"四段","MAREA":" ","LANE":"２９０巷","ALLEY":" ","HOUSE_NO":"２９４號","E_COORD97":165140.35000000001,"N_COORD97":2550298.1400000001,"ADDRESS":"安中路四段２９０巷２９４號","OBJECTID":270429},"geometry":{"x":165140.34999999963,"y":2550298.1400000006}},{"attributes":{"ID":270435,"DIS_CODE":0,"TOWNNAME":"安南區","LI":"淵中里","LIN":"8鄰","STREET":"安中路","SECT":"四段","MAREA":" ","LANE":"２９０巷","ALLEY":" ","HOUSE_NO":"２９６號","E_COORD97":165144.94,"N_COORD97":2550301.5600000001,"ADDRESS":"安中路四段２９０巷２９６號","OBJECTID":270430},"geometry":{"x":165144.94000000134,"y":2550301.5600000024}},{"attributes":{"ID":270436,"DIS_CODE":0,"TOWNNAME":"安南區","LI":"淵中里","LIN":"8鄰","STREET":"安中路","SECT":"四段","MAREA":" ","LANE":"２９０巷","ALLEY":" ","HOUSE_NO":"２９８號","E_COORD97":165148.19,"N_COORD97":2550304.7999999998,"ADDRESS":"安中路四段２９０巷２９８號","OBJECTID":270431},"geometry":{"x":165148.19000000134,"y":2550304.8000000007}},{"attributes":{"ID":270437,"DIS_CODE":0,"TOWNNAME":"安南區","LI":"淵中里","LIN":"8鄰","STREET":"安中路","SECT":"四段","MAREA":" ","LANE":"２９０巷","ALLEY":" ","HOUSE_NO":"３００號","E_COORD97":165152.34,"N_COORD97":2550308.3199999998,"ADDRESS":"安中路四段２９０巷３００號","OBJECTID":270432},"geometry":{"x":165152.33999999985,"y":2550308.320000004}},{"attributes":{"ID":270438,"DIS_CODE":0,"TOWNNAME":"安南區","LI":"淵中里","LIN":"8鄰","STREET":"安中路","SECT":"四段","MAREA":" ","LANE":"２９０巷","ALLEY":" ","HOUSE_NO":"３０２號","E_COORD97":165156.31,"N_COORD97":2550311.6499999999,"ADDRESS":"安中路四段２９０巷３０２號","OBJECTID":270433},"geometry":{"x":165156.31000000052,"y":2550311.6500000004}},{"attributes":{"ID":270439,"DIS_CODE":0,"TOWNNAME":"安南區","LI":"淵中里","LIN":"8鄰","STREET":"安中路","SECT":"四段","MAREA":" ","LANE":"２９０巷","ALLEY":" ","HOUSE_NO":"３０４號","E_COORD97":165160.09,"N_COORD97":2550314.8900000001,"ADDRESS":"安中路四段２９０巷３０４號","OBJECTID":270434},"geometry":{"x":165160.09000000078,"y":2550314.8900000043}},{"attributes":{"ID":270440,"DIS_CODE":0,"TOWNNAME":"安南區","LI":"安西里","LIN":"8鄰","STREET":"安和路","SECT":"一段","MAREA":" ","LANE":"３２１巷","ALLEY":" ","HOUSE_NO":"７號","E_COORD97":169217.25,"N_COORD97":2548131.4199999999,"ADDRESS":"安和路一段３２１巷７號","OBJECTID":270435},"geometry":{"x":169217.25000000093,"y":2548131.4200000018}},{"attributes":{"ID":270441,"DIS_CODE":0,"TOWNNAME":"安南區","LI":"安西里","LIN":"8鄰","STREET":"安和路","SECT":"一段","MAREA":" ","LANE":"３２１巷","ALLEY":" ","HOUSE_NO":"５號","E_COORD97":169224.29000000001,"N_COORD97":2548135.3300000001,"ADDRESS":"安和路一段３２１巷５號","OBJECTID":270436},"geometry":{"x":169224.29000000004,"y":2548135.3300000019}},{"attributes":{"ID":270442,"DIS_CODE":0,"TOWNNAME":"安南區","LI":"安西里","LIN":"8鄰","STREET":"安和路","SECT":"一段","MAREA":" ","LANE":"２８５巷","ALLEY":" ","HOUSE_NO":"１２號","E_COORD97":169239.32000000001,"N_COORD97":2548079.8799999999,"ADDRESS":"安和路一段２８５巷１２號","OBJECTID":270437},"geometry":{"x":169239.32000000123,"y":2548079.8800000008}},{"attributes":{"ID":270443,"DIS_CODE":0,"TOWNNAME":"安南區","LI":"安西里","LIN":"8鄰","STREET":"安和路","SECT":"一段","MAREA":" ","LANE":"２８５巷","ALLEY":" ","HOUSE_NO":"１８號","E_COORD97":169223.702234,"N_COORD97":2548085.3450000002,"ADDRESS":"安和路一段２８５巷１８號","OBJECTID":270438},"geometry":{"x":169223.7022340009,"y":2548085.3450000007}},{"attributes":{"ID":270444,"DIS_CODE":0,"TOWNNAME":"安南區","LI":"公\u25A0里","LIN":"8鄰","STREET":"安興街","SECT":" ","MAREA":" ","LANE":"１８１巷","ALLEY":" ","HOUSE_NO":"５５號","E_COORD97":164003.79999999999,"N_COORD97":2551976.3900000001,"ADDRESS":"安興街１８１巷５５號","OBJECTID":270439},"geometry":{"x":164003.80000000075,"y":2551976.3900000025}},{"attributes":{"ID":270445,"DIS_CODE":0,"TOWNNAME":"安南區","LI":"公\u25A0里","LIN":"8鄰","STREET":"安興街","SECT":" ","MAREA":" ","LANE":"１８１巷","ALLEY":" ","HOUSE_NO":"８０號","E_COORD97":163893.82000000001,"N_COORD97":2551913.4399999999,"ADDRESS":"安興街１８１巷８０號","OBJECTID":270440},"geometry":{"x":163893.82000000216,"y":2551913.4400000032}},{"attributes":{"ID":270446,"DIS_CODE":0,"TOWNNAME":"佳里區","LI":"三協里","LIN":"3鄰","STREET":" ","SECT":" ","MAREA":"菜寮","LANE":" ","ALLEY":" ","HOUSE_NO":"１６號","E_COORD97":167986.06,"N_COORD97":2563810.4700000002,"ADDRESS":"菜寮１６號","OBJECTID":270441},"geometry":{"x":167986.06000000052,"y":2563810.4700000007}},{"attributes":{"ID":270447,"DIS_CODE":0,"TOWNNAME":"安南區","LI":"公\u25A0里","LIN":"8鄰","STREET":"安興街","SECT":" ","MAREA":" ","LANE":"１８１巷","ALLEY":" ","HOUSE_NO":"８２號","E_COORD97":163890.54000000001,"N_COORD97":2551910.4900000002,"ADDRESS":"安興街１８１巷８２號","OBJECTID":270442},"geometry":{"x":163890.54000000097,"y":2551910.4900000039}},{"attributes":{"ID":270448,"DIS_CODE":0,"TOWNNAME":"下營區","LI":"仁里里","LIN":"8鄰","STREET":"公園路","SECT":" ","MAREA":" ","LANE":"１８８巷","ALLEY":" ","HOUSE_NO":"２號","E_COORD97":174014.70999999999,"N_COORD97":2570297.6000000001,"ADDRESS":"公園路１８８巷２號","OBJECTID":270443},"geometry":{"x":174014.71000000089,"y":2570297.5999999996}},{"attributes":{"ID":270449,"DIS_CODE":0,"TOWNNAME":"下營區","LI":"仁里里","LIN":"8鄰","STREET":"公園路","SECT":" ","MAREA":" ","LANE":"２１８巷","ALLEY":" ","HOUSE_NO":"１０號","E_COORD97":173960,"N_COORD97":2570302.2799999998,"ADDRESS":"公園路２１８巷１０號","OBJECTID":270444},"geometry":{"x":173960.00000000186,"y":2570302.2799999993}},{"attributes":{"ID":270450,"DIS_CODE":0,"TOWNNAME":"永康區","LI":"永康里","LIN":"8鄰","STREET":"中山南路","SECT":" ","MAREA":" ","LANE":"１１１６巷","ALLEY":" ","HOUSE_NO":"２８號","E_COORD97":173898.60000000001,"N_COORD97":2547259.25,"ADDRESS":"中山南路１１１６巷２８號","OBJECTID":270445},"geometry":{"x":173898.60000000056,"y":2547259.25}},{"attributes":{"ID":270451,"DIS_CODE":0,"TOWNNAME":"永康區","LI":"正強里","LIN":"8鄰","STREET":"正義街","SECT":" ","MAREA":" ","LANE":"８９巷","ALLEY":" ","HOUSE_NO":"１號","E_COORD97":173456.38,"N_COORD97":2547551.02,"ADDRESS":"正義街８９巷１號","OBJECTID":270446},"geometry":{"x":173456.37999999989,"y":2547551.0200000014}},{"attributes":{"ID":270452,"DIS_CODE":0,"TOWNNAME":"永康區","LI":"建國里","LIN":"8鄰","STREET":"復國一路","SECT":" ","MAREA":" ","LANE":"６巷","ALLEY":" ","HOUSE_NO":"７２號","E_COORD97":172817.29999999999,"N_COORD97":2544719.27,"ADDRESS":"復國一路６巷７２號","OBJECTID":270447},"geometry":{"x":172817.30000000075,"y":2544719.2699999996}},{"attributes":{"ID":270453,"DIS_CODE":0,"TOWNNAME":"白河區","LI":"永安里","LIN":"8鄰","STREET":"富民路","SECT":" ","MAREA":" ","LANE":"３５６巷","ALLEY":" ","HOUSE_NO":"１１號","E_COORD97":189652.17000000001,"N_COORD97":2582876.9900000002,"ADDRESS":"富民路３５６巷１１號","OBJECTID":270448},"geometry":{"x":189652.16999999993,"y":2582876.9900000002}},{"attributes":{"ID":270454,"DIS_CODE":0,"TOWNNAME":"佳里區","LI":"三協里","LIN":"3鄰","STREET":" ","SECT":" ","MAREA":"菜寮","LANE":" ","ALLEY":" ","HOUSE_NO":"１８號","E_COORD97":167988.44,"N_COORD97":2563803.8599999999,"ADDRESS":"菜寮１８號","OBJECTID":270449},"geometry":{"x":167988.44000000041,"y":2563803.8599999975}},{"attributes":{"ID":270455,"DIS_CODE":0,"TOWNNAME":"佳里區","LI":"三協里","LIN":"3鄰","STREET":" ","SECT":" ","MAREA":"菜寮","LANE":" ","ALLEY":" ","HOUSE_NO":"１９號之１","E_COORD97":167984.70000000001,"N_COORD97":2563765.8500000001,"ADDRESS":"菜寮１９號之１","OBJECTID":270450},"geometry":{"x":167984.70000000019,"y":2563765.8499999996}},{"attributes":{"ID":270456,"DIS_CODE":0,"TOWNNAME":"佳里區","LI":"三協里","LIN":"3鄰","STREET":" ","SECT":" ","MAREA":"菜寮","LANE":" ","ALLEY":" ","HOUSE_NO":"１９號","E_COORD97":167986.89999999999,"N_COORD97":2563775.1600000001,"ADDRESS":"菜寮１９號","OBJECTID":270451},"geometry":{"x":167986.90000000037,"y":2563775.1600000001}},{"attributes":{"ID":270457,"DIS_CODE":0,"TOWNNAME":"佳里區","LI":"三協里","LIN":"3鄰","STREET":" ","SECT":" ","MAREA":"菜寮","LANE":" ","ALLEY":" ","HOUSE_NO":"２０號","E_COORD97":167989.42000000001,"N_COORD97":2563751.8399999999,"ADDRESS":"菜寮２０號","OBJECTID":270452},"geometry":{"x":167989.41999999993,"y":2563751.8400000017}},{"attributes":{"ID":270458,"DIS_CODE":0,"TOWNNAME":"佳里區","LI":"三協里","LIN":"3鄰","STREET":" ","SECT":" ","MAREA":"菜寮","LANE":" ","ALLEY":" ","HOUSE_NO":"２１號","E_COORD97":167997.39000000001,"N_COORD97":2563717.0899999999,"ADDRESS":"菜寮２１號","OBJECTID":270453},"geometry":{"x":167997.3900000006,"y":2563717.0899999999}},{"attributes":{"ID":270459,"DIS_CODE":0,"TOWNNAME":"永康區","LI":"北灣里","LIN":"41鄰","STREET":"信義二街","SECT":" ","MAREA":" ","LANE":" ","ALLEY":" ","HOUSE_NO":"６６號","E_COORD97":175092.23000000001,"N_COORD97":2545754.3999999999,"ADDRESS":"信義二街６６號","OBJECTID":270454},"geometry":{"x":175092.23000000045,"y":2545754.4000000041}},{"attributes":{"ID":270460,"DIS_CODE":0,"TOWNNAME":"佳里區","LI":"三協里","LIN":"3鄰","STREET":" ","SECT":" ","MAREA":"菜寮","LANE":" ","ALLEY":" ","HOUSE_NO":"２３號之５","E_COORD97":167977.28,"N_COORD97":2563586.48,"ADDRESS":"菜寮２３號之５","OBJECTID":270455},"geometry":{"x":167977.28000000026,"y":2563586.4800000004}},{"attributes":{"ID":270461,"DIS_CODE":0,"TOWNNAME":"白河區","LI":"永安里","LIN":"8鄰","STREET":"富民路","SECT":" ","MAREA":" ","LANE":"３５６巷","ALLEY":" ","HOUSE_NO":"１２號","E_COORD97":189655.29999999999,"N_COORD97":2582861.3999999999,"ADDRESS":"富民路３５６巷１２號","OBJECTID":270456},"geometry":{"x":189655.30000000168,"y":2582861.4000000004}},{"attributes":{"ID":270462,"DIS_CODE":0,"TOWNNAME":"佳里區","LI":"三協里","LIN":"3鄰","STREET":" ","SECT":" ","MAREA":"菜寮","LANE":" ","ALLEY":" ","HOUSE_NO":"２３號之６","E_COORD97":167977.79000000001,"N_COORD97":2563578.2000000002,"ADDRESS":"菜寮２３號之６","OBJECTID":270457},"geometry":{"x":167977.79000000097,"y":2563578.2000000011}},{"attributes":{"ID":270463,"DIS_CODE":0,"TOWNNAME":"佳里區","LI":"三協里","LIN":"3鄰","STREET":" ","SECT":" ","MAREA":"菜寮","LANE":" ","ALLEY":" ","HOUSE_NO":"２３號之７","E_COORD97":167978.73999999999,"N_COORD97":2563570.54,"ADDRESS":"菜寮２３號之７","OBJECTID":270458},"geometry":{"x":167978.74000000115,"y":2563570.5399999991}},{"attributes":{"ID":270464,"DIS_CODE":0,"TOWNNAME":"佳里區","LI":"三協里","LIN":"3鄰","STREET":" ","SECT":" ","MAREA":"菜寮","LANE":" ","ALLEY":" ","HOUSE_NO":"２３號之８","E_COORD97":167978.95000000001,"N_COORD97":2563562.7400000002,"ADDRESS":"菜寮２３號之８","OBJECTID":270459},"geometry":{"x":167978.95000000112,"y":2563562.7400000021}},{"attributes":{"ID":270465,"DIS_CODE":0,"TOWNNAME":"佳里區","LI":"三協里","LIN":"3鄰","STREET":" ","SECT":" ","MAREA":"菜寮","LANE":" ","ALLEY":" ","HOUSE_NO":"２３號之９","E_COORD97":167960.64000000001,"N_COORD97":2563561.1699999999,"ADDRESS":"菜寮２３號之９","OBJECTID":270460},"geometry":{"x":167960.63999999966,"y":2563561.1699999999}},{"attributes":{"ID":270466,"DIS_CODE":0,"TOWNNAME":"佳里區","LI":"三協里","LIN":"3鄰","STREET":" ","SECT":" ","MAREA":"菜寮","LANE":" ","ALLEY":" ","HOUSE_NO":"２４號之１０","E_COORD97":168044.76999999999,"N_COORD97":2563602.71,"ADDRESS":"菜寮２４號之１０","OBJECTID":270461},"geometry":{"x":168044.76999999862,"y":2563602.7100000009}},{"attributes":{"ID":270467,"DIS_CODE":0,"TOWNNAME":"中西區","LI":"中正里","LIN":"3鄰","STREET":"正興街","SECT":" ","MAREA":" ","LANE":" ","ALLEY":" ","HOUSE_NO":"１１號","E_COORD97":167822.88,"N_COORD97":2543841.9300000002,"ADDRESS":"正興街１１號","OBJECTID":270462},"geometry":{"x":167822.88000000082,"y":2543841.9300000016}},{"attributes":{"ID":270468,"DIS_CODE":0,"TOWNNAME":"白河區","LI":"永安里","LIN":"8鄰","STREET":"富民路","SECT":" ","MAREA":" ","LANE":"３５６巷","ALLEY":" ","HOUSE_NO":"１４號","E_COORD97":189659.12,"N_COORD97":2582862.4399999999,"ADDRESS":"富民路３５６巷１４號","OBJECTID":270463},"geometry":{"x":189659.12000000104,"y":2582862.4400000013}},{"attributes":{"ID":270469,"DIS_CODE":0,"TOWNNAME":"白河區","LI":"永安里","LIN":"8鄰","STREET":"富民路","SECT":" ","MAREA":" ","LANE":"３５６巷","ALLEY":" ","HOUSE_NO":"１號","E_COORD97":189631.01000000001,"N_COORD97":2582873.3300000001,"ADDRESS":"富民路３５６巷１號","OBJECTID":270464},"geometry":{"x":189631.00999999978,"y":2582873.3300000019}},{"attributes":{"ID":270470,"DIS_CODE":0,"TOWNNAME":"白河區","LI":"永安里","LIN":"8鄰","STREET":"富民路","SECT":" ","MAREA":" ","LANE":"３５６巷","ALLEY":" ","HOUSE_NO":"３號","E_COORD97":189634.98999999999,"N_COORD97":2582874.0899999999,"ADDRESS":"富民路３５６巷３號","OBJECTID":270465},"geometry":{"x":189634.99000000022,"y":2582874.0900000036}},{"attributes":{"ID":270471,"DIS_CODE":0,"TOWNNAME":"白河區","LI":"永安里","LIN":"8鄰","STREET":"富民路","SECT":" ","MAREA":" ","LANE":"３５６巷","ALLEY":" ","HOUSE_NO":"５號","E_COORD97":189639.17000000001,"N_COORD97":2582874.4700000002,"ADDRESS":"富民路３５６巷５號","OBJECTID":270466},"geometry":{"x":189639.16999999899,"y":2582874.4700000007}},{"attributes":{"ID":270472,"DIS_CODE":0,"TOWNNAME":"白河區","LI":"永安里","LIN":"8鄰","STREET":"富民路","SECT":" ","MAREA":" ","LANE":"３５６巷","ALLEY":" ","HOUSE_NO":"６號","E_COORD97":189642.39999999999,"N_COORD97":2582858.9100000001,"ADDRESS":"富民路３５６巷６號","OBJECTID":270467},"geometry":{"x":189642.4000000013,"y":2582858.910000002}},{"attributes":{"ID":270473,"DIS_CODE":0,"TOWNNAME":"安南區","LI":"溪東里","LIN":"15鄰","STREET":"府安路","SECT":"五段","MAREA":" ","LANE":"１１巷","ALLEY":" ","HOUSE_NO":"１０６號","E_COORD97":168466.72,"N_COORD97":2547475.7000000002,"ADDRESS":"府安路五段１１巷１０６號","OBJECTID":270468},"geometry":{"x":168466.71999999974,"y":2547475.6999999993}},{"attributes":{"ID":270474,"DIS_CODE":0,"TOWNNAME":"安南區","LI":"溪頂里","LIN":"15鄰","STREET":"北安路","SECT":"二段","MAREA":" ","LANE":"３２巷","ALLEY":" ","HOUSE_NO":"３４號","E_COORD97":168697.10999999999,"N_COORD97":2547316.77,"ADDRESS":"北安路二段３２巷３４號","OBJECTID":270469},"geometry":{"x":168697.11000000034,"y":2547316.7699999996}},{"attributes":{"ID":270475,"DIS_CODE":0,"TOWNNAME":"安南區","LI":"溪頂里","LIN":"15鄰","STREET":"北安路","SECT":"二段","MAREA":" ","LANE":"３２巷","ALLEY":" ","HOUSE_NO":"４２號","E_COORD97":168725.64000000001,"N_COORD97":2547320.7999999998,"ADDRESS":"北安路二段３２巷４２號","OBJECTID":270470},"geometry":{"x":168725.64000000153,"y":2547320.8000000007}},{"attributes":{"ID":270476,"DIS_CODE":0,"TOWNNAME":"安南區","LI":"溪墘里","LIN":"15鄰","STREET":"海佃路","SECT":"一段","MAREA":" ","LANE":"３４０巷","ALLEY":" ","HOUSE_NO":"４０號","E_COORD97":167206.22,"N_COORD97":2547520.7400000002,"ADDRESS":"海佃路一段３４０巷４０號","OBJECTID":270471},"geometry":{"x":167206.21999999881,"y":2547520.7400000002}},{"attributes":{"ID":270477,"DIS_CODE":0,"TOWNNAME":"安南區","LI":"溪墘里","LIN":"15鄰","STREET":"海佃路","SECT":"一段","MAREA":" ","LANE":"３４０巷","ALLEY":" ","HOUSE_NO":"４２號","E_COORD97":167209.94,"N_COORD97":2547521.2200000002,"ADDRESS":"海佃路一段３４０巷４２號","OBJECTID":270472},"geometry":{"x":167209.94000000041,"y":2547521.2200000007}},{"attributes":{"ID":270478,"DIS_CODE":0,"TOWNNAME":"安南區","LI":"溪墘里","LIN":"15鄰","STREET":"海佃路","SECT":"一段","MAREA":" ","LANE":"３４０巷","ALLEY":" ","HOUSE_NO":"４４號","E_COORD97":167214.91,"N_COORD97":2547522.6499999999,"ADDRESS":"海佃路一段３４０巷４４號","OBJECTID":270473},"geometry":{"x":167214.91000000015,"y":2547522.6500000041}},{"attributes":{"ID":270479,"DIS_CODE":0,"TOWNNAME":"新營區","LI":"民生里","LIN":"24鄰","STREET":"民生路","SECT":" ","MAREA":" ","LANE":"１３９巷","ALLEY":" ","HOUSE_NO":"２３號","E_COORD97":179132.5,"N_COORD97":2578565.7599999998,"ADDRESS":"民生路１３９巷２３號","OBJECTID":270474},"geometry":{"x":179132.50000000093,"y":2578565.7599999998}},{"attributes":{"ID":270480,"DIS_CODE":0,"TOWNNAME":"安南區","LI":"佃東里","LIN":"8鄰","STREET":"十二佃路","SECT":" ","MAREA":" ","LANE":"８１巷","ALLEY":" ","HOUSE_NO":"２６號","E_COORD97":165370.48999999999,"N_COORD97":2552056.7999999998,"ADDRESS":"十二佃路８１巷２６號","OBJECTID":270475},"geometry":{"x":165370.49000000022,"y":2552056.8000000007}},{"attributes":{"ID":270481,"DIS_CODE":0,"TOWNNAME":"安南區","LI":"佃東里","LIN":"8鄰","STREET":"十二佃路","SECT":" ","MAREA":" ","LANE":"８１巷","ALLEY":" ","HOUSE_NO":"３７號","E_COORD97":165395.84,"N_COORD97":2552030.8100000001,"ADDRESS":"十二佃路８１巷３７號","OBJECTID":270476},"geometry":{"x":165395.84000000078,"y":2552030.8100000042}},{"attributes":{"ID":270482,"DIS_CODE":0,"TOWNNAME":"安南區","LI":"佃東里","LIN":"8鄰","STREET":"十二佃路","SECT":" ","MAREA":" ","LANE":"８１巷","ALLEY":" ","HOUSE_NO":"４１號","E_COORD97":165394.09,"N_COORD97":2552017.3500000001,"ADDRESS":"十二佃路８１巷４１號","OBJECTID":270477},"geometry":{"x":165394.09000000078,"y":2552017.3500000015}},{"attributes":{"ID":270483,"DIS_CODE":0,"TOWNNAME":"安南區","LI":"佃東里","LIN":"8鄰","STREET":"十二佃路","SECT":" ","MAREA":" ","LANE":"８１巷","ALLEY":" ","HOUSE_NO":"４５號","E_COORD97":165392.85999999999,"N_COORD97":2552005.4399999999,"ADDRESS":"十二佃路８１巷４５號","OBJECTID":270478},"geometry":{"x":165392.86000000127,"y":2552005.4400000013}},{"attributes":{"ID":270484,"DIS_CODE":0,"TOWNNAME":"安南區","LI":"佃東里","LIN":"8鄰","STREET":"十二佃路","SECT":" ","MAREA":" ","LANE":"８１巷","ALLEY":" ","HOUSE_NO":"４７號","E_COORD97":165389.70000000001,"N_COORD97":2552002.5,"ADDRESS":"十二佃路８１巷４７號","OBJECTID":270479},"geometry":{"x":165389.70000000205,"y":2552002.5000000019}},{"attributes":{"ID":270485,"DIS_CODE":0,"TOWNNAME":"安南區","LI":"南興里","LIN":"8鄰","STREET":"安興街","SECT":" ","MAREA":" ","LANE":"６９６巷","ALLEY":" ","HOUSE_NO":"１９之１號","E_COORD97":163541.57999999999,"N_COORD97":2552643.8799999999,"ADDRESS":"安興街６９６巷１９之１號","OBJECTID":270480},"geometry":{"x":163541.58000000101,"y":2552643.8800000008}},{"attributes":{"ID":270486,"DIS_CODE":0,"TOWNNAME":"安南區","LI":"總頭里","LIN":"8鄰","STREET":"長溪路","SECT":"二段","MAREA":" ","LANE":"６７１巷","ALLEY":" ","HOUSE_NO":"１３３之２號","E_COORD97":168049.82000000001,"N_COORD97":2550630.77,"ADDRESS":"長溪路二段６７１巷１３３之２號","OBJECTID":270481},"geometry":{"x":168049.8200000003,"y":2550630.7700000014}},{"attributes":{"ID":270487,"DIS_CODE":0,"TOWNNAME":"新營區","LI":"延平里","LIN":"9鄰","STREET":"復興路","SECT":" ","MAREA":" ","LANE":"２９巷","ALLEY":" ","HOUSE_NO":"１０號之３","E_COORD97":179681.31,"N_COORD97":2577958.54,"ADDRESS":"復興路２９巷１０號之３","OBJECTID":270482},"geometry":{"x":179681.30999999959,"y":2577958.540000001}},{"attributes":{"ID":270488,"DIS_CODE":0,"TOWNNAME":"新營區","LI":"大宏里","LIN":"3鄰","STREET":"民族路","SECT":" ","MAREA":" ","LANE":" ","ALLEY":" ","HOUSE_NO":"３８號之３","E_COORD97":180367.42968,"N_COORD97":2578757.2263099998,"ADDRESS":"民族路３８號之３","OBJECTID":270483},"geometry":{"x":180367.42968000006,"y":2578757.2263100035}},{"attributes":{"ID":270489,"DIS_CODE":0,"TOWNNAME":"佳里區","LI":"六安里","LIN":"8鄰","STREET":"延平路","SECT":" ","MAREA":" ","LANE":"４９８巷","ALLEY":" ","HOUSE_NO":"１１號","E_COORD97":165927.42000000001,"N_COORD97":2562914.3999999999,"ADDRESS":"延平路４９８巷１１號","OBJECTID":270484},"geometry":{"x":165927.42000000086,"y":2562914.4000000022}},{"attributes":{"ID":270490,"DIS_CODE":0,"TOWNNAME":"佳里區","LI":"六安里","LIN":"8鄰","STREET":"延平路","SECT":" ","MAREA":" ","LANE":"４９８巷","ALLEY":" ","HOUSE_NO":"１３號","E_COORD97":165934.5,"N_COORD97":2562914.7599999998,"ADDRESS":"延平路４９８巷１３號","OBJECTID":270485},"geometry":{"x":165934.5,"y":2562914.7600000016}},{"attributes":{"ID":270491,"DIS_CODE":0,"TOWNNAME":"佳里區","LI":"六安里","LIN":"8鄰","STREET":"延平路","SECT":" ","MAREA":" ","LANE":"４９８巷","ALLEY":" ","HOUSE_NO":"１５號","E_COORD97":165939.69,"N_COORD97":2562914.6200000001,"ADDRESS":"延平路４９８巷１５號","OBJECTID":270486},"geometry":{"x":165939.69000000134,"y":2562914.620000001}},{"attributes":{"ID":270492,"DIS_CODE":0,"TOWNNAME":"佳里區","LI":"鎮山里","LIN":"8鄰","STREET":"信義一街","SECT":" ","MAREA":" ","LANE":"５３巷","ALLEY":" ","HOUSE_NO":"１１號","E_COORD97":166281.62,"N_COORD97":2561647.0800000001,"ADDRESS":"信義一街５３巷１１號","OBJECTID":270487},"geometry":{"x":166281.62000000011,"y":2561647.0800000038}},{"attributes":{"ID":270493,"DIS_CODE":0,"TOWNNAME":"佳里區","LI":"鎮山里","LIN":"8鄰","STREET":"信義一街","SECT":" ","MAREA":" ","LANE":"５３巷","ALLEY":" ","HOUSE_NO":"１３號","E_COORD97":166265.37,"N_COORD97":2561643.1400000001,"ADDRESS":"信義一街５３巷１３號","OBJECTID":270488},"geometry":{"x":166265.37000000104,"y":2561643.1400000006}},{"attributes":{"ID":270494,"DIS_CODE":0,"TOWNNAME":"佳里區","LI":"鎮山里","LIN":"8鄰","STREET":"信義一街","SECT":" ","MAREA":" ","LANE":"５３巷","ALLEY":" ","HOUSE_NO":"１號","E_COORD97":166305.97,"N_COORD97":2561646.4199999999,"ADDRESS":"信義一街５３巷１號","OBJECTID":270489},"geometry":{"x":166305.96999999974,"y":2561646.4199999999}},{"attributes":{"ID":270495,"DIS_CODE":0,"TOWNNAME":"中西區","LI":"中正里","LIN":"3鄰","STREET":"正興街","SECT":" ","MAREA":" ","LANE":" ","ALLEY":" ","HOUSE_NO":"５號","E_COORD97":167847.31,"N_COORD97":2543845.9500000002,"ADDRESS":"正興街５號","OBJECTID":270490},"geometry":{"x":167847.30999999959,"y":2543845.9499999993}},{"attributes":{"ID":270496,"DIS_CODE":0,"TOWNNAME":"佳里區","LI":"鎮山里","LIN":"8鄰","STREET":"信義一街","SECT":" ","MAREA":" ","LANE":"５３巷","ALLEY":" ","HOUSE_NO":"２號","E_COORD97":166295.23000000001,"N_COORD97":2561662.0899999999,"ADDRESS":"信義一街５３巷２號","OBJECTID":270491},"geometry":{"x":166295.23000000138,"y":2561662.0899999999}},{"attributes":{"ID":270497,"DIS_CODE":0,"TOWNNAME":"佳里區","LI":"鎮山里","LIN":"8鄰","STREET":"信義一街","SECT":" ","MAREA":" ","LANE":"５３巷","ALLEY":" ","HOUSE_NO":"３號","E_COORD97":166300.79000000001,"N_COORD97":2561646.8999999999,"ADDRESS":"信義一街５３巷３號","OBJECTID":270492},"geometry":{"x":166300.78999999911,"y":2561646.9000000004}},{"attributes":{"ID":270498,"DIS_CODE":0,"TOWNNAME":"佳里區","LI":"鎮山里","LIN":"8鄰","STREET":"信義一街","SECT":" ","MAREA":" ","LANE":"５３巷","ALLEY":" ","HOUSE_NO":"５號","E_COORD97":166296.70999999999,"N_COORD97":2561646.7200000002,"ADDRESS":"信義一街５３巷５號","OBJECTID":270493},"geometry":{"x":166296.71000000089,"y":2561646.7200000044}},{"attributes":{"ID":270499,"DIS_CODE":0,"TOWNNAME":"新營區","LI":"埤寮里","LIN":"3鄰","STREET":"建國路","SECT":" ","MAREA":" ","LANE":"１８巷","ALLEY":" ","HOUSE_NO":"５號","E_COORD97":180044.41,"N_COORD97":2581121.8599999999,"ADDRESS":"建國路１８巷５號","OBJECTID":270494},"geometry":{"x":180044.41000000015,"y":2581121.8599999975}},{"attributes":{"ID":270500,"DIS_CODE":0,"TOWNNAME":"新營區","LI":"興業里","LIN":" ","STREET":"中興路","SECT":" ","MAREA":" ","LANE":"１５巷","ALLEY":" ","HOUSE_NO":"２６之４號","E_COORD97":180271.39000000001,"N_COORD97":2577915.8900000001,"ADDRESS":"中興路１５巷２６之４號","OBJECTID":270495},"geometry":{"x":180271.38999999966,"y":2577915.8900000043}},{"attributes":{"ID":270501,"DIS_CODE":0,"TOWNNAME":"佳里區","LI":"鎮山里","LIN":"8鄰","STREET":"信義一街","SECT":" ","MAREA":" ","LANE":"５３巷","ALLEY":" ","HOUSE_NO":"６號","E_COORD97":166295.20999999999,"N_COORD97":2561657.2799999998,"ADDRESS":"信義一街５３巷６號","OBJECTID":270496},"geometry":{"x":166295.21000000089,"y":2561657.2799999993}},{"attributes":{"ID":270502,"DIS_CODE":0,"TOWNNAME":"安南區","LI":"安順里","LIN":"8鄰","STREET":"安和路","SECT":"四段","MAREA":" ","LANE":"２５巷","ALLEY":" ","HOUSE_NO":"２９號","E_COORD97":169857.16,"N_COORD97":2550137.8900000001,"ADDRESS":"安和路四段２５巷２９號","OBJECTID":270497},"geometry":{"x":169857.16000000108,"y":2550137.8900000006}},{"attributes":{"ID":270503,"DIS_CODE":0,"TOWNNAME":"安南區","LI":"安順里","LIN":"8鄰","STREET":"安和路","SECT":"四段","MAREA":" ","LANE":"２５巷","ALLEY":" ","HOUSE_NO":"３３號","E_COORD97":169851.54000000001,"N_COORD97":2550142.4399999999,"ADDRESS":"安和路四段２５巷３３號","OBJECTID":270498},"geometry":{"x":169851.54000000004,"y":2550142.4399999995}},{"attributes":{"ID":270504,"DIS_CODE":0,"TOWNNAME":"安南區","LI":"安順里","LIN":"8鄰","STREET":"安和路","SECT":"四段","MAREA":" ","LANE":"２５巷","ALLEY":" ","HOUSE_NO":"３５號","E_COORD97":169847.44,"N_COORD97":2550143.7999999998,"ADDRESS":"安和路四段２５巷３５號","OBJECTID":270499},"geometry":{"x":169847.44000000134,"y":2550143.8000000026}},{"attributes":{"ID":270505,"DIS_CODE":0,"TOWNNAME":"安南區","LI":"安順里","LIN":"8鄰","STREET":"安和路","SECT":"四段","MAREA":" ","LANE":"２５巷","ALLEY":" ","HOUSE_NO":"３６號","E_COORD97":169850.82999999999,"N_COORD97":2550201.48,"ADDRESS":"安和路四段２５巷３６號","OBJECTID":270500},"geometry":{"x":169850.83000000101,"y":2550201.4800000004}},{"attributes":{"ID":270506,"DIS_CODE":0,"TOWNNAME":"安南區","LI":"安順里","LIN":"8鄰","STREET":"安和路","SECT":"四段","MAREA":" ","LANE":"２５巷","ALLEY":" ","HOUSE_NO":"３７號","E_COORD97":169842.42999999999,"N_COORD97":2550147.9700000002,"ADDRESS":"安和路四段２５巷３７號","OBJECTID":270501},"geometry":{"x":169842.42999999877,"y":2550147.9699999988}},{"attributes":{"ID":270507,"DIS_CODE":0,"TOWNNAME":"安南區","LI":"安順里","LIN":"8鄰","STREET":"安和路","SECT":"四段","MAREA":" ","LANE":"７５巷","ALLEY":" ","HOUSE_NO":"３６號","E_COORD97":169891.98999999999,"N_COORD97":2550193.1299999999,"ADDRESS":"安和路四段７５巷３６號","OBJECTID":270502},"geometry":{"x":169891.99000000115,"y":2550193.1300000008}},{"attributes":{"ID":270508,"DIS_CODE":0,"TOWNNAME":"安南區","LI":"安順里","LIN":"8鄰","STREET":"安和路","SECT":"四段","MAREA":" ","LANE":"７５巷","ALLEY":" ","HOUSE_NO":"４６號","E_COORD97":169876.79999999999,"N_COORD97":2550180.1099999999,"ADDRESS":"安和路四段７５巷４６號","OBJECTID":270503},"geometry":{"x":169876.79999999981,"y":2550180.1100000013}},{"attributes":{"ID":270509,"DIS_CODE":0,"TOWNNAME":"中西區","LI":"中正里","LIN":"3鄰","STREET":"國華街","SECT":"三段","MAREA":" ","LANE":"１６巷","ALLEY":" ","HOUSE_NO":"１０號","E_COORD97":167744.20000000001,"N_COORD97":2543753.0800000001,"ADDRESS":"國華街三段１６巷１０號","OBJECTID":270504},"geometry":{"x":167744.19999999925,"y":2543753.0800000019}},{"attributes":{"ID":270510,"DIS_CODE":0,"TOWNNAME":"善化區","LI":"文昌里","LIN":"15鄰","STREET":"文昌路","SECT":" ","MAREA":" ","LANE":" ","ALLEY":" ","HOUSE_NO":"１５號","E_COORD97":177517.70000000001,"N_COORD97":2558788.5299999998,"ADDRESS":"文昌路１５號","OBJECTID":270505},"geometry":{"x":177517.70000000112,"y":2558788.5300000031}},{"attributes":{"ID":270511,"DIS_CODE":0,"TOWNNAME":"善化區","LI":"文昌里","LIN":"15鄰","STREET":"大信路","SECT":" ","MAREA":" ","LANE":" ","ALLEY":" ","HOUSE_NO":"４０號","E_COORD97":177560.09,"N_COORD97":2558791.5,"ADDRESS":"大信路４０號","OBJECTID":270506},"geometry":{"x":177560.09000000078,"y":2558791.5}},{"attributes":{"ID":270512,"DIS_CODE":0,"TOWNNAME":"中西區","LI":"中正里","LIN":"3鄰","STREET":"國華街","SECT":"三段","MAREA":" ","LANE":" ","ALLEY":" ","HOUSE_NO":"１８號","E_COORD97":167733.98999999999,"N_COORD97":2543781.3199999998,"ADDRESS":"國華街三段１８號","OBJECTID":270507},"geometry":{"x":167733.99000000209,"y":2543781.3200000003}},{"attributes":{"ID":270513,"DIS_CODE":0,"TOWNNAME":"永康區","LI":"北灣里","LIN":"39鄰","STREET":"永大路","SECT":"二段","MAREA":" ","LANE":" ","ALLEY":" ","HOUSE_NO":"９５０號","E_COORD97":174490.12,"N_COORD97":2546285.27,"ADDRESS":"永大路二段９５０號","OBJECTID":270508},"geometry":{"x":174490.12000000104,"y":2546285.2699999996}},{"attributes":{"ID":270514,"DIS_CODE":0,"TOWNNAME":"永康區","LI":"北灣里","LIN":"13鄰","STREET":"文賢街","SECT":" ","MAREA":" ","LANE":" ","ALLEY":" ","HOUSE_NO":"２８１號","E_COORD97":175193.92999999999,"N_COORD97":2545808.71,"ADDRESS":"文賢街２８１號","OBJECTID":270509},"geometry":{"x":175193.9299999997,"y":2545808.7100000028}},{"attributes":{"ID":270515,"DIS_CODE":0,"TOWNNAME":"安南區","LI":"佃西里","LIN":"8鄰","STREET":"公學路","SECT":"四段","MAREA":" ","LANE":"２７８巷","ALLEY":" ","HOUSE_NO":"１２號","E_COORD97":165369.29000000001,"N_COORD97":2551827.1299999999,"ADDRESS":"公學路四段２７８巷１２號","OBJECTID":270510},"geometry":{"x":165369.29000000097,"y":2551827.1300000027}},{"attributes":{"ID":270516,"DIS_CODE":0,"TOWNNAME":"安南區","LI":"佃西里","LIN":"8鄰","STREET":"公學路","SECT":"四段","MAREA":" ","LANE":"２７８巷","ALLEY":" ","HOUSE_NO":"６號","E_COORD97":165380.10999999999,"N_COORD97":2551826.6400000001,"ADDRESS":"公學路四段２７８巷６號","OBJECTID":270511},"geometry":{"x":165380.11000000034,"y":2551826.6400000025}},{"attributes":{"ID":270517,"DIS_CODE":0,"TOWNNAME":"安南區","LI":"佃西里","LIN":"8鄰","STREET":"公學路","SECT":"四段","MAREA":" ","LANE":"２９４巷","ALLEY":" ","HOUSE_NO":"５號","E_COORD97":165363.10000000001,"N_COORD97":2551808.54,"ADDRESS":"公學路四段２９４巷５號","OBJECTID":270512},"geometry":{"x":165363.10000000056,"y":2551808.540000001}},{"attributes":{"ID":270518,"DIS_CODE":0,"TOWNNAME":"安南區","LI":"原佃里","LIN":"8鄰","STREET":"本原街","SECT":"一段","MAREA":" ","LANE":"１６７巷","ALLEY":" ","HOUSE_NO":"１４２號","E_COORD97":167695.23000000001,"N_COORD97":2550019.96,"ADDRESS":"本原街一段１６７巷１４２號","OBJECTID":270513},"geometry":{"x":167695.23000000231,"y":2550019.9600000028}},{"attributes":{"ID":270519,"DIS_CODE":0,"TOWNNAME":"安南區","LI":"原佃里","LIN":"8鄰","STREET":"本原街","SECT":"一段","MAREA":" ","LANE":"１６７巷","ALLEY":" ","HOUSE_NO":"１５８號","E_COORD97":167649.17999999999,"N_COORD97":2549967.0800000001,"ADDRESS":"本原街一段１６７巷１５８號","OBJECTID":270514},"geometry":{"x":167649.18000000063,"y":2549967.0800000038}},{"attributes":{"ID":270520,"DIS_CODE":0,"TOWNNAME":"安南區","LI":"原佃里","LIN":"8鄰","STREET":"本原街","SECT":"一段","MAREA":" ","LANE":"１９５巷","ALLEY":" ","HOUSE_NO":"５７號","E_COORD97":167647.39999999999,"N_COORD97":2550143.3599999999,"ADDRESS":"本原街一段１９５巷５７號","OBJECTID":270515},"geometry":{"x":167647.40000000037,"y":2550143.3599999994}},{"attributes":{"ID":270521,"DIS_CODE":0,"TOWNNAME":"安南區","LI":"原佃里","LIN":"8鄰","STREET":"本原街","SECT":"一段","MAREA":" ","LANE":"１９５巷","ALLEY":" ","HOUSE_NO":"６５號","E_COORD97":167606.87,"N_COORD97":2550131.3799999999,"ADDRESS":"本原街一段１９５巷６５號","OBJECTID":270516},"geometry":{"x":167606.87000000011,"y":2550131.3800000008}},{"attributes":{"ID":270522,"DIS_CODE":0,"TOWNNAME":"安南區","LI":"原佃里","LIN":"8鄰","STREET":"本原街","SECT":"一段","MAREA":" ","LANE":"１９５巷","ALLEY":" ","HOUSE_NO":"７１號","E_COORD97":167588.67999999999,"N_COORD97":2550111.1099999999,"ADDRESS":"本原街一段１９５巷７１號","OBJECTID":270517},"geometry":{"x":167588.68000000063,"y":2550111.1099999994}},{"attributes":{"ID":270523,"DIS_CODE":0,"TOWNNAME":"新營區","LI":"興業里","LIN":" ","STREET":"公誠街","SECT":" ","MAREA":" ","LANE":"９巷","ALLEY":" ","HOUSE_NO":"５之４號","E_COORD97":180322.75,"N_COORD97":2578019.7400000002,"ADDRESS":"公誠街９巷５之４號","OBJECTID":270518},"geometry":{"x":180322.75000000093,"y":2578019.7400000021}},{"attributes":{"ID":270524,"DIS_CODE":0,"TOWNNAME":"新營區","LI":"護鎮里","LIN":"8鄰","STREET":"中正路","SECT":" ","MAREA":" ","LANE":"４３９巷","ALLEY":" ","HOUSE_NO":"１００號","E_COORD97":179353.37,"N_COORD97":2580235.8599999999,"ADDRESS":"中正路４３９巷１００號","OBJECTID":270519},"geometry":{"x":179353.37000000197,"y":2580235.8599999994}},{"attributes":{"ID":270525,"DIS_CODE":0,"TOWNNAME":"新營區","LI":"南興里","LIN":"10鄰","STREET":"和平路","SECT":" ","MAREA":" ","LANE":"１０２巷","ALLEY":" ","HOUSE_NO":"１１號之２","E_COORD97":179372.69,"N_COORD97":2577591.23,"ADDRESS":"和平路１０２巷１１之２號","OBJECTID":270520},"geometry":{"x":179372.69000000134,"y":2577591.2300000042}},{"attributes":{"ID":270526,"DIS_CODE":0,"TOWNNAME":"北區","LI":"國姓里","LIN":"8鄰","STREET":"小北路","SECT":" ","MAREA":" ","LANE":"７５巷","ALLEY":" ","HOUSE_NO":"１２號","E_COORD97":168880.04000000001,"N_COORD97":2545329.9399999999,"ADDRESS":"小北路７５巷１２號","OBJECTID":270521},"geometry":{"x":168880.04000000097,"y":2545329.9400000013}},{"attributes":{"ID":270527,"DIS_CODE":0,"TOWNNAME":"北區","LI":"國姓里","LIN":"8鄰","STREET":"小北路","SECT":" ","MAREA":" ","LANE":"７５巷","ALLEY":" ","HOUSE_NO":"１３號","E_COORD97":168823.12,"N_COORD97":2545324.8799999999,"ADDRESS":"小北路７５巷１３號","OBJECTID":270522},"geometry":{"x":168823.12000000104,"y":2545324.879999999}},{"attributes":{"ID":270528,"DIS_CODE":0,"TOWNNAME":"北區","LI":"國姓里","LIN":"8鄰","STREET":"小北路","SECT":" ","MAREA":" ","LANE":"７５巷","ALLEY":" ","HOUSE_NO":"１４號","E_COORD97":168871.45000000001,"N_COORD97":2545330.1899999999,"ADDRESS":"小北路７５巷１４號","OBJECTID":270523},"geometry":{"x":168871.44999999925,"y":2545330.1899999995}},{"attributes":{"ID":270529,"DIS_CODE":0,"TOWNNAME":"新營區","LI":"大宏里","LIN":"25鄰","STREET":"同濟街","SECT":" ","MAREA":" ","LANE":"１３６巷","ALLEY":" ","HOUSE_NO":"１０號","E_COORD97":180491.60999999999,"N_COORD97":2578743.1699999999,"ADDRESS":"同濟街１３６巷１０號","OBJECTID":270524},"geometry":{"x":180491.61000000127,"y":2578743.1699999999}},{"attributes":{"ID":270530,"DIS_CODE":0,"TOWNNAME":"北區","LI":"國姓里","LIN":"8鄰","STREET":"小北路","SECT":" ","MAREA":" ","LANE":"７５巷","ALLEY":" ","HOUSE_NO":"１６號","E_COORD97":168858.04999999999,"N_COORD97":2545332.9700000002,"ADDRESS":"小北路７５巷１６號","OBJECTID":270525},"geometry":{"x":168858.04999999981,"y":2545332.9700000007}},{"attributes":{"ID":270531,"DIS_CODE":0,"TOWNNAME":"北區","LI":"國姓里","LIN":"8鄰","STREET":"小北路","SECT":" ","MAREA":" ","LANE":"７５巷","ALLEY":" ","HOUSE_NO":"１８號","E_COORD97":168840.35999999999,"N_COORD97":2545339.7799999998,"ADDRESS":"小北路７５巷１８號","OBJECTID":270526},"geometry":{"x":168840.36000000127,"y":2545339.7799999993}},{"attributes":{"ID":270532,"DIS_CODE":0,"TOWNNAME":"北區","LI":"國姓里","LIN":"8鄰","STREET":"小北路","SECT":" ","MAREA":" ","LANE":"７５巷","ALLEY":" ","HOUSE_NO":"１號","E_COORD97":168895.45999999999,"N_COORD97":2545308.21,"ADDRESS":"小北路７５巷１號","OBJECTID":270527},"geometry":{"x":168895.46000000089,"y":2545308.2100000009}},{"attributes":{"ID":270533,"DIS_CODE":0,"TOWNNAME":"北區","LI":"國姓里","LIN":"8鄰","STREET":"小北路","SECT":" ","MAREA":" ","LANE":"７５巷","ALLEY":" ","HOUSE_NO":"２０號","E_COORD97":168832.01999999999,"N_COORD97":2545340.54,"ADDRESS":"小北路７５巷２０號","OBJECTID":270528},"geometry":{"x":168832.02000000048,"y":2545340.5399999991}},{"attributes":{"ID":270534,"DIS_CODE":0,"TOWNNAME":"北區","LI":"國姓里","LIN":"8鄰","STREET":"小北路","SECT":" ","MAREA":" ","LANE":"７５巷","ALLEY":" ","HOUSE_NO":"２號","E_COORD97":168908.85000000001,"N_COORD97":2545321.8599999999,"ADDRESS":"小北路７５巷２號","OBJECTID":270529},"geometry":{"x":168908.8499999987,"y":2545321.8599999994}},{"attributes":{"ID":270535,"DIS_CODE":0,"TOWNNAME":"北區","LI":"國姓里","LIN":"8鄰","STREET":"小北路","SECT":" ","MAREA":" ","LANE":"７５巷","ALLEY":" ","HOUSE_NO":"３號","E_COORD97":168871.19,"N_COORD97":2545308.96,"ADDRESS":"小北路７５巷３號","OBJECTID":270530},"geometry":{"x":168871.19000000041,"y":2545308.9600000009}},{"attributes":{"ID":270536,"DIS_CODE":0,"TOWNNAME":"永康區","LI":"六合里","LIN":"3鄰","STREET":"中山南路","SECT":" ","MAREA":" ","LANE":" ","ALLEY":" ","HOUSE_NO":"１０６號之１","E_COORD97":171055.79000000001,"N_COORD97":2545936.2999999998,"ADDRESS":"中山南路１０６號之１","OBJECTID":270531},"geometry":{"x":171055.78999999911,"y":2545936.3000000026}},{"attributes":{"ID":270537,"DIS_CODE":0,"TOWNNAME":"永康區","LI":"六合里","LIN":"3鄰","STREET":"中山南路","SECT":" ","MAREA":" ","LANE":" ","ALLEY":" ","HOUSE_NO":"１２４號","E_COORD97":171086.04000000001,"N_COORD97":2545948.2400000002,"ADDRESS":"中山南路１２４號","OBJECTID":270532},"geometry":{"x":171086.04000000004,"y":2545948.2400000002}},{"attributes":{"ID":270538,"DIS_CODE":0,"TOWNNAME":"永康區","LI":"北灣里","LIN":"25鄰","STREET":"大灣路","SECT":" ","MAREA":" ","LANE":" ","ALLEY":" ","HOUSE_NO":"１７９號","E_COORD97":175027.5,"N_COORD97":2545394.1699999999,"ADDRESS":"大灣路１７９號","OBJECTID":270533},"geometry":{"x":175027.5,"y":2545394.1700000018}},{"attributes":{"ID":270539,"DIS_CODE":0,"TOWNNAME":"永康區","LI":"王行里","LIN":"1鄰","STREET":"王行路","SECT":" ","MAREA":" ","LANE":" ","ALLEY":" ","HOUSE_NO":"５３號","E_COORD97":175568.67000000001,"N_COORD97":2547947.3999999999,"ADDRESS":"王行路５３號","OBJECTID":270534},"geometry":{"x":175568.66999999993,"y":2547947.4000000004}},{"attributes":{"ID":270540,"DIS_CODE":0,"TOWNNAME":"永康區","LI":"正強里","LIN":"16鄰","STREET":"自強路","SECT":" ","MAREA":" ","LANE":" ","ALLEY":" ","HOUSE_NO":"２００號","E_COORD97":173231.57999999999,"N_COORD97":2547550.75,"ADDRESS":"自強路２００號","OBJECTID":270535},"geometry":{"x":173231.58000000007,"y":2547550.75}},{"attributes":{"ID":270541,"DIS_CODE":0,"TOWNNAME":"永康區","LI":"六合里","LIN":"3鄰","STREET":"中山南路","SECT":" ","MAREA":" ","LANE":" ","ALLEY":" ","HOUSE_NO":"１２０號","E_COORD97":171076.51000000001,"N_COORD97":2545944.4900000002,"ADDRESS":"中山南路１２０號","OBJECTID":270536},"geometry":{"x":171076.51000000071,"y":2545944.4900000021}},{"attributes":{"ID":270542,"DIS_CODE":0,"TOWNNAME":"永康區","LI":"六合里","LIN":"3鄰","STREET":"中山南路","SECT":" ","MAREA":" ","LANE":" ","ALLEY":" ","HOUSE_NO":"１３２號","E_COORD97":171102.51000000001,"N_COORD97":2545952.9900000002,"ADDRESS":"中山南路１３２號","OBJECTID":270537},"geometry":{"x":171102.50999999978,"y":2545952.9900000002}},{"attributes":{"ID":270543,"DIS_CODE":0,"TOWNNAME":"永康區","LI":"六合里","LIN":"3鄰","STREET":"中山南路","SECT":" ","MAREA":" ","LANE":" ","ALLEY":" ","HOUSE_NO":"１４０號","E_COORD97":171118.79000000001,"N_COORD97":2545958.7400000002,"ADDRESS":"中山南路１４０號","OBJECTID":270538},"geometry":{"x":171118.79000000097,"y":2545958.7400000039}},{"attributes":{"ID":270544,"DIS_CODE":0,"TOWNNAME":"北區","LI":"國姓里","LIN":"8鄰","STREET":"小北路","SECT":" ","MAREA":" ","LANE":"７５巷","ALLEY":" ","HOUSE_NO":"４號","E_COORD97":168898.48999999999,"N_COORD97":2545324.8900000001,"ADDRESS":"小北路７５巷４號","OBJECTID":270539},"geometry":{"x":168898.49000000209,"y":2545324.8900000025}},{"attributes":{"ID":270545,"DIS_CODE":0,"TOWNNAME":"北區","LI":"國姓里","LIN":"8鄰","STREET":"小北路","SECT":" ","MAREA":" ","LANE":"７５巷","ALLEY":" ","HOUSE_NO":"５號","E_COORD97":168868.41,"N_COORD97":2545312.25,"ADDRESS":"小北路７５巷５號","OBJECTID":270540},"geometry":{"x":168868.41000000201,"y":2545312.2500000019}},{"attributes":{"ID":270546,"DIS_CODE":0,"TOWNNAME":"北區","LI":"國姓里","LIN":"8鄰","STREET":"小北路","SECT":" ","MAREA":" ","LANE":"７５巷","ALLEY":" ","HOUSE_NO":"６號","E_COORD97":168894.19,"N_COORD97":2545326.6600000001,"ADDRESS":"小北路７５巷６號","OBJECTID":270541},"geometry":{"x":168894.19000000134,"y":2545326.660000002}},{"attributes":{"ID":270547,"DIS_CODE":0,"TOWNNAME":"南區","LI":"明興里","LIN":"8鄰","STREET":"金華路","SECT":"一段","MAREA":" ","LANE":"１４０巷","ALLEY":" ","HOUSE_NO":"３０號","E_COORD97":166991.54000000001,"N_COORD97":2540596.4300000002,"ADDRESS":"金華路一段１４０巷３０號","OBJECTID":270542},"geometry":{"x":166991.54000000097,"y":2540596.4299999997}},{"attributes":{"ID":270548,"DIS_CODE":0,"TOWNNAME":"南區","LI":"大忠里","LIN":"8鄰","STREET":"中華南路","SECT":"一段","MAREA":" ","LANE":"７７巷","ALLEY":" ","HOUSE_NO":"３３號","E_COORD97":169319.17999999999,"N_COORD97":2541305.7200000002,"ADDRESS":"中華南路一段７７巷３３號","OBJECTID":270543},"geometry":{"x":169319.18000000063,"y":2541305.7200000025}},{"attributes":{"ID":270549,"DIS_CODE":0,"TOWNNAME":"南區","LI":"同安里","LIN":"8鄰","STREET":"灣裡路","SECT":" ","MAREA":" ","LANE":"３５１巷","ALLEY":" ","HOUSE_NO":"１號","E_COORD97":166195.91,"N_COORD97":2536191.0800000001,"ADDRESS":"灣裡路３５１巷１號","OBJECTID":270544},"geometry":{"x":166195.91000000108,"y":2536191.0800000001}},{"attributes":{"ID":270550,"DIS_CODE":0,"TOWNNAME":"歸仁區","LI":"看東里","LIN":"8鄰","STREET":"成功路","SECT":"一段","MAREA":" ","LANE":"１０１巷","ALLEY":" ","HOUSE_NO":"９８之１號","E_COORD97":178668.78,"N_COORD97":2540004.2599999998,"ADDRESS":"成功路一段１０１巷９８之１號","OBJECTID":270545},"geometry":{"x":178668.78000000026,"y":2540004.2599999998}},{"attributes":{"ID":270551,"DIS_CODE":0,"TOWNNAME":"歸仁區","LI":"崙頂里","LIN":"8鄰","STREET":"崙頂五街","SECT":" ","MAREA":" ","LANE":"８５巷","ALLEY":" ","HOUSE_NO":"１２號","E_COORD97":178009.67999999999,"N_COORD97":2539860.25,"ADDRESS":"崙頂五街８５巷１２號","OBJECTID":270546},"geometry":{"x":178009.6799999997,"y":2539860.2500000019}},{"attributes":{"ID":270552,"DIS_CODE":0,"TOWNNAME":"歸仁區","LI":"看東里","LIN":"8鄰","STREET":"成功一街","SECT":" ","MAREA":" ","LANE":"１２７巷","ALLEY":" ","HOUSE_NO":"３０號","E_COORD97":178590.82999999999,"N_COORD97":2539945.25,"ADDRESS":"成功一街１２７巷３０號","OBJECTID":270547},"geometry":{"x":178590.83000000194,"y":2539945.2500000019}},{"attributes":{"ID":270553,"DIS_CODE":0,"TOWNNAME":"歸仁區","LI":"武東里","LIN":"8鄰","STREET":"武東一街","SECT":" ","MAREA":" ","LANE":"４８巷","ALLEY":" ","HOUSE_NO":"１７號","E_COORD97":175608.19,"N_COORD97":2535404.25,"ADDRESS":"武東一街４８巷１７號","OBJECTID":270548},"geometry":{"x":175608.19000000041,"y":2535404.2500000037}},{"attributes":{"ID":270554,"DIS_CODE":0,"TOWNNAME":"歸仁區","LI":"大潭里","LIN":"8鄰","STREET":"長榮路","SECT":"一段","MAREA":" ","LANE":"２００巷","ALLEY":" ","HOUSE_NO":"６９號","E_COORD97":175172.92000000001,"N_COORD97":2534469.9700000002,"ADDRESS":"長榮路一段２００巷６９號","OBJECTID":270549},"geometry":{"x":175172.92000000086,"y":2534469.9700000007}},{"attributes":{"ID":270555,"DIS_CODE":0,"TOWNNAME":"玉井區","LI":"中正里","LIN":"8鄰","STREET":"大埕街","SECT":" ","MAREA":" ","LANE":"５０巷","ALLEY":" ","HOUSE_NO":"１０號","E_COORD97":195548.64999999999,"N_COORD97":2558833.2400000002,"ADDRESS":"大埕街５０巷１０號","OBJECTID":270550},"geometry":{"x":195548.65000000037,"y":2558833.2400000021}},{"attributes":{"ID":270556,"DIS_CODE":0,"TOWNNAME":"玉井區","LI":"玉井里","LIN":"8鄰","STREET":"民生路","SECT":" ","MAREA":" ","LANE":"４２巷","ALLEY":" ","HOUSE_NO":"１６號","E_COORD97":194839.67999999999,"N_COORD97":2558275.2799999998,"ADDRESS":"民生路４２巷１６號","OBJECTID":270551},"geometry":{"x":194839.67999999877,"y":2558275.2800000012}},{"attributes":{"ID":270557,"DIS_CODE":0,"TOWNNAME":"玉井區","LI":"玉井里","LIN":"8鄰","STREET":"民生路","SECT":" ","MAREA":" ","LANE":"４２巷","ALLEY":" ","HOUSE_NO":"１８號","E_COORD97":194846.38,"N_COORD97":2558276.2799999998,"ADDRESS":"民生路４２巷１８號","OBJECTID":270552},"geometry":{"x":194846.37999999989,"y":2558276.2800000012}},{"attributes":{"ID":270558,"DIS_CODE":0,"TOWNNAME":"永康區","LI":"王行里","LIN":"14鄰","STREET":"環工路","SECT":" ","MAREA":" ","LANE":" ","ALLEY":" ","HOUSE_NO":"８號","E_COORD97":175622.89000000001,"N_COORD97":2549856.27,"ADDRESS":"環工路８號","OBJECTID":270553},"geometry":{"x":175622.88999999966,"y":2549856.2699999996}},{"attributes":{"ID":270559,"DIS_CODE":0,"TOWNNAME":"北區","LI":"正風里","LIN":"8鄰","STREET":"公園路","SECT":" ","MAREA":" ","LANE":"９９４巷","ALLEY":" ","HOUSE_NO":"７號之３","E_COORD97":169585.13,"N_COORD97":2546346.54,"ADDRESS":"公園路９９４巷７號之３","OBJECTID":270554},"geometry":{"x":169585.12999999989,"y":2546346.540000001}},{"attributes":{"ID":270560,"DIS_CODE":0,"TOWNNAME":"永康區","LI":"王行里","LIN":"8鄰","STREET":"王行路","SECT":" ","MAREA":" ","LANE":" ","ALLEY":" ","HOUSE_NO":"３５７號","E_COORD97":175406.14999999999,"N_COORD97":2548570.3700000001,"ADDRESS":"王行路３５７號","OBJECTID":270555},"geometry":{"x":175406.1500000013,"y":2548570.3700000029}},{"attributes":{"ID":270561,"DIS_CODE":0,"TOWNNAME":"永康區","LI":"永康里","LIN":"10鄰","STREET":"永康街","SECT":" ","MAREA":" ","LANE":" ","ALLEY":" ","HOUSE_NO":"１０號","E_COORD97":173765.57000000001,"N_COORD97":2547297.77,"ADDRESS":"永康街１０號","OBJECTID":270556},"geometry":{"x":173765.57000000123,"y":2547297.7700000014}},{"attributes":{"ID":270562,"DIS_CODE":0,"TOWNNAME":"北區","LI":"正風里","LIN":"8鄰","STREET":"公園路","SECT":" ","MAREA":" ","LANE":"９９４巷","ALLEY":" ","HOUSE_NO":"７號之４","E_COORD97":169587.32000000001,"N_COORD97":2546350.5099999998,"ADDRESS":"公園路９９４巷７號之４","OBJECTID":270557},"geometry":{"x":169587.3200000003,"y":2546350.5100000016}},{"attributes":{"ID":270563,"DIS_CODE":0,"TOWNNAME":"永康區","LI":"六合里","LIN":"3鄰","STREET":"中山南路","SECT":" ","MAREA":" ","LANE":" ","ALLEY":" ","HOUSE_NO":"８８號","E_COORD97":170956.39999999999,"N_COORD97":2545906.6400000001,"ADDRESS":"中山南路８８號","OBJECTID":270558},"geometry":{"x":170956.40000000037,"y":2545906.6400000025}},{"attributes":{"ID":270564,"DIS_CODE":0,"TOWNNAME":"六甲區","LI":"二甲里","LIN":"8鄰","STREET":"民權街","SECT":" ","MAREA":" ","LANE":"３０４巷","ALLEY":" ","HOUSE_NO":"１０號","E_COORD97":182922.75,"N_COORD97":2569837.4199999999,"ADDRESS":"民權街３０４巷１０號","OBJECTID":270559},"geometry":{"x":182922.75000000093,"y":2569837.4199999999}},{"attributes":{"ID":270565,"DIS_CODE":0,"TOWNNAME":"永康區","LI":"六合里","LIN":"3鄰","STREET":"中華路","SECT":" ","MAREA":" ","LANE":" ","ALLEY":" ","HOUSE_NO":"５９９號","E_COORD97":171145.82999999999,"N_COORD97":2545950.4900000002,"ADDRESS":"中華路５９９號","OBJECTID":270560},"geometry":{"x":171145.83000000101,"y":2545950.4900000039}},{"attributes":{"ID":270566,"DIS_CODE":0,"TOWNNAME":"六甲區","LI":"二甲里","LIN":"8鄰","STREET":"民權街","SECT":" ","MAREA":" ","LANE":"３０４巷","ALLEY":" ","HOUSE_NO":"２６號","E_COORD97":182926.92999999999,"N_COORD97":2569848.0699999998,"ADDRESS":"民權街３０４巷２６號","OBJECTID":270561},"geometry":{"x":182926.9299999997,"y":2569848.0700000003}},{"attributes":{"ID":270567,"DIS_CODE":0,"TOWNNAME":"六甲區","LI":"二甲里","LIN":"8鄰","STREET":"民權街","SECT":" ","MAREA":" ","LANE":"３０４巷","ALLEY":" ","HOUSE_NO":"２８號","E_COORD97":182928.29999999999,"N_COORD97":2569852.6299999999,"ADDRESS":"民權街３０４巷２８號","OBJECTID":270562},"geometry":{"x":182928.29999999981,"y":2569852.629999999}},{"attributes":{"ID":270568,"DIS_CODE":0,"TOWNNAME":"永康區","LI":"六合里","LIN":"3鄰","STREET":"中華路","SECT":" ","MAREA":" ","LANE":" ","ALLEY":" ","HOUSE_NO":"５９７號","E_COORD97":171147.85000000001,"N_COORD97":2545946.9900000002,"ADDRESS":"中華路５９７號","OBJECTID":270563},"geometry":{"x":171147.84999999963,"y":2545946.9900000039}},{"attributes":{"ID":270569,"DIS_CODE":0,"TOWNNAME":"永康區","LI":"永康里","LIN":"3鄰","STREET":"中山路","SECT":" ","MAREA":" ","LANE":" ","ALLEY":" ","HOUSE_NO":"４２之３號","E_COORD97":173850.89000000001,"N_COORD97":2547502.2599999998,"ADDRESS":"中山路４２之３號","OBJECTID":270564},"geometry":{"x":173850.8900000006,"y":2547502.2600000016}},{"attributes":{"ID":270570,"DIS_CODE":0,"TOWNNAME":"六甲區","LI":"二甲里","LIN":"8鄰","STREET":"民權街","SECT":" ","MAREA":" ","LANE":"３０４巷","ALLEY":" ","HOUSE_NO":"３０號","E_COORD97":182929.69,"N_COORD97":2569857.29,"ADDRESS":"民權街３０４巷３０號","OBJECTID":270565},"geometry":{"x":182929.69000000041,"y":2569857.290000001}},{"attributes":{"ID":270571,"DIS_CODE":0,"TOWNNAME":"六甲區","LI":"二甲里","LIN":"8鄰","STREET":"民權街","SECT":" ","MAREA":" ","LANE":"３０４巷","ALLEY":" ","HOUSE_NO":"３２號","E_COORD97":182930.56,"N_COORD97":2569861.7000000002,"ADDRESS":"民權街３０４巷３２號","OBJECTID":270566},"geometry":{"x":182930.56000000052,"y":2569861.7000000011}},{"attributes":{"ID":270572,"DIS_CODE":0,"TOWNNAME":"六甲區","LI":"二甲里","LIN":"8鄰","STREET":"民權街","SECT":" ","MAREA":" ","LANE":"３０４巷","ALLEY":" ","HOUSE_NO":"４０號","E_COORD97":182941.26000000001,"N_COORD97":2569878.9199999999,"ADDRESS":"民權街３０４巷４０號","OBJECTID":270567},"geometry":{"x":182941.26000000071,"y":2569878.9199999999}},{"attributes":{"ID":270573,"DIS_CODE":0,"TOWNNAME":"歸仁區","LI":"文化里","LIN":"8鄰","STREET":"民權一街","SECT":" ","MAREA":" ","LANE":"４７巷","ALLEY":" ","HOUSE_NO":"６號","E_COORD97":177178.54999999999,"N_COORD97":2541381.3300000001,"ADDRESS":"民權一街４７巷６號","OBJECTID":270568},"geometry":{"x":177178.54999999888,"y":2541381.3300000019}},{"attributes":{"ID":270574,"DIS_CODE":0,"TOWNNAME":"歸仁區","LI":"大廟里","LIN":"8鄰","STREET":"大廟一街","SECT":" ","MAREA":" ","LANE":"９３巷","ALLEY":" ","HOUSE_NO":"１７號","E_COORD97":175837.92000000001,"N_COORD97":2543929.25,"ADDRESS":"大廟一街９３巷１７號","OBJECTID":270569},"geometry":{"x":175837.91999999993,"y":2543929.2500000019}},{"attributes":{"ID":270575,"DIS_CODE":0,"TOWNNAME":"歸仁區","LI":"武東里","LIN":"8鄰","STREET":"武東一街","SECT":" ","MAREA":" ","LANE":"６０巷","ALLEY":" ","HOUSE_NO":"２２號","E_COORD97":175674.69,"N_COORD97":2535372.25,"ADDRESS":"武東一街６０巷２２號","OBJECTID":270570},"geometry":{"x":175674.69000000227,"y":2535372.25}},{"attributes":{"ID":270576,"DIS_CODE":0,"TOWNNAME":"歸仁區","LI":"文化里","LIN":"8鄰","STREET":"民權一街","SECT":" ","MAREA":" ","LANE":"４７巷","ALLEY":" ","HOUSE_NO":"２號","E_COORD97":177178.54999999999,"N_COORD97":2541377.3300000001,"ADDRESS":"民權一街４７巷２號","OBJECTID":270571},"geometry":{"x":177178.54999999888,"y":2541377.3299999982}},{"attributes":{"ID":270577,"DIS_CODE":0,"TOWNNAME":"歸仁區","LI":"武東里","LIN":"8鄰","STREET":"武東一街","SECT":" ","MAREA":" ","LANE":"６０巷","ALLEY":" ","HOUSE_NO":"８號","E_COORD97":175712.64000000001,"N_COORD97":2535410.25,"ADDRESS":"武東一街６０巷８號","OBJECTID":270572},"geometry":{"x":175712.63999999966,"y":2535410.25}},{"attributes":{"ID":270578,"DIS_CODE":0,"TOWNNAME":"永康區","LI":"六合里","LIN":"3鄰","STREET":"中山南路","SECT":" ","MAREA":" ","LANE":" ","ALLEY":" ","HOUSE_NO":"１２６號","E_COORD97":171090.10000000001,"N_COORD97":2545949.2400000002,"ADDRESS":"中山南路１２６號","OBJECTID":270573},"geometry":{"x":171090.09999999963,"y":2545949.2400000021}},{"attributes":{"ID":270579,"DIS_CODE":0,"TOWNNAME":"北區","LI":"興北里","LIN":"8鄰","STREET":"公園北路","SECT":" ","MAREA":" ","LANE":"８８巷","ALLEY":" ","HOUSE_NO":"７０號","E_COORD97":169114.66,"N_COORD97":2545188.6000000001,"ADDRESS":"公園北路８８巷７０號","OBJECTID":270574},"geometry":{"x":169114.66000000108,"y":2545188.5999999996}},{"attributes":{"ID":270580,"DIS_CODE":0,"TOWNNAME":"新營區","LI":"新東里","LIN":"26鄰","STREET":"東興五街","SECT":" ","MAREA":" ","LANE":"２１巷","ALLEY":" ","HOUSE_NO":"３７號","E_COORD97":180661.75,"N_COORD97":2579453.3500000001,"ADDRESS":"東興五街２１巷３７號","OBJECTID":270575},"geometry":{"x":180661.75000000093,"y":2579453.3499999996}},{"attributes":{"ID":270581,"DIS_CODE":0,"TOWNNAME":"安定區","LI":"港尾里","LIN":"3鄰","STREET":" ","SECT":" ","MAREA":"港子尾","LANE":" ","ALLEY":" ","HOUSE_NO":"１２號之３","E_COORD97":171639.12,"N_COORD97":2556167.2999999998,"ADDRESS":"港子尾１２號之３","OBJECTID":270576},"geometry":{"x":171639.12000000104,"y":2556167.3000000045}},{"attributes":{"ID":270582,"DIS_CODE":0,"TOWNNAME":"北區","LI":"興北里","LIN":"8鄰","STREET":"公園北路","SECT":" ","MAREA":" ","LANE":"８８巷","ALLEY":" ","HOUSE_NO":"７４號","E_COORD97":169114.14000000001,"N_COORD97":2545194.4900000002,"ADDRESS":"公園北路８８巷７４號","OBJECTID":270577},"geometry":{"x":169114.1400000006,"y":2545194.4900000039}},{"attributes":{"ID":270583,"DIS_CODE":0,"TOWNNAME":"北區","LI":"興北里","LIN":"8鄰","STREET":"公園北路","SECT":" ","MAREA":" ","LANE":"８８巷","ALLEY":" ","HOUSE_NO":"７６號","E_COORD97":169113.01999999999,"N_COORD97":2545197.9100000001,"ADDRESS":"公園北路８８巷７６號","OBJECTID":270578},"geometry":{"x":169113.02000000048,"y":2545197.9099999983}},{"attributes":{"ID":270584,"DIS_CODE":0,"TOWNNAME":"安定區","LI":"港尾里","LIN":"3鄰","STREET":" ","SECT":" ","MAREA":"港子尾","LANE":" ","ALLEY":" ","HOUSE_NO":"１５之１３號","E_COORD97":171659.14000000001,"N_COORD97":2556207.2999999998,"ADDRESS":"港子尾１５之１３號","OBJECTID":270579},"geometry":{"x":171659.1400000006,"y":2556207.3000000007}},{"attributes":{"ID":270585,"DIS_CODE":0,"TOWNNAME":"安定區","LI":"安加里","LIN":"3鄰","STREET":" ","SECT":" ","MAREA":"安定","LANE":" ","ALLEY":" ","HOUSE_NO":"１８１之１號","E_COORD97":171866.72,"N_COORD97":2557594.3199999998,"ADDRESS":"安定１８１之１號","OBJECTID":270580},"geometry":{"x":171866.72000000067,"y":2557594.320000004}},{"attributes":{"ID":270586,"DIS_CODE":0,"TOWNNAME":"安定區","LI":"六嘉里","LIN":"3鄰","STREET":" ","SECT":" ","MAREA":"六塊寮","LANE":" ","ALLEY":" ","HOUSE_NO":"２３號","E_COORD97":170018.32000000001,"N_COORD97":2553528.27,"ADDRESS":"六塊寮２３號","OBJECTID":270581},"geometry":{"x":170018.3200000003,"y":2553528.2699999996}},{"attributes":{"ID":270587,"DIS_CODE":0,"TOWNNAME":"安定區","LI":"港尾里","LIN":"3鄰","STREET":" ","SECT":" ","MAREA":"港子尾","LANE":" ","ALLEY":" ","HOUSE_NO":"１５號之４","E_COORD97":171688.75,"N_COORD97":2556190.2999999998,"ADDRESS":"港子尾１５號之４","OBJECTID":270582},"geometry":{"x":171688.75000000093,"y":2556190.3000000007}},{"attributes":{"ID":270588,"DIS_CODE":0,"TOWNNAME":"安定區","LI":"港尾里","LIN":"3鄰","STREET":" ","SECT":" ","MAREA":"港子尾","LANE":" ","ALLEY":" ","HOUSE_NO":"１號之８","E_COORD97":171575.72,"N_COORD97":2556272.2999999998,"ADDRESS":"港子尾１號之８","OBJECTID":270583},"geometry":{"x":171575.71999999974,"y":2556272.2999999989}},{"attributes":{"ID":270589,"DIS_CODE":0,"TOWNNAME":"安定區","LI":"港口里","LIN":"3鄰","STREET":" ","SECT":" ","MAREA":"港口","LANE":" ","ALLEY":" ","HOUSE_NO":"２５２號之１３","E_COORD97":171543.07000000001,"N_COORD97":2554770.2999999998,"ADDRESS":"港口２５２號之１３","OBJECTID":270584},"geometry":{"x":171543.07000000123,"y":2554770.2999999989}},{"attributes":{"ID":270590,"DIS_CODE":0,"TOWNNAME":"安定區","LI":"港尾里","LIN":"3鄰","STREET":" ","SECT":" ","MAREA":"港子尾","LANE":" ","ALLEY":" ","HOUSE_NO":"１之１３號","E_COORD97":171612.69,"N_COORD97":2556346.2999999998,"ADDRESS":"港子尾１之１３號","OBJECTID":270585},"geometry":{"x":171612.69000000041,"y":2556346.3000000007}},{"attributes":{"ID":270591,"DIS_CODE":0,"TOWNNAME":"北區","LI":"興北里","LIN":"8鄰","STREET":"公園北路","SECT":" ","MAREA":" ","LANE":"８８巷","ALLEY":" ","HOUSE_NO":"７８號","E_COORD97":169111.23000000001,"N_COORD97":2545201.4900000002,"ADDRESS":"公園北路８８巷７８號","OBJECTID":270586},"geometry":{"x":169111.23000000138,"y":2545201.4900000021}},{"attributes":{"ID":270592,"DIS_CODE":0,"TOWNNAME":"北區","LI":"興北里","LIN":"8鄰","STREET":"公園北路","SECT":" ","MAREA":" ","LANE":"８８巷","ALLEY":" ","HOUSE_NO":"１００號","E_COORD97":169155.92000000001,"N_COORD97":2545255.98,"ADDRESS":"公園北路８８巷１００號","OBJECTID":270587},"geometry":{"x":169155.91999999993,"y":2545255.9800000023}},{"attributes":{"ID":270593,"DIS_CODE":0,"TOWNNAME":"北區","LI":"興北里","LIN":"8鄰","STREET":"公園北路","SECT":" ","MAREA":" ","LANE":"８８巷","ALLEY":" ","HOUSE_NO":"８２號","E_COORD97":169115.60999999999,"N_COORD97":2545208.7599999998,"ADDRESS":"公園北路８８巷８２號","OBJECTID":270588},"geometry":{"x":169115.61000000034,"y":2545208.7600000035}},{"attributes":{"ID":270594,"DIS_CODE":0,"TOWNNAME":"北區","LI":"興北里","LIN":"8鄰","STREET":"公園北路","SECT":" ","MAREA":" ","LANE":"８８巷","ALLEY":" ","HOUSE_NO":"８４號","E_COORD97":169115.54000000001,"N_COORD97":2545215.5899999999,"ADDRESS":"公園北路８８巷８４號","OBJECTID":270589},"geometry":{"x":169115.54000000097,"y":2545215.5899999999}},{"attributes":{"ID":270595,"DIS_CODE":0,"TOWNNAME":"北區","LI":"興南里","LIN":"8鄰","STREET":"公園北路","SECT":" ","MAREA":" ","LANE":"１３６巷","ALLEY":" ","HOUSE_NO":"８號","E_COORD97":168927.62,"N_COORD97":2545102.98,"ADDRESS":"公園北路１３６巷８號","OBJECTID":270590},"geometry":{"x":168927.62000000011,"y":2545102.9800000042}},{"attributes":{"ID":270596,"DIS_CODE":0,"TOWNNAME":"善化區","LI":"文昌里","LIN":"15鄰","STREET":"文昌路","SECT":" ","MAREA":" ","LANE":" ","ALLEY":" ","HOUSE_NO":"８號之２","E_COORD97":177595.82000000001,"N_COORD97":2558846.2799999998,"ADDRESS":"文昌路８號之２","OBJECTID":270591},"geometry":{"x":177595.8200000003,"y":2558846.2799999993}},{"attributes":{"ID":270597,"DIS_CODE":0,"TOWNNAME":"北區","LI":"興南里","LIN":"8鄰","STREET":"公園北路","SECT":" ","MAREA":" ","LANE":"１４４巷","ALLEY":" ","HOUSE_NO":"１０號","E_COORD97":168894.29000000001,"N_COORD97":2545116.8399999999,"ADDRESS":"公園北路１４４巷１０號","OBJECTID":270592},"geometry":{"x":168894.29000000004,"y":2545116.8400000036}},{"attributes":{"ID":270598,"DIS_CODE":0,"TOWNNAME":"永康區","LI":"北灣里","LIN":"15鄰","STREET":"信義二街","SECT":" ","MAREA":" ","LANE":"９８巷","ALLEY":" ","HOUSE_NO":"２號","E_COORD97":174996.22,"N_COORD97":2545744.5800000001,"ADDRESS":"信義二街９８巷２號","OBJECTID":270593},"geometry":{"x":174996.22000000067,"y":2545744.5800000001}},{"attributes":{"ID":270599,"DIS_CODE":0,"TOWNNAME":"善化區","LI":"光文里","LIN":"15鄰","STREET":"信義路","SECT":" ","MAREA":" ","LANE":" ","ALLEY":" ","HOUSE_NO":"１１２號","E_COORD97":178271.41,"N_COORD97":2558891.25,"ADDRESS":"信義路１１２號","OBJECTID":270594},"geometry":{"x":178271.41000000015,"y":2558891.25}},{"attributes":{"ID":270600,"DIS_CODE":0,"TOWNNAME":"北區","LI":"興南里","LIN":"8鄰","STREET":"公園北路","SECT":" ","MAREA":" ","LANE":"１４４巷","ALLEY":" ","HOUSE_NO":"１０號之１","E_COORD97":168899.10999999999,"N_COORD97":2545116.1499999999,"ADDRESS":"公園北路１４４巷１０號之１","OBJECTID":270595},"geometry":{"x":168899.11000000034,"y":2545116.1500000022}},{"attributes":{"ID":270601,"DIS_CODE":0,"TOWNNAME":"永康區","LI":"北灣里","LIN":"4鄰","STREET":"信義街","SECT":" ","MAREA":" ","LANE":" ","ALLEY":" ","HOUSE_NO":"８６號","E_COORD97":175307.73999999999,"N_COORD97":2545657.73,"ADDRESS":"信義街８６號","OBJECTID":270596},"geometry":{"x":175307.74000000022,"y":2545657.7300000023}},{"attributes":{"ID":270602,"DIS_CODE":0,"TOWNNAME":"北區","LI":"興南里","LIN":"8鄰","STREET":"公園北路","SECT":" ","MAREA":" ","LANE":"１４４巷","ALLEY":" ","HOUSE_NO":"１０號之２","E_COORD97":168903.23000000001,"N_COORD97":2545115.4700000002,"ADDRESS":"公園北路１４４巷１０號之２","OBJECTID":270597},"geometry":{"x":168903.23000000045,"y":2545115.4700000007}},{"attributes":{"ID":270603,"DIS_CODE":0,"TOWNNAME":"永康區","LI":"王行里","LIN":"9鄰","STREET":"王行路","SECT":" ","MAREA":" ","LANE":" ","ALLEY":" ","HOUSE_NO":"３９２號","E_COORD97":175430.54999999999,"N_COORD97":2548636.98,"ADDRESS":"王行路３９２號","OBJECTID":270598},"geometry":{"x":175430.54999999981,"y":2548636.9800000023}},{"attributes":{"ID":270604,"DIS_CODE":0,"TOWNNAME":"安定區","LI":"中沙里","LIN":"3鄰","STREET":" ","SECT":" ","MAREA":"中崙","LANE":" ","ALLEY":" ","HOUSE_NO":"１１３號","E_COORD97":168999.60999999999,"N_COORD97":2553173.2400000002,"ADDRESS":"中崙１１３號","OBJECTID":270599},"geometry":{"x":168999.6100000022,"y":2553173.2399999984}},{"attributes":{"ID":270605,"DIS_CODE":0,"TOWNNAME":"安定區","LI":"安定里","LIN":"3鄰","STREET":" ","SECT":" ","MAREA":"安定","LANE":" ","ALLEY":" ","HOUSE_NO":"６號","E_COORD97":172643.22,"N_COORD97":2558112.3199999998,"ADDRESS":"安定６號","OBJECTID":270600},"geometry":{"x":172643.22000000067,"y":2558112.3200000003}}]}