{"displayFieldName":"TOWNNAME","fieldAliases":{"ID":"ID","DIS_CODE":"DIS_CODE","TOWNNAME":"TOWNNAME","LI":"LI","LIN":"LIN","STREET":"STREET","SECT":"SECT","MAREA":"MAREA","LANE":"LANE","ALLEY":"ALLEY","HOUSE_NO":"HOUSE_NO","E_COORD97":"E_COORD97","N_COORD97":"N_COORD97","ADDRESS":"ADDRESS","OBJECTID":"OBJECTID"},"geometryType":"esriGeometryPoint","spatialReference":{"wkid":102443,"latestWkid":3826},"fields":[{"name":"ID","type":"esriFieldTypeDouble","alias":"ID"},{"name":"DIS_CODE","type":"esriFieldTypeInteger","alias":"DIS_CODE"},{"name":"TOWNNAME","type":"esriFieldTypeString","alias":"TOWNNAME","length":8},{"name":"LI","type":"esriFieldTypeString","alias":"LI","length":8},{"name":"LIN","type":"esriFieldTypeString","alias":"LIN","length":12},{"name":"STREET","type":"esriFieldTypeString","alias":"STREET","length":20},{"name":"SECT","type":"esriFieldTypeString","alias":"SECT","length":8},{"name":"MAREA","type":"esriFieldTypeString","alias":"MAREA","length":12},{"name":"LANE","type":"esriFieldTypeString","alias":"LANE","length":10},{"name":"ALLEY","type":"esriFieldTypeString","alias":"ALLEY","length":10},{"name":"HOUSE_NO","type":"esriFieldTypeString","alias":"HOUSE_NO","length":20},{"name":"E_COORD97","type":"esriFieldTypeDouble","alias":"E_COORD97"},{"name":"N_COORD97","type":"esriFieldTypeDouble","alias":"N_COORD97"},{"name":"ADDRESS","type":"esriFieldTypeString","alias":"ADDRESS","length":50},{"name":"OBJECTID","type":"esriFieldTypeOID","alias":"OBJECTID"}],"features":[{"attributes":{"ID":483026,"DIS_CODE":0,"TOWNNAME":"北區","LI":"大道里","LIN":"25鄰","STREET":"旭日街","SECT":" ","MAREA":" ","LANE":" ","ALLEY":" ","HOUSE_NO":"１６１號","E_COORD97":169393.35999999999,"N_COORD97":2545725.7200000002,"ADDRESS":"旭日街１６１號","OBJECTID":483001},"geometry":{"x":169393.36000000127,"y":2545725.7200000025}},{"attributes":{"ID":483027,"DIS_CODE":0,"TOWNNAME":"北區","LI":"大道里","LIN":"25鄰","STREET":"旭日街","SECT":" ","MAREA":" ","LANE":" ","ALLEY":" ","HOUSE_NO":"１７９號","E_COORD97":169411.29000000001,"N_COORD97":2545738.5699999998,"ADDRESS":"旭日街１７９號","OBJECTID":483002},"geometry":{"x":169411.29000000004,"y":2545738.5700000003}},{"attributes":{"ID":483028,"DIS_CODE":0,"TOWNNAME":"北區","LI":"大和里","LIN":"25鄰","STREET":"大和路","SECT":" ","MAREA":" ","LANE":" ","ALLEY":" ","HOUSE_NO":"３３６號","E_COORD97":166922.76999999999,"N_COORD97":2546129.8999999999,"ADDRESS":"大和路３３６號","OBJECTID":483003},"geometry":{"x":166922.77000000142,"y":2546129.9000000004}},{"attributes":{"ID":483029,"DIS_CODE":0,"TOWNNAME":"北區","LI":"大和里","LIN":"25鄰","STREET":"大和路","SECT":" ","MAREA":" ","LANE":" ","ALLEY":" ","HOUSE_NO":"３５８號","E_COORD97":166900.13,"N_COORD97":2546164.6699999999,"ADDRESS":"大和路３５８號","OBJECTID":483004},"geometry":{"x":166900.12999999896,"y":2546164.6699999999}},{"attributes":{"ID":483030,"DIS_CODE":0,"TOWNNAME":"北區","LI":"大和里","LIN":"25鄰","STREET":"大和路","SECT":" ","MAREA":" ","LANE":" ","ALLEY":" ","HOUSE_NO":"３３８號","E_COORD97":166919.17999999999,"N_COORD97":2546134.7000000002,"ADDRESS":"大和路３３８號","OBJECTID":483005},"geometry":{"x":166919.18000000063,"y":2546134.7000000011}},{"attributes":{"ID":483031,"DIS_CODE":0,"TOWNNAME":"北區","LI":"大和里","LIN":"25鄰","STREET":"大和路","SECT":" ","MAREA":" ","LANE":" ","ALLEY":" ","HOUSE_NO":"３４２號","E_COORD97":166913.92999999999,"N_COORD97":2546142.02,"ADDRESS":"大和路３４２號","OBJECTID":483006},"geometry":{"x":166913.93000000063,"y":2546142.0199999996}},{"attributes":{"ID":483032,"DIS_CODE":0,"TOWNNAME":"北區","LI":"大和里","LIN":"25鄰","STREET":"大和路","SECT":" ","MAREA":" ","LANE":" ","ALLEY":" ","HOUSE_NO":"３４６號","E_COORD97":166911.48000000001,"N_COORD97":2546145.79,"ADDRESS":"大和路３４６號","OBJECTID":483007},"geometry":{"x":166911.48000000045,"y":2546145.7899999991}},{"attributes":{"ID":483033,"DIS_CODE":0,"TOWNNAME":"北區","LI":"大和里","LIN":"25鄰","STREET":"大和路","SECT":" ","MAREA":" ","LANE":" ","ALLEY":" ","HOUSE_NO":"３４８號","E_COORD97":166909.17999999999,"N_COORD97":2546150.21,"ADDRESS":"大和路３４８號","OBJECTID":483008},"geometry":{"x":166909.1799999997,"y":2546150.2100000028}},{"attributes":{"ID":483034,"DIS_CODE":0,"TOWNNAME":"北區","LI":"大和里","LIN":"25鄰","STREET":"大和路","SECT":" ","MAREA":" ","LANE":" ","ALLEY":" ","HOUSE_NO":"３５０號","E_COORD97":166907.22,"N_COORD97":2546153.6499999999,"ADDRESS":"大和路３５０號","OBJECTID":483009},"geometry":{"x":166907.21999999974,"y":2546153.6500000022}},{"attributes":{"ID":483035,"DIS_CODE":0,"TOWNNAME":"北區","LI":"大和里","LIN":"25鄰","STREET":"大和路","SECT":" ","MAREA":" ","LANE":" ","ALLEY":" ","HOUSE_NO":"３５２號","E_COORD97":166904.60000000001,"N_COORD97":2546157.25,"ADDRESS":"大和路３５２號","OBJECTID":483010},"geometry":{"x":166904.59999999963,"y":2546157.25}},{"attributes":{"ID":483036,"DIS_CODE":0,"TOWNNAME":"北區","LI":"大和里","LIN":"25鄰","STREET":"大和路","SECT":" ","MAREA":" ","LANE":" ","ALLEY":" ","HOUSE_NO":"３５６號","E_COORD97":166902.47,"N_COORD97":2546160.8500000001,"ADDRESS":"大和路３５６號","OBJECTID":483011},"geometry":{"x":166902.46999999974,"y":2546160.8500000034}},{"attributes":{"ID":483037,"DIS_CODE":0,"TOWNNAME":"北區","LI":"大和里","LIN":"25鄰","STREET":"大和路","SECT":" ","MAREA":" ","LANE":" ","ALLEY":" ","HOUSE_NO":"３４０號","E_COORD97":166916.39000000001,"N_COORD97":2546138.4199999999,"ADDRESS":"大和路３４０號","OBJECTID":483012},"geometry":{"x":166916.38999999966,"y":2546138.4200000018}},{"attributes":{"ID":483038,"DIS_CODE":0,"TOWNNAME":"北區","LI":"大港里","LIN":"25鄰","STREET":"中華北路","SECT":"一段","MAREA":" ","LANE":" ","ALLEY":" ","HOUSE_NO":"２０５號","E_COORD97":166434.88,"N_COORD97":2545736.3500000001,"ADDRESS":"中華北路一段２０５號","OBJECTID":483013},"geometry":{"x":166434.88000000082,"y":2545736.3499999996}},{"attributes":{"ID":483039,"DIS_CODE":0,"TOWNNAME":"新營區","LI":"民生里","LIN":"25鄰","STREET":"民生路","SECT":" ","MAREA":" ","LANE":" ","ALLEY":" ","HOUSE_NO":"１５３號","E_COORD97":179225.06,"N_COORD97":2578639.5299999998,"ADDRESS":"民生路１５３號","OBJECTID":483014},"geometry":{"x":179225.06000000052,"y":2578639.5300000012}},{"attributes":{"ID":483040,"DIS_CODE":0,"TOWNNAME":"新營區","LI":"忠政里","LIN":"25鄰","STREET":"府西路","SECT":" ","MAREA":" ","LANE":" ","ALLEY":" ","HOUSE_NO":"７４號","E_COORD97":179812.84,"N_COORD97":2579251.3700000001,"ADDRESS":"府西路７４號","OBJECTID":483015},"geometry":{"x":179812.84000000171,"y":2579251.370000001}},{"attributes":{"ID":483041,"DIS_CODE":0,"TOWNNAME":"新營區","LI":"三仙里","LIN":"25鄰","STREET":"三興街","SECT":" ","MAREA":" ","LANE":" ","ALLEY":" ","HOUSE_NO":"６０－１號","E_COORD97":179452.82000000001,"N_COORD97":2578955.0099999998,"ADDRESS":"三興街６０－１號","OBJECTID":483016},"geometry":{"x":179452.82000000123,"y":2578955.0100000035}},{"attributes":{"ID":483042,"DIS_CODE":0,"TOWNNAME":"新營區","LI":"三仙里","LIN":"25鄰","STREET":"三興街","SECT":" ","MAREA":" ","LANE":" ","ALLEY":" ","HOUSE_NO":"６０－２號","E_COORD97":179452.84,"N_COORD97":2578959.8300000001,"ADDRESS":"三興街６０－２號","OBJECTID":483017},"geometry":{"x":179452.83999999985,"y":2578959.8300000038}},{"attributes":{"ID":483043,"DIS_CODE":0,"TOWNNAME":"新營區","LI":"三仙里","LIN":"25鄰","STREET":"三興街","SECT":" ","MAREA":" ","LANE":" ","ALLEY":" ","HOUSE_NO":"６０號","E_COORD97":179449.5,"N_COORD97":2578949.1899999999,"ADDRESS":"三興街６０號","OBJECTID":483018},"geometry":{"x":179449.50000000093,"y":2578949.1899999995}},{"attributes":{"ID":483044,"DIS_CODE":0,"TOWNNAME":"新營區","LI":"三仙里","LIN":"25鄰","STREET":"三興街","SECT":" ","MAREA":" ","LANE":" ","ALLEY":" ","HOUSE_NO":"６２號","E_COORD97":179456.25,"N_COORD97":2578950.77,"ADDRESS":"三興街６２號","OBJECTID":483019},"geometry":{"x":179456.25000000093,"y":2578950.7700000014}},{"attributes":{"ID":483045,"DIS_CODE":0,"TOWNNAME":"新營區","LI":"三仙里","LIN":"25鄰","STREET":"三興街","SECT":" ","MAREA":" ","LANE":" ","ALLEY":" ","HOUSE_NO":"６０之３號","E_COORD97":179462.32999999999,"N_COORD97":2578978.9900000002,"ADDRESS":"三興街６０之３號","OBJECTID":483020},"geometry":{"x":179462.33000000101,"y":2578978.9900000002}},{"attributes":{"ID":483046,"DIS_CODE":0,"TOWNNAME":"新營區","LI":"忠政里","LIN":"25鄰","STREET":"府西路","SECT":" ","MAREA":" ","LANE":" ","ALLEY":" ","HOUSE_NO":"１２３號","E_COORD97":179798.10999999999,"N_COORD97":2579303.4500000002,"ADDRESS":"府西路１２３號","OBJECTID":483021},"geometry":{"x":179798.11000000127,"y":2579303.4499999993}},{"attributes":{"ID":483047,"DIS_CODE":0,"TOWNNAME":"東山區","LI":"東中里","LIN":"25鄰","STREET":"和平街","SECT":" ","MAREA":" ","LANE":" ","ALLEY":" ","HOUSE_NO":"２８號","E_COORD97":188841.03,"N_COORD97":2579899.54,"ADDRESS":"和平街２８號","OBJECTID":483022},"geometry":{"x":188841.03000000119,"y":2579899.5399999991}},{"attributes":{"ID":483048,"DIS_CODE":0,"TOWNNAME":"東山區","LI":"東中里","LIN":"25鄰","STREET":"和平街","SECT":" ","MAREA":" ","LANE":" ","ALLEY":" ","HOUSE_NO":"３０號","E_COORD97":188835.13,"N_COORD97":2579900.98,"ADDRESS":"和平街３０號","OBJECTID":483023},"geometry":{"x":188835.12999999989,"y":2579900.9800000004}},{"attributes":{"ID":483049,"DIS_CODE":0,"TOWNNAME":"東山區","LI":"東中里","LIN":"25鄰","STREET":"和平街","SECT":" ","MAREA":" ","LANE":" ","ALLEY":" ","HOUSE_NO":"３６號","E_COORD97":188825.81,"N_COORD97":2579907.7599999998,"ADDRESS":"和平街３６號","OBJECTID":483024},"geometry":{"x":188825.80999999959,"y":2579907.7599999998}},{"attributes":{"ID":483050,"DIS_CODE":0,"TOWNNAME":"東山區","LI":"東中里","LIN":"25鄰","STREET":"和平街","SECT":" ","MAREA":" ","LANE":" ","ALLEY":" ","HOUSE_NO":"３８號","E_COORD97":188821.37,"N_COORD97":2579909.2599999998,"ADDRESS":"和平街３８號","OBJECTID":483025},"geometry":{"x":188821.37000000104,"y":2579909.2599999979}},{"attributes":{"ID":483051,"DIS_CODE":0,"TOWNNAME":"東山區","LI":"東中里","LIN":"25鄰","STREET":"和平街","SECT":" ","MAREA":" ","LANE":" ","ALLEY":" ","HOUSE_NO":"４０號","E_COORD97":188816.97,"N_COORD97":2579910.4399999999,"ADDRESS":"和平街４０號","OBJECTID":483026},"geometry":{"x":188816.97000000067,"y":2579910.4399999995}},{"attributes":{"ID":483052,"DIS_CODE":0,"TOWNNAME":"東山區","LI":"東中里","LIN":"25鄰","STREET":"和平街","SECT":" ","MAREA":" ","LANE":" ","ALLEY":" ","HOUSE_NO":"４２號","E_COORD97":188811.88,"N_COORD97":2579912.9399999999,"ADDRESS":"和平街４２號","OBJECTID":483027},"geometry":{"x":188811.87999999989,"y":2579912.9400000013}},{"attributes":{"ID":483053,"DIS_CODE":0,"TOWNNAME":"東山區","LI":"東中里","LIN":"25鄰","STREET":"和平街","SECT":" ","MAREA":" ","LANE":" ","ALLEY":" ","HOUSE_NO":"４６號","E_COORD97":188807.28,"N_COORD97":2579914.23,"ADDRESS":"和平街４６號","OBJECTID":483028},"geometry":{"x":188807.28000000119,"y":2579914.2300000023}},{"attributes":{"ID":483054,"DIS_CODE":0,"TOWNNAME":"東山區","LI":"東中里","LIN":"25鄰","STREET":"和平街","SECT":" ","MAREA":" ","LANE":" ","ALLEY":" ","HOUSE_NO":"４８號","E_COORD97":188802.28,"N_COORD97":2579914.4900000002,"ADDRESS":"和平街４８號","OBJECTID":483029},"geometry":{"x":188802.28000000119,"y":2579914.4900000002}},{"attributes":{"ID":483055,"DIS_CODE":0,"TOWNNAME":"歸仁區","LI":"辜厝里","LIN":"4鄰","STREET":"民族南街","SECT":" ","MAREA":" ","LANE":" ","ALLEY":" ","HOUSE_NO":"３８號","E_COORD97":177384.59,"N_COORD97":2540678.5499999998,"ADDRESS":"民族南街３８號","OBJECTID":483030},"geometry":{"x":177384.58999999985,"y":2540678.5500000045}},{"attributes":{"ID":483056,"DIS_CODE":0,"TOWNNAME":"歸仁區","LI":"新厝里","LIN":"7鄰","STREET":"中正三街","SECT":" ","MAREA":" ","LANE":" ","ALLEY":" ","HOUSE_NO":"３９號","E_COORD97":177713.88,"N_COORD97":2540571.9300000002,"ADDRESS":"中正三街３９號","OBJECTID":483031},"geometry":{"x":177713.88000000175,"y":2540571.9299999997}},{"attributes":{"ID":483057,"DIS_CODE":0,"TOWNNAME":"新化區","LI":"東榮里","LIN":"25鄰","STREET":"中正路","SECT":" ","MAREA":" ","LANE":" ","ALLEY":" ","HOUSE_NO":"３０２號","E_COORD97":179147.81,"N_COORD97":2547981.25,"ADDRESS":"中正路３０２號","OBJECTID":483032},"geometry":{"x":179147.80999999959,"y":2547981.25}},{"attributes":{"ID":483058,"DIS_CODE":0,"TOWNNAME":"永康區","LI":"西灣里","LIN":"25鄰","STREET":"大勇路","SECT":" ","MAREA":" ","LANE":" ","ALLEY":" ","HOUSE_NO":"１２６號","E_COORD97":174286.14999999999,"N_COORD97":2545636.5,"ADDRESS":"大勇路１２６號","OBJECTID":483033},"geometry":{"x":174286.15000000037,"y":2545636.5}},{"attributes":{"ID":483059,"DIS_CODE":0,"TOWNNAME":"永康區","LI":"永康里","LIN":"25鄰","STREET":"埔聖街","SECT":" ","MAREA":" ","LANE":" ","ALLEY":" ","HOUSE_NO":"１２０號","E_COORD97":174023.06,"N_COORD97":2547593.79,"ADDRESS":"埔聖街１２０號","OBJECTID":483034},"geometry":{"x":174023.05999999959,"y":2547593.7899999991}},{"attributes":{"ID":483060,"DIS_CODE":0,"TOWNNAME":"永康區","LI":"安康里","LIN":"25鄰","STREET":"中華路","SECT":" ","MAREA":" ","LANE":" ","ALLEY":" ","HOUSE_NO":"７２３號","E_COORD97":170867.60000000001,"N_COORD97":2546377.9900000002,"ADDRESS":"中華路７２３號","OBJECTID":483035},"geometry":{"x":170867.60000000056,"y":2546377.9900000021}},{"attributes":{"ID":483061,"DIS_CODE":0,"TOWNNAME":"新化區","LI":"東榮里","LIN":"25鄰","STREET":"中正路","SECT":" ","MAREA":" ","LANE":" ","ALLEY":" ","HOUSE_NO":"３０８號","E_COORD97":179155.81,"N_COORD97":2548009.25,"ADDRESS":"中正路３０８號","OBJECTID":483036},"geometry":{"x":179155.80999999959,"y":2548009.25}},{"attributes":{"ID":483062,"DIS_CODE":0,"TOWNNAME":"安南區","LI":"新順里","LIN":"25鄰","STREET":"興安路","SECT":" ","MAREA":" ","LANE":" ","ALLEY":" ","HOUSE_NO":"１０６號","E_COORD97":169406.88,"N_COORD97":2549121.0699999998,"ADDRESS":"興安路１０６號","OBJECTID":483037},"geometry":{"x":169406.87999999989,"y":2549121.0700000022}},{"attributes":{"ID":483063,"DIS_CODE":0,"TOWNNAME":"安南區","LI":"新順里","LIN":"25鄰","STREET":"興安路","SECT":" ","MAREA":" ","LANE":" ","ALLEY":" ","HOUSE_NO":"１０８號","E_COORD97":169402.57000000001,"N_COORD97":2549122.0899999999,"ADDRESS":"興安路１０８號","OBJECTID":483038},"geometry":{"x":169402.5700000003,"y":2549122.0899999999}},{"attributes":{"ID":483064,"DIS_CODE":0,"TOWNNAME":"安南區","LI":"新順里","LIN":"25鄰","STREET":"興安路","SECT":" ","MAREA":" ","LANE":" ","ALLEY":" ","HOUSE_NO":"１１０號","E_COORD97":169398.25,"N_COORD97":2549122.98,"ADDRESS":"興安路１１０號","OBJECTID":483039},"geometry":{"x":169398.25000000186,"y":2549122.9800000004}},{"attributes":{"ID":483065,"DIS_CODE":0,"TOWNNAME":"安南區","LI":"新順里","LIN":"25鄰","STREET":"興安路","SECT":" ","MAREA":" ","LANE":" ","ALLEY":" ","HOUSE_NO":"１１２號","E_COORD97":169393.54999999999,"N_COORD97":2549124.3700000001,"ADDRESS":"興安路１１２號","OBJECTID":483040},"geometry":{"x":169393.54999999981,"y":2549124.370000001}},{"attributes":{"ID":483066,"DIS_CODE":0,"TOWNNAME":"安南區","LI":"新順里","LIN":"25鄰","STREET":"興安路","SECT":" ","MAREA":" ","LANE":" ","ALLEY":" ","HOUSE_NO":"１１６號","E_COORD97":169389.60999999999,"N_COORD97":2549125.1299999999,"ADDRESS":"興安路１１６號","OBJECTID":483041},"geometry":{"x":169389.61000000127,"y":2549125.1300000008}},{"attributes":{"ID":483067,"DIS_CODE":0,"TOWNNAME":"安南區","LI":"新順里","LIN":"25鄰","STREET":"興安路","SECT":" ","MAREA":" ","LANE":" ","ALLEY":" ","HOUSE_NO":"１１８號","E_COORD97":169385.29999999999,"N_COORD97":2549126.2799999998,"ADDRESS":"興安路１１８號","OBJECTID":483042},"geometry":{"x":169385.29999999981,"y":2549126.2799999993}},{"attributes":{"ID":483068,"DIS_CODE":0,"TOWNNAME":"安南區","LI":"新順里","LIN":"25鄰","STREET":"興安路","SECT":" ","MAREA":" ","LANE":" ","ALLEY":" ","HOUSE_NO":"１２０號","E_COORD97":169381.35999999999,"N_COORD97":2549127.04,"ADDRESS":"興安路１２０號","OBJECTID":483043},"geometry":{"x":169381.36000000127,"y":2549127.040000001}},{"attributes":{"ID":483069,"DIS_CODE":0,"TOWNNAME":"安南區","LI":"新順里","LIN":"25鄰","STREET":"興安路","SECT":" ","MAREA":" ","LANE":" ","ALLEY":" ","HOUSE_NO":"１２２號","E_COORD97":169377.54999999999,"N_COORD97":2549128.0600000001,"ADDRESS":"興安路１２２號","OBJECTID":483044},"geometry":{"x":169377.55000000075,"y":2549128.0600000024}},{"attributes":{"ID":483070,"DIS_CODE":0,"TOWNNAME":"安南區","LI":"新順里","LIN":"25鄰","STREET":"興安路","SECT":" ","MAREA":" ","LANE":" ","ALLEY":" ","HOUSE_NO":"１２６號","E_COORD97":169373.60999999999,"N_COORD97":2549129.5800000001,"ADDRESS":"興安路１２６號","OBJECTID":483045},"geometry":{"x":169373.61000000034,"y":2549129.5800000038}},{"attributes":{"ID":483071,"DIS_CODE":0,"TOWNNAME":"安南區","LI":"新順里","LIN":"25鄰","STREET":"興安路","SECT":" ","MAREA":" ","LANE":" ","ALLEY":" ","HOUSE_NO":"１０１號","E_COORD97":169351.76999999999,"N_COORD97":2549112.6899999999,"ADDRESS":"興安路１０１號","OBJECTID":483046},"geometry":{"x":169351.76999999862,"y":2549112.6900000013}},{"attributes":{"ID":483072,"DIS_CODE":0,"TOWNNAME":"安南區","LI":"新順里","LIN":"25鄰","STREET":"興安路","SECT":" ","MAREA":" ","LANE":" ","ALLEY":" ","HOUSE_NO":"１０３號","E_COORD97":169346.17999999999,"N_COORD97":2549114.0899999999,"ADDRESS":"興安路１０３號","OBJECTID":483047},"geometry":{"x":169346.18000000063,"y":2549114.0900000017}},{"attributes":{"ID":483073,"DIS_CODE":0,"TOWNNAME":"安南區","LI":"新順里","LIN":"25鄰","STREET":"興安路","SECT":" ","MAREA":" ","LANE":" ","ALLEY":" ","HOUSE_NO":"１１３號","E_COORD97":169327.64000000001,"N_COORD97":2549118.5299999998,"ADDRESS":"興安路１１３號","OBJECTID":483048},"geometry":{"x":169327.6400000006,"y":2549118.5299999993}},{"attributes":{"ID":483074,"DIS_CODE":0,"TOWNNAME":"安南區","LI":"新順里","LIN":"25鄰","STREET":"興安路","SECT":" ","MAREA":" ","LANE":" ","ALLEY":" ","HOUSE_NO":"１１１號","E_COORD97":169330.81,"N_COORD97":2549118.02,"ADDRESS":"興安路１１１號","OBJECTID":483049},"geometry":{"x":169330.80999999959,"y":2549118.0199999996}},{"attributes":{"ID":483075,"DIS_CODE":0,"TOWNNAME":"安南區","LI":"新順里","LIN":"25鄰","STREET":"興安路","SECT":" ","MAREA":" ","LANE":" ","ALLEY":" ","HOUSE_NO":"１０５號","E_COORD97":169341.60999999999,"N_COORD97":2549115.23,"ADDRESS":"興安路１０５號","OBJECTID":483050},"geometry":{"x":169341.61000000034,"y":2549115.2300000004}},{"attributes":{"ID":483076,"DIS_CODE":0,"TOWNNAME":"安南區","LI":"新順里","LIN":"25鄰","STREET":"興安路","SECT":" ","MAREA":" ","LANE":" ","ALLEY":" ","HOUSE_NO":"１０７號","E_COORD97":169337.41,"N_COORD97":2549116.1200000001,"ADDRESS":"興安路１０７號","OBJECTID":483051},"geometry":{"x":169337.41000000015,"y":2549116.120000001}},{"attributes":{"ID":483077,"DIS_CODE":0,"TOWNNAME":"安南區","LI":"新順里","LIN":"25鄰","STREET":"興安路","SECT":" ","MAREA":" ","LANE":" ","ALLEY":" ","HOUSE_NO":"１０９號","E_COORD97":169333.98999999999,"N_COORD97":2549117.0099999998,"ADDRESS":"興安路１０９號","OBJECTID":483052},"geometry":{"x":169333.99000000022,"y":2549117.0100000016}},{"attributes":{"ID":483078,"DIS_CODE":0,"TOWNNAME":"安南區","LI":"新順里","LIN":"25鄰","STREET":"興安路","SECT":" ","MAREA":" ","LANE":" ","ALLEY":" ","HOUSE_NO":"１１５號","E_COORD97":169323.32000000001,"N_COORD97":2549119.4199999999,"ADDRESS":"興安路１１５號","OBJECTID":483053},"geometry":{"x":169323.3200000003,"y":2549119.4199999999}},{"attributes":{"ID":483079,"DIS_CODE":0,"TOWNNAME":"安南區","LI":"新順里","LIN":"25鄰","STREET":"興安路","SECT":" ","MAREA":" ","LANE":" ","ALLEY":" ","HOUSE_NO":"１１７號","E_COORD97":169318.35999999999,"N_COORD97":2549120.6899999999,"ADDRESS":"興安路１１７號","OBJECTID":483054},"geometry":{"x":169318.36000000127,"y":2549120.6899999995}},{"attributes":{"ID":483080,"DIS_CODE":0,"TOWNNAME":"安南區","LI":"新順里","LIN":"25鄰","STREET":"興安路","SECT":" ","MAREA":" ","LANE":" ","ALLEY":" ","HOUSE_NO":"１１９號","E_COORD97":169313.67000000001,"N_COORD97":2549121.71,"ADDRESS":"興安路１１９號","OBJECTID":483055},"geometry":{"x":169313.66999999993,"y":2549121.7100000009}},{"attributes":{"ID":483081,"DIS_CODE":0,"TOWNNAME":"安南區","LI":"新順里","LIN":"25鄰","STREET":"興安路","SECT":" ","MAREA":" ","LANE":" ","ALLEY":" ","HOUSE_NO":"１２１號","E_COORD97":169309.60000000001,"N_COORD97":2549122.6000000001,"ADDRESS":"興安路１２１號","OBJECTID":483056},"geometry":{"x":169309.60000000056,"y":2549122.6000000015}},{"attributes":{"ID":483082,"DIS_CODE":0,"TOWNNAME":"安南區","LI":"新順里","LIN":"25鄰","STREET":"興安路","SECT":" ","MAREA":" ","LANE":" ","ALLEY":" ","HOUSE_NO":"１２３號","E_COORD97":169306.54999999999,"N_COORD97":2549123.23,"ADDRESS":"興安路１２３號","OBJECTID":483057},"geometry":{"x":169306.55000000075,"y":2549123.2300000023}},{"attributes":{"ID":483083,"DIS_CODE":0,"TOWNNAME":"安南區","LI":"新順里","LIN":"25鄰","STREET":"興安路","SECT":" ","MAREA":" ","LANE":" ","ALLEY":" ","HOUSE_NO":"１２５號","E_COORD97":169303.38,"N_COORD97":2549123.9900000002,"ADDRESS":"興安路１２５號","OBJECTID":483058},"geometry":{"x":169303.37999999989,"y":2549123.9900000021}},{"attributes":{"ID":483084,"DIS_CODE":0,"TOWNNAME":"安南區","LI":"新順里","LIN":"25鄰","STREET":"興安路","SECT":" ","MAREA":" ","LANE":" ","ALLEY":" ","HOUSE_NO":"１２７號","E_COORD97":169300.57999999999,"N_COORD97":2549124.5,"ADDRESS":"興安路１２７號","OBJECTID":483059},"geometry":{"x":169300.58000000007,"y":2549124.5000000019}},{"attributes":{"ID":483085,"DIS_CODE":0,"TOWNNAME":"永康區","LI":"永康里","LIN":"25鄰","STREET":"中山北路","SECT":" ","MAREA":" ","LANE":" ","ALLEY":" ","HOUSE_NO":"１４３號","E_COORD97":174165.95999999999,"N_COORD97":2547510.6299999999,"ADDRESS":"中山北路１４３號","OBJECTID":483060},"geometry":{"x":174165.96000000089,"y":2547510.629999999}},{"attributes":{"ID":483086,"DIS_CODE":0,"TOWNNAME":"永康區","LI":"永康里","LIN":"25鄰","STREET":"永大路","SECT":"三段","MAREA":" ","LANE":" ","ALLEY":" ","HOUSE_NO":"３７號","E_COORD97":174168.79000000001,"N_COORD97":2547619.8900000001,"ADDRESS":"永大路三段３７號","OBJECTID":483061},"geometry":{"x":174168.79000000097,"y":2547619.8900000025}},{"attributes":{"ID":483087,"DIS_CODE":0,"TOWNNAME":"永康區","LI":"正強里","LIN":"25鄰","STREET":"中正路","SECT":" ","MAREA":" ","LANE":" ","ALLEY":" ","HOUSE_NO":"１３３號","E_COORD97":173341.89999999999,"N_COORD97":2547876.25,"ADDRESS":"中正路１３３號","OBJECTID":483062},"geometry":{"x":173341.90000000037,"y":2547876.25}},{"attributes":{"ID":483088,"DIS_CODE":0,"TOWNNAME":"安南區","LI":"安慶里","LIN":"25鄰","STREET":"安中一街","SECT":" ","MAREA":" ","LANE":" ","ALLEY":" ","HOUSE_NO":"５２號","E_COORD97":168624.04000000001,"N_COORD97":2548385.29,"ADDRESS":"安中一街５２號","OBJECTID":483063},"geometry":{"x":168624.04000000097,"y":2548385.290000001}},{"attributes":{"ID":483089,"DIS_CODE":0,"TOWNNAME":"安南區","LI":"安慶里","LIN":"25鄰","STREET":"安中一街","SECT":" ","MAREA":" ","LANE":" ","ALLEY":" ","HOUSE_NO":"５６號","E_COORD97":168622.60999999999,"N_COORD97":2548389.1000000001,"ADDRESS":"安中一街５６號","OBJECTID":483064},"geometry":{"x":168622.61000000034,"y":2548389.0999999996}},{"attributes":{"ID":483090,"DIS_CODE":0,"TOWNNAME":"安南區","LI":"安慶里","LIN":"25鄰","STREET":"安中一街","SECT":" ","MAREA":" ","LANE":" ","ALLEY":" ","HOUSE_NO":"５８號","E_COORD97":168620.85999999999,"N_COORD97":2548393.54,"ADDRESS":"安中一街５８號","OBJECTID":483065},"geometry":{"x":168620.86000000034,"y":2548393.540000001}},{"attributes":{"ID":483091,"DIS_CODE":0,"TOWNNAME":"安南區","LI":"安慶里","LIN":"25鄰","STREET":"安中一街","SECT":" ","MAREA":" ","LANE":" ","ALLEY":" ","HOUSE_NO":"６０號","E_COORD97":168619.42999999999,"N_COORD97":2548398.2999999998,"ADDRESS":"安中一街６０號","OBJECTID":483066},"geometry":{"x":168619.43000000063,"y":2548398.3000000007}},{"attributes":{"ID":483092,"DIS_CODE":0,"TOWNNAME":"安南區","LI":"安慶里","LIN":"25鄰","STREET":"安中一街","SECT":" ","MAREA":" ","LANE":" ","ALLEY":" ","HOUSE_NO":"６２號","E_COORD97":168618.01000000001,"N_COORD97":2548402.1099999999,"ADDRESS":"安中一街６２號","OBJECTID":483067},"geometry":{"x":168618.00999999978,"y":2548402.1099999994}},{"attributes":{"ID":483093,"DIS_CODE":0,"TOWNNAME":"安南區","LI":"安慶里","LIN":"25鄰","STREET":"安中一街","SECT":" ","MAREA":" ","LANE":" ","ALLEY":" ","HOUSE_NO":"６６號","E_COORD97":168616.73999999999,"N_COORD97":2548405.4500000002,"ADDRESS":"安中一街６６號","OBJECTID":483068},"geometry":{"x":168616.74000000022,"y":2548405.4500000011}},{"attributes":{"ID":483094,"DIS_CODE":0,"TOWNNAME":"安南區","LI":"安慶里","LIN":"25鄰","STREET":"安中一街","SECT":" ","MAREA":" ","LANE":" ","ALLEY":" ","HOUSE_NO":"６８號","E_COORD97":168614.82999999999,"N_COORD97":2548409.5800000001,"ADDRESS":"安中一街６８號","OBJECTID":483069},"geometry":{"x":168614.83000000101,"y":2548409.5800000001}},{"attributes":{"ID":483095,"DIS_CODE":0,"TOWNNAME":"安南區","LI":"安慶里","LIN":"25鄰","STREET":"安中一街","SECT":" ","MAREA":" ","LANE":" ","ALLEY":" ","HOUSE_NO":"７０號","E_COORD97":168613.23999999999,"N_COORD97":2548413.3900000001,"ADDRESS":"安中一街７０號","OBJECTID":483070},"geometry":{"x":168613.24000000022,"y":2548413.3900000025}},{"attributes":{"ID":483096,"DIS_CODE":0,"TOWNNAME":"安南區","LI":"安慶里","LIN":"25鄰","STREET":"安中一街","SECT":" ","MAREA":" ","LANE":" ","ALLEY":" ","HOUSE_NO":"７２號","E_COORD97":168611.81,"N_COORD97":2548416.7200000002,"ADDRESS":"安中一街７２號","OBJECTID":483071},"geometry":{"x":168611.80999999959,"y":2548416.7200000007}},{"attributes":{"ID":483097,"DIS_CODE":0,"TOWNNAME":"安南區","LI":"安慶里","LIN":"25鄰","STREET":"安中一街","SECT":" ","MAREA":" ","LANE":" ","ALLEY":" ","HOUSE_NO":"７６號","E_COORD97":168610.70000000001,"N_COORD97":2548419.1000000001,"ADDRESS":"安中一街７６號","OBJECTID":483072},"geometry":{"x":168610.70000000112,"y":2548419.0999999996}},{"attributes":{"ID":483098,"DIS_CODE":0,"TOWNNAME":"安南區","LI":"安慶里","LIN":"25鄰","STREET":"安中一街","SECT":" ","MAREA":" ","LANE":" ","ALLEY":" ","HOUSE_NO":"７８號","E_COORD97":168609.75,"N_COORD97":2548422.4300000002,"ADDRESS":"安中一街７８號","OBJECTID":483073},"geometry":{"x":168609.75,"y":2548422.4300000016}},{"attributes":{"ID":483099,"DIS_CODE":0,"TOWNNAME":"歸仁區","LI":"南興里","LIN":"29鄰","STREET":"保興一街","SECT":" ","MAREA":" ","LANE":" ","ALLEY":" ","HOUSE_NO":"１６號","E_COORD97":176455.17000000001,"N_COORD97":2541134.25,"ADDRESS":"保興一街１６號","OBJECTID":483074},"geometry":{"x":176455.16999999993,"y":2541134.2500000019}},{"attributes":{"ID":483100,"DIS_CODE":0,"TOWNNAME":"東區","LI":"中西里","LIN":"25鄰","STREET":"東寧路","SECT":" ","MAREA":" ","LANE":" ","ALLEY":" ","HOUSE_NO":"１２２號","E_COORD97":170218.09,"N_COORD97":2543592.1099999999,"ADDRESS":"東寧路１２２號","OBJECTID":483075},"geometry":{"x":170218.09000000078,"y":2543592.1099999975}},{"attributes":{"ID":483101,"DIS_CODE":0,"TOWNNAME":"東區","LI":"中西里","LIN":"25鄰","STREET":"東寧路","SECT":" ","MAREA":" ","LANE":" ","ALLEY":" ","HOUSE_NO":"１２６號","E_COORD97":170246.89000000001,"N_COORD97":2543580.7799999998,"ADDRESS":"東寧路１２６號","OBJECTID":483076},"geometry":{"x":170246.8900000006,"y":2543580.7800000031}},{"attributes":{"ID":483102,"DIS_CODE":0,"TOWNNAME":"東區","LI":"中西里","LIN":"25鄰","STREET":"東寧路","SECT":" ","MAREA":" ","LANE":" ","ALLEY":" ","HOUSE_NO":"１３０號","E_COORD97":170265.73999999999,"N_COORD97":2543574.1499999999,"ADDRESS":"東寧路１３０號","OBJECTID":483077},"geometry":{"x":170265.74000000022,"y":2543574.1500000022}},{"attributes":{"ID":483103,"DIS_CODE":0,"TOWNNAME":"東區","LI":"中西里","LIN":"25鄰","STREET":"東寧路","SECT":" ","MAREA":" ","LANE":" ","ALLEY":" ","HOUSE_NO":"１３２號","E_COORD97":170275.87,"N_COORD97":2543570.4900000002,"ADDRESS":"東寧路１３２號","OBJECTID":483078},"geometry":{"x":170275.87000000104,"y":2543570.4900000039}},{"attributes":{"ID":483104,"DIS_CODE":0,"TOWNNAME":"東區","LI":"忠孝里","LIN":"25鄰","STREET":"崇明四街","SECT":" ","MAREA":" ","LANE":" ","ALLEY":" ","HOUSE_NO":"１５號","E_COORD97":169592.67000000001,"N_COORD97":2542309.0099999998,"ADDRESS":"崇明四街１５號","OBJECTID":483079},"geometry":{"x":169592.67000000086,"y":2542309.0100000016}},{"attributes":{"ID":483105,"DIS_CODE":0,"TOWNNAME":"東區","LI":"忠孝里","LIN":"25鄰","STREET":"崇明四街","SECT":" ","MAREA":" ","LANE":" ","ALLEY":" ","HOUSE_NO":"１７號","E_COORD97":169602.47,"N_COORD97":2542312.3399999999,"ADDRESS":"崇明四街１７號","OBJECTID":483080},"geometry":{"x":169602.46999999974,"y":2542312.3399999999}},{"attributes":{"ID":483106,"DIS_CODE":0,"TOWNNAME":"東區","LI":"忠孝里","LIN":"25鄰","STREET":"崇明四街","SECT":" ","MAREA":" ","LANE":" ","ALLEY":" ","HOUSE_NO":"１９號","E_COORD97":169609.14000000001,"N_COORD97":2542312.75,"ADDRESS":"崇明四街１９號","OBJECTID":483081},"geometry":{"x":169609.1400000006,"y":2542312.75}},{"attributes":{"ID":483107,"DIS_CODE":0,"TOWNNAME":"東區","LI":"忠孝里","LIN":"25鄰","STREET":"崇明四街","SECT":" ","MAREA":" ","LANE":" ","ALLEY":" ","HOUSE_NO":"２１號","E_COORD97":169607.67999999999,"N_COORD97":2542300.0600000001,"ADDRESS":"崇明四街２１號","OBJECTID":483082},"geometry":{"x":169607.68000000063,"y":2542300.0600000024}},{"attributes":{"ID":483108,"DIS_CODE":0,"TOWNNAME":"永康區","LI":"東灣里","LIN":"25鄰","STREET":"大灣二街","SECT":" ","MAREA":" ","LANE":" ","ALLEY":" ","HOUSE_NO":"９３號","E_COORD97":174774.98000000001,"N_COORD97":2544730.2400000002,"ADDRESS":"大灣二街９３號","OBJECTID":483083},"geometry":{"x":174774.98000000138,"y":2544730.2400000002}},{"attributes":{"ID":483109,"DIS_CODE":0,"TOWNNAME":"永康區","LI":"東橋里","LIN":"25鄰","STREET":"中正路","SECT":" ","MAREA":" ","LANE":" ","ALLEY":" ","HOUSE_NO":"３５６號","E_COORD97":172887.92999999999,"N_COORD97":2548101.25,"ADDRESS":"中正路３５６號","OBJECTID":483084},"geometry":{"x":172887.93000000063,"y":2548101.2500000037}},{"attributes":{"ID":483110,"DIS_CODE":0,"TOWNNAME":"東區","LI":"莊敬里","LIN":"25鄰","STREET":"東平路","SECT":" ","MAREA":" ","LANE":" ","ALLEY":" ","HOUSE_NO":"５６號","E_COORD97":171314.29999999999,"N_COORD97":2543959.3599999999,"ADDRESS":"東平路５６號","OBJECTID":483085},"geometry":{"x":171314.29999999981,"y":2543959.3599999994}},{"attributes":{"ID":483111,"DIS_CODE":0,"TOWNNAME":"東區","LI":"崇文里","LIN":"25鄰","STREET":"崇德二十二街","SECT":" ","MAREA":" ","LANE":" ","ALLEY":" ","HOUSE_NO":"１４３號","E_COORD97":171164.92000000001,"N_COORD97":2540822.1099999999,"ADDRESS":"崇德二十二街１４３號","OBJECTID":483086},"geometry":{"x":171164.91999999993,"y":2540822.1099999975}},{"attributes":{"ID":483112,"DIS_CODE":0,"TOWNNAME":"東區","LI":"崇文里","LIN":"25鄰","STREET":"崇德二十二街","SECT":" ","MAREA":" ","LANE":" ","ALLEY":" ","HOUSE_NO":"１５３號","E_COORD97":171170.82000000001,"N_COORD97":2540840.77,"ADDRESS":"崇德二十二街１５３號","OBJECTID":483087},"geometry":{"x":171170.8200000003,"y":2540840.7699999996}},{"attributes":{"ID":483113,"DIS_CODE":0,"TOWNNAME":"東區","LI":"崇文里","LIN":"25鄰","STREET":"崇德二十二街","SECT":" ","MAREA":" ","LANE":" ","ALLEY":" ","HOUSE_NO":"１４９號","E_COORD97":171175.73000000001,"N_COORD97":2540832.9199999999,"ADDRESS":"崇德二十二街１４９號","OBJECTID":483088},"geometry":{"x":171175.73000000138,"y":2540832.9199999999}},{"attributes":{"ID":483114,"DIS_CODE":0,"TOWNNAME":"東區","LI":"崇文里","LIN":"25鄰","STREET":"崇德二十二街","SECT":" ","MAREA":" ","LANE":" ","ALLEY":" ","HOUSE_NO":"１５７號","E_COORD97":171164.92000000001,"N_COORD97":2540845.6899999999,"ADDRESS":"崇德二十二街１５７號","OBJECTID":483089},"geometry":{"x":171164.91999999993,"y":2540845.6900000032}},{"attributes":{"ID":483115,"DIS_CODE":0,"TOWNNAME":"東區","LI":"崇文里","LIN":"25鄰","STREET":"崇德二十二街","SECT":" ","MAREA":" ","LANE":" ","ALLEY":" ","HOUSE_NO":"１５１號","E_COORD97":171173.44,"N_COORD97":2540837.5,"ADDRESS":"崇德二十二街１５１號","OBJECTID":483090},"geometry":{"x":171173.44000000041,"y":2540837.5000000037}},{"attributes":{"ID":483116,"DIS_CODE":0,"TOWNNAME":"東區","LI":"崇文里","LIN":"25鄰","STREET":"崇德二十二街","SECT":" ","MAREA":" ","LANE":" ","ALLEY":" ","HOUSE_NO":"１５５號","E_COORD97":171168.20000000001,"N_COORD97":2540844.0499999998,"ADDRESS":"崇德二十二街１５５號","OBJECTID":483091},"geometry":{"x":171168.20000000019,"y":2540844.0500000007}},{"attributes":{"ID":483117,"DIS_CODE":0,"TOWNNAME":"東區","LI":"崇文里","LIN":"25鄰","STREET":"崇德二十二街","SECT":" ","MAREA":" ","LANE":" ","ALLEY":" ","HOUSE_NO":"１５９號","E_COORD97":171175.73000000001,"N_COORD97":2540854.8599999999,"ADDRESS":"崇德二十二街１５９號","OBJECTID":483092},"geometry":{"x":171175.73000000138,"y":2540854.8600000013}},{"attributes":{"ID":483118,"DIS_CODE":0,"TOWNNAME":"東區","LI":"崇文里","LIN":"25鄰","STREET":"崇德二十二街","SECT":" ","MAREA":" ","LANE":" ","ALLEY":" ","HOUSE_NO":"１６１號","E_COORD97":171178.67999999999,"N_COORD97":2540852.8900000001,"ADDRESS":"崇德二十二街１６１號","OBJECTID":483093},"geometry":{"x":171178.68000000063,"y":2540852.8900000025}},{"attributes":{"ID":483119,"DIS_CODE":0,"TOWNNAME":"東區","LI":"崇文里","LIN":"25鄰","STREET":"崇德二十二街","SECT":" ","MAREA":" ","LANE":" ","ALLEY":" ","HOUSE_NO":"１６３號","E_COORD97":171181.62,"N_COORD97":2540850.6000000001,"ADDRESS":"崇德二十二街１６３號","OBJECTID":483094},"geometry":{"x":171181.62000000104,"y":2540850.6000000015}},{"attributes":{"ID":483120,"DIS_CODE":0,"TOWNNAME":"東區","LI":"崇文里","LIN":"25鄰","STREET":"崇德二十二街","SECT":" ","MAREA":" ","LANE":" ","ALLEY":" ","HOUSE_NO":"１６５號","E_COORD97":171184.89999999999,"N_COORD97":2540847.98,"ADDRESS":"崇德二十二街１６５號","OBJECTID":483095},"geometry":{"x":171184.9000000013,"y":2540847.9800000042}},{"attributes":{"ID":483121,"DIS_CODE":0,"TOWNNAME":"東區","LI":"崇文里","LIN":"25鄰","STREET":"崇德二十二街","SECT":" ","MAREA":" ","LANE":" ","ALLEY":" ","HOUSE_NO":"１６７號","E_COORD97":171187.51999999999,"N_COORD97":2540843.3900000001,"ADDRESS":"崇德二十二街１６７號","OBJECTID":483096},"geometry":{"x":171187.51999999955,"y":2540843.3900000025}},{"attributes":{"ID":483122,"DIS_CODE":0,"TOWNNAME":"南區","LI":"廣州里","LIN":"25鄰","STREET":"金華路","SECT":"二段","MAREA":" ","LANE":" ","ALLEY":" ","HOUSE_NO":"３２４號","E_COORD97":167138.87,"N_COORD97":2542670.7200000002,"ADDRESS":"金華路二段３２４號","OBJECTID":483097},"geometry":{"x":167138.87000000011,"y":2542670.7200000044}},{"attributes":{"ID":483123,"DIS_CODE":0,"TOWNNAME":"南區","LI":"廣州里","LIN":"25鄰","STREET":"金華路","SECT":"二段","MAREA":" ","LANE":" ","ALLEY":" ","HOUSE_NO":"３２８號","E_COORD97":167142.64999999999,"N_COORD97":2542680.27,"ADDRESS":"金華路二段３２８號","OBJECTID":483098},"geometry":{"x":167142.65000000037,"y":2542680.2700000014}},{"attributes":{"ID":483124,"DIS_CODE":0,"TOWNNAME":"南區","LI":"廣州里","LIN":"25鄰","STREET":"金華路","SECT":"二段","MAREA":" ","LANE":" ","ALLEY":" ","HOUSE_NO":"３３０號","E_COORD97":167140.87,"N_COORD97":2542684.9300000002,"ADDRESS":"金華路二段３３０號","OBJECTID":483099},"geometry":{"x":167140.87000000011,"y":2542684.9299999997}},{"attributes":{"ID":483125,"DIS_CODE":0,"TOWNNAME":"南區","LI":"廣州里","LIN":"25鄰","STREET":"金華路","SECT":"二段","MAREA":" ","LANE":" ","ALLEY":" ","HOUSE_NO":"３３２號","E_COORD97":167139.98000000001,"N_COORD97":2542690.2599999998,"ADDRESS":"金華路二段３３２號","OBJECTID":483100},"geometry":{"x":167139.98000000138,"y":2542690.2600000016}},{"attributes":{"ID":483126,"DIS_CODE":0,"TOWNNAME":"南區","LI":"廣州里","LIN":"25鄰","STREET":"金華路","SECT":"二段","MAREA":" ","LANE":" ","ALLEY":" ","HOUSE_NO":"３３４號","E_COORD97":167140.64999999999,"N_COORD97":2542693.8100000001,"ADDRESS":"金華路二段３３４號","OBJECTID":483101},"geometry":{"x":167140.65000000037,"y":2542693.8100000042}},{"attributes":{"ID":483127,"DIS_CODE":0,"TOWNNAME":"南區","LI":"廣州里","LIN":"25鄰","STREET":"金華路","SECT":"二段","MAREA":" ","LANE":" ","ALLEY":" ","HOUSE_NO":"３３６號","E_COORD97":167141.76000000001,"N_COORD97":2542698.0299999998,"ADDRESS":"金華路二段３３６號","OBJECTID":483102},"geometry":{"x":167141.76000000164,"y":2542698.0300000012}},{"attributes":{"ID":483128,"DIS_CODE":0,"TOWNNAME":"南區","LI":"廣州里","LIN":"25鄰","STREET":"金華路","SECT":"二段","MAREA":" ","LANE":" ","ALLEY":" ","HOUSE_NO":"３３８號","E_COORD97":167142.87,"N_COORD97":2542701.5800000001,"ADDRESS":"金華路二段３３８號","OBJECTID":483103},"geometry":{"x":167142.86999999918,"y":2542701.5800000038}},{"attributes":{"ID":483129,"DIS_CODE":0,"TOWNNAME":"南區","LI":"廣州里","LIN":"25鄰","STREET":"金華路","SECT":"二段","MAREA":" ","LANE":" ","ALLEY":" ","HOUSE_NO":"３４０號","E_COORD97":167143.32000000001,"N_COORD97":2542707.1299999999,"ADDRESS":"金華路二段３４０號","OBJECTID":483104},"geometry":{"x":167143.3200000003,"y":2542707.1300000008}},{"attributes":{"ID":483130,"DIS_CODE":0,"TOWNNAME":"歸仁區","LI":"辜厝里","LIN":"43鄰","STREET":"民權九街","SECT":" ","MAREA":" ","LANE":" ","ALLEY":" ","HOUSE_NO":"４１號","E_COORD97":177063.23999999999,"N_COORD97":2540356.3900000001,"ADDRESS":"民權九街４１號","OBJECTID":483105},"geometry":{"x":177063.24000000115,"y":2540356.3900000006}},{"attributes":{"ID":483131,"DIS_CODE":0,"TOWNNAME":"歸仁區","LI":"看西里","LIN":"4鄰","STREET":"仁愛南街","SECT":" ","MAREA":" ","LANE":" ","ALLEY":" ","HOUSE_NO":"１０４號","E_COORD97":178271.64999999999,"N_COORD97":2540390.29,"ADDRESS":"仁愛南街１０４號","OBJECTID":483106},"geometry":{"x":178271.65000000037,"y":2540390.2900000028}},{"attributes":{"ID":483132,"DIS_CODE":0,"TOWNNAME":"歸仁區","LI":"看西里","LIN":"4鄰","STREET":"仁愛十街","SECT":" ","MAREA":" ","LANE":" ","ALLEY":" ","HOUSE_NO":"８號","E_COORD97":178244.91,"N_COORD97":2540327.2799999998,"ADDRESS":"仁愛十街８號","OBJECTID":483107},"geometry":{"x":178244.91000000108,"y":2540327.2800000012}},{"attributes":{"ID":483133,"DIS_CODE":0,"TOWNNAME":"南區","LI":"廣州里","LIN":"25鄰","STREET":"福吉四街","SECT":" ","MAREA":" ","LANE":" ","ALLEY":" ","HOUSE_NO":"６３號","E_COORD97":167183.32999999999,"N_COORD97":2542707.7999999998,"ADDRESS":"福吉四街６３號","OBJECTID":483108},"geometry":{"x":167183.33000000007,"y":2542707.8000000045}},{"attributes":{"ID":483134,"DIS_CODE":0,"TOWNNAME":"南區","LI":"廣州里","LIN":"25鄰","STREET":"福吉四街","SECT":" ","MAREA":" ","LANE":" ","ALLEY":" ","HOUSE_NO":"６５號","E_COORD97":167181.32999999999,"N_COORD97":2542712.2400000002,"ADDRESS":"福吉四街６５號","OBJECTID":483109},"geometry":{"x":167181.33000000007,"y":2542712.2400000021}},{"attributes":{"ID":483135,"DIS_CODE":0,"TOWNNAME":"南區","LI":"廣州里","LIN":"25鄰","STREET":"福吉四街","SECT":" ","MAREA":" ","LANE":" ","ALLEY":" ","HOUSE_NO":"６７號","E_COORD97":167174.44,"N_COORD97":2542725.7799999998,"ADDRESS":"福吉四街６７號","OBJECTID":483110},"geometry":{"x":167174.44000000041,"y":2542725.7799999993}},{"attributes":{"ID":483136,"DIS_CODE":0,"TOWNNAME":"南區","LI":"廣州里","LIN":"25鄰","STREET":"福吉四街","SECT":" ","MAREA":" ","LANE":" ","ALLEY":" ","HOUSE_NO":"６９號","E_COORD97":167171.10999999999,"N_COORD97":2542722.8999999999,"ADDRESS":"福吉四街６９號","OBJECTID":483111},"geometry":{"x":167171.11000000127,"y":2542722.9000000004}},{"attributes":{"ID":483137,"DIS_CODE":0,"TOWNNAME":"南區","LI":"廣州里","LIN":"25鄰","STREET":"福吉四街","SECT":" ","MAREA":" ","LANE":" ","ALLEY":" ","HOUSE_NO":"７１號","E_COORD97":167168.88,"N_COORD97":2542719.3399999999,"ADDRESS":"福吉四街７１號","OBJECTID":483112},"geometry":{"x":167168.88000000082,"y":2542719.3399999999}},{"attributes":{"ID":483138,"DIS_CODE":0,"TOWNNAME":"南區","LI":"廣州里","LIN":"25鄰","STREET":"福吉四街","SECT":" ","MAREA":" ","LANE":" ","ALLEY":" ","HOUSE_NO":"７３號","E_COORD97":167166.22,"N_COORD97":2542716.2400000002,"ADDRESS":"福吉四街７３號","OBJECTID":483113},"geometry":{"x":167166.22000000067,"y":2542716.2400000002}},{"attributes":{"ID":483139,"DIS_CODE":0,"TOWNNAME":"南區","LI":"廣州里","LIN":"25鄰","STREET":"福吉四街","SECT":" ","MAREA":" ","LANE":" ","ALLEY":" ","HOUSE_NO":"７５號","E_COORD97":167163.54999999999,"N_COORD97":2542713.79,"ADDRESS":"福吉四街７５號","OBJECTID":483114},"geometry":{"x":167163.55000000168,"y":2542713.790000001}},{"attributes":{"ID":483140,"DIS_CODE":0,"TOWNNAME":"南區","LI":"廣州里","LIN":"25鄰","STREET":"福吉五街","SECT":" ","MAREA":" ","LANE":" ","ALLEY":" ","HOUSE_NO":"４８號","E_COORD97":167161.10000000001,"N_COORD97":2542618.54,"ADDRESS":"福吉五街４８號","OBJECTID":483115},"geometry":{"x":167161.0999999987,"y":2542618.5399999991}},{"attributes":{"ID":483141,"DIS_CODE":0,"TOWNNAME":"南區","LI":"廣州里","LIN":"25鄰","STREET":"福吉五街","SECT":" ","MAREA":" ","LANE":" ","ALLEY":" ","HOUSE_NO":"５０號","E_COORD97":167155.32000000001,"N_COORD97":2542617.21,"ADDRESS":"福吉五街５０號","OBJECTID":483116},"geometry":{"x":167155.32000000216,"y":2542617.2100000028}},{"attributes":{"ID":483142,"DIS_CODE":0,"TOWNNAME":"永康區","LI":"西橋里","LIN":"25鄰","STREET":"中華路","SECT":" ","MAREA":" ","LANE":" ","ALLEY":" ","HOUSE_NO":"７７５號","E_COORD97":170670,"N_COORD97":2546538,"ADDRESS":"中華路７７５號","OBJECTID":483117},"geometry":{"x":170670.00000000093,"y":2546538.0000000019}},{"attributes":{"ID":483143,"DIS_CODE":0,"TOWNNAME":"東區","LI":"崇成里","LIN":"25鄰","STREET":"崇明二十三街","SECT":" ","MAREA":" ","LANE":" ","ALLEY":" ","HOUSE_NO":"３３號","E_COORD97":170716.79999999999,"N_COORD97":2540875.8199999998,"ADDRESS":"崇明二十三街３３號","OBJECTID":483118},"geometry":{"x":170716.80000000075,"y":2540875.8200000003}},{"attributes":{"ID":483144,"DIS_CODE":0,"TOWNNAME":"東區","LI":"崇成里","LIN":"25鄰","STREET":"崇明二十三街","SECT":" ","MAREA":" ","LANE":" ","ALLEY":" ","HOUSE_NO":"３５號","E_COORD97":170723.84,"N_COORD97":2540875.8199999998,"ADDRESS":"崇明二十三街３５號","OBJECTID":483119},"geometry":{"x":170723.84000000078,"y":2540875.8200000003}},{"attributes":{"ID":483145,"DIS_CODE":0,"TOWNNAME":"歸仁區","LI":"歸仁里","LIN":"20鄰","STREET":"文化街","SECT":"一段","MAREA":" ","LANE":" ","ALLEY":" ","HOUSE_NO":"９５號","E_COORD97":178038.59,"N_COORD97":2541139.1299999999,"ADDRESS":"文化街一段９５號","OBJECTID":483120},"geometry":{"x":178038.59000000078,"y":2541139.129999999}},{"attributes":{"ID":483146,"DIS_CODE":0,"TOWNNAME":"南區","LI":"田寮里","LIN":"25鄰","STREET":"夏林路","SECT":" ","MAREA":" ","LANE":" ","ALLEY":" ","HOUSE_NO":"３９１號","E_COORD97":167516.42000000001,"N_COORD97":2541829.6800000002,"ADDRESS":"夏林路３９１號","OBJECTID":483121},"geometry":{"x":167516.41999999993,"y":2541829.6800000016}},{"attributes":{"ID":483147,"DIS_CODE":0,"TOWNNAME":"南區","LI":"田寮里","LIN":"25鄰","STREET":"夏林路","SECT":" ","MAREA":" ","LANE":" ","ALLEY":" ","HOUSE_NO":"３８９號","E_COORD97":167517.69,"N_COORD97":2541832.54,"ADDRESS":"夏林路３８９號","OBJECTID":483122},"geometry":{"x":167517.69000000134,"y":2541832.5399999991}},{"attributes":{"ID":483148,"DIS_CODE":0,"TOWNNAME":"南區","LI":"田寮里","LIN":"25鄰","STREET":"夏林路","SECT":" ","MAREA":" ","LANE":" ","ALLEY":" ","HOUSE_NO":"３８９號","E_COORD97":167503.35000000001,"N_COORD97":2541859.8500000001,"ADDRESS":"夏林路３８９號","OBJECTID":483123},"geometry":{"x":167503.34999999963,"y":2541859.8500000015}},{"attributes":{"ID":483149,"DIS_CODE":0,"TOWNNAME":"南區","LI":"田寮里","LIN":"25鄰","STREET":"夏林路","SECT":" ","MAREA":" ","LANE":" ","ALLEY":" ","HOUSE_NO":"３９９號","E_COORD97":167504.78,"N_COORD97":2541819.8399999999,"ADDRESS":"夏林路３９９號","OBJECTID":483124},"geometry":{"x":167504.78000000212,"y":2541819.8399999999}},{"attributes":{"ID":483150,"DIS_CODE":0,"TOWNNAME":"南區","LI":"田寮里","LIN":"25鄰","STREET":"夏林路","SECT":" ","MAREA":" ","LANE":" ","ALLEY":" ","HOUSE_NO":"３９３號","E_COORD97":167503.82999999999,"N_COORD97":2541839.0499999998,"ADDRESS":"夏林路３９３號","OBJECTID":483125},"geometry":{"x":167503.83000000007,"y":2541839.0500000026}},{"attributes":{"ID":483151,"DIS_CODE":0,"TOWNNAME":"南區","LI":"田寮里","LIN":"25鄰","STREET":"夏林路","SECT":" ","MAREA":" ","LANE":" ","ALLEY":" ","HOUSE_NO":"３９１號","E_COORD97":167503.03,"N_COORD97":2541850.1600000001,"ADDRESS":"夏林路３９１號","OBJECTID":483126},"geometry":{"x":167503.03000000212,"y":2541850.1600000039}},{"attributes":{"ID":483152,"DIS_CODE":0,"TOWNNAME":"南區","LI":"田寮里","LIN":"25鄰","STREET":"夏林路","SECT":" ","MAREA":" ","LANE":" ","ALLEY":" ","HOUSE_NO":"３９７號","E_COORD97":167503.98999999999,"N_COORD97":2541827.7799999998,"ADDRESS":"夏林路３９７號","OBJECTID":483127},"geometry":{"x":167503.99000000115,"y":2541827.7799999993}},{"attributes":{"ID":483153,"DIS_CODE":0,"TOWNNAME":"歸仁區","LI":"許厝里","LIN":"8鄰","STREET":"仁愛南街","SECT":" ","MAREA":" ","LANE":" ","ALLEY":" ","HOUSE_NO":"４８號","E_COORD97":178259.32999999999,"N_COORD97":2540538.25,"ADDRESS":"仁愛南街４８號","OBJECTID":483128},"geometry":{"x":178259.33000000101,"y":2540538.2500000019}},{"attributes":{"ID":483154,"DIS_CODE":0,"TOWNNAME":"歸仁區","LI":"南興里","LIN":"35鄰","STREET":"民生一街","SECT":" ","MAREA":" ","LANE":" ","ALLEY":" ","HOUSE_NO":"１３號","E_COORD97":176314.09,"N_COORD97":2541044.29,"ADDRESS":"民生一街１３號","OBJECTID":483129},"geometry":{"x":176314.09000000078,"y":2541044.2899999991}},{"attributes":{"ID":483155,"DIS_CODE":0,"TOWNNAME":"東區","LI":"中西里","LIN":"25鄰","STREET":"東寧路","SECT":" ","MAREA":" ","LANE":" ","ALLEY":" ","HOUSE_NO":"１２２號之１","E_COORD97":170225.59,"N_COORD97":2543589.3199999998,"ADDRESS":"東寧路１２２號之１","OBJECTID":483130},"geometry":{"x":170225.58999999985,"y":2543589.3200000022}},{"attributes":{"ID":483156,"DIS_CODE":0,"TOWNNAME":"歸仁區","LI":"歸仁里","LIN":"5鄰","STREET":"大通路","SECT":" ","MAREA":" ","LANE":" ","ALLEY":" ","HOUSE_NO":"７４號","E_COORD97":177733.88,"N_COORD97":2540899.3399999999,"ADDRESS":"大通路７４號","OBJECTID":483131},"geometry":{"x":177733.87999999989,"y":2540899.3400000036}},{"attributes":{"ID":483157,"DIS_CODE":0,"TOWNNAME":"歸仁區","LI":"看西里","LIN":"18鄰","STREET":"成功五街","SECT":" ","MAREA":" ","LANE":" ","ALLEY":" ","HOUSE_NO":"５６號","E_COORD97":178357.66,"N_COORD97":2539880.3599999999,"ADDRESS":"成功五街５６號","OBJECTID":483132},"geometry":{"x":178357.66000000015,"y":2539880.3599999994}},{"attributes":{"ID":483158,"DIS_CODE":0,"TOWNNAME":"永康區","LI":"\u25A0行里","LIN":"25鄰","STREET":"\u25A0和街","SECT":" ","MAREA":" ","LANE":" ","ALLEY":" ","HOUSE_NO":"２７０號","E_COORD97":171566.20999999999,"N_COORD97":2548407.75,"ADDRESS":"\u25A0和街２７０號","OBJECTID":483133},"geometry":{"x":171566.20999999996,"y":2548407.7500000019}},{"attributes":{"ID":483159,"DIS_CODE":0,"TOWNNAME":"永康區","LI":"\u25A0洲里","LIN":"25鄰","STREET":"中正南路","SECT":" ","MAREA":" ","LANE":" ","ALLEY":" ","HOUSE_NO":"４７１號","E_COORD97":170861.23000000001,"N_COORD97":2548124.6499999999,"ADDRESS":"中正南路４７１號","OBJECTID":483134},"geometry":{"x":170861.23000000045,"y":2548124.6500000004}},{"attributes":{"ID":483160,"DIS_CODE":0,"TOWNNAME":"永康區","LI":"\u25A0行里","LIN":"25鄰","STREET":"\u25A0和街","SECT":" ","MAREA":" ","LANE":" ","ALLEY":" ","HOUSE_NO":"２４４號","E_COORD97":171700.23999999999,"N_COORD97":2548271,"ADDRESS":"\u25A0和街２４４號","OBJECTID":483135},"geometry":{"x":171700.24000000022,"y":2548271}},{"attributes":{"ID":483161,"DIS_CODE":0,"TOWNNAME":"新化區","LI":"東榮里","LIN":"25鄰","STREET":"光明路","SECT":" ","MAREA":" ","LANE":" ","ALLEY":" ","HOUSE_NO":"９０號","E_COORD97":179176.17000000001,"N_COORD97":2548060.25,"ADDRESS":"光明路９０號","OBJECTID":483136},"geometry":{"x":179176.16999999993,"y":2548060.2499999981}},{"attributes":{"ID":483162,"DIS_CODE":0,"TOWNNAME":"西港區","LI":"慶安里","LIN":"25鄰","STREET":"新興街","SECT":" ","MAREA":" ","LANE":" ","ALLEY":" ","HOUSE_NO":"１４號","E_COORD97":168213.38,"N_COORD97":2557851.2000000002,"ADDRESS":"新興街１４號","OBJECTID":483137},"geometry":{"x":168213.37999999989,"y":2557851.1999999974}},{"attributes":{"ID":483163,"DIS_CODE":0,"TOWNNAME":"東區","LI":"忠孝里","LIN":"25鄰","STREET":"崇明四街","SECT":" ","MAREA":" ","LANE":" ","ALLEY":" ","HOUSE_NO":"３號","E_COORD97":169562.57000000001,"N_COORD97":2542286.23,"ADDRESS":"崇明四街３號","OBJECTID":483138},"geometry":{"x":169562.57000000216,"y":2542286.2300000004}},{"attributes":{"ID":483164,"DIS_CODE":0,"TOWNNAME":"東區","LI":"忠孝里","LIN":"25鄰","STREET":"崇明四街","SECT":" ","MAREA":" ","LANE":" ","ALLEY":" ","HOUSE_NO":"７號","E_COORD97":169575.29000000001,"N_COORD97":2542289.5600000001,"ADDRESS":"崇明四街７號","OBJECTID":483139},"geometry":{"x":169575.29000000004,"y":2542289.5600000024}},{"attributes":{"ID":483165,"DIS_CODE":0,"TOWNNAME":"東區","LI":"忠孝里","LIN":"25鄰","STREET":"崇明四街","SECT":" ","MAREA":" ","LANE":" ","ALLEY":" ","HOUSE_NO":"９號","E_COORD97":169581.32999999999,"N_COORD97":2542291.6400000001,"ADDRESS":"崇明四街９號","OBJECTID":483140},"geometry":{"x":169581.33000000101,"y":2542291.6400000043}},{"attributes":{"ID":483166,"DIS_CODE":0,"TOWNNAME":"永康區","LI":"\u25A0行里","LIN":"25鄰","STREET":"\u25A0和街","SECT":" ","MAREA":" ","LANE":" ","ALLEY":" ","HOUSE_NO":"２４０號","E_COORD97":171725.23999999999,"N_COORD97":2548237.9900000002,"ADDRESS":"\u25A0和街２４０號","OBJECTID":483141},"geometry":{"x":171725.24000000022,"y":2548237.9900000002}},{"attributes":{"ID":483167,"DIS_CODE":0,"TOWNNAME":"永康區","LI":"\u25A0洲里","LIN":"25鄰","STREET":"中正南路","SECT":" ","MAREA":" ","LANE":" ","ALLEY":" ","HOUSE_NO":"４１９號","E_COORD97":170772.92999999999,"N_COORD97":2548034.4900000002,"ADDRESS":"中正南路４１９號","OBJECTID":483142},"geometry":{"x":170772.9299999997,"y":2548034.4900000002}},{"attributes":{"ID":483168,"DIS_CODE":0,"TOWNNAME":"永康區","LI":"北灣里","LIN":"25鄰","STREET":"大灣路","SECT":" ","MAREA":" ","LANE":" ","ALLEY":" ","HOUSE_NO":"２０３號","E_COORD97":174992.70000000001,"N_COORD97":2545340.04,"ADDRESS":"大灣路２０３號","OBJECTID":483143},"geometry":{"x":174992.70000000019,"y":2545340.040000001}},{"attributes":{"ID":483169,"DIS_CODE":0,"TOWNNAME":"歸仁區","LI":"南興里","LIN":"36鄰","STREET":"中山路","SECT":"三段","MAREA":" ","LANE":" ","ALLEY":" ","HOUSE_NO":"４０２號","E_COORD97":176010.76000000001,"N_COORD97":2540998.2799999998,"ADDRESS":"中山路三段４０２號","OBJECTID":483144},"geometry":{"x":176010.75999999885,"y":2540998.2800000012}},{"attributes":{"ID":483170,"DIS_CODE":0,"TOWNNAME":"東區","LI":"忠孝里","LIN":"25鄰","STREET":"崇明四街","SECT":" ","MAREA":" ","LANE":" ","ALLEY":" ","HOUSE_NO":"５３號","E_COORD97":169690.23000000001,"N_COORD97":2542334.6099999999,"ADDRESS":"崇明四街５３號","OBJECTID":483145},"geometry":{"x":169690.23000000045,"y":2542334.6100000031}},{"attributes":{"ID":483171,"DIS_CODE":0,"TOWNNAME":"東區","LI":"忠孝里","LIN":"25鄰","STREET":"崇明路","SECT":" ","MAREA":" ","LANE":" ","ALLEY":" ","HOUSE_NO":"７４號","E_COORD97":169697.22,"N_COORD97":2542338,"ADDRESS":"崇明路７４號","OBJECTID":483146},"geometry":{"x":169697.22000000067,"y":2542338}},{"attributes":{"ID":483172,"DIS_CODE":0,"TOWNNAME":"東區","LI":"忠孝里","LIN":"25鄰","STREET":"崇明路","SECT":" ","MAREA":" ","LANE":" ","ALLEY":" ","HOUSE_NO":"７６號","E_COORD97":169699.35000000001,"N_COORD97":2542334.3799999999,"ADDRESS":"崇明路７６號","OBJECTID":483147},"geometry":{"x":169699.35000000056,"y":2542334.379999999}},{"attributes":{"ID":483173,"DIS_CODE":0,"TOWNNAME":"東區","LI":"忠孝里","LIN":"25鄰","STREET":"崇明路","SECT":" ","MAREA":" ","LANE":" ","ALLEY":" ","HOUSE_NO":"７８號","E_COORD97":169701.70000000001,"N_COORD97":2542329.6899999999,"ADDRESS":"崇明路７８號","OBJECTID":483148},"geometry":{"x":169701.70000000019,"y":2542329.6899999995}},{"attributes":{"ID":483174,"DIS_CODE":0,"TOWNNAME":"東區","LI":"忠孝里","LIN":"25鄰","STREET":"崇明四街","SECT":" ","MAREA":" ","LANE":" ","ALLEY":" ","HOUSE_NO":"４９號","E_COORD97":169682.10000000001,"N_COORD97":2542330.6600000001,"ADDRESS":"崇明四街４９號","OBJECTID":483149},"geometry":{"x":169682.10000000056,"y":2542330.6600000001}},{"attributes":{"ID":483175,"DIS_CODE":0,"TOWNNAME":"東區","LI":"忠孝里","LIN":"25鄰","STREET":"崇明四街","SECT":" ","MAREA":" ","LANE":" ","ALLEY":" ","HOUSE_NO":"５１號","E_COORD97":169686.26000000001,"N_COORD97":2542332.1200000001,"ADDRESS":"崇明四街５１號","OBJECTID":483150},"geometry":{"x":169686.26000000071,"y":2542332.120000001}},{"attributes":{"ID":483176,"DIS_CODE":0,"TOWNNAME":"東區","LI":"忠孝里","LIN":"25鄰","STREET":"崇明三街","SECT":" ","MAREA":" ","LANE":" ","ALLEY":" ","HOUSE_NO":"５８號","E_COORD97":169669.17000000001,"N_COORD97":2542357.5800000001,"ADDRESS":"崇明三街５８號","OBJECTID":483151},"geometry":{"x":169669.16999999993,"y":2542357.5800000001}},{"attributes":{"ID":483177,"DIS_CODE":0,"TOWNNAME":"東區","LI":"忠孝里","LIN":"25鄰","STREET":"崇明三街","SECT":" ","MAREA":" ","LANE":" ","ALLEY":" ","HOUSE_NO":"６０號","E_COORD97":169671.88,"N_COORD97":2542358.4100000001,"ADDRESS":"崇明三街６０號","OBJECTID":483152},"geometry":{"x":169671.88000000175,"y":2542358.410000002}},{"attributes":{"ID":483178,"DIS_CODE":0,"TOWNNAME":"東區","LI":"忠孝里","LIN":"25鄰","STREET":"崇明路","SECT":" ","MAREA":" ","LANE":" ","ALLEY":" ","HOUSE_NO":"６８號","E_COORD97":169690.60999999999,"N_COORD97":2542349.5099999998,"ADDRESS":"崇明路６８號","OBJECTID":483153},"geometry":{"x":169690.61000000034,"y":2542349.5100000016}},{"attributes":{"ID":483179,"DIS_CODE":0,"TOWNNAME":"東區","LI":"忠孝里","LIN":"25鄰","STREET":"崇明路","SECT":" ","MAREA":" ","LANE":" ","ALLEY":" ","HOUSE_NO":"７０號","E_COORD97":169692.31,"N_COORD97":2542346.5299999998,"ADDRESS":"崇明路７０號","OBJECTID":483154},"geometry":{"x":169692.31000000145,"y":2542346.5300000012}},{"attributes":{"ID":483180,"DIS_CODE":0,"TOWNNAME":"東區","LI":"忠孝里","LIN":"25鄰","STREET":"崇明路","SECT":" ","MAREA":" ","LANE":" ","ALLEY":" ","HOUSE_NO":"６０號","E_COORD97":169682.70999999999,"N_COORD97":2542363.5699999998,"ADDRESS":"崇明路６０號","OBJECTID":483155},"geometry":{"x":169682.70999999996,"y":2542363.5700000022}},{"attributes":{"ID":483181,"DIS_CODE":0,"TOWNNAME":"東區","LI":"忠孝里","LIN":"25鄰","STREET":"崇明路","SECT":" ","MAREA":" ","LANE":" ","ALLEY":" ","HOUSE_NO":"６２號","E_COORD97":169684.20000000001,"N_COORD97":2542360.5899999999,"ADDRESS":"崇明路６２號","OBJECTID":483156},"geometry":{"x":169684.20000000112,"y":2542360.5899999999}},{"attributes":{"ID":483182,"DIS_CODE":0,"TOWNNAME":"東區","LI":"忠孝里","LIN":"25鄰","STREET":"崇明路","SECT":" ","MAREA":" ","LANE":" ","ALLEY":" ","HOUSE_NO":"６４號","E_COORD97":169686.34,"N_COORD97":2542356.75,"ADDRESS":"崇明路６４號","OBJECTID":483157},"geometry":{"x":169686.34000000078,"y":2542356.75}},{"attributes":{"ID":483183,"DIS_CODE":0,"TOWNNAME":"東區","LI":"忠孝里","LIN":"25鄰","STREET":"崇明路","SECT":" ","MAREA":" ","LANE":" ","ALLEY":" ","HOUSE_NO":"６６號","E_COORD97":169688.47,"N_COORD97":2542353.3500000001,"ADDRESS":"崇明路６６號","OBJECTID":483158},"geometry":{"x":169688.47000000067,"y":2542353.3500000034}},{"attributes":{"ID":483184,"DIS_CODE":0,"TOWNNAME":"永康區","LI":"中華里","LIN":"25鄰","STREET":"忠義街","SECT":" ","MAREA":" ","LANE":" ","ALLEY":" ","HOUSE_NO":"６５號","E_COORD97":171706.64999999999,"N_COORD97":2544603.6499999999,"ADDRESS":"忠義街６５號","OBJECTID":483159},"geometry":{"x":171706.6500000013,"y":2544603.6500000041}},{"attributes":{"ID":483185,"DIS_CODE":0,"TOWNNAME":"永康區","LI":"中華里","LIN":"25鄰","STREET":"忠義街","SECT":" ","MAREA":" ","LANE":" ","ALLEY":" ","HOUSE_NO":"７９號","E_COORD97":171711.63,"N_COORD97":2544637.77,"ADDRESS":"忠義街７９號","OBJECTID":483160},"geometry":{"x":171711.63000000082,"y":2544637.7699999996}},{"attributes":{"ID":483186,"DIS_CODE":0,"TOWNNAME":"安南區","LI":"新順里","LIN":"25鄰","STREET":"興安路","SECT":" ","MAREA":" ","LANE":" ","ALLEY":" ","HOUSE_NO":"９８號","E_COORD97":169422.95000000001,"N_COORD97":2549120,"ADDRESS":"興安路９８號","OBJECTID":483161},"geometry":{"x":169422.95000000112,"y":2549120.0000000037}},{"attributes":{"ID":483187,"DIS_CODE":0,"TOWNNAME":"安南區","LI":"新順里","LIN":"25鄰","STREET":"興安路","SECT":" ","MAREA":" ","LANE":" ","ALLEY":" ","HOUSE_NO":"１００號","E_COORD97":169418.70000000001,"N_COORD97":2549121.3199999998,"ADDRESS":"興安路１００號","OBJECTID":483162},"geometry":{"x":169418.70000000019,"y":2549121.3199999984}},{"attributes":{"ID":483188,"DIS_CODE":0,"TOWNNAME":"安南區","LI":"新順里","LIN":"25鄰","STREET":"慶安路","SECT":" ","MAREA":" ","LANE":" ","ALLEY":" ","HOUSE_NO":"６５號","E_COORD97":169475.04999999999,"N_COORD97":2549145.23,"ADDRESS":"慶安路６５號","OBJECTID":483163},"geometry":{"x":169475.04999999981,"y":2549145.2300000004}},{"attributes":{"ID":483189,"DIS_CODE":0,"TOWNNAME":"安南區","LI":"新順里","LIN":"25鄰","STREET":"慶安路","SECT":" ","MAREA":" ","LANE":" ","ALLEY":" ","HOUSE_NO":"６７號","E_COORD97":169474.51999999999,"N_COORD97":2549151.0699999998,"ADDRESS":"慶安路６７號","OBJECTID":483164},"geometry":{"x":169474.52000000048,"y":2549151.0700000022}},{"attributes":{"ID":483190,"DIS_CODE":0,"TOWNNAME":"東區","LI":"莊敬里","LIN":"25鄰","STREET":"東平路","SECT":" ","MAREA":" ","LANE":" ","ALLEY":" ","HOUSE_NO":"７２號","E_COORD97":171229.5,"N_COORD97":2543954.3199999998,"ADDRESS":"東平路７２號","OBJECTID":483165},"geometry":{"x":171229.50000000093,"y":2543954.3199999984}},{"attributes":{"ID":483191,"DIS_CODE":0,"TOWNNAME":"永康區","LI":"龍潭里","LIN":"25鄰","STREET":"龍昌街","SECT":" ","MAREA":" ","LANE":" ","ALLEY":" ","HOUSE_NO":"３７號","E_COORD97":175000.81,"N_COORD97":2547837.3999999999,"ADDRESS":"龍昌街３７號","OBJECTID":483166},"geometry":{"x":175000.81000000052,"y":2547837.4000000022}},{"attributes":{"ID":483192,"DIS_CODE":0,"TOWNNAME":"東區","LI":"莊敬里","LIN":"25鄰","STREET":"東光路","SECT":"二段","MAREA":" ","LANE":" ","ALLEY":" ","HOUSE_NO":"２號","E_COORD97":171214.39000000001,"N_COORD97":2543971.4199999999,"ADDRESS":"東光路二段２號","OBJECTID":483167},"geometry":{"x":171214.3900000006,"y":2543971.4200000018}},{"attributes":{"ID":483193,"DIS_CODE":0,"TOWNNAME":"東區","LI":"後甲里","LIN":"25鄰","STREET":"中華東路","SECT":"一段","MAREA":" ","LANE":" ","ALLEY":" ","HOUSE_NO":"１９７號","E_COORD97":171463.64999999999,"N_COORD97":2543414.1699999999,"ADDRESS":"中華東路一段１９７號","OBJECTID":483168},"geometry":{"x":171463.65000000037,"y":2543414.1700000018}},{"attributes":{"ID":483194,"DIS_CODE":0,"TOWNNAME":"東區","LI":"崇德里","LIN":"25鄰","STREET":"崇道路","SECT":" ","MAREA":" ","LANE":" ","ALLEY":" ","HOUSE_NO":"１１號","E_COORD97":170621.51000000001,"N_COORD97":2541421.7200000002,"ADDRESS":"崇道路１１號","OBJECTID":483169},"geometry":{"x":170621.50999999978,"y":2541421.7200000007}},{"attributes":{"ID":483195,"DIS_CODE":0,"TOWNNAME":"歸仁區","LI":"歸仁里","LIN":"20鄰","STREET":"忠孝北路","SECT":" ","MAREA":" ","LANE":" ","ALLEY":" ","HOUSE_NO":"１６７號","E_COORD97":178158.59,"N_COORD97":2541129.1099999999,"ADDRESS":"忠孝北路１６７號","OBJECTID":483170},"geometry":{"x":178158.59000000078,"y":2541129.1100000013}},{"attributes":{"ID":483196,"DIS_CODE":0,"TOWNNAME":"永康區","LI":"北灣里","LIN":"25鄰","STREET":"大灣路","SECT":" ","MAREA":" ","LANE":" ","ALLEY":" ","HOUSE_NO":"１７３號","E_COORD97":175033.01999999999,"N_COORD97":2545404.8399999999,"ADDRESS":"大灣路１７３號","OBJECTID":483171},"geometry":{"x":175033.02000000048,"y":2545404.839999998}},{"attributes":{"ID":483197,"DIS_CODE":0,"TOWNNAME":"歸仁區","LI":"南保里","LIN":"34鄰","STREET":"民權八街","SECT":" ","MAREA":" ","LANE":" ","ALLEY":" ","HOUSE_NO":"８２號","E_COORD97":176750.79000000001,"N_COORD97":2541008.29,"ADDRESS":"民權八街８２號","OBJECTID":483172},"geometry":{"x":176750.79000000097,"y":2541008.290000001}},{"attributes":{"ID":483198,"DIS_CODE":0,"TOWNNAME":"東區","LI":"崇成里","LIN":"25鄰","STREET":"崇德路","SECT":" ","MAREA":" ","LANE":" ","ALLEY":" ","HOUSE_NO":"６７６號","E_COORD97":170776.17999999999,"N_COORD97":2540885.2599999998,"ADDRESS":"崇德路６７６號","OBJECTID":483173},"geometry":{"x":170776.1799999997,"y":2540885.2599999998}},{"attributes":{"ID":483199,"DIS_CODE":0,"TOWNNAME":"東區","LI":"崇成里","LIN":"25鄰","STREET":"崇德路","SECT":" ","MAREA":" ","LANE":" ","ALLEY":" ","HOUSE_NO":"６７８號","E_COORD97":170776.10000000001,"N_COORD97":2540876.1299999999,"ADDRESS":"崇德路６７８號","OBJECTID":483174},"geometry":{"x":170776.10000000056,"y":2540876.1300000027}},{"attributes":{"ID":483200,"DIS_CODE":0,"TOWNNAME":"東區","LI":"崇成里","LIN":"25鄰","STREET":"崇德路","SECT":" ","MAREA":" ","LANE":" ","ALLEY":" ","HOUSE_NO":"６８０號","E_COORD97":170768.72,"N_COORD97":2540857.9100000001,"ADDRESS":"崇德路６８０號","OBJECTID":483175},"geometry":{"x":170768.72000000067,"y":2540857.9100000001}},{"attributes":{"ID":483201,"DIS_CODE":0,"TOWNNAME":"東區","LI":"崇成里","LIN":"25鄰","STREET":"崇德路","SECT":" ","MAREA":" ","LANE":" ","ALLEY":" ","HOUSE_NO":"６８６號","E_COORD97":170777.25,"N_COORD97":2540832.0899999999,"ADDRESS":"崇德路６８６號","OBJECTID":483176},"geometry":{"x":170777.25000000093,"y":2540832.0899999999}},{"attributes":{"ID":483202,"DIS_CODE":0,"TOWNNAME":"東區","LI":"崇成里","LIN":"25鄰","STREET":"崇明二十三街","SECT":" ","MAREA":" ","LANE":" ","ALLEY":" ","HOUSE_NO":"２５號","E_COORD97":170695.38,"N_COORD97":2540881.3500000001,"ADDRESS":"崇明二十三街２５號","OBJECTID":483177},"geometry":{"x":170695.37999999989,"y":2540881.3499999996}},{"attributes":{"ID":483203,"DIS_CODE":0,"TOWNNAME":"東區","LI":"崇成里","LIN":"25鄰","STREET":"崇明二十三街","SECT":" ","MAREA":" ","LANE":" ","ALLEY":" ","HOUSE_NO":"２７號","E_COORD97":170708.34,"N_COORD97":2540880.48,"ADDRESS":"崇明二十三街２７號","OBJECTID":483178},"geometry":{"x":170708.34000000078,"y":2540880.4800000004}},{"attributes":{"ID":483204,"DIS_CODE":0,"TOWNNAME":"東區","LI":"崇成里","LIN":"25鄰","STREET":"崇明二十三街","SECT":" ","MAREA":" ","LANE":" ","ALLEY":" ","HOUSE_NO":"３０號","E_COORD97":170683.79000000001,"N_COORD97":2540852.6099999999,"ADDRESS":"崇明二十三街３０號","OBJECTID":483179},"geometry":{"x":170683.79000000097,"y":2540852.6099999975}},{"attributes":{"ID":483205,"DIS_CODE":0,"TOWNNAME":"東區","LI":"崇成里","LIN":"25鄰","STREET":"崇明二十三街","SECT":" ","MAREA":" ","LANE":" ","ALLEY":" ","HOUSE_NO":"３２號","E_COORD97":170688.92000000001,"N_COORD97":2540852.52,"ADDRESS":"崇明二十三街３２號","OBJECTID":483180},"geometry":{"x":170688.92000000086,"y":2540852.5199999996}},{"attributes":{"ID":483206,"DIS_CODE":0,"TOWNNAME":"東區","LI":"崇成里","LIN":"25鄰","STREET":"崇明二十三街","SECT":" ","MAREA":" ","LANE":" ","ALLEY":" ","HOUSE_NO":"３４號","E_COORD97":170694.57999999999,"N_COORD97":2540852.6099999999,"ADDRESS":"崇明二十三街３４號","OBJECTID":483181},"geometry":{"x":170694.58000000194,"y":2540852.6099999975}},{"attributes":{"ID":483207,"DIS_CODE":0,"TOWNNAME":"歸仁區","LI":"看西里","LIN":"17鄰","STREET":"成功五街","SECT":" ","MAREA":" ","LANE":" ","ALLEY":" ","HOUSE_NO":"７號","E_COORD97":178316.91,"N_COORD97":2539974.3599999999,"ADDRESS":"成功五街７號","OBJECTID":483182},"geometry":{"x":178316.91000000015,"y":2539974.3600000013}},{"attributes":{"ID":483208,"DIS_CODE":0,"TOWNNAME":"東區","LI":"崇成里","LIN":"25鄰","STREET":"崇明二十三街","SECT":" ","MAREA":" ","LANE":" ","ALLEY":" ","HOUSE_NO":"３６號","E_COORD97":170699.70999999999,"N_COORD97":2540852.52,"ADDRESS":"崇明二十三街３６號","OBJECTID":483183},"geometry":{"x":170699.70999999996,"y":2540852.5199999996}},{"attributes":{"ID":483209,"DIS_CODE":0,"TOWNNAME":"東區","LI":"崇成里","LIN":"25鄰","STREET":"崇明二十三街","SECT":" ","MAREA":" ","LANE":" ","ALLEY":" ","HOUSE_NO":"４５號","E_COORD97":170748.60000000001,"N_COORD97":2540881.1699999999,"ADDRESS":"崇明二十三街４５號","OBJECTID":483184},"geometry":{"x":170748.60000000056,"y":2540881.1700000018}},{"attributes":{"ID":483210,"DIS_CODE":0,"TOWNNAME":"東區","LI":"崇成里","LIN":"25鄰","STREET":"崇明二十三街","SECT":" ","MAREA":" ","LANE":" ","ALLEY":" ","HOUSE_NO":"４６號","E_COORD97":170725.98999999999,"N_COORD97":2540851.6499999999,"ADDRESS":"崇明二十三街４６號","OBJECTID":483185},"geometry":{"x":170725.99000000209,"y":2540851.6500000022}},{"attributes":{"ID":483211,"DIS_CODE":0,"TOWNNAME":"東區","LI":"崇成里","LIN":"25鄰","STREET":"崇明二十三街","SECT":" ","MAREA":" ","LANE":" ","ALLEY":" ","HOUSE_NO":"４８號","E_COORD97":170732.31,"N_COORD97":2540851.7400000002,"ADDRESS":"崇明二十三街４８號","OBJECTID":483186},"geometry":{"x":170732.31000000052,"y":2540851.7400000002}},{"attributes":{"ID":483212,"DIS_CODE":0,"TOWNNAME":"東區","LI":"崇成里","LIN":"25鄰","STREET":"崇明二十三街","SECT":" ","MAREA":" ","LANE":" ","ALLEY":" ","HOUSE_NO":"５０號","E_COORD97":170739.35999999999,"N_COORD97":2540851.8199999998,"ADDRESS":"崇明二十三街５０號","OBJECTID":483187},"geometry":{"x":170739.36000000127,"y":2540851.8200000003}},{"attributes":{"ID":483213,"DIS_CODE":0,"TOWNNAME":"東區","LI":"崇成里","LIN":"25鄰","STREET":"崇明二十三街","SECT":" ","MAREA":" ","LANE":" ","ALLEY":" ","HOUSE_NO":"５４號","E_COORD97":170746.14000000001,"N_COORD97":2540851.5600000001,"ADDRESS":"崇明二十三街５４號","OBJECTID":483188},"geometry":{"x":170746.13999999966,"y":2540851.5600000024}},{"attributes":{"ID":483214,"DIS_CODE":0,"TOWNNAME":"東區","LI":"崇成里","LIN":"25鄰","STREET":"崇明二十三街","SECT":" ","MAREA":" ","LANE":" ","ALLEY":" ","HOUSE_NO":"５６號","E_COORD97":170754.23999999999,"N_COORD97":2540851.6499999999,"ADDRESS":"崇明二十三街５６號","OBJECTID":483189},"geometry":{"x":170754.24000000022,"y":2540851.6500000022}},{"attributes":{"ID":483215,"DIS_CODE":0,"TOWNNAME":"東區","LI":"崇成里","LIN":"25鄰","STREET":"崇明二十四街","SECT":" ","MAREA":" ","LANE":" ","ALLEY":" ","HOUSE_NO":"１７號","E_COORD97":170645.54999999999,"N_COORD97":2540831.6099999999,"ADDRESS":"崇明二十四街１７號","OBJECTID":483190},"geometry":{"x":170645.55000000075,"y":2540831.6099999994}},{"attributes":{"ID":483216,"DIS_CODE":0,"TOWNNAME":"東區","LI":"崇成里","LIN":"25鄰","STREET":"崇明二十四街","SECT":" ","MAREA":" ","LANE":" ","ALLEY":" ","HOUSE_NO":"２１號","E_COORD97":170653.70000000001,"N_COORD97":2540831.7599999998,"ADDRESS":"崇明二十四街２１號","OBJECTID":483191},"geometry":{"x":170653.70000000112,"y":2540831.7599999979}},{"attributes":{"ID":483217,"DIS_CODE":0,"TOWNNAME":"東區","LI":"崇成里","LIN":"25鄰","STREET":"崇明二十四街","SECT":" ","MAREA":" ","LANE":" ","ALLEY":" ","HOUSE_NO":"２３號","E_COORD97":170659.13,"N_COORD97":2540831.52,"ADDRESS":"崇明二十四街２３號","OBJECTID":483192},"geometry":{"x":170659.13000000082,"y":2540831.5200000014}},{"attributes":{"ID":483218,"DIS_CODE":0,"TOWNNAME":"東區","LI":"崇成里","LIN":"25鄰","STREET":"崇明二十四街","SECT":" ","MAREA":" ","LANE":" ","ALLEY":" ","HOUSE_NO":"２９號","E_COORD97":170684.14000000001,"N_COORD97":2540831.48,"ADDRESS":"崇明二十四街２９號","OBJECTID":483193},"geometry":{"x":170684.1400000006,"y":2540831.4800000023}},{"attributes":{"ID":483219,"DIS_CODE":0,"TOWNNAME":"東區","LI":"崇成里","LIN":"25鄰","STREET":"崇明二十四街","SECT":" ","MAREA":" ","LANE":" ","ALLEY":" ","HOUSE_NO":"３１號","E_COORD97":170689.01000000001,"N_COORD97":2540831.5699999998,"ADDRESS":"崇明二十四街３１號","OBJECTID":483194},"geometry":{"x":170689.00999999978,"y":2540831.5700000022}},{"attributes":{"ID":483220,"DIS_CODE":0,"TOWNNAME":"東區","LI":"崇成里","LIN":"25鄰","STREET":"崇明二十四街","SECT":" ","MAREA":" ","LANE":" ","ALLEY":" ","HOUSE_NO":"５５號","E_COORD97":170751.10999999999,"N_COORD97":2540827.6400000001,"ADDRESS":"崇明二十四街５５號","OBJECTID":483195},"geometry":{"x":170751.11000000127,"y":2540827.6400000025}},{"attributes":{"ID":483221,"DIS_CODE":0,"TOWNNAME":"東區","LI":"崇成里","LIN":"25鄰","STREET":"崇明二十四街","SECT":" ","MAREA":" ","LANE":" ","ALLEY":" ","HOUSE_NO":"６５號","E_COORD97":170772.81,"N_COORD97":2540826.9500000002,"ADDRESS":"崇明二十四街６５號","OBJECTID":483196},"geometry":{"x":170772.81000000052,"y":2540826.9500000011}},{"attributes":{"ID":483222,"DIS_CODE":0,"TOWNNAME":"永康區","LI":"北灣里","LIN":"25鄰","STREET":"大灣路","SECT":" ","MAREA":" ","LANE":" ","ALLEY":" ","HOUSE_NO":"１６９號","E_COORD97":175037.32000000001,"N_COORD97":2545408.8700000001,"ADDRESS":"大灣路１６９號","OBJECTID":483197},"geometry":{"x":175037.3200000003,"y":2545408.870000001}},{"attributes":{"ID":483223,"DIS_CODE":0,"TOWNNAME":"永康區","LI":"\u25A0洲里","LIN":"25鄰","STREET":"中正南路","SECT":" ","MAREA":" ","LANE":" ","ALLEY":" ","HOUSE_NO":"４６７號","E_COORD97":170855.26999999999,"N_COORD97":2548118.3999999999,"ADDRESS":"中正南路４６７號","OBJECTID":483198},"geometry":{"x":170855.26999999955,"y":2548118.4000000022}},{"attributes":{"ID":483224,"DIS_CODE":0,"TOWNNAME":"永康區","LI":"網寮里","LIN":"25鄰","STREET":"永春街","SECT":" ","MAREA":" ","LANE":" ","ALLEY":" ","HOUSE_NO":"１００號","E_COORD97":173741.17000000001,"N_COORD97":2546582.98,"ADDRESS":"永春街１００號","OBJECTID":483199},"geometry":{"x":173741.16999999993,"y":2546582.9800000004}},{"attributes":{"ID":483225,"DIS_CODE":0,"TOWNNAME":"永康區","LI":"\u25A0洲里","LIN":"25鄰","STREET":"國聖街","SECT":" ","MAREA":" ","LANE":" ","ALLEY":" ","HOUSE_NO":"１７５號","E_COORD97":170690.39999999999,"N_COORD97":2548299.5,"ADDRESS":"國聖街１７５號","OBJECTID":483200},"geometry":{"x":170690.40000000037,"y":2548299.5000000037}}]}