{"displayFieldName":"TOWNNAME","fieldAliases":{"ID":"ID","DIS_CODE":"DIS_CODE","TOWNNAME":"TOWNNAME","LI":"LI","LIN":"LIN","STREET":"STREET","SECT":"SECT","MAREA":"MAREA","LANE":"LANE","ALLEY":"ALLEY","HOUSE_NO":"HOUSE_NO","E_COORD97":"E_COORD97","N_COORD97":"N_COORD97","ADDRESS":"ADDRESS","OBJECTID":"OBJECTID"},"geometryType":"esriGeometryPoint","spatialReference":{"wkid":102443,"latestWkid":3826},"fields":[{"name":"ID","type":"esriFieldTypeDouble","alias":"ID"},{"name":"DIS_CODE","type":"esriFieldTypeInteger","alias":"DIS_CODE"},{"name":"TOWNNAME","type":"esriFieldTypeString","alias":"TOWNNAME","length":8},{"name":"LI","type":"esriFieldTypeString","alias":"LI","length":8},{"name":"LIN","type":"esriFieldTypeString","alias":"LIN","length":12},{"name":"STREET","type":"esriFieldTypeString","alias":"STREET","length":20},{"name":"SECT","type":"esriFieldTypeString","alias":"SECT","length":8},{"name":"MAREA","type":"esriFieldTypeString","alias":"MAREA","length":12},{"name":"LANE","type":"esriFieldTypeString","alias":"LANE","length":10},{"name":"ALLEY","type":"esriFieldTypeString","alias":"ALLEY","length":10},{"name":"HOUSE_NO","type":"esriFieldTypeString","alias":"HOUSE_NO","length":20},{"name":"E_COORD97","type":"esriFieldTypeDouble","alias":"E_COORD97"},{"name":"N_COORD97","type":"esriFieldTypeDouble","alias":"N_COORD97"},{"name":"ADDRESS","type":"esriFieldTypeString","alias":"ADDRESS","length":50},{"name":"OBJECTID","type":"esriFieldTypeOID","alias":"OBJECTID"}],"features":[{"attributes":{"ID":386825,"DIS_CODE":0,"TOWNNAME":"永康區","LI":"成功里","LIN":"37鄰","STREET":"中華路","SECT":" ","MAREA":" ","LANE":"１５４巷","ALLEY":" ","HOUSE_NO":"７５號","E_COORD97":171801.42000000001,"N_COORD97":2544912.2400000002,"ADDRESS":"中華路１５４巷７５號","OBJECTID":386801},"geometry":{"x":171801.42000000086,"y":2544912.2400000021}},{"attributes":{"ID":386826,"DIS_CODE":0,"TOWNNAME":"西港區","LI":"慶安里","LIN":"28鄰","STREET":"新興街","SECT":" ","MAREA":" ","LANE":"１５巷","ALLEY":" ","HOUSE_NO":"７號","E_COORD97":168134.28,"N_COORD97":2557747.8399999999,"ADDRESS":"新興街１５巷７號","OBJECTID":386802},"geometry":{"x":168134.28000000119,"y":2557747.8399999999}},{"attributes":{"ID":386827,"DIS_CODE":0,"TOWNNAME":"永康區","LI":"成功里","LIN":"37鄰","STREET":"中華路","SECT":" ","MAREA":" ","LANE":"１５４巷","ALLEY":" ","HOUSE_NO":"７３號","E_COORD97":171797.89000000001,"N_COORD97":2544912.4900000002,"ADDRESS":"中華路１５４巷７３號","OBJECTID":386803},"geometry":{"x":171797.8900000006,"y":2544912.4900000002}},{"attributes":{"ID":386828,"DIS_CODE":0,"TOWNNAME":"永康區","LI":"成功里","LIN":"37鄰","STREET":"中華路","SECT":" ","MAREA":" ","LANE":"１５４巷","ALLEY":" ","HOUSE_NO":"８５號","E_COORD97":171821.12,"N_COORD97":2544908.4900000002,"ADDRESS":"中華路１５４巷８５號","OBJECTID":386804},"geometry":{"x":171821.12000000011,"y":2544908.4900000002}},{"attributes":{"ID":386829,"DIS_CODE":0,"TOWNNAME":"永康區","LI":"永康里","LIN":"37鄰","STREET":"西勢路","SECT":" ","MAREA":" ","LANE":"７３８巷","ALLEY":" ","HOUSE_NO":"９號","E_COORD97":174533.17000000001,"N_COORD97":2546790.4199999999,"ADDRESS":"西勢路７３８巷９號","OBJECTID":386805},"geometry":{"x":174533.16999999993,"y":2546790.4199999999}},{"attributes":{"ID":386830,"DIS_CODE":0,"TOWNNAME":"永康區","LI":"永康里","LIN":"37鄰","STREET":"西勢路","SECT":" ","MAREA":" ","LANE":"７３８巷","ALLEY":" ","HOUSE_NO":"５３號","E_COORD97":174510.35000000001,"N_COORD97":2546892.6299999999,"ADDRESS":"西勢路７３８巷５３號","OBJECTID":386806},"geometry":{"x":174510.35000000056,"y":2546892.629999999}},{"attributes":{"ID":386831,"DIS_CODE":0,"TOWNNAME":"永康區","LI":"永康里","LIN":"37鄰","STREET":"西勢路","SECT":" ","MAREA":" ","LANE":"７３８巷","ALLEY":" ","HOUSE_NO":"４７號","E_COORD97":174513.98999999999,"N_COORD97":2546880.1299999999,"ADDRESS":"西勢路７３８巷４７號","OBJECTID":386807},"geometry":{"x":174513.99000000022,"y":2546880.1299999971}},{"attributes":{"ID":386832,"DIS_CODE":0,"TOWNNAME":"中西區","LI":"西湖里","LIN":"37鄰","STREET":"和緯路","SECT":"五段","MAREA":" ","LANE":"８９巷","ALLEY":" ","HOUSE_NO":"８７號","E_COORD97":166404.79999999999,"N_COORD97":2545009.7000000002,"ADDRESS":"和緯路五段８９巷８７號","OBJECTID":386808},"geometry":{"x":166404.80000000075,"y":2545009.7000000011}},{"attributes":{"ID":386833,"DIS_CODE":0,"TOWNNAME":"仁德區","LI":"仁義里","LIN":"37鄰","STREET":"仁義六街","SECT":" ","MAREA":" ","LANE":"５６巷","ALLEY":" ","HOUSE_NO":"３９號","E_COORD97":173584.04000000001,"N_COORD97":2540026.52,"ADDRESS":"仁義六街５６巷３９號","OBJECTID":386809},"geometry":{"x":173584.04000000097,"y":2540026.5200000033}},{"attributes":{"ID":386834,"DIS_CODE":0,"TOWNNAME":"仁德區","LI":"仁義里","LIN":"37鄰","STREET":"仁義六街","SECT":" ","MAREA":" ","LANE":"５６巷","ALLEY":" ","HOUSE_NO":"４９號","E_COORD97":173577.32000000001,"N_COORD97":2540007.77,"ADDRESS":"仁義六街５６巷４９號","OBJECTID":386810},"geometry":{"x":173577.32000000123,"y":2540007.7700000033}},{"attributes":{"ID":386835,"DIS_CODE":0,"TOWNNAME":"仁德區","LI":"太子里","LIN":"29鄰","STREET":"太子四街","SECT":" ","MAREA":" ","LANE":"３１巷","ALLEY":" ","HOUSE_NO":"７號","E_COORD97":173108.552455,"N_COORD97":2543049.6868099999,"ADDRESS":"太子四街３１巷７號","OBJECTID":386811},"geometry":{"x":173108.55245500151,"y":2543049.6868089996}},{"attributes":{"ID":386836,"DIS_CODE":0,"TOWNNAME":"仁德區","LI":"仁義里","LIN":"37鄰","STREET":"仁義六街","SECT":" ","MAREA":" ","LANE":"５６巷","ALLEY":" ","HOUSE_NO":"１３號","E_COORD97":173601.84,"N_COORD97":2540075.7599999998,"ADDRESS":"仁義六街５６巷１３號","OBJECTID":386812},"geometry":{"x":173601.84000000078,"y":2540075.7600000035}},{"attributes":{"ID":386837,"DIS_CODE":0,"TOWNNAME":"仁德區","LI":"仁義里","LIN":"37鄰","STREET":"仁義六街","SECT":" ","MAREA":" ","LANE":"５６巷","ALLEY":" ","HOUSE_NO":"２１號","E_COORD97":173596.64000000001,"N_COORD97":2540060.7599999998,"ADDRESS":"仁義六街５６巷２１號","OBJECTID":386813},"geometry":{"x":173596.6400000006,"y":2540060.7599999998}},{"attributes":{"ID":386838,"DIS_CODE":0,"TOWNNAME":"仁德區","LI":"仁義里","LIN":"37鄰","STREET":"仁義六街","SECT":" ","MAREA":" ","LANE":"５６巷","ALLEY":" ","HOUSE_NO":"３１號","E_COORD97":173589.44,"N_COORD97":2540041.5099999998,"ADDRESS":"仁義六街５６巷３１號","OBJECTID":386814},"geometry":{"x":173589.44000000041,"y":2540041.5100000016}},{"attributes":{"ID":386839,"DIS_CODE":0,"TOWNNAME":"永康區","LI":"龍潭里","LIN":"39鄰","STREET":"永明街","SECT":" ","MAREA":" ","LANE":"２７３巷","ALLEY":" ","HOUSE_NO":"３２號","E_COORD97":174670.73999999999,"N_COORD97":2547295.5800000001,"ADDRESS":"永明街２７３巷３２號","OBJECTID":386815},"geometry":{"x":174670.74000000115,"y":2547295.5800000038}},{"attributes":{"ID":386840,"DIS_CODE":0,"TOWNNAME":"永康區","LI":"\u25A0行里","LIN":"41鄰","STREET":"永安二街","SECT":" ","MAREA":" ","LANE":"２５巷","ALLEY":" ","HOUSE_NO":"４３號","E_COORD97":172452.48000000001,"N_COORD97":2549551.5699999998,"ADDRESS":"永安二街２５巷４３號","OBJECTID":386816},"geometry":{"x":172452.48000000138,"y":2549551.5700000022}},{"attributes":{"ID":386841,"DIS_CODE":0,"TOWNNAME":"永康區","LI":"龍潭里","LIN":"44鄰","STREET":"中山北路","SECT":" ","MAREA":" ","LANE":"２６４巷","ALLEY":" ","HOUSE_NO":"２２６號","E_COORD97":174708.62,"N_COORD97":2547067.8399999999,"ADDRESS":"中山北路２６４巷２２６號","OBJECTID":386817},"geometry":{"x":174708.62000000197,"y":2547067.8400000017}},{"attributes":{"ID":386842,"DIS_CODE":0,"TOWNNAME":"仁德區","LI":"仁義里","LIN":"37鄰","STREET":"仁義六街","SECT":" ","MAREA":" ","LANE":"５６巷","ALLEY":" ","HOUSE_NO":"１號","E_COORD97":173610.34,"N_COORD97":2540098.27,"ADDRESS":"仁義六街５６巷１號","OBJECTID":386818},"geometry":{"x":173610.34000000078,"y":2540098.2699999996}},{"attributes":{"ID":386843,"DIS_CODE":0,"TOWNNAME":"仁德區","LI":"仁義里","LIN":"37鄰","STREET":"仁義六街","SECT":" ","MAREA":" ","LANE":"５６巷","ALLEY":" ","HOUSE_NO":"４７號","E_COORD97":173578.53,"N_COORD97":2540011.52,"ADDRESS":"仁義六街５６巷４７號","OBJECTID":386819},"geometry":{"x":173578.52999999933,"y":2540011.5199999996}},{"attributes":{"ID":386844,"DIS_CODE":0,"TOWNNAME":"仁德區","LI":"仁義里","LIN":"37鄰","STREET":"仁義六街","SECT":" ","MAREA":" ","LANE":"５６巷","ALLEY":" ","HOUSE_NO":"３號","E_COORD97":173608.37,"N_COORD97":2540094.02,"ADDRESS":"仁義六街５６巷３號","OBJECTID":386820},"geometry":{"x":173608.37000000197,"y":2540094.0199999977}},{"attributes":{"ID":386845,"DIS_CODE":0,"TOWNNAME":"仁德區","LI":"後壁里","LIN":"37鄰","STREET":"德洋一街","SECT":" ","MAREA":" ","LANE":"５１巷","ALLEY":" ","HOUSE_NO":"１０號","E_COORD97":173111.57999999999,"N_COORD97":2539223.5099999998,"ADDRESS":"德洋一街５１巷１０號","OBJECTID":386821},"geometry":{"x":173111.58000000007,"y":2539223.5100000016}},{"attributes":{"ID":386846,"DIS_CODE":0,"TOWNNAME":"永康區","LI":"永康里","LIN":"37鄰","STREET":"西勢路","SECT":" ","MAREA":" ","LANE":"７３８巷","ALLEY":" ","HOUSE_NO":"２７號","E_COORD97":174526.47,"N_COORD97":2546824.4300000002,"ADDRESS":"西勢路７３８巷２７號","OBJECTID":386822},"geometry":{"x":174526.47000000067,"y":2546824.4299999997}},{"attributes":{"ID":386847,"DIS_CODE":0,"TOWNNAME":"永康區","LI":"五王里","LIN":"37鄰","STREET":"中華路","SECT":" ","MAREA":" ","LANE":"５７８巷","ALLEY":" ","HOUSE_NO":"１５號之３３","E_COORD97":171276.04999999999,"N_COORD97":2545965.79,"ADDRESS":"中華路５７８巷１５號之３３","OBJECTID":386823},"geometry":{"x":171276.05000000168,"y":2545965.7899999991}},{"attributes":{"ID":386848,"DIS_CODE":0,"TOWNNAME":"永康區","LI":"五王里","LIN":"37鄰","STREET":"中華路","SECT":" ","MAREA":" ","LANE":"５７８巷","ALLEY":" ","HOUSE_NO":"１５號之５８","E_COORD97":171276.10000000001,"N_COORD97":2545965.79,"ADDRESS":"中華路５７８巷１５號之５８","OBJECTID":386824},"geometry":{"x":171276.10000000056,"y":2545965.7899999991}},{"attributes":{"ID":386849,"DIS_CODE":0,"TOWNNAME":"永康區","LI":"北灣里","LIN":"37鄰","STREET":"大同街","SECT":" ","MAREA":" ","LANE":"３２０巷","ALLEY":" ","HOUSE_NO":"２１號","E_COORD97":174807.95999999999,"N_COORD97":2546000.5600000001,"ADDRESS":"大同街３２０巷２１號","OBJECTID":386825},"geometry":{"x":174807.96000000089,"y":2546000.5600000005}},{"attributes":{"ID":386850,"DIS_CODE":0,"TOWNNAME":"永康區","LI":"永康里","LIN":"37鄰","STREET":"西勢路","SECT":" ","MAREA":" ","LANE":"７３８巷","ALLEY":" ","HOUSE_NO":"５號","E_COORD97":174535.85999999999,"N_COORD97":2546782.6699999999,"ADDRESS":"西勢路７３８巷５號","OBJECTID":386826},"geometry":{"x":174535.8599999994,"y":2546782.6700000037}},{"attributes":{"ID":386851,"DIS_CODE":0,"TOWNNAME":"永康區","LI":"正強里","LIN":"37鄰","STREET":"正強街","SECT":" ","MAREA":" ","LANE":"３３２巷","ALLEY":" ","HOUSE_NO":"２號","E_COORD97":173253.45999999999,"N_COORD97":2548232.7400000002,"ADDRESS":"正強街３３２巷２號","OBJECTID":386827},"geometry":{"x":173253.46000000183,"y":2548232.7400000002}},{"attributes":{"ID":386852,"DIS_CODE":0,"TOWNNAME":"永康區","LI":"五王里","LIN":"37鄰","STREET":"中華路","SECT":" ","MAREA":" ","LANE":"５７８巷","ALLEY":" ","HOUSE_NO":"１５號之８０","E_COORD97":171276,"N_COORD97":2545965.79,"ADDRESS":"中華路５７８巷１５號之８０","OBJECTID":386828},"geometry":{"x":171276,"y":2545965.7899999991}},{"attributes":{"ID":386853,"DIS_CODE":0,"TOWNNAME":"永康區","LI":"龍潭里","LIN":"45鄰","STREET":"中山北路","SECT":" ","MAREA":" ","LANE":"２６４巷","ALLEY":" ","HOUSE_NO":"２９０號之３","E_COORD97":174717.10999999999,"N_COORD97":2546881.3999999999,"ADDRESS":"中山北路２６４巷２９０號之３","OBJECTID":386829},"geometry":{"x":174717.11000000034,"y":2546881.4000000022}},{"attributes":{"ID":386854,"DIS_CODE":0,"TOWNNAME":"永康區","LI":"五王里","LIN":"37鄰","STREET":"中華路","SECT":" ","MAREA":" ","LANE":"５７８巷","ALLEY":" ","HOUSE_NO":"１５號之３８","E_COORD97":171276.10000000001,"N_COORD97":2545965.79,"ADDRESS":"中華路５７８巷１５號之３８","OBJECTID":386830},"geometry":{"x":171276.10000000056,"y":2545965.7899999991}},{"attributes":{"ID":386855,"DIS_CODE":0,"TOWNNAME":"永康區","LI":"北灣里","LIN":"37鄰","STREET":"大同街","SECT":" ","MAREA":" ","LANE":"６０６巷","ALLEY":" ","HOUSE_NO":"１０號","E_COORD97":174748.23999999999,"N_COORD97":2546204.6000000001,"ADDRESS":"大同街６０６巷１０號","OBJECTID":386831},"geometry":{"x":174748.24000000022,"y":2546204.6000000015}},{"attributes":{"ID":386856,"DIS_CODE":0,"TOWNNAME":"永康區","LI":"埔園里","LIN":"37鄰","STREET":"龍國街","SECT":" ","MAREA":" ","LANE":"１３１巷","ALLEY":" ","HOUSE_NO":"７號","E_COORD97":174300.64000000001,"N_COORD97":2548145.0499999998,"ADDRESS":"龍國街１３１巷７號","OBJECTID":386832},"geometry":{"x":174300.63999999966,"y":2548145.0500000026}},{"attributes":{"ID":386857,"DIS_CODE":0,"TOWNNAME":"東區","LI":"莊敬里","LIN":"20鄰","STREET":"東光路","SECT":"二段","MAREA":" ","LANE":"３６巷","ALLEY":" ","HOUSE_NO":"８號","E_COORD97":171258.23000000001,"N_COORD97":2544045.1499999999,"ADDRESS":"東光路二段３６巷８號","OBJECTID":386833},"geometry":{"x":171258.23000000045,"y":2544045.1500000022}},{"attributes":{"ID":386858,"DIS_CODE":0,"TOWNNAME":"東區","LI":"莊敬里","LIN":"25鄰","STREET":"東光路","SECT":"二段","MAREA":" ","LANE":"１４巷","ALLEY":" ","HOUSE_NO":"６號","E_COORD97":171246.51000000001,"N_COORD97":2543993.3100000001,"ADDRESS":"東光路二段１４巷６號","OBJECTID":386834},"geometry":{"x":171246.51000000071,"y":2543993.3100000024}},{"attributes":{"ID":386859,"DIS_CODE":0,"TOWNNAME":"東區","LI":"莊敬里","LIN":"13鄰","STREET":"東光路","SECT":"二段","MAREA":" ","LANE":"３６巷","ALLEY":" ","HOUSE_NO":"５號","E_COORD97":171256.07000000001,"N_COORD97":2544067.1200000001,"ADDRESS":"東光路二段３６巷５號","OBJECTID":386835},"geometry":{"x":171256.07000000216,"y":2544067.120000001}},{"attributes":{"ID":386860,"DIS_CODE":0,"TOWNNAME":"東區","LI":"崇明里","LIN":"8鄰","STREET":"大同路","SECT":"二段","MAREA":" ","LANE":"４４９巷","ALLEY":" ","HOUSE_NO":"２５號","E_COORD97":169652.75,"N_COORD97":2541336.2799999998,"ADDRESS":"大同路二段４４９巷２５號","OBJECTID":386836},"geometry":{"x":169652.75000000093,"y":2541336.2799999975}},{"attributes":{"ID":386861,"DIS_CODE":0,"TOWNNAME":"東區","LI":"崇明里","LIN":"8鄰","STREET":"大同路","SECT":"二段","MAREA":" ","LANE":"４４９巷","ALLEY":" ","HOUSE_NO":"２７號","E_COORD97":169658.10999999999,"N_COORD97":2541339.96,"ADDRESS":"大同路二段４４９巷２７號","OBJECTID":386837},"geometry":{"x":169658.11000000034,"y":2541339.9600000009}},{"attributes":{"ID":386862,"DIS_CODE":0,"TOWNNAME":"東區","LI":"崇明里","LIN":"8鄰","STREET":"大同路","SECT":"二段","MAREA":" ","LANE":"４４９巷","ALLEY":" ","HOUSE_NO":"２９號","E_COORD97":169664.97,"N_COORD97":2541344.3100000001,"ADDRESS":"大同路二段４４９巷２９號","OBJECTID":386838},"geometry":{"x":169664.97000000067,"y":2541344.3100000042}},{"attributes":{"ID":386863,"DIS_CODE":0,"TOWNNAME":"東區","LI":"崇明里","LIN":"8鄰","STREET":"大同路","SECT":"二段","MAREA":" ","LANE":"４４９巷","ALLEY":" ","HOUSE_NO":"２９號之１","E_COORD97":169669.82999999999,"N_COORD97":2541348.5,"ADDRESS":"大同路二段４４９巷２９號之１","OBJECTID":386839},"geometry":{"x":169669.83000000101,"y":2541348.5}},{"attributes":{"ID":386864,"DIS_CODE":0,"TOWNNAME":"東區","LI":"龍山里","LIN":"8鄰","STREET":"東門路","SECT":"二段","MAREA":" ","LANE":"１５８巷","ALLEY":" ","HOUSE_NO":"６６號","E_COORD97":170076.67000000001,"N_COORD97":2542799.3799999999,"ADDRESS":"東門路二段１５８巷６６號","OBJECTID":386840},"geometry":{"x":170076.66999999899,"y":2542799.379999999}},{"attributes":{"ID":386865,"DIS_CODE":0,"TOWNNAME":"東區","LI":"龍山里","LIN":"6鄰","STREET":"東門路","SECT":"二段","MAREA":" ","LANE":"１５８巷","ALLEY":" ","HOUSE_NO":"１７號","E_COORD97":170120.13,"N_COORD97":2542810.27,"ADDRESS":"東門路二段１５８巷１７號","OBJECTID":386841},"geometry":{"x":170120.13000000082,"y":2542810.2699999996}},{"attributes":{"ID":386866,"DIS_CODE":0,"TOWNNAME":"東區","LI":"中西里","LIN":"37鄰","STREET":"林森路","SECT":"二段","MAREA":" ","LANE":"９１巷","ALLEY":" ","HOUSE_NO":"３６號","E_COORD97":170354.45000000001,"N_COORD97":2543422.8999999999,"ADDRESS":"林森路二段９１巷３６號","OBJECTID":386842},"geometry":{"x":170354.45000000019,"y":2543422.9000000022}},{"attributes":{"ID":386867,"DIS_CODE":0,"TOWNNAME":"永康區","LI":"\u25A0洲里","LIN":"13鄰","STREET":"\u25A0洲一街","SECT":" ","MAREA":" ","LANE":" ","ALLEY":" ","HOUSE_NO":"６２號","E_COORD97":171586.54999999999,"N_COORD97":2549047.2400000002,"ADDRESS":"\u25A0洲一街６２號","OBJECTID":386843},"geometry":{"x":171586.55000000075,"y":2549047.2399999984}},{"attributes":{"ID":386868,"DIS_CODE":0,"TOWNNAME":"東區","LI":"大智里","LIN":"37鄰","STREET":"崇善十五街","SECT":" ","MAREA":" ","LANE":"７巷","ALLEY":" ","HOUSE_NO":"１１號","E_COORD97":171438.13,"N_COORD97":2540544.0499999998,"ADDRESS":"崇善十五街７巷１１號","OBJECTID":386844},"geometry":{"x":171438.12999999896,"y":2540544.0500000026}},{"attributes":{"ID":386869,"DIS_CODE":0,"TOWNNAME":"東區","LI":"大智里","LIN":"37鄰","STREET":"崇善十五街","SECT":" ","MAREA":" ","LANE":"７巷","ALLEY":" ","HOUSE_NO":"１３號","E_COORD97":171440.76999999999,"N_COORD97":2540541.3999999999,"ADDRESS":"崇善十五街７巷１３號","OBJECTID":386845},"geometry":{"x":171440.77000000048,"y":2540541.4000000022}},{"attributes":{"ID":386870,"DIS_CODE":0,"TOWNNAME":"東區","LI":"大智里","LIN":"37鄰","STREET":"崇善十五街","SECT":" ","MAREA":" ","LANE":"７巷","ALLEY":" ","HOUSE_NO":"１５號","E_COORD97":171444.73999999999,"N_COORD97":2540537.4300000002,"ADDRESS":"崇善十五街７巷１５號","OBJECTID":386846},"geometry":{"x":171444.74000000209,"y":2540537.4299999997}},{"attributes":{"ID":386871,"DIS_CODE":0,"TOWNNAME":"東區","LI":"大智里","LIN":"37鄰","STREET":"崇善十五街","SECT":" ","MAREA":" ","LANE":"７巷","ALLEY":" ","HOUSE_NO":"１９號","E_COORD97":171451.89000000001,"N_COORD97":2540527.9100000001,"ADDRESS":"崇善十五街７巷１９號","OBJECTID":386847},"geometry":{"x":171451.8900000006,"y":2540527.9100000001}},{"attributes":{"ID":386872,"DIS_CODE":0,"TOWNNAME":"東區","LI":"大智里","LIN":"37鄰","STREET":"崇善十五街","SECT":" ","MAREA":" ","LANE":"７巷","ALLEY":" ","HOUSE_NO":"１號","E_COORD97":171428.60000000001,"N_COORD97":2540560.1899999999,"ADDRESS":"崇善十五街７巷１號","OBJECTID":386848},"geometry":{"x":171428.60000000056,"y":2540560.1899999995}},{"attributes":{"ID":386873,"DIS_CODE":0,"TOWNNAME":"東區","LI":"大智里","LIN":"37鄰","STREET":"崇善十五街","SECT":" ","MAREA":" ","LANE":"７巷","ALLEY":" ","HOUSE_NO":"２１號","E_COORD97":171454,"N_COORD97":2540523.6699999999,"ADDRESS":"崇善十五街７巷２１號","OBJECTID":386849},"geometry":{"x":171454,"y":2540523.6699999999}},{"attributes":{"ID":386874,"DIS_CODE":0,"TOWNNAME":"東區","LI":"大智里","LIN":"37鄰","STREET":"崇善十五街","SECT":" ","MAREA":" ","LANE":"７巷","ALLEY":" ","HOUSE_NO":"２３號","E_COORD97":171457.70999999999,"N_COORD97":2540518.6499999999,"ADDRESS":"崇善十五街７巷２３號","OBJECTID":386850},"geometry":{"x":171457.70999999996,"y":2540518.6500000022}},{"attributes":{"ID":386875,"DIS_CODE":0,"TOWNNAME":"東區","LI":"大智里","LIN":"37鄰","STREET":"崇善十五街","SECT":" ","MAREA":" ","LANE":"７巷","ALLEY":" ","HOUSE_NO":"３１號","E_COORD97":171473.85000000001,"N_COORD97":2540496.6899999999,"ADDRESS":"崇善十五街７巷３１號","OBJECTID":386851},"geometry":{"x":171473.85000000149,"y":2540496.6900000013}},{"attributes":{"ID":386876,"DIS_CODE":0,"TOWNNAME":"東區","LI":"大智里","LIN":"37鄰","STREET":"崇善十五街","SECT":" ","MAREA":" ","LANE":"７巷","ALLEY":" ","HOUSE_NO":"２５號","E_COORD97":171461.67000000001,"N_COORD97":2540513.8799999999,"ADDRESS":"崇善十五街７巷２５號","OBJECTID":386852},"geometry":{"x":171461.66999999899,"y":2540513.879999999}},{"attributes":{"ID":386877,"DIS_CODE":0,"TOWNNAME":"東區","LI":"大智里","LIN":"37鄰","STREET":"崇善十五街","SECT":" ","MAREA":" ","LANE":"７巷","ALLEY":" ","HOUSE_NO":"２７號","E_COORD97":171464.85000000001,"N_COORD97":2540510.1800000002,"ADDRESS":"崇善十五街７巷２７號","OBJECTID":386853},"geometry":{"x":171464.84999999963,"y":2540510.1800000034}},{"attributes":{"ID":386878,"DIS_CODE":0,"TOWNNAME":"東區","LI":"大智里","LIN":"37鄰","STREET":"崇善十五街","SECT":" ","MAREA":" ","LANE":"７巷","ALLEY":" ","HOUSE_NO":"２９號","E_COORD97":171469.35000000001,"N_COORD97":2540503.2999999998,"ADDRESS":"崇善十五街７巷２９號","OBJECTID":386854},"geometry":{"x":171469.35000000056,"y":2540503.3000000007}},{"attributes":{"ID":386879,"DIS_CODE":0,"TOWNNAME":"東區","LI":"大智里","LIN":"37鄰","STREET":"崇善十五街","SECT":" ","MAREA":" ","LANE":"７巷","ALLEY":" ","HOUSE_NO":"３３號","E_COORD97":171476.48999999999,"N_COORD97":2540493.5099999998,"ADDRESS":"崇善十五街７巷３３號","OBJECTID":386855},"geometry":{"x":171476.49000000022,"y":2540493.5099999998}},{"attributes":{"ID":386880,"DIS_CODE":0,"TOWNNAME":"東區","LI":"大智里","LIN":"37鄰","STREET":"崇善十五街","SECT":" ","MAREA":" ","LANE":"７巷","ALLEY":" ","HOUSE_NO":"３５號","E_COORD97":171479.67000000001,"N_COORD97":2540489.2799999998,"ADDRESS":"崇善十五街７巷３５號","OBJECTID":386856},"geometry":{"x":171479.66999999993,"y":2540489.2800000012}},{"attributes":{"ID":386881,"DIS_CODE":0,"TOWNNAME":"東區","LI":"大智里","LIN":"37鄰","STREET":"崇善十五街","SECT":" ","MAREA":" ","LANE":"７巷","ALLEY":" ","HOUSE_NO":"３７號","E_COORD97":171482.31,"N_COORD97":2540484.7799999998,"ADDRESS":"崇善十五街７巷３７號","OBJECTID":386857},"geometry":{"x":171482.30999999959,"y":2540484.7799999993}},{"attributes":{"ID":386882,"DIS_CODE":0,"TOWNNAME":"東區","LI":"大智里","LIN":"37鄰","STREET":"崇善十五街","SECT":" ","MAREA":" ","LANE":"７巷","ALLEY":" ","HOUSE_NO":"３８號","E_COORD97":171447.92000000001,"N_COORD97":2540506.21,"ADDRESS":"崇善十五街７巷３８號","OBJECTID":386858},"geometry":{"x":171447.91999999993,"y":2540506.2100000028}},{"attributes":{"ID":386883,"DIS_CODE":0,"TOWNNAME":"東區","LI":"大智里","LIN":"37鄰","STREET":"崇善十五街","SECT":" ","MAREA":" ","LANE":"７巷","ALLEY":" ","HOUSE_NO":"３９號","E_COORD97":171485.48999999999,"N_COORD97":2540480.02,"ADDRESS":"崇善十五街７巷３９號","OBJECTID":386859},"geometry":{"x":171485.49000000115,"y":2540480.0199999996}},{"attributes":{"ID":386884,"DIS_CODE":0,"TOWNNAME":"東區","LI":"大智里","LIN":"37鄰","STREET":"崇善十五街","SECT":" ","MAREA":" ","LANE":"７巷","ALLEY":" ","HOUSE_NO":"３號","E_COORD97":171430.45000000001,"N_COORD97":2540557.2799999998,"ADDRESS":"崇善十五街７巷３號","OBJECTID":386860},"geometry":{"x":171430.45000000112,"y":2540557.2800000012}},{"attributes":{"ID":386885,"DIS_CODE":0,"TOWNNAME":"東區","LI":"大智里","LIN":"37鄰","STREET":"崇善十五街","SECT":" ","MAREA":" ","LANE":"７巷","ALLEY":" ","HOUSE_NO":"４０號","E_COORD97":171451.35999999999,"N_COORD97":2540502.5099999998,"ADDRESS":"崇善十五街７巷４０號","OBJECTID":386861},"geometry":{"x":171451.36000000127,"y":2540502.5100000016}},{"attributes":{"ID":386886,"DIS_CODE":0,"TOWNNAME":"東區","LI":"大智里","LIN":"37鄰","STREET":"崇善十五街","SECT":" ","MAREA":" ","LANE":"７巷","ALLEY":" ","HOUSE_NO":"４１號","E_COORD97":171488.39999999999,"N_COORD97":2540476.8399999999,"ADDRESS":"崇善十五街７巷４１號","OBJECTID":386862},"geometry":{"x":171488.4000000013,"y":2540476.8400000017}},{"attributes":{"ID":386887,"DIS_CODE":0,"TOWNNAME":"東區","LI":"大智里","LIN":"37鄰","STREET":"崇善十五街","SECT":" ","MAREA":" ","LANE":"７巷","ALLEY":" ","HOUSE_NO":"４２號","E_COORD97":171454.53,"N_COORD97":2540499.6000000001,"ADDRESS":"崇善十五街７巷４２號","OBJECTID":386863},"geometry":{"x":171454.53000000212,"y":2540499.5999999996}},{"attributes":{"ID":386888,"DIS_CODE":0,"TOWNNAME":"東區","LI":"大智里","LIN":"37鄰","STREET":"崇善十五街","SECT":" ","MAREA":" ","LANE":"７巷","ALLEY":" ","HOUSE_NO":"４３號","E_COORD97":171491.57000000001,"N_COORD97":2540472.6099999999,"ADDRESS":"崇善十五街７巷４３號","OBJECTID":386864},"geometry":{"x":171491.56999999937,"y":2540472.6099999994}},{"attributes":{"ID":386889,"DIS_CODE":0,"TOWNNAME":"東區","LI":"大智里","LIN":"37鄰","STREET":"崇善十五街","SECT":" ","MAREA":" ","LANE":"７巷","ALLEY":" ","HOUSE_NO":"４５號","E_COORD97":171493.69,"N_COORD97":2540468.6400000001,"ADDRESS":"崇善十五街７巷４５號","OBJECTID":386865},"geometry":{"x":171493.69000000041,"y":2540468.6400000025}},{"attributes":{"ID":386890,"DIS_CODE":0,"TOWNNAME":"東區","LI":"大智里","LIN":"37鄰","STREET":"崇善十五街","SECT":" ","MAREA":" ","LANE":"７巷","ALLEY":" ","HOUSE_NO":"４６號","E_COORD97":171456.64999999999,"N_COORD97":2540495.6299999999,"ADDRESS":"崇善十五街７巷４６號","OBJECTID":386866},"geometry":{"x":171456.65000000037,"y":2540495.629999999}},{"attributes":{"ID":386891,"DIS_CODE":0,"TOWNNAME":"東區","LI":"大智里","LIN":"37鄰","STREET":"崇善十五街","SECT":" ","MAREA":" ","LANE":"７巷","ALLEY":" ","HOUSE_NO":"４７號","E_COORD97":171496.60000000001,"N_COORD97":2540464.4100000001,"ADDRESS":"崇善十五街７巷４７號","OBJECTID":386867},"geometry":{"x":171496.60000000056,"y":2540464.4100000001}},{"attributes":{"ID":386892,"DIS_CODE":0,"TOWNNAME":"東區","LI":"大智里","LIN":"37鄰","STREET":"崇善十五街","SECT":" ","MAREA":" ","LANE":"７巷","ALLEY":" ","HOUSE_NO":"４９號","E_COORD97":171500.29999999999,"N_COORD97":2540460.1699999999,"ADDRESS":"崇善十五街７巷４９號","OBJECTID":386868},"geometry":{"x":171500.30000000075,"y":2540460.1700000018}},{"attributes":{"ID":386893,"DIS_CODE":0,"TOWNNAME":"東區","LI":"大智里","LIN":"37鄰","STREET":"崇善十五街","SECT":" ","MAREA":" ","LANE":"７巷","ALLEY":" ","HOUSE_NO":"５０號","E_COORD97":171461.14999999999,"N_COORD97":2540490.6000000001,"ADDRESS":"崇善十五街７巷５０號","OBJECTID":386869},"geometry":{"x":171461.1500000013,"y":2540490.6000000034}},{"attributes":{"ID":386894,"DIS_CODE":0,"TOWNNAME":"東區","LI":"大智里","LIN":"37鄰","STREET":"崇善十五街","SECT":" ","MAREA":" ","LANE":"７巷","ALLEY":" ","HOUSE_NO":"５１號","E_COORD97":171504.01000000001,"N_COORD97":2540455.9399999999,"ADDRESS":"崇善十五街７巷５１號","OBJECTID":386870},"geometry":{"x":171504.01000000071,"y":2540455.9399999995}},{"attributes":{"ID":386895,"DIS_CODE":0,"TOWNNAME":"東區","LI":"大智里","LIN":"37鄰","STREET":"崇善十五街","SECT":" ","MAREA":" ","LANE":"７巷","ALLEY":" ","HOUSE_NO":"５２號","E_COORD97":171464.32000000001,"N_COORD97":2540485.8399999999,"ADDRESS":"崇善十五街７巷５２號","OBJECTID":386871},"geometry":{"x":171464.3200000003,"y":2540485.8400000036}},{"attributes":{"ID":386896,"DIS_CODE":0,"TOWNNAME":"東區","LI":"大智里","LIN":"37鄰","STREET":"崇善十五街","SECT":" ","MAREA":" ","LANE":"７巷","ALLEY":" ","HOUSE_NO":"５３號","E_COORD97":171506.64999999999,"N_COORD97":2540451.4399999999,"ADDRESS":"崇善十五街７巷５３號","OBJECTID":386872},"geometry":{"x":171506.6500000013,"y":2540451.4400000013}},{"attributes":{"ID":386897,"DIS_CODE":0,"TOWNNAME":"東區","LI":"大智里","LIN":"37鄰","STREET":"崇善十五街","SECT":" ","MAREA":" ","LANE":"７巷","ALLEY":" ","HOUSE_NO":"５５號","E_COORD97":171509.82999999999,"N_COORD97":2540446.4199999999,"ADDRESS":"崇善十五街７巷５５號","OBJECTID":386873},"geometry":{"x":171509.83000000007,"y":2540446.4199999999}},{"attributes":{"ID":386898,"DIS_CODE":0,"TOWNNAME":"東區","LI":"大智里","LIN":"37鄰","STREET":"崇善十五街","SECT":" ","MAREA":" ","LANE":"７巷","ALLEY":" ","HOUSE_NO":"５６號","E_COORD97":171467.76000000001,"N_COORD97":2540481.3399999999,"ADDRESS":"崇善十五街７巷５６號","OBJECTID":386874},"geometry":{"x":171467.76000000164,"y":2540481.3399999999}},{"attributes":{"ID":386899,"DIS_CODE":0,"TOWNNAME":"東區","LI":"大智里","LIN":"37鄰","STREET":"崇善十五街","SECT":" ","MAREA":" ","LANE":"７巷","ALLEY":" ","HOUSE_NO":"５７號","E_COORD97":171513.26999999999,"N_COORD97":2540441.6499999999,"ADDRESS":"崇善十五街７巷５７號","OBJECTID":386875},"geometry":{"x":171513.27000000142,"y":2540441.6500000022}},{"attributes":{"ID":386900,"DIS_CODE":0,"TOWNNAME":"東區","LI":"大智里","LIN":"37鄰","STREET":"崇善十五街","SECT":" ","MAREA":" ","LANE":"７巷","ALLEY":" ","HOUSE_NO":"５８號","E_COORD97":171470.14000000001,"N_COORD97":2540478.4300000002,"ADDRESS":"崇善十五街７巷５８號","OBJECTID":386876},"geometry":{"x":171470.14000000153,"y":2540478.4300000016}},{"attributes":{"ID":386901,"DIS_CODE":0,"TOWNNAME":"東區","LI":"大智里","LIN":"37鄰","STREET":"崇善十五街","SECT":" ","MAREA":" ","LANE":"７巷","ALLEY":" ","HOUSE_NO":"５９號","E_COORD97":171517.23999999999,"N_COORD97":2540436.8900000001,"ADDRESS":"崇善十五街７巷５９號","OBJECTID":386877},"geometry":{"x":171517.24000000022,"y":2540436.8900000025}},{"attributes":{"ID":386902,"DIS_CODE":0,"TOWNNAME":"東區","LI":"大智里","LIN":"37鄰","STREET":"崇善十五街","SECT":" ","MAREA":" ","LANE":"７巷","ALLEY":" ","HOUSE_NO":"５號","E_COORD97":171432.84,"N_COORD97":2540554.3700000001,"ADDRESS":"崇善十五街７巷５號","OBJECTID":386878},"geometry":{"x":171432.83999999985,"y":2540554.3700000048}},{"attributes":{"ID":386903,"DIS_CODE":0,"TOWNNAME":"東區","LI":"大智里","LIN":"37鄰","STREET":"崇善十五街","SECT":" ","MAREA":" ","LANE":"７巷","ALLEY":" ","HOUSE_NO":"６０號","E_COORD97":171473.04999999999,"N_COORD97":2540474.73,"ADDRESS":"崇善十五街７巷６０號","OBJECTID":386879},"geometry":{"x":171473.05000000075,"y":2540474.7300000023}},{"attributes":{"ID":386904,"DIS_CODE":0,"TOWNNAME":"東區","LI":"大智里","LIN":"37鄰","STREET":"崇善十五街","SECT":" ","MAREA":" ","LANE":"７巷","ALLEY":" ","HOUSE_NO":"６１號","E_COORD97":171522.53,"N_COORD97":2540431.3300000001,"ADDRESS":"崇善十五街７巷６１號","OBJECTID":386880},"geometry":{"x":171522.53000000119,"y":2540431.3300000001}},{"attributes":{"ID":386905,"DIS_CODE":0,"TOWNNAME":"東區","LI":"大智里","LIN":"37鄰","STREET":"崇善十五街","SECT":" ","MAREA":" ","LANE":"７巷","ALLEY":" ","HOUSE_NO":"６號","E_COORD97":171423.31,"N_COORD97":2540535.3199999998,"ADDRESS":"崇善十五街７巷６號","OBJECTID":386881},"geometry":{"x":171423.31000000052,"y":2540535.3200000022}},{"attributes":{"ID":386906,"DIS_CODE":0,"TOWNNAME":"東區","LI":"大智里","LIN":"37鄰","STREET":"崇善十五街","SECT":" ","MAREA":" ","LANE":"７巷","ALLEY":" ","HOUSE_NO":"７０號","E_COORD97":171487.34,"N_COORD97":2540455.4100000001,"ADDRESS":"崇善十五街７巷７０號","OBJECTID":386882},"geometry":{"x":171487.33999999985,"y":2540455.410000002}},{"attributes":{"ID":386907,"DIS_CODE":0,"TOWNNAME":"東區","LI":"大智里","LIN":"37鄰","STREET":"崇善十五街","SECT":" ","MAREA":" ","LANE":"７巷","ALLEY":" ","HOUSE_NO":"７２號","E_COORD97":171489.19,"N_COORD97":2540451.4399999999,"ADDRESS":"崇善十五街７巷７２號","OBJECTID":386883},"geometry":{"x":171489.19000000227,"y":2540451.4400000013}},{"attributes":{"ID":386908,"DIS_CODE":0,"TOWNNAME":"東區","LI":"大智里","LIN":"37鄰","STREET":"崇善十五街","SECT":" ","MAREA":" ","LANE":"７巷","ALLEY":" ","HOUSE_NO":"７６號","E_COORD97":171491.31,"N_COORD97":2540448.7999999998,"ADDRESS":"崇善十五街７巷７６號","OBJECTID":386884},"geometry":{"x":171491.31000000052,"y":2540448.8000000007}},{"attributes":{"ID":386909,"DIS_CODE":0,"TOWNNAME":"東區","LI":"大智里","LIN":"37鄰","STREET":"崇善十五街","SECT":" ","MAREA":" ","LANE":"７巷","ALLEY":" ","HOUSE_NO":"７８號","E_COORD97":171494.48000000001,"N_COORD97":2540445.6200000001,"ADDRESS":"崇善十五街７巷７８號","OBJECTID":386885},"geometry":{"x":171494.48000000138,"y":2540445.6200000029}},{"attributes":{"ID":386910,"DIS_CODE":0,"TOWNNAME":"東區","LI":"大智里","LIN":"37鄰","STREET":"崇善十五街","SECT":" ","MAREA":" ","LANE":"７巷","ALLEY":" ","HOUSE_NO":"７號","E_COORD97":171434.16,"N_COORD97":2540550.9300000002,"ADDRESS":"崇善十五街７巷７號","OBJECTID":386886},"geometry":{"x":171434.16000000015,"y":2540550.9300000016}},{"attributes":{"ID":386911,"DIS_CODE":0,"TOWNNAME":"東區","LI":"大智里","LIN":"37鄰","STREET":"崇善十五街","SECT":" ","MAREA":" ","LANE":"７巷","ALLEY":" ","HOUSE_NO":"９號","E_COORD97":171435.75,"N_COORD97":2540548.2799999998,"ADDRESS":"崇善十五街７巷９號","OBJECTID":386887},"geometry":{"x":171435.74999999907,"y":2540548.2799999993}},{"attributes":{"ID":386912,"DIS_CODE":0,"TOWNNAME":"東區","LI":"大智里","LIN":"37鄰","STREET":"崇善十五街","SECT":" ","MAREA":" ","LANE":"７巷","ALLEY":" ","HOUSE_NO":"８０號","E_COORD97":171496.07000000001,"N_COORD97":2540441.9199999999,"ADDRESS":"崇善十五街７巷８０號","OBJECTID":386888},"geometry":{"x":171496.0700000003,"y":2540441.9200000018}},{"attributes":{"ID":386913,"DIS_CODE":0,"TOWNNAME":"東區","LI":"大智里","LIN":"37鄰","STREET":"崇善十五街","SECT":" ","MAREA":" ","LANE":"７巷","ALLEY":" ","HOUSE_NO":"８２號","E_COORD97":171497.92000000001,"N_COORD97":2540438.7400000002,"ADDRESS":"崇善十五街７巷８２號","OBJECTID":386889},"geometry":{"x":171497.92000000086,"y":2540438.7400000002}},{"attributes":{"ID":386914,"DIS_CODE":0,"TOWNNAME":"東區","LI":"大智里","LIN":"37鄰","STREET":"崇善十五街","SECT":" ","MAREA":" ","LANE":"７巷","ALLEY":" ","HOUSE_NO":"８６號","E_COORD97":171501.10000000001,"N_COORD97":2540435.2999999998,"ADDRESS":"崇善十五街７巷８６號","OBJECTID":386890},"geometry":{"x":171501.10000000056,"y":2540435.3000000007}},{"attributes":{"ID":386915,"DIS_CODE":0,"TOWNNAME":"東區","LI":"大智里","LIN":"37鄰","STREET":"崇善十五街","SECT":" ","MAREA":" ","LANE":"７巷","ALLEY":" ","HOUSE_NO":"８８號","E_COORD97":171504.01000000001,"N_COORD97":2540431.6000000001,"ADDRESS":"崇善十五街７巷８８號","OBJECTID":386891},"geometry":{"x":171504.01000000071,"y":2540431.5999999996}},{"attributes":{"ID":386916,"DIS_CODE":0,"TOWNNAME":"東區","LI":"大智里","LIN":"37鄰","STREET":"崇善十五街","SECT":" ","MAREA":" ","LANE":"７巷","ALLEY":" ","HOUSE_NO":"９０號","E_COORD97":171506.39000000001,"N_COORD97":2540427.1000000001,"ADDRESS":"崇善十五街７巷９０號","OBJECTID":386892},"geometry":{"x":171506.3900000006,"y":2540427.1000000015}},{"attributes":{"ID":386917,"DIS_CODE":0,"TOWNNAME":"東區","LI":"大智里","LIN":"37鄰","STREET":"崇善十五街","SECT":" ","MAREA":" ","LANE":"７巷","ALLEY":" ","HOUSE_NO":"９２號","E_COORD97":171507.70999999999,"N_COORD97":2540423.9300000002,"ADDRESS":"崇善十五街７巷９２號","OBJECTID":386893},"geometry":{"x":171507.71000000089,"y":2540423.9300000034}},{"attributes":{"ID":386918,"DIS_CODE":0,"TOWNNAME":"東區","LI":"大智里","LIN":"37鄰","STREET":"崇善十五街","SECT":" ","MAREA":" ","LANE":"７巷","ALLEY":" ","HOUSE_NO":"９６號","E_COORD97":171510.35999999999,"N_COORD97":2540421.54,"ADDRESS":"崇善十五街７巷９６號","OBJECTID":386894},"geometry":{"x":171510.36000000127,"y":2540421.5399999991}},{"attributes":{"ID":386919,"DIS_CODE":0,"TOWNNAME":"仁德區","LI":"成功里","LIN":"37鄰","STREET":"保華路","SECT":" ","MAREA":" ","LANE":"４６巷","ALLEY":" ","HOUSE_NO":"１６號","E_COORD97":170665.48000000001,"N_COORD97":2540052.7400000002,"ADDRESS":"保華路４６巷１６號","OBJECTID":386895},"geometry":{"x":170665.48000000138,"y":2540052.7400000039}},{"attributes":{"ID":386920,"DIS_CODE":0,"TOWNNAME":"仁德區","LI":"太子里","LIN":"37鄰","STREET":"長興一街","SECT":" ","MAREA":" ","LANE":"１７巷","ALLEY":" ","HOUSE_NO":"５號","E_COORD97":174616.13,"N_COORD97":2543767.75,"ADDRESS":"長興一街１７巷５號","OBJECTID":386896},"geometry":{"x":174616.12999999989,"y":2543767.75}},{"attributes":{"ID":386921,"DIS_CODE":0,"TOWNNAME":"永康區","LI":"西灣里","LIN":"37鄰","STREET":"永華路","SECT":" ","MAREA":" ","LANE":"２３８巷","ALLEY":" ","HOUSE_NO":"１１號","E_COORD97":174185.60000000001,"N_COORD97":2545594.46,"ADDRESS":"永華路２３８巷１１號","OBJECTID":386897},"geometry":{"x":174185.59999999963,"y":2545594.4600000009}},{"attributes":{"ID":386922,"DIS_CODE":0,"TOWNNAME":"東區","LI":"富裕里","LIN":"15鄰","STREET":"東門路","SECT":"二段","MAREA":" ","LANE":"３０１巷","ALLEY":" ","HOUSE_NO":"８３號","E_COORD97":170936.82000000001,"N_COORD97":2542734.71,"ADDRESS":"東門路二段３０１巷８３號","OBJECTID":386898},"geometry":{"x":170936.8200000003,"y":2542734.7100000009}},{"attributes":{"ID":386923,"DIS_CODE":0,"TOWNNAME":"東區","LI":"富裕里","LIN":"15鄰","STREET":"東門路","SECT":"二段","MAREA":" ","LANE":"３０１巷","ALLEY":" ","HOUSE_NO":"８５號","E_COORD97":170940.06,"N_COORD97":2542736.0499999998,"ADDRESS":"東門路二段３０１巷８５號","OBJECTID":386899},"geometry":{"x":170940.06000000145,"y":2542736.0500000007}},{"attributes":{"ID":386924,"DIS_CODE":0,"TOWNNAME":"永康區","LI":"西灣里","LIN":"37鄰","STREET":"永華路","SECT":" ","MAREA":" ","LANE":"２３８巷","ALLEY":" ","HOUSE_NO":"８號","E_COORD97":174138.56,"N_COORD97":2545564.9900000002,"ADDRESS":"永華路２３８巷８號","OBJECTID":386900},"geometry":{"x":174138.55999999959,"y":2545564.9900000021}},{"attributes":{"ID":386925,"DIS_CODE":0,"TOWNNAME":"南區","LI":"大忠里","LIN":"37鄰","STREET":"國民路","SECT":" ","MAREA":" ","LANE":"２７０巷","ALLEY":" ","HOUSE_NO":"２６號","E_COORD97":169075.38,"N_COORD97":2541501.2000000002,"ADDRESS":"國民路２７０巷２６號","OBJECTID":386901},"geometry":{"x":169075.38000000082,"y":2541501.2000000011}},{"attributes":{"ID":386926,"DIS_CODE":0,"TOWNNAME":"南區","LI":"大忠里","LIN":"37鄰","STREET":"國民路","SECT":" ","MAREA":" ","LANE":"２７０巷","ALLEY":" ","HOUSE_NO":"２８號","E_COORD97":169078.54999999999,"N_COORD97":2541503.4199999999,"ADDRESS":"國民路２７０巷２８號","OBJECTID":386902},"geometry":{"x":169078.54999999981,"y":2541503.4200000018}},{"attributes":{"ID":386927,"DIS_CODE":0,"TOWNNAME":"南區","LI":"大忠里","LIN":"37鄰","STREET":"國民路","SECT":" ","MAREA":" ","LANE":"２７０巷","ALLEY":" ","HOUSE_NO":"３０號","E_COORD97":169081.25,"N_COORD97":2541505.3300000001,"ADDRESS":"國民路２７０巷３０號","OBJECTID":386903},"geometry":{"x":169081.25000000186,"y":2541505.3300000001}},{"attributes":{"ID":386928,"DIS_CODE":0,"TOWNNAME":"南區","LI":"大忠里","LIN":"37鄰","STREET":"國民路","SECT":" ","MAREA":" ","LANE":"２７０巷","ALLEY":" ","HOUSE_NO":"３２號","E_COORD97":169084.59,"N_COORD97":2541507.23,"ADDRESS":"國民路２７０巷３２號","OBJECTID":386904},"geometry":{"x":169084.59000000078,"y":2541507.2299999986}},{"attributes":{"ID":386929,"DIS_CODE":0,"TOWNNAME":"南區","LI":"大忠里","LIN":"37鄰","STREET":"國民路","SECT":" ","MAREA":" ","LANE":"２７０巷","ALLEY":" ","HOUSE_NO":"３６號","E_COORD97":169087.29000000001,"N_COORD97":2541510.0899999999,"ADDRESS":"國民路２７０巷３６號","OBJECTID":386905},"geometry":{"x":169087.29000000004,"y":2541510.0899999999}},{"attributes":{"ID":386930,"DIS_CODE":0,"TOWNNAME":"仁德區","LI":"仁義里","LIN":"37鄰","STREET":"仁義六街","SECT":" ","MAREA":" ","LANE":"５６巷","ALLEY":" ","HOUSE_NO":"３７號","E_COORD97":173585.28,"N_COORD97":2540030.02,"ADDRESS":"仁義六街５６巷３７號","OBJECTID":386906},"geometry":{"x":173585.28000000026,"y":2540030.0200000033}},{"attributes":{"ID":386931,"DIS_CODE":0,"TOWNNAME":"仁德區","LI":"仁義里","LIN":"37鄰","STREET":"仁義六街","SECT":" ","MAREA":" ","LANE":"５６巷","ALLEY":" ","HOUSE_NO":"３８號","E_COORD97":173564.10999999999,"N_COORD97":2540022.52,"ADDRESS":"仁義六街５６巷３８號","OBJECTID":386907},"geometry":{"x":173564.11000000034,"y":2540022.5199999996}},{"attributes":{"ID":386932,"DIS_CODE":0,"TOWNNAME":"仁德區","LI":"仁義里","LIN":"37鄰","STREET":"仁義六街","SECT":" ","MAREA":" ","LANE":"５６巷","ALLEY":" ","HOUSE_NO":"２５號","E_COORD97":173593.73999999999,"N_COORD97":2540052.7599999998,"ADDRESS":"仁義六街５６巷２５號","OBJECTID":386908},"geometry":{"x":173593.74000000022,"y":2540052.7600000016}},{"attributes":{"ID":386933,"DIS_CODE":0,"TOWNNAME":"仁德區","LI":"仁義里","LIN":"37鄰","STREET":"仁義六街","SECT":" ","MAREA":" ","LANE":"５６巷","ALLEY":" ","HOUSE_NO":"１５號","E_COORD97":173600.73000000001,"N_COORD97":2540072.0099999998,"ADDRESS":"仁義六街５６巷１５號","OBJECTID":386909},"geometry":{"x":173600.73000000045,"y":2540072.0100000016}},{"attributes":{"ID":386934,"DIS_CODE":0,"TOWNNAME":"仁德區","LI":"仁義里","LIN":"37鄰","STREET":"仁義六街","SECT":" ","MAREA":" ","LANE":"５６巷","ALLEY":" ","HOUSE_NO":"２３號","E_COORD97":173595.29000000001,"N_COORD97":2540056.7599999998,"ADDRESS":"仁義六街５６巷２３號","OBJECTID":386910},"geometry":{"x":173595.2900000019,"y":2540056.7600000016}},{"attributes":{"ID":386935,"DIS_CODE":0,"TOWNNAME":"仁德區","LI":"仁義里","LIN":"37鄰","STREET":"仁義六街","SECT":" ","MAREA":" ","LANE":"５６巷","ALLEY":" ","HOUSE_NO":"９號","E_COORD97":173604.14000000001,"N_COORD97":2540083.0099999998,"ADDRESS":"仁義六街５６巷９號","OBJECTID":386911},"geometry":{"x":173604.13999999966,"y":2540083.0099999998}},{"attributes":{"ID":386936,"DIS_CODE":0,"TOWNNAME":"仁德區","LI":"仁義里","LIN":"37鄰","STREET":"仁義六街","SECT":" ","MAREA":" ","LANE":"５６巷","ALLEY":" ","HOUSE_NO":"５號","E_COORD97":173607.17999999999,"N_COORD97":2540090.27,"ADDRESS":"仁義六街５６巷５號","OBJECTID":386912},"geometry":{"x":173607.1799999997,"y":2540090.2700000014}},{"attributes":{"ID":386937,"DIS_CODE":0,"TOWNNAME":"仁德區","LI":"仁義里","LIN":"37鄰","STREET":"仁義六街","SECT":" ","MAREA":" ","LANE":"５６巷","ALLEY":" ","HOUSE_NO":"４３號","E_COORD97":173581.54000000001,"N_COORD97":2540019.27,"ADDRESS":"仁義六街５６巷４３號","OBJECTID":386913},"geometry":{"x":173581.54000000004,"y":2540019.2700000014}},{"attributes":{"ID":386938,"DIS_CODE":0,"TOWNNAME":"仁德區","LI":"仁義里","LIN":"37鄰","STREET":"仁義六街","SECT":" ","MAREA":" ","LANE":"５６巷","ALLEY":" ","HOUSE_NO":"４５號","E_COORD97":173579.98999999999,"N_COORD97":2540015.27,"ADDRESS":"仁義六街５６巷４５號","OBJECTID":386914},"geometry":{"x":173579.99000000022,"y":2540015.2700000014}},{"attributes":{"ID":386939,"DIS_CODE":0,"TOWNNAME":"仁德區","LI":"仁義里","LIN":"37鄰","STREET":"仁義六街","SECT":" ","MAREA":" ","LANE":"５６巷","ALLEY":" ","HOUSE_NO":"１９號","E_COORD97":173598.04000000001,"N_COORD97":2540064.2599999998,"ADDRESS":"仁義六街５６巷１９號","OBJECTID":386915},"geometry":{"x":173598.04000000004,"y":2540064.2599999998}},{"attributes":{"ID":386940,"DIS_CODE":0,"TOWNNAME":"東區","LI":"中西里","LIN":"37鄰","STREET":"林森路","SECT":"二段","MAREA":" ","LANE":"９１巷","ALLEY":" ","HOUSE_NO":"２９號","E_COORD97":170362.10999999999,"N_COORD97":2543374.23,"ADDRESS":"林森路二段９１巷２９號","OBJECTID":386916},"geometry":{"x":170362.11000000034,"y":2543374.2300000004}},{"attributes":{"ID":386941,"DIS_CODE":0,"TOWNNAME":"東區","LI":"中西里","LIN":"37鄰","STREET":"林森路","SECT":"二段","MAREA":" ","LANE":"９１巷","ALLEY":" ","HOUSE_NO":"２號","E_COORD97":170393.47,"N_COORD97":2543326.29,"ADDRESS":"林森路二段９１巷２號","OBJECTID":386917},"geometry":{"x":170393.47000000067,"y":2543326.2900000028}},{"attributes":{"ID":386942,"DIS_CODE":0,"TOWNNAME":"東區","LI":"中西里","LIN":"37鄰","STREET":"林森路","SECT":"二段","MAREA":" ","LANE":"９１巷","ALLEY":" ","HOUSE_NO":"３１號","E_COORD97":170359.75,"N_COORD97":2543378.8500000001,"ADDRESS":"林森路二段９１巷３１號","OBJECTID":386918},"geometry":{"x":170359.75000000093,"y":2543378.8500000015}},{"attributes":{"ID":386943,"DIS_CODE":0,"TOWNNAME":"東區","LI":"中西里","LIN":"37鄰","STREET":"林森路","SECT":"二段","MAREA":" ","LANE":"９１巷","ALLEY":" ","HOUSE_NO":"３２號","E_COORD97":170355.81,"N_COORD97":2543410.5,"ADDRESS":"林森路二段９１巷３２號","OBJECTID":386919},"geometry":{"x":170355.81000000052,"y":2543410.5000000037}},{"attributes":{"ID":386944,"DIS_CODE":0,"TOWNNAME":"東區","LI":"中西里","LIN":"37鄰","STREET":"林森路","SECT":"二段","MAREA":" ","LANE":"９１巷","ALLEY":" ","HOUSE_NO":"３３號","E_COORD97":170357.88,"N_COORD97":2543384.3500000001,"ADDRESS":"林森路二段９１巷３３號","OBJECTID":386920},"geometry":{"x":170357.87999999989,"y":2543384.3500000034}},{"attributes":{"ID":386945,"DIS_CODE":0,"TOWNNAME":"東區","LI":"中西里","LIN":"37鄰","STREET":"林森路","SECT":"二段","MAREA":" ","LANE":"９１巷","ALLEY":" ","HOUSE_NO":"３５號","E_COORD97":170354.01000000001,"N_COORD97":2543389.8599999999,"ADDRESS":"林森路二段９１巷３５號","OBJECTID":386921},"geometry":{"x":170354.01000000164,"y":2543389.8599999994}},{"attributes":{"ID":386946,"DIS_CODE":0,"TOWNNAME":"東區","LI":"中西里","LIN":"37鄰","STREET":"林森路","SECT":"二段","MAREA":" ","LANE":"９１巷","ALLEY":" ","HOUSE_NO":"３９號","E_COORD97":170346.23999999999,"N_COORD97":2543406.5,"ADDRESS":"林森路二段９１巷３９號","OBJECTID":386922},"geometry":{"x":170346.24000000209,"y":2543406.5}},{"attributes":{"ID":386947,"DIS_CODE":0,"TOWNNAME":"東區","LI":"中西里","LIN":"37鄰","STREET":"林森路","SECT":"二段","MAREA":" ","LANE":"９１巷","ALLEY":" ","HOUSE_NO":"３號","E_COORD97":170388.85000000001,"N_COORD97":2543314.04,"ADDRESS":"林森路二段９１巷３號","OBJECTID":386923},"geometry":{"x":170388.85000000149,"y":2543314.0399999991}},{"attributes":{"ID":386948,"DIS_CODE":0,"TOWNNAME":"東區","LI":"中西里","LIN":"37鄰","STREET":"林森路","SECT":"二段","MAREA":" ","LANE":"９１巷","ALLEY":" ","HOUSE_NO":"４１號","E_COORD97":170343.88,"N_COORD97":2543414.1600000001,"ADDRESS":"林森路二段９１巷４１號","OBJECTID":386924},"geometry":{"x":170343.88000000082,"y":2543414.160000002}},{"attributes":{"ID":386949,"DIS_CODE":0,"TOWNNAME":"東區","LI":"中西里","LIN":"37鄰","STREET":"林森路","SECT":"二段","MAREA":" ","LANE":"９１巷","ALLEY":" ","HOUSE_NO":"５號","E_COORD97":170387.26999999999,"N_COORD97":2543318.3599999999,"ADDRESS":"林森路二段９１巷５號","OBJECTID":386925},"geometry":{"x":170387.26999999955,"y":2543318.3599999994}},{"attributes":{"ID":386950,"DIS_CODE":0,"TOWNNAME":"東區","LI":"中西里","LIN":"37鄰","STREET":"林森路","SECT":"二段","MAREA":" ","LANE":"９１巷","ALLEY":" ","HOUSE_NO":"６號","E_COORD97":170388.64999999999,"N_COORD97":2543335.5299999998,"ADDRESS":"林森路二段９１巷６號","OBJECTID":386926},"geometry":{"x":170388.65000000037,"y":2543335.5300000012}},{"attributes":{"ID":386951,"DIS_CODE":0,"TOWNNAME":"東區","LI":"泉南里","LIN":"1鄰","STREET":"東門路","SECT":"一段","MAREA":" ","LANE":"１９６巷","ALLEY":" ","HOUSE_NO":"１號","E_COORD97":169642.67000000001,"N_COORD97":2543072.4900000002,"ADDRESS":"東門路一段１９６巷１號","OBJECTID":386927},"geometry":{"x":169642.66999999993,"y":2543072.4900000021}},{"attributes":{"ID":386952,"DIS_CODE":0,"TOWNNAME":"東區","LI":"泉南里","LIN":"1鄰","STREET":"東門路","SECT":"一段","MAREA":" ","LANE":"１９６巷","ALLEY":" ","HOUSE_NO":"３號","E_COORD97":169647.06,"N_COORD97":2543071.1600000001,"ADDRESS":"東門路一段１９６巷３號","OBJECTID":386928},"geometry":{"x":169647.06000000052,"y":2543071.160000002}},{"attributes":{"ID":386953,"DIS_CODE":0,"TOWNNAME":"東區","LI":"泉南里","LIN":"1鄰","STREET":"東門路","SECT":"一段","MAREA":" ","LANE":"１９６巷","ALLEY":" ","HOUSE_NO":"５號","E_COORD97":169650.66,"N_COORD97":2543069.8300000001,"ADDRESS":"東門路一段１９６巷５號","OBJECTID":386929},"geometry":{"x":169650.66000000108,"y":2543069.8300000019}},{"attributes":{"ID":386954,"DIS_CODE":0,"TOWNNAME":"東區","LI":"泉南里","LIN":"1鄰","STREET":"東門路","SECT":"一段","MAREA":" ","LANE":"２１２巷","ALLEY":" ","HOUSE_NO":"１０號","E_COORD97":169655.32000000001,"N_COORD97":2543044.8100000001,"ADDRESS":"東門路一段２１２巷１０號","OBJECTID":386930},"geometry":{"x":169655.3200000003,"y":2543044.8100000005}},{"attributes":{"ID":386955,"DIS_CODE":0,"TOWNNAME":"東區","LI":"泉南里","LIN":"1鄰","STREET":"東門路","SECT":"一段","MAREA":" ","LANE":"２１２巷","ALLEY":" ","HOUSE_NO":"２號","E_COORD97":169663.98000000001,"N_COORD97":2543063.8399999999,"ADDRESS":"東門路一段２１２巷２號","OBJECTID":386931},"geometry":{"x":169663.98000000138,"y":2543063.8400000017}},{"attributes":{"ID":386956,"DIS_CODE":0,"TOWNNAME":"東區","LI":"泉南里","LIN":"1鄰","STREET":"東門路","SECT":"一段","MAREA":" ","LANE":"２１２巷","ALLEY":" ","HOUSE_NO":"６號","E_COORD97":169662.25,"N_COORD97":2543056.3900000001,"ADDRESS":"東門路一段２１２巷６號","OBJECTID":386932},"geometry":{"x":169662.25,"y":2543056.3900000025}},{"attributes":{"ID":386957,"DIS_CODE":0,"TOWNNAME":"東區","LI":"中西里","LIN":"37鄰","STREET":"林森路","SECT":"二段","MAREA":" ","LANE":"９１巷","ALLEY":" ","HOUSE_NO":"７號","E_COORD97":170385.5,"N_COORD97":2543322.29,"ADDRESS":"林森路二段９１巷７號","OBJECTID":386933},"geometry":{"x":170385.50000000093,"y":2543322.2899999991}},{"attributes":{"ID":386958,"DIS_CODE":0,"TOWNNAME":"東區","LI":"中西里","LIN":"37鄰","STREET":"林森路","SECT":"二段","MAREA":" ","LANE":"９１巷","ALLEY":" ","HOUSE_NO":"８號","E_COORD97":170384.62,"N_COORD97":2543345.4199999999,"ADDRESS":"林森路二段９１巷８號","OBJECTID":386934},"geometry":{"x":170384.62000000104,"y":2543345.4199999999}},{"attributes":{"ID":386959,"DIS_CODE":0,"TOWNNAME":"永康區","LI":"\u25A0行里","LIN":"37鄰","STREET":"仁愛街","SECT":" ","MAREA":" ","LANE":"８４巷","ALLEY":" ","HOUSE_NO":"５號","E_COORD97":172085.5,"N_COORD97":2549414.9100000001,"ADDRESS":"仁愛街８４巷５號","OBJECTID":386935},"geometry":{"x":172085.50000000093,"y":2549414.9100000001}},{"attributes":{"ID":386960,"DIS_CODE":0,"TOWNNAME":"東區","LI":"中西里","LIN":"37鄰","STREET":"林森路","SECT":"二段","MAREA":" ","LANE":"９１巷","ALLEY":" ","HOUSE_NO":"４３號","E_COORD97":170341.82000000001,"N_COORD97":2543418.7799999998,"ADDRESS":"林森路二段９１巷４３號","OBJECTID":386936},"geometry":{"x":170341.8200000003,"y":2543418.7800000012}},{"attributes":{"ID":386961,"DIS_CODE":0,"TOWNNAME":"東區","LI":"中西里","LIN":"37鄰","STREET":"林森路","SECT":"二段","MAREA":" ","LANE":"９１巷","ALLEY":" ","HOUSE_NO":"１６號","E_COORD97":170377.64000000001,"N_COORD97":2543363.4300000002,"ADDRESS":"林森路二段９１巷１６號","OBJECTID":386937},"geometry":{"x":170377.63999999966,"y":2543363.4300000034}},{"attributes":{"ID":386962,"DIS_CODE":0,"TOWNNAME":"永康區","LI":"龍潭里","LIN":"37鄰","STREET":"中山北路","SECT":" ","MAREA":" ","LANE":"１６４巷","ALLEY":" ","HOUSE_NO":"１１２號","E_COORD97":174525.56,"N_COORD97":2547395.9700000002,"ADDRESS":"中山北路１６４巷１１２號","OBJECTID":386938},"geometry":{"x":174525.56000000052,"y":2547395.9700000025}},{"attributes":{"ID":386963,"DIS_CODE":0,"TOWNNAME":"永康區","LI":"龍潭里","LIN":"37鄰","STREET":"中山北路","SECT":" ","MAREA":" ","LANE":"１６４巷","ALLEY":" ","HOUSE_NO":"１１６號之３","E_COORD97":174536.95000000001,"N_COORD97":2547313.6400000001,"ADDRESS":"中山北路１６４巷１１６號之３","OBJECTID":386939},"geometry":{"x":174536.95000000205,"y":2547313.6400000025}},{"attributes":{"ID":386964,"DIS_CODE":0,"TOWNNAME":"永康區","LI":"龍潭里","LIN":"37鄰","STREET":"中山北路","SECT":" ","MAREA":" ","LANE":"１６４巷","ALLEY":" ","HOUSE_NO":"１１４號之３","E_COORD97":174534.39000000001,"N_COORD97":2547361.6499999999,"ADDRESS":"中山北路１６４巷１１４號之３","OBJECTID":386940},"geometry":{"x":174534.38999999966,"y":2547361.6500000004}},{"attributes":{"ID":386965,"DIS_CODE":0,"TOWNNAME":"永康區","LI":"\u25A0洲里","LIN":"13鄰","STREET":"\u25A0洲一街","SECT":" ","MAREA":" ","LANE":" ","ALLEY":" ","HOUSE_NO":"７０號","E_COORD97":171594.95000000001,"N_COORD97":2549055.4900000002,"ADDRESS":"\u25A0洲一街７０號","OBJECTID":386941},"geometry":{"x":171594.95000000019,"y":2549055.4900000002}},{"attributes":{"ID":386966,"DIS_CODE":0,"TOWNNAME":"永康區","LI":"龍潭里","LIN":"37鄰","STREET":"中山北路","SECT":" ","MAREA":" ","LANE":"１６４巷","ALLEY":" ","HOUSE_NO":"１１４號之１","E_COORD97":174534.13,"N_COORD97":2547383.8999999999,"ADDRESS":"中山北路１６４巷１１４號之１","OBJECTID":386942},"geometry":{"x":174534.13000000082,"y":2547383.9000000004}},{"attributes":{"ID":386967,"DIS_CODE":0,"TOWNNAME":"仁德區","LI":"仁義里","LIN":"37鄰","STREET":"仁義六街","SECT":" ","MAREA":" ","LANE":"５６巷","ALLEY":" ","HOUSE_NO":"２號","E_COORD97":173598.94,"N_COORD97":2540106.02,"ADDRESS":"仁義六街５６巷２號","OBJECTID":386943},"geometry":{"x":173598.94000000041,"y":2540106.0200000014}},{"attributes":{"ID":386968,"DIS_CODE":0,"TOWNNAME":"東區","LI":"中西里","LIN":"37鄰","STREET":"林森路","SECT":"二段","MAREA":" ","LANE":"９１巷","ALLEY":" ","HOUSE_NO":"１５號","E_COORD97":170377.42000000001,"N_COORD97":2543340.8199999998,"ADDRESS":"林森路二段９１巷１５號","OBJECTID":386944},"geometry":{"x":170377.42000000086,"y":2543340.820000004}},{"attributes":{"ID":386969,"DIS_CODE":0,"TOWNNAME":"東區","LI":"中西里","LIN":"37鄰","STREET":"林森路","SECT":"二段","MAREA":" ","LANE":"９１巷","ALLEY":" ","HOUSE_NO":"１８號","E_COORD97":170376.95000000001,"N_COORD97":2543369.1000000001,"ADDRESS":"林森路二段９１巷１８號","OBJECTID":386945},"geometry":{"x":170376.95000000205,"y":2543369.1000000034}},{"attributes":{"ID":386970,"DIS_CODE":0,"TOWNNAME":"東區","LI":"中西里","LIN":"37鄰","STREET":"林森路","SECT":"二段","MAREA":" ","LANE":"９１巷","ALLEY":" ","HOUSE_NO":"２８號","E_COORD97":170362.79000000001,"N_COORD97":2543396.3999999999,"ADDRESS":"林森路二段９１巷２８號","OBJECTID":386946},"geometry":{"x":170362.79000000097,"y":2543396.4000000022}},{"attributes":{"ID":386971,"DIS_CODE":0,"TOWNNAME":"東區","LI":"中西里","LIN":"37鄰","STREET":"林森路","SECT":"二段","MAREA":" ","LANE":"９１巷","ALLEY":" ","HOUSE_NO":"３０號","E_COORD97":170359.54999999999,"N_COORD97":2543403.75,"ADDRESS":"林森路二段９１巷３０號","OBJECTID":386947},"geometry":{"x":170359.55000000075,"y":2543403.7500000019}},{"attributes":{"ID":386972,"DIS_CODE":0,"TOWNNAME":"東區","LI":"中西里","LIN":"37鄰","STREET":"林森路","SECT":"二段","MAREA":" ","LANE":"９１巷","ALLEY":" ","HOUSE_NO":"３７號","E_COORD97":170350.37,"N_COORD97":2543398.6000000001,"ADDRESS":"林森路二段９１巷３７號","OBJECTID":386948},"geometry":{"x":170350.37000000197,"y":2543398.5999999996}},{"attributes":{"ID":386973,"DIS_CODE":0,"TOWNNAME":"東區","LI":"中西里","LIN":"37鄰","STREET":"林森路","SECT":"二段","MAREA":" ","LANE":"９１巷","ALLEY":" ","HOUSE_NO":"４號","E_COORD97":170391.60000000001,"N_COORD97":2543329.8300000001,"ADDRESS":"林森路二段９１巷４號","OBJECTID":386949},"geometry":{"x":170391.59999999963,"y":2543329.8300000001}},{"attributes":{"ID":386974,"DIS_CODE":0,"TOWNNAME":"東區","LI":"中西里","LIN":"37鄰","STREET":"林森路","SECT":"二段","MAREA":" ","LANE":"９１巷","ALLEY":" ","HOUSE_NO":"２０號之１","E_COORD97":170372.85993899999,"N_COORD97":2543373.5896700001,"ADDRESS":"林森路二段９１巷２０號之１","OBJECTID":386950},"geometry":{"x":170372.85993899964,"y":2543373.5896710027}},{"attributes":{"ID":386975,"DIS_CODE":0,"TOWNNAME":"永康區","LI":"\u25A0洲里","LIN":"37鄰","STREET":"\u25A0洲二街","SECT":" ","MAREA":" ","LANE":"１９７巷","ALLEY":" ","HOUSE_NO":"２７號","E_COORD97":171700.16,"N_COORD97":2549485.4900000002,"ADDRESS":"\u25A0洲二街１９７巷２７號","OBJECTID":386951},"geometry":{"x":171700.16000000108,"y":2549485.4900000002}},{"attributes":{"ID":386976,"DIS_CODE":0,"TOWNNAME":"永康區","LI":"\u25A0洲里","LIN":"37鄰","STREET":"\u25A0洲二街","SECT":" ","MAREA":" ","LANE":"１７５巷","ALLEY":" ","HOUSE_NO":"９７號","E_COORD97":171646.98999999999,"N_COORD97":2549517.3900000001,"ADDRESS":"\u25A0洲二街１７５巷９７號","OBJECTID":386952},"geometry":{"x":171646.99000000115,"y":2549517.3900000006}},{"attributes":{"ID":386977,"DIS_CODE":0,"TOWNNAME":"永康區","LI":"\u25A0洲里","LIN":"37鄰","STREET":"\u25A0洲二街","SECT":" ","MAREA":" ","LANE":"１７５巷","ALLEY":" ","HOUSE_NO":"１０７號","E_COORD97":171633.79999999999,"N_COORD97":2549532.6400000001,"ADDRESS":"\u25A0洲二街１７５巷１０７號","OBJECTID":386953},"geometry":{"x":171633.80000000075,"y":2549532.6400000006}},{"attributes":{"ID":386978,"DIS_CODE":0,"TOWNNAME":"永康區","LI":"\u25A0洲里","LIN":"37鄰","STREET":"\u25A0洲二街","SECT":" ","MAREA":" ","LANE":"１７５巷","ALLEY":" ","HOUSE_NO":"１０５號","E_COORD97":171636.29999999999,"N_COORD97":2549529.8900000001,"ADDRESS":"\u25A0洲二街１７５巷１０５號","OBJECTID":386954},"geometry":{"x":171636.29999999981,"y":2549529.8900000025}},{"attributes":{"ID":386979,"DIS_CODE":0,"TOWNNAME":"永康區","LI":"\u25A0洲里","LIN":"37鄰","STREET":"\u25A0洲二街","SECT":" ","MAREA":" ","LANE":"１９７巷","ALLEY":" ","HOUSE_NO":"７號","E_COORD97":171728.10999999999,"N_COORD97":2549456,"ADDRESS":"\u25A0洲二街１９７巷７號","OBJECTID":386955},"geometry":{"x":171728.11000000034,"y":2549456.0000000019}},{"attributes":{"ID":386980,"DIS_CODE":0,"TOWNNAME":"永康區","LI":"\u25A0洲里","LIN":"37鄰","STREET":"\u25A0洲二街","SECT":" ","MAREA":" ","LANE":"１９７巷","ALLEY":" ","HOUSE_NO":"２１號","E_COORD97":171709.10999999999,"N_COORD97":2549476.4900000002,"ADDRESS":"\u25A0洲二街１９７巷２１號","OBJECTID":386956},"geometry":{"x":171709.11000000127,"y":2549476.4900000039}},{"attributes":{"ID":386981,"DIS_CODE":0,"TOWNNAME":"永康區","LI":"\u25A0洲里","LIN":"37鄰","STREET":"\u25A0洲二街","SECT":" ","MAREA":" ","LANE":"１９７巷","ALLEY":" ","HOUSE_NO":"１號","E_COORD97":171736.66,"N_COORD97":2549447,"ADDRESS":"\u25A0洲二街１９７巷１號","OBJECTID":386957},"geometry":{"x":171736.66000000201,"y":2549447.0000000019}},{"attributes":{"ID":386982,"DIS_CODE":0,"TOWNNAME":"永康區","LI":"\u25A0洲里","LIN":"37鄰","STREET":"\u25A0洲二街","SECT":" ","MAREA":" ","LANE":"１９７巷","ALLEY":" ","HOUSE_NO":"２５號","E_COORD97":171703.17000000001,"N_COORD97":2549482.4900000002,"ADDRESS":"\u25A0洲二街１９７巷２５號","OBJECTID":386958},"geometry":{"x":171703.17000000086,"y":2549482.4900000002}},{"attributes":{"ID":386983,"DIS_CODE":0,"TOWNNAME":"永康區","LI":"\u25A0洲里","LIN":"37鄰","STREET":"\u25A0洲二街","SECT":" ","MAREA":" ","LANE":"１９７巷","ALLEY":" ","HOUSE_NO":"３９號","E_COORD97":171683.20000000001,"N_COORD97":2549503.7400000002,"ADDRESS":"\u25A0洲二街１９７巷３９號","OBJECTID":386959},"geometry":{"x":171683.20000000019,"y":2549503.7400000002}},{"attributes":{"ID":386984,"DIS_CODE":0,"TOWNNAME":"永康區","LI":"\u25A0洲里","LIN":"37鄰","STREET":"\u25A0洲二街","SECT":" ","MAREA":" ","LANE":"１７５巷","ALLEY":" ","HOUSE_NO":"１３３號","E_COORD97":171686.79000000001,"N_COORD97":2549539.5,"ADDRESS":"\u25A0洲二街１７５巷１３３號","OBJECTID":386960},"geometry":{"x":171686.79000000097,"y":2549539.5}},{"attributes":{"ID":386985,"DIS_CODE":0,"TOWNNAME":"永康區","LI":"\u25A0洲里","LIN":"37鄰","STREET":"\u25A0洲二街","SECT":" ","MAREA":" ","LANE":"１９７巷","ALLEY":" ","HOUSE_NO":"３３號","E_COORD97":171692.32000000001,"N_COORD97":2549495.4900000002,"ADDRESS":"\u25A0洲二街１９７巷３３號","OBJECTID":386961},"geometry":{"x":171692.32000000123,"y":2549495.4900000002}},{"attributes":{"ID":386986,"DIS_CODE":0,"TOWNNAME":"西港區","LI":"慶安里","LIN":"28鄰","STREET":"新興街","SECT":" ","MAREA":" ","LANE":"１５巷","ALLEY":" ","HOUSE_NO":"４號","E_COORD97":168198.5,"N_COORD97":2557781.5800000001,"ADDRESS":"新興街１５巷４號","OBJECTID":386962},"geometry":{"x":168198.50000000093,"y":2557781.5800000001}},{"attributes":{"ID":386987,"DIS_CODE":0,"TOWNNAME":"永康區","LI":"\u25A0洲里","LIN":"37鄰","STREET":"\u25A0洲二街","SECT":" ","MAREA":" ","LANE":"１９７巷","ALLEY":" ","HOUSE_NO":"１１號","E_COORD97":171723.57000000001,"N_COORD97":2549461.7400000002,"ADDRESS":"\u25A0洲二街１９７巷１１號","OBJECTID":386963},"geometry":{"x":171723.5700000003,"y":2549461.7400000021}},{"attributes":{"ID":386988,"DIS_CODE":0,"TOWNNAME":"永康區","LI":"\u25A0洲里","LIN":"37鄰","STREET":"\u25A0洲二街","SECT":" ","MAREA":" ","LANE":"１９７巷","ALLEY":" ","HOUSE_NO":"３８號","E_COORD97":171713.54999999999,"N_COORD97":2549504.4900000002,"ADDRESS":"\u25A0洲二街１９７巷３８號","OBJECTID":386964},"geometry":{"x":171713.55000000075,"y":2549504.4900000021}},{"attributes":{"ID":386989,"DIS_CODE":0,"TOWNNAME":"永康區","LI":"\u25A0洲里","LIN":"37鄰","STREET":"\u25A0洲二街","SECT":" ","MAREA":" ","LANE":"１９７巷","ALLEY":" ","HOUSE_NO":"５０號","E_COORD97":171701.41,"N_COORD97":2549516,"ADDRESS":"\u25A0洲二街１９７巷５０號","OBJECTID":386965},"geometry":{"x":171701.41000000108,"y":2549516}},{"attributes":{"ID":386990,"DIS_CODE":0,"TOWNNAME":"永康區","LI":"\u25A0洲里","LIN":"37鄰","STREET":"\u25A0洲二街","SECT":" ","MAREA":" ","LANE":"１７５巷","ALLEY":" ","HOUSE_NO":"１５３號","E_COORD97":171724.17000000001,"N_COORD97":2549560.0099999998,"ADDRESS":"\u25A0洲二街１７５巷１５３號","OBJECTID":386966},"geometry":{"x":171724.16999999993,"y":2549560.0099999998}},{"attributes":{"ID":386991,"DIS_CODE":0,"TOWNNAME":"永康區","LI":"\u25A0洲里","LIN":"37鄰","STREET":"\u25A0洲二街","SECT":" ","MAREA":" ","LANE":"１９７巷","ALLEY":" ","HOUSE_NO":"２９號","E_COORD97":171697.51000000001,"N_COORD97":2549488.2400000002,"ADDRESS":"\u25A0洲二街１９７巷２９號","OBJECTID":386967},"geometry":{"x":171697.50999999978,"y":2549488.2400000039}},{"attributes":{"ID":386992,"DIS_CODE":0,"TOWNNAME":"永康區","LI":"\u25A0行里","LIN":"37鄰","STREET":"仁愛街","SECT":" ","MAREA":" ","LANE":"８４巷","ALLEY":" ","HOUSE_NO":"８號","E_COORD97":172076.95000000001,"N_COORD97":2549395.8999999999,"ADDRESS":"仁愛街８４巷８號","OBJECTID":386968},"geometry":{"x":172076.95000000019,"y":2549395.9000000041}},{"attributes":{"ID":386993,"DIS_CODE":0,"TOWNNAME":"永康區","LI":"龍潭里","LIN":"37鄰","STREET":"中山北路","SECT":" ","MAREA":" ","LANE":"１６４巷","ALLEY":" ","HOUSE_NO":"１１８號","E_COORD97":174544.92000000001,"N_COORD97":2547314.3500000001,"ADDRESS":"中山北路１６４巷１１８號","OBJECTID":386969},"geometry":{"x":174544.91999999993,"y":2547314.3500000015}},{"attributes":{"ID":386994,"DIS_CODE":0,"TOWNNAME":"永康區","LI":"龍潭里","LIN":"37鄰","STREET":"中山北路","SECT":" ","MAREA":" ","LANE":"１６４巷","ALLEY":" ","HOUSE_NO":"１１６號之２","E_COORD97":174536.59,"N_COORD97":2547325.1400000001,"ADDRESS":"中山北路１６４巷１１６號之２","OBJECTID":386970},"geometry":{"x":174536.58999999985,"y":2547325.1400000006}},{"attributes":{"ID":386995,"DIS_CODE":0,"TOWNNAME":"永康區","LI":"北灣里","LIN":"37鄰","STREET":"大同街","SECT":" ","MAREA":" ","LANE":"３８０巷","ALLEY":" ","HOUSE_NO":"８號九樓之１","E_COORD97":174772.06,"N_COORD97":2546080.75,"ADDRESS":"大同街３８０巷８號九樓之１","OBJECTID":386971},"geometry":{"x":174772.05999999959,"y":2546080.7500000037}},{"attributes":{"ID":386996,"DIS_CODE":0,"TOWNNAME":"永康區","LI":"正強里","LIN":"37鄰","STREET":"正強街","SECT":" ","MAREA":" ","LANE":"３３０巷","ALLEY":" ","HOUSE_NO":"３號","E_COORD97":173305.35000000001,"N_COORD97":2548240.9900000002,"ADDRESS":"正強街３３０巷３號","OBJECTID":386972},"geometry":{"x":173305.35000000056,"y":2548240.9900000002}},{"attributes":{"ID":386997,"DIS_CODE":0,"TOWNNAME":"永康區","LI":"正強里","LIN":"37鄰","STREET":"正強街","SECT":" ","MAREA":" ","LANE":"３３０巷","ALLEY":" ","HOUSE_NO":"３０號","E_COORD97":173320.39000000001,"N_COORD97":2548225.7599999998,"ADDRESS":"正強街３３０巷３０號","OBJECTID":386973},"geometry":{"x":173320.3900000006,"y":2548225.7599999998}},{"attributes":{"ID":386998,"DIS_CODE":0,"TOWNNAME":"永康區","LI":"正強里","LIN":"37鄰","STREET":"正強街","SECT":" ","MAREA":" ","LANE":"３３０巷","ALLEY":" ","HOUSE_NO":"５號","E_COORD97":173311.04000000001,"N_COORD97":2548241.9900000002,"ADDRESS":"正強街３３０巷５號","OBJECTID":386974},"geometry":{"x":173311.04000000097,"y":2548241.9899999984}},{"attributes":{"ID":386999,"DIS_CODE":0,"TOWNNAME":"永康區","LI":"北灣里","LIN":"37鄰","STREET":"大同街","SECT":" ","MAREA":" ","LANE":"３２０巷","ALLEY":" ","HOUSE_NO":"９號","E_COORD97":174799.01999999999,"N_COORD97":2545979.5499999998,"ADDRESS":"大同街３２０巷９號","OBJECTID":386975},"geometry":{"x":174799.02000000048,"y":2545979.5500000007}},{"attributes":{"ID":387000,"DIS_CODE":0,"TOWNNAME":"永康區","LI":"正強里","LIN":"37鄰","STREET":"正強街","SECT":" ","MAREA":" ","LANE":"３３２巷","ALLEY":" ","HOUSE_NO":"９號","E_COORD97":173271.37,"N_COORD97":2548261.2400000002,"ADDRESS":"正強街３３２巷９號","OBJECTID":386976},"geometry":{"x":173271.37000000104,"y":2548261.2400000021}},{"attributes":{"ID":387001,"DIS_CODE":0,"TOWNNAME":"東區","LI":"後甲里","LIN":"24鄰","STREET":"中華東路","SECT":"一段","MAREA":" ","LANE":"２０７巷","ALLEY":" ","HOUSE_NO":"３６號","E_COORD97":171553.87,"N_COORD97":2543403.9700000002,"ADDRESS":"中華東路一段２０７巷３６號","OBJECTID":386977},"geometry":{"x":171553.87000000197,"y":2543403.9700000007}},{"attributes":{"ID":387002,"DIS_CODE":0,"TOWNNAME":"東區","LI":"後甲里","LIN":"24鄰","STREET":"中華東路","SECT":"一段","MAREA":" ","LANE":"２０７巷","ALLEY":" ","HOUSE_NO":"３８號","E_COORD97":171558.69,"N_COORD97":2543403.9700000002,"ADDRESS":"中華東路一段２０７巷３８號","OBJECTID":386978},"geometry":{"x":171558.69000000227,"y":2543403.9700000007}},{"attributes":{"ID":387003,"DIS_CODE":0,"TOWNNAME":"東區","LI":"後甲里","LIN":"24鄰","STREET":"中華東路","SECT":"一段","MAREA":" ","LANE":"２０７巷","ALLEY":" ","HOUSE_NO":"４０號","E_COORD97":171562.31,"N_COORD97":2543403.9700000002,"ADDRESS":"中華東路一段２０７巷４０號","OBJECTID":386979},"geometry":{"x":171562.31000000052,"y":2543403.9700000007}},{"attributes":{"ID":387004,"DIS_CODE":0,"TOWNNAME":"東區","LI":"後甲里","LIN":"24鄰","STREET":"中華東路","SECT":"一段","MAREA":" ","LANE":"２０７巷","ALLEY":" ","HOUSE_NO":"４２號","E_COORD97":171566.89000000001,"N_COORD97":2543403.9700000002,"ADDRESS":"中華東路一段２０７巷４２號","OBJECTID":386980},"geometry":{"x":171566.89000000153,"y":2543403.9700000007}},{"attributes":{"ID":387005,"DIS_CODE":0,"TOWNNAME":"永康區","LI":"永康里","LIN":"37鄰","STREET":"西勢路","SECT":" ","MAREA":" ","LANE":"７３８巷","ALLEY":" ","HOUSE_NO":"１１號","E_COORD97":174534.57000000001,"N_COORD97":2546794.9199999999,"ADDRESS":"西勢路７３８巷１１號","OBJECTID":386981},"geometry":{"x":174534.57000000216,"y":2546794.9200000037}},{"attributes":{"ID":387006,"DIS_CODE":0,"TOWNNAME":"歸仁區","LI":"南保里","LIN":"37鄰","STREET":"中山路","SECT":"三段","MAREA":" ","LANE":"１３８巷","ALLEY":" ","HOUSE_NO":"８號","E_COORD97":176666.29000000001,"N_COORD97":2540969.6099999999,"ADDRESS":"中山路三段１３８巷８號","OBJECTID":386982},"geometry":{"x":176666.29000000004,"y":2540969.6100000013}},{"attributes":{"ID":387007,"DIS_CODE":0,"TOWNNAME":"中西區","LI":"西湖里","LIN":"32鄰","STREET":"湖美二街","SECT":" ","MAREA":" ","LANE":"１４２巷","ALLEY":" ","HOUSE_NO":"２８號","E_COORD97":166289.32000000001,"N_COORD97":2545018.8900000001,"ADDRESS":"湖美二街１４２巷２８號","OBJECTID":386983},"geometry":{"x":166289.32000000123,"y":2545018.8900000043}},{"attributes":{"ID":387008,"DIS_CODE":0,"TOWNNAME":"中西區","LI":"西湖里","LIN":"32鄰","STREET":"湖美二街","SECT":" ","MAREA":" ","LANE":"１４２巷","ALLEY":" ","HOUSE_NO":"３號","E_COORD97":166157.37,"N_COORD97":2545014.8500000001,"ADDRESS":"湖美二街１４２巷３號","OBJECTID":386984},"geometry":{"x":166157.37000000011,"y":2545014.8500000034}},{"attributes":{"ID":387009,"DIS_CODE":0,"TOWNNAME":"中西區","LI":"西湖里","LIN":"32鄰","STREET":"湖美二街","SECT":" ","MAREA":" ","LANE":"１４２巷","ALLEY":" ","HOUSE_NO":"５３號","E_COORD97":166274.67000000001,"N_COORD97":2545051.2999999998,"ADDRESS":"湖美二街１４２巷５３號","OBJECTID":386985},"geometry":{"x":166274.67000000086,"y":2545051.3000000026}},{"attributes":{"ID":387010,"DIS_CODE":0,"TOWNNAME":"安平區","LI":"育平里","LIN":"32鄰","STREET":"健康三街","SECT":" ","MAREA":" ","LANE":"１８７巷","ALLEY":" ","HOUSE_NO":"２１號","E_COORD97":164706.79000000001,"N_COORD97":2543260.7999999998,"ADDRESS":"健康三街１８７巷２１號","OBJECTID":386986},"geometry":{"x":164706.79000000004,"y":2543260.8000000026}},{"attributes":{"ID":387011,"DIS_CODE":0,"TOWNNAME":"安平區","LI":"育平里","LIN":"32鄰","STREET":"健康三街","SECT":" ","MAREA":" ","LANE":"１８７巷","ALLEY":" ","HOUSE_NO":"２３號","E_COORD97":164702.29000000001,"N_COORD97":2543261.46,"ADDRESS":"健康三街１８７巷２３號","OBJECTID":386987},"geometry":{"x":164702.2900000019,"y":2543261.4600000009}},{"attributes":{"ID":387012,"DIS_CODE":0,"TOWNNAME":"官田區","LI":"隆田里","LIN":"28鄰","STREET":"中山路","SECT":"二段","MAREA":" ","LANE":"８５巷","ALLEY":" ","HOUSE_NO":"１２號","E_COORD97":178923.81,"N_COORD97":2565945.3100000001,"ADDRESS":"中山路二段８５巷１２號","OBJECTID":386988},"geometry":{"x":178923.80999999959,"y":2565945.3100000024}},{"attributes":{"ID":387013,"DIS_CODE":0,"TOWNNAME":"官田區","LI":"隆田里","LIN":"28鄰","STREET":"中山路","SECT":"二段","MAREA":" ","LANE":"８５巷","ALLEY":" ","HOUSE_NO":"１４號","E_COORD97":178921.98999999999,"N_COORD97":2565941.0099999998,"ADDRESS":"中山路二段８５巷１４號","OBJECTID":386989},"geometry":{"x":178921.98999999929,"y":2565941.0100000016}},{"attributes":{"ID":387014,"DIS_CODE":0,"TOWNNAME":"官田區","LI":"隆田里","LIN":"28鄰","STREET":"中山路","SECT":"二段","MAREA":" ","LANE":"８５巷","ALLEY":" ","HOUSE_NO":"４號","E_COORD97":178930.17000000001,"N_COORD97":2565963.2599999998,"ADDRESS":"中山路二段８５巷４號","OBJECTID":386990},"geometry":{"x":178930.16999999993,"y":2565963.2599999998}},{"attributes":{"ID":387015,"DIS_CODE":0,"TOWNNAME":"官田區","LI":"隆田里","LIN":"28鄰","STREET":"中山路","SECT":"二段","MAREA":" ","LANE":"８５巷","ALLEY":" ","HOUSE_NO":"６號","E_COORD97":178928.54999999999,"N_COORD97":2565958.4399999999,"ADDRESS":"中山路二段８５巷６號","OBJECTID":386991},"geometry":{"x":178928.55000000075,"y":2565958.4399999995}},{"attributes":{"ID":387016,"DIS_CODE":0,"TOWNNAME":"官田區","LI":"隆田里","LIN":"28鄰","STREET":"中山路","SECT":"二段","MAREA":" ","LANE":"８５巷","ALLEY":" ","HOUSE_NO":"８號","E_COORD97":178926.39999999999,"N_COORD97":2565954.4500000002,"ADDRESS":"中山路二段８５巷８號","OBJECTID":386992},"geometry":{"x":178926.40000000224,"y":2565954.4500000011}},{"attributes":{"ID":387017,"DIS_CODE":0,"TOWNNAME":"西港區","LI":"慶安里","LIN":"28鄰","STREET":"新興街","SECT":" ","MAREA":" ","LANE":"１５巷","ALLEY":" ","HOUSE_NO":"３號","E_COORD97":168194.92999999999,"N_COORD97":2557761.8100000001,"ADDRESS":"新興街１５巷３號","OBJECTID":386993},"geometry":{"x":168194.93000000156,"y":2557761.8100000024}},{"attributes":{"ID":387018,"DIS_CODE":0,"TOWNNAME":"西港區","LI":"慶安里","LIN":"28鄰","STREET":"新興街","SECT":" ","MAREA":" ","LANE":"１５巷","ALLEY":" ","HOUSE_NO":"４８號","E_COORD97":168123.45000000001,"N_COORD97":2557762.9500000002,"ADDRESS":"新興街１５巷４８號","OBJECTID":386994},"geometry":{"x":168123.45000000019,"y":2557762.9500000011}},{"attributes":{"ID":387019,"DIS_CODE":0,"TOWNNAME":"西港區","LI":"慶安里","LIN":"28鄰","STREET":"新興街","SECT":" ","MAREA":" ","LANE":"１５巷","ALLEY":" ","HOUSE_NO":"５２號","E_COORD97":168105.07000000001,"N_COORD97":2557765.7000000002,"ADDRESS":"新興街１５巷５２號","OBJECTID":386995},"geometry":{"x":168105.07000000123,"y":2557765.6999999993}},{"attributes":{"ID":387020,"DIS_CODE":0,"TOWNNAME":"西港區","LI":"慶安里","LIN":"28鄰","STREET":"新興街","SECT":" ","MAREA":" ","LANE":"１５巷","ALLEY":" ","HOUSE_NO":"５４號","E_COORD97":168100.42999999999,"N_COORD97":2557765.3599999999,"ADDRESS":"新興街１５巷５４號","OBJECTID":386996},"geometry":{"x":168100.43000000063,"y":2557765.3599999994}},{"attributes":{"ID":387021,"DIS_CODE":0,"TOWNNAME":"西港區","LI":"慶安里","LIN":"28鄰","STREET":"新興街","SECT":" ","MAREA":" ","LANE":"１５巷","ALLEY":" ","HOUSE_NO":"５６號","E_COORD97":168095.42000000001,"N_COORD97":2557764.5099999998,"ADDRESS":"新興街１５巷５６號","OBJECTID":386997},"geometry":{"x":168095.42000000086,"y":2557764.5099999998}},{"attributes":{"ID":387022,"DIS_CODE":0,"TOWNNAME":"西港區","LI":"慶安里","LIN":"28鄰","STREET":"新興街","SECT":" ","MAREA":" ","LANE":"１５巷","ALLEY":" ","HOUSE_NO":"６號","E_COORD97":168194.23000000001,"N_COORD97":2557780.2000000002,"ADDRESS":"新興街１５巷６號","OBJECTID":386998},"geometry":{"x":168194.23000000138,"y":2557780.200000003}},{"attributes":{"ID":387023,"DIS_CODE":0,"TOWNNAME":"西港區","LI":"慶安里","LIN":"28鄰","STREET":"新興街","SECT":" ","MAREA":" ","LANE":"１５巷","ALLEY":" ","HOUSE_NO":"８號","E_COORD97":168189.56,"N_COORD97":2557778.8399999999,"ADDRESS":"新興街１５巷８號","OBJECTID":386999},"geometry":{"x":168189.56000000052,"y":2557778.8399999999}},{"attributes":{"ID":387024,"DIS_CODE":0,"TOWNNAME":"西港區","LI":"慶安里","LIN":"28鄰","STREET":"新興街","SECT":" ","MAREA":" ","LANE":"１５巷","ALLEY":" ","HOUSE_NO":"９號","E_COORD97":168128.69,"N_COORD97":2557747.3399999999,"ADDRESS":"新興街１５巷９號","OBJECTID":387000},"geometry":{"x":168128.69000000041,"y":2557747.3400000017}}]}