{"displayFieldName":"TOWNNAME","fieldAliases":{"ID":"ID","DIS_CODE":"DIS_CODE","TOWNNAME":"TOWNNAME","LI":"LI","LIN":"LIN","STREET":"STREET","SECT":"SECT","MAREA":"MAREA","LANE":"LANE","ALLEY":"ALLEY","HOUSE_NO":"HOUSE_NO","E_COORD97":"E_COORD97","N_COORD97":"N_COORD97","ADDRESS":"ADDRESS","OBJECTID":"OBJECTID"},"geometryType":"esriGeometryPoint","spatialReference":{"wkid":102443,"latestWkid":3826},"fields":[{"name":"ID","type":"esriFieldTypeDouble","alias":"ID"},{"name":"DIS_CODE","type":"esriFieldTypeInteger","alias":"DIS_CODE"},{"name":"TOWNNAME","type":"esriFieldTypeString","alias":"TOWNNAME","length":8},{"name":"LI","type":"esriFieldTypeString","alias":"LI","length":8},{"name":"LIN","type":"esriFieldTypeString","alias":"LIN","length":12},{"name":"STREET","type":"esriFieldTypeString","alias":"STREET","length":20},{"name":"SECT","type":"esriFieldTypeString","alias":"SECT","length":8},{"name":"MAREA","type":"esriFieldTypeString","alias":"MAREA","length":12},{"name":"LANE","type":"esriFieldTypeString","alias":"LANE","length":10},{"name":"ALLEY","type":"esriFieldTypeString","alias":"ALLEY","length":10},{"name":"HOUSE_NO","type":"esriFieldTypeString","alias":"HOUSE_NO","length":20},{"name":"E_COORD97","type":"esriFieldTypeDouble","alias":"E_COORD97"},{"name":"N_COORD97","type":"esriFieldTypeDouble","alias":"N_COORD97"},{"name":"ADDRESS","type":"esriFieldTypeString","alias":"ADDRESS","length":50},{"name":"OBJECTID","type":"esriFieldTypeOID","alias":"OBJECTID"}],"features":[{"attributes":{"ID":538028,"DIS_CODE":0,"TOWNNAME":"南區","LI":"大林里","LIN":"19鄰","STREET":"大林路","SECT":" ","MAREA":" ","LANE":" ","ALLEY":" ","HOUSE_NO":"１０７號","E_COORD97":169154.32999999999,"N_COORD97":2541779.4300000002,"ADDRESS":"大林路１０７號","OBJECTID":538001},"geometry":{"x":169154.33000000101,"y":2541779.4299999997}},{"attributes":{"ID":538029,"DIS_CODE":0,"TOWNNAME":"南區","LI":"大林里","LIN":"19鄰","STREET":"大林路","SECT":" ","MAREA":" ","LANE":" ","ALLEY":" ","HOUSE_NO":"１０９號","E_COORD97":169146.59,"N_COORD97":2541775.1299999999,"ADDRESS":"大林路１０９號","OBJECTID":538002},"geometry":{"x":169146.59000000171,"y":2541775.1300000008}},{"attributes":{"ID":538030,"DIS_CODE":0,"TOWNNAME":"歸仁區","LI":"看西里","LIN":"19鄰","STREET":"成功八街","SECT":" ","MAREA":" ","LANE":" ","ALLEY":" ","HOUSE_NO":"５０號","E_COORD97":178106.53,"N_COORD97":2539899.25,"ADDRESS":"成功八街５０號","OBJECTID":538003},"geometry":{"x":178106.53000000212,"y":2539899.25}},{"attributes":{"ID":538031,"DIS_CODE":0,"TOWNNAME":"歸仁區","LI":"崙頂里","LIN":"19鄰","STREET":"大成路","SECT":" ","MAREA":" ","LANE":" ","ALLEY":" ","HOUSE_NO":"１７１號","E_COORD97":177766.07999999999,"N_COORD97":2540190.98,"ADDRESS":"大成路１７１號","OBJECTID":538004},"geometry":{"x":177766.08000000007,"y":2540190.9800000023}},{"attributes":{"ID":538032,"DIS_CODE":0,"TOWNNAME":"歸仁區","LI":"大廟里","LIN":"19鄰","STREET":"保大路","SECT":"三段","MAREA":" ","LANE":" ","ALLEY":" ","HOUSE_NO":"２１９號","E_COORD97":175850.53,"N_COORD97":2544183.25,"ADDRESS":"保大路三段２１９號","OBJECTID":538005},"geometry":{"x":175850.53000000119,"y":2544183.2500000019}},{"attributes":{"ID":538033,"DIS_CODE":0,"TOWNNAME":"歸仁區","LI":"歸仁里","LIN":"19鄰","STREET":"忠孝北路","SECT":" ","MAREA":" ","LANE":" ","ALLEY":" ","HOUSE_NO":"１４７號","E_COORD97":178190.19,"N_COORD97":2541089.1099999999,"ADDRESS":"忠孝北路１４７號","OBJECTID":538006},"geometry":{"x":178190.19000000041,"y":2541089.1099999994}},{"attributes":{"ID":538034,"DIS_CODE":0,"TOWNNAME":"安平區","LI":"港仔里","LIN":"19鄰","STREET":"古堡街","SECT":" ","MAREA":" ","LANE":" ","ALLEY":" ","HOUSE_NO":"３３號","E_COORD97":164033.94,"N_COORD97":2544536.8100000001,"ADDRESS":"古堡街３３號","OBJECTID":538007},"geometry":{"x":164033.94000000227,"y":2544536.8100000005}},{"attributes":{"ID":538035,"DIS_CODE":0,"TOWNNAME":"安平區","LI":"港仔里","LIN":"19鄰","STREET":"古堡街","SECT":" ","MAREA":" ","LANE":" ","ALLEY":" ","HOUSE_NO":"５號","E_COORD97":164037.5,"N_COORD97":2544472.4199999999,"ADDRESS":"古堡街５號","OBJECTID":538008},"geometry":{"x":164037.5,"y":2544472.4200000037}},{"attributes":{"ID":538036,"DIS_CODE":0,"TOWNNAME":"中西區","LI":"小西里","LIN":"11鄰","STREET":"府前路","SECT":"一段","MAREA":" ","LANE":" ","ALLEY":" ","HOUSE_NO":"３８１號","E_COORD97":167854.63,"N_COORD97":2543408.0600000001,"ADDRESS":"府前路一段３８１號","OBJECTID":538009},"geometry":{"x":167854.63000000175,"y":2543408.0600000024}},{"attributes":{"ID":538037,"DIS_CODE":0,"TOWNNAME":"安平區","LI":"港仔里","LIN":"19鄰","STREET":"古堡街","SECT":" ","MAREA":" ","LANE":" ","ALLEY":" ","HOUSE_NO":"７號","E_COORD97":164037.78,"N_COORD97":2544476.7999999998,"ADDRESS":"古堡街７號","OBJECTID":538010},"geometry":{"x":164037.78000000026,"y":2544476.8000000007}},{"attributes":{"ID":538038,"DIS_CODE":0,"TOWNNAME":"安平區","LI":"港仔里","LIN":"19鄰","STREET":"古堡街","SECT":" ","MAREA":" ","LANE":" ","ALLEY":" ","HOUSE_NO":"９號","E_COORD97":164037.78,"N_COORD97":2544481.3100000001,"ADDRESS":"古堡街９號","OBJECTID":538011},"geometry":{"x":164037.78000000026,"y":2544481.3100000024}},{"attributes":{"ID":538039,"DIS_CODE":0,"TOWNNAME":"安平區","LI":"港仔里","LIN":"19鄰","STREET":"國勝路","SECT":" ","MAREA":" ","LANE":" ","ALLEY":" ","HOUSE_NO":"３２號","E_COORD97":164019.37,"N_COORD97":2544504.2000000002,"ADDRESS":"國勝路３２號","OBJECTID":538012},"geometry":{"x":164019.37000000104,"y":2544504.2000000011}},{"attributes":{"ID":538040,"DIS_CODE":0,"TOWNNAME":"新營區","LI":"民生里","LIN":"19鄰","STREET":"民治路","SECT":" ","MAREA":" ","LANE":" ","ALLEY":" ","HOUSE_NO":"１７１號","E_COORD97":178830.54000000001,"N_COORD97":2578489.7000000002,"ADDRESS":"民治路１７１號","OBJECTID":538013},"geometry":{"x":178830.54000000097,"y":2578489.7000000011}},{"attributes":{"ID":538041,"DIS_CODE":0,"TOWNNAME":"中西區","LI":"五妃里","LIN":"4鄰","STREET":"慶中街","SECT":" ","MAREA":" ","LANE":" ","ALLEY":" ","HOUSE_NO":"１１號","E_COORD97":168527.95999999999,"N_COORD97":2542619.8500000001,"ADDRESS":"慶中街１１號","OBJECTID":538014},"geometry":{"x":168527.96000000089,"y":2542619.8499999996}},{"attributes":{"ID":538042,"DIS_CODE":0,"TOWNNAME":"新營區","LI":"興業里","LIN":"19鄰","STREET":"中山路","SECT":" ","MAREA":" ","LANE":" ","ALLEY":" ","HOUSE_NO":"９３之２號","E_COORD97":180455.19,"N_COORD97":2578303.73,"ADDRESS":"中山路９３之２號","OBJECTID":538015},"geometry":{"x":180455.19000000227,"y":2578303.7300000023}},{"attributes":{"ID":538043,"DIS_CODE":0,"TOWNNAME":"歸仁區","LI":"七甲里","LIN":"19鄰","STREET":"南潭三街","SECT":" ","MAREA":" ","LANE":" ","ALLEY":" ","HOUSE_NO":"１４６號","E_COORD97":176397.73000000001,"N_COORD97":2543207.8100000001,"ADDRESS":"南潭三街１４６號","OBJECTID":538016},"geometry":{"x":176397.73000000045,"y":2543207.8100000005}},{"attributes":{"ID":538044,"DIS_CODE":0,"TOWNNAME":"歸仁區","LI":"八甲里","LIN":"19鄰","STREET":"大仁六街","SECT":" ","MAREA":" ","LANE":" ","ALLEY":" ","HOUSE_NO":"２１號","E_COORD97":178085.48999999999,"N_COORD97":2541488.25,"ADDRESS":"大仁六街２１號","OBJECTID":538017},"geometry":{"x":178085.49000000115,"y":2541488.25}},{"attributes":{"ID":538045,"DIS_CODE":0,"TOWNNAME":"歸仁區","LI":"八甲里","LIN":"19鄰","STREET":"大仁五街","SECT":" ","MAREA":" ","LANE":" ","ALLEY":" ","HOUSE_NO":"７０號","E_COORD97":178039.29000000001,"N_COORD97":2541462.25,"ADDRESS":"大仁五街７０號","OBJECTID":538018},"geometry":{"x":178039.29000000004,"y":2541462.25}},{"attributes":{"ID":538046,"DIS_CODE":0,"TOWNNAME":"關廟區","LI":"山西里","LIN":"19鄰","STREET":"崇平路","SECT":" ","MAREA":" ","LANE":" ","ALLEY":" ","HOUSE_NO":"１４６號","E_COORD97":180646.07000000001,"N_COORD97":2540417.25,"ADDRESS":"崇平路１４６號","OBJECTID":538019},"geometry":{"x":180646.07000000123,"y":2540417.25}},{"attributes":{"ID":538047,"DIS_CODE":0,"TOWNNAME":"東山區","LI":"東中里","LIN":"19鄰","STREET":"中興路","SECT":" ","MAREA":" ","LANE":" ","ALLEY":" ","HOUSE_NO":"４４號","E_COORD97":188991.32000000001,"N_COORD97":2580092.1099999999,"ADDRESS":"中興路４４號","OBJECTID":538020},"geometry":{"x":188991.32000000123,"y":2580092.1099999994}},{"attributes":{"ID":538048,"DIS_CODE":0,"TOWNNAME":"東山區","LI":"東中里","LIN":"19鄰","STREET":"中興路","SECT":" ","MAREA":" ","LANE":" ","ALLEY":" ","HOUSE_NO":"３０號","E_COORD97":188988.23999999999,"N_COORD97":2580060.02,"ADDRESS":"中興路３０號","OBJECTID":538021},"geometry":{"x":188988.24000000209,"y":2580060.0200000033}},{"attributes":{"ID":538049,"DIS_CODE":0,"TOWNNAME":"東山區","LI":"東中里","LIN":"19鄰","STREET":"中興路","SECT":" ","MAREA":" ","LANE":" ","ALLEY":" ","HOUSE_NO":"３４號","E_COORD97":188988.84,"N_COORD97":2580068.4300000002,"ADDRESS":"中興路３４號","OBJECTID":538022},"geometry":{"x":188988.84000000171,"y":2580068.4300000016}},{"attributes":{"ID":538050,"DIS_CODE":0,"TOWNNAME":"東山區","LI":"東中里","LIN":"19鄰","STREET":"中興路","SECT":" ","MAREA":" ","LANE":" ","ALLEY":" ","HOUSE_NO":"３６號","E_COORD97":188989.39000000001,"N_COORD97":2580074.1099999999,"ADDRESS":"中興路３６號","OBJECTID":538023},"geometry":{"x":188989.38999999966,"y":2580074.1100000013}},{"attributes":{"ID":538051,"DIS_CODE":0,"TOWNNAME":"東山區","LI":"東中里","LIN":"19鄰","STREET":"中興路","SECT":" ","MAREA":" ","LANE":" ","ALLEY":" ","HOUSE_NO":"３８號","E_COORD97":188990.45000000001,"N_COORD97":2580080.1200000001,"ADDRESS":"中興路３８號","OBJECTID":538024},"geometry":{"x":188990.45000000112,"y":2580080.120000001}},{"attributes":{"ID":538052,"DIS_CODE":0,"TOWNNAME":"南區","LI":"金華里","LIN":"19鄰","STREET":"尊南街","SECT":" ","MAREA":" ","LANE":" ","ALLEY":" ","HOUSE_NO":"２３３號","E_COORD97":166841.34,"N_COORD97":2542330.6899999999,"ADDRESS":"尊南街２３３號","OBJECTID":538025},"geometry":{"x":166841.34000000078,"y":2542330.6900000032}},{"attributes":{"ID":538053,"DIS_CODE":0,"TOWNNAME":"南區","LI":"金華里","LIN":"19鄰","STREET":"尊南街","SECT":" ","MAREA":" ","LANE":" ","ALLEY":" ","HOUSE_NO":"２３５號","E_COORD97":166841.34,"N_COORD97":2542336.6299999999,"ADDRESS":"尊南街２３５號","OBJECTID":538026},"geometry":{"x":166841.34000000078,"y":2542336.629999999}},{"attributes":{"ID":538054,"DIS_CODE":0,"TOWNNAME":"南區","LI":"金華里","LIN":"19鄰","STREET":"尊南街","SECT":" ","MAREA":" ","LANE":" ","ALLEY":" ","HOUSE_NO":"２３７號","E_COORD97":166841.64000000001,"N_COORD97":2542340.4300000002,"ADDRESS":"尊南街２３７號","OBJECTID":538027},"geometry":{"x":166841.63999999966,"y":2542340.4300000016}},{"attributes":{"ID":538055,"DIS_CODE":0,"TOWNNAME":"南區","LI":"金華里","LIN":"19鄰","STREET":"尊南街","SECT":" ","MAREA":" ","LANE":" ","ALLEY":" ","HOUSE_NO":"２３９號","E_COORD97":166841.67000000001,"N_COORD97":2542345.21,"ADDRESS":"尊南街２３９號","OBJECTID":538028},"geometry":{"x":166841.66999999993,"y":2542345.2100000009}},{"attributes":{"ID":538056,"DIS_CODE":0,"TOWNNAME":"南區","LI":"金華里","LIN":"19鄰","STREET":"尊南街","SECT":" ","MAREA":" ","LANE":" ","ALLEY":" ","HOUSE_NO":"２４１號","E_COORD97":166842.54000000001,"N_COORD97":2542349.8900000001,"ADDRESS":"尊南街２４１號","OBJECTID":538029},"geometry":{"x":166842.54000000004,"y":2542349.8900000006}},{"attributes":{"ID":538057,"DIS_CODE":0,"TOWNNAME":"南區","LI":"金華里","LIN":"19鄰","STREET":"尊南街","SECT":" ","MAREA":" ","LANE":" ","ALLEY":" ","HOUSE_NO":"２４３號","E_COORD97":166843.45999999999,"N_COORD97":2542354.0800000001,"ADDRESS":"尊南街２４３號","OBJECTID":538030},"geometry":{"x":166843.45999999996,"y":2542354.0800000001}},{"attributes":{"ID":538058,"DIS_CODE":0,"TOWNNAME":"南區","LI":"金華里","LIN":"19鄰","STREET":"尊南街","SECT":" ","MAREA":" ","LANE":" ","ALLEY":" ","HOUSE_NO":"２４５號","E_COORD97":166842.66,"N_COORD97":2542357.8500000001,"ADDRESS":"尊南街２４５號","OBJECTID":538031},"geometry":{"x":166842.66000000201,"y":2542357.8500000015}},{"attributes":{"ID":538059,"DIS_CODE":0,"TOWNNAME":"新營區","LI":"民權里","LIN":"19鄰","STREET":"中華路","SECT":" ","MAREA":" ","LANE":" ","ALLEY":" ","HOUSE_NO":"３１號之１","E_COORD97":179745.64000000001,"N_COORD97":2578207.4199999999,"ADDRESS":"中華路３１號之１","OBJECTID":538032},"geometry":{"x":179745.63999999966,"y":2578207.4200000018}},{"attributes":{"ID":538060,"DIS_CODE":0,"TOWNNAME":"歸仁區","LI":"文化里","LIN":"19鄰","STREET":"文化北二街","SECT":" ","MAREA":" ","LANE":" ","ALLEY":" ","HOUSE_NO":"７０號","E_COORD97":177110.47,"N_COORD97":2541476.2599999998,"ADDRESS":"文化北二街７０號","OBJECTID":538033},"geometry":{"x":177110.46999999974,"y":2541476.2600000035}},{"attributes":{"ID":538061,"DIS_CODE":0,"TOWNNAME":"中西區","LI":"五妃里","LIN":"1鄰","STREET":"南門路","SECT":" ","MAREA":" ","LANE":" ","ALLEY":" ","HOUSE_NO":"２４７號","E_COORD97":168376.56,"N_COORD97":2542523.6099999999,"ADDRESS":"南門路２４７號","OBJECTID":538034},"geometry":{"x":168376.55999999959,"y":2542523.6099999994}},{"attributes":{"ID":538062,"DIS_CODE":0,"TOWNNAME":"中西區","LI":"五妃里","LIN":"1鄰","STREET":"南門路","SECT":" ","MAREA":" ","LANE":" ","ALLEY":" ","HOUSE_NO":"２４７號之１","E_COORD97":168375.70999999999,"N_COORD97":2542514.7599999998,"ADDRESS":"南門路２４７號之１","OBJECTID":538035},"geometry":{"x":168375.70999999996,"y":2542514.7600000016}},{"attributes":{"ID":538063,"DIS_CODE":0,"TOWNNAME":"中西區","LI":"大南里","LIN":"6鄰","STREET":"南寧街","SECT":" ","MAREA":" ","LANE":" ","ALLEY":" ","HOUSE_NO":"７４號","E_COORD97":168261.81,"N_COORD97":2542857.52,"ADDRESS":"南寧街７４號","OBJECTID":538036},"geometry":{"x":168261.81000000052,"y":2542857.5200000033}},{"attributes":{"ID":538064,"DIS_CODE":0,"TOWNNAME":"鹽水區","LI":"福得里","LIN":"5鄰","STREET":"清泉路","SECT":" ","MAREA":" ","LANE":" ","ALLEY":" ","HOUSE_NO":"１０號","E_COORD97":175284.10000000001,"N_COORD97":2580032.21,"ADDRESS":"清泉路１０號","OBJECTID":538037},"geometry":{"x":175284.09999999963,"y":2580032.2100000009}},{"attributes":{"ID":538065,"DIS_CODE":0,"TOWNNAME":"鹽水區","LI":"福得里","LIN":"5鄰","STREET":"清泉路","SECT":" ","MAREA":" ","LANE":" ","ALLEY":" ","HOUSE_NO":"１２號","E_COORD97":175281.56,"N_COORD97":2580037.1600000001,"ADDRESS":"清泉路１２號","OBJECTID":538038},"geometry":{"x":175281.56000000052,"y":2580037.160000002}},{"attributes":{"ID":538066,"DIS_CODE":0,"TOWNNAME":"鹽水區","LI":"福得里","LIN":"5鄰","STREET":"清泉路","SECT":" ","MAREA":" ","LANE":" ","ALLEY":" ","HOUSE_NO":"４號","E_COORD97":175295.29000000001,"N_COORD97":2580017.3199999998,"ADDRESS":"清泉路４號","OBJECTID":538039},"geometry":{"x":175295.29000000004,"y":2580017.3200000003}},{"attributes":{"ID":538067,"DIS_CODE":0,"TOWNNAME":"南區","LI":"郡南里","LIN":"5鄰","STREET":"永吉街","SECT":" ","MAREA":" ","LANE":" ","ALLEY":" ","HOUSE_NO":"４３號","E_COORD97":167299.41,"N_COORD97":2540735.9700000002,"ADDRESS":"永吉街４３號","OBJECTID":538040},"geometry":{"x":167299.41000000108,"y":2540735.9700000007}},{"attributes":{"ID":538068,"DIS_CODE":0,"TOWNNAME":"中西區","LI":"公正里","LIN":"1鄰","STREET":"中山路","SECT":" ","MAREA":" ","LANE":" ","ALLEY":" ","HOUSE_NO":"１７８號","E_COORD97":169136.20999999999,"N_COORD97":2544082.6600000001,"ADDRESS":"中山路１７８號","OBJECTID":538041},"geometry":{"x":169136.21000000089,"y":2544082.6600000001}},{"attributes":{"ID":538069,"DIS_CODE":0,"TOWNNAME":"中西區","LI":"五妃里","LIN":"3鄰","STREET":"五妃街","SECT":" ","MAREA":" ","LANE":" ","ALLEY":" ","HOUSE_NO":"２０９號","E_COORD97":168410.42000000001,"N_COORD97":2542570.2999999998,"ADDRESS":"五妃街２０９號","OBJECTID":538042},"geometry":{"x":168410.42000000179,"y":2542570.3000000007}},{"attributes":{"ID":538070,"DIS_CODE":0,"TOWNNAME":"中西區","LI":"仙草里","LIN":"8鄰","STREET":"永福路","SECT":"一段","MAREA":" ","LANE":" ","ALLEY":" ","HOUSE_NO":"１０７號","E_COORD97":167972.81,"N_COORD97":2542757.2200000002,"ADDRESS":"永福路一段１０７號","OBJECTID":538043},"geometry":{"x":167972.80999999959,"y":2542757.2200000007}},{"attributes":{"ID":538071,"DIS_CODE":0,"TOWNNAME":"六甲區","LI":"二甲里","LIN":"5鄰","STREET":"進化街","SECT":" ","MAREA":" ","LANE":" ","ALLEY":" ","HOUSE_NO":"９１之１號","E_COORD97":183077.39999999999,"N_COORD97":2569505.3999999999,"ADDRESS":"進化街９１之１號","OBJECTID":538044},"geometry":{"x":183077.40000000037,"y":2569505.4000000022}},{"attributes":{"ID":538072,"DIS_CODE":0,"TOWNNAME":"南區","LI":"郡南里","LIN":"5鄰","STREET":"永興一街","SECT":" ","MAREA":" ","LANE":" ","ALLEY":" ","HOUSE_NO":"８號","E_COORD97":167281.38,"N_COORD97":2540728.2599999998,"ADDRESS":"永興一街８號","OBJECTID":538045},"geometry":{"x":167281.37999999989,"y":2540728.2600000016}},{"attributes":{"ID":538073,"DIS_CODE":0,"TOWNNAME":"南區","LI":"郡南里","LIN":" ","STREET":"永安街","SECT":" ","MAREA":" ","LANE":" ","ALLEY":" ","HOUSE_NO":"２４０號","E_COORD97":167480.42999999999,"N_COORD97":2540755.9900000002,"ADDRESS":"永安街２４０號","OBJECTID":538046},"geometry":{"x":167480.4299999997,"y":2540755.9899999984}},{"attributes":{"ID":538074,"DIS_CODE":0,"TOWNNAME":"中西區","LI":"大南里","LIN":"5鄰","STREET":"五妃街","SECT":" ","MAREA":" ","LANE":" ","ALLEY":" ","HOUSE_NO":"２３０號之１","E_COORD97":168201.70000000001,"N_COORD97":2542589.6299999999,"ADDRESS":"五妃街２３０號之１","OBJECTID":538047},"geometry":{"x":168201.70000000019,"y":2542589.6300000008}},{"attributes":{"ID":538075,"DIS_CODE":0,"TOWNNAME":"中西區","LI":"大南里","LIN":"6鄰","STREET":"南寧街","SECT":" ","MAREA":" ","LANE":" ","ALLEY":" ","HOUSE_NO":"５８號","E_COORD97":168295.63,"N_COORD97":2542851.54,"ADDRESS":"南寧街５８號","OBJECTID":538048},"geometry":{"x":168295.63000000082,"y":2542851.540000001}},{"attributes":{"ID":538076,"DIS_CODE":0,"TOWNNAME":"中西區","LI":"小西里","LIN":"4鄰","STREET":"西門路","SECT":"一段","MAREA":" ","LANE":" ","ALLEY":" ","HOUSE_NO":"６６２號底層","E_COORD97":167749.19,"N_COORD97":2543246.3900000001,"ADDRESS":"西門路一段６６２號底層","OBJECTID":538049},"geometry":{"x":167749.19000000041,"y":2543246.3900000025}},{"attributes":{"ID":538077,"DIS_CODE":0,"TOWNNAME":"中西區","LI":"小西里","LIN":"4鄰","STREET":"西門路","SECT":"一段","MAREA":" ","LANE":" ","ALLEY":" ","HOUSE_NO":"６６２號","E_COORD97":167749.19,"N_COORD97":2543246.3900000001,"ADDRESS":"西門路一段６６２號","OBJECTID":538050},"geometry":{"x":167749.19000000041,"y":2543246.3900000025}},{"attributes":{"ID":538078,"DIS_CODE":0,"TOWNNAME":"中西區","LI":"仙草里","LIN":"12鄰","STREET":"府緯街","SECT":" ","MAREA":" ","LANE":" ","ALLEY":" ","HOUSE_NO":"２８號","E_COORD97":167894.88,"N_COORD97":2542729.6200000001,"ADDRESS":"府緯街２８號","OBJECTID":538051},"geometry":{"x":167894.87999999989,"y":2542729.6200000048}},{"attributes":{"ID":538079,"DIS_CODE":0,"TOWNNAME":"中西區","LI":"開山里","LIN":"1鄰","STREET":"開山路","SECT":" ","MAREA":" ","LANE":" ","ALLEY":" ","HOUSE_NO":"１９３號","E_COORD97":168906.54000000001,"N_COORD97":2543115.4300000002,"ADDRESS":"開山路１９３號","OBJECTID":538052},"geometry":{"x":168906.5400000019,"y":2543115.4299999997}},{"attributes":{"ID":538080,"DIS_CODE":0,"TOWNNAME":"中西區","LI":"開山里","LIN":"1鄰","STREET":"開山路","SECT":" ","MAREA":" ","LANE":" ","ALLEY":" ","HOUSE_NO":"１９３號之１","E_COORD97":168910.22,"N_COORD97":2543111.6299999999,"ADDRESS":"開山路１９３號之１","OBJECTID":538053},"geometry":{"x":168910.22000000067,"y":2543111.6300000008}},{"attributes":{"ID":538081,"DIS_CODE":0,"TOWNNAME":"安平區","LI":"國平里","LIN":"18鄰","STREET":"永華路","SECT":"二段","MAREA":" ","LANE":" ","ALLEY":" ","HOUSE_NO":"６７１－１號","E_COORD97":165239.45999999999,"N_COORD97":2543481.8700000001,"ADDRESS":"永華路二段６７１－１號","OBJECTID":538054},"geometry":{"x":165239.45999999996,"y":2543481.8700000029}},{"attributes":{"ID":538082,"DIS_CODE":0,"TOWNNAME":"歸仁區","LI":"辜厝里","LIN":"44鄰","STREET":"中正南路","SECT":"一段","MAREA":" ","LANE":" ","ALLEY":" ","HOUSE_NO":"３１４號","E_COORD97":177171.64000000001,"N_COORD97":2540238.9500000002,"ADDRESS":"中正南路一段３１４號","OBJECTID":538055},"geometry":{"x":177171.6400000006,"y":2540238.9499999993}},{"attributes":{"ID":538083,"DIS_CODE":0,"TOWNNAME":"歸仁區","LI":"後市里","LIN":"44鄰","STREET":"民權北路","SECT":" ","MAREA":" ","LANE":" ","ALLEY":" ","HOUSE_NO":"６８號地下室","E_COORD97":177021.92999999999,"N_COORD97":2541056.7799999998,"ADDRESS":"民權北路６８號地下室","OBJECTID":538056},"geometry":{"x":177021.93000000063,"y":2541056.7799999993}},{"attributes":{"ID":538084,"DIS_CODE":0,"TOWNNAME":"仁德區","LI":"太子里","LIN":"44鄰","STREET":"太子一街","SECT":" ","MAREA":" ","LANE":" ","ALLEY":" ","HOUSE_NO":"９號","E_COORD97":174841.65681300001,"N_COORD97":2543439.4373300001,"ADDRESS":"太子一街９號","OBJECTID":538057},"geometry":{"x":174841.65681300126,"y":2543439.4373349994}},{"attributes":{"ID":538085,"DIS_CODE":0,"TOWNNAME":"仁德區","LI":"太子里","LIN":"44鄰","STREET":"太子路","SECT":" ","MAREA":" ","LANE":" ","ALLEY":" ","HOUSE_NO":"９９號","E_COORD97":174934.60999999999,"N_COORD97":2543524.2599999998,"ADDRESS":"太子路９９號","OBJECTID":538058},"geometry":{"x":174934.61000000127,"y":2543524.2600000016}},{"attributes":{"ID":538086,"DIS_CODE":0,"TOWNNAME":"仁德區","LI":"太子里","LIN":"44鄰","STREET":"太子一街","SECT":" ","MAREA":" ","LANE":" ","ALLEY":" ","HOUSE_NO":"６號","E_COORD97":174766.39000000001,"N_COORD97":2543491,"ADDRESS":"太子一街６號","OBJECTID":538059},"geometry":{"x":174766.3900000006,"y":2543491}},{"attributes":{"ID":538087,"DIS_CODE":0,"TOWNNAME":"仁德區","LI":"仁義里","LIN":"44鄰","STREET":"中正路","SECT":"二段","MAREA":" ","LANE":" ","ALLEY":" ","HOUSE_NO":"１０４２號","E_COORD97":173395.95999999999,"N_COORD97":2540911.52,"ADDRESS":"中正路二段１０４２號","OBJECTID":538060},"geometry":{"x":173395.96000000089,"y":2540911.5200000033}},{"attributes":{"ID":538088,"DIS_CODE":0,"TOWNNAME":"仁德區","LI":"仁義里","LIN":"44鄰","STREET":"仁義路","SECT":" ","MAREA":" ","LANE":" ","ALLEY":" ","HOUSE_NO":"６８號","E_COORD97":173542.42000000001,"N_COORD97":2540948.27,"ADDRESS":"仁義路６８號","OBJECTID":538061},"geometry":{"x":173542.42000000086,"y":2540948.2700000014}},{"attributes":{"ID":538089,"DIS_CODE":0,"TOWNNAME":"仁德區","LI":"仁義里","LIN":"44鄰","STREET":"仁義路","SECT":" ","MAREA":" ","LANE":" ","ALLEY":" ","HOUSE_NO":"１８號","E_COORD97":173435.10999999999,"N_COORD97":2540938.27,"ADDRESS":"仁義路１８號","OBJECTID":538062},"geometry":{"x":173435.11000000034,"y":2540938.2700000014}},{"attributes":{"ID":538090,"DIS_CODE":0,"TOWNNAME":"仁德區","LI":"仁義里","LIN":"44鄰","STREET":"中正路","SECT":"二段","MAREA":" ","LANE":" ","ALLEY":" ","HOUSE_NO":"１０５０號","E_COORD97":173392.32000000001,"N_COORD97":2540929.2799999998,"ADDRESS":"中正路二段１０５０號","OBJECTID":538063},"geometry":{"x":173392.32000000123,"y":2540929.2799999993}},{"attributes":{"ID":538091,"DIS_CODE":0,"TOWNNAME":"仁德區","LI":"仁義里","LIN":"44鄰","STREET":"中正路","SECT":"二段","MAREA":" ","LANE":" ","ALLEY":" ","HOUSE_NO":"１０３６號","E_COORD97":173401.29999999999,"N_COORD97":2540891.52,"ADDRESS":"中正路二段１０３６號","OBJECTID":538064},"geometry":{"x":173401.29999999981,"y":2540891.5200000014}},{"attributes":{"ID":538092,"DIS_CODE":0,"TOWNNAME":"仁德區","LI":"仁義里","LIN":"44鄰","STREET":"仁義路","SECT":" ","MAREA":" ","LANE":" ","ALLEY":" ","HOUSE_NO":"３０號","E_COORD97":173462.23000000001,"N_COORD97":2540939.77,"ADDRESS":"仁義路３０號","OBJECTID":538065},"geometry":{"x":173462.23000000231,"y":2540939.7699999996}},{"attributes":{"ID":538093,"DIS_CODE":0,"TOWNNAME":"仁德區","LI":"仁義里","LIN":"44鄰","STREET":"仁義路","SECT":" ","MAREA":" ","LANE":" ","ALLEY":" ","HOUSE_NO":"３６號","E_COORD97":173472.70000000001,"N_COORD97":2540940.52,"ADDRESS":"仁義路３６號","OBJECTID":538066},"geometry":{"x":173472.70000000112,"y":2540940.5199999996}},{"attributes":{"ID":538094,"DIS_CODE":0,"TOWNNAME":"仁德區","LI":"太子里","LIN":"44鄰","STREET":"太子一街","SECT":" ","MAREA":" ","LANE":" ","ALLEY":" ","HOUSE_NO":"５號","E_COORD97":174797.57999999999,"N_COORD97":2543489.75,"ADDRESS":"太子一街５號","OBJECTID":538067},"geometry":{"x":174797.58000000101,"y":2543489.75}},{"attributes":{"ID":538095,"DIS_CODE":0,"TOWNNAME":"仁德區","LI":"仁義里","LIN":"44鄰","STREET":"仁義路","SECT":" ","MAREA":" ","LANE":" ","ALLEY":" ","HOUSE_NO":"６６號","E_COORD97":173537.73000000001,"N_COORD97":2540948.02,"ADDRESS":"仁義路６６號","OBJECTID":538068},"geometry":{"x":173537.73000000045,"y":2540948.0199999996}},{"attributes":{"ID":538096,"DIS_CODE":0,"TOWNNAME":"仁德區","LI":"太子里","LIN":"44鄰","STREET":"太子路","SECT":" ","MAREA":" ","LANE":" ","ALLEY":" ","HOUSE_NO":"１２７之８號","E_COORD97":174802.23999999999,"N_COORD97":2543515.2999999998,"ADDRESS":"太子路１２７之８號","OBJECTID":538069},"geometry":{"x":174802.24000000022,"y":2543515.3000000026}},{"attributes":{"ID":538097,"DIS_CODE":0,"TOWNNAME":"仁德區","LI":"仁義里","LIN":"44鄰","STREET":"仁義路","SECT":" ","MAREA":" ","LANE":" ","ALLEY":" ","HOUSE_NO":"４６號","E_COORD97":173498.76000000001,"N_COORD97":2540943.52,"ADDRESS":"仁義路４６號","OBJECTID":538070},"geometry":{"x":173498.76000000071,"y":2540943.5199999996}},{"attributes":{"ID":538098,"DIS_CODE":0,"TOWNNAME":"仁德區","LI":"太子里","LIN":"44鄰","STREET":"太子一街","SECT":" ","MAREA":" ","LANE":" ","ALLEY":" ","HOUSE_NO":"１３號","E_COORD97":174835.84,"N_COORD97":2543427.7599999998,"ADDRESS":"太子一街１３號","OBJECTID":538071},"geometry":{"x":174835.84000000078,"y":2543427.7599999998}},{"attributes":{"ID":538099,"DIS_CODE":0,"TOWNNAME":"仁德區","LI":"成功里","LIN":"44鄰","STREET":"文賢路","SECT":"一段","MAREA":" ","LANE":" ","ALLEY":" ","HOUSE_NO":"９９號","E_COORD97":170321.84,"N_COORD97":2538150.8300000001,"ADDRESS":"文賢路一段９９號","OBJECTID":538072},"geometry":{"x":170321.84000000078,"y":2538150.8300000019}},{"attributes":{"ID":538100,"DIS_CODE":0,"TOWNNAME":"新市區","LI":"新和里","LIN":"44鄰","STREET":"民權路","SECT":" ","MAREA":" ","LANE":" ","ALLEY":" ","HOUSE_NO":"１２號","E_COORD97":177357.09,"N_COORD97":2553093.29,"ADDRESS":"民權路１２號","OBJECTID":538073},"geometry":{"x":177357.09000000078,"y":2553093.2899999991}},{"attributes":{"ID":538101,"DIS_CODE":0,"TOWNNAME":"新市區","LI":"新和里","LIN":"44鄰","STREET":"民生路","SECT":" ","MAREA":" ","LANE":" ","ALLEY":" ","HOUSE_NO":"１７號","E_COORD97":177363.82000000001,"N_COORD97":2553138.29,"ADDRESS":"民生路１７號","OBJECTID":538074},"geometry":{"x":177363.82000000216,"y":2553138.2900000028}},{"attributes":{"ID":538102,"DIS_CODE":0,"TOWNNAME":"新市區","LI":"新和里","LIN":"44鄰","STREET":"民生路","SECT":" ","MAREA":" ","LANE":" ","ALLEY":" ","HOUSE_NO":"１９號","E_COORD97":177360.04000000001,"N_COORD97":2553140.29,"ADDRESS":"民生路１９號","OBJECTID":538075},"geometry":{"x":177360.04000000004,"y":2553140.2899999991}},{"attributes":{"ID":538103,"DIS_CODE":0,"TOWNNAME":"新市區","LI":"新和里","LIN":"44鄰","STREET":"民生路","SECT":" ","MAREA":" ","LANE":" ","ALLEY":" ","HOUSE_NO":"３２號","E_COORD97":177300.16,"N_COORD97":2553199.04,"ADDRESS":"民生路３２號","OBJECTID":538076},"geometry":{"x":177300.15999999922,"y":2553199.040000001}},{"attributes":{"ID":538104,"DIS_CODE":0,"TOWNNAME":"仁德區","LI":"太子里","LIN":"44鄰","STREET":"太子一街","SECT":" ","MAREA":" ","LANE":" ","ALLEY":" ","HOUSE_NO":"１７號","E_COORD97":174840.10000000001,"N_COORD97":2543421.2599999998,"ADDRESS":"太子一街１７號","OBJECTID":538077},"geometry":{"x":174840.09999999963,"y":2543421.2599999998}},{"attributes":{"ID":538105,"DIS_CODE":0,"TOWNNAME":"仁德區","LI":"太子里","LIN":"44鄰","STREET":"太子路","SECT":" ","MAREA":" ","LANE":" ","ALLEY":" ","HOUSE_NO":"１２３號","E_COORD97":174856.37,"N_COORD97":2543520.5099999998,"ADDRESS":"太子路１２３號","OBJECTID":538078},"geometry":{"x":174856.37000000104,"y":2543520.5099999998}},{"attributes":{"ID":538106,"DIS_CODE":0,"TOWNNAME":"新市區","LI":"新和里","LIN":"44鄰","STREET":"民生路","SECT":" ","MAREA":" ","LANE":" ","ALLEY":" ","HOUSE_NO":"２４號","E_COORD97":177344.01999999999,"N_COORD97":2553173.29,"ADDRESS":"民生路２４號","OBJECTID":538079},"geometry":{"x":177344.01999999955,"y":2553173.290000001}},{"attributes":{"ID":538107,"DIS_CODE":0,"TOWNNAME":"中西區","LI":"五妃里","LIN":"4鄰","STREET":"慶中街","SECT":" ","MAREA":" ","LANE":" ","ALLEY":" ","HOUSE_NO":"２５號","E_COORD97":168540.01000000001,"N_COORD97":2542698.9700000002,"ADDRESS":"慶中街２５號","OBJECTID":538080},"geometry":{"x":168540.00999999978,"y":2542698.9700000007}},{"attributes":{"ID":538108,"DIS_CODE":0,"TOWNNAME":"新市區","LI":"新和里","LIN":"44鄰","STREET":"民生路","SECT":" ","MAREA":" ","LANE":" ","ALLEY":" ","HOUSE_NO":"９８號","E_COORD97":177109.88,"N_COORD97":2553348.79,"ADDRESS":"民生路９８號","OBJECTID":538081},"geometry":{"x":177109.87999999989,"y":2553348.790000001}},{"attributes":{"ID":538109,"DIS_CODE":0,"TOWNNAME":"永康區","LI":"龍潭里","LIN":"44鄰","STREET":"永平街","SECT":" ","MAREA":" ","LANE":" ","ALLEY":" ","HOUSE_NO":"２７８之２號","E_COORD97":174684.26000000001,"N_COORD97":2547032.0499999998,"ADDRESS":"永平街２７８之２號","OBJECTID":538082},"geometry":{"x":174684.26000000071,"y":2547032.0500000045}},{"attributes":{"ID":538110,"DIS_CODE":0,"TOWNNAME":"永康區","LI":"崑山里","LIN":"44鄰","STREET":"國光六街","SECT":" ","MAREA":" ","LANE":" ","ALLEY":" ","HOUSE_NO":"１０１號","E_COORD97":174016.45000000001,"N_COORD97":2545343.0600000001,"ADDRESS":"國光六街１０１號","OBJECTID":538083},"geometry":{"x":174016.45000000205,"y":2545343.0599999987}},{"attributes":{"ID":538111,"DIS_CODE":0,"TOWNNAME":"永康區","LI":"崑山里","LIN":"44鄰","STREET":"國光六街","SECT":" ","MAREA":" ","LANE":" ","ALLEY":" ","HOUSE_NO":"９９號","E_COORD97":174019.45999999999,"N_COORD97":2545340.8100000001,"ADDRESS":"國光六街９９號","OBJECTID":538084},"geometry":{"x":174019.45999999903,"y":2545340.8100000005}},{"attributes":{"ID":538112,"DIS_CODE":0,"TOWNNAME":"仁德區","LI":"成功里","LIN":"39鄰","STREET":"文賢路","SECT":"一段","MAREA":" ","LANE":" ","ALLEY":" ","HOUSE_NO":"１２０號","E_COORD97":170316.91,"N_COORD97":2538134.0800000001,"ADDRESS":"文賢路一段１２０號","OBJECTID":538085},"geometry":{"x":170316.91000000108,"y":2538134.0800000001}},{"attributes":{"ID":538113,"DIS_CODE":0,"TOWNNAME":"仁德區","LI":"成功里","LIN":"44鄰","STREET":"文賢路","SECT":"一段","MAREA":" ","LANE":" ","ALLEY":" ","HOUSE_NO":"７９號","E_COORD97":170253.25,"N_COORD97":2538191.0699999998,"ADDRESS":"文賢路一段７９號","OBJECTID":538086},"geometry":{"x":170253.25000000093,"y":2538191.0700000003}},{"attributes":{"ID":538114,"DIS_CODE":0,"TOWNNAME":"歸仁區","LI":"辜厝里","LIN":"44鄰","STREET":"大吉街","SECT":" ","MAREA":" ","LANE":" ","ALLEY":" ","HOUSE_NO":"２３８號","E_COORD97":177199.81,"N_COORD97":2540287.9500000002,"ADDRESS":"大吉街２３８號","OBJECTID":538087},"geometry":{"x":177199.80999999959,"y":2540287.9500000011}},{"attributes":{"ID":538115,"DIS_CODE":0,"TOWNNAME":"歸仁區","LI":"後市里","LIN":"44鄰","STREET":"民權北路","SECT":" ","MAREA":" ","LANE":" ","ALLEY":" ","HOUSE_NO":"５２號","E_COORD97":177012.81,"N_COORD97":2541015.7799999998,"ADDRESS":"民權北路５２號","OBJECTID":538088},"geometry":{"x":177012.81000000052,"y":2541015.7800000012}},{"attributes":{"ID":538116,"DIS_CODE":0,"TOWNNAME":"歸仁區","LI":"辜厝里","LIN":"44鄰","STREET":"大吉街","SECT":" ","MAREA":" ","LANE":" ","ALLEY":" ","HOUSE_NO":"２３２號","E_COORD97":177195.81,"N_COORD97":2540297.9500000002,"ADDRESS":"大吉街２３２號","OBJECTID":538089},"geometry":{"x":177195.81000000052,"y":2540297.950000003}},{"attributes":{"ID":538117,"DIS_CODE":0,"TOWNNAME":"歸仁區","LI":"後市里","LIN":"44鄰","STREET":"民權北路","SECT":" ","MAREA":" ","LANE":" ","ALLEY":" ","HOUSE_NO":"７２號","E_COORD97":177036.92999999999,"N_COORD97":2541053.75,"ADDRESS":"民權北路７２號","OBJECTID":538090},"geometry":{"x":177036.93000000156,"y":2541053.7500000019}},{"attributes":{"ID":538118,"DIS_CODE":0,"TOWNNAME":"歸仁區","LI":"辜厝里","LIN":"44鄰","STREET":"中正南路","SECT":"一段","MAREA":" ","LANE":" ","ALLEY":" ","HOUSE_NO":"３０２號","E_COORD97":177191.14000000001,"N_COORD97":2540252.9500000002,"ADDRESS":"中正南路一段３０２號","OBJECTID":538091},"geometry":{"x":177191.13999999966,"y":2540252.9499999993}},{"attributes":{"ID":538119,"DIS_CODE":0,"TOWNNAME":"永康區","LI":"崑山里","LIN":"44鄰","STREET":"國光六街","SECT":" ","MAREA":" ","LANE":" ","ALLEY":" ","HOUSE_NO":"９５號四樓","E_COORD97":174013.42000000001,"N_COORD97":2545324.1000000001,"ADDRESS":"國光六街９５號四樓","OBJECTID":538092},"geometry":{"x":174013.42000000086,"y":2545324.0999999996}},{"attributes":{"ID":538120,"DIS_CODE":0,"TOWNNAME":"中西區","LI":"仙草里","LIN":"11鄰","STREET":"府緯街","SECT":" ","MAREA":" ","LANE":" ","ALLEY":" ","HOUSE_NO":"７號","E_COORD97":167941.73999999999,"N_COORD97":2542704.73,"ADDRESS":"府緯街７號","OBJECTID":538093},"geometry":{"x":167941.74000000022,"y":2542704.7300000023}},{"attributes":{"ID":538121,"DIS_CODE":0,"TOWNNAME":"仁德區","LI":"仁義里","LIN":"44鄰","STREET":"中正路","SECT":"二段","MAREA":" ","LANE":" ","ALLEY":" ","HOUSE_NO":"１０４６號","E_COORD97":173394.79000000001,"N_COORD97":2540918.0299999998,"ADDRESS":"中正路二段１０４６號","OBJECTID":538094},"geometry":{"x":173394.79000000004,"y":2540918.0300000012}},{"attributes":{"ID":538122,"DIS_CODE":0,"TOWNNAME":"中西區","LI":"仙草里","LIN":"14鄰","STREET":"西門路","SECT":"一段","MAREA":" ","LANE":" ","ALLEY":" ","HOUSE_NO":"５０６號","E_COORD97":167744.84,"N_COORD97":2542790.4700000002,"ADDRESS":"西門路一段５０６號","OBJECTID":538095},"geometry":{"x":167744.84000000078,"y":2542790.4700000007}},{"attributes":{"ID":538123,"DIS_CODE":0,"TOWNNAME":"中西區","LI":"仙草里","LIN":"8鄰","STREET":"永福路","SECT":"一段","MAREA":" ","LANE":" ","ALLEY":" ","HOUSE_NO":"１１９號","E_COORD97":167972.98000000001,"N_COORD97":2542785.3199999998,"ADDRESS":"永福路一段１１９號","OBJECTID":538096},"geometry":{"x":167972.98000000045,"y":2542785.3200000022}},{"attributes":{"ID":538124,"DIS_CODE":0,"TOWNNAME":"歸仁區","LI":"後市里","LIN":"44鄰","STREET":"民權北路","SECT":" ","MAREA":" ","LANE":" ","ALLEY":" ","HOUSE_NO":"６８號三樓","E_COORD97":177020.70999999999,"N_COORD97":2541056.7799999998,"ADDRESS":"民權北路６８號三樓","OBJECTID":538097},"geometry":{"x":177020.71000000089,"y":2541056.7799999993}},{"attributes":{"ID":538125,"DIS_CODE":0,"TOWNNAME":"歸仁區","LI":"後市里","LIN":"44鄰","STREET":"民權北路","SECT":" ","MAREA":" ","LANE":" ","ALLEY":" ","HOUSE_NO":"７０號六樓","E_COORD97":177037.42999999999,"N_COORD97":2541053.75,"ADDRESS":"民權北路７０號六樓","OBJECTID":538098},"geometry":{"x":177037.43000000063,"y":2541053.7500000019}},{"attributes":{"ID":538126,"DIS_CODE":0,"TOWNNAME":"歸仁區","LI":"後市里","LIN":"44鄰","STREET":"民權北路","SECT":" ","MAREA":" ","LANE":" ","ALLEY":" ","HOUSE_NO":"７０號七樓","E_COORD97":177037.42999999999,"N_COORD97":2541053.75,"ADDRESS":"民權北路７０號七樓","OBJECTID":538099},"geometry":{"x":177037.43000000063,"y":2541053.7500000019}},{"attributes":{"ID":538127,"DIS_CODE":0,"TOWNNAME":"永康區","LI":"崑山里","LIN":"44鄰","STREET":"國光六街","SECT":" ","MAREA":" ","LANE":" ","ALLEY":" ","HOUSE_NO":"１２１號","E_COORD97":173962.63,"N_COORD97":2545354.5699999998,"ADDRESS":"國光六街１２１號","OBJECTID":538100},"geometry":{"x":173962.63000000082,"y":2545354.5700000022}},{"attributes":{"ID":538128,"DIS_CODE":0,"TOWNNAME":"新市區","LI":"新和里","LIN":"44鄰","STREET":"信義街","SECT":" ","MAREA":" ","LANE":" ","ALLEY":" ","HOUSE_NO":"１８４號","E_COORD97":177247.67999999999,"N_COORD97":2553175.77,"ADDRESS":"信義街１８４號","OBJECTID":538101},"geometry":{"x":177247.68000000063,"y":2553175.7699999977}},{"attributes":{"ID":538129,"DIS_CODE":0,"TOWNNAME":"永康區","LI":"成功里","LIN":"44鄰","STREET":"中華路","SECT":" ","MAREA":" ","LANE":" ","ALLEY":" ","HOUSE_NO":"９６號","E_COORD97":171617.19,"N_COORD97":2544771.9900000002,"ADDRESS":"中華路９６號","OBJECTID":538102},"geometry":{"x":171617.19000000134,"y":2544771.9900000021}},{"attributes":{"ID":538130,"DIS_CODE":0,"TOWNNAME":"歸仁區","LI":"後市里","LIN":"44鄰","STREET":"民權北路","SECT":" ","MAREA":" ","LANE":" ","ALLEY":" ","HOUSE_NO":"６０號","E_COORD97":177015.01000000001,"N_COORD97":2541031.7799999998,"ADDRESS":"民權北路６０號","OBJECTID":538103},"geometry":{"x":177015.01000000071,"y":2541031.7800000012}},{"attributes":{"ID":538131,"DIS_CODE":0,"TOWNNAME":"歸仁區","LI":"南保里","LIN":"44鄰","STREET":"民權十街","SECT":" ","MAREA":" ","LANE":" ","ALLEY":" ","HOUSE_NO":"５９號","E_COORD97":176792.48999999999,"N_COORD97":2540737.29,"ADDRESS":"民權十街５９號","OBJECTID":538104},"geometry":{"x":176792.49000000022,"y":2540737.290000001}},{"attributes":{"ID":538132,"DIS_CODE":0,"TOWNNAME":"歸仁區","LI":"六甲里","LIN":"44鄰","STREET":"六甲二街","SECT":" ","MAREA":" ","LANE":" ","ALLEY":" ","HOUSE_NO":"２７號","E_COORD97":175782.57000000001,"N_COORD97":2539289.25,"ADDRESS":"六甲二街２７號","OBJECTID":538105},"geometry":{"x":175782.57000000123,"y":2539289.25}},{"attributes":{"ID":538133,"DIS_CODE":0,"TOWNNAME":"歸仁區","LI":"六甲里","LIN":"44鄰","STREET":"六甲二街","SECT":" ","MAREA":" ","LANE":" ","ALLEY":" ","HOUSE_NO":"３１號","E_COORD97":175795.87,"N_COORD97":2539288.25,"ADDRESS":"六甲二街３１號","OBJECTID":538106},"geometry":{"x":175795.87000000104,"y":2539288.25}},{"attributes":{"ID":538134,"DIS_CODE":0,"TOWNNAME":"歸仁區","LI":"辜厝里","LIN":"44鄰","STREET":"大吉街","SECT":" ","MAREA":" ","LANE":" ","ALLEY":" ","HOUSE_NO":"２４０號","E_COORD97":177200.81,"N_COORD97":2540284.9500000002,"ADDRESS":"大吉街２４０號","OBJECTID":538107},"geometry":{"x":177200.81000000052,"y":2540284.9500000011}},{"attributes":{"ID":538135,"DIS_CODE":0,"TOWNNAME":"歸仁區","LI":"辜厝里","LIN":"44鄰","STREET":"中正南路","SECT":"一段","MAREA":" ","LANE":" ","ALLEY":" ","HOUSE_NO":"２９６號","E_COORD97":177201.44,"N_COORD97":2540258.9500000002,"ADDRESS":"中正南路一段２９６號","OBJECTID":538108},"geometry":{"x":177201.44000000041,"y":2540258.9499999993}},{"attributes":{"ID":538136,"DIS_CODE":0,"TOWNNAME":"仁德區","LI":"仁義里","LIN":"44鄰","STREET":"中正路","SECT":"二段","MAREA":" ","LANE":" ","ALLEY":" ","HOUSE_NO":"１０４０號","E_COORD97":173398.57000000001,"N_COORD97":2540903.02,"ADDRESS":"中正路二段１０４０號","OBJECTID":538109},"geometry":{"x":173398.5700000003,"y":2540903.0199999996}},{"attributes":{"ID":538137,"DIS_CODE":0,"TOWNNAME":"永康區","LI":"成功里","LIN":"44鄰","STREET":"中華路","SECT":" ","MAREA":" ","LANE":" ","ALLEY":" ","HOUSE_NO":"１４６號之１","E_COORD97":171620.76000000001,"N_COORD97":2544855.7999999998,"ADDRESS":"中華路１４６號之１","OBJECTID":538110},"geometry":{"x":171620.76000000071,"y":2544855.8000000007}},{"attributes":{"ID":538138,"DIS_CODE":0,"TOWNNAME":"南區","LI":"金華里","LIN":"12鄰","STREET":"賢南街","SECT":" ","MAREA":" ","LANE":" ","ALLEY":" ","HOUSE_NO":"７號","E_COORD97":166928.22,"N_COORD97":2542438.2000000002,"ADDRESS":"賢南街７號","OBJECTID":538111},"geometry":{"x":166928.2200000016,"y":2542438.1999999993}},{"attributes":{"ID":538139,"DIS_CODE":0,"TOWNNAME":"永康區","LI":"成功里","LIN":"44鄰","STREET":"中華路","SECT":" ","MAREA":" ","LANE":" ","ALLEY":" ","HOUSE_NO":"１４４號之２","E_COORD97":172046.66,"N_COORD97":2544829.7000000002,"ADDRESS":"中華路１４４號之２","OBJECTID":538112},"geometry":{"x":172046.66000000015,"y":2544829.7000000011}},{"attributes":{"ID":538140,"DIS_CODE":0,"TOWNNAME":"仁德區","LI":"仁義里","LIN":"44鄰","STREET":"仁義路","SECT":" ","MAREA":" ","LANE":" ","ALLEY":" ","HOUSE_NO":"４２之１號","E_COORD97":173497.47,"N_COORD97":2540943.0499999998,"ADDRESS":"仁義路４２之１號","OBJECTID":538113},"geometry":{"x":173497.47000000067,"y":2540943.0500000045}},{"attributes":{"ID":538141,"DIS_CODE":0,"TOWNNAME":"仁德區","LI":"仁義里","LIN":"44鄰","STREET":"仁義路","SECT":" ","MAREA":" ","LANE":" ","ALLEY":" ","HOUSE_NO":"３８號","E_COORD97":173478.14000000001,"N_COORD97":2540941.27,"ADDRESS":"仁義路３８號","OBJECTID":538114},"geometry":{"x":173478.13999999966,"y":2540941.2700000014}},{"attributes":{"ID":538142,"DIS_CODE":0,"TOWNNAME":"仁德區","LI":"仁義里","LIN":"44鄰","STREET":"仁義路","SECT":" ","MAREA":" ","LANE":" ","ALLEY":" ","HOUSE_NO":"６４號","E_COORD97":173533.88,"N_COORD97":2540947.52,"ADDRESS":"仁義路６４號","OBJECTID":538115},"geometry":{"x":173533.88000000082,"y":2540947.5199999996}},{"attributes":{"ID":538143,"DIS_CODE":0,"TOWNNAME":"仁德區","LI":"仁義里","LIN":"44鄰","STREET":"仁義路","SECT":" ","MAREA":" ","LANE":" ","ALLEY":" ","HOUSE_NO":"５０號","E_COORD97":173506.51999999999,"N_COORD97":2540944.27,"ADDRESS":"仁義路５０號","OBJECTID":538116},"geometry":{"x":173506.51999999955,"y":2540944.2700000014}},{"attributes":{"ID":538144,"DIS_CODE":0,"TOWNNAME":"仁德區","LI":"太子里","LIN":"44鄰","STREET":"太子一街","SECT":" ","MAREA":" ","LANE":" ","ALLEY":" ","HOUSE_NO":"１５號","E_COORD97":174859.16,"N_COORD97":2543422.5099999998,"ADDRESS":"太子一街１５號","OBJECTID":538117},"geometry":{"x":174859.16000000201,"y":2543422.5099999998}},{"attributes":{"ID":538145,"DIS_CODE":0,"TOWNNAME":"仁德區","LI":"太子里","LIN":"44鄰","STREET":"太子路","SECT":" ","MAREA":" ","LANE":" ","ALLEY":" ","HOUSE_NO":"１２７之７號","E_COORD97":174805.98000000001,"N_COORD97":2543515.7999999998,"ADDRESS":"太子路１２７之７號","OBJECTID":538118},"geometry":{"x":174805.98000000045,"y":2543515.8000000026}},{"attributes":{"ID":538146,"DIS_CODE":0,"TOWNNAME":"永康區","LI":"成功里","LIN":"44鄰","STREET":"中華路","SECT":" ","MAREA":" ","LANE":" ","ALLEY":" ","HOUSE_NO":"８６號","E_COORD97":171604.64999999999,"N_COORD97":2544734.4900000002,"ADDRESS":"中華路８６號","OBJECTID":538119},"geometry":{"x":171604.64999999944,"y":2544734.4900000021}},{"attributes":{"ID":538147,"DIS_CODE":0,"TOWNNAME":"新市區","LI":"新和里","LIN":"44鄰","STREET":"民權路","SECT":" ","MAREA":" ","LANE":" ","ALLEY":" ","HOUSE_NO":"４之１號","E_COORD97":177392.57000000001,"N_COORD97":2553095.0499999998,"ADDRESS":"民權路４之１號","OBJECTID":538120},"geometry":{"x":177392.57000000216,"y":2553095.0500000026}},{"attributes":{"ID":538148,"DIS_CODE":0,"TOWNNAME":"新市區","LI":"新和里","LIN":"44鄰","STREET":"民生路","SECT":" ","MAREA":" ","LANE":" ","ALLEY":" ","HOUSE_NO":"８４號","E_COORD97":177145.51999999999,"N_COORD97":2553286.04,"ADDRESS":"民生路８４號","OBJECTID":538121},"geometry":{"x":177145.51999999955,"y":2553286.040000001}},{"attributes":{"ID":538149,"DIS_CODE":0,"TOWNNAME":"仁德區","LI":"成功里","LIN":"44鄰","STREET":"文賢路","SECT":"一段","MAREA":" ","LANE":" ","ALLEY":" ","HOUSE_NO":"９１號","E_COORD97":170305.01000000001,"N_COORD97":2538161.0800000001,"ADDRESS":"文賢路一段９１號","OBJECTID":538122},"geometry":{"x":170305.01000000071,"y":2538161.0800000001}},{"attributes":{"ID":538150,"DIS_CODE":0,"TOWNNAME":"永康區","LI":"\u25A0行里","LIN":"44鄰","STREET":"\u25A0和街","SECT":" ","MAREA":" ","LANE":" ","ALLEY":" ","HOUSE_NO":"２２７號","E_COORD97":171719.31,"N_COORD97":2548197.25,"ADDRESS":"\u25A0和街２２７號","OBJECTID":538123},"geometry":{"x":171719.30999999959,"y":2548197.2500000019}},{"attributes":{"ID":538151,"DIS_CODE":0,"TOWNNAME":"新化區","LI":"護國里","LIN":"10鄰","STREET":"中山路","SECT":" ","MAREA":" ","LANE":" ","ALLEY":" ","HOUSE_NO":"９８號之１８","E_COORD97":179525.97,"N_COORD97":2549072.2599999998,"ADDRESS":"中山路９８號之１８","OBJECTID":538124},"geometry":{"x":179525.97000000067,"y":2549072.2599999998}},{"attributes":{"ID":538152,"DIS_CODE":0,"TOWNNAME":"南區","LI":"郡南里","LIN":"14鄰","STREET":"永吉街","SECT":" ","MAREA":" ","LANE":" ","ALLEY":" ","HOUSE_NO":"１４號","E_COORD97":167313.64000000001,"N_COORD97":2540562.98,"ADDRESS":"永吉街１４號","OBJECTID":538125},"geometry":{"x":167313.64000000153,"y":2540562.9800000004}},{"attributes":{"ID":538153,"DIS_CODE":0,"TOWNNAME":"中西區","LI":"仙草里","LIN":"8鄰","STREET":"永福路","SECT":"一段","MAREA":" ","LANE":" ","ALLEY":" ","HOUSE_NO":"１１５號之１","E_COORD97":167978.35999999999,"N_COORD97":2542768.8399999999,"ADDRESS":"永福路一段１１５號之１","OBJECTID":538126},"geometry":{"x":167978.36000000034,"y":2542768.8400000017}},{"attributes":{"ID":538154,"DIS_CODE":0,"TOWNNAME":"中西區","LI":"仙草里","LIN":"8鄰","STREET":"永福路","SECT":"一段","MAREA":" ","LANE":" ","ALLEY":" ","HOUSE_NO":"１１５號","E_COORD97":167977.14999999999,"N_COORD97":2542776.2999999998,"ADDRESS":"永福路一段１１５號","OBJECTID":538127},"geometry":{"x":167977.15000000224,"y":2542776.3000000026}},{"attributes":{"ID":538155,"DIS_CODE":0,"TOWNNAME":"中西區","LI":"仙草里","LIN":"8鄰","STREET":"永福路","SECT":"一段","MAREA":" ","LANE":" ","ALLEY":" ","HOUSE_NO":"１１５號底一層之１","E_COORD97":167977.14999999999,"N_COORD97":2542776.2999999998,"ADDRESS":"永福路一段１１５號底一層之１","OBJECTID":538128},"geometry":{"x":167977.15000000224,"y":2542776.3000000026}},{"attributes":{"ID":538156,"DIS_CODE":0,"TOWNNAME":"永康區","LI":"龍潭里","LIN":"44鄰","STREET":"永平街","SECT":" ","MAREA":" ","LANE":" ","ALLEY":" ","HOUSE_NO":"２８８之２２號","E_COORD97":174686.12,"N_COORD97":2547050.2999999998,"ADDRESS":"永平街２８８之２２號","OBJECTID":538129},"geometry":{"x":174686.12000000011,"y":2547050.3000000007}},{"attributes":{"ID":538157,"DIS_CODE":0,"TOWNNAME":"仁德區","LI":"仁義里","LIN":"44鄰","STREET":"仁義路","SECT":" ","MAREA":" ","LANE":" ","ALLEY":" ","HOUSE_NO":"２６號","E_COORD97":173451.42999999999,"N_COORD97":2540939.27,"ADDRESS":"仁義路２６號","OBJECTID":538130},"geometry":{"x":173451.4299999997,"y":2540939.2699999996}},{"attributes":{"ID":538158,"DIS_CODE":0,"TOWNNAME":"仁德區","LI":"仁義里","LIN":"44鄰","STREET":"仁義路","SECT":" ","MAREA":" ","LANE":" ","ALLEY":" ","HOUSE_NO":"５２號","E_COORD97":173510.76000000001,"N_COORD97":2540944.77,"ADDRESS":"仁義路５２號","OBJECTID":538131},"geometry":{"x":173510.76000000071,"y":2540944.7700000014}},{"attributes":{"ID":538159,"DIS_CODE":0,"TOWNNAME":"仁德區","LI":"太子里","LIN":"44鄰","STREET":"太子路","SECT":" ","MAREA":" ","LANE":" ","ALLEY":" ","HOUSE_NO":"１３１號","E_COORD97":174790.84,"N_COORD97":2543514.5099999998,"ADDRESS":"太子路１３１號","OBJECTID":538132},"geometry":{"x":174790.83999999985,"y":2543514.5099999998}},{"attributes":{"ID":538160,"DIS_CODE":0,"TOWNNAME":"仁德區","LI":"太子里","LIN":"44鄰","STREET":"太子路","SECT":" ","MAREA":" ","LANE":" ","ALLEY":" ","HOUSE_NO":"１２７號","E_COORD97":174835.34,"N_COORD97":2543515.7599999998,"ADDRESS":"太子路１２７號","OBJECTID":538133},"geometry":{"x":174835.33999999985,"y":2543515.7599999998}},{"attributes":{"ID":538161,"DIS_CODE":0,"TOWNNAME":"仁德區","LI":"太子里","LIN":"44鄰","STREET":"太子一街","SECT":" ","MAREA":" ","LANE":" ","ALLEY":" ","HOUSE_NO":"２之１號","E_COORD97":174765.51000000001,"N_COORD97":2543495.5,"ADDRESS":"太子一街２之１號","OBJECTID":538134},"geometry":{"x":174765.51000000071,"y":2543495.5000000037}},{"attributes":{"ID":538162,"DIS_CODE":0,"TOWNNAME":"永康區","LI":"\u25A0行里","LIN":"44鄰","STREET":"\u25A0和街","SECT":" ","MAREA":" ","LANE":" ","ALLEY":" ","HOUSE_NO":"２０４號","E_COORD97":171840.01999999999,"N_COORD97":2548063.6899999999,"ADDRESS":"\u25A0和街２０４號","OBJECTID":538135},"geometry":{"x":171840.01999999955,"y":2548063.6900000032}},{"attributes":{"ID":538163,"DIS_CODE":0,"TOWNNAME":"南區","LI":"郡南里","LIN":"14鄰","STREET":"永吉街","SECT":" ","MAREA":" ","LANE":" ","ALLEY":" ","HOUSE_NO":"１６號","E_COORD97":167314.19,"N_COORD97":2540566.6600000001,"ADDRESS":"永吉街１６號","OBJECTID":538136},"geometry":{"x":167314.19000000134,"y":2540566.660000002}},{"attributes":{"ID":538164,"DIS_CODE":0,"TOWNNAME":"永康區","LI":"龍潭里","LIN":"44鄰","STREET":"永平街","SECT":" ","MAREA":" ","LANE":" ","ALLEY":" ","HOUSE_NO":"２９２之３號","E_COORD97":174654.31,"N_COORD97":2547068.5499999998,"ADDRESS":"永平街２９２之３號","OBJECTID":538137},"geometry":{"x":174654.31000000145,"y":2547068.5500000007}},{"attributes":{"ID":538165,"DIS_CODE":0,"TOWNNAME":"永康區","LI":"龍潭里","LIN":"44鄰","STREET":"永平街","SECT":" ","MAREA":" ","LANE":" ","ALLEY":" ","HOUSE_NO":"２９０之１０號","E_COORD97":174658.23000000001,"N_COORD97":2547049.7999999998,"ADDRESS":"永平街２９０之１０號","OBJECTID":538138},"geometry":{"x":174658.23000000045,"y":2547049.8000000007}},{"attributes":{"ID":538166,"DIS_CODE":0,"TOWNNAME":"永康區","LI":"龍潭里","LIN":"44鄰","STREET":"永平街","SECT":" ","MAREA":" ","LANE":" ","ALLEY":" ","HOUSE_NO":"２８０之１７號","E_COORD97":174657.84,"N_COORD97":2547031.5499999998,"ADDRESS":"永平街２８０之１７號","OBJECTID":538139},"geometry":{"x":174657.84000000078,"y":2547031.5500000007}},{"attributes":{"ID":538167,"DIS_CODE":0,"TOWNNAME":"永康區","LI":"龍潭里","LIN":"44鄰","STREET":"永平街","SECT":" ","MAREA":" ","LANE":" ","ALLEY":" ","HOUSE_NO":"２９０之２號","E_COORD97":174656.98000000001,"N_COORD97":2547049.7999999998,"ADDRESS":"永平街２９０之２號","OBJECTID":538140},"geometry":{"x":174656.98000000045,"y":2547049.8000000007}},{"attributes":{"ID":538168,"DIS_CODE":0,"TOWNNAME":"永康區","LI":"龍潭里","LIN":"44鄰","STREET":"永平街","SECT":" ","MAREA":" ","LANE":" ","ALLEY":" ","HOUSE_NO":"２９６之１３號","E_COORD97":174673.62,"N_COORD97":2547093.29,"ADDRESS":"永平街２９６之１３號","OBJECTID":538141},"geometry":{"x":174673.62000000104,"y":2547093.2900000028}},{"attributes":{"ID":538169,"DIS_CODE":0,"TOWNNAME":"永康區","LI":"龍潭里","LIN":"44鄰","STREET":"永平街","SECT":" ","MAREA":" ","LANE":" ","ALLEY":" ","HOUSE_NO":"２９０之１號","E_COORD97":174656.98000000001,"N_COORD97":2547049.7999999998,"ADDRESS":"永平街２９０之１號","OBJECTID":538142},"geometry":{"x":174656.98000000045,"y":2547049.8000000007}},{"attributes":{"ID":538170,"DIS_CODE":0,"TOWNNAME":"永康區","LI":"龍潭里","LIN":"44鄰","STREET":"永平街","SECT":" ","MAREA":" ","LANE":" ","ALLEY":" ","HOUSE_NO":"２７８之７號","E_COORD97":174684.26000000001,"N_COORD97":2547032.0499999998,"ADDRESS":"永平街２７８之７號","OBJECTID":538143},"geometry":{"x":174684.26000000071,"y":2547032.0500000045}},{"attributes":{"ID":538171,"DIS_CODE":0,"TOWNNAME":"永康區","LI":"龍潭里","LIN":"44鄰","STREET":"永平街","SECT":" ","MAREA":" ","LANE":" ","ALLEY":" ","HOUSE_NO":"２７８之９號","E_COORD97":174684.26000000001,"N_COORD97":2547032.0499999998,"ADDRESS":"永平街２７８之９號","OBJECTID":538144},"geometry":{"x":174684.26000000071,"y":2547032.0500000045}},{"attributes":{"ID":538172,"DIS_CODE":0,"TOWNNAME":"南區","LI":"郡南里","LIN":"12鄰","STREET":"永吉街","SECT":" ","MAREA":" ","LANE":" ","ALLEY":" ","HOUSE_NO":"５８號","E_COORD97":167321.51999999999,"N_COORD97":2540696.5499999998,"ADDRESS":"永吉街５８號","OBJECTID":538145},"geometry":{"x":167321.52000000048,"y":2540696.5500000026}},{"attributes":{"ID":538173,"DIS_CODE":0,"TOWNNAME":"中西區","LI":"郡王里","LIN":"7鄰","STREET":"大埔街","SECT":" ","MAREA":" ","LANE":" ","ALLEY":" ","HOUSE_NO":"６３號","E_COORD97":168830.42999999999,"N_COORD97":2543063.29,"ADDRESS":"大埔街６３號","OBJECTID":538146},"geometry":{"x":168830.42999999877,"y":2543063.290000001}},{"attributes":{"ID":538174,"DIS_CODE":0,"TOWNNAME":"中西區","LI":"郡王里","LIN":"4鄰","STREET":"開山路","SECT":" ","MAREA":" ","LANE":" ","ALLEY":" ","HOUSE_NO":"１７０號","E_COORD97":168914.45000000001,"N_COORD97":2543044.2200000002,"ADDRESS":"開山路１７０號","OBJECTID":538147},"geometry":{"x":168914.45000000112,"y":2543044.2200000025}},{"attributes":{"ID":538175,"DIS_CODE":0,"TOWNNAME":"新市區","LI":"新和里","LIN":"44鄰","STREET":"民權路","SECT":" ","MAREA":" ","LANE":" ","ALLEY":" ","HOUSE_NO":"２８號","E_COORD97":177284.01999999999,"N_COORD97":2553080.54,"ADDRESS":"民權路２８號","OBJECTID":538148},"geometry":{"x":177284.02000000048,"y":2553080.5399999991}},{"attributes":{"ID":538176,"DIS_CODE":0,"TOWNNAME":"中西區","LI":"郡王里","LIN":"7鄰","STREET":"大埔街","SECT":" ","MAREA":" ","LANE":" ","ALLEY":" ","HOUSE_NO":"６３號底層","E_COORD97":168830.42999999999,"N_COORD97":2543063.29,"ADDRESS":"大埔街６３號底層","OBJECTID":538149},"geometry":{"x":168830.42999999877,"y":2543063.290000001}},{"attributes":{"ID":538177,"DIS_CODE":0,"TOWNNAME":"永康區","LI":"龍潭里","LIN":"44鄰","STREET":"永平街","SECT":" ","MAREA":" ","LANE":" ","ALLEY":" ","HOUSE_NO":"２９２之１號","E_COORD97":174654.31,"N_COORD97":2547068.5499999998,"ADDRESS":"永平街２９２之１號","OBJECTID":538150},"geometry":{"x":174654.31000000145,"y":2547068.5500000007}},{"attributes":{"ID":538178,"DIS_CODE":0,"TOWNNAME":"永康區","LI":"龍潭里","LIN":"44鄰","STREET":"永平街","SECT":" ","MAREA":" ","LANE":" ","ALLEY":" ","HOUSE_NO":"２９２之１６號","E_COORD97":174655.56,"N_COORD97":2547068.5499999998,"ADDRESS":"永平街２９２之１６號","OBJECTID":538151},"geometry":{"x":174655.55999999959,"y":2547068.5500000007}},{"attributes":{"ID":538179,"DIS_CODE":0,"TOWNNAME":"永康區","LI":"龍潭里","LIN":"44鄰","STREET":"永平街","SECT":" ","MAREA":" ","LANE":" ","ALLEY":" ","HOUSE_NO":"２８８之８號","E_COORD97":174684.87,"N_COORD97":2547050.2999999998,"ADDRESS":"永平街２８８之８號","OBJECTID":538152},"geometry":{"x":174684.87000000197,"y":2547050.3000000007}},{"attributes":{"ID":538180,"DIS_CODE":0,"TOWNNAME":"永康區","LI":"龍潭里","LIN":"44鄰","STREET":"永平街","SECT":" ","MAREA":" ","LANE":" ","ALLEY":" ","HOUSE_NO":"２８６之１號","E_COORD97":174684.25,"N_COORD97":2547069.2999999998,"ADDRESS":"永平街２８６之１號","OBJECTID":538153},"geometry":{"x":174684.25000000093,"y":2547069.3000000007}},{"attributes":{"ID":538181,"DIS_CODE":0,"TOWNNAME":"仁德區","LI":"太子里","LIN":"44鄰","STREET":"太子一街","SECT":" ","MAREA":" ","LANE":" ","ALLEY":" ","HOUSE_NO":"３２號","E_COORD97":174821.20999999999,"N_COORD97":2543398.25,"ADDRESS":"太子一街３２號","OBJECTID":538154},"geometry":{"x":174821.20999999996,"y":2543398.25}},{"attributes":{"ID":538182,"DIS_CODE":0,"TOWNNAME":"仁德區","LI":"太子里","LIN":"44鄰","STREET":"太子路","SECT":" ","MAREA":" ","LANE":" ","ALLEY":" ","HOUSE_NO":"１３５號","E_COORD97":174782.20000000001,"N_COORD97":2543514.0099999998,"ADDRESS":"太子路１３５號","OBJECTID":538155},"geometry":{"x":174782.20000000019,"y":2543514.0099999998}},{"attributes":{"ID":538183,"DIS_CODE":0,"TOWNNAME":"仁德區","LI":"仁義里","LIN":"44鄰","STREET":"仁義路","SECT":" ","MAREA":" ","LANE":" ","ALLEY":" ","HOUSE_NO":"４０號","E_COORD97":173484.20999999999,"N_COORD97":2540941.52,"ADDRESS":"仁義路４０號","OBJECTID":538156},"geometry":{"x":173484.21000000089,"y":2540941.5199999977}},{"attributes":{"ID":538184,"DIS_CODE":0,"TOWNNAME":"仁德區","LI":"太子里","LIN":"44鄰","STREET":"太子路","SECT":" ","MAREA":" ","LANE":" ","ALLEY":" ","HOUSE_NO":"９５號","E_COORD97":174956.34,"N_COORD97":2543528.0099999998,"ADDRESS":"太子路９５號","OBJECTID":538157},"geometry":{"x":174956.34000000078,"y":2543528.0099999998}},{"attributes":{"ID":538185,"DIS_CODE":0,"TOWNNAME":"仁德區","LI":"仁義里","LIN":"44鄰","STREET":"仁義路","SECT":" ","MAREA":" ","LANE":" ","ALLEY":" ","HOUSE_NO":"５６號","E_COORD97":173517.92000000001,"N_COORD97":2540945.77,"ADDRESS":"仁義路５６號","OBJECTID":538158},"geometry":{"x":173517.91999999899,"y":2540945.7699999996}},{"attributes":{"ID":538186,"DIS_CODE":0,"TOWNNAME":"仁德區","LI":"太子里","LIN":"44鄰","STREET":"太子路","SECT":" ","MAREA":" ","LANE":" ","ALLEY":" ","HOUSE_NO":"１１５號","E_COORD97":174877.79999999999,"N_COORD97":2543523.7599999998,"ADDRESS":"太子路１１５號","OBJECTID":538159},"geometry":{"x":174877.79999999981,"y":2543523.7600000035}},{"attributes":{"ID":538187,"DIS_CODE":0,"TOWNNAME":"新市區","LI":"新和里","LIN":"44鄰","STREET":"民權路","SECT":" ","MAREA":" ","LANE":" ","ALLEY":" ","HOUSE_NO":"２２號","E_COORD97":177300.01999999999,"N_COORD97":2553090.6099999999,"ADDRESS":"民權路２２號","OBJECTID":538160},"geometry":{"x":177300.01999999955,"y":2553090.6099999994}},{"attributes":{"ID":538188,"DIS_CODE":0,"TOWNNAME":"中西區","LI":"郡王里","LIN":"6鄰","STREET":"大埔街","SECT":" ","MAREA":" ","LANE":" ","ALLEY":" ","HOUSE_NO":"５１號","E_COORD97":168860.95999999999,"N_COORD97":2543054.8300000001,"ADDRESS":"大埔街５１號","OBJECTID":538161},"geometry":{"x":168860.95999999996,"y":2543054.8300000001}},{"attributes":{"ID":538189,"DIS_CODE":0,"TOWNNAME":"永康區","LI":"龍潭里","LIN":"44鄰","STREET":"永平街","SECT":" ","MAREA":" ","LANE":" ","ALLEY":" ","HOUSE_NO":"２８２之１０號","E_COORD97":174658.67000000001,"N_COORD97":2547013.54,"ADDRESS":"永平街２８２之１０號","OBJECTID":538162},"geometry":{"x":174658.66999999993,"y":2547013.5400000028}},{"attributes":{"ID":538190,"DIS_CODE":0,"TOWNNAME":"永康區","LI":"龍潭里","LIN":"44鄰","STREET":"永平街","SECT":" ","MAREA":" ","LANE":" ","ALLEY":" ","HOUSE_NO":"２８６之２２號","E_COORD97":174685.5,"N_COORD97":2547069.2999999998,"ADDRESS":"永平街２８６之２２號","OBJECTID":538163},"geometry":{"x":174685.50000000186,"y":2547069.3000000007}},{"attributes":{"ID":538191,"DIS_CODE":0,"TOWNNAME":"永康區","LI":"龍潭里","LIN":"44鄰","STREET":"永平街","SECT":" ","MAREA":" ","LANE":" ","ALLEY":" ","HOUSE_NO":"２８６之３號","E_COORD97":174684.25,"N_COORD97":2547069.2999999998,"ADDRESS":"永平街２８６之３號","OBJECTID":538164},"geometry":{"x":174684.25000000093,"y":2547069.3000000007}},{"attributes":{"ID":538192,"DIS_CODE":0,"TOWNNAME":"永康區","LI":"龍潭里","LIN":"44鄰","STREET":"永平街","SECT":" ","MAREA":" ","LANE":" ","ALLEY":" ","HOUSE_NO":"２８８之１０號","E_COORD97":174686.12,"N_COORD97":2547050.2999999998,"ADDRESS":"永平街２８８之１０號","OBJECTID":538165},"geometry":{"x":174686.12000000011,"y":2547050.3000000007}},{"attributes":{"ID":538193,"DIS_CODE":0,"TOWNNAME":"永康區","LI":"龍潭里","LIN":"44鄰","STREET":"永平街","SECT":" ","MAREA":" ","LANE":" ","ALLEY":" ","HOUSE_NO":"２８６之１７號","E_COORD97":174685.5,"N_COORD97":2547069.2999999998,"ADDRESS":"永平街２８６之１７號","OBJECTID":538166},"geometry":{"x":174685.50000000186,"y":2547069.3000000007}},{"attributes":{"ID":538194,"DIS_CODE":0,"TOWNNAME":"永康區","LI":"龍潭里","LIN":"44鄰","STREET":"永平街","SECT":" ","MAREA":" ","LANE":" ","ALLEY":" ","HOUSE_NO":"２８２之１８號","E_COORD97":174658.67000000001,"N_COORD97":2547013.54,"ADDRESS":"永平街２８２之１８號","OBJECTID":538167},"geometry":{"x":174658.66999999993,"y":2547013.5400000028}},{"attributes":{"ID":538195,"DIS_CODE":0,"TOWNNAME":"永康區","LI":"龍潭里","LIN":"44鄰","STREET":"永平街","SECT":" ","MAREA":" ","LANE":" ","ALLEY":" ","HOUSE_NO":"２８６之１５號","E_COORD97":174685.5,"N_COORD97":2547069.2999999998,"ADDRESS":"永平街２８６之１５號","OBJECTID":538168},"geometry":{"x":174685.50000000186,"y":2547069.3000000007}},{"attributes":{"ID":538196,"DIS_CODE":0,"TOWNNAME":"永康區","LI":"龍潭里","LIN":"44鄰","STREET":"永平街","SECT":" ","MAREA":" ","LANE":" ","ALLEY":" ","HOUSE_NO":"２８６之９號","E_COORD97":174684.25,"N_COORD97":2547069.2999999998,"ADDRESS":"永平街２８６之９號","OBJECTID":538169},"geometry":{"x":174684.25000000093,"y":2547069.3000000007}},{"attributes":{"ID":538197,"DIS_CODE":0,"TOWNNAME":"永康區","LI":"龍潭里","LIN":"44鄰","STREET":"永平街","SECT":" ","MAREA":" ","LANE":" ","ALLEY":" ","HOUSE_NO":"２８８之１１號","E_COORD97":174686.12,"N_COORD97":2547050.2999999998,"ADDRESS":"永平街２８８之１１號","OBJECTID":538170},"geometry":{"x":174686.12000000011,"y":2547050.3000000007}},{"attributes":{"ID":538198,"DIS_CODE":0,"TOWNNAME":"永康區","LI":"龍潭里","LIN":"44鄰","STREET":"永平街","SECT":" ","MAREA":" ","LANE":" ","ALLEY":" ","HOUSE_NO":"２８６之８號","E_COORD97":174684.25,"N_COORD97":2547069.2999999998,"ADDRESS":"永平街２８６之８號","OBJECTID":538171},"geometry":{"x":174684.25000000093,"y":2547069.3000000007}},{"attributes":{"ID":538199,"DIS_CODE":0,"TOWNNAME":"永康區","LI":"龍潭里","LIN":"44鄰","STREET":"永平街","SECT":" ","MAREA":" ","LANE":" ","ALLEY":" ","HOUSE_NO":"２８２之５號","E_COORD97":174657.42000000001,"N_COORD97":2547013.54,"ADDRESS":"永平街２８２之５號","OBJECTID":538172},"geometry":{"x":174657.42000000086,"y":2547013.5400000028}},{"attributes":{"ID":538200,"DIS_CODE":0,"TOWNNAME":"新市區","LI":"新和里","LIN":"44鄰","STREET":"民權路","SECT":" ","MAREA":" ","LANE":" ","ALLEY":" ","HOUSE_NO":"２０號","E_COORD97":177316.76999999999,"N_COORD97":2553086.29,"ADDRESS":"民權路２０號","OBJECTID":538173},"geometry":{"x":177316.76999999955,"y":2553086.2899999991}},{"attributes":{"ID":538201,"DIS_CODE":0,"TOWNNAME":"中西區","LI":"法華里","LIN":"7鄰","STREET":"健康路","SECT":"一段","MAREA":" ","LANE":" ","ALLEY":" ","HOUSE_NO":"７２號","E_COORD97":168991.48999999999,"N_COORD97":2542445.1000000001,"ADDRESS":"健康路一段７２號","OBJECTID":538174},"geometry":{"x":168991.49000000022,"y":2542445.0999999996}},{"attributes":{"ID":538202,"DIS_CODE":0,"TOWNNAME":"中西區","LI":"法華里","LIN":"7鄰","STREET":"健康路","SECT":"一段","MAREA":" ","LANE":" ","ALLEY":" ","HOUSE_NO":"７４號","E_COORD97":168986.85000000001,"N_COORD97":2542447.4199999999,"ADDRESS":"健康路一段７４號","OBJECTID":538175},"geometry":{"x":168986.8499999987,"y":2542447.4199999999}},{"attributes":{"ID":538203,"DIS_CODE":0,"TOWNNAME":"中西區","LI":"法華里","LIN":"7鄰","STREET":"健康路","SECT":"一段","MAREA":" ","LANE":" ","ALLEY":" ","HOUSE_NO":"７６號","E_COORD97":168982.20999999999,"N_COORD97":2542445.1000000001,"ADDRESS":"健康路一段７６號","OBJECTID":538176},"geometry":{"x":168982.21000000089,"y":2542445.0999999996}},{"attributes":{"ID":538204,"DIS_CODE":0,"TOWNNAME":"中西區","LI":"法華里","LIN":"7鄰","STREET":"健康路","SECT":"一段","MAREA":" ","LANE":" ","ALLEY":" ","HOUSE_NO":"７６號底一層","E_COORD97":168982.20999999999,"N_COORD97":2542445.1000000001,"ADDRESS":"健康路一段７６號底一層","OBJECTID":538177},"geometry":{"x":168982.21000000089,"y":2542445.0999999996}},{"attributes":{"ID":538205,"DIS_CODE":0,"TOWNNAME":"永康區","LI":"龍潭里","LIN":"44鄰","STREET":"永平街","SECT":" ","MAREA":" ","LANE":" ","ALLEY":" ","HOUSE_NO":"２８２之９號","E_COORD97":174657.42000000001,"N_COORD97":2547013.54,"ADDRESS":"永平街２８２之９號","OBJECTID":538178},"geometry":{"x":174657.42000000086,"y":2547013.5400000028}},{"attributes":{"ID":538206,"DIS_CODE":0,"TOWNNAME":"永康區","LI":"龍潭里","LIN":"44鄰","STREET":"永平街","SECT":" ","MAREA":" ","LANE":" ","ALLEY":" ","HOUSE_NO":"２８６之１９號","E_COORD97":174685.5,"N_COORD97":2547069.2999999998,"ADDRESS":"永平街２８６之１９號","OBJECTID":538179},"geometry":{"x":174685.50000000186,"y":2547069.3000000007}},{"attributes":{"ID":538207,"DIS_CODE":0,"TOWNNAME":"永康區","LI":"龍潭里","LIN":"44鄰","STREET":"永平街","SECT":" ","MAREA":" ","LANE":" ","ALLEY":" ","HOUSE_NO":"２８０之１９號","E_COORD97":174657.84,"N_COORD97":2547031.5499999998,"ADDRESS":"永平街２８０之１９號","OBJECTID":538180},"geometry":{"x":174657.84000000078,"y":2547031.5500000007}},{"attributes":{"ID":538208,"DIS_CODE":0,"TOWNNAME":"永康區","LI":"龍潭里","LIN":"44鄰","STREET":"永平街","SECT":" ","MAREA":" ","LANE":" ","ALLEY":" ","HOUSE_NO":"２８２之６號","E_COORD97":174657.42000000001,"N_COORD97":2547013.54,"ADDRESS":"永平街２８２之６號","OBJECTID":538181},"geometry":{"x":174657.42000000086,"y":2547013.5400000028}},{"attributes":{"ID":538209,"DIS_CODE":0,"TOWNNAME":"永康區","LI":"龍潭里","LIN":"44鄰","STREET":"永平街","SECT":" ","MAREA":" ","LANE":" ","ALLEY":" ","HOUSE_NO":"２８６之２０號","E_COORD97":174685.5,"N_COORD97":2547069.2999999998,"ADDRESS":"永平街２８６之２０號","OBJECTID":538182},"geometry":{"x":174685.50000000186,"y":2547069.3000000007}},{"attributes":{"ID":538210,"DIS_CODE":0,"TOWNNAME":"中西區","LI":"郡王里","LIN":"4鄰","STREET":"開山路","SECT":" ","MAREA":" ","LANE":" ","ALLEY":" ","HOUSE_NO":"１６６號\u2588層","E_COORD97":168911.01999999999,"N_COORD97":2543052.7799999998,"ADDRESS":"開山路１６６號\u2588層","OBJECTID":538183},"geometry":{"x":168911.01999999862,"y":2543052.7800000012}},{"attributes":{"ID":538211,"DIS_CODE":0,"TOWNNAME":"中西區","LI":"仙草里","LIN":"14鄰","STREET":"府緯街","SECT":" ","MAREA":" ","LANE":" ","ALLEY":" ","HOUSE_NO":"５１號","E_COORD97":167812.79999999999,"N_COORD97":2542710.79,"ADDRESS":"府緯街５１號","OBJECTID":538184},"geometry":{"x":167812.80000000168,"y":2542710.790000001}},{"attributes":{"ID":538212,"DIS_CODE":0,"TOWNNAME":"中西區","LI":"郡王里","LIN":"7鄰","STREET":"大埔街","SECT":" ","MAREA":" ","LANE":" ","ALLEY":" ","HOUSE_NO":"６５號","E_COORD97":168821.31,"N_COORD97":2543070.2999999998,"ADDRESS":"大埔街６５號","OBJECTID":538185},"geometry":{"x":168821.31000000052,"y":2543070.3000000045}},{"attributes":{"ID":538213,"DIS_CODE":0,"TOWNNAME":"中西區","LI":"五妃里","LIN":"1鄰","STREET":"健康路","SECT":"一段","MAREA":" ","LANE":" ","ALLEY":" ","HOUSE_NO":"２６０號底一層","E_COORD97":168430.81,"N_COORD97":2542457.3799999999,"ADDRESS":"健康路一段２６０號底一層","OBJECTID":538186},"geometry":{"x":168430.80999999959,"y":2542457.3799999971}},{"attributes":{"ID":538214,"DIS_CODE":0,"TOWNNAME":"中西區","LI":"公正里","LIN":"1鄰","STREET":"中山路","SECT":" ","MAREA":" ","LANE":" ","ALLEY":" ","HOUSE_NO":"１６２號","E_COORD97":169000.48000000001,"N_COORD97":2543998.7999999998,"ADDRESS":"中山路１６２號","OBJECTID":538187},"geometry":{"x":169000.48000000231,"y":2543998.8000000007}},{"attributes":{"ID":538215,"DIS_CODE":0,"TOWNNAME":"中西區","LI":"公正里","LIN":"1鄰","STREET":"中山路","SECT":" ","MAREA":" ","LANE":" ","ALLEY":" ","HOUSE_NO":"１８４號","E_COORD97":169152.53,"N_COORD97":2544105.0299999998,"ADDRESS":"中山路１８４號","OBJECTID":538188},"geometry":{"x":169152.53000000212,"y":2544105.0300000012}},{"attributes":{"ID":538216,"DIS_CODE":0,"TOWNNAME":"中西區","LI":"法華里","LIN":"6鄰","STREET":"健康路","SECT":"一段","MAREA":" ","LANE":" ","ALLEY":" ","HOUSE_NO":"１２號","E_COORD97":169165.29999999999,"N_COORD97":2542440.4700000002,"ADDRESS":"健康路一段１２號","OBJECTID":538189},"geometry":{"x":169165.29999999981,"y":2542440.4700000007}},{"attributes":{"ID":538217,"DIS_CODE":0,"TOWNNAME":"新市區","LI":"新和里","LIN":"44鄰","STREET":"民生路","SECT":" ","MAREA":" ","LANE":" ","ALLEY":" ","HOUSE_NO":"２１號","E_COORD97":177356.04000000001,"N_COORD97":2553142.79,"ADDRESS":"民生路２１號","OBJECTID":538190},"geometry":{"x":177356.04000000097,"y":2553142.790000001}},{"attributes":{"ID":538218,"DIS_CODE":0,"TOWNNAME":"新市區","LI":"新和里","LIN":"44鄰","STREET":"民權路","SECT":" ","MAREA":" ","LANE":" ","ALLEY":" ","HOUSE_NO":"１０號","E_COORD97":177361.38,"N_COORD97":2553093.29,"ADDRESS":"民權路１０號","OBJECTID":538191},"geometry":{"x":177361.38000000082,"y":2553093.2899999991}},{"attributes":{"ID":538219,"DIS_CODE":0,"TOWNNAME":"新市區","LI":"新和里","LIN":"44鄰","STREET":"和平街","SECT":" ","MAREA":" ","LANE":" ","ALLEY":" ","HOUSE_NO":"２１９號","E_COORD97":177356.87,"N_COORD97":2553191.25,"ADDRESS":"和平街２１９號","OBJECTID":538192},"geometry":{"x":177356.87000000104,"y":2553191.2500000019}},{"attributes":{"ID":538220,"DIS_CODE":0,"TOWNNAME":"新市區","LI":"新和里","LIN":"44鄰","STREET":"和平街","SECT":" ","MAREA":" ","LANE":" ","ALLEY":" ","HOUSE_NO":"２１５號","E_COORD97":177362.98000000001,"N_COORD97":2553198,"ADDRESS":"和平街２１５號","OBJECTID":538193},"geometry":{"x":177362.98000000231,"y":2553198}},{"attributes":{"ID":538221,"DIS_CODE":0,"TOWNNAME":"新市區","LI":"新和里","LIN":"44鄰","STREET":"民生路","SECT":" ","MAREA":" ","LANE":" ","ALLEY":" ","HOUSE_NO":"５５號","E_COORD97":177280.17999999999,"N_COORD97":2553186.29,"ADDRESS":"民生路５５號","OBJECTID":538194},"geometry":{"x":177280.18000000063,"y":2553186.290000001}},{"attributes":{"ID":538222,"DIS_CODE":0,"TOWNNAME":"新市區","LI":"新和里","LIN":"44鄰","STREET":"和平街","SECT":" ","MAREA":" ","LANE":" ","ALLEY":" ","HOUSE_NO":"２１７號","E_COORD97":177359.89000000001,"N_COORD97":2553194.75,"ADDRESS":"和平街２１７號","OBJECTID":538195},"geometry":{"x":177359.8900000006,"y":2553194.7500000019}},{"attributes":{"ID":538223,"DIS_CODE":0,"TOWNNAME":"南區","LI":"郡南里","LIN":"12鄰","STREET":"永吉街","SECT":" ","MAREA":" ","LANE":" ","ALLEY":" ","HOUSE_NO":"６２號","E_COORD97":167324.03,"N_COORD97":2540720.3399999999,"ADDRESS":"永吉街６２號","OBJECTID":538196},"geometry":{"x":167324.03000000119,"y":2540720.3400000017}},{"attributes":{"ID":538224,"DIS_CODE":0,"TOWNNAME":"新化區","LI":"護國里","LIN":"10鄰","STREET":"中山路","SECT":" ","MAREA":" ","LANE":" ","ALLEY":" ","HOUSE_NO":"７６號","E_COORD97":179803.56,"N_COORD97":2549348.25,"ADDRESS":"中山路７６號","OBJECTID":538197},"geometry":{"x":179803.55999999959,"y":2549348.25}},{"attributes":{"ID":538225,"DIS_CODE":0,"TOWNNAME":"中西區","LI":"小西里","LIN":"15鄰","STREET":"府前路","SECT":"一段","MAREA":" ","LANE":" ","ALLEY":" ","HOUSE_NO":"３３３號","E_COORD97":167954.92999999999,"N_COORD97":2543387.8300000001,"ADDRESS":"府前路一段３３３號","OBJECTID":538198},"geometry":{"x":167954.93000000063,"y":2543387.8299999982}},{"attributes":{"ID":538226,"DIS_CODE":0,"TOWNNAME":"中西區","LI":"公正里","LIN":"1鄰","STREET":"中山路","SECT":" ","MAREA":" ","LANE":" ","ALLEY":" ","HOUSE_NO":"１６６號","E_COORD97":169028.01999999999,"N_COORD97":2544017.25,"ADDRESS":"中山路１６６號","OBJECTID":538199},"geometry":{"x":169028.02000000142,"y":2544017.2500000019}},{"attributes":{"ID":538227,"DIS_CODE":0,"TOWNNAME":"中西區","LI":"大南里","LIN":"6鄰","STREET":"南寧街","SECT":" ","MAREA":" ","LANE":" ","ALLEY":" ","HOUSE_NO":"６２號","E_COORD97":168286.10999999999,"N_COORD97":2542852.9500000002,"ADDRESS":"南寧街６２號","OBJECTID":538200},"geometry":{"x":168286.11000000127,"y":2542852.9499999993}}]}