{"displayFieldName":"TOWNNAME","fieldAliases":{"ID":"ID","DIS_CODE":"DIS_CODE","TOWNNAME":"TOWNNAME","LI":"LI","LIN":"LIN","STREET":"STREET","SECT":"SECT","MAREA":"MAREA","LANE":"LANE","ALLEY":"ALLEY","HOUSE_NO":"HOUSE_NO","E_COORD97":"E_COORD97","N_COORD97":"N_COORD97","ADDRESS":"ADDRESS","OBJECTID":"OBJECTID"},"geometryType":"esriGeometryPoint","spatialReference":{"wkid":102443,"latestWkid":3826},"fields":[{"name":"ID","type":"esriFieldTypeDouble","alias":"ID"},{"name":"DIS_CODE","type":"esriFieldTypeInteger","alias":"DIS_CODE"},{"name":"TOWNNAME","type":"esriFieldTypeString","alias":"TOWNNAME","length":8},{"name":"LI","type":"esriFieldTypeString","alias":"LI","length":8},{"name":"LIN","type":"esriFieldTypeString","alias":"LIN","length":12},{"name":"STREET","type":"esriFieldTypeString","alias":"STREET","length":20},{"name":"SECT","type":"esriFieldTypeString","alias":"SECT","length":8},{"name":"MAREA","type":"esriFieldTypeString","alias":"MAREA","length":12},{"name":"LANE","type":"esriFieldTypeString","alias":"LANE","length":10},{"name":"ALLEY","type":"esriFieldTypeString","alias":"ALLEY","length":10},{"name":"HOUSE_NO","type":"esriFieldTypeString","alias":"HOUSE_NO","length":20},{"name":"E_COORD97","type":"esriFieldTypeDouble","alias":"E_COORD97"},{"name":"N_COORD97","type":"esriFieldTypeDouble","alias":"N_COORD97"},{"name":"ADDRESS","type":"esriFieldTypeString","alias":"ADDRESS","length":50},{"name":"OBJECTID","type":"esriFieldTypeOID","alias":"OBJECTID"}],"features":[{"attributes":{"ID":225005,"DIS_CODE":0,"TOWNNAME":"東山區","LI":"東山里","LIN":"29鄰","STREET":" ","SECT":" ","MAREA":"東山","LANE":" ","ALLEY":" ","HOUSE_NO":"５６５號","E_COORD97":188786.82000000001,"N_COORD97":2580427.6200000001,"ADDRESS":"東山５６５號","OBJECTID":225001},"geometry":{"x":188786.8200000003,"y":2580427.6200000029}},{"attributes":{"ID":225006,"DIS_CODE":0,"TOWNNAME":"東山區","LI":"東山里","LIN":"29鄰","STREET":" ","SECT":" ","MAREA":"東山","LANE":" ","ALLEY":" ","HOUSE_NO":"５６６號","E_COORD97":188786.42999999999,"N_COORD97":2580433.4500000002,"ADDRESS":"東山５６６號","OBJECTID":225002},"geometry":{"x":188786.43000000063,"y":2580433.4500000011}},{"attributes":{"ID":225007,"DIS_CODE":0,"TOWNNAME":"東區","LI":"圍下里","LIN":"22鄰","STREET":"衛民街","SECT":" ","MAREA":" ","LANE":"２４巷","ALLEY":" ","HOUSE_NO":"２５號之１","E_COORD97":169271.35999999999,"N_COORD97":2543830.8300000001,"ADDRESS":"衛民街２４巷２５號之１","OBJECTID":225003},"geometry":{"x":169271.36000000127,"y":2543830.8300000001}},{"attributes":{"ID":225008,"DIS_CODE":0,"TOWNNAME":"東山區","LI":"東山里","LIN":"29鄰","STREET":" ","SECT":" ","MAREA":"東山","LANE":" ","ALLEY":" ","HOUSE_NO":"５６７號","E_COORD97":188786.39000000001,"N_COORD97":2580439.0699999998,"ADDRESS":"東山５６７號","OBJECTID":225004},"geometry":{"x":188786.38999999873,"y":2580439.0700000003}},{"attributes":{"ID":225009,"DIS_CODE":0,"TOWNNAME":"東區","LI":"泉南里","LIN":"34鄰","STREET":"林森路","SECT":"一段","MAREA":" ","LANE":" ","ALLEY":" ","HOUSE_NO":"１４９號八樓之８","E_COORD97":169495.73000000001,"N_COORD97":2542552.3999999999,"ADDRESS":"林森路一段１４９號八樓之８","OBJECTID":225005},"geometry":{"x":169495.73000000138,"y":2542552.4000000004}},{"attributes":{"ID":225010,"DIS_CODE":0,"TOWNNAME":"東山區","LI":"東山里","LIN":"29鄰","STREET":" ","SECT":" ","MAREA":"東山","LANE":" ","ALLEY":" ","HOUSE_NO":"５６８號","E_COORD97":188774.34,"N_COORD97":2580416.9100000001,"ADDRESS":"東山５６８號","OBJECTID":225006},"geometry":{"x":188774.33999999985,"y":2580416.9100000001}},{"attributes":{"ID":225011,"DIS_CODE":0,"TOWNNAME":"東山區","LI":"東山里","LIN":"29鄰","STREET":" ","SECT":" ","MAREA":"東山","LANE":" ","ALLEY":" ","HOUSE_NO":"５６９號","E_COORD97":188767.60000000001,"N_COORD97":2580418.2799999998,"ADDRESS":"東山５６９號","OBJECTID":225007},"geometry":{"x":188767.59999999963,"y":2580418.2800000012}},{"attributes":{"ID":225012,"DIS_CODE":0,"TOWNNAME":"東山區","LI":"東山里","LIN":"29鄰","STREET":" ","SECT":" ","MAREA":"東山","LANE":" ","ALLEY":" ","HOUSE_NO":"５７０號","E_COORD97":188760.73000000001,"N_COORD97":2580419.1000000001,"ADDRESS":"東山５７０號","OBJECTID":225008},"geometry":{"x":188760.73000000045,"y":2580419.1000000034}},{"attributes":{"ID":225013,"DIS_CODE":0,"TOWNNAME":"東山區","LI":"東山里","LIN":"29鄰","STREET":" ","SECT":" ","MAREA":"東山","LANE":" ","ALLEY":" ","HOUSE_NO":"５７１號","E_COORD97":188752.66,"N_COORD97":2580420.4700000002,"ADDRESS":"東山５７１號","OBJECTID":225009},"geometry":{"x":188752.66000000015,"y":2580420.4700000007}},{"attributes":{"ID":225014,"DIS_CODE":0,"TOWNNAME":"東山區","LI":"東山里","LIN":"29鄰","STREET":" ","SECT":" ","MAREA":"東山","LANE":" ","ALLEY":" ","HOUSE_NO":"６０１號","E_COORD97":188664.39999999999,"N_COORD97":2580465.2400000002,"ADDRESS":"東山６０１號","OBJECTID":225010},"geometry":{"x":188664.40000000037,"y":2580465.2400000002}},{"attributes":{"ID":225015,"DIS_CODE":0,"TOWNNAME":"北區","LI":"正覺里","LIN":"14鄰","STREET":"西門路","SECT":"四段","MAREA":" ","LANE":" ","ALLEY":" ","HOUSE_NO":"５５２號","E_COORD97":169231.39000000001,"N_COORD97":2546446.7599999998,"ADDRESS":"西門路四段５５２號","OBJECTID":225011},"geometry":{"x":169231.3900000006,"y":2546446.7600000016}},{"attributes":{"ID":225016,"DIS_CODE":0,"TOWNNAME":"仁德區","LI":"仁德里","LIN":"1鄰","STREET":"中正路","SECT":"二段","MAREA":" ","LANE":"６７９巷","ALLEY":" ","HOUSE_NO":"５５號","E_COORD97":173324.35999999999,"N_COORD97":2540065.8100000001,"ADDRESS":"中正路二段６７９巷５５號","OBJECTID":225012},"geometry":{"x":173324.36000000127,"y":2540065.8100000005}},{"attributes":{"ID":225017,"DIS_CODE":0,"TOWNNAME":"東區","LI":"圍下里","LIN":"22鄰","STREET":"衛民街","SECT":" ","MAREA":" ","LANE":"２４巷","ALLEY":" ","HOUSE_NO":"２７號","E_COORD97":169269.85000000001,"N_COORD97":2543823.0800000001,"ADDRESS":"衛民街２４巷２７號","OBJECTID":225013},"geometry":{"x":169269.84999999963,"y":2543823.0800000001}},{"attributes":{"ID":225018,"DIS_CODE":0,"TOWNNAME":"東區","LI":"圍下里","LIN":"22鄰","STREET":"衛民街","SECT":" ","MAREA":" ","LANE":"２４巷","ALLEY":" ","HOUSE_NO":"２８號","E_COORD97":169268.51000000001,"N_COORD97":2543816.7200000002,"ADDRESS":"衛民街２４巷２８號","OBJECTID":225014},"geometry":{"x":169268.50999999978,"y":2543816.7200000044}},{"attributes":{"ID":225019,"DIS_CODE":0,"TOWNNAME":"東區","LI":"圍下里","LIN":"22鄰","STREET":"衛民街","SECT":" ","MAREA":" ","LANE":"２４巷","ALLEY":" ","HOUSE_NO":"３號","E_COORD97":169271.01999999999,"N_COORD97":2543811.2000000002,"ADDRESS":"衛民街２４巷３號","OBJECTID":225015},"geometry":{"x":169271.02000000048,"y":2543811.1999999993}},{"attributes":{"ID":225020,"DIS_CODE":0,"TOWNNAME":"東區","LI":"圍下里","LIN":"22鄰","STREET":"衛民街","SECT":" ","MAREA":" ","LANE":"２４巷","ALLEY":" ","HOUSE_NO":"４號","E_COORD97":169274.88,"N_COORD97":2543810.5299999998,"ADDRESS":"衛民街２４巷４號","OBJECTID":225016},"geometry":{"x":169274.87999999989,"y":2543810.5300000012}},{"attributes":{"ID":225021,"DIS_CODE":0,"TOWNNAME":"東區","LI":"圍下里","LIN":"22鄰","STREET":"衛民街","SECT":" ","MAREA":" ","LANE":"２４巷","ALLEY":" ","HOUSE_NO":"５號","E_COORD97":169278.39999999999,"N_COORD97":2543810.3599999999,"ADDRESS":"衛民街２４巷５號","OBJECTID":225017},"geometry":{"x":169278.40000000037,"y":2543810.3599999994}},{"attributes":{"ID":225022,"DIS_CODE":0,"TOWNNAME":"東區","LI":"圍下里","LIN":"22鄰","STREET":"衛民街","SECT":" ","MAREA":" ","LANE":"２４巷","ALLEY":" ","HOUSE_NO":"６號","E_COORD97":169282.42000000001,"N_COORD97":2543809.8599999999,"ADDRESS":"衛民街２４巷６號","OBJECTID":225018},"geometry":{"x":169282.42000000086,"y":2543809.8599999994}},{"attributes":{"ID":225023,"DIS_CODE":0,"TOWNNAME":"東區","LI":"圍下里","LIN":"22鄰","STREET":"衛民街","SECT":" ","MAREA":" ","LANE":"２４巷","ALLEY":" ","HOUSE_NO":"７號","E_COORD97":169285.94,"N_COORD97":2543809.52,"ADDRESS":"衛民街２４巷７號","OBJECTID":225019},"geometry":{"x":169285.94000000134,"y":2543809.5199999996}},{"attributes":{"ID":225024,"DIS_CODE":0,"TOWNNAME":"東區","LI":"圍下里","LIN":"22鄰","STREET":"衛民街","SECT":" ","MAREA":" ","LANE":"２４巷","ALLEY":" ","HOUSE_NO":"８號","E_COORD97":169288.29000000001,"N_COORD97":2543809.02,"ADDRESS":"衛民街２４巷８號","OBJECTID":225020},"geometry":{"x":169288.29000000097,"y":2543809.0199999996}},{"attributes":{"ID":225025,"DIS_CODE":0,"TOWNNAME":"東區","LI":"圍下里","LIN":"22鄰","STREET":"衛民街","SECT":" ","MAREA":" ","LANE":"２４巷","ALLEY":" ","HOUSE_NO":"９號","E_COORD97":169291.13,"N_COORD97":2543808.6800000002,"ADDRESS":"衛民街２４巷９號","OBJECTID":225021},"geometry":{"x":169291.13000000082,"y":2543808.6799999997}},{"attributes":{"ID":225026,"DIS_CODE":0,"TOWNNAME":"永康區","LI":"西橋里","LIN":"22鄰","STREET":"大橋三街","SECT":" ","MAREA":" ","LANE":"５７巷","ALLEY":" ","HOUSE_NO":"１１號","E_COORD97":170524.81,"N_COORD97":2546565.7400000002,"ADDRESS":"大橋三街５７巷１１號","OBJECTID":225022},"geometry":{"x":170524.81000000145,"y":2546565.7400000039}},{"attributes":{"ID":225027,"DIS_CODE":0,"TOWNNAME":"安南區","LI":"安慶里","LIN":"22鄰","STREET":"安中路","SECT":"一段","MAREA":" ","LANE":"１８９巷","ALLEY":" ","HOUSE_NO":"７５號","E_COORD97":168784.66,"N_COORD97":2548285.8100000001,"ADDRESS":"安中路一段１８９巷７５號","OBJECTID":225023},"geometry":{"x":168784.66000000015,"y":2548285.8100000024}},{"attributes":{"ID":225028,"DIS_CODE":0,"TOWNNAME":"安南區","LI":"安慶里","LIN":"22鄰","STREET":"安中路","SECT":"一段","MAREA":" ","LANE":"１８９巷","ALLEY":" ","HOUSE_NO":"８３號","E_COORD97":168788.57999999999,"N_COORD97":2548270.3199999998,"ADDRESS":"安中路一段１８９巷８３號","OBJECTID":225024},"geometry":{"x":168788.58000000007,"y":2548270.3199999984}},{"attributes":{"ID":225029,"DIS_CODE":0,"TOWNNAME":"東區","LI":"泉南里","LIN":"34鄰","STREET":"林森路","SECT":"一段","MAREA":" ","LANE":" ","ALLEY":" ","HOUSE_NO":"１４９號八樓之９","E_COORD97":169495.73000000001,"N_COORD97":2542552.3999999999,"ADDRESS":"林森路一段１４９號八樓之９","OBJECTID":225025},"geometry":{"x":169495.73000000138,"y":2542552.4000000004}},{"attributes":{"ID":225030,"DIS_CODE":0,"TOWNNAME":"永康區","LI":"西灣里","LIN":"29鄰","STREET":"公園路","SECT":" ","MAREA":" ","LANE":"６３巷","ALLEY":" ","HOUSE_NO":"１０號","E_COORD97":174324.16,"N_COORD97":2545957.7200000002,"ADDRESS":"公園路６３巷１０號","OBJECTID":225026},"geometry":{"x":174324.16000000108,"y":2545957.7200000007}},{"attributes":{"ID":225031,"DIS_CODE":0,"TOWNNAME":"仁德區","LI":"仁義里","LIN":"39鄰","STREET":"仁義五街","SECT":" ","MAREA":" ","LANE":"４４巷","ALLEY":" ","HOUSE_NO":"１３號","E_COORD97":173609.56,"N_COORD97":2540400.02,"ADDRESS":"仁義五街４４巷１３號","OBJECTID":225027},"geometry":{"x":173609.55999999959,"y":2540400.0200000014}},{"attributes":{"ID":225032,"DIS_CODE":0,"TOWNNAME":"仁德區","LI":"太子里","LIN":"44鄰","STREET":"太子路","SECT":" ","MAREA":" ","LANE":"１０１巷","ALLEY":" ","HOUSE_NO":"２２號","E_COORD97":174880.89999999999,"N_COORD97":2543429.5099999998,"ADDRESS":"太子路１０１巷２２號","OBJECTID":225028},"geometry":{"x":174880.90000000037,"y":2543429.5099999998}},{"attributes":{"ID":225033,"DIS_CODE":0,"TOWNNAME":"永康區","LI":"二王里","LIN":"29鄰","STREET":"中山南路","SECT":" ","MAREA":" ","LANE":"５４４巷","ALLEY":" ","HOUSE_NO":"２０號","E_COORD97":172244.28,"N_COORD97":2546533.3599999999,"ADDRESS":"中山南路５４４巷２０號","OBJECTID":225029},"geometry":{"x":172244.28000000026,"y":2546533.3600000031}},{"attributes":{"ID":225034,"DIS_CODE":0,"TOWNNAME":"東區","LI":"中西里","LIN":"29鄰","STREET":"東寧路","SECT":" ","MAREA":" ","LANE":"１３４巷","ALLEY":" ","HOUSE_NO":"４５號","E_COORD97":170359.95999999999,"N_COORD97":2543447.73,"ADDRESS":"東寧路１３４巷４５號","OBJECTID":225030},"geometry":{"x":170359.96000000089,"y":2543447.7300000023}},{"attributes":{"ID":225035,"DIS_CODE":0,"TOWNNAME":"安南區","LI":"安慶里","LIN":"22鄰","STREET":"安中路","SECT":"一段","MAREA":" ","LANE":"１８９巷","ALLEY":" ","HOUSE_NO":"８７號","E_COORD97":168786.42000000001,"N_COORD97":2548259,"ADDRESS":"安中路一段１８９巷８７號","OBJECTID":225031},"geometry":{"x":168786.41999999993,"y":2548259.0000000037}},{"attributes":{"ID":225036,"DIS_CODE":0,"TOWNNAME":"安南區","LI":"安慶里","LIN":"22鄰","STREET":"安中路","SECT":"一段","MAREA":" ","LANE":"１８９巷","ALLEY":" ","HOUSE_NO":"８９號","E_COORD97":168788.25,"N_COORD97":2548255.9100000001,"ADDRESS":"安中路一段１８９巷８９號","OBJECTID":225032},"geometry":{"x":168788.25000000093,"y":2548255.9100000001}},{"attributes":{"ID":225037,"DIS_CODE":0,"TOWNNAME":"安南區","LI":"州南里","LIN":"22鄰","STREET":"安和路","SECT":"四段","MAREA":" ","LANE":"５３３巷","ALLEY":" ","HOUSE_NO":"７６號","E_COORD97":169774.26999999999,"N_COORD97":2551267.6200000001,"ADDRESS":"安和路四段５３３巷７６號","OBJECTID":225033},"geometry":{"x":169774.27000000048,"y":2551267.6200000029}},{"attributes":{"ID":225038,"DIS_CODE":0,"TOWNNAME":"安南區","LI":"州南里","LIN":"22鄰","STREET":"安和路","SECT":"四段","MAREA":" ","LANE":"５３３巷","ALLEY":" ","HOUSE_NO":"９２號","E_COORD97":169744.56,"N_COORD97":2551268.3900000001,"ADDRESS":"安和路四段５３３巷９２號","OBJECTID":225034},"geometry":{"x":169744.55999999959,"y":2551268.3900000025}},{"attributes":{"ID":225039,"DIS_CODE":0,"TOWNNAME":"安南區","LI":"州南里","LIN":"22鄰","STREET":"安和路","SECT":"四段","MAREA":" ","LANE":"５３３巷","ALLEY":" ","HOUSE_NO":"９４號","E_COORD97":169735.34,"N_COORD97":2551253.0499999998,"ADDRESS":"安和路四段５３３巷９４號","OBJECTID":225035},"geometry":{"x":169735.34000000078,"y":2551253.0500000045}},{"attributes":{"ID":225040,"DIS_CODE":0,"TOWNNAME":"新營區","LI":"民榮里","LIN":"22鄰","STREET":"裕民路","SECT":" ","MAREA":" ","LANE":"３４巷","ALLEY":" ","HOUSE_NO":"１１號","E_COORD97":179093.29999999999,"N_COORD97":2577870.4700000002,"ADDRESS":"裕民路３４巷１１號","OBJECTID":225036},"geometry":{"x":179093.30000000075,"y":2577870.4700000007}},{"attributes":{"ID":225041,"DIS_CODE":0,"TOWNNAME":"安南區","LI":"城西里","LIN":"5鄰","STREET":"城西街","SECT":"三段","MAREA":" ","LANE":"６６３巷","ALLEY":" ","HOUSE_NO":"６９號之１","E_COORD97":156867.59,"N_COORD97":2550710.3500000001,"ADDRESS":"城西街三段６６３巷６９號之１","OBJECTID":225037},"geometry":{"x":156867.58999999985,"y":2550710.3499999996}},{"attributes":{"ID":225042,"DIS_CODE":0,"TOWNNAME":"中西區","LI":"建國里","LIN":"16鄰","STREET":"民生路","SECT":"一段","MAREA":" ","LANE":"１３２巷","ALLEY":" ","HOUSE_NO":"２０號","E_COORD97":168105.14999999999,"N_COORD97":2543907.3399999999,"ADDRESS":"民生路一段１３２巷２０號","OBJECTID":225038},"geometry":{"x":168105.15000000037,"y":2543907.3400000017}},{"attributes":{"ID":225043,"DIS_CODE":0,"TOWNNAME":"東區","LI":"泉南里","LIN":"34鄰","STREET":"林森路","SECT":"一段","MAREA":" ","LANE":" ","ALLEY":" ","HOUSE_NO":"１４９號九樓","E_COORD97":169495.73000000001,"N_COORD97":2542552.3999999999,"ADDRESS":"林森路一段１４９號九樓","OBJECTID":225039},"geometry":{"x":169495.73000000138,"y":2542552.4000000004}},{"attributes":{"ID":225044,"DIS_CODE":0,"TOWNNAME":"東區","LI":"泉南里","LIN":"34鄰","STREET":"林森路","SECT":"一段","MAREA":" ","LANE":" ","ALLEY":" ","HOUSE_NO":"１４９號九樓之１","E_COORD97":169495.73000000001,"N_COORD97":2542552.3999999999,"ADDRESS":"林森路一段１４９號九樓之１","OBJECTID":225040},"geometry":{"x":169495.73000000138,"y":2542552.4000000004}},{"attributes":{"ID":225045,"DIS_CODE":0,"TOWNNAME":"東區","LI":"泉南里","LIN":"34鄰","STREET":"林森路","SECT":"一段","MAREA":" ","LANE":" ","ALLEY":" ","HOUSE_NO":"１４９號九樓之２","E_COORD97":169495.73000000001,"N_COORD97":2542552.3999999999,"ADDRESS":"林森路一段１４９號九樓之２","OBJECTID":225041},"geometry":{"x":169495.73000000138,"y":2542552.4000000004}},{"attributes":{"ID":225046,"DIS_CODE":0,"TOWNNAME":"東區","LI":"泉南里","LIN":"34鄰","STREET":"林森路","SECT":"一段","MAREA":" ","LANE":" ","ALLEY":" ","HOUSE_NO":"１４９號九樓之３","E_COORD97":169495.73000000001,"N_COORD97":2542552.3999999999,"ADDRESS":"林森路一段１４９號九樓之３","OBJECTID":225042},"geometry":{"x":169495.73000000138,"y":2542552.4000000004}},{"attributes":{"ID":225047,"DIS_CODE":0,"TOWNNAME":"東區","LI":"泉南里","LIN":"34鄰","STREET":"林森路","SECT":"一段","MAREA":" ","LANE":" ","ALLEY":" ","HOUSE_NO":"１４９號九樓之４","E_COORD97":169495.73000000001,"N_COORD97":2542552.3999999999,"ADDRESS":"林森路一段１４９號九樓之４","OBJECTID":225043},"geometry":{"x":169495.73000000138,"y":2542552.4000000004}},{"attributes":{"ID":225048,"DIS_CODE":0,"TOWNNAME":"仁德區","LI":"仁愛里","LIN":"29鄰","STREET":"亞航街","SECT":" ","MAREA":" ","LANE":"１９８巷","ALLEY":" ","HOUSE_NO":"１１６號","E_COORD97":170112.80300000001,"N_COORD97":2539042.5669999998,"ADDRESS":"亞航街１９８巷１１６號","OBJECTID":225044},"geometry":{"x":170112.80300000124,"y":2539042.5669999979}},{"attributes":{"ID":225049,"DIS_CODE":0,"TOWNNAME":"安南區","LI":"州南里","LIN":"29鄰","STREET":"安和路","SECT":"四段","MAREA":" ","LANE":"５３３巷","ALLEY":" ","HOUSE_NO":"８１號","E_COORD97":169774.48999999999,"N_COORD97":2551241.2400000002,"ADDRESS":"安和路四段５３３巷８１號","OBJECTID":225045},"geometry":{"x":169774.49000000022,"y":2551241.2400000039}},{"attributes":{"ID":225050,"DIS_CODE":0,"TOWNNAME":"南區","LI":"府南里","LIN":"22鄰","STREET":"大成路","SECT":"二段","MAREA":" ","LANE":"１４３巷","ALLEY":" ","HOUSE_NO":"４６號","E_COORD97":167255.69,"N_COORD97":2541587.9100000001,"ADDRESS":"大成路二段１４３巷４６號","OBJECTID":225046},"geometry":{"x":167255.69000000041,"y":2541587.910000002}},{"attributes":{"ID":225051,"DIS_CODE":0,"TOWNNAME":"南區","LI":"府南里","LIN":"22鄰","STREET":"大成路","SECT":"二段","MAREA":" ","LANE":"１４３巷","ALLEY":" ","HOUSE_NO":"４８號","E_COORD97":167251.85000000001,"N_COORD97":2541589.2799999998,"ADDRESS":"大成路二段１４３巷４８號","OBJECTID":225047},"geometry":{"x":167251.85000000056,"y":2541589.2799999993}},{"attributes":{"ID":225052,"DIS_CODE":0,"TOWNNAME":"新營區","LI":"南紙里","LIN":"22鄰","STREET":"建業路","SECT":" ","MAREA":" ","LANE":"１９３巷","ALLEY":" ","HOUSE_NO":"１４號","E_COORD97":178193.14000000001,"N_COORD97":2577449.5299999998,"ADDRESS":"建業路１９３巷１４號","OBJECTID":225048},"geometry":{"x":178193.13999999873,"y":2577449.5300000012}},{"attributes":{"ID":225053,"DIS_CODE":0,"TOWNNAME":"新營區","LI":"新東里","LIN":"22鄰","STREET":"東明街","SECT":" ","MAREA":" ","LANE":"９６巷","ALLEY":" ","HOUSE_NO":"１０號","E_COORD97":180833.20000000001,"N_COORD97":2579830.1899999999,"ADDRESS":"東明街９６巷１０號","OBJECTID":225049},"geometry":{"x":180833.20000000112,"y":2579830.1899999995}},{"attributes":{"ID":225054,"DIS_CODE":0,"TOWNNAME":"新營區","LI":"新北里","LIN":"22鄰","STREET":"民生路","SECT":" ","MAREA":" ","LANE":"３５６巷","ALLEY":" ","HOUSE_NO":"８號","E_COORD97":178939.26000000001,"N_COORD97":2579269.9199999999,"ADDRESS":"民生路３５６巷８號","OBJECTID":225050},"geometry":{"x":178939.26000000071,"y":2579269.9199999999}},{"attributes":{"ID":225055,"DIS_CODE":0,"TOWNNAME":"新營區","LI":"南興里","LIN":"22鄰","STREET":"延平路","SECT":" ","MAREA":" ","LANE":"１４０巷","ALLEY":" ","HOUSE_NO":"２４之５號","E_COORD97":179637.19,"N_COORD97":2577482.5499999998,"ADDRESS":"延平路１４０巷２４之５號","OBJECTID":225051},"geometry":{"x":179637.19000000041,"y":2577482.5500000026}},{"attributes":{"ID":225056,"DIS_CODE":0,"TOWNNAME":"歸仁區","LI":"大廟里","LIN":"22鄰","STREET":"大廟一街","SECT":" ","MAREA":" ","LANE":"３８巷","ALLEY":" ","HOUSE_NO":"１１號","E_COORD97":175784.22,"N_COORD97":2544059.25,"ADDRESS":"大廟一街３８巷１１號","OBJECTID":225052},"geometry":{"x":175784.22000000067,"y":2544059.25}},{"attributes":{"ID":225057,"DIS_CODE":0,"TOWNNAME":"歸仁區","LI":"六甲里","LIN":"22鄰","STREET":"中正十八街","SECT":" ","MAREA":" ","LANE":"８巷","ALLEY":" ","HOUSE_NO":"１６號","E_COORD97":176370.10880799999,"N_COORD97":2539698.99285,"ADDRESS":"中正十八街８巷１６號","OBJECTID":225053},"geometry":{"x":176370.10880799964,"y":2539698.9928480033}},{"attributes":{"ID":225058,"DIS_CODE":0,"TOWNNAME":"柳營區","LI":"重溪里","LIN":"22鄰","STREET":"義士路","SECT":"一段","MAREA":" ","LANE":"８３２巷","ALLEY":" ","HOUSE_NO":"１１１號","E_COORD97":185322.29999999999,"N_COORD97":2576256.98,"ADDRESS":"義士路一段８３２巷１１１號","OBJECTID":225054},"geometry":{"x":185322.30000000168,"y":2576256.9799999986}},{"attributes":{"ID":225059,"DIS_CODE":0,"TOWNNAME":"柳營區","LI":"重溪里","LIN":"22鄰","STREET":"義士路","SECT":"一段","MAREA":" ","LANE":"８３２巷","ALLEY":" ","HOUSE_NO":"１１３號","E_COORD97":185322.64999999999,"N_COORD97":2576261.2999999998,"ADDRESS":"義士路一段８３２巷１１３號","OBJECTID":225055},"geometry":{"x":185322.6500000013,"y":2576261.3000000007}},{"attributes":{"ID":225060,"DIS_CODE":0,"TOWNNAME":"柳營區","LI":"重溪里","LIN":"22鄰","STREET":"義士路","SECT":"一段","MAREA":" ","LANE":"８３２巷","ALLEY":" ","HOUSE_NO":"１１５號","E_COORD97":185322.98000000001,"N_COORD97":2576267.4100000001,"ADDRESS":"義士路一段８３２巷１１５號","OBJECTID":225056},"geometry":{"x":185322.98000000045,"y":2576267.4100000039}},{"attributes":{"ID":225061,"DIS_CODE":0,"TOWNNAME":"歸仁區","LI":"六甲里","LIN":"22鄰","STREET":"中正十八街","SECT":" ","MAREA":" ","LANE":"８巷","ALLEY":" ","HOUSE_NO":"２號","E_COORD97":176370.320675,"N_COORD97":2539673.3811900001,"ADDRESS":"中正十八街８巷２號","OBJECTID":225057},"geometry":{"x":176370.32067500055,"y":2539673.3811950013}},{"attributes":{"ID":225062,"DIS_CODE":0,"TOWNNAME":"歸仁區","LI":"六甲里","LIN":"22鄰","STREET":"中正十八街","SECT":" ","MAREA":" ","LANE":"８巷","ALLEY":" ","HOUSE_NO":"６號","E_COORD97":176369.89694000001,"N_COORD97":2539678.7786900001,"ADDRESS":"中正十八街８巷６號","OBJECTID":225058},"geometry":{"x":176369.89694000222,"y":2539678.7786920015}},{"attributes":{"ID":225063,"DIS_CODE":0,"TOWNNAME":"歸仁區","LI":"六甲里","LIN":"22鄰","STREET":"中正十八街","SECT":" ","MAREA":" ","LANE":"８巷","ALLEY":" ","HOUSE_NO":"７號","E_COORD97":176354.73000000001,"N_COORD97":2539684.7400000002,"ADDRESS":"中正十八街８巷７號","OBJECTID":225059},"geometry":{"x":176354.73000000138,"y":2539684.7400000021}},{"attributes":{"ID":225064,"DIS_CODE":0,"TOWNNAME":"六甲區","LI":"甲東里","LIN":"22鄰","STREET":"裕農街","SECT":" ","MAREA":" ","LANE":"４９巷","ALLEY":" ","HOUSE_NO":"４號","E_COORD97":184140.39000000001,"N_COORD97":2569746.98,"ADDRESS":"裕農街４９巷４號","OBJECTID":225060},"geometry":{"x":184140.3900000006,"y":2569746.9800000004}},{"attributes":{"ID":225065,"DIS_CODE":0,"TOWNNAME":"六甲區","LI":"甲東里","LIN":"22鄰","STREET":"裕農街","SECT":" ","MAREA":" ","LANE":"４９巷","ALLEY":" ","HOUSE_NO":"６號","E_COORD97":184149.58383600001,"N_COORD97":2569760.1926699998,"ADDRESS":"裕農街４９巷６號","OBJECTID":225061},"geometry":{"x":184149.58383600134,"y":2569760.1926720012}},{"attributes":{"ID":225066,"DIS_CODE":0,"TOWNNAME":"中西區","LI":"萬昌里","LIN":"11鄰","STREET":"民權路","SECT":"一段","MAREA":" ","LANE":"１６巷","ALLEY":" ","HOUSE_NO":"１號","E_COORD97":169118.48999999999,"N_COORD97":2543387.4399999999,"ADDRESS":"民權路一段１６巷１號","OBJECTID":225062},"geometry":{"x":169118.49000000022,"y":2543387.4400000013}},{"attributes":{"ID":225067,"DIS_CODE":0,"TOWNNAME":"中西區","LI":"萬昌里","LIN":"11鄰","STREET":"民權路","SECT":"一段","MAREA":" ","LANE":"１６巷","ALLEY":" ","HOUSE_NO":"３號","E_COORD97":169120.45000000001,"N_COORD97":2543391.9300000002,"ADDRESS":"民權路一段１６巷３號","OBJECTID":225063},"geometry":{"x":169120.45000000019,"y":2543391.9300000016}},{"attributes":{"ID":225068,"DIS_CODE":0,"TOWNNAME":"關廟區","LI":"東勢里","LIN":"22鄰","STREET":"東昌街","SECT":" ","MAREA":" ","LANE":"１２３巷","ALLEY":" ","HOUSE_NO":"９號","E_COORD97":181843.47,"N_COORD97":2539167.25,"ADDRESS":"東昌街１２３巷９號","OBJECTID":225064},"geometry":{"x":181843.46999999974,"y":2539167.25}},{"attributes":{"ID":225069,"DIS_CODE":0,"TOWNNAME":"關廟區","LI":"北勢里","LIN":"22鄰","STREET":"仁愛路","SECT":" ","MAREA":" ","LANE":"１７６巷","ALLEY":" ","HOUSE_NO":"１９號","E_COORD97":181455.54000000001,"N_COORD97":2540388.2799999998,"ADDRESS":"仁愛路１７６巷１９號","OBJECTID":225065},"geometry":{"x":181455.54000000004,"y":2540388.2800000012}},{"attributes":{"ID":225070,"DIS_CODE":0,"TOWNNAME":"關廟區","LI":"北勢里","LIN":"22鄰","STREET":"北美街","SECT":" ","MAREA":" ","LANE":"６３巷","ALLEY":" ","HOUSE_NO":"１０號","E_COORD97":181451.98999999999,"N_COORD97":2540447.2999999998,"ADDRESS":"北美街６３巷１０號","OBJECTID":225066},"geometry":{"x":181451.99000000115,"y":2540447.3000000026}},{"attributes":{"ID":225071,"DIS_CODE":0,"TOWNNAME":"北區","LI":"文元里","LIN":"22鄰","STREET":"和緯路","SECT":"三段","MAREA":" ","LANE":"１８０巷","ALLEY":" ","HOUSE_NO":"３２號","E_COORD97":167938.62,"N_COORD97":2545845.6400000001,"ADDRESS":"和緯路三段１８０巷３２號","OBJECTID":225067},"geometry":{"x":167938.62000000104,"y":2545845.6400000025}},{"attributes":{"ID":225072,"DIS_CODE":0,"TOWNNAME":"北區","LI":"文元里","LIN":"22鄰","STREET":"和緯路","SECT":"三段","MAREA":" ","LANE":"１８０巷","ALLEY":" ","HOUSE_NO":"３６號","E_COORD97":167944.97,"N_COORD97":2545845.79,"ADDRESS":"和緯路三段１８０巷３６號","OBJECTID":225068},"geometry":{"x":167944.96999999974,"y":2545845.790000001}},{"attributes":{"ID":225073,"DIS_CODE":0,"TOWNNAME":"北區","LI":"文元里","LIN":"22鄰","STREET":"和緯路","SECT":"三段","MAREA":" ","LANE":"１８０巷","ALLEY":" ","HOUSE_NO":"３８號","E_COORD97":167950.35999999999,"N_COORD97":2545846.5899999999,"ADDRESS":"和緯路三段１８０巷３８號","OBJECTID":225069},"geometry":{"x":167950.36000000127,"y":2545846.5899999999}},{"attributes":{"ID":225074,"DIS_CODE":0,"TOWNNAME":"北區","LI":"文元里","LIN":"22鄰","STREET":"和緯路","SECT":"三段","MAREA":" ","LANE":"１８０巷","ALLEY":" ","HOUSE_NO":"４０號","E_COORD97":167954.48999999999,"N_COORD97":2545846.9100000001,"ADDRESS":"和緯路三段１８０巷４０號","OBJECTID":225070},"geometry":{"x":167954.49000000115,"y":2545846.910000002}},{"attributes":{"ID":225075,"DIS_CODE":0,"TOWNNAME":"北區","LI":"文元里","LIN":"22鄰","STREET":"和緯路","SECT":"三段","MAREA":" ","LANE":"１８０巷","ALLEY":" ","HOUSE_NO":"４２號","E_COORD97":167959.10000000001,"N_COORD97":2545847.3799999999,"ADDRESS":"和緯路三段１８０巷４２號","OBJECTID":225071},"geometry":{"x":167959.09999999963,"y":2545847.379999999}},{"attributes":{"ID":225076,"DIS_CODE":0,"TOWNNAME":"東區","LI":"泉南里","LIN":"34鄰","STREET":"林森路","SECT":"一段","MAREA":" ","LANE":" ","ALLEY":" ","HOUSE_NO":"１４９號九樓之５","E_COORD97":169495.73000000001,"N_COORD97":2542552.3999999999,"ADDRESS":"林森路一段１４９號九樓之５","OBJECTID":225072},"geometry":{"x":169495.73000000138,"y":2542552.4000000004}},{"attributes":{"ID":225077,"DIS_CODE":0,"TOWNNAME":"東區","LI":"泉南里","LIN":"34鄰","STREET":"林森路","SECT":"一段","MAREA":" ","LANE":" ","ALLEY":" ","HOUSE_NO":"１４９號九樓之６","E_COORD97":169495.73000000001,"N_COORD97":2542552.3999999999,"ADDRESS":"林森路一段１４９號九樓之６","OBJECTID":225073},"geometry":{"x":169495.73000000138,"y":2542552.4000000004}},{"attributes":{"ID":225078,"DIS_CODE":0,"TOWNNAME":"仁德區","LI":"仁愛里","LIN":"30鄰","STREET":"亞航街","SECT":" ","MAREA":" ","LANE":"１９８巷","ALLEY":" ","HOUSE_NO":"１８２號","E_COORD97":170083.28200000001,"N_COORD97":2539122.0120000001,"ADDRESS":"亞航街１９８巷１８２號","OBJECTID":225074},"geometry":{"x":170083.28199999966,"y":2539122.0120000001}},{"attributes":{"ID":225079,"DIS_CODE":0,"TOWNNAME":"北區","LI":"文元里","LIN":"22鄰","STREET":"和緯路","SECT":"三段","MAREA":" ","LANE":"１８０巷","ALLEY":" ","HOUSE_NO":"４６號","E_COORD97":167962.26999999999,"N_COORD97":2545847.8599999999,"ADDRESS":"和緯路三段１８０巷４６號","OBJECTID":225075},"geometry":{"x":167962.27000000048,"y":2545847.8599999994}},{"attributes":{"ID":225080,"DIS_CODE":0,"TOWNNAME":"北區","LI":"文元里","LIN":"22鄰","STREET":"和緯路","SECT":"三段","MAREA":" ","LANE":"１８０巷","ALLEY":" ","HOUSE_NO":"４８號","E_COORD97":167965.45000000001,"N_COORD97":2545848.1800000002,"ADDRESS":"和緯路三段１８０巷４８號","OBJECTID":225076},"geometry":{"x":167965.45000000112,"y":2545848.1800000016}},{"attributes":{"ID":225081,"DIS_CODE":0,"TOWNNAME":"中西區","LI":"萬昌里","LIN":"12鄰","STREET":"北門路","SECT":"一段","MAREA":" ","LANE":"５１巷","ALLEY":" ","HOUSE_NO":"１５號","E_COORD97":169090.19,"N_COORD97":2543426.75,"ADDRESS":"北門路一段５１巷１５號","OBJECTID":225077},"geometry":{"x":169090.19000000041,"y":2543426.7500000019}},{"attributes":{"ID":225082,"DIS_CODE":0,"TOWNNAME":"中西區","LI":"萬昌里","LIN":"12鄰","STREET":"北門路","SECT":"一段","MAREA":" ","LANE":"５１巷","ALLEY":" ","HOUSE_NO":"１７號","E_COORD97":169086.82999999999,"N_COORD97":2543428.1499999999,"ADDRESS":"北門路一段５１巷１７號","OBJECTID":225078},"geometry":{"x":169086.83000000007,"y":2543428.1500000022}},{"attributes":{"ID":225083,"DIS_CODE":0,"TOWNNAME":"中西區","LI":"萬昌里","LIN":"12鄰","STREET":"北門路","SECT":"一段","MAREA":" ","LANE":"５１巷","ALLEY":" ","HOUSE_NO":"１９號","E_COORD97":169083.04000000001,"N_COORD97":2543428.8500000001,"ADDRESS":"北門路一段５１巷１９號","OBJECTID":225079},"geometry":{"x":169083.04000000097,"y":2543428.8500000015}},{"attributes":{"ID":225084,"DIS_CODE":0,"TOWNNAME":"中西區","LI":"萬昌里","LIN":"12鄰","STREET":"北門路","SECT":"一段","MAREA":" ","LANE":"５１巷","ALLEY":" ","HOUSE_NO":"２１號","E_COORD97":169078.26999999999,"N_COORD97":2543430.3900000001,"ADDRESS":"北門路一段５１巷２１號","OBJECTID":225080},"geometry":{"x":169078.26999999955,"y":2543430.3900000025}},{"attributes":{"ID":225085,"DIS_CODE":0,"TOWNNAME":"中西區","LI":"萬昌里","LIN":"12鄰","STREET":"北門路","SECT":"一段","MAREA":" ","LANE":"５１巷","ALLEY":" ","HOUSE_NO":"２３號","E_COORD97":169069.39000000001,"N_COORD97":2543429.0699999998,"ADDRESS":"北門路一段５１巷２３號","OBJECTID":225081},"geometry":{"x":169069.38999999966,"y":2543429.0700000022}},{"attributes":{"ID":225086,"DIS_CODE":0,"TOWNNAME":"中西區","LI":"萬昌里","LIN":"12鄰","STREET":"北門路","SECT":"一段","MAREA":" ","LANE":"５１巷","ALLEY":" ","HOUSE_NO":"２３號之１","E_COORD97":169064.25,"N_COORD97":2543415.4300000002,"ADDRESS":"北門路一段５１巷２３號之１","OBJECTID":225082},"geometry":{"x":169064.25000000186,"y":2543415.4300000016}},{"attributes":{"ID":225087,"DIS_CODE":0,"TOWNNAME":"中西區","LI":"萬昌里","LIN":"12鄰","STREET":"北門路","SECT":"一段","MAREA":" ","LANE":"５１巷","ALLEY":" ","HOUSE_NO":"２３號之２","E_COORD97":169066.45000000001,"N_COORD97":2543422.0299999998,"ADDRESS":"北門路一段５１巷２３號之２","OBJECTID":225083},"geometry":{"x":169066.44999999925,"y":2543422.0299999993}},{"attributes":{"ID":225088,"DIS_CODE":0,"TOWNNAME":"中西區","LI":"萬昌里","LIN":"12鄰","STREET":"北門路","SECT":"一段","MAREA":" ","LANE":"５１巷","ALLEY":" ","HOUSE_NO":"２３號之３","E_COORD97":169064.10000000001,"N_COORD97":2543431.5600000001,"ADDRESS":"北門路一段５１巷２３號之３","OBJECTID":225084},"geometry":{"x":169064.09999999963,"y":2543431.5600000024}},{"attributes":{"ID":225089,"DIS_CODE":0,"TOWNNAME":"安平區","LI":"平通里","LIN":"22鄰","STREET":"育平九街","SECT":" ","MAREA":" ","LANE":"３７２巷","ALLEY":" ","HOUSE_NO":"９１之１０號","E_COORD97":164547.23999999999,"N_COORD97":2543984.6600000001,"ADDRESS":"育平九街３７２巷９１之１０號","OBJECTID":225085},"geometry":{"x":164547.24000000115,"y":2543984.6600000001}},{"attributes":{"ID":225090,"DIS_CODE":0,"TOWNNAME":"新營區","LI":"新東里","LIN":"22鄰","STREET":"東明街","SECT":" ","MAREA":" ","LANE":"９６巷","ALLEY":" ","HOUSE_NO":"１０之３號","E_COORD97":180849.01000000001,"N_COORD97":2579832.3900000001,"ADDRESS":"東明街９６巷１０之３號","OBJECTID":225086},"geometry":{"x":180849.01000000164,"y":2579832.3900000025}},{"attributes":{"ID":225091,"DIS_CODE":0,"TOWNNAME":"新營區","LI":"新北里","LIN":"22鄰","STREET":"民生路","SECT":" ","MAREA":" ","LANE":"３５６巷","ALLEY":" ","HOUSE_NO":"１８號","E_COORD97":178991.60000000001,"N_COORD97":2579274.1099999999,"ADDRESS":"民生路３５６巷１８號","OBJECTID":225087},"geometry":{"x":178991.59999999963,"y":2579274.1100000013}},{"attributes":{"ID":225092,"DIS_CODE":0,"TOWNNAME":"新營區","LI":"新東里","LIN":"22鄰","STREET":"東明街","SECT":" ","MAREA":" ","LANE":"９６巷","ALLEY":" ","HOUSE_NO":"６號","E_COORD97":180823.78,"N_COORD97":2579830.2200000002,"ADDRESS":"東明街９６巷６號","OBJECTID":225088},"geometry":{"x":180823.77999999933,"y":2579830.2200000025}},{"attributes":{"ID":225093,"DIS_CODE":0,"TOWNNAME":"北區","LI":"正覺里","LIN":"22鄰","STREET":"正覺街","SECT":" ","MAREA":" ","LANE":"１０２巷","ALLEY":" ","HOUSE_NO":"２４號","E_COORD97":169441.35999999999,"N_COORD97":2546473.8399999999,"ADDRESS":"正覺街１０２巷２４號","OBJECTID":225089},"geometry":{"x":169441.36000000034,"y":2546473.8400000017}},{"attributes":{"ID":225094,"DIS_CODE":0,"TOWNNAME":"北區","LI":"正覺里","LIN":"22鄰","STREET":"正覺街","SECT":" ","MAREA":" ","LANE":"１０２巷","ALLEY":" ","HOUSE_NO":"２５號","E_COORD97":169425.47,"N_COORD97":2546492.3599999999,"ADDRESS":"正覺街１０２巷２５號","OBJECTID":225090},"geometry":{"x":169425.47000000067,"y":2546492.3599999994}},{"attributes":{"ID":225095,"DIS_CODE":0,"TOWNNAME":"北區","LI":"正覺里","LIN":"22鄰","STREET":"正覺街","SECT":" ","MAREA":" ","LANE":"１０２巷","ALLEY":" ","HOUSE_NO":"２６號","E_COORD97":169445.29999999999,"N_COORD97":2546472.3900000001,"ADDRESS":"正覺街１０２巷２６號","OBJECTID":225091},"geometry":{"x":169445.30000000168,"y":2546472.3900000006}},{"attributes":{"ID":225096,"DIS_CODE":0,"TOWNNAME":"北區","LI":"正覺里","LIN":"22鄰","STREET":"正覺街","SECT":" ","MAREA":" ","LANE":"１０２巷","ALLEY":" ","HOUSE_NO":"２７號","E_COORD97":169430.54000000001,"N_COORD97":2546491.0800000001,"ADDRESS":"正覺街１０２巷２７號","OBJECTID":225092},"geometry":{"x":169430.54000000097,"y":2546491.0800000001}},{"attributes":{"ID":225097,"DIS_CODE":0,"TOWNNAME":"北區","LI":"正覺里","LIN":"22鄰","STREET":"正覺街","SECT":" ","MAREA":" ","LANE":"１０２巷","ALLEY":" ","HOUSE_NO":"２８號","E_COORD97":169449.17000000001,"N_COORD97":2546471.1000000001,"ADDRESS":"正覺街１０２巷２８號","OBJECTID":225093},"geometry":{"x":169449.16999999993,"y":2546471.1000000034}},{"attributes":{"ID":225098,"DIS_CODE":0,"TOWNNAME":"北區","LI":"正覺里","LIN":"22鄰","STREET":"正覺街","SECT":" ","MAREA":" ","LANE":"１０２巷","ALLEY":" ","HOUSE_NO":"２９號","E_COORD97":169434.48999999999,"N_COORD97":2546489.6299999999,"ADDRESS":"正覺街１０２巷２９號","OBJECTID":225094},"geometry":{"x":169434.49000000115,"y":2546489.629999999}},{"attributes":{"ID":225099,"DIS_CODE":0,"TOWNNAME":"北區","LI":"正覺里","LIN":"22鄰","STREET":"正覺街","SECT":" ","MAREA":" ","LANE":"１０２巷","ALLEY":" ","HOUSE_NO":"２號","E_COORD97":169367.69,"N_COORD97":2546482.6800000002,"ADDRESS":"正覺街１０２巷２號","OBJECTID":225095},"geometry":{"x":169367.69000000134,"y":2546482.6799999997}},{"attributes":{"ID":225100,"DIS_CODE":0,"TOWNNAME":"北區","LI":"正覺里","LIN":"22鄰","STREET":"正覺街","SECT":" ","MAREA":" ","LANE":"１０２巷","ALLEY":" ","HOUSE_NO":"３０號","E_COORD97":169453.19,"N_COORD97":2546470.0600000001,"ADDRESS":"正覺街１０２巷３０號","OBJECTID":225096},"geometry":{"x":169453.18999999948,"y":2546470.0600000024}},{"attributes":{"ID":225101,"DIS_CODE":0,"TOWNNAME":"鹽水區","LI":"岸內里","LIN":"22鄰","STREET":"北門路","SECT":" ","MAREA":" ","LANE":"７巷","ALLEY":" ","HOUSE_NO":"２２號","E_COORD97":175326.25,"N_COORD97":2580378.4100000001,"ADDRESS":"北門路７巷２２號","OBJECTID":225097},"geometry":{"x":175326.25000000186,"y":2580378.4100000001}},{"attributes":{"ID":225102,"DIS_CODE":0,"TOWNNAME":"鹽水區","LI":"岸內里","LIN":"22鄰","STREET":"北門路","SECT":" ","MAREA":" ","LANE":"７巷","ALLEY":" ","HOUSE_NO":"２４號","E_COORD97":175326.17999999999,"N_COORD97":2580382.21,"ADDRESS":"北門路７巷２４號","OBJECTID":225098},"geometry":{"x":175326.1799999997,"y":2580382.2100000046}},{"attributes":{"ID":225103,"DIS_CODE":0,"TOWNNAME":"鹽水區","LI":"岸內里","LIN":"22鄰","STREET":"北門路","SECT":" ","MAREA":" ","LANE":"７巷","ALLEY":" ","HOUSE_NO":"２６號","E_COORD97":175326.09,"N_COORD97":2580386.9100000001,"ADDRESS":"北門路７巷２６號","OBJECTID":225099},"geometry":{"x":175326.09000000078,"y":2580386.9100000039}},{"attributes":{"ID":225104,"DIS_CODE":0,"TOWNNAME":"鹽水區","LI":"岸內里","LIN":"22鄰","STREET":"北門路","SECT":" ","MAREA":" ","LANE":"７巷","ALLEY":" ","HOUSE_NO":"２８號","E_COORD97":175325.59,"N_COORD97":2580390.5699999998,"ADDRESS":"北門路７巷２８號","OBJECTID":225100},"geometry":{"x":175325.59000000171,"y":2580390.5700000022}},{"attributes":{"ID":225105,"DIS_CODE":0,"TOWNNAME":"鹽水區","LI":"岸內里","LIN":"22鄰","STREET":"北門路","SECT":" ","MAREA":" ","LANE":"７巷","ALLEY":" ","HOUSE_NO":"３０號","E_COORD97":175325.54000000001,"N_COORD97":2580394.4700000002,"ADDRESS":"北門路７巷３０號","OBJECTID":225101},"geometry":{"x":175325.54000000004,"y":2580394.4700000025}},{"attributes":{"ID":225106,"DIS_CODE":0,"TOWNNAME":"東區","LI":"泉南里","LIN":"34鄰","STREET":"林森路","SECT":"一段","MAREA":" ","LANE":" ","ALLEY":" ","HOUSE_NO":"１４９號九樓之７","E_COORD97":169495.73000000001,"N_COORD97":2542552.3999999999,"ADDRESS":"林森路一段１４９號九樓之７","OBJECTID":225102},"geometry":{"x":169495.73000000138,"y":2542552.4000000004}},{"attributes":{"ID":225107,"DIS_CODE":0,"TOWNNAME":"安南區","LI":"州北里","LIN":"29鄰","STREET":"安和路","SECT":"五段","MAREA":" ","LANE":"２７６巷","ALLEY":" ","HOUSE_NO":"６６號","E_COORD97":169769.5,"N_COORD97":2552201.4700000002,"ADDRESS":"安和路五段２７６巷６６號","OBJECTID":225103},"geometry":{"x":169769.50000000186,"y":2552201.4700000007}},{"attributes":{"ID":225108,"DIS_CODE":0,"TOWNNAME":"安南區","LI":"州北里","LIN":"29鄰","STREET":"安和路","SECT":"五段","MAREA":" ","LANE":"２７６巷","ALLEY":" ","HOUSE_NO":"６８號","E_COORD97":169774.20999999999,"N_COORD97":2552201.8599999999,"ADDRESS":"安和路五段２７６巷６８號","OBJECTID":225104},"geometry":{"x":169774.20999999996,"y":2552201.8599999994}},{"attributes":{"ID":225109,"DIS_CODE":0,"TOWNNAME":"鹽水區","LI":"岸內里","LIN":"22鄰","STREET":"北門路","SECT":" ","MAREA":" ","LANE":"７巷","ALLEY":" ","HOUSE_NO":"３２號","E_COORD97":175325.10999999999,"N_COORD97":2580398.6200000001,"ADDRESS":"北門路７巷３２號","OBJECTID":225105},"geometry":{"x":175325.11000000034,"y":2580398.620000001}},{"attributes":{"ID":225110,"DIS_CODE":0,"TOWNNAME":"鹽水區","LI":"岸內里","LIN":"22鄰","STREET":"北門路","SECT":" ","MAREA":" ","LANE":"７巷","ALLEY":" ","HOUSE_NO":"３４號","E_COORD97":175324.75,"N_COORD97":2580402.1800000002,"ADDRESS":"北門路７巷３４號","OBJECTID":225106},"geometry":{"x":175324.75000000186,"y":2580402.1800000016}},{"attributes":{"ID":225111,"DIS_CODE":0,"TOWNNAME":"鹽水區","LI":"岸內里","LIN":"22鄰","STREET":"北門路","SECT":" ","MAREA":" ","LANE":"７巷","ALLEY":" ","HOUSE_NO":"３６號","E_COORD97":175324.38,"N_COORD97":2580406.2999999998,"ADDRESS":"北門路７巷３６號","OBJECTID":225107},"geometry":{"x":175324.38000000082,"y":2580406.3000000026}},{"attributes":{"ID":225112,"DIS_CODE":0,"TOWNNAME":"鹽水區","LI":"岸內里","LIN":"22鄰","STREET":"北門路","SECT":" ","MAREA":" ","LANE":"７巷","ALLEY":" ","HOUSE_NO":"３８號","E_COORD97":175324.25,"N_COORD97":2580410.0600000001,"ADDRESS":"北門路７巷３８號","OBJECTID":225108},"geometry":{"x":175324.25,"y":2580410.0600000042}},{"attributes":{"ID":225113,"DIS_CODE":0,"TOWNNAME":"鹽水區","LI":"岸內里","LIN":"22鄰","STREET":"北門路","SECT":" ","MAREA":" ","LANE":"７巷","ALLEY":" ","HOUSE_NO":"４０號","E_COORD97":175324.12,"N_COORD97":2580413.6499999999,"ADDRESS":"北門路７巷４０號","OBJECTID":225109},"geometry":{"x":175324.12000000104,"y":2580413.6500000022}},{"attributes":{"ID":225114,"DIS_CODE":0,"TOWNNAME":"鹽水區","LI":"岸內里","LIN":"22鄰","STREET":"北門路","SECT":" ","MAREA":" ","LANE":"７巷","ALLEY":" ","HOUSE_NO":"４２號","E_COORD97":175324.26000000001,"N_COORD97":2580417.46,"ADDRESS":"北門路７巷４２號","OBJECTID":225110},"geometry":{"x":175324.26000000164,"y":2580417.4600000009}},{"attributes":{"ID":225115,"DIS_CODE":0,"TOWNNAME":"鹽水區","LI":"岸內里","LIN":"22鄰","STREET":"北門路","SECT":" ","MAREA":" ","LANE":"７巷","ALLEY":" ","HOUSE_NO":"４６號","E_COORD97":175323.04999999999,"N_COORD97":2580427.52,"ADDRESS":"北門路７巷４６號","OBJECTID":225111},"geometry":{"x":175323.05000000075,"y":2580427.5200000014}},{"attributes":{"ID":225116,"DIS_CODE":0,"TOWNNAME":"鹽水區","LI":"岸內里","LIN":"22鄰","STREET":"北門路","SECT":" ","MAREA":" ","LANE":"７巷","ALLEY":" ","HOUSE_NO":"４８號","E_COORD97":175323.26000000001,"N_COORD97":2580431.3199999998,"ADDRESS":"北門路７巷４８號","OBJECTID":225112},"geometry":{"x":175323.26000000071,"y":2580431.3200000003}},{"attributes":{"ID":225117,"DIS_CODE":0,"TOWNNAME":"鹽水區","LI":"岸內里","LIN":"22鄰","STREET":"北門路","SECT":" ","MAREA":" ","LANE":"７巷","ALLEY":" ","HOUSE_NO":"５０號","E_COORD97":175322.87,"N_COORD97":2580435.3199999998,"ADDRESS":"北門路７巷５０號","OBJECTID":225113},"geometry":{"x":175322.87000000104,"y":2580435.320000004}},{"attributes":{"ID":225118,"DIS_CODE":0,"TOWNNAME":"鹽水區","LI":"岸內里","LIN":"22鄰","STREET":"北門路","SECT":" ","MAREA":" ","LANE":"７巷","ALLEY":" ","HOUSE_NO":"５２號","E_COORD97":175322.73000000001,"N_COORD97":2580439.3900000001,"ADDRESS":"北門路７巷５２號","OBJECTID":225114},"geometry":{"x":175322.73000000045,"y":2580439.3900000025}},{"attributes":{"ID":225119,"DIS_CODE":0,"TOWNNAME":"鹽水區","LI":"岸內里","LIN":"22鄰","STREET":"北門路","SECT":" ","MAREA":" ","LANE":"７巷","ALLEY":" ","HOUSE_NO":"５４號","E_COORD97":175322.48000000001,"N_COORD97":2580442.9100000001,"ADDRESS":"北門路７巷５４號","OBJECTID":225115},"geometry":{"x":175322.48000000138,"y":2580442.9100000001}},{"attributes":{"ID":225120,"DIS_CODE":0,"TOWNNAME":"關廟區","LI":"北勢里","LIN":"22鄰","STREET":"仁愛路","SECT":" ","MAREA":" ","LANE":"１８６巷","ALLEY":" ","HOUSE_NO":"３號","E_COORD97":181423.19,"N_COORD97":2540418.2799999998,"ADDRESS":"仁愛路１８６巷３號","OBJECTID":225116},"geometry":{"x":181423.19000000227,"y":2540418.2800000012}},{"attributes":{"ID":225121,"DIS_CODE":0,"TOWNNAME":"關廟區","LI":"北勢里","LIN":"22鄰","STREET":"仁愛路","SECT":" ","MAREA":" ","LANE":"１７６巷","ALLEY":" ","HOUSE_NO":"２７號","E_COORD97":181442.44,"N_COORD97":2540363.2799999998,"ADDRESS":"仁愛路１７６巷２７號","OBJECTID":225117},"geometry":{"x":181442.44000000134,"y":2540363.2799999975}},{"attributes":{"ID":225122,"DIS_CODE":0,"TOWNNAME":"關廟區","LI":"北勢里","LIN":"22鄰","STREET":"北美街","SECT":" ","MAREA":" ","LANE":"６３巷","ALLEY":" ","HOUSE_NO":"６號","E_COORD97":181464.54000000001,"N_COORD97":2540440.2999999998,"ADDRESS":"北美街６３巷６號","OBJECTID":225118},"geometry":{"x":181464.54000000097,"y":2540440.3000000026}},{"attributes":{"ID":225123,"DIS_CODE":0,"TOWNNAME":"南區","LI":"文南里","LIN":"22鄰","STREET":"中華西路","SECT":"一段","MAREA":" ","LANE":"１３７巷","ALLEY":" ","HOUSE_NO":"４７號","E_COORD97":166341.64000000001,"N_COORD97":2542479.6099999999,"ADDRESS":"中華西路一段１３７巷４７號","OBJECTID":225119},"geometry":{"x":166341.63999999966,"y":2542479.6099999994}},{"attributes":{"ID":225124,"DIS_CODE":0,"TOWNNAME":"南區","LI":"文南里","LIN":"22鄰","STREET":"中華西路","SECT":"一段","MAREA":" ","LANE":"１３７巷","ALLEY":" ","HOUSE_NO":"４９號","E_COORD97":166336.29000000001,"N_COORD97":2542479.79,"ADDRESS":"中華西路一段１３７巷４９號","OBJECTID":225120},"geometry":{"x":166336.29000000004,"y":2542479.790000001}},{"attributes":{"ID":225125,"DIS_CODE":0,"TOWNNAME":"白河區","LI":"關嶺里","LIN":"11鄰","STREET":" ","SECT":" ","MAREA":"南寮","LANE":" ","ALLEY":" ","HOUSE_NO":"５４號","E_COORD97":199337.98000000001,"N_COORD97":2577955.6099999999,"ADDRESS":"南寮５４號","OBJECTID":225121},"geometry":{"x":199337.98000000138,"y":2577955.6099999994}},{"attributes":{"ID":225126,"DIS_CODE":0,"TOWNNAME":"南區","LI":"文南里","LIN":"22鄰","STREET":"中華西路","SECT":"一段","MAREA":" ","LANE":"１３７巷","ALLEY":" ","HOUSE_NO":"５３號","E_COORD97":166326.06,"N_COORD97":2542479.9700000002,"ADDRESS":"中華西路一段１３７巷５３號","OBJECTID":225122},"geometry":{"x":166326.06000000052,"y":2542479.9700000025}},{"attributes":{"ID":225127,"DIS_CODE":0,"TOWNNAME":"中西區","LI":"公正里","LIN":"10鄰","STREET":"西華南街","SECT":" ","MAREA":" ","LANE":"３６巷","ALLEY":" ","HOUSE_NO":"１０之１號","E_COORD97":168992.42000000001,"N_COORD97":2543812.1699999999,"ADDRESS":"西華南街３６巷１０之１號","OBJECTID":225123},"geometry":{"x":168992.42000000086,"y":2543812.1699999999}},{"attributes":{"ID":225128,"DIS_CODE":0,"TOWNNAME":"中西區","LI":"公正里","LIN":"10鄰","STREET":"西華南街","SECT":" ","MAREA":" ","LANE":"３６巷","ALLEY":" ","HOUSE_NO":"１０之２號","E_COORD97":168995.62,"N_COORD97":2543811.6400000001,"ADDRESS":"西華南街３６巷１０之２號","OBJECTID":225124},"geometry":{"x":168995.62000000011,"y":2543811.6400000025}},{"attributes":{"ID":225129,"DIS_CODE":0,"TOWNNAME":"中西區","LI":"公正里","LIN":"10鄰","STREET":"西華南街","SECT":" ","MAREA":" ","LANE":"３６巷","ALLEY":" ","HOUSE_NO":"１０之３號","E_COORD97":168983.87,"N_COORD97":2543810.04,"ADDRESS":"西華南街３６巷１０之３號","OBJECTID":225125},"geometry":{"x":168983.87000000197,"y":2543810.040000001}},{"attributes":{"ID":225130,"DIS_CODE":0,"TOWNNAME":"中西區","LI":"公正里","LIN":"10鄰","STREET":"西華南街","SECT":" ","MAREA":" ","LANE":"３６巷","ALLEY":" ","HOUSE_NO":"１０號","E_COORD97":168982.98000000001,"N_COORD97":2543813.77,"ADDRESS":"西華南街３６巷１０號","OBJECTID":225126},"geometry":{"x":168982.98000000045,"y":2543813.7699999996}},{"attributes":{"ID":225131,"DIS_CODE":0,"TOWNNAME":"中西區","LI":"公正里","LIN":"9鄰","STREET":"民族路","SECT":"二段","MAREA":" ","LANE":"５７巷","ALLEY":" ","HOUSE_NO":"１６號","E_COORD97":169012.64000000001,"N_COORD97":2543787.8199999998,"ADDRESS":"民族路二段５７巷１６號","OBJECTID":225127},"geometry":{"x":169012.6400000006,"y":2543787.8200000003}},{"attributes":{"ID":225132,"DIS_CODE":0,"TOWNNAME":"東區","LI":"泉南里","LIN":"34鄰","STREET":"林森路","SECT":"一段","MAREA":" ","LANE":" ","ALLEY":" ","HOUSE_NO":"１４９號九樓之８","E_COORD97":169495.73000000001,"N_COORD97":2542552.3999999999,"ADDRESS":"林森路一段１４９號九樓之８","OBJECTID":225128},"geometry":{"x":169495.73000000138,"y":2542552.4000000004}},{"attributes":{"ID":225133,"DIS_CODE":0,"TOWNNAME":"新營區","LI":"民榮里","LIN":"14鄰","STREET":"復興路","SECT":" ","MAREA":" ","LANE":" ","ALLEY":" ","HOUSE_NO":"１６９之２號","E_COORD97":178882.48000000001,"N_COORD97":2577922.5,"ADDRESS":"復興路１６９之２號","OBJECTID":225129},"geometry":{"x":178882.48000000138,"y":2577922.5000000019}},{"attributes":{"ID":225134,"DIS_CODE":0,"TOWNNAME":"仁德區","LI":"後壁里","LIN":"29鄰","STREET":"德洋一街","SECT":" ","MAREA":" ","LANE":"２４巷","ALLEY":" ","HOUSE_NO":"１０號","E_COORD97":173134.63,"N_COORD97":2539122.0099999998,"ADDRESS":"德洋一街２４巷１０號","OBJECTID":225130},"geometry":{"x":173134.62999999989,"y":2539122.0100000016}},{"attributes":{"ID":225135,"DIS_CODE":0,"TOWNNAME":"仁德區","LI":"後壁里","LIN":"29鄰","STREET":"德洋一街","SECT":" ","MAREA":" ","LANE":"２４巷","ALLEY":" ","HOUSE_NO":"１６號","E_COORD97":173143.73000000001,"N_COORD97":2539113.7599999998,"ADDRESS":"德洋一街２４巷１６號","OBJECTID":225131},"geometry":{"x":173143.73000000138,"y":2539113.7600000016}},{"attributes":{"ID":225136,"DIS_CODE":0,"TOWNNAME":"仁德區","LI":"中洲里","LIN":"4鄰","STREET":" ","SECT":" ","MAREA":"中洲","LANE":" ","ALLEY":" ","HOUSE_NO":"４８號之５","E_COORD97":173193.09,"N_COORD97":2534257.29,"ADDRESS":"中洲４８號之５","OBJECTID":225132},"geometry":{"x":173193.09000000171,"y":2534257.2900000028}},{"attributes":{"ID":225137,"DIS_CODE":0,"TOWNNAME":"仁德區","LI":"太子里","LIN":"29鄰","STREET":"太子四街","SECT":" ","MAREA":" ","LANE":"３５巷","ALLEY":" ","HOUSE_NO":"１０號","E_COORD97":173101.17000000001,"N_COORD97":2542983,"ADDRESS":"太子四街３５巷１０號","OBJECTID":225133},"geometry":{"x":173101.17000000086,"y":2542983}},{"attributes":{"ID":225138,"DIS_CODE":0,"TOWNNAME":"仁德區","LI":"上崙里","LIN":"29鄰","STREET":"中正路","SECT":"一段","MAREA":" ","LANE":"６５６巷","ALLEY":" ","HOUSE_NO":"３９號","E_COORD97":172991.35000000001,"N_COORD97":2537437.29,"ADDRESS":"中正路一段６５６巷３９號","OBJECTID":225134},"geometry":{"x":172991.35000000056,"y":2537437.2900000028}},{"attributes":{"ID":225139,"DIS_CODE":0,"TOWNNAME":"仁德區","LI":"太子里","LIN":"29鄰","STREET":"太子四街","SECT":" ","MAREA":" ","LANE":"２１巷","ALLEY":" ","HOUSE_NO":"９號","E_COORD97":173145.35000000001,"N_COORD97":2543153.25,"ADDRESS":"太子四街２１巷９號","OBJECTID":225135},"geometry":{"x":173145.35000000149,"y":2543153.25}},{"attributes":{"ID":225140,"DIS_CODE":0,"TOWNNAME":"仁德區","LI":"太子里","LIN":"29鄰","STREET":"太子四街","SECT":" ","MAREA":" ","LANE":"２５巷","ALLEY":" ","HOUSE_NO":"９號","E_COORD97":173119.70000000001,"N_COORD97":2543099.04,"ADDRESS":"太子四街２５巷９號","OBJECTID":225136},"geometry":{"x":173119.70000000205,"y":2543099.040000001}},{"attributes":{"ID":225141,"DIS_CODE":0,"TOWNNAME":"仁德區","LI":"後壁里","LIN":"29鄰","STREET":"德洋一街","SECT":" ","MAREA":" ","LANE":"３０巷","ALLEY":" ","HOUSE_NO":"１７號","E_COORD97":173164.92999999999,"N_COORD97":2539137.2599999998,"ADDRESS":"德洋一街３０巷１７號","OBJECTID":225137},"geometry":{"x":173164.9299999997,"y":2539137.2600000016}},{"attributes":{"ID":225142,"DIS_CODE":0,"TOWNNAME":"中西區","LI":"公正里","LIN":"9鄰","STREET":"民族路","SECT":"二段","MAREA":" ","LANE":"５７巷","ALLEY":" ","HOUSE_NO":"１６號之１","E_COORD97":169012.88,"N_COORD97":2543780.79,"ADDRESS":"民族路二段５７巷１６號之１","OBJECTID":225138},"geometry":{"x":169012.88000000082,"y":2543780.7900000028}},{"attributes":{"ID":225143,"DIS_CODE":0,"TOWNNAME":"中西區","LI":"公正里","LIN":"9鄰","STREET":"民族路","SECT":"二段","MAREA":" ","LANE":"５７巷","ALLEY":" ","HOUSE_NO":"１６號之１６","E_COORD97":169018.20999999999,"N_COORD97":2543769.9399999999,"ADDRESS":"民族路二段５７巷１６號之１６","OBJECTID":225139},"geometry":{"x":169018.20999999996,"y":2543769.9400000032}},{"attributes":{"ID":225144,"DIS_CODE":0,"TOWNNAME":"中西區","LI":"公正里","LIN":"9鄰","STREET":"民族路","SECT":"二段","MAREA":" ","LANE":"５７巷","ALLEY":" ","HOUSE_NO":"１６號之１７","E_COORD97":169012.79999999999,"N_COORD97":2543770.3399999999,"ADDRESS":"民族路二段５７巷１６號之１７","OBJECTID":225140},"geometry":{"x":169012.79999999888,"y":2543770.3399999999}},{"attributes":{"ID":225145,"DIS_CODE":0,"TOWNNAME":"麻豆區","LI":"油車里","LIN":"22鄰","STREET":"新生北路","SECT":" ","MAREA":" ","LANE":"８２巷","ALLEY":" ","HOUSE_NO":"５４號","E_COORD97":172373.53,"N_COORD97":2565105.73,"ADDRESS":"新生北路８２巷５４號","OBJECTID":225141},"geometry":{"x":172373.53000000119,"y":2565105.7300000023}},{"attributes":{"ID":225146,"DIS_CODE":0,"TOWNNAME":"麻豆區","LI":"油車里","LIN":"22鄰","STREET":"新生北路","SECT":" ","MAREA":" ","LANE":"８２巷","ALLEY":" ","HOUSE_NO":"５６號","E_COORD97":172373.17999999999,"N_COORD97":2565112.8700000001,"ADDRESS":"新生北路８２巷５６號","OBJECTID":225142},"geometry":{"x":172373.1799999997,"y":2565112.870000001}},{"attributes":{"ID":225147,"DIS_CODE":0,"TOWNNAME":"麻豆區","LI":"油車里","LIN":"22鄰","STREET":"新生北路","SECT":" ","MAREA":" ","LANE":"８２巷","ALLEY":" ","HOUSE_NO":"５８號","E_COORD97":172372.82999999999,"N_COORD97":2565120.0099999998,"ADDRESS":"新生北路８２巷５８號","OBJECTID":225143},"geometry":{"x":172372.83000000194,"y":2565120.0100000016}},{"attributes":{"ID":225148,"DIS_CODE":0,"TOWNNAME":"麻豆區","LI":"油車里","LIN":"22鄰","STREET":"新生北路","SECT":" ","MAREA":" ","LANE":"８２巷","ALLEY":" ","HOUSE_NO":"６０號","E_COORD97":172372.48000000001,"N_COORD97":2565127.1499999999,"ADDRESS":"新生北路８２巷６０號","OBJECTID":225144},"geometry":{"x":172372.48000000138,"y":2565127.1500000004}},{"attributes":{"ID":225149,"DIS_CODE":0,"TOWNNAME":"麻豆區","LI":"油車里","LIN":"22鄰","STREET":"新生北路","SECT":" ","MAREA":" ","LANE":"８２巷","ALLEY":" ","HOUSE_NO":"６２號","E_COORD97":172372.13,"N_COORD97":2565134.29,"ADDRESS":"新生北路８２巷６２號","OBJECTID":225145},"geometry":{"x":172372.12999999989,"y":2565134.290000001}},{"attributes":{"ID":225150,"DIS_CODE":0,"TOWNNAME":"麻豆區","LI":"油車里","LIN":"22鄰","STREET":"新生北路","SECT":" ","MAREA":" ","LANE":"８２巷","ALLEY":" ","HOUSE_NO":"６４號","E_COORD97":172371.78,"N_COORD97":2565141.4300000002,"ADDRESS":"新生北路８２巷６４號","OBJECTID":225146},"geometry":{"x":172371.78000000212,"y":2565141.4299999997}},{"attributes":{"ID":225151,"DIS_CODE":0,"TOWNNAME":"麻豆區","LI":"油車里","LIN":"22鄰","STREET":"新生北路","SECT":" ","MAREA":" ","LANE":"８２巷","ALLEY":" ","HOUSE_NO":"６６號","E_COORD97":172384.03,"N_COORD97":2565136.1800000002,"ADDRESS":"新生北路８２巷６６號","OBJECTID":225147},"geometry":{"x":172384.03000000119,"y":2565136.1800000016}},{"attributes":{"ID":225152,"DIS_CODE":0,"TOWNNAME":"東區","LI":"泉南里","LIN":"34鄰","STREET":"林森路","SECT":"一段","MAREA":" ","LANE":" ","ALLEY":" ","HOUSE_NO":"１４９號九樓之９","E_COORD97":169495.73000000001,"N_COORD97":2542552.3999999999,"ADDRESS":"林森路一段１４９號九樓之９","OBJECTID":225148},"geometry":{"x":169495.73000000138,"y":2542552.4000000004}},{"attributes":{"ID":225153,"DIS_CODE":0,"TOWNNAME":"東區","LI":"泉南里","LIN":"34鄰","STREET":"林森路","SECT":"一段","MAREA":" ","LANE":" ","ALLEY":" ","HOUSE_NO":"１４９號十樓","E_COORD97":169495.73000000001,"N_COORD97":2542552.3999999999,"ADDRESS":"林森路一段１４９號十樓","OBJECTID":225149},"geometry":{"x":169495.73000000138,"y":2542552.4000000004}},{"attributes":{"ID":225154,"DIS_CODE":0,"TOWNNAME":"東區","LI":"泉南里","LIN":"34鄰","STREET":"林森路","SECT":"一段","MAREA":" ","LANE":" ","ALLEY":" ","HOUSE_NO":"１４９號十樓之１","E_COORD97":169495.73000000001,"N_COORD97":2542552.3999999999,"ADDRESS":"林森路一段１４９號十樓之１","OBJECTID":225150},"geometry":{"x":169495.73000000138,"y":2542552.4000000004}},{"attributes":{"ID":225155,"DIS_CODE":0,"TOWNNAME":"東區","LI":"泉南里","LIN":"34鄰","STREET":"林森路","SECT":"一段","MAREA":" ","LANE":" ","ALLEY":" ","HOUSE_NO":"１４９號十樓之２","E_COORD97":169495.73000000001,"N_COORD97":2542552.3999999999,"ADDRESS":"林森路一段１４９號十樓之２","OBJECTID":225151},"geometry":{"x":169495.73000000138,"y":2542552.4000000004}},{"attributes":{"ID":225156,"DIS_CODE":0,"TOWNNAME":"新營區","LI":"新東里","LIN":"27鄰","STREET":"東光街","SECT":" ","MAREA":" ","LANE":" ","ALLEY":" ","HOUSE_NO":"７號","E_COORD97":180604.60000000001,"N_COORD97":2579542.2000000002,"ADDRESS":"東光街７號","OBJECTID":225152},"geometry":{"x":180604.60000000056,"y":2579542.1999999993}},{"attributes":{"ID":225157,"DIS_CODE":0,"TOWNNAME":"東區","LI":"泉南里","LIN":"34鄰","STREET":"林森路","SECT":"一段","MAREA":" ","LANE":" ","ALLEY":" ","HOUSE_NO":"１４９號十樓之３","E_COORD97":169495.73000000001,"N_COORD97":2542552.3999999999,"ADDRESS":"林森路一段１４９號十樓之３","OBJECTID":225153},"geometry":{"x":169495.73000000138,"y":2542552.4000000004}},{"attributes":{"ID":225158,"DIS_CODE":0,"TOWNNAME":"東區","LI":"泉南里","LIN":"34鄰","STREET":"林森路","SECT":"一段","MAREA":" ","LANE":" ","ALLEY":" ","HOUSE_NO":"１４９號十樓之４","E_COORD97":169495.73000000001,"N_COORD97":2542552.3999999999,"ADDRESS":"林森路一段１４９號十樓之４","OBJECTID":225154},"geometry":{"x":169495.73000000138,"y":2542552.4000000004}},{"attributes":{"ID":225159,"DIS_CODE":0,"TOWNNAME":"東區","LI":"泉南里","LIN":"34鄰","STREET":"林森路","SECT":"一段","MAREA":" ","LANE":" ","ALLEY":" ","HOUSE_NO":"１４９號十樓之５","E_COORD97":169495.73000000001,"N_COORD97":2542552.3999999999,"ADDRESS":"林森路一段１４９號十樓之５","OBJECTID":225155},"geometry":{"x":169495.73000000138,"y":2542552.4000000004}},{"attributes":{"ID":225160,"DIS_CODE":0,"TOWNNAME":"永康區","LI":"永康里","LIN":"29鄰","STREET":"永華路","SECT":" ","MAREA":" ","LANE":"７０２巷","ALLEY":" ","HOUSE_NO":"４０號","E_COORD97":174138.57999999999,"N_COORD97":2547052.4100000001,"ADDRESS":"永華路７０２巷４０號","OBJECTID":225156},"geometry":{"x":174138.58000000007,"y":2547052.4099999983}},{"attributes":{"ID":225161,"DIS_CODE":0,"TOWNNAME":"永康區","LI":"建國里","LIN":"29鄰","STREET":" ","SECT":" ","MAREA":"慈光九村","LANE":" ","ALLEY":" ","HOUSE_NO":"４５號","E_COORD97":172865.51999999999,"N_COORD97":2544209.9900000002,"ADDRESS":"慈光九村４５號","OBJECTID":225157},"geometry":{"x":172865.51999999955,"y":2544209.9900000002}},{"attributes":{"ID":225162,"DIS_CODE":0,"TOWNNAME":"永康區","LI":"崑山里","LIN":"29鄰","STREET":"大仁街","SECT":" ","MAREA":" ","LANE":"１２５巷","ALLEY":" ","HOUSE_NO":"２５號","E_COORD97":173784.76999999999,"N_COORD97":2544867.1000000001,"ADDRESS":"大仁街１２５巷２５號","OBJECTID":225158},"geometry":{"x":173784.77000000142,"y":2544867.0999999996}},{"attributes":{"ID":225163,"DIS_CODE":0,"TOWNNAME":"永康區","LI":"崑山里","LIN":"29鄰","STREET":"大仁街","SECT":" ","MAREA":" ","LANE":"１０７巷","ALLEY":" ","HOUSE_NO":"２３號","E_COORD97":173766.95000000001,"N_COORD97":2544815.73,"ADDRESS":"大仁街１０７巷２３號","OBJECTID":225159},"geometry":{"x":173766.95000000019,"y":2544815.7300000004}},{"attributes":{"ID":225164,"DIS_CODE":0,"TOWNNAME":"永康區","LI":"崑山里","LIN":"29鄰","STREET":"大仁街","SECT":" ","MAREA":" ","LANE":"１２５巷","ALLEY":" ","HOUSE_NO":"５號","E_COORD97":173825.51999999999,"N_COORD97":2544852.8500000001,"ADDRESS":"大仁街１２５巷５號","OBJECTID":225160},"geometry":{"x":173825.52000000142,"y":2544852.8500000015}},{"attributes":{"ID":225165,"DIS_CODE":0,"TOWNNAME":"永康區","LI":"成功里","LIN":"29鄰","STREET":"中華路","SECT":" ","MAREA":" ","LANE":"１３４巷","ALLEY":" ","HOUSE_NO":"５３號","E_COORD97":171730.39000000001,"N_COORD97":2544822.9100000001,"ADDRESS":"中華路１３４巷５３號","OBJECTID":225161},"geometry":{"x":171730.38999999966,"y":2544822.910000002}},{"attributes":{"ID":225166,"DIS_CODE":0,"TOWNNAME":"永康區","LI":"復華里","LIN":"29鄰","STREET":"國華街","SECT":" ","MAREA":" ","LANE":"１３６巷","ALLEY":" ","HOUSE_NO":"１９號","E_COORD97":172670.97,"N_COORD97":2546239.3300000001,"ADDRESS":"國華街１３６巷１９號","OBJECTID":225162},"geometry":{"x":172670.96999999974,"y":2546239.3300000038}},{"attributes":{"ID":225167,"DIS_CODE":0,"TOWNNAME":"永康區","LI":"復華里","LIN":"29鄰","STREET":"國華街","SECT":" ","MAREA":" ","LANE":"１０１巷","ALLEY":" ","HOUSE_NO":"９號","E_COORD97":172636.84,"N_COORD97":2546159.4900000002,"ADDRESS":"國華街１０１巷９號","OBJECTID":225163},"geometry":{"x":172636.83999999985,"y":2546159.4900000002}},{"attributes":{"ID":225168,"DIS_CODE":0,"TOWNNAME":"永康區","LI":"埔園里","LIN":"29鄰","STREET":"龍埔街","SECT":" ","MAREA":" ","LANE":"２９１巷","ALLEY":" ","HOUSE_NO":"２號之５","E_COORD97":173943.04999999999,"N_COORD97":2548289.2999999998,"ADDRESS":"龍埔街２９１巷２號之５","OBJECTID":225164},"geometry":{"x":173943.05000000075,"y":2548289.3000000026}},{"attributes":{"ID":225169,"DIS_CODE":0,"TOWNNAME":"永康區","LI":"勝利里","LIN":"29鄰","STREET":"勝利街","SECT":" ","MAREA":" ","LANE":"３２巷","ALLEY":" ","HOUSE_NO":"１２號","E_COORD97":171389.06,"N_COORD97":2544583.0099999998,"ADDRESS":"勝利街３２巷１２號","OBJECTID":225165},"geometry":{"x":171389.05999999959,"y":2544583.0099999998}},{"attributes":{"ID":225170,"DIS_CODE":0,"TOWNNAME":"麻豆區","LI":"油車里","LIN":"22鄰","STREET":"新生北路","SECT":" ","MAREA":" ","LANE":"８２巷","ALLEY":" ","HOUSE_NO":"１０２號","E_COORD97":172385.98999999999,"N_COORD97":2565035.3799999999,"ADDRESS":"新生北路８２巷１０２號","OBJECTID":225166},"geometry":{"x":172385.99000000115,"y":2565035.3800000008}},{"attributes":{"ID":225171,"DIS_CODE":0,"TOWNNAME":"歸仁區","LI":"歸仁里","LIN":"22鄰","STREET":"文化二街","SECT":" ","MAREA":" ","LANE":"２６巷","ALLEY":" ","HOUSE_NO":"１８號","E_COORD97":178038.79999999999,"N_COORD97":2541209.2599999998,"ADDRESS":"文化二街２６巷１８號","OBJECTID":225167},"geometry":{"x":178038.80000000075,"y":2541209.2600000016}},{"attributes":{"ID":225172,"DIS_CODE":0,"TOWNNAME":"歸仁區","LI":"歸南里","LIN":"22鄰","STREET":"民生八街","SECT":" ","MAREA":" ","LANE":"２８巷","ALLEY":" ","HOUSE_NO":"２１號","E_COORD97":176112.16,"N_COORD97":2540425.25,"ADDRESS":"民生八街２８巷２１號","OBJECTID":225168},"geometry":{"x":176112.16000000108,"y":2540425.2500000037}},{"attributes":{"ID":225173,"DIS_CODE":0,"TOWNNAME":"歸仁區","LI":"歸南里","LIN":"22鄰","STREET":"民生八街","SECT":" ","MAREA":" ","LANE":"２８巷","ALLEY":" ","HOUSE_NO":"２９號","E_COORD97":176111.26000000001,"N_COORD97":2540443.25,"ADDRESS":"民生八街２８巷２９號","OBJECTID":225169},"geometry":{"x":176111.26000000071,"y":2540443.2500000019}},{"attributes":{"ID":225174,"DIS_CODE":0,"TOWNNAME":"歸仁區","LI":"歸南里","LIN":"22鄰","STREET":"民生八街","SECT":" ","MAREA":" ","LANE":"２８巷","ALLEY":" ","HOUSE_NO":"２７號","E_COORD97":176111.26000000001,"N_COORD97":2540438.25,"ADDRESS":"民生八街２８巷２７號","OBJECTID":225170},"geometry":{"x":176111.26000000071,"y":2540438.25}},{"attributes":{"ID":225175,"DIS_CODE":0,"TOWNNAME":"歸仁區","LI":"歸仁里","LIN":"22鄰","STREET":"文化二街","SECT":" ","MAREA":" ","LANE":"２６巷","ALLEY":" ","HOUSE_NO":"１２號","E_COORD97":178026.5,"N_COORD97":2541209.2599999998,"ADDRESS":"文化二街２６巷１２號","OBJECTID":225171},"geometry":{"x":178026.5,"y":2541209.2600000016}},{"attributes":{"ID":225176,"DIS_CODE":0,"TOWNNAME":"東區","LI":"泉南里","LIN":"34鄰","STREET":"林森路","SECT":"一段","MAREA":" ","LANE":" ","ALLEY":" ","HOUSE_NO":"１４９號十樓之６","E_COORD97":169495.73000000001,"N_COORD97":2542552.3999999999,"ADDRESS":"林森路一段１４９號十樓之６","OBJECTID":225172},"geometry":{"x":169495.73000000138,"y":2542552.4000000004}},{"attributes":{"ID":225177,"DIS_CODE":0,"TOWNNAME":"東區","LI":"泉南里","LIN":"34鄰","STREET":"林森路","SECT":"一段","MAREA":" ","LANE":" ","ALLEY":" ","HOUSE_NO":"１４９號十樓之７","E_COORD97":169495.73000000001,"N_COORD97":2542552.3999999999,"ADDRESS":"林森路一段１４９號十樓之７","OBJECTID":225173},"geometry":{"x":169495.73000000138,"y":2542552.4000000004}},{"attributes":{"ID":225178,"DIS_CODE":0,"TOWNNAME":"東區","LI":"泉南里","LIN":"34鄰","STREET":"林森路","SECT":"一段","MAREA":" ","LANE":" ","ALLEY":" ","HOUSE_NO":"１４９號十樓之８","E_COORD97":169495.73000000001,"N_COORD97":2542552.3999999999,"ADDRESS":"林森路一段１４９號十樓之８","OBJECTID":225174},"geometry":{"x":169495.73000000138,"y":2542552.4000000004}},{"attributes":{"ID":225179,"DIS_CODE":0,"TOWNNAME":"東區","LI":"泉南里","LIN":"34鄰","STREET":"林森路","SECT":"一段","MAREA":" ","LANE":" ","ALLEY":" ","HOUSE_NO":"１４９號十樓之９","E_COORD97":169495.73000000001,"N_COORD97":2542552.3999999999,"ADDRESS":"林森路一段１４９號十樓之９","OBJECTID":225175},"geometry":{"x":169495.73000000138,"y":2542552.4000000004}},{"attributes":{"ID":225180,"DIS_CODE":0,"TOWNNAME":"東區","LI":"泉南里","LIN":"34鄰","STREET":"林森路","SECT":"一段","MAREA":" ","LANE":" ","ALLEY":" ","HOUSE_NO":"１４９號十一樓","E_COORD97":169495.73000000001,"N_COORD97":2542552.3999999999,"ADDRESS":"林森路一段１４９號十一樓","OBJECTID":225176},"geometry":{"x":169495.73000000138,"y":2542552.4000000004}},{"attributes":{"ID":225181,"DIS_CODE":0,"TOWNNAME":"仁德區","LI":"土庫里","LIN":"22鄰","STREET":"太子二街","SECT":" ","MAREA":" ","LANE":"４１巷","ALLEY":" ","HOUSE_NO":"７號","E_COORD97":174343.35000000001,"N_COORD97":2543409.7599999998,"ADDRESS":"太子二街４１巷７號","OBJECTID":225177},"geometry":{"x":174343.34999999963,"y":2543409.7600000016}},{"attributes":{"ID":225182,"DIS_CODE":0,"TOWNNAME":"東區","LI":"泉南里","LIN":"34鄰","STREET":"林森路","SECT":"一段","MAREA":" ","LANE":" ","ALLEY":" ","HOUSE_NO":"１４９號十一樓之１","E_COORD97":169495.73000000001,"N_COORD97":2542552.3999999999,"ADDRESS":"林森路一段１４９號十一樓之１","OBJECTID":225178},"geometry":{"x":169495.73000000138,"y":2542552.4000000004}},{"attributes":{"ID":225183,"DIS_CODE":0,"TOWNNAME":"東區","LI":"泉南里","LIN":"34鄰","STREET":"林森路","SECT":"一段","MAREA":" ","LANE":" ","ALLEY":" ","HOUSE_NO":"１４９號十一樓之２","E_COORD97":169495.73000000001,"N_COORD97":2542552.3999999999,"ADDRESS":"林森路一段１４９號十一樓之２","OBJECTID":225179},"geometry":{"x":169495.73000000138,"y":2542552.4000000004}},{"attributes":{"ID":225184,"DIS_CODE":0,"TOWNNAME":"東區","LI":"泉南里","LIN":"34鄰","STREET":"林森路","SECT":"一段","MAREA":" ","LANE":" ","ALLEY":" ","HOUSE_NO":"１４９號十一樓之３","E_COORD97":169495.73000000001,"N_COORD97":2542552.3999999999,"ADDRESS":"林森路一段１４９號十一樓之３","OBJECTID":225180},"geometry":{"x":169495.73000000138,"y":2542552.4000000004}},{"attributes":{"ID":225185,"DIS_CODE":0,"TOWNNAME":"永康區","LI":"甲頂里","LIN":"29鄰","STREET":"中央路","SECT":" ","MAREA":" ","LANE":" ","ALLEY":" ","HOUSE_NO":"２５號","E_COORD97":169631.87,"N_COORD97":2547014.5600000001,"ADDRESS":"中央路２５號","OBJECTID":225181},"geometry":{"x":169631.87000000104,"y":2547014.5599999987}},{"attributes":{"ID":225186,"DIS_CODE":0,"TOWNNAME":"東區","LI":"中西里","LIN":"29鄰","STREET":"東寧路","SECT":" ","MAREA":" ","LANE":"１３４巷","ALLEY":" ","HOUSE_NO":"３５號之１","E_COORD97":170339.76000000001,"N_COORD97":2543460.5600000001,"ADDRESS":"東寧路１３４巷３５號之１","OBJECTID":225182},"geometry":{"x":170339.75999999978,"y":2543460.5600000005}},{"attributes":{"ID":225187,"DIS_CODE":0,"TOWNNAME":"東區","LI":"中西里","LIN":"29鄰","STREET":"東寧路","SECT":" ","MAREA":" ","LANE":"１３４巷","ALLEY":" ","HOUSE_NO":"３７號之１","E_COORD97":170343.69,"N_COORD97":2543444.8399999999,"ADDRESS":"東寧路１３４巷３７號之１","OBJECTID":225183},"geometry":{"x":170343.69000000134,"y":2543444.8399999999}},{"attributes":{"ID":225188,"DIS_CODE":0,"TOWNNAME":"鹽水區","LI":"河南里","LIN":"10鄰","STREET":" ","SECT":" ","MAREA":"?頭港","LANE":" ","ALLEY":" ","HOUSE_NO":"８０號","E_COORD97":172766.56,"N_COORD97":2572596.6800000002,"ADDRESS":"?頭港８０號","OBJECTID":225184},"geometry":{"x":172766.56000000052,"y":2572596.6799999978}},{"attributes":{"ID":225189,"DIS_CODE":0,"TOWNNAME":"歸仁區","LI":"媽廟里","LIN":"22鄰","STREET":"中正北路","SECT":"三段","MAREA":" ","LANE":"１８８巷","ALLEY":" ","HOUSE_NO":"５號","E_COORD97":177660.26000000001,"N_COORD97":2543965.7200000002,"ADDRESS":"中正北路三段１８８巷５號","OBJECTID":225185},"geometry":{"x":177660.26000000164,"y":2543965.7200000044}},{"attributes":{"ID":225190,"DIS_CODE":0,"TOWNNAME":"歸仁區","LI":"南保里","LIN":"22鄰","STREET":"文化街","SECT":"三段","MAREA":" ","LANE":"６１巷","ALLEY":" ","HOUSE_NO":"４３號","E_COORD97":176891.94,"N_COORD97":2541161.3300000001,"ADDRESS":"文化街三段６１巷４３號","OBJECTID":225186},"geometry":{"x":176891.94000000227,"y":2541161.3300000019}},{"attributes":{"ID":225191,"DIS_CODE":0,"TOWNNAME":"歸仁區","LI":"南保里","LIN":"22鄰","STREET":"民權六街","SECT":" ","MAREA":" ","LANE":"５２巷","ALLEY":" ","HOUSE_NO":"２號","E_COORD97":176873.89000000001,"N_COORD97":2541142.29,"ADDRESS":"民權六街５２巷２號","OBJECTID":225187},"geometry":{"x":176873.88999999966,"y":2541142.2899999991}},{"attributes":{"ID":225192,"DIS_CODE":0,"TOWNNAME":"新營區","LI":"忠政里","LIN":"22鄰","STREET":"府西路","SECT":" ","MAREA":" ","LANE":"２０１巷","ALLEY":" ","HOUSE_NO":"３０號","E_COORD97":179699.72,"N_COORD97":2579542.0499999998,"ADDRESS":"府西路２０１巷３０號","OBJECTID":225188},"geometry":{"x":179699.71999999881,"y":2579542.0499999989}},{"attributes":{"ID":225193,"DIS_CODE":0,"TOWNNAME":"新營區","LI":"新南里","LIN":"22鄰","STREET":"復興路","SECT":" ","MAREA":" ","LANE":"６２０巷","ALLEY":" ","HOUSE_NO":"２４號","E_COORD97":178044.47,"N_COORD97":2578417.0800000001,"ADDRESS":"復興路６２０巷２４號","OBJECTID":225189},"geometry":{"x":178044.47000000067,"y":2578417.0800000019}},{"attributes":{"ID":225194,"DIS_CODE":0,"TOWNNAME":"新營區","LI":"忠政里","LIN":"22鄰","STREET":"府西路","SECT":" ","MAREA":" ","LANE":"２０１巷","ALLEY":" ","HOUSE_NO":"２６號","E_COORD97":179715.04000000001,"N_COORD97":2579543.0800000001,"ADDRESS":"府西路２０１巷２６號","OBJECTID":225190},"geometry":{"x":179715.0400000019,"y":2579543.0800000019}},{"attributes":{"ID":225195,"DIS_CODE":0,"TOWNNAME":"新營區","LI":"忠政里","LIN":"22鄰","STREET":"府西路","SECT":" ","MAREA":" ","LANE":"２０１巷","ALLEY":" ","HOUSE_NO":"３２號","E_COORD97":179694.60999999999,"N_COORD97":2579542.0699999998,"ADDRESS":"府西路２０１巷３２號","OBJECTID":225191},"geometry":{"x":179694.61000000127,"y":2579542.0700000022}},{"attributes":{"ID":225196,"DIS_CODE":0,"TOWNNAME":"仁德區","LI":"仁愛里","LIN":"18鄰","STREET":" ","SECT":" ","MAREA":"仁愛","LANE":" ","ALLEY":" ","HOUSE_NO":"３６８號","E_COORD97":170208.61324800001,"N_COORD97":2540211.5795499999,"ADDRESS":"仁愛３６８號","OBJECTID":225192},"geometry":{"x":170208.61324800085,"y":2540211.5795490015}},{"attributes":{"ID":225197,"DIS_CODE":0,"TOWNNAME":"新營區","LI":"民榮里","LIN":"22鄰","STREET":"裕民路","SECT":" ","MAREA":" ","LANE":"３４巷","ALLEY":" ","HOUSE_NO":"１５號","E_COORD97":179084.09,"N_COORD97":2577870.5099999998,"ADDRESS":"裕民路３４巷１５號","OBJECTID":225193},"geometry":{"x":179084.09000000078,"y":2577870.5100000016}},{"attributes":{"ID":225198,"DIS_CODE":0,"TOWNNAME":"新營區","LI":"民榮里","LIN":"22鄰","STREET":"裕民路","SECT":" ","MAREA":" ","LANE":"３４巷","ALLEY":" ","HOUSE_NO":"１號","E_COORD97":179114.54999999999,"N_COORD97":2577870.3599999999,"ADDRESS":"裕民路３４巷１號","OBJECTID":225194},"geometry":{"x":179114.55000000168,"y":2577870.3599999994}},{"attributes":{"ID":225199,"DIS_CODE":0,"TOWNNAME":"新營區","LI":"忠政里","LIN":"22鄰","STREET":"府西路","SECT":" ","MAREA":" ","LANE":"２０１巷","ALLEY":" ","HOUSE_NO":"２８號","E_COORD97":179703.79000000001,"N_COORD97":2579543.1400000001,"ADDRESS":"府西路２０１巷２８號","OBJECTID":225195},"geometry":{"x":179703.79000000097,"y":2579543.1400000025}},{"attributes":{"ID":225200,"DIS_CODE":0,"TOWNNAME":"新營區","LI":"民榮里","LIN":"22鄰","STREET":"裕民路","SECT":" ","MAREA":" ","LANE":"３４巷","ALLEY":" ","HOUSE_NO":"２３號","E_COORD97":179065.73999999999,"N_COORD97":2577870.6000000001,"ADDRESS":"裕民路３４巷２３號","OBJECTID":225196},"geometry":{"x":179065.74000000022,"y":2577870.6000000015}},{"attributes":{"ID":225201,"DIS_CODE":0,"TOWNNAME":"新營區","LI":"忠政里","LIN":"22鄰","STREET":"府西路","SECT":" ","MAREA":" ","LANE":"２０１巷","ALLEY":" ","HOUSE_NO":"２０號","E_COORD97":179728.34,"N_COORD97":2579541.9100000001,"ADDRESS":"府西路２０１巷２０號","OBJECTID":225197},"geometry":{"x":179728.34000000078,"y":2579541.9100000001}},{"attributes":{"ID":225202,"DIS_CODE":0,"TOWNNAME":"新營區","LI":"忠政里","LIN":"22鄰","STREET":"府西路","SECT":" ","MAREA":" ","LANE":"２０１巷","ALLEY":" ","HOUSE_NO":"２２號","E_COORD97":179724.25,"N_COORD97":2579541.9300000002,"ADDRESS":"府西路２０１巷２２號","OBJECTID":225198},"geometry":{"x":179724.25000000093,"y":2579541.9300000034}},{"attributes":{"ID":225203,"DIS_CODE":0,"TOWNNAME":"新營區","LI":"南紙里","LIN":"22鄰","STREET":"建業路","SECT":" ","MAREA":" ","LANE":"１９３巷","ALLEY":" ","HOUSE_NO":"８號","E_COORD97":178193.07000000001,"N_COORD97":2577466.1499999999,"ADDRESS":"建業路１９３巷８號","OBJECTID":225199},"geometry":{"x":178193.07000000123,"y":2577466.1499999985}},{"attributes":{"ID":225204,"DIS_CODE":0,"TOWNNAME":"歸仁區","LI":"六甲里","LIN":"22鄰","STREET":"中正十八街","SECT":" ","MAREA":" ","LANE":"８巷","ALLEY":" ","HOUSE_NO":"２１號","E_COORD97":176353.58314900001,"N_COORD97":2539712.7511700001,"ADDRESS":"中正十八街８巷２１號","OBJECTID":225200},"geometry":{"x":176353.58314900007,"y":2539712.7511739992}}]}