{"displayFieldName":"TOWNNAME","fieldAliases":{"ID":"ID","DIS_CODE":"DIS_CODE","TOWNNAME":"TOWNNAME","LI":"LI","LIN":"LIN","STREET":"STREET","SECT":"SECT","MAREA":"MAREA","LANE":"LANE","ALLEY":"ALLEY","HOUSE_NO":"HOUSE_NO","E_COORD97":"E_COORD97","N_COORD97":"N_COORD97","ADDRESS":"ADDRESS","OBJECTID":"OBJECTID"},"geometryType":"esriGeometryPoint","spatialReference":{"wkid":102443,"latestWkid":3826},"fields":[{"name":"ID","type":"esriFieldTypeDouble","alias":"ID"},{"name":"DIS_CODE","type":"esriFieldTypeInteger","alias":"DIS_CODE"},{"name":"TOWNNAME","type":"esriFieldTypeString","alias":"TOWNNAME","length":8},{"name":"LI","type":"esriFieldTypeString","alias":"LI","length":8},{"name":"LIN","type":"esriFieldTypeString","alias":"LIN","length":12},{"name":"STREET","type":"esriFieldTypeString","alias":"STREET","length":20},{"name":"SECT","type":"esriFieldTypeString","alias":"SECT","length":8},{"name":"MAREA","type":"esriFieldTypeString","alias":"MAREA","length":12},{"name":"LANE","type":"esriFieldTypeString","alias":"LANE","length":10},{"name":"ALLEY","type":"esriFieldTypeString","alias":"ALLEY","length":10},{"name":"HOUSE_NO","type":"esriFieldTypeString","alias":"HOUSE_NO","length":20},{"name":"E_COORD97","type":"esriFieldTypeDouble","alias":"E_COORD97"},{"name":"N_COORD97","type":"esriFieldTypeDouble","alias":"N_COORD97"},{"name":"ADDRESS","type":"esriFieldTypeString","alias":"ADDRESS","length":50},{"name":"OBJECTID","type":"esriFieldTypeOID","alias":"OBJECTID"}],"features":[{"attributes":{"ID":236405,"DIS_CODE":0,"TOWNNAME":"官田區","LI":"官田里","LIN":"16鄰","STREET":" ","SECT":" ","MAREA":"官田","LANE":" ","ALLEY":" ","HOUSE_NO":"１８１號","E_COORD97":182385.04000000001,"N_COORD97":2564850.6800000002,"ADDRESS":"官田１８１號","OBJECTID":236401},"geometry":{"x":182385.04000000097,"y":2564850.6800000016}},{"attributes":{"ID":236406,"DIS_CODE":0,"TOWNNAME":"官田區","LI":"官田里","LIN":"16鄰","STREET":" ","SECT":" ","MAREA":"官田","LANE":" ","ALLEY":" ","HOUSE_NO":"１８２號之２","E_COORD97":182388.37,"N_COORD97":2564799.29,"ADDRESS":"官田１８２號之２","OBJECTID":236402},"geometry":{"x":182388.37000000104,"y":2564799.2899999991}},{"attributes":{"ID":236407,"DIS_CODE":0,"TOWNNAME":"官田區","LI":"官田里","LIN":"16鄰","STREET":" ","SECT":" ","MAREA":"官田","LANE":" ","ALLEY":" ","HOUSE_NO":"１８２號","E_COORD97":182419.57000000001,"N_COORD97":2564809.3399999999,"ADDRESS":"官田１８２號","OBJECTID":236403},"geometry":{"x":182419.57000000123,"y":2564809.3400000017}},{"attributes":{"ID":236408,"DIS_CODE":0,"TOWNNAME":"官田區","LI":"官田里","LIN":"16鄰","STREET":" ","SECT":" ","MAREA":"官田","LANE":" ","ALLEY":" ","HOUSE_NO":"１８３號之１０","E_COORD97":182440.67999999999,"N_COORD97":2564708.3199999998,"ADDRESS":"官田１８３號之１０","OBJECTID":236404},"geometry":{"x":182440.6799999997,"y":2564708.3200000022}},{"attributes":{"ID":236409,"DIS_CODE":0,"TOWNNAME":"官田區","LI":"官田里","LIN":"16鄰","STREET":" ","SECT":" ","MAREA":"官田","LANE":" ","ALLEY":" ","HOUSE_NO":"１８３號之１１","E_COORD97":182441.63,"N_COORD97":2564704.04,"ADDRESS":"官田１８３號之１１","OBJECTID":236405},"geometry":{"x":182441.62999999896,"y":2564704.0399999991}},{"attributes":{"ID":236410,"DIS_CODE":0,"TOWNNAME":"官田區","LI":"官田里","LIN":"16鄰","STREET":" ","SECT":" ","MAREA":"官田","LANE":" ","ALLEY":" ","HOUSE_NO":"１８３號之１２","E_COORD97":182442.59,"N_COORD97":2564699.75,"ADDRESS":"官田１８３號之１２","OBJECTID":236406},"geometry":{"x":182442.59000000078,"y":2564699.75}},{"attributes":{"ID":236411,"DIS_CODE":0,"TOWNNAME":"官田區","LI":"官田里","LIN":"16鄰","STREET":" ","SECT":" ","MAREA":"官田","LANE":" ","ALLEY":" ","HOUSE_NO":"１８３號之１５","E_COORD97":182413.72,"N_COORD97":2564687.0699999998,"ADDRESS":"官田１８３號之１５","OBJECTID":236407},"geometry":{"x":182413.71999999881,"y":2564687.0700000003}},{"attributes":{"ID":236412,"DIS_CODE":0,"TOWNNAME":"官田區","LI":"官田里","LIN":"16鄰","STREET":" ","SECT":" ","MAREA":"官田","LANE":" ","ALLEY":" ","HOUSE_NO":"１８３號之１５","E_COORD97":182413.72,"N_COORD97":2564687.0699999998,"ADDRESS":"官田１８３號之１５","OBJECTID":236408},"geometry":{"x":182413.71999999881,"y":2564687.0700000003}},{"attributes":{"ID":236413,"DIS_CODE":0,"TOWNNAME":"官田區","LI":"官田里","LIN":"16鄰","STREET":" ","SECT":" ","MAREA":"官田","LANE":" ","ALLEY":" ","HOUSE_NO":"１８３號之１６","E_COORD97":182414.70000000001,"N_COORD97":2564682.5899999999,"ADDRESS":"官田１８３號之１６","OBJECTID":236409},"geometry":{"x":182414.70000000112,"y":2564682.5900000017}},{"attributes":{"ID":236414,"DIS_CODE":0,"TOWNNAME":"官田區","LI":"官田里","LIN":"16鄰","STREET":" ","SECT":" ","MAREA":"官田","LANE":" ","ALLEY":" ","HOUSE_NO":"１８３號之１７","E_COORD97":182415.69,"N_COORD97":2564678.1099999999,"ADDRESS":"官田１８３號之１７","OBJECTID":236410},"geometry":{"x":182415.69000000041,"y":2564678.1100000013}},{"attributes":{"ID":236415,"DIS_CODE":0,"TOWNNAME":"北區","LI":"大道里","LIN":"13鄰","STREET":"北門路","SECT":"二段","MAREA":" ","LANE":"５２７巷","ALLEY":" ","HOUSE_NO":"１７號五樓之２","E_COORD97":169525.20000000001,"N_COORD97":2545588.4500000002,"ADDRESS":"北門路二段５２７巷１７號五樓之２","OBJECTID":236411},"geometry":{"x":169525.20000000019,"y":2545588.4500000011}},{"attributes":{"ID":236416,"DIS_CODE":0,"TOWNNAME":"北區","LI":"大道里","LIN":"13鄰","STREET":"北門路","SECT":"二段","MAREA":" ","LANE":"５２７巷","ALLEY":" ","HOUSE_NO":"１７號五樓之１","E_COORD97":169525.20000000001,"N_COORD97":2545588.4500000002,"ADDRESS":"北門路二段５２７巷１７號五樓之１","OBJECTID":236412},"geometry":{"x":169525.20000000019,"y":2545588.4500000011}},{"attributes":{"ID":236417,"DIS_CODE":0,"TOWNNAME":"北區","LI":"大道里","LIN":"13鄰","STREET":"北門路","SECT":"二段","MAREA":" ","LANE":"５２７巷","ALLEY":" ","HOUSE_NO":"１７號五樓之５","E_COORD97":169525.20000000001,"N_COORD97":2545588.4500000002,"ADDRESS":"北門路二段５２７巷１７號五樓之５","OBJECTID":236413},"geometry":{"x":169525.20000000019,"y":2545588.4500000011}},{"attributes":{"ID":236418,"DIS_CODE":0,"TOWNNAME":"北區","LI":"大道里","LIN":"13鄰","STREET":"北門路","SECT":"二段","MAREA":" ","LANE":"５２７巷","ALLEY":" ","HOUSE_NO":"１７號五樓之３","E_COORD97":169525.20000000001,"N_COORD97":2545588.4500000002,"ADDRESS":"北門路二段５２７巷１７號五樓之３","OBJECTID":236414},"geometry":{"x":169525.20000000019,"y":2545588.4500000011}},{"attributes":{"ID":236419,"DIS_CODE":0,"TOWNNAME":"官田區","LI":"官田里","LIN":"16鄰","STREET":" ","SECT":" ","MAREA":"官田","LANE":" ","ALLEY":" ","HOUSE_NO":"１８３號之２６","E_COORD97":182466.54000000001,"N_COORD97":2564695.3500000001,"ADDRESS":"官田１８３號之２６","OBJECTID":236415},"geometry":{"x":182466.54000000097,"y":2564695.3499999996}},{"attributes":{"ID":236420,"DIS_CODE":0,"TOWNNAME":"北區","LI":"大道里","LIN":"13鄰","STREET":"北門路","SECT":"二段","MAREA":" ","LANE":"５２７巷","ALLEY":" ","HOUSE_NO":"１７號六樓之２","E_COORD97":169525.20000000001,"N_COORD97":2545588.4500000002,"ADDRESS":"北門路二段５２７巷１７號六樓之２","OBJECTID":236416},"geometry":{"x":169525.20000000019,"y":2545588.4500000011}},{"attributes":{"ID":236421,"DIS_CODE":0,"TOWNNAME":"北區","LI":"大道里","LIN":"13鄰","STREET":"北門路","SECT":"二段","MAREA":" ","LANE":"５２７巷","ALLEY":" ","HOUSE_NO":"１７號六樓之１","E_COORD97":169525.20000000001,"N_COORD97":2545588.4500000002,"ADDRESS":"北門路二段５２７巷１７號六樓之１","OBJECTID":236417},"geometry":{"x":169525.20000000019,"y":2545588.4500000011}},{"attributes":{"ID":236422,"DIS_CODE":0,"TOWNNAME":"大內區","LI":"石城里","LIN":"16鄰","STREET":" ","SECT":" ","MAREA":"石子瀨","LANE":" ","ALLEY":" ","HOUSE_NO":"１２２號之４１","E_COORD97":184038.45000000001,"N_COORD97":2557597.2999999998,"ADDRESS":"石子瀨１２２號之４１","OBJECTID":236418},"geometry":{"x":184038.45000000205,"y":2557597.3000000007}},{"attributes":{"ID":236423,"DIS_CODE":0,"TOWNNAME":"北區","LI":"大道里","LIN":"13鄰","STREET":"北門路","SECT":"二段","MAREA":" ","LANE":"５２７巷","ALLEY":" ","HOUSE_NO":"１７號六樓之５","E_COORD97":169525.20000000001,"N_COORD97":2545588.4500000002,"ADDRESS":"北門路二段５２７巷１７號六樓之５","OBJECTID":236419},"geometry":{"x":169525.20000000019,"y":2545588.4500000011}},{"attributes":{"ID":236424,"DIS_CODE":0,"TOWNNAME":"仁德區","LI":"土庫里","LIN":"16鄰","STREET":"土庫一街","SECT":" ","MAREA":" ","LANE":"２２巷","ALLEY":" ","HOUSE_NO":"２９號","E_COORD97":174525.23000000001,"N_COORD97":2543005.5,"ADDRESS":"土庫一街２２巷２９號","OBJECTID":236420},"geometry":{"x":174525.23000000231,"y":2543005.5}},{"attributes":{"ID":236425,"DIS_CODE":0,"TOWNNAME":"仁德區","LI":"上崙里","LIN":"16鄰","STREET":"德崙路","SECT":" ","MAREA":" ","LANE":"３７０巷","ALLEY":" ","HOUSE_NO":"２９號","E_COORD97":174019.64999999999,"N_COORD97":2537983.7599999998,"ADDRESS":"德崙路３７０巷２９號","OBJECTID":236421},"geometry":{"x":174019.65000000037,"y":2537983.7599999979}},{"attributes":{"ID":236426,"DIS_CODE":0,"TOWNNAME":"仁德區","LI":"仁義里","LIN":"16鄰","STREET":"義林路","SECT":" ","MAREA":" ","LANE":"２３３巷","ALLEY":" ","HOUSE_NO":"３１號","E_COORD97":174457.14999999999,"N_COORD97":2541240.0600000001,"ADDRESS":"義林路２３３巷３１號","OBJECTID":236422},"geometry":{"x":174457.15000000037,"y":2541240.0600000005}},{"attributes":{"ID":236427,"DIS_CODE":0,"TOWNNAME":"仁德區","LI":"上崙里","LIN":"16鄰","STREET":"德崙路","SECT":" ","MAREA":" ","LANE":"３７０巷","ALLEY":" ","HOUSE_NO":"２７號","E_COORD97":174017.84,"N_COORD97":2537992.5099999998,"ADDRESS":"德崙路３７０巷２７號","OBJECTID":236423},"geometry":{"x":174017.83999999985,"y":2537992.5100000035}},{"attributes":{"ID":236428,"DIS_CODE":0,"TOWNNAME":"仁德區","LI":"仁義里","LIN":"16鄰","STREET":"義林路","SECT":" ","MAREA":" ","LANE":"２３３巷","ALLEY":" ","HOUSE_NO":"１０號","E_COORD97":174500.10000000001,"N_COORD97":2541264.27,"ADDRESS":"義林路２３３巷１０號","OBJECTID":236424},"geometry":{"x":174500.10000000056,"y":2541264.2699999996}},{"attributes":{"ID":236429,"DIS_CODE":0,"TOWNNAME":"北區","LI":"大道里","LIN":"13鄰","STREET":"北門路","SECT":"二段","MAREA":" ","LANE":"５２７巷","ALLEY":" ","HOUSE_NO":"１７號六樓之３","E_COORD97":169525.20000000001,"N_COORD97":2545588.4500000002,"ADDRESS":"北門路二段５２７巷１７號六樓之３","OBJECTID":236425},"geometry":{"x":169525.20000000019,"y":2545588.4500000011}},{"attributes":{"ID":236430,"DIS_CODE":0,"TOWNNAME":"北區","LI":"大道里","LIN":"13鄰","STREET":"北門路","SECT":"二段","MAREA":" ","LANE":"５２７巷","ALLEY":" ","HOUSE_NO":"１７號七樓之２","E_COORD97":169525.20000000001,"N_COORD97":2545588.4500000002,"ADDRESS":"北門路二段５２７巷１７號七樓之２","OBJECTID":236426},"geometry":{"x":169525.20000000019,"y":2545588.4500000011}},{"attributes":{"ID":236431,"DIS_CODE":0,"TOWNNAME":"北區","LI":"大道里","LIN":"13鄰","STREET":"北門路","SECT":"二段","MAREA":" ","LANE":"５２７巷","ALLEY":" ","HOUSE_NO":"１７號七樓之１","E_COORD97":169525.20000000001,"N_COORD97":2545588.4500000002,"ADDRESS":"北門路二段５２７巷１７號七樓之１","OBJECTID":236427},"geometry":{"x":169525.20000000019,"y":2545588.4500000011}},{"attributes":{"ID":236432,"DIS_CODE":0,"TOWNNAME":"北區","LI":"大道里","LIN":"13鄰","STREET":"北門路","SECT":"二段","MAREA":" ","LANE":"５２７巷","ALLEY":" ","HOUSE_NO":"１７號七樓之５","E_COORD97":169525.20000000001,"N_COORD97":2545588.4500000002,"ADDRESS":"北門路二段５２７巷１７號七樓之５","OBJECTID":236428},"geometry":{"x":169525.20000000019,"y":2545588.4500000011}},{"attributes":{"ID":236433,"DIS_CODE":0,"TOWNNAME":"北區","LI":"大道里","LIN":"13鄰","STREET":"北門路","SECT":"二段","MAREA":" ","LANE":"５２７巷","ALLEY":" ","HOUSE_NO":"１７號七樓之３","E_COORD97":169525.20000000001,"N_COORD97":2545588.4500000002,"ADDRESS":"北門路二段５２７巷１７號七樓之３","OBJECTID":236429},"geometry":{"x":169525.20000000019,"y":2545588.4500000011}},{"attributes":{"ID":236434,"DIS_CODE":0,"TOWNNAME":"北區","LI":"大道里","LIN":"13鄰","STREET":"北門路","SECT":"二段","MAREA":" ","LANE":"５２７巷","ALLEY":" ","HOUSE_NO":"１７號八樓之２","E_COORD97":169525.20000000001,"N_COORD97":2545588.4500000002,"ADDRESS":"北門路二段５２７巷１７號八樓之２","OBJECTID":236430},"geometry":{"x":169525.20000000019,"y":2545588.4500000011}},{"attributes":{"ID":236435,"DIS_CODE":0,"TOWNNAME":"中西區","LI":"保安里","LIN":"14鄰","STREET":"友愛街","SECT":" ","MAREA":" ","LANE":" ","ALLEY":" ","HOUSE_NO":"２５０號","E_COORD97":167523.53,"N_COORD97":2543664.1600000001,"ADDRESS":"友愛街２５０號","OBJECTID":236431},"geometry":{"x":167523.53000000212,"y":2543664.1600000039}},{"attributes":{"ID":236436,"DIS_CODE":0,"TOWNNAME":"中西區","LI":"保安里","LIN":"14鄰","STREET":"友愛街","SECT":" ","MAREA":" ","LANE":" ","ALLEY":" ","HOUSE_NO":"２５２號","E_COORD97":167521.01999999999,"N_COORD97":2543665,"ADDRESS":"友愛街２５２號","OBJECTID":236432},"geometry":{"x":167521.02000000142,"y":2543665.0000000037}},{"attributes":{"ID":236437,"DIS_CODE":0,"TOWNNAME":"中西區","LI":"保安里","LIN":"14鄰","STREET":"友愛街","SECT":" ","MAREA":" ","LANE":" ","ALLEY":" ","HOUSE_NO":"２６４號","E_COORD97":167506.06,"N_COORD97":2543668.0699999998,"ADDRESS":"友愛街２６４號","OBJECTID":236433},"geometry":{"x":167506.06000000052,"y":2543668.070000004}},{"attributes":{"ID":236438,"DIS_CODE":0,"TOWNNAME":"中西區","LI":"保安里","LIN":"14鄰","STREET":"友愛街","SECT":" ","MAREA":" ","LANE":" ","ALLEY":" ","HOUSE_NO":"２６６號","E_COORD97":167499.42999999999,"N_COORD97":2543669.0499999998,"ADDRESS":"友愛街２６６號","OBJECTID":236434},"geometry":{"x":167499.4299999997,"y":2543669.0500000026}},{"attributes":{"ID":236439,"DIS_CODE":0,"TOWNNAME":"中西區","LI":"保安里","LIN":"14鄰","STREET":"友愛街","SECT":" ","MAREA":" ","LANE":" ","ALLEY":" ","HOUSE_NO":"２７４號","E_COORD97":167495.54999999999,"N_COORD97":2543670.1200000001,"ADDRESS":"友愛街２７４號","OBJECTID":236435},"geometry":{"x":167495.54999999981,"y":2543670.1200000029}},{"attributes":{"ID":236440,"DIS_CODE":0,"TOWNNAME":"中西區","LI":"保安里","LIN":"14鄰","STREET":"友愛街","SECT":" ","MAREA":" ","LANE":" ","ALLEY":" ","HOUSE_NO":"２７６號","E_COORD97":167491.03,"N_COORD97":2543671.5099999998,"ADDRESS":"友愛街２７６號","OBJECTID":236436},"geometry":{"x":167491.03000000026,"y":2543671.5100000035}},{"attributes":{"ID":236441,"DIS_CODE":0,"TOWNNAME":"仁德區","LI":"土庫里","LIN":"16鄰","STREET":"土庫一街","SECT":" ","MAREA":" ","LANE":"８１１巷","ALLEY":" ","HOUSE_NO":"５２號","E_COORD97":174661.17999999999,"N_COORD97":2542646.2400000002,"ADDRESS":"土庫一街８１１巷５２號","OBJECTID":236437},"geometry":{"x":174661.1799999997,"y":2542646.2400000039}},{"attributes":{"ID":236442,"DIS_CODE":0,"TOWNNAME":"仁德區","LI":"仁義里","LIN":"16鄰","STREET":"義林路","SECT":" ","MAREA":" ","LANE":"２３３巷","ALLEY":" ","HOUSE_NO":"１４號","E_COORD97":174487.34,"N_COORD97":2541262.27,"ADDRESS":"義林路２３３巷１４號","OBJECTID":236438},"geometry":{"x":174487.33999999985,"y":2541262.2700000033}},{"attributes":{"ID":236443,"DIS_CODE":0,"TOWNNAME":"仁德區","LI":"土庫里","LIN":"16鄰","STREET":"土庫一街","SECT":" ","MAREA":" ","LANE":"７４巷","ALLEY":" ","HOUSE_NO":"２號","E_COORD97":174586.34,"N_COORD97":2543057.7400000002,"ADDRESS":"土庫一街７４巷２號","OBJECTID":236439},"geometry":{"x":174586.33999999892,"y":2543057.7400000021}},{"attributes":{"ID":236444,"DIS_CODE":0,"TOWNNAME":"北區","LI":"大道里","LIN":"13鄰","STREET":"北門路","SECT":"二段","MAREA":" ","LANE":"５２７巷","ALLEY":" ","HOUSE_NO":"１７號八樓之１","E_COORD97":169525.20000000001,"N_COORD97":2545588.4500000002,"ADDRESS":"北門路二段５２７巷１７號八樓之１","OBJECTID":236440},"geometry":{"x":169525.20000000019,"y":2545588.4500000011}},{"attributes":{"ID":236445,"DIS_CODE":0,"TOWNNAME":"中西區","LI":"保安里","LIN":"14鄰","STREET":"中正路","SECT":" ","MAREA":" ","LANE":" ","ALLEY":" ","HOUSE_NO":"３０１號","E_COORD97":167549.76999999999,"N_COORD97":2543749.1400000001,"ADDRESS":"中正路３０１號","OBJECTID":236441},"geometry":{"x":167549.76999999862,"y":2543749.1399999987}},{"attributes":{"ID":236446,"DIS_CODE":0,"TOWNNAME":"仁德區","LI":"仁愛里","LIN":"16鄰","STREET":" ","SECT":" ","MAREA":"仁愛","LANE":" ","ALLEY":" ","HOUSE_NO":"３２３號","E_COORD97":170226.482995,"N_COORD97":2539958.02,"ADDRESS":"仁愛３２３號","OBJECTID":236442},"geometry":{"x":170226.48299499974,"y":2539958.0199999996}},{"attributes":{"ID":236447,"DIS_CODE":0,"TOWNNAME":"仁德區","LI":"仁愛里","LIN":"16鄰","STREET":" ","SECT":" ","MAREA":"仁愛","LANE":" ","ALLEY":" ","HOUSE_NO":"３１８號","E_COORD97":170211.22945099999,"N_COORD97":2539958.02,"ADDRESS":"仁愛３１８號","OBJECTID":236443},"geometry":{"x":170211.22945100069,"y":2539958.0199999996}},{"attributes":{"ID":236448,"DIS_CODE":0,"TOWNNAME":"仁德區","LI":"仁愛里","LIN":"16鄰","STREET":" ","SECT":" ","MAREA":"仁愛","LANE":" ","ALLEY":" ","HOUSE_NO":"３１７號","E_COORD97":170208.104593,"N_COORD97":2539958.02,"ADDRESS":"仁愛３１７號","OBJECTID":236444},"geometry":{"x":170208.10459300037,"y":2539958.0199999996}},{"attributes":{"ID":236449,"DIS_CODE":0,"TOWNNAME":"仁德區","LI":"仁愛里","LIN":"16鄰","STREET":" ","SECT":" ","MAREA":"仁愛","LANE":" ","ALLEY":" ","HOUSE_NO":"３２８號","E_COORD97":170238.99007299999,"N_COORD97":2539964.77,"ADDRESS":"仁愛３２８號","OBJECTID":236445},"geometry":{"x":170238.99007300101,"y":2539964.7700000014}},{"attributes":{"ID":236450,"DIS_CODE":0,"TOWNNAME":"仁德區","LI":"仁愛里","LIN":"16鄰","STREET":" ","SECT":" ","MAREA":"仁愛","LANE":" ","ALLEY":" ","HOUSE_NO":"３３３號","E_COORD97":170214.41491799999,"N_COORD97":2539964.77,"ADDRESS":"仁愛３３３號","OBJECTID":236446},"geometry":{"x":170214.41491799988,"y":2539964.7700000014}},{"attributes":{"ID":236451,"DIS_CODE":0,"TOWNNAME":"北區","LI":"大道里","LIN":"13鄰","STREET":"北門路","SECT":"二段","MAREA":" ","LANE":"５２７巷","ALLEY":" ","HOUSE_NO":"１７號八樓之５","E_COORD97":169525.20000000001,"N_COORD97":2545588.4500000002,"ADDRESS":"北門路二段５２７巷１７號八樓之５","OBJECTID":236447},"geometry":{"x":169525.20000000019,"y":2545588.4500000011}},{"attributes":{"ID":236452,"DIS_CODE":0,"TOWNNAME":"北區","LI":"大道里","LIN":"13鄰","STREET":"北門路","SECT":"二段","MAREA":" ","LANE":"５２７巷","ALLEY":" ","HOUSE_NO":"１７號八樓之３","E_COORD97":169525.20000000001,"N_COORD97":2545588.4500000002,"ADDRESS":"北門路二段５２７巷１７號八樓之３","OBJECTID":236448},"geometry":{"x":169525.20000000019,"y":2545588.4500000011}},{"attributes":{"ID":236453,"DIS_CODE":0,"TOWNNAME":"北區","LI":"大道里","LIN":"13鄰","STREET":"北門路","SECT":"二段","MAREA":" ","LANE":"５２７巷","ALLEY":" ","HOUSE_NO":"１７號九樓之２","E_COORD97":169525.20000000001,"N_COORD97":2545588.4500000002,"ADDRESS":"北門路二段５２７巷１７號九樓之２","OBJECTID":236449},"geometry":{"x":169525.20000000019,"y":2545588.4500000011}},{"attributes":{"ID":236454,"DIS_CODE":0,"TOWNNAME":"北區","LI":"大道里","LIN":"13鄰","STREET":"北門路","SECT":"二段","MAREA":" ","LANE":"５２７巷","ALLEY":" ","HOUSE_NO":"１７號九樓之１","E_COORD97":169525.20000000001,"N_COORD97":2545588.4500000002,"ADDRESS":"北門路二段５２７巷１７號九樓之１","OBJECTID":236450},"geometry":{"x":169525.20000000019,"y":2545588.4500000011}},{"attributes":{"ID":236455,"DIS_CODE":0,"TOWNNAME":"北區","LI":"大道里","LIN":"13鄰","STREET":"北門路","SECT":"二段","MAREA":" ","LANE":"５２７巷","ALLEY":" ","HOUSE_NO":"１７號九樓之５","E_COORD97":169525.20000000001,"N_COORD97":2545588.4500000002,"ADDRESS":"北門路二段５２７巷１７號九樓之５","OBJECTID":236451},"geometry":{"x":169525.20000000019,"y":2545588.4500000011}},{"attributes":{"ID":236456,"DIS_CODE":0,"TOWNNAME":"北區","LI":"大道里","LIN":"13鄰","STREET":"北門路","SECT":"二段","MAREA":" ","LANE":"５２７巷","ALLEY":" ","HOUSE_NO":"１７號九樓之３","E_COORD97":169525.20000000001,"N_COORD97":2545588.4500000002,"ADDRESS":"北門路二段５２７巷１７號九樓之３","OBJECTID":236452},"geometry":{"x":169525.20000000019,"y":2545588.4500000011}},{"attributes":{"ID":236457,"DIS_CODE":0,"TOWNNAME":"北區","LI":"大道里","LIN":"13鄰","STREET":"北門路","SECT":"二段","MAREA":" ","LANE":"５２７巷","ALLEY":" ","HOUSE_NO":"１７號十樓之２","E_COORD97":169525.20000000001,"N_COORD97":2545588.4500000002,"ADDRESS":"北門路二段５２７巷１７號十樓之２","OBJECTID":236453},"geometry":{"x":169525.20000000019,"y":2545588.4500000011}},{"attributes":{"ID":236458,"DIS_CODE":0,"TOWNNAME":"北區","LI":"大道里","LIN":"13鄰","STREET":"北門路","SECT":"二段","MAREA":" ","LANE":"５２７巷","ALLEY":" ","HOUSE_NO":"１７號十樓之１","E_COORD97":169525.20000000001,"N_COORD97":2545588.4500000002,"ADDRESS":"北門路二段５２７巷１７號十樓之１","OBJECTID":236454},"geometry":{"x":169525.20000000019,"y":2545588.4500000011}},{"attributes":{"ID":236459,"DIS_CODE":0,"TOWNNAME":"北區","LI":"大道里","LIN":"13鄰","STREET":"北門路","SECT":"二段","MAREA":" ","LANE":"５２７巷","ALLEY":" ","HOUSE_NO":"１７號十樓之５","E_COORD97":169525.20000000001,"N_COORD97":2545588.4500000002,"ADDRESS":"北門路二段５２７巷１７號十樓之５","OBJECTID":236455},"geometry":{"x":169525.20000000019,"y":2545588.4500000011}},{"attributes":{"ID":236460,"DIS_CODE":0,"TOWNNAME":"北區","LI":"大道里","LIN":"13鄰","STREET":"北門路","SECT":"二段","MAREA":" ","LANE":"５２７巷","ALLEY":" ","HOUSE_NO":"１７號十樓之３","E_COORD97":169525.20000000001,"N_COORD97":2545588.4500000002,"ADDRESS":"北門路二段５２７巷１７號十樓之３","OBJECTID":236456},"geometry":{"x":169525.20000000019,"y":2545588.4500000011}},{"attributes":{"ID":236461,"DIS_CODE":0,"TOWNNAME":"北區","LI":"大道里","LIN":"13鄰","STREET":"北門路","SECT":"二段","MAREA":" ","LANE":"５２７巷","ALLEY":" ","HOUSE_NO":"２１號三樓之２","E_COORD97":169513.60999999999,"N_COORD97":2545574.4500000002,"ADDRESS":"北門路二段５２７巷２１號三樓之２","OBJECTID":236457},"geometry":{"x":169513.61000000127,"y":2545574.4500000011}},{"attributes":{"ID":236462,"DIS_CODE":0,"TOWNNAME":"北區","LI":"大道里","LIN":"13鄰","STREET":"北門路","SECT":"二段","MAREA":" ","LANE":"５２７巷","ALLEY":" ","HOUSE_NO":"２１號三樓之１","E_COORD97":169513.60999999999,"N_COORD97":2545574.4500000002,"ADDRESS":"北門路二段５２７巷２１號三樓之１","OBJECTID":236458},"geometry":{"x":169513.61000000127,"y":2545574.4500000011}},{"attributes":{"ID":236463,"DIS_CODE":0,"TOWNNAME":"北區","LI":"大道里","LIN":"13鄰","STREET":"北門路","SECT":"二段","MAREA":" ","LANE":"５２７巷","ALLEY":" ","HOUSE_NO":"２１號四樓之２","E_COORD97":169513.60999999999,"N_COORD97":2545574.4500000002,"ADDRESS":"北門路二段５２７巷２１號四樓之２","OBJECTID":236459},"geometry":{"x":169513.61000000127,"y":2545574.4500000011}},{"attributes":{"ID":236464,"DIS_CODE":0,"TOWNNAME":"北區","LI":"大道里","LIN":"13鄰","STREET":"北門路","SECT":"二段","MAREA":" ","LANE":"５２７巷","ALLEY":" ","HOUSE_NO":"２１號四樓之１","E_COORD97":169513.60999999999,"N_COORD97":2545574.4500000002,"ADDRESS":"北門路二段５２７巷２１號四樓之１","OBJECTID":236460},"geometry":{"x":169513.61000000127,"y":2545574.4500000011}},{"attributes":{"ID":236465,"DIS_CODE":0,"TOWNNAME":"東山區","LI":"科里里","LIN":"22鄰","STREET":" ","SECT":" ","MAREA":"枋子林","LANE":" ","ALLEY":" ","HOUSE_NO":"７９號之５","E_COORD97":188941.07999999999,"N_COORD97":2577010.5899999999,"ADDRESS":"枋子林７９號之５","OBJECTID":236461},"geometry":{"x":188941.08000000007,"y":2577010.5899999999}},{"attributes":{"ID":236466,"DIS_CODE":0,"TOWNNAME":"中西區","LI":"保安里","LIN":"14鄰","STREET":"友愛街","SECT":" ","MAREA":" ","LANE":" ","ALLEY":" ","HOUSE_NO":"２７８號","E_COORD97":167485.01000000001,"N_COORD97":2543672.1099999999,"ADDRESS":"友愛街２７８號","OBJECTID":236462},"geometry":{"x":167485.00999999978,"y":2543672.1099999994}},{"attributes":{"ID":236467,"DIS_CODE":0,"TOWNNAME":"中西區","LI":"保安里","LIN":"14鄰","STREET":"友愛街","SECT":" ","MAREA":" ","LANE":" ","ALLEY":" ","HOUSE_NO":"２８０號","E_COORD97":167481.79999999999,"N_COORD97":2543673.9199999999,"ADDRESS":"友愛街２８０號","OBJECTID":236463},"geometry":{"x":167481.79999999981,"y":2543673.9199999999}},{"attributes":{"ID":236468,"DIS_CODE":0,"TOWNNAME":"中西區","LI":"保安里","LIN":"14鄰","STREET":"友愛街","SECT":" ","MAREA":" ","LANE":" ","ALLEY":" ","HOUSE_NO":"２８２號","E_COORD97":167478.59,"N_COORD97":2543674.2000000002,"ADDRESS":"友愛街２８２號","OBJECTID":236464},"geometry":{"x":167478.59000000171,"y":2543674.2000000011}},{"attributes":{"ID":236469,"DIS_CODE":0,"TOWNNAME":"中西區","LI":"保安里","LIN":"14鄰","STREET":"友愛街","SECT":" ","MAREA":" ","LANE":" ","ALLEY":" ","HOUSE_NO":"２８８號","E_COORD97":167456.73000000001,"N_COORD97":2543677.96,"ADDRESS":"友愛街２８８號","OBJECTID":236465},"geometry":{"x":167456.73000000138,"y":2543677.9600000009}},{"attributes":{"ID":236470,"DIS_CODE":0,"TOWNNAME":"安定區","LI":"蘇林里","LIN":"1鄰","STREET":" ","SECT":" ","MAREA":"蘇厝","LANE":" ","ALLEY":" ","HOUSE_NO":"９號之８","E_COORD97":173664,"N_COORD97":2558604.2999999998,"ADDRESS":"蘇厝９號之８","OBJECTID":236466},"geometry":{"x":173664.00000000093,"y":2558604.3000000007}},{"attributes":{"ID":236471,"DIS_CODE":0,"TOWNNAME":"安定區","LI":"管寮里","LIN":"9鄰","STREET":" ","SECT":" ","MAREA":"管寮","LANE":" ","ALLEY":" ","HOUSE_NO":"８５號","E_COORD97":169808.64000000001,"N_COORD97":2556344.25,"ADDRESS":"管寮８５號","OBJECTID":236467},"geometry":{"x":169808.63999999966,"y":2556344.2500000019}},{"attributes":{"ID":236472,"DIS_CODE":0,"TOWNNAME":"北區","LI":"大道里","LIN":"13鄰","STREET":"北門路","SECT":"二段","MAREA":" ","LANE":"５２７巷","ALLEY":" ","HOUSE_NO":"２１號五樓之２","E_COORD97":169513.60999999999,"N_COORD97":2545574.4500000002,"ADDRESS":"北門路二段５２７巷２１號五樓之２","OBJECTID":236468},"geometry":{"x":169513.61000000127,"y":2545574.4500000011}},{"attributes":{"ID":236473,"DIS_CODE":0,"TOWNNAME":"北區","LI":"大道里","LIN":"13鄰","STREET":"北門路","SECT":"二段","MAREA":" ","LANE":"５２７巷","ALLEY":" ","HOUSE_NO":"２１號五樓之１","E_COORD97":169513.60999999999,"N_COORD97":2545574.4500000002,"ADDRESS":"北門路二段５２７巷２１號五樓之１","OBJECTID":236469},"geometry":{"x":169513.61000000127,"y":2545574.4500000011}},{"attributes":{"ID":236474,"DIS_CODE":0,"TOWNNAME":"北區","LI":"大道里","LIN":"13鄰","STREET":"北門路","SECT":"二段","MAREA":" ","LANE":"５２７巷","ALLEY":" ","HOUSE_NO":"２１號六樓之２","E_COORD97":169513.60999999999,"N_COORD97":2545574.4500000002,"ADDRESS":"北門路二段５２７巷２１號六樓之２","OBJECTID":236470},"geometry":{"x":169513.61000000127,"y":2545574.4500000011}},{"attributes":{"ID":236475,"DIS_CODE":0,"TOWNNAME":"北區","LI":"大道里","LIN":"13鄰","STREET":"北門路","SECT":"二段","MAREA":" ","LANE":"５２７巷","ALLEY":" ","HOUSE_NO":"２１號六樓之１","E_COORD97":169513.60999999999,"N_COORD97":2545574.4500000002,"ADDRESS":"北門路二段５２７巷２１號六樓之１","OBJECTID":236471},"geometry":{"x":169513.61000000127,"y":2545574.4500000011}},{"attributes":{"ID":236476,"DIS_CODE":0,"TOWNNAME":"北區","LI":"大道里","LIN":"13鄰","STREET":"北門路","SECT":"二段","MAREA":" ","LANE":"５２７巷","ALLEY":" ","HOUSE_NO":"２１號七樓之２","E_COORD97":169513.60999999999,"N_COORD97":2545574.4500000002,"ADDRESS":"北門路二段５２７巷２１號七樓之２","OBJECTID":236472},"geometry":{"x":169513.61000000127,"y":2545574.4500000011}},{"attributes":{"ID":236477,"DIS_CODE":0,"TOWNNAME":"北區","LI":"大道里","LIN":"13鄰","STREET":"北門路","SECT":"二段","MAREA":" ","LANE":"５２７巷","ALLEY":" ","HOUSE_NO":"２１號七樓之１","E_COORD97":169513.60999999999,"N_COORD97":2545574.4500000002,"ADDRESS":"北門路二段５２７巷２１號七樓之１","OBJECTID":236473},"geometry":{"x":169513.61000000127,"y":2545574.4500000011}},{"attributes":{"ID":236478,"DIS_CODE":0,"TOWNNAME":"仁德區","LI":"仁愛里","LIN":"16鄰","STREET":" ","SECT":" ","MAREA":"仁愛","LANE":" ","ALLEY":" ","HOUSE_NO":"３３４號","E_COORD97":170209.965968,"N_COORD97":2539964.77,"ADDRESS":"仁愛３３４號","OBJECTID":236474},"geometry":{"x":170209.9659680007,"y":2539964.7700000014}},{"attributes":{"ID":236479,"DIS_CODE":0,"TOWNNAME":"北區","LI":"大道里","LIN":"13鄰","STREET":"北門路","SECT":"二段","MAREA":" ","LANE":"５２７巷","ALLEY":" ","HOUSE_NO":"２１號八樓之２","E_COORD97":169513.60999999999,"N_COORD97":2545574.4500000002,"ADDRESS":"北門路二段５２７巷２１號八樓之２","OBJECTID":236475},"geometry":{"x":169513.61000000127,"y":2545574.4500000011}},{"attributes":{"ID":236480,"DIS_CODE":0,"TOWNNAME":"北區","LI":"大道里","LIN":"13鄰","STREET":"北門路","SECT":"二段","MAREA":" ","LANE":"５２７巷","ALLEY":" ","HOUSE_NO":"２１號八樓之１","E_COORD97":169513.60999999999,"N_COORD97":2545574.4500000002,"ADDRESS":"北門路二段５２７巷２１號八樓之１","OBJECTID":236476},"geometry":{"x":169513.61000000127,"y":2545574.4500000011}},{"attributes":{"ID":236481,"DIS_CODE":0,"TOWNNAME":"北區","LI":"大道里","LIN":"13鄰","STREET":"北門路","SECT":"二段","MAREA":" ","LANE":"５２７巷","ALLEY":" ","HOUSE_NO":"２１號九樓之２","E_COORD97":169513.60999999999,"N_COORD97":2545574.4500000002,"ADDRESS":"北門路二段５２７巷２１號九樓之２","OBJECTID":236477},"geometry":{"x":169513.61000000127,"y":2545574.4500000011}},{"attributes":{"ID":236482,"DIS_CODE":0,"TOWNNAME":"北區","LI":"大道里","LIN":"13鄰","STREET":"北門路","SECT":"二段","MAREA":" ","LANE":"５２７巷","ALLEY":" ","HOUSE_NO":"２１號九樓之１","E_COORD97":169513.60999999999,"N_COORD97":2545574.4500000002,"ADDRESS":"北門路二段５２７巷２１號九樓之１","OBJECTID":236478},"geometry":{"x":169513.61000000127,"y":2545574.4500000011}},{"attributes":{"ID":236483,"DIS_CODE":0,"TOWNNAME":"北區","LI":"大道里","LIN":"13鄰","STREET":"北門路","SECT":"二段","MAREA":" ","LANE":"５２７巷","ALLEY":" ","HOUSE_NO":"２１號十樓之２","E_COORD97":169513.60999999999,"N_COORD97":2545574.4500000002,"ADDRESS":"北門路二段５２７巷２１號十樓之２","OBJECTID":236479},"geometry":{"x":169513.61000000127,"y":2545574.4500000011}},{"attributes":{"ID":236484,"DIS_CODE":0,"TOWNNAME":"北區","LI":"大道里","LIN":"13鄰","STREET":"北門路","SECT":"二段","MAREA":" ","LANE":"５２７巷","ALLEY":" ","HOUSE_NO":"２１號十樓之１","E_COORD97":169513.60999999999,"N_COORD97":2545574.4500000002,"ADDRESS":"北門路二段５２７巷２１號十樓之１","OBJECTID":236480},"geometry":{"x":169513.61000000127,"y":2545574.4500000011}},{"attributes":{"ID":236485,"DIS_CODE":0,"TOWNNAME":"東區","LI":"小東里","LIN":"16鄰","STREET":"光明街","SECT":" ","MAREA":" ","LANE":"６６巷","ALLEY":" ","HOUSE_NO":"１７號","E_COORD97":170873.35999999999,"N_COORD97":2544175.9300000002,"ADDRESS":"光明街６６巷１７號","OBJECTID":236481},"geometry":{"x":170873.36000000127,"y":2544175.9299999997}},{"attributes":{"ID":236486,"DIS_CODE":0,"TOWNNAME":"東區","LI":"虎尾里","LIN":"16鄰","STREET":"東成街","SECT":" ","MAREA":" ","LANE":"５６巷","ALLEY":" ","HOUSE_NO":"１４號","E_COORD97":171376.23999999999,"N_COORD97":2542215.9700000002,"ADDRESS":"東成街５６巷１４號","OBJECTID":236482},"geometry":{"x":171376.24000000022,"y":2542215.9700000025}},{"attributes":{"ID":236487,"DIS_CODE":0,"TOWNNAME":"東區","LI":"衛國里","LIN":"16鄰","STREET":"衛國街","SECT":" ","MAREA":" ","LANE":"１１４巷","ALLEY":" ","HOUSE_NO":"２３號","E_COORD97":170536.70000000001,"N_COORD97":2543166.3199999998,"ADDRESS":"衛國街１１４巷２３號","OBJECTID":236483},"geometry":{"x":170536.70000000112,"y":2543166.3200000022}},{"attributes":{"ID":236488,"DIS_CODE":0,"TOWNNAME":"東區","LI":"衛國里","LIN":"16鄰","STREET":"衛國街","SECT":" ","MAREA":" ","LANE":"１１４巷","ALLEY":" ","HOUSE_NO":"２５號","E_COORD97":170540.34,"N_COORD97":2543176.29,"ADDRESS":"衛國街１１４巷２５號","OBJECTID":236484},"geometry":{"x":170540.34000000078,"y":2543176.2899999991}},{"attributes":{"ID":236489,"DIS_CODE":0,"TOWNNAME":"東區","LI":"衛國里","LIN":"16鄰","STREET":"衛國街","SECT":" ","MAREA":" ","LANE":"１１４巷","ALLEY":" ","HOUSE_NO":"２７號之１","E_COORD97":170548.01000000001,"N_COORD97":2543177.4399999999,"ADDRESS":"衛國街１１４巷２７號之１","OBJECTID":236485},"geometry":{"x":170548.01000000071,"y":2543177.4400000013}},{"attributes":{"ID":236490,"DIS_CODE":0,"TOWNNAME":"東區","LI":"衛國里","LIN":"16鄰","STREET":"衛國街","SECT":" ","MAREA":" ","LANE":"１１４巷","ALLEY":" ","HOUSE_NO":"２９號","E_COORD97":170553.19,"N_COORD97":2543169.3900000001,"ADDRESS":"衛國街１１４巷２９號","OBJECTID":236486},"geometry":{"x":170553.19000000041,"y":2543169.3900000025}},{"attributes":{"ID":236491,"DIS_CODE":0,"TOWNNAME":"東區","LI":"富強里","LIN":"16鄰","STREET":"裕農路","SECT":" ","MAREA":" ","LANE":"２８８巷","ALLEY":" ","HOUSE_NO":"７１號","E_COORD97":171035.31,"N_COORD97":2542958.52,"ADDRESS":"裕農路２８８巷７１號","OBJECTID":236487},"geometry":{"x":171035.31000000052,"y":2542958.5199999996}},{"attributes":{"ID":236492,"DIS_CODE":0,"TOWNNAME":"東區","LI":"富強里","LIN":"16鄰","STREET":"裕農路","SECT":" ","MAREA":" ","LANE":"２８８巷","ALLEY":" ","HOUSE_NO":"１３８號","E_COORD97":171061.73999999999,"N_COORD97":2542917.5600000001,"ADDRESS":"裕農路２８８巷１３８號","OBJECTID":236488},"geometry":{"x":171061.74000000115,"y":2542917.5600000005}},{"attributes":{"ID":236493,"DIS_CODE":0,"TOWNNAME":"東區","LI":"中西里","LIN":"16鄰","STREET":"長榮路","SECT":"二段","MAREA":" ","LANE":"１７０巷","ALLEY":" ","HOUSE_NO":"１２號","E_COORD97":170089.54999999999,"N_COORD97":2543304.8700000001,"ADDRESS":"長榮路二段１７０巷１２號","OBJECTID":236489},"geometry":{"x":170089.55000000075,"y":2543304.8700000029}},{"attributes":{"ID":236494,"DIS_CODE":0,"TOWNNAME":"東區","LI":"中西里","LIN":"16鄰","STREET":"長榮路","SECT":"二段","MAREA":" ","LANE":"１７０巷","ALLEY":" ","HOUSE_NO":"１４號","E_COORD97":170091.73000000001,"N_COORD97":2543300.3399999999,"ADDRESS":"長榮路二段１７０巷１４號","OBJECTID":236490},"geometry":{"x":170091.73000000045,"y":2543300.3400000017}},{"attributes":{"ID":236495,"DIS_CODE":0,"TOWNNAME":"東區","LI":"中西里","LIN":"16鄰","STREET":"長榮路","SECT":"二段","MAREA":" ","LANE":"１７０巷","ALLEY":" ","HOUSE_NO":"１８號","E_COORD97":170097.19,"N_COORD97":2543291.0699999998,"ADDRESS":"長榮路二段１７０巷１８號","OBJECTID":236491},"geometry":{"x":170097.19000000041,"y":2543291.0700000003}},{"attributes":{"ID":236496,"DIS_CODE":0,"TOWNNAME":"東區","LI":"中西里","LIN":"16鄰","STREET":"長榮路","SECT":"二段","MAREA":" ","LANE":"１７０巷","ALLEY":" ","HOUSE_NO":"２０號","E_COORD97":170099.29000000001,"N_COORD97":2543285.8199999998,"ADDRESS":"長榮路二段１７０巷２０號","OBJECTID":236492},"geometry":{"x":170099.29000000004,"y":2543285.8200000003}},{"attributes":{"ID":236497,"DIS_CODE":0,"TOWNNAME":"東區","LI":"中西里","LIN":"16鄰","STREET":"長榮路","SECT":"二段","MAREA":" ","LANE":"１７０巷","ALLEY":" ","HOUSE_NO":"２２號","E_COORD97":170101.63,"N_COORD97":2543282.5899999999,"ADDRESS":"長榮路二段１７０巷２２號","OBJECTID":236493},"geometry":{"x":170101.62999999989,"y":2543282.5900000017}},{"attributes":{"ID":236498,"DIS_CODE":0,"TOWNNAME":"東區","LI":"中西里","LIN":"16鄰","STREET":"長榮路","SECT":"二段","MAREA":" ","LANE":"１７０巷","ALLEY":" ","HOUSE_NO":"２號","E_COORD97":170076.95000000001,"N_COORD97":2543335.4900000002,"ADDRESS":"長榮路二段１７０巷２號","OBJECTID":236494},"geometry":{"x":170076.95000000205,"y":2543335.4900000002}},{"attributes":{"ID":236499,"DIS_CODE":0,"TOWNNAME":"中西區","LI":"保安里","LIN":"14鄰","STREET":"友愛街","SECT":" ","MAREA":" ","LANE":" ","ALLEY":" ","HOUSE_NO":"２９０號","E_COORD97":167452.60000000001,"N_COORD97":2543678.96,"ADDRESS":"友愛街２９０號","OBJECTID":236495},"geometry":{"x":167452.59999999963,"y":2543678.9600000009}},{"attributes":{"ID":236500,"DIS_CODE":0,"TOWNNAME":"中西區","LI":"保安里","LIN":"14鄰","STREET":"友愛街","SECT":" ","MAREA":" ","LANE":" ","ALLEY":" ","HOUSE_NO":"２９２號","E_COORD97":167447.98000000001,"N_COORD97":2543681.96,"ADDRESS":"友愛街２９２號","OBJECTID":236496},"geometry":{"x":167447.98000000138,"y":2543681.9600000009}},{"attributes":{"ID":236501,"DIS_CODE":0,"TOWNNAME":"中西區","LI":"保安里","LIN":"14鄰","STREET":"友愛街","SECT":" ","MAREA":" ","LANE":" ","ALLEY":" ","HOUSE_NO":"２９４號","E_COORD97":167445.35000000001,"N_COORD97":2543681.71,"ADDRESS":"友愛街２９４號","OBJECTID":236497},"geometry":{"x":167445.34999999963,"y":2543681.7100000028}},{"attributes":{"ID":236502,"DIS_CODE":0,"TOWNNAME":"中西區","LI":"保安里","LIN":"14鄰","STREET":"友愛街","SECT":" ","MAREA":" ","LANE":" ","ALLEY":" ","HOUSE_NO":"２９６號","E_COORD97":167440.35000000001,"N_COORD97":2543682.5800000001,"ADDRESS":"友愛街２９６號","OBJECTID":236498},"geometry":{"x":167440.34999999963,"y":2543682.5800000019}},{"attributes":{"ID":236503,"DIS_CODE":0,"TOWNNAME":"中西區","LI":"保安里","LIN":"14鄰","STREET":"友愛街","SECT":" ","MAREA":" ","LANE":" ","ALLEY":" ","HOUSE_NO":"２９８號","E_COORD97":167435.60000000001,"N_COORD97":2543683.3300000001,"ADDRESS":"友愛街２９８號","OBJECTID":236499},"geometry":{"x":167435.59999999963,"y":2543683.3300000019}},{"attributes":{"ID":236504,"DIS_CODE":0,"TOWNNAME":"中西區","LI":"保安里","LIN":"14鄰","STREET":"友愛街","SECT":" ","MAREA":" ","LANE":" ","ALLEY":" ","HOUSE_NO":"３００號","E_COORD97":167429.72,"N_COORD97":2543686.0800000001,"ADDRESS":"友愛街３００號","OBJECTID":236500},"geometry":{"x":167429.71999999974,"y":2543686.0800000019}},{"attributes":{"ID":236505,"DIS_CODE":0,"TOWNNAME":"中西區","LI":"保安里","LIN":"14鄰","STREET":"友愛街","SECT":" ","MAREA":" ","LANE":" ","ALLEY":" ","HOUSE_NO":"３０２號","E_COORD97":167424.72,"N_COORD97":2543686.71,"ADDRESS":"友愛街３０２號","OBJECTID":236501},"geometry":{"x":167424.71999999974,"y":2543686.7100000009}},{"attributes":{"ID":236506,"DIS_CODE":0,"TOWNNAME":"中西區","LI":"保安里","LIN":"14鄰","STREET":"康樂街","SECT":" ","MAREA":" ","LANE":" ","ALLEY":" ","HOUSE_NO":"９０號","E_COORD97":167424.42000000001,"N_COORD97":2543690.3199999998,"ADDRESS":"康樂街９０號","OBJECTID":236502},"geometry":{"x":167424.42000000086,"y":2543690.320000004}},{"attributes":{"ID":236507,"DIS_CODE":0,"TOWNNAME":"中西區","LI":"保安里","LIN":"14鄰","STREET":"康樂街","SECT":" ","MAREA":" ","LANE":" ","ALLEY":" ","HOUSE_NO":"９２號","E_COORD97":167424.97,"N_COORD97":2543694.1899999999,"ADDRESS":"康樂街９２號","OBJECTID":236503},"geometry":{"x":167424.9700000016,"y":2543694.1900000013}},{"attributes":{"ID":236508,"DIS_CODE":0,"TOWNNAME":"中西區","LI":"保安里","LIN":"14鄰","STREET":"康樂街","SECT":" ","MAREA":" ","LANE":" ","ALLEY":" ","HOUSE_NO":"９４號","E_COORD97":167428.85000000001,"N_COORD97":2543697.5099999998,"ADDRESS":"康樂街９４號","OBJECTID":236504},"geometry":{"x":167428.84999999963,"y":2543697.5099999998}},{"attributes":{"ID":236509,"DIS_CODE":0,"TOWNNAME":"中西區","LI":"保安里","LIN":"14鄰","STREET":"康樂街","SECT":" ","MAREA":" ","LANE":" ","ALLEY":" ","HOUSE_NO":"９６號","E_COORD97":167428.29999999999,"N_COORD97":2543706.3599999999,"ADDRESS":"康樂街９６號","OBJECTID":236505},"geometry":{"x":167428.30000000075,"y":2543706.3600000013}},{"attributes":{"ID":236510,"DIS_CODE":0,"TOWNNAME":"中西區","LI":"保安里","LIN":"14鄰","STREET":"中正路","SECT":" ","MAREA":" ","LANE":" ","ALLEY":" ","HOUSE_NO":"２９９號","E_COORD97":167554.01999999999,"N_COORD97":2543748.0800000001,"ADDRESS":"中正路２９９號","OBJECTID":236506},"geometry":{"x":167554.02000000048,"y":2543748.0800000001}},{"attributes":{"ID":236511,"DIS_CODE":0,"TOWNNAME":"中西區","LI":"保安里","LIN":"14鄰","STREET":"中正路","SECT":" ","MAREA":" ","LANE":" ","ALLEY":" ","HOUSE_NO":"３０５號","E_COORD97":167544.19,"N_COORD97":2543748.8799999999,"ADDRESS":"中正路３０５號","OBJECTID":236507},"geometry":{"x":167544.19000000041,"y":2543748.879999999}},{"attributes":{"ID":236512,"DIS_CODE":0,"TOWNNAME":"中西區","LI":"保安里","LIN":"14鄰","STREET":"中正路","SECT":" ","MAREA":" ","LANE":" ","ALLEY":" ","HOUSE_NO":"３０７號","E_COORD97":167539.67000000001,"N_COORD97":2543749.6699999999,"ADDRESS":"中正路３０７號","OBJECTID":236508},"geometry":{"x":167539.67000000086,"y":2543749.6700000018}},{"attributes":{"ID":236513,"DIS_CODE":0,"TOWNNAME":"中西區","LI":"保安里","LIN":"14鄰","STREET":"中正路","SECT":" ","MAREA":" ","LANE":" ","ALLEY":" ","HOUSE_NO":"３０９號","E_COORD97":167524.88,"N_COORD97":2543760.2799999998,"ADDRESS":"中正路３０９號","OBJECTID":236509},"geometry":{"x":167524.88000000082,"y":2543760.2799999993}},{"attributes":{"ID":236514,"DIS_CODE":0,"TOWNNAME":"東區","LI":"中西里","LIN":"16鄰","STREET":"長榮路","SECT":"二段","MAREA":" ","LANE":"１７０巷","ALLEY":" ","HOUSE_NO":"６號","E_COORD97":170079.84,"N_COORD97":2543321.5099999998,"ADDRESS":"長榮路二段１７０巷６號","OBJECTID":236510},"geometry":{"x":170079.83999999985,"y":2543321.5099999998}},{"attributes":{"ID":236515,"DIS_CODE":0,"TOWNNAME":"新營區","LI":"王公里","LIN":"31鄰","STREET":"大勇街","SECT":" ","MAREA":" ","LANE":"１９巷","ALLEY":" ","HOUSE_NO":"３號","E_COORD97":180230.528663,"N_COORD97":2579464.7006100002,"ADDRESS":"大勇街１９巷３號","OBJECTID":236511},"geometry":{"x":180230.52866300009,"y":2579464.700608002}},{"attributes":{"ID":236516,"DIS_CODE":0,"TOWNNAME":"北區","LI":"光武里","LIN":"13鄰","STREET":"北門路","SECT":"二段","MAREA":" ","LANE":"５７７巷","ALLEY":" ","HOUSE_NO":"１５號三樓之１","E_COORD97":169524.25,"N_COORD97":2545742.3300000001,"ADDRESS":"北門路二段５７７巷１５號三樓之１","OBJECTID":236512},"geometry":{"x":169524.25000000093,"y":2545742.3300000019}},{"attributes":{"ID":236517,"DIS_CODE":0,"TOWNNAME":"官田區","LI":"東庄里","LIN":"16鄰","STREET":" ","SECT":" ","MAREA":"東庄","LANE":" ","ALLEY":" ","HOUSE_NO":"７號","E_COORD97":178605.06,"N_COORD97":2565371.3900000001,"ADDRESS":"東庄７號","OBJECTID":236513},"geometry":{"x":178605.05999999959,"y":2565371.3900000043}},{"attributes":{"ID":236518,"DIS_CODE":0,"TOWNNAME":"北區","LI":"光武里","LIN":"13鄰","STREET":"北門路","SECT":"二段","MAREA":" ","LANE":"５７７巷","ALLEY":" ","HOUSE_NO":"１５號四樓之１","E_COORD97":169524.25,"N_COORD97":2545742.3300000001,"ADDRESS":"北門路二段５７７巷１５號四樓之１","OBJECTID":236514},"geometry":{"x":169524.25000000093,"y":2545742.3300000019}},{"attributes":{"ID":236519,"DIS_CODE":0,"TOWNNAME":"北區","LI":"光武里","LIN":"13鄰","STREET":"北門路","SECT":"二段","MAREA":" ","LANE":"５７７巷","ALLEY":" ","HOUSE_NO":"１５號五樓之１","E_COORD97":169524.25,"N_COORD97":2545742.3300000001,"ADDRESS":"北門路二段５７７巷１５號五樓之１","OBJECTID":236515},"geometry":{"x":169524.25000000093,"y":2545742.3300000019}},{"attributes":{"ID":236520,"DIS_CODE":0,"TOWNNAME":"中西區","LI":"保安里","LIN":"14鄰","STREET":"中正路","SECT":" ","MAREA":" ","LANE":" ","ALLEY":" ","HOUSE_NO":"３１１號","E_COORD97":167503.29000000001,"N_COORD97":2543765.8100000001,"ADDRESS":"中正路３１１號","OBJECTID":236516},"geometry":{"x":167503.29000000097,"y":2543765.8100000024}},{"attributes":{"ID":236521,"DIS_CODE":0,"TOWNNAME":"中西區","LI":"保安里","LIN":"14鄰","STREET":"中正路","SECT":" ","MAREA":" ","LANE":" ","ALLEY":" ","HOUSE_NO":"３１５號","E_COORD97":167489.73000000001,"N_COORD97":2543761.6600000001,"ADDRESS":"中正路３１５號","OBJECTID":236517},"geometry":{"x":167489.73000000045,"y":2543761.6600000001}},{"attributes":{"ID":236522,"DIS_CODE":0,"TOWNNAME":"安南區","LI":"淵中里","LIN":"16鄰","STREET":"本田路","SECT":"三段","MAREA":" ","LANE":" ","ALLEY":" ","HOUSE_NO":"６８８號","E_COORD97":164954.52502199999,"N_COORD97":2549853.4068700001,"ADDRESS":"本田路三段６８８號","OBJECTID":236518},"geometry":{"x":164954.52502200101,"y":2549853.4068730008}},{"attributes":{"ID":236523,"DIS_CODE":0,"TOWNNAME":"東區","LI":"富強里","LIN":"16鄰","STREET":"裕農路","SECT":" ","MAREA":" ","LANE":"２８８巷","ALLEY":" ","HOUSE_NO":"１４８號","E_COORD97":171059.54999999999,"N_COORD97":2542891.71,"ADDRESS":"裕農路２８８巷１４８號","OBJECTID":236519},"geometry":{"x":171059.55000000075,"y":2542891.7100000028}},{"attributes":{"ID":236524,"DIS_CODE":0,"TOWNNAME":"東區","LI":"富強里","LIN":"16鄰","STREET":"裕農路","SECT":" ","MAREA":" ","LANE":"２８８巷","ALLEY":" ","HOUSE_NO":"１５０號","E_COORD97":171066.63,"N_COORD97":2542891.9700000002,"ADDRESS":"裕農路２８８巷１５０號","OBJECTID":236520},"geometry":{"x":171066.62999999989,"y":2542891.9700000007}},{"attributes":{"ID":236525,"DIS_CODE":0,"TOWNNAME":"官田區","LI":"東庄里","LIN":"16鄰","STREET":" ","SECT":" ","MAREA":"東庄","LANE":" ","ALLEY":" ","HOUSE_NO":"８號之１","E_COORD97":178485.72,"N_COORD97":2565333.2599999998,"ADDRESS":"東庄８號之１","OBJECTID":236521},"geometry":{"x":178485.71999999974,"y":2565333.2599999998}},{"attributes":{"ID":236526,"DIS_CODE":0,"TOWNNAME":"東區","LI":"富強里","LIN":"16鄰","STREET":"裕農路","SECT":" ","MAREA":" ","LANE":"２８８巷","ALLEY":" ","HOUSE_NO":"１５４號","E_COORD97":171062.92000000001,"N_COORD97":2542882.3700000001,"ADDRESS":"裕農路２８８巷１５４號","OBJECTID":236522},"geometry":{"x":171062.91999999993,"y":2542882.370000001}},{"attributes":{"ID":236527,"DIS_CODE":0,"TOWNNAME":"北區","LI":"光武里","LIN":"13鄰","STREET":"北門路","SECT":"二段","MAREA":" ","LANE":"５７７巷","ALLEY":" ","HOUSE_NO":"１５號六樓之１","E_COORD97":169524.25,"N_COORD97":2545742.3300000001,"ADDRESS":"北門路二段５７７巷１５號六樓之１","OBJECTID":236523},"geometry":{"x":169524.25000000093,"y":2545742.3300000019}},{"attributes":{"ID":236528,"DIS_CODE":0,"TOWNNAME":"北區","LI":"光武里","LIN":"13鄰","STREET":"北門路","SECT":"二段","MAREA":" ","LANE":"５７７巷","ALLEY":" ","HOUSE_NO":"１５號七樓之１","E_COORD97":169524.25,"N_COORD97":2545742.3300000001,"ADDRESS":"北門路二段５７７巷１５號七樓之１","OBJECTID":236524},"geometry":{"x":169524.25000000093,"y":2545742.3300000019}},{"attributes":{"ID":236529,"DIS_CODE":0,"TOWNNAME":"北區","LI":"光武里","LIN":"13鄰","STREET":"北門路","SECT":"二段","MAREA":" ","LANE":"５７７巷","ALLEY":" ","HOUSE_NO":"１５號八樓之１","E_COORD97":169524.25,"N_COORD97":2545742.3300000001,"ADDRESS":"北門路二段５７７巷１５號八樓之１","OBJECTID":236525},"geometry":{"x":169524.25000000093,"y":2545742.3300000019}},{"attributes":{"ID":236530,"DIS_CODE":0,"TOWNNAME":"官田區","LI":"東庄里","LIN":"16鄰","STREET":" ","SECT":" ","MAREA":"東庄","LANE":" ","ALLEY":" ","HOUSE_NO":"９號之１","E_COORD97":178473.75,"N_COORD97":2565302.4100000001,"ADDRESS":"東庄９號之１","OBJECTID":236526},"geometry":{"x":178473.75,"y":2565302.4100000001}},{"attributes":{"ID":236531,"DIS_CODE":0,"TOWNNAME":"北區","LI":"光武里","LIN":"13鄰","STREET":"北門路","SECT":"二段","MAREA":" ","LANE":"５７７巷","ALLEY":" ","HOUSE_NO":"１５號九樓之１","E_COORD97":169524.25,"N_COORD97":2545742.3300000001,"ADDRESS":"北門路二段５７７巷１５號九樓之１","OBJECTID":236527},"geometry":{"x":169524.25000000093,"y":2545742.3300000019}},{"attributes":{"ID":236532,"DIS_CODE":0,"TOWNNAME":"北區","LI":"光武里","LIN":"13鄰","STREET":"北門路","SECT":"二段","MAREA":" ","LANE":"５７７巷","ALLEY":" ","HOUSE_NO":"１５號十樓之１","E_COORD97":169524.25,"N_COORD97":2545742.3300000001,"ADDRESS":"北門路二段５７７巷１５號十樓之１","OBJECTID":236528},"geometry":{"x":169524.25000000093,"y":2545742.3300000019}},{"attributes":{"ID":236533,"DIS_CODE":0,"TOWNNAME":"北區","LI":"光武里","LIN":"13鄰","STREET":"北門路","SECT":"二段","MAREA":" ","LANE":"５７７巷","ALLEY":" ","HOUSE_NO":"１５號三樓之２","E_COORD97":169524.25,"N_COORD97":2545742.3300000001,"ADDRESS":"北門路二段５７７巷１５號三樓之２","OBJECTID":236529},"geometry":{"x":169524.25000000093,"y":2545742.3300000019}},{"attributes":{"ID":236534,"DIS_CODE":0,"TOWNNAME":"北區","LI":"光武里","LIN":"13鄰","STREET":"北門路","SECT":"二段","MAREA":" ","LANE":"５７７巷","ALLEY":" ","HOUSE_NO":"１５號四樓之２","E_COORD97":169524.25,"N_COORD97":2545742.3300000001,"ADDRESS":"北門路二段５７７巷１５號四樓之２","OBJECTID":236530},"geometry":{"x":169524.25000000093,"y":2545742.3300000019}},{"attributes":{"ID":236535,"DIS_CODE":0,"TOWNNAME":"北區","LI":"光武里","LIN":"13鄰","STREET":"北門路","SECT":"二段","MAREA":" ","LANE":"５７７巷","ALLEY":" ","HOUSE_NO":"１５號五樓之２","E_COORD97":169524.25,"N_COORD97":2545742.3300000001,"ADDRESS":"北門路二段５７７巷１５號五樓之２","OBJECTID":236531},"geometry":{"x":169524.25000000093,"y":2545742.3300000019}},{"attributes":{"ID":236536,"DIS_CODE":0,"TOWNNAME":"北區","LI":"光武里","LIN":"13鄰","STREET":"北門路","SECT":"二段","MAREA":" ","LANE":"５７７巷","ALLEY":" ","HOUSE_NO":"１５號六樓之２","E_COORD97":169524.25,"N_COORD97":2545742.3300000001,"ADDRESS":"北門路二段５７７巷１５號六樓之２","OBJECTID":236532},"geometry":{"x":169524.25000000093,"y":2545742.3300000019}},{"attributes":{"ID":236537,"DIS_CODE":0,"TOWNNAME":"北區","LI":"光武里","LIN":"13鄰","STREET":"北門路","SECT":"二段","MAREA":" ","LANE":"５７７巷","ALLEY":" ","HOUSE_NO":"１５號七樓之２","E_COORD97":169524.25,"N_COORD97":2545742.3300000001,"ADDRESS":"北門路二段５７７巷１５號七樓之２","OBJECTID":236533},"geometry":{"x":169524.25000000093,"y":2545742.3300000019}},{"attributes":{"ID":236538,"DIS_CODE":0,"TOWNNAME":"北區","LI":"光武里","LIN":"13鄰","STREET":"北門路","SECT":"二段","MAREA":" ","LANE":"５７７巷","ALLEY":" ","HOUSE_NO":"１５號八樓之２","E_COORD97":169524.25,"N_COORD97":2545742.3300000001,"ADDRESS":"北門路二段５７７巷１５號八樓之２","OBJECTID":236534},"geometry":{"x":169524.25000000093,"y":2545742.3300000019}},{"attributes":{"ID":236539,"DIS_CODE":0,"TOWNNAME":"北區","LI":"光武里","LIN":"13鄰","STREET":"北門路","SECT":"二段","MAREA":" ","LANE":"５７７巷","ALLEY":" ","HOUSE_NO":"１５號九樓之２","E_COORD97":169524.25,"N_COORD97":2545742.3300000001,"ADDRESS":"北門路二段５７７巷１５號九樓之２","OBJECTID":236535},"geometry":{"x":169524.25000000093,"y":2545742.3300000019}},{"attributes":{"ID":236540,"DIS_CODE":0,"TOWNNAME":"中西區","LI":"保安里","LIN":"14鄰","STREET":"中正路","SECT":" ","MAREA":" ","LANE":" ","ALLEY":" ","HOUSE_NO":"３１７號","E_COORD97":167485.03,"N_COORD97":2543763.6000000001,"ADDRESS":"中正路３１７號","OBJECTID":236536},"geometry":{"x":167485.03000000119,"y":2543763.6000000015}},{"attributes":{"ID":236541,"DIS_CODE":0,"TOWNNAME":"中西區","LI":"保安里","LIN":"14鄰","STREET":"中正路","SECT":" ","MAREA":" ","LANE":" ","ALLEY":" ","HOUSE_NO":"３１９號","E_COORD97":167480.88,"N_COORD97":2543764.4199999999,"ADDRESS":"中正路３１９號","OBJECTID":236537},"geometry":{"x":167480.87999999989,"y":2543764.4200000018}},{"attributes":{"ID":236542,"DIS_CODE":0,"TOWNNAME":"中西區","LI":"郡西里","LIN":"14鄰","STREET":"康樂街","SECT":" ","MAREA":" ","LANE":" ","ALLEY":" ","HOUSE_NO":"２６號","E_COORD97":167373.70999999999,"N_COORD97":2543452.6299999999,"ADDRESS":"康樂街２６號","OBJECTID":236538},"geometry":{"x":167373.70999999996,"y":2543452.6300000027}},{"attributes":{"ID":236543,"DIS_CODE":0,"TOWNNAME":"中西區","LI":"郡西里","LIN":"14鄰","STREET":"康樂街","SECT":" ","MAREA":" ","LANE":" ","ALLEY":" ","HOUSE_NO":"３２號","E_COORD97":167376.64000000001,"N_COORD97":2543466.1699999999,"ADDRESS":"康樂街３２號","OBJECTID":236539},"geometry":{"x":167376.6400000006,"y":2543466.1699999999}},{"attributes":{"ID":236544,"DIS_CODE":0,"TOWNNAME":"中西區","LI":"郡西里","LIN":"14鄰","STREET":"康樂街","SECT":" ","MAREA":" ","LANE":" ","ALLEY":" ","HOUSE_NO":"３４號","E_COORD97":167377.37,"N_COORD97":2543469.4700000002,"ADDRESS":"康樂街３４號","OBJECTID":236540},"geometry":{"x":167377.37000000104,"y":2543469.4700000025}},{"attributes":{"ID":236545,"DIS_CODE":0,"TOWNNAME":"永康區","LI":"西橋里","LIN":"16鄰","STREET":"大橋三街","SECT":" ","MAREA":" ","LANE":"１０巷","ALLEY":" ","HOUSE_NO":"２１號","E_COORD97":170550.04000000001,"N_COORD97":2546341.6000000001,"ADDRESS":"大橋三街１０巷２１號","OBJECTID":236541},"geometry":{"x":170550.04000000004,"y":2546341.5999999996}},{"attributes":{"ID":236546,"DIS_CODE":0,"TOWNNAME":"北區","LI":"光武里","LIN":"13鄰","STREET":"北門路","SECT":"二段","MAREA":" ","LANE":"５７７巷","ALLEY":" ","HOUSE_NO":"１５號十樓之２","E_COORD97":169524.25,"N_COORD97":2545742.3300000001,"ADDRESS":"北門路二段５７７巷１５號十樓之２","OBJECTID":236542},"geometry":{"x":169524.25000000093,"y":2545742.3300000019}},{"attributes":{"ID":236547,"DIS_CODE":0,"TOWNNAME":"北區","LI":"光武里","LIN":"13鄰","STREET":"北門路","SECT":"二段","MAREA":" ","LANE":"５７７巷","ALLEY":" ","HOUSE_NO":"１７號三樓之１","E_COORD97":169520.44,"N_COORD97":2545761.7000000002,"ADDRESS":"北門路二段５７７巷１７號三樓之１","OBJECTID":236543},"geometry":{"x":169520.44000000041,"y":2545761.7000000011}},{"attributes":{"ID":236548,"DIS_CODE":0,"TOWNNAME":"北區","LI":"光武里","LIN":"13鄰","STREET":"北門路","SECT":"二段","MAREA":" ","LANE":"５７７巷","ALLEY":" ","HOUSE_NO":"１７號四樓之１","E_COORD97":169520.44,"N_COORD97":2545761.7000000002,"ADDRESS":"北門路二段５７７巷１７號四樓之１","OBJECTID":236544},"geometry":{"x":169520.44000000041,"y":2545761.7000000011}},{"attributes":{"ID":236549,"DIS_CODE":0,"TOWNNAME":"北區","LI":"光武里","LIN":"13鄰","STREET":"北門路","SECT":"二段","MAREA":" ","LANE":"５７７巷","ALLEY":" ","HOUSE_NO":"１７號五樓之１","E_COORD97":169520.44,"N_COORD97":2545761.7000000002,"ADDRESS":"北門路二段５７７巷１７號五樓之１","OBJECTID":236545},"geometry":{"x":169520.44000000041,"y":2545761.7000000011}},{"attributes":{"ID":236550,"DIS_CODE":0,"TOWNNAME":"北區","LI":"光武里","LIN":"13鄰","STREET":"北門路","SECT":"二段","MAREA":" ","LANE":"５７７巷","ALLEY":" ","HOUSE_NO":"１７號六樓之１","E_COORD97":169520.44,"N_COORD97":2545761.7000000002,"ADDRESS":"北門路二段５７７巷１７號六樓之１","OBJECTID":236546},"geometry":{"x":169520.44000000041,"y":2545761.7000000011}},{"attributes":{"ID":236551,"DIS_CODE":0,"TOWNNAME":"中西區","LI":"郡西里","LIN":"14鄰","STREET":"康樂街","SECT":" ","MAREA":" ","LANE":" ","ALLEY":" ","HOUSE_NO":"３８號","E_COORD97":167377.62,"N_COORD97":2543472.5099999998,"ADDRESS":"康樂街３８號","OBJECTID":236547},"geometry":{"x":167377.62000000104,"y":2543472.5100000016}},{"attributes":{"ID":236552,"DIS_CODE":0,"TOWNNAME":"官田區","LI":"東庄里","LIN":"16鄰","STREET":" ","SECT":" ","MAREA":"東庄","LANE":" ","ALLEY":" ","HOUSE_NO":"１號","E_COORD97":178503.20999999999,"N_COORD97":2565237.71,"ADDRESS":"東庄１號","OBJECTID":236548},"geometry":{"x":178503.20999999903,"y":2565237.7100000028}},{"attributes":{"ID":236553,"DIS_CODE":0,"TOWNNAME":"官田區","LI":"東庄里","LIN":"16鄰","STREET":" ","SECT":" ","MAREA":"東庄","LANE":" ","ALLEY":" ","HOUSE_NO":"２號之１","E_COORD97":178459.29999999999,"N_COORD97":2565250.9100000001,"ADDRESS":"東庄２號之１","OBJECTID":236549},"geometry":{"x":178459.30000000075,"y":2565250.9100000001}},{"attributes":{"ID":236554,"DIS_CODE":0,"TOWNNAME":"官田區","LI":"東庄里","LIN":"16鄰","STREET":" ","SECT":" ","MAREA":"東庄","LANE":" ","ALLEY":" ","HOUSE_NO":"２號","E_COORD97":178485.42000000001,"N_COORD97":2565233.2200000002,"ADDRESS":"東庄２號","OBJECTID":236550},"geometry":{"x":178485.42000000086,"y":2565233.2200000007}},{"attributes":{"ID":236555,"DIS_CODE":0,"TOWNNAME":"官田區","LI":"東庄里","LIN":"16鄰","STREET":" ","SECT":" ","MAREA":"東庄","LANE":" ","ALLEY":" ","HOUSE_NO":"３號","E_COORD97":178440.07000000001,"N_COORD97":2565271.5299999998,"ADDRESS":"東庄３號","OBJECTID":236551},"geometry":{"x":178440.0700000003,"y":2565271.5300000012}},{"attributes":{"ID":236556,"DIS_CODE":0,"TOWNNAME":"官田區","LI":"東庄里","LIN":"16鄰","STREET":" ","SECT":" ","MAREA":"東庄","LANE":" ","ALLEY":" ","HOUSE_NO":"６號之６","E_COORD97":178513.29999999999,"N_COORD97":2565285.2599999998,"ADDRESS":"東庄６號之６","OBJECTID":236552},"geometry":{"x":178513.30000000075,"y":2565285.2599999998}},{"attributes":{"ID":236557,"DIS_CODE":0,"TOWNNAME":"官田區","LI":"東庄里","LIN":"16鄰","STREET":" ","SECT":" ","MAREA":"東庄","LANE":" ","ALLEY":" ","HOUSE_NO":"５號之１","E_COORD97":178494.67000000001,"N_COORD97":2565320.1600000001,"ADDRESS":"東庄５號之１","OBJECTID":236553},"geometry":{"x":178494.66999999993,"y":2565320.1600000001}},{"attributes":{"ID":236558,"DIS_CODE":0,"TOWNNAME":"官田區","LI":"東庄里","LIN":"16鄰","STREET":" ","SECT":" ","MAREA":"東庄","LANE":" ","ALLEY":" ","HOUSE_NO":"５號之２","E_COORD97":178518.37,"N_COORD97":2565317.52,"ADDRESS":"東庄５號之２","OBJECTID":236554},"geometry":{"x":178518.37000000104,"y":2565317.5199999996}},{"attributes":{"ID":236559,"DIS_CODE":0,"TOWNNAME":"官田區","LI":"東庄里","LIN":"16鄰","STREET":" ","SECT":" ","MAREA":"東庄","LANE":" ","ALLEY":" ","HOUSE_NO":"５號","E_COORD97":178502.79999999999,"N_COORD97":2565308.1000000001,"ADDRESS":"東庄５號","OBJECTID":236555},"geometry":{"x":178502.80000000075,"y":2565308.1000000034}},{"attributes":{"ID":236560,"DIS_CODE":0,"TOWNNAME":"官田區","LI":"東庄里","LIN":"16鄰","STREET":" ","SECT":" ","MAREA":"東庄","LANE":" ","ALLEY":" ","HOUSE_NO":"６號之２","E_COORD97":178520.07000000001,"N_COORD97":2565310.29,"ADDRESS":"東庄６號之２","OBJECTID":236556},"geometry":{"x":178520.07000000123,"y":2565310.290000001}},{"attributes":{"ID":236561,"DIS_CODE":0,"TOWNNAME":"官田區","LI":"東庄里","LIN":"16鄰","STREET":" ","SECT":" ","MAREA":"東庄","LANE":" ","ALLEY":" ","HOUSE_NO":"６號","E_COORD97":178521.76000000001,"N_COORD97":2565293.8799999999,"ADDRESS":"東庄６號","OBJECTID":236557},"geometry":{"x":178521.76000000071,"y":2565293.879999999}},{"attributes":{"ID":236562,"DIS_CODE":0,"TOWNNAME":"官田區","LI":"東庄里","LIN":"16鄰","STREET":" ","SECT":" ","MAREA":"東庄","LANE":" ","ALLEY":" ","HOUSE_NO":"７號之１","E_COORD97":178793.54000000001,"N_COORD97":2565519.6299999999,"ADDRESS":"東庄７號之１","OBJECTID":236558},"geometry":{"x":178793.54000000097,"y":2565519.629999999}},{"attributes":{"ID":236563,"DIS_CODE":0,"TOWNNAME":"官田區","LI":"東庄里","LIN":"16鄰","STREET":" ","SECT":" ","MAREA":"東庄","LANE":" ","ALLEY":" ","HOUSE_NO":"７號之３","E_COORD97":178646.45999999999,"N_COORD97":2565380.29,"ADDRESS":"東庄７號之３","OBJECTID":236559},"geometry":{"x":178646.46000000089,"y":2565380.2899999991}},{"attributes":{"ID":236564,"DIS_CODE":0,"TOWNNAME":"北區","LI":"光武里","LIN":"13鄰","STREET":"北門路","SECT":"二段","MAREA":" ","LANE":"５７７巷","ALLEY":" ","HOUSE_NO":"１７號七樓之１","E_COORD97":169520.44,"N_COORD97":2545761.7000000002,"ADDRESS":"北門路二段５７７巷１７號七樓之１","OBJECTID":236560},"geometry":{"x":169520.44000000041,"y":2545761.7000000011}},{"attributes":{"ID":236565,"DIS_CODE":0,"TOWNNAME":"北區","LI":"光武里","LIN":"13鄰","STREET":"北門路","SECT":"二段","MAREA":" ","LANE":"５７７巷","ALLEY":" ","HOUSE_NO":"１７號八樓之１","E_COORD97":169520.44,"N_COORD97":2545761.7000000002,"ADDRESS":"北門路二段５７７巷１７號八樓之１","OBJECTID":236561},"geometry":{"x":169520.44000000041,"y":2545761.7000000011}},{"attributes":{"ID":236566,"DIS_CODE":0,"TOWNNAME":"北區","LI":"光武里","LIN":"13鄰","STREET":"北門路","SECT":"二段","MAREA":" ","LANE":"５７７巷","ALLEY":" ","HOUSE_NO":"１７號九樓之１","E_COORD97":169520.44,"N_COORD97":2545761.7000000002,"ADDRESS":"北門路二段５７７巷１７號九樓之１","OBJECTID":236562},"geometry":{"x":169520.44000000041,"y":2545761.7000000011}},{"attributes":{"ID":236567,"DIS_CODE":0,"TOWNNAME":"北區","LI":"光武里","LIN":"13鄰","STREET":"北門路","SECT":"二段","MAREA":" ","LANE":"５７７巷","ALLEY":" ","HOUSE_NO":"１７號十樓之１","E_COORD97":169520.44,"N_COORD97":2545761.7000000002,"ADDRESS":"北門路二段５７７巷１７號十樓之１","OBJECTID":236563},"geometry":{"x":169520.44000000041,"y":2545761.7000000011}},{"attributes":{"ID":236568,"DIS_CODE":0,"TOWNNAME":"北區","LI":"光武里","LIN":"13鄰","STREET":"北門路","SECT":"二段","MAREA":" ","LANE":"５７７巷","ALLEY":" ","HOUSE_NO":"１７號三樓之２","E_COORD97":169520.44,"N_COORD97":2545761.7000000002,"ADDRESS":"北門路二段５７７巷１７號三樓之２","OBJECTID":236564},"geometry":{"x":169520.44000000041,"y":2545761.7000000011}},{"attributes":{"ID":236569,"DIS_CODE":0,"TOWNNAME":"北區","LI":"光武里","LIN":"13鄰","STREET":"北門路","SECT":"二段","MAREA":" ","LANE":"５７７巷","ALLEY":" ","HOUSE_NO":"１７號四樓之２","E_COORD97":169520.44,"N_COORD97":2545761.7000000002,"ADDRESS":"北門路二段５７７巷１７號四樓之２","OBJECTID":236565},"geometry":{"x":169520.44000000041,"y":2545761.7000000011}},{"attributes":{"ID":236570,"DIS_CODE":0,"TOWNNAME":"北區","LI":"光武里","LIN":"13鄰","STREET":"北門路","SECT":"二段","MAREA":" ","LANE":"５７７巷","ALLEY":" ","HOUSE_NO":"１７號五樓之２","E_COORD97":169520.44,"N_COORD97":2545761.7000000002,"ADDRESS":"北門路二段５７７巷１７號五樓之２","OBJECTID":236566},"geometry":{"x":169520.44000000041,"y":2545761.7000000011}},{"attributes":{"ID":236571,"DIS_CODE":0,"TOWNNAME":"北區","LI":"光武里","LIN":"13鄰","STREET":"北門路","SECT":"二段","MAREA":" ","LANE":"５７７巷","ALLEY":" ","HOUSE_NO":"１７號六樓之２","E_COORD97":169520.44,"N_COORD97":2545761.7000000002,"ADDRESS":"北門路二段５７７巷１７號六樓之２","OBJECTID":236567},"geometry":{"x":169520.44000000041,"y":2545761.7000000011}},{"attributes":{"ID":236572,"DIS_CODE":0,"TOWNNAME":"官田區","LI":"東庄里","LIN":"16鄰","STREET":" ","SECT":" ","MAREA":"東庄","LANE":" ","ALLEY":" ","HOUSE_NO":"７號之５","E_COORD97":178819.01000000001,"N_COORD97":2565433.71,"ADDRESS":"東庄７號之５","OBJECTID":236568},"geometry":{"x":178819.00999999978,"y":2565433.7100000009}},{"attributes":{"ID":236573,"DIS_CODE":0,"TOWNNAME":"官田區","LI":"東庄里","LIN":"16鄰","STREET":" ","SECT":" ","MAREA":"東庄","LANE":" ","ALLEY":" ","HOUSE_NO":"７號之６","E_COORD97":178599.98999999999,"N_COORD97":2565369.3500000001,"ADDRESS":"東庄７號之６","OBJECTID":236569},"geometry":{"x":178599.99000000209,"y":2565369.3499999996}},{"attributes":{"ID":236574,"DIS_CODE":0,"TOWNNAME":"安南區","LI":"淵中里","LIN":"16鄰","STREET":"本田路","SECT":"三段","MAREA":" ","LANE":" ","ALLEY":" ","HOUSE_NO":"６９０號","E_COORD97":164958.55097499999,"N_COORD97":2549856.1585400002,"ADDRESS":"本田路三段６９０號","OBJECTID":236570},"geometry":{"x":164958.55097499955,"y":2549856.1585380007}},{"attributes":{"ID":236575,"DIS_CODE":0,"TOWNNAME":"永康區","LI":"大橋里","LIN":"14鄰","STREET":"大橋二街","SECT":" ","MAREA":" ","LANE":" ","ALLEY":" ","HOUSE_NO":"３２號","E_COORD97":170785.97,"N_COORD97":2546552.71,"ADDRESS":"大橋二街３２號","OBJECTID":236571},"geometry":{"x":170785.96999999974,"y":2546552.7100000009}},{"attributes":{"ID":236576,"DIS_CODE":0,"TOWNNAME":"新化區","LI":"東榮里","LIN":"16鄰","STREET":"中興路","SECT":" ","MAREA":" ","LANE":"７２０巷","ALLEY":" ","HOUSE_NO":"９９號之５","E_COORD97":179610.70999999999,"N_COORD97":2548281.8700000001,"ADDRESS":"中興路７２０巷９９號之５","OBJECTID":236572},"geometry":{"x":179610.71000000089,"y":2548281.8700000029}},{"attributes":{"ID":236577,"DIS_CODE":0,"TOWNNAME":"安南區","LI":"幸福里","LIN":"16鄰","STREET":"府安路","SECT":"六段","MAREA":" ","LANE":"３７巷","ALLEY":" ","HOUSE_NO":"２１號","E_COORD97":166981.79999999999,"N_COORD97":2546730.0099999998,"ADDRESS":"府安路六段３７巷２１號","OBJECTID":236573},"geometry":{"x":166981.79999999981,"y":2546730.0100000016}},{"attributes":{"ID":236578,"DIS_CODE":0,"TOWNNAME":"安南區","LI":"海佃里","LIN":"16鄰","STREET":"國安街","SECT":" ","MAREA":" ","LANE":"５６巷","ALLEY":" ","HOUSE_NO":"１９９號","E_COORD97":166875.34,"N_COORD97":2547613.5299999998,"ADDRESS":"國安街５６巷１９９號","OBJECTID":236574},"geometry":{"x":166875.34000000078,"y":2547613.5299999975}},{"attributes":{"ID":236579,"DIS_CODE":0,"TOWNNAME":"安南區","LI":"海南里","LIN":"16鄰","STREET":"府安路","SECT":"七段","MAREA":" ","LANE":"１０２巷","ALLEY":" ","HOUSE_NO":"２１號","E_COORD97":165726.95000000001,"N_COORD97":2545873.9399999999,"ADDRESS":"府安路七段１０２巷２１號","OBJECTID":236575},"geometry":{"x":165726.95000000205,"y":2545873.9399999995}},{"attributes":{"ID":236580,"DIS_CODE":0,"TOWNNAME":"安南區","LI":"海南里","LIN":"16鄰","STREET":"府安路","SECT":"七段","MAREA":" ","LANE":"１０２巷","ALLEY":" ","HOUSE_NO":"１０號","E_COORD97":165776.87,"N_COORD97":2545843.8799999999,"ADDRESS":"府安路七段１０２巷１０號","OBJECTID":236576},"geometry":{"x":165776.87000000104,"y":2545843.879999999}},{"attributes":{"ID":236581,"DIS_CODE":0,"TOWNNAME":"關廟區","LI":"下湖里","LIN":"7鄰","STREET":"關新一街","SECT":" ","MAREA":" ","LANE":"１６８巷","ALLEY":" ","HOUSE_NO":"１３５號","E_COORD97":180646.78831,"N_COORD97":2542534.8151099999,"ADDRESS":"關新一街１６８巷１３５號","OBJECTID":236577},"geometry":{"x":180646.78830999881,"y":2542534.8151100017}},{"attributes":{"ID":236582,"DIS_CODE":0,"TOWNNAME":"安南區","LI":"海南里","LIN":"16鄰","STREET":"府安路","SECT":"七段","MAREA":" ","LANE":"１０２巷","ALLEY":" ","HOUSE_NO":"１２號","E_COORD97":165771.73999999999,"N_COORD97":2545851.7000000002,"ADDRESS":"府安路七段１０２巷１２號","OBJECTID":236578},"geometry":{"x":165771.74000000022,"y":2545851.6999999993}},{"attributes":{"ID":236583,"DIS_CODE":0,"TOWNNAME":"安南區","LI":"海南里","LIN":"16鄰","STREET":"府安路","SECT":"七段","MAREA":" ","LANE":"１０２巷","ALLEY":" ","HOUSE_NO":"１４號","E_COORD97":165766.64000000001,"N_COORD97":2545857.8900000001,"ADDRESS":"府安路七段１０２巷１４號","OBJECTID":236579},"geometry":{"x":165766.6400000006,"y":2545857.8900000025}},{"attributes":{"ID":236584,"DIS_CODE":0,"TOWNNAME":"安南區","LI":"海南里","LIN":"16鄰","STREET":"府安路","SECT":"七段","MAREA":" ","LANE":"１０２巷","ALLEY":" ","HOUSE_NO":"６號","E_COORD97":165786.75,"N_COORD97":2545830.0800000001,"ADDRESS":"府安路七段１０２巷６號","OBJECTID":236580},"geometry":{"x":165786.75,"y":2545830.0800000001}},{"attributes":{"ID":236585,"DIS_CODE":0,"TOWNNAME":"北區","LI":"光武里","LIN":"13鄰","STREET":"北門路","SECT":"二段","MAREA":" ","LANE":"５７７巷","ALLEY":" ","HOUSE_NO":"１７號七樓之２","E_COORD97":169520.44,"N_COORD97":2545761.7000000002,"ADDRESS":"北門路二段５７７巷１７號七樓之２","OBJECTID":236581},"geometry":{"x":169520.44000000041,"y":2545761.7000000011}},{"attributes":{"ID":236586,"DIS_CODE":0,"TOWNNAME":"北區","LI":"光武里","LIN":"13鄰","STREET":"北門路","SECT":"二段","MAREA":" ","LANE":"５７７巷","ALLEY":" ","HOUSE_NO":"１７號八樓之２","E_COORD97":169520.44,"N_COORD97":2545761.7000000002,"ADDRESS":"北門路二段５７７巷１７號八樓之２","OBJECTID":236582},"geometry":{"x":169520.44000000041,"y":2545761.7000000011}},{"attributes":{"ID":236587,"DIS_CODE":0,"TOWNNAME":"北區","LI":"光武里","LIN":"13鄰","STREET":"北門路","SECT":"二段","MAREA":" ","LANE":"５７７巷","ALLEY":" ","HOUSE_NO":"１７號九樓之２","E_COORD97":169520.44,"N_COORD97":2545761.7000000002,"ADDRESS":"北門路二段５７７巷１７號九樓之２","OBJECTID":236583},"geometry":{"x":169520.44000000041,"y":2545761.7000000011}},{"attributes":{"ID":236588,"DIS_CODE":0,"TOWNNAME":"北區","LI":"光武里","LIN":"13鄰","STREET":"北門路","SECT":"二段","MAREA":" ","LANE":"５７７巷","ALLEY":" ","HOUSE_NO":"１７號十樓之２","E_COORD97":169520.44,"N_COORD97":2545761.7000000002,"ADDRESS":"北門路二段５７７巷１７號十樓之２","OBJECTID":236584},"geometry":{"x":169520.44000000041,"y":2545761.7000000011}},{"attributes":{"ID":236589,"DIS_CODE":0,"TOWNNAME":"北區","LI":"光武里","LIN":"13鄰","STREET":"北門路","SECT":"二段","MAREA":" ","LANE":"５７７巷","ALLEY":" ","HOUSE_NO":"１７號十一樓之１","E_COORD97":169520.44,"N_COORD97":2545761.7000000002,"ADDRESS":"北門路二段５７７巷１７號十一樓之１","OBJECTID":236585},"geometry":{"x":169520.44000000041,"y":2545761.7000000011}},{"attributes":{"ID":236590,"DIS_CODE":0,"TOWNNAME":"北區","LI":"光武里","LIN":"13鄰","STREET":"北門路","SECT":"二段","MAREA":" ","LANE":"５７７巷","ALLEY":" ","HOUSE_NO":"１７號十一樓之２","E_COORD97":169520.44,"N_COORD97":2545761.7000000002,"ADDRESS":"北門路二段５７７巷１７號十一樓之２","OBJECTID":236586},"geometry":{"x":169520.44000000041,"y":2545761.7000000011}},{"attributes":{"ID":236591,"DIS_CODE":0,"TOWNNAME":"北區","LI":"振興里","LIN":"13鄰","STREET":"開元路","SECT":" ","MAREA":" ","LANE":"２１２巷","ALLEY":" ","HOUSE_NO":"５４號七樓之１","E_COORD97":170282.53,"N_COORD97":2545182.5600000001,"ADDRESS":"開元路２１２巷５４號七樓之１","OBJECTID":236587},"geometry":{"x":170282.53000000026,"y":2545182.5600000005}},{"attributes":{"ID":236592,"DIS_CODE":0,"TOWNNAME":"新市區","LI":"新市里","LIN":"14鄰","STREET":"中正路","SECT":" ","MAREA":" ","LANE":" ","ALLEY":" ","HOUSE_NO":"３１９之１號","E_COORD97":177654.32000000001,"N_COORD97":2553269.7999999998,"ADDRESS":"中正路３１９之１號","OBJECTID":236588},"geometry":{"x":177654.32000000123,"y":2553269.8000000026}},{"attributes":{"ID":236593,"DIS_CODE":0,"TOWNNAME":"新市區","LI":"新市里","LIN":"14鄰","STREET":"中正路","SECT":" ","MAREA":" ","LANE":" ","ALLEY":" ","HOUSE_NO":"３１３號","E_COORD97":177631.82000000001,"N_COORD97":2553261.5,"ADDRESS":"中正路３１３號","OBJECTID":236589},"geometry":{"x":177631.82000000123,"y":2553261.5}},{"attributes":{"ID":236594,"DIS_CODE":0,"TOWNNAME":"新市區","LI":"新市里","LIN":"14鄰","STREET":"中正路","SECT":" ","MAREA":" ","LANE":" ","ALLEY":" ","HOUSE_NO":"３２１之１號","E_COORD97":177676.76000000001,"N_COORD97":2553278.7999999998,"ADDRESS":"中正路３２１之１號","OBJECTID":236590},"geometry":{"x":177676.75999999978,"y":2553278.8000000045}},{"attributes":{"ID":236595,"DIS_CODE":0,"TOWNNAME":"歸仁區","LI":"看西里","LIN":"5鄰","STREET":"仁愛十街","SECT":" ","MAREA":" ","LANE":" ","ALLEY":" ","HOUSE_NO":"５１號","E_COORD97":178183.35000000001,"N_COORD97":2540317.4900000002,"ADDRESS":"仁愛十街５１號","OBJECTID":236591},"geometry":{"x":178183.35000000149,"y":2540317.4900000002}},{"attributes":{"ID":236596,"DIS_CODE":0,"TOWNNAME":"歸仁區","LI":"許厝里","LIN":"8鄰","STREET":"仁愛南街","SECT":" ","MAREA":" ","LANE":" ","ALLEY":" ","HOUSE_NO":"５２號","E_COORD97":178259.32999999999,"N_COORD97":2540531.25,"ADDRESS":"仁愛南街５２號","OBJECTID":236592},"geometry":{"x":178259.33000000101,"y":2540531.2500000019}},{"attributes":{"ID":236597,"DIS_CODE":0,"TOWNNAME":"歸仁區","LI":"崙頂里","LIN":"16鄰","STREET":"崙頂一街","SECT":" ","MAREA":" ","LANE":" ","ALLEY":" ","HOUSE_NO":"７號","E_COORD97":177912.56,"N_COORD97":2539998.1099999999,"ADDRESS":"崙頂一街７號","OBJECTID":236593},"geometry":{"x":177912.56000000052,"y":2539998.1099999994}},{"attributes":{"ID":236598,"DIS_CODE":0,"TOWNNAME":"東區","LI":"裕農里","LIN":"14鄰","STREET":"裕豐街","SECT":" ","MAREA":" ","LANE":" ","ALLEY":" ","HOUSE_NO":"２１８號之４","E_COORD97":170797.45000000001,"N_COORD97":2543188.7799999998,"ADDRESS":"裕豐街２１８號之４","OBJECTID":236594},"geometry":{"x":170797.45000000112,"y":2543188.7800000012}},{"attributes":{"ID":236599,"DIS_CODE":0,"TOWNNAME":"歸仁區","LI":"崙頂里","LIN":"18鄰","STREET":"大成一街","SECT":" ","MAREA":" ","LANE":" ","ALLEY":" ","HOUSE_NO":"９９號","E_COORD97":177895.67999999999,"N_COORD97":2540194.9100000001,"ADDRESS":"大成一街９９號","OBJECTID":236595},"geometry":{"x":177895.6799999997,"y":2540194.910000002}},{"attributes":{"ID":236600,"DIS_CODE":0,"TOWNNAME":"歸仁區","LI":"辜厝里","LIN":"40鄰","STREET":"中正南路","SECT":"一段","MAREA":" ","LANE":" ","ALLEY":" ","HOUSE_NO":"２８２號","E_COORD97":177236.44,"N_COORD97":2540280.9500000002,"ADDRESS":"中正南路一段２８２號","OBJECTID":236596},"geometry":{"x":177236.44000000134,"y":2540280.950000003}},{"attributes":{"ID":236601,"DIS_CODE":0,"TOWNNAME":"新市區","LI":"新和里","LIN":"14鄰","STREET":"忠孝街","SECT":" ","MAREA":" ","LANE":" ","ALLEY":" ","HOUSE_NO":"１１０號","E_COORD97":177699.48000000001,"N_COORD97":2552605,"ADDRESS":"忠孝街１１０號","OBJECTID":236597},"geometry":{"x":177699.48000000045,"y":2552605}},{"attributes":{"ID":236602,"DIS_CODE":0,"TOWNNAME":"安南區","LI":"海南里","LIN":"16鄰","STREET":"府安路","SECT":"七段","MAREA":" ","LANE":"９３巷","ALLEY":" ","HOUSE_NO":"１５號","E_COORD97":165776.39000000001,"N_COORD97":2545867.6000000001,"ADDRESS":"府安路七段９３巷１５號","OBJECTID":236598},"geometry":{"x":165776.3900000006,"y":2545867.6000000034}},{"attributes":{"ID":236603,"DIS_CODE":0,"TOWNNAME":"安南區","LI":"海南里","LIN":"16鄰","STREET":"府安路","SECT":"七段","MAREA":" ","LANE":"９３巷","ALLEY":" ","HOUSE_NO":"１７號","E_COORD97":165773.38,"N_COORD97":2545873.5299999998,"ADDRESS":"府安路七段９３巷１７號","OBJECTID":236599},"geometry":{"x":165773.38000000082,"y":2545873.5299999993}},{"attributes":{"ID":236604,"DIS_CODE":0,"TOWNNAME":"北區","LI":"振興里","LIN":"13鄰","STREET":"開元路","SECT":" ","MAREA":" ","LANE":"２１２巷","ALLEY":" ","HOUSE_NO":"５４號七樓之２","E_COORD97":170282.53,"N_COORD97":2545182.5600000001,"ADDRESS":"開元路２１２巷５４號七樓之２","OBJECTID":236600},"geometry":{"x":170282.53000000026,"y":2545182.5600000005}}]}