{"displayFieldName":"TOWNNAME","fieldAliases":{"ID":"ID","DIS_CODE":"DIS_CODE","TOWNNAME":"TOWNNAME","LI":"LI","LIN":"LIN","STREET":"STREET","SECT":"SECT","MAREA":"MAREA","LANE":"LANE","ALLEY":"ALLEY","HOUSE_NO":"HOUSE_NO","E_COORD97":"E_COORD97","N_COORD97":"N_COORD97","ADDRESS":"ADDRESS","OBJECTID":"OBJECTID"},"geometryType":"esriGeometryPoint","spatialReference":{"wkid":102443,"latestWkid":3826},"fields":[{"name":"ID","type":"esriFieldTypeDouble","alias":"ID"},{"name":"DIS_CODE","type":"esriFieldTypeInteger","alias":"DIS_CODE"},{"name":"TOWNNAME","type":"esriFieldTypeString","alias":"TOWNNAME","length":8},{"name":"LI","type":"esriFieldTypeString","alias":"LI","length":8},{"name":"LIN","type":"esriFieldTypeString","alias":"LIN","length":12},{"name":"STREET","type":"esriFieldTypeString","alias":"STREET","length":20},{"name":"SECT","type":"esriFieldTypeString","alias":"SECT","length":8},{"name":"MAREA","type":"esriFieldTypeString","alias":"MAREA","length":12},{"name":"LANE","type":"esriFieldTypeString","alias":"LANE","length":10},{"name":"ALLEY","type":"esriFieldTypeString","alias":"ALLEY","length":10},{"name":"HOUSE_NO","type":"esriFieldTypeString","alias":"HOUSE_NO","length":20},{"name":"E_COORD97","type":"esriFieldTypeDouble","alias":"E_COORD97"},{"name":"N_COORD97","type":"esriFieldTypeDouble","alias":"N_COORD97"},{"name":"ADDRESS","type":"esriFieldTypeString","alias":"ADDRESS","length":50},{"name":"OBJECTID","type":"esriFieldTypeOID","alias":"OBJECTID"}],"features":[{"attributes":{"ID":16401,"DIS_CODE":0,"TOWNNAME":"永康區","LI":"三合里","LIN":"24鄰","STREET":"南工街","SECT":" ","MAREA":" ","LANE":"３１１巷","ALLEY":"４３弄","HOUSE_NO":"２０號","E_COORD97":171835.54999999999,"N_COORD97":2545885.1800000002,"ADDRESS":"南工街３１１巷４３弄２０號","OBJECTID":16401},"geometry":{"x":171835.55000000075,"y":2545885.1800000016}},{"attributes":{"ID":16402,"DIS_CODE":0,"TOWNNAME":"北區","LI":" ","LIN":" ","STREET":"北門路","SECT":"二段","MAREA":" ","LANE":"５２７巷","ALLEY":" ","HOUSE_NO":"５號","E_COORD97":169612.04000000001,"N_COORD97":2545606.1200000001,"ADDRESS":"北門路二段５２７巷５號","OBJECTID":16402},"geometry":{"x":169612.04000000097,"y":2545606.1200000029}},{"attributes":{"ID":16403,"DIS_CODE":0,"TOWNNAME":"玉井區","LI":"玉田里","LIN":"40鄰","STREET":"中山路","SECT":" ","MAREA":" ","LANE":" ","ALLEY":" ","HOUSE_NO":"２２４號","E_COORD97":195211.64999999999,"N_COORD97":2557725.5,"ADDRESS":"中山路２２４號","OBJECTID":16403},"geometry":{"x":195211.65000000037,"y":2557725.5000000019}},{"attributes":{"ID":16404,"DIS_CODE":0,"TOWNNAME":"玉井區","LI":"玉田里","LIN":"40鄰","STREET":"中山路","SECT":" ","MAREA":" ","LANE":" ","ALLEY":" ","HOUSE_NO":"２２０號","E_COORD97":195189.59,"N_COORD97":2557721,"ADDRESS":"中山路２２０號","OBJECTID":16404},"geometry":{"x":195189.58999999985,"y":2557721}},{"attributes":{"ID":16405,"DIS_CODE":0,"TOWNNAME":"玉井區","LI":"玉田里","LIN":"40鄰","STREET":"中山路","SECT":" ","MAREA":" ","LANE":" ","ALLEY":" ","HOUSE_NO":"２３２號","E_COORD97":195234.06,"N_COORD97":2557728.25,"ADDRESS":"中山路２３２號","OBJECTID":16405},"geometry":{"x":195234.06000000052,"y":2557728.25}},{"attributes":{"ID":16406,"DIS_CODE":0,"TOWNNAME":"玉井區","LI":"玉田里","LIN":"40鄰","STREET":"中山路","SECT":" ","MAREA":" ","LANE":" ","ALLEY":" ","HOUSE_NO":"２２６號","E_COORD97":195217.64999999999,"N_COORD97":2557727,"ADDRESS":"中山路２２６號","OBJECTID":16406},"geometry":{"x":195217.6500000013,"y":2557727}},{"attributes":{"ID":16407,"DIS_CODE":0,"TOWNNAME":"玉井區","LI":"玉田里","LIN":"40鄰","STREET":"中山路","SECT":" ","MAREA":" ","LANE":" ","ALLEY":" ","HOUSE_NO":"２１０號","E_COORD97":195181.23999999999,"N_COORD97":2557719.5,"ADDRESS":"中山路２１０號","OBJECTID":16407},"geometry":{"x":195181.24000000115,"y":2557719.5000000019}},{"attributes":{"ID":16408,"DIS_CODE":0,"TOWNNAME":"北區","LI":"成德里","LIN":"40鄰","STREET":"育德三街","SECT":" ","MAREA":" ","LANE":" ","ALLEY":" ","HOUSE_NO":"２２２號","E_COORD97":168152.95999999999,"N_COORD97":2546383.2799999998,"ADDRESS":"育德三街２２２號","OBJECTID":16408},"geometry":{"x":168152.96000000089,"y":2546383.2799999993}},{"attributes":{"ID":16409,"DIS_CODE":0,"TOWNNAME":"北區","LI":"成德里","LIN":"40鄰","STREET":"育德三街","SECT":" ","MAREA":" ","LANE":" ","ALLEY":" ","HOUSE_NO":"２２６號","E_COORD97":168152.01000000001,"N_COORD97":2546389.48,"ADDRESS":"育德三街２２６號","OBJECTID":16409},"geometry":{"x":168152.01000000164,"y":2546389.4800000023}},{"attributes":{"ID":16410,"DIS_CODE":0,"TOWNNAME":"永康區","LI":"復興里","LIN":"24鄰","STREET":"復興路","SECT":" ","MAREA":" ","LANE":"３５６巷","ALLEY":"８０弄","HOUSE_NO":"８５號","E_COORD97":172459.44,"N_COORD97":2544613.6600000001,"ADDRESS":"復興路３５６巷８０弄８５號","OBJECTID":16410},"geometry":{"x":172459.44000000134,"y":2544613.660000002}},{"attributes":{"ID":16411,"DIS_CODE":0,"TOWNNAME":"玉井區","LI":"竹圍里","LIN":"14鄰","STREET":" ","SECT":" ","MAREA":"竹圍","LANE":" ","ALLEY":" ","HOUSE_NO":"１３９之１４號","E_COORD97":197008.31,"N_COORD97":2560147.04,"ADDRESS":"竹圍１３９之１４號","OBJECTID":16411},"geometry":{"x":197008.30999999959,"y":2560147.0399999991}},{"attributes":{"ID":16412,"DIS_CODE":0,"TOWNNAME":"玉井區","LI":"豐里里","LIN":"14鄰","STREET":" ","SECT":" ","MAREA":"豐里","LANE":" ","ALLEY":" ","HOUSE_NO":"１４３號","E_COORD97":193392.72,"N_COORD97":2561275.2400000002,"ADDRESS":"豐里１４３號","OBJECTID":16412},"geometry":{"x":193392.72000000067,"y":2561275.2400000002}},{"attributes":{"ID":16413,"DIS_CODE":0,"TOWNNAME":"永康區","LI":"復興里","LIN":"24鄰","STREET":"復興路","SECT":" ","MAREA":" ","LANE":"３５６巷","ALLEY":"８０弄","HOUSE_NO":"１９號","E_COORD97":172403.01000000001,"N_COORD97":2544577.0299999998,"ADDRESS":"復興路３５６巷８０弄１９號","OBJECTID":16413},"geometry":{"x":172403.00999999978,"y":2544577.0300000012}},{"attributes":{"ID":16414,"DIS_CODE":0,"TOWNNAME":"永康區","LI":"西勢里","LIN":"24鄰","STREET":"廣興街","SECT":" ","MAREA":" ","LANE":"３８巷","ALLEY":"２５弄","HOUSE_NO":"２６號","E_COORD97":176053.14999999999,"N_COORD97":2546489.8799999999,"ADDRESS":"廣興街３８巷２５弄２６號","OBJECTID":16414},"geometry":{"x":176053.1500000013,"y":2546489.8800000008}},{"attributes":{"ID":16415,"DIS_CODE":0,"TOWNNAME":"永康區","LI":"復興里","LIN":"24鄰","STREET":"復興路","SECT":" ","MAREA":" ","LANE":"３５６巷","ALLEY":"８０弄","HOUSE_NO":"７號","E_COORD97":172379.26000000001,"N_COORD97":2544555.5299999998,"ADDRESS":"復興路３５６巷８０弄７號","OBJECTID":16415},"geometry":{"x":172379.25999999978,"y":2544555.5300000031}},{"attributes":{"ID":16416,"DIS_CODE":0,"TOWNNAME":"玉井區","LI":"豐里里","LIN":"14鄰","STREET":" ","SECT":" ","MAREA":"豐里","LANE":" ","ALLEY":" ","HOUSE_NO":"１４６號之２","E_COORD97":193427.39000000001,"N_COORD97":2561640.2999999998,"ADDRESS":"豐里１４６號之２","OBJECTID":16416},"geometry":{"x":193427.38999999966,"y":2561640.3000000026}},{"attributes":{"ID":16417,"DIS_CODE":0,"TOWNNAME":"玉井區","LI":"竹圍里","LIN":"14鄰","STREET":" ","SECT":" ","MAREA":"竹圍","LANE":" ","ALLEY":" ","HOUSE_NO":"１４２號","E_COORD97":197090.97,"N_COORD97":2560020.5499999998,"ADDRESS":"竹圍１４２號","OBJECTID":16417},"geometry":{"x":197090.97000000067,"y":2560020.5500000045}},{"attributes":{"ID":16418,"DIS_CODE":0,"TOWNNAME":"玉井區","LI":"豐里里","LIN":"14鄰","STREET":" ","SECT":" ","MAREA":"豐里","LANE":" ","ALLEY":" ","HOUSE_NO":"１５０號","E_COORD97":193860.82000000001,"N_COORD97":2562288.25,"ADDRESS":"豐里１５０號","OBJECTID":16418},"geometry":{"x":193860.8200000003,"y":2562288.25}},{"attributes":{"ID":16419,"DIS_CODE":0,"TOWNNAME":"玉井區","LI":"豐里里","LIN":"14鄰","STREET":" ","SECT":" ","MAREA":"豐里","LANE":" ","ALLEY":" ","HOUSE_NO":"１４９號之５","E_COORD97":193312,"N_COORD97":2562072.2999999998,"ADDRESS":"豐里１４９號之５","OBJECTID":16419},"geometry":{"x":193312,"y":2562072.3000000007}},{"attributes":{"ID":16420,"DIS_CODE":0,"TOWNNAME":"玉井區","LI":"豐里里","LIN":"14鄰","STREET":" ","SECT":" ","MAREA":"豐里","LANE":" ","ALLEY":" ","HOUSE_NO":"１４２之１號","E_COORD97":193441.51000000001,"N_COORD97":2561275.29,"ADDRESS":"豐里１４２之１號","OBJECTID":16420},"geometry":{"x":193441.51000000071,"y":2561275.290000001}},{"attributes":{"ID":16421,"DIS_CODE":0,"TOWNNAME":"玉井區","LI":"豐里里","LIN":"14鄰","STREET":" ","SECT":" ","MAREA":"豐里","LANE":" ","ALLEY":" ","HOUSE_NO":"１５０號之１","E_COORD97":193724.95000000001,"N_COORD97":2562237.29,"ADDRESS":"豐里１５０號之１","OBJECTID":16421},"geometry":{"x":193724.95000000112,"y":2562237.2899999991}},{"attributes":{"ID":16422,"DIS_CODE":0,"TOWNNAME":"學甲區","LI":"宅港里","LIN":"14鄰","STREET":" ","SECT":" ","MAREA":"宅子港","LANE":" ","ALLEY":" ","HOUSE_NO":"１５５號","E_COORD97":168322.76999999999,"N_COORD97":2572957.8700000001,"ADDRESS":"宅子港１５５號","OBJECTID":16422},"geometry":{"x":168322.76999999862,"y":2572957.8700000029}},{"attributes":{"ID":16423,"DIS_CODE":0,"TOWNNAME":"學甲區","LI":"宅港里","LIN":"14鄰","STREET":" ","SECT":" ","MAREA":"宅子港","LANE":" ","ALLEY":" ","HOUSE_NO":"１５６號","E_COORD97":168332.01999999999,"N_COORD97":2572945.7400000002,"ADDRESS":"宅子港１５６號","OBJECTID":16423},"geometry":{"x":168332.02000000048,"y":2572945.7400000002}},{"attributes":{"ID":16424,"DIS_CODE":0,"TOWNNAME":"學甲區","LI":"宅港里","LIN":"14鄰","STREET":" ","SECT":" ","MAREA":"宅子港","LANE":" ","ALLEY":" ","HOUSE_NO":"１５７號之１","E_COORD97":168343.23999999999,"N_COORD97":2572948.6600000001,"ADDRESS":"宅子港１５７號之１","OBJECTID":16424},"geometry":{"x":168343.24000000115,"y":2572948.6600000001}},{"attributes":{"ID":16425,"DIS_CODE":0,"TOWNNAME":"永康區","LI":"復興里","LIN":"24鄰","STREET":"復興路","SECT":" ","MAREA":" ","LANE":"３５６巷","ALLEY":"８０弄","HOUSE_NO":"１４號","E_COORD97":172389.39999999999,"N_COORD97":2544537.52,"ADDRESS":"復興路３５６巷８０弄１４號","OBJECTID":16425},"geometry":{"x":172389.40000000037,"y":2544537.5199999996}},{"attributes":{"ID":16426,"DIS_CODE":0,"TOWNNAME":"學甲區","LI":"宅港里","LIN":"14鄰","STREET":" ","SECT":" ","MAREA":"宅子港","LANE":" ","ALLEY":" ","HOUSE_NO":"１５７號","E_COORD97":168336.53,"N_COORD97":2572959.8399999999,"ADDRESS":"宅子港１５７號","OBJECTID":16426},"geometry":{"x":168336.53000000026,"y":2572959.8400000017}},{"attributes":{"ID":16427,"DIS_CODE":0,"TOWNNAME":"學甲區","LI":"宅港里","LIN":"14鄰","STREET":" ","SECT":" ","MAREA":"宅子港","LANE":" ","ALLEY":" ","HOUSE_NO":"１５８號","E_COORD97":168355.01000000001,"N_COORD97":2572937.2799999998,"ADDRESS":"宅子港１５８號","OBJECTID":16427},"geometry":{"x":168355.00999999978,"y":2572937.2799999993}},{"attributes":{"ID":16428,"DIS_CODE":0,"TOWNNAME":"學甲區","LI":"豐和里","LIN":"14鄰","STREET":" ","SECT":" ","MAREA":"美豐","LANE":" ","ALLEY":" ","HOUSE_NO":"１０９號","E_COORD97":167955.47,"N_COORD97":2568682.3300000001,"ADDRESS":"美豐１０９號","OBJECTID":16428},"geometry":{"x":167955.46999999881,"y":2568682.3300000001}},{"attributes":{"ID":16429,"DIS_CODE":0,"TOWNNAME":"學甲區","LI":"豐和里","LIN":"14鄰","STREET":" ","SECT":" ","MAREA":"美豐","LANE":" ","ALLEY":" ","HOUSE_NO":"１１０號","E_COORD97":167962.06,"N_COORD97":2568663.9100000001,"ADDRESS":"美豐１１０號","OBJECTID":16429},"geometry":{"x":167962.06000000052,"y":2568663.910000002}},{"attributes":{"ID":16430,"DIS_CODE":0,"TOWNNAME":"學甲區","LI":"豐和里","LIN":"14鄰","STREET":" ","SECT":" ","MAREA":"美豐","LANE":" ","ALLEY":" ","HOUSE_NO":"１１３號","E_COORD97":167963.85999999999,"N_COORD97":2568588.6899999999,"ADDRESS":"美豐１１３號","OBJECTID":16430},"geometry":{"x":167963.86000000127,"y":2568588.6899999995}},{"attributes":{"ID":16431,"DIS_CODE":0,"TOWNNAME":"歸仁區","LI":"沙崙里","LIN":"10鄰","STREET":" ","SECT":" ","MAREA":"沙崙","LANE":" ","ALLEY":" ","HOUSE_NO":"３８４號","E_COORD97":180342.98000000001,"N_COORD97":2537684.25,"ADDRESS":"沙崙３８４號","OBJECTID":16431},"geometry":{"x":180342.98000000231,"y":2537684.25}},{"attributes":{"ID":16432,"DIS_CODE":0,"TOWNNAME":"學甲區","LI":"豐和里","LIN":"14鄰","STREET":" ","SECT":" ","MAREA":"美豐","LANE":" ","ALLEY":" ","HOUSE_NO":"１１５號之１","E_COORD97":167942.26000000001,"N_COORD97":2568621.9399999999,"ADDRESS":"美豐１１５號之１","OBJECTID":16432},"geometry":{"x":167942.26000000071,"y":2568621.9400000013}},{"attributes":{"ID":16433,"DIS_CODE":0,"TOWNNAME":"學甲區","LI":"豐和里","LIN":"14鄰","STREET":" ","SECT":" ","MAREA":"美豐","LANE":" ","ALLEY":" ","HOUSE_NO":"１１５號","E_COORD97":167924.19,"N_COORD97":2568605.8399999999,"ADDRESS":"美豐１１５號","OBJECTID":16433},"geometry":{"x":167924.18999999948,"y":2568605.8400000017}},{"attributes":{"ID":16434,"DIS_CODE":0,"TOWNNAME":"學甲區","LI":"豐和里","LIN":"14鄰","STREET":" ","SECT":" ","MAREA":"美豐","LANE":" ","ALLEY":" ","HOUSE_NO":"１１６號","E_COORD97":167930.23000000001,"N_COORD97":2568647.96,"ADDRESS":"美豐１１６號","OBJECTID":16434},"geometry":{"x":167930.23000000045,"y":2568647.9600000028}},{"attributes":{"ID":16435,"DIS_CODE":0,"TOWNNAME":"學甲區","LI":"豐和里","LIN":"14鄰","STREET":" ","SECT":" ","MAREA":"美豐","LANE":" ","ALLEY":" ","HOUSE_NO":"１１７號之１","E_COORD97":167911.97,"N_COORD97":2568611.52,"ADDRESS":"美豐１１７號之１","OBJECTID":16435},"geometry":{"x":167911.97000000067,"y":2568611.5200000014}},{"attributes":{"ID":16436,"DIS_CODE":0,"TOWNNAME":"永康區","LI":"二王里","LIN":"24鄰","STREET":"中山南路","SECT":" ","MAREA":" ","LANE":"５４４巷","ALLEY":"６７弄","HOUSE_NO":"９號","E_COORD97":172366.35000000001,"N_COORD97":2546362.0699999998,"ADDRESS":"中山南路５４４巷６７弄９號","OBJECTID":16436},"geometry":{"x":172366.34999999963,"y":2546362.0700000003}},{"attributes":{"ID":16437,"DIS_CODE":0,"TOWNNAME":"永康區","LI":"復華里","LIN":"40鄰","STREET":"復華七街","SECT":" ","MAREA":" ","LANE":" ","ALLEY":" ","HOUSE_NO":"２８號","E_COORD97":172633.28,"N_COORD97":2545965.0099999998,"ADDRESS":"復華七街２８號","OBJECTID":16437},"geometry":{"x":172633.28000000119,"y":2545965.0099999998}},{"attributes":{"ID":16438,"DIS_CODE":0,"TOWNNAME":"永康區","LI":"復華里","LIN":"40鄰","STREET":"復華七街","SECT":" ","MAREA":" ","LANE":" ","ALLEY":" ","HOUSE_NO":"１２號","E_COORD97":172600.60000000001,"N_COORD97":2545960.8900000001,"ADDRESS":"復華七街１２號","OBJECTID":16438},"geometry":{"x":172600.59999999963,"y":2545960.8900000006}},{"attributes":{"ID":16439,"DIS_CODE":0,"TOWNNAME":"永康區","LI":"復華里","LIN":"40鄰","STREET":"復華七街","SECT":" ","MAREA":" ","LANE":" ","ALLEY":" ","HOUSE_NO":"８號","E_COORD97":172582.29000000001,"N_COORD97":2545957.8900000001,"ADDRESS":"復華七街８號","OBJECTID":16439},"geometry":{"x":172582.29000000097,"y":2545957.8899999987}},{"attributes":{"ID":16440,"DIS_CODE":0,"TOWNNAME":"永康區","LI":"復華里","LIN":"40鄰","STREET":"復華六街","SECT":" ","MAREA":" ","LANE":" ","ALLEY":" ","HOUSE_NO":"７６號","E_COORD97":172678.60999999999,"N_COORD97":2545856.3900000001,"ADDRESS":"復華六街７６號","OBJECTID":16440},"geometry":{"x":172678.61000000127,"y":2545856.3900000043}},{"attributes":{"ID":16441,"DIS_CODE":0,"TOWNNAME":"永康區","LI":"二王里","LIN":"40鄰","STREET":"中山南路","SECT":" ","MAREA":" ","LANE":" ","ALLEY":" ","HOUSE_NO":"３６０號","E_COORD97":171799.39000000001,"N_COORD97":2546268.9900000002,"ADDRESS":"中山南路３６０號","OBJECTID":16441},"geometry":{"x":171799.3900000006,"y":2546268.9900000039}},{"attributes":{"ID":16442,"DIS_CODE":0,"TOWNNAME":"永康區","LI":"二王里","LIN":"40鄰","STREET":"中山南路","SECT":" ","MAREA":" ","LANE":" ","ALLEY":" ","HOUSE_NO":"４２８號","E_COORD97":171965.87,"N_COORD97":2546391.7400000002,"ADDRESS":"中山南路４２８號","OBJECTID":16442},"geometry":{"x":171965.87000000197,"y":2546391.7400000002}},{"attributes":{"ID":16443,"DIS_CODE":0,"TOWNNAME":"新市區","LI":"新和里","LIN":"40鄰","STREET":"勝利街","SECT":" ","MAREA":" ","LANE":" ","ALLEY":" ","HOUSE_NO":"６１號","E_COORD97":177187.98999999999,"N_COORD97":2552940.5099999998,"ADDRESS":"勝利街６１號","OBJECTID":16443},"geometry":{"x":177187.99000000209,"y":2552940.5100000035}},{"attributes":{"ID":16444,"DIS_CODE":0,"TOWNNAME":"學甲區","LI":"豐和里","LIN":"14鄰","STREET":" ","SECT":" ","MAREA":"美豐","LANE":" ","ALLEY":" ","HOUSE_NO":"１１７號之２","E_COORD97":167903.98000000001,"N_COORD97":2568608.4300000002,"ADDRESS":"美豐１１７號之２","OBJECTID":16444},"geometry":{"x":167903.98000000138,"y":2568608.4300000016}},{"attributes":{"ID":16445,"DIS_CODE":0,"TOWNNAME":"學甲區","LI":"豐和里","LIN":"14鄰","STREET":" ","SECT":" ","MAREA":"美豐","LANE":" ","ALLEY":" ","HOUSE_NO":"１１７號","E_COORD97":167939.06,"N_COORD97":2568621.1499999999,"ADDRESS":"美豐１１７號","OBJECTID":16445},"geometry":{"x":167939.05999999959,"y":2568621.1500000022}},{"attributes":{"ID":16446,"DIS_CODE":0,"TOWNNAME":"學甲區","LI":"新達里","LIN":"14鄰","STREET":" ","SECT":" ","MAREA":"頂山寮","LANE":" ","ALLEY":" ","HOUSE_NO":"１８號之１","E_COORD97":167667.32999999999,"N_COORD97":2571165.6499999999,"ADDRESS":"頂山寮１８號之１","OBJECTID":16446},"geometry":{"x":167667.33000000101,"y":2571165.6500000004}},{"attributes":{"ID":16447,"DIS_CODE":0,"TOWNNAME":"學甲區","LI":"新達里","LIN":"14鄰","STREET":" ","SECT":" ","MAREA":"頂山寮","LANE":" ","ALLEY":" ","HOUSE_NO":"１８號","E_COORD97":167665.45999999999,"N_COORD97":2571133.3199999998,"ADDRESS":"頂山寮１８號","OBJECTID":16447},"geometry":{"x":167665.45999999996,"y":2571133.3200000022}},{"attributes":{"ID":16448,"DIS_CODE":0,"TOWNNAME":"學甲區","LI":"新達里","LIN":"14鄰","STREET":" ","SECT":" ","MAREA":"頂山寮","LANE":" ","ALLEY":" ","HOUSE_NO":"２２號之１","E_COORD97":167685.14999999999,"N_COORD97":2571149.5800000001,"ADDRESS":"頂山寮２２號之１","OBJECTID":16448},"geometry":{"x":167685.15000000037,"y":2571149.5800000001}},{"attributes":{"ID":16449,"DIS_CODE":0,"TOWNNAME":"永康區","LI":"光復里","LIN":"24鄰","STREET":"復興路","SECT":" ","MAREA":" ","LANE":"１２８巷","ALLEY":"１弄","HOUSE_NO":"９號","E_COORD97":172684.34,"N_COORD97":2544368.2799999998,"ADDRESS":"復興路１２８巷１弄９號","OBJECTID":16449},"geometry":{"x":172684.33999999892,"y":2544368.2800000012}},{"attributes":{"ID":16450,"DIS_CODE":0,"TOWNNAME":"學甲區","LI":"新達里","LIN":"14鄰","STREET":" ","SECT":" ","MAREA":"頂山寮","LANE":" ","ALLEY":" ","HOUSE_NO":"２２號","E_COORD97":167702.91,"N_COORD97":2571133.25,"ADDRESS":"頂山寮２２號","OBJECTID":16450},"geometry":{"x":167702.91000000108,"y":2571133.2500000019}},{"attributes":{"ID":16451,"DIS_CODE":0,"TOWNNAME":"學甲區","LI":"新達里","LIN":"14鄰","STREET":" ","SECT":" ","MAREA":"頂山寮","LANE":" ","ALLEY":" ","HOUSE_NO":"２３號","E_COORD97":167719.53,"N_COORD97":2571128.6499999999,"ADDRESS":"頂山寮２３號","OBJECTID":16451},"geometry":{"x":167719.53000000026,"y":2571128.6500000004}},{"attributes":{"ID":16452,"DIS_CODE":0,"TOWNNAME":"學甲區","LI":"新達里","LIN":"14鄰","STREET":" ","SECT":" ","MAREA":"頂山寮","LANE":" ","ALLEY":" ","HOUSE_NO":"２４號","E_COORD97":167736.73000000001,"N_COORD97":2571121.9199999999,"ADDRESS":"頂山寮２４號","OBJECTID":16452},"geometry":{"x":167736.73000000045,"y":2571121.9200000018}},{"attributes":{"ID":16453,"DIS_CODE":0,"TOWNNAME":"學甲區","LI":"新達里","LIN":"14鄰","STREET":" ","SECT":" ","MAREA":"頂山寮","LANE":" ","ALLEY":" ","HOUSE_NO":"２５號","E_COORD97":167724.76000000001,"N_COORD97":2571107.0299999998,"ADDRESS":"頂山寮２５號","OBJECTID":16453},"geometry":{"x":167724.76000000164,"y":2571107.0300000012}},{"attributes":{"ID":16454,"DIS_CODE":0,"TOWNNAME":"柳營區","LI":"八翁里","LIN":"14鄰","STREET":" ","SECT":" ","MAREA":"八老爺","LANE":" ","ALLEY":" ","HOUSE_NO":"１０７之６號","E_COORD97":178358.73000000001,"N_COORD97":2574183.8399999999,"ADDRESS":"八老爺１０７之６號","OBJECTID":16454},"geometry":{"x":178358.73000000138,"y":2574183.8400000017}},{"attributes":{"ID":16455,"DIS_CODE":0,"TOWNNAME":"柳營區","LI":"八翁里","LIN":"14鄰","STREET":" ","SECT":" ","MAREA":"八老爺","LANE":" ","ALLEY":" ","HOUSE_NO":"１０８之５號","E_COORD97":178536.23000000001,"N_COORD97":2574402.9500000002,"ADDRESS":"八老爺１０８之５號","OBJECTID":16455},"geometry":{"x":178536.23000000138,"y":2574402.9500000011}},{"attributes":{"ID":16456,"DIS_CODE":0,"TOWNNAME":"柳營區","LI":"八翁里","LIN":"14鄰","STREET":" ","SECT":" ","MAREA":"八老爺","LANE":" ","ALLEY":" ","HOUSE_NO":"１０８號","E_COORD97":178635.5,"N_COORD97":2574411.48,"ADDRESS":"八老爺１０８號","OBJECTID":16456},"geometry":{"x":178635.50000000093,"y":2574411.4800000004}},{"attributes":{"ID":16457,"DIS_CODE":0,"TOWNNAME":"柳營區","LI":"八翁里","LIN":"14鄰","STREET":" ","SECT":" ","MAREA":"八老爺","LANE":" ","ALLEY":" ","HOUSE_NO":"１１２號","E_COORD97":177915.98000000001,"N_COORD97":2574206.6800000002,"ADDRESS":"八老爺１１２號","OBJECTID":16457},"geometry":{"x":177915.98000000138,"y":2574206.6799999997}},{"attributes":{"ID":16458,"DIS_CODE":0,"TOWNNAME":"柳營區","LI":"八翁里","LIN":"14鄰","STREET":" ","SECT":" ","MAREA":"八老爺","LANE":" ","ALLEY":" ","HOUSE_NO":"９３之１０號","E_COORD97":178508.01999999999,"N_COORD97":2574214.8500000001,"ADDRESS":"八老爺９３之１０號","OBJECTID":16458},"geometry":{"x":178508.02000000048,"y":2574214.8499999996}},{"attributes":{"ID":16459,"DIS_CODE":0,"TOWNNAME":"柳營區","LI":"八翁里","LIN":"14鄰","STREET":" ","SECT":" ","MAREA":"八老爺","LANE":" ","ALLEY":" ","HOUSE_NO":"９３號之１０","E_COORD97":178508.01999999999,"N_COORD97":2574214.8500000001,"ADDRESS":"八老爺９３號之１０","OBJECTID":16459},"geometry":{"x":178508.02000000048,"y":2574214.8499999996}},{"attributes":{"ID":16460,"DIS_CODE":0,"TOWNNAME":"柳營區","LI":"八翁里","LIN":"14鄰","STREET":" ","SECT":" ","MAREA":"八老爺","LANE":" ","ALLEY":" ","HOUSE_NO":"９３號之１１","E_COORD97":177999.47,"N_COORD97":2574188.2999999998,"ADDRESS":"八老爺９３號之１１","OBJECTID":16460},"geometry":{"x":177999.46999999881,"y":2574188.3000000026}},{"attributes":{"ID":16461,"DIS_CODE":0,"TOWNNAME":"柳營區","LI":"八翁里","LIN":"14鄰","STREET":" ","SECT":" ","MAREA":"八老爺","LANE":" ","ALLEY":" ","HOUSE_NO":"９３之１３５號","E_COORD97":178165.19,"N_COORD97":2574189.29,"ADDRESS":"八老爺９３之１３５號","OBJECTID":16461},"geometry":{"x":178165.19000000134,"y":2574189.290000001}},{"attributes":{"ID":16462,"DIS_CODE":0,"TOWNNAME":"柳營區","LI":"八翁里","LIN":"14鄰","STREET":" ","SECT":" ","MAREA":"八老爺","LANE":" ","ALLEY":" ","HOUSE_NO":"９３號之１３","E_COORD97":178058.29999999999,"N_COORD97":2574195.9500000002,"ADDRESS":"八老爺９３號之１３","OBJECTID":16462},"geometry":{"x":178058.29999999888,"y":2574195.9500000011}},{"attributes":{"ID":16463,"DIS_CODE":0,"TOWNNAME":"永康區","LI":"西勢里","LIN":"24鄰","STREET":"廣興街","SECT":" ","MAREA":" ","LANE":"３８巷","ALLEY":"２５弄","HOUSE_NO":"１８號","E_COORD97":176062.31,"N_COORD97":2546457.9700000002,"ADDRESS":"廣興街３８巷２５弄１８號","OBJECTID":16463},"geometry":{"x":176062.30999999959,"y":2546457.9700000007}},{"attributes":{"ID":16464,"DIS_CODE":0,"TOWNNAME":"永康區","LI":"西勢里","LIN":"24鄰","STREET":"廣興街","SECT":" ","MAREA":" ","LANE":"３８巷","ALLEY":"２５弄","HOUSE_NO":"３１號","E_COORD97":176045.12,"N_COORD97":2546542.0499999998,"ADDRESS":"廣興街３８巷２５弄３１號","OBJECTID":16464},"geometry":{"x":176045.12000000104,"y":2546542.0500000026}},{"attributes":{"ID":16465,"DIS_CODE":0,"TOWNNAME":"永康區","LI":"大橋里","LIN":"24鄰","STREET":"大橋一街","SECT":" ","MAREA":" ","LANE":"２２３巷","ALLEY":"９８弄","HOUSE_NO":"２號","E_COORD97":171148.19,"N_COORD97":2546781.4900000002,"ADDRESS":"大橋一街２２３巷９８弄２號","OBJECTID":16465},"geometry":{"x":171148.19000000041,"y":2546781.4900000021}},{"attributes":{"ID":16466,"DIS_CODE":0,"TOWNNAME":"永康區","LI":"二王里","LIN":"24鄰","STREET":"中山南路","SECT":" ","MAREA":" ","LANE":"５４４巷","ALLEY":"６３弄","HOUSE_NO":"１３號","E_COORD97":172379.69,"N_COORD97":2546407.5800000001,"ADDRESS":"中山南路５４４巷６３弄１３號","OBJECTID":16466},"geometry":{"x":172379.69000000134,"y":2546407.5800000019}},{"attributes":{"ID":16467,"DIS_CODE":0,"TOWNNAME":"柳營區","LI":"八翁里","LIN":"14鄰","STREET":" ","SECT":" ","MAREA":"八老爺","LANE":" ","ALLEY":" ","HOUSE_NO":"９３之１４號","E_COORD97":178567.54000000001,"N_COORD97":2574368.6600000001,"ADDRESS":"八老爺９３之１４號","OBJECTID":16467},"geometry":{"x":178567.54000000097,"y":2574368.660000002}},{"attributes":{"ID":16468,"DIS_CODE":0,"TOWNNAME":"永康區","LI":"西橋里","LIN":"24鄰","STREET":"大橋三街","SECT":" ","MAREA":" ","LANE":"５７巷","ALLEY":"６０弄","HOUSE_NO":"３號","E_COORD97":170507.87,"N_COORD97":2546621,"ADDRESS":"大橋三街５７巷６０弄３號","OBJECTID":16468},"geometry":{"x":170507.87000000197,"y":2546621}},{"attributes":{"ID":16469,"DIS_CODE":0,"TOWNNAME":"柳營區","LI":"八翁里","LIN":"14鄰","STREET":" ","SECT":" ","MAREA":"八老爺","LANE":" ","ALLEY":" ","HOUSE_NO":"９３號之１５","E_COORD97":178141.38,"N_COORD97":2574186.0099999998,"ADDRESS":"八老爺９３號之１５","OBJECTID":16469},"geometry":{"x":178141.38000000082,"y":2574186.0100000016}},{"attributes":{"ID":16470,"DIS_CODE":0,"TOWNNAME":"永康區","LI":"正強里","LIN":"24鄰","STREET":"中正路","SECT":" ","MAREA":" ","LANE":"１２７巷","ALLEY":"１９弄","HOUSE_NO":"１０號","E_COORD97":173421.32000000001,"N_COORD97":2547809.71,"ADDRESS":"中正路１２７巷１９弄１０號","OBJECTID":16470},"geometry":{"x":173421.32000000123,"y":2547809.7100000009}},{"attributes":{"ID":16471,"DIS_CODE":0,"TOWNNAME":"永康區","LI":"正強里","LIN":"24鄰","STREET":"中正路","SECT":" ","MAREA":" ","LANE":"１２７巷","ALLEY":"１９弄","HOUSE_NO":"１５號","E_COORD97":173416.03,"N_COORD97":2547837.4500000002,"ADDRESS":"中正路１２７巷１９弄１５號","OBJECTID":16471},"geometry":{"x":173416.03000000212,"y":2547837.4499999993}},{"attributes":{"ID":16472,"DIS_CODE":0,"TOWNNAME":"永康區","LI":"北灣里","LIN":"24鄰","STREET":"大灣路","SECT":" ","MAREA":" ","LANE":"３７巷","ALLEY":"３０弄","HOUSE_NO":"２８號","E_COORD97":175430.92999999999,"N_COORD97":2545790.4700000002,"ADDRESS":"大灣路３７巷３０弄２８號","OBJECTID":16472},"geometry":{"x":175430.9299999997,"y":2545790.4700000007}},{"attributes":{"ID":16473,"DIS_CODE":0,"TOWNNAME":"永康區","LI":"正強里","LIN":"24鄰","STREET":"中正路","SECT":" ","MAREA":" ","LANE":"１２７巷","ALLEY":"２４弄","HOUSE_NO":"９號","E_COORD97":173347.62,"N_COORD97":2547787.0899999999,"ADDRESS":"中正路１２７巷２４弄９號","OBJECTID":16473},"geometry":{"x":173347.62000000104,"y":2547787.0900000017}},{"attributes":{"ID":16474,"DIS_CODE":0,"TOWNNAME":"永康區","LI":"西橋里","LIN":"24鄰","STREET":"大橋三街","SECT":" ","MAREA":" ","LANE":"５７巷","ALLEY":"３６弄","HOUSE_NO":"１０號","E_COORD97":170555.26000000001,"N_COORD97":2546596.9900000002,"ADDRESS":"大橋三街５７巷３６弄１０號","OBJECTID":16474},"geometry":{"x":170555.25999999978,"y":2546596.9900000002}},{"attributes":{"ID":16475,"DIS_CODE":0,"TOWNNAME":"永康區","LI":"西勢里","LIN":"24鄰","STREET":"廣興街","SECT":" ","MAREA":" ","LANE":"３８巷","ALLEY":"２５弄","HOUSE_NO":"４０號","E_COORD97":176066.88,"N_COORD97":2546506.2400000002,"ADDRESS":"廣興街３８巷２５弄４０號","OBJECTID":16475},"geometry":{"x":176066.88000000082,"y":2546506.2400000021}},{"attributes":{"ID":16476,"DIS_CODE":0,"TOWNNAME":"永康區","LI":"正強里","LIN":"40鄰","STREET":"四維街","SECT":" ","MAREA":" ","LANE":" ","ALLEY":" ","HOUSE_NO":"２１３號","E_COORD97":173241.41,"N_COORD97":2548508.0499999998,"ADDRESS":"四維街２１３號","OBJECTID":16476},"geometry":{"x":173241.41000000015,"y":2548508.0500000026}},{"attributes":{"ID":16477,"DIS_CODE":0,"TOWNNAME":"永康區","LI":"永康里","LIN":"24鄰","STREET":"中山南路","SECT":" ","MAREA":" ","LANE":"６２１巷","ALLEY":"３５弄","HOUSE_NO":"４號","E_COORD97":173524.10999999999,"N_COORD97":2547326.7400000002,"ADDRESS":"中山南路６２１巷３５弄４號","OBJECTID":16477},"geometry":{"x":173524.11000000127,"y":2547326.7400000021}},{"attributes":{"ID":16478,"DIS_CODE":0,"TOWNNAME":"仁德區","LI":"大甲里","LIN":"24鄰","STREET":"中正西路","SECT":" ","MAREA":" ","LANE":"３６０巷","ALLEY":"２０弄","HOUSE_NO":"２７號","E_COORD97":169665.66,"N_COORD97":2535460.9700000002,"ADDRESS":"中正西路３６０巷２０弄２７號","OBJECTID":16478},"geometry":{"x":169665.66000000108,"y":2535460.9700000044}},{"attributes":{"ID":16479,"DIS_CODE":0,"TOWNNAME":"仁德區","LI":"大甲里","LIN":"24鄰","STREET":"中正西路","SECT":" ","MAREA":" ","LANE":"３６０巷","ALLEY":"２０弄","HOUSE_NO":"２９號","E_COORD97":169659.41,"N_COORD97":2535460.8799999999,"ADDRESS":"中正西路３６０巷２０弄２９號","OBJECTID":16479},"geometry":{"x":169659.41000000015,"y":2535460.8800000008}},{"attributes":{"ID":16480,"DIS_CODE":0,"TOWNNAME":"仁德區","LI":"大甲里","LIN":"24鄰","STREET":"中正西路","SECT":" ","MAREA":" ","LANE":"３６０巷","ALLEY":"２０弄","HOUSE_NO":"３１號","E_COORD97":169652.42999999999,"N_COORD97":2535461.46,"ADDRESS":"中正西路３６０巷２０弄３１號","OBJECTID":16480},"geometry":{"x":169652.4299999997,"y":2535461.4600000046}},{"attributes":{"ID":16481,"DIS_CODE":0,"TOWNNAME":"仁德區","LI":"大甲里","LIN":"24鄰","STREET":"中正西路","SECT":" ","MAREA":" ","LANE":"３６０巷","ALLEY":"２０弄","HOUSE_NO":"３３號","E_COORD97":169645.84,"N_COORD97":2535461.9399999999,"ADDRESS":"中正西路３６０巷２０弄３３號","OBJECTID":16481},"geometry":{"x":169645.83999999985,"y":2535461.9399999995}},{"attributes":{"ID":16482,"DIS_CODE":0,"TOWNNAME":"仁德區","LI":"大甲里","LIN":"24鄰","STREET":"中正西路","SECT":" ","MAREA":" ","LANE":"３６０巷","ALLEY":"２０弄","HOUSE_NO":"３５號","E_COORD97":169639.37,"N_COORD97":2535462.0899999999,"ADDRESS":"中正西路３６０巷２０弄３５號","OBJECTID":16482},"geometry":{"x":169639.37000000011,"y":2535462.0899999999}},{"attributes":{"ID":16483,"DIS_CODE":0,"TOWNNAME":"仁德區","LI":"大甲里","LIN":"24鄰","STREET":"中正西路","SECT":" ","MAREA":" ","LANE":"３６０巷","ALLEY":"２０弄","HOUSE_NO":"３７號","E_COORD97":169633.13,"N_COORD97":2535462.2799999998,"ADDRESS":"中正西路３６０巷２０弄３７號","OBJECTID":16483},"geometry":{"x":169633.13000000082,"y":2535462.2800000012}},{"attributes":{"ID":16484,"DIS_CODE":0,"TOWNNAME":"仁德區","LI":"大甲里","LIN":"24鄰","STREET":"中正西路","SECT":" ","MAREA":" ","LANE":"３６０巷","ALLEY":"２０弄","HOUSE_NO":"３９號","E_COORD97":169626.51000000001,"N_COORD97":2535462.6600000001,"ADDRESS":"中正西路３６０巷２０弄３９號","OBJECTID":16484},"geometry":{"x":169626.50999999978,"y":2535462.6600000039}},{"attributes":{"ID":16485,"DIS_CODE":0,"TOWNNAME":"新市區","LI":"港墘里","LIN":"24鄰","STREET":"南昌街","SECT":" ","MAREA":" ","LANE":"３９巷","ALLEY":"２弄","HOUSE_NO":"１２號","E_COORD97":177967.04999999999,"N_COORD97":2552984.75,"ADDRESS":"南昌街３９巷２弄１２號","OBJECTID":16485},"geometry":{"x":177967.05000000075,"y":2552984.7500000019}},{"attributes":{"ID":16486,"DIS_CODE":0,"TOWNNAME":"柳營區","LI":"八翁里","LIN":"14鄰","STREET":" ","SECT":" ","MAREA":"八老爺","LANE":" ","ALLEY":" ","HOUSE_NO":"９３之１６號","E_COORD97":178602.82000000001,"N_COORD97":2574403.2599999998,"ADDRESS":"八老爺９３之１６號","OBJECTID":16486},"geometry":{"x":178602.8200000003,"y":2574403.2599999979}},{"attributes":{"ID":16487,"DIS_CODE":0,"TOWNNAME":"柳營區","LI":"八翁里","LIN":"14鄰","STREET":" ","SECT":" ","MAREA":"八老爺","LANE":" ","ALLEY":" ","HOUSE_NO":"９３號之１６","E_COORD97":178602.82000000001,"N_COORD97":2574403.2599999998,"ADDRESS":"八老爺９３號之１６","OBJECTID":16487},"geometry":{"x":178602.8200000003,"y":2574403.2599999979}},{"attributes":{"ID":16488,"DIS_CODE":0,"TOWNNAME":"柳營區","LI":"八翁里","LIN":"14鄰","STREET":" ","SECT":" ","MAREA":"八老爺","LANE":" ","ALLEY":" ","HOUSE_NO":"９３號之１７","E_COORD97":177821.89000000001,"N_COORD97":2573952.0099999998,"ADDRESS":"八老爺９３號之１７","OBJECTID":16488},"geometry":{"x":177821.88999999966,"y":2573952.0100000016}},{"attributes":{"ID":16489,"DIS_CODE":0,"TOWNNAME":"柳營區","LI":"八翁里","LIN":"14鄰","STREET":" ","SECT":" ","MAREA":"八老爺","LANE":" ","ALLEY":" ","HOUSE_NO":"９３之１８號","E_COORD97":178624.42000000001,"N_COORD97":2574407.3999999999,"ADDRESS":"八老爺９３之１８號","OBJECTID":16489},"geometry":{"x":178624.42000000086,"y":2574407.4000000022}},{"attributes":{"ID":16490,"DIS_CODE":0,"TOWNNAME":"柳營區","LI":"八翁里","LIN":"14鄰","STREET":" ","SECT":" ","MAREA":"八老爺","LANE":" ","ALLEY":" ","HOUSE_NO":"９３號之１８","E_COORD97":178624.42000000001,"N_COORD97":2574407.3999999999,"ADDRESS":"八老爺９３號之１８","OBJECTID":16490},"geometry":{"x":178624.42000000086,"y":2574407.4000000022}},{"attributes":{"ID":16491,"DIS_CODE":0,"TOWNNAME":"柳營區","LI":"八翁里","LIN":"14鄰","STREET":" ","SECT":" ","MAREA":"八老爺","LANE":" ","ALLEY":" ","HOUSE_NO":"９３號之１９","E_COORD97":177895.39000000001,"N_COORD97":2573964.1099999999,"ADDRESS":"八老爺９３號之１９","OBJECTID":16491},"geometry":{"x":177895.3900000006,"y":2573964.1100000013}},{"attributes":{"ID":16492,"DIS_CODE":0,"TOWNNAME":"柳營區","LI":"八翁里","LIN":"14鄰","STREET":" ","SECT":" ","MAREA":"八老爺","LANE":" ","ALLEY":" ","HOUSE_NO":"９３之２號","E_COORD97":178178.59,"N_COORD97":2574414.77,"ADDRESS":"八老爺９３之２號","OBJECTID":16492},"geometry":{"x":178178.59000000171,"y":2574414.7700000014}},{"attributes":{"ID":16493,"DIS_CODE":0,"TOWNNAME":"柳營區","LI":"八翁里","LIN":"14鄰","STREET":" ","SECT":" ","MAREA":"八老爺","LANE":" ","ALLEY":" ","HOUSE_NO":"９３號之２","E_COORD97":178178.59,"N_COORD97":2574414.77,"ADDRESS":"八老爺９３號之２","OBJECTID":16493},"geometry":{"x":178178.59000000171,"y":2574414.7700000014}},{"attributes":{"ID":16494,"DIS_CODE":0,"TOWNNAME":"新市區","LI":"港墘里","LIN":"24鄰","STREET":"南昌街","SECT":" ","MAREA":" ","LANE":"３９巷","ALLEY":"２弄","HOUSE_NO":"１０號","E_COORD97":177966.41,"N_COORD97":2552980.25,"ADDRESS":"南昌街３９巷２弄１０號","OBJECTID":16494},"geometry":{"x":177966.40999999922,"y":2552980.2500000019}},{"attributes":{"ID":16495,"DIS_CODE":0,"TOWNNAME":"柳營區","LI":"八翁里","LIN":"14鄰","STREET":" ","SECT":" ","MAREA":"八老爺","LANE":" ","ALLEY":" ","HOUSE_NO":"９３之４７號","E_COORD97":178631.54000000001,"N_COORD97":2574442.0499999998,"ADDRESS":"八老爺９３之４７號","OBJECTID":16495},"geometry":{"x":178631.54000000004,"y":2574442.0500000007}},{"attributes":{"ID":16496,"DIS_CODE":0,"TOWNNAME":"柳營區","LI":"八翁里","LIN":"14鄰","STREET":" ","SECT":" ","MAREA":"八老爺","LANE":" ","ALLEY":" ","HOUSE_NO":"９３之８號","E_COORD97":178501.82000000001,"N_COORD97":2574388.6499999999,"ADDRESS":"八老爺９３之８號","OBJECTID":16496},"geometry":{"x":178501.82000000123,"y":2574388.6500000022}},{"attributes":{"ID":16497,"DIS_CODE":0,"TOWNNAME":"柳營區","LI":"八翁里","LIN":"14鄰","STREET":" ","SECT":" ","MAREA":"八老爺","LANE":" ","ALLEY":" ","HOUSE_NO":"９３號之８","E_COORD97":178501.82000000001,"N_COORD97":2574388.6499999999,"ADDRESS":"八老爺９３號之８","OBJECTID":16497},"geometry":{"x":178501.82000000123,"y":2574388.6500000022}},{"attributes":{"ID":16498,"DIS_CODE":0,"TOWNNAME":"柳營區","LI":"八翁里","LIN":"14鄰","STREET":" ","SECT":" ","MAREA":"八老爺","LANE":" ","ALLEY":" ","HOUSE_NO":"９６號之１","E_COORD97":178635.22,"N_COORD97":2574692.8500000001,"ADDRESS":"八老爺９６號之１","OBJECTID":16498},"geometry":{"x":178635.2200000016,"y":2574692.8499999996}},{"attributes":{"ID":16499,"DIS_CODE":0,"TOWNNAME":"柳營區","LI":"八翁里","LIN":"14鄰","STREET":" ","SECT":" ","MAREA":"八老爺","LANE":" ","ALLEY":" ","HOUSE_NO":"９６號","E_COORD97":178288.23000000001,"N_COORD97":2574320.1400000001,"ADDRESS":"八老爺９６號","OBJECTID":16499},"geometry":{"x":178288.23000000045,"y":2574320.1399999987}},{"attributes":{"ID":16500,"DIS_CODE":0,"TOWNNAME":"柳營區","LI":"八翁里","LIN":"14鄰","STREET":" ","SECT":" ","MAREA":"八老爺","LANE":" ","ALLEY":" ","HOUSE_NO":"９７號","E_COORD97":178547.95000000001,"N_COORD97":2574446.5699999998,"ADDRESS":"八老爺９７號","OBJECTID":16500},"geometry":{"x":178547.95000000112,"y":2574446.5700000022}},{"attributes":{"ID":16501,"DIS_CODE":0,"TOWNNAME":"新市區","LI":"港墘里","LIN":"24鄰","STREET":"南昌街","SECT":" ","MAREA":" ","LANE":"３９巷","ALLEY":"２弄","HOUSE_NO":"５６號","E_COORD97":177985.45999999999,"N_COORD97":2553082.75,"ADDRESS":"南昌街３９巷２弄５６號","OBJECTID":16501},"geometry":{"x":177985.45999999996,"y":2553082.7500000019}},{"attributes":{"ID":16502,"DIS_CODE":0,"TOWNNAME":"柳營區","LI":"八翁里","LIN":"14鄰","STREET":" ","SECT":" ","MAREA":"八老爺","LANE":" ","ALLEY":" ","HOUSE_NO":"９８號","E_COORD97":178381.39000000001,"N_COORD97":2574411.54,"ADDRESS":"八老爺９８號","OBJECTID":16502},"geometry":{"x":178381.39000000153,"y":2574411.540000001}},{"attributes":{"ID":16503,"DIS_CODE":0,"TOWNNAME":"學甲區","LI":"三慶里","LIN":"14鄰","STREET":" ","SECT":" ","MAREA":"頂洲","LANE":" ","ALLEY":" ","HOUSE_NO":"１８０號","E_COORD97":168146.31,"N_COORD97":2576482.4199999999,"ADDRESS":"頂洲１８０號","OBJECTID":16503},"geometry":{"x":168146.31000000145,"y":2576482.4200000018}},{"attributes":{"ID":16504,"DIS_CODE":0,"TOWNNAME":"佳里區","LI":"佳化里","LIN":"14鄰","STREET":" ","SECT":" ","MAREA":"佳里興","LANE":" ","ALLEY":" ","HOUSE_NO":"１３６號","E_COORD97":167408.19,"N_COORD97":2565114.9900000002,"ADDRESS":"佳里興１３６號","OBJECTID":16504},"geometry":{"x":167408.19000000041,"y":2565114.9900000002}},{"attributes":{"ID":16505,"DIS_CODE":0,"TOWNNAME":"北區","LI":"成德里","LIN":"40鄰","STREET":"育德三街","SECT":" ","MAREA":" ","LANE":" ","ALLEY":" ","HOUSE_NO":"２４２號","E_COORD97":168143.26336400001,"N_COORD97":2546458.9416399999,"ADDRESS":"育德三街２４２號","OBJECTID":16505},"geometry":{"x":168143.26336400118,"y":2546458.9416380003}},{"attributes":{"ID":16506,"DIS_CODE":0,"TOWNNAME":"佳里區","LI":"禮化里","LIN":"14鄰","STREET":" ","SECT":" ","MAREA":"佳里興","LANE":" ","ALLEY":" ","HOUSE_NO":"３６７號","E_COORD97":166574.57999999999,"N_COORD97":2565700.0699999998,"ADDRESS":"佳里興３６７號","OBJECTID":16506},"geometry":{"x":166574.58000000007,"y":2565700.0700000022}},{"attributes":{"ID":16507,"DIS_CODE":0,"TOWNNAME":"佳里區","LI":"禮化里","LIN":"14鄰","STREET":" ","SECT":" ","MAREA":"佳里興","LANE":" ","ALLEY":" ","HOUSE_NO":"３６８號","E_COORD97":166583.45000000001,"N_COORD97":2565724.8399999999,"ADDRESS":"佳里興３６８號","OBJECTID":16507},"geometry":{"x":166583.45000000112,"y":2565724.8400000017}},{"attributes":{"ID":16508,"DIS_CODE":0,"TOWNNAME":"佳里區","LI":"興化里","LIN":"14鄰","STREET":" ","SECT":" ","MAREA":"佳里興","LANE":" ","ALLEY":" ","HOUSE_NO":"５４３號","E_COORD97":166616.23000000001,"N_COORD97":2565381.54,"ADDRESS":"佳里興５４３號","OBJECTID":16508},"geometry":{"x":166616.23000000045,"y":2565381.5399999991}},{"attributes":{"ID":16509,"DIS_CODE":0,"TOWNNAME":"佳里區","LI":"興化里","LIN":"14鄰","STREET":" ","SECT":" ","MAREA":"佳里興","LANE":" ","ALLEY":" ","HOUSE_NO":"５４４號","E_COORD97":166636.42999999999,"N_COORD97":2565378.5,"ADDRESS":"佳里興５４４號","OBJECTID":16509},"geometry":{"x":166636.4299999997,"y":2565378.5000000019}},{"attributes":{"ID":16510,"DIS_CODE":0,"TOWNNAME":"佳里區","LI":"興化里","LIN":"14鄰","STREET":" ","SECT":" ","MAREA":"佳里興","LANE":" ","ALLEY":" ","HOUSE_NO":"５４５號之１０","E_COORD97":166677.95999999999,"N_COORD97":2565324.2000000002,"ADDRESS":"佳里興５４５號之１０","OBJECTID":16510},"geometry":{"x":166677.96000000089,"y":2565324.2000000011}},{"attributes":{"ID":16511,"DIS_CODE":0,"TOWNNAME":"佳里區","LI":"興化里","LIN":"14鄰","STREET":" ","SECT":" ","MAREA":"佳里興","LANE":" ","ALLEY":" ","HOUSE_NO":"５４５號之１１","E_COORD97":166665.23000000001,"N_COORD97":2565289.9100000001,"ADDRESS":"佳里興５４５號之１１","OBJECTID":16511},"geometry":{"x":166665.23000000138,"y":2565289.910000002}},{"attributes":{"ID":16512,"DIS_CODE":0,"TOWNNAME":"佳里區","LI":"興化里","LIN":"14鄰","STREET":" ","SECT":" ","MAREA":"佳里興","LANE":" ","ALLEY":" ","HOUSE_NO":"５４５號之１２","E_COORD97":166636.45999999999,"N_COORD97":2565246.2999999998,"ADDRESS":"佳里興５４５號之１２","OBJECTID":16512},"geometry":{"x":166636.45999999996,"y":2565246.3000000007}},{"attributes":{"ID":16513,"DIS_CODE":0,"TOWNNAME":"佳里區","LI":"興化里","LIN":"14鄰","STREET":" ","SECT":" ","MAREA":"佳里興","LANE":" ","ALLEY":" ","HOUSE_NO":"５４５號之１","E_COORD97":166688.45999999999,"N_COORD97":2565319.23,"ADDRESS":"佳里興５４５號之１","OBJECTID":16513},"geometry":{"x":166688.46000000089,"y":2565319.2300000023}},{"attributes":{"ID":16514,"DIS_CODE":0,"TOWNNAME":"佳里區","LI":"興化里","LIN":"14鄰","STREET":" ","SECT":" ","MAREA":"佳里興","LANE":" ","ALLEY":" ","HOUSE_NO":"５４５號之２４","E_COORD97":166683.42000000001,"N_COORD97":2565196.48,"ADDRESS":"佳里興５４５號之２４","OBJECTID":16514},"geometry":{"x":166683.42000000086,"y":2565196.4800000004}},{"attributes":{"ID":16515,"DIS_CODE":0,"TOWNNAME":"佳里區","LI":"興化里","LIN":"14鄰","STREET":" ","SECT":" ","MAREA":"佳里興","LANE":" ","ALLEY":" ","HOUSE_NO":"５４５號之２８","E_COORD97":166769.67000000001,"N_COORD97":2565346.75,"ADDRESS":"佳里興５４５號之２８","OBJECTID":16515},"geometry":{"x":166769.67000000086,"y":2565346.75}},{"attributes":{"ID":16516,"DIS_CODE":0,"TOWNNAME":"佳里區","LI":"興化里","LIN":"14鄰","STREET":" ","SECT":" ","MAREA":"佳里興","LANE":" ","ALLEY":" ","HOUSE_NO":"５４５號之２９","E_COORD97":166768.01000000001,"N_COORD97":2565342.2999999998,"ADDRESS":"佳里興５４５號之２９","OBJECTID":16516},"geometry":{"x":166768.00999999978,"y":2565342.3000000026}},{"attributes":{"ID":16517,"DIS_CODE":0,"TOWNNAME":"佳里區","LI":"興化里","LIN":"14鄰","STREET":" ","SECT":" ","MAREA":"佳里興","LANE":" ","ALLEY":" ","HOUSE_NO":"５４５號之２","E_COORD97":166708.73000000001,"N_COORD97":2565313.6400000001,"ADDRESS":"佳里興５４５號之２","OBJECTID":16517},"geometry":{"x":166708.73000000138,"y":2565313.6400000025}},{"attributes":{"ID":16518,"DIS_CODE":0,"TOWNNAME":"佳里區","LI":"興化里","LIN":"14鄰","STREET":" ","SECT":" ","MAREA":"佳里興","LANE":" ","ALLEY":" ","HOUSE_NO":"５４５號之３０","E_COORD97":166766.23000000001,"N_COORD97":2565337.7200000002,"ADDRESS":"佳里興５４５號之３０","OBJECTID":16518},"geometry":{"x":166766.23000000231,"y":2565337.7200000007}},{"attributes":{"ID":16519,"DIS_CODE":0,"TOWNNAME":"佳里區","LI":"興化里","LIN":"14鄰","STREET":" ","SECT":" ","MAREA":"佳里興","LANE":" ","ALLEY":" ","HOUSE_NO":"５４５號之３１","E_COORD97":166764.25,"N_COORD97":2565333.1499999999,"ADDRESS":"佳里興５４５號之３１","OBJECTID":16519},"geometry":{"x":166764.25000000093,"y":2565333.1500000022}},{"attributes":{"ID":16520,"DIS_CODE":0,"TOWNNAME":"佳里區","LI":"興化里","LIN":"14鄰","STREET":" ","SECT":" ","MAREA":"佳里興","LANE":" ","ALLEY":" ","HOUSE_NO":"５４５號之３２","E_COORD97":166762.45000000001,"N_COORD97":2565329.0299999998,"ADDRESS":"佳里興５４５號之３２","OBJECTID":16520},"geometry":{"x":166762.45000000019,"y":2565329.0300000012}},{"attributes":{"ID":16521,"DIS_CODE":0,"TOWNNAME":"佳里區","LI":"興化里","LIN":"14鄰","STREET":" ","SECT":" ","MAREA":"佳里興","LANE":" ","ALLEY":" ","HOUSE_NO":"５４５號之３３","E_COORD97":166755.92000000001,"N_COORD97":2565331.3799999999,"ADDRESS":"佳里興５４５號之３３","OBJECTID":16521},"geometry":{"x":166755.92000000179,"y":2565331.379999999}},{"attributes":{"ID":16522,"DIS_CODE":0,"TOWNNAME":"新市區","LI":"港墘里","LIN":"24鄰","STREET":"南昌街","SECT":" ","MAREA":" ","LANE":"３９巷","ALLEY":"２弄","HOUSE_NO":"３４號","E_COORD97":177976.07000000001,"N_COORD97":2553033,"ADDRESS":"南昌街３９巷２弄３４號","OBJECTID":16522},"geometry":{"x":177976.07000000123,"y":2553033.0000000019}},{"attributes":{"ID":16523,"DIS_CODE":0,"TOWNNAME":"新市區","LI":"港墘里","LIN":"24鄰","STREET":"南昌街","SECT":" ","MAREA":" ","LANE":"３９巷","ALLEY":"２弄","HOUSE_NO":"３６號","E_COORD97":177976.60000000001,"N_COORD97":2553037.25,"ADDRESS":"南昌街３９巷２弄３６號","OBJECTID":16523},"geometry":{"x":177976.60000000149,"y":2553037.25}},{"attributes":{"ID":16524,"DIS_CODE":0,"TOWNNAME":"新市區","LI":"港墘里","LIN":"24鄰","STREET":"南昌街","SECT":" ","MAREA":" ","LANE":"３９巷","ALLEY":"２弄","HOUSE_NO":"２號","E_COORD97":177962.26999999999,"N_COORD97":2552963.5,"ADDRESS":"南昌街３９巷２弄２號","OBJECTID":16524},"geometry":{"x":177962.27000000048,"y":2552963.5}},{"attributes":{"ID":16525,"DIS_CODE":0,"TOWNNAME":"永康區","LI":"正強里","LIN":"24鄰","STREET":"中正路","SECT":" ","MAREA":" ","LANE":"１２７巷","ALLEY":"２４弄","HOUSE_NO":"１３號","E_COORD97":173339.62,"N_COORD97":2547784.0899999999,"ADDRESS":"中正路１２７巷２４弄１３號","OBJECTID":16525},"geometry":{"x":173339.62000000104,"y":2547784.0900000017}},{"attributes":{"ID":16526,"DIS_CODE":0,"TOWNNAME":"永康區","LI":"尚頂里","LIN":"24鄰","STREET":"中正南路","SECT":" ","MAREA":" ","LANE":"２１０巷","ALLEY":"３２弄","HOUSE_NO":"１７號","E_COORD97":170209.82999999999,"N_COORD97":2547082.9900000002,"ADDRESS":"中正南路２１０巷３２弄１７號","OBJECTID":16526},"geometry":{"x":170209.83000000194,"y":2547082.9900000021}},{"attributes":{"ID":16527,"DIS_CODE":0,"TOWNNAME":"永康區","LI":"東橋里","LIN":"24鄰","STREET":"中正路","SECT":" ","MAREA":" ","LANE":"２１７巷","ALLEY":"３弄","HOUSE_NO":"２８號","E_COORD97":172876.16,"N_COORD97":2547894,"ADDRESS":"中正路２１７巷３弄２８號","OBJECTID":16527},"geometry":{"x":172876.16000000108,"y":2547894.0000000019}},{"attributes":{"ID":16528,"DIS_CODE":0,"TOWNNAME":"永康區","LI":"東橋里","LIN":"24鄰","STREET":"中正路","SECT":" ","MAREA":" ","LANE":"２１７巷","ALLEY":"３弄","HOUSE_NO":"５４號","E_COORD97":172856.76999999999,"N_COORD97":2547857,"ADDRESS":"中正路２１７巷３弄５４號","OBJECTID":16528},"geometry":{"x":172856.76999999955,"y":2547857.0000000019}},{"attributes":{"ID":16529,"DIS_CODE":0,"TOWNNAME":"永康區","LI":"東橋里","LIN":"24鄰","STREET":"中正路","SECT":" ","MAREA":" ","LANE":"２１７巷","ALLEY":"３弄","HOUSE_NO":"４號","E_COORD97":172992.17999999999,"N_COORD97":2547884.25,"ADDRESS":"中正路２１７巷３弄４號","OBJECTID":16529},"geometry":{"x":172992.18000000156,"y":2547884.2500000037}},{"attributes":{"ID":16530,"DIS_CODE":0,"TOWNNAME":"永康區","LI":"東橋里","LIN":"24鄰","STREET":"中正路","SECT":" ","MAREA":" ","LANE":"２１７巷","ALLEY":"３弄","HOUSE_NO":"３６號","E_COORD97":172868.91,"N_COORD97":2547927.9900000002,"ADDRESS":"中正路２１７巷３弄３６號","OBJECTID":16530},"geometry":{"x":172868.91000000015,"y":2547927.9900000021}},{"attributes":{"ID":16531,"DIS_CODE":0,"TOWNNAME":"永康區","LI":"東橋里","LIN":"24鄰","STREET":"中正路","SECT":" ","MAREA":" ","LANE":"２１７巷","ALLEY":"３弄","HOUSE_NO":"４０號","E_COORD97":172855.16,"N_COORD97":2547925.9900000002,"ADDRESS":"中正路２１７巷３弄４０號","OBJECTID":16531},"geometry":{"x":172855.16000000015,"y":2547925.9900000002}},{"attributes":{"ID":16532,"DIS_CODE":0,"TOWNNAME":"永康區","LI":"東橋里","LIN":"24鄰","STREET":"中正路","SECT":" ","MAREA":" ","LANE":"２１７巷","ALLEY":"３弄","HOUSE_NO":"６０號","E_COORD97":172826.16,"N_COORD97":2547851.7400000002,"ADDRESS":"中正路２１７巷３弄６０號","OBJECTID":16532},"geometry":{"x":172826.16000000015,"y":2547851.7400000021}},{"attributes":{"ID":16533,"DIS_CODE":0,"TOWNNAME":"永康區","LI":"東橋里","LIN":"24鄰","STREET":"中正路","SECT":" ","MAREA":" ","LANE":"２１７巷","ALLEY":"３弄","HOUSE_NO":"３４號","E_COORD97":172870.98000000001,"N_COORD97":2547919.2400000002,"ADDRESS":"中正路２１７巷３弄３４號","OBJECTID":16533},"geometry":{"x":172870.98000000138,"y":2547919.2400000021}},{"attributes":{"ID":16534,"DIS_CODE":0,"TOWNNAME":"仁德區","LI":"新田里","LIN":"4鄰","STREET":"勝利路","SECT":" ","MAREA":" ","LANE":"１３２巷","ALLEY":"１２弄","HOUSE_NO":"２２號","E_COORD97":174350.10082699999,"N_COORD97":2539432.9714199998,"ADDRESS":"勝利路１３２巷１２弄２２號","OBJECTID":16534},"geometry":{"x":174350.1008270001,"y":2539432.971419001}},{"attributes":{"ID":16535,"DIS_CODE":0,"TOWNNAME":"永康區","LI":"東橋里","LIN":"24鄰","STREET":"中正路","SECT":" ","MAREA":" ","LANE":"２１７巷","ALLEY":"３弄","HOUSE_NO":"２０號","E_COORD97":172910.10999999999,"N_COORD97":2547868.25,"ADDRESS":"中正路２１７巷３弄２０號","OBJECTID":16535},"geometry":{"x":172910.11000000034,"y":2547868.2500000019}},{"attributes":{"ID":16536,"DIS_CODE":0,"TOWNNAME":"永康區","LI":"東橋里","LIN":"24鄰","STREET":"中正路","SECT":" ","MAREA":" ","LANE":"２１７巷","ALLEY":"３弄","HOUSE_NO":"１４號","E_COORD97":172935.91,"N_COORD97":2547873.5,"ADDRESS":"中正路２１７巷３弄１４號","OBJECTID":16536},"geometry":{"x":172935.91000000108,"y":2547873.5000000019}},{"attributes":{"ID":16537,"DIS_CODE":0,"TOWNNAME":"永康區","LI":"東橋里","LIN":"24鄰","STREET":"中正路","SECT":" ","MAREA":" ","LANE":"２１７巷","ALLEY":"３弄","HOUSE_NO":"４８號","E_COORD97":172860.87,"N_COORD97":2547900.25,"ADDRESS":"中正路２１７巷３弄４８號","OBJECTID":16537},"geometry":{"x":172860.87000000197,"y":2547900.25}},{"attributes":{"ID":16538,"DIS_CODE":0,"TOWNNAME":"永康區","LI":"東橋里","LIN":"24鄰","STREET":"中正路","SECT":" ","MAREA":" ","LANE":"２１７巷","ALLEY":"３弄","HOUSE_NO":"４６號","E_COORD97":172859.14999999999,"N_COORD97":2547908.9900000002,"ADDRESS":"中正路２１７巷３弄４６號","OBJECTID":16538},"geometry":{"x":172859.15000000224,"y":2547908.9900000002}},{"attributes":{"ID":16539,"DIS_CODE":0,"TOWNNAME":"永康區","LI":"東橋里","LIN":"24鄰","STREET":"中正路","SECT":" ","MAREA":" ","LANE":"２１７巷","ALLEY":"３弄","HOUSE_NO":"２２號","E_COORD97":172902.01999999999,"N_COORD97":2547867,"ADDRESS":"中正路２１７巷３弄２２號","OBJECTID":16539},"geometry":{"x":172902.02000000048,"y":2547867.0000000019}},{"attributes":{"ID":16540,"DIS_CODE":0,"TOWNNAME":"永康區","LI":"東橋里","LIN":"24鄰","STREET":"中正路","SECT":" ","MAREA":" ","LANE":"２１７巷","ALLEY":"３弄","HOUSE_NO":"６號","E_COORD97":172983.63,"N_COORD97":2547882.5,"ADDRESS":"中正路２１７巷３弄６號","OBJECTID":16540},"geometry":{"x":172983.62999999989,"y":2547882.5000000037}},{"attributes":{"ID":16541,"DIS_CODE":0,"TOWNNAME":"新市區","LI":"新和里","LIN":"40鄰","STREET":"勝利街","SECT":" ","MAREA":" ","LANE":" ","ALLEY":" ","HOUSE_NO":"４號","E_COORD97":177392.62,"N_COORD97":2552964.5099999998,"ADDRESS":"勝利街４號","OBJECTID":16541},"geometry":{"x":177392.62000000104,"y":2552964.5100000035}},{"attributes":{"ID":16542,"DIS_CODE":0,"TOWNNAME":"永康區","LI":"東橋里","LIN":"24鄰","STREET":"中正路","SECT":" ","MAREA":" ","LANE":"２１７巷","ALLEY":"３弄","HOUSE_NO":"３２號","E_COORD97":172872.82000000001,"N_COORD97":2547910.7400000002,"ADDRESS":"中正路２１７巷３弄３２號","OBJECTID":16542},"geometry":{"x":172872.8200000003,"y":2547910.7400000002}},{"attributes":{"ID":16543,"DIS_CODE":0,"TOWNNAME":"永康區","LI":"東橋里","LIN":"24鄰","STREET":"中正路","SECT":" ","MAREA":" ","LANE":"２１７巷","ALLEY":"３弄","HOUSE_NO":"１６號","E_COORD97":172928.45999999999,"N_COORD97":2547871.5,"ADDRESS":"中正路２１７巷３弄１６號","OBJECTID":16543},"geometry":{"x":172928.46000000089,"y":2547871.5}},{"attributes":{"ID":16544,"DIS_CODE":0,"TOWNNAME":"永康區","LI":"東橋里","LIN":"24鄰","STREET":"中正路","SECT":" ","MAREA":" ","LANE":"２１７巷","ALLEY":"３弄","HOUSE_NO":"３０號","E_COORD97":172873.92999999999,"N_COORD97":2547903,"ADDRESS":"中正路２１７巷３弄３０號","OBJECTID":16544},"geometry":{"x":172873.93000000063,"y":2547903.0000000037}},{"attributes":{"ID":16545,"DIS_CODE":0,"TOWNNAME":"永康區","LI":"東橋里","LIN":"24鄰","STREET":"中正路","SECT":" ","MAREA":" ","LANE":"２１７巷","ALLEY":"３弄","HOUSE_NO":"５０號","E_COORD97":172862.45999999999,"N_COORD97":2547890.75,"ADDRESS":"中正路２１７巷３弄５０號","OBJECTID":16545},"geometry":{"x":172862.46000000089,"y":2547890.7499999981}},{"attributes":{"ID":16546,"DIS_CODE":0,"TOWNNAME":"安南區","LI":"安慶里","LIN":"24鄰","STREET":"安中路","SECT":"一段","MAREA":" ","LANE":"２０３巷","ALLEY":"１８弄","HOUSE_NO":"２之１號","E_COORD97":168708.01000000001,"N_COORD97":2548446.1899999999,"ADDRESS":"安中路一段２０３巷１８弄２之１號","OBJECTID":16546},"geometry":{"x":168708.01000000164,"y":2548446.1899999995}},{"attributes":{"ID":16547,"DIS_CODE":0,"TOWNNAME":"永康區","LI":"東橋里","LIN":"24鄰","STREET":"中正路","SECT":" ","MAREA":" ","LANE":"２１７巷","ALLEY":"３弄","HOUSE_NO":"１２號","E_COORD97":172947.78,"N_COORD97":2547875.75,"ADDRESS":"中正路２１７巷３弄１２號","OBJECTID":16547},"geometry":{"x":172947.78000000026,"y":2547875.75}},{"attributes":{"ID":16548,"DIS_CODE":0,"TOWNNAME":"永康區","LI":"建國里","LIN":"24鄰","STREET":"復興路","SECT":" ","MAREA":" ","LANE":"７１巷","ALLEY":"２弄","HOUSE_NO":"１號","E_COORD97":172884.17999999999,"N_COORD97":2544290.0699999998,"ADDRESS":"復興路７１巷２弄１號","OBJECTID":16548},"geometry":{"x":172884.18000000063,"y":2544290.0700000022}},{"attributes":{"ID":16549,"DIS_CODE":0,"TOWNNAME":"永康區","LI":"尚頂里","LIN":"24鄰","STREET":"中正南路","SECT":" ","MAREA":" ","LANE":"２１０巷","ALLEY":"３２弄","HOUSE_NO":"７號","E_COORD97":170212.98000000001,"N_COORD97":2547109.9900000002,"ADDRESS":"中正南路２１０巷３２弄７號","OBJECTID":16549},"geometry":{"x":170212.98000000138,"y":2547109.9900000039}},{"attributes":{"ID":16550,"DIS_CODE":0,"TOWNNAME":"永康區","LI":"尚頂里","LIN":"24鄰","STREET":"中正南路","SECT":" ","MAREA":" ","LANE":"２１０巷","ALLEY":"３２弄","HOUSE_NO":"５號","E_COORD97":170212.09,"N_COORD97":2547115.2400000002,"ADDRESS":"中正南路２１０巷３２弄５號","OBJECTID":16550},"geometry":{"x":170212.08999999985,"y":2547115.2400000021}},{"attributes":{"ID":16551,"DIS_CODE":0,"TOWNNAME":"永康區","LI":"尚頂里","LIN":"24鄰","STREET":"中正南路","SECT":" ","MAREA":" ","LANE":"２１０巷","ALLEY":"３２弄","HOUSE_NO":"１號","E_COORD97":170210.48000000001,"N_COORD97":2547125.4900000002,"ADDRESS":"中正南路２１０巷３２弄１號","OBJECTID":16551},"geometry":{"x":170210.48000000045,"y":2547125.4900000002}},{"attributes":{"ID":16552,"DIS_CODE":0,"TOWNNAME":"永康區","LI":"尚頂里","LIN":"24鄰","STREET":"中正南路","SECT":" ","MAREA":" ","LANE":"２１０巷","ALLEY":"３２弄","HOUSE_NO":"１５號","E_COORD97":170212.85000000001,"N_COORD97":2547086.9900000002,"ADDRESS":"中正南路２１０巷３２弄１５號","OBJECTID":16552},"geometry":{"x":170212.85000000056,"y":2547086.9900000021}},{"attributes":{"ID":16553,"DIS_CODE":0,"TOWNNAME":"永康區","LI":"尚頂里","LIN":"24鄰","STREET":"中正南路","SECT":" ","MAREA":" ","LANE":"２１０巷","ALLEY":"３２弄","HOUSE_NO":"１３號","E_COORD97":170213.42999999999,"N_COORD97":2547092.2400000002,"ADDRESS":"中正南路２１０巷３２弄１３號","OBJECTID":16553},"geometry":{"x":170213.4299999997,"y":2547092.2400000021}},{"attributes":{"ID":16554,"DIS_CODE":0,"TOWNNAME":"永康區","LI":"尚頂里","LIN":"24鄰","STREET":"中正南路","SECT":" ","MAREA":" ","LANE":"２１０巷","ALLEY":"３２弄","HOUSE_NO":"３號","E_COORD97":170211.29000000001,"N_COORD97":2547120.2400000002,"ADDRESS":"中正南路２１０巷３２弄３號","OBJECTID":16554},"geometry":{"x":170211.29000000004,"y":2547120.2400000002}},{"attributes":{"ID":16555,"DIS_CODE":0,"TOWNNAME":"永康區","LI":"尚頂里","LIN":"24鄰","STREET":"中正南路","SECT":" ","MAREA":" ","LANE":"２１０巷","ALLEY":"３２弄","HOUSE_NO":"１１號","E_COORD97":170214.82000000001,"N_COORD97":2547098.7400000002,"ADDRESS":"中正南路２１０巷３２弄１１號","OBJECTID":16555},"geometry":{"x":170214.8200000003,"y":2547098.7400000021}},{"attributes":{"ID":16556,"DIS_CODE":0,"TOWNNAME":"永康區","LI":"北灣里","LIN":"24鄰","STREET":"大灣路","SECT":" ","MAREA":" ","LANE":"３７巷","ALLEY":"２０弄","HOUSE_NO":"１１號","E_COORD97":175410.38,"N_COORD97":2545814.75,"ADDRESS":"大灣路３７巷２０弄１１號","OBJECTID":16556},"geometry":{"x":175410.38000000082,"y":2545814.75}},{"attributes":{"ID":16557,"DIS_CODE":0,"TOWNNAME":"永康區","LI":"北灣里","LIN":"24鄰","STREET":"大灣路","SECT":" ","MAREA":" ","LANE":"３７巷","ALLEY":"２０弄","HOUSE_NO":"１７號","E_COORD97":175415.54999999999,"N_COORD97":2545776.7400000002,"ADDRESS":"大灣路３７巷２０弄１７號","OBJECTID":16557},"geometry":{"x":175415.54999999888,"y":2545776.7400000021}},{"attributes":{"ID":16558,"DIS_CODE":0,"TOWNNAME":"永康區","LI":"北灣里","LIN":"24鄰","STREET":"大灣路","SECT":" ","MAREA":" ","LANE":"３７巷","ALLEY":"８弄","HOUSE_NO":"３號","E_COORD97":175368.98999999999,"N_COORD97":2545841.2400000002,"ADDRESS":"大灣路３７巷８弄３號","OBJECTID":16558},"geometry":{"x":175368.99000000209,"y":2545841.2400000021}},{"attributes":{"ID":16559,"DIS_CODE":0,"TOWNNAME":"永康區","LI":"北灣里","LIN":"24鄰","STREET":"大灣路","SECT":" ","MAREA":" ","LANE":"３７巷","ALLEY":"２０弄","HOUSE_NO":"１５號","E_COORD97":175412.28,"N_COORD97":2545793.5,"ADDRESS":"大灣路３７巷２０弄１５號","OBJECTID":16559},"geometry":{"x":175412.28000000026,"y":2545793.5}},{"attributes":{"ID":16560,"DIS_CODE":0,"TOWNNAME":"永康區","LI":"北灣里","LIN":"24鄰","STREET":"大灣路","SECT":" ","MAREA":" ","LANE":"３７巷","ALLEY":"３０弄","HOUSE_NO":"２３號","E_COORD97":175441.88,"N_COORD97":2545786.2200000002,"ADDRESS":"大灣路３７巷３０弄２３號","OBJECTID":16560},"geometry":{"x":175441.87999999989,"y":2545786.2199999988}},{"attributes":{"ID":16561,"DIS_CODE":0,"TOWNNAME":"永康區","LI":"北灣里","LIN":"24鄰","STREET":"大灣路","SECT":" ","MAREA":" ","LANE":"３７巷","ALLEY":"３０弄","HOUSE_NO":"１３號","E_COORD97":175438.25,"N_COORD97":2545814.2200000002,"ADDRESS":"大灣路３７巷３０弄１３號","OBJECTID":16561},"geometry":{"x":175438.25000000186,"y":2545814.2200000025}},{"attributes":{"ID":16562,"DIS_CODE":0,"TOWNNAME":"永康區","LI":"永康里","LIN":"24鄰","STREET":"中山南路","SECT":" ","MAREA":" ","LANE":"６２１巷","ALLEY":"５弄","HOUSE_NO":"６號","E_COORD97":173545.51999999999,"N_COORD97":2547257,"ADDRESS":"中山南路６２１巷５弄６號","OBJECTID":16562},"geometry":{"x":173545.51999999955,"y":2547257}},{"attributes":{"ID":16563,"DIS_CODE":0,"TOWNNAME":"官田區","LI":"社子里","LIN":"8鄰","STREET":" ","SECT":" ","MAREA":"社子","LANE":" ","ALLEY":" ","HOUSE_NO":"６３號","E_COORD97":184462.34,"N_COORD97":2564352.8599999999,"ADDRESS":"社子６３號","OBJECTID":16563},"geometry":{"x":184462.33999999985,"y":2564352.8599999994}},{"attributes":{"ID":16564,"DIS_CODE":0,"TOWNNAME":"永康區","LI":"北灣里","LIN":"24鄰","STREET":"大灣路","SECT":" ","MAREA":" ","LANE":"３７巷","ALLEY":"３０弄","HOUSE_NO":"９號","E_COORD97":175433.60999999999,"N_COORD97":2545834.96,"ADDRESS":"大灣路３７巷３０弄９號","OBJECTID":16564},"geometry":{"x":175433.61000000034,"y":2545834.9600000009}},{"attributes":{"ID":16565,"DIS_CODE":0,"TOWNNAME":"永康區","LI":"北灣里","LIN":"24鄰","STREET":"大灣路","SECT":" ","MAREA":" ","LANE":"３７巷","ALLEY":"２０弄","HOUSE_NO":"１號","E_COORD97":175403.13,"N_COORD97":2545852.6400000001,"ADDRESS":"大灣路３７巷２０弄１號","OBJECTID":16565},"geometry":{"x":175403.12999999989,"y":2545852.6400000025}},{"attributes":{"ID":16566,"DIS_CODE":0,"TOWNNAME":"永康區","LI":"北灣里","LIN":"24鄰","STREET":"大灣路","SECT":" ","MAREA":" ","LANE":"３７巷","ALLEY":"２０弄","HOUSE_NO":"７號","E_COORD97":175415.17000000001,"N_COORD97":2545830.6499999999,"ADDRESS":"大灣路３７巷２０弄７號","OBJECTID":16566},"geometry":{"x":175415.17000000086,"y":2545830.6500000041}},{"attributes":{"ID":16567,"DIS_CODE":0,"TOWNNAME":"北區","LI":"三德里","LIN":"13鄰","STREET":"裕民街","SECT":" ","MAREA":" ","LANE":" ","ALLEY":" ","HOUSE_NO":"２１號","E_COORD97":168428.84,"N_COORD97":2544421.3500000001,"ADDRESS":"裕民街２１號","OBJECTID":16567},"geometry":{"x":168428.83999999985,"y":2544421.3499999978}},{"attributes":{"ID":16568,"DIS_CODE":0,"TOWNNAME":"永康區","LI":"復華里","LIN":"40鄰","STREET":"復華六街","SECT":" ","MAREA":" ","LANE":" ","ALLEY":" ","HOUSE_NO":"７８號","E_COORD97":172674.10000000001,"N_COORD97":2545856.6400000001,"ADDRESS":"復華六街７８號","OBJECTID":16568},"geometry":{"x":172674.10000000149,"y":2545856.6400000006}},{"attributes":{"ID":16569,"DIS_CODE":0,"TOWNNAME":"永康區","LI":"崑山里","LIN":"40鄰","STREET":"永大路","SECT":"二段","MAREA":" ","LANE":" ","ALLEY":" ","HOUSE_NO":"１０７號","E_COORD97":174215.57999999999,"N_COORD97":2544954.2599999998,"ADDRESS":"永大路二段１０７號","OBJECTID":16569},"geometry":{"x":174215.58000000194,"y":2544954.2599999998}},{"attributes":{"ID":16570,"DIS_CODE":0,"TOWNNAME":"永康區","LI":"西灣里","LIN":"40鄰","STREET":"永華路","SECT":" ","MAREA":" ","LANE":" ","ALLEY":" ","HOUSE_NO":"１７６號","E_COORD97":174110.54000000001,"N_COORD97":2545388.4199999999,"ADDRESS":"永華路１７６號","OBJECTID":16570},"geometry":{"x":174110.53999999911,"y":2545388.4200000018}},{"attributes":{"ID":16571,"DIS_CODE":0,"TOWNNAME":"佳里區","LI":"興化里","LIN":"14鄰","STREET":" ","SECT":" ","MAREA":"佳里興","LANE":" ","ALLEY":" ","HOUSE_NO":"５４５號之３４","E_COORD97":166750.32999999999,"N_COORD97":2565332.7599999998,"ADDRESS":"佳里興５４５號之３４","OBJECTID":16571},"geometry":{"x":166750.33000000101,"y":2565332.7599999998}},{"attributes":{"ID":16572,"DIS_CODE":0,"TOWNNAME":"佳里區","LI":"興化里","LIN":"14鄰","STREET":" ","SECT":" ","MAREA":"佳里興","LANE":" ","ALLEY":" ","HOUSE_NO":"５４５號之３５","E_COORD97":166744.85999999999,"N_COORD97":2565334.25,"ADDRESS":"佳里興５４５號之３５","OBJECTID":16572},"geometry":{"x":166744.8600000022,"y":2565334.2499999981}},{"attributes":{"ID":16573,"DIS_CODE":0,"TOWNNAME":"佳里區","LI":"興化里","LIN":"14鄰","STREET":" ","SECT":" ","MAREA":"佳里興","LANE":" ","ALLEY":" ","HOUSE_NO":"５４５號之３６","E_COORD97":166739.64999999999,"N_COORD97":2565335.5899999999,"ADDRESS":"佳里興５４５號之３６","OBJECTID":16573},"geometry":{"x":166739.65000000224,"y":2565335.5900000036}},{"attributes":{"ID":16574,"DIS_CODE":0,"TOWNNAME":"東山區","LI":"青山里","LIN":"16鄰","STREET":" ","SECT":" ","MAREA":"青山","LANE":" ","ALLEY":" ","HOUSE_NO":"４６號之１９","E_COORD97":195592.70000000001,"N_COORD97":2575224.4900000002,"ADDRESS":"青山４６號之１９","OBJECTID":16574},"geometry":{"x":195592.70000000019,"y":2575224.4900000021}},{"attributes":{"ID":16575,"DIS_CODE":0,"TOWNNAME":"佳里區","LI":"興化里","LIN":"14鄰","STREET":" ","SECT":" ","MAREA":"佳里興","LANE":" ","ALLEY":" ","HOUSE_NO":"５４５號之３７","E_COORD97":166734.10000000001,"N_COORD97":2565337.1499999999,"ADDRESS":"佳里興５４５號之３７","OBJECTID":16575},"geometry":{"x":166734.10000000149,"y":2565337.1500000022}},{"attributes":{"ID":16576,"DIS_CODE":0,"TOWNNAME":"佳里區","LI":"興化里","LIN":"14鄰","STREET":" ","SECT":" ","MAREA":"佳里興","LANE":" ","ALLEY":" ","HOUSE_NO":"５４５號之３８","E_COORD97":166728.79000000001,"N_COORD97":2565338.73,"ADDRESS":"佳里興５４５號之３８","OBJECTID":16576},"geometry":{"x":166728.79000000097,"y":2565338.7300000042}},{"attributes":{"ID":16577,"DIS_CODE":0,"TOWNNAME":"佳里區","LI":"興化里","LIN":"14鄰","STREET":" ","SECT":" ","MAREA":"佳里興","LANE":" ","ALLEY":" ","HOUSE_NO":"５４５號之３９","E_COORD97":166723.60999999999,"N_COORD97":2565339.9199999999,"ADDRESS":"佳里興５４５號之３９","OBJECTID":16577},"geometry":{"x":166723.61000000127,"y":2565339.9200000037}},{"attributes":{"ID":16578,"DIS_CODE":0,"TOWNNAME":"佳里區","LI":"興化里","LIN":"14鄰","STREET":" ","SECT":" ","MAREA":"佳里興","LANE":" ","ALLEY":" ","HOUSE_NO":"５４５號之３","E_COORD97":166732.32999999999,"N_COORD97":2565306.6899999999,"ADDRESS":"佳里興５４５號之３","OBJECTID":16578},"geometry":{"x":166732.33000000007,"y":2565306.6899999995}},{"attributes":{"ID":16579,"DIS_CODE":0,"TOWNNAME":"佳里區","LI":"興化里","LIN":"14鄰","STREET":" ","SECT":" ","MAREA":"佳里興","LANE":" ","ALLEY":" ","HOUSE_NO":"５４５號之４０","E_COORD97":166718.64000000001,"N_COORD97":2565341.1800000002,"ADDRESS":"佳里興５４５號之４０","OBJECTID":16579},"geometry":{"x":166718.64000000153,"y":2565341.1799999978}},{"attributes":{"ID":16580,"DIS_CODE":0,"TOWNNAME":"永康區","LI":"永康里","LIN":"24鄰","STREET":"中山南路","SECT":" ","MAREA":" ","LANE":"６２１巷","ALLEY":"５弄","HOUSE_NO":"４號","E_COORD97":173550.45999999999,"N_COORD97":2547258.25,"ADDRESS":"中山南路６２１巷５弄４號","OBJECTID":16580},"geometry":{"x":173550.46000000089,"y":2547258.2500000019}},{"attributes":{"ID":16581,"DIS_CODE":0,"TOWNNAME":"永康區","LI":"北灣里","LIN":"24鄰","STREET":"大灣路","SECT":" ","MAREA":" ","LANE":"３７巷","ALLEY":"３０弄","HOUSE_NO":"２０號","E_COORD97":175427.95000000001,"N_COORD97":2545807.4700000002,"ADDRESS":"大灣路３７巷３０弄２０號","OBJECTID":16581},"geometry":{"x":175427.95000000019,"y":2545807.4700000007}},{"attributes":{"ID":16582,"DIS_CODE":0,"TOWNNAME":"永康區","LI":"北灣里","LIN":"24鄰","STREET":"大灣路","SECT":" ","MAREA":" ","LANE":"３７巷","ALLEY":"３０弄","HOUSE_NO":"１７號","E_COORD97":175439.62,"N_COORD97":2545802.7200000002,"ADDRESS":"大灣路３７巷３０弄１７號","OBJECTID":16582},"geometry":{"x":175439.62000000104,"y":2545802.7200000007}},{"attributes":{"ID":16583,"DIS_CODE":0,"TOWNNAME":"永康區","LI":"北灣里","LIN":"24鄰","STREET":"大灣路","SECT":" ","MAREA":" ","LANE":"３７巷","ALLEY":"２０弄","HOUSE_NO":"２號","E_COORD97":175392.73999999999,"N_COORD97":2545849.7400000002,"ADDRESS":"大灣路３７巷２０弄２號","OBJECTID":16583},"geometry":{"x":175392.74000000209,"y":2545849.7400000002}},{"attributes":{"ID":16584,"DIS_CODE":0,"TOWNNAME":"永康區","LI":"北灣里","LIN":"24鄰","STREET":"大灣路","SECT":" ","MAREA":" ","LANE":"３７巷","ALLEY":"８弄","HOUSE_NO":"９號","E_COORD97":175377.95999999999,"N_COORD97":2545811,"ADDRESS":"大灣路３７巷８弄９號","OBJECTID":16584},"geometry":{"x":175377.96000000089,"y":2545811.0000000037}},{"attributes":{"ID":16585,"DIS_CODE":0,"TOWNNAME":"安南區","LI":"\u25A0南里","LIN":"24鄰","STREET":"長和路","SECT":"二段","MAREA":" ","LANE":"１２巷","ALLEY":"２６１弄","HOUSE_NO":"５７號","E_COORD97":170256.82999999999,"N_COORD97":2552146.77,"ADDRESS":"長和路二段１２巷２６１弄５７號","OBJECTID":16585},"geometry":{"x":170256.83000000007,"y":2552146.7700000014}},{"attributes":{"ID":16586,"DIS_CODE":0,"TOWNNAME":"安南區","LI":"安順里","LIN":"24鄰","STREET":"北安路","SECT":"三段","MAREA":" ","LANE":"７５２巷","ALLEY":"２２弄","HOUSE_NO":"９１號","E_COORD97":169518.10999999999,"N_COORD97":2550300.2799999998,"ADDRESS":"北安路三段７５２巷２２弄９１號","OBJECTID":16586},"geometry":{"x":169518.1099999994,"y":2550300.2799999993}},{"attributes":{"ID":16587,"DIS_CODE":0,"TOWNNAME":"安南區","LI":"安順里","LIN":"24鄰","STREET":"北安路","SECT":"三段","MAREA":" ","LANE":"７５２巷","ALLEY":"２２弄","HOUSE_NO":"１１２號","E_COORD97":169506.20000000001,"N_COORD97":2550302.1800000002,"ADDRESS":"北安路三段７５２巷２２弄１１２號","OBJECTID":16587},"geometry":{"x":169506.20000000112,"y":2550302.1800000016}},{"attributes":{"ID":16588,"DIS_CODE":0,"TOWNNAME":"安南區","LI":"安順里","LIN":"24鄰","STREET":"北安路","SECT":"三段","MAREA":" ","LANE":"７５２巷","ALLEY":"２２弄","HOUSE_NO":"９６號","E_COORD97":169507.63,"N_COORD97":2550333.77,"ADDRESS":"北安路三段７５２巷２２弄９６號","OBJECTID":16588},"geometry":{"x":169507.63000000082,"y":2550333.7699999996}},{"attributes":{"ID":16589,"DIS_CODE":0,"TOWNNAME":"安南區","LI":"安順里","LIN":"24鄰","STREET":"北安路","SECT":"三段","MAREA":" ","LANE":"７５２巷","ALLEY":"２２弄","HOUSE_NO":"９８號","E_COORD97":169507.63,"N_COORD97":2550329.1699999999,"ADDRESS":"北安路三段７５２巷２２弄９８號","OBJECTID":16589},"geometry":{"x":169507.63000000082,"y":2550329.1700000037}},{"attributes":{"ID":16590,"DIS_CODE":0,"TOWNNAME":"安南區","LI":"安順里","LIN":"24鄰","STREET":"北安路","SECT":"三段","MAREA":" ","LANE":"７５２巷","ALLEY":"２２弄","HOUSE_NO":"１００號","E_COORD97":169507.79000000001,"N_COORD97":2550325.04,"ADDRESS":"北安路三段７５２巷２２弄１００號","OBJECTID":16590},"geometry":{"x":169507.79000000004,"y":2550325.0399999991}},{"attributes":{"ID":16591,"DIS_CODE":0,"TOWNNAME":"安南區","LI":"安順里","LIN":"24鄰","STREET":"北安路","SECT":"三段","MAREA":" ","LANE":"７５２巷","ALLEY":"２２弄","HOUSE_NO":"１０２號","E_COORD97":169507.63,"N_COORD97":2550321.23,"ADDRESS":"北安路三段７５２巷２２弄１０２號","OBJECTID":16591},"geometry":{"x":169507.63000000082,"y":2550321.2300000004}},{"attributes":{"ID":16592,"DIS_CODE":0,"TOWNNAME":"安南區","LI":"安順里","LIN":"24鄰","STREET":"北安路","SECT":"三段","MAREA":" ","LANE":"７５２巷","ALLEY":"２２弄","HOUSE_NO":"１０６號","E_COORD97":169507.79000000001,"N_COORD97":2550316.79,"ADDRESS":"北安路三段７５２巷２２弄１０６號","OBJECTID":16592},"geometry":{"x":169507.79000000004,"y":2550316.7899999991}},{"attributes":{"ID":16593,"DIS_CODE":0,"TOWNNAME":"安南區","LI":"安順里","LIN":"24鄰","STREET":"北安路","SECT":"三段","MAREA":" ","LANE":"７５２巷","ALLEY":"２２弄","HOUSE_NO":"１０８號","E_COORD97":169507.47,"N_COORD97":2550311.5499999998,"ADDRESS":"北安路三段７５２巷２２弄１０８號","OBJECTID":16593},"geometry":{"x":169507.47000000067,"y":2550311.5500000026}},{"attributes":{"ID":16594,"DIS_CODE":0,"TOWNNAME":"安南區","LI":"安順里","LIN":"24鄰","STREET":"北安路","SECT":"三段","MAREA":" ","LANE":"７５２巷","ALLEY":"２２弄","HOUSE_NO":"１１０號","E_COORD97":169507.31,"N_COORD97":2550306.6299999999,"ADDRESS":"北安路三段７５２巷２２弄１１０號","OBJECTID":16594},"geometry":{"x":169507.30999999959,"y":2550306.629999999}},{"attributes":{"ID":16595,"DIS_CODE":0,"TOWNNAME":"安南區","LI":"安順里","LIN":"24鄰","STREET":"北安路","SECT":"三段","MAREA":" ","LANE":"７５２巷","ALLEY":"２２弄","HOUSE_NO":"７７號","E_COORD97":169518.89999999999,"N_COORD97":2550327.5800000001,"ADDRESS":"北安路三段７５２巷２２弄７７號","OBJECTID":16595},"geometry":{"x":169518.90000000037,"y":2550327.5800000019}},{"attributes":{"ID":16596,"DIS_CODE":0,"TOWNNAME":"安南區","LI":"安順里","LIN":"24鄰","STREET":"北安路","SECT":"三段","MAREA":" ","LANE":"７５２巷","ALLEY":"２２弄","HOUSE_NO":"７９號","E_COORD97":169518.57999999999,"N_COORD97":2550321.71,"ADDRESS":"北安路三段７５２巷２２弄７９號","OBJECTID":16596},"geometry":{"x":169518.58000000101,"y":2550321.7100000009}},{"attributes":{"ID":16597,"DIS_CODE":0,"TOWNNAME":"安南區","LI":"安順里","LIN":"24鄰","STREET":"北安路","SECT":"三段","MAREA":" ","LANE":"７５２巷","ALLEY":"２２弄","HOUSE_NO":"８１號","E_COORD97":169518.42999999999,"N_COORD97":2550318.0600000001,"ADDRESS":"北安路三段７５２巷２２弄８１號","OBJECTID":16597},"geometry":{"x":169518.4299999997,"y":2550318.0600000024}},{"attributes":{"ID":16598,"DIS_CODE":0,"TOWNNAME":"安南區","LI":"安順里","LIN":"24鄰","STREET":"北安路","SECT":"三段","MAREA":" ","LANE":"７５２巷","ALLEY":"２２弄","HOUSE_NO":"８３號","E_COORD97":169518.10999999999,"N_COORD97":2550314.7200000002,"ADDRESS":"北安路三段７５２巷２２弄８３號","OBJECTID":16598},"geometry":{"x":169518.1099999994,"y":2550314.7200000007}},{"attributes":{"ID":16599,"DIS_CODE":0,"TOWNNAME":"安南區","LI":"安順里","LIN":"24鄰","STREET":"北安路","SECT":"三段","MAREA":" ","LANE":"７５２巷","ALLEY":"２２弄","HOUSE_NO":"８５號","E_COORD97":169517.79000000001,"N_COORD97":2550310.9100000001,"ADDRESS":"北安路三段７５２巷２２弄８５號","OBJECTID":16599},"geometry":{"x":169517.79000000004,"y":2550310.9100000039}},{"attributes":{"ID":16600,"DIS_CODE":0,"TOWNNAME":"新市區","LI":"新和里","LIN":"40鄰","STREET":"信義街","SECT":" ","MAREA":" ","LANE":" ","ALLEY":" ","HOUSE_NO":"７８號","E_COORD97":177227.48000000001,"N_COORD97":2552929.77,"ADDRESS":"信義街７８號","OBJECTID":16600},"geometry":{"x":177227.48000000138,"y":2552929.7700000014}}]}