{"displayFieldName":"TOWNNAME","fieldAliases":{"ID":"ID","DIS_CODE":"DIS_CODE","TOWNNAME":"TOWNNAME","LI":"LI","LIN":"LIN","STREET":"STREET","SECT":"SECT","MAREA":"MAREA","LANE":"LANE","ALLEY":"ALLEY","HOUSE_NO":"HOUSE_NO","E_COORD97":"E_COORD97","N_COORD97":"N_COORD97","ADDRESS":"ADDRESS","OBJECTID":"OBJECTID"},"geometryType":"esriGeometryPoint","spatialReference":{"wkid":102443,"latestWkid":3826},"fields":[{"name":"ID","type":"esriFieldTypeDouble","alias":"ID"},{"name":"DIS_CODE","type":"esriFieldTypeInteger","alias":"DIS_CODE"},{"name":"TOWNNAME","type":"esriFieldTypeString","alias":"TOWNNAME","length":8},{"name":"LI","type":"esriFieldTypeString","alias":"LI","length":8},{"name":"LIN","type":"esriFieldTypeString","alias":"LIN","length":12},{"name":"STREET","type":"esriFieldTypeString","alias":"STREET","length":20},{"name":"SECT","type":"esriFieldTypeString","alias":"SECT","length":8},{"name":"MAREA","type":"esriFieldTypeString","alias":"MAREA","length":12},{"name":"LANE","type":"esriFieldTypeString","alias":"LANE","length":10},{"name":"ALLEY","type":"esriFieldTypeString","alias":"ALLEY","length":10},{"name":"HOUSE_NO","type":"esriFieldTypeString","alias":"HOUSE_NO","length":20},{"name":"E_COORD97","type":"esriFieldTypeDouble","alias":"E_COORD97"},{"name":"N_COORD97","type":"esriFieldTypeDouble","alias":"N_COORD97"},{"name":"ADDRESS","type":"esriFieldTypeString","alias":"ADDRESS","length":50},{"name":"OBJECTID","type":"esriFieldTypeOID","alias":"OBJECTID"}],"features":[{"attributes":{"ID":328610,"DIS_CODE":0,"TOWNNAME":"歸仁區","LI":"八甲里","LIN":"1鄰","STREET":"大德路","SECT":" ","MAREA":" ","LANE":" ","ALLEY":" ","HOUSE_NO":"１５８號","E_COORD97":177956.14921599999,"N_COORD97":2541397.2474199999,"ADDRESS":"大德路１５８號","OBJECTID":328601},"geometry":{"x":177956.14921600092,"y":2541397.2474179994}},{"attributes":{"ID":328611,"DIS_CODE":0,"TOWNNAME":"善化區","LI":"光文里","LIN":"4鄰","STREET":" ","SECT":" ","MAREA":"北子店","LANE":"１６０巷","ALLEY":" ","HOUSE_NO":"８號","E_COORD97":179424.09,"N_COORD97":2559605.25,"ADDRESS":"北子店１６０巷８號","OBJECTID":328602},"geometry":{"x":179424.08999999985,"y":2559605.2500000019}},{"attributes":{"ID":328612,"DIS_CODE":0,"TOWNNAME":"善化區","LI":"光文里","LIN":"4鄰","STREET":" ","SECT":" ","MAREA":"北子店","LANE":"１６０巷","ALLEY":" ","HOUSE_NO":"５號","E_COORD97":179437.12,"N_COORD97":2559604.75,"ADDRESS":"北子店１６０巷５號","OBJECTID":328603},"geometry":{"x":179437.12000000104,"y":2559604.7500000037}},{"attributes":{"ID":328613,"DIS_CODE":0,"TOWNNAME":"善化區","LI":"光文里","LIN":"4鄰","STREET":" ","SECT":" ","MAREA":"北子店","LANE":"１６０巷","ALLEY":" ","HOUSE_NO":"９號","E_COORD97":179445.07000000001,"N_COORD97":2559585.25,"ADDRESS":"北子店１６０巷９號","OBJECTID":328604},"geometry":{"x":179445.0700000003,"y":2559585.2500000019}},{"attributes":{"ID":328614,"DIS_CODE":0,"TOWNNAME":"善化區","LI":"小新里","LIN":"20鄰","STREET":" ","SECT":" ","MAREA":"小新營","LANE":" ","ALLEY":" ","HOUSE_NO":"３７２號","E_COORD97":180224.20999999999,"N_COORD97":2557113,"ADDRESS":"小新營３７２號","OBJECTID":328605},"geometry":{"x":180224.21000000089,"y":2557113}},{"attributes":{"ID":328615,"DIS_CODE":0,"TOWNNAME":"善化區","LI":"小新里","LIN":"4鄰","STREET":" ","SECT":" ","MAREA":"小新營","LANE":" ","ALLEY":" ","HOUSE_NO":"３２號","E_COORD97":179777.85000000001,"N_COORD97":2558345.25,"ADDRESS":"小新營３２號","OBJECTID":328606},"geometry":{"x":179777.84999999963,"y":2558345.25}},{"attributes":{"ID":328616,"DIS_CODE":0,"TOWNNAME":"善化區","LI":"牛庄里","LIN":" ","STREET":" ","SECT":" ","MAREA":"牛庄","LANE":" ","ALLEY":" ","HOUSE_NO":"１３７號","E_COORD97":179931,"N_COORD97":2559890.5,"ADDRESS":"牛庄１３７號","OBJECTID":328607},"geometry":{"x":179931.00000000093,"y":2559890.5}},{"attributes":{"ID":328617,"DIS_CODE":0,"TOWNNAME":"善化區","LI":"小新里","LIN":"20鄰","STREET":" ","SECT":" ","MAREA":"小新營","LANE":" ","ALLEY":" ","HOUSE_NO":"１６６之９號","E_COORD97":180102.64999999999,"N_COORD97":2558224.77,"ADDRESS":"小新營１６６之９號","OBJECTID":328608},"geometry":{"x":180102.64999999944,"y":2558224.7700000014}},{"attributes":{"ID":328618,"DIS_CODE":0,"TOWNNAME":"新營區","LI":"埤寮里","LIN":"15鄰","STREET":"長榮路","SECT":"一段","MAREA":" ","LANE":"５６０巷","ALLEY":" ","HOUSE_NO":"２２號","E_COORD97":180143.44,"N_COORD97":2579943.0600000001,"ADDRESS":"長榮路一段５６０巷２２號","OBJECTID":328609},"geometry":{"x":180143.44000000134,"y":2579943.0600000024}},{"attributes":{"ID":328619,"DIS_CODE":0,"TOWNNAME":"善化區","LI":"小新里","LIN":"13鄰","STREET":" ","SECT":" ","MAREA":"小新營","LANE":" ","ALLEY":" ","HOUSE_NO":"１０６之２７號","E_COORD97":179657.98999999999,"N_COORD97":2558125.02,"ADDRESS":"小新營１０６之２７號","OBJECTID":328610},"geometry":{"x":179657.99000000115,"y":2558125.0200000014}},{"attributes":{"ID":328620,"DIS_CODE":0,"TOWNNAME":"新營區","LI":"新北里","LIN":"15鄰","STREET":"南新街","SECT":" ","MAREA":" ","LANE":"１３巷","ALLEY":" ","HOUSE_NO":"８０號","E_COORD97":179235,"N_COORD97":2578825.5299999998,"ADDRESS":"南新街１３巷８０號","OBJECTID":328611},"geometry":{"x":179235,"y":2578825.5300000031}},{"attributes":{"ID":328621,"DIS_CODE":0,"TOWNNAME":"善化區","LI":"田寮里","LIN":" ","STREET":" ","SECT":" ","MAREA":"六分寮","LANE":" ","ALLEY":" ","HOUSE_NO":"１１５之１號","E_COORD97":178643.51000000001,"N_COORD97":2561398.27,"ADDRESS":"六分寮１１５之１號","OBJECTID":328612},"geometry":{"x":178643.51000000164,"y":2561398.2700000014}},{"attributes":{"ID":328622,"DIS_CODE":0,"TOWNNAME":"六甲區","LI":"龍湖里","LIN":"15鄰","STREET":"中正路","SECT":" ","MAREA":" ","LANE":"１０４巷","ALLEY":" ","HOUSE_NO":"１２號","E_COORD97":183880.73999999999,"N_COORD97":2568729.9900000002,"ADDRESS":"中正路１０４巷１２號","OBJECTID":328613},"geometry":{"x":183880.74000000115,"y":2568729.9899999984}},{"attributes":{"ID":328623,"DIS_CODE":0,"TOWNNAME":"六甲區","LI":"龍湖里","LIN":"15鄰","STREET":"中正路","SECT":" ","MAREA":" ","LANE":"１０４巷","ALLEY":" ","HOUSE_NO":"１５之１號","E_COORD97":183658.54000000001,"N_COORD97":2568743.7000000002,"ADDRESS":"中正路１０４巷１５之１號","OBJECTID":328614},"geometry":{"x":183658.54000000097,"y":2568743.6999999993}},{"attributes":{"ID":328624,"DIS_CODE":0,"TOWNNAME":"善化區","LI":"田寮里","LIN":" ","STREET":" ","SECT":" ","MAREA":"六分寮","LANE":" ","ALLEY":" ","HOUSE_NO":"１１７之１號","E_COORD97":178623.32999999999,"N_COORD97":2561387.02,"ADDRESS":"六分寮１１７之１號","OBJECTID":328615},"geometry":{"x":178623.33000000101,"y":2561387.0200000014}},{"attributes":{"ID":328625,"DIS_CODE":0,"TOWNNAME":"六甲區","LI":"龍湖里","LIN":"15鄰","STREET":"中正路","SECT":" ","MAREA":" ","LANE":"１０４巷","ALLEY":" ","HOUSE_NO":"１號","E_COORD97":183463.31,"N_COORD97":2568811.21,"ADDRESS":"中正路１０４巷１號","OBJECTID":328616},"geometry":{"x":183463.30999999959,"y":2568811.2100000028}},{"attributes":{"ID":328626,"DIS_CODE":0,"TOWNNAME":"六甲區","LI":"龍湖里","LIN":"15鄰","STREET":"中正路","SECT":" ","MAREA":" ","LANE":"１０４巷","ALLEY":" ","HOUSE_NO":"２之１號","E_COORD97":183465.75,"N_COORD97":2568778.6499999999,"ADDRESS":"中正路１０４巷２之１號","OBJECTID":328617},"geometry":{"x":183465.75000000093,"y":2568778.6500000004}},{"attributes":{"ID":328627,"DIS_CODE":0,"TOWNNAME":"善化區","LI":"什乃里","LIN":"4鄰","STREET":" ","SECT":" ","MAREA":"什乃","LANE":" ","ALLEY":" ","HOUSE_NO":"３６號之１","E_COORD97":176065.34,"N_COORD97":2560446.27,"ADDRESS":"什乃３６號之１","OBJECTID":328618},"geometry":{"x":176065.34000000078,"y":2560446.2700000014}},{"attributes":{"ID":328628,"DIS_CODE":0,"TOWNNAME":"善化區","LI":"坐駕里","LIN":"20鄰","STREET":" ","SECT":" ","MAREA":"坐駕","LANE":" ","ALLEY":" ","HOUSE_NO":"６９號","E_COORD97":178275.44,"N_COORD97":2558346,"ADDRESS":"坐駕６９號","OBJECTID":328619},"geometry":{"x":178275.44000000134,"y":2558346.0000000019}},{"attributes":{"ID":328629,"DIS_CODE":0,"TOWNNAME":"善化區","LI":"小新里","LIN":"20鄰","STREET":" ","SECT":" ","MAREA":"小新營","LANE":" ","ALLEY":" ","HOUSE_NO":"３４０號","E_COORD97":180313.94,"N_COORD97":2557863.25,"ADDRESS":"小新營３４０號","OBJECTID":328620},"geometry":{"x":180313.94000000041,"y":2557863.2500000019}},{"attributes":{"ID":328630,"DIS_CODE":0,"TOWNNAME":"善化區","LI":"小新里","LIN":"20鄰","STREET":" ","SECT":" ","MAREA":"小新營","LANE":" ","ALLEY":" ","HOUSE_NO":"３６７號","E_COORD97":180176.70999999999,"N_COORD97":2558263,"ADDRESS":"小新營３６７號","OBJECTID":328621},"geometry":{"x":180176.71000000089,"y":2558263}},{"attributes":{"ID":328631,"DIS_CODE":0,"TOWNNAME":"善化區","LI":"小新里","LIN":"20鄰","STREET":" ","SECT":" ","MAREA":"小新營","LANE":" ","ALLEY":" ","HOUSE_NO":"３６８號","E_COORD97":180202.45000000001,"N_COORD97":2557112.75,"ADDRESS":"小新營３６８號","OBJECTID":328622},"geometry":{"x":180202.45000000112,"y":2557112.7500000037}},{"attributes":{"ID":328632,"DIS_CODE":0,"TOWNNAME":"善化區","LI":"光文里","LIN":"4鄰","STREET":" ","SECT":" ","MAREA":"北子店","LANE":"１６０巷","ALLEY":" ","HOUSE_NO":"４２號","E_COORD97":179463.13,"N_COORD97":2559520.75,"ADDRESS":"北子店１６０巷４２號","OBJECTID":328623},"geometry":{"x":179463.12999999989,"y":2559520.7500000019}},{"attributes":{"ID":328633,"DIS_CODE":0,"TOWNNAME":"善化區","LI":"小新里","LIN":"20鄰","STREET":" ","SECT":" ","MAREA":"小新營","LANE":" ","ALLEY":" ","HOUSE_NO":"３４２號","E_COORD97":180231.35000000001,"N_COORD97":2557718.5,"ADDRESS":"小新營３４２號","OBJECTID":328624},"geometry":{"x":180231.35000000056,"y":2557718.5000000019}},{"attributes":{"ID":328634,"DIS_CODE":0,"TOWNNAME":"善化區","LI":"六德里","LIN":"13鄰","STREET":" ","SECT":" ","MAREA":"六分寮","LANE":" ","ALLEY":" ","HOUSE_NO":"３０４號","E_COORD97":178541.09,"N_COORD97":2561559.5,"ADDRESS":"六分寮３０４號","OBJECTID":328625},"geometry":{"x":178541.08999999985,"y":2561559.5000000037}},{"attributes":{"ID":328635,"DIS_CODE":0,"TOWNNAME":"善化區","LI":"胡家里","LIN":"4鄰","STREET":" ","SECT":" ","MAREA":"胡厝寮","LANE":" ","ALLEY":" ","HOUSE_NO":"３１號之５","E_COORD97":175420.39999999999,"N_COORD97":2560430.02,"ADDRESS":"胡厝寮３１號之５","OBJECTID":328626},"geometry":{"x":175420.40000000037,"y":2560430.0200000014}},{"attributes":{"ID":328636,"DIS_CODE":0,"TOWNNAME":"六甲區","LI":"龍湖里","LIN":"15鄰","STREET":"中正路","SECT":" ","MAREA":" ","LANE":"３２巷","ALLEY":" ","HOUSE_NO":"１０號","E_COORD97":183520.87,"N_COORD97":2568540.3399999999,"ADDRESS":"中正路３２巷１０號","OBJECTID":328627},"geometry":{"x":183520.87000000104,"y":2568540.3399999999}},{"attributes":{"ID":328637,"DIS_CODE":0,"TOWNNAME":"六甲區","LI":"龍湖里","LIN":"15鄰","STREET":"中正路","SECT":" ","MAREA":" ","LANE":"３２巷","ALLEY":" ","HOUSE_NO":"１號","E_COORD97":183487.72,"N_COORD97":2568605.98,"ADDRESS":"中正路３２巷１號","OBJECTID":328628},"geometry":{"x":183487.72000000067,"y":2568605.9800000023}},{"attributes":{"ID":328638,"DIS_CODE":0,"TOWNNAME":"六甲區","LI":"龍湖里","LIN":"15鄰","STREET":"中正路","SECT":" ","MAREA":" ","LANE":"３２巷","ALLEY":" ","HOUSE_NO":"２６號","E_COORD97":183669.20000000001,"N_COORD97":2568506.6499999999,"ADDRESS":"中正路３２巷２６號","OBJECTID":328629},"geometry":{"x":183669.20000000112,"y":2568506.6500000022}},{"attributes":{"ID":328639,"DIS_CODE":0,"TOWNNAME":"六甲區","LI":"龍湖里","LIN":"15鄰","STREET":"中正路","SECT":" ","MAREA":" ","LANE":"３２巷","ALLEY":" ","HOUSE_NO":"２號","E_COORD97":183523.42000000001,"N_COORD97":2568655.8199999998,"ADDRESS":"中正路３２巷２號","OBJECTID":328630},"geometry":{"x":183523.42000000086,"y":2568655.8200000003}},{"attributes":{"ID":328640,"DIS_CODE":0,"TOWNNAME":"六甲區","LI":"龍湖里","LIN":"15鄰","STREET":"中正路","SECT":" ","MAREA":" ","LANE":"３２巷","ALLEY":" ","HOUSE_NO":"３號之６","E_COORD97":183551.89999999999,"N_COORD97":2568585.4100000001,"ADDRESS":"中正路３２巷３號之６","OBJECTID":328631},"geometry":{"x":183551.90000000037,"y":2568585.410000002}},{"attributes":{"ID":328641,"DIS_CODE":0,"TOWNNAME":"六甲區","LI":"龍湖里","LIN":"15鄰","STREET":"中正路","SECT":" ","MAREA":" ","LANE":"３２巷","ALLEY":" ","HOUSE_NO":"３號","E_COORD97":183554.54000000001,"N_COORD97":2568614.5,"ADDRESS":"中正路３２巷３號","OBJECTID":328632},"geometry":{"x":183554.5400000019,"y":2568614.4999999981}},{"attributes":{"ID":328642,"DIS_CODE":0,"TOWNNAME":"善化區","LI":"六德里","LIN":"13鄰","STREET":" ","SECT":" ","MAREA":"六分寮","LANE":" ","ALLEY":" ","HOUSE_NO":"３０６號之５","E_COORD97":178582.19,"N_COORD97":2561533.52,"ADDRESS":"六分寮３０６號之５","OBJECTID":328633},"geometry":{"x":178582.19000000134,"y":2561533.5199999996}},{"attributes":{"ID":328643,"DIS_CODE":0,"TOWNNAME":"六甲區","LI":"龍湖里","LIN":"15鄰","STREET":"中正路","SECT":" ","MAREA":" ","LANE":"３２巷","ALLEY":" ","HOUSE_NO":"４號","E_COORD97":183587.82999999999,"N_COORD97":2568591.3799999999,"ADDRESS":"中正路３２巷４號","OBJECTID":328634},"geometry":{"x":183587.83000000007,"y":2568591.3800000008}},{"attributes":{"ID":328644,"DIS_CODE":0,"TOWNNAME":"六甲區","LI":"龍湖里","LIN":"15鄰","STREET":"中正路","SECT":" ","MAREA":" ","LANE":"３２巷","ALLEY":" ","HOUSE_NO":"５號","E_COORD97":183708.70999999999,"N_COORD97":2568493.0600000001,"ADDRESS":"中正路３２巷５號","OBJECTID":328635},"geometry":{"x":183708.70999999996,"y":2568493.0600000024}},{"attributes":{"ID":328645,"DIS_CODE":0,"TOWNNAME":"善化區","LI":"胡家里","LIN":"4鄰","STREET":" ","SECT":" ","MAREA":"胡厝寮","LANE":" ","ALLEY":" ","HOUSE_NO":"３１號之４","E_COORD97":175426.04999999999,"N_COORD97":2560432.77,"ADDRESS":"胡厝寮３１號之４","OBJECTID":328636},"geometry":{"x":175426.05000000075,"y":2560432.7700000014}},{"attributes":{"ID":328646,"DIS_CODE":0,"TOWNNAME":"善化區","LI":"牛庄里","LIN":"14鄰","STREET":" ","SECT":" ","MAREA":"牛庄","LANE":" ","ALLEY":" ","HOUSE_NO":"１４１號之１０","E_COORD97":179953.20000000001,"N_COORD97":2559851.52,"ADDRESS":"牛庄１４１號之１０","OBJECTID":328637},"geometry":{"x":179953.20000000112,"y":2559851.5200000014}},{"attributes":{"ID":328647,"DIS_CODE":0,"TOWNNAME":"六甲區","LI":"水林里","LIN":"15鄰","STREET":"民族街","SECT":" ","MAREA":" ","LANE":"２４０巷","ALLEY":" ","HOUSE_NO":"１２號","E_COORD97":183312.39999999999,"N_COORD97":2570418.1699999999,"ADDRESS":"民族街２４０巷１２號","OBJECTID":328638},"geometry":{"x":183312.4000000013,"y":2570418.1700000018}},{"attributes":{"ID":328648,"DIS_CODE":0,"TOWNNAME":"六甲區","LI":"水林里","LIN":"15鄰","STREET":"民族街","SECT":" ","MAREA":" ","LANE":"２４０巷","ALLEY":" ","HOUSE_NO":"１５號","E_COORD97":183255.29999999999,"N_COORD97":2570398.8900000001,"ADDRESS":"民族街２４０巷１５號","OBJECTID":328639},"geometry":{"x":183255.29999999981,"y":2570398.8900000006}},{"attributes":{"ID":328649,"DIS_CODE":0,"TOWNNAME":"新營區","LI":"新北里","LIN":"15鄰","STREET":"南新街","SECT":" ","MAREA":" ","LANE":"１３巷","ALLEY":" ","HOUSE_NO":"９２號","E_COORD97":179230.92000000001,"N_COORD97":2578847.7000000002,"ADDRESS":"南新街１３巷９２號","OBJECTID":328640},"geometry":{"x":179230.92000000179,"y":2578847.6999999993}},{"attributes":{"ID":328650,"DIS_CODE":0,"TOWNNAME":"南區","LI":"同安里","LIN":"15鄰","STREET":"明興路","SECT":" ","MAREA":" ","LANE":"１３９５巷","ALLEY":" ","HOUSE_NO":"２０號","E_COORD97":166427.29999999999,"N_COORD97":2535814.6299999999,"ADDRESS":"明興路１３９５巷２０號","OBJECTID":328641},"geometry":{"x":166427.29999999981,"y":2535814.6300000008}},{"attributes":{"ID":328651,"DIS_CODE":0,"TOWNNAME":"歸仁區","LI":"歸仁里","LIN":"15鄰","STREET":"信義北路","SECT":" ","MAREA":" ","LANE":"９６巷","ALLEY":" ","HOUSE_NO":"２號","E_COORD97":178013.17000000001,"N_COORD97":2541039.1099999999,"ADDRESS":"信義北路９６巷２號","OBJECTID":328642},"geometry":{"x":178013.16999999993,"y":2541039.1099999975}},{"attributes":{"ID":328652,"DIS_CODE":0,"TOWNNAME":"善化區","LI":"光文里","LIN":"4鄰","STREET":" ","SECT":" ","MAREA":"北子店","LANE":"１６０巷","ALLEY":" ","HOUSE_NO":"７號之１","E_COORD97":179441.64999999999,"N_COORD97":2559591.77,"ADDRESS":"北子店１６０巷７號之１","OBJECTID":328643},"geometry":{"x":179441.65000000224,"y":2559591.7700000014}},{"attributes":{"ID":328653,"DIS_CODE":0,"TOWNNAME":"善化區","LI":"六分里","LIN":" ","STREET":" ","SECT":" ","MAREA":"六分寮","LANE":" ","ALLEY":" ","HOUSE_NO":"３３６之１號","E_COORD97":178256.32999999999,"N_COORD97":2561322.52,"ADDRESS":"六分寮３３６之１號","OBJECTID":328644},"geometry":{"x":178256.33000000007,"y":2561322.5200000014}},{"attributes":{"ID":328654,"DIS_CODE":0,"TOWNNAME":"善化區","LI":"光文里","LIN":"6鄰","STREET":" ","SECT":" ","MAREA":"北子店","LANE":"２２８巷","ALLEY":" ","HOUSE_NO":"４號","E_COORD97":179212.25,"N_COORD97":2559587.52,"ADDRESS":"北子店２２８巷４號","OBJECTID":328645},"geometry":{"x":179212.25000000093,"y":2559587.5199999996}},{"attributes":{"ID":328655,"DIS_CODE":0,"TOWNNAME":"善化區","LI":"牛庄里","LIN":" ","STREET":" ","SECT":" ","MAREA":"牛庄","LANE":" ","ALLEY":" ","HOUSE_NO":"１之４號","E_COORD97":180098.57000000001,"N_COORD97":2559747.77,"ADDRESS":"牛庄１之４號","OBJECTID":328646},"geometry":{"x":180098.57000000123,"y":2559747.7700000014}},{"attributes":{"ID":328656,"DIS_CODE":0,"TOWNNAME":"善化區","LI":"文正里","LIN":" ","STREET":"文正路","SECT":" ","MAREA":" ","LANE":"７９巷","ALLEY":" ","HOUSE_NO":"４１號","E_COORD97":177020.76999999999,"N_COORD97":2559375.0299999998,"ADDRESS":"文正路７９巷４１號","OBJECTID":328647},"geometry":{"x":177020.76999999862,"y":2559375.0300000031}},{"attributes":{"ID":328657,"DIS_CODE":0,"TOWNNAME":"南區","LI":"同安里","LIN":"15鄰","STREET":"明興路","SECT":" ","MAREA":" ","LANE":"１３９５巷","ALLEY":" ","HOUSE_NO":"２１號","E_COORD97":166436.01000000001,"N_COORD97":2535835.1099999999,"ADDRESS":"明興路１３９５巷２１號","OBJECTID":328648},"geometry":{"x":166436.00999999978,"y":2535835.1100000031}},{"attributes":{"ID":328658,"DIS_CODE":0,"TOWNNAME":"善化區","LI":"小新里","LIN":"20鄰","STREET":" ","SECT":" ","MAREA":"小新營","LANE":" ","ALLEY":" ","HOUSE_NO":"１６６號之３","E_COORD97":180047.32000000001,"N_COORD97":2558211.27,"ADDRESS":"小新營１６６號之３","OBJECTID":328649},"geometry":{"x":180047.32000000216,"y":2558211.2700000014}},{"attributes":{"ID":328659,"DIS_CODE":0,"TOWNNAME":"善化區","LI":"小新里","LIN":" ","STREET":" ","SECT":" ","MAREA":"小新營","LANE":" ","ALLEY":" ","HOUSE_NO":"５８之２號","E_COORD97":179645.62,"N_COORD97":2558263.27,"ADDRESS":"小新營５８之２號","OBJECTID":328650},"geometry":{"x":179645.62000000104,"y":2558263.2699999996}},{"attributes":{"ID":328660,"DIS_CODE":0,"TOWNNAME":"善化區","LI":"小新里","LIN":"20鄰","STREET":" ","SECT":" ","MAREA":"小新營","LANE":" ","ALLEY":" ","HOUSE_NO":"３８４號","E_COORD97":180256.66,"N_COORD97":2557124,"ADDRESS":"小新營３８４號","OBJECTID":328651},"geometry":{"x":180256.66000000201,"y":2557124}},{"attributes":{"ID":328661,"DIS_CODE":0,"TOWNNAME":"南區","LI":"同安里","LIN":"15鄰","STREET":"明興路","SECT":" ","MAREA":" ","LANE":"１３９５巷","ALLEY":" ","HOUSE_NO":"２２號","E_COORD97":166432.03,"N_COORD97":2535815.52,"ADDRESS":"明興路１３９５巷２２號","OBJECTID":328652},"geometry":{"x":166432.03000000119,"y":2535815.5200000033}},{"attributes":{"ID":328662,"DIS_CODE":0,"TOWNNAME":"善化區","LI":"六德里","LIN":"4鄰","STREET":" ","SECT":" ","MAREA":"六分寮","LANE":" ","ALLEY":" ","HOUSE_NO":"２２９號","E_COORD97":178785.07999999999,"N_COORD97":2561743.75,"ADDRESS":"六分寮２２９號","OBJECTID":328653},"geometry":{"x":178785.08000000007,"y":2561743.75}},{"attributes":{"ID":328663,"DIS_CODE":0,"TOWNNAME":"善化區","LI":"六分里","LIN":" ","STREET":" ","SECT":" ","MAREA":"六分寮","LANE":" ","ALLEY":" ","HOUSE_NO":"３３６之２號","E_COORD97":178251.73999999999,"N_COORD97":2561321.02,"ADDRESS":"六分寮３３６之２號","OBJECTID":328654},"geometry":{"x":178251.74000000022,"y":2561321.0199999996}},{"attributes":{"ID":328664,"DIS_CODE":0,"TOWNNAME":"善化區","LI":"田寮里","LIN":"13鄰","STREET":" ","SECT":" ","MAREA":"六分寮","LANE":" ","ALLEY":" ","HOUSE_NO":"１４２號之１","E_COORD97":178709.54999999999,"N_COORD97":2561262.52,"ADDRESS":"六分寮１４２號之１","OBJECTID":328655},"geometry":{"x":178709.55000000075,"y":2561262.5199999996}},{"attributes":{"ID":328665,"DIS_CODE":0,"TOWNNAME":"善化區","LI":"田寮里","LIN":"14鄰","STREET":" ","SECT":" ","MAREA":"六分寮","LANE":" ","ALLEY":" ","HOUSE_NO":"１５３之２號","E_COORD97":178665.39999999999,"N_COORD97":2561493.02,"ADDRESS":"六分寮１５３之２號","OBJECTID":328656},"geometry":{"x":178665.4000000013,"y":2561493.0199999996}},{"attributes":{"ID":328666,"DIS_CODE":0,"TOWNNAME":"善化區","LI":"六分里","LIN":" ","STREET":" ","SECT":" ","MAREA":"東勢宅","LANE":" ","ALLEY":" ","HOUSE_NO":"１０６號","E_COORD97":177663.70000000001,"N_COORD97":2561294.0099999998,"ADDRESS":"東勢宅１０６號","OBJECTID":328657},"geometry":{"x":177663.70000000019,"y":2561294.0099999998}},{"attributes":{"ID":328667,"DIS_CODE":0,"TOWNNAME":"南區","LI":"同安里","LIN":"15鄰","STREET":"明興路","SECT":" ","MAREA":" ","LANE":"１３９５巷","ALLEY":" ","HOUSE_NO":"２３號","E_COORD97":166440.25,"N_COORD97":2535834.3399999999,"ADDRESS":"明興路１３９５巷２３號","OBJECTID":328658},"geometry":{"x":166440.25000000186,"y":2535834.3400000017}},{"attributes":{"ID":328668,"DIS_CODE":0,"TOWNNAME":"東區","LI":"關聖里","LIN":"17鄰","STREET":"裕平路","SECT":" ","MAREA":" ","LANE":" ","ALLEY":" ","HOUSE_NO":"１４７號","E_COORD97":172342.23000000001,"N_COORD97":2542843.1499999999,"ADDRESS":"裕平路１４７號","OBJECTID":328659},"geometry":{"x":172342.23000000138,"y":2542843.1500000004}},{"attributes":{"ID":328669,"DIS_CODE":0,"TOWNNAME":"南區","LI":"同安里","LIN":"15鄰","STREET":"明興路","SECT":" ","MAREA":" ","LANE":"１３９５巷","ALLEY":" ","HOUSE_NO":"２４號","E_COORD97":166436.53,"N_COORD97":2535815.0899999999,"ADDRESS":"明興路１３９５巷２４號","OBJECTID":328660},"geometry":{"x":166436.53000000026,"y":2535815.0899999999}},{"attributes":{"ID":328670,"DIS_CODE":0,"TOWNNAME":"南區","LI":"同安里","LIN":"15鄰","STREET":"明興路","SECT":" ","MAREA":" ","LANE":"１３９５巷","ALLEY":" ","HOUSE_NO":"２５號","E_COORD97":166444.57999999999,"N_COORD97":2535833.2999999998,"ADDRESS":"明興路１３９５巷２５號","OBJECTID":328661},"geometry":{"x":166444.58000000007,"y":2535833.3000000026}},{"attributes":{"ID":328671,"DIS_CODE":0,"TOWNNAME":"南區","LI":"同安里","LIN":"15鄰","STREET":"明興路","SECT":" ","MAREA":" ","LANE":"１３９５巷","ALLEY":" ","HOUSE_NO":"２號","E_COORD97":166389.54000000001,"N_COORD97":2535825.1800000002,"ADDRESS":"明興路１３９５巷２號","OBJECTID":328662},"geometry":{"x":166389.54000000097,"y":2535825.1800000016}},{"attributes":{"ID":328672,"DIS_CODE":0,"TOWNNAME":"善化區","LI":"田寮里","LIN":"14鄰","STREET":" ","SECT":" ","MAREA":"六分寮","LANE":" ","ALLEY":" ","HOUSE_NO":"１５７號之１","E_COORD97":178668.38,"N_COORD97":2561526.02,"ADDRESS":"六分寮１５７號之１","OBJECTID":328663},"geometry":{"x":178668.38000000082,"y":2561526.0200000014}},{"attributes":{"ID":328673,"DIS_CODE":0,"TOWNNAME":"善化區","LI":"六德里","LIN":"4鄰","STREET":" ","SECT":" ","MAREA":"六分寮","LANE":" ","ALLEY":" ","HOUSE_NO":"２２７號","E_COORD97":178738.10000000001,"N_COORD97":2561739,"ADDRESS":"六分寮２２７號","OBJECTID":328664},"geometry":{"x":178738.10000000056,"y":2561739.0000000037}},{"attributes":{"ID":328674,"DIS_CODE":0,"TOWNNAME":"善化區","LI":"田寮里","LIN":"4鄰","STREET":" ","SECT":" ","MAREA":"六分寮","LANE":" ","ALLEY":" ","HOUSE_NO":"５３號之１０","E_COORD97":178425.82000000001,"N_COORD97":2561041.02,"ADDRESS":"六分寮５３號之１０","OBJECTID":328665},"geometry":{"x":178425.8200000003,"y":2561041.0200000014}},{"attributes":{"ID":328675,"DIS_CODE":0,"TOWNNAME":"善化區","LI":"小新里","LIN":"13鄰","STREET":" ","SECT":" ","MAREA":"小新營","LANE":" ","ALLEY":" ","HOUSE_NO":"１０６之３１號","E_COORD97":179615.69,"N_COORD97":2558132.52,"ADDRESS":"小新營１０６之３１號","OBJECTID":328666},"geometry":{"x":179615.69000000041,"y":2558132.5200000014}},{"attributes":{"ID":328676,"DIS_CODE":0,"TOWNNAME":"善化區","LI":"小新里","LIN":"20鄰","STREET":" ","SECT":" ","MAREA":"小新營","LANE":" ","ALLEY":" ","HOUSE_NO":"３８０號","E_COORD97":180224.38,"N_COORD97":2557102.25,"ADDRESS":"小新營３８０號","OBJECTID":328667},"geometry":{"x":180224.38000000175,"y":2557102.25}},{"attributes":{"ID":328677,"DIS_CODE":0,"TOWNNAME":"善化區","LI":"六德里","LIN":"13鄰","STREET":" ","SECT":" ","MAREA":"六分寮","LANE":" ","ALLEY":" ","HOUSE_NO":"３０７號（半毀）","E_COORD97":178596.10000000001,"N_COORD97":2561504.25,"ADDRESS":"六分寮３０７號（半毀）","OBJECTID":328668},"geometry":{"x":178596.10000000056,"y":2561504.2500000019}},{"attributes":{"ID":328678,"DIS_CODE":0,"TOWNNAME":"善化區","LI":"田寮里","LIN":"13鄰","STREET":" ","SECT":" ","MAREA":"六分寮","LANE":" ","ALLEY":" ","HOUSE_NO":"１４３之１７號","E_COORD97":178773.19,"N_COORD97":2561234.77,"ADDRESS":"六分寮１４３之１７號","OBJECTID":328669},"geometry":{"x":178773.19000000041,"y":2561234.7700000033}},{"attributes":{"ID":328679,"DIS_CODE":0,"TOWNNAME":"善化區","LI":"六德里","LIN":"4鄰","STREET":" ","SECT":" ","MAREA":"六分寮","LANE":" ","ALLEY":" ","HOUSE_NO":"２２６號","E_COORD97":178703.20999999999,"N_COORD97":2561704.75,"ADDRESS":"六分寮２２６號","OBJECTID":328670},"geometry":{"x":178703.20999999996,"y":2561704.7500000019}},{"attributes":{"ID":328680,"DIS_CODE":0,"TOWNNAME":"南區","LI":"同安里","LIN":"15鄰","STREET":"明興路","SECT":" ","MAREA":" ","LANE":"１３９５巷","ALLEY":" ","HOUSE_NO":"３３號","E_COORD97":166461.10999999999,"N_COORD97":2535828.98,"ADDRESS":"明興路１３９５巷３３號","OBJECTID":328671},"geometry":{"x":166461.11000000034,"y":2535828.9800000004}},{"attributes":{"ID":328681,"DIS_CODE":0,"TOWNNAME":"南區","LI":"同安里","LIN":"15鄰","STREET":"明興路","SECT":" ","MAREA":" ","LANE":"１３９５巷","ALLEY":" ","HOUSE_NO":"３４號","E_COORD97":166457.64999999999,"N_COORD97":2535811.8399999999,"ADDRESS":"明興路１３９５巷３４號","OBJECTID":328672},"geometry":{"x":166457.65000000037,"y":2535811.8400000017}},{"attributes":{"ID":328682,"DIS_CODE":0,"TOWNNAME":"南區","LI":"同安里","LIN":"15鄰","STREET":"明興路","SECT":" ","MAREA":" ","LANE":"１３９５巷","ALLEY":" ","HOUSE_NO":"３號","E_COORD97":166397.53,"N_COORD97":2535842.2999999998,"ADDRESS":"明興路１３９５巷３號","OBJECTID":328673},"geometry":{"x":166397.53000000026,"y":2535842.3000000026}},{"attributes":{"ID":328683,"DIS_CODE":0,"TOWNNAME":"善化區","LI":"小新里","LIN":"13鄰","STREET":" ","SECT":" ","MAREA":"小新營","LANE":" ","ALLEY":" ","HOUSE_NO":"１０２號之３","E_COORD97":179725.39999999999,"N_COORD97":2558227.27,"ADDRESS":"小新營１０２號之３","OBJECTID":328674},"geometry":{"x":179725.4000000013,"y":2558227.2699999996}},{"attributes":{"ID":328684,"DIS_CODE":0,"TOWNNAME":"善化區","LI":"田寮里","LIN":"13鄰","STREET":" ","SECT":" ","MAREA":"六分寮","LANE":" ","ALLEY":" ","HOUSE_NO":"１４３號之１１","E_COORD97":178833.64999999999,"N_COORD97":2561238.52,"ADDRESS":"六分寮１４３號之１１","OBJECTID":328675},"geometry":{"x":178833.6500000013,"y":2561238.5199999996}},{"attributes":{"ID":328685,"DIS_CODE":0,"TOWNNAME":"善化區","LI":"田寮里","LIN":"13鄰","STREET":" ","SECT":" ","MAREA":"六分寮","LANE":" ","ALLEY":" ","HOUSE_NO":"１４２號","E_COORD97":178707.64999999999,"N_COORD97":2561290,"ADDRESS":"六分寮１４２號","OBJECTID":328676},"geometry":{"x":178707.65000000224,"y":2561290}},{"attributes":{"ID":328686,"DIS_CODE":0,"TOWNNAME":"善化區","LI":"田寮里","LIN":"13鄰","STREET":" ","SECT":" ","MAREA":"六分寮","LANE":" ","ALLEY":" ","HOUSE_NO":"１４１之２０號","E_COORD97":178680.89999999999,"N_COORD97":2561280.02,"ADDRESS":"六分寮１４１之２０號","OBJECTID":328677},"geometry":{"x":178680.9000000013,"y":2561280.0199999996}},{"attributes":{"ID":328687,"DIS_CODE":0,"TOWNNAME":"善化區","LI":"牛庄里","LIN":" ","STREET":" ","SECT":" ","MAREA":"牛庄","LANE":" ","ALLEY":" ","HOUSE_NO":"６之３號","E_COORD97":180149.47,"N_COORD97":2559872.02,"ADDRESS":"牛庄６之３號","OBJECTID":328678},"geometry":{"x":180149.47000000067,"y":2559872.0199999996}},{"attributes":{"ID":328688,"DIS_CODE":0,"TOWNNAME":"善化區","LI":"六德里","LIN":"4鄰","STREET":" ","SECT":" ","MAREA":"六分寮","LANE":" ","ALLEY":" ","HOUSE_NO":"２２８號","E_COORD97":178761.76000000001,"N_COORD97":2561748.5,"ADDRESS":"六分寮２２８號","OBJECTID":328679},"geometry":{"x":178761.75999999978,"y":2561748.5}},{"attributes":{"ID":328689,"DIS_CODE":0,"TOWNNAME":"善化區","LI":"六德里","LIN":"4鄰","STREET":" ","SECT":" ","MAREA":"六分寮","LANE":" ","ALLEY":" ","HOUSE_NO":"２３１之２號","E_COORD97":178816.14999999999,"N_COORD97":2561769.02,"ADDRESS":"六分寮２３１之２號","OBJECTID":328680},"geometry":{"x":178816.15000000224,"y":2561769.0200000033}},{"attributes":{"ID":328690,"DIS_CODE":0,"TOWNNAME":"南區","LI":"同安里","LIN":"15鄰","STREET":"明興路","SECT":" ","MAREA":" ","LANE":"１３９５巷","ALLEY":" ","HOUSE_NO":"４號","E_COORD97":166392.92000000001,"N_COORD97":2535821.98,"ADDRESS":"明興路１３９５巷４號","OBJECTID":328681},"geometry":{"x":166392.91999999993,"y":2535821.9800000004}},{"attributes":{"ID":328691,"DIS_CODE":0,"TOWNNAME":"南區","LI":"同安里","LIN":"15鄰","STREET":"明興路","SECT":" ","MAREA":" ","LANE":"１３９５巷","ALLEY":" ","HOUSE_NO":"５號","E_COORD97":166400.64999999999,"N_COORD97":2535839.4500000002,"ADDRESS":"明興路１３９５巷５號","OBJECTID":328682},"geometry":{"x":166400.65000000224,"y":2535839.450000003}},{"attributes":{"ID":328692,"DIS_CODE":0,"TOWNNAME":"南區","LI":"同安里","LIN":"15鄰","STREET":"明興路","SECT":" ","MAREA":" ","LANE":"１３９５巷","ALLEY":" ","HOUSE_NO":"６號","E_COORD97":166396.38,"N_COORD97":2535819.6499999999,"ADDRESS":"明興路１３９５巷６號","OBJECTID":328683},"geometry":{"x":166396.37999999989,"y":2535819.6500000022}},{"attributes":{"ID":328693,"DIS_CODE":0,"TOWNNAME":"善化區","LI":"光文里","LIN":"4鄰","STREET":" ","SECT":" ","MAREA":"北子店","LANE":"１６０巷","ALLEY":" ","HOUSE_NO":"１９號","E_COORD97":179454.89999999999,"N_COORD97":2559566.5,"ADDRESS":"北子店１６０巷１９號","OBJECTID":328684},"geometry":{"x":179454.90000000037,"y":2559566.5000000019}},{"attributes":{"ID":328694,"DIS_CODE":0,"TOWNNAME":"善化區","LI":"光文里","LIN":"4鄰","STREET":" ","SECT":" ","MAREA":"北子店","LANE":"１６０巷","ALLEY":" ","HOUSE_NO":"３６號","E_COORD97":179452.51999999999,"N_COORD97":2559542.25,"ADDRESS":"北子店１６０巷３６號","OBJECTID":328685},"geometry":{"x":179452.52000000048,"y":2559542.25}},{"attributes":{"ID":328695,"DIS_CODE":0,"TOWNNAME":"善化區","LI":"胡家里","LIN":"4鄰","STREET":" ","SECT":" ","MAREA":"胡厝寮","LANE":" ","ALLEY":" ","HOUSE_NO":"３７號","E_COORD97":175435.98000000001,"N_COORD97":2560482.75,"ADDRESS":"胡厝寮３７號","OBJECTID":328686},"geometry":{"x":175435.98000000138,"y":2560482.7500000037}},{"attributes":{"ID":328696,"DIS_CODE":0,"TOWNNAME":"善化區","LI":"牛庄里","LIN":"13鄰","STREET":" ","SECT":" ","MAREA":"牛庄","LANE":" ","ALLEY":" ","HOUSE_NO":"１４０號","E_COORD97":179992.66,"N_COORD97":2559851.25,"ADDRESS":"牛庄１４０號","OBJECTID":328687},"geometry":{"x":179992.66000000108,"y":2559851.25}},{"attributes":{"ID":328697,"DIS_CODE":0,"TOWNNAME":"善化區","LI":"坐駕里","LIN":"20鄰","STREET":" ","SECT":" ","MAREA":"坐駕","LANE":" ","ALLEY":" ","HOUSE_NO":"８５號","E_COORD97":178255.85000000001,"N_COORD97":2558338.25,"ADDRESS":"坐駕８５號","OBJECTID":328688},"geometry":{"x":178255.84999999963,"y":2558338.2500000019}},{"attributes":{"ID":328698,"DIS_CODE":0,"TOWNNAME":"善化區","LI":"坐駕里","LIN":"24鄰","STREET":" ","SECT":" ","MAREA":"坐駕","LANE":" ","ALLEY":" ","HOUSE_NO":"２８號","E_COORD97":178696.09,"N_COORD97":2558071.75,"ADDRESS":"坐駕２８號","OBJECTID":328689},"geometry":{"x":178696.09000000078,"y":2558071.75}},{"attributes":{"ID":328699,"DIS_CODE":0,"TOWNNAME":"善化區","LI":"牛庄里","LIN":"14鄰","STREET":" ","SECT":" ","MAREA":"牛庄","LANE":" ","ALLEY":" ","HOUSE_NO":"１４７之１５號","E_COORD97":179960.19,"N_COORD97":2559745.27,"ADDRESS":"牛庄１４７之１５號","OBJECTID":328690},"geometry":{"x":179960.19000000227,"y":2559745.2699999996}},{"attributes":{"ID":328700,"DIS_CODE":0,"TOWNNAME":"善化區","LI":"坐駕里","LIN":"18鄰","STREET":" ","SECT":" ","MAREA":"坐駕","LANE":" ","ALLEY":" ","HOUSE_NO":"１０號之１","E_COORD97":178218.92000000001,"N_COORD97":2558553.02,"ADDRESS":"坐駕１０號之１","OBJECTID":328691},"geometry":{"x":178218.92000000086,"y":2558553.0200000014}},{"attributes":{"ID":328701,"DIS_CODE":0,"TOWNNAME":"善化區","LI":"光文里","LIN":" ","STREET":" ","SECT":" ","MAREA":"北子店","LANE":" ","ALLEY":" ","HOUSE_NO":"９８號","E_COORD97":179604.07999999999,"N_COORD97":2559646.5,"ADDRESS":"北子店９８號","OBJECTID":328692},"geometry":{"x":179604.08000000007,"y":2559646.5}},{"attributes":{"ID":328702,"DIS_CODE":0,"TOWNNAME":"善化區","LI":"田寮里","LIN":"4鄰","STREET":" ","SECT":" ","MAREA":"六分寮","LANE":" ","ALLEY":" ","HOUSE_NO":"５３號之２４","E_COORD97":178401.82999999999,"N_COORD97":2561067.77,"ADDRESS":"六分寮５３號之２４","OBJECTID":328693},"geometry":{"x":178401.83000000007,"y":2561067.7699999996}},{"attributes":{"ID":328703,"DIS_CODE":0,"TOWNNAME":"善化區","LI":"田寮里","LIN":"4鄰","STREET":" ","SECT":" ","MAREA":"六分寮","LANE":" ","ALLEY":" ","HOUSE_NO":"５３號之３１","E_COORD97":178409.92000000001,"N_COORD97":2561107.77,"ADDRESS":"六分寮５３號之３１","OBJECTID":328694},"geometry":{"x":178409.91999999993,"y":2561107.7699999996}},{"attributes":{"ID":328704,"DIS_CODE":0,"TOWNNAME":"善化區","LI":"東昌里","LIN":"4鄰","STREET":" ","SECT":" ","MAREA":"東勢寮","LANE":" ","ALLEY":" ","HOUSE_NO":"４２號之１","E_COORD97":180699.01000000001,"N_COORD97":2561906.27,"ADDRESS":"東勢寮４２號之１","OBJECTID":328695},"geometry":{"x":180699.00999999978,"y":2561906.2700000033}},{"attributes":{"ID":328705,"DIS_CODE":0,"TOWNNAME":"南區","LI":"同安里","LIN":"15鄰","STREET":"明興路","SECT":" ","MAREA":" ","LANE":"１３９５巷","ALLEY":" ","HOUSE_NO":"７號","E_COORD97":166404.29000000001,"N_COORD97":2535841.0899999999,"ADDRESS":"明興路１３９５巷７號","OBJECTID":328696},"geometry":{"x":166404.2900000019,"y":2535841.0899999999}},{"attributes":{"ID":328706,"DIS_CODE":0,"TOWNNAME":"善化區","LI":"光文里","LIN":"4鄰","STREET":" ","SECT":" ","MAREA":"北子店","LANE":"１６０巷","ALLEY":" ","HOUSE_NO":"１８號","E_COORD97":179436.35999999999,"N_COORD97":2559573.75,"ADDRESS":"北子店１６０巷１８號","OBJECTID":328697},"geometry":{"x":179436.36000000034,"y":2559573.75}},{"attributes":{"ID":328707,"DIS_CODE":0,"TOWNNAME":"善化區","LI":"光文里","LIN":"4鄰","STREET":" ","SECT":" ","MAREA":"北子店","LANE":"１６０巷","ALLEY":" ","HOUSE_NO":"２３號","E_COORD97":179458.66,"N_COORD97":2559559,"ADDRESS":"北子店１６０巷２３號","OBJECTID":328698},"geometry":{"x":179458.66000000108,"y":2559559.0000000037}},{"attributes":{"ID":328708,"DIS_CODE":0,"TOWNNAME":"善化區","LI":"光文里","LIN":"4鄰","STREET":" ","SECT":" ","MAREA":"北子店","LANE":"１６０巷","ALLEY":" ","HOUSE_NO":"２９號","E_COORD97":179464.01999999999,"N_COORD97":2559546.75,"ADDRESS":"北子店１６０巷２９號","OBJECTID":328699},"geometry":{"x":179464.02000000048,"y":2559546.75}},{"attributes":{"ID":328709,"DIS_CODE":0,"TOWNNAME":"善化區","LI":"田寮里","LIN":"4鄰","STREET":" ","SECT":" ","MAREA":"六分寮","LANE":" ","ALLEY":" ","HOUSE_NO":"５３號","E_COORD97":178407.95999999999,"N_COORD97":2561169,"ADDRESS":"六分寮５３號","OBJECTID":328700},"geometry":{"x":178407.95999999996,"y":2561169}},{"attributes":{"ID":328710,"DIS_CODE":0,"TOWNNAME":"善化區","LI":"胡厝里","LIN":"24鄰","STREET":" ","SECT":" ","MAREA":"烏橋","LANE":" ","ALLEY":" ","HOUSE_NO":"１６號","E_COORD97":175398.35000000001,"N_COORD97":2558892.75,"ADDRESS":"烏橋１６號","OBJECTID":328701},"geometry":{"x":175398.35000000056,"y":2558892.7500000037}},{"attributes":{"ID":328711,"DIS_CODE":0,"TOWNNAME":"善化區","LI":"胡厝里","LIN":"17鄰","STREET":" ","SECT":" ","MAREA":"西衛","LANE":" ","ALLEY":" ","HOUSE_NO":"５之２號","E_COORD97":174478.32000000001,"N_COORD97":2559525.02,"ADDRESS":"西衛５之２號","OBJECTID":328702},"geometry":{"x":174478.3200000003,"y":2559525.0200000014}},{"attributes":{"ID":328712,"DIS_CODE":0,"TOWNNAME":"善化區","LI":"田寮里","LIN":"4鄰","STREET":" ","SECT":" ","MAREA":"六分寮","LANE":" ","ALLEY":" ","HOUSE_NO":"５３號之１７","E_COORD97":178405.98999999999,"N_COORD97":2561027.02,"ADDRESS":"六分寮５３號之１７","OBJECTID":328703},"geometry":{"x":178405.99000000022,"y":2561027.0200000014}},{"attributes":{"ID":328713,"DIS_CODE":0,"TOWNNAME":"善化區","LI":"坐駕里","LIN":"19鄰","STREET":" ","SECT":" ","MAREA":"坐駕","LANE":" ","ALLEY":" ","HOUSE_NO":"６０號","E_COORD97":178510.95999999999,"N_COORD97":2558496,"ADDRESS":"坐駕６０號","OBJECTID":328704},"geometry":{"x":178510.96000000089,"y":2558496.0000000019}},{"attributes":{"ID":328714,"DIS_CODE":0,"TOWNNAME":"善化區","LI":"田寮里","LIN":"4鄰","STREET":" ","SECT":" ","MAREA":"六分寮","LANE":" ","ALLEY":" ","HOUSE_NO":"５３號之１９","E_COORD97":178404.89000000001,"N_COORD97":2561038.52,"ADDRESS":"六分寮５３號之１９","OBJECTID":328705},"geometry":{"x":178404.88999999966,"y":2561038.5199999996}},{"attributes":{"ID":328715,"DIS_CODE":0,"TOWNNAME":"善化區","LI":"胡厝里","LIN":"18鄰","STREET":" ","SECT":" ","MAREA":"西衛","LANE":" ","ALLEY":" ","HOUSE_NO":"１２號之３","E_COORD97":174447.87,"N_COORD97":2559326.27,"ADDRESS":"西衛１２號之３","OBJECTID":328706},"geometry":{"x":174447.87000000104,"y":2559326.2700000033}},{"attributes":{"ID":328716,"DIS_CODE":0,"TOWNNAME":"善化區","LI":"胡厝里","LIN":"20鄰","STREET":" ","SECT":" ","MAREA":"西衛","LANE":" ","ALLEY":" ","HOUSE_NO":"３２之３號","E_COORD97":174169.31,"N_COORD97":2559316.02,"ADDRESS":"西衛３２之３號","OBJECTID":328707},"geometry":{"x":174169.31000000145,"y":2559316.0199999996}},{"attributes":{"ID":328717,"DIS_CODE":0,"TOWNNAME":"善化區","LI":"胡厝里","LIN":"24鄰","STREET":" ","SECT":" ","MAREA":"烏橋","LANE":" ","ALLEY":" ","HOUSE_NO":"１７號","E_COORD97":175398.20000000001,"N_COORD97":2558883.75,"ADDRESS":"烏橋１７號","OBJECTID":328708},"geometry":{"x":175398.20000000112,"y":2558883.7500000019}},{"attributes":{"ID":328718,"DIS_CODE":0,"TOWNNAME":"善化區","LI":"田寮里","LIN":"4鄰","STREET":" ","SECT":" ","MAREA":"六分寮","LANE":" ","ALLEY":" ","HOUSE_NO":"５４之４號","E_COORD97":178445.95999999999,"N_COORD97":2561031.52,"ADDRESS":"六分寮５４之４號","OBJECTID":328709},"geometry":{"x":178445.96000000089,"y":2561031.5199999996}},{"attributes":{"ID":328719,"DIS_CODE":0,"TOWNNAME":"善化區","LI":"光文里","LIN":"14鄰","STREET":"民生路","SECT":" ","MAREA":" ","LANE":"１８３巷","ALLEY":" ","HOUSE_NO":"８號","E_COORD97":178439.17999999999,"N_COORD97":2558909.5099999998,"ADDRESS":"民生路１８３巷８號","OBJECTID":328710},"geometry":{"x":178439.18000000063,"y":2558909.5099999998}},{"attributes":{"ID":328720,"DIS_CODE":0,"TOWNNAME":"南區","LI":"同安里","LIN":"15鄰","STREET":"明興路","SECT":" ","MAREA":" ","LANE":"１３９５巷","ALLEY":" ","HOUSE_NO":"８號","E_COORD97":166400.62,"N_COORD97":2535822.2400000002,"ADDRESS":"明興路１３９５巷８號","OBJECTID":328711},"geometry":{"x":166400.62000000104,"y":2535822.2400000021}},{"attributes":{"ID":328721,"DIS_CODE":0,"TOWNNAME":"南區","LI":"同安里","LIN":"15鄰","STREET":"明興路","SECT":" ","MAREA":" ","LANE":"１３９５巷","ALLEY":" ","HOUSE_NO":"２６號","E_COORD97":166440.67999999999,"N_COORD97":2535814.6600000001,"ADDRESS":"明興路１３９５巷２６號","OBJECTID":328712},"geometry":{"x":166440.68000000063,"y":2535814.6600000001}},{"attributes":{"ID":328722,"DIS_CODE":0,"TOWNNAME":"善化區","LI":"坐駕里","LIN":"20鄰","STREET":" ","SECT":" ","MAREA":"坐駕","LANE":" ","ALLEY":" ","HOUSE_NO":"８２號","E_COORD97":178261.73999999999,"N_COORD97":2558348.75,"ADDRESS":"坐駕８２號","OBJECTID":328713},"geometry":{"x":178261.74000000115,"y":2558348.75}},{"attributes":{"ID":328723,"DIS_CODE":0,"TOWNNAME":"善化區","LI":"胡厝里","LIN":"20鄰","STREET":" ","SECT":" ","MAREA":"西衛","LANE":" ","ALLEY":" ","HOUSE_NO":"３７之１２號","E_COORD97":173858.79000000001,"N_COORD97":2559146.27,"ADDRESS":"西衛３７之１２號","OBJECTID":328714},"geometry":{"x":173858.79000000097,"y":2559146.2699999977}},{"attributes":{"ID":328724,"DIS_CODE":0,"TOWNNAME":"南區","LI":"再興里","LIN":"15鄰","STREET":"三官路","SECT":" ","MAREA":" ","LANE":"２２２巷","ALLEY":" ","HOUSE_NO":"４３號","E_COORD97":167120.85999999999,"N_COORD97":2542113.6899999999,"ADDRESS":"三官路２２２巷４３號","OBJECTID":328715},"geometry":{"x":167120.86000000034,"y":2542113.6900000032}},{"attributes":{"ID":328725,"DIS_CODE":0,"TOWNNAME":"東區","LI":"關聖里","LIN":"17鄰","STREET":"裕平路","SECT":" ","MAREA":" ","LANE":" ","ALLEY":" ","HOUSE_NO":"９３號","E_COORD97":172308.53,"N_COORD97":2542841.9399999999,"ADDRESS":"裕平路９３號","OBJECTID":328716},"geometry":{"x":172308.53000000026,"y":2542841.9400000013}},{"attributes":{"ID":328726,"DIS_CODE":0,"TOWNNAME":"東區","LI":"關聖里","LIN":"17鄰","STREET":"裕平路","SECT":" ","MAREA":" ","LANE":" ","ALLEY":" ","HOUSE_NO":"９５號","E_COORD97":172312.76999999999,"N_COORD97":2542845.5699999998,"ADDRESS":"裕平路９５號","OBJECTID":328717},"geometry":{"x":172312.76999999955,"y":2542845.5700000022}},{"attributes":{"ID":328727,"DIS_CODE":0,"TOWNNAME":"善化區","LI":"光文里","LIN":"4鄰","STREET":" ","SECT":" ","MAREA":"北子店","LANE":"１６０巷","ALLEY":" ","HOUSE_NO":"２６號","E_COORD97":179443.09,"N_COORD97":2559559.25,"ADDRESS":"北子店１６０巷２６號","OBJECTID":328718},"geometry":{"x":179443.08999999892,"y":2559559.25}},{"attributes":{"ID":328728,"DIS_CODE":0,"TOWNNAME":"善化區","LI":"光文里","LIN":"4鄰","STREET":" ","SECT":" ","MAREA":"北子店","LANE":"１６１巷","ALLEY":" ","HOUSE_NO":"１號","E_COORD97":179388.22,"N_COORD97":2559689.25,"ADDRESS":"北子店１６１巷１號","OBJECTID":328719},"geometry":{"x":179388.22000000067,"y":2559689.2499999981}},{"attributes":{"ID":328729,"DIS_CODE":0,"TOWNNAME":"善化區","LI":"牛庄里","LIN":"4鄰","STREET":" ","SECT":" ","MAREA":"牛庄","LANE":" ","ALLEY":" ","HOUSE_NO":"４３之２號","E_COORD97":180242.07000000001,"N_COORD97":2559952.02,"ADDRESS":"牛庄４３之２號","OBJECTID":328720},"geometry":{"x":180242.0700000003,"y":2559952.0200000014}},{"attributes":{"ID":328730,"DIS_CODE":0,"TOWNNAME":"善化區","LI":"溪美里","LIN":"4鄰","STREET":" ","SECT":" ","MAREA":"溪尾","LANE":" ","ALLEY":" ","HOUSE_NO":"３２號","E_COORD97":176769.57000000001,"N_COORD97":2561107.52,"ADDRESS":"溪尾３２號","OBJECTID":328721},"geometry":{"x":176769.57000000123,"y":2561107.5199999977}},{"attributes":{"ID":328731,"DIS_CODE":0,"TOWNNAME":"南區","LI":"田寮里","LIN":"15鄰","STREET":"新興路","SECT":" ","MAREA":" ","LANE":"９３巷","ALLEY":" ","HOUSE_NO":"１２號","E_COORD97":167588.64000000001,"N_COORD97":2542128.75,"ADDRESS":"新興路９３巷１２號","OBJECTID":328722},"geometry":{"x":167588.6400000006,"y":2542128.7500000019}},{"attributes":{"ID":328732,"DIS_CODE":0,"TOWNNAME":"善化區","LI":"胡厝里","LIN":" ","STREET":" ","SECT":" ","MAREA":"胡厝寮","LANE":" ","ALLEY":" ","HOUSE_NO":"２４９之１號","E_COORD97":174952.85000000001,"N_COORD97":2560073.27,"ADDRESS":"胡厝寮２４９之１號","OBJECTID":328723},"geometry":{"x":174952.85000000056,"y":2560073.2700000014}},{"attributes":{"ID":328733,"DIS_CODE":0,"TOWNNAME":"善化區","LI":"牛庄里","LIN":"14鄰","STREET":" ","SECT":" ","MAREA":"牛庄","LANE":" ","ALLEY":" ","HOUSE_NO":"１４７之１６號","E_COORD97":179973.69,"N_COORD97":2559746.52,"ADDRESS":"牛庄１４７之１６號","OBJECTID":328724},"geometry":{"x":179973.69000000227,"y":2559746.5200000014}},{"attributes":{"ID":328734,"DIS_CODE":0,"TOWNNAME":"善化區","LI":"田寮里","LIN":"4鄰","STREET":" ","SECT":" ","MAREA":"六分寮","LANE":" ","ALLEY":" ","HOUSE_NO":"５３號之２１","E_COORD97":178403.64999999999,"N_COORD97":2561050.02,"ADDRESS":"六分寮５３號之２１","OBJECTID":328725},"geometry":{"x":178403.65000000037,"y":2561050.0200000033}},{"attributes":{"ID":328735,"DIS_CODE":0,"TOWNNAME":"歸仁區","LI":"看西里","LIN":"15鄰","STREET":"成功路","SECT":"一段","MAREA":" ","LANE":"２５０巷","ALLEY":" ","HOUSE_NO":"９號","E_COORD97":178370.51000000001,"N_COORD97":2540082.1200000001,"ADDRESS":"成功路一段２５０巷９號","OBJECTID":328726},"geometry":{"x":178370.51000000164,"y":2540082.1200000029}},{"attributes":{"ID":328736,"DIS_CODE":0,"TOWNNAME":"善化區","LI":"胡家里","LIN":"4鄰","STREET":" ","SECT":" ","MAREA":"胡厝寮","LANE":" ","ALLEY":" ","HOUSE_NO":"３０２號","E_COORD97":175539.67999999999,"N_COORD97":2560374.75,"ADDRESS":"胡厝寮３０２號","OBJECTID":328727},"geometry":{"x":175539.6799999997,"y":2560374.7500000019}},{"attributes":{"ID":328737,"DIS_CODE":0,"TOWNNAME":"善化區","LI":"田寮里","LIN":"4鄰","STREET":" ","SECT":" ","MAREA":"六分寮","LANE":" ","ALLEY":" ","HOUSE_NO":"５４之９號","E_COORD97":178437.20000000001,"N_COORD97":2561090.52,"ADDRESS":"六分寮５４之９號","OBJECTID":328728},"geometry":{"x":178437.20000000019,"y":2561090.5199999996}},{"attributes":{"ID":328738,"DIS_CODE":0,"TOWNNAME":"善化區","LI":"田寮里","LIN":"3鄰","STREET":" ","SECT":" ","MAREA":"六分寮","LANE":" ","ALLEY":" ","HOUSE_NO":"３９號之２９","E_COORD97":178288.29000000001,"N_COORD97":2560884.02,"ADDRESS":"六分寮３９號之２９","OBJECTID":328729},"geometry":{"x":178288.29000000097,"y":2560884.0200000033}},{"attributes":{"ID":328739,"DIS_CODE":0,"TOWNNAME":"善化區","LI":"光文里","LIN":" ","STREET":" ","SECT":" ","MAREA":"北子店","LANE":" ","ALLEY":" ","HOUSE_NO":"２６６之１號","E_COORD97":179233.75,"N_COORD97":2559614.27,"ADDRESS":"北子店２６６之１號","OBJECTID":328730},"geometry":{"x":179233.75000000186,"y":2559614.2700000033}},{"attributes":{"ID":328740,"DIS_CODE":0,"TOWNNAME":"善化區","LI":"胡厝里","LIN":"14鄰","STREET":" ","SECT":" ","MAREA":"胡厝寮","LANE":" ","ALLEY":" ","HOUSE_NO":"２３０號","E_COORD97":174971.5,"N_COORD97":2560266.75,"ADDRESS":"胡厝寮２３０號","OBJECTID":328731},"geometry":{"x":174971.5,"y":2560266.7500000019}},{"attributes":{"ID":328741,"DIS_CODE":0,"TOWNNAME":"歸仁區","LI":"許厝里","LIN":"15鄰","STREET":"中山路","SECT":"一段","MAREA":" ","LANE":"３８２巷","ALLEY":" ","HOUSE_NO":"５號","E_COORD97":178198.10999999999,"N_COORD97":2540748.5600000001,"ADDRESS":"中山路一段３８２巷５號","OBJECTID":328732},"geometry":{"x":178198.11000000127,"y":2540748.5600000005}},{"attributes":{"ID":328742,"DIS_CODE":0,"TOWNNAME":"善化區","LI":"胡厝里","LIN":"17鄰","STREET":" ","SECT":" ","MAREA":"西衛","LANE":" ","ALLEY":" ","HOUSE_NO":"７之１２號","E_COORD97":174376.91,"N_COORD97":2559463.52,"ADDRESS":"西衛７之１２號","OBJECTID":328733},"geometry":{"x":174376.91000000108,"y":2559463.5200000033}},{"attributes":{"ID":328743,"DIS_CODE":0,"TOWNNAME":"善化區","LI":"東昌里","LIN":"1鄰","STREET":" ","SECT":" ","MAREA":"東勢寮","LANE":" ","ALLEY":" ","HOUSE_NO":"２之６號","E_COORD97":181036.20000000001,"N_COORD97":2561991.52,"ADDRESS":"東勢寮２之６號","OBJECTID":328734},"geometry":{"x":181036.20000000205,"y":2561991.5199999996}},{"attributes":{"ID":328744,"DIS_CODE":0,"TOWNNAME":"善化區","LI":"胡家里","LIN":"4鄰","STREET":" ","SECT":" ","MAREA":"胡厝寮","LANE":" ","ALLEY":" ","HOUSE_NO":"３０３號之１","E_COORD97":175537.79999999999,"N_COORD97":2560386.27,"ADDRESS":"胡厝寮３０３號之１","OBJECTID":328735},"geometry":{"x":175537.80000000168,"y":2560386.2699999996}},{"attributes":{"ID":328745,"DIS_CODE":0,"TOWNNAME":"善化區","LI":"胡厝里","LIN":"18鄰","STREET":" ","SECT":" ","MAREA":"西衛","LANE":" ","ALLEY":" ","HOUSE_NO":"１１號之１","E_COORD97":174465.10999999999,"N_COORD97":2559327.52,"ADDRESS":"西衛１１號之１","OBJECTID":328736},"geometry":{"x":174465.11000000127,"y":2559327.5199999996}},{"attributes":{"ID":328746,"DIS_CODE":0,"TOWNNAME":"善化區","LI":"胡厝里","LIN":"25鄰","STREET":" ","SECT":" ","MAREA":"烏橋","LANE":" ","ALLEY":" ","HOUSE_NO":"２０號","E_COORD97":175380.31,"N_COORD97":2558883,"ADDRESS":"烏橋２０號","OBJECTID":328737},"geometry":{"x":175380.31000000052,"y":2558883}},{"attributes":{"ID":328747,"DIS_CODE":0,"TOWNNAME":"善化區","LI":"牛庄里","LIN":"4鄰","STREET":" ","SECT":" ","MAREA":"牛庄","LANE":" ","ALLEY":" ","HOUSE_NO":"４３號之１","E_COORD97":180267.32000000001,"N_COORD97":2559936.52,"ADDRESS":"牛庄４３號之１","OBJECTID":328738},"geometry":{"x":180267.3200000003,"y":2559936.5199999996}},{"attributes":{"ID":328748,"DIS_CODE":0,"TOWNNAME":"歸仁區","LI":"武東里","LIN":"6鄰","STREET":"高鐵七路","SECT":" ","MAREA":" ","LANE":"１１０巷","ALLEY":" ","HOUSE_NO":"７０號","E_COORD97":175835.76742700001,"N_COORD97":2535705.08837,"ADDRESS":"高鐵七路１１０巷７０號","OBJECTID":328739},"geometry":{"x":175835.76742700115,"y":2535705.0883670021}},{"attributes":{"ID":328749,"DIS_CODE":0,"TOWNNAME":"善化區","LI":"光文里","LIN":"4鄰","STREET":" ","SECT":" ","MAREA":"北子店","LANE":" ","ALLEY":" ","HOUSE_NO":"１９６號之３","E_COORD97":179349.97,"N_COORD97":2559620.27,"ADDRESS":"北子店１９６號之３","OBJECTID":328740},"geometry":{"x":179349.96999999974,"y":2559620.2699999996}},{"attributes":{"ID":328750,"DIS_CODE":0,"TOWNNAME":"歸仁區","LI":"歸仁里","LIN":"15鄰","STREET":"信義北路","SECT":" ","MAREA":" ","LANE":"９６巷","ALLEY":" ","HOUSE_NO":"２６號","E_COORD97":178045.22,"N_COORD97":2541036.1099999999,"ADDRESS":"信義北路９６巷２６號","OBJECTID":328741},"geometry":{"x":178045.21999999881,"y":2541036.1100000031}},{"attributes":{"ID":328751,"DIS_CODE":0,"TOWNNAME":"善化區","LI":"坐駕里","LIN":"20鄰","STREET":" ","SECT":" ","MAREA":"坐駕","LANE":" ","ALLEY":" ","HOUSE_NO":"１０４號","E_COORD97":178290.84,"N_COORD97":2558323.25,"ADDRESS":"坐駕１０４號","OBJECTID":328742},"geometry":{"x":178290.84000000078,"y":2558323.2500000037}},{"attributes":{"ID":328752,"DIS_CODE":0,"TOWNNAME":"善化區","LI":"胡厝里","LIN":"17鄰","STREET":" ","SECT":" ","MAREA":"西衛","LANE":" ","ALLEY":" ","HOUSE_NO":"７之５號","E_COORD97":174407.48000000001,"N_COORD97":2559469.27,"ADDRESS":"西衛７之５號","OBJECTID":328743},"geometry":{"x":174407.48000000045,"y":2559469.2700000014}},{"attributes":{"ID":328753,"DIS_CODE":0,"TOWNNAME":"歸仁區","LI":"看西里","LIN":"15鄰","STREET":"成功六街","SECT":" ","MAREA":" ","LANE":"１３巷","ALLEY":" ","HOUSE_NO":"１３號","E_COORD97":178362.26000000001,"N_COORD97":2540118.1099999999,"ADDRESS":"成功六街１３巷１３號","OBJECTID":328744},"geometry":{"x":178362.26000000071,"y":2540118.1100000013}},{"attributes":{"ID":328754,"DIS_CODE":0,"TOWNNAME":"善化區","LI":"東昌里","LIN":"4鄰","STREET":" ","SECT":" ","MAREA":"東勢寮","LANE":" ","ALLEY":" ","HOUSE_NO":"４２號","E_COORD97":180712.89999999999,"N_COORD97":2561899.5099999998,"ADDRESS":"東勢寮４２號","OBJECTID":328745},"geometry":{"x":180712.89999999944,"y":2561899.5100000016}},{"attributes":{"ID":328755,"DIS_CODE":0,"TOWNNAME":"善化區","LI":"溪美里","LIN":"4鄰","STREET":" ","SECT":" ","MAREA":"溪尾","LANE":" ","ALLEY":" ","HOUSE_NO":"２９號（已半毀）","E_COORD97":176730.51000000001,"N_COORD97":2561054.77,"ADDRESS":"溪尾２９號（已半毀）","OBJECTID":328746},"geometry":{"x":176730.50999999978,"y":2561054.7699999996}},{"attributes":{"ID":328756,"DIS_CODE":0,"TOWNNAME":"善化區","LI":"胡厝里","LIN":"18鄰","STREET":" ","SECT":" ","MAREA":"西衛","LANE":" ","ALLEY":" ","HOUSE_NO":"１１號之５","E_COORD97":174481.42000000001,"N_COORD97":2559360.02,"ADDRESS":"西衛１１號之５","OBJECTID":328747},"geometry":{"x":174481.42000000086,"y":2559360.0199999996}},{"attributes":{"ID":328757,"DIS_CODE":0,"TOWNNAME":"善化區","LI":"胡厝里","LIN":"14鄰","STREET":" ","SECT":" ","MAREA":"胡厝寮","LANE":" ","ALLEY":" ","HOUSE_NO":"２３３號","E_COORD97":174956.51999999999,"N_COORD97":2560244,"ADDRESS":"胡厝寮２３３號","OBJECTID":328748},"geometry":{"x":174956.52000000048,"y":2560244.0000000037}},{"attributes":{"ID":328758,"DIS_CODE":0,"TOWNNAME":"歸仁區","LI":"南保里","LIN":"15鄰","STREET":"文化十街","SECT":" ","MAREA":" ","LANE":"１０巷","ALLEY":" ","HOUSE_NO":"２５號","E_COORD97":176709.17000000001,"N_COORD97":2541293.2599999998,"ADDRESS":"文化十街１０巷２５號","OBJECTID":328749},"geometry":{"x":176709.17000000086,"y":2541293.2600000035}},{"attributes":{"ID":328759,"DIS_CODE":0,"TOWNNAME":"善化區","LI":"胡家里","LIN":"14鄰","STREET":" ","SECT":" ","MAREA":"胡厝寮","LANE":" ","ALLEY":" ","HOUSE_NO":"１２５號","E_COORD97":175458.51000000001,"N_COORD97":2560807.75,"ADDRESS":"胡厝寮１２５號","OBJECTID":328750},"geometry":{"x":175458.51000000071,"y":2560807.75}},{"attributes":{"ID":328760,"DIS_CODE":0,"TOWNNAME":"善化區","LI":"胡厝里","LIN":"17鄰","STREET":" ","SECT":" ","MAREA":"西衛","LANE":" ","ALLEY":" ","HOUSE_NO":"５號","E_COORD97":174456.56,"N_COORD97":2559525.75,"ADDRESS":"西衛５號","OBJECTID":328751},"geometry":{"x":174456.56000000052,"y":2559525.75}},{"attributes":{"ID":328761,"DIS_CODE":0,"TOWNNAME":"善化區","LI":"光文里","LIN":"4鄰","STREET":" ","SECT":" ","MAREA":"北子店","LANE":"１６０巷","ALLEY":" ","HOUSE_NO":"２４號","E_COORD97":179441.45000000001,"N_COORD97":2559563,"ADDRESS":"北子店１６０巷２４號","OBJECTID":328752},"geometry":{"x":179441.45000000112,"y":2559563.0000000019}},{"attributes":{"ID":328762,"DIS_CODE":0,"TOWNNAME":"善化區","LI":"田寮里","LIN":"4鄰","STREET":" ","SECT":" ","MAREA":"六分寮","LANE":" ","ALLEY":" ","HOUSE_NO":"５４號之１２","E_COORD97":178434.98000000001,"N_COORD97":2561148.27,"ADDRESS":"六分寮５４號之１２","OBJECTID":328753},"geometry":{"x":178434.98000000138,"y":2561148.2700000014}},{"attributes":{"ID":328763,"DIS_CODE":0,"TOWNNAME":"善化區","LI":"胡厝里","LIN":"20鄰","STREET":" ","SECT":" ","MAREA":"西衛","LANE":" ","ALLEY":" ","HOUSE_NO":"２９號之１","E_COORD97":174212.39999999999,"N_COORD97":2559283.02,"ADDRESS":"西衛２９號之１","OBJECTID":328754},"geometry":{"x":174212.4000000013,"y":2559283.0199999996}},{"attributes":{"ID":328764,"DIS_CODE":0,"TOWNNAME":"歸仁區","LI":"南保里","LIN":"15鄰","STREET":"文化十街","SECT":" ","MAREA":" ","LANE":"１０巷","ALLEY":" ","HOUSE_NO":"１５號","E_COORD97":176664.97,"N_COORD97":2541274.2599999998,"ADDRESS":"文化十街１０巷１５號","OBJECTID":328755},"geometry":{"x":176664.96999999974,"y":2541274.2600000016}},{"attributes":{"ID":328765,"DIS_CODE":0,"TOWNNAME":"歸仁區","LI":"文化里","LIN":"15鄰","STREET":"大德路","SECT":" ","MAREA":" ","LANE":"１９３巷","ALLEY":" ","HOUSE_NO":"２號地下室","E_COORD97":177272.31,"N_COORD97":2541511.3300000001,"ADDRESS":"大德路１９３巷２號地下室","OBJECTID":328756},"geometry":{"x":177272.31000000052,"y":2541511.3300000019}},{"attributes":{"ID":328766,"DIS_CODE":0,"TOWNNAME":"歸仁區","LI":"西埔里","LIN":"15鄰","STREET":"西埔二街","SECT":" ","MAREA":" ","LANE":"１１０巷","ALLEY":" ","HOUSE_NO":"２０１號","E_COORD97":176679.69,"N_COORD97":2545118.25,"ADDRESS":"西埔二街１１０巷２０１號","OBJECTID":328757},"geometry":{"x":176679.69000000041,"y":2545118.2500000019}},{"attributes":{"ID":328767,"DIS_CODE":0,"TOWNNAME":"東區","LI":"小東里","LIN":"30鄰","STREET":"東平路","SECT":" ","MAREA":" ","LANE":"２５２巷","ALLEY":" ","HOUSE_NO":"１１號","E_COORD97":170716.62,"N_COORD97":2544076.0600000001,"ADDRESS":"東平路２５２巷１１號","OBJECTID":328758},"geometry":{"x":170716.62000000104,"y":2544076.0600000024}},{"attributes":{"ID":328768,"DIS_CODE":0,"TOWNNAME":"歸仁區","LI":"文化里","LIN":"15鄰","STREET":"大德路","SECT":" ","MAREA":" ","LANE":"１９３巷","ALLEY":" ","HOUSE_NO":"２號","E_COORD97":177271.57000000001,"N_COORD97":2541511.3300000001,"ADDRESS":"大德路１９３巷２號","OBJECTID":328759},"geometry":{"x":177271.5700000003,"y":2541511.3300000019}},{"attributes":{"ID":328769,"DIS_CODE":0,"TOWNNAME":"歸仁區","LI":"文化里","LIN":"15鄰","STREET":"大德路","SECT":" ","MAREA":" ","LANE":"１９３巷","ALLEY":" ","HOUSE_NO":"１２號","E_COORD97":177274.62,"N_COORD97":2541467.3300000001,"ADDRESS":"大德路１９３巷１２號","OBJECTID":328760},"geometry":{"x":177274.62000000011,"y":2541467.3300000019}},{"attributes":{"ID":328770,"DIS_CODE":0,"TOWNNAME":"歸仁區","LI":"西埔里","LIN":"15鄰","STREET":"西埔二街","SECT":" ","MAREA":" ","LANE":"７０巷","ALLEY":" ","HOUSE_NO":"７４號","E_COORD97":176921.48999999999,"N_COORD97":2544898.3700000001,"ADDRESS":"西埔二街７０巷７４號","OBJECTID":328761},"geometry":{"x":176921.49000000022,"y":2544898.3700000029}},{"attributes":{"ID":328771,"DIS_CODE":0,"TOWNNAME":"歸仁區","LI":"文化里","LIN":"15鄰","STREET":"大德路","SECT":" ","MAREA":" ","LANE":"１９３巷","ALLEY":" ","HOUSE_NO":"６號","E_COORD97":177272.47,"N_COORD97":2541489.3300000001,"ADDRESS":"大德路１９３巷６號","OBJECTID":328762},"geometry":{"x":177272.47000000067,"y":2541489.3299999982}},{"attributes":{"ID":328772,"DIS_CODE":0,"TOWNNAME":"歸仁區","LI":"西埔里","LIN":"15鄰","STREET":"西埔一街","SECT":" ","MAREA":" ","LANE":"５４５巷","ALLEY":" ","HOUSE_NO":"６０號","E_COORD97":176957.73999999999,"N_COORD97":2545214.25,"ADDRESS":"西埔一街５４５巷６０號","OBJECTID":328763},"geometry":{"x":176957.74000000115,"y":2545214.2500000019}},{"attributes":{"ID":328773,"DIS_CODE":0,"TOWNNAME":"歸仁區","LI":"南保里","LIN":"15鄰","STREET":"文化十街","SECT":" ","MAREA":" ","LANE":"１０巷","ALLEY":" ","HOUSE_NO":"２３號","E_COORD97":176726.19,"N_COORD97":2541276.3300000001,"ADDRESS":"文化十街１０巷２３號","OBJECTID":328764},"geometry":{"x":176726.19000000134,"y":2541276.3300000019}},{"attributes":{"ID":328774,"DIS_CODE":0,"TOWNNAME":"玉井區","LI":"玉井里","LIN":"15鄰","STREET":"中華路","SECT":" ","MAREA":" ","LANE":"８巷","ALLEY":" ","HOUSE_NO":"１號","E_COORD97":194904.85000000001,"N_COORD97":2558175.2400000002,"ADDRESS":"中華路８巷１號","OBJECTID":328765},"geometry":{"x":194904.85000000056,"y":2558175.2400000021}},{"attributes":{"ID":328775,"DIS_CODE":0,"TOWNNAME":"歸仁區","LI":"大廟里","LIN":"15鄰","STREET":"大廟五街","SECT":" ","MAREA":" ","LANE":"９６巷","ALLEY":" ","HOUSE_NO":"９號","E_COORD97":176091.04000000001,"N_COORD97":2544361.0800000001,"ADDRESS":"大廟五街９６巷９號","OBJECTID":328766},"geometry":{"x":176091.04000000097,"y":2544361.0800000019}},{"attributes":{"ID":328776,"DIS_CODE":0,"TOWNNAME":"麻豆區","LI":"東角里","LIN":"15鄰","STREET":"民生路","SECT":" ","MAREA":" ","LANE":"２９巷","ALLEY":" ","HOUSE_NO":"１號之１０","E_COORD97":173704.01999999999,"N_COORD97":2564643.21,"ADDRESS":"民生路２９巷１號之１０","OBJECTID":328767},"geometry":{"x":173704.02000000048,"y":2564643.2100000009}},{"attributes":{"ID":328777,"DIS_CODE":0,"TOWNNAME":"東區","LI":"關聖里","LIN":"17鄰","STREET":"裕平路","SECT":" ","MAREA":" ","LANE":" ","ALLEY":" ","HOUSE_NO":"９７號","E_COORD97":172317.62,"N_COORD97":2542842.54,"ADDRESS":"裕平路９７號","OBJECTID":328768},"geometry":{"x":172317.62000000011,"y":2542842.5399999991}},{"attributes":{"ID":328778,"DIS_CODE":0,"TOWNNAME":"東區","LI":"東光里","LIN":"4鄰","STREET":"東興路","SECT":" ","MAREA":" ","LANE":"２０巷","ALLEY":" ","HOUSE_NO":"１號","E_COORD97":170941.56,"N_COORD97":2543444.4199999999,"ADDRESS":"東興路２０巷１號","OBJECTID":328769},"geometry":{"x":170941.55999999959,"y":2543444.4199999999}},{"attributes":{"ID":328779,"DIS_CODE":0,"TOWNNAME":"東區","LI":"東光里","LIN":"4鄰","STREET":"東興路","SECT":" ","MAREA":" ","LANE":"２０巷","ALLEY":" ","HOUSE_NO":"３號","E_COORD97":170943.07000000001,"N_COORD97":2543450.25,"ADDRESS":"東興路２０巷３號","OBJECTID":328770},"geometry":{"x":170943.07000000123,"y":2543450.2500000019}},{"attributes":{"ID":328780,"DIS_CODE":0,"TOWNNAME":"東區","LI":"富裕里","LIN":"5鄰","STREET":"裕農路","SECT":" ","MAREA":" ","LANE":"９０巷","ALLEY":" ","HOUSE_NO":"２號","E_COORD97":170693.45999999999,"N_COORD97":2542882.9300000002,"ADDRESS":"裕農路９０巷２號","OBJECTID":328771},"geometry":{"x":170693.45999999996,"y":2542882.9300000016}},{"attributes":{"ID":328781,"DIS_CODE":0,"TOWNNAME":"麻豆區","LI":"東角里","LIN":"15鄰","STREET":"民生路","SECT":" ","MAREA":" ","LANE":"２９巷","ALLEY":" ","HOUSE_NO":"１號之１","E_COORD97":173667.51999999999,"N_COORD97":2564633.9399999999,"ADDRESS":"民生路２９巷１號之１","OBJECTID":328772},"geometry":{"x":173667.51999999955,"y":2564633.9399999995}},{"attributes":{"ID":328782,"DIS_CODE":0,"TOWNNAME":"麻豆區","LI":"東角里","LIN":"15鄰","STREET":"民生路","SECT":" ","MAREA":" ","LANE":"２９巷","ALLEY":" ","HOUSE_NO":"１號之２","E_COORD97":173670.92000000001,"N_COORD97":2564634.4500000002,"ADDRESS":"民生路２９巷１號之２","OBJECTID":328773},"geometry":{"x":173670.92000000086,"y":2564634.4500000011}},{"attributes":{"ID":328783,"DIS_CODE":0,"TOWNNAME":"東區","LI":"圍下里","LIN":"7鄰","STREET":"青年路","SECT":" ","MAREA":" ","LANE":"２９３巷","ALLEY":" ","HOUSE_NO":"５號","E_COORD97":169385.87,"N_COORD97":2543599.6099999999,"ADDRESS":"青年路２９３巷５號","OBJECTID":328774},"geometry":{"x":169385.87000000104,"y":2543599.6100000013}},{"attributes":{"ID":328784,"DIS_CODE":0,"TOWNNAME":"麻豆區","LI":"東角里","LIN":"15鄰","STREET":"民生路","SECT":" ","MAREA":" ","LANE":"２９巷","ALLEY":" ","HOUSE_NO":"１號之３","E_COORD97":173674.85000000001,"N_COORD97":2564635.29,"ADDRESS":"民生路２９巷１號之３","OBJECTID":328775},"geometry":{"x":173674.85000000056,"y":2564635.290000001}},{"attributes":{"ID":328785,"DIS_CODE":0,"TOWNNAME":"麻豆區","LI":"東角里","LIN":"15鄰","STREET":"民生路","SECT":" ","MAREA":" ","LANE":"２９巷","ALLEY":" ","HOUSE_NO":"１號之４","E_COORD97":173679.12,"N_COORD97":2564635.79,"ADDRESS":"民生路２９巷１號之４","OBJECTID":328776},"geometry":{"x":173679.12000000011,"y":2564635.790000001}},{"attributes":{"ID":328786,"DIS_CODE":0,"TOWNNAME":"麻豆區","LI":"東角里","LIN":"15鄰","STREET":"民生路","SECT":" ","MAREA":" ","LANE":"２９巷","ALLEY":" ","HOUSE_NO":"１號之５","E_COORD97":173682.98999999999,"N_COORD97":2564636.3199999998,"ADDRESS":"民生路２９巷１號之５","OBJECTID":328777},"geometry":{"x":173682.99000000115,"y":2564636.3200000022}},{"attributes":{"ID":328787,"DIS_CODE":0,"TOWNNAME":"麻豆區","LI":"東角里","LIN":"15鄰","STREET":"民生路","SECT":" ","MAREA":" ","LANE":"２９巷","ALLEY":" ","HOUSE_NO":"１號之６","E_COORD97":173687.35999999999,"N_COORD97":2564636.9300000002,"ADDRESS":"民生路２９巷１號之６","OBJECTID":328778},"geometry":{"x":173687.36000000127,"y":2564636.9299999997}},{"attributes":{"ID":328788,"DIS_CODE":0,"TOWNNAME":"麻豆區","LI":"東角里","LIN":"15鄰","STREET":"民生路","SECT":" ","MAREA":" ","LANE":"２９巷","ALLEY":" ","HOUSE_NO":"１號之７","E_COORD97":173691.22,"N_COORD97":2564637.5099999998,"ADDRESS":"民生路２９巷１號之７","OBJECTID":328779},"geometry":{"x":173691.22000000067,"y":2564637.5100000035}},{"attributes":{"ID":328789,"DIS_CODE":0,"TOWNNAME":"麻豆區","LI":"東角里","LIN":"15鄰","STREET":"民生路","SECT":" ","MAREA":" ","LANE":"２９巷","ALLEY":" ","HOUSE_NO":"１號之８","E_COORD97":173695.5,"N_COORD97":2564638,"ADDRESS":"民生路２９巷１號之８","OBJECTID":328780},"geometry":{"x":173695.50000000186,"y":2564638.0000000037}},{"attributes":{"ID":328790,"DIS_CODE":0,"TOWNNAME":"麻豆區","LI":"東角里","LIN":"15鄰","STREET":"民生路","SECT":" ","MAREA":" ","LANE":"２９巷","ALLEY":" ","HOUSE_NO":"１號","E_COORD97":173662.01000000001,"N_COORD97":2564629.5800000001,"ADDRESS":"民生路２９巷１號","OBJECTID":328781},"geometry":{"x":173662.01000000071,"y":2564629.5800000001}},{"attributes":{"ID":328791,"DIS_CODE":0,"TOWNNAME":"北區","LI":"正覺里","LIN":"15鄰","STREET":"正覺街","SECT":" ","MAREA":" ","LANE":"７７巷","ALLEY":" ","HOUSE_NO":"１０號","E_COORD97":169272.25,"N_COORD97":2546408.02,"ADDRESS":"正覺街７７巷１０號","OBJECTID":328782},"geometry":{"x":169272.25,"y":2546408.0200000014}},{"attributes":{"ID":328792,"DIS_CODE":0,"TOWNNAME":"北區","LI":"正覺里","LIN":"15鄰","STREET":"正覺街","SECT":" ","MAREA":" ","LANE":"７７巷","ALLEY":" ","HOUSE_NO":"１２號","E_COORD97":169268.91,"N_COORD97":2546408.02,"ADDRESS":"正覺街７７巷１２號","OBJECTID":328783},"geometry":{"x":169268.91000000108,"y":2546408.0200000014}},{"attributes":{"ID":328793,"DIS_CODE":0,"TOWNNAME":"六甲區","LI":"二甲里","LIN":"15鄰","STREET":"民權街","SECT":" ","MAREA":" ","LANE":"１９２巷","ALLEY":" ","HOUSE_NO":"８號","E_COORD97":183152.01000000001,"N_COORD97":2569763.4100000001,"ADDRESS":"民權街１９２巷８號","OBJECTID":328784},"geometry":{"x":183152.00999999978,"y":2569763.4100000001}},{"attributes":{"ID":328794,"DIS_CODE":0,"TOWNNAME":"安南區","LI":"淵中里","LIN":"17鄰","STREET":"樂安一街","SECT":" ","MAREA":" ","LANE":" ","ALLEY":" ","HOUSE_NO":"１６０號","E_COORD97":165883.04999999999,"N_COORD97":2549789.6200000001,"ADDRESS":"樂安一街１６０號","OBJECTID":328785},"geometry":{"x":165883.04999999981,"y":2549789.6200000029}},{"attributes":{"ID":328795,"DIS_CODE":0,"TOWNNAME":"安南區","LI":"淵中里","LIN":"17鄰","STREET":"樂安一街","SECT":" ","MAREA":" ","LANE":" ","ALLEY":" ","HOUSE_NO":"１７２號","E_COORD97":165886.85999999999,"N_COORD97":2549788.6600000001,"ADDRESS":"樂安一街１７２號","OBJECTID":328786},"geometry":{"x":165886.86000000034,"y":2549788.6600000001}},{"attributes":{"ID":328796,"DIS_CODE":0,"TOWNNAME":"仁德區","LI":"成功里","LIN":"17鄰","STREET":"全福路","SECT":" ","MAREA":" ","LANE":" ","ALLEY":" ","HOUSE_NO":"８８號","E_COORD97":171059.89999999999,"N_COORD97":2539295,"ADDRESS":"全福路８８號","OBJECTID":328787},"geometry":{"x":171059.90000000037,"y":2539295.0000000019}},{"attributes":{"ID":328797,"DIS_CODE":0,"TOWNNAME":"麻豆區","LI":"北勢里","LIN":"1鄰","STREET":" ","SECT":" ","MAREA":"加輦邦","LANE":" ","ALLEY":" ","HOUSE_NO":"１號之２２","E_COORD97":173475.69,"N_COORD97":2565987.4199999999,"ADDRESS":"加輦邦１號之２２","OBJECTID":328788},"geometry":{"x":173475.69000000041,"y":2565987.4199999981}},{"attributes":{"ID":328798,"DIS_CODE":0,"TOWNNAME":"東區","LI":"中西里","LIN":"18鄰","STREET":"長榮路","SECT":"二段","MAREA":" ","LANE":"３２巷","ALLEY":" ","HOUSE_NO":"１１９號","E_COORD97":170074.42999999999,"N_COORD97":2543242,"ADDRESS":"長榮路二段３２巷１１９號","OBJECTID":328789},"geometry":{"x":170074.4299999997,"y":2543242.0000000019}},{"attributes":{"ID":328799,"DIS_CODE":0,"TOWNNAME":"東區","LI":"中西里","LIN":"18鄰","STREET":"長榮路","SECT":"二段","MAREA":" ","LANE":"３２巷","ALLEY":" ","HOUSE_NO":"１２９號","E_COORD97":170096.04999999999,"N_COORD97":2543214.1400000001,"ADDRESS":"長榮路二段３２巷１２９號","OBJECTID":328790},"geometry":{"x":170096.04999999888,"y":2543214.1400000025}},{"attributes":{"ID":328800,"DIS_CODE":0,"TOWNNAME":"東區","LI":"中西里","LIN":"20鄰","STREET":"長榮路","SECT":"二段","MAREA":" ","LANE":"３２巷","ALLEY":" ","HOUSE_NO":"４５號","E_COORD97":170034.53,"N_COORD97":2543206.0600000001,"ADDRESS":"長榮路二段３２巷４５號","OBJECTID":328791},"geometry":{"x":170034.53000000119,"y":2543206.0600000005}},{"attributes":{"ID":328801,"DIS_CODE":0,"TOWNNAME":"東區","LI":"大學里","LIN":"14鄰","STREET":"長榮路","SECT":"三段","MAREA":" ","LANE":"３０巷","ALLEY":" ","HOUSE_NO":"５號","E_COORD97":170236.56,"N_COORD97":2543723.2400000002,"ADDRESS":"長榮路三段３０巷５號","OBJECTID":328792},"geometry":{"x":170236.56000000145,"y":2543723.2400000002}},{"attributes":{"ID":328802,"DIS_CODE":0,"TOWNNAME":"東區","LI":"大學里","LIN":"14鄰","STREET":"長榮路","SECT":"三段","MAREA":" ","LANE":"３０巷","ALLEY":" ","HOUSE_NO":"２６號","E_COORD97":170242.91,"N_COORD97":2543708.9700000002,"ADDRESS":"長榮路三段３０巷２６號","OBJECTID":328793},"geometry":{"x":170242.91000000015,"y":2543708.9700000007}},{"attributes":{"ID":328803,"DIS_CODE":0,"TOWNNAME":"六甲區","LI":"二甲里","LIN":"15鄰","STREET":"民權街","SECT":" ","MAREA":" ","LANE":"１９６巷","ALLEY":" ","HOUSE_NO":"１０號","E_COORD97":183138.66,"N_COORD97":2569798.4399999999,"ADDRESS":"民權街１９６巷１０號","OBJECTID":328794},"geometry":{"x":183138.66000000108,"y":2569798.4400000013}},{"attributes":{"ID":328804,"DIS_CODE":0,"TOWNNAME":"六甲區","LI":"二甲里","LIN":"15鄰","STREET":"民權街","SECT":" ","MAREA":" ","LANE":"１９６巷","ALLEY":" ","HOUSE_NO":"１１號","E_COORD97":183126.62,"N_COORD97":2569792.0600000001,"ADDRESS":"民權街１９６巷１１號","OBJECTID":328795},"geometry":{"x":183126.62000000011,"y":2569792.0600000024}},{"attributes":{"ID":328805,"DIS_CODE":0,"TOWNNAME":"六甲區","LI":"二甲里","LIN":"15鄰","STREET":"民權街","SECT":" ","MAREA":" ","LANE":"１９６巷","ALLEY":" ","HOUSE_NO":"６號","E_COORD97":183134.64000000001,"N_COORD97":2569774.6899999999,"ADDRESS":"民權街１９６巷６號","OBJECTID":328796},"geometry":{"x":183134.63999999873,"y":2569774.6899999995}},{"attributes":{"ID":328806,"DIS_CODE":0,"TOWNNAME":"六甲區","LI":"二甲里","LIN":"15鄰","STREET":"民權街","SECT":" ","MAREA":" ","LANE":"１９６巷","ALLEY":" ","HOUSE_NO":"７號","E_COORD97":183120.37,"N_COORD97":2569782.8199999998,"ADDRESS":"民權街１９６巷７號","OBJECTID":328797},"geometry":{"x":183120.37000000104,"y":2569782.8200000022}},{"attributes":{"ID":328807,"DIS_CODE":0,"TOWNNAME":"安南區","LI":"城東里","LIN":"1鄰","STREET":"安明路","SECT":"四段","MAREA":" ","LANE":" ","ALLEY":" ","HOUSE_NO":"８２６之３號","E_COORD97":161432.51164000001,"N_COORD97":2553194.11583,"ADDRESS":"安明路四段８２６之３號","OBJECTID":328798},"geometry":{"x":161432.51164000109,"y":2553194.1158300024}},{"attributes":{"ID":328808,"DIS_CODE":0,"TOWNNAME":"安南區","LI":"頂安里","LIN":"17鄰","STREET":"北安路","SECT":"二段","MAREA":" ","LANE":" ","ALLEY":" ","HOUSE_NO":"６６０號","E_COORD97":168281.01000000001,"N_COORD97":2548792.4900000002,"ADDRESS":"北安路二段６６０號","OBJECTID":328799},"geometry":{"x":168281.01000000071,"y":2548792.4900000021}},{"attributes":{"ID":328809,"DIS_CODE":0,"TOWNNAME":"安南區","LI":"頂安里","LIN":"17鄰","STREET":"北安路","SECT":"二段","MAREA":" ","LANE":" ","ALLEY":" ","HOUSE_NO":"６５８號","E_COORD97":168281.17000000001,"N_COORD97":2548783.9199999999,"ADDRESS":"北安路二段６５８號","OBJECTID":328800},"geometry":{"x":168281.16999999993,"y":2548783.9199999999}}]}