{"displayFieldName":"TOWNNAME","fieldAliases":{"ID":"ID","DIS_CODE":"DIS_CODE","TOWNNAME":"TOWNNAME","LI":"LI","LIN":"LIN","STREET":"STREET","SECT":"SECT","MAREA":"MAREA","LANE":"LANE","ALLEY":"ALLEY","HOUSE_NO":"HOUSE_NO","E_COORD97":"E_COORD97","N_COORD97":"N_COORD97","ADDRESS":"ADDRESS","OBJECTID":"OBJECTID"},"geometryType":"esriGeometryPoint","spatialReference":{"wkid":102443,"latestWkid":3826},"fields":[{"name":"ID","type":"esriFieldTypeDouble","alias":"ID"},{"name":"DIS_CODE","type":"esriFieldTypeInteger","alias":"DIS_CODE"},{"name":"TOWNNAME","type":"esriFieldTypeString","alias":"TOWNNAME","length":8},{"name":"LI","type":"esriFieldTypeString","alias":"LI","length":8},{"name":"LIN","type":"esriFieldTypeString","alias":"LIN","length":12},{"name":"STREET","type":"esriFieldTypeString","alias":"STREET","length":20},{"name":"SECT","type":"esriFieldTypeString","alias":"SECT","length":8},{"name":"MAREA","type":"esriFieldTypeString","alias":"MAREA","length":12},{"name":"LANE","type":"esriFieldTypeString","alias":"LANE","length":10},{"name":"ALLEY","type":"esriFieldTypeString","alias":"ALLEY","length":10},{"name":"HOUSE_NO","type":"esriFieldTypeString","alias":"HOUSE_NO","length":20},{"name":"E_COORD97","type":"esriFieldTypeDouble","alias":"E_COORD97"},{"name":"N_COORD97","type":"esriFieldTypeDouble","alias":"N_COORD97"},{"name":"ADDRESS","type":"esriFieldTypeString","alias":"ADDRESS","length":50},{"name":"OBJECTID","type":"esriFieldTypeOID","alias":"OBJECTID"}],"features":[{"attributes":{"ID":422426,"DIS_CODE":0,"TOWNNAME":"永康區","LI":"正強里","LIN":"38鄰","STREET":"正強街","SECT":" ","MAREA":" ","LANE":"３０５巷","ALLEY":" ","HOUSE_NO":"２３號","E_COORD97":173192.04000000001,"N_COORD97":2548048.9199999999,"ADDRESS":"正強街３０５巷２３號","OBJECTID":422401},"geometry":{"x":173192.04000000097,"y":2548048.9199999981}},{"attributes":{"ID":422427,"DIS_CODE":0,"TOWNNAME":"永康區","LI":"正強里","LIN":"9鄰","STREET":"正義街","SECT":" ","MAREA":" ","LANE":"１２６巷","ALLEY":" ","HOUSE_NO":"１７號","E_COORD97":173353.72,"N_COORD97":2547580.27,"ADDRESS":"正義街１２６巷１７號","OBJECTID":422402},"geometry":{"x":173353.72000000067,"y":2547580.2699999996}},{"attributes":{"ID":422428,"DIS_CODE":0,"TOWNNAME":"永康區","LI":"永康里","LIN":"11鄰","STREET":"中山南路","SECT":" ","MAREA":" ","LANE":"１０５４巷","ALLEY":" ","HOUSE_NO":"４６號","E_COORD97":173720.64000000001,"N_COORD97":2547117.6800000002,"ADDRESS":"中山南路１０５４巷４６號","OBJECTID":422403},"geometry":{"x":173720.63999999966,"y":2547117.6799999997}},{"attributes":{"ID":422429,"DIS_CODE":0,"TOWNNAME":"永康區","LI":"正強里","LIN":"36鄰","STREET":"正強街","SECT":" ","MAREA":" ","LANE":"３１１巷","ALLEY":" ","HOUSE_NO":"１７號","E_COORD97":173197.95000000001,"N_COORD97":2548193.8500000001,"ADDRESS":"正強街３１１巷１７號","OBJECTID":422404},"geometry":{"x":173197.95000000112,"y":2548193.8499999996}},{"attributes":{"ID":422430,"DIS_CODE":0,"TOWNNAME":"永康區","LI":"正強里","LIN":"38鄰","STREET":"正強街","SECT":" ","MAREA":" ","LANE":"３０７巷","ALLEY":" ","HOUSE_NO":"７號","E_COORD97":173230.59,"N_COORD97":2548107.6299999999,"ADDRESS":"正強街３０７巷７號","OBJECTID":422405},"geometry":{"x":173230.59000000078,"y":2548107.6300000027}},{"attributes":{"ID":422431,"DIS_CODE":0,"TOWNNAME":"永康區","LI":"安康里","LIN":"13鄰","STREET":"中華路","SECT":" ","MAREA":" ","LANE":"６６１巷","ALLEY":" ","HOUSE_NO":"１１１號","E_COORD97":170794.76000000001,"N_COORD97":2546102,"ADDRESS":"中華路６６１巷１１１號","OBJECTID":422406},"geometry":{"x":170794.76000000164,"y":2546102}},{"attributes":{"ID":422432,"DIS_CODE":0,"TOWNNAME":"永康區","LI":"安康里","LIN":"19鄰","STREET":"中華西街","SECT":" ","MAREA":" ","LANE":"１０４巷","ALLEY":" ","HOUSE_NO":"３號之１","E_COORD97":170753.48000000001,"N_COORD97":2546123.0499999998,"ADDRESS":"中華西街１０４巷３號之１","OBJECTID":422407},"geometry":{"x":170753.48000000138,"y":2546123.0500000007}},{"attributes":{"ID":422433,"DIS_CODE":0,"TOWNNAME":"永康區","LI":"永康里","LIN":"11鄰","STREET":"永平街","SECT":" ","MAREA":" ","LANE":"４５巷","ALLEY":" ","HOUSE_NO":"９號","E_COORD97":173644.01999999999,"N_COORD97":2547163,"ADDRESS":"永平街４５巷９號","OBJECTID":422408},"geometry":{"x":173644.02000000142,"y":2547163}},{"attributes":{"ID":422434,"DIS_CODE":0,"TOWNNAME":"永康區","LI":"正強里","LIN":"22鄰","STREET":"自強路","SECT":" ","MAREA":" ","LANE":"３３３巷","ALLEY":" ","HOUSE_NO":"７號","E_COORD97":173471,"N_COORD97":2547758.5499999998,"ADDRESS":"自強路３３３巷７號","OBJECTID":422409},"geometry":{"x":173471,"y":2547758.5500000026}},{"attributes":{"ID":422435,"DIS_CODE":0,"TOWNNAME":"永康區","LI":"安康里","LIN":"19鄰","STREET":"中華西街","SECT":" ","MAREA":" ","LANE":"１２２巷","ALLEY":" ","HOUSE_NO":"１０號","E_COORD97":170739.51000000001,"N_COORD97":2546148.7400000002,"ADDRESS":"中華西街１２２巷１０號","OBJECTID":422410},"geometry":{"x":170739.51000000071,"y":2546148.7400000039}},{"attributes":{"ID":422436,"DIS_CODE":0,"TOWNNAME":"永康區","LI":"正強里","LIN":"46鄰","STREET":"中正路","SECT":" ","MAREA":" ","LANE":"２５６巷","ALLEY":" ","HOUSE_NO":"９號之１０","E_COORD97":173207.10999999999,"N_COORD97":2547991.8799999999,"ADDRESS":"中正路２５６巷９號之１０","OBJECTID":422411},"geometry":{"x":173207.11000000127,"y":2547991.8800000008}},{"attributes":{"ID":422437,"DIS_CODE":0,"TOWNNAME":"永康區","LI":"甲頂里","LIN":"14鄰","STREET":"大武街","SECT":" ","MAREA":" ","LANE":"１８巷","ALLEY":" ","HOUSE_NO":"７號","E_COORD97":170327.73000000001,"N_COORD97":2546657.6600000001,"ADDRESS":"大武街１８巷７號","OBJECTID":422412},"geometry":{"x":170327.72999999952,"y":2546657.6600000039}},{"attributes":{"ID":422438,"DIS_CODE":0,"TOWNNAME":"永康區","LI":"永康里","LIN":"21鄰","STREET":"中山南路","SECT":" ","MAREA":" ","LANE":"１０４０巷","ALLEY":" ","HOUSE_NO":"８號","E_COORD97":173692.13,"N_COORD97":2547223.3300000001,"ADDRESS":"中山南路１０４０巷８號","OBJECTID":422413},"geometry":{"x":173692.12999999989,"y":2547223.3300000019}},{"attributes":{"ID":422439,"DIS_CODE":0,"TOWNNAME":"永康區","LI":"正強里","LIN":"21鄰","STREET":"自強路","SECT":" ","MAREA":" ","LANE":"３５３巷","ALLEY":" ","HOUSE_NO":"７號之３","E_COORD97":173478.23000000001,"N_COORD97":2547816.79,"ADDRESS":"自強路３５３巷７號之３","OBJECTID":422414},"geometry":{"x":173478.23000000138,"y":2547816.790000001}},{"attributes":{"ID":422440,"DIS_CODE":0,"TOWNNAME":"永康區","LI":"正強里","LIN":"36鄰","STREET":"正強街","SECT":" ","MAREA":" ","LANE":"３１１巷","ALLEY":" ","HOUSE_NO":"９號","E_COORD97":173213.94,"N_COORD97":2548197.6000000001,"ADDRESS":"正強街３１１巷９號","OBJECTID":422415},"geometry":{"x":173213.94000000134,"y":2548197.6000000015}},{"attributes":{"ID":422441,"DIS_CODE":0,"TOWNNAME":"永康區","LI":"安康里","LIN":"24鄰","STREET":"中華路","SECT":" ","MAREA":" ","LANE":"７０３巷","ALLEY":" ","HOUSE_NO":"４８號","E_COORD97":170773.95999999999,"N_COORD97":2546259.4900000002,"ADDRESS":"中華路７０３巷４８號","OBJECTID":422416},"geometry":{"x":170773.96000000089,"y":2546259.4900000021}},{"attributes":{"ID":422442,"DIS_CODE":0,"TOWNNAME":"永康區","LI":"正強里","LIN":"35鄰","STREET":"正強街","SECT":" ","MAREA":" ","LANE":"３１３巷","ALLEY":" ","HOUSE_NO":"６號","E_COORD97":173231.23999999999,"N_COORD97":2548271.1499999999,"ADDRESS":"正強街３１３巷６號","OBJECTID":422417},"geometry":{"x":173231.23999999929,"y":2548271.1500000004}},{"attributes":{"ID":422443,"DIS_CODE":0,"TOWNNAME":"永康區","LI":"正強里","LIN":"45鄰","STREET":"中正路","SECT":" ","MAREA":" ","LANE":"２５６巷","ALLEY":" ","HOUSE_NO":"７號之４５","E_COORD97":173183.06,"N_COORD97":2547985.3100000001,"ADDRESS":"中正路２５６巷７號之４５","OBJECTID":422418},"geometry":{"x":173183.06000000052,"y":2547985.3100000005}},{"attributes":{"ID":422444,"DIS_CODE":0,"TOWNNAME":"永康區","LI":"永康里","LIN":"23鄰","STREET":"中山南路","SECT":" ","MAREA":" ","LANE":"５５７巷","ALLEY":" ","HOUSE_NO":"２２號","E_COORD97":173422.45000000001,"N_COORD97":2547196.4900000002,"ADDRESS":"中山南路５５７巷２２號","OBJECTID":422419},"geometry":{"x":173422.45000000019,"y":2547196.4900000002}},{"attributes":{"ID":422445,"DIS_CODE":0,"TOWNNAME":"永康區","LI":"永康里","LIN":"38鄰","STREET":"大同街","SECT":" ","MAREA":" ","LANE":"７１５巷","ALLEY":" ","HOUSE_NO":"１號","E_COORD97":174488.81,"N_COORD97":2546672.1200000001,"ADDRESS":"大同街７１５巷１號","OBJECTID":422420},"geometry":{"x":174488.81000000052,"y":2546672.120000001}},{"attributes":{"ID":422446,"DIS_CODE":0,"TOWNNAME":"永康區","LI":"永康里","LIN":"33鄰","STREET":"永大路","SECT":"二段","MAREA":" ","LANE":"１３１０巷","ALLEY":" ","HOUSE_NO":"４９號","E_COORD97":174323.35999999999,"N_COORD97":2547024.2999999998,"ADDRESS":"永大路二段１３１０巷４９號","OBJECTID":422421},"geometry":{"x":174323.36000000034,"y":2547024.3000000026}},{"attributes":{"ID":422447,"DIS_CODE":0,"TOWNNAME":"永康區","LI":"安康里","LIN":"19鄰","STREET":"中華西街","SECT":" ","MAREA":" ","LANE":"１２２巷","ALLEY":" ","HOUSE_NO":"２８號","E_COORD97":170782.64999999999,"N_COORD97":2546170.2400000002,"ADDRESS":"中華西街１２２巷２８號","OBJECTID":422422},"geometry":{"x":170782.65000000224,"y":2546170.2400000021}},{"attributes":{"ID":422448,"DIS_CODE":0,"TOWNNAME":"永康區","LI":"永康里","LIN":"13鄰","STREET":"永康街","SECT":" ","MAREA":" ","LANE":"１８６巷","ALLEY":" ","HOUSE_NO":"１７號","E_COORD97":174003.31,"N_COORD97":2547005.4300000002,"ADDRESS":"永康街１８６巷１７號","OBJECTID":422423},"geometry":{"x":174003.31000000145,"y":2547005.4300000016}},{"attributes":{"ID":422449,"DIS_CODE":0,"TOWNNAME":"永康區","LI":"永康里","LIN":"3鄰","STREET":"中山北路","SECT":" ","MAREA":" ","LANE":"３５巷","ALLEY":" ","HOUSE_NO":"４１號","E_COORD97":173872.10999999999,"N_COORD97":2547518.4900000002,"ADDRESS":"中山北路３５巷４１號","OBJECTID":422424},"geometry":{"x":173872.11000000127,"y":2547518.4900000002}},{"attributes":{"ID":422450,"DIS_CODE":0,"TOWNNAME":"永康區","LI":"永康里","LIN":"24鄰","STREET":"中山南路","SECT":" ","MAREA":" ","LANE":"５９７巷","ALLEY":" ","HOUSE_NO":"１８號之４","E_COORD97":173539.42000000001,"N_COORD97":2547256.7999999998,"ADDRESS":"中山南路５９７巷１８號之４","OBJECTID":422425},"geometry":{"x":173539.41999999993,"y":2547256.8000000007}},{"attributes":{"ID":422451,"DIS_CODE":0,"TOWNNAME":"永康區","LI":"安康里","LIN":"12鄰","STREET":"中華路","SECT":" ","MAREA":" ","LANE":"６１９巷","ALLEY":" ","HOUSE_NO":"９號","E_COORD97":171013.20999999999,"N_COORD97":2546077.2400000002,"ADDRESS":"中華路６１９巷９號","OBJECTID":422426},"geometry":{"x":171013.20999999996,"y":2546077.2399999984}},{"attributes":{"ID":422452,"DIS_CODE":0,"TOWNNAME":"永康區","LI":"永康里","LIN":"10鄰","STREET":"中山南路","SECT":" ","MAREA":" ","LANE":"１０５４巷","ALLEY":" ","HOUSE_NO":"１７號","E_COORD97":173743.35000000001,"N_COORD97":2547244,"ADDRESS":"中山南路１０５４巷１７號","OBJECTID":422427},"geometry":{"x":173743.34999999963,"y":2547244}},{"attributes":{"ID":422453,"DIS_CODE":0,"TOWNNAME":"永康區","LI":"安康里","LIN":"10鄰","STREET":"中華路","SECT":" ","MAREA":" ","LANE":"６１９巷","ALLEY":" ","HOUSE_NO":"３９號","E_COORD97":170911.76000000001,"N_COORD97":2546011.25,"ADDRESS":"中華路６１９巷３９號","OBJECTID":422428},"geometry":{"x":170911.76000000164,"y":2546011.25}},{"attributes":{"ID":422454,"DIS_CODE":0,"TOWNNAME":"永康區","LI":"正強里","LIN":"36鄰","STREET":"正強街","SECT":" ","MAREA":" ","LANE":"３０９巷","ALLEY":" ","HOUSE_NO":"３０號","E_COORD97":173182.94,"N_COORD97":2548160.3199999998,"ADDRESS":"正強街３０９巷３０號","OBJECTID":422429},"geometry":{"x":173182.94000000134,"y":2548160.3200000022}},{"attributes":{"ID":422455,"DIS_CODE":0,"TOWNNAME":"永康區","LI":"北灣里","LIN":"29鄰","STREET":"文賢街","SECT":" ","MAREA":" ","LANE":"７８巷","ALLEY":" ","HOUSE_NO":"１號","E_COORD97":175369.42999999999,"N_COORD97":2545315.48,"ADDRESS":"文賢街７８巷１號","OBJECTID":422430},"geometry":{"x":175369.43000000063,"y":2545315.4800000004}},{"attributes":{"ID":422456,"DIS_CODE":0,"TOWNNAME":"永康區","LI":"北灣里","LIN":"2鄰","STREET":"文賢街","SECT":" ","MAREA":" ","LANE":"１２２巷","ALLEY":" ","HOUSE_NO":"２９號","E_COORD97":175494.01000000001,"N_COORD97":2545547.0699999998,"ADDRESS":"文賢街１２２巷２９號","OBJECTID":422431},"geometry":{"x":175494.01000000071,"y":2545547.0700000022}},{"attributes":{"ID":422457,"DIS_CODE":0,"TOWNNAME":"永康區","LI":"正強里","LIN":"14鄰","STREET":"正強街","SECT":" ","MAREA":" ","LANE":"１１１巷","ALLEY":" ","HOUSE_NO":"１７號","E_COORD97":173236.32999999999,"N_COORD97":2547391.6200000001,"ADDRESS":"正強街１１１巷１７號","OBJECTID":422432},"geometry":{"x":173236.33000000101,"y":2547391.6200000029}},{"attributes":{"ID":422458,"DIS_CODE":0,"TOWNNAME":"永康區","LI":"北灣里","LIN":"8鄰","STREET":"大同街","SECT":" ","MAREA":" ","LANE":"１２８巷","ALLEY":" ","HOUSE_NO":"１０號","E_COORD97":175021.45999999999,"N_COORD97":2545578.2999999998,"ADDRESS":"大同街１２８巷１０號","OBJECTID":422433},"geometry":{"x":175021.46000000183,"y":2545578.3000000007}},{"attributes":{"ID":422459,"DIS_CODE":0,"TOWNNAME":"永康區","LI":"永康里","LIN":"15鄰","STREET":"永中街","SECT":" ","MAREA":" ","LANE":"１００巷","ALLEY":" ","HOUSE_NO":"１８號","E_COORD97":174005.57000000001,"N_COORD97":2547153,"ADDRESS":"永中街１００巷１８號","OBJECTID":422434},"geometry":{"x":174005.57000000216,"y":2547153}},{"attributes":{"ID":422460,"DIS_CODE":0,"TOWNNAME":"永康區","LI":"北灣里","LIN":"37鄰","STREET":"大同街","SECT":" ","MAREA":" ","LANE":"３１５巷","ALLEY":" ","HOUSE_NO":"１６號","E_COORD97":174695.51999999999,"N_COORD97":2546025.8999999999,"ADDRESS":"大同街３１５巷１６號","OBJECTID":422435},"geometry":{"x":174695.52000000048,"y":2546025.9000000041}},{"attributes":{"ID":422461,"DIS_CODE":0,"TOWNNAME":"永康區","LI":"正強里","LIN":"20鄰","STREET":"中山南路","SECT":" ","MAREA":" ","LANE":"４７１巷","ALLEY":" ","HOUSE_NO":"１７號","E_COORD97":173128.45999999999,"N_COORD97":2547162.5699999998,"ADDRESS":"中山南路４７１巷１７號","OBJECTID":422436},"geometry":{"x":173128.46000000089,"y":2547162.5700000003}},{"attributes":{"ID":422462,"DIS_CODE":0,"TOWNNAME":"東區","LI":"東安里","LIN":"4鄰","STREET":"東門路","SECT":"二段","MAREA":" ","LANE":"３巷","ALLEY":" ","HOUSE_NO":"１號","E_COORD97":169935.5,"N_COORD97":2543027.3500000001,"ADDRESS":"東門路二段３巷１號","OBJECTID":422437},"geometry":{"x":169935.49999999907,"y":2543027.3499999996}},{"attributes":{"ID":422463,"DIS_CODE":0,"TOWNNAME":"東區","LI":"東安里","LIN":"4鄰","STREET":"東門路","SECT":"二段","MAREA":" ","LANE":"３巷","ALLEY":" ","HOUSE_NO":"２號","E_COORD97":169939.92999999999,"N_COORD97":2543027.98,"ADDRESS":"東門路二段３巷２號","OBJECTID":422438},"geometry":{"x":169939.93000000063,"y":2543027.9800000042}},{"attributes":{"ID":422464,"DIS_CODE":0,"TOWNNAME":"東區","LI":"東安里","LIN":"4鄰","STREET":"東門路","SECT":"二段","MAREA":" ","LANE":"３巷","ALLEY":" ","HOUSE_NO":"３號","E_COORD97":169937.19,"N_COORD97":2543030.1699999999,"ADDRESS":"東門路二段３巷３號","OBJECTID":422439},"geometry":{"x":169937.19000000134,"y":2543030.1700000018}},{"attributes":{"ID":422465,"DIS_CODE":0,"TOWNNAME":"將軍區","LI":"長沙里","LIN":"5鄰","STREET":" ","SECT":" ","MAREA":"長沙","LANE":" ","ALLEY":" ","HOUSE_NO":"４３號","E_COORD97":157280.82302800001,"N_COORD97":2568696.9512700001,"ADDRESS":"長沙４３號","OBJECTID":422440},"geometry":{"x":157280.82302800007,"y":2568696.9512690008}},{"attributes":{"ID":422466,"DIS_CODE":0,"TOWNNAME":"東區","LI":"東安里","LIN":"4鄰","STREET":"東門路","SECT":"二段","MAREA":" ","LANE":"３巷","ALLEY":" ","HOUSE_NO":"７號","E_COORD97":169939.92999999999,"N_COORD97":2543036.4199999999,"ADDRESS":"東門路二段３巷７號","OBJECTID":422441},"geometry":{"x":169939.93000000063,"y":2543036.4199999999}},{"attributes":{"ID":422467,"DIS_CODE":0,"TOWNNAME":"東區","LI":"東安里","LIN":"4鄰","STREET":"東門路","SECT":"二段","MAREA":" ","LANE":"３巷","ALLEY":" ","HOUSE_NO":"８號","E_COORD97":169944.45000000001,"N_COORD97":2543037.5800000001,"ADDRESS":"東門路二段３巷８號","OBJECTID":422442},"geometry":{"x":169944.45000000019,"y":2543037.5800000019}},{"attributes":{"ID":422468,"DIS_CODE":0,"TOWNNAME":"東區","LI":"東安里","LIN":"4鄰","STREET":"東門路","SECT":"二段","MAREA":" ","LANE":"３巷","ALLEY":" ","HOUSE_NO":"９號","E_COORD97":169941.25,"N_COORD97":2543039.5299999998,"ADDRESS":"東門路二段３巷９號","OBJECTID":422443},"geometry":{"x":169941.25000000093,"y":2543039.5299999993}},{"attributes":{"ID":422469,"DIS_CODE":0,"TOWNNAME":"永康區","LI":"復興里","LIN":"5鄰","STREET":"復興路","SECT":" ","MAREA":" ","LANE":"４２３巷","ALLEY":" ","HOUSE_NO":"１號","E_COORD97":172111.06,"N_COORD97":2544266.6099999999,"ADDRESS":"復興路４２３巷１號","OBJECTID":422444},"geometry":{"x":172111.05999999959,"y":2544266.6099999994}},{"attributes":{"ID":422470,"DIS_CODE":0,"TOWNNAME":"中西區","LI":"永福里","LIN":"2鄰","STREET":"友愛街","SECT":" ","MAREA":" ","LANE":"４０巷","ALLEY":" ","HOUSE_NO":"１號","E_COORD97":168119.10999999999,"N_COORD97":2543538.5699999998,"ADDRESS":"友愛街４０巷１號","OBJECTID":422445},"geometry":{"x":168119.11000000034,"y":2543538.5700000003}},{"attributes":{"ID":422471,"DIS_CODE":0,"TOWNNAME":"中西區","LI":"永福里","LIN":"2鄰","STREET":"友愛街","SECT":" ","MAREA":" ","LANE":"４０巷","ALLEY":" ","HOUSE_NO":"２號","E_COORD97":168128.28,"N_COORD97":2543535.2599999998,"ADDRESS":"友愛街４０巷２號","OBJECTID":422446},"geometry":{"x":168128.28000000026,"y":2543535.2600000016}},{"attributes":{"ID":422472,"DIS_CODE":0,"TOWNNAME":"中西區","LI":"永福里","LIN":"2鄰","STREET":"友愛街","SECT":" ","MAREA":" ","LANE":"４０巷","ALLEY":" ","HOUSE_NO":"６號","E_COORD97":168137.01000000001,"N_COORD97":2543543.04,"ADDRESS":"友愛街４０巷６號","OBJECTID":422447},"geometry":{"x":168137.01000000071,"y":2543543.040000001}},{"attributes":{"ID":422473,"DIS_CODE":0,"TOWNNAME":"中西區","LI":"永福里","LIN":"2鄰","STREET":"友愛街","SECT":" ","MAREA":" ","LANE":"４０巷","ALLEY":" ","HOUSE_NO":"９號","E_COORD97":168117.14999999999,"N_COORD97":2543548.9199999999,"ADDRESS":"友愛街４０巷９號","OBJECTID":422448},"geometry":{"x":168117.15000000037,"y":2543548.9199999999}},{"attributes":{"ID":422474,"DIS_CODE":0,"TOWNNAME":"安南區","LI":"新順里","LIN":"10鄰","STREET":"政安路","SECT":" ","MAREA":" ","LANE":"２７巷","ALLEY":" ","HOUSE_NO":"２號","E_COORD97":169824.59,"N_COORD97":2549125.3900000001,"ADDRESS":"政安路２７巷２號","OBJECTID":422449},"geometry":{"x":169824.58999999892,"y":2549125.3900000025}},{"attributes":{"ID":422475,"DIS_CODE":0,"TOWNNAME":"新營區","LI":"新東里","LIN":"26鄰","STREET":"東興三街","SECT":" ","MAREA":" ","LANE":"２２巷","ALLEY":" ","HOUSE_NO":"５２號三樓","E_COORD97":180664,"N_COORD97":2579416.8100000001,"ADDRESS":"東興三街２２巷５２號三樓","OBJECTID":422450},"geometry":{"x":180664,"y":2579416.8100000005}},{"attributes":{"ID":422476,"DIS_CODE":0,"TOWNNAME":"東區","LI":"富強里","LIN":"13鄰","STREET":"裕農路","SECT":" ","MAREA":" ","LANE":"２８８巷","ALLEY":" ","HOUSE_NO":"２４２號","E_COORD97":171065.64000000001,"N_COORD97":2542770.5099999998,"ADDRESS":"裕農路２８８巷２４２號","OBJECTID":422451},"geometry":{"x":171065.6400000006,"y":2542770.5100000016}},{"attributes":{"ID":422477,"DIS_CODE":0,"TOWNNAME":"東區","LI":"富強里","LIN":"13鄰","STREET":"裕農路","SECT":" ","MAREA":" ","LANE":"２８８巷","ALLEY":" ","HOUSE_NO":"２５６號","E_COORD97":171055.14999999999,"N_COORD97":2542754.0499999998,"ADDRESS":"裕農路２８８巷２５６號","OBJECTID":422452},"geometry":{"x":171055.15000000037,"y":2542754.0500000026}},{"attributes":{"ID":422478,"DIS_CODE":0,"TOWNNAME":"東區","LI":"龍山里","LIN":"18鄰","STREET":"東門路","SECT":"一段","MAREA":" ","LANE":"２１２巷","ALLEY":" ","HOUSE_NO":"１３號","E_COORD97":169672.70000000001,"N_COORD97":2543048.0499999998,"ADDRESS":"東門路一段２１２巷１３號","OBJECTID":422453},"geometry":{"x":169672.70000000019,"y":2543048.0499999989}},{"attributes":{"ID":422479,"DIS_CODE":0,"TOWNNAME":"東區","LI":"和平里","LIN":"4鄰","STREET":"東門路","SECT":"三段","MAREA":" ","LANE":"２２６巷","ALLEY":" ","HOUSE_NO":"４１號","E_COORD97":171554.88,"N_COORD97":2541865.6400000001,"ADDRESS":"東門路三段２２６巷４１號","OBJECTID":422454},"geometry":{"x":171554.87999999989,"y":2541865.6400000025}},{"attributes":{"ID":422480,"DIS_CODE":0,"TOWNNAME":"東區","LI":"和平里","LIN":"7鄰","STREET":"東門路","SECT":"三段","MAREA":" ","LANE":"２２６巷","ALLEY":" ","HOUSE_NO":"６７號","E_COORD97":171575.48999999999,"N_COORD97":2541841.1099999999,"ADDRESS":"東門路三段２２６巷６７號","OBJECTID":422455},"geometry":{"x":171575.49000000115,"y":2541841.1100000013}},{"attributes":{"ID":422481,"DIS_CODE":0,"TOWNNAME":"東區","LI":"和平里","LIN":"7鄰","STREET":"東門路","SECT":"三段","MAREA":" ","LANE":"２２６巷","ALLEY":" ","HOUSE_NO":"８３號","E_COORD97":171498.64999999999,"N_COORD97":2541858.0800000001,"ADDRESS":"東門路三段２２６巷８３號","OBJECTID":422456},"geometry":{"x":171498.6500000013,"y":2541858.0800000019}},{"attributes":{"ID":422482,"DIS_CODE":0,"TOWNNAME":"東區","LI":"和平里","LIN":"7鄰","STREET":"東門路","SECT":"三段","MAREA":" ","LANE":"２２６巷","ALLEY":" ","HOUSE_NO":"８１號","E_COORD97":171518.28,"N_COORD97":2541856.8900000001,"ADDRESS":"東門路三段２２６巷８１號","OBJECTID":422457},"geometry":{"x":171518.28000000026,"y":2541856.8900000025}},{"attributes":{"ID":422483,"DIS_CODE":0,"TOWNNAME":"東區","LI":"和平里","LIN":"7鄰","STREET":"東門路","SECT":"三段","MAREA":" ","LANE":"２２６巷","ALLEY":" ","HOUSE_NO":"８５號","E_COORD97":171494.57999999999,"N_COORD97":2541858.0800000001,"ADDRESS":"東門路三段２２６巷８５號","OBJECTID":422458},"geometry":{"x":171494.58000000007,"y":2541858.0800000019}},{"attributes":{"ID":422484,"DIS_CODE":0,"TOWNNAME":"東區","LI":"虎尾里","LIN":"4鄰","STREET":"東門路","SECT":"三段","MAREA":" ","LANE":"１７９巷","ALLEY":" ","HOUSE_NO":"１號","E_COORD97":171518.85999999999,"N_COORD97":2542019.0099999998,"ADDRESS":"東門路三段１７９巷１號","OBJECTID":422459},"geometry":{"x":171518.86000000127,"y":2542019.0099999998}},{"attributes":{"ID":422485,"DIS_CODE":0,"TOWNNAME":"東區","LI":"虎尾里","LIN":"4鄰","STREET":"東門路","SECT":"三段","MAREA":" ","LANE":"１７９巷","ALLEY":" ","HOUSE_NO":"３號","E_COORD97":171522.95999999999,"N_COORD97":2542019.1800000002,"ADDRESS":"東門路三段１７９巷３號","OBJECTID":422460},"geometry":{"x":171522.96000000089,"y":2542019.1800000034}},{"attributes":{"ID":422486,"DIS_CODE":0,"TOWNNAME":"東區","LI":"虎尾里","LIN":"4鄰","STREET":"東門路","SECT":"三段","MAREA":" ","LANE":"１７９巷","ALLEY":" ","HOUSE_NO":"１７號","E_COORD97":171555.57999999999,"N_COORD97":2542022.25,"ADDRESS":"東門路三段１７９巷１７號","OBJECTID":422461},"geometry":{"x":171555.58000000007,"y":2542022.2500000037}},{"attributes":{"ID":422487,"DIS_CODE":0,"TOWNNAME":"東區","LI":"虎尾里","LIN":"4鄰","STREET":"東門路","SECT":"三段","MAREA":" ","LANE":"１７９巷","ALLEY":" ","HOUSE_NO":"２５號","E_COORD97":171571.29999999999,"N_COORD97":2542023.6200000001,"ADDRESS":"東門路三段１７９巷２５號","OBJECTID":422462},"geometry":{"x":171571.30000000075,"y":2542023.620000001}},{"attributes":{"ID":422488,"DIS_CODE":0,"TOWNNAME":"東區","LI":"虎尾里","LIN":"4鄰","STREET":"東門路","SECT":"三段","MAREA":" ","LANE":"１７９巷","ALLEY":" ","HOUSE_NO":"２９號","E_COORD97":171579.5,"N_COORD97":2542024.1299999999,"ADDRESS":"東門路三段１７９巷２９號","OBJECTID":422463},"geometry":{"x":171579.5,"y":2542024.129999999}},{"attributes":{"ID":422489,"DIS_CODE":0,"TOWNNAME":"東區","LI":"虎尾里","LIN":"4鄰","STREET":"東門路","SECT":"三段","MAREA":" ","LANE":"１７９巷","ALLEY":" ","HOUSE_NO":"３１號","E_COORD97":171523.60000000001,"N_COORD97":2542033.8599999999,"ADDRESS":"東門路三段１７９巷３１號","OBJECTID":422464},"geometry":{"x":171523.60000000056,"y":2542033.8599999994}},{"attributes":{"ID":422490,"DIS_CODE":0,"TOWNNAME":"東區","LI":"虎尾里","LIN":"4鄰","STREET":"東門路","SECT":"三段","MAREA":" ","LANE":"１７９巷","ALLEY":" ","HOUSE_NO":"３３號","E_COORD97":171537.26999999999,"N_COORD97":2542034.1000000001,"ADDRESS":"東門路三段１７９巷３３號","OBJECTID":422465},"geometry":{"x":171537.27000000048,"y":2542034.1000000015}},{"attributes":{"ID":422491,"DIS_CODE":0,"TOWNNAME":"東區","LI":"虎尾里","LIN":"4鄰","STREET":"東門路","SECT":"三段","MAREA":" ","LANE":"１７９巷","ALLEY":" ","HOUSE_NO":"３５號","E_COORD97":171555.16,"N_COORD97":2542035.21,"ADDRESS":"東門路三段１７９巷３５號","OBJECTID":422466},"geometry":{"x":171555.15999999922,"y":2542035.2100000028}},{"attributes":{"ID":422492,"DIS_CODE":0,"TOWNNAME":"東區","LI":"虎尾里","LIN":"4鄰","STREET":"東門路","SECT":"三段","MAREA":" ","LANE":"１７９巷","ALLEY":" ","HOUSE_NO":"３７號","E_COORD97":171570.26000000001,"N_COORD97":2542036.8900000001,"ADDRESS":"東門路三段１７９巷３７號","OBJECTID":422467},"geometry":{"x":171570.26000000071,"y":2542036.8900000025}},{"attributes":{"ID":422493,"DIS_CODE":0,"TOWNNAME":"東區","LI":"虎尾里","LIN":"4鄰","STREET":"東門路","SECT":"三段","MAREA":" ","LANE":"１７９巷","ALLEY":" ","HOUSE_NO":"６３號","E_COORD97":171564.64000000001,"N_COORD97":2542055.7000000002,"ADDRESS":"東門路三段１７９巷６３號","OBJECTID":422468},"geometry":{"x":171564.63999999966,"y":2542055.700000003}},{"attributes":{"ID":422494,"DIS_CODE":0,"TOWNNAME":"東區","LI":"虎尾里","LIN":"4鄰","STREET":"東門路","SECT":"三段","MAREA":" ","LANE":"１７９巷","ALLEY":" ","HOUSE_NO":"７５號","E_COORD97":171589.23000000001,"N_COORD97":2542054.8399999999,"ADDRESS":"東門路三段１７９巷７５號","OBJECTID":422469},"geometry":{"x":171589.23000000138,"y":2542054.8399999999}},{"attributes":{"ID":422495,"DIS_CODE":0,"TOWNNAME":"東區","LI":"虎尾里","LIN":"4鄰","STREET":"東門路","SECT":"三段","MAREA":" ","LANE":"１７９巷","ALLEY":" ","HOUSE_NO":"７７號","E_COORD97":171589.92000000001,"N_COORD97":2542050.5800000001,"ADDRESS":"東門路三段１７９巷７７號","OBJECTID":422470},"geometry":{"x":171589.91999999993,"y":2542050.5800000038}},{"attributes":{"ID":422496,"DIS_CODE":0,"TOWNNAME":"東區","LI":"虎尾里","LIN":"4鄰","STREET":"東門路","SECT":"三段","MAREA":" ","LANE":"１７９巷","ALLEY":" ","HOUSE_NO":"８７號","E_COORD97":171591.97,"N_COORD97":2542030.6099999999,"ADDRESS":"東門路三段１７９巷８７號","OBJECTID":422471},"geometry":{"x":171591.97000000067,"y":2542030.6100000013}},{"attributes":{"ID":422497,"DIS_CODE":0,"TOWNNAME":"東區","LI":"虎尾里","LIN":"4鄰","STREET":"東門路","SECT":"三段","MAREA":" ","LANE":"１７９巷","ALLEY":" ","HOUSE_NO":"９３號","E_COORD97":171592.82000000001,"N_COORD97":2542019.0099999998,"ADDRESS":"東門路三段１７９巷９３號","OBJECTID":422472},"geometry":{"x":171592.8200000003,"y":2542019.0099999998}},{"attributes":{"ID":422498,"DIS_CODE":0,"TOWNNAME":"將軍區","LI":"長沙里","LIN":"6鄰","STREET":" ","SECT":" ","MAREA":"長沙","LANE":" ","ALLEY":" ","HOUSE_NO":"５０號","E_COORD97":157289.934546,"N_COORD97":2568592.1763300002,"ADDRESS":"長沙５０號","OBJECTID":422473},"geometry":{"x":157289.93454600032,"y":2568592.1763260011}},{"attributes":{"ID":422499,"DIS_CODE":0,"TOWNNAME":"東區","LI":"東光里","LIN":"23鄰","STREET":"東安路","SECT":" ","MAREA":" ","LANE":"１５６巷","ALLEY":" ","HOUSE_NO":"２８號","E_COORD97":170817.39999999999,"N_COORD97":2543871.1099999999,"ADDRESS":"東安路１５６巷２８號","OBJECTID":422474},"geometry":{"x":170817.40000000037,"y":2543871.1100000013}},{"attributes":{"ID":422500,"DIS_CODE":0,"TOWNNAME":"東區","LI":"東光里","LIN":"23鄰","STREET":"東安路","SECT":" ","MAREA":" ","LANE":"１５６巷","ALLEY":" ","HOUSE_NO":"３０號","E_COORD97":170822.10000000001,"N_COORD97":2543873.4100000001,"ADDRESS":"東安路１５６巷３０號","OBJECTID":422475},"geometry":{"x":170822.09999999963,"y":2543873.410000002}},{"attributes":{"ID":422501,"DIS_CODE":0,"TOWNNAME":"東區","LI":"東光里","LIN":"23鄰","STREET":"東安路","SECT":" ","MAREA":" ","LANE":"１５６巷","ALLEY":" ","HOUSE_NO":"３２號","E_COORD97":170826.48999999999,"N_COORD97":2543871.0099999998,"ADDRESS":"東安路１５６巷３２號","OBJECTID":422476},"geometry":{"x":170826.49000000115,"y":2543871.0099999998}},{"attributes":{"ID":422502,"DIS_CODE":0,"TOWNNAME":"東區","LI":"東光里","LIN":"23鄰","STREET":"東安路","SECT":" ","MAREA":" ","LANE":"１５６巷","ALLEY":" ","HOUSE_NO":"３４號","E_COORD97":170830.87,"N_COORD97":2543869.1699999999,"ADDRESS":"東安路１５６巷３４號","OBJECTID":422477},"geometry":{"x":170830.87000000011,"y":2543869.1699999999}},{"attributes":{"ID":422503,"DIS_CODE":0,"TOWNNAME":"東區","LI":"東光里","LIN":"23鄰","STREET":"東安路","SECT":" ","MAREA":" ","LANE":"１５６巷","ALLEY":" ","HOUSE_NO":"３６號","E_COORD97":170835.26000000001,"N_COORD97":2543870.6600000001,"ADDRESS":"東安路１５６巷３６號","OBJECTID":422478},"geometry":{"x":170835.25999999978,"y":2543870.6600000039}},{"attributes":{"ID":422504,"DIS_CODE":0,"TOWNNAME":"東區","LI":"東光里","LIN":"23鄰","STREET":"東安路","SECT":" ","MAREA":" ","LANE":"１５６巷","ALLEY":" ","HOUSE_NO":"３８號","E_COORD97":170838.89999999999,"N_COORD97":2543868.7000000002,"ADDRESS":"東安路１５６巷３８號","OBJECTID":422479},"geometry":{"x":170838.9000000013,"y":2543868.6999999993}},{"attributes":{"ID":422505,"DIS_CODE":0,"TOWNNAME":"東區","LI":"東光里","LIN":"23鄰","STREET":"東安路","SECT":" ","MAREA":" ","LANE":"１５６巷","ALLEY":" ","HOUSE_NO":"４０號","E_COORD97":170844.01999999999,"N_COORD97":2543869.71,"ADDRESS":"東安路１５６巷４０號","OBJECTID":422480},"geometry":{"x":170844.02000000048,"y":2543869.7100000009}},{"attributes":{"ID":422506,"DIS_CODE":0,"TOWNNAME":"東區","LI":"東光里","LIN":"23鄰","STREET":"東安路","SECT":" ","MAREA":" ","LANE":"１５６巷","ALLEY":" ","HOUSE_NO":"４２號","E_COORD97":170847.19,"N_COORD97":2543867.3500000001,"ADDRESS":"東安路１５６巷４２號","OBJECTID":422481},"geometry":{"x":170847.19000000134,"y":2543867.3499999996}},{"attributes":{"ID":422507,"DIS_CODE":0,"TOWNNAME":"永康區","LI":"\u25A0行里","LIN":"18鄰","STREET":"中正路","SECT":" ","MAREA":" ","LANE":"６３５巷","ALLEY":" ","HOUSE_NO":"３８號","E_COORD97":171646.54999999999,"N_COORD97":2548815.5,"ADDRESS":"中正路６３５巷３８號","OBJECTID":422482},"geometry":{"x":171646.54999999981,"y":2548815.5000000019}},{"attributes":{"ID":422508,"DIS_CODE":0,"TOWNNAME":"永康區","LI":"\u25A0行里","LIN":"20鄰","STREET":"正南五街","SECT":" ","MAREA":" ","LANE":"２８９巷","ALLEY":" ","HOUSE_NO":"７２號","E_COORD97":171786.23000000001,"N_COORD97":2548315.6099999999,"ADDRESS":"正南五街２８９巷７２號","OBJECTID":422483},"geometry":{"x":171786.23000000138,"y":2548315.6100000013}},{"attributes":{"ID":422509,"DIS_CODE":0,"TOWNNAME":"永康區","LI":"\u25A0行里","LIN":"26鄰","STREET":"中正南路","SECT":" ","MAREA":" ","LANE":"４０４巷","ALLEY":" ","HOUSE_NO":"４號","E_COORD97":171072.92000000001,"N_COORD97":2548271.75,"ADDRESS":"中正南路４０４巷４號","OBJECTID":422484},"geometry":{"x":171072.91999999993,"y":2548271.7500000019}},{"attributes":{"ID":422510,"DIS_CODE":0,"TOWNNAME":"永康區","LI":"龍潭里","LIN":"39鄰","STREET":"永明街","SECT":" ","MAREA":" ","LANE":"２１５巷","ALLEY":" ","HOUSE_NO":"４６號","E_COORD97":174531.54000000001,"N_COORD97":2547288.71,"ADDRESS":"永明街２１５巷４６號","OBJECTID":422485},"geometry":{"x":174531.54000000097,"y":2547288.7100000046}},{"attributes":{"ID":422511,"DIS_CODE":0,"TOWNNAME":"永康區","LI":"\u25A0行里","LIN":"42鄰","STREET":"永安二街","SECT":" ","MAREA":" ","LANE":"２５巷","ALLEY":" ","HOUSE_NO":"６５號","E_COORD97":172478.51000000001,"N_COORD97":2549524.0699999998,"ADDRESS":"永安二街２５巷６５號","OBJECTID":422486},"geometry":{"x":172478.51000000071,"y":2549524.0700000022}},{"attributes":{"ID":422512,"DIS_CODE":0,"TOWNNAME":"永康區","LI":"蔦松里","LIN":"4鄰","STREET":"蔦松二街","SECT":" ","MAREA":" ","LANE":"１６２巷","ALLEY":" ","HOUSE_NO":"２１號之２","E_COORD97":173927.64999999999,"N_COORD97":2549374.04,"ADDRESS":"蔦松二街１６２巷２１號之２","OBJECTID":422487},"geometry":{"x":173927.6500000013,"y":2549374.040000001}},{"attributes":{"ID":422513,"DIS_CODE":0,"TOWNNAME":"永康區","LI":"龍潭里","LIN":"38鄰","STREET":"國民路","SECT":" ","MAREA":" ","LANE":"７１巷","ALLEY":" ","HOUSE_NO":"２號","E_COORD97":174366.20999999999,"N_COORD97":2547337.6099999999,"ADDRESS":"國民路７１巷２號","OBJECTID":422488},"geometry":{"x":174366.21000000089,"y":2547337.6099999994}},{"attributes":{"ID":422514,"DIS_CODE":0,"TOWNNAME":"永康區","LI":"\u25A0行里","LIN":"26鄰","STREET":"中正南路","SECT":" ","MAREA":" ","LANE":"４０４巷","ALLEY":" ","HOUSE_NO":"１４號","E_COORD97":171104.95999999999,"N_COORD97":2548258.6800000002,"ADDRESS":"中正南路４０４巷１４號","OBJECTID":422489},"geometry":{"x":171104.95999999996,"y":2548258.6800000016}},{"attributes":{"ID":422515,"DIS_CODE":0,"TOWNNAME":"永康區","LI":"龍潭里","LIN":"26鄰","STREET":"龍昌街","SECT":" ","MAREA":" ","LANE":"６６巷","ALLEY":" ","HOUSE_NO":"３４號","E_COORD97":175104.04000000001,"N_COORD97":2547904.4399999999,"ADDRESS":"龍昌街６６巷３４號","OBJECTID":422490},"geometry":{"x":175104.0400000019,"y":2547904.4399999995}},{"attributes":{"ID":422516,"DIS_CODE":0,"TOWNNAME":"永康區","LI":"網寮里","LIN":"5鄰","STREET":"永勝街","SECT":" ","MAREA":" ","LANE":"１０６巷","ALLEY":" ","HOUSE_NO":"２３號","E_COORD97":173597.26000000001,"N_COORD97":2546361.4199999999,"ADDRESS":"永勝街１０６巷２３號","OBJECTID":422491},"geometry":{"x":173597.26000000071,"y":2546361.4200000018}},{"attributes":{"ID":422517,"DIS_CODE":0,"TOWNNAME":"永康區","LI":"網寮里","LIN":"25鄰","STREET":"永春街","SECT":" ","MAREA":" ","LANE":"１０８巷","ALLEY":" ","HOUSE_NO":"２７號","E_COORD97":173817.95000000001,"N_COORD97":2546595.0099999998,"ADDRESS":"永春街１０８巷２７號","OBJECTID":422492},"geometry":{"x":173817.95000000019,"y":2546595.0100000016}},{"attributes":{"ID":422518,"DIS_CODE":0,"TOWNNAME":"永康區","LI":"復華里","LIN":"32鄰","STREET":"復華十街","SECT":" ","MAREA":" ","LANE":"４５巷","ALLEY":" ","HOUSE_NO":"２１號","E_COORD97":172575.23999999999,"N_COORD97":2546373.3300000001,"ADDRESS":"復華十街４５巷２１號","OBJECTID":422493},"geometry":{"x":172575.23999999929,"y":2546373.3300000001}},{"attributes":{"ID":422519,"DIS_CODE":0,"TOWNNAME":"永康區","LI":"復興里","LIN":"4鄰","STREET":"復興路","SECT":" ","MAREA":" ","LANE":"４２３巷","ALLEY":" ","HOUSE_NO":"９４號","E_COORD97":172224.14999999999,"N_COORD97":2543986.77,"ADDRESS":"復興路４２３巷９４號","OBJECTID":422494},"geometry":{"x":172224.1500000013,"y":2543986.7699999996}},{"attributes":{"ID":422520,"DIS_CODE":0,"TOWNNAME":"永康區","LI":"復興里","LIN":"4鄰","STREET":"復興路","SECT":" ","MAREA":" ","LANE":"４２３巷","ALLEY":" ","HOUSE_NO":"１００號","E_COORD97":172227.60000000001,"N_COORD97":2543964.7200000002,"ADDRESS":"復興路４２３巷１００號","OBJECTID":422495},"geometry":{"x":172227.59999999963,"y":2543964.7200000007}},{"attributes":{"ID":422521,"DIS_CODE":0,"TOWNNAME":"永康區","LI":"復興里","LIN":"25鄰","STREET":"復興路","SECT":" ","MAREA":" ","LANE":"４２３巷","ALLEY":" ","HOUSE_NO":"８０號","E_COORD97":172226.54000000001,"N_COORD97":2544039.7799999998,"ADDRESS":"復興路４２３巷８０號","OBJECTID":422496},"geometry":{"x":172226.54000000004,"y":2544039.7800000012}},{"attributes":{"ID":422522,"DIS_CODE":0,"TOWNNAME":"中西區","LI":"永福里","LIN":"6鄰","STREET":"中正路","SECT":" ","MAREA":" ","LANE":"５３巷","ALLEY":" ","HOUSE_NO":"２號","E_COORD97":168160.98000000001,"N_COORD97":2543579.71,"ADDRESS":"中正路５３巷２號","OBJECTID":422497},"geometry":{"x":168160.98000000045,"y":2543579.7100000046}},{"attributes":{"ID":422523,"DIS_CODE":0,"TOWNNAME":"中西區","LI":"永福里","LIN":"6鄰","STREET":"永福路","SECT":"二段","MAREA":" ","LANE":"５４巷","ALLEY":" ","HOUSE_NO":"１１號","E_COORD97":168104.75,"N_COORD97":2543601.3300000001,"ADDRESS":"永福路二段５４巷１１號","OBJECTID":422498},"geometry":{"x":168104.75000000186,"y":2543601.3300000001}},{"attributes":{"ID":422524,"DIS_CODE":0,"TOWNNAME":"中西區","LI":"永福里","LIN":"6鄰","STREET":"永福路","SECT":"二段","MAREA":" ","LANE":"５４巷","ALLEY":" ","HOUSE_NO":"１３號","E_COORD97":168113.17000000001,"N_COORD97":2543602.77,"ADDRESS":"永福路二段５４巷１３號","OBJECTID":422499},"geometry":{"x":168113.16999999993,"y":2543602.7700000014}},{"attributes":{"ID":422525,"DIS_CODE":0,"TOWNNAME":"中西區","LI":"永福里","LIN":"6鄰","STREET":"永福路","SECT":"二段","MAREA":" ","LANE":"５４巷","ALLEY":" ","HOUSE_NO":"１５號","E_COORD97":168127.13,"N_COORD97":2543597.7599999998,"ADDRESS":"永福路二段５４巷１５號","OBJECTID":422500},"geometry":{"x":168127.12999999989,"y":2543597.7599999998}},{"attributes":{"ID":422526,"DIS_CODE":0,"TOWNNAME":"中西區","LI":"永福里","LIN":"6鄰","STREET":"永福路","SECT":"二段","MAREA":" ","LANE":"５４巷","ALLEY":" ","HOUSE_NO":"１７號","E_COORD97":168123.66,"N_COORD97":2543592.2200000002,"ADDRESS":"永福路二段５４巷１７號","OBJECTID":422501},"geometry":{"x":168123.66000000015,"y":2543592.2200000007}},{"attributes":{"ID":422527,"DIS_CODE":0,"TOWNNAME":"中西區","LI":"永福里","LIN":"6鄰","STREET":"永福路","SECT":"二段","MAREA":" ","LANE":"５４巷","ALLEY":" ","HOUSE_NO":"１９號","E_COORD97":168111.64999999999,"N_COORD97":2543594.8100000001,"ADDRESS":"永福路二段５４巷１９號","OBJECTID":422502},"geometry":{"x":168111.6500000013,"y":2543594.8100000005}},{"attributes":{"ID":422528,"DIS_CODE":0,"TOWNNAME":"中西區","LI":"永福里","LIN":"6鄰","STREET":"永福路","SECT":"二段","MAREA":" ","LANE":"５４巷","ALLEY":" ","HOUSE_NO":"１號","E_COORD97":168086.54000000001,"N_COORD97":2543597.7599999998,"ADDRESS":"永福路二段５４巷１號","OBJECTID":422503},"geometry":{"x":168086.54000000097,"y":2543597.7599999998}},{"attributes":{"ID":422529,"DIS_CODE":0,"TOWNNAME":"中西區","LI":"永福里","LIN":"6鄰","STREET":"永福路","SECT":"二段","MAREA":" ","LANE":"５４巷","ALLEY":" ","HOUSE_NO":"２１號","E_COORD97":168110.81,"N_COORD97":2543584.1800000002,"ADDRESS":"永福路二段５４巷２１號","OBJECTID":422504},"geometry":{"x":168110.81000000145,"y":2543584.1799999997}},{"attributes":{"ID":422530,"DIS_CODE":0,"TOWNNAME":"中西區","LI":"永福里","LIN":"6鄰","STREET":"永福路","SECT":"二段","MAREA":" ","LANE":"５４巷","ALLEY":" ","HOUSE_NO":"２３號","E_COORD97":168116.48000000001,"N_COORD97":2543582.5499999998,"ADDRESS":"永福路二段５４巷２３號","OBJECTID":422505},"geometry":{"x":168116.48000000045,"y":2543582.5500000007}},{"attributes":{"ID":422531,"DIS_CODE":0,"TOWNNAME":"中西區","LI":"永福里","LIN":"6鄰","STREET":"永福路","SECT":"二段","MAREA":" ","LANE":"５４巷","ALLEY":" ","HOUSE_NO":"２５號","E_COORD97":168120.19,"N_COORD97":2543579.8500000001,"ADDRESS":"永福路二段５４巷２５號","OBJECTID":422506},"geometry":{"x":168120.19000000041,"y":2543579.8499999996}},{"attributes":{"ID":422532,"DIS_CODE":0,"TOWNNAME":"中西區","LI":"永福里","LIN":"6鄰","STREET":"永福路","SECT":"二段","MAREA":" ","LANE":"５４巷","ALLEY":" ","HOUSE_NO":"２７號","E_COORD97":168123.57000000001,"N_COORD97":2543578.8700000001,"ADDRESS":"永福路二段５４巷２７號","OBJECTID":422507},"geometry":{"x":168123.57000000123,"y":2543578.8700000048}},{"attributes":{"ID":422533,"DIS_CODE":0,"TOWNNAME":"中西區","LI":"永福里","LIN":"4鄰","STREET":"中正路","SECT":" ","MAREA":" ","LANE":"３９巷","ALLEY":" ","HOUSE_NO":"１０號","E_COORD97":168202.98000000001,"N_COORD97":2543538.1600000001,"ADDRESS":"中正路３９巷１０號","OBJECTID":422508},"geometry":{"x":168202.98000000045,"y":2543538.1600000001}},{"attributes":{"ID":422534,"DIS_CODE":0,"TOWNNAME":"中西區","LI":"永福里","LIN":"4鄰","STREET":"中正路","SECT":" ","MAREA":" ","LANE":"３９巷","ALLEY":" ","HOUSE_NO":"１２號","E_COORD97":168201.14999999999,"N_COORD97":2543530.4900000002,"ADDRESS":"中正路３９巷１２號","OBJECTID":422509},"geometry":{"x":168201.1500000013,"y":2543530.4900000021}},{"attributes":{"ID":422535,"DIS_CODE":0,"TOWNNAME":"中西區","LI":"永福里","LIN":"4鄰","STREET":"中正路","SECT":" ","MAREA":" ","LANE":"３９巷","ALLEY":" ","HOUSE_NO":"１４號","E_COORD97":168197.12,"N_COORD97":2543521.54,"ADDRESS":"中正路３９巷１４號","OBJECTID":422510},"geometry":{"x":168197.12000000011,"y":2543521.540000001}},{"attributes":{"ID":422536,"DIS_CODE":0,"TOWNNAME":"中西區","LI":"永福里","LIN":"4鄰","STREET":"中正路","SECT":" ","MAREA":" ","LANE":"３９巷","ALLEY":" ","HOUSE_NO":"１６號","E_COORD97":168195.84,"N_COORD97":2543517.1499999999,"ADDRESS":"中正路３９巷１６號","OBJECTID":422511},"geometry":{"x":168195.84000000078,"y":2543517.1500000004}},{"attributes":{"ID":422537,"DIS_CODE":0,"TOWNNAME":"中西區","LI":"永福里","LIN":"4鄰","STREET":"中正路","SECT":" ","MAREA":" ","LANE":"３９巷","ALLEY":" ","HOUSE_NO":"６號","E_COORD97":168192.92000000001,"N_COORD97":2543579.5499999998,"ADDRESS":"中正路３９巷６號","OBJECTID":422512},"geometry":{"x":168192.91999999993,"y":2543579.5500000007}},{"attributes":{"ID":422538,"DIS_CODE":0,"TOWNNAME":"中西區","LI":"永福里","LIN":"4鄰","STREET":"中正路","SECT":" ","MAREA":" ","LANE":"３９巷","ALLEY":" ","HOUSE_NO":"８號","E_COORD97":168186.70000000001,"N_COORD97":2543573.7000000002,"ADDRESS":"中正路３９巷８號","OBJECTID":422513},"geometry":{"x":168186.70000000205,"y":2543573.6999999993}},{"attributes":{"ID":422539,"DIS_CODE":0,"TOWNNAME":"中西區","LI":"永福里","LIN":"4鄰","STREET":"中正路","SECT":" ","MAREA":" ","LANE":"５３巷","ALLEY":" ","HOUSE_NO":"１１號","E_COORD97":168176.45999999999,"N_COORD97":2543551.0499999998,"ADDRESS":"中正路５３巷１１號","OBJECTID":422514},"geometry":{"x":168176.46000000089,"y":2543551.0500000026}},{"attributes":{"ID":422540,"DIS_CODE":0,"TOWNNAME":"中西區","LI":"永福里","LIN":"4鄰","STREET":"中正路","SECT":" ","MAREA":" ","LANE":"５３巷","ALLEY":" ","HOUSE_NO":"１２號","E_COORD97":168165.47,"N_COORD97":2543544.3999999999,"ADDRESS":"中正路５３巷１２號","OBJECTID":422515},"geometry":{"x":168165.46999999974,"y":2543544.4000000022}},{"attributes":{"ID":422541,"DIS_CODE":0,"TOWNNAME":"中西區","LI":"永福里","LIN":"4鄰","STREET":"中正路","SECT":" ","MAREA":" ","LANE":"５３巷","ALLEY":" ","HOUSE_NO":"１３號","E_COORD97":168179.57000000001,"N_COORD97":2543550.3199999998,"ADDRESS":"中正路５３巷１３號","OBJECTID":422516},"geometry":{"x":168179.57000000123,"y":2543550.3200000003}},{"attributes":{"ID":422542,"DIS_CODE":0,"TOWNNAME":"中西區","LI":"永福里","LIN":"4鄰","STREET":"中正路","SECT":" ","MAREA":" ","LANE":"５３巷","ALLEY":" ","HOUSE_NO":"１４號","E_COORD97":168169.48999999999,"N_COORD97":2543543.6699999999,"ADDRESS":"中正路５３巷１４號","OBJECTID":422517},"geometry":{"x":168169.49000000209,"y":2543543.6699999999}},{"attributes":{"ID":422543,"DIS_CODE":0,"TOWNNAME":"中西區","LI":"天后里","LIN":"4鄰","STREET":"永福路","SECT":"二段","MAREA":" ","LANE":"１９７巷","ALLEY":" ","HOUSE_NO":"１０號","E_COORD97":168108.03,"N_COORD97":2544069.3999999999,"ADDRESS":"永福路二段１９７巷１０號","OBJECTID":422518},"geometry":{"x":168108.03000000026,"y":2544069.4000000041}},{"attributes":{"ID":422544,"DIS_CODE":0,"TOWNNAME":"中西區","LI":"天后里","LIN":"4鄰","STREET":"永福路","SECT":"二段","MAREA":" ","LANE":"１９７巷","ALLEY":" ","HOUSE_NO":"１１號","E_COORD97":168100.06,"N_COORD97":2544073.9500000002,"ADDRESS":"永福路二段１９７巷１１號","OBJECTID":422519},"geometry":{"x":168100.05999999959,"y":2544073.9499999993}},{"attributes":{"ID":422545,"DIS_CODE":0,"TOWNNAME":"中西區","LI":"天后里","LIN":"4鄰","STREET":"永福路","SECT":"二段","MAREA":" ","LANE":"１９７巷","ALLEY":" ","HOUSE_NO":"１２號","E_COORD97":168094.75,"N_COORD97":2544075.8500000001,"ADDRESS":"永福路二段１９７巷１２號","OBJECTID":422520},"geometry":{"x":168094.75000000186,"y":2544075.8500000034}},{"attributes":{"ID":422546,"DIS_CODE":0,"TOWNNAME":"中西區","LI":"天后里","LIN":"4鄰","STREET":"永福路","SECT":"二段","MAREA":" ","LANE":"１９７巷","ALLEY":" ","HOUSE_NO":"１３號","E_COORD97":168090.82999999999,"N_COORD97":2544077.3599999999,"ADDRESS":"永福路二段１９７巷１３號","OBJECTID":422521},"geometry":{"x":168090.83000000194,"y":2544077.3599999994}},{"attributes":{"ID":422547,"DIS_CODE":0,"TOWNNAME":"中西區","LI":"天后里","LIN":"4鄰","STREET":"永福路","SECT":"二段","MAREA":" ","LANE":"１９７巷","ALLEY":" ","HOUSE_NO":"１４號","E_COORD97":168087.04000000001,"N_COORD97":2544080.27,"ADDRESS":"永福路二段１９７巷１４號","OBJECTID":422522},"geometry":{"x":168087.04000000004,"y":2544080.2700000014}},{"attributes":{"ID":422548,"DIS_CODE":0,"TOWNNAME":"中西區","LI":"天后里","LIN":"4鄰","STREET":"永福路","SECT":"二段","MAREA":" ","LANE":"１９７巷","ALLEY":" ","HOUSE_NO":"１５號","E_COORD97":168082.45000000001,"N_COORD97":2544082.29,"ADDRESS":"永福路二段１９７巷１５號","OBJECTID":422523},"geometry":{"x":168082.45000000112,"y":2544082.2900000028}},{"attributes":{"ID":422549,"DIS_CODE":0,"TOWNNAME":"中西區","LI":"天后里","LIN":"4鄰","STREET":"永福路","SECT":"二段","MAREA":" ","LANE":"１９７巷","ALLEY":" ","HOUSE_NO":"１６號","E_COORD97":168079.41,"N_COORD97":2544083.2999999998,"ADDRESS":"永福路二段１９７巷１６號","OBJECTID":422524},"geometry":{"x":168079.41000000015,"y":2544083.3000000007}},{"attributes":{"ID":422550,"DIS_CODE":0,"TOWNNAME":"中西區","LI":"法華里","LIN":"20鄰","STREET":"健康路","SECT":"一段","MAREA":" ","LANE":"１６０巷","ALLEY":" ","HOUSE_NO":"１６號","E_COORD97":168752.66,"N_COORD97":2542496.9100000001,"ADDRESS":"健康路一段１６０巷１６號","OBJECTID":422525},"geometry":{"x":168752.66000000015,"y":2542496.910000002}},{"attributes":{"ID":422551,"DIS_CODE":0,"TOWNNAME":"中西區","LI":"法華里","LIN":"20鄰","STREET":"健康路","SECT":"一段","MAREA":" ","LANE":"１６０巷","ALLEY":" ","HOUSE_NO":"１７號","E_COORD97":168736.35000000001,"N_COORD97":2542525.4300000002,"ADDRESS":"健康路一段１６０巷１７號","OBJECTID":422526},"geometry":{"x":168736.35000000056,"y":2542525.4299999997}},{"attributes":{"ID":422552,"DIS_CODE":0,"TOWNNAME":"中西區","LI":"法華里","LIN":"20鄰","STREET":"健康路","SECT":"一段","MAREA":" ","LANE":"１６０巷","ALLEY":" ","HOUSE_NO":"１８號","E_COORD97":168754.35000000001,"N_COORD97":2542509.2999999998,"ADDRESS":"健康路一段１６０巷１８號","OBJECTID":422527},"geometry":{"x":168754.34999999963,"y":2542509.3000000007}},{"attributes":{"ID":422553,"DIS_CODE":0,"TOWNNAME":"安南區","LI":"安順里","LIN":" ","STREET":"安和路","SECT":"四段","MAREA":" ","LANE":"１０６巷","ALLEY":" ","HOUSE_NO":"２２號之１","E_COORD97":170034.23999999999,"N_COORD97":2550307.4199999999,"ADDRESS":"安和路四段１０６巷２２號之１","OBJECTID":422528},"geometry":{"x":170034.24000000209,"y":2550307.4200000018}},{"attributes":{"ID":422554,"DIS_CODE":0,"TOWNNAME":"安南區","LI":"安順里","LIN":" ","STREET":"安和路","SECT":"四段","MAREA":" ","LANE":"１０６巷","ALLEY":" ","HOUSE_NO":"５３號之１","E_COORD97":170163.63,"N_COORD97":2550346.2200000002,"ADDRESS":"安和路四段１０６巷５３號之１","OBJECTID":422529},"geometry":{"x":170163.63000000082,"y":2550346.2200000007}},{"attributes":{"ID":422555,"DIS_CODE":0,"TOWNNAME":"安南區","LI":"安順里","LIN":" ","STREET":"安和路","SECT":"四段","MAREA":" ","LANE":"１０６巷","ALLEY":" ","HOUSE_NO":"５３號之８","E_COORD97":170223.88,"N_COORD97":2550344.5099999998,"ADDRESS":"安和路四段１０６巷５３號之８","OBJECTID":422530},"geometry":{"x":170223.87999999989,"y":2550344.5100000016}},{"attributes":{"ID":422556,"DIS_CODE":0,"TOWNNAME":"安南區","LI":"安順里","LIN":"4鄰","STREET":"總安街","SECT":"一段","MAREA":" ","LANE":"９０巷","ALLEY":" ","HOUSE_NO":"１１號","E_COORD97":169729.5,"N_COORD97":2550171.6800000002,"ADDRESS":"總安街一段９０巷１１號","OBJECTID":422531},"geometry":{"x":169729.50000000093,"y":2550171.6799999997}},{"attributes":{"ID":422557,"DIS_CODE":0,"TOWNNAME":"安南區","LI":"安順里","LIN":"1鄰","STREET":"安和路","SECT":"四段","MAREA":" ","LANE":"２５巷","ALLEY":" ","HOUSE_NO":"５號","E_COORD97":169919.44,"N_COORD97":2550139.71,"ADDRESS":"安和路四段２５巷５號","OBJECTID":422532},"geometry":{"x":169919.44000000227,"y":2550139.7100000009}},{"attributes":{"ID":422558,"DIS_CODE":0,"TOWNNAME":"安南區","LI":"安順里","LIN":"9鄰","STREET":"安和路","SECT":"四段","MAREA":" ","LANE":"１０１巷","ALLEY":" ","HOUSE_NO":"９號","E_COORD97":169887.28,"N_COORD97":2550344.25,"ADDRESS":"安和路四段１０１巷９號","OBJECTID":422533},"geometry":{"x":169887.28000000119,"y":2550344.25}},{"attributes":{"ID":422559,"DIS_CODE":0,"TOWNNAME":"安南區","LI":"安慶里","LIN":" ","STREET":"長溪路","SECT":"一段","MAREA":" ","LANE":"１６８巷","ALLEY":" ","HOUSE_NO":"１２１號","E_COORD97":169057.62,"N_COORD97":2548829.96,"ADDRESS":"長溪路一段１６８巷１２１號","OBJECTID":422534},"geometry":{"x":169057.62000000104,"y":2548829.9600000028}},{"attributes":{"ID":422560,"DIS_CODE":0,"TOWNNAME":"安南區","LI":"幸福里","LIN":"17鄰","STREET":"府安路","SECT":"六段","MAREA":" ","LANE":"２７巷","ALLEY":" ","HOUSE_NO":"３９號","E_COORD97":167011.42000000001,"N_COORD97":2546801,"ADDRESS":"府安路六段２７巷３９號","OBJECTID":422535},"geometry":{"x":167011.41999999993,"y":2546801.0000000037}},{"attributes":{"ID":422561,"DIS_CODE":0,"TOWNNAME":"安南區","LI":"幸福里","LIN":"7鄰","STREET":"國安街","SECT":" ","MAREA":" ","LANE":"１５５巷","ALLEY":" ","HOUSE_NO":"３４號","E_COORD97":166746.79000000001,"N_COORD97":2546867.0600000001,"ADDRESS":"國安街１５５巷３４號","OBJECTID":422536},"geometry":{"x":166746.7900000019,"y":2546867.0600000024}},{"attributes":{"ID":422562,"DIS_CODE":0,"TOWNNAME":"安南區","LI":"幸福里","LIN":"7鄰","STREET":"國安街","SECT":" ","MAREA":" ","LANE":"１７３巷","ALLEY":" ","HOUSE_NO":"６號","E_COORD97":166701.54999999999,"N_COORD97":2546922.25,"ADDRESS":"國安街１７３巷６號","OBJECTID":422537},"geometry":{"x":166701.54999999981,"y":2546922.2500000019}},{"attributes":{"ID":422563,"DIS_CODE":0,"TOWNNAME":"安南區","LI":"幸福里","LIN":" ","STREET":"府安路","SECT":"六段","MAREA":" ","LANE":"２７巷","ALLEY":" ","HOUSE_NO":"５１號","E_COORD97":167006.79000000001,"N_COORD97":2546829.3799999999,"ADDRESS":"府安路六段２７巷５１號","OBJECTID":422538},"geometry":{"x":167006.79000000097,"y":2546829.3800000008}},{"attributes":{"ID":422564,"DIS_CODE":0,"TOWNNAME":"安南區","LI":"幸福里","LIN":" ","STREET":"府安路","SECT":"六段","MAREA":" ","LANE":"４５巷","ALLEY":" ","HOUSE_NO":"１４號","E_COORD97":166968.82000000001,"N_COORD97":2546698.8199999998,"ADDRESS":"府安路六段４５巷１４號","OBJECTID":422539},"geometry":{"x":166968.82000000216,"y":2546698.8200000022}},{"attributes":{"ID":422565,"DIS_CODE":0,"TOWNNAME":"安南區","LI":"幸福里","LIN":" ","STREET":"府安路","SECT":"六段","MAREA":" ","LANE":"４５巷","ALLEY":" ","HOUSE_NO":"２８號","E_COORD97":166962.20000000001,"N_COORD97":2546736.8999999999,"ADDRESS":"府安路六段４５巷２８號","OBJECTID":422540},"geometry":{"x":166962.20000000019,"y":2546736.9000000004}},{"attributes":{"ID":422566,"DIS_CODE":0,"TOWNNAME":"安南區","LI":"幸福里","LIN":" ","STREET":"府安路","SECT":"六段","MAREA":" ","LANE":"４５巷","ALLEY":" ","HOUSE_NO":"４２號","E_COORD97":166954.67000000001,"N_COORD97":2546771.8900000001,"ADDRESS":"府安路六段４５巷４２號","OBJECTID":422541},"geometry":{"x":166954.67000000086,"y":2546771.8900000043}},{"attributes":{"ID":422567,"DIS_CODE":0,"TOWNNAME":"安南區","LI":"幸福里","LIN":" ","STREET":"府安路","SECT":"六段","MAREA":" ","LANE":"１０３巷","ALLEY":" ","HOUSE_NO":"５０號","E_COORD97":166710.39999999999,"N_COORD97":2546623.5099999998,"ADDRESS":"府安路六段１０３巷５０號","OBJECTID":422542},"geometry":{"x":166710.40000000037,"y":2546623.5099999998}},{"attributes":{"ID":422568,"DIS_CODE":0,"TOWNNAME":"安南區","LI":"布袋里","LIN":"5鄰","STREET":"長溪路","SECT":"三段","MAREA":" ","LANE":"４０巷","ALLEY":" ","HOUSE_NO":"１３號","E_COORD97":168122.91,"N_COORD97":2551168.5,"ADDRESS":"長溪路三段４０巷１３號","OBJECTID":422543},"geometry":{"x":168122.91000000108,"y":2551168.5000000019}},{"attributes":{"ID":422569,"DIS_CODE":0,"TOWNNAME":"安南區","LI":"長安里","LIN":"13鄰","STREET":"長溪路","SECT":"三段","MAREA":" ","LANE":"３８０巷","ALLEY":" ","HOUSE_NO":"７１號","E_COORD97":167896.23000000001,"N_COORD97":2552124.9100000001,"ADDRESS":"長溪路三段３８０巷７１號","OBJECTID":422544},"geometry":{"x":167896.23000000045,"y":2552124.910000002}},{"attributes":{"ID":422570,"DIS_CODE":0,"TOWNNAME":"安南區","LI":"南興里","LIN":" ","STREET":"公學路","SECT":"五段","MAREA":" ","LANE":"６９７巷","ALLEY":" ","HOUSE_NO":"８６號","E_COORD97":163822.85999999999,"N_COORD97":2552604.79,"ADDRESS":"公學路五段６９７巷８６號","OBJECTID":422545},"geometry":{"x":163822.86000000127,"y":2552604.7899999991}},{"attributes":{"ID":422571,"DIS_CODE":0,"TOWNNAME":"安南區","LI":"南興里","LIN":" ","STREET":"公學路","SECT":"五段","MAREA":" ","LANE":"６９７巷","ALLEY":" ","HOUSE_NO":"８７號","E_COORD97":163773.66,"N_COORD97":2552574.9199999999,"ADDRESS":"公學路五段６９７巷８７號","OBJECTID":422546},"geometry":{"x":163773.66000000015,"y":2552574.9199999999}},{"attributes":{"ID":422572,"DIS_CODE":0,"TOWNNAME":"安南區","LI":"南興里","LIN":" ","STREET":"安興街","SECT":" ","MAREA":" ","LANE":"６３２巷","ALLEY":" ","HOUSE_NO":"６９號","E_COORD97":163697.95000000001,"N_COORD97":2552489.8300000001,"ADDRESS":"安興街６３２巷６９號","OBJECTID":422547},"geometry":{"x":163697.95000000205,"y":2552489.8300000001}},{"attributes":{"ID":422573,"DIS_CODE":0,"TOWNNAME":"安南區","LI":"東和里","LIN":"3鄰","STREET":"長和路","SECT":"一段","MAREA":" ","LANE":"９４１巷","ALLEY":" ","HOUSE_NO":"８號","E_COORD97":170589.54999999999,"N_COORD97":2551539.8599999999,"ADDRESS":"長和路一段９４１巷８號","OBJECTID":422548},"geometry":{"x":170589.55000000168,"y":2551539.8599999994}},{"attributes":{"ID":422574,"DIS_CODE":0,"TOWNNAME":"安南區","LI":"東和里","LIN":"3鄰","STREET":"長和路","SECT":"一段","MAREA":" ","LANE":"８７１巷","ALLEY":" ","HOUSE_NO":"４０號","E_COORD97":170694.88,"N_COORD97":2551481.71,"ADDRESS":"長和路一段８７１巷４０號","OBJECTID":422549},"geometry":{"x":170694.88000000082,"y":2551481.7100000009}},{"attributes":{"ID":422575,"DIS_CODE":0,"TOWNNAME":"安南區","LI":"東和里","LIN":"3鄰","STREET":"長和路","SECT":"一段","MAREA":" ","LANE":"８７１巷","ALLEY":" ","HOUSE_NO":"３８號","E_COORD97":170696.79999999999,"N_COORD97":2551477.8700000001,"ADDRESS":"長和路一段８７１巷３８號","OBJECTID":422550},"geometry":{"x":170696.80000000075,"y":2551477.870000001}},{"attributes":{"ID":422576,"DIS_CODE":0,"TOWNNAME":"安南區","LI":"州南里","LIN":"9鄰","STREET":"長和路","SECT":"三段","MAREA":" ","LANE":"１８巷","ALLEY":" ","HOUSE_NO":"４６號","E_COORD97":169890.70999999999,"N_COORD97":2551589.2400000002,"ADDRESS":"長和路三段１８巷４６號","OBJECTID":422551},"geometry":{"x":169890.71000000089,"y":2551589.2400000002}},{"attributes":{"ID":422577,"DIS_CODE":0,"TOWNNAME":"安南區","LI":"長安里","LIN":"13鄰","STREET":"公學路","SECT":"二段","MAREA":" ","LANE":"１２５巷","ALLEY":" ","HOUSE_NO":"３１號","E_COORD97":167755.95000000001,"N_COORD97":2552250.9500000002,"ADDRESS":"公學路二段１２５巷３１號","OBJECTID":422552},"geometry":{"x":167755.95000000019,"y":2552250.9499999993}},{"attributes":{"ID":422578,"DIS_CODE":0,"TOWNNAME":"安南區","LI":"南興里","LIN":" ","STREET":"安興街","SECT":" ","MAREA":" ","LANE":"６３２巷","ALLEY":" ","HOUSE_NO":"３１９號","E_COORD97":163530.92999999999,"N_COORD97":2552480.2200000002,"ADDRESS":"安興街６３２巷３１９號","OBJECTID":422553},"geometry":{"x":163530.9299999997,"y":2552480.2200000025}},{"attributes":{"ID":422579,"DIS_CODE":0,"TOWNNAME":"安南區","LI":"南興里","LIN":" ","STREET":"安興街","SECT":" ","MAREA":" ","LANE":"６３２巷","ALLEY":" ","HOUSE_NO":"２１號","E_COORD97":163538.75,"N_COORD97":2552476.5,"ADDRESS":"安興街６３２巷２１號","OBJECTID":422554},"geometry":{"x":163538.75000000093,"y":2552476.5000000037}},{"attributes":{"ID":422580,"DIS_CODE":0,"TOWNNAME":"安南區","LI":"南興里","LIN":" ","STREET":"安興街","SECT":" ","MAREA":" ","LANE":"４３５巷","ALLEY":" ","HOUSE_NO":"５７之２號","E_COORD97":163633.07999999999,"N_COORD97":2552184.77,"ADDRESS":"安興街４３５巷５７之２號","OBJECTID":422555},"geometry":{"x":163633.08000000101,"y":2552184.7699999996}},{"attributes":{"ID":422581,"DIS_CODE":0,"TOWNNAME":"安南區","LI":"南興里","LIN":" ","STREET":"安興街","SECT":" ","MAREA":" ","LANE":"６９６巷","ALLEY":" ","HOUSE_NO":"３號","E_COORD97":163491.98999999999,"N_COORD97":2552648.71,"ADDRESS":"安興街６９６巷３號","OBJECTID":422556},"geometry":{"x":163491.99000000022,"y":2552648.709999999}},{"attributes":{"ID":422582,"DIS_CODE":0,"TOWNNAME":"安南區","LI":"南興里","LIN":"8鄰","STREET":"安興街","SECT":" ","MAREA":" ","LANE":"６２４巷","ALLEY":" ","HOUSE_NO":"１號","E_COORD97":163477.69,"N_COORD97":2552461.25,"ADDRESS":"安興街６２４巷１號","OBJECTID":422557},"geometry":{"x":163477.68999999948,"y":2552461.2500000037}},{"attributes":{"ID":422583,"DIS_CODE":0,"TOWNNAME":"安南區","LI":"城中里","LIN":"4鄰","STREET":"安中路","SECT":"六段","MAREA":" ","LANE":"５１９巷","ALLEY":" ","HOUSE_NO":"３８號","E_COORD97":160825.92999999999,"N_COORD97":2551319.98,"ADDRESS":"安中路六段５１９巷３８號","OBJECTID":422558},"geometry":{"x":160825.93000000156,"y":2551319.9800000004}},{"attributes":{"ID":422584,"DIS_CODE":0,"TOWNNAME":"安南區","LI":"城中里","LIN":"4鄰","STREET":"安中路","SECT":"六段","MAREA":" ","LANE":"５１９巷","ALLEY":" ","HOUSE_NO":"３６號","E_COORD97":160839.87,"N_COORD97":2551332.4300000002,"ADDRESS":"安中路六段５１９巷３６號","OBJECTID":422559},"geometry":{"x":160839.87000000011,"y":2551332.4299999997}},{"attributes":{"ID":422585,"DIS_CODE":0,"TOWNNAME":"安南區","LI":"城中里","LIN":"4鄰","STREET":"安中路","SECT":"六段","MAREA":" ","LANE":"５１９巷","ALLEY":" ","HOUSE_NO":"４０號","E_COORD97":160824.45000000001,"N_COORD97":2551310.5,"ADDRESS":"安中路六段５１９巷４０號","OBJECTID":422560},"geometry":{"x":160824.45000000205,"y":2551310.5000000019}},{"attributes":{"ID":422586,"DIS_CODE":0,"TOWNNAME":"安南區","LI":"南興里","LIN":" ","STREET":"安興街","SECT":" ","MAREA":" ","LANE":"６４０巷","ALLEY":" ","HOUSE_NO":"２９４３號","E_COORD97":163611.47,"N_COORD97":2552503.96,"ADDRESS":"安興街６４０巷２９４３號","OBJECTID":422561},"geometry":{"x":163611.47000000067,"y":2552503.9600000009}},{"attributes":{"ID":422587,"DIS_CODE":0,"TOWNNAME":"安南區","LI":"城中里","LIN":" ","STREET":"安中路","SECT":"六段","MAREA":" ","LANE":"５１９巷","ALLEY":" ","HOUSE_NO":"３０之１號","E_COORD97":160854.41,"N_COORD97":2551318.5,"ADDRESS":"安中路六段５１９巷３０之１號","OBJECTID":422562},"geometry":{"x":160854.41000000015,"y":2551318.5000000019}},{"attributes":{"ID":422588,"DIS_CODE":0,"TOWNNAME":"安南區","LI":"城北里","LIN":"4鄰","STREET":"安中路","SECT":"六段","MAREA":" ","LANE":"５７８巷","ALLEY":" ","HOUSE_NO":"７３號","E_COORD97":161004.97,"N_COORD97":2551502.1899999999,"ADDRESS":"安中路六段５７８巷７３號","OBJECTID":422563},"geometry":{"x":161004.96999999974,"y":2551502.1900000013}},{"attributes":{"ID":422589,"DIS_CODE":0,"TOWNNAME":"安南區","LI":"城北里","LIN":"4鄰","STREET":"安中路","SECT":"六段","MAREA":" ","LANE":"５７８巷","ALLEY":" ","HOUSE_NO":"６０號","E_COORD97":160976.34,"N_COORD97":2551467.21,"ADDRESS":"安中路六段５７８巷６０號","OBJECTID":422564},"geometry":{"x":160976.34000000078,"y":2551467.2100000028}},{"attributes":{"ID":422590,"DIS_CODE":0,"TOWNNAME":"安南區","LI":"城北里","LIN":"4鄰","STREET":"安中路","SECT":"六段","MAREA":" ","LANE":"５７８巷","ALLEY":" ","HOUSE_NO":"６２號","E_COORD97":160980.23000000001,"N_COORD97":2551468.6400000001,"ADDRESS":"安中路六段５７８巷６２號","OBJECTID":422565},"geometry":{"x":160980.23000000045,"y":2551468.6400000006}},{"attributes":{"ID":422591,"DIS_CODE":0,"TOWNNAME":"新市區","LI":"港墘里","LIN":"7鄰","STREET":" ","SECT":" ","MAREA":"店頂","LANE":" ","ALLEY":" ","HOUSE_NO":"５１號","E_COORD97":179737.22743999999,"N_COORD97":2553216.9596199999,"ADDRESS":"店頂５１號","OBJECTID":422566},"geometry":{"x":179737.22743999958,"y":2553216.9596190006}},{"attributes":{"ID":422592,"DIS_CODE":0,"TOWNNAME":"安南區","LI":"城北里","LIN":"4鄰","STREET":"安中路","SECT":"六段","MAREA":" ","LANE":"５７８巷","ALLEY":" ","HOUSE_NO":"５８號","E_COORD97":160972.29000000001,"N_COORD97":2551466.8399999999,"ADDRESS":"安中路六段５７８巷５８號","OBJECTID":422567},"geometry":{"x":160972.29000000004,"y":2551466.839999998}},{"attributes":{"ID":422593,"DIS_CODE":0,"TOWNNAME":"安南區","LI":"城北里","LIN":" ","STREET":"安中路","SECT":"六段","MAREA":" ","LANE":"５７８巷","ALLEY":" ","HOUSE_NO":"３８號","E_COORD97":160949.04000000001,"N_COORD97":2551463.02,"ADDRESS":"安中路六段５７８巷３８號","OBJECTID":422568},"geometry":{"x":160949.04000000004,"y":2551463.0200000014}},{"attributes":{"ID":422594,"DIS_CODE":0,"TOWNNAME":"安南區","LI":"城西里","LIN":" ","STREET":"城西街","SECT":"三段","MAREA":" ","LANE":"１１０５巷","ALLEY":" ","HOUSE_NO":"９９之２００號","E_COORD97":155581.26000000001,"N_COORD97":2550227.9900000002,"ADDRESS":"城西街三段１１０５巷９９之２００號","OBJECTID":422569},"geometry":{"x":155581.26000000071,"y":2550227.9900000002}},{"attributes":{"ID":422595,"DIS_CODE":0,"TOWNNAME":"安南區","LI":"城西里","LIN":" ","STREET":"城西街","SECT":"三段","MAREA":" ","LANE":"５０１巷","ALLEY":" ","HOUSE_NO":"５５號","E_COORD97":157181.41,"N_COORD97":2550717.7000000002,"ADDRESS":"城西街三段５０１巷５５號","OBJECTID":422570},"geometry":{"x":157181.41000000015,"y":2550717.6999999993}},{"attributes":{"ID":422596,"DIS_CODE":0,"TOWNNAME":"安南區","LI":"城西里","LIN":" ","STREET":"城西街","SECT":"三段","MAREA":" ","LANE":"５０１巷","ALLEY":" ","HOUSE_NO":"６０號","E_COORD97":157210.35000000001,"N_COORD97":2550997.8799999999,"ADDRESS":"城西街三段５０１巷６０號","OBJECTID":422571},"geometry":{"x":157210.3499999987,"y":2550997.8800000027}},{"attributes":{"ID":422597,"DIS_CODE":0,"TOWNNAME":"安南區","LI":"城東里","LIN":"8鄰","STREET":"城北路","SECT":" ","MAREA":" ","LANE":"１１２巷","ALLEY":" ","HOUSE_NO":"２７號","E_COORD97":161093.51000000001,"N_COORD97":2551643.73,"ADDRESS":"城北路１１２巷２７號","OBJECTID":422572},"geometry":{"x":161093.51000000071,"y":2551643.7300000004}},{"attributes":{"ID":422598,"DIS_CODE":0,"TOWNNAME":"安南區","LI":"城東里","LIN":"8鄰","STREET":"城北路","SECT":" ","MAREA":" ","LANE":"１１２巷","ALLEY":" ","HOUSE_NO":"２３號","E_COORD97":161072.64000000001,"N_COORD97":2551633.6899999999,"ADDRESS":"城北路１１２巷２３號","OBJECTID":422573},"geometry":{"x":161072.6400000006,"y":2551633.6900000032}},{"attributes":{"ID":422599,"DIS_CODE":0,"TOWNNAME":"安南區","LI":"城西里","LIN":"7鄰","STREET":"城西街","SECT":"三段","MAREA":" ","LANE":"５０１巷","ALLEY":" ","HOUSE_NO":"３４８號","E_COORD97":157461.01000000001,"N_COORD97":2549699.7799999998,"ADDRESS":"城西街三段５０１巷３４８號","OBJECTID":422574},"geometry":{"x":157461.01000000071,"y":2549699.7799999993}},{"attributes":{"ID":422600,"DIS_CODE":0,"TOWNNAME":"安南區","LI":"城西里","LIN":"7鄰","STREET":"城西街","SECT":"三段","MAREA":" ","LANE":"５０１巷","ALLEY":" ","HOUSE_NO":"３５８號","E_COORD97":157562.10999999999,"N_COORD97":2549489.2999999998,"ADDRESS":"城西街三段５０１巷３５８號","OBJECTID":422575},"geometry":{"x":157562.1100000022,"y":2549489.3000000026}},{"attributes":{"ID":422601,"DIS_CODE":0,"TOWNNAME":"安南區","LI":"城西里","LIN":"6鄰","STREET":"城西街","SECT":"三段","MAREA":" ","LANE":"５０１巷","ALLEY":" ","HOUSE_NO":"７８號","E_COORD97":157144.34,"N_COORD97":2550670.5,"ADDRESS":"城西街三段５０１巷７８號","OBJECTID":422576},"geometry":{"x":157144.33999999985,"y":2550670.5000000019}},{"attributes":{"ID":422602,"DIS_CODE":0,"TOWNNAME":"安南區","LI":"城東里","LIN":" ","STREET":"城北路","SECT":" ","MAREA":" ","LANE":"１３８巷","ALLEY":" ","HOUSE_NO":"１０５號","E_COORD97":161218.26999999999,"N_COORD97":2551764.9500000002,"ADDRESS":"城北路１３８巷１０５號","OBJECTID":422577},"geometry":{"x":161218.26999999862,"y":2551764.9500000011}},{"attributes":{"ID":422603,"DIS_CODE":0,"TOWNNAME":"安南區","LI":"城東里","LIN":" ","STREET":"城北路","SECT":" ","MAREA":" ","LANE":"１３８巷","ALLEY":" ","HOUSE_NO":"１０７號","E_COORD97":161229.20000000001,"N_COORD97":2551769.4300000002,"ADDRESS":"城北路１３８巷１０７號","OBJECTID":422578},"geometry":{"x":161229.20000000019,"y":2551769.4300000016}},{"attributes":{"ID":422604,"DIS_CODE":0,"TOWNNAME":"安南區","LI":"城南里","LIN":" ","STREET":"城西街","SECT":"二段","MAREA":" ","LANE":"１巷","ALLEY":" ","HOUSE_NO":"６號之１００","E_COORD97":160013.57999999999,"N_COORD97":2550894.27,"ADDRESS":"城西街二段１巷６號之１００","OBJECTID":422579},"geometry":{"x":160013.58000000101,"y":2550894.2700000033}},{"attributes":{"ID":422605,"DIS_CODE":0,"TOWNNAME":"安南區","LI":"城南里","LIN":" ","STREET":"城西街","SECT":"二段","MAREA":" ","LANE":"１巷","ALLEY":" ","HOUSE_NO":"６號","E_COORD97":160225.67999999999,"N_COORD97":2550939.3100000001,"ADDRESS":"城西街二段１巷６號","OBJECTID":422580},"geometry":{"x":160225.68000000156,"y":2550939.3100000042}},{"attributes":{"ID":422606,"DIS_CODE":0,"TOWNNAME":"安南區","LI":"原佃里","LIN":" ","STREET":"本原街","SECT":"一段","MAREA":" ","LANE":"１６７巷","ALLEY":" ","HOUSE_NO":"２號之２","E_COORD97":167822.76000000001,"N_COORD97":2550108.3399999999,"ADDRESS":"本原街一段１６７巷２號之２","OBJECTID":422581},"geometry":{"x":167822.75999999978,"y":2550108.3400000017}},{"attributes":{"ID":422607,"DIS_CODE":0,"TOWNNAME":"安南區","LI":"原佃里","LIN":" ","STREET":"本原街","SECT":"一段","MAREA":" ","LANE":"１６７巷","ALLEY":" ","HOUSE_NO":"２號之３","E_COORD97":167823.51000000001,"N_COORD97":2550102.79,"ADDRESS":"本原街一段１６７巷２號之３","OBJECTID":422582},"geometry":{"x":167823.51000000071,"y":2550102.7899999991}},{"attributes":{"ID":422608,"DIS_CODE":0,"TOWNNAME":"安南區","LI":"原佃里","LIN":" ","STREET":"安中路","SECT":"二段","MAREA":" ","LANE":"２巷","ALLEY":" ","HOUSE_NO":"３３３號","E_COORD97":167353.13,"N_COORD97":2549966.27,"ADDRESS":"安中路二段２巷３３３號","OBJECTID":422583},"geometry":{"x":167353.13000000082,"y":2549966.2700000014}},{"attributes":{"ID":422609,"DIS_CODE":0,"TOWNNAME":"安南區","LI":"原佃里","LIN":"1鄰","STREET":"本原街","SECT":"一段","MAREA":" ","LANE":"９７巷","ALLEY":" ","HOUSE_NO":"９０號","E_COORD97":167869.85000000001,"N_COORD97":2549968.98,"ADDRESS":"本原街一段９７巷９０號","OBJECTID":422584},"geometry":{"x":167869.85000000149,"y":2549968.9800000023}},{"attributes":{"ID":422610,"DIS_CODE":0,"TOWNNAME":"安南區","LI":"海西里","LIN":" ","STREET":"海環街","SECT":" ","MAREA":" ","LANE":"１３８巷","ALLEY":" ","HOUSE_NO":"３９號","E_COORD97":166508.89999999999,"N_COORD97":2548634.75,"ADDRESS":"海環街１３８巷３９號","OBJECTID":422585},"geometry":{"x":166508.89999999944,"y":2548634.7500000019}},{"attributes":{"ID":422611,"DIS_CODE":0,"TOWNNAME":"安南區","LI":"\u25A0南里","LIN":"4鄰","STREET":"環福街","SECT":" ","MAREA":" ","LANE":"３５巷","ALLEY":" ","HOUSE_NO":"１號","E_COORD97":170194.98999999999,"N_COORD97":2552472.8900000001,"ADDRESS":"環福街３５巷１號","OBJECTID":422586},"geometry":{"x":170194.99000000022,"y":2552472.8900000006}},{"attributes":{"ID":422612,"DIS_CODE":0,"TOWNNAME":"安南區","LI":"佃東里","LIN":"18鄰","STREET":"公學路","SECT":"四段","MAREA":" ","LANE":"２巷","ALLEY":" ","HOUSE_NO":"５９號之２５","E_COORD97":166069.45000000001,"N_COORD97":2552461.96,"ADDRESS":"公學路四段２巷５９號之２５","OBJECTID":422587},"geometry":{"x":166069.45000000205,"y":2552461.9600000028}},{"attributes":{"ID":422613,"DIS_CODE":0,"TOWNNAME":"安南區","LI":"城南里","LIN":"5鄰","STREET":"城西街","SECT":"一段","MAREA":" ","LANE":"２１５巷","ALLEY":" ","HOUSE_NO":"１１號","E_COORD97":160476.34,"N_COORD97":2551228,"ADDRESS":"城西街一段２１５巷１１號","OBJECTID":422588},"geometry":{"x":160476.34000000078,"y":2551228}},{"attributes":{"ID":422614,"DIS_CODE":0,"TOWNNAME":"安南區","LI":"淵東里","LIN":"14鄰","STREET":"仁安路","SECT":" ","MAREA":" ","LANE":"８３巷","ALLEY":" ","HOUSE_NO":"１０號","E_COORD97":165638.91,"N_COORD97":2550166.23,"ADDRESS":"仁安路８３巷１０號","OBJECTID":422589},"geometry":{"x":165638.91000000015,"y":2550166.2300000004}},{"attributes":{"ID":422615,"DIS_CODE":0,"TOWNNAME":"安南區","LI":"城南里","LIN":"4鄰","STREET":"城西街","SECT":"一段","MAREA":" ","LANE":"６１巷","ALLEY":" ","HOUSE_NO":"１１６號","E_COORD97":160664.03,"N_COORD97":2551224.6899999999,"ADDRESS":"城西街一段６１巷１１６號","OBJECTID":422590},"geometry":{"x":160664.03000000026,"y":2551224.6900000013}},{"attributes":{"ID":422616,"DIS_CODE":0,"TOWNNAME":"安南區","LI":"城東里","LIN":"4鄰","STREET":"城北路","SECT":" ","MAREA":" ","LANE":"２３４巷","ALLEY":" ","HOUSE_NO":"６０號","E_COORD97":161128.38,"N_COORD97":2551849.3100000001,"ADDRESS":"城北路２３４巷６０號","OBJECTID":422591},"geometry":{"x":161128.38000000082,"y":2551849.3100000024}},{"attributes":{"ID":422617,"DIS_CODE":0,"TOWNNAME":"安南區","LI":"城東里","LIN":"4鄰","STREET":"城北路","SECT":" ","MAREA":" ","LANE":"２３４巷","ALLEY":" ","HOUSE_NO":"５８號","E_COORD97":161123.78,"N_COORD97":2551848.6099999999,"ADDRESS":"城北路２３４巷５８號","OBJECTID":422592},"geometry":{"x":161123.78000000026,"y":2551848.6100000013}},{"attributes":{"ID":422618,"DIS_CODE":0,"TOWNNAME":"安南區","LI":"梅花里","LIN":"20鄰","STREET":"安中路","SECT":"一段","MAREA":" ","LANE":"７５７巷","ALLEY":" ","HOUSE_NO":"２號","E_COORD97":167410.95999999999,"N_COORD97":2549324.7799999998,"ADDRESS":"安中路一段７５７巷２號","OBJECTID":422593},"geometry":{"x":167410.95999999996,"y":2549324.7800000012}},{"attributes":{"ID":422619,"DIS_CODE":0,"TOWNNAME":"安南區","LI":"梅花里","LIN":"20鄰","STREET":"安中路","SECT":"一段","MAREA":" ","LANE":"７５７巷","ALLEY":" ","HOUSE_NO":"６號","E_COORD97":167409.89999999999,"N_COORD97":2549320.3199999998,"ADDRESS":"安中路一段７５７巷６號","OBJECTID":422594},"geometry":{"x":167409.9000000013,"y":2549320.3200000003}},{"attributes":{"ID":422620,"DIS_CODE":0,"TOWNNAME":"安南區","LI":"梅花里","LIN":"20鄰","STREET":"安中路","SECT":"一段","MAREA":" ","LANE":"７５７巷","ALLEY":" ","HOUSE_NO":"８號","E_COORD97":167406.28,"N_COORD97":2549316.71,"ADDRESS":"安中路一段７５７巷８號","OBJECTID":422595},"geometry":{"x":167406.28000000026,"y":2549316.7100000028}},{"attributes":{"ID":422621,"DIS_CODE":0,"TOWNNAME":"安南區","LI":"梅花里","LIN":"20鄰","STREET":"安中路","SECT":"一段","MAREA":" ","LANE":"７５７巷","ALLEY":" ","HOUSE_NO":"１０號","E_COORD97":167403.73000000001,"N_COORD97":2549311.3900000001,"ADDRESS":"安中路一段７５７巷１０號","OBJECTID":422596},"geometry":{"x":167403.73000000231,"y":2549311.3900000043}},{"attributes":{"ID":422622,"DIS_CODE":0,"TOWNNAME":"安南區","LI":"梅花里","LIN":"20鄰","STREET":"安中路","SECT":"一段","MAREA":" ","LANE":"７５７巷","ALLEY":" ","HOUSE_NO":"１２號","E_COORD97":167395.22,"N_COORD97":2549299.7999999998,"ADDRESS":"安中路一段７５７巷１２號","OBJECTID":422597},"geometry":{"x":167395.22000000067,"y":2549299.8000000026}},{"attributes":{"ID":422623,"DIS_CODE":0,"TOWNNAME":"安南區","LI":"梅花里","LIN":"20鄰","STREET":"安中路","SECT":"一段","MAREA":" ","LANE":"７５７巷","ALLEY":" ","HOUSE_NO":"１６號","E_COORD97":167391.17999999999,"N_COORD97":2549290.6600000001,"ADDRESS":"安中路一段７５７巷１６號","OBJECTID":422598},"geometry":{"x":167391.17999999877,"y":2549290.6600000001}},{"attributes":{"ID":422624,"DIS_CODE":0,"TOWNNAME":"安南區","LI":"梅花里","LIN":"20鄰","STREET":"安中路","SECT":"一段","MAREA":" ","LANE":"７５７巷","ALLEY":" ","HOUSE_NO":"１８號","E_COORD97":167388.20000000001,"N_COORD97":2549286.6200000001,"ADDRESS":"安中路一段７５７巷１８號","OBJECTID":422599},"geometry":{"x":167388.19999999925,"y":2549286.6200000048}},{"attributes":{"ID":422625,"DIS_CODE":0,"TOWNNAME":"安南區","LI":"梅花里","LIN":"20鄰","STREET":"安中路","SECT":"一段","MAREA":" ","LANE":"７５７巷","ALLEY":" ","HOUSE_NO":"２０號","E_COORD97":167385.22,"N_COORD97":2549282.79,"ADDRESS":"安中路一段７５７巷２０號","OBJECTID":422600},"geometry":{"x":167385.21999999974,"y":2549282.7899999991}}]}