{"displayFieldName":"TOWNNAME","fieldAliases":{"ID":"ID","DIS_CODE":"DIS_CODE","TOWNNAME":"TOWNNAME","LI":"LI","LIN":"LIN","STREET":"STREET","SECT":"SECT","MAREA":"MAREA","LANE":"LANE","ALLEY":"ALLEY","HOUSE_NO":"HOUSE_NO","E_COORD97":"E_COORD97","N_COORD97":"N_COORD97","ADDRESS":"ADDRESS","OBJECTID":"OBJECTID"},"geometryType":"esriGeometryPoint","spatialReference":{"wkid":102443,"latestWkid":3826},"fields":[{"name":"ID","type":"esriFieldTypeDouble","alias":"ID"},{"name":"DIS_CODE","type":"esriFieldTypeInteger","alias":"DIS_CODE"},{"name":"TOWNNAME","type":"esriFieldTypeString","alias":"TOWNNAME","length":8},{"name":"LI","type":"esriFieldTypeString","alias":"LI","length":8},{"name":"LIN","type":"esriFieldTypeString","alias":"LIN","length":12},{"name":"STREET","type":"esriFieldTypeString","alias":"STREET","length":20},{"name":"SECT","type":"esriFieldTypeString","alias":"SECT","length":8},{"name":"MAREA","type":"esriFieldTypeString","alias":"MAREA","length":12},{"name":"LANE","type":"esriFieldTypeString","alias":"LANE","length":10},{"name":"ALLEY","type":"esriFieldTypeString","alias":"ALLEY","length":10},{"name":"HOUSE_NO","type":"esriFieldTypeString","alias":"HOUSE_NO","length":20},{"name":"E_COORD97","type":"esriFieldTypeDouble","alias":"E_COORD97"},{"name":"N_COORD97","type":"esriFieldTypeDouble","alias":"N_COORD97"},{"name":"ADDRESS","type":"esriFieldTypeString","alias":"ADDRESS","length":50},{"name":"OBJECTID","type":"esriFieldTypeOID","alias":"OBJECTID"}],"features":[{"attributes":{"ID":168602,"DIS_CODE":0,"TOWNNAME":"北門區","LI":"鯤江里","LIN":"13鄰","STREET":" ","SECT":" ","MAREA":"新圍","LANE":" ","ALLEY":" ","HOUSE_NO":"４８號","E_COORD97":163141.35999999999,"N_COORD97":2576759.6299999999,"ADDRESS":"新圍４８號","OBJECTID":168601},"geometry":{"x":163141.36000000127,"y":2576759.6300000027}},{"attributes":{"ID":168603,"DIS_CODE":0,"TOWNNAME":"官田區","LI":"二鎮里","LIN":"13鄰","STREET":" ","SECT":" ","MAREA":"二鎮","LANE":" ","ALLEY":" ","HOUSE_NO":"１０９號之１０","E_COORD97":181382.98000000001,"N_COORD97":2568086.4700000002,"ADDRESS":"二鎮１０９號之１０","OBJECTID":168602},"geometry":{"x":181382.98000000138,"y":2568086.4699999988}},{"attributes":{"ID":168604,"DIS_CODE":0,"TOWNNAME":"官田區","LI":"二鎮里","LIN":"13鄰","STREET":" ","SECT":" ","MAREA":"二鎮","LANE":" ","ALLEY":" ","HOUSE_NO":"１０９號之１３","E_COORD97":181342.14000000001,"N_COORD97":2568167.5499999998,"ADDRESS":"二鎮１０９號之１３","OBJECTID":168603},"geometry":{"x":181342.13999999966,"y":2568167.5500000045}},{"attributes":{"ID":168605,"DIS_CODE":0,"TOWNNAME":"新營區","LI":"太南里","LIN":"5鄰","STREET":" ","SECT":" ","MAREA":"太子宮","LANE":" ","ALLEY":" ","HOUSE_NO":"２０７之３號","E_COORD97":176255.57000000001,"N_COORD97":2576862.2200000002,"ADDRESS":"太子宮２０７之３號","OBJECTID":168604},"geometry":{"x":176255.57000000123,"y":2576862.2200000007}},{"attributes":{"ID":168606,"DIS_CODE":0,"TOWNNAME":"官田區","LI":"二鎮里","LIN":"13鄰","STREET":" ","SECT":" ","MAREA":"二鎮","LANE":" ","ALLEY":" ","HOUSE_NO":"１０９號之１４","E_COORD97":181345.63,"N_COORD97":2568170.21,"ADDRESS":"二鎮１０９號之１４","OBJECTID":168605},"geometry":{"x":181345.63000000082,"y":2568170.2100000046}},{"attributes":{"ID":168607,"DIS_CODE":0,"TOWNNAME":"官田區","LI":"二鎮里","LIN":"13鄰","STREET":" ","SECT":" ","MAREA":"二鎮","LANE":" ","ALLEY":" ","HOUSE_NO":"１０９號之１５","E_COORD97":181349.10999999999,"N_COORD97":2568172.8700000001,"ADDRESS":"二鎮１０９號之１５","OBJECTID":168606},"geometry":{"x":181349.11000000127,"y":2568172.8700000029}},{"attributes":{"ID":168608,"DIS_CODE":0,"TOWNNAME":"官田區","LI":"二鎮里","LIN":"13鄰","STREET":" ","SECT":" ","MAREA":"二鎮","LANE":" ","ALLEY":" ","HOUSE_NO":"１０９號之１７","E_COORD97":181276.04000000001,"N_COORD97":2568100.79,"ADDRESS":"二鎮１０９號之１７","OBJECTID":168607},"geometry":{"x":181276.04000000004,"y":2568100.790000001}},{"attributes":{"ID":168609,"DIS_CODE":0,"TOWNNAME":"官田區","LI":"二鎮里","LIN":"13鄰","STREET":" ","SECT":" ","MAREA":"二鎮","LANE":" ","ALLEY":" ","HOUSE_NO":"１０９號之２３","E_COORD97":181357.73999999999,"N_COORD97":2568175.9700000002,"ADDRESS":"二鎮１０９號之２３","OBJECTID":168608},"geometry":{"x":181357.74000000022,"y":2568175.9700000025}},{"attributes":{"ID":168610,"DIS_CODE":0,"TOWNNAME":"安南區","LI":"原佃里","LIN":"4鄰","STREET":"本原街","SECT":"一段","MAREA":" ","LANE":"７６巷","ALLEY":"１１弄","HOUSE_NO":"９號","E_COORD97":168033.95000000001,"N_COORD97":2550216.3100000001,"ADDRESS":"本原街一段７６巷１１弄９號","OBJECTID":168609},"geometry":{"x":168033.95000000019,"y":2550216.3100000005}},{"attributes":{"ID":168611,"DIS_CODE":0,"TOWNNAME":"永康區","LI":"三合里","LIN":"18鄰","STREET":"南工街","SECT":" ","MAREA":" ","LANE":"２６７巷","ALLEY":"７弄","HOUSE_NO":"７號","E_COORD97":171929.32000000001,"N_COORD97":2545935.75,"ADDRESS":"南工街２６７巷７弄７號","OBJECTID":168610},"geometry":{"x":171929.32000000123,"y":2545935.7500000019}},{"attributes":{"ID":168612,"DIS_CODE":0,"TOWNNAME":"新營區","LI":"新東里","LIN":"12鄰","STREET":"東大街","SECT":" ","MAREA":" ","LANE":" ","ALLEY":" ","HOUSE_NO":"４７號","E_COORD97":181002,"N_COORD97":2579162.7200000002,"ADDRESS":"東大街４７號","OBJECTID":168611},"geometry":{"x":181002.00000000093,"y":2579162.7200000025}},{"attributes":{"ID":168613,"DIS_CODE":0,"TOWNNAME":"永康區","LI":"三合里","LIN":"18鄰","STREET":"南工街","SECT":" ","MAREA":" ","LANE":"２６７巷","ALLEY":"７弄","HOUSE_NO":"８號","E_COORD97":171927.98999999999,"N_COORD97":2545927,"ADDRESS":"南工街２６７巷７弄８號","OBJECTID":168612},"geometry":{"x":171927.99000000115,"y":2545927.0000000019}},{"attributes":{"ID":168614,"DIS_CODE":0,"TOWNNAME":"永康區","LI":"中興里","LIN":"20鄰","STREET":"中華路","SECT":" ","MAREA":" ","LANE":"２１６巷","ALLEY":"３５弄","HOUSE_NO":"７號","E_COORD97":171855.23999999999,"N_COORD97":2545209,"ADDRESS":"中華路２１６巷３５弄７號","OBJECTID":168613},"geometry":{"x":171855.24000000115,"y":2545209.0000000019}},{"attributes":{"ID":168615,"DIS_CODE":0,"TOWNNAME":"永康區","LI":"五王里","LIN":"13鄰","STREET":"中山東路","SECT":" ","MAREA":" ","LANE":"２１８巷","ALLEY":"２３弄","HOUSE_NO":"２０號","E_COORD97":171700.87,"N_COORD97":2545686.2599999998,"ADDRESS":"中山東路２１８巷２３弄２０號","OBJECTID":168614},"geometry":{"x":171700.87000000011,"y":2545686.2599999998}},{"attributes":{"ID":168616,"DIS_CODE":0,"TOWNNAME":"永康區","LI":"五王里","LIN":"4鄰","STREET":"中山東路","SECT":" ","MAREA":" ","LANE":"２１８巷","ALLEY":"２３弄","HOUSE_NO":"３８號","E_COORD97":171706.73000000001,"N_COORD97":2545629.1800000002,"ADDRESS":"中山東路２１８巷２３弄３８號","OBJECTID":168615},"geometry":{"x":171706.73000000138,"y":2545629.1799999997}},{"attributes":{"ID":168617,"DIS_CODE":0,"TOWNNAME":"永康區","LI":"大橋里","LIN":"26鄰","STREET":"大橋一街","SECT":" ","MAREA":" ","LANE":"２４７巷","ALLEY":"３４弄","HOUSE_NO":"７號","E_COORD97":171267.73000000001,"N_COORD97":2546775.5699999998,"ADDRESS":"大橋一街２４７巷３４弄７號","OBJECTID":168616},"geometry":{"x":171267.73000000138,"y":2546775.5700000003}},{"attributes":{"ID":168618,"DIS_CODE":0,"TOWNNAME":"新營區","LI":"大宏里","LIN":"12鄰","STREET":"開元路","SECT":" ","MAREA":" ","LANE":" ","ALLEY":" ","HOUSE_NO":"６１之１２號","E_COORD97":180895.53,"N_COORD97":2578793.3900000001,"ADDRESS":"開元路６１之１２號","OBJECTID":168617},"geometry":{"x":180895.53000000119,"y":2578793.3900000006}},{"attributes":{"ID":168619,"DIS_CODE":0,"TOWNNAME":"永康區","LI":"中興里","LIN":"25鄰","STREET":"中華路","SECT":" ","MAREA":" ","LANE":"２１６巷","ALLEY":"１弄","HOUSE_NO":"１號之１３","E_COORD97":171773.25,"N_COORD97":2545187.1200000001,"ADDRESS":"中華路２１６巷１弄１號之１３","OBJECTID":168618},"geometry":{"x":171773.25000000186,"y":2545187.120000001}},{"attributes":{"ID":168620,"DIS_CODE":0,"TOWNNAME":"永康區","LI":"大橋里","LIN":"20鄰","STREET":"大橋一街","SECT":" ","MAREA":" ","LANE":"１３９巷","ALLEY":"４４弄","HOUSE_NO":"４８號","E_COORD97":171056.29999999999,"N_COORD97":2546663.79,"ADDRESS":"大橋一街１３９巷４４弄４８號","OBJECTID":168619},"geometry":{"x":171056.30000000075,"y":2546663.790000001}},{"attributes":{"ID":168621,"DIS_CODE":0,"TOWNNAME":"永康區","LI":"大橋里","LIN":"20鄰","STREET":"大橋一街","SECT":" ","MAREA":" ","LANE":"１３９巷","ALLEY":"４４弄","HOUSE_NO":"５８號","E_COORD97":171081.79999999999,"N_COORD97":2546682.04,"ADDRESS":"大橋一街１３９巷４４弄５８號","OBJECTID":168620},"geometry":{"x":171081.80000000075,"y":2546682.040000001}},{"attributes":{"ID":168622,"DIS_CODE":0,"TOWNNAME":"永康區","LI":"大橋里","LIN":"25鄰","STREET":"大橋一街","SECT":" ","MAREA":" ","LANE":"２２３巷","ALLEY":"６弄","HOUSE_NO":"１０號","E_COORD97":171212.37,"N_COORD97":2546716,"ADDRESS":"大橋一街２２３巷６弄１０號","OBJECTID":168621},"geometry":{"x":171212.37000000011,"y":2546715.9999999981}},{"attributes":{"ID":168623,"DIS_CODE":0,"TOWNNAME":"新營區","LI":"太南里","LIN":"12鄰","STREET":" ","SECT":" ","MAREA":"太子宮","LANE":" ","ALLEY":" ","HOUSE_NO":"２６６之１號","E_COORD97":176212.41,"N_COORD97":2576822.5600000001,"ADDRESS":"太子宮２６６之１號","OBJECTID":168622},"geometry":{"x":176212.41000000108,"y":2576822.5600000005}},{"attributes":{"ID":168624,"DIS_CODE":0,"TOWNNAME":"新營區","LI":"太南里","LIN":"12鄰","STREET":" ","SECT":" ","MAREA":"太子宮","LANE":" ","ALLEY":" ","HOUSE_NO":"２６９號","E_COORD97":176169.85000000001,"N_COORD97":2576790.5899999999,"ADDRESS":"太子宮２６９號","OBJECTID":168623},"geometry":{"x":176169.85000000056,"y":2576790.5899999999}},{"attributes":{"ID":168625,"DIS_CODE":0,"TOWNNAME":"仁德區","LI":"上崙里","LIN":"5鄰","STREET":"德崙路","SECT":" ","MAREA":" ","LANE":" ","ALLEY":" ","HOUSE_NO":"３０３號","E_COORD97":173889.29000000001,"N_COORD97":2538131.27,"ADDRESS":"德崙路３０３號","OBJECTID":168624},"geometry":{"x":173889.29000000097,"y":2538131.2699999996}},{"attributes":{"ID":168626,"DIS_CODE":0,"TOWNNAME":"新營區","LI":"太南里","LIN":"12鄰","STREET":" ","SECT":" ","MAREA":"太子宮","LANE":" ","ALLEY":" ","HOUSE_NO":"２６８號","E_COORD97":176165.82000000001,"N_COORD97":2576801.6899999999,"ADDRESS":"太子宮２６８號","OBJECTID":168625},"geometry":{"x":176165.82000000123,"y":2576801.6900000013}},{"attributes":{"ID":168627,"DIS_CODE":0,"TOWNNAME":"歸仁區","LI":"八甲里","LIN":"12鄰","STREET":"大明二街","SECT":" ","MAREA":" ","LANE":" ","ALLEY":" ","HOUSE_NO":"５９號","E_COORD97":177888.72,"N_COORD97":2541918.6099999999,"ADDRESS":"大明二街５９號","OBJECTID":168626},"geometry":{"x":177888.71999999974,"y":2541918.6100000013}},{"attributes":{"ID":168628,"DIS_CODE":0,"TOWNNAME":"新營區","LI":"太南里","LIN":"12鄰","STREET":" ","SECT":" ","MAREA":"太子宮","LANE":" ","ALLEY":" ","HOUSE_NO":"２６６之３號","E_COORD97":176203.03,"N_COORD97":2576788.27,"ADDRESS":"太子宮２６６之３號","OBJECTID":168627},"geometry":{"x":176203.03000000119,"y":2576788.2699999996}},{"attributes":{"ID":168629,"DIS_CODE":0,"TOWNNAME":"新營區","LI":"鐵線里","LIN":"12鄰","STREET":" ","SECT":" ","MAREA":"鐵線橋","LANE":" ","ALLEY":" ","HOUSE_NO":"１３０之１４號","E_COORD97":175719.54999999999,"N_COORD97":2573770.6600000001,"ADDRESS":"鐵線橋１３０之１４號","OBJECTID":168628},"geometry":{"x":175719.55000000075,"y":2573770.6600000039}},{"attributes":{"ID":168630,"DIS_CODE":0,"TOWNNAME":"官田區","LI":"二鎮里","LIN":"13鄰","STREET":" ","SECT":" ","MAREA":"二鎮","LANE":" ","ALLEY":" ","HOUSE_NO":"１０９號之２５","E_COORD97":181345.13,"N_COORD97":2568073.2400000002,"ADDRESS":"二鎮１０９號之２５","OBJECTID":168629},"geometry":{"x":181345.13000000082,"y":2568073.2400000002}},{"attributes":{"ID":168631,"DIS_CODE":0,"TOWNNAME":"官田區","LI":"二鎮里","LIN":"13鄰","STREET":" ","SECT":" ","MAREA":"二鎮","LANE":" ","ALLEY":" ","HOUSE_NO":"１０９號之２６","E_COORD97":181351.07000000001,"N_COORD97":2568074.04,"ADDRESS":"二鎮１０９號之２６","OBJECTID":168630},"geometry":{"x":181351.07000000123,"y":2568074.0399999991}},{"attributes":{"ID":168632,"DIS_CODE":0,"TOWNNAME":"官田區","LI":"二鎮里","LIN":"13鄰","STREET":" ","SECT":" ","MAREA":"二鎮","LANE":" ","ALLEY":" ","HOUSE_NO":"１０９號之２７","E_COORD97":181354.97,"N_COORD97":2568074.4500000002,"ADDRESS":"二鎮１０９號之２７","OBJECTID":168631},"geometry":{"x":181354.97000000067,"y":2568074.4499999993}},{"attributes":{"ID":168633,"DIS_CODE":0,"TOWNNAME":"官田區","LI":"二鎮里","LIN":"13鄰","STREET":" ","SECT":" ","MAREA":"二鎮","LANE":" ","ALLEY":" ","HOUSE_NO":"１０９號之２８","E_COORD97":181359.07999999999,"N_COORD97":2568075.73,"ADDRESS":"二鎮１０９號之２８","OBJECTID":168632},"geometry":{"x":181359.08000000194,"y":2568075.7300000023}},{"attributes":{"ID":168634,"DIS_CODE":0,"TOWNNAME":"官田區","LI":"二鎮里","LIN":"13鄰","STREET":" ","SECT":" ","MAREA":"二鎮","LANE":" ","ALLEY":" ","HOUSE_NO":"１０９號之２９","E_COORD97":181364.28,"N_COORD97":2568076.6200000001,"ADDRESS":"二鎮１０９號之２９","OBJECTID":168633},"geometry":{"x":181364.28000000026,"y":2568076.6200000029}},{"attributes":{"ID":168635,"DIS_CODE":0,"TOWNNAME":"官田區","LI":"二鎮里","LIN":"13鄰","STREET":" ","SECT":" ","MAREA":"二鎮","LANE":" ","ALLEY":" ","HOUSE_NO":"１０９號之２","E_COORD97":181345.91,"N_COORD97":2568118.6899999999,"ADDRESS":"二鎮１０９號之２","OBJECTID":168634},"geometry":{"x":181345.91000000015,"y":2568118.6900000013}},{"attributes":{"ID":168636,"DIS_CODE":0,"TOWNNAME":"官田區","LI":"二鎮里","LIN":"13鄰","STREET":" ","SECT":" ","MAREA":"二鎮","LANE":" ","ALLEY":" ","HOUSE_NO":"１０９號之３０","E_COORD97":181368.06,"N_COORD97":2568077.7999999998,"ADDRESS":"二鎮１０９號之３０","OBJECTID":168635},"geometry":{"x":181368.05999999959,"y":2568077.8000000045}},{"attributes":{"ID":168637,"DIS_CODE":0,"TOWNNAME":"官田區","LI":"二鎮里","LIN":"13鄰","STREET":" ","SECT":" ","MAREA":"二鎮","LANE":" ","ALLEY":" ","HOUSE_NO":"１０９號之３１","E_COORD97":181341.76000000001,"N_COORD97":2568084.8399999999,"ADDRESS":"二鎮１０９號之３１","OBJECTID":168636},"geometry":{"x":181341.75999999978,"y":2568084.8400000017}},{"attributes":{"ID":168638,"DIS_CODE":0,"TOWNNAME":"官田區","LI":"二鎮里","LIN":"13鄰","STREET":" ","SECT":" ","MAREA":"二鎮","LANE":" ","ALLEY":" ","HOUSE_NO":"１０９號之３２","E_COORD97":181340.84,"N_COORD97":2568089.4300000002,"ADDRESS":"二鎮１０９號之３２","OBJECTID":168637},"geometry":{"x":181340.84000000078,"y":2568089.4300000034}},{"attributes":{"ID":168639,"DIS_CODE":0,"TOWNNAME":"官田區","LI":"二鎮里","LIN":"13鄰","STREET":" ","SECT":" ","MAREA":"二鎮","LANE":" ","ALLEY":" ","HOUSE_NO":"１０９號之３","E_COORD97":181307.17000000001,"N_COORD97":2568135.8199999998,"ADDRESS":"二鎮１０９號之３","OBJECTID":168638},"geometry":{"x":181307.16999999993,"y":2568135.8200000022}},{"attributes":{"ID":168640,"DIS_CODE":0,"TOWNNAME":"新營區","LI":"民榮里","LIN":"12鄰","STREET":"新進路","SECT":"二段","MAREA":" ","LANE":" ","ALLEY":" ","HOUSE_NO":"１９０號","E_COORD97":179202.38,"N_COORD97":2577745.9199999999,"ADDRESS":"新進路二段１９０號","OBJECTID":168639},"geometry":{"x":179202.38000000082,"y":2577745.9200000018}},{"attributes":{"ID":168641,"DIS_CODE":0,"TOWNNAME":"歸仁區","LI":"武東里","LIN":"12鄰","STREET":" ","SECT":" ","MAREA":"明德新村","LANE":" ","ALLEY":" ","HOUSE_NO":"２２９號","E_COORD97":175129.94,"N_COORD97":2536088.2599999998,"ADDRESS":"明德新村２２９號","OBJECTID":168640},"geometry":{"x":175129.94000000041,"y":2536088.2599999998}},{"attributes":{"ID":168642,"DIS_CODE":0,"TOWNNAME":"新營區","LI":"新北里","LIN":"12鄰","STREET":"南新街","SECT":" ","MAREA":" ","LANE":" ","ALLEY":" ","HOUSE_NO":"３０號","E_COORD97":179353.81,"N_COORD97":2578855.9700000002,"ADDRESS":"南新街３０號","OBJECTID":168641},"geometry":{"x":179353.81000000052,"y":2578855.9700000025}},{"attributes":{"ID":168643,"DIS_CODE":0,"TOWNNAME":"歸仁區","LI":"武東里","LIN":"12鄰","STREET":" ","SECT":" ","MAREA":"明德新村","LANE":" ","ALLEY":" ","HOUSE_NO":"２２４號","E_COORD97":175162.73999999999,"N_COORD97":2536085.27,"ADDRESS":"明德新村２２４號","OBJECTID":168642},"geometry":{"x":175162.74000000115,"y":2536085.2700000033}},{"attributes":{"ID":168644,"DIS_CODE":0,"TOWNNAME":"歸仁區","LI":"武東里","LIN":"12鄰","STREET":" ","SECT":" ","MAREA":"明德新村","LANE":" ","ALLEY":" ","HOUSE_NO":"２２７號","E_COORD97":175145.34,"N_COORD97":2536087.27,"ADDRESS":"明德新村２２７號","OBJECTID":168643},"geometry":{"x":175145.33999999985,"y":2536087.2699999996}},{"attributes":{"ID":168645,"DIS_CODE":0,"TOWNNAME":"歸仁區","LI":"武東里","LIN":"12鄰","STREET":" ","SECT":" ","MAREA":"明德新村","LANE":" ","ALLEY":" ","HOUSE_NO":"２３０號","E_COORD97":175123.84,"N_COORD97":2536089.27,"ADDRESS":"明德新村２３０號","OBJECTID":168644},"geometry":{"x":175123.84000000171,"y":2536089.2700000014}},{"attributes":{"ID":168646,"DIS_CODE":0,"TOWNNAME":"歸仁區","LI":"武東里","LIN":"12鄰","STREET":" ","SECT":" ","MAREA":"明德新村","LANE":" ","ALLEY":" ","HOUSE_NO":"２２５號","E_COORD97":175156.64000000001,"N_COORD97":2536085.27,"ADDRESS":"明德新村２２５號","OBJECTID":168645},"geometry":{"x":175156.63999999966,"y":2536085.2700000033}},{"attributes":{"ID":168647,"DIS_CODE":0,"TOWNNAME":"官田區","LI":"二鎮里","LIN":"13鄰","STREET":" ","SECT":" ","MAREA":"二鎮","LANE":" ","ALLEY":" ","HOUSE_NO":"１０９號之４","E_COORD97":181286.95999999999,"N_COORD97":2568121.1699999999,"ADDRESS":"二鎮１０９號之４","OBJECTID":168646},"geometry":{"x":181286.96000000183,"y":2568121.1699999999}},{"attributes":{"ID":168648,"DIS_CODE":0,"TOWNNAME":"官田區","LI":"二鎮里","LIN":"13鄰","STREET":" ","SECT":" ","MAREA":"二鎮","LANE":" ","ALLEY":" ","HOUSE_NO":"１０９號之７","E_COORD97":181470.92999999999,"N_COORD97":2568093.1600000001,"ADDRESS":"二鎮１０９號之７","OBJECTID":168647},"geometry":{"x":181470.9299999997,"y":2568093.160000002}},{"attributes":{"ID":168649,"DIS_CODE":0,"TOWNNAME":"官田區","LI":"二鎮里","LIN":"13鄰","STREET":" ","SECT":" ","MAREA":"二鎮","LANE":" ","ALLEY":" ","HOUSE_NO":"１０９號之９","E_COORD97":181269.31,"N_COORD97":2568096.8799999999,"ADDRESS":"二鎮１０９號之９","OBJECTID":168648},"geometry":{"x":181269.31000000052,"y":2568096.8800000008}},{"attributes":{"ID":168650,"DIS_CODE":0,"TOWNNAME":"官田區","LI":"二鎮里","LIN":"13鄰","STREET":" ","SECT":" ","MAREA":"二鎮","LANE":" ","ALLEY":" ","HOUSE_NO":"１１０號之１０","E_COORD97":181374.19,"N_COORD97":2568160.9500000002,"ADDRESS":"二鎮１１０號之１０","OBJECTID":168649},"geometry":{"x":181374.19000000134,"y":2568160.9500000011}},{"attributes":{"ID":168651,"DIS_CODE":0,"TOWNNAME":"官田區","LI":"二鎮里","LIN":"13鄰","STREET":" ","SECT":" ","MAREA":"二鎮","LANE":" ","ALLEY":" ","HOUSE_NO":"１１０號之１１","E_COORD97":181384.56,"N_COORD97":2568162.8599999999,"ADDRESS":"二鎮１１０號之１１","OBJECTID":168650},"geometry":{"x":181384.56000000052,"y":2568162.8599999994}},{"attributes":{"ID":168652,"DIS_CODE":0,"TOWNNAME":"官田區","LI":"二鎮里","LIN":"13鄰","STREET":" ","SECT":" ","MAREA":"二鎮","LANE":" ","ALLEY":" ","HOUSE_NO":"１１０號之１２","E_COORD97":181389.29000000001,"N_COORD97":2568163.7999999998,"ADDRESS":"二鎮１１０號之１２","OBJECTID":168651},"geometry":{"x":181389.29000000004,"y":2568163.8000000026}},{"attributes":{"ID":168653,"DIS_CODE":0,"TOWNNAME":"官田區","LI":"二鎮里","LIN":"13鄰","STREET":" ","SECT":" ","MAREA":"二鎮","LANE":" ","ALLEY":" ","HOUSE_NO":"１１０號之１３","E_COORD97":181393.54000000001,"N_COORD97":2568165.0899999999,"ADDRESS":"二鎮１１０號之１３","OBJECTID":168652},"geometry":{"x":181393.54000000097,"y":2568165.0899999999}},{"attributes":{"ID":168654,"DIS_CODE":0,"TOWNNAME":"永康區","LI":"五王里","LIN":"34鄰","STREET":"中華路","SECT":" ","MAREA":" ","LANE":"５７８巷","ALLEY":"１０弄","HOUSE_NO":"１０號","E_COORD97":171348.45000000001,"N_COORD97":2545934.5,"ADDRESS":"中華路５７８巷１０弄１０號","OBJECTID":168653},"geometry":{"x":171348.45000000112,"y":2545934.5000000019}},{"attributes":{"ID":168655,"DIS_CODE":0,"TOWNNAME":"官田區","LI":"二鎮里","LIN":"13鄰","STREET":" ","SECT":" ","MAREA":"二鎮","LANE":" ","ALLEY":" ","HOUSE_NO":"１１０號之１４","E_COORD97":181397.63,"N_COORD97":2568166.1699999999,"ADDRESS":"二鎮１１０號之１４","OBJECTID":168654},"geometry":{"x":181397.63000000082,"y":2568166.1700000037}},{"attributes":{"ID":168656,"DIS_CODE":0,"TOWNNAME":"永康區","LI":"中興里","LIN":"20鄰","STREET":"中華路","SECT":" ","MAREA":" ","LANE":"２１６巷","ALLEY":"１弄","HOUSE_NO":"６號","E_COORD97":171800.79999999999,"N_COORD97":2545192,"ADDRESS":"中華路２１６巷１弄６號","OBJECTID":168655},"geometry":{"x":171800.79999999981,"y":2545192.0000000019}},{"attributes":{"ID":168657,"DIS_CODE":0,"TOWNNAME":"永康區","LI":"五王里","LIN":"4鄰","STREET":"中山東路","SECT":" ","MAREA":" ","LANE":"２１８巷","ALLEY":"２３弄","HOUSE_NO":"３６號","E_COORD97":171706.01999999999,"N_COORD97":2545633.4300000002,"ADDRESS":"中山東路２１８巷２３弄３６號","OBJECTID":168656},"geometry":{"x":171706.01999999955,"y":2545633.4299999997}},{"attributes":{"ID":168658,"DIS_CODE":0,"TOWNNAME":"官田區","LI":"二鎮里","LIN":"13鄰","STREET":" ","SECT":" ","MAREA":"二鎮","LANE":" ","ALLEY":" ","HOUSE_NO":"１１０號之１５","E_COORD97":181401.89999999999,"N_COORD97":2568167.5299999998,"ADDRESS":"二鎮１１０號之１５","OBJECTID":168657},"geometry":{"x":181401.9000000013,"y":2568167.5300000012}},{"attributes":{"ID":168659,"DIS_CODE":0,"TOWNNAME":"官田區","LI":"二鎮里","LIN":"13鄰","STREET":" ","SECT":" ","MAREA":"二鎮","LANE":" ","ALLEY":" ","HOUSE_NO":"１１０號之１６","E_COORD97":181406.17999999999,"N_COORD97":2568168.4700000002,"ADDRESS":"二鎮１１０號之１６","OBJECTID":168658},"geometry":{"x":181406.18000000063,"y":2568168.4700000025}},{"attributes":{"ID":168660,"DIS_CODE":0,"TOWNNAME":"官田區","LI":"二鎮里","LIN":"13鄰","STREET":" ","SECT":" ","MAREA":"二鎮","LANE":" ","ALLEY":" ","HOUSE_NO":"１１０號之１７","E_COORD97":181411.14999999999,"N_COORD97":2568168.8399999999,"ADDRESS":"二鎮１１０號之１７","OBJECTID":168659},"geometry":{"x":181411.15000000037,"y":2568168.8400000017}},{"attributes":{"ID":168661,"DIS_CODE":0,"TOWNNAME":"永康區","LI":"中興里","LIN":"20鄰","STREET":"中華路","SECT":" ","MAREA":" ","LANE":"２１６巷","ALLEY":"１弄","HOUSE_NO":"３號","E_COORD97":171788.63,"N_COORD97":2545190.75,"ADDRESS":"中華路２１６巷１弄３號","OBJECTID":168660},"geometry":{"x":171788.62999999989,"y":2545190.75}},{"attributes":{"ID":168662,"DIS_CODE":0,"TOWNNAME":"官田區","LI":"二鎮里","LIN":"13鄰","STREET":" ","SECT":" ","MAREA":"二鎮","LANE":" ","ALLEY":" ","HOUSE_NO":"１１０號之１８","E_COORD97":181416.48999999999,"N_COORD97":2568169.5800000001,"ADDRESS":"二鎮１１０號之１８","OBJECTID":168661},"geometry":{"x":181416.49000000115,"y":2568169.5800000001}},{"attributes":{"ID":168663,"DIS_CODE":0,"TOWNNAME":"官田區","LI":"二鎮里","LIN":"13鄰","STREET":" ","SECT":" ","MAREA":"二鎮","LANE":" ","ALLEY":" ","HOUSE_NO":"１１０號之１９","E_COORD97":181418.14999999999,"N_COORD97":2568146.4199999999,"ADDRESS":"二鎮１１０號之１９","OBJECTID":168662},"geometry":{"x":181418.15000000224,"y":2568146.4199999999}},{"attributes":{"ID":168664,"DIS_CODE":0,"TOWNNAME":"官田區","LI":"二鎮里","LIN":"13鄰","STREET":" ","SECT":" ","MAREA":"二鎮","LANE":" ","ALLEY":" ","HOUSE_NO":"１１０號之１","E_COORD97":181393.45000000001,"N_COORD97":2568195.8100000001,"ADDRESS":"二鎮１１０號之１","OBJECTID":168663},"geometry":{"x":181393.45000000019,"y":2568195.8100000005}},{"attributes":{"ID":168665,"DIS_CODE":0,"TOWNNAME":"官田區","LI":"二鎮里","LIN":"13鄰","STREET":" ","SECT":" ","MAREA":"二鎮","LANE":" ","ALLEY":" ","HOUSE_NO":"１１０號之２０","E_COORD97":181411.67999999999,"N_COORD97":2568146.0499999998,"ADDRESS":"二鎮１１０號之２０","OBJECTID":168664},"geometry":{"x":181411.6799999997,"y":2568146.0500000007}},{"attributes":{"ID":168666,"DIS_CODE":0,"TOWNNAME":"官田區","LI":"二鎮里","LIN":"13鄰","STREET":" ","SECT":" ","MAREA":"二鎮","LANE":" ","ALLEY":" ","HOUSE_NO":"１１０號之２１","E_COORD97":181406.67999999999,"N_COORD97":2568145.9900000002,"ADDRESS":"二鎮１１０號之２１","OBJECTID":168665},"geometry":{"x":181406.6799999997,"y":2568145.9900000002}},{"attributes":{"ID":168667,"DIS_CODE":0,"TOWNNAME":"永康區","LI":"五王里","LIN":"13鄰","STREET":"中華二路","SECT":" ","MAREA":" ","LANE":"２０６巷","ALLEY":"６８弄","HOUSE_NO":"１３９號","E_COORD97":171678.32999999999,"N_COORD97":2545680.46,"ADDRESS":"中華二路２０６巷６８弄１３９號","OBJECTID":168666},"geometry":{"x":171678.33000000101,"y":2545680.4600000028}},{"attributes":{"ID":168668,"DIS_CODE":0,"TOWNNAME":"新營區","LI":"新北里","LIN":"12鄰","STREET":"南新街","SECT":" ","MAREA":" ","LANE":"５０巷","ALLEY":" ","HOUSE_NO":"１５號","E_COORD97":179331.57999999999,"N_COORD97":2578932.4900000002,"ADDRESS":"南新街５０巷１５號","OBJECTID":168667},"geometry":{"x":179331.58000000194,"y":2578932.4900000021}},{"attributes":{"ID":168669,"DIS_CODE":0,"TOWNNAME":"歸仁區","LI":"八甲里","LIN":"12鄰","STREET":"大明街","SECT":" ","MAREA":" ","LANE":" ","ALLEY":" ","HOUSE_NO":"７７號","E_COORD97":177929.37,"N_COORD97":2541912.6099999999,"ADDRESS":"大明街７７號","OBJECTID":168668},"geometry":{"x":177929.37000000197,"y":2541912.6099999994}},{"attributes":{"ID":168670,"DIS_CODE":0,"TOWNNAME":"歸仁區","LI":"大廟里","LIN":"12鄰","STREET":"大廟六街","SECT":" ","MAREA":" ","LANE":" ","ALLEY":" ","HOUSE_NO":"５２號","E_COORD97":176066.17000000001,"N_COORD97":2544193.25,"ADDRESS":"大廟六街５２號","OBJECTID":168669},"geometry":{"x":176066.17000000086,"y":2544193.2500000019}},{"attributes":{"ID":168671,"DIS_CODE":0,"TOWNNAME":"仁德區","LI":"一甲里","LIN":"19鄰","STREET":"中正路","SECT":"三段","MAREA":" ","LANE":" ","ALLEY":" ","HOUSE_NO":"３４１號","E_COORD97":173759.88,"N_COORD97":2542350.52,"ADDRESS":"中正路三段３４１號","OBJECTID":168670},"geometry":{"x":173759.87999999989,"y":2542350.5199999996}},{"attributes":{"ID":168672,"DIS_CODE":0,"TOWNNAME":"永康區","LI":"五王里","LIN":"13鄰","STREET":"中華二路","SECT":" ","MAREA":" ","LANE":"２０６巷","ALLEY":"６８弄","HOUSE_NO":"１２１號","E_COORD97":171671.88,"N_COORD97":2545719.5,"ADDRESS":"中華二路２０６巷６８弄１２１號","OBJECTID":168671},"geometry":{"x":171671.87999999989,"y":2545719.5000000037}},{"attributes":{"ID":168673,"DIS_CODE":0,"TOWNNAME":"永康區","LI":"五王里","LIN":"4鄰","STREET":"中華二路","SECT":" ","MAREA":" ","LANE":"２０６巷","ALLEY":"５２弄","HOUSE_NO":"２８號","E_COORD97":171692.29000000001,"N_COORD97":2545626.9900000002,"ADDRESS":"中華二路２０６巷５２弄２８號","OBJECTID":168672},"geometry":{"x":171692.29000000097,"y":2545626.9900000002}},{"attributes":{"ID":168674,"DIS_CODE":0,"TOWNNAME":"永康區","LI":"五王里","LIN":"4鄰","STREET":"中山東路","SECT":" ","MAREA":" ","LANE":"２１８巷","ALLEY":"２３弄","HOUSE_NO":"４８號","E_COORD97":171711.22,"N_COORD97":2545611.1699999999,"ADDRESS":"中山東路２１８巷２３弄４８號","OBJECTID":168673},"geometry":{"x":171711.22000000067,"y":2545611.1700000018}},{"attributes":{"ID":168675,"DIS_CODE":0,"TOWNNAME":"永康區","LI":"三合里","LIN":"18鄰","STREET":"南工街","SECT":" ","MAREA":" ","LANE":"２６７巷","ALLEY":"７弄","HOUSE_NO":"５號","E_COORD97":171922.48000000001,"N_COORD97":2545936.75,"ADDRESS":"南工街２６７巷７弄５號","OBJECTID":168674},"geometry":{"x":171922.48000000045,"y":2545936.75}},{"attributes":{"ID":168676,"DIS_CODE":0,"TOWNNAME":"官田區","LI":"二鎮里","LIN":"13鄰","STREET":" ","SECT":" ","MAREA":"二鎮","LANE":" ","ALLEY":" ","HOUSE_NO":"１１０號之２２","E_COORD97":181402.76000000001,"N_COORD97":2568145.0299999998,"ADDRESS":"二鎮１１０號之２２","OBJECTID":168675},"geometry":{"x":181402.75999999978,"y":2568145.0299999993}},{"attributes":{"ID":168677,"DIS_CODE":0,"TOWNNAME":"永康區","LI":"大橋里","LIN":"26鄰","STREET":"大橋一街","SECT":" ","MAREA":" ","LANE":"２４７巷","ALLEY":"３４弄","HOUSE_NO":"５號","E_COORD97":171264.75,"N_COORD97":2546773.3199999998,"ADDRESS":"大橋一街２４７巷３４弄５號","OBJECTID":168676},"geometry":{"x":171264.75000000186,"y":2546773.3200000022}},{"attributes":{"ID":168678,"DIS_CODE":0,"TOWNNAME":"永康區","LI":"大橋里","LIN":"25鄰","STREET":"大橋一街","SECT":" ","MAREA":" ","LANE":"２２３巷","ALLEY":"２弄","HOUSE_NO":"２號","E_COORD97":171231.89999999999,"N_COORD97":2546650.75,"ADDRESS":"大橋一街２２３巷２弄２號","OBJECTID":168677},"geometry":{"x":171231.90000000224,"y":2546650.7500000019}},{"attributes":{"ID":168679,"DIS_CODE":0,"TOWNNAME":"永康區","LI":"五王里","LIN":"13鄰","STREET":"中山東路","SECT":" ","MAREA":" ","LANE":"２１８巷","ALLEY":"２８弄","HOUSE_NO":"１５號","E_COORD97":171685.47,"N_COORD97":2545749.5,"ADDRESS":"中山東路２１８巷２８弄１５號","OBJECTID":168678},"geometry":{"x":171685.47000000067,"y":2545749.5}},{"attributes":{"ID":168680,"DIS_CODE":0,"TOWNNAME":"永康區","LI":"大橋里","LIN":"18鄰","STREET":"大橋一街","SECT":" ","MAREA":" ","LANE":"１３９巷","ALLEY":"４４弄","HOUSE_NO":"５３號","E_COORD97":171144.97,"N_COORD97":2546740.3999999999,"ADDRESS":"大橋一街１３９巷４４弄５３號","OBJECTID":168679},"geometry":{"x":171144.97000000067,"y":2546740.4000000004}},{"attributes":{"ID":168681,"DIS_CODE":0,"TOWNNAME":"永康區","LI":"大橋里","LIN":"20鄰","STREET":"大橋一街","SECT":" ","MAREA":" ","LANE":"１３９巷","ALLEY":"４４弄","HOUSE_NO":"７８號","E_COORD97":171108.04999999999,"N_COORD97":2546671.29,"ADDRESS":"大橋一街１３９巷４４弄７８號","OBJECTID":168680},"geometry":{"x":171108.04999999888,"y":2546671.2899999991}},{"attributes":{"ID":168682,"DIS_CODE":0,"TOWNNAME":"官田區","LI":"二鎮里","LIN":"13鄰","STREET":" ","SECT":" ","MAREA":"二鎮","LANE":" ","ALLEY":" ","HOUSE_NO":"１１０號之２３","E_COORD97":181398.63,"N_COORD97":2568143.9199999999,"ADDRESS":"二鎮１１０號之２３","OBJECTID":168681},"geometry":{"x":181398.62999999989,"y":2568143.9200000037}},{"attributes":{"ID":168683,"DIS_CODE":0,"TOWNNAME":"永康區","LI":"大橋里","LIN":"25鄰","STREET":"大橋一街","SECT":" ","MAREA":" ","LANE":"２２３巷","ALLEY":"６弄","HOUSE_NO":"８號","E_COORD97":171207.42000000001,"N_COORD97":2546713.4900000002,"ADDRESS":"大橋一街２２３巷６弄８號","OBJECTID":168682},"geometry":{"x":171207.42000000179,"y":2546713.4900000021}},{"attributes":{"ID":168684,"DIS_CODE":0,"TOWNNAME":"永康區","LI":"五王里","LIN":"13鄰","STREET":"中華二路","SECT":" ","MAREA":" ","LANE":"２０６巷","ALLEY":"６８弄","HOUSE_NO":"１２５號","E_COORD97":171673.73000000001,"N_COORD97":2545711.75,"ADDRESS":"中華二路２０６巷６８弄１２５號","OBJECTID":168683},"geometry":{"x":171673.73000000231,"y":2545711.7500000019}},{"attributes":{"ID":168685,"DIS_CODE":0,"TOWNNAME":"永康區","LI":"五王里","LIN":"13鄰","STREET":"中華二路","SECT":" ","MAREA":" ","LANE":"２０６巷","ALLEY":"６８弄","HOUSE_NO":"１３７號","E_COORD97":171674.53,"N_COORD97":2545679.4500000002,"ADDRESS":"中華二路２０６巷６８弄１３７號","OBJECTID":168684},"geometry":{"x":171674.53000000026,"y":2545679.4500000011}},{"attributes":{"ID":168686,"DIS_CODE":0,"TOWNNAME":"永康區","LI":"中興里","LIN":"24鄰","STREET":"中華路","SECT":" ","MAREA":" ","LANE":"２１６巷","ALLEY":"１２弄","HOUSE_NO":"１號之８","E_COORD97":171768.66,"N_COORD97":2545109.04,"ADDRESS":"中華路２１６巷１２弄１號之８","OBJECTID":168685},"geometry":{"x":171768.66000000015,"y":2545109.040000001}},{"attributes":{"ID":168687,"DIS_CODE":0,"TOWNNAME":"永康區","LI":"中興里","LIN":"18鄰","STREET":"中華路","SECT":" ","MAREA":" ","LANE":"２８６巷","ALLEY":"２５弄","HOUSE_NO":"６號","E_COORD97":171636.59,"N_COORD97":2545346.9900000002,"ADDRESS":"中華路２８６巷２５弄６號","OBJECTID":168686},"geometry":{"x":171636.58999999985,"y":2545346.9900000039}},{"attributes":{"ID":168688,"DIS_CODE":0,"TOWNNAME":"永康區","LI":"三合里","LIN":"18鄰","STREET":"南工街","SECT":" ","MAREA":" ","LANE":"２６７巷","ALLEY":"７弄","HOUSE_NO":"４號","E_COORD97":171914.44,"N_COORD97":2545928.5,"ADDRESS":"南工街２６７巷７弄４號","OBJECTID":168687},"geometry":{"x":171914.44000000041,"y":2545928.5}},{"attributes":{"ID":168689,"DIS_CODE":0,"TOWNNAME":"永康區","LI":"中興里","LIN":"20鄰","STREET":"中華路","SECT":" ","MAREA":" ","LANE":"２１６巷","ALLEY":"１弄","HOUSE_NO":"１４號","E_COORD97":171833.91,"N_COORD97":2545194.5,"ADDRESS":"中華路２１６巷１弄１４號","OBJECTID":168688},"geometry":{"x":171833.91000000108,"y":2545194.5000000019}},{"attributes":{"ID":168690,"DIS_CODE":0,"TOWNNAME":"官田區","LI":"二鎮里","LIN":"13鄰","STREET":" ","SECT":" ","MAREA":"二鎮","LANE":" ","ALLEY":" ","HOUSE_NO":"１１０號之２４","E_COORD97":181394.26999999999,"N_COORD97":2568143.1200000001,"ADDRESS":"二鎮１１０號之２４","OBJECTID":168689},"geometry":{"x":181394.26999999955,"y":2568143.120000001}},{"attributes":{"ID":168691,"DIS_CODE":0,"TOWNNAME":"永康區","LI":"大橋里","LIN":"26鄰","STREET":"大橋一街","SECT":" ","MAREA":" ","LANE":"２４７巷","ALLEY":"３４弄","HOUSE_NO":"９號","E_COORD97":171271.48000000001,"N_COORD97":2546778.3100000001,"ADDRESS":"大橋一街２４７巷３４弄９號","OBJECTID":168690},"geometry":{"x":171271.48000000045,"y":2546778.3100000005}},{"attributes":{"ID":168692,"DIS_CODE":0,"TOWNNAME":"永康區","LI":"大橋里","LIN":"18鄰","STREET":"大橋一街","SECT":" ","MAREA":" ","LANE":"１３９巷","ALLEY":"４４弄","HOUSE_NO":"１７號","E_COORD97":170999.32999999999,"N_COORD97":2546654.9199999999,"ADDRESS":"大橋一街１３９巷４４弄１７號","OBJECTID":168691},"geometry":{"x":170999.33000000007,"y":2546654.9199999999}},{"attributes":{"ID":168693,"DIS_CODE":0,"TOWNNAME":"永康區","LI":"大橋里","LIN":"25鄰","STREET":"大橋一街","SECT":" ","MAREA":" ","LANE":"２２３巷","ALLEY":"４弄","HOUSE_NO":"７號","E_COORD97":171225.76000000001,"N_COORD97":2546696.7400000002,"ADDRESS":"大橋一街２２３巷４弄７號","OBJECTID":168692},"geometry":{"x":171225.76000000071,"y":2546696.7400000002}},{"attributes":{"ID":168694,"DIS_CODE":0,"TOWNNAME":"永康區","LI":"大橋里","LIN":"25鄰","STREET":"大橋一街","SECT":" ","MAREA":" ","LANE":"２２３巷","ALLEY":"６弄","HOUSE_NO":"２號","E_COORD97":171195.70000000001,"N_COORD97":2546706.2400000002,"ADDRESS":"大橋一街２２３巷６弄２號","OBJECTID":168693},"geometry":{"x":171195.70000000205,"y":2546706.2400000021}},{"attributes":{"ID":168695,"DIS_CODE":0,"TOWNNAME":"柳營區","LI":"士林里","LIN":"12鄰","STREET":"柳營路","SECT":"二段","MAREA":" ","LANE":" ","ALLEY":" ","HOUSE_NO":"２３號","E_COORD97":179637.41,"N_COORD97":2575146.8300000001,"ADDRESS":"柳營路二段２３號","OBJECTID":168694},"geometry":{"x":179637.41000000015,"y":2575146.8300000019}},{"attributes":{"ID":168696,"DIS_CODE":0,"TOWNNAME":"官田區","LI":"二鎮里","LIN":"13鄰","STREET":" ","SECT":" ","MAREA":"二鎮","LANE":" ","ALLEY":" ","HOUSE_NO":"１１０號之２５","E_COORD97":181389.64000000001,"N_COORD97":2568142.7400000002,"ADDRESS":"二鎮１１０號之２５","OBJECTID":168695},"geometry":{"x":181389.63999999966,"y":2568142.7400000021}},{"attributes":{"ID":168697,"DIS_CODE":0,"TOWNNAME":"官田區","LI":"二鎮里","LIN":"13鄰","STREET":" ","SECT":" ","MAREA":"二鎮","LANE":" ","ALLEY":" ","HOUSE_NO":"１１０號之２６","E_COORD97":181379.66,"N_COORD97":2568139.3300000001,"ADDRESS":"二鎮１１０號之２６","OBJECTID":168696},"geometry":{"x":181379.66000000108,"y":2568139.3300000019}},{"attributes":{"ID":168698,"DIS_CODE":0,"TOWNNAME":"官田區","LI":"二鎮里","LIN":"13鄰","STREET":" ","SECT":" ","MAREA":"二鎮","LANE":" ","ALLEY":" ","HOUSE_NO":"１１０號之２７","E_COORD97":181375.17999999999,"N_COORD97":2568136.9500000002,"ADDRESS":"二鎮１１０號之２７","OBJECTID":168697},"geometry":{"x":181375.18000000063,"y":2568136.9500000011}},{"attributes":{"ID":168699,"DIS_CODE":0,"TOWNNAME":"官田區","LI":"二鎮里","LIN":"13鄰","STREET":" ","SECT":" ","MAREA":"二鎮","LANE":" ","ALLEY":" ","HOUSE_NO":"１１０號之２８","E_COORD97":181370.79999999999,"N_COORD97":2568135.73,"ADDRESS":"二鎮１１０號之２８","OBJECTID":168698},"geometry":{"x":181370.80000000168,"y":2568135.7300000042}},{"attributes":{"ID":168700,"DIS_CODE":0,"TOWNNAME":"柳營區","LI":"東昇里","LIN":"12鄰","STREET":" ","SECT":" ","MAREA":"柳營","LANE":" ","ALLEY":" ","HOUSE_NO":"４６３之２號","E_COORD97":180156.56,"N_COORD97":2575368.02,"ADDRESS":"柳營４６３之２號","OBJECTID":168699},"geometry":{"x":180156.55999999959,"y":2575368.0200000014}},{"attributes":{"ID":168701,"DIS_CODE":0,"TOWNNAME":"柳營區","LI":"東昇里","LIN":"12鄰","STREET":" ","SECT":" ","MAREA":"柳營","LANE":" ","ALLEY":" ","HOUSE_NO":"４６３之３號","E_COORD97":180152.35000000001,"N_COORD97":2575367.0499999998,"ADDRESS":"柳營４６３之３號","OBJECTID":168700},"geometry":{"x":180152.34999999963,"y":2575367.0500000026}},{"attributes":{"ID":168702,"DIS_CODE":0,"TOWNNAME":"柳營區","LI":"士林里","LIN":"12鄰","STREET":" ","SECT":" ","MAREA":"柳營","LANE":" ","ALLEY":" ","HOUSE_NO":"９６號","E_COORD97":179603.79000000001,"N_COORD97":2575190.21,"ADDRESS":"柳營９６號","OBJECTID":168701},"geometry":{"x":179603.79000000097,"y":2575190.2100000009}},{"attributes":{"ID":168703,"DIS_CODE":0,"TOWNNAME":"永康區","LI":"大橋里","LIN":"26鄰","STREET":"大橋一街","SECT":" ","MAREA":" ","LANE":"２４７巷","ALLEY":"３４弄","HOUSE_NO":"３號","E_COORD97":171260.84,"N_COORD97":2546771.3199999998,"ADDRESS":"大橋一街２４７巷３４弄３號","OBJECTID":168702},"geometry":{"x":171260.84000000078,"y":2546771.3200000003}},{"attributes":{"ID":168704,"DIS_CODE":0,"TOWNNAME":"柳營區","LI":"士林里","LIN":"12鄰","STREET":" ","SECT":" ","MAREA":"柳營","LANE":" ","ALLEY":" ","HOUSE_NO":"９８號","E_COORD97":179605.60999999999,"N_COORD97":2575172.6299999999,"ADDRESS":"柳營９８號","OBJECTID":168703},"geometry":{"x":179605.61000000034,"y":2575172.629999999}},{"attributes":{"ID":168705,"DIS_CODE":0,"TOWNNAME":"官田區","LI":"二鎮里","LIN":"13鄰","STREET":" ","SECT":" ","MAREA":"二鎮","LANE":" ","ALLEY":" ","HOUSE_NO":"１１０號之２９","E_COORD97":181365.87,"N_COORD97":2568134.6600000001,"ADDRESS":"二鎮１１０號之２９","OBJECTID":168704},"geometry":{"x":181365.87000000104,"y":2568134.6600000001}},{"attributes":{"ID":168706,"DIS_CODE":0,"TOWNNAME":"官田區","LI":"二鎮里","LIN":"13鄰","STREET":" ","SECT":" ","MAREA":"二鎮","LANE":" ","ALLEY":" ","HOUSE_NO":"１１０號之３０","E_COORD97":181366.91,"N_COORD97":2568111.2999999998,"ADDRESS":"二鎮１１０號之３０","OBJECTID":168705},"geometry":{"x":181366.90999999922,"y":2568111.3000000007}},{"attributes":{"ID":168707,"DIS_CODE":0,"TOWNNAME":"官田區","LI":"二鎮里","LIN":"13鄰","STREET":" ","SECT":" ","MAREA":"二鎮","LANE":" ","ALLEY":" ","HOUSE_NO":"１１０號之３１","E_COORD97":181371.48999999999,"N_COORD97":2568112.4500000002,"ADDRESS":"二鎮１１０號之３１","OBJECTID":168706},"geometry":{"x":181371.49000000022,"y":2568112.450000003}},{"attributes":{"ID":168708,"DIS_CODE":0,"TOWNNAME":"官田區","LI":"二鎮里","LIN":"13鄰","STREET":" ","SECT":" ","MAREA":"二鎮","LANE":" ","ALLEY":" ","HOUSE_NO":"１１０號之３２","E_COORD97":181375.76999999999,"N_COORD97":2568114.1299999999,"ADDRESS":"二鎮１１０號之３２","OBJECTID":168707},"geometry":{"x":181375.76999999862,"y":2568114.1299999971}},{"attributes":{"ID":168709,"DIS_CODE":0,"TOWNNAME":"官田區","LI":"二鎮里","LIN":"13鄰","STREET":" ","SECT":" ","MAREA":"二鎮","LANE":" ","ALLEY":" ","HOUSE_NO":"１１０號之３３","E_COORD97":181380.60999999999,"N_COORD97":2568115.71,"ADDRESS":"二鎮１１０號之３３","OBJECTID":168708},"geometry":{"x":181380.61000000034,"y":2568115.7100000046}},{"attributes":{"ID":168710,"DIS_CODE":0,"TOWNNAME":"官田區","LI":"二鎮里","LIN":"13鄰","STREET":" ","SECT":" ","MAREA":"二鎮","LANE":" ","ALLEY":" ","HOUSE_NO":"１１０號之３４","E_COORD97":181386.35000000001,"N_COORD97":2568116.71,"ADDRESS":"二鎮１１０號之３４","OBJECTID":168709},"geometry":{"x":181386.35000000056,"y":2568116.7100000028}},{"attributes":{"ID":168711,"DIS_CODE":0,"TOWNNAME":"官田區","LI":"二鎮里","LIN":"13鄰","STREET":" ","SECT":" ","MAREA":"二鎮","LANE":" ","ALLEY":" ","HOUSE_NO":"１１０號之３５","E_COORD97":181392.91,"N_COORD97":2568117.73,"ADDRESS":"二鎮１１０號之３５","OBJECTID":168710},"geometry":{"x":181392.91000000108,"y":2568117.7300000004}},{"attributes":{"ID":168712,"DIS_CODE":0,"TOWNNAME":"官田區","LI":"二鎮里","LIN":"13鄰","STREET":" ","SECT":" ","MAREA":"二鎮","LANE":" ","ALLEY":" ","HOUSE_NO":"１１０號之３６","E_COORD97":181400.01000000001,"N_COORD97":2568116.6099999999,"ADDRESS":"二鎮１１０號之３６","OBJECTID":168711},"geometry":{"x":181400.01000000164,"y":2568116.6099999994}},{"attributes":{"ID":168713,"DIS_CODE":0,"TOWNNAME":"官田區","LI":"二鎮里","LIN":"13鄰","STREET":" ","SECT":" ","MAREA":"二鎮","LANE":" ","ALLEY":" ","HOUSE_NO":"１１０號之３７","E_COORD97":181406.70999999999,"N_COORD97":2568117.6299999999,"ADDRESS":"二鎮１１０號之３７","OBJECTID":168712},"geometry":{"x":181406.70999999996,"y":2568117.6300000027}},{"attributes":{"ID":168714,"DIS_CODE":0,"TOWNNAME":"官田區","LI":"二鎮里","LIN":"13鄰","STREET":" ","SECT":" ","MAREA":"二鎮","LANE":" ","ALLEY":" ","HOUSE_NO":"１１０號之３８","E_COORD97":181410.57999999999,"N_COORD97":2568118.5099999998,"ADDRESS":"二鎮１１０號之３８","OBJECTID":168713},"geometry":{"x":181410.58000000101,"y":2568118.5099999998}},{"attributes":{"ID":168715,"DIS_CODE":0,"TOWNNAME":"官田區","LI":"二鎮里","LIN":"13鄰","STREET":" ","SECT":" ","MAREA":"二鎮","LANE":" ","ALLEY":" ","HOUSE_NO":"１１０號之３９","E_COORD97":181414.95000000001,"N_COORD97":2568119.1600000001,"ADDRESS":"二鎮１１０號之３９","OBJECTID":168714},"geometry":{"x":181414.95000000112,"y":2568119.160000002}},{"attributes":{"ID":168716,"DIS_CODE":0,"TOWNNAME":"官田區","LI":"二鎮里","LIN":"13鄰","STREET":" ","SECT":" ","MAREA":"二鎮","LANE":" ","ALLEY":" ","HOUSE_NO":"１１０號之３","E_COORD97":181385.84,"N_COORD97":2568193.02,"ADDRESS":"二鎮１１０號之３","OBJECTID":168715},"geometry":{"x":181385.84000000171,"y":2568193.0199999996}},{"attributes":{"ID":168717,"DIS_CODE":0,"TOWNNAME":"官田區","LI":"二鎮里","LIN":"13鄰","STREET":" ","SECT":" ","MAREA":"二鎮","LANE":" ","ALLEY":" ","HOUSE_NO":"１１０號之４０","E_COORD97":181418.95999999999,"N_COORD97":2568119.8100000001,"ADDRESS":"二鎮１１０號之４０","OBJECTID":168716},"geometry":{"x":181418.95999999903,"y":2568119.8100000024}},{"attributes":{"ID":168718,"DIS_CODE":0,"TOWNNAME":"官田區","LI":"二鎮里","LIN":"13鄰","STREET":" ","SECT":" ","MAREA":"二鎮","LANE":" ","ALLEY":" ","HOUSE_NO":"１１０號之４１","E_COORD97":181423.17000000001,"N_COORD97":2568120.4199999999,"ADDRESS":"二鎮１１０號之４１","OBJECTID":168717},"geometry":{"x":181423.17000000086,"y":2568120.4200000018}},{"attributes":{"ID":168719,"DIS_CODE":0,"TOWNNAME":"官田區","LI":"二鎮里","LIN":"13鄰","STREET":" ","SECT":" ","MAREA":"二鎮","LANE":" ","ALLEY":" ","HOUSE_NO":"１１０號之４２","E_COORD97":181427.39000000001,"N_COORD97":2568121.0499999998,"ADDRESS":"二鎮１１０號之４２","OBJECTID":168718},"geometry":{"x":181427.38999999966,"y":2568121.0500000026}},{"attributes":{"ID":168720,"DIS_CODE":0,"TOWNNAME":"官田區","LI":"二鎮里","LIN":"13鄰","STREET":" ","SECT":" ","MAREA":"二鎮","LANE":" ","ALLEY":" ","HOUSE_NO":"１１０號之４３","E_COORD97":181431.10999999999,"N_COORD97":2568121.8399999999,"ADDRESS":"二鎮１１０號之４３","OBJECTID":168719},"geometry":{"x":181431.11000000127,"y":2568121.8400000017}},{"attributes":{"ID":168721,"DIS_CODE":0,"TOWNNAME":"官田區","LI":"二鎮里","LIN":"13鄰","STREET":" ","SECT":" ","MAREA":"二鎮","LANE":" ","ALLEY":" ","HOUSE_NO":"１１０號之４４","E_COORD97":181434.69,"N_COORD97":2568122.6899999999,"ADDRESS":"二鎮１１０號之４４","OBJECTID":168720},"geometry":{"x":181434.69000000041,"y":2568122.6900000013}},{"attributes":{"ID":168722,"DIS_CODE":0,"TOWNNAME":"官田區","LI":"二鎮里","LIN":"13鄰","STREET":" ","SECT":" ","MAREA":"二鎮","LANE":" ","ALLEY":" ","HOUSE_NO":"１１０號之４５","E_COORD97":181438.92999999999,"N_COORD97":2568123.46,"ADDRESS":"二鎮１１０號之４５","OBJECTID":168721},"geometry":{"x":181438.9299999997,"y":2568123.4600000009}},{"attributes":{"ID":168723,"DIS_CODE":0,"TOWNNAME":"官田區","LI":"二鎮里","LIN":"13鄰","STREET":" ","SECT":" ","MAREA":"二鎮","LANE":" ","ALLEY":" ","HOUSE_NO":"１１０號之４６","E_COORD97":181443,"N_COORD97":2568124.46,"ADDRESS":"二鎮１１０號之４６","OBJECTID":168722},"geometry":{"x":181443.00000000093,"y":2568124.4600000046}},{"attributes":{"ID":168724,"DIS_CODE":0,"TOWNNAME":"官田區","LI":"二鎮里","LIN":"13鄰","STREET":" ","SECT":" ","MAREA":"二鎮","LANE":" ","ALLEY":" ","HOUSE_NO":"１１０號之４７","E_COORD97":181435.66,"N_COORD97":2568101.3500000001,"ADDRESS":"二鎮１１０號之４７","OBJECTID":168723},"geometry":{"x":181435.66000000108,"y":2568101.3500000015}},{"attributes":{"ID":168725,"DIS_CODE":0,"TOWNNAME":"官田區","LI":"二鎮里","LIN":"13鄰","STREET":" ","SECT":" ","MAREA":"二鎮","LANE":" ","ALLEY":" ","HOUSE_NO":"１１０號之４","E_COORD97":181381.85999999999,"N_COORD97":2568191.4500000002,"ADDRESS":"二鎮１１０號之４","OBJECTID":168724},"geometry":{"x":181381.86000000127,"y":2568191.4500000011}},{"attributes":{"ID":168726,"DIS_CODE":0,"TOWNNAME":"官田區","LI":"二鎮里","LIN":"13鄰","STREET":" ","SECT":" ","MAREA":"二鎮","LANE":" ","ALLEY":" ","HOUSE_NO":"１１０號之５１","E_COORD97":181432.64000000001,"N_COORD97":2568158.3300000001,"ADDRESS":"二鎮１１０號之５１","OBJECTID":168725},"geometry":{"x":181432.63999999966,"y":2568158.3300000038}},{"attributes":{"ID":168727,"DIS_CODE":0,"TOWNNAME":"永康區","LI":"大橋里","LIN":"25鄰","STREET":"大橋一街","SECT":" ","MAREA":" ","LANE":"２２３巷","ALLEY":"２弄","HOUSE_NO":"７號","E_COORD97":171238.26000000001,"N_COORD97":2546668.4900000002,"ADDRESS":"大橋一街２２３巷２弄７號","OBJECTID":168726},"geometry":{"x":171238.25999999978,"y":2546668.4900000002}},{"attributes":{"ID":168728,"DIS_CODE":0,"TOWNNAME":"永康區","LI":"大橋里","LIN":"26鄰","STREET":"大橋一街","SECT":" ","MAREA":" ","LANE":"２４７巷","ALLEY":"５４弄","HOUSE_NO":"１號","E_COORD97":171246.54999999999,"N_COORD97":2546785.75,"ADDRESS":"大橋一街２４７巷５４弄１號","OBJECTID":168727},"geometry":{"x":171246.54999999981,"y":2546785.7500000037}},{"attributes":{"ID":168729,"DIS_CODE":0,"TOWNNAME":"永康區","LI":"五王里","LIN":"13鄰","STREET":"中華二路","SECT":" ","MAREA":" ","LANE":"２０６巷","ALLEY":"６８弄","HOUSE_NO":"１３５號","E_COORD97":171678.51999999999,"N_COORD97":2545693,"ADDRESS":"中華二路２０６巷６８弄１３５號","OBJECTID":168728},"geometry":{"x":171678.51999999955,"y":2545693.0000000019}},{"attributes":{"ID":168730,"DIS_CODE":0,"TOWNNAME":"永康區","LI":"五王里","LIN":"34鄰","STREET":"中華路","SECT":" ","MAREA":" ","LANE":"５７８巷","ALLEY":"１０弄","HOUSE_NO":"１２號","E_COORD97":171350.85000000001,"N_COORD97":2545931.25,"ADDRESS":"中華路５７８巷１０弄１２號","OBJECTID":168729},"geometry":{"x":171350.85000000056,"y":2545931.2500000037}},{"attributes":{"ID":168731,"DIS_CODE":0,"TOWNNAME":"永康區","LI":"大橋里","LIN":"18鄰","STREET":"大橋一街","SECT":" ","MAREA":" ","LANE":"１３９巷","ALLEY":"４４弄","HOUSE_NO":"２１號","E_COORD97":170994.09,"N_COORD97":2546663.1499999999,"ADDRESS":"大橋一街１３９巷４４弄２１號","OBJECTID":168730},"geometry":{"x":170994.08999999985,"y":2546663.1500000004}},{"attributes":{"ID":168732,"DIS_CODE":0,"TOWNNAME":"永康區","LI":"大橋里","LIN":"26鄰","STREET":"大橋一街","SECT":" ","MAREA":" ","LANE":"２４７巷","ALLEY":"５４弄","HOUSE_NO":"３號","E_COORD97":171251.81,"N_COORD97":2546789.5699999998,"ADDRESS":"大橋一街２４７巷５４弄３號","OBJECTID":168731},"geometry":{"x":171251.80999999866,"y":2546789.5700000003}},{"attributes":{"ID":168733,"DIS_CODE":0,"TOWNNAME":"永康區","LI":"大橋里","LIN":"25鄰","STREET":"大橋一街","SECT":" ","MAREA":" ","LANE":"２２３巷","ALLEY":"２弄","HOUSE_NO":"８號","E_COORD97":171244.12,"N_COORD97":2546659.5,"ADDRESS":"大橋一街２２３巷２弄８號","OBJECTID":168732},"geometry":{"x":171244.12000000104,"y":2546659.5000000019}},{"attributes":{"ID":168734,"DIS_CODE":0,"TOWNNAME":"柳營區","LI":"人和里","LIN":"12鄰","STREET":" ","SECT":" ","MAREA":"橋南","LANE":" ","ALLEY":" ","HOUSE_NO":"２０２之１號","E_COORD97":179638.54000000001,"N_COORD97":2576740.3599999999,"ADDRESS":"橋南２０２之１號","OBJECTID":168733},"geometry":{"x":179638.53999999911,"y":2576740.3599999994}},{"attributes":{"ID":168735,"DIS_CODE":0,"TOWNNAME":"柳營區","LI":"人和里","LIN":"12鄰","STREET":" ","SECT":" ","MAREA":"橋南","LANE":" ","ALLEY":" ","HOUSE_NO":"２０２號之１","E_COORD97":179638.54000000001,"N_COORD97":2576740.3599999999,"ADDRESS":"橋南２０２號之１","OBJECTID":168734},"geometry":{"x":179638.53999999911,"y":2576740.3599999994}},{"attributes":{"ID":168736,"DIS_CODE":0,"TOWNNAME":"柳營區","LI":"人和里","LIN":"12鄰","STREET":" ","SECT":" ","MAREA":"橋南","LANE":" ","ALLEY":" ","HOUSE_NO":"２０３號之１","E_COORD97":179619.60999999999,"N_COORD97":2576764.8999999999,"ADDRESS":"橋南２０３號之１","OBJECTID":168735},"geometry":{"x":179619.61000000034,"y":2576764.9000000004}},{"attributes":{"ID":168737,"DIS_CODE":0,"TOWNNAME":"官田區","LI":"二鎮里","LIN":"13鄰","STREET":" ","SECT":" ","MAREA":"二鎮","LANE":" ","ALLEY":" ","HOUSE_NO":"１１０號之５","E_COORD97":181378.14000000001,"N_COORD97":2568190.1299999999,"ADDRESS":"二鎮１１０號之５","OBJECTID":168736},"geometry":{"x":181378.13999999966,"y":2568190.1300000008}},{"attributes":{"ID":168738,"DIS_CODE":0,"TOWNNAME":"官田區","LI":"二鎮里","LIN":"13鄰","STREET":" ","SECT":" ","MAREA":"二鎮","LANE":" ","ALLEY":" ","HOUSE_NO":"１１０號之６","E_COORD97":181374.01999999999,"N_COORD97":2568188.54,"ADDRESS":"二鎮１１０號之６","OBJECTID":168737},"geometry":{"x":181374.01999999862,"y":2568188.5399999991}},{"attributes":{"ID":168739,"DIS_CODE":0,"TOWNNAME":"官田區","LI":"二鎮里","LIN":"13鄰","STREET":" ","SECT":" ","MAREA":"二鎮","LANE":" ","ALLEY":" ","HOUSE_NO":"１１０號之７","E_COORD97":181366.20999999999,"N_COORD97":2568182.48,"ADDRESS":"二鎮１１０號之７","OBJECTID":168738},"geometry":{"x":181366.20999999996,"y":2568182.4800000023}},{"attributes":{"ID":168740,"DIS_CODE":0,"TOWNNAME":"官田區","LI":"二鎮里","LIN":"13鄰","STREET":" ","SECT":" ","MAREA":"二鎮","LANE":" ","ALLEY":" ","HOUSE_NO":"１１０號之８","E_COORD97":181361.79999999999,"N_COORD97":2568181.1099999999,"ADDRESS":"二鎮１１０號之８","OBJECTID":168739},"geometry":{"x":181361.79999999981,"y":2568181.1099999994}},{"attributes":{"ID":168741,"DIS_CODE":0,"TOWNNAME":"官田區","LI":"二鎮里","LIN":"13鄰","STREET":" ","SECT":" ","MAREA":"二鎮","LANE":" ","ALLEY":" ","HOUSE_NO":"１１０號之９","E_COORD97":181370.10999999999,"N_COORD97":2568159.3799999999,"ADDRESS":"二鎮１１０號之９","OBJECTID":168740},"geometry":{"x":181370.11000000127,"y":2568159.379999999}},{"attributes":{"ID":168742,"DIS_CODE":0,"TOWNNAME":"官田區","LI":"二鎮里","LIN":"13鄰","STREET":" ","SECT":" ","MAREA":"二鎮","LANE":" ","ALLEY":" ","HOUSE_NO":"１１０號","E_COORD97":181406.41,"N_COORD97":2568193.4199999999,"ADDRESS":"二鎮１１０號","OBJECTID":168741},"geometry":{"x":181406.41000000108,"y":2568193.4199999999}},{"attributes":{"ID":168743,"DIS_CODE":0,"TOWNNAME":"官田區","LI":"二鎮里","LIN":"13鄰","STREET":" ","SECT":" ","MAREA":"二鎮","LANE":" ","ALLEY":" ","HOUSE_NO":"１１１號之１","E_COORD97":181421.20000000001,"N_COORD97":2568186.23,"ADDRESS":"二鎮１１１號之１","OBJECTID":168742},"geometry":{"x":181421.20000000112,"y":2568186.2299999986}},{"attributes":{"ID":168744,"DIS_CODE":0,"TOWNNAME":"永康區","LI":"五王里","LIN":"13鄰","STREET":"中華二路","SECT":" ","MAREA":" ","LANE":"２０６巷","ALLEY":"６８弄","HOUSE_NO":"１２７號","E_COORD97":171674.59,"N_COORD97":2545708,"ADDRESS":"中華二路２０６巷６８弄１２７號","OBJECTID":168743},"geometry":{"x":171674.59000000078,"y":2545708}},{"attributes":{"ID":168745,"DIS_CODE":0,"TOWNNAME":"永康區","LI":"中興里","LIN":"25鄰","STREET":"中華路","SECT":" ","MAREA":" ","LANE":"２１６巷","ALLEY":"１弄","HOUSE_NO":"１號之９","E_COORD97":171753.92000000001,"N_COORD97":2545185.8700000001,"ADDRESS":"中華路２１６巷１弄１號之９","OBJECTID":168744},"geometry":{"x":171753.92000000086,"y":2545185.8700000048}},{"attributes":{"ID":168746,"DIS_CODE":0,"TOWNNAME":"永康區","LI":"大橋里","LIN":"25鄰","STREET":"大橋一街","SECT":" ","MAREA":" ","LANE":"２２３巷","ALLEY":"４弄","HOUSE_NO":"９號","E_COORD97":171228.70999999999,"N_COORD97":2546700.4900000002,"ADDRESS":"大橋一街２２３巷４弄９號","OBJECTID":168745},"geometry":{"x":171228.70999999996,"y":2546700.4900000021}},{"attributes":{"ID":168747,"DIS_CODE":0,"TOWNNAME":"永康區","LI":"大橋里","LIN":"18鄰","STREET":"大橋一街","SECT":" ","MAREA":" ","LANE":"１３９巷","ALLEY":"４４弄","HOUSE_NO":"３５號","E_COORD97":171018.63,"N_COORD97":2546653.9199999999,"ADDRESS":"大橋一街１３９巷４４弄３５號","OBJECTID":168746},"geometry":{"x":171018.63000000082,"y":2546653.9200000018}},{"attributes":{"ID":168748,"DIS_CODE":0,"TOWNNAME":"永康區","LI":"中興里","LIN":"20鄰","STREET":"中華路","SECT":" ","MAREA":" ","LANE":"２１６巷","ALLEY":"１弄","HOUSE_NO":"４號","E_COORD97":171792.54999999999,"N_COORD97":2545191,"ADDRESS":"中華路２１６巷１弄４號","OBJECTID":168747},"geometry":{"x":171792.54999999981,"y":2545191.0000000019}},{"attributes":{"ID":168749,"DIS_CODE":0,"TOWNNAME":"永康區","LI":"大橋里","LIN":"25鄰","STREET":"大橋一街","SECT":" ","MAREA":" ","LANE":"２２３巷","ALLEY":"２弄","HOUSE_NO":"１號","E_COORD97":171226.37,"N_COORD97":2546659.75,"ADDRESS":"大橋一街２２３巷２弄１號","OBJECTID":168748},"geometry":{"x":171226.37000000011,"y":2546659.75}},{"attributes":{"ID":168750,"DIS_CODE":0,"TOWNNAME":"永康區","LI":"大橋里","LIN":"25鄰","STREET":"大橋一街","SECT":" ","MAREA":" ","LANE":"２２３巷","ALLEY":"４弄","HOUSE_NO":"８號","E_COORD97":171232.26000000001,"N_COORD97":2546689.7400000002,"ADDRESS":"大橋一街２２３巷４弄８號","OBJECTID":168749},"geometry":{"x":171232.26000000164,"y":2546689.7400000002}},{"attributes":{"ID":168751,"DIS_CODE":0,"TOWNNAME":"永康區","LI":"大橋里","LIN":"20鄰","STREET":"大橋一街","SECT":" ","MAREA":" ","LANE":"１３９巷","ALLEY":"４４弄","HOUSE_NO":"６２號","E_COORD97":171095.20000000001,"N_COORD97":2546690.0800000001,"ADDRESS":"大橋一街１３９巷４４弄６２號","OBJECTID":168750},"geometry":{"x":171095.20000000019,"y":2546690.0800000019}},{"attributes":{"ID":168752,"DIS_CODE":0,"TOWNNAME":"永康區","LI":"大橋里","LIN":"25鄰","STREET":"大橋一街","SECT":" ","MAREA":" ","LANE":"２２３巷","ALLEY":"２弄","HOUSE_NO":"６號","E_COORD97":171240.32000000001,"N_COORD97":2546657.25,"ADDRESS":"大橋一街２２３巷２弄６號","OBJECTID":168751},"geometry":{"x":171240.3200000003,"y":2546657.2500000019}},{"attributes":{"ID":168753,"DIS_CODE":0,"TOWNNAME":"永康區","LI":"大橋里","LIN":"18鄰","STREET":"大橋一街","SECT":" ","MAREA":" ","LANE":"１３９巷","ALLEY":"４４弄","HOUSE_NO":"３號","E_COORD97":170973.72,"N_COORD97":2546655.1699999999,"ADDRESS":"大橋一街１３９巷４４弄３號","OBJECTID":168752},"geometry":{"x":170973.72000000067,"y":2546655.1700000018}},{"attributes":{"ID":168754,"DIS_CODE":0,"TOWNNAME":"永康區","LI":"中興里","LIN":"20鄰","STREET":"中華路","SECT":" ","MAREA":" ","LANE":"２１６巷","ALLEY":"３５弄","HOUSE_NO":"６號","E_COORD97":171856.51999999999,"N_COORD97":2545196.5,"ADDRESS":"中華路２１６巷３５弄６號","OBJECTID":168753},"geometry":{"x":171856.51999999955,"y":2545196.5}},{"attributes":{"ID":168755,"DIS_CODE":0,"TOWNNAME":"永康區","LI":"中興里","LIN":"25鄰","STREET":"中華路","SECT":" ","MAREA":" ","LANE":"２８０巷","ALLEY":"１８弄","HOUSE_NO":"１號","E_COORD97":171720.04000000001,"N_COORD97":2545178.75,"ADDRESS":"中華路２８０巷１８弄１號","OBJECTID":168754},"geometry":{"x":171720.04000000004,"y":2545178.7500000037}},{"attributes":{"ID":168756,"DIS_CODE":0,"TOWNNAME":"永康區","LI":"中興里","LIN":"20鄰","STREET":"中華路","SECT":" ","MAREA":" ","LANE":"２１６巷","ALLEY":"３５弄","HOUSE_NO":"１９號","E_COORD97":171884.85000000001,"N_COORD97":2545211.5,"ADDRESS":"中華路２１６巷３５弄１９號","OBJECTID":168755},"geometry":{"x":171884.85000000056,"y":2545211.5000000019}},{"attributes":{"ID":168757,"DIS_CODE":0,"TOWNNAME":"永康區","LI":"大橋里","LIN":"20鄰","STREET":"大橋一街","SECT":" ","MAREA":" ","LANE":"１３９巷","ALLEY":"２２弄","HOUSE_NO":"７９號之３","E_COORD97":171094.04000000001,"N_COORD97":2546621.5899999999,"ADDRESS":"大橋一街１３９巷２２弄７９號之３","OBJECTID":168756},"geometry":{"x":171094.04000000097,"y":2546621.5900000017}},{"attributes":{"ID":168758,"DIS_CODE":0,"TOWNNAME":"永康區","LI":"二王里","LIN":"46鄰","STREET":"南工街","SECT":" ","MAREA":" ","LANE":"２１２巷","ALLEY":"７弄","HOUSE_NO":"１１號","E_COORD97":172093.53,"N_COORD97":2546011.8500000001,"ADDRESS":"南工街２１２巷７弄１１號","OBJECTID":168757},"geometry":{"x":172093.52999999933,"y":2546011.8500000034}},{"attributes":{"ID":168759,"DIS_CODE":0,"TOWNNAME":"永康區","LI":"三合里","LIN":"18鄰","STREET":"南工街","SECT":" ","MAREA":" ","LANE":"２６７巷","ALLEY":"１７弄","HOUSE_NO":"１號","E_COORD97":171906.26000000001,"N_COORD97":2545908,"ADDRESS":"南工街２６７巷１７弄１號","OBJECTID":168758},"geometry":{"x":171906.25999999978,"y":2545908}},{"attributes":{"ID":168760,"DIS_CODE":0,"TOWNNAME":"永康區","LI":"中興里","LIN":"20鄰","STREET":"中華路","SECT":" ","MAREA":" ","LANE":"２１６巷","ALLEY":"３５弄","HOUSE_NO":"１５號","E_COORD97":171872.70999999999,"N_COORD97":2545210,"ADDRESS":"中華路２１６巷３５弄１５號","OBJECTID":168759},"geometry":{"x":171872.70999999996,"y":2545210}},{"attributes":{"ID":168761,"DIS_CODE":0,"TOWNNAME":"永康區","LI":"大灣里","LIN":"13鄰","STREET":"大灣路","SECT":" ","MAREA":" ","LANE":"２１５巷","ALLEY":"２４弄","HOUSE_NO":"６號","E_COORD97":175070.66,"N_COORD97":2545259.8900000001,"ADDRESS":"大灣路２１５巷２４弄６號","OBJECTID":168760},"geometry":{"x":175070.66000000015,"y":2545259.8900000043}},{"attributes":{"ID":168762,"DIS_CODE":0,"TOWNNAME":"永康區","LI":"中興里","LIN":"24鄰","STREET":"中華路","SECT":" ","MAREA":" ","LANE":"２１６巷","ALLEY":"１２弄","HOUSE_NO":"１號之１０","E_COORD97":171779.01999999999,"N_COORD97":2545109.79,"ADDRESS":"中華路２１６巷１２弄１號之１０","OBJECTID":168761},"geometry":{"x":171779.01999999955,"y":2545109.7900000028}},{"attributes":{"ID":168763,"DIS_CODE":0,"TOWNNAME":"歸仁區","LI":"大廟里","LIN":"12鄰","STREET":"保大路","SECT":"三段","MAREA":" ","LANE":" ","ALLEY":" ","HOUSE_NO":"１３６號","E_COORD97":176082.67000000001,"N_COORD97":2544118.2799999998,"ADDRESS":"保大路三段１３６號","OBJECTID":168762},"geometry":{"x":176082.66999999993,"y":2544118.2799999993}},{"attributes":{"ID":168764,"DIS_CODE":0,"TOWNNAME":"永康區","LI":"五王里","LIN":"4鄰","STREET":"中華二路","SECT":" ","MAREA":" ","LANE":"２０６巷","ALLEY":"３０弄","HOUSE_NO":"２９號","E_COORD97":171699.95000000001,"N_COORD97":2545593.6800000002,"ADDRESS":"中華二路２０６巷３０弄２９號","OBJECTID":168763},"geometry":{"x":171699.95000000112,"y":2545593.6800000016}},{"attributes":{"ID":168765,"DIS_CODE":0,"TOWNNAME":"永康區","LI":"二王里","LIN":"38鄰","STREET":"中山南路","SECT":" ","MAREA":" ","LANE":"４９０巷","ALLEY":"１２弄","HOUSE_NO":"７７號","E_COORD97":172254.03,"N_COORD97":2546265.27,"ADDRESS":"中山南路４９０巷１２弄７７號","OBJECTID":168764},"geometry":{"x":172254.03000000026,"y":2546265.2699999996}},{"attributes":{"ID":168766,"DIS_CODE":0,"TOWNNAME":"永康區","LI":"大橋里","LIN":"26鄰","STREET":"大橋一街","SECT":" ","MAREA":" ","LANE":"２４７巷","ALLEY":"３４弄","HOUSE_NO":"１１號","E_COORD97":171275.89000000001,"N_COORD97":2546780.5699999998,"ADDRESS":"大橋一街２４７巷３４弄１１號","OBJECTID":168765},"geometry":{"x":171275.8900000006,"y":2546780.570000004}},{"attributes":{"ID":168767,"DIS_CODE":0,"TOWNNAME":"永康區","LI":"二王里","LIN":"32鄰","STREET":"中山南路","SECT":" ","MAREA":" ","LANE":"５１０巷","ALLEY":"３４弄","HOUSE_NO":"４號","E_COORD97":172160.41,"N_COORD97":2546408.02,"ADDRESS":"中山南路５１０巷３４弄４號","OBJECTID":168766},"geometry":{"x":172160.41000000201,"y":2546408.0200000014}},{"attributes":{"ID":168768,"DIS_CODE":0,"TOWNNAME":"永康區","LI":"二王里","LIN":"38鄰","STREET":"中山南路","SECT":" ","MAREA":" ","LANE":"４９０巷","ALLEY":"１２弄","HOUSE_NO":"６５號","E_COORD97":172236.81,"N_COORD97":2546280.0899999999,"ADDRESS":"中山南路４９０巷１２弄６５號","OBJECTID":168767},"geometry":{"x":172236.81000000145,"y":2546280.0899999999}},{"attributes":{"ID":168769,"DIS_CODE":0,"TOWNNAME":"永康區","LI":"二王里","LIN":"18鄰","STREET":"忠孝路","SECT":" ","MAREA":" ","LANE":"４６１巷","ALLEY":"２弄","HOUSE_NO":"６號","E_COORD97":172449.76000000001,"N_COORD97":2546659.9100000001,"ADDRESS":"忠孝路４６１巷２弄６號","OBJECTID":168768},"geometry":{"x":172449.76000000071,"y":2546659.910000002}},{"attributes":{"ID":168770,"DIS_CODE":0,"TOWNNAME":"永康區","LI":"中興里","LIN":"20鄰","STREET":"中華路","SECT":" ","MAREA":" ","LANE":"２１６巷","ALLEY":"１弄","HOUSE_NO":"１０號","E_COORD97":171817.85000000001,"N_COORD97":2545193.25,"ADDRESS":"中華路２１６巷１弄１０號","OBJECTID":168769},"geometry":{"x":171817.85000000149,"y":2545193.2500000019}},{"attributes":{"ID":168771,"DIS_CODE":0,"TOWNNAME":"永康區","LI":"二王里","LIN":"25鄰","STREET":"中山南路","SECT":" ","MAREA":" ","LANE":"５４４巷","ALLEY":"１０３弄","HOUSE_NO":"１０號","E_COORD97":172361.69,"N_COORD97":2546227.9199999999,"ADDRESS":"中山南路５４４巷１０３弄１０號","OBJECTID":168770},"geometry":{"x":172361.69000000041,"y":2546227.9199999999}},{"attributes":{"ID":168772,"DIS_CODE":0,"TOWNNAME":"永康區","LI":"王行里","LIN":"4鄰","STREET":"育樂街","SECT":" ","MAREA":" ","LANE":"１０４巷","ALLEY":"４９弄","HOUSE_NO":"１６號","E_COORD97":175150.32000000001,"N_COORD97":2548488.6800000002,"ADDRESS":"育樂街１０４巷４９弄１６號","OBJECTID":168771},"geometry":{"x":175150.32000000123,"y":2548488.6800000016}},{"attributes":{"ID":168773,"DIS_CODE":0,"TOWNNAME":"永康區","LI":"二王里","LIN":"20鄰","STREET":"中山南路","SECT":" ","MAREA":" ","LANE":"６４４巷","ALLEY":"２２弄","HOUSE_NO":"１５號","E_COORD97":172351.81,"N_COORD97":2546608.1000000001,"ADDRESS":"中山南路６４４巷２２弄１５號","OBJECTID":168772},"geometry":{"x":172351.80999999959,"y":2546608.1000000015}},{"attributes":{"ID":168774,"DIS_CODE":0,"TOWNNAME":"永康區","LI":"二王里","LIN":"42鄰","STREET":"中山南路","SECT":" ","MAREA":" ","LANE":"３１６巷","ALLEY":"２６弄","HOUSE_NO":"１５號","E_COORD97":172022.29000000001,"N_COORD97":2546094.46,"ADDRESS":"中山南路３１６巷２６弄１５號","OBJECTID":168773},"geometry":{"x":172022.2900000019,"y":2546094.4600000028}},{"attributes":{"ID":168775,"DIS_CODE":0,"TOWNNAME":"永康區","LI":"二王里","LIN":"38鄰","STREET":"中山南路","SECT":" ","MAREA":" ","LANE":"４９０巷","ALLEY":"１２弄","HOUSE_NO":"５７號","E_COORD97":172220.73999999999,"N_COORD97":2546280.5899999999,"ADDRESS":"中山南路４９０巷１２弄５７號","OBJECTID":168774},"geometry":{"x":172220.74000000022,"y":2546280.5899999999}},{"attributes":{"ID":168776,"DIS_CODE":0,"TOWNNAME":"永康區","LI":"大橋里","LIN":"20鄰","STREET":"大橋一街","SECT":" ","MAREA":" ","LANE":"１３９巷","ALLEY":"４４弄","HOUSE_NO":"７４號","E_COORD97":171098.20000000001,"N_COORD97":2546665.04,"ADDRESS":"大橋一街１３９巷４４弄７４號","OBJECTID":168775},"geometry":{"x":171098.20000000112,"y":2546665.040000001}},{"attributes":{"ID":168777,"DIS_CODE":0,"TOWNNAME":"永康區","LI":"二王里","LIN":"26鄰","STREET":"中山南路","SECT":" ","MAREA":" ","LANE":"５４４巷","ALLEY":"１２１弄","HOUSE_NO":"８號","E_COORD97":172354.54000000001,"N_COORD97":2546190,"ADDRESS":"中山南路５４４巷１２１弄８號","OBJECTID":168776},"geometry":{"x":172354.5400000019,"y":2546190}},{"attributes":{"ID":168778,"DIS_CODE":0,"TOWNNAME":"永康區","LI":"二王里","LIN":"42鄰","STREET":"中山南路","SECT":" ","MAREA":" ","LANE":"３１６巷","ALLEY":"２６弄","HOUSE_NO":"１９號","E_COORD97":172020.04000000001,"N_COORD97":2546082.4500000002,"ADDRESS":"中山南路３１６巷２６弄１９號","OBJECTID":168777},"geometry":{"x":172020.04000000004,"y":2546082.4500000011}},{"attributes":{"ID":168779,"DIS_CODE":0,"TOWNNAME":"永康區","LI":"大橋里","LIN":"20鄰","STREET":"大橋一街","SECT":" ","MAREA":" ","LANE":"１３９巷","ALLEY":"４４弄","HOUSE_NO":"５４號","E_COORD97":171068.22,"N_COORD97":2546671.29,"ADDRESS":"大橋一街１３９巷４４弄５４號","OBJECTID":168778},"geometry":{"x":171068.22000000067,"y":2546671.2899999991}},{"attributes":{"ID":168780,"DIS_CODE":0,"TOWNNAME":"永康區","LI":"大橋里","LIN":"20鄰","STREET":"大橋一街","SECT":" ","MAREA":" ","LANE":"１３９巷","ALLEY":"４４弄","HOUSE_NO":"６４號","E_COORD97":171104.09,"N_COORD97":2546677.7799999998,"ADDRESS":"大橋一街１３９巷４４弄６４號","OBJECTID":168779},"geometry":{"x":171104.08999999985,"y":2546677.7800000012}},{"attributes":{"ID":168781,"DIS_CODE":0,"TOWNNAME":"永康區","LI":"二王里","LIN":"46鄰","STREET":"南工街","SECT":" ","MAREA":" ","LANE":"２１２巷","ALLEY":"７弄","HOUSE_NO":"１６號","E_COORD97":172082.70999999999,"N_COORD97":2546022.4500000002,"ADDRESS":"南工街２１２巷７弄１６號","OBJECTID":168780},"geometry":{"x":172082.71000000089,"y":2546022.4499999993}},{"attributes":{"ID":168782,"DIS_CODE":0,"TOWNNAME":"永康區","LI":"中興里","LIN":"20鄰","STREET":"中華路","SECT":" ","MAREA":" ","LANE":"２１６巷","ALLEY":"３５弄","HOUSE_NO":"１１號","E_COORD97":171864.92999999999,"N_COORD97":2545209.5,"ADDRESS":"中華路２１６巷３５弄１１號","OBJECTID":168781},"geometry":{"x":171864.93000000156,"y":2545209.5}},{"attributes":{"ID":168783,"DIS_CODE":0,"TOWNNAME":"永康區","LI":"二王里","LIN":"26鄰","STREET":"中山南路","SECT":" ","MAREA":" ","LANE":"５４４巷","ALLEY":"１２１弄","HOUSE_NO":"３號","E_COORD97":172347.94,"N_COORD97":2546202.4700000002,"ADDRESS":"中山南路５４４巷１２１弄３號","OBJECTID":168782},"geometry":{"x":172347.94000000041,"y":2546202.4700000025}},{"attributes":{"ID":168784,"DIS_CODE":0,"TOWNNAME":"永康區","LI":"勝利里","LIN":"25鄰","STREET":"中華路","SECT":" ","MAREA":" ","LANE":"１５５巷","ALLEY":"３４弄","HOUSE_NO":"２１號","E_COORD97":171457.39999999999,"N_COORD97":2544800.1499999999,"ADDRESS":"中華路１５５巷３４弄２１號","OBJECTID":168783},"geometry":{"x":171457.40000000224,"y":2544800.1500000041}},{"attributes":{"ID":168785,"DIS_CODE":0,"TOWNNAME":"永康區","LI":"勝利里","LIN":"26鄰","STREET":"中華路","SECT":" ","MAREA":" ","LANE":"１２１巷","ALLEY":"２１弄","HOUSE_NO":"１１號","E_COORD97":171505.45000000001,"N_COORD97":2544699.4900000002,"ADDRESS":"中華路１２１巷２１弄１１號","OBJECTID":168784},"geometry":{"x":171505.45000000019,"y":2544699.4900000039}},{"attributes":{"ID":168786,"DIS_CODE":0,"TOWNNAME":"永康區","LI":"崑山里","LIN":"26鄰","STREET":"大灣路","SECT":" ","MAREA":" ","LANE":"９４２巷","ALLEY":"７１弄","HOUSE_NO":"２號","E_COORD97":173641.92999999999,"N_COORD97":2544652,"ADDRESS":"大灣路９４２巷７１弄２號","OBJECTID":168785},"geometry":{"x":173641.93000000063,"y":2544652.0000000019}},{"attributes":{"ID":168787,"DIS_CODE":0,"TOWNNAME":"永康區","LI":"勝利里","LIN":"25鄰","STREET":"中華路","SECT":" ","MAREA":" ","LANE":"１５５巷","ALLEY":"３４弄","HOUSE_NO":"２號之３","E_COORD97":171479.72,"N_COORD97":2544860.7999999998,"ADDRESS":"中華路１５５巷３４弄２號之３","OBJECTID":168786},"geometry":{"x":171479.71999999974,"y":2544860.8000000026}},{"attributes":{"ID":168788,"DIS_CODE":0,"TOWNNAME":"永康區","LI":"崑山里","LIN":"18鄰","STREET":"大灣路","SECT":" ","MAREA":" ","LANE":"９４２巷","ALLEY":"１６弄","HOUSE_NO":"３號","E_COORD97":173667.84,"N_COORD97":2544484.25,"ADDRESS":"大灣路９４２巷１６弄３號","OBJECTID":168787},"geometry":{"x":173667.84000000078,"y":2544484.2500000019}},{"attributes":{"ID":168789,"DIS_CODE":0,"TOWNNAME":"安南區","LI":"原佃里","LIN":"4鄰","STREET":"本原街","SECT":"一段","MAREA":" ","LANE":"７６巷","ALLEY":"１１弄","HOUSE_NO":"１０號","E_COORD97":168022.87,"N_COORD97":2550243.02,"ADDRESS":"本原街一段７６巷１１弄１０號","OBJECTID":168788},"geometry":{"x":168022.87000000197,"y":2550243.0200000014}},{"attributes":{"ID":168790,"DIS_CODE":0,"TOWNNAME":"安南區","LI":"原佃里","LIN":"4鄰","STREET":"本原街","SECT":"一段","MAREA":" ","LANE":"７６巷","ALLEY":"１１弄","HOUSE_NO":"２號","E_COORD97":168040.60000000001,"N_COORD97":2550242.8599999999,"ADDRESS":"本原街一段７６巷１１弄２號","OBJECTID":168789},"geometry":{"x":168040.59999999963,"y":2550242.8600000013}},{"attributes":{"ID":168791,"DIS_CODE":0,"TOWNNAME":"北門區","LI":"北門里","LIN":"16鄰","STREET":" ","SECT":" ","MAREA":"舊埕","LANE":" ","ALLEY":" ","HOUSE_NO":"５２號","E_COORD97":160511.35999999999,"N_COORD97":2574081.0899999999,"ADDRESS":"舊埕５２號","OBJECTID":168790},"geometry":{"x":160511.36000000034,"y":2574081.0899999999}},{"attributes":{"ID":168792,"DIS_CODE":0,"TOWNNAME":"安南區","LI":"原佃里","LIN":"4鄰","STREET":"本原街","SECT":"一段","MAREA":" ","LANE":"７６巷","ALLEY":"１１弄","HOUSE_NO":"４號","E_COORD97":168036.34,"N_COORD97":2550242.77,"ADDRESS":"本原街一段７６巷１１弄４號","OBJECTID":168791},"geometry":{"x":168036.34000000171,"y":2550242.7699999996}},{"attributes":{"ID":168793,"DIS_CODE":0,"TOWNNAME":"安南區","LI":"原佃里","LIN":"4鄰","STREET":"本原街","SECT":"一段","MAREA":" ","LANE":"７６巷","ALLEY":"１１弄","HOUSE_NO":"６號","E_COORD97":168031.82000000001,"N_COORD97":2550243.6299999999,"ADDRESS":"本原街一段７６巷１１弄６號","OBJECTID":168792},"geometry":{"x":168031.82000000216,"y":2550243.6300000027}},{"attributes":{"ID":168794,"DIS_CODE":0,"TOWNNAME":"安南區","LI":"原佃里","LIN":"4鄰","STREET":"本原街","SECT":"一段","MAREA":" ","LANE":"７６巷","ALLEY":"１１弄","HOUSE_NO":"８號","E_COORD97":168027.56,"N_COORD97":2550243.29,"ADDRESS":"本原街一段７６巷１１弄８號","OBJECTID":168793},"geometry":{"x":168027.55999999866,"y":2550243.290000001}},{"attributes":{"ID":168795,"DIS_CODE":0,"TOWNNAME":"安南區","LI":"原佃里","LIN":"4鄰","STREET":"本原街","SECT":"一段","MAREA":" ","LANE":"９４巷","ALLEY":"１７弄","HOUSE_NO":"１號","E_COORD97":167957.03,"N_COORD97":2550181.3300000001,"ADDRESS":"本原街一段９４巷１７弄１號","OBJECTID":168794},"geometry":{"x":167957.03000000026,"y":2550181.3300000001}},{"attributes":{"ID":168796,"DIS_CODE":0,"TOWNNAME":"安南區","LI":"原佃里","LIN":"4鄰","STREET":"本原街","SECT":"一段","MAREA":" ","LANE":"９４巷","ALLEY":"１７弄","HOUSE_NO":"３號","E_COORD97":167956.92000000001,"N_COORD97":2550185.8199999998,"ADDRESS":"本原街一段９４巷１７弄３號","OBJECTID":168795},"geometry":{"x":167956.92000000086,"y":2550185.8200000003}},{"attributes":{"ID":168797,"DIS_CODE":0,"TOWNNAME":"安南區","LI":"原佃里","LIN":"4鄰","STREET":"本原街","SECT":"一段","MAREA":" ","LANE":"９４巷","ALLEY":"１７弄","HOUSE_NO":"５號","E_COORD97":167958.42000000001,"N_COORD97":2550194.3300000001,"ADDRESS":"本原街一段９４巷１７弄５號","OBJECTID":168796},"geometry":{"x":167958.42000000086,"y":2550194.3300000001}},{"attributes":{"ID":168798,"DIS_CODE":0,"TOWNNAME":"安南區","LI":"原佃里","LIN":"4鄰","STREET":"本原街","SECT":"一段","MAREA":" ","LANE":"９４巷","ALLEY":"１７弄","HOUSE_NO":"７號","E_COORD97":167957.98999999999,"N_COORD97":2550199.3500000001,"ADDRESS":"本原街一段９４巷１７弄７號","OBJECTID":168797},"geometry":{"x":167957.99000000115,"y":2550199.3500000015}},{"attributes":{"ID":168799,"DIS_CODE":0,"TOWNNAME":"安南區","LI":"顯宮里","LIN":"7鄰","STREET":"顯宮二街","SECT":" ","MAREA":" ","LANE":"５５巷","ALLEY":" ","HOUSE_NO":"１８號","E_COORD97":160404.35000000001,"N_COORD97":2548766.96,"ADDRESS":"顯宮二街５５巷１８號","OBJECTID":168798},"geometry":{"x":160404.35000000056,"y":2548766.9600000009}},{"attributes":{"ID":168800,"DIS_CODE":0,"TOWNNAME":"六甲區","LI":"甲東里","LIN":"12鄰","STREET":"裕農街","SECT":" ","MAREA":" ","LANE":" ","ALLEY":" ","HOUSE_NO":"２９４號","E_COORD97":184099.23000000001,"N_COORD97":2570012.02,"ADDRESS":"裕農街２９４號","OBJECTID":168799},"geometry":{"x":184099.23000000045,"y":2570012.0200000014}},{"attributes":{"ID":168801,"DIS_CODE":0,"TOWNNAME":"仁德區","LI":"二行里","LIN":"9鄰","STREET":"行大街","SECT":" ","MAREA":" ","LANE":" ","ALLEY":" ","HOUSE_NO":"７２號","E_COORD97":170167.31430599999,"N_COORD97":2535188.6917500002,"ADDRESS":"行大街７２號","OBJECTID":168800},"geometry":{"x":170167.31430600118,"y":2535188.6917450018}}]}