{"displayFieldName":"TOWNNAME","fieldAliases":{"ID":"ID","DIS_CODE":"DIS_CODE","TOWNNAME":"TOWNNAME","LI":"LI","LIN":"LIN","STREET":"STREET","SECT":"SECT","MAREA":"MAREA","LANE":"LANE","ALLEY":"ALLEY","HOUSE_NO":"HOUSE_NO","E_COORD97":"E_COORD97","N_COORD97":"N_COORD97","ADDRESS":"ADDRESS","OBJECTID":"OBJECTID"},"geometryType":"esriGeometryPoint","spatialReference":{"wkid":102443,"latestWkid":3826},"fields":[{"name":"ID","type":"esriFieldTypeDouble","alias":"ID"},{"name":"DIS_CODE","type":"esriFieldTypeInteger","alias":"DIS_CODE"},{"name":"TOWNNAME","type":"esriFieldTypeString","alias":"TOWNNAME","length":8},{"name":"LI","type":"esriFieldTypeString","alias":"LI","length":8},{"name":"LIN","type":"esriFieldTypeString","alias":"LIN","length":12},{"name":"STREET","type":"esriFieldTypeString","alias":"STREET","length":20},{"name":"SECT","type":"esriFieldTypeString","alias":"SECT","length":8},{"name":"MAREA","type":"esriFieldTypeString","alias":"MAREA","length":12},{"name":"LANE","type":"esriFieldTypeString","alias":"LANE","length":10},{"name":"ALLEY","type":"esriFieldTypeString","alias":"ALLEY","length":10},{"name":"HOUSE_NO","type":"esriFieldTypeString","alias":"HOUSE_NO","length":20},{"name":"E_COORD97","type":"esriFieldTypeDouble","alias":"E_COORD97"},{"name":"N_COORD97","type":"esriFieldTypeDouble","alias":"N_COORD97"},{"name":"ADDRESS","type":"esriFieldTypeString","alias":"ADDRESS","length":50},{"name":"OBJECTID","type":"esriFieldTypeOID","alias":"OBJECTID"}],"features":[{"attributes":{"ID":658228,"DIS_CODE":0,"TOWNNAME":"北區","LI":"中樓里","LIN":"7鄰","STREET":"東豐路","SECT":" ","MAREA":" ","LANE":" ","ALLEY":" ","HOUSE_NO":"９５號","E_COORD97":169685.04811199999,"N_COORD97":2544933.1309099998,"ADDRESS":"東豐路９５號","OBJECTID":658201},"geometry":{"x":169685.04811200034,"y":2544933.1309050024}},{"attributes":{"ID":658229,"DIS_CODE":0,"TOWNNAME":"北區","LI":"文元里","LIN":"3鄰","STREET":"文賢路","SECT":" ","MAREA":" ","LANE":"１１２２巷","ALLEY":"９４弄","HOUSE_NO":"１５號","E_COORD97":167603.758367,"N_COORD97":2546345.9522299999,"ADDRESS":"文賢路１１２２巷９４弄１５號","OBJECTID":658202},"geometry":{"x":167603.75836700015,"y":2546345.9522259999}},{"attributes":{"ID":658230,"DIS_CODE":0,"TOWNNAME":"北區","LI":"文元里","LIN":"3鄰","STREET":"文賢路","SECT":" ","MAREA":" ","LANE":"１１２２巷","ALLEY":"９４弄","HOUSE_NO":"１３號","E_COORD97":167603.54657400001,"N_COORD97":2546349.6563900001,"ADDRESS":"文賢路１１２２巷９４弄１３號","OBJECTID":658203},"geometry":{"x":167603.5465740012,"y":2546349.6563900001}},{"attributes":{"ID":658231,"DIS_CODE":0,"TOWNNAME":"北區","LI":"文元里","LIN":"3鄰","STREET":"文賢路","SECT":" ","MAREA":" ","LANE":"１１２２巷","ALLEY":"９４弄","HOUSE_NO":"１１號","E_COORD97":167603.44067800001,"N_COORD97":2546353.57222,"ADDRESS":"文賢路１１２２巷９４弄１１號","OBJECTID":658204},"geometry":{"x":167603.44067800138,"y":2546353.572222}},{"attributes":{"ID":658232,"DIS_CODE":0,"TOWNNAME":"北區","LI":"文元里","LIN":"3鄰","STREET":"文賢路","SECT":" ","MAREA":" ","LANE":"１１２２巷","ALLEY":"９４弄","HOUSE_NO":"９號","E_COORD97":167603.44067800001,"N_COORD97":2546357.2763899998,"ADDRESS":"文賢路１１２２巷９４弄９號","OBJECTID":658205},"geometry":{"x":167603.44067800138,"y":2546357.2763860021}},{"attributes":{"ID":658233,"DIS_CODE":0,"TOWNNAME":"北區","LI":"文元里","LIN":"3鄰","STREET":"文賢路","SECT":" ","MAREA":" ","LANE":"１１２２巷","ALLEY":"９４弄","HOUSE_NO":"７號","E_COORD97":167603.33478100001,"N_COORD97":2546360.3455500002,"ADDRESS":"文賢路１１２２巷９４弄７號","OBJECTID":658206},"geometry":{"x":167603.33478100039,"y":2546360.3455510009}},{"attributes":{"ID":658234,"DIS_CODE":0,"TOWNNAME":"北區","LI":"文元里","LIN":"3鄰","STREET":"文賢路","SECT":" ","MAREA":" ","LANE":"１１２２巷","ALLEY":"９４弄","HOUSE_NO":"５號","E_COORD97":167601.57433999999,"N_COORD97":2546367.4141899999,"ADDRESS":"文賢路１１２２巷９４弄５號","OBJECTID":658207},"geometry":{"x":167601.57434000075,"y":2546367.414193999}},{"attributes":{"ID":658235,"DIS_CODE":0,"TOWNNAME":"北區","LI":"文元里","LIN":"3鄰","STREET":"文賢路","SECT":" ","MAREA":" ","LANE":"１１２２巷","ALLEY":"９４弄","HOUSE_NO":"３號","E_COORD97":167601.95080399999,"N_COORD97":2546372.0126299998,"ADDRESS":"文賢路１１２２巷９４弄３號","OBJECTID":658208},"geometry":{"x":167601.95080400072,"y":2546372.0126309991}},{"attributes":{"ID":658236,"DIS_CODE":0,"TOWNNAME":"北區","LI":"文元里","LIN":"3鄰","STREET":"文賢路","SECT":" ","MAREA":" ","LANE":"１１２２巷","ALLEY":"９４弄","HOUSE_NO":"１號","E_COORD97":167601.10363299999,"N_COORD97":2546378.78596,"ADDRESS":"文賢路１１２２巷９４弄１號","OBJECTID":658209},"geometry":{"x":167601.10363300052,"y":2546378.7859600019}},{"attributes":{"ID":658237,"DIS_CODE":0,"TOWNNAME":"北區","LI":"文元里","LIN":"3鄰","STREET":"文賢路","SECT":" ","MAREA":" ","LANE":"１１２２巷","ALLEY":" ","HOUSE_NO":"９６號","E_COORD97":167571.87619899999,"N_COORD97":2546394.7138700001,"ADDRESS":"文賢路１１２２巷９６號","OBJECTID":658210},"geometry":{"x":167571.87619900052,"y":2546394.7138680015}},{"attributes":{"ID":658238,"DIS_CODE":0,"TOWNNAME":"仁德區","LI":"保安里","LIN":"21鄰","STREET":"文賢一街","SECT":" ","MAREA":" ","LANE":"１０巷","ALLEY":"２弄","HOUSE_NO":"１之１號","E_COORD97":171089.89306900001,"N_COORD97":2536743.0678599998,"ADDRESS":"文賢一街１０巷２弄１之１號","OBJECTID":658211},"geometry":{"x":171089.89306899998,"y":2536743.0678620003}},{"attributes":{"ID":658239,"DIS_CODE":0,"TOWNNAME":"西港區","LI":"營西里","LIN":"1鄰","STREET":" ","SECT":" ","MAREA":"後營","LANE":" ","ALLEY":" ","HOUSE_NO":"４７７號","E_COORD97":169837.705078,"N_COORD97":2559278.7669500001,"ADDRESS":"後營４７７號","OBJECTID":658212},"geometry":{"x":169837.70507800113,"y":2559278.7669529971}},{"attributes":{"ID":658240,"DIS_CODE":0,"TOWNNAME":"西港區","LI":"營西里","LIN":"8鄰","STREET":" ","SECT":" ","MAREA":"後營","LANE":" ","ALLEY":" ","HOUSE_NO":"６９號","E_COORD97":169612.091888,"N_COORD97":2560377.6678200001,"ADDRESS":"後營６９號","OBJECTID":658213},"geometry":{"x":169612.09188800026,"y":2560377.6678180024}},{"attributes":{"ID":658241,"DIS_CODE":0,"TOWNNAME":"西港區","LI":"營西里","LIN":"8鄰","STREET":" ","SECT":" ","MAREA":"後","LANE":" ","ALLEY":" ","HOUSE_NO":"７２之１２號","E_COORD97":169194.15174299999,"N_COORD97":2560437.5514799999,"ADDRESS":"後７２之１２號","OBJECTID":658214},"geometry":{"x":169194.15174300224,"y":2560437.5514840018}},{"attributes":{"ID":658242,"DIS_CODE":0,"TOWNNAME":"西港區","LI":"新復里","LIN":"8鄰","STREET":" ","SECT":" ","MAREA":"溪埔","LANE":" ","ALLEY":" ","HOUSE_NO":"寮１之６０號","E_COORD97":166369.57232100001,"N_COORD97":2554491.94386,"ADDRESS":"溪埔寮１之６０號","OBJECTID":658215},"geometry":{"x":166369.57232099958,"y":2554491.943861004}},{"attributes":{"ID":658243,"DIS_CODE":0,"TOWNNAME":"西港區","LI":"新復里","LIN":"8鄰","STREET":" ","SECT":" ","MAREA":"溪埔","LANE":" ","ALLEY":" ","HOUSE_NO":"寮１１之６號","E_COORD97":166600.20642100001,"N_COORD97":2553996.5382900001,"ADDRESS":"溪埔寮１１之６號","OBJECTID":658216},"geometry":{"x":166600.20642100088,"y":2553996.5382950027}},{"attributes":{"ID":658244,"DIS_CODE":0,"TOWNNAME":"西港區","LI":"營西里","LIN":"1鄰","STREET":" ","SECT":" ","MAREA":"後營","LANE":" ","ALLEY":" ","HOUSE_NO":"３之５３號","E_COORD97":168381.53187100001,"N_COORD97":2560363.67986,"ADDRESS":"後營３之５３號","OBJECTID":658217},"geometry":{"x":168381.53187100217,"y":2560363.6798570007}},{"attributes":{"ID":658245,"DIS_CODE":0,"TOWNNAME":"西港區","LI":"新復里","LIN":"8鄰","STREET":" ","SECT":" ","MAREA":"溪埔","LANE":" ","ALLEY":" ","HOUSE_NO":"寮１之６２號（農業資","E_COORD97":166385.03264200001,"N_COORD97":2554462.5222100001,"ADDRESS":"溪埔寮１之６２號（農業資材室）","OBJECTID":658218},"geometry":{"x":166385.03264200035,"y":2554462.5222100019}},{"attributes":{"ID":658246,"DIS_CODE":0,"TOWNNAME":"新營區","LI":"興業里","LIN":"1鄰","STREET":"公誠街","SECT":" ","MAREA":" ","LANE":"１７巷","ALLEY":" ","HOUSE_NO":"１０之３號","E_COORD97":180335.87230799999,"N_COORD97":2577923.9093399998,"ADDRESS":"公誠街１７巷１０之３號","OBJECTID":658219},"geometry":{"x":180335.87230800185,"y":2577923.9093410019}},{"attributes":{"ID":658247,"DIS_CODE":0,"TOWNNAME":"新營區","LI":"興業里","LIN":"1鄰","STREET":"公誠街","SECT":" ","MAREA":" ","LANE":"１７巷","ALLEY":" ","HOUSE_NO":"１４號","E_COORD97":180346.03928200001,"N_COORD97":2577937.9851700002,"ADDRESS":"公誠街１７巷１４號","OBJECTID":658220},"geometry":{"x":180346.03928200062,"y":2577937.9851660002}},{"attributes":{"ID":658248,"DIS_CODE":0,"TOWNNAME":"西港區","LI":"後營里","LIN":"17鄰","STREET":" ","SECT":" ","MAREA":"後營","LANE":" ","ALLEY":" ","HOUSE_NO":"３１２之２號","E_COORD97":170091.00394,"N_COORD97":2560014.3819900001,"ADDRESS":"後營３１２之２號","OBJECTID":658221},"geometry":{"x":170091.0039400002,"y":2560014.3819929995}},{"attributes":{"ID":658249,"DIS_CODE":0,"TOWNNAME":"西港區","LI":"後營里","LIN":"17鄰","STREET":" ","SECT":" ","MAREA":"後營","LANE":" ","ALLEY":" ","HOUSE_NO":"３１２之３號","E_COORD97":170088.03765899999,"N_COORD97":2560007.44991,"ADDRESS":"後營３１２之３號","OBJECTID":658222},"geometry":{"x":170088.03765900061,"y":2560007.4499140028}},{"attributes":{"ID":658250,"DIS_CODE":0,"TOWNNAME":"新營區","LI":"興業里","LIN":"1鄰","STREET":"公誠街","SECT":" ","MAREA":" ","LANE":"１７巷","ALLEY":" ","HOUSE_NO":"２０之４號","E_COORD97":180374.42208700001,"N_COORD97":2577940.3135000002,"ADDRESS":"公誠街１７巷２０之４號","OBJECTID":658223},"geometry":{"x":180374.42208700068,"y":2577940.3134990036}},{"attributes":{"ID":658251,"DIS_CODE":0,"TOWNNAME":"東區","LI":"中西里","LIN":"27鄰","STREET":"東寧路","SECT":" ","MAREA":" ","LANE":"１２０巷","ALLEY":" ","HOUSE_NO":"７９號","E_COORD97":170274.67637199999,"N_COORD97":2543468.92558,"ADDRESS":"東寧路１２０巷７９號","OBJECTID":658224},"geometry":{"x":170274.67637200002,"y":2543468.925578}},{"attributes":{"ID":658252,"DIS_CODE":0,"TOWNNAME":"東區","LI":"中西里","LIN":"27鄰","STREET":"東寧路","SECT":" ","MAREA":" ","LANE":"１２０巷","ALLEY":" ","HOUSE_NO":"８１號之１","E_COORD97":170282.939446,"N_COORD97":2543471.0422399999,"ADDRESS":"東寧路１２０巷８１號之１","OBJECTID":658225},"geometry":{"x":170282.93944600131,"y":2543471.0422440004}},{"attributes":{"ID":658253,"DIS_CODE":0,"TOWNNAME":"東區","LI":"中西里","LIN":"27鄰","STREET":"東寧路","SECT":" ","MAREA":" ","LANE":"１２０巷","ALLEY":" ","HOUSE_NO":"８１號之２","E_COORD97":170286.11755200001,"N_COORD97":2543471.4655800001,"ADDRESS":"東寧路１２０巷８１號之２","OBJECTID":658226},"geometry":{"x":170286.11755200103,"y":2543471.4655769989}},{"attributes":{"ID":658254,"DIS_CODE":0,"TOWNNAME":"東區","LI":"中西里","LIN":"27鄰","STREET":"東寧路","SECT":" ","MAREA":" ","LANE":"１２０巷","ALLEY":" ","HOUSE_NO":"８１號之３","E_COORD97":170290.143152,"N_COORD97":2543472.1005799999,"ADDRESS":"東寧路１２０巷８１號之３","OBJECTID":658227},"geometry":{"x":170290.14315200038,"y":2543472.100576004}},{"attributes":{"ID":658255,"DIS_CODE":0,"TOWNNAME":"新營區","LI":"興業里","LIN":"2鄰","STREET":"新進路","SECT":" ","MAREA":" ","LANE":" ","ALLEY":" ","HOUSE_NO":"２２６號之１","E_COORD97":180361.925181,"N_COORD97":2577906.7643499998,"ADDRESS":"新進路２２６號之１","OBJECTID":658228},"geometry":{"x":180361.92518100049,"y":2577906.7643500008}},{"attributes":{"ID":658256,"DIS_CODE":0,"TOWNNAME":"東區","LI":"中西里","LIN":"27鄰","STREET":"東寧路","SECT":" ","MAREA":" ","LANE":"１２０巷","ALLEY":" ","HOUSE_NO":"８１號之３","E_COORD97":170290.143152,"N_COORD97":2543472.1005799999,"ADDRESS":"東寧路１２０巷８１號之３","OBJECTID":658229},"geometry":{"x":170290.14315200038,"y":2543472.100576004}},{"attributes":{"ID":658257,"DIS_CODE":0,"TOWNNAME":"新營區","LI":"興業里","LIN":"2鄰","STREET":"新進路","SECT":" ","MAREA":" ","LANE":" ","ALLEY":" ","HOUSE_NO":"２３０號之３","E_COORD97":180298.169776,"N_COORD97":2577884.1160300002,"ADDRESS":"新進路２３０號之３","OBJECTID":658230},"geometry":{"x":180298.16977600101,"y":2577884.1160290018}},{"attributes":{"ID":658258,"DIS_CODE":0,"TOWNNAME":"東區","LI":"中西里","LIN":"27鄰","STREET":"東寧路","SECT":" ","MAREA":" ","LANE":"１２０巷","ALLEY":" ","HOUSE_NO":"８３號","E_COORD97":170293.32125800001,"N_COORD97":2543472.52391,"ADDRESS":"東寧路１２０巷８３號","OBJECTID":658231},"geometry":{"x":170293.3212580001,"y":2543472.5239100009}},{"attributes":{"ID":658259,"DIS_CODE":0,"TOWNNAME":"東區","LI":"中西里","LIN":"27鄰","STREET":"東寧路","SECT":" ","MAREA":" ","LANE":"１２０巷","ALLEY":" ","HOUSE_NO":"８３號之１","E_COORD97":170296.92311100001,"N_COORD97":2543472.3122399999,"ADDRESS":"東寧路１２０巷８３號之１","OBJECTID":658232},"geometry":{"x":170296.9231110001,"y":2543472.3122429997}},{"attributes":{"ID":658260,"DIS_CODE":0,"TOWNNAME":"東區","LI":"中西里","LIN":"27鄰","STREET":"東寧路","SECT":" ","MAREA":" ","LANE":"１２０巷","ALLEY":" ","HOUSE_NO":"８３號之３","E_COORD97":170303.49119500001,"N_COORD97":2543474.4289099998,"ADDRESS":"東寧路１２０巷８３號之３","OBJECTID":658233},"geometry":{"x":170303.49119499978,"y":2543474.4289080016}},{"attributes":{"ID":658261,"DIS_CODE":0,"TOWNNAME":"楠西區","LI":"照興里","LIN":"6鄰","STREET":" ","SECT":" ","MAREA":"興北","LANE":" ","ALLEY":" ","HOUSE_NO":"８０號之１","E_COORD97":196694,"N_COORD97":2566617,"ADDRESS":"興北８０號之１","OBJECTID":658234},"geometry":{"x":196694,"y":2566617}},{"attributes":{"ID":658262,"DIS_CODE":0,"TOWNNAME":"新營區","LI":"興業里","LIN":"3鄰","STREET":"公誠街","SECT":" ","MAREA":" ","LANE":" ","ALLEY":" ","HOUSE_NO":"１３號","E_COORD97":180302.19420299999,"N_COORD97":2577934.3868399998,"ADDRESS":"公誠街１３號","OBJECTID":658235},"geometry":{"x":180302.19420300052,"y":2577934.3868350033}},{"attributes":{"ID":658263,"DIS_CODE":0,"TOWNNAME":"新營區","LI":"興業里","LIN":"3鄰","STREET":"公誠街","SECT":" ","MAREA":" ","LANE":" ","ALLEY":" ","HOUSE_NO":"１５號","E_COORD97":180303.041451,"N_COORD97":2577946.24016,"ADDRESS":"公誠街１５號","OBJECTID":658236},"geometry":{"x":180303.04145100061,"y":2577946.2401620001}},{"attributes":{"ID":658264,"DIS_CODE":0,"TOWNNAME":"楠西區","LI":"照興里","LIN":"6鄰","STREET":" ","SECT":" ","MAREA":"興北","LANE":" ","ALLEY":" ","HOUSE_NO":"７９號","E_COORD97":196733,"N_COORD97":2566853,"ADDRESS":"興北７９號","OBJECTID":658237},"geometry":{"x":196733,"y":2566853.0000000019}},{"attributes":{"ID":658265,"DIS_CODE":0,"TOWNNAME":"楠西區","LI":"照興里","LIN":"6鄰","STREET":" ","SECT":" ","MAREA":"興北","LANE":" ","ALLEY":" ","HOUSE_NO":"８３號之２","E_COORD97":196656,"N_COORD97":2566735,"ADDRESS":"興北８３號之２","OBJECTID":658238},"geometry":{"x":196656.00000000093,"y":2566735}},{"attributes":{"ID":658266,"DIS_CODE":0,"TOWNNAME":"楠西區","LI":"照興里","LIN":"7鄰","STREET":" ","SECT":" ","MAREA":"興北","LANE":" ","ALLEY":" ","HOUSE_NO":"８４號","E_COORD97":196608,"N_COORD97":2566712,"ADDRESS":"興北８４號","OBJECTID":658239},"geometry":{"x":196608.00000000093,"y":2566712}},{"attributes":{"ID":658267,"DIS_CODE":0,"TOWNNAME":"楠西區","LI":"照興里","LIN":"7鄰","STREET":" ","SECT":" ","MAREA":"興北","LANE":" ","ALLEY":" ","HOUSE_NO":"８５號之８","E_COORD97":196560,"N_COORD97":2566814,"ADDRESS":"興北８５號之８","OBJECTID":658240},"geometry":{"x":196560,"y":2566814}},{"attributes":{"ID":658268,"DIS_CODE":0,"TOWNNAME":"新營區","LI":"興業里","LIN":"4鄰","STREET":"公誠街","SECT":" ","MAREA":" ","LANE":"７巷","ALLEY":" ","HOUSE_NO":"２０之２號","E_COORD97":180378.65832700001,"N_COORD97":2578047.20511,"ADDRESS":"公誠街７巷２０之２號","OBJECTID":658241},"geometry":{"x":180378.65832700022,"y":2578047.205108}},{"attributes":{"ID":658269,"DIS_CODE":0,"TOWNNAME":"楠西區","LI":"照興里","LIN":"7鄰","STREET":" ","SECT":" ","MAREA":"興北","LANE":" ","ALLEY":" ","HOUSE_NO":"８７號","E_COORD97":196567,"N_COORD97":2566692,"ADDRESS":"興北８７號","OBJECTID":658242},"geometry":{"x":196567.00000000186,"y":2566692}},{"attributes":{"ID":658270,"DIS_CODE":0,"TOWNNAME":"麻豆區","LI":"海埔里","LIN":"3鄰","STREET":" ","SECT":" ","MAREA":"埤子尾","LANE":" ","ALLEY":" ","HOUSE_NO":"３８號","E_COORD97":169731.078863,"N_COORD97":2566704.03229,"ADDRESS":"埤子尾３８號","OBJECTID":658243},"geometry":{"x":169731.0788630005,"y":2566704.0322850011}},{"attributes":{"ID":658271,"DIS_CODE":0,"TOWNNAME":"楠西區","LI":"照興里","LIN":"7鄰","STREET":" ","SECT":" ","MAREA":"興北","LANE":" ","ALLEY":" ","HOUSE_NO":"９１號之１","E_COORD97":196476,"N_COORD97":2566069,"ADDRESS":"興北９１號之１","OBJECTID":658244},"geometry":{"x":196476.00000000093,"y":2566069.0000000019}},{"attributes":{"ID":658272,"DIS_CODE":0,"TOWNNAME":"楠西區","LI":"照興里","LIN":"7鄰","STREET":" ","SECT":" ","MAREA":"興北","LANE":" ","ALLEY":" ","HOUSE_NO":"９１號之３","E_COORD97":196490,"N_COORD97":2566097,"ADDRESS":"興北９１號之３","OBJECTID":658245},"geometry":{"x":196490,"y":2566097.0000000019}},{"attributes":{"ID":658273,"DIS_CODE":0,"TOWNNAME":"楠西區","LI":"照興里","LIN":"7鄰","STREET":" ","SECT":" ","MAREA":"興北","LANE":" ","ALLEY":" ","HOUSE_NO":"９１號之６","E_COORD97":196491,"N_COORD97":2566111,"ADDRESS":"興北９１號之６","OBJECTID":658246},"geometry":{"x":196491.00000000093,"y":2566111}},{"attributes":{"ID":658274,"DIS_CODE":0,"TOWNNAME":"楠西區","LI":"照興里","LIN":"7鄰","STREET":" ","SECT":" ","MAREA":"興北","LANE":" ","ALLEY":" ","HOUSE_NO":"９１號之７","E_COORD97":196450,"N_COORD97":2566108,"ADDRESS":"興北９１號之７","OBJECTID":658247},"geometry":{"x":196449.99999999907,"y":2566108}},{"attributes":{"ID":658275,"DIS_CODE":0,"TOWNNAME":"楠西區","LI":"照興里","LIN":"7鄰","STREET":" ","SECT":" ","MAREA":"興北","LANE":" ","ALLEY":" ","HOUSE_NO":"９１號之８","E_COORD97":196443,"N_COORD97":2566129,"ADDRESS":"興北９１號之８","OBJECTID":658248},"geometry":{"x":196443,"y":2566129}},{"attributes":{"ID":658276,"DIS_CODE":0,"TOWNNAME":"楠西區","LI":"照興里","LIN":"7鄰","STREET":" ","SECT":" ","MAREA":"興北","LANE":" ","ALLEY":" ","HOUSE_NO":"９１號之５","E_COORD97":196448,"N_COORD97":2566077,"ADDRESS":"興北９１號之５","OBJECTID":658249},"geometry":{"x":196448,"y":2566077}},{"attributes":{"ID":658277,"DIS_CODE":0,"TOWNNAME":"楠西區","LI":"照興里","LIN":"7鄰","STREET":" ","SECT":" ","MAREA":"興北","LANE":" ","ALLEY":" ","HOUSE_NO":"９１號之１２","E_COORD97":196489,"N_COORD97":2566141,"ADDRESS":"興北９１號之１２","OBJECTID":658250},"geometry":{"x":196489.00000000186,"y":2566141.0000000019}},{"attributes":{"ID":658278,"DIS_CODE":0,"TOWNNAME":"楠西區","LI":"照興里","LIN":"7鄰","STREET":" ","SECT":" ","MAREA":"興北","LANE":" ","ALLEY":" ","HOUSE_NO":"９１號之１１","E_COORD97":196490,"N_COORD97":2566159,"ADDRESS":"興北９１號之１１","OBJECTID":658251},"geometry":{"x":196490,"y":2566159}},{"attributes":{"ID":658279,"DIS_CODE":0,"TOWNNAME":"楠西區","LI":"照興里","LIN":"7鄰","STREET":" ","SECT":" ","MAREA":"興北","LANE":" ","ALLEY":" ","HOUSE_NO":"９４號之８","E_COORD97":196281,"N_COORD97":2566587,"ADDRESS":"興北９４號之８","OBJECTID":658252},"geometry":{"x":196281.00000000093,"y":2566586.9999999981}},{"attributes":{"ID":658280,"DIS_CODE":0,"TOWNNAME":"東區","LI":"中西里","LIN":"20鄰","STREET":"長榮路","SECT":"二段","MAREA":" ","LANE":" ","ALLEY":" ","HOUSE_NO":"４９號","E_COORD97":170025.72477299999,"N_COORD97":2543215.9840500001,"ADDRESS":"長榮路二段４９號","OBJECTID":658253},"geometry":{"x":170025.72477300186,"y":2543215.9840479996}},{"attributes":{"ID":658281,"DIS_CODE":0,"TOWNNAME":"新營區","LI":"興業里","LIN":"5鄰","STREET":"公誠街","SECT":" ","MAREA":" ","LANE":"１１巷","ALLEY":" ","HOUSE_NO":"１０號","E_COORD97":180333.75418799999,"N_COORD97":2577955.5534899998,"ADDRESS":"公誠街１１巷１０號","OBJECTID":658254},"geometry":{"x":180333.75418800116,"y":2577955.5534900017}},{"attributes":{"ID":658282,"DIS_CODE":0,"TOWNNAME":"楠西區","LI":"照興里","LIN":"7鄰","STREET":" ","SECT":" ","MAREA":"興北","LANE":" ","ALLEY":" ","HOUSE_NO":"９４號之２","E_COORD97":196267,"N_COORD97":2566645,"ADDRESS":"興北９４號之２","OBJECTID":658255},"geometry":{"x":196267.00000000186,"y":2566645.0000000037}},{"attributes":{"ID":658283,"DIS_CODE":0,"TOWNNAME":"楠西區","LI":"照興里","LIN":"7鄰","STREET":" ","SECT":" ","MAREA":"興北","LANE":" ","ALLEY":" ","HOUSE_NO":"９３號之５","E_COORD97":197014,"N_COORD97":2566098,"ADDRESS":"興北９３號之５","OBJECTID":658256},"geometry":{"x":197014,"y":2566098}},{"attributes":{"ID":658284,"DIS_CODE":0,"TOWNNAME":"麻豆區","LI":"海埔里","LIN":"4鄰","STREET":" ","SECT":" ","MAREA":"埤子尾","LANE":" ","ALLEY":" ","HOUSE_NO":"５２號之４","E_COORD97":170065.62516,"N_COORD97":2566982.6913000001,"ADDRESS":"埤子尾５２號之４","OBJECTID":658257},"geometry":{"x":170065.62516000215,"y":2566982.6913020015}},{"attributes":{"ID":658285,"DIS_CODE":0,"TOWNNAME":"麻豆區","LI":"海埔里","LIN":"4鄰","STREET":" ","SECT":" ","MAREA":"埤子尾","LANE":" ","ALLEY":" ","HOUSE_NO":"５２號之５","E_COORD97":169988.14835199999,"N_COORD97":2567131.9618000002,"ADDRESS":"埤子尾５２號之５","OBJECTID":658258},"geometry":{"x":169988.14835199993,"y":2567131.9618030041}},{"attributes":{"ID":658286,"DIS_CODE":0,"TOWNNAME":"楠西區","LI":"照興里","LIN":"7鄰","STREET":" ","SECT":" ","MAREA":"興北","LANE":" ","ALLEY":" ","HOUSE_NO":"９６號之７","E_COORD97":197308,"N_COORD97":2565870,"ADDRESS":"興北９６號之７","OBJECTID":658259},"geometry":{"x":197308.00000000093,"y":2565870.0000000019}},{"attributes":{"ID":658287,"DIS_CODE":0,"TOWNNAME":"新營區","LI":"興業里","LIN":"5鄰","STREET":"公誠街","SECT":" ","MAREA":" ","LANE":"１１巷","ALLEY":" ","HOUSE_NO":"６號","E_COORD97":180319.986409,"N_COORD97":2577955.1301600002,"ADDRESS":"公誠街１１巷６號","OBJECTID":658260},"geometry":{"x":180319.98640900012,"y":2577955.1301570032}},{"attributes":{"ID":658288,"DIS_CODE":0,"TOWNNAME":"楠西區","LI":"照興里","LIN":"7鄰","STREET":" ","SECT":" ","MAREA":"興北","LANE":" ","ALLEY":" ","HOUSE_NO":"９６號之３","E_COORD97":197301,"N_COORD97":2565836,"ADDRESS":"興北９６號之３","OBJECTID":658261},"geometry":{"x":197301.00000000186,"y":2565836.0000000019}},{"attributes":{"ID":658289,"DIS_CODE":0,"TOWNNAME":"東區","LI":"中西里","LIN":"1鄰","STREET":"長榮路","SECT":"二段","MAREA":" ","LANE":" ","ALLEY":" ","HOUSE_NO":"１號","E_COORD97":169908.77049,"N_COORD97":2543043.4758100002,"ADDRESS":"長榮路二段１號","OBJECTID":658262},"geometry":{"x":169908.77049000002,"y":2543043.4758080002}},{"attributes":{"ID":658290,"DIS_CODE":0,"TOWNNAME":"安南區","LI":"梅花里","LIN":"1鄰","STREET":"北安路","SECT":"二段","MAREA":" ","LANE":" ","ALLEY":" ","HOUSE_NO":"３６３號之１３","E_COORD97":168239.63740599999,"N_COORD97":2548760.0548,"ADDRESS":"北安路二段３６３號之１３","OBJECTID":658263},"geometry":{"x":168239.63740600087,"y":2548760.0548040029}},{"attributes":{"ID":658291,"DIS_CODE":0,"TOWNNAME":"安南區","LI":"梅花里","LIN":"1鄰","STREET":"北安路","SECT":"二段","MAREA":" ","LANE":" ","ALLEY":" ","HOUSE_NO":"３６３號之１１","E_COORD97":168237.94302400001,"N_COORD97":2548764.4997999999,"ADDRESS":"北安路二段３６３號之１１","OBJECTID":658264},"geometry":{"x":168237.94302400015,"y":2548764.4998020008}},{"attributes":{"ID":658292,"DIS_CODE":0,"TOWNNAME":"麻豆區","LI":"海埔里","LIN":"5鄰","STREET":" ","SECT":" ","MAREA":"海埔","LANE":" ","ALLEY":" ","HOUSE_NO":"１號","E_COORD97":169599.96475300001,"N_COORD97":2566625.09167,"ADDRESS":"海埔１號","OBJECTID":658265},"geometry":{"x":169599.964753001,"y":2566625.0916719995}},{"attributes":{"ID":658293,"DIS_CODE":0,"TOWNNAME":"中西區","LI":"三民里","LIN":"12鄰","STREET":"中山路","SECT":" ","MAREA":" ","LANE":"７９巷","ALLEY":" ","HOUSE_NO":"２２號之１","E_COORD97":168724.09197499999,"N_COORD97":2543886.7346600001,"ADDRESS":"中山路７９巷２２號之１","OBJECTID":658266},"geometry":{"x":168724.09197499976,"y":2543886.7346589994}},{"attributes":{"ID":658294,"DIS_CODE":0,"TOWNNAME":"中西區","LI":"三民里","LIN":"12鄰","STREET":"中山路","SECT":" ","MAREA":" ","LANE":"７９巷","ALLEY":" ","HOUSE_NO":"２２號之１","E_COORD97":168724.09197499999,"N_COORD97":2543886.7346600001,"ADDRESS":"中山路７９巷２２號之１","OBJECTID":658267},"geometry":{"x":168724.09197499976,"y":2543886.7346589994}},{"attributes":{"ID":658295,"DIS_CODE":0,"TOWNNAME":"中西區","LI":"三民里","LIN":"12鄰","STREET":"中山路","SECT":" ","MAREA":" ","LANE":"７９巷","ALLEY":" ","HOUSE_NO":"２２號之２","E_COORD97":168724.939877,"N_COORD97":2543890.5446600001,"ADDRESS":"中山路７９巷２２號之２","OBJECTID":658268},"geometry":{"x":168724.93987699971,"y":2543890.5446569994}},{"attributes":{"ID":658296,"DIS_CODE":0,"TOWNNAME":"中西區","LI":"三民里","LIN":"12鄰","STREET":"中山路","SECT":" ","MAREA":" ","LANE":"７９巷","ALLEY":" ","HOUSE_NO":"２２號之３","E_COORD97":168725.99975399999,"N_COORD97":2543894.3546500001,"ADDRESS":"中山路７９巷２２號之３","OBJECTID":658269},"geometry":{"x":168725.99975400139,"y":2543894.3546550032}},{"attributes":{"ID":658297,"DIS_CODE":0,"TOWNNAME":"中西區","LI":"三民里","LIN":"12鄰","STREET":"中山路","SECT":" ","MAREA":" ","LANE":"７９巷","ALLEY":" ","HOUSE_NO":"２２號之４","E_COORD97":168726.847656,"N_COORD97":2543898.5879899999,"ADDRESS":"中山路７９巷２２號之４","OBJECTID":658270},"geometry":{"x":168726.84765600134,"y":2543898.5879859999}},{"attributes":{"ID":658298,"DIS_CODE":0,"TOWNNAME":"中西區","LI":"三民里","LIN":"12鄰","STREET":"中山路","SECT":" ","MAREA":" ","LANE":"７９巷","ALLEY":" ","HOUSE_NO":"２２號之５","E_COORD97":168728.54345999999,"N_COORD97":2543902.1863199999,"ADDRESS":"中山路７９巷２２號之５","OBJECTID":658271},"geometry":{"x":168728.54346000124,"y":2543902.1863170024}},{"attributes":{"ID":658299,"DIS_CODE":0,"TOWNNAME":"中西區","LI":"三民里","LIN":"12鄰","STREET":"中山路","SECT":" ","MAREA":" ","LANE":"７９巷","ALLEY":" ","HOUSE_NO":"２２號之６","E_COORD97":168730.02728800001,"N_COORD97":2543906.6313100001,"ADDRESS":"中山路７９巷２２號之６","OBJECTID":658272},"geometry":{"x":168730.0272880001,"y":2543906.6313150022}},{"attributes":{"ID":658300,"DIS_CODE":0,"TOWNNAME":"中西區","LI":"三民里","LIN":"12鄰","STREET":"中山路","SECT":" ","MAREA":" ","LANE":"７９巷","ALLEY":" ","HOUSE_NO":"２２號之７","E_COORD97":168731.51111600001,"N_COORD97":2543910.01798,"ADDRESS":"中山路７９巷２２號之７","OBJECTID":658273},"geometry":{"x":168731.51111600082,"y":2543910.0179800037}},{"attributes":{"ID":658301,"DIS_CODE":0,"TOWNNAME":"中西區","LI":"三民里","LIN":"12鄰","STREET":"中山路","SECT":" ","MAREA":" ","LANE":"７９巷","ALLEY":" ","HOUSE_NO":"２２號之８","E_COORD97":168732.35901799999,"N_COORD97":2543912.55798,"ADDRESS":"中山路７９巷２２號之８","OBJECTID":658274},"geometry":{"x":168732.35901800077,"y":2543912.5579780024}},{"attributes":{"ID":658302,"DIS_CODE":0,"TOWNNAME":"官田區","LI":"南\u25A0里","LIN":"9鄰","STREET":" ","SECT":" ","MAREA":"南\u25A0","LANE":" ","ALLEY":" ","HOUSE_NO":"１２０號之２","E_COORD97":178814.53036800001,"N_COORD97":2569097.8524500001,"ADDRESS":"南\u25A0１２０號之２","OBJECTID":658275},"geometry":{"x":178814.53036800027,"y":2569097.8524520025}},{"attributes":{"ID":658303,"DIS_CODE":0,"TOWNNAME":"中西區","LI":"三民里","LIN":"12鄰","STREET":"中山路","SECT":" ","MAREA":" ","LANE":"７９巷","ALLEY":" ","HOUSE_NO":"２２號之９","E_COORD97":168728.755435,"N_COORD97":2543913.8279800001,"ADDRESS":"中山路７９巷２２號之９","OBJECTID":658276},"geometry":{"x":168728.75543500111,"y":2543913.8279780019}},{"attributes":{"ID":658304,"DIS_CODE":0,"TOWNNAME":"中西區","LI":"三民里","LIN":"12鄰","STREET":"中山路","SECT":" ","MAREA":" ","LANE":"７９巷","ALLEY":" ","HOUSE_NO":"２２號之１０","E_COORD97":168724.939877,"N_COORD97":2543914.4629799998,"ADDRESS":"中山路７９巷２２號之１０","OBJECTID":658277},"geometry":{"x":168724.93987699971,"y":2543914.4629770033}},{"attributes":{"ID":658305,"DIS_CODE":0,"TOWNNAME":"中西區","LI":"三民里","LIN":"12鄰","STREET":"中山路","SECT":" ","MAREA":" ","LANE":"７９巷","ALLEY":" ","HOUSE_NO":"２２號之１４","E_COORD97":168715.82493199999,"N_COORD97":2543913.61631,"ADDRESS":"中山路７９巷２２號之１４","OBJECTID":658278},"geometry":{"x":168715.8249320006,"y":2543913.6163110007}},{"attributes":{"ID":658306,"DIS_CODE":0,"TOWNNAME":"中西區","LI":"三民里","LIN":"12鄰","STREET":"中山路","SECT":" ","MAREA":" ","LANE":"７９巷","ALLEY":" ","HOUSE_NO":"２２號之１５","E_COORD97":168714.34110399999,"N_COORD97":2543910.4413100001,"ADDRESS":"中山路７９巷２２號之１５","OBJECTID":658279},"geometry":{"x":168714.34110399988,"y":2543910.4413130023}},{"attributes":{"ID":658307,"DIS_CODE":0,"TOWNNAME":"中西區","LI":"三民里","LIN":"12鄰","STREET":"中山路","SECT":" ","MAREA":" ","LANE":"７９巷","ALLEY":" ","HOUSE_NO":"２２號之５４","E_COORD97":168712.00937399999,"N_COORD97":2543902.3979799999,"ADDRESS":"中山路７９巷２２號之５４","OBJECTID":658280},"geometry":{"x":168712.00937400106,"y":2543902.3979839999}},{"attributes":{"ID":658308,"DIS_CODE":0,"TOWNNAME":"安平區","LI":"文平里","LIN":"8鄰","STREET":"建平路","SECT":" ","MAREA":" ","LANE":" ","ALLEY":" ","HOUSE_NO":"２５４號","E_COORD97":166182.70398699999,"N_COORD97":2543239.6194500001,"ADDRESS":"建平路２５４號","OBJECTID":658281},"geometry":{"x":166182.70398700051,"y":2543239.6194509994}},{"attributes":{"ID":658309,"DIS_CODE":0,"TOWNNAME":"中西區","LI":"三民里","LIN":"12鄰","STREET":"中山路","SECT":" ","MAREA":" ","LANE":"７９巷","ALLEY":" ","HOUSE_NO":"２２號之５８","E_COORD97":168720.27641699999,"N_COORD97":2543883.9829899999,"ADDRESS":"中山路７９巷２２號之５８","OBJECTID":658282},"geometry":{"x":168720.27641700022,"y":2543883.9829939976}},{"attributes":{"ID":658310,"DIS_CODE":0,"TOWNNAME":"中西區","LI":"三民里","LIN":"12鄰","STREET":"中山路","SECT":" ","MAREA":" ","LANE":"７９巷","ALLEY":" ","HOUSE_NO":"２２號之５７","E_COORD97":168719.42851500001,"N_COORD97":2543887.3696599999,"ADDRESS":"中山路７９巷２２號之５７","OBJECTID":658283},"geometry":{"x":168719.42851500027,"y":2543887.3696589991}},{"attributes":{"ID":658311,"DIS_CODE":0,"TOWNNAME":"中西區","LI":"三民里","LIN":"12鄰","STREET":"中山路","SECT":" ","MAREA":" ","LANE":"７９巷","ALLEY":" ","HOUSE_NO":"２２號之５６","E_COORD97":168715.82493199999,"N_COORD97":2543886.3113299999,"ADDRESS":"中山路７９巷２２號之５６","OBJECTID":658284},"geometry":{"x":168715.8249320006,"y":2543886.3113260008}},{"attributes":{"ID":658312,"DIS_CODE":0,"TOWNNAME":"官田區","LI":"南\u25A0里","LIN":"8鄰","STREET":" ","SECT":" ","MAREA":"南\u25A0","LANE":" ","ALLEY":" ","HOUSE_NO":"１１０號","E_COORD97":178060.91795599999,"N_COORD97":2568783.1042900002,"ADDRESS":"南\u25A0１１０號","OBJECTID":658285},"geometry":{"x":178060.91795600113,"y":2568783.1042880006}},{"attributes":{"ID":658313,"DIS_CODE":0,"TOWNNAME":"中西區","LI":"三民里","LIN":"12鄰","STREET":"中山路","SECT":" ","MAREA":" ","LANE":"７９巷","ALLEY":" ","HOUSE_NO":"２２號之５９","E_COORD97":168712.22135000001,"N_COORD97":2543887.3696599999,"ADDRESS":"中山路７９巷２２號之５９","OBJECTID":658286},"geometry":{"x":168712.22135000024,"y":2543887.3696589991}},{"attributes":{"ID":658314,"DIS_CODE":0,"TOWNNAME":"官田區","LI":"南\u25A0里","LIN":"8鄰","STREET":" ","SECT":" ","MAREA":"南\u25A0","LANE":" ","ALLEY":" ","HOUSE_NO":"１１０號之１","E_COORD97":178064.73157,"N_COORD97":2568793.0526200002,"ADDRESS":"南\u25A0１１０號之１","OBJECTID":658287},"geometry":{"x":178064.73157000076,"y":2568793.052616002}},{"attributes":{"ID":658315,"DIS_CODE":0,"TOWNNAME":"中西區","LI":"三民里","LIN":"12鄰","STREET":"中山路","SECT":" ","MAREA":" ","LANE":"７９巷","ALLEY":" ","HOUSE_NO":"２２號之６０","E_COORD97":168708.829742,"N_COORD97":2543888.0046600001,"ADDRESS":"中山路７９巷２２號之６０","OBJECTID":658288},"geometry":{"x":168708.82974200044,"y":2543888.0046579987}},{"attributes":{"ID":658316,"DIS_CODE":0,"TOWNNAME":"中西區","LI":"三民里","LIN":"12鄰","STREET":"中山路","SECT":" ","MAREA":" ","LANE":"７９巷","ALLEY":" ","HOUSE_NO":"２２號之５５","E_COORD97":168710.73752200001,"N_COORD97":2543890.33299,"ADDRESS":"中山路７９巷２２號之５５","OBJECTID":658289},"geometry":{"x":168710.73752200138,"y":2543890.3329900019}},{"attributes":{"ID":658317,"DIS_CODE":0,"TOWNNAME":"中西區","LI":"三民里","LIN":"12鄰","STREET":"中山路","SECT":" ","MAREA":" ","LANE":"７９巷","ALLEY":" ","HOUSE_NO":"２２號之７３","E_COORD97":168713.06925199999,"N_COORD97":2543890.1213199999,"ADDRESS":"中山路７９巷２２號之７３","OBJECTID":658290},"geometry":{"x":168713.06925200019,"y":2543890.1213240009}},{"attributes":{"ID":658318,"DIS_CODE":0,"TOWNNAME":"中西區","LI":"三民里","LIN":"12鄰","STREET":"中山路","SECT":" ","MAREA":" ","LANE":"７９巷","ALLEY":" ","HOUSE_NO":"２２號之７２","E_COORD97":168713.705178,"N_COORD97":2543893.2963200002,"ADDRESS":"中山路７９巷２２號之７２","OBJECTID":658291},"geometry":{"x":168713.70517800096,"y":2543893.2963219993}},{"attributes":{"ID":658319,"DIS_CODE":0,"TOWNNAME":"中西區","LI":"三民里","LIN":"12鄰","STREET":"中山路","SECT":" ","MAREA":" ","LANE":"７９巷","ALLEY":" ","HOUSE_NO":"２２號之７１","E_COORD97":168714.12912900001,"N_COORD97":2543896.2596499999,"ADDRESS":"中山路７９巷２２號之７１","OBJECTID":658292},"geometry":{"x":168714.12912900001,"y":2543896.2596540023}},{"attributes":{"ID":658320,"DIS_CODE":0,"TOWNNAME":"中西區","LI":"三民里","LIN":"12鄰","STREET":"中山路","SECT":" ","MAREA":" ","LANE":"７９巷","ALLEY":" ","HOUSE_NO":"２２號之７０","E_COORD97":168714.55308000001,"N_COORD97":2543899.01132,"ADDRESS":"中山路７９巷２２號之７０","OBJECTID":658293},"geometry":{"x":168714.55308000091,"y":2543899.011319004}},{"attributes":{"ID":658321,"DIS_CODE":0,"TOWNNAME":"中西區","LI":"三民里","LIN":"12鄰","STREET":"中山路","SECT":" ","MAREA":" ","LANE":"７９巷","ALLEY":" ","HOUSE_NO":"２２號之６９","E_COORD97":168714.97703099999,"N_COORD97":2543901.9746500002,"ADDRESS":"中山路７９巷２２號之６９","OBJECTID":658294},"geometry":{"x":168714.97703099996,"y":2543901.9746510014}},{"attributes":{"ID":658322,"DIS_CODE":0,"TOWNNAME":"中西區","LI":"三民里","LIN":"12鄰","STREET":"中山路","SECT":" ","MAREA":" ","LANE":"７９巷","ALLEY":" ","HOUSE_NO":"２２號之６８","E_COORD97":168716.88480999999,"N_COORD97":2543907.6896500001,"ADDRESS":"中山路７９巷２２號之６８","OBJECTID":658295},"geometry":{"x":168716.88480999973,"y":2543907.6896480005}},{"attributes":{"ID":658323,"DIS_CODE":0,"TOWNNAME":"中西區","LI":"三民里","LIN":"12鄰","STREET":"中山路","SECT":" ","MAREA":" ","LANE":"７９巷","ALLEY":" ","HOUSE_NO":"２２號之６７","E_COORD97":168717.52073600001,"N_COORD97":2543911.0763099999,"ADDRESS":"中山路７９巷２２號之６７","OBJECTID":658296},"geometry":{"x":168717.5207360005,"y":2543911.0763130002}},{"attributes":{"ID":658324,"DIS_CODE":0,"TOWNNAME":"中西區","LI":"三民里","LIN":"12鄰","STREET":"中山路","SECT":" ","MAREA":" ","LANE":"７９巷","ALLEY":" ","HOUSE_NO":"２２號之６６","E_COORD97":168718.36863800001,"N_COORD97":2543913.4046499999,"ADDRESS":"中山路７９巷２２號之６６","OBJECTID":658297},"geometry":{"x":168718.36863800045,"y":2543913.4046449997}},{"attributes":{"ID":658325,"DIS_CODE":0,"TOWNNAME":"中西區","LI":"三民里","LIN":"12鄰","STREET":"中山路","SECT":" ","MAREA":" ","LANE":"７９巷","ALLEY":" ","HOUSE_NO":"２２號之６５","E_COORD97":168718.79258899999,"N_COORD97":2543915.9446399999,"ADDRESS":"中山路７９巷２２號之６５","OBJECTID":658298},"geometry":{"x":168718.79258900136,"y":2543915.9446430001}},{"attributes":{"ID":658326,"DIS_CODE":0,"TOWNNAME":"中西區","LI":"三民里","LIN":"12鄰","STREET":"中山路","SECT":" ","MAREA":" ","LANE":"７９巷","ALLEY":" ","HOUSE_NO":"２２號之６４","E_COORD97":168725.99975399999,"N_COORD97":2543911.9229799998,"ADDRESS":"中山路７９巷２２號之６４","OBJECTID":658299},"geometry":{"x":168725.99975400139,"y":2543911.9229790028}},{"attributes":{"ID":658327,"DIS_CODE":0,"TOWNNAME":"中西區","LI":"三民里","LIN":"12鄰","STREET":"中山路","SECT":" ","MAREA":" ","LANE":"７９巷","ALLEY":" ","HOUSE_NO":"２２號之６３","E_COORD97":168725.15185200001,"N_COORD97":2543908.9596500001,"ADDRESS":"中山路７９巷２２號之６３","OBJECTID":658300},"geometry":{"x":168725.15185199957,"y":2543908.9596469998}},{"attributes":{"ID":658328,"DIS_CODE":0,"TOWNNAME":"安南區","LI":"梅花里","LIN":"1鄰","STREET":"北安路","SECT":"二段","MAREA":" ","LANE":" ","ALLEY":" ","HOUSE_NO":"３６３之２１號","E_COORD97":168231.681335,"N_COORD97":2548819.17717,"ADDRESS":"北安路二段３６３之２１號","OBJECTID":658301},"geometry":{"x":168231.68133500125,"y":2548819.1771709993}},{"attributes":{"ID":658329,"DIS_CODE":0,"TOWNNAME":"中西區","LI":"三民里","LIN":"12鄰","STREET":"中山路","SECT":" ","MAREA":" ","LANE":"７９巷","ALLEY":" ","HOUSE_NO":"２２號之６２","E_COORD97":168724.09197499999,"N_COORD97":2543905.9963199999,"ADDRESS":"中山路７９巷２２號之６２","OBJECTID":658302},"geometry":{"x":168724.09197499976,"y":2543905.9963150024}},{"attributes":{"ID":658330,"DIS_CODE":0,"TOWNNAME":"中西區","LI":"三民里","LIN":"12鄰","STREET":"中山路","SECT":" ","MAREA":" ","LANE":"７９巷","ALLEY":" ","HOUSE_NO":"２２號之６１","E_COORD97":168723.456049,"N_COORD97":2543902.8213200001,"ADDRESS":"中山路７９巷２２號之６１","OBJECTID":658303},"geometry":{"x":168723.45604900084,"y":2543902.8213170022}},{"attributes":{"ID":658331,"DIS_CODE":0,"TOWNNAME":"中西區","LI":"三民里","LIN":"12鄰","STREET":"中山路","SECT":" ","MAREA":" ","LANE":"７９巷","ALLEY":" ","HOUSE_NO":"２２號之７４","E_COORD97":168717.94468700001,"N_COORD97":2543890.1213199999,"ADDRESS":"中山路７９巷２２號之７４","OBJECTID":658304},"geometry":{"x":168717.94468699954,"y":2543890.1213240009}},{"attributes":{"ID":658332,"DIS_CODE":0,"TOWNNAME":"中西區","LI":"三民里","LIN":"12鄰","STREET":"中山路","SECT":" ","MAREA":" ","LANE":"７９巷","ALLEY":" ","HOUSE_NO":"２２號之７５","E_COORD97":168718.580613,"N_COORD97":2543892.66132,"ADDRESS":"中山路７９巷２２號之７５","OBJECTID":658305},"geometry":{"x":168718.58061300032,"y":2543892.6613219995}},{"attributes":{"ID":658333,"DIS_CODE":0,"TOWNNAME":"中西區","LI":"三民里","LIN":"12鄰","STREET":"中山路","SECT":" ","MAREA":" ","LANE":"７９巷","ALLEY":" ","HOUSE_NO":"２２號之７６","E_COORD97":168720.064442,"N_COORD97":2543895.6246500001,"ADDRESS":"中山路７９巷２２號之７６","OBJECTID":658306},"geometry":{"x":168720.06444200035,"y":2543895.6246540025}},{"attributes":{"ID":658334,"DIS_CODE":0,"TOWNNAME":"中西區","LI":"三民里","LIN":"12鄰","STREET":"中山路","SECT":" ","MAREA":" ","LANE":"７９巷","ALLEY":" ","HOUSE_NO":"２２號之７７","E_COORD97":168720.488392,"N_COORD97":2543897.9529900001,"ADDRESS":"中山路７９巷２２號之７７","OBJECTID":658307},"geometry":{"x":168720.48839200009,"y":2543897.9529860001}},{"attributes":{"ID":658335,"DIS_CODE":0,"TOWNNAME":"安平區","LI":"文平里","LIN":"2鄰","STREET":"中華西路","SECT":"二段","MAREA":" ","LANE":" ","ALLEY":" ","HOUSE_NO":"６３號","E_COORD97":166603.764238,"N_COORD97":2543203.6361400001,"ADDRESS":"中華西路二段６３號","OBJECTID":658308},"geometry":{"x":166603.76423800085,"y":2543203.6361370012}},{"attributes":{"ID":658336,"DIS_CODE":0,"TOWNNAME":"中西區","LI":"三民里","LIN":"12鄰","STREET":"中山路","SECT":" ","MAREA":" ","LANE":"７９巷","ALLEY":" ","HOUSE_NO":"２２號之７８","E_COORD97":168720.912343,"N_COORD97":2543900.06965,"ADDRESS":"中山路７９巷２２號之７８","OBJECTID":658309},"geometry":{"x":168720.91234300099,"y":2543900.0696520023}},{"attributes":{"ID":658337,"DIS_CODE":0,"TOWNNAME":"東區","LI":"中西里","LIN":"7鄰","STREET":"懷恩街","SECT":" ","MAREA":" ","LANE":" ","ALLEY":" ","HOUSE_NO":"４４號","E_COORD97":169856.013939,"N_COORD97":2543333.56482,"ADDRESS":"懷恩街４４號","OBJECTID":658310},"geometry":{"x":169856.0139390016,"y":2543333.5648180041}},{"attributes":{"ID":658338,"DIS_CODE":0,"TOWNNAME":"安南區","LI":"梅花里","LIN":"1鄰","STREET":"北安路","SECT":"二段","MAREA":" ","LANE":" ","ALLEY":" ","HOUSE_NO":"３０５號之１","E_COORD97":168434.68947799999,"N_COORD97":2547966.16096,"ADDRESS":"北安路二段３０５號之１","OBJECTID":658311},"geometry":{"x":168434.68947799969,"y":2547966.1609649993}},{"attributes":{"ID":658339,"DIS_CODE":0,"TOWNNAME":"安平區","LI":"平通里","LIN":"20鄰","STREET":"育平九街","SECT":" ","MAREA":" ","LANE":"３７２巷","ALLEY":"１８９弄","HOUSE_NO":"４１號","E_COORD97":164488.079516,"N_COORD97":2544192.11894,"ADDRESS":"育平九街３７２巷１８９弄４１號","OBJECTID":658312},"geometry":{"x":164488.07951600011,"y":2544192.1189370025}},{"attributes":{"ID":658340,"DIS_CODE":0,"TOWNNAME":"中西區","LI":"三民里","LIN":"10鄰","STREET":"中山路","SECT":" ","MAREA":" ","LANE":"７９巷","ALLEY":" ","HOUSE_NO":"２６號","E_COORD97":168710.41955799999,"N_COORD97":2543908.5363099999,"ADDRESS":"中山路７９巷２６號","OBJECTID":658313},"geometry":{"x":168710.41955799982,"y":2543908.5363140013}},{"attributes":{"ID":658341,"DIS_CODE":0,"TOWNNAME":"中西區","LI":"三民里","LIN":"10鄰","STREET":"中山路","SECT":" ","MAREA":" ","LANE":"７９巷","ALLEY":" ","HOUSE_NO":"２４號","E_COORD97":168721.23030699999,"N_COORD97":2543921.02464,"ADDRESS":"中山路７９巷２４號","OBJECTID":658314},"geometry":{"x":168721.23030700069,"y":2543921.0246399995}},{"attributes":{"ID":658342,"DIS_CODE":0,"TOWNNAME":"安南區","LI":"梅花里","LIN":"1鄰","STREET":"北安路","SECT":"二段","MAREA":" ","LANE":" ","ALLEY":" ","HOUSE_NO":"３０５之４６號","E_COORD97":168416.68667,"N_COORD97":2548127.87421,"ADDRESS":"北安路二段３０５之４６號","OBJECTID":658315},"geometry":{"x":168416.68667000066,"y":2548127.8742110021}},{"attributes":{"ID":658343,"DIS_CODE":0,"TOWNNAME":"安平區","LI":"育平里","LIN":"34鄰","STREET":"郡平路","SECT":" ","MAREA":" ","LANE":" ","ALLEY":" ","HOUSE_NO":"２５２號","E_COORD97":164485.53662599999,"N_COORD97":2543372.1227099998,"ADDRESS":"郡平路２５２號","OBJECTID":658316},"geometry":{"x":164485.53662599996,"y":2543372.1227130014}},{"attributes":{"ID":658344,"DIS_CODE":0,"TOWNNAME":"安南區","LI":"梅花里","LIN":"1鄰","STREET":"北安路","SECT":"二段","MAREA":" ","LANE":" ","ALLEY":" ","HOUSE_NO":"３０５之４７號","E_COORD97":168415.62768100001,"N_COORD97":2548156.23753,"ADDRESS":"北安路二段３０５之４７號","OBJECTID":658317},"geometry":{"x":168415.62768100109,"y":2548156.2375290003}},{"attributes":{"ID":658345,"DIS_CODE":0,"TOWNNAME":"安平區","LI":"育平里","LIN":"33鄰","STREET":"光州六街","SECT":" ","MAREA":" ","LANE":" ","ALLEY":" ","HOUSE_NO":"２７號","E_COORD97":164472.822174,"N_COORD97":2543528.9676299999,"ADDRESS":"光州六街２７號","OBJECTID":658318},"geometry":{"x":164472.82217400055,"y":2543528.9676280022}},{"attributes":{"ID":658346,"DIS_CODE":0,"TOWNNAME":"西港區","LI":"檨林里","LIN":"8鄰","STREET":" ","SECT":" ","MAREA":"檨子林","LANE":" ","ALLEY":" ","HOUSE_NO":"６６之５號","E_COORD97":171355.69961099999,"N_COORD97":2559521.16909,"ADDRESS":"檨子林６６之５號","OBJECTID":658319},"geometry":{"x":171355.69961100072,"y":2559521.1690880004}},{"attributes":{"ID":658347,"DIS_CODE":0,"TOWNNAME":"安平區","LI":"育平里","LIN":"37鄰","STREET":"育平三街","SECT":" ","MAREA":" ","LANE":" ","ALLEY":" ","HOUSE_NO":"２７號","E_COORD97":164481.51038299999,"N_COORD97":2543169.1344900001,"ADDRESS":"育平三街２７號","OBJECTID":658320},"geometry":{"x":164481.51038299967,"y":2543169.1344890017}},{"attributes":{"ID":658348,"DIS_CODE":0,"TOWNNAME":"東區","LI":"中西里","LIN":"37鄰","STREET":"林森路","SECT":"二段","MAREA":" ","LANE":"９１巷","ALLEY":" ","HOUSE_NO":"２０號之２","E_COORD97":170372.22431699999,"N_COORD97":2543377.1880000001,"ADDRESS":"林森路二段９１巷２０號之２","OBJECTID":658321},"geometry":{"x":170372.22431699932,"y":2543377.1880019996}},{"attributes":{"ID":658349,"DIS_CODE":0,"TOWNNAME":"安平區","LI":"育平里","LIN":"37鄰","STREET":"育平三街","SECT":" ","MAREA":" ","LANE":" ","ALLEY":" ","HOUSE_NO":"３９之１號","E_COORD97":164450.35996999999,"N_COORD97":2543174.4261500002,"ADDRESS":"育平三街３９之１號","OBJECTID":658322},"geometry":{"x":164450.35996999964,"y":2543174.4261499997}},{"attributes":{"ID":658350,"DIS_CODE":0,"TOWNNAME":"東區","LI":"中西里","LIN":"37鄰","STREET":"林森路","SECT":"二段","MAREA":" ","LANE":"９１巷","ALLEY":" ","HOUSE_NO":"２０號之３","E_COORD97":170369.68183300001,"N_COORD97":2543380.78633,"ADDRESS":"林森路二段９１巷２０號之３","OBJECTID":658323},"geometry":{"x":170369.68183300178,"y":2543380.7863340024}},{"attributes":{"ID":658351,"DIS_CODE":0,"TOWNNAME":"安平區","LI":"金城里","LIN":"13鄰","STREET":"世平五街","SECT":" ","MAREA":" ","LANE":"４０巷","ALLEY":" ","HOUSE_NO":"２８號","E_COORD97":162657.19850699999,"N_COORD97":2544164.8139499999,"ADDRESS":"世平五街４０巷２８號","OBJECTID":658324},"geometry":{"x":162657.19850700069,"y":2544164.8139520027}},{"attributes":{"ID":658352,"DIS_CODE":0,"TOWNNAME":"安平區","LI":"國平里","LIN":"13鄰","STREET":"建平一街","SECT":" ","MAREA":" ","LANE":" ","ALLEY":" ","HOUSE_NO":"２１１號","E_COORD97":165563.93401600001,"N_COORD97":2542781.5730300001,"ADDRESS":"建平一街２１１號","OBJECTID":658325},"geometry":{"x":165563.93401600234,"y":2542781.5730319992}},{"attributes":{"ID":658353,"DIS_CODE":0,"TOWNNAME":"西港區","LI":"檨林里","LIN":"8鄰","STREET":" ","SECT":" ","MAREA":"檨子林","LANE":" ","ALLEY":" ","HOUSE_NO":"６６之６號","E_COORD97":171356.54675199999,"N_COORD97":2559527.51908,"ADDRESS":"檨子林６６之６號","OBJECTID":658326},"geometry":{"x":171356.54675200116,"y":2559527.5190839991}},{"attributes":{"ID":658354,"DIS_CODE":0,"TOWNNAME":"安平區","LI":"億載里","LIN":"2鄰","STREET":"永華十一街","SECT":" ","MAREA":" ","LANE":"１４１巷","ALLEY":" ","HOUSE_NO":"３１號","E_COORD97":163990.30874199999,"N_COORD97":2543777.6758300001,"ADDRESS":"永華十一街１４１巷３１號","OBJECTID":658327},"geometry":{"x":163990.30874199979,"y":2543777.6758270022}},{"attributes":{"ID":658355,"DIS_CODE":0,"TOWNNAME":"安平區","LI":"億載里","LIN":"1鄰","STREET":"平豐路","SECT":" ","MAREA":" ","LANE":"３９１巷","ALLEY":"２２弄","HOUSE_NO":"３６號","E_COORD97":164187.59464699999,"N_COORD97":2543891.7640999998,"ADDRESS":"平豐路３９１巷２２弄３６號","OBJECTID":658328},"geometry":{"x":164187.59464700054,"y":2543891.764099}},{"attributes":{"ID":658356,"DIS_CODE":0,"TOWNNAME":"楠西區","LI":"照興里","LIN":"8鄰","STREET":" ","SECT":" ","MAREA":"興北","LANE":" ","ALLEY":" ","HOUSE_NO":"９６號之１２","E_COORD97":197292.927394,"N_COORD97":2565826.1143499999,"ADDRESS":"興北９６號之１２","OBJECTID":658329},"geometry":{"x":197292.92739400081,"y":2565826.1143479999}},{"attributes":{"ID":658357,"DIS_CODE":0,"TOWNNAME":"西港區","LI":"檨林里","LIN":"8鄰","STREET":" ","SECT":" ","MAREA":"檨子林","LANE":" ","ALLEY":" ","HOUSE_NO":"６６之７號","E_COORD97":171356.97032200001,"N_COORD97":2559533.2340799998,"ADDRESS":"檨子林６６之７號","OBJECTID":658330},"geometry":{"x":171356.97032199986,"y":2559533.2340810038}},{"attributes":{"ID":658358,"DIS_CODE":0,"TOWNNAME":"安平區","LI":"億載里","LIN":"1鄰","STREET":"平豐路","SECT":" ","MAREA":" ","LANE":"３９１巷","ALLEY":"２２弄","HOUSE_NO":"３８號","E_COORD97":164182.296959,"N_COORD97":2543891.5524300002,"ADDRESS":"平豐路３９１巷２２弄３８號","OBJECTID":658331},"geometry":{"x":164182.29695900064,"y":2543891.5524330027}},{"attributes":{"ID":658359,"DIS_CODE":0,"TOWNNAME":"楠西區","LI":"照興里","LIN":"8鄰","STREET":" ","SECT":" ","MAREA":"興北","LANE":" ","ALLEY":" ","HOUSE_NO":"９６號之１６","E_COORD97":197314.114619,"N_COORD97":2565822.9393500001,"ADDRESS":"興北９６號之１６","OBJECTID":658332},"geometry":{"x":197314.11461899988,"y":2565822.9393489994}},{"attributes":{"ID":658360,"DIS_CODE":0,"TOWNNAME":"楠西區","LI":"照興里","LIN":"8鄰","STREET":" ","SECT":" ","MAREA":"興北","LANE":" ","ALLEY":" ","HOUSE_NO":"９６號之１７","E_COORD97":197315.80959700001,"N_COORD97":2565814.4726900002,"ADDRESS":"興北９６號之１７","OBJECTID":658333},"geometry":{"x":197315.80959700141,"y":2565814.4726870004}},{"attributes":{"ID":658361,"DIS_CODE":0,"TOWNNAME":"楠西區","LI":"照興里","LIN":"8鄰","STREET":" ","SECT":" ","MAREA":"興北","LANE":" ","ALLEY":" ","HOUSE_NO":"９６號之１８","E_COORD97":197318.77580900001,"N_COORD97":2565800.7143600001,"ADDRESS":"興北９６號之１８","OBJECTID":658334},"geometry":{"x":197318.77580900118,"y":2565800.7143610045}},{"attributes":{"ID":658362,"DIS_CODE":0,"TOWNNAME":"官田區","LI":"南\u25A0里","LIN":"9鄰","STREET":" ","SECT":" ","MAREA":"南\u25A0","LANE":" ","ALLEY":" ","HOUSE_NO":"１１６號之３","E_COORD97":178695.82144,"N_COORD97":2568994.3382100002,"ADDRESS":"南\u25A0１１６號之３","OBJECTID":658335},"geometry":{"x":178695.82144000009,"y":2568994.3382110037}},{"attributes":{"ID":658363,"DIS_CODE":0,"TOWNNAME":"官田區","LI":"南\u25A0里","LIN":"9鄰","STREET":" ","SECT":" ","MAREA":"南\u25A0","LANE":" ","ALLEY":" ","HOUSE_NO":"１１６號之４","E_COORD97":178700.48160900001,"N_COORD97":2568993.7032099999,"ADDRESS":"南\u25A0１１６號之４","OBJECTID":658336},"geometry":{"x":178700.48160900082,"y":2568993.7032110039}},{"attributes":{"ID":658364,"DIS_CODE":0,"TOWNNAME":"楠西區","LI":"照興里","LIN":"8鄰","STREET":" ","SECT":" ","MAREA":"興北","LANE":" ","ALLEY":" ","HOUSE_NO":"９６號之１９","E_COORD97":197314.53836400001,"N_COORD97":2565790.1310299998,"ADDRESS":"興北９６號之１９","OBJECTID":658337},"geometry":{"x":197314.53836400155,"y":2565790.1310340017}},{"attributes":{"ID":658365,"DIS_CODE":0,"TOWNNAME":"楠西區","LI":"照興里","LIN":"8鄰","STREET":" ","SECT":" ","MAREA":"興北","LANE":" ","ALLEY":" ","HOUSE_NO":"９６號之２０","E_COORD97":197334.24248399999,"N_COORD97":2565784.8393700002,"ADDRESS":"興北９６號之２０","OBJECTID":658338},"geometry":{"x":197334.24248400051,"y":2565784.8393700011}},{"attributes":{"ID":658366,"DIS_CODE":0,"TOWNNAME":"安平區","LI":"億載里","LIN":"15鄰","STREET":"府平路","SECT":" ","MAREA":" ","LANE":" ","ALLEY":" ","HOUSE_NO":"５４６號","E_COORD97":164117.877071,"N_COORD97":2543105.84619,"ADDRESS":"府平路５４６號","OBJECTID":658339},"geometry":{"x":164117.87707100064,"y":2543105.84619}},{"attributes":{"ID":658367,"DIS_CODE":0,"TOWNNAME":"楠西區","LI":"照興里","LIN":"8鄰","STREET":" ","SECT":" ","MAREA":"興北","LANE":" ","ALLEY":" ","HOUSE_NO":"９６號之２１","E_COORD97":197344.41235200001,"N_COORD97":2565772.5627100002,"ADDRESS":"興北９６號之２１","OBJECTID":658340},"geometry":{"x":197344.41235200129,"y":2565772.5627100021}},{"attributes":{"ID":658368,"DIS_CODE":0,"TOWNNAME":"安平區","LI":"文平里","LIN":"7鄰","STREET":"建平七街","SECT":" ","MAREA":" ","LANE":" ","ALLEY":" ","HOUSE_NO":"６２號","E_COORD97":166311.119947,"N_COORD97":2543240.8894500001,"ADDRESS":"建平七街６２號","OBJECTID":658341},"geometry":{"x":166311.11994700227,"y":2543240.8894510027}},{"attributes":{"ID":658369,"DIS_CODE":0,"TOWNNAME":"安平區","LI":"文平里","LIN":"1鄰","STREET":"建平七街","SECT":" ","MAREA":" ","LANE":" ","ALLEY":" ","HOUSE_NO":"９之１號","E_COORD97":166512.64400199999,"N_COORD97":2543190.0894800001,"ADDRESS":"建平七街９之１號","OBJECTID":658342},"geometry":{"x":166512.64400200173,"y":2543190.0894780029}},{"attributes":{"ID":658370,"DIS_CODE":0,"TOWNNAME":"楠西區","LI":"照興里","LIN":"10鄰","STREET":" ","SECT":" ","MAREA":"興南","LANE":" ","ALLEY":" ","HOUSE_NO":"１號之１","E_COORD97":196547.137044,"N_COORD97":2565240.00966,"ADDRESS":"興南１號之１","OBJECTID":658343},"geometry":{"x":196547.13704400044,"y":2565240.0096640009}},{"attributes":{"ID":658371,"DIS_CODE":0,"TOWNNAME":"楠西區","LI":"照興里","LIN":"10鄰","STREET":" ","SECT":" ","MAREA":"興南","LANE":" ","ALLEY":" ","HOUSE_NO":"３號之４","E_COORD97":196583.36720000001,"N_COORD97":2565199.5813500001,"ADDRESS":"興南３號之４","OBJECTID":658344},"geometry":{"x":196583.36720000021,"y":2565199.5813519992}},{"attributes":{"ID":658372,"DIS_CODE":0,"TOWNNAME":"西港區","LI":"檨林里","LIN":"8鄰","STREET":" ","SECT":" ","MAREA":"檨子林","LANE":" ","ALLEY":" ","HOUSE_NO":"６６之８號","E_COORD97":171361.206026,"N_COORD97":2559532.2815800002,"ADDRESS":"檨子林６６之８號","OBJECTID":658345},"geometry":{"x":171361.2060260009,"y":2559532.2815819997}},{"attributes":{"ID":658373,"DIS_CODE":0,"TOWNNAME":"西港區","LI":"檨林里","LIN":"8鄰","STREET":" ","SECT":" ","MAREA":"檨子林","LANE":" ","ALLEY":" ","HOUSE_NO":"６６之９號","E_COORD97":171366.077086,"N_COORD97":2559534.8215800002,"ADDRESS":"檨子林６６之９號","OBJECTID":658346},"geometry":{"x":171366.0770860007,"y":2559534.8215800002}},{"attributes":{"ID":658374,"DIS_CODE":0,"TOWNNAME":"安平區","LI":"平通里","LIN":"29鄰","STREET":"育平九街","SECT":" ","MAREA":" ","LANE":"３７２巷","ALLEY":"３３弄","HOUSE_NO":"３之１號","E_COORD97":164580.04738199999,"N_COORD97":2543847.5257899999,"ADDRESS":"育平九街３７２巷３３弄３之１號","OBJECTID":658347},"geometry":{"x":164580.04738200083,"y":2543847.5257899985}},{"attributes":{"ID":658375,"DIS_CODE":0,"TOWNNAME":"楠西區","LI":"照興里","LIN":"10鄰","STREET":" ","SECT":" ","MAREA":"興北","LANE":" ","ALLEY":" ","HOUSE_NO":"１３１號之１","E_COORD97":196766.636703,"N_COORD97":2565235.14133,"ADDRESS":"興北１３１號之１","OBJECTID":658348},"geometry":{"x":196766.63670300134,"y":2565235.1413329989}},{"attributes":{"ID":658376,"DIS_CODE":0,"TOWNNAME":"安平區","LI":"平通里","LIN":"29鄰","STREET":"育平九街","SECT":" ","MAREA":" ","LANE":"３７２巷","ALLEY":"３３弄","HOUSE_NO":"３之２號","E_COORD97":164575.597324,"N_COORD97":2543847.94912,"ADDRESS":"育平九街３７２巷３３弄３之２號","OBJECTID":658349},"geometry":{"x":164575.5973240016,"y":2543847.949122997}},{"attributes":{"ID":658377,"DIS_CODE":0,"TOWNNAME":"西港區","LI":"檨林里","LIN":"8鄰","STREET":" ","SECT":" ","MAREA":"檨子林","LANE":" ","ALLEY":" ","HOUSE_NO":"６６之１０號","E_COORD97":171370.312791,"N_COORD97":2559533.3399100001,"ADDRESS":"檨子林６６之１０號","OBJECTID":658350},"geometry":{"x":171370.31279100105,"y":2559533.3399139997}},{"attributes":{"ID":658378,"DIS_CODE":0,"TOWNNAME":"安平區","LI":"育平里","LIN":"30鄰","STREET":"育平路","SECT":" ","MAREA":" ","LANE":" ","ALLEY":" ","HOUSE_NO":"１２０號","E_COORD97":164566.27339300001,"N_COORD97":2543167.4411599999,"ADDRESS":"育平路１２０號","OBJECTID":658351},"geometry":{"x":164566.27339300048,"y":2543167.4411570039}},{"attributes":{"ID":658379,"DIS_CODE":0,"TOWNNAME":"安平區","LI":"育平里","LIN":"30鄰","STREET":"育平路","SECT":" ","MAREA":" ","LANE":" ","ALLEY":" ","HOUSE_NO":"１２２號","E_COORD97":164567.33293,"N_COORD97":2543172.0978199998,"ADDRESS":"育平路１２２號","OBJECTID":658352},"geometry":{"x":164567.33292999957,"y":2543172.0978210047}},{"attributes":{"ID":658380,"DIS_CODE":0,"TOWNNAME":"安平區","LI":"育平里","LIN":"30鄰","STREET":"育平路","SECT":" ","MAREA":" ","LANE":" ","ALLEY":" ","HOUSE_NO":"１２６號","E_COORD97":164567.75674499999,"N_COORD97":2543176.5428200001,"ADDRESS":"育平路１２６號","OBJECTID":658353},"geometry":{"x":164567.7567450013,"y":2543176.5428190026}},{"attributes":{"ID":658381,"DIS_CODE":0,"TOWNNAME":"安平區","LI":"育平里","LIN":"30鄰","STREET":"育平路","SECT":" ","MAREA":" ","LANE":" ","ALLEY":" ","HOUSE_NO":"１２８號","E_COORD97":164568.18056000001,"N_COORD97":2543181.6228200002,"ADDRESS":"育平路１２８號","OBJECTID":658354},"geometry":{"x":164568.18056000024,"y":2543181.622816002}},{"attributes":{"ID":658382,"DIS_CODE":0,"TOWNNAME":"安平區","LI":"育平里","LIN":"30鄰","STREET":"育平路","SECT":" ","MAREA":" ","LANE":" ","ALLEY":" ","HOUSE_NO":"１３０號","E_COORD97":164569.452005,"N_COORD97":2543186.4911500001,"ADDRESS":"育平路１３０號","OBJECTID":658355},"geometry":{"x":164569.45200500078,"y":2543186.4911470003}},{"attributes":{"ID":658383,"DIS_CODE":0,"TOWNNAME":"安平區","LI":"育平里","LIN":"30鄰","STREET":"育平路","SECT":" ","MAREA":" ","LANE":" ","ALLEY":" ","HOUSE_NO":"１３２號","E_COORD97":164570.08772800001,"N_COORD97":2543190.7244799999,"ADDRESS":"育平路１３２號","OBJECTID":658356},"geometry":{"x":164570.08772800118,"y":2543190.7244780026}},{"attributes":{"ID":658384,"DIS_CODE":0,"TOWNNAME":"安平區","LI":"建平里","LIN":"21鄰","STREET":"怡平路","SECT":" ","MAREA":" ","LANE":" ","ALLEY":" ","HOUSE_NO":"１１１號","E_COORD97":165923.752993,"N_COORD97":2543741.4808499999,"ADDRESS":"怡平路１１１號","OBJECTID":658357},"geometry":{"x":165923.75299300067,"y":2543741.4808470048}},{"attributes":{"ID":658385,"DIS_CODE":0,"TOWNNAME":"安平區","LI":"建平里","LIN":"11鄰","STREET":"慶平路","SECT":" ","MAREA":" ","LANE":" ","ALLEY":" ","HOUSE_NO":"１２９號","E_COORD97":166133.32953399999,"N_COORD97":2544168.4122799998,"ADDRESS":"慶平路１２９號","OBJECTID":658358},"geometry":{"x":166133.32953400072,"y":2544168.4122829996}},{"attributes":{"ID":658386,"DIS_CODE":0,"TOWNNAME":"安平區","LI":"億載里","LIN":"8鄰","STREET":"永華路","SECT":"二段","MAREA":" ","LANE":" ","ALLEY":" ","HOUSE_NO":"１２３８號","E_COORD97":163987.977759,"N_COORD97":2543636.7058999999,"ADDRESS":"永華路二段１２３８號","OBJECTID":658359},"geometry":{"x":163987.97775900085,"y":2543636.7059039995}},{"attributes":{"ID":658387,"DIS_CODE":0,"TOWNNAME":"安平區","LI":"億載里","LIN":"5鄰","STREET":"永華十一街","SECT":" ","MAREA":" ","LANE":"１１３巷","ALLEY":" ","HOUSE_NO":"２９號","E_COORD97":163985.43486899999,"N_COORD97":2543673.9592200001,"ADDRESS":"永華十一街１１３巷２９號","OBJECTID":658360},"geometry":{"x":163985.43486900069,"y":2543673.9592170008}},{"attributes":{"ID":658388,"DIS_CODE":0,"TOWNNAME":"新營區","LI":"王公里","LIN":"34鄰","STREET":"中正路","SECT":" ","MAREA":" ","LANE":" ","ALLEY":" ","HOUSE_NO":"２２２號","E_COORD97":180086.61924299999,"N_COORD97":2579831.64279,"ADDRESS":"中正路２２２號","OBJECTID":658361},"geometry":{"x":180086.61924300063,"y":2579831.6427929997}},{"attributes":{"ID":658389,"DIS_CODE":0,"TOWNNAME":"七股區","LI":"大埕里","LIN":"19鄰","STREET":" ","SECT":" ","MAREA":"大埕","LANE":" ","ALLEY":" ","HOUSE_NO":"３５１號之４９","E_COORD97":161954.05226999999,"N_COORD97":2560082.7652799999,"ADDRESS":"大埕３５１號之４９","OBJECTID":658362},"geometry":{"x":161954.05226999987,"y":2560082.7652809992}},{"attributes":{"ID":658390,"DIS_CODE":0,"TOWNNAME":"下營區","LI":"營前里","LIN":"21鄰","STREET":"健康路","SECT":" ","MAREA":" ","LANE":"２２１巷","ALLEY":" ","HOUSE_NO":"７號","E_COORD97":174932.450912,"N_COORD97":2570327.3706999999,"ADDRESS":"健康路２２１巷７號","OBJECTID":658363},"geometry":{"x":174932.45091200061,"y":2570327.3707040008}},{"attributes":{"ID":658391,"DIS_CODE":0,"TOWNNAME":"新營區","LI":"王公里","LIN":"7鄰","STREET":"民治路","SECT":" ","MAREA":" ","LANE":"２６巷","ALLEY":" ","HOUSE_NO":"２７之３號","E_COORD97":180164.90972299999,"N_COORD97":2579006.3549100002,"ADDRESS":"民治路２６巷２７之３號","OBJECTID":658364},"geometry":{"x":180164.90972299967,"y":2579006.3549050018}},{"attributes":{"ID":658392,"DIS_CODE":0,"TOWNNAME":"新營區","LI":"王公里","LIN":"7鄰","STREET":"民治路","SECT":" ","MAREA":" ","LANE":"２６巷","ALLEY":" ","HOUSE_NO":"２７之４號","E_COORD97":180162.36713699999,"N_COORD97":2579006.8840700001,"ADDRESS":"民治路２６巷２７之４號","OBJECTID":658365},"geometry":{"x":180162.3671370009,"y":2579006.8840710018}},{"attributes":{"ID":658393,"DIS_CODE":0,"TOWNNAME":"新營區","LI":"王公里","LIN":"7鄰","STREET":"義和街","SECT":" ","MAREA":" ","LANE":"２６巷","ALLEY":" ","HOUSE_NO":"２９號","E_COORD97":180168.29983900001,"N_COORD97":2579023.7247899999,"ADDRESS":"義和街２６巷２９號","OBJECTID":658366},"geometry":{"x":180168.29983900022,"y":2579023.7247909997}},{"attributes":{"ID":658394,"DIS_CODE":0,"TOWNNAME":"新營區","LI":"王公里","LIN":"1鄰","STREET":"中正路","SECT":" ","MAREA":" ","LANE":" ","ALLEY":" ","HOUSE_NO":"４６號","E_COORD97":180122.00357299999,"N_COORD97":2578935.1571599999,"ADDRESS":"中正路４６號","OBJECTID":658367},"geometry":{"x":180122.00357300136,"y":2578935.1571600009}},{"attributes":{"ID":658395,"DIS_CODE":0,"TOWNNAME":"新營區","LI":"王公里","LIN":"1鄰","STREET":"中正路","SECT":" ","MAREA":" ","LANE":" ","ALLEY":" ","HOUSE_NO":"５６號","E_COORD97":180129.41945099999,"N_COORD97":2578979.1838000002,"ADDRESS":"中正路５６號","OBJECTID":658368},"geometry":{"x":180129.41945100017,"y":2578979.1838029996}},{"attributes":{"ID":658396,"DIS_CODE":0,"TOWNNAME":"安南區","LI":"梅花里","LIN":"1鄰","STREET":"安中路","SECT":"一段","MAREA":" ","LANE":"６１９巷","ALLEY":" ","HOUSE_NO":"６７之６號","E_COORD97":167809.805857,"N_COORD97":2549039.8331499998,"ADDRESS":"安中路一段６１９巷６７之６號","OBJECTID":658369},"geometry":{"x":167809.80585699994,"y":2549039.8331460021}},{"attributes":{"ID":658397,"DIS_CODE":0,"TOWNNAME":"新營區","LI":"王公里","LIN":"1鄰","STREET":"民治路","SECT":" ","MAREA":" ","LANE":" ","ALLEY":" ","HOUSE_NO":"３０號","E_COORD97":180123.062985,"N_COORD97":2578887.4263499998,"ADDRESS":"民治路３０號","OBJECTID":658370},"geometry":{"x":180123.06298500206,"y":2578887.4263529982}},{"attributes":{"ID":658398,"DIS_CODE":0,"TOWNNAME":"安南區","LI":"梅花里","LIN":"1鄰","STREET":"北安路","SECT":"二段","MAREA":" ","LANE":" ","ALLEY":" ","HOUSE_NO":"３０５號之６","E_COORD97":168420.736466,"N_COORD97":2548108.50031,"ADDRESS":"北安路二段３０５號之６","OBJECTID":658371},"geometry":{"x":168420.73646600172,"y":2548108.5003150012}},{"attributes":{"ID":658399,"DIS_CODE":0,"TOWNNAME":"安南區","LI":"梅花里","LIN":"1鄰","STREET":"北安路","SECT":"二段","MAREA":" ","LANE":" ","ALLEY":" ","HOUSE_NO":"３０５之１２號","E_COORD97":168439.26876899999,"N_COORD97":2547951.8670700002,"ADDRESS":"北安路二段３０５之１２號","OBJECTID":658372},"geometry":{"x":168439.26876899973,"y":2547951.8670670018}},{"attributes":{"ID":658400,"DIS_CODE":0,"TOWNNAME":"新營區","LI":"王公里","LIN":"1鄰","STREET":"民治路","SECT":" ","MAREA":" ","LANE":" ","ALLEY":" ","HOUSE_NO":"３２之１號","E_COORD97":180154.42155299999,"N_COORD97":2578886.6855199998,"ADDRESS":"民治路３２之１號","OBJECTID":658373},"geometry":{"x":180154.42155299895,"y":2578886.6855200026}},{"attributes":{"ID":658401,"DIS_CODE":0,"TOWNNAME":"安南區","LI":"梅花里","LIN":"1鄰","STREET":"北安路","SECT":"二段","MAREA":" ","LANE":" ","ALLEY":" ","HOUSE_NO":"３０５之２０號","E_COORD97":168415.44152200001,"N_COORD97":2548136.86363,"ADDRESS":"北安路二段３０５之２０號","OBJECTID":658374},"geometry":{"x":168415.44152200129,"y":2548136.8636329994}},{"attributes":{"ID":658402,"DIS_CODE":0,"TOWNNAME":"安平區","LI":"育平里","LIN":"35鄰","STREET":"平豐路","SECT":" ","MAREA":" ","LANE":" ","ALLEY":" ","HOUSE_NO":"２１８號","E_COORD97":164320.425456,"N_COORD97":2543400.5771599999,"ADDRESS":"平豐路２１８號","OBJECTID":658375},"geometry":{"x":164320.42545599956,"y":2543400.5771559998}},{"attributes":{"ID":658403,"DIS_CODE":0,"TOWNNAME":"西港區","LI":"竹林里","LIN":"2鄰","STREET":" ","SECT":" ","MAREA":"大竹林","LANE":" ","ALLEY":" ","HOUSE_NO":"１２號","E_COORD97":166141.888205,"N_COORD97":2557889.7905899999,"ADDRESS":"大竹林１２號","OBJECTID":658376},"geometry":{"x":166141.8882050002,"y":2557889.7905940041}},{"attributes":{"ID":658404,"DIS_CODE":0,"TOWNNAME":"安平區","LI":"億載里","LIN":"12鄰","STREET":"郡平路","SECT":" ","MAREA":" ","LANE":" ","ALLEY":" ","HOUSE_NO":"３５７號","E_COORD97":164108.306025,"N_COORD97":2543356.1271799998,"ADDRESS":"郡平路３５７號","OBJECTID":658377},"geometry":{"x":164108.30602500122,"y":2543356.1271799989}},{"attributes":{"ID":658405,"DIS_CODE":0,"TOWNNAME":"安平區","LI":"億載里","LIN":"12鄰","STREET":"郡平路","SECT":" ","MAREA":" ","LANE":" ","ALLEY":" ","HOUSE_NO":"３５９號","E_COORD97":164103.43215099999,"N_COORD97":2543356.1271799998,"ADDRESS":"郡平路３５９號","OBJECTID":658378},"geometry":{"x":164103.43215100095,"y":2543356.1271799989}},{"attributes":{"ID":658406,"DIS_CODE":0,"TOWNNAME":"安南區","LI":"梅花里","LIN":"1鄰","STREET":"北安路","SECT":"二段","MAREA":" ","LANE":" ","ALLEY":" ","HOUSE_NO":"３０５之２０號","E_COORD97":168424.23112899999,"N_COORD97":2548072.30534,"ADDRESS":"北安路二段３０５之２０號","OBJECTID":658379},"geometry":{"x":168424.23112900089,"y":2548072.305335002}},{"attributes":{"ID":658407,"DIS_CODE":0,"TOWNNAME":"安平區","LI":"億載里","LIN":"12鄰","STREET":"郡平路","SECT":" ","MAREA":" ","LANE":" ","ALLEY":" ","HOUSE_NO":"３６１號","E_COORD97":164098.13446299999,"N_COORD97":2543356.1271799998,"ADDRESS":"郡平路３６１號","OBJECTID":658380},"geometry":{"x":164098.13446300011,"y":2543356.1271799989}},{"attributes":{"ID":658408,"DIS_CODE":0,"TOWNNAME":"安平區","LI":"億載里","LIN":"12鄰","STREET":"郡平路","SECT":" ","MAREA":" ","LANE":" ","ALLEY":" ","HOUSE_NO":"３６３號","E_COORD97":164093.048683,"N_COORD97":2543356.1271799998,"ADDRESS":"郡平路３６３號","OBJECTID":658381},"geometry":{"x":164093.0486829998,"y":2543356.1271799989}},{"attributes":{"ID":658409,"DIS_CODE":0,"TOWNNAME":"安南區","LI":"梅花里","LIN":"1鄰","STREET":"北安路","SECT":"二段","MAREA":" ","LANE":" ","ALLEY":" ","HOUSE_NO":"３０５之３０號","E_COORD97":168415.759219,"N_COORD97":2548178.3502799999,"ADDRESS":"北安路二段３０５之３０號","OBJECTID":658382},"geometry":{"x":168415.75921900105,"y":2548178.3502780013}},{"attributes":{"ID":658410,"DIS_CODE":0,"TOWNNAME":"新營區","LI":"王公里","LIN":"2鄰","STREET":"民治路","SECT":" ","MAREA":" ","LANE":"２６巷","ALLEY":" ","HOUSE_NO":"１６號","E_COORD97":180251.46361000001,"N_COORD97":2579004.90129,"ADDRESS":"民治路２６巷１６號","OBJECTID":658383},"geometry":{"x":180251.46360999998,"y":2579004.9012890011}},{"attributes":{"ID":658411,"DIS_CODE":0,"TOWNNAME":"新營區","LI":"王公里","LIN":"2鄰","STREET":"民治路","SECT":" ","MAREA":" ","LANE":"２６巷","ALLEY":" ","HOUSE_NO":"２６號","E_COORD97":180236.41997300001,"N_COORD97":2579009.1346200001,"ADDRESS":"民治路２６巷２６號","OBJECTID":658384},"geometry":{"x":180236.41997299995,"y":2579009.1346199997}},{"attributes":{"ID":658412,"DIS_CODE":0,"TOWNNAME":"安南區","LI":"梅花里","LIN":"1鄰","STREET":"北安路","SECT":"二段","MAREA":" ","LANE":" ","ALLEY":" ","HOUSE_NO":"３６３號之７","E_COORD97":168241.55556899999,"N_COORD97":2548753.87163,"ADDRESS":"北安路二段３６３號之７","OBJECTID":658385},"geometry":{"x":168241.55556899961,"y":2548753.871633999}},{"attributes":{"ID":658413,"DIS_CODE":0,"TOWNNAME":"楠西區","LI":"照興里","LIN":"15鄰","STREET":" ","SECT":" ","MAREA":"興南","LANE":" ","ALLEY":" ","HOUSE_NO":"６２號","E_COORD97":195362,"N_COORD97":2565382,"ADDRESS":"興南６２號","OBJECTID":658386},"geometry":{"x":195362.00000000093,"y":2565382}},{"attributes":{"ID":658414,"DIS_CODE":0,"TOWNNAME":"新營區","LI":"王公里","LIN":"2鄰","STREET":"民治路","SECT":" ","MAREA":" ","LANE":"２６巷","ALLEY":" ","HOUSE_NO":"１７之６號","E_COORD97":180244.68337899999,"N_COORD97":2578968.2829800001,"ADDRESS":"民治路２６巷１７之６號","OBJECTID":658387},"geometry":{"x":180244.68337900098,"y":2578968.2829759996}},{"attributes":{"ID":658415,"DIS_CODE":0,"TOWNNAME":"楠西區","LI":"照興里","LIN":"15鄰","STREET":" ","SECT":" ","MAREA":"興南","LANE":" ","ALLEY":" ","HOUSE_NO":"６１號","E_COORD97":195379,"N_COORD97":2565374,"ADDRESS":"興南６１號","OBJECTID":658388},"geometry":{"x":195379.00000000093,"y":2565374.0000000019}},{"attributes":{"ID":658416,"DIS_CODE":0,"TOWNNAME":"安南區","LI":"梅花里","LIN":"1鄰","STREET":"安中路","SECT":"一段","MAREA":" ","LANE":"６１９巷","ALLEY":"９６弄","HOUSE_NO":"２９號","E_COORD97":167833.421306,"N_COORD97":2548861.39824,"ADDRESS":"安中路一段６１９巷９６弄２９號","OBJECTID":658389},"geometry":{"x":167833.42130600102,"y":2548861.3982420005}},{"attributes":{"ID":658417,"DIS_CODE":0,"TOWNNAME":"安南區","LI":"梅花里","LIN":"1鄰","STREET":"安中路","SECT":"一段","MAREA":" ","LANE":"６１９巷","ALLEY":"９６弄","HOUSE_NO":"３１號","E_COORD97":167831.09153100001,"N_COORD97":2548852.9315800001,"ADDRESS":"安中路一段６１９巷９６弄３１號","OBJECTID":658390},"geometry":{"x":167831.09153100103,"y":2548852.9315800015}},{"attributes":{"ID":658418,"DIS_CODE":0,"TOWNNAME":"西港區","LI":"竹林里","LIN":"3鄰","STREET":" ","SECT":" ","MAREA":"大竹林","LANE":" ","ALLEY":" ","HOUSE_NO":"１８之２６號","E_COORD97":165823.965608,"N_COORD97":2557015.7639299999,"ADDRESS":"大竹林１８之２６號","OBJECTID":658391},"geometry":{"x":165823.96560800076,"y":2557015.763929002}},{"attributes":{"ID":658419,"DIS_CODE":0,"TOWNNAME":"新營區","LI":"王公里","LIN":"2鄰","STREET":"義和街","SECT":" ","MAREA":" ","LANE":"２６巷","ALLEY":" ","HOUSE_NO":"２３號之１","E_COORD97":180257.18442999999,"N_COORD97":2579013.05045,"ADDRESS":"義和街２６巷２３號之１","OBJECTID":658392},"geometry":{"x":180257.1844300013,"y":2579013.0504519995}},{"attributes":{"ID":658420,"DIS_CODE":0,"TOWNNAME":"新營區","LI":"王公里","LIN":"3鄰","STREET":"民治路","SECT":" ","MAREA":" ","LANE":"２６巷","ALLEY":" ","HOUSE_NO":"８號","E_COORD97":180256.97254799999,"N_COORD97":2578983.2054699999,"ADDRESS":"民治路２６巷８號","OBJECTID":658393},"geometry":{"x":180256.97254799958,"y":2578983.205467999}},{"attributes":{"ID":658421,"DIS_CODE":0,"TOWNNAME":"新營區","LI":"王公里","LIN":"3鄰","STREET":"民治路","SECT":" ","MAREA":" ","LANE":"２６巷","ALLEY":" ","HOUSE_NO":"１０號","E_COORD97":180266.71913000001,"N_COORD97":2578974.5271399999,"ADDRESS":"民治路２６巷１０號","OBJECTID":658394},"geometry":{"x":180266.71913000103,"y":2578974.5271390025}},{"attributes":{"ID":658422,"DIS_CODE":0,"TOWNNAME":"新營區","LI":"王公里","LIN":"4鄰","STREET":"民族路","SECT":" ","MAREA":" ","LANE":" ","ALLEY":" ","HOUSE_NO":"８０之３號","E_COORD97":180300.72622700001,"N_COORD97":2578982.51755,"ADDRESS":"民族路８０之３號","OBJECTID":658395},"geometry":{"x":180300.72622700036,"y":2578982.517551003}},{"attributes":{"ID":658423,"DIS_CODE":0,"TOWNNAME":"新營區","LI":"王公里","LIN":"4鄰","STREET":"民族路","SECT":" ","MAREA":" ","LANE":" ","ALLEY":" ","HOUSE_NO":"８２之２號","E_COORD97":180302.63316699999,"N_COORD97":2579010.88087,"ADDRESS":"民族路８２之２號","OBJECTID":658396},"geometry":{"x":180302.63316700049,"y":2579010.8808690012}},{"attributes":{"ID":658424,"DIS_CODE":0,"TOWNNAME":"楠西區","LI":"照興里","LIN":"15鄰","STREET":" ","SECT":" ","MAREA":"興南","LANE":" ","ALLEY":" ","HOUSE_NO":"５５號","E_COORD97":195120,"N_COORD97":2565359,"ADDRESS":"興南５５號","OBJECTID":658397},"geometry":{"x":195120.00000000093,"y":2565359}},{"attributes":{"ID":658425,"DIS_CODE":0,"TOWNNAME":"楠西區","LI":"照興里","LIN":"15鄰","STREET":" ","SECT":" ","MAREA":"興南","LANE":" ","ALLEY":" ","HOUSE_NO":"６９號","E_COORD97":195456,"N_COORD97":2565412,"ADDRESS":"興南６９號","OBJECTID":658398},"geometry":{"x":195456,"y":2565412.0000000019}},{"attributes":{"ID":658426,"DIS_CODE":0,"TOWNNAME":"麻豆區","LI":"埤頭里","LIN":"13鄰","STREET":" ","SECT":" ","MAREA":"埤頭","LANE":" ","ALLEY":" ","HOUSE_NO":"１１２號之２","E_COORD97":170855.47838399999,"N_COORD97":2566640.8498200001,"ADDRESS":"埤頭１１２號之２","OBJECTID":658399},"geometry":{"x":170855.47838400025,"y":2566640.8498199992}},{"attributes":{"ID":658427,"DIS_CODE":0,"TOWNNAME":"楠西區","LI":"照興里","LIN":"15鄰","STREET":" ","SECT":" ","MAREA":"興南","LANE":" ","ALLEY":" ","HOUSE_NO":"６０號之１０","E_COORD97":195159,"N_COORD97":2565411,"ADDRESS":"興南６０號之１０","OBJECTID":658400},"geometry":{"x":195159.00000000093,"y":2565411.0000000037}}]}