{"displayFieldName":"TOWNNAME","fieldAliases":{"ID":"ID","DIS_CODE":"DIS_CODE","TOWNNAME":"TOWNNAME","LI":"LI","LIN":"LIN","STREET":"STREET","SECT":"SECT","MAREA":"MAREA","LANE":"LANE","ALLEY":"ALLEY","HOUSE_NO":"HOUSE_NO","E_COORD97":"E_COORD97","N_COORD97":"N_COORD97","ADDRESS":"ADDRESS","OBJECTID":"OBJECTID"},"geometryType":"esriGeometryPoint","spatialReference":{"wkid":102443,"latestWkid":3826},"fields":[{"name":"ID","type":"esriFieldTypeDouble","alias":"ID"},{"name":"DIS_CODE","type":"esriFieldTypeInteger","alias":"DIS_CODE"},{"name":"TOWNNAME","type":"esriFieldTypeString","alias":"TOWNNAME","length":8},{"name":"LI","type":"esriFieldTypeString","alias":"LI","length":8},{"name":"LIN","type":"esriFieldTypeString","alias":"LIN","length":12},{"name":"STREET","type":"esriFieldTypeString","alias":"STREET","length":20},{"name":"SECT","type":"esriFieldTypeString","alias":"SECT","length":8},{"name":"MAREA","type":"esriFieldTypeString","alias":"MAREA","length":12},{"name":"LANE","type":"esriFieldTypeString","alias":"LANE","length":10},{"name":"ALLEY","type":"esriFieldTypeString","alias":"ALLEY","length":10},{"name":"HOUSE_NO","type":"esriFieldTypeString","alias":"HOUSE_NO","length":20},{"name":"E_COORD97","type":"esriFieldTypeDouble","alias":"E_COORD97"},{"name":"N_COORD97","type":"esriFieldTypeDouble","alias":"N_COORD97"},{"name":"ADDRESS","type":"esriFieldTypeString","alias":"ADDRESS","length":50},{"name":"OBJECTID","type":"esriFieldTypeOID","alias":"OBJECTID"}],"features":[{"attributes":{"ID":405625,"DIS_CODE":0,"TOWNNAME":"北區","LI":"文元里","LIN":"27鄰","STREET":"中華北路","SECT":"二段","MAREA":" ","LANE":"６２巷","ALLEY":" ","HOUSE_NO":"２號","E_COORD97":167618.54000000001,"N_COORD97":2546614,"ADDRESS":"中華北路二段６２巷２號","OBJECTID":405601},"geometry":{"x":167618.54000000097,"y":2546614}},{"attributes":{"ID":405626,"DIS_CODE":0,"TOWNNAME":"北區","LI":"文元里","LIN":"27鄰","STREET":"中華北路","SECT":"二段","MAREA":" ","LANE":"６２巷","ALLEY":" ","HOUSE_NO":"２０號","E_COORD97":167621.23999999999,"N_COORD97":2546589.23,"ADDRESS":"中華北路二段６２巷２０號","OBJECTID":405602},"geometry":{"x":167621.24000000022,"y":2546589.2300000004}},{"attributes":{"ID":405627,"DIS_CODE":0,"TOWNNAME":"北區","LI":"文元里","LIN":"27鄰","STREET":"中華北路","SECT":"二段","MAREA":" ","LANE":"６２巷","ALLEY":" ","HOUSE_NO":"２１號","E_COORD97":167630.44,"N_COORD97":2546581.9300000002,"ADDRESS":"中華北路二段６２巷２１號","OBJECTID":405603},"geometry":{"x":167630.44000000041,"y":2546581.9300000016}},{"attributes":{"ID":405628,"DIS_CODE":0,"TOWNNAME":"北區","LI":"文元里","LIN":"27鄰","STREET":"中華北路","SECT":"二段","MAREA":" ","LANE":"６２巷","ALLEY":" ","HOUSE_NO":"２２號","E_COORD97":167621.23999999999,"N_COORD97":2546585.7400000002,"ADDRESS":"中華北路二段６２巷２２號","OBJECTID":405604},"geometry":{"x":167621.24000000022,"y":2546585.7399999984}},{"attributes":{"ID":405629,"DIS_CODE":0,"TOWNNAME":"北區","LI":"文元里","LIN":"27鄰","STREET":"中華北路","SECT":"二段","MAREA":" ","LANE":"６２巷","ALLEY":" ","HOUSE_NO":"２３號","E_COORD97":167630.92000000001,"N_COORD97":2546578.1200000001,"ADDRESS":"中華北路二段６２巷２３號","OBJECTID":405605},"geometry":{"x":167630.92000000086,"y":2546578.1200000029}},{"attributes":{"ID":405630,"DIS_CODE":0,"TOWNNAME":"北區","LI":"文元里","LIN":"27鄰","STREET":"中華北路","SECT":"二段","MAREA":" ","LANE":"６２巷","ALLEY":" ","HOUSE_NO":"２６號","E_COORD97":167621.70999999999,"N_COORD97":2546582.0899999999,"ADDRESS":"中華北路二段６２巷２６號","OBJECTID":405606},"geometry":{"x":167621.70999999996,"y":2546582.0899999999}},{"attributes":{"ID":405631,"DIS_CODE":0,"TOWNNAME":"北區","LI":"文元里","LIN":"27鄰","STREET":"中華北路","SECT":"二段","MAREA":" ","LANE":"６２巷","ALLEY":" ","HOUSE_NO":"２８號","E_COORD97":167622.35000000001,"N_COORD97":2546579.23,"ADDRESS":"中華北路二段６２巷２８號","OBJECTID":405607},"geometry":{"x":167622.35000000149,"y":2546579.2300000004}},{"attributes":{"ID":405632,"DIS_CODE":0,"TOWNNAME":"北區","LI":"文元里","LIN":"27鄰","STREET":"中華北路","SECT":"二段","MAREA":" ","LANE":"６２巷","ALLEY":" ","HOUSE_NO":"３號","E_COORD97":167627.59,"N_COORD97":2546613.52,"ADDRESS":"中華北路二段６２巷３號","OBJECTID":405608},"geometry":{"x":167627.58999999892,"y":2546613.5199999996}},{"attributes":{"ID":405633,"DIS_CODE":0,"TOWNNAME":"北區","LI":"文元里","LIN":"27鄰","STREET":"中華北路","SECT":"二段","MAREA":" ","LANE":"６２巷","ALLEY":" ","HOUSE_NO":"３０號","E_COORD97":167622.57000000001,"N_COORD97":2546575.23,"ADDRESS":"中華北路二段６２巷３０號","OBJECTID":405609},"geometry":{"x":167622.5700000003,"y":2546575.2300000004}},{"attributes":{"ID":405634,"DIS_CODE":0,"TOWNNAME":"北區","LI":"文元里","LIN":"27鄰","STREET":"中華北路","SECT":"二段","MAREA":" ","LANE":"６２巷","ALLEY":" ","HOUSE_NO":"８號","E_COORD97":167619.07999999999,"N_COORD97":2546606.5,"ADDRESS":"中華北路二段６２巷８號","OBJECTID":405610},"geometry":{"x":167619.08000000007,"y":2546606.5}},{"attributes":{"ID":405635,"DIS_CODE":0,"TOWNNAME":"北區","LI":"文元里","LIN":"27鄰","STREET":"中華北路","SECT":"二段","MAREA":" ","LANE":"６２巷","ALLEY":" ","HOUSE_NO":"９號","E_COORD97":167628.76000000001,"N_COORD97":2546602.2200000002,"ADDRESS":"中華北路二段６２巷９號","OBJECTID":405611},"geometry":{"x":167628.76000000071,"y":2546602.2200000007}},{"attributes":{"ID":405636,"DIS_CODE":0,"TOWNNAME":"永康區","LI":"大橋里","LIN":"5鄰","STREET":"大橋三街","SECT":" ","MAREA":" ","LANE":"１９９巷","ALLEY":" ","HOUSE_NO":"５號之２","E_COORD97":170831.32999999999,"N_COORD97":2546798.8599999999,"ADDRESS":"大橋三街１９９巷５號之２","OBJECTID":405612},"geometry":{"x":170831.33000000007,"y":2546798.8600000013}},{"attributes":{"ID":405637,"DIS_CODE":0,"TOWNNAME":"永康區","LI":"大橋里","LIN":"1鄰","STREET":"大橋一街","SECT":" ","MAREA":" ","LANE":"７３巷","ALLEY":" ","HOUSE_NO":"１８５號","E_COORD97":170605.29000000001,"N_COORD97":2546691.7400000002,"ADDRESS":"大橋一街７３巷１８５號","OBJECTID":405613},"geometry":{"x":170605.29000000097,"y":2546691.7400000021}},{"attributes":{"ID":405638,"DIS_CODE":0,"TOWNNAME":"北區","LI":"大港里","LIN":"27鄰","STREET":"中華北路","SECT":"一段","MAREA":" ","LANE":"２６３巷","ALLEY":" ","HOUSE_NO":"１０號","E_COORD97":166286.32000000001,"N_COORD97":2545818.8599999999,"ADDRESS":"中華北路一段２６３巷１０號","OBJECTID":405614},"geometry":{"x":166286.32000000123,"y":2545818.8600000013}},{"attributes":{"ID":405639,"DIS_CODE":0,"TOWNNAME":"北區","LI":"大港里","LIN":"27鄰","STREET":"中華北路","SECT":"一段","MAREA":" ","LANE":"２６３巷","ALLEY":" ","HOUSE_NO":"３６號","E_COORD97":166230.73000000001,"N_COORD97":2545777.8700000001,"ADDRESS":"中華北路一段２６３巷３６號","OBJECTID":405615},"geometry":{"x":166230.73000000138,"y":2545777.870000001}},{"attributes":{"ID":405640,"DIS_CODE":0,"TOWNNAME":"北區","LI":"大港里","LIN":"27鄰","STREET":"中華北路","SECT":"一段","MAREA":" ","LANE":"２６３巷","ALLEY":" ","HOUSE_NO":"３７號","E_COORD97":166233.28,"N_COORD97":2545774.2999999998,"ADDRESS":"中華北路一段２６３巷３７號","OBJECTID":405616},"geometry":{"x":166233.27999999933,"y":2545774.3000000007}},{"attributes":{"ID":405641,"DIS_CODE":0,"TOWNNAME":"北區","LI":"大港里","LIN":"27鄰","STREET":"中華北路","SECT":"一段","MAREA":" ","LANE":"２６３巷","ALLEY":" ","HOUSE_NO":"３８號","E_COORD97":166235.60999999999,"N_COORD97":2545770.4300000002,"ADDRESS":"中華北路一段２６３巷３８號","OBJECTID":405617},"geometry":{"x":166235.61000000034,"y":2545770.4300000034}},{"attributes":{"ID":405642,"DIS_CODE":0,"TOWNNAME":"北區","LI":"大港里","LIN":"27鄰","STREET":"中華北路","SECT":"一段","MAREA":" ","LANE":"２６３巷","ALLEY":" ","HOUSE_NO":"３９號","E_COORD97":166237.85000000001,"N_COORD97":2545767.1699999999,"ADDRESS":"中華北路一段２６３巷３９號","OBJECTID":405618},"geometry":{"x":166237.85000000056,"y":2545767.1700000018}},{"attributes":{"ID":405643,"DIS_CODE":0,"TOWNNAME":"北區","LI":"大港里","LIN":"27鄰","STREET":"中華北路","SECT":"一段","MAREA":" ","LANE":"２６３巷","ALLEY":" ","HOUSE_NO":"４０號","E_COORD97":166240.60999999999,"N_COORD97":2545763.6099999999,"ADDRESS":"中華北路一段２６３巷４０號","OBJECTID":405619},"geometry":{"x":166240.61000000034,"y":2545763.6100000013}},{"attributes":{"ID":405644,"DIS_CODE":0,"TOWNNAME":"中西區","LI":"大涼里","LIN":"13鄰","STREET":"金城街","SECT":" ","MAREA":" ","LANE":" ","ALLEY":" ","HOUSE_NO":"７１號","E_COORD97":166866.48999999999,"N_COORD97":2543696.0899999999,"ADDRESS":"金城街７１號","OBJECTID":405620},"geometry":{"x":166866.49000000115,"y":2543696.0900000017}},{"attributes":{"ID":405645,"DIS_CODE":0,"TOWNNAME":"北區","LI":"大港里","LIN":"27鄰","STREET":"中華北路","SECT":"一段","MAREA":" ","LANE":"２６３巷","ALLEY":" ","HOUSE_NO":"４１號","E_COORD97":166243.04999999999,"N_COORD97":2545760.04,"ADDRESS":"中華北路一段２６３巷４１號","OBJECTID":405621},"geometry":{"x":166243.05000000168,"y":2545760.040000001}},{"attributes":{"ID":405646,"DIS_CODE":0,"TOWNNAME":"北區","LI":"大港里","LIN":"27鄰","STREET":"中華北路","SECT":"一段","MAREA":" ","LANE":"２６３巷","ALLEY":" ","HOUSE_NO":"４２號","E_COORD97":166236.37,"N_COORD97":2545754.04,"ADDRESS":"中華北路一段２６３巷４２號","OBJECTID":405622},"geometry":{"x":166236.37000000104,"y":2545754.0399999991}},{"attributes":{"ID":405647,"DIS_CODE":0,"TOWNNAME":"北區","LI":"大港里","LIN":"27鄰","STREET":"中華北路","SECT":"一段","MAREA":" ","LANE":"２６３巷","ALLEY":" ","HOUSE_NO":"４３號","E_COORD97":166233.92999999999,"N_COORD97":2545757.71,"ADDRESS":"中華北路一段２６３巷４３號","OBJECTID":405623},"geometry":{"x":166233.93000000063,"y":2545757.7100000028}},{"attributes":{"ID":405648,"DIS_CODE":0,"TOWNNAME":"北區","LI":"大港里","LIN":"27鄰","STREET":"中華北路","SECT":"一段","MAREA":" ","LANE":"２６３巷","ALLEY":" ","HOUSE_NO":"４３號之１","E_COORD97":166231.48999999999,"N_COORD97":2545761.0699999998,"ADDRESS":"中華北路一段２６３巷４３號之１","OBJECTID":405624},"geometry":{"x":166231.49000000022,"y":2545761.0700000022}},{"attributes":{"ID":405649,"DIS_CODE":0,"TOWNNAME":"永康區","LI":"五王里","LIN":"22鄰","STREET":"成功路","SECT":" ","MAREA":" ","LANE":"２２８巷","ALLEY":" ","HOUSE_NO":"５７號","E_COORD97":171479.01000000001,"N_COORD97":2545869.5099999998,"ADDRESS":"成功路２２８巷５７號","OBJECTID":405625},"geometry":{"x":171479.00999999978,"y":2545869.5100000016}},{"attributes":{"ID":405650,"DIS_CODE":0,"TOWNNAME":"永康區","LI":"五王里","LIN":"38鄰","STREET":"中華路","SECT":" ","MAREA":" ","LANE":"５７８巷","ALLEY":" ","HOUSE_NO":"１７號之５０","E_COORD97":171333.62,"N_COORD97":2545989.54,"ADDRESS":"中華路５７８巷１７號之５０","OBJECTID":405626},"geometry":{"x":171333.62000000104,"y":2545989.5400000028}},{"attributes":{"ID":405651,"DIS_CODE":0,"TOWNNAME":"北區","LI":"大港里","LIN":"27鄰","STREET":"中華北路","SECT":"一段","MAREA":" ","LANE":"２６３巷","ALLEY":" ","HOUSE_NO":"４６號","E_COORD97":166226.39999999999,"N_COORD97":2545768.5099999998,"ADDRESS":"中華北路一段２６３巷４６號","OBJECTID":405627},"geometry":{"x":166226.4000000013,"y":2545768.5099999998}},{"attributes":{"ID":405652,"DIS_CODE":0,"TOWNNAME":"北區","LI":"大港里","LIN":"27鄰","STREET":"中華北路","SECT":"一段","MAREA":" ","LANE":"２６３巷","ALLEY":" ","HOUSE_NO":"４７號","E_COORD97":166223.73999999999,"N_COORD97":2545771.6600000001,"ADDRESS":"中華北路一段２６３巷４７號","OBJECTID":405628},"geometry":{"x":166223.74000000115,"y":2545771.6600000001}},{"attributes":{"ID":405653,"DIS_CODE":0,"TOWNNAME":"北區","LI":"大港里","LIN":"27鄰","STREET":"中華北路","SECT":"一段","MAREA":" ","LANE":"２６３巷","ALLEY":" ","HOUSE_NO":"４８號","E_COORD97":166206.85999999999,"N_COORD97":2545760.3300000001,"ADDRESS":"中華北路一段２６３巷４８號","OBJECTID":405629},"geometry":{"x":166206.86000000034,"y":2545760.3300000001}},{"attributes":{"ID":405654,"DIS_CODE":0,"TOWNNAME":"北區","LI":"大港里","LIN":"27鄰","STREET":"中華北路","SECT":"一段","MAREA":" ","LANE":"２６３巷","ALLEY":" ","HOUSE_NO":"４９號","E_COORD97":166209.70999999999,"N_COORD97":2545757.0699999998,"ADDRESS":"中華北路一段２６３巷４９號","OBJECTID":405630},"geometry":{"x":166209.70999999903,"y":2545757.0700000022}},{"attributes":{"ID":405655,"DIS_CODE":0,"TOWNNAME":"北區","LI":"大港里","LIN":"27鄰","STREET":"中華北路","SECT":"一段","MAREA":" ","LANE":"２６３巷","ALLEY":" ","HOUSE_NO":"５０號","E_COORD97":166212.57000000001,"N_COORD97":2545753.5099999998,"ADDRESS":"中華北路一段２６３巷５０號","OBJECTID":405631},"geometry":{"x":166212.5700000003,"y":2545753.5100000016}},{"attributes":{"ID":405656,"DIS_CODE":0,"TOWNNAME":"北區","LI":"大港里","LIN":"27鄰","STREET":"中華北路","SECT":"一段","MAREA":" ","LANE":"２６３巷","ALLEY":" ","HOUSE_NO":"５１號","E_COORD97":166214.5,"N_COORD97":2545750.04,"ADDRESS":"中華北路一段２６３巷５１號","OBJECTID":405632},"geometry":{"x":166214.5,"y":2545750.040000001}},{"attributes":{"ID":405657,"DIS_CODE":0,"TOWNNAME":"北區","LI":"大港里","LIN":"27鄰","STREET":"中華北路","SECT":"一段","MAREA":" ","LANE":"２６３巷","ALLEY":" ","HOUSE_NO":"５２號","E_COORD97":166216.84,"N_COORD97":2545746.48,"ADDRESS":"中華北路一段２６３巷５２號","OBJECTID":405633},"geometry":{"x":166216.83999999985,"y":2545746.4800000004}},{"attributes":{"ID":405658,"DIS_CODE":0,"TOWNNAME":"北區","LI":"大港里","LIN":"27鄰","STREET":"中華北路","SECT":"一段","MAREA":" ","LANE":"２６３巷","ALLEY":" ","HOUSE_NO":"５３號","E_COORD97":166219.59,"N_COORD97":2545743.1200000001,"ADDRESS":"中華北路一段２６３巷５３號","OBJECTID":405634},"geometry":{"x":166219.59000000078,"y":2545743.120000001}},{"attributes":{"ID":405659,"DIS_CODE":0,"TOWNNAME":"北區","LI":"大港里","LIN":"27鄰","STREET":"中華北路","SECT":"一段","MAREA":" ","LANE":"２６３巷","ALLEY":" ","HOUSE_NO":"５４號","E_COORD97":166212.19,"N_COORD97":2545736.71,"ADDRESS":"中華北路一段２６３巷５４號","OBJECTID":405635},"geometry":{"x":166212.19000000227,"y":2545736.7100000028}},{"attributes":{"ID":405660,"DIS_CODE":0,"TOWNNAME":"北區","LI":"大港里","LIN":"27鄰","STREET":"中華北路","SECT":"一段","MAREA":" ","LANE":"２６３巷","ALLEY":" ","HOUSE_NO":"５５號","E_COORD97":166209.23000000001,"N_COORD97":2545740.1699999999,"ADDRESS":"中華北路一段２６３巷５５號","OBJECTID":405636},"geometry":{"x":166209.23000000138,"y":2545740.1700000018}},{"attributes":{"ID":405661,"DIS_CODE":0,"TOWNNAME":"北區","LI":"大港里","LIN":"27鄰","STREET":"中華北路","SECT":"一段","MAREA":" ","LANE":"２６３巷","ALLEY":" ","HOUSE_NO":"５６號","E_COORD97":166207.20000000001,"N_COORD97":2545743.7400000002,"ADDRESS":"中華北路一段２６３巷５６號","OBJECTID":405637},"geometry":{"x":166207.20000000112,"y":2545743.7400000002}},{"attributes":{"ID":405662,"DIS_CODE":0,"TOWNNAME":"北區","LI":"大港里","LIN":"27鄰","STREET":"中華北路","SECT":"一段","MAREA":" ","LANE":"２６３巷","ALLEY":" ","HOUSE_NO":"５７號","E_COORD97":166204.76000000001,"N_COORD97":2545747.5099999998,"ADDRESS":"中華北路一段２６３巷５７號","OBJECTID":405638},"geometry":{"x":166204.76000000071,"y":2545747.5100000016}},{"attributes":{"ID":405663,"DIS_CODE":0,"TOWNNAME":"北區","LI":"大港里","LIN":"27鄰","STREET":"中華北路","SECT":"一段","MAREA":" ","LANE":"２６３巷","ALLEY":" ","HOUSE_NO":"５８號","E_COORD97":166202.42000000001,"N_COORD97":2545751.2799999998,"ADDRESS":"中華北路一段２６３巷５８號","OBJECTID":405639},"geometry":{"x":166202.42000000086,"y":2545751.2800000012}},{"attributes":{"ID":405664,"DIS_CODE":0,"TOWNNAME":"北區","LI":"大港里","LIN":"27鄰","STREET":"中華北路","SECT":"一段","MAREA":" ","LANE":"２６３巷","ALLEY":" ","HOUSE_NO":"５９號","E_COORD97":166199.87,"N_COORD97":2545754.3300000001,"ADDRESS":"中華北路一段２６３巷５９號","OBJECTID":405640},"geometry":{"x":166199.87000000011,"y":2545754.3299999982}},{"attributes":{"ID":405665,"DIS_CODE":0,"TOWNNAME":"北區","LI":"大港里","LIN":"27鄰","STREET":"中華北路","SECT":"一段","MAREA":" ","LANE":"２６３巷","ALLEY":" ","HOUSE_NO":"６０號","E_COORD97":166183.5,"N_COORD97":2545743.2799999998,"ADDRESS":"中華北路一段２６３巷６０號","OBJECTID":405641},"geometry":{"x":166183.5,"y":2545743.2799999993}},{"attributes":{"ID":405666,"DIS_CODE":0,"TOWNNAME":"北區","LI":"大港里","LIN":"27鄰","STREET":"中華北路","SECT":"一段","MAREA":" ","LANE":"２６３巷","ALLEY":" ","HOUSE_NO":"６１號","E_COORD97":166185.94,"N_COORD97":2545739.8199999998,"ADDRESS":"中華北路一段２６３巷６１號","OBJECTID":405642},"geometry":{"x":166185.94000000041,"y":2545739.8200000003}},{"attributes":{"ID":405667,"DIS_CODE":0,"TOWNNAME":"北區","LI":"大港里","LIN":"27鄰","STREET":"中華北路","SECT":"一段","MAREA":" ","LANE":"２６３巷","ALLEY":" ","HOUSE_NO":"６２號","E_COORD97":166188.48999999999,"N_COORD97":2545736.3599999999,"ADDRESS":"中華北路一段２６３巷６２號","OBJECTID":405643},"geometry":{"x":166188.49000000115,"y":2545736.3599999994}},{"attributes":{"ID":405668,"DIS_CODE":0,"TOWNNAME":"北區","LI":"大港里","LIN":"27鄰","STREET":"中華北路","SECT":"一段","MAREA":" ","LANE":"２６３巷","ALLEY":" ","HOUSE_NO":"６３號","E_COORD97":166191.23999999999,"N_COORD97":2545732.9900000002,"ADDRESS":"中華北路一段２６３巷６３號","OBJECTID":405644},"geometry":{"x":166191.24000000209,"y":2545732.9900000002}},{"attributes":{"ID":405669,"DIS_CODE":0,"TOWNNAME":"北區","LI":"大港里","LIN":"27鄰","STREET":"中華北路","SECT":"一段","MAREA":" ","LANE":"２６３巷","ALLEY":" ","HOUSE_NO":"６４號","E_COORD97":166193.38,"N_COORD97":2545729.4300000002,"ADDRESS":"中華北路一段２６３巷６４號","OBJECTID":405645},"geometry":{"x":166193.38000000175,"y":2545729.4299999997}},{"attributes":{"ID":405670,"DIS_CODE":0,"TOWNNAME":"永康區","LI":"西灣里","LIN":"25鄰","STREET":"國光七街","SECT":" ","MAREA":" ","LANE":"６巷","ALLEY":" ","HOUSE_NO":"７號之１６","E_COORD97":174368.76000000001,"N_COORD97":2545607.6400000001,"ADDRESS":"國光七街６巷７號之１６","OBJECTID":405646},"geometry":{"x":174368.76000000071,"y":2545607.6400000025}},{"attributes":{"ID":405671,"DIS_CODE":0,"TOWNNAME":"永康區","LI":"大橋里","LIN":"25鄰","STREET":"大橋一街","SECT":" ","MAREA":" ","LANE":"２４７巷","ALLEY":" ","HOUSE_NO":"３１號","E_COORD97":171248.95999999999,"N_COORD97":2546718,"ADDRESS":"大橋一街２４７巷３１號","OBJECTID":405647},"geometry":{"x":171248.95999999996,"y":2546718}},{"attributes":{"ID":405672,"DIS_CODE":0,"TOWNNAME":"永康區","LI":"三合里","LIN":"8鄰","STREET":"南工街","SECT":" ","MAREA":" ","LANE":"１３５巷","ALLEY":" ","HOUSE_NO":"３號","E_COORD97":172073.85000000001,"N_COORD97":2545781.9900000002,"ADDRESS":"南工街１３５巷３號","OBJECTID":405648},"geometry":{"x":172073.85000000149,"y":2545781.9900000021}},{"attributes":{"ID":405673,"DIS_CODE":0,"TOWNNAME":"永康區","LI":"五王里","LIN":"37鄰","STREET":"中華路","SECT":" ","MAREA":" ","LANE":"５７８巷","ALLEY":" ","HOUSE_NO":"１５號之８６","E_COORD97":171276.04999999999,"N_COORD97":2545965.79,"ADDRESS":"中華路５７８巷１５號之８６","OBJECTID":405649},"geometry":{"x":171276.05000000168,"y":2545965.7899999991}},{"attributes":{"ID":405674,"DIS_CODE":0,"TOWNNAME":"北區","LI":"大港里","LIN":"27鄰","STREET":"中華北路","SECT":"一段","MAREA":" ","LANE":"２６３巷","ALLEY":" ","HOUSE_NO":"６５號","E_COORD97":166195.82000000001,"N_COORD97":2545725.46,"ADDRESS":"中華北路一段２６３巷６５號","OBJECTID":405650},"geometry":{"x":166195.82000000216,"y":2545725.4600000028}},{"attributes":{"ID":405675,"DIS_CODE":0,"TOWNNAME":"北區","LI":"大港里","LIN":"27鄰","STREET":"中華北路","SECT":"一段","MAREA":" ","LANE":"２６３巷","ALLEY":" ","HOUSE_NO":"６６號","E_COORD97":166188.73000000001,"N_COORD97":2545719.8599999999,"ADDRESS":"中華北路一段２６３巷６６號","OBJECTID":405651},"geometry":{"x":166188.73000000138,"y":2545719.8600000031}},{"attributes":{"ID":405676,"DIS_CODE":0,"TOWNNAME":"北區","LI":"大港里","LIN":"27鄰","STREET":"中華北路","SECT":"一段","MAREA":" ","LANE":"２６３巷","ALLEY":" ","HOUSE_NO":"６７號","E_COORD97":166186.17999999999,"N_COORD97":2545723.3300000001,"ADDRESS":"中華北路一段２６３巷６７號","OBJECTID":405652},"geometry":{"x":166186.18000000063,"y":2545723.3300000001}},{"attributes":{"ID":405677,"DIS_CODE":0,"TOWNNAME":"北區","LI":"大港里","LIN":"27鄰","STREET":"中華北路","SECT":"一段","MAREA":" ","LANE":"２６３巷","ALLEY":" ","HOUSE_NO":"６８號","E_COORD97":166183.73999999999,"N_COORD97":2545726.8900000001,"ADDRESS":"中華北路一段２６３巷６８號","OBJECTID":405653},"geometry":{"x":166183.74000000022,"y":2545726.8900000006}},{"attributes":{"ID":405678,"DIS_CODE":0,"TOWNNAME":"北區","LI":"大港里","LIN":"27鄰","STREET":"中華北路","SECT":"一段","MAREA":" ","LANE":"２６３巷","ALLEY":" ","HOUSE_NO":"６９號","E_COORD97":166181.19,"N_COORD97":2545730.3500000001,"ADDRESS":"中華北路一段２６３巷６９號","OBJECTID":405654},"geometry":{"x":166181.19000000041,"y":2545730.3500000034}},{"attributes":{"ID":405679,"DIS_CODE":0,"TOWNNAME":"永康區","LI":"大灣里","LIN":"13鄰","STREET":"民族路","SECT":" ","MAREA":" ","LANE":"３４５巷","ALLEY":" ","HOUSE_NO":"１１號","E_COORD97":174965.64999999999,"N_COORD97":2545173.7599999998,"ADDRESS":"民族路３４５巷１１號","OBJECTID":405655},"geometry":{"x":174965.65000000037,"y":2545173.7599999998}},{"attributes":{"ID":405680,"DIS_CODE":0,"TOWNNAME":"永康區","LI":"三合里","LIN":"10鄰","STREET":"南工街","SECT":" ","MAREA":" ","LANE":"２４７巷","ALLEY":" ","HOUSE_NO":"３９號","E_COORD97":171961.17999999999,"N_COORD97":2545764.7400000002,"ADDRESS":"南工街２４７巷３９號","OBJECTID":405656},"geometry":{"x":171961.1799999997,"y":2545764.7400000002}},{"attributes":{"ID":405681,"DIS_CODE":0,"TOWNNAME":"關廟區","LI":"香洋里","LIN":"27鄰","STREET":"民權街","SECT":" ","MAREA":" ","LANE":"２０８巷","ALLEY":" ","HOUSE_NO":"５號","E_COORD97":181175.48999999999,"N_COORD97":2539822.29,"ADDRESS":"民權街２０８巷５號","OBJECTID":405657},"geometry":{"x":181175.49000000115,"y":2539822.290000001}},{"attributes":{"ID":405682,"DIS_CODE":0,"TOWNNAME":"關廟區","LI":"香洋里","LIN":"27鄰","STREET":"民權街","SECT":" ","MAREA":" ","LANE":"１３７巷","ALLEY":" ","HOUSE_NO":"１１號","E_COORD97":181168.76999999999,"N_COORD97":2539747.8199999998,"ADDRESS":"民權街１３７巷１１號","OBJECTID":405658},"geometry":{"x":181168.76999999955,"y":2539747.8200000022}},{"attributes":{"ID":405683,"DIS_CODE":0,"TOWNNAME":"關廟區","LI":"香洋里","LIN":"27鄰","STREET":"民權街","SECT":" ","MAREA":" ","LANE":"１３７巷","ALLEY":" ","HOUSE_NO":"１３號","E_COORD97":181170,"N_COORD97":2539743.2999999998,"ADDRESS":"民權街１３７巷１３號","OBJECTID":405659},"geometry":{"x":181170.00000000093,"y":2539743.3000000007}},{"attributes":{"ID":405684,"DIS_CODE":0,"TOWNNAME":"新營區","LI":"忠政里","LIN":"27鄰","STREET":"中正路","SECT":" ","MAREA":" ","LANE":"３９巷","ALLEY":" ","HOUSE_NO":"１１９號之３","E_COORD97":179874.85999999999,"N_COORD97":2579308.7200000002,"ADDRESS":"中正路３９巷１１９號之３","OBJECTID":405660},"geometry":{"x":179874.86000000127,"y":2579308.7200000025}},{"attributes":{"ID":405685,"DIS_CODE":0,"TOWNNAME":"新營區","LI":"忠政里","LIN":"27鄰","STREET":"中正路","SECT":" ","MAREA":" ","LANE":"３９巷","ALLEY":" ","HOUSE_NO":"６０號","E_COORD97":179885.56,"N_COORD97":2579278.71,"ADDRESS":"中正路３９巷６０號","OBJECTID":405661},"geometry":{"x":179885.56000000145,"y":2579278.7100000009}},{"attributes":{"ID":405686,"DIS_CODE":0,"TOWNNAME":"新營區","LI":"忠政里","LIN":"27鄰","STREET":"中正路","SECT":" ","MAREA":" ","LANE":"３９巷","ALLEY":" ","HOUSE_NO":"６８號","E_COORD97":179869.19,"N_COORD97":2579275.46,"ADDRESS":"中正路３９巷６８號","OBJECTID":405662},"geometry":{"x":179869.19000000134,"y":2579275.4600000046}},{"attributes":{"ID":405687,"DIS_CODE":0,"TOWNNAME":"永康區","LI":"大橋里","LIN":"5鄰","STREET":"大橋三街","SECT":" ","MAREA":" ","LANE":"１９９巷","ALLEY":" ","HOUSE_NO":"７號之２","E_COORD97":170819.60999999999,"N_COORD97":2546816.5600000001,"ADDRESS":"大橋三街１９９巷７號之２","OBJECTID":405663},"geometry":{"x":170819.61000000034,"y":2546816.5600000005}},{"attributes":{"ID":405688,"DIS_CODE":0,"TOWNNAME":"安平區","LI":"平通里","LIN":"27鄰","STREET":"育平七街","SECT":" ","MAREA":" ","LANE":"１４２巷","ALLEY":" ","HOUSE_NO":"２號","E_COORD97":164351.91,"N_COORD97":2543782.3999999999,"ADDRESS":"育平七街１４２巷２號","OBJECTID":405664},"geometry":{"x":164351.91000000015,"y":2543782.4000000022}},{"attributes":{"ID":405689,"DIS_CODE":0,"TOWNNAME":"安平區","LI":"平通里","LIN":"27鄰","STREET":"育平七街","SECT":" ","MAREA":" ","LANE":"１４２巷","ALLEY":" ","HOUSE_NO":"５號","E_COORD97":164326.98000000001,"N_COORD97":2543799.7000000002,"ADDRESS":"育平七街１４２巷５號","OBJECTID":405665},"geometry":{"x":164326.98000000138,"y":2543799.7000000011}},{"attributes":{"ID":405690,"DIS_CODE":0,"TOWNNAME":"安平區","LI":"平通里","LIN":"27鄰","STREET":"育平七街","SECT":" ","MAREA":" ","LANE":"１４２巷","ALLEY":" ","HOUSE_NO":"６號","E_COORD97":164351.75,"N_COORD97":2543790.8100000001,"ADDRESS":"育平七街１４２巷６號","OBJECTID":405666},"geometry":{"x":164351.75000000186,"y":2543790.8100000005}},{"attributes":{"ID":405691,"DIS_CODE":0,"TOWNNAME":"安平區","LI":"平通里","LIN":"27鄰","STREET":"育平七街","SECT":" ","MAREA":" ","LANE":"１４２巷","ALLEY":" ","HOUSE_NO":"８號","E_COORD97":164351.75,"N_COORD97":2543799.8599999999,"ADDRESS":"育平七街１４２巷８號","OBJECTID":405667},"geometry":{"x":164351.75000000186,"y":2543799.8599999994}},{"attributes":{"ID":405692,"DIS_CODE":0,"TOWNNAME":"安平區","LI":"平通里","LIN":"27鄰","STREET":"育平七街","SECT":" ","MAREA":" ","LANE":"１４２巷","ALLEY":" ","HOUSE_NO":"７號","E_COORD97":164326.35000000001,"N_COORD97":2543807.9500000002,"ADDRESS":"育平七街１４２巷７號","OBJECTID":405668},"geometry":{"x":164326.34999999963,"y":2543807.9500000011}},{"attributes":{"ID":405693,"DIS_CODE":0,"TOWNNAME":"安平區","LI":"平通里","LIN":"27鄰","STREET":"育平七街","SECT":" ","MAREA":" ","LANE":"１４２巷","ALLEY":" ","HOUSE_NO":"９號","E_COORD97":164325.07999999999,"N_COORD97":2543816.3700000001,"ADDRESS":"育平七街１４２巷９號","OBJECTID":405669},"geometry":{"x":164325.08000000007,"y":2543816.3700000029}},{"attributes":{"ID":405694,"DIS_CODE":0,"TOWNNAME":"安平區","LI":"平通里","LIN":"27鄰","STREET":"育平七街","SECT":" ","MAREA":" ","LANE":"１４２巷","ALLEY":" ","HOUSE_NO":"１１號","E_COORD97":164325.07999999999,"N_COORD97":2543824.7799999998,"ADDRESS":"育平七街１４２巷１１號","OBJECTID":405670},"geometry":{"x":164325.08000000007,"y":2543824.7799999975}},{"attributes":{"ID":405695,"DIS_CODE":0,"TOWNNAME":"安平區","LI":"平通里","LIN":"27鄰","STREET":"育平七街","SECT":" ","MAREA":" ","LANE":"１４２巷","ALLEY":" ","HOUSE_NO":"１３號","E_COORD97":164324.28,"N_COORD97":2543834.6200000001,"ADDRESS":"育平七街１４２巷１３號","OBJECTID":405671},"geometry":{"x":164324.28000000026,"y":2543834.6200000048}},{"attributes":{"ID":405696,"DIS_CODE":0,"TOWNNAME":"安平區","LI":"平通里","LIN":"27鄰","STREET":"育平七街","SECT":" ","MAREA":" ","LANE":"１４２巷","ALLEY":" ","HOUSE_NO":"１５號","E_COORD97":164324.13,"N_COORD97":2543843.5099999998,"ADDRESS":"育平七街１４２巷１５號","OBJECTID":405672},"geometry":{"x":164324.13000000082,"y":2543843.5099999998}},{"attributes":{"ID":405697,"DIS_CODE":0,"TOWNNAME":"安平區","LI":"平通里","LIN":"27鄰","STREET":"育平七街","SECT":" ","MAREA":" ","LANE":"１４２巷","ALLEY":" ","HOUSE_NO":"１７號","E_COORD97":164322.85999999999,"N_COORD97":2543851.29,"ADDRESS":"育平七街１４２巷１７號","OBJECTID":405673},"geometry":{"x":164322.86000000127,"y":2543851.2899999991}},{"attributes":{"ID":405698,"DIS_CODE":0,"TOWNNAME":"安平區","LI":"平通里","LIN":"27鄰","STREET":"育平七街","SECT":" ","MAREA":" ","LANE":"１４２巷","ALLEY":" ","HOUSE_NO":"１９號","E_COORD97":164322.22,"N_COORD97":2543859.71,"ADDRESS":"育平七街１４２巷１９號","OBJECTID":405674},"geometry":{"x":164322.21999999974,"y":2543859.7100000009}},{"attributes":{"ID":405699,"DIS_CODE":0,"TOWNNAME":"安平區","LI":"平通里","LIN":"27鄰","STREET":"育平七街","SECT":" ","MAREA":" ","LANE":"１４２巷","ALLEY":" ","HOUSE_NO":"１０號","E_COORD97":164351.75,"N_COORD97":2543807.7999999998,"ADDRESS":"育平七街１４２巷１０號","OBJECTID":405675},"geometry":{"x":164351.75000000186,"y":2543807.8000000007}},{"attributes":{"ID":405700,"DIS_CODE":0,"TOWNNAME":"安平區","LI":"平通里","LIN":"27鄰","STREET":"育平七街","SECT":" ","MAREA":" ","LANE":"１４２巷","ALLEY":" ","HOUSE_NO":"１２號","E_COORD97":164351.10999999999,"N_COORD97":2543817.96,"ADDRESS":"育平七街１４２巷１２號","OBJECTID":405676},"geometry":{"x":164351.11000000034,"y":2543817.9600000009}},{"attributes":{"ID":405701,"DIS_CODE":0,"TOWNNAME":"安平區","LI":"平通里","LIN":"27鄰","STREET":"育平七街","SECT":" ","MAREA":" ","LANE":"１４２巷","ALLEY":" ","HOUSE_NO":"２１號","E_COORD97":164322.06,"N_COORD97":2543867.7999999998,"ADDRESS":"育平七街１４２巷２１號","OBJECTID":405677},"geometry":{"x":164322.06000000145,"y":2543867.8000000026}},{"attributes":{"ID":405702,"DIS_CODE":0,"TOWNNAME":"安平區","LI":"平通里","LIN":"27鄰","STREET":"育平七街","SECT":" ","MAREA":" ","LANE":"１４２巷","ALLEY":" ","HOUSE_NO":"１６號","E_COORD97":164351.26999999999,"N_COORD97":2543825.8900000001,"ADDRESS":"育平七街１４２巷１６號","OBJECTID":405678},"geometry":{"x":164351.27000000048,"y":2543825.8900000025}},{"attributes":{"ID":405703,"DIS_CODE":0,"TOWNNAME":"安平區","LI":"平通里","LIN":"27鄰","STREET":"育平七街","SECT":" ","MAREA":" ","LANE":"１４２巷","ALLEY":" ","HOUSE_NO":"１８號","E_COORD97":164351.10999999999,"N_COORD97":2543834.9399999999,"ADDRESS":"育平七街１４２巷１８號","OBJECTID":405679},"geometry":{"x":164351.11000000034,"y":2543834.9400000013}},{"attributes":{"ID":405704,"DIS_CODE":0,"TOWNNAME":"安平區","LI":"平通里","LIN":"27鄰","STREET":"育平七街","SECT":" ","MAREA":" ","LANE":"１４２巷","ALLEY":" ","HOUSE_NO":"２０號","E_COORD97":164350.79999999999,"N_COORD97":2543843.8300000001,"ADDRESS":"育平七街１４２巷２０號","OBJECTID":405680},"geometry":{"x":164350.79999999981,"y":2543843.8300000019}},{"attributes":{"ID":405705,"DIS_CODE":0,"TOWNNAME":"安平區","LI":"平通里","LIN":"27鄰","STREET":"育平七街","SECT":" ","MAREA":" ","LANE":"１４２巷","ALLEY":" ","HOUSE_NO":"２２號","E_COORD97":164350.32000000001,"N_COORD97":2543854.3100000001,"ADDRESS":"育平七街１４２巷２２號","OBJECTID":405681},"geometry":{"x":164350.32000000123,"y":2543854.3100000024}},{"attributes":{"ID":405706,"DIS_CODE":0,"TOWNNAME":"安平區","LI":"平通里","LIN":"27鄰","STREET":"育平七街","SECT":" ","MAREA":" ","LANE":"１４２巷","ALLEY":" ","HOUSE_NO":"２３號","E_COORD97":164322.06,"N_COORD97":2543875.7400000002,"ADDRESS":"育平七街１４２巷２３號","OBJECTID":405682},"geometry":{"x":164322.06000000145,"y":2543875.7400000002}},{"attributes":{"ID":405707,"DIS_CODE":0,"TOWNNAME":"安平區","LI":"平通里","LIN":"27鄰","STREET":"育平七街","SECT":" ","MAREA":" ","LANE":"１４２巷","ALLEY":" ","HOUSE_NO":"２６號","E_COORD97":164350,"N_COORD97":2543861.6099999999,"ADDRESS":"育平七街１４２巷２６號","OBJECTID":405683},"geometry":{"x":164350.00000000186,"y":2543861.6100000013}},{"attributes":{"ID":405708,"DIS_CODE":0,"TOWNNAME":"永康區","LI":"三合里","LIN":"4鄰","STREET":"中華二路","SECT":" ","MAREA":" ","LANE":"８８巷","ALLEY":" ","HOUSE_NO":"４３號","E_COORD97":172069.76999999999,"N_COORD97":2545592.8100000001,"ADDRESS":"中華二路８８巷４３號","OBJECTID":405684},"geometry":{"x":172069.77000000048,"y":2545592.8100000024}},{"attributes":{"ID":405709,"DIS_CODE":0,"TOWNNAME":"永康區","LI":"中興里","LIN":"5鄰","STREET":"中華路","SECT":" ","MAREA":" ","LANE":"２１４巷","ALLEY":" ","HOUSE_NO":"４１號","E_COORD97":171802.92999999999,"N_COORD97":2545069.1299999999,"ADDRESS":"中華路２１４巷４１號","OBJECTID":405685},"geometry":{"x":171802.93000000063,"y":2545069.129999999}},{"attributes":{"ID":405710,"DIS_CODE":0,"TOWNNAME":"永康區","LI":"五王里","LIN":"26鄰","STREET":"五福街","SECT":" ","MAREA":" ","LANE":"８２巷","ALLEY":" ","HOUSE_NO":"３９號","E_COORD97":171524.01999999999,"N_COORD97":2545883.7400000002,"ADDRESS":"五福街８２巷３９號","OBJECTID":405686},"geometry":{"x":171524.02000000048,"y":2545883.7400000002}},{"attributes":{"ID":405711,"DIS_CODE":0,"TOWNNAME":"永康區","LI":"大橋里","LIN":"13鄰","STREET":"大橋二街","SECT":" ","MAREA":" ","LANE":"２３９巷","ALLEY":" ","HOUSE_NO":"３４號","E_COORD97":171069.14999999999,"N_COORD97":2546895.2400000002,"ADDRESS":"大橋二街２３９巷３４號","OBJECTID":405687},"geometry":{"x":171069.15000000224,"y":2546895.2400000021}},{"attributes":{"ID":405712,"DIS_CODE":0,"TOWNNAME":"永康區","LI":"大橋里","LIN":"7鄰","STREET":"大橋三街","SECT":" ","MAREA":" ","LANE":"１９９巷","ALLEY":" ","HOUSE_NO":"７５號","E_COORD97":170953.41,"N_COORD97":2546905.54,"ADDRESS":"大橋三街１９９巷７５號","OBJECTID":405688},"geometry":{"x":170953.40999999922,"y":2546905.540000001}},{"attributes":{"ID":405713,"DIS_CODE":0,"TOWNNAME":"安平區","LI":"平通里","LIN":"27鄰","STREET":"育平七街","SECT":" ","MAREA":" ","LANE":"６０巷","ALLEY":" ","HOUSE_NO":"８６號","E_COORD97":164456.20000000001,"N_COORD97":2544003.5499999998,"ADDRESS":"育平七街６０巷８６號","OBJECTID":405689},"geometry":{"x":164456.20000000112,"y":2544003.5500000007}},{"attributes":{"ID":405714,"DIS_CODE":0,"TOWNNAME":"安平區","LI":"平通里","LIN":"27鄰","STREET":"育平七街","SECT":" ","MAREA":" ","LANE":"６０巷","ALLEY":" ","HOUSE_NO":"８８號","E_COORD97":164456.09,"N_COORD97":2544010.3999999999,"ADDRESS":"育平七街６０巷８８號","OBJECTID":405690},"geometry":{"x":164456.09000000171,"y":2544010.4000000004}},{"attributes":{"ID":405715,"DIS_CODE":0,"TOWNNAME":"安平區","LI":"平通里","LIN":"27鄰","STREET":"育平七街","SECT":" ","MAREA":" ","LANE":"６０巷","ALLEY":" ","HOUSE_NO":"９０號","E_COORD97":164456.04000000001,"N_COORD97":2544018.48,"ADDRESS":"育平七街６０巷９０號","OBJECTID":405691},"geometry":{"x":164456.04000000004,"y":2544018.4800000023}},{"attributes":{"ID":405716,"DIS_CODE":0,"TOWNNAME":"安平區","LI":"平通里","LIN":"27鄰","STREET":"育平七街","SECT":" ","MAREA":" ","LANE":"６０巷","ALLEY":" ","HOUSE_NO":"９２號","E_COORD97":164455.56,"N_COORD97":2544023.0800000001,"ADDRESS":"育平七街６０巷９２號","OBJECTID":405692},"geometry":{"x":164455.55999999959,"y":2544023.0800000001}},{"attributes":{"ID":405717,"DIS_CODE":0,"TOWNNAME":"安平區","LI":"華平里","LIN":"27鄰","STREET":"怡平路","SECT":" ","MAREA":" ","LANE":"４１９巷","ALLEY":" ","HOUSE_NO":"７號","E_COORD97":165402.98000000001,"N_COORD97":2543797.21,"ADDRESS":"怡平路４１９巷７號","OBJECTID":405693},"geometry":{"x":165402.98000000045,"y":2543797.2100000028}},{"attributes":{"ID":405718,"DIS_CODE":0,"TOWNNAME":"安平區","LI":"華平里","LIN":"27鄰","STREET":"怡平路","SECT":" ","MAREA":" ","LANE":"４１９巷","ALLEY":" ","HOUSE_NO":"１號","E_COORD97":165404.73000000001,"N_COORD97":2543813.8700000001,"ADDRESS":"怡平路４１９巷１號","OBJECTID":405694},"geometry":{"x":165404.73000000045,"y":2543813.8700000029}},{"attributes":{"ID":405719,"DIS_CODE":0,"TOWNNAME":"安平區","LI":"華平里","LIN":"27鄰","STREET":"怡平路","SECT":" ","MAREA":" ","LANE":"４１９巷","ALLEY":" ","HOUSE_NO":"３號","E_COORD97":165403.92999999999,"N_COORD97":2543809.75,"ADDRESS":"怡平路４１９巷３號","OBJECTID":405695},"geometry":{"x":165403.9299999997,"y":2543809.7500000019}},{"attributes":{"ID":405720,"DIS_CODE":0,"TOWNNAME":"安平區","LI":"華平里","LIN":"27鄰","STREET":"怡平路","SECT":" ","MAREA":" ","LANE":"４１９巷","ALLEY":" ","HOUSE_NO":"５號","E_COORD97":165403.14000000001,"N_COORD97":2543802.9199999999,"ADDRESS":"怡平路４１９巷５號","OBJECTID":405696},"geometry":{"x":165403.14000000153,"y":2543802.9199999999}},{"attributes":{"ID":405721,"DIS_CODE":0,"TOWNNAME":"安平區","LI":"華平里","LIN":"27鄰","STREET":"怡平路","SECT":" ","MAREA":" ","LANE":"４１９巷","ALLEY":" ","HOUSE_NO":"６號","E_COORD97":165385.87,"N_COORD97":2543797.98,"ADDRESS":"怡平路４１９巷６號","OBJECTID":405697},"geometry":{"x":165385.87000000104,"y":2543797.9800000023}},{"attributes":{"ID":405722,"DIS_CODE":0,"TOWNNAME":"安平區","LI":"華平里","LIN":"27鄰","STREET":"怡平路","SECT":" ","MAREA":" ","LANE":"４１９巷","ALLEY":" ","HOUSE_NO":"８號","E_COORD97":165385.67999999999,"N_COORD97":2543794.8199999998,"ADDRESS":"怡平路４１９巷８號","OBJECTID":405698},"geometry":{"x":165385.6799999997,"y":2543794.8200000003}},{"attributes":{"ID":405723,"DIS_CODE":0,"TOWNNAME":"安平區","LI":"華平里","LIN":"27鄰","STREET":"怡平路","SECT":" ","MAREA":" ","LANE":"４１９巷","ALLEY":" ","HOUSE_NO":"１０號","E_COORD97":165384.09,"N_COORD97":2543789.4300000002,"ADDRESS":"怡平路４１９巷１０號","OBJECTID":405699},"geometry":{"x":165384.09000000078,"y":2543789.4299999997}},{"attributes":{"ID":405724,"DIS_CODE":0,"TOWNNAME":"永康區","LI":"三民里","LIN":"14鄰","STREET":"和平東路","SECT":" ","MAREA":" ","LANE":"３０巷","ALLEY":" ","HOUSE_NO":"１號","E_COORD97":175188.87,"N_COORD97":2550662.9199999999,"ADDRESS":"和平東路３０巷１號","OBJECTID":405700},"geometry":{"x":175188.87000000104,"y":2550662.9199999981}},{"attributes":{"ID":405725,"DIS_CODE":0,"TOWNNAME":"安平區","LI":"怡平里","LIN":"27鄰","STREET":"永華六街","SECT":" ","MAREA":" ","LANE":"２０巷","ALLEY":" ","HOUSE_NO":"２２號","E_COORD97":165561.60000000001,"N_COORD97":2543571.9199999999,"ADDRESS":"永華六街２０巷２２號","OBJECTID":405701},"geometry":{"x":165561.60000000056,"y":2543571.9200000018}},{"attributes":{"ID":405726,"DIS_CODE":0,"TOWNNAME":"安平區","LI":"怡平里","LIN":"27鄰","STREET":"永華六街","SECT":" ","MAREA":" ","LANE":"２０巷","ALLEY":" ","HOUSE_NO":"２６號","E_COORD97":165563.03,"N_COORD97":2543575.5699999998,"ADDRESS":"永華六街２０巷２６號","OBJECTID":405702},"geometry":{"x":165563.03000000026,"y":2543575.5700000003}},{"attributes":{"ID":405727,"DIS_CODE":0,"TOWNNAME":"安平區","LI":"怡平里","LIN":"27鄰","STREET":"永華六街","SECT":" ","MAREA":" ","LANE":"２０巷","ALLEY":" ","HOUSE_NO":"２８號","E_COORD97":165563.51000000001,"N_COORD97":2543580.3300000001,"ADDRESS":"永華六街２０巷２８號","OBJECTID":405703},"geometry":{"x":165563.51000000164,"y":2543580.3300000001}},{"attributes":{"ID":405728,"DIS_CODE":0,"TOWNNAME":"安平區","LI":"怡平里","LIN":"27鄰","STREET":"永華六街","SECT":" ","MAREA":" ","LANE":"２０巷","ALLEY":" ","HOUSE_NO":"８號","E_COORD97":165547.47,"N_COORD97":2543571.1200000001,"ADDRESS":"永華六街２０巷８號","OBJECTID":405704},"geometry":{"x":165547.47000000067,"y":2543571.1200000029}},{"attributes":{"ID":405729,"DIS_CODE":0,"TOWNNAME":"安平區","LI":"文平里","LIN":"27鄰","STREET":"建平三街","SECT":" ","MAREA":" ","LANE":"６２巷","ALLEY":" ","HOUSE_NO":"１６號","E_COORD97":166196.51999999999,"N_COORD97":2542987.7000000002,"ADDRESS":"建平三街６２巷１６號","OBJECTID":405705},"geometry":{"x":166196.51999999955,"y":2542987.6999999993}},{"attributes":{"ID":405730,"DIS_CODE":0,"TOWNNAME":"安平區","LI":"文平里","LIN":"27鄰","STREET":"建平三街","SECT":" ","MAREA":" ","LANE":"６２巷","ALLEY":" ","HOUSE_NO":"１８號","E_COORD97":166196.51999999999,"N_COORD97":2542991.9199999999,"ADDRESS":"建平三街６２巷１８號","OBJECTID":405706},"geometry":{"x":166196.51999999955,"y":2542991.9200000018}},{"attributes":{"ID":405731,"DIS_CODE":0,"TOWNNAME":"永康區","LI":"五王里","LIN":"31鄰","STREET":"五福街","SECT":" ","MAREA":" ","LANE":"９巷","ALLEY":" ","HOUSE_NO":"６號","E_COORD97":171275.39999999999,"N_COORD97":2545890.25,"ADDRESS":"五福街９巷６號","OBJECTID":405707},"geometry":{"x":171275.40000000037,"y":2545890.25}},{"attributes":{"ID":405732,"DIS_CODE":0,"TOWNNAME":"永康區","LI":"五王里","LIN":"37鄰","STREET":"中華路","SECT":" ","MAREA":" ","LANE":"５７８巷","ALLEY":" ","HOUSE_NO":"１５號之７１","E_COORD97":171275.95000000001,"N_COORD97":2545965.79,"ADDRESS":"中華路５７８巷１５號之７１","OBJECTID":405708},"geometry":{"x":171275.95000000112,"y":2545965.7899999991}},{"attributes":{"ID":405733,"DIS_CODE":0,"TOWNNAME":"永康區","LI":"五王里","LIN":"37鄰","STREET":"中華路","SECT":" ","MAREA":" ","LANE":"５７８巷","ALLEY":" ","HOUSE_NO":"１５號之３５","E_COORD97":171276.10000000001,"N_COORD97":2545965.79,"ADDRESS":"中華路５７８巷１５號之３５","OBJECTID":405709},"geometry":{"x":171276.10000000056,"y":2545965.7899999991}},{"attributes":{"ID":405734,"DIS_CODE":0,"TOWNNAME":"歸仁區","LI":"後市里","LIN":"27鄰","STREET":"民族北街","SECT":" ","MAREA":" ","LANE":"１７巷","ALLEY":" ","HOUSE_NO":"７號","E_COORD97":177387.23000000001,"N_COORD97":2540863.75,"ADDRESS":"民族北街１７巷７號","OBJECTID":405710},"geometry":{"x":177387.23000000138,"y":2540863.7500000019}},{"attributes":{"ID":405735,"DIS_CODE":0,"TOWNNAME":"北區","LI":"成德里","LIN":"27鄰","STREET":"育德二路","SECT":" ","MAREA":" ","LANE":"２００巷","ALLEY":" ","HOUSE_NO":"２號","E_COORD97":168374.03,"N_COORD97":2545831.1299999999,"ADDRESS":"育德二路２００巷２號","OBJECTID":405711},"geometry":{"x":168374.03000000026,"y":2545831.129999999}},{"attributes":{"ID":405736,"DIS_CODE":0,"TOWNNAME":"北區","LI":"成德里","LIN":"27鄰","STREET":"育德二路","SECT":" ","MAREA":" ","LANE":"１９６巷","ALLEY":" ","HOUSE_NO":"１號","E_COORD97":168374.5,"N_COORD97":2545807.8700000001,"ADDRESS":"育德二路１９６巷１號","OBJECTID":405712},"geometry":{"x":168374.50000000093,"y":2545807.8700000029}},{"attributes":{"ID":405737,"DIS_CODE":0,"TOWNNAME":"北區","LI":"成德里","LIN":"27鄰","STREET":"育德二路","SECT":" ","MAREA":" ","LANE":"１９６巷","ALLEY":" ","HOUSE_NO":"４６號","E_COORD97":168445.29999999999,"N_COORD97":2545789.77,"ADDRESS":"育德二路１９６巷４６號","OBJECTID":405713},"geometry":{"x":168445.30000000075,"y":2545789.7700000014}},{"attributes":{"ID":405738,"DIS_CODE":0,"TOWNNAME":"永康區","LI":"大橋里","LIN":"18鄰","STREET":"大橋一街","SECT":" ","MAREA":" ","LANE":"１３９巷","ALLEY":" ","HOUSE_NO":"６０號","E_COORD97":170960.79000000001,"N_COORD97":2546657,"ADDRESS":"大橋一街１３９巷６０號","OBJECTID":405714},"geometry":{"x":170960.79000000004,"y":2546657}},{"attributes":{"ID":405739,"DIS_CODE":0,"TOWNNAME":"永康區","LI":"大灣里","LIN":"18鄰","STREET":"大灣路","SECT":" ","MAREA":" ","LANE":"３５６巷","ALLEY":" ","HOUSE_NO":"４６之１號","E_COORD97":174773.54000000001,"N_COORD97":2545187.1099999999,"ADDRESS":"大灣路３５６巷４６之１號","OBJECTID":405715},"geometry":{"x":174773.5400000019,"y":2545187.1100000013}},{"attributes":{"ID":405740,"DIS_CODE":0,"TOWNNAME":"永康區","LI":"大灣里","LIN":"30鄰","STREET":"民族路","SECT":" ","MAREA":" ","LANE":"１２６巷","ALLEY":" ","HOUSE_NO":"４２之１號","E_COORD97":175387.01999999999,"N_COORD97":2544920.7200000002,"ADDRESS":"民族路１２６巷４２之１號","OBJECTID":405716},"geometry":{"x":175387.02000000048,"y":2544920.7200000007}},{"attributes":{"ID":405741,"DIS_CODE":0,"TOWNNAME":"北區","LI":"成德里","LIN":"27鄰","STREET":"育德二路","SECT":" ","MAREA":" ","LANE":"１９６巷","ALLEY":" ","HOUSE_NO":"２２號","E_COORD97":168410.22,"N_COORD97":2545790.3300000001,"ADDRESS":"育德二路１９６巷２２號","OBJECTID":405717},"geometry":{"x":168410.22000000067,"y":2545790.3300000001}},{"attributes":{"ID":405742,"DIS_CODE":0,"TOWNNAME":"北區","LI":"成德里","LIN":"27鄰","STREET":"育德二路","SECT":" ","MAREA":" ","LANE":"１９６巷","ALLEY":" ","HOUSE_NO":"２６號","E_COORD97":168414.51000000001,"N_COORD97":2545790.4100000001,"ADDRESS":"育德二路１９６巷２６號","OBJECTID":405718},"geometry":{"x":168414.50999999978,"y":2545790.4100000001}},{"attributes":{"ID":405743,"DIS_CODE":0,"TOWNNAME":"北區","LI":"成德里","LIN":"27鄰","STREET":"育德二路","SECT":" ","MAREA":" ","LANE":"１９６巷","ALLEY":" ","HOUSE_NO":"１２號","E_COORD97":168393.23000000001,"N_COORD97":2545790.4100000001,"ADDRESS":"育德二路１９６巷１２號","OBJECTID":405719},"geometry":{"x":168393.23000000045,"y":2545790.4100000001}},{"attributes":{"ID":405744,"DIS_CODE":0,"TOWNNAME":"北區","LI":"成德里","LIN":"27鄰","STREET":"育德二路","SECT":" ","MAREA":" ","LANE":"１９６巷","ALLEY":" ","HOUSE_NO":"１８號","E_COORD97":168401.48999999999,"N_COORD97":2545790.3300000001,"ADDRESS":"育德二路１９６巷１８號","OBJECTID":405720},"geometry":{"x":168401.49000000022,"y":2545790.3300000001}},{"attributes":{"ID":405745,"DIS_CODE":0,"TOWNNAME":"北區","LI":"成德里","LIN":"27鄰","STREET":"育德二路","SECT":" ","MAREA":" ","LANE":"１９６巷","ALLEY":" ","HOUSE_NO":"８號","E_COORD97":168384.66,"N_COORD97":2545790.4900000002,"ADDRESS":"育德二路１９６巷８號","OBJECTID":405721},"geometry":{"x":168384.66000000015,"y":2545790.4900000002}},{"attributes":{"ID":405746,"DIS_CODE":0,"TOWNNAME":"北區","LI":"成德里","LIN":"27鄰","STREET":"育德二路","SECT":" ","MAREA":" ","LANE":"１９６巷","ALLEY":" ","HOUSE_NO":"１０號","E_COORD97":168389.26999999999,"N_COORD97":2545790.3300000001,"ADDRESS":"育德二路１９６巷１０號","OBJECTID":405722},"geometry":{"x":168389.27000000048,"y":2545790.3300000001}},{"attributes":{"ID":405747,"DIS_CODE":0,"TOWNNAME":"北區","LI":"成德里","LIN":"27鄰","STREET":"育德二路","SECT":" ","MAREA":" ","LANE":"１９６巷","ALLEY":" ","HOUSE_NO":"６號","E_COORD97":168379.57999999999,"N_COORD97":2545790.8100000001,"ADDRESS":"育德二路１９６巷６號","OBJECTID":405723},"geometry":{"x":168379.58000000101,"y":2545790.8100000005}},{"attributes":{"ID":405748,"DIS_CODE":0,"TOWNNAME":"北區","LI":"成德里","LIN":"27鄰","STREET":"育德二路","SECT":" ","MAREA":" ","LANE":"１９６巷","ALLEY":" ","HOUSE_NO":"１６號","E_COORD97":168397.51999999999,"N_COORD97":2545790.3300000001,"ADDRESS":"育德二路１９６巷１６號","OBJECTID":405724},"geometry":{"x":168397.52000000142,"y":2545790.3300000001}},{"attributes":{"ID":405749,"DIS_CODE":0,"TOWNNAME":"北區","LI":"成德里","LIN":"27鄰","STREET":"育德二路","SECT":" ","MAREA":" ","LANE":"１９６巷","ALLEY":" ","HOUSE_NO":"２０號","E_COORD97":168405.92999999999,"N_COORD97":2545790.3300000001,"ADDRESS":"育德二路１９６巷２０號","OBJECTID":405725},"geometry":{"x":168405.9299999997,"y":2545790.3300000001}},{"attributes":{"ID":405750,"DIS_CODE":0,"TOWNNAME":"北區","LI":"成德里","LIN":"27鄰","STREET":"育德二路","SECT":" ","MAREA":" ","LANE":"１９６巷","ALLEY":" ","HOUSE_NO":"３６號","E_COORD97":168430.06,"N_COORD97":2545790.0099999998,"ADDRESS":"育德二路１９６巷３６號","OBJECTID":405726},"geometry":{"x":168430.06000000052,"y":2545790.0099999998}},{"attributes":{"ID":405751,"DIS_CODE":0,"TOWNNAME":"北區","LI":"成德里","LIN":"27鄰","STREET":"育德二路","SECT":" ","MAREA":" ","LANE":"１９６巷","ALLEY":" ","HOUSE_NO":"３０號","E_COORD97":168422.29000000001,"N_COORD97":2545790.3300000001,"ADDRESS":"育德二路１９６巷３０號","OBJECTID":405727},"geometry":{"x":168422.29000000097,"y":2545790.3300000001}},{"attributes":{"ID":405752,"DIS_CODE":0,"TOWNNAME":"北區","LI":"成德里","LIN":"27鄰","STREET":"育德二路","SECT":" ","MAREA":" ","LANE":"１９６巷","ALLEY":" ","HOUSE_NO":"４０號","E_COORD97":168438.16,"N_COORD97":2545789.8500000001,"ADDRESS":"育德二路１９６巷４０號","OBJECTID":405728},"geometry":{"x":168438.16000000108,"y":2545789.8499999996}},{"attributes":{"ID":405753,"DIS_CODE":0,"TOWNNAME":"北區","LI":"成德里","LIN":"27鄰","STREET":"育德二路","SECT":" ","MAREA":" ","LANE":"１９６巷","ALLEY":" ","HOUSE_NO":"２８號","E_COORD97":168418.63,"N_COORD97":2545790.4900000002,"ADDRESS":"育德二路１９６巷２８號","OBJECTID":405729},"geometry":{"x":168418.62999999989,"y":2545790.4900000002}},{"attributes":{"ID":405754,"DIS_CODE":0,"TOWNNAME":"北區","LI":"成德里","LIN":"27鄰","STREET":"育德二路","SECT":" ","MAREA":" ","LANE":"１９６巷","ALLEY":" ","HOUSE_NO":"３２號","E_COORD97":168426.25,"N_COORD97":2545790.1699999999,"ADDRESS":"育德二路１９６巷３２號","OBJECTID":405730},"geometry":{"x":168426.25,"y":2545790.1700000018}},{"attributes":{"ID":405755,"DIS_CODE":0,"TOWNNAME":"北區","LI":"成德里","LIN":"27鄰","STREET":"育德二路","SECT":" ","MAREA":" ","LANE":"１９６巷","ALLEY":" ","HOUSE_NO":"３８號","E_COORD97":168434.19,"N_COORD97":2545789.8500000001,"ADDRESS":"育德二路１９６巷３８號","OBJECTID":405731},"geometry":{"x":168434.19000000041,"y":2545789.8499999996}},{"attributes":{"ID":405756,"DIS_CODE":0,"TOWNNAME":"北區","LI":"成德里","LIN":"27鄰","STREET":"育德二路","SECT":" ","MAREA":" ","LANE":"１９６巷","ALLEY":" ","HOUSE_NO":"４２號","E_COORD97":168441.81,"N_COORD97":2545789.7000000002,"ADDRESS":"育德二路１９６巷４２號","OBJECTID":405732},"geometry":{"x":168441.81000000052,"y":2545789.7000000011}},{"attributes":{"ID":405757,"DIS_CODE":0,"TOWNNAME":"北區","LI":"成德里","LIN":"27鄰","STREET":"育德二路","SECT":" ","MAREA":" ","LANE":"１９６巷","ALLEY":" ","HOUSE_NO":"１７號","E_COORD97":168409.42999999999,"N_COORD97":2545807,"ADDRESS":"育德二路１９６巷１７號","OBJECTID":405733},"geometry":{"x":168409.4299999997,"y":2545807}},{"attributes":{"ID":405758,"DIS_CODE":0,"TOWNNAME":"北區","LI":"成德里","LIN":"27鄰","STREET":"育德二路","SECT":" ","MAREA":" ","LANE":"１９６巷","ALLEY":" ","HOUSE_NO":"１９號","E_COORD97":168413.87,"N_COORD97":2545806.8399999999,"ADDRESS":"育德二路１９６巷１９號","OBJECTID":405734},"geometry":{"x":168413.87000000011,"y":2545806.8399999999}},{"attributes":{"ID":405759,"DIS_CODE":0,"TOWNNAME":"北區","LI":"成德里","LIN":"27鄰","STREET":"育德二路","SECT":" ","MAREA":" ","LANE":"１９６巷","ALLEY":" ","HOUSE_NO":"３５號","E_COORD97":168445.14999999999,"N_COORD97":2545806.6800000002,"ADDRESS":"育德二路１９６巷３５號","OBJECTID":405735},"geometry":{"x":168445.1500000013,"y":2545806.6800000016}},{"attributes":{"ID":405760,"DIS_CODE":0,"TOWNNAME":"北區","LI":"成德里","LIN":"27鄰","STREET":"育德二路","SECT":" ","MAREA":" ","LANE":"１９６巷","ALLEY":" ","HOUSE_NO":"９號","E_COORD97":168392.44,"N_COORD97":2545807.1600000001,"ADDRESS":"育德二路１９６巷９號","OBJECTID":405736},"geometry":{"x":168392.44000000134,"y":2545807.160000002}},{"attributes":{"ID":405761,"DIS_CODE":0,"TOWNNAME":"北區","LI":"大港里","LIN":"27鄰","STREET":"中華北路","SECT":"一段","MAREA":" ","LANE":"２６３巷","ALLEY":" ","HOUSE_NO":"３３號","E_COORD97":166242,"N_COORD97":2545785.27,"ADDRESS":"中華北路一段２６３巷３３號","OBJECTID":405737},"geometry":{"x":166242.00000000093,"y":2545785.2700000014}},{"attributes":{"ID":405762,"DIS_CODE":0,"TOWNNAME":"北區","LI":"大港里","LIN":"27鄰","STREET":"中華北路","SECT":"一段","MAREA":" ","LANE":"２６３巷","ALLEY":" ","HOUSE_NO":"３２號","E_COORD97":166245.29999999999,"N_COORD97":2545787.4300000002,"ADDRESS":"中華北路一段２６３巷３２號","OBJECTID":405738},"geometry":{"x":166245.30000000075,"y":2545787.4300000034}},{"attributes":{"ID":405763,"DIS_CODE":0,"TOWNNAME":"新營區","LI":"王公里","LIN":"27鄰","STREET":"民族路","SECT":" ","MAREA":" ","LANE":"３０２巷","ALLEY":" ","HOUSE_NO":"２３之１號","E_COORD97":180463.39999999999,"N_COORD97":2579695.2599999998,"ADDRESS":"民族路３０２巷２３之１號","OBJECTID":405739},"geometry":{"x":180463.40000000037,"y":2579695.2599999998}},{"attributes":{"ID":405764,"DIS_CODE":0,"TOWNNAME":"新營區","LI":"王公里","LIN":"27鄰","STREET":"民族路","SECT":" ","MAREA":" ","LANE":"３０２巷","ALLEY":" ","HOUSE_NO":"２６號","E_COORD97":180452.95000000001,"N_COORD97":2579676.8700000001,"ADDRESS":"民族路３０２巷２６號","OBJECTID":405740},"geometry":{"x":180452.95000000019,"y":2579676.8700000029}},{"attributes":{"ID":405765,"DIS_CODE":0,"TOWNNAME":"新營區","LI":"王公里","LIN":"27鄰","STREET":"民族路","SECT":" ","MAREA":" ","LANE":"３０２巷","ALLEY":" ","HOUSE_NO":"２８號","E_COORD97":180459.45000000001,"N_COORD97":2579677.0299999998,"ADDRESS":"民族路３０２巷２８號","OBJECTID":405741},"geometry":{"x":180459.45000000019,"y":2579677.0300000012}},{"attributes":{"ID":405766,"DIS_CODE":0,"TOWNNAME":"永康區","LI":"大橋里","LIN":"18鄰","STREET":"大橋一街","SECT":" ","MAREA":" ","LANE":"１３９巷","ALLEY":" ","HOUSE_NO":"５０號","E_COORD97":170970.03,"N_COORD97":2546637.5,"ADDRESS":"大橋一街１３９巷５０號","OBJECTID":405742},"geometry":{"x":170970.03000000119,"y":2546637.5}},{"attributes":{"ID":405767,"DIS_CODE":0,"TOWNNAME":"永康區","LI":"五王里","LIN":"17鄰","STREET":"成功路","SECT":" ","MAREA":" ","LANE":"２０４巷","ALLEY":" ","HOUSE_NO":"４３號","E_COORD97":171491.60000000001,"N_COORD97":2545772.7599999998,"ADDRESS":"成功路２０４巷４３號","OBJECTID":405743},"geometry":{"x":171491.59999999963,"y":2545772.7600000016}},{"attributes":{"ID":405768,"DIS_CODE":0,"TOWNNAME":"永康區","LI":"王行里","LIN":"12鄰","STREET":"王行路","SECT":" ","MAREA":" ","LANE":"８６６巷","ALLEY":" ","HOUSE_NO":"３５號","E_COORD97":176046.51000000001,"N_COORD97":2549902.9900000002,"ADDRESS":"王行路８６６巷３５號","OBJECTID":405744},"geometry":{"x":176046.51000000164,"y":2549902.9900000002}},{"attributes":{"ID":405769,"DIS_CODE":0,"TOWNNAME":"永康區","LI":"三合里","LIN":"11鄰","STREET":"南工街","SECT":" ","MAREA":" ","LANE":"２４７巷","ALLEY":" ","HOUSE_NO":"８６號","E_COORD97":171952.54999999999,"N_COORD97":2545713.5,"ADDRESS":"南工街２４７巷８６號","OBJECTID":405745},"geometry":{"x":171952.55000000075,"y":2545713.5000000019}},{"attributes":{"ID":405770,"DIS_CODE":0,"TOWNNAME":"新營區","LI":"王公里","LIN":"27鄰","STREET":"民族路","SECT":" ","MAREA":" ","LANE":"３０２巷","ALLEY":" ","HOUSE_NO":"３０號","E_COORD97":180465.57999999999,"N_COORD97":2579677.0299999998,"ADDRESS":"民族路３０２巷３０號","OBJECTID":405746},"geometry":{"x":180465.57999999914,"y":2579677.0300000012}},{"attributes":{"ID":405771,"DIS_CODE":0,"TOWNNAME":"新營區","LI":"王公里","LIN":"27鄰","STREET":"民族路","SECT":" ","MAREA":" ","LANE":"３０２巷","ALLEY":" ","HOUSE_NO":"３２號","E_COORD97":180472,"N_COORD97":2579677.1099999999,"ADDRESS":"民族路３０２巷３２號","OBJECTID":405747},"geometry":{"x":180472.00000000093,"y":2579677.1100000013}},{"attributes":{"ID":405772,"DIS_CODE":0,"TOWNNAME":"新營區","LI":"王公里","LIN":"27鄰","STREET":"民族路","SECT":" ","MAREA":" ","LANE":"３０２巷","ALLEY":" ","HOUSE_NO":"３３號","E_COORD97":180485.39999999999,"N_COORD97":2579698.6699999999,"ADDRESS":"民族路３０２巷３３號","OBJECTID":405748},"geometry":{"x":180485.40000000037,"y":2579698.6699999999}},{"attributes":{"ID":405773,"DIS_CODE":0,"TOWNNAME":"新營區","LI":"王公里","LIN":"27鄰","STREET":"民族路","SECT":" ","MAREA":" ","LANE":"３０２巷","ALLEY":" ","HOUSE_NO":"３５號","E_COORD97":180490.39000000001,"N_COORD97":2579698.7400000002,"ADDRESS":"民族路３０２巷３５號","OBJECTID":405749},"geometry":{"x":180490.39000000153,"y":2579698.7400000002}},{"attributes":{"ID":405774,"DIS_CODE":0,"TOWNNAME":"新營區","LI":"王公里","LIN":"27鄰","STREET":"民族路","SECT":" ","MAREA":" ","LANE":"３０２巷","ALLEY":" ","HOUSE_NO":"３６號","E_COORD97":180477.95000000001,"N_COORD97":2579677.3399999999,"ADDRESS":"民族路３０２巷３６號","OBJECTID":405750},"geometry":{"x":180477.95000000019,"y":2579677.3399999999}},{"attributes":{"ID":405775,"DIS_CODE":0,"TOWNNAME":"新營區","LI":"王公里","LIN":"27鄰","STREET":"民族路","SECT":" ","MAREA":" ","LANE":"３０２巷","ALLEY":" ","HOUSE_NO":"３７號","E_COORD97":180495.17000000001,"N_COORD97":2579699.2400000002,"ADDRESS":"民族路３０２巷３７號","OBJECTID":405751},"geometry":{"x":180495.16999999993,"y":2579699.2400000002}},{"attributes":{"ID":405776,"DIS_CODE":0,"TOWNNAME":"新營區","LI":"王公里","LIN":"27鄰","STREET":"民族路","SECT":" ","MAREA":" ","LANE":"３０２巷","ALLEY":" ","HOUSE_NO":"３９號","E_COORD97":180484.22,"N_COORD97":2579677.2599999998,"ADDRESS":"民族路３０２巷３９號","OBJECTID":405752},"geometry":{"x":180484.21999999974,"y":2579677.2599999998}},{"attributes":{"ID":405777,"DIS_CODE":0,"TOWNNAME":"永康區","LI":"三合里","LIN":"4鄰","STREET":"中華二路","SECT":" ","MAREA":" ","LANE":"８８巷","ALLEY":" ","HOUSE_NO":"２７號","E_COORD97":172072.32000000001,"N_COORD97":2545540.2999999998,"ADDRESS":"中華二路８８巷２７號","OBJECTID":405753},"geometry":{"x":172072.3200000003,"y":2545540.3000000007}},{"attributes":{"ID":405778,"DIS_CODE":0,"TOWNNAME":"永康區","LI":"大灣里","LIN":"2鄰","STREET":"大安街","SECT":" ","MAREA":" ","LANE":"３６８巷","ALLEY":" ","HOUSE_NO":"６號","E_COORD97":174707.04000000001,"N_COORD97":2545698.0299999998,"ADDRESS":"大安街３６８巷６號","OBJECTID":405754},"geometry":{"x":174707.04000000004,"y":2545698.0299999975}},{"attributes":{"ID":405779,"DIS_CODE":0,"TOWNNAME":"新營區","LI":"新北里","LIN":"27鄰","STREET":"民生路","SECT":" ","MAREA":" ","LANE":"３８５巷","ALLEY":" ","HOUSE_NO":"５號","E_COORD97":178872.82999999999,"N_COORD97":2579148.8199999998,"ADDRESS":"民生路３８５巷５號","OBJECTID":405755},"geometry":{"x":178872.83000000101,"y":2579148.8200000003}},{"attributes":{"ID":405780,"DIS_CODE":0,"TOWNNAME":"新營區","LI":"民榮里","LIN":"27鄰","STREET":"復興路","SECT":" ","MAREA":" ","LANE":"４８９巷","ALLEY":" ","HOUSE_NO":"１２號","E_COORD97":178279.44,"N_COORD97":2578194.9900000002,"ADDRESS":"復興路４８９巷１２號","OBJECTID":405756},"geometry":{"x":178279.44000000041,"y":2578194.9900000002}},{"attributes":{"ID":405781,"DIS_CODE":0,"TOWNNAME":"楠西區","LI":"楠西里","LIN":"27鄰","STREET":"博愛路","SECT":" ","MAREA":" ","LANE":"１２９巷","ALLEY":" ","HOUSE_NO":"５３號","E_COORD97":197070.12,"N_COORD97":2563434.2799999998,"ADDRESS":"博愛路１２９巷５３號","OBJECTID":405757},"geometry":{"x":197070.12000000104,"y":2563434.2799999993}},{"attributes":{"ID":405782,"DIS_CODE":0,"TOWNNAME":"新化區","LI":"東榮里","LIN":"27鄰","STREET":"中興路","SECT":" ","MAREA":" ","LANE":"８２５巷","ALLEY":" ","HOUSE_NO":"４號","E_COORD97":179147.90435600001,"N_COORD97":2548174.6552200001,"ADDRESS":"中興路８２５巷４號","OBJECTID":405758},"geometry":{"x":179147.90435600001,"y":2548174.6552160028}},{"attributes":{"ID":405783,"DIS_CODE":0,"TOWNNAME":"新化區","LI":"東榮里","LIN":"27鄰","STREET":"護安街","SECT":" ","MAREA":" ","LANE":"９巷","ALLEY":" ","HOUSE_NO":"７號之２","E_COORD97":179213.59,"N_COORD97":2548194.2599999998,"ADDRESS":"護安街９巷７號之２","OBJECTID":405759},"geometry":{"x":179213.58999999985,"y":2548194.2599999998}},{"attributes":{"ID":405784,"DIS_CODE":0,"TOWNNAME":"新化區","LI":"東榮里","LIN":"27鄰","STREET":"護安街","SECT":" ","MAREA":" ","LANE":"９巷","ALLEY":" ","HOUSE_NO":"５號之３","E_COORD97":179230.67999999999,"N_COORD97":2548195.2599999998,"ADDRESS":"護安街９巷５號之３","OBJECTID":405760},"geometry":{"x":179230.68000000063,"y":2548195.2599999998}},{"attributes":{"ID":405785,"DIS_CODE":0,"TOWNNAME":"永康區","LI":"二王里","LIN":"32鄰","STREET":"中山南路","SECT":" ","MAREA":" ","LANE":"５１０巷","ALLEY":" ","HOUSE_NO":"３６號","E_COORD97":172179.70000000001,"N_COORD97":2546417.5499999998,"ADDRESS":"中山南路５１０巷３６號","OBJECTID":405761},"geometry":{"x":172179.70000000112,"y":2546417.5500000007}},{"attributes":{"ID":405786,"DIS_CODE":0,"TOWNNAME":"永康區","LI":"二王里","LIN":"13鄰","STREET":"永二街","SECT":" ","MAREA":" ","LANE":"４４９巷","ALLEY":" ","HOUSE_NO":"２號","E_COORD97":172652.17000000001,"N_COORD97":2546670.3599999999,"ADDRESS":"永二街４４９巷２號","OBJECTID":405762},"geometry":{"x":172652.17000000086,"y":2546670.3600000013}},{"attributes":{"ID":405787,"DIS_CODE":0,"TOWNNAME":"永康區","LI":"大橋里","LIN":"15鄰","STREET":"大橋一街","SECT":" ","MAREA":" ","LANE":"７３巷","ALLEY":" ","HOUSE_NO":"１２號","E_COORD97":170918.07000000001,"N_COORD97":2546465.7400000002,"ADDRESS":"大橋一街７３巷１２號","OBJECTID":405763},"geometry":{"x":170918.0700000003,"y":2546465.7400000002}},{"attributes":{"ID":405788,"DIS_CODE":0,"TOWNNAME":"歸仁區","LI":"歸仁里","LIN":"27鄰","STREET":"忠孝北路","SECT":" ","MAREA":" ","LANE":"８巷","ALLEY":" ","HOUSE_NO":"１７號","E_COORD97":178575.48999999999,"N_COORD97":2540734.3599999999,"ADDRESS":"忠孝北路８巷１７號","OBJECTID":405764},"geometry":{"x":178575.49000000022,"y":2540734.3599999994}},{"attributes":{"ID":405789,"DIS_CODE":0,"TOWNNAME":"中西區","LI":"大涼里","LIN":"27鄰","STREET":"中華西路","SECT":"二段","MAREA":" ","LANE":"２８巷","ALLEY":" ","HOUSE_NO":"２８號","E_COORD97":166739.85999999999,"N_COORD97":2543335.9500000002,"ADDRESS":"中華西路二段２８巷２８號","OBJECTID":405765},"geometry":{"x":166739.8600000022,"y":2543335.9500000011}},{"attributes":{"ID":405790,"DIS_CODE":0,"TOWNNAME":"永康區","LI":"永康里","LIN":"27鄰","STREET":"永康街","SECT":" ","MAREA":" ","LANE":"３１０巷","ALLEY":" ","HOUSE_NO":"３３號","E_COORD97":174229.26999999999,"N_COORD97":2546945.2999999998,"ADDRESS":"永康街３１０巷３３號","OBJECTID":405766},"geometry":{"x":174229.27000000048,"y":2546945.2999999989}},{"attributes":{"ID":405791,"DIS_CODE":0,"TOWNNAME":"永康區","LI":"永康里","LIN":"27鄰","STREET":"永康街","SECT":" ","MAREA":" ","LANE":"３１０巷","ALLEY":" ","HOUSE_NO":"１９號","E_COORD97":174225.62,"N_COORD97":2546973.2999999998,"ADDRESS":"永康街３１０巷１９號","OBJECTID":405767},"geometry":{"x":174225.62000000104,"y":2546973.3000000026}},{"attributes":{"ID":405792,"DIS_CODE":0,"TOWNNAME":"永康區","LI":"五王里","LIN":"26鄰","STREET":"五福街","SECT":" ","MAREA":" ","LANE":"８２巷","ALLEY":" ","HOUSE_NO":"６３號","E_COORD97":171551.67999999999,"N_COORD97":2545807.0699999998,"ADDRESS":"五福街８２巷６３號","OBJECTID":405768},"geometry":{"x":171551.68000000063,"y":2545807.0700000003}},{"attributes":{"ID":405793,"DIS_CODE":0,"TOWNNAME":"永康區","LI":"勝利里","LIN":"25鄰","STREET":"中華路","SECT":" ","MAREA":" ","LANE":"１５５巷","ALLEY":" ","HOUSE_NO":"３６號","E_COORD97":171478.67999999999,"N_COORD97":2544828.5499999998,"ADDRESS":"中華路１５５巷３６號","OBJECTID":405769},"geometry":{"x":171478.68000000063,"y":2544828.5500000026}},{"attributes":{"ID":405794,"DIS_CODE":0,"TOWNNAME":"永康區","LI":"二王里","LIN":"31鄰","STREET":"中山南路","SECT":" ","MAREA":" ","LANE":"４９０巷","ALLEY":" ","HOUSE_NO":"１３號","E_COORD97":172129.39000000001,"N_COORD97":2546381.0299999998,"ADDRESS":"中山南路４９０巷１３號","OBJECTID":405770},"geometry":{"x":172129.38999999966,"y":2546381.0300000012}},{"attributes":{"ID":405795,"DIS_CODE":0,"TOWNNAME":"永康區","LI":"勝利里","LIN":"19鄰","STREET":"中華一路","SECT":" ","MAREA":" ","LANE":"２７２巷","ALLEY":" ","HOUSE_NO":"１０號","E_COORD97":171335.76000000001,"N_COORD97":2545014.7400000002,"ADDRESS":"中華一路２７２巷１０號","OBJECTID":405771},"geometry":{"x":171335.76000000071,"y":2545014.7400000002}},{"attributes":{"ID":405796,"DIS_CODE":0,"TOWNNAME":"永康區","LI":"勝利里","LIN":"16鄰","STREET":"勝利街","SECT":" ","MAREA":" ","LANE":"１１３巷","ALLEY":" ","HOUSE_NO":"１３號","E_COORD97":171316.79000000001,"N_COORD97":2544917.75,"ADDRESS":"勝利街１１３巷１３號","OBJECTID":405772},"geometry":{"x":171316.79000000004,"y":2544917.7500000037}},{"attributes":{"ID":405797,"DIS_CODE":0,"TOWNNAME":"安南區","LI":"鳳凰里","LIN":"27鄰","STREET":"北安路","SECT":"三段","MAREA":" ","LANE":"１４５巷","ALLEY":" ","HOUSE_NO":"２號","E_COORD97":168276.67000000001,"N_COORD97":2549043.96,"ADDRESS":"北安路三段１４５巷２號","OBJECTID":405773},"geometry":{"x":168276.67000000086,"y":2549043.9600000028}},{"attributes":{"ID":405798,"DIS_CODE":0,"TOWNNAME":"安南區","LI":"鳳凰里","LIN":"27鄰","STREET":"北安路","SECT":"三段","MAREA":" ","LANE":"１４５巷","ALLEY":" ","HOUSE_NO":"３號","E_COORD97":168273.796287,"N_COORD97":2549027.60194,"ADDRESS":"北安路三段１４５巷３號","OBJECTID":405774},"geometry":{"x":168273.79628700018,"y":2549027.6019369997}},{"attributes":{"ID":405799,"DIS_CODE":0,"TOWNNAME":"安南區","LI":"鳳凰里","LIN":"27鄰","STREET":"北安路","SECT":"三段","MAREA":" ","LANE":"１４５巷","ALLEY":" ","HOUSE_NO":"４號","E_COORD97":168272.32000000001,"N_COORD97":2549044.6099999999,"ADDRESS":"北安路三段１４５巷４號","OBJECTID":405775},"geometry":{"x":168272.3200000003,"y":2549044.6100000013}},{"attributes":{"ID":405800,"DIS_CODE":0,"TOWNNAME":"安南區","LI":"鳳凰里","LIN":"27鄰","STREET":"北安路","SECT":"三段","MAREA":" ","LANE":"１４５巷","ALLEY":" ","HOUSE_NO":"７號","E_COORD97":168264.05656699999,"N_COORD97":2549029.2952700001,"ADDRESS":"北安路三段１４５巷７號","OBJECTID":405776},"geometry":{"x":168264.05656700209,"y":2549029.2952690031}},{"attributes":{"ID":405801,"DIS_CODE":0,"TOWNNAME":"仁德區","LI":"成功里","LIN":"27鄰","STREET":"成功一街","SECT":" ","MAREA":" ","LANE":"１８巷","ALLEY":" ","HOUSE_NO":"５號","E_COORD97":170517.44,"N_COORD97":2540150.7599999998,"ADDRESS":"成功一街１８巷５號","OBJECTID":405777},"geometry":{"x":170517.44000000041,"y":2540150.7600000016}},{"attributes":{"ID":405802,"DIS_CODE":0,"TOWNNAME":"仁德區","LI":"成功里","LIN":"27鄰","STREET":"成功一街","SECT":" ","MAREA":" ","LANE":"２８巷","ALLEY":" ","HOUSE_NO":"５號","E_COORD97":170515.07999999999,"N_COORD97":2540100.52,"ADDRESS":"成功一街２８巷５號","OBJECTID":405778},"geometry":{"x":170515.08000000101,"y":2540100.5199999996}},{"attributes":{"ID":405803,"DIS_CODE":0,"TOWNNAME":"仁德區","LI":"太子里","LIN":"27鄰","STREET":"大吉路","SECT":" ","MAREA":" ","LANE":"２０２巷","ALLEY":" ","HOUSE_NO":"１６號","E_COORD97":173340.56,"N_COORD97":2543397.2400000002,"ADDRESS":"大吉路２０２巷１６號","OBJECTID":405779},"geometry":{"x":173340.56000000052,"y":2543397.2400000021}},{"attributes":{"ID":405804,"DIS_CODE":0,"TOWNNAME":"仁德區","LI":"上崙里","LIN":"27鄰","STREET":"上崙街","SECT":" ","MAREA":" ","LANE":"４０１巷","ALLEY":" ","HOUSE_NO":"４９號","E_COORD97":173137.14999999999,"N_COORD97":2537544,"ADDRESS":"上崙街４０１巷４９號","OBJECTID":405780},"geometry":{"x":173137.15000000224,"y":2537544}},{"attributes":{"ID":405805,"DIS_CODE":0,"TOWNNAME":"永康區","LI":"勝利里","LIN":"22鄰","STREET":"中華路","SECT":" ","MAREA":" ","LANE":"２１７巷","ALLEY":" ","HOUSE_NO":"２號","E_COORD97":171586.57999999999,"N_COORD97":2545059.75,"ADDRESS":"中華路２１７巷２號","OBJECTID":405781},"geometry":{"x":171586.58000000101,"y":2545059.7499999981}},{"attributes":{"ID":405806,"DIS_CODE":0,"TOWNNAME":"仁德區","LI":"上崙里","LIN":"27鄰","STREET":"上崙街","SECT":" ","MAREA":" ","LANE":"４０１巷","ALLEY":" ","HOUSE_NO":"７號","E_COORD97":173084.25,"N_COORD97":2537599.2400000002,"ADDRESS":"上崙街４０１巷７號","OBJECTID":405782},"geometry":{"x":173084.25000000093,"y":2537599.2400000021}},{"attributes":{"ID":405807,"DIS_CODE":0,"TOWNNAME":"仁德區","LI":"仁德里","LIN":"27鄰","STREET":"淨修街","SECT":" ","MAREA":" ","LANE":"１７５巷","ALLEY":" ","HOUSE_NO":"３８號","E_COORD97":171993.98999999999,"N_COORD97":2541260.6899999999,"ADDRESS":"淨修街１７５巷３８號","OBJECTID":405783},"geometry":{"x":171993.99000000209,"y":2541260.6900000013}},{"attributes":{"ID":405808,"DIS_CODE":0,"TOWNNAME":"仁德區","LI":"成功里","LIN":"27鄰","STREET":"成功一街","SECT":" ","MAREA":" ","LANE":"２８巷","ALLEY":" ","HOUSE_NO":"２號","E_COORD97":170527.29000000001,"N_COORD97":2540109.77,"ADDRESS":"成功一街２８巷２號","OBJECTID":405784},"geometry":{"x":170527.29000000097,"y":2540109.7700000014}},{"attributes":{"ID":405809,"DIS_CODE":0,"TOWNNAME":"仁德區","LI":"後壁里","LIN":"27鄰","STREET":"中正路","SECT":"二段","MAREA":" ","LANE":"３０１巷","ALLEY":" ","HOUSE_NO":"２７號","E_COORD97":173157.98000000001,"N_COORD97":2539118.02,"ADDRESS":"中正路二段３０１巷２７號","OBJECTID":405785},"geometry":{"x":173157.98000000045,"y":2539118.0200000033}},{"attributes":{"ID":405810,"DIS_CODE":0,"TOWNNAME":"永康區","LI":"五王里","LIN":"27鄰","STREET":"五福街","SECT":" ","MAREA":" ","LANE":"１１０巷","ALLEY":" ","HOUSE_NO":"６８號","E_COORD97":171554.51000000001,"N_COORD97":2545888.75,"ADDRESS":"五福街１１０巷６８號","OBJECTID":405786},"geometry":{"x":171554.51000000071,"y":2545888.7500000019}},{"attributes":{"ID":405811,"DIS_CODE":0,"TOWNNAME":"仁德區","LI":"上崙里","LIN":"27鄰","STREET":"上崙街","SECT":" ","MAREA":" ","LANE":"４０１巷","ALLEY":" ","HOUSE_NO":"２９號","E_COORD97":173113.89000000001,"N_COORD97":2537590.2400000002,"ADDRESS":"上崙街４０１巷２９號","OBJECTID":405787},"geometry":{"x":173113.88999999966,"y":2537590.2400000002}},{"attributes":{"ID":405812,"DIS_CODE":0,"TOWNNAME":"仁德區","LI":"上崙里","LIN":"27鄰","STREET":"上崙街","SECT":" ","MAREA":" ","LANE":"３７７巷","ALLEY":" ","HOUSE_NO":"１號","E_COORD97":173140.51000000001,"N_COORD97":2537615.25,"ADDRESS":"上崙街３７７巷１號","OBJECTID":405788},"geometry":{"x":173140.50999999978,"y":2537615.2500000019}},{"attributes":{"ID":405813,"DIS_CODE":0,"TOWNNAME":"仁德區","LI":"上崙里","LIN":"27鄰","STREET":"上崙街","SECT":" ","MAREA":" ","LANE":"４０１巷","ALLEY":" ","HOUSE_NO":"３１號","E_COORD97":173112.20000000001,"N_COORD97":2537596.9900000002,"ADDRESS":"上崙街４０１巷３１號","OBJECTID":405789},"geometry":{"x":173112.20000000019,"y":2537596.9900000021}},{"attributes":{"ID":405814,"DIS_CODE":0,"TOWNNAME":"仁德區","LI":"上崙里","LIN":"27鄰","STREET":"上崙街","SECT":" ","MAREA":" ","LANE":"４０１巷","ALLEY":" ","HOUSE_NO":"９號","E_COORD97":173082.98999999999,"N_COORD97":2537592.2400000002,"ADDRESS":"上崙街４０１巷９號","OBJECTID":405790},"geometry":{"x":173082.99000000115,"y":2537592.2400000021}},{"attributes":{"ID":405815,"DIS_CODE":0,"TOWNNAME":"仁德區","LI":"上崙里","LIN":"27鄰","STREET":"上崙街","SECT":" ","MAREA":" ","LANE":"４０１巷","ALLEY":" ","HOUSE_NO":"５號","E_COORD97":173083.64999999999,"N_COORD97":2537603.5,"ADDRESS":"上崙街４０１巷５號","OBJECTID":405791},"geometry":{"x":173083.6500000013,"y":2537603.5000000019}},{"attributes":{"ID":405816,"DIS_CODE":0,"TOWNNAME":"仁德區","LI":"上崙里","LIN":"27鄰","STREET":"上崙街","SECT":" ","MAREA":" ","LANE":"４０１巷","ALLEY":" ","HOUSE_NO":"２１號","E_COORD97":173096.23000000001,"N_COORD97":2537560.2400000002,"ADDRESS":"上崙街４０１巷２１號","OBJECTID":405792},"geometry":{"x":173096.23000000138,"y":2537560.2400000002}},{"attributes":{"ID":405817,"DIS_CODE":0,"TOWNNAME":"仁德區","LI":"上崙里","LIN":"27鄰","STREET":"上崙街","SECT":" ","MAREA":" ","LANE":"３７７巷","ALLEY":" ","HOUSE_NO":"５號","E_COORD97":173141.89999999999,"N_COORD97":2537604.75,"ADDRESS":"上崙街３７７巷５號","OBJECTID":405793},"geometry":{"x":173141.90000000037,"y":2537604.7500000037}},{"attributes":{"ID":405818,"DIS_CODE":0,"TOWNNAME":"仁德區","LI":"上崙里","LIN":"27鄰","STREET":"上崙街","SECT":" ","MAREA":" ","LANE":"４０１巷","ALLEY":" ","HOUSE_NO":"１７號","E_COORD97":173086.01999999999,"N_COORD97":2537571.9900000002,"ADDRESS":"上崙街４０１巷１７號","OBJECTID":405794},"geometry":{"x":173086.01999999955,"y":2537571.9900000002}},{"attributes":{"ID":405819,"DIS_CODE":0,"TOWNNAME":"仁德區","LI":"上崙里","LIN":"27鄰","STREET":"上崙街","SECT":" ","MAREA":" ","LANE":"４０１巷","ALLEY":" ","HOUSE_NO":"１９號","E_COORD97":173087,"N_COORD97":2537567.2400000002,"ADDRESS":"上崙街４０１巷１９號","OBJECTID":405795},"geometry":{"x":173087.00000000186,"y":2537567.2400000002}},{"attributes":{"ID":405820,"DIS_CODE":0,"TOWNNAME":"仁德區","LI":"上崙里","LIN":"27鄰","STREET":"上崙街","SECT":" ","MAREA":" ","LANE":"４０１巷","ALLEY":" ","HOUSE_NO":"３７號","E_COORD97":173130.38,"N_COORD97":2537580.9900000002,"ADDRESS":"上崙街４０１巷３７號","OBJECTID":405796},"geometry":{"x":173130.38000000082,"y":2537580.9900000021}},{"attributes":{"ID":405821,"DIS_CODE":0,"TOWNNAME":"東區","LI":"大同里","LIN":"22鄰","STREET":"大同路","SECT":"一段","MAREA":" ","LANE":"２１５巷","ALLEY":" ","HOUSE_NO":"１８號","E_COORD97":169181.84,"N_COORD97":2542699.96,"ADDRESS":"大同路一段２１５巷１８號","OBJECTID":405797},"geometry":{"x":169181.83999999985,"y":2542699.9600000046}},{"attributes":{"ID":405822,"DIS_CODE":0,"TOWNNAME":"歸仁區","LI":"大廟里","LIN":"22鄰","STREET":"大廟一街","SECT":" ","MAREA":" ","LANE":"９０巷","ALLEY":" ","HOUSE_NO":"１０號","E_COORD97":175739.29999999999,"N_COORD97":2543952.4399999999,"ADDRESS":"大廟一街９０巷１０號","OBJECTID":405798},"geometry":{"x":175739.29999999888,"y":2543952.4399999995}},{"attributes":{"ID":405823,"DIS_CODE":0,"TOWNNAME":"佳里區","LI":"建南里","LIN":"22鄰","STREET":"成功路","SECT":" ","MAREA":" ","LANE":"８５巷","ALLEY":" ","HOUSE_NO":"１０號","E_COORD97":165501.78,"N_COORD97":2561441.8100000001,"ADDRESS":"成功路８５巷１０號","OBJECTID":405799},"geometry":{"x":165501.78000000119,"y":2561441.8100000005}},{"attributes":{"ID":405824,"DIS_CODE":0,"TOWNNAME":"新市區","LI":"新和里","LIN":"27鄰","STREET":"忠孝街","SECT":" ","MAREA":" ","LANE":"１８０巷","ALLEY":" ","HOUSE_NO":"６號","E_COORD97":177762.26000000001,"N_COORD97":2552766.75,"ADDRESS":"忠孝街１８０巷６號","OBJECTID":405800},"geometry":{"x":177762.26000000071,"y":2552766.7500000019}}]}