{"displayFieldName":"TOWNNAME","fieldAliases":{"ID":"ID","DIS_CODE":"DIS_CODE","TOWNNAME":"TOWNNAME","LI":"LI","LIN":"LIN","STREET":"STREET","SECT":"SECT","MAREA":"MAREA","LANE":"LANE","ALLEY":"ALLEY","HOUSE_NO":"HOUSE_NO","E_COORD97":"E_COORD97","N_COORD97":"N_COORD97","ADDRESS":"ADDRESS","OBJECTID":"OBJECTID"},"geometryType":"esriGeometryPoint","spatialReference":{"wkid":102443,"latestWkid":3826},"fields":[{"name":"ID","type":"esriFieldTypeDouble","alias":"ID"},{"name":"DIS_CODE","type":"esriFieldTypeInteger","alias":"DIS_CODE"},{"name":"TOWNNAME","type":"esriFieldTypeString","alias":"TOWNNAME","length":8},{"name":"LI","type":"esriFieldTypeString","alias":"LI","length":8},{"name":"LIN","type":"esriFieldTypeString","alias":"LIN","length":12},{"name":"STREET","type":"esriFieldTypeString","alias":"STREET","length":20},{"name":"SECT","type":"esriFieldTypeString","alias":"SECT","length":8},{"name":"MAREA","type":"esriFieldTypeString","alias":"MAREA","length":12},{"name":"LANE","type":"esriFieldTypeString","alias":"LANE","length":10},{"name":"ALLEY","type":"esriFieldTypeString","alias":"ALLEY","length":10},{"name":"HOUSE_NO","type":"esriFieldTypeString","alias":"HOUSE_NO","length":20},{"name":"E_COORD97","type":"esriFieldTypeDouble","alias":"E_COORD97"},{"name":"N_COORD97","type":"esriFieldTypeDouble","alias":"N_COORD97"},{"name":"ADDRESS","type":"esriFieldTypeString","alias":"ADDRESS","length":50},{"name":"OBJECTID","type":"esriFieldTypeOID","alias":"OBJECTID"}],"features":[{"attributes":{"ID":622228,"DIS_CODE":0,"TOWNNAME":"東區","LI":"崇德里","LIN":"21鄰","STREET":"崇德路","SECT":" ","MAREA":" ","LANE":" ","ALLEY":" ","HOUSE_NO":"４４８號","E_COORD97":170664.23999999999,"N_COORD97":2541692.4500000002,"ADDRESS":"崇德路４４８號","OBJECTID":622201},"geometry":{"x":170664.24000000022,"y":2541692.4500000011}},{"attributes":{"ID":622229,"DIS_CODE":0,"TOWNNAME":"東區","LI":"崇德里","LIN":"21鄰","STREET":"崇德路","SECT":" ","MAREA":" ","LANE":" ","ALLEY":" ","HOUSE_NO":"４７０號","E_COORD97":170741.60000000001,"N_COORD97":2541638.0499999998,"ADDRESS":"崇德路４７０號","OBJECTID":622202},"geometry":{"x":170741.60000000056,"y":2541638.0500000045}},{"attributes":{"ID":622230,"DIS_CODE":0,"TOWNNAME":"東區","LI":"崇德里","LIN":"21鄰","STREET":"崇德路","SECT":" ","MAREA":" ","LANE":" ","ALLEY":" ","HOUSE_NO":"４７２號","E_COORD97":170745.78,"N_COORD97":2541635.73,"ADDRESS":"崇德路４７２號","OBJECTID":622203},"geometry":{"x":170745.78000000026,"y":2541635.7300000004}},{"attributes":{"ID":622231,"DIS_CODE":0,"TOWNNAME":"東區","LI":"崇德里","LIN":"21鄰","STREET":"崇德路","SECT":" ","MAREA":" ","LANE":" ","ALLEY":" ","HOUSE_NO":"４７４號","E_COORD97":170748.10000000001,"N_COORD97":2541632.48,"ADDRESS":"崇德路４７４號","OBJECTID":622204},"geometry":{"x":170748.0999999987,"y":2541632.4800000023}},{"attributes":{"ID":622232,"DIS_CODE":0,"TOWNNAME":"東區","LI":"崇德里","LIN":"21鄰","STREET":"崇德路","SECT":" ","MAREA":" ","LANE":" ","ALLEY":" ","HOUSE_NO":"４７６號","E_COORD97":170750.42999999999,"N_COORD97":2541628.2999999998,"ADDRESS":"崇德路４７６號","OBJECTID":622205},"geometry":{"x":170750.4299999997,"y":2541628.3000000007}},{"attributes":{"ID":622233,"DIS_CODE":0,"TOWNNAME":"東區","LI":"崇德里","LIN":"21鄰","STREET":"崇德路","SECT":" ","MAREA":" ","LANE":" ","ALLEY":" ","HOUSE_NO":"５１４號","E_COORD97":170774.29999999999,"N_COORD97":2541547.5600000001,"ADDRESS":"崇德路５１４號","OBJECTID":622206},"geometry":{"x":170774.30000000168,"y":2541547.5600000024}},{"attributes":{"ID":622234,"DIS_CODE":0,"TOWNNAME":"東區","LI":"崇德里","LIN":"21鄰","STREET":"崇德路","SECT":" ","MAREA":" ","LANE":" ","ALLEY":" ","HOUSE_NO":"５１６號","E_COORD97":170774.29999999999,"N_COORD97":2541543.5699999998,"ADDRESS":"崇德路５１６號","OBJECTID":622207},"geometry":{"x":170774.30000000168,"y":2541543.5700000022}},{"attributes":{"ID":622235,"DIS_CODE":0,"TOWNNAME":"東區","LI":"崇德里","LIN":"21鄰","STREET":"崇德路","SECT":" ","MAREA":" ","LANE":" ","ALLEY":" ","HOUSE_NO":"５１８號","E_COORD97":170774.29999999999,"N_COORD97":2541539.1800000002,"ADDRESS":"崇德路５１８號","OBJECTID":622208},"geometry":{"x":170774.30000000168,"y":2541539.1800000016}},{"attributes":{"ID":622236,"DIS_CODE":0,"TOWNNAME":"東區","LI":"崇德里","LIN":"20鄰","STREET":"崇明十四街","SECT":" ","MAREA":" ","LANE":" ","ALLEY":" ","HOUSE_NO":"５５號","E_COORD97":170613.69,"N_COORD97":2541619.3599999999,"ADDRESS":"崇明十四街５５號","OBJECTID":622209},"geometry":{"x":170613.69000000041,"y":2541619.3599999994}},{"attributes":{"ID":622237,"DIS_CODE":0,"TOWNNAME":"東區","LI":"裕農里","LIN":"24鄰","STREET":"裕農路","SECT":" ","MAREA":" ","LANE":" ","ALLEY":" ","HOUSE_NO":"３８１號","E_COORD97":171116.41,"N_COORD97":2543119.77,"ADDRESS":"裕農路３８１號","OBJECTID":622210},"geometry":{"x":171116.41000000108,"y":2543119.7699999996}},{"attributes":{"ID":622238,"DIS_CODE":0,"TOWNNAME":"東區","LI":"裕農里","LIN":"24鄰","STREET":"裕農路","SECT":" ","MAREA":" ","LANE":" ","ALLEY":" ","HOUSE_NO":"３８３號","E_COORD97":171124.32999999999,"N_COORD97":2543123.9300000002,"ADDRESS":"裕農路３８３號","OBJECTID":622211},"geometry":{"x":171124.33000000007,"y":2543123.9300000016}},{"attributes":{"ID":622239,"DIS_CODE":0,"TOWNNAME":"東區","LI":"裕農里","LIN":"24鄰","STREET":"裕農路","SECT":" ","MAREA":" ","LANE":" ","ALLEY":" ","HOUSE_NO":"３８５號","E_COORD97":171132.66,"N_COORD97":2543127.6699999999,"ADDRESS":"裕農路３８５號","OBJECTID":622212},"geometry":{"x":171132.66000000015,"y":2543127.6699999999}},{"attributes":{"ID":622240,"DIS_CODE":0,"TOWNNAME":"東區","LI":"裕農里","LIN":"24鄰","STREET":"裕農路","SECT":" ","MAREA":" ","LANE":" ","ALLEY":" ","HOUSE_NO":"３８７號","E_COORD97":171137.23999999999,"N_COORD97":2543131,"ADDRESS":"裕農路３８７號","OBJECTID":622213},"geometry":{"x":171137.24000000022,"y":2543131}},{"attributes":{"ID":622241,"DIS_CODE":0,"TOWNNAME":"東區","LI":"忠孝里","LIN":"32鄰","STREET":"崇明六街","SECT":" ","MAREA":" ","LANE":" ","ALLEY":" ","HOUSE_NO":"２號","E_COORD97":169593.06,"N_COORD97":2542167.6800000002,"ADDRESS":"崇明六街２號","OBJECTID":622214},"geometry":{"x":169593.06000000052,"y":2542167.6799999997}},{"attributes":{"ID":622242,"DIS_CODE":0,"TOWNNAME":"東區","LI":"圍下里","LIN":"7鄰","STREET":"前鋒路","SECT":" ","MAREA":" ","LANE":" ","ALLEY":" ","HOUSE_NO":"６６號","E_COORD97":169313.70000000001,"N_COORD97":2543603.8100000001,"ADDRESS":"前鋒路６６號","OBJECTID":622215},"geometry":{"x":169313.70000000019,"y":2543603.8100000024}},{"attributes":{"ID":622243,"DIS_CODE":0,"TOWNNAME":"麻豆區","LI":"新建里","LIN":"4鄰","STREET":"中山路","SECT":" ","MAREA":" ","LANE":" ","ALLEY":" ","HOUSE_NO":"１２６號之１","E_COORD97":172620.16557700001,"N_COORD97":2564838.4492500001,"ADDRESS":"中山路１２６號之１","OBJECTID":622216},"geometry":{"x":172620.16557700094,"y":2564838.4492530003}},{"attributes":{"ID":622244,"DIS_CODE":0,"TOWNNAME":"麻豆區","LI":"新建里","LIN":"4鄰","STREET":"中山路","SECT":" ","MAREA":" ","LANE":" ","ALLEY":" ","HOUSE_NO":"１２６號之２","E_COORD97":172615.714473,"N_COORD97":2564839.5075900001,"ADDRESS":"中山路１２６號之２","OBJECTID":622217},"geometry":{"x":172615.71447300073,"y":2564839.5075860042}},{"attributes":{"ID":622245,"DIS_CODE":0,"TOWNNAME":"新市區","LI":"新和里","LIN":"4鄰","STREET":"中正路","SECT":" ","MAREA":" ","LANE":" ","ALLEY":" ","HOUSE_NO":"４２號","E_COORD97":177474.20999999999,"N_COORD97":2552335.75,"ADDRESS":"中正路４２號","OBJECTID":622218},"geometry":{"x":177474.20999999996,"y":2552335.7500000037}},{"attributes":{"ID":622246,"DIS_CODE":0,"TOWNNAME":"麻豆區","LI":"新建里","LIN":"4鄰","STREET":"中山路","SECT":" ","MAREA":" ","LANE":" ","ALLEY":" ","HOUSE_NO":"１２６號之３","E_COORD97":172612.323156,"N_COORD97":2564840.8834199999,"ADDRESS":"中山路１２６號之３","OBJECTID":622219},"geometry":{"x":172612.32315600011,"y":2564840.8834179994}},{"attributes":{"ID":622247,"DIS_CODE":0,"TOWNNAME":"麻豆區","LI":"新建里","LIN":"4鄰","STREET":"中山路","SECT":" ","MAREA":" ","LANE":" ","ALLEY":" ","HOUSE_NO":"１２６號之５","E_COORD97":172606.25704999999,"N_COORD97":2564847.41915,"ADDRESS":"中山路１２６號之５","OBJECTID":622220},"geometry":{"x":172606.25705000199,"y":2564847.4191510025}},{"attributes":{"ID":622248,"DIS_CODE":0,"TOWNNAME":"麻豆區","LI":"新建里","LIN":"4鄰","STREET":"中山路","SECT":" ","MAREA":" ","LANE":" ","ALLEY":" ","HOUSE_NO":"１２６號","E_COORD97":172626.73625300001,"N_COORD97":2564836.96759,"ADDRESS":"中山路１２６號","OBJECTID":622221},"geometry":{"x":172626.73625300173,"y":2564836.9675869998}},{"attributes":{"ID":622249,"DIS_CODE":0,"TOWNNAME":"麻豆區","LI":"新建里","LIN":"4鄰","STREET":"中山路","SECT":" ","MAREA":" ","LANE":" ","ALLEY":" ","HOUSE_NO":"１２８號之１","E_COORD97":172563.62,"N_COORD97":2564865.8799999999,"ADDRESS":"中山路１２８號之１","OBJECTID":622222},"geometry":{"x":172563.62000000011,"y":2564865.8800000008}},{"attributes":{"ID":622250,"DIS_CODE":0,"TOWNNAME":"麻豆區","LI":"新建里","LIN":"4鄰","STREET":"中山路","SECT":" ","MAREA":" ","LANE":" ","ALLEY":" ","HOUSE_NO":"１２８號之２","E_COORD97":172592.33843599999,"N_COORD97":2564852.1790800001,"ADDRESS":"中山路１２８號之２","OBJECTID":622223},"geometry":{"x":172592.33843600098,"y":2564852.1790770013}},{"attributes":{"ID":622251,"DIS_CODE":0,"TOWNNAME":"麻豆區","LI":"新建里","LIN":"4鄰","STREET":"中山路","SECT":" ","MAREA":" ","LANE":" ","ALLEY":" ","HOUSE_NO":"１２８號之３","E_COORD97":172599.01256800001,"N_COORD97":2564849.1099100001,"ADDRESS":"中山路１２８號之３","OBJECTID":622224},"geometry":{"x":172599.01256799977,"y":2564849.1099120025}},{"attributes":{"ID":622252,"DIS_CODE":0,"TOWNNAME":"麻豆區","LI":"新建里","LIN":"4鄰","STREET":"中山路","SECT":" ","MAREA":" ","LANE":" ","ALLEY":" ","HOUSE_NO":"１２８號","E_COORD97":172567.76068199999,"N_COORD97":2564864.0323999999,"ADDRESS":"中山路１２８號","OBJECTID":622225},"geometry":{"x":172567.76068199985,"y":2564864.0324040018}},{"attributes":{"ID":622253,"DIS_CODE":0,"TOWNNAME":"麻豆區","LI":"新建里","LIN":"4鄰","STREET":"中山路","SECT":" ","MAREA":" ","LANE":" ","ALLEY":" ","HOUSE_NO":"１３０號之１","E_COORD97":172542.81,"N_COORD97":2564876.5499999998,"ADDRESS":"中山路１３０號之１","OBJECTID":622226},"geometry":{"x":172542.81000000052,"y":2564876.5500000026}},{"attributes":{"ID":622254,"DIS_CODE":0,"TOWNNAME":"麻豆區","LI":"新建里","LIN":"4鄰","STREET":"中山路","SECT":" ","MAREA":" ","LANE":" ","ALLEY":" ","HOUSE_NO":"１３０號之２","E_COORD97":172538.79999999999,"N_COORD97":2564878.96,"ADDRESS":"中山路１３０號之２","OBJECTID":622227},"geometry":{"x":172538.79999999888,"y":2564878.9600000009}},{"attributes":{"ID":622255,"DIS_CODE":0,"TOWNNAME":"麻豆區","LI":"新建里","LIN":"4鄰","STREET":"中山路","SECT":" ","MAREA":" ","LANE":" ","ALLEY":" ","HOUSE_NO":"１３０號","E_COORD97":172551.38,"N_COORD97":2564875.3700000001,"ADDRESS":"中山路１３０號","OBJECTID":622228},"geometry":{"x":172551.37999999989,"y":2564875.370000001}},{"attributes":{"ID":622256,"DIS_CODE":0,"TOWNNAME":"麻豆區","LI":"新建里","LIN":"4鄰","STREET":"中山路","SECT":" ","MAREA":" ","LANE":" ","ALLEY":" ","HOUSE_NO":"１３２號之１","E_COORD97":172504.59,"N_COORD97":2564895.1299999999,"ADDRESS":"中山路１３２號之１","OBJECTID":622229},"geometry":{"x":172504.58999999985,"y":2564895.129999999}},{"attributes":{"ID":622257,"DIS_CODE":0,"TOWNNAME":"麻豆區","LI":"新建里","LIN":"4鄰","STREET":"中山路","SECT":" ","MAREA":" ","LANE":" ","ALLEY":" ","HOUSE_NO":"１３２號之２","E_COORD97":172501.41,"N_COORD97":2564896.46,"ADDRESS":"中山路１３２號之２","OBJECTID":622230},"geometry":{"x":172501.41000000108,"y":2564896.459999999}},{"attributes":{"ID":622258,"DIS_CODE":0,"TOWNNAME":"麻豆區","LI":"新建里","LIN":"4鄰","STREET":"中山路","SECT":" ","MAREA":" ","LANE":" ","ALLEY":" ","HOUSE_NO":"１３２號之３","E_COORD97":172496.60999999999,"N_COORD97":2564898.9399999999,"ADDRESS":"中山路１３２號之３","OBJECTID":622231},"geometry":{"x":172496.6100000022,"y":2564898.9400000013}},{"attributes":{"ID":622259,"DIS_CODE":0,"TOWNNAME":"麻豆區","LI":"新建里","LIN":"4鄰","STREET":"中山路","SECT":" ","MAREA":" ","LANE":" ","ALLEY":" ","HOUSE_NO":"１３２號（房屋已拆除","E_COORD97":172508.06,"N_COORD97":2564893.8599999999,"ADDRESS":"中山路１３２號（房屋已拆除）","OBJECTID":622232},"geometry":{"x":172508.06000000145,"y":2564893.8600000013}},{"attributes":{"ID":622260,"DIS_CODE":0,"TOWNNAME":"麻豆區","LI":"新建里","LIN":"1鄰","STREET":"中山路","SECT":" ","MAREA":" ","LANE":" ","ALLEY":" ","HOUSE_NO":"１４９號","E_COORD97":172675.98000000001,"N_COORD97":2564811.1600000001,"ADDRESS":"中山路１４９號","OBJECTID":622233},"geometry":{"x":172675.98000000138,"y":2564811.160000002}},{"attributes":{"ID":622261,"DIS_CODE":0,"TOWNNAME":"麻豆區","LI":"新建里","LIN":"1鄰","STREET":"中山路","SECT":" ","MAREA":" ","LANE":" ","ALLEY":" ","HOUSE_NO":"１５１號之２","E_COORD97":172658.54999999999,"N_COORD97":2564811.2200000002,"ADDRESS":"中山路１５１號之２","OBJECTID":622234},"geometry":{"x":172658.54999999981,"y":2564811.2200000025}},{"attributes":{"ID":622262,"DIS_CODE":0,"TOWNNAME":"麻豆區","LI":"新建里","LIN":"1鄰","STREET":"中山路","SECT":" ","MAREA":" ","LANE":" ","ALLEY":" ","HOUSE_NO":"１５１號","E_COORD97":172670.29999999999,"N_COORD97":2564810.8999999999,"ADDRESS":"中山路１５１號","OBJECTID":622235},"geometry":{"x":172670.29999999981,"y":2564810.9000000004}},{"attributes":{"ID":622263,"DIS_CODE":0,"TOWNNAME":"麻豆區","LI":"新建里","LIN":"1鄰","STREET":"中山路","SECT":" ","MAREA":" ","LANE":" ","ALLEY":" ","HOUSE_NO":"１５３號之１","E_COORD97":172653.12,"N_COORD97":2564810.8399999999,"ADDRESS":"中山路１５３號之１","OBJECTID":622236},"geometry":{"x":172653.12000000104,"y":2564810.8399999999}},{"attributes":{"ID":622264,"DIS_CODE":0,"TOWNNAME":"麻豆區","LI":"新建里","LIN":"1鄰","STREET":"中山路","SECT":" ","MAREA":" ","LANE":" ","ALLEY":" ","HOUSE_NO":"１５３號之３","E_COORD97":172641.32000000001,"N_COORD97":2564811.98,"ADDRESS":"中山路１５３號之３","OBJECTID":622237},"geometry":{"x":172641.32000000123,"y":2564811.9800000023}},{"attributes":{"ID":622265,"DIS_CODE":0,"TOWNNAME":"麻豆區","LI":"新建里","LIN":"6鄰","STREET":"中山路","SECT":" ","MAREA":" ","LANE":" ","ALLEY":" ","HOUSE_NO":"１６７號之１０","E_COORD97":172484.82000000001,"N_COORD97":2564871.9700000002,"ADDRESS":"中山路１６７號之１０","OBJECTID":622238},"geometry":{"x":172484.8200000003,"y":2564871.9700000007}},{"attributes":{"ID":622266,"DIS_CODE":0,"TOWNNAME":"麻豆區","LI":"新建里","LIN":"6鄰","STREET":"中山路","SECT":" ","MAREA":" ","LANE":" ","ALLEY":" ","HOUSE_NO":"１６７號之１１","E_COORD97":172480.98999999999,"N_COORD97":2564874.1400000001,"ADDRESS":"中山路１６７號之１１","OBJECTID":622239},"geometry":{"x":172480.99000000115,"y":2564874.1400000006}},{"attributes":{"ID":622267,"DIS_CODE":0,"TOWNNAME":"麻豆區","LI":"新建里","LIN":"6鄰","STREET":"中山路","SECT":" ","MAREA":" ","LANE":" ","ALLEY":" ","HOUSE_NO":"１６７號之１２","E_COORD97":172477.17000000001,"N_COORD97":2564876.3199999998,"ADDRESS":"中山路１６７號之１２","OBJECTID":622240},"geometry":{"x":172477.17000000179,"y":2564876.3200000003}},{"attributes":{"ID":622268,"DIS_CODE":0,"TOWNNAME":"麻豆區","LI":"新建里","LIN":"6鄰","STREET":"中山路","SECT":" ","MAREA":" ","LANE":" ","ALLEY":" ","HOUSE_NO":"１６７號之１３","E_COORD97":172471.42000000001,"N_COORD97":2564878.5,"ADDRESS":"中山路１６７號之１３","OBJECTID":622241},"geometry":{"x":172471.41999999993,"y":2564878.5000000037}},{"attributes":{"ID":622269,"DIS_CODE":0,"TOWNNAME":"麻豆區","LI":"新建里","LIN":"6鄰","STREET":"中山路","SECT":" ","MAREA":" ","LANE":" ","ALLEY":" ","HOUSE_NO":"１６７號之１４","E_COORD97":172462.42000000001,"N_COORD97":2564881.75,"ADDRESS":"中山路１６７號之１４","OBJECTID":622242},"geometry":{"x":172462.42000000086,"y":2564881.7500000019}},{"attributes":{"ID":622270,"DIS_CODE":0,"TOWNNAME":"麻豆區","LI":"新建里","LIN":"6鄰","STREET":"中山路","SECT":" ","MAREA":" ","LANE":" ","ALLEY":" ","HOUSE_NO":"１６７號之１","E_COORD97":172518.35000000001,"N_COORD97":2564855.9300000002,"ADDRESS":"中山路１６７號之１","OBJECTID":622243},"geometry":{"x":172518.35000000056,"y":2564855.9300000016}},{"attributes":{"ID":622271,"DIS_CODE":0,"TOWNNAME":"麻豆區","LI":"中興里","LIN":"4鄰","STREET":"中興街","SECT":" ","MAREA":" ","LANE":" ","ALLEY":" ","HOUSE_NO":"１號","E_COORD97":172943.07000000001,"N_COORD97":2564611.5899999999,"ADDRESS":"中興街１號","OBJECTID":622244},"geometry":{"x":172943.07000000123,"y":2564611.5899999999}},{"attributes":{"ID":622272,"DIS_CODE":0,"TOWNNAME":"麻豆區","LI":"中興里","LIN":"18鄰","STREET":"中興街","SECT":" ","MAREA":" ","LANE":" ","ALLEY":" ","HOUSE_NO":"１９７號","E_COORD97":172606.60000000001,"N_COORD97":2564538.9700000002,"ADDRESS":"中興街１９７號","OBJECTID":622245},"geometry":{"x":172606.60000000056,"y":2564538.9700000007}},{"attributes":{"ID":622273,"DIS_CODE":0,"TOWNNAME":"麻豆區","LI":"中興里","LIN":"14鄰","STREET":"中興街","SECT":" ","MAREA":" ","LANE":" ","ALLEY":" ","HOUSE_NO":"１９２號","E_COORD97":172681.48000000001,"N_COORD97":2564579.0299999998,"ADDRESS":"中興街１９２號","OBJECTID":622246},"geometry":{"x":172681.48000000138,"y":2564579.0299999975}},{"attributes":{"ID":622274,"DIS_CODE":0,"TOWNNAME":"麻豆區","LI":"中興里","LIN":"14鄰","STREET":"中興街","SECT":" ","MAREA":" ","LANE":" ","ALLEY":" ","HOUSE_NO":"２０８號","E_COORD97":172666.25,"N_COORD97":2564561.4100000001,"ADDRESS":"中興街２０８號","OBJECTID":622247},"geometry":{"x":172666.25,"y":2564561.410000002}},{"attributes":{"ID":622275,"DIS_CODE":0,"TOWNNAME":"麻豆區","LI":"穀興里","LIN":"9鄰","STREET":"中華街","SECT":" ","MAREA":" ","LANE":" ","ALLEY":" ","HOUSE_NO":"４號","E_COORD97":172925.92999999999,"N_COORD97":2564895.3900000001,"ADDRESS":"中華街４號","OBJECTID":622248},"geometry":{"x":172925.9299999997,"y":2564895.3900000006}},{"attributes":{"ID":622276,"DIS_CODE":0,"TOWNNAME":"麻豆區","LI":"穀興里","LIN":"9鄰","STREET":"中華街","SECT":" ","MAREA":" ","LANE":" ","ALLEY":" ","HOUSE_NO":"６號","E_COORD97":172925.75,"N_COORD97":2564891.48,"ADDRESS":"中華街６號","OBJECTID":622249},"geometry":{"x":172925.75,"y":2564891.4800000004}},{"attributes":{"ID":622277,"DIS_CODE":0,"TOWNNAME":"麻豆區","LI":"穀興里","LIN":"9鄰","STREET":"中華街","SECT":" ","MAREA":" ","LANE":" ","ALLEY":" ","HOUSE_NO":"８號之１","E_COORD97":172924.47,"N_COORD97":2564881.6099999999,"ADDRESS":"中華街８號之１","OBJECTID":622250},"geometry":{"x":172924.47000000067,"y":2564881.6100000013}},{"attributes":{"ID":622278,"DIS_CODE":0,"TOWNNAME":"麻豆區","LI":"穀興里","LIN":"9鄰","STREET":"中華街","SECT":" ","MAREA":" ","LANE":" ","ALLEY":" ","HOUSE_NO":"８號","E_COORD97":172924.44,"N_COORD97":2564887.5800000001,"ADDRESS":"中華街８號","OBJECTID":622251},"geometry":{"x":172924.44000000041,"y":2564887.5800000001}},{"attributes":{"ID":622279,"DIS_CODE":0,"TOWNNAME":"麻豆區","LI":"中興里","LIN":"4鄰","STREET":"中興街","SECT":" ","MAREA":" ","LANE":" ","ALLEY":" ","HOUSE_NO":"２３號之１","E_COORD97":172908.64000000001,"N_COORD97":2564597.4700000002,"ADDRESS":"中興街２３號之１","OBJECTID":622252},"geometry":{"x":172908.63999999966,"y":2564597.4700000007}},{"attributes":{"ID":622280,"DIS_CODE":0,"TOWNNAME":"麻豆區","LI":"中興里","LIN":"18鄰","STREET":"中興街","SECT":" ","MAREA":" ","LANE":" ","ALLEY":" ","HOUSE_NO":"２３０號","E_COORD97":172567.42999999999,"N_COORD97":2564559.6600000001,"ADDRESS":"中興街２３０號","OBJECTID":622253},"geometry":{"x":172567.43000000063,"y":2564559.660000002}},{"attributes":{"ID":622281,"DIS_CODE":0,"TOWNNAME":"麻豆區","LI":"新建里","LIN":"5鄰","STREET":"仁愛路","SECT":" ","MAREA":" ","LANE":" ","ALLEY":" ","HOUSE_NO":"２８號之１","E_COORD97":172597.76999999999,"N_COORD97":2564760.4100000001,"ADDRESS":"仁愛路２８號之１","OBJECTID":622254},"geometry":{"x":172597.76999999955,"y":2564760.4099999983}},{"attributes":{"ID":622282,"DIS_CODE":0,"TOWNNAME":"麻豆區","LI":"中興里","LIN":"13鄰","STREET":"仁愛路","SECT":" ","MAREA":" ","LANE":" ","ALLEY":" ","HOUSE_NO":"２３號之１","E_COORD97":172704.32000000001,"N_COORD97":2564724.9900000002,"ADDRESS":"仁愛路２３號之１","OBJECTID":622255},"geometry":{"x":172704.32000000123,"y":2564724.9900000002}},{"attributes":{"ID":622283,"DIS_CODE":0,"TOWNNAME":"麻豆區","LI":"中興里","LIN":"13鄰","STREET":"仁愛路","SECT":" ","MAREA":" ","LANE":" ","ALLEY":" ","HOUSE_NO":"２３號","E_COORD97":172692.53,"N_COORD97":2564731.1699999999,"ADDRESS":"仁愛路２３號","OBJECTID":622256},"geometry":{"x":172692.53000000119,"y":2564731.1699999999}},{"attributes":{"ID":622284,"DIS_CODE":0,"TOWNNAME":"麻豆區","LI":"興農里","LIN":"1鄰","STREET":"仁愛路","SECT":" ","MAREA":" ","LANE":" ","ALLEY":" ","HOUSE_NO":"３１號","E_COORD97":172569.73999999999,"N_COORD97":2564723.1899999999,"ADDRESS":"仁愛路３１號","OBJECTID":622257},"geometry":{"x":172569.74000000022,"y":2564723.1899999995}},{"attributes":{"ID":622285,"DIS_CODE":0,"TOWNNAME":"麻豆區","LI":"新建里","LIN":"6鄰","STREET":"仁愛路","SECT":" ","MAREA":" ","LANE":" ","ALLEY":" ","HOUSE_NO":"３２號之１０","E_COORD97":172555.29000000001,"N_COORD97":2564758.2599999998,"ADDRESS":"仁愛路３２號之１０","OBJECTID":622258},"geometry":{"x":172555.29000000097,"y":2564758.2600000016}},{"attributes":{"ID":622286,"DIS_CODE":0,"TOWNNAME":"麻豆區","LI":"新建里","LIN":"6鄰","STREET":"仁愛路","SECT":" ","MAREA":" ","LANE":" ","ALLEY":" ","HOUSE_NO":"３２號之１１","E_COORD97":172550.10999999999,"N_COORD97":2564758.1400000001,"ADDRESS":"仁愛路３２號之１１","OBJECTID":622259},"geometry":{"x":172550.11000000034,"y":2564758.1400000006}},{"attributes":{"ID":622287,"DIS_CODE":0,"TOWNNAME":"麻豆區","LI":"新建里","LIN":"6鄰","STREET":"仁愛路","SECT":" ","MAREA":" ","LANE":" ","ALLEY":" ","HOUSE_NO":"３２號之１２","E_COORD97":172544.92999999999,"N_COORD97":2564758.02,"ADDRESS":"仁愛路３２號之１２","OBJECTID":622260},"geometry":{"x":172544.93000000063,"y":2564758.0199999996}},{"attributes":{"ID":622288,"DIS_CODE":0,"TOWNNAME":"麻豆區","LI":"新建里","LIN":"6鄰","STREET":"仁愛路","SECT":" ","MAREA":" ","LANE":" ","ALLEY":" ","HOUSE_NO":"３２號之１３","E_COORD97":172539.75,"N_COORD97":2564757.8999999999,"ADDRESS":"仁愛路３２號之１３","OBJECTID":622261},"geometry":{"x":172539.75000000093,"y":2564757.9000000022}},{"attributes":{"ID":622289,"DIS_CODE":0,"TOWNNAME":"麻豆區","LI":"新建里","LIN":"6鄰","STREET":"仁愛路","SECT":" ","MAREA":" ","LANE":" ","ALLEY":" ","HOUSE_NO":"３２號之１５","E_COORD97":172534.56,"N_COORD97":2564757.7799999998,"ADDRESS":"仁愛路３２號之１５","OBJECTID":622262},"geometry":{"x":172534.55999999959,"y":2564757.7800000012}},{"attributes":{"ID":622290,"DIS_CODE":0,"TOWNNAME":"麻豆區","LI":"新建里","LIN":"6鄰","STREET":"仁愛路","SECT":" ","MAREA":" ","LANE":" ","ALLEY":" ","HOUSE_NO":"３２號之１６","E_COORD97":172529.38,"N_COORD97":2564757.6699999999,"ADDRESS":"仁愛路３２號之１６","OBJECTID":622263},"geometry":{"x":172529.37999999989,"y":2564757.6699999999}},{"attributes":{"ID":622291,"DIS_CODE":0,"TOWNNAME":"麻豆區","LI":"新建里","LIN":"6鄰","STREET":"仁愛路","SECT":" ","MAREA":" ","LANE":" ","ALLEY":" ","HOUSE_NO":"３２號之１７","E_COORD97":172516.87,"N_COORD97":2564757.1299999999,"ADDRESS":"仁愛路３２號之１７","OBJECTID":622264},"geometry":{"x":172516.87000000104,"y":2564757.129999999}},{"attributes":{"ID":622292,"DIS_CODE":0,"TOWNNAME":"麻豆區","LI":"新建里","LIN":"6鄰","STREET":"仁愛路","SECT":" ","MAREA":" ","LANE":" ","ALLEY":" ","HOUSE_NO":"３２號之１８","E_COORD97":172511.76999999999,"N_COORD97":2564756.9700000002,"ADDRESS":"仁愛路３２號之１８","OBJECTID":622265},"geometry":{"x":172511.77000000142,"y":2564756.9700000007}},{"attributes":{"ID":622293,"DIS_CODE":0,"TOWNNAME":"麻豆區","LI":"新建里","LIN":"6鄰","STREET":"仁愛路","SECT":" ","MAREA":" ","LANE":" ","ALLEY":" ","HOUSE_NO":"３２號之１９","E_COORD97":172506.66,"N_COORD97":2564756.8100000001,"ADDRESS":"仁愛路３２號之１９","OBJECTID":622266},"geometry":{"x":172506.66000000108,"y":2564756.8100000005}},{"attributes":{"ID":622294,"DIS_CODE":0,"TOWNNAME":"麻豆區","LI":"新建里","LIN":"6鄰","STREET":"仁愛路","SECT":" ","MAREA":" ","LANE":" ","ALLEY":" ","HOUSE_NO":"３２號之２０","E_COORD97":172501.56,"N_COORD97":2564756.6499999999,"ADDRESS":"仁愛路３２號之２０","OBJECTID":622267},"geometry":{"x":172501.56000000052,"y":2564756.6500000022}},{"attributes":{"ID":622295,"DIS_CODE":0,"TOWNNAME":"麻豆區","LI":"新建里","LIN":"6鄰","STREET":"仁愛路","SECT":" ","MAREA":" ","LANE":" ","ALLEY":" ","HOUSE_NO":"３２號之２１","E_COORD97":172496.45000000001,"N_COORD97":2564756.4900000002,"ADDRESS":"仁愛路３２號之２１","OBJECTID":622268},"geometry":{"x":172496.45000000112,"y":2564756.4899999984}},{"attributes":{"ID":622296,"DIS_CODE":0,"TOWNNAME":"麻豆區","LI":"大埕里","LIN":"6鄰","STREET":"文昌路","SECT":" ","MAREA":" ","LANE":" ","ALLEY":" ","HOUSE_NO":"２９號之１０","E_COORD97":173468.67999999999,"N_COORD97":2565134.8900000001,"ADDRESS":"文昌路２９號之１０","OBJECTID":622269},"geometry":{"x":173468.68000000156,"y":2565134.8900000025}},{"attributes":{"ID":622297,"DIS_CODE":0,"TOWNNAME":"麻豆區","LI":"大埕里","LIN":"6鄰","STREET":"文昌路","SECT":" ","MAREA":" ","LANE":" ","ALLEY":" ","HOUSE_NO":"２９號之１１","E_COORD97":173467.66,"N_COORD97":2565131.3100000001,"ADDRESS":"文昌路２９號之１１","OBJECTID":622270},"geometry":{"x":173467.66000000108,"y":2565131.3100000042}},{"attributes":{"ID":622298,"DIS_CODE":0,"TOWNNAME":"麻豆區","LI":"大埕里","LIN":"6鄰","STREET":"文昌路","SECT":" ","MAREA":" ","LANE":" ","ALLEY":" ","HOUSE_NO":"２９號之１２","E_COORD97":173466.73999999999,"N_COORD97":2565127.75,"ADDRESS":"文昌路２９號之１２","OBJECTID":622271},"geometry":{"x":173466.74000000022,"y":2565127.7500000037}},{"attributes":{"ID":622299,"DIS_CODE":0,"TOWNNAME":"麻豆區","LI":"大埕里","LIN":"6鄰","STREET":"文昌路","SECT":" ","MAREA":" ","LANE":" ","ALLEY":" ","HOUSE_NO":"２９號之１３","E_COORD97":173465.91,"N_COORD97":2565123.9399999999,"ADDRESS":"文昌路２９號之１３","OBJECTID":622272},"geometry":{"x":173465.91000000108,"y":2565123.9400000013}},{"attributes":{"ID":622300,"DIS_CODE":0,"TOWNNAME":"麻豆區","LI":"大埕里","LIN":"6鄰","STREET":"文昌路","SECT":" ","MAREA":" ","LANE":" ","ALLEY":" ","HOUSE_NO":"２９號之１４","E_COORD97":173464.95999999999,"N_COORD97":2565119.21,"ADDRESS":"文昌路２９號之１４","OBJECTID":622273},"geometry":{"x":173464.95999999996,"y":2565119.2100000028}},{"attributes":{"ID":622301,"DIS_CODE":0,"TOWNNAME":"麻豆區","LI":"大埕里","LIN":"6鄰","STREET":"文昌路","SECT":" ","MAREA":" ","LANE":" ","ALLEY":" ","HOUSE_NO":"２９號之１５","E_COORD97":173471.63,"N_COORD97":2565108.1600000001,"ADDRESS":"文昌路２９號之１５","OBJECTID":622274},"geometry":{"x":173471.62999999989,"y":2565108.1600000039}},{"attributes":{"ID":622302,"DIS_CODE":0,"TOWNNAME":"麻豆區","LI":"大埕里","LIN":"6鄰","STREET":"文昌路","SECT":" ","MAREA":" ","LANE":" ","ALLEY":" ","HOUSE_NO":"２９號之１６","E_COORD97":173467.51999999999,"N_COORD97":2565108.1600000001,"ADDRESS":"文昌路２９號之１６","OBJECTID":622275},"geometry":{"x":173467.51999999955,"y":2565108.1600000039}},{"attributes":{"ID":622303,"DIS_CODE":0,"TOWNNAME":"麻豆區","LI":"大埕里","LIN":"6鄰","STREET":"文昌路","SECT":" ","MAREA":" ","LANE":" ","ALLEY":" ","HOUSE_NO":"２９號之１７","E_COORD97":173463.75,"N_COORD97":2565108.1099999999,"ADDRESS":"文昌路２９號之１７","OBJECTID":622276},"geometry":{"x":173463.75000000093,"y":2565108.1100000013}},{"attributes":{"ID":622304,"DIS_CODE":0,"TOWNNAME":"麻豆區","LI":"大埕里","LIN":"6鄰","STREET":"文昌路","SECT":" ","MAREA":" ","LANE":" ","ALLEY":" ","HOUSE_NO":"２９號之１８","E_COORD97":173459.92000000001,"N_COORD97":2565108.1899999999,"ADDRESS":"文昌路２９號之１８","OBJECTID":622277},"geometry":{"x":173459.91999999993,"y":2565108.1900000013}},{"attributes":{"ID":622305,"DIS_CODE":0,"TOWNNAME":"麻豆區","LI":"大埕里","LIN":"6鄰","STREET":"文昌路","SECT":" ","MAREA":" ","LANE":" ","ALLEY":" ","HOUSE_NO":"２９號之１９","E_COORD97":173455.51000000001,"N_COORD97":2565108.3900000001,"ADDRESS":"文昌路２９號之１９","OBJECTID":622278},"geometry":{"x":173455.50999999978,"y":2565108.3900000025}},{"attributes":{"ID":622306,"DIS_CODE":0,"TOWNNAME":"麻豆區","LI":"大埕里","LIN":"6鄰","STREET":"文昌路","SECT":" ","MAREA":" ","LANE":" ","ALLEY":" ","HOUSE_NO":"２９號之１","E_COORD97":173499.84,"N_COORD97":2565110.2400000002,"ADDRESS":"文昌路２９號之１","OBJECTID":622279},"geometry":{"x":173499.84000000171,"y":2565110.2400000002}},{"attributes":{"ID":622307,"DIS_CODE":0,"TOWNNAME":"麻豆區","LI":"大埕里","LIN":"6鄰","STREET":"文昌路","SECT":" ","MAREA":" ","LANE":" ","ALLEY":" ","HOUSE_NO":"２９號","E_COORD97":173505.35999999999,"N_COORD97":2565105.2000000002,"ADDRESS":"文昌路２９號","OBJECTID":622280},"geometry":{"x":173505.3600000022,"y":2565105.1999999993}},{"attributes":{"ID":622308,"DIS_CODE":0,"TOWNNAME":"麻豆區","LI":"大埕里","LIN":"14鄰","STREET":"平等路","SECT":" ","MAREA":" ","LANE":" ","ALLEY":" ","HOUSE_NO":"１０１號","E_COORD97":172993.54999999999,"N_COORD97":2565151.04,"ADDRESS":"平等路１０１號","OBJECTID":622281},"geometry":{"x":172993.55000000075,"y":2565151.0399999991}},{"attributes":{"ID":622309,"DIS_CODE":0,"TOWNNAME":"麻豆區","LI":"大埕里","LIN":"14鄰","STREET":"平等路","SECT":" ","MAREA":" ","LANE":" ","ALLEY":" ","HOUSE_NO":"１０３號","E_COORD97":172993.12,"N_COORD97":2565154.6400000001,"ADDRESS":"平等路１０３號","OBJECTID":622282},"geometry":{"x":172993.12000000197,"y":2565154.6400000006}},{"attributes":{"ID":622310,"DIS_CODE":0,"TOWNNAME":"麻豆區","LI":"大埕里","LIN":"14鄰","STREET":"平等路","SECT":" ","MAREA":" ","LANE":" ","ALLEY":" ","HOUSE_NO":"１０５號","E_COORD97":172993.23999999999,"N_COORD97":2565158.9700000002,"ADDRESS":"平等路１０５號","OBJECTID":622283},"geometry":{"x":172993.24000000022,"y":2565158.9700000025}},{"attributes":{"ID":622311,"DIS_CODE":0,"TOWNNAME":"麻豆區","LI":"大埕里","LIN":"14鄰","STREET":"平等路","SECT":" ","MAREA":" ","LANE":" ","ALLEY":" ","HOUSE_NO":"１０７號","E_COORD97":172993.29000000001,"N_COORD97":2565162.7400000002,"ADDRESS":"平等路１０７號","OBJECTID":622284},"geometry":{"x":172993.29000000004,"y":2565162.7400000021}},{"attributes":{"ID":622312,"DIS_CODE":0,"TOWNNAME":"麻豆區","LI":"大埕里","LIN":"14鄰","STREET":"平等路","SECT":" ","MAREA":" ","LANE":" ","ALLEY":" ","HOUSE_NO":"１０９號","E_COORD97":173007.03,"N_COORD97":2565164.29,"ADDRESS":"平等路１０９號","OBJECTID":622285},"geometry":{"x":173007.03000000026,"y":2565164.290000001}},{"attributes":{"ID":622313,"DIS_CODE":0,"TOWNNAME":"麻豆區","LI":"大埕里","LIN":"14鄰","STREET":"平等路","SECT":" ","MAREA":" ","LANE":" ","ALLEY":" ","HOUSE_NO":"１１１號","E_COORD97":173007.09,"N_COORD97":2565159.8199999998,"ADDRESS":"平等路１１１號","OBJECTID":622286},"geometry":{"x":173007.09000000078,"y":2565159.8200000003}},{"attributes":{"ID":622314,"DIS_CODE":0,"TOWNNAME":"麻豆區","LI":"大埕里","LIN":"14鄰","STREET":"平等路","SECT":" ","MAREA":" ","LANE":" ","ALLEY":" ","HOUSE_NO":"１１３號","E_COORD97":173007.51999999999,"N_COORD97":2565155.9700000002,"ADDRESS":"平等路１１３號","OBJECTID":622287},"geometry":{"x":173007.52000000048,"y":2565155.9700000007}},{"attributes":{"ID":622315,"DIS_CODE":0,"TOWNNAME":"麻豆區","LI":"大埕里","LIN":"14鄰","STREET":"平等路","SECT":" ","MAREA":" ","LANE":" ","ALLEY":" ","HOUSE_NO":"１１５號","E_COORD97":173007.53,"N_COORD97":2565152.2200000002,"ADDRESS":"平等路１１５號","OBJECTID":622288},"geometry":{"x":173007.53000000119,"y":2565152.2200000044}},{"attributes":{"ID":622316,"DIS_CODE":0,"TOWNNAME":"麻豆區","LI":"大埕里","LIN":"14鄰","STREET":"平等路","SECT":" ","MAREA":" ","LANE":" ","ALLEY":" ","HOUSE_NO":"１１７號","E_COORD97":173007.98999999999,"N_COORD97":2565148.0099999998,"ADDRESS":"平等路１１７號","OBJECTID":622289},"geometry":{"x":173007.99000000115,"y":2565148.0099999998}},{"attributes":{"ID":622317,"DIS_CODE":0,"TOWNNAME":"新市區","LI":"新市里","LIN":"25鄰","STREET":"復興路","SECT":" ","MAREA":" ","LANE":" ","ALLEY":" ","HOUSE_NO":"２號","E_COORD97":177832.23999999999,"N_COORD97":2553268.0299999998,"ADDRESS":"復興路２號","OBJECTID":622290},"geometry":{"x":177832.24000000209,"y":2553268.0299999993}},{"attributes":{"ID":622318,"DIS_CODE":0,"TOWNNAME":"新市區","LI":"新和里","LIN":"5鄰","STREET":"昆明街","SECT":" ","MAREA":" ","LANE":" ","ALLEY":" ","HOUSE_NO":"３６號","E_COORD97":177302.64999999999,"N_COORD97":2552354.75,"ADDRESS":"昆明街３６號","OBJECTID":622291},"geometry":{"x":177302.6500000013,"y":2552354.75}},{"attributes":{"ID":622319,"DIS_CODE":0,"TOWNNAME":"新市區","LI":"新和里","LIN":"39鄰","STREET":"中正路","SECT":" ","MAREA":" ","LANE":" ","ALLEY":" ","HOUSE_NO":"２０５號之４","E_COORD97":177422.09,"N_COORD97":2553014.0499999998,"ADDRESS":"中正路２０５號之４","OBJECTID":622292},"geometry":{"x":177422.08999999985,"y":2553014.0500000026}},{"attributes":{"ID":622320,"DIS_CODE":0,"TOWNNAME":"新市區","LI":"新和里","LIN":"4鄰","STREET":"中正路","SECT":" ","MAREA":" ","LANE":" ","ALLEY":" ","HOUSE_NO":"５２號","E_COORD97":177468.66,"N_COORD97":2552356,"ADDRESS":"中正路５２號","OBJECTID":622293},"geometry":{"x":177468.66000000108,"y":2552356.0000000019}},{"attributes":{"ID":622321,"DIS_CODE":0,"TOWNNAME":"新市區","LI":"新和里","LIN":"5鄰","STREET":"昆明街","SECT":" ","MAREA":" ","LANE":" ","ALLEY":" ","HOUSE_NO":"４６號","E_COORD97":177275.23000000001,"N_COORD97":2552348,"ADDRESS":"昆明街４６號","OBJECTID":622294},"geometry":{"x":177275.23000000138,"y":2552348.0000000019}},{"attributes":{"ID":622322,"DIS_CODE":0,"TOWNNAME":"新市區","LI":"港墘里","LIN":"18鄰","STREET":"華美街","SECT":" ","MAREA":" ","LANE":" ","ALLEY":" ","HOUSE_NO":"３號","E_COORD97":178101.67999999999,"N_COORD97":2552691.7999999998,"ADDRESS":"華美街３號","OBJECTID":622295},"geometry":{"x":178101.68000000063,"y":2552691.8000000007}},{"attributes":{"ID":622323,"DIS_CODE":0,"TOWNNAME":"新市區","LI":"社內里","LIN":"4鄰","STREET":"富強路","SECT":" ","MAREA":" ","LANE":" ","ALLEY":" ","HOUSE_NO":"５００號","E_COORD97":176385.98000000001,"N_COORD97":2551679.5,"ADDRESS":"富強路５００號","OBJECTID":622296},"geometry":{"x":176385.98000000045,"y":2551679.4999999981}},{"attributes":{"ID":622324,"DIS_CODE":0,"TOWNNAME":"新市區","LI":"新和里","LIN":"5鄰","STREET":"昆明街","SECT":" ","MAREA":" ","LANE":" ","ALLEY":" ","HOUSE_NO":"５４號","E_COORD97":177258.01000000001,"N_COORD97":2552343.75,"ADDRESS":"昆明街５４號","OBJECTID":622297},"geometry":{"x":177258.00999999978,"y":2552343.7500000019}},{"attributes":{"ID":622325,"DIS_CODE":0,"TOWNNAME":"新市區","LI":"新市里","LIN":"5鄰","STREET":"仁愛街","SECT":" ","MAREA":" ","LANE":" ","ALLEY":" ","HOUSE_NO":"３０５號","E_COORD97":177648.87,"N_COORD97":2553059.7799999998,"ADDRESS":"仁愛街３０５號","OBJECTID":622298},"geometry":{"x":177648.87000000104,"y":2553059.7799999993}},{"attributes":{"ID":622326,"DIS_CODE":0,"TOWNNAME":"新市區","LI":"港墘里","LIN":"26鄰","STREET":"華美街","SECT":" ","MAREA":" ","LANE":" ","ALLEY":" ","HOUSE_NO":"４２號","E_COORD97":178168.42000000001,"N_COORD97":2552940.7999999998,"ADDRESS":"華美街４２號","OBJECTID":622299},"geometry":{"x":178168.42000000086,"y":2552940.8000000026}},{"attributes":{"ID":622327,"DIS_CODE":0,"TOWNNAME":"新市區","LI":"新和里","LIN":"41鄰","STREET":"光明街","SECT":" ","MAREA":" ","LANE":" ","ALLEY":" ","HOUSE_NO":"５５號","E_COORD97":177109.42999999999,"N_COORD97":2552809.75,"ADDRESS":"光明街５５號","OBJECTID":622300},"geometry":{"x":177109.4299999997,"y":2552809.75}},{"attributes":{"ID":622328,"DIS_CODE":0,"TOWNNAME":"新市區","LI":"港墘里","LIN":"13鄰","STREET":"中山路","SECT":" ","MAREA":" ","LANE":" ","ALLEY":" ","HOUSE_NO":"９０號","E_COORD97":178402.59,"N_COORD97":2552822.5,"ADDRESS":"中山路９０號","OBJECTID":622301},"geometry":{"x":178402.59000000078,"y":2552822.5000000037}},{"attributes":{"ID":622329,"DIS_CODE":0,"TOWNNAME":"新市區","LI":"港墘里","LIN":"4鄰","STREET":"三民街","SECT":" ","MAREA":" ","LANE":" ","ALLEY":" ","HOUSE_NO":"８０號","E_COORD97":178424.79000000001,"N_COORD97":2553451.29,"ADDRESS":"三民街８０號","OBJECTID":622302},"geometry":{"x":178424.78999999911,"y":2553451.290000001}},{"attributes":{"ID":622330,"DIS_CODE":0,"TOWNNAME":"新市區","LI":"港墘里","LIN":"20鄰","STREET":"光華街","SECT":" ","MAREA":" ","LANE":" ","ALLEY":" ","HOUSE_NO":"１３０號","E_COORD97":177927.26000000001,"N_COORD97":2552765.5,"ADDRESS":"光華街１３０號","OBJECTID":622303},"geometry":{"x":177927.26000000071,"y":2552765.5000000019}},{"attributes":{"ID":622331,"DIS_CODE":0,"TOWNNAME":"新市區","LI":"新和里","LIN":"43鄰","STREET":"民權路","SECT":" ","MAREA":" ","LANE":" ","ALLEY":" ","HOUSE_NO":"４９號","E_COORD97":177328.57000000001,"N_COORD97":2553066.04,"ADDRESS":"民權路４９號","OBJECTID":622304},"geometry":{"x":177328.57000000123,"y":2553066.040000001}},{"attributes":{"ID":622332,"DIS_CODE":0,"TOWNNAME":"新市區","LI":"新和里","LIN":"41鄰","STREET":"信義街","SECT":" ","MAREA":" ","LANE":" ","ALLEY":" ","HOUSE_NO":"３７號","E_COORD97":177211.34,"N_COORD97":2552778.02,"ADDRESS":"信義街３７號","OBJECTID":622305},"geometry":{"x":177211.34000000078,"y":2552778.0200000014}},{"attributes":{"ID":622333,"DIS_CODE":0,"TOWNNAME":"新市區","LI":"港墘里","LIN":"13鄰","STREET":"中山路","SECT":" ","MAREA":" ","LANE":" ","ALLEY":" ","HOUSE_NO":"８２號","E_COORD97":178408.09,"N_COORD97":2552838.25,"ADDRESS":"中山路８２號","OBJECTID":622306},"geometry":{"x":178408.09000000078,"y":2552838.2500000019}},{"attributes":{"ID":622334,"DIS_CODE":0,"TOWNNAME":"新市區","LI":"新市里","LIN":"18鄰","STREET":"和平街","SECT":" ","MAREA":" ","LANE":" ","ALLEY":" ","HOUSE_NO":"７號","E_COORD97":177769.51000000001,"N_COORD97":2553458.75,"ADDRESS":"和平街７號","OBJECTID":622307},"geometry":{"x":177769.51000000071,"y":2553458.7500000019}},{"attributes":{"ID":622335,"DIS_CODE":0,"TOWNNAME":"新市區","LI":"新和里","LIN":"41鄰","STREET":"光明街","SECT":" ","MAREA":" ","LANE":" ","ALLEY":" ","HOUSE_NO":"４１號","E_COORD97":177109.92000000001,"N_COORD97":2552782.75,"ADDRESS":"光明街４１號","OBJECTID":622308},"geometry":{"x":177109.91999999993,"y":2552782.75}},{"attributes":{"ID":622336,"DIS_CODE":0,"TOWNNAME":"新市區","LI":"港墘里","LIN":"13鄰","STREET":"中山路","SECT":" ","MAREA":" ","LANE":" ","ALLEY":" ","HOUSE_NO":"９８號","E_COORD97":178397.17999999999,"N_COORD97":2552806.5,"ADDRESS":"中山路９８號","OBJECTID":622309},"geometry":{"x":178397.18000000063,"y":2552806.5000000019}},{"attributes":{"ID":622337,"DIS_CODE":0,"TOWNNAME":"新市區","LI":"港墘里","LIN":"17鄰","STREET":"南港街","SECT":" ","MAREA":" ","LANE":" ","ALLEY":" ","HOUSE_NO":"４號","E_COORD97":178260.95999999999,"N_COORD97":2552801.5,"ADDRESS":"南港街４號","OBJECTID":622310},"geometry":{"x":178260.96000000183,"y":2552801.5}},{"attributes":{"ID":622338,"DIS_CODE":0,"TOWNNAME":"新市區","LI":"新和里","LIN":"40鄰","STREET":"勝利街","SECT":" ","MAREA":" ","LANE":" ","ALLEY":" ","HOUSE_NO":"７２號","E_COORD97":177148.23000000001,"N_COORD97":2552959.5099999998,"ADDRESS":"勝利街７２號","OBJECTID":622311},"geometry":{"x":177148.23000000138,"y":2552959.5099999998}},{"attributes":{"ID":622339,"DIS_CODE":0,"TOWNNAME":"新市區","LI":"新和里","LIN":"38鄰","STREET":"成功街","SECT":" ","MAREA":" ","LANE":" ","ALLEY":" ","HOUSE_NO":"４０號","E_COORD97":177468.37,"N_COORD97":2552714.02,"ADDRESS":"成功街４０號","OBJECTID":622312},"geometry":{"x":177468.37000000197,"y":2552714.0200000014}},{"attributes":{"ID":622340,"DIS_CODE":0,"TOWNNAME":"新市區","LI":"新和里","LIN":"25鄰","STREET":"仁愛街","SECT":" ","MAREA":" ","LANE":" ","ALLEY":" ","HOUSE_NO":"２４０號","E_COORD97":177620.95000000001,"N_COORD97":2552844.0299999998,"ADDRESS":"仁愛街２４０號","OBJECTID":622313},"geometry":{"x":177620.95000000112,"y":2552844.0299999993}},{"attributes":{"ID":622341,"DIS_CODE":0,"TOWNNAME":"中西區","LI":"建國里","LIN":"8鄰","STREET":"民生路","SECT":"一段","MAREA":" ","LANE":" ","ALLEY":" ","HOUSE_NO":"１９９號","E_COORD97":167950.54000000001,"N_COORD97":2543861.21,"ADDRESS":"民生路一段１９９號","OBJECTID":622314},"geometry":{"x":167950.54000000097,"y":2543861.2100000046}},{"attributes":{"ID":622342,"DIS_CODE":0,"TOWNNAME":"中西區","LI":"建國里","LIN":"8鄰","STREET":"民生路","SECT":"一段","MAREA":" ","LANE":" ","ALLEY":" ","HOUSE_NO":"１８３號","E_COORD97":167964,"N_COORD97":2543860.0699999998,"ADDRESS":"民生路一段１８３號","OBJECTID":622315},"geometry":{"x":167963.99999999907,"y":2543860.0700000003}},{"attributes":{"ID":622343,"DIS_CODE":0,"TOWNNAME":"中西區","LI":"青年里","LIN":"7鄰","STREET":"青年路","SECT":" ","MAREA":" ","LANE":" ","ALLEY":" ","HOUSE_NO":"９５號","E_COORD97":168836.87,"N_COORD97":2543637.3900000001,"ADDRESS":"青年路９５號","OBJECTID":622316},"geometry":{"x":168836.87000000104,"y":2543637.3900000025}},{"attributes":{"ID":622344,"DIS_CODE":0,"TOWNNAME":"中西區","LI":"建國里","LIN":"3鄰","STREET":"中正路","SECT":" ","MAREA":" ","LANE":" ","ALLEY":" ","HOUSE_NO":"１５２號","E_COORD97":167899.01999999999,"N_COORD97":2543704.8799999999,"ADDRESS":"中正路１５２號","OBJECTID":622317},"geometry":{"x":167899.02000000142,"y":2543704.879999999}},{"attributes":{"ID":622345,"DIS_CODE":0,"TOWNNAME":"中西區","LI":"建國里","LIN":"3鄰","STREET":"中正路","SECT":" ","MAREA":" ","LANE":" ","ALLEY":" ","HOUSE_NO":"１５４號","E_COORD97":167890.47,"N_COORD97":2543709.0699999998,"ADDRESS":"中正路１５４號","OBJECTID":622318},"geometry":{"x":167890.46999999974,"y":2543709.0700000022}},{"attributes":{"ID":622346,"DIS_CODE":0,"TOWNNAME":"中西區","LI":"建國里","LIN":"3鄰","STREET":"中正路","SECT":" ","MAREA":" ","LANE":" ","ALLEY":" ","HOUSE_NO":"１６０號","E_COORD97":167881.84,"N_COORD97":2543711.6099999999,"ADDRESS":"中正路１６０號","OBJECTID":622319},"geometry":{"x":167881.83999999892,"y":2543711.6100000013}},{"attributes":{"ID":622347,"DIS_CODE":0,"TOWNNAME":"中西區","LI":"永華里","LIN":"4鄰","STREET":"南門路","SECT":" ","MAREA":" ","LANE":" ","ALLEY":" ","HOUSE_NO":"６９號","E_COORD97":168472.85999999999,"N_COORD97":2543349.3799999999,"ADDRESS":"南門路６９號","OBJECTID":622320},"geometry":{"x":168472.86000000127,"y":2543349.3800000027}},{"attributes":{"ID":622348,"DIS_CODE":0,"TOWNNAME":"中西區","LI":"永華里","LIN":"4鄰","STREET":"南門路","SECT":" ","MAREA":" ","LANE":" ","ALLEY":" ","HOUSE_NO":"７１號","E_COORD97":168472.72,"N_COORD97":2543345.6000000001,"ADDRESS":"南門路７１號","OBJECTID":622321},"geometry":{"x":168472.7200000016,"y":2543345.6000000015}},{"attributes":{"ID":622349,"DIS_CODE":0,"TOWNNAME":"中西區","LI":"永華里","LIN":"4鄰","STREET":"南門路","SECT":" ","MAREA":" ","LANE":" ","ALLEY":" ","HOUSE_NO":"７３號","E_COORD97":168471.67999999999,"N_COORD97":2543340.4399999999,"ADDRESS":"南門路７３號","OBJECTID":622322},"geometry":{"x":168471.68000000063,"y":2543340.4400000013}},{"attributes":{"ID":622350,"DIS_CODE":0,"TOWNNAME":"中西區","LI":"青年里","LIN":"4鄰","STREET":"武德街","SECT":" ","MAREA":" ","LANE":" ","ALLEY":" ","HOUSE_NO":"６號","E_COORD97":168985.87,"N_COORD97":2543635.1200000001,"ADDRESS":"武德街６號","OBJECTID":622323},"geometry":{"x":168985.87000000104,"y":2543635.1200000029}},{"attributes":{"ID":622351,"DIS_CODE":0,"TOWNNAME":"中西區","LI":"郡王里","LIN":"15鄰","STREET":"南門路","SECT":" ","MAREA":" ","LANE":" ","ALLEY":" ","HOUSE_NO":"１０１號","E_COORD97":168451.78,"N_COORD97":2543169.04,"ADDRESS":"南門路１０１號","OBJECTID":622324},"geometry":{"x":168451.78000000026,"y":2543169.040000001}},{"attributes":{"ID":622352,"DIS_CODE":0,"TOWNNAME":"中西區","LI":"郡王里","LIN":"15鄰","STREET":"建業街","SECT":" ","MAREA":" ","LANE":" ","ALLEY":" ","HOUSE_NO":"７０號","E_COORD97":168504.29999999999,"N_COORD97":2543166.9700000002,"ADDRESS":"建業街７０號","OBJECTID":622325},"geometry":{"x":168504.30000000168,"y":2543166.9700000007}},{"attributes":{"ID":622353,"DIS_CODE":0,"TOWNNAME":"中西區","LI":"郡王里","LIN":"15鄰","STREET":"建業街","SECT":" ","MAREA":" ","LANE":" ","ALLEY":" ","HOUSE_NO":"７２號","E_COORD97":168501.26999999999,"N_COORD97":2543166.9700000002,"ADDRESS":"建業街７２號","OBJECTID":622326},"geometry":{"x":168501.27000000048,"y":2543166.9700000007}},{"attributes":{"ID":622354,"DIS_CODE":0,"TOWNNAME":"中西區","LI":"永華里","LIN":"4鄰","STREET":"南門路","SECT":" ","MAREA":" ","LANE":" ","ALLEY":" ","HOUSE_NO":"６７號","E_COORD97":168473.01000000001,"N_COORD97":2543354.7200000002,"ADDRESS":"南門路６７號","OBJECTID":622327},"geometry":{"x":168473.01000000071,"y":2543354.7200000007}},{"attributes":{"ID":622355,"DIS_CODE":0,"TOWNNAME":"中西區","LI":"永華里","LIN":"4鄰","STREET":"南門路","SECT":" ","MAREA":" ","LANE":" ","ALLEY":" ","HOUSE_NO":"７５號底層","E_COORD97":168470.26999999999,"N_COORD97":2543330.54,"ADDRESS":"南門路７５號底層","OBJECTID":622328},"geometry":{"x":168470.26999999862,"y":2543330.5399999991}},{"attributes":{"ID":622356,"DIS_CODE":0,"TOWNNAME":"中西區","LI":"永華里","LIN":"8鄰","STREET":"友愛街","SECT":" ","MAREA":" ","LANE":" ","ALLEY":" ","HOUSE_NO":"２５號","E_COORD97":168500.51999999999,"N_COORD97":2543476.04,"ADDRESS":"友愛街２５號","OBJECTID":622329},"geometry":{"x":168500.51999999955,"y":2543476.0399999991}},{"attributes":{"ID":622357,"DIS_CODE":0,"TOWNNAME":"中西區","LI":"永華里","LIN":"8鄰","STREET":"府中街","SECT":" ","MAREA":" ","LANE":" ","ALLEY":" ","HOUSE_NO":"１１２號","E_COORD97":168529.88,"N_COORD97":2543431.6899999999,"ADDRESS":"府中街１１２號","OBJECTID":622330},"geometry":{"x":168529.88000000082,"y":2543431.6899999995}},{"attributes":{"ID":622358,"DIS_CODE":0,"TOWNNAME":"中西區","LI":"青年里","LIN":"4鄰","STREET":"武德街","SECT":" ","MAREA":" ","LANE":" ","ALLEY":" ","HOUSE_NO":"１０號","E_COORD97":168980.35999999999,"N_COORD97":2543648.6499999999,"ADDRESS":"武德街１０號","OBJECTID":622331},"geometry":{"x":168980.36000000034,"y":2543648.6500000022}},{"attributes":{"ID":622359,"DIS_CODE":0,"TOWNNAME":"中西區","LI":"青年里","LIN":"4鄰","STREET":"武德街","SECT":" ","MAREA":" ","LANE":" ","ALLEY":" ","HOUSE_NO":"１２號","E_COORD97":168990.97,"N_COORD97":2543654.6400000001,"ADDRESS":"武德街１２號","OBJECTID":622332},"geometry":{"x":168990.96999999974,"y":2543654.6400000043}},{"attributes":{"ID":622360,"DIS_CODE":0,"TOWNNAME":"中西區","LI":"青年里","LIN":"4鄰","STREET":"武德街","SECT":" ","MAREA":" ","LANE":" ","ALLEY":" ","HOUSE_NO":"１４號","E_COORD97":168979.81,"N_COORD97":2543656.5499999998,"ADDRESS":"武德街１４號","OBJECTID":622333},"geometry":{"x":168979.80999999959,"y":2543656.5500000026}},{"attributes":{"ID":622361,"DIS_CODE":0,"TOWNNAME":"中西區","LI":"青年里","LIN":"4鄰","STREET":"武德街","SECT":" ","MAREA":" ","LANE":" ","ALLEY":" ","HOUSE_NO":"１８號","E_COORD97":168981.72,"N_COORD97":2543661.3300000001,"ADDRESS":"武德街１８號","OBJECTID":622334},"geometry":{"x":168981.72000000067,"y":2543661.3300000001}},{"attributes":{"ID":622362,"DIS_CODE":0,"TOWNNAME":"中西區","LI":"青年里","LIN":"4鄰","STREET":"武德街","SECT":" ","MAREA":" ","LANE":" ","ALLEY":" ","HOUSE_NO":"２０號","E_COORD97":168984.91,"N_COORD97":2543666.4199999999,"ADDRESS":"武德街２０號","OBJECTID":622335},"geometry":{"x":168984.91000000015,"y":2543666.4200000018}},{"attributes":{"ID":622363,"DIS_CODE":0,"TOWNNAME":"中西區","LI":"青年里","LIN":"4鄰","STREET":"武德街","SECT":" ","MAREA":" ","LANE":" ","ALLEY":" ","HOUSE_NO":"２２號","E_COORD97":168985.87,"N_COORD97":2543674.0600000001,"ADDRESS":"武德街２２號","OBJECTID":622336},"geometry":{"x":168985.87000000104,"y":2543674.0600000005}},{"attributes":{"ID":622364,"DIS_CODE":0,"TOWNNAME":"中西區","LI":"青年里","LIN":"4鄰","STREET":"武德街","SECT":" ","MAREA":" ","LANE":" ","ALLEY":" ","HOUSE_NO":"２２號之１","E_COORD97":168984.59,"N_COORD97":2543676.9300000002,"ADDRESS":"武德街２２號之１","OBJECTID":622337},"geometry":{"x":168984.59000000078,"y":2543676.9299999997}},{"attributes":{"ID":622365,"DIS_CODE":0,"TOWNNAME":"中西區","LI":"青年里","LIN":"4鄰","STREET":"武德街","SECT":" ","MAREA":" ","LANE":" ","ALLEY":" ","HOUSE_NO":"２２號之２","E_COORD97":168984.59,"N_COORD97":2543679.1499999999,"ADDRESS":"武德街２２號之２","OBJECTID":622338},"geometry":{"x":168984.59000000078,"y":2543679.1500000022}},{"attributes":{"ID":622366,"DIS_CODE":0,"TOWNNAME":"中西區","LI":"青年里","LIN":"4鄰","STREET":"武德街","SECT":" ","MAREA":" ","LANE":" ","ALLEY":" ","HOUSE_NO":"２２號之３","E_COORD97":168985.54999999999,"N_COORD97":2543682.02,"ADDRESS":"武德街２２號之３","OBJECTID":622339},"geometry":{"x":168985.54999999981,"y":2543682.0200000014}},{"attributes":{"ID":622367,"DIS_CODE":0,"TOWNNAME":"中西區","LI":"青年里","LIN":"4鄰","STREET":"武德街","SECT":" ","MAREA":" ","LANE":" ","ALLEY":" ","HOUSE_NO":"２４號","E_COORD97":168989.37,"N_COORD97":2543685.52,"ADDRESS":"武德街２４號","OBJECTID":622340},"geometry":{"x":168989.37000000104,"y":2543685.5200000014}},{"attributes":{"ID":622368,"DIS_CODE":0,"TOWNNAME":"中西區","LI":"青年里","LIN":"3鄰","STREET":"青年路","SECT":" ","MAREA":" ","LANE":" ","ALLEY":" ","HOUSE_NO":"１６３號","E_COORD97":168989.37,"N_COORD97":2543609.7200000002,"ADDRESS":"青年路１６３號","OBJECTID":622341},"geometry":{"x":168989.37000000104,"y":2543609.7200000044}},{"attributes":{"ID":622369,"DIS_CODE":0,"TOWNNAME":"中西區","LI":"青年里","LIN":"3鄰","STREET":"青年路","SECT":" ","MAREA":" ","LANE":" ","ALLEY":" ","HOUSE_NO":"１６５號","E_COORD97":168995.10999999999,"N_COORD97":2543609.7200000002,"ADDRESS":"青年路１６５號","OBJECTID":622342},"geometry":{"x":168995.11000000127,"y":2543609.7200000044}},{"attributes":{"ID":622370,"DIS_CODE":0,"TOWNNAME":"中西區","LI":"青年里","LIN":"3鄰","STREET":"青年路","SECT":" ","MAREA":" ","LANE":" ","ALLEY":" ","HOUSE_NO":"１６７號","E_COORD97":169001.17000000001,"N_COORD97":2543610.6699999999,"ADDRESS":"青年路１６７號","OBJECTID":622343},"geometry":{"x":169001.17000000086,"y":2543610.6700000018}},{"attributes":{"ID":622371,"DIS_CODE":0,"TOWNNAME":"中西區","LI":"青年里","LIN":"3鄰","STREET":"青年路","SECT":" ","MAREA":" ","LANE":" ","ALLEY":" ","HOUSE_NO":"１６９號","E_COORD97":169006.26999999999,"N_COORD97":2543606.2200000002,"ADDRESS":"青年路１６９號","OBJECTID":622344},"geometry":{"x":169006.27000000048,"y":2543606.2199999988}},{"attributes":{"ID":622372,"DIS_CODE":0,"TOWNNAME":"中西區","LI":"青年里","LIN":"3鄰","STREET":"青年路","SECT":" ","MAREA":" ","LANE":" ","ALLEY":" ","HOUSE_NO":"１７１號","E_COORD97":169012.01000000001,"N_COORD97":2543606.5299999998,"ADDRESS":"青年路１７１號","OBJECTID":622345},"geometry":{"x":169012.01000000071,"y":2543606.5300000031}},{"attributes":{"ID":622373,"DIS_CODE":0,"TOWNNAME":"中西區","LI":"青年里","LIN":"3鄰","STREET":"青年路","SECT":" ","MAREA":" ","LANE":" ","ALLEY":" ","HOUSE_NO":"１７３號","E_COORD97":169017.75,"N_COORD97":2543602.3999999999,"ADDRESS":"青年路１７３號","OBJECTID":622346},"geometry":{"x":169017.75,"y":2543602.4000000022}},{"attributes":{"ID":622374,"DIS_CODE":0,"TOWNNAME":"中西區","LI":"青年里","LIN":"4鄰","STREET":"萬昌街","SECT":" ","MAREA":" ","LANE":" ","ALLEY":" ","HOUSE_NO":"１２１號","E_COORD97":169064.34,"N_COORD97":2543688.4500000002,"ADDRESS":"萬昌街１２１號","OBJECTID":622347},"geometry":{"x":169064.34000000078,"y":2543688.4500000011}},{"attributes":{"ID":622375,"DIS_CODE":0,"TOWNNAME":"中西區","LI":"青年里","LIN":"4鄰","STREET":"衛民街","SECT":" ","MAREA":" ","LANE":" ","ALLEY":" ","HOUSE_NO":"６３號","E_COORD97":169065.92000000001,"N_COORD97":2543702.6400000001,"ADDRESS":"衛民街６３號","OBJECTID":622348},"geometry":{"x":169065.91999999993,"y":2543702.6400000025}},{"attributes":{"ID":622376,"DIS_CODE":0,"TOWNNAME":"中西區","LI":"青年里","LIN":"4鄰","STREET":"衛民街","SECT":" ","MAREA":" ","LANE":" ","ALLEY":" ","HOUSE_NO":"６５號","E_COORD97":169058.42000000001,"N_COORD97":2543705.3999999999,"ADDRESS":"衛民街６５號","OBJECTID":622349},"geometry":{"x":169058.42000000086,"y":2543705.4000000004}},{"attributes":{"ID":622377,"DIS_CODE":0,"TOWNNAME":"中西區","LI":"青年里","LIN":"4鄰","STREET":"衛民街","SECT":" ","MAREA":" ","LANE":" ","ALLEY":" ","HOUSE_NO":"６５號之１","E_COORD97":169048.54999999999,"N_COORD97":2543708.1600000001,"ADDRESS":"衛民街６５號之１","OBJECTID":622350},"geometry":{"x":169048.55000000168,"y":2543708.1600000039}},{"attributes":{"ID":622378,"DIS_CODE":0,"TOWNNAME":"仁德區","LI":"田厝里","LIN":"4鄰","STREET":"保安路","SECT":"二段","MAREA":" ","LANE":" ","ALLEY":" ","HOUSE_NO":"４００號","E_COORD97":172207.70000000001,"N_COORD97":2537371.0600000001,"ADDRESS":"保安路二段４００號","OBJECTID":622351},"geometry":{"x":172207.70000000205,"y":2537371.0600000005}},{"attributes":{"ID":622379,"DIS_CODE":0,"TOWNNAME":"仁德區","LI":"太子里","LIN":"36鄰","STREET":"長興一街","SECT":" ","MAREA":" ","LANE":" ","ALLEY":" ","HOUSE_NO":"１０４號","E_COORD97":174301.53,"N_COORD97":2543866.25,"ADDRESS":"長興一街１０４號","OBJECTID":622352},"geometry":{"x":174301.53000000119,"y":2543866.25}},{"attributes":{"ID":622380,"DIS_CODE":0,"TOWNNAME":"仁德區","LI":"保安里","LIN":"20鄰","STREET":"保安路","SECT":"一段","MAREA":" ","LANE":" ","ALLEY":" ","HOUSE_NO":"２１號","E_COORD97":170538.62,"N_COORD97":2536195.0699999998,"ADDRESS":"保安路一段２１號","OBJECTID":622353},"geometry":{"x":170538.62000000104,"y":2536195.0700000003}},{"attributes":{"ID":622381,"DIS_CODE":0,"TOWNNAME":"仁德區","LI":"後壁里","LIN":"26鄰","STREET":"中正路","SECT":"二段","MAREA":" ","LANE":" ","ALLEY":" ","HOUSE_NO":"３０５號","E_COORD97":173243.98000000001,"N_COORD97":2539106.52,"ADDRESS":"中正路二段３０５號","OBJECTID":622354},"geometry":{"x":173243.98000000138,"y":2539106.5199999996}},{"attributes":{"ID":622382,"DIS_CODE":0,"TOWNNAME":"仁德區","LI":"太子里","LIN":"18鄰","STREET":"太子路","SECT":" ","MAREA":" ","LANE":" ","ALLEY":" ","HOUSE_NO":"２８４號","E_COORD97":174049.98999999999,"N_COORD97":2543521.2599999998,"ADDRESS":"太子路２８４號","OBJECTID":622355},"geometry":{"x":174049.99000000022,"y":2543521.2600000016}},{"attributes":{"ID":622383,"DIS_CODE":0,"TOWNNAME":"仁德區","LI":"成功里","LIN":"20鄰","STREET":"成功一街","SECT":" ","MAREA":" ","LANE":" ","ALLEY":" ","HOUSE_NO":"９２號","E_COORD97":170530.605668,"N_COORD97":2539839.0006599999,"ADDRESS":"成功一街９２號","OBJECTID":622356},"geometry":{"x":170530.60566800088,"y":2539839.0006579999}},{"attributes":{"ID":622384,"DIS_CODE":0,"TOWNNAME":"仁德區","LI":"仁德里","LIN":"25鄰","STREET":"淨修街","SECT":" ","MAREA":" ","LANE":" ","ALLEY":" ","HOUSE_NO":"１４７號","E_COORD97":171886.70000000001,"N_COORD97":2541340.75,"ADDRESS":"淨修街１４７號","OBJECTID":622357},"geometry":{"x":171886.70000000019,"y":2541340.7500000037}},{"attributes":{"ID":622385,"DIS_CODE":0,"TOWNNAME":"仁德區","LI":"保安里","LIN":"13鄰","STREET":"二仁路","SECT":"一段","MAREA":" ","LANE":" ","ALLEY":" ","HOUSE_NO":"１３８號","E_COORD97":170417.59,"N_COORD97":2535961.7799999998,"ADDRESS":"二仁路一段１３８號","OBJECTID":622358},"geometry":{"x":170417.58999999985,"y":2535961.7799999993}},{"attributes":{"ID":622386,"DIS_CODE":0,"TOWNNAME":"仁德區","LI":"田厝里","LIN":"4鄰","STREET":"保安路","SECT":"二段","MAREA":" ","LANE":" ","ALLEY":" ","HOUSE_NO":"４９６號","E_COORD97":172479.41,"N_COORD97":2537529.8199999998,"ADDRESS":"保安路二段４９６號","OBJECTID":622359},"geometry":{"x":172479.41000000108,"y":2537529.820000004}},{"attributes":{"ID":622387,"DIS_CODE":0,"TOWNNAME":"仁德區","LI":"太子里","LIN":"36鄰","STREET":"長興一街","SECT":" ","MAREA":" ","LANE":" ","ALLEY":" ","HOUSE_NO":"１０８號","E_COORD97":174258.26999999999,"N_COORD97":2543872.5,"ADDRESS":"長興一街１０８號","OBJECTID":622360},"geometry":{"x":174258.27000000048,"y":2543872.5000000019}},{"attributes":{"ID":622388,"DIS_CODE":0,"TOWNNAME":"仁德區","LI":"後壁里","LIN":"26鄰","STREET":"中正路","SECT":"二段","MAREA":" ","LANE":" ","ALLEY":" ","HOUSE_NO":"３２９號","E_COORD97":173249.12,"N_COORD97":2539157.0299999998,"ADDRESS":"中正路二段３２９號","OBJECTID":622361},"geometry":{"x":173249.12000000197,"y":2539157.0299999993}},{"attributes":{"ID":622389,"DIS_CODE":0,"TOWNNAME":"仁德區","LI":"田厝里","LIN":"4鄰","STREET":"保安路","SECT":"二段","MAREA":" ","LANE":" ","ALLEY":" ","HOUSE_NO":"５０２號","E_COORD97":172491.5,"N_COORD97":2537535.0699999998,"ADDRESS":"保安路二段５０２號","OBJECTID":622362},"geometry":{"x":172491.5,"y":2537535.070000004}},{"attributes":{"ID":622390,"DIS_CODE":0,"TOWNNAME":"仁德區","LI":"保安里","LIN":"20鄰","STREET":"保安路","SECT":"一段","MAREA":" ","LANE":" ","ALLEY":" ","HOUSE_NO":"１７號之１１","E_COORD97":170531.23999999999,"N_COORD97":2536102.8100000001,"ADDRESS":"保安路一段１７號之１１","OBJECTID":622363},"geometry":{"x":170531.24000000115,"y":2536102.8100000042}},{"attributes":{"ID":622391,"DIS_CODE":0,"TOWNNAME":"仁德區","LI":"仁德里","LIN":"4鄰","STREET":"中正路","SECT":"二段","MAREA":" ","LANE":" ","ALLEY":" ","HOUSE_NO":"９０１號","E_COORD97":173422.63,"N_COORD97":2540646.2799999998,"ADDRESS":"中正路二段９０１號","OBJECTID":622364},"geometry":{"x":173422.62999999989,"y":2540646.2800000012}},{"attributes":{"ID":622392,"DIS_CODE":0,"TOWNNAME":"仁德區","LI":"田厝里","LIN":"5鄰","STREET":"田厝三街","SECT":" ","MAREA":" ","LANE":" ","ALLEY":" ","HOUSE_NO":"４７號","E_COORD97":172466.88,"N_COORD97":2537388.4900000002,"ADDRESS":"田厝三街４７號","OBJECTID":622365},"geometry":{"x":172466.87999999989,"y":2537388.4900000002}},{"attributes":{"ID":622393,"DIS_CODE":0,"TOWNNAME":"仁德區","LI":"保安里","LIN":"20鄰","STREET":"保安路","SECT":"一段","MAREA":" ","LANE":" ","ALLEY":" ","HOUSE_NO":"９１號","E_COORD97":171025.70000000001,"N_COORD97":2536808.0699999998,"ADDRESS":"保安路一段９１號","OBJECTID":622366},"geometry":{"x":171025.70000000019,"y":2536808.0700000003}},{"attributes":{"ID":622394,"DIS_CODE":0,"TOWNNAME":"仁德區","LI":"太子里","LIN":"26鄰","STREET":"太子路","SECT":" ","MAREA":" ","LANE":" ","ALLEY":" ","HOUSE_NO":"４０８號","E_COORD97":173603.92000000001,"N_COORD97":2543547.5099999998,"ADDRESS":"太子路４０８號","OBJECTID":622367},"geometry":{"x":173603.91999999993,"y":2543547.5100000016}},{"attributes":{"ID":622395,"DIS_CODE":0,"TOWNNAME":"仁德區","LI":"成功里","LIN":"14鄰","STREET":"全福路","SECT":" ","MAREA":" ","LANE":" ","ALLEY":" ","HOUSE_NO":"４１號","E_COORD97":170930.42999999999,"N_COORD97":2539324.2400000002,"ADDRESS":"全福路４１號","OBJECTID":622368},"geometry":{"x":170930.4299999997,"y":2539324.2400000021}},{"attributes":{"ID":622396,"DIS_CODE":0,"TOWNNAME":"仁德區","LI":"田厝里","LIN":"1鄰","STREET":"保安路","SECT":"二段","MAREA":" ","LANE":" ","ALLEY":" ","HOUSE_NO":"６２８號","E_COORD97":172770.76000000001,"N_COORD97":2537585.3100000001,"ADDRESS":"保安路二段６２８號","OBJECTID":622369},"geometry":{"x":172770.75999999978,"y":2537585.3100000024}},{"attributes":{"ID":622397,"DIS_CODE":0,"TOWNNAME":"仁德區","LI":"仁德里","LIN":"4鄰","STREET":"中正路","SECT":"二段","MAREA":" ","LANE":" ","ALLEY":" ","HOUSE_NO":"８８５號","E_COORD97":173425.42999999999,"N_COORD97":2540611.5299999998,"ADDRESS":"中正路二段８８５號","OBJECTID":622370},"geometry":{"x":173425.4299999997,"y":2540611.5299999993}},{"attributes":{"ID":622398,"DIS_CODE":0,"TOWNNAME":"仁德區","LI":"仁德里","LIN":"4鄰","STREET":"中正路","SECT":"二段","MAREA":" ","LANE":" ","ALLEY":" ","HOUSE_NO":"９０５號","E_COORD97":173402.82000000001,"N_COORD97":2540652.2799999998,"ADDRESS":"中正路二段９０５號","OBJECTID":622371},"geometry":{"x":173402.82000000123,"y":2540652.2800000012}},{"attributes":{"ID":622399,"DIS_CODE":0,"TOWNNAME":"仁德區","LI":"太子里","LIN":"26鄰","STREET":"太子路","SECT":" ","MAREA":" ","LANE":" ","ALLEY":" ","HOUSE_NO":"３９２號","E_COORD97":173640.28,"N_COORD97":2543545.2599999998,"ADDRESS":"太子路３９２號","OBJECTID":622372},"geometry":{"x":173640.28000000119,"y":2543545.2600000016}},{"attributes":{"ID":622400,"DIS_CODE":0,"TOWNNAME":"仁德區","LI":"太子里","LIN":"25鄰","STREET":"長興五街","SECT":" ","MAREA":" ","LANE":" ","ALLEY":" ","HOUSE_NO":"２７之１號","E_COORD97":173546.36464499999,"N_COORD97":2543624.4145399998,"ADDRESS":"長興五街２７之１號","OBJECTID":622373},"geometry":{"x":173546.36464499962,"y":2543624.4145350009}},{"attributes":{"ID":622401,"DIS_CODE":0,"TOWNNAME":"仁德區","LI":"田厝里","LIN":"5鄰","STREET":"田厝三街","SECT":" ","MAREA":" ","LANE":" ","ALLEY":" ","HOUSE_NO":"６３號","E_COORD97":172496.85000000001,"N_COORD97":2537378.9900000002,"ADDRESS":"田厝三街６３號","OBJECTID":622374},"geometry":{"x":172496.84999999963,"y":2537378.9900000002}},{"attributes":{"ID":622402,"DIS_CODE":0,"TOWNNAME":"仁德區","LI":"保安里","LIN":"5鄰","STREET":"中正路","SECT":"一段","MAREA":" ","LANE":" ","ALLEY":" ","HOUSE_NO":"１８８號","E_COORD97":171566.48000000001,"N_COORD97":2535753.0299999998,"ADDRESS":"中正路一段１８８號","OBJECTID":622375},"geometry":{"x":171566.48000000045,"y":2535753.0299999993}},{"attributes":{"ID":622403,"DIS_CODE":0,"TOWNNAME":"仁德區","LI":"太子里","LIN":"18鄰","STREET":"太子路","SECT":" ","MAREA":" ","LANE":" ","ALLEY":" ","HOUSE_NO":"２７４號","E_COORD97":174077.45999999999,"N_COORD97":2543517.0099999998,"ADDRESS":"太子路２７４號","OBJECTID":622376},"geometry":{"x":174077.46000000089,"y":2543517.0100000016}},{"attributes":{"ID":622404,"DIS_CODE":0,"TOWNNAME":"仁德區","LI":"太子里","LIN":"26鄰","STREET":"太子路","SECT":" ","MAREA":" ","LANE":" ","ALLEY":" ","HOUSE_NO":"３９６號","E_COORD97":173631.01000000001,"N_COORD97":2543546.0099999998,"ADDRESS":"太子路３９６號","OBJECTID":622377},"geometry":{"x":173631.01000000071,"y":2543546.0100000035}},{"attributes":{"ID":622405,"DIS_CODE":0,"TOWNNAME":"仁德區","LI":"太子里","LIN":"25鄰","STREET":"長興五街","SECT":" ","MAREA":" ","LANE":" ","ALLEY":" ","HOUSE_NO":"１８號","E_COORD97":173578.42999999999,"N_COORD97":2543611.0099999998,"ADDRESS":"長興五街１６號","OBJECTID":622378},"geometry":{"x":173578.4299999997,"y":2543611.0100000016}},{"attributes":{"ID":622406,"DIS_CODE":0,"TOWNNAME":"仁德區","LI":"田厝里","LIN":"4鄰","STREET":"保安路","SECT":"二段","MAREA":" ","LANE":" ","ALLEY":" ","HOUSE_NO":"５１０號","E_COORD97":172506.56,"N_COORD97":2537541.8199999998,"ADDRESS":"保安路二段５１０號","OBJECTID":622379},"geometry":{"x":172506.56000000052,"y":2537541.8200000003}},{"attributes":{"ID":622407,"DIS_CODE":0,"TOWNNAME":"仁德區","LI":"太子里","LIN":"26鄰","STREET":"太子路","SECT":" ","MAREA":" ","LANE":" ","ALLEY":" ","HOUSE_NO":"３８４號","E_COORD97":173659.20000000001,"N_COORD97":2543544.5099999998,"ADDRESS":"太子路３８４號","OBJECTID":622380},"geometry":{"x":173659.20000000112,"y":2543544.5099999998}},{"attributes":{"ID":622408,"DIS_CODE":0,"TOWNNAME":"仁德區","LI":"田厝里","LIN":"4鄰","STREET":"保安路","SECT":"二段","MAREA":" ","LANE":" ","ALLEY":" ","HOUSE_NO":"５０８號","E_COORD97":172503.10000000001,"N_COORD97":2537540.0699999998,"ADDRESS":"保安路二段５０８號","OBJECTID":622381},"geometry":{"x":172503.10000000056,"y":2537540.0700000003}},{"attributes":{"ID":622409,"DIS_CODE":0,"TOWNNAME":"仁德區","LI":"田厝里","LIN":"4鄰","STREET":"保安路","SECT":"二段","MAREA":" ","LANE":" ","ALLEY":" ","HOUSE_NO":"５０４號","E_COORD97":172495.37,"N_COORD97":2537536.8199999998,"ADDRESS":"保安路二段５０４號","OBJECTID":622382},"geometry":{"x":172495.37000000104,"y":2537536.820000004}},{"attributes":{"ID":622410,"DIS_CODE":0,"TOWNNAME":"仁德區","LI":"太子里","LIN":"38鄰","STREET":"長興一街","SECT":" ","MAREA":" ","LANE":" ","ALLEY":" ","HOUSE_NO":"６３號","E_COORD97":174469.98000000001,"N_COORD97":2543817.2599999998,"ADDRESS":"長興一街６３號","OBJECTID":622383},"geometry":{"x":174469.98000000138,"y":2543817.2599999998}},{"attributes":{"ID":622411,"DIS_CODE":0,"TOWNNAME":"仁德區","LI":"保安里","LIN":"18鄰","STREET":"中正路","SECT":"一段","MAREA":" ","LANE":" ","ALLEY":" ","HOUSE_NO":"７３號","E_COORD97":170956.32000000001,"N_COORD97":2535556.0299999998,"ADDRESS":"中正路一段７３號","OBJECTID":622384},"geometry":{"x":170956.32000000123,"y":2535556.0299999993}},{"attributes":{"ID":622412,"DIS_CODE":0,"TOWNNAME":"仁德區","LI":"保安里","LIN":"13鄰","STREET":"二仁路","SECT":"一段","MAREA":" ","LANE":" ","ALLEY":" ","HOUSE_NO":"１５４號","E_COORD97":170366.42000000001,"N_COORD97":2536119.27,"ADDRESS":"二仁路一段１５４號","OBJECTID":622385},"geometry":{"x":170366.41999999993,"y":2536119.2700000014}},{"attributes":{"ID":622413,"DIS_CODE":0,"TOWNNAME":"仁德區","LI":"太子里","LIN":"26鄰","STREET":"太子路","SECT":" ","MAREA":" ","LANE":" ","ALLEY":" ","HOUSE_NO":"４０６號","E_COORD97":173608.59,"N_COORD97":2543547.2599999998,"ADDRESS":"太子路４０６號","OBJECTID":622386},"geometry":{"x":173608.59000000078,"y":2543547.2599999998}},{"attributes":{"ID":622414,"DIS_CODE":0,"TOWNNAME":"仁德區","LI":"太子里","LIN":"26鄰","STREET":"太子路","SECT":" ","MAREA":" ","LANE":" ","ALLEY":" ","HOUSE_NO":"４１２號","E_COORD97":173595.07000000001,"N_COORD97":2543548.7599999998,"ADDRESS":"太子路４１２號","OBJECTID":622387},"geometry":{"x":173595.0700000003,"y":2543548.7600000016}},{"attributes":{"ID":622415,"DIS_CODE":0,"TOWNNAME":"仁德區","LI":"太子里","LIN":"41鄰","STREET":"太子路","SECT":" ","MAREA":" ","LANE":" ","ALLEY":" ","HOUSE_NO":"６２號","E_COORD97":175230.87,"N_COORD97":2543565,"ADDRESS":"太子路６２號","OBJECTID":622388},"geometry":{"x":175230.87000000104,"y":2543565}},{"attributes":{"ID":622416,"DIS_CODE":0,"TOWNNAME":"仁德區","LI":"太子里","LIN":"41鄰","STREET":"太子路","SECT":" ","MAREA":" ","LANE":" ","ALLEY":" ","HOUSE_NO":"４８號","E_COORD97":175258.85000000001,"N_COORD97":2543566.25,"ADDRESS":"太子路４８號","OBJECTID":622389},"geometry":{"x":175258.84999999963,"y":2543566.2500000019}},{"attributes":{"ID":622417,"DIS_CODE":0,"TOWNNAME":"仁德區","LI":"保安里","LIN":"13鄰","STREET":"二仁路","SECT":"一段","MAREA":" ","LANE":" ","ALLEY":" ","HOUSE_NO":"７０號","E_COORD97":170504.79000000001,"N_COORD97":2535780.0299999998,"ADDRESS":"二仁路一段７０號","OBJECTID":622390},"geometry":{"x":170504.79000000004,"y":2535780.0299999993}},{"attributes":{"ID":622418,"DIS_CODE":0,"TOWNNAME":"仁德區","LI":"田厝里","LIN":"4鄰","STREET":"保安路","SECT":"二段","MAREA":" ","LANE":" ","ALLEY":" ","HOUSE_NO":"４８４號","E_COORD97":172455.14999999999,"N_COORD97":2537518.8199999998,"ADDRESS":"保安路二段４８４號","OBJECTID":622391},"geometry":{"x":172455.15000000037,"y":2537518.8200000003}},{"attributes":{"ID":622419,"DIS_CODE":0,"TOWNNAME":"仁德區","LI":"仁德里","LIN":"4鄰","STREET":"中正路","SECT":"二段","MAREA":" ","LANE":" ","ALLEY":" ","HOUSE_NO":"８７９號","E_COORD97":173356.26999999999,"N_COORD97":2540646.5299999998,"ADDRESS":"中正路二段８７９號","OBJECTID":622392},"geometry":{"x":173356.27000000048,"y":2540646.5300000031}},{"attributes":{"ID":622420,"DIS_CODE":0,"TOWNNAME":"仁德區","LI":"後壁里","LIN":"20鄰","STREET":"中正路","SECT":"二段","MAREA":" ","LANE":" ","ALLEY":" ","HOUSE_NO":"１０４號","E_COORD97":173170.85000000001,"N_COORD97":2538426.27,"ADDRESS":"中正路二段１０４號","OBJECTID":622393},"geometry":{"x":173170.85000000056,"y":2538426.2699999996}},{"attributes":{"ID":622421,"DIS_CODE":0,"TOWNNAME":"仁德區","LI":"太子里","LIN":"26鄰","STREET":"太子路","SECT":" ","MAREA":" ","LANE":" ","ALLEY":" ","HOUSE_NO":"３９４號","E_COORD97":173635.92000000001,"N_COORD97":2543545.7599999998,"ADDRESS":"太子路３９４號","OBJECTID":622394},"geometry":{"x":173635.91999999993,"y":2543545.7600000016}},{"attributes":{"ID":622422,"DIS_CODE":0,"TOWNNAME":"仁德區","LI":"成功里","LIN":"25鄰","STREET":"成功一街","SECT":" ","MAREA":" ","LANE":" ","ALLEY":" ","HOUSE_NO":"５２號","E_COORD97":170525.57999999999,"N_COORD97":2539957.2599999998,"ADDRESS":"成功一街５２號","OBJECTID":622395},"geometry":{"x":170525.58000000101,"y":2539957.2600000035}},{"attributes":{"ID":622423,"DIS_CODE":0,"TOWNNAME":"仁德區","LI":"仁德里","LIN":"13鄰","STREET":"中正路","SECT":"三段","MAREA":" ","LANE":" ","ALLEY":" ","HOUSE_NO":"２１號","E_COORD97":173311.10000000001,"N_COORD97":2541474.5299999998,"ADDRESS":"中正路三段２１號","OBJECTID":622396},"geometry":{"x":173311.09999999963,"y":2541474.5300000012}},{"attributes":{"ID":622424,"DIS_CODE":0,"TOWNNAME":"仁德區","LI":"保安里","LIN":"13鄰","STREET":"二仁路","SECT":"一段","MAREA":" ","LANE":" ","ALLEY":" ","HOUSE_NO":"１７２號","E_COORD97":170241.20000000001,"N_COORD97":2536333.52,"ADDRESS":"二仁路一段１７２號","OBJECTID":622397},"geometry":{"x":170241.19999999925,"y":2536333.5199999996}},{"attributes":{"ID":622425,"DIS_CODE":0,"TOWNNAME":"仁德區","LI":"田厝里","LIN":"8鄰","STREET":"田厝二街","SECT":" ","MAREA":" ","LANE":" ","ALLEY":" ","HOUSE_NO":"３６號","E_COORD97":172450.87,"N_COORD97":2537602,"ADDRESS":"田厝二街３６號","OBJECTID":622398},"geometry":{"x":172450.87000000104,"y":2537602}},{"attributes":{"ID":622426,"DIS_CODE":0,"TOWNNAME":"仁德區","LI":"新田里","LIN":"4鄰","STREET":"勝利一街","SECT":" ","MAREA":" ","LANE":" ","ALLEY":" ","HOUSE_NO":"２９號","E_COORD97":173979.85999999999,"N_COORD97":2539465.5099999998,"ADDRESS":"勝利一街２９號","OBJECTID":622399},"geometry":{"x":173979.8599999994,"y":2539465.5100000016}},{"attributes":{"ID":622427,"DIS_CODE":0,"TOWNNAME":"仁德區","LI":"太子里","LIN":"18鄰","STREET":"太子路","SECT":" ","MAREA":" ","LANE":" ","ALLEY":" ","HOUSE_NO":"２８６號","E_COORD97":174043.89999999999,"N_COORD97":2543521.7599999998,"ADDRESS":"太子路２８６號","OBJECTID":622400},"geometry":{"x":174043.90000000037,"y":2543521.7600000016}}]}