{"displayFieldName":"TOWNNAME","fieldAliases":{"ID":"ID","DIS_CODE":"DIS_CODE","TOWNNAME":"TOWNNAME","LI":"LI","LIN":"LIN","STREET":"STREET","SECT":"SECT","MAREA":"MAREA","LANE":"LANE","ALLEY":"ALLEY","HOUSE_NO":"HOUSE_NO","E_COORD97":"E_COORD97","N_COORD97":"N_COORD97","ADDRESS":"ADDRESS","OBJECTID":"OBJECTID"},"geometryType":"esriGeometryPoint","spatialReference":{"wkid":102443,"latestWkid":3826},"fields":[{"name":"ID","type":"esriFieldTypeDouble","alias":"ID"},{"name":"DIS_CODE","type":"esriFieldTypeInteger","alias":"DIS_CODE"},{"name":"TOWNNAME","type":"esriFieldTypeString","alias":"TOWNNAME","length":8},{"name":"LI","type":"esriFieldTypeString","alias":"LI","length":8},{"name":"LIN","type":"esriFieldTypeString","alias":"LIN","length":12},{"name":"STREET","type":"esriFieldTypeString","alias":"STREET","length":20},{"name":"SECT","type":"esriFieldTypeString","alias":"SECT","length":8},{"name":"MAREA","type":"esriFieldTypeString","alias":"MAREA","length":12},{"name":"LANE","type":"esriFieldTypeString","alias":"LANE","length":10},{"name":"ALLEY","type":"esriFieldTypeString","alias":"ALLEY","length":10},{"name":"HOUSE_NO","type":"esriFieldTypeString","alias":"HOUSE_NO","length":20},{"name":"E_COORD97","type":"esriFieldTypeDouble","alias":"E_COORD97"},{"name":"N_COORD97","type":"esriFieldTypeDouble","alias":"N_COORD97"},{"name":"ADDRESS","type":"esriFieldTypeString","alias":"ADDRESS","length":50},{"name":"OBJECTID","type":"esriFieldTypeOID","alias":"OBJECTID"}],"features":[{"attributes":{"ID":76201,"DIS_CODE":0,"TOWNNAME":"安南區","LI":"頂安里","LIN":"19鄰","STREET":"北安路","SECT":"三段","MAREA":" ","LANE":"３９６巷","ALLEY":"１６弄","HOUSE_NO":"１０號","E_COORD97":168842.06,"N_COORD97":2549556.96,"ADDRESS":"北安路三段３９６巷１６弄１０號","OBJECTID":76201},"geometry":{"x":168842.06000000052,"y":2549556.9600000009}},{"attributes":{"ID":76202,"DIS_CODE":0,"TOWNNAME":"新營區","LI":"太北里","LIN":"7鄰","STREET":" ","SECT":" ","MAREA":"太子宮","LANE":" ","ALLEY":" ","HOUSE_NO":"６２號","E_COORD97":175974,"N_COORD97":2577164.77,"ADDRESS":"太子宮６２號","OBJECTID":76202},"geometry":{"x":175974.00000000186,"y":2577164.7699999996}},{"attributes":{"ID":76203,"DIS_CODE":0,"TOWNNAME":"東山區","LI":"水雲里","LIN":"7鄰","STREET":" ","SECT":" ","MAREA":"牛肉崎","LANE":" ","ALLEY":" ","HOUSE_NO":"４６號","E_COORD97":190706.62,"N_COORD97":2573931.3900000001,"ADDRESS":"牛肉崎４６號","OBJECTID":76203},"geometry":{"x":190706.62000000104,"y":2573931.3900000006}},{"attributes":{"ID":76204,"DIS_CODE":0,"TOWNNAME":"安南區","LI":"頂安里","LIN":"19鄰","STREET":"北安路","SECT":"三段","MAREA":" ","LANE":"３９６巷","ALLEY":"１６弄","HOUSE_NO":"１２號","E_COORD97":168839.26999999999,"N_COORD97":2549553.8700000001,"ADDRESS":"北安路三段３９６巷１６弄１２號","OBJECTID":76204},"geometry":{"x":168839.26999999955,"y":2549553.8700000029}},{"attributes":{"ID":76205,"DIS_CODE":0,"TOWNNAME":"安南區","LI":"頂安里","LIN":"19鄰","STREET":"北安路","SECT":"三段","MAREA":" ","LANE":"３９６巷","ALLEY":"１６弄","HOUSE_NO":"１４號","E_COORD97":168836.17000000001,"N_COORD97":2549550.46,"ADDRESS":"北安路三段３９６巷１６弄１４號","OBJECTID":76205},"geometry":{"x":168836.17000000086,"y":2549550.4600000009}},{"attributes":{"ID":76206,"DIS_CODE":0,"TOWNNAME":"安南區","LI":"頂安里","LIN":"19鄰","STREET":"北安路","SECT":"三段","MAREA":" ","LANE":"３９６巷","ALLEY":"１６弄","HOUSE_NO":"１６號","E_COORD97":168833.07000000001,"N_COORD97":2549548.29,"ADDRESS":"北安路三段３９６巷１６弄１６號","OBJECTID":76206},"geometry":{"x":168833.0700000003,"y":2549548.290000001}},{"attributes":{"ID":76207,"DIS_CODE":0,"TOWNNAME":"東山區","LI":"聖賢里","LIN":"7鄰","STREET":" ","SECT":" ","MAREA":"北勢寮","LANE":" ","ALLEY":" ","HOUSE_NO":"６１號","E_COORD97":185056.59,"N_COORD97":2579531.77,"ADDRESS":"北勢寮６１號","OBJECTID":76207},"geometry":{"x":185056.59000000078,"y":2579531.7699999996}},{"attributes":{"ID":76208,"DIS_CODE":0,"TOWNNAME":"安南區","LI":"頂安里","LIN":"19鄰","STREET":"北安路","SECT":"三段","MAREA":" ","LANE":"３９６巷","ALLEY":"１６弄","HOUSE_NO":"２號","E_COORD97":168854.76999999999,"N_COORD97":2549567.5,"ADDRESS":"北安路三段３９６巷１６弄２號","OBJECTID":76208},"geometry":{"x":168854.76999999955,"y":2549567.5000000037}},{"attributes":{"ID":76209,"DIS_CODE":0,"TOWNNAME":"新營區","LI":"延平里","LIN":"7鄰","STREET":"復興路","SECT":" ","MAREA":" ","LANE":" ","ALLEY":" ","HOUSE_NO":"１之１３號","E_COORD97":179720.22,"N_COORD97":2577966.1099999999,"ADDRESS":"復興路１之１３號","OBJECTID":76209},"geometry":{"x":179720.2200000016,"y":2577966.1099999994}},{"attributes":{"ID":76210,"DIS_CODE":0,"TOWNNAME":"東山區","LI":"聖賢里","LIN":"7鄰","STREET":" ","SECT":" ","MAREA":"北勢寮","LANE":" ","ALLEY":" ","HOUSE_NO":"６３號","E_COORD97":185020.69,"N_COORD97":2579523.1200000001,"ADDRESS":"北勢寮６３號","OBJECTID":76210},"geometry":{"x":185020.69000000134,"y":2579523.1200000029}},{"attributes":{"ID":76211,"DIS_CODE":0,"TOWNNAME":"新營區","LI":"民權里","LIN":"7鄰","STREET":"文化街","SECT":" ","MAREA":" ","LANE":" ","ALLEY":" ","HOUSE_NO":"１４號","E_COORD97":179816.37,"N_COORD97":2578061.9399999999,"ADDRESS":"文化街１４號","OBJECTID":76211},"geometry":{"x":179816.37000000104,"y":2578061.9399999995}},{"attributes":{"ID":76212,"DIS_CODE":0,"TOWNNAME":"東山區","LI":"聖賢里","LIN":"7鄰","STREET":" ","SECT":" ","MAREA":"北勢寮","LANE":" ","ALLEY":" ","HOUSE_NO":"６４號","E_COORD97":185001.76000000001,"N_COORD97":2579546.79,"ADDRESS":"北勢寮６４號","OBJECTID":76212},"geometry":{"x":185001.75999999978,"y":2579546.790000001}},{"attributes":{"ID":76213,"DIS_CODE":0,"TOWNNAME":"東山區","LI":"聖賢里","LIN":"7鄰","STREET":" ","SECT":" ","MAREA":"北勢寮","LANE":" ","ALLEY":" ","HOUSE_NO":"６５號","E_COORD97":184990.70999999999,"N_COORD97":2579531.2999999998,"ADDRESS":"北勢寮６５號","OBJECTID":76213},"geometry":{"x":184990.70999999903,"y":2579531.3000000026}},{"attributes":{"ID":76214,"DIS_CODE":0,"TOWNNAME":"東山區","LI":"聖賢里","LIN":"7鄰","STREET":" ","SECT":" ","MAREA":"北勢寮","LANE":" ","ALLEY":" ","HOUSE_NO":"６６號","E_COORD97":184979.75,"N_COORD97":2579508.04,"ADDRESS":"北勢寮６６號","OBJECTID":76214},"geometry":{"x":184979.75,"y":2579508.040000001}},{"attributes":{"ID":76215,"DIS_CODE":0,"TOWNNAME":"安定區","LI":"蘇林里","LIN":"6鄰","STREET":" ","SECT":" ","MAREA":"蘇厝","LANE":" ","ALLEY":" ","HOUSE_NO":"７４號之５","E_COORD97":173871.76000000001,"N_COORD97":2558685.2999999998,"ADDRESS":"蘇厝７４號之５","OBJECTID":76215},"geometry":{"x":173871.76000000071,"y":2558685.3000000007}},{"attributes":{"ID":76216,"DIS_CODE":0,"TOWNNAME":"安定區","LI":"蘇林里","LIN":"6鄰","STREET":" ","SECT":" ","MAREA":"蘇厝","LANE":" ","ALLEY":" ","HOUSE_NO":"６５號","E_COORD97":173592.17000000001,"N_COORD97":2558670.25,"ADDRESS":"蘇厝６５號","OBJECTID":76216},"geometry":{"x":173592.16999999993,"y":2558670.2500000019}},{"attributes":{"ID":76217,"DIS_CODE":0,"TOWNNAME":"安定區","LI":"蘇林里","LIN":"6鄰","STREET":" ","SECT":" ","MAREA":"蘇厝","LANE":" ","ALLEY":" ","HOUSE_NO":"６６之３號","E_COORD97":173636.37,"N_COORD97":2558627.2999999998,"ADDRESS":"蘇厝６６之３號","OBJECTID":76217},"geometry":{"x":173636.37000000011,"y":2558627.3000000007}},{"attributes":{"ID":76218,"DIS_CODE":0,"TOWNNAME":"安定區","LI":"蘇林里","LIN":"6鄰","STREET":" ","SECT":" ","MAREA":"蘇厝","LANE":" ","ALLEY":" ","HOUSE_NO":"７４號","E_COORD97":173748.87,"N_COORD97":2558665.25,"ADDRESS":"蘇厝７４號","OBJECTID":76218},"geometry":{"x":173748.87000000011,"y":2558665.25}},{"attributes":{"ID":76219,"DIS_CODE":0,"TOWNNAME":"東山區","LI":"東河里","LIN":"7鄰","STREET":" ","SECT":" ","MAREA":"吉貝耍","LANE":" ","ALLEY":" ","HOUSE_NO":"５３號之１０","E_COORD97":187240.66,"N_COORD97":2577150.8999999999,"ADDRESS":"吉貝耍５３號之１０","OBJECTID":76219},"geometry":{"x":187240.66000000015,"y":2577150.9000000022}},{"attributes":{"ID":76220,"DIS_CODE":0,"TOWNNAME":"新營區","LI":"忠政里","LIN":"20鄰","STREET":"府西路","SECT":" ","MAREA":" ","LANE":" ","ALLEY":" ","HOUSE_NO":"２５４號","E_COORD97":179811.97,"N_COORD97":2579658.9199999999,"ADDRESS":"府西路２５４號","OBJECTID":76220},"geometry":{"x":179811.97000000067,"y":2579658.9200000018}},{"attributes":{"ID":76221,"DIS_CODE":0,"TOWNNAME":"東山區","LI":"青山里","LIN":"7鄰","STREET":" ","SECT":" ","MAREA":"青山","LANE":" ","ALLEY":" ","HOUSE_NO":"６１號之４","E_COORD97":196422.95000000001,"N_COORD97":2575581.0699999998,"ADDRESS":"青山６１號之４","OBJECTID":76221},"geometry":{"x":196422.95000000019,"y":2575581.0700000003}},{"attributes":{"ID":76222,"DIS_CODE":0,"TOWNNAME":"安南區","LI":"頂安里","LIN":"19鄰","STREET":"北安路","SECT":"三段","MAREA":" ","LANE":"３９６巷","ALLEY":"１６弄","HOUSE_NO":"６號","E_COORD97":168848.57000000001,"N_COORD97":2549561.2999999998,"ADDRESS":"北安路三段３９６巷１６弄６號","OBJECTID":76222},"geometry":{"x":168848.5700000003,"y":2549561.3000000007}},{"attributes":{"ID":76223,"DIS_CODE":0,"TOWNNAME":"東山區","LI":"青山里","LIN":"7鄰","STREET":" ","SECT":" ","MAREA":"青山","LANE":" ","ALLEY":" ","HOUSE_NO":"６１號之５","E_COORD97":196421.48999999999,"N_COORD97":2575586.27,"ADDRESS":"青山６１號之５","OBJECTID":76223},"geometry":{"x":196421.49000000209,"y":2575586.2700000033}},{"attributes":{"ID":76224,"DIS_CODE":0,"TOWNNAME":"東山區","LI":"青山里","LIN":"7鄰","STREET":" ","SECT":" ","MAREA":"青山","LANE":" ","ALLEY":" ","HOUSE_NO":"６１號","E_COORD97":196458.66,"N_COORD97":2575512,"ADDRESS":"青山６１號","OBJECTID":76224},"geometry":{"x":196458.66000000015,"y":2575512.0000000019}},{"attributes":{"ID":76225,"DIS_CODE":0,"TOWNNAME":"麻豆區","LI":"埤頭里","LIN":"7鄰","STREET":" ","SECT":" ","MAREA":"埤頭","LANE":" ","ALLEY":" ","HOUSE_NO":"４８號","E_COORD97":170946.5,"N_COORD97":2566013.3100000001,"ADDRESS":"埤頭４８號","OBJECTID":76225},"geometry":{"x":170946.50000000093,"y":2566013.3100000024}},{"attributes":{"ID":76226,"DIS_CODE":0,"TOWNNAME":"安南區","LI":"頂安里","LIN":"19鄰","STREET":"北安路","SECT":"三段","MAREA":" ","LANE":"３９６巷","ALLEY":"１６弄","HOUSE_NO":"８號","E_COORD97":168846.09,"N_COORD97":2549558.8199999998,"ADDRESS":"北安路三段３９６巷１６弄８號","OBJECTID":76226},"geometry":{"x":168846.08999999985,"y":2549558.820000004}},{"attributes":{"ID":76227,"DIS_CODE":0,"TOWNNAME":"安南區","LI":"頂安里","LIN":"19鄰","STREET":"北安路","SECT":"三段","MAREA":" ","LANE":"３９６巷","ALLEY":"５０弄","HOUSE_NO":"１０１號","E_COORD97":168846.14000000001,"N_COORD97":2549445.8700000001,"ADDRESS":"北安路三段３９６巷５０弄１０１號","OBJECTID":76227},"geometry":{"x":168846.1400000006,"y":2549445.870000001}},{"attributes":{"ID":76228,"DIS_CODE":0,"TOWNNAME":"安南區","LI":"頂安里","LIN":"19鄰","STREET":"北安路","SECT":"三段","MAREA":" ","LANE":"３９６巷","ALLEY":"５０弄","HOUSE_NO":"１０３號","E_COORD97":168849.39999999999,"N_COORD97":2549442.9100000001,"ADDRESS":"北安路三段３９６巷５０弄１０３號","OBJECTID":76228},"geometry":{"x":168849.40000000037,"y":2549442.9100000039}},{"attributes":{"ID":76229,"DIS_CODE":0,"TOWNNAME":"鹽水區","LI":"下中里","LIN":"7鄰","STREET":" ","SECT":" ","MAREA":"下中","LANE":" ","ALLEY":" ","HOUSE_NO":"４６之２７號","E_COORD97":172439.12,"N_COORD97":2579785.5499999998,"ADDRESS":"下中４６之２７號","OBJECTID":76229},"geometry":{"x":172439.12000000104,"y":2579785.5500000007}},{"attributes":{"ID":76230,"DIS_CODE":0,"TOWNNAME":"歸仁區","LI":"武東里","LIN":"13鄰","STREET":" ","SECT":" ","MAREA":"明德新村","LANE":" ","ALLEY":" ","HOUSE_NO":"１４７號","E_COORD97":175138.34,"N_COORD97":2536124.27,"ADDRESS":"明德新村１４７號","OBJECTID":76230},"geometry":{"x":175138.33999999985,"y":2536124.2699999996}},{"attributes":{"ID":76231,"DIS_CODE":0,"TOWNNAME":"鹽水區","LI":"下中里","LIN":"7鄰","STREET":" ","SECT":" ","MAREA":"下中","LANE":" ","ALLEY":" ","HOUSE_NO":"４６之５號","E_COORD97":172362.17000000001,"N_COORD97":2579777.7000000002,"ADDRESS":"下中４６之５號","OBJECTID":76231},"geometry":{"x":172362.17000000086,"y":2579777.7000000011}},{"attributes":{"ID":76232,"DIS_CODE":0,"TOWNNAME":"鹽水區","LI":"下中里","LIN":"7鄰","STREET":" ","SECT":" ","MAREA":"下中","LANE":" ","ALLEY":" ","HOUSE_NO":"４６之６號","E_COORD97":172366.54000000001,"N_COORD97":2579777.1800000002,"ADDRESS":"下中４６之６號","OBJECTID":76232},"geometry":{"x":172366.54000000097,"y":2579777.1799999997}},{"attributes":{"ID":76233,"DIS_CODE":0,"TOWNNAME":"鹽水區","LI":"下中里","LIN":"7鄰","STREET":" ","SECT":" ","MAREA":"下中","LANE":" ","ALLEY":" ","HOUSE_NO":"４６之７號","E_COORD97":172370.64999999999,"N_COORD97":2579776.7999999998,"ADDRESS":"下中４６之７號","OBJECTID":76233},"geometry":{"x":172370.65000000037,"y":2579776.8000000007}},{"attributes":{"ID":76234,"DIS_CODE":0,"TOWNNAME":"鹽水區","LI":"下中里","LIN":"7鄰","STREET":" ","SECT":" ","MAREA":"下中","LANE":" ","ALLEY":" ","HOUSE_NO":"４６之８號","E_COORD97":172367.79999999999,"N_COORD97":2579791.3500000001,"ADDRESS":"下中４６之８號","OBJECTID":76234},"geometry":{"x":172367.80000000168,"y":2579791.3500000015}},{"attributes":{"ID":76235,"DIS_CODE":0,"TOWNNAME":"安南區","LI":"頂安里","LIN":"19鄰","STREET":"北安路","SECT":"三段","MAREA":" ","LANE":"３９６巷","ALLEY":"５０弄","HOUSE_NO":"１０５號","E_COORD97":168852.35999999999,"N_COORD97":2549438.77,"ADDRESS":"北安路三段３９６巷５０弄１０５號","OBJECTID":76235},"geometry":{"x":168852.36000000127,"y":2549438.7699999996}},{"attributes":{"ID":76236,"DIS_CODE":0,"TOWNNAME":"鹽水區","LI":"下中里","LIN":"7鄰","STREET":" ","SECT":" ","MAREA":"下中","LANE":" ","ALLEY":" ","HOUSE_NO":"４６之９號","E_COORD97":172372.42999999999,"N_COORD97":2579790.8500000001,"ADDRESS":"下中４６之９號","OBJECTID":76236},"geometry":{"x":172372.43000000063,"y":2579790.8500000015}},{"attributes":{"ID":76237,"DIS_CODE":0,"TOWNNAME":"安南區","LI":"頂安里","LIN":"19鄰","STREET":"北安路","SECT":"三段","MAREA":" ","LANE":"３９６巷","ALLEY":"５０弄","HOUSE_NO":"１０７號","E_COORD97":168854.73000000001,"N_COORD97":2549434.3300000001,"ADDRESS":"北安路三段３９６巷５０弄１０７號","OBJECTID":76237},"geometry":{"x":168854.73000000231,"y":2549434.3300000019}},{"attributes":{"ID":76238,"DIS_CODE":0,"TOWNNAME":"安南區","LI":"頂安里","LIN":"19鄰","STREET":"北安路","SECT":"三段","MAREA":" ","LANE":"３９６巷","ALLEY":"５０弄","HOUSE_NO":"１０９號","E_COORD97":168857.39000000001,"N_COORD97":2549430.4900000002,"ADDRESS":"北安路三段３９６巷５０弄１０９號","OBJECTID":76238},"geometry":{"x":168857.38999999966,"y":2549430.4900000021}},{"attributes":{"ID":76239,"DIS_CODE":0,"TOWNNAME":"北門區","LI":"永華里","LIN":"1鄰","STREET":" ","SECT":" ","MAREA":"井子\u25A0","LANE":" ","ALLEY":" ","HOUSE_NO":"５號","E_COORD97":160202.28,"N_COORD97":2573119.0800000001,"ADDRESS":"井子\u25A0５號","OBJECTID":76239},"geometry":{"x":160202.28000000119,"y":2573119.0800000001}},{"attributes":{"ID":76240,"DIS_CODE":0,"TOWNNAME":"安南區","LI":"頂安里","LIN":"19鄰","STREET":"北安路","SECT":"三段","MAREA":" ","LANE":"３９６巷","ALLEY":"５０弄","HOUSE_NO":"１１１號","E_COORD97":168860.64999999999,"N_COORD97":2549427.2400000002,"ADDRESS":"北安路三段３９６巷５０弄１１１號","OBJECTID":76240},"geometry":{"x":168860.6500000013,"y":2549427.2400000039}},{"attributes":{"ID":76241,"DIS_CODE":0,"TOWNNAME":"安南區","LI":"頂安里","LIN":"19鄰","STREET":"北安路","SECT":"三段","MAREA":" ","LANE":"３９６巷","ALLEY":"５０弄","HOUSE_NO":"１１３號","E_COORD97":168865.38,"N_COORD97":2549424.5800000001,"ADDRESS":"北安路三段３９６巷５０弄１１３號","OBJECTID":76241},"geometry":{"x":168865.38000000082,"y":2549424.5800000038}},{"attributes":{"ID":76242,"DIS_CODE":0,"TOWNNAME":"新營區","LI":"新東里","LIN":"20鄰","STREET":"東興八街","SECT":" ","MAREA":" ","LANE":" ","ALLEY":" ","HOUSE_NO":"２９號","E_COORD97":180828.60999999999,"N_COORD97":2579488.0099999998,"ADDRESS":"東興八街２９號","OBJECTID":76242},"geometry":{"x":180828.6100000022,"y":2579488.0100000016}},{"attributes":{"ID":76243,"DIS_CODE":0,"TOWNNAME":"鹽水區","LI":"大莊里","LIN":"7鄰","STREET":" ","SECT":" ","MAREA":"大莊","LANE":" ","ALLEY":" ","HOUSE_NO":"１１號","E_COORD97":172715.39000000001,"N_COORD97":2576815.5699999998,"ADDRESS":"大莊１１號","OBJECTID":76243},"geometry":{"x":172715.38999999966,"y":2576815.5699999984}},{"attributes":{"ID":76244,"DIS_CODE":0,"TOWNNAME":"鹽水區","LI":"大莊里","LIN":"7鄰","STREET":" ","SECT":" ","MAREA":"大莊","LANE":" ","ALLEY":" ","HOUSE_NO":"１２號","E_COORD97":172706.79999999999,"N_COORD97":2576787.2200000002,"ADDRESS":"大莊１２號","OBJECTID":76244},"geometry":{"x":172706.80000000168,"y":2576787.2200000007}},{"attributes":{"ID":76245,"DIS_CODE":0,"TOWNNAME":"鹽水區","LI":"大莊里","LIN":"7鄰","STREET":" ","SECT":" ","MAREA":"大莊","LANE":" ","ALLEY":" ","HOUSE_NO":"３７號","E_COORD97":172768.01000000001,"N_COORD97":2576835.0299999998,"ADDRESS":"大莊３７號","OBJECTID":76245},"geometry":{"x":172768.01000000164,"y":2576835.0299999993}},{"attributes":{"ID":76246,"DIS_CODE":0,"TOWNNAME":"鹽水區","LI":"大莊里","LIN":"7鄰","STREET":" ","SECT":" ","MAREA":"大莊","LANE":" ","ALLEY":" ","HOUSE_NO":"４０號","E_COORD97":172750.97,"N_COORD97":2576776.6499999999,"ADDRESS":"大莊４０號","OBJECTID":76246},"geometry":{"x":172750.96999999974,"y":2576776.6500000004}},{"attributes":{"ID":76247,"DIS_CODE":0,"TOWNNAME":"鹽水區","LI":"大莊里","LIN":"7鄰","STREET":" ","SECT":" ","MAREA":"大莊","LANE":" ","ALLEY":" ","HOUSE_NO":"９號","E_COORD97":172704.35999999999,"N_COORD97":2576856.4700000002,"ADDRESS":"大莊９號","OBJECTID":76247},"geometry":{"x":172704.36000000034,"y":2576856.4700000007}},{"attributes":{"ID":76248,"DIS_CODE":0,"TOWNNAME":"鹽水區","LI":"大豐里","LIN":"7鄰","STREET":" ","SECT":" ","MAREA":"大豐","LANE":" ","ALLEY":" ","HOUSE_NO":"６５號","E_COORD97":170504.54999999999,"N_COORD97":2573677.6899999999,"ADDRESS":"大豐６５號","OBJECTID":76248},"geometry":{"x":170504.54999999888,"y":2573677.6899999995}},{"attributes":{"ID":76249,"DIS_CODE":0,"TOWNNAME":"鹽水區","LI":"大豐里","LIN":"7鄰","STREET":" ","SECT":" ","MAREA":"大豐","LANE":" ","ALLEY":" ","HOUSE_NO":"６７號","E_COORD97":170492.85999999999,"N_COORD97":2573692.3300000001,"ADDRESS":"大豐６７號","OBJECTID":76249},"geometry":{"x":170492.8599999994,"y":2573692.3300000019}},{"attributes":{"ID":76250,"DIS_CODE":0,"TOWNNAME":"鹽水區","LI":"大豐里","LIN":"7鄰","STREET":" ","SECT":" ","MAREA":"大豐","LANE":" ","ALLEY":" ","HOUSE_NO":"６９號","E_COORD97":170470.29999999999,"N_COORD97":2573709.7999999998,"ADDRESS":"大豐６９號","OBJECTID":76250},"geometry":{"x":170470.29999999981,"y":2573709.8000000026}},{"attributes":{"ID":76251,"DIS_CODE":0,"TOWNNAME":"鹽水區","LI":"大豐里","LIN":"7鄰","STREET":" ","SECT":" ","MAREA":"大豐","LANE":" ","ALLEY":" ","HOUSE_NO":"７０號","E_COORD97":170474.07999999999,"N_COORD97":2573638.6800000002,"ADDRESS":"大豐７０號","OBJECTID":76251},"geometry":{"x":170474.08000000007,"y":2573638.6800000016}},{"attributes":{"ID":76252,"DIS_CODE":0,"TOWNNAME":"鹽水區","LI":"大豐里","LIN":"7鄰","STREET":" ","SECT":" ","MAREA":"大豐","LANE":" ","ALLEY":" ","HOUSE_NO":"７１號","E_COORD97":170460.62,"N_COORD97":2573684.5600000001,"ADDRESS":"大豐７１號","OBJECTID":76252},"geometry":{"x":170460.62000000104,"y":2573684.5600000024}},{"attributes":{"ID":76253,"DIS_CODE":0,"TOWNNAME":"鹽水區","LI":"大豐里","LIN":"7鄰","STREET":" ","SECT":" ","MAREA":"大豐","LANE":" ","ALLEY":" ","HOUSE_NO":"７２號","E_COORD97":170438.85000000001,"N_COORD97":2573666.48,"ADDRESS":"大豐７２號","OBJECTID":76253},"geometry":{"x":170438.85000000056,"y":2573666.4800000004}},{"attributes":{"ID":76254,"DIS_CODE":0,"TOWNNAME":"安定區","LI":"蘇厝里","LIN":"6鄰","STREET":" ","SECT":" ","MAREA":"蘇厝","LANE":" ","ALLEY":" ","HOUSE_NO":"３３３號之１７","E_COORD97":172974.28,"N_COORD97":2558641.2999999998,"ADDRESS":"蘇厝３３３號之１７","OBJECTID":76254},"geometry":{"x":172974.28000000119,"y":2558641.3000000007}},{"attributes":{"ID":76255,"DIS_CODE":0,"TOWNNAME":"安定區","LI":"港南里","LIN":"6鄰","STREET":" ","SECT":" ","MAREA":"港口","LANE":" ","ALLEY":" ","HOUSE_NO":"４４號之１","E_COORD97":171707.38,"N_COORD97":2554133.2999999998,"ADDRESS":"港口４４號之１","OBJECTID":76255},"geometry":{"x":171707.37999999989,"y":2554133.3000000045}},{"attributes":{"ID":76256,"DIS_CODE":0,"TOWNNAME":"安定區","LI":"蘇林里","LIN":"6鄰","STREET":" ","SECT":" ","MAREA":"蘇厝","LANE":" ","ALLEY":" ","HOUSE_NO":"７２之１２號","E_COORD97":173752.01999999999,"N_COORD97":2558574.2999999998,"ADDRESS":"蘇厝７２之１２號","OBJECTID":76256},"geometry":{"x":173752.01999999955,"y":2558574.2999999989}},{"attributes":{"ID":76257,"DIS_CODE":0,"TOWNNAME":"安南區","LI":"頂安里","LIN":"19鄰","STREET":"北安路","SECT":"三段","MAREA":" ","LANE":"３９６巷","ALLEY":"５０弄","HOUSE_NO":"１１５號","E_COORD97":168869.23000000001,"N_COORD97":2549421.0299999998,"ADDRESS":"北安路三段３９６巷５０弄１１５號","OBJECTID":76257},"geometry":{"x":168869.23000000045,"y":2549421.0300000031}},{"attributes":{"ID":76258,"DIS_CODE":0,"TOWNNAME":"安定區","LI":"蘇林里","LIN":"6鄰","STREET":" ","SECT":" ","MAREA":"蘇厝","LANE":" ","ALLEY":" ","HOUSE_NO":"７２號之３","E_COORD97":173716.79999999999,"N_COORD97":2558566.2999999998,"ADDRESS":"蘇厝７２號之３","OBJECTID":76258},"geometry":{"x":173716.79999999981,"y":2558566.3000000007}},{"attributes":{"ID":76259,"DIS_CODE":0,"TOWNNAME":"安定區","LI":"蘇林里","LIN":"6鄰","STREET":" ","SECT":" ","MAREA":"蘇厝","LANE":" ","ALLEY":" ","HOUSE_NO":"７２號之７","E_COORD97":173721.38,"N_COORD97":2558550.2999999998,"ADDRESS":"蘇厝７２號之７","OBJECTID":76259},"geometry":{"x":173721.37999999989,"y":2558550.3000000007}},{"attributes":{"ID":76260,"DIS_CODE":0,"TOWNNAME":"安定區","LI":"蘇林里","LIN":"6鄰","STREET":" ","SECT":" ","MAREA":"蘇厝","LANE":" ","ALLEY":" ","HOUSE_NO":"６９之１號","E_COORD97":173682.57000000001,"N_COORD97":2558650.2999999998,"ADDRESS":"蘇厝６９之１號","OBJECTID":76260},"geometry":{"x":173682.57000000123,"y":2558650.3000000026}},{"attributes":{"ID":76261,"DIS_CODE":0,"TOWNNAME":"安南區","LI":"頂安里","LIN":"19鄰","STREET":"北安路","SECT":"三段","MAREA":" ","LANE":"３９６巷","ALLEY":"５０弄","HOUSE_NO":"１１號","E_COORD97":168921.26000000001,"N_COORD97":2549477.9199999999,"ADDRESS":"北安路三段３９６巷５０弄１１號","OBJECTID":76261},"geometry":{"x":168921.25999999978,"y":2549477.9200000018}},{"attributes":{"ID":76262,"DIS_CODE":0,"TOWNNAME":"安南區","LI":"頂安里","LIN":"19鄰","STREET":"北安路","SECT":"三段","MAREA":" ","LANE":"３９６巷","ALLEY":"５０弄","HOUSE_NO":"１３號","E_COORD97":168923.42000000001,"N_COORD97":2549471.46,"ADDRESS":"北安路三段３９６巷５０弄１３號","OBJECTID":76262},"geometry":{"x":168923.41999999993,"y":2549471.4600000028}},{"attributes":{"ID":76263,"DIS_CODE":0,"TOWNNAME":"安南區","LI":"頂安里","LIN":"19鄰","STREET":"北安路","SECT":"三段","MAREA":" ","LANE":"３９６巷","ALLEY":"５０弄","HOUSE_NO":"１５號","E_COORD97":168927.37,"N_COORD97":2549467.1499999999,"ADDRESS":"北安路三段３９６巷５０弄１５號","OBJECTID":76263},"geometry":{"x":168927.37000000011,"y":2549467.1500000004}},{"attributes":{"ID":76264,"DIS_CODE":0,"TOWNNAME":"安南區","LI":"頂安里","LIN":"19鄰","STREET":"北安路","SECT":"三段","MAREA":" ","LANE":"３９６巷","ALLEY":"５０弄","HOUSE_NO":"１７號","E_COORD97":168891.98000000001,"N_COORD97":2549492.2200000002,"ADDRESS":"北安路三段３９６巷５０弄１７號","OBJECTID":76264},"geometry":{"x":168891.98000000231,"y":2549492.2200000044}},{"attributes":{"ID":76265,"DIS_CODE":0,"TOWNNAME":"安定區","LI":"大同里","LIN":"6鄰","STREET":" ","SECT":" ","MAREA":"大同","LANE":" ","ALLEY":" ","HOUSE_NO":"６１號","E_COORD97":170372.37,"N_COORD97":2553874.25,"ADDRESS":"大同６１號","OBJECTID":76265},"geometry":{"x":170372.37000000197,"y":2553874.25}},{"attributes":{"ID":76266,"DIS_CODE":0,"TOWNNAME":"安定區","LI":"大同里","LIN":"6鄰","STREET":" ","SECT":" ","MAREA":"大同","LANE":" ","ALLEY":" ","HOUSE_NO":"６３號","E_COORD97":170379.26999999999,"N_COORD97":2553860.25,"ADDRESS":"大同６３號","OBJECTID":76266},"geometry":{"x":170379.27000000142,"y":2553860.25}},{"attributes":{"ID":76267,"DIS_CODE":0,"TOWNNAME":"安定區","LI":"大同里","LIN":"6鄰","STREET":" ","SECT":" ","MAREA":"大同","LANE":" ","ALLEY":" ","HOUSE_NO":"６８號","E_COORD97":170425.37,"N_COORD97":2553862.25,"ADDRESS":"大同６８號","OBJECTID":76267},"geometry":{"x":170425.37000000104,"y":2553862.2500000019}},{"attributes":{"ID":76268,"DIS_CODE":0,"TOWNNAME":"關廟區","LI":"松腳里","LIN":"7鄰","STREET":"中山路","SECT":"一段","MAREA":" ","LANE":"８９巷","ALLEY":" ","HOUSE_NO":"１６號","E_COORD97":181899.95999999999,"N_COORD97":2539913.2799999998,"ADDRESS":"中山路一段８９巷１６號","OBJECTID":76268},"geometry":{"x":181899.95999999996,"y":2539913.2800000012}},{"attributes":{"ID":76269,"DIS_CODE":0,"TOWNNAME":"安定區","LI":"大同里","LIN":"6鄰","STREET":" ","SECT":" ","MAREA":"大同","LANE":" ","ALLEY":" ","HOUSE_NO":"５９號","E_COORD97":170389.37,"N_COORD97":2553895.25,"ADDRESS":"大同５９號","OBJECTID":76269},"geometry":{"x":170389.37000000104,"y":2553895.2500000037}},{"attributes":{"ID":76270,"DIS_CODE":0,"TOWNNAME":"安定區","LI":"六嘉里","LIN":"6鄰","STREET":" ","SECT":" ","MAREA":"六塊寮","LANE":" ","ALLEY":" ","HOUSE_NO":"４７號之４","E_COORD97":170234.98000000001,"N_COORD97":2553380.2999999998,"ADDRESS":"六塊寮４７號之４","OBJECTID":76270},"geometry":{"x":170234.98000000138,"y":2553380.2999999989}},{"attributes":{"ID":76271,"DIS_CODE":0,"TOWNNAME":"安定區","LI":"六嘉里","LIN":"6鄰","STREET":" ","SECT":" ","MAREA":"六塊寮","LANE":" ","ALLEY":" ","HOUSE_NO":"５１之１號","E_COORD97":170207.22,"N_COORD97":2553360.2999999998,"ADDRESS":"六塊寮５１之１號","OBJECTID":76271},"geometry":{"x":170207.22000000067,"y":2553360.3000000045}},{"attributes":{"ID":76272,"DIS_CODE":0,"TOWNNAME":"安定區","LI":"安加里","LIN":"6鄰","STREET":" ","SECT":" ","MAREA":"安定","LANE":" ","ALLEY":" ","HOUSE_NO":"２２６號","E_COORD97":171776.42000000001,"N_COORD97":2557514.3199999998,"ADDRESS":"安定２２６號","OBJECTID":76272},"geometry":{"x":171776.41999999993,"y":2557514.3200000022}},{"attributes":{"ID":76273,"DIS_CODE":0,"TOWNNAME":"安定區","LI":"六嘉里","LIN":"6鄰","STREET":" ","SECT":" ","MAREA":"六塊寮","LANE":" ","ALLEY":" ","HOUSE_NO":"４７之１號","E_COORD97":170242.01999999999,"N_COORD97":2553358.2999999998,"ADDRESS":"六塊寮４７之１號","OBJECTID":76273},"geometry":{"x":170242.02000000048,"y":2553358.3000000026}},{"attributes":{"ID":76274,"DIS_CODE":0,"TOWNNAME":"安定區","LI":"港尾里","LIN":"6鄰","STREET":" ","SECT":" ","MAREA":"港子尾","LANE":" ","ALLEY":" ","HOUSE_NO":"４０號之９","E_COORD97":171587.51000000001,"N_COORD97":2555998.2999999998,"ADDRESS":"港子尾４０號之９","OBJECTID":76274},"geometry":{"x":171587.50999999978,"y":2555998.3000000026}},{"attributes":{"ID":76275,"DIS_CODE":0,"TOWNNAME":"安定區","LI":"六嘉里","LIN":"6鄰","STREET":" ","SECT":" ","MAREA":"六塊寮","LANE":" ","ALLEY":" ","HOUSE_NO":"４５號","E_COORD97":170275.82000000001,"N_COORD97":2553372.27,"ADDRESS":"六塊寮４５號","OBJECTID":76275},"geometry":{"x":170275.8200000003,"y":2553372.2699999996}},{"attributes":{"ID":76276,"DIS_CODE":0,"TOWNNAME":"安定區","LI":"中榮里","LIN":"6鄰","STREET":" ","SECT":" ","MAREA":"許中營","LANE":" ","ALLEY":" ","HOUSE_NO":"５４號","E_COORD97":172346.23999999999,"N_COORD97":2554979.25,"ADDRESS":"許中營５４號","OBJECTID":76276},"geometry":{"x":172346.24000000022,"y":2554979.25}},{"attributes":{"ID":76277,"DIS_CODE":0,"TOWNNAME":"安定區","LI":"六嘉里","LIN":"6鄰","STREET":" ","SECT":" ","MAREA":"六塊寮","LANE":" ","ALLEY":" ","HOUSE_NO":"４７號之２","E_COORD97":170242.79000000001,"N_COORD97":2553382.2999999998,"ADDRESS":"六塊寮４７號之２","OBJECTID":76277},"geometry":{"x":170242.79000000097,"y":2553382.3000000007}},{"attributes":{"ID":76278,"DIS_CODE":0,"TOWNNAME":"安定區","LI":"六嘉里","LIN":"6鄰","STREET":" ","SECT":" ","MAREA":"六塊寮","LANE":" ","ALLEY":" ","HOUSE_NO":"５０號","E_COORD97":170222.22,"N_COORD97":2553373.2599999998,"ADDRESS":"六塊寮５０號","OBJECTID":76278},"geometry":{"x":170222.22000000067,"y":2553373.2600000016}},{"attributes":{"ID":76279,"DIS_CODE":0,"TOWNNAME":"安定區","LI":"中榮里","LIN":"6鄰","STREET":" ","SECT":" ","MAREA":"許中營","LANE":" ","ALLEY":" ","HOUSE_NO":"１２之８號","E_COORD97":172397.34,"N_COORD97":2554840.2999999998,"ADDRESS":"許中營１２之８號","OBJECTID":76279},"geometry":{"x":172397.33999999985,"y":2554840.3000000007}},{"attributes":{"ID":76280,"DIS_CODE":0,"TOWNNAME":"安定區","LI":"港尾里","LIN":"6鄰","STREET":" ","SECT":" ","MAREA":"港子尾","LANE":" ","ALLEY":" ","HOUSE_NO":"４０之５號","E_COORD97":171612.89000000001,"N_COORD97":2555978.2999999998,"ADDRESS":"港子尾４０之５號","OBJECTID":76280},"geometry":{"x":171612.8900000006,"y":2555978.3000000026}},{"attributes":{"ID":76281,"DIS_CODE":0,"TOWNNAME":"安定區","LI":"中榮里","LIN":"6鄰","STREET":" ","SECT":" ","MAREA":"許中營","LANE":" ","ALLEY":" ","HOUSE_NO":"５５號","E_COORD97":172389.44,"N_COORD97":2554965.25,"ADDRESS":"許中營５５號","OBJECTID":76281},"geometry":{"x":172389.44000000227,"y":2554965.25}},{"attributes":{"ID":76282,"DIS_CODE":0,"TOWNNAME":"安定區","LI":"港尾里","LIN":"6鄰","STREET":" ","SECT":" ","MAREA":"港子尾","LANE":" ","ALLEY":" ","HOUSE_NO":"４０之４號","E_COORD97":171532.89000000001,"N_COORD97":2555972.2999999998,"ADDRESS":"港子尾４０之４號","OBJECTID":76282},"geometry":{"x":171532.89000000153,"y":2555972.3000000026}},{"attributes":{"ID":76283,"DIS_CODE":0,"TOWNNAME":"安定區","LI":"安定里","LIN":"6鄰","STREET":" ","SECT":" ","MAREA":"安定","LANE":" ","ALLEY":" ","HOUSE_NO":"３０之５號","E_COORD97":172095.97,"N_COORD97":2557971.3199999998,"ADDRESS":"安定３０之５號","OBJECTID":76283},"geometry":{"x":172095.97000000067,"y":2557971.3200000022}},{"attributes":{"ID":76284,"DIS_CODE":0,"TOWNNAME":"安定區","LI":"中榮里","LIN":"6鄰","STREET":" ","SECT":" ","MAREA":"許中營","LANE":" ","ALLEY":" ","HOUSE_NO":"５８號","E_COORD97":172333.14000000001,"N_COORD97":2554947.25,"ADDRESS":"許中營５８號","OBJECTID":76284},"geometry":{"x":172333.14000000153,"y":2554947.2500000019}},{"attributes":{"ID":76285,"DIS_CODE":0,"TOWNNAME":"安定區","LI":"中榮里","LIN":"6鄰","STREET":" ","SECT":" ","MAREA":"許中營","LANE":" ","ALLEY":" ","HOUSE_NO":"１２之１１號","E_COORD97":172400.09,"N_COORD97":2554826.2999999998,"ADDRESS":"許中營１２之１１號","OBJECTID":76285},"geometry":{"x":172400.09000000078,"y":2554826.3000000026}},{"attributes":{"ID":76286,"DIS_CODE":0,"TOWNNAME":"關廟區","LI":"布袋里","LIN":"7鄰","STREET":"長富街","SECT":" ","MAREA":" ","LANE":" ","ALLEY":" ","HOUSE_NO":"２１８號","E_COORD97":182667.54000000001,"N_COORD97":2534655.25,"ADDRESS":"長富街２１８號","OBJECTID":76286},"geometry":{"x":182667.54000000004,"y":2534655.2500000019}},{"attributes":{"ID":76287,"DIS_CODE":0,"TOWNNAME":"安定區","LI":"中榮里","LIN":"6鄰","STREET":" ","SECT":" ","MAREA":"許中營","LANE":" ","ALLEY":" ","HOUSE_NO":"１２之２１號","E_COORD97":172386.29000000001,"N_COORD97":2554824.2999999998,"ADDRESS":"許中營１２之２１號","OBJECTID":76287},"geometry":{"x":172386.29000000004,"y":2554824.3000000007}},{"attributes":{"ID":76288,"DIS_CODE":0,"TOWNNAME":"安定區","LI":"安定里","LIN":"6鄰","STREET":" ","SECT":" ","MAREA":"安定","LANE":" ","ALLEY":" ","HOUSE_NO":"４６號之１","E_COORD97":172041.70000000001,"N_COORD97":2557877.3199999998,"ADDRESS":"安定４６號之１","OBJECTID":76288},"geometry":{"x":172041.70000000205,"y":2557877.3200000003}},{"attributes":{"ID":76289,"DIS_CODE":0,"TOWNNAME":"安南區","LI":"頂安里","LIN":"19鄰","STREET":"北安路","SECT":"三段","MAREA":" ","LANE":"３９６巷","ALLEY":"５０弄","HOUSE_NO":"１９號","E_COORD97":168895.75,"N_COORD97":2549487.98,"ADDRESS":"北安路三段３９６巷５０弄１９號","OBJECTID":76289},"geometry":{"x":168895.75,"y":2549487.9800000023}},{"attributes":{"ID":76290,"DIS_CODE":0,"TOWNNAME":"安南區","LI":"頂安里","LIN":"19鄰","STREET":"北安路","SECT":"三段","MAREA":" ","LANE":"３９６巷","ALLEY":"５０弄","HOUSE_NO":"２１號","E_COORD97":168899.14999999999,"N_COORD97":2549483.4500000002,"ADDRESS":"北安路三段３９６巷５０弄２１號","OBJECTID":76290},"geometry":{"x":168899.14999999944,"y":2549483.4500000011}},{"attributes":{"ID":76291,"DIS_CODE":0,"TOWNNAME":"安南區","LI":"頂安里","LIN":"19鄰","STREET":"北安路","SECT":"三段","MAREA":" ","LANE":"３９６巷","ALLEY":"５０弄","HOUSE_NO":"２３號","E_COORD97":168902.53,"N_COORD97":2549478.4700000002,"ADDRESS":"北安路三段３９６巷５０弄２３號","OBJECTID":76291},"geometry":{"x":168902.53000000026,"y":2549478.4700000025}},{"attributes":{"ID":76292,"DIS_CODE":0,"TOWNNAME":"安定區","LI":"中榮里","LIN":"6鄰","STREET":" ","SECT":" ","MAREA":"許中營","LANE":" ","ALLEY":" ","HOUSE_NO":"１２之１７號","E_COORD97":172384.89000000001,"N_COORD97":2554843.2999999998,"ADDRESS":"許中營１２之１７號","OBJECTID":76292},"geometry":{"x":172384.88999999966,"y":2554843.3000000026}},{"attributes":{"ID":76293,"DIS_CODE":0,"TOWNNAME":"安定區","LI":"保西里","LIN":"6鄰","STREET":" ","SECT":" ","MAREA":"安定","LANE":" ","ALLEY":" ","HOUSE_NO":"３８６之９號","E_COORD97":171563.51999999999,"N_COORD97":2557732.3199999998,"ADDRESS":"安定３８６之９號","OBJECTID":76293},"geometry":{"x":171563.51999999955,"y":2557732.3200000003}},{"attributes":{"ID":76294,"DIS_CODE":0,"TOWNNAME":"安定區","LI":"中榮里","LIN":"6鄰","STREET":" ","SECT":" ","MAREA":"許中營","LANE":" ","ALLEY":" ","HOUSE_NO":"１２之１６號","E_COORD97":172384.39000000001,"N_COORD97":2554848.2999999998,"ADDRESS":"許中營１２之１６號","OBJECTID":76294},"geometry":{"x":172384.3900000006,"y":2554848.2999999989}},{"attributes":{"ID":76295,"DIS_CODE":0,"TOWNNAME":"安定區","LI":"港口里","LIN":"6鄰","STREET":" ","SECT":" ","MAREA":"港口","LANE":" ","ALLEY":" ","HOUSE_NO":"２７７號之１","E_COORD97":171469.03,"N_COORD97":2554584.2999999998,"ADDRESS":"港口２７７號之１","OBJECTID":76295},"geometry":{"x":171469.03000000026,"y":2554584.3000000045}},{"attributes":{"ID":76296,"DIS_CODE":0,"TOWNNAME":"安定區","LI":"安定里","LIN":"6鄰","STREET":" ","SECT":" ","MAREA":"安定","LANE":" ","ALLEY":" ","HOUSE_NO":"２９之１號","E_COORD97":172091.57000000001,"N_COORD97":2557938.3199999998,"ADDRESS":"安定２９之１號","OBJECTID":76296},"geometry":{"x":172091.5700000003,"y":2557938.3200000003}},{"attributes":{"ID":76297,"DIS_CODE":0,"TOWNNAME":"安定區","LI":"安定里","LIN":"6鄰","STREET":" ","SECT":" ","MAREA":"安定","LANE":" ","ALLEY":" ","HOUSE_NO":"３０號之１","E_COORD97":172078.5,"N_COORD97":2557970.3199999998,"ADDRESS":"安定３０號之１","OBJECTID":76297},"geometry":{"x":172078.50000000093,"y":2557970.320000004}},{"attributes":{"ID":76298,"DIS_CODE":0,"TOWNNAME":"安定區","LI":"安定里","LIN":"6鄰","STREET":" ","SECT":" ","MAREA":"安定","LANE":" ","ALLEY":" ","HOUSE_NO":"３０號之６","E_COORD97":172099.41,"N_COORD97":2557971.3199999998,"ADDRESS":"安定３０號之６","OBJECTID":76298},"geometry":{"x":172099.41000000201,"y":2557971.3200000022}},{"attributes":{"ID":76299,"DIS_CODE":0,"TOWNNAME":"安定區","LI":"中榮里","LIN":"6鄰","STREET":" ","SECT":" ","MAREA":"許中營","LANE":" ","ALLEY":" ","HOUSE_NO":"５７號之１","E_COORD97":172308.88,"N_COORD97":2554985.2999999998,"ADDRESS":"許中營５７號之１","OBJECTID":76299},"geometry":{"x":172308.87999999989,"y":2554985.3000000026}},{"attributes":{"ID":76300,"DIS_CODE":0,"TOWNNAME":"安定區","LI":"安定里","LIN":"6鄰","STREET":" ","SECT":" ","MAREA":"安定","LANE":" ","ALLEY":" ","HOUSE_NO":"２９之５號","E_COORD97":172053.37,"N_COORD97":2557970.3199999998,"ADDRESS":"安定２９之５號","OBJECTID":76300},"geometry":{"x":172053.37000000011,"y":2557970.320000004}},{"attributes":{"ID":76301,"DIS_CODE":0,"TOWNNAME":"安南區","LI":"頂安里","LIN":"19鄰","STREET":"北安路","SECT":"三段","MAREA":" ","LANE":"３９６巷","ALLEY":"５０弄","HOUSE_NO":"２５號","E_COORD97":168906.92000000001,"N_COORD97":2549473.8999999999,"ADDRESS":"北安路三段３９６巷５０弄２５號","OBJECTID":76301},"geometry":{"x":168906.91999999993,"y":2549473.9000000041}},{"attributes":{"ID":76302,"DIS_CODE":0,"TOWNNAME":"安南區","LI":"頂安里","LIN":"19鄰","STREET":"北安路","SECT":"三段","MAREA":" ","LANE":"３９６巷","ALLEY":"５０弄","HOUSE_NO":"２７號","E_COORD97":168910.70000000001,"N_COORD97":2549469.3199999998,"ADDRESS":"北安路三段３９６巷５０弄２７號","OBJECTID":76302},"geometry":{"x":168910.70000000112,"y":2549469.3200000003}},{"attributes":{"ID":76303,"DIS_CODE":0,"TOWNNAME":"安南區","LI":"頂安里","LIN":"19鄰","STREET":"北安路","SECT":"三段","MAREA":" ","LANE":"３９６巷","ALLEY":"５０弄","HOUSE_NO":"２９號","E_COORD97":168913.69,"N_COORD97":2549464.7400000002,"ADDRESS":"北安路三段３９６巷５０弄２９號","OBJECTID":76303},"geometry":{"x":168913.69000000041,"y":2549464.7400000021}},{"attributes":{"ID":76304,"DIS_CODE":0,"TOWNNAME":"安南區","LI":"頂安里","LIN":"19鄰","STREET":"北安路","SECT":"三段","MAREA":" ","LANE":"３９６巷","ALLEY":"５０弄","HOUSE_NO":"３１號","E_COORD97":168918.67000000001,"N_COORD97":2549459.3700000001,"ADDRESS":"北安路三段３９６巷５０弄３１號","OBJECTID":76304},"geometry":{"x":168918.66999999993,"y":2549459.370000001}},{"attributes":{"ID":76305,"DIS_CODE":0,"TOWNNAME":"安定區","LI":"中榮里","LIN":"6鄰","STREET":" ","SECT":" ","MAREA":"許中營","LANE":" ","ALLEY":" ","HOUSE_NO":"１２之７號","E_COORD97":172397.34,"N_COORD97":2554845.2999999998,"ADDRESS":"許中營１２之７號","OBJECTID":76305},"geometry":{"x":172397.33999999985,"y":2554845.3000000045}},{"attributes":{"ID":76306,"DIS_CODE":0,"TOWNNAME":"安南區","LI":"頂安里","LIN":"19鄰","STREET":"北安路","SECT":"三段","MAREA":" ","LANE":"３９６巷","ALLEY":"５０弄","HOUSE_NO":"３３號","E_COORD97":168881.82000000001,"N_COORD97":2549485.4399999999,"ADDRESS":"北安路三段３９６巷５０弄３３號","OBJECTID":76306},"geometry":{"x":168881.82000000123,"y":2549485.4399999995}},{"attributes":{"ID":76307,"DIS_CODE":0,"TOWNNAME":"歸仁區","LI":"文化里","LIN":"13鄰","STREET":"大德路","SECT":" ","MAREA":" ","LANE":" ","ALLEY":" ","HOUSE_NO":"１５５號","E_COORD97":177410.47,"N_COORD97":2541500.3300000001,"ADDRESS":"大德路１５５號","OBJECTID":76307},"geometry":{"x":177410.47000000067,"y":2541500.3300000019}},{"attributes":{"ID":76308,"DIS_CODE":0,"TOWNNAME":"安南區","LI":"頂安里","LIN":"19鄰","STREET":"北安路","SECT":"三段","MAREA":" ","LANE":"３９６巷","ALLEY":"５０弄","HOUSE_NO":"３５號","E_COORD97":168885.79999999999,"N_COORD97":2549481.2599999998,"ADDRESS":"北安路三段３９６巷５０弄３５號","OBJECTID":76308},"geometry":{"x":168885.80000000168,"y":2549481.2600000016}},{"attributes":{"ID":76309,"DIS_CODE":0,"TOWNNAME":"安定區","LI":"港尾里","LIN":"6鄰","STREET":" ","SECT":" ","MAREA":"港子尾","LANE":" ","ALLEY":" ","HOUSE_NO":"４０號之８","E_COORD97":171521.49734900001,"N_COORD97":2556001.1124100001,"ADDRESS":"港子尾４０號之８","OBJECTID":76309},"geometry":{"x":171521.49734900054,"y":2556001.1124120001}},{"attributes":{"ID":76310,"DIS_CODE":0,"TOWNNAME":"安南區","LI":"頂安里","LIN":"19鄰","STREET":"北安路","SECT":"三段","MAREA":" ","LANE":"３９６巷","ALLEY":"５０弄","HOUSE_NO":"３７號","E_COORD97":168889.39000000001,"N_COORD97":2549475.6899999999,"ADDRESS":"北安路三段３９６巷５０弄３７號","OBJECTID":76310},"geometry":{"x":168889.38999999966,"y":2549475.6900000013}},{"attributes":{"ID":76311,"DIS_CODE":0,"TOWNNAME":"安南區","LI":"頂安里","LIN":"19鄰","STREET":"北安路","SECT":"三段","MAREA":" ","LANE":"３９６巷","ALLEY":"５０弄","HOUSE_NO":"３９號","E_COORD97":168893.57000000001,"N_COORD97":2549471.5099999998,"ADDRESS":"北安路三段３９６巷５０弄３９號","OBJECTID":76311},"geometry":{"x":168893.57000000123,"y":2549471.5099999998}},{"attributes":{"ID":76312,"DIS_CODE":0,"TOWNNAME":"關廟區","LI":"東勢里","LIN":"7鄰","STREET":"旺萊路","SECT":" ","MAREA":" ","LANE":"１９７巷","ALLEY":" ","HOUSE_NO":"７號","E_COORD97":181901.84,"N_COORD97":2539431.25,"ADDRESS":"旺萊路１９７巷７號","OBJECTID":76312},"geometry":{"x":181901.84000000078,"y":2539431.25}},{"attributes":{"ID":76313,"DIS_CODE":0,"TOWNNAME":"關廟區","LI":"五甲里","LIN":"7鄰","STREET":"南雄路","SECT":"一段","MAREA":" ","LANE":" ","ALLEY":" ","HOUSE_NO":"９１５號","E_COORD97":181266.48999999999,"N_COORD97":2539317.2799999998,"ADDRESS":"南雄路一段９１５號","OBJECTID":76313},"geometry":{"x":181266.48999999929,"y":2539317.2800000012}},{"attributes":{"ID":76314,"DIS_CODE":0,"TOWNNAME":"關廟區","LI":"五甲里","LIN":"7鄰","STREET":"南雄路","SECT":"一段","MAREA":" ","LANE":" ","ALLEY":" ","HOUSE_NO":"９１７號","E_COORD97":181264.98999999999,"N_COORD97":2539321.2799999998,"ADDRESS":"南雄路一段９１７號","OBJECTID":76314},"geometry":{"x":181264.99000000209,"y":2539321.2799999993}},{"attributes":{"ID":76315,"DIS_CODE":0,"TOWNNAME":"關廟區","LI":"南花里","LIN":"7鄰","STREET":"花園一街","SECT":" ","MAREA":" ","LANE":" ","ALLEY":" ","HOUSE_NO":"１１８號","E_COORD97":181885.98999999999,"N_COORD97":2540196.25,"ADDRESS":"花園一街１１８號","OBJECTID":76315},"geometry":{"x":181885.99000000115,"y":2540196.2500000019}},{"attributes":{"ID":76316,"DIS_CODE":0,"TOWNNAME":"關廟區","LI":"香洋里","LIN":"7鄰","STREET":"南雄路","SECT":"二段","MAREA":" ","LANE":" ","ALLEY":" ","HOUSE_NO":"４５號","E_COORD97":181099.69,"N_COORD97":2540149.02,"ADDRESS":"南雄路二段４５號","OBJECTID":76316},"geometry":{"x":181099.69000000134,"y":2540149.0200000014}},{"attributes":{"ID":76317,"DIS_CODE":0,"TOWNNAME":"關廟區","LI":"南花里","LIN":"7鄰","STREET":"花園一街","SECT":" ","MAREA":" ","LANE":" ","ALLEY":" ","HOUSE_NO":"１０５號","E_COORD97":181877.19,"N_COORD97":2540181.25,"ADDRESS":"花園一街１０５號","OBJECTID":76317},"geometry":{"x":181877.19000000041,"y":2540181.2500000037}},{"attributes":{"ID":76318,"DIS_CODE":0,"TOWNNAME":"關廟區","LI":"香洋里","LIN":"7鄰","STREET":"忠孝街","SECT":" ","MAREA":" ","LANE":" ","ALLEY":" ","HOUSE_NO":"６６號","E_COORD97":180995.29000000001,"N_COORD97":2540177.25,"ADDRESS":"忠孝街６６號","OBJECTID":76318},"geometry":{"x":180995.29000000097,"y":2540177.25}},{"attributes":{"ID":76319,"DIS_CODE":0,"TOWNNAME":"關廟區","LI":"香洋里","LIN":"7鄰","STREET":"南雄路","SECT":"二段","MAREA":" ","LANE":" ","ALLEY":" ","HOUSE_NO":"４７號","E_COORD97":181100.48999999999,"N_COORD97":2540152.02,"ADDRESS":"南雄路二段４７號","OBJECTID":76319},"geometry":{"x":181100.49000000209,"y":2540152.0200000033}},{"attributes":{"ID":76320,"DIS_CODE":0,"TOWNNAME":"關廟區","LI":"香洋里","LIN":"7鄰","STREET":"忠孝街","SECT":" ","MAREA":" ","LANE":" ","ALLEY":" ","HOUSE_NO":"７６號","E_COORD97":181002.19,"N_COORD97":2540201.25,"ADDRESS":"忠孝街７６號","OBJECTID":76320},"geometry":{"x":181002.19000000041,"y":2540201.25}},{"attributes":{"ID":76321,"DIS_CODE":0,"TOWNNAME":"安定區","LI":"六嘉里","LIN":"6鄰","STREET":" ","SECT":" ","MAREA":"六塊寮","LANE":" ","ALLEY":" ","HOUSE_NO":"４６號","E_COORD97":170258.32000000001,"N_COORD97":2553369.27,"ADDRESS":"六塊寮４６號","OBJECTID":76321},"geometry":{"x":170258.32000000123,"y":2553369.2700000033}},{"attributes":{"ID":76322,"DIS_CODE":0,"TOWNNAME":"安南區","LI":"頂安里","LIN":"19鄰","STREET":"北安路","SECT":"三段","MAREA":" ","LANE":"３９６巷","ALLEY":"５０弄","HOUSE_NO":"３號","E_COORD97":168906.23999999999,"N_COORD97":2549495.6299999999,"ADDRESS":"北安路三段３９６巷５０弄３號","OBJECTID":76322},"geometry":{"x":168906.24000000022,"y":2549495.6300000008}},{"attributes":{"ID":76323,"DIS_CODE":0,"TOWNNAME":"安定區","LI":"安定里","LIN":"6鄰","STREET":" ","SECT":" ","MAREA":"安定","LANE":" ","ALLEY":" ","HOUSE_NO":"４６號之７","E_COORD97":171984.88,"N_COORD97":2557859.3199999998,"ADDRESS":"安定４６號之７","OBJECTID":76323},"geometry":{"x":171984.88000000082,"y":2557859.3200000022}},{"attributes":{"ID":76324,"DIS_CODE":0,"TOWNNAME":"安定區","LI":"港口里","LIN":"6鄰","STREET":" ","SECT":" ","MAREA":"港口","LANE":" ","ALLEY":" ","HOUSE_NO":"２７５號","E_COORD97":171516.98999999999,"N_COORD97":2554578.25,"ADDRESS":"港口２７５號","OBJECTID":76324},"geometry":{"x":171516.99000000022,"y":2554578.2500000019}},{"attributes":{"ID":76325,"DIS_CODE":0,"TOWNNAME":"安定區","LI":"中榮里","LIN":"6鄰","STREET":" ","SECT":" ","MAREA":"許中營","LANE":" ","ALLEY":" ","HOUSE_NO":"１２之１５號","E_COORD97":172382.59,"N_COORD97":2554858.2999999998,"ADDRESS":"許中營１２之１５號","OBJECTID":76325},"geometry":{"x":172382.58999999892,"y":2554858.3000000007}},{"attributes":{"ID":76326,"DIS_CODE":0,"TOWNNAME":"安定區","LI":"安定里","LIN":"6鄰","STREET":" ","SECT":" ","MAREA":"安定","LANE":" ","ALLEY":" ","HOUSE_NO":"４６號之１１","E_COORD97":172009.95000000001,"N_COORD97":2557870.3199999998,"ADDRESS":"安定４６號之１１","OBJECTID":76326},"geometry":{"x":172009.95000000112,"y":2557870.3200000022}},{"attributes":{"ID":76327,"DIS_CODE":0,"TOWNNAME":"安定區","LI":"安定里","LIN":"6鄰","STREET":" ","SECT":" ","MAREA":"安定","LANE":" ","ALLEY":" ","HOUSE_NO":"３８號之８","E_COORD97":172202.14999999999,"N_COORD97":2557848.3199999998,"ADDRESS":"安定３８號之８","OBJECTID":76327},"geometry":{"x":172202.1500000013,"y":2557848.320000004}},{"attributes":{"ID":76328,"DIS_CODE":0,"TOWNNAME":"安南區","LI":"頂安里","LIN":"19鄰","STREET":"北安路","SECT":"三段","MAREA":" ","LANE":"３９６巷","ALLEY":"５０弄","HOUSE_NO":"４１號","E_COORD97":168897.17999999999,"N_COORD97":2549466.3500000001,"ADDRESS":"北安路三段３９６巷５０弄４１號","OBJECTID":76328},"geometry":{"x":168897.18000000063,"y":2549466.3500000034}},{"attributes":{"ID":76329,"DIS_CODE":0,"TOWNNAME":"安定區","LI":"安定里","LIN":"6鄰","STREET":" ","SECT":" ","MAREA":"安定","LANE":" ","ALLEY":" ","HOUSE_NO":"３８號之１３","E_COORD97":172203.75,"N_COORD97":2557827.3199999998,"ADDRESS":"安定３８號之１３","OBJECTID":76329},"geometry":{"x":172203.75000000186,"y":2557827.3200000003}},{"attributes":{"ID":76330,"DIS_CODE":0,"TOWNNAME":"安定區","LI":"安定里","LIN":"6鄰","STREET":" ","SECT":" ","MAREA":"安定","LANE":" ","ALLEY":" ","HOUSE_NO":"３８號之２０","E_COORD97":172231.39999999999,"N_COORD97":2557853.3199999998,"ADDRESS":"安定３８號之２０","OBJECTID":76330},"geometry":{"x":172231.40000000037,"y":2557853.3200000022}},{"attributes":{"ID":76331,"DIS_CODE":0,"TOWNNAME":"安定區","LI":"安定里","LIN":"6鄰","STREET":" ","SECT":" ","MAREA":"安定","LANE":" ","ALLEY":" ","HOUSE_NO":"３８號之１８","E_COORD97":172222.39999999999,"N_COORD97":2557853.3199999998,"ADDRESS":"安定３８號之１８","OBJECTID":76331},"geometry":{"x":172222.4000000013,"y":2557853.3200000022}},{"attributes":{"ID":76332,"DIS_CODE":0,"TOWNNAME":"安定區","LI":"中榮里","LIN":"6鄰","STREET":" ","SECT":" ","MAREA":"許中營","LANE":" ","ALLEY":" ","HOUSE_NO":"１２之９號","E_COORD97":172398.04000000001,"N_COORD97":2554835.2999999998,"ADDRESS":"許中營１２之９號","OBJECTID":76332},"geometry":{"x":172398.04000000004,"y":2554835.3000000026}},{"attributes":{"ID":76333,"DIS_CODE":0,"TOWNNAME":"安定區","LI":"安定里","LIN":"6鄰","STREET":" ","SECT":" ","MAREA":"安定","LANE":" ","ALLEY":" ","HOUSE_NO":"３８號之１６","E_COORD97":172226.42000000001,"N_COORD97":2557862.3199999998,"ADDRESS":"安定３８之１６號","OBJECTID":76333},"geometry":{"x":172226.42000000086,"y":2557862.3200000022}},{"attributes":{"ID":76334,"DIS_CODE":0,"TOWNNAME":"安南區","LI":"頂安里","LIN":"19鄰","STREET":"北安路","SECT":"三段","MAREA":" ","LANE":"３９６巷","ALLEY":"５０弄","HOUSE_NO":"４３號","E_COORD97":168900.89000000001,"N_COORD97":2549461.6400000001,"ADDRESS":"北安路三段３９６巷５０弄４３號","OBJECTID":76334},"geometry":{"x":168900.8900000006,"y":2549461.6400000006}},{"attributes":{"ID":76335,"DIS_CODE":0,"TOWNNAME":"安定區","LI":"港尾里","LIN":"6鄰","STREET":" ","SECT":" ","MAREA":"港子尾","LANE":" ","ALLEY":" ","HOUSE_NO":"２５號","E_COORD97":171519.39000000001,"N_COORD97":2556051.2599999998,"ADDRESS":"港子尾２５號","OBJECTID":76335},"geometry":{"x":171519.39000000153,"y":2556051.2600000035}},{"attributes":{"ID":76336,"DIS_CODE":0,"TOWNNAME":"安定區","LI":"保西里","LIN":"6鄰","STREET":" ","SECT":" ","MAREA":"安定","LANE":" ","ALLEY":" ","HOUSE_NO":"３８５之２號","E_COORD97":171508.32000000001,"N_COORD97":2557704.3199999998,"ADDRESS":"安定３８５之２號","OBJECTID":76336},"geometry":{"x":171508.3200000003,"y":2557704.3200000003}},{"attributes":{"ID":76337,"DIS_CODE":0,"TOWNNAME":"安定區","LI":"六嘉里","LIN":"6鄰","STREET":" ","SECT":" ","MAREA":"六塊寮","LANE":" ","ALLEY":" ","HOUSE_NO":"４７號","E_COORD97":170243.12,"N_COORD97":2553359.27,"ADDRESS":"六塊寮４７號","OBJECTID":76337},"geometry":{"x":170243.12000000011,"y":2553359.2700000033}},{"attributes":{"ID":76338,"DIS_CODE":0,"TOWNNAME":"安南區","LI":"頂安里","LIN":"19鄰","STREET":"北安路","SECT":"三段","MAREA":" ","LANE":"３９６巷","ALLEY":"５０弄","HOUSE_NO":"４５號","E_COORD97":168904.14999999999,"N_COORD97":2549456.7599999998,"ADDRESS":"北安路三段３９６巷５０弄４５號","OBJECTID":76338},"geometry":{"x":168904.15000000037,"y":2549456.7599999979}},{"attributes":{"ID":76339,"DIS_CODE":0,"TOWNNAME":"安定區","LI":"安定里","LIN":"6鄰","STREET":" ","SECT":" ","MAREA":"安定","LANE":" ","ALLEY":" ","HOUSE_NO":"４６號","E_COORD97":172058.37,"N_COORD97":2557859.3199999998,"ADDRESS":"安定４６號","OBJECTID":76339},"geometry":{"x":172058.37000000011,"y":2557859.3200000022}},{"attributes":{"ID":76340,"DIS_CODE":0,"TOWNNAME":"安定區","LI":"保西里","LIN":"6鄰","STREET":" ","SECT":" ","MAREA":"安定","LANE":" ","ALLEY":" ","HOUSE_NO":"３８３號","E_COORD97":171613.56054000001,"N_COORD97":2557698.05088,"ADDRESS":"安定３８３號","OBJECTID":76340},"geometry":{"x":171613.56054000091,"y":2557698.0508790016}},{"attributes":{"ID":76341,"DIS_CODE":0,"TOWNNAME":"歸仁區","LI":"許厝里","LIN":"7鄰","STREET":"仁愛八街","SECT":" ","MAREA":" ","LANE":" ","ALLEY":" ","HOUSE_NO":"６號","E_COORD97":178250.38,"N_COORD97":2540641.25,"ADDRESS":"仁愛八街６號","OBJECTID":76341},"geometry":{"x":178250.37999999989,"y":2540641.25}},{"attributes":{"ID":76342,"DIS_CODE":0,"TOWNNAME":"安南區","LI":"頂安里","LIN":"19鄰","STREET":"北安路","SECT":"三段","MAREA":" ","LANE":"３９６巷","ALLEY":"５０弄","HOUSE_NO":"４７號","E_COORD97":168908.59,"N_COORD97":2549452.5099999998,"ADDRESS":"北安路三段３９６巷５０弄４７號","OBJECTID":76342},"geometry":{"x":168908.58999999985,"y":2549452.5100000016}},{"attributes":{"ID":76343,"DIS_CODE":0,"TOWNNAME":"安定區","LI":"安定里","LIN":"6鄰","STREET":" ","SECT":" ","MAREA":"安定","LANE":" ","ALLEY":" ","HOUSE_NO":"３１號之２","E_COORD97":172136.23999999999,"N_COORD97":2557942.3199999998,"ADDRESS":"安定３１號之２","OBJECTID":76343},"geometry":{"x":172136.24000000209,"y":2557942.3200000003}},{"attributes":{"ID":76344,"DIS_CODE":0,"TOWNNAME":"安南區","LI":"頂安里","LIN":"19鄰","STREET":"北安路","SECT":"三段","MAREA":" ","LANE":"３９６巷","ALLEY":"５０弄","HOUSE_NO":"４９號","E_COORD97":168871.98999999999,"N_COORD97":2549478.1000000001,"ADDRESS":"北安路三段３９６巷５０弄４９號","OBJECTID":76344},"geometry":{"x":168871.99000000115,"y":2549478.0999999978}},{"attributes":{"ID":76345,"DIS_CODE":0,"TOWNNAME":"安定區","LI":"安定里","LIN":"6鄰","STREET":" ","SECT":" ","MAREA":"安定","LANE":" ","ALLEY":" ","HOUSE_NO":"３０之４號","E_COORD97":172091.26999999999,"N_COORD97":2557971.3199999998,"ADDRESS":"安定３０之４號","OBJECTID":76345},"geometry":{"x":172091.27000000142,"y":2557971.3200000022}},{"attributes":{"ID":76346,"DIS_CODE":0,"TOWNNAME":"安定區","LI":"保西里","LIN":"6鄰","STREET":" ","SECT":" ","MAREA":"安定","LANE":" ","ALLEY":" ","HOUSE_NO":"３８１號","E_COORD97":171588.12,"N_COORD97":2557679.3199999998,"ADDRESS":"安定３８１號","OBJECTID":76346},"geometry":{"x":171588.12000000104,"y":2557679.3200000022}},{"attributes":{"ID":76347,"DIS_CODE":0,"TOWNNAME":"安定區","LI":"保西里","LIN":"6鄰","STREET":" ","SECT":" ","MAREA":"安定","LANE":" ","ALLEY":" ","HOUSE_NO":"３８６號之６","E_COORD97":171577.45999999999,"N_COORD97":2557733.3199999998,"ADDRESS":"安定３８６號之６","OBJECTID":76347},"geometry":{"x":171577.46000000089,"y":2557733.320000004}},{"attributes":{"ID":76348,"DIS_CODE":0,"TOWNNAME":"安南區","LI":"頂安里","LIN":"19鄰","STREET":"北安路","SECT":"三段","MAREA":" ","LANE":"３９６巷","ALLEY":"５０弄","HOUSE_NO":"５１號","E_COORD97":168876.13,"N_COORD97":2549473.0699999998,"ADDRESS":"北安路三段３９６巷５０弄５１號","OBJECTID":76348},"geometry":{"x":168876.12999999989,"y":2549473.0700000022}},{"attributes":{"ID":76349,"DIS_CODE":0,"TOWNNAME":"關廟區","LI":"松腳里","LIN":"7鄰","STREET":"四維街","SECT":" ","MAREA":" ","LANE":" ","ALLEY":" ","HOUSE_NO":"２１０號","E_COORD97":181872.35999999999,"N_COORD97":2539896.25,"ADDRESS":"四維街２１０號","OBJECTID":76349},"geometry":{"x":181872.36000000034,"y":2539896.2499999981}},{"attributes":{"ID":76350,"DIS_CODE":0,"TOWNNAME":"關廟區","LI":"香洋里","LIN":"7鄰","STREET":"忠孝街","SECT":" ","MAREA":" ","LANE":" ","ALLEY":" ","HOUSE_NO":"５６號","E_COORD97":180990.29000000001,"N_COORD97":2540160.25,"ADDRESS":"忠孝街５６號","OBJECTID":76350},"geometry":{"x":180990.29000000097,"y":2540160.25}},{"attributes":{"ID":76351,"DIS_CODE":0,"TOWNNAME":"安定區","LI":"安定里","LIN":"6鄰","STREET":" ","SECT":" ","MAREA":"安定","LANE":" ","ALLEY":" ","HOUSE_NO":"３０之８號","E_COORD97":172107.35000000001,"N_COORD97":2557971.3199999998,"ADDRESS":"安定３０號之８","OBJECTID":76351},"geometry":{"x":172107.34999999963,"y":2557971.3200000022}},{"attributes":{"ID":76352,"DIS_CODE":0,"TOWNNAME":"關廟區","LI":"香洋里","LIN":"7鄰","STREET":"忠孝街","SECT":" ","MAREA":" ","LANE":" ","ALLEY":" ","HOUSE_NO":"８２號","E_COORD97":181006.39000000001,"N_COORD97":2540214.25,"ADDRESS":"忠孝街８２號","OBJECTID":76352},"geometry":{"x":181006.3900000006,"y":2540214.25}},{"attributes":{"ID":76353,"DIS_CODE":0,"TOWNNAME":"關廟區","LI":"香洋里","LIN":"7鄰","STREET":"南雄路","SECT":"二段","MAREA":" ","LANE":" ","ALLEY":" ","HOUSE_NO":"４１號","E_COORD97":181097.79000000001,"N_COORD97":2540144.02,"ADDRESS":"南雄路二段４１號","OBJECTID":76353},"geometry":{"x":181097.79000000004,"y":2540144.0199999996}},{"attributes":{"ID":76354,"DIS_CODE":0,"TOWNNAME":"關廟區","LI":"北勢里","LIN":"7鄰","STREET":"北安一街","SECT":" ","MAREA":" ","LANE":" ","ALLEY":" ","HOUSE_NO":"１４６號","E_COORD97":181778.14000000001,"N_COORD97":2540523.3199999998,"ADDRESS":"北安一街１４６號","OBJECTID":76354},"geometry":{"x":181778.13999999966,"y":2540523.3199999984}},{"attributes":{"ID":76355,"DIS_CODE":0,"TOWNNAME":"關廟區","LI":"北勢里","LIN":"7鄰","STREET":"北安三街","SECT":" ","MAREA":" ","LANE":" ","ALLEY":" ","HOUSE_NO":"３６號","E_COORD97":181714.39000000001,"N_COORD97":2540541.3199999998,"ADDRESS":"北安三街３６號","OBJECTID":76355},"geometry":{"x":181714.3900000006,"y":2540541.3200000022}},{"attributes":{"ID":76356,"DIS_CODE":0,"TOWNNAME":"安南區","LI":"頂安里","LIN":"19鄰","STREET":"北安路","SECT":"三段","MAREA":" ","LANE":"３９６巷","ALLEY":"５０弄","HOUSE_NO":"５３號","E_COORD97":168879.67999999999,"N_COORD97":2549467.75,"ADDRESS":"北安路三段３９６巷５０弄５３號","OBJECTID":76356},"geometry":{"x":168879.68000000156,"y":2549467.7500000037}},{"attributes":{"ID":76357,"DIS_CODE":0,"TOWNNAME":"安南區","LI":"頂安里","LIN":"19鄰","STREET":"北安路","SECT":"三段","MAREA":" ","LANE":"３９６巷","ALLEY":"５０弄","HOUSE_NO":"５５號","E_COORD97":168882.64000000001,"N_COORD97":2549462.4300000002,"ADDRESS":"北安路三段３９６巷５０弄５５號","OBJECTID":76357},"geometry":{"x":168882.63999999966,"y":2549462.4299999978}},{"attributes":{"ID":76358,"DIS_CODE":0,"TOWNNAME":"安定區","LI":"安定里","LIN":"6鄰","STREET":" ","SECT":" ","MAREA":"安定","LANE":" ","ALLEY":" ","HOUSE_NO":"４６號之３","E_COORD97":172015.79999999999,"N_COORD97":2557863.3199999998,"ADDRESS":"安定４６號之３","OBJECTID":76358},"geometry":{"x":172015.80000000075,"y":2557863.3200000022}},{"attributes":{"ID":76359,"DIS_CODE":0,"TOWNNAME":"安定區","LI":"安定里","LIN":"6鄰","STREET":" ","SECT":" ","MAREA":"安定","LANE":" ","ALLEY":" ","HOUSE_NO":"４６號之２","E_COORD97":172021.64000000001,"N_COORD97":2557863.3199999998,"ADDRESS":"安定４６號之２","OBJECTID":76359},"geometry":{"x":172021.6400000006,"y":2557863.3200000022}},{"attributes":{"ID":76360,"DIS_CODE":0,"TOWNNAME":"安定區","LI":"中榮里","LIN":"6鄰","STREET":" ","SECT":" ","MAREA":"許中營","LANE":" ","ALLEY":" ","HOUSE_NO":"１２之２０號","E_COORD97":172385.48999999999,"N_COORD97":2554829.2999999998,"ADDRESS":"許中營１２之２０號","OBJECTID":76360},"geometry":{"x":172385.49000000209,"y":2554829.3000000026}},{"attributes":{"ID":76361,"DIS_CODE":0,"TOWNNAME":"安定區","LI":"安定里","LIN":"6鄰","STREET":" ","SECT":" ","MAREA":"安定","LANE":" ","ALLEY":" ","HOUSE_NO":"４６號之１５","E_COORD97":171985.31,"N_COORD97":2557879.3199999998,"ADDRESS":"安定４６號之１５","OBJECTID":76361},"geometry":{"x":171985.30999999959,"y":2557879.3200000022}},{"attributes":{"ID":76362,"DIS_CODE":0,"TOWNNAME":"安定區","LI":"安定里","LIN":"6鄰","STREET":" ","SECT":" ","MAREA":"安定","LANE":" ","ALLEY":" ","HOUSE_NO":"３８號之５","E_COORD97":172201.76000000001,"N_COORD97":2557865.3199999998,"ADDRESS":"安定３８號之５","OBJECTID":76362},"geometry":{"x":172201.76000000164,"y":2557865.320000004}},{"attributes":{"ID":76363,"DIS_CODE":0,"TOWNNAME":"安南區","LI":"頂安里","LIN":"19鄰","STREET":"北安路","SECT":"三段","MAREA":" ","LANE":"３９６巷","ALLEY":"５０弄","HOUSE_NO":"５７號","E_COORD97":168887.38,"N_COORD97":2549458.8799999999,"ADDRESS":"北安路三段３９６巷５０弄５７號","OBJECTID":76363},"geometry":{"x":168887.38000000082,"y":2549458.8800000027}},{"attributes":{"ID":76364,"DIS_CODE":0,"TOWNNAME":"安定區","LI":"安定里","LIN":"6鄰","STREET":" ","SECT":" ","MAREA":"安定","LANE":" ","ALLEY":" ","HOUSE_NO":"２９號之３","E_COORD97":172090.60000000001,"N_COORD97":2557914.3199999998,"ADDRESS":"安定２９號之３","OBJECTID":76364},"geometry":{"x":172090.59999999963,"y":2557914.3200000022}},{"attributes":{"ID":76365,"DIS_CODE":0,"TOWNNAME":"安定區","LI":"港口里","LIN":"6鄰","STREET":" ","SECT":" ","MAREA":"港口","LANE":" ","ALLEY":" ","HOUSE_NO":"２７７號之２","E_COORD97":171496.16,"N_COORD97":2554602.2999999998,"ADDRESS":"港口２７７號之２","OBJECTID":76365},"geometry":{"x":171496.16000000108,"y":2554602.3000000026}},{"attributes":{"ID":76366,"DIS_CODE":0,"TOWNNAME":"安定區","LI":"中榮里","LIN":"6鄰","STREET":" ","SECT":" ","MAREA":"許中營","LANE":" ","ALLEY":" ","HOUSE_NO":"１２之１０號","E_COORD97":172399.79000000001,"N_COORD97":2554831.2999999998,"ADDRESS":"許中營１２之１０號","OBJECTID":76366},"geometry":{"x":172399.79000000004,"y":2554831.2999999989}},{"attributes":{"ID":76367,"DIS_CODE":0,"TOWNNAME":"安定區","LI":"中榮里","LIN":"6鄰","STREET":" ","SECT":" ","MAREA":"許中營","LANE":" ","ALLEY":" ","HOUSE_NO":"５５號之１","E_COORD97":172378.07999999999,"N_COORD97":2554954.2999999998,"ADDRESS":"許中營５５號之１","OBJECTID":76367},"geometry":{"x":172378.08000000101,"y":2554954.3000000026}},{"attributes":{"ID":76368,"DIS_CODE":0,"TOWNNAME":"安南區","LI":"頂安里","LIN":"19鄰","STREET":"北安路","SECT":"三段","MAREA":" ","LANE":"３９６巷","ALLEY":"５０弄","HOUSE_NO":"５９號","E_COORD97":168890.92999999999,"N_COORD97":2549454.4399999999,"ADDRESS":"北安路三段３９６巷５０弄５９號","OBJECTID":76368},"geometry":{"x":168890.9299999997,"y":2549454.4399999995}},{"attributes":{"ID":76369,"DIS_CODE":0,"TOWNNAME":"安南區","LI":"頂安里","LIN":"19鄰","STREET":"北安路","SECT":"三段","MAREA":" ","LANE":"３９６巷","ALLEY":"５０弄","HOUSE_NO":"５號","E_COORD97":168909.03,"N_COORD97":2549491.29,"ADDRESS":"北安路三段３９６巷５０弄５號","OBJECTID":76369},"geometry":{"x":168909.03000000119,"y":2549491.290000001}},{"attributes":{"ID":76370,"DIS_CODE":0,"TOWNNAME":"安南區","LI":"頂安里","LIN":"19鄰","STREET":"北安路","SECT":"三段","MAREA":" ","LANE":"３９６巷","ALLEY":"５０弄","HOUSE_NO":"６１號","E_COORD97":168893.89000000001,"N_COORD97":2549448.5299999998,"ADDRESS":"北安路三段３９６巷５０弄６１號","OBJECTID":76370},"geometry":{"x":168893.8900000006,"y":2549448.5300000012}},{"attributes":{"ID":76371,"DIS_CODE":0,"TOWNNAME":"安南區","LI":"頂安里","LIN":"19鄰","STREET":"北安路","SECT":"三段","MAREA":" ","LANE":"３９６巷","ALLEY":"５０弄","HOUSE_NO":"６３號","E_COORD97":168897.73999999999,"N_COORD97":2549444.0899999999,"ADDRESS":"北安路三段３９６巷５０弄６３號","OBJECTID":76371},"geometry":{"x":168897.74000000022,"y":2549444.0899999999}},{"attributes":{"ID":76372,"DIS_CODE":0,"TOWNNAME":"安南區","LI":"頂安里","LIN":"19鄰","STREET":"北安路","SECT":"三段","MAREA":" ","LANE":"３９６巷","ALLEY":"５０弄","HOUSE_NO":"６５號","E_COORD97":168861.92000000001,"N_COORD97":2549471,"ADDRESS":"北安路三段３９６巷５０弄６５號","OBJECTID":76372},"geometry":{"x":168861.92000000086,"y":2549471}},{"attributes":{"ID":76373,"DIS_CODE":0,"TOWNNAME":"安南區","LI":"頂安里","LIN":"19鄰","STREET":"北安路","SECT":"三段","MAREA":" ","LANE":"３９６巷","ALLEY":"５０弄","HOUSE_NO":"６７號","E_COORD97":168865.76999999999,"N_COORD97":2549465.98,"ADDRESS":"北安路三段３９６巷５０弄６７號","OBJECTID":76373},"geometry":{"x":168865.77000000048,"y":2549465.9800000004}},{"attributes":{"ID":76374,"DIS_CODE":0,"TOWNNAME":"安南區","LI":"頂安里","LIN":"19鄰","STREET":"北安路","SECT":"三段","MAREA":" ","LANE":"３９６巷","ALLEY":"５０弄","HOUSE_NO":"６９號","E_COORD97":168868.44,"N_COORD97":2549460.3599999999,"ADDRESS":"北安路三段３９６巷５０弄６９號","OBJECTID":76374},"geometry":{"x":168868.44000000227,"y":2549460.3600000013}},{"attributes":{"ID":76375,"DIS_CODE":0,"TOWNNAME":"安南區","LI":"頂安里","LIN":"19鄰","STREET":"北安路","SECT":"三段","MAREA":" ","LANE":"３９６巷","ALLEY":"５０弄","HOUSE_NO":"７１號","E_COORD97":168873.17000000001,"N_COORD97":2549455.04,"ADDRESS":"北安路三段３９６巷５０弄７１號","OBJECTID":76375},"geometry":{"x":168873.17000000179,"y":2549455.040000001}},{"attributes":{"ID":76376,"DIS_CODE":0,"TOWNNAME":"安南區","LI":"頂安里","LIN":"19鄰","STREET":"北安路","SECT":"三段","MAREA":" ","LANE":"３９６巷","ALLEY":"５０弄","HOUSE_NO":"７３號","E_COORD97":168877.01999999999,"N_COORD97":2549450.6000000001,"ADDRESS":"北安路三段３９６巷５０弄７３號","OBJECTID":76376},"geometry":{"x":168877.01999999955,"y":2549450.5999999996}},{"attributes":{"ID":76377,"DIS_CODE":0,"TOWNNAME":"關廟區","LI":"東勢里","LIN":"7鄰","STREET":"旺萊路","SECT":" ","MAREA":" ","LANE":"１９７巷","ALLEY":" ","HOUSE_NO":"３號","E_COORD97":181901.84,"N_COORD97":2539423.25,"ADDRESS":"旺萊路１９７巷３號","OBJECTID":76377},"geometry":{"x":181901.84000000078,"y":2539423.2500000019}},{"attributes":{"ID":76378,"DIS_CODE":0,"TOWNNAME":"關廟區","LI":"新光里","LIN":"7鄰","STREET":"北寮街","SECT":" ","MAREA":" ","LANE":" ","ALLEY":" ","HOUSE_NO":"１１５號","E_COORD97":184258.47,"N_COORD97":2541936.2999999998,"ADDRESS":"北寮街１１５號","OBJECTID":76378},"geometry":{"x":184258.47000000067,"y":2541936.3000000007}},{"attributes":{"ID":76379,"DIS_CODE":0,"TOWNNAME":"關廟區","LI":"北勢里","LIN":"7鄰","STREET":"北安一街","SECT":" ","MAREA":" ","LANE":" ","ALLEY":" ","HOUSE_NO":"１４９號","E_COORD97":181753.94,"N_COORD97":2540501.3199999998,"ADDRESS":"北安一街１４９號","OBJECTID":76379},"geometry":{"x":181753.94000000134,"y":2540501.3200000022}},{"attributes":{"ID":76380,"DIS_CODE":0,"TOWNNAME":"關廟區","LI":"布袋里","LIN":"7鄰","STREET":"南雄南路","SECT":" ","MAREA":" ","LANE":" ","ALLEY":" ","HOUSE_NO":"４３７號","E_COORD97":183803.89000000001,"N_COORD97":2534522.2999999998,"ADDRESS":"南雄南路４３７號","OBJECTID":76380},"geometry":{"x":183803.88999999966,"y":2534522.3000000007}},{"attributes":{"ID":76381,"DIS_CODE":0,"TOWNNAME":"安定區","LI":"保西里","LIN":"6鄰","STREET":" ","SECT":" ","MAREA":"安定","LANE":" ","ALLEY":" ","HOUSE_NO":"３８６之８號","E_COORD97":171568.32000000001,"N_COORD97":2557732.3199999998,"ADDRESS":"安定３８６之８號","OBJECTID":76381},"geometry":{"x":171568.32000000123,"y":2557732.3200000003}},{"attributes":{"ID":76382,"DIS_CODE":0,"TOWNNAME":"安定區","LI":"安定里","LIN":"6鄰","STREET":" ","SECT":" ","MAREA":"安定","LANE":" ","ALLEY":" ","HOUSE_NO":"４６之４號","E_COORD97":172010.17000000001,"N_COORD97":2557863.3199999998,"ADDRESS":"安定４６之４號","OBJECTID":76382},"geometry":{"x":172010.16999999993,"y":2557863.3200000022}},{"attributes":{"ID":76383,"DIS_CODE":0,"TOWNNAME":"關廟區","LI":"新光里","LIN":"7鄰","STREET":"北寮街","SECT":" ","MAREA":" ","LANE":" ","ALLEY":" ","HOUSE_NO":"１１６號","E_COORD97":184270.17000000001,"N_COORD97":2541928.25,"ADDRESS":"北寮街１１６號","OBJECTID":76383},"geometry":{"x":184270.16999999993,"y":2541928.2500000019}},{"attributes":{"ID":76384,"DIS_CODE":0,"TOWNNAME":"關廟區","LI":"松腳里","LIN":"7鄰","STREET":"四維街","SECT":" ","MAREA":" ","LANE":" ","ALLEY":" ","HOUSE_NO":"１９８號","E_COORD97":181872.76000000001,"N_COORD97":2539876.25,"ADDRESS":"四維街１９８號","OBJECTID":76384},"geometry":{"x":181872.75999999885,"y":2539876.2500000037}},{"attributes":{"ID":76385,"DIS_CODE":0,"TOWNNAME":"關廟區","LI":"新光里","LIN":"7鄰","STREET":"新光街","SECT":" ","MAREA":" ","LANE":" ","ALLEY":" ","HOUSE_NO":"２２５號","E_COORD97":184230.26999999999,"N_COORD97":2541877.25,"ADDRESS":"新光街２２５號","OBJECTID":76385},"geometry":{"x":184230.26999999955,"y":2541877.2500000019}},{"attributes":{"ID":76386,"DIS_CODE":0,"TOWNNAME":"關廟區","LI":"東勢里","LIN":"7鄰","STREET":"旺萊路","SECT":" ","MAREA":" ","LANE":" ","ALLEY":" ","HOUSE_NO":"１９５號","E_COORD97":181905.44,"N_COORD97":2539405.25,"ADDRESS":"旺萊路１９５號","OBJECTID":76386},"geometry":{"x":181905.44000000041,"y":2539405.2500000019}},{"attributes":{"ID":76387,"DIS_CODE":0,"TOWNNAME":"關廟區","LI":"田中里","LIN":"7鄰","STREET":"中崙街","SECT":" ","MAREA":" ","LANE":" ","ALLEY":" ","HOUSE_NO":"２８號","E_COORD97":183384.84,"N_COORD97":2533544.25,"ADDRESS":"中崙街２８號","OBJECTID":76387},"geometry":{"x":183384.84000000078,"y":2533544.2500000019}},{"attributes":{"ID":76388,"DIS_CODE":0,"TOWNNAME":"安定區","LI":"安定里","LIN":"6鄰","STREET":" ","SECT":" ","MAREA":"安定","LANE":" ","ALLEY":" ","HOUSE_NO":"４６之１４號","E_COORD97":171985.72,"N_COORD97":2557875.3199999998,"ADDRESS":"安定４６之１４號","OBJECTID":76388},"geometry":{"x":171985.72000000067,"y":2557875.3199999984}},{"attributes":{"ID":76389,"DIS_CODE":0,"TOWNNAME":"安定區","LI":"中榮里","LIN":"6鄰","STREET":" ","SECT":" ","MAREA":"許中營","LANE":" ","ALLEY":" ","HOUSE_NO":"１２之１３號","E_COORD97":172375.89000000001,"N_COORD97":2554858.2999999998,"ADDRESS":"許中營１２之１３號","OBJECTID":76389},"geometry":{"x":172375.8900000006,"y":2554858.3000000007}},{"attributes":{"ID":76390,"DIS_CODE":0,"TOWNNAME":"安定區","LI":"安定里","LIN":"6鄰","STREET":" ","SECT":" ","MAREA":"安定","LANE":" ","ALLEY":" ","HOUSE_NO":"３８號之６","E_COORD97":172202.17000000001,"N_COORD97":2557861.3199999998,"ADDRESS":"安定３８之６號","OBJECTID":76390},"geometry":{"x":172202.16999999993,"y":2557861.3200000003}},{"attributes":{"ID":76391,"DIS_CODE":0,"TOWNNAME":"安定區","LI":"保西里","LIN":"6鄰","STREET":" ","SECT":" ","MAREA":"安定","LANE":" ","ALLEY":" ","HOUSE_NO":"３８４號之２","E_COORD97":171581.89000000001,"N_COORD97":2557695.3199999998,"ADDRESS":"安定３８４號之２","OBJECTID":76391},"geometry":{"x":171581.88999999966,"y":2557695.3200000003}},{"attributes":{"ID":76392,"DIS_CODE":0,"TOWNNAME":"安定區","LI":"安定里","LIN":"6鄰","STREET":" ","SECT":" ","MAREA":"安定","LANE":" ","ALLEY":" ","HOUSE_NO":"３４之１號","E_COORD97":172168.87,"N_COORD97":2557922.3199999998,"ADDRESS":"安定３４之１號","OBJECTID":76392},"geometry":{"x":172168.87000000011,"y":2557922.3200000003}},{"attributes":{"ID":76393,"DIS_CODE":0,"TOWNNAME":"安南區","LI":"頂安里","LIN":"19鄰","STREET":"北安路","SECT":"三段","MAREA":" ","LANE":"３９６巷","ALLEY":"５０弄","HOUSE_NO":"７５號","E_COORD97":168881.16,"N_COORD97":2549447.0499999998,"ADDRESS":"北安路三段３９６巷５０弄７５號","OBJECTID":76393},"geometry":{"x":168881.16000000015,"y":2549447.0500000026}},{"attributes":{"ID":76394,"DIS_CODE":0,"TOWNNAME":"安南區","LI":"頂安里","LIN":"19鄰","STREET":"北安路","SECT":"三段","MAREA":" ","LANE":"３９６巷","ALLEY":"５０弄","HOUSE_NO":"８３號","E_COORD97":168856.29999999999,"N_COORD97":2549457.7000000002,"ADDRESS":"北安路三段３９６巷５０弄８３號","OBJECTID":76394},"geometry":{"x":168856.29999999981,"y":2549457.7000000011}},{"attributes":{"ID":76395,"DIS_CODE":0,"TOWNNAME":"安南區","LI":"頂安里","LIN":"19鄰","STREET":"北安路","SECT":"三段","MAREA":" ","LANE":"３９６巷","ALLEY":"５０弄","HOUSE_NO":"８５號","E_COORD97":168860.73999999999,"N_COORD97":2549452.3700000001,"ADDRESS":"北安路三段３９６巷５０弄８５號","OBJECTID":76395},"geometry":{"x":168860.74000000022,"y":2549452.3700000029}},{"attributes":{"ID":76396,"DIS_CODE":0,"TOWNNAME":"安南區","LI":"頂安里","LIN":"19鄰","STREET":"北安路","SECT":"三段","MAREA":" ","LANE":"３９６巷","ALLEY":"５０弄","HOUSE_NO":"８７號","E_COORD97":168864,"N_COORD97":2549448.23,"ADDRESS":"北安路三段３９６巷５０弄８７號","OBJECTID":76396},"geometry":{"x":168864,"y":2549448.2300000023}},{"attributes":{"ID":76397,"DIS_CODE":0,"TOWNNAME":"永康區","LI":"南灣里","LIN":"19鄰","STREET":"大灣一街","SECT":" ","MAREA":" ","LANE":"６２巷","ALLEY":"１１弄","HOUSE_NO":"２號","E_COORD97":174346.73000000001,"N_COORD97":2544693.8999999999,"ADDRESS":"大灣一街６２巷１１弄２號","OBJECTID":76397},"geometry":{"x":174346.73000000045,"y":2544693.9000000022}},{"attributes":{"ID":76398,"DIS_CODE":0,"TOWNNAME":"安南區","LI":"頂安里","LIN":"19鄰","STREET":"北安路","SECT":"三段","MAREA":" ","LANE":"３９６巷","ALLEY":"５０弄","HOUSE_NO":"８９號","E_COORD97":168867.84,"N_COORD97":2549443.21,"ADDRESS":"北安路三段３９６巷５０弄８９號","OBJECTID":76398},"geometry":{"x":168867.83999999985,"y":2549443.2100000028}},{"attributes":{"ID":76399,"DIS_CODE":0,"TOWNNAME":"安南區","LI":"頂安里","LIN":"19鄰","STREET":"北安路","SECT":"三段","MAREA":" ","LANE":"３９６巷","ALLEY":"５０弄","HOUSE_NO":"９１號","E_COORD97":168872.57999999999,"N_COORD97":2549439.0699999998,"ADDRESS":"北安路三段３９６巷５０弄９１號","OBJECTID":76399},"geometry":{"x":168872.58000000101,"y":2549439.0700000022}},{"attributes":{"ID":76400,"DIS_CODE":0,"TOWNNAME":"安南區","LI":"頂安里","LIN":"19鄰","STREET":"北安路","SECT":"三段","MAREA":" ","LANE":"３９６巷","ALLEY":"５０弄","HOUSE_NO":"９３號","E_COORD97":168874.35999999999,"N_COORD97":2549432.5600000001,"ADDRESS":"北安路三段３９６巷５０弄９３號","OBJECTID":76400},"geometry":{"x":168874.36000000127,"y":2549432.5600000024}}]}