{"displayFieldName":"TOWNNAME","fieldAliases":{"ID":"ID","DIS_CODE":"DIS_CODE","TOWNNAME":"TOWNNAME","LI":"LI","LIN":"LIN","STREET":"STREET","SECT":"SECT","MAREA":"MAREA","LANE":"LANE","ALLEY":"ALLEY","HOUSE_NO":"HOUSE_NO","E_COORD97":"E_COORD97","N_COORD97":"N_COORD97","ADDRESS":"ADDRESS","OBJECTID":"OBJECTID"},"geometryType":"esriGeometryPoint","spatialReference":{"wkid":102443,"latestWkid":3826},"fields":[{"name":"ID","type":"esriFieldTypeDouble","alias":"ID"},{"name":"DIS_CODE","type":"esriFieldTypeInteger","alias":"DIS_CODE"},{"name":"TOWNNAME","type":"esriFieldTypeString","alias":"TOWNNAME","length":8},{"name":"LI","type":"esriFieldTypeString","alias":"LI","length":8},{"name":"LIN","type":"esriFieldTypeString","alias":"LIN","length":12},{"name":"STREET","type":"esriFieldTypeString","alias":"STREET","length":20},{"name":"SECT","type":"esriFieldTypeString","alias":"SECT","length":8},{"name":"MAREA","type":"esriFieldTypeString","alias":"MAREA","length":12},{"name":"LANE","type":"esriFieldTypeString","alias":"LANE","length":10},{"name":"ALLEY","type":"esriFieldTypeString","alias":"ALLEY","length":10},{"name":"HOUSE_NO","type":"esriFieldTypeString","alias":"HOUSE_NO","length":20},{"name":"E_COORD97","type":"esriFieldTypeDouble","alias":"E_COORD97"},{"name":"N_COORD97","type":"esriFieldTypeDouble","alias":"N_COORD97"},{"name":"ADDRESS","type":"esriFieldTypeString","alias":"ADDRESS","length":50},{"name":"OBJECTID","type":"esriFieldTypeOID","alias":"OBJECTID"}],"features":[{"attributes":{"ID":334810,"DIS_CODE":0,"TOWNNAME":"新營區","LI":"太北里","LIN":"20鄰","STREET":" ","SECT":" ","MAREA":"太子宮","LANE":" ","ALLEY":" ","HOUSE_NO":"１４０之７６號","E_COORD97":175190.57000000001,"N_COORD97":2576409.0600000001,"ADDRESS":"太子宮１４０之７６號","OBJECTID":334801},"geometry":{"x":175190.57000000216,"y":2576409.0599999987}},{"attributes":{"ID":334811,"DIS_CODE":0,"TOWNNAME":"北區","LI":"成德里","LIN":"20鄰","STREET":"文成二路","SECT":" ","MAREA":" ","LANE":"２１２巷","ALLEY":" ","HOUSE_NO":"２０號","E_COORD97":168475.84,"N_COORD97":2546225.02,"ADDRESS":"文成二路２１２巷２０號","OBJECTID":334802},"geometry":{"x":168475.84000000078,"y":2546225.0200000014}},{"attributes":{"ID":334812,"DIS_CODE":0,"TOWNNAME":"北區","LI":"成德里","LIN":"20鄰","STREET":"文成一路","SECT":" ","MAREA":" ","LANE":"１５８巷","ALLEY":" ","HOUSE_NO":"６號","E_COORD97":168407.79000000001,"N_COORD97":2546080.6099999999,"ADDRESS":"文成一路１５８巷６號","OBJECTID":334803},"geometry":{"x":168407.79000000004,"y":2546080.6099999975}},{"attributes":{"ID":334813,"DIS_CODE":0,"TOWNNAME":"新營區","LI":"新北里","LIN":"20鄰","STREET":"民生路","SECT":" ","MAREA":" ","LANE":"３３６巷","ALLEY":" ","HOUSE_NO":"４號","E_COORD97":178951.29000000001,"N_COORD97":2579216.7000000002,"ADDRESS":"民生路３３６巷４號","OBJECTID":334804},"geometry":{"x":178951.29000000004,"y":2579216.6999999993}},{"attributes":{"ID":334814,"DIS_CODE":0,"TOWNNAME":"歸仁區","LI":"大潭里","LIN":"1鄰","STREET":"中正南路","SECT":"三段","MAREA":" ","LANE":"９５巷","ALLEY":" ","HOUSE_NO":"１１號","E_COORD97":175327.51000000001,"N_COORD97":2535008.2799999998,"ADDRESS":"中正南路三段９５巷１１號","OBJECTID":334805},"geometry":{"x":175327.50999999978,"y":2535008.2800000012}},{"attributes":{"ID":334815,"DIS_CODE":0,"TOWNNAME":"北區","LI":"重興里","LIN":"1鄰","STREET":"東豐路","SECT":" ","MAREA":" ","LANE":"３０５巷","ALLEY":" ","HOUSE_NO":"２號","E_COORD97":170428.20000000001,"N_COORD97":2544822.3700000001,"ADDRESS":"東豐路３０５巷２號","OBJECTID":334806},"geometry":{"x":170428.20000000112,"y":2544822.370000001}},{"attributes":{"ID":334816,"DIS_CODE":0,"TOWNNAME":"北區","LI":"重興里","LIN":"1鄰","STREET":"東豐路","SECT":" ","MAREA":" ","LANE":"３０５巷","ALLEY":" ","HOUSE_NO":"６號","E_COORD97":170428.67999999999,"N_COORD97":2544827.2999999998,"ADDRESS":"東豐路３０５巷６號","OBJECTID":334807},"geometry":{"x":170428.6799999997,"y":2544827.3000000026}},{"attributes":{"ID":334817,"DIS_CODE":0,"TOWNNAME":"北區","LI":"重興里","LIN":"1鄰","STREET":"東豐路","SECT":" ","MAREA":" ","LANE":"３０５巷","ALLEY":" ","HOUSE_NO":"８號","E_COORD97":170429.63,"N_COORD97":2544832.3799999999,"ADDRESS":"東豐路３０５巷８號","OBJECTID":334808},"geometry":{"x":170429.63000000175,"y":2544832.3800000008}},{"attributes":{"ID":334818,"DIS_CODE":0,"TOWNNAME":"北區","LI":"長榮里","LIN":"1鄰","STREET":"長榮路","SECT":"五段","MAREA":" ","LANE":"４１巷","ALLEY":" ","HOUSE_NO":"４６號","E_COORD97":169869.35000000001,"N_COORD97":2545663.79,"ADDRESS":"長榮路五段４１巷４６號","OBJECTID":334809},"geometry":{"x":169869.34999999963,"y":2545663.790000001}},{"attributes":{"ID":334819,"DIS_CODE":0,"TOWNNAME":"新營區","LI":"新南里","LIN":"1鄰","STREET":"民治路","SECT":" ","MAREA":" ","LANE":"２３０巷","ALLEY":" ","HOUSE_NO":"４８號","E_COORD97":178740.13,"N_COORD97":2578649.6000000001,"ADDRESS":"民治路２３０巷４８號","OBJECTID":334810},"geometry":{"x":178740.13000000082,"y":2578649.6000000015}},{"attributes":{"ID":334820,"DIS_CODE":0,"TOWNNAME":"新營區","LI":"忠政里","LIN":"1鄰","STREET":"中正路","SECT":" ","MAREA":" ","LANE":"３１巷","ALLEY":" ","HOUSE_NO":"３２號","E_COORD97":180069.39000000001,"N_COORD97":2578987.6800000002,"ADDRESS":"中正路３１巷３２號","OBJECTID":334811},"geometry":{"x":180069.38999999966,"y":2578987.6800000034}},{"attributes":{"ID":334821,"DIS_CODE":0,"TOWNNAME":"中西區","LI":"永福里","LIN":"17鄰","STREET":"永福路","SECT":"二段","MAREA":" ","LANE":" ","ALLEY":" ","HOUSE_NO":"２２２號","E_COORD97":168236.89999999999,"N_COORD97":2544124.4700000002,"ADDRESS":"永福路二段２２２號","OBJECTID":334812},"geometry":{"x":168236.9000000013,"y":2544124.4700000025}},{"attributes":{"ID":334822,"DIS_CODE":0,"TOWNNAME":"中西區","LI":"永福里","LIN":"17鄰","STREET":"永福路","SECT":"二段","MAREA":" ","LANE":" ","ALLEY":" ","HOUSE_NO":"２２４號","E_COORD97":168239.01999999999,"N_COORD97":2544128.0299999998,"ADDRESS":"永福路二段２２４號","OBJECTID":334813},"geometry":{"x":168239.01999999955,"y":2544128.0299999993}},{"attributes":{"ID":334823,"DIS_CODE":0,"TOWNNAME":"中西區","LI":"赤嵌里","LIN":"17鄰","STREET":"民族路","SECT":"二段","MAREA":" ","LANE":" ","ALLEY":" ","HOUSE_NO":"１６０號","E_COORD97":168397.70999999999,"N_COORD97":2544111.1699999999,"ADDRESS":"民族路二段１６０號","OBJECTID":334814},"geometry":{"x":168397.70999999996,"y":2544111.1700000037}},{"attributes":{"ID":334824,"DIS_CODE":0,"TOWNNAME":"楠西區","LI":"灣丘里","LIN":"4鄰","STREET":" ","SECT":" ","MAREA":"灣丘","LANE":" ","ALLEY":" ","HOUSE_NO":"３７號之１","E_COORD97":200294.67481600001,"N_COORD97":2563650.6267400002,"ADDRESS":"灣丘３７號之１","OBJECTID":334815},"geometry":{"x":200294.67481600028,"y":2563650.6267409995}},{"attributes":{"ID":334825,"DIS_CODE":0,"TOWNNAME":"楠西區","LI":"灣丘里","LIN":"4鄰","STREET":" ","SECT":" ","MAREA":"灣丘","LANE":" ","ALLEY":" ","HOUSE_NO":"３８號","E_COORD97":200355.482154,"N_COORD97":2563661.6334000002,"ADDRESS":"灣丘３８號","OBJECTID":334816},"geometry":{"x":200355.48215399962,"y":2563661.633400999}},{"attributes":{"ID":334826,"DIS_CODE":0,"TOWNNAME":"下營區","LI":"大埤里","LIN":"9鄰","STREET":" ","SECT":" ","MAREA":"大埤寮","LANE":" ","ALLEY":" ","HOUSE_NO":"７９之３３號","E_COORD97":173346.445316,"N_COORD97":2569480.7012399998,"ADDRESS":"大埤寮７９之３３號","OBJECTID":334817},"geometry":{"x":173346.44531599991,"y":2569480.7012360021}},{"attributes":{"ID":334827,"DIS_CODE":0,"TOWNNAME":"新營區","LI":"太北里","LIN":"19鄰","STREET":" ","SECT":" ","MAREA":"太子宮","LANE":" ","ALLEY":" ","HOUSE_NO":"４４之２５號","E_COORD97":175677.565198,"N_COORD97":2577305.3363199998,"ADDRESS":"太子宮４４之２５號","OBJECTID":334818},"geometry":{"x":175677.56519800052,"y":2577305.3363180012}},{"attributes":{"ID":334828,"DIS_CODE":0,"TOWNNAME":"永康區","LI":"南灣里","LIN":"11鄰","STREET":"大灣路","SECT":" ","MAREA":" ","LANE":"５２８巷","ALLEY":" ","HOUSE_NO":"１２號","E_COORD97":174641.95825299999,"N_COORD97":2544820.2678700001,"ADDRESS":"大灣路５２８巷１２號","OBJECTID":334819},"geometry":{"x":174641.95825299993,"y":2544820.2678699996}},{"attributes":{"ID":334829,"DIS_CODE":0,"TOWNNAME":"新營區","LI":"王公里","LIN":"30鄰","STREET":"民族路","SECT":" ","MAREA":" ","LANE":" ","ALLEY":" ","HOUSE_NO":"３５號","E_COORD97":180496.947399,"N_COORD97":2579593.85855,"ADDRESS":"民族路３５號","OBJECTID":334820},"geometry":{"x":180496.94739900064,"y":2579593.8585539982}},{"attributes":{"ID":334830,"DIS_CODE":0,"TOWNNAME":"關廟區","LI":"下湖里","LIN":"6鄰","STREET":"下湖二街","SECT":" ","MAREA":" ","LANE":" ","ALLEY":" ","HOUSE_NO":"１３號","E_COORD97":179411.935234,"N_COORD97":2543217.93083,"ADDRESS":"下湖二街１３號","OBJECTID":334821},"geometry":{"x":179411.93523399904,"y":2543217.9308250025}},{"attributes":{"ID":334831,"DIS_CODE":0,"TOWNNAME":"新營區","LI":"王公里","LIN":"33鄰","STREET":"民族路","SECT":" ","MAREA":" ","LANE":" ","ALLEY":" ","HOUSE_NO":"３３２之１號","E_COORD97":180398.38077399999,"N_COORD97":2579820.4889500001,"ADDRESS":"民族路３３２之１號","OBJECTID":334822},"geometry":{"x":180398.38077399973,"y":2579820.4889490027}},{"attributes":{"ID":334832,"DIS_CODE":0,"TOWNNAME":"新營區","LI":"王公里","LIN":"33鄰","STREET":"民族路","SECT":" ","MAREA":" ","LANE":" ","ALLEY":" ","HOUSE_NO":"３３８號","E_COORD97":180398.59265599999,"N_COORD97":2579831.9189399998,"ADDRESS":"民族路３３８號","OBJECTID":334823},"geometry":{"x":180398.59265600145,"y":2579831.918943001}},{"attributes":{"ID":334833,"DIS_CODE":0,"TOWNNAME":"新營區","LI":"忠政里","LIN":"1鄰","STREET":"中正路","SECT":" ","MAREA":" ","LANE":"３１巷","ALLEY":" ","HOUSE_NO":"３６號","E_COORD97":180066.29999999999,"N_COORD97":2578982.1600000001,"ADDRESS":"中正路３１巷３６號","OBJECTID":334824},"geometry":{"x":180066.30000000075,"y":2578982.160000002}},{"attributes":{"ID":334834,"DIS_CODE":0,"TOWNNAME":"北區","LI":"三德里","LIN":"1鄰","STREET":"北華街","SECT":" ","MAREA":" ","LANE":"１７０巷","ALLEY":" ","HOUSE_NO":"４號之２","E_COORD97":168550.64999999999,"N_COORD97":2544652.2000000002,"ADDRESS":"北華街１７０巷４號之２","OBJECTID":334825},"geometry":{"x":168550.6500000013,"y":2544652.1999999993}},{"attributes":{"ID":334835,"DIS_CODE":0,"TOWNNAME":"北區","LI":"三德里","LIN":"1鄰","STREET":"北華街","SECT":" ","MAREA":" ","LANE":"１７０巷","ALLEY":" ","HOUSE_NO":"４號之３","E_COORD97":168555.92999999999,"N_COORD97":2544651.2400000002,"ADDRESS":"北華街１７０巷４號之３","OBJECTID":334826},"geometry":{"x":168555.93000000156,"y":2544651.2400000021}},{"attributes":{"ID":334836,"DIS_CODE":0,"TOWNNAME":"北區","LI":"三德里","LIN":"1鄰","STREET":"北華街","SECT":" ","MAREA":" ","LANE":"１７０巷","ALLEY":" ","HOUSE_NO":"４號之４","E_COORD97":168561.54000000001,"N_COORD97":2544650.7599999998,"ADDRESS":"北華街１７０巷４號之４","OBJECTID":334827},"geometry":{"x":168561.54000000004,"y":2544650.7600000016}},{"attributes":{"ID":334837,"DIS_CODE":0,"TOWNNAME":"北區","LI":"三德里","LIN":"1鄰","STREET":"北華街","SECT":" ","MAREA":" ","LANE":"１７０巷","ALLEY":" ","HOUSE_NO":"４號之５","E_COORD97":168565.23000000001,"N_COORD97":2544658.3900000001,"ADDRESS":"北華街１７０巷４號之５","OBJECTID":334828},"geometry":{"x":168565.23000000138,"y":2544658.3900000006}},{"attributes":{"ID":334838,"DIS_CODE":0,"TOWNNAME":"北區","LI":"三德里","LIN":"1鄰","STREET":"北華街","SECT":" ","MAREA":" ","LANE":"１７０巷","ALLEY":" ","HOUSE_NO":"４號之６","E_COORD97":168558.17999999999,"N_COORD97":2544660.4700000002,"ADDRESS":"北華街１７０巷４號之６","OBJECTID":334829},"geometry":{"x":168558.18000000063,"y":2544660.4700000025}},{"attributes":{"ID":334839,"DIS_CODE":0,"TOWNNAME":"北區","LI":"三德里","LIN":"1鄰","STREET":"北華街","SECT":" ","MAREA":" ","LANE":"１７０巷","ALLEY":" ","HOUSE_NO":"４號之７","E_COORD97":168557.38,"N_COORD97":2544667.3399999999,"ADDRESS":"北華街１７０巷４號之７","OBJECTID":334830},"geometry":{"x":168557.37999999989,"y":2544667.3400000017}},{"attributes":{"ID":334840,"DIS_CODE":0,"TOWNNAME":"北區","LI":"三德里","LIN":"1鄰","STREET":"北華街","SECT":" ","MAREA":" ","LANE":"１７０巷","ALLEY":" ","HOUSE_NO":"４號之８","E_COORD97":168558.34,"N_COORD97":2544672.1400000001,"ADDRESS":"北華街１７０巷４號之８","OBJECTID":334831},"geometry":{"x":168558.34000000171,"y":2544672.1400000025}},{"attributes":{"ID":334841,"DIS_CODE":0,"TOWNNAME":"南區","LI":"喜東里","LIN":"1鄰","STREET":"明興路","SECT":" ","MAREA":" ","LANE":"３２１巷","ALLEY":" ","HOUSE_NO":"２６號","E_COORD97":166656.75,"N_COORD97":2538890.04,"ADDRESS":"明興路３２１巷２６號","OBJECTID":334832},"geometry":{"x":166656.75,"y":2538890.0400000028}},{"attributes":{"ID":334842,"DIS_CODE":0,"TOWNNAME":"南區","LI":"新昌里","LIN":"1鄰","STREET":"大德街","SECT":" ","MAREA":" ","LANE":"１４１巷","ALLEY":" ","HOUSE_NO":"２７號","E_COORD97":167570.07999999999,"N_COORD97":2542945.9300000002,"ADDRESS":"大德街１４１巷２７號","OBJECTID":334833},"geometry":{"x":167570.08000000007,"y":2542945.9299999997}},{"attributes":{"ID":334843,"DIS_CODE":0,"TOWNNAME":"南區","LI":"新昌里","LIN":"1鄰","STREET":"大德街","SECT":" ","MAREA":" ","LANE":"１４１巷","ALLEY":" ","HOUSE_NO":"２７號之１","E_COORD97":167571.03,"N_COORD97":2542950.3700000001,"ADDRESS":"大德街１４１巷２７號之１","OBJECTID":334834},"geometry":{"x":167571.03000000212,"y":2542950.370000001}},{"attributes":{"ID":334844,"DIS_CODE":0,"TOWNNAME":"北區","LI":"元寶里","LIN":"1鄰","STREET":"北園街","SECT":" ","MAREA":" ","LANE":"１１４巷","ALLEY":" ","HOUSE_NO":"１１號","E_COORD97":170439.91,"N_COORD97":2545960.5800000001,"ADDRESS":"北園街１１４巷１１號","OBJECTID":334835},"geometry":{"x":170439.91000000201,"y":2545960.5800000019}},{"attributes":{"ID":334845,"DIS_CODE":0,"TOWNNAME":"中西區","LI":"赤嵌里","LIN":"17鄰","STREET":"民族路","SECT":"二段","MAREA":" ","LANE":" ","ALLEY":" ","HOUSE_NO":"１６２號","E_COORD97":168390.64000000001,"N_COORD97":2544113.52,"ADDRESS":"民族路二段１６２號","OBJECTID":334836},"geometry":{"x":168390.6400000006,"y":2544113.5199999996}},{"attributes":{"ID":334846,"DIS_CODE":0,"TOWNNAME":"中西區","LI":"赤嵌里","LIN":"17鄰","STREET":"民族路","SECT":"二段","MAREA":" ","LANE":" ","ALLEY":" ","HOUSE_NO":"１６２號之１","E_COORD97":168383.85999999999,"N_COORD97":2544116.1699999999,"ADDRESS":"民族路二段１６２號之１","OBJECTID":334837},"geometry":{"x":168383.86000000034,"y":2544116.1700000018}},{"attributes":{"ID":334847,"DIS_CODE":0,"TOWNNAME":"中西區","LI":"赤嵌里","LIN":"17鄰","STREET":"民族路","SECT":"二段","MAREA":" ","LANE":" ","ALLEY":" ","HOUSE_NO":"１６４號","E_COORD97":168379.44,"N_COORD97":2544117.3500000001,"ADDRESS":"民族路二段１６４號","OBJECTID":334838},"geometry":{"x":168379.44000000041,"y":2544117.3500000015}},{"attributes":{"ID":334848,"DIS_CODE":0,"TOWNNAME":"新營區","LI":"王公里","LIN":"30鄰","STREET":"民族路","SECT":" ","MAREA":" ","LANE":"２６８巷","ALLEY":" ","HOUSE_NO":"３７號","E_COORD97":180477.454234,"N_COORD97":2579569.3052300001,"ADDRESS":"民族路２６８巷３７號","OBJECTID":334839},"geometry":{"x":180477.4542340003,"y":2579569.3052340001}},{"attributes":{"ID":334849,"DIS_CODE":0,"TOWNNAME":"新營區","LI":"王公里","LIN":"30鄰","STREET":"民族路","SECT":" ","MAREA":" ","LANE":"２６８巷","ALLEY":" ","HOUSE_NO":"３９號","E_COORD97":180483.59881900001,"N_COORD97":2579569.09357,"ADDRESS":"民族路２６８巷３９號","OBJECTID":334840},"geometry":{"x":180483.59881900065,"y":2579569.0935680028}},{"attributes":{"ID":334850,"DIS_CODE":0,"TOWNNAME":"新營區","LI":"王公里","LIN":"30鄰","STREET":"民族路","SECT":" ","MAREA":" ","LANE":"２６８巷","ALLEY":" ","HOUSE_NO":"４１號","E_COORD97":180487.83646300001,"N_COORD97":2579569.09357,"ADDRESS":"民族路２６８巷４１號","OBJECTID":334841},"geometry":{"x":180487.83646300063,"y":2579569.0935680028}},{"attributes":{"ID":334851,"DIS_CODE":0,"TOWNNAME":"新營區","LI":"王公里","LIN":"30鄰","STREET":"民族路","SECT":" ","MAREA":" ","LANE":"２６８巷","ALLEY":" ","HOUSE_NO":"４３號","E_COORD97":180493.133519,"N_COORD97":2579567.6118999999,"ADDRESS":"民族路２６８巷４３號","OBJECTID":334842},"geometry":{"x":180493.13351900131,"y":2579567.6119020022}},{"attributes":{"ID":334852,"DIS_CODE":0,"TOWNNAME":"中西區","LI":"萬昌里","LIN":"23鄰","STREET":"青年路","SECT":" ","MAREA":" ","LANE":"２２６巷","ALLEY":" ","HOUSE_NO":"５５號之１","E_COORD97":169128.4014,"N_COORD97":2543460.0107800001,"ADDRESS":"青年路２２６巷５５號之１","OBJECTID":334843},"geometry":{"x":169128.40139999986,"y":2543460.0107799992}},{"attributes":{"ID":334853,"DIS_CODE":0,"TOWNNAME":"白河區","LI":"永安里","LIN":"19鄰","STREET":"國光路","SECT":" ","MAREA":" ","LANE":" ","ALLEY":" ","HOUSE_NO":"３３之１號","E_COORD97":190284.77389000001,"N_COORD97":2583453.4031400001,"ADDRESS":"國光路３３之１號","OBJECTID":334844},"geometry":{"x":190284.77389000077,"y":2583453.4031419996}},{"attributes":{"ID":334854,"DIS_CODE":0,"TOWNNAME":"新營區","LI":"王公里","LIN":"18鄰","STREET":"樂利街","SECT":" ","MAREA":" ","LANE":" ","ALLEY":" ","HOUSE_NO":"４３號","E_COORD97":180269.80965800001,"N_COORD97":2579275.6592399999,"ADDRESS":"樂利街４３號","OBJECTID":334845},"geometry":{"x":180269.80965800025,"y":2579275.6592430025}},{"attributes":{"ID":334855,"DIS_CODE":0,"TOWNNAME":"新營區","LI":"王公里","LIN":"18鄰","STREET":"樂利街","SECT":" ","MAREA":" ","LANE":" ","ALLEY":" ","HOUSE_NO":"４１號","E_COORD97":180264.512602,"N_COORD97":2579275.8709100001,"ADDRESS":"樂利街４１號","OBJECTID":334846},"geometry":{"x":180264.51260199957,"y":2579275.8709089998}},{"attributes":{"ID":334856,"DIS_CODE":0,"TOWNNAME":"東區","LI":"富裕里","LIN":"1鄰","STREET":"東門路","SECT":"二段","MAREA":" ","LANE":"２６９巷","ALLEY":" ","HOUSE_NO":"３２號","E_COORD97":170654.54999999999,"N_COORD97":2542768.6699999999,"ADDRESS":"東門路二段２６９巷３２號","OBJECTID":334847},"geometry":{"x":170654.55000000075,"y":2542768.6700000037}},{"attributes":{"ID":334857,"DIS_CODE":0,"TOWNNAME":"東區","LI":"龍山里","LIN":"1鄰","STREET":"東門路","SECT":"二段","MAREA":" ","LANE":"３１２巷","ALLEY":" ","HOUSE_NO":"６號","E_COORD97":170596.03,"N_COORD97":2542650.2000000002,"ADDRESS":"東門路二段３１２巷６號","OBJECTID":334848},"geometry":{"x":170596.03000000026,"y":2542650.2000000011}},{"attributes":{"ID":334858,"DIS_CODE":0,"TOWNNAME":"東區","LI":"龍山里","LIN":"1鄰","STREET":"東門路","SECT":"二段","MAREA":" ","LANE":"３１２巷","ALLEY":" ","HOUSE_NO":"２１號","E_COORD97":170655.48999999999,"N_COORD97":2542624.77,"ADDRESS":"東門路二段３１２巷２１號","OBJECTID":334849},"geometry":{"x":170655.49000000115,"y":2542624.7699999996}},{"attributes":{"ID":334859,"DIS_CODE":0,"TOWNNAME":"東區","LI":"自強里","LIN":"1鄰","STREET":"東成街","SECT":" ","MAREA":" ","LANE":"７１巷","ALLEY":" ","HOUSE_NO":"１號","E_COORD97":171422.07000000001,"N_COORD97":2542296.9900000002,"ADDRESS":"東成街７１巷１號","OBJECTID":334850},"geometry":{"x":171422.07000000216,"y":2542296.9900000021}},{"attributes":{"ID":334860,"DIS_CODE":0,"TOWNNAME":"東區","LI":"和平里","LIN":"1鄰","STREET":"東門路","SECT":"三段","MAREA":" ","LANE":"２６巷","ALLEY":" ","HOUSE_NO":"５號","E_COORD97":171090.26000000001,"N_COORD97":2542278.8999999999,"ADDRESS":"東門路三段２６巷５號","OBJECTID":334851},"geometry":{"x":171090.26000000071,"y":2542278.9000000004}},{"attributes":{"ID":334861,"DIS_CODE":0,"TOWNNAME":"仁德區","LI":"仁愛里","LIN":"27鄰","STREET":"大同路","SECT":"三段","MAREA":" ","LANE":" ","ALLEY":" ","HOUSE_NO":"７５５號二樓之２","E_COORD97":170019.23000000001,"N_COORD97":2538630.6800000002,"ADDRESS":"大同路三段７５５號二樓之２","OBJECTID":334852},"geometry":{"x":170019.23000000231,"y":2538630.6799999997}},{"attributes":{"ID":334862,"DIS_CODE":0,"TOWNNAME":"東區","LI":"龍山里","LIN":"1鄰","STREET":"東門路","SECT":"二段","MAREA":" ","LANE":"３１２巷","ALLEY":" ","HOUSE_NO":"４號","E_COORD97":170607.17999999999,"N_COORD97":2542653.1099999999,"ADDRESS":"東門路二段３１２巷４號","OBJECTID":334853},"geometry":{"x":170607.18000000156,"y":2542653.1100000031}},{"attributes":{"ID":334863,"DIS_CODE":0,"TOWNNAME":"中西區","LI":"赤嵌里","LIN":"17鄰","STREET":"民族路","SECT":"二段","MAREA":" ","LANE":" ","ALLEY":" ","HOUSE_NO":"１６６號","E_COORD97":168376.20000000001,"N_COORD97":2544117.9399999999,"ADDRESS":"民族路二段１６６號","OBJECTID":334854},"geometry":{"x":168376.20000000019,"y":2544117.9399999995}},{"attributes":{"ID":334864,"DIS_CODE":0,"TOWNNAME":"中西區","LI":"赤嵌里","LIN":"17鄰","STREET":"民族路","SECT":"二段","MAREA":" ","LANE":" ","ALLEY":" ","HOUSE_NO":"１６８號","E_COORD97":168372.07999999999,"N_COORD97":2544119.4100000001,"ADDRESS":"民族路二段１６８號","OBJECTID":334855},"geometry":{"x":168372.07999999914,"y":2544119.4100000001}},{"attributes":{"ID":334865,"DIS_CODE":0,"TOWNNAME":"中西區","LI":"赤嵌里","LIN":"17鄰","STREET":"民族路","SECT":"二段","MAREA":" ","LANE":" ","ALLEY":" ","HOUSE_NO":"１７０號","E_COORD97":168368.84,"N_COORD97":2544121.1699999999,"ADDRESS":"民族路二段１７０號","OBJECTID":334856},"geometry":{"x":168368.84000000078,"y":2544121.1699999981}},{"attributes":{"ID":334866,"DIS_CODE":0,"TOWNNAME":"中西區","LI":"赤嵌里","LIN":"17鄰","STREET":"忠義路","SECT":"二段","MAREA":" ","LANE":" ","ALLEY":" ","HOUSE_NO":"１６９號","E_COORD97":168394.76000000001,"N_COORD97":2544118.52,"ADDRESS":"忠義路二段１６９號","OBJECTID":334857},"geometry":{"x":168394.76000000071,"y":2544118.5200000033}},{"attributes":{"ID":334867,"DIS_CODE":0,"TOWNNAME":"中西區","LI":"赤嵌里","LIN":"17鄰","STREET":"忠義路","SECT":"二段","MAREA":" ","LANE":" ","ALLEY":" ","HOUSE_NO":"１７１號","E_COORD97":168395.64999999999,"N_COORD97":2544122.0600000001,"ADDRESS":"忠義路二段１７１號","OBJECTID":334858},"geometry":{"x":168395.64999999944,"y":2544122.0600000005}},{"attributes":{"ID":334868,"DIS_CODE":0,"TOWNNAME":"中西區","LI":"赤嵌里","LIN":"17鄰","STREET":"忠義路","SECT":"二段","MAREA":" ","LANE":" ","ALLEY":" ","HOUSE_NO":"１７３號","E_COORD97":168401.10000000001,"N_COORD97":2544130.0299999998,"ADDRESS":"忠義路二段１７３號","OBJECTID":334859},"geometry":{"x":168401.10000000056,"y":2544130.0300000012}},{"attributes":{"ID":334869,"DIS_CODE":0,"TOWNNAME":"學甲區","LI":"秀昌里","LIN":"20鄰","STREET":" ","SECT":" ","MAREA":"下溪洲","LANE":" ","ALLEY":" ","HOUSE_NO":"６５號之１","E_COORD97":165277.01000000001,"N_COORD97":2571243.4500000002,"ADDRESS":"下溪洲６５號之１","OBJECTID":334860},"geometry":{"x":165277.01000000164,"y":2571243.4500000011}},{"attributes":{"ID":334870,"DIS_CODE":0,"TOWNNAME":"學甲區","LI":"秀昌里","LIN":"20鄰","STREET":" ","SECT":" ","MAREA":"下溪洲","LANE":" ","ALLEY":" ","HOUSE_NO":"６５號之８","E_COORD97":165324.06,"N_COORD97":2571209.6299999999,"ADDRESS":"下溪洲６５號之８","OBJECTID":334861},"geometry":{"x":165324.06000000052,"y":2571209.6300000027}},{"attributes":{"ID":334871,"DIS_CODE":0,"TOWNNAME":"中西區","LI":"萬昌里","LIN":"23鄰","STREET":"青年路","SECT":" ","MAREA":" ","LANE":"２２６巷","ALLEY":" ","HOUSE_NO":"５７號之２","E_COORD97":169130.73209,"N_COORD97":2543465.0907800002,"ADDRESS":"青年路２２６巷５７號之２","OBJECTID":334862},"geometry":{"x":169130.73209000099,"y":2543465.0907800011}},{"attributes":{"ID":334872,"DIS_CODE":0,"TOWNNAME":"中西區","LI":"萬昌里","LIN":"23鄰","STREET":"青年路","SECT":" ","MAREA":" ","LANE":"２２６巷","ALLEY":" ","HOUSE_NO":"５９號之１","E_COORD97":169140.05489,"N_COORD97":2543461.0691200001,"ADDRESS":"青年路２２６巷５９號之１","OBJECTID":334863},"geometry":{"x":169140.05489000119,"y":2543461.069120001}},{"attributes":{"ID":334873,"DIS_CODE":0,"TOWNNAME":"新營區","LI":"王公里","LIN":"18鄰","STREET":"樂利街","SECT":" ","MAREA":" ","LANE":" ","ALLEY":" ","HOUSE_NO":"５７號","E_COORD97":180299.68505100001,"N_COORD97":2579277.5642400002,"ADDRESS":"樂利街５７號","OBJECTID":334864},"geometry":{"x":180299.68505099975,"y":2579277.5642420016}},{"attributes":{"ID":334874,"DIS_CODE":0,"TOWNNAME":"東山區","LI":"科里里","LIN":"20鄰","STREET":" ","SECT":" ","MAREA":"枋子林","LANE":" ","ALLEY":" ","HOUSE_NO":"４９號之５","E_COORD97":188246.95999999999,"N_COORD97":2576691.2400000002,"ADDRESS":"枋子林４９號之５","OBJECTID":334865},"geometry":{"x":188246.95999999996,"y":2576691.2400000002}},{"attributes":{"ID":334875,"DIS_CODE":0,"TOWNNAME":"仁德區","LI":"太子里","LIN":"15鄰","STREET":"太子北路","SECT":" ","MAREA":" ","LANE":" ","ALLEY":" ","HOUSE_NO":"１０１號二樓","E_COORD97":174025.71079799999,"N_COORD97":2543666.3378300001,"ADDRESS":"太子北路１０１號二樓","OBJECTID":334866},"geometry":{"x":174025.71079800092,"y":2543666.3378320001}},{"attributes":{"ID":334876,"DIS_CODE":0,"TOWNNAME":"東山區","LI":"科里里","LIN":"20鄰","STREET":" ","SECT":" ","MAREA":"枋子林","LANE":" ","ALLEY":" ","HOUSE_NO":"４９號之６","E_COORD97":188303.75,"N_COORD97":2576691.3399999999,"ADDRESS":"枋子林４９號之６","OBJECTID":334867},"geometry":{"x":188303.75000000093,"y":2576691.3400000036}},{"attributes":{"ID":334877,"DIS_CODE":0,"TOWNNAME":"東山區","LI":"科里里","LIN":"20鄰","STREET":" ","SECT":" ","MAREA":"枋子林","LANE":" ","ALLEY":" ","HOUSE_NO":"５０號之１","E_COORD97":188244.97,"N_COORD97":2576787.9900000002,"ADDRESS":"枋子林５０號之１","OBJECTID":334868},"geometry":{"x":188244.96999999974,"y":2576787.9900000002}},{"attributes":{"ID":334878,"DIS_CODE":0,"TOWNNAME":"東山區","LI":"科里里","LIN":"20鄰","STREET":" ","SECT":" ","MAREA":"枋子林","LANE":" ","ALLEY":" ","HOUSE_NO":"５０號","E_COORD97":188267.41,"N_COORD97":2576766.0600000001,"ADDRESS":"枋子林５０號","OBJECTID":334869},"geometry":{"x":188267.41000000015,"y":2576766.0600000024}},{"attributes":{"ID":334879,"DIS_CODE":0,"TOWNNAME":"新營區","LI":"王公里","LIN":"31鄰","STREET":"大勇街","SECT":" ","MAREA":" ","LANE":" ","ALLEY":" ","HOUSE_NO":"６５號之１","E_COORD97":180335.28125999999,"N_COORD97":2579444.1987299998,"ADDRESS":"大勇街６５號之１","OBJECTID":334870},"geometry":{"x":180335.28125999961,"y":2579444.1987299994}},{"attributes":{"ID":334880,"DIS_CODE":0,"TOWNNAME":"新營區","LI":"王公里","LIN":"18鄰","STREET":"樂利街","SECT":" ","MAREA":" ","LANE":" ","ALLEY":" ","HOUSE_NO":"５５號","E_COORD97":180295.87117100001,"N_COORD97":2579277.7759099999,"ADDRESS":"樂利街５５號","OBJECTID":334871},"geometry":{"x":180295.87117100041,"y":2579277.7759080045}},{"attributes":{"ID":334881,"DIS_CODE":0,"TOWNNAME":"新營區","LI":"王公里","LIN":"18鄰","STREET":"樂利街","SECT":" ","MAREA":" ","LANE":" ","ALLEY":" ","HOUSE_NO":"５３號","E_COORD97":180292.057291,"N_COORD97":2579277.7759099999,"ADDRESS":"樂利街５３號","OBJECTID":334872},"geometry":{"x":180292.05729100108,"y":2579277.7759080045}},{"attributes":{"ID":334882,"DIS_CODE":0,"TOWNNAME":"新營區","LI":"王公里","LIN":"18鄰","STREET":"樂利街","SECT":" ","MAREA":" ","LANE":" ","ALLEY":" ","HOUSE_NO":"５１號","E_COORD97":180288.45529300001,"N_COORD97":2579276.2942400002,"ADDRESS":"樂利街５１號","OBJECTID":334873},"geometry":{"x":180288.45529299974,"y":2579276.2942430023}},{"attributes":{"ID":334883,"DIS_CODE":0,"TOWNNAME":"東區","LI":"自強里","LIN":"1鄰","STREET":"東成街","SECT":" ","MAREA":" ","LANE":"７１巷","ALLEY":" ","HOUSE_NO":"３號","E_COORD97":171419.84,"N_COORD97":2542307.21,"ADDRESS":"東成街７１巷３號","OBJECTID":334874},"geometry":{"x":171419.84000000171,"y":2542307.2100000009}},{"attributes":{"ID":334884,"DIS_CODE":0,"TOWNNAME":"東區","LI":"自強里","LIN":"1鄰","STREET":"東成街","SECT":" ","MAREA":" ","LANE":"７１巷","ALLEY":" ","HOUSE_NO":"１１號","E_COORD97":171418.25,"N_COORD97":2542317,"ADDRESS":"東成街７１巷１１號","OBJECTID":334875},"geometry":{"x":171418.25,"y":2542317.0000000019}},{"attributes":{"ID":334885,"DIS_CODE":0,"TOWNNAME":"東區","LI":"自強里","LIN":"1鄰","STREET":"東成街","SECT":" ","MAREA":" ","LANE":"７１巷","ALLEY":" ","HOUSE_NO":"２號","E_COORD97":171430.20999999999,"N_COORD97":2542297.54,"ADDRESS":"東成街７１巷２號","OBJECTID":334876},"geometry":{"x":171430.20999999996,"y":2542297.5400000028}},{"attributes":{"ID":334886,"DIS_CODE":0,"TOWNNAME":"東區","LI":"自強里","LIN":"1鄰","STREET":"東成街","SECT":" ","MAREA":" ","LANE":"７１巷","ALLEY":" ","HOUSE_NO":"４號","E_COORD97":171430.20999999999,"N_COORD97":2542300.02,"ADDRESS":"東成街７１巷４號","OBJECTID":334877},"geometry":{"x":171430.20999999996,"y":2542300.0199999996}},{"attributes":{"ID":334887,"DIS_CODE":0,"TOWNNAME":"東區","LI":"自強里","LIN":"1鄰","STREET":"東成街","SECT":" ","MAREA":" ","LANE":"７１巷","ALLEY":" ","HOUSE_NO":"６號","E_COORD97":171430.04000000001,"N_COORD97":2542302.5,"ADDRESS":"東成街７１巷６號","OBJECTID":334878},"geometry":{"x":171430.04000000004,"y":2542302.5000000019}},{"attributes":{"ID":334888,"DIS_CODE":0,"TOWNNAME":"東區","LI":"自強里","LIN":"1鄰","STREET":"東成街","SECT":" ","MAREA":" ","LANE":"７１巷","ALLEY":" ","HOUSE_NO":"８號","E_COORD97":171429.69,"N_COORD97":2542305.0699999998,"ADDRESS":"東成街７１巷８號","OBJECTID":334879},"geometry":{"x":171429.69000000041,"y":2542305.070000004}},{"attributes":{"ID":334889,"DIS_CODE":0,"TOWNNAME":"東區","LI":"自強里","LIN":"1鄰","STREET":"東成街","SECT":" ","MAREA":" ","LANE":"７１巷","ALLEY":" ","HOUSE_NO":"１０號","E_COORD97":171429.17999999999,"N_COORD97":2542307.5499999998,"ADDRESS":"東成街７１巷１０號","OBJECTID":334880},"geometry":{"x":171429.18000000156,"y":2542307.5500000007}},{"attributes":{"ID":334890,"DIS_CODE":0,"TOWNNAME":"東區","LI":"自強里","LIN":"1鄰","STREET":"東成街","SECT":" ","MAREA":" ","LANE":"７１巷","ALLEY":" ","HOUSE_NO":"１２號","E_COORD97":171428.84,"N_COORD97":2542310.2799999998,"ADDRESS":"東成街７１巷１２號","OBJECTID":334881},"geometry":{"x":171428.84000000078,"y":2542310.2800000012}},{"attributes":{"ID":334891,"DIS_CODE":0,"TOWNNAME":"東區","LI":"自強里","LIN":"1鄰","STREET":"東成街","SECT":" ","MAREA":" ","LANE":"７１巷","ALLEY":" ","HOUSE_NO":"１９號","E_COORD97":171411.26999999999,"N_COORD97":2542360.9100000001,"ADDRESS":"東成街７１巷１９號","OBJECTID":334882},"geometry":{"x":171411.26999999955,"y":2542360.910000002}},{"attributes":{"ID":334892,"DIS_CODE":0,"TOWNNAME":"關廟區","LI":"龜洞里","LIN":"1鄰","STREET":"中崙街","SECT":" ","MAREA":" ","LANE":" ","ALLEY":" ","HOUSE_NO":"６８號","E_COORD97":183346.61401799999,"N_COORD97":2533668.2322200001,"ADDRESS":"中崙街６８號","OBJECTID":334883},"geometry":{"x":183346.61401800066,"y":2533668.2322230004}},{"attributes":{"ID":334893,"DIS_CODE":0,"TOWNNAME":"新營區","LI":"太南里","LIN":"25鄰","STREET":"中正路","SECT":" ","MAREA":" ","LANE":" ","ALLEY":" ","HOUSE_NO":"１３６之２號","E_COORD97":180096.913765,"N_COORD97":2579603.4778200001,"ADDRESS":"中正路１３６之２號","OBJECTID":334884},"geometry":{"x":180096.91376500018,"y":2579603.4778160043}},{"attributes":{"ID":334894,"DIS_CODE":0,"TOWNNAME":"新營區","LI":"王公里","LIN":"31鄰","STREET":"大勇街","SECT":" ","MAREA":" ","LANE":" ","ALLEY":" ","HOUSE_NO":"６７號","E_COORD97":180340.15455499999,"N_COORD97":2579444.4103999999,"ADDRESS":"大勇街６７號","OBJECTID":334885},"geometry":{"x":180340.15455500223,"y":2579444.4104020018}},{"attributes":{"ID":334895,"DIS_CODE":0,"TOWNNAME":"新營區","LI":"王公里","LIN":"31鄰","STREET":"大勇街","SECT":" ","MAREA":" ","LANE":" ","ALLEY":" ","HOUSE_NO":"６９號","E_COORD97":180344.81596400001,"N_COORD97":2579445.0454000002,"ADDRESS":"大勇街６９號","OBJECTID":334886},"geometry":{"x":180344.8159640003,"y":2579445.0454010013}},{"attributes":{"ID":334896,"DIS_CODE":0,"TOWNNAME":"新營區","LI":"王公里","LIN":"6鄰","STREET":"民治路","SECT":" ","MAREA":" ","LANE":" ","ALLEY":" ","HOUSE_NO":"８之６８號","E_COORD97":180513.05044699999,"N_COORD97":2578909.8465200001,"ADDRESS":"民治路８之６８號","OBJECTID":334887},"geometry":{"x":180513.05044699926,"y":2578909.8465240039}},{"attributes":{"ID":334897,"DIS_CODE":0,"TOWNNAME":"仁德區","LI":"太子里","LIN":"6鄰","STREET":"長興二街","SECT":" ","MAREA":" ","LANE":" ","ALLEY":" ","HOUSE_NO":"６７之５號","E_COORD97":174209.54221700001,"N_COORD97":2543684.01199,"ADDRESS":"長興二街６７之５號","OBJECTID":334888},"geometry":{"x":174209.54221700039,"y":2543684.0119890012}},{"attributes":{"ID":334898,"DIS_CODE":0,"TOWNNAME":"仁德區","LI":"太子里","LIN":"6鄰","STREET":"長興二街","SECT":" ","MAREA":" ","LANE":" ","ALLEY":" ","HOUSE_NO":"６７之５號二樓","E_COORD97":174209.54221700001,"N_COORD97":2543684.01199,"ADDRESS":"長興二街６７之５號二樓","OBJECTID":334889},"geometry":{"x":174209.54221700039,"y":2543684.0119890012}},{"attributes":{"ID":334899,"DIS_CODE":0,"TOWNNAME":"仁德區","LI":"太子里","LIN":"6鄰","STREET":"長興二街","SECT":" ","MAREA":" ","LANE":" ","ALLEY":" ","HOUSE_NO":"６７之５號三樓","E_COORD97":174209.54221700001,"N_COORD97":2543684.01199,"ADDRESS":"長興二街６７之５號三樓","OBJECTID":334890},"geometry":{"x":174209.54221700039,"y":2543684.0119890012}},{"attributes":{"ID":334900,"DIS_CODE":0,"TOWNNAME":"仁德區","LI":"太子里","LIN":"6鄰","STREET":"長興二街","SECT":" ","MAREA":" ","LANE":" ","ALLEY":" ","HOUSE_NO":"６７之５號五樓","E_COORD97":174209.54221000001,"N_COORD97":2543684.01198,"ADDRESS":"長興二街６７之５號五樓","OBJECTID":334891},"geometry":{"x":174209.54221000057,"y":2543684.0119800027}},{"attributes":{"ID":334901,"DIS_CODE":0,"TOWNNAME":"白河區","LI":"永安里","LIN":"18鄰","STREET":"武聖路","SECT":" ","MAREA":" ","LANE":" ","ALLEY":" ","HOUSE_NO":"１６０號","E_COORD97":189237.745807,"N_COORD97":2582977.9155100002,"ADDRESS":"武聖路１６０號","OBJECTID":334892},"geometry":{"x":189237.7458070023,"y":2582977.9155100007}},{"attributes":{"ID":334902,"DIS_CODE":0,"TOWNNAME":"仁德區","LI":"太子里","LIN":"6鄰","STREET":"長興二街","SECT":" ","MAREA":" ","LANE":" ","ALLEY":" ","HOUSE_NO":"６７之５號四樓","E_COORD97":174209.54221000001,"N_COORD97":2543684.01198,"ADDRESS":"長興二街６７之５號四樓","OBJECTID":334893},"geometry":{"x":174209.54221000057,"y":2543684.0119800027}},{"attributes":{"ID":334903,"DIS_CODE":0,"TOWNNAME":"東區","LI":"自強里","LIN":"1鄰","STREET":"東成街","SECT":" ","MAREA":" ","LANE":"７１巷","ALLEY":" ","HOUSE_NO":"１４號","E_COORD97":171426.06,"N_COORD97":2542315.8199999998,"ADDRESS":"東成街７１巷１４號","OBJECTID":334894},"geometry":{"x":171426.05999999959,"y":2542315.8200000003}},{"attributes":{"ID":334904,"DIS_CODE":0,"TOWNNAME":"東區","LI":"自強里","LIN":"1鄰","STREET":"東成街","SECT":" ","MAREA":" ","LANE":"７１巷","ALLEY":" ","HOUSE_NO":"１６號","E_COORD97":171425.23999999999,"N_COORD97":2542323.6899999999,"ADDRESS":"東成街７１巷１６號","OBJECTID":334895},"geometry":{"x":171425.24000000022,"y":2542323.6899999976}},{"attributes":{"ID":334905,"DIS_CODE":0,"TOWNNAME":"東區","LI":"自強里","LIN":"1鄰","STREET":"東成街","SECT":" ","MAREA":" ","LANE":"７１巷","ALLEY":" ","HOUSE_NO":"２０號","E_COORD97":171418.20000000001,"N_COORD97":2542360.8199999998,"ADDRESS":"東成街７１巷２０號","OBJECTID":334896},"geometry":{"x":171418.20000000112,"y":2542360.8200000003}},{"attributes":{"ID":334906,"DIS_CODE":0,"TOWNNAME":"永康區","LI":"新樹里","LIN":"1鄰","STREET":"富強路","SECT":"二段","MAREA":" ","LANE":"２７８巷","ALLEY":" ","HOUSE_NO":"５號","E_COORD97":175661.73000000001,"N_COORD97":2547446.1899999999,"ADDRESS":"富強路二段２７８巷５號","OBJECTID":334897},"geometry":{"x":175661.73000000045,"y":2547446.1899999995}},{"attributes":{"ID":334907,"DIS_CODE":0,"TOWNNAME":"永康區","LI":"蔦松里","LIN":"1鄰","STREET":"蔦松二街","SECT":" ","MAREA":" ","LANE":"８７巷","ALLEY":" ","HOUSE_NO":"２１號","E_COORD97":173660.12,"N_COORD97":2549274.9900000002,"ADDRESS":"蔦松二街８７巷２１號","OBJECTID":334898},"geometry":{"x":173660.12000000011,"y":2549274.9900000002}},{"attributes":{"ID":334908,"DIS_CODE":0,"TOWNNAME":"永康區","LI":"復華里","LIN":"1鄰","STREET":"復國二路","SECT":" ","MAREA":" ","LANE":"２１２巷","ALLEY":" ","HOUSE_NO":"１０號","E_COORD97":173002.09,"N_COORD97":2545861.02,"ADDRESS":"復國二路２１２巷１０號","OBJECTID":334899},"geometry":{"x":173002.09000000078,"y":2545861.0199999977}},{"attributes":{"ID":334909,"DIS_CODE":0,"TOWNNAME":"關廟區","LI":"松腳里","LIN":"12鄰","STREET":"東興路","SECT":" ","MAREA":" ","LANE":"２１３巷","ALLEY":" ","HOUSE_NO":"１６　號","E_COORD97":181767.11638600001,"N_COORD97":2539608.7699799999,"ADDRESS":"東興路２１３巷１６　號","OBJECTID":334900},"geometry":{"x":181767.11638600193,"y":2539608.7699800022}},{"attributes":{"ID":334910,"DIS_CODE":0,"TOWNNAME":"六甲區","LI":"甲東里","LIN":"3鄰","STREET":"忠孝街","SECT":" ","MAREA":" ","LANE":"２１７巷","ALLEY":" ","HOUSE_NO":"９號","E_COORD97":183959.01813700001,"N_COORD97":2570040.1055700001,"ADDRESS":"忠孝街２１７巷９號","OBJECTID":334901},"geometry":{"x":183959.01813699957,"y":2570040.1055690013}},{"attributes":{"ID":334911,"DIS_CODE":0,"TOWNNAME":"關廟區","LI":"松腳里","LIN":"15鄰","STREET":"和平路","SECT":" ","MAREA":" ","LANE":"１４５巷","ALLEY":" ","HOUSE_NO":"２２號","E_COORD97":181609.063291,"N_COORD97":2539678.4082800001,"ADDRESS":"和平路１４５巷２２號","OBJECTID":334902},"geometry":{"x":181609.0632910002,"y":2539678.408276001}},{"attributes":{"ID":334912,"DIS_CODE":0,"TOWNNAME":"仁德區","LI":"太子里","LIN":"21鄰","STREET":"長興路","SECT":" ","MAREA":" ","LANE":"８７巷","ALLEY":" ","HOUSE_NO":"５１號","E_COORD97":173923.49107300001,"N_COORD97":2543752.63167,"ADDRESS":"長興路８７巷５１號","OBJECTID":334903},"geometry":{"x":173923.49107300118,"y":2543752.6316699982}},{"attributes":{"ID":334913,"DIS_CODE":0,"TOWNNAME":"南區","LI":"郡南里","LIN":"17鄰","STREET":"永成路","SECT":"三段","MAREA":" ","LANE":" ","ALLEY":" ","HOUSE_NO":"４９號","E_COORD97":167479.27440900001,"N_COORD97":2540481.2897299998,"ADDRESS":"永成路三段４９號","OBJECTID":334904},"geometry":{"x":167479.27440900076,"y":2540481.2897330001}},{"attributes":{"ID":334914,"DIS_CODE":0,"TOWNNAME":"仁德區","LI":"太子里","LIN":"15鄰","STREET":"太子北路","SECT":" ","MAREA":" ","LANE":" ","ALLEY":" ","HOUSE_NO":"１０１號四樓","E_COORD97":174025.71079799999,"N_COORD97":2543666.3378300001,"ADDRESS":"太子北路１０１號四樓","OBJECTID":334905},"geometry":{"x":174025.71079800092,"y":2543666.3378320001}},{"attributes":{"ID":334915,"DIS_CODE":0,"TOWNNAME":"仁德區","LI":"太子里","LIN":"15鄰","STREET":"太子北路","SECT":" ","MAREA":" ","LANE":" ","ALLEY":" ","HOUSE_NO":"１０１號一樓","E_COORD97":174025.71079799999,"N_COORD97":2543666.3378300001,"ADDRESS":"太子北路１０１號一樓","OBJECTID":334906},"geometry":{"x":174025.71079800092,"y":2543666.3378320001}},{"attributes":{"ID":334916,"DIS_CODE":0,"TOWNNAME":"東山區","LI":"聖賢里","LIN":"20鄰","STREET":" ","SECT":" ","MAREA":"頂窩","LANE":" ","ALLEY":" ","HOUSE_NO":"６１號之１０","E_COORD97":183321.92000000001,"N_COORD97":2578612.7999999998,"ADDRESS":"頂窩６１號之１０","OBJECTID":334907},"geometry":{"x":183321.92000000086,"y":2578612.8000000026}},{"attributes":{"ID":334917,"DIS_CODE":0,"TOWNNAME":"東山區","LI":"聖賢里","LIN":"20鄰","STREET":" ","SECT":" ","MAREA":"頂窩","LANE":" ","ALLEY":" ","HOUSE_NO":"６１號之１１","E_COORD97":183318.12,"N_COORD97":2578614.9100000001,"ADDRESS":"頂窩６１號之１１","OBJECTID":334908},"geometry":{"x":183318.12000000011,"y":2578614.910000002}},{"attributes":{"ID":334918,"DIS_CODE":0,"TOWNNAME":"東山區","LI":"聖賢里","LIN":"20鄰","STREET":" ","SECT":" ","MAREA":"頂窩","LANE":" ","ALLEY":" ","HOUSE_NO":"６１號之１２","E_COORD97":183360.03,"N_COORD97":2578597.1099999999,"ADDRESS":"頂窩６１號之１２","OBJECTID":334909},"geometry":{"x":183360.03000000119,"y":2578597.1099999994}},{"attributes":{"ID":334919,"DIS_CODE":0,"TOWNNAME":"東山區","LI":"聖賢里","LIN":"20鄰","STREET":" ","SECT":" ","MAREA":"頂窩","LANE":" ","ALLEY":" ","HOUSE_NO":"６１號之１","E_COORD97":183341.94,"N_COORD97":2578604.02,"ADDRESS":"頂窩６１號之１","OBJECTID":334910},"geometry":{"x":183341.93999999948,"y":2578604.0199999996}},{"attributes":{"ID":334920,"DIS_CODE":0,"TOWNNAME":"東山區","LI":"聖賢里","LIN":"20鄰","STREET":" ","SECT":" ","MAREA":"頂窩","LANE":" ","ALLEY":" ","HOUSE_NO":"６１號之５","E_COORD97":183351.51000000001,"N_COORD97":2578600.0800000001,"ADDRESS":"頂窩６１號之５","OBJECTID":334911},"geometry":{"x":183351.51000000071,"y":2578600.0800000019}},{"attributes":{"ID":334921,"DIS_CODE":0,"TOWNNAME":"東山區","LI":"聖賢里","LIN":"20鄰","STREET":" ","SECT":" ","MAREA":"頂窩","LANE":" ","ALLEY":" ","HOUSE_NO":"６１號之７","E_COORD97":183355.73999999999,"N_COORD97":2578598.4399999999,"ADDRESS":"頂窩６１號之７","OBJECTID":334912},"geometry":{"x":183355.74000000115,"y":2578598.4399999995}},{"attributes":{"ID":334922,"DIS_CODE":0,"TOWNNAME":"仁德區","LI":"太子里","LIN":"15鄰","STREET":"太子北路","SECT":" ","MAREA":" ","LANE":" ","ALLEY":" ","HOUSE_NO":"１０１號三樓","E_COORD97":174025.71079799999,"N_COORD97":2543666.3378300001,"ADDRESS":"太子北路１０１號三樓","OBJECTID":334913},"geometry":{"x":174025.71079800092,"y":2543666.3378320001}},{"attributes":{"ID":334923,"DIS_CODE":0,"TOWNNAME":"仁德區","LI":"新田里","LIN":"4鄰","STREET":"勝利一街","SECT":" ","MAREA":" ","LANE":" ","ALLEY":" ","HOUSE_NO":"１２號","E_COORD97":173875.83898,"N_COORD97":2539584.2869899999,"ADDRESS":"勝利一街１２號","OBJECTID":334914},"geometry":{"x":173875.8389800014,"y":2539584.286991002}},{"attributes":{"ID":334924,"DIS_CODE":0,"TOWNNAME":"永康區","LI":"復國里","LIN":"7鄰","STREET":"富國一路","SECT":" ","MAREA":" ","LANE":" ","ALLEY":" ","HOUSE_NO":"２９８號","E_COORD97":172756.390205,"N_COORD97":2545527.6574900001,"ADDRESS":"富國一路２９８號","OBJECTID":334915},"geometry":{"x":172756.39020500053,"y":2545527.6574879996}},{"attributes":{"ID":334925,"DIS_CODE":0,"TOWNNAME":"永康區","LI":"復華里","LIN":"1鄰","STREET":"復國二路","SECT":" ","MAREA":" ","LANE":"２１２巷","ALLEY":" ","HOUSE_NO":"１２號","E_COORD97":173010.98000000001,"N_COORD97":2545858.77,"ADDRESS":"復國二路２１２巷１２號","OBJECTID":334916},"geometry":{"x":173010.98000000045,"y":2545858.7699999996}},{"attributes":{"ID":334926,"DIS_CODE":0,"TOWNNAME":"中西區","LI":"天后里","LIN":"1鄰","STREET":"永福路","SECT":"二段","MAREA":" ","LANE":"２２７巷","ALLEY":" ","HOUSE_NO":"１１號","E_COORD97":168173.07999999999,"N_COORD97":2544097.0699999998,"ADDRESS":"永福路二段２２７巷１１號","OBJECTID":334917},"geometry":{"x":168173.08000000007,"y":2544097.0700000003}},{"attributes":{"ID":334927,"DIS_CODE":0,"TOWNNAME":"中西區","LI":"天后里","LIN":"1鄰","STREET":"永福路","SECT":"二段","MAREA":" ","LANE":"２２７巷","ALLEY":" ","HOUSE_NO":"１３號","E_COORD97":168168.79999999999,"N_COORD97":2544099.1200000001,"ADDRESS":"永福路二段２２７巷１３號","OBJECTID":334918},"geometry":{"x":168168.80000000168,"y":2544099.1200000048}},{"attributes":{"ID":334928,"DIS_CODE":0,"TOWNNAME":"中西區","LI":"天后里","LIN":"1鄰","STREET":"永福路","SECT":"二段","MAREA":" ","LANE":"２２７巷","ALLEY":" ","HOUSE_NO":"１７號","E_COORD97":168154.22,"N_COORD97":2544103.27,"ADDRESS":"永福路二段２２７巷１７號","OBJECTID":334919},"geometry":{"x":168154.22000000067,"y":2544103.2700000033}},{"attributes":{"ID":334929,"DIS_CODE":0,"TOWNNAME":"中西區","LI":"天后里","LIN":"1鄰","STREET":"永福路","SECT":"二段","MAREA":" ","LANE":"２２７巷","ALLEY":" ","HOUSE_NO":"１９號","E_COORD97":168150.53,"N_COORD97":2544104.23,"ADDRESS":"永福路二段２２７巷１９號","OBJECTID":334920},"geometry":{"x":168150.52999999933,"y":2544104.2300000004}},{"attributes":{"ID":334930,"DIS_CODE":0,"TOWNNAME":"中西區","LI":"天后里","LIN":"1鄰","STREET":"永福路","SECT":"二段","MAREA":" ","LANE":"２２７巷","ALLEY":" ","HOUSE_NO":"１號","E_COORD97":168190.04000000001,"N_COORD97":2544091.52,"ADDRESS":"永福路二段２２７巷１號","OBJECTID":334921},"geometry":{"x":168190.04000000097,"y":2544091.5200000033}},{"attributes":{"ID":334931,"DIS_CODE":0,"TOWNNAME":"中西區","LI":"天后里","LIN":"1鄰","STREET":"永福路","SECT":"二段","MAREA":" ","LANE":"２２７巷","ALLEY":" ","HOUSE_NO":"３號","E_COORD97":168186.23999999999,"N_COORD97":2544093.4199999999,"ADDRESS":"永福路二段２２７巷３號","OBJECTID":334922},"geometry":{"x":168186.24000000022,"y":2544093.4200000018}},{"attributes":{"ID":334932,"DIS_CODE":0,"TOWNNAME":"仁德區","LI":"仁愛里","LIN":"27鄰","STREET":"大同路","SECT":"三段","MAREA":" ","LANE":" ","ALLEY":" ","HOUSE_NO":"６０５號","E_COORD97":169931.14999999999,"N_COORD97":2538884.4466200001,"ADDRESS":"大同路三段６０５號","OBJECTID":334923},"geometry":{"x":169931.15000000037,"y":2538884.4466160033}},{"attributes":{"ID":334933,"DIS_CODE":0,"TOWNNAME":"白河區","LI":"秀祐里","LIN":"7鄰","STREET":" ","SECT":" ","MAREA":"下秀祐","LANE":" ","ALLEY":" ","HOUSE_NO":"６１號","E_COORD97":187884.579578,"N_COORD97":2582592.8721699999,"ADDRESS":"下秀祐６１號","OBJECTID":334924},"geometry":{"x":187884.57957800105,"y":2582592.8721699994}},{"attributes":{"ID":334934,"DIS_CODE":0,"TOWNNAME":"東山區","LI":"聖賢里","LIN":"20鄰","STREET":" ","SECT":" ","MAREA":"頂窩","LANE":" ","ALLEY":" ","HOUSE_NO":"６２號之３","E_COORD97":183395.97,"N_COORD97":2578586.7999999998,"ADDRESS":"頂窩６２號之３","OBJECTID":334925},"geometry":{"x":183395.97000000067,"y":2578586.8000000007}},{"attributes":{"ID":334935,"DIS_CODE":0,"TOWNNAME":"東山區","LI":"聖賢里","LIN":"20鄰","STREET":" ","SECT":" ","MAREA":"頂窩","LANE":" ","ALLEY":" ","HOUSE_NO":"６２號之４","E_COORD97":183391.63,"N_COORD97":2578587.3100000001,"ADDRESS":"頂窩６２號之４","OBJECTID":334926},"geometry":{"x":183391.63000000082,"y":2578587.3100000005}},{"attributes":{"ID":334936,"DIS_CODE":0,"TOWNNAME":"白河區","LI":"秀祐里","LIN":"7鄰","STREET":"民亨街","SECT":" ","MAREA":" ","LANE":" ","ALLEY":" ","HOUSE_NO":"１號","E_COORD97":188495.17999999999,"N_COORD97":2582794.04,"ADDRESS":"民亨街１號","OBJECTID":334927},"geometry":{"x":188495.18000000063,"y":2582794.0399999991}},{"attributes":{"ID":334937,"DIS_CODE":0,"TOWNNAME":"仁德區","LI":"仁愛里","LIN":"27鄰","STREET":"大同路","SECT":"三段","MAREA":" ","LANE":" ","ALLEY":" ","HOUSE_NO":"６６５號","E_COORD97":169961.64734,"N_COORD97":2538770.5700099999,"ADDRESS":"大同路三段６６５號","OBJECTID":334928},"geometry":{"x":169961.64733999968,"y":2538770.570009999}},{"attributes":{"ID":334938,"DIS_CODE":0,"TOWNNAME":"仁德區","LI":"仁愛里","LIN":"27鄰","STREET":"大同路","SECT":"三段","MAREA":" ","LANE":" ","ALLEY":" ","HOUSE_NO":"７５５號一樓之１","E_COORD97":170019.23000000001,"N_COORD97":2538630.6800000002,"ADDRESS":"大同路三段７５５號一樓之１","OBJECTID":334929},"geometry":{"x":170019.23000000231,"y":2538630.6799999997}},{"attributes":{"ID":334939,"DIS_CODE":0,"TOWNNAME":"仁德區","LI":"仁愛里","LIN":"27鄰","STREET":"大同路","SECT":"三段","MAREA":" ","LANE":" ","ALLEY":" ","HOUSE_NO":"７５５號一樓之２","E_COORD97":170019.23000000001,"N_COORD97":2538630.6800000002,"ADDRESS":"大同路三段７５５號一樓之２","OBJECTID":334930},"geometry":{"x":170019.23000000231,"y":2538630.6799999997}},{"attributes":{"ID":334940,"DIS_CODE":0,"TOWNNAME":"仁德區","LI":"仁愛里","LIN":"27鄰","STREET":"大同路","SECT":"三段","MAREA":" ","LANE":" ","ALLEY":" ","HOUSE_NO":"７５５號二樓之１","E_COORD97":170019.23000000001,"N_COORD97":2538630.6800000002,"ADDRESS":"大同路三段７５５號二樓之１","OBJECTID":334931},"geometry":{"x":170019.23000000231,"y":2538630.6799999997}},{"attributes":{"ID":334941,"DIS_CODE":0,"TOWNNAME":"東山區","LI":"聖賢里","LIN":"20鄰","STREET":" ","SECT":" ","MAREA":"頂窩","LANE":" ","ALLEY":" ","HOUSE_NO":"６２號之５","E_COORD97":183385.79000000001,"N_COORD97":2578589.1800000002,"ADDRESS":"頂窩６２號之５","OBJECTID":334932},"geometry":{"x":183385.79000000097,"y":2578589.1800000016}},{"attributes":{"ID":334942,"DIS_CODE":0,"TOWNNAME":"東山區","LI":"聖賢里","LIN":"20鄰","STREET":" ","SECT":" ","MAREA":"頂窩","LANE":" ","ALLEY":" ","HOUSE_NO":"６２號之７","E_COORD97":183372.89999999999,"N_COORD97":2578595.1299999999,"ADDRESS":"頂窩６２號之７","OBJECTID":334933},"geometry":{"x":183372.9000000013,"y":2578595.1300000008}},{"attributes":{"ID":334943,"DIS_CODE":0,"TOWNNAME":"中西區","LI":"天后里","LIN":"1鄰","STREET":"永福路","SECT":"二段","MAREA":" ","LANE":"２２７巷","ALLEY":" ","HOUSE_NO":"５號","E_COORD97":168182.91,"N_COORD97":2544094.3700000001,"ADDRESS":"永福路二段２２７巷５號","OBJECTID":334934},"geometry":{"x":168182.91000000015,"y":2544094.3700000029}},{"attributes":{"ID":334944,"DIS_CODE":0,"TOWNNAME":"中西區","LI":"天后里","LIN":"1鄰","STREET":"永福路","SECT":"二段","MAREA":" ","LANE":"２２７巷","ALLEY":" ","HOUSE_NO":"７號","E_COORD97":168179.73999999999,"N_COORD97":2544095.7999999998,"ADDRESS":"永福路二段２２７巷７號","OBJECTID":334935},"geometry":{"x":168179.74000000209,"y":2544095.8000000026}},{"attributes":{"ID":334945,"DIS_CODE":0,"TOWNNAME":"中西區","LI":"天后里","LIN":"1鄰","STREET":"永福路","SECT":"二段","MAREA":" ","LANE":"２２７巷","ALLEY":" ","HOUSE_NO":"９號","E_COORD97":168176.72,"N_COORD97":2544096.5899999999,"ADDRESS":"永福路二段２２７巷９號","OBJECTID":334936},"geometry":{"x":168176.72000000067,"y":2544096.5899999999}},{"attributes":{"ID":334946,"DIS_CODE":0,"TOWNNAME":"安南區","LI":"原佃里","LIN":"1鄰","STREET":"本原街","SECT":"一段","MAREA":" ","LANE":"９７巷","ALLEY":" ","HOUSE_NO":"６２號","E_COORD97":167929,"N_COORD97":2550032.5800000001,"ADDRESS":"本原街一段９７巷６２號","OBJECTID":334937},"geometry":{"x":167929.00000000093,"y":2550032.5800000019}},{"attributes":{"ID":334947,"DIS_CODE":0,"TOWNNAME":"安南區","LI":"原佃里","LIN":"1鄰","STREET":"本原街","SECT":"一段","MAREA":" ","LANE":"９７巷","ALLEY":" ","HOUSE_NO":"５６號","E_COORD97":167946.44,"N_COORD97":2550034.1299999999,"ADDRESS":"本原街一段９７巷５６號","OBJECTID":334938},"geometry":{"x":167946.44000000134,"y":2550034.1300000008}},{"attributes":{"ID":334948,"DIS_CODE":0,"TOWNNAME":"安南區","LI":"原佃里","LIN":"1鄰","STREET":"本原街","SECT":"一段","MAREA":" ","LANE":"９７巷","ALLEY":" ","HOUSE_NO":"７２號","E_COORD97":167928.01000000001,"N_COORD97":2550003.3300000001,"ADDRESS":"本原街一段９７巷７２號","OBJECTID":334939},"geometry":{"x":167928.00999999978,"y":2550003.3300000019}},{"attributes":{"ID":334949,"DIS_CODE":0,"TOWNNAME":"仁德區","LI":"仁愛里","LIN":"29鄰","STREET":"亞航街","SECT":" ","MAREA":" ","LANE":"２５０巷","ALLEY":" ","HOUSE_NO":"４２５號","E_COORD97":170416.12504499999,"N_COORD97":2538526.3859899999,"ADDRESS":"亞航街２５０巷４２５號","OBJECTID":334940},"geometry":{"x":170416.12504499964,"y":2538526.3859870024}},{"attributes":{"ID":334950,"DIS_CODE":0,"TOWNNAME":"仁德區","LI":"中生里","LIN":"13鄰","STREET":" ","SECT":" ","MAREA":"中洲","LANE":" ","ALLEY":" ","HOUSE_NO":"２２６之３０號","E_COORD97":173004.461736,"N_COORD97":2533989.7805400002,"ADDRESS":"中洲２２６之３０號","OBJECTID":334941},"geometry":{"x":173004.46173600107,"y":2533989.7805430014}},{"attributes":{"ID":334951,"DIS_CODE":0,"TOWNNAME":"楠西區","LI":"灣丘里","LIN":"4鄰","STREET":" ","SECT":" ","MAREA":"灣丘","LANE":" ","ALLEY":" ","HOUSE_NO":"４７號之１","E_COORD97":201247.298117,"N_COORD97":2563547.9684600001,"ADDRESS":"灣丘４７號之１","OBJECTID":334942},"geometry":{"x":201247.29811699968,"y":2563547.9684629999}},{"attributes":{"ID":334952,"DIS_CODE":0,"TOWNNAME":"中西區","LI":"建國里","LIN":"3鄰","STREET":"中正路","SECT":" ","MAREA":" ","LANE":"１０８巷","ALLEY":" ","HOUSE_NO":"３號","E_COORD97":167992.61981599999,"N_COORD97":2543699.2042100001,"ADDRESS":"中正路１０８巷３號","OBJECTID":334943},"geometry":{"x":167992.61981599964,"y":2543699.2042150032}},{"attributes":{"ID":334953,"DIS_CODE":0,"TOWNNAME":"楠西區","LI":"灣丘里","LIN":"4鄰","STREET":" ","SECT":" ","MAREA":"灣丘","LANE":" ","ALLEY":" ","HOUSE_NO":"３９號","E_COORD97":200441.336045,"N_COORD97":2563639.0909099998,"ADDRESS":"灣丘３９號","OBJECTID":334944},"geometry":{"x":200441.3360450007,"y":2563639.0909139998}},{"attributes":{"ID":334954,"DIS_CODE":0,"TOWNNAME":"仁德區","LI":"仁愛里","LIN":"27鄰","STREET":"大同路","SECT":"三段","MAREA":" ","LANE":" ","ALLEY":" ","HOUSE_NO":"７５７號","E_COORD97":170142.07759900001,"N_COORD97":2538590.4681699998,"ADDRESS":"大同路三段７５７號","OBJECTID":334945},"geometry":{"x":170142.07759900019,"y":2538590.4681680016}},{"attributes":{"ID":334955,"DIS_CODE":0,"TOWNNAME":"仁德區","LI":"仁愛里","LIN":"27鄰","STREET":"大同路","SECT":"三段","MAREA":" ","LANE":" ","ALLEY":" ","HOUSE_NO":"７５９號","E_COORD97":170147.16088000001,"N_COORD97":2538518.0499999998,"ADDRESS":"大同路三段７５９號","OBJECTID":334946},"geometry":{"x":170147.16088000033,"y":2538518.0500000007}},{"attributes":{"ID":334956,"DIS_CODE":0,"TOWNNAME":"中西區","LI":"建國里","LIN":"1鄰","STREET":"中正路","SECT":" ","MAREA":" ","LANE":" ","ALLEY":" ","HOUSE_NO":"１０６之２號","E_COORD97":168003.84803600001,"N_COORD97":2543686.6100599999,"ADDRESS":"中正路１０６之２號","OBJECTID":334947},"geometry":{"x":168003.84803600051,"y":2543686.6100550015}},{"attributes":{"ID":334957,"DIS_CODE":0,"TOWNNAME":"中西區","LI":"進學里","LIN":"2鄰","STREET":"忠義路","SECT":"一段","MAREA":" ","LANE":" ","ALLEY":" ","HOUSE_NO":"１３號","E_COORD97":168154.47566299999,"N_COORD97":2542884.2879900001,"ADDRESS":"忠義路一段１３號","OBJECTID":334948},"geometry":{"x":168154.47566300072,"y":2542884.2879880015}},{"attributes":{"ID":334958,"DIS_CODE":0,"TOWNNAME":"楠西區","LI":"灣丘里","LIN":"4鄰","STREET":" ","SECT":" ","MAREA":"灣丘","LANE":" ","ALLEY":" ","HOUSE_NO":"４４號之１","E_COORD97":200501.29589400001,"N_COORD97":2563614.5375899998,"ADDRESS":"灣丘４４號之１","OBJECTID":334949},"geometry":{"x":200501.29589399975,"y":2563614.5375940017}},{"attributes":{"ID":334959,"DIS_CODE":0,"TOWNNAME":"楠西區","LI":"灣丘里","LIN":"5鄰","STREET":" ","SECT":" ","MAREA":"灣丘","LANE":" ","ALLEY":" ","HOUSE_NO":"５１號之５","E_COORD97":200519.516909,"N_COORD97":2564246.3622499998,"ADDRESS":"灣丘５１號之５","OBJECTID":334950},"geometry":{"x":200519.51690900046,"y":2564246.3622520026}},{"attributes":{"ID":334960,"DIS_CODE":0,"TOWNNAME":"中西區","LI":"進學里","LIN":"2鄰","STREET":"忠義路","SECT":"一段","MAREA":" ","LANE":" ","ALLEY":" ","HOUSE_NO":"３７號","E_COORD97":168146.84894699999,"N_COORD97":2542925.6688000001,"ADDRESS":"忠義路一段３７號","OBJECTID":334951},"geometry":{"x":168146.84894699976,"y":2542925.6687989999}},{"attributes":{"ID":334961,"DIS_CODE":0,"TOWNNAME":"中西區","LI":"進學里","LIN":"2鄰","STREET":"忠義路","SECT":"一段","MAREA":" ","LANE":" ","ALLEY":" ","HOUSE_NO":"３９號","E_COORD97":168153.204543,"N_COORD97":2542926.3037999999,"ADDRESS":"忠義路一段３９號","OBJECTID":334952},"geometry":{"x":168153.20454300102,"y":2542926.3037989978}},{"attributes":{"ID":334962,"DIS_CODE":0,"TOWNNAME":"中西區","LI":"進學里","LIN":"2鄰","STREET":"忠義路","SECT":"一段","MAREA":" ","LANE":" ","ALLEY":" ","HOUSE_NO":"５３號","E_COORD97":168145.78968099999,"N_COORD97":2542967.6846099999,"ADDRESS":"忠義路一段５３號","OBJECTID":334953},"geometry":{"x":168145.78968100064,"y":2542967.6846100017}},{"attributes":{"ID":334963,"DIS_CODE":0,"TOWNNAME":"楠西區","LI":"灣丘里","LIN":"5鄰","STREET":" ","SECT":" ","MAREA":"灣丘","LANE":" ","ALLEY":" ","HOUSE_NO":"５１號之１０","E_COORD97":200579.900502,"N_COORD97":2564291.3413999998,"ADDRESS":"灣丘５１號之１０","OBJECTID":334954},"geometry":{"x":200579.90050200094,"y":2564291.3413950019}},{"attributes":{"ID":334964,"DIS_CODE":0,"TOWNNAME":"安南區","LI":"安西里","LIN":"1鄰","STREET":"安和路","SECT":"一段","MAREA":" ","LANE":"１８５巷","ALLEY":" ","HOUSE_NO":"３５號之１","E_COORD97":169237.81,"N_COORD97":2547875.21,"ADDRESS":"安和路一段１８５巷３５號之１","OBJECTID":334955},"geometry":{"x":169237.80999999959,"y":2547875.2100000046}},{"attributes":{"ID":334965,"DIS_CODE":0,"TOWNNAME":"安南區","LI":"新順里","LIN":"1鄰","STREET":"安豐六街","SECT":" ","MAREA":" ","LANE":"１１１巷","ALLEY":" ","HOUSE_NO":"１號","E_COORD97":169523.92000000001,"N_COORD97":2549691.6200000001,"ADDRESS":"安豐六街１１１巷１號","OBJECTID":334956},"geometry":{"x":169523.91999999993,"y":2549691.620000001}},{"attributes":{"ID":334966,"DIS_CODE":0,"TOWNNAME":"安南區","LI":"新順里","LIN":"1鄰","STREET":"安豐六街","SECT":" ","MAREA":" ","LANE":"１１１巷","ALLEY":" ","HOUSE_NO":"３號","E_COORD97":169525.67000000001,"N_COORD97":2549696.1099999999,"ADDRESS":"安豐六街１１１巷３號","OBJECTID":334957},"geometry":{"x":169525.66999999993,"y":2549696.1100000013}},{"attributes":{"ID":334967,"DIS_CODE":0,"TOWNNAME":"安南區","LI":"新順里","LIN":"1鄰","STREET":"安豐六街","SECT":" ","MAREA":" ","LANE":"１１１巷","ALLEY":" ","HOUSE_NO":"５號","E_COORD97":169527.92000000001,"N_COORD97":2549699.3599999999,"ADDRESS":"安豐六街１１１巷５號","OBJECTID":334958},"geometry":{"x":169527.92000000086,"y":2549699.3599999994}},{"attributes":{"ID":334968,"DIS_CODE":0,"TOWNNAME":"安南區","LI":"新順里","LIN":"1鄰","STREET":"安豐六街","SECT":" ","MAREA":" ","LANE":"１１１巷","ALLEY":" ","HOUSE_NO":"７號","E_COORD97":169529.92000000001,"N_COORD97":2549704.6000000001,"ADDRESS":"安豐六街１１１巷７號","OBJECTID":334959},"geometry":{"x":169529.92000000086,"y":2549704.5999999996}},{"attributes":{"ID":334969,"DIS_CODE":0,"TOWNNAME":"安南區","LI":"青草里","LIN":"1鄰","STREET":"青砂街","SECT":"一段","MAREA":" ","LANE":"６９５巷","ALLEY":" ","HOUSE_NO":"１７５號之１","E_COORD97":159502.23000000001,"N_COORD97":2552790.3100000001,"ADDRESS":"青砂街一段６９５巷１７５號之１","OBJECTID":334960},"geometry":{"x":159502.22999999952,"y":2552790.3100000042}},{"attributes":{"ID":334970,"DIS_CODE":0,"TOWNNAME":"安南區","LI":"溪北里","LIN":"1鄰","STREET":"安和路","SECT":"一段","MAREA":" ","LANE":"１０１巷","ALLEY":" ","HOUSE_NO":"４０號","E_COORD97":169375.89000000001,"N_COORD97":2547581.0600000001,"ADDRESS":"安和路一段１０１巷４０號","OBJECTID":334961},"geometry":{"x":169375.88999999966,"y":2547581.0600000042}},{"attributes":{"ID":334971,"DIS_CODE":0,"TOWNNAME":"中西區","LI":"安海里","LIN":"1鄰","STREET":"正興街","SECT":" ","MAREA":" ","LANE":" ","ALLEY":" ","HOUSE_NO":"１８２號","E_COORD97":167454.13,"N_COORD97":2543952.5600000001,"ADDRESS":"正興街１８２號","OBJECTID":334962},"geometry":{"x":167454.12999999989,"y":2543952.5600000005}},{"attributes":{"ID":334972,"DIS_CODE":0,"TOWNNAME":"中西區","LI":"安海里","LIN":"1鄰","STREET":"正興街","SECT":" ","MAREA":" ","LANE":" ","ALLEY":" ","HOUSE_NO":"１８６號","E_COORD97":167448.87,"N_COORD97":2543954.0600000001,"ADDRESS":"正興街１８６號","OBJECTID":334963},"geometry":{"x":167448.87000000104,"y":2543954.0600000024}},{"attributes":{"ID":334973,"DIS_CODE":0,"TOWNNAME":"中西區","LI":"安海里","LIN":"1鄰","STREET":"正興街","SECT":" ","MAREA":" ","LANE":" ","ALLEY":" ","HOUSE_NO":"１８８號","E_COORD97":167443.42000000001,"N_COORD97":2543955.3799999999,"ADDRESS":"正興街１８８號","OBJECTID":334964},"geometry":{"x":167443.41999999993,"y":2543955.379999999}},{"attributes":{"ID":334974,"DIS_CODE":0,"TOWNNAME":"中西區","LI":"文賢里","LIN":"1鄰","STREET":"文和街","SECT":" ","MAREA":" ","LANE":"１０巷","ALLEY":" ","HOUSE_NO":"１０號","E_COORD97":167297.64000000001,"N_COORD97":2545031.54,"ADDRESS":"文和街１０巷１０號","OBJECTID":334965},"geometry":{"x":167297.63999999966,"y":2545031.540000001}},{"attributes":{"ID":334975,"DIS_CODE":0,"TOWNNAME":"楠西區","LI":"灣丘里","LIN":"5鄰","STREET":" ","SECT":" ","MAREA":"灣丘","LANE":" ","ALLEY":" ","HOUSE_NO":"５１號之６","E_COORD97":200584.98543599999,"N_COORD97":2564290.9180600001,"ADDRESS":"灣丘５１號之６","OBJECTID":334966},"geometry":{"x":200584.98543600086,"y":2564290.9180619996}},{"attributes":{"ID":334976,"DIS_CODE":0,"TOWNNAME":"楠西區","LI":"灣丘里","LIN":"5鄰","STREET":" ","SECT":" ","MAREA":"灣丘","LANE":" ","ALLEY":" ","HOUSE_NO":"６０號之２","E_COORD97":200633.08043900001,"N_COORD97":2564308.4863900002,"ADDRESS":"灣丘６０號之２","OBJECTID":334967},"geometry":{"x":200633.08043900132,"y":2564308.4863860048}},{"attributes":{"ID":334977,"DIS_CODE":0,"TOWNNAME":"楠西區","LI":"灣丘里","LIN":"6鄰","STREET":" ","SECT":" ","MAREA":"灣丘","LANE":" ","ALLEY":" ","HOUSE_NO":"６１號之２","E_COORD97":200771.33521700001,"N_COORD97":2564317.7394599998,"ADDRESS":"灣丘６１號之２","OBJECTID":334968},"geometry":{"x":200771.33521699999,"y":2564317.7394620012}},{"attributes":{"ID":334978,"DIS_CODE":0,"TOWNNAME":"楠西區","LI":"灣丘里","LIN":"6鄰","STREET":" ","SECT":" ","MAREA":"灣丘","LANE":" ","ALLEY":" ","HOUSE_NO":"６２號之３","E_COORD97":200738.70688899999,"N_COORD97":2564261.1186600002,"ADDRESS":"灣丘６２號之３","OBJECTID":334969},"geometry":{"x":200738.70688899886,"y":2564261.1186600011}},{"attributes":{"ID":334979,"DIS_CODE":0,"TOWNNAME":"楠西區","LI":"灣丘里","LIN":"6鄰","STREET":" ","SECT":" ","MAREA":"灣丘","LANE":" ","ALLEY":" ","HOUSE_NO":"６２號之１","E_COORD97":200724.72331999999,"N_COORD97":2564287.5769799999,"ADDRESS":"灣丘６２號之１","OBJECTID":334970},"geometry":{"x":200724.7233200008,"y":2564287.5769790038}},{"attributes":{"ID":334980,"DIS_CODE":0,"TOWNNAME":"新化區","LI":"全興里","LIN":"20鄰","STREET":" ","SECT":" ","MAREA":"竹子\u25A0","LANE":" ","ALLEY":" ","HOUSE_NO":"２４７號之４０７","E_COORD97":178536.57999999999,"N_COORD97":2546655.2599999998,"ADDRESS":"竹子\u25A0２４７號之４０７","OBJECTID":334971},"geometry":{"x":178536.58000000194,"y":2546655.2599999998}},{"attributes":{"ID":334981,"DIS_CODE":0,"TOWNNAME":"新化區","LI":"全興里","LIN":"20鄰","STREET":" ","SECT":" ","MAREA":"竹子\u25A0","LANE":" ","ALLEY":" ","HOUSE_NO":"２４７號之４２１","E_COORD97":178503.06,"N_COORD97":2546656.2599999998,"ADDRESS":"竹子\u25A0２４７號之４２１","OBJECTID":334972},"geometry":{"x":178503.06000000052,"y":2546656.2599999998}},{"attributes":{"ID":334982,"DIS_CODE":0,"TOWNNAME":"新化區","LI":"全興里","LIN":"20鄰","STREET":" ","SECT":" ","MAREA":"竹子\u25A0","LANE":" ","ALLEY":" ","HOUSE_NO":"２４７號之４１５","E_COORD97":178516.89000000001,"N_COORD97":2546656.2599999998,"ADDRESS":"竹子\u25A0２４７號之４１５","OBJECTID":334973},"geometry":{"x":178516.88999999966,"y":2546656.2599999998}},{"attributes":{"ID":334983,"DIS_CODE":0,"TOWNNAME":"北區","LI":"成功里","LIN":"20鄰","STREET":"中華北路","SECT":"二段","MAREA":" ","LANE":"２６８巷","ALLEY":" ","HOUSE_NO":"１９號","E_COORD97":168855.04999999999,"N_COORD97":2546912.46,"ADDRESS":"中華北路二段２６８巷１９號","OBJECTID":334974},"geometry":{"x":168855.04999999981,"y":2546912.4600000009}},{"attributes":{"ID":334984,"DIS_CODE":0,"TOWNNAME":"北區","LI":"成功里","LIN":"20鄰","STREET":"中華北路","SECT":"二段","MAREA":" ","LANE":"２６８巷","ALLEY":" ","HOUSE_NO":"２１號","E_COORD97":168860.17000000001,"N_COORD97":2546913.2599999998,"ADDRESS":"中華北路二段２６８巷２１號","OBJECTID":334975},"geometry":{"x":168860.17000000086,"y":2546913.2599999998}},{"attributes":{"ID":334985,"DIS_CODE":0,"TOWNNAME":"北區","LI":"成功里","LIN":"20鄰","STREET":"中華北路","SECT":"二段","MAREA":" ","LANE":"２６８巷","ALLEY":" ","HOUSE_NO":"２３號","E_COORD97":168865.31,"N_COORD97":2546914.0699999998,"ADDRESS":"中華北路二段２６８巷２３號","OBJECTID":334976},"geometry":{"x":168865.31000000052,"y":2546914.0700000022}},{"attributes":{"ID":334986,"DIS_CODE":0,"TOWNNAME":"北區","LI":"成德里","LIN":"20鄰","STREET":"文成三路","SECT":" ","MAREA":" ","LANE":"２６７巷","ALLEY":" ","HOUSE_NO":"３５號","E_COORD97":168371.95000000001,"N_COORD97":2546219.5099999998,"ADDRESS":"文成三路２６７巷３５號","OBJECTID":334977},"geometry":{"x":168371.95000000112,"y":2546219.5099999998}},{"attributes":{"ID":334987,"DIS_CODE":0,"TOWNNAME":"北區","LI":"成德里","LIN":"20鄰","STREET":"文成三路","SECT":" ","MAREA":" ","LANE":"２６７巷","ALLEY":" ","HOUSE_NO":"３３號","E_COORD97":168366.41,"N_COORD97":2546241.0299999998,"ADDRESS":"文成三路２６７巷３３號","OBJECTID":334978},"geometry":{"x":168366.41000000015,"y":2546241.0300000012}},{"attributes":{"ID":334988,"DIS_CODE":0,"TOWNNAME":"中西區","LI":"文賢里","LIN":"1鄰","STREET":"文和街","SECT":" ","MAREA":" ","LANE":"１０巷","ALLEY":" ","HOUSE_NO":"２號","E_COORD97":167291.41,"N_COORD97":2545012.6299999999,"ADDRESS":"文和街１０巷２號","OBJECTID":334979},"geometry":{"x":167291.41000000015,"y":2545012.6300000008}},{"attributes":{"ID":334989,"DIS_CODE":0,"TOWNNAME":"中西區","LI":"文賢里","LIN":"1鄰","STREET":"文和街","SECT":" ","MAREA":" ","LANE":"１０巷","ALLEY":" ","HOUSE_NO":"４號","E_COORD97":167292.16,"N_COORD97":2545017.23,"ADDRESS":"文和街１０巷４號","OBJECTID":334980},"geometry":{"x":167292.16000000108,"y":2545017.2300000023}},{"attributes":{"ID":334990,"DIS_CODE":0,"TOWNNAME":"中西區","LI":"文賢里","LIN":"1鄰","STREET":"文和街","SECT":" ","MAREA":" ","LANE":"１０巷","ALLEY":" ","HOUSE_NO":"６號","E_COORD97":167291.78,"N_COORD97":2545022.0800000001,"ADDRESS":"文和街１０巷６號","OBJECTID":334981},"geometry":{"x":167291.78000000119,"y":2545022.0800000019}},{"attributes":{"ID":334991,"DIS_CODE":0,"TOWNNAME":"南化區","LI":"中坑里","LIN":"3鄰","STREET":" ","SECT":" ","MAREA":"中坑","LANE":" ","ALLEY":" ","HOUSE_NO":"２１之１號","E_COORD97":194227.92768699999,"N_COORD97":2549595.7599499999,"ADDRESS":"中坑２１之１號","OBJECTID":334982},"geometry":{"x":194227.92768700141,"y":2549595.759948004}},{"attributes":{"ID":334992,"DIS_CODE":0,"TOWNNAME":"中西區","LI":"藥王里","LIN":"1鄰","STREET":"金華路","SECT":"四段","MAREA":" ","LANE":"４７巷","ALLEY":" ","HOUSE_NO":"９號","E_COORD97":167405.51000000001,"N_COORD97":2544290.4199999999,"ADDRESS":"金華路四段４７巷９號","OBJECTID":334983},"geometry":{"x":167405.50999999978,"y":2544290.4200000018}},{"attributes":{"ID":334993,"DIS_CODE":0,"TOWNNAME":"中西區","LI":"大涼里","LIN":"1鄰","STREET":"金華路","SECT":"三段","MAREA":" ","LANE":"１８３巷","ALLEY":" ","HOUSE_NO":"４號","E_COORD97":167281.35999999999,"N_COORD97":2543818.9399999999,"ADDRESS":"金華路三段１８３巷４號","OBJECTID":334984},"geometry":{"x":167281.36000000127,"y":2543818.9400000013}},{"attributes":{"ID":334994,"DIS_CODE":0,"TOWNNAME":"中西區","LI":"大涼里","LIN":"1鄰","STREET":"金華路","SECT":"三段","MAREA":" ","LANE":"１８３巷","ALLEY":" ","HOUSE_NO":"１０號","E_COORD97":167270.87,"N_COORD97":2543820.8900000001,"ADDRESS":"金華路三段１８３巷１０號","OBJECTID":334985},"geometry":{"x":167270.87000000104,"y":2543820.8900000006}},{"attributes":{"ID":334995,"DIS_CODE":0,"TOWNNAME":"安南區","LI":"海佃里","LIN":"1鄰","STREET":"國安街","SECT":" ","MAREA":" ","LANE":"１０巷","ALLEY":" ","HOUSE_NO":"６號","E_COORD97":167119.10999999999,"N_COORD97":2547072.8500000001,"ADDRESS":"國安街１０巷６號","OBJECTID":334986},"geometry":{"x":167119.11000000034,"y":2547072.8500000034}},{"attributes":{"ID":334996,"DIS_CODE":0,"TOWNNAME":"中西區","LI":"大涼里","LIN":"1鄰","STREET":"金華路","SECT":"三段","MAREA":" ","LANE":"１８３巷","ALLEY":" ","HOUSE_NO":"１２號","E_COORD97":167267.26999999999,"N_COORD97":2543821.4900000002,"ADDRESS":"金華路三段１８３巷１２號","OBJECTID":334987},"geometry":{"x":167267.27000000048,"y":2543821.4900000021}},{"attributes":{"ID":334997,"DIS_CODE":0,"TOWNNAME":"中西區","LI":"赤嵌里","LIN":"17鄰","STREET":"忠義路","SECT":"二段","MAREA":" ","LANE":" ","ALLEY":" ","HOUSE_NO":"１７５號","E_COORD97":168401.69,"N_COORD97":2544134.1499999999,"ADDRESS":"忠義路二段１７５號","OBJECTID":334988},"geometry":{"x":168401.69000000041,"y":2544134.1500000004}},{"attributes":{"ID":334998,"DIS_CODE":0,"TOWNNAME":"中西區","LI":"赤嵌里","LIN":"17鄰","STREET":"忠義路","SECT":"二段","MAREA":" ","LANE":" ","ALLEY":" ","HOUSE_NO":"１７７號","E_COORD97":168403.17000000001,"N_COORD97":2544138.27,"ADDRESS":"忠義路二段１７７號","OBJECTID":334989},"geometry":{"x":168403.16999999993,"y":2544138.2700000014}},{"attributes":{"ID":334999,"DIS_CODE":0,"TOWNNAME":"中西區","LI":"赤嵌里","LIN":"17鄰","STREET":"忠義路","SECT":"二段","MAREA":" ","LANE":" ","ALLEY":" ","HOUSE_NO":"１７９號","E_COORD97":168408.47,"N_COORD97":2544146.7999999998,"ADDRESS":"忠義路二段１７９號","OBJECTID":334990},"geometry":{"x":168408.47000000067,"y":2544146.8000000007}},{"attributes":{"ID":335000,"DIS_CODE":0,"TOWNNAME":"中西區","LI":"赤嵌里","LIN":"17鄰","STREET":"忠義路","SECT":"二段","MAREA":" ","LANE":" ","ALLEY":" ","HOUSE_NO":"１８１號","E_COORD97":168409.35000000001,"N_COORD97":2544151.21,"ADDRESS":"忠義路二段１８１號","OBJECTID":334991},"geometry":{"x":168409.35000000056,"y":2544151.2100000009}},{"attributes":{"ID":335001,"DIS_CODE":0,"TOWNNAME":"中西區","LI":"赤嵌里","LIN":"17鄰","STREET":"忠義路","SECT":"二段","MAREA":" ","LANE":" ","ALLEY":" ","HOUSE_NO":"１８３號","E_COORD97":168408.76000000001,"N_COORD97":2544154.4500000002,"ADDRESS":"忠義路二段１８３號","OBJECTID":334992},"geometry":{"x":168408.76000000071,"y":2544154.4499999993}},{"attributes":{"ID":335002,"DIS_CODE":0,"TOWNNAME":"關廟區","LI":"新光里","LIN":"6鄰","STREET":"北寮街","SECT":" ","MAREA":" ","LANE":" ","ALLEY":" ","HOUSE_NO":"８５號","E_COORD97":184195.6171,"N_COORD97":2541882.8285300001,"ADDRESS":"北寮街８５號","OBJECTID":334993},"geometry":{"x":184195.61710000131,"y":2541882.8285340015}},{"attributes":{"ID":335003,"DIS_CODE":0,"TOWNNAME":"南區","LI":"郡南里","LIN":"17鄰","STREET":"永成路","SECT":"三段","MAREA":" ","LANE":" ","ALLEY":" ","HOUSE_NO":"４７號","E_COORD97":167479.06263500001,"N_COORD97":2540476.4213999999,"ADDRESS":"永成路三段４７號","OBJECTID":334994},"geometry":{"x":167479.0626350008,"y":2540476.4214020036}},{"attributes":{"ID":335004,"DIS_CODE":0,"TOWNNAME":"楠西區","LI":"灣丘里","LIN":"7鄰","STREET":" ","SECT":" ","MAREA":"灣丘","LANE":" ","ALLEY":" ","HOUSE_NO":"５３號","E_COORD97":200619.846552,"N_COORD97":2564337.1069499999,"ADDRESS":"灣丘５３號","OBJECTID":334995},"geometry":{"x":200619.84655200131,"y":2564337.1069520004}},{"attributes":{"ID":335005,"DIS_CODE":0,"TOWNNAME":"楠西區","LI":"灣丘里","LIN":"7鄰","STREET":" ","SECT":" ","MAREA":"灣丘","LANE":" ","ALLEY":" ","HOUSE_NO":"５５號","E_COORD97":200630.01642,"N_COORD97":2564341.9752799999,"ADDRESS":"灣丘５５號","OBJECTID":334996},"geometry":{"x":200630.01642000116,"y":2564341.9752830025}},{"attributes":{"ID":335006,"DIS_CODE":0,"TOWNNAME":"楠西區","LI":"灣丘里","LIN":"7鄰","STREET":" ","SECT":" ","MAREA":"灣丘","LANE":" ","ALLEY":" ","HOUSE_NO":"５７號之１","E_COORD97":200437.212665,"N_COORD97":2564265.9869900001,"ADDRESS":"灣丘５７號之１","OBJECTID":334997},"geometry":{"x":200437.21266500093,"y":2564265.9869900029}},{"attributes":{"ID":335007,"DIS_CODE":0,"TOWNNAME":"南區","LI":"郡南里","LIN":"8鄰","STREET":"永成路","SECT":"三段","MAREA":" ","LANE":" ","ALLEY":" ","HOUSE_NO":"２６８號","E_COORD97":167514.25286800001,"N_COORD97":2540810.5026600002,"ADDRESS":"永成路三段２６８號","OBJECTID":334998},"geometry":{"x":167514.25286800135,"y":2540810.5026639998}},{"attributes":{"ID":335008,"DIS_CODE":0,"TOWNNAME":"東山區","LI":"東中里","LIN":"20鄰","STREET":" ","SECT":" ","MAREA":"東山市場","LANE":" ","ALLEY":" ","HOUSE_NO":"１０號","E_COORD97":188927.39999999999,"N_COORD97":2580159.6000000001,"ADDRESS":"東山市場１０號","OBJECTID":334999},"geometry":{"x":188927.40000000037,"y":2580159.5999999996}},{"attributes":{"ID":335009,"DIS_CODE":0,"TOWNNAME":"永康區","LI":"勝利里","LIN":"20鄰","STREET":"勝學路","SECT":" ","MAREA":" ","LANE":"２８２巷","ALLEY":" ","HOUSE_NO":"２２號","E_COORD97":171265.22,"N_COORD97":2545330.3900000001,"ADDRESS":"勝學路２８２巷２２號","OBJECTID":335000},"geometry":{"x":171265.22000000067,"y":2545330.3900000006}}]}