{"displayFieldName":"TOWNNAME","fieldAliases":{"ID":"ID","DIS_CODE":"DIS_CODE","TOWNNAME":"TOWNNAME","LI":"LI","LIN":"LIN","STREET":"STREET","SECT":"SECT","MAREA":"MAREA","LANE":"LANE","ALLEY":"ALLEY","HOUSE_NO":"HOUSE_NO","E_COORD97":"E_COORD97","N_COORD97":"N_COORD97","ADDRESS":"ADDRESS","OBJECTID":"OBJECTID"},"geometryType":"esriGeometryPoint","spatialReference":{"wkid":102443,"latestWkid":3826},"fields":[{"name":"ID","type":"esriFieldTypeDouble","alias":"ID"},{"name":"DIS_CODE","type":"esriFieldTypeInteger","alias":"DIS_CODE"},{"name":"TOWNNAME","type":"esriFieldTypeString","alias":"TOWNNAME","length":8},{"name":"LI","type":"esriFieldTypeString","alias":"LI","length":8},{"name":"LIN","type":"esriFieldTypeString","alias":"LIN","length":12},{"name":"STREET","type":"esriFieldTypeString","alias":"STREET","length":20},{"name":"SECT","type":"esriFieldTypeString","alias":"SECT","length":8},{"name":"MAREA","type":"esriFieldTypeString","alias":"MAREA","length":12},{"name":"LANE","type":"esriFieldTypeString","alias":"LANE","length":10},{"name":"ALLEY","type":"esriFieldTypeString","alias":"ALLEY","length":10},{"name":"HOUSE_NO","type":"esriFieldTypeString","alias":"HOUSE_NO","length":20},{"name":"E_COORD97","type":"esriFieldTypeDouble","alias":"E_COORD97"},{"name":"N_COORD97","type":"esriFieldTypeDouble","alias":"N_COORD97"},{"name":"ADDRESS","type":"esriFieldTypeString","alias":"ADDRESS","length":50},{"name":"OBJECTID","type":"esriFieldTypeOID","alias":"OBJECTID"}],"features":[{"attributes":{"ID":238005,"DIS_CODE":0,"TOWNNAME":"麻豆區","LI":"北勢里","LIN":"16鄰","STREET":" ","SECT":" ","MAREA":"北勢寮","LANE":" ","ALLEY":" ","HOUSE_NO":"６２號之１１","E_COORD97":171769.45999999999,"N_COORD97":2568563.79,"ADDRESS":"北勢寮６２號之１１","OBJECTID":238001},"geometry":{"x":171769.45999999996,"y":2568563.7899999991}},{"attributes":{"ID":238006,"DIS_CODE":0,"TOWNNAME":"仁德區","LI":"成功里","LIN":"38鄰","STREET":"保華路","SECT":" ","MAREA":" ","LANE":"２巷","ALLEY":" ","HOUSE_NO":"７號","E_COORD97":170762.14000000001,"N_COORD97":2540035.2400000002,"ADDRESS":"保華路２巷７號","OBJECTID":238002},"geometry":{"x":170762.1400000006,"y":2540035.2400000002}},{"attributes":{"ID":238007,"DIS_CODE":0,"TOWNNAME":"麻豆區","LI":"北勢里","LIN":"16鄰","STREET":" ","SECT":" ","MAREA":"北勢寮","LANE":" ","ALLEY":" ","HOUSE_NO":"６２號之１６","E_COORD97":171565.14999999999,"N_COORD97":2568778.9300000002,"ADDRESS":"北勢寮６２號之１６","OBJECTID":238003},"geometry":{"x":171565.15000000037,"y":2568778.9300000016}},{"attributes":{"ID":238008,"DIS_CODE":0,"TOWNNAME":"仁德區","LI":"成功里","LIN":"24鄰","STREET":"保華路","SECT":" ","MAREA":" ","LANE":"２６５巷","ALLEY":" ","HOUSE_NO":"２６號","E_COORD97":170634,"N_COORD97":2539900.5099999998,"ADDRESS":"保華路２６５巷２６號","OBJECTID":238004},"geometry":{"x":170634.00000000186,"y":2539900.5099999998}},{"attributes":{"ID":238009,"DIS_CODE":0,"TOWNNAME":"北區","LI":"華興里","LIN":"13鄰","STREET":"南園街","SECT":" ","MAREA":" ","LANE":"１０９巷","ALLEY":" ","HOUSE_NO":"９號","E_COORD97":170685.67000000001,"N_COORD97":2545358.7599999998,"ADDRESS":"南園街１０９巷９號","OBJECTID":238005},"geometry":{"x":170685.67000000086,"y":2545358.7600000016}},{"attributes":{"ID":238010,"DIS_CODE":0,"TOWNNAME":"南區","LI":"松安里","LIN":"13鄰","STREET":"灣裡路","SECT":" ","MAREA":" ","LANE":"２８２巷","ALLEY":" ","HOUSE_NO":"１３６號","E_COORD97":166005.04999999999,"N_COORD97":2536037.4500000002,"ADDRESS":"灣裡路２８２巷１３６號","OBJECTID":238006},"geometry":{"x":166005.04999999981,"y":2536037.4500000011}},{"attributes":{"ID":238011,"DIS_CODE":0,"TOWNNAME":"南區","LI":"松安里","LIN":"13鄰","STREET":"灣裡路","SECT":" ","MAREA":" ","LANE":"２８２巷","ALLEY":" ","HOUSE_NO":"１４０號","E_COORD97":166021.79000000001,"N_COORD97":2536025.4199999999,"ADDRESS":"灣裡路２８２巷１４０號","OBJECTID":238007},"geometry":{"x":166021.79000000097,"y":2536025.4199999999}},{"attributes":{"ID":238012,"DIS_CODE":0,"TOWNNAME":"南區","LI":"松安里","LIN":"13鄰","STREET":"興南街","SECT":" ","MAREA":" ","LANE":"８６巷","ALLEY":" ","HOUSE_NO":"３８號","E_COORD97":166058.73999999999,"N_COORD97":2536043.29,"ADDRESS":"興南街８６巷３８號","OBJECTID":238008},"geometry":{"x":166058.74000000022,"y":2536043.2899999991}},{"attributes":{"ID":238013,"DIS_CODE":0,"TOWNNAME":"南區","LI":"松安里","LIN":"13鄰","STREET":"灣裡路","SECT":" ","MAREA":" ","LANE":"４４０巷","ALLEY":" ","HOUSE_NO":"３７號","E_COORD97":166070.54999999999,"N_COORD97":2536067.6499999999,"ADDRESS":"灣裡路４４０巷３７號","OBJECTID":238009},"geometry":{"x":166070.55000000075,"y":2536067.6500000022}},{"attributes":{"ID":238014,"DIS_CODE":0,"TOWNNAME":"南區","LI":"松安里","LIN":"13鄰","STREET":"灣裡路","SECT":" ","MAREA":" ","LANE":"４４０巷","ALLEY":" ","HOUSE_NO":"３８號之１","E_COORD97":166080.20999999999,"N_COORD97":2536091.7000000002,"ADDRESS":"灣裡路４４０巷３８號之１","OBJECTID":238010},"geometry":{"x":166080.20999999996,"y":2536091.6999999993}},{"attributes":{"ID":238015,"DIS_CODE":0,"TOWNNAME":"南區","LI":"松安里","LIN":"13鄰","STREET":"灣裡路","SECT":" ","MAREA":" ","LANE":"４４０巷","ALLEY":" ","HOUSE_NO":"３９號","E_COORD97":166034.45999999999,"N_COORD97":2536064.8599999999,"ADDRESS":"灣裡路４４０巷３９號","OBJECTID":238011},"geometry":{"x":166034.45999999996,"y":2536064.8600000013}},{"attributes":{"ID":238016,"DIS_CODE":0,"TOWNNAME":"南區","LI":"松安里","LIN":"13鄰","STREET":"灣裡路","SECT":" ","MAREA":" ","LANE":"４４０巷","ALLEY":" ","HOUSE_NO":"４０號","E_COORD97":166079.04999999999,"N_COORD97":2536080.5499999998,"ADDRESS":"灣裡路４４０巷４０號","OBJECTID":238012},"geometry":{"x":166079.05000000075,"y":2536080.5500000007}},{"attributes":{"ID":238017,"DIS_CODE":0,"TOWNNAME":"南區","LI":"松安里","LIN":"13鄰","STREET":"灣裡路","SECT":" ","MAREA":" ","LANE":"４４０巷","ALLEY":" ","HOUSE_NO":"４２號","E_COORD97":166063.56,"N_COORD97":2536080.3900000001,"ADDRESS":"灣裡路４４０巷４２號","OBJECTID":238013},"geometry":{"x":166063.56000000052,"y":2536080.3900000006}},{"attributes":{"ID":238018,"DIS_CODE":0,"TOWNNAME":"南區","LI":"松安里","LIN":"13鄰","STREET":"灣裡路","SECT":" ","MAREA":" ","LANE":"４４０巷","ALLEY":" ","HOUSE_NO":"４４號","E_COORD97":166057.23000000001,"N_COORD97":2536082.2200000002,"ADDRESS":"灣裡路４４０巷４４號","OBJECTID":238014},"geometry":{"x":166057.23000000045,"y":2536082.2200000007}},{"attributes":{"ID":238019,"DIS_CODE":0,"TOWNNAME":"新營區","LI":"南紙里","LIN":"13鄰","STREET":"太子路","SECT":" ","MAREA":" ","LANE":"２３８巷","ALLEY":" ","HOUSE_NO":"５３號","E_COORD97":177762.98000000001,"N_COORD97":2577965.4900000002,"ADDRESS":"太子路２３８巷５３號","OBJECTID":238015},"geometry":{"x":177762.98000000231,"y":2577965.4899999984}},{"attributes":{"ID":238020,"DIS_CODE":0,"TOWNNAME":"新營區","LI":"忠政里","LIN":"13鄰","STREET":"中正路","SECT":" ","MAREA":" ","LANE":"１１５巷","ALLEY":" ","HOUSE_NO":"２５號","E_COORD97":179941.67000000001,"N_COORD97":2579667.1600000001,"ADDRESS":"中正路１１５巷２５號","OBJECTID":238016},"geometry":{"x":179941.67000000086,"y":2579667.160000002}},{"attributes":{"ID":238021,"DIS_CODE":0,"TOWNNAME":"新營區","LI":"忠政里","LIN":"13鄰","STREET":"中正路","SECT":" ","MAREA":" ","LANE":"１１５巷","ALLEY":" ","HOUSE_NO":"３５號","E_COORD97":179894.64000000001,"N_COORD97":2579666.27,"ADDRESS":"中正路１１５巷３５號","OBJECTID":238017},"geometry":{"x":179894.63999999966,"y":2579666.2700000014}},{"attributes":{"ID":238022,"DIS_CODE":0,"TOWNNAME":"新營區","LI":"南紙里","LIN":"13鄰","STREET":"太子路","SECT":" ","MAREA":" ","LANE":"２３８巷","ALLEY":" ","HOUSE_NO":"４９號","E_COORD97":177766.07000000001,"N_COORD97":2577956.6200000001,"ADDRESS":"太子路２３８巷４９號","OBJECTID":238018},"geometry":{"x":177766.07000000123,"y":2577956.6200000029}},{"attributes":{"ID":238023,"DIS_CODE":0,"TOWNNAME":"新營區","LI":"忠政里","LIN":"13鄰","STREET":"中正路","SECT":" ","MAREA":" ","LANE":"１０７巷","ALLEY":" ","HOUSE_NO":"５９號","E_COORD97":179865.94,"N_COORD97":2579668.6200000001,"ADDRESS":"中正路１０７巷５９號","OBJECTID":238019},"geometry":{"x":179865.94000000134,"y":2579668.6200000029}},{"attributes":{"ID":238024,"DIS_CODE":0,"TOWNNAME":"新營區","LI":"忠政里","LIN":"13鄰","STREET":"中正路","SECT":" ","MAREA":" ","LANE":"１０７巷","ALLEY":" ","HOUSE_NO":"４２號","E_COORD97":179924.39999999999,"N_COORD97":2579689.3900000001,"ADDRESS":"中正路１０７巷４２號","OBJECTID":238020},"geometry":{"x":179924.40000000037,"y":2579689.3900000025}},{"attributes":{"ID":238025,"DIS_CODE":0,"TOWNNAME":"新營區","LI":"忠政里","LIN":"13鄰","STREET":"中正路","SECT":" ","MAREA":" ","LANE":"１０７巷","ALLEY":" ","HOUSE_NO":"９２號","E_COORD97":179812.78,"N_COORD97":2579683.27,"ADDRESS":"中正路１０７巷９２號","OBJECTID":238021},"geometry":{"x":179812.78000000026,"y":2579683.2700000014}},{"attributes":{"ID":238026,"DIS_CODE":0,"TOWNNAME":"新營區","LI":"三仙里","LIN":"13鄰","STREET":"中華路","SECT":" ","MAREA":" ","LANE":"５２巷","ALLEY":" ","HOUSE_NO":"２號","E_COORD97":179619.54000000001,"N_COORD97":2578217.9199999999,"ADDRESS":"中華路５２巷２號","OBJECTID":238022},"geometry":{"x":179619.54000000004,"y":2578217.9200000018}},{"attributes":{"ID":238027,"DIS_CODE":0,"TOWNNAME":"新營區","LI":"南紙里","LIN":"13鄰","STREET":"太子路","SECT":" ","MAREA":" ","LANE":"２３８巷","ALLEY":" ","HOUSE_NO":"５９號","E_COORD97":177759.97,"N_COORD97":2577977.6899999999,"ADDRESS":"太子路２３８巷５９號","OBJECTID":238023},"geometry":{"x":177759.96999999974,"y":2577977.6900000013}},{"attributes":{"ID":238028,"DIS_CODE":0,"TOWNNAME":"新營區","LI":"忠政里","LIN":"13鄰","STREET":"中正路","SECT":" ","MAREA":" ","LANE":"１０７巷","ALLEY":" ","HOUSE_NO":"６２號","E_COORD97":179855.76999999999,"N_COORD97":2579684.1800000002,"ADDRESS":"中正路１０７巷６２號","OBJECTID":238024},"geometry":{"x":179855.77000000048,"y":2579684.1800000016}},{"attributes":{"ID":238029,"DIS_CODE":0,"TOWNNAME":"新營區","LI":"南紙里","LIN":"13鄰","STREET":"太子路","SECT":" ","MAREA":" ","LANE":"２３８巷","ALLEY":" ","HOUSE_NO":"４８號","E_COORD97":177770.32999999999,"N_COORD97":2577992.04,"ADDRESS":"太子路２３８巷４８號","OBJECTID":238025},"geometry":{"x":177770.33000000194,"y":2577992.040000001}},{"attributes":{"ID":238030,"DIS_CODE":0,"TOWNNAME":"仁德區","LI":"保安里","LIN":"14鄰","STREET":"文賢路","SECT":"一段","MAREA":" ","LANE":" ","ALLEY":" ","HOUSE_NO":"６００號","E_COORD97":171124.45999999999,"N_COORD97":2536760.0699999998,"ADDRESS":"文賢路一段６００號","OBJECTID":238026},"geometry":{"x":171124.46000000089,"y":2536760.0700000022}},{"attributes":{"ID":238031,"DIS_CODE":0,"TOWNNAME":"仁德區","LI":"保安里","LIN":"14鄰","STREET":"文賢路","SECT":"一段","MAREA":" ","LANE":" ","ALLEY":" ","HOUSE_NO":"７０９號","E_COORD97":171423.92999999999,"N_COORD97":2536398.0800000001,"ADDRESS":"文賢路一段７０９號","OBJECTID":238027},"geometry":{"x":171423.9299999997,"y":2536398.0800000001}},{"attributes":{"ID":238032,"DIS_CODE":0,"TOWNNAME":"麻豆區","LI":"北勢里","LIN":"16鄰","STREET":" ","SECT":" ","MAREA":"北勢寮","LANE":" ","ALLEY":" ","HOUSE_NO":"６２號之１","E_COORD97":171865.57000000001,"N_COORD97":2568423.3900000001,"ADDRESS":"北勢寮６２號之１","OBJECTID":238028},"geometry":{"x":171865.5700000003,"y":2568423.3900000025}},{"attributes":{"ID":238033,"DIS_CODE":0,"TOWNNAME":"麻豆區","LI":"北勢里","LIN":"16鄰","STREET":" ","SECT":" ","MAREA":"北勢寮","LANE":" ","ALLEY":" ","HOUSE_NO":"６２號之２０","E_COORD97":171679.26000000001,"N_COORD97":2568782.7999999998,"ADDRESS":"北勢寮６２號之２０","OBJECTID":238029},"geometry":{"x":171679.25999999978,"y":2568782.8000000045}},{"attributes":{"ID":238034,"DIS_CODE":0,"TOWNNAME":"麻豆區","LI":"北勢里","LIN":"16鄰","STREET":" ","SECT":" ","MAREA":"北勢寮","LANE":" ","ALLEY":" ","HOUSE_NO":"６２號之２１","E_COORD97":172162.51000000001,"N_COORD97":2568193.0600000001,"ADDRESS":"北勢寮６２號之２１","OBJECTID":238030},"geometry":{"x":172162.50999999978,"y":2568193.0600000005}},{"attributes":{"ID":238035,"DIS_CODE":0,"TOWNNAME":"新營區","LI":"忠政里","LIN":"13鄰","STREET":"中正路","SECT":" ","MAREA":" ","LANE":"１０７巷","ALLEY":" ","HOUSE_NO":"４６號","E_COORD97":179915.20000000001,"N_COORD97":2579690.54,"ADDRESS":"中正路１０７巷４６號","OBJECTID":238031},"geometry":{"x":179915.20000000019,"y":2579690.540000001}},{"attributes":{"ID":238036,"DIS_CODE":0,"TOWNNAME":"安定區","LI":"管寮里","LIN":"16鄰","STREET":" ","SECT":" ","MAREA":"管寮","LANE":" ","ALLEY":" ","HOUSE_NO":"１４３號之２","E_COORD97":169831.09,"N_COORD97":2556200.2999999998,"ADDRESS":"管寮１４３之２號","OBJECTID":238032},"geometry":{"x":169831.08999999985,"y":2556200.3000000007}},{"attributes":{"ID":238037,"DIS_CODE":0,"TOWNNAME":"新市區","LI":"新市里","LIN":"16鄰","STREET":"中正路","SECT":" ","MAREA":" ","LANE":"３２３巷","ALLEY":" ","HOUSE_NO":"３４號","E_COORD97":177660.76999999999,"N_COORD97":2553362.5,"ADDRESS":"中正路３２３巷３４號","OBJECTID":238033},"geometry":{"x":177660.77000000048,"y":2553362.5000000019}},{"attributes":{"ID":238038,"DIS_CODE":0,"TOWNNAME":"安定區","LI":"港口里","LIN":"16鄰","STREET":" ","SECT":" ","MAREA":"港口","LANE":" ","ALLEY":" ","HOUSE_NO":"３５６號之４","E_COORD97":171287.79946400001,"N_COORD97":2554794.5464499998,"ADDRESS":"港口３５６號之４","OBJECTID":238034},"geometry":{"x":171287.79946400039,"y":2554794.5464500021}},{"attributes":{"ID":238039,"DIS_CODE":0,"TOWNNAME":"新營區","LI":"南紙里","LIN":"13鄰","STREET":"太子路","SECT":" ","MAREA":" ","LANE":"２３８巷","ALLEY":" ","HOUSE_NO":"４７號","E_COORD97":177767.06,"N_COORD97":2577952.1899999999,"ADDRESS":"太子路２３８巷４７號","OBJECTID":238035},"geometry":{"x":177767.06000000052,"y":2577952.1899999995}},{"attributes":{"ID":238040,"DIS_CODE":0,"TOWNNAME":"新營區","LI":"忠政里","LIN":"13鄰","STREET":"中正路","SECT":" ","MAREA":" ","LANE":"１０７巷","ALLEY":" ","HOUSE_NO":"９０號","E_COORD97":179816.87,"N_COORD97":2579683.25,"ADDRESS":"中正路１０７巷９０號","OBJECTID":238036},"geometry":{"x":179816.87000000104,"y":2579683.2500000019}},{"attributes":{"ID":238041,"DIS_CODE":0,"TOWNNAME":"新營區","LI":"忠政里","LIN":"13鄰","STREET":"中正路","SECT":" ","MAREA":" ","LANE":"１０７巷","ALLEY":" ","HOUSE_NO":"５７號","E_COORD97":179870.03,"N_COORD97":2579668.6000000001,"ADDRESS":"中正路１０７巷５７號","OBJECTID":238037},"geometry":{"x":179870.03000000119,"y":2579668.5999999996}},{"attributes":{"ID":238042,"DIS_CODE":0,"TOWNNAME":"新營區","LI":"忠政里","LIN":"13鄰","STREET":"中正路","SECT":" ","MAREA":" ","LANE":"１０７巷","ALLEY":" ","HOUSE_NO":"５２號","E_COORD97":179894.67999999999,"N_COORD97":2579690.6299999999,"ADDRESS":"中正路１０７巷５２號","OBJECTID":238038},"geometry":{"x":179894.6799999997,"y":2579690.6300000008}},{"attributes":{"ID":238043,"DIS_CODE":0,"TOWNNAME":"新營區","LI":"忠政里","LIN":"13鄰","STREET":"中正路","SECT":" ","MAREA":" ","LANE":"１１５巷","ALLEY":" ","HOUSE_NO":"２１號","E_COORD97":179958.03,"N_COORD97":2579667.0800000001,"ADDRESS":"中正路１１５巷２１號","OBJECTID":238039},"geometry":{"x":179958.03000000119,"y":2579667.0800000038}},{"attributes":{"ID":238044,"DIS_CODE":0,"TOWNNAME":"安定區","LI":"港口里","LIN":"16鄰","STREET":" ","SECT":" ","MAREA":"港口","LANE":" ","ALLEY":" ","HOUSE_NO":"３５６之１０號","E_COORD97":171197.54000000001,"N_COORD97":2554876.2999999998,"ADDRESS":"港口３５６之１０號","OBJECTID":238040},"geometry":{"x":171197.54000000004,"y":2554876.3000000026}},{"attributes":{"ID":238045,"DIS_CODE":0,"TOWNNAME":"安定區","LI":"管寮里","LIN":"16鄰","STREET":" ","SECT":" ","MAREA":"管寮","LANE":" ","ALLEY":" ","HOUSE_NO":"１４７號","E_COORD97":169791.09,"N_COORD97":2556268.25,"ADDRESS":"管寮１４７號","OBJECTID":238041},"geometry":{"x":169791.09000000078,"y":2556268.25}},{"attributes":{"ID":238046,"DIS_CODE":0,"TOWNNAME":"仁德區","LI":"成功里","LIN":"14鄰","STREET":"全福路","SECT":" ","MAREA":" ","LANE":" ","ALLEY":" ","HOUSE_NO":"６３號","E_COORD97":170977.28,"N_COORD97":2539320.4900000002,"ADDRESS":"全福路６３號","OBJECTID":238042},"geometry":{"x":170977.28000000119,"y":2539320.4900000002}},{"attributes":{"ID":238047,"DIS_CODE":0,"TOWNNAME":"安定區","LI":"蘇林里","LIN":"16鄰","STREET":" ","SECT":" ","MAREA":"蘇厝","LANE":" ","ALLEY":" ","HOUSE_NO":"１７４之１號","E_COORD97":173446.32000000001,"N_COORD97":2558968.29,"ADDRESS":"蘇厝１７４之１號","OBJECTID":238043},"geometry":{"x":173446.32000000216,"y":2558968.2899999991}},{"attributes":{"ID":238048,"DIS_CODE":0,"TOWNNAME":"南區","LI":"府南里","LIN":"12鄰","STREET":"永成路","SECT":"三段","MAREA":" ","LANE":"４１６巷","ALLEY":" ","HOUSE_NO":"２２號","E_COORD97":167580.66164400001,"N_COORD97":2541070.5587499999,"ADDRESS":"永成路三段４１６巷２２號","OBJECTID":238044},"geometry":{"x":167580.66164400056,"y":2541070.5587470029}},{"attributes":{"ID":238049,"DIS_CODE":0,"TOWNNAME":"安定區","LI":"蘇厝里","LIN":"16鄰","STREET":" ","SECT":" ","MAREA":"蘇厝","LANE":" ","ALLEY":" ","HOUSE_NO":"４３４號之４","E_COORD97":173207.17999999999,"N_COORD97":2558691.2999999998,"ADDRESS":"蘇厝４３４號之４","OBJECTID":238045},"geometry":{"x":173207.1799999997,"y":2558691.3000000026}},{"attributes":{"ID":238050,"DIS_CODE":0,"TOWNNAME":"安定區","LI":"蘇厝里","LIN":"16鄰","STREET":" ","SECT":" ","MAREA":"蘇厝","LANE":" ","ALLEY":" ","HOUSE_NO":"４３６號之４","E_COORD97":173218.67999999999,"N_COORD97":2558748.2999999998,"ADDRESS":"蘇厝４３６號之４","OBJECTID":238046},"geometry":{"x":173218.6799999997,"y":2558748.3000000026}},{"attributes":{"ID":238051,"DIS_CODE":0,"TOWNNAME":"安定區","LI":"新吉里","LIN":"16鄰","STREET":" ","SECT":" ","MAREA":"新吉","LANE":" ","ALLEY":" ","HOUSE_NO":"１９０號","E_COORD97":168988.12,"N_COORD97":2554107.25,"ADDRESS":"新吉１９０號","OBJECTID":238047},"geometry":{"x":168988.12000000104,"y":2554107.25}},{"attributes":{"ID":238052,"DIS_CODE":0,"TOWNNAME":"安定區","LI":"港口里","LIN":"16鄰","STREET":" ","SECT":" ","MAREA":"港口","LANE":" ","ALLEY":" ","HOUSE_NO":"３５９號之１","E_COORD97":171351.42999999999,"N_COORD97":2554844.2999999998,"ADDRESS":"港口３５９號之１","OBJECTID":238048},"geometry":{"x":171351.43000000063,"y":2554844.3000000007}},{"attributes":{"ID":238053,"DIS_CODE":0,"TOWNNAME":"中西區","LI":"永華里","LIN":"16鄰","STREET":"南門路","SECT":" ","MAREA":" ","LANE":"３１巷","ALLEY":" ","HOUSE_NO":"１０號","E_COORD97":168525.10999999999,"N_COORD97":2543583.1800000002,"ADDRESS":"南門路３１巷１０號","OBJECTID":238049},"geometry":{"x":168525.11000000127,"y":2543583.1800000016}},{"attributes":{"ID":238054,"DIS_CODE":0,"TOWNNAME":"中西區","LI":"永華里","LIN":"16鄰","STREET":"南門路","SECT":" ","MAREA":" ","LANE":"３１巷","ALLEY":" ","HOUSE_NO":"１２號","E_COORD97":168528.97,"N_COORD97":2543582.5899999999,"ADDRESS":"南門路３１巷１２號","OBJECTID":238050},"geometry":{"x":168528.97000000067,"y":2543582.589999998}},{"attributes":{"ID":238055,"DIS_CODE":0,"TOWNNAME":"中西區","LI":"永華里","LIN":"16鄰","STREET":"南門路","SECT":" ","MAREA":" ","LANE":"３１巷","ALLEY":" ","HOUSE_NO":"１４號","E_COORD97":168532.23000000001,"N_COORD97":2543581.9199999999,"ADDRESS":"南門路３１巷１４號","OBJECTID":238051},"geometry":{"x":168532.23000000045,"y":2543581.9200000018}},{"attributes":{"ID":238056,"DIS_CODE":0,"TOWNNAME":"關廟區","LI":"五甲里","LIN":"13鄰","STREET":"光復街","SECT":" ","MAREA":" ","LANE":"９１巷","ALLEY":" ","HOUSE_NO":"４６號","E_COORD97":181435.04000000001,"N_COORD97":2539378.2799999998,"ADDRESS":"光復街９１巷４６號","OBJECTID":238052},"geometry":{"x":181435.04000000004,"y":2539378.2800000012}},{"attributes":{"ID":238057,"DIS_CODE":0,"TOWNNAME":"關廟區","LI":"五甲里","LIN":"13鄰","STREET":"光復街","SECT":" ","MAREA":" ","LANE":"９１巷","ALLEY":" ","HOUSE_NO":"３７號","E_COORD97":181417.04000000001,"N_COORD97":2539359.2799999998,"ADDRESS":"光復街９１巷３７號","OBJECTID":238053},"geometry":{"x":181417.04000000097,"y":2539359.2799999993}},{"attributes":{"ID":238058,"DIS_CODE":0,"TOWNNAME":"關廟區","LI":"北花里","LIN":"13鄰","STREET":"中正路","SECT":" ","MAREA":" ","LANE":"２６５巷","ALLEY":" ","HOUSE_NO":"１０１號","E_COORD97":183196.57999999999,"N_COORD97":2540697.73,"ADDRESS":"中正路２６５巷１０１號","OBJECTID":238054},"geometry":{"x":183196.58000000194,"y":2540697.7300000023}},{"attributes":{"ID":238059,"DIS_CODE":0,"TOWNNAME":"關廟區","LI":"南花里","LIN":"13鄰","STREET":"花園一街","SECT":" ","MAREA":" ","LANE":"１６２巷","ALLEY":" ","HOUSE_NO":"１１號","E_COORD97":181719.64000000001,"N_COORD97":2540203.25,"ADDRESS":"花園一街１６２巷１１號","OBJECTID":238055},"geometry":{"x":181719.6400000006,"y":2540203.2500000019}},{"attributes":{"ID":238060,"DIS_CODE":0,"TOWNNAME":"關廟區","LI":"五甲里","LIN":"13鄰","STREET":"光復街","SECT":" ","MAREA":" ","LANE":"６３巷","ALLEY":" ","HOUSE_NO":"３６號","E_COORD97":181428.54000000001,"N_COORD97":2539320.2799999998,"ADDRESS":"光復街６３巷３６號","OBJECTID":238056},"geometry":{"x":181428.54000000004,"y":2539320.2800000012}},{"attributes":{"ID":238061,"DIS_CODE":0,"TOWNNAME":"關廟區","LI":"五甲里","LIN":"13鄰","STREET":"光復街","SECT":" ","MAREA":" ","LANE":"６３巷","ALLEY":" ","HOUSE_NO":"４２號","E_COORD97":181417.44,"N_COORD97":2539325.2799999998,"ADDRESS":"光復街６３巷４２號","OBJECTID":238057},"geometry":{"x":181417.44000000041,"y":2539325.2799999993}},{"attributes":{"ID":238062,"DIS_CODE":0,"TOWNNAME":"仁德區","LI":"保安里","LIN":"14鄰","STREET":"文賢路","SECT":"一段","MAREA":" ","LANE":" ","ALLEY":" ","HOUSE_NO":"６０８號","E_COORD97":171125.64999999999,"N_COORD97":2536743.5699999998,"ADDRESS":"文賢路一段６０８號","OBJECTID":238058},"geometry":{"x":171125.6500000013,"y":2536743.5700000003}},{"attributes":{"ID":238063,"DIS_CODE":0,"TOWNNAME":"仁德區","LI":"後壁里","LIN":"14鄰","STREET":"德善路","SECT":" ","MAREA":" ","LANE":" ","ALLEY":" ","HOUSE_NO":"１７０號","E_COORD97":173627.04000000001,"N_COORD97":2538780.27,"ADDRESS":"德善路１７０號","OBJECTID":238059},"geometry":{"x":173627.04000000004,"y":2538780.2699999977}},{"attributes":{"ID":238064,"DIS_CODE":0,"TOWNNAME":"仁德區","LI":"成功里","LIN":"14鄰","STREET":"全福路","SECT":" ","MAREA":" ","LANE":" ","ALLEY":" ","HOUSE_NO":"５５號","E_COORD97":170960.17000000001,"N_COORD97":2539321.7400000002,"ADDRESS":"全福路５５號","OBJECTID":238060},"geometry":{"x":170960.17000000086,"y":2539321.7400000021}},{"attributes":{"ID":238065,"DIS_CODE":0,"TOWNNAME":"仁德區","LI":"保安里","LIN":"14鄰","STREET":"文賢路","SECT":"一段","MAREA":" ","LANE":" ","ALLEY":" ","HOUSE_NO":"６０９號","E_COORD97":171145.56,"N_COORD97":2536743.0699999998,"ADDRESS":"文賢路一段６０９號","OBJECTID":238061},"geometry":{"x":171145.56000000052,"y":2536743.0700000022}},{"attributes":{"ID":238066,"DIS_CODE":0,"TOWNNAME":"白河區","LI":"永安里","LIN":"16鄰","STREET":"四維街","SECT":" ","MAREA":" ","LANE":" ","ALLEY":" ","HOUSE_NO":"１２之１號","E_COORD97":190031.87,"N_COORD97":2583213.52,"ADDRESS":"四維街１２之１號","OBJECTID":238062},"geometry":{"x":190031.87000000104,"y":2583213.5200000014}},{"attributes":{"ID":238067,"DIS_CODE":0,"TOWNNAME":"仁德區","LI":"太子里","LIN":"16鄰","STREET":"太興路","SECT":" ","MAREA":" ","LANE":"１２７巷","ALLEY":" ","HOUSE_NO":"２０號","E_COORD97":174053.39999999999,"N_COORD97":2543619.0099999998,"ADDRESS":"太興路１２７巷２０號","OBJECTID":238063},"geometry":{"x":174053.4000000013,"y":2543619.0099999998}},{"attributes":{"ID":238068,"DIS_CODE":0,"TOWNNAME":"仁德區","LI":"保安里","LIN":"16鄰","STREET":"中正路","SECT":"一段","MAREA":" ","LANE":"１６４巷","ALLEY":" ","HOUSE_NO":"５號","E_COORD97":171557.42999999999,"N_COORD97":2535701.27,"ADDRESS":"中正路一段１６４巷５號","OBJECTID":238064},"geometry":{"x":171557.4299999997,"y":2535701.2699999996}},{"attributes":{"ID":238069,"DIS_CODE":0,"TOWNNAME":"關廟區","LI":"南花里","LIN":"13鄰","STREET":"花園一街","SECT":" ","MAREA":" ","LANE":"１８０巷","ALLEY":" ","HOUSE_NO":"９號","E_COORD97":181687.29000000001,"N_COORD97":2540193.25,"ADDRESS":"花園一街１８０巷９號","OBJECTID":238065},"geometry":{"x":181687.29000000004,"y":2540193.25}},{"attributes":{"ID":238070,"DIS_CODE":0,"TOWNNAME":"關廟區","LI":"北勢里","LIN":"13鄰","STREET":"北安三街","SECT":" ","MAREA":" ","LANE":"１４５巷","ALLEY":" ","HOUSE_NO":"１８號","E_COORD97":181420.69,"N_COORD97":2540570.3199999998,"ADDRESS":"北安三街１４５巷１８號","OBJECTID":238066},"geometry":{"x":181420.69000000041,"y":2540570.3200000003}},{"attributes":{"ID":238071,"DIS_CODE":0,"TOWNNAME":"關廟區","LI":"松腳里","LIN":"13鄰","STREET":"東興路","SECT":" ","MAREA":" ","LANE":"２０９巷","ALLEY":" ","HOUSE_NO":"２號","E_COORD97":181737.57000000001,"N_COORD97":2539586.25,"ADDRESS":"東興路２０９巷２號","OBJECTID":238067},"geometry":{"x":181737.57000000123,"y":2539586.25}},{"attributes":{"ID":238072,"DIS_CODE":0,"TOWNNAME":"關廟區","LI":"五甲里","LIN":"13鄰","STREET":"光復街","SECT":" ","MAREA":" ","LANE":"６３巷","ALLEY":" ","HOUSE_NO":"１６號","E_COORD97":181465.34,"N_COORD97":2539305.2799999998,"ADDRESS":"光復街６３巷１６號","OBJECTID":238068},"geometry":{"x":181465.33999999985,"y":2539305.2799999993}},{"attributes":{"ID":238073,"DIS_CODE":0,"TOWNNAME":"關廟區","LI":"五甲里","LIN":"13鄰","STREET":"光復街","SECT":" ","MAREA":" ","LANE":"６３巷","ALLEY":" ","HOUSE_NO":"３０號","E_COORD97":181436.94,"N_COORD97":2539315.2799999998,"ADDRESS":"光復街６３巷３０號","OBJECTID":238069},"geometry":{"x":181436.94000000134,"y":2539315.2799999993}},{"attributes":{"ID":238074,"DIS_CODE":0,"TOWNNAME":"關廟區","LI":"埤頭里","LIN":"13鄰","STREET":"關新路","SECT":"二段","MAREA":" ","LANE":"４６２巷","ALLEY":" ","HOUSE_NO":"１１號","E_COORD97":179212.97,"N_COORD97":2545146.2999999998,"ADDRESS":"關新路二段４６２巷１１號","OBJECTID":238070},"geometry":{"x":179212.96999999974,"y":2545146.3000000026}},{"attributes":{"ID":238075,"DIS_CODE":0,"TOWNNAME":"關廟區","LI":"關廟里","LIN":"13鄰","STREET":"大仁街","SECT":" ","MAREA":" ","LANE":"１３０巷","ALLEY":" ","HOUSE_NO":"２６號","E_COORD97":181026.72,"N_COORD97":2539474.25,"ADDRESS":"大仁街１３０巷２６號","OBJECTID":238071},"geometry":{"x":181026.71999999974,"y":2539474.2500000019}},{"attributes":{"ID":238076,"DIS_CODE":0,"TOWNNAME":"關廟區","LI":"關廟里","LIN":"13鄰","STREET":"大仁街","SECT":" ","MAREA":" ","LANE":"１３０巷","ALLEY":" ","HOUSE_NO":"１２號","E_COORD97":181012.51999999999,"N_COORD97":2539433.25,"ADDRESS":"大仁街１３０巷１２號","OBJECTID":238072},"geometry":{"x":181012.51999999955,"y":2539433.2500000019}},{"attributes":{"ID":238077,"DIS_CODE":0,"TOWNNAME":"永康區","LI":"東橋里","LIN":"14鄰","STREET":"東橋三路","SECT":" ","MAREA":" ","LANE":" ","ALLEY":" ","HOUSE_NO":"１７號","E_COORD97":171643,"N_COORD97":2546520,"ADDRESS":"東橋三路１７號","OBJECTID":238073},"geometry":{"x":171643.00000000093,"y":2546520.0000000019}},{"attributes":{"ID":238078,"DIS_CODE":0,"TOWNNAME":"永康區","LI":"東橋里","LIN":"14鄰","STREET":"東橋三路","SECT":" ","MAREA":" ","LANE":" ","ALLEY":" ","HOUSE_NO":"１９號","E_COORD97":171640.06,"N_COORD97":2546524.6499999999,"ADDRESS":"東橋三路１９號","OBJECTID":238074},"geometry":{"x":171640.05999999866,"y":2546524.6500000004}},{"attributes":{"ID":238079,"DIS_CODE":0,"TOWNNAME":"永康區","LI":"東橋里","LIN":"14鄰","STREET":"東橋三路","SECT":" ","MAREA":" ","LANE":" ","ALLEY":" ","HOUSE_NO":"１號","E_COORD97":171666.04000000001,"N_COORD97":2546475.27,"ADDRESS":"東橋三路１號","OBJECTID":238075},"geometry":{"x":171666.03999999911,"y":2546475.2699999996}},{"attributes":{"ID":238080,"DIS_CODE":0,"TOWNNAME":"永康區","LI":"東橋里","LIN":"14鄰","STREET":"東橋三路","SECT":" ","MAREA":" ","LANE":" ","ALLEY":" ","HOUSE_NO":"３號","E_COORD97":171663.26000000001,"N_COORD97":2546480.1699999999,"ADDRESS":"東橋三路３號","OBJECTID":238076},"geometry":{"x":171663.26000000071,"y":2546480.1699999999}},{"attributes":{"ID":238081,"DIS_CODE":0,"TOWNNAME":"仁德區","LI":"土庫里","LIN":"16鄰","STREET":"土庫一街","SECT":" ","MAREA":" ","LANE":"８２巷","ALLEY":" ","HOUSE_NO":"１號","E_COORD97":174597.42999999999,"N_COORD97":2543006.75,"ADDRESS":"土庫一街８２巷１號","OBJECTID":238077},"geometry":{"x":174597.42999999877,"y":2543006.7500000019}},{"attributes":{"ID":238082,"DIS_CODE":0,"TOWNNAME":"官田區","LI":"渡頭里","LIN":"16鄰","STREET":" ","SECT":" ","MAREA":"渡子頭","LANE":" ","ALLEY":" ","HOUSE_NO":"１１６號","E_COORD97":181124.60000000001,"N_COORD97":2563190.3999999999,"ADDRESS":"渡子頭１１６號","OBJECTID":238078},"geometry":{"x":181124.60000000149,"y":2563190.4000000004}},{"attributes":{"ID":238083,"DIS_CODE":0,"TOWNNAME":"仁德區","LI":"後壁里","LIN":"16鄰","STREET":"德善路","SECT":" ","MAREA":" ","LANE":"３２巷","ALLEY":" ","HOUSE_NO":"１３號","E_COORD97":173305.09,"N_COORD97":2538856.77,"ADDRESS":"德善路３２巷１３號","OBJECTID":238079},"geometry":{"x":173305.09000000078,"y":2538856.7699999996}},{"attributes":{"ID":238084,"DIS_CODE":0,"TOWNNAME":"官田區","LI":"渡頭里","LIN":"16鄰","STREET":" ","SECT":" ","MAREA":"渡子頭","LANE":" ","ALLEY":" ","HOUSE_NO":"１１７號之１","E_COORD97":181158.35000000001,"N_COORD97":2563227.8900000001,"ADDRESS":"渡子頭１１７號之１","OBJECTID":238080},"geometry":{"x":181158.35000000149,"y":2563227.8900000006}},{"attributes":{"ID":238085,"DIS_CODE":0,"TOWNNAME":"仁德區","LI":"新田里","LIN":"16鄰","STREET":"北保東路","SECT":" ","MAREA":" ","LANE":"１８巷","ALLEY":" ","HOUSE_NO":"５號","E_COORD97":173415.14000000001,"N_COORD97":2539363.25,"ADDRESS":"北保東路１８巷５號","OBJECTID":238081},"geometry":{"x":173415.1400000006,"y":2539363.25}},{"attributes":{"ID":238086,"DIS_CODE":0,"TOWNNAME":"關廟區","LI":"南花里","LIN":"13鄰","STREET":"花園一街","SECT":" ","MAREA":" ","LANE":"２０２巷","ALLEY":" ","HOUSE_NO":"１２號","E_COORD97":181650.54000000001,"N_COORD97":2540195.25,"ADDRESS":"花園一街２０２巷１２號","OBJECTID":238082},"geometry":{"x":181650.54000000004,"y":2540195.2500000019}},{"attributes":{"ID":238087,"DIS_CODE":0,"TOWNNAME":"北區","LI":"成德里","LIN":"13鄰","STREET":"海安路","SECT":"三段","MAREA":" ","LANE":"５００巷","ALLEY":" ","HOUSE_NO":"１２６號","E_COORD97":168237.57999999999,"N_COORD97":2545681.52,"ADDRESS":"海安路三段５００巷１２６號","OBJECTID":238083},"geometry":{"x":168237.58000000007,"y":2545681.5200000033}},{"attributes":{"ID":238088,"DIS_CODE":0,"TOWNNAME":"歸仁區","LI":"南保里","LIN":"57鄰","STREET":"民權十二街","SECT":" ","MAREA":" ","LANE":" ","ALLEY":" ","HOUSE_NO":"２５號","E_COORD97":176891.73999999999,"N_COORD97":2540437.29,"ADDRESS":"民權十二街２５號","OBJECTID":238084},"geometry":{"x":176891.74000000115,"y":2540437.2899999991}},{"attributes":{"ID":238089,"DIS_CODE":0,"TOWNNAME":"官田區","LI":"渡頭里","LIN":"16鄰","STREET":" ","SECT":" ","MAREA":"渡子頭","LANE":" ","ALLEY":" ","HOUSE_NO":"１１７號","E_COORD97":181155.47,"N_COORD97":2563189.1000000001,"ADDRESS":"渡子頭１１７號","OBJECTID":238085},"geometry":{"x":181155.46999999974,"y":2563189.1000000034}},{"attributes":{"ID":238090,"DIS_CODE":0,"TOWNNAME":"官田區","LI":"渡頭里","LIN":"16鄰","STREET":" ","SECT":" ","MAREA":"渡子頭","LANE":" ","ALLEY":" ","HOUSE_NO":"１１８號之１","E_COORD97":181202.94,"N_COORD97":2563199.1899999999,"ADDRESS":"渡子頭１１８號之１","OBJECTID":238086},"geometry":{"x":181202.94000000134,"y":2563199.1900000013}},{"attributes":{"ID":238091,"DIS_CODE":0,"TOWNNAME":"官田區","LI":"渡頭里","LIN":"16鄰","STREET":" ","SECT":" ","MAREA":"渡子頭","LANE":" ","ALLEY":" ","HOUSE_NO":"１１８號之２","E_COORD97":181175.62,"N_COORD97":2563229.77,"ADDRESS":"渡子頭１１８號之２","OBJECTID":238087},"geometry":{"x":181175.61999999918,"y":2563229.7700000014}},{"attributes":{"ID":238092,"DIS_CODE":0,"TOWNNAME":"官田區","LI":"渡頭里","LIN":"16鄰","STREET":" ","SECT":" ","MAREA":"渡子頭","LANE":" ","ALLEY":" ","HOUSE_NO":"１１８號之３","E_COORD97":181192.92000000001,"N_COORD97":2563227.04,"ADDRESS":"渡子頭１１８號之３","OBJECTID":238088},"geometry":{"x":181192.92000000086,"y":2563227.040000001}},{"attributes":{"ID":238093,"DIS_CODE":0,"TOWNNAME":"官田區","LI":"渡頭里","LIN":"16鄰","STREET":" ","SECT":" ","MAREA":"渡子頭","LANE":" ","ALLEY":" ","HOUSE_NO":"１１８號","E_COORD97":181195.57999999999,"N_COORD97":2563198.21,"ADDRESS":"渡子頭１１８號","OBJECTID":238089},"geometry":{"x":181195.58000000007,"y":2563198.2100000009}},{"attributes":{"ID":238094,"DIS_CODE":0,"TOWNNAME":"官田區","LI":"渡頭里","LIN":"16鄰","STREET":" ","SECT":" ","MAREA":"渡子頭","LANE":" ","ALLEY":" ","HOUSE_NO":"１１９號之５","E_COORD97":181179.45000000001,"N_COORD97":2563171.98,"ADDRESS":"渡子頭１１９號之５","OBJECTID":238090},"geometry":{"x":181179.45000000112,"y":2563171.9800000023}},{"attributes":{"ID":238095,"DIS_CODE":0,"TOWNNAME":"歸仁區","LI":"南保里","LIN":"57鄰","STREET":"民權十二街","SECT":" ","MAREA":" ","LANE":" ","ALLEY":" ","HOUSE_NO":"３９號","E_COORD97":176894.04000000001,"N_COORD97":2540481.29,"ADDRESS":"民權十二街３９號","OBJECTID":238091},"geometry":{"x":176894.03999999911,"y":2540481.2899999991}},{"attributes":{"ID":238096,"DIS_CODE":0,"TOWNNAME":"永康區","LI":"東橋里","LIN":"14鄰","STREET":"東橋三路","SECT":" ","MAREA":" ","LANE":" ","ALLEY":" ","HOUSE_NO":"７號","E_COORD97":171654.79999999999,"N_COORD97":2546496.0299999998,"ADDRESS":"東橋三路７號","OBJECTID":238092},"geometry":{"x":171654.80000000075,"y":2546496.0300000012}},{"attributes":{"ID":238097,"DIS_CODE":0,"TOWNNAME":"永康區","LI":"東橋里","LIN":"14鄰","STREET":"東橋三路","SECT":" ","MAREA":" ","LANE":" ","ALLEY":" ","HOUSE_NO":"９號","E_COORD97":171651.62,"N_COORD97":2546500.8399999999,"ADDRESS":"東橋三路９號","OBJECTID":238093},"geometry":{"x":171651.62000000011,"y":2546500.8400000017}},{"attributes":{"ID":238098,"DIS_CODE":0,"TOWNNAME":"官田區","LI":"隆本里","LIN":"16鄰","STREET":"興隆街","SECT":" ","MAREA":" ","LANE":"８５巷","ALLEY":" ","HOUSE_NO":"１６號","E_COORD97":179851.79000000001,"N_COORD97":2566297.3399999999,"ADDRESS":"興隆街８５巷１６號","OBJECTID":238094},"geometry":{"x":179851.79000000004,"y":2566297.3400000017}},{"attributes":{"ID":238099,"DIS_CODE":0,"TOWNNAME":"官田區","LI":"渡頭里","LIN":"16鄰","STREET":" ","SECT":" ","MAREA":"渡子頭","LANE":" ","ALLEY":" ","HOUSE_NO":"１１９號之７","E_COORD97":181198.03,"N_COORD97":2563159.6699999999,"ADDRESS":"渡子頭１１９號之７","OBJECTID":238095},"geometry":{"x":181198.03000000026,"y":2563159.6700000018}},{"attributes":{"ID":238100,"DIS_CODE":0,"TOWNNAME":"官田區","LI":"渡頭里","LIN":"16鄰","STREET":" ","SECT":" ","MAREA":"渡子頭","LANE":" ","ALLEY":" ","HOUSE_NO":"１１９號","E_COORD97":181186.29000000001,"N_COORD97":2563191.1400000001,"ADDRESS":"渡子頭１１９號","OBJECTID":238096},"geometry":{"x":181186.2900000019,"y":2563191.1400000025}},{"attributes":{"ID":238101,"DIS_CODE":0,"TOWNNAME":"官田區","LI":"渡頭里","LIN":"16鄰","STREET":" ","SECT":" ","MAREA":"渡子頭","LANE":" ","ALLEY":" ","HOUSE_NO":"１２０號","E_COORD97":181182.10999999999,"N_COORD97":2563135.7000000002,"ADDRESS":"渡子頭１２０號","OBJECTID":238097},"geometry":{"x":181182.11000000034,"y":2563135.6999999993}},{"attributes":{"ID":238102,"DIS_CODE":0,"TOWNNAME":"官田區","LI":"渡頭里","LIN":"16鄰","STREET":" ","SECT":" ","MAREA":"渡子頭","LANE":" ","ALLEY":" ","HOUSE_NO":"１２１號","E_COORD97":181199.37,"N_COORD97":2563128.0099999998,"ADDRESS":"渡子頭１２１號","OBJECTID":238098},"geometry":{"x":181199.36999999918,"y":2563128.0099999998}},{"attributes":{"ID":238103,"DIS_CODE":0,"TOWNNAME":"官田區","LI":"渡頭里","LIN":"16鄰","STREET":" ","SECT":" ","MAREA":"渡子頭","LANE":" ","ALLEY":" ","HOUSE_NO":"１２２號","E_COORD97":181183.95000000001,"N_COORD97":2563124.8999999999,"ADDRESS":"渡子頭１２２號","OBJECTID":238099},"geometry":{"x":181183.95000000112,"y":2563124.9000000022}},{"attributes":{"ID":238104,"DIS_CODE":0,"TOWNNAME":"安定區","LI":"蘇厝里","LIN":"16鄰","STREET":" ","SECT":" ","MAREA":"蘇厝","LANE":" ","ALLEY":" ","HOUSE_NO":"４３６號之１","E_COORD97":173190.325017,"N_COORD97":2558736.7515699998,"ADDRESS":"蘇厝４３６號之１","OBJECTID":238100},"geometry":{"x":173190.32501700055,"y":2558736.7515680008}},{"attributes":{"ID":238105,"DIS_CODE":0,"TOWNNAME":"官田區","LI":"隆本里","LIN":"16鄰","STREET":"興隆街","SECT":" ","MAREA":" ","LANE":"８５巷","ALLEY":" ","HOUSE_NO":"１號","E_COORD97":179864.54999999999,"N_COORD97":2566329.3100000001,"ADDRESS":"興隆街８５巷１號","OBJECTID":238101},"geometry":{"x":179864.55000000075,"y":2566329.3100000024}},{"attributes":{"ID":238106,"DIS_CODE":0,"TOWNNAME":"官田區","LI":"隆本里","LIN":"16鄰","STREET":"興隆街","SECT":" ","MAREA":" ","LANE":"９７巷","ALLEY":" ","HOUSE_NO":"１０號","E_COORD97":179825.81,"N_COORD97":2566320.8799999999,"ADDRESS":"興隆街９７巷１０號","OBJECTID":238102},"geometry":{"x":179825.80999999959,"y":2566320.879999999}},{"attributes":{"ID":238107,"DIS_CODE":0,"TOWNNAME":"官田區","LI":"隆本里","LIN":"16鄰","STREET":"興隆街","SECT":" ","MAREA":" ","LANE":"９７巷","ALLEY":" ","HOUSE_NO":"１２號","E_COORD97":179826.42000000001,"N_COORD97":2566316.1600000001,"ADDRESS":"興隆街９７巷１２號","OBJECTID":238103},"geometry":{"x":179826.42000000086,"y":2566316.160000002}},{"attributes":{"ID":238108,"DIS_CODE":0,"TOWNNAME":"官田區","LI":"隆本里","LIN":"16鄰","STREET":"興隆街","SECT":" ","MAREA":" ","LANE":"９７巷","ALLEY":" ","HOUSE_NO":"１６號","E_COORD97":179827.51000000001,"N_COORD97":2566312.8999999999,"ADDRESS":"興隆街９７巷１６號","OBJECTID":238104},"geometry":{"x":179827.51000000071,"y":2566312.9000000004}},{"attributes":{"ID":238109,"DIS_CODE":0,"TOWNNAME":"北區","LI":"成德里","LIN":"13鄰","STREET":"海安路","SECT":"三段","MAREA":" ","LANE":"５００巷","ALLEY":" ","HOUSE_NO":"１２８號","E_COORD97":168243.29999999999,"N_COORD97":2545682,"ADDRESS":"海安路三段５００巷１２８號","OBJECTID":238105},"geometry":{"x":168243.30000000168,"y":2545681.9999999981}},{"attributes":{"ID":238110,"DIS_CODE":0,"TOWNNAME":"北區","LI":"成德里","LIN":"13鄰","STREET":"海安路","SECT":"三段","MAREA":" ","LANE":"５００巷","ALLEY":" ","HOUSE_NO":"１３０號","E_COORD97":168249.48999999999,"N_COORD97":2545682,"ADDRESS":"海安路三段５００巷１３０號","OBJECTID":238106},"geometry":{"x":168249.49000000115,"y":2545681.9999999981}},{"attributes":{"ID":238111,"DIS_CODE":0,"TOWNNAME":"北區","LI":"成德里","LIN":"13鄰","STREET":"海安路","SECT":"三段","MAREA":" ","LANE":"５００巷","ALLEY":" ","HOUSE_NO":"１３２號","E_COORD97":168256,"N_COORD97":2545682.3199999998,"ADDRESS":"海安路三段５００巷１３２號","OBJECTID":238107},"geometry":{"x":168256.00000000093,"y":2545682.3200000003}},{"attributes":{"ID":238112,"DIS_CODE":0,"TOWNNAME":"安平區","LI":"平安里","LIN":"13鄰","STREET":"安平路","SECT":" ","MAREA":" ","LANE":"５５０巷","ALLEY":" ","HOUSE_NO":"９號","E_COORD97":164992.76000000001,"N_COORD97":2544407.3900000001,"ADDRESS":"安平路５５０巷９號","OBJECTID":238108},"geometry":{"x":164992.76000000071,"y":2544407.3900000006}},{"attributes":{"ID":238113,"DIS_CODE":0,"TOWNNAME":"歸仁區","LI":"南興里","LIN":"13鄰","STREET":"文化十八街","SECT":" ","MAREA":" ","LANE":"１８巷","ALLEY":" ","HOUSE_NO":"１０號","E_COORD97":175901.84,"N_COORD97":2541256.3300000001,"ADDRESS":"文化十八街１８巷１０號","OBJECTID":238109},"geometry":{"x":175901.83999999892,"y":2541256.3300000019}},{"attributes":{"ID":238114,"DIS_CODE":0,"TOWNNAME":"歸仁區","LI":"南興里","LIN":"13鄰","STREET":"文化十八街","SECT":" ","MAREA":" ","LANE":"１８巷","ALLEY":" ","HOUSE_NO":"１１號","E_COORD97":175891.64000000001,"N_COORD97":2541278.3300000001,"ADDRESS":"文化十八街１８巷１１號","OBJECTID":238110},"geometry":{"x":175891.6400000006,"y":2541278.3300000001}},{"attributes":{"ID":238115,"DIS_CODE":0,"TOWNNAME":"歸仁區","LI":"南興里","LIN":"13鄰","STREET":"文化十八街","SECT":" ","MAREA":" ","LANE":"１８巷","ALLEY":" ","HOUSE_NO":"１９號","E_COORD97":175912.14000000001,"N_COORD97":2541276.3300000001,"ADDRESS":"文化十八街１８巷１９號","OBJECTID":238111},"geometry":{"x":175912.1400000006,"y":2541276.3300000019}},{"attributes":{"ID":238116,"DIS_CODE":0,"TOWNNAME":"後壁區","LI":"竹新里","LIN":"16鄰","STREET":" ","SECT":" ","MAREA":"新厝","LANE":" ","ALLEY":" ","HOUSE_NO":"４８號之１","E_COORD97":179329.72,"N_COORD97":2582343.0499999998,"ADDRESS":"新厝４８號之１","OBJECTID":238112},"geometry":{"x":179329.71999999974,"y":2582343.0500000026}},{"attributes":{"ID":238117,"DIS_CODE":0,"TOWNNAME":"歸仁區","LI":"南興里","LIN":"13鄰","STREET":"文化十八街","SECT":" ","MAREA":" ","LANE":"１８巷","ALLEY":" ","HOUSE_NO":"１７號","E_COORD97":175908.04000000001,"N_COORD97":2541278.3300000001,"ADDRESS":"文化十八街１８巷１７號","OBJECTID":238113},"geometry":{"x":175908.04000000097,"y":2541278.3300000001}},{"attributes":{"ID":238118,"DIS_CODE":0,"TOWNNAME":"歸仁區","LI":"歸南里","LIN":"13鄰","STREET":"民生南街","SECT":"二段","MAREA":" ","LANE":"２７７巷","ALLEY":" ","HOUSE_NO":"９號","E_COORD97":176124.85999999999,"N_COORD97":2539989.25,"ADDRESS":"民生南街二段２７７巷９號","OBJECTID":238114},"geometry":{"x":176124.86000000127,"y":2539989.2500000019}},{"attributes":{"ID":238119,"DIS_CODE":0,"TOWNNAME":"永康區","LI":"龍潭里","LIN":"14鄰","STREET":"龍埔街","SECT":" ","MAREA":" ","LANE":" ","ALLEY":" ","HOUSE_NO":"１３８號","E_COORD97":174461.5,"N_COORD97":2548269.3900000001,"ADDRESS":"龍埔街１３８號","OBJECTID":238115},"geometry":{"x":174461.5,"y":2548269.3900000006}},{"attributes":{"ID":238120,"DIS_CODE":0,"TOWNNAME":"永康區","LI":"龍潭里","LIN":"14鄰","STREET":"龍埔街","SECT":" ","MAREA":" ","LANE":" ","ALLEY":" ","HOUSE_NO":"１４０號","E_COORD97":174458.5,"N_COORD97":2548269.6499999999,"ADDRESS":"龍埔街１４０號","OBJECTID":238116},"geometry":{"x":174458.50000000186,"y":2548269.6500000022}},{"attributes":{"ID":238121,"DIS_CODE":0,"TOWNNAME":"永康區","LI":"龍潭里","LIN":"14鄰","STREET":"龍埔街","SECT":" ","MAREA":" ","LANE":" ","ALLEY":" ","HOUSE_NO":"１４２號","E_COORD97":174455.64000000001,"N_COORD97":2548270.1800000002,"ADDRESS":"龍埔街１４２號","OBJECTID":238117},"geometry":{"x":174455.6400000006,"y":2548270.1799999997}},{"attributes":{"ID":238122,"DIS_CODE":0,"TOWNNAME":"歸仁區","LI":"南興里","LIN":"19鄰","STREET":"南興一街","SECT":" ","MAREA":" ","LANE":" ","ALLEY":" ","HOUSE_NO":"２８號","E_COORD97":175701.29000000001,"N_COORD97":2541332.25,"ADDRESS":"南興一街２８號","OBJECTID":238118},"geometry":{"x":175701.29000000097,"y":2541332.2500000019}},{"attributes":{"ID":238123,"DIS_CODE":0,"TOWNNAME":"永康區","LI":"龍潭里","LIN":"14鄰","STREET":"龍埔街","SECT":" ","MAREA":" ","LANE":" ","ALLEY":" ","HOUSE_NO":"１４６號","E_COORD97":174452.17999999999,"N_COORD97":2548270.7000000002,"ADDRESS":"龍埔街１４６號","OBJECTID":238119},"geometry":{"x":174452.18000000063,"y":2548270.7000000011}},{"attributes":{"ID":238124,"DIS_CODE":0,"TOWNNAME":"永康區","LI":"北灣里","LIN":"16鄰","STREET":"文賢街","SECT":" ","MAREA":" ","LANE":"３６０巷","ALLEY":" ","HOUSE_NO":"３２號","E_COORD97":174873.85999999999,"N_COORD97":2545872.5099999998,"ADDRESS":"文賢街３６０巷３２號","OBJECTID":238120},"geometry":{"x":174873.86000000127,"y":2545872.5100000016}},{"attributes":{"ID":238125,"DIS_CODE":0,"TOWNNAME":"永康區","LI":"北灣里","LIN":"16鄰","STREET":"大同街","SECT":" ","MAREA":" ","LANE":"３８０巷","ALLEY":" ","HOUSE_NO":"３２號","E_COORD97":174922.23000000001,"N_COORD97":2545936.5699999998,"ADDRESS":"大同街３８０巷３２號","OBJECTID":238121},"geometry":{"x":174922.23000000138,"y":2545936.5700000022}},{"attributes":{"ID":238126,"DIS_CODE":0,"TOWNNAME":"永康區","LI":"北灣里","LIN":"16鄰","STREET":"文賢街","SECT":" ","MAREA":" ","LANE":"３６０巷","ALLEY":" ","HOUSE_NO":"３６號","E_COORD97":174861.37,"N_COORD97":2545877,"ADDRESS":"文賢街３６０巷３６號","OBJECTID":238122},"geometry":{"x":174861.37000000104,"y":2545877.0000000019}},{"attributes":{"ID":238127,"DIS_CODE":0,"TOWNNAME":"永康區","LI":"北灣里","LIN":"16鄰","STREET":"文賢街","SECT":" ","MAREA":" ","LANE":"３６０巷","ALLEY":" ","HOUSE_NO":"５８號","E_COORD97":174819.85000000001,"N_COORD97":2545920.8599999999,"ADDRESS":"文賢街３６０巷５８號","OBJECTID":238123},"geometry":{"x":174819.84999999963,"y":2545920.8600000013}},{"attributes":{"ID":238128,"DIS_CODE":0,"TOWNNAME":"永康區","LI":"王行里","LIN":"16鄰","STREET":"中山北路","SECT":" ","MAREA":" ","LANE":"８８５巷","ALLEY":" ","HOUSE_NO":"５號","E_COORD97":176221.79999999999,"N_COORD97":2548186.4900000002,"ADDRESS":"中山北路８８５巷５號","OBJECTID":238124},"geometry":{"x":176221.79999999981,"y":2548186.4900000002}},{"attributes":{"ID":238129,"DIS_CODE":0,"TOWNNAME":"永康區","LI":"王行里","LIN":"16鄰","STREET":"中山北路","SECT":" ","MAREA":" ","LANE":"８８５巷","ALLEY":" ","HOUSE_NO":"１號","E_COORD97":176251.09,"N_COORD97":2548104.5,"ADDRESS":"中山北路８８５巷１號","OBJECTID":238125},"geometry":{"x":176251.09000000171,"y":2548104.5000000019}},{"attributes":{"ID":238130,"DIS_CODE":0,"TOWNNAME":"永康區","LI":"王行里","LIN":"16鄰","STREET":"中山北路","SECT":" ","MAREA":" ","LANE":"８８５巷","ALLEY":" ","HOUSE_NO":"４號","E_COORD97":176237.97,"N_COORD97":2548159.7999999998,"ADDRESS":"中山北路８８５巷４號","OBJECTID":238126},"geometry":{"x":176237.96999999974,"y":2548159.8000000026}},{"attributes":{"ID":238131,"DIS_CODE":0,"TOWNNAME":"永康區","LI":"王行里","LIN":"16鄰","STREET":"王行路","SECT":" ","MAREA":" ","LANE":"６８巷","ALLEY":" ","HOUSE_NO":"３２號","E_COORD97":175790.69,"N_COORD97":2548060.71,"ADDRESS":"王行路６８巷３２號","OBJECTID":238127},"geometry":{"x":175790.69000000134,"y":2548060.7100000009}},{"attributes":{"ID":238132,"DIS_CODE":0,"TOWNNAME":"歸仁區","LI":"新厝里","LIN":"13鄰","STREET":"中正南路","SECT":"一段","MAREA":" ","LANE":"８５巷","ALLEY":" ","HOUSE_NO":"６號","E_COORD97":177592.89999999999,"N_COORD97":2540512.5899999999,"ADDRESS":"中正南路一段８５巷６號","OBJECTID":238128},"geometry":{"x":177592.9000000013,"y":2540512.5900000017}},{"attributes":{"ID":238133,"DIS_CODE":0,"TOWNNAME":"歸仁區","LI":"歸南里","LIN":"13鄰","STREET":"民生南街","SECT":"二段","MAREA":" ","LANE":"２７７巷","ALLEY":" ","HOUSE_NO":"３號","E_COORD97":176110.45999999999,"N_COORD97":2539985.25,"ADDRESS":"民生南街二段２７７巷３號","OBJECTID":238129},"geometry":{"x":176110.46000000089,"y":2539985.2500000019}},{"attributes":{"ID":238134,"DIS_CODE":0,"TOWNNAME":"歸仁區","LI":"媽廟里","LIN":"13鄰","STREET":"媽廟二街","SECT":" ","MAREA":" ","LANE":"１０巷","ALLEY":" ","HOUSE_NO":"１號","E_COORD97":177612.03,"N_COORD97":2543689.7200000002,"ADDRESS":"媽廟二街１０巷１號","OBJECTID":238130},"geometry":{"x":177612.03000000119,"y":2543689.7200000007}},{"attributes":{"ID":238135,"DIS_CODE":0,"TOWNNAME":"歸仁區","LI":"歸南里","LIN":"13鄰","STREET":"民生南街","SECT":"二段","MAREA":" ","LANE":"２７７巷","ALLEY":" ","HOUSE_NO":"７號","E_COORD97":176119.76000000001,"N_COORD97":2539988.25,"ADDRESS":"民生南街二段２７７巷７號","OBJECTID":238131},"geometry":{"x":176119.76000000071,"y":2539988.2500000037}},{"attributes":{"ID":238136,"DIS_CODE":0,"TOWNNAME":"歸仁區","LI":"媽廟里","LIN":"13鄰","STREET":"中正北路","SECT":"三段","MAREA":" ","LANE":"５０巷","ALLEY":" ","HOUSE_NO":"１０１號","E_COORD97":177898.60999999999,"N_COORD97":2543583.7200000002,"ADDRESS":"中正北路三段５０巷１０１號","OBJECTID":238132},"geometry":{"x":177898.61000000034,"y":2543583.7200000025}},{"attributes":{"ID":238137,"DIS_CODE":0,"TOWNNAME":"歸仁區","LI":"看西里","LIN":"13鄰","STREET":"成功六街","SECT":" ","MAREA":" ","LANE":"１３巷","ALLEY":" ","HOUSE_NO":"１４號","E_COORD97":178373.66,"N_COORD97":2540137.1099999999,"ADDRESS":"成功六街１３巷１４號","OBJECTID":238133},"geometry":{"x":178373.66000000108,"y":2540137.1099999994}},{"attributes":{"ID":238138,"DIS_CODE":0,"TOWNNAME":"歸仁區","LI":"南興里","LIN":"24鄰","STREET":"文化二十街","SECT":" ","MAREA":" ","LANE":" ","ALLEY":" ","HOUSE_NO":"３４號","E_COORD97":175498.29000000001,"N_COORD97":2541281.3300000001,"ADDRESS":"文化二十街３４號","OBJECTID":238134},"geometry":{"x":175498.29000000004,"y":2541281.3300000001}},{"attributes":{"ID":238139,"DIS_CODE":0,"TOWNNAME":"永康區","LI":"東橋里","LIN":"14鄰","STREET":"東橋三路","SECT":" ","MAREA":" ","LANE":" ","ALLEY":" ","HOUSE_NO":"１０９號","E_COORD97":171520.95000000001,"N_COORD97":2546695.3999999999,"ADDRESS":"東橋三路１０９號","OBJECTID":238135},"geometry":{"x":171520.95000000019,"y":2546695.4000000004}},{"attributes":{"ID":238140,"DIS_CODE":0,"TOWNNAME":"永康區","LI":"東橋里","LIN":"14鄰","STREET":"東橋三路","SECT":" ","MAREA":" ","LANE":" ","ALLEY":" ","HOUSE_NO":"１１１號","E_COORD97":171518.75,"N_COORD97":2546700.8300000001,"ADDRESS":"東橋三路１１１號","OBJECTID":238136},"geometry":{"x":171518.75,"y":2546700.8300000019}},{"attributes":{"ID":238141,"DIS_CODE":0,"TOWNNAME":"永康區","LI":"東橋里","LIN":"14鄰","STREET":"東橋三路","SECT":" ","MAREA":" ","LANE":" ","ALLEY":" ","HOUSE_NO":"１１３號","E_COORD97":171516.17999999999,"N_COORD97":2546705.25,"ADDRESS":"東橋三路１１３號","OBJECTID":238137},"geometry":{"x":171516.18000000063,"y":2546705.2500000019}},{"attributes":{"ID":238142,"DIS_CODE":0,"TOWNNAME":"永康區","LI":"東橋里","LIN":"14鄰","STREET":"東橋三路","SECT":" ","MAREA":" ","LANE":" ","ALLEY":" ","HOUSE_NO":"１１７號","E_COORD97":171510.45000000001,"N_COORD97":2546715.0600000001,"ADDRESS":"東橋三路１１７號","OBJECTID":238138},"geometry":{"x":171510.45000000019,"y":2546715.0600000005}},{"attributes":{"ID":238143,"DIS_CODE":0,"TOWNNAME":"永康區","LI":"東橋里","LIN":"14鄰","STREET":"東橋三路","SECT":" ","MAREA":" ","LANE":" ","ALLEY":" ","HOUSE_NO":"１１９號","E_COORD97":171507.70999999999,"N_COORD97":2546719.7599999998,"ADDRESS":"東橋三路１１９號","OBJECTID":238139},"geometry":{"x":171507.71000000089,"y":2546719.7599999998}},{"attributes":{"ID":238144,"DIS_CODE":0,"TOWNNAME":"永康區","LI":"東橋里","LIN":"14鄰","STREET":"東橋三路","SECT":" ","MAREA":" ","LANE":" ","ALLEY":" ","HOUSE_NO":"１２１號","E_COORD97":171504.98999999999,"N_COORD97":2546724.4300000002,"ADDRESS":"東橋三路１２１號","OBJECTID":238140},"geometry":{"x":171504.99000000022,"y":2546724.4300000016}},{"attributes":{"ID":238145,"DIS_CODE":0,"TOWNNAME":"永康區","LI":"東橋里","LIN":"14鄰","STREET":"東橋三路","SECT":" ","MAREA":" ","LANE":" ","ALLEY":" ","HOUSE_NO":"１２３號","E_COORD97":171502.26999999999,"N_COORD97":2546729.0899999999,"ADDRESS":"東橋三路１２３號","OBJECTID":238141},"geometry":{"x":171502.26999999955,"y":2546729.0900000036}},{"attributes":{"ID":238146,"DIS_CODE":0,"TOWNNAME":"永康區","LI":"東橋里","LIN":"14鄰","STREET":"東橋三路","SECT":" ","MAREA":" ","LANE":" ","ALLEY":" ","HOUSE_NO":"１２５號","E_COORD97":171499.54999999999,"N_COORD97":2546733.7599999998,"ADDRESS":"東橋三路１２５號","OBJECTID":238142},"geometry":{"x":171499.54999999981,"y":2546733.7599999998}},{"attributes":{"ID":238147,"DIS_CODE":0,"TOWNNAME":"永康區","LI":"東橋里","LIN":"14鄰","STREET":"東橋三路","SECT":" ","MAREA":" ","LANE":" ","ALLEY":" ","HOUSE_NO":"１２７號","E_COORD97":171496.79999999999,"N_COORD97":2546738.4700000002,"ADDRESS":"東橋三路１２７號","OBJECTID":238143},"geometry":{"x":171496.80000000075,"y":2546738.4700000025}},{"attributes":{"ID":238148,"DIS_CODE":0,"TOWNNAME":"永康區","LI":"北灣里","LIN":"16鄰","STREET":"文賢街","SECT":" ","MAREA":" ","LANE":"３６０巷","ALLEY":" ","HOUSE_NO":"２８號","E_COORD97":174926.85000000001,"N_COORD97":2545900.8599999999,"ADDRESS":"文賢街３６０巷２８號","OBJECTID":238144},"geometry":{"x":174926.85000000149,"y":2545900.8600000013}},{"attributes":{"ID":238149,"DIS_CODE":0,"TOWNNAME":"東區","LI":"崇德里","LIN":"16鄰","STREET":"崇明十三街","SECT":" ","MAREA":" ","LANE":"１０巷","ALLEY":" ","HOUSE_NO":"７號","E_COORD97":170516.12,"N_COORD97":2541579.98,"ADDRESS":"崇明十三街１０巷７號","OBJECTID":238145},"geometry":{"x":170516.12000000011,"y":2541579.9800000004}},{"attributes":{"ID":238150,"DIS_CODE":0,"TOWNNAME":"仁德區","LI":"成功里","LIN":"19鄰","STREET":"成功一街","SECT":" ","MAREA":" ","LANE":"２０１巷","ALLEY":" ","HOUSE_NO":"５號","E_COORD97":170582.63,"N_COORD97":2539745.7599999998,"ADDRESS":"成功一街２０１巷５號","OBJECTID":238146},"geometry":{"x":170582.63000000082,"y":2539745.7599999998}},{"attributes":{"ID":238151,"DIS_CODE":0,"TOWNNAME":"歸仁區","LI":"崙頂里","LIN":"13鄰","STREET":"成功路","SECT":"二段","MAREA":" ","LANE":"１６８巷","ALLEY":" ","HOUSE_NO":"９號","E_COORD97":177938.34,"N_COORD97":2539746.25,"ADDRESS":"成功路二段１６８巷９號","OBJECTID":238147},"geometry":{"x":177938.34000000078,"y":2539746.25}},{"attributes":{"ID":238152,"DIS_CODE":0,"TOWNNAME":"歸仁區","LI":"新厝里","LIN":"13鄰","STREET":"大成路","SECT":" ","MAREA":" ","LANE":"３１巷","ALLEY":" ","HOUSE_NO":"１號","E_COORD97":177603.26999999999,"N_COORD97":2540464.5899999999,"ADDRESS":"大成路３１巷１號","OBJECTID":238148},"geometry":{"x":177603.26999999955,"y":2540464.5900000017}},{"attributes":{"ID":238153,"DIS_CODE":0,"TOWNNAME":"歸仁區","LI":"南興里","LIN":"41鄰","STREET":"中山十一街","SECT":" ","MAREA":" ","LANE":" ","ALLEY":" ","HOUSE_NO":"２９號","E_COORD97":175811.20999999999,"N_COORD97":2540916.25,"ADDRESS":"中山十一街２９號","OBJECTID":238149},"geometry":{"x":175811.20999999996,"y":2540916.25}},{"attributes":{"ID":238154,"DIS_CODE":0,"TOWNNAME":"仁德區","LI":"後壁里","LIN":"14鄰","STREET":"德善路","SECT":" ","MAREA":" ","LANE":" ","ALLEY":" ","HOUSE_NO":"１９６之３號","E_COORD97":173712.04000000001,"N_COORD97":2538753.7999999998,"ADDRESS":"德善路１９６之３號","OBJECTID":238150},"geometry":{"x":173712.04000000004,"y":2538753.8000000007}},{"attributes":{"ID":238155,"DIS_CODE":0,"TOWNNAME":"仁德區","LI":"一甲里","LIN":"14鄰","STREET":"忠義路","SECT":" ","MAREA":" ","LANE":" ","ALLEY":" ","HOUSE_NO":"２４３號之２","E_COORD97":173893.23999999999,"N_COORD97":2541835.04,"ADDRESS":"忠義路２４３號之２","OBJECTID":238151},"geometry":{"x":173893.24000000115,"y":2541835.0399999991}},{"attributes":{"ID":238156,"DIS_CODE":0,"TOWNNAME":"歸仁區","LI":"大廟里","LIN":"13鄰","STREET":"大廟六街","SECT":" ","MAREA":" ","LANE":"１１０巷","ALLEY":" ","HOUSE_NO":"１６號","E_COORD97":176204.57000000001,"N_COORD97":2544227.25,"ADDRESS":"大廟六街１１０巷１６號","OBJECTID":238152},"geometry":{"x":176204.57000000123,"y":2544227.2500000019}},{"attributes":{"ID":238157,"DIS_CODE":0,"TOWNNAME":"後壁區","LI":"竹新里","LIN":"16鄰","STREET":" ","SECT":" ","MAREA":"新厝","LANE":" ","ALLEY":" ","HOUSE_NO":"３７號之１","E_COORD97":179233.16,"N_COORD97":2582299.1800000002,"ADDRESS":"新厝３７號之１","OBJECTID":238153},"geometry":{"x":179233.16000000108,"y":2582299.1799999997}},{"attributes":{"ID":238158,"DIS_CODE":0,"TOWNNAME":"後壁區","LI":"竹新里","LIN":"16鄰","STREET":" ","SECT":" ","MAREA":"新厝","LANE":" ","ALLEY":" ","HOUSE_NO":"３９號","E_COORD97":179264.26999999999,"N_COORD97":2582280.7599999998,"ADDRESS":"新厝３９號","OBJECTID":238154},"geometry":{"x":179264.27000000048,"y":2582280.7600000016}},{"attributes":{"ID":238159,"DIS_CODE":0,"TOWNNAME":"後壁區","LI":"竹新里","LIN":"16鄰","STREET":" ","SECT":" ","MAREA":"新厝","LANE":" ","ALLEY":" ","HOUSE_NO":"４０號","E_COORD97":179275.73999999999,"N_COORD97":2582271.9700000002,"ADDRESS":"新厝４０號","OBJECTID":238155},"geometry":{"x":179275.74000000022,"y":2582271.9700000044}},{"attributes":{"ID":238160,"DIS_CODE":0,"TOWNNAME":"後壁區","LI":"竹新里","LIN":"16鄰","STREET":" ","SECT":" ","MAREA":"新厝","LANE":" ","ALLEY":" ","HOUSE_NO":"４２號之１","E_COORD97":179310.88,"N_COORD97":2582293.7000000002,"ADDRESS":"新厝４２號之１","OBJECTID":238156},"geometry":{"x":179310.88000000082,"y":2582293.7000000011}},{"attributes":{"ID":238161,"DIS_CODE":0,"TOWNNAME":"後壁區","LI":"竹新里","LIN":"16鄰","STREET":" ","SECT":" ","MAREA":"新厝","LANE":" ","ALLEY":" ","HOUSE_NO":"４２號","E_COORD97":179289.76000000001,"N_COORD97":2582287.9500000002,"ADDRESS":"新厝４２號","OBJECTID":238157},"geometry":{"x":179289.76000000071,"y":2582287.9500000011}},{"attributes":{"ID":238162,"DIS_CODE":0,"TOWNNAME":"後壁區","LI":"竹新里","LIN":"16鄰","STREET":" ","SECT":" ","MAREA":"新厝","LANE":" ","ALLEY":" ","HOUSE_NO":"４４號之２","E_COORD97":179312.66,"N_COORD97":2582303.6200000001,"ADDRESS":"新厝４４號之２","OBJECTID":238158},"geometry":{"x":179312.66000000108,"y":2582303.620000001}},{"attributes":{"ID":238163,"DIS_CODE":0,"TOWNNAME":"後壁區","LI":"竹新里","LIN":"16鄰","STREET":" ","SECT":" ","MAREA":"新厝","LANE":" ","ALLEY":" ","HOUSE_NO":"４４號","E_COORD97":179293.59,"N_COORD97":2582323.5299999998,"ADDRESS":"新厝４４號","OBJECTID":238159},"geometry":{"x":179293.58999999985,"y":2582323.5299999993}},{"attributes":{"ID":238164,"DIS_CODE":0,"TOWNNAME":"後壁區","LI":"竹新里","LIN":"16鄰","STREET":" ","SECT":" ","MAREA":"新厝","LANE":" ","ALLEY":" ","HOUSE_NO":"４６號之１０","E_COORD97":179334.87,"N_COORD97":2582283.8999999999,"ADDRESS":"新厝４６號之１０","OBJECTID":238160},"geometry":{"x":179334.87000000197,"y":2582283.9000000022}},{"attributes":{"ID":238165,"DIS_CODE":0,"TOWNNAME":"後壁區","LI":"竹新里","LIN":"16鄰","STREET":" ","SECT":" ","MAREA":"新厝","LANE":" ","ALLEY":" ","HOUSE_NO":"４６號之１１","E_COORD97":179333.54999999999,"N_COORD97":2582280.3300000001,"ADDRESS":"新厝４６號之１１","OBJECTID":238161},"geometry":{"x":179333.55000000075,"y":2582280.3300000019}},{"attributes":{"ID":238166,"DIS_CODE":0,"TOWNNAME":"後壁區","LI":"竹新里","LIN":"16鄰","STREET":" ","SECT":" ","MAREA":"新厝","LANE":" ","ALLEY":" ","HOUSE_NO":"４６號之１２","E_COORD97":179332.34,"N_COORD97":2582276.1600000001,"ADDRESS":"新厝４６號之１２","OBJECTID":238162},"geometry":{"x":179332.33999999985,"y":2582276.1600000001}},{"attributes":{"ID":238167,"DIS_CODE":0,"TOWNNAME":"後壁區","LI":"竹新里","LIN":"16鄰","STREET":" ","SECT":" ","MAREA":"新厝","LANE":" ","ALLEY":" ","HOUSE_NO":"４６號之１３","E_COORD97":179331.06,"N_COORD97":2582272.5,"ADDRESS":"新厝４６號之１３","OBJECTID":238163},"geometry":{"x":179331.05999999959,"y":2582272.5000000019}},{"attributes":{"ID":238168,"DIS_CODE":0,"TOWNNAME":"後壁區","LI":"竹新里","LIN":"16鄰","STREET":" ","SECT":" ","MAREA":"新厝","LANE":" ","ALLEY":" ","HOUSE_NO":"４６號之１７","E_COORD97":179312.01000000001,"N_COORD97":2582205.7000000002,"ADDRESS":"新厝４６號之１７","OBJECTID":238164},"geometry":{"x":179312.01000000071,"y":2582205.7000000011}},{"attributes":{"ID":238169,"DIS_CODE":0,"TOWNNAME":"後壁區","LI":"竹新里","LIN":"16鄰","STREET":" ","SECT":" ","MAREA":"新厝","LANE":" ","ALLEY":" ","HOUSE_NO":"４６號之１８","E_COORD97":179313.5,"N_COORD97":2582211.71,"ADDRESS":"新厝４６號之１８","OBJECTID":238165},"geometry":{"x":179313.50000000186,"y":2582211.7100000009}},{"attributes":{"ID":238170,"DIS_CODE":0,"TOWNNAME":"後壁區","LI":"竹新里","LIN":"16鄰","STREET":" ","SECT":" ","MAREA":"新厝","LANE":" ","ALLEY":" ","HOUSE_NO":"４６號之２０","E_COORD97":179315.32000000001,"N_COORD97":2582223.77,"ADDRESS":"新厝４６號之２０","OBJECTID":238166},"geometry":{"x":179315.32000000123,"y":2582223.7699999996}},{"attributes":{"ID":238171,"DIS_CODE":0,"TOWNNAME":"後壁區","LI":"竹新里","LIN":"16鄰","STREET":" ","SECT":" ","MAREA":"新厝","LANE":" ","ALLEY":" ","HOUSE_NO":"４６號之２１","E_COORD97":179316.48000000001,"N_COORD97":2582228.1899999999,"ADDRESS":"新厝４６號之２１","OBJECTID":238167},"geometry":{"x":179316.48000000138,"y":2582228.1899999995}},{"attributes":{"ID":238172,"DIS_CODE":0,"TOWNNAME":"歸仁區","LI":"看東里","LIN":"13鄰","STREET":"忠孝南路","SECT":" ","MAREA":" ","LANE":"２５巷","ALLEY":" ","HOUSE_NO":"６７號","E_COORD97":178582.89999999999,"N_COORD97":2540461.48,"ADDRESS":"忠孝南路２５巷６７號","OBJECTID":238168},"geometry":{"x":178582.9000000013,"y":2540461.4800000042}},{"attributes":{"ID":238173,"DIS_CODE":0,"TOWNNAME":"新營區","LI":"新北里","LIN":"13鄰","STREET":"周武街","SECT":" ","MAREA":" ","LANE":"７９巷","ALLEY":" ","HOUSE_NO":"３４號","E_COORD97":179304.42000000001,"N_COORD97":2579007.9199999999,"ADDRESS":"周武街７９巷３４號","OBJECTID":238169},"geometry":{"x":179304.42000000086,"y":2579007.9200000018}},{"attributes":{"ID":238174,"DIS_CODE":0,"TOWNNAME":"新營區","LI":"新北里","LIN":"13鄰","STREET":"周武街","SECT":" ","MAREA":" ","LANE":"７９巷","ALLEY":" ","HOUSE_NO":"１號","E_COORD97":179353.01000000001,"N_COORD97":2578968.9300000002,"ADDRESS":"周武街７９巷１號","OBJECTID":238170},"geometry":{"x":179353.00999999978,"y":2578968.9300000034}},{"attributes":{"ID":238175,"DIS_CODE":0,"TOWNNAME":"後壁區","LI":"竹新里","LIN":"16鄰","STREET":" ","SECT":" ","MAREA":"新厝","LANE":" ","ALLEY":" ","HOUSE_NO":"４６號之４０","E_COORD97":179372.20000000001,"N_COORD97":2582267.6499999999,"ADDRESS":"新厝４６號之４０","OBJECTID":238171},"geometry":{"x":179372.20000000112,"y":2582267.6500000022}},{"attributes":{"ID":238176,"DIS_CODE":0,"TOWNNAME":"新營區","LI":"王公里","LIN":"13鄰","STREET":"義和街","SECT":" ","MAREA":" ","LANE":"８巷","ALLEY":" ","HOUSE_NO":"４０號","E_COORD97":180454.98999999999,"N_COORD97":2579204.0299999998,"ADDRESS":"義和街８巷４０號","OBJECTID":238172},"geometry":{"x":180454.99000000115,"y":2579204.0299999993}},{"attributes":{"ID":238177,"DIS_CODE":0,"TOWNNAME":"後壁區","LI":"竹新里","LIN":"16鄰","STREET":" ","SECT":" ","MAREA":"新厝","LANE":" ","ALLEY":" ","HOUSE_NO":"４６號之４","E_COORD97":179343.98999999999,"N_COORD97":2582310.7999999998,"ADDRESS":"新厝４６號之４","OBJECTID":238173},"geometry":{"x":179343.99000000022,"y":2582310.8000000045}},{"attributes":{"ID":238178,"DIS_CODE":0,"TOWNNAME":"後壁區","LI":"竹新里","LIN":"16鄰","STREET":" ","SECT":" ","MAREA":"新厝","LANE":" ","ALLEY":" ","HOUSE_NO":"４６號之６","E_COORD97":179340.13,"N_COORD97":2582299.9399999999,"ADDRESS":"新厝４６號之６","OBJECTID":238174},"geometry":{"x":179340.13000000082,"y":2582299.9399999995}},{"attributes":{"ID":238179,"DIS_CODE":0,"TOWNNAME":"後壁區","LI":"竹新里","LIN":"16鄰","STREET":" ","SECT":" ","MAREA":"新厝","LANE":" ","ALLEY":" ","HOUSE_NO":"４６號之７","E_COORD97":179339.13,"N_COORD97":2582295.9900000002,"ADDRESS":"新厝４６號之７","OBJECTID":238175},"geometry":{"x":179339.12999999989,"y":2582295.9900000021}},{"attributes":{"ID":238180,"DIS_CODE":0,"TOWNNAME":"後壁區","LI":"竹新里","LIN":"16鄰","STREET":" ","SECT":" ","MAREA":"新厝","LANE":" ","ALLEY":" ","HOUSE_NO":"４６號之８","E_COORD97":179337.67000000001,"N_COORD97":2582292.2599999998,"ADDRESS":"新厝４６號之８","OBJECTID":238176},"geometry":{"x":179337.67000000179,"y":2582292.2599999998}},{"attributes":{"ID":238181,"DIS_CODE":0,"TOWNNAME":"後壁區","LI":"竹新里","LIN":"16鄰","STREET":" ","SECT":" ","MAREA":"新厝","LANE":" ","ALLEY":" ","HOUSE_NO":"４６號之９","E_COORD97":179337.10999999999,"N_COORD97":2582288.5499999998,"ADDRESS":"新厝４６號之９","OBJECTID":238177},"geometry":{"x":179337.11000000127,"y":2582288.5500000045}},{"attributes":{"ID":238182,"DIS_CODE":0,"TOWNNAME":"後壁區","LI":"竹新里","LIN":"16鄰","STREET":" ","SECT":" ","MAREA":"新厝","LANE":" ","ALLEY":" ","HOUSE_NO":"４６號","E_COORD97":179270.92000000001,"N_COORD97":2582331.4399999999,"ADDRESS":"新厝４６號","OBJECTID":238178},"geometry":{"x":179270.91999999993,"y":2582331.4399999995}},{"attributes":{"ID":238183,"DIS_CODE":0,"TOWNNAME":"後壁區","LI":"竹新里","LIN":"16鄰","STREET":" ","SECT":" ","MAREA":"新厝","LANE":" ","ALLEY":" ","HOUSE_NO":"４７號之１","E_COORD97":179256.57999999999,"N_COORD97":2582361.75,"ADDRESS":"新厝４７號之１","OBJECTID":238179},"geometry":{"x":179256.58000000007,"y":2582361.7500000019}},{"attributes":{"ID":238184,"DIS_CODE":0,"TOWNNAME":"後壁區","LI":"竹新里","LIN":"16鄰","STREET":" ","SECT":" ","MAREA":"新厝","LANE":" ","ALLEY":" ","HOUSE_NO":"４７號之９","E_COORD97":179244.76000000001,"N_COORD97":2582348.1099999999,"ADDRESS":"新厝４７號之９","OBJECTID":238180},"geometry":{"x":179244.75999999978,"y":2582348.1100000013}},{"attributes":{"ID":238185,"DIS_CODE":0,"TOWNNAME":"後壁區","LI":"竹新里","LIN":"16鄰","STREET":" ","SECT":" ","MAREA":"新厝","LANE":" ","ALLEY":" ","HOUSE_NO":"４７號","E_COORD97":179303.01000000001,"N_COORD97":2582359.7999999998,"ADDRESS":"新厝４７號","OBJECTID":238181},"geometry":{"x":179303.01000000164,"y":2582359.8000000007}},{"attributes":{"ID":238186,"DIS_CODE":0,"TOWNNAME":"後壁區","LI":"竹新里","LIN":"16鄰","STREET":" ","SECT":" ","MAREA":"新厝","LANE":" ","ALLEY":" ","HOUSE_NO":"４８號","E_COORD97":179315.19,"N_COORD97":2582339.7000000002,"ADDRESS":"新厝４８號","OBJECTID":238182},"geometry":{"x":179315.19000000041,"y":2582339.6999999993}},{"attributes":{"ID":238187,"DIS_CODE":0,"TOWNNAME":"後壁區","LI":"竹新里","LIN":"16鄰","STREET":" ","SECT":" ","MAREA":"新厝","LANE":" ","ALLEY":" ","HOUSE_NO":"４９號之１","E_COORD97":179325.72,"N_COORD97":2582362.48,"ADDRESS":"新厝４９號之１","OBJECTID":238183},"geometry":{"x":179325.72000000067,"y":2582362.4800000004}},{"attributes":{"ID":238188,"DIS_CODE":0,"TOWNNAME":"後壁區","LI":"竹新里","LIN":"16鄰","STREET":" ","SECT":" ","MAREA":"新厝","LANE":" ","ALLEY":" ","HOUSE_NO":"４９號之２","E_COORD97":179372.88,"N_COORD97":2582348.7400000002,"ADDRESS":"新厝４９號之２","OBJECTID":238184},"geometry":{"x":179372.87999999989,"y":2582348.7400000021}},{"attributes":{"ID":238189,"DIS_CODE":0,"TOWNNAME":"佳里區","LI":"子龍里","LIN":"16鄰","STREET":" ","SECT":" ","MAREA":"子良廟","LANE":" ","ALLEY":" ","HOUSE_NO":"１６６號之１","E_COORD97":169095.66,"N_COORD97":2563734.2799999998,"ADDRESS":"子良廟１６６號之１","OBJECTID":238185},"geometry":{"x":169095.66000000201,"y":2563734.2800000012}},{"attributes":{"ID":238190,"DIS_CODE":0,"TOWNNAME":"佳里區","LI":"子龍里","LIN":"16鄰","STREET":" ","SECT":" ","MAREA":"子良廟","LANE":" ","ALLEY":" ","HOUSE_NO":"１６６號之２","E_COORD97":169095.82999999999,"N_COORD97":2563729.2000000002,"ADDRESS":"子良廟１６６號之２","OBJECTID":238186},"geometry":{"x":169095.83000000007,"y":2563729.1999999993}},{"attributes":{"ID":238191,"DIS_CODE":0,"TOWNNAME":"佳里區","LI":"子龍里","LIN":"16鄰","STREET":" ","SECT":" ","MAREA":"子良廟","LANE":" ","ALLEY":" ","HOUSE_NO":"１６６號","E_COORD97":169105.25,"N_COORD97":2563743.5499999998,"ADDRESS":"子良廟１６６號","OBJECTID":238187},"geometry":{"x":169105.25000000093,"y":2563743.5500000026}},{"attributes":{"ID":238192,"DIS_CODE":0,"TOWNNAME":"佳里區","LI":"子龍里","LIN":"16鄰","STREET":" ","SECT":" ","MAREA":"子良廟","LANE":" ","ALLEY":" ","HOUSE_NO":"１６７號之１","E_COORD97":169116.03,"N_COORD97":2563736.1200000001,"ADDRESS":"子良廟１６７號之１","OBJECTID":238188},"geometry":{"x":169116.03000000119,"y":2563736.1200000048}},{"attributes":{"ID":238193,"DIS_CODE":0,"TOWNNAME":"佳里區","LI":"子龍里","LIN":"16鄰","STREET":" ","SECT":" ","MAREA":"子良廟","LANE":" ","ALLEY":" ","HOUSE_NO":"１６７號之２","E_COORD97":169115.87,"N_COORD97":2563731.1600000001,"ADDRESS":"子良廟１６７號之２","OBJECTID":238189},"geometry":{"x":169115.87000000011,"y":2563731.1600000001}},{"attributes":{"ID":238194,"DIS_CODE":0,"TOWNNAME":"佳里區","LI":"子龍里","LIN":"16鄰","STREET":" ","SECT":" ","MAREA":"子良廟","LANE":" ","ALLEY":" ","HOUSE_NO":"１６７號之３","E_COORD97":169115.51000000001,"N_COORD97":2563726.1099999999,"ADDRESS":"子良廟１６７號之３","OBJECTID":238190},"geometry":{"x":169115.51000000071,"y":2563726.1099999994}},{"attributes":{"ID":238195,"DIS_CODE":0,"TOWNNAME":"永康區","LI":"北灣里","LIN":"16鄰","STREET":"文賢街","SECT":" ","MAREA":" ","LANE":"３６０巷","ALLEY":" ","HOUSE_NO":"５號","E_COORD97":174827.44,"N_COORD97":2545868.4700000002,"ADDRESS":"文賢街３６０巷５號","OBJECTID":238191},"geometry":{"x":174827.44000000134,"y":2545868.4700000007}},{"attributes":{"ID":238196,"DIS_CODE":0,"TOWNNAME":"永康區","LI":"北灣里","LIN":"16鄰","STREET":"文賢街","SECT":" ","MAREA":" ","LANE":"３６０巷","ALLEY":" ","HOUSE_NO":"６０號","E_COORD97":174794.92000000001,"N_COORD97":2545925.9199999999,"ADDRESS":"文賢街３６０巷６０號","OBJECTID":238192},"geometry":{"x":174794.92000000086,"y":2545925.9199999999}},{"attributes":{"ID":238197,"DIS_CODE":0,"TOWNNAME":"永康區","LI":"北灣里","LIN":"16鄰","STREET":"文賢街","SECT":" ","MAREA":" ","LANE":"３６０巷","ALLEY":" ","HOUSE_NO":"６２號","E_COORD97":174787.59,"N_COORD97":2545931.52,"ADDRESS":"文賢街３６０巷６２號","OBJECTID":238193},"geometry":{"x":174787.58999999985,"y":2545931.5199999996}},{"attributes":{"ID":238198,"DIS_CODE":0,"TOWNNAME":"新營區","LI":"三仙里","LIN":"13鄰","STREET":"中華路","SECT":" ","MAREA":" ","LANE":"５２巷","ALLEY":" ","HOUSE_NO":"４號","E_COORD97":179609.38,"N_COORD97":2578230.1499999999,"ADDRESS":"中華路５２巷４號","OBJECTID":238194},"geometry":{"x":179609.38000000082,"y":2578230.1500000022}},{"attributes":{"ID":238199,"DIS_CODE":0,"TOWNNAME":"新營區","LI":"三仙里","LIN":"13鄰","STREET":"中華路","SECT":" ","MAREA":" ","LANE":"５２巷","ALLEY":" ","HOUSE_NO":"６號","E_COORD97":179588.85999999999,"N_COORD97":2578232.46,"ADDRESS":"中華路５２巷６號","OBJECTID":238195},"geometry":{"x":179588.86000000034,"y":2578232.4600000028}},{"attributes":{"ID":238200,"DIS_CODE":0,"TOWNNAME":"新營區","LI":"三仙里","LIN":"13鄰","STREET":"中華路","SECT":" ","MAREA":" ","LANE":"５２巷","ALLEY":" ","HOUSE_NO":"４號之２","E_COORD97":179603.45000000001,"N_COORD97":2578226.9100000001,"ADDRESS":"中華路５２巷４號之２","OBJECTID":238196},"geometry":{"x":179603.45000000019,"y":2578226.9099999983}},{"attributes":{"ID":238201,"DIS_CODE":0,"TOWNNAME":"新化區","LI":"協興里","LIN":"14鄰","STREET":"太平街","SECT":" ","MAREA":" ","LANE":" ","ALLEY":" ","HOUSE_NO":"１５８號之６","E_COORD97":178292.47,"N_COORD97":2548679.2599999998,"ADDRESS":"太平街１５８號之６","OBJECTID":238197},"geometry":{"x":178292.46999999974,"y":2548679.2599999998}},{"attributes":{"ID":238202,"DIS_CODE":0,"TOWNNAME":"歸仁區","LI":"南保里","LIN":"38鄰","STREET":"保興二街","SECT":" ","MAREA":" ","LANE":" ","ALLEY":" ","HOUSE_NO":"３７號","E_COORD97":176642.07000000001,"N_COORD97":2540994.25,"ADDRESS":"保興二街３７號","OBJECTID":238198},"geometry":{"x":176642.07000000123,"y":2540994.25}},{"attributes":{"ID":238203,"DIS_CODE":0,"TOWNNAME":"佳里區","LI":"忠仁里","LIN":"14鄰","STREET":"博愛東街","SECT":" ","MAREA":" ","LANE":" ","ALLEY":" ","HOUSE_NO":"６９號","E_COORD97":166208.82999999999,"N_COORD97":2562028.02,"ADDRESS":"博愛東街６９號","OBJECTID":238199},"geometry":{"x":166208.83000000007,"y":2562028.0200000014}},{"attributes":{"ID":238204,"DIS_CODE":0,"TOWNNAME":"仁德區","LI":"太子里","LIN":"24鄰","STREET":"長興五街","SECT":" ","MAREA":" ","LANE":"３６巷","ALLEY":" ","HOUSE_NO":"２４號","E_COORD97":173649.26000000001,"N_COORD97":2543666,"ADDRESS":"長興五街３６巷２４號","OBJECTID":238200},"geometry":{"x":173649.25999999978,"y":2543666.0000000019}}]}