{"displayFieldName":"TOWNNAME","fieldAliases":{"ID":"ID","DIS_CODE":"DIS_CODE","TOWNNAME":"TOWNNAME","LI":"LI","LIN":"LIN","STREET":"STREET","SECT":"SECT","MAREA":"MAREA","LANE":"LANE","ALLEY":"ALLEY","HOUSE_NO":"HOUSE_NO","E_COORD97":"E_COORD97","N_COORD97":"N_COORD97","ADDRESS":"ADDRESS","OBJECTID":"OBJECTID"},"geometryType":"esriGeometryPoint","spatialReference":{"wkid":102443,"latestWkid":3826},"fields":[{"name":"ID","type":"esriFieldTypeDouble","alias":"ID"},{"name":"DIS_CODE","type":"esriFieldTypeInteger","alias":"DIS_CODE"},{"name":"TOWNNAME","type":"esriFieldTypeString","alias":"TOWNNAME","length":8},{"name":"LI","type":"esriFieldTypeString","alias":"LI","length":8},{"name":"LIN","type":"esriFieldTypeString","alias":"LIN","length":12},{"name":"STREET","type":"esriFieldTypeString","alias":"STREET","length":20},{"name":"SECT","type":"esriFieldTypeString","alias":"SECT","length":8},{"name":"MAREA","type":"esriFieldTypeString","alias":"MAREA","length":12},{"name":"LANE","type":"esriFieldTypeString","alias":"LANE","length":10},{"name":"ALLEY","type":"esriFieldTypeString","alias":"ALLEY","length":10},{"name":"HOUSE_NO","type":"esriFieldTypeString","alias":"HOUSE_NO","length":20},{"name":"E_COORD97","type":"esriFieldTypeDouble","alias":"E_COORD97"},{"name":"N_COORD97","type":"esriFieldTypeDouble","alias":"N_COORD97"},{"name":"ADDRESS","type":"esriFieldTypeString","alias":"ADDRESS","length":50},{"name":"OBJECTID","type":"esriFieldTypeOID","alias":"OBJECTID"}],"features":[{"attributes":{"ID":58401,"DIS_CODE":0,"TOWNNAME":"南區","LI":"興農里","LIN":"1鄰","STREET":"灣裡路","SECT":" ","MAREA":" ","LANE":"２６３巷","ALLEY":"１２弄","HOUSE_NO":"９號","E_COORD97":166258.42000000001,"N_COORD97":2536359.1699999999,"ADDRESS":"灣裡路２６３巷１２弄９號","OBJECTID":58401},"geometry":{"x":166258.41999999993,"y":2536359.1699999999}},{"attributes":{"ID":58402,"DIS_CODE":0,"TOWNNAME":"新市區","LI":"大營里","LIN":"1鄰","STREET":" ","SECT":" ","MAREA":"大營","LANE":" ","ALLEY":" ","HOUSE_NO":"２１號","E_COORD97":179624.48000000001,"N_COORD97":2555711.25,"ADDRESS":"大營２１號","OBJECTID":58402},"geometry":{"x":179624.48000000138,"y":2555711.25}},{"attributes":{"ID":58403,"DIS_CODE":0,"TOWNNAME":"安定區","LI":"管寮里","LIN":"1鄰","STREET":" ","SECT":" ","MAREA":"管寮","LANE":" ","ALLEY":" ","HOUSE_NO":"５號","E_COORD97":169881.59,"N_COORD97":2556170.25,"ADDRESS":"管寮５號","OBJECTID":58403},"geometry":{"x":169881.58999999985,"y":2556170.2500000037}},{"attributes":{"ID":58404,"DIS_CODE":0,"TOWNNAME":"安定區","LI":"港南里","LIN":"1鄰","STREET":" ","SECT":" ","MAREA":"港口","LANE":" ","ALLEY":" ","HOUSE_NO":"２之１９號","E_COORD97":171103.04000000001,"N_COORD97":2554281.2999999998,"ADDRESS":"港口２之１９號","OBJECTID":58404},"geometry":{"x":171103.04000000004,"y":2554281.3000000007}},{"attributes":{"ID":58405,"DIS_CODE":0,"TOWNNAME":"南區","LI":"興農里","LIN":"1鄰","STREET":"灣裡路","SECT":" ","MAREA":" ","LANE":"２６３巷","ALLEY":"１２弄","HOUSE_NO":"１１號","E_COORD97":166270.70999999999,"N_COORD97":2536358.3900000001,"ADDRESS":"灣裡路２６３巷１２弄１１號","OBJECTID":58405},"geometry":{"x":166270.70999999996,"y":2536358.3900000006}},{"attributes":{"ID":58406,"DIS_CODE":0,"TOWNNAME":"南區","LI":"興農里","LIN":"1鄰","STREET":"灣裡路","SECT":" ","MAREA":" ","LANE":"２６３巷","ALLEY":"３４弄","HOUSE_NO":"７號","E_COORD97":166290.07000000001,"N_COORD97":2536381.4300000002,"ADDRESS":"灣裡路２６３巷３４弄７號","OBJECTID":58406},"geometry":{"x":166290.0700000003,"y":2536381.4299999997}},{"attributes":{"ID":58407,"DIS_CODE":0,"TOWNNAME":"南區","LI":"興農里","LIN":"1鄰","STREET":"灣裡路","SECT":" ","MAREA":" ","LANE":"２６３巷","ALLEY":"３４弄","HOUSE_NO":"８號","E_COORD97":166275.82999999999,"N_COORD97":2536391.9700000002,"ADDRESS":"灣裡路２６３巷３４弄８號","OBJECTID":58407},"geometry":{"x":166275.83000000101,"y":2536391.9700000007}},{"attributes":{"ID":58408,"DIS_CODE":0,"TOWNNAME":"南區","LI":"興農里","LIN":"1鄰","STREET":"灣裡路","SECT":" ","MAREA":" ","LANE":"２６３巷","ALLEY":"３４弄","HOUSE_NO":"９號","E_COORD97":166274.76999999999,"N_COORD97":2536382.1299999999,"ADDRESS":"灣裡路２６３巷３４弄９號","OBJECTID":58408},"geometry":{"x":166274.76999999955,"y":2536382.129999999}},{"attributes":{"ID":58409,"DIS_CODE":0,"TOWNNAME":"南區","LI":"興農里","LIN":"1鄰","STREET":"灣裡路","SECT":" ","MAREA":" ","LANE":"２６３巷","ALLEY":"３４弄","HOUSE_NO":"９號之１","E_COORD97":166265.29000000001,"N_COORD97":2536379.3300000001,"ADDRESS":"灣裡路２６３巷３４弄９號之１","OBJECTID":58409},"geometry":{"x":166265.2900000019,"y":2536379.3300000001}},{"attributes":{"ID":58410,"DIS_CODE":0,"TOWNNAME":"南區","LI":"興農里","LIN":"1鄰","STREET":"灣裡路","SECT":" ","MAREA":" ","LANE":"２６３巷","ALLEY":"３４弄","HOUSE_NO":"１１號","E_COORD97":166277.06,"N_COORD97":2536375.1099999999,"ADDRESS":"灣裡路２６３巷３４弄１１號","OBJECTID":58410},"geometry":{"x":166277.06000000052,"y":2536375.1100000013}},{"attributes":{"ID":58411,"DIS_CODE":0,"TOWNNAME":"南區","LI":"興農里","LIN":"1鄰","STREET":"灣裡路","SECT":" ","MAREA":" ","LANE":"２６３巷","ALLEY":"３４弄","HOUSE_NO":"１２號","E_COORD97":166236.54000000001,"N_COORD97":2536385.6299999999,"ADDRESS":"灣裡路２６３巷３４弄１２號","OBJECTID":58411},"geometry":{"x":166236.5400000019,"y":2536385.629999999}},{"attributes":{"ID":58412,"DIS_CODE":0,"TOWNNAME":"南區","LI":"興農里","LIN":"1鄰","STREET":"灣裡路","SECT":" ","MAREA":" ","LANE":"２６３巷","ALLEY":"３４弄","HOUSE_NO":"１７號","E_COORD97":166247.54999999999,"N_COORD97":2536373.5600000001,"ADDRESS":"灣裡路２６３巷３４弄１７號","OBJECTID":58412},"geometry":{"x":166247.54999999981,"y":2536373.5600000024}},{"attributes":{"ID":58413,"DIS_CODE":0,"TOWNNAME":"南區","LI":"興農里","LIN":"1鄰","STREET":"灣裡路","SECT":" ","MAREA":" ","LANE":"２６３巷","ALLEY":"３４弄","HOUSE_NO":"１９號","E_COORD97":166249.92000000001,"N_COORD97":2536369.0299999998,"ADDRESS":"灣裡路２６３巷３４弄１９號","OBJECTID":58413},"geometry":{"x":166249.91999999993,"y":2536369.0300000012}},{"attributes":{"ID":58414,"DIS_CODE":0,"TOWNNAME":"新化區","LI":"武安里","LIN":"1鄰","STREET":"公園路","SECT":" ","MAREA":" ","LANE":"１６巷","ALLEY":"９弄","HOUSE_NO":"１６號","E_COORD97":179063.92999999999,"N_COORD97":2547794.25,"ADDRESS":"公園路１６巷９弄１６號","OBJECTID":58414},"geometry":{"x":179063.9299999997,"y":2547794.2500000019}},{"attributes":{"ID":58415,"DIS_CODE":0,"TOWNNAME":"新化區","LI":"太平里","LIN":"4鄰","STREET":"民生路","SECT":" ","MAREA":" ","LANE":"２１６巷","ALLEY":"１弄","HOUSE_NO":"３號","E_COORD97":179095.60999999999,"N_COORD97":2548995.25,"ADDRESS":"民生路２１６巷１弄３號","OBJECTID":58415},"geometry":{"x":179095.61000000034,"y":2548995.25}},{"attributes":{"ID":58416,"DIS_CODE":0,"TOWNNAME":"新化區","LI":"東榮里","LIN":"17鄰","STREET":"中興路","SECT":" ","MAREA":" ","LANE":"６６５巷","ALLEY":"１１弄","HOUSE_NO":"３號","E_COORD97":179641.66,"N_COORD97":2547976.2400000002,"ADDRESS":"中興路６６５巷１１弄３號","OBJECTID":58416},"geometry":{"x":179641.66000000108,"y":2547976.2400000039}},{"attributes":{"ID":58417,"DIS_CODE":0,"TOWNNAME":"永康區","LI":"西橋里","LIN":"1鄰","STREET":"中山南路","SECT":" ","MAREA":" ","LANE":"４３巷","ALLEY":"７弄","HOUSE_NO":"２７號","E_COORD97":170672.67999999999,"N_COORD97":2545795,"ADDRESS":"中山南路４３巷７弄２７號","OBJECTID":58417},"geometry":{"x":170672.6799999997,"y":2545795.0000000019}},{"attributes":{"ID":58418,"DIS_CODE":0,"TOWNNAME":"永康區","LI":"甲頂里","LIN":"1鄰","STREET":"南台街","SECT":" ","MAREA":" ","LANE":"１３５巷","ALLEY":"３弄","HOUSE_NO":"３號","E_COORD97":170025.62,"N_COORD97":2546964.75,"ADDRESS":"南台街１３５巷３弄３號","OBJECTID":58418},"geometry":{"x":170025.62000000011,"y":2546964.75}},{"attributes":{"ID":58419,"DIS_CODE":0,"TOWNNAME":"永康區","LI":"甲頂里","LIN":"1鄰","STREET":"南台街","SECT":" ","MAREA":" ","LANE":"１３５巷","ALLEY":"３弄","HOUSE_NO":"８號","E_COORD97":170085.51999999999,"N_COORD97":2546938,"ADDRESS":"南台街１３５巷３弄８號","OBJECTID":58419},"geometry":{"x":170085.51999999955,"y":2546938.0000000019}},{"attributes":{"ID":58420,"DIS_CODE":0,"TOWNNAME":"永康區","LI":"西勢里","LIN":"1鄰","STREET":"富強路","SECT":"二段","MAREA":" ","LANE":"１９巷","ALLEY":"１４弄","HOUSE_NO":"１１號","E_COORD97":175627.87,"N_COORD97":2546902.6000000001,"ADDRESS":"富強路二段１９巷１４弄１１號","OBJECTID":58420},"geometry":{"x":175627.87000000104,"y":2546902.6000000015}},{"attributes":{"ID":58421,"DIS_CODE":0,"TOWNNAME":"永康區","LI":"尚頂里","LIN":"1鄰","STREET":"中正南路","SECT":" ","MAREA":" ","LANE":"３０６巷","ALLEY":"３３弄","HOUSE_NO":"１２號","E_COORD97":170890.73999999999,"N_COORD97":2547691.75,"ADDRESS":"中正南路３０６巷３３弄１２號","OBJECTID":58421},"geometry":{"x":170890.74000000115,"y":2547691.7500000019}},{"attributes":{"ID":58422,"DIS_CODE":0,"TOWNNAME":"永康區","LI":"尚頂里","LIN":"1鄰","STREET":"中正南路","SECT":" ","MAREA":" ","LANE":"３０６巷","ALLEY":"３３弄","HOUSE_NO":"４號","E_COORD97":170845.85999999999,"N_COORD97":2547703.6699999999,"ADDRESS":"中正南路３０６巷３３弄４號","OBJECTID":58422},"geometry":{"x":170845.86000000127,"y":2547703.6699999999}},{"attributes":{"ID":58423,"DIS_CODE":0,"TOWNNAME":"南區","LI":"竹溪里","LIN":"1鄰","STREET":"健康路","SECT":"一段","MAREA":" ","LANE":"１１３巷","ALLEY":"５１弄","HOUSE_NO":"１２號","E_COORD97":168952.76000000001,"N_COORD97":2542189.5099999998,"ADDRESS":"健康路一段１１３巷５１弄１２號","OBJECTID":58423},"geometry":{"x":168952.76000000071,"y":2542189.5099999979}},{"attributes":{"ID":58424,"DIS_CODE":0,"TOWNNAME":"南區","LI":"竹溪里","LIN":"1鄰","STREET":"健康路","SECT":"一段","MAREA":" ","LANE":"１１３巷","ALLEY":"５１弄","HOUSE_NO":"１２之１號","E_COORD97":168955.45999999999,"N_COORD97":2542189.6600000001,"ADDRESS":"健康路一段１１３巷５１弄１２之１號","OBJECTID":58424},"geometry":{"x":168955.45999999996,"y":2542189.660000002}},{"attributes":{"ID":58425,"DIS_CODE":0,"TOWNNAME":"南區","LI":"竹溪里","LIN":"1鄰","STREET":"健康路","SECT":"一段","MAREA":" ","LANE":"１１３巷","ALLEY":"５１弄","HOUSE_NO":"１６號","E_COORD97":168958.48000000001,"N_COORD97":2542189.5099999998,"ADDRESS":"健康路一段１１３巷５１弄１６號","OBJECTID":58425},"geometry":{"x":168958.48000000138,"y":2542189.5099999979}},{"attributes":{"ID":58426,"DIS_CODE":0,"TOWNNAME":"南區","LI":"竹溪里","LIN":"1鄰","STREET":"健康路","SECT":"一段","MAREA":" ","LANE":"１１３巷","ALLEY":"５１弄","HOUSE_NO":"１８號","E_COORD97":168960.85999999999,"N_COORD97":2542189.1899999999,"ADDRESS":"健康路一段１１３巷５１弄１８號","OBJECTID":58426},"geometry":{"x":168960.86000000127,"y":2542189.1900000013}},{"attributes":{"ID":58427,"DIS_CODE":0,"TOWNNAME":"永康區","LI":"二王里","LIN":"8鄰","STREET":"二王路","SECT":" ","MAREA":" ","LANE":" ","ALLEY":" ","HOUSE_NO":"１２號五樓之１","E_COORD97":172965.34,"N_COORD97":2546841.48,"ADDRESS":"二王路１２號五樓之１","OBJECTID":58427},"geometry":{"x":172965.33999999985,"y":2546841.4800000004}},{"attributes":{"ID":58428,"DIS_CODE":0,"TOWNNAME":"南區","LI":"竹溪里","LIN":"1鄰","STREET":"健康路","SECT":"一段","MAREA":" ","LANE":"１１３巷","ALLEY":"５１弄","HOUSE_NO":"２０號","E_COORD97":168963.56,"N_COORD97":2542189.98,"ADDRESS":"健康路一段１１３巷５１弄２０號","OBJECTID":58428},"geometry":{"x":168963.56000000145,"y":2542189.9800000004}},{"attributes":{"ID":58429,"DIS_CODE":0,"TOWNNAME":"南區","LI":"竹溪里","LIN":"1鄰","STREET":"健康路","SECT":"一段","MAREA":" ","LANE":"１１３巷","ALLEY":"５１弄","HOUSE_NO":"２２號","E_COORD97":168966.73000000001,"N_COORD97":2542190.2999999998,"ADDRESS":"健康路一段１１３巷５１弄２２號","OBJECTID":58429},"geometry":{"x":168966.73000000138,"y":2542190.3000000026}},{"attributes":{"ID":58430,"DIS_CODE":0,"TOWNNAME":"安定區","LI":"蘇林里","LIN":"1鄰","STREET":" ","SECT":" ","MAREA":"蘇厝","LANE":" ","ALLEY":" ","HOUSE_NO":"１０號之４","E_COORD97":173641.13,"N_COORD97":2558572.2999999998,"ADDRESS":"蘇厝１０號之４","OBJECTID":58430},"geometry":{"x":173641.13000000082,"y":2558572.3000000026}},{"attributes":{"ID":58431,"DIS_CODE":0,"TOWNNAME":"安定區","LI":"港口里","LIN":"1鄰","STREET":" ","SECT":" ","MAREA":"港口","LANE":" ","ALLEY":" ","HOUSE_NO":"２３５之１２號","E_COORD97":171650.84,"N_COORD97":2554624.2999999998,"ADDRESS":"港口２３５之１２號","OBJECTID":58431},"geometry":{"x":171650.84000000078,"y":2554624.3000000007}},{"attributes":{"ID":58432,"DIS_CODE":0,"TOWNNAME":"安定區","LI":"蘇林里","LIN":"1鄰","STREET":" ","SECT":" ","MAREA":"蘇厝","LANE":" ","ALLEY":" ","HOUSE_NO":"８號","E_COORD97":173677.12,"N_COORD97":2558539.25,"ADDRESS":"蘇厝８號","OBJECTID":58432},"geometry":{"x":173677.12000000011,"y":2558539.25}},{"attributes":{"ID":58433,"DIS_CODE":0,"TOWNNAME":"安定區","LI":"蘇林里","LIN":"1鄰","STREET":" ","SECT":" ","MAREA":"蘇厝","LANE":" ","ALLEY":" ","HOUSE_NO":"８號之８","E_COORD97":173665.10000000001,"N_COORD97":2558528.2999999998,"ADDRESS":"蘇厝８號之８","OBJECTID":58433},"geometry":{"x":173665.09999999963,"y":2558528.3000000026}},{"attributes":{"ID":58434,"DIS_CODE":0,"TOWNNAME":"安定區","LI":"蘇林里","LIN":"1鄰","STREET":" ","SECT":" ","MAREA":"蘇厝","LANE":" ","ALLEY":" ","HOUSE_NO":"１２號","E_COORD97":173577.17000000001,"N_COORD97":2558601.25,"ADDRESS":"蘇厝１２號","OBJECTID":58434},"geometry":{"x":173577.16999999993,"y":2558601.2500000037}},{"attributes":{"ID":58435,"DIS_CODE":0,"TOWNNAME":"安定區","LI":"港南里","LIN":"1鄰","STREET":" ","SECT":" ","MAREA":"港口","LANE":" ","ALLEY":" ","HOUSE_NO":"１０號之３","E_COORD97":171279.07000000001,"N_COORD97":2554281.2999999998,"ADDRESS":"港口１０號之３","OBJECTID":58435},"geometry":{"x":171279.0700000003,"y":2554281.3000000007}},{"attributes":{"ID":58436,"DIS_CODE":0,"TOWNNAME":"安定區","LI":"港南里","LIN":"1鄰","STREET":" ","SECT":" ","MAREA":"港口","LANE":" ","ALLEY":" ","HOUSE_NO":"１０之６號","E_COORD97":171267.79449100001,"N_COORD97":2554183.4435299998,"ADDRESS":"港口１０號之６","OBJECTID":58436},"geometry":{"x":171267.7944910014,"y":2554183.4435309991}},{"attributes":{"ID":58437,"DIS_CODE":0,"TOWNNAME":"安定區","LI":"港南里","LIN":"1鄰","STREET":" ","SECT":" ","MAREA":"港口","LANE":" ","ALLEY":" ","HOUSE_NO":"２之１１號","E_COORD97":171149.23999999999,"N_COORD97":2554251.2999999998,"ADDRESS":"港口２之１１號","OBJECTID":58437},"geometry":{"x":171149.24000000022,"y":2554251.3000000007}},{"attributes":{"ID":58438,"DIS_CODE":0,"TOWNNAME":"安定區","LI":"蘇林里","LIN":"1鄰","STREET":" ","SECT":" ","MAREA":"蘇厝","LANE":" ","ALLEY":" ","HOUSE_NO":"１０號之３","E_COORD97":173640.70000000001,"N_COORD97":2558577.2999999998,"ADDRESS":"蘇厝１０號之３","OBJECTID":58438},"geometry":{"x":173640.70000000112,"y":2558577.3000000007}},{"attributes":{"ID":58439,"DIS_CODE":0,"TOWNNAME":"安定區","LI":"港南里","LIN":"1鄰","STREET":" ","SECT":" ","MAREA":"港口","LANE":" ","ALLEY":" ","HOUSE_NO":"３號","E_COORD97":171129.48999999999,"N_COORD97":2554337.25,"ADDRESS":"港口３號","OBJECTID":58439},"geometry":{"x":171129.49000000115,"y":2554337.2500000019}},{"attributes":{"ID":58440,"DIS_CODE":0,"TOWNNAME":"安定區","LI":"港南里","LIN":"1鄰","STREET":" ","SECT":" ","MAREA":"港口","LANE":" ","ALLEY":" ","HOUSE_NO":"５之１１號","E_COORD97":171038.44,"N_COORD97":2554257.2999999998,"ADDRESS":"港口５之１１號","OBJECTID":58440},"geometry":{"x":171038.44000000227,"y":2554257.3000000007}},{"attributes":{"ID":58441,"DIS_CODE":0,"TOWNNAME":"安定區","LI":"蘇林里","LIN":"1鄰","STREET":" ","SECT":" ","MAREA":"蘇厝","LANE":" ","ALLEY":" ","HOUSE_NO":"１０之１２號","E_COORD97":173656.12,"N_COORD97":2558564.2999999998,"ADDRESS":"蘇厝１０之１２號","OBJECTID":58441},"geometry":{"x":173656.12000000104,"y":2558564.3000000045}},{"attributes":{"ID":58442,"DIS_CODE":0,"TOWNNAME":"安定區","LI":"港南里","LIN":"1鄰","STREET":" ","SECT":" ","MAREA":"港口","LANE":" ","ALLEY":" ","HOUSE_NO":"２之１８號","E_COORD97":171122.04000000001,"N_COORD97":2554274.2999999998,"ADDRESS":"港口２之１８號","OBJECTID":58442},"geometry":{"x":171122.0400000019,"y":2554274.3000000007}},{"attributes":{"ID":58443,"DIS_CODE":0,"TOWNNAME":"安定區","LI":"蘇林里","LIN":"1鄰","STREET":" ","SECT":" ","MAREA":"蘇厝","LANE":" ","ALLEY":" ","HOUSE_NO":"９號之７","E_COORD97":173659.82999999999,"N_COORD97":2558604.2999999998,"ADDRESS":"蘇厝９號之７","OBJECTID":58443},"geometry":{"x":173659.83000000101,"y":2558604.3000000007}},{"attributes":{"ID":58444,"DIS_CODE":0,"TOWNNAME":"安定區","LI":"港南里","LIN":"1鄰","STREET":" ","SECT":" ","MAREA":"港口","LANE":" ","ALLEY":" ","HOUSE_NO":"７之１號","E_COORD97":171181.89000000001,"N_COORD97":2554299.2999999998,"ADDRESS":"港口７之１號","OBJECTID":58444},"geometry":{"x":171181.88999999873,"y":2554299.3000000045}},{"attributes":{"ID":58445,"DIS_CODE":0,"TOWNNAME":"安定區","LI":"港南里","LIN":"1鄰","STREET":" ","SECT":" ","MAREA":"港口","LANE":" ","ALLEY":" ","HOUSE_NO":"７之３號","E_COORD97":171179.48999999999,"N_COORD97":2554301.2999999998,"ADDRESS":"港口７之３號","OBJECTID":58445},"geometry":{"x":171179.49000000022,"y":2554301.3000000007}},{"attributes":{"ID":58446,"DIS_CODE":0,"TOWNNAME":"安定區","LI":"港南里","LIN":"1鄰","STREET":" ","SECT":" ","MAREA":"港口","LANE":" ","ALLEY":" ","HOUSE_NO":"７之２號","E_COORD97":171179.09,"N_COORD97":2554296.2999999998,"ADDRESS":"港口７之２號","OBJECTID":58446},"geometry":{"x":171179.09000000171,"y":2554296.3000000026}},{"attributes":{"ID":58447,"DIS_CODE":0,"TOWNNAME":"安定區","LI":"港南里","LIN":"1鄰","STREET":" ","SECT":" ","MAREA":"港口","LANE":" ","ALLEY":" ","HOUSE_NO":"７之１４號","E_COORD97":171157.94,"N_COORD97":2554324.2999999998,"ADDRESS":"港口７之１４號","OBJECTID":58447},"geometry":{"x":171157.94000000041,"y":2554324.3000000026}},{"attributes":{"ID":58448,"DIS_CODE":0,"TOWNNAME":"安定區","LI":"港南里","LIN":"1鄰","STREET":" ","SECT":" ","MAREA":"港口","LANE":" ","ALLEY":" ","HOUSE_NO":"２之１６號","E_COORD97":171133.54000000001,"N_COORD97":2554262.2999999998,"ADDRESS":"港口２之１６號","OBJECTID":58448},"geometry":{"x":171133.54000000004,"y":2554262.3000000026}},{"attributes":{"ID":58449,"DIS_CODE":0,"TOWNNAME":"安定區","LI":"蘇林里","LIN":"1鄰","STREET":" ","SECT":" ","MAREA":"蘇厝","LANE":" ","ALLEY":" ","HOUSE_NO":"１４號","E_COORD97":173581.17000000001,"N_COORD97":2558566.25,"ADDRESS":"蘇厝１４號","OBJECTID":58449},"geometry":{"x":173581.17000000086,"y":2558566.25}},{"attributes":{"ID":58450,"DIS_CODE":0,"TOWNNAME":"安定區","LI":"蘇林里","LIN":"1鄰","STREET":" ","SECT":" ","MAREA":"蘇厝","LANE":" ","ALLEY":" ","HOUSE_NO":"１０號","E_COORD97":173637.57000000001,"N_COORD97":2558585.25,"ADDRESS":"蘇厝１０號","OBJECTID":58450},"geometry":{"x":173637.5700000003,"y":2558585.2500000019}},{"attributes":{"ID":58451,"DIS_CODE":0,"TOWNNAME":"安定區","LI":"新吉里","LIN":"1鄰","STREET":" ","SECT":" ","MAREA":"新吉","LANE":" ","ALLEY":" ","HOUSE_NO":"４號之３","E_COORD97":169244.85000000001,"N_COORD97":2554147.2999999998,"ADDRESS":"新吉４號之３","OBJECTID":58451},"geometry":{"x":169244.85000000056,"y":2554147.3000000026}},{"attributes":{"ID":58452,"DIS_CODE":0,"TOWNNAME":"安定區","LI":"蘇林里","LIN":"1鄰","STREET":" ","SECT":" ","MAREA":"蘇厝","LANE":" ","ALLEY":" ","HOUSE_NO":"９號之４","E_COORD97":173635.38,"N_COORD97":2558604.2999999998,"ADDRESS":"蘇厝９號之４","OBJECTID":58452},"geometry":{"x":173635.38000000082,"y":2558604.3000000007}},{"attributes":{"ID":58453,"DIS_CODE":0,"TOWNNAME":"安定區","LI":"蘇林里","LIN":"1鄰","STREET":" ","SECT":" ","MAREA":"蘇厝","LANE":" ","ALLEY":" ","HOUSE_NO":"９號之５","E_COORD97":173649.60999999999,"N_COORD97":2558605.2999999998,"ADDRESS":"蘇厝９號之５","OBJECTID":58453},"geometry":{"x":173649.61000000127,"y":2558605.3000000026}},{"attributes":{"ID":58454,"DIS_CODE":0,"TOWNNAME":"安定區","LI":"蘇林里","LIN":"1鄰","STREET":" ","SECT":" ","MAREA":"蘇厝","LANE":" ","ALLEY":" ","HOUSE_NO":"８號之１２","E_COORD97":173647.34,"N_COORD97":2558555.2999999998,"ADDRESS":"蘇厝８號之１２","OBJECTID":58454},"geometry":{"x":173647.34000000171,"y":2558555.3000000026}},{"attributes":{"ID":58455,"DIS_CODE":0,"TOWNNAME":"安定區","LI":"蘇林里","LIN":"1鄰","STREET":" ","SECT":" ","MAREA":"蘇厝","LANE":" ","ALLEY":" ","HOUSE_NO":"８號之６","E_COORD97":173649.62,"N_COORD97":2558525.2999999998,"ADDRESS":"蘇厝８之６號","OBJECTID":58455},"geometry":{"x":173649.62000000104,"y":2558525.3000000026}},{"attributes":{"ID":58456,"DIS_CODE":0,"TOWNNAME":"安定區","LI":"港南里","LIN":"1鄰","STREET":" ","SECT":" ","MAREA":"港口","LANE":" ","ALLEY":" ","HOUSE_NO":"５之７號","E_COORD97":171046.98999999999,"N_COORD97":2554266.2999999998,"ADDRESS":"港口５之７號","OBJECTID":58456},"geometry":{"x":171046.99000000115,"y":2554266.3000000026}},{"attributes":{"ID":58457,"DIS_CODE":0,"TOWNNAME":"安定區","LI":"港南里","LIN":"1鄰","STREET":" ","SECT":" ","MAREA":"港口","LANE":" ","ALLEY":" ","HOUSE_NO":"３之２號","E_COORD97":171109.59,"N_COORD97":2554288.2999999998,"ADDRESS":"港口３之２號","OBJECTID":58457},"geometry":{"x":171109.59000000171,"y":2554288.3000000007}},{"attributes":{"ID":58458,"DIS_CODE":0,"TOWNNAME":"安定區","LI":"新吉里","LIN":"1鄰","STREET":" ","SECT":" ","MAREA":"新吉","LANE":" ","ALLEY":" ","HOUSE_NO":"７之１０號","E_COORD97":169314.97,"N_COORD97":2554543.2999999998,"ADDRESS":"新吉７之１０號","OBJECTID":58458},"geometry":{"x":169314.96999999881,"y":2554543.3000000045}},{"attributes":{"ID":58459,"DIS_CODE":0,"TOWNNAME":"安定區","LI":"蘇林里","LIN":"1鄰","STREET":" ","SECT":" ","MAREA":"蘇厝","LANE":" ","ALLEY":" ","HOUSE_NO":"８之７號","E_COORD97":173660.01999999999,"N_COORD97":2558527.2999999998,"ADDRESS":"蘇厝８之７號","OBJECTID":58459},"geometry":{"x":173660.02000000048,"y":2558527.3000000045}},{"attributes":{"ID":58460,"DIS_CODE":0,"TOWNNAME":"安定區","LI":"港南里","LIN":"1鄰","STREET":" ","SECT":" ","MAREA":"港口","LANE":" ","ALLEY":" ","HOUSE_NO":"７之９號","E_COORD97":171170.69,"N_COORD97":2554310.2999999998,"ADDRESS":"港口７之９號","OBJECTID":58460},"geometry":{"x":171170.69000000134,"y":2554310.3000000026}},{"attributes":{"ID":58461,"DIS_CODE":0,"TOWNNAME":"安定區","LI":"港南里","LIN":"1鄰","STREET":" ","SECT":" ","MAREA":"港口","LANE":" ","ALLEY":" ","HOUSE_NO":"１０之９號","E_COORD97":171260.34,"N_COORD97":2554295.2999999998,"ADDRESS":"港口１０之９號","OBJECTID":58461},"geometry":{"x":171260.33999999985,"y":2554295.3000000007}},{"attributes":{"ID":58462,"DIS_CODE":0,"TOWNNAME":"安定區","LI":"蘇林里","LIN":"1鄰","STREET":" ","SECT":" ","MAREA":"蘇厝","LANE":" ","ALLEY":" ","HOUSE_NO":"８號之１８","E_COORD97":173656.85000000001,"N_COORD97":2558547.2999999998,"ADDRESS":"蘇厝８號之１８","OBJECTID":58462},"geometry":{"x":173656.84999999963,"y":2558547.3000000045}},{"attributes":{"ID":58463,"DIS_CODE":0,"TOWNNAME":"安定區","LI":"港南里","LIN":"1鄰","STREET":" ","SECT":" ","MAREA":"港口","LANE":" ","ALLEY":" ","HOUSE_NO":"１０之１２號","E_COORD97":171278.69,"N_COORD97":2554250.2999999998,"ADDRESS":"港口１０之１２號","OBJECTID":58463},"geometry":{"x":171278.69000000041,"y":2554250.3000000007}},{"attributes":{"ID":58464,"DIS_CODE":0,"TOWNNAME":"安定區","LI":"港南里","LIN":"1鄰","STREET":" ","SECT":" ","MAREA":"港口","LANE":" ","ALLEY":" ","HOUSE_NO":"７之８號","E_COORD97":171169.98999999999,"N_COORD97":2554304.2999999998,"ADDRESS":"港口７之８號","OBJECTID":58464},"geometry":{"x":171169.99000000209,"y":2554304.3000000026}},{"attributes":{"ID":58465,"DIS_CODE":0,"TOWNNAME":"安定區","LI":"新吉里","LIN":"1鄰","STREET":" ","SECT":" ","MAREA":"新吉","LANE":" ","ALLEY":" ","HOUSE_NO":"１號之３","E_COORD97":169115.14999999999,"N_COORD97":2554143.2999999998,"ADDRESS":"新吉１號之３","OBJECTID":58465},"geometry":{"x":169115.1500000013,"y":2554143.3000000045}},{"attributes":{"ID":58466,"DIS_CODE":0,"TOWNNAME":"安定區","LI":"蘇林里","LIN":"1鄰","STREET":" ","SECT":" ","MAREA":"蘇厝","LANE":" ","ALLEY":" ","HOUSE_NO":"８之３號","E_COORD97":173633.01999999999,"N_COORD97":2558522.2999999998,"ADDRESS":"蘇厝８之３號","OBJECTID":58466},"geometry":{"x":173633.02000000048,"y":2558522.3000000007}},{"attributes":{"ID":58467,"DIS_CODE":0,"TOWNNAME":"南區","LI":"竹溪里","LIN":"1鄰","STREET":"健康路","SECT":"一段","MAREA":" ","LANE":"１１３巷","ALLEY":"５１弄","HOUSE_NO":"２６號","E_COORD97":168969.75,"N_COORD97":2542190.1400000001,"ADDRESS":"健康路一段１１３巷５１弄２６號","OBJECTID":58467},"geometry":{"x":168969.75000000093,"y":2542190.1400000025}},{"attributes":{"ID":58468,"DIS_CODE":0,"TOWNNAME":"安定區","LI":"中沙里","LIN":"1鄰","STREET":" ","SECT":" ","MAREA":"中崙","LANE":" ","ALLEY":" ","HOUSE_NO":"１４之１２號","E_COORD97":169336.03,"N_COORD97":2553328.7799999998,"ADDRESS":"中崙１４之１２號","OBJECTID":58468},"geometry":{"x":169336.03000000119,"y":2553328.7800000012}},{"attributes":{"ID":58469,"DIS_CODE":0,"TOWNNAME":"安定區","LI":"六嘉里","LIN":"1鄰","STREET":" ","SECT":" ","MAREA":"六塊寮","LANE":" ","ALLEY":" ","HOUSE_NO":"１之２１號","E_COORD97":170478.95000000001,"N_COORD97":2553745.6200000001,"ADDRESS":"六塊寮１之２１號","OBJECTID":58469},"geometry":{"x":170478.95000000112,"y":2553745.6200000029}},{"attributes":{"ID":58470,"DIS_CODE":0,"TOWNNAME":"安定區","LI":"六嘉里","LIN":"1鄰","STREET":" ","SECT":" ","MAREA":"六塊寮","LANE":" ","ALLEY":" ","HOUSE_NO":"１之２２號","E_COORD97":170473.20999999999,"N_COORD97":2553732.7599999998,"ADDRESS":"六塊寮１之２２號","OBJECTID":58470},"geometry":{"x":170473.21000000183,"y":2553732.7600000016}},{"attributes":{"ID":58471,"DIS_CODE":0,"TOWNNAME":"安定區","LI":"六嘉里","LIN":"1鄰","STREET":" ","SECT":" ","MAREA":"六塊寮","LANE":" ","ALLEY":" ","HOUSE_NO":"１０之１６號","E_COORD97":170370.15798700001,"N_COORD97":2553646.3775800001,"ADDRESS":"六塊寮１０之１６號","OBJECTID":58471},"geometry":{"x":170370.15798700135,"y":2553646.3775800001}},{"attributes":{"ID":58472,"DIS_CODE":0,"TOWNNAME":"安定區","LI":"南安里","LIN":"1鄰","STREET":" ","SECT":" ","MAREA":"油車","LANE":" ","ALLEY":" ","HOUSE_NO":"４之１５號","E_COORD97":170904.16718799999,"N_COORD97":2555934.3194499998,"ADDRESS":"油車４之１５號","OBJECTID":58472},"geometry":{"x":170904.16718800087,"y":2555934.3194460012}},{"attributes":{"ID":58473,"DIS_CODE":0,"TOWNNAME":"安定區","LI":"海寮里","LIN":"1鄰","STREET":" ","SECT":" ","MAREA":"海寮","LANE":" ","ALLEY":" ","HOUSE_NO":"５之４９號","E_COORD97":169028.17000000001,"N_COORD97":2554970.6499999999,"ADDRESS":"海寮５之４９號","OBJECTID":58473},"geometry":{"x":169028.17000000086,"y":2554970.6500000004}},{"attributes":{"ID":58474,"DIS_CODE":0,"TOWNNAME":"安定區","LI":"海寮里","LIN":"1鄰","STREET":" ","SECT":" ","MAREA":"海寮","LANE":" ","ALLEY":" ","HOUSE_NO":"７之８３號","E_COORD97":169211.85999999999,"N_COORD97":2554563.8100000001,"ADDRESS":"海寮７之８３號","OBJECTID":58474},"geometry":{"x":169211.86000000127,"y":2554563.8100000024}},{"attributes":{"ID":58475,"DIS_CODE":0,"TOWNNAME":"安定區","LI":"海寮里","LIN":"1鄰","STREET":" ","SECT":" ","MAREA":"海寮","LANE":" ","ALLEY":" ","HOUSE_NO":"１３之６號","E_COORD97":169145.03,"N_COORD97":2554995.98,"ADDRESS":"海寮１３之６號","OBJECTID":58475},"geometry":{"x":169145.03000000026,"y":2554995.9799999986}},{"attributes":{"ID":58476,"DIS_CODE":0,"TOWNNAME":"南區","LI":"竹溪里","LIN":"1鄰","STREET":"健康路","SECT":"一段","MAREA":" ","LANE":"１１３巷","ALLEY":"５１弄","HOUSE_NO":"２８號","E_COORD97":168972.13,"N_COORD97":2542189.98,"ADDRESS":"健康路一段１１３巷５１弄２８號","OBJECTID":58476},"geometry":{"x":168972.13000000082,"y":2542189.9800000004}},{"attributes":{"ID":58477,"DIS_CODE":0,"TOWNNAME":"南區","LI":"竹溪里","LIN":"1鄰","STREET":"健康路","SECT":"一段","MAREA":" ","LANE":"１１３巷","ALLEY":"５１弄","HOUSE_NO":"３０號","E_COORD97":168975.14999999999,"N_COORD97":2542188.8700000001,"ADDRESS":"健康路一段１１３巷５１弄３０號","OBJECTID":58477},"geometry":{"x":168975.15000000037,"y":2542188.8700000048}},{"attributes":{"ID":58478,"DIS_CODE":0,"TOWNNAME":"南區","LI":"竹溪里","LIN":"1鄰","STREET":"健康路","SECT":"一段","MAREA":" ","LANE":"１１３巷","ALLEY":"５１弄","HOUSE_NO":"３２號","E_COORD97":168978.95999999999,"N_COORD97":2542188.2400000002,"ADDRESS":"健康路一段１１３巷５１弄３２號","OBJECTID":58478},"geometry":{"x":168978.95999999996,"y":2542188.2400000002}},{"attributes":{"ID":58479,"DIS_CODE":0,"TOWNNAME":"南區","LI":"竹溪里","LIN":"1鄰","STREET":"健康路","SECT":"一段","MAREA":" ","LANE":"１１３巷","ALLEY":"５１弄","HOUSE_NO":"３６號","E_COORD97":168983.23999999999,"N_COORD97":2542188.71,"ADDRESS":"健康路一段１１３巷５１弄３６號","OBJECTID":58479},"geometry":{"x":168983.24000000209,"y":2542188.7100000009}},{"attributes":{"ID":58480,"DIS_CODE":0,"TOWNNAME":"南區","LI":"竹溪里","LIN":"1鄰","STREET":"健康路","SECT":"一段","MAREA":" ","LANE":"１１３巷","ALLEY":"５１弄","HOUSE_NO":"３８號","E_COORD97":168987.69,"N_COORD97":2542187.9199999999,"ADDRESS":"健康路一段１１３巷５１弄３８號","OBJECTID":58480},"geometry":{"x":168987.69000000134,"y":2542187.9200000018}},{"attributes":{"ID":58481,"DIS_CODE":0,"TOWNNAME":"南區","LI":"竹溪里","LIN":"1鄰","STREET":"健康路","SECT":"一段","MAREA":" ","LANE":"１１３巷","ALLEY":"５５弄","HOUSE_NO":"１０號","E_COORD97":168975.16,"N_COORD97":2542129.8100000001,"ADDRESS":"健康路一段１１３巷５５弄１０號","OBJECTID":58481},"geometry":{"x":168975.16000000201,"y":2542129.8100000005}},{"attributes":{"ID":58482,"DIS_CODE":0,"TOWNNAME":"南區","LI":"竹溪里","LIN":"1鄰","STREET":"健康路","SECT":"一段","MAREA":" ","LANE":"１１３巷","ALLEY":"５５弄","HOUSE_NO":"１２號","E_COORD97":168971.19,"N_COORD97":2542129.9700000002,"ADDRESS":"健康路一段１１３巷５５弄１２號","OBJECTID":58482},"geometry":{"x":168971.19000000041,"y":2542129.9700000044}},{"attributes":{"ID":58483,"DIS_CODE":0,"TOWNNAME":"南區","LI":"竹溪里","LIN":"1鄰","STREET":"健康路","SECT":"一段","MAREA":" ","LANE":"１１３巷","ALLEY":"５５弄","HOUSE_NO":"２６號","E_COORD97":168952.29999999999,"N_COORD97":2542133.6200000001,"ADDRESS":"健康路一段１１３巷５５弄２６號","OBJECTID":58483},"geometry":{"x":168952.30000000075,"y":2542133.6200000029}},{"attributes":{"ID":58484,"DIS_CODE":0,"TOWNNAME":"南區","LI":"竹溪里","LIN":"1鄰","STREET":"健康路","SECT":"一段","MAREA":" ","LANE":"１１３巷","ALLEY":"５５弄","HOUSE_NO":"２８號","E_COORD97":168948.79999999999,"N_COORD97":2542134.2599999998,"ADDRESS":"健康路一段１１３巷５５弄２８號","OBJECTID":58484},"geometry":{"x":168948.80000000075,"y":2542134.2600000016}},{"attributes":{"ID":58485,"DIS_CODE":0,"TOWNNAME":"南區","LI":"竹溪里","LIN":"1鄰","STREET":"健康路","SECT":"一段","MAREA":" ","LANE":"１１３巷","ALLEY":"５５弄","HOUSE_NO":"８號","E_COORD97":168977.38,"N_COORD97":2542129.1800000002,"ADDRESS":"健康路一段１１３巷５５弄８號","OBJECTID":58485},"geometry":{"x":168977.38000000082,"y":2542129.1800000016}},{"attributes":{"ID":58486,"DIS_CODE":0,"TOWNNAME":"南區","LI":"竹溪里","LIN":"1鄰","STREET":"健康路","SECT":"一段","MAREA":" ","LANE":"１１３巷","ALLEY":"６５弄","HOUSE_NO":"４６號","E_COORD97":169003.39999999999,"N_COORD97":2542092.29,"ADDRESS":"健康路一段１１３巷６５弄４６號","OBJECTID":58486},"geometry":{"x":169003.4000000013,"y":2542092.2900000028}},{"attributes":{"ID":58487,"DIS_CODE":0,"TOWNNAME":"南區","LI":"竹溪里","LIN":"1鄰","STREET":"健康路","SECT":"一段","MAREA":" ","LANE":"１１３巷","ALLEY":"６５弄","HOUSE_NO":"４２號","E_COORD97":168998.47,"N_COORD97":2542092.29,"ADDRESS":"健康路一段１１３巷６５弄４２號","OBJECTID":58487},"geometry":{"x":168998.47000000067,"y":2542092.2900000028}},{"attributes":{"ID":58488,"DIS_CODE":0,"TOWNNAME":"南區","LI":"竹溪里","LIN":"1鄰","STREET":"健康路","SECT":"一段","MAREA":" ","LANE":"１１３巷","ALLEY":"６５弄","HOUSE_NO":"３８號","E_COORD97":168994.35000000001,"N_COORD97":2542092.29,"ADDRESS":"健康路一段１１３巷６５弄３８號","OBJECTID":58488},"geometry":{"x":168994.35000000056,"y":2542092.2900000028}},{"attributes":{"ID":58489,"DIS_CODE":0,"TOWNNAME":"南區","LI":"竹溪里","LIN":"1鄰","STREET":"健康路","SECT":"一段","MAREA":" ","LANE":"１１３巷","ALLEY":"６５弄","HOUSE_NO":"３６號","E_COORD97":168990.54000000001,"N_COORD97":2542092.4500000002,"ADDRESS":"健康路一段１１３巷６５弄３６號","OBJECTID":58489},"geometry":{"x":168990.54000000004,"y":2542092.4500000011}},{"attributes":{"ID":58490,"DIS_CODE":0,"TOWNNAME":"南區","LI":"竹溪里","LIN":"1鄰","STREET":"健康路","SECT":"一段","MAREA":" ","LANE":"１１３巷","ALLEY":"６５弄","HOUSE_NO":"３２號","E_COORD97":168986.73000000001,"N_COORD97":2542092.77,"ADDRESS":"健康路一段１１３巷６５弄３２號","OBJECTID":58490},"geometry":{"x":168986.73000000045,"y":2542092.7700000033}},{"attributes":{"ID":58491,"DIS_CODE":0,"TOWNNAME":"南區","LI":"大林里","LIN":"1鄰","STREET":"大林路","SECT":" ","MAREA":" ","LANE":"５５巷","ALLEY":"１３弄","HOUSE_NO":"１３號","E_COORD97":169302.26999999999,"N_COORD97":2541722.8599999999,"ADDRESS":"大林路５５巷１３弄１３號","OBJECTID":58491},"geometry":{"x":169302.26999999955,"y":2541722.8600000013}},{"attributes":{"ID":58492,"DIS_CODE":0,"TOWNNAME":"南區","LI":"竹溪里","LIN":"1鄰","STREET":"健康路","SECT":"一段","MAREA":" ","LANE":"１１３巷","ALLEY":"６５弄","HOUSE_NO":"３０號","E_COORD97":168982.60000000001,"N_COORD97":2542092.29,"ADDRESS":"健康路一段１１３巷６５弄３０號","OBJECTID":58492},"geometry":{"x":168982.60000000056,"y":2542092.2900000028}},{"attributes":{"ID":58493,"DIS_CODE":0,"TOWNNAME":"南區","LI":"竹溪里","LIN":"1鄰","STREET":"健康路","SECT":"一段","MAREA":" ","LANE":"１１３巷","ALLEY":"６５弄","HOUSE_NO":"２８號","E_COORD97":168978.79000000001,"N_COORD97":2542092.1299999999,"ADDRESS":"健康路一段１１３巷６５弄２８號","OBJECTID":58493},"geometry":{"x":168978.79000000004,"y":2542092.129999999}},{"attributes":{"ID":58494,"DIS_CODE":0,"TOWNNAME":"東區","LI":"小東里","LIN":"8鄰","STREET":"東和路","SECT":" ","MAREA":" ","LANE":" ","ALLEY":" ","HOUSE_NO":"９５號七樓之２","E_COORD97":170830.70999999999,"N_COORD97":2544293.7599999998,"ADDRESS":"東和路９５號七樓之２","OBJECTID":58494},"geometry":{"x":170830.70999999996,"y":2544293.7600000016}},{"attributes":{"ID":58495,"DIS_CODE":0,"TOWNNAME":"南區","LI":"竹溪里","LIN":"1鄰","STREET":"健康路","SECT":"一段","MAREA":" ","LANE":"１１３巷","ALLEY":"６５弄","HOUSE_NO":"２６號","E_COORD97":168975.29999999999,"N_COORD97":2542091.3399999999,"ADDRESS":"健康路一段１１３巷６５弄２６號","OBJECTID":58495},"geometry":{"x":168975.29999999981,"y":2542091.3399999999}},{"attributes":{"ID":58496,"DIS_CODE":0,"TOWNNAME":"南區","LI":"竹溪里","LIN":"1鄰","STREET":"健康路","SECT":"一段","MAREA":" ","LANE":"１１３巷","ALLEY":"６５弄","HOUSE_NO":"１１號","E_COORD97":168977.51999999999,"N_COORD97":2542104.2000000002,"ADDRESS":"健康路一段１１３巷６５弄１１號","OBJECTID":58496},"geometry":{"x":168977.52000000048,"y":2542104.2000000011}},{"attributes":{"ID":58497,"DIS_CODE":0,"TOWNNAME":"南區","LI":"竹溪里","LIN":"1鄰","STREET":"健康路","SECT":"一段","MAREA":" ","LANE":"１１３巷","ALLEY":"６５弄","HOUSE_NO":"１３號","E_COORD97":168991.97,"N_COORD97":2542109.4399999999,"ADDRESS":"健康路一段１１３巷６５弄１３號","OBJECTID":58497},"geometry":{"x":168991.97000000067,"y":2542109.4400000013}},{"attributes":{"ID":58498,"DIS_CODE":0,"TOWNNAME":"南區","LI":"竹溪里","LIN":"1鄰","STREET":"健康路","SECT":"一段","MAREA":" ","LANE":"１１３巷","ALLEY":"６５弄","HOUSE_NO":"１５號","E_COORD97":168992.60000000001,"N_COORD97":2542105.46,"ADDRESS":"健康路一段１１３巷６５弄１５號","OBJECTID":58498},"geometry":{"x":168992.60000000056,"y":2542105.4600000009}},{"attributes":{"ID":58499,"DIS_CODE":0,"TOWNNAME":"南區","LI":"竹溪里","LIN":"1鄰","STREET":"健康路","SECT":"一段","MAREA":" ","LANE":"１１３巷","ALLEY":"６５弄","HOUSE_NO":"１７號","E_COORD97":168994.03,"N_COORD97":2542103.3999999999,"ADDRESS":"健康路一段１１３巷６５弄１７號","OBJECTID":58499},"geometry":{"x":168994.03000000026,"y":2542103.4000000022}},{"attributes":{"ID":58500,"DIS_CODE":0,"TOWNNAME":"南區","LI":"竹溪里","LIN":"1鄰","STREET":"健康路","SECT":"一段","MAREA":" ","LANE":"１１３巷","ALLEY":"６５弄","HOUSE_NO":"１９號","E_COORD97":168995.78,"N_COORD97":2542100.0699999998,"ADDRESS":"健康路一段１１３巷６５弄１９號","OBJECTID":58500},"geometry":{"x":168995.78000000026,"y":2542100.0700000003}},{"attributes":{"ID":58501,"DIS_CODE":0,"TOWNNAME":"南區","LI":"竹溪里","LIN":"1鄰","STREET":"健康路","SECT":"一段","MAREA":" ","LANE":"１１３巷","ALLEY":"６５弄","HOUSE_NO":"２１號","E_COORD97":168997.67999999999,"N_COORD97":2542097.21,"ADDRESS":"健康路一段１１３巷６５弄２１號","OBJECTID":58501},"geometry":{"x":168997.6799999997,"y":2542097.2100000009}},{"attributes":{"ID":58502,"DIS_CODE":0,"TOWNNAME":"南區","LI":"竹溪里","LIN":"1鄰","STREET":"健康路","SECT":"一段","MAREA":" ","LANE":"１１３巷","ALLEY":"６５弄","HOUSE_NO":"２３號","E_COORD97":168999.73999999999,"N_COORD97":2542094.8300000001,"ADDRESS":"健康路一段１１３巷６５弄２３號","OBJECTID":58502},"geometry":{"x":168999.74000000022,"y":2542094.8300000001}},{"attributes":{"ID":58503,"DIS_CODE":0,"TOWNNAME":"南區","LI":"竹溪里","LIN":"1鄰","STREET":"健康路","SECT":"一段","MAREA":" ","LANE":"１１３巷","ALLEY":"６５弄","HOUSE_NO":"１號","E_COORD97":168984.19,"N_COORD97":2542094.5099999998,"ADDRESS":"健康路一段１１３巷６５弄１號","OBJECTID":58503},"geometry":{"x":168984.19000000134,"y":2542094.5099999998}},{"attributes":{"ID":58504,"DIS_CODE":0,"TOWNNAME":"南區","LI":"竹溪里","LIN":"1鄰","STREET":"健康路","SECT":"一段","MAREA":" ","LANE":"１１３巷","ALLEY":"６５弄","HOUSE_NO":"３號","E_COORD97":168983.23000000001,"N_COORD97":2542097.5299999998,"ADDRESS":"健康路一段１１３巷６５弄３號","OBJECTID":58504},"geometry":{"x":168983.23000000045,"y":2542097.5300000031}},{"attributes":{"ID":58505,"DIS_CODE":0,"TOWNNAME":"南區","LI":"竹溪里","LIN":"1鄰","STREET":"健康路","SECT":"一段","MAREA":" ","LANE":"１１３巷","ALLEY":"６５弄","HOUSE_NO":"５號","E_COORD97":168981.81,"N_COORD97":2542099.75,"ADDRESS":"健康路一段１１３巷６５弄５號","OBJECTID":58505},"geometry":{"x":168981.80999999959,"y":2542099.75}},{"attributes":{"ID":58506,"DIS_CODE":0,"TOWNNAME":"南區","LI":"竹溪里","LIN":"1鄰","STREET":"健康路","SECT":"一段","MAREA":" ","LANE":"１１３巷","ALLEY":"６５弄","HOUSE_NO":"７號","E_COORD97":168981.32999999999,"N_COORD97":2542101.3399999999,"ADDRESS":"健康路一段１１３巷６５弄７號","OBJECTID":58506},"geometry":{"x":168981.33000000101,"y":2542101.3399999999}},{"attributes":{"ID":58507,"DIS_CODE":0,"TOWNNAME":"南區","LI":"竹溪里","LIN":"1鄰","STREET":"健康路","SECT":"一段","MAREA":" ","LANE":"１１３巷","ALLEY":"６５弄","HOUSE_NO":"９號","E_COORD97":168979.89999999999,"N_COORD97":2542103.7200000002,"ADDRESS":"健康路一段１１３巷６５弄９號","OBJECTID":58507},"geometry":{"x":168979.90000000037,"y":2542103.7200000007}},{"attributes":{"ID":58508,"DIS_CODE":0,"TOWNNAME":"南區","LI":"竹溪里","LIN":"1鄰","STREET":"健康路","SECT":"一段","MAREA":" ","LANE":"１１３巷","ALLEY":"５１弄","HOUSE_NO":"１號","E_COORD97":168946.10000000001,"N_COORD97":2542195.1400000001,"ADDRESS":"健康路一段１１３巷５１弄１號","OBJECTID":58508},"geometry":{"x":168946.09999999963,"y":2542195.1400000006}},{"attributes":{"ID":58509,"DIS_CODE":0,"TOWNNAME":"南區","LI":"竹溪里","LIN":"1鄰","STREET":"健康路","SECT":"一段","MAREA":" ","LANE":"１１３巷","ALLEY":"６５弄","HOUSE_NO":"４８號","E_COORD97":169007.67999999999,"N_COORD97":2542091.8900000001,"ADDRESS":"健康路一段１１３巷６５弄４８號","OBJECTID":58509},"geometry":{"x":169007.6799999997,"y":2542091.8900000006}},{"attributes":{"ID":58510,"DIS_CODE":0,"TOWNNAME":"南區","LI":"大林里","LIN":"1鄰","STREET":"大林路","SECT":" ","MAREA":" ","LANE":"５５巷","ALLEY":"１３弄","HOUSE_NO":"１號","E_COORD97":169238.45000000001,"N_COORD97":2541708.5699999998,"ADDRESS":"大林路５５巷１３弄１號","OBJECTID":58510},"geometry":{"x":169238.45000000112,"y":2541708.570000004}},{"attributes":{"ID":58511,"DIS_CODE":0,"TOWNNAME":"南區","LI":"大林里","LIN":"1鄰","STREET":"大林路","SECT":" ","MAREA":" ","LANE":"５５巷","ALLEY":"１３弄","HOUSE_NO":"２號","E_COORD97":169236.54000000001,"N_COORD97":2541704.6000000001,"ADDRESS":"大林路５５巷１３弄２號","OBJECTID":58511},"geometry":{"x":169236.54000000004,"y":2541704.6000000015}},{"attributes":{"ID":58512,"DIS_CODE":0,"TOWNNAME":"南區","LI":"大林里","LIN":"1鄰","STREET":"大林路","SECT":" ","MAREA":" ","LANE":"５５巷","ALLEY":"１３弄","HOUSE_NO":"３號","E_COORD97":169249.23999999999,"N_COORD97":2541711.9100000001,"ADDRESS":"大林路５５巷１３弄３號","OBJECTID":58512},"geometry":{"x":169249.23999999929,"y":2541711.9100000001}},{"attributes":{"ID":58513,"DIS_CODE":0,"TOWNNAME":"南區","LI":"大林里","LIN":"1鄰","STREET":"大林路","SECT":" ","MAREA":" ","LANE":"５５巷","ALLEY":"１３弄","HOUSE_NO":"５號","E_COORD97":169260.82999999999,"N_COORD97":2541714.4500000002,"ADDRESS":"大林路５５巷１３弄５號","OBJECTID":58513},"geometry":{"x":169260.83000000101,"y":2541714.4499999993}},{"attributes":{"ID":58514,"DIS_CODE":0,"TOWNNAME":"南區","LI":"大林里","LIN":"1鄰","STREET":"大林路","SECT":" ","MAREA":" ","LANE":"５５巷","ALLEY":"１３弄","HOUSE_NO":"６號","E_COORD97":169244.48000000001,"N_COORD97":2541706.3500000001,"ADDRESS":"大林路５５巷１３弄６號","OBJECTID":58514},"geometry":{"x":169244.47999999952,"y":2541706.3500000015}},{"attributes":{"ID":58515,"DIS_CODE":0,"TOWNNAME":"南區","LI":"大林里","LIN":"1鄰","STREET":"大林路","SECT":" ","MAREA":" ","LANE":"５５巷","ALLEY":"１３弄","HOUSE_NO":"８號","E_COORD97":169252.89999999999,"N_COORD97":2541708.1000000001,"ADDRESS":"大林路５５巷１３弄８號","OBJECTID":58515},"geometry":{"x":169252.90000000037,"y":2541708.1000000015}},{"attributes":{"ID":58516,"DIS_CODE":0,"TOWNNAME":"南區","LI":"大林里","LIN":"1鄰","STREET":"大林路","SECT":" ","MAREA":" ","LANE":"５５巷","ALLEY":"１３弄","HOUSE_NO":"１０號","E_COORD97":169261.14999999999,"N_COORD97":2541710.1600000001,"ADDRESS":"大林路５５巷１３弄１０號","OBJECTID":58516},"geometry":{"x":169261.1500000013,"y":2541710.1600000001}},{"attributes":{"ID":58517,"DIS_CODE":0,"TOWNNAME":"南區","LI":"大林里","LIN":"1鄰","STREET":"大林路","SECT":" ","MAREA":" ","LANE":"５５巷","ALLEY":"１３弄","HOUSE_NO":"７號","E_COORD97":169271.63,"N_COORD97":2541716.6699999999,"ADDRESS":"大林路５５巷１３弄７號","OBJECTID":58517},"geometry":{"x":169271.62999999989,"y":2541716.6699999999}},{"attributes":{"ID":58518,"DIS_CODE":0,"TOWNNAME":"南區","LI":"大林里","LIN":"1鄰","STREET":"大林路","SECT":" ","MAREA":" ","LANE":"５５巷","ALLEY":"１３弄","HOUSE_NO":"９號","E_COORD97":169282.10999999999,"N_COORD97":2541718.8900000001,"ADDRESS":"大林路５５巷１３弄９號","OBJECTID":58518},"geometry":{"x":169282.11000000034,"y":2541718.8900000006}},{"attributes":{"ID":58519,"DIS_CODE":0,"TOWNNAME":"南區","LI":"大林里","LIN":"1鄰","STREET":"大林路","SECT":" ","MAREA":" ","LANE":"５５巷","ALLEY":"１３弄","HOUSE_NO":"１１號","E_COORD97":169292.89999999999,"N_COORD97":2541721.1099999999,"ADDRESS":"大林路５５巷１３弄１１號","OBJECTID":58519},"geometry":{"x":169292.9000000013,"y":2541721.1100000013}},{"attributes":{"ID":58520,"DIS_CODE":0,"TOWNNAME":"南區","LI":"大林里","LIN":"1鄰","STREET":"大林路","SECT":" ","MAREA":" ","LANE":"５５巷","ALLEY":"１３弄","HOUSE_NO":"１２號","E_COORD97":169268.92999999999,"N_COORD97":2541712.0600000001,"ADDRESS":"大林路５５巷１３弄１２號","OBJECTID":58520},"geometry":{"x":169268.9299999997,"y":2541712.0600000042}},{"attributes":{"ID":58521,"DIS_CODE":0,"TOWNNAME":"新市區","LI":"大營里","LIN":"1鄰","STREET":" ","SECT":" ","MAREA":"大營","LANE":" ","ALLEY":" ","HOUSE_NO":"１９之４號","E_COORD97":179738.01999999999,"N_COORD97":2555676.0499999998,"ADDRESS":"大營１９之４號","OBJECTID":58521},"geometry":{"x":179738.01999999955,"y":2555676.0500000007}},{"attributes":{"ID":58522,"DIS_CODE":0,"TOWNNAME":"南區","LI":"大林里","LIN":"1鄰","STREET":"大林路","SECT":" ","MAREA":" ","LANE":"５５巷","ALLEY":"１３弄","HOUSE_NO":"１５號","E_COORD97":169313.22,"N_COORD97":2541724.6000000001,"ADDRESS":"大林路５５巷１３弄１５號","OBJECTID":58522},"geometry":{"x":169313.21999999974,"y":2541724.6000000034}},{"attributes":{"ID":58523,"DIS_CODE":0,"TOWNNAME":"南區","LI":"大林里","LIN":"1鄰","STREET":"大林路","SECT":" ","MAREA":" ","LANE":"５５巷","ALLEY":"１３弄","HOUSE_NO":"１６號","E_COORD97":169276.70999999999,"N_COORD97":2541713.4900000002,"ADDRESS":"大林路５５巷１３弄１６號","OBJECTID":58523},"geometry":{"x":169276.71000000089,"y":2541713.4900000021}},{"attributes":{"ID":58524,"DIS_CODE":0,"TOWNNAME":"南區","LI":"大林里","LIN":"1鄰","STREET":"大林路","SECT":" ","MAREA":" ","LANE":"５５巷","ALLEY":"１３弄","HOUSE_NO":"１８號","E_COORD97":169282.57999999999,"N_COORD97":2541714.6000000001,"ADDRESS":"大林路５５巷１３弄１８號","OBJECTID":58524},"geometry":{"x":169282.58000000194,"y":2541714.6000000034}},{"attributes":{"ID":58525,"DIS_CODE":0,"TOWNNAME":"南區","LI":"大林里","LIN":"1鄰","STREET":"大林路","SECT":" ","MAREA":" ","LANE":"５５巷","ALLEY":"１３弄","HOUSE_NO":"２０號","E_COORD97":169290.20000000001,"N_COORD97":2541716.0299999998,"ADDRESS":"大林路５５巷１３弄２０號","OBJECTID":58525},"geometry":{"x":169290.19999999925,"y":2541716.0300000012}},{"attributes":{"ID":58526,"DIS_CODE":0,"TOWNNAME":"南區","LI":"大林里","LIN":"1鄰","STREET":"大林路","SECT":" ","MAREA":" ","LANE":"５５巷","ALLEY":"１３弄","HOUSE_NO":"２２號","E_COORD97":169297.66,"N_COORD97":2541717.1400000001,"ADDRESS":"大林路５５巷１３弄２２號","OBJECTID":58526},"geometry":{"x":169297.66000000108,"y":2541717.1400000006}},{"attributes":{"ID":58527,"DIS_CODE":0,"TOWNNAME":"南區","LI":"大林里","LIN":"1鄰","STREET":"大林路","SECT":" ","MAREA":" ","LANE":"５５巷","ALLEY":"１３弄","HOUSE_NO":"２６號","E_COORD97":169305.76000000001,"N_COORD97":2541718.8900000001,"ADDRESS":"大林路５５巷１３弄２６號","OBJECTID":58527},"geometry":{"x":169305.75999999978,"y":2541718.8900000006}},{"attributes":{"ID":58528,"DIS_CODE":0,"TOWNNAME":"南區","LI":"大林里","LIN":"1鄰","STREET":"大林路","SECT":" ","MAREA":" ","LANE":"５５巷","ALLEY":"１３弄","HOUSE_NO":"２８號","E_COORD97":169313.54000000001,"N_COORD97":2541720,"ADDRESS":"大林路５５巷１３弄２８號","OBJECTID":58528},"geometry":{"x":169313.54000000097,"y":2541720.0000000019}},{"attributes":{"ID":58529,"DIS_CODE":0,"TOWNNAME":"南區","LI":"大林里","LIN":"1鄰","STREET":"大林路","SECT":" ","MAREA":" ","LANE":"５５巷","ALLEY":"７弄","HOUSE_NO":"１號","E_COORD97":169236.85999999999,"N_COORD97":2541718.73,"ADDRESS":"大林路５５巷７弄１號","OBJECTID":58529},"geometry":{"x":169236.8600000022,"y":2541718.7300000023}},{"attributes":{"ID":58530,"DIS_CODE":0,"TOWNNAME":"南區","LI":"大林里","LIN":"1鄰","STREET":"大林路","SECT":" ","MAREA":" ","LANE":"５５巷","ALLEY":"７弄","HOUSE_NO":"２號","E_COORD97":169240.82999999999,"N_COORD97":2541714.29,"ADDRESS":"大林路５５巷７弄２號","OBJECTID":58530},"geometry":{"x":169240.83000000101,"y":2541714.2899999991}},{"attributes":{"ID":58531,"DIS_CODE":0,"TOWNNAME":"南區","LI":"大林里","LIN":"1鄰","STREET":"大林路","SECT":" ","MAREA":" ","LANE":"５５巷","ALLEY":"７弄","HOUSE_NO":"３號","E_COORD97":169244.32000000001,"N_COORD97":2541719.8399999999,"ADDRESS":"大林路５５巷７弄３號","OBJECTID":58531},"geometry":{"x":169244.32000000123,"y":2541719.8400000036}},{"attributes":{"ID":58532,"DIS_CODE":0,"TOWNNAME":"南區","LI":"大林里","LIN":"1鄰","STREET":"大林路","SECT":" ","MAREA":" ","LANE":"５５巷","ALLEY":"７弄","HOUSE_NO":"５號","E_COORD97":169253.85000000001,"N_COORD97":2541722.2200000002,"ADDRESS":"大林路５５巷７弄５號","OBJECTID":58532},"geometry":{"x":169253.85000000056,"y":2541722.2200000025}},{"attributes":{"ID":58533,"DIS_CODE":0,"TOWNNAME":"南區","LI":"大林里","LIN":"1鄰","STREET":"大林路","SECT":" ","MAREA":" ","LANE":"５５巷","ALLEY":"７弄","HOUSE_NO":"６號","E_COORD97":169247.34,"N_COORD97":2541715.7200000002,"ADDRESS":"大林路５５巷７弄６號","OBJECTID":58533},"geometry":{"x":169247.34000000078,"y":2541715.7200000025}},{"attributes":{"ID":58534,"DIS_CODE":0,"TOWNNAME":"南區","LI":"大林里","LIN":"1鄰","STREET":"大林路","SECT":" ","MAREA":" ","LANE":"５５巷","ALLEY":"７弄","HOUSE_NO":"１６號","E_COORD97":169271.14999999999,"N_COORD97":2541720.79,"ADDRESS":"大林路５５巷７弄１６號","OBJECTID":58534},"geometry":{"x":169271.1500000013,"y":2541720.790000001}},{"attributes":{"ID":58535,"DIS_CODE":0,"TOWNNAME":"南區","LI":"大林里","LIN":"1鄰","STREET":"大林路","SECT":" ","MAREA":" ","LANE":"５５巷","ALLEY":"７弄","HOUSE_NO":"１２號","E_COORD97":169265.60000000001,"N_COORD97":2541719.52,"ADDRESS":"大林路５５巷７弄１２號","OBJECTID":58535},"geometry":{"x":169265.60000000056,"y":2541719.5200000014}},{"attributes":{"ID":58536,"DIS_CODE":0,"TOWNNAME":"南區","LI":"大林里","LIN":"1鄰","STREET":"大林路","SECT":" ","MAREA":" ","LANE":"５５巷","ALLEY":"７弄","HOUSE_NO":"１０號","E_COORD97":169259.39999999999,"N_COORD97":2541718.1000000001,"ADDRESS":"大林路５５巷７弄１０號","OBJECTID":58536},"geometry":{"x":169259.4000000013,"y":2541718.1000000015}},{"attributes":{"ID":58537,"DIS_CODE":0,"TOWNNAME":"南區","LI":"大林里","LIN":"1鄰","STREET":"大林路","SECT":" ","MAREA":" ","LANE":"５５巷","ALLEY":"７弄","HOUSE_NO":"７號","E_COORD97":169262.10000000001,"N_COORD97":2541723.8100000001,"ADDRESS":"大林路５５巷７弄７號","OBJECTID":58537},"geometry":{"x":169262.10000000056,"y":2541723.8099999987}},{"attributes":{"ID":58538,"DIS_CODE":0,"TOWNNAME":"南區","LI":"大林里","LIN":"1鄰","STREET":"大林路","SECT":" ","MAREA":" ","LANE":"５５巷","ALLEY":"７弄","HOUSE_NO":"８號","E_COORD97":169253.85000000001,"N_COORD97":2541717.2999999998,"ADDRESS":"大林路５５巷７弄８號","OBJECTID":58538},"geometry":{"x":169253.85000000056,"y":2541717.2999999989}},{"attributes":{"ID":58539,"DIS_CODE":0,"TOWNNAME":"南區","LI":"大林里","LIN":"1鄰","STREET":"大林路","SECT":" ","MAREA":" ","LANE":"５５巷","ALLEY":"７弄","HOUSE_NO":"９號","E_COORD97":169270.51999999999,"N_COORD97":2541725.2400000002,"ADDRESS":"大林路５５巷７弄９號","OBJECTID":58539},"geometry":{"x":169270.52000000142,"y":2541725.2400000021}},{"attributes":{"ID":58540,"DIS_CODE":0,"TOWNNAME":"南區","LI":"竹溪里","LIN":"1鄰","STREET":"健康路","SECT":"一段","MAREA":" ","LANE":"１１３巷","ALLEY":"５１弄","HOUSE_NO":"１０號","E_COORD97":168950.35000000001,"N_COORD97":2542193.8100000001,"ADDRESS":"健康路一段１１３巷５１弄１０號","OBJECTID":58540},"geometry":{"x":168950.35000000056,"y":2542193.8100000005}},{"attributes":{"ID":58541,"DIS_CODE":0,"TOWNNAME":"安南區","LI":"佃西里","LIN":"1鄰","STREET":"海佃路","SECT":"四段","MAREA":" ","LANE":"３８８巷","ALLEY":"５３弄","HOUSE_NO":"２４號","E_COORD97":165490.54000000001,"N_COORD97":2551713.5600000001,"ADDRESS":"海佃路四段３８８巷５３弄２４號","OBJECTID":58541},"geometry":{"x":165490.5400000019,"y":2551713.5599999987}},{"attributes":{"ID":58542,"DIS_CODE":0,"TOWNNAME":"安南區","LI":"佃西里","LIN":"1鄰","STREET":"海佃路","SECT":"四段","MAREA":" ","LANE":"３８８巷","ALLEY":"５３弄","HOUSE_NO":"２６號","E_COORD97":165486.35000000001,"N_COORD97":2551710.1099999999,"ADDRESS":"海佃路四段３８８巷５３弄２６號","OBJECTID":58542},"geometry":{"x":165486.35000000149,"y":2551710.1100000013}},{"attributes":{"ID":58543,"DIS_CODE":0,"TOWNNAME":"安南區","LI":"佃西里","LIN":"1鄰","STREET":"海佃路","SECT":"四段","MAREA":" ","LANE":"３８８巷","ALLEY":"５３弄","HOUSE_NO":"２８號","E_COORD97":165481.63,"N_COORD97":2551714.29,"ADDRESS":"海佃路四段３８８巷５３弄２８號","OBJECTID":58543},"geometry":{"x":165481.63000000082,"y":2551714.2900000028}},{"attributes":{"ID":58544,"DIS_CODE":0,"TOWNNAME":"善化區","LI":"小新里","LIN":"1鄰","STREET":"成功路","SECT":" ","MAREA":" ","LANE":"３巷","ALLEY":"２２弄","HOUSE_NO":"１１號","E_COORD97":180076.14999999999,"N_COORD97":2558452.5,"ADDRESS":"成功路３巷２２弄１１號","OBJECTID":58544},"geometry":{"x":180076.1500000013,"y":2558452.5}},{"attributes":{"ID":58545,"DIS_CODE":0,"TOWNNAME":"安南區","LI":"佃西里","LIN":"1鄰","STREET":"海佃路","SECT":"四段","MAREA":" ","LANE":"３８８巷","ALLEY":"５３弄","HOUSE_NO":"３０號","E_COORD97":165477.22,"N_COORD97":2551711.6600000001,"ADDRESS":"海佃路四段３８８巷５３弄３０號","OBJECTID":58545},"geometry":{"x":165477.2200000016,"y":2551711.6600000001}},{"attributes":{"ID":58546,"DIS_CODE":0,"TOWNNAME":"安南區","LI":"砂崙里","LIN":"1鄰","STREET":"城北路","SECT":" ","MAREA":" ","LANE":"８７１巷","ALLEY":"５５弄","HOUSE_NO":"１０號","E_COORD97":160722.59,"N_COORD97":2553231.1200000001,"ADDRESS":"城北路８７１巷５５弄１０號","OBJECTID":58546},"geometry":{"x":160722.58999999985,"y":2553231.120000001}},{"attributes":{"ID":58547,"DIS_CODE":0,"TOWNNAME":"安南區","LI":"砂崙里","LIN":"1鄰","STREET":"城北路","SECT":" ","MAREA":" ","LANE":"８７１巷","ALLEY":"５５弄","HOUSE_NO":"１２號","E_COORD97":160721.35999999999,"N_COORD97":2553228.1499999999,"ADDRESS":"城北路８７１巷５５弄１２號","OBJECTID":58547},"geometry":{"x":160721.36000000034,"y":2553228.1500000004}},{"attributes":{"ID":58548,"DIS_CODE":0,"TOWNNAME":"下營區","LI":"紅厝里","LIN":"8鄰","STREET":" ","SECT":" ","MAREA":"紅毛厝","LANE":" ","ALLEY":" ","HOUSE_NO":"６０號之１","E_COORD97":174975.20999999999,"N_COORD97":2571703.4199999999,"ADDRESS":"紅毛厝６０號之１","OBJECTID":58548},"geometry":{"x":174975.20999999996,"y":2571703.4199999999}},{"attributes":{"ID":58549,"DIS_CODE":0,"TOWNNAME":"安定區","LI":"中榮里","LIN":"1鄰","STREET":" ","SECT":" ","MAREA":"許中營","LANE":" ","ALLEY":" ","HOUSE_NO":"１之４０號","E_COORD97":172199.66,"N_COORD97":2554908.9700000002,"ADDRESS":"許中營１之４０號","OBJECTID":58549},"geometry":{"x":172199.66000000108,"y":2554908.9700000025}},{"attributes":{"ID":58550,"DIS_CODE":0,"TOWNNAME":"安定區","LI":"中榮里","LIN":"1鄰","STREET":" ","SECT":" ","MAREA":"許中營","LANE":" ","ALLEY":" ","HOUSE_NO":"１之４１號","E_COORD97":172200.70999999999,"N_COORD97":2554904.8300000001,"ADDRESS":"許中營１之４１號","OBJECTID":58550},"geometry":{"x":172200.71000000183,"y":2554904.8300000001}},{"attributes":{"ID":58551,"DIS_CODE":0,"TOWNNAME":"安定區","LI":"中榮里","LIN":"1鄰","STREET":" ","SECT":" ","MAREA":"許中營","LANE":" ","ALLEY":" ","HOUSE_NO":"１之４２號","E_COORD97":172201.67000000001,"N_COORD97":2554901.0600000001,"ADDRESS":"許中營１之４２號","OBJECTID":58551},"geometry":{"x":172201.67000000086,"y":2554901.0600000024}},{"attributes":{"ID":58552,"DIS_CODE":0,"TOWNNAME":"安定區","LI":"中榮里","LIN":"1鄰","STREET":" ","SECT":" ","MAREA":"許中營","LANE":" ","ALLEY":" ","HOUSE_NO":"１之４３號","E_COORD97":172202.70000000001,"N_COORD97":2554897.25,"ADDRESS":"許中營１之４３號","OBJECTID":58552},"geometry":{"x":172202.70000000205,"y":2554897.25}},{"attributes":{"ID":58553,"DIS_CODE":0,"TOWNNAME":"下營區","LI":"賀建里","LIN":"1鄰","STREET":" ","SECT":" ","MAREA":"麻豆寮","LANE":" ","ALLEY":" ","HOUSE_NO":"９號","E_COORD97":177823.07000000001,"N_COORD97":2572555.96,"ADDRESS":"麻豆寮９號","OBJECTID":58553},"geometry":{"x":177823.06999999937,"y":2572555.9600000028}},{"attributes":{"ID":58554,"DIS_CODE":0,"TOWNNAME":"安定區","LI":"中榮里","LIN":"1鄰","STREET":" ","SECT":" ","MAREA":"許中營","LANE":" ","ALLEY":" ","HOUSE_NO":"１之４５號","E_COORD97":172204.07000000001,"N_COORD97":2554893.4500000002,"ADDRESS":"許中營１之４５號","OBJECTID":58554},"geometry":{"x":172204.07000000123,"y":2554893.450000003}},{"attributes":{"ID":58555,"DIS_CODE":0,"TOWNNAME":"安定區","LI":"中榮里","LIN":"1鄰","STREET":" ","SECT":" ","MAREA":"許中營","LANE":" ","ALLEY":" ","HOUSE_NO":"１之４６號","E_COORD97":172205.39999999999,"N_COORD97":2554890.02,"ADDRESS":"許中營１之４６號","OBJECTID":58555},"geometry":{"x":172205.4000000013,"y":2554890.0200000033}},{"attributes":{"ID":58556,"DIS_CODE":0,"TOWNNAME":"安定區","LI":"中榮里","LIN":"1鄰","STREET":" ","SECT":" ","MAREA":"許中營","LANE":" ","ALLEY":" ","HOUSE_NO":"１之４７號","E_COORD97":172206.57999999999,"N_COORD97":2554886.0499999998,"ADDRESS":"許中營１之４７號","OBJECTID":58556},"geometry":{"x":172206.57999999914,"y":2554886.0500000007}},{"attributes":{"ID":58557,"DIS_CODE":0,"TOWNNAME":"安定區","LI":"中榮里","LIN":"1鄰","STREET":" ","SECT":" ","MAREA":"許中營","LANE":" ","ALLEY":" ","HOUSE_NO":"１之４８號","E_COORD97":172207.76000000001,"N_COORD97":2554882.23,"ADDRESS":"許中營１之４８號","OBJECTID":58557},"geometry":{"x":172207.75999999978,"y":2554882.2300000004}},{"attributes":{"ID":58558,"DIS_CODE":0,"TOWNNAME":"安定區","LI":"中榮里","LIN":"1鄰","STREET":" ","SECT":" ","MAREA":"許中營","LANE":" ","ALLEY":" ","HOUSE_NO":"１之４９號","E_COORD97":172190.51000000001,"N_COORD97":2554906.52,"ADDRESS":"許中營１之４９號","OBJECTID":58558},"geometry":{"x":172190.51000000071,"y":2554906.5199999977}},{"attributes":{"ID":58559,"DIS_CODE":0,"TOWNNAME":"安定區","LI":"中榮里","LIN":"1鄰","STREET":" ","SECT":" ","MAREA":"許中營","LANE":" ","ALLEY":" ","HOUSE_NO":"１之５０號","E_COORD97":172191.04999999999,"N_COORD97":2554902.5600000001,"ADDRESS":"許中營１之５０號","OBJECTID":58559},"geometry":{"x":172191.04999999981,"y":2554902.5600000005}},{"attributes":{"ID":58560,"DIS_CODE":0,"TOWNNAME":"安定區","LI":"中榮里","LIN":"1鄰","STREET":" ","SECT":" ","MAREA":"許中營","LANE":" ","ALLEY":" ","HOUSE_NO":"１之５１號","E_COORD97":172192.07999999999,"N_COORD97":2554898.75,"ADDRESS":"許中營１之５１號","OBJECTID":58560},"geometry":{"x":172192.08000000101,"y":2554898.7499999981}},{"attributes":{"ID":58561,"DIS_CODE":0,"TOWNNAME":"安南區","LI":"砂崙里","LIN":"1鄰","STREET":"城北路","SECT":" ","MAREA":" ","LANE":"８７１巷","ALLEY":"５５弄","HOUSE_NO":"１４號","E_COORD97":160719.57999999999,"N_COORD97":2553223.3599999999,"ADDRESS":"城北路８７１巷５５弄１４號","OBJECTID":58561},"geometry":{"x":160719.58000000007,"y":2553223.3600000013}},{"attributes":{"ID":58562,"DIS_CODE":0,"TOWNNAME":"安南區","LI":"砂崙里","LIN":"1鄰","STREET":"城北路","SECT":" ","MAREA":" ","LANE":"８７１巷","ALLEY":"５５弄","HOUSE_NO":"１６號","E_COORD97":160716.57000000001,"N_COORD97":2553219.4199999999,"ADDRESS":"城北路８７１巷５５弄１６號","OBJECTID":58562},"geometry":{"x":160716.5700000003,"y":2553219.4200000037}},{"attributes":{"ID":58563,"DIS_CODE":0,"TOWNNAME":"安南區","LI":"砂崙里","LIN":"1鄰","STREET":"城北路","SECT":" ","MAREA":" ","LANE":"８７１巷","ALLEY":"５５弄","HOUSE_NO":"２０號","E_COORD97":160711.42000000001,"N_COORD97":2553199.2400000002,"ADDRESS":"城北路８７１巷５５弄２０號","OBJECTID":58563},"geometry":{"x":160711.42000000086,"y":2553199.2400000002}},{"attributes":{"ID":58564,"DIS_CODE":0,"TOWNNAME":"安南區","LI":"砂崙里","LIN":"1鄰","STREET":"城北路","SECT":" ","MAREA":" ","LANE":"８７１巷","ALLEY":"５５弄","HOUSE_NO":"２２號","E_COORD97":160708.88,"N_COORD97":2553194.6099999999,"ADDRESS":"城北路８７１巷５５弄２２號","OBJECTID":58564},"geometry":{"x":160708.87999999989,"y":2553194.6100000013}},{"attributes":{"ID":58565,"DIS_CODE":0,"TOWNNAME":"安南區","LI":"砂崙里","LIN":"1鄰","STREET":"城北路","SECT":" ","MAREA":" ","LANE":"８７１巷","ALLEY":"５５弄","HOUSE_NO":"２４號","E_COORD97":160707.14999999999,"N_COORD97":2553190.0899999999,"ADDRESS":"城北路８７１巷５５弄２４號","OBJECTID":58565},"geometry":{"x":160707.1500000013,"y":2553190.0899999999}},{"attributes":{"ID":58566,"DIS_CODE":0,"TOWNNAME":"安南區","LI":"砂崙里","LIN":"1鄰","STREET":"城北路","SECT":" ","MAREA":" ","LANE":"８７１巷","ALLEY":"５５弄","HOUSE_NO":"２６號","E_COORD97":160705.42999999999,"N_COORD97":2553185.54,"ADDRESS":"城北路８７１巷５５弄２６號","OBJECTID":58566},"geometry":{"x":160705.43000000156,"y":2553185.5399999991}},{"attributes":{"ID":58567,"DIS_CODE":0,"TOWNNAME":"安南區","LI":"砂崙里","LIN":"1鄰","STREET":"城北路","SECT":" ","MAREA":" ","LANE":"８７１巷","ALLEY":"５５弄","HOUSE_NO":"２８號","E_COORD97":160704.53,"N_COORD97":2553181.7999999998,"ADDRESS":"城北路８７１巷５５弄２８號","OBJECTID":58567},"geometry":{"x":160704.53000000119,"y":2553181.8000000026}},{"attributes":{"ID":58568,"DIS_CODE":0,"TOWNNAME":"安南區","LI":"砂崙里","LIN":"1鄰","STREET":"城北路","SECT":" ","MAREA":" ","LANE":"８７１巷","ALLEY":"５５弄","HOUSE_NO":"２號","E_COORD97":160726.73000000001,"N_COORD97":2553243.6099999999,"ADDRESS":"城北路８７１巷５５弄２號","OBJECTID":58568},"geometry":{"x":160726.73000000138,"y":2553243.6099999994}},{"attributes":{"ID":58569,"DIS_CODE":0,"TOWNNAME":"安南區","LI":"砂崙里","LIN":"1鄰","STREET":"城北路","SECT":" ","MAREA":" ","LANE":"８７１巷","ALLEY":"５５弄","HOUSE_NO":"３０號","E_COORD97":160704.01000000001,"N_COORD97":2553177.29,"ADDRESS":"城北路８７１巷５５弄３０號","OBJECTID":58569},"geometry":{"x":160704.01000000071,"y":2553177.2899999991}},{"attributes":{"ID":58570,"DIS_CODE":0,"TOWNNAME":"安南區","LI":"砂崙里","LIN":"1鄰","STREET":"城北路","SECT":" ","MAREA":" ","LANE":"８７１巷","ALLEY":"５５弄","HOUSE_NO":"３２號","E_COORD97":160700.79000000001,"N_COORD97":2553173.3999999999,"ADDRESS":"城北路８７１巷５５弄３２號","OBJECTID":58570},"geometry":{"x":160700.79000000097,"y":2553173.4000000022}},{"attributes":{"ID":58571,"DIS_CODE":0,"TOWNNAME":"安南區","LI":"砂崙里","LIN":"1鄰","STREET":"城北路","SECT":" ","MAREA":" ","LANE":"８７１巷","ALLEY":"５５弄","HOUSE_NO":"３４號","E_COORD97":160699.37,"N_COORD97":2553168.0299999998,"ADDRESS":"城北路８７１巷５５弄３４號","OBJECTID":58571},"geometry":{"x":160699.37000000011,"y":2553168.0300000012}},{"attributes":{"ID":58572,"DIS_CODE":0,"TOWNNAME":"安南區","LI":"砂崙里","LIN":"1鄰","STREET":"城北路","SECT":" ","MAREA":" ","LANE":"８７１巷","ALLEY":"５５弄","HOUSE_NO":"６號","E_COORD97":160725.41,"N_COORD97":2553240.1400000001,"ADDRESS":"城北路８７１巷５５弄６號","OBJECTID":58572},"geometry":{"x":160725.41000000108,"y":2553240.1400000025}},{"attributes":{"ID":58573,"DIS_CODE":0,"TOWNNAME":"安南區","LI":"砂崙里","LIN":"1鄰","STREET":"城北路","SECT":" ","MAREA":" ","LANE":"８７１巷","ALLEY":"５５弄","HOUSE_NO":"８號","E_COORD97":160724.28,"N_COORD97":2553235.9100000001,"ADDRESS":"城北路８７１巷５５弄８號","OBJECTID":58573},"geometry":{"x":160724.28000000119,"y":2553235.9100000001}},{"attributes":{"ID":58574,"DIS_CODE":0,"TOWNNAME":"安南區","LI":"淵西里","LIN":"1鄰","STREET":"安中路","SECT":"四段","MAREA":" ","LANE":"２９０巷","ALLEY":"２９１弄","HOUSE_NO":"１２８號","E_COORD97":165014.07000000001,"N_COORD97":2550524,"ADDRESS":"安中路四段２９０巷２９１弄１２８號","OBJECTID":58574},"geometry":{"x":165014.0700000003,"y":2550524.0000000019}},{"attributes":{"ID":58575,"DIS_CODE":0,"TOWNNAME":"善化區","LI":"小新里","LIN":"1鄰","STREET":"成功路","SECT":" ","MAREA":" ","LANE":"３巷","ALLEY":"６６弄","HOUSE_NO":"４號","E_COORD97":180001.62,"N_COORD97":2558326.5,"ADDRESS":"成功路３巷６６弄４號","OBJECTID":58575},"geometry":{"x":180001.62000000104,"y":2558326.5000000019}},{"attributes":{"ID":58576,"DIS_CODE":0,"TOWNNAME":"善化區","LI":"小新里","LIN":"1鄰","STREET":"成功路","SECT":" ","MAREA":" ","LANE":"３巷","ALLEY":"３６弄","HOUSE_NO":"２３號","E_COORD97":180041.87,"N_COORD97":2558416.25,"ADDRESS":"成功路３巷３６弄２３號","OBJECTID":58576},"geometry":{"x":180041.87000000104,"y":2558416.2500000019}},{"attributes":{"ID":58577,"DIS_CODE":0,"TOWNNAME":"善化區","LI":"小新里","LIN":"1鄰","STREET":"成功路","SECT":" ","MAREA":" ","LANE":"３巷","ALLEY":"３６弄","HOUSE_NO":"５號","E_COORD97":180044.48999999999,"N_COORD97":2558384.75,"ADDRESS":"成功路３巷３６弄５號","OBJECTID":58577},"geometry":{"x":180044.49000000115,"y":2558384.7500000019}},{"attributes":{"ID":58578,"DIS_CODE":0,"TOWNNAME":"善化區","LI":"小新里","LIN":"1鄰","STREET":"成功路","SECT":" ","MAREA":" ","LANE":"３巷","ALLEY":"３６弄","HOUSE_NO":"１９號","E_COORD97":180049.73999999999,"N_COORD97":2558413.75,"ADDRESS":"成功路３巷３６弄１９號","OBJECTID":58578},"geometry":{"x":180049.74000000115,"y":2558413.75}},{"attributes":{"ID":58579,"DIS_CODE":0,"TOWNNAME":"善化區","LI":"小新里","LIN":"1鄰","STREET":"成功路","SECT":" ","MAREA":" ","LANE":"３巷","ALLEY":"３６弄","HOUSE_NO":"３１號","E_COORD97":180026.23000000001,"N_COORD97":2558421,"ADDRESS":"成功路３巷３６弄３１號","OBJECTID":58579},"geometry":{"x":180026.23000000138,"y":2558421.0000000019}},{"attributes":{"ID":58580,"DIS_CODE":0,"TOWNNAME":"善化區","LI":"小新里","LIN":"1鄰","STREET":"成功路","SECT":" ","MAREA":" ","LANE":"３巷","ALLEY":"２２弄","HOUSE_NO":"１７號","E_COORD97":180054.64999999999,"N_COORD97":2558463,"ADDRESS":"成功路３巷２２弄１７號","OBJECTID":58580},"geometry":{"x":180054.65000000037,"y":2558463}},{"attributes":{"ID":58581,"DIS_CODE":0,"TOWNNAME":"善化區","LI":"小新里","LIN":"1鄰","STREET":"成功路","SECT":" ","MAREA":" ","LANE":"３巷","ALLEY":"３６弄","HOUSE_NO":"２７號","E_COORD97":180034.51000000001,"N_COORD97":2558418.75,"ADDRESS":"成功路３巷３６弄２７號","OBJECTID":58581},"geometry":{"x":180034.50999999978,"y":2558418.7500000019}},{"attributes":{"ID":58582,"DIS_CODE":0,"TOWNNAME":"善化區","LI":"小新里","LIN":"1鄰","STREET":"成功路","SECT":" ","MAREA":" ","LANE":"３巷","ALLEY":"３６弄","HOUSE_NO":"９號","E_COORD97":180036.12,"N_COORD97":2558387.25,"ADDRESS":"成功路３巷３６弄９號","OBJECTID":58582},"geometry":{"x":180036.12000000011,"y":2558387.25}},{"attributes":{"ID":58583,"DIS_CODE":0,"TOWNNAME":"安定區","LI":"中榮里","LIN":"1鄰","STREET":" ","SECT":" ","MAREA":"許中營","LANE":" ","ALLEY":" ","HOUSE_NO":"１之５２號","E_COORD97":172193.45000000001,"N_COORD97":2554894.9500000002,"ADDRESS":"許中營１之５２號","OBJECTID":58583},"geometry":{"x":172193.45000000019,"y":2554894.9500000011}},{"attributes":{"ID":58584,"DIS_CODE":0,"TOWNNAME":"安定區","LI":"中榮里","LIN":"1鄰","STREET":" ","SECT":" ","MAREA":"許中營","LANE":" ","ALLEY":" ","HOUSE_NO":"１之５３號","E_COORD97":172194.78,"N_COORD97":2554891.52,"ADDRESS":"許中營１之５３號","OBJECTID":58584},"geometry":{"x":172194.78000000026,"y":2554891.5199999996}},{"attributes":{"ID":58585,"DIS_CODE":0,"TOWNNAME":"安定區","LI":"中榮里","LIN":"1鄰","STREET":" ","SECT":" ","MAREA":"許中營","LANE":" ","ALLEY":" ","HOUSE_NO":"１之５５號","E_COORD97":172195.95999999999,"N_COORD97":2554887.5499999998,"ADDRESS":"許中營１之５５號","OBJECTID":58585},"geometry":{"x":172195.96000000089,"y":2554887.5500000045}},{"attributes":{"ID":58586,"DIS_CODE":0,"TOWNNAME":"安定區","LI":"中榮里","LIN":"1鄰","STREET":" ","SECT":" ","MAREA":"許中營","LANE":" ","ALLEY":" ","HOUSE_NO":"１之５６號","E_COORD97":172197.14000000001,"N_COORD97":2554883.7400000002,"ADDRESS":"許中營１之５６號","OBJECTID":58586},"geometry":{"x":172197.13999999966,"y":2554883.7400000021}},{"attributes":{"ID":58587,"DIS_CODE":0,"TOWNNAME":"安定區","LI":"中榮里","LIN":"1鄰","STREET":" ","SECT":" ","MAREA":"許中營","LANE":" ","ALLEY":" ","HOUSE_NO":"１之５７號","E_COORD97":172198.64999999999,"N_COORD97":2554879.77,"ADDRESS":"許中營１之５７號","OBJECTID":58587},"geometry":{"x":172198.6500000013,"y":2554879.7699999996}},{"attributes":{"ID":58588,"DIS_CODE":0,"TOWNNAME":"善化區","LI":"小新里","LIN":"1鄰","STREET":"成功路","SECT":" ","MAREA":" ","LANE":"３巷","ALLEY":"３６弄","HOUSE_NO":"２１號","E_COORD97":180045.76000000001,"N_COORD97":2558415,"ADDRESS":"成功路３巷３６弄２１號","OBJECTID":58588},"geometry":{"x":180045.76000000071,"y":2558415}},{"attributes":{"ID":58589,"DIS_CODE":0,"TOWNNAME":"柳營區","LI":"太康里","LIN":"1鄰","STREET":" ","SECT":" ","MAREA":"太康","LANE":" ","ALLEY":" ","HOUSE_NO":"５號之２","E_COORD97":181442.97,"N_COORD97":2576468.4399999999,"ADDRESS":"太康５號之２","OBJECTID":58589},"geometry":{"x":181442.97000000067,"y":2576468.4399999995}},{"attributes":{"ID":58590,"DIS_CODE":0,"TOWNNAME":"善化區","LI":"小新里","LIN":"1鄰","STREET":"成功路","SECT":" ","MAREA":" ","LANE":"３巷","ALLEY":"２２弄","HOUSE_NO":"１３號","E_COORD97":180074.73999999999,"N_COORD97":2558446.5,"ADDRESS":"成功路３巷２２弄１３號","OBJECTID":58590},"geometry":{"x":180074.73999999929,"y":2558446.5}},{"attributes":{"ID":58591,"DIS_CODE":0,"TOWNNAME":"善化區","LI":"小新里","LIN":"1鄰","STREET":"成功路","SECT":" ","MAREA":" ","LANE":"３巷","ALLEY":"２２弄","HOUSE_NO":"２１號","E_COORD97":180051.38,"N_COORD97":2558452.25,"ADDRESS":"成功路３巷２２弄２１號","OBJECTID":58591},"geometry":{"x":180051.37999999896,"y":2558452.2500000037}},{"attributes":{"ID":58592,"DIS_CODE":0,"TOWNNAME":"善化區","LI":"小新里","LIN":"1鄰","STREET":"成功路","SECT":" ","MAREA":" ","LANE":"３巷","ALLEY":"２２弄","HOUSE_NO":"３號","E_COORD97":180084.54000000001,"N_COORD97":2558449.75,"ADDRESS":"成功路３巷２２弄３號","OBJECTID":58592},"geometry":{"x":180084.5400000019,"y":2558449.7500000019}},{"attributes":{"ID":58593,"DIS_CODE":0,"TOWNNAME":"善化區","LI":"小新里","LIN":"1鄰","STREET":"成功路","SECT":" ","MAREA":" ","LANE":"３巷","ALLEY":"２２弄","HOUSE_NO":"２３號","E_COORD97":180049.29000000001,"N_COORD97":2558447.25,"ADDRESS":"成功路３巷２２弄２３號","OBJECTID":58593},"geometry":{"x":180049.29000000097,"y":2558447.25}},{"attributes":{"ID":58594,"DIS_CODE":0,"TOWNNAME":"善化區","LI":"小新里","LIN":"1鄰","STREET":"成功路","SECT":" ","MAREA":" ","LANE":"３巷","ALLEY":"３６弄","HOUSE_NO":"３號","E_COORD97":180048.89999999999,"N_COORD97":2558383.75,"ADDRESS":"成功路３巷３６弄３號","OBJECTID":58594},"geometry":{"x":180048.9000000013,"y":2558383.75}},{"attributes":{"ID":58595,"DIS_CODE":0,"TOWNNAME":"善化區","LI":"小新里","LIN":"1鄰","STREET":"成功路","SECT":" ","MAREA":" ","LANE":"３巷","ALLEY":"３６弄","HOUSE_NO":"１１號","E_COORD97":180065.29000000001,"N_COORD97":2558408.75,"ADDRESS":"成功路３巷３６弄１１號","OBJECTID":58595},"geometry":{"x":180065.29000000004,"y":2558408.7500000019}},{"attributes":{"ID":58596,"DIS_CODE":0,"TOWNNAME":"善化區","LI":"小新里","LIN":"1鄰","STREET":"成功路","SECT":" ","MAREA":" ","LANE":"３巷","ALLEY":"３６弄","HOUSE_NO":"２９號","E_COORD97":180030.10000000001,"N_COORD97":2558420,"ADDRESS":"成功路３巷３６弄２９號","OBJECTID":58596},"geometry":{"x":180030.10000000056,"y":2558420.0000000037}},{"attributes":{"ID":58597,"DIS_CODE":0,"TOWNNAME":"下營區","LI":"紅厝里","LIN":"8鄰","STREET":" ","SECT":" ","MAREA":"紅毛厝","LANE":" ","ALLEY":" ","HOUSE_NO":"６０號","E_COORD97":174970.04000000001,"N_COORD97":2571704.4900000002,"ADDRESS":"紅毛厝６０號","OBJECTID":58597},"geometry":{"x":174970.0400000019,"y":2571704.4900000021}},{"attributes":{"ID":58598,"DIS_CODE":0,"TOWNNAME":"安定區","LI":"中榮里","LIN":"1鄰","STREET":" ","SECT":" ","MAREA":"許中營","LANE":" ","ALLEY":" ","HOUSE_NO":"１之５８號","E_COORD97":172091.63,"N_COORD97":2554971.8799999999,"ADDRESS":"許中營１之５８號","OBJECTID":58598},"geometry":{"x":172091.63000000082,"y":2554971.8800000008}},{"attributes":{"ID":58599,"DIS_CODE":0,"TOWNNAME":"安定區","LI":"安加里","LIN":"1鄰","STREET":" ","SECT":" ","MAREA":"安定","LANE":" ","ALLEY":" ","HOUSE_NO":"１５８之７號","E_COORD97":172073.79135099999,"N_COORD97":2557603.8658400001,"ADDRESS":"安定１５８之７號","OBJECTID":58599},"geometry":{"x":172073.79135099985,"y":2557603.8658360019}},{"attributes":{"ID":58600,"DIS_CODE":0,"TOWNNAME":"安定區","LI":"安加里","LIN":"1鄰","STREET":" ","SECT":" ","MAREA":"安定","LANE":" ","ALLEY":" ","HOUSE_NO":"１５８之８號","E_COORD97":172083.165504,"N_COORD97":2557603.8129199999,"ADDRESS":"安定１５８之８號","OBJECTID":58600},"geometry":{"x":172083.16550400201,"y":2557603.8129190002}}]}