{"displayFieldName":"TOWNNAME","fieldAliases":{"ID":"ID","DIS_CODE":"DIS_CODE","TOWNNAME":"TOWNNAME","LI":"LI","LIN":"LIN","STREET":"STREET","SECT":"SECT","MAREA":"MAREA","LANE":"LANE","ALLEY":"ALLEY","HOUSE_NO":"HOUSE_NO","E_COORD97":"E_COORD97","N_COORD97":"N_COORD97","ADDRESS":"ADDRESS","OBJECTID":"OBJECTID"},"geometryType":"esriGeometryPoint","spatialReference":{"wkid":102443,"latestWkid":3826},"fields":[{"name":"ID","type":"esriFieldTypeDouble","alias":"ID"},{"name":"DIS_CODE","type":"esriFieldTypeInteger","alias":"DIS_CODE"},{"name":"TOWNNAME","type":"esriFieldTypeString","alias":"TOWNNAME","length":8},{"name":"LI","type":"esriFieldTypeString","alias":"LI","length":8},{"name":"LIN","type":"esriFieldTypeString","alias":"LIN","length":12},{"name":"STREET","type":"esriFieldTypeString","alias":"STREET","length":20},{"name":"SECT","type":"esriFieldTypeString","alias":"SECT","length":8},{"name":"MAREA","type":"esriFieldTypeString","alias":"MAREA","length":12},{"name":"LANE","type":"esriFieldTypeString","alias":"LANE","length":10},{"name":"ALLEY","type":"esriFieldTypeString","alias":"ALLEY","length":10},{"name":"HOUSE_NO","type":"esriFieldTypeString","alias":"HOUSE_NO","length":20},{"name":"E_COORD97","type":"esriFieldTypeDouble","alias":"E_COORD97"},{"name":"N_COORD97","type":"esriFieldTypeDouble","alias":"N_COORD97"},{"name":"ADDRESS","type":"esriFieldTypeString","alias":"ADDRESS","length":50},{"name":"OBJECTID","type":"esriFieldTypeOID","alias":"OBJECTID"}],"features":[{"attributes":{"ID":4801,"DIS_CODE":0,"TOWNNAME":"安平區","LI":"平安里","LIN":"23鄰","STREET":"安平路","SECT":" ","MAREA":" ","LANE":"４４６巷","ALLEY":" ","HOUSE_NO":"３６號之３","E_COORD97":165328.26052099999,"N_COORD97":2544396.6828299998,"ADDRESS":"安平路４４６巷３６號之３","OBJECTID":4801},"geometry":{"x":165328.26052100118,"y":2544396.6828270033}},{"attributes":{"ID":4802,"DIS_CODE":0,"TOWNNAME":"安平區","LI":"平安里","LIN":"23鄰","STREET":"安平路","SECT":" ","MAREA":" ","LANE":"４４６巷","ALLEY":" ","HOUSE_NO":"３６號之４","E_COORD97":165328.26052099999,"N_COORD97":2544396.6828299998,"ADDRESS":"安平路４４６巷３６號之４","OBJECTID":4802},"geometry":{"x":165328.26052100118,"y":2544396.6828270033}},{"attributes":{"ID":4803,"DIS_CODE":0,"TOWNNAME":"安平區","LI":"平安里","LIN":"23鄰","STREET":"安平路","SECT":" ","MAREA":" ","LANE":"４４６巷","ALLEY":" ","HOUSE_NO":"３８號之１","E_COORD97":165340.974972,"N_COORD97":2544394.3544999999,"ADDRESS":"安平路４４６巷３８號之１","OBJECTID":4803},"geometry":{"x":165340.97497200128,"y":2544394.3544950001}},{"attributes":{"ID":4804,"DIS_CODE":0,"TOWNNAME":"安平區","LI":"平安里","LIN":"23鄰","STREET":"安平路","SECT":" ","MAREA":" ","LANE":"４４６巷","ALLEY":" ","HOUSE_NO":"３８號之２","E_COORD97":165340.974972,"N_COORD97":2544394.3544999999,"ADDRESS":"安平路４４６巷３８號之２","OBJECTID":4804},"geometry":{"x":165340.97497200128,"y":2544394.3544950001}},{"attributes":{"ID":4805,"DIS_CODE":0,"TOWNNAME":"安平區","LI":"平安里","LIN":"23鄰","STREET":"安平路","SECT":" ","MAREA":" ","LANE":"４４６巷","ALLEY":" ","HOUSE_NO":"３８號之２三樓","E_COORD97":165340.974972,"N_COORD97":2544394.3544999999,"ADDRESS":"安平路４４６巷３８號之２三樓","OBJECTID":4805},"geometry":{"x":165340.97497200128,"y":2544394.3544950001}},{"attributes":{"ID":4806,"DIS_CODE":0,"TOWNNAME":"安平區","LI":"平安里","LIN":"23鄰","STREET":"安平路","SECT":" ","MAREA":" ","LANE":"４４６巷","ALLEY":" ","HOUSE_NO":"３８號之３","E_COORD97":165340.974972,"N_COORD97":2544394.3544999999,"ADDRESS":"安平路４４６巷３８號之３","OBJECTID":4806},"geometry":{"x":165340.97497200128,"y":2544394.3544950001}},{"attributes":{"ID":4807,"DIS_CODE":0,"TOWNNAME":"安平區","LI":"平安里","LIN":"23鄰","STREET":"安平路","SECT":" ","MAREA":" ","LANE":"４４６巷","ALLEY":" ","HOUSE_NO":"３８號之４","E_COORD97":165340.974972,"N_COORD97":2544394.3544999999,"ADDRESS":"安平路４４６巷３８號之４","OBJECTID":4807},"geometry":{"x":165340.97497200128,"y":2544394.3544950001}},{"attributes":{"ID":4808,"DIS_CODE":0,"TOWNNAME":"關廟區","LI":"布袋里","LIN":"8鄰","STREET":"長文街","SECT":" ","MAREA":" ","LANE":" ","ALLEY":" ","HOUSE_NO":"３２１號","E_COORD97":182072.04000000001,"N_COORD97":2535057.2999999998,"ADDRESS":"長文街３２１號","OBJECTID":4808},"geometry":{"x":182072.04000000097,"y":2535057.3000000007}},{"attributes":{"ID":4809,"DIS_CODE":0,"TOWNNAME":"安平區","LI":"平安里","LIN":"23鄰","STREET":"安平路","SECT":" ","MAREA":" ","LANE":"４４６巷","ALLEY":" ","HOUSE_NO":"４０號之１","E_COORD97":165342.03451,"N_COORD97":2544405.78449,"ADDRESS":"安平路４４６巷４０號之１","OBJECTID":4809},"geometry":{"x":165342.03450999875,"y":2544405.7844890021}},{"attributes":{"ID":4810,"DIS_CODE":0,"TOWNNAME":"安平區","LI":"平安里","LIN":"23鄰","STREET":"安平路","SECT":" ","MAREA":" ","LANE":"４４６巷","ALLEY":" ","HOUSE_NO":"４０號之２","E_COORD97":165342.03451,"N_COORD97":2544405.78449,"ADDRESS":"安平路４４６巷４０號之２","OBJECTID":4810},"geometry":{"x":165342.03450999875,"y":2544405.7844890021}},{"attributes":{"ID":4811,"DIS_CODE":0,"TOWNNAME":"安平區","LI":"平安里","LIN":"23鄰","STREET":"安平路","SECT":" ","MAREA":" ","LANE":"４４６巷","ALLEY":" ","HOUSE_NO":"４０號之３","E_COORD97":165342.03451,"N_COORD97":2544405.78449,"ADDRESS":"安平路４４６巷４０號之３","OBJECTID":4811},"geometry":{"x":165342.03450999875,"y":2544405.7844890021}},{"attributes":{"ID":4812,"DIS_CODE":0,"TOWNNAME":"安平區","LI":"平安里","LIN":"23鄰","STREET":"安平路","SECT":" ","MAREA":" ","LANE":"４４６巷","ALLEY":" ","HOUSE_NO":"４０號之４","E_COORD97":165342.03451,"N_COORD97":2544405.78449,"ADDRESS":"安平路４４６巷４０號之４","OBJECTID":4812},"geometry":{"x":165342.03450999875,"y":2544405.7844890021}},{"attributes":{"ID":4813,"DIS_CODE":0,"TOWNNAME":"安南區","LI":"東和里","LIN":"7鄰","STREET":"長和路","SECT":"一段","MAREA":" ","LANE":"５５９巷","ALLEY":" ","HOUSE_NO":"１８號","E_COORD97":171181.20337999999,"N_COORD97":2551021.3296400001,"ADDRESS":"長和路一段５５９巷１８號","OBJECTID":4813},"geometry":{"x":171181.20337999985,"y":2551021.3296400011}},{"attributes":{"ID":4814,"DIS_CODE":0,"TOWNNAME":"安平區","LI":"平安里","LIN":"23鄰","STREET":"安平路","SECT":" ","MAREA":" ","LANE":"４４６巷","ALLEY":" ","HOUSE_NO":"４２號之１","E_COORD97":165343.72977000001,"N_COORD97":2544419.54281,"ADDRESS":"安平路４４６巷４２號之１","OBJECTID":4814},"geometry":{"x":165343.72977000102,"y":2544419.5428150035}},{"attributes":{"ID":4815,"DIS_CODE":0,"TOWNNAME":"安平區","LI":"平安里","LIN":"23鄰","STREET":"安平路","SECT":" ","MAREA":" ","LANE":"４４６巷","ALLEY":" ","HOUSE_NO":"４２號之２","E_COORD97":165343.30595499999,"N_COORD97":2544419.33115,"ADDRESS":"安平路４４６巷４２號之２","OBJECTID":4815},"geometry":{"x":165343.30595500208,"y":2544419.3311490007}},{"attributes":{"ID":4816,"DIS_CODE":0,"TOWNNAME":"安平區","LI":"平安里","LIN":"23鄰","STREET":"安平路","SECT":" ","MAREA":" ","LANE":"４４６巷","ALLEY":" ","HOUSE_NO":"４２號之３","E_COORD97":165343.30595499999,"N_COORD97":2544419.33115,"ADDRESS":"安平路４４６巷４２號之３","OBJECTID":4816},"geometry":{"x":165343.30595500208,"y":2544419.3311490007}},{"attributes":{"ID":4817,"DIS_CODE":0,"TOWNNAME":"安平區","LI":"平安里","LIN":"23鄰","STREET":"安平路","SECT":" ","MAREA":" ","LANE":"４４６巷","ALLEY":" ","HOUSE_NO":"４２號之４","E_COORD97":165343.30595499999,"N_COORD97":2544419.33115,"ADDRESS":"安平路４４６巷４２號之４","OBJECTID":4817},"geometry":{"x":165343.30595500208,"y":2544419.3311490007}},{"attributes":{"ID":4818,"DIS_CODE":0,"TOWNNAME":"安平區","LI":"平安里","LIN":"23鄰","STREET":"安平路","SECT":" ","MAREA":" ","LANE":"４４６巷","ALLEY":" ","HOUSE_NO":"４４號之１","E_COORD97":165325.29381500001,"N_COORD97":2544425.0461499998,"ADDRESS":"安平路４４６巷４４號之１","OBJECTID":4818},"geometry":{"x":165325.29381499998,"y":2544425.0461450014}},{"attributes":{"ID":4819,"DIS_CODE":0,"TOWNNAME":"安平區","LI":"平安里","LIN":"23鄰","STREET":"安平路","SECT":" ","MAREA":" ","LANE":"４４６巷","ALLEY":" ","HOUSE_NO":"４４號之２","E_COORD97":165325.29381500001,"N_COORD97":2544425.0461499998,"ADDRESS":"安平路４４６巷４４號之２","OBJECTID":4819},"geometry":{"x":165325.29381499998,"y":2544425.0461450014}},{"attributes":{"ID":4820,"DIS_CODE":0,"TOWNNAME":"安平區","LI":"平安里","LIN":"23鄰","STREET":"安平路","SECT":" ","MAREA":" ","LANE":"４４６巷","ALLEY":" ","HOUSE_NO":"４４號之３","E_COORD97":165325.29381500001,"N_COORD97":2544425.0461499998,"ADDRESS":"安平路４４６巷４４號之３","OBJECTID":4820},"geometry":{"x":165325.29381499998,"y":2544425.0461450014}},{"attributes":{"ID":4821,"DIS_CODE":0,"TOWNNAME":"安平區","LI":"平安里","LIN":"23鄰","STREET":"安平路","SECT":" ","MAREA":" ","LANE":"４４６巷","ALLEY":" ","HOUSE_NO":"４６號之１","E_COORD97":165318.30086700001,"N_COORD97":2544426.73948,"ADDRESS":"安平路４４６巷４６號之１","OBJECTID":4821},"geometry":{"x":165318.30086699966,"y":2544426.7394779976}},{"attributes":{"ID":4822,"DIS_CODE":0,"TOWNNAME":"安平區","LI":"平安里","LIN":"23鄰","STREET":"安平路","SECT":" ","MAREA":" ","LANE":"４４６巷","ALLEY":" ","HOUSE_NO":"４６號之２","E_COORD97":165318.30086700001,"N_COORD97":2544426.73948,"ADDRESS":"安平路４４６巷４６號之２","OBJECTID":4822},"geometry":{"x":165318.30086699966,"y":2544426.7394779976}},{"attributes":{"ID":4823,"DIS_CODE":0,"TOWNNAME":"安平區","LI":"平安里","LIN":"23鄰","STREET":"安平路","SECT":" ","MAREA":" ","LANE":"４４６巷","ALLEY":" ","HOUSE_NO":"４６號之３","E_COORD97":165318.30086700001,"N_COORD97":2544426.73948,"ADDRESS":"安平路４４６巷４６號之３","OBJECTID":4823},"geometry":{"x":165318.30086699966,"y":2544426.7394779976}},{"attributes":{"ID":4824,"DIS_CODE":0,"TOWNNAME":"關廟區","LI":"布袋里","LIN":"8鄰","STREET":"長文街","SECT":" ","MAREA":" ","LANE":" ","ALLEY":" ","HOUSE_NO":"３３１號","E_COORD97":182084.68679599999,"N_COORD97":2535018.5891499999,"ADDRESS":"長文街３３１號","OBJECTID":4824},"geometry":{"x":182084.68679600023,"y":2535018.5891490038}},{"attributes":{"ID":4825,"DIS_CODE":0,"TOWNNAME":"安平區","LI":"平安里","LIN":"23鄰","STREET":"安平路","SECT":" ","MAREA":" ","LANE":"４４６巷","ALLEY":" ","HOUSE_NO":"４６號之３四樓","E_COORD97":165318.30086700001,"N_COORD97":2544426.73948,"ADDRESS":"安平路４４６巷４６號之３四樓","OBJECTID":4825},"geometry":{"x":165318.30086699966,"y":2544426.7394779976}},{"attributes":{"ID":4826,"DIS_CODE":0,"TOWNNAME":"安平區","LI":"平安里","LIN":"23鄰","STREET":"安平路","SECT":" ","MAREA":" ","LANE":"４４６巷","ALLEY":" ","HOUSE_NO":"４６號之４","E_COORD97":165318.30086700001,"N_COORD97":2544426.73948,"ADDRESS":"安平路４４６巷４６號之４","OBJECTID":4826},"geometry":{"x":165318.30086699966,"y":2544426.7394779976}},{"attributes":{"ID":4827,"DIS_CODE":0,"TOWNNAME":"安平區","LI":"平安里","LIN":"23鄰","STREET":"安平路","SECT":" ","MAREA":" ","LANE":"４４６巷","ALLEY":" ","HOUSE_NO":"４８號之１","E_COORD97":165306.01023000001,"N_COORD97":2544429.7028100002,"ADDRESS":"安平路４４６巷４８號之１","OBJECTID":4827},"geometry":{"x":165306.01023000013,"y":2544429.7028100006}},{"attributes":{"ID":4828,"DIS_CODE":0,"TOWNNAME":"安平區","LI":"平安里","LIN":"23鄰","STREET":"安平路","SECT":" ","MAREA":" ","LANE":"４４６巷","ALLEY":" ","HOUSE_NO":"４８號之２","E_COORD97":165306.01023000001,"N_COORD97":2544429.7028100002,"ADDRESS":"安平路４４６巷４８號之２","OBJECTID":4828},"geometry":{"x":165306.01023000013,"y":2544429.7028100006}},{"attributes":{"ID":4829,"DIS_CODE":0,"TOWNNAME":"安平區","LI":"平安里","LIN":"23鄰","STREET":"安平路","SECT":" ","MAREA":" ","LANE":"４４６巷","ALLEY":" ","HOUSE_NO":"４８號之３","E_COORD97":165306.01023000001,"N_COORD97":2544429.7028100002,"ADDRESS":"安平路４４６巷４８號之３","OBJECTID":4829},"geometry":{"x":165306.01023000013,"y":2544429.7028100006}},{"attributes":{"ID":4830,"DIS_CODE":0,"TOWNNAME":"安平區","LI":"平安里","LIN":"23鄰","STREET":"安平路","SECT":" ","MAREA":" ","LANE":"４４６巷","ALLEY":" ","HOUSE_NO":"４８號之４","E_COORD97":165306.01023000001,"N_COORD97":2544429.7028100002,"ADDRESS":"安平路４４６巷４８號之４","OBJECTID":4830},"geometry":{"x":165306.01023000013,"y":2544429.7028100006}},{"attributes":{"ID":4831,"DIS_CODE":0,"TOWNNAME":"安南區","LI":"東和里","LIN":"7鄰","STREET":"長和路","SECT":"一段","MAREA":" ","LANE":"５５９巷","ALLEY":" ","HOUSE_NO":"１號","E_COORD97":171219.00384200001,"N_COORD97":2551023.0229699998,"ADDRESS":"長和路一段５５９巷１號","OBJECTID":4831},"geometry":{"x":171219.00384199992,"y":2551023.0229740031}},{"attributes":{"ID":4832,"DIS_CODE":0,"TOWNNAME":"安南區","LI":"東和里","LIN":"7鄰","STREET":"長和路","SECT":"一段","MAREA":" ","LANE":"５５９巷","ALLEY":" ","HOUSE_NO":"３號","E_COORD97":171214.768496,"N_COORD97":2551020.2713100002,"ADDRESS":"長和路一段５５９巷３號","OBJECTID":4832},"geometry":{"x":171214.76849600114,"y":2551020.2713090014}},{"attributes":{"ID":4833,"DIS_CODE":0,"TOWNNAME":"安平區","LI":"平安里","LIN":"10鄰","STREET":"安平路","SECT":" ","MAREA":" ","LANE":" ","ALLEY":" ","HOUSE_NO":"４６０號","E_COORD97":165240.318898,"N_COORD97":2544324.50453,"ADDRESS":"安平路４６０號","OBJECTID":4833},"geometry":{"x":165240.31889800169,"y":2544324.5045330022}},{"attributes":{"ID":4834,"DIS_CODE":0,"TOWNNAME":"安南區","LI":"東和里","LIN":"7鄰","STREET":"長和路","SECT":"一段","MAREA":" ","LANE":"５５９巷","ALLEY":" ","HOUSE_NO":"５號","E_COORD97":171211.16845299999,"N_COORD97":2551016.8846399998,"ADDRESS":"長和路一段５５９巷５號","OBJECTID":4834},"geometry":{"x":171211.16845299955,"y":2551016.8846439999}},{"attributes":{"ID":4835,"DIS_CODE":0,"TOWNNAME":"安南區","LI":"東和里","LIN":"7鄰","STREET":"長和路","SECT":"一段","MAREA":" ","LANE":"５５９巷","ALLEY":" ","HOUSE_NO":"７號","E_COORD97":171207.568409,"N_COORD97":2551014.1329800002,"ADDRESS":"長和路一段５５９巷７號","OBJECTID":4835},"geometry":{"x":171207.56840900052,"y":2551014.132979}},{"attributes":{"ID":4836,"DIS_CODE":0,"TOWNNAME":"安南區","LI":"東和里","LIN":"7鄰","STREET":"長和路","SECT":"一段","MAREA":" ","LANE":"５５９巷","ALLEY":" ","HOUSE_NO":"９號","E_COORD97":171204.18013200001,"N_COORD97":2551010.1113100001,"ADDRESS":"長和路一段５５９巷９號","OBJECTID":4836},"geometry":{"x":171204.18013200071,"y":2551010.1113150027}},{"attributes":{"ID":4837,"DIS_CODE":0,"TOWNNAME":"安南區","LI":"東和里","LIN":"7鄰","STREET":"長和路","SECT":"一段","MAREA":" ","LANE":"５５９巷","ALLEY":" ","HOUSE_NO":"１１號","E_COORD97":171200.36832099999,"N_COORD97":2551006.5129800001,"ADDRESS":"長和路一段５５９巷１１號","OBJECTID":4837},"geometry":{"x":171200.3683210006,"y":2551006.5129829999}},{"attributes":{"ID":4838,"DIS_CODE":0,"TOWNNAME":"安南區","LI":"東和里","LIN":"7鄰","STREET":"長和路","SECT":"一段","MAREA":" ","LANE":"５５９巷","ALLEY":" ","HOUSE_NO":"１３號","E_COORD97":171196.13297499999,"N_COORD97":2551003.9729800001,"ADDRESS":"長和路一段５５９巷１３號","OBJECTID":4838},"geometry":{"x":171196.13297499996,"y":2551003.9729850013}},{"attributes":{"ID":4839,"DIS_CODE":0,"TOWNNAME":"安南區","LI":"東和里","LIN":"7鄰","STREET":"長和路","SECT":"一段","MAREA":" ","LANE":"５５９巷","ALLEY":" ","HOUSE_NO":"１５號","E_COORD97":171192.744699,"N_COORD97":2551000.5863199998,"ADDRESS":"長和路一段５５９巷１５號","OBJECTID":4839},"geometry":{"x":171192.74469900131,"y":2551000.5863199998}},{"attributes":{"ID":4840,"DIS_CODE":0,"TOWNNAME":"安南區","LI":"東和里","LIN":"7鄰","STREET":"長和路","SECT":"一段","MAREA":" ","LANE":"５５９巷","ALLEY":" ","HOUSE_NO":"１７號","E_COORD97":171188.93288800001,"N_COORD97":2550996.9879899998,"ADDRESS":"長和路一段５５９巷１７號","OBJECTID":4840},"geometry":{"x":171188.93288800213,"y":2550996.987987997}},{"attributes":{"ID":4841,"DIS_CODE":0,"TOWNNAME":"安南區","LI":"東和里","LIN":"7鄰","STREET":"長和路","SECT":"一段","MAREA":" ","LANE":"５５９巷","ALLEY":" ","HOUSE_NO":"１９號","E_COORD97":171185.33284399999,"N_COORD97":2550993.6013199999,"ADDRESS":"長和路一段５５９巷１９號","OBJECTID":4841},"geometry":{"x":171185.33284400124,"y":2550993.6013240013}},{"attributes":{"ID":4842,"DIS_CODE":0,"TOWNNAME":"安南區","LI":"東和里","LIN":"7鄰","STREET":"長和路","SECT":"一段","MAREA":" ","LANE":"５５９巷","ALLEY":" ","HOUSE_NO":"２１號","E_COORD97":171180.88573099999,"N_COORD97":2550990.6379900002,"ADDRESS":"長和路一段５５９巷２１號","OBJECTID":4842},"geometry":{"x":171180.88573100138,"y":2550990.6379920021}},{"attributes":{"ID":4843,"DIS_CODE":0,"TOWNNAME":"安平區","LI":"平安里","LIN":"10鄰","STREET":"安平路","SECT":" ","MAREA":" ","LANE":" ","ALLEY":" ","HOUSE_NO":"４６０號之３","E_COORD97":165236.92837000001,"N_COORD97":2544324.9278600002,"ADDRESS":"安平路４６０號之３","OBJECTID":4843},"geometry":{"x":165236.92837000079,"y":2544324.9278600011}},{"attributes":{"ID":4844,"DIS_CODE":0,"TOWNNAME":"安南區","LI":"東和里","LIN":"7鄰","STREET":"長和路","SECT":"一段","MAREA":" ","LANE":"５５９巷","ALLEY":" ","HOUSE_NO":"２３號","E_COORD97":171178.34452300001,"N_COORD97":2550988.5213299999,"ADDRESS":"長和路一段５５９巷２３號","OBJECTID":4844},"geometry":{"x":171178.34452300053,"y":2550988.5213260017}},{"attributes":{"ID":4845,"DIS_CODE":0,"TOWNNAME":"安南區","LI":"東和里","LIN":"7鄰","STREET":"長和路","SECT":"一段","MAREA":" ","LANE":"５５９巷","ALLEY":" ","HOUSE_NO":"２５號","E_COORD97":171174.95624699999,"N_COORD97":2550985.5579900001,"ADDRESS":"長和路一段５５９巷２５號","OBJECTID":4845},"geometry":{"x":171174.95624699909,"y":2550985.557994999}},{"attributes":{"ID":4846,"DIS_CODE":0,"TOWNNAME":"安南區","LI":"東和里","LIN":"7鄰","STREET":"長和路","SECT":"一段","MAREA":" ","LANE":"５５９巷","ALLEY":" ","HOUSE_NO":"２７號","E_COORD97":171170.93266799999,"N_COORD97":2550982.1713299998,"ADDRESS":"長和路一段５５９巷２７號","OBJECTID":4846},"geometry":{"x":171170.93266800139,"y":2550982.1713299975}},{"attributes":{"ID":4847,"DIS_CODE":0,"TOWNNAME":"安南區","LI":"東和里","LIN":"7鄰","STREET":"長和路","SECT":"一段","MAREA":" ","LANE":"５５９巷","ALLEY":" ","HOUSE_NO":"２９號","E_COORD97":171167.120857,"N_COORD97":2550979.4196600001,"ADDRESS":"長和路一段５５９巷２９號","OBJECTID":4847},"geometry":{"x":171167.12085700221,"y":2550979.4196650013}},{"attributes":{"ID":4848,"DIS_CODE":0,"TOWNNAME":"安南區","LI":"東和里","LIN":"7鄰","STREET":"長和路","SECT":"一段","MAREA":" ","LANE":"５５９巷","ALLEY":" ","HOUSE_NO":"３１號","E_COORD97":171164.15611499999,"N_COORD97":2550975.398,"ADDRESS":"長和路一段５５９巷３１號","OBJECTID":4848},"geometry":{"x":171164.15611500107,"y":2550975.3980000019}},{"attributes":{"ID":4849,"DIS_CODE":0,"TOWNNAME":"安南區","LI":"東和里","LIN":"7鄰","STREET":"長和路","SECT":"一段","MAREA":" ","LANE":"５５９巷","ALLEY":" ","HOUSE_NO":"３３號","E_COORD97":171160.556071,"N_COORD97":2550973.2813300001,"ADDRESS":"長和路一段５５９巷３３號","OBJECTID":4849},"geometry":{"x":171160.55607100017,"y":2550973.2813349999}},{"attributes":{"ID":4850,"DIS_CODE":0,"TOWNNAME":"安平區","LI":"平安里","LIN":"13鄰","STREET":"安平路","SECT":" ","MAREA":" ","LANE":"５５０巷","ALLEY":"１７弄","HOUSE_NO":"２號三樓之１","E_COORD97":164998.10859799999,"N_COORD97":2544436.2644699998,"ADDRESS":"安平路５５０巷１７弄２號三樓之１","OBJECTID":4850},"geometry":{"x":164998.1085980013,"y":2544436.2644730005}},{"attributes":{"ID":4851,"DIS_CODE":0,"TOWNNAME":"安南區","LI":"東和里","LIN":"7鄰","STREET":"長和路","SECT":"一段","MAREA":" ","LANE":"５５９巷","ALLEY":" ","HOUSE_NO":"３５號","E_COORD97":171158.43839900001,"N_COORD97":2550969.6830000002,"ADDRESS":"長和路一段５５９巷３５號","OBJECTID":4851},"geometry":{"x":171158.43839900009,"y":2550969.6830030028}},{"attributes":{"ID":4852,"DIS_CODE":0,"TOWNNAME":"安南區","LI":"東和里","LIN":"7鄰","STREET":"長和路","SECT":"一段","MAREA":" ","LANE":"５５９巷","ALLEY":" ","HOUSE_NO":"３７號","E_COORD97":171155.05012199999,"N_COORD97":2550967.1430100002,"ADDRESS":"長和路一段５５９巷３７號","OBJECTID":4852},"geometry":{"x":171155.05012200028,"y":2550967.1430050023}},{"attributes":{"ID":4853,"DIS_CODE":0,"TOWNNAME":"安平區","LI":"平安里","LIN":"13鄰","STREET":"安平路","SECT":" ","MAREA":" ","LANE":" ","ALLEY":" ","HOUSE_NO":"５５６號","E_COORD97":164975.6464,"N_COORD97":2544367.8961800002,"ADDRESS":"安平路５５６號","OBJECTID":4853},"geometry":{"x":164975.64639999997,"y":2544367.8961760011}},{"attributes":{"ID":4854,"DIS_CODE":0,"TOWNNAME":"安平區","LI":"平安里","LIN":"17鄰","STREET":"安平路","SECT":" ","MAREA":" ","LANE":" ","ALLEY":" ","HOUSE_NO":"６３８號","E_COORD97":164737.88615800001,"N_COORD97":2544437.1111400002,"ADDRESS":"安平路６３８號","OBJECTID":4854},"geometry":{"x":164737.88615800161,"y":2544437.1111390032}},{"attributes":{"ID":4855,"DIS_CODE":0,"TOWNNAME":"安南區","LI":"東和里","LIN":"7鄰","STREET":"長和路","SECT":"一段","MAREA":" ","LANE":"５５９巷","ALLEY":" ","HOUSE_NO":"４１號","E_COORD97":171148.27356900001,"N_COORD97":2550960.7070599999,"ADDRESS":"長和路一段５５９巷４１號","OBJECTID":4855},"geometry":{"x":171148.27356899995,"y":2550960.7070550006}},{"attributes":{"ID":4856,"DIS_CODE":0,"TOWNNAME":"安南區","LI":"東和里","LIN":"7鄰","STREET":"長和路","SECT":"一段","MAREA":" ","LANE":"５５９巷","ALLEY":" ","HOUSE_NO":"３９號","E_COORD97":171151.45007799999,"N_COORD97":2550963.96801,"ADDRESS":"長和路一段５５９巷３９號","OBJECTID":4856},"geometry":{"x":171151.45007800125,"y":2550963.9680059981}},{"attributes":{"ID":4857,"DIS_CODE":0,"TOWNNAME":"安平區","LI":"平安里","LIN":"1鄰","STREET":"安平路","SECT":" ","MAREA":" ","LANE":" ","ALLEY":" ","HOUSE_NO":"８４號","E_COORD97":166398.60542499999,"N_COORD97":2544322.8111999999,"ADDRESS":"安平路８４號","OBJECTID":4857},"geometry":{"x":166398.60542500112,"y":2544322.8112009987}},{"attributes":{"ID":4858,"DIS_CODE":0,"TOWNNAME":"安平區","LI":"平安里","LIN":"1鄰","STREET":"安平路","SECT":" ","MAREA":" ","LANE":" ","ALLEY":" ","HOUSE_NO":"８２號","E_COORD97":166402.63166799999,"N_COORD97":2544321.96453,"ADDRESS":"安平路８２號","OBJECTID":4858},"geometry":{"x":166402.63166800048,"y":2544321.9645339996}},{"attributes":{"ID":4859,"DIS_CODE":0,"TOWNNAME":"安南區","LI":"東和里","LIN":"7鄰","STREET":"長和路","SECT":"一段","MAREA":" ","LANE":"５５９巷","ALLEY":" ","HOUSE_NO":"４３號","E_COORD97":171145.09706,"N_COORD97":2550957.7437200001,"ADDRESS":"長和路一段５５９巷４３號","OBJECTID":4859},"geometry":{"x":171145.09706000052,"y":2550957.7437240016}},{"attributes":{"ID":4860,"DIS_CODE":0,"TOWNNAME":"安南區","LI":"東和里","LIN":"7鄰","STREET":"長和路","SECT":"一段","MAREA":" ","LANE":"５５９巷","ALLEY":" ","HOUSE_NO":"４５號","E_COORD97":171141.285248,"N_COORD97":2550954.9920600001,"ADDRESS":"長和路一段５５９巷４５號","OBJECTID":4860},"geometry":{"x":171141.28524800111,"y":2550954.9920580015}},{"attributes":{"ID":4861,"DIS_CODE":0,"TOWNNAME":"安南區","LI":"東和里","LIN":"7鄰","STREET":"長和路","SECT":"一段","MAREA":" ","LANE":"５５９巷","ALLEY":" ","HOUSE_NO":"５１號","E_COORD97":171138.955808,"N_COORD97":2550952.0287299999,"ADDRESS":"長和路一段５５９巷５１號","OBJECTID":4861},"geometry":{"x":171138.95580800064,"y":2550952.0287270024}},{"attributes":{"ID":4862,"DIS_CODE":0,"TOWNNAME":"安南區","LI":"東和里","LIN":"7鄰","STREET":"長和路","SECT":"一段","MAREA":" ","LANE":"５２７巷","ALLEY":" ","HOUSE_NO":"２號","E_COORD97":171233.615785,"N_COORD97":2551009.1787,"ADDRESS":"長和路一段５２７巷２號","OBJECTID":4862},"geometry":{"x":171233.61578499991,"y":2551009.1786960009}},{"attributes":{"ID":4863,"DIS_CODE":0,"TOWNNAME":"安南區","LI":"東和里","LIN":"7鄰","STREET":"長和路","SECT":"一段","MAREA":" ","LANE":"５２７巷","ALLEY":" ","HOUSE_NO":"６號","E_COORD97":171229.80397400001,"N_COORD97":2551006.0036999998,"ADDRESS":"長和路一段５２７巷６號","OBJECTID":4863},"geometry":{"x":171229.80397400074,"y":2551006.0036970023}},{"attributes":{"ID":4864,"DIS_CODE":0,"TOWNNAME":"安南區","LI":"東和里","LIN":"7鄰","STREET":"長和路","SECT":"一段","MAREA":" ","LANE":"５２７巷","ALLEY":" ","HOUSE_NO":"８號","E_COORD97":171226.20392999999,"N_COORD97":2551002.4053699998,"ADDRESS":"長和路一段５２７巷８號","OBJECTID":4864},"geometry":{"x":171226.20392999984,"y":2551002.4053659998}},{"attributes":{"ID":4865,"DIS_CODE":0,"TOWNNAME":"關廟區","LI":"布袋里","LIN":"8鄰","STREET":"長文街","SECT":" ","MAREA":" ","LANE":"３２８巷","ALLEY":" ","HOUSE_NO":"９號","E_COORD97":182070.48676,"N_COORD97":2534979.0074999998,"ADDRESS":"長文街３２８巷９號","OBJECTID":4865},"geometry":{"x":182070.4867600007,"y":2534979.0075000022}},{"attributes":{"ID":4866,"DIS_CODE":0,"TOWNNAME":"關廟區","LI":"布袋里","LIN":"8鄰","STREET":"長文街","SECT":" ","MAREA":" ","LANE":" ","ALLEY":" ","HOUSE_NO":"３３８號","E_COORD97":182075.14945900001,"N_COORD97":2535002.8993700002,"ADDRESS":"長文街３３８號","OBJECTID":4866},"geometry":{"x":182075.14945900068,"y":2535002.8993660025}},{"attributes":{"ID":4867,"DIS_CODE":0,"TOWNNAME":"關廟區","LI":"布袋里","LIN":"8鄰","STREET":"長文街","SECT":" ","MAREA":" ","LANE":" ","ALLEY":" ","HOUSE_NO":"３３６號","E_COORD97":182071.33452400001,"N_COORD97":2535002.3701999998,"ADDRESS":"長文街３３６號","OBJECTID":4867},"geometry":{"x":182071.33452400006,"y":2535002.3702000026}},{"attributes":{"ID":4868,"DIS_CODE":0,"TOWNNAME":"關廟區","LI":"布袋里","LIN":"8鄰","STREET":"長文街","SECT":" ","MAREA":" ","LANE":" ","ALLEY":" ","HOUSE_NO":"３３０號","E_COORD97":182061.37330599999,"N_COORD97":2535004.6985300002,"ADDRESS":"長文街３３０號","OBJECTID":4868},"geometry":{"x":182061.37330599967,"y":2535004.6985320002}},{"attributes":{"ID":4869,"DIS_CODE":0,"TOWNNAME":"安南區","LI":"東和里","LIN":"7鄰","STREET":"長和路","SECT":"一段","MAREA":" ","LANE":"５２７巷","ALLEY":" ","HOUSE_NO":"６６號","E_COORD97":171138.532274,"N_COORD97":2550919.4320800002,"ADDRESS":"長和路一段５２７巷６６號","OBJECTID":4869},"geometry":{"x":171138.53227400035,"y":2550919.432078002}},{"attributes":{"ID":4870,"DIS_CODE":0,"TOWNNAME":"關廟區","LI":"布袋里","LIN":"8鄰","STREET":"長文街","SECT":" ","MAREA":" ","LANE":" ","ALLEY":" ","HOUSE_NO":"３３２號","E_COORD97":182066.03600399999,"N_COORD97":2535004.4868600001,"ADDRESS":"長文街３３２號","OBJECTID":4870},"geometry":{"x":182066.03600400034,"y":2535004.4868649989}},{"attributes":{"ID":4871,"DIS_CODE":0,"TOWNNAME":"安南區","LI":"東和里","LIN":"7鄰","STREET":"長和路","SECT":"一段","MAREA":" ","LANE":"５２７巷","ALLEY":" ","HOUSE_NO":"６２號","E_COORD97":171141.92055000001,"N_COORD97":2550924.3004100001,"ADDRESS":"長和路一段５２７巷６２號","OBJECTID":4871},"geometry":{"x":171141.92055000179,"y":2550924.3004080001}},{"attributes":{"ID":4872,"DIS_CODE":0,"TOWNNAME":"安南區","LI":"東和里","LIN":"7鄰","STREET":"長和路","SECT":"一段","MAREA":" ","LANE":"５２７巷","ALLEY":" ","HOUSE_NO":"６０號","E_COORD97":171146.79119799999,"N_COORD97":2550927.2637399998,"ADDRESS":"長和路一段５２７巷６０號","OBJECTID":4872},"geometry":{"x":171146.79119800031,"y":2550927.2637400031}},{"attributes":{"ID":4873,"DIS_CODE":0,"TOWNNAME":"關廟區","LI":"布袋里","LIN":"8鄰","STREET":"長文街","SECT":" ","MAREA":" ","LANE":" ","ALLEY":" ","HOUSE_NO":"３４２號","E_COORD97":182085.74650099999,"N_COORD97":2534988.8235399998,"ADDRESS":"長文街３４２號","OBJECTID":4873},"geometry":{"x":182085.7465010006,"y":2534988.823540004}},{"attributes":{"ID":4874,"DIS_CODE":0,"TOWNNAME":"安南區","LI":"東和里","LIN":"7鄰","STREET":"長和路","SECT":"一段","MAREA":" ","LANE":"５２７巷","ALLEY":" ","HOUSE_NO":"５８號","E_COORD97":171150.179474,"N_COORD97":2550930.4387400001,"ADDRESS":"長和路一段５２７巷５８號","OBJECTID":4874},"geometry":{"x":171150.17947400082,"y":2550930.4387380015}},{"attributes":{"ID":4875,"DIS_CODE":0,"TOWNNAME":"關廟區","LI":"布袋里","LIN":"8鄰","STREET":"長文街","SECT":" ","MAREA":" ","LANE":"３５０巷","ALLEY":" ","HOUSE_NO":"１５號","E_COORD97":182115.20627,"N_COORD97":2534940.9868999999,"ADDRESS":"長文街３５０巷１５號","OBJECTID":4875},"geometry":{"x":182115.20626999997,"y":2534940.9868999999}},{"attributes":{"ID":4876,"DIS_CODE":0,"TOWNNAME":"安南區","LI":"東和里","LIN":"7鄰","STREET":"長和路","SECT":"一段","MAREA":" ","LANE":"５２７巷","ALLEY":" ","HOUSE_NO":"５０號","E_COORD97":171160.97960600001,"N_COORD97":2550941.8687300002,"ADDRESS":"長和路一段５２７巷５０號","OBJECTID":4876},"geometry":{"x":171160.97960599978,"y":2550941.8687319998}},{"attributes":{"ID":4877,"DIS_CODE":0,"TOWNNAME":"安南區","LI":"東和里","LIN":"7鄰","STREET":"長和路","SECT":"一段","MAREA":" ","LANE":"５２７巷","ALLEY":" ","HOUSE_NO":"５６號","E_COORD97":171152.72068200001,"N_COORD97":2550934.4604000002,"ADDRESS":"長和路一段５２７巷５６號","OBJECTID":4877},"geometry":{"x":171152.72068199981,"y":2550934.4604030028}},{"attributes":{"ID":4878,"DIS_CODE":0,"TOWNNAME":"安南區","LI":"東和里","LIN":"7鄰","STREET":"長和路","SECT":"一段","MAREA":" ","LANE":"５２７巷","ALLEY":" ","HOUSE_NO":"５２號","E_COORD97":171156.53249300001,"N_COORD97":2550938.6937299999,"ADDRESS":"長和路一段５２７巷５２號","OBJECTID":4878},"geometry":{"x":171156.53249299899,"y":2550938.6937339995}},{"attributes":{"ID":4879,"DIS_CODE":0,"TOWNNAME":"安南區","LI":"東和里","LIN":"7鄰","STREET":"長和路","SECT":"一段","MAREA":" ","LANE":"５２７巷","ALLEY":" ","HOUSE_NO":"３６號","E_COORD97":171180.04344800001,"N_COORD97":2550959.5754999998,"ADDRESS":"長和路一段５２７巷３６號","OBJECTID":4879},"geometry":{"x":171180.04344800021,"y":2550959.5755010005}},{"attributes":{"ID":4880,"DIS_CODE":0,"TOWNNAME":"安南區","LI":"東和里","LIN":"7鄰","STREET":"長和路","SECT":"一段","MAREA":" ","LANE":"５２７巷","ALLEY":" ","HOUSE_NO":"４６號","E_COORD97":171165.42671900001,"N_COORD97":2550945.2554000001,"ADDRESS":"長和路一段５２７巷４６號","OBJECTID":4880},"geometry":{"x":171165.42671899963,"y":2550945.2553970013}},{"attributes":{"ID":4881,"DIS_CODE":0,"TOWNNAME":"安南區","LI":"東和里","LIN":"7鄰","STREET":"長和路","SECT":"一段","MAREA":" ","LANE":"５２７巷","ALLEY":" ","HOUSE_NO":"４２號","E_COORD97":171168.39146099999,"N_COORD97":2550949.0653900001,"ADDRESS":"長和路一段５２７巷４２號","OBJECTID":4881},"geometry":{"x":171168.39146099985,"y":2550949.0653949995}},{"attributes":{"ID":4882,"DIS_CODE":0,"TOWNNAME":"關廟區","LI":"布袋里","LIN":"8鄰","STREET":"長文街","SECT":" ","MAREA":" ","LANE":"３２６巷","ALLEY":" ","HOUSE_NO":"１號","E_COORD97":182051.83596900001,"N_COORD97":2535012.8476900002,"ADDRESS":"長文街３２６巷１號","OBJECTID":4882},"geometry":{"x":182051.83596900012,"y":2535012.8476940021}},{"attributes":{"ID":4883,"DIS_CODE":0,"TOWNNAME":"仁德區","LI":"中洲里","LIN":"1鄰","STREET":" ","SECT":" ","MAREA":"中洲","LANE":" ","ALLEY":" ","HOUSE_NO":"１號之８","E_COORD97":173897.33365099999,"N_COORD97":2534379.9078600002,"ADDRESS":"中洲１號之８","OBJECTID":4883},"geometry":{"x":173897.3336509997,"y":2534379.9078589994}},{"attributes":{"ID":4884,"DIS_CODE":0,"TOWNNAME":"安南區","LI":"東和里","LIN":"7鄰","STREET":"長和路","SECT":"一段","MAREA":" ","LANE":"５２７巷","ALLEY":" ","HOUSE_NO":"４０號","E_COORD97":171171.982556,"N_COORD97":2550951.9555100002,"ADDRESS":"長和路一段５２７巷４０號","OBJECTID":4884},"geometry":{"x":171171.98255600128,"y":2550951.9555050023}},{"attributes":{"ID":4885,"DIS_CODE":0,"TOWNNAME":"安南區","LI":"東和里","LIN":"7鄰","STREET":"長和路","SECT":"一段","MAREA":" ","LANE":"５２７巷","ALLEY":" ","HOUSE_NO":"３８號","E_COORD97":171176.43726000001,"N_COORD97":2550955.7655000002,"ADDRESS":"長和路一段５２７巷３８號","OBJECTID":4885},"geometry":{"x":171176.43726000004,"y":2550955.7655030023}},{"attributes":{"ID":4886,"DIS_CODE":0,"TOWNNAME":"安南區","LI":"東和里","LIN":"7鄰","STREET":"長和路","SECT":"一段","MAREA":" ","LANE":"５２７巷","ALLEY":" ","HOUSE_NO":"３２號","E_COORD97":171184.07389500001,"N_COORD97":2550962.9621700002,"ADDRESS":"長和路一段５２７巷３２號","OBJECTID":4886},"geometry":{"x":171184.07389499992,"y":2550962.962166002}},{"attributes":{"ID":4887,"DIS_CODE":0,"TOWNNAME":"安南區","LI":"東和里","LIN":"7鄰","STREET":"長和路","SECT":"一段","MAREA":" ","LANE":"５２７巷","ALLEY":" ","HOUSE_NO":"３０號","E_COORD97":171187.25582600001,"N_COORD97":2550966.9838299998,"ADDRESS":"長和路一段５２７巷３０號","OBJECTID":4887},"geometry":{"x":171187.25582599919,"y":2550966.9838299993}},{"attributes":{"ID":4888,"DIS_CODE":0,"TOWNNAME":"安南區","LI":"東和里","LIN":"7鄰","STREET":"長和路","SECT":"一段","MAREA":" ","LANE":"５２７巷","ALLEY":" ","HOUSE_NO":"２８號","E_COORD97":171190.86201499999,"N_COORD97":2550971.4288300001,"ADDRESS":"長和路一段５２７巷２８號","OBJECTID":4888},"geometry":{"x":171190.86201499961,"y":2550971.4288280029}},{"attributes":{"ID":4889,"DIS_CODE":0,"TOWNNAME":"安南區","LI":"東和里","LIN":"7鄰","STREET":"長和路","SECT":"一段","MAREA":" ","LANE":"５２７巷","ALLEY":" ","HOUSE_NO":"２０號","E_COORD97":171203.430643,"N_COORD97":2550981.8269500001,"ADDRESS":"長和路一段５２７巷２０號","OBJECTID":4889},"geometry":{"x":171203.43064300064,"y":2550981.8269469999}},{"attributes":{"ID":4890,"DIS_CODE":0,"TOWNNAME":"安南區","LI":"東和里","LIN":"7鄰","STREET":"長和路","SECT":"一段","MAREA":" ","LANE":"５２７巷","ALLEY":" ","HOUSE_NO":"７號","E_COORD97":171234.23756099999,"N_COORD97":2550986.1000299999,"ADDRESS":"長和路一段５２７巷７號","OBJECTID":4890},"geometry":{"x":171234.23756100051,"y":2550986.1000330038}},{"attributes":{"ID":4891,"DIS_CODE":0,"TOWNNAME":"安南區","LI":"東和里","LIN":"7鄰","STREET":"長和路","SECT":"一段","MAREA":" ","LANE":"５２７巷","ALLEY":" ","HOUSE_NO":"２２號","E_COORD97":171198.76381,"N_COORD97":2550978.0169500001,"ADDRESS":"長和路一段５２７巷２２號","OBJECTID":4891},"geometry":{"x":171198.76381000131,"y":2550978.0169489998}},{"attributes":{"ID":4892,"DIS_CODE":0,"TOWNNAME":"安南區","LI":"東和里","LIN":"7鄰","STREET":"長和路","SECT":"一段","MAREA":" ","LANE":"５２７巷","ALLEY":" ","HOUSE_NO":"２６號","E_COORD97":171194.73336400001,"N_COORD97":2550973.99529,"ADDRESS":"長和路一段５２７巷２６號","OBJECTID":4892},"geometry":{"x":171194.73336400092,"y":2550973.9952850025}},{"attributes":{"ID":4893,"DIS_CODE":0,"TOWNNAME":"安南區","LI":"東和里","LIN":"7鄰","STREET":"長和路","SECT":"一段","MAREA":" ","LANE":"５２７巷","ALLEY":" ","HOUSE_NO":"１８號","E_COORD97":171208.73386199999,"N_COORD97":2550987.1186099998,"ADDRESS":"長和路一段５２７巷１８號","OBJECTID":4893},"geometry":{"x":171208.73386200052,"y":2550987.1186110005}},{"attributes":{"ID":4894,"DIS_CODE":0,"TOWNNAME":"安南區","LI":"東和里","LIN":"7鄰","STREET":"長和路","SECT":"一段","MAREA":" ","LANE":"５２７巷","ALLEY":" ","HOUSE_NO":"１號","E_COORD97":171246.31834599999,"N_COORD97":2550996.47169,"ADDRESS":"長和路一段５２７巷１號","OBJECTID":4894},"geometry":{"x":171246.31834600028,"y":2550996.4716950022}},{"attributes":{"ID":4895,"DIS_CODE":0,"TOWNNAME":"安南區","LI":"東和里","LIN":"7鄰","STREET":"長和路","SECT":"一段","MAREA":" ","LANE":"５２７巷","ALLEY":" ","HOUSE_NO":"３號","E_COORD97":171241.65558699999,"N_COORD97":2550992.6617000001,"ADDRESS":"長和路一段５２７巷３號","OBJECTID":4895},"geometry":{"x":171241.65558699891,"y":2550992.661697004}},{"attributes":{"ID":4896,"DIS_CODE":0,"TOWNNAME":"安南區","LI":"東和里","LIN":"7鄰","STREET":"長和路","SECT":"一段","MAREA":" ","LANE":"５２７巷","ALLEY":" ","HOUSE_NO":"１０號","E_COORD97":171222.20403699999,"N_COORD97":2550999.1836000001,"ADDRESS":"長和路一段５２７巷１０號","OBJECTID":4896},"geometry":{"x":171222.20403699949,"y":2550999.1836050022}},{"attributes":{"ID":4897,"DIS_CODE":0,"TOWNNAME":"安南區","LI":"東和里","LIN":"7鄰","STREET":"長和路","SECT":"一段","MAREA":" ","LANE":"５２７巷","ALLEY":" ","HOUSE_NO":"１２號","E_COORD97":171218.597848,"N_COORD97":2550995.69111,"ADDRESS":"長和路一段５２７巷１２號","OBJECTID":4897},"geometry":{"x":171218.597848,"y":2550995.6911060009}},{"attributes":{"ID":4898,"DIS_CODE":0,"TOWNNAME":"安南區","LI":"東和里","LIN":"7鄰","STREET":"長和路","SECT":"一段","MAREA":" ","LANE":"５２７巷","ALLEY":" ","HOUSE_NO":"１６號","E_COORD97":171214.56740199999,"N_COORD97":2550991.7752700001,"ADDRESS":"長和路一段５２７巷１６號","OBJECTID":4898},"geometry":{"x":171214.56740199961,"y":2550991.7752750013}},{"attributes":{"ID":4899,"DIS_CODE":0,"TOWNNAME":"安南區","LI":"東和里","LIN":"7鄰","STREET":"長和路","SECT":"一段","MAREA":" ","LANE":"５２７巷","ALLEY":" ","HOUSE_NO":"５號","E_COORD97":171238.90031999999,"N_COORD97":2550989.2750300001,"ADDRESS":"長和路一段５２７巷５號","OBJECTID":4899},"geometry":{"x":171238.90032000095,"y":2550989.2750320025}},{"attributes":{"ID":4900,"DIS_CODE":0,"TOWNNAME":"安南區","LI":"東和里","LIN":"7鄰","STREET":"長和路","SECT":"一段","MAREA":" ","LANE":"５２７巷","ALLEY":" ","HOUSE_NO":"９號","E_COORD97":171230.63451900001,"N_COORD97":2550982.92503,"ADDRESS":"長和路一段５２７巷９號","OBJECTID":4900},"geometry":{"x":171230.63451900054,"y":2550982.9250349998}},{"attributes":{"ID":4901,"DIS_CODE":0,"TOWNNAME":"安南區","LI":"東和里","LIN":"7鄰","STREET":"長和路","SECT":"一段","MAREA":" ","LANE":"５２７巷","ALLEY":" ","HOUSE_NO":"１１號","E_COORD97":171227.03147799999,"N_COORD97":2550979.3267000001,"ADDRESS":"長和路一段５２７巷１１號","OBJECTID":4901},"geometry":{"x":171227.0314780008,"y":2550979.3267040011}},{"attributes":{"ID":4902,"DIS_CODE":0,"TOWNNAME":"安南區","LI":"東和里","LIN":"7鄰","STREET":"長和路","SECT":"一段","MAREA":" ","LANE":"５２７巷","ALLEY":" ","HOUSE_NO":"１３號","E_COORD97":171222.792606,"N_COORD97":2550975.9400399998,"ADDRESS":"長和路一段５２７巷１３號","OBJECTID":4902},"geometry":{"x":171222.79260600079,"y":2550975.9400389995}},{"attributes":{"ID":4903,"DIS_CODE":0,"TOWNNAME":"安南區","LI":"東和里","LIN":"7鄰","STREET":"長和路","SECT":"一段","MAREA":" ","LANE":"５２７巷","ALLEY":" ","HOUSE_NO":"１５號","E_COORD97":171218.765678,"N_COORD97":2550972.3417099998,"ADDRESS":"長和路一段５２７巷１５號","OBJECTID":4903},"geometry":{"x":171218.76567799971,"y":2550972.3417080026}},{"attributes":{"ID":4904,"DIS_CODE":0,"TOWNNAME":"安南區","LI":"東和里","LIN":"7鄰","STREET":"長和路","SECT":"一段","MAREA":" ","LANE":"５２７巷","ALLEY":" ","HOUSE_NO":"１７號","E_COORD97":171214.52680600001,"N_COORD97":2550968.5317099998,"ADDRESS":"長和路一段５２７巷１７號","OBJECTID":4904},"geometry":{"x":171214.52680599969,"y":2550968.5317099988}},{"attributes":{"ID":4905,"DIS_CODE":0,"TOWNNAME":"安南區","LI":"東和里","LIN":"7鄰","STREET":"長和路","SECT":"一段","MAREA":" ","LANE":"５２７巷","ALLEY":" ","HOUSE_NO":"１９號","E_COORD97":171210.92376500001,"N_COORD97":2550965.5683800001,"ADDRESS":"長和路一段５２７巷１９號","OBJECTID":4905},"geometry":{"x":171210.92376499996,"y":2550965.5683780015}},{"attributes":{"ID":4906,"DIS_CODE":0,"TOWNNAME":"安南區","LI":"東和里","LIN":"7鄰","STREET":"長和路","SECT":"一段","MAREA":" ","LANE":"５２７巷","ALLEY":" ","HOUSE_NO":"２１號","E_COORD97":171207.10878000001,"N_COORD97":2550961.75838,"ADDRESS":"長和路一段５２７巷２１號","OBJECTID":4906},"geometry":{"x":171207.10878000036,"y":2550961.7583800014}},{"attributes":{"ID":4907,"DIS_CODE":0,"TOWNNAME":"安南區","LI":"東和里","LIN":"7鄰","STREET":"長和路","SECT":"一段","MAREA":" ","LANE":"５２７巷","ALLEY":" ","HOUSE_NO":"２３號","E_COORD97":171203.71768199999,"N_COORD97":2550958.3717100001,"ADDRESS":"長和路一段５２７巷２３號","OBJECTID":4907},"geometry":{"x":171203.71768200025,"y":2550958.3717149999}},{"attributes":{"ID":4908,"DIS_CODE":0,"TOWNNAME":"安南區","LI":"東和里","LIN":"7鄰","STREET":"長和路","SECT":"一段","MAREA":" ","LANE":"５２７巷","ALLEY":" ","HOUSE_NO":"２５號","E_COORD97":171199.266867,"N_COORD97":2550954.9850499998,"ADDRESS":"長和路一段５２７巷２５號","OBJECTID":4908},"geometry":{"x":171199.26686700061,"y":2550954.9850500003}},{"attributes":{"ID":4909,"DIS_CODE":0,"TOWNNAME":"安南區","LI":"東和里","LIN":"7鄰","STREET":"長和路","SECT":"一段","MAREA":" ","LANE":"５２７巷","ALLEY":" ","HOUSE_NO":"２７號","E_COORD97":171195.663826,"N_COORD97":2550950.3283899999,"ADDRESS":"長和路一段５２７巷２７號","OBJECTID":4909},"geometry":{"x":171195.66382600088,"y":2550950.3283859994}},{"attributes":{"ID":4910,"DIS_CODE":0,"TOWNNAME":"安南區","LI":"東和里","LIN":"7鄰","STREET":"長和路","SECT":"一段","MAREA":" ","LANE":"５２７巷","ALLEY":" ","HOUSE_NO":"２９號","E_COORD97":171191.21301000001,"N_COORD97":2550946.94172,"ADDRESS":"長和路一段５２７巷２９號","OBJECTID":4910},"geometry":{"x":171191.21301000193,"y":2550946.9417210016}},{"attributes":{"ID":4911,"DIS_CODE":0,"TOWNNAME":"安南區","LI":"東和里","LIN":"7鄰","STREET":"長和路","SECT":"一段","MAREA":" ","LANE":"５２７巷","ALLEY":" ","HOUSE_NO":"３１號","E_COORD97":171186.97413799999,"N_COORD97":2550943.5550600002,"ADDRESS":"長和路一段５２７巷３１號","OBJECTID":4911},"geometry":{"x":171186.97413800005,"y":2550943.555056002}},{"attributes":{"ID":4912,"DIS_CODE":0,"TOWNNAME":"安南區","LI":"東和里","LIN":"7鄰","STREET":"長和路","SECT":"一段","MAREA":" ","LANE":"５２７巷","ALLEY":" ","HOUSE_NO":"３３號","E_COORD97":171182.94721000001,"N_COORD97":2550940.3800599999,"ADDRESS":"長和路一段５２７巷３３號","OBJECTID":4912},"geometry":{"x":171182.94721000083,"y":2550940.3800580017}},{"attributes":{"ID":4913,"DIS_CODE":0,"TOWNNAME":"安南區","LI":"東和里","LIN":"7鄰","STREET":"長和路","SECT":"一段","MAREA":" ","LANE":"５２７巷","ALLEY":" ","HOUSE_NO":"３５號","E_COORD97":171179.979999,"N_COORD97":2550936.5700599998,"ADDRESS":"長和路一段５２７巷３５號","OBJECTID":4913},"geometry":{"x":171179.97999900114,"y":2550936.5700600035}},{"attributes":{"ID":4914,"DIS_CODE":0,"TOWNNAME":"安南區","LI":"東和里","LIN":"7鄰","STREET":"長和路","SECT":"一段","MAREA":" ","LANE":"５２７巷","ALLEY":" ","HOUSE_NO":"３７號","E_COORD97":171176.16501500001,"N_COORD97":2550933.6067300001,"ADDRESS":"長和路一段５２７巷３７號","OBJECTID":4914},"geometry":{"x":171176.16501500178,"y":2550933.6067280006}},{"attributes":{"ID":4915,"DIS_CODE":0,"TOWNNAME":"安南區","LI":"東和里","LIN":"7鄰","STREET":"長和路","SECT":"一段","MAREA":" ","LANE":"５２７巷","ALLEY":" ","HOUSE_NO":"３９號","E_COORD97":171172.35003,"N_COORD97":2550929.3733999999,"ADDRESS":"長和路一段５２７巷３９號","OBJECTID":4915},"geometry":{"x":171172.35003000032,"y":2550929.373397002}},{"attributes":{"ID":4916,"DIS_CODE":0,"TOWNNAME":"安南區","LI":"東和里","LIN":"7鄰","STREET":"長和路","SECT":"一段","MAREA":" ","LANE":"５２７巷","ALLEY":" ","HOUSE_NO":"４１號","E_COORD97":171168.535045,"N_COORD97":2550926.1984000001,"ADDRESS":"長和路一段５２７巷４１號","OBJECTID":4916},"geometry":{"x":171168.53504500072,"y":2550926.1983990036}},{"attributes":{"ID":4917,"DIS_CODE":0,"TOWNNAME":"安南區","LI":"東和里","LIN":"7鄰","STREET":"長和路","SECT":"一段","MAREA":" ","LANE":"５２７巷","ALLEY":" ","HOUSE_NO":"４３號","E_COORD97":171163.66034199999,"N_COORD97":2550922.17674,"ADDRESS":"長和路一段５２７巷４３號","OBJECTID":4917},"geometry":{"x":171163.66034200136,"y":2550922.1767350025}},{"attributes":{"ID":4918,"DIS_CODE":0,"TOWNNAME":"安南區","LI":"東和里","LIN":"7鄰","STREET":"長和路","SECT":"一段","MAREA":" ","LANE":"５２７巷","ALLEY":" ","HOUSE_NO":"５１號","E_COORD97":171160.905076,"N_COORD97":2550918.36674,"ADDRESS":"長和路一段５２７巷５１號","OBJECTID":4918},"geometry":{"x":171160.90507599991,"y":2550918.3667370025}},{"attributes":{"ID":4919,"DIS_CODE":0,"TOWNNAME":"安南區","LI":"東和里","LIN":"7鄰","STREET":"長和路","SECT":"一段","MAREA":" ","LANE":"５２７巷","ALLEY":" ","HOUSE_NO":"５３號","E_COORD97":171156.66620400001,"N_COORD97":2550915.1917400002,"ADDRESS":"長和路一段５２７巷５３號","OBJECTID":4919},"geometry":{"x":171156.66620399989,"y":2550915.1917379983}},{"attributes":{"ID":4920,"DIS_CODE":0,"TOWNNAME":"安南區","LI":"東和里","LIN":"7鄰","STREET":"長和路","SECT":"一段","MAREA":" ","LANE":"５２７巷","ALLEY":" ","HOUSE_NO":"５５號","E_COORD97":171152.851219,"N_COORD97":2550912.0167399999,"ADDRESS":"長和路一段５２７巷５５號","OBJECTID":4920},"geometry":{"x":171152.85121900123,"y":2550912.0167399999}},{"attributes":{"ID":4921,"DIS_CODE":0,"TOWNNAME":"安南區","LI":"東和里","LIN":"7鄰","STREET":"長和路","SECT":"一段","MAREA":" ","LANE":"５２７巷","ALLEY":" ","HOUSE_NO":"５７號","E_COORD97":171150.095952,"N_COORD97":2550907.9950799998,"ADDRESS":"長和路一段５２７巷５７號","OBJECTID":4921},"geometry":{"x":171150.09595200047,"y":2550907.9950760026}},{"attributes":{"ID":4922,"DIS_CODE":0,"TOWNNAME":"安南區","LI":"東和里","LIN":"7鄰","STREET":"館前一路","SECT":" ","MAREA":" ","LANE":"２６巷","ALLEY":"２弄","HOUSE_NO":"２號","E_COORD97":171298.244527,"N_COORD97":2550940.3800599999,"ADDRESS":"館前一路２６巷２弄２號","OBJECTID":4922},"geometry":{"x":171298.244527,"y":2550940.3800580017}},{"attributes":{"ID":4923,"DIS_CODE":0,"TOWNNAME":"安南區","LI":"東和里","LIN":"7鄰","STREET":"館前一路","SECT":" ","MAREA":" ","LANE":"２６巷","ALLEY":"２弄","HOUSE_NO":"６號","E_COORD97":171293.36982399999,"N_COORD97":2550935.5117299999,"ADDRESS":"館前一路２６巷２弄６號","OBJECTID":4923},"geometry":{"x":171293.3698239997,"y":2550935.5117269997}},{"attributes":{"ID":4924,"DIS_CODE":0,"TOWNNAME":"安南區","LI":"東和里","LIN":"7鄰","STREET":"館前一路","SECT":" ","MAREA":" ","LANE":"２６巷","ALLEY":"２弄","HOUSE_NO":"８號","E_COORD97":171288.707065,"N_COORD97":2550931.9134,"ADDRESS":"館前一路２６巷２弄８號","OBJECTID":4924},"geometry":{"x":171288.70706500206,"y":2550931.9133960027}},{"attributes":{"ID":4925,"DIS_CODE":0,"TOWNNAME":"安南區","LI":"東和里","LIN":"7鄰","STREET":"館前一路","SECT":" ","MAREA":" ","LANE":"２６巷","ALLEY":"２弄","HOUSE_NO":"１０號","E_COORD97":171284.46819300001,"N_COORD97":2550927.6800699998,"ADDRESS":"館前一路２６巷２弄１０號","OBJECTID":4925},"geometry":{"x":171284.46819300205,"y":2550927.6800650004}},{"attributes":{"ID":4926,"DIS_CODE":0,"TOWNNAME":"安南區","LI":"東和里","LIN":"7鄰","STREET":"館前一路","SECT":" ","MAREA":" ","LANE":"２６巷","ALLEY":"２弄","HOUSE_NO":"１號","E_COORD97":171246.106402,"N_COORD97":2550923.6584000001,"ADDRESS":"館前一路２６巷２弄１號","OBJECTID":4926},"geometry":{"x":171246.10640200134,"y":2550923.6584009994}},{"attributes":{"ID":4927,"DIS_CODE":0,"TOWNNAME":"安南區","LI":"東和里","LIN":"7鄰","STREET":"館前一路","SECT":" ","MAREA":" ","LANE":"２６巷","ALLEY":"２弄","HOUSE_NO":"３號","E_COORD97":171250.769161,"N_COORD97":2550929.3733999999,"ADDRESS":"館前一路２６巷２弄３號","OBJECTID":4927},"geometry":{"x":171250.76916099992,"y":2550929.373397002}},{"attributes":{"ID":4928,"DIS_CODE":0,"TOWNNAME":"安南區","LI":"東和里","LIN":"7鄰","STREET":"館前一路","SECT":" ","MAREA":" ","LANE":"２６巷","ALLEY":"２弄","HOUSE_NO":"５號","E_COORD97":171255.00803299999,"N_COORD97":2550933.39506,"ADDRESS":"館前一路２６巷２弄５號","OBJECTID":4928},"geometry":{"x":171255.008032999,"y":2550933.3950619977}},{"attributes":{"ID":4929,"DIS_CODE":0,"TOWNNAME":"安南區","LI":"東和里","LIN":"7鄰","STREET":"館前一路","SECT":" ","MAREA":" ","LANE":"２６巷","ALLEY":"２弄","HOUSE_NO":"７號","E_COORD97":171260.09468000001,"N_COORD97":2550937.8400599998,"ADDRESS":"館前一路２６巷２弄７號","OBJECTID":4929},"geometry":{"x":171260.0946800001,"y":2550937.8400600012}},{"attributes":{"ID":4930,"DIS_CODE":0,"TOWNNAME":"安南區","LI":"東和里","LIN":"7鄰","STREET":"館前一路","SECT":" ","MAREA":" ","LANE":"２６巷","ALLEY":"２弄","HOUSE_NO":"９號","E_COORD97":171264.75743900001,"N_COORD97":2550941.6500599999,"ADDRESS":"館前一路２６巷２弄９號","OBJECTID":4930},"geometry":{"x":171264.75743900053,"y":2550941.6500570029}},{"attributes":{"ID":4931,"DIS_CODE":0,"TOWNNAME":"安南區","LI":"東和里","LIN":"7鄰","STREET":"館前一路","SECT":" ","MAREA":" ","LANE":"２６巷","ALLEY":"２弄","HOUSE_NO":"１１號","E_COORD97":171267.93659299999,"N_COORD97":2550946.3067200002,"ADDRESS":"館前一路２６巷２弄１１號","OBJECTID":4931},"geometry":{"x":171267.93659299985,"y":2550946.3067220021}},{"attributes":{"ID":4932,"DIS_CODE":0,"TOWNNAME":"安南區","LI":"東和里","LIN":"7鄰","STREET":"館前一路","SECT":" ","MAREA":" ","LANE":"２６巷","ALLEY":"２弄","HOUSE_NO":"１３號","E_COORD97":171273.44712600001,"N_COORD97":2550950.54005,"ADDRESS":"館前一路２６巷２弄１３號","OBJECTID":4932},"geometry":{"x":171273.44712600019,"y":2550950.5400530007}},{"attributes":{"ID":4933,"DIS_CODE":0,"TOWNNAME":"安南區","LI":"東和里","LIN":"7鄰","STREET":"館前一路","SECT":" ","MAREA":" ","LANE":"２６巷","ALLEY":"２弄","HOUSE_NO":"１５號","E_COORD97":171277.05016700001,"N_COORD97":2550953.9267199999,"ADDRESS":"館前一路２６巷２弄１５號","OBJECTID":4933},"geometry":{"x":171277.05016699992,"y":2550953.9267180003}},{"attributes":{"ID":4934,"DIS_CODE":0,"TOWNNAME":"安南區","LI":"東和里","LIN":"7鄰","STREET":"館前一路","SECT":" ","MAREA":" ","LANE":"２６巷","ALLEY":"２弄","HOUSE_NO":"１７號","E_COORD97":171280.65320900001,"N_COORD97":2550957.94838,"ADDRESS":"館前一路２６巷２弄１７號","OBJECTID":4934},"geometry":{"x":171280.65320899989,"y":2550957.9483820014}},{"attributes":{"ID":4935,"DIS_CODE":0,"TOWNNAME":"安南區","LI":"東和里","LIN":"7鄰","STREET":"館前一路","SECT":" ","MAREA":" ","LANE":"２６巷","ALLEY":"２弄","HOUSE_NO":"２２號","E_COORD97":171262.00217200001,"N_COORD97":2550907.36008,"ADDRESS":"館前一路２６巷２弄２２號","OBJECTID":4935},"geometry":{"x":171262.00217199977,"y":2550907.3600759991}},{"attributes":{"ID":4936,"DIS_CODE":0,"TOWNNAME":"安南區","LI":"東和里","LIN":"7鄰","STREET":"館前一路","SECT":" ","MAREA":" ","LANE":"２６巷","ALLEY":"２弄","HOUSE_NO":"２０號","E_COORD97":171266.66493100001,"N_COORD97":2550911.3817400001,"ADDRESS":"館前一路２６巷２弄２０號","OBJECTID":4936},"geometry":{"x":171266.66493100114,"y":2550911.3817400001}},{"attributes":{"ID":4937,"DIS_CODE":0,"TOWNNAME":"安南區","LI":"東和里","LIN":"7鄰","STREET":"館前二路","SECT":" ","MAREA":" ","LANE":"８３巷","ALLEY":" ","HOUSE_NO":"８號","E_COORD97":171182.09943500001,"N_COORD97":2550889.7917499999,"ADDRESS":"館前二路８３巷８號","OBJECTID":4937},"geometry":{"x":171182.09943499975,"y":2550889.7917519994}},{"attributes":{"ID":4938,"DIS_CODE":0,"TOWNNAME":"安南區","LI":"東和里","LIN":"7鄰","STREET":"館前一路","SECT":" ","MAREA":" ","LANE":"２６巷","ALLEY":"２弄","HOUSE_NO":"１２號","E_COORD97":171281.07709599999,"N_COORD97":2550923.8700700002,"ADDRESS":"館前一路２６巷２弄１２號","OBJECTID":4938},"geometry":{"x":171281.07709600031,"y":2550923.8700670004}},{"attributes":{"ID":4939,"DIS_CODE":0,"TOWNNAME":"安南區","LI":"東和里","LIN":"7鄰","STREET":"館前二路","SECT":" ","MAREA":" ","LANE":"８３巷","ALLEY":" ","HOUSE_NO":"１０號","E_COORD97":171186.97413799999,"N_COORD97":2550894.4484199998,"ADDRESS":"館前二路８３巷１０號","OBJECTID":4939},"geometry":{"x":171186.97413800005,"y":2550894.4484160002}},{"attributes":{"ID":4940,"DIS_CODE":0,"TOWNNAME":"安南區","LI":"東和里","LIN":"7鄰","STREET":"館前一路","SECT":" ","MAREA":" ","LANE":"２６巷","ALLEY":"２弄","HOUSE_NO":"１８號","E_COORD97":171270.69185900001,"N_COORD97":2550915.6150699998,"ADDRESS":"館前一路２６巷２弄１８號","OBJECTID":4940},"geometry":{"x":171270.69185900129,"y":2550915.6150720008}},{"attributes":{"ID":4941,"DIS_CODE":0,"TOWNNAME":"安南區","LI":"東和里","LIN":"7鄰","STREET":"館前一路","SECT":" ","MAREA":" ","LANE":"２６巷","ALLEY":"２弄","HOUSE_NO":"１６號","E_COORD97":171275.35461899999,"N_COORD97":2550919.63674,"ADDRESS":"館前一路２６巷２弄１６號","OBJECTID":4941},"geometry":{"x":171275.35461900197,"y":2550919.6367360018}},{"attributes":{"ID":4942,"DIS_CODE":0,"TOWNNAME":"安南區","LI":"東和里","LIN":"7鄰","STREET":"館前二路","SECT":" ","MAREA":" ","LANE":"８３巷","ALLEY":" ","HOUSE_NO":"２號","E_COORD97":171173.83363499999,"N_COORD97":2550879.8434199998,"ADDRESS":"館前二路８３巷２號","OBJECTID":4942},"geometry":{"x":171173.83363499958,"y":2550879.8434240017}},{"attributes":{"ID":4943,"DIS_CODE":0,"TOWNNAME":"安南區","LI":"東和里","LIN":"7鄰","STREET":"館前二路","SECT":" ","MAREA":" ","LANE":"８３巷","ALLEY":" ","HOUSE_NO":"１號","E_COORD97":171160.905076,"N_COORD97":2550893.1784199998,"ADDRESS":"館前二路８３巷１號","OBJECTID":4943},"geometry":{"x":171160.90507599991,"y":2550893.1784170046}},{"attributes":{"ID":4944,"DIS_CODE":0,"TOWNNAME":"安南區","LI":"東和里","LIN":"7鄰","STREET":"館前二路","SECT":" ","MAREA":" ","LANE":"８３巷","ALLEY":" ","HOUSE_NO":"３號","E_COORD97":171165.779778,"N_COORD97":2550898.2584099998,"ADDRESS":"館前二路８３巷３號","OBJECTID":4944},"geometry":{"x":171165.77977799997,"y":2550898.258414004}},{"attributes":{"ID":4945,"DIS_CODE":0,"TOWNNAME":"安南區","LI":"東和里","LIN":"7鄰","STREET":"館前二路","SECT":" ","MAREA":" ","LANE":"８３巷","ALLEY":" ","HOUSE_NO":"６號","E_COORD97":171178.072507,"N_COORD97":2550885.34675,"ADDRESS":"館前二路８３巷６號","OBJECTID":4945},"geometry":{"x":171178.07250699867,"y":2550885.3467549998}},{"attributes":{"ID":4946,"DIS_CODE":0,"TOWNNAME":"安南區","LI":"東和里","LIN":"7鄰","STREET":"館前二路","SECT":" ","MAREA":" ","LANE":"８３巷","ALLEY":" ","HOUSE_NO":"１２號","E_COORD97":171191.63689699999,"N_COORD97":2550898.2584099998,"ADDRESS":"館前二路８３巷１２號","OBJECTID":4946},"geometry":{"x":171191.63689700048,"y":2550898.258414004}},{"attributes":{"ID":4947,"DIS_CODE":0,"TOWNNAME":"安南區","LI":"東和里","LIN":"7鄰","STREET":"館前二路","SECT":" ","MAREA":" ","LANE":"８３巷","ALLEY":" ","HOUSE_NO":"１６號","E_COORD97":171195.663826,"N_COORD97":2550902.49174,"ADDRESS":"館前二路８３巷１６號","OBJECTID":4947},"geometry":{"x":171195.66382600088,"y":2550902.4917450007}},{"attributes":{"ID":4948,"DIS_CODE":0,"TOWNNAME":"安南區","LI":"東和里","LIN":"7鄰","STREET":"館前二路","SECT":" ","MAREA":" ","LANE":"８３巷","ALLEY":" ","HOUSE_NO":"１８號","E_COORD97":171200.22061300001,"N_COORD97":2550907.2542400002,"ADDRESS":"館前二路８３巷１８號","OBJECTID":4948},"geometry":{"x":171200.22061300091,"y":2550907.2542430013}},{"attributes":{"ID":4949,"DIS_CODE":0,"TOWNNAME":"安南區","LI":"東和里","LIN":"7鄰","STREET":"館前二路","SECT":" ","MAREA":" ","LANE":"８３巷","ALLEY":" ","HOUSE_NO":"２０號","E_COORD97":171205.30725899999,"N_COORD97":2550911.69924,"ADDRESS":"館前二路８３巷２０號","OBJECTID":4949},"geometry":{"x":171205.30725899991,"y":2550911.6992400009}},{"attributes":{"ID":4950,"DIS_CODE":0,"TOWNNAME":"安南區","LI":"東和里","LIN":"7鄰","STREET":"館前二路","SECT":" ","MAREA":" ","LANE":"８３巷","ALLEY":" ","HOUSE_NO":"５號","E_COORD97":171170.124622,"N_COORD97":2550901.7509099999,"ADDRESS":"館前二路８３巷５號","OBJECTID":4950},"geometry":{"x":171170.12462200038,"y":2550901.7509120014}},{"attributes":{"ID":4951,"DIS_CODE":0,"TOWNNAME":"安南區","LI":"東和里","LIN":"7鄰","STREET":"館前二路","SECT":" ","MAREA":" ","LANE":"８３巷","ALLEY":" ","HOUSE_NO":"７號","E_COORD97":171175.635156,"N_COORD97":2550906.6192399999,"ADDRESS":"館前二路８３巷７號","OBJECTID":4951},"geometry":{"x":171175.63515600003,"y":2550906.6192430016}},{"attributes":{"ID":4952,"DIS_CODE":0,"TOWNNAME":"安南區","LI":"東和里","LIN":"7鄰","STREET":"館前二路","SECT":" ","MAREA":" ","LANE":"８３巷","ALLEY":" ","HOUSE_NO":"９號","E_COORD97":171179.87402799999,"N_COORD97":2550911.4875699999,"ADDRESS":"館前二路８３巷９號","OBJECTID":4952},"geometry":{"x":171179.87402800005,"y":2550911.4875739999}},{"attributes":{"ID":4953,"DIS_CODE":0,"TOWNNAME":"安南區","LI":"東和里","LIN":"7鄰","STREET":"館前二路","SECT":" ","MAREA":" ","LANE":"８３巷","ALLEY":" ","HOUSE_NO":"２８號","E_COORD97":171218.55373399999,"N_COORD97":2550924.2933999998,"ADDRESS":"館前二路８３巷２８號","OBJECTID":4953},"geometry":{"x":171218.55373400077,"y":2550924.2934000026}},{"attributes":{"ID":4954,"DIS_CODE":0,"TOWNNAME":"安南區","LI":"東和里","LIN":"7鄰","STREET":"館前二路","SECT":" ","MAREA":" ","LANE":"８３巷","ALLEY":" ","HOUSE_NO":"２６號","E_COORD97":171213.467088,"N_COORD97":2550920.4833999998,"ADDRESS":"館前二路８３巷２６號","OBJECTID":4954},"geometry":{"x":171213.46708800178,"y":2550920.4834019989}},{"attributes":{"ID":4955,"DIS_CODE":0,"TOWNNAME":"安南區","LI":"東和里","LIN":"7鄰","STREET":"館前二路","SECT":" ","MAREA":" ","LANE":"８３巷","ALLEY":" ","HOUSE_NO":"１１號","E_COORD97":171184.53678699999,"N_COORD97":2550915.7209000001,"ADDRESS":"館前二路８３巷１１號","OBJECTID":4955},"geometry":{"x":171184.53678700048,"y":2550915.7209050022}},{"attributes":{"ID":4956,"DIS_CODE":0,"TOWNNAME":"安南區","LI":"東和里","LIN":"7鄰","STREET":"館前二路","SECT":" ","MAREA":" ","LANE":"８３巷","ALLEY":" ","HOUSE_NO":"１３號","E_COORD97":171189.623433,"N_COORD97":2550919.3192400001,"ADDRESS":"館前二路８３巷１３號","OBJECTID":4956},"geometry":{"x":171189.62343300227,"y":2550919.319236001}},{"attributes":{"ID":4957,"DIS_CODE":0,"TOWNNAME":"安南區","LI":"東和里","LIN":"7鄰","STREET":"館前二路","SECT":" ","MAREA":" ","LANE":"８３巷","ALLEY":" ","HOUSE_NO":"１５號","E_COORD97":171194.286192,"N_COORD97":2550923.7642299999,"ADDRESS":"館前二路８３巷１５號","OBJECTID":4957},"geometry":{"x":171194.28619200084,"y":2550923.764233999}},{"attributes":{"ID":4958,"DIS_CODE":0,"TOWNNAME":"安南區","LI":"東和里","LIN":"7鄰","STREET":"館前二路","SECT":" ","MAREA":" ","LANE":"８３巷","ALLEY":" ","HOUSE_NO":"１７號","E_COORD97":171198.101177,"N_COORD97":2550927.99756,"ADDRESS":"館前二路８３巷１７號","OBJECTID":4958},"geometry":{"x":171198.10117700137,"y":2550927.9975650012}},{"attributes":{"ID":4959,"DIS_CODE":0,"TOWNNAME":"安南區","LI":"東和里","LIN":"7鄰","STREET":"館前二路","SECT":" ","MAREA":" ","LANE":"８３巷","ALLEY":" ","HOUSE_NO":"１９號","E_COORD97":171202.34004899999,"N_COORD97":2550932.2308999998,"ADDRESS":"館前二路８３巷１９號","OBJECTID":4959},"geometry":{"x":171202.34004900139,"y":2550932.2308959998}},{"attributes":{"ID":4960,"DIS_CODE":0,"TOWNNAME":"安南區","LI":"東和里","LIN":"7鄰","STREET":"館前二路","SECT":" ","MAREA":" ","LANE":"８３巷","ALLEY":" ","HOUSE_NO":"２１號","E_COORD97":171207.00280799999,"N_COORD97":2550936.46423,"ADDRESS":"館前二路８３巷２１號","OBJECTID":4960},"geometry":{"x":171207.00280799996,"y":2550936.4642270021}},{"attributes":{"ID":4961,"DIS_CODE":0,"TOWNNAME":"安南區","LI":"東和里","LIN":"7鄰","STREET":"館前二路","SECT":" ","MAREA":" ","LANE":"８３巷","ALLEY":" ","HOUSE_NO":"２３號","E_COORD97":171212.08945500001,"N_COORD97":2550940.9092299999,"ADDRESS":"館前二路８３巷２３號","OBJECTID":4961},"geometry":{"x":171212.08945500106,"y":2550940.9092250001}},{"attributes":{"ID":4962,"DIS_CODE":0,"TOWNNAME":"安南區","LI":"東和里","LIN":"7鄰","STREET":"館前二路","SECT":" ","MAREA":" ","LANE":"８３巷","ALLEY":" ","HOUSE_NO":"２５號","E_COORD97":171222.68663400001,"N_COORD97":2550949.7992199999,"ADDRESS":"館前二路８３巷２５號","OBJECTID":4962},"geometry":{"x":171222.68663400039,"y":2550949.7992199995}},{"attributes":{"ID":4963,"DIS_CODE":0,"TOWNNAME":"安南區","LI":"東和里","LIN":"7鄰","STREET":"館前二路","SECT":" ","MAREA":" ","LANE":"８３巷","ALLEY":" ","HOUSE_NO":"２７號","E_COORD97":171227.985224,"N_COORD97":2550954.87922,"ADDRESS":"館前二路８３巷２７號","OBJECTID":4963},"geometry":{"x":171227.98522400018,"y":2550954.8792170025}},{"attributes":{"ID":4964,"DIS_CODE":0,"TOWNNAME":"安南區","LI":"東和里","LIN":"7鄰","STREET":"館前二路","SECT":" ","MAREA":" ","LANE":"８３巷","ALLEY":" ","HOUSE_NO":"３２號","E_COORD97":171233.70770200001,"N_COORD97":2550937.52256,"ADDRESS":"館前二路８３巷３２號","OBJECTID":4964},"geometry":{"x":171233.70770200063,"y":2550937.5225600004}},{"attributes":{"ID":4965,"DIS_CODE":0,"TOWNNAME":"安南區","LI":"東和里","LIN":"7鄰","STREET":"館前二路","SECT":" ","MAREA":" ","LANE":"８３巷","ALLEY":" ","HOUSE_NO":"３０號","E_COORD97":171222.580663,"N_COORD97":2550928.52673,"ADDRESS":"館前二路８３巷３０號","OBJECTID":4965},"geometry":{"x":171222.58066300116,"y":2550928.5267310012}},{"attributes":{"ID":4966,"DIS_CODE":0,"TOWNNAME":"安南區","LI":"東和里","LIN":"7鄰","STREET":"館前二路","SECT":" ","MAREA":" ","LANE":"８３巷","ALLEY":" ","HOUSE_NO":"２２號","E_COORD97":171209.44016,"N_COORD97":2550915.1917400002,"ADDRESS":"館前二路８３巷２２號","OBJECTID":4966},"geometry":{"x":171209.4401600007,"y":2550915.1917379983}},{"attributes":{"ID":4967,"DIS_CODE":0,"TOWNNAME":"安南區","LI":"東和里","LIN":"7鄰","STREET":"館前二路","SECT":" ","MAREA":" ","LANE":"８３巷","ALLEY":" ","HOUSE_NO":"３６號","E_COORD97":171238.05254500001,"N_COORD97":2550942.7083899998,"ADDRESS":"館前二路８３巷３６號","OBJECTID":4967},"geometry":{"x":171238.05254499987,"y":2550942.7083899993}},{"attributes":{"ID":4968,"DIS_CODE":0,"TOWNNAME":"安南區","LI":"東和里","LIN":"7鄰","STREET":"館前二路","SECT":" ","MAREA":" ","LANE":"８３巷","ALLEY":" ","HOUSE_NO":"３８號","E_COORD97":171242.50336100001,"N_COORD97":2550946.94172,"ADDRESS":"館前二路８３巷３８號","OBJECTID":4968},"geometry":{"x":171242.50336100068,"y":2550946.9417210016}},{"attributes":{"ID":4969,"DIS_CODE":0,"TOWNNAME":"安南區","LI":"東和里","LIN":"7鄰","STREET":"館前二路","SECT":" ","MAREA":" ","LANE":"８３巷","ALLEY":" ","HOUSE_NO":"３８之１號","E_COORD97":171246.05406200001,"N_COORD97":2550950.3706700001,"ADDRESS":"館前二路８３巷３８之１號","OBJECTID":4969},"geometry":{"x":171246.05406200048,"y":2550950.370666001}},{"attributes":{"ID":4970,"DIS_CODE":0,"TOWNNAME":"安南區","LI":"東和里","LIN":"7鄰","STREET":"館前二路","SECT":" ","MAREA":" ","LANE":"８３巷","ALLEY":" ","HOUSE_NO":"４２號","E_COORD97":171250.34527399999,"N_COORD97":2550953.9267199999,"ADDRESS":"館前二路８３巷４２號","OBJECTID":4970},"geometry":{"x":171250.34527400136,"y":2550953.9267180003}},{"attributes":{"ID":4971,"DIS_CODE":0,"TOWNNAME":"安南區","LI":"東和里","LIN":"7鄰","STREET":"館前二路","SECT":" ","MAREA":" ","LANE":"８３巷","ALLEY":" ","HOUSE_NO":"４６號","E_COORD97":171254.58414600001,"N_COORD97":2550957.1017200002,"ADDRESS":"館前二路８３巷４６號","OBJECTID":4971},"geometry":{"x":171254.58414600044,"y":2550957.1017160006}},{"attributes":{"ID":4972,"DIS_CODE":0,"TOWNNAME":"安南區","LI":"東和里","LIN":"7鄰","STREET":"館前二路","SECT":" ","MAREA":" ","LANE":"８３巷","ALLEY":" ","HOUSE_NO":"５０號","E_COORD97":171258.187187,"N_COORD97":2550960.9117100001,"ADDRESS":"館前二路８３巷５０號","OBJECTID":4972},"geometry":{"x":171258.18718700111,"y":2550960.9117140006}},{"attributes":{"ID":4973,"DIS_CODE":0,"TOWNNAME":"安南區","LI":"東和里","LIN":"7鄰","STREET":"館前二路","SECT":" ","MAREA":" ","LANE":"８３巷","ALLEY":" ","HOUSE_NO":"５２號","E_COORD97":171261.578285,"N_COORD97":2550965.1450499999,"ADDRESS":"館前二路８３巷５２號","OBJECTID":4973},"geometry":{"x":171261.57828500122,"y":2550965.1450450029}},{"attributes":{"ID":4974,"DIS_CODE":0,"TOWNNAME":"安南區","LI":"東和里","LIN":"7鄰","STREET":"館前二路","SECT":" ","MAREA":" ","LANE":"８３巷","ALLEY":" ","HOUSE_NO":"５６號","E_COORD97":171264.96938200001,"N_COORD97":2550968.1083800001,"ADDRESS":"館前二路８３巷５６號","OBJECTID":4974},"geometry":{"x":171264.96938200016,"y":2550968.1083770003}},{"attributes":{"ID":4975,"DIS_CODE":0,"TOWNNAME":"安南區","LI":"東和里","LIN":"7鄰","STREET":"館前二路","SECT":" ","MAREA":" ","LANE":"８３巷","ALLEY":" ","HOUSE_NO":"５８號","E_COORD97":171267.93659299999,"N_COORD97":2550972.1300400002,"ADDRESS":"館前二路８３巷５８號","OBJECTID":4975},"geometry":{"x":171267.93659299985,"y":2550972.1300410014}},{"attributes":{"ID":4976,"DIS_CODE":0,"TOWNNAME":"安南區","LI":"東和里","LIN":"7鄰","STREET":"館前二路","SECT":" ","MAREA":" ","LANE":"８３巷","ALLEY":" ","HOUSE_NO":"２９號","E_COORD97":171231.906181,"N_COORD97":2550958.5833800002,"ADDRESS":"館前二路８３巷２９號","OBJECTID":4976},"geometry":{"x":171231.90618100017,"y":2550958.5833820011}},{"attributes":{"ID":4977,"DIS_CODE":0,"TOWNNAME":"安南區","LI":"東和里","LIN":"7鄰","STREET":"館前二路","SECT":" ","MAREA":" ","LANE":"８３巷","ALLEY":" ","HOUSE_NO":"３１號","E_COORD97":171235.93310900001,"N_COORD97":2550961.9700500001,"ADDRESS":"館前二路８３巷３１號","OBJECTID":4977},"geometry":{"x":171235.93310900126,"y":2550961.9700460024}},{"attributes":{"ID":4978,"DIS_CODE":0,"TOWNNAME":"安南區","LI":"東和里","LIN":"7鄰","STREET":"館前二路","SECT":" ","MAREA":" ","LANE":"８３巷","ALLEY":" ","HOUSE_NO":"３１號","E_COORD97":171235.93310900001,"N_COORD97":2550961.9700500001,"ADDRESS":"館前二路８３巷３１號","OBJECTID":4978},"geometry":{"x":171235.93310900126,"y":2550961.9700460024}},{"attributes":{"ID":4979,"DIS_CODE":0,"TOWNNAME":"安南區","LI":"東和里","LIN":"7鄰","STREET":"館前二路","SECT":" ","MAREA":" ","LANE":"８３巷","ALLEY":" ","HOUSE_NO":"３３號","E_COORD97":171239.11226299999,"N_COORD97":2550965.5683800001,"ADDRESS":"館前二路８３巷３３號","OBJECTID":4979},"geometry":{"x":171239.11226300057,"y":2550965.5683780015}},{"attributes":{"ID":4980,"DIS_CODE":0,"TOWNNAME":"安南區","LI":"東和里","LIN":"7鄰","STREET":"館前二路","SECT":" ","MAREA":" ","LANE":"８３巷","ALLEY":" ","HOUSE_NO":"３５號","E_COORD97":171242.50336100001,"N_COORD97":2550969.8017099998,"ADDRESS":"館前二路８３巷３５號","OBJECTID":4980},"geometry":{"x":171242.50336100068,"y":2550969.8017090037}},{"attributes":{"ID":4981,"DIS_CODE":0,"TOWNNAME":"安南區","LI":"東和里","LIN":"7鄰","STREET":"館前二路","SECT":" ","MAREA":" ","LANE":"８３巷","ALLEY":" ","HOUSE_NO":"３７號","E_COORD97":171245.894458,"N_COORD97":2550974.03504,"ADDRESS":"館前二路８３巷３７號","OBJECTID":4981},"geometry":{"x":171245.89445799962,"y":2550974.0350400005}},{"attributes":{"ID":4982,"DIS_CODE":0,"TOWNNAME":"安南區","LI":"東和里","LIN":"7鄰","STREET":"館前二路","SECT":" ","MAREA":" ","LANE":"８３巷","ALLEY":" ","HOUSE_NO":"３９號","E_COORD97":171249.709443,"N_COORD97":2550977.6333699999,"ADDRESS":"館前二路８３巷３９號","OBJECTID":4982},"geometry":{"x":171249.70944300108,"y":2550977.6333709992}},{"attributes":{"ID":4983,"DIS_CODE":0,"TOWNNAME":"安南區","LI":"東和里","LIN":"7鄰","STREET":"館前二路","SECT":" ","MAREA":" ","LANE":"８３巷","ALLEY":" ","HOUSE_NO":"４１號","E_COORD97":171253.524428,"N_COORD97":2550980.5967000001,"ADDRESS":"館前二路８３巷４１號","OBJECTID":4983},"geometry":{"x":171253.52442800067,"y":2550980.5967030004}},{"attributes":{"ID":4984,"DIS_CODE":0,"TOWNNAME":"安南區","LI":"東和里","LIN":"7鄰","STREET":"館前二路","SECT":" ","MAREA":" ","LANE":"８３巷","ALLEY":" ","HOUSE_NO":"４３號","E_COORD97":171256.49163800001,"N_COORD97":2550984.4067000002,"ADDRESS":"館前二路８３巷４３號","OBJECTID":4984},"geometry":{"x":171256.49163800105,"y":2550984.4067010004}},{"attributes":{"ID":4985,"DIS_CODE":0,"TOWNNAME":"仁德區","LI":"太子里","LIN":"36鄰","STREET":"長興一街","SECT":" ","MAREA":" ","LANE":"１１０巷","ALLEY":" ","HOUSE_NO":"５０號","E_COORD97":174578.96537799999,"N_COORD97":2543977.0115299998,"ADDRESS":"長興一街１１０巷５０號","OBJECTID":4985},"geometry":{"x":174578.9653780004,"y":2543977.0115340017}},{"attributes":{"ID":4986,"DIS_CODE":0,"TOWNNAME":"仁德區","LI":"太子里","LIN":"37鄰","STREET":"長興一街","SECT":" ","MAREA":" ","LANE":"１１０巷","ALLEY":" ","HOUSE_NO":"９８號","E_COORD97":174717.25249099999,"N_COORD97":2544019.55651,"ADDRESS":"長興一街１１０巷９８號","OBJECTID":4986},"geometry":{"x":174717.25249100197,"y":2544019.5565109998}},{"attributes":{"ID":4987,"DIS_CODE":0,"TOWNNAME":"仁德區","LI":"太子里","LIN":"37鄰","STREET":"長興一街","SECT":" ","MAREA":" ","LANE":"１１０巷","ALLEY":" ","HOUSE_NO":"１１８號","E_COORD97":174823.138489,"N_COORD97":2543986.7481999998,"ADDRESS":"長興一街１１０巷１１８號","OBJECTID":4987},"geometry":{"x":174823.13848899957,"y":2543986.7481960021}},{"attributes":{"ID":4988,"DIS_CODE":0,"TOWNNAME":"仁德區","LI":"太子里","LIN":"37鄰","STREET":"長興一街","SECT":" ","MAREA":" ","LANE":"１１０巷","ALLEY":" ","HOUSE_NO":"１２８號","E_COORD97":174844.739233,"N_COORD97":2544040.9348300002,"ADDRESS":"長興一街１１０巷１２８號","OBJECTID":4988},"geometry":{"x":174844.7392330002,"y":2544040.9348330032}},{"attributes":{"ID":4989,"DIS_CODE":0,"TOWNNAME":"仁德區","LI":"太子里","LIN":"37鄰","STREET":"長興一街","SECT":" ","MAREA":" ","LANE":"１１０巷","ALLEY":" ","HOUSE_NO":"１０８號","E_COORD97":174764.265874,"N_COORD97":2544023.8956800001,"ADDRESS":"長興一街１１０巷１０８號","OBJECTID":4989},"geometry":{"x":174764.2658740012,"y":2544023.8956760019}},{"attributes":{"ID":4990,"DIS_CODE":0,"TOWNNAME":"仁德區","LI":"太子里","LIN":"37鄰","STREET":"長興一街","SECT":" ","MAREA":" ","LANE":"１１０巷","ALLEY":" ","HOUSE_NO":"１００號","E_COORD97":174740.54741100001,"N_COORD97":2543993.3098599999,"ADDRESS":"長興一街１１０巷１００號","OBJECTID":4990},"geometry":{"x":174740.54741100129,"y":2543993.309859002}},{"attributes":{"ID":4991,"DIS_CODE":0,"TOWNNAME":"安南區","LI":"東和里","LIN":"7鄰","STREET":"館前街","SECT":" ","MAREA":" ","LANE":"６７巷","ALLEY":" ","HOUSE_NO":"３號","E_COORD97":171147.029098,"N_COORD97":2550699.5591699998,"ADDRESS":"館前街６７巷３號","OBJECTID":4991},"geometry":{"x":171147.02909800038,"y":2550699.5591740012}},{"attributes":{"ID":4992,"DIS_CODE":0,"TOWNNAME":"安南區","LI":"新順里","LIN":"20鄰","STREET":"慶安路","SECT":" ","MAREA":" ","LANE":"１１５巷","ALLEY":" ","HOUSE_NO":"４５號","E_COORD97":169339.35352199999,"N_COORD97":2549242.4803800001,"ADDRESS":"慶安路１１５巷４５號","OBJECTID":4992},"geometry":{"x":169339.35352200083,"y":2549242.4803780001}},{"attributes":{"ID":4993,"DIS_CODE":0,"TOWNNAME":"安南區","LI":"新順里","LIN":"20鄰","STREET":"慶安路","SECT":" ","MAREA":" ","LANE":"１１５巷","ALLEY":" ","HOUSE_NO":"４７號","E_COORD97":169333.21156500001,"N_COORD97":2549242.4803800001,"ADDRESS":"慶安路１１５巷４７號","OBJECTID":4993},"geometry":{"x":169333.21156500094,"y":2549242.4803780001}},{"attributes":{"ID":4994,"DIS_CODE":0,"TOWNNAME":"安南區","LI":"新順里","LIN":"24鄰","STREET":"興安路","SECT":" ","MAREA":" ","LANE":"１５２巷","ALLEY":" ","HOUSE_NO":"６６號","E_COORD97":169305.45187200001,"N_COORD97":2549225.7512300001,"ADDRESS":"興安路１５２巷６６號","OBJECTID":4994},"geometry":{"x":169305.4518720014,"y":2549225.751228001}},{"attributes":{"ID":4995,"DIS_CODE":0,"TOWNNAME":"仁德區","LI":"太子里","LIN":"36鄰","STREET":"長興一街","SECT":" ","MAREA":" ","LANE":"８６巷","ALLEY":" ","HOUSE_NO":"６號","E_COORD97":174435.595737,"N_COORD97":2543911.9240700002,"ADDRESS":"長興一街８６巷６號","OBJECTID":4995},"geometry":{"x":174435.59573700186,"y":2543911.9240700006}},{"attributes":{"ID":4996,"DIS_CODE":0,"TOWNNAME":"仁德區","LI":"保安里","LIN":"2鄰","STREET":"文賢路","SECT":"一段","MAREA":" ","LANE":"５２９巷","ALLEY":" ","HOUSE_NO":"２號","E_COORD97":171121.61733099999,"N_COORD97":2537027.5958799999,"ADDRESS":"文賢路一段５２９巷２號","OBJECTID":4996},"geometry":{"x":171121.61733100098,"y":2537027.5958750006}},{"attributes":{"ID":4997,"DIS_CODE":0,"TOWNNAME":"安南區","LI":"新順里","LIN":"24鄰","STREET":"興安路","SECT":" ","MAREA":" ","LANE":"１５２巷","ALLEY":" ","HOUSE_NO":"６８號","E_COORD97":169300.792457,"N_COORD97":2549226.80956,"ADDRESS":"興安路１５２巷６８號","OBJECTID":4997},"geometry":{"x":169300.79245700035,"y":2549226.8095609993}},{"attributes":{"ID":4998,"DIS_CODE":0,"TOWNNAME":"安南區","LI":"新順里","LIN":"24鄰","STREET":"興安路","SECT":" ","MAREA":" ","LANE":"１５２巷","ALLEY":" ","HOUSE_NO":"７０號","E_COORD97":169297.630576,"N_COORD97":2549226.8170500002,"ADDRESS":"興安路１５２巷７０號","OBJECTID":4998},"geometry":{"x":169297.63057599869,"y":2549226.8170530014}},{"attributes":{"ID":4999,"DIS_CODE":0,"TOWNNAME":"安南區","LI":"新順里","LIN":"24鄰","STREET":"興安路","SECT":" ","MAREA":" ","LANE":"１５２巷","ALLEY":" ","HOUSE_NO":"７２號","E_COORD97":169293.182952,"N_COORD97":2549227.45205,"ADDRESS":"興安路１５２巷７２號","OBJECTID":4999},"geometry":{"x":169293.18295200076,"y":2549227.4520520009}},{"attributes":{"ID":5000,"DIS_CODE":0,"TOWNNAME":"安南區","LI":"新順里","LIN":"24鄰","STREET":"興安路","SECT":" ","MAREA":" ","LANE":"１５２巷","ALLEY":" ","HOUSE_NO":"７６號","E_COORD97":169288.523537,"N_COORD97":2549229.3570500002,"ADDRESS":"興安路１５２巷７６號","OBJECTID":5000},"geometry":{"x":169288.52353699971,"y":2549229.357051}}]}