{"displayFieldName":"TOWNNAME","fieldAliases":{"ID":"ID","DIS_CODE":"DIS_CODE","TOWNNAME":"TOWNNAME","LI":"LI","LIN":"LIN","STREET":"STREET","SECT":"SECT","MAREA":"MAREA","LANE":"LANE","ALLEY":"ALLEY","HOUSE_NO":"HOUSE_NO","E_COORD97":"E_COORD97","N_COORD97":"N_COORD97","ADDRESS":"ADDRESS","OBJECTID":"OBJECTID"},"geometryType":"esriGeometryPoint","spatialReference":{"wkid":102443,"latestWkid":3826},"fields":[{"name":"ID","type":"esriFieldTypeDouble","alias":"ID"},{"name":"DIS_CODE","type":"esriFieldTypeInteger","alias":"DIS_CODE"},{"name":"TOWNNAME","type":"esriFieldTypeString","alias":"TOWNNAME","length":8},{"name":"LI","type":"esriFieldTypeString","alias":"LI","length":8},{"name":"LIN","type":"esriFieldTypeString","alias":"LIN","length":12},{"name":"STREET","type":"esriFieldTypeString","alias":"STREET","length":20},{"name":"SECT","type":"esriFieldTypeString","alias":"SECT","length":8},{"name":"MAREA","type":"esriFieldTypeString","alias":"MAREA","length":12},{"name":"LANE","type":"esriFieldTypeString","alias":"LANE","length":10},{"name":"ALLEY","type":"esriFieldTypeString","alias":"ALLEY","length":10},{"name":"HOUSE_NO","type":"esriFieldTypeString","alias":"HOUSE_NO","length":20},{"name":"E_COORD97","type":"esriFieldTypeDouble","alias":"E_COORD97"},{"name":"N_COORD97","type":"esriFieldTypeDouble","alias":"N_COORD97"},{"name":"ADDRESS","type":"esriFieldTypeString","alias":"ADDRESS","length":50},{"name":"OBJECTID","type":"esriFieldTypeOID","alias":"OBJECTID"}],"features":[{"attributes":{"ID":121001,"DIS_CODE":0,"TOWNNAME":"仁德區","LI":"土庫里","LIN":"20鄰","STREET":"太子二街","SECT":" ","MAREA":" ","LANE":" ","ALLEY":" ","HOUSE_NO":"１３６號","E_COORD97":174487.89999999999,"N_COORD97":2543258.5,"ADDRESS":"太子二街１３６號","OBJECTID":121001},"geometry":{"x":174487.90000000037,"y":2543258.5000000019}},{"attributes":{"ID":121002,"DIS_CODE":0,"TOWNNAME":"仁德區","LI":"後壁里","LIN":"39鄰","STREET":"德安路","SECT":" ","MAREA":" ","LANE":" ","ALLEY":" ","HOUSE_NO":"４９號","E_COORD97":173501.98000000001,"N_COORD97":2539078.5699999998,"ADDRESS":"德安路４９號","OBJECTID":121002},"geometry":{"x":173501.98000000138,"y":2539078.5700000022}},{"attributes":{"ID":121003,"DIS_CODE":0,"TOWNNAME":"安南區","LI":"佃東里","LIN":"16鄰","STREET":"海佃路","SECT":"四段","MAREA":" ","LANE":"３８８巷","ALLEY":"１３４弄","HOUSE_NO":"３２號之２４","E_COORD97":165718.88,"N_COORD97":2551686.3199999998,"ADDRESS":"海佃路四段３８８巷１３４弄３２號之２４","OBJECTID":121003},"geometry":{"x":165718.88000000082,"y":2551686.3200000022}},{"attributes":{"ID":121004,"DIS_CODE":0,"TOWNNAME":"安南區","LI":"佃東里","LIN":"16鄰","STREET":"海佃路","SECT":"四段","MAREA":" ","LANE":"３８８巷","ALLEY":"１３４弄","HOUSE_NO":"３２號之２５","E_COORD97":165718.17999999999,"N_COORD97":2551681.9100000001,"ADDRESS":"海佃路四段３８８巷１３４弄３２號之２５","OBJECTID":121004},"geometry":{"x":165718.18000000156,"y":2551681.910000002}},{"attributes":{"ID":121005,"DIS_CODE":0,"TOWNNAME":"仁德區","LI":"太子里","LIN":"26鄰","STREET":"太子路","SECT":" ","MAREA":" ","LANE":" ","ALLEY":" ","HOUSE_NO":"３９８號","E_COORD97":173626.51000000001,"N_COORD97":2543546.2599999998,"ADDRESS":"太子路３９８號","OBJECTID":121005},"geometry":{"x":173626.51000000071,"y":2543546.2599999998}},{"attributes":{"ID":121006,"DIS_CODE":0,"TOWNNAME":"安南區","LI":"佃東里","LIN":"16鄰","STREET":"海佃路","SECT":"四段","MAREA":" ","LANE":"３８８巷","ALLEY":"１３４弄","HOUSE_NO":"３２號之４","E_COORD97":165723.44,"N_COORD97":2551757.2799999998,"ADDRESS":"海佃路四段３８８巷１３４弄３２號之４","OBJECTID":121006},"geometry":{"x":165723.44000000041,"y":2551757.2799999993}},{"attributes":{"ID":121007,"DIS_CODE":0,"TOWNNAME":"安南區","LI":"佃東里","LIN":"16鄰","STREET":"海佃路","SECT":"四段","MAREA":" ","LANE":"３８８巷","ALLEY":"１３４弄","HOUSE_NO":"３２號之５","E_COORD97":165721.89999999999,"N_COORD97":2551752.6800000002,"ADDRESS":"海佃路四段３８８巷１３４弄３２號之５","OBJECTID":121007},"geometry":{"x":165721.90000000037,"y":2551752.6800000034}},{"attributes":{"ID":121008,"DIS_CODE":0,"TOWNNAME":"安南區","LI":"佃東里","LIN":"16鄰","STREET":"海佃路","SECT":"四段","MAREA":" ","LANE":"３８８巷","ALLEY":"１３４弄","HOUSE_NO":"３２號之６","E_COORD97":165722.85999999999,"N_COORD97":2551747.8799999999,"ADDRESS":"海佃路四段３８８巷１３４弄３２號之６","OBJECTID":121008},"geometry":{"x":165722.86000000127,"y":2551747.8800000008}},{"attributes":{"ID":121009,"DIS_CODE":0,"TOWNNAME":"安南區","LI":"佃東里","LIN":"16鄰","STREET":"海佃路","SECT":"四段","MAREA":" ","LANE":"３８８巷","ALLEY":"１３４弄","HOUSE_NO":"３２號之７","E_COORD97":165723.44,"N_COORD97":2551743.2799999998,"ADDRESS":"海佃路四段３８８巷１３４弄３２號之７","OBJECTID":121009},"geometry":{"x":165723.44000000041,"y":2551743.2799999993}},{"attributes":{"ID":121010,"DIS_CODE":0,"TOWNNAME":"安南區","LI":"佃東里","LIN":"16鄰","STREET":"海佃路","SECT":"四段","MAREA":" ","LANE":"３８８巷","ALLEY":"１３４弄","HOUSE_NO":"３２號之８","E_COORD97":165723.06,"N_COORD97":2551739.4399999999,"ADDRESS":"海佃路四段３８８巷１３４弄３２號之８","OBJECTID":121010},"geometry":{"x":165723.06000000052,"y":2551739.4399999995}},{"attributes":{"ID":121011,"DIS_CODE":0,"TOWNNAME":"安南區","LI":"佃東里","LIN":"16鄰","STREET":"海佃路","SECT":"四段","MAREA":" ","LANE":"３８８巷","ALLEY":"１３４弄","HOUSE_NO":"３２號之９","E_COORD97":165723.06,"N_COORD97":2551734.4500000002,"ADDRESS":"海佃路四段３８８巷１３４弄３２號之９","OBJECTID":121011},"geometry":{"x":165723.06000000052,"y":2551734.4500000011}},{"attributes":{"ID":121012,"DIS_CODE":0,"TOWNNAME":"安南區","LI":"佃東里","LIN":"16鄰","STREET":"海佃路","SECT":"四段","MAREA":" ","LANE":"３８８巷","ALLEY":"１３４弄","HOUSE_NO":"３４號之４","E_COORD97":165751.67999999999,"N_COORD97":2551751.27,"ADDRESS":"海佃路四段３８８巷１３４弄３４號之４","OBJECTID":121012},"geometry":{"x":165751.6799999997,"y":2551751.2699999996}},{"attributes":{"ID":121013,"DIS_CODE":0,"TOWNNAME":"麻豆區","LI":"大埕里","LIN":"10鄰","STREET":" ","SECT":" ","MAREA":"\u25A0祖\u25A0","LANE":" ","ALLEY":" ","HOUSE_NO":"２號之１４","E_COORD97":173028.75,"N_COORD97":2565257.0499999998,"ADDRESS":"\u25A0祖\u25A0２號之１４","OBJECTID":121013},"geometry":{"x":173028.75,"y":2565257.0500000007}},{"attributes":{"ID":121014,"DIS_CODE":0,"TOWNNAME":"安南區","LI":"佃東里","LIN":"16鄰","STREET":"海佃路","SECT":"四段","MAREA":" ","LANE":"３８８巷","ALLEY":"１３４弄","HOUSE_NO":"３４號","E_COORD97":165749.95000000001,"N_COORD97":2551771.0899999999,"ADDRESS":"海佃路四段３８８巷１３４弄３４號","OBJECTID":121014},"geometry":{"x":165749.95000000019,"y":2551771.0900000017}},{"attributes":{"ID":121015,"DIS_CODE":0,"TOWNNAME":"安南區","LI":"佃東里","LIN":"16鄰","STREET":"海佃路","SECT":"四段","MAREA":" ","LANE":"３８８巷","ALLEY":"１３４弄","HOUSE_NO":"３４號之１","E_COORD97":165752.45000000001,"N_COORD97":2551766.6200000001,"ADDRESS":"海佃路四段３８８巷１３４弄３４號之１","OBJECTID":121015},"geometry":{"x":165752.45000000205,"y":2551766.620000001}},{"attributes":{"ID":121016,"DIS_CODE":0,"TOWNNAME":"安南區","LI":"佃東里","LIN":"16鄰","STREET":"海佃路","SECT":"四段","MAREA":" ","LANE":"３８８巷","ALLEY":"１３４弄","HOUSE_NO":"３４號之１０","E_COORD97":165751.87,"N_COORD97":2551723.6400000001,"ADDRESS":"海佃路四段３８８巷１３４弄３４號之１０","OBJECTID":121016},"geometry":{"x":165751.87000000104,"y":2551723.6400000043}},{"attributes":{"ID":121017,"DIS_CODE":0,"TOWNNAME":"安南區","LI":"佃東里","LIN":"16鄰","STREET":"海佃路","SECT":"四段","MAREA":" ","LANE":"３８８巷","ALLEY":"１３４弄","HOUSE_NO":"３４號之１１","E_COORD97":165752.26000000001,"N_COORD97":2551719.23,"ADDRESS":"海佃路四段３８８巷１３４弄３４號之１１","OBJECTID":121017},"geometry":{"x":165752.26000000071,"y":2551719.2300000042}},{"attributes":{"ID":121018,"DIS_CODE":0,"TOWNNAME":"安南區","LI":"佃東里","LIN":"16鄰","STREET":"海佃路","SECT":"四段","MAREA":" ","LANE":"３８８巷","ALLEY":"１３４弄","HOUSE_NO":"３４號之１２","E_COORD97":165753.22,"N_COORD97":2551713.8599999999,"ADDRESS":"海佃路四段３８８巷１３４弄３４號之１２","OBJECTID":121018},"geometry":{"x":165753.21999999974,"y":2551713.8600000031}},{"attributes":{"ID":121019,"DIS_CODE":0,"TOWNNAME":"安南區","LI":"佃東里","LIN":"16鄰","STREET":"海佃路","SECT":"四段","MAREA":" ","LANE":"３８８巷","ALLEY":"１３４弄","HOUSE_NO":"３４號之１３","E_COORD97":165752.95999999999,"N_COORD97":2551697.3799999999,"ADDRESS":"海佃路四段３８８巷１３４弄３４號之１３","OBJECTID":121019},"geometry":{"x":165752.96000000089,"y":2551697.3800000008}},{"attributes":{"ID":121020,"DIS_CODE":0,"TOWNNAME":"安南區","LI":"佃東里","LIN":"16鄰","STREET":"海佃路","SECT":"四段","MAREA":" ","LANE":"３８８巷","ALLEY":"１３４弄","HOUSE_NO":"３４號之１４","E_COORD97":165749.79000000001,"N_COORD97":2551691.77,"ADDRESS":"海佃路四段３８８巷１３４弄３４號之１４","OBJECTID":121020},"geometry":{"x":165749.79000000004,"y":2551691.7700000014}},{"attributes":{"ID":121021,"DIS_CODE":0,"TOWNNAME":"安南區","LI":"佃東里","LIN":"16鄰","STREET":"海佃路","SECT":"四段","MAREA":" ","LANE":"３８８巷","ALLEY":"１３４弄","HOUSE_NO":"３４號之２","E_COORD97":165751.48999999999,"N_COORD97":2551760.6699999999,"ADDRESS":"海佃路四段３８８巷１３４弄３４號之２","OBJECTID":121021},"geometry":{"x":165751.49000000022,"y":2551760.6700000018}},{"attributes":{"ID":121022,"DIS_CODE":0,"TOWNNAME":"安南區","LI":"佃東里","LIN":"16鄰","STREET":"海佃路","SECT":"四段","MAREA":" ","LANE":"３８８巷","ALLEY":"１３４弄","HOUSE_NO":"３４號之３","E_COORD97":165751.67999999999,"N_COORD97":2551755.6800000002,"ADDRESS":"海佃路四段３８８巷１３４弄３４號之３","OBJECTID":121022},"geometry":{"x":165751.6799999997,"y":2551755.6799999997}},{"attributes":{"ID":121023,"DIS_CODE":0,"TOWNNAME":"安南區","LI":"佃東里","LIN":"16鄰","STREET":"海佃路","SECT":"四段","MAREA":" ","LANE":"３８８巷","ALLEY":"１３４弄","HOUSE_NO":"３４號之５","E_COORD97":165751.67999999999,"N_COORD97":2551747.2400000002,"ADDRESS":"海佃路四段３８８巷１３４弄３４號之５","OBJECTID":121023},"geometry":{"x":165751.6799999997,"y":2551747.2400000021}},{"attributes":{"ID":121024,"DIS_CODE":0,"TOWNNAME":"麻豆區","LI":"大埕里","LIN":"10鄰","STREET":" ","SECT":" ","MAREA":"\u25A0祖\u25A0","LANE":" ","ALLEY":" ","HOUSE_NO":"１號之２３","E_COORD97":172997.20999999999,"N_COORD97":2565258,"ADDRESS":"\u25A0祖\u25A0１號之２３","OBJECTID":121024},"geometry":{"x":172997.20999999996,"y":2565257.9999999981}},{"attributes":{"ID":121025,"DIS_CODE":0,"TOWNNAME":"麻豆區","LI":"大埕里","LIN":"10鄰","STREET":" ","SECT":" ","MAREA":"\u25A0祖\u25A0","LANE":" ","ALLEY":" ","HOUSE_NO":"１號之２４","E_COORD97":172993.10000000001,"N_COORD97":2565257.0800000001,"ADDRESS":"\u25A0祖\u25A0１號之２４","OBJECTID":121025},"geometry":{"x":172993.10000000056,"y":2565257.0800000001}},{"attributes":{"ID":121026,"DIS_CODE":0,"TOWNNAME":"麻豆區","LI":"大埕里","LIN":"10鄰","STREET":" ","SECT":" ","MAREA":"\u25A0祖\u25A0","LANE":" ","ALLEY":" ","HOUSE_NO":"１號之２５","E_COORD97":172989.17000000001,"N_COORD97":2565256.04,"ADDRESS":"\u25A0祖\u25A0１號之２５","OBJECTID":121026},"geometry":{"x":172989.17000000179,"y":2565256.0399999991}},{"attributes":{"ID":121027,"DIS_CODE":0,"TOWNNAME":"安南區","LI":"佃東里","LIN":"16鄰","STREET":"海佃路","SECT":"四段","MAREA":" ","LANE":"３８８巷","ALLEY":"１３４弄","HOUSE_NO":"３４號之６","E_COORD97":165751.67999999999,"N_COORD97":2551742.4399999999,"ADDRESS":"海佃路四段３８８巷１３４弄３４號之６","OBJECTID":121027},"geometry":{"x":165751.6799999997,"y":2551742.4399999995}},{"attributes":{"ID":121028,"DIS_CODE":0,"TOWNNAME":"安南區","LI":"佃東里","LIN":"16鄰","STREET":"海佃路","SECT":"四段","MAREA":" ","LANE":"３８８巷","ALLEY":"１３４弄","HOUSE_NO":"３４號之７","E_COORD97":165749.95000000001,"N_COORD97":2551738.21,"ADDRESS":"海佃路四段３８８巷１３４弄３４號之７","OBJECTID":121028},"geometry":{"x":165749.95000000019,"y":2551738.2100000028}},{"attributes":{"ID":121029,"DIS_CODE":0,"TOWNNAME":"永康區","LI":"永康里","LIN":"31鄰","STREET":"永大路","SECT":"三段","MAREA":" ","LANE":" ","ALLEY":" ","HOUSE_NO":"５６號","E_COORD97":174223.34,"N_COORD97":2547630.52,"ADDRESS":"永大路三段５６號","OBJECTID":121029},"geometry":{"x":174223.33999999985,"y":2547630.5199999996}},{"attributes":{"ID":121030,"DIS_CODE":0,"TOWNNAME":"麻豆區","LI":"大埕里","LIN":"10鄰","STREET":" ","SECT":" ","MAREA":"\u25A0祖\u25A0","LANE":" ","ALLEY":" ","HOUSE_NO":"１號之２６","E_COORD97":172985.12,"N_COORD97":2565255.4500000002,"ADDRESS":"\u25A0祖\u25A0１號之２６","OBJECTID":121030},"geometry":{"x":172985.12000000104,"y":2565255.4500000011}},{"attributes":{"ID":121031,"DIS_CODE":0,"TOWNNAME":"麻豆區","LI":"大埕里","LIN":"10鄰","STREET":" ","SECT":" ","MAREA":"\u25A0祖\u25A0","LANE":" ","ALLEY":" ","HOUSE_NO":"１號之２７","E_COORD97":172981.14000000001,"N_COORD97":2565254.3799999999,"ADDRESS":"\u25A0祖\u25A0１號之２７","OBJECTID":121031},"geometry":{"x":172981.1400000006,"y":2565254.3800000027}},{"attributes":{"ID":121032,"DIS_CODE":0,"TOWNNAME":"麻豆區","LI":"大埕里","LIN":"10鄰","STREET":" ","SECT":" ","MAREA":"\u25A0祖\u25A0","LANE":" ","ALLEY":" ","HOUSE_NO":"１號之２８","E_COORD97":172970.19,"N_COORD97":2565272.4700000002,"ADDRESS":"\u25A0祖\u25A0１號之２８","OBJECTID":121032},"geometry":{"x":172970.19000000041,"y":2565272.4699999988}},{"attributes":{"ID":121033,"DIS_CODE":0,"TOWNNAME":"麻豆區","LI":"大埕里","LIN":"10鄰","STREET":" ","SECT":" ","MAREA":"\u25A0祖\u25A0","LANE":" ","ALLEY":" ","HOUSE_NO":"１號之２９","E_COORD97":172974.10000000001,"N_COORD97":2565273.3700000001,"ADDRESS":"\u25A0祖\u25A0１號之２９","OBJECTID":121033},"geometry":{"x":172974.10000000149,"y":2565273.370000001}},{"attributes":{"ID":121034,"DIS_CODE":0,"TOWNNAME":"永康區","LI":"正強里","LIN":"31鄰","STREET":"自強路","SECT":" ","MAREA":" ","LANE":" ","ALLEY":" ","HOUSE_NO":"２０３號","E_COORD97":173150.42000000001,"N_COORD97":2547513.9900000002,"ADDRESS":"自強路２０３號","OBJECTID":121034},"geometry":{"x":173150.42000000086,"y":2547513.9900000021}},{"attributes":{"ID":121035,"DIS_CODE":0,"TOWNNAME":"永康區","LI":"正強里","LIN":"31鄰","STREET":"自強路","SECT":" ","MAREA":" ","LANE":" ","ALLEY":" ","HOUSE_NO":"２５１號","E_COORD97":173221.13,"N_COORD97":2547592,"ADDRESS":"自強路２５１號","OBJECTID":121035},"geometry":{"x":173221.12999999989,"y":2547592.0000000019}},{"attributes":{"ID":121036,"DIS_CODE":0,"TOWNNAME":"歸仁區","LI":"後市里","LIN":"31鄰","STREET":"民族北街","SECT":" ","MAREA":" ","LANE":" ","ALLEY":" ","HOUSE_NO":"４７號三樓之２","E_COORD97":177417.79000000001,"N_COORD97":2540947.75,"ADDRESS":"民族北街４７號三樓之２","OBJECTID":121036},"geometry":{"x":177417.79000000004,"y":2540947.7500000037}},{"attributes":{"ID":121037,"DIS_CODE":0,"TOWNNAME":"歸仁區","LI":"後市里","LIN":"31鄰","STREET":"民族北街","SECT":" ","MAREA":" ","LANE":" ","ALLEY":" ","HOUSE_NO":"４７號三樓之６","E_COORD97":177417.78,"N_COORD97":2540947.75,"ADDRESS":"民族北街４７號三樓之６","OBJECTID":121037},"geometry":{"x":177417.78000000026,"y":2540947.7500000037}},{"attributes":{"ID":121038,"DIS_CODE":0,"TOWNNAME":"歸仁區","LI":"後市里","LIN":"31鄰","STREET":"民族北街","SECT":" ","MAREA":" ","LANE":" ","ALLEY":" ","HOUSE_NO":"４７號六樓之７","E_COORD97":177417.78,"N_COORD97":2540947.75,"ADDRESS":"民族北街４７號六樓之７","OBJECTID":121038},"geometry":{"x":177417.78000000026,"y":2540947.7500000037}},{"attributes":{"ID":121039,"DIS_CODE":0,"TOWNNAME":"歸仁區","LI":"後市里","LIN":"31鄰","STREET":"民族北街","SECT":" ","MAREA":" ","LANE":" ","ALLEY":" ","HOUSE_NO":"４７號七樓之１","E_COORD97":177417.76000000001,"N_COORD97":2540947.75,"ADDRESS":"民族北街４７號七樓之１","OBJECTID":121039},"geometry":{"x":177417.75999999885,"y":2540947.7500000037}},{"attributes":{"ID":121040,"DIS_CODE":0,"TOWNNAME":"安南區","LI":"佃東里","LIN":"16鄰","STREET":"海佃路","SECT":"四段","MAREA":" ","LANE":"３８８巷","ALLEY":"１３４弄","HOUSE_NO":"３４號之８","E_COORD97":165751.29000000001,"N_COORD97":2551732.6600000001,"ADDRESS":"海佃路四段３８８巷１３４弄３４號之８","OBJECTID":121040},"geometry":{"x":165751.29000000004,"y":2551732.6600000001}},{"attributes":{"ID":121041,"DIS_CODE":0,"TOWNNAME":"安南區","LI":"佃東里","LIN":"16鄰","STREET":"海佃路","SECT":"四段","MAREA":" ","LANE":"３８８巷","ALLEY":"１３４弄","HOUSE_NO":"３４號之９","E_COORD97":165751.67999999999,"N_COORD97":2551728.0499999998,"ADDRESS":"海佃路四段３８８巷１３４弄３４號之９","OBJECTID":121041},"geometry":{"x":165751.6799999997,"y":2551728.0500000026}},{"attributes":{"ID":121042,"DIS_CODE":0,"TOWNNAME":"安南區","LI":"佃東里","LIN":"16鄰","STREET":"海佃路","SECT":"四段","MAREA":" ","LANE":"３８８巷","ALLEY":"１３４弄","HOUSE_NO":"３６號","E_COORD97":165751.10000000001,"N_COORD97":2551791.21,"ADDRESS":"海佃路四段３８８巷１３４弄３６號","OBJECTID":121042},"geometry":{"x":165751.10000000056,"y":2551791.2100000046}},{"attributes":{"ID":121043,"DIS_CODE":0,"TOWNNAME":"玉井區","LI":"望明里","LIN":" ","STREET":" ","SECT":" ","MAREA":"公\u25A0","LANE":" ","ALLEY":" ","HOUSE_NO":"２２號","E_COORD97":193936.66,"N_COORD97":2556561.25,"ADDRESS":"公\u25A0２２號","OBJECTID":121043},"geometry":{"x":193936.66000000015,"y":2556561.2500000019}},{"attributes":{"ID":121044,"DIS_CODE":0,"TOWNNAME":"安南區","LI":"佃東里","LIN":"16鄰","STREET":"海佃路","SECT":"四段","MAREA":" ","LANE":"３８８巷","ALLEY":"１３４弄","HOUSE_NO":"３８號","E_COORD97":165753.98999999999,"N_COORD97":2551787.0299999998,"ADDRESS":"海佃路四段３８８巷１３４弄３８號","OBJECTID":121044},"geometry":{"x":165753.99000000209,"y":2551787.0299999975}},{"attributes":{"ID":121045,"DIS_CODE":0,"TOWNNAME":"安南區","LI":"佃東里","LIN":"16鄰","STREET":"海佃路","SECT":"四段","MAREA":" ","LANE":"３８８巷","ALLEY":"１３４弄","HOUSE_NO":"４０號","E_COORD97":165759.95999999999,"N_COORD97":2551788.4300000002,"ADDRESS":"海佃路四段３８８巷１３４弄４０號","OBJECTID":121045},"geometry":{"x":165759.95999999996,"y":2551788.4300000034}},{"attributes":{"ID":121046,"DIS_CODE":0,"TOWNNAME":"安南區","LI":"佃東里","LIN":"16鄰","STREET":"海佃路","SECT":"四段","MAREA":" ","LANE":"３８８巷","ALLEY":"１３４弄","HOUSE_NO":"４２號","E_COORD97":165762.79999999999,"N_COORD97":2551782.8500000001,"ADDRESS":"海佃路四段３８８巷１３４弄４２號","OBJECTID":121046},"geometry":{"x":165762.79999999981,"y":2551782.8500000015}},{"attributes":{"ID":121047,"DIS_CODE":0,"TOWNNAME":"安南區","LI":"佃東里","LIN":"16鄰","STREET":"海佃路","SECT":"四段","MAREA":" ","LANE":"３８８巷","ALLEY":"１３４弄","HOUSE_NO":"４４號","E_COORD97":165768.28,"N_COORD97":2551784.1499999999,"ADDRESS":"海佃路四段３８８巷１３４弄４４號","OBJECTID":121047},"geometry":{"x":165768.28000000026,"y":2551784.1500000041}},{"attributes":{"ID":121048,"DIS_CODE":0,"TOWNNAME":"安南區","LI":"佃東里","LIN":"16鄰","STREET":"海佃路","SECT":"四段","MAREA":" ","LANE":"３８８巷","ALLEY":"１３４弄","HOUSE_NO":"４６號","E_COORD97":165772.17999999999,"N_COORD97":2551779.8199999998,"ADDRESS":"海佃路四段３８８巷１３４弄４６號","OBJECTID":121048},"geometry":{"x":165772.1799999997,"y":2551779.820000004}},{"attributes":{"ID":121049,"DIS_CODE":0,"TOWNNAME":"安南區","LI":"佃東里","LIN":"16鄰","STREET":"海佃路","SECT":"四段","MAREA":" ","LANE":"３８８巷","ALLEY":"１３４弄","HOUSE_NO":"４８號","E_COORD97":165778.25,"N_COORD97":2551780.54,"ADDRESS":"海佃路四段３８８巷１３４弄４８號","OBJECTID":121049},"geometry":{"x":165778.25,"y":2551780.540000001}},{"attributes":{"ID":121050,"DIS_CODE":0,"TOWNNAME":"安南區","LI":"佃東里","LIN":"16鄰","STREET":"海佃路","SECT":"四段","MAREA":" ","LANE":"３８８巷","ALLEY":"１３４弄","HOUSE_NO":"５０號","E_COORD97":165782.72,"N_COORD97":2551777.0800000001,"ADDRESS":"海佃路四段３８８巷１３４弄５０號","OBJECTID":121050},"geometry":{"x":165782.72000000067,"y":2551777.0800000001}},{"attributes":{"ID":121051,"DIS_CODE":0,"TOWNNAME":"安南區","LI":"佃東里","LIN":"16鄰","STREET":"海佃路","SECT":"四段","MAREA":" ","LANE":"３８８巷","ALLEY":"１３４弄","HOUSE_NO":"５３號","E_COORD97":165779.48000000001,"N_COORD97":2551809.6499999999,"ADDRESS":"海佃路四段３８８巷１３４弄５３號","OBJECTID":121051},"geometry":{"x":165779.48000000045,"y":2551809.6500000004}},{"attributes":{"ID":121052,"DIS_CODE":0,"TOWNNAME":"麻豆區","LI":"大埕里","LIN":"10鄰","STREET":" ","SECT":" ","MAREA":"\u25A0祖\u25A0","LANE":" ","ALLEY":" ","HOUSE_NO":"１號之２","E_COORD97":172990.57999999999,"N_COORD97":2565200.1699999999,"ADDRESS":"\u25A0祖\u25A0１號之２","OBJECTID":121052},"geometry":{"x":172990.58000000101,"y":2565200.1700000018}},{"attributes":{"ID":121053,"DIS_CODE":0,"TOWNNAME":"麻豆區","LI":"大埕里","LIN":"10鄰","STREET":" ","SECT":" ","MAREA":"\u25A0祖\u25A0","LANE":" ","ALLEY":" ","HOUSE_NO":"１號之３０","E_COORD97":172978.07999999999,"N_COORD97":2565274.2400000002,"ADDRESS":"\u25A0祖\u25A0１號之３０","OBJECTID":121053},"geometry":{"x":172978.08000000194,"y":2565274.2400000021}},{"attributes":{"ID":121054,"DIS_CODE":0,"TOWNNAME":"麻豆區","LI":"大埕里","LIN":"10鄰","STREET":" ","SECT":" ","MAREA":"\u25A0祖\u25A0","LANE":" ","ALLEY":" ","HOUSE_NO":"１號之３１","E_COORD97":172981.76000000001,"N_COORD97":2565275.04,"ADDRESS":"\u25A0祖\u25A0１號之３１","OBJECTID":121054},"geometry":{"x":172981.76000000071,"y":2565275.040000001}},{"attributes":{"ID":121055,"DIS_CODE":0,"TOWNNAME":"麻豆區","LI":"大埕里","LIN":"10鄰","STREET":" ","SECT":" ","MAREA":"\u25A0祖\u25A0","LANE":" ","ALLEY":" ","HOUSE_NO":"１號之３２","E_COORD97":172986.26999999999,"N_COORD97":2565276.0299999998,"ADDRESS":"\u25A0祖\u25A0１號之３２","OBJECTID":121055},"geometry":{"x":172986.26999999862,"y":2565276.0299999993}},{"attributes":{"ID":121056,"DIS_CODE":0,"TOWNNAME":"麻豆區","LI":"大埕里","LIN":"10鄰","STREET":" ","SECT":" ","MAREA":"\u25A0祖\u25A0","LANE":" ","ALLEY":" ","HOUSE_NO":"１號之３３","E_COORD97":172990.67999999999,"N_COORD97":2565276.98,"ADDRESS":"\u25A0祖\u25A0１號之３３","OBJECTID":121056},"geometry":{"x":172990.68000000063,"y":2565276.9800000023}},{"attributes":{"ID":121057,"DIS_CODE":0,"TOWNNAME":"麻豆區","LI":"大埕里","LIN":"10鄰","STREET":" ","SECT":" ","MAREA":"\u25A0祖\u25A0","LANE":" ","ALLEY":" ","HOUSE_NO":"１號之３４","E_COORD97":172994.62,"N_COORD97":2565278.0099999998,"ADDRESS":"\u25A0祖\u25A0１號之３４","OBJECTID":121057},"geometry":{"x":172994.61999999918,"y":2565278.0099999979}},{"attributes":{"ID":121058,"DIS_CODE":0,"TOWNNAME":"麻豆區","LI":"大埕里","LIN":"10鄰","STREET":" ","SECT":" ","MAREA":"\u25A0祖\u25A0","LANE":" ","ALLEY":" ","HOUSE_NO":"１號之３５","E_COORD97":172998.41,"N_COORD97":2565279.1099999999,"ADDRESS":"\u25A0祖\u25A0１號之３５","OBJECTID":121058},"geometry":{"x":172998.41000000108,"y":2565279.1099999994}},{"attributes":{"ID":121059,"DIS_CODE":0,"TOWNNAME":"安南區","LI":"佃東里","LIN":"16鄰","STREET":"海佃路","SECT":"四段","MAREA":" ","LANE":"３８８巷","ALLEY":"１３４弄","HOUSE_NO":"３３號之１２９","E_COORD97":165964.72,"N_COORD97":2551814.8500000001,"ADDRESS":"海佃路四段３８８巷１３４弄３３號之１２９","OBJECTID":121059},"geometry":{"x":165964.71999999974,"y":2551814.8499999996}},{"attributes":{"ID":121060,"DIS_CODE":0,"TOWNNAME":"安南區","LI":"安順里","LIN":"16鄰","STREET":"總安街","SECT":"一段","MAREA":" ","LANE":"１１０巷","ALLEY":"８６弄","HOUSE_NO":"１號","E_COORD97":169773.42000000001,"N_COORD97":2550315.8599999999,"ADDRESS":"總安街一段１１０巷８６弄１號","OBJECTID":121060},"geometry":{"x":169773.42000000179,"y":2550315.8599999994}},{"attributes":{"ID":121061,"DIS_CODE":0,"TOWNNAME":"麻豆區","LI":"大埕里","LIN":"10鄰","STREET":" ","SECT":" ","MAREA":"\u25A0祖\u25A0","LANE":" ","ALLEY":" ","HOUSE_NO":"１號之３６","E_COORD97":173002.09,"N_COORD97":2565280.3599999999,"ADDRESS":"\u25A0祖\u25A0１號之３６","OBJECTID":121061},"geometry":{"x":173002.09000000078,"y":2565280.3600000013}},{"attributes":{"ID":121062,"DIS_CODE":0,"TOWNNAME":"麻豆區","LI":"大埕里","LIN":"10鄰","STREET":" ","SECT":" ","MAREA":"\u25A0祖\u25A0","LANE":" ","ALLEY":" ","HOUSE_NO":"１號之３７","E_COORD97":173006.23999999999,"N_COORD97":2565281.46,"ADDRESS":"\u25A0祖\u25A0１號之３７","OBJECTID":121062},"geometry":{"x":173006.24000000115,"y":2565281.4600000009}},{"attributes":{"ID":121063,"DIS_CODE":0,"TOWNNAME":"麻豆區","LI":"大埕里","LIN":"10鄰","STREET":" ","SECT":" ","MAREA":"\u25A0祖\u25A0","LANE":" ","ALLEY":" ","HOUSE_NO":"１號之３８","E_COORD97":173009.73000000001,"N_COORD97":2565282.1499999999,"ADDRESS":"\u25A0祖\u25A0１號之３８","OBJECTID":121063},"geometry":{"x":173009.73000000231,"y":2565282.1500000022}},{"attributes":{"ID":121064,"DIS_CODE":0,"TOWNNAME":"麻豆區","LI":"大埕里","LIN":"10鄰","STREET":" ","SECT":" ","MAREA":"\u25A0祖\u25A0","LANE":" ","ALLEY":" ","HOUSE_NO":"１號之３","E_COORD97":173000.29000000001,"N_COORD97":2565197.3300000001,"ADDRESS":"\u25A0祖\u25A0１號之３","OBJECTID":121064},"geometry":{"x":173000.2900000019,"y":2565197.3300000001}},{"attributes":{"ID":121065,"DIS_CODE":0,"TOWNNAME":"麻豆區","LI":"大埕里","LIN":"10鄰","STREET":" ","SECT":" ","MAREA":"\u25A0祖\u25A0","LANE":" ","ALLEY":" ","HOUSE_NO":"１號之４","E_COORD97":173004.89999999999,"N_COORD97":2565195.9199999999,"ADDRESS":"\u25A0祖\u25A0１號之４","OBJECTID":121065},"geometry":{"x":173004.89999999944,"y":2565195.9200000018}},{"attributes":{"ID":121066,"DIS_CODE":0,"TOWNNAME":"麻豆區","LI":"大埕里","LIN":"10鄰","STREET":" ","SECT":" ","MAREA":"\u25A0祖\u25A0","LANE":" ","ALLEY":" ","HOUSE_NO":"１號之５","E_COORD97":173008.31,"N_COORD97":2565193.48,"ADDRESS":"\u25A0祖\u25A0１號之５","OBJECTID":121066},"geometry":{"x":173008.31000000052,"y":2565193.4800000004}},{"attributes":{"ID":121067,"DIS_CODE":0,"TOWNNAME":"麻豆區","LI":"大埕里","LIN":"10鄰","STREET":" ","SECT":" ","MAREA":"\u25A0祖\u25A0","LANE":" ","ALLEY":" ","HOUSE_NO":"１號之６","E_COORD97":173012.51000000001,"N_COORD97":2565191.4199999999,"ADDRESS":"\u25A0祖\u25A0１號之６","OBJECTID":121067},"geometry":{"x":173012.51000000071,"y":2565191.4200000018}},{"attributes":{"ID":121068,"DIS_CODE":0,"TOWNNAME":"麻豆區","LI":"大埕里","LIN":"10鄰","STREET":" ","SECT":" ","MAREA":"\u25A0祖\u25A0","LANE":" ","ALLEY":" ","HOUSE_NO":"１號之７","E_COORD97":173016.41,"N_COORD97":2565189.79,"ADDRESS":"\u25A0祖\u25A0１號之７","OBJECTID":121068},"geometry":{"x":173016.40999999922,"y":2565189.7899999991}},{"attributes":{"ID":121069,"DIS_CODE":0,"TOWNNAME":"麻豆區","LI":"大埕里","LIN":"10鄰","STREET":" ","SECT":" ","MAREA":"\u25A0祖\u25A0","LANE":" ","ALLEY":" ","HOUSE_NO":"１號之８","E_COORD97":173014.26999999999,"N_COORD97":2565216.9700000002,"ADDRESS":"\u25A0祖\u25A0１號之８","OBJECTID":121069},"geometry":{"x":173014.27000000048,"y":2565216.9700000007}},{"attributes":{"ID":121070,"DIS_CODE":0,"TOWNNAME":"麻豆區","LI":"大埕里","LIN":"10鄰","STREET":" ","SECT":" ","MAREA":"\u25A0祖\u25A0","LANE":" ","ALLEY":" ","HOUSE_NO":"２２號","E_COORD97":172880.14999999999,"N_COORD97":2565402.5800000001,"ADDRESS":"\u25A0祖\u25A0２２號","OBJECTID":121070},"geometry":{"x":172880.1500000013,"y":2565402.5800000001}},{"attributes":{"ID":121071,"DIS_CODE":0,"TOWNNAME":"麻豆區","LI":"大埕里","LIN":"10鄰","STREET":" ","SECT":" ","MAREA":"\u25A0祖\u25A0","LANE":" ","ALLEY":" ","HOUSE_NO":"２５號之１","E_COORD97":172970,"N_COORD97":2565377.1899999999,"ADDRESS":"\u25A0祖\u25A0２５號之１","OBJECTID":121071},"geometry":{"x":172970.00000000186,"y":2565377.1899999995}},{"attributes":{"ID":121072,"DIS_CODE":0,"TOWNNAME":"麻豆區","LI":"大埕里","LIN":"10鄰","STREET":" ","SECT":" ","MAREA":"\u25A0祖\u25A0","LANE":" ","ALLEY":" ","HOUSE_NO":"２５號","E_COORD97":172964.72,"N_COORD97":2565359.6099999999,"ADDRESS":"\u25A0祖\u25A0２５號","OBJECTID":121072},"geometry":{"x":172964.71999999881,"y":2565359.6100000013}},{"attributes":{"ID":121073,"DIS_CODE":0,"TOWNNAME":"麻豆區","LI":"大埕里","LIN":"10鄰","STREET":" ","SECT":" ","MAREA":"\u25A0祖\u25A0","LANE":" ","ALLEY":" ","HOUSE_NO":"２６號","E_COORD97":172964.94,"N_COORD97":2565404.9199999999,"ADDRESS":"\u25A0祖\u25A0２６號","OBJECTID":121073},"geometry":{"x":172964.94000000041,"y":2565404.9200000018}},{"attributes":{"ID":121074,"DIS_CODE":0,"TOWNNAME":"麻豆區","LI":"大埕里","LIN":"10鄰","STREET":" ","SECT":" ","MAREA":"\u25A0祖\u25A0","LANE":" ","ALLEY":" ","HOUSE_NO":"２號之１０","E_COORD97":173032.95000000001,"N_COORD97":2565242.2200000002,"ADDRESS":"\u25A0祖\u25A0２號之１０","OBJECTID":121074},"geometry":{"x":173032.95000000019,"y":2565242.2200000007}},{"attributes":{"ID":121075,"DIS_CODE":0,"TOWNNAME":"麻豆區","LI":"大埕里","LIN":"10鄰","STREET":" ","SECT":" ","MAREA":"\u25A0祖\u25A0","LANE":" ","ALLEY":" ","HOUSE_NO":"２號之１１","E_COORD97":173032.04000000001,"N_COORD97":2565245.73,"ADDRESS":"\u25A0祖\u25A0２號之１１","OBJECTID":121075},"geometry":{"x":173032.04000000004,"y":2565245.7300000004}},{"attributes":{"ID":121076,"DIS_CODE":0,"TOWNNAME":"麻豆區","LI":"大埕里","LIN":"10鄰","STREET":" ","SECT":" ","MAREA":"\u25A0祖\u25A0","LANE":" ","ALLEY":" ","HOUSE_NO":"２號之１２","E_COORD97":173030.82000000001,"N_COORD97":2565249.9700000002,"ADDRESS":"\u25A0祖\u25A0２號之１２","OBJECTID":121076},"geometry":{"x":173030.82000000216,"y":2565249.9700000025}},{"attributes":{"ID":121077,"DIS_CODE":0,"TOWNNAME":"麻豆區","LI":"大埕里","LIN":"10鄰","STREET":" ","SECT":" ","MAREA":"\u25A0祖\u25A0","LANE":" ","ALLEY":" ","HOUSE_NO":"２號之１３","E_COORD97":173029.57000000001,"N_COORD97":2565253.4199999999,"ADDRESS":"\u25A0祖\u25A0２號之１３","OBJECTID":121077},"geometry":{"x":173029.57000000123,"y":2565253.4200000018}},{"attributes":{"ID":121078,"DIS_CODE":0,"TOWNNAME":"麻豆區","LI":"大埕里","LIN":"10鄰","STREET":" ","SECT":" ","MAREA":"\u25A0祖\u25A0","LANE":" ","ALLEY":" ","HOUSE_NO":"２號之２","E_COORD97":173037.85999999999,"N_COORD97":2565180.04,"ADDRESS":"\u25A0祖\u25A0２號之２","OBJECTID":121078},"geometry":{"x":173037.86000000127,"y":2565180.040000001}},{"attributes":{"ID":121079,"DIS_CODE":0,"TOWNNAME":"麻豆區","LI":"大埕里","LIN":"10鄰","STREET":" ","SECT":" ","MAREA":"\u25A0祖\u25A0","LANE":" ","ALLEY":" ","HOUSE_NO":"２號之３","E_COORD97":173032.89999999999,"N_COORD97":2565180.8799999999,"ADDRESS":"\u25A0祖\u25A0２號之３","OBJECTID":121079},"geometry":{"x":173032.9000000013,"y":2565180.8800000008}},{"attributes":{"ID":121080,"DIS_CODE":0,"TOWNNAME":"麻豆區","LI":"大埕里","LIN":"10鄰","STREET":" ","SECT":" ","MAREA":"\u25A0祖\u25A0","LANE":" ","ALLEY":" ","HOUSE_NO":"２號之４","E_COORD97":173029.59,"N_COORD97":2565183.4300000002,"ADDRESS":"\u25A0祖\u25A0２號之４","OBJECTID":121080},"geometry":{"x":173029.58999999985,"y":2565183.4299999997}},{"attributes":{"ID":121081,"DIS_CODE":0,"TOWNNAME":"麻豆區","LI":"大埕里","LIN":"10鄰","STREET":" ","SECT":" ","MAREA":"\u25A0祖\u25A0","LANE":" ","ALLEY":" ","HOUSE_NO":"２號之５","E_COORD97":173025.81,"N_COORD97":2565184.77,"ADDRESS":"\u25A0祖\u25A0２號之５","OBJECTID":121081},"geometry":{"x":173025.81000000052,"y":2565184.7700000033}},{"attributes":{"ID":121082,"DIS_CODE":0,"TOWNNAME":"麻豆區","LI":"大埕里","LIN":"10鄰","STREET":" ","SECT":" ","MAREA":"\u25A0祖\u25A0","LANE":" ","ALLEY":" ","HOUSE_NO":"２號之６","E_COORD97":173043.23999999999,"N_COORD97":2565174.02,"ADDRESS":"\u25A0祖\u25A0２號之６","OBJECTID":121082},"geometry":{"x":173043.24000000209,"y":2565174.0200000014}},{"attributes":{"ID":121083,"DIS_CODE":0,"TOWNNAME":"麻豆區","LI":"大埕里","LIN":"10鄰","STREET":" ","SECT":" ","MAREA":"\u25A0祖\u25A0","LANE":" ","ALLEY":" ","HOUSE_NO":"２號之７","E_COORD97":173035.54000000001,"N_COORD97":2565229.9199999999,"ADDRESS":"\u25A0祖\u25A0２號之７","OBJECTID":121083},"geometry":{"x":173035.54000000004,"y":2565229.9199999999}},{"attributes":{"ID":121084,"DIS_CODE":0,"TOWNNAME":"麻豆區","LI":"大埕里","LIN":"10鄰","STREET":" ","SECT":" ","MAREA":"\u25A0祖\u25A0","LANE":" ","ALLEY":" ","HOUSE_NO":"２號之８","E_COORD97":173034.34,"N_COORD97":2565234.0800000001,"ADDRESS":"\u25A0祖\u25A0２號之８","OBJECTID":121084},"geometry":{"x":173034.34000000078,"y":2565234.0800000038}},{"attributes":{"ID":121085,"DIS_CODE":0,"TOWNNAME":"麻豆區","LI":"大埕里","LIN":"10鄰","STREET":" ","SECT":" ","MAREA":"\u25A0祖\u25A0","LANE":" ","ALLEY":" ","HOUSE_NO":"２號之９","E_COORD97":173034.04999999999,"N_COORD97":2565238.1699999999,"ADDRESS":"\u25A0祖\u25A0２號之９","OBJECTID":121085},"geometry":{"x":173034.05000000075,"y":2565238.1700000018}},{"attributes":{"ID":121086,"DIS_CODE":0,"TOWNNAME":"永康區","LI":"崑山里","LIN":"31鄰","STREET":"永大路","SECT":"二段","MAREA":" ","LANE":" ","ALLEY":" ","HOUSE_NO":"２７號五樓之３","E_COORD97":174133.31,"N_COORD97":2544722.54,"ADDRESS":"永大路二段２７號五樓之３","OBJECTID":121086},"geometry":{"x":174133.30999999959,"y":2544722.540000001}},{"attributes":{"ID":121087,"DIS_CODE":0,"TOWNNAME":"永康區","LI":"\u25A0行里","LIN":"31鄰","STREET":"仁愛街","SECT":" ","MAREA":" ","LANE":" ","ALLEY":" ","HOUSE_NO":"４６之２號七樓","E_COORD97":171946.42999999999,"N_COORD97":2549193.9700000002,"ADDRESS":"仁愛街４６之２號七樓","OBJECTID":121087},"geometry":{"x":171946.43000000063,"y":2549193.9700000007}},{"attributes":{"ID":121088,"DIS_CODE":0,"TOWNNAME":"安南區","LI":"安順里","LIN":"16鄰","STREET":"總安街","SECT":"一段","MAREA":" ","LANE":"１１０巷","ALLEY":"９７弄","HOUSE_NO":"４號","E_COORD97":169761.51999999999,"N_COORD97":2550355.2000000002,"ADDRESS":"總安街一段１１０巷９７弄４號","OBJECTID":121088},"geometry":{"x":169761.51999999955,"y":2550355.200000003}},{"attributes":{"ID":121089,"DIS_CODE":0,"TOWNNAME":"安南區","LI":"學東里","LIN":"16鄰","STREET":"城北路","SECT":" ","MAREA":" ","LANE":"８６６巷","ALLEY":"１０５弄","HOUSE_NO":"４５號","E_COORD97":161106.57000000001,"N_COORD97":2553065.23,"ADDRESS":"城北路８６６巷１０５弄４５號","OBJECTID":121089},"geometry":{"x":161106.5700000003,"y":2553065.2300000042}},{"attributes":{"ID":121090,"DIS_CODE":0,"TOWNNAME":"善化區","LI":"坐駕里","LIN":"16鄰","STREET":"大成路","SECT":" ","MAREA":" ","LANE":"１巷","ALLEY":"１弄","HOUSE_NO":"８號","E_COORD97":178904.17999999999,"N_COORD97":2558845.25,"ADDRESS":"大成路１巷１弄８號","OBJECTID":121090},"geometry":{"x":178904.1799999997,"y":2558845.2500000037}},{"attributes":{"ID":121091,"DIS_CODE":0,"TOWNNAME":"麻豆區","LI":"大埕里","LIN":"10鄰","STREET":" ","SECT":" ","MAREA":"\u25A0祖\u25A0","LANE":" ","ALLEY":" ","HOUSE_NO":"４號之１","E_COORD97":173056.56,"N_COORD97":2565213.71,"ADDRESS":"\u25A0祖\u25A0４號之１","OBJECTID":121091},"geometry":{"x":173056.55999999959,"y":2565213.7100000046}},{"attributes":{"ID":121092,"DIS_CODE":0,"TOWNNAME":"麻豆區","LI":"大埕里","LIN":"10鄰","STREET":" ","SECT":" ","MAREA":"\u25A0祖\u25A0","LANE":" ","ALLEY":" ","HOUSE_NO":"４之２號","E_COORD97":173056.75,"N_COORD97":2565220.4900000002,"ADDRESS":"\u25A0祖\u25A0４之２號","OBJECTID":121092},"geometry":{"x":173056.75000000093,"y":2565220.4900000002}},{"attributes":{"ID":121093,"DIS_CODE":0,"TOWNNAME":"麻豆區","LI":"大埕里","LIN":"10鄰","STREET":" ","SECT":" ","MAREA":"\u25A0祖\u25A0","LANE":" ","ALLEY":" ","HOUSE_NO":"４號之２","E_COORD97":173056.75,"N_COORD97":2565220.4900000002,"ADDRESS":"\u25A0祖\u25A0４號之２","OBJECTID":121093},"geometry":{"x":173056.75000000093,"y":2565220.4900000002}},{"attributes":{"ID":121094,"DIS_CODE":0,"TOWNNAME":"安南區","LI":"佃東里","LIN":"16鄰","STREET":"海佃路","SECT":"四段","MAREA":" ","LANE":"３８８巷","ALLEY":"１３４弄","HOUSE_NO":"５３號之１","E_COORD97":165785.29000000001,"N_COORD97":2551816.3999999999,"ADDRESS":"海佃路四段３８８巷１３４弄５３號之１","OBJECTID":121094},"geometry":{"x":165785.29000000004,"y":2551816.4000000041}},{"attributes":{"ID":121095,"DIS_CODE":0,"TOWNNAME":"安南區","LI":"安和里","LIN":"16鄰","STREET":"安和路","SECT":"一段","MAREA":" ","LANE":"１５０巷","ALLEY":"２０弄","HOUSE_NO":"３號之１","E_COORD97":169552.57999999999,"N_COORD97":2547696.6899999999,"ADDRESS":"安和路一段１５０巷２０弄３號之１","OBJECTID":121095},"geometry":{"x":169552.58000000101,"y":2547696.6899999995}},{"attributes":{"ID":121096,"DIS_CODE":0,"TOWNNAME":"麻豆區","LI":"大埕里","LIN":"10鄰","STREET":" ","SECT":" ","MAREA":"\u25A0祖\u25A0","LANE":" ","ALLEY":" ","HOUSE_NO":"５號之１","E_COORD97":173057.17000000001,"N_COORD97":2565228.02,"ADDRESS":"\u25A0祖\u25A0５號之１","OBJECTID":121096},"geometry":{"x":173057.17000000086,"y":2565228.0200000014}},{"attributes":{"ID":121097,"DIS_CODE":0,"TOWNNAME":"麻豆區","LI":"大埕里","LIN":"10鄰","STREET":" ","SECT":" ","MAREA":"\u25A0祖\u25A0","LANE":" ","ALLEY":" ","HOUSE_NO":"５號之２","E_COORD97":173057.04999999999,"N_COORD97":2565232.79,"ADDRESS":"\u25A0祖\u25A0５號之２","OBJECTID":121097},"geometry":{"x":173057.04999999981,"y":2565232.790000001}},{"attributes":{"ID":121098,"DIS_CODE":0,"TOWNNAME":"麻豆區","LI":"大埕里","LIN":"10鄰","STREET":" ","SECT":" ","MAREA":"\u25A0祖\u25A0","LANE":" ","ALLEY":" ","HOUSE_NO":"５號之３","E_COORD97":173056.54999999999,"N_COORD97":2565237,"ADDRESS":"\u25A0祖\u25A0５號之３","OBJECTID":121098},"geometry":{"x":173056.55000000075,"y":2565237}},{"attributes":{"ID":121099,"DIS_CODE":0,"TOWNNAME":"麻豆區","LI":"大埕里","LIN":"10鄰","STREET":" ","SECT":" ","MAREA":"\u25A0祖\u25A0","LANE":" ","ALLEY":" ","HOUSE_NO":"６號","E_COORD97":173051.28,"N_COORD97":2565246.8700000001,"ADDRESS":"\u25A0祖\u25A0６號","OBJECTID":121099},"geometry":{"x":173051.28000000026,"y":2565246.8700000048}},{"attributes":{"ID":121100,"DIS_CODE":0,"TOWNNAME":"麻豆區","LI":"大埕里","LIN":"10鄰","STREET":" ","SECT":" ","MAREA":"\u25A0祖\u25A0","LANE":" ","ALLEY":" ","HOUSE_NO":"７號","E_COORD97":173049.53,"N_COORD97":2565258.4199999999,"ADDRESS":"\u25A0祖\u25A0７號","OBJECTID":121100},"geometry":{"x":173049.53000000026,"y":2565258.4199999981}},{"attributes":{"ID":121101,"DIS_CODE":0,"TOWNNAME":"麻豆區","LI":"大埕里","LIN":"10鄰","STREET":" ","SECT":" ","MAREA":"\u25A0祖\u25A0","LANE":" ","ALLEY":" ","HOUSE_NO":"８號","E_COORD97":173047.29999999999,"N_COORD97":2565277.3700000001,"ADDRESS":"\u25A0祖\u25A0８號","OBJECTID":121101},"geometry":{"x":173047.29999999981,"y":2565277.3700000048}},{"attributes":{"ID":121102,"DIS_CODE":0,"TOWNNAME":"麻豆區","LI":"大埕里","LIN":"10鄰","STREET":" ","SECT":" ","MAREA":"\u25A0祖\u25A0","LANE":" ","ALLEY":" ","HOUSE_NO":"９號","E_COORD97":173045.66,"N_COORD97":2565346.96,"ADDRESS":"\u25A0祖\u25A0９號","OBJECTID":121102},"geometry":{"x":173045.66000000108,"y":2565346.9600000009}},{"attributes":{"ID":121103,"DIS_CODE":0,"TOWNNAME":"麻豆區","LI":"北勢里","LIN":"9鄰","STREET":" ","SECT":" ","MAREA":"\u25A0祖\u25A0","LANE":" ","ALLEY":" ","HOUSE_NO":"６２號之１","E_COORD97":172849.34,"N_COORD97":2566163.8199999998,"ADDRESS":"\u25A0祖\u25A0６２號之１","OBJECTID":121103},"geometry":{"x":172849.34000000078,"y":2566163.8200000003}},{"attributes":{"ID":121104,"DIS_CODE":0,"TOWNNAME":"仁德區","LI":"上崙里","LIN":"16鄰","STREET":"德崙路","SECT":" ","MAREA":" ","LANE":"３７０巷","ALLEY":"２１弄","HOUSE_NO":"１號","E_COORD97":174057.17999999999,"N_COORD97":2538024.02,"ADDRESS":"德崙路３７０巷２１弄１號","OBJECTID":121104},"geometry":{"x":174057.18000000063,"y":2538024.0200000014}},{"attributes":{"ID":121105,"DIS_CODE":0,"TOWNNAME":"仁德區","LI":"上崙里","LIN":"16鄰","STREET":"德崙路","SECT":" ","MAREA":" ","LANE":"３７０巷","ALLEY":"２１弄","HOUSE_NO":"１０號","E_COORD97":174052.37,"N_COORD97":2538010.2599999998,"ADDRESS":"德崙路３７０巷２１弄１０號","OBJECTID":121105},"geometry":{"x":174052.37000000011,"y":2538010.2599999998}},{"attributes":{"ID":121106,"DIS_CODE":0,"TOWNNAME":"仁德區","LI":"上崙里","LIN":"16鄰","STREET":"德崙路","SECT":" ","MAREA":" ","LANE":"３７０巷","ALLEY":"２１弄","HOUSE_NO":"６號","E_COORD97":174037.64999999999,"N_COORD97":2538002.0099999998,"ADDRESS":"德崙路３７０巷２１弄６號","OBJECTID":121106},"geometry":{"x":174037.6500000013,"y":2538002.0099999998}},{"attributes":{"ID":121107,"DIS_CODE":0,"TOWNNAME":"仁德區","LI":"上崙里","LIN":"16鄰","STREET":"德崙路","SECT":" ","MAREA":" ","LANE":"３７０巷","ALLEY":"２１弄","HOUSE_NO":"８號","E_COORD97":174044.92000000001,"N_COORD97":2538010.7599999998,"ADDRESS":"德崙路３７０巷２１弄８號","OBJECTID":121107},"geometry":{"x":174044.91999999993,"y":2538010.7599999998}},{"attributes":{"ID":121108,"DIS_CODE":0,"TOWNNAME":"仁德區","LI":"上崙里","LIN":"16鄰","STREET":"德崙路","SECT":" ","MAREA":" ","LANE":"３７０巷","ALLEY":"２１弄","HOUSE_NO":"４號","E_COORD97":174012.51999999999,"N_COORD97":2538005.2599999998,"ADDRESS":"德崙路３７０巷２１弄４號","OBJECTID":121108},"geometry":{"x":174012.52000000048,"y":2538005.2600000016}},{"attributes":{"ID":121109,"DIS_CODE":0,"TOWNNAME":"仁德區","LI":"土庫里","LIN":"16鄰","STREET":"土庫一街","SECT":" ","MAREA":" ","LANE":"２２巷","ALLEY":"２３弄","HOUSE_NO":"２８號","E_COORD97":174584.42392299999,"N_COORD97":2543032.8631699998,"ADDRESS":"土庫一街２２巷２３弄２８號","OBJECTID":121109},"geometry":{"x":174584.42392299976,"y":2543032.8631680012}},{"attributes":{"ID":121110,"DIS_CODE":0,"TOWNNAME":"仁德區","LI":"仁義里","LIN":"16鄰","STREET":"義林路","SECT":" ","MAREA":" ","LANE":"２４１巷","ALLEY":"２弄","HOUSE_NO":"１４號","E_COORD97":174536.89999999999,"N_COORD97":2541304.5099999998,"ADDRESS":"義林路２４１巷２弄１４號","OBJECTID":121110},"geometry":{"x":174536.90000000037,"y":2541304.5099999998}},{"attributes":{"ID":121111,"DIS_CODE":0,"TOWNNAME":"仁德區","LI":"土庫里","LIN":"16鄰","STREET":"土庫一街","SECT":" ","MAREA":" ","LANE":"２２巷","ALLEY":"２３弄","HOUSE_NO":"２７號","E_COORD97":174600.67999999999,"N_COORD97":2543043.7400000002,"ADDRESS":"土庫一街２２巷２３弄２７號","OBJECTID":121111},"geometry":{"x":174600.6799999997,"y":2543043.7400000021}},{"attributes":{"ID":121112,"DIS_CODE":0,"TOWNNAME":"仁德區","LI":"土庫里","LIN":"16鄰","STREET":"土庫一街","SECT":" ","MAREA":" ","LANE":"２２巷","ALLEY":"２３弄","HOUSE_NO":"１１號","E_COORD97":174525.17999999999,"N_COORD97":2543038.7400000002,"ADDRESS":"土庫一街２２巷２３弄１１號","OBJECTID":121112},"geometry":{"x":174525.18000000063,"y":2543038.7400000002}},{"attributes":{"ID":121113,"DIS_CODE":0,"TOWNNAME":"仁德區","LI":"土庫里","LIN":"16鄰","STREET":"土庫一街","SECT":" ","MAREA":" ","LANE":"２２巷","ALLEY":"２３弄","HOUSE_NO":"７號","E_COORD97":174512.41,"N_COORD97":2543021.75,"ADDRESS":"土庫一街２２巷２３弄７號","OBJECTID":121113},"geometry":{"x":174512.41000000108,"y":2543021.75}},{"attributes":{"ID":121114,"DIS_CODE":0,"TOWNNAME":"東區","LI":"忠孝里","LIN":"16鄰","STREET":"榮譽街","SECT":" ","MAREA":" ","LANE":"１２３巷","ALLEY":"１弄","HOUSE_NO":"２０之２號","E_COORD97":169829.25,"N_COORD97":2541777.0499999998,"ADDRESS":"榮譽街１２３巷１弄２０之２號","OBJECTID":121114},"geometry":{"x":169829.25000000093,"y":2541777.0500000045}},{"attributes":{"ID":121115,"DIS_CODE":0,"TOWNNAME":"永康區","LI":"崑山里","LIN":"31鄰","STREET":"崑山街","SECT":" ","MAREA":" ","LANE":"９６巷","ALLEY":" ","HOUSE_NO":"２８號","E_COORD97":174053.60000000001,"N_COORD97":2544717.6600000001,"ADDRESS":"崑山街９６巷２８號","OBJECTID":121115},"geometry":{"x":174053.59999999963,"y":2544717.6600000001}},{"attributes":{"ID":121116,"DIS_CODE":0,"TOWNNAME":"東區","LI":"忠孝里","LIN":"24鄰","STREET":"崇明四街","SECT":" ","MAREA":" ","LANE":" ","ALLEY":" ","HOUSE_NO":"５０號七樓之１","E_COORD97":169697.12,"N_COORD97":2542314.1400000001,"ADDRESS":"崇明四街５０號七樓之１","OBJECTID":121116},"geometry":{"x":169697.12000000011,"y":2542314.1400000006}},{"attributes":{"ID":121117,"DIS_CODE":0,"TOWNNAME":"東區","LI":"忠孝里","LIN":"24鄰","STREET":"崇明四街","SECT":" ","MAREA":" ","LANE":" ","ALLEY":" ","HOUSE_NO":"５０號七樓之２","E_COORD97":169697.12,"N_COORD97":2542314.1400000001,"ADDRESS":"崇明四街５０號七樓之２","OBJECTID":121117},"geometry":{"x":169697.12000000011,"y":2542314.1400000006}},{"attributes":{"ID":121118,"DIS_CODE":0,"TOWNNAME":"東區","LI":"忠孝里","LIN":"24鄰","STREET":"崇明四街","SECT":" ","MAREA":" ","LANE":" ","ALLEY":" ","HOUSE_NO":"５０號七樓之３","E_COORD97":169697.12,"N_COORD97":2542314.1400000001,"ADDRESS":"崇明四街５０號七樓之３","OBJECTID":121118},"geometry":{"x":169697.12000000011,"y":2542314.1400000006}},{"attributes":{"ID":121119,"DIS_CODE":0,"TOWNNAME":"東區","LI":"忠孝里","LIN":"24鄰","STREET":"崇明四街","SECT":" ","MAREA":" ","LANE":" ","ALLEY":" ","HOUSE_NO":"５０號七樓之４","E_COORD97":169697.12,"N_COORD97":2542314.1400000001,"ADDRESS":"崇明四街５０號七樓之４","OBJECTID":121119},"geometry":{"x":169697.12000000011,"y":2542314.1400000006}},{"attributes":{"ID":121120,"DIS_CODE":0,"TOWNNAME":"永康區","LI":"五王里","LIN":"24鄰","STREET":"成功路","SECT":" ","MAREA":" ","LANE":" ","ALLEY":" ","HOUSE_NO":"２５８號七樓之２","E_COORD97":171313.87,"N_COORD97":2545846.04,"ADDRESS":"成功路２５８號七樓之２","OBJECTID":121120},"geometry":{"x":171313.87000000104,"y":2545846.0399999991}},{"attributes":{"ID":121121,"DIS_CODE":0,"TOWNNAME":"永康區","LI":"五王里","LIN":"24鄰","STREET":"成功路","SECT":" ","MAREA":" ","LANE":" ","ALLEY":" ","HOUSE_NO":"２５８號四樓之１１","E_COORD97":171314.98000000001,"N_COORD97":2545846.04,"ADDRESS":"成功路２５８號四樓之１１","OBJECTID":121121},"geometry":{"x":171314.98000000138,"y":2545846.0399999991}},{"attributes":{"ID":121122,"DIS_CODE":0,"TOWNNAME":"永康區","LI":"五王里","LIN":"24鄰","STREET":"成功路","SECT":" ","MAREA":" ","LANE":" ","ALLEY":" ","HOUSE_NO":"２５８號三樓之１５","E_COORD97":171315.14000000001,"N_COORD97":2545846.04,"ADDRESS":"成功路２５８號三樓之１５","OBJECTID":121122},"geometry":{"x":171315.13999999966,"y":2545846.0399999991}},{"attributes":{"ID":121123,"DIS_CODE":0,"TOWNNAME":"永康區","LI":"五王里","LIN":"24鄰","STREET":"成功路","SECT":" ","MAREA":" ","LANE":" ","ALLEY":" ","HOUSE_NO":"２５８號七樓之７","E_COORD97":171313.81,"N_COORD97":2545846.04,"ADDRESS":"成功路２５８號七樓之７","OBJECTID":121123},"geometry":{"x":171313.81000000052,"y":2545846.0399999991}},{"attributes":{"ID":121124,"DIS_CODE":0,"TOWNNAME":"東區","LI":"仁和里","LIN":"24鄰","STREET":"利東街","SECT":" ","MAREA":" ","LANE":" ","ALLEY":" ","HOUSE_NO":"３０號三樓","E_COORD97":171633.89000000001,"N_COORD97":2541106.0499999998,"ADDRESS":"利東街３０號三樓","OBJECTID":121124},"geometry":{"x":171633.88999999966,"y":2541106.0500000026}},{"attributes":{"ID":121125,"DIS_CODE":0,"TOWNNAME":"永康區","LI":"五王里","LIN":"24鄰","STREET":"成功路","SECT":" ","MAREA":" ","LANE":" ","ALLEY":" ","HOUSE_NO":"２５８號三樓之３","E_COORD97":171313.82999999999,"N_COORD97":2545846.04,"ADDRESS":"成功路２５８號三樓之３","OBJECTID":121125},"geometry":{"x":171313.83000000101,"y":2545846.0399999991}},{"attributes":{"ID":121126,"DIS_CODE":0,"TOWNNAME":"東區","LI":"中西里","LIN":"16鄰","STREET":"長榮路","SECT":"二段","MAREA":" ","LANE":"１７０巷","ALLEY":"１６弄","HOUSE_NO":"１號","E_COORD97":170086.98999999999,"N_COORD97":2543279.1400000001,"ADDRESS":"長榮路二段１７０巷１６弄１號","OBJECTID":121126},"geometry":{"x":170086.99000000115,"y":2543279.1400000025}},{"attributes":{"ID":121127,"DIS_CODE":0,"TOWNNAME":"東區","LI":"中西里","LIN":"16鄰","STREET":"長榮路","SECT":"二段","MAREA":" ","LANE":"１７０巷","ALLEY":"１６弄","HOUSE_NO":"２號","E_COORD97":170083.56,"N_COORD97":2543290.6800000002,"ADDRESS":"長榮路二段１７０巷１６弄２號","OBJECTID":121127},"geometry":{"x":170083.55999999959,"y":2543290.6800000016}},{"attributes":{"ID":121128,"DIS_CODE":0,"TOWNNAME":"東區","LI":"中西里","LIN":"16鄰","STREET":"長榮路","SECT":"二段","MAREA":" ","LANE":"１７０巷","ALLEY":"１６弄","HOUSE_NO":"３號","E_COORD97":170084.16,"N_COORD97":2543276.5499999998,"ADDRESS":"長榮路二段１７０巷１６弄３號","OBJECTID":121128},"geometry":{"x":170084.16000000108,"y":2543276.5500000026}},{"attributes":{"ID":121129,"DIS_CODE":0,"TOWNNAME":"東區","LI":"中西里","LIN":"16鄰","STREET":"長榮路","SECT":"二段","MAREA":" ","LANE":"１７０巷","ALLEY":"１６弄","HOUSE_NO":"４號","E_COORD97":170079.44,"N_COORD97":2543288.2599999998,"ADDRESS":"長榮路二段１７０巷１６弄４號","OBJECTID":121129},"geometry":{"x":170079.44000000134,"y":2543288.2599999998}},{"attributes":{"ID":121130,"DIS_CODE":0,"TOWNNAME":"永康區","LI":"復國里","LIN":"31鄰","STREET":"復國一路","SECT":" ","MAREA":" ","LANE":" ","ALLEY":" ","HOUSE_NO":"１４３號","E_COORD97":172706.89999999999,"N_COORD97":2545134.02,"ADDRESS":"復國一路１４３號","OBJECTID":121130},"geometry":{"x":172706.9000000013,"y":2545134.0199999996}},{"attributes":{"ID":121131,"DIS_CODE":0,"TOWNNAME":"仁德區","LI":"仁德里","LIN":"39鄰","STREET":"文山路","SECT":" ","MAREA":" ","LANE":" ","ALLEY":" ","HOUSE_NO":"２３１號","E_COORD97":172636.04000000001,"N_COORD97":2541753.5800000001,"ADDRESS":"文山路２３１號","OBJECTID":121131},"geometry":{"x":172636.04000000097,"y":2541753.5800000019}},{"attributes":{"ID":121132,"DIS_CODE":0,"TOWNNAME":"仁德區","LI":"大甲里","LIN":"24鄰","STREET":"中正西路","SECT":" ","MAREA":" ","LANE":" ","ALLEY":" ","HOUSE_NO":"３８５號","E_COORD97":169649.12,"N_COORD97":2535381.9900000002,"ADDRESS":"中正西路３８５號","OBJECTID":121132},"geometry":{"x":169649.12000000104,"y":2535381.9900000002}},{"attributes":{"ID":121133,"DIS_CODE":0,"TOWNNAME":"東區","LI":"中西里","LIN":"16鄰","STREET":"長榮路","SECT":"二段","MAREA":" ","LANE":"１７０巷","ALLEY":"１６弄","HOUSE_NO":"６號","E_COORD97":170076.12,"N_COORD97":2543285.3500000001,"ADDRESS":"長榮路二段１７０巷１６弄６號","OBJECTID":121133},"geometry":{"x":170076.12000000104,"y":2543285.3499999996}},{"attributes":{"ID":121134,"DIS_CODE":0,"TOWNNAME":"東區","LI":"中西里","LIN":"16鄰","STREET":"長榮路","SECT":"二段","MAREA":" ","LANE":"１７０巷","ALLEY":"４弄","HOUSE_NO":"１０號","E_COORD97":170064.09,"N_COORD97":2543318.4700000002,"ADDRESS":"長榮路二段１７０巷４弄１０號","OBJECTID":121134},"geometry":{"x":170064.09000000078,"y":2543318.4700000007}},{"attributes":{"ID":121135,"DIS_CODE":0,"TOWNNAME":"東區","LI":"中西里","LIN":"16鄰","STREET":"長榮路","SECT":"二段","MAREA":" ","LANE":"１７０巷","ALLEY":"４弄","HOUSE_NO":"１２號","E_COORD97":170061.67000000001,"N_COORD97":2543314.9300000002,"ADDRESS":"長榮路二段１７０巷４弄１２號","OBJECTID":121135},"geometry":{"x":170061.67000000086,"y":2543314.9299999997}},{"attributes":{"ID":121136,"DIS_CODE":0,"TOWNNAME":"東區","LI":"中西里","LIN":"16鄰","STREET":"長榮路","SECT":"二段","MAREA":" ","LANE":"１７０巷","ALLEY":"４弄","HOUSE_NO":"１４號","E_COORD97":170058.42999999999,"N_COORD97":2543311.2200000002,"ADDRESS":"長榮路二段１７０巷４弄１４號","OBJECTID":121136},"geometry":{"x":170058.43000000063,"y":2543311.2199999988}},{"attributes":{"ID":121137,"DIS_CODE":0,"TOWNNAME":"東區","LI":"中西里","LIN":"16鄰","STREET":"長榮路","SECT":"二段","MAREA":" ","LANE":"１７０巷","ALLEY":"４弄","HOUSE_NO":"１６號","E_COORD97":170055.04000000001,"N_COORD97":2543308.71,"ADDRESS":"長榮路二段１７０巷４弄１６號","OBJECTID":121137},"geometry":{"x":170055.04000000004,"y":2543308.7100000028}},{"attributes":{"ID":121138,"DIS_CODE":0,"TOWNNAME":"東區","LI":"中西里","LIN":"16鄰","STREET":"長榮路","SECT":"二段","MAREA":" ","LANE":"１７０巷","ALLEY":"４弄","HOUSE_NO":"１８號","E_COORD97":170052.29000000001,"N_COORD97":2543305.5600000001,"ADDRESS":"長榮路二段１７０巷４弄１８號","OBJECTID":121138},"geometry":{"x":170052.2900000019,"y":2543305.5600000042}},{"attributes":{"ID":121139,"DIS_CODE":0,"TOWNNAME":"東區","LI":"中西里","LIN":"16鄰","STREET":"長榮路","SECT":"二段","MAREA":" ","LANE":"１７０巷","ALLEY":"４弄","HOUSE_NO":"１號","E_COORD97":170073.04999999999,"N_COORD97":2543311.1699999999,"ADDRESS":"長榮路二段１７０巷４弄１號","OBJECTID":121139},"geometry":{"x":170073.05000000075,"y":2543311.1700000037}},{"attributes":{"ID":121140,"DIS_CODE":0,"TOWNNAME":"東區","LI":"中西里","LIN":"16鄰","STREET":"長榮路","SECT":"二段","MAREA":" ","LANE":"１７０巷","ALLEY":"４弄","HOUSE_NO":"２０號","E_COORD97":170049.54000000001,"N_COORD97":2543303.2200000002,"ADDRESS":"長榮路二段１７０巷４弄２０號","OBJECTID":121140},"geometry":{"x":170049.54000000097,"y":2543303.2200000007}},{"attributes":{"ID":121141,"DIS_CODE":0,"TOWNNAME":"東區","LI":"中西里","LIN":"16鄰","STREET":"長榮路","SECT":"二段","MAREA":" ","LANE":"１７０巷","ALLEY":"４弄","HOUSE_NO":"２２號","E_COORD97":170046.79000000001,"N_COORD97":2543299.7400000002,"ADDRESS":"長榮路二段１７０巷４弄２２號","OBJECTID":121141},"geometry":{"x":170046.79000000004,"y":2543299.7400000002}},{"attributes":{"ID":121142,"DIS_CODE":0,"TOWNNAME":"東區","LI":"中西里","LIN":"16鄰","STREET":"長榮路","SECT":"二段","MAREA":" ","LANE":"１７０巷","ALLEY":"４弄","HOUSE_NO":"２４號","E_COORD97":170044.76000000001,"N_COORD97":2543296.27,"ADDRESS":"長榮路二段１７０巷４弄２４號","OBJECTID":121142},"geometry":{"x":170044.75999999978,"y":2543296.2700000033}},{"attributes":{"ID":121143,"DIS_CODE":0,"TOWNNAME":"東區","LI":"中西里","LIN":"16鄰","STREET":"長榮路","SECT":"二段","MAREA":" ","LANE":"１７０巷","ALLEY":"４弄","HOUSE_NO":"３號","E_COORD97":170070.70000000001,"N_COORD97":2543306.5600000001,"ADDRESS":"長榮路二段１７０巷４弄３號","OBJECTID":121143},"geometry":{"x":170070.70000000112,"y":2543306.5600000024}},{"attributes":{"ID":121144,"DIS_CODE":0,"TOWNNAME":"仁德區","LI":"後壁里","LIN":"5鄰","STREET":"德善路","SECT":" ","MAREA":" ","LANE":" ","ALLEY":" ","HOUSE_NO":"１０５號","E_COORD97":173403.51999999999,"N_COORD97":2538866.27,"ADDRESS":"德善路１０５號","OBJECTID":121144},"geometry":{"x":173403.52000000048,"y":2538866.2700000014}},{"attributes":{"ID":121145,"DIS_CODE":0,"TOWNNAME":"仁德區","LI":"仁德里","LIN":"39鄰","STREET":"文宏二街","SECT":" ","MAREA":" ","LANE":" ","ALLEY":" ","HOUSE_NO":"６７號","E_COORD97":172447.87,"N_COORD97":2541791.5800000001,"ADDRESS":"文宏二街６７號","OBJECTID":121145},"geometry":{"x":172447.87000000104,"y":2541791.5800000001}},{"attributes":{"ID":121146,"DIS_CODE":0,"TOWNNAME":"仁德區","LI":"成功里","LIN":"4鄰","STREET":"成功三街","SECT":" ","MAREA":" ","LANE":" ","ALLEY":" ","HOUSE_NO":"９２號","E_COORD97":171169.45999999999,"N_COORD97":2539821.52,"ADDRESS":"成功三街９２號","OBJECTID":121146},"geometry":{"x":171169.45999999996,"y":2539821.5199999996}},{"attributes":{"ID":121147,"DIS_CODE":0,"TOWNNAME":"仁德區","LI":"太子里","LIN":"18鄰","STREET":"太子路","SECT":" ","MAREA":" ","LANE":" ","ALLEY":" ","HOUSE_NO":"２８２號","E_COORD97":174057.42000000001,"N_COORD97":2543522.0099999998,"ADDRESS":"太子路２８２號","OBJECTID":121147},"geometry":{"x":174057.42000000086,"y":2543522.0099999979}},{"attributes":{"ID":121148,"DIS_CODE":0,"TOWNNAME":"仁德區","LI":"新田里","LIN":"13鄰","STREET":"中正路","SECT":"二段","MAREA":" ","LANE":" ","ALLEY":" ","HOUSE_NO":"４２１號","E_COORD97":173300.14999999999,"N_COORD97":2539389.7799999998,"ADDRESS":"中正路二段４２１號","OBJECTID":121148},"geometry":{"x":173300.1500000013,"y":2539389.7799999993}},{"attributes":{"ID":121149,"DIS_CODE":0,"TOWNNAME":"仁德區","LI":"後壁里","LIN":"40鄰","STREET":"德善二街","SECT":" ","MAREA":" ","LANE":" ","ALLEY":" ","HOUSE_NO":"１９號","E_COORD97":173540.82000000001,"N_COORD97":2538906.5099999998,"ADDRESS":"德善二街１９號","OBJECTID":121149},"geometry":{"x":173540.8200000003,"y":2538906.5099999998}},{"attributes":{"ID":121150,"DIS_CODE":0,"TOWNNAME":"仁德區","LI":"仁德里","LIN":"43鄰","STREET":"中山路","SECT":" ","MAREA":" ","LANE":" ","ALLEY":" ","HOUSE_NO":"９１４號","E_COORD97":171971.57000000001,"N_COORD97":2541730.4900000002,"ADDRESS":"中山路９１４號","OBJECTID":121150},"geometry":{"x":171971.57000000123,"y":2541730.4900000021}},{"attributes":{"ID":121151,"DIS_CODE":0,"TOWNNAME":"東區","LI":"中西里","LIN":"16鄰","STREET":"長榮路","SECT":"二段","MAREA":" ","LANE":"１７０巷","ALLEY":"４弄","HOUSE_NO":"５號","E_COORD97":170067.70999999999,"N_COORD97":2543303.3300000001,"ADDRESS":"長榮路二段１７０巷４弄５號","OBJECTID":121151},"geometry":{"x":170067.70999999996,"y":2543303.3300000038}},{"attributes":{"ID":121152,"DIS_CODE":0,"TOWNNAME":"東區","LI":"中西里","LIN":"16鄰","STREET":"長榮路","SECT":"二段","MAREA":" ","LANE":"１７０巷","ALLEY":"４弄","HOUSE_NO":"６號","E_COORD97":170069.59,"N_COORD97":2543324.77,"ADDRESS":"長榮路二段１７０巷４弄６號","OBJECTID":121152},"geometry":{"x":170069.59000000078,"y":2543324.7700000014}},{"attributes":{"ID":121153,"DIS_CODE":0,"TOWNNAME":"仁德區","LI":"新田里","LIN":"4鄰","STREET":"勝利路","SECT":" ","MAREA":" ","LANE":" ","ALLEY":" ","HOUSE_NO":"１２７號","E_COORD97":174196.48000000001,"N_COORD97":2539668.75,"ADDRESS":"勝利路１２７號","OBJECTID":121153},"geometry":{"x":174196.48000000138,"y":2539668.75}},{"attributes":{"ID":121154,"DIS_CODE":0,"TOWNNAME":"東區","LI":"中西里","LIN":"16鄰","STREET":"長榮路","SECT":"二段","MAREA":" ","LANE":"１７０巷","ALLEY":"４弄","HOUSE_NO":"７號","E_COORD97":170063.57999999999,"N_COORD97":2543296.6600000001,"ADDRESS":"長榮路二段１７０巷４弄７號","OBJECTID":121154},"geometry":{"x":170063.58000000007,"y":2543296.6600000001}},{"attributes":{"ID":121155,"DIS_CODE":0,"TOWNNAME":"東區","LI":"中西里","LIN":"16鄰","STREET":"長榮路","SECT":"二段","MAREA":" ","LANE":"１７０巷","ALLEY":"４弄","HOUSE_NO":"８號","E_COORD97":170067.41,"N_COORD97":2543321.3700000001,"ADDRESS":"長榮路二段１７０巷４弄８號","OBJECTID":121155},"geometry":{"x":170067.41000000108,"y":2543321.3700000029}},{"attributes":{"ID":121156,"DIS_CODE":0,"TOWNNAME":"仁德區","LI":"新田里","LIN":"4鄰","STREET":"新田路","SECT":" ","MAREA":" ","LANE":" ","ALLEY":" ","HOUSE_NO":"２３２之１號","E_COORD97":174504.51999999999,"N_COORD97":2539576.7999999998,"ADDRESS":"新田路２３２之１號","OBJECTID":121156},"geometry":{"x":174504.51999999955,"y":2539576.8000000007}},{"attributes":{"ID":121157,"DIS_CODE":0,"TOWNNAME":"永康區","LI":"甲頂里","LIN":"16鄰","STREET":"中正南路","SECT":" ","MAREA":" ","LANE":"５２巷","ALLEY":"２１弄","HOUSE_NO":"２號","E_COORD97":169836.73999999999,"N_COORD97":2546819.2999999998,"ADDRESS":"中正南路５２巷２１弄２號","OBJECTID":121157},"geometry":{"x":169836.74000000115,"y":2546819.3000000007}},{"attributes":{"ID":121158,"DIS_CODE":0,"TOWNNAME":"永康區","LI":"甲頂里","LIN":"16鄰","STREET":"中正南路","SECT":" ","MAREA":" ","LANE":"５２巷","ALLEY":"２１弄","HOUSE_NO":"３號","E_COORD97":169842.87,"N_COORD97":2546817.7599999998,"ADDRESS":"中正南路５２巷２１弄３號","OBJECTID":121158},"geometry":{"x":169842.87000000011,"y":2546817.7599999998}},{"attributes":{"ID":121159,"DIS_CODE":0,"TOWNNAME":"永康區","LI":"安康里","LIN":"16鄰","STREET":"中華路","SECT":" ","MAREA":" ","LANE":"６１９巷","ALLEY":"２２弄","HOUSE_NO":"１５號","E_COORD97":170962.76999999999,"N_COORD97":2546137.8799999999,"ADDRESS":"中華路６１９巷２２弄１５號","OBJECTID":121159},"geometry":{"x":170962.77000000048,"y":2546137.879999999}},{"attributes":{"ID":121160,"DIS_CODE":0,"TOWNNAME":"永康區","LI":"甲頂里","LIN":"16鄰","STREET":"中正南路","SECT":" ","MAREA":" ","LANE":"５２巷","ALLEY":"２１弄","HOUSE_NO":"４號","E_COORD97":169846.70000000001,"N_COORD97":2546816.0800000001,"ADDRESS":"中正南路５２巷２１弄４號","OBJECTID":121160},"geometry":{"x":169846.70000000112,"y":2546816.0800000001}},{"attributes":{"ID":121161,"DIS_CODE":0,"TOWNNAME":"永康區","LI":"西橋里","LIN":"16鄰","STREET":"大橋一街","SECT":" ","MAREA":" ","LANE":"３１巷","ALLEY":"４１弄","HOUSE_NO":"６號","E_COORD97":170559.76999999999,"N_COORD97":2546395.4900000002,"ADDRESS":"大橋一街３１巷４１弄６號","OBJECTID":121161},"geometry":{"x":170559.76999999955,"y":2546395.4900000021}},{"attributes":{"ID":121162,"DIS_CODE":0,"TOWNNAME":"安南區","LI":"學東里","LIN":"16鄰","STREET":"城北路","SECT":" ","MAREA":" ","LANE":"８６６巷","ALLEY":"１０５弄","HOUSE_NO":"３６號","E_COORD97":161082.14999999999,"N_COORD97":2553057.6200000001,"ADDRESS":"城北路８６６巷１０５弄３６號","OBJECTID":121162},"geometry":{"x":161082.15000000037,"y":2553057.6200000029}},{"attributes":{"ID":121163,"DIS_CODE":0,"TOWNNAME":"安南區","LI":"海佃里","LIN":"16鄰","STREET":"國安街","SECT":" ","MAREA":" ","LANE":"５６巷","ALLEY":"２０１弄","HOUSE_NO":"１８號","E_COORD97":166813.14999999999,"N_COORD97":2547618.1299999999,"ADDRESS":"國安街５６巷２０１弄１８號","OBJECTID":121163},"geometry":{"x":166813.1500000013,"y":2547618.129999999}},{"attributes":{"ID":121164,"DIS_CODE":0,"TOWNNAME":"安南區","LI":"海佃里","LIN":"16鄰","STREET":"國安街","SECT":" ","MAREA":" ","LANE":"５６巷","ALLEY":"２０１弄","HOUSE_NO":"１７號","E_COORD97":166818.28,"N_COORD97":2547595.0499999998,"ADDRESS":"國安街５６巷２０１弄１７號","OBJECTID":121164},"geometry":{"x":166818.28000000212,"y":2547595.0500000026}},{"attributes":{"ID":121165,"DIS_CODE":0,"TOWNNAME":"安南區","LI":"海佃里","LIN":"16鄰","STREET":"國安街","SECT":" ","MAREA":" ","LANE":"５６巷","ALLEY":"２０１弄","HOUSE_NO":"２６號","E_COORD97":166786.38,"N_COORD97":2547611.54,"ADDRESS":"國安街５６巷２０１弄２６號","OBJECTID":121165},"geometry":{"x":166786.37999999989,"y":2547611.540000001}},{"attributes":{"ID":121166,"DIS_CODE":0,"TOWNNAME":"安南區","LI":"海佃里","LIN":"16鄰","STREET":"國安街","SECT":" ","MAREA":" ","LANE":"５６巷","ALLEY":"２０１弄","HOUSE_NO":"３５號","E_COORD97":166764.75,"N_COORD97":2547585.54,"ADDRESS":"國安街５６巷２０１弄３５號","OBJECTID":121166},"geometry":{"x":166764.75000000093,"y":2547585.5399999991}},{"attributes":{"ID":121167,"DIS_CODE":0,"TOWNNAME":"安南區","LI":"海南里","LIN":"16鄰","STREET":"府安路","SECT":"七段","MAREA":" ","LANE":"１０２巷","ALLEY":"１５弄","HOUSE_NO":"２號","E_COORD97":165736.44,"N_COORD97":2545851.8900000001,"ADDRESS":"府安路七段１０２巷１５弄２號","OBJECTID":121167},"geometry":{"x":165736.44000000134,"y":2545851.8900000006}},{"attributes":{"ID":121168,"DIS_CODE":0,"TOWNNAME":"安南區","LI":"海南里","LIN":"16鄰","STREET":"府安路","SECT":"七段","MAREA":" ","LANE":"１０２巷","ALLEY":"２３弄","HOUSE_NO":"１號","E_COORD97":165722.67999999999,"N_COORD97":2545870.3399999999,"ADDRESS":"府安路七段１０２巷２３弄１號","OBJECTID":121168},"geometry":{"x":165722.6799999997,"y":2545870.3400000017}},{"attributes":{"ID":121169,"DIS_CODE":0,"TOWNNAME":"安南區","LI":"海南里","LIN":"16鄰","STREET":"府安路","SECT":"七段","MAREA":" ","LANE":"１０２巷","ALLEY":"２３弄","HOUSE_NO":"２號","E_COORD97":165713.35999999999,"N_COORD97":2545884.6899999999,"ADDRESS":"府安路七段１０２巷２３弄２號","OBJECTID":121169},"geometry":{"x":165713.36000000034,"y":2545884.6900000013}},{"attributes":{"ID":121170,"DIS_CODE":0,"TOWNNAME":"安南區","LI":"海南里","LIN":"16鄰","STREET":"府安路","SECT":"七段","MAREA":" ","LANE":"１０２巷","ALLEY":"２３弄","HOUSE_NO":"４號","E_COORD97":165706.32999999999,"N_COORD97":2545875.9900000002,"ADDRESS":"府安路七段１０２巷２３弄４號","OBJECTID":121170},"geometry":{"x":165706.33000000101,"y":2545875.9900000021}},{"attributes":{"ID":121171,"DIS_CODE":0,"TOWNNAME":"善化區","LI":"坐駕里","LIN":"16鄰","STREET":"大成路","SECT":" ","MAREA":" ","LANE":"１巷","ALLEY":"１弄","HOUSE_NO":"１６號","E_COORD97":178890.88,"N_COORD97":2558843.25,"ADDRESS":"大成路１巷１弄１６號","OBJECTID":121171},"geometry":{"x":178890.88000000082,"y":2558843.2500000019}},{"attributes":{"ID":121172,"DIS_CODE":0,"TOWNNAME":"善化區","LI":"坐駕里","LIN":"16鄰","STREET":"大成路","SECT":" ","MAREA":" ","LANE":"１巷","ALLEY":"１弄","HOUSE_NO":"１８號","E_COORD97":178886.26999999999,"N_COORD97":2558842.75,"ADDRESS":"大成路１巷１弄１８號","OBJECTID":121172},"geometry":{"x":178886.27000000048,"y":2558842.7500000019}},{"attributes":{"ID":121173,"DIS_CODE":0,"TOWNNAME":"善化區","LI":"坐駕里","LIN":"16鄰","STREET":"大成路","SECT":" ","MAREA":" ","LANE":"１巷","ALLEY":"１弄","HOUSE_NO":"１２號","E_COORD97":178895.76000000001,"N_COORD97":2558843.75,"ADDRESS":"大成路１巷１弄１２號","OBJECTID":121173},"geometry":{"x":178895.75999999978,"y":2558843.75}},{"attributes":{"ID":121174,"DIS_CODE":0,"TOWNNAME":"善化區","LI":"坐駕里","LIN":"16鄰","STREET":"大成路","SECT":" ","MAREA":" ","LANE":"１巷","ALLEY":"１弄","HOUSE_NO":"２６號","E_COORD97":178872.47,"N_COORD97":2558840.75,"ADDRESS":"大成路１巷１弄２６號","OBJECTID":121174},"geometry":{"x":178872.46999999881,"y":2558840.75}},{"attributes":{"ID":121175,"DIS_CODE":0,"TOWNNAME":"善化區","LI":"坐駕里","LIN":"16鄰","STREET":"大成路","SECT":" ","MAREA":" ","LANE":"１巷","ALLEY":"１弄","HOUSE_NO":"２２號","E_COORD97":178876.98999999999,"N_COORD97":2558841.25,"ADDRESS":"大成路１巷１弄２２號","OBJECTID":121175},"geometry":{"x":178876.99000000115,"y":2558841.25}},{"attributes":{"ID":121176,"DIS_CODE":0,"TOWNNAME":"善化區","LI":"坐駕里","LIN":"16鄰","STREET":"大成路","SECT":" ","MAREA":" ","LANE":"１巷","ALLEY":"１弄","HOUSE_NO":"２８號","E_COORD97":178867.75,"N_COORD97":2558839.75,"ADDRESS":"大成路１巷１弄２８號","OBJECTID":121176},"geometry":{"x":178867.75000000093,"y":2558839.7500000019}},{"attributes":{"ID":121177,"DIS_CODE":0,"TOWNNAME":"仁德區","LI":"仁義里","LIN":"25鄰","STREET":"正義一街","SECT":" ","MAREA":" ","LANE":" ","ALLEY":" ","HOUSE_NO":"３９號","E_COORD97":173416.95000000001,"N_COORD97":2541403.2599999998,"ADDRESS":"正義一街３９號","OBJECTID":121177},"geometry":{"x":173416.95000000112,"y":2541403.2599999998}},{"attributes":{"ID":121178,"DIS_CODE":0,"TOWNNAME":"東區","LI":"莊敬里","LIN":"16鄰","STREET":"莊敬路","SECT":" ","MAREA":" ","LANE":"１８１巷","ALLEY":"２弄","HOUSE_NO":"２號","E_COORD97":171341.23000000001,"N_COORD97":2544130.9900000002,"ADDRESS":"莊敬路１８１巷２弄２號","OBJECTID":121178},"geometry":{"x":171341.23000000045,"y":2544130.9900000021}},{"attributes":{"ID":121179,"DIS_CODE":0,"TOWNNAME":"東區","LI":"中西里","LIN":"16鄰","STREET":"長榮路","SECT":"二段","MAREA":" ","LANE":"１７０巷","ALLEY":"４弄","HOUSE_NO":"２號","E_COORD97":170074.60999999999,"N_COORD97":2543330.9700000002,"ADDRESS":"長榮路二段１７０巷４弄２號","OBJECTID":121179},"geometry":{"x":170074.61000000127,"y":2543330.9700000025}},{"attributes":{"ID":121180,"DIS_CODE":0,"TOWNNAME":"永康區","LI":"尚頂里","LIN":"16鄰","STREET":"中正南路","SECT":" ","MAREA":" ","LANE":"２２０巷","ALLEY":"７弄","HOUSE_NO":"６號","E_COORD97":170206.82999999999,"N_COORD97":2547342.2000000002,"ADDRESS":"中正南路２２０巷７弄６號","OBJECTID":121180},"geometry":{"x":170206.83000000101,"y":2547342.2000000011}},{"attributes":{"ID":121181,"DIS_CODE":0,"TOWNNAME":"安南區","LI":"海南里","LIN":"16鄰","STREET":"府安路","SECT":"七段","MAREA":" ","LANE":"１０２巷","ALLEY":"１５弄","HOUSE_NO":"６號","E_COORD97":165727.48000000001,"N_COORD97":2545847.1899999999,"ADDRESS":"府安路七段１０２巷１５弄６號","OBJECTID":121181},"geometry":{"x":165727.48000000138,"y":2545847.1900000013}},{"attributes":{"ID":121182,"DIS_CODE":0,"TOWNNAME":"白河區","LI":"永安里","LIN":" ","STREET":" ","SECT":" ","MAREA":"新厝子","LANE":" ","ALLEY":" ","HOUSE_NO":"２號","E_COORD97":189577.35999999999,"N_COORD97":2583050.5699999998,"ADDRESS":"新厝子２號","OBJECTID":121182},"geometry":{"x":189577.3600000022,"y":2583050.5699999984}},{"attributes":{"ID":121183,"DIS_CODE":0,"TOWNNAME":"永康區","LI":"網寮里","LIN":"16鄰","STREET":"永勝街","SECT":" ","MAREA":" ","LANE":"２２５巷","ALLEY":"８弄","HOUSE_NO":"１５號","E_COORD97":173381.13,"N_COORD97":2546745.7799999998,"ADDRESS":"永勝街２２５巷８弄１５號","OBJECTID":121183},"geometry":{"x":173381.13000000082,"y":2546745.7800000012}},{"attributes":{"ID":121184,"DIS_CODE":0,"TOWNNAME":"永康區","LI":"網寮里","LIN":"16鄰","STREET":"永勝街","SECT":" ","MAREA":" ","LANE":"２２５巷","ALLEY":"８弄","HOUSE_NO":"７號","E_COORD97":173371.81,"N_COORD97":2546728.5299999998,"ADDRESS":"永勝街２２５巷８弄７號","OBJECTID":121184},"geometry":{"x":173371.80999999959,"y":2546728.5299999993}},{"attributes":{"ID":121185,"DIS_CODE":0,"TOWNNAME":"永康區","LI":"網寮里","LIN":"16鄰","STREET":"永勝街","SECT":" ","MAREA":" ","LANE":"２２５巷","ALLEY":"８弄","HOUSE_NO":"１９號","E_COORD97":173385.06,"N_COORD97":2546754.2799999998,"ADDRESS":"永勝街２２５巷８弄１９號","OBJECTID":121185},"geometry":{"x":173385.06000000052,"y":2546754.2800000031}},{"attributes":{"ID":121186,"DIS_CODE":0,"TOWNNAME":"永康區","LI":"網寮里","LIN":"16鄰","STREET":"永勝街","SECT":" ","MAREA":" ","LANE":"２２５巷","ALLEY":"８弄","HOUSE_NO":"２１號","E_COORD97":173386.85999999999,"N_COORD97":2546758.2799999998,"ADDRESS":"永勝街２２５巷８弄２１號","OBJECTID":121186},"geometry":{"x":173386.86000000127,"y":2546758.2800000012}},{"attributes":{"ID":121187,"DIS_CODE":0,"TOWNNAME":"永康區","LI":"網寮里","LIN":"16鄰","STREET":"永勝街","SECT":" ","MAREA":" ","LANE":"２２５巷","ALLEY":"８弄","HOUSE_NO":"１２號","E_COORD97":173384.89000000001,"N_COORD97":2546728.7000000002,"ADDRESS":"永勝街２２５巷８弄１２號","OBJECTID":121187},"geometry":{"x":173384.88999999966,"y":2546728.7000000011}},{"attributes":{"ID":121188,"DIS_CODE":0,"TOWNNAME":"永康區","LI":"網寮里","LIN":"16鄰","STREET":"永勝街","SECT":" ","MAREA":" ","LANE":"２２５巷","ALLEY":"８弄","HOUSE_NO":"９號","E_COORD97":173373.95000000001,"N_COORD97":2546733.0299999998,"ADDRESS":"永勝街２２５巷８弄９號","OBJECTID":121188},"geometry":{"x":173373.95000000205,"y":2546733.0300000012}},{"attributes":{"ID":121189,"DIS_CODE":0,"TOWNNAME":"麻豆區","LI":"北勢里","LIN":"9鄰","STREET":" ","SECT":" ","MAREA":"\u25A0祖\u25A0","LANE":" ","ALLEY":" ","HOUSE_NO":"６２號","E_COORD97":172769.10999999999,"N_COORD97":2566103.3599999999,"ADDRESS":"\u25A0祖\u25A0６２號","OBJECTID":121189},"geometry":{"x":172769.11000000034,"y":2566103.3600000013}},{"attributes":{"ID":121190,"DIS_CODE":0,"TOWNNAME":"永康區","LI":"網寮里","LIN":"16鄰","STREET":"永勝街","SECT":" ","MAREA":" ","LANE":"２２５巷","ALLEY":"８弄","HOUSE_NO":"２３號","E_COORD97":173393.38,"N_COORD97":2546761.0299999998,"ADDRESS":"永勝街２２５巷８弄２３號","OBJECTID":121190},"geometry":{"x":173393.38000000082,"y":2546761.0300000012}},{"attributes":{"ID":121191,"DIS_CODE":0,"TOWNNAME":"永康區","LI":"網寮里","LIN":"16鄰","STREET":"永勝街","SECT":" ","MAREA":" ","LANE":"２２５巷","ALLEY":"８弄","HOUSE_NO":"２０號","E_COORD97":173393.03,"N_COORD97":2546746.9500000002,"ADDRESS":"永勝街２２５巷８弄２０號","OBJECTID":121191},"geometry":{"x":173393.03000000026,"y":2546746.9500000011}},{"attributes":{"ID":121192,"DIS_CODE":0,"TOWNNAME":"麻豆區","LI":"北勢里","LIN":"9鄰","STREET":" ","SECT":" ","MAREA":"\u25A0祖\u25A0","LANE":" ","ALLEY":" ","HOUSE_NO":"６３號之１","E_COORD97":172753.38,"N_COORD97":2566063.9500000002,"ADDRESS":"\u25A0祖\u25A0６３號之１","OBJECTID":121192},"geometry":{"x":172753.37999999989,"y":2566063.9499999993}},{"attributes":{"ID":121193,"DIS_CODE":0,"TOWNNAME":"麻豆區","LI":"北勢里","LIN":"9鄰","STREET":" ","SECT":" ","MAREA":"\u25A0祖\u25A0","LANE":" ","ALLEY":" ","HOUSE_NO":"６３號","E_COORD97":172751.53,"N_COORD97":2566097.5899999999,"ADDRESS":"\u25A0祖\u25A0６３號","OBJECTID":121193},"geometry":{"x":172751.53000000212,"y":2566097.5899999999}},{"attributes":{"ID":121194,"DIS_CODE":0,"TOWNNAME":"麻豆區","LI":"北勢里","LIN":"9鄰","STREET":" ","SECT":" ","MAREA":"\u25A0祖\u25A0","LANE":" ","ALLEY":" ","HOUSE_NO":"６４號","E_COORD97":172786.38,"N_COORD97":2566072.6000000001,"ADDRESS":"\u25A0祖\u25A0６４號","OBJECTID":121194},"geometry":{"x":172786.38000000082,"y":2566072.5999999996}},{"attributes":{"ID":121195,"DIS_CODE":0,"TOWNNAME":"麻豆區","LI":"北勢里","LIN":"9鄰","STREET":" ","SECT":" ","MAREA":"\u25A0祖\u25A0","LANE":" ","ALLEY":" ","HOUSE_NO":"６５號","E_COORD97":172772.42999999999,"N_COORD97":2566053.46,"ADDRESS":"\u25A0祖\u25A0６５號","OBJECTID":121195},"geometry":{"x":172772.43000000063,"y":2566053.4600000028}},{"attributes":{"ID":121196,"DIS_CODE":0,"TOWNNAME":"麻豆區","LI":"北勢里","LIN":"9鄰","STREET":" ","SECT":" ","MAREA":"\u25A0祖\u25A0","LANE":" ","ALLEY":" ","HOUSE_NO":"６６號之１","E_COORD97":172731.88,"N_COORD97":2565982.3399999999,"ADDRESS":"\u25A0祖\u25A0６６號之１","OBJECTID":121196},"geometry":{"x":172731.88000000082,"y":2565982.3400000017}},{"attributes":{"ID":121197,"DIS_CODE":0,"TOWNNAME":"麻豆區","LI":"北勢里","LIN":"9鄰","STREET":" ","SECT":" ","MAREA":"\u25A0祖\u25A0","LANE":" ","ALLEY":" ","HOUSE_NO":"６７號之１","E_COORD97":172880.26999999999,"N_COORD97":2566009.5699999998,"ADDRESS":"\u25A0祖\u25A0６７號之１","OBJECTID":121197},"geometry":{"x":172880.27000000048,"y":2566009.5700000003}},{"attributes":{"ID":121198,"DIS_CODE":0,"TOWNNAME":"麻豆區","LI":"北勢里","LIN":"9鄰","STREET":" ","SECT":" ","MAREA":"\u25A0祖\u25A0","LANE":" ","ALLEY":" ","HOUSE_NO":"６７號之２","E_COORD97":172832.97,"N_COORD97":2565994.1800000002,"ADDRESS":"\u25A0祖\u25A0６７號之２","OBJECTID":121198},"geometry":{"x":172832.97000000067,"y":2565994.1799999997}},{"attributes":{"ID":121199,"DIS_CODE":0,"TOWNNAME":"麻豆區","LI":"北勢里","LIN":"9鄰","STREET":" ","SECT":" ","MAREA":"\u25A0祖\u25A0","LANE":" ","ALLEY":" ","HOUSE_NO":"６７號","E_COORD97":172730.04999999999,"N_COORD97":2565950.52,"ADDRESS":"\u25A0祖\u25A0６７號","OBJECTID":121199},"geometry":{"x":172730.04999999981,"y":2565950.5200000014}},{"attributes":{"ID":121200,"DIS_CODE":0,"TOWNNAME":"仁德區","LI":"土庫里","LIN":"16鄰","STREET":"土庫一街","SECT":" ","MAREA":" ","LANE":"２２巷","ALLEY":"２３弄","HOUSE_NO":"１５號","E_COORD97":174541.37,"N_COORD97":2543027.5,"ADDRESS":"土庫一街２２巷２３弄１５號","OBJECTID":121200},"geometry":{"x":174541.37000000104,"y":2543027.5000000037}}]}