{"displayFieldName":"TOWNNAME","fieldAliases":{"ID":"ID","DIS_CODE":"DIS_CODE","TOWNNAME":"TOWNNAME","LI":"LI","LIN":"LIN","STREET":"STREET","SECT":"SECT","MAREA":"MAREA","LANE":"LANE","ALLEY":"ALLEY","HOUSE_NO":"HOUSE_NO","E_COORD97":"E_COORD97","N_COORD97":"N_COORD97","ADDRESS":"ADDRESS","OBJECTID":"OBJECTID"},"geometryType":"esriGeometryPoint","spatialReference":{"wkid":102443,"latestWkid":3826},"fields":[{"name":"ID","type":"esriFieldTypeDouble","alias":"ID"},{"name":"DIS_CODE","type":"esriFieldTypeInteger","alias":"DIS_CODE"},{"name":"TOWNNAME","type":"esriFieldTypeString","alias":"TOWNNAME","length":8},{"name":"LI","type":"esriFieldTypeString","alias":"LI","length":8},{"name":"LIN","type":"esriFieldTypeString","alias":"LIN","length":12},{"name":"STREET","type":"esriFieldTypeString","alias":"STREET","length":20},{"name":"SECT","type":"esriFieldTypeString","alias":"SECT","length":8},{"name":"MAREA","type":"esriFieldTypeString","alias":"MAREA","length":12},{"name":"LANE","type":"esriFieldTypeString","alias":"LANE","length":10},{"name":"ALLEY","type":"esriFieldTypeString","alias":"ALLEY","length":10},{"name":"HOUSE_NO","type":"esriFieldTypeString","alias":"HOUSE_NO","length":20},{"name":"E_COORD97","type":"esriFieldTypeDouble","alias":"E_COORD97"},{"name":"N_COORD97","type":"esriFieldTypeDouble","alias":"N_COORD97"},{"name":"ADDRESS","type":"esriFieldTypeString","alias":"ADDRESS","length":50},{"name":"OBJECTID","type":"esriFieldTypeOID","alias":"OBJECTID"}],"features":[{"attributes":{"ID":378211,"DIS_CODE":0,"TOWNNAME":"官田區","LI":"二鎮里","LIN":"21鄰","STREET":"工社西街","SECT":" ","MAREA":" ","LANE":"７巷","ALLEY":" ","HOUSE_NO":"９３號","E_COORD97":181406.39000000001,"N_COORD97":2568745.6499999999,"ADDRESS":"工社西街７巷９３號","OBJECTID":378201},"geometry":{"x":181406.3900000006,"y":2568745.6500000004}},{"attributes":{"ID":378212,"DIS_CODE":0,"TOWNNAME":"官田區","LI":"二鎮里","LIN":"21鄰","STREET":"工社西街","SECT":" ","MAREA":" ","LANE":"７巷","ALLEY":" ","HOUSE_NO":"９號","E_COORD97":180894.87,"N_COORD97":2568613.9900000002,"ADDRESS":"工社西街７巷９號","OBJECTID":378202},"geometry":{"x":180894.87000000104,"y":2568613.9900000002}},{"attributes":{"ID":378213,"DIS_CODE":0,"TOWNNAME":"東區","LI":"虎尾里","LIN":"21鄰","STREET":"東門路","SECT":"三段","MAREA":" ","LANE":"２７３巷","ALLEY":" ","HOUSE_NO":"１２號","E_COORD97":171745.92999999999,"N_COORD97":2541892.2999999998,"ADDRESS":"東門路三段２７３巷１２號","OBJECTID":378203},"geometry":{"x":171745.9299999997,"y":2541892.3000000007}},{"attributes":{"ID":378214,"DIS_CODE":0,"TOWNNAME":"東區","LI":"虎尾里","LIN":"21鄰","STREET":"東門路","SECT":"三段","MAREA":" ","LANE":"２７３巷","ALLEY":" ","HOUSE_NO":"１４號","E_COORD97":171745.41,"N_COORD97":2541896.8700000001,"ADDRESS":"東門路三段２７３巷１４號","OBJECTID":378204},"geometry":{"x":171745.41000000108,"y":2541896.8699999992}},{"attributes":{"ID":378215,"DIS_CODE":0,"TOWNNAME":"白河區","LI":"永安里","LIN":"21鄰","STREET":"西安街","SECT":" ","MAREA":" ","LANE":"３１巷","ALLEY":" ","HOUSE_NO":"１號","E_COORD97":189854.04000000001,"N_COORD97":2582716.1099999999,"ADDRESS":"西安街３１巷１號","OBJECTID":378205},"geometry":{"x":189854.04000000097,"y":2582716.1099999994}},{"attributes":{"ID":378216,"DIS_CODE":0,"TOWNNAME":"白河區","LI":"永安里","LIN":"21鄰","STREET":"西安街","SECT":" ","MAREA":" ","LANE":"３１巷","ALLEY":" ","HOUSE_NO":"２號","E_COORD97":189846.60999999999,"N_COORD97":2582719.1400000001,"ADDRESS":"西安街３１巷２號","OBJECTID":378206},"geometry":{"x":189846.61000000034,"y":2582719.1400000025}},{"attributes":{"ID":378217,"DIS_CODE":0,"TOWNNAME":"白河區","LI":"永安里","LIN":"21鄰","STREET":"西安街","SECT":" ","MAREA":" ","LANE":"３１巷","ALLEY":" ","HOUSE_NO":"３號","E_COORD97":189851.98999999999,"N_COORD97":2582711.1499999999,"ADDRESS":"西安街３１巷３號","OBJECTID":378207},"geometry":{"x":189851.99000000022,"y":2582711.1500000041}},{"attributes":{"ID":378218,"DIS_CODE":0,"TOWNNAME":"白河區","LI":"永安里","LIN":"21鄰","STREET":"西安街","SECT":" ","MAREA":" ","LANE":"３１巷","ALLEY":" ","HOUSE_NO":"４號","E_COORD97":189844.51999999999,"N_COORD97":2582715.4700000002,"ADDRESS":"西安街３１巷４號","OBJECTID":378208},"geometry":{"x":189844.51999999955,"y":2582715.4700000007}},{"attributes":{"ID":378219,"DIS_CODE":0,"TOWNNAME":"白河區","LI":"永安里","LIN":"21鄰","STREET":"西安街","SECT":" ","MAREA":" ","LANE":"３１巷","ALLEY":" ","HOUSE_NO":"５號","E_COORD97":189850.42999999999,"N_COORD97":2582707.54,"ADDRESS":"西安街３１巷５號","OBJECTID":378209},"geometry":{"x":189850.4299999997,"y":2582707.540000001}},{"attributes":{"ID":378220,"DIS_CODE":0,"TOWNNAME":"永康區","LI":"正強里","LIN":"21鄰","STREET":"自強路","SECT":" ","MAREA":" ","LANE":"３５３巷","ALLEY":" ","HOUSE_NO":"１號","E_COORD97":173501.62,"N_COORD97":2547800.6899999999,"ADDRESS":"自強路３５３巷１號","OBJECTID":378210},"geometry":{"x":173501.62000000197,"y":2547800.6900000013}},{"attributes":{"ID":378221,"DIS_CODE":0,"TOWNNAME":"永康區","LI":"正強里","LIN":"21鄰","STREET":"自強路","SECT":" ","MAREA":" ","LANE":"３５３巷","ALLEY":" ","HOUSE_NO":"１２號","E_COORD97":173506.42000000001,"N_COORD97":2547817.9100000001,"ADDRESS":"自強路３５３巷１２號","OBJECTID":378211},"geometry":{"x":173506.42000000086,"y":2547817.9100000001}},{"attributes":{"ID":378222,"DIS_CODE":0,"TOWNNAME":"東區","LI":"崇信里","LIN":"15鄰","STREET":"崇學路","SECT":" ","MAREA":" ","LANE":"１８８巷","ALLEY":" ","HOUSE_NO":"２１號","E_COORD97":170633.64999999999,"N_COORD97":2542458.5800000001,"ADDRESS":"崇學路１８８巷２１號","OBJECTID":378212},"geometry":{"x":170633.6500000013,"y":2542458.5800000019}},{"attributes":{"ID":378223,"DIS_CODE":0,"TOWNNAME":"東區","LI":"德高里","LIN":"1鄰","STREET":"自由路","SECT":"一段","MAREA":" ","LANE":"１５２巷","ALLEY":" ","HOUSE_NO":"１１號","E_COORD97":171755.64999999999,"N_COORD97":2540972.71,"ADDRESS":"自由路一段１５２巷１１號","OBJECTID":378213},"geometry":{"x":171755.65000000224,"y":2540972.7100000028}},{"attributes":{"ID":378224,"DIS_CODE":0,"TOWNNAME":"東區","LI":"虎尾里","LIN":"33鄰","STREET":"東門路","SECT":"三段","MAREA":" ","LANE":"１７９巷","ALLEY":" ","HOUSE_NO":"１３３號","E_COORD97":171718.14999999999,"N_COORD97":2542035.4300000002,"ADDRESS":"東門路三段１７９巷１３３號","OBJECTID":378214},"geometry":{"x":171718.15000000037,"y":2542035.4300000016}},{"attributes":{"ID":378225,"DIS_CODE":0,"TOWNNAME":"永康區","LI":"正強里","LIN":"21鄰","STREET":"自強路","SECT":" ","MAREA":" ","LANE":"３５３巷","ALLEY":" ","HOUSE_NO":"５號之４","E_COORD97":173486.67999999999,"N_COORD97":2547817.04,"ADDRESS":"自強路３５３巷５號之４","OBJECTID":378215},"geometry":{"x":173486.6799999997,"y":2547817.0400000028}},{"attributes":{"ID":378226,"DIS_CODE":0,"TOWNNAME":"永康區","LI":"正強里","LIN":"21鄰","STREET":"自強路","SECT":" ","MAREA":" ","LANE":"３５３巷","ALLEY":" ","HOUSE_NO":"４號","E_COORD97":173493.92999999999,"N_COORD97":2547809.6800000002,"ADDRESS":"自強路３５３巷４號","OBJECTID":378216},"geometry":{"x":173493.93000000156,"y":2547809.6800000034}},{"attributes":{"ID":378227,"DIS_CODE":0,"TOWNNAME":"永康區","LI":"正強里","LIN":"21鄰","STREET":"自強路","SECT":" ","MAREA":" ","LANE":"３５３巷","ALLEY":" ","HOUSE_NO":"９號之３","E_COORD97":173480.56,"N_COORD97":2547807.54,"ADDRESS":"自強路３５３巷９號之３","OBJECTID":378217},"geometry":{"x":173480.55999999959,"y":2547807.540000001}},{"attributes":{"ID":378228,"DIS_CODE":0,"TOWNNAME":"東區","LI":"大智里","LIN":"13鄰","STREET":"長東街","SECT":" ","MAREA":" ","LANE":"１４１巷","ALLEY":" ","HOUSE_NO":"５１號","E_COORD97":171186.17000000001,"N_COORD97":2540158.0499999998,"ADDRESS":"長東街１４１巷５１號","OBJECTID":378218},"geometry":{"x":171186.17000000086,"y":2540158.0500000007}},{"attributes":{"ID":378229,"DIS_CODE":0,"TOWNNAME":"東區","LI":"自強里","LIN":"14鄰","STREET":"富農街","SECT":"一段","MAREA":" ","LANE":"１５３巷","ALLEY":" ","HOUSE_NO":"５０之１號","E_COORD97":171440.39000000001,"N_COORD97":2542552.04,"ADDRESS":"富農街一段１５３巷５０之１號","OBJECTID":378219},"geometry":{"x":171440.3900000006,"y":2542552.040000001}},{"attributes":{"ID":378230,"DIS_CODE":0,"TOWNNAME":"東區","LI":"路東里","LIN":"7鄰","STREET":"大同路","SECT":"二段","MAREA":" ","LANE":"６１巷","ALLEY":" ","HOUSE_NO":"５號","E_COORD97":169355.13,"N_COORD97":2542275.7000000002,"ADDRESS":"大同路二段６１巷５號","OBJECTID":378220},"geometry":{"x":169355.13000000082,"y":2542275.6999999993}},{"attributes":{"ID":378231,"DIS_CODE":0,"TOWNNAME":"永康區","LI":"大灣里","LIN":"21鄰","STREET":"大灣五街","SECT":" ","MAREA":" ","LANE":"３９巷","ALLEY":" ","HOUSE_NO":"５號","E_COORD97":174732.82000000001,"N_COORD97":2545189.8300000001,"ADDRESS":"大灣五街３９巷５號","OBJECTID":378221},"geometry":{"x":174732.82000000216,"y":2545189.8300000019}},{"attributes":{"ID":378232,"DIS_CODE":0,"TOWNNAME":"鹽水區","LI":"橋南里","LIN":"21鄰","STREET":"新中路","SECT":" ","MAREA":" ","LANE":"８２巷","ALLEY":" ","HOUSE_NO":"３０號三樓","E_COORD97":175940.26000000001,"N_COORD97":2578685.2400000002,"ADDRESS":"新中路８２巷３０號三樓","OBJECTID":378222},"geometry":{"x":175940.26000000071,"y":2578685.2400000002}},{"attributes":{"ID":378233,"DIS_CODE":0,"TOWNNAME":"永康區","LI":"西灣里","LIN":"43鄰","STREET":"國光六街","SECT":" ","MAREA":" ","LANE":"９０巷","ALLEY":" ","HOUSE_NO":"２７號","E_COORD97":174056.70000000001,"N_COORD97":2545437.7400000002,"ADDRESS":"國光六街９０巷２７號","OBJECTID":378223},"geometry":{"x":174056.70000000019,"y":2545437.7400000021}},{"attributes":{"ID":378234,"DIS_CODE":0,"TOWNNAME":"永康區","LI":"西勢里","LIN":"8鄰","STREET":"富強路","SECT":"一段","MAREA":" ","LANE":"３２０巷","ALLEY":" ","HOUSE_NO":"２號","E_COORD97":175750.72,"N_COORD97":2546690.1699999999,"ADDRESS":"富強路一段３２０巷２號","OBJECTID":378224},"geometry":{"x":175750.72000000067,"y":2546690.1699999999}},{"attributes":{"ID":378235,"DIS_CODE":0,"TOWNNAME":"永康區","LI":"西灣里","LIN":"10鄰","STREET":"大灣五街","SECT":" ","MAREA":" ","LANE":"９３巷","ALLEY":" ","HOUSE_NO":"４６號","E_COORD97":174571.62,"N_COORD97":2545222.9500000002,"ADDRESS":"大灣五街９３巷４６號","OBJECTID":378225},"geometry":{"x":174571.62000000104,"y":2545222.9499999993}},{"attributes":{"ID":378236,"DIS_CODE":0,"TOWNNAME":"永康區","LI":"西勢里","LIN":"21鄰","STREET":"富強路","SECT":"一段","MAREA":" ","LANE":"１４９巷","ALLEY":" ","HOUSE_NO":"２０號","E_COORD97":175521.5,"N_COORD97":2546372.7400000002,"ADDRESS":"富強路一段１４９巷２０號","OBJECTID":378226},"geometry":{"x":175521.50000000093,"y":2546372.7400000021}},{"attributes":{"ID":378237,"DIS_CODE":0,"TOWNNAME":"永康區","LI":"甲頂里","LIN":"12鄰","STREET":"中正南路","SECT":" ","MAREA":" ","LANE":"５２巷","ALLEY":" ","HOUSE_NO":"９６號","E_COORD97":170132.34,"N_COORD97":2546796.1000000001,"ADDRESS":"中正南路５２巷９６號","OBJECTID":378227},"geometry":{"x":170132.33999999985,"y":2546796.0999999996}},{"attributes":{"ID":378238,"DIS_CODE":0,"TOWNNAME":"鹽水區","LI":"橋南里","LIN":"21鄰","STREET":"新中路","SECT":" ","MAREA":" ","LANE":"８２巷","ALLEY":" ","HOUSE_NO":"３０號四樓","E_COORD97":175940.26000000001,"N_COORD97":2578685.2400000002,"ADDRESS":"新中路８２巷３０號四樓","OBJECTID":378228},"geometry":{"x":175940.26000000071,"y":2578685.2400000002}},{"attributes":{"ID":378239,"DIS_CODE":0,"TOWNNAME":"鹽水區","LI":"橋南里","LIN":"21鄰","STREET":"新中路","SECT":" ","MAREA":" ","LANE":"８２巷","ALLEY":" ","HOUSE_NO":"３２號一樓","E_COORD97":175930.92000000001,"N_COORD97":2578685.6200000001,"ADDRESS":"新中路８２巷３２號一樓","OBJECTID":378229},"geometry":{"x":175930.92000000086,"y":2578685.6200000029}},{"attributes":{"ID":378240,"DIS_CODE":0,"TOWNNAME":"鹽水區","LI":"橋南里","LIN":"21鄰","STREET":"新中路","SECT":" ","MAREA":" ","LANE":"８２巷","ALLEY":" ","HOUSE_NO":"３２號二樓","E_COORD97":175930.92000000001,"N_COORD97":2578685.6200000001,"ADDRESS":"新中路８２巷３２號二樓","OBJECTID":378230},"geometry":{"x":175930.92000000086,"y":2578685.6200000029}},{"attributes":{"ID":378241,"DIS_CODE":0,"TOWNNAME":"鹽水區","LI":"橋南里","LIN":"21鄰","STREET":"新中路","SECT":" ","MAREA":" ","LANE":"８２巷","ALLEY":" ","HOUSE_NO":"３２號三樓","E_COORD97":175930.92000000001,"N_COORD97":2578685.6200000001,"ADDRESS":"新中路８２巷３２號三樓","OBJECTID":378231},"geometry":{"x":175930.92000000086,"y":2578685.6200000029}},{"attributes":{"ID":378242,"DIS_CODE":0,"TOWNNAME":"鹽水區","LI":"橋南里","LIN":"21鄰","STREET":"新中路","SECT":" ","MAREA":" ","LANE":"８２巷","ALLEY":" ","HOUSE_NO":"３２號五樓","E_COORD97":175930.92000000001,"N_COORD97":2578685.6200000001,"ADDRESS":"新中路８２巷３２號五樓","OBJECTID":378232},"geometry":{"x":175930.92000000086,"y":2578685.6200000029}},{"attributes":{"ID":378243,"DIS_CODE":0,"TOWNNAME":"鹽水區","LI":"橋南里","LIN":"21鄰","STREET":"新中路","SECT":" ","MAREA":" ","LANE":"８２巷","ALLEY":" ","HOUSE_NO":"３２號四樓","E_COORD97":175930.92000000001,"N_COORD97":2578685.6200000001,"ADDRESS":"新中路８２巷３２號四樓","OBJECTID":378233},"geometry":{"x":175930.92000000086,"y":2578685.6200000029}},{"attributes":{"ID":378244,"DIS_CODE":0,"TOWNNAME":"鹽水區","LI":"橋南里","LIN":"21鄰","STREET":"新中路","SECT":" ","MAREA":" ","LANE":"８２巷","ALLEY":" ","HOUSE_NO":"３４號一樓","E_COORD97":175931.17999999999,"N_COORD97":2578671.9199999999,"ADDRESS":"新中路８２巷３４號一樓","OBJECTID":378234},"geometry":{"x":175931.1799999997,"y":2578671.9200000018}},{"attributes":{"ID":378245,"DIS_CODE":0,"TOWNNAME":"鹽水區","LI":"橋南里","LIN":"21鄰","STREET":"新中路","SECT":" ","MAREA":" ","LANE":"８２巷","ALLEY":" ","HOUSE_NO":"３４號二樓","E_COORD97":175931.17999999999,"N_COORD97":2578671.9199999999,"ADDRESS":"新中路８２巷３４號二樓","OBJECTID":378235},"geometry":{"x":175931.1799999997,"y":2578671.9200000018}},{"attributes":{"ID":378246,"DIS_CODE":0,"TOWNNAME":"鹽水區","LI":"橋南里","LIN":"21鄰","STREET":"新中路","SECT":" ","MAREA":" ","LANE":"８２巷","ALLEY":" ","HOUSE_NO":"３４號三樓","E_COORD97":175931.17999999999,"N_COORD97":2578671.9199999999,"ADDRESS":"新中路８２巷３４號三樓","OBJECTID":378236},"geometry":{"x":175931.1799999997,"y":2578671.9200000018}},{"attributes":{"ID":378247,"DIS_CODE":0,"TOWNNAME":"鹽水區","LI":"橋南里","LIN":"21鄰","STREET":"新中路","SECT":" ","MAREA":" ","LANE":"８２巷","ALLEY":" ","HOUSE_NO":"３４號五樓","E_COORD97":175931.17999999999,"N_COORD97":2578671.9199999999,"ADDRESS":"新中路８２巷３４號五樓","OBJECTID":378237},"geometry":{"x":175931.1799999997,"y":2578671.9200000018}},{"attributes":{"ID":378248,"DIS_CODE":0,"TOWNNAME":"鹽水區","LI":"橋南里","LIN":"21鄰","STREET":"新中路","SECT":" ","MAREA":" ","LANE":"８２巷","ALLEY":" ","HOUSE_NO":"３４號四樓","E_COORD97":175931.17999999999,"N_COORD97":2578671.9199999999,"ADDRESS":"新中路８２巷３４號四樓","OBJECTID":378238},"geometry":{"x":175931.1799999997,"y":2578671.9200000018}},{"attributes":{"ID":378249,"DIS_CODE":0,"TOWNNAME":"永康區","LI":"西橋里","LIN":"8鄰","STREET":"中華西街","SECT":" ","MAREA":" ","LANE":"６３巷","ALLEY":" ","HOUSE_NO":"１８號","E_COORD97":170687.29000000001,"N_COORD97":2546029.25,"ADDRESS":"中華西街６３巷１８號","OBJECTID":378239},"geometry":{"x":170687.29000000004,"y":2546029.25}},{"attributes":{"ID":378250,"DIS_CODE":0,"TOWNNAME":"永康區","LI":"西橋里","LIN":"12鄰","STREET":"中華西街","SECT":" ","MAREA":" ","LANE":"１２７巷","ALLEY":" ","HOUSE_NO":"８號","E_COORD97":170620.60000000001,"N_COORD97":2546179.4900000002,"ADDRESS":"中華西街１２７巷８號","OBJECTID":378240},"geometry":{"x":170620.59999999963,"y":2546179.4900000002}},{"attributes":{"ID":378251,"DIS_CODE":0,"TOWNNAME":"鹽水區","LI":"橋南里","LIN":"21鄰","STREET":"新中路","SECT":" ","MAREA":" ","LANE":"８２巷","ALLEY":" ","HOUSE_NO":"３６號一樓","E_COORD97":175919.20000000001,"N_COORD97":2578673.7400000002,"ADDRESS":"新中路８２巷３６號一樓","OBJECTID":378241},"geometry":{"x":175919.20000000112,"y":2578673.7400000021}},{"attributes":{"ID":378252,"DIS_CODE":0,"TOWNNAME":"鹽水區","LI":"橋南里","LIN":"21鄰","STREET":"新中路","SECT":" ","MAREA":" ","LANE":"８２巷","ALLEY":" ","HOUSE_NO":"３６號二樓","E_COORD97":175919.20000000001,"N_COORD97":2578673.7400000002,"ADDRESS":"新中路８２巷３６號二樓","OBJECTID":378242},"geometry":{"x":175919.20000000112,"y":2578673.7400000021}},{"attributes":{"ID":378253,"DIS_CODE":0,"TOWNNAME":"鹽水區","LI":"橋南里","LIN":"21鄰","STREET":"新中路","SECT":" ","MAREA":" ","LANE":"８２巷","ALLEY":" ","HOUSE_NO":"３８號一樓","E_COORD97":175919.66,"N_COORD97":2578686.8300000001,"ADDRESS":"新中路８２巷３８號一樓","OBJECTID":378243},"geometry":{"x":175919.66000000015,"y":2578686.8300000019}},{"attributes":{"ID":378254,"DIS_CODE":0,"TOWNNAME":"鹽水區","LI":"橋南里","LIN":"21鄰","STREET":"新中路","SECT":" ","MAREA":" ","LANE":"８２巷","ALLEY":" ","HOUSE_NO":"３８號二樓","E_COORD97":175919.66,"N_COORD97":2578686.8300000001,"ADDRESS":"新中路８２巷３８號二樓","OBJECTID":378244},"geometry":{"x":175919.66000000015,"y":2578686.8300000019}},{"attributes":{"ID":378255,"DIS_CODE":0,"TOWNNAME":"鹽水區","LI":"橋南里","LIN":"21鄰","STREET":"新中路","SECT":" ","MAREA":" ","LANE":"８２巷","ALLEY":" ","HOUSE_NO":"３８號三樓","E_COORD97":175919.66,"N_COORD97":2578686.8300000001,"ADDRESS":"新中路８２巷３８號三樓","OBJECTID":378245},"geometry":{"x":175919.66000000015,"y":2578686.8300000019}},{"attributes":{"ID":378256,"DIS_CODE":0,"TOWNNAME":"鹽水區","LI":"橋南里","LIN":"21鄰","STREET":"新中路","SECT":" ","MAREA":" ","LANE":"８２巷","ALLEY":" ","HOUSE_NO":"３８號五樓","E_COORD97":175919.66,"N_COORD97":2578686.8300000001,"ADDRESS":"新中路８２巷３８號五樓","OBJECTID":378246},"geometry":{"x":175919.66000000015,"y":2578686.8300000019}},{"attributes":{"ID":378257,"DIS_CODE":0,"TOWNNAME":"鹽水區","LI":"橋南里","LIN":"21鄰","STREET":"新中路","SECT":" ","MAREA":" ","LANE":"８２巷","ALLEY":" ","HOUSE_NO":"３８號四樓","E_COORD97":175919.66,"N_COORD97":2578686.8300000001,"ADDRESS":"新中路８２巷３８號四樓","OBJECTID":378247},"geometry":{"x":175919.66000000015,"y":2578686.8300000019}},{"attributes":{"ID":378258,"DIS_CODE":0,"TOWNNAME":"鹽水區","LI":"橋南里","LIN":"21鄰","STREET":"新中路","SECT":" ","MAREA":" ","LANE":"８２巷","ALLEY":" ","HOUSE_NO":"４０號一樓","E_COORD97":175905.04999999999,"N_COORD97":2578672.7799999998,"ADDRESS":"新中路８２巷４０號一樓","OBJECTID":378248},"geometry":{"x":175905.04999999981,"y":2578672.7800000012}},{"attributes":{"ID":378259,"DIS_CODE":0,"TOWNNAME":"鹽水區","LI":"橋南里","LIN":"21鄰","STREET":"新中路","SECT":" ","MAREA":" ","LANE":"８２巷","ALLEY":" ","HOUSE_NO":"４０號二樓","E_COORD97":175905.04999999999,"N_COORD97":2578672.7799999998,"ADDRESS":"新中路８２巷４０號二樓","OBJECTID":378249},"geometry":{"x":175905.04999999981,"y":2578672.7800000012}},{"attributes":{"ID":378260,"DIS_CODE":0,"TOWNNAME":"鹽水區","LI":"橋南里","LIN":"21鄰","STREET":"新中路","SECT":" ","MAREA":" ","LANE":"８２巷","ALLEY":" ","HOUSE_NO":"４０號三樓","E_COORD97":175905.04999999999,"N_COORD97":2578672.7799999998,"ADDRESS":"新中路８２巷４０號三樓","OBJECTID":378250},"geometry":{"x":175905.04999999981,"y":2578672.7800000012}},{"attributes":{"ID":378261,"DIS_CODE":0,"TOWNNAME":"鹽水區","LI":"橋南里","LIN":"21鄰","STREET":"新中路","SECT":" ","MAREA":" ","LANE":"８２巷","ALLEY":" ","HOUSE_NO":"４０號五樓","E_COORD97":175905.04999999999,"N_COORD97":2578672.7799999998,"ADDRESS":"新中路８２巷４０號五樓","OBJECTID":378251},"geometry":{"x":175905.04999999981,"y":2578672.7800000012}},{"attributes":{"ID":378262,"DIS_CODE":0,"TOWNNAME":"鹽水區","LI":"橋南里","LIN":"21鄰","STREET":"新中路","SECT":" ","MAREA":" ","LANE":"８２巷","ALLEY":" ","HOUSE_NO":"４０號四樓","E_COORD97":175905.04999999999,"N_COORD97":2578672.7799999998,"ADDRESS":"新中路８２巷４０號四樓","OBJECTID":378252},"geometry":{"x":175905.04999999981,"y":2578672.7800000012}},{"attributes":{"ID":378263,"DIS_CODE":0,"TOWNNAME":"鹽水區","LI":"橋南里","LIN":"21鄰","STREET":"新中路","SECT":" ","MAREA":" ","LANE":"８２巷","ALLEY":" ","HOUSE_NO":"４２號一樓","E_COORD97":175905.57000000001,"N_COORD97":2578681.8700000001,"ADDRESS":"新中路８２巷４２號一樓","OBJECTID":378253},"geometry":{"x":175905.5700000003,"y":2578681.870000001}},{"attributes":{"ID":378264,"DIS_CODE":0,"TOWNNAME":"鹽水區","LI":"橋南里","LIN":"21鄰","STREET":"新中路","SECT":" ","MAREA":" ","LANE":"８２巷","ALLEY":" ","HOUSE_NO":"４２號二樓","E_COORD97":175905.57000000001,"N_COORD97":2578681.8700000001,"ADDRESS":"新中路８２巷４２號二樓","OBJECTID":378254},"geometry":{"x":175905.5700000003,"y":2578681.870000001}},{"attributes":{"ID":378265,"DIS_CODE":0,"TOWNNAME":"鹽水區","LI":"橋南里","LIN":"21鄰","STREET":"新中路","SECT":" ","MAREA":" ","LANE":"８２巷","ALLEY":" ","HOUSE_NO":"４２號三樓","E_COORD97":175905.57000000001,"N_COORD97":2578681.8700000001,"ADDRESS":"新中路８２巷４２號三樓","OBJECTID":378255},"geometry":{"x":175905.5700000003,"y":2578681.870000001}},{"attributes":{"ID":378266,"DIS_CODE":0,"TOWNNAME":"鹽水區","LI":"橋南里","LIN":"21鄰","STREET":"新中路","SECT":" ","MAREA":" ","LANE":"８２巷","ALLEY":" ","HOUSE_NO":"４２號五樓","E_COORD97":175905.57000000001,"N_COORD97":2578681.8700000001,"ADDRESS":"新中路８２巷４２號五樓","OBJECTID":378256},"geometry":{"x":175905.5700000003,"y":2578681.870000001}},{"attributes":{"ID":378267,"DIS_CODE":0,"TOWNNAME":"鹽水區","LI":"橋南里","LIN":"21鄰","STREET":"新中路","SECT":" ","MAREA":" ","LANE":"８２巷","ALLEY":" ","HOUSE_NO":"４２號四樓","E_COORD97":175905.57000000001,"N_COORD97":2578681.8700000001,"ADDRESS":"新中路８２巷４２號四樓","OBJECTID":378257},"geometry":{"x":175905.5700000003,"y":2578681.870000001}},{"attributes":{"ID":378268,"DIS_CODE":0,"TOWNNAME":"鹽水區","LI":"橋南里","LIN":"21鄰","STREET":"新中路","SECT":" ","MAREA":" ","LANE":"８２巷","ALLEY":" ","HOUSE_NO":"４４號一樓","E_COORD97":175905.95000000001,"N_COORD97":2578688.6099999999,"ADDRESS":"新中路８２巷４４號一樓","OBJECTID":378258},"geometry":{"x":175905.95000000019,"y":2578688.6099999994}},{"attributes":{"ID":378269,"DIS_CODE":0,"TOWNNAME":"永康區","LI":"東橋里","LIN":"2鄰","STREET":"大橋一街","SECT":" ","MAREA":" ","LANE":"３２４巷","ALLEY":" ","HOUSE_NO":"３２號","E_COORD97":171375.48000000001,"N_COORD97":2546566.7799999998,"ADDRESS":"大橋一街３２４巷３２號","OBJECTID":378259},"geometry":{"x":171375.48000000231,"y":2546566.7799999993}},{"attributes":{"ID":378270,"DIS_CODE":0,"TOWNNAME":"永康區","LI":"西灣里","LIN":"36鄰","STREET":"大勇路","SECT":" ","MAREA":" ","LANE":"１３５巷","ALLEY":" ","HOUSE_NO":"３０號","E_COORD97":174178.48000000001,"N_COORD97":2545655.5,"ADDRESS":"大勇路１３５巷３０號","OBJECTID":378260},"geometry":{"x":174178.48000000045,"y":2545655.5000000019}},{"attributes":{"ID":378271,"DIS_CODE":0,"TOWNNAME":"鹽水區","LI":"橋南里","LIN":"21鄰","STREET":"新中路","SECT":" ","MAREA":" ","LANE":"８２巷","ALLEY":" ","HOUSE_NO":"４４號二樓","E_COORD97":175905.95000000001,"N_COORD97":2578688.6099999999,"ADDRESS":"新中路８２巷４４號二樓","OBJECTID":378261},"geometry":{"x":175905.95000000019,"y":2578688.6099999994}},{"attributes":{"ID":378272,"DIS_CODE":0,"TOWNNAME":"鹽水區","LI":"橋南里","LIN":"21鄰","STREET":"新中路","SECT":" ","MAREA":" ","LANE":"８２巷","ALLEY":" ","HOUSE_NO":"４４號三樓","E_COORD97":175905.95000000001,"N_COORD97":2578688.6099999999,"ADDRESS":"新中路８２巷４４號三樓","OBJECTID":378262},"geometry":{"x":175905.95000000019,"y":2578688.6099999994}},{"attributes":{"ID":378273,"DIS_CODE":0,"TOWNNAME":"鹽水區","LI":"橋南里","LIN":"21鄰","STREET":"新中路","SECT":" ","MAREA":" ","LANE":"８２巷","ALLEY":" ","HOUSE_NO":"４４號五樓","E_COORD97":175905.95000000001,"N_COORD97":2578688.6099999999,"ADDRESS":"新中路８２巷４４號五樓","OBJECTID":378263},"geometry":{"x":175905.95000000019,"y":2578688.6099999994}},{"attributes":{"ID":378274,"DIS_CODE":0,"TOWNNAME":"鹽水區","LI":"橋南里","LIN":"21鄰","STREET":"新中路","SECT":" ","MAREA":" ","LANE":"８２巷","ALLEY":" ","HOUSE_NO":"４４號四樓","E_COORD97":175905.95000000001,"N_COORD97":2578688.6099999999,"ADDRESS":"新中路８２巷４４號四樓","OBJECTID":378264},"geometry":{"x":175905.95000000019,"y":2578688.6099999994}},{"attributes":{"ID":378275,"DIS_CODE":0,"TOWNNAME":"鹽水區","LI":"橋南里","LIN":"21鄰","STREET":"新中路","SECT":" ","MAREA":" ","LANE":"８２巷","ALLEY":" ","HOUSE_NO":"４６號一樓","E_COORD97":175906.62,"N_COORD97":2578693.8799999999,"ADDRESS":"新中路８２巷４６號一樓","OBJECTID":378265},"geometry":{"x":175906.62000000011,"y":2578693.8800000027}},{"attributes":{"ID":378276,"DIS_CODE":0,"TOWNNAME":"鹽水區","LI":"橋南里","LIN":"21鄰","STREET":"新中路","SECT":" ","MAREA":" ","LANE":"８２巷","ALLEY":" ","HOUSE_NO":"４６號二樓","E_COORD97":175906.62,"N_COORD97":2578693.8799999999,"ADDRESS":"新中路８２巷４６號二樓","OBJECTID":378266},"geometry":{"x":175906.62000000011,"y":2578693.8800000027}},{"attributes":{"ID":378277,"DIS_CODE":0,"TOWNNAME":"鹽水區","LI":"橋南里","LIN":"21鄰","STREET":"新中路","SECT":" ","MAREA":" ","LANE":"８２巷","ALLEY":" ","HOUSE_NO":"４６號三樓","E_COORD97":175906.62,"N_COORD97":2578693.8799999999,"ADDRESS":"新中路８２巷４６號三樓","OBJECTID":378267},"geometry":{"x":175906.62000000011,"y":2578693.8800000027}},{"attributes":{"ID":378278,"DIS_CODE":0,"TOWNNAME":"鹽水區","LI":"橋南里","LIN":"21鄰","STREET":"新中路","SECT":" ","MAREA":" ","LANE":"８２巷","ALLEY":" ","HOUSE_NO":"４６號五樓","E_COORD97":175906.62,"N_COORD97":2578693.8799999999,"ADDRESS":"新中路８２巷４６號五樓","OBJECTID":378268},"geometry":{"x":175906.62000000011,"y":2578693.8800000027}},{"attributes":{"ID":378279,"DIS_CODE":0,"TOWNNAME":"鹽水區","LI":"橋南里","LIN":"21鄰","STREET":"新中路","SECT":" ","MAREA":" ","LANE":"８２巷","ALLEY":" ","HOUSE_NO":"４６號四樓","E_COORD97":175906.62,"N_COORD97":2578693.8799999999,"ADDRESS":"新中路８２巷４６號四樓","OBJECTID":378269},"geometry":{"x":175906.62000000011,"y":2578693.8800000027}},{"attributes":{"ID":378280,"DIS_CODE":0,"TOWNNAME":"鹽水區","LI":"橋南里","LIN":"21鄰","STREET":"新中路","SECT":" ","MAREA":" ","LANE":"８２巷","ALLEY":" ","HOUSE_NO":"４８號一樓","E_COORD97":175888.26999999999,"N_COORD97":2578673.4100000001,"ADDRESS":"新中路８２巷４８號一樓","OBJECTID":378270},"geometry":{"x":175888.26999999955,"y":2578673.4100000001}},{"attributes":{"ID":378281,"DIS_CODE":0,"TOWNNAME":"鹽水區","LI":"橋南里","LIN":"21鄰","STREET":"新中路","SECT":" ","MAREA":" ","LANE":"８２巷","ALLEY":" ","HOUSE_NO":"４８號四樓","E_COORD97":175888.26999999999,"N_COORD97":2578673.4100000001,"ADDRESS":"新中路８２巷４８號四樓","OBJECTID":378271},"geometry":{"x":175888.26999999955,"y":2578673.4100000001}},{"attributes":{"ID":378282,"DIS_CODE":0,"TOWNNAME":"鹽水區","LI":"橋南里","LIN":"21鄰","STREET":"新中路","SECT":" ","MAREA":" ","LANE":"８２巷","ALLEY":" ","HOUSE_NO":"５０號一樓","E_COORD97":175889.45999999999,"N_COORD97":2578683.8199999998,"ADDRESS":"新中路８２巷５０號一樓","OBJECTID":378272},"geometry":{"x":175889.46000000183,"y":2578683.8200000022}},{"attributes":{"ID":378283,"DIS_CODE":0,"TOWNNAME":"鹽水區","LI":"橋南里","LIN":"21鄰","STREET":"新中路","SECT":" ","MAREA":" ","LANE":"８２巷","ALLEY":" ","HOUSE_NO":"５０號二樓","E_COORD97":175889.45999999999,"N_COORD97":2578683.8199999998,"ADDRESS":"新中路８２巷５０號二樓","OBJECTID":378273},"geometry":{"x":175889.46000000183,"y":2578683.8200000022}},{"attributes":{"ID":378284,"DIS_CODE":0,"TOWNNAME":"鹽水區","LI":"橋南里","LIN":"21鄰","STREET":"新中路","SECT":" ","MAREA":" ","LANE":"８２巷","ALLEY":" ","HOUSE_NO":"５０號三樓","E_COORD97":175889.45999999999,"N_COORD97":2578683.8199999998,"ADDRESS":"新中路８２巷５０號三樓","OBJECTID":378274},"geometry":{"x":175889.46000000183,"y":2578683.8200000022}},{"attributes":{"ID":378285,"DIS_CODE":0,"TOWNNAME":"鹽水區","LI":"橋南里","LIN":"21鄰","STREET":"新中路","SECT":" ","MAREA":" ","LANE":"８２巷","ALLEY":" ","HOUSE_NO":"５０號五樓","E_COORD97":175889.45999999999,"N_COORD97":2578683.8199999998,"ADDRESS":"新中路８２巷５０號五樓","OBJECTID":378275},"geometry":{"x":175889.46000000183,"y":2578683.8200000022}},{"attributes":{"ID":378286,"DIS_CODE":0,"TOWNNAME":"鹽水區","LI":"橋南里","LIN":"21鄰","STREET":"新中路","SECT":" ","MAREA":" ","LANE":"８２巷","ALLEY":" ","HOUSE_NO":"５０號四樓","E_COORD97":175889.45999999999,"N_COORD97":2578683.8199999998,"ADDRESS":"新中路８２巷５０號四樓","OBJECTID":378276},"geometry":{"x":175889.46000000183,"y":2578683.8200000022}},{"attributes":{"ID":378287,"DIS_CODE":0,"TOWNNAME":"永康區","LI":"西灣里","LIN":"15鄰","STREET":"大灣五街","SECT":" ","MAREA":" ","LANE":"１４１巷","ALLEY":" ","HOUSE_NO":"１７號","E_COORD97":174444.45999999999,"N_COORD97":2545227.04,"ADDRESS":"大灣五街１４１巷１７號","OBJECTID":378277},"geometry":{"x":174444.45999999996,"y":2545227.040000001}},{"attributes":{"ID":378288,"DIS_CODE":0,"TOWNNAME":"永康區","LI":"西勢里","LIN":"21鄰","STREET":"富強路","SECT":"一段","MAREA":" ","LANE":"１４９巷","ALLEY":" ","HOUSE_NO":"１９號","E_COORD97":175505.47,"N_COORD97":2546369.71,"ADDRESS":"富強路一段１４９巷１９號","OBJECTID":378278},"geometry":{"x":175505.46999999974,"y":2546369.709999999}},{"attributes":{"ID":378289,"DIS_CODE":0,"TOWNNAME":"鹽水區","LI":"橋南里","LIN":"21鄰","STREET":"新中路","SECT":" ","MAREA":" ","LANE":"８２巷","ALLEY":" ","HOUSE_NO":"５２號一樓","E_COORD97":175890.53,"N_COORD97":2578695.1600000001,"ADDRESS":"新中路８２巷５２號一樓","OBJECTID":378279},"geometry":{"x":175890.53000000026,"y":2578695.1600000001}},{"attributes":{"ID":378290,"DIS_CODE":0,"TOWNNAME":"鹽水區","LI":"橋南里","LIN":"21鄰","STREET":"新中路","SECT":" ","MAREA":" ","LANE":"８２巷","ALLEY":" ","HOUSE_NO":"５２號二樓","E_COORD97":175890.53,"N_COORD97":2578695.1600000001,"ADDRESS":"新中路８２巷５２號二樓","OBJECTID":378280},"geometry":{"x":175890.53000000026,"y":2578695.1600000001}},{"attributes":{"ID":378291,"DIS_CODE":0,"TOWNNAME":"鹽水區","LI":"橋南里","LIN":"21鄰","STREET":"新中路","SECT":" ","MAREA":" ","LANE":"８２巷","ALLEY":" ","HOUSE_NO":"５２號三樓","E_COORD97":175890.53,"N_COORD97":2578695.1600000001,"ADDRESS":"新中路８２巷５２號三樓","OBJECTID":378281},"geometry":{"x":175890.53000000026,"y":2578695.1600000001}},{"attributes":{"ID":378292,"DIS_CODE":0,"TOWNNAME":"鹽水區","LI":"橋南里","LIN":"21鄰","STREET":"新中路","SECT":" ","MAREA":" ","LANE":"８２巷","ALLEY":" ","HOUSE_NO":"５２號五樓","E_COORD97":175890.53,"N_COORD97":2578695.1600000001,"ADDRESS":"新中路８２巷５２號五樓","OBJECTID":378282},"geometry":{"x":175890.53000000026,"y":2578695.1600000001}},{"attributes":{"ID":378293,"DIS_CODE":0,"TOWNNAME":"鹽水區","LI":"橋南里","LIN":"21鄰","STREET":"新中路","SECT":" ","MAREA":" ","LANE":"８２巷","ALLEY":" ","HOUSE_NO":"５２號四樓","E_COORD97":175890.53,"N_COORD97":2578695.1600000001,"ADDRESS":"新中路８２巷５２號四樓","OBJECTID":378283},"geometry":{"x":175890.53000000026,"y":2578695.1600000001}},{"attributes":{"ID":378294,"DIS_CODE":0,"TOWNNAME":"鹽水區","LI":"橋南里","LIN":"21鄰","STREET":"新中路","SECT":" ","MAREA":" ","LANE":"８２巷","ALLEY":" ","HOUSE_NO":"５４號一樓","E_COORD97":175891.14000000001,"N_COORD97":2578703.1000000001,"ADDRESS":"新中路８２巷５４號一樓","OBJECTID":378284},"geometry":{"x":175891.14000000153,"y":2578703.0999999978}},{"attributes":{"ID":378295,"DIS_CODE":0,"TOWNNAME":"鹽水區","LI":"橋南里","LIN":"21鄰","STREET":"新中路","SECT":" ","MAREA":" ","LANE":"８２巷","ALLEY":" ","HOUSE_NO":"５４號二樓","E_COORD97":175891.14000000001,"N_COORD97":2578703.1000000001,"ADDRESS":"新中路８２巷５４號二樓","OBJECTID":378285},"geometry":{"x":175891.14000000153,"y":2578703.0999999978}},{"attributes":{"ID":378296,"DIS_CODE":0,"TOWNNAME":"鹽水區","LI":"橋南里","LIN":"21鄰","STREET":"新中路","SECT":" ","MAREA":" ","LANE":"８２巷","ALLEY":" ","HOUSE_NO":"５４號三樓","E_COORD97":175891.14000000001,"N_COORD97":2578703.1000000001,"ADDRESS":"新中路８２巷５４號三樓","OBJECTID":378286},"geometry":{"x":175891.14000000153,"y":2578703.0999999978}},{"attributes":{"ID":378297,"DIS_CODE":0,"TOWNNAME":"鹽水區","LI":"橋南里","LIN":"21鄰","STREET":"新中路","SECT":" ","MAREA":" ","LANE":"８２巷","ALLEY":" ","HOUSE_NO":"５４號五樓","E_COORD97":175891.14000000001,"N_COORD97":2578703.1000000001,"ADDRESS":"新中路８２巷５４號五樓","OBJECTID":378287},"geometry":{"x":175891.14000000153,"y":2578703.0999999978}},{"attributes":{"ID":378298,"DIS_CODE":0,"TOWNNAME":"鹽水區","LI":"橋南里","LIN":"21鄰","STREET":"新中路","SECT":" ","MAREA":" ","LANE":"８２巷","ALLEY":" ","HOUSE_NO":"５４號四樓","E_COORD97":175891.14000000001,"N_COORD97":2578703.1000000001,"ADDRESS":"新中路８２巷５４號四樓","OBJECTID":378288},"geometry":{"x":175891.14000000153,"y":2578703.0999999978}},{"attributes":{"ID":378299,"DIS_CODE":0,"TOWNNAME":"鹽水區","LI":"橋南里","LIN":"21鄰","STREET":"新中路","SECT":" ","MAREA":" ","LANE":"８２巷","ALLEY":" ","HOUSE_NO":"５６號一樓","E_COORD97":175873.16,"N_COORD97":2578674.8999999999,"ADDRESS":"新中路８２巷５６號一樓","OBJECTID":378289},"geometry":{"x":175873.16000000108,"y":2578674.9000000041}},{"attributes":{"ID":378300,"DIS_CODE":0,"TOWNNAME":"鹽水區","LI":"橋南里","LIN":"21鄰","STREET":"新中路","SECT":" ","MAREA":" ","LANE":"８２巷","ALLEY":" ","HOUSE_NO":"５６號二樓","E_COORD97":175873.16,"N_COORD97":2578674.8999999999,"ADDRESS":"新中路８２巷５６號二樓","OBJECTID":378290},"geometry":{"x":175873.16000000108,"y":2578674.9000000041}},{"attributes":{"ID":378301,"DIS_CODE":0,"TOWNNAME":"鹽水區","LI":"橋南里","LIN":"21鄰","STREET":"新中路","SECT":" ","MAREA":" ","LANE":"８２巷","ALLEY":" ","HOUSE_NO":"５６號三樓","E_COORD97":175873.16,"N_COORD97":2578674.8999999999,"ADDRESS":"新中路８２巷５６號三樓","OBJECTID":378291},"geometry":{"x":175873.16000000108,"y":2578674.9000000041}},{"attributes":{"ID":378302,"DIS_CODE":0,"TOWNNAME":"鹽水區","LI":"橋南里","LIN":"21鄰","STREET":"新中路","SECT":" ","MAREA":" ","LANE":"８２巷","ALLEY":" ","HOUSE_NO":"５６號五樓","E_COORD97":175873.16,"N_COORD97":2578674.8999999999,"ADDRESS":"新中路８２巷５６號五樓","OBJECTID":378292},"geometry":{"x":175873.16000000108,"y":2578674.9000000041}},{"attributes":{"ID":378303,"DIS_CODE":0,"TOWNNAME":"鹽水區","LI":"橋南里","LIN":"21鄰","STREET":"新中路","SECT":" ","MAREA":" ","LANE":"８２巷","ALLEY":" ","HOUSE_NO":"５６號四樓","E_COORD97":175873.16,"N_COORD97":2578674.8999999999,"ADDRESS":"新中路８２巷５６號四樓","OBJECTID":378293},"geometry":{"x":175873.16000000108,"y":2578674.9000000041}},{"attributes":{"ID":378304,"DIS_CODE":0,"TOWNNAME":"鹽水區","LI":"橋南里","LIN":"21鄰","STREET":"新中路","SECT":" ","MAREA":" ","LANE":"８２巷","ALLEY":" ","HOUSE_NO":"５８號一樓","E_COORD97":175873.66,"N_COORD97":2578684.1600000001,"ADDRESS":"新中路８２巷５８號一樓","OBJECTID":378294},"geometry":{"x":175873.66000000108,"y":2578684.160000002}},{"attributes":{"ID":378305,"DIS_CODE":0,"TOWNNAME":"鹽水區","LI":"橋南里","LIN":"21鄰","STREET":"新中路","SECT":" ","MAREA":" ","LANE":"８２巷","ALLEY":" ","HOUSE_NO":"５８號二樓","E_COORD97":175873.66,"N_COORD97":2578684.1600000001,"ADDRESS":"新中路８２巷５８號二樓","OBJECTID":378295},"geometry":{"x":175873.66000000108,"y":2578684.160000002}},{"attributes":{"ID":378306,"DIS_CODE":0,"TOWNNAME":"鹽水區","LI":"橋南里","LIN":"21鄰","STREET":"新中路","SECT":" ","MAREA":" ","LANE":"８２巷","ALLEY":" ","HOUSE_NO":"５８號三樓","E_COORD97":175873.66,"N_COORD97":2578684.1600000001,"ADDRESS":"新中路８２巷５８號三樓","OBJECTID":378296},"geometry":{"x":175873.66000000108,"y":2578684.160000002}},{"attributes":{"ID":378307,"DIS_CODE":0,"TOWNNAME":"鹽水區","LI":"橋南里","LIN":"21鄰","STREET":"新中路","SECT":" ","MAREA":" ","LANE":"８２巷","ALLEY":" ","HOUSE_NO":"５８號五樓","E_COORD97":175873.66,"N_COORD97":2578684.1600000001,"ADDRESS":"新中路８２巷５８號五樓","OBJECTID":378297},"geometry":{"x":175873.66000000108,"y":2578684.160000002}},{"attributes":{"ID":378308,"DIS_CODE":0,"TOWNNAME":"鹽水區","LI":"橋南里","LIN":"21鄰","STREET":"新中路","SECT":" ","MAREA":" ","LANE":"８２巷","ALLEY":" ","HOUSE_NO":"５８號四樓","E_COORD97":175873.66,"N_COORD97":2578684.1600000001,"ADDRESS":"新中路８２巷５８號四樓","OBJECTID":378298},"geometry":{"x":175873.66000000108,"y":2578684.160000002}},{"attributes":{"ID":378309,"DIS_CODE":0,"TOWNNAME":"東區","LI":"德高里","LIN":"21鄰","STREET":"崇善路","SECT":" ","MAREA":" ","LANE":"８３５巷","ALLEY":" ","HOUSE_NO":"２號三樓","E_COORD97":171326.47,"N_COORD97":2540817.1000000001,"ADDRESS":"崇善路８３５巷２號三樓","OBJECTID":378299},"geometry":{"x":171326.46999999974,"y":2540817.1000000015}},{"attributes":{"ID":378310,"DIS_CODE":0,"TOWNNAME":"東區","LI":"德高里","LIN":"21鄰","STREET":"崇善路","SECT":" ","MAREA":" ","LANE":"８３５巷","ALLEY":" ","HOUSE_NO":"２號四樓","E_COORD97":171326.47,"N_COORD97":2540817.1000000001,"ADDRESS":"崇善路８３５巷２號四樓","OBJECTID":378300},"geometry":{"x":171326.46999999974,"y":2540817.1000000015}},{"attributes":{"ID":378311,"DIS_CODE":0,"TOWNNAME":"東區","LI":"德高里","LIN":"21鄰","STREET":"崇善路","SECT":" ","MAREA":" ","LANE":"８３５巷","ALLEY":" ","HOUSE_NO":"４號七樓","E_COORD97":171332.10999999999,"N_COORD97":2540821.3199999998,"ADDRESS":"崇善路８３５巷４號七樓","OBJECTID":378301},"geometry":{"x":171332.1100000022,"y":2540821.3200000003}},{"attributes":{"ID":378312,"DIS_CODE":0,"TOWNNAME":"東區","LI":"德高里","LIN":"21鄰","STREET":"崇善路","SECT":" ","MAREA":" ","LANE":"８３５巷","ALLEY":" ","HOUSE_NO":"４號九樓","E_COORD97":171332.10999999999,"N_COORD97":2540821.3199999998,"ADDRESS":"崇善路８３５巷４號九樓","OBJECTID":378302},"geometry":{"x":171332.1100000022,"y":2540821.3200000003}},{"attributes":{"ID":378313,"DIS_CODE":0,"TOWNNAME":"東區","LI":"德高里","LIN":"21鄰","STREET":"崇善路","SECT":" ","MAREA":" ","LANE":"８３５巷","ALLEY":" ","HOUSE_NO":"４號二樓","E_COORD97":171332.10999999999,"N_COORD97":2540821.3199999998,"ADDRESS":"崇善路８３５巷４號二樓","OBJECTID":378303},"geometry":{"x":171332.1100000022,"y":2540821.3200000003}},{"attributes":{"ID":378314,"DIS_CODE":0,"TOWNNAME":"東區","LI":"德高里","LIN":"21鄰","STREET":"崇善路","SECT":" ","MAREA":" ","LANE":"８３５巷","ALLEY":" ","HOUSE_NO":"４號八樓","E_COORD97":171332.10999999999,"N_COORD97":2540821.3199999998,"ADDRESS":"崇善路８３５巷４號八樓","OBJECTID":378304},"geometry":{"x":171332.1100000022,"y":2540821.3200000003}},{"attributes":{"ID":378315,"DIS_CODE":0,"TOWNNAME":"東區","LI":"德高里","LIN":"21鄰","STREET":"崇善路","SECT":" ","MAREA":" ","LANE":"８３５巷","ALLEY":" ","HOUSE_NO":"４號三樓","E_COORD97":171332.10999999999,"N_COORD97":2540821.3199999998,"ADDRESS":"崇善路８３５巷４號三樓","OBJECTID":378305},"geometry":{"x":171332.1100000022,"y":2540821.3200000003}},{"attributes":{"ID":378316,"DIS_CODE":0,"TOWNNAME":"永康區","LI":"甲頂里","LIN":"9鄰","STREET":"中華路","SECT":" ","MAREA":" ","LANE":"８９７巷","ALLEY":" ","HOUSE_NO":"３號","E_COORD97":170408.51000000001,"N_COORD97":2546702.4900000002,"ADDRESS":"中華路８９７巷３號","OBJECTID":378306},"geometry":{"x":170408.51000000071,"y":2546702.4900000002}},{"attributes":{"ID":378317,"DIS_CODE":0,"TOWNNAME":"永康區","LI":"東橋里","LIN":"5鄰","STREET":"大橋一街","SECT":" ","MAREA":" ","LANE":"３２４巷","ALLEY":" ","HOUSE_NO":"７６號","E_COORD97":171457.23999999999,"N_COORD97":2546462,"ADDRESS":"大橋一街３２４巷７６號","OBJECTID":378307},"geometry":{"x":171457.24000000115,"y":2546462.0000000037}},{"attributes":{"ID":378318,"DIS_CODE":0,"TOWNNAME":"永康區","LI":"尚頂里","LIN":"6鄰","STREET":"中正二街","SECT":" ","MAREA":" ","LANE":"９６巷","ALLEY":" ","HOUSE_NO":"３號","E_COORD97":171078.17000000001,"N_COORD97":2547495.23,"ADDRESS":"中正二街９６巷３號","OBJECTID":378308},"geometry":{"x":171078.16999999993,"y":2547495.2300000023}},{"attributes":{"ID":378319,"DIS_CODE":0,"TOWNNAME":"東區","LI":"德高里","LIN":"21鄰","STREET":"崇善路","SECT":" ","MAREA":" ","LANE":"８３５巷","ALLEY":" ","HOUSE_NO":"４號五樓","E_COORD97":171332.10999999999,"N_COORD97":2540821.3199999998,"ADDRESS":"崇善路８３５巷４號五樓","OBJECTID":378309},"geometry":{"x":171332.1100000022,"y":2540821.3200000003}},{"attributes":{"ID":378320,"DIS_CODE":0,"TOWNNAME":"東區","LI":"德高里","LIN":"21鄰","STREET":"崇善路","SECT":" ","MAREA":" ","LANE":"８３５巷","ALLEY":" ","HOUSE_NO":"４號六樓","E_COORD97":171332.10999999999,"N_COORD97":2540821.3199999998,"ADDRESS":"崇善路８３５巷４號六樓","OBJECTID":378310},"geometry":{"x":171332.1100000022,"y":2540821.3200000003}},{"attributes":{"ID":378321,"DIS_CODE":0,"TOWNNAME":"東區","LI":"德高里","LIN":"21鄰","STREET":"崇善路","SECT":" ","MAREA":" ","LANE":"８３５巷","ALLEY":" ","HOUSE_NO":"４號四樓","E_COORD97":171332.10999999999,"N_COORD97":2540821.3199999998,"ADDRESS":"崇善路８３５巷４號四樓","OBJECTID":378311},"geometry":{"x":171332.1100000022,"y":2540821.3200000003}},{"attributes":{"ID":378322,"DIS_CODE":0,"TOWNNAME":"東區","LI":"德高里","LIN":"21鄰","STREET":"崇善路","SECT":" ","MAREA":" ","LANE":"８３５巷","ALLEY":" ","HOUSE_NO":"６號七樓","E_COORD97":171334.45000000001,"N_COORD97":2540836.7999999998,"ADDRESS":"崇善路８３５巷６號七樓","OBJECTID":378312},"geometry":{"x":171334.45000000019,"y":2540836.8000000026}},{"attributes":{"ID":378323,"DIS_CODE":0,"TOWNNAME":"東區","LI":"德高里","LIN":"21鄰","STREET":"崇善路","SECT":" ","MAREA":" ","LANE":"８３５巷","ALLEY":" ","HOUSE_NO":"６號二樓","E_COORD97":171334.45000000001,"N_COORD97":2540836.7999999998,"ADDRESS":"崇善路８３５巷６號二樓","OBJECTID":378313},"geometry":{"x":171334.45000000019,"y":2540836.8000000026}},{"attributes":{"ID":378324,"DIS_CODE":0,"TOWNNAME":"東區","LI":"德高里","LIN":"21鄰","STREET":"崇善路","SECT":" ","MAREA":" ","LANE":"８３５巷","ALLEY":" ","HOUSE_NO":"６號八樓","E_COORD97":171334.45000000001,"N_COORD97":2540836.7999999998,"ADDRESS":"崇善路８３５巷６號八樓","OBJECTID":378314},"geometry":{"x":171334.45000000019,"y":2540836.8000000026}},{"attributes":{"ID":378325,"DIS_CODE":0,"TOWNNAME":"東區","LI":"德高里","LIN":"21鄰","STREET":"崇善路","SECT":" ","MAREA":" ","LANE":"８３５巷","ALLEY":" ","HOUSE_NO":"６號三樓","E_COORD97":171334.45000000001,"N_COORD97":2540836.7999999998,"ADDRESS":"崇善路８３５巷６號三樓","OBJECTID":378315},"geometry":{"x":171334.45000000019,"y":2540836.8000000026}},{"attributes":{"ID":378326,"DIS_CODE":0,"TOWNNAME":"東區","LI":"德高里","LIN":"21鄰","STREET":"崇善路","SECT":" ","MAREA":" ","LANE":"８３５巷","ALLEY":" ","HOUSE_NO":"６號五樓","E_COORD97":171334.45000000001,"N_COORD97":2540836.7999999998,"ADDRESS":"崇善路８３５巷６號五樓","OBJECTID":378316},"geometry":{"x":171334.45000000019,"y":2540836.8000000026}},{"attributes":{"ID":378327,"DIS_CODE":0,"TOWNNAME":"東區","LI":"德高里","LIN":"21鄰","STREET":"崇善路","SECT":" ","MAREA":" ","LANE":"８３５巷","ALLEY":" ","HOUSE_NO":"６號六樓","E_COORD97":171334.45000000001,"N_COORD97":2540836.7999999998,"ADDRESS":"崇善路８３５巷６號六樓","OBJECTID":378317},"geometry":{"x":171334.45000000019,"y":2540836.8000000026}},{"attributes":{"ID":378328,"DIS_CODE":0,"TOWNNAME":"東區","LI":"德高里","LIN":"21鄰","STREET":"崇善路","SECT":" ","MAREA":" ","LANE":"８３５巷","ALLEY":" ","HOUSE_NO":"６號四樓","E_COORD97":171334.45000000001,"N_COORD97":2540836.7999999998,"ADDRESS":"崇善路８３５巷６號四樓","OBJECTID":378318},"geometry":{"x":171334.45000000019,"y":2540836.8000000026}},{"attributes":{"ID":378329,"DIS_CODE":0,"TOWNNAME":"東區","LI":"德高里","LIN":"21鄰","STREET":"崇善路","SECT":" ","MAREA":" ","LANE":"８３５巷","ALLEY":" ","HOUSE_NO":"８號七樓","E_COORD97":171342.42999999999,"N_COORD97":2540826.9500000002,"ADDRESS":"崇善路８３５巷８號七樓","OBJECTID":378319},"geometry":{"x":171342.4299999997,"y":2540826.9500000011}},{"attributes":{"ID":378330,"DIS_CODE":0,"TOWNNAME":"東區","LI":"德高里","LIN":"21鄰","STREET":"崇善路","SECT":" ","MAREA":" ","LANE":"８３５巷","ALLEY":" ","HOUSE_NO":"８號二樓","E_COORD97":171342.42999999999,"N_COORD97":2540826.9500000002,"ADDRESS":"崇善路８３５巷８號二樓","OBJECTID":378320},"geometry":{"x":171342.4299999997,"y":2540826.9500000011}},{"attributes":{"ID":378331,"DIS_CODE":0,"TOWNNAME":"東區","LI":"德高里","LIN":"21鄰","STREET":"崇善路","SECT":" ","MAREA":" ","LANE":"８３５巷","ALLEY":" ","HOUSE_NO":"８號八樓","E_COORD97":171342.42999999999,"N_COORD97":2540826.9500000002,"ADDRESS":"崇善路８３５巷８號八樓","OBJECTID":378321},"geometry":{"x":171342.4299999997,"y":2540826.9500000011}},{"attributes":{"ID":378332,"DIS_CODE":0,"TOWNNAME":"東區","LI":"德高里","LIN":"21鄰","STREET":"崇善路","SECT":" ","MAREA":" ","LANE":"８３５巷","ALLEY":" ","HOUSE_NO":"８號三樓","E_COORD97":171342.42999999999,"N_COORD97":2540826.9500000002,"ADDRESS":"崇善路８３５巷８號三樓","OBJECTID":378322},"geometry":{"x":171342.4299999997,"y":2540826.9500000011}},{"attributes":{"ID":378333,"DIS_CODE":0,"TOWNNAME":"東區","LI":"德高里","LIN":"21鄰","STREET":"崇善路","SECT":" ","MAREA":" ","LANE":"８３５巷","ALLEY":" ","HOUSE_NO":"８號五樓","E_COORD97":171342.42999999999,"N_COORD97":2540826.9500000002,"ADDRESS":"崇善路８３５巷８號五樓","OBJECTID":378323},"geometry":{"x":171342.4299999997,"y":2540826.9500000011}},{"attributes":{"ID":378334,"DIS_CODE":0,"TOWNNAME":"東區","LI":"德高里","LIN":"21鄰","STREET":"崇善路","SECT":" ","MAREA":" ","LANE":"８３５巷","ALLEY":" ","HOUSE_NO":"８號六樓","E_COORD97":171342.42999999999,"N_COORD97":2540826.9500000002,"ADDRESS":"崇善路８３５巷８號六樓","OBJECTID":378324},"geometry":{"x":171342.4299999997,"y":2540826.9500000011}},{"attributes":{"ID":378335,"DIS_CODE":0,"TOWNNAME":"東區","LI":"德高里","LIN":"21鄰","STREET":"崇善路","SECT":" ","MAREA":" ","LANE":"８３５巷","ALLEY":" ","HOUSE_NO":"８號四樓","E_COORD97":171342.42999999999,"N_COORD97":2540826.9500000002,"ADDRESS":"崇善路８３５巷８號四樓","OBJECTID":378325},"geometry":{"x":171342.4299999997,"y":2540826.9500000011}},{"attributes":{"ID":378336,"DIS_CODE":0,"TOWNNAME":"永康區","LI":"西灣里","LIN":"41鄰","STREET":"國光六街","SECT":" ","MAREA":" ","LANE":"９０巷","ALLEY":" ","HOUSE_NO":"１６號","E_COORD97":174065.17000000001,"N_COORD97":2545376.3799999999,"ADDRESS":"國光六街９０巷１６號","OBJECTID":378326},"geometry":{"x":174065.16999999993,"y":2545376.379999999}},{"attributes":{"ID":378337,"DIS_CODE":0,"TOWNNAME":"南區","LI":"文南里","LIN":"21鄰","STREET":"健康路","SECT":"二段","MAREA":" ","LANE":"４８９巷","ALLEY":" ","HOUSE_NO":"５號三樓","E_COORD97":166358.45999999999,"N_COORD97":2542511.6000000001,"ADDRESS":"健康路二段４８９巷５號三樓","OBJECTID":378327},"geometry":{"x":166358.45999999996,"y":2542511.6000000015}},{"attributes":{"ID":378338,"DIS_CODE":0,"TOWNNAME":"南區","LI":"文南里","LIN":"21鄰","STREET":"健康路","SECT":"二段","MAREA":" ","LANE":"４８９巷","ALLEY":" ","HOUSE_NO":"２號三樓","E_COORD97":166340.39000000001,"N_COORD97":2542516.3100000001,"ADDRESS":"健康路二段４８９巷２號三樓","OBJECTID":378328},"geometry":{"x":166340.38999999873,"y":2542516.3100000005}},{"attributes":{"ID":378339,"DIS_CODE":0,"TOWNNAME":"南區","LI":"文南里","LIN":"21鄰","STREET":"健康路","SECT":"二段","MAREA":" ","LANE":"４８９巷","ALLEY":" ","HOUSE_NO":"２號四樓","E_COORD97":166340.39000000001,"N_COORD97":2542516.3100000001,"ADDRESS":"健康路二段４８９巷２號四樓","OBJECTID":378329},"geometry":{"x":166340.38999999873,"y":2542516.3100000005}},{"attributes":{"ID":378340,"DIS_CODE":0,"TOWNNAME":"南區","LI":"文南里","LIN":"21鄰","STREET":"健康路","SECT":"二段","MAREA":" ","LANE":"４８９巷","ALLEY":" ","HOUSE_NO":"２號五樓","E_COORD97":166340.39000000001,"N_COORD97":2542516.3100000001,"ADDRESS":"健康路二段４８９巷２號五樓","OBJECTID":378330},"geometry":{"x":166340.38999999873,"y":2542516.3100000005}},{"attributes":{"ID":378341,"DIS_CODE":0,"TOWNNAME":"南區","LI":"文南里","LIN":"21鄰","STREET":"健康路","SECT":"二段","MAREA":" ","LANE":"４８９巷","ALLEY":" ","HOUSE_NO":"３號三樓","E_COORD97":166345.10000000001,"N_COORD97":2542514.4399999999,"ADDRESS":"健康路二段４８９巷３號三樓","OBJECTID":378331},"geometry":{"x":166345.09999999963,"y":2542514.4399999995}},{"attributes":{"ID":378342,"DIS_CODE":0,"TOWNNAME":"南區","LI":"文南里","LIN":"21鄰","STREET":"健康路","SECT":"二段","MAREA":" ","LANE":"４８９巷","ALLEY":" ","HOUSE_NO":"３號五樓","E_COORD97":166345.10000000001,"N_COORD97":2542514.4399999999,"ADDRESS":"健康路二段４８９巷３號五樓","OBJECTID":378332},"geometry":{"x":166345.09999999963,"y":2542514.4399999995}},{"attributes":{"ID":378343,"DIS_CODE":0,"TOWNNAME":"南區","LI":"文南里","LIN":"21鄰","STREET":"健康路","SECT":"二段","MAREA":" ","LANE":"４８９巷","ALLEY":" ","HOUSE_NO":"４號三樓","E_COORD97":166350.35999999999,"N_COORD97":2542513.6499999999,"ADDRESS":"健康路二段４８９巷４號三樓","OBJECTID":378333},"geometry":{"x":166350.36000000127,"y":2542513.6500000004}},{"attributes":{"ID":378344,"DIS_CODE":0,"TOWNNAME":"南區","LI":"文南里","LIN":"21鄰","STREET":"健康路","SECT":"二段","MAREA":" ","LANE":"４８９巷","ALLEY":" ","HOUSE_NO":"４號五樓","E_COORD97":166350.35999999999,"N_COORD97":2542513.6499999999,"ADDRESS":"健康路二段４８９巷４號五樓","OBJECTID":378334},"geometry":{"x":166350.36000000127,"y":2542513.6500000004}},{"attributes":{"ID":378345,"DIS_CODE":0,"TOWNNAME":"南區","LI":"文南里","LIN":"21鄰","STREET":"健康路","SECT":"二段","MAREA":" ","LANE":"４８９巷","ALLEY":" ","HOUSE_NO":"５號四樓","E_COORD97":166358.45999999999,"N_COORD97":2542511.6000000001,"ADDRESS":"健康路二段４８９巷５號四樓","OBJECTID":378335},"geometry":{"x":166358.45999999996,"y":2542511.6000000015}},{"attributes":{"ID":378346,"DIS_CODE":0,"TOWNNAME":"南區","LI":"文南里","LIN":"21鄰","STREET":"健康路","SECT":"二段","MAREA":" ","LANE":"４８９巷","ALLEY":" ","HOUSE_NO":"６號三樓","E_COORD97":166363.79999999999,"N_COORD97":2542515.6899999999,"ADDRESS":"健康路二段４８９巷６號三樓","OBJECTID":378336},"geometry":{"x":166363.80000000075,"y":2542515.6899999995}},{"attributes":{"ID":378347,"DIS_CODE":0,"TOWNNAME":"南區","LI":"文南里","LIN":"21鄰","STREET":"健康路","SECT":"二段","MAREA":" ","LANE":"４８９巷","ALLEY":" ","HOUSE_NO":"６號四樓","E_COORD97":166363.79999999999,"N_COORD97":2542515.6899999999,"ADDRESS":"健康路二段４８９巷６號四樓","OBJECTID":378337},"geometry":{"x":166363.80000000075,"y":2542515.6899999995}},{"attributes":{"ID":378348,"DIS_CODE":0,"TOWNNAME":"南區","LI":"文南里","LIN":"21鄰","STREET":"健康路","SECT":"二段","MAREA":" ","LANE":"４８９巷","ALLEY":" ","HOUSE_NO":"６號五樓","E_COORD97":166363.79999999999,"N_COORD97":2542515.6899999999,"ADDRESS":"健康路二段４８９巷６號五樓","OBJECTID":378338},"geometry":{"x":166363.80000000075,"y":2542515.6899999995}},{"attributes":{"ID":378349,"DIS_CODE":0,"TOWNNAME":"南區","LI":"文南里","LIN":"21鄰","STREET":"健康路","SECT":"二段","MAREA":" ","LANE":"４８９巷","ALLEY":" ","HOUSE_NO":"７號三樓","E_COORD97":166368.25,"N_COORD97":2542511.5099999998,"ADDRESS":"健康路二段４８９巷７號三樓","OBJECTID":378339},"geometry":{"x":166368.25,"y":2542511.5099999998}},{"attributes":{"ID":378350,"DIS_CODE":0,"TOWNNAME":"南區","LI":"文南里","LIN":"21鄰","STREET":"健康路","SECT":"二段","MAREA":" ","LANE":"４８９巷","ALLEY":" ","HOUSE_NO":"７號四樓","E_COORD97":166368.25,"N_COORD97":2542511.5099999998,"ADDRESS":"健康路二段４８９巷７號四樓","OBJECTID":378340},"geometry":{"x":166368.25,"y":2542511.5099999998}},{"attributes":{"ID":378351,"DIS_CODE":0,"TOWNNAME":"南區","LI":"文南里","LIN":"21鄰","STREET":"健康路","SECT":"二段","MAREA":" ","LANE":"４８９巷","ALLEY":" ","HOUSE_NO":"７號五樓之１","E_COORD97":166368.25,"N_COORD97":2542511.5099999998,"ADDRESS":"健康路二段４８９巷７號五樓之１","OBJECTID":378341},"geometry":{"x":166368.25,"y":2542511.5099999998}},{"attributes":{"ID":378352,"DIS_CODE":0,"TOWNNAME":"南區","LI":"文南里","LIN":"21鄰","STREET":"健康路","SECT":"二段","MAREA":" ","LANE":"４８９巷","ALLEY":" ","HOUSE_NO":"７號五樓之２","E_COORD97":166368.25,"N_COORD97":2542511.5099999998,"ADDRESS":"健康路二段４８９巷７號五樓之２","OBJECTID":378342},"geometry":{"x":166368.25,"y":2542511.5099999998}},{"attributes":{"ID":378353,"DIS_CODE":0,"TOWNNAME":"永康區","LI":"安康里","LIN":"24鄰","STREET":"中華路","SECT":" ","MAREA":" ","LANE":"７０３巷","ALLEY":" ","HOUSE_NO":"７２號","E_COORD97":170725.34,"N_COORD97":2546260.7400000002,"ADDRESS":"中華路７０３巷７２號","OBJECTID":378343},"geometry":{"x":170725.34000000078,"y":2546260.7400000039}},{"attributes":{"ID":378354,"DIS_CODE":0,"TOWNNAME":"永康區","LI":"安康里","LIN":"21鄰","STREET":"中華路","SECT":" ","MAREA":" ","LANE":"６６１巷","ALLEY":" ","HOUSE_NO":"２號十樓之１","E_COORD97":170973.84,"N_COORD97":2546231.5499999998,"ADDRESS":"中華路６６１巷２號十樓之１","OBJECTID":378344},"geometry":{"x":170973.83999999985,"y":2546231.5500000007}},{"attributes":{"ID":378355,"DIS_CODE":0,"TOWNNAME":"永康區","LI":"安康里","LIN":"21鄰","STREET":"中華路","SECT":" ","MAREA":" ","LANE":"６６１巷","ALLEY":" ","HOUSE_NO":"２號五樓之３","E_COORD97":170973.94,"N_COORD97":2546231.5499999998,"ADDRESS":"中華路６６１巷２號五樓之３","OBJECTID":378345},"geometry":{"x":170973.94000000227,"y":2546231.5500000007}},{"attributes":{"ID":378356,"DIS_CODE":0,"TOWNNAME":"永康區","LI":"安康里","LIN":"21鄰","STREET":"中華路","SECT":" ","MAREA":" ","LANE":"６６１巷","ALLEY":" ","HOUSE_NO":"２號六樓之２","E_COORD97":170973.97,"N_COORD97":2546231.5499999998,"ADDRESS":"中華路６６１巷２號六樓之２","OBJECTID":378346},"geometry":{"x":170973.96999999974,"y":2546231.5500000007}},{"attributes":{"ID":378357,"DIS_CODE":0,"TOWNNAME":"永康區","LI":"安康里","LIN":"21鄰","STREET":"中華路","SECT":" ","MAREA":" ","LANE":"６６１巷","ALLEY":" ","HOUSE_NO":"２號十樓之２","E_COORD97":170973.97,"N_COORD97":2546231.5499999998,"ADDRESS":"中華路６６１巷２號十樓之２","OBJECTID":378347},"geometry":{"x":170973.96999999974,"y":2546231.5500000007}},{"attributes":{"ID":378358,"DIS_CODE":0,"TOWNNAME":"永康區","LI":"安康里","LIN":"21鄰","STREET":"中華路","SECT":" ","MAREA":" ","LANE":"６６１巷","ALLEY":" ","HOUSE_NO":"２號八樓之２","E_COORD97":170973.97,"N_COORD97":2546231.5499999998,"ADDRESS":"中華路６６１巷２號八樓之２","OBJECTID":378348},"geometry":{"x":170973.96999999974,"y":2546231.5500000007}},{"attributes":{"ID":378359,"DIS_CODE":0,"TOWNNAME":"永康區","LI":"安康里","LIN":"21鄰","STREET":"中華路","SECT":" ","MAREA":" ","LANE":"６６１巷","ALLEY":" ","HOUSE_NO":"２號九樓之３","E_COORD97":170973.94,"N_COORD97":2546231.5499999998,"ADDRESS":"中華路６６１巷２號九樓之３","OBJECTID":378349},"geometry":{"x":170973.94000000227,"y":2546231.5500000007}},{"attributes":{"ID":378360,"DIS_CODE":0,"TOWNNAME":"永康區","LI":"甲頂里","LIN":"13鄰","STREET":"大武街","SECT":" ","MAREA":" ","LANE":"２巷","ALLEY":" ","HOUSE_NO":"４５號","E_COORD97":170397.92000000001,"N_COORD97":2546556.75,"ADDRESS":"大武街２巷４５號","OBJECTID":378350},"geometry":{"x":170397.92000000086,"y":2546556.7500000019}},{"attributes":{"ID":378361,"DIS_CODE":0,"TOWNNAME":"永康區","LI":"安康里","LIN":"21鄰","STREET":"中華路","SECT":" ","MAREA":" ","LANE":"６６１巷","ALLEY":" ","HOUSE_NO":"２號九樓之１","E_COORD97":170973.84,"N_COORD97":2546231.5499999998,"ADDRESS":"中華路６６１巷２號九樓之１","OBJECTID":378351},"geometry":{"x":170973.83999999985,"y":2546231.5500000007}},{"attributes":{"ID":378362,"DIS_CODE":0,"TOWNNAME":"東區","LI":"莊敬里","LIN":"21鄰","STREET":"莊敬路","SECT":" ","MAREA":" ","LANE":"１５８巷","ALLEY":" ","HOUSE_NO":"８號","E_COORD97":171409.29999999999,"N_COORD97":2544081.48,"ADDRESS":"莊敬路１５８巷８號","OBJECTID":378352},"geometry":{"x":171409.29999999981,"y":2544081.4800000004}},{"attributes":{"ID":378363,"DIS_CODE":0,"TOWNNAME":"東區","LI":"德光里","LIN":"21鄰","STREET":"崇明路","SECT":" ","MAREA":" ","LANE":"１５５巷","ALLEY":" ","HOUSE_NO":"１０號七樓","E_COORD97":169963.64999999999,"N_COORD97":2542187.29,"ADDRESS":"崇明路１５５巷１０號七樓","OBJECTID":378353},"geometry":{"x":169963.65000000037,"y":2542187.2900000028}},{"attributes":{"ID":378364,"DIS_CODE":0,"TOWNNAME":"東區","LI":"德光里","LIN":"21鄰","STREET":"崇明路","SECT":" ","MAREA":" ","LANE":"１５５巷","ALLEY":" ","HOUSE_NO":"１０號七樓之１","E_COORD97":169963.64999999999,"N_COORD97":2542187.29,"ADDRESS":"崇明路１５５巷１０號七樓之１","OBJECTID":378354},"geometry":{"x":169963.65000000037,"y":2542187.2900000028}},{"attributes":{"ID":378365,"DIS_CODE":0,"TOWNNAME":"東區","LI":"德光里","LIN":"21鄰","STREET":"崇明路","SECT":" ","MAREA":" ","LANE":"１５５巷","ALLEY":" ","HOUSE_NO":"１０號五樓","E_COORD97":169963.64999999999,"N_COORD97":2542187.29,"ADDRESS":"崇明路１５５巷１０號五樓","OBJECTID":378355},"geometry":{"x":169963.65000000037,"y":2542187.2900000028}},{"attributes":{"ID":378366,"DIS_CODE":0,"TOWNNAME":"東區","LI":"德光里","LIN":"21鄰","STREET":"崇明路","SECT":" ","MAREA":" ","LANE":"１５５巷","ALLEY":" ","HOUSE_NO":"１０號五樓之１","E_COORD97":169963.64999999999,"N_COORD97":2542187.29,"ADDRESS":"崇明路１５５巷１０號五樓之１","OBJECTID":378356},"geometry":{"x":169963.65000000037,"y":2542187.2900000028}},{"attributes":{"ID":378367,"DIS_CODE":0,"TOWNNAME":"東區","LI":"德光里","LIN":"21鄰","STREET":"崇明路","SECT":" ","MAREA":" ","LANE":"１５５巷","ALLEY":" ","HOUSE_NO":"１０號六樓","E_COORD97":169963.64999999999,"N_COORD97":2542187.29,"ADDRESS":"崇明路１５５巷１０號六樓","OBJECTID":378357},"geometry":{"x":169963.65000000037,"y":2542187.2900000028}},{"attributes":{"ID":378368,"DIS_CODE":0,"TOWNNAME":"東區","LI":"德光里","LIN":"21鄰","STREET":"崇明路","SECT":" ","MAREA":" ","LANE":"１５５巷","ALLEY":" ","HOUSE_NO":"１０號六樓之１","E_COORD97":169963.64999999999,"N_COORD97":2542187.29,"ADDRESS":"崇明路１５５巷１０號六樓之１","OBJECTID":378358},"geometry":{"x":169963.65000000037,"y":2542187.2900000028}},{"attributes":{"ID":378369,"DIS_CODE":0,"TOWNNAME":"東區","LI":"德光里","LIN":"21鄰","STREET":"崇明路","SECT":" ","MAREA":" ","LANE":"１５５巷","ALLEY":" ","HOUSE_NO":"１０號四樓","E_COORD97":169963.64999999999,"N_COORD97":2542187.29,"ADDRESS":"崇明路１５５巷１０號四樓","OBJECTID":378359},"geometry":{"x":169963.65000000037,"y":2542187.2900000028}},{"attributes":{"ID":378370,"DIS_CODE":0,"TOWNNAME":"東區","LI":"德光里","LIN":"21鄰","STREET":"崇明路","SECT":" ","MAREA":" ","LANE":"１５５巷","ALLEY":" ","HOUSE_NO":"１０號四樓之１","E_COORD97":169963.64999999999,"N_COORD97":2542187.29,"ADDRESS":"崇明路１５５巷１０號四樓之１","OBJECTID":378360},"geometry":{"x":169963.65000000037,"y":2542187.2900000028}},{"attributes":{"ID":378371,"DIS_CODE":0,"TOWNNAME":"永康區","LI":"西橋里","LIN":"5鄰","STREET":"中華西街","SECT":" ","MAREA":" ","LANE":"２１巷","ALLEY":" ","HOUSE_NO":"２號","E_COORD97":170781.60999999999,"N_COORD97":2545954.7400000002,"ADDRESS":"中華西街２１巷２號","OBJECTID":378361},"geometry":{"x":170781.61000000127,"y":2545954.7400000002}},{"attributes":{"ID":378372,"DIS_CODE":0,"TOWNNAME":"東區","LI":"德光里","LIN":"21鄰","STREET":"崇明路","SECT":" ","MAREA":" ","LANE":"１５５巷","ALLEY":" ","HOUSE_NO":"２號七樓","E_COORD97":169949.01999999999,"N_COORD97":2542182.3100000001,"ADDRESS":"崇明路１５５巷２號七樓","OBJECTID":378362},"geometry":{"x":169949.02000000048,"y":2542182.3100000024}},{"attributes":{"ID":378373,"DIS_CODE":0,"TOWNNAME":"東區","LI":"德光里","LIN":"21鄰","STREET":"崇明路","SECT":" ","MAREA":" ","LANE":"１５５巷","ALLEY":" ","HOUSE_NO":"２號七樓之１","E_COORD97":169949.01999999999,"N_COORD97":2542182.3100000001,"ADDRESS":"崇明路１５５巷２號七樓之１","OBJECTID":378363},"geometry":{"x":169949.02000000048,"y":2542182.3100000024}},{"attributes":{"ID":378374,"DIS_CODE":0,"TOWNNAME":"東區","LI":"德光里","LIN":"21鄰","STREET":"崇明路","SECT":" ","MAREA":" ","LANE":"１５５巷","ALLEY":" ","HOUSE_NO":"２號八樓","E_COORD97":169949.01999999999,"N_COORD97":2542182.3100000001,"ADDRESS":"崇明路１５５巷２號八樓","OBJECTID":378364},"geometry":{"x":169949.02000000048,"y":2542182.3100000024}},{"attributes":{"ID":378375,"DIS_CODE":0,"TOWNNAME":"東區","LI":"德光里","LIN":"21鄰","STREET":"崇明路","SECT":" ","MAREA":" ","LANE":"１５５巷","ALLEY":" ","HOUSE_NO":"２號八樓之１","E_COORD97":169949.01999999999,"N_COORD97":2542182.3100000001,"ADDRESS":"崇明路１５５巷２號八樓之１","OBJECTID":378365},"geometry":{"x":169949.02000000048,"y":2542182.3100000024}},{"attributes":{"ID":378376,"DIS_CODE":0,"TOWNNAME":"東區","LI":"德光里","LIN":"21鄰","STREET":"崇明路","SECT":" ","MAREA":" ","LANE":"１５５巷","ALLEY":" ","HOUSE_NO":"２號五樓","E_COORD97":169949.01999999999,"N_COORD97":2542182.3100000001,"ADDRESS":"崇明路１５５巷２號五樓","OBJECTID":378366},"geometry":{"x":169949.02000000048,"y":2542182.3100000024}},{"attributes":{"ID":378377,"DIS_CODE":0,"TOWNNAME":"東區","LI":"德光里","LIN":"21鄰","STREET":"崇明路","SECT":" ","MAREA":" ","LANE":"１５５巷","ALLEY":" ","HOUSE_NO":"２號五樓之１","E_COORD97":169949.01999999999,"N_COORD97":2542182.3100000001,"ADDRESS":"崇明路１５５巷２號五樓之１","OBJECTID":378367},"geometry":{"x":169949.02000000048,"y":2542182.3100000024}},{"attributes":{"ID":378378,"DIS_CODE":0,"TOWNNAME":"東區","LI":"德光里","LIN":"21鄰","STREET":"崇明路","SECT":" ","MAREA":" ","LANE":"１５５巷","ALLEY":" ","HOUSE_NO":"２號六樓","E_COORD97":169949.01999999999,"N_COORD97":2542182.3100000001,"ADDRESS":"崇明路１５５巷２號六樓","OBJECTID":378368},"geometry":{"x":169949.02000000048,"y":2542182.3100000024}},{"attributes":{"ID":378379,"DIS_CODE":0,"TOWNNAME":"東區","LI":"德光里","LIN":"21鄰","STREET":"崇明路","SECT":" ","MAREA":" ","LANE":"１５５巷","ALLEY":" ","HOUSE_NO":"２號六樓之１","E_COORD97":169949.01999999999,"N_COORD97":2542182.3100000001,"ADDRESS":"崇明路１５５巷２號六樓之１","OBJECTID":378369},"geometry":{"x":169949.02000000048,"y":2542182.3100000024}},{"attributes":{"ID":378380,"DIS_CODE":0,"TOWNNAME":"東區","LI":"德光里","LIN":"21鄰","STREET":"崇明路","SECT":" ","MAREA":" ","LANE":"１５５巷","ALLEY":" ","HOUSE_NO":"２號四樓","E_COORD97":169949.01999999999,"N_COORD97":2542182.3100000001,"ADDRESS":"崇明路１５５巷２號四樓","OBJECTID":378370},"geometry":{"x":169949.02000000048,"y":2542182.3100000024}},{"attributes":{"ID":378381,"DIS_CODE":0,"TOWNNAME":"東區","LI":"德光里","LIN":"21鄰","STREET":"崇明路","SECT":" ","MAREA":" ","LANE":"１５５巷","ALLEY":" ","HOUSE_NO":"２號四樓之１","E_COORD97":169949.01999999999,"N_COORD97":2542182.3100000001,"ADDRESS":"崇明路１５５巷２號四樓之１","OBJECTID":378371},"geometry":{"x":169949.02000000048,"y":2542182.3100000024}},{"attributes":{"ID":378382,"DIS_CODE":0,"TOWNNAME":"東區","LI":"德光里","LIN":"21鄰","STREET":"崇明路","SECT":" ","MAREA":" ","LANE":"１８７巷","ALLEY":" ","HOUSE_NO":"１１號七樓","E_COORD97":169991.54999999999,"N_COORD97":2542152.6000000001,"ADDRESS":"崇明路１８７巷１１號七樓","OBJECTID":378372},"geometry":{"x":169991.55000000075,"y":2542152.6000000015}},{"attributes":{"ID":378383,"DIS_CODE":0,"TOWNNAME":"東區","LI":"德光里","LIN":"21鄰","STREET":"崇明路","SECT":" ","MAREA":" ","LANE":"１８７巷","ALLEY":" ","HOUSE_NO":"１１號七樓之１","E_COORD97":169991.54999999999,"N_COORD97":2542152.6000000001,"ADDRESS":"崇明路１８７巷１１號七樓之１","OBJECTID":378373},"geometry":{"x":169991.55000000075,"y":2542152.6000000015}},{"attributes":{"ID":378384,"DIS_CODE":0,"TOWNNAME":"東區","LI":"德光里","LIN":"21鄰","STREET":"崇明路","SECT":" ","MAREA":" ","LANE":"１８７巷","ALLEY":" ","HOUSE_NO":"１１號五樓","E_COORD97":169991.54999999999,"N_COORD97":2542152.6000000001,"ADDRESS":"崇明路１８７巷１１號五樓","OBJECTID":378374},"geometry":{"x":169991.55000000075,"y":2542152.6000000015}},{"attributes":{"ID":378385,"DIS_CODE":0,"TOWNNAME":"東區","LI":"德光里","LIN":"21鄰","STREET":"崇明路","SECT":" ","MAREA":" ","LANE":"１８７巷","ALLEY":" ","HOUSE_NO":"１１號五樓之１","E_COORD97":169991.54999999999,"N_COORD97":2542152.6000000001,"ADDRESS":"崇明路１８７巷１１號五樓之１","OBJECTID":378375},"geometry":{"x":169991.55000000075,"y":2542152.6000000015}},{"attributes":{"ID":378386,"DIS_CODE":0,"TOWNNAME":"東區","LI":"德光里","LIN":"21鄰","STREET":"崇明路","SECT":" ","MAREA":" ","LANE":"１８７巷","ALLEY":" ","HOUSE_NO":"１１號六樓","E_COORD97":169991.54999999999,"N_COORD97":2542152.6000000001,"ADDRESS":"崇明路１８７巷１１號六樓","OBJECTID":378376},"geometry":{"x":169991.55000000075,"y":2542152.6000000015}},{"attributes":{"ID":378387,"DIS_CODE":0,"TOWNNAME":"東區","LI":"德光里","LIN":"21鄰","STREET":"崇明路","SECT":" ","MAREA":" ","LANE":"１８７巷","ALLEY":" ","HOUSE_NO":"１１號六樓之１","E_COORD97":169991.54999999999,"N_COORD97":2542152.6000000001,"ADDRESS":"崇明路１８７巷１１號六樓之１","OBJECTID":378377},"geometry":{"x":169991.55000000075,"y":2542152.6000000015}},{"attributes":{"ID":378388,"DIS_CODE":0,"TOWNNAME":"東區","LI":"德光里","LIN":"21鄰","STREET":"崇明路","SECT":" ","MAREA":" ","LANE":"１８７巷","ALLEY":" ","HOUSE_NO":"１１號四樓","E_COORD97":169991.54999999999,"N_COORD97":2542152.6000000001,"ADDRESS":"崇明路１８７巷１１號四樓","OBJECTID":378378},"geometry":{"x":169991.55000000075,"y":2542152.6000000015}},{"attributes":{"ID":378389,"DIS_CODE":0,"TOWNNAME":"東區","LI":"德光里","LIN":"21鄰","STREET":"崇明路","SECT":" ","MAREA":" ","LANE":"１８７巷","ALLEY":" ","HOUSE_NO":"１１號四樓之１","E_COORD97":169991.54999999999,"N_COORD97":2542152.6000000001,"ADDRESS":"崇明路１８７巷１１號四樓之１","OBJECTID":378379},"geometry":{"x":169991.55000000075,"y":2542152.6000000015}},{"attributes":{"ID":378390,"DIS_CODE":0,"TOWNNAME":"東區","LI":"德光里","LIN":"21鄰","STREET":"崇明路","SECT":" ","MAREA":" ","LANE":"１８７巷","ALLEY":" ","HOUSE_NO":"１７號七樓","E_COORD97":170001.97,"N_COORD97":2542161.46,"ADDRESS":"崇明路１８７巷１７號七樓","OBJECTID":378380},"geometry":{"x":170001.97000000067,"y":2542161.4600000028}},{"attributes":{"ID":378391,"DIS_CODE":0,"TOWNNAME":"東區","LI":"德光里","LIN":"21鄰","STREET":"崇明路","SECT":" ","MAREA":" ","LANE":"１８７巷","ALLEY":" ","HOUSE_NO":"１７號二樓","E_COORD97":170001.97,"N_COORD97":2542161.46,"ADDRESS":"崇明路１８７巷１７號二樓","OBJECTID":378381},"geometry":{"x":170001.97000000067,"y":2542161.4600000028}},{"attributes":{"ID":378392,"DIS_CODE":0,"TOWNNAME":"東區","LI":"德光里","LIN":"21鄰","STREET":"崇明路","SECT":" ","MAREA":" ","LANE":"１８７巷","ALLEY":" ","HOUSE_NO":"１７號五樓","E_COORD97":170001.97,"N_COORD97":2542161.46,"ADDRESS":"崇明路１８７巷１７號五樓","OBJECTID":378382},"geometry":{"x":170001.97000000067,"y":2542161.4600000028}},{"attributes":{"ID":378393,"DIS_CODE":0,"TOWNNAME":"東區","LI":"德光里","LIN":"21鄰","STREET":"崇明路","SECT":" ","MAREA":" ","LANE":"１８７巷","ALLEY":" ","HOUSE_NO":"１７號六樓","E_COORD97":170001.97,"N_COORD97":2542161.46,"ADDRESS":"崇明路１８７巷１７號六樓","OBJECTID":378383},"geometry":{"x":170001.97000000067,"y":2542161.4600000028}},{"attributes":{"ID":378394,"DIS_CODE":0,"TOWNNAME":"東區","LI":"德光里","LIN":"21鄰","STREET":"崇明路","SECT":" ","MAREA":" ","LANE":"１８７巷","ALLEY":" ","HOUSE_NO":"１７號四樓","E_COORD97":170001.97,"N_COORD97":2542161.46,"ADDRESS":"崇明路１８７巷１７號四樓","OBJECTID":378384},"geometry":{"x":170001.97000000067,"y":2542161.4600000028}},{"attributes":{"ID":378395,"DIS_CODE":0,"TOWNNAME":"東區","LI":"德光里","LIN":"21鄰","STREET":"崇明路","SECT":" ","MAREA":" ","LANE":"１８７巷","ALLEY":" ","HOUSE_NO":"１９號七樓","E_COORD97":170004.37,"N_COORD97":2542164.9700000002,"ADDRESS":"崇明路１８７巷１９號七樓","OBJECTID":378385},"geometry":{"x":170004.37000000197,"y":2542164.9700000025}},{"attributes":{"ID":378396,"DIS_CODE":0,"TOWNNAME":"永康區","LI":"東橋里","LIN":"5鄰","STREET":"大橋一街","SECT":" ","MAREA":" ","LANE":"３２４巷","ALLEY":" ","HOUSE_NO":"７４號","E_COORD97":171454.59,"N_COORD97":2546465.5,"ADDRESS":"大橋一街３２４巷７４號","OBJECTID":378386},"geometry":{"x":171454.58999999985,"y":2546465.5000000037}},{"attributes":{"ID":378397,"DIS_CODE":0,"TOWNNAME":"永康區","LI":"西橋里","LIN":"5鄰","STREET":"中華西街","SECT":" ","MAREA":" ","LANE":"２１巷","ALLEY":" ","HOUSE_NO":"２０號","E_COORD97":170726.89999999999,"N_COORD97":2545922.5,"ADDRESS":"中華西街２１巷２０號","OBJECTID":378387},"geometry":{"x":170726.9000000013,"y":2545922.5}},{"attributes":{"ID":378398,"DIS_CODE":0,"TOWNNAME":"東區","LI":"德光里","LIN":"21鄰","STREET":"崇明路","SECT":" ","MAREA":" ","LANE":"１８７巷","ALLEY":" ","HOUSE_NO":"１９號二樓","E_COORD97":170004.37,"N_COORD97":2542164.9700000002,"ADDRESS":"崇明路１８７巷１９號二樓","OBJECTID":378388},"geometry":{"x":170004.37000000197,"y":2542164.9700000025}},{"attributes":{"ID":378399,"DIS_CODE":0,"TOWNNAME":"東區","LI":"德光里","LIN":"21鄰","STREET":"崇明路","SECT":" ","MAREA":" ","LANE":"１８７巷","ALLEY":" ","HOUSE_NO":"１９號三樓","E_COORD97":170004.37,"N_COORD97":2542164.9700000002,"ADDRESS":"崇明路１８７巷１９號三樓","OBJECTID":378389},"geometry":{"x":170004.37000000197,"y":2542164.9700000025}},{"attributes":{"ID":378400,"DIS_CODE":0,"TOWNNAME":"東區","LI":"德光里","LIN":"21鄰","STREET":"崇明路","SECT":" ","MAREA":" ","LANE":"１８７巷","ALLEY":" ","HOUSE_NO":"１９號五樓","E_COORD97":170004.37,"N_COORD97":2542164.9700000002,"ADDRESS":"崇明路１８７巷１９號五樓","OBJECTID":378390},"geometry":{"x":170004.37000000197,"y":2542164.9700000025}},{"attributes":{"ID":378401,"DIS_CODE":0,"TOWNNAME":"東區","LI":"德光里","LIN":"21鄰","STREET":"崇明路","SECT":" ","MAREA":" ","LANE":"１８７巷","ALLEY":" ","HOUSE_NO":"１９號六樓","E_COORD97":170004.37,"N_COORD97":2542164.9700000002,"ADDRESS":"崇明路１８７巷１９號六樓","OBJECTID":378391},"geometry":{"x":170004.37000000197,"y":2542164.9700000025}},{"attributes":{"ID":378402,"DIS_CODE":0,"TOWNNAME":"東區","LI":"德光里","LIN":"21鄰","STREET":"崇明路","SECT":" ","MAREA":" ","LANE":"１８７巷","ALLEY":" ","HOUSE_NO":"１９號四樓","E_COORD97":170004.37,"N_COORD97":2542164.9700000002,"ADDRESS":"崇明路１８７巷１９號四樓","OBJECTID":378392},"geometry":{"x":170004.37000000197,"y":2542164.9700000025}},{"attributes":{"ID":378403,"DIS_CODE":0,"TOWNNAME":"東區","LI":"德光里","LIN":"21鄰","STREET":"崇明路","SECT":" ","MAREA":" ","LANE":"１８７巷","ALLEY":" ","HOUSE_NO":"２１號七樓","E_COORD97":169970.25,"N_COORD97":2542168.8199999998,"ADDRESS":"崇明路１８７巷２１號七樓","OBJECTID":378393},"geometry":{"x":169970.25000000093,"y":2542168.8200000022}},{"attributes":{"ID":378404,"DIS_CODE":0,"TOWNNAME":"東區","LI":"德光里","LIN":"21鄰","STREET":"崇明路","SECT":" ","MAREA":" ","LANE":"１８７巷","ALLEY":" ","HOUSE_NO":"２１號二樓","E_COORD97":169970.25,"N_COORD97":2542168.8199999998,"ADDRESS":"崇明路１８７巷２１號二樓","OBJECTID":378394},"geometry":{"x":169970.25000000093,"y":2542168.8200000022}},{"attributes":{"ID":378405,"DIS_CODE":0,"TOWNNAME":"東區","LI":"德光里","LIN":"21鄰","STREET":"崇明路","SECT":" ","MAREA":" ","LANE":"１８７巷","ALLEY":" ","HOUSE_NO":"２１號三樓","E_COORD97":169970.25,"N_COORD97":2542168.8199999998,"ADDRESS":"崇明路１８７巷２１號三樓","OBJECTID":378395},"geometry":{"x":169970.25000000093,"y":2542168.8200000022}},{"attributes":{"ID":378406,"DIS_CODE":0,"TOWNNAME":"東區","LI":"德光里","LIN":"21鄰","STREET":"崇明路","SECT":" ","MAREA":" ","LANE":"１８７巷","ALLEY":" ","HOUSE_NO":"２１號五樓","E_COORD97":169970.25,"N_COORD97":2542168.8199999998,"ADDRESS":"崇明路１８７巷２１號五樓","OBJECTID":378396},"geometry":{"x":169970.25000000093,"y":2542168.8200000022}},{"attributes":{"ID":378407,"DIS_CODE":0,"TOWNNAME":"東區","LI":"德光里","LIN":"21鄰","STREET":"崇明路","SECT":" ","MAREA":" ","LANE":"１８７巷","ALLEY":" ","HOUSE_NO":"２１號六樓","E_COORD97":169970.25,"N_COORD97":2542168.8199999998,"ADDRESS":"崇明路１８７巷２１號六樓","OBJECTID":378397},"geometry":{"x":169970.25000000093,"y":2542168.8200000022}},{"attributes":{"ID":378408,"DIS_CODE":0,"TOWNNAME":"東區","LI":"德光里","LIN":"21鄰","STREET":"崇明路","SECT":" ","MAREA":" ","LANE":"１８７巷","ALLEY":" ","HOUSE_NO":"２１號四樓","E_COORD97":169970.25,"N_COORD97":2542168.8199999998,"ADDRESS":"崇明路１８７巷２１號四樓","OBJECTID":378398},"geometry":{"x":169970.25000000093,"y":2542168.8200000022}},{"attributes":{"ID":378409,"DIS_CODE":0,"TOWNNAME":"東區","LI":"德光里","LIN":"21鄰","STREET":"崇明路","SECT":" ","MAREA":" ","LANE":"１８７巷","ALLEY":" ","HOUSE_NO":"２３號七樓","E_COORD97":169982.89000000001,"N_COORD97":2542161.5499999998,"ADDRESS":"崇明路１８７巷２３號七樓","OBJECTID":378399},"geometry":{"x":169982.88999999966,"y":2542161.5500000026}},{"attributes":{"ID":378410,"DIS_CODE":0,"TOWNNAME":"東區","LI":"德光里","LIN":"21鄰","STREET":"崇明路","SECT":" ","MAREA":" ","LANE":"１８７巷","ALLEY":" ","HOUSE_NO":"２３號二樓","E_COORD97":169982.89000000001,"N_COORD97":2542161.5499999998,"ADDRESS":"崇明路１８７巷２３號二樓","OBJECTID":378400},"geometry":{"x":169982.88999999966,"y":2542161.5500000026}}]}