{"displayFieldName":"TOWNNAME","fieldAliases":{"ID":"ID","DIS_CODE":"DIS_CODE","TOWNNAME":"TOWNNAME","LI":"LI","LIN":"LIN","STREET":"STREET","SECT":"SECT","MAREA":"MAREA","LANE":"LANE","ALLEY":"ALLEY","HOUSE_NO":"HOUSE_NO","E_COORD97":"E_COORD97","N_COORD97":"N_COORD97","ADDRESS":"ADDRESS","OBJECTID":"OBJECTID"},"geometryType":"esriGeometryPoint","spatialReference":{"wkid":102443,"latestWkid":3826},"fields":[{"name":"ID","type":"esriFieldTypeDouble","alias":"ID"},{"name":"DIS_CODE","type":"esriFieldTypeInteger","alias":"DIS_CODE"},{"name":"TOWNNAME","type":"esriFieldTypeString","alias":"TOWNNAME","length":8},{"name":"LI","type":"esriFieldTypeString","alias":"LI","length":8},{"name":"LIN","type":"esriFieldTypeString","alias":"LIN","length":12},{"name":"STREET","type":"esriFieldTypeString","alias":"STREET","length":20},{"name":"SECT","type":"esriFieldTypeString","alias":"SECT","length":8},{"name":"MAREA","type":"esriFieldTypeString","alias":"MAREA","length":12},{"name":"LANE","type":"esriFieldTypeString","alias":"LANE","length":10},{"name":"ALLEY","type":"esriFieldTypeString","alias":"ALLEY","length":10},{"name":"HOUSE_NO","type":"esriFieldTypeString","alias":"HOUSE_NO","length":20},{"name":"E_COORD97","type":"esriFieldTypeDouble","alias":"E_COORD97"},{"name":"N_COORD97","type":"esriFieldTypeDouble","alias":"N_COORD97"},{"name":"ADDRESS","type":"esriFieldTypeString","alias":"ADDRESS","length":50},{"name":"OBJECTID","type":"esriFieldTypeOID","alias":"OBJECTID"}],"features":[{"attributes":{"ID":627628,"DIS_CODE":0,"TOWNNAME":"北區","LI":"元寶里","LIN":"4鄰","STREET":"北園街","SECT":" ","MAREA":" ","LANE":" ","ALLEY":" ","HOUSE_NO":"４０號七樓之７","E_COORD97":170382.01000000001,"N_COORD97":2545764.04,"ADDRESS":"北園街４０號七樓之７","OBJECTID":627601},"geometry":{"x":170382.00999999978,"y":2545764.0399999991}},{"attributes":{"ID":627629,"DIS_CODE":0,"TOWNNAME":"北區","LI":"元寶里","LIN":"4鄰","STREET":"北園街","SECT":" ","MAREA":" ","LANE":" ","ALLEY":" ","HOUSE_NO":"４０號七樓之８","E_COORD97":170382.01000000001,"N_COORD97":2545764.04,"ADDRESS":"北園街４０號七樓之８","OBJECTID":627602},"geometry":{"x":170382.00999999978,"y":2545764.0399999991}},{"attributes":{"ID":627630,"DIS_CODE":0,"TOWNNAME":"北區","LI":"元寶里","LIN":"4鄰","STREET":"北園街","SECT":" ","MAREA":" ","LANE":" ","ALLEY":" ","HOUSE_NO":"４０號七樓之９","E_COORD97":170382.01000000001,"N_COORD97":2545764.04,"ADDRESS":"北園街４０號七樓之９","OBJECTID":627603},"geometry":{"x":170382.00999999978,"y":2545764.0399999991}},{"attributes":{"ID":627631,"DIS_CODE":0,"TOWNNAME":"北區","LI":"元寶里","LIN":"4鄰","STREET":"北園街","SECT":" ","MAREA":" ","LANE":" ","ALLEY":" ","HOUSE_NO":"４０號九樓之１","E_COORD97":170382.01000000001,"N_COORD97":2545764.04,"ADDRESS":"北園街４０號九樓之１","OBJECTID":627604},"geometry":{"x":170382.00999999978,"y":2545764.0399999991}},{"attributes":{"ID":627632,"DIS_CODE":0,"TOWNNAME":"北區","LI":"元寶里","LIN":"4鄰","STREET":"北園街","SECT":" ","MAREA":" ","LANE":" ","ALLEY":" ","HOUSE_NO":"４０號九樓之２","E_COORD97":170382.01000000001,"N_COORD97":2545764.04,"ADDRESS":"北園街４０號九樓之２","OBJECTID":627605},"geometry":{"x":170382.00999999978,"y":2545764.0399999991}},{"attributes":{"ID":627633,"DIS_CODE":0,"TOWNNAME":"北區","LI":"元寶里","LIN":"4鄰","STREET":"北園街","SECT":" ","MAREA":" ","LANE":" ","ALLEY":" ","HOUSE_NO":"４０號九樓之３","E_COORD97":170382.01000000001,"N_COORD97":2545764.04,"ADDRESS":"北園街４０號九樓之３","OBJECTID":627606},"geometry":{"x":170382.00999999978,"y":2545764.0399999991}},{"attributes":{"ID":627634,"DIS_CODE":0,"TOWNNAME":"北區","LI":"元寶里","LIN":"4鄰","STREET":"北園街","SECT":" ","MAREA":" ","LANE":" ","ALLEY":" ","HOUSE_NO":"４０號九樓之５","E_COORD97":170382.01000000001,"N_COORD97":2545764.04,"ADDRESS":"北園街４０號九樓之５","OBJECTID":627607},"geometry":{"x":170382.00999999978,"y":2545764.0399999991}},{"attributes":{"ID":627635,"DIS_CODE":0,"TOWNNAME":"北區","LI":"元寶里","LIN":"4鄰","STREET":"北園街","SECT":" ","MAREA":" ","LANE":" ","ALLEY":" ","HOUSE_NO":"４０號九樓之６","E_COORD97":170382.01000000001,"N_COORD97":2545764.04,"ADDRESS":"北園街４０號九樓之６","OBJECTID":627608},"geometry":{"x":170382.00999999978,"y":2545764.0399999991}},{"attributes":{"ID":627636,"DIS_CODE":0,"TOWNNAME":"北區","LI":"元寶里","LIN":"4鄰","STREET":"北園街","SECT":" ","MAREA":" ","LANE":" ","ALLEY":" ","HOUSE_NO":"４０號九樓之７","E_COORD97":170382.01000000001,"N_COORD97":2545764.04,"ADDRESS":"北園街４０號九樓之７","OBJECTID":627609},"geometry":{"x":170382.00999999978,"y":2545764.0399999991}},{"attributes":{"ID":627637,"DIS_CODE":0,"TOWNNAME":"北區","LI":"元寶里","LIN":"4鄰","STREET":"北園街","SECT":" ","MAREA":" ","LANE":" ","ALLEY":" ","HOUSE_NO":"４０號九樓之８","E_COORD97":170382.01000000001,"N_COORD97":2545764.04,"ADDRESS":"北園街４０號九樓之８","OBJECTID":627610},"geometry":{"x":170382.00999999978,"y":2545764.0399999991}},{"attributes":{"ID":627638,"DIS_CODE":0,"TOWNNAME":"北區","LI":"元寶里","LIN":"4鄰","STREET":"北園街","SECT":" ","MAREA":" ","LANE":" ","ALLEY":" ","HOUSE_NO":"４０號九樓之９","E_COORD97":170382.01000000001,"N_COORD97":2545764.04,"ADDRESS":"北園街４０號九樓之９","OBJECTID":627611},"geometry":{"x":170382.00999999978,"y":2545764.0399999991}},{"attributes":{"ID":627639,"DIS_CODE":0,"TOWNNAME":"北區","LI":"元寶里","LIN":"4鄰","STREET":"北園街","SECT":" ","MAREA":" ","LANE":" ","ALLEY":" ","HOUSE_NO":"４０號二樓之１","E_COORD97":170382.01000000001,"N_COORD97":2545764.04,"ADDRESS":"北園街４０號二樓之１","OBJECTID":627612},"geometry":{"x":170382.00999999978,"y":2545764.0399999991}},{"attributes":{"ID":627640,"DIS_CODE":0,"TOWNNAME":"北區","LI":"元寶里","LIN":"4鄰","STREET":"北園街","SECT":" ","MAREA":" ","LANE":" ","ALLEY":" ","HOUSE_NO":"４０號二樓之２","E_COORD97":170382.01000000001,"N_COORD97":2545764.04,"ADDRESS":"北園街４０號二樓之２","OBJECTID":627613},"geometry":{"x":170382.00999999978,"y":2545764.0399999991}},{"attributes":{"ID":627641,"DIS_CODE":0,"TOWNNAME":"北區","LI":"元寶里","LIN":"4鄰","STREET":"北園街","SECT":" ","MAREA":" ","LANE":" ","ALLEY":" ","HOUSE_NO":"４０號二樓之３","E_COORD97":170382.01000000001,"N_COORD97":2545764.04,"ADDRESS":"北園街４０號二樓之３","OBJECTID":627614},"geometry":{"x":170382.00999999978,"y":2545764.0399999991}},{"attributes":{"ID":627642,"DIS_CODE":0,"TOWNNAME":"中西區","LI":"文賢里","LIN":"4鄰","STREET":"西和路","SECT":" ","MAREA":" ","LANE":" ","ALLEY":" ","HOUSE_NO":"２７７號","E_COORD97":167224.07999999999,"N_COORD97":2544853.5099999998,"ADDRESS":"西和路２７７號","OBJECTID":627615},"geometry":{"x":167224.08000000007,"y":2544853.5099999998}},{"attributes":{"ID":627643,"DIS_CODE":0,"TOWNNAME":"北區","LI":"元寶里","LIN":"4鄰","STREET":"北園街","SECT":" ","MAREA":" ","LANE":" ","ALLEY":" ","HOUSE_NO":"４０號二樓之５","E_COORD97":170382.01000000001,"N_COORD97":2545764.04,"ADDRESS":"北園街４０號二樓之５","OBJECTID":627616},"geometry":{"x":170382.00999999978,"y":2545764.0399999991}},{"attributes":{"ID":627644,"DIS_CODE":0,"TOWNNAME":"北區","LI":"元寶里","LIN":"4鄰","STREET":"北園街","SECT":" ","MAREA":" ","LANE":" ","ALLEY":" ","HOUSE_NO":"４０號二樓之６","E_COORD97":170382.01000000001,"N_COORD97":2545764.04,"ADDRESS":"北園街４０號二樓之６","OBJECTID":627617},"geometry":{"x":170382.00999999978,"y":2545764.0399999991}},{"attributes":{"ID":627645,"DIS_CODE":0,"TOWNNAME":"北區","LI":"元寶里","LIN":"4鄰","STREET":"北園街","SECT":" ","MAREA":" ","LANE":" ","ALLEY":" ","HOUSE_NO":"４０號二樓之７","E_COORD97":170382.01000000001,"N_COORD97":2545764.04,"ADDRESS":"北園街４０號二樓之７","OBJECTID":627618},"geometry":{"x":170382.00999999978,"y":2545764.0399999991}},{"attributes":{"ID":627646,"DIS_CODE":0,"TOWNNAME":"北區","LI":"元寶里","LIN":"4鄰","STREET":"北園街","SECT":" ","MAREA":" ","LANE":" ","ALLEY":" ","HOUSE_NO":"４０號二樓之８","E_COORD97":170382.01000000001,"N_COORD97":2545764.04,"ADDRESS":"北園街４０號二樓之８","OBJECTID":627619},"geometry":{"x":170382.00999999978,"y":2545764.0399999991}},{"attributes":{"ID":627647,"DIS_CODE":0,"TOWNNAME":"北區","LI":"元寶里","LIN":"4鄰","STREET":"北園街","SECT":" ","MAREA":" ","LANE":" ","ALLEY":" ","HOUSE_NO":"４０號二樓之９","E_COORD97":170382.01000000001,"N_COORD97":2545764.04,"ADDRESS":"北園街４０號二樓之９","OBJECTID":627620},"geometry":{"x":170382.00999999978,"y":2545764.0399999991}},{"attributes":{"ID":627648,"DIS_CODE":0,"TOWNNAME":"北區","LI":"元寶里","LIN":"4鄰","STREET":"北園街","SECT":" ","MAREA":" ","LANE":" ","ALLEY":" ","HOUSE_NO":"４０號八樓之１","E_COORD97":170382.01000000001,"N_COORD97":2545764.04,"ADDRESS":"北園街４０號八樓之１","OBJECTID":627621},"geometry":{"x":170382.00999999978,"y":2545764.0399999991}},{"attributes":{"ID":627649,"DIS_CODE":0,"TOWNNAME":"北區","LI":"元寶里","LIN":"4鄰","STREET":"北園街","SECT":" ","MAREA":" ","LANE":" ","ALLEY":" ","HOUSE_NO":"４０號八樓之２","E_COORD97":170382.01000000001,"N_COORD97":2545764.04,"ADDRESS":"北園街４０號八樓之２","OBJECTID":627622},"geometry":{"x":170382.00999999978,"y":2545764.0399999991}},{"attributes":{"ID":627650,"DIS_CODE":0,"TOWNNAME":"北區","LI":"元寶里","LIN":"4鄰","STREET":"北園街","SECT":" ","MAREA":" ","LANE":" ","ALLEY":" ","HOUSE_NO":"４０號八樓之３","E_COORD97":170382.01000000001,"N_COORD97":2545764.04,"ADDRESS":"北園街４０號八樓之３","OBJECTID":627623},"geometry":{"x":170382.00999999978,"y":2545764.0399999991}},{"attributes":{"ID":627651,"DIS_CODE":0,"TOWNNAME":"北區","LI":"元寶里","LIN":"4鄰","STREET":"北園街","SECT":" ","MAREA":" ","LANE":" ","ALLEY":" ","HOUSE_NO":"４０號八樓之５","E_COORD97":170382.01000000001,"N_COORD97":2545764.04,"ADDRESS":"北園街４０號八樓之５","OBJECTID":627624},"geometry":{"x":170382.00999999978,"y":2545764.0399999991}},{"attributes":{"ID":627652,"DIS_CODE":0,"TOWNNAME":"北區","LI":"元寶里","LIN":"4鄰","STREET":"北園街","SECT":" ","MAREA":" ","LANE":" ","ALLEY":" ","HOUSE_NO":"４０號八樓之６","E_COORD97":170382.01000000001,"N_COORD97":2545764.04,"ADDRESS":"北園街４０號八樓之６","OBJECTID":627625},"geometry":{"x":170382.00999999978,"y":2545764.0399999991}},{"attributes":{"ID":627653,"DIS_CODE":0,"TOWNNAME":"北區","LI":"元寶里","LIN":"4鄰","STREET":"北園街","SECT":" ","MAREA":" ","LANE":" ","ALLEY":" ","HOUSE_NO":"４０號八樓之７","E_COORD97":170382.01000000001,"N_COORD97":2545764.04,"ADDRESS":"北園街４０號八樓之７","OBJECTID":627626},"geometry":{"x":170382.00999999978,"y":2545764.0399999991}},{"attributes":{"ID":627654,"DIS_CODE":0,"TOWNNAME":"北區","LI":"元寶里","LIN":"4鄰","STREET":"北園街","SECT":" ","MAREA":" ","LANE":" ","ALLEY":" ","HOUSE_NO":"４０號八樓之８","E_COORD97":170382.01000000001,"N_COORD97":2545764.04,"ADDRESS":"北園街４０號八樓之８","OBJECTID":627627},"geometry":{"x":170382.00999999978,"y":2545764.0399999991}},{"attributes":{"ID":627655,"DIS_CODE":0,"TOWNNAME":"北區","LI":"元寶里","LIN":"4鄰","STREET":"北園街","SECT":" ","MAREA":" ","LANE":" ","ALLEY":" ","HOUSE_NO":"４０號八樓之９","E_COORD97":170382.01000000001,"N_COORD97":2545764.04,"ADDRESS":"北園街４０號八樓之９","OBJECTID":627628},"geometry":{"x":170382.00999999978,"y":2545764.0399999991}},{"attributes":{"ID":627656,"DIS_CODE":0,"TOWNNAME":"北區","LI":"元寶里","LIN":"4鄰","STREET":"北園街","SECT":" ","MAREA":" ","LANE":" ","ALLEY":" ","HOUSE_NO":"４０號十一樓之１","E_COORD97":170382.01000000001,"N_COORD97":2545764.04,"ADDRESS":"北園街４０號十一樓之１","OBJECTID":627629},"geometry":{"x":170382.00999999978,"y":2545764.0399999991}},{"attributes":{"ID":627657,"DIS_CODE":0,"TOWNNAME":"北區","LI":"元寶里","LIN":"4鄰","STREET":"北園街","SECT":" ","MAREA":" ","LANE":" ","ALLEY":" ","HOUSE_NO":"４０號十一樓之２","E_COORD97":170382.01000000001,"N_COORD97":2545764.04,"ADDRESS":"北園街４０號十一樓之２","OBJECTID":627630},"geometry":{"x":170382.00999999978,"y":2545764.0399999991}},{"attributes":{"ID":627658,"DIS_CODE":0,"TOWNNAME":"北區","LI":"元寶里","LIN":"4鄰","STREET":"北園街","SECT":" ","MAREA":" ","LANE":" ","ALLEY":" ","HOUSE_NO":"４０號十一樓之３","E_COORD97":170382.01000000001,"N_COORD97":2545764.04,"ADDRESS":"北園街４０號十一樓之３","OBJECTID":627631},"geometry":{"x":170382.00999999978,"y":2545764.0399999991}},{"attributes":{"ID":627659,"DIS_CODE":0,"TOWNNAME":"北區","LI":"元寶里","LIN":"4鄰","STREET":"北園街","SECT":" ","MAREA":" ","LANE":" ","ALLEY":" ","HOUSE_NO":"４０號十一樓之５","E_COORD97":170382.01000000001,"N_COORD97":2545764.04,"ADDRESS":"北園街４０號十一樓之５","OBJECTID":627632},"geometry":{"x":170382.00999999978,"y":2545764.0399999991}},{"attributes":{"ID":627660,"DIS_CODE":0,"TOWNNAME":"北區","LI":"元寶里","LIN":"4鄰","STREET":"北園街","SECT":" ","MAREA":" ","LANE":" ","ALLEY":" ","HOUSE_NO":"４０號十一樓之６","E_COORD97":170382.01000000001,"N_COORD97":2545764.04,"ADDRESS":"北園街４０號十一樓之６","OBJECTID":627633},"geometry":{"x":170382.00999999978,"y":2545764.0399999991}},{"attributes":{"ID":627661,"DIS_CODE":0,"TOWNNAME":"北區","LI":"元寶里","LIN":"4鄰","STREET":"北園街","SECT":" ","MAREA":" ","LANE":" ","ALLEY":" ","HOUSE_NO":"４０號十一樓之７","E_COORD97":170382.01000000001,"N_COORD97":2545764.04,"ADDRESS":"北園街４０號十一樓之７","OBJECTID":627634},"geometry":{"x":170382.00999999978,"y":2545764.0399999991}},{"attributes":{"ID":627662,"DIS_CODE":0,"TOWNNAME":"北區","LI":"元寶里","LIN":"4鄰","STREET":"北園街","SECT":" ","MAREA":" ","LANE":" ","ALLEY":" ","HOUSE_NO":"４０號十一樓之８","E_COORD97":170382.01000000001,"N_COORD97":2545764.04,"ADDRESS":"北園街４０號十一樓之８","OBJECTID":627635},"geometry":{"x":170382.00999999978,"y":2545764.0399999991}},{"attributes":{"ID":627663,"DIS_CODE":0,"TOWNNAME":"北區","LI":"元寶里","LIN":"4鄰","STREET":"北園街","SECT":" ","MAREA":" ","LANE":" ","ALLEY":" ","HOUSE_NO":"４０號十一樓之９","E_COORD97":170382.01000000001,"N_COORD97":2545764.04,"ADDRESS":"北園街４０號十一樓之９","OBJECTID":627636},"geometry":{"x":170382.00999999978,"y":2545764.0399999991}},{"attributes":{"ID":627664,"DIS_CODE":0,"TOWNNAME":"北區","LI":"元寶里","LIN":"4鄰","STREET":"北園街","SECT":" ","MAREA":" ","LANE":" ","ALLEY":" ","HOUSE_NO":"４０號十二樓之１","E_COORD97":170382.01000000001,"N_COORD97":2545764.04,"ADDRESS":"北園街４０號十二樓之１","OBJECTID":627637},"geometry":{"x":170382.00999999978,"y":2545764.0399999991}},{"attributes":{"ID":627665,"DIS_CODE":0,"TOWNNAME":"北區","LI":"元寶里","LIN":"4鄰","STREET":"北園街","SECT":" ","MAREA":" ","LANE":" ","ALLEY":" ","HOUSE_NO":"４０號十二樓之２","E_COORD97":170382.01000000001,"N_COORD97":2545764.04,"ADDRESS":"北園街４０號十二樓之２","OBJECTID":627638},"geometry":{"x":170382.00999999978,"y":2545764.0399999991}},{"attributes":{"ID":627666,"DIS_CODE":0,"TOWNNAME":"北區","LI":"元寶里","LIN":"4鄰","STREET":"北園街","SECT":" ","MAREA":" ","LANE":" ","ALLEY":" ","HOUSE_NO":"４０號十二樓之３","E_COORD97":170382.01000000001,"N_COORD97":2545764.04,"ADDRESS":"北園街４０號十二樓之３","OBJECTID":627639},"geometry":{"x":170382.00999999978,"y":2545764.0399999991}},{"attributes":{"ID":627667,"DIS_CODE":0,"TOWNNAME":"北區","LI":"元寶里","LIN":"4鄰","STREET":"北園街","SECT":" ","MAREA":" ","LANE":" ","ALLEY":" ","HOUSE_NO":"４０號十二樓之５","E_COORD97":170382.01000000001,"N_COORD97":2545764.04,"ADDRESS":"北園街４０號十二樓之５","OBJECTID":627640},"geometry":{"x":170382.00999999978,"y":2545764.0399999991}},{"attributes":{"ID":627668,"DIS_CODE":0,"TOWNNAME":"北區","LI":"元寶里","LIN":"4鄰","STREET":"北園街","SECT":" ","MAREA":" ","LANE":" ","ALLEY":" ","HOUSE_NO":"４０號十二樓之６","E_COORD97":170382.01000000001,"N_COORD97":2545764.04,"ADDRESS":"北園街４０號十二樓之６","OBJECTID":627641},"geometry":{"x":170382.00999999978,"y":2545764.0399999991}},{"attributes":{"ID":627669,"DIS_CODE":0,"TOWNNAME":"北區","LI":"元寶里","LIN":"4鄰","STREET":"北園街","SECT":" ","MAREA":" ","LANE":" ","ALLEY":" ","HOUSE_NO":"４０號十二樓之７","E_COORD97":170382.01000000001,"N_COORD97":2545764.04,"ADDRESS":"北園街４０號十二樓之７","OBJECTID":627642},"geometry":{"x":170382.00999999978,"y":2545764.0399999991}},{"attributes":{"ID":627670,"DIS_CODE":0,"TOWNNAME":"北區","LI":"元寶里","LIN":"4鄰","STREET":"北園街","SECT":" ","MAREA":" ","LANE":" ","ALLEY":" ","HOUSE_NO":"４０號十二樓之８","E_COORD97":170382.01000000001,"N_COORD97":2545764.04,"ADDRESS":"北園街４０號十二樓之８","OBJECTID":627643},"geometry":{"x":170382.00999999978,"y":2545764.0399999991}},{"attributes":{"ID":627671,"DIS_CODE":0,"TOWNNAME":"北區","LI":"元寶里","LIN":"4鄰","STREET":"北園街","SECT":" ","MAREA":" ","LANE":" ","ALLEY":" ","HOUSE_NO":"４０號十二樓之９","E_COORD97":170382.01000000001,"N_COORD97":2545764.04,"ADDRESS":"北園街４０號十二樓之９","OBJECTID":627644},"geometry":{"x":170382.00999999978,"y":2545764.0399999991}},{"attributes":{"ID":627672,"DIS_CODE":0,"TOWNNAME":"北區","LI":"元寶里","LIN":"4鄰","STREET":"北園街","SECT":" ","MAREA":" ","LANE":" ","ALLEY":" ","HOUSE_NO":"４０號十三樓之１","E_COORD97":170382.01000000001,"N_COORD97":2545764.04,"ADDRESS":"北園街４０號十三樓之１","OBJECTID":627645},"geometry":{"x":170382.00999999978,"y":2545764.0399999991}},{"attributes":{"ID":627673,"DIS_CODE":0,"TOWNNAME":"北區","LI":"元寶里","LIN":"4鄰","STREET":"北園街","SECT":" ","MAREA":" ","LANE":" ","ALLEY":" ","HOUSE_NO":"４０號十三樓之２","E_COORD97":170382.01000000001,"N_COORD97":2545764.04,"ADDRESS":"北園街４０號十三樓之２","OBJECTID":627646},"geometry":{"x":170382.00999999978,"y":2545764.0399999991}},{"attributes":{"ID":627674,"DIS_CODE":0,"TOWNNAME":"北區","LI":"元寶里","LIN":"4鄰","STREET":"北園街","SECT":" ","MAREA":" ","LANE":" ","ALLEY":" ","HOUSE_NO":"４０號十三樓之３","E_COORD97":170382.01000000001,"N_COORD97":2545764.04,"ADDRESS":"北園街４０號十三樓之３","OBJECTID":627647},"geometry":{"x":170382.00999999978,"y":2545764.0399999991}},{"attributes":{"ID":627675,"DIS_CODE":0,"TOWNNAME":"北區","LI":"元寶里","LIN":"4鄰","STREET":"北園街","SECT":" ","MAREA":" ","LANE":" ","ALLEY":" ","HOUSE_NO":"４０號十三樓之５","E_COORD97":170382.01000000001,"N_COORD97":2545764.04,"ADDRESS":"北園街４０號十三樓之５","OBJECTID":627648},"geometry":{"x":170382.00999999978,"y":2545764.0399999991}},{"attributes":{"ID":627676,"DIS_CODE":0,"TOWNNAME":"北區","LI":"元寶里","LIN":"4鄰","STREET":"北園街","SECT":" ","MAREA":" ","LANE":" ","ALLEY":" ","HOUSE_NO":"４０號十三樓之６","E_COORD97":170382.01000000001,"N_COORD97":2545764.04,"ADDRESS":"北園街４０號十三樓之６","OBJECTID":627649},"geometry":{"x":170382.00999999978,"y":2545764.0399999991}},{"attributes":{"ID":627677,"DIS_CODE":0,"TOWNNAME":"北區","LI":"元寶里","LIN":"4鄰","STREET":"北園街","SECT":" ","MAREA":" ","LANE":" ","ALLEY":" ","HOUSE_NO":"４０號十三樓之７","E_COORD97":170382.01000000001,"N_COORD97":2545764.04,"ADDRESS":"北園街４０號十三樓之７","OBJECTID":627650},"geometry":{"x":170382.00999999978,"y":2545764.0399999991}},{"attributes":{"ID":627678,"DIS_CODE":0,"TOWNNAME":"北區","LI":"元寶里","LIN":"4鄰","STREET":"北園街","SECT":" ","MAREA":" ","LANE":" ","ALLEY":" ","HOUSE_NO":"４０號十三樓之８","E_COORD97":170382.01000000001,"N_COORD97":2545764.04,"ADDRESS":"北園街４０號十三樓之８","OBJECTID":627651},"geometry":{"x":170382.00999999978,"y":2545764.0399999991}},{"attributes":{"ID":627679,"DIS_CODE":0,"TOWNNAME":"永康區","LI":"勝利里","LIN":"18鄰","STREET":"勝學路","SECT":" ","MAREA":" ","LANE":" ","ALLEY":" ","HOUSE_NO":"１７６號","E_COORD97":171193.07999999999,"N_COORD97":2545076.7599999998,"ADDRESS":"勝學路１７６號","OBJECTID":627652},"geometry":{"x":171193.08000000194,"y":2545076.7600000035}},{"attributes":{"ID":627680,"DIS_CODE":0,"TOWNNAME":"北區","LI":"元寶里","LIN":"4鄰","STREET":"北園街","SECT":" ","MAREA":" ","LANE":" ","ALLEY":" ","HOUSE_NO":"４０號十三樓之９","E_COORD97":170382.01000000001,"N_COORD97":2545764.04,"ADDRESS":"北園街４０號十三樓之９","OBJECTID":627653},"geometry":{"x":170382.00999999978,"y":2545764.0399999991}},{"attributes":{"ID":627681,"DIS_CODE":0,"TOWNNAME":"北區","LI":"元寶里","LIN":"4鄰","STREET":"北園街","SECT":" ","MAREA":" ","LANE":" ","ALLEY":" ","HOUSE_NO":"４０號十四樓之１","E_COORD97":170382.01000000001,"N_COORD97":2545764.04,"ADDRESS":"北園街４０號十四樓之１","OBJECTID":627654},"geometry":{"x":170382.00999999978,"y":2545764.0399999991}},{"attributes":{"ID":627682,"DIS_CODE":0,"TOWNNAME":"北區","LI":"元寶里","LIN":"4鄰","STREET":"北園街","SECT":" ","MAREA":" ","LANE":" ","ALLEY":" ","HOUSE_NO":"４０號十四樓之２","E_COORD97":170382.01000000001,"N_COORD97":2545764.04,"ADDRESS":"北園街４０號十四樓之２","OBJECTID":627655},"geometry":{"x":170382.00999999978,"y":2545764.0399999991}},{"attributes":{"ID":627683,"DIS_CODE":0,"TOWNNAME":"北區","LI":"元寶里","LIN":"4鄰","STREET":"北園街","SECT":" ","MAREA":" ","LANE":" ","ALLEY":" ","HOUSE_NO":"４０號十四樓之３","E_COORD97":170382.01000000001,"N_COORD97":2545764.04,"ADDRESS":"北園街４０號十四樓之３","OBJECTID":627656},"geometry":{"x":170382.00999999978,"y":2545764.0399999991}},{"attributes":{"ID":627684,"DIS_CODE":0,"TOWNNAME":"北區","LI":"元寶里","LIN":"4鄰","STREET":"北園街","SECT":" ","MAREA":" ","LANE":" ","ALLEY":" ","HOUSE_NO":"４０號十四樓之５","E_COORD97":170382.01000000001,"N_COORD97":2545764.04,"ADDRESS":"北園街４０號十四樓之５","OBJECTID":627657},"geometry":{"x":170382.00999999978,"y":2545764.0399999991}},{"attributes":{"ID":627685,"DIS_CODE":0,"TOWNNAME":"北區","LI":"元寶里","LIN":"4鄰","STREET":"北園街","SECT":" ","MAREA":" ","LANE":" ","ALLEY":" ","HOUSE_NO":"４０號十四樓之６","E_COORD97":170382.01000000001,"N_COORD97":2545764.04,"ADDRESS":"北園街４０號十四樓之６","OBJECTID":627658},"geometry":{"x":170382.00999999978,"y":2545764.0399999991}},{"attributes":{"ID":627686,"DIS_CODE":0,"TOWNNAME":"北區","LI":"元寶里","LIN":"4鄰","STREET":"北園街","SECT":" ","MAREA":" ","LANE":" ","ALLEY":" ","HOUSE_NO":"４０號十四樓之７","E_COORD97":170382.01000000001,"N_COORD97":2545764.04,"ADDRESS":"北園街４０號十四樓之７","OBJECTID":627659},"geometry":{"x":170382.00999999978,"y":2545764.0399999991}},{"attributes":{"ID":627687,"DIS_CODE":0,"TOWNNAME":"北區","LI":"元寶里","LIN":"4鄰","STREET":"北園街","SECT":" ","MAREA":" ","LANE":" ","ALLEY":" ","HOUSE_NO":"４０號十四樓之８","E_COORD97":170382.01000000001,"N_COORD97":2545764.04,"ADDRESS":"北園街４０號十四樓之８","OBJECTID":627660},"geometry":{"x":170382.00999999978,"y":2545764.0399999991}},{"attributes":{"ID":627688,"DIS_CODE":0,"TOWNNAME":"北區","LI":"元寶里","LIN":"4鄰","STREET":"北園街","SECT":" ","MAREA":" ","LANE":" ","ALLEY":" ","HOUSE_NO":"４０號十四樓之９","E_COORD97":170382.01000000001,"N_COORD97":2545764.04,"ADDRESS":"北園街４０號十四樓之９","OBJECTID":627661},"geometry":{"x":170382.00999999978,"y":2545764.0399999991}},{"attributes":{"ID":627689,"DIS_CODE":0,"TOWNNAME":"北區","LI":"元寶里","LIN":"4鄰","STREET":"北園街","SECT":" ","MAREA":" ","LANE":" ","ALLEY":" ","HOUSE_NO":"４０號十樓之１","E_COORD97":170382.01000000001,"N_COORD97":2545764.04,"ADDRESS":"北園街４０號十樓之１","OBJECTID":627662},"geometry":{"x":170382.00999999978,"y":2545764.0399999991}},{"attributes":{"ID":627690,"DIS_CODE":0,"TOWNNAME":"北區","LI":"元寶里","LIN":"4鄰","STREET":"北園街","SECT":" ","MAREA":" ","LANE":" ","ALLEY":" ","HOUSE_NO":"４０號十樓之２","E_COORD97":170382.01000000001,"N_COORD97":2545764.04,"ADDRESS":"北園街４０號十樓之２","OBJECTID":627663},"geometry":{"x":170382.00999999978,"y":2545764.0399999991}},{"attributes":{"ID":627691,"DIS_CODE":0,"TOWNNAME":"北區","LI":"元寶里","LIN":"4鄰","STREET":"北園街","SECT":" ","MAREA":" ","LANE":" ","ALLEY":" ","HOUSE_NO":"４０號十樓之３","E_COORD97":170382.01000000001,"N_COORD97":2545764.04,"ADDRESS":"北園街４０號十樓之３","OBJECTID":627664},"geometry":{"x":170382.00999999978,"y":2545764.0399999991}},{"attributes":{"ID":627692,"DIS_CODE":0,"TOWNNAME":"北區","LI":"元寶里","LIN":"4鄰","STREET":"北園街","SECT":" ","MAREA":" ","LANE":" ","ALLEY":" ","HOUSE_NO":"４０號十樓之５","E_COORD97":170382.01000000001,"N_COORD97":2545764.04,"ADDRESS":"北園街４０號十樓之５","OBJECTID":627665},"geometry":{"x":170382.00999999978,"y":2545764.0399999991}},{"attributes":{"ID":627693,"DIS_CODE":0,"TOWNNAME":"北區","LI":"元寶里","LIN":"4鄰","STREET":"北園街","SECT":" ","MAREA":" ","LANE":" ","ALLEY":" ","HOUSE_NO":"４０號十樓之６","E_COORD97":170382.01000000001,"N_COORD97":2545764.04,"ADDRESS":"北園街４０號十樓之６","OBJECTID":627666},"geometry":{"x":170382.00999999978,"y":2545764.0399999991}},{"attributes":{"ID":627694,"DIS_CODE":0,"TOWNNAME":"北區","LI":"元寶里","LIN":"4鄰","STREET":"北園街","SECT":" ","MAREA":" ","LANE":" ","ALLEY":" ","HOUSE_NO":"４０號十樓之７","E_COORD97":170382.01000000001,"N_COORD97":2545764.04,"ADDRESS":"北園街４０號十樓之７","OBJECTID":627667},"geometry":{"x":170382.00999999978,"y":2545764.0399999991}},{"attributes":{"ID":627695,"DIS_CODE":0,"TOWNNAME":"北區","LI":"元寶里","LIN":"4鄰","STREET":"北園街","SECT":" ","MAREA":" ","LANE":" ","ALLEY":" ","HOUSE_NO":"４０號十樓之８","E_COORD97":170382.01000000001,"N_COORD97":2545764.04,"ADDRESS":"北園街４０號十樓之８","OBJECTID":627668},"geometry":{"x":170382.00999999978,"y":2545764.0399999991}},{"attributes":{"ID":627696,"DIS_CODE":0,"TOWNNAME":"北區","LI":"元寶里","LIN":"4鄰","STREET":"北園街","SECT":" ","MAREA":" ","LANE":" ","ALLEY":" ","HOUSE_NO":"４０號十樓之９","E_COORD97":170382.01000000001,"N_COORD97":2545764.04,"ADDRESS":"北園街４０號十樓之９","OBJECTID":627669},"geometry":{"x":170382.00999999978,"y":2545764.0399999991}},{"attributes":{"ID":627697,"DIS_CODE":0,"TOWNNAME":"北區","LI":"元寶里","LIN":"4鄰","STREET":"北園街","SECT":" ","MAREA":" ","LANE":" ","ALLEY":" ","HOUSE_NO":"４０號三樓之１","E_COORD97":170382.01000000001,"N_COORD97":2545764.04,"ADDRESS":"北園街４０號三樓之１","OBJECTID":627670},"geometry":{"x":170382.00999999978,"y":2545764.0399999991}},{"attributes":{"ID":627698,"DIS_CODE":0,"TOWNNAME":"北區","LI":"元寶里","LIN":"4鄰","STREET":"北園街","SECT":" ","MAREA":" ","LANE":" ","ALLEY":" ","HOUSE_NO":"４０號三樓之２","E_COORD97":170382.01000000001,"N_COORD97":2545764.04,"ADDRESS":"北園街４０號三樓之２","OBJECTID":627671},"geometry":{"x":170382.00999999978,"y":2545764.0399999991}},{"attributes":{"ID":627699,"DIS_CODE":0,"TOWNNAME":"北區","LI":"元寶里","LIN":"4鄰","STREET":"北園街","SECT":" ","MAREA":" ","LANE":" ","ALLEY":" ","HOUSE_NO":"４０號三樓之３","E_COORD97":170382.01000000001,"N_COORD97":2545764.04,"ADDRESS":"北園街４０號三樓之３","OBJECTID":627672},"geometry":{"x":170382.00999999978,"y":2545764.0399999991}},{"attributes":{"ID":627700,"DIS_CODE":0,"TOWNNAME":"北區","LI":"元寶里","LIN":"4鄰","STREET":"北園街","SECT":" ","MAREA":" ","LANE":" ","ALLEY":" ","HOUSE_NO":"４０號三樓之５","E_COORD97":170382.01000000001,"N_COORD97":2545764.04,"ADDRESS":"北園街４０號三樓之５","OBJECTID":627673},"geometry":{"x":170382.00999999978,"y":2545764.0399999991}},{"attributes":{"ID":627701,"DIS_CODE":0,"TOWNNAME":"北區","LI":"元寶里","LIN":"4鄰","STREET":"北園街","SECT":" ","MAREA":" ","LANE":" ","ALLEY":" ","HOUSE_NO":"４０號五樓之８","E_COORD97":170382.01000000001,"N_COORD97":2545764.04,"ADDRESS":"北園街４０號五樓之８","OBJECTID":627674},"geometry":{"x":170382.00999999978,"y":2545764.0399999991}},{"attributes":{"ID":627702,"DIS_CODE":0,"TOWNNAME":"北區","LI":"元寶里","LIN":"4鄰","STREET":"北園街","SECT":" ","MAREA":" ","LANE":" ","ALLEY":" ","HOUSE_NO":"４０號五樓之９","E_COORD97":170382.01000000001,"N_COORD97":2545764.04,"ADDRESS":"北園街４０號五樓之９","OBJECTID":627675},"geometry":{"x":170382.00999999978,"y":2545764.0399999991}},{"attributes":{"ID":627703,"DIS_CODE":0,"TOWNNAME":"北區","LI":"元寶里","LIN":"4鄰","STREET":"北園街","SECT":" ","MAREA":" ","LANE":" ","ALLEY":" ","HOUSE_NO":"４０號六樓之１","E_COORD97":170382.01000000001,"N_COORD97":2545764.04,"ADDRESS":"北園街４０號六樓之１","OBJECTID":627676},"geometry":{"x":170382.00999999978,"y":2545764.0399999991}},{"attributes":{"ID":627704,"DIS_CODE":0,"TOWNNAME":"北區","LI":"元寶里","LIN":"4鄰","STREET":"北園街","SECT":" ","MAREA":" ","LANE":" ","ALLEY":" ","HOUSE_NO":"４０號六樓之２","E_COORD97":170382.01000000001,"N_COORD97":2545764.04,"ADDRESS":"北園街４０號六樓之２","OBJECTID":627677},"geometry":{"x":170382.00999999978,"y":2545764.0399999991}},{"attributes":{"ID":627705,"DIS_CODE":0,"TOWNNAME":"北區","LI":"元寶里","LIN":"4鄰","STREET":"北園街","SECT":" ","MAREA":" ","LANE":" ","ALLEY":" ","HOUSE_NO":"４０號六樓之３","E_COORD97":170382.01000000001,"N_COORD97":2545764.04,"ADDRESS":"北園街４０號六樓之３","OBJECTID":627678},"geometry":{"x":170382.00999999978,"y":2545764.0399999991}},{"attributes":{"ID":627706,"DIS_CODE":0,"TOWNNAME":"北區","LI":"元寶里","LIN":"4鄰","STREET":"北園街","SECT":" ","MAREA":" ","LANE":" ","ALLEY":" ","HOUSE_NO":"４０號六樓之５","E_COORD97":170382.01000000001,"N_COORD97":2545764.04,"ADDRESS":"北園街４０號六樓之５","OBJECTID":627679},"geometry":{"x":170382.00999999978,"y":2545764.0399999991}},{"attributes":{"ID":627707,"DIS_CODE":0,"TOWNNAME":"北區","LI":"元寶里","LIN":"4鄰","STREET":"北園街","SECT":" ","MAREA":" ","LANE":" ","ALLEY":" ","HOUSE_NO":"４０號六樓之６","E_COORD97":170382.01000000001,"N_COORD97":2545764.04,"ADDRESS":"北園街４０號六樓之６","OBJECTID":627680},"geometry":{"x":170382.00999999978,"y":2545764.0399999991}},{"attributes":{"ID":627708,"DIS_CODE":0,"TOWNNAME":"北區","LI":"元寶里","LIN":"4鄰","STREET":"北園街","SECT":" ","MAREA":" ","LANE":" ","ALLEY":" ","HOUSE_NO":"４０號六樓之７","E_COORD97":170382.01000000001,"N_COORD97":2545764.04,"ADDRESS":"北園街４０號六樓之７","OBJECTID":627681},"geometry":{"x":170382.00999999978,"y":2545764.0399999991}},{"attributes":{"ID":627709,"DIS_CODE":0,"TOWNNAME":"北區","LI":"元寶里","LIN":"4鄰","STREET":"北園街","SECT":" ","MAREA":" ","LANE":" ","ALLEY":" ","HOUSE_NO":"４０號六樓之８","E_COORD97":170382.01000000001,"N_COORD97":2545764.04,"ADDRESS":"北園街４０號六樓之８","OBJECTID":627682},"geometry":{"x":170382.00999999978,"y":2545764.0399999991}},{"attributes":{"ID":627710,"DIS_CODE":0,"TOWNNAME":"北區","LI":"元寶里","LIN":"4鄰","STREET":"北園街","SECT":" ","MAREA":" ","LANE":" ","ALLEY":" ","HOUSE_NO":"４０號六樓之９","E_COORD97":170382.01000000001,"N_COORD97":2545764.04,"ADDRESS":"北園街４０號六樓之９","OBJECTID":627683},"geometry":{"x":170382.00999999978,"y":2545764.0399999991}},{"attributes":{"ID":627711,"DIS_CODE":0,"TOWNNAME":"北區","LI":"元寶里","LIN":"4鄰","STREET":"北園街","SECT":" ","MAREA":" ","LANE":" ","ALLEY":" ","HOUSE_NO":"４０號四樓之１","E_COORD97":170382.01000000001,"N_COORD97":2545764.04,"ADDRESS":"北園街４０號四樓之１","OBJECTID":627684},"geometry":{"x":170382.00999999978,"y":2545764.0399999991}},{"attributes":{"ID":627712,"DIS_CODE":0,"TOWNNAME":"永康區","LI":"勝利里","LIN":"18鄰","STREET":"勝學路","SECT":" ","MAREA":" ","LANE":" ","ALLEY":" ","HOUSE_NO":"１４７號","E_COORD97":171165.29000000001,"N_COORD97":2545019.25,"ADDRESS":"勝學路１４７號","OBJECTID":627685},"geometry":{"x":171165.29000000004,"y":2545019.2500000037}},{"attributes":{"ID":627713,"DIS_CODE":0,"TOWNNAME":"永康區","LI":"勝利里","LIN":"20鄰","STREET":"勝學路","SECT":" ","MAREA":" ","LANE":" ","ALLEY":" ","HOUSE_NO":"２２３號地下一層","E_COORD97":171184.95000000001,"N_COORD97":2545228,"ADDRESS":"勝學路２２３號地下一層","OBJECTID":627686},"geometry":{"x":171184.95000000019,"y":2545228.0000000037}},{"attributes":{"ID":627714,"DIS_CODE":0,"TOWNNAME":"北區","LI":"元寶里","LIN":"4鄰","STREET":"北園街","SECT":" ","MAREA":" ","LANE":" ","ALLEY":" ","HOUSE_NO":"４０號四樓之２","E_COORD97":170382.01000000001,"N_COORD97":2545764.04,"ADDRESS":"北園街４０號四樓之２","OBJECTID":627687},"geometry":{"x":170382.00999999978,"y":2545764.0399999991}},{"attributes":{"ID":627715,"DIS_CODE":0,"TOWNNAME":"北區","LI":"元寶里","LIN":"4鄰","STREET":"北園街","SECT":" ","MAREA":" ","LANE":" ","ALLEY":" ","HOUSE_NO":"４０號四樓之３","E_COORD97":170382.01000000001,"N_COORD97":2545764.04,"ADDRESS":"北園街４０號四樓之３","OBJECTID":627688},"geometry":{"x":170382.00999999978,"y":2545764.0399999991}},{"attributes":{"ID":627716,"DIS_CODE":0,"TOWNNAME":"北區","LI":"元寶里","LIN":"4鄰","STREET":"北園街","SECT":" ","MAREA":" ","LANE":" ","ALLEY":" ","HOUSE_NO":"４０號四樓之５","E_COORD97":170382.01000000001,"N_COORD97":2545764.04,"ADDRESS":"北園街４０號四樓之５","OBJECTID":627689},"geometry":{"x":170382.00999999978,"y":2545764.0399999991}},{"attributes":{"ID":627717,"DIS_CODE":0,"TOWNNAME":"北區","LI":"元寶里","LIN":"4鄰","STREET":"北園街","SECT":" ","MAREA":" ","LANE":" ","ALLEY":" ","HOUSE_NO":"４０號四樓之６","E_COORD97":170382.01000000001,"N_COORD97":2545764.04,"ADDRESS":"北園街４０號四樓之６","OBJECTID":627690},"geometry":{"x":170382.00999999978,"y":2545764.0399999991}},{"attributes":{"ID":627718,"DIS_CODE":0,"TOWNNAME":"北區","LI":"元寶里","LIN":"4鄰","STREET":"北園街","SECT":" ","MAREA":" ","LANE":" ","ALLEY":" ","HOUSE_NO":"４０號四樓之７","E_COORD97":170382.01000000001,"N_COORD97":2545764.04,"ADDRESS":"北園街４０號四樓之７","OBJECTID":627691},"geometry":{"x":170382.00999999978,"y":2545764.0399999991}},{"attributes":{"ID":627719,"DIS_CODE":0,"TOWNNAME":"北區","LI":"元寶里","LIN":"4鄰","STREET":"北園街","SECT":" ","MAREA":" ","LANE":" ","ALLEY":" ","HOUSE_NO":"４０號四樓之８","E_COORD97":170382.01000000001,"N_COORD97":2545764.04,"ADDRESS":"北園街４０號四樓之８","OBJECTID":627692},"geometry":{"x":170382.00999999978,"y":2545764.0399999991}},{"attributes":{"ID":627720,"DIS_CODE":0,"TOWNNAME":"北區","LI":"元寶里","LIN":"4鄰","STREET":"北園街","SECT":" ","MAREA":" ","LANE":" ","ALLEY":" ","HOUSE_NO":"４０號四樓之９","E_COORD97":170382.01000000001,"N_COORD97":2545764.04,"ADDRESS":"北園街４０號四樓之９","OBJECTID":627693},"geometry":{"x":170382.00999999978,"y":2545764.0399999991}},{"attributes":{"ID":627721,"DIS_CODE":0,"TOWNNAME":"安平區","LI":"平通里","LIN":"4鄰","STREET":"慶平路","SECT":" ","MAREA":" ","LANE":" ","ALLEY":" ","HOUSE_NO":"５３９號七樓之８","E_COORD97":165071.10999999999,"N_COORD97":2544210.6600000001,"ADDRESS":"慶平路５３９號七樓之８","OBJECTID":627694},"geometry":{"x":165071.11000000034,"y":2544210.660000002}},{"attributes":{"ID":627722,"DIS_CODE":0,"TOWNNAME":"安平區","LI":"平通里","LIN":"4鄰","STREET":"慶平路","SECT":" ","MAREA":" ","LANE":" ","ALLEY":" ","HOUSE_NO":"５３９號七樓之２１","E_COORD97":165071.10999999999,"N_COORD97":2544210.6600000001,"ADDRESS":"慶平路５３９號七樓之２１","OBJECTID":627695},"geometry":{"x":165071.11000000034,"y":2544210.660000002}},{"attributes":{"ID":627723,"DIS_CODE":0,"TOWNNAME":"安平區","LI":"平通里","LIN":"4鄰","STREET":"慶平路","SECT":" ","MAREA":" ","LANE":" ","ALLEY":" ","HOUSE_NO":"５３９號七樓之２２","E_COORD97":165071.10999999999,"N_COORD97":2544210.6600000001,"ADDRESS":"慶平路５３９號七樓之２２","OBJECTID":627696},"geometry":{"x":165071.11000000034,"y":2544210.660000002}},{"attributes":{"ID":627724,"DIS_CODE":0,"TOWNNAME":"安平區","LI":"平通里","LIN":"4鄰","STREET":"慶平路","SECT":" ","MAREA":" ","LANE":" ","ALLEY":" ","HOUSE_NO":"５３９號七樓之２３","E_COORD97":165071.10999999999,"N_COORD97":2544210.6600000001,"ADDRESS":"慶平路５３９號七樓之２３","OBJECTID":627697},"geometry":{"x":165071.11000000034,"y":2544210.660000002}},{"attributes":{"ID":627725,"DIS_CODE":0,"TOWNNAME":"安平區","LI":"平通里","LIN":"4鄰","STREET":"慶平路","SECT":" ","MAREA":" ","LANE":" ","ALLEY":" ","HOUSE_NO":"５３９號七樓之２４","E_COORD97":165071.10999999999,"N_COORD97":2544210.6600000001,"ADDRESS":"慶平路５３９號七樓之２４","OBJECTID":627698},"geometry":{"x":165071.11000000034,"y":2544210.660000002}},{"attributes":{"ID":627726,"DIS_CODE":0,"TOWNNAME":"安平區","LI":"平通里","LIN":"4鄰","STREET":"慶平路","SECT":" ","MAREA":" ","LANE":" ","ALLEY":" ","HOUSE_NO":"５３９號七樓之３","E_COORD97":165071.10999999999,"N_COORD97":2544210.6600000001,"ADDRESS":"慶平路５３９號七樓之３","OBJECTID":627699},"geometry":{"x":165071.11000000034,"y":2544210.660000002}},{"attributes":{"ID":627727,"DIS_CODE":0,"TOWNNAME":"安平區","LI":"平通里","LIN":"4鄰","STREET":"慶平路","SECT":" ","MAREA":" ","LANE":" ","ALLEY":" ","HOUSE_NO":"５３９號七樓之５","E_COORD97":165071.10999999999,"N_COORD97":2544210.6600000001,"ADDRESS":"慶平路５３９號七樓之５","OBJECTID":627700},"geometry":{"x":165071.11000000034,"y":2544210.660000002}},{"attributes":{"ID":627728,"DIS_CODE":0,"TOWNNAME":"安平區","LI":"平通里","LIN":"4鄰","STREET":"慶平路","SECT":" ","MAREA":" ","LANE":" ","ALLEY":" ","HOUSE_NO":"５３９號七樓之６","E_COORD97":165071.10999999999,"N_COORD97":2544210.6600000001,"ADDRESS":"慶平路５３９號七樓之６","OBJECTID":627701},"geometry":{"x":165071.11000000034,"y":2544210.660000002}},{"attributes":{"ID":627729,"DIS_CODE":0,"TOWNNAME":"安平區","LI":"平通里","LIN":"4鄰","STREET":"慶平路","SECT":" ","MAREA":" ","LANE":" ","ALLEY":" ","HOUSE_NO":"５３９號七樓之７","E_COORD97":165071.10999999999,"N_COORD97":2544210.6600000001,"ADDRESS":"慶平路５３９號七樓之７","OBJECTID":627702},"geometry":{"x":165071.11000000034,"y":2544210.660000002}},{"attributes":{"ID":627730,"DIS_CODE":0,"TOWNNAME":"安平區","LI":"平通里","LIN":"4鄰","STREET":"慶平路","SECT":" ","MAREA":" ","LANE":" ","ALLEY":" ","HOUSE_NO":"５３９號七樓之９","E_COORD97":165071.10999999999,"N_COORD97":2544210.6600000001,"ADDRESS":"慶平路５３９號七樓之９","OBJECTID":627703},"geometry":{"x":165071.11000000034,"y":2544210.660000002}},{"attributes":{"ID":627731,"DIS_CODE":0,"TOWNNAME":"安平區","LI":"平通里","LIN":"4鄰","STREET":"慶平路","SECT":" ","MAREA":" ","LANE":" ","ALLEY":" ","HOUSE_NO":"５３９號九樓之１","E_COORD97":165071.10999999999,"N_COORD97":2544210.6600000001,"ADDRESS":"慶平路５３９號九樓之１","OBJECTID":627704},"geometry":{"x":165071.11000000034,"y":2544210.660000002}},{"attributes":{"ID":627732,"DIS_CODE":0,"TOWNNAME":"安平區","LI":"平通里","LIN":"4鄰","STREET":"慶平路","SECT":" ","MAREA":" ","LANE":" ","ALLEY":" ","HOUSE_NO":"５３９號九樓之１０","E_COORD97":165071.10999999999,"N_COORD97":2544210.6600000001,"ADDRESS":"慶平路５３９號九樓之１０","OBJECTID":627705},"geometry":{"x":165071.11000000034,"y":2544210.660000002}},{"attributes":{"ID":627733,"DIS_CODE":0,"TOWNNAME":"安平區","LI":"平通里","LIN":"4鄰","STREET":"慶平路","SECT":" ","MAREA":" ","LANE":" ","ALLEY":" ","HOUSE_NO":"５３９號九樓之１１","E_COORD97":165071.10999999999,"N_COORD97":2544210.6600000001,"ADDRESS":"慶平路５３９號九樓之１１","OBJECTID":627706},"geometry":{"x":165071.11000000034,"y":2544210.660000002}},{"attributes":{"ID":627734,"DIS_CODE":0,"TOWNNAME":"安平區","LI":"平通里","LIN":"4鄰","STREET":"慶平路","SECT":" ","MAREA":" ","LANE":" ","ALLEY":" ","HOUSE_NO":"５３９號九樓之１２","E_COORD97":165071.10999999999,"N_COORD97":2544210.6600000001,"ADDRESS":"慶平路５３９號九樓之１２","OBJECTID":627707},"geometry":{"x":165071.11000000034,"y":2544210.660000002}},{"attributes":{"ID":627735,"DIS_CODE":0,"TOWNNAME":"安平區","LI":"平通里","LIN":"4鄰","STREET":"慶平路","SECT":" ","MAREA":" ","LANE":" ","ALLEY":" ","HOUSE_NO":"５３９號九樓之１３","E_COORD97":165071.10999999999,"N_COORD97":2544210.6600000001,"ADDRESS":"慶平路５３９號九樓之１３","OBJECTID":627708},"geometry":{"x":165071.11000000034,"y":2544210.660000002}},{"attributes":{"ID":627736,"DIS_CODE":0,"TOWNNAME":"安平區","LI":"平通里","LIN":"4鄰","STREET":"慶平路","SECT":" ","MAREA":" ","LANE":" ","ALLEY":" ","HOUSE_NO":"５３９號九樓之１４","E_COORD97":165071.10999999999,"N_COORD97":2544210.6600000001,"ADDRESS":"慶平路５３９號九樓之１４","OBJECTID":627709},"geometry":{"x":165071.11000000034,"y":2544210.660000002}},{"attributes":{"ID":627737,"DIS_CODE":0,"TOWNNAME":"安平區","LI":"平通里","LIN":"4鄰","STREET":"慶平路","SECT":" ","MAREA":" ","LANE":" ","ALLEY":" ","HOUSE_NO":"５３９號九樓之１５","E_COORD97":165071.10999999999,"N_COORD97":2544210.6600000001,"ADDRESS":"慶平路５３９號九樓之１５","OBJECTID":627710},"geometry":{"x":165071.11000000034,"y":2544210.660000002}},{"attributes":{"ID":627738,"DIS_CODE":0,"TOWNNAME":"安平區","LI":"平通里","LIN":"4鄰","STREET":"慶平路","SECT":" ","MAREA":" ","LANE":" ","ALLEY":" ","HOUSE_NO":"５３９號九樓之１６","E_COORD97":165071.10999999999,"N_COORD97":2544210.6600000001,"ADDRESS":"慶平路５３９號九樓之１６","OBJECTID":627711},"geometry":{"x":165071.11000000034,"y":2544210.660000002}},{"attributes":{"ID":627739,"DIS_CODE":0,"TOWNNAME":"安平區","LI":"平通里","LIN":"4鄰","STREET":"慶平路","SECT":" ","MAREA":" ","LANE":" ","ALLEY":" ","HOUSE_NO":"５３９號九樓之１７","E_COORD97":165071.10999999999,"N_COORD97":2544210.6600000001,"ADDRESS":"慶平路５３９號九樓之１７","OBJECTID":627712},"geometry":{"x":165071.11000000034,"y":2544210.660000002}},{"attributes":{"ID":627740,"DIS_CODE":0,"TOWNNAME":"安平區","LI":"平通里","LIN":"4鄰","STREET":"慶平路","SECT":" ","MAREA":" ","LANE":" ","ALLEY":" ","HOUSE_NO":"５３９號九樓之１８","E_COORD97":165071.10999999999,"N_COORD97":2544210.6600000001,"ADDRESS":"慶平路５３９號九樓之１８","OBJECTID":627713},"geometry":{"x":165071.11000000034,"y":2544210.660000002}},{"attributes":{"ID":627741,"DIS_CODE":0,"TOWNNAME":"安平區","LI":"平通里","LIN":"4鄰","STREET":"慶平路","SECT":" ","MAREA":" ","LANE":" ","ALLEY":" ","HOUSE_NO":"５３９號九樓之１９","E_COORD97":165071.10999999999,"N_COORD97":2544210.6600000001,"ADDRESS":"慶平路５３９號九樓之１９","OBJECTID":627714},"geometry":{"x":165071.11000000034,"y":2544210.660000002}},{"attributes":{"ID":627742,"DIS_CODE":0,"TOWNNAME":"永康區","LI":"勝利里","LIN":"18鄰","STREET":"勝學路","SECT":" ","MAREA":" ","LANE":" ","ALLEY":" ","HOUSE_NO":"１５０號","E_COORD97":171188.95999999999,"N_COORD97":2545030.75,"ADDRESS":"勝學路１５０號","OBJECTID":627715},"geometry":{"x":171188.96000000089,"y":2545030.7500000019}},{"attributes":{"ID":627743,"DIS_CODE":0,"TOWNNAME":"安平區","LI":"平通里","LIN":"4鄰","STREET":"慶平路","SECT":" ","MAREA":" ","LANE":" ","ALLEY":" ","HOUSE_NO":"５３９號九樓之２","E_COORD97":165071.10999999999,"N_COORD97":2544210.6600000001,"ADDRESS":"慶平路５３９號九樓之２","OBJECTID":627716},"geometry":{"x":165071.11000000034,"y":2544210.660000002}},{"attributes":{"ID":627744,"DIS_CODE":0,"TOWNNAME":"安平區","LI":"平通里","LIN":"4鄰","STREET":"慶平路","SECT":" ","MAREA":" ","LANE":" ","ALLEY":" ","HOUSE_NO":"５３９號九樓之２０","E_COORD97":165071.10999999999,"N_COORD97":2544210.6600000001,"ADDRESS":"慶平路５３９號九樓之２０","OBJECTID":627717},"geometry":{"x":165071.11000000034,"y":2544210.660000002}},{"attributes":{"ID":627745,"DIS_CODE":0,"TOWNNAME":"安平區","LI":"平通里","LIN":"4鄰","STREET":"慶平路","SECT":" ","MAREA":" ","LANE":" ","ALLEY":" ","HOUSE_NO":"５３９號九樓之２１","E_COORD97":165071.10999999999,"N_COORD97":2544210.6600000001,"ADDRESS":"慶平路５３９號九樓之２１","OBJECTID":627718},"geometry":{"x":165071.11000000034,"y":2544210.660000002}},{"attributes":{"ID":627746,"DIS_CODE":0,"TOWNNAME":"安平區","LI":"平通里","LIN":"4鄰","STREET":"慶平路","SECT":" ","MAREA":" ","LANE":" ","ALLEY":" ","HOUSE_NO":"５３９號九樓之２２","E_COORD97":165071.10999999999,"N_COORD97":2544210.6600000001,"ADDRESS":"慶平路５３９號九樓之２２","OBJECTID":627719},"geometry":{"x":165071.11000000034,"y":2544210.660000002}},{"attributes":{"ID":627747,"DIS_CODE":0,"TOWNNAME":"安平區","LI":"平通里","LIN":"4鄰","STREET":"慶平路","SECT":" ","MAREA":" ","LANE":" ","ALLEY":" ","HOUSE_NO":"５３９號九樓之２３","E_COORD97":165071.10999999999,"N_COORD97":2544210.6600000001,"ADDRESS":"慶平路５３９號九樓之２３","OBJECTID":627720},"geometry":{"x":165071.11000000034,"y":2544210.660000002}},{"attributes":{"ID":627748,"DIS_CODE":0,"TOWNNAME":"安平區","LI":"平通里","LIN":"4鄰","STREET":"慶平路","SECT":" ","MAREA":" ","LANE":" ","ALLEY":" ","HOUSE_NO":"５３９號九樓之２４","E_COORD97":165071.10999999999,"N_COORD97":2544210.6600000001,"ADDRESS":"慶平路５３９號九樓之２４","OBJECTID":627721},"geometry":{"x":165071.11000000034,"y":2544210.660000002}},{"attributes":{"ID":627749,"DIS_CODE":0,"TOWNNAME":"安平區","LI":"平通里","LIN":"4鄰","STREET":"慶平路","SECT":" ","MAREA":" ","LANE":" ","ALLEY":" ","HOUSE_NO":"５３９號九樓之３","E_COORD97":165071.10999999999,"N_COORD97":2544210.6600000001,"ADDRESS":"慶平路５３９號九樓之３","OBJECTID":627722},"geometry":{"x":165071.11000000034,"y":2544210.660000002}},{"attributes":{"ID":627750,"DIS_CODE":0,"TOWNNAME":"安平區","LI":"平通里","LIN":"4鄰","STREET":"慶平路","SECT":" ","MAREA":" ","LANE":" ","ALLEY":" ","HOUSE_NO":"５３９號九樓之５","E_COORD97":165071.10999999999,"N_COORD97":2544210.6600000001,"ADDRESS":"慶平路５３９號九樓之５","OBJECTID":627723},"geometry":{"x":165071.11000000034,"y":2544210.660000002}},{"attributes":{"ID":627751,"DIS_CODE":0,"TOWNNAME":"安平區","LI":"平通里","LIN":"4鄰","STREET":"慶平路","SECT":" ","MAREA":" ","LANE":" ","ALLEY":" ","HOUSE_NO":"５３９號九樓之６","E_COORD97":165071.10999999999,"N_COORD97":2544210.6600000001,"ADDRESS":"慶平路５３９號九樓之６","OBJECTID":627724},"geometry":{"x":165071.11000000034,"y":2544210.660000002}},{"attributes":{"ID":627752,"DIS_CODE":0,"TOWNNAME":"安平區","LI":"平通里","LIN":"4鄰","STREET":"慶平路","SECT":" ","MAREA":" ","LANE":" ","ALLEY":" ","HOUSE_NO":"５３９號九樓之７","E_COORD97":165071.10999999999,"N_COORD97":2544210.6600000001,"ADDRESS":"慶平路５３９號九樓之７","OBJECTID":627725},"geometry":{"x":165071.11000000034,"y":2544210.660000002}},{"attributes":{"ID":627753,"DIS_CODE":0,"TOWNNAME":"安平區","LI":"平通里","LIN":"4鄰","STREET":"慶平路","SECT":" ","MAREA":" ","LANE":" ","ALLEY":" ","HOUSE_NO":"５３９號九樓之８","E_COORD97":165071.10999999999,"N_COORD97":2544210.6600000001,"ADDRESS":"慶平路５３９號九樓之８","OBJECTID":627726},"geometry":{"x":165071.11000000034,"y":2544210.660000002}},{"attributes":{"ID":627754,"DIS_CODE":0,"TOWNNAME":"安平區","LI":"平通里","LIN":"4鄰","STREET":"慶平路","SECT":" ","MAREA":" ","LANE":" ","ALLEY":" ","HOUSE_NO":"５３９號九樓之９","E_COORD97":165071.10999999999,"N_COORD97":2544210.6600000001,"ADDRESS":"慶平路５３９號九樓之９","OBJECTID":627727},"geometry":{"x":165071.11000000034,"y":2544210.660000002}},{"attributes":{"ID":627755,"DIS_CODE":0,"TOWNNAME":"安平區","LI":"平通里","LIN":"4鄰","STREET":"慶平路","SECT":" ","MAREA":" ","LANE":" ","ALLEY":" ","HOUSE_NO":"５３９號二十一樓之１","E_COORD97":165071.10999999999,"N_COORD97":2544210.6600000001,"ADDRESS":"慶平路５３９號二十一樓之１","OBJECTID":627728},"geometry":{"x":165071.11000000034,"y":2544210.660000002}},{"attributes":{"ID":627756,"DIS_CODE":0,"TOWNNAME":"安平區","LI":"平通里","LIN":"4鄰","STREET":"慶平路","SECT":" ","MAREA":" ","LANE":" ","ALLEY":" ","HOUSE_NO":"５３９號二十一樓之１","E_COORD97":165071.10999999999,"N_COORD97":2544210.6600000001,"ADDRESS":"慶平路５３９號二十一樓之１０","OBJECTID":627729},"geometry":{"x":165071.11000000034,"y":2544210.660000002}},{"attributes":{"ID":627757,"DIS_CODE":0,"TOWNNAME":"安平區","LI":"平通里","LIN":"4鄰","STREET":"慶平路","SECT":" ","MAREA":" ","LANE":" ","ALLEY":" ","HOUSE_NO":"５３９號二十一樓之１","E_COORD97":165071.10999999999,"N_COORD97":2544210.6600000001,"ADDRESS":"慶平路５３９號二十一樓之１１","OBJECTID":627730},"geometry":{"x":165071.11000000034,"y":2544210.660000002}},{"attributes":{"ID":627758,"DIS_CODE":0,"TOWNNAME":"安平區","LI":"平通里","LIN":"4鄰","STREET":"慶平路","SECT":" ","MAREA":" ","LANE":" ","ALLEY":" ","HOUSE_NO":"５３９號二十一樓之１","E_COORD97":165071.10999999999,"N_COORD97":2544210.6600000001,"ADDRESS":"慶平路５３９號二十一樓之１２","OBJECTID":627731},"geometry":{"x":165071.11000000034,"y":2544210.660000002}},{"attributes":{"ID":627759,"DIS_CODE":0,"TOWNNAME":"安平區","LI":"平通里","LIN":"4鄰","STREET":"慶平路","SECT":" ","MAREA":" ","LANE":" ","ALLEY":" ","HOUSE_NO":"５３９號二十一樓之１","E_COORD97":165071.10999999999,"N_COORD97":2544210.6600000001,"ADDRESS":"慶平路５３９號二十一樓之１３","OBJECTID":627732},"geometry":{"x":165071.11000000034,"y":2544210.660000002}},{"attributes":{"ID":627760,"DIS_CODE":0,"TOWNNAME":"安平區","LI":"平通里","LIN":"4鄰","STREET":"慶平路","SECT":" ","MAREA":" ","LANE":" ","ALLEY":" ","HOUSE_NO":"５３９號二十一樓之１","E_COORD97":165071.10999999999,"N_COORD97":2544210.6600000001,"ADDRESS":"慶平路５３９號二十一樓之１４","OBJECTID":627733},"geometry":{"x":165071.11000000034,"y":2544210.660000002}},{"attributes":{"ID":627761,"DIS_CODE":0,"TOWNNAME":"安平區","LI":"平通里","LIN":"4鄰","STREET":"慶平路","SECT":" ","MAREA":" ","LANE":" ","ALLEY":" ","HOUSE_NO":"５３９號二十一樓之１","E_COORD97":165071.10999999999,"N_COORD97":2544210.6600000001,"ADDRESS":"慶平路５３９號二十一樓之１５","OBJECTID":627734},"geometry":{"x":165071.11000000034,"y":2544210.660000002}},{"attributes":{"ID":627762,"DIS_CODE":0,"TOWNNAME":"安平區","LI":"平通里","LIN":"4鄰","STREET":"慶平路","SECT":" ","MAREA":" ","LANE":" ","ALLEY":" ","HOUSE_NO":"５３９號二十一樓之１","E_COORD97":165071.10999999999,"N_COORD97":2544210.6600000001,"ADDRESS":"慶平路５３９號二十一樓之１６","OBJECTID":627735},"geometry":{"x":165071.11000000034,"y":2544210.660000002}},{"attributes":{"ID":627763,"DIS_CODE":0,"TOWNNAME":"安平區","LI":"平通里","LIN":"4鄰","STREET":"慶平路","SECT":" ","MAREA":" ","LANE":" ","ALLEY":" ","HOUSE_NO":"５３９號二十一樓之１","E_COORD97":165071.10999999999,"N_COORD97":2544210.6600000001,"ADDRESS":"慶平路５３９號二十一樓之１７","OBJECTID":627736},"geometry":{"x":165071.11000000034,"y":2544210.660000002}},{"attributes":{"ID":627764,"DIS_CODE":0,"TOWNNAME":"安平區","LI":"平通里","LIN":"4鄰","STREET":"慶平路","SECT":" ","MAREA":" ","LANE":" ","ALLEY":" ","HOUSE_NO":"５３９號二十一樓之１","E_COORD97":165071.10999999999,"N_COORD97":2544210.6600000001,"ADDRESS":"慶平路５３９號二十一樓之１８","OBJECTID":627737},"geometry":{"x":165071.11000000034,"y":2544210.660000002}},{"attributes":{"ID":627765,"DIS_CODE":0,"TOWNNAME":"安平區","LI":"平通里","LIN":"4鄰","STREET":"慶平路","SECT":" ","MAREA":" ","LANE":" ","ALLEY":" ","HOUSE_NO":"５３９號二十一樓之１","E_COORD97":165071.10999999999,"N_COORD97":2544210.6600000001,"ADDRESS":"慶平路５３９號二十一樓之１９","OBJECTID":627738},"geometry":{"x":165071.11000000034,"y":2544210.660000002}},{"attributes":{"ID":627766,"DIS_CODE":0,"TOWNNAME":"安平區","LI":"平通里","LIN":"4鄰","STREET":"慶平路","SECT":" ","MAREA":" ","LANE":" ","ALLEY":" ","HOUSE_NO":"５３９號二十一樓之２","E_COORD97":165071.10999999999,"N_COORD97":2544210.6600000001,"ADDRESS":"慶平路５３９號二十一樓之２","OBJECTID":627739},"geometry":{"x":165071.11000000034,"y":2544210.660000002}},{"attributes":{"ID":627767,"DIS_CODE":0,"TOWNNAME":"安平區","LI":"平通里","LIN":"4鄰","STREET":"慶平路","SECT":" ","MAREA":" ","LANE":" ","ALLEY":" ","HOUSE_NO":"５３９號二十一樓之２","E_COORD97":165071.10999999999,"N_COORD97":2544210.6600000001,"ADDRESS":"慶平路５３９號二十一樓之２０","OBJECTID":627740},"geometry":{"x":165071.11000000034,"y":2544210.660000002}},{"attributes":{"ID":627768,"DIS_CODE":0,"TOWNNAME":"安平區","LI":"平通里","LIN":"4鄰","STREET":"慶平路","SECT":" ","MAREA":" ","LANE":" ","ALLEY":" ","HOUSE_NO":"５３９號二十一樓之２","E_COORD97":165071.10999999999,"N_COORD97":2544210.6600000001,"ADDRESS":"慶平路５３９號二十一樓之２１","OBJECTID":627741},"geometry":{"x":165071.11000000034,"y":2544210.660000002}},{"attributes":{"ID":627769,"DIS_CODE":0,"TOWNNAME":"安平區","LI":"平通里","LIN":"4鄰","STREET":"慶平路","SECT":" ","MAREA":" ","LANE":" ","ALLEY":" ","HOUSE_NO":"５３９號二十一樓之２","E_COORD97":165071.10999999999,"N_COORD97":2544210.6600000001,"ADDRESS":"慶平路５３９號二十一樓之２２","OBJECTID":627742},"geometry":{"x":165071.11000000034,"y":2544210.660000002}},{"attributes":{"ID":627770,"DIS_CODE":0,"TOWNNAME":"永康區","LI":"勝利里","LIN":"18鄰","STREET":"勝學路","SECT":" ","MAREA":" ","LANE":" ","ALLEY":" ","HOUSE_NO":"１７８號","E_COORD97":171193.69,"N_COORD97":2545081.2599999998,"ADDRESS":"勝學路１７８號","OBJECTID":627743},"geometry":{"x":171193.69000000041,"y":2545081.2600000016}},{"attributes":{"ID":627771,"DIS_CODE":0,"TOWNNAME":"永康區","LI":"崑山里","LIN":"32鄰","STREET":"國光三街","SECT":" ","MAREA":" ","LANE":" ","ALLEY":" ","HOUSE_NO":"１號","E_COORD97":174140.07999999999,"N_COORD97":2544852.5899999999,"ADDRESS":"國光三街１號","OBJECTID":627744},"geometry":{"x":174140.08000000007,"y":2544852.5899999999}},{"attributes":{"ID":627772,"DIS_CODE":0,"TOWNNAME":"安平區","LI":"平通里","LIN":"4鄰","STREET":"慶平路","SECT":" ","MAREA":" ","LANE":" ","ALLEY":" ","HOUSE_NO":"５３９號二十一樓之２","E_COORD97":165071.10999999999,"N_COORD97":2544210.6600000001,"ADDRESS":"慶平路５３９號二十一樓之２３","OBJECTID":627745},"geometry":{"x":165071.11000000034,"y":2544210.660000002}},{"attributes":{"ID":627773,"DIS_CODE":0,"TOWNNAME":"安平區","LI":"平通里","LIN":"4鄰","STREET":"慶平路","SECT":" ","MAREA":" ","LANE":" ","ALLEY":" ","HOUSE_NO":"５３９號二十一樓之３","E_COORD97":165071.10999999999,"N_COORD97":2544210.6600000001,"ADDRESS":"慶平路５３９號二十一樓之３","OBJECTID":627746},"geometry":{"x":165071.11000000034,"y":2544210.660000002}},{"attributes":{"ID":627774,"DIS_CODE":0,"TOWNNAME":"安平區","LI":"平通里","LIN":"4鄰","STREET":"慶平路","SECT":" ","MAREA":" ","LANE":" ","ALLEY":" ","HOUSE_NO":"５３９號二十一樓之５","E_COORD97":165071.10999999999,"N_COORD97":2544210.6600000001,"ADDRESS":"慶平路５３９號二十一樓之５","OBJECTID":627747},"geometry":{"x":165071.11000000034,"y":2544210.660000002}},{"attributes":{"ID":627775,"DIS_CODE":0,"TOWNNAME":"安平區","LI":"平通里","LIN":"4鄰","STREET":"慶平路","SECT":" ","MAREA":" ","LANE":" ","ALLEY":" ","HOUSE_NO":"５３９號二十一樓之６","E_COORD97":165071.10999999999,"N_COORD97":2544210.6600000001,"ADDRESS":"慶平路５３９號二十一樓之６","OBJECTID":627748},"geometry":{"x":165071.11000000034,"y":2544210.660000002}},{"attributes":{"ID":627776,"DIS_CODE":0,"TOWNNAME":"安平區","LI":"平通里","LIN":"4鄰","STREET":"慶平路","SECT":" ","MAREA":" ","LANE":" ","ALLEY":" ","HOUSE_NO":"５３９號二十一樓之７","E_COORD97":165071.10999999999,"N_COORD97":2544210.6600000001,"ADDRESS":"慶平路５３９號二十一樓之７","OBJECTID":627749},"geometry":{"x":165071.11000000034,"y":2544210.660000002}},{"attributes":{"ID":627777,"DIS_CODE":0,"TOWNNAME":"安平區","LI":"平通里","LIN":"4鄰","STREET":"慶平路","SECT":" ","MAREA":" ","LANE":" ","ALLEY":" ","HOUSE_NO":"５３９號二十一樓之８","E_COORD97":165071.10999999999,"N_COORD97":2544210.6600000001,"ADDRESS":"慶平路５３９號二十一樓之８","OBJECTID":627750},"geometry":{"x":165071.11000000034,"y":2544210.660000002}},{"attributes":{"ID":627778,"DIS_CODE":0,"TOWNNAME":"安平區","LI":"平通里","LIN":"4鄰","STREET":"慶平路","SECT":" ","MAREA":" ","LANE":" ","ALLEY":" ","HOUSE_NO":"５３９號二十一樓之９","E_COORD97":165071.10999999999,"N_COORD97":2544210.6600000001,"ADDRESS":"慶平路５３９號二十一樓之９","OBJECTID":627751},"geometry":{"x":165071.11000000034,"y":2544210.660000002}},{"attributes":{"ID":627779,"DIS_CODE":0,"TOWNNAME":"安平區","LI":"平通里","LIN":"4鄰","STREET":"慶平路","SECT":" ","MAREA":" ","LANE":" ","ALLEY":" ","HOUSE_NO":"５３９號二十三樓之１","E_COORD97":165071.10999999999,"N_COORD97":2544210.6600000001,"ADDRESS":"慶平路５３９號二十三樓之１","OBJECTID":627752},"geometry":{"x":165071.11000000034,"y":2544210.660000002}},{"attributes":{"ID":627780,"DIS_CODE":0,"TOWNNAME":"安平區","LI":"平通里","LIN":"4鄰","STREET":"慶平路","SECT":" ","MAREA":" ","LANE":" ","ALLEY":" ","HOUSE_NO":"５３９號二十三樓之１","E_COORD97":165071.10999999999,"N_COORD97":2544210.6600000001,"ADDRESS":"慶平路５３９號二十三樓之１０","OBJECTID":627753},"geometry":{"x":165071.11000000034,"y":2544210.660000002}},{"attributes":{"ID":627781,"DIS_CODE":0,"TOWNNAME":"安平區","LI":"平通里","LIN":"4鄰","STREET":"慶平路","SECT":" ","MAREA":" ","LANE":" ","ALLEY":" ","HOUSE_NO":"５３９號二十三樓之１","E_COORD97":165071.10999999999,"N_COORD97":2544210.6600000001,"ADDRESS":"慶平路５３９號二十三樓之１１","OBJECTID":627754},"geometry":{"x":165071.11000000034,"y":2544210.660000002}},{"attributes":{"ID":627782,"DIS_CODE":0,"TOWNNAME":"安平區","LI":"平通里","LIN":"4鄰","STREET":"慶平路","SECT":" ","MAREA":" ","LANE":" ","ALLEY":" ","HOUSE_NO":"５３９號二十三樓之１","E_COORD97":165071.10999999999,"N_COORD97":2544210.6600000001,"ADDRESS":"慶平路５３９號二十三樓之１２","OBJECTID":627755},"geometry":{"x":165071.11000000034,"y":2544210.660000002}},{"attributes":{"ID":627783,"DIS_CODE":0,"TOWNNAME":"安平區","LI":"平通里","LIN":"4鄰","STREET":"慶平路","SECT":" ","MAREA":" ","LANE":" ","ALLEY":" ","HOUSE_NO":"５３９號二十三樓之１","E_COORD97":165071.10999999999,"N_COORD97":2544210.6600000001,"ADDRESS":"慶平路５３９號二十三樓之１３","OBJECTID":627756},"geometry":{"x":165071.11000000034,"y":2544210.660000002}},{"attributes":{"ID":627784,"DIS_CODE":0,"TOWNNAME":"安平區","LI":"平通里","LIN":"4鄰","STREET":"慶平路","SECT":" ","MAREA":" ","LANE":" ","ALLEY":" ","HOUSE_NO":"５３９號二十三樓之１","E_COORD97":165071.10999999999,"N_COORD97":2544210.6600000001,"ADDRESS":"慶平路５３９號二十三樓之１８","OBJECTID":627757},"geometry":{"x":165071.11000000034,"y":2544210.660000002}},{"attributes":{"ID":627785,"DIS_CODE":0,"TOWNNAME":"安平區","LI":"平通里","LIN":"4鄰","STREET":"慶平路","SECT":" ","MAREA":" ","LANE":" ","ALLEY":" ","HOUSE_NO":"５３９號二十三樓之２","E_COORD97":165071.10999999999,"N_COORD97":2544210.6600000001,"ADDRESS":"慶平路５３９號二十三樓之２","OBJECTID":627758},"geometry":{"x":165071.11000000034,"y":2544210.660000002}},{"attributes":{"ID":627786,"DIS_CODE":0,"TOWNNAME":"安平區","LI":"平通里","LIN":"4鄰","STREET":"慶平路","SECT":" ","MAREA":" ","LANE":" ","ALLEY":" ","HOUSE_NO":"５３９號二十三樓之３","E_COORD97":165071.10999999999,"N_COORD97":2544210.6600000001,"ADDRESS":"慶平路５３９號二十三樓之３","OBJECTID":627759},"geometry":{"x":165071.11000000034,"y":2544210.660000002}},{"attributes":{"ID":627787,"DIS_CODE":0,"TOWNNAME":"安平區","LI":"平通里","LIN":"4鄰","STREET":"慶平路","SECT":" ","MAREA":" ","LANE":" ","ALLEY":" ","HOUSE_NO":"５３９號二十三樓之５","E_COORD97":165071.10999999999,"N_COORD97":2544210.6600000001,"ADDRESS":"慶平路５３９號二十三樓之５","OBJECTID":627760},"geometry":{"x":165071.11000000034,"y":2544210.660000002}},{"attributes":{"ID":627788,"DIS_CODE":0,"TOWNNAME":"安平區","LI":"平通里","LIN":"4鄰","STREET":"慶平路","SECT":" ","MAREA":" ","LANE":" ","ALLEY":" ","HOUSE_NO":"５３９號二十三樓之６","E_COORD97":165071.10999999999,"N_COORD97":2544210.6600000001,"ADDRESS":"慶平路５３９號二十三樓之６","OBJECTID":627761},"geometry":{"x":165071.11000000034,"y":2544210.660000002}},{"attributes":{"ID":627789,"DIS_CODE":0,"TOWNNAME":"安平區","LI":"平通里","LIN":"4鄰","STREET":"慶平路","SECT":" ","MAREA":" ","LANE":" ","ALLEY":" ","HOUSE_NO":"５３９號二十三樓之７","E_COORD97":165071.10999999999,"N_COORD97":2544210.6600000001,"ADDRESS":"慶平路５３９號二十三樓之７","OBJECTID":627762},"geometry":{"x":165071.11000000034,"y":2544210.660000002}},{"attributes":{"ID":627790,"DIS_CODE":0,"TOWNNAME":"安平區","LI":"平通里","LIN":"4鄰","STREET":"慶平路","SECT":" ","MAREA":" ","LANE":" ","ALLEY":" ","HOUSE_NO":"５３９號二十三樓之８","E_COORD97":165071.10999999999,"N_COORD97":2544210.6600000001,"ADDRESS":"慶平路５３９號二十三樓之８","OBJECTID":627763},"geometry":{"x":165071.11000000034,"y":2544210.660000002}},{"attributes":{"ID":627791,"DIS_CODE":0,"TOWNNAME":"安平區","LI":"平通里","LIN":"4鄰","STREET":"慶平路","SECT":" ","MAREA":" ","LANE":" ","ALLEY":" ","HOUSE_NO":"５３９號二十三樓之９","E_COORD97":165071.10999999999,"N_COORD97":2544210.6600000001,"ADDRESS":"慶平路５３９號二十三樓之９","OBJECTID":627764},"geometry":{"x":165071.11000000034,"y":2544210.660000002}},{"attributes":{"ID":627792,"DIS_CODE":0,"TOWNNAME":"安平區","LI":"平通里","LIN":"4鄰","STREET":"慶平路","SECT":" ","MAREA":" ","LANE":" ","ALLEY":" ","HOUSE_NO":"５３９號十一樓之１","E_COORD97":165071.10999999999,"N_COORD97":2544210.6600000001,"ADDRESS":"慶平路５３９號十一樓之１","OBJECTID":627765},"geometry":{"x":165071.11000000034,"y":2544210.660000002}},{"attributes":{"ID":627793,"DIS_CODE":0,"TOWNNAME":"安平區","LI":"平通里","LIN":"4鄰","STREET":"慶平路","SECT":" ","MAREA":" ","LANE":" ","ALLEY":" ","HOUSE_NO":"５３９號十一樓之１０","E_COORD97":165071.10999999999,"N_COORD97":2544210.6600000001,"ADDRESS":"慶平路５３９號十一樓之１０","OBJECTID":627766},"geometry":{"x":165071.11000000034,"y":2544210.660000002}},{"attributes":{"ID":627794,"DIS_CODE":0,"TOWNNAME":"安平區","LI":"平通里","LIN":"4鄰","STREET":"慶平路","SECT":" ","MAREA":" ","LANE":" ","ALLEY":" ","HOUSE_NO":"５３９號十一樓之１１","E_COORD97":165071.10999999999,"N_COORD97":2544210.6600000001,"ADDRESS":"慶平路５３９號十一樓之１１","OBJECTID":627767},"geometry":{"x":165071.11000000034,"y":2544210.660000002}},{"attributes":{"ID":627795,"DIS_CODE":0,"TOWNNAME":"安平區","LI":"平通里","LIN":"4鄰","STREET":"慶平路","SECT":" ","MAREA":" ","LANE":" ","ALLEY":" ","HOUSE_NO":"５３９號十一樓之１２","E_COORD97":165071.10999999999,"N_COORD97":2544210.6600000001,"ADDRESS":"慶平路５３９號十一樓之１２","OBJECTID":627768},"geometry":{"x":165071.11000000034,"y":2544210.660000002}},{"attributes":{"ID":627796,"DIS_CODE":0,"TOWNNAME":"安平區","LI":"平通里","LIN":"4鄰","STREET":"慶平路","SECT":" ","MAREA":" ","LANE":" ","ALLEY":" ","HOUSE_NO":"５３９號十一樓之１３","E_COORD97":165071.10999999999,"N_COORD97":2544210.6600000001,"ADDRESS":"慶平路５３９號十一樓之１３","OBJECTID":627769},"geometry":{"x":165071.11000000034,"y":2544210.660000002}},{"attributes":{"ID":627797,"DIS_CODE":0,"TOWNNAME":"安平區","LI":"平通里","LIN":"4鄰","STREET":"慶平路","SECT":" ","MAREA":" ","LANE":" ","ALLEY":" ","HOUSE_NO":"５３９號十一樓之１４","E_COORD97":165071.10999999999,"N_COORD97":2544210.6600000001,"ADDRESS":"慶平路５３９號十一樓之１４","OBJECTID":627770},"geometry":{"x":165071.11000000034,"y":2544210.660000002}},{"attributes":{"ID":627798,"DIS_CODE":0,"TOWNNAME":"安平區","LI":"平通里","LIN":"4鄰","STREET":"慶平路","SECT":" ","MAREA":" ","LANE":" ","ALLEY":" ","HOUSE_NO":"５３９號十一樓之１５","E_COORD97":165071.10999999999,"N_COORD97":2544210.6600000001,"ADDRESS":"慶平路５３９號十一樓之１５","OBJECTID":627771},"geometry":{"x":165071.11000000034,"y":2544210.660000002}},{"attributes":{"ID":627799,"DIS_CODE":0,"TOWNNAME":"安平區","LI":"平通里","LIN":"4鄰","STREET":"慶平路","SECT":" ","MAREA":" ","LANE":" ","ALLEY":" ","HOUSE_NO":"５３９號十一樓之１６","E_COORD97":165071.10999999999,"N_COORD97":2544210.6600000001,"ADDRESS":"慶平路５３９號十一樓之１６","OBJECTID":627772},"geometry":{"x":165071.11000000034,"y":2544210.660000002}},{"attributes":{"ID":627800,"DIS_CODE":0,"TOWNNAME":"安平區","LI":"平通里","LIN":"4鄰","STREET":"慶平路","SECT":" ","MAREA":" ","LANE":" ","ALLEY":" ","HOUSE_NO":"５３９號十一樓之１７","E_COORD97":165071.10999999999,"N_COORD97":2544210.6600000001,"ADDRESS":"慶平路５３９號十一樓之１７","OBJECTID":627773},"geometry":{"x":165071.11000000034,"y":2544210.660000002}},{"attributes":{"ID":627801,"DIS_CODE":0,"TOWNNAME":"安平區","LI":"平通里","LIN":"4鄰","STREET":"慶平路","SECT":" ","MAREA":" ","LANE":" ","ALLEY":" ","HOUSE_NO":"５３９號十一樓之１８","E_COORD97":165071.10999999999,"N_COORD97":2544210.6600000001,"ADDRESS":"慶平路５３９號十一樓之１８","OBJECTID":627774},"geometry":{"x":165071.11000000034,"y":2544210.660000002}},{"attributes":{"ID":627802,"DIS_CODE":0,"TOWNNAME":"安平區","LI":"平通里","LIN":"4鄰","STREET":"慶平路","SECT":" ","MAREA":" ","LANE":" ","ALLEY":" ","HOUSE_NO":"５３９號十一樓之１９","E_COORD97":165071.10999999999,"N_COORD97":2544210.6600000001,"ADDRESS":"慶平路５３９號十一樓之１９","OBJECTID":627775},"geometry":{"x":165071.11000000034,"y":2544210.660000002}},{"attributes":{"ID":627803,"DIS_CODE":0,"TOWNNAME":"安平區","LI":"平通里","LIN":"4鄰","STREET":"慶平路","SECT":" ","MAREA":" ","LANE":" ","ALLEY":" ","HOUSE_NO":"５３９號十一樓之２","E_COORD97":165071.10999999999,"N_COORD97":2544210.6600000001,"ADDRESS":"慶平路５３９號十一樓之２","OBJECTID":627776},"geometry":{"x":165071.11000000034,"y":2544210.660000002}},{"attributes":{"ID":627804,"DIS_CODE":0,"TOWNNAME":"安平區","LI":"平通里","LIN":"4鄰","STREET":"慶平路","SECT":" ","MAREA":" ","LANE":" ","ALLEY":" ","HOUSE_NO":"５３９號十一樓之２０","E_COORD97":165071.10999999999,"N_COORD97":2544210.6600000001,"ADDRESS":"慶平路５３９號十一樓之２０","OBJECTID":627777},"geometry":{"x":165071.11000000034,"y":2544210.660000002}},{"attributes":{"ID":627805,"DIS_CODE":0,"TOWNNAME":"安平區","LI":"平通里","LIN":"4鄰","STREET":"慶平路","SECT":" ","MAREA":" ","LANE":" ","ALLEY":" ","HOUSE_NO":"５３９號十一樓之３","E_COORD97":165071.10999999999,"N_COORD97":2544210.6600000001,"ADDRESS":"慶平路５３９號十一樓之３","OBJECTID":627778},"geometry":{"x":165071.11000000034,"y":2544210.660000002}},{"attributes":{"ID":627806,"DIS_CODE":0,"TOWNNAME":"安平區","LI":"平通里","LIN":"4鄰","STREET":"慶平路","SECT":" ","MAREA":" ","LANE":" ","ALLEY":" ","HOUSE_NO":"５３９號十一樓之５","E_COORD97":165071.10999999999,"N_COORD97":2544210.6600000001,"ADDRESS":"慶平路５３９號十一樓之５","OBJECTID":627779},"geometry":{"x":165071.11000000034,"y":2544210.660000002}},{"attributes":{"ID":627807,"DIS_CODE":0,"TOWNNAME":"安平區","LI":"平通里","LIN":"4鄰","STREET":"慶平路","SECT":" ","MAREA":" ","LANE":" ","ALLEY":" ","HOUSE_NO":"５３９號十一樓之６","E_COORD97":165071.10999999999,"N_COORD97":2544210.6600000001,"ADDRESS":"慶平路５３９號十一樓之６","OBJECTID":627780},"geometry":{"x":165071.11000000034,"y":2544210.660000002}},{"attributes":{"ID":627808,"DIS_CODE":0,"TOWNNAME":"安平區","LI":"平通里","LIN":"4鄰","STREET":"慶平路","SECT":" ","MAREA":" ","LANE":" ","ALLEY":" ","HOUSE_NO":"５３９號十一樓之７","E_COORD97":165071.10999999999,"N_COORD97":2544210.6600000001,"ADDRESS":"慶平路５３９號十一樓之７","OBJECTID":627781},"geometry":{"x":165071.11000000034,"y":2544210.660000002}},{"attributes":{"ID":627809,"DIS_CODE":0,"TOWNNAME":"安平區","LI":"平通里","LIN":"4鄰","STREET":"慶平路","SECT":" ","MAREA":" ","LANE":" ","ALLEY":" ","HOUSE_NO":"５３９號十一樓之８","E_COORD97":165071.10999999999,"N_COORD97":2544210.6600000001,"ADDRESS":"慶平路５３９號十一樓之８","OBJECTID":627782},"geometry":{"x":165071.11000000034,"y":2544210.660000002}},{"attributes":{"ID":627810,"DIS_CODE":0,"TOWNNAME":"安平區","LI":"平通里","LIN":"4鄰","STREET":"慶平路","SECT":" ","MAREA":" ","LANE":" ","ALLEY":" ","HOUSE_NO":"５３９號十一樓之９","E_COORD97":165071.10999999999,"N_COORD97":2544210.6600000001,"ADDRESS":"慶平路５３９號十一樓之９","OBJECTID":627783},"geometry":{"x":165071.11000000034,"y":2544210.660000002}},{"attributes":{"ID":627811,"DIS_CODE":0,"TOWNNAME":"安平區","LI":"平通里","LIN":"4鄰","STREET":"慶平路","SECT":" ","MAREA":" ","LANE":" ","ALLEY":" ","HOUSE_NO":"５３９號十七樓之１","E_COORD97":165071.10999999999,"N_COORD97":2544210.6600000001,"ADDRESS":"慶平路５３９號十七樓之１","OBJECTID":627784},"geometry":{"x":165071.11000000034,"y":2544210.660000002}},{"attributes":{"ID":627812,"DIS_CODE":0,"TOWNNAME":"安平區","LI":"平通里","LIN":"4鄰","STREET":"慶平路","SECT":" ","MAREA":" ","LANE":" ","ALLEY":" ","HOUSE_NO":"５３９號十七樓之１０","E_COORD97":165071.10999999999,"N_COORD97":2544210.6600000001,"ADDRESS":"慶平路５３９號十七樓之１０","OBJECTID":627785},"geometry":{"x":165071.11000000034,"y":2544210.660000002}},{"attributes":{"ID":627813,"DIS_CODE":0,"TOWNNAME":"安平區","LI":"平通里","LIN":"4鄰","STREET":"慶平路","SECT":" ","MAREA":" ","LANE":" ","ALLEY":" ","HOUSE_NO":"５３９號十七樓之１１","E_COORD97":165071.10999999999,"N_COORD97":2544210.6600000001,"ADDRESS":"慶平路５３９號十七樓之１１","OBJECTID":627786},"geometry":{"x":165071.11000000034,"y":2544210.660000002}},{"attributes":{"ID":627814,"DIS_CODE":0,"TOWNNAME":"安平區","LI":"平通里","LIN":"4鄰","STREET":"慶平路","SECT":" ","MAREA":" ","LANE":" ","ALLEY":" ","HOUSE_NO":"５３９號十七樓之１２","E_COORD97":165071.10999999999,"N_COORD97":2544210.6600000001,"ADDRESS":"慶平路５３９號十七樓之１２","OBJECTID":627787},"geometry":{"x":165071.11000000034,"y":2544210.660000002}},{"attributes":{"ID":627815,"DIS_CODE":0,"TOWNNAME":"安平區","LI":"平通里","LIN":"4鄰","STREET":"慶平路","SECT":" ","MAREA":" ","LANE":" ","ALLEY":" ","HOUSE_NO":"５３９號十七樓之１３","E_COORD97":165071.10999999999,"N_COORD97":2544210.6600000001,"ADDRESS":"慶平路５３９號十七樓之１３","OBJECTID":627788},"geometry":{"x":165071.11000000034,"y":2544210.660000002}},{"attributes":{"ID":627816,"DIS_CODE":0,"TOWNNAME":"安平區","LI":"平通里","LIN":"4鄰","STREET":"慶平路","SECT":" ","MAREA":" ","LANE":" ","ALLEY":" ","HOUSE_NO":"５３９號十七樓之１４","E_COORD97":165071.10999999999,"N_COORD97":2544210.6600000001,"ADDRESS":"慶平路５３９號十七樓之１４","OBJECTID":627789},"geometry":{"x":165071.11000000034,"y":2544210.660000002}},{"attributes":{"ID":627817,"DIS_CODE":0,"TOWNNAME":"安平區","LI":"平通里","LIN":"4鄰","STREET":"慶平路","SECT":" ","MAREA":" ","LANE":" ","ALLEY":" ","HOUSE_NO":"５３９號十七樓之１５","E_COORD97":165071.10999999999,"N_COORD97":2544210.6600000001,"ADDRESS":"慶平路５３９號十七樓之１５","OBJECTID":627790},"geometry":{"x":165071.11000000034,"y":2544210.660000002}},{"attributes":{"ID":627818,"DIS_CODE":0,"TOWNNAME":"安平區","LI":"平通里","LIN":"4鄰","STREET":"慶平路","SECT":" ","MAREA":" ","LANE":" ","ALLEY":" ","HOUSE_NO":"５３９號十七樓之１６","E_COORD97":165071.10999999999,"N_COORD97":2544210.6600000001,"ADDRESS":"慶平路５３９號十七樓之１６","OBJECTID":627791},"geometry":{"x":165071.11000000034,"y":2544210.660000002}},{"attributes":{"ID":627819,"DIS_CODE":0,"TOWNNAME":"安平區","LI":"平通里","LIN":"4鄰","STREET":"慶平路","SECT":" ","MAREA":" ","LANE":" ","ALLEY":" ","HOUSE_NO":"５３９號十七樓之１７","E_COORD97":165071.10999999999,"N_COORD97":2544210.6600000001,"ADDRESS":"慶平路５３９號十七樓之１７","OBJECTID":627792},"geometry":{"x":165071.11000000034,"y":2544210.660000002}},{"attributes":{"ID":627820,"DIS_CODE":0,"TOWNNAME":"安平區","LI":"平通里","LIN":"4鄰","STREET":"慶平路","SECT":" ","MAREA":" ","LANE":" ","ALLEY":" ","HOUSE_NO":"５３９號十七樓之１８","E_COORD97":165071.10999999999,"N_COORD97":2544210.6600000001,"ADDRESS":"慶平路５３９號十七樓之１８","OBJECTID":627793},"geometry":{"x":165071.11000000034,"y":2544210.660000002}},{"attributes":{"ID":627821,"DIS_CODE":0,"TOWNNAME":"安平區","LI":"平通里","LIN":"4鄰","STREET":"慶平路","SECT":" ","MAREA":" ","LANE":" ","ALLEY":" ","HOUSE_NO":"５３９號十七樓之１９","E_COORD97":165071.10999999999,"N_COORD97":2544210.6600000001,"ADDRESS":"慶平路５３９號十七樓之１９","OBJECTID":627794},"geometry":{"x":165071.11000000034,"y":2544210.660000002}},{"attributes":{"ID":627822,"DIS_CODE":0,"TOWNNAME":"安平區","LI":"平通里","LIN":"4鄰","STREET":"慶平路","SECT":" ","MAREA":" ","LANE":" ","ALLEY":" ","HOUSE_NO":"５３９號十七樓之２","E_COORD97":165071.10999999999,"N_COORD97":2544210.6600000001,"ADDRESS":"慶平路５３９號十七樓之２","OBJECTID":627795},"geometry":{"x":165071.11000000034,"y":2544210.660000002}},{"attributes":{"ID":627823,"DIS_CODE":0,"TOWNNAME":"安平區","LI":"平通里","LIN":"4鄰","STREET":"慶平路","SECT":" ","MAREA":" ","LANE":" ","ALLEY":" ","HOUSE_NO":"５３９號十七樓之２０","E_COORD97":165071.10999999999,"N_COORD97":2544210.6600000001,"ADDRESS":"慶平路５３９號十七樓之２０","OBJECTID":627796},"geometry":{"x":165071.11000000034,"y":2544210.660000002}},{"attributes":{"ID":627824,"DIS_CODE":0,"TOWNNAME":"安平區","LI":"平通里","LIN":"4鄰","STREET":"慶平路","SECT":" ","MAREA":" ","LANE":" ","ALLEY":" ","HOUSE_NO":"５３９號十七樓之２１","E_COORD97":165071.10999999999,"N_COORD97":2544210.6600000001,"ADDRESS":"慶平路５３９號十七樓之２１","OBJECTID":627797},"geometry":{"x":165071.11000000034,"y":2544210.660000002}},{"attributes":{"ID":627825,"DIS_CODE":0,"TOWNNAME":"安平區","LI":"平通里","LIN":"4鄰","STREET":"慶平路","SECT":" ","MAREA":" ","LANE":" ","ALLEY":" ","HOUSE_NO":"５３９號十七樓之２２","E_COORD97":165071.10999999999,"N_COORD97":2544210.6600000001,"ADDRESS":"慶平路５３９號十七樓之２２","OBJECTID":627798},"geometry":{"x":165071.11000000034,"y":2544210.660000002}},{"attributes":{"ID":627826,"DIS_CODE":0,"TOWNNAME":"安平區","LI":"平通里","LIN":"4鄰","STREET":"慶平路","SECT":" ","MAREA":" ","LANE":" ","ALLEY":" ","HOUSE_NO":"５３９號十七樓之２３","E_COORD97":165071.10999999999,"N_COORD97":2544210.6600000001,"ADDRESS":"慶平路５３９號十七樓之２３","OBJECTID":627799},"geometry":{"x":165071.11000000034,"y":2544210.660000002}},{"attributes":{"ID":627827,"DIS_CODE":0,"TOWNNAME":"安平區","LI":"平通里","LIN":"4鄰","STREET":"慶平路","SECT":" ","MAREA":" ","LANE":" ","ALLEY":" ","HOUSE_NO":"５３９號十七樓之２４","E_COORD97":165071.10999999999,"N_COORD97":2544210.6600000001,"ADDRESS":"慶平路５３９號十七樓之２４","OBJECTID":627800},"geometry":{"x":165071.11000000034,"y":2544210.660000002}}]}